{"displayFieldName":"TOWNNAME","fieldAliases":{"ID":"ID","DIS_CODE":"DIS_CODE","TOWNNAME":"TOWNNAME","LI":"LI","LIN":"LIN","STREET":"STREET","SECT":"SECT","MAREA":"MAREA","LANE":"LANE","ALLEY":"ALLEY","HOUSE_NO":"HOUSE_NO","E_COORD97":"E_COORD97","N_COORD97":"N_COORD97","ADDRESS":"ADDRESS","OBJECTID":"OBJECTID"},"geometryType":"esriGeometryPoint","spatialReference":{"wkid":102443,"latestWkid":3826},"fields":[{"name":"ID","type":"esriFieldTypeDouble","alias":"ID"},{"name":"DIS_CODE","type":"esriFieldTypeInteger","alias":"DIS_CODE"},{"name":"TOWNNAME","type":"esriFieldTypeString","alias":"TOWNNAME","length":8},{"name":"LI","type":"esriFieldTypeString","alias":"LI","length":8},{"name":"LIN","type":"esriFieldTypeString","alias":"LIN","length":12},{"name":"STREET","type":"esriFieldTypeString","alias":"STREET","length":20},{"name":"SECT","type":"esriFieldTypeString","alias":"SECT","length":8},{"name":"MAREA","type":"esriFieldTypeString","alias":"MAREA","length":12},{"name":"LANE","type":"esriFieldTypeString","alias":"LANE","length":10},{"name":"ALLEY","type":"esriFieldTypeString","alias":"ALLEY","length":10},{"name":"HOUSE_NO","type":"esriFieldTypeString","alias":"HOUSE_NO","length":20},{"name":"E_COORD97","type":"esriFieldTypeDouble","alias":"E_COORD97"},{"name":"N_COORD97","type":"esriFieldTypeDouble","alias":"N_COORD97"},{"name":"ADDRESS","type":"esriFieldTypeString","alias":"ADDRESS","length":50},{"name":"OBJECTID","type":"esriFieldTypeOID","alias":"OBJECTID"}],"features":[{"attributes":{"ID":525428,"DIS_CODE":0,"TOWNNAME":"新市區","LI":"港墘里","LIN":"6鄰","STREET":"國際路","SECT":" ","MAREA":" ","LANE":" ","ALLEY":" ","HOUSE_NO":"１３號五樓之７","E_COORD97":178055.37,"N_COORD97":2553170.1899999999,"ADDRESS":"國際路１３號五樓之７","OBJECTID":525401},"geometry":{"x":178055.37000000104,"y":2553170.1900000013}},{"attributes":{"ID":525429,"DIS_CODE":0,"TOWNNAME":"新市區","LI":"港墘里","LIN":"6鄰","STREET":"國際路","SECT":" ","MAREA":" ","LANE":" ","ALLEY":" ","HOUSE_NO":"１３號五樓之８","E_COORD97":178055.37,"N_COORD97":2553170.1899999999,"ADDRESS":"國際路１３號五樓之８","OBJECTID":525402},"geometry":{"x":178055.37000000104,"y":2553170.1900000013}},{"attributes":{"ID":525430,"DIS_CODE":0,"TOWNNAME":"新市區","LI":"港墘里","LIN":"6鄰","STREET":"國際路","SECT":" ","MAREA":" ","LANE":" ","ALLEY":" ","HOUSE_NO":"１３號五樓之９","E_COORD97":178055.37,"N_COORD97":2553170.1899999999,"ADDRESS":"國際路１３號五樓之９","OBJECTID":525403},"geometry":{"x":178055.37000000104,"y":2553170.1900000013}},{"attributes":{"ID":525431,"DIS_CODE":0,"TOWNNAME":"新市區","LI":"港墘里","LIN":"6鄰","STREET":"國際路","SECT":" ","MAREA":" ","LANE":" ","ALLEY":" ","HOUSE_NO":"１３號五樓之１０","E_COORD97":178055.37,"N_COORD97":2553170.1899999999,"ADDRESS":"國際路１３號五樓之１０","OBJECTID":525404},"geometry":{"x":178055.37000000104,"y":2553170.1900000013}},{"attributes":{"ID":525432,"DIS_CODE":0,"TOWNNAME":"新市區","LI":"港墘里","LIN":"6鄰","STREET":"國際路","SECT":" ","MAREA":" ","LANE":" ","ALLEY":" ","HOUSE_NO":"１３號六樓之１","E_COORD97":178055.37,"N_COORD97":2553170.1899999999,"ADDRESS":"國際路１３號六樓之１","OBJECTID":525405},"geometry":{"x":178055.37000000104,"y":2553170.1900000013}},{"attributes":{"ID":525433,"DIS_CODE":0,"TOWNNAME":"新市區","LI":"港墘里","LIN":"6鄰","STREET":"國際路","SECT":" ","MAREA":" ","LANE":" ","ALLEY":" ","HOUSE_NO":"１３號六樓之２","E_COORD97":178055.37,"N_COORD97":2553170.1899999999,"ADDRESS":"國際路１３號六樓之２","OBJECTID":525406},"geometry":{"x":178055.37000000104,"y":2553170.1900000013}},{"attributes":{"ID":525434,"DIS_CODE":0,"TOWNNAME":"新市區","LI":"港墘里","LIN":"6鄰","STREET":"國際路","SECT":" ","MAREA":" ","LANE":" ","ALLEY":" ","HOUSE_NO":"１３號六樓之３","E_COORD97":178055.37,"N_COORD97":2553170.1899999999,"ADDRESS":"國際路１３號六樓之３","OBJECTID":525407},"geometry":{"x":178055.37000000104,"y":2553170.1900000013}},{"attributes":{"ID":525435,"DIS_CODE":0,"TOWNNAME":"新市區","LI":"港墘里","LIN":"6鄰","STREET":"國際路","SECT":" ","MAREA":" ","LANE":" ","ALLEY":" ","HOUSE_NO":"１３號六樓之５","E_COORD97":178055.37,"N_COORD97":2553170.1899999999,"ADDRESS":"國際路１３號六樓之５","OBJECTID":525408},"geometry":{"x":178055.37000000104,"y":2553170.1900000013}},{"attributes":{"ID":525436,"DIS_CODE":0,"TOWNNAME":"新市區","LI":"港墘里","LIN":"6鄰","STREET":"國際路","SECT":" ","MAREA":" ","LANE":" ","ALLEY":" ","HOUSE_NO":"１３號六樓之６","E_COORD97":178055.37,"N_COORD97":2553170.1899999999,"ADDRESS":"國際路１３號六樓之６","OBJECTID":525409},"geometry":{"x":178055.37000000104,"y":2553170.1900000013}},{"attributes":{"ID":525437,"DIS_CODE":0,"TOWNNAME":"新市區","LI":"港墘里","LIN":"6鄰","STREET":"國際路","SECT":" ","MAREA":" ","LANE":" ","ALLEY":" ","HOUSE_NO":"１３號六樓之７","E_COORD97":178055.37,"N_COORD97":2553170.1899999999,"ADDRESS":"國際路１３號六樓之７","OBJECTID":525410},"geometry":{"x":178055.37000000104,"y":2553170.1900000013}},{"attributes":{"ID":525438,"DIS_CODE":0,"TOWNNAME":"新市區","LI":"港墘里","LIN":"6鄰","STREET":"國際路","SECT":" ","MAREA":" ","LANE":" ","ALLEY":" ","HOUSE_NO":"１３號六樓之８","E_COORD97":178055.37,"N_COORD97":2553170.1899999999,"ADDRESS":"國際路１３號六樓之８","OBJECTID":525411},"geometry":{"x":178055.37000000104,"y":2553170.1900000013}},{"attributes":{"ID":525439,"DIS_CODE":0,"TOWNNAME":"新市區","LI":"港墘里","LIN":"6鄰","STREET":"國際路","SECT":" ","MAREA":" ","LANE":" ","ALLEY":" ","HOUSE_NO":"１３號六樓之９","E_COORD97":178055.37,"N_COORD97":2553170.1899999999,"ADDRESS":"國際路１３號六樓之９","OBJECTID":525412},"geometry":{"x":178055.37000000104,"y":2553170.1900000013}},{"attributes":{"ID":525440,"DIS_CODE":0,"TOWNNAME":"新市區","LI":"港墘里","LIN":"6鄰","STREET":"國際路","SECT":" ","MAREA":" ","LANE":" ","ALLEY":" ","HOUSE_NO":"１３號六樓之１０","E_COORD97":178055.37,"N_COORD97":2553170.1899999999,"ADDRESS":"國際路１３號六樓之１０","OBJECTID":525413},"geometry":{"x":178055.37000000104,"y":2553170.1900000013}},{"attributes":{"ID":525441,"DIS_CODE":0,"TOWNNAME":"新市區","LI":"港墘里","LIN":"6鄰","STREET":"國際路","SECT":" ","MAREA":" ","LANE":" ","ALLEY":" ","HOUSE_NO":"１３號七樓之１","E_COORD97":178055.37,"N_COORD97":2553170.1899999999,"ADDRESS":"國際路１３號七樓之１","OBJECTID":525414},"geometry":{"x":178055.37000000104,"y":2553170.1900000013}},{"attributes":{"ID":525442,"DIS_CODE":0,"TOWNNAME":"新市區","LI":"港墘里","LIN":"6鄰","STREET":"國際路","SECT":" ","MAREA":" ","LANE":" ","ALLEY":" ","HOUSE_NO":"１３號七樓之２","E_COORD97":178055.37,"N_COORD97":2553170.1899999999,"ADDRESS":"國際路１３號七樓之２","OBJECTID":525415},"geometry":{"x":178055.37000000104,"y":2553170.1900000013}},{"attributes":{"ID":525443,"DIS_CODE":0,"TOWNNAME":"新市區","LI":"港墘里","LIN":"6鄰","STREET":"國際路","SECT":" ","MAREA":" ","LANE":" ","ALLEY":" ","HOUSE_NO":"１３號七樓之３","E_COORD97":178055.37,"N_COORD97":2553170.1899999999,"ADDRESS":"國際路１３號七樓之３","OBJECTID":525416},"geometry":{"x":178055.37000000104,"y":2553170.1900000013}},{"attributes":{"ID":525444,"DIS_CODE":0,"TOWNNAME":"新市區","LI":"港墘里","LIN":"6鄰","STREET":"國際路","SECT":" ","MAREA":" ","LANE":" ","ALLEY":" ","HOUSE_NO":"１３號七樓之５","E_COORD97":178055.37,"N_COORD97":2553170.1899999999,"ADDRESS":"國際路１３號七樓之５","OBJECTID":525417},"geometry":{"x":178055.37000000104,"y":2553170.1900000013}},{"attributes":{"ID":525445,"DIS_CODE":0,"TOWNNAME":"新市區","LI":"港墘里","LIN":"6鄰","STREET":"國際路","SECT":" ","MAREA":" ","LANE":" ","ALLEY":" ","HOUSE_NO":"１３號七樓之６","E_COORD97":178055.37,"N_COORD97":2553170.1899999999,"ADDRESS":"國際路１３號七樓之６","OBJECTID":525418},"geometry":{"x":178055.37000000104,"y":2553170.1900000013}},{"attributes":{"ID":525446,"DIS_CODE":0,"TOWNNAME":"新市區","LI":"港墘里","LIN":"6鄰","STREET":"國際路","SECT":" ","MAREA":" ","LANE":" ","ALLEY":" ","HOUSE_NO":"１３號七樓之７","E_COORD97":178055.37,"N_COORD97":2553170.1899999999,"ADDRESS":"國際路１３號七樓之７","OBJECTID":525419},"geometry":{"x":178055.37000000104,"y":2553170.1900000013}},{"attributes":{"ID":525447,"DIS_CODE":0,"TOWNNAME":"新市區","LI":"港墘里","LIN":"6鄰","STREET":"國際路","SECT":" ","MAREA":" ","LANE":" ","ALLEY":" ","HOUSE_NO":"１３號七樓之８","E_COORD97":178055.37,"N_COORD97":2553170.1899999999,"ADDRESS":"國際路１３號七樓之８","OBJECTID":525420},"geometry":{"x":178055.37000000104,"y":2553170.1900000013}},{"attributes":{"ID":525448,"DIS_CODE":0,"TOWNNAME":"新市區","LI":"港墘里","LIN":"6鄰","STREET":"國際路","SECT":" ","MAREA":" ","LANE":" ","ALLEY":" ","HOUSE_NO":"１３號七樓之９","E_COORD97":178055.37,"N_COORD97":2553170.1899999999,"ADDRESS":"國際路１３號七樓之９","OBJECTID":525421},"geometry":{"x":178055.37000000104,"y":2553170.1900000013}},{"attributes":{"ID":525449,"DIS_CODE":0,"TOWNNAME":"新市區","LI":"港墘里","LIN":"6鄰","STREET":"國際路","SECT":" ","MAREA":" ","LANE":" ","ALLEY":" ","HOUSE_NO":"１３號七樓之１０","E_COORD97":178055.37,"N_COORD97":2553170.1899999999,"ADDRESS":"國際路１３號七樓之１０","OBJECTID":525422},"geometry":{"x":178055.37000000104,"y":2553170.1900000013}},{"attributes":{"ID":525450,"DIS_CODE":0,"TOWNNAME":"東區","LI":"文聖里","LIN":"6鄰","STREET":"裕農一街","SECT":" ","MAREA":" ","LANE":" ","ALLEY":" ","HOUSE_NO":"１８６號七樓","E_COORD97":171910.89999999999,"N_COORD97":2542639.48,"ADDRESS":"裕農一街１８６號七樓","OBJECTID":525423},"geometry":{"x":171910.90000000037,"y":2542639.4800000023}},{"attributes":{"ID":525451,"DIS_CODE":0,"TOWNNAME":"東區","LI":"文聖里","LIN":"6鄰","STREET":"裕農一街","SECT":" ","MAREA":" ","LANE":" ","ALLEY":" ","HOUSE_NO":"１８６號七樓之１","E_COORD97":171910.89999999999,"N_COORD97":2542639.48,"ADDRESS":"裕農一街１８６號七樓之１","OBJECTID":525424},"geometry":{"x":171910.90000000037,"y":2542639.4800000023}},{"attributes":{"ID":525452,"DIS_CODE":0,"TOWNNAME":"東區","LI":"文聖里","LIN":"6鄰","STREET":"裕農一街","SECT":" ","MAREA":" ","LANE":" ","ALLEY":" ","HOUSE_NO":"１８６號七樓之１０","E_COORD97":171910.89999999999,"N_COORD97":2542639.48,"ADDRESS":"裕農一街１８６號七樓之１０","OBJECTID":525425},"geometry":{"x":171910.90000000037,"y":2542639.4800000023}},{"attributes":{"ID":525453,"DIS_CODE":0,"TOWNNAME":"東區","LI":"文聖里","LIN":"6鄰","STREET":"裕農一街","SECT":" ","MAREA":" ","LANE":" ","ALLEY":" ","HOUSE_NO":"１８６號七樓之１１","E_COORD97":171910.89999999999,"N_COORD97":2542639.48,"ADDRESS":"裕農一街１８６號七樓之１１","OBJECTID":525426},"geometry":{"x":171910.90000000037,"y":2542639.4800000023}},{"attributes":{"ID":525454,"DIS_CODE":0,"TOWNNAME":"東區","LI":"文聖里","LIN":"6鄰","STREET":"裕農一街","SECT":" ","MAREA":" ","LANE":" ","ALLEY":" ","HOUSE_NO":"１８６號七樓之１２","E_COORD97":171910.89999999999,"N_COORD97":2542639.48,"ADDRESS":"裕農一街１８６號七樓之１２","OBJECTID":525427},"geometry":{"x":171910.90000000037,"y":2542639.4800000023}},{"attributes":{"ID":525455,"DIS_CODE":0,"TOWNNAME":"東區","LI":"文聖里","LIN":"6鄰","STREET":"裕農一街","SECT":" ","MAREA":" ","LANE":" ","ALLEY":" ","HOUSE_NO":"１８６號七樓之１３","E_COORD97":171910.89999999999,"N_COORD97":2542639.48,"ADDRESS":"裕農一街１８６號七樓之１３","OBJECTID":525428},"geometry":{"x":171910.90000000037,"y":2542639.4800000023}},{"attributes":{"ID":525456,"DIS_CODE":0,"TOWNNAME":"東區","LI":"文聖里","LIN":"6鄰","STREET":"裕農一街","SECT":" ","MAREA":" ","LANE":" ","ALLEY":" ","HOUSE_NO":"１８６號七樓之１４","E_COORD97":171910.89999999999,"N_COORD97":2542639.48,"ADDRESS":"裕農一街１８６號七樓之１４","OBJECTID":525429},"geometry":{"x":171910.90000000037,"y":2542639.4800000023}},{"attributes":{"ID":525457,"DIS_CODE":0,"TOWNNAME":"東區","LI":"文聖里","LIN":"6鄰","STREET":"裕農一街","SECT":" ","MAREA":" ","LANE":" ","ALLEY":" ","HOUSE_NO":"１８６號七樓之１５","E_COORD97":171910.89999999999,"N_COORD97":2542639.48,"ADDRESS":"裕農一街１８６號七樓之１５","OBJECTID":525430},"geometry":{"x":171910.90000000037,"y":2542639.4800000023}},{"attributes":{"ID":525458,"DIS_CODE":0,"TOWNNAME":"東區","LI":"文聖里","LIN":"6鄰","STREET":"裕農一街","SECT":" ","MAREA":" ","LANE":" ","ALLEY":" ","HOUSE_NO":"１８６號七樓之１６","E_COORD97":171910.89999999999,"N_COORD97":2542639.48,"ADDRESS":"裕農一街１８６號七樓之１６","OBJECTID":525431},"geometry":{"x":171910.90000000037,"y":2542639.4800000023}},{"attributes":{"ID":525459,"DIS_CODE":0,"TOWNNAME":"東區","LI":"文聖里","LIN":"6鄰","STREET":"裕農一街","SECT":" ","MAREA":" ","LANE":" ","ALLEY":" ","HOUSE_NO":"１８６號七樓之１９","E_COORD97":171910.89999999999,"N_COORD97":2542639.48,"ADDRESS":"裕農一街１８６號七樓之１９","OBJECTID":525432},"geometry":{"x":171910.90000000037,"y":2542639.4800000023}},{"attributes":{"ID":525460,"DIS_CODE":0,"TOWNNAME":"東區","LI":"東門里","LIN":"6鄰","STREET":"前鋒路","SECT":" ","MAREA":" ","LANE":" ","ALLEY":" ","HOUSE_NO":"６５號五樓","E_COORD97":169284.17000000001,"N_COORD97":2543485.4300000002,"ADDRESS":"前鋒路６５號五樓","OBJECTID":525433},"geometry":{"x":169284.17000000086,"y":2543485.4300000034}},{"attributes":{"ID":525461,"DIS_CODE":0,"TOWNNAME":"東區","LI":"文聖里","LIN":"6鄰","STREET":"裕農一街","SECT":" ","MAREA":" ","LANE":" ","ALLEY":" ","HOUSE_NO":"１８６號七樓之２","E_COORD97":171910.89999999999,"N_COORD97":2542639.48,"ADDRESS":"裕農一街１８６號七樓之２","OBJECTID":525434},"geometry":{"x":171910.90000000037,"y":2542639.4800000023}},{"attributes":{"ID":525462,"DIS_CODE":0,"TOWNNAME":"東區","LI":"文聖里","LIN":"6鄰","STREET":"裕農一街","SECT":" ","MAREA":" ","LANE":" ","ALLEY":" ","HOUSE_NO":"１８６號七樓之２０","E_COORD97":171910.89999999999,"N_COORD97":2542639.48,"ADDRESS":"裕農一街１８６號七樓之２０","OBJECTID":525435},"geometry":{"x":171910.90000000037,"y":2542639.4800000023}},{"attributes":{"ID":525463,"DIS_CODE":0,"TOWNNAME":"東區","LI":"文聖里","LIN":"6鄰","STREET":"裕農一街","SECT":" ","MAREA":" ","LANE":" ","ALLEY":" ","HOUSE_NO":"１８６號七樓之２１","E_COORD97":171910.89999999999,"N_COORD97":2542639.48,"ADDRESS":"裕農一街１８６號七樓之２１","OBJECTID":525436},"geometry":{"x":171910.90000000037,"y":2542639.4800000023}},{"attributes":{"ID":525464,"DIS_CODE":0,"TOWNNAME":"東區","LI":"文聖里","LIN":"6鄰","STREET":"裕農一街","SECT":" ","MAREA":" ","LANE":" ","ALLEY":" ","HOUSE_NO":"１８６號七樓之２２","E_COORD97":171910.89999999999,"N_COORD97":2542639.48,"ADDRESS":"裕農一街１８６號七樓之２２","OBJECTID":525437},"geometry":{"x":171910.90000000037,"y":2542639.4800000023}},{"attributes":{"ID":525465,"DIS_CODE":0,"TOWNNAME":"東區","LI":"文聖里","LIN":"6鄰","STREET":"裕農一街","SECT":" ","MAREA":" ","LANE":" ","ALLEY":" ","HOUSE_NO":"１８６號七樓之２３","E_COORD97":171910.89999999999,"N_COORD97":2542639.48,"ADDRESS":"裕農一街１８６號七樓之２３","OBJECTID":525438},"geometry":{"x":171910.90000000037,"y":2542639.4800000023}},{"attributes":{"ID":525466,"DIS_CODE":0,"TOWNNAME":"東區","LI":"文聖里","LIN":"6鄰","STREET":"裕農一街","SECT":" ","MAREA":" ","LANE":" ","ALLEY":" ","HOUSE_NO":"１８６號七樓之２４","E_COORD97":171910.89999999999,"N_COORD97":2542639.48,"ADDRESS":"裕農一街１８６號七樓之２４","OBJECTID":525439},"geometry":{"x":171910.90000000037,"y":2542639.4800000023}},{"attributes":{"ID":525467,"DIS_CODE":0,"TOWNNAME":"東區","LI":"文聖里","LIN":"6鄰","STREET":"裕農一街","SECT":" ","MAREA":" ","LANE":" ","ALLEY":" ","HOUSE_NO":"１８６號七樓之２５","E_COORD97":171910.89999999999,"N_COORD97":2542639.48,"ADDRESS":"裕農一街１８６號七樓之２５","OBJECTID":525440},"geometry":{"x":171910.90000000037,"y":2542639.4800000023}},{"attributes":{"ID":525468,"DIS_CODE":0,"TOWNNAME":"東區","LI":"文聖里","LIN":"6鄰","STREET":"裕農一街","SECT":" ","MAREA":" ","LANE":" ","ALLEY":" ","HOUSE_NO":"１８６號七樓之３","E_COORD97":171910.89999999999,"N_COORD97":2542639.48,"ADDRESS":"裕農一街１８６號七樓之３","OBJECTID":525441},"geometry":{"x":171910.90000000037,"y":2542639.4800000023}},{"attributes":{"ID":525469,"DIS_CODE":0,"TOWNNAME":"東區","LI":"文聖里","LIN":"6鄰","STREET":"裕農一街","SECT":" ","MAREA":" ","LANE":" ","ALLEY":" ","HOUSE_NO":"１８６號七樓之５","E_COORD97":171910.89999999999,"N_COORD97":2542639.48,"ADDRESS":"裕農一街１８６號七樓之５","OBJECTID":525442},"geometry":{"x":171910.90000000037,"y":2542639.4800000023}},{"attributes":{"ID":525470,"DIS_CODE":0,"TOWNNAME":"東區","LI":"文聖里","LIN":"6鄰","STREET":"裕農一街","SECT":" ","MAREA":" ","LANE":" ","ALLEY":" ","HOUSE_NO":"１８６號七樓之６","E_COORD97":171910.89999999999,"N_COORD97":2542639.48,"ADDRESS":"裕農一街１８６號七樓之６","OBJECTID":525443},"geometry":{"x":171910.90000000037,"y":2542639.4800000023}},{"attributes":{"ID":525471,"DIS_CODE":0,"TOWNNAME":"東區","LI":"文聖里","LIN":"6鄰","STREET":"裕農一街","SECT":" ","MAREA":" ","LANE":" ","ALLEY":" ","HOUSE_NO":"１８６號七樓之７","E_COORD97":171910.89999999999,"N_COORD97":2542639.48,"ADDRESS":"裕農一街１８６號七樓之７","OBJECTID":525444},"geometry":{"x":171910.90000000037,"y":2542639.4800000023}},{"attributes":{"ID":525472,"DIS_CODE":0,"TOWNNAME":"東區","LI":"文聖里","LIN":"6鄰","STREET":"裕農一街","SECT":" ","MAREA":" ","LANE":" ","ALLEY":" ","HOUSE_NO":"１８６號七樓之８","E_COORD97":171910.89999999999,"N_COORD97":2542639.48,"ADDRESS":"裕農一街１８６號七樓之８","OBJECTID":525445},"geometry":{"x":171910.90000000037,"y":2542639.4800000023}},{"attributes":{"ID":525473,"DIS_CODE":0,"TOWNNAME":"東區","LI":"文聖里","LIN":"6鄰","STREET":"裕農一街","SECT":" ","MAREA":" ","LANE":" ","ALLEY":" ","HOUSE_NO":"１８６號七樓之９","E_COORD97":171910.89999999999,"N_COORD97":2542639.48,"ADDRESS":"裕農一街１８６號七樓之９","OBJECTID":525446},"geometry":{"x":171910.90000000037,"y":2542639.4800000023}},{"attributes":{"ID":525474,"DIS_CODE":0,"TOWNNAME":"東區","LI":"文聖里","LIN":"6鄰","STREET":"裕農一街","SECT":" ","MAREA":" ","LANE":" ","ALLEY":" ","HOUSE_NO":"１８６號九樓","E_COORD97":171910.89999999999,"N_COORD97":2542639.48,"ADDRESS":"裕農一街１８６號九樓","OBJECTID":525447},"geometry":{"x":171910.90000000037,"y":2542639.4800000023}},{"attributes":{"ID":525475,"DIS_CODE":0,"TOWNNAME":"東區","LI":"文聖里","LIN":"6鄰","STREET":"裕農一街","SECT":" ","MAREA":" ","LANE":" ","ALLEY":" ","HOUSE_NO":"１８６號九樓之１４","E_COORD97":171910.89999999999,"N_COORD97":2542639.48,"ADDRESS":"裕農一街１８６號九樓之１４","OBJECTID":525448},"geometry":{"x":171910.90000000037,"y":2542639.4800000023}},{"attributes":{"ID":525476,"DIS_CODE":0,"TOWNNAME":"東區","LI":"泉南里","LIN":"6鄰","STREET":"東門路","SECT":"一段","MAREA":" ","LANE":" ","ALLEY":" ","HOUSE_NO":"８４號七樓之３","E_COORD97":169376.76999999999,"N_COORD97":2543185.3799999999,"ADDRESS":"東門路一段８４號七樓之３","OBJECTID":525449},"geometry":{"x":169376.76999999955,"y":2543185.379999999}},{"attributes":{"ID":525477,"DIS_CODE":0,"TOWNNAME":"東區","LI":"文聖里","LIN":"6鄰","STREET":"裕農一街","SECT":" ","MAREA":" ","LANE":" ","ALLEY":" ","HOUSE_NO":"１８６號九樓之１５","E_COORD97":171910.89999999999,"N_COORD97":2542639.48,"ADDRESS":"裕農一街１８６號九樓之１５","OBJECTID":525450},"geometry":{"x":171910.90000000037,"y":2542639.4800000023}},{"attributes":{"ID":525478,"DIS_CODE":0,"TOWNNAME":"東區","LI":"文聖里","LIN":"6鄰","STREET":"裕農一街","SECT":" ","MAREA":" ","LANE":" ","ALLEY":" ","HOUSE_NO":"１８６號九樓之１６","E_COORD97":171910.89999999999,"N_COORD97":2542639.48,"ADDRESS":"裕農一街１８６號九樓之１６","OBJECTID":525451},"geometry":{"x":171910.90000000037,"y":2542639.4800000023}},{"attributes":{"ID":525479,"DIS_CODE":0,"TOWNNAME":"東區","LI":"文聖里","LIN":"6鄰","STREET":"裕農一街","SECT":" ","MAREA":" ","LANE":" ","ALLEY":" ","HOUSE_NO":"１８６號九樓之１７","E_COORD97":171910.89999999999,"N_COORD97":2542639.48,"ADDRESS":"裕農一街１８６號九樓之１７","OBJECTID":525452},"geometry":{"x":171910.90000000037,"y":2542639.4800000023}},{"attributes":{"ID":525480,"DIS_CODE":0,"TOWNNAME":"東區","LI":"文聖里","LIN":"6鄰","STREET":"裕農一街","SECT":" ","MAREA":" ","LANE":" ","ALLEY":" ","HOUSE_NO":"１８６號九樓之１８","E_COORD97":171910.89999999999,"N_COORD97":2542639.48,"ADDRESS":"裕農一街１８６號九樓之１８","OBJECTID":525453},"geometry":{"x":171910.90000000037,"y":2542639.4800000023}},{"attributes":{"ID":525481,"DIS_CODE":0,"TOWNNAME":"東區","LI":"文聖里","LIN":"6鄰","STREET":"裕農一街","SECT":" ","MAREA":" ","LANE":" ","ALLEY":" ","HOUSE_NO":"１８６號九樓之１９","E_COORD97":171910.89999999999,"N_COORD97":2542639.48,"ADDRESS":"裕農一街１８６號九樓之１９","OBJECTID":525454},"geometry":{"x":171910.90000000037,"y":2542639.4800000023}},{"attributes":{"ID":525482,"DIS_CODE":0,"TOWNNAME":"東區","LI":"文聖里","LIN":"6鄰","STREET":"裕農一街","SECT":" ","MAREA":" ","LANE":" ","ALLEY":" ","HOUSE_NO":"１８６號九樓之２０","E_COORD97":171910.89999999999,"N_COORD97":2542639.48,"ADDRESS":"裕農一街１８６號九樓之２０","OBJECTID":525455},"geometry":{"x":171910.90000000037,"y":2542639.4800000023}},{"attributes":{"ID":525483,"DIS_CODE":0,"TOWNNAME":"東區","LI":"文聖里","LIN":"6鄰","STREET":"裕農一街","SECT":" ","MAREA":" ","LANE":" ","ALLEY":" ","HOUSE_NO":"１８６號九樓之２１","E_COORD97":171910.89999999999,"N_COORD97":2542639.48,"ADDRESS":"裕農一街１８６號九樓之２１","OBJECTID":525456},"geometry":{"x":171910.90000000037,"y":2542639.4800000023}},{"attributes":{"ID":525484,"DIS_CODE":0,"TOWNNAME":"東區","LI":"文聖里","LIN":"6鄰","STREET":"裕農一街","SECT":" ","MAREA":" ","LANE":" ","ALLEY":" ","HOUSE_NO":"１８６號九樓之２２","E_COORD97":171910.89999999999,"N_COORD97":2542639.48,"ADDRESS":"裕農一街１８６號九樓之２２","OBJECTID":525457},"geometry":{"x":171910.90000000037,"y":2542639.4800000023}},{"attributes":{"ID":525485,"DIS_CODE":0,"TOWNNAME":"東區","LI":"文聖里","LIN":"6鄰","STREET":"裕農一街","SECT":" ","MAREA":" ","LANE":" ","ALLEY":" ","HOUSE_NO":"１８６號九樓之２４","E_COORD97":171910.89999999999,"N_COORD97":2542639.48,"ADDRESS":"裕農一街１８６號九樓之２４","OBJECTID":525458},"geometry":{"x":171910.90000000037,"y":2542639.4800000023}},{"attributes":{"ID":525486,"DIS_CODE":0,"TOWNNAME":"東區","LI":"文聖里","LIN":"6鄰","STREET":"裕農一街","SECT":" ","MAREA":" ","LANE":" ","ALLEY":" ","HOUSE_NO":"１８６號九樓之２５","E_COORD97":171910.89999999999,"N_COORD97":2542639.48,"ADDRESS":"裕農一街１８６號九樓之２５","OBJECTID":525459},"geometry":{"x":171910.90000000037,"y":2542639.4800000023}},{"attributes":{"ID":525487,"DIS_CODE":0,"TOWNNAME":"東區","LI":"文聖里","LIN":"6鄰","STREET":"裕農一街","SECT":" ","MAREA":" ","LANE":" ","ALLEY":" ","HOUSE_NO":"１８６號二樓之１","E_COORD97":171910.89999999999,"N_COORD97":2542639.48,"ADDRESS":"裕農一街１８６號二樓之１","OBJECTID":525460},"geometry":{"x":171910.90000000037,"y":2542639.4800000023}},{"attributes":{"ID":525488,"DIS_CODE":0,"TOWNNAME":"東區","LI":"文聖里","LIN":"6鄰","STREET":"裕農一街","SECT":" ","MAREA":" ","LANE":" ","ALLEY":" ","HOUSE_NO":"１８６號二樓之１０","E_COORD97":171910.89999999999,"N_COORD97":2542639.48,"ADDRESS":"裕農一街１８６號二樓之１０","OBJECTID":525461},"geometry":{"x":171910.90000000037,"y":2542639.4800000023}},{"attributes":{"ID":525489,"DIS_CODE":0,"TOWNNAME":"東區","LI":"文聖里","LIN":"6鄰","STREET":"裕農一街","SECT":" ","MAREA":" ","LANE":" ","ALLEY":" ","HOUSE_NO":"１８６號二樓之１１","E_COORD97":171910.89999999999,"N_COORD97":2542639.48,"ADDRESS":"裕農一街１８６號二樓之１１","OBJECTID":525462},"geometry":{"x":171910.90000000037,"y":2542639.4800000023}},{"attributes":{"ID":525490,"DIS_CODE":0,"TOWNNAME":"東區","LI":"文聖里","LIN":"6鄰","STREET":"裕農一街","SECT":" ","MAREA":" ","LANE":" ","ALLEY":" ","HOUSE_NO":"１８６號二樓之１２","E_COORD97":171910.89999999999,"N_COORD97":2542639.48,"ADDRESS":"裕農一街１８６號二樓之１２","OBJECTID":525463},"geometry":{"x":171910.90000000037,"y":2542639.4800000023}},{"attributes":{"ID":525491,"DIS_CODE":0,"TOWNNAME":"東區","LI":"文聖里","LIN":"6鄰","STREET":"裕農一街","SECT":" ","MAREA":" ","LANE":" ","ALLEY":" ","HOUSE_NO":"１８６號二樓之１３","E_COORD97":171910.89999999999,"N_COORD97":2542639.48,"ADDRESS":"裕農一街１８６號二樓之１３","OBJECTID":525464},"geometry":{"x":171910.90000000037,"y":2542639.4800000023}},{"attributes":{"ID":525492,"DIS_CODE":0,"TOWNNAME":"東區","LI":"文聖里","LIN":"6鄰","STREET":"裕農一街","SECT":" ","MAREA":" ","LANE":" ","ALLEY":" ","HOUSE_NO":"１８６號二樓之１４","E_COORD97":171910.89999999999,"N_COORD97":2542639.48,"ADDRESS":"裕農一街１８６號二樓之１４","OBJECTID":525465},"geometry":{"x":171910.90000000037,"y":2542639.4800000023}},{"attributes":{"ID":525493,"DIS_CODE":0,"TOWNNAME":"東區","LI":"文聖里","LIN":"6鄰","STREET":"裕農一街","SECT":" ","MAREA":" ","LANE":" ","ALLEY":" ","HOUSE_NO":"１８６號二樓之１５","E_COORD97":171910.89999999999,"N_COORD97":2542639.48,"ADDRESS":"裕農一街１８６號二樓之１５","OBJECTID":525466},"geometry":{"x":171910.90000000037,"y":2542639.4800000023}},{"attributes":{"ID":525494,"DIS_CODE":0,"TOWNNAME":"東區","LI":"文聖里","LIN":"6鄰","STREET":"裕農一街","SECT":" ","MAREA":" ","LANE":" ","ALLEY":" ","HOUSE_NO":"１８６號二樓之２","E_COORD97":171910.89999999999,"N_COORD97":2542639.48,"ADDRESS":"裕農一街１８６號二樓之２","OBJECTID":525467},"geometry":{"x":171910.90000000037,"y":2542639.4800000023}},{"attributes":{"ID":525495,"DIS_CODE":0,"TOWNNAME":"東區","LI":"文聖里","LIN":"6鄰","STREET":"裕農一街","SECT":" ","MAREA":" ","LANE":" ","ALLEY":" ","HOUSE_NO":"１８６號二樓之３","E_COORD97":171910.89999999999,"N_COORD97":2542639.48,"ADDRESS":"裕農一街１８６號二樓之３","OBJECTID":525468},"geometry":{"x":171910.90000000037,"y":2542639.4800000023}},{"attributes":{"ID":525496,"DIS_CODE":0,"TOWNNAME":"東區","LI":"文聖里","LIN":"6鄰","STREET":"裕農一街","SECT":" ","MAREA":" ","LANE":" ","ALLEY":" ","HOUSE_NO":"１８６號二樓之５","E_COORD97":171910.89999999999,"N_COORD97":2542639.48,"ADDRESS":"裕農一街１８６號二樓之５","OBJECTID":525469},"geometry":{"x":171910.90000000037,"y":2542639.4800000023}},{"attributes":{"ID":525497,"DIS_CODE":0,"TOWNNAME":"東區","LI":"文聖里","LIN":"6鄰","STREET":"裕農一街","SECT":" ","MAREA":" ","LANE":" ","ALLEY":" ","HOUSE_NO":"１８６號二樓之６","E_COORD97":171910.89999999999,"N_COORD97":2542639.48,"ADDRESS":"裕農一街１８６號二樓之６","OBJECTID":525470},"geometry":{"x":171910.90000000037,"y":2542639.4800000023}},{"attributes":{"ID":525498,"DIS_CODE":0,"TOWNNAME":"東區","LI":"文聖里","LIN":"6鄰","STREET":"裕農一街","SECT":" ","MAREA":" ","LANE":" ","ALLEY":" ","HOUSE_NO":"１８６號二樓之７","E_COORD97":171910.89999999999,"N_COORD97":2542639.48,"ADDRESS":"裕農一街１８６號二樓之７","OBJECTID":525471},"geometry":{"x":171910.90000000037,"y":2542639.4800000023}},{"attributes":{"ID":525499,"DIS_CODE":0,"TOWNNAME":"東區","LI":"文聖里","LIN":"6鄰","STREET":"裕農一街","SECT":" ","MAREA":" ","LANE":" ","ALLEY":" ","HOUSE_NO":"１８６號二樓之８","E_COORD97":171910.89999999999,"N_COORD97":2542639.48,"ADDRESS":"裕農一街１８６號二樓之８","OBJECTID":525472},"geometry":{"x":171910.90000000037,"y":2542639.4800000023}},{"attributes":{"ID":525500,"DIS_CODE":0,"TOWNNAME":"東區","LI":"文聖里","LIN":"6鄰","STREET":"裕農一街","SECT":" ","MAREA":" ","LANE":" ","ALLEY":" ","HOUSE_NO":"１８６號二樓之９","E_COORD97":171910.89999999999,"N_COORD97":2542639.48,"ADDRESS":"裕農一街１８６號二樓之９","OBJECTID":525473},"geometry":{"x":171910.90000000037,"y":2542639.4800000023}},{"attributes":{"ID":525501,"DIS_CODE":0,"TOWNNAME":"永康區","LI":"西灣里","LIN":"22鄰","STREET":"大勇路","SECT":" ","MAREA":" ","LANE":" ","ALLEY":" ","HOUSE_NO":"４２號","E_COORD97":174214.04000000001,"N_COORD97":2545377.5699999998,"ADDRESS":"大勇路４２號","OBJECTID":525474},"geometry":{"x":174214.0400000019,"y":2545377.5700000022}},{"attributes":{"ID":525502,"DIS_CODE":0,"TOWNNAME":"永康區","LI":"六合里","LIN":"3鄰","STREET":"中山南路","SECT":" ","MAREA":" ","LANE":" ","ALLEY":" ","HOUSE_NO":"１３０號","E_COORD97":171098.10999999999,"N_COORD97":2545951.7400000002,"ADDRESS":"中山南路１３０號","OBJECTID":525475},"geometry":{"x":171098.1100000022,"y":2545951.7399999984}},{"attributes":{"ID":525503,"DIS_CODE":0,"TOWNNAME":"永康區","LI":"西灣里","LIN":"25鄰","STREET":"大勇路","SECT":" ","MAREA":" ","LANE":" ","ALLEY":" ","HOUSE_NO":"１０６號","E_COORD97":174271.76000000001,"N_COORD97":2545594.6400000001,"ADDRESS":"大勇路１０６號","OBJECTID":525476},"geometry":{"x":174271.76000000071,"y":2545594.6400000025}},{"attributes":{"ID":525504,"DIS_CODE":0,"TOWNNAME":"東區","LI":"文聖里","LIN":"6鄰","STREET":"裕農一街","SECT":" ","MAREA":" ","LANE":" ","ALLEY":" ","HOUSE_NO":"１８６號八樓","E_COORD97":171910.89999999999,"N_COORD97":2542639.48,"ADDRESS":"裕農一街１８６號八樓","OBJECTID":525477},"geometry":{"x":171910.90000000037,"y":2542639.4800000023}},{"attributes":{"ID":525505,"DIS_CODE":0,"TOWNNAME":"東區","LI":"文聖里","LIN":"6鄰","STREET":"裕農一街","SECT":" ","MAREA":" ","LANE":" ","ALLEY":" ","HOUSE_NO":"１８６號八樓之１","E_COORD97":171910.89999999999,"N_COORD97":2542639.48,"ADDRESS":"裕農一街１８６號八樓之１","OBJECTID":525478},"geometry":{"x":171910.90000000037,"y":2542639.4800000023}},{"attributes":{"ID":525506,"DIS_CODE":0,"TOWNNAME":"東區","LI":"文聖里","LIN":"6鄰","STREET":"裕農一街","SECT":" ","MAREA":" ","LANE":" ","ALLEY":" ","HOUSE_NO":"１８６號八樓之１０","E_COORD97":171910.89999999999,"N_COORD97":2542639.48,"ADDRESS":"裕農一街１８６號八樓之１０","OBJECTID":525479},"geometry":{"x":171910.90000000037,"y":2542639.4800000023}},{"attributes":{"ID":525507,"DIS_CODE":0,"TOWNNAME":"東區","LI":"文聖里","LIN":"6鄰","STREET":"裕農一街","SECT":" ","MAREA":" ","LANE":" ","ALLEY":" ","HOUSE_NO":"１８６號八樓之１１","E_COORD97":171910.89999999999,"N_COORD97":2542639.48,"ADDRESS":"裕農一街１８６號八樓之１１","OBJECTID":525480},"geometry":{"x":171910.90000000037,"y":2542639.4800000023}},{"attributes":{"ID":525508,"DIS_CODE":0,"TOWNNAME":"東區","LI":"文聖里","LIN":"6鄰","STREET":"裕農一街","SECT":" ","MAREA":" ","LANE":" ","ALLEY":" ","HOUSE_NO":"１８６號八樓之１２","E_COORD97":171910.89999999999,"N_COORD97":2542639.48,"ADDRESS":"裕農一街１８６號八樓之１２","OBJECTID":525481},"geometry":{"x":171910.90000000037,"y":2542639.4800000023}},{"attributes":{"ID":525509,"DIS_CODE":0,"TOWNNAME":"東區","LI":"文聖里","LIN":"6鄰","STREET":"裕農一街","SECT":" ","MAREA":" ","LANE":" ","ALLEY":" ","HOUSE_NO":"１８６號八樓之１３","E_COORD97":171910.89999999999,"N_COORD97":2542639.48,"ADDRESS":"裕農一街１８６號八樓之１３","OBJECTID":525482},"geometry":{"x":171910.90000000037,"y":2542639.4800000023}},{"attributes":{"ID":525510,"DIS_CODE":0,"TOWNNAME":"東區","LI":"文聖里","LIN":"6鄰","STREET":"裕農一街","SECT":" ","MAREA":" ","LANE":" ","ALLEY":" ","HOUSE_NO":"１８６號八樓之１４","E_COORD97":171910.89999999999,"N_COORD97":2542639.48,"ADDRESS":"裕農一街１８６號八樓之１４","OBJECTID":525483},"geometry":{"x":171910.90000000037,"y":2542639.4800000023}},{"attributes":{"ID":525511,"DIS_CODE":0,"TOWNNAME":"東區","LI":"文聖里","LIN":"6鄰","STREET":"裕農一街","SECT":" ","MAREA":" ","LANE":" ","ALLEY":" ","HOUSE_NO":"１８６號八樓之１５","E_COORD97":171910.89999999999,"N_COORD97":2542639.48,"ADDRESS":"裕農一街１８６號八樓之１５","OBJECTID":525484},"geometry":{"x":171910.90000000037,"y":2542639.4800000023}},{"attributes":{"ID":525512,"DIS_CODE":0,"TOWNNAME":"東區","LI":"文聖里","LIN":"6鄰","STREET":"裕農一街","SECT":" ","MAREA":" ","LANE":" ","ALLEY":" ","HOUSE_NO":"１８６號八樓之１６","E_COORD97":171910.89999999999,"N_COORD97":2542639.48,"ADDRESS":"裕農一街１８６號八樓之１６","OBJECTID":525485},"geometry":{"x":171910.90000000037,"y":2542639.4800000023}},{"attributes":{"ID":525513,"DIS_CODE":0,"TOWNNAME":"東區","LI":"文聖里","LIN":"6鄰","STREET":"裕農一街","SECT":" ","MAREA":" ","LANE":" ","ALLEY":" ","HOUSE_NO":"１８６號八樓之１７","E_COORD97":171910.89999999999,"N_COORD97":2542639.48,"ADDRESS":"裕農一街１８６號八樓之１７","OBJECTID":525486},"geometry":{"x":171910.90000000037,"y":2542639.4800000023}},{"attributes":{"ID":525514,"DIS_CODE":0,"TOWNNAME":"東區","LI":"文聖里","LIN":"6鄰","STREET":"裕農一街","SECT":" ","MAREA":" ","LANE":" ","ALLEY":" ","HOUSE_NO":"１８６號八樓之１８","E_COORD97":171910.89999999999,"N_COORD97":2542639.48,"ADDRESS":"裕農一街１８６號八樓之１８","OBJECTID":525487},"geometry":{"x":171910.90000000037,"y":2542639.4800000023}},{"attributes":{"ID":525515,"DIS_CODE":0,"TOWNNAME":"東區","LI":"文聖里","LIN":"6鄰","STREET":"裕農一街","SECT":" ","MAREA":" ","LANE":" ","ALLEY":" ","HOUSE_NO":"１８６號八樓之１９","E_COORD97":171910.89999999999,"N_COORD97":2542639.48,"ADDRESS":"裕農一街１８６號八樓之１９","OBJECTID":525488},"geometry":{"x":171910.90000000037,"y":2542639.4800000023}},{"attributes":{"ID":525516,"DIS_CODE":0,"TOWNNAME":"東區","LI":"文聖里","LIN":"6鄰","STREET":"裕農一街","SECT":" ","MAREA":" ","LANE":" ","ALLEY":" ","HOUSE_NO":"１８６號八樓之２","E_COORD97":171910.89999999999,"N_COORD97":2542639.48,"ADDRESS":"裕農一街１８６號八樓之２","OBJECTID":525489},"geometry":{"x":171910.90000000037,"y":2542639.4800000023}},{"attributes":{"ID":525517,"DIS_CODE":0,"TOWNNAME":"東區","LI":"文聖里","LIN":"6鄰","STREET":"裕農一街","SECT":" ","MAREA":" ","LANE":" ","ALLEY":" ","HOUSE_NO":"１８６號八樓之２０","E_COORD97":171910.89999999999,"N_COORD97":2542639.48,"ADDRESS":"裕農一街１８６號八樓之２０","OBJECTID":525490},"geometry":{"x":171910.90000000037,"y":2542639.4800000023}},{"attributes":{"ID":525518,"DIS_CODE":0,"TOWNNAME":"東區","LI":"文聖里","LIN":"6鄰","STREET":"裕農一街","SECT":" ","MAREA":" ","LANE":" ","ALLEY":" ","HOUSE_NO":"１８６號八樓之２１","E_COORD97":171910.89999999999,"N_COORD97":2542639.48,"ADDRESS":"裕農一街１８６號八樓之２１","OBJECTID":525491},"geometry":{"x":171910.90000000037,"y":2542639.4800000023}},{"attributes":{"ID":525519,"DIS_CODE":0,"TOWNNAME":"東區","LI":"文聖里","LIN":"6鄰","STREET":"裕農一街","SECT":" ","MAREA":" ","LANE":" ","ALLEY":" ","HOUSE_NO":"１８６號八樓之２３","E_COORD97":171910.89999999999,"N_COORD97":2542639.48,"ADDRESS":"裕農一街１８６號八樓之２３","OBJECTID":525492},"geometry":{"x":171910.90000000037,"y":2542639.4800000023}},{"attributes":{"ID":525520,"DIS_CODE":0,"TOWNNAME":"東區","LI":"文聖里","LIN":"6鄰","STREET":"裕農一街","SECT":" ","MAREA":" ","LANE":" ","ALLEY":" ","HOUSE_NO":"１８６號八樓之２４","E_COORD97":171910.89999999999,"N_COORD97":2542639.48,"ADDRESS":"裕農一街１８６號八樓之２４","OBJECTID":525493},"geometry":{"x":171910.90000000037,"y":2542639.4800000023}},{"attributes":{"ID":525521,"DIS_CODE":0,"TOWNNAME":"東區","LI":"文聖里","LIN":"6鄰","STREET":"裕農一街","SECT":" ","MAREA":" ","LANE":" ","ALLEY":" ","HOUSE_NO":"１８６號八樓之２５","E_COORD97":171910.89999999999,"N_COORD97":2542639.48,"ADDRESS":"裕農一街１８６號八樓之２５","OBJECTID":525494},"geometry":{"x":171910.90000000037,"y":2542639.4800000023}},{"attributes":{"ID":525522,"DIS_CODE":0,"TOWNNAME":"東區","LI":"文聖里","LIN":"6鄰","STREET":"裕農一街","SECT":" ","MAREA":" ","LANE":" ","ALLEY":" ","HOUSE_NO":"１８６號八樓之３","E_COORD97":171910.89999999999,"N_COORD97":2542639.48,"ADDRESS":"裕農一街１８６號八樓之３","OBJECTID":525495},"geometry":{"x":171910.90000000037,"y":2542639.4800000023}},{"attributes":{"ID":525523,"DIS_CODE":0,"TOWNNAME":"東區","LI":"文聖里","LIN":"6鄰","STREET":"裕農一街","SECT":" ","MAREA":" ","LANE":" ","ALLEY":" ","HOUSE_NO":"１８６號八樓之５","E_COORD97":171910.89999999999,"N_COORD97":2542639.48,"ADDRESS":"裕農一街１８６號八樓之５","OBJECTID":525496},"geometry":{"x":171910.90000000037,"y":2542639.4800000023}},{"attributes":{"ID":525524,"DIS_CODE":0,"TOWNNAME":"東區","LI":"文聖里","LIN":"6鄰","STREET":"裕農一街","SECT":" ","MAREA":" ","LANE":" ","ALLEY":" ","HOUSE_NO":"１８６號八樓之６","E_COORD97":171910.89999999999,"N_COORD97":2542639.48,"ADDRESS":"裕農一街１８６號八樓之６","OBJECTID":525497},"geometry":{"x":171910.90000000037,"y":2542639.4800000023}},{"attributes":{"ID":525525,"DIS_CODE":0,"TOWNNAME":"東區","LI":"文聖里","LIN":"6鄰","STREET":"裕農一街","SECT":" ","MAREA":" ","LANE":" ","ALLEY":" ","HOUSE_NO":"１８６號八樓之７","E_COORD97":171910.89999999999,"N_COORD97":2542639.48,"ADDRESS":"裕農一街１８６號八樓之７","OBJECTID":525498},"geometry":{"x":171910.90000000037,"y":2542639.4800000023}},{"attributes":{"ID":525526,"DIS_CODE":0,"TOWNNAME":"永康區","LI":"永康里","LIN":"39鄰","STREET":"永大一路","SECT":" ","MAREA":" ","LANE":" ","ALLEY":" ","HOUSE_NO":"３０號","E_COORD97":174291.66,"N_COORD97":2546489.8100000001,"ADDRESS":"永大一路３０號","OBJECTID":525499},"geometry":{"x":174291.66000000108,"y":2546489.8100000005}},{"attributes":{"ID":525527,"DIS_CODE":0,"TOWNNAME":"東區","LI":"文聖里","LIN":"6鄰","STREET":"裕農一街","SECT":" ","MAREA":" ","LANE":" ","ALLEY":" ","HOUSE_NO":"１８６號八樓之８","E_COORD97":171910.89999999999,"N_COORD97":2542639.48,"ADDRESS":"裕農一街１８６號八樓之８","OBJECTID":525500},"geometry":{"x":171910.90000000037,"y":2542639.4800000023}},{"attributes":{"ID":525528,"DIS_CODE":0,"TOWNNAME":"東區","LI":"文聖里","LIN":"6鄰","STREET":"裕農一街","SECT":" ","MAREA":" ","LANE":" ","ALLEY":" ","HOUSE_NO":"１８６號八樓之９","E_COORD97":171910.89999999999,"N_COORD97":2542639.48,"ADDRESS":"裕農一街１８６號八樓之９","OBJECTID":525501},"geometry":{"x":171910.90000000037,"y":2542639.4800000023}},{"attributes":{"ID":525529,"DIS_CODE":0,"TOWNNAME":"東區","LI":"文聖里","LIN":"6鄰","STREET":"裕農一街","SECT":" ","MAREA":" ","LANE":" ","ALLEY":" ","HOUSE_NO":"１８６號三樓","E_COORD97":171910.89999999999,"N_COORD97":2542639.48,"ADDRESS":"裕農一街１８６號三樓","OBJECTID":525502},"geometry":{"x":171910.90000000037,"y":2542639.4800000023}},{"attributes":{"ID":525530,"DIS_CODE":0,"TOWNNAME":"東區","LI":"文聖里","LIN":"6鄰","STREET":"裕農一街","SECT":" ","MAREA":" ","LANE":" ","ALLEY":" ","HOUSE_NO":"１８６號三樓之１","E_COORD97":171910.89999999999,"N_COORD97":2542639.48,"ADDRESS":"裕農一街１８６號三樓之１","OBJECTID":525503},"geometry":{"x":171910.90000000037,"y":2542639.4800000023}},{"attributes":{"ID":525531,"DIS_CODE":0,"TOWNNAME":"東區","LI":"文聖里","LIN":"6鄰","STREET":"裕農一街","SECT":" ","MAREA":" ","LANE":" ","ALLEY":" ","HOUSE_NO":"１８６號三樓之１０","E_COORD97":171910.89999999999,"N_COORD97":2542639.48,"ADDRESS":"裕農一街１８６號三樓之１０","OBJECTID":525504},"geometry":{"x":171910.90000000037,"y":2542639.4800000023}},{"attributes":{"ID":525532,"DIS_CODE":0,"TOWNNAME":"東區","LI":"文聖里","LIN":"6鄰","STREET":"裕農一街","SECT":" ","MAREA":" ","LANE":" ","ALLEY":" ","HOUSE_NO":"１８６號三樓之１１","E_COORD97":171910.89999999999,"N_COORD97":2542639.48,"ADDRESS":"裕農一街１８６號三樓之１１","OBJECTID":525505},"geometry":{"x":171910.90000000037,"y":2542639.4800000023}},{"attributes":{"ID":525533,"DIS_CODE":0,"TOWNNAME":"東區","LI":"文聖里","LIN":"6鄰","STREET":"裕農一街","SECT":" ","MAREA":" ","LANE":" ","ALLEY":" ","HOUSE_NO":"１８６號五樓之１４","E_COORD97":171910.89999999999,"N_COORD97":2542639.48,"ADDRESS":"裕農一街１８６號五樓之１４","OBJECTID":525506},"geometry":{"x":171910.90000000037,"y":2542639.4800000023}},{"attributes":{"ID":525534,"DIS_CODE":0,"TOWNNAME":"東區","LI":"文聖里","LIN":"6鄰","STREET":"裕農一街","SECT":" ","MAREA":" ","LANE":" ","ALLEY":" ","HOUSE_NO":"１８６號五樓之１５","E_COORD97":171910.89999999999,"N_COORD97":2542639.48,"ADDRESS":"裕農一街１８６號五樓之１５","OBJECTID":525507},"geometry":{"x":171910.90000000037,"y":2542639.4800000023}},{"attributes":{"ID":525535,"DIS_CODE":0,"TOWNNAME":"東區","LI":"文聖里","LIN":"6鄰","STREET":"裕農一街","SECT":" ","MAREA":" ","LANE":" ","ALLEY":" ","HOUSE_NO":"１８６號五樓之１６","E_COORD97":171910.89999999999,"N_COORD97":2542639.48,"ADDRESS":"裕農一街１８６號五樓之１６","OBJECTID":525508},"geometry":{"x":171910.90000000037,"y":2542639.4800000023}},{"attributes":{"ID":525536,"DIS_CODE":0,"TOWNNAME":"東區","LI":"文聖里","LIN":"6鄰","STREET":"裕農一街","SECT":" ","MAREA":" ","LANE":" ","ALLEY":" ","HOUSE_NO":"１８６號五樓之１７","E_COORD97":171910.89999999999,"N_COORD97":2542639.48,"ADDRESS":"裕農一街１８６號五樓之１７","OBJECTID":525509},"geometry":{"x":171910.90000000037,"y":2542639.4800000023}},{"attributes":{"ID":525537,"DIS_CODE":0,"TOWNNAME":"東區","LI":"文聖里","LIN":"6鄰","STREET":"裕農一街","SECT":" ","MAREA":" ","LANE":" ","ALLEY":" ","HOUSE_NO":"１８６號五樓之１８","E_COORD97":171910.89999999999,"N_COORD97":2542639.48,"ADDRESS":"裕農一街１８６號五樓之１８","OBJECTID":525510},"geometry":{"x":171910.90000000037,"y":2542639.4800000023}},{"attributes":{"ID":525538,"DIS_CODE":0,"TOWNNAME":"東區","LI":"文聖里","LIN":"6鄰","STREET":"裕農一街","SECT":" ","MAREA":" ","LANE":" ","ALLEY":" ","HOUSE_NO":"１８６號五樓之１９","E_COORD97":171910.89999999999,"N_COORD97":2542639.48,"ADDRESS":"裕農一街１８６號五樓之１９","OBJECTID":525511},"geometry":{"x":171910.90000000037,"y":2542639.4800000023}},{"attributes":{"ID":525539,"DIS_CODE":0,"TOWNNAME":"東區","LI":"文聖里","LIN":"6鄰","STREET":"裕農一街","SECT":" ","MAREA":" ","LANE":" ","ALLEY":" ","HOUSE_NO":"１８６號五樓之２","E_COORD97":171910.89999999999,"N_COORD97":2542639.48,"ADDRESS":"裕農一街１８６號五樓之２","OBJECTID":525512},"geometry":{"x":171910.90000000037,"y":2542639.4800000023}},{"attributes":{"ID":525540,"DIS_CODE":0,"TOWNNAME":"東區","LI":"文聖里","LIN":"6鄰","STREET":"裕農一街","SECT":" ","MAREA":" ","LANE":" ","ALLEY":" ","HOUSE_NO":"１８６號五樓之２０","E_COORD97":171910.89999999999,"N_COORD97":2542639.48,"ADDRESS":"裕農一街１８６號五樓之２０","OBJECTID":525513},"geometry":{"x":171910.90000000037,"y":2542639.4800000023}},{"attributes":{"ID":525541,"DIS_CODE":0,"TOWNNAME":"東區","LI":"文聖里","LIN":"6鄰","STREET":"裕農一街","SECT":" ","MAREA":" ","LANE":" ","ALLEY":" ","HOUSE_NO":"１８６號五樓之２１","E_COORD97":171910.89999999999,"N_COORD97":2542639.48,"ADDRESS":"裕農一街１８６號五樓之２１","OBJECTID":525514},"geometry":{"x":171910.90000000037,"y":2542639.4800000023}},{"attributes":{"ID":525542,"DIS_CODE":0,"TOWNNAME":"東區","LI":"文聖里","LIN":"6鄰","STREET":"裕農一街","SECT":" ","MAREA":" ","LANE":" ","ALLEY":" ","HOUSE_NO":"１８６號五樓之２２","E_COORD97":171910.89999999999,"N_COORD97":2542639.48,"ADDRESS":"裕農一街１８６號五樓之２２","OBJECTID":525515},"geometry":{"x":171910.90000000037,"y":2542639.4800000023}},{"attributes":{"ID":525543,"DIS_CODE":0,"TOWNNAME":"東區","LI":"文聖里","LIN":"6鄰","STREET":"裕農一街","SECT":" ","MAREA":" ","LANE":" ","ALLEY":" ","HOUSE_NO":"１８６號五樓之２３","E_COORD97":171910.89999999999,"N_COORD97":2542639.48,"ADDRESS":"裕農一街１８６號五樓之２３","OBJECTID":525516},"geometry":{"x":171910.90000000037,"y":2542639.4800000023}},{"attributes":{"ID":525544,"DIS_CODE":0,"TOWNNAME":"東區","LI":"文聖里","LIN":"6鄰","STREET":"裕農一街","SECT":" ","MAREA":" ","LANE":" ","ALLEY":" ","HOUSE_NO":"１８６號五樓之２４","E_COORD97":171910.89999999999,"N_COORD97":2542639.48,"ADDRESS":"裕農一街１８６號五樓之２４","OBJECTID":525517},"geometry":{"x":171910.90000000037,"y":2542639.4800000023}},{"attributes":{"ID":525545,"DIS_CODE":0,"TOWNNAME":"東區","LI":"文聖里","LIN":"6鄰","STREET":"裕農一街","SECT":" ","MAREA":" ","LANE":" ","ALLEY":" ","HOUSE_NO":"１８６號五樓之２５","E_COORD97":171910.89999999999,"N_COORD97":2542639.48,"ADDRESS":"裕農一街１８６號五樓之２５","OBJECTID":525518},"geometry":{"x":171910.90000000037,"y":2542639.4800000023}},{"attributes":{"ID":525546,"DIS_CODE":0,"TOWNNAME":"東區","LI":"文聖里","LIN":"6鄰","STREET":"裕農一街","SECT":" ","MAREA":" ","LANE":" ","ALLEY":" ","HOUSE_NO":"１８６號五樓之５","E_COORD97":171910.89999999999,"N_COORD97":2542639.48,"ADDRESS":"裕農一街１８６號五樓之５","OBJECTID":525519},"geometry":{"x":171910.90000000037,"y":2542639.4800000023}},{"attributes":{"ID":525547,"DIS_CODE":0,"TOWNNAME":"東區","LI":"文聖里","LIN":"6鄰","STREET":"裕農一街","SECT":" ","MAREA":" ","LANE":" ","ALLEY":" ","HOUSE_NO":"１８６號五樓之６","E_COORD97":171910.89999999999,"N_COORD97":2542639.48,"ADDRESS":"裕農一街１８６號五樓之６","OBJECTID":525520},"geometry":{"x":171910.90000000037,"y":2542639.4800000023}},{"attributes":{"ID":525548,"DIS_CODE":0,"TOWNNAME":"東區","LI":"文聖里","LIN":"6鄰","STREET":"裕農一街","SECT":" ","MAREA":" ","LANE":" ","ALLEY":" ","HOUSE_NO":"１８６號五樓之７","E_COORD97":171910.89999999999,"N_COORD97":2542639.48,"ADDRESS":"裕農一街１８６號五樓之７","OBJECTID":525521},"geometry":{"x":171910.90000000037,"y":2542639.4800000023}},{"attributes":{"ID":525549,"DIS_CODE":0,"TOWNNAME":"東區","LI":"文聖里","LIN":"6鄰","STREET":"裕農一街","SECT":" ","MAREA":" ","LANE":" ","ALLEY":" ","HOUSE_NO":"１８６號五樓之８","E_COORD97":171910.89999999999,"N_COORD97":2542639.48,"ADDRESS":"裕農一街１８６號五樓之８","OBJECTID":525522},"geometry":{"x":171910.90000000037,"y":2542639.4800000023}},{"attributes":{"ID":525550,"DIS_CODE":0,"TOWNNAME":"東區","LI":"東門里","LIN":"6鄰","STREET":"前鋒路","SECT":" ","MAREA":" ","LANE":" ","ALLEY":" ","HOUSE_NO":"６５號四樓","E_COORD97":169284.17000000001,"N_COORD97":2543485.4300000002,"ADDRESS":"前鋒路６５號四樓","OBJECTID":525523},"geometry":{"x":169284.17000000086,"y":2543485.4300000034}},{"attributes":{"ID":525551,"DIS_CODE":0,"TOWNNAME":"東區","LI":"文聖里","LIN":"6鄰","STREET":"裕農一街","SECT":" ","MAREA":" ","LANE":" ","ALLEY":" ","HOUSE_NO":"１８６號五樓之９","E_COORD97":171910.89999999999,"N_COORD97":2542639.48,"ADDRESS":"裕農一街１８６號五樓之９","OBJECTID":525524},"geometry":{"x":171910.90000000037,"y":2542639.4800000023}},{"attributes":{"ID":525552,"DIS_CODE":0,"TOWNNAME":"東區","LI":"文聖里","LIN":"6鄰","STREET":"裕農一街","SECT":" ","MAREA":" ","LANE":" ","ALLEY":" ","HOUSE_NO":"１８６號六樓","E_COORD97":171910.89999999999,"N_COORD97":2542639.48,"ADDRESS":"裕農一街１８６號六樓","OBJECTID":525525},"geometry":{"x":171910.90000000037,"y":2542639.4800000023}},{"attributes":{"ID":525553,"DIS_CODE":0,"TOWNNAME":"東區","LI":"文聖里","LIN":"6鄰","STREET":"裕農一街","SECT":" ","MAREA":" ","LANE":" ","ALLEY":" ","HOUSE_NO":"１８６號六樓之１","E_COORD97":171910.89999999999,"N_COORD97":2542639.48,"ADDRESS":"裕農一街１８６號六樓之１","OBJECTID":525526},"geometry":{"x":171910.90000000037,"y":2542639.4800000023}},{"attributes":{"ID":525554,"DIS_CODE":0,"TOWNNAME":"東區","LI":"東門里","LIN":"6鄰","STREET":"前鋒路","SECT":" ","MAREA":" ","LANE":" ","ALLEY":" ","HOUSE_NO":"６７號三樓","E_COORD97":169286.45000000001,"N_COORD97":2543493.7599999998,"ADDRESS":"前鋒路６７號三樓","OBJECTID":525527},"geometry":{"x":169286.45000000019,"y":2543493.7600000016}},{"attributes":{"ID":525555,"DIS_CODE":0,"TOWNNAME":"東區","LI":"文聖里","LIN":"6鄰","STREET":"裕農一街","SECT":" ","MAREA":" ","LANE":" ","ALLEY":" ","HOUSE_NO":"１８６號六樓之１０","E_COORD97":171910.89999999999,"N_COORD97":2542639.48,"ADDRESS":"裕農一街１８６號六樓之１０","OBJECTID":525528},"geometry":{"x":171910.90000000037,"y":2542639.4800000023}},{"attributes":{"ID":525556,"DIS_CODE":0,"TOWNNAME":"東區","LI":"文聖里","LIN":"6鄰","STREET":"裕農一街","SECT":" ","MAREA":" ","LANE":" ","ALLEY":" ","HOUSE_NO":"１８６號六樓之１１","E_COORD97":171910.89999999999,"N_COORD97":2542639.48,"ADDRESS":"裕農一街１８６號六樓之１１","OBJECTID":525529},"geometry":{"x":171910.90000000037,"y":2542639.4800000023}},{"attributes":{"ID":525557,"DIS_CODE":0,"TOWNNAME":"東區","LI":"文聖里","LIN":"6鄰","STREET":"裕農一街","SECT":" ","MAREA":" ","LANE":" ","ALLEY":" ","HOUSE_NO":"１８６號六樓之１２","E_COORD97":171910.89999999999,"N_COORD97":2542639.48,"ADDRESS":"裕農一街１８６號六樓之１２","OBJECTID":525530},"geometry":{"x":171910.90000000037,"y":2542639.4800000023}},{"attributes":{"ID":525558,"DIS_CODE":0,"TOWNNAME":"東區","LI":"文聖里","LIN":"6鄰","STREET":"裕農一街","SECT":" ","MAREA":" ","LANE":" ","ALLEY":" ","HOUSE_NO":"１８６號六樓之１３","E_COORD97":171910.89999999999,"N_COORD97":2542639.48,"ADDRESS":"裕農一街１８６號六樓之１３","OBJECTID":525531},"geometry":{"x":171910.90000000037,"y":2542639.4800000023}},{"attributes":{"ID":525559,"DIS_CODE":0,"TOWNNAME":"東區","LI":"文聖里","LIN":"6鄰","STREET":"裕農一街","SECT":" ","MAREA":" ","LANE":" ","ALLEY":" ","HOUSE_NO":"１８６號六樓之１４","E_COORD97":171910.89999999999,"N_COORD97":2542639.48,"ADDRESS":"裕農一街１８６號六樓之１４","OBJECTID":525532},"geometry":{"x":171910.90000000037,"y":2542639.4800000023}},{"attributes":{"ID":525560,"DIS_CODE":0,"TOWNNAME":"東區","LI":"文聖里","LIN":"6鄰","STREET":"裕農一街","SECT":" ","MAREA":" ","LANE":" ","ALLEY":" ","HOUSE_NO":"１８６號六樓之１５","E_COORD97":171910.89999999999,"N_COORD97":2542639.48,"ADDRESS":"裕農一街１８６號六樓之１５","OBJECTID":525533},"geometry":{"x":171910.90000000037,"y":2542639.4800000023}},{"attributes":{"ID":525561,"DIS_CODE":0,"TOWNNAME":"東區","LI":"文聖里","LIN":"6鄰","STREET":"裕農一街","SECT":" ","MAREA":" ","LANE":" ","ALLEY":" ","HOUSE_NO":"１８６號三樓之１２","E_COORD97":171910.89999999999,"N_COORD97":2542639.48,"ADDRESS":"裕農一街１８６號三樓之１２","OBJECTID":525534},"geometry":{"x":171910.90000000037,"y":2542639.4800000023}},{"attributes":{"ID":525562,"DIS_CODE":0,"TOWNNAME":"東區","LI":"文聖里","LIN":"6鄰","STREET":"裕農一街","SECT":" ","MAREA":" ","LANE":" ","ALLEY":" ","HOUSE_NO":"１８６號三樓之１３","E_COORD97":171910.89999999999,"N_COORD97":2542639.48,"ADDRESS":"裕農一街１８６號三樓之１３","OBJECTID":525535},"geometry":{"x":171910.90000000037,"y":2542639.4800000023}},{"attributes":{"ID":525563,"DIS_CODE":0,"TOWNNAME":"東區","LI":"文聖里","LIN":"6鄰","STREET":"裕農一街","SECT":" ","MAREA":" ","LANE":" ","ALLEY":" ","HOUSE_NO":"１８６號三樓之１４","E_COORD97":171910.89999999999,"N_COORD97":2542639.48,"ADDRESS":"裕農一街１８６號三樓之１４","OBJECTID":525536},"geometry":{"x":171910.90000000037,"y":2542639.4800000023}},{"attributes":{"ID":525564,"DIS_CODE":0,"TOWNNAME":"東區","LI":"文聖里","LIN":"6鄰","STREET":"裕農一街","SECT":" ","MAREA":" ","LANE":" ","ALLEY":" ","HOUSE_NO":"１８６號三樓之１５","E_COORD97":171910.89999999999,"N_COORD97":2542639.48,"ADDRESS":"裕農一街１８６號三樓之１５","OBJECTID":525537},"geometry":{"x":171910.90000000037,"y":2542639.4800000023}},{"attributes":{"ID":525565,"DIS_CODE":0,"TOWNNAME":"東區","LI":"文聖里","LIN":"6鄰","STREET":"裕農一街","SECT":" ","MAREA":" ","LANE":" ","ALLEY":" ","HOUSE_NO":"１８６號三樓之１６","E_COORD97":171910.89999999999,"N_COORD97":2542639.48,"ADDRESS":"裕農一街１８６號三樓之１６","OBJECTID":525538},"geometry":{"x":171910.90000000037,"y":2542639.4800000023}},{"attributes":{"ID":525566,"DIS_CODE":0,"TOWNNAME":"東區","LI":"文聖里","LIN":"6鄰","STREET":"裕農一街","SECT":" ","MAREA":" ","LANE":" ","ALLEY":" ","HOUSE_NO":"１８６號三樓之１７","E_COORD97":171910.89999999999,"N_COORD97":2542639.48,"ADDRESS":"裕農一街１８６號三樓之１７","OBJECTID":525539},"geometry":{"x":171910.90000000037,"y":2542639.4800000023}},{"attributes":{"ID":525567,"DIS_CODE":0,"TOWNNAME":"東區","LI":"文聖里","LIN":"6鄰","STREET":"裕農一街","SECT":" ","MAREA":" ","LANE":" ","ALLEY":" ","HOUSE_NO":"１８６號三樓之１８","E_COORD97":171910.89999999999,"N_COORD97":2542639.48,"ADDRESS":"裕農一街１８６號三樓之１８","OBJECTID":525540},"geometry":{"x":171910.90000000037,"y":2542639.4800000023}},{"attributes":{"ID":525568,"DIS_CODE":0,"TOWNNAME":"東區","LI":"文聖里","LIN":"6鄰","STREET":"裕農一街","SECT":" ","MAREA":" ","LANE":" ","ALLEY":" ","HOUSE_NO":"１８６號三樓之１９","E_COORD97":171910.89999999999,"N_COORD97":2542639.48,"ADDRESS":"裕農一街１８６號三樓之１９","OBJECTID":525541},"geometry":{"x":171910.90000000037,"y":2542639.4800000023}},{"attributes":{"ID":525569,"DIS_CODE":0,"TOWNNAME":"東區","LI":"文聖里","LIN":"6鄰","STREET":"裕農一街","SECT":" ","MAREA":" ","LANE":" ","ALLEY":" ","HOUSE_NO":"１８６號三樓之２","E_COORD97":171910.89999999999,"N_COORD97":2542639.48,"ADDRESS":"裕農一街１８６號三樓之２","OBJECTID":525542},"geometry":{"x":171910.90000000037,"y":2542639.4800000023}},{"attributes":{"ID":525570,"DIS_CODE":0,"TOWNNAME":"東區","LI":"文聖里","LIN":"6鄰","STREET":"裕農一街","SECT":" ","MAREA":" ","LANE":" ","ALLEY":" ","HOUSE_NO":"１８６號三樓之２０","E_COORD97":171910.89999999999,"N_COORD97":2542639.48,"ADDRESS":"裕農一街１８６號三樓之２０","OBJECTID":525543},"geometry":{"x":171910.90000000037,"y":2542639.4800000023}},{"attributes":{"ID":525571,"DIS_CODE":0,"TOWNNAME":"東區","LI":"文聖里","LIN":"6鄰","STREET":"裕農一街","SECT":" ","MAREA":" ","LANE":" ","ALLEY":" ","HOUSE_NO":"１８６號三樓之２１","E_COORD97":171910.89999999999,"N_COORD97":2542639.48,"ADDRESS":"裕農一街１８６號三樓之２１","OBJECTID":525544},"geometry":{"x":171910.90000000037,"y":2542639.4800000023}},{"attributes":{"ID":525572,"DIS_CODE":0,"TOWNNAME":"東區","LI":"文聖里","LIN":"6鄰","STREET":"裕農一街","SECT":" ","MAREA":" ","LANE":" ","ALLEY":" ","HOUSE_NO":"１８６號三樓之２２","E_COORD97":171910.89999999999,"N_COORD97":2542639.48,"ADDRESS":"裕農一街１８６號三樓之２２","OBJECTID":525545},"geometry":{"x":171910.90000000037,"y":2542639.4800000023}},{"attributes":{"ID":525573,"DIS_CODE":0,"TOWNNAME":"東區","LI":"文聖里","LIN":"6鄰","STREET":"裕農一街","SECT":" ","MAREA":" ","LANE":" ","ALLEY":" ","HOUSE_NO":"１８６號三樓之２３","E_COORD97":171910.89999999999,"N_COORD97":2542639.48,"ADDRESS":"裕農一街１８６號三樓之２３","OBJECTID":525546},"geometry":{"x":171910.90000000037,"y":2542639.4800000023}},{"attributes":{"ID":525574,"DIS_CODE":0,"TOWNNAME":"東區","LI":"文聖里","LIN":"6鄰","STREET":"裕農一街","SECT":" ","MAREA":" ","LANE":" ","ALLEY":" ","HOUSE_NO":"１８６號三樓之２４","E_COORD97":171910.89999999999,"N_COORD97":2542639.48,"ADDRESS":"裕農一街１８６號三樓之２４","OBJECTID":525547},"geometry":{"x":171910.90000000037,"y":2542639.4800000023}},{"attributes":{"ID":525575,"DIS_CODE":0,"TOWNNAME":"東區","LI":"文聖里","LIN":"6鄰","STREET":"裕農一街","SECT":" ","MAREA":" ","LANE":" ","ALLEY":" ","HOUSE_NO":"１８６號三樓之３","E_COORD97":171910.89999999999,"N_COORD97":2542639.48,"ADDRESS":"裕農一街１８６號三樓之３","OBJECTID":525548},"geometry":{"x":171910.90000000037,"y":2542639.4800000023}},{"attributes":{"ID":525576,"DIS_CODE":0,"TOWNNAME":"東區","LI":"文聖里","LIN":"6鄰","STREET":"裕農一街","SECT":" ","MAREA":" ","LANE":" ","ALLEY":" ","HOUSE_NO":"１８６號三樓之５","E_COORD97":171910.89999999999,"N_COORD97":2542639.48,"ADDRESS":"裕農一街１８６號三樓之５","OBJECTID":525549},"geometry":{"x":171910.90000000037,"y":2542639.4800000023}},{"attributes":{"ID":525577,"DIS_CODE":0,"TOWNNAME":"東區","LI":"文聖里","LIN":"6鄰","STREET":"裕農一街","SECT":" ","MAREA":" ","LANE":" ","ALLEY":" ","HOUSE_NO":"１８６號三樓之６","E_COORD97":171910.89999999999,"N_COORD97":2542639.48,"ADDRESS":"裕農一街１８６號三樓之６","OBJECTID":525550},"geometry":{"x":171910.90000000037,"y":2542639.4800000023}},{"attributes":{"ID":525578,"DIS_CODE":0,"TOWNNAME":"東區","LI":"文聖里","LIN":"6鄰","STREET":"裕農一街","SECT":" ","MAREA":" ","LANE":" ","ALLEY":" ","HOUSE_NO":"１８６號四樓","E_COORD97":171910.89999999999,"N_COORD97":2542639.48,"ADDRESS":"裕農一街１８６號四樓","OBJECTID":525551},"geometry":{"x":171910.90000000037,"y":2542639.4800000023}},{"attributes":{"ID":525579,"DIS_CODE":0,"TOWNNAME":"東區","LI":"文聖里","LIN":"6鄰","STREET":"裕農一街","SECT":" ","MAREA":" ","LANE":" ","ALLEY":" ","HOUSE_NO":"１８６號四樓之１","E_COORD97":171910.89999999999,"N_COORD97":2542639.48,"ADDRESS":"裕農一街１８６號四樓之１","OBJECTID":525552},"geometry":{"x":171910.90000000037,"y":2542639.4800000023}},{"attributes":{"ID":525580,"DIS_CODE":0,"TOWNNAME":"東區","LI":"文聖里","LIN":"6鄰","STREET":"裕農一街","SECT":" ","MAREA":" ","LANE":" ","ALLEY":" ","HOUSE_NO":"１８６號四樓之１０","E_COORD97":171910.89999999999,"N_COORD97":2542639.48,"ADDRESS":"裕農一街１８６號四樓之１０","OBJECTID":525553},"geometry":{"x":171910.90000000037,"y":2542639.4800000023}},{"attributes":{"ID":525581,"DIS_CODE":0,"TOWNNAME":"東區","LI":"文聖里","LIN":"6鄰","STREET":"裕農一街","SECT":" ","MAREA":" ","LANE":" ","ALLEY":" ","HOUSE_NO":"１８６號四樓之１１","E_COORD97":171910.89999999999,"N_COORD97":2542639.48,"ADDRESS":"裕農一街１８６號四樓之１１","OBJECTID":525554},"geometry":{"x":171910.90000000037,"y":2542639.4800000023}},{"attributes":{"ID":525582,"DIS_CODE":0,"TOWNNAME":"東區","LI":"文聖里","LIN":"6鄰","STREET":"裕農一街","SECT":" ","MAREA":" ","LANE":" ","ALLEY":" ","HOUSE_NO":"１８６號四樓之１２","E_COORD97":171910.89999999999,"N_COORD97":2542639.48,"ADDRESS":"裕農一街１８６號四樓之１２","OBJECTID":525555},"geometry":{"x":171910.90000000037,"y":2542639.4800000023}},{"attributes":{"ID":525583,"DIS_CODE":0,"TOWNNAME":"東區","LI":"文聖里","LIN":"6鄰","STREET":"裕農一街","SECT":" ","MAREA":" ","LANE":" ","ALLEY":" ","HOUSE_NO":"１８６號四樓之１３","E_COORD97":171910.89999999999,"N_COORD97":2542639.48,"ADDRESS":"裕農一街１８６號四樓之１３","OBJECTID":525556},"geometry":{"x":171910.90000000037,"y":2542639.4800000023}},{"attributes":{"ID":525584,"DIS_CODE":0,"TOWNNAME":"東區","LI":"文聖里","LIN":"6鄰","STREET":"裕農一街","SECT":" ","MAREA":" ","LANE":" ","ALLEY":" ","HOUSE_NO":"１８６號四樓之１４","E_COORD97":171910.89999999999,"N_COORD97":2542639.48,"ADDRESS":"裕農一街１８６號四樓之１４","OBJECTID":525557},"geometry":{"x":171910.90000000037,"y":2542639.4800000023}},{"attributes":{"ID":525585,"DIS_CODE":0,"TOWNNAME":"東區","LI":"文聖里","LIN":"6鄰","STREET":"裕農一街","SECT":" ","MAREA":" ","LANE":" ","ALLEY":" ","HOUSE_NO":"１８６號四樓之１５","E_COORD97":171910.89999999999,"N_COORD97":2542639.48,"ADDRESS":"裕農一街１８６號四樓之１５","OBJECTID":525558},"geometry":{"x":171910.90000000037,"y":2542639.4800000023}},{"attributes":{"ID":525586,"DIS_CODE":0,"TOWNNAME":"東區","LI":"文聖里","LIN":"6鄰","STREET":"裕農一街","SECT":" ","MAREA":" ","LANE":" ","ALLEY":" ","HOUSE_NO":"１８６號四樓之１６","E_COORD97":171910.89999999999,"N_COORD97":2542639.48,"ADDRESS":"裕農一街１８６號四樓之１６","OBJECTID":525559},"geometry":{"x":171910.90000000037,"y":2542639.4800000023}},{"attributes":{"ID":525587,"DIS_CODE":0,"TOWNNAME":"東區","LI":"文聖里","LIN":"6鄰","STREET":"裕農一街","SECT":" ","MAREA":" ","LANE":" ","ALLEY":" ","HOUSE_NO":"１８６號四樓之１７","E_COORD97":171910.89999999999,"N_COORD97":2542639.48,"ADDRESS":"裕農一街１８６號四樓之１７","OBJECTID":525560},"geometry":{"x":171910.90000000037,"y":2542639.4800000023}},{"attributes":{"ID":525588,"DIS_CODE":0,"TOWNNAME":"東區","LI":"文聖里","LIN":"6鄰","STREET":"裕農一街","SECT":" ","MAREA":" ","LANE":" ","ALLEY":" ","HOUSE_NO":"１８６號四樓之１８","E_COORD97":171910.89999999999,"N_COORD97":2542639.48,"ADDRESS":"裕農一街１８６號四樓之１８","OBJECTID":525561},"geometry":{"x":171910.90000000037,"y":2542639.4800000023}},{"attributes":{"ID":525589,"DIS_CODE":0,"TOWNNAME":"東區","LI":"文聖里","LIN":"6鄰","STREET":"裕農一街","SECT":" ","MAREA":" ","LANE":" ","ALLEY":" ","HOUSE_NO":"１８６號四樓之１９","E_COORD97":171910.89999999999,"N_COORD97":2542639.48,"ADDRESS":"裕農一街１８６號四樓之１９","OBJECTID":525562},"geometry":{"x":171910.90000000037,"y":2542639.4800000023}},{"attributes":{"ID":525590,"DIS_CODE":0,"TOWNNAME":"東區","LI":"文聖里","LIN":"6鄰","STREET":"裕農一街","SECT":" ","MAREA":" ","LANE":" ","ALLEY":" ","HOUSE_NO":"１８６號四樓之２","E_COORD97":171910.89999999999,"N_COORD97":2542639.48,"ADDRESS":"裕農一街１８６號四樓之２","OBJECTID":525563},"geometry":{"x":171910.90000000037,"y":2542639.4800000023}},{"attributes":{"ID":525591,"DIS_CODE":0,"TOWNNAME":"東區","LI":"文聖里","LIN":"6鄰","STREET":"裕農一街","SECT":" ","MAREA":" ","LANE":" ","ALLEY":" ","HOUSE_NO":"１８６號四樓之２０","E_COORD97":171910.89999999999,"N_COORD97":2542639.48,"ADDRESS":"裕農一街１８６號四樓之２０","OBJECTID":525564},"geometry":{"x":171910.90000000037,"y":2542639.4800000023}},{"attributes":{"ID":525592,"DIS_CODE":0,"TOWNNAME":"東區","LI":"文聖里","LIN":"6鄰","STREET":"裕農一街","SECT":" ","MAREA":" ","LANE":" ","ALLEY":" ","HOUSE_NO":"１８６號四樓之２１","E_COORD97":171910.89999999999,"N_COORD97":2542639.48,"ADDRESS":"裕農一街１８６號四樓之２１","OBJECTID":525565},"geometry":{"x":171910.90000000037,"y":2542639.4800000023}},{"attributes":{"ID":525593,"DIS_CODE":0,"TOWNNAME":"東區","LI":"文聖里","LIN":"6鄰","STREET":"裕農一街","SECT":" ","MAREA":" ","LANE":" ","ALLEY":" ","HOUSE_NO":"１８６號四樓之２２","E_COORD97":171910.89999999999,"N_COORD97":2542639.48,"ADDRESS":"裕農一街１８６號四樓之２２","OBJECTID":525566},"geometry":{"x":171910.90000000037,"y":2542639.4800000023}},{"attributes":{"ID":525594,"DIS_CODE":0,"TOWNNAME":"東區","LI":"文聖里","LIN":"6鄰","STREET":"裕農一街","SECT":" ","MAREA":" ","LANE":" ","ALLEY":" ","HOUSE_NO":"１８６號四樓之２３","E_COORD97":171910.89999999999,"N_COORD97":2542639.48,"ADDRESS":"裕農一街１８６號四樓之２３","OBJECTID":525567},"geometry":{"x":171910.90000000037,"y":2542639.4800000023}},{"attributes":{"ID":525595,"DIS_CODE":0,"TOWNNAME":"東區","LI":"文聖里","LIN":"6鄰","STREET":"裕農一街","SECT":" ","MAREA":" ","LANE":" ","ALLEY":" ","HOUSE_NO":"１８６號四樓之２４","E_COORD97":171910.89999999999,"N_COORD97":2542639.48,"ADDRESS":"裕農一街１８６號四樓之２４","OBJECTID":525568},"geometry":{"x":171910.90000000037,"y":2542639.4800000023}},{"attributes":{"ID":525596,"DIS_CODE":0,"TOWNNAME":"東區","LI":"文聖里","LIN":"6鄰","STREET":"裕農一街","SECT":" ","MAREA":" ","LANE":" ","ALLEY":" ","HOUSE_NO":"１８６號四樓之２５","E_COORD97":171910.89999999999,"N_COORD97":2542639.48,"ADDRESS":"裕農一街１８６號四樓之２５","OBJECTID":525569},"geometry":{"x":171910.90000000037,"y":2542639.4800000023}},{"attributes":{"ID":525597,"DIS_CODE":0,"TOWNNAME":"東區","LI":"文聖里","LIN":"6鄰","STREET":"裕農一街","SECT":" ","MAREA":" ","LANE":" ","ALLEY":" ","HOUSE_NO":"１８６號四樓之３","E_COORD97":171910.89999999999,"N_COORD97":2542639.48,"ADDRESS":"裕農一街１８６號四樓之３","OBJECTID":525570},"geometry":{"x":171910.90000000037,"y":2542639.4800000023}},{"attributes":{"ID":525598,"DIS_CODE":0,"TOWNNAME":"東區","LI":"文聖里","LIN":"6鄰","STREET":"裕農一街","SECT":" ","MAREA":" ","LANE":" ","ALLEY":" ","HOUSE_NO":"１８６號四樓之５","E_COORD97":171910.89999999999,"N_COORD97":2542639.48,"ADDRESS":"裕農一街１８６號四樓之５","OBJECTID":525571},"geometry":{"x":171910.90000000037,"y":2542639.4800000023}},{"attributes":{"ID":525599,"DIS_CODE":0,"TOWNNAME":"東區","LI":"文聖里","LIN":"6鄰","STREET":"裕農一街","SECT":" ","MAREA":" ","LANE":" ","ALLEY":" ","HOUSE_NO":"１８６號四樓之６","E_COORD97":171910.89999999999,"N_COORD97":2542639.48,"ADDRESS":"裕農一街１８６號四樓之６","OBJECTID":525572},"geometry":{"x":171910.90000000037,"y":2542639.4800000023}},{"attributes":{"ID":525600,"DIS_CODE":0,"TOWNNAME":"東區","LI":"文聖里","LIN":"6鄰","STREET":"裕農一街","SECT":" ","MAREA":" ","LANE":" ","ALLEY":" ","HOUSE_NO":"１８６號四樓之７","E_COORD97":171910.89999999999,"N_COORD97":2542639.48,"ADDRESS":"裕農一街１８６號四樓之７","OBJECTID":525573},"geometry":{"x":171910.90000000037,"y":2542639.4800000023}},{"attributes":{"ID":525601,"DIS_CODE":0,"TOWNNAME":"東區","LI":"文聖里","LIN":"6鄰","STREET":"裕農一街","SECT":" ","MAREA":" ","LANE":" ","ALLEY":" ","HOUSE_NO":"１８６號四樓之８","E_COORD97":171910.89999999999,"N_COORD97":2542639.48,"ADDRESS":"裕農一街１８６號四樓之８","OBJECTID":525574},"geometry":{"x":171910.90000000037,"y":2542639.4800000023}},{"attributes":{"ID":525602,"DIS_CODE":0,"TOWNNAME":"東區","LI":"文聖里","LIN":"6鄰","STREET":"裕農一街","SECT":" ","MAREA":" ","LANE":" ","ALLEY":" ","HOUSE_NO":"１８６號四樓之９","E_COORD97":171910.89999999999,"N_COORD97":2542639.48,"ADDRESS":"裕農一街１８６號四樓之９","OBJECTID":525575},"geometry":{"x":171910.90000000037,"y":2542639.4800000023}},{"attributes":{"ID":525603,"DIS_CODE":0,"TOWNNAME":"東區","LI":"東門里","LIN":"6鄰","STREET":"前鋒路","SECT":" ","MAREA":" ","LANE":" ","ALLEY":" ","HOUSE_NO":"６５號二樓","E_COORD97":169284.17000000001,"N_COORD97":2543485.4300000002,"ADDRESS":"前鋒路６５號二樓","OBJECTID":525576},"geometry":{"x":169284.17000000086,"y":2543485.4300000034}},{"attributes":{"ID":525604,"DIS_CODE":0,"TOWNNAME":"東區","LI":"東門里","LIN":"6鄰","STREET":"前鋒路","SECT":" ","MAREA":" ","LANE":" ","ALLEY":" ","HOUSE_NO":"６５號三樓","E_COORD97":169284.17000000001,"N_COORD97":2543485.4300000002,"ADDRESS":"前鋒路６５號三樓","OBJECTID":525577},"geometry":{"x":169284.17000000086,"y":2543485.4300000034}},{"attributes":{"ID":525605,"DIS_CODE":0,"TOWNNAME":"東區","LI":"東門里","LIN":"6鄰","STREET":"前鋒路","SECT":" ","MAREA":" ","LANE":" ","ALLEY":" ","HOUSE_NO":"６５號之１二樓","E_COORD97":169283.35000000001,"N_COORD97":2543488.8500000001,"ADDRESS":"前鋒路６５號之１二樓","OBJECTID":525578},"geometry":{"x":169283.34999999963,"y":2543488.8499999996}},{"attributes":{"ID":525606,"DIS_CODE":0,"TOWNNAME":"東區","LI":"東門里","LIN":"6鄰","STREET":"前鋒路","SECT":" ","MAREA":" ","LANE":" ","ALLEY":" ","HOUSE_NO":"６５號之１三樓","E_COORD97":169283.35000000001,"N_COORD97":2543488.8500000001,"ADDRESS":"前鋒路６５號之１三樓","OBJECTID":525579},"geometry":{"x":169283.34999999963,"y":2543488.8499999996}},{"attributes":{"ID":525607,"DIS_CODE":0,"TOWNNAME":"東區","LI":"東門里","LIN":"6鄰","STREET":"前鋒路","SECT":" ","MAREA":" ","LANE":" ","ALLEY":" ","HOUSE_NO":"６５號之１五樓","E_COORD97":169283.35000000001,"N_COORD97":2543488.8500000001,"ADDRESS":"前鋒路６５號之１五樓","OBJECTID":525580},"geometry":{"x":169283.34999999963,"y":2543488.8499999996}},{"attributes":{"ID":525608,"DIS_CODE":0,"TOWNNAME":"東區","LI":"東門里","LIN":"6鄰","STREET":"前鋒路","SECT":" ","MAREA":" ","LANE":" ","ALLEY":" ","HOUSE_NO":"６５號之１四樓","E_COORD97":169283.35000000001,"N_COORD97":2543488.8500000001,"ADDRESS":"前鋒路６５號之１四樓","OBJECTID":525581},"geometry":{"x":169283.34999999963,"y":2543488.8499999996}},{"attributes":{"ID":525609,"DIS_CODE":0,"TOWNNAME":"東區","LI":"東門里","LIN":"6鄰","STREET":"前鋒路","SECT":" ","MAREA":" ","LANE":" ","ALLEY":" ","HOUSE_NO":"６７號二樓","E_COORD97":169286.45000000001,"N_COORD97":2543493.7599999998,"ADDRESS":"前鋒路６７號二樓","OBJECTID":525582},"geometry":{"x":169286.45000000019,"y":2543493.7600000016}},{"attributes":{"ID":525610,"DIS_CODE":0,"TOWNNAME":"東區","LI":"東門里","LIN":"6鄰","STREET":"前鋒路","SECT":" ","MAREA":" ","LANE":" ","ALLEY":" ","HOUSE_NO":"６７號五樓","E_COORD97":169286.45000000001,"N_COORD97":2543493.7599999998,"ADDRESS":"前鋒路６７號五樓","OBJECTID":525583},"geometry":{"x":169286.45000000019,"y":2543493.7600000016}},{"attributes":{"ID":525611,"DIS_CODE":0,"TOWNNAME":"東區","LI":"東門里","LIN":"6鄰","STREET":"前鋒路","SECT":" ","MAREA":" ","LANE":" ","ALLEY":" ","HOUSE_NO":"６７號四樓","E_COORD97":169286.45000000001,"N_COORD97":2543493.7599999998,"ADDRESS":"前鋒路６７號四樓","OBJECTID":525584},"geometry":{"x":169286.45000000019,"y":2543493.7600000016}},{"attributes":{"ID":525612,"DIS_CODE":0,"TOWNNAME":"東區","LI":"東門里","LIN":"6鄰","STREET":"前鋒路","SECT":" ","MAREA":" ","LANE":" ","ALLEY":" ","HOUSE_NO":"６９號二樓","E_COORD97":169284.75,"N_COORD97":2543498.3399999999,"ADDRESS":"前鋒路６９號二樓","OBJECTID":525585},"geometry":{"x":169284.75000000186,"y":2543498.3399999999}},{"attributes":{"ID":525613,"DIS_CODE":0,"TOWNNAME":"中西區","LI":"民權里","LIN":"6鄰","STREET":"和平街","SECT":" ","MAREA":" ","LANE":" ","ALLEY":" ","HOUSE_NO":"８４號二樓","E_COORD97":167596.38,"N_COORD97":2544163.1699999999,"ADDRESS":"和平街８４號二樓","OBJECTID":525586},"geometry":{"x":167596.37999999989,"y":2544163.1700000018}},{"attributes":{"ID":525614,"DIS_CODE":0,"TOWNNAME":"中西區","LI":"民權里","LIN":"6鄰","STREET":"和平街","SECT":" ","MAREA":" ","LANE":" ","ALLEY":" ","HOUSE_NO":"８４號三樓","E_COORD97":167596.38,"N_COORD97":2544163.1699999999,"ADDRESS":"和平街８４號三樓","OBJECTID":525587},"geometry":{"x":167596.37999999989,"y":2544163.1700000018}},{"attributes":{"ID":525615,"DIS_CODE":0,"TOWNNAME":"中西區","LI":"協和里","LIN":"6鄰","STREET":"臨安路","SECT":"一段","MAREA":" ","LANE":" ","ALLEY":" ","HOUSE_NO":"１７０號二樓","E_COORD97":167269.07999999999,"N_COORD97":2544610.2200000002,"ADDRESS":"臨安路一段１７０號二樓","OBJECTID":525588},"geometry":{"x":167269.08000000101,"y":2544610.2200000044}},{"attributes":{"ID":525616,"DIS_CODE":0,"TOWNNAME":"中西區","LI":"協和里","LIN":"6鄰","STREET":"臨安路","SECT":"一段","MAREA":" ","LANE":" ","ALLEY":" ","HOUSE_NO":"１７０號三樓","E_COORD97":167269.07999999999,"N_COORD97":2544610.2200000002,"ADDRESS":"臨安路一段１７０號三樓","OBJECTID":525589},"geometry":{"x":167269.08000000101,"y":2544610.2200000044}},{"attributes":{"ID":525617,"DIS_CODE":0,"TOWNNAME":"中西區","LI":"協和里","LIN":"6鄰","STREET":"臨安路","SECT":"一段","MAREA":" ","LANE":" ","ALLEY":" ","HOUSE_NO":"１７０號五樓","E_COORD97":167269.07999999999,"N_COORD97":2544610.2200000002,"ADDRESS":"臨安路一段１７０號五樓","OBJECTID":525590},"geometry":{"x":167269.08000000101,"y":2544610.2200000044}},{"attributes":{"ID":525618,"DIS_CODE":0,"TOWNNAME":"中西區","LI":"協和里","LIN":"6鄰","STREET":"臨安路","SECT":"一段","MAREA":" ","LANE":" ","ALLEY":" ","HOUSE_NO":"１７０號四樓","E_COORD97":167269.07999999999,"N_COORD97":2544610.2200000002,"ADDRESS":"臨安路一段１７０號四樓","OBJECTID":525591},"geometry":{"x":167269.08000000101,"y":2544610.2200000044}},{"attributes":{"ID":525619,"DIS_CODE":0,"TOWNNAME":"永康區","LI":"西勢里","LIN":"21鄰","STREET":"富強路","SECT":"一段","MAREA":" ","LANE":" ","ALLEY":" ","HOUSE_NO":"９２號","E_COORD97":175483.87,"N_COORD97":2546150.27,"ADDRESS":"富強路一段９２號","OBJECTID":525592},"geometry":{"x":175483.87000000104,"y":2546150.2699999996}},{"attributes":{"ID":525620,"DIS_CODE":0,"TOWNNAME":"中西區","LI":"赤嵌里","LIN":"6鄰","STREET":"廣慈街","SECT":" ","MAREA":" ","LANE":" ","ALLEY":" ","HOUSE_NO":"２２號五樓","E_COORD97":168665.89999999999,"N_COORD97":2544052.2200000002,"ADDRESS":"廣慈街２２號五樓","OBJECTID":525593},"geometry":{"x":168665.9000000013,"y":2544052.2200000025}},{"attributes":{"ID":525621,"DIS_CODE":0,"TOWNNAME":"中西區","LI":"赤嵌里","LIN":"6鄰","STREET":"廣慈街","SECT":" ","MAREA":" ","LANE":" ","ALLEY":" ","HOUSE_NO":"２２號四樓","E_COORD97":168665.89999999999,"N_COORD97":2544052.2200000002,"ADDRESS":"廣慈街２２號四樓","OBJECTID":525594},"geometry":{"x":168665.9000000013,"y":2544052.2200000025}},{"attributes":{"ID":525622,"DIS_CODE":0,"TOWNNAME":"永康區","LI":"安康里","LIN":"18鄰","STREET":"中華西街","SECT":" ","MAREA":" ","LANE":" ","ALLEY":" ","HOUSE_NO":"４０號","E_COORD97":170803.29000000001,"N_COORD97":2545988.7400000002,"ADDRESS":"中華西街４０號","OBJECTID":525595},"geometry":{"x":170803.2900000019,"y":2545988.7400000002}},{"attributes":{"ID":525623,"DIS_CODE":0,"TOWNNAME":"永康區","LI":"永康里","LIN":"8鄰","STREET":"永康街","SECT":" ","MAREA":" ","LANE":" ","ALLEY":" ","HOUSE_NO":"３５號","E_COORD97":173798.85999999999,"N_COORD97":2547246.2799999998,"ADDRESS":"永康街３５號","OBJECTID":525596},"geometry":{"x":173798.86000000127,"y":2547246.2800000012}},{"attributes":{"ID":525624,"DIS_CODE":0,"TOWNNAME":"中西區","LI":"仙草里","LIN":"6鄰","STREET":"五妃街","SECT":" ","MAREA":" ","LANE":" ","ALLEY":" ","HOUSE_NO":"２５８號二樓之１５","E_COORD97":167932.23999999999,"N_COORD97":2542590.5499999998,"ADDRESS":"五妃街２５８號二樓之１５","OBJECTID":525597},"geometry":{"x":167932.24000000209,"y":2542590.5500000045}},{"attributes":{"ID":525625,"DIS_CODE":0,"TOWNNAME":"中西區","LI":"仙草里","LIN":"6鄰","STREET":"五妃街","SECT":" ","MAREA":" ","LANE":" ","ALLEY":" ","HOUSE_NO":"２５８號二樓之１３","E_COORD97":167932.23999999999,"N_COORD97":2542590.5499999998,"ADDRESS":"五妃街２５８號二樓之１３","OBJECTID":525598},"geometry":{"x":167932.24000000209,"y":2542590.5500000045}},{"attributes":{"ID":525626,"DIS_CODE":0,"TOWNNAME":"中西區","LI":"仙草里","LIN":"6鄰","STREET":"五妃街","SECT":" ","MAREA":" ","LANE":" ","ALLEY":" ","HOUSE_NO":"２５８號二樓之１２","E_COORD97":167932.23999999999,"N_COORD97":2542590.5499999998,"ADDRESS":"五妃街２５８號二樓之１２","OBJECTID":525599},"geometry":{"x":167932.24000000209,"y":2542590.5500000045}},{"attributes":{"ID":525627,"DIS_CODE":0,"TOWNNAME":"中西區","LI":"仙草里","LIN":"6鄰","STREET":"五妃街","SECT":" ","MAREA":" ","LANE":" ","ALLEY":" ","HOUSE_NO":"２５８號二樓之１１","E_COORD97":167932.23999999999,"N_COORD97":2542590.5499999998,"ADDRESS":"五妃街２５８號二樓之１１","OBJECTID":525600},"geometry":{"x":167932.24000000209,"y":2542590.5500000045}}]}