{"displayFieldName":"TOWNNAME","fieldAliases":{"ID":"ID","DIS_CODE":"DIS_CODE","TOWNNAME":"TOWNNAME","LI":"LI","LIN":"LIN","STREET":"STREET","SECT":"SECT","MAREA":"MAREA","LANE":"LANE","ALLEY":"ALLEY","HOUSE_NO":"HOUSE_NO","E_COORD97":"E_COORD97","N_COORD97":"N_COORD97","ADDRESS":"ADDRESS","OBJECTID":"OBJECTID"},"geometryType":"esriGeometryPoint","spatialReference":{"wkid":102443,"latestWkid":3826},"fields":[{"name":"ID","type":"esriFieldTypeDouble","alias":"ID"},{"name":"DIS_CODE","type":"esriFieldTypeInteger","alias":"DIS_CODE"},{"name":"TOWNNAME","type":"esriFieldTypeString","alias":"TOWNNAME","length":8},{"name":"LI","type":"esriFieldTypeString","alias":"LI","length":8},{"name":"LIN","type":"esriFieldTypeString","alias":"LIN","length":12},{"name":"STREET","type":"esriFieldTypeString","alias":"STREET","length":20},{"name":"SECT","type":"esriFieldTypeString","alias":"SECT","length":8},{"name":"MAREA","type":"esriFieldTypeString","alias":"MAREA","length":12},{"name":"LANE","type":"esriFieldTypeString","alias":"LANE","length":10},{"name":"ALLEY","type":"esriFieldTypeString","alias":"ALLEY","length":10},{"name":"HOUSE_NO","type":"esriFieldTypeString","alias":"HOUSE_NO","length":20},{"name":"E_COORD97","type":"esriFieldTypeDouble","alias":"E_COORD97"},{"name":"N_COORD97","type":"esriFieldTypeDouble","alias":"N_COORD97"},{"name":"ADDRESS","type":"esriFieldTypeString","alias":"ADDRESS","length":50},{"name":"OBJECTID","type":"esriFieldTypeOID","alias":"OBJECTID"}],"features":[{"attributes":{"ID":496428,"DIS_CODE":0,"TOWNNAME":"北區","LI":"元寶里","LIN":"7鄰","STREET":"北園街","SECT":" ","MAREA":" ","LANE":" ","ALLEY":" ","HOUSE_NO":"２２號七樓之８","E_COORD97":170389.20999999999,"N_COORD97":2545683.5299999998,"ADDRESS":"北園街２２號七樓之８","OBJECTID":496401},"geometry":{"x":170389.21000000089,"y":2545683.5299999993}},{"attributes":{"ID":496429,"DIS_CODE":0,"TOWNNAME":"北區","LI":"元寶里","LIN":"7鄰","STREET":"北園街","SECT":" ","MAREA":" ","LANE":" ","ALLEY":" ","HOUSE_NO":"２２號七樓之９","E_COORD97":170389.20999999999,"N_COORD97":2545683.5299999998,"ADDRESS":"北園街２２號七樓之９","OBJECTID":496402},"geometry":{"x":170389.21000000089,"y":2545683.5299999993}},{"attributes":{"ID":496430,"DIS_CODE":0,"TOWNNAME":"北區","LI":"元寶里","LIN":"7鄰","STREET":"北園街","SECT":" ","MAREA":" ","LANE":" ","ALLEY":" ","HOUSE_NO":"２２號九樓之１","E_COORD97":170389.20999999999,"N_COORD97":2545683.5299999998,"ADDRESS":"北園街２２號九樓之１","OBJECTID":496403},"geometry":{"x":170389.21000000089,"y":2545683.5299999993}},{"attributes":{"ID":496431,"DIS_CODE":0,"TOWNNAME":"北區","LI":"元寶里","LIN":"7鄰","STREET":"北園街","SECT":" ","MAREA":" ","LANE":" ","ALLEY":" ","HOUSE_NO":"２２號九樓之２","E_COORD97":170389.20999999999,"N_COORD97":2545683.5299999998,"ADDRESS":"北園街２２號九樓之２","OBJECTID":496404},"geometry":{"x":170389.21000000089,"y":2545683.5299999993}},{"attributes":{"ID":496432,"DIS_CODE":0,"TOWNNAME":"北區","LI":"元寶里","LIN":"7鄰","STREET":"北園街","SECT":" ","MAREA":" ","LANE":" ","ALLEY":" ","HOUSE_NO":"２２號九樓之３","E_COORD97":170389.20999999999,"N_COORD97":2545683.5299999998,"ADDRESS":"北園街２２號九樓之３","OBJECTID":496405},"geometry":{"x":170389.21000000089,"y":2545683.5299999993}},{"attributes":{"ID":496433,"DIS_CODE":0,"TOWNNAME":"北區","LI":"元寶里","LIN":"7鄰","STREET":"北園街","SECT":" ","MAREA":" ","LANE":" ","ALLEY":" ","HOUSE_NO":"２２號九樓之５","E_COORD97":170389.20999999999,"N_COORD97":2545683.5299999998,"ADDRESS":"北園街２２號九樓之５","OBJECTID":496406},"geometry":{"x":170389.21000000089,"y":2545683.5299999993}},{"attributes":{"ID":496434,"DIS_CODE":0,"TOWNNAME":"北區","LI":"元寶里","LIN":"7鄰","STREET":"北園街","SECT":" ","MAREA":" ","LANE":" ","ALLEY":" ","HOUSE_NO":"２２號九樓之６","E_COORD97":170389.20999999999,"N_COORD97":2545683.5299999998,"ADDRESS":"北園街２２號九樓之６","OBJECTID":496407},"geometry":{"x":170389.21000000089,"y":2545683.5299999993}},{"attributes":{"ID":496435,"DIS_CODE":0,"TOWNNAME":"北區","LI":"元寶里","LIN":"7鄰","STREET":"北園街","SECT":" ","MAREA":" ","LANE":" ","ALLEY":" ","HOUSE_NO":"２２號九樓之７","E_COORD97":170389.20999999999,"N_COORD97":2545683.5299999998,"ADDRESS":"北園街２２號九樓之７","OBJECTID":496408},"geometry":{"x":170389.21000000089,"y":2545683.5299999993}},{"attributes":{"ID":496436,"DIS_CODE":0,"TOWNNAME":"中西區","LI":"西賢里","LIN":"7鄰","STREET":"西賢街","SECT":" ","MAREA":" ","LANE":" ","ALLEY":" ","HOUSE_NO":"２２０號","E_COORD97":165843.82000000001,"N_COORD97":2544973.8100000001,"ADDRESS":"西賢街２２０號","OBJECTID":496409},"geometry":{"x":165843.82000000123,"y":2544973.8100000005}},{"attributes":{"ID":496437,"DIS_CODE":0,"TOWNNAME":"中西區","LI":"西賢里","LIN":"7鄰","STREET":"西賢街","SECT":" ","MAREA":" ","LANE":" ","ALLEY":" ","HOUSE_NO":"２２２號","E_COORD97":165848.39000000001,"N_COORD97":2544973.8100000001,"ADDRESS":"西賢街２２２號","OBJECTID":496410},"geometry":{"x":165848.38999999966,"y":2544973.8100000005}},{"attributes":{"ID":496438,"DIS_CODE":0,"TOWNNAME":"中西區","LI":"西賢里","LIN":"7鄰","STREET":"西賢街","SECT":" ","MAREA":" ","LANE":" ","ALLEY":" ","HOUSE_NO":"２２６號","E_COORD97":165852.44,"N_COORD97":2544973.1600000001,"ADDRESS":"西賢街２２６號","OBJECTID":496411},"geometry":{"x":165852.44000000041,"y":2544973.160000002}},{"attributes":{"ID":496439,"DIS_CODE":0,"TOWNNAME":"中西區","LI":"西賢里","LIN":"7鄰","STREET":"西賢街","SECT":" ","MAREA":" ","LANE":" ","ALLEY":" ","HOUSE_NO":"２２８號","E_COORD97":165856.75,"N_COORD97":2544973.5499999998,"ADDRESS":"西賢街２２８號","OBJECTID":496412},"geometry":{"x":165856.75,"y":2544973.5500000007}},{"attributes":{"ID":496440,"DIS_CODE":0,"TOWNNAME":"中西區","LI":"西賢里","LIN":"7鄰","STREET":"西賢街","SECT":" ","MAREA":" ","LANE":" ","ALLEY":" ","HOUSE_NO":"２３０號","E_COORD97":165860.67000000001,"N_COORD97":2544972.77,"ADDRESS":"西賢街２３０號","OBJECTID":496413},"geometry":{"x":165860.66999999993,"y":2544972.7700000014}},{"attributes":{"ID":496441,"DIS_CODE":0,"TOWNNAME":"中西區","LI":"西賢里","LIN":"7鄰","STREET":"西賢街","SECT":" ","MAREA":" ","LANE":" ","ALLEY":" ","HOUSE_NO":"２３６號","E_COORD97":165868.38,"N_COORD97":2544971.8500000001,"ADDRESS":"西賢街２３６號","OBJECTID":496414},"geometry":{"x":165868.38000000082,"y":2544971.8500000015}},{"attributes":{"ID":496442,"DIS_CODE":0,"TOWNNAME":"中西區","LI":"西賢里","LIN":"7鄰","STREET":"西賢街","SECT":" ","MAREA":" ","LANE":" ","ALLEY":" ","HOUSE_NO":"２３８號","E_COORD97":165825.22,"N_COORD97":2544991.9700000002,"ADDRESS":"西賢街２３８號","OBJECTID":496415},"geometry":{"x":165825.22000000067,"y":2544991.9700000025}},{"attributes":{"ID":496443,"DIS_CODE":0,"TOWNNAME":"中西區","LI":"西賢里","LIN":"7鄰","STREET":"西賢街","SECT":" ","MAREA":" ","LANE":" ","ALLEY":" ","HOUSE_NO":"２４０號","E_COORD97":165829.70999999999,"N_COORD97":2544991.9700000002,"ADDRESS":"西賢街２４０號","OBJECTID":496416},"geometry":{"x":165829.70999999996,"y":2544991.9700000025}},{"attributes":{"ID":496444,"DIS_CODE":0,"TOWNNAME":"中西區","LI":"西賢里","LIN":"7鄰","STREET":"西賢街","SECT":" ","MAREA":" ","LANE":" ","ALLEY":" ","HOUSE_NO":"２４２號","E_COORD97":165833.20999999999,"N_COORD97":2544992.25,"ADDRESS":"西賢街２４２號","OBJECTID":496417},"geometry":{"x":165833.20999999996,"y":2544992.2500000037}},{"attributes":{"ID":496445,"DIS_CODE":0,"TOWNNAME":"中西區","LI":"西賢里","LIN":"7鄰","STREET":"西賢街","SECT":" ","MAREA":" ","LANE":" ","ALLEY":" ","HOUSE_NO":"２４６號","E_COORD97":165836.44,"N_COORD97":2544992.25,"ADDRESS":"西賢街２４６號","OBJECTID":496418},"geometry":{"x":165836.44000000134,"y":2544992.2500000037}},{"attributes":{"ID":496446,"DIS_CODE":0,"TOWNNAME":"中西區","LI":"西賢里","LIN":"7鄰","STREET":"西賢街","SECT":" ","MAREA":" ","LANE":" ","ALLEY":" ","HOUSE_NO":"２４８號","E_COORD97":165841.20999999999,"N_COORD97":2544992.1099999999,"ADDRESS":"西賢街２４８號","OBJECTID":496419},"geometry":{"x":165841.20999999996,"y":2544992.1099999994}},{"attributes":{"ID":496447,"DIS_CODE":0,"TOWNNAME":"中西區","LI":"西賢里","LIN":"7鄰","STREET":"西賢街","SECT":" ","MAREA":" ","LANE":" ","ALLEY":" ","HOUSE_NO":"２５０號","E_COORD97":165845,"N_COORD97":2544991.9700000002,"ADDRESS":"西賢街２５０號","OBJECTID":496420},"geometry":{"x":165844.99999999907,"y":2544991.9700000025}},{"attributes":{"ID":496448,"DIS_CODE":0,"TOWNNAME":"中西區","LI":"西賢里","LIN":"7鄰","STREET":"西賢街","SECT":" ","MAREA":" ","LANE":" ","ALLEY":" ","HOUSE_NO":"２５２號","E_COORD97":165849.76999999999,"N_COORD97":2544991.6899999999,"ADDRESS":"西賢街２５２號","OBJECTID":496421},"geometry":{"x":165849.77000000048,"y":2544991.6899999995}},{"attributes":{"ID":496449,"DIS_CODE":0,"TOWNNAME":"中西區","LI":"西賢里","LIN":"7鄰","STREET":"西賢街","SECT":" ","MAREA":" ","LANE":" ","ALLEY":" ","HOUSE_NO":"２５６號","E_COORD97":165852.85000000001,"N_COORD97":2544991.6899999999,"ADDRESS":"西賢街２５６號","OBJECTID":496422},"geometry":{"x":165852.85000000056,"y":2544991.6899999995}},{"attributes":{"ID":496450,"DIS_CODE":0,"TOWNNAME":"中西區","LI":"西賢里","LIN":"7鄰","STREET":"西賢街","SECT":" ","MAREA":" ","LANE":" ","ALLEY":" ","HOUSE_NO":"２５８號","E_COORD97":165857.48000000001,"N_COORD97":2544991.4100000001,"ADDRESS":"西賢街２５８號","OBJECTID":496423},"geometry":{"x":165857.47999999952,"y":2544991.4100000039}},{"attributes":{"ID":496451,"DIS_CODE":0,"TOWNNAME":"中西區","LI":"西賢里","LIN":"7鄰","STREET":"西賢街","SECT":" ","MAREA":" ","LANE":" ","ALLEY":" ","HOUSE_NO":"２６０號","E_COORD97":165861.54999999999,"N_COORD97":2544991.4100000001,"ADDRESS":"西賢街２６０號","OBJECTID":496424},"geometry":{"x":165861.55000000168,"y":2544991.4100000039}},{"attributes":{"ID":496452,"DIS_CODE":0,"TOWNNAME":"中西區","LI":"西賢里","LIN":"7鄰","STREET":"西賢街","SECT":" ","MAREA":" ","LANE":" ","ALLEY":" ","HOUSE_NO":"２６２號","E_COORD97":165865.76000000001,"N_COORD97":2544991.1299999999,"ADDRESS":"西賢街２６２號","OBJECTID":496425},"geometry":{"x":165865.76000000071,"y":2544991.129999999}},{"attributes":{"ID":496453,"DIS_CODE":0,"TOWNNAME":"中西區","LI":"西賢里","LIN":"7鄰","STREET":"西賢街","SECT":" ","MAREA":" ","LANE":" ","ALLEY":" ","HOUSE_NO":"２６６號","E_COORD97":165868.85000000001,"N_COORD97":2544990.9900000002,"ADDRESS":"西賢街２６６號","OBJECTID":496426},"geometry":{"x":165868.84999999963,"y":2544990.9900000039}},{"attributes":{"ID":496454,"DIS_CODE":0,"TOWNNAME":"中西區","LI":"西賢里","LIN":"7鄰","STREET":"西賢街","SECT":" ","MAREA":" ","LANE":" ","ALLEY":" ","HOUSE_NO":"２６８號","E_COORD97":165870.10000000001,"N_COORD97":2545008.1299999999,"ADDRESS":"西賢街２６８號","OBJECTID":496427},"geometry":{"x":165870.10000000056,"y":2545008.129999999}},{"attributes":{"ID":496455,"DIS_CODE":0,"TOWNNAME":"中西區","LI":"西賢里","LIN":"7鄰","STREET":"西賢街","SECT":" ","MAREA":" ","LANE":" ","ALLEY":" ","HOUSE_NO":"２７０號","E_COORD97":165866.17999999999,"N_COORD97":2545008.1299999999,"ADDRESS":"西賢街２７０號","OBJECTID":496428},"geometry":{"x":165866.18000000063,"y":2545008.129999999}},{"attributes":{"ID":496456,"DIS_CODE":0,"TOWNNAME":"中西區","LI":"西賢里","LIN":"7鄰","STREET":"西賢街","SECT":" ","MAREA":" ","LANE":" ","ALLEY":" ","HOUSE_NO":"２７２號","E_COORD97":165861.82999999999,"N_COORD97":2545007.8500000001,"ADDRESS":"西賢街２７２號","OBJECTID":496429},"geometry":{"x":165861.83000000101,"y":2545007.8499999978}},{"attributes":{"ID":496457,"DIS_CODE":0,"TOWNNAME":"中西區","LI":"西賢里","LIN":"7鄰","STREET":"西賢街","SECT":" ","MAREA":" ","LANE":" ","ALLEY":" ","HOUSE_NO":"２７６號","E_COORD97":165858.60000000001,"N_COORD97":2545008.27,"ADDRESS":"西賢街２７６號","OBJECTID":496430},"geometry":{"x":165858.59999999963,"y":2545008.2699999996}},{"attributes":{"ID":496458,"DIS_CODE":0,"TOWNNAME":"中西區","LI":"西賢里","LIN":"7鄰","STREET":"西賢街","SECT":" ","MAREA":" ","LANE":" ","ALLEY":" ","HOUSE_NO":"２７８號","E_COORD97":165853.69,"N_COORD97":2545008.27,"ADDRESS":"西賢街２７８號","OBJECTID":496431},"geometry":{"x":165853.69000000041,"y":2545008.2699999996}},{"attributes":{"ID":496459,"DIS_CODE":0,"TOWNNAME":"中西區","LI":"西賢里","LIN":"7鄰","STREET":"西賢街","SECT":" ","MAREA":" ","LANE":" ","ALLEY":" ","HOUSE_NO":"２８０號","E_COORD97":165850.45999999999,"N_COORD97":2545008.4100000001,"ADDRESS":"西賢街２８０號","OBJECTID":496432},"geometry":{"x":165850.46000000183,"y":2545008.4100000039}},{"attributes":{"ID":496460,"DIS_CODE":0,"TOWNNAME":"中西區","LI":"西賢里","LIN":"7鄰","STREET":"西賢街","SECT":" ","MAREA":" ","LANE":" ","ALLEY":" ","HOUSE_NO":"２８２號","E_COORD97":165846.25,"N_COORD97":2545008.6899999999,"ADDRESS":"西賢街２８２號","OBJECTID":496433},"geometry":{"x":165846.25,"y":2545008.6899999995}},{"attributes":{"ID":496461,"DIS_CODE":0,"TOWNNAME":"中西區","LI":"西賢里","LIN":"7鄰","STREET":"西賢街","SECT":" ","MAREA":" ","LANE":" ","ALLEY":" ","HOUSE_NO":"２８６號","E_COORD97":165842.75,"N_COORD97":2545009.1099999999,"ADDRESS":"西賢街２８６號","OBJECTID":496434},"geometry":{"x":165842.75,"y":2545009.1099999994}},{"attributes":{"ID":496462,"DIS_CODE":0,"TOWNNAME":"中西區","LI":"西賢里","LIN":"7鄰","STREET":"西賢街","SECT":" ","MAREA":" ","LANE":" ","ALLEY":" ","HOUSE_NO":"２８８號","E_COORD97":165837.70000000001,"N_COORD97":2545009.5299999998,"ADDRESS":"西賢街２８８號","OBJECTID":496435},"geometry":{"x":165837.70000000112,"y":2545009.5299999993}},{"attributes":{"ID":496463,"DIS_CODE":0,"TOWNNAME":"中西區","LI":"西賢里","LIN":"7鄰","STREET":"西賢街","SECT":" ","MAREA":" ","LANE":" ","ALLEY":" ","HOUSE_NO":"２９０號","E_COORD97":165833.20999999999,"N_COORD97":2545010.3700000001,"ADDRESS":"西賢街２９０號","OBJECTID":496436},"geometry":{"x":165833.20999999996,"y":2545010.3700000029}},{"attributes":{"ID":496464,"DIS_CODE":0,"TOWNNAME":"中西區","LI":"西賢里","LIN":"7鄰","STREET":"西賢街","SECT":" ","MAREA":" ","LANE":" ","ALLEY":" ","HOUSE_NO":"２９２號","E_COORD97":165829.84,"N_COORD97":2545009.9500000002,"ADDRESS":"西賢街２９２號","OBJECTID":496437},"geometry":{"x":165829.84000000078,"y":2545009.9499999993}},{"attributes":{"ID":496465,"DIS_CODE":0,"TOWNNAME":"中西區","LI":"西賢里","LIN":"7鄰","STREET":"西賢街","SECT":" ","MAREA":" ","LANE":" ","ALLEY":" ","HOUSE_NO":"２９６號","E_COORD97":165825.79000000001,"N_COORD97":2545010.1000000001,"ADDRESS":"西賢街２９６號","OBJECTID":496438},"geometry":{"x":165825.79000000004,"y":2545010.1000000015}},{"attributes":{"ID":496466,"DIS_CODE":0,"TOWNNAME":"善化區","LI":"南關里","LIN":"7鄰","STREET":"三民路","SECT":" ","MAREA":" ","LANE":" ","ALLEY":" ","HOUSE_NO":"３號之６","E_COORD97":177035.79000000001,"N_COORD97":2558762.02,"ADDRESS":"三民路３號之６","OBJECTID":496439},"geometry":{"x":177035.79000000004,"y":2558762.0200000014}},{"attributes":{"ID":496467,"DIS_CODE":0,"TOWNNAME":"善化區","LI":"南關里","LIN":"7鄰","STREET":"三民路","SECT":" ","MAREA":" ","LANE":" ","ALLEY":" ","HOUSE_NO":"１號之２","E_COORD97":177012.76000000001,"N_COORD97":2558693.27,"ADDRESS":"三民路１號之２","OBJECTID":496440},"geometry":{"x":177012.76000000164,"y":2558693.2700000014}},{"attributes":{"ID":496468,"DIS_CODE":0,"TOWNNAME":"善化區","LI":"東關里","LIN":"7鄰","STREET":"中山路","SECT":" ","MAREA":" ","LANE":" ","ALLEY":" ","HOUSE_NO":"４７１號","E_COORD97":177255.78,"N_COORD97":2559120,"ADDRESS":"中山路４７１號","OBJECTID":496441},"geometry":{"x":177255.78000000119,"y":2559120}},{"attributes":{"ID":496469,"DIS_CODE":0,"TOWNNAME":"善化區","LI":"東關里","LIN":"7鄰","STREET":"中山路","SECT":" ","MAREA":" ","LANE":" ","ALLEY":" ","HOUSE_NO":"４８１號","E_COORD97":177236.44,"N_COORD97":2559122.75,"ADDRESS":"中山路４８１號","OBJECTID":496442},"geometry":{"x":177236.44000000134,"y":2559122.75}},{"attributes":{"ID":496470,"DIS_CODE":0,"TOWNNAME":"善化區","LI":"文昌里","LIN":"7鄰","STREET":"中華路","SECT":" ","MAREA":" ","LANE":" ","ALLEY":" ","HOUSE_NO":"５６號","E_COORD97":177271.29000000001,"N_COORD97":2558751.4199999999,"ADDRESS":"中華路５６號","OBJECTID":496443},"geometry":{"x":177271.29000000097,"y":2558751.4199999999}},{"attributes":{"ID":496471,"DIS_CODE":0,"TOWNNAME":"永康區","LI":"神洲里","LIN":"9鄰","STREET":"忠孝路","SECT":" ","MAREA":" ","LANE":"６巷","ALLEY":"３１弄","HOUSE_NO":"９號","E_COORD97":172270.48000000001,"N_COORD97":2544585,"ADDRESS":"忠孝路６巷３１弄９號","OBJECTID":496444},"geometry":{"x":172270.48000000231,"y":2544585.0000000019}},{"attributes":{"ID":496472,"DIS_CODE":0,"TOWNNAME":"善化區","LI":"小新里","LIN":"7鄰","STREET":"成功路","SECT":" ","MAREA":" ","LANE":" ","ALLEY":" ","HOUSE_NO":"１４５號","E_COORD97":179783.23999999999,"N_COORD97":2558644.1699999999,"ADDRESS":"成功路１４５號","OBJECTID":496445},"geometry":{"x":179783.24000000209,"y":2558644.1699999999}},{"attributes":{"ID":496473,"DIS_CODE":0,"TOWNNAME":"善化區","LI":"小新里","LIN":"7鄰","STREET":"成功路","SECT":" ","MAREA":" ","LANE":" ","ALLEY":" ","HOUSE_NO":"１４７號","E_COORD97":179778.92999999999,"N_COORD97":2558645.5899999999,"ADDRESS":"成功路１４７號","OBJECTID":496446},"geometry":{"x":179778.9299999997,"y":2558645.5899999999}},{"attributes":{"ID":496474,"DIS_CODE":0,"TOWNNAME":"善化區","LI":"小新里","LIN":"7鄰","STREET":"成功路","SECT":" ","MAREA":" ","LANE":" ","ALLEY":" ","HOUSE_NO":"１４９號","E_COORD97":179774.26999999999,"N_COORD97":2558647.2599999998,"ADDRESS":"成功路１４９號","OBJECTID":496447},"geometry":{"x":179774.27000000048,"y":2558647.2599999998}},{"attributes":{"ID":496475,"DIS_CODE":0,"TOWNNAME":"善化區","LI":"小新里","LIN":"7鄰","STREET":"成功路","SECT":" ","MAREA":" ","LANE":" ","ALLEY":" ","HOUSE_NO":"１５７之１號","E_COORD97":179749.82999999999,"N_COORD97":2558627.6699999999,"ADDRESS":"成功路１５７之１號","OBJECTID":496448},"geometry":{"x":179749.83000000007,"y":2558627.6699999999}},{"attributes":{"ID":496476,"DIS_CODE":0,"TOWNNAME":"善化區","LI":"小新里","LIN":"7鄰","STREET":"成功路","SECT":" ","MAREA":" ","LANE":" ","ALLEY":" ","HOUSE_NO":"１５９號","E_COORD97":179750.60999999999,"N_COORD97":2558654.27,"ADDRESS":"成功路１５９號","OBJECTID":496449},"geometry":{"x":179750.61000000127,"y":2558654.2699999996}},{"attributes":{"ID":496477,"DIS_CODE":0,"TOWNNAME":"善化區","LI":"小新里","LIN":"7鄰","STREET":"成功路","SECT":" ","MAREA":" ","LANE":" ","ALLEY":" ","HOUSE_NO":"１６１號","E_COORD97":179745.76999999999,"N_COORD97":2558655.54,"ADDRESS":"成功路１６１號","OBJECTID":496450},"geometry":{"x":179745.77000000048,"y":2558655.5399999991}},{"attributes":{"ID":496478,"DIS_CODE":0,"TOWNNAME":"善化區","LI":"小新里","LIN":"7鄰","STREET":"成功路","SECT":" ","MAREA":" ","LANE":" ","ALLEY":" ","HOUSE_NO":"１６３號","E_COORD97":179741.20999999999,"N_COORD97":2558656.96,"ADDRESS":"成功路１６３號","OBJECTID":496451},"geometry":{"x":179741.21000000089,"y":2558656.9600000009}},{"attributes":{"ID":496479,"DIS_CODE":0,"TOWNNAME":"善化區","LI":"小新里","LIN":"7鄰","STREET":"成功路","SECT":" ","MAREA":" ","LANE":" ","ALLEY":" ","HOUSE_NO":"１６５號","E_COORD97":179736.62,"N_COORD97":2558658.29,"ADDRESS":"成功路１６５號","OBJECTID":496452},"geometry":{"x":179736.62000000197,"y":2558658.290000001}},{"attributes":{"ID":496480,"DIS_CODE":0,"TOWNNAME":"善化區","LI":"小新里","LIN":"7鄰","STREET":"成功路","SECT":" ","MAREA":" ","LANE":" ","ALLEY":" ","HOUSE_NO":"１６７號","E_COORD97":179732.12,"N_COORD97":2558659.9500000002,"ADDRESS":"成功路１６７號","OBJECTID":496453},"geometry":{"x":179732.12000000104,"y":2558659.950000003}},{"attributes":{"ID":496481,"DIS_CODE":0,"TOWNNAME":"善化區","LI":"小新里","LIN":"7鄰","STREET":"成功路","SECT":" ","MAREA":" ","LANE":" ","ALLEY":" ","HOUSE_NO":"３９１號","E_COORD97":179275.60515300001,"N_COORD97":2558791.2301599998,"ADDRESS":"成功路３９１號","OBJECTID":496454},"geometry":{"x":179275.60515300091,"y":2558791.2301580012}},{"attributes":{"ID":496482,"DIS_CODE":0,"TOWNNAME":"善化區","LI":"南關里","LIN":"7鄰","STREET":"環西路","SECT":"二段","MAREA":" ","LANE":" ","ALLEY":" ","HOUSE_NO":"３號","E_COORD97":175214.76999999999,"N_COORD97":2556704.6099999999,"ADDRESS":"環西路二段３號","OBJECTID":496455},"geometry":{"x":175214.76999999955,"y":2556704.6099999994}},{"attributes":{"ID":496483,"DIS_CODE":0,"TOWNNAME":"善化區","LI":"南關里","LIN":"7鄰","STREET":"南科九路","SECT":" ","MAREA":" ","LANE":" ","ALLEY":" ","HOUSE_NO":"１２號","E_COORD97":175744.22,"N_COORD97":2557621.7999999998,"ADDRESS":"南科九路１２號","OBJECTID":496456},"geometry":{"x":175744.21999999974,"y":2557621.8000000045}},{"attributes":{"ID":496484,"DIS_CODE":0,"TOWNNAME":"善化區","LI":"文昌里","LIN":"7鄰","STREET":"光復路","SECT":" ","MAREA":" ","LANE":" ","ALLEY":" ","HOUSE_NO":"２２２號","E_COORD97":177192.29999999999,"N_COORD97":2558586.8799999999,"ADDRESS":"光復路２２２號","OBJECTID":496457},"geometry":{"x":177192.30000000168,"y":2558586.8800000008}},{"attributes":{"ID":496485,"DIS_CODE":0,"TOWNNAME":"善化區","LI":"文昌里","LIN":"7鄰","STREET":"光復路","SECT":" ","MAREA":" ","LANE":" ","ALLEY":" ","HOUSE_NO":"２２６號","E_COORD97":177187.67000000001,"N_COORD97":2558588.27,"ADDRESS":"光復路２２６號","OBJECTID":496458},"geometry":{"x":177187.66999999993,"y":2558588.2700000014}},{"attributes":{"ID":496486,"DIS_CODE":0,"TOWNNAME":"善化區","LI":"文昌里","LIN":"7鄰","STREET":"光復路","SECT":" ","MAREA":" ","LANE":" ","ALLEY":" ","HOUSE_NO":"２２８號","E_COORD97":177183.75,"N_COORD97":2558585.7400000002,"ADDRESS":"光復路２２８號","OBJECTID":496459},"geometry":{"x":177183.75,"y":2558585.7400000021}},{"attributes":{"ID":496487,"DIS_CODE":0,"TOWNNAME":"善化區","LI":"文昌里","LIN":"7鄰","STREET":"光復路","SECT":" ","MAREA":" ","LANE":" ","ALLEY":" ","HOUSE_NO":"２３０號","E_COORD97":177178.88,"N_COORD97":2558587.6299999999,"ADDRESS":"光復路２３０號","OBJECTID":496460},"geometry":{"x":177178.88000000082,"y":2558587.6300000008}},{"attributes":{"ID":496488,"DIS_CODE":0,"TOWNNAME":"善化區","LI":"文昌里","LIN":"7鄰","STREET":"光復路","SECT":" ","MAREA":" ","LANE":" ","ALLEY":" ","HOUSE_NO":"２３２號","E_COORD97":177175.81,"N_COORD97":2558582.3799999999,"ADDRESS":"光復路２３２號","OBJECTID":496461},"geometry":{"x":177175.80999999959,"y":2558582.3800000027}},{"attributes":{"ID":496489,"DIS_CODE":0,"TOWNNAME":"善化區","LI":"文正里","LIN":"7鄰","STREET":"文正路","SECT":" ","MAREA":" ","LANE":" ","ALLEY":" ","HOUSE_NO":"６３之３號","E_COORD97":177063.85999999999,"N_COORD97":2559277.96,"ADDRESS":"文正路６３之３號","OBJECTID":496462},"geometry":{"x":177063.86000000127,"y":2559277.9600000009}},{"attributes":{"ID":496490,"DIS_CODE":0,"TOWNNAME":"新市區","LI":"新市里","LIN":"7鄰","STREET":"中興街","SECT":" ","MAREA":" ","LANE":" ","ALLEY":" ","HOUSE_NO":"１２９號","E_COORD97":177501.32000000001,"N_COORD97":2553096.25,"ADDRESS":"中興街１２９號","OBJECTID":496463},"geometry":{"x":177501.32000000123,"y":2553096.2500000019}},{"attributes":{"ID":496491,"DIS_CODE":0,"TOWNNAME":"東區","LI":"崇德里","LIN":"7鄰","STREET":"崇德路","SECT":" ","MAREA":" ","LANE":" ","ALLEY":" ","HOUSE_NO":"４７３號","E_COORD97":170705.76999999999,"N_COORD97":2541694.2000000002,"ADDRESS":"崇德路４７３號","OBJECTID":496464},"geometry":{"x":170705.76999999955,"y":2541694.2000000011}},{"attributes":{"ID":496492,"DIS_CODE":0,"TOWNNAME":"東區","LI":"崇德里","LIN":"7鄰","STREET":"崇德路","SECT":" ","MAREA":" ","LANE":" ","ALLEY":" ","HOUSE_NO":"４７５號","E_COORD97":170712.79999999999,"N_COORD97":2541688.29,"ADDRESS":"崇德路４７５號","OBJECTID":496465},"geometry":{"x":170712.79999999981,"y":2541688.2899999991}},{"attributes":{"ID":496493,"DIS_CODE":0,"TOWNNAME":"東區","LI":"崇善里","LIN":"7鄰","STREET":"崇善七街","SECT":" ","MAREA":" ","LANE":" ","ALLEY":" ","HOUSE_NO":"４３號","E_COORD97":171156.10000000001,"N_COORD97":2541512.1099999999,"ADDRESS":"崇善七街４３號","OBJECTID":496466},"geometry":{"x":171156.09999999963,"y":2541512.1100000013}},{"attributes":{"ID":496494,"DIS_CODE":0,"TOWNNAME":"東區","LI":"崇善里","LIN":"7鄰","STREET":"崇善七街","SECT":" ","MAREA":" ","LANE":" ","ALLEY":" ","HOUSE_NO":"４５號","E_COORD97":171159.59,"N_COORD97":2541513.3900000001,"ADDRESS":"崇善七街４５號","OBJECTID":496467},"geometry":{"x":171159.59000000078,"y":2541513.3900000043}},{"attributes":{"ID":496495,"DIS_CODE":0,"TOWNNAME":"東區","LI":"崇善里","LIN":"7鄰","STREET":"崇善七街","SECT":" ","MAREA":" ","LANE":" ","ALLEY":" ","HOUSE_NO":"４９號","E_COORD97":171167.70999999999,"N_COORD97":2541517.02,"ADDRESS":"崇善七街４９號","OBJECTID":496468},"geometry":{"x":171167.70999999996,"y":2541517.0199999996}},{"attributes":{"ID":496496,"DIS_CODE":0,"TOWNNAME":"東區","LI":"崇善里","LIN":"7鄰","STREET":"崇善七街","SECT":" ","MAREA":" ","LANE":" ","ALLEY":" ","HOUSE_NO":"５３號","E_COORD97":171175.19,"N_COORD97":2541522.0699999998,"ADDRESS":"崇善七街５３號","OBJECTID":496469},"geometry":{"x":171175.19000000041,"y":2541522.070000004}},{"attributes":{"ID":496497,"DIS_CODE":0,"TOWNNAME":"東區","LI":"崇善里","LIN":"7鄰","STREET":"崇善七街","SECT":" ","MAREA":" ","LANE":" ","ALLEY":" ","HOUSE_NO":"５５號","E_COORD97":171178.92999999999,"N_COORD97":2541523.6499999999,"ADDRESS":"崇善七街５５號","OBJECTID":496470},"geometry":{"x":171178.93000000063,"y":2541523.6500000004}},{"attributes":{"ID":496498,"DIS_CODE":0,"TOWNNAME":"東區","LI":"崇善里","LIN":"7鄰","STREET":"崇善七街","SECT":" ","MAREA":" ","LANE":" ","ALLEY":" ","HOUSE_NO":"５７號","E_COORD97":171182.5,"N_COORD97":2541526.73,"ADDRESS":"崇善七街５７號","OBJECTID":496471},"geometry":{"x":171182.5,"y":2541526.7300000004}},{"attributes":{"ID":496499,"DIS_CODE":0,"TOWNNAME":"東區","LI":"崇善里","LIN":"7鄰","STREET":"崇善七街","SECT":" ","MAREA":" ","LANE":" ","ALLEY":" ","HOUSE_NO":"５９號","E_COORD97":171186.54000000001,"N_COORD97":2541529.0299999998,"ADDRESS":"崇善七街５９號","OBJECTID":496472},"geometry":{"x":171186.5400000019,"y":2541529.0300000012}},{"attributes":{"ID":496500,"DIS_CODE":0,"TOWNNAME":"東區","LI":"崇善里","LIN":"7鄰","STREET":"崇善七街","SECT":" ","MAREA":" ","LANE":" ","ALLEY":" ","HOUSE_NO":"６１號","E_COORD97":171190.29000000001,"N_COORD97":2541530.7599999998,"ADDRESS":"崇善七街６１號","OBJECTID":496473},"geometry":{"x":171190.29000000097,"y":2541530.7600000016}},{"attributes":{"ID":496501,"DIS_CODE":0,"TOWNNAME":"東區","LI":"崇善里","LIN":"7鄰","STREET":"崇善七街","SECT":" ","MAREA":" ","LANE":" ","ALLEY":" ","HOUSE_NO":"６３號","E_COORD97":171192.88,"N_COORD97":2541535.3700000001,"ADDRESS":"崇善七街６３號","OBJECTID":496474},"geometry":{"x":171192.88000000082,"y":2541535.3700000029}},{"attributes":{"ID":496502,"DIS_CODE":0,"TOWNNAME":"東區","LI":"崇善里","LIN":"7鄰","STREET":"崇善七街","SECT":" ","MAREA":" ","LANE":" ","ALLEY":" ","HOUSE_NO":"６７號","E_COORD97":171200.95000000001,"N_COORD97":2541538.8300000001,"ADDRESS":"崇善七街６７號","OBJECTID":496475},"geometry":{"x":171200.95000000112,"y":2541538.8300000001}},{"attributes":{"ID":496503,"DIS_CODE":0,"TOWNNAME":"東區","LI":"崇善里","LIN":"7鄰","STREET":"崇善七街","SECT":" ","MAREA":" ","LANE":" ","ALLEY":" ","HOUSE_NO":"６９號","E_COORD97":171204.13,"N_COORD97":2541541.9900000002,"ADDRESS":"崇善七街６９號","OBJECTID":496476},"geometry":{"x":171204.12999999989,"y":2541541.9900000002}},{"attributes":{"ID":496504,"DIS_CODE":0,"TOWNNAME":"東區","LI":"崇善里","LIN":"7鄰","STREET":"崇善七街","SECT":" ","MAREA":" ","LANE":" ","ALLEY":" ","HOUSE_NO":"９號","E_COORD97":171073.95000000001,"N_COORD97":2541469.6499999999,"ADDRESS":"崇善七街９號","OBJECTID":496477},"geometry":{"x":171073.95000000112,"y":2541469.6500000004}},{"attributes":{"ID":496505,"DIS_CODE":0,"TOWNNAME":"東區","LI":"東聖里","LIN":"7鄰","STREET":"富農街","SECT":"二段","MAREA":" ","LANE":" ","ALLEY":" ","HOUSE_NO":"６１號","E_COORD97":171622.03,"N_COORD97":2543005.4199999999,"ADDRESS":"富農街二段６１號","OBJECTID":496478},"geometry":{"x":171622.03000000026,"y":2543005.4200000018}},{"attributes":{"ID":496506,"DIS_CODE":0,"TOWNNAME":"東區","LI":"東聖里","LIN":"7鄰","STREET":"富農街","SECT":"二段","MAREA":" ","LANE":" ","ALLEY":" ","HOUSE_NO":"７１號","E_COORD97":171620.28,"N_COORD97":2543029.5899999999,"ADDRESS":"富農街二段７１號","OBJECTID":496479},"geometry":{"x":171620.28000000026,"y":2543029.5899999999}},{"attributes":{"ID":496507,"DIS_CODE":0,"TOWNNAME":"新市區","LI":"新和里","LIN":"7鄰","STREET":"富強路","SECT":" ","MAREA":" ","LANE":" ","ALLEY":" ","HOUSE_NO":"５３號","E_COORD97":177272.54000000001,"N_COORD97":2552411.5,"ADDRESS":"富強路５３號","OBJECTID":496480},"geometry":{"x":177272.54000000097,"y":2552411.5}},{"attributes":{"ID":496508,"DIS_CODE":0,"TOWNNAME":"新市區","LI":"新和里","LIN":"7鄰","STREET":"富強路","SECT":" ","MAREA":" ","LANE":" ","ALLEY":" ","HOUSE_NO":"６９號","E_COORD97":177242.13,"N_COORD97":2552396.25,"ADDRESS":"富強路６９號","OBJECTID":496481},"geometry":{"x":177242.12999999989,"y":2552396.25}},{"attributes":{"ID":496509,"DIS_CODE":0,"TOWNNAME":"永康區","LI":"復興里","LIN":"7鄰","STREET":"復興路","SECT":" ","MAREA":" ","LANE":" ","ALLEY":" ","HOUSE_NO":"３４３號","E_COORD97":172207.64999999999,"N_COORD97":2544315.02,"ADDRESS":"復興路３４３號","OBJECTID":496482},"geometry":{"x":172207.65000000037,"y":2544315.0199999977}},{"attributes":{"ID":496510,"DIS_CODE":0,"TOWNNAME":"永康區","LI":"復國里","LIN":"7鄰","STREET":"復國一路","SECT":" ","MAREA":" ","LANE":" ","ALLEY":" ","HOUSE_NO":"２３２號","E_COORD97":172739.25,"N_COORD97":2545253.7000000002,"ADDRESS":"復國一路２３２號","OBJECTID":496483},"geometry":{"x":172739.25,"y":2545253.7000000011}},{"attributes":{"ID":496511,"DIS_CODE":0,"TOWNNAME":"永康區","LI":"\u25A0洲里","LIN":"7鄰","STREET":"三村二街","SECT":" ","MAREA":" ","LANE":" ","ALLEY":" ","HOUSE_NO":"８９號","E_COORD97":171734.67999999999,"N_COORD97":2549519.5,"ADDRESS":"三村二街８９號","OBJECTID":496484},"geometry":{"x":171734.68000000063,"y":2549519.5}},{"attributes":{"ID":496512,"DIS_CODE":0,"TOWNNAME":"永康區","LI":"復國里","LIN":"7鄰","STREET":"復國一路","SECT":" ","MAREA":" ","LANE":" ","ALLEY":" ","HOUSE_NO":"２８４號","E_COORD97":172754.41,"N_COORD97":2545498.0299999998,"ADDRESS":"復國一路２８４號","OBJECTID":496485},"geometry":{"x":172754.41000000108,"y":2545498.0300000031}},{"attributes":{"ID":496513,"DIS_CODE":0,"TOWNNAME":"永康區","LI":"復國里","LIN":"7鄰","STREET":"復國一路","SECT":" ","MAREA":" ","LANE":" ","ALLEY":" ","HOUSE_NO":"１４８號","E_COORD97":172726.42999999999,"N_COORD97":2545069.0299999998,"ADDRESS":"復國一路１４８號","OBJECTID":496486},"geometry":{"x":172726.43000000063,"y":2545069.0300000012}},{"attributes":{"ID":496514,"DIS_CODE":0,"TOWNNAME":"官田區","LI":"隆田里","LIN":"7鄰","STREET":"勝利路","SECT":" ","MAREA":" ","LANE":" ","ALLEY":" ","HOUSE_NO":"１１號","E_COORD97":179889.10000000001,"N_COORD97":2565848.8100000001,"ADDRESS":"勝利路１１號","OBJECTID":496487},"geometry":{"x":179889.10000000056,"y":2565848.8100000005}},{"attributes":{"ID":496515,"DIS_CODE":0,"TOWNNAME":"官田區","LI":"隆田里","LIN":"7鄰","STREET":"勝利路","SECT":" ","MAREA":" ","LANE":" ","ALLEY":" ","HOUSE_NO":"１３號","E_COORD97":179910.72,"N_COORD97":2565869.3999999999,"ADDRESS":"勝利路１３號","OBJECTID":496488},"geometry":{"x":179910.72000000067,"y":2565869.4000000041}},{"attributes":{"ID":496516,"DIS_CODE":0,"TOWNNAME":"白河區","LI":"庄內里","LIN":"7鄰","STREET":"中山路","SECT":" ","MAREA":" ","LANE":" ","ALLEY":" ","HOUSE_NO":"３１５號","E_COORD97":190671.45000000001,"N_COORD97":2583822.1899999999,"ADDRESS":"中山路３１５號","OBJECTID":496489},"geometry":{"x":190671.45000000019,"y":2583822.1900000032}},{"attributes":{"ID":496517,"DIS_CODE":0,"TOWNNAME":"白河區","LI":"庄內里","LIN":"7鄰","STREET":"中山路","SECT":" ","MAREA":" ","LANE":" ","ALLEY":" ","HOUSE_NO":"３３０號","E_COORD97":190700.07999999999,"N_COORD97":2583814.4900000002,"ADDRESS":"中山路３３０號","OBJECTID":496490},"geometry":{"x":190700.08000000101,"y":2583814.4900000021}},{"attributes":{"ID":496518,"DIS_CODE":0,"TOWNNAME":"白河區","LI":"庄內里","LIN":"7鄰","STREET":"中山路","SECT":" ","MAREA":" ","LANE":" ","ALLEY":" ","HOUSE_NO":"３３６號","E_COORD97":190703.01999999999,"N_COORD97":2583817.8599999999,"ADDRESS":"中山路３３６號","OBJECTID":496491},"geometry":{"x":190703.02000000048,"y":2583817.8600000013}},{"attributes":{"ID":496519,"DIS_CODE":0,"TOWNNAME":"白河區","LI":"庄內里","LIN":"7鄰","STREET":"中山路","SECT":" ","MAREA":" ","LANE":" ","ALLEY":" ","HOUSE_NO":"３３８號","E_COORD97":190750.35999999999,"N_COORD97":2583839.6099999999,"ADDRESS":"中山路３３８號","OBJECTID":496492},"geometry":{"x":190750.3599999994,"y":2583839.6100000031}},{"attributes":{"ID":496520,"DIS_CODE":0,"TOWNNAME":"白河區","LI":"庄內里","LIN":"7鄰","STREET":"中山路","SECT":" ","MAREA":" ","LANE":" ","ALLEY":" ","HOUSE_NO":"３４０號","E_COORD97":190707.94,"N_COORD97":2583825.1499999999,"ADDRESS":"中山路３４０號","OBJECTID":496493},"geometry":{"x":190707.94000000134,"y":2583825.1500000004}},{"attributes":{"ID":496521,"DIS_CODE":0,"TOWNNAME":"白河區","LI":"庄內里","LIN":"7鄰","STREET":"中山路","SECT":" ","MAREA":" ","LANE":" ","ALLEY":" ","HOUSE_NO":"３４７號","E_COORD97":190688.69,"N_COORD97":2583861.79,"ADDRESS":"中山路３４７號","OBJECTID":496494},"geometry":{"x":190688.69000000041,"y":2583861.7900000028}},{"attributes":{"ID":496522,"DIS_CODE":0,"TOWNNAME":"白河區","LI":"庄內里","LIN":"7鄰","STREET":"中山路","SECT":" ","MAREA":" ","LANE":" ","ALLEY":" ","HOUSE_NO":"３５１號","E_COORD97":190706.66,"N_COORD97":2583869.8599999999,"ADDRESS":"中山路３５１號","OBJECTID":496495},"geometry":{"x":190706.66000000108,"y":2583869.8600000013}},{"attributes":{"ID":496523,"DIS_CODE":0,"TOWNNAME":"白河區","LI":"庄內里","LIN":"7鄰","STREET":"中山路","SECT":" ","MAREA":" ","LANE":" ","ALLEY":" ","HOUSE_NO":"３６６號","E_COORD97":190756.76999999999,"N_COORD97":2583895.7200000002,"ADDRESS":"中山路３６６號","OBJECTID":496496},"geometry":{"x":190756.76999999955,"y":2583895.7200000025}},{"attributes":{"ID":496524,"DIS_CODE":0,"TOWNNAME":"白河區","LI":"庄內里","LIN":"7鄰","STREET":"中山路","SECT":" ","MAREA":" ","LANE":" ","ALLEY":" ","HOUSE_NO":"４０３號","E_COORD97":190736.35999999999,"N_COORD97":2583915.2200000002,"ADDRESS":"中山路４０３號","OBJECTID":496497},"geometry":{"x":190736.36000000034,"y":2583915.2200000025}},{"attributes":{"ID":496525,"DIS_CODE":0,"TOWNNAME":"白河區","LI":"庄內里","LIN":"7鄰","STREET":"中山路","SECT":" ","MAREA":" ","LANE":" ","ALLEY":" ","HOUSE_NO":"４０９號","E_COORD97":190739.85000000001,"N_COORD97":2583921.7599999998,"ADDRESS":"中山路４０９號","OBJECTID":496498},"geometry":{"x":190739.85000000056,"y":2583921.7600000016}},{"attributes":{"ID":496526,"DIS_CODE":0,"TOWNNAME":"白河區","LI":"庄內里","LIN":"7鄰","STREET":"中山路","SECT":" ","MAREA":" ","LANE":" ","ALLEY":" ","HOUSE_NO":"４１１號","E_COORD97":190744.19,"N_COORD97":2583926.5899999999,"ADDRESS":"中山路４１１號","OBJECTID":496499},"geometry":{"x":190744.19000000041,"y":2583926.5899999999}},{"attributes":{"ID":496527,"DIS_CODE":0,"TOWNNAME":"白河區","LI":"庄內里","LIN":"7鄰","STREET":"中山路","SECT":" ","MAREA":" ","LANE":" ","ALLEY":" ","HOUSE_NO":"４１３號","E_COORD97":190746.66,"N_COORD97":2583930.7200000002,"ADDRESS":"中山路４１３號","OBJECTID":496500},"geometry":{"x":190746.66000000201,"y":2583930.7200000007}},{"attributes":{"ID":496528,"DIS_CODE":0,"TOWNNAME":"白河區","LI":"庄內里","LIN":"7鄰","STREET":"中山路","SECT":" ","MAREA":" ","LANE":" ","ALLEY":" ","HOUSE_NO":"４１５號","E_COORD97":190747.62,"N_COORD97":2583937.96,"ADDRESS":"中山路４１５號","OBJECTID":496501},"geometry":{"x":190747.62000000011,"y":2583937.9600000028}},{"attributes":{"ID":496529,"DIS_CODE":0,"TOWNNAME":"白河區","LI":"庄內里","LIN":"7鄰","STREET":"中山路","SECT":" ","MAREA":" ","LANE":" ","ALLEY":" ","HOUSE_NO":"４２１號","E_COORD97":190749.56,"N_COORD97":2583943.8700000001,"ADDRESS":"中山路４２１號","OBJECTID":496502},"geometry":{"x":190749.55999999959,"y":2583943.870000001}},{"attributes":{"ID":496530,"DIS_CODE":0,"TOWNNAME":"白河區","LI":"庄內里","LIN":"7鄰","STREET":"中山路","SECT":" ","MAREA":" ","LANE":" ","ALLEY":" ","HOUSE_NO":"４２５號","E_COORD97":190754.79999999999,"N_COORD97":2583951.9199999999,"ADDRESS":"中山路４２５號","OBJECTID":496503},"geometry":{"x":190754.79999999981,"y":2583951.9199999999}},{"attributes":{"ID":496531,"DIS_CODE":0,"TOWNNAME":"白河區","LI":"庄內里","LIN":"7鄰","STREET":"中山路","SECT":" ","MAREA":" ","LANE":" ","ALLEY":" ","HOUSE_NO":"４２７號","E_COORD97":190757.10999999999,"N_COORD97":2583956.0499999998,"ADDRESS":"中山路４２７號","OBJECTID":496504},"geometry":{"x":190757.1099999994,"y":2583956.0500000007}},{"attributes":{"ID":496532,"DIS_CODE":0,"TOWNNAME":"白河區","LI":"庄內里","LIN":"7鄰","STREET":"中山路","SECT":" ","MAREA":" ","LANE":" ","ALLEY":" ","HOUSE_NO":"４２９號","E_COORD97":190759.42999999999,"N_COORD97":2583960.1699999999,"ADDRESS":"中山路４２９號","OBJECTID":496505},"geometry":{"x":190759.43000000156,"y":2583960.1699999999}},{"attributes":{"ID":496533,"DIS_CODE":0,"TOWNNAME":"白河區","LI":"庄內里","LIN":"7鄰","STREET":"中山路","SECT":" ","MAREA":" ","LANE":" ","ALLEY":" ","HOUSE_NO":"４３１號","E_COORD97":190761.73999999999,"N_COORD97":2583964.2999999998,"ADDRESS":"中山路４３１號","OBJECTID":496506},"geometry":{"x":190761.74000000115,"y":2583964.3000000007}},{"attributes":{"ID":496534,"DIS_CODE":0,"TOWNNAME":"白河區","LI":"庄內里","LIN":"7鄰","STREET":"中山路","SECT":" ","MAREA":" ","LANE":" ","ALLEY":" ","HOUSE_NO":"４３３號","E_COORD97":190764.04999999999,"N_COORD97":2583968.4199999999,"ADDRESS":"中山路４３３號","OBJECTID":496507},"geometry":{"x":190764.05000000075,"y":2583968.4200000018}},{"attributes":{"ID":496535,"DIS_CODE":0,"TOWNNAME":"白河區","LI":"庄內里","LIN":"7鄰","STREET":"中山路","SECT":" ","MAREA":" ","LANE":" ","ALLEY":" ","HOUSE_NO":"４４６號","E_COORD97":190867.89000000001,"N_COORD97":2584011,"ADDRESS":"中山路４４６號","OBJECTID":496508},"geometry":{"x":190867.88999999966,"y":2584011.0000000019}},{"attributes":{"ID":496536,"DIS_CODE":0,"TOWNNAME":"白河區","LI":"庄內里","LIN":"7鄰","STREET":"中山路","SECT":" ","MAREA":" ","LANE":" ","ALLEY":" ","HOUSE_NO":"４４７號","E_COORD97":190770.78,"N_COORD97":2583986.0899999999,"ADDRESS":"中山路４４７號","OBJECTID":496509},"geometry":{"x":190770.78000000026,"y":2583986.0900000036}},{"attributes":{"ID":496537,"DIS_CODE":0,"TOWNNAME":"白河區","LI":"庄內里","LIN":"7鄰","STREET":"中山路","SECT":" ","MAREA":" ","LANE":" ","ALLEY":" ","HOUSE_NO":"５０１號","E_COORD97":190835.17999999999,"N_COORD97":2584081.6699999999,"ADDRESS":"中山路５０１號","OBJECTID":496510},"geometry":{"x":190835.1799999997,"y":2584081.6700000018}},{"attributes":{"ID":496538,"DIS_CODE":0,"TOWNNAME":"白河區","LI":"庄內里","LIN":"7鄰","STREET":"中山路","SECT":" ","MAREA":" ","LANE":" ","ALLEY":" ","HOUSE_NO":"５１１號","E_COORD97":190856.20999999999,"N_COORD97":2584099.5499999998,"ADDRESS":"中山路５１１號","OBJECTID":496511},"geometry":{"x":190856.21000000183,"y":2584099.5500000026}},{"attributes":{"ID":496539,"DIS_CODE":0,"TOWNNAME":"白河區","LI":"庄內里","LIN":"7鄰","STREET":"中山路","SECT":" ","MAREA":" ","LANE":" ","ALLEY":" ","HOUSE_NO":"５１３號","E_COORD97":190858.75,"N_COORD97":2584104.0899999999,"ADDRESS":"中山路５１３號","OBJECTID":496512},"geometry":{"x":190858.75,"y":2584104.0899999999}},{"attributes":{"ID":496540,"DIS_CODE":0,"TOWNNAME":"白河區","LI":"庄內里","LIN":"7鄰","STREET":"中山路","SECT":" ","MAREA":" ","LANE":" ","ALLEY":" ","HOUSE_NO":"５２６號","E_COORD97":190972.25,"N_COORD97":2584184.3999999999,"ADDRESS":"中山路５２６號","OBJECTID":496513},"geometry":{"x":190972.25,"y":2584184.4000000041}},{"attributes":{"ID":496541,"DIS_CODE":0,"TOWNNAME":"白河區","LI":"庄內里","LIN":"7鄰","STREET":"中山路","SECT":" ","MAREA":" ","LANE":" ","ALLEY":" ","HOUSE_NO":"５３６號","E_COORD97":191004.57000000001,"N_COORD97":2584229.6299999999,"ADDRESS":"中山路５３６號","OBJECTID":496514},"geometry":{"x":191004.5700000003,"y":2584229.6300000008}},{"attributes":{"ID":496542,"DIS_CODE":0,"TOWNNAME":"白河區","LI":"庄內里","LIN":"7鄰","STREET":"中山路","SECT":" ","MAREA":" ","LANE":" ","ALLEY":" ","HOUSE_NO":"５５５號","E_COORD97":190910.26000000001,"N_COORD97":2584194.1600000001,"ADDRESS":"中山路５５５號","OBJECTID":496515},"geometry":{"x":190910.26000000071,"y":2584194.160000002}},{"attributes":{"ID":496543,"DIS_CODE":0,"TOWNNAME":"新市區","LI":"新和里","LIN":"37鄰","STREET":"華興街","SECT":" ","MAREA":" ","LANE":"６９巷","ALLEY":"２弄","HOUSE_NO":"５號","E_COORD97":177584.92999999999,"N_COORD97":2552947,"ADDRESS":"華興街６９巷２弄５號","OBJECTID":496516},"geometry":{"x":177584.93000000063,"y":2552947}},{"attributes":{"ID":496544,"DIS_CODE":0,"TOWNNAME":"白河區","LI":"庄內里","LIN":"7鄰","STREET":"中山路","SECT":" ","MAREA":" ","LANE":" ","ALLEY":" ","HOUSE_NO":"５５７號","E_COORD97":190917.10000000001,"N_COORD97":2584200.2599999998,"ADDRESS":"中山路５５７號","OBJECTID":496517},"geometry":{"x":190917.09999999963,"y":2584200.2599999998}},{"attributes":{"ID":496545,"DIS_CODE":0,"TOWNNAME":"白河區","LI":"庄內里","LIN":"7鄰","STREET":"中山路","SECT":" ","MAREA":" ","LANE":" ","ALLEY":" ","HOUSE_NO":"５６５號","E_COORD97":190915.20000000001,"N_COORD97":2584215.7999999998,"ADDRESS":"中山路５６５號","OBJECTID":496518},"geometry":{"x":190915.20000000019,"y":2584215.7999999989}},{"attributes":{"ID":496546,"DIS_CODE":0,"TOWNNAME":"白河區","LI":"庄內里","LIN":"7鄰","STREET":"中山路","SECT":" ","MAREA":" ","LANE":" ","ALLEY":" ","HOUSE_NO":"５６６號","E_COORD97":191020.69,"N_COORD97":2584260.1400000001,"ADDRESS":"中山路５６６號","OBJECTID":496519},"geometry":{"x":191020.69000000041,"y":2584260.1400000006}},{"attributes":{"ID":496547,"DIS_CODE":0,"TOWNNAME":"白河區","LI":"庄內里","LIN":"7鄰","STREET":"中山路","SECT":" ","MAREA":" ","LANE":" ","ALLEY":" ","HOUSE_NO":"５６８號","E_COORD97":191044.25,"N_COORD97":2584245.9199999999,"ADDRESS":"中山路５６８號","OBJECTID":496520},"geometry":{"x":191044.25000000093,"y":2584245.9200000018}},{"attributes":{"ID":496548,"DIS_CODE":0,"TOWNNAME":"白河區","LI":"庄內里","LIN":"7鄰","STREET":"中山路","SECT":" ","MAREA":" ","LANE":" ","ALLEY":" ","HOUSE_NO":"５７１號","E_COORD97":190929.70999999999,"N_COORD97":2584224.4900000002,"ADDRESS":"中山路５７１號","OBJECTID":496521},"geometry":{"x":190929.71000000089,"y":2584224.4900000039}},{"attributes":{"ID":496549,"DIS_CODE":0,"TOWNNAME":"白河區","LI":"庄內里","LIN":"7鄰","STREET":"中山路","SECT":" ","MAREA":" ","LANE":" ","ALLEY":" ","HOUSE_NO":"５８０號","E_COORD97":191037.85999999999,"N_COORD97":2584264.6099999999,"ADDRESS":"中山路５８０號","OBJECTID":496522},"geometry":{"x":191037.86000000034,"y":2584264.6100000013}},{"attributes":{"ID":496550,"DIS_CODE":0,"TOWNNAME":"白河區","LI":"庄內里","LIN":"7鄰","STREET":"中山路","SECT":" ","MAREA":" ","LANE":" ","ALLEY":" ","HOUSE_NO":"５８７號","E_COORD97":190955.60000000001,"N_COORD97":2584239,"ADDRESS":"中山路５８７號","OBJECTID":496523},"geometry":{"x":190955.60000000056,"y":2584239.0000000019}},{"attributes":{"ID":496551,"DIS_CODE":0,"TOWNNAME":"白河區","LI":"庄內里","LIN":"7鄰","STREET":"中山路","SECT":" ","MAREA":" ","LANE":" ","ALLEY":" ","HOUSE_NO":"６０５號","E_COORD97":190968.39999999999,"N_COORD97":2584277.8900000001,"ADDRESS":"中山路６０５號","OBJECTID":496524},"geometry":{"x":190968.40000000037,"y":2584277.8900000025}},{"attributes":{"ID":496552,"DIS_CODE":0,"TOWNNAME":"白河區","LI":"庄內里","LIN":"7鄰","STREET":"中山路","SECT":" ","MAREA":" ","LANE":" ","ALLEY":" ","HOUSE_NO":"６５２之１號","E_COORD97":191139.81,"N_COORD97":2584367.1699999999,"ADDRESS":"中山路６５２之１號","OBJECTID":496525},"geometry":{"x":191139.80999999866,"y":2584367.1699999999}},{"attributes":{"ID":496553,"DIS_CODE":0,"TOWNNAME":"白河區","LI":"庄內里","LIN":"7鄰","STREET":"中山路","SECT":" ","MAREA":" ","LANE":" ","ALLEY":" ","HOUSE_NO":"６５２號","E_COORD97":191109.01000000001,"N_COORD97":2584393.8500000001,"ADDRESS":"中山路６５２號","OBJECTID":496526},"geometry":{"x":191109.01000000071,"y":2584393.8499999978}},{"attributes":{"ID":496554,"DIS_CODE":0,"TOWNNAME":"白河區","LI":"庄內里","LIN":"7鄰","STREET":"中山路","SECT":" ","MAREA":" ","LANE":" ","ALLEY":" ","HOUSE_NO":"６６０號","E_COORD97":191178.22,"N_COORD97":2584392.8999999999,"ADDRESS":"中山路６６０號","OBJECTID":496527},"geometry":{"x":191178.22000000067,"y":2584392.9000000004}},{"attributes":{"ID":496555,"DIS_CODE":0,"TOWNNAME":"白河區","LI":"庄內里","LIN":"7鄰","STREET":"中山路","SECT":" ","MAREA":" ","LANE":" ","ALLEY":" ","HOUSE_NO":"６６３號","E_COORD97":191071.64999999999,"N_COORD97":2584421.6400000001,"ADDRESS":"中山路６６３號","OBJECTID":496528},"geometry":{"x":191071.65000000037,"y":2584421.6400000025}},{"attributes":{"ID":496556,"DIS_CODE":0,"TOWNNAME":"北區","LI":"玉皇里","LIN":"14鄰","STREET":"成功路","SECT":" ","MAREA":" ","LANE":" ","ALLEY":" ","HOUSE_NO":"１１４號地下一層","E_COORD97":168539.87,"N_COORD97":2544372.5,"ADDRESS":"成功路１１４號地下一層","OBJECTID":496529},"geometry":{"x":168539.87000000197,"y":2544372.5}},{"attributes":{"ID":496557,"DIS_CODE":0,"TOWNNAME":"北區","LI":"玉皇里","LIN":"14鄰","STREET":"成功路","SECT":" ","MAREA":" ","LANE":" ","ALLEY":" ","HOUSE_NO":"１１４號地下二層","E_COORD97":168539.87,"N_COORD97":2544372.5,"ADDRESS":"成功路１１４號地下二層","OBJECTID":496530},"geometry":{"x":168539.87000000197,"y":2544372.5}},{"attributes":{"ID":496558,"DIS_CODE":0,"TOWNNAME":"仁德區","LI":"田厝里","LIN":"7鄰","STREET":"保安路","SECT":"二段","MAREA":" ","LANE":" ","ALLEY":" ","HOUSE_NO":"５２１號","E_COORD97":172544.53,"N_COORD97":2537573.5600000001,"ADDRESS":"保安路二段５２１號","OBJECTID":496531},"geometry":{"x":172544.53000000212,"y":2537573.5600000024}},{"attributes":{"ID":496559,"DIS_CODE":0,"TOWNNAME":"仁德區","LI":"田厝里","LIN":"7鄰","STREET":"保安路","SECT":"二段","MAREA":" ","LANE":" ","ALLEY":" ","HOUSE_NO":"６５１號之２","E_COORD97":172850.10999999999,"N_COORD97":2537633.8199999998,"ADDRESS":"保安路二段６５１號之２","OBJECTID":496532},"geometry":{"x":172850.11000000034,"y":2537633.8200000003}},{"attributes":{"ID":496560,"DIS_CODE":0,"TOWNNAME":"仁德區","LI":"田厝里","LIN":"7鄰","STREET":"中正路","SECT":"一段","MAREA":" ","LANE":" ","ALLEY":" ","HOUSE_NO":"５４１號之１","E_COORD97":172874.42000000001,"N_COORD97":2537648.5499999998,"ADDRESS":"中正路一段５４１號之１","OBJECTID":496533},"geometry":{"x":172874.42000000086,"y":2537648.5500000026}},{"attributes":{"ID":496561,"DIS_CODE":0,"TOWNNAME":"北區","LI":"玉皇里","LIN":"14鄰","STREET":"成功路","SECT":" ","MAREA":" ","LANE":" ","ALLEY":" ","HOUSE_NO":"１１８號","E_COORD97":168518.42000000001,"N_COORD97":2544340.4300000002,"ADDRESS":"成功路１１８號","OBJECTID":496534},"geometry":{"x":168518.41999999993,"y":2544340.4300000016}},{"attributes":{"ID":496562,"DIS_CODE":0,"TOWNNAME":"北區","LI":"玉皇里","LIN":"14鄰","STREET":"成功路","SECT":" ","MAREA":" ","LANE":" ","ALLEY":" ","HOUSE_NO":"１２０號","E_COORD97":168513.31,"N_COORD97":2544355.96,"ADDRESS":"成功路１２０號","OBJECTID":496535},"geometry":{"x":168513.31000000052,"y":2544355.9600000028}},{"attributes":{"ID":496563,"DIS_CODE":0,"TOWNNAME":"仁德區","LI":"仁德里","LIN":"7鄰","STREET":"仁德三街","SECT":" ","MAREA":" ","LANE":" ","ALLEY":" ","HOUSE_NO":"４８號","E_COORD97":173208.92000000001,"N_COORD97":2540991.5099999998,"ADDRESS":"仁德三街４８號","OBJECTID":496536},"geometry":{"x":173208.91999999993,"y":2540991.5099999998}},{"attributes":{"ID":496564,"DIS_CODE":0,"TOWNNAME":"仁德區","LI":"田厝里","LIN":"7鄰","STREET":"中正路","SECT":"一段","MAREA":" ","LANE":" ","ALLEY":" ","HOUSE_NO":"６１５號","E_COORD97":172943.60000000001,"N_COORD97":2537881.27,"ADDRESS":"中正路一段６１５號","OBJECTID":496537},"geometry":{"x":172943.60000000149,"y":2537881.2699999996}},{"attributes":{"ID":496565,"DIS_CODE":0,"TOWNNAME":"北區","LI":"玉皇里","LIN":"14鄰","STREET":"忠義路","SECT":"三段","MAREA":" ","LANE":" ","ALLEY":" ","HOUSE_NO":"１６號","E_COORD97":168533.09,"N_COORD97":2544398.4399999999,"ADDRESS":"忠義路三段１６號","OBJECTID":496538},"geometry":{"x":168533.09000000078,"y":2544398.4400000013}},{"attributes":{"ID":496566,"DIS_CODE":0,"TOWNNAME":"北區","LI":"玉皇里","LIN":"14鄰","STREET":"忠義路","SECT":"三段","MAREA":" ","LANE":" ","ALLEY":" ","HOUSE_NO":"１８號","E_COORD97":168532.87,"N_COORD97":2544409.1400000001,"ADDRESS":"忠義路三段１８號","OBJECTID":496539},"geometry":{"x":168532.86999999918,"y":2544409.1400000006}},{"attributes":{"ID":496567,"DIS_CODE":0,"TOWNNAME":"北區","LI":"玉皇里","LIN":"14鄰","STREET":"忠義路","SECT":"三段","MAREA":" ","LANE":" ","ALLEY":" ","HOUSE_NO":"２２號","E_COORD97":168537.85999999999,"N_COORD97":2544419.5800000001,"ADDRESS":"忠義路三段２２號","OBJECTID":496540},"geometry":{"x":168537.86000000034,"y":2544419.5800000001}},{"attributes":{"ID":496568,"DIS_CODE":0,"TOWNNAME":"安平區","LI":"平安里","LIN":"5鄰","STREET":"安平路","SECT":" ","MAREA":" ","LANE":" ","ALLEY":" ","HOUSE_NO":"３０６號","E_COORD97":165726.70000000001,"N_COORD97":2544351.73,"ADDRESS":"安平路３０６號","OBJECTID":496541},"geometry":{"x":165726.70000000019,"y":2544351.7300000004}},{"attributes":{"ID":496569,"DIS_CODE":0,"TOWNNAME":"安平區","LI":"平安里","LIN":"5鄰","STREET":"安平路","SECT":" ","MAREA":" ","LANE":" ","ALLEY":" ","HOUSE_NO":"３０８號","E_COORD97":165727.29000000001,"N_COORD97":2544346.1899999999,"ADDRESS":"安平路３０８號","OBJECTID":496542},"geometry":{"x":165727.29000000004,"y":2544346.1899999995}},{"attributes":{"ID":496570,"DIS_CODE":0,"TOWNNAME":"安平區","LI":"平安里","LIN":"5鄰","STREET":"安平路","SECT":" ","MAREA":" ","LANE":" ","ALLEY":" ","HOUSE_NO":"３１０號","E_COORD97":165722.70000000001,"N_COORD97":2544348.5499999998,"ADDRESS":"安平路３１０號","OBJECTID":496543},"geometry":{"x":165722.70000000112,"y":2544348.5500000007}},{"attributes":{"ID":496571,"DIS_CODE":0,"TOWNNAME":"安平區","LI":"平安里","LIN":"5鄰","STREET":"安平路","SECT":" ","MAREA":" ","LANE":" ","ALLEY":" ","HOUSE_NO":"３１２號","E_COORD97":165718.26999999999,"N_COORD97":2544348.9199999999,"ADDRESS":"安平路３１２號","OBJECTID":496544},"geometry":{"x":165718.26999999955,"y":2544348.9199999999}},{"attributes":{"ID":496572,"DIS_CODE":0,"TOWNNAME":"安平區","LI":"海頭里","LIN":"11鄰","STREET":"\u25A0忠街","SECT":" ","MAREA":" ","LANE":" ","ALLEY":" ","HOUSE_NO":"８２號","E_COORD97":164073.73000000001,"N_COORD97":2544715.4700000002,"ADDRESS":"\u25A0忠街８２號","OBJECTID":496545},"geometry":{"x":164073.73000000045,"y":2544715.4700000007}},{"attributes":{"ID":496573,"DIS_CODE":0,"TOWNNAME":"安平區","LI":"海頭里","LIN":"11鄰","STREET":"\u25A0忠街","SECT":" ","MAREA":" ","LANE":" ","ALLEY":" ","HOUSE_NO":"８４號","E_COORD97":164072.44,"N_COORD97":2544678.0299999998,"ADDRESS":"\u25A0忠街８４號","OBJECTID":496546},"geometry":{"x":164072.44000000041,"y":2544678.0300000012}},{"attributes":{"ID":496574,"DIS_CODE":0,"TOWNNAME":"安平區","LI":"海頭里","LIN":"11鄰","STREET":"\u25A0忠街","SECT":" ","MAREA":" ","LANE":" ","ALLEY":" ","HOUSE_NO":"８６號","E_COORD97":164066.31,"N_COORD97":2544709.3799999999,"ADDRESS":"\u25A0忠街８６號","OBJECTID":496547},"geometry":{"x":164066.31000000052,"y":2544709.3800000008}},{"attributes":{"ID":496575,"DIS_CODE":0,"TOWNNAME":"安平區","LI":"海頭里","LIN":"11鄰","STREET":"\u25A0忠街","SECT":" ","MAREA":" ","LANE":" ","ALLEY":" ","HOUSE_NO":"９０號","E_COORD97":164055.60000000001,"N_COORD97":2544701.6899999999,"ADDRESS":"\u25A0忠街９０號","OBJECTID":496548},"geometry":{"x":164055.60000000149,"y":2544701.6900000013}},{"attributes":{"ID":496576,"DIS_CODE":0,"TOWNNAME":"東區","LI":"崇善里","LIN":"7鄰","STREET":"崇善七街","SECT":" ","MAREA":" ","LANE":" ","ALLEY":" ","HOUSE_NO":"４７號","E_COORD97":171163.39999999999,"N_COORD97":2541515.1499999999,"ADDRESS":"崇善七街４７號","OBJECTID":496549},"geometry":{"x":171163.40000000037,"y":2541515.1500000022}},{"attributes":{"ID":496577,"DIS_CODE":0,"TOWNNAME":"安平區","LI":"海頭里","LIN":"10鄰","STREET":"中興街","SECT":" ","MAREA":" ","LANE":" ","ALLEY":" ","HOUSE_NO":"４７號","E_COORD97":164084.64999999999,"N_COORD97":2544744.5600000001,"ADDRESS":"中興街４７號","OBJECTID":496550},"geometry":{"x":164084.65000000037,"y":2544744.5600000024}},{"attributes":{"ID":496578,"DIS_CODE":0,"TOWNNAME":"安平區","LI":"海頭里","LIN":"10鄰","STREET":"中興街","SECT":" ","MAREA":" ","LANE":" ","ALLEY":" ","HOUSE_NO":"４９號","E_COORD97":164080.94,"N_COORD97":2544752.8900000001,"ADDRESS":"中興街４９號","OBJECTID":496551},"geometry":{"x":164080.94000000041,"y":2544752.8900000006}},{"attributes":{"ID":496579,"DIS_CODE":0,"TOWNNAME":"仁德區","LI":"田厝里","LIN":"7鄰","STREET":"中正路","SECT":"一段","MAREA":" ","LANE":" ","ALLEY":" ","HOUSE_NO":"５４１號","E_COORD97":172868.42000000001,"N_COORD97":2537639.0299999998,"ADDRESS":"中正路一段５４１號","OBJECTID":496552},"geometry":{"x":172868.41999999993,"y":2537639.0299999975}},{"attributes":{"ID":496580,"DIS_CODE":0,"TOWNNAME":"仁德區","LI":"仁德里","LIN":"7鄰","STREET":"仁德三街","SECT":" ","MAREA":" ","LANE":" ","ALLEY":" ","HOUSE_NO":"２８號","E_COORD97":173267.67000000001,"N_COORD97":2540994.5099999998,"ADDRESS":"仁德三街２８號","OBJECTID":496553},"geometry":{"x":173267.67000000086,"y":2540994.5100000016}},{"attributes":{"ID":496581,"DIS_CODE":0,"TOWNNAME":"仁德區","LI":"仁德里","LIN":"7鄰","STREET":"仁德三街","SECT":" ","MAREA":" ","LANE":" ","ALLEY":" ","HOUSE_NO":"２０號","E_COORD97":173287.42000000001,"N_COORD97":2540998.7599999998,"ADDRESS":"仁德三街２０號","OBJECTID":496554},"geometry":{"x":173287.42000000179,"y":2540998.7600000016}},{"attributes":{"ID":496582,"DIS_CODE":0,"TOWNNAME":"仁德區","LI":"田厝里","LIN":"7鄰","STREET":"保安路","SECT":"二段","MAREA":" ","LANE":" ","ALLEY":" ","HOUSE_NO":"４９５號","E_COORD97":172471.54999999999,"N_COORD97":2537545.0699999998,"ADDRESS":"保安路二段４９５號","OBJECTID":496555},"geometry":{"x":172471.55000000075,"y":2537545.070000004}},{"attributes":{"ID":496583,"DIS_CODE":0,"TOWNNAME":"仁德區","LI":"後壁里","LIN":"7鄰","STREET":"德善一街","SECT":" ","MAREA":" ","LANE":" ","ALLEY":" ","HOUSE_NO":"７４號","E_COORD97":173582.60000000001,"N_COORD97":2539089.27,"ADDRESS":"德善一街７４號","OBJECTID":496556},"geometry":{"x":173582.60000000149,"y":2539089.2700000014}},{"attributes":{"ID":496584,"DIS_CODE":0,"TOWNNAME":"仁德區","LI":"後壁里","LIN":"7鄰","STREET":"德善一街","SECT":" ","MAREA":" ","LANE":" ","ALLEY":" ","HOUSE_NO":"７６號","E_COORD97":173588.19,"N_COORD97":2539093.02,"ADDRESS":"德善一街７６號","OBJECTID":496557},"geometry":{"x":173588.19000000134,"y":2539093.0199999996}},{"attributes":{"ID":496585,"DIS_CODE":0,"TOWNNAME":"仁德區","LI":"成功里","LIN":"7鄰","STREET":"成功三街","SECT":" ","MAREA":" ","LANE":" ","ALLEY":" ","HOUSE_NO":"２６號","E_COORD97":171160.10000000001,"N_COORD97":2539985.27,"ADDRESS":"成功三街２６號","OBJECTID":496558},"geometry":{"x":171160.10000000149,"y":2539985.2700000014}},{"attributes":{"ID":496586,"DIS_CODE":0,"TOWNNAME":"仁德區","LI":"成功里","LIN":"7鄰","STREET":"保生東路","SECT":" ","MAREA":" ","LANE":" ","ALLEY":" ","HOUSE_NO":"２３６號","E_COORD97":171142.07000000001,"N_COORD97":2539778.25,"ADDRESS":"保生東路２３６號","OBJECTID":496559},"geometry":{"x":171142.0700000003,"y":2539778.2500000019}},{"attributes":{"ID":496587,"DIS_CODE":0,"TOWNNAME":"仁德區","LI":"後壁里","LIN":"7鄰","STREET":"德善二街","SECT":" ","MAREA":" ","LANE":" ","ALLEY":" ","HOUSE_NO":"３９號","E_COORD97":173593.81241799999,"N_COORD97":2538974.8855599998,"ADDRESS":"德善二街３９號","OBJECTID":496560},"geometry":{"x":173593.81241800077,"y":2538974.8855620027}},{"attributes":{"ID":496588,"DIS_CODE":0,"TOWNNAME":"仁德區","LI":"田厝里","LIN":"7鄰","STREET":"中正路","SECT":"一段","MAREA":" ","LANE":" ","ALLEY":" ","HOUSE_NO":"６２５號","E_COORD97":172956.62,"N_COORD97":2537908.02,"ADDRESS":"中正路一段６２５號","OBJECTID":496561},"geometry":{"x":172956.62000000011,"y":2537908.0200000014}},{"attributes":{"ID":496589,"DIS_CODE":0,"TOWNNAME":"仁德區","LI":"後壁里","LIN":"7鄰","STREET":"德善一街","SECT":" ","MAREA":" ","LANE":" ","ALLEY":" ","HOUSE_NO":"６０號","E_COORD97":173529.26000000001,"N_COORD97":2539061.02,"ADDRESS":"德善一街６０號","OBJECTID":496562},"geometry":{"x":173529.26000000071,"y":2539061.0200000014}},{"attributes":{"ID":496590,"DIS_CODE":0,"TOWNNAME":"安南區","LI":"理想里","LIN":"7鄰","STREET":"海佃路","SECT":"二段","MAREA":" ","LANE":" ","ALLEY":" ","HOUSE_NO":"１９２號","E_COORD97":166970.01342500001,"N_COORD97":2548242.93738,"ADDRESS":"海佃路二段１９２號","OBJECTID":496563},"geometry":{"x":166970.01342500187,"y":2548242.9373840019}},{"attributes":{"ID":496591,"DIS_CODE":0,"TOWNNAME":"永康區","LI":"三合里","LIN":"7鄰","STREET":"南工街","SECT":" ","MAREA":" ","LANE":" ","ALLEY":" ","HOUSE_NO":"９３號","E_COORD97":172089.89999999999,"N_COORD97":2545699.3700000001,"ADDRESS":"南工街９３號","OBJECTID":496564},"geometry":{"x":172089.9000000013,"y":2545699.3700000029}},{"attributes":{"ID":496592,"DIS_CODE":0,"TOWNNAME":"永康區","LI":"三合里","LIN":"7鄰","STREET":"南工街","SECT":" ","MAREA":" ","LANE":" ","ALLEY":" ","HOUSE_NO":"８９號","E_COORD97":172090.60999999999,"N_COORD97":2545690.8700000001,"ADDRESS":"南工街８９號","OBJECTID":496565},"geometry":{"x":172090.61000000127,"y":2545690.8700000048}},{"attributes":{"ID":496593,"DIS_CODE":0,"TOWNNAME":"永康區","LI":"三合里","LIN":"7鄰","STREET":"南工街","SECT":" ","MAREA":" ","LANE":" ","ALLEY":" ","HOUSE_NO":"８３號","E_COORD97":172089.98000000001,"N_COORD97":2545677.7400000002,"ADDRESS":"南工街８３號","OBJECTID":496566},"geometry":{"x":172089.98000000045,"y":2545677.7400000021}},{"attributes":{"ID":496594,"DIS_CODE":0,"TOWNNAME":"永康區","LI":"三合里","LIN":"7鄰","STREET":"南工街","SECT":" ","MAREA":" ","LANE":" ","ALLEY":" ","HOUSE_NO":"７９號","E_COORD97":172090.13,"N_COORD97":2545669.4900000002,"ADDRESS":"南工街７９號","OBJECTID":496567},"geometry":{"x":172090.12999999989,"y":2545669.4900000021}},{"attributes":{"ID":496595,"DIS_CODE":0,"TOWNNAME":"永康區","LI":"中興里","LIN":"7鄰","STREET":"中山東路","SECT":" ","MAREA":" ","LANE":" ","ALLEY":" ","HOUSE_NO":"４５２號","E_COORD97":171935.42000000001,"N_COORD97":2545067.75,"ADDRESS":"中山東路４５２號","OBJECTID":496568},"geometry":{"x":171935.42000000086,"y":2545067.7500000019}},{"attributes":{"ID":496596,"DIS_CODE":0,"TOWNNAME":"永康區","LI":"崑山里","LIN":"7鄰","STREET":"大灣路","SECT":" ","MAREA":" ","LANE":" ","ALLEY":" ","HOUSE_NO":"９０７號","E_COORD97":173583.73000000001,"N_COORD97":2544389.46,"ADDRESS":"大灣路９０７號","OBJECTID":496569},"geometry":{"x":173583.73000000045,"y":2544389.4600000028}},{"attributes":{"ID":496597,"DIS_CODE":0,"TOWNNAME":"安南區","LI":"城北里","LIN":"7鄰","STREET":"安中路","SECT":"六段","MAREA":" ","LANE":" ","ALLEY":" ","HOUSE_NO":"４４６號之２０","E_COORD97":161211.07999999999,"N_COORD97":2551333.1499999999,"ADDRESS":"安中路六段４４６號之２０","OBJECTID":496570},"geometry":{"x":161211.08000000007,"y":2551333.1500000041}},{"attributes":{"ID":496598,"DIS_CODE":0,"TOWNNAME":"安南區","LI":"溪東里","LIN":"7鄰","STREET":"府安路","SECT":"五段","MAREA":" ","LANE":" ","ALLEY":" ","HOUSE_NO":"４０號","E_COORD97":168347.92000000001,"N_COORD97":2547205.71,"ADDRESS":"府安路五段４０號","OBJECTID":496571},"geometry":{"x":168347.92000000086,"y":2547205.7100000009}},{"attributes":{"ID":496599,"DIS_CODE":0,"TOWNNAME":"安南區","LI":"溪東里","LIN":"7鄰","STREET":"府安路","SECT":"五段","MAREA":" ","LANE":" ","ALLEY":" ","HOUSE_NO":"４２號","E_COORD97":168340.03,"N_COORD97":2547205.2400000002,"ADDRESS":"府安路五段４２號","OBJECTID":496572},"geometry":{"x":168340.03000000026,"y":2547205.2400000002}},{"attributes":{"ID":496600,"DIS_CODE":0,"TOWNNAME":"安南區","LI":"溪東里","LIN":"7鄰","STREET":"府安路","SECT":"五段","MAREA":" ","LANE":" ","ALLEY":" ","HOUSE_NO":"４３號","E_COORD97":168336.41,"N_COORD97":2547202,"ADDRESS":"府安路五段４３號","OBJECTID":496573},"geometry":{"x":168336.41000000108,"y":2547202.0000000019}},{"attributes":{"ID":496601,"DIS_CODE":0,"TOWNNAME":"安平區","LI":"平安里","LIN":"5鄰","STREET":"安平路","SECT":" ","MAREA":" ","LANE":" ","ALLEY":" ","HOUSE_NO":"３２４號","E_COORD97":165689.78,"N_COORD97":2544349.4300000002,"ADDRESS":"安平路３２４號","OBJECTID":496574},"geometry":{"x":165689.78000000119,"y":2544349.4299999997}},{"attributes":{"ID":496602,"DIS_CODE":0,"TOWNNAME":"安南區","LI":"溪東里","LIN":"7鄰","STREET":"府安路","SECT":"五段","MAREA":" ","LANE":" ","ALLEY":" ","HOUSE_NO":"４６號","E_COORD97":168322.64000000001,"N_COORD97":2547199.7000000002,"ADDRESS":"府安路五段４６號","OBJECTID":496575},"geometry":{"x":168322.6400000006,"y":2547199.7000000011}},{"attributes":{"ID":496603,"DIS_CODE":0,"TOWNNAME":"安南區","LI":"溪東里","LIN":"7鄰","STREET":"府安路","SECT":"五段","MAREA":" ","LANE":" ","ALLEY":" ","HOUSE_NO":"４７號","E_COORD97":168318.84,"N_COORD97":2547197.5299999998,"ADDRESS":"府安路五段４７號","OBJECTID":496576},"geometry":{"x":168318.83999999985,"y":2547197.5300000012}},{"attributes":{"ID":496604,"DIS_CODE":0,"TOWNNAME":"中西區","LI":"藥王里","LIN":"7鄰","STREET":"大新街","SECT":" ","MAREA":" ","LANE":" ","ALLEY":" ","HOUSE_NO":"５２號","E_COORD97":167181.12,"N_COORD97":2544417.96,"ADDRESS":"大新街５２號","OBJECTID":496577},"geometry":{"x":167181.12000000011,"y":2544417.9600000009}},{"attributes":{"ID":496605,"DIS_CODE":0,"TOWNNAME":"中西區","LI":"藥王里","LIN":"7鄰","STREET":"大新街","SECT":" ","MAREA":" ","LANE":" ","ALLEY":" ","HOUSE_NO":"５６號","E_COORD97":167181.98000000001,"N_COORD97":2544425.6499999999,"ADDRESS":"大新街５６號","OBJECTID":496578},"geometry":{"x":167181.98000000138,"y":2544425.6500000004}},{"attributes":{"ID":496606,"DIS_CODE":0,"TOWNNAME":"中西區","LI":"藥王里","LIN":"7鄰","STREET":"大新街","SECT":" ","MAREA":" ","LANE":" ","ALLEY":" ","HOUSE_NO":"３８號","E_COORD97":167170.25,"N_COORD97":2544387.5800000001,"ADDRESS":"大新街３８號","OBJECTID":496579},"geometry":{"x":167170.25,"y":2544387.5800000019}},{"attributes":{"ID":496607,"DIS_CODE":0,"TOWNNAME":"中西區","LI":"藥王里","LIN":"7鄰","STREET":"大新街","SECT":" ","MAREA":" ","LANE":" ","ALLEY":" ","HOUSE_NO":"４０號","E_COORD97":167172.98999999999,"N_COORD97":2544391.1499999999,"ADDRESS":"大新街４０號","OBJECTID":496580},"geometry":{"x":167172.99000000115,"y":2544391.1500000022}},{"attributes":{"ID":496608,"DIS_CODE":0,"TOWNNAME":"中西區","LI":"藥王里","LIN":"7鄰","STREET":"大新街","SECT":" ","MAREA":" ","LANE":" ","ALLEY":" ","HOUSE_NO":"４２號","E_COORD97":167172.41,"N_COORD97":2544395.9700000002,"ADDRESS":"大新街４２號","OBJECTID":496581},"geometry":{"x":167172.41000000015,"y":2544395.9700000025}},{"attributes":{"ID":496609,"DIS_CODE":0,"TOWNNAME":"中西區","LI":"藥王里","LIN":"7鄰","STREET":"大新街","SECT":" ","MAREA":" ","LANE":" ","ALLEY":" ","HOUSE_NO":"４４號","E_COORD97":167174.76000000001,"N_COORD97":2544400.0299999998,"ADDRESS":"大新街４４號","OBJECTID":496582},"geometry":{"x":167174.75999999978,"y":2544400.0300000012}},{"attributes":{"ID":496610,"DIS_CODE":0,"TOWNNAME":"中西區","LI":"藥王里","LIN":"7鄰","STREET":"大新街","SECT":" ","MAREA":" ","LANE":" ","ALLEY":" ","HOUSE_NO":"４６號","E_COORD97":167176.67999999999,"N_COORD97":2544403.6600000001,"ADDRESS":"大新街４６號","OBJECTID":496583},"geometry":{"x":167176.68000000063,"y":2544403.660000002}},{"attributes":{"ID":496611,"DIS_CODE":0,"TOWNNAME":"中西區","LI":"藥王里","LIN":"7鄰","STREET":"大新街","SECT":" ","MAREA":" ","LANE":" ","ALLEY":" ","HOUSE_NO":"５０號","E_COORD97":167180.48000000001,"N_COORD97":2544412.6299999999,"ADDRESS":"大新街５０號","OBJECTID":496584},"geometry":{"x":167180.48000000138,"y":2544412.6300000008}},{"attributes":{"ID":496612,"DIS_CODE":0,"TOWNNAME":"永康區","LI":"復國里","LIN":"7鄰","STREET":"復國一路","SECT":" ","MAREA":" ","LANE":" ","ALLEY":" ","HOUSE_NO":"２７８號","E_COORD97":172761.47,"N_COORD97":2545461.52,"ADDRESS":"復國一路２７８號","OBJECTID":496585},"geometry":{"x":172761.4700000016,"y":2545461.5200000014}},{"attributes":{"ID":496613,"DIS_CODE":0,"TOWNNAME":"永康區","LI":"復國里","LIN":"7鄰","STREET":"復國一路","SECT":" ","MAREA":" ","LANE":" ","ALLEY":" ","HOUSE_NO":"１２８號","E_COORD97":172726.54999999999,"N_COORD97":2545025.52,"ADDRESS":"復國一路１２８號","OBJECTID":496586},"geometry":{"x":172726.54999999981,"y":2545025.5199999996}},{"attributes":{"ID":496614,"DIS_CODE":0,"TOWNNAME":"永康區","LI":"復國里","LIN":"7鄰","STREET":"復國一路","SECT":" ","MAREA":" ","LANE":" ","ALLEY":" ","HOUSE_NO":"２９０號","E_COORD97":172755.53,"N_COORD97":2545511.0299999998,"ADDRESS":"復國一路２９０號","OBJECTID":496587},"geometry":{"x":172755.53000000119,"y":2545511.0299999993}},{"attributes":{"ID":496615,"DIS_CODE":0,"TOWNNAME":"永康區","LI":"復國里","LIN":"7鄰","STREET":"復國一路","SECT":" ","MAREA":" ","LANE":" ","ALLEY":" ","HOUSE_NO":"２８６號","E_COORD97":172754.82000000001,"N_COORD97":2545502.5299999998,"ADDRESS":"復國一路２８６號","OBJECTID":496588},"geometry":{"x":172754.82000000123,"y":2545502.5300000012}},{"attributes":{"ID":496616,"DIS_CODE":0,"TOWNNAME":"永康區","LI":"崑山里","LIN":"7鄰","STREET":"大灣路","SECT":" ","MAREA":" ","LANE":" ","ALLEY":" ","HOUSE_NO":"９１３號","E_COORD97":173569.31,"N_COORD97":2544389.46,"ADDRESS":"大灣路９１３號","OBJECTID":496589},"geometry":{"x":173569.31000000145,"y":2544389.4600000028}},{"attributes":{"ID":496617,"DIS_CODE":0,"TOWNNAME":"永康區","LI":"復國里","LIN":"7鄰","STREET":"復國一路","SECT":" ","MAREA":" ","LANE":" ","ALLEY":" ","HOUSE_NO":"２６６號","E_COORD97":172747,"N_COORD97":2545385.6299999999,"ADDRESS":"復國一路２６６號","OBJECTID":496590},"geometry":{"x":172747.00000000093,"y":2545385.6300000008}},{"attributes":{"ID":496618,"DIS_CODE":0,"TOWNNAME":"永康區","LI":"復國里","LIN":"7鄰","STREET":"復國一路","SECT":" ","MAREA":" ","LANE":" ","ALLEY":" ","HOUSE_NO":"２８８號","E_COORD97":172755.01999999999,"N_COORD97":2545506.7799999998,"ADDRESS":"復國一路２８８號","OBJECTID":496591},"geometry":{"x":172755.01999999955,"y":2545506.7800000031}},{"attributes":{"ID":496619,"DIS_CODE":0,"TOWNNAME":"永康區","LI":"復國里","LIN":"7鄰","STREET":"復國一路","SECT":" ","MAREA":" ","LANE":" ","ALLEY":" ","HOUSE_NO":"２６２號","E_COORD97":172746.54999999999,"N_COORD97":2545376.8799999999,"ADDRESS":"復國一路２６２號","OBJECTID":496592},"geometry":{"x":172746.55000000075,"y":2545376.8800000027}},{"attributes":{"ID":496620,"DIS_CODE":0,"TOWNNAME":"永康區","LI":"復國里","LIN":"7鄰","STREET":"復國一路","SECT":" ","MAREA":" ","LANE":" ","ALLEY":" ","HOUSE_NO":"２７２號","E_COORD97":172747.91,"N_COORD97":2545397.8799999999,"ADDRESS":"復國一路２７２號","OBJECTID":496593},"geometry":{"x":172747.91000000015,"y":2545397.8800000008}},{"attributes":{"ID":496621,"DIS_CODE":0,"TOWNNAME":"永康區","LI":"復國里","LIN":"7鄰","STREET":"復國一路","SECT":" ","MAREA":" ","LANE":" ","ALLEY":" ","HOUSE_NO":"２２０號","E_COORD97":172737.88,"N_COORD97":2545236.02,"ADDRESS":"復國一路２２０號","OBJECTID":496594},"geometry":{"x":172737.87999999989,"y":2545236.0199999996}},{"attributes":{"ID":496622,"DIS_CODE":0,"TOWNNAME":"永康區","LI":"復國里","LIN":"7鄰","STREET":"復國一路","SECT":" ","MAREA":" ","LANE":" ","ALLEY":" ","HOUSE_NO":"１３６號","E_COORD97":172727.89000000001,"N_COORD97":2545042.77,"ADDRESS":"復國一路１３６號","OBJECTID":496595},"geometry":{"x":172727.88999999873,"y":2545042.7700000014}},{"attributes":{"ID":496623,"DIS_CODE":0,"TOWNNAME":"永康區","LI":"復國里","LIN":"7鄰","STREET":"復國一路","SECT":" ","MAREA":" ","LANE":" ","ALLEY":" ","HOUSE_NO":"２５６號","E_COORD97":172745.25,"N_COORD97":2545364.6200000001,"ADDRESS":"復國一路２５６號","OBJECTID":496596},"geometry":{"x":172745.25000000093,"y":2545364.6200000029}},{"attributes":{"ID":496624,"DIS_CODE":0,"TOWNNAME":"永康區","LI":"崑山里","LIN":"7鄰","STREET":"大灣路","SECT":" ","MAREA":" ","LANE":" ","ALLEY":" ","HOUSE_NO":"８９７號","E_COORD97":173603.64999999999,"N_COORD97":2544396.0099999998,"ADDRESS":"大灣路８９７號","OBJECTID":496597},"geometry":{"x":173603.6500000013,"y":2544396.0099999998}},{"attributes":{"ID":496625,"DIS_CODE":0,"TOWNNAME":"永康區","LI":"復國里","LIN":"7鄰","STREET":"復國一路","SECT":" ","MAREA":" ","LANE":" ","ALLEY":" ","HOUSE_NO":"２１２號","E_COORD97":172736.32999999999,"N_COORD97":2545219.02,"ADDRESS":"復國一路２１２號","OBJECTID":496598},"geometry":{"x":172736.33000000101,"y":2545219.0199999996}},{"attributes":{"ID":496626,"DIS_CODE":0,"TOWNNAME":"永康區","LI":"復國里","LIN":"7鄰","STREET":"復國一路","SECT":" ","MAREA":" ","LANE":" ","ALLEY":" ","HOUSE_NO":"２９４號","E_COORD97":172756.32000000001,"N_COORD97":2545519.2799999998,"ADDRESS":"復國一路２９４號","OBJECTID":496599},"geometry":{"x":172756.32000000216,"y":2545519.2799999993}},{"attributes":{"ID":496627,"DIS_CODE":0,"TOWNNAME":"東區","LI":"德高里","LIN":"7鄰","STREET":"仁和路","SECT":" ","MAREA":" ","LANE":" ","ALLEY":" ","HOUSE_NO":"２２２號","E_COORD97":171547.25,"N_COORD97":2540939.4199999999,"ADDRESS":"仁和路２２２號","OBJECTID":496600},"geometry":{"x":171547.25,"y":2540939.4200000037}}]}