{"displayFieldName":"TOWNNAME","fieldAliases":{"ID":"ID","DIS_CODE":"DIS_CODE","TOWNNAME":"TOWNNAME","LI":"LI","LIN":"LIN","STREET":"STREET","SECT":"SECT","MAREA":"MAREA","LANE":"LANE","ALLEY":"ALLEY","HOUSE_NO":"HOUSE_NO","E_COORD97":"E_COORD97","N_COORD97":"N_COORD97","ADDRESS":"ADDRESS","OBJECTID":"OBJECTID"},"geometryType":"esriGeometryPoint","spatialReference":{"wkid":102443,"latestWkid":3826},"fields":[{"name":"ID","type":"esriFieldTypeDouble","alias":"ID"},{"name":"DIS_CODE","type":"esriFieldTypeInteger","alias":"DIS_CODE"},{"name":"TOWNNAME","type":"esriFieldTypeString","alias":"TOWNNAME","length":8},{"name":"LI","type":"esriFieldTypeString","alias":"LI","length":8},{"name":"LIN","type":"esriFieldTypeString","alias":"LIN","length":12},{"name":"STREET","type":"esriFieldTypeString","alias":"STREET","length":20},{"name":"SECT","type":"esriFieldTypeString","alias":"SECT","length":8},{"name":"MAREA","type":"esriFieldTypeString","alias":"MAREA","length":12},{"name":"LANE","type":"esriFieldTypeString","alias":"LANE","length":10},{"name":"ALLEY","type":"esriFieldTypeString","alias":"ALLEY","length":10},{"name":"HOUSE_NO","type":"esriFieldTypeString","alias":"HOUSE_NO","length":20},{"name":"E_COORD97","type":"esriFieldTypeDouble","alias":"E_COORD97"},{"name":"N_COORD97","type":"esriFieldTypeDouble","alias":"N_COORD97"},{"name":"ADDRESS","type":"esriFieldTypeString","alias":"ADDRESS","length":50},{"name":"OBJECTID","type":"esriFieldTypeOID","alias":"OBJECTID"}],"features":[{"attributes":{"ID":386625,"DIS_CODE":0,"TOWNNAME":"永康區","LI":"北灣里","LIN":"37鄰","STREET":"大同街","SECT":" ","MAREA":" ","LANE":"３８０巷","ALLEY":" ","HOUSE_NO":"１０號五樓之２","E_COORD97":174758.10999999999,"N_COORD97":2546081,"ADDRESS":"大同街３８０巷１０號五樓之２","OBJECTID":386601},"geometry":{"x":174758.1100000022,"y":2546081}},{"attributes":{"ID":386626,"DIS_CODE":0,"TOWNNAME":"永康區","LI":"北灣里","LIN":"37鄰","STREET":"大同街","SECT":" ","MAREA":" ","LANE":"３１５巷","ALLEY":" ","HOUSE_NO":"８號六樓之３","E_COORD97":174724.04000000001,"N_COORD97":2546025.2200000002,"ADDRESS":"大同街３１５巷８號六樓之３","OBJECTID":386602},"geometry":{"x":174724.04000000004,"y":2546025.2200000025}},{"attributes":{"ID":386627,"DIS_CODE":0,"TOWNNAME":"永康區","LI":"復華里","LIN":"37鄰","STREET":"復華七街","SECT":" ","MAREA":" ","LANE":"３２巷","ALLEY":" ","HOUSE_NO":"２９號七樓之１","E_COORD97":172731.04000000001,"N_COORD97":2545951.54,"ADDRESS":"復華七街３２巷２９號七樓之１","OBJECTID":386603},"geometry":{"x":172731.04000000097,"y":2545951.5399999991}},{"attributes":{"ID":386628,"DIS_CODE":0,"TOWNNAME":"永康區","LI":"\u25A0行里","LIN":"26鄰","STREET":"中正南路","SECT":" ","MAREA":" ","LANE":"４０４巷","ALLEY":" ","HOUSE_NO":"１５號","E_COORD97":171158.45000000001,"N_COORD97":2548225.2400000002,"ADDRESS":"中正南路４０４巷１５號","OBJECTID":386604},"geometry":{"x":171158.45000000205,"y":2548225.2400000002}},{"attributes":{"ID":386629,"DIS_CODE":0,"TOWNNAME":"永康區","LI":"\u25A0行里","LIN":"37鄰","STREET":"仁愛街","SECT":" ","MAREA":" ","LANE":"８４巷","ALLEY":" ","HOUSE_NO":"７號","E_COORD97":172080.75,"N_COORD97":2549407.9100000001,"ADDRESS":"仁愛街８４巷７號","OBJECTID":386605},"geometry":{"x":172080.75000000093,"y":2549407.9100000001}},{"attributes":{"ID":386630,"DIS_CODE":0,"TOWNNAME":"永康區","LI":"\u25A0行里","LIN":"37鄰","STREET":"仁愛街","SECT":" ","MAREA":" ","LANE":"８４巷","ALLEY":" ","HOUSE_NO":"２號四樓","E_COORD97":172060.85000000001,"N_COORD97":2549398.8999999999,"ADDRESS":"仁愛街８４巷２號四樓","OBJECTID":386606},"geometry":{"x":172060.85000000056,"y":2549398.8999999985}},{"attributes":{"ID":386631,"DIS_CODE":0,"TOWNNAME":"永康區","LI":"復華里","LIN":"37鄰","STREET":"復華七街","SECT":" ","MAREA":" ","LANE":"３２巷","ALLEY":" ","HOUSE_NO":"２９號十樓之２","E_COORD97":172731.17000000001,"N_COORD97":2545951.54,"ADDRESS":"復華七街３２巷２９號十樓之２","OBJECTID":386607},"geometry":{"x":172731.16999999993,"y":2545951.5399999991}},{"attributes":{"ID":386632,"DIS_CODE":0,"TOWNNAME":"永康區","LI":"復華里","LIN":"37鄰","STREET":"復華七街","SECT":" ","MAREA":" ","LANE":"３２巷","ALLEY":" ","HOUSE_NO":"２９號四樓之２","E_COORD97":172731.17000000001,"N_COORD97":2545951.54,"ADDRESS":"復華七街３２巷２９號四樓之２","OBJECTID":386608},"geometry":{"x":172731.16999999993,"y":2545951.5399999991}},{"attributes":{"ID":386633,"DIS_CODE":0,"TOWNNAME":"永康區","LI":"復華里","LIN":"37鄰","STREET":"復華七街","SECT":" ","MAREA":" ","LANE":"３２巷","ALLEY":" ","HOUSE_NO":"３５號三樓之１","E_COORD97":172747.57000000001,"N_COORD97":2545943.54,"ADDRESS":"復華七街３２巷３５號三樓之１","OBJECTID":386609},"geometry":{"x":172747.5700000003,"y":2545943.540000001}},{"attributes":{"ID":386634,"DIS_CODE":0,"TOWNNAME":"永康區","LI":"北灣里","LIN":"37鄰","STREET":"大同街","SECT":" ","MAREA":" ","LANE":"３８０巷","ALLEY":" ","HOUSE_NO":"１０號四樓之１","E_COORD97":174757.97,"N_COORD97":2546081,"ADDRESS":"大同街３８０巷１０號四樓之１","OBJECTID":386610},"geometry":{"x":174757.96999999974,"y":2546081}},{"attributes":{"ID":386635,"DIS_CODE":0,"TOWNNAME":"永康區","LI":"復華里","LIN":"37鄰","STREET":"復華七街","SECT":" ","MAREA":" ","LANE":"３２巷","ALLEY":" ","HOUSE_NO":"３７號十二樓之２","E_COORD97":172752.48000000001,"N_COORD97":2545927.0499999998,"ADDRESS":"復華七街３２巷３７號十二樓之２","OBJECTID":386611},"geometry":{"x":172752.48000000138,"y":2545927.0500000026}},{"attributes":{"ID":386636,"DIS_CODE":0,"TOWNNAME":"永康區","LI":"北灣里","LIN":"37鄰","STREET":"大同街","SECT":" ","MAREA":" ","LANE":"３１５巷","ALLEY":" ","HOUSE_NO":"１０號四樓之１","E_COORD97":174714.59,"N_COORD97":2546024.02,"ADDRESS":"大同街３１５巷１０號四樓之１","OBJECTID":386612},"geometry":{"x":174714.58999999985,"y":2546024.0200000033}},{"attributes":{"ID":386637,"DIS_CODE":0,"TOWNNAME":"永康區","LI":"北灣里","LIN":"37鄰","STREET":"大同街","SECT":" ","MAREA":" ","LANE":"３１５巷","ALLEY":" ","HOUSE_NO":"８號三樓之３","E_COORD97":174724.04000000001,"N_COORD97":2546025.2200000002,"ADDRESS":"大同街３１５巷８號三樓之３","OBJECTID":386613},"geometry":{"x":174724.04000000004,"y":2546025.2200000025}},{"attributes":{"ID":386638,"DIS_CODE":0,"TOWNNAME":"永康區","LI":"復華里","LIN":"37鄰","STREET":"復華七街","SECT":" ","MAREA":" ","LANE":"３２巷","ALLEY":" ","HOUSE_NO":"３７號十一樓之１","E_COORD97":172752.35000000001,"N_COORD97":2545927.0499999998,"ADDRESS":"復華七街３２巷３７號十一樓之１","OBJECTID":386614},"geometry":{"x":172752.35000000056,"y":2545927.0500000026}},{"attributes":{"ID":386639,"DIS_CODE":0,"TOWNNAME":"永康區","LI":"\u25A0行里","LIN":"37鄰","STREET":"仁愛街","SECT":" ","MAREA":" ","LANE":"８４巷","ALLEY":" ","HOUSE_NO":"５號二樓","E_COORD97":172088,"N_COORD97":2549414.9100000001,"ADDRESS":"仁愛街８４巷５號二樓","OBJECTID":386615},"geometry":{"x":172088,"y":2549414.9100000001}},{"attributes":{"ID":386640,"DIS_CODE":0,"TOWNNAME":"永康區","LI":"北灣里","LIN":"37鄰","STREET":"大同街","SECT":" ","MAREA":" ","LANE":"３１５巷","ALLEY":" ","HOUSE_NO":"８號三樓之１","E_COORD97":174723.94,"N_COORD97":2546025.2200000002,"ADDRESS":"大同街３１５巷８號三樓之１","OBJECTID":386616},"geometry":{"x":174723.94000000134,"y":2546025.2200000025}},{"attributes":{"ID":386641,"DIS_CODE":0,"TOWNNAME":"永康區","LI":"\u25A0行里","LIN":"37鄰","STREET":"仁愛街","SECT":" ","MAREA":" ","LANE":"８４巷","ALLEY":" ","HOUSE_NO":"４號六樓","E_COORD97":172068.14000000001,"N_COORD97":2549396.1499999999,"ADDRESS":"仁愛街８４巷４號六樓","OBJECTID":386617},"geometry":{"x":172068.13999999966,"y":2549396.1500000004}},{"attributes":{"ID":386642,"DIS_CODE":0,"TOWNNAME":"永康區","LI":"北灣里","LIN":"37鄰","STREET":"大同街","SECT":" ","MAREA":" ","LANE":"３１５巷","ALLEY":" ","HOUSE_NO":"１０號九樓之２","E_COORD97":174714.73000000001,"N_COORD97":2546024.02,"ADDRESS":"大同街３１５巷１０號九樓之２","OBJECTID":386618},"geometry":{"x":174714.73000000045,"y":2546024.0200000033}},{"attributes":{"ID":386643,"DIS_CODE":0,"TOWNNAME":"永康區","LI":"\u25A0行里","LIN":"37鄰","STREET":"仁愛街","SECT":" ","MAREA":" ","LANE":"８４巷","ALLEY":" ","HOUSE_NO":"３號四樓","E_COORD97":172077.29000000001,"N_COORD97":2549415.6600000001,"ADDRESS":"仁愛街８４巷３號四樓","OBJECTID":386619},"geometry":{"x":172077.29000000004,"y":2549415.660000002}},{"attributes":{"ID":386644,"DIS_CODE":0,"TOWNNAME":"永康區","LI":"\u25A0行里","LIN":"37鄰","STREET":"仁愛街","SECT":" ","MAREA":" ","LANE":"８４巷","ALLEY":" ","HOUSE_NO":"６號三樓","E_COORD97":172077.14000000001,"N_COORD97":2549388.1499999999,"ADDRESS":"仁愛街８４巷６號三樓","OBJECTID":386620},"geometry":{"x":172077.14000000153,"y":2549388.1500000022}},{"attributes":{"ID":386645,"DIS_CODE":0,"TOWNNAME":"永康區","LI":"復華里","LIN":"37鄰","STREET":"復華七街","SECT":" ","MAREA":" ","LANE":"３２巷","ALLEY":" ","HOUSE_NO":"３５號十樓之２","E_COORD97":172747.70000000001,"N_COORD97":2545943.54,"ADDRESS":"復華七街３２巷３５號十樓之２","OBJECTID":386621},"geometry":{"x":172747.70000000019,"y":2545943.540000001}},{"attributes":{"ID":386646,"DIS_CODE":0,"TOWNNAME":"永康區","LI":"北灣里","LIN":"37鄰","STREET":"大同街","SECT":" ","MAREA":" ","LANE":"３８０巷","ALLEY":" ","HOUSE_NO":"８號七樓之３","E_COORD97":174772.16,"N_COORD97":2546080.75,"ADDRESS":"大同街３８０巷８號七樓之３","OBJECTID":386622},"geometry":{"x":174772.16000000015,"y":2546080.7500000037}},{"attributes":{"ID":386647,"DIS_CODE":0,"TOWNNAME":"永康區","LI":"龍潭里","LIN":"44鄰","STREET":"永平街","SECT":" ","MAREA":" ","LANE":"２９８巷","ALLEY":" ","HOUSE_NO":"１之６號","E_COORD97":174660.16,"N_COORD97":2547120.04,"ADDRESS":"永平街２９８巷１之６號","OBJECTID":386623},"geometry":{"x":174660.16000000015,"y":2547120.040000001}},{"attributes":{"ID":386648,"DIS_CODE":0,"TOWNNAME":"北區","LI":"和順里","LIN":"37鄰","STREET":"公園南路","SECT":" ","MAREA":" ","LANE":"３７０巷","ALLEY":" ","HOUSE_NO":"３０號十二樓之３","E_COORD97":168214.44,"N_COORD97":2544938.52,"ADDRESS":"公園南路３７０巷３０號十二樓之３","OBJECTID":386624},"geometry":{"x":168214.44000000134,"y":2544938.5199999996}},{"attributes":{"ID":386649,"DIS_CODE":0,"TOWNNAME":"北區","LI":"和順里","LIN":"37鄰","STREET":"公園南路","SECT":" ","MAREA":" ","LANE":"３７０巷","ALLEY":" ","HOUSE_NO":"３０號十三樓之１","E_COORD97":168214.44,"N_COORD97":2544938.52,"ADDRESS":"公園南路３７０巷３０號十三樓之１","OBJECTID":386625},"geometry":{"x":168214.44000000134,"y":2544938.5199999996}},{"attributes":{"ID":386650,"DIS_CODE":0,"TOWNNAME":"北區","LI":"和順里","LIN":"37鄰","STREET":"公園南路","SECT":" ","MAREA":" ","LANE":"３７０巷","ALLEY":" ","HOUSE_NO":"３０號十三樓之５","E_COORD97":168214.44,"N_COORD97":2544938.52,"ADDRESS":"公園南路３７０巷３０號十三樓之５","OBJECTID":386626},"geometry":{"x":168214.44000000134,"y":2544938.5199999996}},{"attributes":{"ID":386651,"DIS_CODE":0,"TOWNNAME":"北區","LI":"和順里","LIN":"37鄰","STREET":"公園南路","SECT":" ","MAREA":" ","LANE":"３７０巷","ALLEY":" ","HOUSE_NO":"３０號十五樓之１","E_COORD97":168214.44,"N_COORD97":2544938.52,"ADDRESS":"公園南路３７０巷３０號十五樓之１","OBJECTID":386627},"geometry":{"x":168214.44000000134,"y":2544938.5199999996}},{"attributes":{"ID":386652,"DIS_CODE":0,"TOWNNAME":"北區","LI":"和順里","LIN":"37鄰","STREET":"公園南路","SECT":" ","MAREA":" ","LANE":"３７０巷","ALLEY":" ","HOUSE_NO":"３０號十五樓之５","E_COORD97":168214.44,"N_COORD97":2544938.52,"ADDRESS":"公園南路３７０巷３０號十五樓之５","OBJECTID":386628},"geometry":{"x":168214.44000000134,"y":2544938.5199999996}},{"attributes":{"ID":386653,"DIS_CODE":0,"TOWNNAME":"北區","LI":"和順里","LIN":"37鄰","STREET":"公園南路","SECT":" ","MAREA":" ","LANE":"３７０巷","ALLEY":" ","HOUSE_NO":"３０號十六樓之２","E_COORD97":168214.44,"N_COORD97":2544938.52,"ADDRESS":"公園南路３７０巷３０號十六樓之２","OBJECTID":386629},"geometry":{"x":168214.44000000134,"y":2544938.5199999996}},{"attributes":{"ID":386654,"DIS_CODE":0,"TOWNNAME":"北區","LI":"和順里","LIN":"37鄰","STREET":"公園南路","SECT":" ","MAREA":" ","LANE":"３７０巷","ALLEY":" ","HOUSE_NO":"３０號十六樓之３","E_COORD97":168214.44,"N_COORD97":2544938.52,"ADDRESS":"公園南路３７０巷３０號十六樓之３","OBJECTID":386630},"geometry":{"x":168214.44000000134,"y":2544938.5199999996}},{"attributes":{"ID":386655,"DIS_CODE":0,"TOWNNAME":"北區","LI":"和順里","LIN":"37鄰","STREET":"公園南路","SECT":" ","MAREA":" ","LANE":"３７０巷","ALLEY":" ","HOUSE_NO":"３０號十四樓之２","E_COORD97":168214.44,"N_COORD97":2544938.52,"ADDRESS":"公園南路３７０巷３０號十四樓之２","OBJECTID":386631},"geometry":{"x":168214.44000000134,"y":2544938.5199999996}},{"attributes":{"ID":386656,"DIS_CODE":0,"TOWNNAME":"北區","LI":"和順里","LIN":"37鄰","STREET":"公園南路","SECT":" ","MAREA":" ","LANE":"３７０巷","ALLEY":" ","HOUSE_NO":"３０號十四樓之３","E_COORD97":168214.44,"N_COORD97":2544938.52,"ADDRESS":"公園南路３７０巷３０號十四樓之３","OBJECTID":386632},"geometry":{"x":168214.44000000134,"y":2544938.5199999996}},{"attributes":{"ID":386657,"DIS_CODE":0,"TOWNNAME":"北區","LI":"和順里","LIN":"37鄰","STREET":"公園南路","SECT":" ","MAREA":" ","LANE":"３７０巷","ALLEY":" ","HOUSE_NO":"３０號十樓之２","E_COORD97":168214.44,"N_COORD97":2544938.52,"ADDRESS":"公園南路３７０巷３０號十樓之２","OBJECTID":386633},"geometry":{"x":168214.44000000134,"y":2544938.5199999996}},{"attributes":{"ID":386658,"DIS_CODE":0,"TOWNNAME":"北區","LI":"和順里","LIN":"37鄰","STREET":"公園南路","SECT":" ","MAREA":" ","LANE":"３７０巷","ALLEY":" ","HOUSE_NO":"３０號十樓之３","E_COORD97":168214.44,"N_COORD97":2544938.52,"ADDRESS":"公園南路３７０巷３０號十樓之３","OBJECTID":386634},"geometry":{"x":168214.44000000134,"y":2544938.5199999996}},{"attributes":{"ID":386659,"DIS_CODE":0,"TOWNNAME":"北區","LI":"和順里","LIN":"37鄰","STREET":"公園南路","SECT":" ","MAREA":" ","LANE":"３７０巷","ALLEY":" ","HOUSE_NO":"３０號三樓之１","E_COORD97":168214.44,"N_COORD97":2544938.52,"ADDRESS":"公園南路３７０巷３０號三樓之１","OBJECTID":386635},"geometry":{"x":168214.44000000134,"y":2544938.5199999996}},{"attributes":{"ID":386660,"DIS_CODE":0,"TOWNNAME":"北區","LI":"和順里","LIN":"37鄰","STREET":"公園南路","SECT":" ","MAREA":" ","LANE":"３７０巷","ALLEY":" ","HOUSE_NO":"３０號三樓之２","E_COORD97":168214.44,"N_COORD97":2544938.52,"ADDRESS":"公園南路３７０巷３０號三樓之２","OBJECTID":386636},"geometry":{"x":168214.44000000134,"y":2544938.5199999996}},{"attributes":{"ID":386661,"DIS_CODE":0,"TOWNNAME":"北區","LI":"和順里","LIN":"37鄰","STREET":"公園南路","SECT":" ","MAREA":" ","LANE":"３７０巷","ALLEY":" ","HOUSE_NO":"３０號三樓之３","E_COORD97":168214.44,"N_COORD97":2544938.52,"ADDRESS":"公園南路３７０巷３０號三樓之３","OBJECTID":386637},"geometry":{"x":168214.44000000134,"y":2544938.5199999996}},{"attributes":{"ID":386662,"DIS_CODE":0,"TOWNNAME":"北區","LI":"和順里","LIN":"37鄰","STREET":"公園南路","SECT":" ","MAREA":" ","LANE":"３７０巷","ALLEY":" ","HOUSE_NO":"３０號三樓之５","E_COORD97":168214.44,"N_COORD97":2544938.52,"ADDRESS":"公園南路３７０巷３０號三樓之５","OBJECTID":386638},"geometry":{"x":168214.44000000134,"y":2544938.5199999996}},{"attributes":{"ID":386663,"DIS_CODE":0,"TOWNNAME":"北區","LI":"和順里","LIN":"37鄰","STREET":"公園南路","SECT":" ","MAREA":" ","LANE":"３７０巷","ALLEY":" ","HOUSE_NO":"３０號五樓之１","E_COORD97":168214.44,"N_COORD97":2544938.52,"ADDRESS":"公園南路３７０巷３０號五樓之１","OBJECTID":386639},"geometry":{"x":168214.44000000134,"y":2544938.5199999996}},{"attributes":{"ID":386664,"DIS_CODE":0,"TOWNNAME":"北區","LI":"和順里","LIN":"37鄰","STREET":"公園南路","SECT":" ","MAREA":" ","LANE":"３７０巷","ALLEY":" ","HOUSE_NO":"３０號五樓之５","E_COORD97":168214.44,"N_COORD97":2544938.52,"ADDRESS":"公園南路３７０巷３０號五樓之５","OBJECTID":386640},"geometry":{"x":168214.44000000134,"y":2544938.5199999996}},{"attributes":{"ID":386665,"DIS_CODE":0,"TOWNNAME":"北區","LI":"和順里","LIN":"37鄰","STREET":"公園南路","SECT":" ","MAREA":" ","LANE":"３７０巷","ALLEY":" ","HOUSE_NO":"３０號六樓之２","E_COORD97":168214.44,"N_COORD97":2544938.52,"ADDRESS":"公園南路３７０巷３０號六樓之２","OBJECTID":386641},"geometry":{"x":168214.44000000134,"y":2544938.5199999996}},{"attributes":{"ID":386666,"DIS_CODE":0,"TOWNNAME":"北區","LI":"和順里","LIN":"37鄰","STREET":"公園南路","SECT":" ","MAREA":" ","LANE":"３７０巷","ALLEY":" ","HOUSE_NO":"３０號六樓之３","E_COORD97":168214.44,"N_COORD97":2544938.52,"ADDRESS":"公園南路３７０巷３０號六樓之３","OBJECTID":386642},"geometry":{"x":168214.44000000134,"y":2544938.5199999996}},{"attributes":{"ID":386667,"DIS_CODE":0,"TOWNNAME":"北區","LI":"和順里","LIN":"37鄰","STREET":"公園南路","SECT":" ","MAREA":" ","LANE":"３７０巷","ALLEY":" ","HOUSE_NO":"３０號四樓之２","E_COORD97":168214.44,"N_COORD97":2544938.52,"ADDRESS":"公園南路３７０巷３０號四樓之２","OBJECTID":386643},"geometry":{"x":168214.44000000134,"y":2544938.5199999996}},{"attributes":{"ID":386668,"DIS_CODE":0,"TOWNNAME":"北區","LI":"和順里","LIN":"37鄰","STREET":"公園南路","SECT":" ","MAREA":" ","LANE":"３７０巷","ALLEY":" ","HOUSE_NO":"３０號四樓之３","E_COORD97":168214.44,"N_COORD97":2544938.52,"ADDRESS":"公園南路３７０巷３０號四樓之３","OBJECTID":386644},"geometry":{"x":168214.44000000134,"y":2544938.5199999996}},{"attributes":{"ID":386669,"DIS_CODE":0,"TOWNNAME":"北區","LI":"和順里","LIN":"37鄰","STREET":"公園南路","SECT":" ","MAREA":" ","LANE":"３７０巷","ALLEY":" ","HOUSE_NO":"３８號七樓之１","E_COORD97":168224.07999999999,"N_COORD97":2544956.7400000002,"ADDRESS":"公園南路３７０巷３８號七樓之１","OBJECTID":386645},"geometry":{"x":168224.08000000007,"y":2544956.7400000021}},{"attributes":{"ID":386670,"DIS_CODE":0,"TOWNNAME":"北區","LI":"和順里","LIN":"37鄰","STREET":"公園南路","SECT":" ","MAREA":" ","LANE":"３７０巷","ALLEY":" ","HOUSE_NO":"３８號七樓之２","E_COORD97":168224.07999999999,"N_COORD97":2544956.7400000002,"ADDRESS":"公園南路３７０巷３８號七樓之２","OBJECTID":386646},"geometry":{"x":168224.08000000007,"y":2544956.7400000021}},{"attributes":{"ID":386671,"DIS_CODE":0,"TOWNNAME":"北區","LI":"和順里","LIN":"37鄰","STREET":"公園南路","SECT":" ","MAREA":" ","LANE":"３７０巷","ALLEY":" ","HOUSE_NO":"３８號九樓之１","E_COORD97":168224.07999999999,"N_COORD97":2544956.7400000002,"ADDRESS":"公園南路３７０巷３８號九樓之１","OBJECTID":386647},"geometry":{"x":168224.08000000007,"y":2544956.7400000021}},{"attributes":{"ID":386672,"DIS_CODE":0,"TOWNNAME":"北區","LI":"和順里","LIN":"37鄰","STREET":"公園南路","SECT":" ","MAREA":" ","LANE":"３７０巷","ALLEY":" ","HOUSE_NO":"３８號九樓之２","E_COORD97":168224.07999999999,"N_COORD97":2544956.7400000002,"ADDRESS":"公園南路３７０巷３８號九樓之２","OBJECTID":386648},"geometry":{"x":168224.08000000007,"y":2544956.7400000021}},{"attributes":{"ID":386673,"DIS_CODE":0,"TOWNNAME":"北區","LI":"和順里","LIN":"37鄰","STREET":"公園南路","SECT":" ","MAREA":" ","LANE":"３７０巷","ALLEY":" ","HOUSE_NO":"３８號八樓之１","E_COORD97":168224.07999999999,"N_COORD97":2544956.7400000002,"ADDRESS":"公園南路３７０巷３８號八樓之１","OBJECTID":386649},"geometry":{"x":168224.08000000007,"y":2544956.7400000021}},{"attributes":{"ID":386674,"DIS_CODE":0,"TOWNNAME":"永康區","LI":"復興里","LIN":"19鄰","STREET":"復興路","SECT":" ","MAREA":" ","LANE":"３５６巷","ALLEY":" ","HOUSE_NO":"６號","E_COORD97":172269.70999999999,"N_COORD97":2544366.7000000002,"ADDRESS":"復興路３５６巷６號","OBJECTID":386650},"geometry":{"x":172269.70999999996,"y":2544366.6999999993}},{"attributes":{"ID":386675,"DIS_CODE":0,"TOWNNAME":"北區","LI":"和順里","LIN":"37鄰","STREET":"公園南路","SECT":" ","MAREA":" ","LANE":"３７０巷","ALLEY":" ","HOUSE_NO":"３８號八樓之２","E_COORD97":168224.07999999999,"N_COORD97":2544956.7400000002,"ADDRESS":"公園南路３７０巷３８號八樓之２","OBJECTID":386651},"geometry":{"x":168224.08000000007,"y":2544956.7400000021}},{"attributes":{"ID":386676,"DIS_CODE":0,"TOWNNAME":"北區","LI":"和順里","LIN":"37鄰","STREET":"公園南路","SECT":" ","MAREA":" ","LANE":"３７０巷","ALLEY":" ","HOUSE_NO":"３８號十一樓之１","E_COORD97":168224.07999999999,"N_COORD97":2544956.7400000002,"ADDRESS":"公園南路３７０巷３８號十一樓之１","OBJECTID":386652},"geometry":{"x":168224.08000000007,"y":2544956.7400000021}},{"attributes":{"ID":386677,"DIS_CODE":0,"TOWNNAME":"北區","LI":"和順里","LIN":"37鄰","STREET":"公園南路","SECT":" ","MAREA":" ","LANE":"３７０巷","ALLEY":" ","HOUSE_NO":"３８號十一樓之２","E_COORD97":168224.07999999999,"N_COORD97":2544956.7400000002,"ADDRESS":"公園南路３７０巷３８號十一樓之２","OBJECTID":386653},"geometry":{"x":168224.08000000007,"y":2544956.7400000021}},{"attributes":{"ID":386678,"DIS_CODE":0,"TOWNNAME":"北區","LI":"和順里","LIN":"37鄰","STREET":"公園南路","SECT":" ","MAREA":" ","LANE":"３７０巷","ALLEY":" ","HOUSE_NO":"３８號十二樓之１","E_COORD97":168224.07999999999,"N_COORD97":2544956.7400000002,"ADDRESS":"公園南路３７０巷３８號十二樓之１","OBJECTID":386654},"geometry":{"x":168224.08000000007,"y":2544956.7400000021}},{"attributes":{"ID":386679,"DIS_CODE":0,"TOWNNAME":"北區","LI":"和順里","LIN":"37鄰","STREET":"公園南路","SECT":" ","MAREA":" ","LANE":"３７０巷","ALLEY":" ","HOUSE_NO":"３８號十二樓之２","E_COORD97":168224.07999999999,"N_COORD97":2544956.7400000002,"ADDRESS":"公園南路３７０巷３８號十二樓之２","OBJECTID":386655},"geometry":{"x":168224.08000000007,"y":2544956.7400000021}},{"attributes":{"ID":386680,"DIS_CODE":0,"TOWNNAME":"北區","LI":"和順里","LIN":"37鄰","STREET":"公園南路","SECT":" ","MAREA":" ","LANE":"３７０巷","ALLEY":" ","HOUSE_NO":"３８號十三樓之１","E_COORD97":168224.07999999999,"N_COORD97":2544956.7400000002,"ADDRESS":"公園南路３７０巷３８號十三樓之１","OBJECTID":386656},"geometry":{"x":168224.08000000007,"y":2544956.7400000021}},{"attributes":{"ID":386681,"DIS_CODE":0,"TOWNNAME":"北區","LI":"和順里","LIN":"37鄰","STREET":"公園南路","SECT":" ","MAREA":" ","LANE":"３７０巷","ALLEY":" ","HOUSE_NO":"３８號十三樓之２","E_COORD97":168224.07999999999,"N_COORD97":2544956.7400000002,"ADDRESS":"公園南路３７０巷３８號十三樓之２","OBJECTID":386657},"geometry":{"x":168224.08000000007,"y":2544956.7400000021}},{"attributes":{"ID":386682,"DIS_CODE":0,"TOWNNAME":"北區","LI":"和順里","LIN":"37鄰","STREET":"公園南路","SECT":" ","MAREA":" ","LANE":"３７０巷","ALLEY":" ","HOUSE_NO":"３８號十五樓之１","E_COORD97":168224.07999999999,"N_COORD97":2544956.7400000002,"ADDRESS":"公園南路３７０巷３８號十五樓之１","OBJECTID":386658},"geometry":{"x":168224.08000000007,"y":2544956.7400000021}},{"attributes":{"ID":386683,"DIS_CODE":0,"TOWNNAME":"北區","LI":"和順里","LIN":"37鄰","STREET":"公園南路","SECT":" ","MAREA":" ","LANE":"３７０巷","ALLEY":" ","HOUSE_NO":"３８號十五樓之２","E_COORD97":168224.07999999999,"N_COORD97":2544956.7400000002,"ADDRESS":"公園南路３７０巷３８號十五樓之２","OBJECTID":386659},"geometry":{"x":168224.08000000007,"y":2544956.7400000021}},{"attributes":{"ID":386684,"DIS_CODE":0,"TOWNNAME":"北區","LI":"和順里","LIN":"37鄰","STREET":"公園南路","SECT":" ","MAREA":" ","LANE":"３７０巷","ALLEY":" ","HOUSE_NO":"３８號十六樓之１","E_COORD97":168224.07999999999,"N_COORD97":2544956.7400000002,"ADDRESS":"公園南路３７０巷３８號十六樓之１","OBJECTID":386660},"geometry":{"x":168224.08000000007,"y":2544956.7400000021}},{"attributes":{"ID":386685,"DIS_CODE":0,"TOWNNAME":"北區","LI":"和順里","LIN":"37鄰","STREET":"公園南路","SECT":" ","MAREA":" ","LANE":"３７０巷","ALLEY":" ","HOUSE_NO":"３８號十六樓之２","E_COORD97":168224.07999999999,"N_COORD97":2544956.7400000002,"ADDRESS":"公園南路３７０巷３８號十六樓之２","OBJECTID":386661},"geometry":{"x":168224.08000000007,"y":2544956.7400000021}},{"attributes":{"ID":386686,"DIS_CODE":0,"TOWNNAME":"北區","LI":"和順里","LIN":"37鄰","STREET":"公園南路","SECT":" ","MAREA":" ","LANE":"３７０巷","ALLEY":" ","HOUSE_NO":"３８號十四樓之１","E_COORD97":168224.07999999999,"N_COORD97":2544956.7400000002,"ADDRESS":"公園南路３７０巷３８號十四樓之１","OBJECTID":386662},"geometry":{"x":168224.08000000007,"y":2544956.7400000021}},{"attributes":{"ID":386687,"DIS_CODE":0,"TOWNNAME":"北區","LI":"和順里","LIN":"37鄰","STREET":"公園南路","SECT":" ","MAREA":" ","LANE":"３７０巷","ALLEY":" ","HOUSE_NO":"３８號十四樓之２","E_COORD97":168224.07999999999,"N_COORD97":2544956.7400000002,"ADDRESS":"公園南路３７０巷３８號十四樓之２","OBJECTID":386663},"geometry":{"x":168224.08000000007,"y":2544956.7400000021}},{"attributes":{"ID":386688,"DIS_CODE":0,"TOWNNAME":"北區","LI":"和順里","LIN":"37鄰","STREET":"公園南路","SECT":" ","MAREA":" ","LANE":"３７０巷","ALLEY":" ","HOUSE_NO":"３８號十樓之１","E_COORD97":168224.07999999999,"N_COORD97":2544956.7400000002,"ADDRESS":"公園南路３７０巷３８號十樓之１","OBJECTID":386664},"geometry":{"x":168224.08000000007,"y":2544956.7400000021}},{"attributes":{"ID":386689,"DIS_CODE":0,"TOWNNAME":"北區","LI":"和順里","LIN":"37鄰","STREET":"公園南路","SECT":" ","MAREA":" ","LANE":"３７０巷","ALLEY":" ","HOUSE_NO":"３８號十樓之２","E_COORD97":168224.07999999999,"N_COORD97":2544956.7400000002,"ADDRESS":"公園南路３７０巷３８號十樓之２","OBJECTID":386665},"geometry":{"x":168224.08000000007,"y":2544956.7400000021}},{"attributes":{"ID":386690,"DIS_CODE":0,"TOWNNAME":"北區","LI":"和順里","LIN":"37鄰","STREET":"公園南路","SECT":" ","MAREA":" ","LANE":"３７０巷","ALLEY":" ","HOUSE_NO":"３８號三樓之１","E_COORD97":168224.07999999999,"N_COORD97":2544956.7400000002,"ADDRESS":"公園南路３７０巷３８號三樓之１","OBJECTID":386666},"geometry":{"x":168224.08000000007,"y":2544956.7400000021}},{"attributes":{"ID":386691,"DIS_CODE":0,"TOWNNAME":"北區","LI":"和順里","LIN":"37鄰","STREET":"公園南路","SECT":" ","MAREA":" ","LANE":"３７０巷","ALLEY":" ","HOUSE_NO":"３８號三樓之２","E_COORD97":168224.07999999999,"N_COORD97":2544956.7400000002,"ADDRESS":"公園南路３７０巷３８號三樓之２","OBJECTID":386667},"geometry":{"x":168224.08000000007,"y":2544956.7400000021}},{"attributes":{"ID":386692,"DIS_CODE":0,"TOWNNAME":"北區","LI":"和順里","LIN":"37鄰","STREET":"公園南路","SECT":" ","MAREA":" ","LANE":"３７０巷","ALLEY":" ","HOUSE_NO":"３８號五樓之１","E_COORD97":168224.07999999999,"N_COORD97":2544956.7400000002,"ADDRESS":"公園南路３７０巷３８號五樓之１","OBJECTID":386668},"geometry":{"x":168224.08000000007,"y":2544956.7400000021}},{"attributes":{"ID":386693,"DIS_CODE":0,"TOWNNAME":"北區","LI":"和順里","LIN":"37鄰","STREET":"公園南路","SECT":" ","MAREA":" ","LANE":"３７０巷","ALLEY":" ","HOUSE_NO":"３８號五樓之２","E_COORD97":168224.07999999999,"N_COORD97":2544956.7400000002,"ADDRESS":"公園南路３７０巷３８號五樓之２","OBJECTID":386669},"geometry":{"x":168224.08000000007,"y":2544956.7400000021}},{"attributes":{"ID":386694,"DIS_CODE":0,"TOWNNAME":"北區","LI":"和順里","LIN":"37鄰","STREET":"公園南路","SECT":" ","MAREA":" ","LANE":"３７０巷","ALLEY":" ","HOUSE_NO":"３８號六樓之１","E_COORD97":168224.07999999999,"N_COORD97":2544956.7400000002,"ADDRESS":"公園南路３７０巷３８號六樓之１","OBJECTID":386670},"geometry":{"x":168224.08000000007,"y":2544956.7400000021}},{"attributes":{"ID":386695,"DIS_CODE":0,"TOWNNAME":"北區","LI":"和順里","LIN":"37鄰","STREET":"公園南路","SECT":" ","MAREA":" ","LANE":"３７０巷","ALLEY":" ","HOUSE_NO":"３８號六樓之２","E_COORD97":168224.07999999999,"N_COORD97":2544956.7400000002,"ADDRESS":"公園南路３７０巷３８號六樓之２","OBJECTID":386671},"geometry":{"x":168224.08000000007,"y":2544956.7400000021}},{"attributes":{"ID":386696,"DIS_CODE":0,"TOWNNAME":"永康區","LI":"龍潭里","LIN":"45鄰","STREET":"中山北路","SECT":" ","MAREA":" ","LANE":"２６４巷","ALLEY":" ","HOUSE_NO":"２９６號","E_COORD97":174710.31,"N_COORD97":2546863.2200000002,"ADDRESS":"中山北路２６４巷２９６號","OBJECTID":386672},"geometry":{"x":174710.31000000052,"y":2546863.2200000007}},{"attributes":{"ID":386697,"DIS_CODE":0,"TOWNNAME":"永康區","LI":"\u25A0行里","LIN":"17鄰","STREET":"中正路","SECT":" ","MAREA":" ","LANE":"６３５巷","ALLEY":" ","HOUSE_NO":"１６號","E_COORD97":171719.06,"N_COORD97":2548904.4700000002,"ADDRESS":"中正路６３５巷１６號","OBJECTID":386673},"geometry":{"x":171719.05999999959,"y":2548904.4700000025}},{"attributes":{"ID":386698,"DIS_CODE":0,"TOWNNAME":"北區","LI":"和順里","LIN":"37鄰","STREET":"公園南路","SECT":" ","MAREA":" ","LANE":"３７０巷","ALLEY":" ","HOUSE_NO":"３８號四樓之１","E_COORD97":168224.07999999999,"N_COORD97":2544956.7400000002,"ADDRESS":"公園南路３７０巷３８號四樓之１","OBJECTID":386674},"geometry":{"x":168224.08000000007,"y":2544956.7400000021}},{"attributes":{"ID":386699,"DIS_CODE":0,"TOWNNAME":"北區","LI":"和順里","LIN":"37鄰","STREET":"公園南路","SECT":" ","MAREA":" ","LANE":"３７０巷","ALLEY":" ","HOUSE_NO":"３８號四樓之２","E_COORD97":168224.07999999999,"N_COORD97":2544956.7400000002,"ADDRESS":"公園南路３７０巷３８號四樓之２","OBJECTID":386675},"geometry":{"x":168224.08000000007,"y":2544956.7400000021}},{"attributes":{"ID":386700,"DIS_CODE":0,"TOWNNAME":"北區","LI":"和順里","LIN":"37鄰","STREET":"公園南路","SECT":" ","MAREA":" ","LANE":"３７０巷","ALLEY":" ","HOUSE_NO":"４６號七樓之１","E_COORD97":168243.04999999999,"N_COORD97":2544965.5499999998,"ADDRESS":"公園南路３７０巷４６號七樓之１","OBJECTID":386676},"geometry":{"x":168243.04999999981,"y":2544965.5500000007}},{"attributes":{"ID":386701,"DIS_CODE":0,"TOWNNAME":"北區","LI":"和順里","LIN":"37鄰","STREET":"公園南路","SECT":" ","MAREA":" ","LANE":"３７０巷","ALLEY":" ","HOUSE_NO":"４６號七樓之２","E_COORD97":168243.04999999999,"N_COORD97":2544965.5499999998,"ADDRESS":"公園南路３７０巷４６號七樓之２","OBJECTID":386677},"geometry":{"x":168243.04999999981,"y":2544965.5500000007}},{"attributes":{"ID":386702,"DIS_CODE":0,"TOWNNAME":"北區","LI":"大和里","LIN":"22鄰","STREET":"大港街","SECT":" ","MAREA":" ","LANE":"１２４巷","ALLEY":" ","HOUSE_NO":"３７號","E_COORD97":166968.73999999999,"N_COORD97":2546116.5800000001,"ADDRESS":"大港街１２４巷３７號","OBJECTID":386678},"geometry":{"x":166968.74000000022,"y":2546116.5800000019}},{"attributes":{"ID":386703,"DIS_CODE":0,"TOWNNAME":"北區","LI":"和順里","LIN":"37鄰","STREET":"公園南路","SECT":" ","MAREA":" ","LANE":"３７０巷","ALLEY":" ","HOUSE_NO":"４６號九樓之１","E_COORD97":168243.04999999999,"N_COORD97":2544965.5499999998,"ADDRESS":"公園南路３７０巷４６號九樓之１","OBJECTID":386679},"geometry":{"x":168243.04999999981,"y":2544965.5500000007}},{"attributes":{"ID":386704,"DIS_CODE":0,"TOWNNAME":"北區","LI":"和順里","LIN":"37鄰","STREET":"公園南路","SECT":" ","MAREA":" ","LANE":"３７０巷","ALLEY":" ","HOUSE_NO":"４６號九樓之２","E_COORD97":168243.04999999999,"N_COORD97":2544965.5499999998,"ADDRESS":"公園南路３７０巷４６號九樓之２","OBJECTID":386680},"geometry":{"x":168243.04999999981,"y":2544965.5500000007}},{"attributes":{"ID":386705,"DIS_CODE":0,"TOWNNAME":"北區","LI":"和順里","LIN":"37鄰","STREET":"公園南路","SECT":" ","MAREA":" ","LANE":"３７０巷","ALLEY":" ","HOUSE_NO":"４６號八樓之１","E_COORD97":168243.04999999999,"N_COORD97":2544965.5499999998,"ADDRESS":"公園南路３７０巷４６號八樓之１","OBJECTID":386681},"geometry":{"x":168243.04999999981,"y":2544965.5500000007}},{"attributes":{"ID":386706,"DIS_CODE":0,"TOWNNAME":"北區","LI":"和順里","LIN":"37鄰","STREET":"公園南路","SECT":" ","MAREA":" ","LANE":"３７０巷","ALLEY":" ","HOUSE_NO":"４６號八樓之２","E_COORD97":168243.04999999999,"N_COORD97":2544965.5499999998,"ADDRESS":"公園南路３７０巷４６號八樓之２","OBJECTID":386682},"geometry":{"x":168243.04999999981,"y":2544965.5500000007}},{"attributes":{"ID":386707,"DIS_CODE":0,"TOWNNAME":"永康區","LI":"正強里","LIN":"37鄰","STREET":"正強街","SECT":" ","MAREA":" ","LANE":"３３０巷","ALLEY":" ","HOUSE_NO":"８號","E_COORD97":173261.78,"N_COORD97":2548209.25,"ADDRESS":"正強街３３０巷８號","OBJECTID":386683},"geometry":{"x":173261.78000000212,"y":2548209.25}},{"attributes":{"ID":386708,"DIS_CODE":0,"TOWNNAME":"北區","LI":"和順里","LIN":"37鄰","STREET":"公園南路","SECT":" ","MAREA":" ","LANE":"３７０巷","ALLEY":" ","HOUSE_NO":"４６號十一樓之１","E_COORD97":168243.04999999999,"N_COORD97":2544965.5499999998,"ADDRESS":"公園南路３７０巷４６號十一樓之１","OBJECTID":386684},"geometry":{"x":168243.04999999981,"y":2544965.5500000007}},{"attributes":{"ID":386709,"DIS_CODE":0,"TOWNNAME":"北區","LI":"和順里","LIN":"37鄰","STREET":"公園南路","SECT":" ","MAREA":" ","LANE":"３７０巷","ALLEY":" ","HOUSE_NO":"４６號十一樓之２","E_COORD97":168243.04999999999,"N_COORD97":2544965.5499999998,"ADDRESS":"公園南路３７０巷４６號十一樓之２","OBJECTID":386685},"geometry":{"x":168243.04999999981,"y":2544965.5500000007}},{"attributes":{"ID":386710,"DIS_CODE":0,"TOWNNAME":"北區","LI":"和順里","LIN":"37鄰","STREET":"公園南路","SECT":" ","MAREA":" ","LANE":"３７０巷","ALLEY":" ","HOUSE_NO":"４６號十二樓之１","E_COORD97":168243.04999999999,"N_COORD97":2544965.5499999998,"ADDRESS":"公園南路３７０巷４６號十二樓之１","OBJECTID":386686},"geometry":{"x":168243.04999999981,"y":2544965.5500000007}},{"attributes":{"ID":386711,"DIS_CODE":0,"TOWNNAME":"北區","LI":"和順里","LIN":"37鄰","STREET":"公園南路","SECT":" ","MAREA":" ","LANE":"３７０巷","ALLEY":" ","HOUSE_NO":"４６號十二樓之２","E_COORD97":168243.04999999999,"N_COORD97":2544965.5499999998,"ADDRESS":"公園南路３７０巷４６號十二樓之２","OBJECTID":386687},"geometry":{"x":168243.04999999981,"y":2544965.5500000007}},{"attributes":{"ID":386712,"DIS_CODE":0,"TOWNNAME":"北區","LI":"和順里","LIN":"37鄰","STREET":"公園南路","SECT":" ","MAREA":" ","LANE":"３７０巷","ALLEY":" ","HOUSE_NO":"４６號十三樓之１","E_COORD97":168243.04999999999,"N_COORD97":2544965.5499999998,"ADDRESS":"公園南路３７０巷４６號十三樓之１","OBJECTID":386688},"geometry":{"x":168243.04999999981,"y":2544965.5500000007}},{"attributes":{"ID":386713,"DIS_CODE":0,"TOWNNAME":"北區","LI":"和順里","LIN":"37鄰","STREET":"公園南路","SECT":" ","MAREA":" ","LANE":"３７０巷","ALLEY":" ","HOUSE_NO":"４６號十三樓之２","E_COORD97":168243.04999999999,"N_COORD97":2544965.5499999998,"ADDRESS":"公園南路３７０巷４６號十三樓之２","OBJECTID":386689},"geometry":{"x":168243.04999999981,"y":2544965.5500000007}},{"attributes":{"ID":386714,"DIS_CODE":0,"TOWNNAME":"永康區","LI":"\u25A0行里","LIN":"13鄰","STREET":"中正南路","SECT":" ","MAREA":" ","LANE":" ","ALLEY":" ","HOUSE_NO":"７８０號","E_COORD97":171795.57000000001,"N_COORD97":2549008,"ADDRESS":"中正南路７８０號","OBJECTID":386690},"geometry":{"x":171795.57000000123,"y":2549008.0000000037}},{"attributes":{"ID":386715,"DIS_CODE":0,"TOWNNAME":"北區","LI":"和順里","LIN":"37鄰","STREET":"公園南路","SECT":" ","MAREA":" ","LANE":"３７０巷","ALLEY":" ","HOUSE_NO":"４６號十五樓之１","E_COORD97":168243.04999999999,"N_COORD97":2544965.5499999998,"ADDRESS":"公園南路３７０巷４６號十五樓之１","OBJECTID":386691},"geometry":{"x":168243.04999999981,"y":2544965.5500000007}},{"attributes":{"ID":386716,"DIS_CODE":0,"TOWNNAME":"北區","LI":"和順里","LIN":"37鄰","STREET":"公園南路","SECT":" ","MAREA":" ","LANE":"３７０巷","ALLEY":" ","HOUSE_NO":"４６號十五樓之２","E_COORD97":168243.04999999999,"N_COORD97":2544965.5499999998,"ADDRESS":"公園南路３７０巷４６號十五樓之２","OBJECTID":386692},"geometry":{"x":168243.04999999981,"y":2544965.5500000007}},{"attributes":{"ID":386717,"DIS_CODE":0,"TOWNNAME":"北區","LI":"和順里","LIN":"37鄰","STREET":"公園南路","SECT":" ","MAREA":" ","LANE":"３７０巷","ALLEY":" ","HOUSE_NO":"４６號三樓之１","E_COORD97":168243.04999999999,"N_COORD97":2544965.5499999998,"ADDRESS":"公園南路３７０巷４６號三樓之１","OBJECTID":386693},"geometry":{"x":168243.04999999981,"y":2544965.5500000007}},{"attributes":{"ID":386718,"DIS_CODE":0,"TOWNNAME":"北區","LI":"和順里","LIN":"37鄰","STREET":"公園南路","SECT":" ","MAREA":" ","LANE":"３７０巷","ALLEY":" ","HOUSE_NO":"４６號三樓之２","E_COORD97":168243.04999999999,"N_COORD97":2544965.5499999998,"ADDRESS":"公園南路３７０巷４６號三樓之２","OBJECTID":386694},"geometry":{"x":168243.04999999981,"y":2544965.5500000007}},{"attributes":{"ID":386719,"DIS_CODE":0,"TOWNNAME":"北區","LI":"和順里","LIN":"37鄰","STREET":"公園南路","SECT":" ","MAREA":" ","LANE":"３７０巷","ALLEY":" ","HOUSE_NO":"４６號五樓之１","E_COORD97":168243.04999999999,"N_COORD97":2544965.5499999998,"ADDRESS":"公園南路３７０巷４６號五樓之１","OBJECTID":386695},"geometry":{"x":168243.04999999981,"y":2544965.5500000007}},{"attributes":{"ID":386720,"DIS_CODE":0,"TOWNNAME":"北區","LI":"和順里","LIN":"37鄰","STREET":"公園南路","SECT":" ","MAREA":" ","LANE":"３７０巷","ALLEY":" ","HOUSE_NO":"４６號五樓之２","E_COORD97":168243.04999999999,"N_COORD97":2544965.5499999998,"ADDRESS":"公園南路３７０巷４６號五樓之２","OBJECTID":386696},"geometry":{"x":168243.04999999981,"y":2544965.5500000007}},{"attributes":{"ID":386721,"DIS_CODE":0,"TOWNNAME":"北區","LI":"和順里","LIN":"37鄰","STREET":"公園南路","SECT":" ","MAREA":" ","LANE":"３７０巷","ALLEY":" ","HOUSE_NO":"４６號六樓之１","E_COORD97":168243.04999999999,"N_COORD97":2544965.5499999998,"ADDRESS":"公園南路３７０巷４６號六樓之１","OBJECTID":386697},"geometry":{"x":168243.04999999981,"y":2544965.5500000007}},{"attributes":{"ID":386722,"DIS_CODE":0,"TOWNNAME":"北區","LI":"和順里","LIN":"37鄰","STREET":"公園南路","SECT":" ","MAREA":" ","LANE":"３７０巷","ALLEY":" ","HOUSE_NO":"４６號六樓之２","E_COORD97":168243.04999999999,"N_COORD97":2544965.5499999998,"ADDRESS":"公園南路３７０巷４６號六樓之２","OBJECTID":386698},"geometry":{"x":168243.04999999981,"y":2544965.5500000007}},{"attributes":{"ID":386723,"DIS_CODE":0,"TOWNNAME":"北區","LI":"和順里","LIN":"37鄰","STREET":"公園南路","SECT":" ","MAREA":" ","LANE":"３７０巷","ALLEY":" ","HOUSE_NO":"４６號四樓之１","E_COORD97":168243.04999999999,"N_COORD97":2544965.5499999998,"ADDRESS":"公園南路３７０巷４６號四樓之１","OBJECTID":386699},"geometry":{"x":168243.04999999981,"y":2544965.5500000007}},{"attributes":{"ID":386724,"DIS_CODE":0,"TOWNNAME":"北區","LI":"和順里","LIN":"37鄰","STREET":"公園南路","SECT":" ","MAREA":" ","LANE":"３７０巷","ALLEY":" ","HOUSE_NO":"４６號四樓之２","E_COORD97":168243.04999999999,"N_COORD97":2544965.5499999998,"ADDRESS":"公園南路３７０巷４６號四樓之２","OBJECTID":386700},"geometry":{"x":168243.04999999981,"y":2544965.5500000007}},{"attributes":{"ID":386725,"DIS_CODE":0,"TOWNNAME":"北區","LI":"和順里","LIN":"37鄰","STREET":"公園南路","SECT":" ","MAREA":" ","LANE":"３７０巷","ALLEY":" ","HOUSE_NO":"５６號七樓","E_COORD97":168269.01999999999,"N_COORD97":2544973.3700000001,"ADDRESS":"公園南路３７０巷５６號七樓","OBJECTID":386701},"geometry":{"x":168269.02000000048,"y":2544973.3700000029}},{"attributes":{"ID":386726,"DIS_CODE":0,"TOWNNAME":"北區","LI":"和順里","LIN":"37鄰","STREET":"公園南路","SECT":" ","MAREA":" ","LANE":"３７０巷","ALLEY":" ","HOUSE_NO":"５６號九樓","E_COORD97":168269.01999999999,"N_COORD97":2544973.3700000001,"ADDRESS":"公園南路３７０巷５６號九樓","OBJECTID":386702},"geometry":{"x":168269.02000000048,"y":2544973.3700000029}},{"attributes":{"ID":386727,"DIS_CODE":0,"TOWNNAME":"北區","LI":"和順里","LIN":"37鄰","STREET":"公園南路","SECT":" ","MAREA":" ","LANE":"３７０巷","ALLEY":" ","HOUSE_NO":"５６號二樓","E_COORD97":168269.01999999999,"N_COORD97":2544973.3700000001,"ADDRESS":"公園南路３７０巷５６號二樓","OBJECTID":386703},"geometry":{"x":168269.02000000048,"y":2544973.3700000029}},{"attributes":{"ID":386728,"DIS_CODE":0,"TOWNNAME":"北區","LI":"和順里","LIN":"37鄰","STREET":"公園南路","SECT":" ","MAREA":" ","LANE":"３７０巷","ALLEY":" ","HOUSE_NO":"５６號八樓","E_COORD97":168269.01999999999,"N_COORD97":2544973.3700000001,"ADDRESS":"公園南路３７０巷５６號八樓","OBJECTID":386704},"geometry":{"x":168269.02000000048,"y":2544973.3700000029}},{"attributes":{"ID":386729,"DIS_CODE":0,"TOWNNAME":"北區","LI":"和順里","LIN":"37鄰","STREET":"公園南路","SECT":" ","MAREA":" ","LANE":"３７０巷","ALLEY":" ","HOUSE_NO":"５６號十一樓","E_COORD97":168269.01999999999,"N_COORD97":2544973.3700000001,"ADDRESS":"公園南路３７０巷５６號十一樓","OBJECTID":386705},"geometry":{"x":168269.02000000048,"y":2544973.3700000029}},{"attributes":{"ID":386730,"DIS_CODE":0,"TOWNNAME":"北區","LI":"和順里","LIN":"37鄰","STREET":"公園南路","SECT":" ","MAREA":" ","LANE":"３７０巷","ALLEY":" ","HOUSE_NO":"５６號十二樓","E_COORD97":168269.01999999999,"N_COORD97":2544973.3700000001,"ADDRESS":"公園南路３７０巷５６號十二樓","OBJECTID":386706},"geometry":{"x":168269.02000000048,"y":2544973.3700000029}},{"attributes":{"ID":386731,"DIS_CODE":0,"TOWNNAME":"北區","LI":"和順里","LIN":"37鄰","STREET":"公園南路","SECT":" ","MAREA":" ","LANE":"３７０巷","ALLEY":" ","HOUSE_NO":"５６號十三樓","E_COORD97":168269.01999999999,"N_COORD97":2544973.3700000001,"ADDRESS":"公園南路３７０巷５６號十三樓","OBJECTID":386707},"geometry":{"x":168269.02000000048,"y":2544973.3700000029}},{"attributes":{"ID":386732,"DIS_CODE":0,"TOWNNAME":"北區","LI":"和順里","LIN":"37鄰","STREET":"公園南路","SECT":" ","MAREA":" ","LANE":"３７０巷","ALLEY":" ","HOUSE_NO":"５６號十五樓","E_COORD97":168269.01999999999,"N_COORD97":2544973.3700000001,"ADDRESS":"公園南路３７０巷５６號十五樓","OBJECTID":386708},"geometry":{"x":168269.02000000048,"y":2544973.3700000029}},{"attributes":{"ID":386733,"DIS_CODE":0,"TOWNNAME":"北區","LI":"和順里","LIN":"37鄰","STREET":"公園南路","SECT":" ","MAREA":" ","LANE":"３７０巷","ALLEY":" ","HOUSE_NO":"５６號十六樓","E_COORD97":168269.01999999999,"N_COORD97":2544973.3700000001,"ADDRESS":"公園南路３７０巷５６號十六樓","OBJECTID":386709},"geometry":{"x":168269.02000000048,"y":2544973.3700000029}},{"attributes":{"ID":386734,"DIS_CODE":0,"TOWNNAME":"北區","LI":"和順里","LIN":"37鄰","STREET":"公園南路","SECT":" ","MAREA":" ","LANE":"３７０巷","ALLEY":" ","HOUSE_NO":"５６號十四樓","E_COORD97":168269.01999999999,"N_COORD97":2544973.3700000001,"ADDRESS":"公園南路３７０巷５６號十四樓","OBJECTID":386710},"geometry":{"x":168269.02000000048,"y":2544973.3700000029}},{"attributes":{"ID":386735,"DIS_CODE":0,"TOWNNAME":"北區","LI":"和順里","LIN":"37鄰","STREET":"公園南路","SECT":" ","MAREA":" ","LANE":"３７０巷","ALLEY":" ","HOUSE_NO":"５６號十樓","E_COORD97":168269.01999999999,"N_COORD97":2544973.3700000001,"ADDRESS":"公園南路３７０巷５６號十樓","OBJECTID":386711},"geometry":{"x":168269.02000000048,"y":2544973.3700000029}},{"attributes":{"ID":386736,"DIS_CODE":0,"TOWNNAME":"北區","LI":"和順里","LIN":"37鄰","STREET":"公園南路","SECT":" ","MAREA":" ","LANE":"３７０巷","ALLEY":" ","HOUSE_NO":"５６號三樓","E_COORD97":168269.01999999999,"N_COORD97":2544973.3700000001,"ADDRESS":"公園南路３７０巷５６號三樓","OBJECTID":386712},"geometry":{"x":168269.02000000048,"y":2544973.3700000029}},{"attributes":{"ID":386737,"DIS_CODE":0,"TOWNNAME":"北區","LI":"和順里","LIN":"37鄰","STREET":"公園南路","SECT":" ","MAREA":" ","LANE":"３７０巷","ALLEY":" ","HOUSE_NO":"５６號五樓","E_COORD97":168269.01999999999,"N_COORD97":2544973.3700000001,"ADDRESS":"公園南路３７０巷５６號五樓","OBJECTID":386713},"geometry":{"x":168269.02000000048,"y":2544973.3700000029}},{"attributes":{"ID":386738,"DIS_CODE":0,"TOWNNAME":"北區","LI":"和順里","LIN":"37鄰","STREET":"公園南路","SECT":" ","MAREA":" ","LANE":"３７０巷","ALLEY":" ","HOUSE_NO":"５６號六樓","E_COORD97":168269.01999999999,"N_COORD97":2544973.3700000001,"ADDRESS":"公園南路３７０巷５６號六樓","OBJECTID":386714},"geometry":{"x":168269.02000000048,"y":2544973.3700000029}},{"attributes":{"ID":386739,"DIS_CODE":0,"TOWNNAME":"北區","LI":"和順里","LIN":"37鄰","STREET":"公園南路","SECT":" ","MAREA":" ","LANE":"３７０巷","ALLEY":" ","HOUSE_NO":"５６號四樓","E_COORD97":168269.01999999999,"N_COORD97":2544973.3700000001,"ADDRESS":"公園南路３７０巷５６號四樓","OBJECTID":386715},"geometry":{"x":168269.02000000048,"y":2544973.3700000029}},{"attributes":{"ID":386740,"DIS_CODE":0,"TOWNNAME":"歸仁區","LI":"辜厝里","LIN":"37鄰","STREET":"中正南路","SECT":"一段","MAREA":" ","LANE":"２１８巷","ALLEY":" ","HOUSE_NO":"２５號二樓之５","E_COORD97":177261.97,"N_COORD97":2540344.2599999998,"ADDRESS":"中正南路一段２１８巷２５號二樓之５","OBJECTID":386716},"geometry":{"x":177261.96999999974,"y":2540344.2600000016}},{"attributes":{"ID":386741,"DIS_CODE":0,"TOWNNAME":"歸仁區","LI":"辜厝里","LIN":"37鄰","STREET":"中正南路","SECT":"一段","MAREA":" ","LANE":"２１８巷","ALLEY":" ","HOUSE_NO":"２５號六樓之４","E_COORD97":177261.94,"N_COORD97":2540344.2599999998,"ADDRESS":"中正南路一段２１８巷２５號六樓之４","OBJECTID":386717},"geometry":{"x":177261.94000000134,"y":2540344.2600000016}},{"attributes":{"ID":386742,"DIS_CODE":0,"TOWNNAME":"歸仁區","LI":"辜厝里","LIN":"37鄰","STREET":"中正南路","SECT":"一段","MAREA":" ","LANE":"２１８巷","ALLEY":" ","HOUSE_NO":"２５號三樓之６","E_COORD97":177261.95999999999,"N_COORD97":2540344.2599999998,"ADDRESS":"中正南路一段２１８巷２５號三樓之６","OBJECTID":386718},"geometry":{"x":177261.95999999996,"y":2540344.2600000016}},{"attributes":{"ID":386743,"DIS_CODE":0,"TOWNNAME":"歸仁區","LI":"辜厝里","LIN":"37鄰","STREET":"中正南路","SECT":"一段","MAREA":" ","LANE":"２１８巷","ALLEY":" ","HOUSE_NO":"２５號五樓之４","E_COORD97":177261.94,"N_COORD97":2540344.2599999998,"ADDRESS":"中正南路一段２１８巷２５號五樓之４","OBJECTID":386719},"geometry":{"x":177261.94000000134,"y":2540344.2600000016}},{"attributes":{"ID":386744,"DIS_CODE":0,"TOWNNAME":"歸仁區","LI":"辜厝里","LIN":"37鄰","STREET":"中正南路","SECT":"一段","MAREA":" ","LANE":"２１８巷","ALLEY":" ","HOUSE_NO":"２５號七樓之５","E_COORD97":177261.97,"N_COORD97":2540344.2599999998,"ADDRESS":"中正南路一段２１８巷２５號七樓之５","OBJECTID":386720},"geometry":{"x":177261.96999999974,"y":2540344.2600000016}},{"attributes":{"ID":386745,"DIS_CODE":0,"TOWNNAME":"永康區","LI":"蔦松里","LIN":"9鄰","STREET":"蔦松二街","SECT":" ","MAREA":" ","LANE":"８７巷","ALLEY":" ","HOUSE_NO":"２２號","E_COORD97":173708.70999999999,"N_COORD97":2549348.5,"ADDRESS":"蔦松二街８７巷２２號","OBJECTID":386721},"geometry":{"x":173708.70999999996,"y":2549348.5000000019}},{"attributes":{"ID":386746,"DIS_CODE":0,"TOWNNAME":"永康區","LI":"龍潭里","LIN":"37鄰","STREET":"中山北路","SECT":" ","MAREA":" ","LANE":"１６４巷","ALLEY":" ","HOUSE_NO":"１１８號之３","E_COORD97":174544.95999999999,"N_COORD97":2547349.8900000001,"ADDRESS":"中山北路１６４巷１１８號之３","OBJECTID":386722},"geometry":{"x":174544.95999999903,"y":2547349.8900000006}},{"attributes":{"ID":386747,"DIS_CODE":0,"TOWNNAME":"永康區","LI":"\u25A0行里","LIN":"43鄰","STREET":"中正二街","SECT":" ","MAREA":" ","LANE":"２８５巷","ALLEY":" ","HOUSE_NO":"２７號","E_COORD97":171654.57000000001,"N_COORD97":2547986.5,"ADDRESS":"中正二街２８５巷２７號","OBJECTID":386723},"geometry":{"x":171654.57000000123,"y":2547986.5}},{"attributes":{"ID":386748,"DIS_CODE":0,"TOWNNAME":"永康區","LI":"龍潭里","LIN":"31鄰","STREET":"中山北路","SECT":" ","MAREA":" ","LANE":"３２１巷","ALLEY":" ","HOUSE_NO":"１號","E_COORD97":174658.85999999999,"N_COORD97":2547690.4700000002,"ADDRESS":"中山北路３２１巷１號","OBJECTID":386724},"geometry":{"x":174658.86000000127,"y":2547690.4700000025}},{"attributes":{"ID":386749,"DIS_CODE":0,"TOWNNAME":"歸仁區","LI":"辜厝里","LIN":"37鄰","STREET":"中正南路","SECT":"一段","MAREA":" ","LANE":"２１８巷","ALLEY":" ","HOUSE_NO":"２５號三樓之５","E_COORD97":177261.97,"N_COORD97":2540344.2599999998,"ADDRESS":"中正南路一段２１８巷２５號三樓之５","OBJECTID":386725},"geometry":{"x":177261.96999999974,"y":2540344.2600000016}},{"attributes":{"ID":386750,"DIS_CODE":0,"TOWNNAME":"歸仁區","LI":"辜厝里","LIN":"37鄰","STREET":"中正南路","SECT":"一段","MAREA":" ","LANE":"２１８巷","ALLEY":" ","HOUSE_NO":"２５號七樓之４","E_COORD97":177261.94,"N_COORD97":2540344.2599999998,"ADDRESS":"中正南路一段２１８巷２５號七樓之４","OBJECTID":386726},"geometry":{"x":177261.94000000134,"y":2540344.2600000016}},{"attributes":{"ID":386751,"DIS_CODE":0,"TOWNNAME":"歸仁區","LI":"辜厝里","LIN":"37鄰","STREET":"中正南路","SECT":"一段","MAREA":" ","LANE":"２１８巷","ALLEY":" ","HOUSE_NO":"２５號三樓之４","E_COORD97":177261.94,"N_COORD97":2540344.2599999998,"ADDRESS":"中正南路一段２１８巷２５號三樓之４","OBJECTID":386727},"geometry":{"x":177261.94000000134,"y":2540344.2600000016}},{"attributes":{"ID":386752,"DIS_CODE":0,"TOWNNAME":"歸仁區","LI":"辜厝里","LIN":"37鄰","STREET":"中正南路","SECT":"一段","MAREA":" ","LANE":"２１８巷","ALLEY":" ","HOUSE_NO":"２５號一樓之６","E_COORD97":177261.95999999999,"N_COORD97":2540344.2599999998,"ADDRESS":"中正南路一段２１８巷２５號一樓之６","OBJECTID":386728},"geometry":{"x":177261.95999999996,"y":2540344.2600000016}},{"attributes":{"ID":386753,"DIS_CODE":0,"TOWNNAME":"歸仁區","LI":"辜厝里","LIN":"37鄰","STREET":"中正南路","SECT":"一段","MAREA":" ","LANE":"２１８巷","ALLEY":" ","HOUSE_NO":"２５號二樓之４","E_COORD97":177261.94,"N_COORD97":2540344.2599999998,"ADDRESS":"中正南路一段２１８巷２５號二樓之４","OBJECTID":386729},"geometry":{"x":177261.94000000134,"y":2540344.2600000016}},{"attributes":{"ID":386754,"DIS_CODE":0,"TOWNNAME":"歸仁區","LI":"辜厝里","LIN":"37鄰","STREET":"中正南路","SECT":"一段","MAREA":" ","LANE":"２１８巷","ALLEY":" ","HOUSE_NO":"２５號七樓之６","E_COORD97":177261.95999999999,"N_COORD97":2540344.2599999998,"ADDRESS":"中正南路一段２１８巷２５號七樓之６","OBJECTID":386730},"geometry":{"x":177261.95999999996,"y":2540344.2600000016}},{"attributes":{"ID":386755,"DIS_CODE":0,"TOWNNAME":"歸仁區","LI":"辜厝里","LIN":"37鄰","STREET":"中正南路","SECT":"一段","MAREA":" ","LANE":"２１８巷","ALLEY":" ","HOUSE_NO":"２５號五樓之６","E_COORD97":177261.95999999999,"N_COORD97":2540344.2599999998,"ADDRESS":"中正南路一段２１８巷２５號五樓之６","OBJECTID":386731},"geometry":{"x":177261.95999999996,"y":2540344.2600000016}},{"attributes":{"ID":386756,"DIS_CODE":0,"TOWNNAME":"歸仁區","LI":"辜厝里","LIN":"37鄰","STREET":"中正南路","SECT":"一段","MAREA":" ","LANE":"２１８巷","ALLEY":" ","HOUSE_NO":"２５號一樓之５","E_COORD97":177261.97,"N_COORD97":2540344.2599999998,"ADDRESS":"中正南路一段２１８巷２５號一樓之５","OBJECTID":386732},"geometry":{"x":177261.96999999974,"y":2540344.2600000016}},{"attributes":{"ID":386757,"DIS_CODE":0,"TOWNNAME":"歸仁區","LI":"辜厝里","LIN":"37鄰","STREET":"中正南路","SECT":"一段","MAREA":" ","LANE":"２１８巷","ALLEY":" ","HOUSE_NO":"２５號六樓之６","E_COORD97":177261.95999999999,"N_COORD97":2540344.2599999998,"ADDRESS":"中正南路一段２１８巷２５號六樓之６","OBJECTID":386733},"geometry":{"x":177261.95999999996,"y":2540344.2600000016}},{"attributes":{"ID":386758,"DIS_CODE":0,"TOWNNAME":"永康區","LI":"龍潭里","LIN":"27鄰","STREET":"中山北路","SECT":" ","MAREA":" ","LANE":"４６１巷","ALLEY":" ","HOUSE_NO":"１７號","E_COORD97":175102.01999999999,"N_COORD97":2547834.48,"ADDRESS":"中山北路４６１巷１７號","OBJECTID":386734},"geometry":{"x":175102.02000000142,"y":2547834.4800000004}},{"attributes":{"ID":386759,"DIS_CODE":0,"TOWNNAME":"永康區","LI":"蔦松里","LIN":"1鄰","STREET":"蔦松二街","SECT":" ","MAREA":" ","LANE":"８７巷","ALLEY":" ","HOUSE_NO":"２３號","E_COORD97":173659.01999999999,"N_COORD97":2549270.7400000002,"ADDRESS":"蔦松二街８７巷２３號","OBJECTID":386735},"geometry":{"x":173659.01999999955,"y":2549270.7400000002}},{"attributes":{"ID":386760,"DIS_CODE":0,"TOWNNAME":"歸仁區","LI":"辜厝里","LIN":"37鄰","STREET":"中正南路","SECT":"一段","MAREA":" ","LANE":"２１８巷","ALLEY":" ","HOUSE_NO":"２５號二樓之６","E_COORD97":177261.95999999999,"N_COORD97":2540344.2599999998,"ADDRESS":"中正南路一段２１８巷２５號二樓之６","OBJECTID":386736},"geometry":{"x":177261.95999999996,"y":2540344.2600000016}},{"attributes":{"ID":386761,"DIS_CODE":0,"TOWNNAME":"歸仁區","LI":"辜厝里","LIN":"37鄰","STREET":"中正南路","SECT":"一段","MAREA":" ","LANE":"２１８巷","ALLEY":" ","HOUSE_NO":"２５號四樓之４","E_COORD97":177261.94,"N_COORD97":2540344.2599999998,"ADDRESS":"中正南路一段２１８巷２５號四樓之４","OBJECTID":386737},"geometry":{"x":177261.94000000134,"y":2540344.2600000016}},{"attributes":{"ID":386762,"DIS_CODE":0,"TOWNNAME":"永康區","LI":"正強里","LIN":"37鄰","STREET":"正強街","SECT":" ","MAREA":" ","LANE":"３３２巷","ALLEY":" ","HOUSE_NO":"１８號","E_COORD97":173281.62,"N_COORD97":2548238.7400000002,"ADDRESS":"正強街３３２巷１８號","OBJECTID":386738},"geometry":{"x":173281.62000000104,"y":2548238.7400000021}},{"attributes":{"ID":386763,"DIS_CODE":0,"TOWNNAME":"永康區","LI":"正強里","LIN":"37鄰","STREET":"正強街","SECT":" ","MAREA":" ","LANE":"３３２巷","ALLEY":" ","HOUSE_NO":"１２號","E_COORD97":173273.01999999999,"N_COORD97":2548236.7400000002,"ADDRESS":"正強街３３２巷１２號","OBJECTID":386739},"geometry":{"x":173273.02000000048,"y":2548236.7400000002}},{"attributes":{"ID":386764,"DIS_CODE":0,"TOWNNAME":"永康區","LI":"北灣里","LIN":"37鄰","STREET":"大同街","SECT":" ","MAREA":" ","LANE":"３２０巷","ALLEY":" ","HOUSE_NO":"３６號","E_COORD97":174823.56,"N_COORD97":2545994.98,"ADDRESS":"大同街３２０巷３６號","OBJECTID":386740},"geometry":{"x":174823.55999999959,"y":2545994.9800000023}},{"attributes":{"ID":386765,"DIS_CODE":0,"TOWNNAME":"永康區","LI":"正強里","LIN":"37鄰","STREET":"正強街","SECT":" ","MAREA":" ","LANE":"３３０巷","ALLEY":" ","HOUSE_NO":"７號","E_COORD97":173315.45000000001,"N_COORD97":2548243.4900000002,"ADDRESS":"正強街３３０巷７號","OBJECTID":386741},"geometry":{"x":173315.45000000112,"y":2548243.4900000021}},{"attributes":{"ID":386766,"DIS_CODE":0,"TOWNNAME":"永康區","LI":"北灣里","LIN":"37鄰","STREET":"大同街","SECT":" ","MAREA":" ","LANE":"３２０巷","ALLEY":" ","HOUSE_NO":"５號","E_COORD97":174814.63,"N_COORD97":2545966.5499999998,"ADDRESS":"大同街３２０巷５號","OBJECTID":386742},"geometry":{"x":174814.62999999989,"y":2545966.5500000007}},{"attributes":{"ID":386767,"DIS_CODE":0,"TOWNNAME":"永康區","LI":"正強里","LIN":"37鄰","STREET":"正強街","SECT":" ","MAREA":" ","LANE":"３３２巷","ALLEY":" ","HOUSE_NO":"５號","E_COORD97":173261.41,"N_COORD97":2548260.8799999999,"ADDRESS":"正強街３３２巷５號","OBJECTID":386743},"geometry":{"x":173261.41000000108,"y":2548260.879999999}},{"attributes":{"ID":386768,"DIS_CODE":0,"TOWNNAME":"永康區","LI":"正強里","LIN":"37鄰","STREET":"正強街","SECT":" ","MAREA":" ","LANE":"３３０巷","ALLEY":" ","HOUSE_NO":"１２號","E_COORD97":173273.44,"N_COORD97":2548211.5,"ADDRESS":"正強街３３０巷１２號","OBJECTID":386744},"geometry":{"x":173273.44000000041,"y":2548211.5000000037}},{"attributes":{"ID":386769,"DIS_CODE":0,"TOWNNAME":"永康區","LI":"正強里","LIN":"37鄰","STREET":"正強街","SECT":" ","MAREA":" ","LANE":"３３２巷","ALLEY":" ","HOUSE_NO":"１號","E_COORD97":173253.32000000001,"N_COORD97":2548255.4900000002,"ADDRESS":"正強街３３２巷１號","OBJECTID":386745},"geometry":{"x":173253.32000000123,"y":2548255.4899999984}},{"attributes":{"ID":386770,"DIS_CODE":0,"TOWNNAME":"永康區","LI":"北灣里","LIN":"37鄰","STREET":"大同街","SECT":" ","MAREA":" ","LANE":"３２０巷","ALLEY":" ","HOUSE_NO":"１０號","E_COORD97":174803.82999999999,"N_COORD97":2545952.2799999998,"ADDRESS":"大同街３２０巷１０號","OBJECTID":386746},"geometry":{"x":174803.83000000194,"y":2545952.2800000012}},{"attributes":{"ID":386771,"DIS_CODE":0,"TOWNNAME":"永康區","LI":"北灣里","LIN":"37鄰","STREET":"大同街","SECT":" ","MAREA":" ","LANE":"３２０巷","ALLEY":" ","HOUSE_NO":"２７號","E_COORD97":174824.39000000001,"N_COORD97":2546019.9500000002,"ADDRESS":"大同街３２０巷２７號","OBJECTID":386747},"geometry":{"x":174824.38999999966,"y":2546019.9499999993}},{"attributes":{"ID":386772,"DIS_CODE":0,"TOWNNAME":"永康區","LI":"正強里","LIN":"37鄰","STREET":"正強街","SECT":" ","MAREA":" ","LANE":"３３０巷","ALLEY":" ","HOUSE_NO":"６號","E_COORD97":173256.48000000001,"N_COORD97":2548208,"ADDRESS":"正強街３３０巷６號","OBJECTID":386748},"geometry":{"x":173256.48000000045,"y":2548208.0000000037}},{"attributes":{"ID":386773,"DIS_CODE":0,"TOWNNAME":"永康區","LI":"北灣里","LIN":"37鄰","STREET":"大同街","SECT":" ","MAREA":" ","LANE":"３２０巷","ALLEY":" ","HOUSE_NO":"４０號","E_COORD97":174832.04999999999,"N_COORD97":2546008.48,"ADDRESS":"大同街３２０巷４０號","OBJECTID":386749},"geometry":{"x":174832.04999999981,"y":2546008.4800000042}},{"attributes":{"ID":386774,"DIS_CODE":0,"TOWNNAME":"永康區","LI":"正強里","LIN":"37鄰","STREET":"正強街","SECT":" ","MAREA":" ","LANE":"３３２巷","ALLEY":" ","HOUSE_NO":"８號","E_COORD97":173263.07000000001,"N_COORD97":2548234.7400000002,"ADDRESS":"正強街３３２巷８號","OBJECTID":386750},"geometry":{"x":173263.07000000216,"y":2548234.7400000021}},{"attributes":{"ID":386775,"DIS_CODE":0,"TOWNNAME":"永康區","LI":"蔦松里","LIN":"4鄰","STREET":"蔦松二街","SECT":" ","MAREA":" ","LANE":"１２４巷","ALLEY":" ","HOUSE_NO":"３號","E_COORD97":173814.97,"N_COORD97":2549370.0600000001,"ADDRESS":"蔦松二街１２４巷３號","OBJECTID":386751},"geometry":{"x":173814.97000000067,"y":2549370.0600000005}},{"attributes":{"ID":386776,"DIS_CODE":0,"TOWNNAME":"永康區","LI":"龍潭里","LIN":"26鄰","STREET":"龍昌街","SECT":" ","MAREA":" ","LANE":"６６巷","ALLEY":" ","HOUSE_NO":"４號","E_COORD97":175039.01000000001,"N_COORD97":2547898.3799999999,"ADDRESS":"龍昌街６６巷４號","OBJECTID":386752},"geometry":{"x":175039.00999999978,"y":2547898.379999999}},{"attributes":{"ID":386777,"DIS_CODE":0,"TOWNNAME":"永康區","LI":"龍潭里","LIN":"39鄰","STREET":"永明街","SECT":" ","MAREA":" ","LANE":"１７９巷","ALLEY":" ","HOUSE_NO":"２號","E_COORD97":174447.79999999999,"N_COORD97":2547231.5699999998,"ADDRESS":"永明街１７９巷２號","OBJECTID":386753},"geometry":{"x":174447.80000000168,"y":2547231.570000004}},{"attributes":{"ID":386778,"DIS_CODE":0,"TOWNNAME":"永康區","LI":"勝利里","LIN":"37鄰","STREET":"勝利街","SECT":" ","MAREA":" ","LANE":"１９７巷","ALLEY":" ","HOUSE_NO":"１號","E_COORD97":171341.26000000001,"N_COORD97":2545124.75,"ADDRESS":"勝利街１９７巷１號","OBJECTID":386754},"geometry":{"x":171341.26000000071,"y":2545124.7500000019}},{"attributes":{"ID":386779,"DIS_CODE":0,"TOWNNAME":"永康區","LI":"龍潭里","LIN":"37鄰","STREET":"中山北路","SECT":" ","MAREA":" ","LANE":"１６４巷","ALLEY":" ","HOUSE_NO":"１１４號","E_COORD97":174531.79999999999,"N_COORD97":2547394.6000000001,"ADDRESS":"中山北路１６４巷１１４號","OBJECTID":386755},"geometry":{"x":174531.79999999981,"y":2547394.6000000015}},{"attributes":{"ID":386780,"DIS_CODE":0,"TOWNNAME":"永康區","LI":"\u25A0洲里","LIN":"37鄰","STREET":"\u25A0洲二街","SECT":" ","MAREA":" ","LANE":"１７５巷","ALLEY":" ","HOUSE_NO":"１５５號","E_COORD97":171727.91,"N_COORD97":2549562.7599999998,"ADDRESS":"\u25A0洲二街１７５巷１５５號","OBJECTID":386756},"geometry":{"x":171727.91000000015,"y":2549562.7600000016}},{"attributes":{"ID":386781,"DIS_CODE":0,"TOWNNAME":"永康區","LI":"崑山里","LIN":"37鄰","STREET":"國光五街","SECT":" ","MAREA":" ","LANE":"６３巷","ALLEY":" ","HOUSE_NO":"２號","E_COORD97":173989.51999999999,"N_COORD97":2545097.0800000001,"ADDRESS":"國光五街６３巷２號","OBJECTID":386757},"geometry":{"x":173989.51999999955,"y":2545097.0800000001}},{"attributes":{"ID":386782,"DIS_CODE":0,"TOWNNAME":"永康區","LI":"永康里","LIN":"37鄰","STREET":"西勢路","SECT":" ","MAREA":" ","LANE":"７３８巷","ALLEY":" ","HOUSE_NO":"１５號","E_COORD97":174532.64999999999,"N_COORD97":2546801.6699999999,"ADDRESS":"西勢路７３８巷１５號","OBJECTID":386758},"geometry":{"x":174532.6500000013,"y":2546801.6699999999}},{"attributes":{"ID":386783,"DIS_CODE":0,"TOWNNAME":"歸仁區","LI":"南保里","LIN":"37鄰","STREET":"中山路","SECT":"三段","MAREA":" ","LANE":"１３８巷","ALLEY":" ","HOUSE_NO":"３２號","E_COORD97":176677.01000000001,"N_COORD97":2541013.2799999998,"ADDRESS":"中山路三段１３８巷３２號","OBJECTID":386759},"geometry":{"x":176677.00999999885,"y":2541013.2799999993}},{"attributes":{"ID":386784,"DIS_CODE":0,"TOWNNAME":"歸仁區","LI":"南保里","LIN":"37鄰","STREET":"中山路","SECT":"三段","MAREA":" ","LANE":"１３８巷","ALLEY":" ","HOUSE_NO":"３６號","E_COORD97":176677.10999999999,"N_COORD97":2541020.2799999998,"ADDRESS":"中山路三段１３８巷３６號","OBJECTID":386760},"geometry":{"x":176677.1100000022,"y":2541020.2799999993}},{"attributes":{"ID":386785,"DIS_CODE":0,"TOWNNAME":"歸仁區","LI":"南保里","LIN":"37鄰","STREET":"中山路","SECT":"三段","MAREA":" ","LANE":"１３８巷","ALLEY":" ","HOUSE_NO":"４０號","E_COORD97":176678.10999999999,"N_COORD97":2541028.2799999998,"ADDRESS":"中山路三段１３８巷４０號","OBJECTID":386761},"geometry":{"x":176678.11000000034,"y":2541028.2800000012}},{"attributes":{"ID":386786,"DIS_CODE":0,"TOWNNAME":"歸仁區","LI":"六甲里","LIN":"37鄰","STREET":"六甲八街","SECT":" ","MAREA":" ","LANE":"１９０巷","ALLEY":" ","HOUSE_NO":"２１號","E_COORD97":175392.12819600001,"N_COORD97":2539685.1816099999,"ADDRESS":"六甲八街１９０巷２１號","OBJECTID":386762},"geometry":{"x":175392.12819600012,"y":2539685.181605}},{"attributes":{"ID":386787,"DIS_CODE":0,"TOWNNAME":"永康區","LI":"新樹里","LIN":"4鄰","STREET":"富強路","SECT":"二段","MAREA":" ","LANE":"３２６巷","ALLEY":" ","HOUSE_NO":"１１號","E_COORD97":175645.41,"N_COORD97":2547572.0699999998,"ADDRESS":"富強路二段３２６巷１１號","OBJECTID":386763},"geometry":{"x":175645.41000000015,"y":2547572.0700000022}},{"attributes":{"ID":386788,"DIS_CODE":0,"TOWNNAME":"歸仁區","LI":"南保里","LIN":"37鄰","STREET":"中山路","SECT":"三段","MAREA":" ","LANE":"１３８巷","ALLEY":" ","HOUSE_NO":"４２號","E_COORD97":176678.10999999999,"N_COORD97":2541032.2799999998,"ADDRESS":"中山路三段１３８巷４２號","OBJECTID":386764},"geometry":{"x":176678.11000000034,"y":2541032.2800000012}},{"attributes":{"ID":386789,"DIS_CODE":0,"TOWNNAME":"永康區","LI":"龍潭里","LIN":"3鄰","STREET":"龍國街","SECT":" ","MAREA":" ","LANE":"２９１巷","ALLEY":" ","HOUSE_NO":"３０號","E_COORD97":174647.10000000001,"N_COORD97":2548097.1899999999,"ADDRESS":"龍國街２９１巷３０號","OBJECTID":386765},"geometry":{"x":174647.0999999987,"y":2548097.1899999995}},{"attributes":{"ID":386790,"DIS_CODE":0,"TOWNNAME":"永康區","LI":"\u25A0行里","LIN":"43鄰","STREET":"中正南路","SECT":" ","MAREA":" ","LANE":"４９０巷","ALLEY":" ","HOUSE_NO":"４９號之４","E_COORD97":171467.54000000001,"N_COORD97":2548209.2999999998,"ADDRESS":"中正南路４９０巷４９號之４","OBJECTID":386766},"geometry":{"x":171467.54000000004,"y":2548209.3000000007}},{"attributes":{"ID":386791,"DIS_CODE":0,"TOWNNAME":"永康區","LI":"網寮里","LIN":"8鄰","STREET":"永二街","SECT":" ","MAREA":" ","LANE":"２４４巷","ALLEY":" ","HOUSE_NO":"１號之６","E_COORD97":173251.39999999999,"N_COORD97":2546354.8500000001,"ADDRESS":"永二街２４４巷１號之６","OBJECTID":386767},"geometry":{"x":173251.4000000013,"y":2546354.8500000015}},{"attributes":{"ID":386792,"DIS_CODE":0,"TOWNNAME":"永康區","LI":"龍潭里","LIN":"37鄰","STREET":"中山北路","SECT":" ","MAREA":" ","LANE":"１６４巷","ALLEY":" ","HOUSE_NO":"１１６號之１","E_COORD97":174536.23999999999,"N_COORD97":2547335.1400000001,"ADDRESS":"中山北路１６４巷１１６號之１","OBJECTID":386768},"geometry":{"x":174536.24000000022,"y":2547335.1400000006}},{"attributes":{"ID":386793,"DIS_CODE":0,"TOWNNAME":"歸仁區","LI":"南保里","LIN":"37鄰","STREET":"中山路","SECT":"三段","MAREA":" ","LANE":"１３８巷","ALLEY":" ","HOUSE_NO":"３４號","E_COORD97":176677.01000000001,"N_COORD97":2541016.2799999998,"ADDRESS":"中山路三段１３８巷３４號","OBJECTID":386769},"geometry":{"x":176677.00999999885,"y":2541016.2799999993}},{"attributes":{"ID":386794,"DIS_CODE":0,"TOWNNAME":"歸仁區","LI":"南保里","LIN":"37鄰","STREET":"中山路","SECT":"三段","MAREA":" ","LANE":"１３８巷","ALLEY":" ","HOUSE_NO":"２２號","E_COORD97":176681.01000000001,"N_COORD97":2540987.2799999998,"ADDRESS":"中山路三段１３８巷２２號","OBJECTID":386770},"geometry":{"x":176681.01000000071,"y":2540987.2800000031}},{"attributes":{"ID":386795,"DIS_CODE":0,"TOWNNAME":"歸仁區","LI":"南保里","LIN":"37鄰","STREET":"中山路","SECT":"三段","MAREA":" ","LANE":"１３８巷","ALLEY":" ","HOUSE_NO":"２８號","E_COORD97":176676.01000000001,"N_COORD97":2541005.2799999998,"ADDRESS":"中山路三段１３８巷２８號","OBJECTID":386771},"geometry":{"x":176676.01000000071,"y":2541005.2800000012}},{"attributes":{"ID":386796,"DIS_CODE":0,"TOWNNAME":"歸仁區","LI":"南保里","LIN":"37鄰","STREET":"中山路","SECT":"三段","MAREA":" ","LANE":"１３８巷","ALLEY":" ","HOUSE_NO":"２４號","E_COORD97":176677.91,"N_COORD97":2540987.2799999998,"ADDRESS":"中山路三段１３８巷２４號","OBJECTID":386772},"geometry":{"x":176677.91000000015,"y":2540987.2800000031}},{"attributes":{"ID":386797,"DIS_CODE":0,"TOWNNAME":"歸仁區","LI":"南興里","LIN":"37鄰","STREET":"民生北街","SECT":" ","MAREA":" ","LANE":"３５巷","ALLEY":" ","HOUSE_NO":"２８號","E_COORD97":176217.34,"N_COORD97":2541049.29,"ADDRESS":"民生北街３５巷２８號","OBJECTID":386773},"geometry":{"x":176217.34000000171,"y":2541049.290000001}},{"attributes":{"ID":386798,"DIS_CODE":0,"TOWNNAME":"歸仁區","LI":"南保里","LIN":"37鄰","STREET":"中山路","SECT":"三段","MAREA":" ","LANE":"１３８巷","ALLEY":" ","HOUSE_NO":"４６號","E_COORD97":176678.20999999999,"N_COORD97":2541037.2799999998,"ADDRESS":"中山路三段１３８巷４６號","OBJECTID":386774},"geometry":{"x":176678.21000000089,"y":2541037.2799999993}},{"attributes":{"ID":386799,"DIS_CODE":0,"TOWNNAME":"歸仁區","LI":"南保里","LIN":"37鄰","STREET":"中山路","SECT":"三段","MAREA":" ","LANE":"１３８巷","ALLEY":" ","HOUSE_NO":"１８號","E_COORD97":176691.31,"N_COORD97":2540986.2799999998,"ADDRESS":"中山路三段１３８巷１８號","OBJECTID":386775},"geometry":{"x":176691.30999999959,"y":2540986.2799999993}},{"attributes":{"ID":386800,"DIS_CODE":0,"TOWNNAME":"永康區","LI":"蔦松里","LIN":"1鄰","STREET":"蔦松二街","SECT":" ","MAREA":" ","LANE":"８７巷","ALLEY":" ","HOUSE_NO":"１２號","E_COORD97":173713.20999999999,"N_COORD97":2549360.2400000002,"ADDRESS":"蔦松二街８７巷１２號","OBJECTID":386776},"geometry":{"x":173713.21000000089,"y":2549360.2400000021}},{"attributes":{"ID":386801,"DIS_CODE":0,"TOWNNAME":"歸仁區","LI":"南興里","LIN":"37鄰","STREET":"中山路","SECT":"三段","MAREA":" ","LANE":"４３６巷","ALLEY":" ","HOUSE_NO":"５８號","E_COORD97":175966.01000000001,"N_COORD97":2541138.2799999998,"ADDRESS":"中山路三段４３６巷５８號","OBJECTID":386777},"geometry":{"x":175966.00999999978,"y":2541138.2799999993}},{"attributes":{"ID":386802,"DIS_CODE":0,"TOWNNAME":"歸仁區","LI":"南保里","LIN":"37鄰","STREET":"中山路","SECT":"三段","MAREA":" ","LANE":"１３８巷","ALLEY":" ","HOUSE_NO":"１６號","E_COORD97":176683.35000000001,"N_COORD97":2540967.6400000001,"ADDRESS":"中山路三段１３８巷１６號","OBJECTID":386778},"geometry":{"x":176683.35000000056,"y":2540967.6400000006}},{"attributes":{"ID":386803,"DIS_CODE":0,"TOWNNAME":"歸仁區","LI":"南保里","LIN":"37鄰","STREET":"中山路","SECT":"三段","MAREA":" ","LANE":"１３８巷","ALLEY":" ","HOUSE_NO":"２０號","E_COORD97":176686.10999999999,"N_COORD97":2540986.2799999998,"ADDRESS":"中山路三段１３８巷２０號","OBJECTID":386779},"geometry":{"x":176686.11000000127,"y":2540986.2799999993}},{"attributes":{"ID":386804,"DIS_CODE":0,"TOWNNAME":"歸仁區","LI":"南興里","LIN":"37鄰","STREET":"民生北街","SECT":" ","MAREA":" ","LANE":"３５巷","ALLEY":" ","HOUSE_NO":"５０號","E_COORD97":176141.54000000001,"N_COORD97":2541047.29,"ADDRESS":"民生北街３５巷５０號","OBJECTID":386780},"geometry":{"x":176141.5400000019,"y":2541047.2899999991}},{"attributes":{"ID":386805,"DIS_CODE":0,"TOWNNAME":"歸仁區","LI":"南保里","LIN":"37鄰","STREET":"中山路","SECT":"三段","MAREA":" ","LANE":"１３８巷","ALLEY":" ","HOUSE_NO":"１２號","E_COORD97":176675.14999999999,"N_COORD97":2540968.6400000001,"ADDRESS":"中山路三段１３８巷１２號","OBJECTID":386781},"geometry":{"x":176675.15000000224,"y":2540968.6400000006}},{"attributes":{"ID":386806,"DIS_CODE":0,"TOWNNAME":"歸仁區","LI":"南保里","LIN":"37鄰","STREET":"中山路","SECT":"三段","MAREA":" ","LANE":"１３８巷","ALLEY":" ","HOUSE_NO":"２６號","E_COORD97":176671.81,"N_COORD97":2540990.2799999998,"ADDRESS":"中山路三段１３８巷２６號","OBJECTID":386782},"geometry":{"x":176671.81000000052,"y":2540990.2799999993}},{"attributes":{"ID":386807,"DIS_CODE":0,"TOWNNAME":"歸仁區","LI":"南興里","LIN":"37鄰","STREET":"民生北街","SECT":" ","MAREA":" ","LANE":"３５巷","ALLEY":" ","HOUSE_NO":"４６號","E_COORD97":176174.34,"N_COORD97":2541049.29,"ADDRESS":"民生北街３５巷４６號","OBJECTID":386783},"geometry":{"x":176174.33999999985,"y":2541049.290000001}},{"attributes":{"ID":386808,"DIS_CODE":0,"TOWNNAME":"永康區","LI":"新樹里","LIN":"4鄰","STREET":"富強路","SECT":"二段","MAREA":" ","LANE":"３９８巷","ALLEY":" ","HOUSE_NO":"４４號","E_COORD97":175663.16,"N_COORD97":2547633.1400000001,"ADDRESS":"富強路二段３９８巷４４號","OBJECTID":386784},"geometry":{"x":175663.16000000108,"y":2547633.1400000006}},{"attributes":{"ID":386809,"DIS_CODE":0,"TOWNNAME":"永康區","LI":"龍潭里","LIN":"35鄰","STREET":"龍安街","SECT":" ","MAREA":" ","LANE":"１８９巷","ALLEY":" ","HOUSE_NO":"６號","E_COORD97":174650.51999999999,"N_COORD97":2548522.1699999999,"ADDRESS":"龍安街１８９巷６號","OBJECTID":386785},"geometry":{"x":174650.51999999955,"y":2548522.1700000037}},{"attributes":{"ID":386810,"DIS_CODE":0,"TOWNNAME":"永康區","LI":"正強里","LIN":"37鄰","STREET":"正強街","SECT":" ","MAREA":" ","LANE":"３３０巷","ALLEY":" ","HOUSE_NO":"２６號","E_COORD97":173311.10999999999,"N_COORD97":2548223.5099999998,"ADDRESS":"正強街３３０巷２６號","OBJECTID":386786},"geometry":{"x":173311.11000000127,"y":2548223.5099999998}},{"attributes":{"ID":386811,"DIS_CODE":0,"TOWNNAME":"永康區","LI":"正強里","LIN":"37鄰","STREET":"正強街","SECT":" ","MAREA":" ","LANE":"３３２巷","ALLEY":" ","HOUSE_NO":"１６號","E_COORD97":173277.62,"N_COORD97":2548237.7400000002,"ADDRESS":"正強街３３２巷１６號","OBJECTID":386787},"geometry":{"x":173277.62000000011,"y":2548237.7400000021}},{"attributes":{"ID":386812,"DIS_CODE":0,"TOWNNAME":"永康區","LI":"\u25A0行里","LIN":"27鄰","STREET":"中正南路","SECT":" ","MAREA":" ","LANE":"３６０巷","ALLEY":" ","HOUSE_NO":"１６號","E_COORD97":171191.60000000001,"N_COORD97":2548071.2400000002,"ADDRESS":"中正南路３６０巷１６號","OBJECTID":386788},"geometry":{"x":171191.59999999963,"y":2548071.2400000039}},{"attributes":{"ID":386813,"DIS_CODE":0,"TOWNNAME":"永康區","LI":"龍潭里","LIN":"26鄰","STREET":"龍昌街","SECT":" ","MAREA":" ","LANE":"６６巷","ALLEY":" ","HOUSE_NO":"３２號","E_COORD97":175100.20000000001,"N_COORD97":2547903.9399999999,"ADDRESS":"龍昌街６６巷３２號","OBJECTID":386789},"geometry":{"x":175100.20000000112,"y":2547903.9400000013}},{"attributes":{"ID":386814,"DIS_CODE":0,"TOWNNAME":"永康區","LI":"龍潭里","LIN":"26鄰","STREET":"龍昌街","SECT":" ","MAREA":" ","LANE":"６６巷","ALLEY":" ","HOUSE_NO":"１０號","E_COORD97":175052.82999999999,"N_COORD97":2547898.3599999999,"ADDRESS":"龍昌街６６巷１０號","OBJECTID":386790},"geometry":{"x":175052.82999999914,"y":2547898.3599999994}},{"attributes":{"ID":386815,"DIS_CODE":0,"TOWNNAME":"歸仁區","LI":"六甲里","LIN":"37鄰","STREET":"六甲八街","SECT":" ","MAREA":" ","LANE":"１９０巷","ALLEY":" ","HOUSE_NO":"１１號","E_COORD97":175372.372087,"N_COORD97":2539683.43536,"ADDRESS":"六甲八街１９０巷１１號","OBJECTID":386791},"geometry":{"x":175372.37208700087,"y":2539683.4353560023}},{"attributes":{"ID":386816,"DIS_CODE":0,"TOWNNAME":"歸仁區","LI":"六甲里","LIN":"37鄰","STREET":"六甲八街","SECT":" ","MAREA":" ","LANE":"１９０巷","ALLEY":" ","HOUSE_NO":"５號","E_COORD97":175350.76160999999,"N_COORD97":2539679.3078600001,"ADDRESS":"六甲八街１９０巷５號","OBJECTID":386792},"geometry":{"x":175350.76161000039,"y":2539679.3078590017}},{"attributes":{"ID":386817,"DIS_CODE":0,"TOWNNAME":"歸仁區","LI":"六甲里","LIN":"37鄰","STREET":"六甲八街","SECT":" ","MAREA":" ","LANE":"１９０巷","ALLEY":" ","HOUSE_NO":"３號","E_COORD97":175343.76998499999,"N_COORD97":2539677.9320299998,"ADDRESS":"六甲八街１９０巷３號","OBJECTID":386793},"geometry":{"x":175343.76998500153,"y":2539677.9320260007}},{"attributes":{"ID":386818,"DIS_CODE":0,"TOWNNAME":"歸仁區","LI":"六甲里","LIN":"37鄰","STREET":"六甲八街","SECT":" ","MAREA":" ","LANE":"１９０巷","ALLEY":" ","HOUSE_NO":"９號","E_COORD97":175365.380462,"N_COORD97":2539681.4245199999,"ADDRESS":"六甲八街１９０巷９號","OBJECTID":386794},"geometry":{"x":175365.38046200108,"y":2539681.4245240018}},{"attributes":{"ID":386819,"DIS_CODE":0,"TOWNNAME":"歸仁區","LI":"六甲里","LIN":"37鄰","STREET":"六甲八街","SECT":" ","MAREA":" ","LANE":"１９０巷","ALLEY":" ","HOUSE_NO":"７號","E_COORD97":175357.96510199999,"N_COORD97":2539680.6836899999,"ADDRESS":"六甲八街１９０巷７號","OBJECTID":386795},"geometry":{"x":175357.96510200109,"y":2539680.6836910024}},{"attributes":{"ID":386820,"DIS_CODE":0,"TOWNNAME":"歸仁區","LI":"南保里","LIN":"37鄰","STREET":"中山路","SECT":"三段","MAREA":" ","LANE":"１３８巷","ALLEY":" ","HOUSE_NO":"６號","E_COORD97":176661.19,"N_COORD97":2540969.6099999999,"ADDRESS":"中山路三段１３８巷６號","OBJECTID":386796},"geometry":{"x":176661.18999999948,"y":2540969.6100000013}},{"attributes":{"ID":386821,"DIS_CODE":0,"TOWNNAME":"歸仁區","LI":"南保里","LIN":"37鄰","STREET":"民權八街","SECT":" ","MAREA":" ","LANE":"８５巷","ALLEY":" ","HOUSE_NO":"５號","E_COORD97":176682.01000000001,"N_COORD97":2541031.25,"ADDRESS":"民權八街８５巷５號","OBJECTID":386797},"geometry":{"x":176682.00999999978,"y":2541031.25}},{"attributes":{"ID":386822,"DIS_CODE":0,"TOWNNAME":"永康區","LI":"新樹里","LIN":"4鄰","STREET":"富強路","SECT":"二段","MAREA":" ","LANE":"３９８巷","ALLEY":" ","HOUSE_NO":"３４號","E_COORD97":175642.91,"N_COORD97":2547632.8900000001,"ADDRESS":"富強路二段３９８巷３４號","OBJECTID":386798},"geometry":{"x":175642.91000000108,"y":2547632.8900000043}},{"attributes":{"ID":386823,"DIS_CODE":0,"TOWNNAME":"永康區","LI":"成功里","LIN":"37鄰","STREET":"中華路","SECT":" ","MAREA":" ","LANE":"１５４巷","ALLEY":" ","HOUSE_NO":"７７號","E_COORD97":171805.23999999999,"N_COORD97":2544911.4900000002,"ADDRESS":"中華路１５４巷７７號","OBJECTID":386799},"geometry":{"x":171805.24000000022,"y":2544911.4900000002}},{"attributes":{"ID":386824,"DIS_CODE":0,"TOWNNAME":"永康區","LI":"成功里","LIN":"37鄰","STREET":"中華路","SECT":" ","MAREA":" ","LANE":"１５４巷","ALLEY":" ","HOUSE_NO":"７９號","E_COORD97":171808.98000000001,"N_COORD97":2544910.7400000002,"ADDRESS":"中華路１５４巷７９號","OBJECTID":386800},"geometry":{"x":171808.98000000045,"y":2544910.7400000002}}]}