{"displayFieldName":"TOWNNAME","fieldAliases":{"ID":"ID","DIS_CODE":"DIS_CODE","TOWNNAME":"TOWNNAME","LI":"LI","LIN":"LIN","STREET":"STREET","SECT":"SECT","MAREA":"MAREA","LANE":"LANE","ALLEY":"ALLEY","HOUSE_NO":"HOUSE_NO","E_COORD97":"E_COORD97","N_COORD97":"N_COORD97","ADDRESS":"ADDRESS","OBJECTID":"OBJECTID"},"geometryType":"esriGeometryPoint","spatialReference":{"wkid":102443,"latestWkid":3826},"fields":[{"name":"ID","type":"esriFieldTypeDouble","alias":"ID"},{"name":"DIS_CODE","type":"esriFieldTypeInteger","alias":"DIS_CODE"},{"name":"TOWNNAME","type":"esriFieldTypeString","alias":"TOWNNAME","length":8},{"name":"LI","type":"esriFieldTypeString","alias":"LI","length":8},{"name":"LIN","type":"esriFieldTypeString","alias":"LIN","length":12},{"name":"STREET","type":"esriFieldTypeString","alias":"STREET","length":20},{"name":"SECT","type":"esriFieldTypeString","alias":"SECT","length":8},{"name":"MAREA","type":"esriFieldTypeString","alias":"MAREA","length":12},{"name":"LANE","type":"esriFieldTypeString","alias":"LANE","length":10},{"name":"ALLEY","type":"esriFieldTypeString","alias":"ALLEY","length":10},{"name":"HOUSE_NO","type":"esriFieldTypeString","alias":"HOUSE_NO","length":20},{"name":"E_COORD97","type":"esriFieldTypeDouble","alias":"E_COORD97"},{"name":"N_COORD97","type":"esriFieldTypeDouble","alias":"N_COORD97"},{"name":"ADDRESS","type":"esriFieldTypeString","alias":"ADDRESS","length":50},{"name":"OBJECTID","type":"esriFieldTypeOID","alias":"OBJECTID"}],"features":[{"attributes":{"ID":601428,"DIS_CODE":0,"TOWNNAME":"安南區","LI":"梅花里","LIN":"1鄰","STREET":"北安路","SECT":"二段","MAREA":" ","LANE":" ","ALLEY":" ","HOUSE_NO":"３６３號之２０","E_COORD97":168231.25774,"N_COORD97":2548813.2505100002,"ADDRESS":"北安路二段３６３號之２０","OBJECTID":601401},"geometry":{"x":168231.25774000119,"y":2548813.2505070008}},{"attributes":{"ID":601429,"DIS_CODE":0,"TOWNNAME":"柳營區","LI":"東昇里","LIN":"22鄰","STREET":"東南七街","SECT":" ","MAREA":" ","LANE":" ","ALLEY":" ","HOUSE_NO":"３號","E_COORD97":180313.64000000001,"N_COORD97":2575305.3700000001,"ADDRESS":"東南七街３號","OBJECTID":601402},"geometry":{"x":180313.63999999966,"y":2575305.370000001}},{"attributes":{"ID":601430,"DIS_CODE":0,"TOWNNAME":"柳營區","LI":"東昇里","LIN":"22鄰","STREET":"東南七街","SECT":" ","MAREA":" ","LANE":" ","ALLEY":" ","HOUSE_NO":"５號","E_COORD97":180313.48000000001,"N_COORD97":2575309.4900000002,"ADDRESS":"東南七街５號","OBJECTID":601403},"geometry":{"x":180313.48000000045,"y":2575309.4900000002}},{"attributes":{"ID":601431,"DIS_CODE":0,"TOWNNAME":"柳營區","LI":"東昇里","LIN":"22鄰","STREET":"東南七街","SECT":" ","MAREA":" ","LANE":" ","ALLEY":" ","HOUSE_NO":"７號","E_COORD97":180313.32000000001,"N_COORD97":2575313.6099999999,"ADDRESS":"東南七街７號","OBJECTID":601404},"geometry":{"x":180313.31999999937,"y":2575313.6100000013}},{"attributes":{"ID":601432,"DIS_CODE":0,"TOWNNAME":"歸仁區","LI":"許厝里","LIN":"22鄰","STREET":"大仁街","SECT":" ","MAREA":" ","LANE":" ","ALLEY":" ","HOUSE_NO":"９０號","E_COORD97":178121.72,"N_COORD97":2540952.1099999999,"ADDRESS":"大仁街９０號","OBJECTID":601405},"geometry":{"x":178121.7200000016,"y":2540952.1100000013}},{"attributes":{"ID":601433,"DIS_CODE":0,"TOWNNAME":"歸仁區","LI":"看西里","LIN":"22鄰","STREET":"成功七街","SECT":" ","MAREA":" ","LANE":" ","ALLEY":" ","HOUSE_NO":"６７號","E_COORD97":178273.26000000001,"N_COORD97":2539800.3599999999,"ADDRESS":"成功七街６７號","OBJECTID":601406},"geometry":{"x":178273.25999999978,"y":2539800.3600000031}},{"attributes":{"ID":601434,"DIS_CODE":0,"TOWNNAME":"歸仁區","LI":"許厝里","LIN":"22鄰","STREET":"大仁街","SECT":" ","MAREA":" ","LANE":" ","ALLEY":" ","HOUSE_NO":"５６號","E_COORD97":178038.67999999999,"N_COORD97":2540873.23,"ADDRESS":"大仁街５６號","OBJECTID":601407},"geometry":{"x":178038.67999999877,"y":2540873.2299999986}},{"attributes":{"ID":601435,"DIS_CODE":0,"TOWNNAME":"歸仁區","LI":"許厝里","LIN":"22鄰","STREET":"仁愛六街","SECT":" ","MAREA":" ","LANE":" ","ALLEY":" ","HOUSE_NO":"８６號","E_COORD97":178138.82999999999,"N_COORD97":2540860.25,"ADDRESS":"仁愛六街８６號","OBJECTID":601408},"geometry":{"x":178138.83000000101,"y":2540860.2500000019}},{"attributes":{"ID":601436,"DIS_CODE":0,"TOWNNAME":"歸仁區","LI":"許厝里","LIN":"22鄰","STREET":"仁愛六街","SECT":" ","MAREA":" ","LANE":" ","ALLEY":" ","HOUSE_NO":"８８號","E_COORD97":178130.63,"N_COORD97":2540866.25,"ADDRESS":"仁愛六街８８號","OBJECTID":601409},"geometry":{"x":178130.62999999989,"y":2540866.2500000037}},{"attributes":{"ID":601437,"DIS_CODE":0,"TOWNNAME":"歸仁區","LI":"許厝里","LIN":"22鄰","STREET":"大仁街","SECT":" ","MAREA":" ","LANE":" ","ALLEY":" ","HOUSE_NO":"６６號","E_COORD97":178066.48000000001,"N_COORD97":2540901.23,"ADDRESS":"大仁街６６號","OBJECTID":601410},"geometry":{"x":178066.48000000231,"y":2540901.2300000023}},{"attributes":{"ID":601438,"DIS_CODE":0,"TOWNNAME":"歸仁區","LI":"歸仁里","LIN":"22鄰","STREET":"忠孝北路","SECT":" ","MAREA":" ","LANE":" ","ALLEY":" ","HOUSE_NO":"１９７號","E_COORD97":178100.42000000001,"N_COORD97":2541211.1099999999,"ADDRESS":"忠孝北路１９７號","OBJECTID":601411},"geometry":{"x":178100.42000000086,"y":2541211.1099999994}},{"attributes":{"ID":601439,"DIS_CODE":0,"TOWNNAME":"歸仁區","LI":"看西里","LIN":"22鄰","STREET":"成功七街","SECT":" ","MAREA":" ","LANE":" ","ALLEY":" ","HOUSE_NO":"７５號","E_COORD97":178255.76000000001,"N_COORD97":2539796.3599999999,"ADDRESS":"成功七街７５號","OBJECTID":601412},"geometry":{"x":178255.76000000071,"y":2539796.3599999994}},{"attributes":{"ID":601440,"DIS_CODE":0,"TOWNNAME":"歸仁區","LI":"南保里","LIN":"22鄰","STREET":"民權六街","SECT":" ","MAREA":" ","LANE":" ","ALLEY":" ","HOUSE_NO":"３６號","E_COORD97":176913.29000000001,"N_COORD97":2541111.29,"ADDRESS":"民權六街３６號","OBJECTID":601413},"geometry":{"x":176913.29000000097,"y":2541111.2899999991}},{"attributes":{"ID":601441,"DIS_CODE":0,"TOWNNAME":"歸仁區","LI":"南保里","LIN":"22鄰","STREET":"民權六街","SECT":" ","MAREA":" ","LANE":" ","ALLEY":" ","HOUSE_NO":"４０號","E_COORD97":176890.79000000001,"N_COORD97":2541127.29,"ADDRESS":"民權六街４０號","OBJECTID":601414},"geometry":{"x":176890.7900000019,"y":2541127.290000001}},{"attributes":{"ID":601442,"DIS_CODE":0,"TOWNNAME":"歸仁區","LI":"南保里","LIN":"22鄰","STREET":"民權六街","SECT":" ","MAREA":" ","LANE":" ","ALLEY":" ","HOUSE_NO":"５０之１號","E_COORD97":176878.89000000001,"N_COORD97":2541117.2999999998,"ADDRESS":"民權六街５０之１號","OBJECTID":601415},"geometry":{"x":176878.88999999966,"y":2541117.2999999989}},{"attributes":{"ID":601443,"DIS_CODE":0,"TOWNNAME":"玉井區","LI":"玉田里","LIN":"22鄰","STREET":"民權路","SECT":" ","MAREA":" ","LANE":" ","ALLEY":" ","HOUSE_NO":"１６號","E_COORD97":194982.63,"N_COORD97":2557944.29,"ADDRESS":"民權路１６號","OBJECTID":601416},"geometry":{"x":194982.62999999896,"y":2557944.2899999991}},{"attributes":{"ID":601444,"DIS_CODE":0,"TOWNNAME":"玉井區","LI":"玉田里","LIN":"22鄰","STREET":"民權路","SECT":" ","MAREA":" ","LANE":" ","ALLEY":" ","HOUSE_NO":"２號","E_COORD97":195008.98999999999,"N_COORD97":2557956.2799999998,"ADDRESS":"民權路２號","OBJECTID":601417},"geometry":{"x":195008.99000000022,"y":2557956.2800000031}},{"attributes":{"ID":601445,"DIS_CODE":0,"TOWNNAME":"玉井區","LI":"玉田里","LIN":"22鄰","STREET":"民權路","SECT":" ","MAREA":" ","LANE":" ","ALLEY":" ","HOUSE_NO":"２０號","E_COORD97":194975.23999999999,"N_COORD97":2557941.29,"ADDRESS":"民權路２０號","OBJECTID":601418},"geometry":{"x":194975.24000000022,"y":2557941.2899999991}},{"attributes":{"ID":601446,"DIS_CODE":0,"TOWNNAME":"玉井區","LI":"玉田里","LIN":"22鄰","STREET":"民權路","SECT":" ","MAREA":" ","LANE":" ","ALLEY":" ","HOUSE_NO":"１２號","E_COORD97":194990.34,"N_COORD97":2557947.29,"ADDRESS":"民權路１２號","OBJECTID":601419},"geometry":{"x":194990.34000000078,"y":2557947.290000001}},{"attributes":{"ID":601447,"DIS_CODE":0,"TOWNNAME":"玉井區","LI":"玉田里","LIN":"22鄰","STREET":"神農街","SECT":" ","MAREA":" ","LANE":" ","ALLEY":" ","HOUSE_NO":"４號","E_COORD97":194937.14000000001,"N_COORD97":2557933.2799999998,"ADDRESS":"神農街４號","OBJECTID":601420},"geometry":{"x":194937.1400000006,"y":2557933.2800000012}},{"attributes":{"ID":601448,"DIS_CODE":0,"TOWNNAME":"玉井區","LI":"玉田里","LIN":"22鄰","STREET":"神農街","SECT":" ","MAREA":" ","LANE":" ","ALLEY":" ","HOUSE_NO":"２號","E_COORD97":194946.14000000001,"N_COORD97":2557932.2799999998,"ADDRESS":"神農街２號","OBJECTID":601421},"geometry":{"x":194946.13999999966,"y":2557932.2800000031}},{"attributes":{"ID":601449,"DIS_CODE":0,"TOWNNAME":"玉井區","LI":"玉田里","LIN":"22鄰","STREET":"中華路","SECT":" ","MAREA":" ","LANE":" ","ALLEY":" ","HOUSE_NO":"９４號","E_COORD97":194995.29999999999,"N_COORD97":2558001.2400000002,"ADDRESS":"中華路９４號","OBJECTID":601422},"geometry":{"x":194995.30000000075,"y":2558001.2399999984}},{"attributes":{"ID":601450,"DIS_CODE":0,"TOWNNAME":"玉井區","LI":"玉田里","LIN":"22鄰","STREET":"民權路","SECT":" ","MAREA":" ","LANE":" ","ALLEY":" ","HOUSE_NO":"１０號","E_COORD97":194993.82999999999,"N_COORD97":2557948.29,"ADDRESS":"民權路１０號","OBJECTID":601423},"geometry":{"x":194993.83000000101,"y":2557948.2899999991}},{"attributes":{"ID":601451,"DIS_CODE":0,"TOWNNAME":"玉井區","LI":"玉田里","LIN":"22鄰","STREET":"民權路","SECT":" ","MAREA":" ","LANE":" ","ALLEY":" ","HOUSE_NO":"２２號","E_COORD97":194970.84,"N_COORD97":2557939.29,"ADDRESS":"民權路２２號","OBJECTID":601424},"geometry":{"x":194970.83999999985,"y":2557939.290000001}},{"attributes":{"ID":601452,"DIS_CODE":0,"TOWNNAME":"玉井區","LI":"玉田里","LIN":"22鄰","STREET":"中華路","SECT":" ","MAREA":" ","LANE":" ","ALLEY":" ","HOUSE_NO":"８６號","E_COORD97":194981.10000000001,"N_COORD97":2558014.25,"ADDRESS":"中華路８６號","OBJECTID":601425},"geometry":{"x":194981.10000000149,"y":2558014.25}},{"attributes":{"ID":601453,"DIS_CODE":0,"TOWNNAME":"玉井區","LI":"玉田里","LIN":"22鄰","STREET":"中華路","SECT":" ","MAREA":" ","LANE":" ","ALLEY":" ","HOUSE_NO":"８８號","E_COORD97":194983.29999999999,"N_COORD97":2558012.25,"ADDRESS":"中華路８８號","OBJECTID":601426},"geometry":{"x":194983.30000000168,"y":2558012.2500000019}},{"attributes":{"ID":601454,"DIS_CODE":0,"TOWNNAME":"玉井區","LI":"玉田里","LIN":"22鄰","STREET":"中華路","SECT":" ","MAREA":" ","LANE":" ","ALLEY":" ","HOUSE_NO":"９８號","E_COORD97":195001.10000000001,"N_COORD97":2557993.2400000002,"ADDRESS":"中華路９８號","OBJECTID":601427},"geometry":{"x":195001.09999999963,"y":2557993.2400000002}},{"attributes":{"ID":601455,"DIS_CODE":0,"TOWNNAME":"玉井區","LI":"玉田里","LIN":"22鄰","STREET":"中華路","SECT":" ","MAREA":" ","LANE":" ","ALLEY":" ","HOUSE_NO":"１０８號之１","E_COORD97":195019.29000000001,"N_COORD97":2557982.29,"ADDRESS":"中華路１０８號之１","OBJECTID":601428},"geometry":{"x":195019.29000000097,"y":2557982.2899999991}},{"attributes":{"ID":601456,"DIS_CODE":0,"TOWNNAME":"歸仁區","LI":"新厝里","LIN":"22鄰","STREET":"大成八街","SECT":" ","MAREA":" ","LANE":" ","ALLEY":" ","HOUSE_NO":"４２號","E_COORD97":177603.44,"N_COORD97":2540236.1800000002,"ADDRESS":"大成八街４２號","OBJECTID":601429},"geometry":{"x":177603.44000000041,"y":2540236.1800000016}},{"attributes":{"ID":601457,"DIS_CODE":0,"TOWNNAME":"歸仁區","LI":"新厝里","LIN":"22鄰","STREET":"大成八街","SECT":" ","MAREA":" ","LANE":" ","ALLEY":" ","HOUSE_NO":"３８號","E_COORD97":177609.54000000001,"N_COORD97":2540241.1699999999,"ADDRESS":"大成八街３８號","OBJECTID":601430},"geometry":{"x":177609.5400000019,"y":2540241.1699999999}},{"attributes":{"ID":601458,"DIS_CODE":0,"TOWNNAME":"歸仁區","LI":"新厝里","LIN":"22鄰","STREET":"大成六街","SECT":" ","MAREA":" ","LANE":" ","ALLEY":" ","HOUSE_NO":"５５號","E_COORD97":177577.73999999999,"N_COORD97":2540244.1800000002,"ADDRESS":"大成六街５５號","OBJECTID":601431},"geometry":{"x":177577.73999999929,"y":2540244.1799999997}},{"attributes":{"ID":601459,"DIS_CODE":0,"TOWNNAME":"歸仁區","LI":"新厝里","LIN":"22鄰","STREET":"大成六街","SECT":" ","MAREA":" ","LANE":" ","ALLEY":" ","HOUSE_NO":"３５號","E_COORD97":177585.14000000001,"N_COORD97":2540281.1800000002,"ADDRESS":"大成六街３５號","OBJECTID":601432},"geometry":{"x":177585.1400000006,"y":2540281.1800000016}},{"attributes":{"ID":601460,"DIS_CODE":0,"TOWNNAME":"麻豆區","LI":"油車里","LIN":"22鄰","STREET":"新生北路","SECT":" ","MAREA":" ","LANE":" ","ALLEY":" ","HOUSE_NO":"１號","E_COORD97":172272.82000000001,"N_COORD97":2565076.1200000001,"ADDRESS":"新生北路１號","OBJECTID":601433},"geometry":{"x":172272.8200000003,"y":2565076.1200000029}},{"attributes":{"ID":601461,"DIS_CODE":0,"TOWNNAME":"中西區","LI":"建國里","LIN":"21鄰","STREET":"新美街","SECT":" ","MAREA":" ","LANE":" ","ALLEY":" ","HOUSE_NO":"８０號","E_COORD97":168061.60000000001,"N_COORD97":2543983.1600000001,"ADDRESS":"新美街８０號","OBJECTID":601434},"geometry":{"x":168061.60000000056,"y":2543983.160000002}},{"attributes":{"ID":601462,"DIS_CODE":0,"TOWNNAME":"中西區","LI":"建國里","LIN":"21鄰","STREET":"新美街","SECT":" ","MAREA":" ","LANE":" ","ALLEY":" ","HOUSE_NO":"８２號","E_COORD97":168062.98999999999,"N_COORD97":2543986.71,"ADDRESS":"新美街８２號","OBJECTID":601435},"geometry":{"x":168062.99000000115,"y":2543986.7100000046}},{"attributes":{"ID":601463,"DIS_CODE":0,"TOWNNAME":"中西區","LI":"建國里","LIN":"21鄰","STREET":"新美街","SECT":" ","MAREA":" ","LANE":" ","ALLEY":" ","HOUSE_NO":"８６號","E_COORD97":168065.72,"N_COORD97":2543994.23,"ADDRESS":"新美街８６號","OBJECTID":601436},"geometry":{"x":168065.7200000016,"y":2543994.2300000023}},{"attributes":{"ID":601464,"DIS_CODE":0,"TOWNNAME":"中西區","LI":"建國里","LIN":"21鄰","STREET":"新美街","SECT":" ","MAREA":" ","LANE":" ","ALLEY":" ","HOUSE_NO":"８８號","E_COORD97":168052.98999999999,"N_COORD97":2544001.3100000001,"ADDRESS":"新美街８８號","OBJECTID":601437},"geometry":{"x":168052.99000000115,"y":2544001.3100000005}},{"attributes":{"ID":601465,"DIS_CODE":0,"TOWNNAME":"中西區","LI":"建國里","LIN":"21鄰","STREET":"新美街","SECT":" ","MAREA":" ","LANE":" ","ALLEY":" ","HOUSE_NO":"９０號","E_COORD97":168054.22,"N_COORD97":2544008.8100000001,"ADDRESS":"新美街９０號","OBJECTID":601438},"geometry":{"x":168054.22000000067,"y":2544008.8100000005}},{"attributes":{"ID":601466,"DIS_CODE":0,"TOWNNAME":"中西區","LI":"建國里","LIN":"21鄰","STREET":"新美街","SECT":" ","MAREA":" ","LANE":" ","ALLEY":" ","HOUSE_NO":"９２號","E_COORD97":168040.79999999999,"N_COORD97":2544015.5899999999,"ADDRESS":"新美街９２號","OBJECTID":601439},"geometry":{"x":168040.79999999981,"y":2544015.5899999999}},{"attributes":{"ID":601467,"DIS_CODE":0,"TOWNNAME":"安平區","LI":"西門里","LIN":"14鄰","STREET":"安北路","SECT":" ","MAREA":" ","LANE":" ","ALLEY":" ","HOUSE_NO":"１８５號","E_COORD97":163896.29999999999,"N_COORD97":2544810.8700000001,"ADDRESS":"安北路１８５號","OBJECTID":601440},"geometry":{"x":163896.29999999981,"y":2544810.8700000029}},{"attributes":{"ID":601468,"DIS_CODE":0,"TOWNNAME":"安平區","LI":"西門里","LIN":"14鄰","STREET":"安北路","SECT":" ","MAREA":" ","LANE":" ","ALLEY":" ","HOUSE_NO":"１８７號","E_COORD97":163891.28,"N_COORD97":2544809.2000000002,"ADDRESS":"安北路１８７號","OBJECTID":601441},"geometry":{"x":163891.28000000119,"y":2544809.2000000011}},{"attributes":{"ID":601469,"DIS_CODE":0,"TOWNNAME":"安平區","LI":"西門里","LIN":"14鄰","STREET":"安北路","SECT":" ","MAREA":" ","LANE":" ","ALLEY":" ","HOUSE_NO":"１８９號","E_COORD97":163885.32999999999,"N_COORD97":2544808.04,"ADDRESS":"安北路１８９號","OBJECTID":601442},"geometry":{"x":163885.33000000101,"y":2544808.0399999991}},{"attributes":{"ID":601470,"DIS_CODE":0,"TOWNNAME":"安平區","LI":"西門里","LIN":"14鄰","STREET":"安北路","SECT":" ","MAREA":" ","LANE":" ","ALLEY":" ","HOUSE_NO":"１９３號","E_COORD97":163873.64999999999,"N_COORD97":2544806.0699999998,"ADDRESS":"安北路１９３號","OBJECTID":601443},"geometry":{"x":163873.6500000013,"y":2544806.0700000003}},{"attributes":{"ID":601471,"DIS_CODE":0,"TOWNNAME":"安平區","LI":"西門里","LIN":"14鄰","STREET":"安北路","SECT":" ","MAREA":" ","LANE":" ","ALLEY":" ","HOUSE_NO":"１９５號","E_COORD97":163868.07000000001,"N_COORD97":2544805.1899999999,"ADDRESS":"安北路１９５號","OBJECTID":601444},"geometry":{"x":163868.0700000003,"y":2544805.1899999995}},{"attributes":{"ID":601472,"DIS_CODE":0,"TOWNNAME":"安平區","LI":"西門里","LIN":"14鄰","STREET":"安北路","SECT":" ","MAREA":" ","LANE":" ","ALLEY":" ","HOUSE_NO":"１９７號","E_COORD97":163863.42999999999,"N_COORD97":2544803.6499999999,"ADDRESS":"安北路１９７號","OBJECTID":601445},"geometry":{"x":163863.4299999997,"y":2544803.6500000041}},{"attributes":{"ID":601473,"DIS_CODE":0,"TOWNNAME":"中西區","LI":"銀同里","LIN":"13鄰","STREET":"開山路","SECT":" ","MAREA":" ","LANE":" ","ALLEY":" ","HOUSE_NO":"９號","E_COORD97":168572.78,"N_COORD97":2543607.96,"ADDRESS":"開山路９號","OBJECTID":601446},"geometry":{"x":168572.78000000212,"y":2543607.9600000009}},{"attributes":{"ID":601474,"DIS_CODE":0,"TOWNNAME":"安平區","LI":"西門里","LIN":"14鄰","STREET":"安北路","SECT":" ","MAREA":" ","LANE":" ","ALLEY":" ","HOUSE_NO":"１９９號","E_COORD97":163859.07000000001,"N_COORD97":2544801.77,"ADDRESS":"安北路１９９號","OBJECTID":601447},"geometry":{"x":163859.0700000003,"y":2544801.7700000033}},{"attributes":{"ID":601475,"DIS_CODE":0,"TOWNNAME":"安平區","LI":"西門里","LIN":"14鄰","STREET":"安北路","SECT":" ","MAREA":" ","LANE":" ","ALLEY":" ","HOUSE_NO":"２０１號","E_COORD97":163853.88,"N_COORD97":2544800.6699999999,"ADDRESS":"安北路２０１號","OBJECTID":601448},"geometry":{"x":163853.87999999896,"y":2544800.6700000018}},{"attributes":{"ID":601476,"DIS_CODE":0,"TOWNNAME":"安平區","LI":"西門里","LIN":"14鄰","STREET":"安北路","SECT":" ","MAREA":" ","LANE":" ","ALLEY":" ","HOUSE_NO":"２０３號","E_COORD97":163849.23999999999,"N_COORD97":2544799.1200000001,"ADDRESS":"安北路２０３號","OBJECTID":601449},"geometry":{"x":163849.24000000115,"y":2544799.1200000029}},{"attributes":{"ID":601477,"DIS_CODE":0,"TOWNNAME":"安平區","LI":"西門里","LIN":"14鄰","STREET":"安北路","SECT":" ","MAREA":" ","LANE":" ","ALLEY":" ","HOUSE_NO":"２０５號","E_COORD97":163844.38,"N_COORD97":2544798.1299999999,"ADDRESS":"安北路２０５號","OBJECTID":601450},"geometry":{"x":163844.38000000082,"y":2544798.129999999}},{"attributes":{"ID":601478,"DIS_CODE":0,"TOWNNAME":"安平區","LI":"西門里","LIN":"14鄰","STREET":"安北路","SECT":" ","MAREA":" ","LANE":" ","ALLEY":" ","HOUSE_NO":"２０７號","E_COORD97":163837.41,"N_COORD97":2544795.98,"ADDRESS":"安北路２０７號","OBJECTID":601451},"geometry":{"x":163837.41000000108,"y":2544795.9800000023}},{"attributes":{"ID":601479,"DIS_CODE":0,"TOWNNAME":"中西區","LI":"建國里","LIN":"14鄰","STREET":"民生路","SECT":"一段","MAREA":" ","LANE":" ","ALLEY":" ","HOUSE_NO":"１４２號","E_COORD97":168051.29000000001,"N_COORD97":2543861.0600000001,"ADDRESS":"民生路一段１４２號","OBJECTID":601452},"geometry":{"x":168051.29000000004,"y":2543861.0600000005}},{"attributes":{"ID":601480,"DIS_CODE":0,"TOWNNAME":"中西區","LI":"建國里","LIN":"14鄰","STREET":"民生路","SECT":"一段","MAREA":" ","LANE":" ","ALLEY":" ","HOUSE_NO":"１４４號","E_COORD97":168047.69,"N_COORD97":2543862.0600000001,"ADDRESS":"民生路一段１４４號","OBJECTID":601453},"geometry":{"x":168047.69000000041,"y":2543862.0600000024}},{"attributes":{"ID":601481,"DIS_CODE":0,"TOWNNAME":"六甲區","LI":"六甲里","LIN":"22鄰","STREET":"建國街","SECT":" ","MAREA":" ","LANE":" ","ALLEY":" ","HOUSE_NO":"５７號","E_COORD97":183696.39000000001,"N_COORD97":2570023.3100000001,"ADDRESS":"建國街５７號","OBJECTID":601454},"geometry":{"x":183696.3900000006,"y":2570023.3099999987}},{"attributes":{"ID":601482,"DIS_CODE":0,"TOWNNAME":"六甲區","LI":"六甲里","LIN":"22鄰","STREET":"建國街","SECT":" ","MAREA":" ","LANE":" ","ALLEY":" ","HOUSE_NO":"６７號","E_COORD97":183699.41,"N_COORD97":2570057.7000000002,"ADDRESS":"建國街６７號","OBJECTID":601455},"geometry":{"x":183699.41000000015,"y":2570057.7000000011}},{"attributes":{"ID":601483,"DIS_CODE":0,"TOWNNAME":"六甲區","LI":"六甲里","LIN":"22鄰","STREET":"建國街","SECT":" ","MAREA":" ","LANE":" ","ALLEY":" ","HOUSE_NO":"７３號","E_COORD97":183702.79000000001,"N_COORD97":2570080.6299999999,"ADDRESS":"建國街７３號","OBJECTID":601456},"geometry":{"x":183702.79000000097,"y":2570080.6300000027}},{"attributes":{"ID":601484,"DIS_CODE":0,"TOWNNAME":"六甲區","LI":"六甲里","LIN":"22鄰","STREET":"建國街","SECT":" ","MAREA":" ","LANE":" ","ALLEY":" ","HOUSE_NO":"７５號","E_COORD97":183703.48000000001,"N_COORD97":2570085.5600000001,"ADDRESS":"建國街７５號","OBJECTID":601457},"geometry":{"x":183703.48000000138,"y":2570085.5600000005}},{"attributes":{"ID":601485,"DIS_CODE":0,"TOWNNAME":"六甲區","LI":"六甲里","LIN":"22鄰","STREET":"建國街","SECT":" ","MAREA":" ","LANE":" ","ALLEY":" ","HOUSE_NO":"７７號","E_COORD97":183703.75,"N_COORD97":2570090.3300000001,"ADDRESS":"建國街７７號","OBJECTID":601458},"geometry":{"x":183703.75,"y":2570090.3300000001}},{"attributes":{"ID":601486,"DIS_CODE":0,"TOWNNAME":"中西區","LI":"永福里","LIN":"13鄰","STREET":"民權路","SECT":"二段","MAREA":" ","LANE":" ","ALLEY":" ","HOUSE_NO":"１６１號","E_COORD97":168294.62,"N_COORD97":2543943.5,"ADDRESS":"民權路二段１６１號","OBJECTID":601459},"geometry":{"x":168294.62000000104,"y":2543943.5000000019}},{"attributes":{"ID":601487,"DIS_CODE":0,"TOWNNAME":"中西區","LI":"永福里","LIN":"13鄰","STREET":"民權路","SECT":"二段","MAREA":" ","LANE":" ","ALLEY":" ","HOUSE_NO":"１６５號","E_COORD97":168287.87,"N_COORD97":2543946.0499999998,"ADDRESS":"民權路二段１６５號","OBJECTID":601460},"geometry":{"x":168287.87000000104,"y":2543946.0500000007}},{"attributes":{"ID":601488,"DIS_CODE":0,"TOWNNAME":"中西區","LI":"永福里","LIN":"13鄰","STREET":"民權路","SECT":"二段","MAREA":" ","LANE":" ","ALLEY":" ","HOUSE_NO":"１６７號","E_COORD97":168284.04000000001,"N_COORD97":2543946.96,"ADDRESS":"民權路二段１６７號","OBJECTID":601461},"geometry":{"x":168284.04000000004,"y":2543946.9600000009}},{"attributes":{"ID":601489,"DIS_CODE":0,"TOWNNAME":"中西區","LI":"永福里","LIN":"13鄰","STREET":"民權路","SECT":"二段","MAREA":" ","LANE":" ","ALLEY":" ","HOUSE_NO":"１７１號","E_COORD97":168278.39999999999,"N_COORD97":2543949.7000000002,"ADDRESS":"民權路二段１７１號","OBJECTID":601462},"geometry":{"x":168278.40000000037,"y":2543949.6999999993}},{"attributes":{"ID":601490,"DIS_CODE":0,"TOWNNAME":"中西區","LI":"永福里","LIN":"13鄰","STREET":"民權路","SECT":"二段","MAREA":" ","LANE":" ","ALLEY":" ","HOUSE_NO":"１７３號","E_COORD97":168271.59,"N_COORD97":2543951.04,"ADDRESS":"民權路二段１７３號","OBJECTID":601463},"geometry":{"x":168271.58999999985,"y":2543951.0399999991}},{"attributes":{"ID":601491,"DIS_CODE":0,"TOWNNAME":"中西區","LI":"永福里","LIN":"13鄰","STREET":"民權路","SECT":"二段","MAREA":" ","LANE":" ","ALLEY":" ","HOUSE_NO":"１７５號","E_COORD97":168268.67000000001,"N_COORD97":2543952.1299999999,"ADDRESS":"民權路二段１７５號","OBJECTID":601464},"geometry":{"x":168268.67000000086,"y":2543952.1300000008}},{"attributes":{"ID":601492,"DIS_CODE":0,"TOWNNAME":"中西區","LI":"永福里","LIN":"13鄰","STREET":"民權路","SECT":"二段","MAREA":" ","LANE":" ","ALLEY":" ","HOUSE_NO":"１７７號","E_COORD97":168265.01999999999,"N_COORD97":2543954.1400000001,"ADDRESS":"民權路二段１７７號","OBJECTID":601465},"geometry":{"x":168265.01999999955,"y":2543954.1400000025}},{"attributes":{"ID":601493,"DIS_CODE":0,"TOWNNAME":"中西區","LI":"永福里","LIN":"13鄰","STREET":"民權路","SECT":"二段","MAREA":" ","LANE":" ","ALLEY":" ","HOUSE_NO":"１７９號","E_COORD97":168258.09,"N_COORD97":2543956.5,"ADDRESS":"民權路二段１７９號","OBJECTID":601466},"geometry":{"x":168258.08999999985,"y":2543956.5000000037}},{"attributes":{"ID":601494,"DIS_CODE":0,"TOWNNAME":"六甲區","LI":"六甲里","LIN":"22鄰","STREET":"建國街","SECT":" ","MAREA":" ","LANE":" ","ALLEY":" ","HOUSE_NO":"８１號","E_COORD97":183708.14000000001,"N_COORD97":2570096.5600000001,"ADDRESS":"建國街８１號","OBJECTID":601467},"geometry":{"x":183708.1400000006,"y":2570096.5600000042}},{"attributes":{"ID":601495,"DIS_CODE":0,"TOWNNAME":"六甲區","LI":"六甲里","LIN":"22鄰","STREET":"建國街","SECT":" ","MAREA":" ","LANE":" ","ALLEY":" ","HOUSE_NO":"８５號","E_COORD97":183706.67999999999,"N_COORD97":2570108.3999999999,"ADDRESS":"建國街８５號","OBJECTID":601468},"geometry":{"x":183706.6799999997,"y":2570108.4000000022}},{"attributes":{"ID":601496,"DIS_CODE":0,"TOWNNAME":"六甲區","LI":"六甲里","LIN":"22鄰","STREET":"建國街","SECT":" ","MAREA":" ","LANE":" ","ALLEY":" ","HOUSE_NO":"９１號","E_COORD97":183707.91,"N_COORD97":2570123.5299999998,"ADDRESS":"建國街９１號","OBJECTID":601469},"geometry":{"x":183707.91000000015,"y":2570123.5300000012}},{"attributes":{"ID":601497,"DIS_CODE":0,"TOWNNAME":"六甲區","LI":"六甲里","LIN":"22鄰","STREET":"建國街","SECT":" ","MAREA":" ","LANE":" ","ALLEY":" ","HOUSE_NO":"９３號","E_COORD97":183708.17000000001,"N_COORD97":2570127.3900000001,"ADDRESS":"建國街９３號","OBJECTID":601470},"geometry":{"x":183708.17000000086,"y":2570127.3900000006}},{"attributes":{"ID":601498,"DIS_CODE":0,"TOWNNAME":"六甲區","LI":"六甲里","LIN":"22鄰","STREET":"建國街","SECT":" ","MAREA":" ","LANE":" ","ALLEY":" ","HOUSE_NO":"９５號","E_COORD97":183708.75,"N_COORD97":2570131.7000000002,"ADDRESS":"建國街９５號","OBJECTID":601471},"geometry":{"x":183708.75,"y":2570131.7000000011}},{"attributes":{"ID":601499,"DIS_CODE":0,"TOWNNAME":"六甲區","LI":"六甲里","LIN":"22鄰","STREET":"建國街","SECT":" ","MAREA":" ","LANE":" ","ALLEY":" ","HOUSE_NO":"９７號","E_COORD97":183711.60000000001,"N_COORD97":2570139.7200000002,"ADDRESS":"建國街９７號","OBJECTID":601472},"geometry":{"x":183711.60000000056,"y":2570139.7200000044}},{"attributes":{"ID":601500,"DIS_CODE":0,"TOWNNAME":"六甲區","LI":"六甲里","LIN":"22鄰","STREET":"復興街","SECT":" ","MAREA":" ","LANE":" ","ALLEY":" ","HOUSE_NO":"１００號","E_COORD97":183699.88,"N_COORD97":2569975.46,"ADDRESS":"復興街１００號","OBJECTID":601473},"geometry":{"x":183699.88000000082,"y":2569975.4600000046}},{"attributes":{"ID":601501,"DIS_CODE":0,"TOWNNAME":"六甲區","LI":"六甲里","LIN":"22鄰","STREET":"復興街","SECT":" ","MAREA":" ","LANE":" ","ALLEY":" ","HOUSE_NO":"１０２號","E_COORD97":183694.07999999999,"N_COORD97":2569975.3199999998,"ADDRESS":"復興街１０２號","OBJECTID":601474},"geometry":{"x":183694.08000000101,"y":2569975.3200000003}},{"attributes":{"ID":601502,"DIS_CODE":0,"TOWNNAME":"六甲區","LI":"六甲里","LIN":"22鄰","STREET":"復興街","SECT":" ","MAREA":" ","LANE":" ","ALLEY":" ","HOUSE_NO":"１０４號","E_COORD97":183689.98000000001,"N_COORD97":2569975.9399999999,"ADDRESS":"復興街１０４號","OBJECTID":601475},"geometry":{"x":183689.98000000138,"y":2569975.9399999995}},{"attributes":{"ID":601503,"DIS_CODE":0,"TOWNNAME":"六甲區","LI":"六甲里","LIN":"22鄰","STREET":"復興街","SECT":" ","MAREA":" ","LANE":" ","ALLEY":" ","HOUSE_NO":"１０６號","E_COORD97":183685.70999999999,"N_COORD97":2569976.7400000002,"ADDRESS":"復興街１０６號","OBJECTID":601476},"geometry":{"x":183685.71000000089,"y":2569976.7400000021}},{"attributes":{"ID":601504,"DIS_CODE":0,"TOWNNAME":"六甲區","LI":"六甲里","LIN":"22鄰","STREET":"復興街","SECT":" ","MAREA":" ","LANE":" ","ALLEY":" ","HOUSE_NO":"１０８之１號","E_COORD97":183677.89999999999,"N_COORD97":2569978.0699999998,"ADDRESS":"復興街１０８之１號","OBJECTID":601477},"geometry":{"x":183677.90000000224,"y":2569978.0700000022}},{"attributes":{"ID":601505,"DIS_CODE":0,"TOWNNAME":"六甲區","LI":"六甲里","LIN":"22鄰","STREET":"復興街","SECT":" ","MAREA":" ","LANE":" ","ALLEY":" ","HOUSE_NO":"１０８號","E_COORD97":183682,"N_COORD97":2569977.1400000001,"ADDRESS":"復興街１０８號","OBJECTID":601478},"geometry":{"x":183682.00000000186,"y":2569977.1399999987}},{"attributes":{"ID":601506,"DIS_CODE":0,"TOWNNAME":"六甲區","LI":"六甲里","LIN":"22鄰","STREET":"復興街","SECT":" ","MAREA":" ","LANE":" ","ALLEY":" ","HOUSE_NO":"１１０號","E_COORD97":183673.85999999999,"N_COORD97":2569978.5299999998,"ADDRESS":"復興街１１０號","OBJECTID":601479},"geometry":{"x":183673.86000000127,"y":2569978.5299999993}},{"attributes":{"ID":601507,"DIS_CODE":0,"TOWNNAME":"六甲區","LI":"六甲里","LIN":"22鄰","STREET":"復興街","SECT":" ","MAREA":" ","LANE":" ","ALLEY":" ","HOUSE_NO":"１１２號","E_COORD97":183669.92000000001,"N_COORD97":2569979.5099999998,"ADDRESS":"復興街１１２號","OBJECTID":601480},"geometry":{"x":183669.91999999993,"y":2569979.5099999998}},{"attributes":{"ID":601508,"DIS_CODE":0,"TOWNNAME":"六甲區","LI":"六甲里","LIN":"22鄰","STREET":"復興街","SECT":" ","MAREA":" ","LANE":" ","ALLEY":" ","HOUSE_NO":"１１４號","E_COORD97":183666.32999999999,"N_COORD97":2569980.3999999999,"ADDRESS":"復興街１１４號","OBJECTID":601481},"geometry":{"x":183666.33000000101,"y":2569980.4000000004}},{"attributes":{"ID":601509,"DIS_CODE":0,"TOWNNAME":"六甲區","LI":"六甲里","LIN":"22鄰","STREET":"復興街","SECT":" ","MAREA":" ","LANE":" ","ALLEY":" ","HOUSE_NO":"１１６號","E_COORD97":183662.29000000001,"N_COORD97":2569981.4100000001,"ADDRESS":"復興街１１６號","OBJECTID":601482},"geometry":{"x":183662.29000000004,"y":2569981.4100000001}},{"attributes":{"ID":601510,"DIS_CODE":0,"TOWNNAME":"六甲區","LI":"六甲里","LIN":"22鄰","STREET":"復興街","SECT":" ","MAREA":" ","LANE":" ","ALLEY":" ","HOUSE_NO":"１１８號","E_COORD97":183657.95000000001,"N_COORD97":2569982.3199999998,"ADDRESS":"復興街１１８號","OBJECTID":601483},"geometry":{"x":183657.95000000019,"y":2569982.3199999984}},{"attributes":{"ID":601511,"DIS_CODE":0,"TOWNNAME":"新營區","LI":"南紙里","LIN":"22鄰","STREET":"建業路","SECT":" ","MAREA":" ","LANE":" ","ALLEY":" ","HOUSE_NO":"２１９號","E_COORD97":178142.54999999999,"N_COORD97":2577501.8500000001,"ADDRESS":"建業路２１９號","OBJECTID":601484},"geometry":{"x":178142.54999999981,"y":2577501.8500000015}},{"attributes":{"ID":601512,"DIS_CODE":0,"TOWNNAME":"新營區","LI":"三仙里","LIN":"22鄰","STREET":"民治路","SECT":" ","MAREA":" ","LANE":" ","ALLEY":" ","HOUSE_NO":"７０之１０號","E_COORD97":179634.67000000001,"N_COORD97":2578851.3799999999,"ADDRESS":"民治路７０之１０號","OBJECTID":601485},"geometry":{"x":179634.67000000086,"y":2578851.3800000008}},{"attributes":{"ID":601513,"DIS_CODE":0,"TOWNNAME":"新營區","LI":"興業里","LIN":"22鄰","STREET":"中興路","SECT":" ","MAREA":" ","LANE":" ","ALLEY":" ","HOUSE_NO":"９號之４","E_COORD97":180143.48999999999,"N_COORD97":2578046.0499999998,"ADDRESS":"中興路９號之４","OBJECTID":601486},"geometry":{"x":180143.49000000115,"y":2578046.0500000007}},{"attributes":{"ID":601514,"DIS_CODE":0,"TOWNNAME":"新營區","LI":"南紙里","LIN":"22鄰","STREET":"建業路","SECT":" ","MAREA":" ","LANE":" ","ALLEY":" ","HOUSE_NO":"２０３號","E_COORD97":178179.35999999999,"N_COORD97":2577499.46,"ADDRESS":"建業路２０３號","OBJECTID":601487},"geometry":{"x":178179.36000000127,"y":2577499.4600000028}},{"attributes":{"ID":601515,"DIS_CODE":0,"TOWNNAME":"新營區","LI":"南紙里","LIN":"22鄰","STREET":"建業路","SECT":" ","MAREA":" ","LANE":" ","ALLEY":" ","HOUSE_NO":"２０９號","E_COORD97":178166.07000000001,"N_COORD97":2577500.6299999999,"ADDRESS":"建業路２０９號","OBJECTID":601488},"geometry":{"x":178166.07000000123,"y":2577500.629999999}},{"attributes":{"ID":601516,"DIS_CODE":0,"TOWNNAME":"新營區","LI":"興業里","LIN":"22鄰","STREET":"中興路","SECT":" ","MAREA":" ","LANE":" ","ALLEY":" ","HOUSE_NO":"９之６號","E_COORD97":180142.76000000001,"N_COORD97":2578038.3100000001,"ADDRESS":"中興路９之６號","OBJECTID":601489},"geometry":{"x":180142.76000000071,"y":2578038.3100000042}},{"attributes":{"ID":601517,"DIS_CODE":0,"TOWNNAME":"新營區","LI":"王公里","LIN":"22鄰","STREET":"義和街","SECT":" ","MAREA":" ","LANE":" ","ALLEY":" ","HOUSE_NO":"６０之１１號","E_COORD97":180556.14000000001,"N_COORD97":2579488.2400000002,"ADDRESS":"義和街６０之１１號","OBJECTID":601490},"geometry":{"x":180556.13999999966,"y":2579488.2400000002}},{"attributes":{"ID":601518,"DIS_CODE":0,"TOWNNAME":"新營區","LI":"王公里","LIN":"22鄰","STREET":"民族路","SECT":" ","MAREA":" ","LANE":" ","ALLEY":" ","HOUSE_NO":"２２４號","E_COORD97":180380.69,"N_COORD97":2579453.5699999998,"ADDRESS":"民族路２２４號","OBJECTID":601491},"geometry":{"x":180380.69000000134,"y":2579453.570000004}},{"attributes":{"ID":601519,"DIS_CODE":0,"TOWNNAME":"新營區","LI":"南紙里","LIN":"22鄰","STREET":"建業路","SECT":" ","MAREA":" ","LANE":" ","ALLEY":" ","HOUSE_NO":"２０５號","E_COORD97":178175.26999999999,"N_COORD97":2577499.48,"ADDRESS":"建業路２０５號","OBJECTID":601492},"geometry":{"x":178175.27000000142,"y":2577499.4800000023}},{"attributes":{"ID":601520,"DIS_CODE":0,"TOWNNAME":"新營區","LI":"王公里","LIN":"22鄰","STREET":"民族路","SECT":" ","MAREA":" ","LANE":" ","ALLEY":" ","HOUSE_NO":"１６８號","E_COORD97":180450.98999999999,"N_COORD97":2579412.2599999998,"ADDRESS":"民族路１６８號","OBJECTID":601493},"geometry":{"x":180450.99000000022,"y":2579412.2600000016}},{"attributes":{"ID":601521,"DIS_CODE":0,"TOWNNAME":"新營區","LI":"王公里","LIN":"22鄰","STREET":"民族路","SECT":" ","MAREA":" ","LANE":" ","ALLEY":" ","HOUSE_NO":"１７４號","E_COORD97":180365.84,"N_COORD97":2579355.0800000001,"ADDRESS":"民族路１７４號","OBJECTID":601494},"geometry":{"x":180365.84000000078,"y":2579355.0800000038}},{"attributes":{"ID":601522,"DIS_CODE":0,"TOWNNAME":"新營區","LI":"興業里","LIN":"22鄰","STREET":"中興路","SECT":" ","MAREA":" ","LANE":" ","ALLEY":" ","HOUSE_NO":"９號之１","E_COORD97":180143.51999999999,"N_COORD97":2578058.23,"ADDRESS":"中興路９號之１","OBJECTID":601495},"geometry":{"x":180143.52000000142,"y":2578058.2300000004}},{"attributes":{"ID":601523,"DIS_CODE":0,"TOWNNAME":"新營區","LI":"興業里","LIN":"22鄰","STREET":"中興路","SECT":" ","MAREA":" ","LANE":" ","ALLEY":" ","HOUSE_NO":"９號之５","E_COORD97":180143.59,"N_COORD97":2578041.6200000001,"ADDRESS":"中興路９號之５","OBJECTID":601496},"geometry":{"x":180143.59000000078,"y":2578041.6200000029}},{"attributes":{"ID":601524,"DIS_CODE":0,"TOWNNAME":"新營區","LI":"王公里","LIN":"22鄰","STREET":"大勇街","SECT":" ","MAREA":" ","LANE":" ","ALLEY":" ","HOUSE_NO":"９８號","E_COORD97":180460.04999999999,"N_COORD97":2579434.3599999999,"ADDRESS":"大勇街９８號","OBJECTID":601497},"geometry":{"x":180460.04999999981,"y":2579434.3600000013}},{"attributes":{"ID":601525,"DIS_CODE":0,"TOWNNAME":"新營區","LI":"王公里","LIN":"22鄰","STREET":"民族路","SECT":" ","MAREA":" ","LANE":" ","ALLEY":" ","HOUSE_NO":"２３４號","E_COORD97":180384.92000000001,"N_COORD97":2579483.4500000002,"ADDRESS":"民族路２３４號","OBJECTID":601498},"geometry":{"x":180384.91999999993,"y":2579483.4499999993}},{"attributes":{"ID":601526,"DIS_CODE":0,"TOWNNAME":"新營區","LI":"興業里","LIN":"22鄰","STREET":"中興路","SECT":" ","MAREA":" ","LANE":" ","ALLEY":" ","HOUSE_NO":"３號","E_COORD97":180146.76000000001,"N_COORD97":2578090.27,"ADDRESS":"中興路３號","OBJECTID":601499},"geometry":{"x":180146.75999999978,"y":2578090.2699999996}},{"attributes":{"ID":601527,"DIS_CODE":0,"TOWNNAME":"新營區","LI":"王公里","LIN":"22鄰","STREET":"民族路","SECT":" ","MAREA":" ","LANE":" ","ALLEY":" ","HOUSE_NO":"１７０號","E_COORD97":180364.76999999999,"N_COORD97":2579347.3300000001,"ADDRESS":"民族路１７０號","OBJECTID":601500},"geometry":{"x":180364.76999999955,"y":2579347.3300000019}},{"attributes":{"ID":601528,"DIS_CODE":0,"TOWNNAME":"新營區","LI":"王公里","LIN":"22鄰","STREET":"民族路","SECT":" ","MAREA":" ","LANE":" ","ALLEY":" ","HOUSE_NO":"１７６號","E_COORD97":180366.88,"N_COORD97":2579359.5,"ADDRESS":"民族路１７６號","OBJECTID":601501},"geometry":{"x":180366.88000000175,"y":2579359.5000000019}},{"attributes":{"ID":601529,"DIS_CODE":0,"TOWNNAME":"新營區","LI":"王公里","LIN":"22鄰","STREET":"大勇街","SECT":" ","MAREA":" ","LANE":" ","ALLEY":" ","HOUSE_NO":"９９號","E_COORD97":180477.62,"N_COORD97":2579474.1499999999,"ADDRESS":"大勇街９９號","OBJECTID":601502},"geometry":{"x":180477.62000000104,"y":2579474.1500000022}},{"attributes":{"ID":601530,"DIS_CODE":0,"TOWNNAME":"新營區","LI":"王公里","LIN":"22鄰","STREET":"民族路","SECT":" ","MAREA":" ","LANE":" ","ALLEY":" ","HOUSE_NO":"１６９號","E_COORD97":180451.01999999999,"N_COORD97":2579416.6899999999,"ADDRESS":"民族路１６９號","OBJECTID":601503},"geometry":{"x":180451.02000000048,"y":2579416.6899999995}},{"attributes":{"ID":601531,"DIS_CODE":0,"TOWNNAME":"新營區","LI":"王公里","LIN":"22鄰","STREET":"民族路","SECT":" ","MAREA":" ","LANE":" ","ALLEY":" ","HOUSE_NO":"２２６號","E_COORD97":180381.73000000001,"N_COORD97":2579457.9900000002,"ADDRESS":"民族路２２６號","OBJECTID":601504},"geometry":{"x":180381.73000000045,"y":2579457.9900000021}},{"attributes":{"ID":601532,"DIS_CODE":0,"TOWNNAME":"中西區","LI":"永福里","LIN":"13鄰","STREET":"忠義路","SECT":"二段","MAREA":" ","LANE":" ","ALLEY":" ","HOUSE_NO":"１２９號","E_COORD97":168325.79999999999,"N_COORD97":2543902.7400000002,"ADDRESS":"忠義路二段１２９號","OBJECTID":601505},"geometry":{"x":168325.79999999981,"y":2543902.7400000002}},{"attributes":{"ID":601533,"DIS_CODE":0,"TOWNNAME":"中西區","LI":"永福里","LIN":"13鄰","STREET":"忠義路","SECT":"二段","MAREA":" ","LANE":" ","ALLEY":" ","HOUSE_NO":"１３１號","E_COORD97":168326.73000000001,"N_COORD97":2543905.4199999999,"ADDRESS":"忠義路二段１３１號","OBJECTID":601506},"geometry":{"x":168326.73000000045,"y":2543905.4199999999}},{"attributes":{"ID":601534,"DIS_CODE":0,"TOWNNAME":"中西區","LI":"永福里","LIN":"13鄰","STREET":"忠義路","SECT":"二段","MAREA":" ","LANE":" ","ALLEY":" ","HOUSE_NO":"１３３號","E_COORD97":168327.32000000001,"N_COORD97":2543908.5800000001,"ADDRESS":"忠義路二段１３３號","OBJECTID":601507},"geometry":{"x":168327.32000000123,"y":2543908.5800000038}},{"attributes":{"ID":601535,"DIS_CODE":0,"TOWNNAME":"中西區","LI":"永福里","LIN":"13鄰","STREET":"忠義路","SECT":"二段","MAREA":" ","LANE":" ","ALLEY":" ","HOUSE_NO":"１３５號","E_COORD97":168328.25,"N_COORD97":2543911.2599999998,"ADDRESS":"忠義路二段１３５號","OBJECTID":601508},"geometry":{"x":168328.25,"y":2543911.2600000016}},{"attributes":{"ID":601536,"DIS_CODE":0,"TOWNNAME":"中西區","LI":"永福里","LIN":"13鄰","STREET":"忠義路","SECT":"二段","MAREA":" ","LANE":" ","ALLEY":" ","HOUSE_NO":"１３７號","E_COORD97":168329.42000000001,"N_COORD97":2543914.7599999998,"ADDRESS":"忠義路二段１３７號","OBJECTID":601509},"geometry":{"x":168329.42000000086,"y":2543914.7600000016}},{"attributes":{"ID":601537,"DIS_CODE":0,"TOWNNAME":"中西區","LI":"永福里","LIN":"13鄰","STREET":"忠義路","SECT":"二段","MAREA":" ","LANE":" ","ALLEY":" ","HOUSE_NO":"１３９號","E_COORD97":168330.59,"N_COORD97":2543919.0800000001,"ADDRESS":"忠義路二段１３９號","OBJECTID":601510},"geometry":{"x":168330.58999999985,"y":2543919.0800000019}},{"attributes":{"ID":601538,"DIS_CODE":0,"TOWNNAME":"中西區","LI":"永福里","LIN":"13鄰","STREET":"忠義路","SECT":"二段","MAREA":" ","LANE":" ","ALLEY":" ","HOUSE_NO":"１４１號","E_COORD97":168332.23000000001,"N_COORD97":2543922.8199999998,"ADDRESS":"忠義路二段１４１號","OBJECTID":601511},"geometry":{"x":168332.23000000045,"y":2543922.8200000003}},{"attributes":{"ID":601539,"DIS_CODE":0,"TOWNNAME":"中西區","LI":"永福里","LIN":"13鄰","STREET":"忠義路","SECT":"二段","MAREA":" ","LANE":" ","ALLEY":" ","HOUSE_NO":"１４３號","E_COORD97":168333.28,"N_COORD97":2543925.8599999999,"ADDRESS":"忠義路二段１４３號","OBJECTID":601512},"geometry":{"x":168333.28000000026,"y":2543925.8599999994}},{"attributes":{"ID":601540,"DIS_CODE":0,"TOWNNAME":"中西區","LI":"永福里","LIN":"11鄰","STREET":"永福路","SECT":"二段","MAREA":" ","LANE":" ","ALLEY":" ","HOUSE_NO":"１３０號","E_COORD97":168127.54000000001,"N_COORD97":2543841.5699999998,"ADDRESS":"永福路二段１３０號","OBJECTID":601513},"geometry":{"x":168127.54000000004,"y":2543841.5700000022}},{"attributes":{"ID":601541,"DIS_CODE":0,"TOWNNAME":"中西區","LI":"永福里","LIN":"11鄰","STREET":"永福路","SECT":"二段","MAREA":" ","LANE":" ","ALLEY":" ","HOUSE_NO":"１３２號","E_COORD97":168128.79000000001,"N_COORD97":2543846.3100000001,"ADDRESS":"永福路二段１３２號","OBJECTID":601514},"geometry":{"x":168128.79000000097,"y":2543846.3100000042}},{"attributes":{"ID":601542,"DIS_CODE":0,"TOWNNAME":"新營區","LI":"新東里","LIN":"22鄰","STREET":"長榮路","SECT":"一段","MAREA":" ","LANE":" ","ALLEY":" ","HOUSE_NO":"３２５號","E_COORD97":180866.39000000001,"N_COORD97":2579862.1600000001,"ADDRESS":"長榮路一段３２５號","OBJECTID":601515},"geometry":{"x":180866.38999999966,"y":2579862.1600000001}},{"attributes":{"ID":601543,"DIS_CODE":0,"TOWNNAME":"新營區","LI":"民生里","LIN":"22鄰","STREET":"進修街","SECT":" ","MAREA":" ","LANE":" ","ALLEY":" ","HOUSE_NO":"１７之１號","E_COORD97":179050.48999999999,"N_COORD97":2578448.8199999998,"ADDRESS":"進修街１７之１號","OBJECTID":601516},"geometry":{"x":179050.49000000022,"y":2578448.8200000022}},{"attributes":{"ID":601544,"DIS_CODE":0,"TOWNNAME":"新營區","LI":"新東里","LIN":"22鄰","STREET":"長榮路","SECT":"一段","MAREA":" ","LANE":" ","ALLEY":" ","HOUSE_NO":"３１１號","E_COORD97":180908.31,"N_COORD97":2579857.52,"ADDRESS":"長榮路一段３１１號","OBJECTID":601517},"geometry":{"x":180908.31000000052,"y":2579857.5200000014}},{"attributes":{"ID":601545,"DIS_CODE":0,"TOWNNAME":"新營區","LI":"新東里","LIN":"22鄰","STREET":"長榮路","SECT":"一段","MAREA":" ","LANE":" ","ALLEY":" ","HOUSE_NO":"３３５號","E_COORD97":180842.87,"N_COORD97":2579861.1600000001,"ADDRESS":"長榮路一段３３５號","OBJECTID":601518},"geometry":{"x":180842.87000000011,"y":2579861.160000002}},{"attributes":{"ID":601546,"DIS_CODE":0,"TOWNNAME":"新營區","LI":"新東里","LIN":"22鄰","STREET":"長榮路","SECT":"一段","MAREA":" ","LANE":" ","ALLEY":" ","HOUSE_NO":"２９７號","E_COORD97":180946.14000000001,"N_COORD97":2579859.5600000001,"ADDRESS":"長榮路一段２９７號","OBJECTID":601519},"geometry":{"x":180946.13999999873,"y":2579859.5600000005}},{"attributes":{"ID":601547,"DIS_CODE":0,"TOWNNAME":"新營區","LI":"新東里","LIN":"22鄰","STREET":"長榮路","SECT":"一段","MAREA":" ","LANE":" ","ALLEY":" ","HOUSE_NO":"３３７號","E_COORD97":180838.78,"N_COORD97":2579861.1800000002,"ADDRESS":"長榮路一段３３７號","OBJECTID":601520},"geometry":{"x":180838.78000000026,"y":2579861.1799999997}},{"attributes":{"ID":601548,"DIS_CODE":0,"TOWNNAME":"中西區","LI":"永福里","LIN":"14鄰","STREET":"民生路","SECT":"一段","MAREA":" ","LANE":" ","ALLEY":" ","HOUSE_NO":"７６號","E_COORD97":168230.10000000001,"N_COORD97":2543801.6200000001,"ADDRESS":"民生路一段７６號","OBJECTID":601521},"geometry":{"x":168230.09999999963,"y":2543801.6200000029}},{"attributes":{"ID":601549,"DIS_CODE":0,"TOWNNAME":"中西區","LI":"永福里","LIN":"14鄰","STREET":"民生路","SECT":"一段","MAREA":" ","LANE":" ","ALLEY":" ","HOUSE_NO":"７８號","E_COORD97":168257.10000000001,"N_COORD97":2543793.6400000001,"ADDRESS":"民生路一段７８號","OBJECTID":601522},"geometry":{"x":168257.10000000056,"y":2543793.6400000043}},{"attributes":{"ID":601550,"DIS_CODE":0,"TOWNNAME":"中西區","LI":"永福里","LIN":"11鄰","STREET":"民生路","SECT":"一段","MAREA":" ","LANE":" ","ALLEY":" ","HOUSE_NO":"１００號","E_COORD97":168156.63,"N_COORD97":2543824.6499999999,"ADDRESS":"民生路一段１００號","OBJECTID":601523},"geometry":{"x":168156.63000000082,"y":2543824.6500000022}},{"attributes":{"ID":601551,"DIS_CODE":0,"TOWNNAME":"中西區","LI":"永福里","LIN":"11鄰","STREET":"民生路","SECT":"一段","MAREA":" ","LANE":" ","ALLEY":" ","HOUSE_NO":"１０４號","E_COORD97":168147.53,"N_COORD97":2543823.5600000001,"ADDRESS":"民生路一段１０４號","OBJECTID":601524},"geometry":{"x":168147.53000000119,"y":2543823.5600000005}},{"attributes":{"ID":601552,"DIS_CODE":0,"TOWNNAME":"中西區","LI":"永福里","LIN":"11鄰","STREET":"民生路","SECT":"一段","MAREA":" ","LANE":" ","ALLEY":" ","HOUSE_NO":"１０６號","E_COORD97":168142.09,"N_COORD97":2543825.5099999998,"ADDRESS":"民生路一段１０６號","OBJECTID":601525},"geometry":{"x":168142.09000000078,"y":2543825.5100000016}},{"attributes":{"ID":601553,"DIS_CODE":0,"TOWNNAME":"中西區","LI":"永福里","LIN":"11鄰","STREET":"民生路","SECT":"一段","MAREA":" ","LANE":" ","ALLEY":" ","HOUSE_NO":"１０８號","E_COORD97":168138.70000000001,"N_COORD97":2543826.52,"ADDRESS":"民生路一段１０８號","OBJECTID":601526},"geometry":{"x":168138.70000000019,"y":2543826.5199999996}},{"attributes":{"ID":601554,"DIS_CODE":0,"TOWNNAME":"中西區","LI":"永福里","LIN":"11鄰","STREET":"民生路","SECT":"一段","MAREA":" ","LANE":" ","ALLEY":" ","HOUSE_NO":"１１０號","E_COORD97":168134.92999999999,"N_COORD97":2543827.6400000001,"ADDRESS":"民生路一段１１０號","OBJECTID":601527},"geometry":{"x":168134.9299999997,"y":2543827.6400000025}},{"attributes":{"ID":601555,"DIS_CODE":0,"TOWNNAME":"中西區","LI":"永福里","LIN":"11鄰","STREET":"民生路","SECT":"一段","MAREA":" ","LANE":" ","ALLEY":" ","HOUSE_NO":"１１４號","E_COORD97":168131.29999999999,"N_COORD97":2543828.8900000001,"ADDRESS":"民生路一段１１４號","OBJECTID":601528},"geometry":{"x":168131.29999999888,"y":2543828.8900000043}},{"attributes":{"ID":601556,"DIS_CODE":0,"TOWNNAME":"中西區","LI":"永福里","LIN":"11鄰","STREET":"民生路","SECT":"一段","MAREA":" ","LANE":" ","ALLEY":" ","HOUSE_NO":"８２號","E_COORD97":168202.82999999999,"N_COORD97":2543805.27,"ADDRESS":"民生路一段８２號","OBJECTID":601529},"geometry":{"x":168202.83000000101,"y":2543805.2700000014}},{"attributes":{"ID":601557,"DIS_CODE":0,"TOWNNAME":"中西區","LI":"永福里","LIN":"11鄰","STREET":"民生路","SECT":"一段","MAREA":" ","LANE":" ","ALLEY":" ","HOUSE_NO":"８４號","E_COORD97":168195.44,"N_COORD97":2543807.9199999999,"ADDRESS":"民生路一段８４號","OBJECTID":601530},"geometry":{"x":168195.44000000227,"y":2543807.9200000037}},{"attributes":{"ID":601558,"DIS_CODE":0,"TOWNNAME":"中西區","LI":"永福里","LIN":"11鄰","STREET":"民生路","SECT":"一段","MAREA":" ","LANE":" ","ALLEY":" ","HOUSE_NO":"８６號","E_COORD97":168189.29999999999,"N_COORD97":2543809.5899999999,"ADDRESS":"民生路一段８６號","OBJECTID":601531},"geometry":{"x":168189.30000000075,"y":2543809.5899999999}},{"attributes":{"ID":601559,"DIS_CODE":0,"TOWNNAME":"中西區","LI":"永福里","LIN":"11鄰","STREET":"民生路","SECT":"一段","MAREA":" ","LANE":" ","ALLEY":" ","HOUSE_NO":"８８號","E_COORD97":168186.09,"N_COORD97":2543810.71,"ADDRESS":"民生路一段８８號","OBJECTID":601532},"geometry":{"x":168186.09000000078,"y":2543810.7100000028}},{"attributes":{"ID":601560,"DIS_CODE":0,"TOWNNAME":"中西區","LI":"永福里","LIN":"11鄰","STREET":"民生路","SECT":"一段","MAREA":" ","LANE":" ","ALLEY":" ","HOUSE_NO":"９０號","E_COORD97":168180.92000000001,"N_COORD97":2543812.9399999999,"ADDRESS":"民生路一段９０號","OBJECTID":601533},"geometry":{"x":168180.91999999993,"y":2543812.9399999995}},{"attributes":{"ID":601561,"DIS_CODE":0,"TOWNNAME":"中西區","LI":"永福里","LIN":"11鄰","STREET":"民生路","SECT":"一段","MAREA":" ","LANE":" ","ALLEY":" ","HOUSE_NO":"９４號","E_COORD97":168175.89999999999,"N_COORD97":2543814.1899999999,"ADDRESS":"民生路一段９４號","OBJECTID":601534},"geometry":{"x":168175.9000000013,"y":2543814.1899999995}},{"attributes":{"ID":601562,"DIS_CODE":0,"TOWNNAME":"中西區","LI":"永福里","LIN":"11鄰","STREET":"民生路","SECT":"一段","MAREA":" ","LANE":" ","ALLEY":" ","HOUSE_NO":"９６號","E_COORD97":168171.01000000001,"N_COORD97":2543816.29,"ADDRESS":"民生路一段９６號","OBJECTID":601535},"geometry":{"x":168171.01000000071,"y":2543816.2899999991}},{"attributes":{"ID":601563,"DIS_CODE":0,"TOWNNAME":"中西區","LI":"永福里","LIN":"11鄰","STREET":"民生路","SECT":"一段","MAREA":" ","LANE":" ","ALLEY":" ","HOUSE_NO":"９８號","E_COORD97":168163.75,"N_COORD97":2543818.2400000002,"ADDRESS":"民生路一段９８號","OBJECTID":601536},"geometry":{"x":168163.75,"y":2543818.2400000002}},{"attributes":{"ID":601564,"DIS_CODE":0,"TOWNNAME":"中西區","LI":"永福里","LIN":"14鄰","STREET":"忠義路","SECT":"二段","MAREA":" ","LANE":" ","ALLEY":" ","HOUSE_NO":"１０７號","E_COORD97":168305.29999999999,"N_COORD97":2543832.8500000001,"ADDRESS":"忠義路二段１０７號","OBJECTID":601537},"geometry":{"x":168305.29999999981,"y":2543832.8500000015}},{"attributes":{"ID":601565,"DIS_CODE":0,"TOWNNAME":"中西區","LI":"永福里","LIN":"14鄰","STREET":"忠義路","SECT":"二段","MAREA":" ","LANE":" ","ALLEY":" ","HOUSE_NO":"１０９號","E_COORD97":168308.10999999999,"N_COORD97":2543842.0699999998,"ADDRESS":"忠義路二段１０９號","OBJECTID":601538},"geometry":{"x":168308.11000000127,"y":2543842.0700000022}},{"attributes":{"ID":601566,"DIS_CODE":0,"TOWNNAME":"中西區","LI":"永福里","LIN":"14鄰","STREET":"忠義路","SECT":"二段","MAREA":" ","LANE":" ","ALLEY":" ","HOUSE_NO":"１１１號","E_COORD97":168311.16,"N_COORD97":2543851,"ADDRESS":"忠義路二段１１１號","OBJECTID":601539},"geometry":{"x":168311.16000000108,"y":2543851}},{"attributes":{"ID":601567,"DIS_CODE":0,"TOWNNAME":"中西區","LI":"永福里","LIN":"14鄰","STREET":"忠義路","SECT":"二段","MAREA":" ","LANE":" ","ALLEY":" ","HOUSE_NO":"１１３號","E_COORD97":168313.38,"N_COORD97":2543859.0600000001,"ADDRESS":"忠義路二段１１３號","OBJECTID":601540},"geometry":{"x":168313.37999999989,"y":2543859.0600000024}},{"attributes":{"ID":601568,"DIS_CODE":0,"TOWNNAME":"中西區","LI":"永福里","LIN":"8鄰","STREET":"中正路","SECT":" ","MAREA":" ","LANE":" ","ALLEY":" ","HOUSE_NO":"３２號","E_COORD97":168254.70000000001,"N_COORD97":2543628.2599999998,"ADDRESS":"中正路３２號","OBJECTID":601541},"geometry":{"x":168254.70000000112,"y":2543628.2599999998}},{"attributes":{"ID":601569,"DIS_CODE":0,"TOWNNAME":"中西區","LI":"永福里","LIN":"8鄰","STREET":"中正路","SECT":" ","MAREA":" ","LANE":" ","ALLEY":" ","HOUSE_NO":"３４號","E_COORD97":168250.26999999999,"N_COORD97":2543624.6600000001,"ADDRESS":"中正路３４號","OBJECTID":601542},"geometry":{"x":168250.27000000048,"y":2543624.660000002}},{"attributes":{"ID":601570,"DIS_CODE":0,"TOWNNAME":"中西區","LI":"永福里","LIN":"8鄰","STREET":"中正路","SECT":" ","MAREA":" ","LANE":" ","ALLEY":" ","HOUSE_NO":"３６號","E_COORD97":168238.48000000001,"N_COORD97":2543626.6000000001,"ADDRESS":"中正路３６號","OBJECTID":601543},"geometry":{"x":168238.48000000138,"y":2543626.6000000034}},{"attributes":{"ID":601571,"DIS_CODE":0,"TOWNNAME":"中西區","LI":"永福里","LIN":"8鄰","STREET":"中正路","SECT":" ","MAREA":" ","LANE":" ","ALLEY":" ","HOUSE_NO":"３８號","E_COORD97":168230.29999999999,"N_COORD97":2543629.23,"ADDRESS":"中正路３８號","OBJECTID":601544},"geometry":{"x":168230.30000000075,"y":2543629.2300000004}},{"attributes":{"ID":601572,"DIS_CODE":0,"TOWNNAME":"中西區","LI":"永福里","LIN":"8鄰","STREET":"中正路","SECT":" ","MAREA":" ","LANE":" ","ALLEY":" ","HOUSE_NO":"３８號之１","E_COORD97":168231.17000000001,"N_COORD97":2543633.8100000001,"ADDRESS":"中正路３８號之１","OBJECTID":601545},"geometry":{"x":168231.17000000086,"y":2543633.8100000024}},{"attributes":{"ID":601573,"DIS_CODE":0,"TOWNNAME":"中西區","LI":"永福里","LIN":"8鄰","STREET":"忠義路","SECT":"二段","MAREA":" ","LANE":" ","ALLEY":" ","HOUSE_NO":"６５號","E_COORD97":168260.53,"N_COORD97":2543638.6400000001,"ADDRESS":"忠義路二段６５號","OBJECTID":601546},"geometry":{"x":168260.53000000026,"y":2543638.6400000025}},{"attributes":{"ID":601574,"DIS_CODE":0,"TOWNNAME":"中西區","LI":"永福里","LIN":"8鄰","STREET":"忠義路","SECT":"二段","MAREA":" ","LANE":" ","ALLEY":" ","HOUSE_NO":"６７號","E_COORD97":168261.64000000001,"N_COORD97":2543643.8999999999,"ADDRESS":"忠義路二段６７號","OBJECTID":601547},"geometry":{"x":168261.6400000006,"y":2543643.9000000022}},{"attributes":{"ID":601575,"DIS_CODE":0,"TOWNNAME":"中西區","LI":"永福里","LIN":"8鄰","STREET":"忠義路","SECT":"二段","MAREA":" ","LANE":" ","ALLEY":" ","HOUSE_NO":"７３號","E_COORD97":168265.82000000001,"N_COORD97":2543664.7599999998,"ADDRESS":"忠義路二段７３號","OBJECTID":601548},"geometry":{"x":168265.82000000216,"y":2543664.7599999998}},{"attributes":{"ID":601576,"DIS_CODE":0,"TOWNNAME":"新營區","LI":"三仙里","LIN":"22鄰","STREET":"民治路","SECT":" ","MAREA":" ","LANE":" ","ALLEY":" ","HOUSE_NO":"７０之２號","E_COORD97":179652.85999999999,"N_COORD97":2578852.3999999999,"ADDRESS":"民治路７０之２號","OBJECTID":601549},"geometry":{"x":179652.86000000127,"y":2578852.4000000022}},{"attributes":{"ID":601577,"DIS_CODE":0,"TOWNNAME":"新營區","LI":"民生里","LIN":"22鄰","STREET":"進修街","SECT":" ","MAREA":" ","LANE":" ","ALLEY":" ","HOUSE_NO":"２５之６號","E_COORD97":179043.45000000001,"N_COORD97":2578459.9399999999,"ADDRESS":"進修街２５之６號","OBJECTID":601550},"geometry":{"x":179043.45000000112,"y":2578459.9399999976}},{"attributes":{"ID":601578,"DIS_CODE":0,"TOWNNAME":"新營區","LI":"王公里","LIN":"22鄰","STREET":"義和街","SECT":" ","MAREA":" ","LANE":" ","ALLEY":" ","HOUSE_NO":"６０之１０號","E_COORD97":180547.95999999999,"N_COORD97":2579488.2799999998,"ADDRESS":"義和街６０之１０號","OBJECTID":601551},"geometry":{"x":180547.96000000089,"y":2579488.2800000031}},{"attributes":{"ID":601579,"DIS_CODE":0,"TOWNNAME":"新營區","LI":"新東里","LIN":"22鄰","STREET":"長榮路","SECT":"一段","MAREA":" ","LANE":" ","ALLEY":" ","HOUSE_NO":"３３９號","E_COORD97":180833.66,"N_COORD97":2579861.2000000002,"ADDRESS":"長榮路一段３３９號","OBJECTID":601552},"geometry":{"x":180833.66000000108,"y":2579861.1999999993}},{"attributes":{"ID":601580,"DIS_CODE":0,"TOWNNAME":"中西區","LI":"永福里","LIN":"15鄰","STREET":"民生路","SECT":"一段","MAREA":" ","LANE":" ","ALLEY":" ","HOUSE_NO":"７７號","E_COORD97":168259.03,"N_COORD97":2543763.3500000001,"ADDRESS":"民生路一段７７號","OBJECTID":601553},"geometry":{"x":168259.02999999933,"y":2543763.3499999996}},{"attributes":{"ID":601581,"DIS_CODE":0,"TOWNNAME":"中西區","LI":"永福里","LIN":"15鄰","STREET":"民生路","SECT":"一段","MAREA":" ","LANE":" ","ALLEY":" ","HOUSE_NO":"７９號","E_COORD97":168255.70999999999,"N_COORD97":2543764.2599999998,"ADDRESS":"民生路一段７９號","OBJECTID":601554},"geometry":{"x":168255.70999999996,"y":2543764.2599999998}},{"attributes":{"ID":601582,"DIS_CODE":0,"TOWNNAME":"中西區","LI":"永福里","LIN":"15鄰","STREET":"民生路","SECT":"一段","MAREA":" ","LANE":" ","ALLEY":" ","HOUSE_NO":"８１號","E_COORD97":168252.85000000001,"N_COORD97":2543764.71,"ADDRESS":"民生路一段８１號","OBJECTID":601555},"geometry":{"x":168252.85000000149,"y":2543764.7100000009}},{"attributes":{"ID":601583,"DIS_CODE":0,"TOWNNAME":"中西區","LI":"永福里","LIN":"15鄰","STREET":"民生路","SECT":"一段","MAREA":" ","LANE":" ","ALLEY":" ","HOUSE_NO":"８３號","E_COORD97":168245.13,"N_COORD97":2543767.5600000001,"ADDRESS":"民生路一段８３號","OBJECTID":601556},"geometry":{"x":168245.13000000082,"y":2543767.5600000024}},{"attributes":{"ID":601584,"DIS_CODE":0,"TOWNNAME":"中西區","LI":"永福里","LIN":"15鄰","STREET":"民生路","SECT":"一段","MAREA":" ","LANE":" ","ALLEY":" ","HOUSE_NO":"８５號","E_COORD97":168239.5,"N_COORD97":2543767.96,"ADDRESS":"民生路一段８５號","OBJECTID":601557},"geometry":{"x":168239.50000000093,"y":2543767.9600000046}},{"attributes":{"ID":601585,"DIS_CODE":0,"TOWNNAME":"中西區","LI":"永福里","LIN":"15鄰","STREET":"忠義路","SECT":"二段","MAREA":" ","LANE":" ","ALLEY":" ","HOUSE_NO":"１０１號","E_COORD97":168280.81,"N_COORD97":2543734.4700000002,"ADDRESS":"忠義路二段１０１號","OBJECTID":601558},"geometry":{"x":168280.81000000052,"y":2543734.4700000025}},{"attributes":{"ID":601586,"DIS_CODE":0,"TOWNNAME":"中西區","LI":"永福里","LIN":"15鄰","STREET":"忠義路","SECT":"二段","MAREA":" ","LANE":" ","ALLEY":" ","HOUSE_NO":"１０３號","E_COORD97":168281.51000000001,"N_COORD97":2543737.2400000002,"ADDRESS":"忠義路二段１０３號","OBJECTID":601559},"geometry":{"x":168281.51000000071,"y":2543737.2400000002}},{"attributes":{"ID":601587,"DIS_CODE":0,"TOWNNAME":"中西區","LI":"永福里","LIN":"15鄰","STREET":"忠義路","SECT":"二段","MAREA":" ","LANE":" ","ALLEY":" ","HOUSE_NO":"１０５號","E_COORD97":168282.48000000001,"N_COORD97":2543741.1200000001,"ADDRESS":"忠義路二段１０５號","OBJECTID":601560},"geometry":{"x":168282.48000000138,"y":2543741.1200000029}},{"attributes":{"ID":601588,"DIS_CODE":0,"TOWNNAME":"中西區","LI":"永福里","LIN":"15鄰","STREET":"忠義路","SECT":"二段","MAREA":" ","LANE":" ","ALLEY":" ","HOUSE_NO":"８７號","E_COORD97":168273.87,"N_COORD97":2543701.3900000001,"ADDRESS":"忠義路二段８７號","OBJECTID":601561},"geometry":{"x":168273.87000000104,"y":2543701.3900000025}},{"attributes":{"ID":601589,"DIS_CODE":0,"TOWNNAME":"中西區","LI":"永福里","LIN":"15鄰","STREET":"忠義路","SECT":"二段","MAREA":" ","LANE":" ","ALLEY":" ","HOUSE_NO":"８９號","E_COORD97":168274.98000000001,"N_COORD97":2543705.8199999998,"ADDRESS":"忠義路二段８９號","OBJECTID":601562},"geometry":{"x":168274.98000000231,"y":2543705.8200000003}},{"attributes":{"ID":601590,"DIS_CODE":0,"TOWNNAME":"中西區","LI":"永福里","LIN":"15鄰","STREET":"忠義路","SECT":"二段","MAREA":" ","LANE":" ","ALLEY":" ","HOUSE_NO":"９３號","E_COORD97":168277.69,"N_COORD97":2543717.8599999999,"ADDRESS":"忠義路二段９３號","OBJECTID":601563},"geometry":{"x":168277.69000000134,"y":2543717.8599999994}},{"attributes":{"ID":601591,"DIS_CODE":0,"TOWNNAME":"中西區","LI":"永福里","LIN":"15鄰","STREET":"忠義路","SECT":"二段","MAREA":" ","LANE":" ","ALLEY":" ","HOUSE_NO":"９５號","E_COORD97":168277.62,"N_COORD97":2543714.2200000002,"ADDRESS":"忠義路二段９５號","OBJECTID":601564},"geometry":{"x":168277.62000000104,"y":2543714.2200000007}},{"attributes":{"ID":601592,"DIS_CODE":0,"TOWNNAME":"中西區","LI":"永福里","LIN":"15鄰","STREET":"忠義路","SECT":"二段","MAREA":" ","LANE":" ","ALLEY":" ","HOUSE_NO":"９７號","E_COORD97":168278.76000000001,"N_COORD97":2543722.6000000001,"ADDRESS":"忠義路二段９７號","OBJECTID":601565},"geometry":{"x":168278.75999999978,"y":2543722.6000000015}},{"attributes":{"ID":601593,"DIS_CODE":0,"TOWNNAME":"中西區","LI":"永福里","LIN":"15鄰","STREET":"忠義路","SECT":"二段","MAREA":" ","LANE":" ","ALLEY":" ","HOUSE_NO":"９９號","E_COORD97":168279.70000000001,"N_COORD97":2543727.75,"ADDRESS":"忠義路二段９９號","OBJECTID":601566},"geometry":{"x":168279.70000000019,"y":2543727.7500000037}},{"attributes":{"ID":601594,"DIS_CODE":0,"TOWNNAME":"中西區","LI":"永福里","LIN":"10鄰","STREET":"民生路","SECT":"一段","MAREA":" ","LANE":" ","ALLEY":" ","HOUSE_NO":"８９號","E_COORD97":168219.59,"N_COORD97":2543772.7400000002,"ADDRESS":"民生路一段８９號","OBJECTID":601567},"geometry":{"x":168219.59000000078,"y":2543772.7400000021}},{"attributes":{"ID":601595,"DIS_CODE":0,"TOWNNAME":"中西區","LI":"永福里","LIN":"10鄰","STREET":"民生路","SECT":"一段","MAREA":" ","LANE":" ","ALLEY":" ","HOUSE_NO":"１０１號","E_COORD97":168194.85999999999,"N_COORD97":2543780.8799999999,"ADDRESS":"民生路一段１０１號","OBJECTID":601568},"geometry":{"x":168194.86000000127,"y":2543780.8800000008}},{"attributes":{"ID":601596,"DIS_CODE":0,"TOWNNAME":"中西區","LI":"永福里","LIN":"10鄰","STREET":"民生路","SECT":"一段","MAREA":" ","LANE":" ","ALLEY":" ","HOUSE_NO":"１０３號","E_COORD97":168188.98000000001,"N_COORD97":2543783.29,"ADDRESS":"民生路一段１０３號","OBJECTID":601569},"geometry":{"x":168188.98000000138,"y":2543783.2899999991}},{"attributes":{"ID":601597,"DIS_CODE":0,"TOWNNAME":"新營區","LI":"新東里","LIN":"22鄰","STREET":"長榮路","SECT":"一段","MAREA":" ","LANE":" ","ALLEY":" ","HOUSE_NO":"３２９號","E_COORD97":180857.19,"N_COORD97":2579861.1000000001,"ADDRESS":"長榮路一段３２９號","OBJECTID":601570},"geometry":{"x":180857.19000000134,"y":2579861.1000000015}},{"attributes":{"ID":601598,"DIS_CODE":0,"TOWNNAME":"中西區","LI":"永福里","LIN":"10鄰","STREET":"民生路","SECT":"一段","MAREA":" ","LANE":" ","ALLEY":" ","HOUSE_NO":"１１３號","E_COORD97":168158.23000000001,"N_COORD97":2543794.3300000001,"ADDRESS":"民生路一段１１３號","OBJECTID":601571},"geometry":{"x":168158.23000000138,"y":2543794.3300000001}},{"attributes":{"ID":601599,"DIS_CODE":0,"TOWNNAME":"中西區","LI":"永福里","LIN":"10鄰","STREET":"民生路","SECT":"一段","MAREA":" ","LANE":" ","ALLEY":" ","HOUSE_NO":"１１５號","E_COORD97":168155.45000000001,"N_COORD97":2543795.2999999998,"ADDRESS":"民生路一段１１５號","OBJECTID":601572},"geometry":{"x":168155.45000000019,"y":2543795.3000000007}},{"attributes":{"ID":601600,"DIS_CODE":0,"TOWNNAME":"中西區","LI":"永福里","LIN":"10鄰","STREET":"民生路","SECT":"一段","MAREA":" ","LANE":" ","ALLEY":" ","HOUSE_NO":"１１７號","E_COORD97":168151.56,"N_COORD97":2543796.4100000001,"ADDRESS":"民生路一段１１７號","OBJECTID":601573},"geometry":{"x":168151.56000000145,"y":2543796.4100000001}},{"attributes":{"ID":601601,"DIS_CODE":0,"TOWNNAME":"中西區","LI":"永福里","LIN":"10鄰","STREET":"民生路","SECT":"一段","MAREA":" ","LANE":" ","ALLEY":" ","HOUSE_NO":"１１９號","E_COORD97":168148.37,"N_COORD97":2543796.96,"ADDRESS":"民生路一段１１９號","OBJECTID":601574},"geometry":{"x":168148.37000000104,"y":2543796.9600000009}},{"attributes":{"ID":601602,"DIS_CODE":0,"TOWNNAME":"中西區","LI":"永福里","LIN":"10鄰","STREET":"民生路","SECT":"一段","MAREA":" ","LANE":" ","ALLEY":" ","HOUSE_NO":"１２１號","E_COORD97":168145.17000000001,"N_COORD97":2543797.79,"ADDRESS":"民生路一段１２１號","OBJECTID":601575},"geometry":{"x":168145.16999999993,"y":2543797.7900000028}},{"attributes":{"ID":601603,"DIS_CODE":0,"TOWNNAME":"中西區","LI":"永福里","LIN":"10鄰","STREET":"民生路","SECT":"一段","MAREA":" ","LANE":" ","ALLEY":" ","HOUSE_NO":"１２３號","E_COORD97":168141.98000000001,"N_COORD97":2543799.3199999998,"ADDRESS":"民生路一段１２３號","OBJECTID":601576},"geometry":{"x":168141.98000000045,"y":2543799.3200000022}},{"attributes":{"ID":601604,"DIS_CODE":0,"TOWNNAME":"中西區","LI":"永福里","LIN":"10鄰","STREET":"民生路","SECT":"一段","MAREA":" ","LANE":" ","ALLEY":" ","HOUSE_NO":"１２５號","E_COORD97":168138.09,"N_COORD97":2543800.8500000001,"ADDRESS":"民生路一段１２５號","OBJECTID":601577},"geometry":{"x":168138.09000000078,"y":2543800.8499999978}},{"attributes":{"ID":601605,"DIS_CODE":0,"TOWNNAME":"中西區","LI":"永福里","LIN":"10鄰","STREET":"民生路","SECT":"一段","MAREA":" ","LANE":" ","ALLEY":" ","HOUSE_NO":"１２９號","E_COORD97":168130.45000000001,"N_COORD97":2543803.0600000001,"ADDRESS":"民生路一段１２９號","OBJECTID":601578},"geometry":{"x":168130.45000000019,"y":2543803.0600000005}},{"attributes":{"ID":601606,"DIS_CODE":0,"TOWNNAME":"中西區","LI":"永福里","LIN":"10鄰","STREET":"民生路","SECT":"一段","MAREA":" ","LANE":" ","ALLEY":" ","HOUSE_NO":"１３１號","E_COORD97":168127.26000000001,"N_COORD97":2543803.7599999998,"ADDRESS":"民生路一段１３１號","OBJECTID":601579},"geometry":{"x":168127.26000000071,"y":2543803.7599999998}},{"attributes":{"ID":601607,"DIS_CODE":0,"TOWNNAME":"中西區","LI":"永福里","LIN":"10鄰","STREET":"民生路","SECT":"一段","MAREA":" ","LANE":" ","ALLEY":" ","HOUSE_NO":"１３３號","E_COORD97":168123.09,"N_COORD97":2543805.7000000002,"ADDRESS":"民生路一段１３３號","OBJECTID":601580},"geometry":{"x":168123.09000000078,"y":2543805.7000000011}},{"attributes":{"ID":601608,"DIS_CODE":0,"TOWNNAME":"中西區","LI":"永福里","LIN":"10鄰","STREET":"民生路","SECT":"一段","MAREA":" ","LANE":" ","ALLEY":" ","HOUSE_NO":"１３５號","E_COORD97":168119.48000000001,"N_COORD97":2543806.3900000001,"ADDRESS":"民生路一段１３５號","OBJECTID":601581},"geometry":{"x":168119.48000000138,"y":2543806.3900000025}},{"attributes":{"ID":601609,"DIS_CODE":0,"TOWNNAME":"中西區","LI":"永福里","LIN":"10鄰","STREET":"民生路","SECT":"一段","MAREA":" ","LANE":" ","ALLEY":" ","HOUSE_NO":"９３號","E_COORD97":168212.35000000001,"N_COORD97":2543775.9100000001,"ADDRESS":"民生路一段９３號","OBJECTID":601582},"geometry":{"x":168212.35000000149,"y":2543775.9100000001}},{"attributes":{"ID":601610,"DIS_CODE":0,"TOWNNAME":"中西區","LI":"永福里","LIN":"10鄰","STREET":"民生路","SECT":"一段","MAREA":" ","LANE":" ","ALLEY":" ","HOUSE_NO":"９５號","E_COORD97":168206.92000000001,"N_COORD97":2543774.5499999998,"ADDRESS":"民生路一段９５號","OBJECTID":601583},"geometry":{"x":168206.92000000179,"y":2543774.5500000026}},{"attributes":{"ID":601611,"DIS_CODE":0,"TOWNNAME":"中西區","LI":"永福里","LIN":"10鄰","STREET":"民生路","SECT":"一段","MAREA":" ","LANE":" ","ALLEY":" ","HOUSE_NO":"９７號","E_COORD97":168203.76000000001,"N_COORD97":2543777.5600000001,"ADDRESS":"民生路一段９７號","OBJECTID":601584},"geometry":{"x":168203.75999999978,"y":2543777.5600000024}},{"attributes":{"ID":601612,"DIS_CODE":0,"TOWNNAME":"中西區","LI":"永福里","LIN":"10鄰","STREET":"民生路","SECT":"一段","MAREA":" ","LANE":" ","ALLEY":" ","HOUSE_NO":"９９號","E_COORD97":168199.67999999999,"N_COORD97":2543778.77,"ADDRESS":"民生路一段９９號","OBJECTID":601585},"geometry":{"x":168199.6799999997,"y":2543778.7700000014}},{"attributes":{"ID":601613,"DIS_CODE":0,"TOWNNAME":"新營區","LI":"新東里","LIN":"22鄰","STREET":"長榮路","SECT":"一段","MAREA":" ","LANE":" ","ALLEY":" ","HOUSE_NO":"３０３號","E_COORD97":180926.72,"N_COORD97":2579858.5499999998,"ADDRESS":"長榮路一段３０３號","OBJECTID":601586},"geometry":{"x":180926.71999999974,"y":2579858.5500000026}},{"attributes":{"ID":601614,"DIS_CODE":0,"TOWNNAME":"新營區","LI":"新東里","LIN":"22鄰","STREET":"長榮路","SECT":"一段","MAREA":" ","LANE":" ","ALLEY":" ","HOUSE_NO":"３３３號","E_COORD97":180847.98000000001,"N_COORD97":2579861.1400000001,"ADDRESS":"長榮路一段３３３號","OBJECTID":601587},"geometry":{"x":180847.98000000045,"y":2579861.1400000025}},{"attributes":{"ID":601615,"DIS_CODE":0,"TOWNNAME":"新營區","LI":"新東里","LIN":"22鄰","STREET":"長榮路","SECT":"一段","MAREA":" ","LANE":" ","ALLEY":" ","HOUSE_NO":"３５３號","E_COORD97":180805.03,"N_COORD97":2579861.3399999999,"ADDRESS":"長榮路一段３５３號","OBJECTID":601588},"geometry":{"x":180805.03000000026,"y":2579861.339999998}},{"attributes":{"ID":601616,"DIS_CODE":0,"TOWNNAME":"新營區","LI":"新東里","LIN":"22鄰","STREET":"長榮路","SECT":"一段","MAREA":" ","LANE":" ","ALLEY":" ","HOUSE_NO":"３５３號","E_COORD97":180800.79999999999,"N_COORD97":2579859.9300000002,"ADDRESS":"長榮路一段３５３號","OBJECTID":601589},"geometry":{"x":180800.79999999981,"y":2579859.9299999997}},{"attributes":{"ID":601617,"DIS_CODE":0,"TOWNNAME":"中西區","LI":"永福里","LIN":"9鄰","STREET":"永福路","SECT":"二段","MAREA":" ","LANE":" ","ALLEY":" ","HOUSE_NO":"１１６號底層","E_COORD97":168111.17000000001,"N_COORD97":2543780.6899999999,"ADDRESS":"永福路二段１１６號底層","OBJECTID":601590},"geometry":{"x":168111.17000000086,"y":2543780.6899999995}},{"attributes":{"ID":601618,"DIS_CODE":0,"TOWNNAME":"中西區","LI":"永福里","LIN":"9鄰","STREET":"永福路","SECT":"二段","MAREA":" ","LANE":" ","ALLEY":" ","HOUSE_NO":"１２０號","E_COORD97":168112,"N_COORD97":2543788.2999999998,"ADDRESS":"永福路二段１２０號","OBJECTID":601591},"geometry":{"x":168112.00000000093,"y":2543788.3000000007}},{"attributes":{"ID":601619,"DIS_CODE":0,"TOWNNAME":"中西區","LI":"永福里","LIN":"9鄰","STREET":"永福路","SECT":"二段","MAREA":" ","LANE":" ","ALLEY":" ","HOUSE_NO":"１２２號","E_COORD97":168113.39000000001,"N_COORD97":2543792.04,"ADDRESS":"永福路二段１２２號","OBJECTID":601592},"geometry":{"x":168113.38999999966,"y":2543792.0399999991}},{"attributes":{"ID":601620,"DIS_CODE":0,"TOWNNAME":"中西區","LI":"永福里","LIN":"9鄰","STREET":"永福路","SECT":"二段","MAREA":" ","LANE":" ","ALLEY":" ","HOUSE_NO":"１２４號","E_COORD97":168115.45999999999,"N_COORD97":2543797.52,"ADDRESS":"永福路二段１２４號","OBJECTID":601593},"geometry":{"x":168115.46000000089,"y":2543797.5200000014}},{"attributes":{"ID":601621,"DIS_CODE":0,"TOWNNAME":"中西區","LI":"永福里","LIN":"9鄰","STREET":"永福路","SECT":"二段","MAREA":" ","LANE":" ","ALLEY":" ","HOUSE_NO":"１２６號","E_COORD97":168115.38,"N_COORD97":2543801.3500000001,"ADDRESS":"永福路二段１２６號","OBJECTID":601594},"geometry":{"x":168115.37999999989,"y":2543801.3500000034}},{"attributes":{"ID":601622,"DIS_CODE":0,"TOWNNAME":"中西區","LI":"永福里","LIN":"9鄰","STREET":"永福路","SECT":"二段","MAREA":" ","LANE":" ","ALLEY":" ","HOUSE_NO":"１００號","E_COORD97":168101.60000000001,"N_COORD97":2543742.27,"ADDRESS":"永福路二段１００號","OBJECTID":601595},"geometry":{"x":168101.59999999963,"y":2543742.2699999996}},{"attributes":{"ID":601623,"DIS_CODE":0,"TOWNNAME":"中西區","LI":"永福里","LIN":"9鄰","STREET":"永福路","SECT":"二段","MAREA":" ","LANE":" ","ALLEY":" ","HOUSE_NO":"１０２號","E_COORD97":168102.98000000001,"N_COORD97":2543747.9500000002,"ADDRESS":"永福路二段１０２號","OBJECTID":601596},"geometry":{"x":168102.98000000045,"y":2543747.9499999993}},{"attributes":{"ID":601624,"DIS_CODE":0,"TOWNNAME":"中西區","LI":"永福里","LIN":"9鄰","STREET":"永福路","SECT":"二段","MAREA":" ","LANE":" ","ALLEY":" ","HOUSE_NO":"１０４號","E_COORD97":168104.64999999999,"N_COORD97":2543756.7400000002,"ADDRESS":"永福路二段１０４號","OBJECTID":601597},"geometry":{"x":168104.6500000013,"y":2543756.7400000002}},{"attributes":{"ID":601625,"DIS_CODE":0,"TOWNNAME":"中西區","LI":"永福里","LIN":"9鄰","STREET":"永福路","SECT":"二段","MAREA":" ","LANE":" ","ALLEY":" ","HOUSE_NO":"１０６號","E_COORD97":168105.48999999999,"N_COORD97":2543759.23,"ADDRESS":"永福路二段１０６號","OBJECTID":601598},"geometry":{"x":168105.49000000115,"y":2543759.2300000023}},{"attributes":{"ID":601626,"DIS_CODE":0,"TOWNNAME":"中西區","LI":"永福里","LIN":"9鄰","STREET":"永福路","SECT":"二段","MAREA":" ","LANE":" ","ALLEY":" ","HOUSE_NO":"１０８號","E_COORD97":168105.89999999999,"N_COORD97":2543763.1000000001,"ADDRESS":"永福路二段１０８號","OBJECTID":601599},"geometry":{"x":168105.90000000224,"y":2543763.1000000015}},{"attributes":{"ID":601627,"DIS_CODE":0,"TOWNNAME":"中西區","LI":"永福里","LIN":"9鄰","STREET":"永福路","SECT":"二段","MAREA":" ","LANE":" ","ALLEY":" ","HOUSE_NO":"１１０號","E_COORD97":168106.87,"N_COORD97":2543768.3700000001,"ADDRESS":"永福路二段１１０號","OBJECTID":601600},"geometry":{"x":168106.87000000011,"y":2543768.3699999992}}]}