{"displayFieldName":"TOWNNAME","fieldAliases":{"ID":"ID","DIS_CODE":"DIS_CODE","TOWNNAME":"TOWNNAME","LI":"LI","LIN":"LIN","STREET":"STREET","SECT":"SECT","MAREA":"MAREA","LANE":"LANE","ALLEY":"ALLEY","HOUSE_NO":"HOUSE_NO","E_COORD97":"E_COORD97","N_COORD97":"N_COORD97","ADDRESS":"ADDRESS","OBJECTID":"OBJECTID"},"geometryType":"esriGeometryPoint","spatialReference":{"wkid":102443,"latestWkid":3826},"fields":[{"name":"ID","type":"esriFieldTypeDouble","alias":"ID"},{"name":"DIS_CODE","type":"esriFieldTypeInteger","alias":"DIS_CODE"},{"name":"TOWNNAME","type":"esriFieldTypeString","alias":"TOWNNAME","length":8},{"name":"LI","type":"esriFieldTypeString","alias":"LI","length":8},{"name":"LIN","type":"esriFieldTypeString","alias":"LIN","length":12},{"name":"STREET","type":"esriFieldTypeString","alias":"STREET","length":20},{"name":"SECT","type":"esriFieldTypeString","alias":"SECT","length":8},{"name":"MAREA","type":"esriFieldTypeString","alias":"MAREA","length":12},{"name":"LANE","type":"esriFieldTypeString","alias":"LANE","length":10},{"name":"ALLEY","type":"esriFieldTypeString","alias":"ALLEY","length":10},{"name":"HOUSE_NO","type":"esriFieldTypeString","alias":"HOUSE_NO","length":20},{"name":"E_COORD97","type":"esriFieldTypeDouble","alias":"E_COORD97"},{"name":"N_COORD97","type":"esriFieldTypeDouble","alias":"N_COORD97"},{"name":"ADDRESS","type":"esriFieldTypeString","alias":"ADDRESS","length":50},{"name":"OBJECTID","type":"esriFieldTypeOID","alias":"OBJECTID"}],"features":[{"attributes":{"ID":209402,"DIS_CODE":0,"TOWNNAME":"大內區","LI":"石城里","LIN":"2鄰","STREET":" ","SECT":" ","MAREA":"石子瀨","LANE":" ","ALLEY":" ","HOUSE_NO":"１３號之４","E_COORD97":184378.67999999999,"N_COORD97":2557819.2999999998,"ADDRESS":"石子瀨１３號之４","OBJECTID":209401},"geometry":{"x":184378.67999999877,"y":2557819.3000000026}},{"attributes":{"ID":209403,"DIS_CODE":0,"TOWNNAME":"大內區","LI":"頭社里","LIN":"2鄰","STREET":" ","SECT":" ","MAREA":"頭社","LANE":" ","ALLEY":" ","HOUSE_NO":"２８號之１","E_COORD97":187058.67999999999,"N_COORD97":2560476.2999999998,"ADDRESS":"頭社２８號之１","OBJECTID":209402},"geometry":{"x":187058.6799999997,"y":2560476.2999999989}},{"attributes":{"ID":209404,"DIS_CODE":0,"TOWNNAME":"大內區","LI":"曲溪里","LIN":"2鄰","STREET":" ","SECT":" ","MAREA":"二重溪","LANE":" ","ALLEY":" ","HOUSE_NO":"２３號","E_COORD97":187395.79000000001,"N_COORD97":2557589.3100000001,"ADDRESS":"二重溪２３號","OBJECTID":209403},"geometry":{"x":187395.7900000019,"y":2557589.3100000005}},{"attributes":{"ID":209405,"DIS_CODE":0,"TOWNNAME":"大內區","LI":"頭社里","LIN":"2鄰","STREET":" ","SECT":" ","MAREA":"頭社","LANE":" ","ALLEY":" ","HOUSE_NO":"２８號之２","E_COORD97":187058.60999999999,"N_COORD97":2560480.2999999998,"ADDRESS":"頭社２８號之２","OBJECTID":209404},"geometry":{"x":187058.61000000127,"y":2560480.3000000026}},{"attributes":{"ID":209406,"DIS_CODE":0,"TOWNNAME":"安南區","LI":"淵中里","LIN":"18鄰","STREET":"安中路","SECT":"四段","MAREA":" ","LANE":"１９７巷","ALLEY":"５弄","HOUSE_NO":"２６號","E_COORD97":164827.57000000001,"N_COORD97":2550044.3799999999,"ADDRESS":"安中路四段１９７巷５弄２６號","OBJECTID":209405},"geometry":{"x":164827.5700000003,"y":2550044.379999999}},{"attributes":{"ID":209407,"DIS_CODE":0,"TOWNNAME":"安南區","LI":"淵中里","LIN":"18鄰","STREET":"安中路","SECT":"四段","MAREA":" ","LANE":"１９７巷","ALLEY":"５弄","HOUSE_NO":"２８號","E_COORD97":164832.17000000001,"N_COORD97":2550042.6400000001,"ADDRESS":"安中路四段１９７巷５弄２８號","OBJECTID":209406},"geometry":{"x":164832.17000000086,"y":2550042.6400000025}},{"attributes":{"ID":209408,"DIS_CODE":0,"TOWNNAME":"大內區","LI":"頭社里","LIN":"2鄰","STREET":" ","SECT":" ","MAREA":"頭社","LANE":" ","ALLEY":" ","HOUSE_NO":"３０號","E_COORD97":187105.94,"N_COORD97":2560345.25,"ADDRESS":"頭社３０號","OBJECTID":209407},"geometry":{"x":187105.94000000134,"y":2560345.2500000019}},{"attributes":{"ID":209409,"DIS_CODE":0,"TOWNNAME":"大內區","LI":"二溪里","LIN":"2鄰","STREET":" ","SECT":" ","MAREA":"二重溪","LANE":" ","ALLEY":" ","HOUSE_NO":"１４７號之３","E_COORD97":187636.76999999999,"N_COORD97":2557955.3100000001,"ADDRESS":"二重溪１４７號之３","OBJECTID":209408},"geometry":{"x":187636.77000000048,"y":2557955.3100000024}},{"attributes":{"ID":209410,"DIS_CODE":0,"TOWNNAME":"大內區","LI":"內江里","LIN":"2鄰","STREET":" ","SECT":" ","MAREA":"內庄","LANE":" ","ALLEY":" ","HOUSE_NO":"２２５號","E_COORD97":184626.38,"N_COORD97":2557357.25,"ADDRESS":"內庄２２５號","OBJECTID":209409},"geometry":{"x":184626.37999999989,"y":2557357.2500000019}},{"attributes":{"ID":209411,"DIS_CODE":0,"TOWNNAME":"玉井區","LI":"豐里里","LIN":"9鄰","STREET":" ","SECT":" ","MAREA":"豐里","LANE":" ","ALLEY":" ","HOUSE_NO":"８９號之２","E_COORD97":192487.23000000001,"N_COORD97":2559635.29,"ADDRESS":"豐里８９號之２","OBJECTID":209410},"geometry":{"x":192487.22999999952,"y":2559635.290000001}},{"attributes":{"ID":209412,"DIS_CODE":0,"TOWNNAME":"安南區","LI":"淵中里","LIN":"18鄰","STREET":"安中路","SECT":"四段","MAREA":" ","LANE":"１９７巷","ALLEY":"５弄","HOUSE_NO":"６２號","E_COORD97":164886.94,"N_COORD97":2550020.25,"ADDRESS":"安中路四段１９７巷５弄６２號","OBJECTID":209411},"geometry":{"x":164886.94000000134,"y":2550020.2500000037}},{"attributes":{"ID":209413,"DIS_CODE":0,"TOWNNAME":"安南區","LI":"淵中里","LIN":"18鄰","STREET":"安中路","SECT":"四段","MAREA":" ","LANE":"１９７巷","ALLEY":"５弄","HOUSE_NO":"６６號","E_COORD97":164891.07000000001,"N_COORD97":2550018.98,"ADDRESS":"安中路四段１９７巷５弄６６號","OBJECTID":209412},"geometry":{"x":164891.07000000123,"y":2550018.9800000042}},{"attributes":{"ID":209414,"DIS_CODE":0,"TOWNNAME":"玉井區","LI":"層林里","LIN":"9鄰","STREET":" ","SECT":" ","MAREA":"層林","LANE":" ","ALLEY":" ","HOUSE_NO":"９７號","E_COORD97":191479.87,"N_COORD97":2552801.2400000002,"ADDRESS":"層林９７號","OBJECTID":209413},"geometry":{"x":191479.87000000104,"y":2552801.2400000021}},{"attributes":{"ID":209415,"DIS_CODE":0,"TOWNNAME":"安南區","LI":"淵中里","LIN":"18鄰","STREET":"安中路","SECT":"四段","MAREA":" ","LANE":"１９７巷","ALLEY":"５弄","HOUSE_NO":"６８號","E_COORD97":164895.04000000001,"N_COORD97":2550017.0800000001,"ADDRESS":"安中路四段１９７巷５弄６８號","OBJECTID":209414},"geometry":{"x":164895.04000000004,"y":2550017.0800000001}},{"attributes":{"ID":209416,"DIS_CODE":0,"TOWNNAME":"玉井區","LI":"望明里","LIN":"9鄰","STREET":" ","SECT":" ","MAREA":"劉陳","LANE":" ","ALLEY":" ","HOUSE_NO":"１３４號","E_COORD97":193525.76000000001,"N_COORD97":2556246.25,"ADDRESS":"劉陳１３４號","OBJECTID":209415},"geometry":{"x":193525.76000000071,"y":2556246.2500000019}},{"attributes":{"ID":209417,"DIS_CODE":0,"TOWNNAME":"玉井區","LI":"層林里","LIN":"9鄰","STREET":" ","SECT":" ","MAREA":"層林","LANE":" ","ALLEY":" ","HOUSE_NO":"１００號","E_COORD97":191563.82000000001,"N_COORD97":2552833.25,"ADDRESS":"層林１００號","OBJECTID":209416},"geometry":{"x":191563.8200000003,"y":2552833.25}},{"attributes":{"ID":209418,"DIS_CODE":0,"TOWNNAME":"大內區","LI":"石林里","LIN":"2鄰","STREET":" ","SECT":" ","MAREA":"石子瀨","LANE":" ","ALLEY":" ","HOUSE_NO":"１３５號之１","E_COORD97":183990,"N_COORD97":2558051.2999999998,"ADDRESS":"石子瀨１３５號之１","OBJECTID":209417},"geometry":{"x":183990,"y":2558051.3000000007}},{"attributes":{"ID":209419,"DIS_CODE":0,"TOWNNAME":"大內區","LI":"內江里","LIN":"2鄰","STREET":" ","SECT":" ","MAREA":"內庄","LANE":" ","ALLEY":" ","HOUSE_NO":"２２４號之４","E_COORD97":184577.23999999999,"N_COORD97":2557328.2999999998,"ADDRESS":"內庄２２４號之４","OBJECTID":209418},"geometry":{"x":184577.24000000209,"y":2557328.3000000026}},{"attributes":{"ID":209420,"DIS_CODE":0,"TOWNNAME":"大內區","LI":"大內里","LIN":"2鄰","STREET":" ","SECT":" ","MAREA":"內庄","LANE":" ","ALLEY":" ","HOUSE_NO":"１２號之２","E_COORD97":184535.70000000001,"N_COORD97":2557522.2999999998,"ADDRESS":"內庄１２號之２","OBJECTID":209419},"geometry":{"x":184535.70000000112,"y":2557522.3000000007}},{"attributes":{"ID":209421,"DIS_CODE":0,"TOWNNAME":"大內區","LI":"大內里","LIN":"2鄰","STREET":" ","SECT":" ","MAREA":"內庄","LANE":" ","ALLEY":" ","HOUSE_NO":"１４號之２","E_COORD97":184505,"N_COORD97":2557490.2999999998,"ADDRESS":"內庄１４號之２","OBJECTID":209420},"geometry":{"x":184505,"y":2557490.3000000026}},{"attributes":{"ID":209422,"DIS_CODE":0,"TOWNNAME":"大內區","LI":"內郭里","LIN":"2鄰","STREET":" ","SECT":" ","MAREA":"內庄","LANE":" ","ALLEY":" ","HOUSE_NO":"１６９號","E_COORD97":184806.07999999999,"N_COORD97":2557382.25,"ADDRESS":"內庄１６９號","OBJECTID":209421},"geometry":{"x":184806.08000000101,"y":2557382.2500000019}},{"attributes":{"ID":209423,"DIS_CODE":0,"TOWNNAME":"安南區","LI":"淵中里","LIN":"18鄰","STREET":"安中路","SECT":"四段","MAREA":" ","LANE":"１９７巷","ALLEY":"５弄","HOUSE_NO":"７０號","E_COORD97":164898.04999999999,"N_COORD97":2550015.3300000001,"ADDRESS":"安中路四段１９７巷５弄７０號","OBJECTID":209422},"geometry":{"x":164898.04999999981,"y":2550015.3300000001}},{"attributes":{"ID":209424,"DIS_CODE":0,"TOWNNAME":"安南區","LI":"淵中里","LIN":"18鄰","STREET":"安中路","SECT":"四段","MAREA":" ","LANE":"１９７巷","ALLEY":"５弄","HOUSE_NO":"７２號","E_COORD97":164902.17999999999,"N_COORD97":2550013.7400000002,"ADDRESS":"安中路四段１９７巷５弄７２號","OBJECTID":209423},"geometry":{"x":164902.1799999997,"y":2550013.7400000039}},{"attributes":{"ID":209425,"DIS_CODE":0,"TOWNNAME":"安南區","LI":"淵中里","LIN":"18鄰","STREET":"安中路","SECT":"四段","MAREA":" ","LANE":"１９７巷","ALLEY":"５弄","HOUSE_NO":"７６號","E_COORD97":164905.98999999999,"N_COORD97":2550011.6800000002,"ADDRESS":"安中路四段１９７巷５弄７６號","OBJECTID":209424},"geometry":{"x":164905.99000000022,"y":2550011.6800000016}},{"attributes":{"ID":209426,"DIS_CODE":0,"TOWNNAME":"北區","LI":"成功里","LIN":"18鄰","STREET":"北成路","SECT":" ","MAREA":" ","LANE":"１２８巷","ALLEY":"２３弄","HOUSE_NO":"２２號","E_COORD97":168882.10999999999,"N_COORD97":2546794.6600000001,"ADDRESS":"北成路１２８巷２３弄２２號","OBJECTID":209425},"geometry":{"x":168882.11000000034,"y":2546794.660000002}},{"attributes":{"ID":209427,"DIS_CODE":0,"TOWNNAME":"南區","LI":"建南里","LIN":"18鄰","STREET":"明興路","SECT":" ","MAREA":" ","LANE":"７７巷","ALLEY":"１８弄","HOUSE_NO":"１１號","E_COORD97":166718.92999999999,"N_COORD97":2539889.9900000002,"ADDRESS":"明興路７７巷１８弄１１號","OBJECTID":209426},"geometry":{"x":166718.93000000063,"y":2539889.9900000002}},{"attributes":{"ID":209428,"DIS_CODE":0,"TOWNNAME":"南區","LI":"建南里","LIN":"18鄰","STREET":"明興路","SECT":" ","MAREA":" ","LANE":"７７巷","ALLEY":"１８弄","HOUSE_NO":"１號","E_COORD97":166720.92999999999,"N_COORD97":2539932.3900000001,"ADDRESS":"明興路７７巷１８弄１號","OBJECTID":209427},"geometry":{"x":166720.9299999997,"y":2539932.3900000006}},{"attributes":{"ID":209429,"DIS_CODE":0,"TOWNNAME":"南區","LI":"建南里","LIN":"18鄰","STREET":"明興路","SECT":" ","MAREA":" ","LANE":"７７巷","ALLEY":"１８弄","HOUSE_NO":"３號","E_COORD97":166719.94,"N_COORD97":2539920.8999999999,"ADDRESS":"明興路７７巷１８弄３號","OBJECTID":209428},"geometry":{"x":166719.94000000041,"y":2539920.9000000022}},{"attributes":{"ID":209430,"DIS_CODE":0,"TOWNNAME":"南區","LI":"建南里","LIN":"18鄰","STREET":"明興路","SECT":" ","MAREA":" ","LANE":"７７巷","ALLEY":"１８弄","HOUSE_NO":"５號","E_COORD97":166718.95000000001,"N_COORD97":2539912.1800000002,"ADDRESS":"明興路７７巷１８弄５號","OBJECTID":209429},"geometry":{"x":166718.95000000112,"y":2539912.1799999997}},{"attributes":{"ID":209431,"DIS_CODE":0,"TOWNNAME":"大內區","LI":"大內里","LIN":"2鄰","STREET":" ","SECT":" ","MAREA":"內庄","LANE":" ","ALLEY":" ","HOUSE_NO":"１５號之１","E_COORD97":184530.56,"N_COORD97":2557482.2999999998,"ADDRESS":"內庄１５號之１","OBJECTID":209430},"geometry":{"x":184530.56000000052,"y":2557482.3000000007}},{"attributes":{"ID":209432,"DIS_CODE":0,"TOWNNAME":"南區","LI":"建南里","LIN":"18鄰","STREET":"明興路","SECT":" ","MAREA":" ","LANE":"７７巷","ALLEY":"１８弄","HOUSE_NO":"７號","E_COORD97":166719.34,"N_COORD97":2539902.2799999998,"ADDRESS":"明興路７７巷１８弄７號","OBJECTID":209431},"geometry":{"x":166719.34000000078,"y":2539902.2800000031}},{"attributes":{"ID":209433,"DIS_CODE":0,"TOWNNAME":"南區","LI":"建南里","LIN":"18鄰","STREET":"明興路","SECT":" ","MAREA":" ","LANE":"７７巷","ALLEY":"１８弄","HOUSE_NO":"９號","E_COORD97":166719.14999999999,"N_COORD97":2539896.1400000001,"ADDRESS":"明興路７７巷１８弄９號","OBJECTID":209432},"geometry":{"x":166719.15000000224,"y":2539896.1400000025}},{"attributes":{"ID":209434,"DIS_CODE":0,"TOWNNAME":"安平區","LI":"平安里","LIN":"18鄰","STREET":"安平路","SECT":" ","MAREA":" ","LANE":"６０６巷","ALLEY":"１７弄","HOUSE_NO":"１１號","E_COORD97":164808.87,"N_COORD97":2544482.4900000002,"ADDRESS":"安平路６０６巷１７弄１１號","OBJECTID":209433},"geometry":{"x":164808.87000000104,"y":2544482.4900000039}},{"attributes":{"ID":209435,"DIS_CODE":0,"TOWNNAME":"安平區","LI":"平安里","LIN":"18鄰","STREET":"安平路","SECT":" ","MAREA":" ","LANE":"６０６巷","ALLEY":"１７弄","HOUSE_NO":"２７號","E_COORD97":164764.19,"N_COORD97":2544496.7999999998,"ADDRESS":"安平路６０６巷１７弄２７號","OBJECTID":209434},"geometry":{"x":164764.19000000041,"y":2544496.8000000007}},{"attributes":{"ID":209436,"DIS_CODE":0,"TOWNNAME":"安平區","LI":"平安里","LIN":"18鄰","STREET":"安平路","SECT":" ","MAREA":" ","LANE":"６０６巷","ALLEY":"１７弄","HOUSE_NO":"２９號","E_COORD97":164759.29000000001,"N_COORD97":2544499.25,"ADDRESS":"安平路６０６巷１７弄２９號","OBJECTID":209435},"geometry":{"x":164759.29000000004,"y":2544499.25}},{"attributes":{"ID":209437,"DIS_CODE":0,"TOWNNAME":"歸仁區","LI":"歸南里","LIN":"9鄰","STREET":"民生九街","SECT":" ","MAREA":" ","LANE":" ","ALLEY":" ","HOUSE_NO":"７５號","E_COORD97":176215.60999999999,"N_COORD97":2540140.25,"ADDRESS":"民生九街７５號","OBJECTID":209436},"geometry":{"x":176215.61000000034,"y":2540140.25}},{"attributes":{"ID":209438,"DIS_CODE":0,"TOWNNAME":"安平區","LI":"平安里","LIN":"18鄰","STREET":"安平路","SECT":" ","MAREA":" ","LANE":"６０６巷","ALLEY":"１７弄","HOUSE_NO":"３１號","E_COORD97":164754.39999999999,"N_COORD97":2544501.0899999999,"ADDRESS":"安平路６０６巷１７弄３１號","OBJECTID":209437},"geometry":{"x":164754.39999999944,"y":2544501.0899999999}},{"attributes":{"ID":209439,"DIS_CODE":0,"TOWNNAME":"安平區","LI":"平安里","LIN":"18鄰","STREET":"安平路","SECT":" ","MAREA":" ","LANE":"６０６巷","ALLEY":"１７弄","HOUSE_NO":"１號","E_COORD97":164841.16,"N_COORD97":2544474.6099999999,"ADDRESS":"安平路６０６巷１７弄１號","OBJECTID":209438},"geometry":{"x":164841.16000000108,"y":2544474.6100000013}},{"attributes":{"ID":209440,"DIS_CODE":0,"TOWNNAME":"安平區","LI":"平安里","LIN":"18鄰","STREET":"安平路","SECT":" ","MAREA":" ","LANE":"６０６巷","ALLEY":"１７弄","HOUSE_NO":"２２號","E_COORD97":164769.09,"N_COORD97":2544511.0299999998,"ADDRESS":"安平路６０６巷１７弄２２號","OBJECTID":209439},"geometry":{"x":164769.08999999985,"y":2544511.0299999993}},{"attributes":{"ID":209441,"DIS_CODE":0,"TOWNNAME":"玉井區","LI":"望明里","LIN":"9鄰","STREET":" ","SECT":" ","MAREA":"劉陳","LANE":"２４巷","ALLEY":" ","HOUSE_NO":"５號","E_COORD97":193476.01000000001,"N_COORD97":2556001.2400000002,"ADDRESS":"劉陳２４巷５號","OBJECTID":209440},"geometry":{"x":193476.00999999978,"y":2556001.2400000039}},{"attributes":{"ID":209442,"DIS_CODE":0,"TOWNNAME":"玉井區","LI":"望明里","LIN":"9鄰","STREET":" ","SECT":" ","MAREA":"劉陳","LANE":"８０巷","ALLEY":" ","HOUSE_NO":"６號","E_COORD97":193520.31,"N_COORD97":2556122.2400000002,"ADDRESS":"劉陳８０巷６號","OBJECTID":209441},"geometry":{"x":193520.31000000052,"y":2556122.2400000002}},{"attributes":{"ID":209443,"DIS_CODE":0,"TOWNNAME":"安平區","LI":"平安里","LIN":"18鄰","STREET":"安平路","SECT":" ","MAREA":" ","LANE":"６０６巷","ALLEY":"１７弄","HOUSE_NO":"２４號","E_COORD97":164764.64999999999,"N_COORD97":2544512.5600000001,"ADDRESS":"安平路６０６巷１７弄２４號","OBJECTID":209442},"geometry":{"x":164764.65000000224,"y":2544512.5600000042}},{"attributes":{"ID":209444,"DIS_CODE":0,"TOWNNAME":"玉井區","LI":"望明里","LIN":"9鄰","STREET":" ","SECT":" ","MAREA":"劉陳","LANE":"２４巷","ALLEY":" ","HOUSE_NO":"１號","E_COORD97":193459.81,"N_COORD97":2556006.2400000002,"ADDRESS":"劉陳２４巷１號","OBJECTID":209443},"geometry":{"x":193459.80999999959,"y":2556006.2400000002}},{"attributes":{"ID":209445,"DIS_CODE":0,"TOWNNAME":"玉井區","LI":"望明里","LIN":"9鄰","STREET":" ","SECT":" ","MAREA":"劉陳","LANE":"２４巷","ALLEY":" ","HOUSE_NO":"７號","E_COORD97":193484.10000000001,"N_COORD97":2555999.2400000002,"ADDRESS":"劉陳２４巷７號","OBJECTID":209444},"geometry":{"x":193484.10000000149,"y":2555999.2400000021}},{"attributes":{"ID":209446,"DIS_CODE":0,"TOWNNAME":"玉井區","LI":"望明里","LIN":"9鄰","STREET":" ","SECT":" ","MAREA":"劉陳","LANE":"２４巷","ALLEY":" ","HOUSE_NO":"２之１號","E_COORD97":193441.20000000001,"N_COORD97":2556003.29,"ADDRESS":"劉陳２４巷２之１號","OBJECTID":209445},"geometry":{"x":193441.20000000019,"y":2556003.290000001}},{"attributes":{"ID":209447,"DIS_CODE":0,"TOWNNAME":"安平區","LI":"平安里","LIN":"18鄰","STREET":"安平路","SECT":" ","MAREA":" ","LANE":"６０６巷","ALLEY":"１７弄","HOUSE_NO":"２８號","E_COORD97":164758.22,"N_COORD97":2544515.6299999999,"ADDRESS":"安平路６０６巷１７弄２８號","OBJECTID":209446},"geometry":{"x":164758.21999999974,"y":2544515.629999999}},{"attributes":{"ID":209448,"DIS_CODE":0,"TOWNNAME":"玉井區","LI":"望明里","LIN":"9鄰","STREET":" ","SECT":" ","MAREA":"劉陳","LANE":" ","ALLEY":" ","HOUSE_NO":"１３２號","E_COORD97":193524.85000000001,"N_COORD97":2556243.2400000002,"ADDRESS":"劉陳１３２號","OBJECTID":209447},"geometry":{"x":193524.85000000149,"y":2556243.2400000021}},{"attributes":{"ID":209449,"DIS_CODE":0,"TOWNNAME":"玉井區","LI":"層林里","LIN":"9鄰","STREET":" ","SECT":" ","MAREA":"層林","LANE":" ","ALLEY":" ","HOUSE_NO":"９９號","E_COORD97":191546.57000000001,"N_COORD97":2552825.2400000002,"ADDRESS":"層林９９號","OBJECTID":209448},"geometry":{"x":191546.57000000123,"y":2552825.2400000021}},{"attributes":{"ID":209450,"DIS_CODE":0,"TOWNNAME":"玉井區","LI":"望明里","LIN":"9鄰","STREET":" ","SECT":" ","MAREA":"劉陳","LANE":" ","ALLEY":" ","HOUSE_NO":"１２８號","E_COORD97":193521.14999999999,"N_COORD97":2556236.2400000002,"ADDRESS":"劉陳１２８號","OBJECTID":209449},"geometry":{"x":193521.15000000037,"y":2556236.2400000021}},{"attributes":{"ID":209451,"DIS_CODE":0,"TOWNNAME":"玉井區","LI":"豐里里","LIN":"9鄰","STREET":" ","SECT":" ","MAREA":"豐里","LANE":" ","ALLEY":" ","HOUSE_NO":"８９號","E_COORD97":192410.37,"N_COORD97":2559557.2400000002,"ADDRESS":"豐里８９號","OBJECTID":209450},"geometry":{"x":192410.37000000104,"y":2559557.2400000002}},{"attributes":{"ID":209452,"DIS_CODE":0,"TOWNNAME":"安平區","LI":"平安里","LIN":"18鄰","STREET":"安平路","SECT":" ","MAREA":" ","LANE":"６０６巷","ALLEY":"１７弄","HOUSE_NO":"３０號","E_COORD97":164754.85999999999,"N_COORD97":2544516.8500000001,"ADDRESS":"安平路６０６巷１７弄３０號","OBJECTID":209451},"geometry":{"x":164754.8600000022,"y":2544516.8500000015}},{"attributes":{"ID":209453,"DIS_CODE":0,"TOWNNAME":"新營區","LI":"新東里","LIN":"15鄰","STREET":"東智街","SECT":" ","MAREA":" ","LANE":" ","ALLEY":" ","HOUSE_NO":"１５號","E_COORD97":180982.37,"N_COORD97":2579576.9900000002,"ADDRESS":"東智街１５號","OBJECTID":209452},"geometry":{"x":180982.36999999918,"y":2579576.9900000021}},{"attributes":{"ID":209454,"DIS_CODE":0,"TOWNNAME":"安平區","LI":"平安里","LIN":"18鄰","STREET":"安平路","SECT":" ","MAREA":" ","LANE":"６０６巷","ALLEY":"１７弄","HOUSE_NO":"３２號","E_COORD97":164750.72,"N_COORD97":2544518.23,"ADDRESS":"安平路６０６巷１７弄３２號","OBJECTID":209453},"geometry":{"x":164750.72000000067,"y":2544518.2300000042}},{"attributes":{"ID":209455,"DIS_CODE":0,"TOWNNAME":"南區","LI":"明亮里","LIN":"18鄰","STREET":"金華路","SECT":"一段","MAREA":" ","LANE":"３５２巷","ALLEY":"７５弄","HOUSE_NO":"４２號之１","E_COORD97":167256.73999999999,"N_COORD97":2541163.6499999999,"ADDRESS":"金華路一段３５２巷７５弄４２號之１","OBJECTID":209454},"geometry":{"x":167256.74000000022,"y":2541163.6500000022}},{"attributes":{"ID":209456,"DIS_CODE":0,"TOWNNAME":"南區","LI":"建南里","LIN":"18鄰","STREET":"明興路","SECT":" ","MAREA":" ","LANE":"７７巷","ALLEY":"３０弄","HOUSE_NO":"１號","E_COORD97":166769.95000000001,"N_COORD97":2539932.7799999998,"ADDRESS":"明興路７７巷３０弄１號","OBJECTID":209455},"geometry":{"x":166769.95000000112,"y":2539932.7800000031}},{"attributes":{"ID":209457,"DIS_CODE":0,"TOWNNAME":"玉井區","LI":"豐里里","LIN":"9鄰","STREET":" ","SECT":" ","MAREA":"豐里","LANE":" ","ALLEY":" ","HOUSE_NO":"９１號之１","E_COORD97":192607.5,"N_COORD97":2559650.29,"ADDRESS":"豐里９１號之１","OBJECTID":209456},"geometry":{"x":192607.50000000093,"y":2559650.2899999991}},{"attributes":{"ID":209458,"DIS_CODE":0,"TOWNNAME":"南區","LI":"建南里","LIN":"18鄰","STREET":"明興路","SECT":" ","MAREA":" ","LANE":"７７巷","ALLEY":"３０弄","HOUSE_NO":"９號","E_COORD97":166769.13,"N_COORD97":2539915.6299999999,"ADDRESS":"明興路７７巷３０弄９號","OBJECTID":209457},"geometry":{"x":166769.12999999989,"y":2539915.629999999}},{"attributes":{"ID":209459,"DIS_CODE":0,"TOWNNAME":"南區","LI":"建南里","LIN":"18鄰","STREET":"明興路","SECT":" ","MAREA":" ","LANE":"７７巷","ALLEY":"３０弄","HOUSE_NO":"１１號","E_COORD97":166768.53,"N_COORD97":2539911.27,"ADDRESS":"明興路７７巷３０弄１１號","OBJECTID":209458},"geometry":{"x":166768.53000000026,"y":2539911.2699999996}},{"attributes":{"ID":209460,"DIS_CODE":0,"TOWNNAME":"南區","LI":"建南里","LIN":"18鄰","STREET":"明興路","SECT":" ","MAREA":" ","LANE":"７７巷","ALLEY":"３０弄","HOUSE_NO":"１３號","E_COORD97":166768.32999999999,"N_COORD97":2539906.9100000001,"ADDRESS":"明興路７７巷３０弄１３號","OBJECTID":209459},"geometry":{"x":166768.33000000007,"y":2539906.910000002}},{"attributes":{"ID":209461,"DIS_CODE":0,"TOWNNAME":"玉井區","LI":"豐里里","LIN":"9鄰","STREET":" ","SECT":" ","MAREA":"豐里","LANE":" ","ALLEY":" ","HOUSE_NO":"９３之２號","E_COORD97":192673.07000000001,"N_COORD97":2560021.2999999998,"ADDRESS":"豐里９３之２號","OBJECTID":209460},"geometry":{"x":192673.07000000216,"y":2560021.3000000007}},{"attributes":{"ID":209462,"DIS_CODE":0,"TOWNNAME":"南區","LI":"建南里","LIN":"18鄰","STREET":"明興路","SECT":" ","MAREA":" ","LANE":"７７巷","ALLEY":"３０弄","HOUSE_NO":"１５號","E_COORD97":166769.51999999999,"N_COORD97":2539902.5499999998,"ADDRESS":"明興路７７巷３０弄１５號","OBJECTID":209461},"geometry":{"x":166769.51999999955,"y":2539902.5500000026}},{"attributes":{"ID":209463,"DIS_CODE":0,"TOWNNAME":"玉井區","LI":"豐里里","LIN":"9鄰","STREET":" ","SECT":" ","MAREA":"豐里","LANE":" ","ALLEY":" ","HOUSE_NO":"９２號","E_COORD97":192425.45999999999,"N_COORD97":2559647.2400000002,"ADDRESS":"豐里９２號","OBJECTID":209462},"geometry":{"x":192425.45999999996,"y":2559647.2400000021}},{"attributes":{"ID":209464,"DIS_CODE":0,"TOWNNAME":"南區","LI":"建南里","LIN":"18鄰","STREET":"明興路","SECT":" ","MAREA":" ","LANE":"７７巷","ALLEY":"３０弄","HOUSE_NO":"１７號","E_COORD97":166769.32999999999,"N_COORD97":2539899.3799999999,"ADDRESS":"明興路７７巷３０弄１７號","OBJECTID":209463},"geometry":{"x":166769.33000000101,"y":2539899.3800000008}},{"attributes":{"ID":209465,"DIS_CODE":0,"TOWNNAME":"南區","LI":"建南里","LIN":"18鄰","STREET":"明興路","SECT":" ","MAREA":" ","LANE":"７７巷","ALLEY":"３０弄","HOUSE_NO":"１９號","E_COORD97":166768.92999999999,"N_COORD97":2539894.6299999999,"ADDRESS":"明興路７７巷３０弄１９號","OBJECTID":209464},"geometry":{"x":166768.9299999997,"y":2539894.629999999}},{"attributes":{"ID":209466,"DIS_CODE":0,"TOWNNAME":"南區","LI":"建南里","LIN":"18鄰","STREET":"明興路","SECT":" ","MAREA":" ","LANE":"７７巷","ALLEY":"３０弄","HOUSE_NO":"２１號","E_COORD97":166769.51999999999,"N_COORD97":2539890.0699999998,"ADDRESS":"明興路７７巷３０弄２１號","OBJECTID":209465},"geometry":{"x":166769.51999999955,"y":2539890.0700000003}},{"attributes":{"ID":209467,"DIS_CODE":0,"TOWNNAME":"南區","LI":"建南里","LIN":"18鄰","STREET":"明興路","SECT":" ","MAREA":" ","LANE":"７７巷","ALLEY":"３０弄","HOUSE_NO":"２３號","E_COORD97":166769.32999999999,"N_COORD97":2539885.3199999998,"ADDRESS":"明興路７７巷３０弄２３號","OBJECTID":209466},"geometry":{"x":166769.33000000101,"y":2539885.3200000003}},{"attributes":{"ID":209468,"DIS_CODE":0,"TOWNNAME":"南區","LI":"建南里","LIN":"18鄰","STREET":"明興路","SECT":" ","MAREA":" ","LANE":"７７巷","ALLEY":"３０弄","HOUSE_NO":"２５號","E_COORD97":166769.13,"N_COORD97":2539881.5600000001,"ADDRESS":"明興路７７巷３０弄２５號","OBJECTID":209467},"geometry":{"x":166769.12999999989,"y":2539881.5600000042}},{"attributes":{"ID":209469,"DIS_CODE":0,"TOWNNAME":"玉井區","LI":"望明里","LIN":"9鄰","STREET":" ","SECT":" ","MAREA":"劉陳","LANE":" ","ALLEY":" ","HOUSE_NO":"７４號","E_COORD97":193467.89999999999,"N_COORD97":2556131.2400000002,"ADDRESS":"劉陳７４號","OBJECTID":209468},"geometry":{"x":193467.9000000013,"y":2556131.2400000021}},{"attributes":{"ID":209470,"DIS_CODE":0,"TOWNNAME":"玉井區","LI":"望明里","LIN":"9鄰","STREET":" ","SECT":" ","MAREA":"劉陳","LANE":" ","ALLEY":" ","HOUSE_NO":"２號","E_COORD97":193412.06,"N_COORD97":2555970.25,"ADDRESS":"劉陳２號","OBJECTID":209469},"geometry":{"x":193412.06000000052,"y":2555970.2500000037}},{"attributes":{"ID":209471,"DIS_CODE":0,"TOWNNAME":"玉井區","LI":"望明里","LIN":"9鄰","STREET":" ","SECT":" ","MAREA":"劉陳","LANE":" ","ALLEY":" ","HOUSE_NO":"８６號","E_COORD97":193478.01000000001,"N_COORD97":2556161.25,"ADDRESS":"劉陳８６號","OBJECTID":209470},"geometry":{"x":193478.00999999885,"y":2556161.2500000019}},{"attributes":{"ID":209472,"DIS_CODE":0,"TOWNNAME":"南區","LI":"建南里","LIN":"18鄰","STREET":"明興路","SECT":" ","MAREA":" ","LANE":"７７巷","ALLEY":"３０弄","HOUSE_NO":"２７號","E_COORD97":166768.92999999999,"N_COORD97":2539876.4100000001,"ADDRESS":"明興路７７巷３０弄２７號","OBJECTID":209471},"geometry":{"x":166768.9299999997,"y":2539876.410000002}},{"attributes":{"ID":209473,"DIS_CODE":0,"TOWNNAME":"歸仁區","LI":"大潭里","LIN":"9鄰","STREET":"長榮路","SECT":"一段","MAREA":" ","LANE":" ","ALLEY":" ","HOUSE_NO":"７１６號","E_COORD97":176264.42999999999,"N_COORD97":2534483.25,"ADDRESS":"長榮路一段７１６號","OBJECTID":209472},"geometry":{"x":176264.43000000063,"y":2534483.2500000019}},{"attributes":{"ID":209474,"DIS_CODE":0,"TOWNNAME":"大內區","LI":"內郭里","LIN":"2鄰","STREET":" ","SECT":" ","MAREA":"內庄","LANE":" ","ALLEY":" ","HOUSE_NO":"１６２號","E_COORD97":184863.67999999999,"N_COORD97":2557315.25,"ADDRESS":"內庄１６２號","OBJECTID":209473},"geometry":{"x":184863.68000000156,"y":2557315.25}},{"attributes":{"ID":209475,"DIS_CODE":0,"TOWNNAME":"大內區","LI":"大內里","LIN":"2鄰","STREET":" ","SECT":" ","MAREA":"內庄","LANE":" ","ALLEY":" ","HOUSE_NO":"１１號之３","E_COORD97":184505.85999999999,"N_COORD97":2557548.2999999998,"ADDRESS":"內庄１１號之３","OBJECTID":209474},"geometry":{"x":184505.86000000127,"y":2557548.3000000026}},{"attributes":{"ID":209476,"DIS_CODE":0,"TOWNNAME":"大內區","LI":"內郭里","LIN":"2鄰","STREET":" ","SECT":" ","MAREA":"內庄","LANE":" ","ALLEY":" ","HOUSE_NO":"１６６號","E_COORD97":184840.78,"N_COORD97":2557366.25,"ADDRESS":"內庄１６６號","OBJECTID":209475},"geometry":{"x":184840.78000000026,"y":2557366.25}},{"attributes":{"ID":209477,"DIS_CODE":0,"TOWNNAME":"大內區","LI":"大內里","LIN":"2鄰","STREET":" ","SECT":" ","MAREA":"內庄","LANE":" ","ALLEY":" ","HOUSE_NO":"１２號之３","E_COORD97":184538.66,"N_COORD97":2557518.2999999998,"ADDRESS":"內庄１２號之３","OBJECTID":209476},"geometry":{"x":184538.65999999922,"y":2557518.3000000026}},{"attributes":{"ID":209478,"DIS_CODE":0,"TOWNNAME":"南區","LI":"建南里","LIN":"18鄰","STREET":"明興路","SECT":" ","MAREA":" ","LANE":"７７巷","ALLEY":"３０弄","HOUSE_NO":"２９號","E_COORD97":166768.73000000001,"N_COORD97":2539871.4500000002,"ADDRESS":"明興路７７巷３０弄２９號","OBJECTID":209477},"geometry":{"x":166768.73000000138,"y":2539871.4500000011}},{"attributes":{"ID":209479,"DIS_CODE":0,"TOWNNAME":"大內區","LI":"大內里","LIN":"2鄰","STREET":" ","SECT":" ","MAREA":"內庄","LANE":" ","ALLEY":" ","HOUSE_NO":"１６號","E_COORD97":184537.63,"N_COORD97":2557487.25,"ADDRESS":"內庄１６號","OBJECTID":209478},"geometry":{"x":184537.63000000082,"y":2557487.2500000019}},{"attributes":{"ID":209480,"DIS_CODE":0,"TOWNNAME":"麻豆區","LI":"安正里","LIN":"2鄰","STREET":" ","SECT":" ","MAREA":"前班","LANE":" ","ALLEY":" ","HOUSE_NO":"２１號","E_COORD97":171728.07999999999,"N_COORD97":2563503.5800000001,"ADDRESS":"前班２１號","OBJECTID":209479},"geometry":{"x":171728.08000000007,"y":2563503.5800000001}},{"attributes":{"ID":209481,"DIS_CODE":0,"TOWNNAME":"南區","LI":"建南里","LIN":"18鄰","STREET":"明興路","SECT":" ","MAREA":" ","LANE":"７７巷","ALLEY":"３０弄","HOUSE_NO":"３３號","E_COORD97":166767.94,"N_COORD97":2539863.5299999998,"ADDRESS":"明興路７７巷３０弄３３號","OBJECTID":209480},"geometry":{"x":166767.94000000041,"y":2539863.5300000031}},{"attributes":{"ID":209482,"DIS_CODE":0,"TOWNNAME":"南區","LI":"建南里","LIN":"18鄰","STREET":"明興路","SECT":" ","MAREA":" ","LANE":"７７巷","ALLEY":"３０弄","HOUSE_NO":"３５號","E_COORD97":166767.94,"N_COORD97":2539859.3700000001,"ADDRESS":"明興路７７巷３０弄３５號","OBJECTID":209481},"geometry":{"x":166767.94000000041,"y":2539859.3700000048}},{"attributes":{"ID":209483,"DIS_CODE":0,"TOWNNAME":"麻豆區","LI":"安正里","LIN":"2鄰","STREET":" ","SECT":" ","MAREA":"前班","LANE":" ","ALLEY":" ","HOUSE_NO":"２２號之１","E_COORD97":171799.38,"N_COORD97":2563540.75,"ADDRESS":"前班２２號之１","OBJECTID":209482},"geometry":{"x":171799.38000000175,"y":2563540.7499999981}},{"attributes":{"ID":209484,"DIS_CODE":0,"TOWNNAME":"永康區","LI":"二王里","LIN":"42鄰","STREET":"中山南路","SECT":" ","MAREA":" ","LANE":"３１６巷","ALLEY":"３２弄","HOUSE_NO":"２８之１號","E_COORD97":172036.09,"N_COORD97":2546056,"ADDRESS":"中山南路３１６巷３２弄２８之１號","OBJECTID":209483},"geometry":{"x":172036.08999999985,"y":2546056.0000000019}},{"attributes":{"ID":209485,"DIS_CODE":0,"TOWNNAME":"永康區","LI":"成功里","LIN":"42鄰","STREET":"中華路","SECT":" ","MAREA":" ","LANE":"１５４巷","ALLEY":"１８弄","HOUSE_NO":"３號","E_COORD97":171698.95999999999,"N_COORD97":2544867.71,"ADDRESS":"中華路１５４巷１８弄３號","OBJECTID":209484},"geometry":{"x":171698.96000000183,"y":2544867.709999999}},{"attributes":{"ID":209486,"DIS_CODE":0,"TOWNNAME":"麻豆區","LI":"安正里","LIN":"2鄰","STREET":" ","SECT":" ","MAREA":"前班","LANE":" ","ALLEY":" ","HOUSE_NO":"２２號","E_COORD97":171728.70999999999,"N_COORD97":2563545.5699999998,"ADDRESS":"前班２２號","OBJECTID":209485},"geometry":{"x":171728.70999999996,"y":2563545.5700000003}},{"attributes":{"ID":209487,"DIS_CODE":0,"TOWNNAME":"麻豆區","LI":"安正里","LIN":"2鄰","STREET":" ","SECT":" ","MAREA":"前班","LANE":" ","ALLEY":" ","HOUSE_NO":"２３號之１","E_COORD97":171719.79999999999,"N_COORD97":2563557.46,"ADDRESS":"前班２３號之１","OBJECTID":209486},"geometry":{"x":171719.79999999981,"y":2563557.4600000046}},{"attributes":{"ID":209488,"DIS_CODE":0,"TOWNNAME":"麻豆區","LI":"安正里","LIN":"2鄰","STREET":" ","SECT":" ","MAREA":"前班","LANE":" ","ALLEY":" ","HOUSE_NO":"２３號之２","E_COORD97":171698.20999999999,"N_COORD97":2563580.9700000002,"ADDRESS":"前班２３號之２","OBJECTID":209487},"geometry":{"x":171698.20999999996,"y":2563580.9700000044}},{"attributes":{"ID":209489,"DIS_CODE":0,"TOWNNAME":"麻豆區","LI":"安正里","LIN":"2鄰","STREET":" ","SECT":" ","MAREA":"前班","LANE":" ","ALLEY":" ","HOUSE_NO":"２３號之６","E_COORD97":171817.63,"N_COORD97":2563621.4500000002,"ADDRESS":"前班２３號之６","OBJECTID":209488},"geometry":{"x":171817.62999999989,"y":2563621.4500000011}},{"attributes":{"ID":209490,"DIS_CODE":0,"TOWNNAME":"麻豆區","LI":"安正里","LIN":"2鄰","STREET":" ","SECT":" ","MAREA":"前班","LANE":" ","ALLEY":" ","HOUSE_NO":"２３號","E_COORD97":171700.26000000001,"N_COORD97":2563585.75,"ADDRESS":"前班２３號","OBJECTID":209489},"geometry":{"x":171700.26000000071,"y":2563585.7500000019}},{"attributes":{"ID":209491,"DIS_CODE":0,"TOWNNAME":"麻豆區","LI":"安正里","LIN":"2鄰","STREET":" ","SECT":" ","MAREA":"前班","LANE":" ","ALLEY":" ","HOUSE_NO":"２８號之１","E_COORD97":172168.16,"N_COORD97":2563251.8199999998,"ADDRESS":"前班２８號之１","OBJECTID":209490},"geometry":{"x":172168.16000000015,"y":2563251.8200000003}},{"attributes":{"ID":209492,"DIS_CODE":0,"TOWNNAME":"白河區","LI":"蓮潭里","LIN":"2鄰","STREET":" ","SECT":" ","MAREA":"三角潭","LANE":" ","ALLEY":" ","HOUSE_NO":"２０之２號","E_COORD97":189972.5,"N_COORD97":2589678.5600000001,"ADDRESS":"三角潭２０之２號","OBJECTID":209491},"geometry":{"x":189972.5,"y":2589678.5600000005}},{"attributes":{"ID":209493,"DIS_CODE":0,"TOWNNAME":"柳營區","LI":"士林里","LIN":"9鄰","STREET":" ","SECT":" ","MAREA":"柳營","LANE":" ","ALLEY":" ","HOUSE_NO":"８１號","E_COORD97":179568.92999999999,"N_COORD97":2575110.3199999998,"ADDRESS":"柳營８１號","OBJECTID":209492},"geometry":{"x":179568.9299999997,"y":2575110.3200000022}},{"attributes":{"ID":209494,"DIS_CODE":0,"TOWNNAME":"白河區","LI":"蓮潭里","LIN":"2鄰","STREET":" ","SECT":" ","MAREA":"三角潭","LANE":" ","ALLEY":" ","HOUSE_NO":"２０之６號","E_COORD97":189904.54999999999,"N_COORD97":2589694.1499999999,"ADDRESS":"三角潭２０之６號","OBJECTID":209493},"geometry":{"x":189904.55000000075,"y":2589694.1500000004}},{"attributes":{"ID":209495,"DIS_CODE":0,"TOWNNAME":"白河區","LI":"蓮潭里","LIN":"2鄰","STREET":" ","SECT":" ","MAREA":"三角潭","LANE":" ","ALLEY":" ","HOUSE_NO":"２０號","E_COORD97":189979.51999999999,"N_COORD97":2589658.4500000002,"ADDRESS":"三角潭２０號","OBJECTID":209494},"geometry":{"x":189979.52000000048,"y":2589658.450000003}},{"attributes":{"ID":209496,"DIS_CODE":0,"TOWNNAME":"白河區","LI":"蓮潭里","LIN":"2鄰","STREET":" ","SECT":" ","MAREA":"三角潭","LANE":" ","ALLEY":" ","HOUSE_NO":"２４號","E_COORD97":189947.64999999999,"N_COORD97":2589680.0899999999,"ADDRESS":"三角潭２４號","OBJECTID":209495},"geometry":{"x":189947.65000000037,"y":2589680.0899999999}},{"attributes":{"ID":209497,"DIS_CODE":0,"TOWNNAME":"白河區","LI":"蓮潭里","LIN":"2鄰","STREET":" ","SECT":" ","MAREA":"三角潭","LANE":" ","ALLEY":" ","HOUSE_NO":"２５之５號","E_COORD97":189725.23999999999,"N_COORD97":2589547.73,"ADDRESS":"三角潭２５之５號","OBJECTID":209496},"geometry":{"x":189725.24000000022,"y":2589547.7300000004}},{"attributes":{"ID":209498,"DIS_CODE":0,"TOWNNAME":"白河區","LI":"蓮潭里","LIN":"2鄰","STREET":" ","SECT":" ","MAREA":"三角潭","LANE":" ","ALLEY":" ","HOUSE_NO":"２５號","E_COORD97":189945.76999999999,"N_COORD97":2589576.9100000001,"ADDRESS":"三角潭２５號","OBJECTID":209497},"geometry":{"x":189945.77000000048,"y":2589576.9100000001}},{"attributes":{"ID":209499,"DIS_CODE":0,"TOWNNAME":"白河區","LI":"蓮潭里","LIN":"2鄰","STREET":" ","SECT":" ","MAREA":"三角潭","LANE":" ","ALLEY":" ","HOUSE_NO":"２６號","E_COORD97":189961.10000000001,"N_COORD97":2589568.4500000002,"ADDRESS":"三角潭２６號","OBJECTID":209498},"geometry":{"x":189961.09999999963,"y":2589568.4500000011}},{"attributes":{"ID":209500,"DIS_CODE":0,"TOWNNAME":"白河區","LI":"昇安里","LIN":"2鄰","STREET":" ","SECT":" ","MAREA":"三間厝","LANE":" ","ALLEY":" ","HOUSE_NO":"１６號","E_COORD97":191565.17000000001,"N_COORD97":2584730.48,"ADDRESS":"三間厝１６號","OBJECTID":209499},"geometry":{"x":191565.17000000086,"y":2584730.4800000023}},{"attributes":{"ID":209501,"DIS_CODE":0,"TOWNNAME":"白河區","LI":"昇安里","LIN":"2鄰","STREET":" ","SECT":" ","MAREA":"三間厝","LANE":" ","ALLEY":" ","HOUSE_NO":"１７之１號","E_COORD97":191570.39000000001,"N_COORD97":2584708.79,"ADDRESS":"三間厝１７之１號","OBJECTID":209500},"geometry":{"x":191570.3900000006,"y":2584708.7899999991}},{"attributes":{"ID":209502,"DIS_CODE":0,"TOWNNAME":"白河區","LI":"昇安里","LIN":"2鄰","STREET":" ","SECT":" ","MAREA":"三間厝","LANE":" ","ALLEY":" ","HOUSE_NO":"１７之６號","E_COORD97":191596.53,"N_COORD97":2584662.0800000001,"ADDRESS":"三間厝１７之６號","OBJECTID":209501},"geometry":{"x":191596.53000000026,"y":2584662.0800000019}},{"attributes":{"ID":209503,"DIS_CODE":0,"TOWNNAME":"白河區","LI":"昇安里","LIN":"2鄰","STREET":" ","SECT":" ","MAREA":"三間厝","LANE":" ","ALLEY":" ","HOUSE_NO":"１７號","E_COORD97":191579.32000000001,"N_COORD97":2584713.0499999998,"ADDRESS":"三間厝１７號","OBJECTID":209502},"geometry":{"x":191579.3200000003,"y":2584713.0500000026}},{"attributes":{"ID":209504,"DIS_CODE":0,"TOWNNAME":"永康區","LI":"成功里","LIN":"42鄰","STREET":"中華路","SECT":" ","MAREA":" ","LANE":"１５４巷","ALLEY":"１８弄","HOUSE_NO":"１７號","E_COORD97":171729.92000000001,"N_COORD97":2544864.9500000002,"ADDRESS":"中華路１５４巷１８弄１７號","OBJECTID":209503},"geometry":{"x":171729.92000000086,"y":2544864.9500000011}},{"attributes":{"ID":209505,"DIS_CODE":0,"TOWNNAME":"永康區","LI":"成功里","LIN":"42鄰","STREET":"中華路","SECT":" ","MAREA":" ","LANE":"１５４巷","ALLEY":"１８弄","HOUSE_NO":"２１號","E_COORD97":171738.06,"N_COORD97":2544864.75,"ADDRESS":"中華路１５４巷１８弄２１號","OBJECTID":209504},"geometry":{"x":171738.05999999959,"y":2544864.7500000019}},{"attributes":{"ID":209506,"DIS_CODE":0,"TOWNNAME":"南區","LI":"文南里","LIN":"9鄰","STREET":"文南路","SECT":" ","MAREA":" ","LANE":" ","ALLEY":" ","HOUSE_NO":"６６號","E_COORD97":166948.51999999999,"N_COORD97":2542681.3599999999,"ADDRESS":"文南路６６號","OBJECTID":209505},"geometry":{"x":166948.52000000048,"y":2542681.3599999994}},{"attributes":{"ID":209507,"DIS_CODE":0,"TOWNNAME":"永康區","LI":"成功里","LIN":"42鄰","STREET":"中華路","SECT":" ","MAREA":" ","LANE":"１５４巷","ALLEY":"１８弄","HOUSE_NO":"１５號","E_COORD97":171724.84,"N_COORD97":2544865.4500000002,"ADDRESS":"中華路１５４巷１８弄１５號","OBJECTID":209506},"geometry":{"x":171724.83999999892,"y":2544865.4500000011}},{"attributes":{"ID":209508,"DIS_CODE":0,"TOWNNAME":"仁德區","LI":"仁義里","LIN":"42鄰","STREET":"中正路","SECT":"二段","MAREA":" ","LANE":"９９４巷","ALLEY":"３４弄","HOUSE_NO":"１５號","E_COORD97":173530.51000000001,"N_COORD97":2540739.4100000001,"ADDRESS":"中正路二段９９４巷３４弄１５號","OBJECTID":209507},"geometry":{"x":173530.50999999978,"y":2540739.4100000001}},{"attributes":{"ID":209509,"DIS_CODE":0,"TOWNNAME":"仁德區","LI":"仁義里","LIN":"42鄰","STREET":"中正路","SECT":"二段","MAREA":" ","LANE":"９９４巷","ALLEY":"３４弄","HOUSE_NO":"５號","E_COORD97":173527.81,"N_COORD97":2540759.3999999999,"ADDRESS":"中正路二段９９４巷３４弄５號","OBJECTID":209508},"geometry":{"x":173527.80999999959,"y":2540759.4000000004}},{"attributes":{"ID":209510,"DIS_CODE":0,"TOWNNAME":"仁德區","LI":"仁義里","LIN":"42鄰","STREET":"中正路","SECT":"二段","MAREA":" ","LANE":"９９４巷","ALLEY":"３４弄","HOUSE_NO":"３號","E_COORD97":173527.35999999999,"N_COORD97":2540763.3999999999,"ADDRESS":"中正路二段９９４巷３４弄３號","OBJECTID":209509},"geometry":{"x":173527.3600000022,"y":2540763.4000000004}},{"attributes":{"ID":209511,"DIS_CODE":0,"TOWNNAME":"永康區","LI":"二王里","LIN":"42鄰","STREET":"中山南路","SECT":" ","MAREA":" ","LANE":"３１６巷","ALLEY":"３２弄","HOUSE_NO":"１２號","E_COORD97":172043.25,"N_COORD97":2546093.46,"ADDRESS":"中山南路３１６巷３２弄１２號","OBJECTID":209510},"geometry":{"x":172043.25000000093,"y":2546093.4600000046}},{"attributes":{"ID":209512,"DIS_CODE":0,"TOWNNAME":"永康區","LI":"二王里","LIN":"42鄰","STREET":"中山南路","SECT":" ","MAREA":" ","LANE":"３１６巷","ALLEY":"２６弄","HOUSE_NO":"１２號","E_COORD97":172015.26999999999,"N_COORD97":2546122.46,"ADDRESS":"中山南路３１６巷２６弄１２號","OBJECTID":209511},"geometry":{"x":172015.27000000048,"y":2546122.4600000009}},{"attributes":{"ID":209513,"DIS_CODE":0,"TOWNNAME":"永康區","LI":"成功里","LIN":"42鄰","STREET":"中華路","SECT":" ","MAREA":" ","LANE":"１５４巷","ALLEY":"１８弄","HOUSE_NO":"３１號","E_COORD97":171758.98999999999,"N_COORD97":2544863,"ADDRESS":"中華路１５４巷１８弄３１號","OBJECTID":209512},"geometry":{"x":171758.99000000115,"y":2544863.0000000019}},{"attributes":{"ID":209514,"DIS_CODE":0,"TOWNNAME":"永康區","LI":"西灣里","LIN":"42鄰","STREET":"大灣路","SECT":" ","MAREA":" ","LANE":"９４２巷","ALLEY":"３７４弄","HOUSE_NO":"３０號","E_COORD97":174020.47,"N_COORD97":2545396.0600000001,"ADDRESS":"大灣路９４２巷３７４弄３０號","OBJECTID":209513},"geometry":{"x":174020.46999999974,"y":2545396.0600000005}},{"attributes":{"ID":209515,"DIS_CODE":0,"TOWNNAME":"永康區","LI":"西灣里","LIN":"42鄰","STREET":"大灣路","SECT":" ","MAREA":" ","LANE":"９４２巷","ALLEY":"３７４弄","HOUSE_NO":"８號","E_COORD97":173980.04999999999,"N_COORD97":2545412.3500000001,"ADDRESS":"大灣路９４２巷３７４弄８號","OBJECTID":209514},"geometry":{"x":173980.05000000075,"y":2545412.3500000015}},{"attributes":{"ID":209516,"DIS_CODE":0,"TOWNNAME":"麻豆區","LI":"東角里","LIN":"9鄰","STREET":"興中路","SECT":" ","MAREA":" ","LANE":" ","ALLEY":" ","HOUSE_NO":"２１１號","E_COORD97":173844,"N_COORD97":2564835.2200000002,"ADDRESS":"興中路２１１號","OBJECTID":209515},"geometry":{"x":173844,"y":2564835.2200000025}},{"attributes":{"ID":209517,"DIS_CODE":0,"TOWNNAME":"麻豆區","LI":"港尾里","LIN":"9鄰","STREET":" ","SECT":" ","MAREA":"港子尾","LANE":" ","ALLEY":" ","HOUSE_NO":"１７號","E_COORD97":168522.82000000001,"N_COORD97":2567133.2400000002,"ADDRESS":"港子尾１７號","OBJECTID":209516},"geometry":{"x":168522.8200000003,"y":2567133.2400000021}},{"attributes":{"ID":209518,"DIS_CODE":0,"TOWNNAME":"東山區","LI":"南溪里","LIN":"9鄰","STREET":" ","SECT":" ","MAREA":"二重溪","LANE":" ","ALLEY":" ","HOUSE_NO":"９４號","E_COORD97":189434.07000000001,"N_COORD97":2574306.6800000002,"ADDRESS":"二重溪９４號","OBJECTID":209517},"geometry":{"x":189434.07000000123,"y":2574306.6800000016}},{"attributes":{"ID":209519,"DIS_CODE":0,"TOWNNAME":"白河區","LI":"昇安里","LIN":"2鄰","STREET":" ","SECT":" ","MAREA":"三間厝","LANE":" ","ALLEY":" ","HOUSE_NO":"１８號","E_COORD97":191583.91,"N_COORD97":2584733.3799999999,"ADDRESS":"三間厝１８號","OBJECTID":209518},"geometry":{"x":191583.91000000201,"y":2584733.3800000008}},{"attributes":{"ID":209520,"DIS_CODE":0,"TOWNNAME":"白河區","LI":"昇安里","LIN":"2鄰","STREET":" ","SECT":" ","MAREA":"三間厝","LANE":" ","ALLEY":" ","HOUSE_NO":"１９之１號","E_COORD97":191559.92000000001,"N_COORD97":2584755.3199999998,"ADDRESS":"三間厝１９之１號","OBJECTID":209519},"geometry":{"x":191559.92000000179,"y":2584755.3200000022}},{"attributes":{"ID":209521,"DIS_CODE":0,"TOWNNAME":"白河區","LI":"昇安里","LIN":"2鄰","STREET":" ","SECT":" ","MAREA":"三間厝","LANE":" ","ALLEY":" ","HOUSE_NO":"２０之１號","E_COORD97":191587.54000000001,"N_COORD97":2584755.3399999999,"ADDRESS":"三間厝２０之１號","OBJECTID":209520},"geometry":{"x":191587.54000000004,"y":2584755.3400000017}},{"attributes":{"ID":209522,"DIS_CODE":0,"TOWNNAME":"白河區","LI":"昇安里","LIN":"2鄰","STREET":" ","SECT":" ","MAREA":"三間厝","LANE":" ","ALLEY":" ","HOUSE_NO":"２０號","E_COORD97":191587.87,"N_COORD97":2584744.04,"ADDRESS":"三間厝２０號","OBJECTID":209521},"geometry":{"x":191587.87000000104,"y":2584744.0399999991}},{"attributes":{"ID":209523,"DIS_CODE":0,"TOWNNAME":"白河區","LI":"昇安里","LIN":"2鄰","STREET":" ","SECT":" ","MAREA":"三間厝","LANE":" ","ALLEY":" ","HOUSE_NO":"２１號","E_COORD97":191612.57000000001,"N_COORD97":2584742.48,"ADDRESS":"三間厝２１號","OBJECTID":209522},"geometry":{"x":191612.57000000123,"y":2584742.4800000004}},{"attributes":{"ID":209524,"DIS_CODE":0,"TOWNNAME":"白河區","LI":"昇安里","LIN":"2鄰","STREET":" ","SECT":" ","MAREA":"三間厝","LANE":" ","ALLEY":" ","HOUSE_NO":"２３號","E_COORD97":191640.67000000001,"N_COORD97":2584724.6099999999,"ADDRESS":"三間厝２３號","OBJECTID":209523},"geometry":{"x":191640.66999999993,"y":2584724.6100000031}},{"attributes":{"ID":209525,"DIS_CODE":0,"TOWNNAME":"白河區","LI":"昇安里","LIN":"2鄰","STREET":" ","SECT":" ","MAREA":"三間厝","LANE":" ","ALLEY":" ","HOUSE_NO":"２６之１號","E_COORD97":191657.47,"N_COORD97":2584709.3199999998,"ADDRESS":"三間厝２６之１號","OBJECTID":209524},"geometry":{"x":191657.46999999974,"y":2584709.3200000003}},{"attributes":{"ID":209526,"DIS_CODE":0,"TOWNNAME":"麻豆區","LI":"小埤里","LIN":"2鄰","STREET":" ","SECT":" ","MAREA":"苓子林","LANE":" ","ALLEY":" ","HOUSE_NO":"１５號之１０","E_COORD97":171673.75,"N_COORD97":2564684.9500000002,"ADDRESS":"苓子林１５號之１０","OBJECTID":209525},"geometry":{"x":171673.75000000093,"y":2564684.950000003}},{"attributes":{"ID":209527,"DIS_CODE":0,"TOWNNAME":"關廟區","LI":"松腳里","LIN":"15鄰","STREET":"民族街","SECT":" ","MAREA":" ","LANE":" ","ALLEY":" ","HOUSE_NO":"１號","E_COORD97":181652.98999999999,"N_COORD97":2539774.29,"ADDRESS":"民族街１號","OBJECTID":209526},"geometry":{"x":181652.98999999929,"y":2539774.290000001}},{"attributes":{"ID":209528,"DIS_CODE":0,"TOWNNAME":"麻豆區","LI":"小埤里","LIN":"2鄰","STREET":" ","SECT":" ","MAREA":"苓子林","LANE":" ","ALLEY":" ","HOUSE_NO":"１５號之１１","E_COORD97":171645.35999999999,"N_COORD97":2564654.3500000001,"ADDRESS":"苓子林１５號之１１","OBJECTID":209527},"geometry":{"x":171645.36000000034,"y":2564654.3499999996}},{"attributes":{"ID":209529,"DIS_CODE":0,"TOWNNAME":"麻豆區","LI":"小埤里","LIN":"2鄰","STREET":" ","SECT":" ","MAREA":"苓子林","LANE":" ","ALLEY":" ","HOUSE_NO":"１５號之１２","E_COORD97":171659.14000000001,"N_COORD97":2564675.7999999998,"ADDRESS":"苓子林１５號之１２","OBJECTID":209528},"geometry":{"x":171659.1400000006,"y":2564675.8000000007}},{"attributes":{"ID":209530,"DIS_CODE":0,"TOWNNAME":"麻豆區","LI":"小埤里","LIN":"2鄰","STREET":" ","SECT":" ","MAREA":"苓子林","LANE":" ","ALLEY":" ","HOUSE_NO":"１５號之１３","E_COORD97":171653.95000000001,"N_COORD97":2564672.2799999998,"ADDRESS":"苓子林１５號之１３","OBJECTID":209529},"geometry":{"x":171653.95000000112,"y":2564672.2799999975}},{"attributes":{"ID":209531,"DIS_CODE":0,"TOWNNAME":"麻豆區","LI":"小埤里","LIN":"2鄰","STREET":" ","SECT":" ","MAREA":"苓子林","LANE":" ","ALLEY":" ","HOUSE_NO":"１５號之１４","E_COORD97":171609.95000000001,"N_COORD97":2564631.8599999999,"ADDRESS":"苓子林１５號之１４","OBJECTID":209530},"geometry":{"x":171609.95000000112,"y":2564631.8600000013}},{"attributes":{"ID":209532,"DIS_CODE":0,"TOWNNAME":"麻豆區","LI":"小埤里","LIN":"2鄰","STREET":" ","SECT":" ","MAREA":"苓子林","LANE":" ","ALLEY":" ","HOUSE_NO":"１５號","E_COORD97":171564.70000000001,"N_COORD97":2564764.1899999999,"ADDRESS":"苓子林１５號","OBJECTID":209531},"geometry":{"x":171564.70000000019,"y":2564764.1899999995}},{"attributes":{"ID":209533,"DIS_CODE":0,"TOWNNAME":"麻豆區","LI":"小埤里","LIN":"2鄰","STREET":" ","SECT":" ","MAREA":"苓子林","LANE":" ","ALLEY":" ","HOUSE_NO":"１６號之１０","E_COORD97":171490.14999999999,"N_COORD97":2564583.23,"ADDRESS":"苓子林１６號之１０","OBJECTID":209532},"geometry":{"x":171490.1500000013,"y":2564583.2300000023}},{"attributes":{"ID":209534,"DIS_CODE":0,"TOWNNAME":"麻豆區","LI":"小埤里","LIN":"2鄰","STREET":" ","SECT":" ","MAREA":"苓子林","LANE":" ","ALLEY":" ","HOUSE_NO":"１６號之２０","E_COORD97":171346.20000000001,"N_COORD97":2564500.2999999998,"ADDRESS":"苓子林１６號之２０","OBJECTID":209533},"geometry":{"x":171346.20000000019,"y":2564500.3000000007}},{"attributes":{"ID":209535,"DIS_CODE":0,"TOWNNAME":"麻豆區","LI":"小埤里","LIN":"2鄰","STREET":" ","SECT":" ","MAREA":"苓子林","LANE":" ","ALLEY":" ","HOUSE_NO":"１６號之２２","E_COORD97":171322.60000000001,"N_COORD97":2564517.8500000001,"ADDRESS":"苓子林１６號之２２","OBJECTID":209534},"geometry":{"x":171322.59999999963,"y":2564517.8500000015}},{"attributes":{"ID":209536,"DIS_CODE":0,"TOWNNAME":"麻豆區","LI":"小埤里","LIN":"2鄰","STREET":" ","SECT":" ","MAREA":"苓子林","LANE":" ","ALLEY":" ","HOUSE_NO":"１６號之２５","E_COORD97":171243.64000000001,"N_COORD97":2564499.2400000002,"ADDRESS":"苓子林１６號之２５","OBJECTID":209535},"geometry":{"x":171243.6400000006,"y":2564499.2400000002}},{"attributes":{"ID":209537,"DIS_CODE":0,"TOWNNAME":"麻豆區","LI":"小埤里","LIN":"2鄰","STREET":" ","SECT":" ","MAREA":"苓子林","LANE":" ","ALLEY":" ","HOUSE_NO":"１６號之３","E_COORD97":171551.34,"N_COORD97":2564608.8900000001,"ADDRESS":"苓子林１６號之３","OBJECTID":209536},"geometry":{"x":171551.33999999985,"y":2564608.8900000025}},{"attributes":{"ID":209538,"DIS_CODE":0,"TOWNNAME":"麻豆區","LI":"小埤里","LIN":"2鄰","STREET":" ","SECT":" ","MAREA":"苓子林","LANE":" ","ALLEY":" ","HOUSE_NO":"１６號之４","E_COORD97":171519.07000000001,"N_COORD97":2564594.0299999998,"ADDRESS":"苓子林１６號之４","OBJECTID":209537},"geometry":{"x":171519.07000000123,"y":2564594.0300000012}},{"attributes":{"ID":209539,"DIS_CODE":0,"TOWNNAME":"麻豆區","LI":"小埤里","LIN":"2鄰","STREET":" ","SECT":" ","MAREA":"苓子林","LANE":" ","ALLEY":" ","HOUSE_NO":"１６號之９","E_COORD97":171460.37,"N_COORD97":2564652.1499999999,"ADDRESS":"苓子林１６號之９","OBJECTID":209538},"geometry":{"x":171460.37000000011,"y":2564652.1500000022}},{"attributes":{"ID":209540,"DIS_CODE":0,"TOWNNAME":"麻豆區","LI":"小埤里","LIN":"2鄰","STREET":" ","SECT":" ","MAREA":"苓子林","LANE":" ","ALLEY":" ","HOUSE_NO":"１６號","E_COORD97":171564.04999999999,"N_COORD97":2564616.52,"ADDRESS":"苓子林１６號","OBJECTID":209539},"geometry":{"x":171564.04999999888,"y":2564616.5199999996}},{"attributes":{"ID":209541,"DIS_CODE":0,"TOWNNAME":"麻豆區","LI":"小埤里","LIN":"2鄰","STREET":" ","SECT":" ","MAREA":"苓子林","LANE":" ","ALLEY":" ","HOUSE_NO":"１７號之１０","E_COORD97":171409.03,"N_COORD97":2564124.4300000002,"ADDRESS":"苓子林１７號之１０","OBJECTID":209540},"geometry":{"x":171409.03000000119,"y":2564124.4299999997}},{"attributes":{"ID":209542,"DIS_CODE":0,"TOWNNAME":"麻豆區","LI":"小埤里","LIN":"2鄰","STREET":" ","SECT":" ","MAREA":"苓子林","LANE":" ","ALLEY":" ","HOUSE_NO":"１７號之１１","E_COORD97":171359.94,"N_COORD97":2564451.29,"ADDRESS":"苓子林１７號之１１","OBJECTID":209541},"geometry":{"x":171359.94000000041,"y":2564451.2899999991}},{"attributes":{"ID":209543,"DIS_CODE":0,"TOWNNAME":"麻豆區","LI":"小埤里","LIN":"2鄰","STREET":" ","SECT":" ","MAREA":"苓子林","LANE":" ","ALLEY":" ","HOUSE_NO":"１７號之１２","E_COORD97":171377.91,"N_COORD97":2564461.29,"ADDRESS":"苓子林１７號之１２","OBJECTID":209542},"geometry":{"x":171377.91000000108,"y":2564461.2899999991}},{"attributes":{"ID":209544,"DIS_CODE":0,"TOWNNAME":"麻豆區","LI":"小埤里","LIN":"2鄰","STREET":" ","SECT":" ","MAREA":"苓子林","LANE":" ","ALLEY":" ","HOUSE_NO":"１７號之１３","E_COORD97":171389.23000000001,"N_COORD97":2564466.79,"ADDRESS":"苓子林１７號之１３","OBJECTID":209543},"geometry":{"x":171389.23000000138,"y":2564466.790000001}},{"attributes":{"ID":209545,"DIS_CODE":0,"TOWNNAME":"麻豆區","LI":"小埤里","LIN":"2鄰","STREET":" ","SECT":" ","MAREA":"苓子林","LANE":" ","ALLEY":" ","HOUSE_NO":"１７號之１４","E_COORD97":171401.42999999999,"N_COORD97":2564473.5600000001,"ADDRESS":"苓子林１７號之１４","OBJECTID":209544},"geometry":{"x":171401.4299999997,"y":2564473.5600000005}},{"attributes":{"ID":209546,"DIS_CODE":0,"TOWNNAME":"麻豆區","LI":"小埤里","LIN":"2鄰","STREET":" ","SECT":" ","MAREA":"苓子林","LANE":" ","ALLEY":" ","HOUSE_NO":"１７號之２","E_COORD97":171145.13,"N_COORD97":2564257.9300000002,"ADDRESS":"苓子林１７號之２","OBJECTID":209545},"geometry":{"x":171145.13000000082,"y":2564257.9299999978}},{"attributes":{"ID":209547,"DIS_CODE":0,"TOWNNAME":"麻豆區","LI":"小埤里","LIN":"2鄰","STREET":" ","SECT":" ","MAREA":"苓子林","LANE":" ","ALLEY":" ","HOUSE_NO":"１７號之３","E_COORD97":171219.23999999999,"N_COORD97":2564376.6800000002,"ADDRESS":"苓子林１７號之３","OBJECTID":209546},"geometry":{"x":171219.24000000209,"y":2564376.6800000016}},{"attributes":{"ID":209548,"DIS_CODE":0,"TOWNNAME":"麻豆區","LI":"小埤里","LIN":"2鄰","STREET":" ","SECT":" ","MAREA":"苓子林","LANE":" ","ALLEY":" ","HOUSE_NO":"１７號之５","E_COORD97":171214.60999999999,"N_COORD97":2564373.6499999999,"ADDRESS":"苓子林１７號之５","OBJECTID":209547},"geometry":{"x":171214.61000000034,"y":2564373.6500000022}},{"attributes":{"ID":209549,"DIS_CODE":0,"TOWNNAME":"麻豆區","LI":"小埤里","LIN":"2鄰","STREET":" ","SECT":" ","MAREA":"苓子林","LANE":" ","ALLEY":" ","HOUSE_NO":"１７號之６","E_COORD97":171209.32999999999,"N_COORD97":2564371,"ADDRESS":"苓子林１７號之６","OBJECTID":209548},"geometry":{"x":171209.33000000007,"y":2564371.0000000019}},{"attributes":{"ID":209550,"DIS_CODE":0,"TOWNNAME":"麻豆區","LI":"小埤里","LIN":"2鄰","STREET":" ","SECT":" ","MAREA":"苓子林","LANE":" ","ALLEY":" ","HOUSE_NO":"１７號之７","E_COORD97":171187.70999999999,"N_COORD97":2564309.5899999999,"ADDRESS":"苓子林１７號之７","OBJECTID":209549},"geometry":{"x":171187.71000000089,"y":2564309.5900000017}},{"attributes":{"ID":209551,"DIS_CODE":0,"TOWNNAME":"麻豆區","LI":"小埤里","LIN":"2鄰","STREET":" ","SECT":" ","MAREA":"苓子林","LANE":" ","ALLEY":" ","HOUSE_NO":"１７號之８","E_COORD97":171205.29999999999,"N_COORD97":2564367.73,"ADDRESS":"苓子林１７號之８","OBJECTID":209550},"geometry":{"x":171205.30000000075,"y":2564367.7300000004}},{"attributes":{"ID":209552,"DIS_CODE":0,"TOWNNAME":"麻豆區","LI":"小埤里","LIN":"2鄰","STREET":" ","SECT":" ","MAREA":"苓子林","LANE":" ","ALLEY":" ","HOUSE_NO":"１７號之９","E_COORD97":171301.82000000001,"N_COORD97":2564398.2799999998,"ADDRESS":"苓子林１７號之９","OBJECTID":209551},"geometry":{"x":171301.82000000216,"y":2564398.2800000012}},{"attributes":{"ID":209553,"DIS_CODE":0,"TOWNNAME":"麻豆區","LI":"小埤里","LIN":"2鄰","STREET":" ","SECT":" ","MAREA":"苓子林","LANE":" ","ALLEY":" ","HOUSE_NO":"１８號之１","E_COORD97":171094,"N_COORD97":2564305.6800000002,"ADDRESS":"苓子林１８號之１","OBJECTID":209552},"geometry":{"x":171094.00000000093,"y":2564305.6799999997}},{"attributes":{"ID":209554,"DIS_CODE":0,"TOWNNAME":"麻豆區","LI":"小埤里","LIN":"2鄰","STREET":" ","SECT":" ","MAREA":"苓子林","LANE":" ","ALLEY":" ","HOUSE_NO":"１８號","E_COORD97":171563.01999999999,"N_COORD97":2564932.2799999998,"ADDRESS":"苓子林１８號","OBJECTID":209553},"geometry":{"x":171563.02000000048,"y":2564932.2799999993}},{"attributes":{"ID":209555,"DIS_CODE":0,"TOWNNAME":"麻豆區","LI":"小埤里","LIN":"2鄰","STREET":" ","SECT":" ","MAREA":"苓子林","LANE":" ","ALLEY":" ","HOUSE_NO":"２０號之１","E_COORD97":171477.81,"N_COORD97":2564515.02,"ADDRESS":"苓子林２０號之１","OBJECTID":209554},"geometry":{"x":171477.81000000052,"y":2564515.0200000033}},{"attributes":{"ID":209556,"DIS_CODE":0,"TOWNNAME":"麻豆區","LI":"小埤里","LIN":"2鄰","STREET":" ","SECT":" ","MAREA":"苓子林","LANE":" ","ALLEY":" ","HOUSE_NO":"２０號","E_COORD97":171479.39999999999,"N_COORD97":2564408.2000000002,"ADDRESS":"苓子林２０號","OBJECTID":209555},"geometry":{"x":171479.40000000224,"y":2564408.1999999974}},{"attributes":{"ID":209557,"DIS_CODE":0,"TOWNNAME":"麻豆區","LI":"小埤里","LIN":"2鄰","STREET":" ","SECT":" ","MAREA":"苓子林","LANE":" ","ALLEY":" ","HOUSE_NO":"３０號","E_COORD97":171045.14999999999,"N_COORD97":2564349.0099999998,"ADDRESS":"苓子林３０號","OBJECTID":209556},"geometry":{"x":171045.15000000037,"y":2564349.0099999979}},{"attributes":{"ID":209558,"DIS_CODE":0,"TOWNNAME":"麻豆區","LI":"海埔里","LIN":"2鄰","STREET":" ","SECT":" ","MAREA":"埤子尾","LANE":" ","ALLEY":" ","HOUSE_NO":"１４號","E_COORD97":169735.66,"N_COORD97":2566539.48,"ADDRESS":"埤子尾１４號","OBJECTID":209557},"geometry":{"x":169735.66000000015,"y":2566539.4800000004}},{"attributes":{"ID":209559,"DIS_CODE":0,"TOWNNAME":"麻豆區","LI":"海埔里","LIN":"2鄰","STREET":" ","SECT":" ","MAREA":"埤子尾","LANE":" ","ALLEY":" ","HOUSE_NO":"１５號","E_COORD97":169786.47,"N_COORD97":2566598.7999999998,"ADDRESS":"埤子尾１５號","OBJECTID":209558},"geometry":{"x":169786.4700000016,"y":2566598.8000000007}},{"attributes":{"ID":209560,"DIS_CODE":0,"TOWNNAME":"永康區","LI":"西灣里","LIN":"42鄰","STREET":"大灣路","SECT":" ","MAREA":" ","LANE":"９４２巷","ALLEY":"３７４弄","HOUSE_NO":"４號","E_COORD97":173971.64999999999,"N_COORD97":2545415.6000000001,"ADDRESS":"大灣路９４２巷３７４弄４號","OBJECTID":209559},"geometry":{"x":173971.6500000013,"y":2545415.5999999996}},{"attributes":{"ID":209561,"DIS_CODE":0,"TOWNNAME":"永康區","LI":"西灣里","LIN":"42鄰","STREET":"大灣路","SECT":" ","MAREA":" ","LANE":"９４２巷","ALLEY":"３７４弄","HOUSE_NO":"１８號","E_COORD97":173998.06,"N_COORD97":2545406.3500000001,"ADDRESS":"大灣路９４２巷３７４弄１８號","OBJECTID":209560},"geometry":{"x":173998.05999999866,"y":2545406.3500000015}},{"attributes":{"ID":209562,"DIS_CODE":0,"TOWNNAME":"仁德區","LI":"仁德里","LIN":"42鄰","STREET":"中山路","SECT":" ","MAREA":" ","LANE":"８７０巷","ALLEY":"２２１弄","HOUSE_NO":"３２號","E_COORD97":171997.89999999999,"N_COORD97":2542208.25,"ADDRESS":"中山路８７０巷２２１弄３２號","OBJECTID":209561},"geometry":{"x":171997.90000000037,"y":2542208.25}},{"attributes":{"ID":209563,"DIS_CODE":0,"TOWNNAME":"麻豆區","LI":"\u25A0江里","LIN":"9鄰","STREET":"民權路","SECT":" ","MAREA":" ","LANE":" ","ALLEY":" ","HOUSE_NO":"６８號之２","E_COORD97":173535.47,"N_COORD97":2564214.6800000002,"ADDRESS":"民權路６８號之２","OBJECTID":209562},"geometry":{"x":173535.46999999974,"y":2564214.6799999997}},{"attributes":{"ID":209564,"DIS_CODE":0,"TOWNNAME":"麻豆區","LI":"\u25A0江里","LIN":"9鄰","STREET":"民權路","SECT":" ","MAREA":" ","LANE":" ","ALLEY":" ","HOUSE_NO":"６８號之３０","E_COORD97":173594.04999999999,"N_COORD97":2564164.3900000001,"ADDRESS":"民權路６８號之３０","OBJECTID":209563},"geometry":{"x":173594.05000000075,"y":2564164.3900000043}},{"attributes":{"ID":209565,"DIS_CODE":0,"TOWNNAME":"麻豆區","LI":"\u25A0江里","LIN":"9鄰","STREET":"民權路","SECT":" ","MAREA":" ","LANE":" ","ALLEY":" ","HOUSE_NO":"６８號之３１","E_COORD97":173593.20000000001,"N_COORD97":2564170.21,"ADDRESS":"民權路６８號之３１","OBJECTID":209564},"geometry":{"x":173593.20000000112,"y":2564170.2100000028}},{"attributes":{"ID":209566,"DIS_CODE":0,"TOWNNAME":"麻豆區","LI":"\u25A0江里","LIN":"9鄰","STREET":"民權路","SECT":" ","MAREA":" ","LANE":" ","ALLEY":" ","HOUSE_NO":"６８號之３２","E_COORD97":173592.14000000001,"N_COORD97":2564176.46,"ADDRESS":"民權路６８號之３２","OBJECTID":209565},"geometry":{"x":173592.13999999966,"y":2564176.4600000009}},{"attributes":{"ID":209567,"DIS_CODE":0,"TOWNNAME":"麻豆區","LI":"\u25A0江里","LIN":"9鄰","STREET":"民權路","SECT":" ","MAREA":" ","LANE":" ","ALLEY":" ","HOUSE_NO":"６８號之３３","E_COORD97":173590.91,"N_COORD97":2564182.6600000001,"ADDRESS":"民權路６８號之３３","OBJECTID":209566},"geometry":{"x":173590.91000000015,"y":2564182.6600000039}},{"attributes":{"ID":209568,"DIS_CODE":0,"TOWNNAME":"仁德區","LI":"仁德里","LIN":"42鄰","STREET":"中山路","SECT":" ","MAREA":" ","LANE":"８７０巷","ALLEY":"２２１弄","HOUSE_NO":"４號","E_COORD97":172001.04000000001,"N_COORD97":2542264,"ADDRESS":"中山路８７０巷２２１弄４號","OBJECTID":209567},"geometry":{"x":172001.04000000004,"y":2542264}},{"attributes":{"ID":209569,"DIS_CODE":0,"TOWNNAME":"仁德區","LI":"仁義里","LIN":"42鄰","STREET":"中正路","SECT":"二段","MAREA":" ","LANE":"９９４巷","ALLEY":"１０弄","HOUSE_NO":"１１號","E_COORD97":173488.400567,"N_COORD97":2540755.1872700001,"ADDRESS":"中正路二段９９４巷１０弄１１號","OBJECTID":209568},"geometry":{"x":173488.40056699887,"y":2540755.1872670017}},{"attributes":{"ID":209570,"DIS_CODE":0,"TOWNNAME":"麻豆區","LI":"海埔里","LIN":"2鄰","STREET":" ","SECT":" ","MAREA":"埤子尾","LANE":" ","ALLEY":" ","HOUSE_NO":"１６號之１","E_COORD97":169812.45000000001,"N_COORD97":2566614.5,"ADDRESS":"埤子尾１６號之１","OBJECTID":209569},"geometry":{"x":169812.45000000205,"y":2566614.5000000037}},{"attributes":{"ID":209571,"DIS_CODE":0,"TOWNNAME":"麻豆區","LI":"海埔里","LIN":"2鄰","STREET":" ","SECT":" ","MAREA":"埤子尾","LANE":" ","ALLEY":" ","HOUSE_NO":"１６號之２","E_COORD97":169813.23999999999,"N_COORD97":2566619.3599999999,"ADDRESS":"埤子尾１６號之２","OBJECTID":209570},"geometry":{"x":169813.24000000022,"y":2566619.3600000013}},{"attributes":{"ID":209572,"DIS_CODE":0,"TOWNNAME":"麻豆區","LI":"海埔里","LIN":"2鄰","STREET":" ","SECT":" ","MAREA":"埤子尾","LANE":" ","ALLEY":" ","HOUSE_NO":"１７號","E_COORD97":169811.45000000001,"N_COORD97":2566641.2200000002,"ADDRESS":"埤子尾１７號","OBJECTID":209571},"geometry":{"x":169811.45000000112,"y":2566641.2200000025}},{"attributes":{"ID":209573,"DIS_CODE":0,"TOWNNAME":"麻豆區","LI":"海埔里","LIN":"2鄰","STREET":" ","SECT":" ","MAREA":"埤子尾","LANE":" ","ALLEY":" ","HOUSE_NO":"１８號之２","E_COORD97":169770.70000000001,"N_COORD97":2566646.3199999998,"ADDRESS":"埤子尾１８號之２","OBJECTID":209572},"geometry":{"x":169770.70000000112,"y":2566646.320000004}},{"attributes":{"ID":209574,"DIS_CODE":0,"TOWNNAME":"麻豆區","LI":"海埔里","LIN":"2鄰","STREET":" ","SECT":" ","MAREA":"埤子尾","LANE":" ","ALLEY":" ","HOUSE_NO":"１８號","E_COORD97":169785.54999999999,"N_COORD97":2566649.6899999999,"ADDRESS":"埤子尾１８號","OBJECTID":209573},"geometry":{"x":169785.54999999981,"y":2566649.6900000032}},{"attributes":{"ID":209575,"DIS_CODE":0,"TOWNNAME":"仁德區","LI":"仁義里","LIN":"42鄰","STREET":"中正路","SECT":"二段","MAREA":" ","LANE":"９９４巷","ALLEY":"３４弄","HOUSE_NO":"９號","E_COORD97":173528.45000000001,"N_COORD97":2540751.4100000001,"ADDRESS":"中正路二段９９４巷３４弄９號","OBJECTID":209574},"geometry":{"x":173528.45000000112,"y":2540751.410000002}},{"attributes":{"ID":209576,"DIS_CODE":0,"TOWNNAME":"永康區","LI":"西灣里","LIN":"42鄰","STREET":"大灣路","SECT":" ","MAREA":" ","LANE":"９４２巷","ALLEY":"３７４弄","HOUSE_NO":"４０號","E_COORD97":174036.95000000001,"N_COORD97":2545390.5600000001,"ADDRESS":"大灣路９４２巷３７４弄４０號","OBJECTID":209575},"geometry":{"x":174036.95000000205,"y":2545390.5599999987}},{"attributes":{"ID":209577,"DIS_CODE":0,"TOWNNAME":"善化區","LI":"溪美里","LIN":"2鄰","STREET":" ","SECT":" ","MAREA":"溪尾","LANE":" ","ALLEY":" ","HOUSE_NO":"６５６號","E_COORD97":177053.92999999999,"N_COORD97":2560750.27,"ADDRESS":"溪尾６５６號","OBJECTID":209576},"geometry":{"x":177053.93000000156,"y":2560750.2700000033}},{"attributes":{"ID":209578,"DIS_CODE":0,"TOWNNAME":"永康區","LI":"西灣里","LIN":"42鄰","STREET":"大灣路","SECT":" ","MAREA":" ","LANE":"９４２巷","ALLEY":"３７４弄","HOUSE_NO":"２８號","E_COORD97":174015.45000000001,"N_COORD97":2545397.5600000001,"ADDRESS":"大灣路９４２巷３７４弄２８號","OBJECTID":209577},"geometry":{"x":174015.45000000112,"y":2545397.5600000042}},{"attributes":{"ID":209579,"DIS_CODE":0,"TOWNNAME":"永康區","LI":"西灣里","LIN":"42鄰","STREET":"大灣路","SECT":" ","MAREA":" ","LANE":"９４２巷","ALLEY":"３７４弄","HOUSE_NO":"３８號","E_COORD97":174033.37,"N_COORD97":2545391.8100000001,"ADDRESS":"大灣路９４２巷３７４弄３８號","OBJECTID":209578},"geometry":{"x":174033.37000000011,"y":2545391.8100000005}},{"attributes":{"ID":209580,"DIS_CODE":0,"TOWNNAME":"永康區","LI":"成功里","LIN":"42鄰","STREET":"中華路","SECT":" ","MAREA":" ","LANE":"１５４巷","ALLEY":"１８弄","HOUSE_NO":"３５號","E_COORD97":171767.51000000001,"N_COORD97":2544862.25,"ADDRESS":"中華路１５４巷１８弄３５號","OBJECTID":209579},"geometry":{"x":171767.50999999978,"y":2544862.25}},{"attributes":{"ID":209581,"DIS_CODE":0,"TOWNNAME":"永康區","LI":"西灣里","LIN":"42鄰","STREET":"大灣路","SECT":" ","MAREA":" ","LANE":"９４２巷","ALLEY":"３７４弄","HOUSE_NO":"３６號","E_COORD97":174029.47,"N_COORD97":2545393.0600000001,"ADDRESS":"大灣路９４２巷３７４弄３６號","OBJECTID":209580},"geometry":{"x":174029.4700000016,"y":2545393.0600000005}},{"attributes":{"ID":209582,"DIS_CODE":0,"TOWNNAME":"永康區","LI":"成功里","LIN":"42鄰","STREET":"中華路","SECT":" ","MAREA":" ","LANE":"１５４巷","ALLEY":"１８弄","HOUSE_NO":"１９號","E_COORD97":171733.64999999999,"N_COORD97":2544864.7000000002,"ADDRESS":"中華路１５４巷１８弄１９號","OBJECTID":209581},"geometry":{"x":171733.65000000224,"y":2544864.6999999993}},{"attributes":{"ID":209583,"DIS_CODE":0,"TOWNNAME":"永康區","LI":"西灣里","LIN":"42鄰","STREET":"大灣路","SECT":" ","MAREA":" ","LANE":"９４２巷","ALLEY":"５６１弄","HOUSE_NO":"６５號","E_COORD97":173770.92999999999,"N_COORD97":2545645.7400000002,"ADDRESS":"大灣路９４２巷５６１弄６５號","OBJECTID":209582},"geometry":{"x":173770.93000000063,"y":2545645.7400000002}},{"attributes":{"ID":209584,"DIS_CODE":0,"TOWNNAME":"永康區","LI":"龍潭里","LIN":"42鄰","STREET":"永明街","SECT":" ","MAREA":" ","LANE":"３０２巷","ALLEY":"１７弄","HOUSE_NO":"７號","E_COORD97":174563.98000000001,"N_COORD97":2547083.2400000002,"ADDRESS":"永明街３０２巷１７弄７號","OBJECTID":209583},"geometry":{"x":174563.97999999952,"y":2547083.2400000002}},{"attributes":{"ID":209585,"DIS_CODE":0,"TOWNNAME":"永康區","LI":"龍潭里","LIN":"42鄰","STREET":"永明街","SECT":" ","MAREA":" ","LANE":"３０２巷","ALLEY":"１７弄","HOUSE_NO":"１３號","E_COORD97":174580.44,"N_COORD97":2547084.2400000002,"ADDRESS":"永明街３０２巷１７弄１３號","OBJECTID":209584},"geometry":{"x":174580.44000000041,"y":2547084.2400000039}},{"attributes":{"ID":209586,"DIS_CODE":0,"TOWNNAME":"永康區","LI":"龍潭里","LIN":"42鄰","STREET":"永明街","SECT":" ","MAREA":" ","LANE":"３０２巷","ALLEY":"１７弄","HOUSE_NO":"１１號","E_COORD97":174575.57000000001,"N_COORD97":2547083.7400000002,"ADDRESS":"永明街３０２巷１７弄１１號","OBJECTID":209585},"geometry":{"x":174575.57000000123,"y":2547083.7400000002}},{"attributes":{"ID":209587,"DIS_CODE":0,"TOWNNAME":"永康區","LI":"崑山里","LIN":"42鄰","STREET":"大灣路","SECT":" ","MAREA":" ","LANE":"９４２巷","ALLEY":"２８０弄","HOUSE_NO":"２６號","E_COORD97":173915.35999999999,"N_COORD97":2545155.0600000001,"ADDRESS":"大灣路９４２巷２８０弄２６號","OBJECTID":209586},"geometry":{"x":173915.36000000034,"y":2545155.0600000024}},{"attributes":{"ID":209588,"DIS_CODE":0,"TOWNNAME":"仁德區","LI":"仁義里","LIN":"42鄰","STREET":"中正路","SECT":"二段","MAREA":" ","LANE":"９９４巷","ALLEY":"３４弄","HOUSE_NO":"１３號","E_COORD97":173530.23000000001,"N_COORD97":2540743.4100000001,"ADDRESS":"中正路二段９９４巷３４弄１３號","OBJECTID":209587},"geometry":{"x":173530.23000000138,"y":2540743.410000002}},{"attributes":{"ID":209589,"DIS_CODE":0,"TOWNNAME":"仁德區","LI":"仁義里","LIN":"42鄰","STREET":"中正路","SECT":"二段","MAREA":" ","LANE":"９９４巷","ALLEY":"２６弄","HOUSE_NO":"１１號","E_COORD97":173515.23999999999,"N_COORD97":2540746.5299999998,"ADDRESS":"中正路二段９９４巷２６弄１１號","OBJECTID":209588},"geometry":{"x":173515.24000000115,"y":2540746.5300000012}},{"attributes":{"ID":209590,"DIS_CODE":0,"TOWNNAME":"仁德區","LI":"仁義里","LIN":"42鄰","STREET":"中正路","SECT":"二段","MAREA":" ","LANE":"９９４巷","ALLEY":"３４弄","HOUSE_NO":"１９號","E_COORD97":173531.42000000001,"N_COORD97":2540731.6600000001,"ADDRESS":"中正路二段９９４巷３４弄１９號","OBJECTID":209589},"geometry":{"x":173531.41999999993,"y":2540731.660000002}},{"attributes":{"ID":209591,"DIS_CODE":0,"TOWNNAME":"仁德區","LI":"仁義里","LIN":"42鄰","STREET":"中正路","SECT":"二段","MAREA":" ","LANE":"９９４巷","ALLEY":"３４弄","HOUSE_NO":"１７號","E_COORD97":173530.97,"N_COORD97":2540735.6600000001,"ADDRESS":"中正路二段９９４巷３４弄１７號","OBJECTID":209590},"geometry":{"x":173530.96999999881,"y":2540735.660000002}},{"attributes":{"ID":209592,"DIS_CODE":0,"TOWNNAME":"仁德區","LI":"仁義里","LIN":"42鄰","STREET":"中正路","SECT":"二段","MAREA":" ","LANE":"９９４巷","ALLEY":"１０弄","HOUSE_NO":"１２號","E_COORD97":173469.57000000001,"N_COORD97":2540754.2799999998,"ADDRESS":"中正路二段９９４巷１０弄１２號","OBJECTID":209591},"geometry":{"x":173469.5700000003,"y":2540754.2800000012}},{"attributes":{"ID":209593,"DIS_CODE":0,"TOWNNAME":"仁德區","LI":"仁義里","LIN":"42鄰","STREET":"中正路","SECT":"二段","MAREA":" ","LANE":"９９４巷","ALLEY":"３４弄","HOUSE_NO":"１１號","E_COORD97":173529.85999999999,"N_COORD97":2540747.4100000001,"ADDRESS":"中正路二段９９４巷３４弄１１號","OBJECTID":209592},"geometry":{"x":173529.86000000127,"y":2540747.410000002}},{"attributes":{"ID":209594,"DIS_CODE":0,"TOWNNAME":"仁德區","LI":"仁義里","LIN":"42鄰","STREET":"中正路","SECT":"二段","MAREA":" ","LANE":"９９４巷","ALLEY":"３４弄","HOUSE_NO":"２１號","E_COORD97":173531.51999999999,"N_COORD97":2540727.4100000001,"ADDRESS":"中正路二段９９４巷３４弄２１號","OBJECTID":209593},"geometry":{"x":173531.51999999955,"y":2540727.410000002}},{"attributes":{"ID":209595,"DIS_CODE":0,"TOWNNAME":"仁德區","LI":"仁義里","LIN":"42鄰","STREET":"中正路","SECT":"二段","MAREA":" ","LANE":"９９４巷","ALLEY":"３４弄","HOUSE_NO":"１號","E_COORD97":173527.09,"N_COORD97":2540767.3999999999,"ADDRESS":"中正路二段９９４巷３４弄１號","OBJECTID":209594},"geometry":{"x":173527.09000000171,"y":2540767.4000000041}},{"attributes":{"ID":209596,"DIS_CODE":0,"TOWNNAME":"仁德區","LI":"仁義里","LIN":"42鄰","STREET":"中正路","SECT":"二段","MAREA":" ","LANE":"９９４巷","ALLEY":"３４弄","HOUSE_NO":"７號","E_COORD97":173528.23000000001,"N_COORD97":2540755.4100000001,"ADDRESS":"中正路二段９９４巷３４弄７號","OBJECTID":209595},"geometry":{"x":173528.22999999952,"y":2540755.4100000001}},{"attributes":{"ID":209597,"DIS_CODE":0,"TOWNNAME":"永康區","LI":"二王里","LIN":"42鄰","STREET":"中山南路","SECT":" ","MAREA":" ","LANE":"３１６巷","ALLEY":"２６弄","HOUSE_NO":"１７號","E_COORD97":172020.63,"N_COORD97":2546088.7000000002,"ADDRESS":"中山南路３１６巷２６弄１７號","OBJECTID":209596},"geometry":{"x":172020.62999999989,"y":2546088.6999999993}},{"attributes":{"ID":209598,"DIS_CODE":0,"TOWNNAME":"永康區","LI":"二王里","LIN":"42鄰","STREET":"中山南路","SECT":" ","MAREA":" ","LANE":"３１６巷","ALLEY":"３２弄","HOUSE_NO":"２號","E_COORD97":172043.89000000001,"N_COORD97":2546118.96,"ADDRESS":"中山南路３１６巷３２弄２號","OBJECTID":209597},"geometry":{"x":172043.8900000006,"y":2546118.9600000028}},{"attributes":{"ID":209599,"DIS_CODE":0,"TOWNNAME":"永康區","LI":"二王里","LIN":"42鄰","STREET":"中山南路","SECT":" ","MAREA":" ","LANE":"３１６巷","ALLEY":"３２弄","HOUSE_NO":"１３號","E_COORD97":172056.44,"N_COORD97":2546087.9500000002,"ADDRESS":"中山南路３１６巷３２弄１３號","OBJECTID":209598},"geometry":{"x":172056.44000000041,"y":2546087.9499999993}},{"attributes":{"ID":209600,"DIS_CODE":0,"TOWNNAME":"永康區","LI":"二王里","LIN":"42鄰","STREET":"中山南路","SECT":" ","MAREA":" ","LANE":"３１６巷","ALLEY":"３２弄","HOUSE_NO":"３１號","E_COORD97":172068.73999999999,"N_COORD97":2546050.4500000002,"ADDRESS":"中山南路３１６巷３２弄３１號","OBJECTID":209599},"geometry":{"x":172068.74000000115,"y":2546050.4499999993}},{"attributes":{"ID":209601,"DIS_CODE":0,"TOWNNAME":"永康區","LI":"二王里","LIN":"42鄰","STREET":"中山南路","SECT":" ","MAREA":" ","LANE":"３１６巷","ALLEY":"３２弄","HOUSE_NO":"２２號","E_COORD97":172040.59,"N_COORD97":2546072.9500000002,"ADDRESS":"中山南路３１６巷３２弄２２號","OBJECTID":209600},"geometry":{"x":172040.59000000078,"y":2546072.9500000011}}]}