{"displayFieldName":"TOWNNAME","fieldAliases":{"ID":"ID","DIS_CODE":"DIS_CODE","TOWNNAME":"TOWNNAME","LI":"LI","LIN":"LIN","STREET":"STREET","SECT":"SECT","MAREA":"MAREA","LANE":"LANE","ALLEY":"ALLEY","HOUSE_NO":"HOUSE_NO","E_COORD97":"E_COORD97","N_COORD97":"N_COORD97","ADDRESS":"ADDRESS","OBJECTID":"OBJECTID"},"geometryType":"esriGeometryPoint","spatialReference":{"wkid":102443,"latestWkid":3826},"fields":[{"name":"ID","type":"esriFieldTypeDouble","alias":"ID"},{"name":"DIS_CODE","type":"esriFieldTypeInteger","alias":"DIS_CODE"},{"name":"TOWNNAME","type":"esriFieldTypeString","alias":"TOWNNAME","length":8},{"name":"LI","type":"esriFieldTypeString","alias":"LI","length":8},{"name":"LIN","type":"esriFieldTypeString","alias":"LIN","length":12},{"name":"STREET","type":"esriFieldTypeString","alias":"STREET","length":20},{"name":"SECT","type":"esriFieldTypeString","alias":"SECT","length":8},{"name":"MAREA","type":"esriFieldTypeString","alias":"MAREA","length":12},{"name":"LANE","type":"esriFieldTypeString","alias":"LANE","length":10},{"name":"ALLEY","type":"esriFieldTypeString","alias":"ALLEY","length":10},{"name":"HOUSE_NO","type":"esriFieldTypeString","alias":"HOUSE_NO","length":20},{"name":"E_COORD97","type":"esriFieldTypeDouble","alias":"E_COORD97"},{"name":"N_COORD97","type":"esriFieldTypeDouble","alias":"N_COORD97"},{"name":"ADDRESS","type":"esriFieldTypeString","alias":"ADDRESS","length":50},{"name":"OBJECTID","type":"esriFieldTypeOID","alias":"OBJECTID"}],"features":[{"attributes":{"ID":95201,"DIS_CODE":0,"TOWNNAME":"永康區","LI":"\u25A0行里","LIN":"47鄰","STREET":"新行街","SECT":" ","MAREA":" ","LANE":"４巷","ALLEY":"４６弄","HOUSE_NO":"４號","E_COORD97":172372.42999999999,"N_COORD97":2548843.9900000002,"ADDRESS":"新行街４巷４６弄４號","OBJECTID":95201},"geometry":{"x":172372.43000000063,"y":2548843.9900000002}},{"attributes":{"ID":95202,"DIS_CODE":0,"TOWNNAME":"新市區","LI":"潭頂里","LIN":"10鄰","STREET":" ","SECT":" ","MAREA":"潭頂","LANE":" ","ALLEY":" ","HOUSE_NO":"３５４號","E_COORD97":180633.19,"N_COORD97":2552779.5,"ADDRESS":"潭頂３５４號","OBJECTID":95202},"geometry":{"x":180633.19000000227,"y":2552779.5000000019}},{"attributes":{"ID":95203,"DIS_CODE":0,"TOWNNAME":"新市區","LI":"豐華里","LIN":"10鄰","STREET":" ","SECT":" ","MAREA":"豐華","LANE":" ","ALLEY":" ","HOUSE_NO":"４７之２５號","E_COORD97":174131.82000000001,"N_COORD97":2554501.0499999998,"ADDRESS":"豐華４７之２５號","OBJECTID":95203},"geometry":{"x":174131.82000000123,"y":2554501.0500000045}},{"attributes":{"ID":95204,"DIS_CODE":0,"TOWNNAME":"新市區","LI":"港墘里","LIN":"10鄰","STREET":" ","SECT":" ","MAREA":"崙頂","LANE":" ","ALLEY":" ","HOUSE_NO":"４８之１號","E_COORD97":178789.42000000001,"N_COORD97":2552642.0499999998,"ADDRESS":"崙頂４８之１號","OBJECTID":95204},"geometry":{"x":178789.41999999993,"y":2552642.0500000007}},{"attributes":{"ID":95205,"DIS_CODE":0,"TOWNNAME":"佳里區","LI":"東寧里","LIN":"15鄰","STREET":"義民街","SECT":" ","MAREA":" ","LANE":" ","ALLEY":" ","HOUSE_NO":"１０３號","E_COORD97":165892.44,"N_COORD97":2562416.79,"ADDRESS":"義民街１０３號","OBJECTID":95205},"geometry":{"x":165892.44000000134,"y":2562416.7899999991}},{"attributes":{"ID":95206,"DIS_CODE":0,"TOWNNAME":"善化區","LI":"小新里","LIN":"21鄰","STREET":"成功路","SECT":" ","MAREA":" ","LANE":"３巷","ALLEY":"６９弄","HOUSE_NO":"２３號","E_COORD97":180115.39520900001,"N_COORD97":2558353.03137,"ADDRESS":"成功路３巷６９弄２３號","OBJECTID":95206},"geometry":{"x":180115.39520900138,"y":2558353.0313710012}},{"attributes":{"ID":95207,"DIS_CODE":0,"TOWNNAME":"善化區","LI":"小新里","LIN":"21鄰","STREET":"成功路","SECT":" ","MAREA":" ","LANE":"３巷","ALLEY":"６９弄","HOUSE_NO":"２１號","E_COORD97":180119.63146599999,"N_COORD97":2558352.9255400002,"ADDRESS":"成功路３巷６９弄２１號","OBJECTID":95207},"geometry":{"x":180119.63146600127,"y":2558352.9255370013}},{"attributes":{"ID":95208,"DIS_CODE":0,"TOWNNAME":"善化區","LI":"小新里","LIN":"21鄰","STREET":"成功路","SECT":" ","MAREA":" ","LANE":"３巷","ALLEY":"６９弄","HOUSE_NO":"１９號","E_COORD97":180123.76181699999,"N_COORD97":2558352.8196999999,"ADDRESS":"成功路３巷６９弄１９號","OBJECTID":95208},"geometry":{"x":180123.76181700081,"y":2558352.8197039999}},{"attributes":{"ID":95209,"DIS_CODE":0,"TOWNNAME":"善化區","LI":"小新里","LIN":"21鄰","STREET":"成功路","SECT":" ","MAREA":" ","LANE":"３巷","ALLEY":"６９弄","HOUSE_NO":"１７號","E_COORD97":180127.89216700001,"N_COORD97":2558352.29054,"ADDRESS":"成功路３巷６９弄１７號","OBJECTID":95209},"geometry":{"x":180127.89216700103,"y":2558352.2905379999}},{"attributes":{"ID":95210,"DIS_CODE":0,"TOWNNAME":"善化區","LI":"小新里","LIN":"21鄰","STREET":"成功路","SECT":" ","MAREA":" ","LANE":"３巷","ALLEY":"６９弄","HOUSE_NO":"１３號","E_COORD97":180137.000119,"N_COORD97":2558352.1847000001,"ADDRESS":"成功路３巷６９弄１３號","OBJECTID":95210},"geometry":{"x":180137.00011899974,"y":2558352.1847040001}},{"attributes":{"ID":95211,"DIS_CODE":0,"TOWNNAME":"佳里區","LI":"安西里","LIN":"15鄰","STREET":"義民街","SECT":" ","MAREA":" ","LANE":" ","ALLEY":" ","HOUSE_NO":"３５６號","E_COORD97":165226.79000000001,"N_COORD97":2562397.3300000001,"ADDRESS":"義民街３５６號","OBJECTID":95211},"geometry":{"x":165226.79000000097,"y":2562397.3300000001}},{"attributes":{"ID":95212,"DIS_CODE":0,"TOWNNAME":"佳里區","LI":"安西里","LIN":"15鄰","STREET":"義民街","SECT":" ","MAREA":" ","LANE":" ","ALLEY":" ","HOUSE_NO":"３５８號","E_COORD97":165222.01999999999,"N_COORD97":2562397.2799999998,"ADDRESS":"義民街３５８號","OBJECTID":95212},"geometry":{"x":165222.01999999955,"y":2562397.2799999975}},{"attributes":{"ID":95213,"DIS_CODE":0,"TOWNNAME":"佳里區","LI":"安西里","LIN":"15鄰","STREET":"義民街","SECT":" ","MAREA":" ","LANE":" ","ALLEY":" ","HOUSE_NO":"３６０號","E_COORD97":165216.54000000001,"N_COORD97":2562397.4399999999,"ADDRESS":"義民街３６０號","OBJECTID":95213},"geometry":{"x":165216.54000000097,"y":2562397.4400000013}},{"attributes":{"ID":95214,"DIS_CODE":0,"TOWNNAME":"佳里區","LI":"安西里","LIN":"15鄰","STREET":"義民街","SECT":" ","MAREA":" ","LANE":" ","ALLEY":" ","HOUSE_NO":"３６２號","E_COORD97":165211.23999999999,"N_COORD97":2562397.5499999998,"ADDRESS":"義民街３６２號","OBJECTID":95214},"geometry":{"x":165211.24000000022,"y":2562397.5500000026}},{"attributes":{"ID":95215,"DIS_CODE":0,"TOWNNAME":"佳里區","LI":"安西里","LIN":"15鄰","STREET":"義民街","SECT":" ","MAREA":" ","LANE":" ","ALLEY":" ","HOUSE_NO":"３６４號","E_COORD97":165205.91,"N_COORD97":2562397.8100000001,"ADDRESS":"義民街３６４號","OBJECTID":95215},"geometry":{"x":165205.91000000108,"y":2562397.8100000005}},{"attributes":{"ID":95216,"DIS_CODE":0,"TOWNNAME":"安南區","LI":"州南里","LIN":"4鄰","STREET":"安和路","SECT":"四段","MAREA":" ","LANE":" ","ALLEY":" ","HOUSE_NO":"４７７號","E_COORD97":169914.17999999999,"N_COORD97":2551201.6899999999,"ADDRESS":"安和路四段４７７號","OBJECTID":95216},"geometry":{"x":169914.18000000063,"y":2551201.6899999995}},{"attributes":{"ID":95217,"DIS_CODE":0,"TOWNNAME":"新市區","LI":"大社里","LIN":"10鄰","STREET":" ","SECT":" ","MAREA":"大社","LANE":" ","ALLEY":" ","HOUSE_NO":"３４８號","E_COORD97":180018.04000000001,"N_COORD97":2554581.75,"ADDRESS":"大社３４８號","OBJECTID":95217},"geometry":{"x":180018.04000000004,"y":2554581.7500000019}},{"attributes":{"ID":95218,"DIS_CODE":0,"TOWNNAME":"新市區","LI":"大營里","LIN":"10鄰","STREET":" ","SECT":" ","MAREA":"大營","LANE":" ","ALLEY":" ","HOUSE_NO":"２１７號","E_COORD97":179422.51999999999,"N_COORD97":2555660.5,"ADDRESS":"大營２１７號","OBJECTID":95218},"geometry":{"x":179422.51999999955,"y":2555660.5000000019}},{"attributes":{"ID":95219,"DIS_CODE":0,"TOWNNAME":"中西區","LI":"光賢里","LIN":"21鄰","STREET":"武聖路","SECT":" ","MAREA":" ","LANE":"１９７巷","ALLEY":"５０弄","HOUSE_NO":"１０號","E_COORD97":166827.48000000001,"N_COORD97":2545144.2000000002,"ADDRESS":"武聖路１９７巷５０弄１０號","OBJECTID":95219},"geometry":{"x":166827.48000000138,"y":2545144.200000003}},{"attributes":{"ID":95220,"DIS_CODE":0,"TOWNNAME":"新市區","LI":"大營里","LIN":"10鄰","STREET":" ","SECT":" ","MAREA":"大營","LANE":" ","ALLEY":" ","HOUSE_NO":"１９７號","E_COORD97":179546.17999999999,"N_COORD97":2555709.5,"ADDRESS":"大營１９７號","OBJECTID":95220},"geometry":{"x":179546.18000000063,"y":2555709.5}},{"attributes":{"ID":95221,"DIS_CODE":0,"TOWNNAME":"新市區","LI":"大洲里","LIN":"10鄰","STREET":" ","SECT":" ","MAREA":"大洲","LANE":" ","ALLEY":" ","HOUSE_NO":"１０５號","E_COORD97":174533.45999999999,"N_COORD97":2551408.25,"ADDRESS":"大洲１０５號","OBJECTID":95221},"geometry":{"x":174533.46000000089,"y":2551408.2500000019}},{"attributes":{"ID":95222,"DIS_CODE":0,"TOWNNAME":"新市區","LI":"大營里","LIN":"10鄰","STREET":" ","SECT":" ","MAREA":"大營","LANE":" ","ALLEY":" ","HOUSE_NO":"２１２之５號","E_COORD97":179448.35000000001,"N_COORD97":2555846.7999999998,"ADDRESS":"大營２１２之５號","OBJECTID":95222},"geometry":{"x":179448.35000000056,"y":2555846.8000000026}},{"attributes":{"ID":95223,"DIS_CODE":0,"TOWNNAME":"新市區","LI":"大營里","LIN":"10鄰","STREET":" ","SECT":" ","MAREA":"大營","LANE":" ","ALLEY":" ","HOUSE_NO":"２００號","E_COORD97":179541.76999999999,"N_COORD97":2555666.5,"ADDRESS":"大營２００號","OBJECTID":95223},"geometry":{"x":179541.77000000142,"y":2555666.5}},{"attributes":{"ID":95224,"DIS_CODE":0,"TOWNNAME":"新市區","LI":"大社里","LIN":"10鄰","STREET":" ","SECT":" ","MAREA":"大社","LANE":" ","ALLEY":" ","HOUSE_NO":"３５７號","E_COORD97":180024.14999999999,"N_COORD97":2554614,"ADDRESS":"大社３５７號","OBJECTID":95224},"geometry":{"x":180024.15000000037,"y":2554614.0000000019}},{"attributes":{"ID":95225,"DIS_CODE":0,"TOWNNAME":"新市區","LI":"大營里","LIN":"10鄰","STREET":" ","SECT":" ","MAREA":"大營","LANE":" ","ALLEY":" ","HOUSE_NO":"２１８號","E_COORD97":179422.51999999999,"N_COORD97":2555654.5,"ADDRESS":"大營２１８號","OBJECTID":95225},"geometry":{"x":179422.51999999955,"y":2555654.5000000019}},{"attributes":{"ID":95226,"DIS_CODE":0,"TOWNNAME":"中西區","LI":"光賢里","LIN":"21鄰","STREET":"武聖路","SECT":" ","MAREA":" ","LANE":"１９７巷","ALLEY":"５０弄","HOUSE_NO":"１４號","E_COORD97":166819.19,"N_COORD97":2545149.1099999999,"ADDRESS":"武聖路１９７巷５０弄１４號","OBJECTID":95226},"geometry":{"x":166819.19000000134,"y":2545149.1100000013}},{"attributes":{"ID":95227,"DIS_CODE":0,"TOWNNAME":"中西區","LI":"光賢里","LIN":"21鄰","STREET":"武聖路","SECT":" ","MAREA":" ","LANE":"１９７巷","ALLEY":"５０弄","HOUSE_NO":"１６號","E_COORD97":166814.95000000001,"N_COORD97":2545151.3100000001,"ADDRESS":"武聖路１９７巷５０弄１６號","OBJECTID":95227},"geometry":{"x":166814.95000000019,"y":2545151.3100000005}},{"attributes":{"ID":95228,"DIS_CODE":0,"TOWNNAME":"中西區","LI":"光賢里","LIN":"21鄰","STREET":"武聖路","SECT":" ","MAREA":" ","LANE":"１９７巷","ALLEY":"５０弄","HOUSE_NO":"１８號","E_COORD97":166810.38,"N_COORD97":2545153.6800000002,"ADDRESS":"武聖路１９７巷５０弄１８號","OBJECTID":95228},"geometry":{"x":166810.38000000175,"y":2545153.6799999997}},{"attributes":{"ID":95229,"DIS_CODE":0,"TOWNNAME":"中西區","LI":"光賢里","LIN":"21鄰","STREET":"武聖路","SECT":" ","MAREA":" ","LANE":"１９７巷","ALLEY":"５０弄","HOUSE_NO":"２０號","E_COORD97":166806.32000000001,"N_COORD97":2545156.2200000002,"ADDRESS":"武聖路１９７巷５０弄２０號","OBJECTID":95229},"geometry":{"x":166806.32000000123,"y":2545156.2200000025}},{"attributes":{"ID":95230,"DIS_CODE":0,"TOWNNAME":"永康區","LI":"甲頂里","LIN":" ","STREET":"大武街","SECT":" ","MAREA":" ","LANE":"５９７巷","ALLEY":"２弄","HOUSE_NO":"１６號","E_COORD97":170312.42999999999,"N_COORD97":2546597.7400000002,"ADDRESS":"大武街５９７巷２弄１６號","OBJECTID":95230},"geometry":{"x":170312.43000000063,"y":2546597.7400000021}},{"attributes":{"ID":95231,"DIS_CODE":0,"TOWNNAME":"永康區","LI":"龍潭里","LIN":"38鄰","STREET":"中山北路","SECT":" ","MAREA":" ","LANE":"１６４巷","ALLEY":"７８弄","HOUSE_NO":"９號之１２","E_COORD97":174457.67000000001,"N_COORD97":2547311.04,"ADDRESS":"中山北路１６４巷７８弄９號之１２","OBJECTID":95231},"geometry":{"x":174457.67000000086,"y":2547311.0399999991}},{"attributes":{"ID":95232,"DIS_CODE":0,"TOWNNAME":"永康區","LI":"龍潭里","LIN":"38鄰","STREET":"中山北路","SECT":" ","MAREA":" ","LANE":"１６４巷","ALLEY":"７８弄","HOUSE_NO":"９號之６","E_COORD97":174456.39000000001,"N_COORD97":2547311.04,"ADDRESS":"中山北路１６４巷７８弄９號之６","OBJECTID":95232},"geometry":{"x":174456.38999999966,"y":2547311.0399999991}},{"attributes":{"ID":95233,"DIS_CODE":0,"TOWNNAME":"永康區","LI":"\u25A0行里","LIN":"32鄰","STREET":"仁愛街","SECT":" ","MAREA":" ","LANE":"１０８巷","ALLEY":"２１弄","HOUSE_NO":"１４號","E_COORD97":172214.76999999999,"N_COORD97":2549474.1699999999,"ADDRESS":"仁愛街１０８巷２１弄１４號","OBJECTID":95233},"geometry":{"x":172214.76999999955,"y":2549474.1699999999}},{"attributes":{"ID":95234,"DIS_CODE":0,"TOWNNAME":"中西區","LI":"光賢里","LIN":"21鄰","STREET":"武聖路","SECT":" ","MAREA":" ","LANE":"１９７巷","ALLEY":"５０弄","HOUSE_NO":"２２號","E_COORD97":166802.07999999999,"N_COORD97":2545158.5899999999,"ADDRESS":"武聖路１９７巷５０弄２２號","OBJECTID":95234},"geometry":{"x":166802.08000000007,"y":2545158.5899999999}},{"attributes":{"ID":95235,"DIS_CODE":0,"TOWNNAME":"中西區","LI":"光賢里","LIN":"21鄰","STREET":"武聖路","SECT":" ","MAREA":" ","LANE":"１９７巷","ALLEY":"５０弄","HOUSE_NO":"２４號","E_COORD97":166797.67999999999,"N_COORD97":2545160.96,"ADDRESS":"武聖路１９７巷５０弄２４號","OBJECTID":95235},"geometry":{"x":166797.6799999997,"y":2545160.9600000009}},{"attributes":{"ID":95236,"DIS_CODE":0,"TOWNNAME":"中西區","LI":"光賢里","LIN":"21鄰","STREET":"武聖路","SECT":" ","MAREA":" ","LANE":"１９７巷","ALLEY":"５０弄","HOUSE_NO":"２６號","E_COORD97":166792.76999999999,"N_COORD97":2545163.5,"ADDRESS":"武聖路１９７巷５０弄２６號","OBJECTID":95236},"geometry":{"x":166792.77000000048,"y":2545163.5000000037}},{"attributes":{"ID":95237,"DIS_CODE":0,"TOWNNAME":"永康區","LI":"網寮里","LIN":"15鄰","STREET":"永和街","SECT":" ","MAREA":" ","LANE":" ","ALLEY":" ","HOUSE_NO":"２９８號","E_COORD97":173279.87,"N_COORD97":2546614.5,"ADDRESS":"永和街２９８號","OBJECTID":95237},"geometry":{"x":173279.87000000104,"y":2546614.5000000037}},{"attributes":{"ID":95238,"DIS_CODE":0,"TOWNNAME":"永康區","LI":"復華里","LIN":"15鄰","STREET":"復華六街","SECT":" ","MAREA":" ","LANE":" ","ALLEY":" ","HOUSE_NO":"３６號","E_COORD97":172829.32999999999,"N_COORD97":2545850.6899999999,"ADDRESS":"復華六街３６號","OBJECTID":95238},"geometry":{"x":172829.33000000101,"y":2545850.6900000013}},{"attributes":{"ID":95239,"DIS_CODE":0,"TOWNNAME":"永康區","LI":"西灣里","LIN":"15鄰","STREET":"大灣三街","SECT":" ","MAREA":" ","LANE":" ","ALLEY":" ","HOUSE_NO":"１９１號","E_COORD97":174468.57000000001,"N_COORD97":2545145.4900000002,"ADDRESS":"大灣三街１９１號","OBJECTID":95239},"geometry":{"x":174468.57000000123,"y":2545145.4900000002}},{"attributes":{"ID":95240,"DIS_CODE":0,"TOWNNAME":"永康區","LI":"東灣里","LIN":"15鄰","STREET":"大灣路","SECT":" ","MAREA":" ","LANE":" ","ALLEY":" ","HOUSE_NO":"３０７號","E_COORD97":174829.25,"N_COORD97":2545015.4900000002,"ADDRESS":"大灣路３０７號","OBJECTID":95240},"geometry":{"x":174829.25,"y":2545015.4900000021}},{"attributes":{"ID":95241,"DIS_CODE":0,"TOWNNAME":"善化區","LI":"小新里","LIN":"21鄰","STREET":"成功路","SECT":" ","MAREA":" ","LANE":"３巷","ALLEY":"６９弄","HOUSE_NO":"２９號","E_COORD97":180102.89825200001,"N_COORD97":2558353.4547000001,"ADDRESS":"成功路３巷６９弄２９號","OBJECTID":95241},"geometry":{"x":180102.89825200103,"y":2558353.4547039997}},{"attributes":{"ID":95242,"DIS_CODE":0,"TOWNNAME":"善化區","LI":"小新里","LIN":"21鄰","STREET":"成功路","SECT":" ","MAREA":" ","LANE":"３巷","ALLEY":"６９弄","HOUSE_NO":"２７號","E_COORD97":180107.24041500001,"N_COORD97":2558353.2430400001,"ADDRESS":"成功路３巷６９弄２７號","OBJECTID":95242},"geometry":{"x":180107.24041500222,"y":2558353.2430370022}},{"attributes":{"ID":95243,"DIS_CODE":0,"TOWNNAME":"永康區","LI":"二王里","LIN":"15鄰","STREET":"忠孝路","SECT":" ","MAREA":" ","LANE":" ","ALLEY":" ","HOUSE_NO":"４５２號","E_COORD97":172485.04000000001,"N_COORD97":2546624.52,"ADDRESS":"忠孝路４５２號","OBJECTID":95243},"geometry":{"x":172485.0400000019,"y":2546624.5200000014}},{"attributes":{"ID":95244,"DIS_CODE":0,"TOWNNAME":"永康區","LI":"正強里","LIN":"15鄰","STREET":"正強街","SECT":" ","MAREA":" ","LANE":" ","ALLEY":" ","HOUSE_NO":"６５號","E_COORD97":173336.64999999999,"N_COORD97":2547307.2400000002,"ADDRESS":"正強街６５號","OBJECTID":95244},"geometry":{"x":173336.65000000037,"y":2547307.2400000002}},{"attributes":{"ID":95245,"DIS_CODE":0,"TOWNNAME":"永康區","LI":"中興里","LIN":"15鄰","STREET":"中華二路","SECT":" ","MAREA":" ","LANE":" ","ALLEY":" ","HOUSE_NO":"６１號","E_COORD97":172070.07000000001,"N_COORD97":2545423.7400000002,"ADDRESS":"中華二路６１號","OBJECTID":95245},"geometry":{"x":172070.07000000123,"y":2545423.7400000021}},{"attributes":{"ID":95246,"DIS_CODE":0,"TOWNNAME":"永康區","LI":"東橋里","LIN":"15鄰","STREET":"東橋二街","SECT":" ","MAREA":" ","LANE":" ","ALLEY":" ","HOUSE_NO":"１４２號","E_COORD97":171865.75,"N_COORD97":2546558.4300000002,"ADDRESS":"東橋二街１４２號","OBJECTID":95246},"geometry":{"x":171865.75,"y":2546558.4300000016}},{"attributes":{"ID":95247,"DIS_CODE":0,"TOWNNAME":"永康區","LI":"東橋里","LIN":"15鄰","STREET":"東橋二街","SECT":" ","MAREA":" ","LANE":" ","ALLEY":" ","HOUSE_NO":"１２８號","E_COORD97":171854.70999999999,"N_COORD97":2546510.02,"ADDRESS":"東橋二街１２８號","OBJECTID":95247},"geometry":{"x":171854.70999999903,"y":2546510.0200000014}},{"attributes":{"ID":95248,"DIS_CODE":0,"TOWNNAME":"中西區","LI":"光賢里","LIN":"21鄰","STREET":"武聖路","SECT":" ","MAREA":" ","LANE":"１９７巷","ALLEY":"５０弄","HOUSE_NO":"２８號","E_COORD97":166783.29000000001,"N_COORD97":2545167.7400000002,"ADDRESS":"武聖路１９７巷５０弄２８號","OBJECTID":95248},"geometry":{"x":166783.29000000004,"y":2545167.7400000002}},{"attributes":{"ID":95249,"DIS_CODE":0,"TOWNNAME":"新市區","LI":"大社里","LIN":"10鄰","STREET":" ","SECT":" ","MAREA":"大社","LANE":" ","ALLEY":" ","HOUSE_NO":"３６０號","E_COORD97":179997.51000000001,"N_COORD97":2554650.5,"ADDRESS":"大社３６０號","OBJECTID":95249},"geometry":{"x":179997.50999999978,"y":2554650.5000000019}},{"attributes":{"ID":95250,"DIS_CODE":0,"TOWNNAME":"中西區","LI":"光賢里","LIN":"21鄰","STREET":"武聖路","SECT":" ","MAREA":" ","LANE":"１９７巷","ALLEY":"５０弄","HOUSE_NO":"２號","E_COORD97":166844.25,"N_COORD97":2545135.0600000001,"ADDRESS":"武聖路１９７巷５０弄２號","OBJECTID":95250},"geometry":{"x":166844.25000000093,"y":2545135.0600000005}},{"attributes":{"ID":95251,"DIS_CODE":0,"TOWNNAME":"中西區","LI":"光賢里","LIN":"21鄰","STREET":"武聖路","SECT":" ","MAREA":" ","LANE":"１９７巷","ALLEY":"５０弄","HOUSE_NO":"４號","E_COORD97":166840.01000000001,"N_COORD97":2545136.9199999999,"ADDRESS":"武聖路１９７巷５０弄４號","OBJECTID":95251},"geometry":{"x":166840.01000000164,"y":2545136.9200000037}},{"attributes":{"ID":95252,"DIS_CODE":0,"TOWNNAME":"中西區","LI":"光賢里","LIN":"21鄰","STREET":"武聖路","SECT":" ","MAREA":" ","LANE":"１９７巷","ALLEY":"５０弄","HOUSE_NO":"６號","E_COORD97":166835.95000000001,"N_COORD97":2545139.9700000002,"ADDRESS":"武聖路１９７巷５０弄６號","OBJECTID":95252},"geometry":{"x":166835.95000000112,"y":2545139.9700000007}},{"attributes":{"ID":95253,"DIS_CODE":0,"TOWNNAME":"永康區","LI":"龍潭里","LIN":"27鄰","STREET":"中山北路","SECT":" ","MAREA":" ","LANE":"４６１巷","ALLEY":"２９弄","HOUSE_NO":"５號","E_COORD97":175073.94,"N_COORD97":2547850.7999999998,"ADDRESS":"中山北路４６１巷２９弄５號","OBJECTID":95253},"geometry":{"x":175073.94000000041,"y":2547850.8000000045}},{"attributes":{"ID":95254,"DIS_CODE":0,"TOWNNAME":"永康區","LI":"\u25A0行里","LIN":"41鄰","STREET":"永安路","SECT":" ","MAREA":" ","LANE":"１６５巷","ALLEY":"３０弄","HOUSE_NO":"７５號","E_COORD97":172362.26999999999,"N_COORD97":2549461.7400000002,"ADDRESS":"永安路１６５巷３０弄７５號","OBJECTID":95254},"geometry":{"x":172362.26999999955,"y":2549461.7400000021}},{"attributes":{"ID":95255,"DIS_CODE":0,"TOWNNAME":"永康區","LI":"龍潭里","LIN":"1鄰","STREET":"龍國街","SECT":" ","MAREA":" ","LANE":"３６８巷","ALLEY":"２弄","HOUSE_NO":"１２號","E_COORD97":174698.69,"N_COORD97":2547963.9100000001,"ADDRESS":"龍國街３６８巷２弄１２號","OBJECTID":95255},"geometry":{"x":174698.69000000134,"y":2547963.9100000001}},{"attributes":{"ID":95256,"DIS_CODE":0,"TOWNNAME":"永康區","LI":"龍潭里","LIN":"23鄰","STREET":"自強路","SECT":" ","MAREA":" ","LANE":"７５０巷","ALLEY":"２８弄","HOUSE_NO":"８９號","E_COORD97":174532.79000000001,"N_COORD97":2548374.1600000001,"ADDRESS":"自強路７５０巷２８弄８９號","OBJECTID":95256},"geometry":{"x":174532.7900000019,"y":2548374.160000002}},{"attributes":{"ID":95257,"DIS_CODE":0,"TOWNNAME":"中西區","LI":"光賢里","LIN":"21鄰","STREET":"武聖路","SECT":" ","MAREA":" ","LANE":"１９７巷","ALLEY":"３０弄","HOUSE_NO":"１１號","E_COORD97":166834.09,"N_COORD97":2545167.0600000001,"ADDRESS":"武聖路１９７巷３０弄１１號","OBJECTID":95257},"geometry":{"x":166834.08999999985,"y":2545167.0600000042}},{"attributes":{"ID":95258,"DIS_CODE":0,"TOWNNAME":"中西區","LI":"光賢里","LIN":"21鄰","STREET":"武聖路","SECT":" ","MAREA":" ","LANE":"１９７巷","ALLEY":"３０弄","HOUSE_NO":"１２號","E_COORD97":166847.97,"N_COORD97":2545192.9700000002,"ADDRESS":"武聖路１９７巷３０弄１２號","OBJECTID":95258},"geometry":{"x":166847.96999999974,"y":2545192.9700000025}},{"attributes":{"ID":95259,"DIS_CODE":0,"TOWNNAME":"永康區","LI":"\u25A0行里","LIN":"32鄰","STREET":"三村一街","SECT":" ","MAREA":" ","LANE":"１３８巷","ALLEY":"９２弄","HOUSE_NO":"１０號","E_COORD97":172127.97,"N_COORD97":2549396.79,"ADDRESS":"三村一街１３８巷９２弄１０號","OBJECTID":95259},"geometry":{"x":172127.97000000067,"y":2549396.7899999991}},{"attributes":{"ID":95260,"DIS_CODE":0,"TOWNNAME":"永康區","LI":"\u25A0行里","LIN":"32鄰","STREET":"仁愛街","SECT":" ","MAREA":" ","LANE":"１０８巷","ALLEY":"２１弄","HOUSE_NO":"１２號","E_COORD97":172218.62,"N_COORD97":2549474.1699999999,"ADDRESS":"仁愛街１０８巷２１弄１２號","OBJECTID":95260},"geometry":{"x":172218.62000000104,"y":2549474.1699999999}},{"attributes":{"ID":95261,"DIS_CODE":0,"TOWNNAME":"永康區","LI":"\u25A0行里","LIN":"41鄰","STREET":"永安路","SECT":" ","MAREA":" ","LANE":"１６５巷","ALLEY":"３０弄","HOUSE_NO":"７號之１","E_COORD97":172461.29000000001,"N_COORD97":2549482.3100000001,"ADDRESS":"永安路１６５巷３０弄７號之１","OBJECTID":95261},"geometry":{"x":172461.2900000019,"y":2549482.3100000024}},{"attributes":{"ID":95262,"DIS_CODE":0,"TOWNNAME":"中西區","LI":"光賢里","LIN":"21鄰","STREET":"武聖路","SECT":" ","MAREA":" ","LANE":"１９７巷","ALLEY":"３０弄","HOUSE_NO":"１３號","E_COORD97":166829.85000000001,"N_COORD97":2545169.2599999998,"ADDRESS":"武聖路１９７巷３０弄１３號","OBJECTID":95262},"geometry":{"x":166829.84999999963,"y":2545169.2600000016}},{"attributes":{"ID":95263,"DIS_CODE":0,"TOWNNAME":"中西區","LI":"光賢里","LIN":"21鄰","STREET":"武聖路","SECT":" ","MAREA":" ","LANE":"１９７巷","ALLEY":"３０弄","HOUSE_NO":"１４號","E_COORD97":166843.91,"N_COORD97":2545195.5099999998,"ADDRESS":"武聖路１９７巷３０弄１４號","OBJECTID":95263},"geometry":{"x":166843.91000000015,"y":2545195.5099999998}},{"attributes":{"ID":95264,"DIS_CODE":0,"TOWNNAME":"中西區","LI":"光賢里","LIN":"21鄰","STREET":"武聖路","SECT":" ","MAREA":" ","LANE":"１９７巷","ALLEY":"３０弄","HOUSE_NO":"１５號","E_COORD97":166825.28,"N_COORD97":2545171.6299999999,"ADDRESS":"武聖路１９７巷３０弄１５號","OBJECTID":95264},"geometry":{"x":166825.28000000119,"y":2545171.6300000027}},{"attributes":{"ID":95265,"DIS_CODE":0,"TOWNNAME":"中西區","LI":"光賢里","LIN":"21鄰","STREET":"武聖路","SECT":" ","MAREA":" ","LANE":"１９７巷","ALLEY":"３０弄","HOUSE_NO":"１６號","E_COORD97":166839.51000000001,"N_COORD97":2545197.71,"ADDRESS":"武聖路１９７巷３０弄１６號","OBJECTID":95265},"geometry":{"x":166839.50999999978,"y":2545197.7100000028}},{"attributes":{"ID":95266,"DIS_CODE":0,"TOWNNAME":"永康區","LI":"埔園里","LIN":"15鄰","STREET":"龍埔街","SECT":" ","MAREA":" ","LANE":" ","ALLEY":" ","HOUSE_NO":"５３２號","E_COORD97":173571.59,"N_COORD97":2548382.1000000001,"ADDRESS":"龍埔街５３２號","OBJECTID":95266},"geometry":{"x":173571.59000000078,"y":2548382.0999999996}},{"attributes":{"ID":95267,"DIS_CODE":0,"TOWNNAME":"永康區","LI":"埔園里","LIN":"15鄰","STREET":"龍埔街","SECT":" ","MAREA":" ","LANE":" ","ALLEY":" ","HOUSE_NO":"５３４號","E_COORD97":173566.89999999999,"N_COORD97":2548383.1000000001,"ADDRESS":"龍埔街５３４號","OBJECTID":95267},"geometry":{"x":173566.9000000013,"y":2548383.1000000034}},{"attributes":{"ID":95268,"DIS_CODE":0,"TOWNNAME":"新市區","LI":"三舍里","LIN":"10鄰","STREET":" ","SECT":" ","MAREA":"三舍","LANE":" ","ALLEY":" ","HOUSE_NO":"２４０之５０號","E_COORD97":177776.17000000001,"N_COORD97":2555859.2999999998,"ADDRESS":"三舍２４０之５０號","OBJECTID":95268},"geometry":{"x":177776.16999999993,"y":2555859.3000000026}},{"attributes":{"ID":95269,"DIS_CODE":0,"TOWNNAME":"新市區","LI":"大洲里","LIN":"10鄰","STREET":" ","SECT":" ","MAREA":"大洲","LANE":" ","ALLEY":" ","HOUSE_NO":"１０２號","E_COORD97":174471.98000000001,"N_COORD97":2551416.75,"ADDRESS":"大洲１０２號","OBJECTID":95269},"geometry":{"x":174471.98000000045,"y":2551416.7499999981}},{"attributes":{"ID":95270,"DIS_CODE":0,"TOWNNAME":"新市區","LI":"大洲里","LIN":"10鄰","STREET":" ","SECT":" ","MAREA":"大洲","LANE":" ","ALLEY":" ","HOUSE_NO":"９７之２號","E_COORD97":174419.26000000001,"N_COORD97":2551464.5499999998,"ADDRESS":"大洲９７之２號","OBJECTID":95270},"geometry":{"x":174419.26000000071,"y":2551464.5500000026}},{"attributes":{"ID":95271,"DIS_CODE":0,"TOWNNAME":"新市區","LI":"大洲里","LIN":"10鄰","STREET":" ","SECT":" ","MAREA":"大洲","LANE":" ","ALLEY":" ","HOUSE_NO":"１０４號","E_COORD97":174513.79000000001,"N_COORD97":2551411.5,"ADDRESS":"大洲１０４號","OBJECTID":95271},"geometry":{"x":174513.79000000004,"y":2551411.5}},{"attributes":{"ID":95272,"DIS_CODE":0,"TOWNNAME":"新市區","LI":"大營里","LIN":"10鄰","STREET":" ","SECT":" ","MAREA":"大營","LANE":" ","ALLEY":" ","HOUSE_NO":"２２９之１號","E_COORD97":179350.73000000001,"N_COORD97":2555661.5499999998,"ADDRESS":"大營２２９之１號","OBJECTID":95272},"geometry":{"x":179350.73000000045,"y":2555661.5500000026}},{"attributes":{"ID":95273,"DIS_CODE":0,"TOWNNAME":"新市區","LI":"大營里","LIN":"10鄰","STREET":" ","SECT":" ","MAREA":"大營","LANE":" ","ALLEY":" ","HOUSE_NO":"２２８號","E_COORD97":179374.23000000001,"N_COORD97":2555694.5,"ADDRESS":"大營２２８號","OBJECTID":95273},"geometry":{"x":179374.23000000045,"y":2555694.5000000019}},{"attributes":{"ID":95274,"DIS_CODE":0,"TOWNNAME":"新市區","LI":"大營里","LIN":"10鄰","STREET":" ","SECT":" ","MAREA":"大營","LANE":" ","ALLEY":" ","HOUSE_NO":"２２１號","E_COORD97":179394.12,"N_COORD97":2555663.25,"ADDRESS":"大營２２１號","OBJECTID":95274},"geometry":{"x":179394.12000000197,"y":2555663.2500000019}},{"attributes":{"ID":95275,"DIS_CODE":0,"TOWNNAME":"新市區","LI":"大營里","LIN":"10鄰","STREET":" ","SECT":" ","MAREA":"大營","LANE":" ","ALLEY":" ","HOUSE_NO":"１９８號","E_COORD97":179552.38,"N_COORD97":2555667.75,"ADDRESS":"大營１９８號","OBJECTID":95275},"geometry":{"x":179552.37999999989,"y":2555667.75}},{"attributes":{"ID":95276,"DIS_CODE":0,"TOWNNAME":"新市區","LI":"大營里","LIN":"10鄰","STREET":" ","SECT":" ","MAREA":"大營","LANE":" ","ALLEY":" ","HOUSE_NO":"２１２之２０號","E_COORD97":179239.59,"N_COORD97":2556470.0499999998,"ADDRESS":"大營２１２之２０號","OBJECTID":95276},"geometry":{"x":179239.58999999985,"y":2556470.0500000007}},{"attributes":{"ID":95277,"DIS_CODE":0,"TOWNNAME":"新市區","LI":"大營里","LIN":"10鄰","STREET":" ","SECT":" ","MAREA":"大營","LANE":" ","ALLEY":" ","HOUSE_NO":"２０４號","E_COORD97":179514.32000000001,"N_COORD97":2555656.25,"ADDRESS":"大營２０４號","OBJECTID":95277},"geometry":{"x":179514.3200000003,"y":2555656.2500000019}},{"attributes":{"ID":95278,"DIS_CODE":0,"TOWNNAME":"安南區","LI":"安順里","LIN":"15鄰","STREET":"育安一街","SECT":" ","MAREA":" ","LANE":" ","ALLEY":" ","HOUSE_NO":"１５８號","E_COORD97":169506.5,"N_COORD97":2550019.7000000002,"ADDRESS":"育安一街１５８號","OBJECTID":95278},"geometry":{"x":169506.5,"y":2550019.700000003}},{"attributes":{"ID":95279,"DIS_CODE":0,"TOWNNAME":"安南區","LI":"安順里","LIN":"15鄰","STREET":"育安一街","SECT":" ","MAREA":" ","LANE":" ","ALLEY":" ","HOUSE_NO":"１５６號","E_COORD97":169506.34,"N_COORD97":2550013.98,"ADDRESS":"育安一街１５６號","OBJECTID":95279},"geometry":{"x":169506.34000000078,"y":2550013.9800000004}},{"attributes":{"ID":95280,"DIS_CODE":0,"TOWNNAME":"中西區","LI":"光賢里","LIN":"21鄰","STREET":"武聖路","SECT":" ","MAREA":" ","LANE":"１９７巷","ALLEY":"３０弄","HOUSE_NO":"１７號","E_COORD97":166821.39000000001,"N_COORD97":2545174.3399999999,"ADDRESS":"武聖路１９７巷３０弄１７號","OBJECTID":95280},"geometry":{"x":166821.38999999966,"y":2545174.339999998}},{"attributes":{"ID":95281,"DIS_CODE":0,"TOWNNAME":"中西區","LI":"光賢里","LIN":"21鄰","STREET":"武聖路","SECT":" ","MAREA":" ","LANE":"１９７巷","ALLEY":"３０弄","HOUSE_NO":"１８號","E_COORD97":166835.26999999999,"N_COORD97":2545199.7400000002,"ADDRESS":"武聖路１９７巷３０弄１８號","OBJECTID":95281},"geometry":{"x":166835.27000000048,"y":2545199.7400000021}},{"attributes":{"ID":95282,"DIS_CODE":0,"TOWNNAME":"中西區","LI":"光賢里","LIN":"21鄰","STREET":"武聖路","SECT":" ","MAREA":" ","LANE":"１９７巷","ALLEY":"３０弄","HOUSE_NO":"１９號","E_COORD97":166817.32000000001,"N_COORD97":2545176.54,"ADDRESS":"武聖路１９７巷３０弄１９號","OBJECTID":95282},"geometry":{"x":166817.3200000003,"y":2545176.540000001}},{"attributes":{"ID":95283,"DIS_CODE":0,"TOWNNAME":"中西區","LI":"光賢里","LIN":"21鄰","STREET":"武聖路","SECT":" ","MAREA":" ","LANE":"１９７巷","ALLEY":"３０弄","HOUSE_NO":"１號","E_COORD97":166856.26999999999,"N_COORD97":2545155.3799999999,"ADDRESS":"武聖路１９７巷３０弄１號","OBJECTID":95283},"geometry":{"x":166856.26999999955,"y":2545155.379999999}},{"attributes":{"ID":95284,"DIS_CODE":0,"TOWNNAME":"中西區","LI":"光賢里","LIN":"21鄰","STREET":"武聖路","SECT":" ","MAREA":" ","LANE":"１９７巷","ALLEY":"３０弄","HOUSE_NO":"２０號","E_COORD97":166831.20999999999,"N_COORD97":2545202.2799999998,"ADDRESS":"武聖路１９７巷３０弄２０號","OBJECTID":95284},"geometry":{"x":166831.20999999996,"y":2545202.2800000012}},{"attributes":{"ID":95285,"DIS_CODE":0,"TOWNNAME":"中西區","LI":"光賢里","LIN":"21鄰","STREET":"武聖路","SECT":" ","MAREA":" ","LANE":"１９７巷","ALLEY":"３０弄","HOUSE_NO":"２１號","E_COORD97":166813.26000000001,"N_COORD97":2545178.7400000002,"ADDRESS":"武聖路１９７巷３０弄２１號","OBJECTID":95285},"geometry":{"x":166813.26000000071,"y":2545178.7399999984}},{"attributes":{"ID":95286,"DIS_CODE":0,"TOWNNAME":"中西區","LI":"光賢里","LIN":"21鄰","STREET":"武聖路","SECT":" ","MAREA":" ","LANE":"１９７巷","ALLEY":"３０弄","HOUSE_NO":"２２號","E_COORD97":166826.64000000001,"N_COORD97":2545204.6499999999,"ADDRESS":"武聖路１９７巷３０弄２２號","OBJECTID":95286},"geometry":{"x":166826.63999999966,"y":2545204.6500000022}},{"attributes":{"ID":95287,"DIS_CODE":0,"TOWNNAME":"中西區","LI":"光賢里","LIN":"21鄰","STREET":"武聖路","SECT":" ","MAREA":" ","LANE":"１９７巷","ALLEY":"３０弄","HOUSE_NO":"２４號","E_COORD97":166821.89999999999,"N_COORD97":2545206.8500000001,"ADDRESS":"武聖路１９７巷３０弄２４號","OBJECTID":95287},"geometry":{"x":166821.90000000037,"y":2545206.8499999996}},{"attributes":{"ID":95288,"DIS_CODE":0,"TOWNNAME":"中西區","LI":"光賢里","LIN":"21鄰","STREET":"武聖路","SECT":" ","MAREA":" ","LANE":"１９７巷","ALLEY":"３０弄","HOUSE_NO":"２號","E_COORD97":166869.98999999999,"N_COORD97":2545180.9399999999,"ADDRESS":"武聖路１９７巷３０弄２號","OBJECTID":95288},"geometry":{"x":166869.99000000115,"y":2545180.9400000013}},{"attributes":{"ID":95289,"DIS_CODE":0,"TOWNNAME":"中西區","LI":"光賢里","LIN":"21鄰","STREET":"武聖路","SECT":" ","MAREA":" ","LANE":"１９７巷","ALLEY":"３０弄","HOUSE_NO":"３號","E_COORD97":166851.19,"N_COORD97":2545157.9199999999,"ADDRESS":"武聖路１９７巷３０弄３號","OBJECTID":95289},"geometry":{"x":166851.19000000227,"y":2545157.9200000018}},{"attributes":{"ID":95290,"DIS_CODE":0,"TOWNNAME":"永康區","LI":"北灣里","LIN":" ","STREET":"大灣路","SECT":" ","MAREA":" ","LANE":"４０巷","ALLEY":"２０９弄","HOUSE_NO":"１之４號","E_COORD97":174788.85999999999,"N_COORD97":2546309.0499999998,"ADDRESS":"大灣路４０巷２０９弄１之４號","OBJECTID":95290},"geometry":{"x":174788.86000000127,"y":2546309.0500000007}},{"attributes":{"ID":95291,"DIS_CODE":0,"TOWNNAME":"永康區","LI":"崑山里","LIN":" ","STREET":"大灣路","SECT":" ","MAREA":" ","LANE":"９４２巷","ALLEY":"２７１弄","HOUSE_NO":"２３０號之２","E_COORD97":173400,"N_COORD97":2545128.6499999999,"ADDRESS":"大灣路９４２巷２７１弄２３０號之２","OBJECTID":95291},"geometry":{"x":173400,"y":2545128.6499999985}},{"attributes":{"ID":95292,"DIS_CODE":0,"TOWNNAME":"新市區","LI":"三舍里","LIN":"10鄰","STREET":" ","SECT":" ","MAREA":"三舍","LANE":" ","ALLEY":" ","HOUSE_NO":"２４０之１號","E_COORD97":177778.79000000001,"N_COORD97":2555958.5499999998,"ADDRESS":"三舍２４０之１號","OBJECTID":95292},"geometry":{"x":177778.79000000004,"y":2555958.5500000007}},{"attributes":{"ID":95293,"DIS_CODE":0,"TOWNNAME":"新市區","LI":"三舍里","LIN":"10鄰","STREET":" ","SECT":" ","MAREA":"三舍","LANE":" ","ALLEY":" ","HOUSE_NO":"２４３號","E_COORD97":177777.85000000001,"N_COORD97":2555714.5,"ADDRESS":"三舍２４３號","OBJECTID":95293},"geometry":{"x":177777.84999999963,"y":2555714.5000000037}},{"attributes":{"ID":95294,"DIS_CODE":0,"TOWNNAME":"新市區","LI":"大洲里","LIN":"10鄰","STREET":" ","SECT":" ","MAREA":"大洲","LANE":" ","ALLEY":" ","HOUSE_NO":"１１１號","E_COORD97":174483.23000000001,"N_COORD97":2551384,"ADDRESS":"大洲１１１號","OBJECTID":95294},"geometry":{"x":174483.23000000138,"y":2551384}},{"attributes":{"ID":95295,"DIS_CODE":0,"TOWNNAME":"新市區","LI":"大洲里","LIN":"10鄰","STREET":" ","SECT":" ","MAREA":"大洲","LANE":" ","ALLEY":" ","HOUSE_NO":"１０１之３號","E_COORD97":174416.98000000001,"N_COORD97":2551332.7999999998,"ADDRESS":"大洲１０１之３號","OBJECTID":95295},"geometry":{"x":174416.98000000138,"y":2551332.8000000045}},{"attributes":{"ID":95296,"DIS_CODE":0,"TOWNNAME":"新市區","LI":"三舍里","LIN":"10鄰","STREET":" ","SECT":" ","MAREA":"三舍","LANE":" ","ALLEY":" ","HOUSE_NO":"２２３號","E_COORD97":177730.12,"N_COORD97":2556004.25,"ADDRESS":"三舍２２３號","OBJECTID":95296},"geometry":{"x":177730.12000000104,"y":2556004.2500000037}},{"attributes":{"ID":95297,"DIS_CODE":0,"TOWNNAME":"新市區","LI":"大營里","LIN":"10鄰","STREET":" ","SECT":" ","MAREA":"大營","LANE":" ","ALLEY":" ","HOUSE_NO":"２１４號","E_COORD97":179434.67999999999,"N_COORD97":2555679.25,"ADDRESS":"大營２１４號","OBJECTID":95297},"geometry":{"x":179434.68000000063,"y":2555679.2500000019}},{"attributes":{"ID":95298,"DIS_CODE":0,"TOWNNAME":"新市區","LI":"大營里","LIN":"10鄰","STREET":" ","SECT":" ","MAREA":"大營","LANE":" ","ALLEY":" ","HOUSE_NO":"２０１號","E_COORD97":179527.32000000001,"N_COORD97":2555661.25,"ADDRESS":"大營２０１號","OBJECTID":95298},"geometry":{"x":179527.32000000123,"y":2555661.25}},{"attributes":{"ID":95299,"DIS_CODE":0,"TOWNNAME":"永康區","LI":"\u25A0行里","LIN":"41鄰","STREET":"永安路","SECT":" ","MAREA":" ","LANE":"１６５巷","ALLEY":"３０弄","HOUSE_NO":"７３號","E_COORD97":172362.42999999999,"N_COORD97":2549456,"ADDRESS":"永安路１６５巷３０弄７３號","OBJECTID":95299},"geometry":{"x":172362.43000000063,"y":2549456.0000000019}},{"attributes":{"ID":95300,"DIS_CODE":0,"TOWNNAME":"永康區","LI":"龍潭里","LIN":"34鄰","STREET":"龍埔街","SECT":" ","MAREA":" ","LANE":"１７５巷","ALLEY":"３弄","HOUSE_NO":"１５號","E_COORD97":174491.17000000001,"N_COORD97":2548154.75,"ADDRESS":"龍埔街１７５巷３弄１５號","OBJECTID":95300},"geometry":{"x":174491.17000000179,"y":2548154.75}},{"attributes":{"ID":95301,"DIS_CODE":0,"TOWNNAME":"中西區","LI":"光賢里","LIN":"21鄰","STREET":"武聖路","SECT":" ","MAREA":" ","LANE":"１９７巷","ALLEY":"３０弄","HOUSE_NO":"４號","E_COORD97":166865.07999999999,"N_COORD97":2545183.6499999999,"ADDRESS":"武聖路１９７巷３０弄４號","OBJECTID":95301},"geometry":{"x":166865.07999999914,"y":2545183.6500000022}},{"attributes":{"ID":95302,"DIS_CODE":0,"TOWNNAME":"中西區","LI":"光賢里","LIN":"21鄰","STREET":"武聖路","SECT":" ","MAREA":" ","LANE":"１９７巷","ALLEY":"３０弄","HOUSE_NO":"５號","E_COORD97":166846.79000000001,"N_COORD97":2545160.46,"ADDRESS":"武聖路１９７巷３０弄５號","OBJECTID":95302},"geometry":{"x":166846.7900000019,"y":2545160.4600000009}},{"attributes":{"ID":95303,"DIS_CODE":0,"TOWNNAME":"中西區","LI":"光賢里","LIN":"21鄰","STREET":"武聖路","SECT":" ","MAREA":" ","LANE":"１９７巷","ALLEY":"３０弄","HOUSE_NO":"６號","E_COORD97":166860.84,"N_COORD97":2545186.02,"ADDRESS":"武聖路１９７巷３０弄６號","OBJECTID":95303},"geometry":{"x":166860.83999999985,"y":2545186.0199999996}},{"attributes":{"ID":95304,"DIS_CODE":0,"TOWNNAME":"中西區","LI":"光賢里","LIN":"21鄰","STREET":"武聖路","SECT":" ","MAREA":" ","LANE":"１９７巷","ALLEY":"３０弄","HOUSE_NO":"７號","E_COORD97":166842.54999999999,"N_COORD97":2545162.6600000001,"ADDRESS":"武聖路１９７巷３０弄７號","OBJECTID":95304},"geometry":{"x":166842.54999999981,"y":2545162.6600000039}},{"attributes":{"ID":95305,"DIS_CODE":0,"TOWNNAME":"山上區","LI":"新莊里","LIN":"9鄰","STREET":" ","SECT":" ","MAREA":"大庄","LANE":" ","ALLEY":" ","HOUSE_NO":"３１號","E_COORD97":183852.66,"N_COORD97":2554883.25,"ADDRESS":"大庄３１號","OBJECTID":95305},"geometry":{"x":183852.66000000108,"y":2554883.2500000019}},{"attributes":{"ID":95306,"DIS_CODE":0,"TOWNNAME":"中西區","LI":"光賢里","LIN":"21鄰","STREET":"武聖路","SECT":" ","MAREA":" ","LANE":"１９７巷","ALLEY":"３０弄","HOUSE_NO":"８號","E_COORD97":166856.95000000001,"N_COORD97":2545188.73,"ADDRESS":"武聖路１９７巷３０弄８號","OBJECTID":95306},"geometry":{"x":166856.95000000019,"y":2545188.7300000004}},{"attributes":{"ID":95307,"DIS_CODE":0,"TOWNNAME":"中西區","LI":"光賢里","LIN":"21鄰","STREET":"武聖路","SECT":" ","MAREA":" ","LANE":"１９７巷","ALLEY":"３０弄","HOUSE_NO":"９號","E_COORD97":166837.98000000001,"N_COORD97":2545164.52,"ADDRESS":"武聖路１９７巷３０弄９號","OBJECTID":95307},"geometry":{"x":166837.98000000138,"y":2545164.5199999996}},{"attributes":{"ID":95308,"DIS_CODE":0,"TOWNNAME":"永康區","LI":"甲頂里","LIN":" ","STREET":"大武街","SECT":" ","MAREA":" ","LANE":"５９７巷","ALLEY":"５４弄","HOUSE_NO":"６號","E_COORD97":170269.39000000001,"N_COORD97":2546577.79,"ADDRESS":"大武街５９７巷５４弄６號","OBJECTID":95308},"geometry":{"x":170269.38999999966,"y":2546577.7900000028}},{"attributes":{"ID":95309,"DIS_CODE":0,"TOWNNAME":"永康區","LI":"\u25A0行里","LIN":"24鄰","STREET":"中正南路","SECT":" ","MAREA":" ","LANE":"５９２巷","ALLEY":"２９弄","HOUSE_NO":"９號","E_COORD97":171591.67000000001,"N_COORD97":2548621.6899999999,"ADDRESS":"中正南路５９２巷２９弄９號","OBJECTID":95309},"geometry":{"x":171591.66999999993,"y":2548621.6899999995}},{"attributes":{"ID":95310,"DIS_CODE":0,"TOWNNAME":"新營區","LI":"中營里","LIN":"8鄰","STREET":"新進路","SECT":" ","MAREA":" ","LANE":" ","ALLEY":" ","HOUSE_NO":"５２號","E_COORD97":180547.64999999999,"N_COORD97":2578257.8399999999,"ADDRESS":"新進路５２號","OBJECTID":95310},"geometry":{"x":180547.6500000013,"y":2578257.8400000036}},{"attributes":{"ID":95311,"DIS_CODE":0,"TOWNNAME":"永康區","LI":"龍潭里","LIN":"36鄰","STREET":"中山北路","SECT":" ","MAREA":" ","LANE":"１６４巷","ALLEY":"１６０弄","HOUSE_NO":"２５號","E_COORD97":174698.10999999999,"N_COORD97":2547358.25,"ADDRESS":"中山北路１６４巷１６０弄２５號","OBJECTID":95311},"geometry":{"x":174698.11000000034,"y":2547358.25}},{"attributes":{"ID":95312,"DIS_CODE":0,"TOWNNAME":"永康區","LI":"龍潭里","LIN":"42鄰","STREET":"永明街","SECT":" ","MAREA":" ","LANE":"３０２巷","ALLEY":"１７弄","HOUSE_NO":"２號","E_COORD97":174553.87,"N_COORD97":2547073.5,"ADDRESS":"永明街３０２巷１７弄２號","OBJECTID":95312},"geometry":{"x":174553.87000000011,"y":2547073.5000000019}},{"attributes":{"ID":95313,"DIS_CODE":0,"TOWNNAME":"永康區","LI":"\u25A0行里","LIN":"40鄰","STREET":"永安路","SECT":" ","MAREA":" ","LANE":"１０５巷","ALLEY":"４６弄","HOUSE_NO":"１９號","E_COORD97":172576.28,"N_COORD97":2549358.5600000001,"ADDRESS":"永安路１０５巷４６弄１９號","OBJECTID":95313},"geometry":{"x":172576.28000000026,"y":2549358.5600000024}},{"attributes":{"ID":95314,"DIS_CODE":0,"TOWNNAME":"永康區","LI":"龍潭里","LIN":"23鄰","STREET":"自強路","SECT":" ","MAREA":" ","LANE":"７５０巷","ALLEY":"６８弄","HOUSE_NO":"１９號","E_COORD97":174570.54999999999,"N_COORD97":2548415.7000000002,"ADDRESS":"自強路７５０巷６８弄１９號","OBJECTID":95314},"geometry":{"x":174570.55000000075,"y":2548415.6999999993}},{"attributes":{"ID":95315,"DIS_CODE":0,"TOWNNAME":"永康區","LI":"\u25A0行里","LIN":"47鄰","STREET":"新行街","SECT":" ","MAREA":" ","LANE":"４巷","ALLEY":"３０弄","HOUSE_NO":"１號","E_COORD97":172351.85000000001,"N_COORD97":2548818.3199999998,"ADDRESS":"新行街４巷３０弄１號","OBJECTID":95315},"geometry":{"x":172351.85000000149,"y":2548818.3200000003}},{"attributes":{"ID":95316,"DIS_CODE":0,"TOWNNAME":"永康區","LI":"\u25A0行里","LIN":"6鄰","STREET":"新行街","SECT":" ","MAREA":" ","LANE":"７９巷","ALLEY":"３弄","HOUSE_NO":"１０號","E_COORD97":172248.60999999999,"N_COORD97":2548875.3799999999,"ADDRESS":"新行街７９巷３弄１０號","OBJECTID":95316},"geometry":{"x":172248.61000000034,"y":2548875.3799999971}},{"attributes":{"ID":95317,"DIS_CODE":0,"TOWNNAME":"永康區","LI":"\u25A0行里","LIN":"6鄰","STREET":"新行街","SECT":" ","MAREA":" ","LANE":"７９巷","ALLEY":"３弄","HOUSE_NO":"７號","E_COORD97":172262.20999999999,"N_COORD97":2548872.9900000002,"ADDRESS":"新行街７９巷３弄７號","OBJECTID":95317},"geometry":{"x":172262.21000000089,"y":2548872.9900000039}},{"attributes":{"ID":95318,"DIS_CODE":0,"TOWNNAME":"永康區","LI":"龍潭里","LIN":"38鄰","STREET":"中山北路","SECT":" ","MAREA":" ","LANE":"１６４巷","ALLEY":"７８弄","HOUSE_NO":"９號之１４","E_COORD97":174457.56,"N_COORD97":2547311.04,"ADDRESS":"中山北路１６４巷７８弄９號之１４","OBJECTID":95318},"geometry":{"x":174457.56000000145,"y":2547311.0399999991}},{"attributes":{"ID":95319,"DIS_CODE":0,"TOWNNAME":"東區","LI":"崇善里","LIN":"21鄰","STREET":"崇善十一街","SECT":" ","MAREA":" ","LANE":"１２巷","ALLEY":"１７弄","HOUSE_NO":"１１號","E_COORD97":171223.20999999999,"N_COORD97":2541175.4700000002,"ADDRESS":"崇善十一街１２巷１７弄１１號","OBJECTID":95319},"geometry":{"x":171223.21000000089,"y":2541175.4700000025}},{"attributes":{"ID":95320,"DIS_CODE":0,"TOWNNAME":"東區","LI":"崇善里","LIN":"21鄰","STREET":"崇善十一街","SECT":" ","MAREA":" ","LANE":"１２巷","ALLEY":"１７弄","HOUSE_NO":"１３號","E_COORD97":171224.98000000001,"N_COORD97":2541163.9300000002,"ADDRESS":"崇善十一街１２巷１７弄１３號","OBJECTID":95320},"geometry":{"x":171224.98000000138,"y":2541163.9300000016}},{"attributes":{"ID":95321,"DIS_CODE":0,"TOWNNAME":"東區","LI":"崇善里","LIN":"21鄰","STREET":"崇善十一街","SECT":" ","MAREA":" ","LANE":"１２巷","ALLEY":"１７弄","HOUSE_NO":"１５號","E_COORD97":171230.07000000001,"N_COORD97":2541165.9900000002,"ADDRESS":"崇善十一街１２巷１７弄１５號","OBJECTID":95321},"geometry":{"x":171230.0700000003,"y":2541165.9900000002}},{"attributes":{"ID":95322,"DIS_CODE":0,"TOWNNAME":"東區","LI":"崇善里","LIN":"21鄰","STREET":"崇善十一街","SECT":" ","MAREA":" ","LANE":"１２巷","ALLEY":"１７弄","HOUSE_NO":"１６號","E_COORD97":171240.25,"N_COORD97":2541148.8100000001,"ADDRESS":"崇善十一街１２巷１７弄１６號","OBJECTID":95322},"geometry":{"x":171240.25,"y":2541148.8100000024}},{"attributes":{"ID":95323,"DIS_CODE":0,"TOWNNAME":"東區","LI":"崇善里","LIN":"21鄰","STREET":"崇善十一街","SECT":" ","MAREA":" ","LANE":"１２巷","ALLEY":"１７弄","HOUSE_NO":"１７號","E_COORD97":171234.16,"N_COORD97":2541175.4900000002,"ADDRESS":"崇善十一街１２巷１７弄１７號","OBJECTID":95323},"geometry":{"x":171234.16000000015,"y":2541175.4900000002}},{"attributes":{"ID":95324,"DIS_CODE":0,"TOWNNAME":"東區","LI":"崇善里","LIN":"21鄰","STREET":"崇善十一街","SECT":" ","MAREA":" ","LANE":"１２巷","ALLEY":"１７弄","HOUSE_NO":"１９號","E_COORD97":171240.35999999999,"N_COORD97":2541174.8700000001,"ADDRESS":"崇善十一街１２巷１７弄１９號","OBJECTID":95324},"geometry":{"x":171240.36000000034,"y":2541174.8700000048}},{"attributes":{"ID":95325,"DIS_CODE":0,"TOWNNAME":"東區","LI":"崇善里","LIN":"21鄰","STREET":"崇善十一街","SECT":" ","MAREA":" ","LANE":"１２巷","ALLEY":"１７弄","HOUSE_NO":"１號","E_COORD97":171209.20999999999,"N_COORD97":2541157.0499999998,"ADDRESS":"崇善十一街１２巷１７弄１號","OBJECTID":95325},"geometry":{"x":171209.21000000089,"y":2541157.0500000026}},{"attributes":{"ID":95326,"DIS_CODE":0,"TOWNNAME":"東區","LI":"崇善里","LIN":"21鄰","STREET":"崇善十一街","SECT":" ","MAREA":" ","LANE":"１２巷","ALLEY":"１７弄","HOUSE_NO":"２０號","E_COORD97":171256.92999999999,"N_COORD97":2541157.7999999998,"ADDRESS":"崇善十一街１２巷１７弄２０號","OBJECTID":95326},"geometry":{"x":171256.93000000063,"y":2541157.8000000007}},{"attributes":{"ID":95327,"DIS_CODE":0,"TOWNNAME":"東區","LI":"崇善里","LIN":"21鄰","STREET":"崇善十一街","SECT":" ","MAREA":" ","LANE":"１２巷","ALLEY":"１７弄","HOUSE_NO":"２２號","E_COORD97":171260.64000000001,"N_COORD97":2541160.4500000002,"ADDRESS":"崇善十一街１２巷１７弄２２號","OBJECTID":95327},"geometry":{"x":171260.6400000006,"y":2541160.4500000011}},{"attributes":{"ID":95328,"DIS_CODE":0,"TOWNNAME":"東區","LI":"崇善里","LIN":"21鄰","STREET":"崇善十一街","SECT":" ","MAREA":" ","LANE":"１２巷","ALLEY":"１７弄","HOUSE_NO":"２４號","E_COORD97":171264.60999999999,"N_COORD97":2541162.2999999998,"ADDRESS":"崇善十一街１２巷１７弄２４號","OBJECTID":95328},"geometry":{"x":171264.61000000127,"y":2541162.3000000026}},{"attributes":{"ID":95329,"DIS_CODE":0,"TOWNNAME":"東區","LI":"崇善里","LIN":"21鄰","STREET":"崇善十一街","SECT":" ","MAREA":" ","LANE":"１２巷","ALLEY":"１７弄","HOUSE_NO":"２６號","E_COORD97":171268.59,"N_COORD97":2541164.1499999999,"ADDRESS":"崇善十一街１２巷１７弄２６號","OBJECTID":95329},"geometry":{"x":171268.58999999985,"y":2541164.1500000004}},{"attributes":{"ID":95330,"DIS_CODE":0,"TOWNNAME":"東區","LI":"崇善里","LIN":"21鄰","STREET":"崇善十一街","SECT":" ","MAREA":" ","LANE":"１２巷","ALLEY":"１７弄","HOUSE_NO":"２８號","E_COORD97":171272.29000000001,"N_COORD97":2541166.54,"ADDRESS":"崇善十一街１２巷１７弄２８號","OBJECTID":95330},"geometry":{"x":171272.29000000004,"y":2541166.540000001}},{"attributes":{"ID":95331,"DIS_CODE":0,"TOWNNAME":"東區","LI":"崇善里","LIN":"21鄰","STREET":"崇善十一街","SECT":" ","MAREA":" ","LANE":"１２巷","ALLEY":"１７弄","HOUSE_NO":"３０號","E_COORD97":171275.73999999999,"N_COORD97":2541169.1800000002,"ADDRESS":"崇善十一街１２巷１７弄３０號","OBJECTID":95331},"geometry":{"x":171275.74000000115,"y":2541169.1800000016}},{"attributes":{"ID":95332,"DIS_CODE":0,"TOWNNAME":"東區","LI":"崇善里","LIN":"21鄰","STREET":"崇善十一街","SECT":" ","MAREA":" ","LANE":"１２巷","ALLEY":"１７弄","HOUSE_NO":"３４號","E_COORD97":171283.14999999999,"N_COORD97":2541173.1400000001,"ADDRESS":"崇善十一街１２巷１７弄３４號","OBJECTID":95332},"geometry":{"x":171283.1500000013,"y":2541173.1400000025}},{"attributes":{"ID":95333,"DIS_CODE":0,"TOWNNAME":"東區","LI":"崇善里","LIN":"21鄰","STREET":"崇善十一街","SECT":" ","MAREA":" ","LANE":"１２巷","ALLEY":"１７弄","HOUSE_NO":"３６號","E_COORD97":171287.12,"N_COORD97":2541174.21,"ADDRESS":"崇善十一街１２巷１７弄３６號","OBJECTID":95333},"geometry":{"x":171287.12000000011,"y":2541174.2100000009}},{"attributes":{"ID":95334,"DIS_CODE":0,"TOWNNAME":"東區","LI":"崇善里","LIN":"21鄰","STREET":"崇善十一街","SECT":" ","MAREA":" ","LANE":"１２巷","ALLEY":"１７弄","HOUSE_NO":"３８號","E_COORD97":171290.82999999999,"N_COORD97":2541177.1200000001,"ADDRESS":"崇善十一街１２巷１７弄３８號","OBJECTID":95334},"geometry":{"x":171290.83000000007,"y":2541177.1200000029}},{"attributes":{"ID":95335,"DIS_CODE":0,"TOWNNAME":"東區","LI":"崇善里","LIN":"21鄰","STREET":"崇善十一街","SECT":" ","MAREA":" ","LANE":"１２巷","ALLEY":"１７弄","HOUSE_NO":"４０號","E_COORD97":171294.81,"N_COORD97":2541179.77,"ADDRESS":"崇善十一街１２巷１７弄４０號","OBJECTID":95335},"geometry":{"x":171294.81000000052,"y":2541179.7699999996}},{"attributes":{"ID":95336,"DIS_CODE":0,"TOWNNAME":"東區","LI":"崇善里","LIN":"21鄰","STREET":"崇善十一街","SECT":" ","MAREA":" ","LANE":"１２巷","ALLEY":"１７弄","HOUSE_NO":"４２號","E_COORD97":171298.51000000001,"N_COORD97":2541181.6200000001,"ADDRESS":"崇善十一街１２巷１７弄４２號","OBJECTID":95336},"geometry":{"x":171298.51000000071,"y":2541181.6200000029}},{"attributes":{"ID":95337,"DIS_CODE":0,"TOWNNAME":"東區","LI":"崇善里","LIN":"21鄰","STREET":"崇善十一街","SECT":" ","MAREA":" ","LANE":"１２巷","ALLEY":"１７弄","HOUSE_NO":"５號","E_COORD97":171207.66,"N_COORD97":2541169.7000000002,"ADDRESS":"崇善十一街１２巷１７弄５號","OBJECTID":95337},"geometry":{"x":171207.65999999922,"y":2541169.6999999993}},{"attributes":{"ID":95338,"DIS_CODE":0,"TOWNNAME":"永康區","LI":"龍潭里","LIN":"38鄰","STREET":"中山北路","SECT":" ","MAREA":" ","LANE":"１６４巷","ALLEY":"７８弄","HOUSE_NO":"９號之７","E_COORD97":174456.37,"N_COORD97":2547311.04,"ADDRESS":"中山北路１６４巷７８弄９號之７","OBJECTID":95338},"geometry":{"x":174456.37000000104,"y":2547311.0399999991}},{"attributes":{"ID":95339,"DIS_CODE":0,"TOWNNAME":"新市區","LI":"大營里","LIN":"10鄰","STREET":" ","SECT":" ","MAREA":"大營","LANE":" ","ALLEY":" ","HOUSE_NO":"２０３號","E_COORD97":179518.37,"N_COORD97":2555657.5,"ADDRESS":"大營２０３號","OBJECTID":95339},"geometry":{"x":179518.37000000104,"y":2555657.5000000019}},{"attributes":{"ID":95340,"DIS_CODE":0,"TOWNNAME":"東區","LI":"龍山里","LIN":"18鄰","STREET":"東門路","SECT":"一段","MAREA":" ","LANE":" ","ALLEY":" ","HOUSE_NO":"２７４號","E_COORD97":169688.64000000001,"N_COORD97":2543047.77,"ADDRESS":"東門路一段２７４號","OBJECTID":95340},"geometry":{"x":169688.64000000153,"y":2543047.7699999996}},{"attributes":{"ID":95341,"DIS_CODE":0,"TOWNNAME":"安南區","LI":"頂安里","LIN":"17鄰","STREET":"北安路","SECT":"二段","MAREA":" ","LANE":" ","ALLEY":" ","HOUSE_NO":"５３８號之１","E_COORD97":168379.28,"N_COORD97":2548540.9199999999,"ADDRESS":"北安路二段５３８號之１","OBJECTID":95341},"geometry":{"x":168379.28000000026,"y":2548540.9200000037}},{"attributes":{"ID":95342,"DIS_CODE":0,"TOWNNAME":"安南區","LI":"淵東里","LIN":"6鄰","STREET":"本原街","SECT":"三段","MAREA":" ","LANE":" ","ALLEY":" ","HOUSE_NO":"２１８號","E_COORD97":165408.54999999999,"N_COORD97":2550332.6600000001,"ADDRESS":"本原街三段２１８號","OBJECTID":95342},"geometry":{"x":165408.54999999981,"y":2550332.6599999983}},{"attributes":{"ID":95343,"DIS_CODE":0,"TOWNNAME":"安南區","LI":"安順里","LIN":"10鄰","STREET":"開安路","SECT":" ","MAREA":" ","LANE":" ","ALLEY":" ","HOUSE_NO":"２０１號","E_COORD97":170581.32999999999,"N_COORD97":2550150.7200000002,"ADDRESS":"開安路２０１號","OBJECTID":95343},"geometry":{"x":170581.33000000101,"y":2550150.7200000025}},{"attributes":{"ID":95344,"DIS_CODE":0,"TOWNNAME":"安南區","LI":"溪心里","LIN":"10鄰","STREET":"仁安八街","SECT":" ","MAREA":" ","LANE":" ","ALLEY":" ","HOUSE_NO":"３４號","E_COORD97":166221.42999999999,"N_COORD97":2549856.1600000001,"ADDRESS":"仁安八街３４號","OBJECTID":95344},"geometry":{"x":166221.4299999997,"y":2549856.160000002}},{"attributes":{"ID":95345,"DIS_CODE":0,"TOWNNAME":"安南區","LI":"安順里","LIN":"1鄰","STREET":"安和路","SECT":"四段","MAREA":" ","LANE":" ","ALLEY":" ","HOUSE_NO":"１９號","E_COORD97":169938.32999999999,"N_COORD97":2550141.0299999998,"ADDRESS":"安和路四段１９號","OBJECTID":95345},"geometry":{"x":169938.33000000007,"y":2550141.0300000012}},{"attributes":{"ID":95346,"DIS_CODE":0,"TOWNNAME":"安南區","LI":"安順里","LIN":"1鄰","STREET":"安和路","SECT":"四段","MAREA":" ","LANE":" ","ALLEY":" ","HOUSE_NO":"２１號","E_COORD97":169937.73000000001,"N_COORD97":2550145.73,"ADDRESS":"安和路四段２１號","OBJECTID":95346},"geometry":{"x":169937.73000000045,"y":2550145.7300000004}},{"attributes":{"ID":95347,"DIS_CODE":0,"TOWNNAME":"安南區","LI":"安順里","LIN":"8鄰","STREET":"安和路","SECT":"四段","MAREA":" ","LANE":" ","ALLEY":" ","HOUSE_NO":"２７號","E_COORD97":169942.73999999999,"N_COORD97":2550162.77,"ADDRESS":"安和路四段２７號","OBJECTID":95347},"geometry":{"x":169942.74000000209,"y":2550162.7700000014}},{"attributes":{"ID":95348,"DIS_CODE":0,"TOWNNAME":"安南區","LI":"安順里","LIN":"8鄰","STREET":"安和路","SECT":"四段","MAREA":" ","LANE":" ","ALLEY":" ","HOUSE_NO":"２９號","E_COORD97":169942.13,"N_COORD97":2550167.02,"ADDRESS":"安和路四段２９號","OBJECTID":95348},"geometry":{"x":169942.13000000082,"y":2550167.0200000033}},{"attributes":{"ID":95349,"DIS_CODE":0,"TOWNNAME":"安南區","LI":"安順里","LIN":"8鄰","STREET":"安和路","SECT":"四段","MAREA":" ","LANE":" ","ALLEY":" ","HOUSE_NO":"３１號","E_COORD97":169941.51999999999,"N_COORD97":2550171.4199999999,"ADDRESS":"安和路四段３１號","OBJECTID":95349},"geometry":{"x":169941.51999999955,"y":2550171.4200000037}},{"attributes":{"ID":95350,"DIS_CODE":0,"TOWNNAME":"永康區","LI":"\u25A0行里","LIN":"47鄰","STREET":"新行街","SECT":" ","MAREA":" ","LANE":"４巷","ALLEY":"３０弄","HOUSE_NO":"９號","E_COORD97":172368.64999999999,"N_COORD97":2548810.5699999998,"ADDRESS":"新行街４巷３０弄９號","OBJECTID":95350},"geometry":{"x":172368.65000000037,"y":2548810.5700000003}},{"attributes":{"ID":95351,"DIS_CODE":0,"TOWNNAME":"東區","LI":"崇善里","LIN":"21鄰","STREET":"崇善十一街","SECT":" ","MAREA":" ","LANE":"１２巷","ALLEY":"１７弄","HOUSE_NO":"７號","E_COORD97":171204.98999999999,"N_COORD97":2541176.3599999999,"ADDRESS":"崇善十一街１２巷１７弄７號","OBJECTID":95351},"geometry":{"x":171204.99000000022,"y":2541176.3599999994}},{"attributes":{"ID":95352,"DIS_CODE":0,"TOWNNAME":"東區","LI":"崇善里","LIN":"21鄰","STREET":"崇善十一街","SECT":" ","MAREA":" ","LANE":"１２巷","ALLEY":"１７弄","HOUSE_NO":"９號","E_COORD97":171221.87,"N_COORD97":2541180.7999999998,"ADDRESS":"崇善十一街１２巷１７弄９號","OBJECTID":95352},"geometry":{"x":171221.87000000104,"y":2541180.8000000007}},{"attributes":{"ID":95353,"DIS_CODE":0,"TOWNNAME":"永康區","LI":"龍潭里","LIN":"36鄰","STREET":"中山北路","SECT":" ","MAREA":" ","LANE":"１６４巷","ALLEY":"１６０弄","HOUSE_NO":"２４號","E_COORD97":174656.22,"N_COORD97":2547365.27,"ADDRESS":"中山北路１６４巷１６０弄２４號","OBJECTID":95353},"geometry":{"x":174656.21999999974,"y":2547365.2700000014}},{"attributes":{"ID":95354,"DIS_CODE":0,"TOWNNAME":"永康區","LI":"龍潭里","LIN":"38鄰","STREET":"中山北路","SECT":" ","MAREA":" ","LANE":"１６４巷","ALLEY":"７８弄","HOUSE_NO":"９號之１９","E_COORD97":174457.62,"N_COORD97":2547311.04,"ADDRESS":"中山北路１６４巷７８弄９號之１９","OBJECTID":95354},"geometry":{"x":174457.62000000197,"y":2547311.0399999991}},{"attributes":{"ID":95355,"DIS_CODE":0,"TOWNNAME":"永康區","LI":"龍潭里","LIN":"35鄰","STREET":"自強路","SECT":" ","MAREA":" ","LANE":"８０２巷","ALLEY":"１弄","HOUSE_NO":"１５號","E_COORD97":174628.14999999999,"N_COORD97":2548610.8399999999,"ADDRESS":"自強路８０２巷１弄１５號","OBJECTID":95355},"geometry":{"x":174628.15000000037,"y":2548610.8399999999}},{"attributes":{"ID":95356,"DIS_CODE":0,"TOWNNAME":"永康區","LI":"二王里","LIN":"21鄰","STREET":"中山南路","SECT":" ","MAREA":" ","LANE":"６４４巷","ALLEY":"３９弄","HOUSE_NO":"１２號","E_COORD97":172436.31,"N_COORD97":2546527.4300000002,"ADDRESS":"中山南路６４４巷３９弄１２號","OBJECTID":95356},"geometry":{"x":172436.30999999959,"y":2546527.4300000016}},{"attributes":{"ID":95357,"DIS_CODE":0,"TOWNNAME":"永康區","LI":"二王里","LIN":"21鄰","STREET":"中山南路","SECT":" ","MAREA":" ","LANE":"６４４巷","ALLEY":"４２弄","HOUSE_NO":"１５號","E_COORD97":172358.38,"N_COORD97":2546523.9700000002,"ADDRESS":"中山南路６４４巷４２弄１５號","OBJECTID":95357},"geometry":{"x":172358.37999999989,"y":2546523.9700000044}},{"attributes":{"ID":95358,"DIS_CODE":0,"TOWNNAME":"永康區","LI":"大橋里","LIN":"21鄰","STREET":"大橋一街","SECT":" ","MAREA":" ","LANE":"１３９巷","ALLEY":"４４弄","HOUSE_NO":"９６號","E_COORD97":171152.98000000001,"N_COORD97":2546700.5499999998,"ADDRESS":"大橋一街１３９巷４４弄９６號","OBJECTID":95358},"geometry":{"x":171152.98000000045,"y":2546700.5500000026}},{"attributes":{"ID":95359,"DIS_CODE":0,"TOWNNAME":"永康區","LI":"二王里","LIN":"21鄰","STREET":"中山南路","SECT":" ","MAREA":" ","LANE":"６４４巷","ALLEY":"４２弄","HOUSE_NO":"２號之３","E_COORD97":172392.64999999999,"N_COORD97":2546546.6800000002,"ADDRESS":"中山南路６４４巷４２弄２號之３","OBJECTID":95359},"geometry":{"x":172392.65000000037,"y":2546546.6800000016}},{"attributes":{"ID":95360,"DIS_CODE":0,"TOWNNAME":"永康區","LI":"二王里","LIN":"21鄰","STREET":"中山南路","SECT":" ","MAREA":" ","LANE":"６４４巷","ALLEY":"３９弄","HOUSE_NO":"２號","E_COORD97":172409.87,"N_COORD97":2546526.0899999999,"ADDRESS":"中山南路６４４巷３９弄２號","OBJECTID":95360},"geometry":{"x":172409.87000000197,"y":2546526.0900000017}},{"attributes":{"ID":95361,"DIS_CODE":0,"TOWNNAME":"永康區","LI":"中興里","LIN":"21鄰","STREET":"中華路","SECT":" ","MAREA":" ","LANE":"２１６巷","ALLEY":"１２弄","HOUSE_NO":"６號","E_COORD97":171801.78,"N_COORD97":2545098.0099999998,"ADDRESS":"中華路２１６巷１２弄６號","OBJECTID":95361},"geometry":{"x":171801.78000000026,"y":2545098.0099999998}},{"attributes":{"ID":95362,"DIS_CODE":0,"TOWNNAME":"永康區","LI":"龍潭里","LIN":"27鄰","STREET":"中山北路","SECT":" ","MAREA":" ","LANE":"４６１巷","ALLEY":"２９弄","HOUSE_NO":"２號","E_COORD97":175106.59,"N_COORD97":2547871.7799999998,"ADDRESS":"中山北路４６１巷２９弄２號","OBJECTID":95362},"geometry":{"x":175106.58999999985,"y":2547871.7799999993}},{"attributes":{"ID":95363,"DIS_CODE":0,"TOWNNAME":"永康區","LI":"甲頂里","LIN":" ","STREET":"大武街","SECT":" ","MAREA":" ","LANE":"５９７巷","ALLEY":"２弄","HOUSE_NO":"８號","E_COORD97":170296.97,"N_COORD97":2546607.7400000002,"ADDRESS":"大武街５９７巷２弄８號","OBJECTID":95363},"geometry":{"x":170296.97000000067,"y":2546607.7400000021}},{"attributes":{"ID":95364,"DIS_CODE":0,"TOWNNAME":"永康區","LI":"\u25A0行里","LIN":"21鄰","STREET":"正南五街","SECT":" ","MAREA":" ","LANE":"５２０巷","ALLEY":"５６弄","HOUSE_NO":"２１號","E_COORD97":171729.04999999999,"N_COORD97":2548740.1699999999,"ADDRESS":"正南五街５２０巷５６弄２１號","OBJECTID":95364},"geometry":{"x":171729.05000000075,"y":2548740.1700000018}},{"attributes":{"ID":95365,"DIS_CODE":0,"TOWNNAME":"永康區","LI":"龍潭里","LIN":"23鄰","STREET":"自強路","SECT":" ","MAREA":" ","LANE":"７５０巷","ALLEY":"６８弄","HOUSE_NO":"４７號","E_COORD97":174570.48999999999,"N_COORD97":2548379.8799999999,"ADDRESS":"自強路７５０巷６８弄４７號","OBJECTID":95365},"geometry":{"x":174570.48999999929,"y":2548379.879999999}},{"attributes":{"ID":95366,"DIS_CODE":0,"TOWNNAME":"永康區","LI":"\u25A0行里","LIN":"36鄰","STREET":"三村一街","SECT":" ","MAREA":" ","LANE":"１３８巷","ALLEY":"４８弄","HOUSE_NO":"２２號","E_COORD97":172113.57999999999,"N_COORD97":2549332.4399999999,"ADDRESS":"三村一街１３８巷４８弄２２號","OBJECTID":95366},"geometry":{"x":172113.58000000194,"y":2549332.4399999995}},{"attributes":{"ID":95367,"DIS_CODE":0,"TOWNNAME":"永康區","LI":"\u25A0行里","LIN":"32鄰","STREET":"三村一街","SECT":" ","MAREA":" ","LANE":"１３８巷","ALLEY":"９２弄","HOUSE_NO":"２２號","E_COORD97":172126.60999999999,"N_COORD97":2549375.29,"ADDRESS":"三村一街１３８巷９２弄２２號","OBJECTID":95367},"geometry":{"x":172126.61000000034,"y":2549375.290000001}},{"attributes":{"ID":95368,"DIS_CODE":0,"TOWNNAME":"安南區","LI":"安順里","LIN":"8鄰","STREET":"安和路","SECT":"四段","MAREA":" ","LANE":" ","ALLEY":" ","HOUSE_NO":"３３號","E_COORD97":169940.60999999999,"N_COORD97":2550175.9700000002,"ADDRESS":"安和路四段３３號","OBJECTID":95368},"geometry":{"x":169940.61000000127,"y":2550175.9700000025}},{"attributes":{"ID":95369,"DIS_CODE":0,"TOWNNAME":"安南區","LI":"安順里","LIN":"8鄰","STREET":"安和路","SECT":"四段","MAREA":" ","LANE":" ","ALLEY":" ","HOUSE_NO":"３５號","E_COORD97":169939.85000000001,"N_COORD97":2550180.6699999999,"ADDRESS":"安和路四段３５號","OBJECTID":95369},"geometry":{"x":169939.85000000056,"y":2550180.6700000018}},{"attributes":{"ID":95370,"DIS_CODE":0,"TOWNNAME":"安南區","LI":"安西里","LIN":"13鄰","STREET":"安通路","SECT":"四段","MAREA":" ","LANE":" ","ALLEY":" ","HOUSE_NO":"３號","E_COORD97":169350.63,"N_COORD97":2547781,"ADDRESS":"安通路四段３號","OBJECTID":95370},"geometry":{"x":169350.62999999989,"y":2547781.0000000037}},{"attributes":{"ID":95371,"DIS_CODE":0,"TOWNNAME":"安南區","LI":"新順里","LIN":"4鄰","STREET":"安生街","SECT":" ","MAREA":" ","LANE":" ","ALLEY":" ","HOUSE_NO":"１２６號","E_COORD97":169449.06,"N_COORD97":2549555.5600000001,"ADDRESS":"安生街１２６號","OBJECTID":95371},"geometry":{"x":169449.06000000052,"y":2549555.5600000024}},{"attributes":{"ID":95372,"DIS_CODE":0,"TOWNNAME":"安南區","LI":"新順里","LIN":"4鄰","STREET":"安生街","SECT":" ","MAREA":" ","LANE":" ","ALLEY":" ","HOUSE_NO":"１２８號","E_COORD97":169444.78,"N_COORD97":2549554.7000000002,"ADDRESS":"安生街１２８號","OBJECTID":95372},"geometry":{"x":169444.78000000119,"y":2549554.6999999993}},{"attributes":{"ID":95373,"DIS_CODE":0,"TOWNNAME":"安南區","LI":"新順里","LIN":"4鄰","STREET":"安生街","SECT":" ","MAREA":" ","LANE":" ","ALLEY":" ","HOUSE_NO":"１３２號","E_COORD97":169429.35999999999,"N_COORD97":2549552.1400000001,"ADDRESS":"安生街１３２號","OBJECTID":95373},"geometry":{"x":169429.36000000034,"y":2549552.1400000006}},{"attributes":{"ID":95374,"DIS_CODE":0,"TOWNNAME":"安南區","LI":"新順里","LIN":"4鄰","STREET":"安生街","SECT":" ","MAREA":" ","LANE":" ","ALLEY":" ","HOUSE_NO":"１３８號","E_COORD97":169423.94,"N_COORD97":2549558.4100000001,"ADDRESS":"安生街１３８號","OBJECTID":95374},"geometry":{"x":169423.94000000041,"y":2549558.410000002}},{"attributes":{"ID":95375,"DIS_CODE":0,"TOWNNAME":"安南區","LI":"新順里","LIN":"4鄰","STREET":"安生街","SECT":" ","MAREA":" ","LANE":" ","ALLEY":" ","HOUSE_NO":"１４２號","E_COORD97":169414.79999999999,"N_COORD97":2549551.2799999998,"ADDRESS":"安生街１４２號","OBJECTID":95375},"geometry":{"x":169414.80000000075,"y":2549551.2800000031}},{"attributes":{"ID":95376,"DIS_CODE":0,"TOWNNAME":"安南區","LI":"新順里","LIN":"4鄰","STREET":"安生街","SECT":" ","MAREA":" ","LANE":" ","ALLEY":" ","HOUSE_NO":"１４６號","E_COORD97":169409.66,"N_COORD97":2549551.5699999998,"ADDRESS":"安生街１４６號","OBJECTID":95376},"geometry":{"x":169409.66000000108,"y":2549551.5700000022}},{"attributes":{"ID":95377,"DIS_CODE":0,"TOWNNAME":"安南區","LI":"新順里","LIN":"4鄰","STREET":"安生街","SECT":" ","MAREA":" ","LANE":" ","ALLEY":" ","HOUSE_NO":"１４８號","E_COORD97":169394.23999999999,"N_COORD97":2549548.1400000001,"ADDRESS":"安生街１４８號","OBJECTID":95377},"geometry":{"x":169394.24000000115,"y":2549548.1400000025}},{"attributes":{"ID":95378,"DIS_CODE":0,"TOWNNAME":"仁德區","LI":"仁義里","LIN":"21鄰","STREET":"中山路","SECT":" ","MAREA":" ","LANE":"３２８巷","ALLEY":"１１弄","HOUSE_NO":"１９號","E_COORD97":173883.70999999999,"N_COORD97":2541337.21,"ADDRESS":"中山路３２８巷１１弄１９號","OBJECTID":95378},"geometry":{"x":173883.70999999996,"y":2541337.2100000009}},{"attributes":{"ID":95379,"DIS_CODE":0,"TOWNNAME":"東區","LI":"崇善里","LIN":"21鄰","STREET":"崇善十一街","SECT":" ","MAREA":" ","LANE":"１２巷","ALLEY":"１７弄","HOUSE_NO":"２１號","E_COORD97":171244.38,"N_COORD97":2541176.73,"ADDRESS":"崇善十一街１２巷１７弄２１號","OBJECTID":95379},"geometry":{"x":171244.37999999989,"y":2541176.7300000023}},{"attributes":{"ID":95380,"DIS_CODE":0,"TOWNNAME":"永康區","LI":"龍潭里","LIN":"38鄰","STREET":"中山北路","SECT":" ","MAREA":" ","LANE":"１６４巷","ALLEY":"６８弄","HOUSE_NO":"１０號","E_COORD97":174388.35999999999,"N_COORD97":2547371.4500000002,"ADDRESS":"中山北路１６４巷６８弄１０號","OBJECTID":95380},"geometry":{"x":174388.3599999994,"y":2547371.4500000011}},{"attributes":{"ID":95381,"DIS_CODE":0,"TOWNNAME":"永康區","LI":"龍潭里","LIN":"27鄰","STREET":"中山北路","SECT":" ","MAREA":" ","LANE":"４６１巷","ALLEY":"１１弄","HOUSE_NO":"３號","E_COORD97":175094.73999999999,"N_COORD97":2547809.8700000001,"ADDRESS":"中山北路４６１巷１１弄３號","OBJECTID":95381},"geometry":{"x":175094.74000000115,"y":2547809.8700000048}},{"attributes":{"ID":95382,"DIS_CODE":0,"TOWNNAME":"永康區","LI":"龍潭里","LIN":"27鄰","STREET":"中山北路","SECT":" ","MAREA":" ","LANE":"４６１巷","ALLEY":"１１弄","HOUSE_NO":"６號","E_COORD97":175075.48000000001,"N_COORD97":2547824.1200000001,"ADDRESS":"中山北路４６１巷１１弄６號","OBJECTID":95382},"geometry":{"x":175075.48000000045,"y":2547824.120000001}},{"attributes":{"ID":95383,"DIS_CODE":0,"TOWNNAME":"仁德區","LI":"保安里","LIN":"21鄰","STREET":"文賢一街","SECT":" ","MAREA":" ","LANE":"１０巷","ALLEY":"２弄","HOUSE_NO":"６號","E_COORD97":171093.81030899999,"N_COORD97":2536742.71208,"ADDRESS":"文賢一街１０巷２弄６號","OBJECTID":95383},"geometry":{"x":171093.81030900218,"y":2536742.7120800037}},{"attributes":{"ID":95384,"DIS_CODE":0,"TOWNNAME":"永康區","LI":"\u25A0行里","LIN":"36鄰","STREET":"三村一街","SECT":" ","MAREA":" ","LANE":"１３８巷","ALLEY":"４８弄","HOUSE_NO":"３０號","E_COORD97":172126.25,"N_COORD97":2549333.1899999999,"ADDRESS":"三村一街１３８巷４８弄３０號","OBJECTID":95384},"geometry":{"x":172126.25000000093,"y":2549333.1900000013}},{"attributes":{"ID":95385,"DIS_CODE":0,"TOWNNAME":"永康區","LI":"\u25A0行里","LIN":"36鄰","STREET":"三村一街","SECT":" ","MAREA":" ","LANE":"１３８巷","ALLEY":"１８弄","HOUSE_NO":"２１號","E_COORD97":172110.29000000001,"N_COORD97":2549304.4300000002,"ADDRESS":"三村一街１３８巷１８弄２１號","OBJECTID":95385},"geometry":{"x":172110.2900000019,"y":2549304.4300000016}},{"attributes":{"ID":95386,"DIS_CODE":0,"TOWNNAME":"仁德區","LI":"保安里","LIN":"21鄰","STREET":"文賢一街","SECT":" ","MAREA":" ","LANE":"１０巷","ALLEY":"１弄","HOUSE_NO":"１２號","E_COORD97":171047.79000000001,"N_COORD97":2536734.3199999998,"ADDRESS":"文賢一街１０巷１弄１２號","OBJECTID":95386},"geometry":{"x":171047.79000000097,"y":2536734.3200000022}},{"attributes":{"ID":95387,"DIS_CODE":0,"TOWNNAME":"仁德區","LI":"保安里","LIN":"21鄰","STREET":"文賢一街","SECT":" ","MAREA":" ","LANE":"１０巷","ALLEY":"２弄","HOUSE_NO":"１號","E_COORD97":171087.17000000001,"N_COORD97":2536752.3199999998,"ADDRESS":"文賢一街１０巷２弄１號","OBJECTID":95387},"geometry":{"x":171087.17000000179,"y":2536752.3200000003}},{"attributes":{"ID":95388,"DIS_CODE":0,"TOWNNAME":"仁德區","LI":"保安里","LIN":"21鄰","STREET":"文賢一街","SECT":" ","MAREA":" ","LANE":"１０巷","ALLEY":"２弄","HOUSE_NO":"１０號","E_COORD97":171103.55430799999,"N_COORD97":2536743.7704099999,"ADDRESS":"文賢一街１０巷２弄１０號","OBJECTID":95388},"geometry":{"x":171103.55430800002,"y":2536743.7704130001}},{"attributes":{"ID":95389,"DIS_CODE":0,"TOWNNAME":"仁德區","LI":"保安里","LIN":"21鄰","STREET":"文賢一街","SECT":" ","MAREA":" ","LANE":"１０巷","ALLEY":"１弄","HOUSE_NO":"３號","E_COORD97":171070.085788,"N_COORD97":2536731.0704199998,"ADDRESS":"文賢一街１０巷１弄３號","OBJECTID":95389},"geometry":{"x":171070.08578800131,"y":2536731.0704200026}},{"attributes":{"ID":95390,"DIS_CODE":0,"TOWNNAME":"仁德區","LI":"保安里","LIN":"21鄰","STREET":"文賢一街","SECT":" ","MAREA":" ","LANE":"１０巷","ALLEY":"１弄","HOUSE_NO":"７號","E_COORD97":171057.376223,"N_COORD97":2536728.3187500001,"ADDRESS":"文賢一街１０巷１弄７號","OBJECTID":95390},"geometry":{"x":171057.37622299977,"y":2536728.3187550027}},{"attributes":{"ID":95391,"DIS_CODE":0,"TOWNNAME":"永康區","LI":"中興里","LIN":"21鄰","STREET":"中華路","SECT":" ","MAREA":" ","LANE":"２１６巷","ALLEY":"１２弄","HOUSE_NO":"２號之９","E_COORD97":171751.60000000001,"N_COORD97":2545092.2000000002,"ADDRESS":"中華路２１６巷１２弄２號之９","OBJECTID":95391},"geometry":{"x":171751.59999999963,"y":2545092.1999999993}},{"attributes":{"ID":95392,"DIS_CODE":0,"TOWNNAME":"安南區","LI":"新順里","LIN":"4鄰","STREET":"安生街","SECT":" ","MAREA":" ","LANE":" ","ALLEY":" ","HOUSE_NO":"１４９號","E_COORD97":169421.94,"N_COORD97":2549533.29,"ADDRESS":"安生街１４９號","OBJECTID":95392},"geometry":{"x":169421.94000000134,"y":2549533.2899999991}},{"attributes":{"ID":95393,"DIS_CODE":0,"TOWNNAME":"安南區","LI":"新順里","LIN":"4鄰","STREET":"安生街","SECT":" ","MAREA":" ","LANE":" ","ALLEY":" ","HOUSE_NO":"１５２號","E_COORD97":169400.51999999999,"N_COORD97":2549557.5600000001,"ADDRESS":"安生街１５２號","OBJECTID":95393},"geometry":{"x":169400.51999999955,"y":2549557.5600000042}},{"attributes":{"ID":95394,"DIS_CODE":0,"TOWNNAME":"安南區","LI":"新順里","LIN":"2鄰","STREET":"安生街","SECT":" ","MAREA":" ","LANE":" ","ALLEY":" ","HOUSE_NO":"８４號","E_COORD97":169544.92999999999,"N_COORD97":2549546.1400000001,"ADDRESS":"安生街８４號","OBJECTID":95394},"geometry":{"x":169544.93000000063,"y":2549546.1400000006}},{"attributes":{"ID":95395,"DIS_CODE":0,"TOWNNAME":"安南區","LI":"新順里","LIN":"2鄰","STREET":"安生街","SECT":" ","MAREA":" ","LANE":" ","ALLEY":" ","HOUSE_NO":"８６號","E_COORD97":169538.82999999999,"N_COORD97":2549541.6200000001,"ADDRESS":"安生街８６號","OBJECTID":95395},"geometry":{"x":169538.83000000101,"y":2549541.6200000029}},{"attributes":{"ID":95396,"DIS_CODE":0,"TOWNNAME":"安南區","LI":"新順里","LIN":"2鄰","STREET":"安生街","SECT":" ","MAREA":" ","LANE":" ","ALLEY":" ","HOUSE_NO":"８８號","E_COORD97":169534.07000000001,"N_COORD97":2549542.6000000001,"ADDRESS":"安生街８８號","OBJECTID":95396},"geometry":{"x":169534.07000000123,"y":2549542.6000000034}},{"attributes":{"ID":95397,"DIS_CODE":0,"TOWNNAME":"安南區","LI":"新順里","LIN":"2鄰","STREET":"安生街","SECT":" ","MAREA":" ","LANE":" ","ALLEY":" ","HOUSE_NO":"９０號","E_COORD97":169530.64999999999,"N_COORD97":2549544.3100000001,"ADDRESS":"安生街９０號","OBJECTID":95397},"geometry":{"x":169530.6500000013,"y":2549544.3100000005}},{"attributes":{"ID":95398,"DIS_CODE":0,"TOWNNAME":"安南區","LI":"新順里","LIN":"2鄰","STREET":"安生街","SECT":" ","MAREA":" ","LANE":" ","ALLEY":" ","HOUSE_NO":"９４號","E_COORD97":169520.63,"N_COORD97":2549541.9900000002,"ADDRESS":"安生街９４號","OBJECTID":95398},"geometry":{"x":169520.62999999989,"y":2549541.9900000021}},{"attributes":{"ID":95399,"DIS_CODE":0,"TOWNNAME":"安南區","LI":"新順里","LIN":"2鄰","STREET":"安生街","SECT":" ","MAREA":" ","LANE":" ","ALLEY":" ","HOUSE_NO":"９６號","E_COORD97":169509.17999999999,"N_COORD97":2549562.98,"ADDRESS":"安生街９６號","OBJECTID":95399},"geometry":{"x":169509.18000000063,"y":2549562.9800000023}},{"attributes":{"ID":95400,"DIS_CODE":0,"TOWNNAME":"安南區","LI":"新順里","LIN":"4鄰","STREET":"安生街","SECT":" ","MAREA":" ","LANE":" ","ALLEY":" ","HOUSE_NO":"１５６號","E_COORD97":169388.53,"N_COORD97":2549573.8199999998,"ADDRESS":"安生街１５６號","OBJECTID":95400},"geometry":{"x":169388.53000000119,"y":2549573.8200000022}}]}