{"displayFieldName":"TOWNNAME","fieldAliases":{"ID":"ID","DIS_CODE":"DIS_CODE","TOWNNAME":"TOWNNAME","LI":"LI","LIN":"LIN","STREET":"STREET","SECT":"SECT","MAREA":"MAREA","LANE":"LANE","ALLEY":"ALLEY","HOUSE_NO":"HOUSE_NO","E_COORD97":"E_COORD97","N_COORD97":"N_COORD97","ADDRESS":"ADDRESS","OBJECTID":"OBJECTID"},"geometryType":"esriGeometryPoint","spatialReference":{"wkid":102443,"latestWkid":3826},"fields":[{"name":"ID","type":"esriFieldTypeDouble","alias":"ID"},{"name":"DIS_CODE","type":"esriFieldTypeInteger","alias":"DIS_CODE"},{"name":"TOWNNAME","type":"esriFieldTypeString","alias":"TOWNNAME","length":8},{"name":"LI","type":"esriFieldTypeString","alias":"LI","length":8},{"name":"LIN","type":"esriFieldTypeString","alias":"LIN","length":12},{"name":"STREET","type":"esriFieldTypeString","alias":"STREET","length":20},{"name":"SECT","type":"esriFieldTypeString","alias":"SECT","length":8},{"name":"MAREA","type":"esriFieldTypeString","alias":"MAREA","length":12},{"name":"LANE","type":"esriFieldTypeString","alias":"LANE","length":10},{"name":"ALLEY","type":"esriFieldTypeString","alias":"ALLEY","length":10},{"name":"HOUSE_NO","type":"esriFieldTypeString","alias":"HOUSE_NO","length":20},{"name":"E_COORD97","type":"esriFieldTypeDouble","alias":"E_COORD97"},{"name":"N_COORD97","type":"esriFieldTypeDouble","alias":"N_COORD97"},{"name":"ADDRESS","type":"esriFieldTypeString","alias":"ADDRESS","length":50},{"name":"OBJECTID","type":"esriFieldTypeOID","alias":"OBJECTID"}],"features":[{"attributes":{"ID":105601,"DIS_CODE":0,"TOWNNAME":"東區","LI":"崇學里","LIN":"9鄰","STREET":"崇明十一街","SECT":" ","MAREA":" ","LANE":"１０巷","ALLEY":"１１弄","HOUSE_NO":"１３號","E_COORD97":170329.14000000001,"N_COORD97":2541800.1800000002,"ADDRESS":"崇明十一街１０巷１１弄１３號","OBJECTID":105601},"geometry":{"x":170329.13999999966,"y":2541800.1800000016}},{"attributes":{"ID":105602,"DIS_CODE":0,"TOWNNAME":"東區","LI":"崇學里","LIN":"9鄰","STREET":"崇明十一街","SECT":" ","MAREA":" ","LANE":"１０巷","ALLEY":"１１弄","HOUSE_NO":"１５號","E_COORD97":170331.51000000001,"N_COORD97":2541803.5800000001,"ADDRESS":"崇明十一街１０巷１１弄１５號","OBJECTID":105602},"geometry":{"x":170331.50999999978,"y":2541803.5800000019}},{"attributes":{"ID":105603,"DIS_CODE":0,"TOWNNAME":"東區","LI":"崇學里","LIN":"9鄰","STREET":"崇明十一街","SECT":" ","MAREA":" ","LANE":"１０巷","ALLEY":"１１弄","HOUSE_NO":"１７號","E_COORD97":170334.17000000001,"N_COORD97":2541806.8300000001,"ADDRESS":"崇明十一街１０巷１１弄１７號","OBJECTID":105603},"geometry":{"x":170334.16999999993,"y":2541806.8300000001}},{"attributes":{"ID":105604,"DIS_CODE":0,"TOWNNAME":"安平區","LI":"漁光里","LIN":"5鄰","STREET":"漁光路","SECT":" ","MAREA":" ","LANE":"８９巷","ALLEY":" ","HOUSE_NO":"４３號之５","E_COORD97":163819.51999999999,"N_COORD97":2541977.9300000002,"ADDRESS":"漁光路８９巷４３號之５","OBJECTID":105604},"geometry":{"x":163819.52000000048,"y":2541977.9300000016}},{"attributes":{"ID":105605,"DIS_CODE":0,"TOWNNAME":"安平區","LI":"石門里","LIN":"8鄰","STREET":"安北路","SECT":" ","MAREA":" ","LANE":" ","ALLEY":" ","HOUSE_NO":"３６號之１０","E_COORD97":164638.01999999999,"N_COORD97":2544552.1400000001,"ADDRESS":"安北路３６號之１０","OBJECTID":105605},"geometry":{"x":164638.02000000048,"y":2544552.1400000006}},{"attributes":{"ID":105606,"DIS_CODE":0,"TOWNNAME":"安平區","LI":"石門里","LIN":"8鄰","STREET":"安北路","SECT":" ","MAREA":" ","LANE":" ","ALLEY":" ","HOUSE_NO":"３６號之１１","E_COORD97":164634.41,"N_COORD97":2544553.6899999999,"ADDRESS":"安北路３６號之１１","OBJECTID":105606},"geometry":{"x":164634.41000000108,"y":2544553.6899999995}},{"attributes":{"ID":105607,"DIS_CODE":0,"TOWNNAME":"安平區","LI":"石門里","LIN":"8鄰","STREET":"安北路","SECT":" ","MAREA":" ","LANE":" ","ALLEY":" ","HOUSE_NO":"３６號之１２","E_COORD97":164632.60000000001,"N_COORD97":2544559.1000000001,"ADDRESS":"安北路３６號之１２","OBJECTID":105607},"geometry":{"x":164632.60000000056,"y":2544559.1000000034}},{"attributes":{"ID":105608,"DIS_CODE":0,"TOWNNAME":"安平區","LI":"石門里","LIN":"8鄰","STREET":"安北路","SECT":" ","MAREA":" ","LANE":" ","ALLEY":" ","HOUSE_NO":"３６號之１３","E_COORD97":164628.98999999999,"N_COORD97":2544562.4399999999,"ADDRESS":"安北路３６號之１３","OBJECTID":105608},"geometry":{"x":164628.99000000115,"y":2544562.4399999995}},{"attributes":{"ID":105609,"DIS_CODE":0,"TOWNNAME":"麻豆區","LI":"大埕里","LIN":"9鄰","STREET":" ","SECT":" ","MAREA":"大埕","LANE":" ","ALLEY":" ","HOUSE_NO":"８３號之１１六樓","E_COORD97":173102.97,"N_COORD97":2565430.2999999998,"ADDRESS":"大埕８３號之１１六樓","OBJECTID":105609},"geometry":{"x":173102.97000000067,"y":2565430.3000000026}},{"attributes":{"ID":105610,"DIS_CODE":0,"TOWNNAME":"麻豆區","LI":"大埕里","LIN":"9鄰","STREET":" ","SECT":" ","MAREA":"大埕","LANE":" ","ALLEY":" ","HOUSE_NO":"８３號之１１四樓","E_COORD97":173102.97,"N_COORD97":2565430.2999999998,"ADDRESS":"大埕８３號之１１四樓","OBJECTID":105610},"geometry":{"x":173102.97000000067,"y":2565430.3000000026}},{"attributes":{"ID":105611,"DIS_CODE":0,"TOWNNAME":"麻豆區","LI":"大埕里","LIN":"9鄰","STREET":" ","SECT":" ","MAREA":"大埕","LANE":" ","ALLEY":" ","HOUSE_NO":"８３號之１２二樓","E_COORD97":173095.48999999999,"N_COORD97":2565443.1299999999,"ADDRESS":"大埕８３號之１２二樓","OBJECTID":105611},"geometry":{"x":173095.49000000022,"y":2565443.1300000008}},{"attributes":{"ID":105612,"DIS_CODE":0,"TOWNNAME":"東區","LI":"崇學里","LIN":"9鄰","STREET":"崇明十一街","SECT":" ","MAREA":" ","LANE":"１０巷","ALLEY":"１１弄","HOUSE_NO":"１９號","E_COORD97":170336.97,"N_COORD97":2541809.7799999998,"ADDRESS":"崇明十一街１０巷１１弄１９號","OBJECTID":105612},"geometry":{"x":170336.96999999974,"y":2541809.7799999993}},{"attributes":{"ID":105613,"DIS_CODE":0,"TOWNNAME":"北區","LI":"仁愛里","LIN":"1鄰","STREET":"東豐路","SECT":" ","MAREA":" ","LANE":" ","ALLEY":" ","HOUSE_NO":"１６７號","E_COORD97":169941.32999999999,"N_COORD97":2544890.4300000002,"ADDRESS":"東豐路１６７號","OBJECTID":105613},"geometry":{"x":169941.33000000007,"y":2544890.4300000016}},{"attributes":{"ID":105614,"DIS_CODE":0,"TOWNNAME":"北區","LI":"仁愛里","LIN":"1鄰","STREET":"東豐路","SECT":" ","MAREA":" ","LANE":" ","ALLEY":" ","HOUSE_NO":"１７５號","E_COORD97":169970.19,"N_COORD97":2544887.8199999998,"ADDRESS":"東豐路１７５號","OBJECTID":105614},"geometry":{"x":169970.19000000041,"y":2544887.8200000022}},{"attributes":{"ID":105615,"DIS_CODE":0,"TOWNNAME":"北區","LI":"仁愛里","LIN":"1鄰","STREET":"東豐路","SECT":" ","MAREA":" ","LANE":" ","ALLEY":" ","HOUSE_NO":"１８１號","E_COORD97":169983.73000000001,"N_COORD97":2544887.7000000002,"ADDRESS":"東豐路１８１號","OBJECTID":105615},"geometry":{"x":169983.73000000231,"y":2544887.7000000011}},{"attributes":{"ID":105616,"DIS_CODE":0,"TOWNNAME":"北區","LI":"仁愛里","LIN":"1鄰","STREET":"東豐路","SECT":" ","MAREA":" ","LANE":" ","ALLEY":" ","HOUSE_NO":"１８３號","E_COORD97":169989.54999999999,"N_COORD97":2544884.1400000001,"ADDRESS":"東豐路１８３號","OBJECTID":105616},"geometry":{"x":169989.55000000075,"y":2544884.1400000006}},{"attributes":{"ID":105617,"DIS_CODE":0,"TOWNNAME":"北區","LI":"仁愛里","LIN":"1鄰","STREET":"東豐路","SECT":" ","MAREA":" ","LANE":" ","ALLEY":" ","HOUSE_NO":"１８７號","E_COORD97":170006,"N_COORD97":2544885.3300000001,"ADDRESS":"東豐路１８７號","OBJECTID":105617},"geometry":{"x":170006,"y":2544885.3300000001}},{"attributes":{"ID":105618,"DIS_CODE":0,"TOWNNAME":"北區","LI":"仁愛里","LIN":"1鄰","STREET":"東豐路","SECT":" ","MAREA":" ","LANE":" ","ALLEY":" ","HOUSE_NO":"１８９號","E_COORD97":170009.56,"N_COORD97":2544882.9500000002,"ADDRESS":"東豐路１８９號","OBJECTID":105618},"geometry":{"x":170009.56000000052,"y":2544882.9500000011}},{"attributes":{"ID":105619,"DIS_CODE":0,"TOWNNAME":"北區","LI":"興北里","LIN":"1鄰","STREET":"東豐路","SECT":" ","MAREA":" ","LANE":" ","ALLEY":" ","HOUSE_NO":"１號","E_COORD97":169428.35999999999,"N_COORD97":2544976.3199999998,"ADDRESS":"東豐路１號","OBJECTID":105619},"geometry":{"x":169428.3600000022,"y":2544976.3200000022}},{"attributes":{"ID":105620,"DIS_CODE":0,"TOWNNAME":"麻豆區","LI":"大埕里","LIN":"9鄰","STREET":" ","SECT":" ","MAREA":"大埕","LANE":" ","ALLEY":" ","HOUSE_NO":"８３號之１２三樓","E_COORD97":173095.48999999999,"N_COORD97":2565443.1299999999,"ADDRESS":"大埕８３號之１２三樓","OBJECTID":105620},"geometry":{"x":173095.49000000022,"y":2565443.1300000008}},{"attributes":{"ID":105621,"DIS_CODE":0,"TOWNNAME":"麻豆區","LI":"大埕里","LIN":"9鄰","STREET":" ","SECT":" ","MAREA":"大埕","LANE":" ","ALLEY":" ","HOUSE_NO":"８３號之１２五樓","E_COORD97":173095.48999999999,"N_COORD97":2565443.1299999999,"ADDRESS":"大埕８３號之１２五樓","OBJECTID":105621},"geometry":{"x":173095.49000000022,"y":2565443.1300000008}},{"attributes":{"ID":105622,"DIS_CODE":0,"TOWNNAME":"麻豆區","LI":"大埕里","LIN":"9鄰","STREET":" ","SECT":" ","MAREA":"大埕","LANE":" ","ALLEY":" ","HOUSE_NO":"８３號之１２六樓","E_COORD97":173095.48999999999,"N_COORD97":2565443.1299999999,"ADDRESS":"大埕８３號之１２六樓","OBJECTID":105622},"geometry":{"x":173095.49000000022,"y":2565443.1300000008}},{"attributes":{"ID":105623,"DIS_CODE":0,"TOWNNAME":"麻豆區","LI":"大埕里","LIN":"9鄰","STREET":" ","SECT":" ","MAREA":"大埕","LANE":" ","ALLEY":" ","HOUSE_NO":"８３號之１２四樓","E_COORD97":173095.48999999999,"N_COORD97":2565443.1299999999,"ADDRESS":"大埕８３號之１２四樓","OBJECTID":105623},"geometry":{"x":173095.49000000022,"y":2565443.1300000008}},{"attributes":{"ID":105624,"DIS_CODE":0,"TOWNNAME":"麻豆區","LI":"大埕里","LIN":"9鄰","STREET":" ","SECT":" ","MAREA":"大埕","LANE":" ","ALLEY":" ","HOUSE_NO":"８３號之１３二樓","E_COORD97":173094.73999999999,"N_COORD97":2565430.6600000001,"ADDRESS":"大埕８３號之１３二樓","OBJECTID":105624},"geometry":{"x":173094.74000000115,"y":2565430.660000002}},{"attributes":{"ID":105625,"DIS_CODE":0,"TOWNNAME":"東區","LI":"崇學里","LIN":"9鄰","STREET":"崇明十一街","SECT":" ","MAREA":" ","LANE":"１０巷","ALLEY":"１１弄","HOUSE_NO":"１９號之１","E_COORD97":170339.19,"N_COORD97":2541813.1699999999,"ADDRESS":"崇明十一街１０巷１１弄１９號之１","OBJECTID":105625},"geometry":{"x":170339.19000000041,"y":2541813.1700000018}},{"attributes":{"ID":105626,"DIS_CODE":0,"TOWNNAME":"東區","LI":"崇學里","LIN":"9鄰","STREET":"崇明十一街","SECT":" ","MAREA":" ","LANE":"１０巷","ALLEY":"１１弄","HOUSE_NO":"１９號之２","E_COORD97":170342.44,"N_COORD97":2541816.1299999999,"ADDRESS":"崇明十一街１０巷１１弄１９號之２","OBJECTID":105626},"geometry":{"x":170342.44000000134,"y":2541816.1300000008}},{"attributes":{"ID":105627,"DIS_CODE":0,"TOWNNAME":"東區","LI":"崇學里","LIN":"9鄰","STREET":"崇明十一街","SECT":" ","MAREA":" ","LANE":"１０巷","ALLEY":"１１弄","HOUSE_NO":"１號","E_COORD97":170311.70999999999,"N_COORD97":2541782.7599999998,"ADDRESS":"崇明十一街１０巷１１弄１號","OBJECTID":105627},"geometry":{"x":170311.70999999996,"y":2541782.7600000016}},{"attributes":{"ID":105628,"DIS_CODE":0,"TOWNNAME":"東區","LI":"崇學里","LIN":"9鄰","STREET":"崇明十一街","SECT":" ","MAREA":" ","LANE":"１０巷","ALLEY":"１１弄","HOUSE_NO":"２１號","E_COORD97":170345.69,"N_COORD97":2541818.3399999999,"ADDRESS":"崇明十一街１０巷１１弄２１號","OBJECTID":105628},"geometry":{"x":170345.69000000134,"y":2541818.3400000017}},{"attributes":{"ID":105629,"DIS_CODE":0,"TOWNNAME":"東區","LI":"崇學里","LIN":"9鄰","STREET":"崇明十一街","SECT":" ","MAREA":" ","LANE":"１０巷","ALLEY":"１１弄","HOUSE_NO":"２３號","E_COORD97":170348.64999999999,"N_COORD97":2541820.8500000001,"ADDRESS":"崇明十一街１０巷１１弄２３號","OBJECTID":105629},"geometry":{"x":170348.65000000224,"y":2541820.8499999996}},{"attributes":{"ID":105630,"DIS_CODE":0,"TOWNNAME":"新營區","LI":"新東里","LIN":"9鄰","STREET":"東仁街","SECT":" ","MAREA":" ","LANE":"４３巷","ALLEY":"１６弄","HOUSE_NO":"１１號","E_COORD97":181222.20999999999,"N_COORD97":2579687.73,"ADDRESS":"東仁街４３巷１６弄１１號","OBJECTID":105630},"geometry":{"x":181222.20999999996,"y":2579687.7300000023}},{"attributes":{"ID":105631,"DIS_CODE":0,"TOWNNAME":"東區","LI":"崇學里","LIN":"9鄰","STREET":"崇明十一街","SECT":" ","MAREA":" ","LANE":"１０巷","ALLEY":"１１弄","HOUSE_NO":"２５號","E_COORD97":170350.57000000001,"N_COORD97":2541824.1000000001,"ADDRESS":"崇明十一街１０巷１１弄２５號","OBJECTID":105631},"geometry":{"x":170350.5700000003,"y":2541824.1000000015}},{"attributes":{"ID":105632,"DIS_CODE":0,"TOWNNAME":"東區","LI":"崇學里","LIN":"9鄰","STREET":"崇明十一街","SECT":" ","MAREA":" ","LANE":"１０巷","ALLEY":"１１弄","HOUSE_NO":"２７號","E_COORD97":170353.67000000001,"N_COORD97":2541827.3399999999,"ADDRESS":"崇明十一街１０巷１１弄２７號","OBJECTID":105632},"geometry":{"x":170353.67000000086,"y":2541827.3399999999}},{"attributes":{"ID":105633,"DIS_CODE":0,"TOWNNAME":"東區","LI":"崇學里","LIN":"9鄰","STREET":"崇明十一街","SECT":" ","MAREA":" ","LANE":"１０巷","ALLEY":"１１弄","HOUSE_NO":"２９號","E_COORD97":170356.17999999999,"N_COORD97":2541830.1499999999,"ADDRESS":"崇明十一街１０巷１１弄２９號","OBJECTID":105633},"geometry":{"x":170356.18000000156,"y":2541830.1500000041}},{"attributes":{"ID":105634,"DIS_CODE":0,"TOWNNAME":"東區","LI":"崇學里","LIN":"9鄰","STREET":"崇明十一街","SECT":" ","MAREA":" ","LANE":"１０巷","ALLEY":"１１弄","HOUSE_NO":"３１號","E_COORD97":170358.54000000001,"N_COORD97":2541833.25,"ADDRESS":"崇明十一街１０巷１１弄３１號","OBJECTID":105634},"geometry":{"x":170358.54000000004,"y":2541833.2500000019}},{"attributes":{"ID":105635,"DIS_CODE":0,"TOWNNAME":"東區","LI":"崇學里","LIN":"9鄰","STREET":"崇明十一街","SECT":" ","MAREA":" ","LANE":"１０巷","ALLEY":"１１弄","HOUSE_NO":"３３號","E_COORD97":170361.20000000001,"N_COORD97":2541835.9300000002,"ADDRESS":"崇明十一街１０巷１１弄３３號","OBJECTID":105635},"geometry":{"x":170361.20000000019,"y":2541835.9299999997}},{"attributes":{"ID":105636,"DIS_CODE":0,"TOWNNAME":"安平區","LI":"金城里","LIN":"14鄰","STREET":"世平一街","SECT":" ","MAREA":" ","LANE":"８巷","ALLEY":" ","HOUSE_NO":"６號","E_COORD97":163003.17999999999,"N_COORD97":2544052.9500000002,"ADDRESS":"世平一街８巷６號","OBJECTID":105636},"geometry":{"x":163003.18000000063,"y":2544052.9499999993}},{"attributes":{"ID":105637,"DIS_CODE":0,"TOWNNAME":"北區","LI":"興北里","LIN":"1鄰","STREET":"東豐路","SECT":" ","MAREA":" ","LANE":" ","ALLEY":" ","HOUSE_NO":"７號","E_COORD97":169446.12,"N_COORD97":2544973.0600000001,"ADDRESS":"東豐路７號","OBJECTID":105637},"geometry":{"x":169446.12000000011,"y":2544973.0600000005}},{"attributes":{"ID":105638,"DIS_CODE":0,"TOWNNAME":"麻豆區","LI":"大埕里","LIN":"9鄰","STREET":" ","SECT":" ","MAREA":"大埕","LANE":" ","ALLEY":" ","HOUSE_NO":"８３號之１３三樓","E_COORD97":173094.73999999999,"N_COORD97":2565430.6600000001,"ADDRESS":"大埕８３號之１３三樓","OBJECTID":105638},"geometry":{"x":173094.74000000115,"y":2565430.660000002}},{"attributes":{"ID":105639,"DIS_CODE":0,"TOWNNAME":"麻豆區","LI":"大埕里","LIN":"9鄰","STREET":" ","SECT":" ","MAREA":"大埕","LANE":" ","ALLEY":" ","HOUSE_NO":"８３號之１３五樓","E_COORD97":173094.73999999999,"N_COORD97":2565430.6600000001,"ADDRESS":"大埕８３號之１３五樓","OBJECTID":105639},"geometry":{"x":173094.74000000115,"y":2565430.660000002}},{"attributes":{"ID":105640,"DIS_CODE":0,"TOWNNAME":"麻豆區","LI":"大埕里","LIN":"9鄰","STREET":" ","SECT":" ","MAREA":"大埕","LANE":" ","ALLEY":" ","HOUSE_NO":"８３號之１３六樓","E_COORD97":173094.73999999999,"N_COORD97":2565430.6600000001,"ADDRESS":"大埕８３號之１３六樓","OBJECTID":105640},"geometry":{"x":173094.74000000115,"y":2565430.660000002}},{"attributes":{"ID":105641,"DIS_CODE":0,"TOWNNAME":"麻豆區","LI":"大埕里","LIN":"9鄰","STREET":" ","SECT":" ","MAREA":"大埕","LANE":" ","ALLEY":" ","HOUSE_NO":"８３號之１３四樓","E_COORD97":173094.73999999999,"N_COORD97":2565430.6600000001,"ADDRESS":"大埕８３號之１３四樓","OBJECTID":105641},"geometry":{"x":173094.74000000115,"y":2565430.660000002}},{"attributes":{"ID":105642,"DIS_CODE":0,"TOWNNAME":"麻豆區","LI":"大埕里","LIN":"9鄰","STREET":" ","SECT":" ","MAREA":"大埕","LANE":" ","ALLEY":" ","HOUSE_NO":"８３號之１４二樓","E_COORD97":173087.48000000001,"N_COORD97":2565443.8999999999,"ADDRESS":"大埕８３號之１４二樓","OBJECTID":105642},"geometry":{"x":173087.47999999952,"y":2565443.9000000022}},{"attributes":{"ID":105643,"DIS_CODE":0,"TOWNNAME":"麻豆區","LI":"大埕里","LIN":"9鄰","STREET":" ","SECT":" ","MAREA":"大埕","LANE":" ","ALLEY":" ","HOUSE_NO":"８３號之１４三樓","E_COORD97":173087.48000000001,"N_COORD97":2565443.8999999999,"ADDRESS":"大埕８３號之１４三樓","OBJECTID":105643},"geometry":{"x":173087.47999999952,"y":2565443.9000000022}},{"attributes":{"ID":105644,"DIS_CODE":0,"TOWNNAME":"東區","LI":"崇學里","LIN":"9鄰","STREET":"崇明十一街","SECT":" ","MAREA":" ","LANE":"１０巷","ALLEY":"１１弄","HOUSE_NO":"３５號","E_COORD97":170363.57000000001,"N_COORD97":2541839.4700000002,"ADDRESS":"崇明十一街１０巷１１弄３５號","OBJECTID":105644},"geometry":{"x":170363.5700000003,"y":2541839.4700000025}},{"attributes":{"ID":105645,"DIS_CODE":0,"TOWNNAME":"麻豆區","LI":"大埕里","LIN":"9鄰","STREET":" ","SECT":" ","MAREA":"大埕","LANE":" ","ALLEY":" ","HOUSE_NO":"８３號之１４五樓","E_COORD97":173087.48000000001,"N_COORD97":2565443.8999999999,"ADDRESS":"大埕８３號之１４五樓","OBJECTID":105645},"geometry":{"x":173087.47999999952,"y":2565443.9000000022}},{"attributes":{"ID":105646,"DIS_CODE":0,"TOWNNAME":"麻豆區","LI":"大埕里","LIN":"9鄰","STREET":" ","SECT":" ","MAREA":"大埕","LANE":" ","ALLEY":" ","HOUSE_NO":"８３號之１４六樓","E_COORD97":173087.48000000001,"N_COORD97":2565443.8999999999,"ADDRESS":"大埕８３號之１４六樓","OBJECTID":105646},"geometry":{"x":173087.47999999952,"y":2565443.9000000022}},{"attributes":{"ID":105647,"DIS_CODE":0,"TOWNNAME":"麻豆區","LI":"大埕里","LIN":"9鄰","STREET":" ","SECT":" ","MAREA":"大埕","LANE":" ","ALLEY":" ","HOUSE_NO":"８３號之１４四樓","E_COORD97":173087.48000000001,"N_COORD97":2565443.8999999999,"ADDRESS":"大埕８３號之１４四樓","OBJECTID":105647},"geometry":{"x":173087.47999999952,"y":2565443.9000000022}},{"attributes":{"ID":105648,"DIS_CODE":0,"TOWNNAME":"麻豆區","LI":"大埕里","LIN":"9鄰","STREET":" ","SECT":" ","MAREA":"大埕","LANE":" ","ALLEY":" ","HOUSE_NO":"８３號之１５二樓","E_COORD97":173087.54999999999,"N_COORD97":2565431.1299999999,"ADDRESS":"大埕８３號之１５二樓","OBJECTID":105648},"geometry":{"x":173087.54999999981,"y":2565431.129999999}},{"attributes":{"ID":105649,"DIS_CODE":0,"TOWNNAME":"東區","LI":"崇學里","LIN":"9鄰","STREET":"崇明十一街","SECT":" ","MAREA":" ","LANE":"１０巷","ALLEY":"１１弄","HOUSE_NO":"３７號","E_COORD97":170365.92999999999,"N_COORD97":2541842.2799999998,"ADDRESS":"崇明十一街１０巷１１弄３７號","OBJECTID":105649},"geometry":{"x":170365.9299999997,"y":2541842.2800000012}},{"attributes":{"ID":105650,"DIS_CODE":0,"TOWNNAME":"東區","LI":"崇學里","LIN":"9鄰","STREET":"崇明十一街","SECT":" ","MAREA":" ","LANE":"１０巷","ALLEY":"１１弄","HOUSE_NO":"３９號","E_COORD97":170368.44,"N_COORD97":2541845.8199999998,"ADDRESS":"崇明十一街１０巷１１弄３９號","OBJECTID":105650},"geometry":{"x":170368.44000000041,"y":2541845.820000004}},{"attributes":{"ID":105651,"DIS_CODE":0,"TOWNNAME":"麻豆區","LI":"大埕里","LIN":"9鄰","STREET":" ","SECT":" ","MAREA":"大埕","LANE":" ","ALLEY":" ","HOUSE_NO":"８３號之１５三樓","E_COORD97":173087.54999999999,"N_COORD97":2565431.1299999999,"ADDRESS":"大埕８３號之１５三樓","OBJECTID":105651},"geometry":{"x":173087.54999999981,"y":2565431.129999999}},{"attributes":{"ID":105652,"DIS_CODE":0,"TOWNNAME":"麻豆區","LI":"大埕里","LIN":"9鄰","STREET":" ","SECT":" ","MAREA":"大埕","LANE":" ","ALLEY":" ","HOUSE_NO":"８３號之１５五樓","E_COORD97":173087.54999999999,"N_COORD97":2565431.1299999999,"ADDRESS":"大埕８３號之１５五樓","OBJECTID":105652},"geometry":{"x":173087.54999999981,"y":2565431.129999999}},{"attributes":{"ID":105653,"DIS_CODE":0,"TOWNNAME":"麻豆區","LI":"大埕里","LIN":"9鄰","STREET":" ","SECT":" ","MAREA":"大埕","LANE":" ","ALLEY":" ","HOUSE_NO":"８３號之１５六樓","E_COORD97":173087.54999999999,"N_COORD97":2565431.1299999999,"ADDRESS":"大埕８３號之１５六樓","OBJECTID":105653},"geometry":{"x":173087.54999999981,"y":2565431.129999999}},{"attributes":{"ID":105654,"DIS_CODE":0,"TOWNNAME":"安平區","LI":"建平里","LIN":"21鄰","STREET":"平通路","SECT":" ","MAREA":" ","LANE":" ","ALLEY":" ","HOUSE_NO":"１１４號","E_COORD97":165941.89999999999,"N_COORD97":2543697.9500000002,"ADDRESS":"平通路１１４號","OBJECTID":105654},"geometry":{"x":165941.9000000013,"y":2543697.9499999993}},{"attributes":{"ID":105655,"DIS_CODE":0,"TOWNNAME":"安平區","LI":"億載里","LIN":"4鄰","STREET":"永華路","SECT":"二段","MAREA":" ","LANE":" ","ALLEY":" ","HOUSE_NO":"１３３８號","E_COORD97":163676.92999999999,"N_COORD97":2543565.1899999999,"ADDRESS":"永華路二段１３３８號","OBJECTID":105655},"geometry":{"x":163676.9299999997,"y":2543565.1900000013}},{"attributes":{"ID":105656,"DIS_CODE":0,"TOWNNAME":"安平區","LI":"華平里","LIN":"5鄰","STREET":"健康二街","SECT":" ","MAREA":" ","LANE":" ","ALLEY":" ","HOUSE_NO":"６４７號","E_COORD97":165375.5,"N_COORD97":2544152.46,"ADDRESS":"健康二街６４７號","OBJECTID":105656},"geometry":{"x":165375.50000000186,"y":2544152.4600000028}},{"attributes":{"ID":105657,"DIS_CODE":0,"TOWNNAME":"安平區","LI":"華平里","LIN":"5鄰","STREET":"健康二街","SECT":" ","MAREA":" ","LANE":" ","ALLEY":" ","HOUSE_NO":"６４５號","E_COORD97":165375.5,"N_COORD97":2544148.3900000001,"ADDRESS":"健康二街６４５號","OBJECTID":105657},"geometry":{"x":165375.50000000186,"y":2544148.3900000025}},{"attributes":{"ID":105658,"DIS_CODE":0,"TOWNNAME":"安平區","LI":"建平里","LIN":"13鄰","STREET":"建平十四街","SECT":" ","MAREA":" ","LANE":" ","ALLEY":" ","HOUSE_NO":"４１號","E_COORD97":166235.73999999999,"N_COORD97":2544041.1699999999,"ADDRESS":"建平十四街４１號","OBJECTID":105658},"geometry":{"x":166235.74000000115,"y":2544041.1700000018}},{"attributes":{"ID":105659,"DIS_CODE":0,"TOWNNAME":"東區","LI":"崇學里","LIN":"9鄰","STREET":"崇明十一街","SECT":" ","MAREA":" ","LANE":"１０巷","ALLEY":"１１弄","HOUSE_NO":"３號","E_COORD97":170314.66,"N_COORD97":2541786.0099999998,"ADDRESS":"崇明十一街１０巷１１弄３號","OBJECTID":105659},"geometry":{"x":170314.66000000108,"y":2541786.0099999998}},{"attributes":{"ID":105660,"DIS_CODE":0,"TOWNNAME":"東區","LI":"崇學里","LIN":"9鄰","STREET":"崇明十一街","SECT":" ","MAREA":" ","LANE":"１０巷","ALLEY":"１１弄","HOUSE_NO":"４１號","E_COORD97":170374.35000000001,"N_COORD97":2541848.5899999999,"ADDRESS":"崇明十一街１０巷１１弄４１號","OBJECTID":105660},"geometry":{"x":170374.35000000056,"y":2541848.5899999999}},{"attributes":{"ID":105661,"DIS_CODE":0,"TOWNNAME":"東區","LI":"崇學里","LIN":"9鄰","STREET":"崇明十一街","SECT":" ","MAREA":" ","LANE":"１０巷","ALLEY":"１１弄","HOUSE_NO":"５號","E_COORD97":170317.91,"N_COORD97":2541787.7799999998,"ADDRESS":"崇明十一街１０巷１１弄５號","OBJECTID":105661},"geometry":{"x":170317.91000000201,"y":2541787.7800000012}},{"attributes":{"ID":105662,"DIS_CODE":0,"TOWNNAME":"麻豆區","LI":"大埕里","LIN":"9鄰","STREET":" ","SECT":" ","MAREA":"大埕","LANE":" ","ALLEY":" ","HOUSE_NO":"８３號之１５四樓","E_COORD97":173087.54999999999,"N_COORD97":2565431.1299999999,"ADDRESS":"大埕８３號之１５四樓","OBJECTID":105662},"geometry":{"x":173087.54999999981,"y":2565431.129999999}},{"attributes":{"ID":105663,"DIS_CODE":0,"TOWNNAME":"麻豆區","LI":"大埕里","LIN":"9鄰","STREET":" ","SECT":" ","MAREA":"大埕","LANE":" ","ALLEY":" ","HOUSE_NO":"８３號之１二樓","E_COORD97":173156.28,"N_COORD97":2565429.5299999998,"ADDRESS":"大埕８３號之１二樓","OBJECTID":105663},"geometry":{"x":173156.28000000026,"y":2565429.5299999993}},{"attributes":{"ID":105664,"DIS_CODE":0,"TOWNNAME":"麻豆區","LI":"大埕里","LIN":"9鄰","STREET":" ","SECT":" ","MAREA":"大埕","LANE":" ","ALLEY":" ","HOUSE_NO":"８３號之１三樓","E_COORD97":173156.28,"N_COORD97":2565429.5299999998,"ADDRESS":"大埕８３號之１三樓","OBJECTID":105664},"geometry":{"x":173156.28000000026,"y":2565429.5299999993}},{"attributes":{"ID":105665,"DIS_CODE":0,"TOWNNAME":"東區","LI":"崇學里","LIN":"9鄰","STREET":"崇明十一街","SECT":" ","MAREA":" ","LANE":"１０巷","ALLEY":"１１弄","HOUSE_NO":"９號","E_COORD97":170322.79000000001,"N_COORD97":2541794.5600000001,"ADDRESS":"崇明十一街１０巷１１弄９號","OBJECTID":105665},"geometry":{"x":170322.79000000004,"y":2541794.5600000024}},{"attributes":{"ID":105666,"DIS_CODE":0,"TOWNNAME":"東區","LI":"泉南里","LIN":"27鄰","STREET":"府連路","SECT":" ","MAREA":" ","LANE":"２６０巷","ALLEY":"２弄","HOUSE_NO":"３號","E_COORD97":169426.62,"N_COORD97":2542836.8500000001,"ADDRESS":"府連路２６０巷２弄３號","OBJECTID":105666},"geometry":{"x":169426.62000000104,"y":2542836.8499999996}},{"attributes":{"ID":105667,"DIS_CODE":0,"TOWNNAME":"東區","LI":"泉南里","LIN":"14鄰","STREET":"光華街","SECT":" ","MAREA":" ","LANE":"２２９巷","ALLEY":"２８弄","HOUSE_NO":"１５號","E_COORD97":169376.14000000001,"N_COORD97":2542952.79,"ADDRESS":"光華街２２９巷２８弄１５號","OBJECTID":105667},"geometry":{"x":169376.13999999966,"y":2542952.7899999991}},{"attributes":{"ID":105668,"DIS_CODE":0,"TOWNNAME":"麻豆區","LI":"大埕里","LIN":"9鄰","STREET":" ","SECT":" ","MAREA":"大埕","LANE":" ","ALLEY":" ","HOUSE_NO":"８３號之１五樓","E_COORD97":173156.28,"N_COORD97":2565429.5299999998,"ADDRESS":"大埕８３號之１五樓","OBJECTID":105668},"geometry":{"x":173156.28000000026,"y":2565429.5299999993}},{"attributes":{"ID":105669,"DIS_CODE":0,"TOWNNAME":"麻豆區","LI":"大埕里","LIN":"9鄰","STREET":" ","SECT":" ","MAREA":"大埕","LANE":" ","ALLEY":" ","HOUSE_NO":"８３號之１六樓","E_COORD97":173156.28,"N_COORD97":2565429.5299999998,"ADDRESS":"大埕８３號之１六樓","OBJECTID":105669},"geometry":{"x":173156.28000000026,"y":2565429.5299999993}},{"attributes":{"ID":105670,"DIS_CODE":0,"TOWNNAME":"東區","LI":"泉南里","LIN":"14鄰","STREET":"光華街","SECT":" ","MAREA":" ","LANE":"２２９巷","ALLEY":"２８弄","HOUSE_NO":"１７號","E_COORD97":169369.85000000001,"N_COORD97":2542953.6099999999,"ADDRESS":"光華街２２９巷２８弄１７號","OBJECTID":105670},"geometry":{"x":169369.84999999963,"y":2542953.6099999994}},{"attributes":{"ID":105671,"DIS_CODE":0,"TOWNNAME":"東區","LI":"崇明里","LIN":"6鄰","STREET":"大同路","SECT":"二段","MAREA":" ","LANE":"４４９巷","ALLEY":"２弄","HOUSE_NO":"１０號","E_COORD97":169692.17000000001,"N_COORD97":2541289.3999999999,"ADDRESS":"大同路二段４４９巷２弄１０號","OBJECTID":105671},"geometry":{"x":169692.17000000086,"y":2541289.4000000041}},{"attributes":{"ID":105672,"DIS_CODE":0,"TOWNNAME":"東區","LI":"崇明里","LIN":"6鄰","STREET":"大同路","SECT":"二段","MAREA":" ","LANE":"４４９巷","ALLEY":"２弄","HOUSE_NO":"１１號","E_COORD97":169676.26000000001,"N_COORD97":2541307.7400000002,"ADDRESS":"大同路二段４４９巷２弄１１號","OBJECTID":105672},"geometry":{"x":169676.26000000071,"y":2541307.7400000021}},{"attributes":{"ID":105673,"DIS_CODE":0,"TOWNNAME":"麻豆區","LI":"大埕里","LIN":"9鄰","STREET":" ","SECT":" ","MAREA":"大埕","LANE":" ","ALLEY":" ","HOUSE_NO":"８３號之１四樓","E_COORD97":173156.28,"N_COORD97":2565429.5299999998,"ADDRESS":"大埕８３號之１四樓","OBJECTID":105673},"geometry":{"x":173156.28000000026,"y":2565429.5299999993}},{"attributes":{"ID":105674,"DIS_CODE":0,"TOWNNAME":"麻豆區","LI":"大埕里","LIN":"9鄰","STREET":" ","SECT":" ","MAREA":"大埕","LANE":" ","ALLEY":" ","HOUSE_NO":"８３號之２二樓","E_COORD97":173149.26999999999,"N_COORD97":2565441.8100000001,"ADDRESS":"大埕８３號之２二樓","OBJECTID":105674},"geometry":{"x":173149.27000000048,"y":2565441.8100000005}},{"attributes":{"ID":105675,"DIS_CODE":0,"TOWNNAME":"麻豆區","LI":"大埕里","LIN":"9鄰","STREET":" ","SECT":" ","MAREA":"大埕","LANE":" ","ALLEY":" ","HOUSE_NO":"８３號之２三樓","E_COORD97":173149.26999999999,"N_COORD97":2565441.8100000001,"ADDRESS":"大埕８３號之２三樓","OBJECTID":105675},"geometry":{"x":173149.27000000048,"y":2565441.8100000005}},{"attributes":{"ID":105676,"DIS_CODE":0,"TOWNNAME":"安南區","LI":"城南里","LIN":"9鄰","STREET":"城西街","SECT":"一段","MAREA":" ","LANE":"２４９巷","ALLEY":"１１３弄","HOUSE_NO":"１０號","E_COORD97":160307.70000000001,"N_COORD97":2551090.7000000002,"ADDRESS":"城西街一段２４９巷１１３弄１０號","OBJECTID":105676},"geometry":{"x":160307.70000000112,"y":2551090.6999999993}},{"attributes":{"ID":105677,"DIS_CODE":0,"TOWNNAME":"安南區","LI":"城南里","LIN":"9鄰","STREET":"城西街","SECT":"一段","MAREA":" ","LANE":"２４９巷","ALLEY":"１１３弄","HOUSE_NO":"１２號","E_COORD97":160307.70000000001,"N_COORD97":2551084.9900000002,"ADDRESS":"城西街一段２４９巷１１３弄１２號","OBJECTID":105677},"geometry":{"x":160307.70000000112,"y":2551084.9900000021}},{"attributes":{"ID":105678,"DIS_CODE":0,"TOWNNAME":"安南區","LI":"城南里","LIN":"9鄰","STREET":"城西街","SECT":"一段","MAREA":" ","LANE":"２４９巷","ALLEY":"１１３弄","HOUSE_NO":"１４號","E_COORD97":160307.45000000001,"N_COORD97":2551080.77,"ADDRESS":"城西街一段２４９巷１１３弄１４號","OBJECTID":105678},"geometry":{"x":160307.45000000205,"y":2551080.7700000033}},{"attributes":{"ID":105679,"DIS_CODE":0,"TOWNNAME":"安南區","LI":"城南里","LIN":"9鄰","STREET":"城西街","SECT":"一段","MAREA":" ","LANE":"２４９巷","ALLEY":"１１３弄","HOUSE_NO":"１６號","E_COORD97":160307.70000000001,"N_COORD97":2551074.5699999998,"ADDRESS":"城西街一段２４９巷１１３弄１６號","OBJECTID":105679},"geometry":{"x":160307.70000000112,"y":2551074.5700000003}},{"attributes":{"ID":105680,"DIS_CODE":0,"TOWNNAME":"麻豆區","LI":"大埕里","LIN":"9鄰","STREET":" ","SECT":" ","MAREA":"大埕","LANE":" ","ALLEY":" ","HOUSE_NO":"８３號之２五樓","E_COORD97":173149.26999999999,"N_COORD97":2565441.8100000001,"ADDRESS":"大埕８３號之２五樓","OBJECTID":105680},"geometry":{"x":173149.27000000048,"y":2565441.8100000005}},{"attributes":{"ID":105681,"DIS_CODE":0,"TOWNNAME":"麻豆區","LI":"大埕里","LIN":"9鄰","STREET":" ","SECT":" ","MAREA":"大埕","LANE":" ","ALLEY":" ","HOUSE_NO":"８３號之２六樓","E_COORD97":173149.26999999999,"N_COORD97":2565441.8100000001,"ADDRESS":"大埕８３號之２六樓","OBJECTID":105681},"geometry":{"x":173149.27000000048,"y":2565441.8100000005}},{"attributes":{"ID":105682,"DIS_CODE":0,"TOWNNAME":"麻豆區","LI":"大埕里","LIN":"9鄰","STREET":" ","SECT":" ","MAREA":"大埕","LANE":" ","ALLEY":" ","HOUSE_NO":"８３號之２四樓","E_COORD97":173149.26999999999,"N_COORD97":2565441.8100000001,"ADDRESS":"大埕８３號之２四樓","OBJECTID":105682},"geometry":{"x":173149.27000000048,"y":2565441.8100000005}},{"attributes":{"ID":105683,"DIS_CODE":0,"TOWNNAME":"麻豆區","LI":"大埕里","LIN":"9鄰","STREET":" ","SECT":" ","MAREA":"大埕","LANE":" ","ALLEY":" ","HOUSE_NO":"８３號之３二樓","E_COORD97":173146.64000000001,"N_COORD97":2565429.4900000002,"ADDRESS":"大埕８３號之３二樓","OBJECTID":105683},"geometry":{"x":173146.64000000153,"y":2565429.4900000021}},{"attributes":{"ID":105684,"DIS_CODE":0,"TOWNNAME":"麻豆區","LI":"大埕里","LIN":"9鄰","STREET":" ","SECT":" ","MAREA":"大埕","LANE":" ","ALLEY":" ","HOUSE_NO":"８３號之３三樓","E_COORD97":173146.64000000001,"N_COORD97":2565429.4900000002,"ADDRESS":"大埕８３號之３三樓","OBJECTID":105684},"geometry":{"x":173146.64000000153,"y":2565429.4900000021}},{"attributes":{"ID":105685,"DIS_CODE":0,"TOWNNAME":"麻豆區","LI":"大埕里","LIN":"9鄰","STREET":" ","SECT":" ","MAREA":"大埕","LANE":" ","ALLEY":" ","HOUSE_NO":"８３號之３五樓","E_COORD97":173146.64000000001,"N_COORD97":2565429.4900000002,"ADDRESS":"大埕８３號之３五樓","OBJECTID":105685},"geometry":{"x":173146.64000000153,"y":2565429.4900000021}},{"attributes":{"ID":105686,"DIS_CODE":0,"TOWNNAME":"麻豆區","LI":"大埕里","LIN":"9鄰","STREET":" ","SECT":" ","MAREA":"大埕","LANE":" ","ALLEY":" ","HOUSE_NO":"８３號之３六樓","E_COORD97":173146.64000000001,"N_COORD97":2565429.4900000002,"ADDRESS":"大埕８３號之３六樓","OBJECTID":105686},"geometry":{"x":173146.64000000153,"y":2565429.4900000021}},{"attributes":{"ID":105687,"DIS_CODE":0,"TOWNNAME":"麻豆區","LI":"大埕里","LIN":"9鄰","STREET":" ","SECT":" ","MAREA":"大埕","LANE":" ","ALLEY":" ","HOUSE_NO":"８３號之３四樓","E_COORD97":173146.64000000001,"N_COORD97":2565429.4900000002,"ADDRESS":"大埕８３號之３四樓","OBJECTID":105687},"geometry":{"x":173146.64000000153,"y":2565429.4900000021}},{"attributes":{"ID":105688,"DIS_CODE":0,"TOWNNAME":"麻豆區","LI":"大埕里","LIN":"9鄰","STREET":" ","SECT":" ","MAREA":"大埕","LANE":" ","ALLEY":" ","HOUSE_NO":"８３號之４二樓","E_COORD97":173138.39999999999,"N_COORD97":2565442.6200000001,"ADDRESS":"大埕８３號之４二樓","OBJECTID":105688},"geometry":{"x":173138.40000000037,"y":2565442.6200000029}},{"attributes":{"ID":105689,"DIS_CODE":0,"TOWNNAME":"麻豆區","LI":"大埕里","LIN":"9鄰","STREET":" ","SECT":" ","MAREA":"大埕","LANE":" ","ALLEY":" ","HOUSE_NO":"８３號之４三樓","E_COORD97":173138.39999999999,"N_COORD97":2565442.6200000001,"ADDRESS":"大埕８３號之４三樓","OBJECTID":105689},"geometry":{"x":173138.40000000037,"y":2565442.6200000029}},{"attributes":{"ID":105690,"DIS_CODE":0,"TOWNNAME":"麻豆區","LI":"大埕里","LIN":"9鄰","STREET":" ","SECT":" ","MAREA":"大埕","LANE":" ","ALLEY":" ","HOUSE_NO":"８３號之４五樓","E_COORD97":173138.39999999999,"N_COORD97":2565442.6200000001,"ADDRESS":"大埕８３號之４五樓","OBJECTID":105690},"geometry":{"x":173138.40000000037,"y":2565442.6200000029}},{"attributes":{"ID":105691,"DIS_CODE":0,"TOWNNAME":"麻豆區","LI":"大埕里","LIN":"9鄰","STREET":" ","SECT":" ","MAREA":"大埕","LANE":" ","ALLEY":" ","HOUSE_NO":"８３號之４六樓","E_COORD97":173138.39999999999,"N_COORD97":2565442.6200000001,"ADDRESS":"大埕８３號之４六樓","OBJECTID":105691},"geometry":{"x":173138.40000000037,"y":2565442.6200000029}},{"attributes":{"ID":105692,"DIS_CODE":0,"TOWNNAME":"麻豆區","LI":"大埕里","LIN":"9鄰","STREET":" ","SECT":" ","MAREA":"大埕","LANE":" ","ALLEY":" ","HOUSE_NO":"８３號之４四樓","E_COORD97":173138.39999999999,"N_COORD97":2565442.6200000001,"ADDRESS":"大埕８３號之４四樓","OBJECTID":105692},"geometry":{"x":173138.40000000037,"y":2565442.6200000029}},{"attributes":{"ID":105693,"DIS_CODE":0,"TOWNNAME":"麻豆區","LI":"大埕里","LIN":"9鄰","STREET":" ","SECT":" ","MAREA":"大埕","LANE":" ","ALLEY":" ","HOUSE_NO":"８３號之５二樓","E_COORD97":173135.57999999999,"N_COORD97":2565429.9300000002,"ADDRESS":"大埕８３號之５二樓","OBJECTID":105693},"geometry":{"x":173135.57999999914,"y":2565429.9299999997}},{"attributes":{"ID":105694,"DIS_CODE":0,"TOWNNAME":"麻豆區","LI":"大埕里","LIN":"9鄰","STREET":" ","SECT":" ","MAREA":"大埕","LANE":" ","ALLEY":" ","HOUSE_NO":"８３號之５三樓","E_COORD97":173135.57999999999,"N_COORD97":2565429.9300000002,"ADDRESS":"大埕８３號之５三樓","OBJECTID":105694},"geometry":{"x":173135.57999999914,"y":2565429.9299999997}},{"attributes":{"ID":105695,"DIS_CODE":0,"TOWNNAME":"麻豆區","LI":"大埕里","LIN":"9鄰","STREET":" ","SECT":" ","MAREA":"大埕","LANE":" ","ALLEY":" ","HOUSE_NO":"８３號之５五樓","E_COORD97":173135.57999999999,"N_COORD97":2565429.9300000002,"ADDRESS":"大埕８３號之５五樓","OBJECTID":105695},"geometry":{"x":173135.57999999914,"y":2565429.9299999997}},{"attributes":{"ID":105696,"DIS_CODE":0,"TOWNNAME":"麻豆區","LI":"大埕里","LIN":"9鄰","STREET":" ","SECT":" ","MAREA":"大埕","LANE":" ","ALLEY":" ","HOUSE_NO":"８３號之５六樓","E_COORD97":173135.57999999999,"N_COORD97":2565429.9300000002,"ADDRESS":"大埕８３號之５六樓","OBJECTID":105696},"geometry":{"x":173135.57999999914,"y":2565429.9299999997}},{"attributes":{"ID":105697,"DIS_CODE":0,"TOWNNAME":"麻豆區","LI":"大埕里","LIN":"9鄰","STREET":" ","SECT":" ","MAREA":"大埕","LANE":" ","ALLEY":" ","HOUSE_NO":"８３號之５四樓","E_COORD97":173135.57999999999,"N_COORD97":2565429.9300000002,"ADDRESS":"大埕８３號之５四樓","OBJECTID":105697},"geometry":{"x":173135.57999999914,"y":2565429.9299999997}},{"attributes":{"ID":105698,"DIS_CODE":0,"TOWNNAME":"麻豆區","LI":"大埕里","LIN":"9鄰","STREET":" ","SECT":" ","MAREA":"大埕","LANE":" ","ALLEY":" ","HOUSE_NO":"８３號之６二樓","E_COORD97":173127.41,"N_COORD97":2565442.9300000002,"ADDRESS":"大埕８３號之６二樓","OBJECTID":105698},"geometry":{"x":173127.41000000108,"y":2565442.9300000016}},{"attributes":{"ID":105699,"DIS_CODE":0,"TOWNNAME":"麻豆區","LI":"大埕里","LIN":"9鄰","STREET":" ","SECT":" ","MAREA":"大埕","LANE":" ","ALLEY":" ","HOUSE_NO":"８３號之６三樓","E_COORD97":173127.41,"N_COORD97":2565442.9300000002,"ADDRESS":"大埕８３號之６三樓","OBJECTID":105699},"geometry":{"x":173127.41000000108,"y":2565442.9300000016}},{"attributes":{"ID":105700,"DIS_CODE":0,"TOWNNAME":"龍崎區","LI":"土崎里","LIN":"13鄰","STREET":" ","SECT":" ","MAREA":"觀音山","LANE":" ","ALLEY":" ","HOUSE_NO":"２號","E_COORD97":186964.48999999999,"N_COORD97":2545228.25,"ADDRESS":"觀音山２號","OBJECTID":105700},"geometry":{"x":186964.49000000115,"y":2545228.25}},{"attributes":{"ID":105701,"DIS_CODE":0,"TOWNNAME":"麻豆區","LI":"大埕里","LIN":"9鄰","STREET":" ","SECT":" ","MAREA":"大埕","LANE":" ","ALLEY":" ","HOUSE_NO":"８３號之６五樓","E_COORD97":173127.41,"N_COORD97":2565442.9300000002,"ADDRESS":"大埕８３號之６五樓","OBJECTID":105701},"geometry":{"x":173127.41000000108,"y":2565442.9300000016}},{"attributes":{"ID":105702,"DIS_CODE":0,"TOWNNAME":"北門區","LI":"慈安里","LIN":"9鄰","STREET":" ","SECT":" ","MAREA":"三寮灣","LANE":" ","ALLEY":" ","HOUSE_NO":"４９０號","E_COORD97":159004.67000000001,"N_COORD97":2571046.4900000002,"ADDRESS":"三寮灣４９０號","OBJECTID":105702},"geometry":{"x":159004.66999999993,"y":2571046.4900000021}},{"attributes":{"ID":105703,"DIS_CODE":0,"TOWNNAME":"麻豆區","LI":"大埕里","LIN":"9鄰","STREET":" ","SECT":" ","MAREA":"大埕","LANE":" ","ALLEY":" ","HOUSE_NO":"８３號之６六樓","E_COORD97":173127.41,"N_COORD97":2565442.9300000002,"ADDRESS":"大埕８３號之６六樓","OBJECTID":105703},"geometry":{"x":173127.41000000108,"y":2565442.9300000016}},{"attributes":{"ID":105704,"DIS_CODE":0,"TOWNNAME":"麻豆區","LI":"大埕里","LIN":"9鄰","STREET":" ","SECT":" ","MAREA":"大埕","LANE":" ","ALLEY":" ","HOUSE_NO":"８３號之６四樓","E_COORD97":173127.41,"N_COORD97":2565442.9300000002,"ADDRESS":"大埕８３號之６四樓","OBJECTID":105704},"geometry":{"x":173127.41000000108,"y":2565442.9300000016}},{"attributes":{"ID":105705,"DIS_CODE":0,"TOWNNAME":"麻豆區","LI":"大埕里","LIN":"9鄰","STREET":" ","SECT":" ","MAREA":"大埕","LANE":" ","ALLEY":" ","HOUSE_NO":"８３號之７二樓","E_COORD97":173124.78,"N_COORD97":2565429.8900000001,"ADDRESS":"大埕８３號之７二樓","OBJECTID":105705},"geometry":{"x":173124.78000000119,"y":2565429.8900000025}},{"attributes":{"ID":105706,"DIS_CODE":0,"TOWNNAME":"麻豆區","LI":"大埕里","LIN":"9鄰","STREET":" ","SECT":" ","MAREA":"大埕","LANE":" ","ALLEY":" ","HOUSE_NO":"８３號之７三樓","E_COORD97":173124.78,"N_COORD97":2565429.8900000001,"ADDRESS":"大埕８３號之７三樓","OBJECTID":105706},"geometry":{"x":173124.78000000119,"y":2565429.8900000025}},{"attributes":{"ID":105707,"DIS_CODE":0,"TOWNNAME":"麻豆區","LI":"大埕里","LIN":"9鄰","STREET":" ","SECT":" ","MAREA":"大埕","LANE":" ","ALLEY":" ","HOUSE_NO":"８３號之７五樓","E_COORD97":173124.78,"N_COORD97":2565429.8900000001,"ADDRESS":"大埕８３號之７五樓","OBJECTID":105707},"geometry":{"x":173124.78000000119,"y":2565429.8900000025}},{"attributes":{"ID":105708,"DIS_CODE":0,"TOWNNAME":"麻豆區","LI":"大埕里","LIN":"9鄰","STREET":" ","SECT":" ","MAREA":"大埕","LANE":" ","ALLEY":" ","HOUSE_NO":"８３號之７六樓","E_COORD97":173124.78,"N_COORD97":2565429.8900000001,"ADDRESS":"大埕８３號之７六樓","OBJECTID":105708},"geometry":{"x":173124.78000000119,"y":2565429.8900000025}},{"attributes":{"ID":105709,"DIS_CODE":0,"TOWNNAME":"麻豆區","LI":"大埕里","LIN":"9鄰","STREET":" ","SECT":" ","MAREA":"大埕","LANE":" ","ALLEY":" ","HOUSE_NO":"８３號之７四樓","E_COORD97":173124.78,"N_COORD97":2565429.8900000001,"ADDRESS":"大埕８３號之７四樓","OBJECTID":105709},"geometry":{"x":173124.78000000119,"y":2565429.8900000025}},{"attributes":{"ID":105710,"DIS_CODE":0,"TOWNNAME":"麻豆區","LI":"大埕里","LIN":"9鄰","STREET":" ","SECT":" ","MAREA":"大埕","LANE":" ","ALLEY":" ","HOUSE_NO":"８３號之８二樓","E_COORD97":173116.10000000001,"N_COORD97":2565442.3199999998,"ADDRESS":"大埕８３號之８二樓","OBJECTID":105710},"geometry":{"x":173116.09999999963,"y":2565442.3200000003}},{"attributes":{"ID":105711,"DIS_CODE":0,"TOWNNAME":"安南區","LI":"城南里","LIN":"9鄰","STREET":"城西街","SECT":"一段","MAREA":" ","LANE":"２４９巷","ALLEY":"１１３弄","HOUSE_NO":"１８號","E_COORD97":160307.95000000001,"N_COORD97":2551069.3599999999,"ADDRESS":"城西街一段２４９巷１１３弄１８號","OBJECTID":105711},"geometry":{"x":160307.95000000112,"y":2551069.3599999994}},{"attributes":{"ID":105712,"DIS_CODE":0,"TOWNNAME":"麻豆區","LI":"大埕里","LIN":"9鄰","STREET":" ","SECT":" ","MAREA":"大埕","LANE":" ","ALLEY":" ","HOUSE_NO":"８３號之８三樓","E_COORD97":173116.10000000001,"N_COORD97":2565442.3199999998,"ADDRESS":"大埕８３號之８三樓","OBJECTID":105712},"geometry":{"x":173116.09999999963,"y":2565442.3200000003}},{"attributes":{"ID":105713,"DIS_CODE":0,"TOWNNAME":"麻豆區","LI":"大埕里","LIN":"9鄰","STREET":" ","SECT":" ","MAREA":"大埕","LANE":" ","ALLEY":" ","HOUSE_NO":"８３號之８五樓","E_COORD97":173116.10000000001,"N_COORD97":2565442.3199999998,"ADDRESS":"大埕８３號之８五樓","OBJECTID":105713},"geometry":{"x":173116.09999999963,"y":2565442.3200000003}},{"attributes":{"ID":105714,"DIS_CODE":0,"TOWNNAME":"安南區","LI":"城南里","LIN":"9鄰","STREET":"城西街","SECT":"一段","MAREA":" ","LANE":"２４９巷","ALLEY":"１１３弄","HOUSE_NO":"１號","E_COORD97":160332.16,"N_COORD97":2551099.9300000002,"ADDRESS":"城西街一段２４９巷１１３弄１號","OBJECTID":105714},"geometry":{"x":160332.16000000108,"y":2551099.9299999978}},{"attributes":{"ID":105715,"DIS_CODE":0,"TOWNNAME":"麻豆區","LI":"大埕里","LIN":"9鄰","STREET":" ","SECT":" ","MAREA":"大埕","LANE":" ","ALLEY":" ","HOUSE_NO":"８３號之８六樓","E_COORD97":173116.10000000001,"N_COORD97":2565442.3199999998,"ADDRESS":"大埕８３號之８六樓","OBJECTID":105715},"geometry":{"x":173116.09999999963,"y":2565442.3200000003}},{"attributes":{"ID":105716,"DIS_CODE":0,"TOWNNAME":"安南區","LI":"城南里","LIN":"9鄰","STREET":"城西街","SECT":"一段","MAREA":" ","LANE":"２４９巷","ALLEY":"１１３弄","HOUSE_NO":"２０號","E_COORD97":160307.95000000001,"N_COORD97":2551065.3799999999,"ADDRESS":"城西街一段２４９巷１１３弄２０號","OBJECTID":105716},"geometry":{"x":160307.95000000112,"y":2551065.379999999}},{"attributes":{"ID":105717,"DIS_CODE":0,"TOWNNAME":"麻豆區","LI":"大埕里","LIN":"9鄰","STREET":" ","SECT":" ","MAREA":"大埕","LANE":" ","ALLEY":" ","HOUSE_NO":"８３號之８四樓","E_COORD97":173116.10000000001,"N_COORD97":2565442.3199999998,"ADDRESS":"大埕８３號之８四樓","OBJECTID":105717},"geometry":{"x":173116.09999999963,"y":2565442.3200000003}},{"attributes":{"ID":105718,"DIS_CODE":0,"TOWNNAME":"麻豆區","LI":"大埕里","LIN":"9鄰","STREET":" ","SECT":" ","MAREA":"大埕","LANE":" ","ALLEY":" ","HOUSE_NO":"８３號之９二樓","E_COORD97":173114.07000000001,"N_COORD97":2565430.02,"ADDRESS":"大埕８３號之９二樓","OBJECTID":105718},"geometry":{"x":173114.07000000216,"y":2565430.0199999996}},{"attributes":{"ID":105719,"DIS_CODE":0,"TOWNNAME":"麻豆區","LI":"大埕里","LIN":"9鄰","STREET":" ","SECT":" ","MAREA":"大埕","LANE":" ","ALLEY":" ","HOUSE_NO":"８３號三樓","E_COORD97":173160.03,"N_COORD97":2565442.1200000001,"ADDRESS":"大埕８３號三樓","OBJECTID":105719},"geometry":{"x":173160.03000000212,"y":2565442.1200000029}},{"attributes":{"ID":105720,"DIS_CODE":0,"TOWNNAME":"麻豆區","LI":"大埕里","LIN":"9鄰","STREET":" ","SECT":" ","MAREA":"大埕","LANE":" ","ALLEY":" ","HOUSE_NO":"８３號五樓","E_COORD97":173160.03,"N_COORD97":2565442.1200000001,"ADDRESS":"大埕８３號五樓","OBJECTID":105720},"geometry":{"x":173160.03000000212,"y":2565442.1200000029}},{"attributes":{"ID":105721,"DIS_CODE":0,"TOWNNAME":"麻豆區","LI":"大埕里","LIN":"9鄰","STREET":" ","SECT":" ","MAREA":"大埕","LANE":" ","ALLEY":" ","HOUSE_NO":"８３號六樓","E_COORD97":173160.03,"N_COORD97":2565442.1200000001,"ADDRESS":"大埕８３號六樓","OBJECTID":105721},"geometry":{"x":173160.03000000212,"y":2565442.1200000029}},{"attributes":{"ID":105722,"DIS_CODE":0,"TOWNNAME":"麻豆區","LI":"大埕里","LIN":"9鄰","STREET":" ","SECT":" ","MAREA":"大埕","LANE":" ","ALLEY":" ","HOUSE_NO":"８３號四樓","E_COORD97":173160.03,"N_COORD97":2565442.1200000001,"ADDRESS":"大埕８３號四樓","OBJECTID":105722},"geometry":{"x":173160.03000000212,"y":2565442.1200000029}},{"attributes":{"ID":105723,"DIS_CODE":0,"TOWNNAME":"後壁區","LI":"仕安里","LIN":"9鄰","STREET":" ","SECT":" ","MAREA":"下長","LANE":" ","ALLEY":" ","HOUSE_NO":"６５號之３","E_COORD97":180637.45000000001,"N_COORD97":2583568.9399999999,"ADDRESS":"下長６５號之３","OBJECTID":105723},"geometry":{"x":180637.45000000019,"y":2583568.9399999995}},{"attributes":{"ID":105724,"DIS_CODE":0,"TOWNNAME":"後壁區","LI":"仕安里","LIN":"9鄰","STREET":" ","SECT":" ","MAREA":"下長","LANE":" ","ALLEY":" ","HOUSE_NO":"６５號","E_COORD97":180619.23999999999,"N_COORD97":2583582.3900000001,"ADDRESS":"下長６５號","OBJECTID":105724},"geometry":{"x":180619.24000000115,"y":2583582.3900000025}},{"attributes":{"ID":105725,"DIS_CODE":0,"TOWNNAME":"後壁區","LI":"仕安里","LIN":"9鄰","STREET":" ","SECT":" ","MAREA":"下長","LANE":" ","ALLEY":" ","HOUSE_NO":"６７號","E_COORD97":180730.39000000001,"N_COORD97":2583588.73,"ADDRESS":"下長６７號","OBJECTID":105725},"geometry":{"x":180730.38999999966,"y":2583588.7299999986}},{"attributes":{"ID":105726,"DIS_CODE":0,"TOWNNAME":"新市區","LI":"大洲里","LIN":"9鄰","STREET":" ","SECT":" ","MAREA":"大洲","LANE":" ","ALLEY":" ","HOUSE_NO":"９２之２號","E_COORD97":174333.98000000001,"N_COORD97":2551492.0499999998,"ADDRESS":"大洲９２之２號","OBJECTID":105726},"geometry":{"x":174333.98000000138,"y":2551492.0500000007}},{"attributes":{"ID":105727,"DIS_CODE":0,"TOWNNAME":"白河區","LI":"昇安里","LIN":"9鄰","STREET":" ","SECT":" ","MAREA":"埤子頭","LANE":" ","ALLEY":" ","HOUSE_NO":"３之２號","E_COORD97":192559.48999999999,"N_COORD97":2584967.98,"ADDRESS":"埤子頭３之２號","OBJECTID":105727},"geometry":{"x":192559.49000000022,"y":2584967.9800000023}},{"attributes":{"ID":105728,"DIS_CODE":0,"TOWNNAME":"安南區","LI":"城南里","LIN":"9鄰","STREET":"城西街","SECT":"一段","MAREA":" ","LANE":"２４９巷","ALLEY":"１１３弄","HOUSE_NO":"２２號","E_COORD97":160308.94,"N_COORD97":2551059.6699999999,"ADDRESS":"城西街一段２４９巷１１３弄２２號","OBJECTID":105728},"geometry":{"x":160308.94000000041,"y":2551059.6700000018}},{"attributes":{"ID":105729,"DIS_CODE":0,"TOWNNAME":"安南區","LI":"城南里","LIN":"9鄰","STREET":"城西街","SECT":"一段","MAREA":" ","LANE":"２４９巷","ALLEY":"１１３弄","HOUSE_NO":"２４號","E_COORD97":160308.94,"N_COORD97":2551055.4500000002,"ADDRESS":"城西街一段２４９巷１１３弄２４號","OBJECTID":105729},"geometry":{"x":160308.94000000041,"y":2551055.450000003}},{"attributes":{"ID":105730,"DIS_CODE":0,"TOWNNAME":"安南區","LI":"城南里","LIN":"9鄰","STREET":"城西街","SECT":"一段","MAREA":" ","LANE":"２４９巷","ALLEY":"１１３弄","HOUSE_NO":"２６號","E_COORD97":160308.45000000001,"N_COORD97":2551050.9900000002,"ADDRESS":"城西街一段２４９巷１１３弄２６號","OBJECTID":105730},"geometry":{"x":160308.45000000019,"y":2551050.9900000021}},{"attributes":{"ID":105731,"DIS_CODE":0,"TOWNNAME":"安南區","LI":"城南里","LIN":"9鄰","STREET":"城西街","SECT":"一段","MAREA":" ","LANE":"２４９巷","ALLEY":"１１３弄","HOUSE_NO":"２８號","E_COORD97":160308.69,"N_COORD97":2551046.27,"ADDRESS":"城西街一段２４９巷１１３弄２８號","OBJECTID":105731},"geometry":{"x":160308.69000000041,"y":2551046.2699999996}},{"attributes":{"ID":105732,"DIS_CODE":0,"TOWNNAME":"白河區","LI":"崎內里","LIN":"9鄰","STREET":" ","SECT":" ","MAREA":"芎蕉宅","LANE":" ","ALLEY":" ","HOUSE_NO":"１１之５號","E_COORD97":196223.23999999999,"N_COORD97":2587198.8399999999,"ADDRESS":"芎蕉宅１１之５號","OBJECTID":105732},"geometry":{"x":196223.24000000209,"y":2587198.8400000017}},{"attributes":{"ID":105733,"DIS_CODE":0,"TOWNNAME":"北門區","LI":"仁里里","LIN":"9鄰","STREET":" ","SECT":" ","MAREA":"二重港","LANE":" ","ALLEY":" ","HOUSE_NO":"２１４號","E_COORD97":161974.57000000001,"N_COORD97":2571432.3799999999,"ADDRESS":"二重港２１４號","OBJECTID":105733},"geometry":{"x":161974.5700000003,"y":2571432.3800000008}},{"attributes":{"ID":105734,"DIS_CODE":0,"TOWNNAME":"北門區","LI":"仁里里","LIN":"9鄰","STREET":" ","SECT":" ","MAREA":"二重港","LANE":" ","ALLEY":" ","HOUSE_NO":"２１５號","E_COORD97":161970.64999999999,"N_COORD97":2571456.8199999998,"ADDRESS":"二重港２１５號","OBJECTID":105734},"geometry":{"x":161970.65000000037,"y":2571456.8200000003}},{"attributes":{"ID":105735,"DIS_CODE":0,"TOWNNAME":"北門區","LI":"仁里里","LIN":"9鄰","STREET":" ","SECT":" ","MAREA":"二重港","LANE":" ","ALLEY":" ","HOUSE_NO":"２１７之２號","E_COORD97":161942.60000000001,"N_COORD97":2571523.8900000001,"ADDRESS":"二重港２１７之２號","OBJECTID":105735},"geometry":{"x":161942.59999999963,"y":2571523.8900000006}},{"attributes":{"ID":105736,"DIS_CODE":0,"TOWNNAME":"北門區","LI":"仁里里","LIN":"9鄰","STREET":" ","SECT":" ","MAREA":"二重港","LANE":" ","ALLEY":" ","HOUSE_NO":"２１７之３號","E_COORD97":161896.64999999999,"N_COORD97":2571536.8100000001,"ADDRESS":"二重港２１７之３號","OBJECTID":105736},"geometry":{"x":161896.6500000013,"y":2571536.8100000024}},{"attributes":{"ID":105737,"DIS_CODE":0,"TOWNNAME":"北門區","LI":"仁里里","LIN":"9鄰","STREET":" ","SECT":" ","MAREA":"二重港","LANE":" ","ALLEY":" ","HOUSE_NO":"２１７號","E_COORD97":161929.12,"N_COORD97":2571473.5899999999,"ADDRESS":"二重港２１７號","OBJECTID":105737},"geometry":{"x":161929.12000000104,"y":2571473.5900000017}},{"attributes":{"ID":105738,"DIS_CODE":0,"TOWNNAME":"北門區","LI":"仁里里","LIN":"9鄰","STREET":" ","SECT":" ","MAREA":"二重港","LANE":" ","ALLEY":" ","HOUSE_NO":"２２１號之１","E_COORD97":162011.69,"N_COORD97":2571413.23,"ADDRESS":"二重港２２１號之１","OBJECTID":105738},"geometry":{"x":162011.69000000134,"y":2571413.2300000004}},{"attributes":{"ID":105739,"DIS_CODE":0,"TOWNNAME":"北門區","LI":"仁里里","LIN":"9鄰","STREET":" ","SECT":" ","MAREA":"二重港","LANE":" ","ALLEY":" ","HOUSE_NO":"２２１號","E_COORD97":162006.70999999999,"N_COORD97":2571413.0299999998,"ADDRESS":"二重港２２１號","OBJECTID":105739},"geometry":{"x":162006.70999999996,"y":2571413.0299999993}},{"attributes":{"ID":105740,"DIS_CODE":0,"TOWNNAME":"北門區","LI":"仁里里","LIN":"9鄰","STREET":" ","SECT":" ","MAREA":"二重港","LANE":" ","ALLEY":" ","HOUSE_NO":"２２３號","E_COORD97":162033.73000000001,"N_COORD97":2571410.54,"ADDRESS":"二重港２２３號","OBJECTID":105740},"geometry":{"x":162033.73000000138,"y":2571410.5400000028}},{"attributes":{"ID":105741,"DIS_CODE":0,"TOWNNAME":"北門區","LI":"仁里里","LIN":"9鄰","STREET":" ","SECT":" ","MAREA":"二重港","LANE":" ","ALLEY":" ","HOUSE_NO":"２２４號","E_COORD97":162061.75,"N_COORD97":2571419.3199999998,"ADDRESS":"二重港２２４號","OBJECTID":105741},"geometry":{"x":162061.75000000093,"y":2571419.3200000003}},{"attributes":{"ID":105742,"DIS_CODE":0,"TOWNNAME":"北門區","LI":"仁里里","LIN":"9鄰","STREET":" ","SECT":" ","MAREA":"二重港","LANE":" ","ALLEY":" ","HOUSE_NO":"２２５號","E_COORD97":162095.85000000001,"N_COORD97":2571436.75,"ADDRESS":"二重港２２５號","OBJECTID":105742},"geometry":{"x":162095.84999999963,"y":2571436.75}},{"attributes":{"ID":105743,"DIS_CODE":0,"TOWNNAME":"北門區","LI":"仁里里","LIN":"9鄰","STREET":" ","SECT":" ","MAREA":"二重港","LANE":" ","ALLEY":" ","HOUSE_NO":"２２７號","E_COORD97":162168.07999999999,"N_COORD97":2571422.4399999999,"ADDRESS":"二重港２２７號","OBJECTID":105743},"geometry":{"x":162168.08000000101,"y":2571422.4400000013}},{"attributes":{"ID":105744,"DIS_CODE":0,"TOWNNAME":"北門區","LI":"仁里里","LIN":"9鄰","STREET":" ","SECT":" ","MAREA":"二重港","LANE":" ","ALLEY":" ","HOUSE_NO":"２２８號","E_COORD97":162162.89000000001,"N_COORD97":2571421.98,"ADDRESS":"二重港２２８號","OBJECTID":105744},"geometry":{"x":162162.88999999966,"y":2571421.9800000004}},{"attributes":{"ID":105745,"DIS_CODE":0,"TOWNNAME":"大內區","LI":"大內里","LIN":"1鄰","STREET":" ","SECT":" ","MAREA":"內庄","LANE":" ","ALLEY":" ","HOUSE_NO":"３號之１","E_COORD97":184351.67999999999,"N_COORD97":2557584.25,"ADDRESS":"內庄３號","OBJECTID":105745},"geometry":{"x":184351.68000000156,"y":2557584.2500000037}},{"attributes":{"ID":105746,"DIS_CODE":0,"TOWNNAME":"北門區","LI":"仁里里","LIN":"9鄰","STREET":" ","SECT":" ","MAREA":"二重港","LANE":" ","ALLEY":" ","HOUSE_NO":"２２９號","E_COORD97":162177.45999999999,"N_COORD97":2571426.27,"ADDRESS":"二重港２２９號","OBJECTID":105746},"geometry":{"x":162177.46000000089,"y":2571426.2700000033}},{"attributes":{"ID":105747,"DIS_CODE":0,"TOWNNAME":"北門區","LI":"仁里里","LIN":"9鄰","STREET":" ","SECT":" ","MAREA":"二重港","LANE":" ","ALLEY":" ","HOUSE_NO":"２３１號","E_COORD97":162230.51000000001,"N_COORD97":2571450.52,"ADDRESS":"二重港２３１號","OBJECTID":105747},"geometry":{"x":162230.50999999978,"y":2571450.5199999996}},{"attributes":{"ID":105748,"DIS_CODE":0,"TOWNNAME":"北門區","LI":"仁里里","LIN":"9鄰","STREET":" ","SECT":" ","MAREA":"二重港","LANE":" ","ALLEY":" ","HOUSE_NO":"２３２號","E_COORD97":162052.60000000001,"N_COORD97":2571482.8100000001,"ADDRESS":"二重港２３２號","OBJECTID":105748},"geometry":{"x":162052.60000000056,"y":2571482.8100000024}},{"attributes":{"ID":105749,"DIS_CODE":0,"TOWNNAME":"北門區","LI":"仁里里","LIN":"9鄰","STREET":" ","SECT":" ","MAREA":"二重港","LANE":" ","ALLEY":" ","HOUSE_NO":"２３３號","E_COORD97":162038.59,"N_COORD97":2571469.8999999999,"ADDRESS":"二重港２３３號","OBJECTID":105749},"geometry":{"x":162038.59000000171,"y":2571469.9000000004}},{"attributes":{"ID":105750,"DIS_CODE":0,"TOWNNAME":"北門區","LI":"仁里里","LIN":"9鄰","STREET":" ","SECT":" ","MAREA":"二重港","LANE":" ","ALLEY":" ","HOUSE_NO":"２３４號","E_COORD97":162030.66,"N_COORD97":2571515.5299999998,"ADDRESS":"二重港２３４號","OBJECTID":105750},"geometry":{"x":162030.66000000108,"y":2571515.5299999993}},{"attributes":{"ID":105751,"DIS_CODE":0,"TOWNNAME":"安平區","LI":"石門里","LIN":"8鄰","STREET":"安北路","SECT":" ","MAREA":" ","LANE":" ","ALLEY":" ","HOUSE_NO":"３６號之１４","E_COORD97":164625.89999999999,"N_COORD97":2544565.79,"ADDRESS":"安北路３６號之１４","OBJECTID":105751},"geometry":{"x":164625.9000000013,"y":2544565.7899999991}},{"attributes":{"ID":105752,"DIS_CODE":0,"TOWNNAME":"北門區","LI":"仁里里","LIN":"9鄰","STREET":" ","SECT":" ","MAREA":"二重港","LANE":" ","ALLEY":" ","HOUSE_NO":"２３５號","E_COORD97":161990.14000000001,"N_COORD97":2571538.7799999998,"ADDRESS":"二重港２３５號","OBJECTID":105752},"geometry":{"x":161990.13999999966,"y":2571538.7800000012}},{"attributes":{"ID":105753,"DIS_CODE":0,"TOWNNAME":"北門區","LI":"三光里","LIN":"9鄰","STREET":" ","SECT":" ","MAREA":"三寮灣","LANE":" ","ALLEY":" ","HOUSE_NO":"１６０號","E_COORD97":159188.32999999999,"N_COORD97":2570870.77,"ADDRESS":"三寮灣１６０號","OBJECTID":105753},"geometry":{"x":159188.33000000101,"y":2570870.7700000014}},{"attributes":{"ID":105754,"DIS_CODE":0,"TOWNNAME":"北門區","LI":"三光里","LIN":"9鄰","STREET":" ","SECT":" ","MAREA":"三寮灣","LANE":" ","ALLEY":" ","HOUSE_NO":"１６２號","E_COORD97":159216.06,"N_COORD97":2570855.6699999999,"ADDRESS":"三寮灣１６２號","OBJECTID":105754},"geometry":{"x":159216.06000000145,"y":2570855.6700000018}},{"attributes":{"ID":105755,"DIS_CODE":0,"TOWNNAME":"北門區","LI":"三光里","LIN":"9鄰","STREET":" ","SECT":" ","MAREA":"三寮灣","LANE":" ","ALLEY":" ","HOUSE_NO":"１６３號","E_COORD97":159209.20000000001,"N_COORD97":2570828.6499999999,"ADDRESS":"三寮灣１６３號","OBJECTID":105755},"geometry":{"x":159209.20000000112,"y":2570828.6500000022}},{"attributes":{"ID":105756,"DIS_CODE":0,"TOWNNAME":"北門區","LI":"三光里","LIN":"9鄰","STREET":" ","SECT":" ","MAREA":"三寮灣","LANE":" ","ALLEY":" ","HOUSE_NO":"１６５號","E_COORD97":159181.76999999999,"N_COORD97":2570849.3799999999,"ADDRESS":"三寮灣１６５號","OBJECTID":105756},"geometry":{"x":159181.76999999955,"y":2570849.3800000008}},{"attributes":{"ID":105757,"DIS_CODE":0,"TOWNNAME":"北門區","LI":"三光里","LIN":"9鄰","STREET":" ","SECT":" ","MAREA":"三寮灣","LANE":" ","ALLEY":" ","HOUSE_NO":"１６６號","E_COORD97":159169.57000000001,"N_COORD97":2570830.9700000002,"ADDRESS":"三寮灣１６６號","OBJECTID":105757},"geometry":{"x":159169.57000000123,"y":2570830.9700000025}},{"attributes":{"ID":105758,"DIS_CODE":0,"TOWNNAME":"北門區","LI":"三光里","LIN":"9鄰","STREET":" ","SECT":" ","MAREA":"三寮灣","LANE":" ","ALLEY":" ","HOUSE_NO":"１６８號","E_COORD97":159187.29999999999,"N_COORD97":2570786.1600000001,"ADDRESS":"三寮灣１６８號","OBJECTID":105758},"geometry":{"x":159187.29999999981,"y":2570786.1600000001}},{"attributes":{"ID":105759,"DIS_CODE":0,"TOWNNAME":"北門區","LI":"三光里","LIN":"9鄰","STREET":" ","SECT":" ","MAREA":"三寮灣","LANE":" ","ALLEY":" ","HOUSE_NO":"１６９號","E_COORD97":159185.29999999999,"N_COORD97":2570794.4199999999,"ADDRESS":"三寮灣１６９號","OBJECTID":105759},"geometry":{"x":159185.29999999981,"y":2570794.4199999999}},{"attributes":{"ID":105760,"DIS_CODE":0,"TOWNNAME":"北門區","LI":"三光里","LIN":"9鄰","STREET":" ","SECT":" ","MAREA":"三寮灣","LANE":" ","ALLEY":" ","HOUSE_NO":"１７０號","E_COORD97":159176.25,"N_COORD97":2570790.1299999999,"ADDRESS":"三寮灣１７０號","OBJECTID":105760},"geometry":{"x":159176.25000000186,"y":2570790.1300000008}},{"attributes":{"ID":105761,"DIS_CODE":0,"TOWNNAME":"北門區","LI":"三光里","LIN":"9鄰","STREET":" ","SECT":" ","MAREA":"三寮灣","LANE":" ","ALLEY":" ","HOUSE_NO":"１７１號","E_COORD97":159174.76999999999,"N_COORD97":2570806.5600000001,"ADDRESS":"三寮灣１７１號","OBJECTID":105761},"geometry":{"x":159174.77000000048,"y":2570806.5600000024}},{"attributes":{"ID":105762,"DIS_CODE":0,"TOWNNAME":"北門區","LI":"三光里","LIN":"9鄰","STREET":" ","SECT":" ","MAREA":"三寮灣","LANE":" ","ALLEY":" ","HOUSE_NO":"１７３號","E_COORD97":159161.14999999999,"N_COORD97":2570816.29,"ADDRESS":"三寮灣１７３號","OBJECTID":105762},"geometry":{"x":159161.1500000013,"y":2570816.290000001}},{"attributes":{"ID":105763,"DIS_CODE":0,"TOWNNAME":"北門區","LI":"三光里","LIN":"9鄰","STREET":" ","SECT":" ","MAREA":"三寮灣","LANE":" ","ALLEY":" ","HOUSE_NO":"１７５號","E_COORD97":159155.13,"N_COORD97":2570828.5,"ADDRESS":"三寮灣１７５號","OBJECTID":105763},"geometry":{"x":159155.13000000082,"y":2570828.5000000037}},{"attributes":{"ID":105764,"DIS_CODE":0,"TOWNNAME":"北門區","LI":"慈安里","LIN":"9鄰","STREET":" ","SECT":" ","MAREA":"三寮灣","LANE":" ","ALLEY":" ","HOUSE_NO":"４８１號","E_COORD97":158975.35999999999,"N_COORD97":2571040.8999999999,"ADDRESS":"三寮灣４８１號","OBJECTID":105764},"geometry":{"x":158975.36000000034,"y":2571040.9000000022}},{"attributes":{"ID":105765,"DIS_CODE":0,"TOWNNAME":"北門區","LI":"慈安里","LIN":"9鄰","STREET":" ","SECT":" ","MAREA":"三寮灣","LANE":" ","ALLEY":" ","HOUSE_NO":"４８４號","E_COORD97":158978.44,"N_COORD97":2571010.23,"ADDRESS":"三寮灣４８４號","OBJECTID":105765},"geometry":{"x":158978.44000000041,"y":2571010.2300000004}},{"attributes":{"ID":105766,"DIS_CODE":0,"TOWNNAME":"北門區","LI":"慈安里","LIN":"9鄰","STREET":" ","SECT":" ","MAREA":"三寮灣","LANE":" ","ALLEY":" ","HOUSE_NO":"４８５號","E_COORD97":158994.41,"N_COORD97":2571018.6400000001,"ADDRESS":"三寮灣４８５號","OBJECTID":105766},"geometry":{"x":158994.41000000108,"y":2571018.6400000025}},{"attributes":{"ID":105767,"DIS_CODE":0,"TOWNNAME":"北門區","LI":"慈安里","LIN":"9鄰","STREET":" ","SECT":" ","MAREA":"三寮灣","LANE":" ","ALLEY":" ","HOUSE_NO":"４８６號","E_COORD97":158997.70999999999,"N_COORD97":2571026.1699999999,"ADDRESS":"三寮灣４８６號","OBJECTID":105767},"geometry":{"x":158997.70999999996,"y":2571026.1699999999}},{"attributes":{"ID":105768,"DIS_CODE":0,"TOWNNAME":"北門區","LI":"慈安里","LIN":"9鄰","STREET":" ","SECT":" ","MAREA":"三寮灣","LANE":" ","ALLEY":" ","HOUSE_NO":"４８７號","E_COORD97":158998.73999999999,"N_COORD97":2571030.3799999999,"ADDRESS":"三寮灣４８７號","OBJECTID":105768},"geometry":{"x":158998.74000000115,"y":2571030.379999999}},{"attributes":{"ID":105769,"DIS_CODE":0,"TOWNNAME":"北門區","LI":"慈安里","LIN":"9鄰","STREET":" ","SECT":" ","MAREA":"三寮灣","LANE":" ","ALLEY":" ","HOUSE_NO":"４８８號","E_COORD97":158999.64000000001,"N_COORD97":2571034.0299999998,"ADDRESS":"三寮灣４８８號","OBJECTID":105769},"geometry":{"x":158999.63999999966,"y":2571034.0299999993}},{"attributes":{"ID":105770,"DIS_CODE":0,"TOWNNAME":"北門區","LI":"慈安里","LIN":"9鄰","STREET":" ","SECT":" ","MAREA":"三寮灣","LANE":" ","ALLEY":" ","HOUSE_NO":"４８９號","E_COORD97":159000.53,"N_COORD97":2571038.2999999998,"ADDRESS":"三寮灣４８９號","OBJECTID":105770},"geometry":{"x":159000.53000000119,"y":2571038.3000000026}},{"attributes":{"ID":105771,"DIS_CODE":0,"TOWNNAME":"北門區","LI":"慈安里","LIN":"9鄰","STREET":" ","SECT":" ","MAREA":"三寮灣","LANE":" ","ALLEY":" ","HOUSE_NO":"４９０之２號","E_COORD97":159020.67999999999,"N_COORD97":2571045.1600000001,"ADDRESS":"三寮灣４９０之２號","OBJECTID":105771},"geometry":{"x":159020.68000000063,"y":2571045.160000002}},{"attributes":{"ID":105772,"DIS_CODE":0,"TOWNNAME":"北門區","LI":"永隆里","LIN":"9鄰","STREET":" ","SECT":" ","MAREA":"北門","LANE":" ","ALLEY":" ","HOUSE_NO":"１１７號","E_COORD97":160198.38,"N_COORD97":2574435.29,"ADDRESS":"北門１１７號","OBJECTID":105772},"geometry":{"x":160198.37999999989,"y":2574435.2899999991}},{"attributes":{"ID":105773,"DIS_CODE":0,"TOWNNAME":"北門區","LI":"永隆里","LIN":"9鄰","STREET":" ","SECT":" ","MAREA":"北門","LANE":" ","ALLEY":" ","HOUSE_NO":"１１８號","E_COORD97":160208.07999999999,"N_COORD97":2574429.27,"ADDRESS":"北門１１８號","OBJECTID":105773},"geometry":{"x":160208.07999999914,"y":2574429.2699999996}},{"attributes":{"ID":105774,"DIS_CODE":0,"TOWNNAME":"北門區","LI":"永隆里","LIN":"9鄰","STREET":" ","SECT":" ","MAREA":"北門","LANE":" ","ALLEY":" ","HOUSE_NO":"１１９號","E_COORD97":160216.79000000001,"N_COORD97":2574420.02,"ADDRESS":"北門１１９號","OBJECTID":105774},"geometry":{"x":160216.78999999911,"y":2574420.0200000014}},{"attributes":{"ID":105775,"DIS_CODE":0,"TOWNNAME":"北門區","LI":"永隆里","LIN":"9鄰","STREET":" ","SECT":" ","MAREA":"北門","LANE":" ","ALLEY":" ","HOUSE_NO":"１２０號","E_COORD97":160208.17999999999,"N_COORD97":2574412.4199999999,"ADDRESS":"北門１２０號","OBJECTID":105775},"geometry":{"x":160208.1799999997,"y":2574412.4199999981}},{"attributes":{"ID":105776,"DIS_CODE":0,"TOWNNAME":"北門區","LI":"永隆里","LIN":"9鄰","STREET":" ","SECT":" ","MAREA":"北門","LANE":" ","ALLEY":" ","HOUSE_NO":"１２１號","E_COORD97":160228.48999999999,"N_COORD97":2574406.9100000001,"ADDRESS":"北門１２１號","OBJECTID":105776},"geometry":{"x":160228.49000000022,"y":2574406.910000002}},{"attributes":{"ID":105777,"DIS_CODE":0,"TOWNNAME":"北門區","LI":"永隆里","LIN":"9鄰","STREET":" ","SECT":" ","MAREA":"北門","LANE":" ","ALLEY":" ","HOUSE_NO":"１２３號","E_COORD97":160241.25,"N_COORD97":2574386.7200000002,"ADDRESS":"北門１２３號","OBJECTID":105777},"geometry":{"x":160241.25000000093,"y":2574386.7200000007}},{"attributes":{"ID":105778,"DIS_CODE":0,"TOWNNAME":"北門區","LI":"永隆里","LIN":"9鄰","STREET":" ","SECT":" ","MAREA":"北門","LANE":" ","ALLEY":" ","HOUSE_NO":"１２４號","E_COORD97":160249.69,"N_COORD97":2574376.96,"ADDRESS":"北門１２４號","OBJECTID":105778},"geometry":{"x":160249.69000000041,"y":2574376.9600000028}},{"attributes":{"ID":105779,"DIS_CODE":0,"TOWNNAME":"北門區","LI":"永隆里","LIN":"9鄰","STREET":" ","SECT":" ","MAREA":"北門","LANE":" ","ALLEY":" ","HOUSE_NO":"１２５號","E_COORD97":160259.64000000001,"N_COORD97":2574379.5499999998,"ADDRESS":"北門１２５號","OBJECTID":105779},"geometry":{"x":160259.63999999966,"y":2574379.5500000026}},{"attributes":{"ID":105780,"DIS_CODE":0,"TOWNNAME":"北門區","LI":"北門里","LIN":"9鄰","STREET":" ","SECT":" ","MAREA":"北門","LANE":" ","ALLEY":" ","HOUSE_NO":"２３２號","E_COORD97":160160.79999999999,"N_COORD97":2574341.8399999999,"ADDRESS":"北門２３２號","OBJECTID":105780},"geometry":{"x":160160.80000000075,"y":2574341.8400000036}},{"attributes":{"ID":105781,"DIS_CODE":0,"TOWNNAME":"北門區","LI":"北門里","LIN":"9鄰","STREET":" ","SECT":" ","MAREA":"北門","LANE":" ","ALLEY":" ","HOUSE_NO":"２３３號","E_COORD97":160164.35999999999,"N_COORD97":2574331.9199999999,"ADDRESS":"北門２３３號","OBJECTID":105781},"geometry":{"x":160164.36000000127,"y":2574331.9200000018}},{"attributes":{"ID":105782,"DIS_CODE":0,"TOWNNAME":"北門區","LI":"北門里","LIN":"9鄰","STREET":" ","SECT":" ","MAREA":"北門","LANE":" ","ALLEY":" ","HOUSE_NO":"２３４號","E_COORD97":160156.93283400001,"N_COORD97":2574321.7974200002,"ADDRESS":"北門２３４號","OBJECTID":105782},"geometry":{"x":160156.93283400126,"y":2574321.7974160016}},{"attributes":{"ID":105783,"DIS_CODE":0,"TOWNNAME":"北門區","LI":"北門里","LIN":"9鄰","STREET":" ","SECT":" ","MAREA":"北門","LANE":" ","ALLEY":" ","HOUSE_NO":"２３５號","E_COORD97":160136.09,"N_COORD97":2574304.96,"ADDRESS":"北門２３５號","OBJECTID":105783},"geometry":{"x":160136.08999999985,"y":2574304.9600000046}},{"attributes":{"ID":105784,"DIS_CODE":0,"TOWNNAME":"北門區","LI":"北門里","LIN":"9鄰","STREET":" ","SECT":" ","MAREA":"北門","LANE":" ","ALLEY":" ","HOUSE_NO":"２３６號","E_COORD97":160129.14999999999,"N_COORD97":2574287.6899999999,"ADDRESS":"北門２３６號","OBJECTID":105784},"geometry":{"x":160129.1500000013,"y":2574287.6899999995}},{"attributes":{"ID":105785,"DIS_CODE":0,"TOWNNAME":"北門區","LI":"北門里","LIN":"9鄰","STREET":" ","SECT":" ","MAREA":"北門","LANE":" ","ALLEY":" ","HOUSE_NO":"２３７號","E_COORD97":160146.07000000001,"N_COORD97":2574302.0800000001,"ADDRESS":"北門２３７號","OBJECTID":105785},"geometry":{"x":160146.07000000123,"y":2574302.0800000001}},{"attributes":{"ID":105786,"DIS_CODE":0,"TOWNNAME":"北門區","LI":"北門里","LIN":"9鄰","STREET":" ","SECT":" ","MAREA":"北門","LANE":" ","ALLEY":" ","HOUSE_NO":"２３８號","E_COORD97":160161.63,"N_COORD97":2574310.8500000001,"ADDRESS":"北門２３８號","OBJECTID":105786},"geometry":{"x":160161.62999999989,"y":2574310.8499999996}},{"attributes":{"ID":105787,"DIS_CODE":0,"TOWNNAME":"北門區","LI":"北門里","LIN":"9鄰","STREET":" ","SECT":" ","MAREA":"北門","LANE":" ","ALLEY":" ","HOUSE_NO":"２３９號","E_COORD97":160177.708782,"N_COORD97":2574315.9119299999,"ADDRESS":"北門２３９號","OBJECTID":105787},"geometry":{"x":160177.70878200047,"y":2574315.9119290002}},{"attributes":{"ID":105788,"DIS_CODE":0,"TOWNNAME":"北門區","LI":"北門里","LIN":"9鄰","STREET":" ","SECT":" ","MAREA":"北門","LANE":" ","ALLEY":" ","HOUSE_NO":"２４１號","E_COORD97":160184.27667200001,"N_COORD97":2574326.1777599999,"ADDRESS":"北門２４１號","OBJECTID":105788},"geometry":{"x":160184.276672001,"y":2574326.1777570024}},{"attributes":{"ID":105789,"DIS_CODE":0,"TOWNNAME":"北門區","LI":"北門里","LIN":"9鄰","STREET":" ","SECT":" ","MAREA":"北門","LANE":" ","ALLEY":" ","HOUSE_NO":"２４４號","E_COORD97":160198.17999999999,"N_COORD97":2574322.2599999998,"ADDRESS":"北門２４４號","OBJECTID":105789},"geometry":{"x":160198.1799999997,"y":2574322.2600000035}},{"attributes":{"ID":105790,"DIS_CODE":0,"TOWNNAME":"北門區","LI":"保吉里","LIN":"9鄰","STREET":" ","SECT":" ","MAREA":"蚵寮","LANE":" ","ALLEY":" ","HOUSE_NO":"２３９號之１","E_COORD97":161470.60999999999,"N_COORD97":2576108.8100000001,"ADDRESS":"蚵寮２３９號之１","OBJECTID":105790},"geometry":{"x":161470.61000000034,"y":2576108.8100000005}},{"attributes":{"ID":105791,"DIS_CODE":0,"TOWNNAME":"北門區","LI":"保吉里","LIN":"9鄰","STREET":" ","SECT":" ","MAREA":"蚵寮","LANE":" ","ALLEY":" ","HOUSE_NO":"２３９之２號","E_COORD97":161465.48000000001,"N_COORD97":2576127.6299999999,"ADDRESS":"蚵寮２３９之２號","OBJECTID":105791},"geometry":{"x":161465.48000000231,"y":2576127.629999999}},{"attributes":{"ID":105792,"DIS_CODE":0,"TOWNNAME":"北門區","LI":"保吉里","LIN":"9鄰","STREET":" ","SECT":" ","MAREA":"蚵寮","LANE":" ","ALLEY":" ","HOUSE_NO":"２３９號之２","E_COORD97":161465.48000000001,"N_COORD97":2576127.6299999999,"ADDRESS":"蚵寮２３９號之２","OBJECTID":105792},"geometry":{"x":161465.48000000231,"y":2576127.629999999}},{"attributes":{"ID":105793,"DIS_CODE":0,"TOWNNAME":"北門區","LI":"保吉里","LIN":"9鄰","STREET":" ","SECT":" ","MAREA":"蚵寮","LANE":" ","ALLEY":" ","HOUSE_NO":"２３９號","E_COORD97":161485.32000000001,"N_COORD97":2576096.5699999998,"ADDRESS":"蚵寮２３９號","OBJECTID":105793},"geometry":{"x":161485.32000000123,"y":2576096.5700000003}},{"attributes":{"ID":105794,"DIS_CODE":0,"TOWNNAME":"北門區","LI":"保吉里","LIN":"9鄰","STREET":" ","SECT":" ","MAREA":"蚵寮","LANE":" ","ALLEY":" ","HOUSE_NO":"２４１號","E_COORD97":161522.41,"N_COORD97":2576104.75,"ADDRESS":"蚵寮２４１號","OBJECTID":105794},"geometry":{"x":161522.41000000015,"y":2576104.75}},{"attributes":{"ID":105795,"DIS_CODE":0,"TOWNNAME":"北門區","LI":"保吉里","LIN":"9鄰","STREET":" ","SECT":" ","MAREA":"蚵寮","LANE":" ","ALLEY":" ","HOUSE_NO":"２４２號","E_COORD97":161526.22,"N_COORD97":2576107.48,"ADDRESS":"蚵寮２４２號","OBJECTID":105795},"geometry":{"x":161526.22000000067,"y":2576107.4800000004}},{"attributes":{"ID":105796,"DIS_CODE":0,"TOWNNAME":"北門區","LI":"保吉里","LIN":"9鄰","STREET":" ","SECT":" ","MAREA":"蚵寮","LANE":" ","ALLEY":" ","HOUSE_NO":"２４３號","E_COORD97":161529.67999999999,"N_COORD97":2576109.8399999999,"ADDRESS":"蚵寮２４３號","OBJECTID":105796},"geometry":{"x":161529.68000000063,"y":2576109.8400000017}},{"attributes":{"ID":105797,"DIS_CODE":0,"TOWNNAME":"北門區","LI":"保吉里","LIN":"9鄰","STREET":" ","SECT":" ","MAREA":"蚵寮","LANE":" ","ALLEY":" ","HOUSE_NO":"２４４號","E_COORD97":161533.22,"N_COORD97":2576112.6499999999,"ADDRESS":"蚵寮２４４號","OBJECTID":105797},"geometry":{"x":161533.22000000067,"y":2576112.6500000004}},{"attributes":{"ID":105798,"DIS_CODE":0,"TOWNNAME":"北門區","LI":"保吉里","LIN":"9鄰","STREET":" ","SECT":" ","MAREA":"蚵寮","LANE":" ","ALLEY":" ","HOUSE_NO":"２４５號","E_COORD97":161537.03,"N_COORD97":2576115.2999999998,"ADDRESS":"蚵寮２４５號","OBJECTID":105798},"geometry":{"x":161537.03000000026,"y":2576115.3000000007}},{"attributes":{"ID":105799,"DIS_CODE":0,"TOWNNAME":"北門區","LI":"保吉里","LIN":"9鄰","STREET":" ","SECT":" ","MAREA":"蚵寮","LANE":" ","ALLEY":" ","HOUSE_NO":"２４６號","E_COORD97":161540.26999999999,"N_COORD97":2576117.7599999998,"ADDRESS":"蚵寮２４６號","OBJECTID":105799},"geometry":{"x":161540.26999999955,"y":2576117.7599999998}},{"attributes":{"ID":105800,"DIS_CODE":0,"TOWNNAME":"北門區","LI":"保吉里","LIN":"9鄰","STREET":" ","SECT":" ","MAREA":"蚵寮","LANE":" ","ALLEY":" ","HOUSE_NO":"２４７號","E_COORD97":161544.07999999999,"N_COORD97":2576120.71,"ADDRESS":"蚵寮２４７號","OBJECTID":105800},"geometry":{"x":161544.08000000194,"y":2576120.7100000046}}]}