{"displayFieldName":"TOWNNAME","fieldAliases":{"ID":"ID","DIS_CODE":"DIS_CODE","TOWNNAME":"TOWNNAME","LI":"LI","LIN":"LIN","STREET":"STREET","SECT":"SECT","MAREA":"MAREA","LANE":"LANE","ALLEY":"ALLEY","HOUSE_NO":"HOUSE_NO","E_COORD97":"E_COORD97","N_COORD97":"N_COORD97","ADDRESS":"ADDRESS","OBJECTID":"OBJECTID"},"geometryType":"esriGeometryPoint","spatialReference":{"wkid":102443,"latestWkid":3826},"fields":[{"name":"ID","type":"esriFieldTypeDouble","alias":"ID"},{"name":"DIS_CODE","type":"esriFieldTypeInteger","alias":"DIS_CODE"},{"name":"TOWNNAME","type":"esriFieldTypeString","alias":"TOWNNAME","length":8},{"name":"LI","type":"esriFieldTypeString","alias":"LI","length":8},{"name":"LIN","type":"esriFieldTypeString","alias":"LIN","length":12},{"name":"STREET","type":"esriFieldTypeString","alias":"STREET","length":20},{"name":"SECT","type":"esriFieldTypeString","alias":"SECT","length":8},{"name":"MAREA","type":"esriFieldTypeString","alias":"MAREA","length":12},{"name":"LANE","type":"esriFieldTypeString","alias":"LANE","length":10},{"name":"ALLEY","type":"esriFieldTypeString","alias":"ALLEY","length":10},{"name":"HOUSE_NO","type":"esriFieldTypeString","alias":"HOUSE_NO","length":20},{"name":"E_COORD97","type":"esriFieldTypeDouble","alias":"E_COORD97"},{"name":"N_COORD97","type":"esriFieldTypeDouble","alias":"N_COORD97"},{"name":"ADDRESS","type":"esriFieldTypeString","alias":"ADDRESS","length":50},{"name":"OBJECTID","type":"esriFieldTypeOID","alias":"OBJECTID"}],"features":[{"attributes":{"ID":524228,"DIS_CODE":0,"TOWNNAME":"永康區","LI":"勝利里","LIN":"6鄰","STREET":"勝學路","SECT":" ","MAREA":" ","LANE":" ","ALLEY":" ","HOUSE_NO":"１３號","E_COORD97":171153.53,"N_COORD97":2544600.5,"ADDRESS":"勝學路１３號","OBJECTID":524201},"geometry":{"x":171153.53000000119,"y":2544600.5000000037}},{"attributes":{"ID":524229,"DIS_CODE":0,"TOWNNAME":"永康區","LI":"勝利里","LIN":"6鄰","STREET":"勝學路","SECT":" ","MAREA":" ","LANE":" ","ALLEY":" ","HOUSE_NO":"３６號","E_COORD97":171153.67999999999,"N_COORD97":2544637.5,"ADDRESS":"勝學路３６號","OBJECTID":524202},"geometry":{"x":171153.68000000063,"y":2544637.5}},{"attributes":{"ID":524230,"DIS_CODE":0,"TOWNNAME":"永康區","LI":"勝利里","LIN":"6鄰","STREET":"勝學路","SECT":" ","MAREA":" ","LANE":" ","ALLEY":" ","HOUSE_NO":"２２號","E_COORD97":171164.04999999999,"N_COORD97":2544616,"ADDRESS":"勝學路２２號","OBJECTID":524203},"geometry":{"x":171164.05000000168,"y":2544616}},{"attributes":{"ID":524231,"DIS_CODE":0,"TOWNNAME":"永康區","LI":"勝利里","LIN":"6鄰","STREET":"勝學路","SECT":" ","MAREA":" ","LANE":" ","ALLEY":" ","HOUSE_NO":"５６號","E_COORD97":171154.29000000001,"N_COORD97":2544680.7599999998,"ADDRESS":"勝學路５６號","OBJECTID":524204},"geometry":{"x":171154.2900000019,"y":2544680.7600000016}},{"attributes":{"ID":524232,"DIS_CODE":0,"TOWNNAME":"永康區","LI":"勝利里","LIN":"6鄰","STREET":"勝學路","SECT":" ","MAREA":" ","LANE":" ","ALLEY":" ","HOUSE_NO":"４３號","E_COORD97":171140.69,"N_COORD97":2544673.2599999998,"ADDRESS":"勝學路４３號","OBJECTID":524205},"geometry":{"x":171140.69000000134,"y":2544673.2600000035}},{"attributes":{"ID":524233,"DIS_CODE":0,"TOWNNAME":"永康區","LI":"復興里","LIN":"6鄰","STREET":"復興路","SECT":" ","MAREA":" ","LANE":" ","ALLEY":" ","HOUSE_NO":"３９５號","E_COORD97":172115.82999999999,"N_COORD97":2544309.77,"ADDRESS":"復興路３９５號","OBJECTID":524206},"geometry":{"x":172115.83000000101,"y":2544309.7699999996}},{"attributes":{"ID":524234,"DIS_CODE":0,"TOWNNAME":"永康區","LI":"復興里","LIN":"6鄰","STREET":"復興路","SECT":" ","MAREA":" ","LANE":" ","ALLEY":" ","HOUSE_NO":"３９１號","E_COORD97":172122.76000000001,"N_COORD97":2544310.52,"ADDRESS":"復興路３９１號","OBJECTID":524207},"geometry":{"x":172122.76000000071,"y":2544310.5199999996}},{"attributes":{"ID":524235,"DIS_CODE":0,"TOWNNAME":"永康區","LI":"復興里","LIN":"6鄰","STREET":"復興路","SECT":" ","MAREA":" ","LANE":" ","ALLEY":" ","HOUSE_NO":"３７９號","E_COORD97":172148.26999999999,"N_COORD97":2544311.8500000001,"ADDRESS":"復興路３７９號","OBJECTID":524208},"geometry":{"x":172148.26999999955,"y":2544311.8499999996}},{"attributes":{"ID":524236,"DIS_CODE":0,"TOWNNAME":"永康區","LI":"勝利里","LIN":"6鄰","STREET":"勝學路","SECT":" ","MAREA":" ","LANE":" ","ALLEY":" ","HOUSE_NO":"８號","E_COORD97":171170.75,"N_COORD97":2544593.25,"ADDRESS":"勝學路８號","OBJECTID":524209},"geometry":{"x":171170.75,"y":2544593.2500000019}},{"attributes":{"ID":524237,"DIS_CODE":0,"TOWNNAME":"白河區","LI":"白河里","LIN":"6鄰","STREET":"中山路","SECT":" ","MAREA":" ","LANE":" ","ALLEY":" ","HOUSE_NO":"３６號","E_COORD97":190170.51999999999,"N_COORD97":2583012,"ADDRESS":"中山路３６號","OBJECTID":524210},"geometry":{"x":190170.52000000142,"y":2583012}},{"attributes":{"ID":524238,"DIS_CODE":0,"TOWNNAME":"白河區","LI":"白河里","LIN":"6鄰","STREET":"中山路","SECT":" ","MAREA":" ","LANE":" ","ALLEY":" ","HOUSE_NO":"３８號","E_COORD97":190171.76999999999,"N_COORD97":2583015.21,"ADDRESS":"中山路３８號","OBJECTID":524211},"geometry":{"x":190171.76999999955,"y":2583015.2100000009}},{"attributes":{"ID":524239,"DIS_CODE":0,"TOWNNAME":"白河區","LI":"白河里","LIN":"6鄰","STREET":"中山路","SECT":" ","MAREA":" ","LANE":" ","ALLEY":" ","HOUSE_NO":"４２號","E_COORD97":190174.26999999999,"N_COORD97":2583021.6099999999,"ADDRESS":"中山路４２號","OBJECTID":524212},"geometry":{"x":190174.27000000048,"y":2583021.6099999994}},{"attributes":{"ID":524240,"DIS_CODE":0,"TOWNNAME":"白河區","LI":"白河里","LIN":"6鄰","STREET":"中山路","SECT":" ","MAREA":" ","LANE":" ","ALLEY":" ","HOUSE_NO":"４６號","E_COORD97":190175.51999999999,"N_COORD97":2583024.8100000001,"ADDRESS":"中山路４６號","OBJECTID":524213},"geometry":{"x":190175.52000000142,"y":2583024.8100000005}},{"attributes":{"ID":524241,"DIS_CODE":0,"TOWNNAME":"白河區","LI":"白河里","LIN":"6鄰","STREET":"中山路","SECT":" ","MAREA":" ","LANE":" ","ALLEY":" ","HOUSE_NO":"４８號","E_COORD97":190176.76999999999,"N_COORD97":2583028.0099999998,"ADDRESS":"中山路４８號","OBJECTID":524214},"geometry":{"x":190176.76999999955,"y":2583028.0100000016}},{"attributes":{"ID":524242,"DIS_CODE":0,"TOWNNAME":"白河區","LI":"白河里","LIN":"6鄰","STREET":"中山路","SECT":" ","MAREA":" ","LANE":" ","ALLEY":" ","HOUSE_NO":"５０號","E_COORD97":190178.01999999999,"N_COORD97":2583031.21,"ADDRESS":"中山路５０號","OBJECTID":524215},"geometry":{"x":190178.02000000048,"y":2583031.2100000028}},{"attributes":{"ID":524243,"DIS_CODE":0,"TOWNNAME":"白河區","LI":"白河里","LIN":"6鄰","STREET":"中山路","SECT":" ","MAREA":" ","LANE":" ","ALLEY":" ","HOUSE_NO":"５２號","E_COORD97":190179.28,"N_COORD97":2583034.4100000001,"ADDRESS":"中山路５２號","OBJECTID":524216},"geometry":{"x":190179.28000000026,"y":2583034.4100000001}},{"attributes":{"ID":524244,"DIS_CODE":0,"TOWNNAME":"白河區","LI":"白河里","LIN":"6鄰","STREET":"中山路","SECT":" ","MAREA":" ","LANE":" ","ALLEY":" ","HOUSE_NO":"５４號","E_COORD97":190180.53,"N_COORD97":2583037.6099999999,"ADDRESS":"中山路５４號","OBJECTID":524217},"geometry":{"x":190180.53000000026,"y":2583037.6100000013}},{"attributes":{"ID":524245,"DIS_CODE":0,"TOWNNAME":"白河區","LI":"白河里","LIN":"6鄰","STREET":"中山路","SECT":" ","MAREA":" ","LANE":" ","ALLEY":" ","HOUSE_NO":"５６之１０號","E_COORD97":190195.67999999999,"N_COORD97":2583084.6000000001,"ADDRESS":"中山路５６之１０號","OBJECTID":524218},"geometry":{"x":190195.68000000063,"y":2583084.6000000015}},{"attributes":{"ID":524246,"DIS_CODE":0,"TOWNNAME":"白河區","LI":"白河里","LIN":"6鄰","STREET":"中山路","SECT":" ","MAREA":" ","LANE":" ","ALLEY":" ","HOUSE_NO":"５６之１１號","E_COORD97":190196.82999999999,"N_COORD97":2583087.5800000001,"ADDRESS":"中山路５６之１１號","OBJECTID":524219},"geometry":{"x":190196.83000000101,"y":2583087.5799999982}},{"attributes":{"ID":524247,"DIS_CODE":0,"TOWNNAME":"白河區","LI":"白河里","LIN":"6鄰","STREET":"中山路","SECT":" ","MAREA":" ","LANE":" ","ALLEY":" ","HOUSE_NO":"５６之１號","E_COORD97":190185.17999999999,"N_COORD97":2583054.9199999999,"ADDRESS":"中山路５６之１號","OBJECTID":524220},"geometry":{"x":190185.18000000063,"y":2583054.9200000037}},{"attributes":{"ID":524248,"DIS_CODE":0,"TOWNNAME":"白河區","LI":"白河里","LIN":"6鄰","STREET":"中山路","SECT":" ","MAREA":" ","LANE":" ","ALLEY":" ","HOUSE_NO":"５６之７號","E_COORD97":190192.20999999999,"N_COORD97":2583074.6899999999,"ADDRESS":"中山路５６之７號","OBJECTID":524221},"geometry":{"x":190192.21000000089,"y":2583074.6899999995}},{"attributes":{"ID":524249,"DIS_CODE":0,"TOWNNAME":"白河區","LI":"白河里","LIN":"6鄰","STREET":"中山路","SECT":" ","MAREA":" ","LANE":" ","ALLEY":" ","HOUSE_NO":"５６之８號","E_COORD97":190193.48000000001,"N_COORD97":2583078.2400000002,"ADDRESS":"中山路５６之８號","OBJECTID":524222},"geometry":{"x":190193.48000000045,"y":2583078.2400000021}},{"attributes":{"ID":524250,"DIS_CODE":0,"TOWNNAME":"白河區","LI":"白河里","LIN":"6鄰","STREET":"中山路","SECT":" ","MAREA":" ","LANE":" ","ALLEY":" ","HOUSE_NO":"５６之９號","E_COORD97":190194.75,"N_COORD97":2583081.79,"ADDRESS":"中山路５６之９號","OBJECTID":524223},"geometry":{"x":190194.74999999907,"y":2583081.7900000028}},{"attributes":{"ID":524251,"DIS_CODE":0,"TOWNNAME":"白河區","LI":"白河里","LIN":"6鄰","STREET":"中山路","SECT":" ","MAREA":" ","LANE":" ","ALLEY":" ","HOUSE_NO":"５６號","E_COORD97":190180.39000000001,"N_COORD97":2583041.4700000002,"ADDRESS":"中山路５６號","OBJECTID":524224},"geometry":{"x":190180.3900000006,"y":2583041.4699999988}},{"attributes":{"ID":524252,"DIS_CODE":0,"TOWNNAME":"白河區","LI":"白河里","LIN":"6鄰","STREET":"中山路","SECT":" ","MAREA":" ","LANE":" ","ALLEY":" ","HOUSE_NO":"５８之５號","E_COORD97":190199.19,"N_COORD97":2583072.73,"ADDRESS":"中山路５８之５號","OBJECTID":524225},"geometry":{"x":190199.19000000227,"y":2583072.7300000004}},{"attributes":{"ID":524253,"DIS_CODE":0,"TOWNNAME":"白河區","LI":"白河里","LIN":"6鄰","STREET":"中山路","SECT":" ","MAREA":" ","LANE":" ","ALLEY":" ","HOUSE_NO":"５８之６號","E_COORD97":190198.10999999999,"N_COORD97":2583069.54,"ADDRESS":"中山路５８之６號","OBJECTID":524226},"geometry":{"x":190198.11000000127,"y":2583069.5399999991}},{"attributes":{"ID":524254,"DIS_CODE":0,"TOWNNAME":"白河區","LI":"白河里","LIN":"6鄰","STREET":"中山路","SECT":" ","MAREA":" ","LANE":" ","ALLEY":" ","HOUSE_NO":"５８之９號","E_COORD97":190194.54999999999,"N_COORD97":2583059.6099999999,"ADDRESS":"中山路５８之９號","OBJECTID":524227},"geometry":{"x":190194.55000000075,"y":2583059.6100000031}},{"attributes":{"ID":524255,"DIS_CODE":0,"TOWNNAME":"仁德區","LI":"成功里","LIN":"6鄰","STREET":"成功三街","SECT":" ","MAREA":" ","LANE":" ","ALLEY":" ","HOUSE_NO":"３５號","E_COORD97":171174.12,"N_COORD97":2539955.5099999998,"ADDRESS":"成功三街３５號","OBJECTID":524228},"geometry":{"x":171174.12000000197,"y":2539955.5100000035}},{"attributes":{"ID":524256,"DIS_CODE":0,"TOWNNAME":"仁德區","LI":"太子里","LIN":"6鄰","STREET":"長興二街","SECT":" ","MAREA":" ","LANE":" ","ALLEY":" ","HOUSE_NO":"４９號","E_COORD97":174276.95999999999,"N_COORD97":2543687.75,"ADDRESS":"長興二街４９號","OBJECTID":524229},"geometry":{"x":174276.95999999996,"y":2543687.7500000019}},{"attributes":{"ID":524257,"DIS_CODE":0,"TOWNNAME":"仁德區","LI":"成功里","LIN":"6鄰","STREET":"成功三街","SECT":" ","MAREA":" ","LANE":" ","ALLEY":" ","HOUSE_NO":"５１號","E_COORD97":171179.29999999999,"N_COORD97":2539910.77,"ADDRESS":"成功三街５１號","OBJECTID":524230},"geometry":{"x":171179.30000000168,"y":2539910.7700000014}},{"attributes":{"ID":524258,"DIS_CODE":0,"TOWNNAME":"仁德區","LI":"仁德里","LIN":"6鄰","STREET":"仁德三街","SECT":" ","MAREA":" ","LANE":" ","ALLEY":" ","HOUSE_NO":"１５號","E_COORD97":173297.10000000001,"N_COORD97":2540985.5099999998,"ADDRESS":"仁德三街１５號","OBJECTID":524231},"geometry":{"x":173297.09999999963,"y":2540985.5099999998}},{"attributes":{"ID":524259,"DIS_CODE":0,"TOWNNAME":"仁德區","LI":"太子里","LIN":"6鄰","STREET":"長興二街","SECT":" ","MAREA":" ","LANE":" ","ALLEY":" ","HOUSE_NO":"４５號","E_COORD97":174285.17000000001,"N_COORD97":2543688.25,"ADDRESS":"長興二街４５號","OBJECTID":524232},"geometry":{"x":174285.16999999993,"y":2543688.2500000019}},{"attributes":{"ID":524260,"DIS_CODE":0,"TOWNNAME":"仁德區","LI":"太子里","LIN":"6鄰","STREET":"長興二街","SECT":" ","MAREA":" ","LANE":" ","ALLEY":" ","HOUSE_NO":"４７號","E_COORD97":174281.22,"N_COORD97":2543688.25,"ADDRESS":"長興二街４７號","OBJECTID":524233},"geometry":{"x":174281.21999999974,"y":2543688.2500000019}},{"attributes":{"ID":524261,"DIS_CODE":0,"TOWNNAME":"仁德區","LI":"太子里","LIN":"6鄰","STREET":"長興二街","SECT":" ","MAREA":" ","LANE":" ","ALLEY":" ","HOUSE_NO":"５１號","E_COORD97":174272.78,"N_COORD97":2543687.5,"ADDRESS":"長興二街５１號","OBJECTID":524234},"geometry":{"x":174272.78000000119,"y":2543687.5}},{"attributes":{"ID":524262,"DIS_CODE":0,"TOWNNAME":"仁德區","LI":"成功里","LIN":"6鄰","STREET":"保華路","SECT":" ","MAREA":" ","LANE":" ","ALLEY":" ","HOUSE_NO":"１１１號","E_COORD97":171173.03,"N_COORD97":2540053.4900000002,"ADDRESS":"保華路１１１號","OBJECTID":524235},"geometry":{"x":171173.03000000026,"y":2540053.4900000002}},{"attributes":{"ID":524263,"DIS_CODE":0,"TOWNNAME":"仁德區","LI":"太子里","LIN":"6鄰","STREET":"長興二街","SECT":" ","MAREA":" ","LANE":" ","ALLEY":" ","HOUSE_NO":"５７號","E_COORD97":174260.04000000001,"N_COORD97":2543686.75,"ADDRESS":"長興二街５７號","OBJECTID":524236},"geometry":{"x":174260.04000000097,"y":2543686.7499999981}},{"attributes":{"ID":524264,"DIS_CODE":0,"TOWNNAME":"仁德區","LI":"仁德里","LIN":"6鄰","STREET":"中正路","SECT":"二段","MAREA":" ","LANE":" ","ALLEY":" ","HOUSE_NO":"１１１７號","E_COORD97":173356.94,"N_COORD97":2540950.6800000002,"ADDRESS":"中正路二段１１１７號","OBJECTID":524237},"geometry":{"x":173356.94000000041,"y":2540950.6799999997}},{"attributes":{"ID":524265,"DIS_CODE":0,"TOWNNAME":"東區","LI":"東智里","LIN":"6鄰","STREET":"德東街","SECT":" ","MAREA":" ","LANE":" ","ALLEY":" ","HOUSE_NO":"３８號","E_COORD97":170901.64999999999,"N_COORD97":2540234.8399999999,"ADDRESS":"德東街３８號","OBJECTID":524238},"geometry":{"x":170901.6500000013,"y":2540234.8400000036}},{"attributes":{"ID":524266,"DIS_CODE":0,"TOWNNAME":"東區","LI":"崇善里","LIN":"6鄰","STREET":"崇善六街","SECT":" ","MAREA":" ","LANE":" ","ALLEY":" ","HOUSE_NO":"５２號","E_COORD97":171142.72,"N_COORD97":2541533.9300000002,"ADDRESS":"崇善六街５２號","OBJECTID":524239},"geometry":{"x":171142.72000000067,"y":2541533.9300000016}},{"attributes":{"ID":524267,"DIS_CODE":0,"TOWNNAME":"東區","LI":"崇善里","LIN":"6鄰","STREET":"崇善六街","SECT":" ","MAREA":" ","LANE":" ","ALLEY":" ","HOUSE_NO":"７４號","E_COORD97":171186.82999999999,"N_COORD97":2541555.2400000002,"ADDRESS":"崇善六街７４號","OBJECTID":524240},"geometry":{"x":171186.83000000101,"y":2541555.2400000021}},{"attributes":{"ID":524268,"DIS_CODE":0,"TOWNNAME":"東區","LI":"東智里","LIN":"6鄰","STREET":"德東街","SECT":" ","MAREA":" ","LANE":" ","ALLEY":" ","HOUSE_NO":"７３號","E_COORD97":170985.07000000001,"N_COORD97":2540257.8199999998,"ADDRESS":"德東街７３號","OBJECTID":524241},"geometry":{"x":170985.07000000123,"y":2540257.8200000003}},{"attributes":{"ID":524269,"DIS_CODE":0,"TOWNNAME":"東區","LI":"東智里","LIN":"6鄰","STREET":"德東街","SECT":" ","MAREA":" ","LANE":" ","ALLEY":" ","HOUSE_NO":"６２號","E_COORD97":170951.07999999999,"N_COORD97":2540232.9300000002,"ADDRESS":"德東街６２號","OBJECTID":524242},"geometry":{"x":170951.08000000101,"y":2540232.9299999997}},{"attributes":{"ID":524270,"DIS_CODE":0,"TOWNNAME":"東區","LI":"東智里","LIN":"6鄰","STREET":"德東街","SECT":" ","MAREA":" ","LANE":" ","ALLEY":" ","HOUSE_NO":"３４號","E_COORD97":170892.79999999999,"N_COORD97":2540234.8399999999,"ADDRESS":"德東街３４號","OBJECTID":524243},"geometry":{"x":170892.80000000168,"y":2540234.8400000036}},{"attributes":{"ID":524271,"DIS_CODE":0,"TOWNNAME":"東區","LI":"東智里","LIN":"6鄰","STREET":"德東街","SECT":" ","MAREA":" ","LANE":" ","ALLEY":" ","HOUSE_NO":"３６號","E_COORD97":170897.54000000001,"N_COORD97":2540234.8399999999,"ADDRESS":"德東街３６號","OBJECTID":524244},"geometry":{"x":170897.54000000004,"y":2540234.8400000036}},{"attributes":{"ID":524272,"DIS_CODE":0,"TOWNNAME":"東區","LI":"崇善里","LIN":"6鄰","STREET":"崇善六街","SECT":" ","MAREA":" ","LANE":" ","ALLEY":" ","HOUSE_NO":"４７號","E_COORD97":171135.84,"N_COORD97":2541553.8700000001,"ADDRESS":"崇善六街４７號","OBJECTID":524245},"geometry":{"x":171135.84000000078,"y":2541553.870000001}},{"attributes":{"ID":524273,"DIS_CODE":0,"TOWNNAME":"仁德區","LI":"太子里","LIN":"6鄰","STREET":"長興二街","SECT":" ","MAREA":" ","LANE":" ","ALLEY":" ","HOUSE_NO":"４３號","E_COORD97":174289.12,"N_COORD97":2543688.75,"ADDRESS":"長興二街４３號","OBJECTID":524246},"geometry":{"x":174289.12000000011,"y":2543688.75}},{"attributes":{"ID":524274,"DIS_CODE":0,"TOWNNAME":"仁德區","LI":"太子里","LIN":"6鄰","STREET":"長興二街","SECT":" ","MAREA":" ","LANE":" ","ALLEY":" ","HOUSE_NO":"６７號","E_COORD97":174228.28,"N_COORD97":2543685.5,"ADDRESS":"長興二街６７號","OBJECTID":524247},"geometry":{"x":174228.28000000119,"y":2543685.5000000019}},{"attributes":{"ID":524275,"DIS_CODE":0,"TOWNNAME":"仁德區","LI":"保安里","LIN":"6鄰","STREET":"文賢路","SECT":"一段","MAREA":" ","LANE":" ","ALLEY":" ","HOUSE_NO":"７１７號","E_COORD97":171449.98000000001,"N_COORD97":2536326.8199999998,"ADDRESS":"文賢路一段７１７號","OBJECTID":524248},"geometry":{"x":171449.98000000231,"y":2536326.8200000022}},{"attributes":{"ID":524276,"DIS_CODE":0,"TOWNNAME":"仁德區","LI":"成功里","LIN":"6鄰","STREET":"成功三街","SECT":" ","MAREA":" ","LANE":" ","ALLEY":" ","HOUSE_NO":"３１號","E_COORD97":171174.53,"N_COORD97":2539964.7599999998,"ADDRESS":"成功三街３１號","OBJECTID":524249},"geometry":{"x":171174.53000000026,"y":2539964.7600000016}},{"attributes":{"ID":524277,"DIS_CODE":0,"TOWNNAME":"仁德區","LI":"後壁里","LIN":"6鄰","STREET":"德善路","SECT":" ","MAREA":" ","LANE":" ","ALLEY":" ","HOUSE_NO":"１７３號","E_COORD97":173592.62,"N_COORD97":2538813.0099999998,"ADDRESS":"德善路１７３號","OBJECTID":524250},"geometry":{"x":173592.62000000011,"y":2538813.0100000035}},{"attributes":{"ID":524278,"DIS_CODE":0,"TOWNNAME":"仁德區","LI":"成功里","LIN":"6鄰","STREET":"成功三街","SECT":" ","MAREA":" ","LANE":" ","ALLEY":" ","HOUSE_NO":"９號","E_COORD97":171170.60000000001,"N_COORD97":2540020.02,"ADDRESS":"成功三街９號","OBJECTID":524251},"geometry":{"x":171170.60000000056,"y":2540020.0200000014}},{"attributes":{"ID":524279,"DIS_CODE":0,"TOWNNAME":"仁德區","LI":"成功里","LIN":"6鄰","STREET":"成功三街","SECT":" ","MAREA":" ","LANE":" ","ALLEY":" ","HOUSE_NO":"５號","E_COORD97":171169.39000000001,"N_COORD97":2540029.77,"ADDRESS":"成功三街５號","OBJECTID":524252},"geometry":{"x":171169.38999999966,"y":2540029.7700000014}},{"attributes":{"ID":524280,"DIS_CODE":0,"TOWNNAME":"仁德區","LI":"成功里","LIN":"6鄰","STREET":"成功三街","SECT":" ","MAREA":" ","LANE":" ","ALLEY":" ","HOUSE_NO":"３號","E_COORD97":171169.25,"N_COORD97":2540035.0099999998,"ADDRESS":"成功三街３號","OBJECTID":524253},"geometry":{"x":171169.25,"y":2540035.0100000016}},{"attributes":{"ID":524281,"DIS_CODE":0,"TOWNNAME":"東區","LI":"德高里","LIN":"6鄰","STREET":"德高街","SECT":" ","MAREA":" ","LANE":" ","ALLEY":" ","HOUSE_NO":"６３號","E_COORD97":171499.31,"N_COORD97":2540827.6200000001,"ADDRESS":"德高街６３號","OBJECTID":524254},"geometry":{"x":171499.30999999866,"y":2540827.6200000048}},{"attributes":{"ID":524282,"DIS_CODE":0,"TOWNNAME":"安南區","LI":"理想里","LIN":"6鄰","STREET":"海佃路","SECT":"二段","MAREA":" ","LANE":" ","ALLEY":" ","HOUSE_NO":"２８２號","E_COORD97":166908.76999999999,"N_COORD97":2548453.96,"ADDRESS":"海佃路二段２８２號","OBJECTID":524255},"geometry":{"x":166908.76999999955,"y":2548453.9600000028}},{"attributes":{"ID":524283,"DIS_CODE":0,"TOWNNAME":"安南區","LI":"溪東里","LIN":"6鄰","STREET":"府安路","SECT":"五段","MAREA":" ","LANE":" ","ALLEY":" ","HOUSE_NO":"４９號","E_COORD97":168309.28,"N_COORD97":2547200.3399999999,"ADDRESS":"府安路五段４９號","OBJECTID":524256},"geometry":{"x":168309.28000000026,"y":2547200.3399999999}},{"attributes":{"ID":524284,"DIS_CODE":0,"TOWNNAME":"安南區","LI":"溪東里","LIN":"6鄰","STREET":"府安路","SECT":"五段","MAREA":" ","LANE":" ","ALLEY":" ","HOUSE_NO":"５０號","E_COORD97":168305.92000000001,"N_COORD97":2547196.2400000002,"ADDRESS":"府安路五段５０號","OBJECTID":524257},"geometry":{"x":168305.92000000086,"y":2547196.2400000039}},{"attributes":{"ID":524285,"DIS_CODE":0,"TOWNNAME":"安南區","LI":"溪東里","LIN":"6鄰","STREET":"府安路","SECT":"五段","MAREA":" ","LANE":" ","ALLEY":" ","HOUSE_NO":"５１號","E_COORD97":168301.25,"N_COORD97":2547199.9700000002,"ADDRESS":"府安路五段５１號","OBJECTID":524258},"geometry":{"x":168301.25,"y":2547199.9700000025}},{"attributes":{"ID":524286,"DIS_CODE":0,"TOWNNAME":"安南區","LI":"溪東里","LIN":"6鄰","STREET":"府安路","SECT":"五段","MAREA":" ","LANE":" ","ALLEY":" ","HOUSE_NO":"５２號","E_COORD97":168293.59,"N_COORD97":2547196.7999999998,"ADDRESS":"府安路五段５２號","OBJECTID":524259},"geometry":{"x":168293.58999999985,"y":2547196.8000000026}},{"attributes":{"ID":524287,"DIS_CODE":0,"TOWNNAME":"南區","LI":"日新里","LIN":" ","STREET":"金華路","SECT":"一段","MAREA":" ","LANE":" ","ALLEY":" ","HOUSE_NO":"４６１號","E_COORD97":166997.64000000001,"N_COORD97":2541376.2599999998,"ADDRESS":"金華路一段４６１號","OBJECTID":524260},"geometry":{"x":166997.63999999966,"y":2541376.2599999998}},{"attributes":{"ID":524288,"DIS_CODE":0,"TOWNNAME":"安南區","LI":"溪東里","LIN":"6鄰","STREET":"府安路","SECT":"五段","MAREA":" ","LANE":" ","ALLEY":" ","HOUSE_NO":"５７號","E_COORD97":168279.82999999999,"N_COORD97":2547196.2000000002,"ADDRESS":"府安路五段５７號","OBJECTID":524261},"geometry":{"x":168279.83000000007,"y":2547196.2000000011}},{"attributes":{"ID":524289,"DIS_CODE":0,"TOWNNAME":"安南區","LI":"溪東里","LIN":"6鄰","STREET":"府安路","SECT":"五段","MAREA":" ","LANE":" ","ALLEY":" ","HOUSE_NO":"５８號","E_COORD97":168275.87,"N_COORD97":2547192.1400000001,"ADDRESS":"府安路五段５８號","OBJECTID":524262},"geometry":{"x":168275.87000000104,"y":2547192.1400000025}},{"attributes":{"ID":524290,"DIS_CODE":0,"TOWNNAME":"安南區","LI":"溪東里","LIN":"6鄰","STREET":"府安路","SECT":"五段","MAREA":" ","LANE":" ","ALLEY":" ","HOUSE_NO":"５９號","E_COORD97":168270.37,"N_COORD97":2547195.7599999998,"ADDRESS":"府安路五段５９號","OBJECTID":524263},"geometry":{"x":168270.37000000197,"y":2547195.7600000035}},{"attributes":{"ID":524291,"DIS_CODE":0,"TOWNNAME":"安南區","LI":"溪東里","LIN":"6鄰","STREET":"府安路","SECT":"五段","MAREA":" ","LANE":" ","ALLEY":" ","HOUSE_NO":"６０號","E_COORD97":168267.51000000001,"N_COORD97":2547190.71,"ADDRESS":"府安路五段６０號","OBJECTID":524264},"geometry":{"x":168267.51000000071,"y":2547190.7100000028}},{"attributes":{"ID":524292,"DIS_CODE":0,"TOWNNAME":"安南區","LI":"溪東里","LIN":"6鄰","STREET":"府安路","SECT":"五段","MAREA":" ","LANE":" ","ALLEY":" ","HOUSE_NO":"６１號","E_COORD97":168261.89999999999,"N_COORD97":2547193.23,"ADDRESS":"府安路五段６１號","OBJECTID":524265},"geometry":{"x":168261.90000000224,"y":2547193.2300000042}},{"attributes":{"ID":524293,"DIS_CODE":0,"TOWNNAME":"安南區","LI":"溪東里","LIN":"6鄰","STREET":"府安路","SECT":"五段","MAREA":" ","LANE":" ","ALLEY":" ","HOUSE_NO":"６２號","E_COORD97":168257.28,"N_COORD97":2547191.1499999999,"ADDRESS":"府安路五段６２號","OBJECTID":524266},"geometry":{"x":168257.28000000026,"y":2547191.1500000022}},{"attributes":{"ID":524294,"DIS_CODE":0,"TOWNNAME":"安南區","LI":"溪東里","LIN":"6鄰","STREET":"府安路","SECT":"五段","MAREA":" ","LANE":" ","ALLEY":" ","HOUSE_NO":"６３號","E_COORD97":168253,"N_COORD97":2547188.29,"ADDRESS":"府安路五段６３號","OBJECTID":524267},"geometry":{"x":168253.00000000093,"y":2547188.290000001}},{"attributes":{"ID":524295,"DIS_CODE":0,"TOWNNAME":"安南區","LI":"溪東里","LIN":"6鄰","STREET":"府安路","SECT":"五段","MAREA":" ","LANE":" ","ALLEY":" ","HOUSE_NO":"６８號","E_COORD97":168214.73000000001,"N_COORD97":2547182.3799999999,"ADDRESS":"府安路五段６８號","OBJECTID":524268},"geometry":{"x":168214.73000000138,"y":2547182.379999999}},{"attributes":{"ID":524296,"DIS_CODE":0,"TOWNNAME":"中西區","LI":"藥王里","LIN":"6鄰","STREET":"大新街","SECT":" ","MAREA":" ","LANE":" ","ALLEY":" ","HOUSE_NO":"６４號","E_COORD97":167192.45000000001,"N_COORD97":2544444.2200000002,"ADDRESS":"大新街６４號","OBJECTID":524269},"geometry":{"x":167192.45000000112,"y":2544444.2200000025}},{"attributes":{"ID":524297,"DIS_CODE":0,"TOWNNAME":"中西區","LI":"藥王里","LIN":"6鄰","STREET":"大新街","SECT":" ","MAREA":" ","LANE":" ","ALLEY":" ","HOUSE_NO":"６６號","E_COORD97":167194.37,"N_COORD97":2544448.7000000002,"ADDRESS":"大新街６６號","OBJECTID":524270},"geometry":{"x":167194.37000000104,"y":2544448.6999999993}},{"attributes":{"ID":524298,"DIS_CODE":0,"TOWNNAME":"中西區","LI":"藥王里","LIN":"6鄰","STREET":"大新街","SECT":" ","MAREA":" ","LANE":" ","ALLEY":" ","HOUSE_NO":"６８號","E_COORD97":167196.72,"N_COORD97":2544452.9700000002,"ADDRESS":"大新街６８號","OBJECTID":524271},"geometry":{"x":167196.72000000067,"y":2544452.9700000025}},{"attributes":{"ID":524299,"DIS_CODE":0,"TOWNNAME":"中西區","LI":"藥王里","LIN":"6鄰","STREET":"大新街","SECT":" ","MAREA":" ","LANE":" ","ALLEY":" ","HOUSE_NO":"７０號","E_COORD97":167198,"N_COORD97":2544457.0299999998,"ADDRESS":"大新街７０號","OBJECTID":524272},"geometry":{"x":167198.00000000186,"y":2544457.0299999993}},{"attributes":{"ID":524300,"DIS_CODE":0,"TOWNNAME":"中西區","LI":"藥王里","LIN":"6鄰","STREET":"大新街","SECT":" ","MAREA":" ","LANE":" ","ALLEY":" ","HOUSE_NO":"７６號","E_COORD97":167201.20000000001,"N_COORD97":2544473.5600000001,"ADDRESS":"大新街７６號","OBJECTID":524273},"geometry":{"x":167201.20000000019,"y":2544473.5600000024}},{"attributes":{"ID":524301,"DIS_CODE":0,"TOWNNAME":"中西區","LI":"藥王里","LIN":"6鄰","STREET":"大新街","SECT":" ","MAREA":" ","LANE":" ","ALLEY":" ","HOUSE_NO":"８０號","E_COORD97":167205.48000000001,"N_COORD97":2544482.3199999998,"ADDRESS":"大新街８０號","OBJECTID":524274},"geometry":{"x":167205.48000000138,"y":2544482.3200000003}},{"attributes":{"ID":524302,"DIS_CODE":0,"TOWNNAME":"中西區","LI":"藥王里","LIN":"6鄰","STREET":"民族路","SECT":"三段","MAREA":" ","LANE":" ","ALLEY":" ","HOUSE_NO":"２５３號","E_COORD97":167292.82999999999,"N_COORD97":2544473,"ADDRESS":"民族路三段２５３號","OBJECTID":524275},"geometry":{"x":167292.83000000101,"y":2544473.0000000019}},{"attributes":{"ID":524303,"DIS_CODE":0,"TOWNNAME":"中西區","LI":"藥王里","LIN":"6鄰","STREET":"民族路","SECT":"三段","MAREA":" ","LANE":" ","ALLEY":" ","HOUSE_NO":"２５９號","E_COORD97":167278.01999999999,"N_COORD97":2544479.4700000002,"ADDRESS":"民族路三段２５９號","OBJECTID":524276},"geometry":{"x":167278.01999999955,"y":2544479.4700000044}},{"attributes":{"ID":524304,"DIS_CODE":0,"TOWNNAME":"中西區","LI":"藥王里","LIN":"6鄰","STREET":"民族路","SECT":"三段","MAREA":" ","LANE":" ","ALLEY":" ","HOUSE_NO":"２６１號","E_COORD97":167272.5,"N_COORD97":2544480.6800000002,"ADDRESS":"民族路三段２６１號","OBJECTID":524277},"geometry":{"x":167272.50000000186,"y":2544480.6800000034}},{"attributes":{"ID":524305,"DIS_CODE":0,"TOWNNAME":"中西區","LI":"藥王里","LIN":"6鄰","STREET":"民族路","SECT":"三段","MAREA":" ","LANE":" ","ALLEY":" ","HOUSE_NO":"２６３號","E_COORD97":167267.89999999999,"N_COORD97":2544481.4100000001,"ADDRESS":"民族路三段２６３號","OBJECTID":524278},"geometry":{"x":167267.90000000037,"y":2544481.4100000001}},{"attributes":{"ID":524306,"DIS_CODE":0,"TOWNNAME":"中西區","LI":"藥王里","LIN":"6鄰","STREET":"民族路","SECT":"三段","MAREA":" ","LANE":" ","ALLEY":" ","HOUSE_NO":"２６５號","E_COORD97":167262.32999999999,"N_COORD97":2544483.1000000001,"ADDRESS":"民族路三段２６５號","OBJECTID":524279},"geometry":{"x":167262.33000000101,"y":2544483.0999999996}},{"attributes":{"ID":524307,"DIS_CODE":0,"TOWNNAME":"中西區","LI":"藥王里","LIN":"6鄰","STREET":"民族路","SECT":"三段","MAREA":" ","LANE":" ","ALLEY":" ","HOUSE_NO":"２６７號","E_COORD97":167257.98000000001,"N_COORD97":2544485.04,"ADDRESS":"民族路三段２６７號","OBJECTID":524280},"geometry":{"x":167257.98000000138,"y":2544485.040000001}},{"attributes":{"ID":524308,"DIS_CODE":0,"TOWNNAME":"中西區","LI":"藥王里","LIN":"6鄰","STREET":"民族路","SECT":"三段","MAREA":" ","LANE":" ","ALLEY":" ","HOUSE_NO":"２６９號","E_COORD97":167253.62,"N_COORD97":2544487.21,"ADDRESS":"民族路三段２６９號","OBJECTID":524281},"geometry":{"x":167253.62000000104,"y":2544487.2100000009}},{"attributes":{"ID":524309,"DIS_CODE":0,"TOWNNAME":"中西區","LI":"藥王里","LIN":"6鄰","STREET":"民族路","SECT":"三段","MAREA":" ","LANE":" ","ALLEY":" ","HOUSE_NO":"２７１號","E_COORD97":167249.26000000001,"N_COORD97":2544489.1499999999,"ADDRESS":"民族路三段２７１號","OBJECTID":524282},"geometry":{"x":167249.26000000071,"y":2544489.1500000022}},{"attributes":{"ID":524310,"DIS_CODE":0,"TOWNNAME":"中西區","LI":"藥王里","LIN":"6鄰","STREET":"民族路","SECT":"三段","MAREA":" ","LANE":" ","ALLEY":" ","HOUSE_NO":"２７３號","E_COORD97":167244.67000000001,"N_COORD97":2544491.5699999998,"ADDRESS":"民族路三段２７３號","OBJECTID":524283},"geometry":{"x":167244.67000000086,"y":2544491.5700000003}},{"attributes":{"ID":524311,"DIS_CODE":0,"TOWNNAME":"中西區","LI":"藥王里","LIN":"6鄰","STREET":"民族路","SECT":"三段","MAREA":" ","LANE":" ","ALLEY":" ","HOUSE_NO":"２７５號","E_COORD97":167240.79000000001,"N_COORD97":2544492.0499999998,"ADDRESS":"民族路三段２７５號","OBJECTID":524284},"geometry":{"x":167240.79000000097,"y":2544492.0500000007}},{"attributes":{"ID":524312,"DIS_CODE":0,"TOWNNAME":"中西區","LI":"藥王里","LIN":"6鄰","STREET":"民族路","SECT":"三段","MAREA":" ","LANE":" ","ALLEY":" ","HOUSE_NO":"２７７號","E_COORD97":167233.29000000001,"N_COORD97":2544493.9900000002,"ADDRESS":"民族路三段２７７號","OBJECTID":524285},"geometry":{"x":167233.2900000019,"y":2544493.9900000021}},{"attributes":{"ID":524313,"DIS_CODE":0,"TOWNNAME":"中西區","LI":"藥王里","LIN":"6鄰","STREET":"民族路","SECT":"三段","MAREA":" ","LANE":" ","ALLEY":" ","HOUSE_NO":"２７９號","E_COORD97":167225.56,"N_COORD97":2544494.9100000001,"ADDRESS":"民族路三段２７９號","OBJECTID":524286},"geometry":{"x":167225.55999999959,"y":2544494.9100000001}},{"attributes":{"ID":524314,"DIS_CODE":0,"TOWNNAME":"中西區","LI":"藥王里","LIN":"6鄰","STREET":"民族路","SECT":"三段","MAREA":" ","LANE":" ","ALLEY":" ","HOUSE_NO":"２８１號","E_COORD97":167220.85999999999,"N_COORD97":2544496.1899999999,"ADDRESS":"民族路三段２８１號","OBJECTID":524287},"geometry":{"x":167220.86000000034,"y":2544496.1899999995}},{"attributes":{"ID":524315,"DIS_CODE":0,"TOWNNAME":"中西區","LI":"藥王里","LIN":"6鄰","STREET":"民族路","SECT":"三段","MAREA":" ","LANE":" ","ALLEY":" ","HOUSE_NO":"２８３號","E_COORD97":167216.57999999999,"N_COORD97":2544498.75,"ADDRESS":"民族路三段２８３號","OBJECTID":524288},"geometry":{"x":167216.58000000101,"y":2544498.7500000019}},{"attributes":{"ID":524316,"DIS_CODE":0,"TOWNNAME":"中西區","LI":"藥王里","LIN":"6鄰","STREET":"民族路","SECT":"三段","MAREA":" ","LANE":" ","ALLEY":" ","HOUSE_NO":"２８５號","E_COORD97":167211.45999999999,"N_COORD97":2544500.0299999998,"ADDRESS":"民族路三段２８５號","OBJECTID":524289},"geometry":{"x":167211.45999999996,"y":2544500.0299999993}},{"attributes":{"ID":524317,"DIS_CODE":0,"TOWNNAME":"中西區","LI":"藥王里","LIN":"6鄰","STREET":"民族路","SECT":"三段","MAREA":" ","LANE":" ","ALLEY":" ","HOUSE_NO":"２８７號","E_COORD97":167207.19,"N_COORD97":2544500.25,"ADDRESS":"民族路三段２８７號","OBJECTID":524290},"geometry":{"x":167207.19000000227,"y":2544500.25}},{"attributes":{"ID":524318,"DIS_CODE":0,"TOWNNAME":"中西區","LI":"西賢里","LIN":"6鄰","STREET":"湖美街","SECT":" ","MAREA":" ","LANE":" ","ALLEY":" ","HOUSE_NO":"２３９號","E_COORD97":165901.60999999999,"N_COORD97":2544987.2400000002,"ADDRESS":"湖美街２３９號","OBJECTID":524291},"geometry":{"x":165901.61000000034,"y":2544987.2400000021}},{"attributes":{"ID":524319,"DIS_CODE":0,"TOWNNAME":"永康區","LI":"勝利里","LIN":"6鄰","STREET":"勝學路","SECT":" ","MAREA":" ","LANE":" ","ALLEY":" ","HOUSE_NO":"１７號","E_COORD97":171150.01000000001,"N_COORD97":2544609.5,"ADDRESS":"勝學路１７號","OBJECTID":524292},"geometry":{"x":171150.00999999978,"y":2544609.5}},{"attributes":{"ID":524320,"DIS_CODE":0,"TOWNNAME":"永康區","LI":"勝利里","LIN":"6鄰","STREET":"勝學路","SECT":" ","MAREA":" ","LANE":" ","ALLEY":" ","HOUSE_NO":"２８號","E_COORD97":171161.31,"N_COORD97":2544623.5,"ADDRESS":"勝學路２８號","OBJECTID":524293},"geometry":{"x":171161.30999999959,"y":2544623.5}},{"attributes":{"ID":524321,"DIS_CODE":0,"TOWNNAME":"永康區","LI":"勝利里","LIN":"6鄰","STREET":"勝學路","SECT":" ","MAREA":" ","LANE":" ","ALLEY":" ","HOUSE_NO":"２１號","E_COORD97":171146.64999999999,"N_COORD97":2544619.25,"ADDRESS":"勝學路２１號","OBJECTID":524294},"geometry":{"x":171146.65000000037,"y":2544619.2500000037}},{"attributes":{"ID":524322,"DIS_CODE":0,"TOWNNAME":"永康區","LI":"勝利里","LIN":"6鄰","STREET":"勝學路","SECT":" ","MAREA":" ","LANE":" ","ALLEY":" ","HOUSE_NO":"２７號","E_COORD97":171140.98999999999,"N_COORD97":2544633.75,"ADDRESS":"勝學路２７號","OBJECTID":524295},"geometry":{"x":171140.99000000022,"y":2544633.7500000019}},{"attributes":{"ID":524323,"DIS_CODE":0,"TOWNNAME":"永康區","LI":"勝利里","LIN":"6鄰","STREET":"勝學路","SECT":" ","MAREA":" ","LANE":" ","ALLEY":" ","HOUSE_NO":"１６號","E_COORD97":171168.03,"N_COORD97":2544603.75,"ADDRESS":"勝學路１６號","OBJECTID":524296},"geometry":{"x":171168.03000000212,"y":2544603.7500000019}},{"attributes":{"ID":524324,"DIS_CODE":0,"TOWNNAME":"永康區","LI":"勝利里","LIN":"6鄰","STREET":"勝學路","SECT":" ","MAREA":" ","LANE":" ","ALLEY":" ","HOUSE_NO":"１８號","E_COORD97":171167.12,"N_COORD97":2544608,"ADDRESS":"勝學路１８號","OBJECTID":524297},"geometry":{"x":171167.12000000011,"y":2544608.0000000019}},{"attributes":{"ID":524325,"DIS_CODE":0,"TOWNNAME":"南區","LI":"田寮里","LIN":"5鄰","STREET":"新興路","SECT":" ","MAREA":" ","LANE":" ","ALLEY":" ","HOUSE_NO":"２２１號","E_COORD97":167300.76000000001,"N_COORD97":2541947.9900000002,"ADDRESS":"新興路２２１號","OBJECTID":524298},"geometry":{"x":167300.75999999978,"y":2541947.9900000002}},{"attributes":{"ID":524326,"DIS_CODE":0,"TOWNNAME":"南區","LI":"田寮里","LIN":"5鄰","STREET":"新興路","SECT":" ","MAREA":" ","LANE":" ","ALLEY":" ","HOUSE_NO":"２２３號","E_COORD97":167304.17999999999,"N_COORD97":2541950.5499999998,"ADDRESS":"新興路２２３號","OBJECTID":524299},"geometry":{"x":167304.1799999997,"y":2541950.5500000026}},{"attributes":{"ID":524327,"DIS_CODE":0,"TOWNNAME":"南區","LI":"田寮里","LIN":"5鄰","STREET":"新興路","SECT":" ","MAREA":" ","LANE":" ","ALLEY":" ","HOUSE_NO":"２２５號","E_COORD97":167308.67999999999,"N_COORD97":2541953.3300000001,"ADDRESS":"新興路２２５號","OBJECTID":524300},"geometry":{"x":167308.68000000063,"y":2541953.3300000001}},{"attributes":{"ID":524328,"DIS_CODE":0,"TOWNNAME":"南區","LI":"田寮里","LIN":"5鄰","STREET":"新興路","SECT":" ","MAREA":" ","LANE":" ","ALLEY":" ","HOUSE_NO":"２２７號","E_COORD97":167311.89000000001,"N_COORD97":2541956.5299999998,"ADDRESS":"新興路２２７號","OBJECTID":524301},"geometry":{"x":167311.89000000153,"y":2541956.5300000012}},{"attributes":{"ID":524329,"DIS_CODE":0,"TOWNNAME":"永康區","LI":"勝利里","LIN":"6鄰","STREET":"勝學路","SECT":" ","MAREA":" ","LANE":" ","ALLEY":" ","HOUSE_NO":"１２號","E_COORD97":171169.39999999999,"N_COORD97":2544600.25,"ADDRESS":"勝學路１２號","OBJECTID":524302},"geometry":{"x":171169.4000000013,"y":2544600.2500000019}},{"attributes":{"ID":524330,"DIS_CODE":0,"TOWNNAME":"永康區","LI":"勝利里","LIN":"6鄰","STREET":"勝學路","SECT":" ","MAREA":" ","LANE":" ","ALLEY":" ","HOUSE_NO":"３號","E_COORD97":171159.29000000001,"N_COORD97":2544581.5099999998,"ADDRESS":"勝學路３號","OBJECTID":524303},"geometry":{"x":171159.2900000019,"y":2544581.5100000016}},{"attributes":{"ID":524331,"DIS_CODE":0,"TOWNNAME":"永康區","LI":"勝利里","LIN":"6鄰","STREET":"勝學路","SECT":" ","MAREA":" ","LANE":" ","ALLEY":" ","HOUSE_NO":"３３號","E_COORD97":171139.01000000001,"N_COORD97":2544650.0099999998,"ADDRESS":"勝學路３３號","OBJECTID":524304},"geometry":{"x":171139.01000000164,"y":2544650.0099999998}},{"attributes":{"ID":524332,"DIS_CODE":0,"TOWNNAME":"永康區","LI":"復國里","LIN":"6鄰","STREET":"復國一路","SECT":" ","MAREA":" ","LANE":" ","ALLEY":" ","HOUSE_NO":"１１８號","E_COORD97":172728.45000000001,"N_COORD97":2544995.0299999998,"ADDRESS":"復國一路１１８號","OBJECTID":524305},"geometry":{"x":172728.45000000112,"y":2544995.0299999993}},{"attributes":{"ID":524333,"DIS_CODE":0,"TOWNNAME":"永康區","LI":"勝利里","LIN":"6鄰","STREET":"勝學路","SECT":" ","MAREA":" ","LANE":" ","ALLEY":" ","HOUSE_NO":"２號","E_COORD97":171173.48999999999,"N_COORD97":2544585.2599999998,"ADDRESS":"勝學路２號","OBJECTID":524306},"geometry":{"x":171173.49000000209,"y":2544585.2600000035}},{"attributes":{"ID":524334,"DIS_CODE":0,"TOWNNAME":"東區","LI":"崇善里","LIN":"6鄰","STREET":"崇善六街","SECT":" ","MAREA":" ","LANE":" ","ALLEY":" ","HOUSE_NO":"２０號之１","E_COORD97":171087.82000000001,"N_COORD97":2541506.7999999998,"ADDRESS":"崇善六街２０號之１","OBJECTID":524307},"geometry":{"x":171087.8200000003,"y":2541506.8000000007}},{"attributes":{"ID":524335,"DIS_CODE":0,"TOWNNAME":"東區","LI":"崇善里","LIN":"6鄰","STREET":"崇善六街","SECT":" ","MAREA":" ","LANE":" ","ALLEY":" ","HOUSE_NO":"２０號之６","E_COORD97":171095.79999999999,"N_COORD97":2541491.0600000001,"ADDRESS":"崇善六街２０號之６","OBJECTID":524308},"geometry":{"x":171095.79999999981,"y":2541491.0600000005}},{"attributes":{"ID":524336,"DIS_CODE":0,"TOWNNAME":"東區","LI":"崇善里","LIN":"6鄰","STREET":"崇善六街","SECT":" ","MAREA":" ","LANE":" ","ALLEY":" ","HOUSE_NO":"２０號之７","E_COORD97":171097.82000000001,"N_COORD97":2541487.3300000001,"ADDRESS":"崇善六街２０號之７","OBJECTID":524309},"geometry":{"x":171097.8200000003,"y":2541487.3300000019}},{"attributes":{"ID":524337,"DIS_CODE":0,"TOWNNAME":"東區","LI":"崇善里","LIN":"6鄰","STREET":"崇善六街","SECT":" ","MAREA":" ","LANE":" ","ALLEY":" ","HOUSE_NO":"２０號之８","E_COORD97":171099.64000000001,"N_COORD97":2541483.29,"ADDRESS":"崇善六街２０號之８","OBJECTID":524310},"geometry":{"x":171099.6400000006,"y":2541483.290000001}},{"attributes":{"ID":524338,"DIS_CODE":0,"TOWNNAME":"東區","LI":"崇善里","LIN":"6鄰","STREET":"崇善六街","SECT":" ","MAREA":" ","LANE":" ","ALLEY":" ","HOUSE_NO":"２０號之９","E_COORD97":171101.25,"N_COORD97":2541478.8599999999,"ADDRESS":"崇善六街２０號之９","OBJECTID":524311},"geometry":{"x":171101.25,"y":2541478.8600000013}},{"attributes":{"ID":524339,"DIS_CODE":0,"TOWNNAME":"東區","LI":"崇善里","LIN":"6鄰","STREET":"崇善六街","SECT":" ","MAREA":" ","LANE":" ","ALLEY":" ","HOUSE_NO":"２２號","E_COORD97":171104.45000000001,"N_COORD97":2541519.5299999998,"ADDRESS":"崇善六街２２號","OBJECTID":524312},"geometry":{"x":171104.45000000112,"y":2541519.5300000012}},{"attributes":{"ID":524340,"DIS_CODE":0,"TOWNNAME":"東區","LI":"崇善里","LIN":"6鄰","STREET":"崇善六街","SECT":" ","MAREA":" ","LANE":" ","ALLEY":" ","HOUSE_NO":"２２號之１","E_COORD97":171105.73000000001,"N_COORD97":2541515.9500000002,"ADDRESS":"崇善六街２２號之１","OBJECTID":524313},"geometry":{"x":171105.73000000045,"y":2541515.9500000011}},{"attributes":{"ID":524341,"DIS_CODE":0,"TOWNNAME":"東區","LI":"崇善里","LIN":"6鄰","STREET":"崇善六街","SECT":" ","MAREA":" ","LANE":" ","ALLEY":" ","HOUSE_NO":"２２號之５","E_COORD97":171109.31,"N_COORD97":2541502.29,"ADDRESS":"崇善六街２２號之５","OBJECTID":524314},"geometry":{"x":171109.30999999959,"y":2541502.2900000028}},{"attributes":{"ID":524342,"DIS_CODE":0,"TOWNNAME":"東區","LI":"崇善里","LIN":"6鄰","STREET":"崇善六街","SECT":" ","MAREA":" ","LANE":" ","ALLEY":" ","HOUSE_NO":"２２號之６","E_COORD97":171111.06,"N_COORD97":2541498.8999999999,"ADDRESS":"崇善六街２２號之６","OBJECTID":524315},"geometry":{"x":171111.05999999959,"y":2541498.9000000004}},{"attributes":{"ID":524343,"DIS_CODE":0,"TOWNNAME":"東區","LI":"崇善里","LIN":"6鄰","STREET":"崇善六街","SECT":" ","MAREA":" ","LANE":" ","ALLEY":" ","HOUSE_NO":"２２號之７","E_COORD97":171113.07999999999,"N_COORD97":2541495.3199999998,"ADDRESS":"崇善六街２２號之７","OBJECTID":524316},"geometry":{"x":171113.08000000007,"y":2541495.3200000003}},{"attributes":{"ID":524344,"DIS_CODE":0,"TOWNNAME":"東區","LI":"崇善里","LIN":"6鄰","STREET":"崇善六街","SECT":" ","MAREA":" ","LANE":" ","ALLEY":" ","HOUSE_NO":"２２號之８","E_COORD97":171114.98000000001,"N_COORD97":2541491.1600000001,"ADDRESS":"崇善六街２２號之８","OBJECTID":524317},"geometry":{"x":171114.98000000138,"y":2541491.160000002}},{"attributes":{"ID":524345,"DIS_CODE":0,"TOWNNAME":"東區","LI":"崇善里","LIN":"6鄰","STREET":"崇善六街","SECT":" ","MAREA":" ","LANE":" ","ALLEY":" ","HOUSE_NO":"２０號之３","E_COORD97":171091.56,"N_COORD97":2541498.52,"ADDRESS":"崇善六街２０號之３","OBJECTID":524318},"geometry":{"x":171091.56000000052,"y":2541498.5200000014}},{"attributes":{"ID":524346,"DIS_CODE":0,"TOWNNAME":"東區","LI":"崇善里","LIN":"6鄰","STREET":"崇善六街","SECT":" ","MAREA":" ","LANE":" ","ALLEY":" ","HOUSE_NO":"２２號之３","E_COORD97":171110.41,"N_COORD97":2541508.0699999998,"ADDRESS":"崇善六街２２號之３","OBJECTID":524319},"geometry":{"x":171110.41000000015,"y":2541508.0700000003}},{"attributes":{"ID":524347,"DIS_CODE":0,"TOWNNAME":"東區","LI":"崇善里","LIN":"6鄰","STREET":"崇善六街","SECT":" ","MAREA":" ","LANE":" ","ALLEY":" ","HOUSE_NO":"２２號之９","E_COORD97":171116.70000000001,"N_COORD97":2541487.1299999999,"ADDRESS":"崇善六街２２號之９","OBJECTID":524320},"geometry":{"x":171116.70000000112,"y":2541487.1300000008}},{"attributes":{"ID":524348,"DIS_CODE":0,"TOWNNAME":"東區","LI":"崇善里","LIN":"6鄰","STREET":"崇善六街","SECT":" ","MAREA":" ","LANE":" ","ALLEY":" ","HOUSE_NO":"２０號之２","E_COORD97":171089.54000000001,"N_COORD97":2541502.7599999998,"ADDRESS":"崇善六街２０號之２","OBJECTID":524321},"geometry":{"x":171089.54000000004,"y":2541502.7599999998}},{"attributes":{"ID":524349,"DIS_CODE":0,"TOWNNAME":"東區","LI":"崇善里","LIN":"6鄰","STREET":"崇善六街","SECT":" ","MAREA":" ","LANE":" ","ALLEY":" ","HOUSE_NO":"２２號之２","E_COORD97":171108.03,"N_COORD97":2541512.1000000001,"ADDRESS":"崇善六街２２號之２","OBJECTID":524322},"geometry":{"x":171108.03000000026,"y":2541512.1000000015}},{"attributes":{"ID":524350,"DIS_CODE":0,"TOWNNAME":"東區","LI":"崇善里","LIN":"6鄰","STREET":"崇善六街","SECT":" ","MAREA":" ","LANE":" ","ALLEY":" ","HOUSE_NO":"２０號之５","E_COORD97":171093.98000000001,"N_COORD97":2541495.3999999999,"ADDRESS":"崇善六街２０號之５","OBJECTID":524323},"geometry":{"x":171093.98000000231,"y":2541495.4000000004}},{"attributes":{"ID":524351,"DIS_CODE":0,"TOWNNAME":"東區","LI":"東智里","LIN":"6鄰","STREET":"德東街","SECT":" ","MAREA":" ","LANE":" ","ALLEY":" ","HOUSE_NO":"６０號","E_COORD97":170946.81,"N_COORD97":2540232.7799999998,"ADDRESS":"德東街６０號","OBJECTID":524324},"geometry":{"x":170946.81000000145,"y":2540232.7800000012}},{"attributes":{"ID":524352,"DIS_CODE":0,"TOWNNAME":"東區","LI":"龍山里","LIN":"6鄰","STREET":"林森路","SECT":"一段","MAREA":" ","LANE":" ","ALLEY":" ","HOUSE_NO":"３１１號","E_COORD97":169960.29999999999,"N_COORD97":2542679.48,"ADDRESS":"林森路一段３１１號","OBJECTID":524325},"geometry":{"x":169960.29999999981,"y":2542679.4800000023}},{"attributes":{"ID":524353,"DIS_CODE":0,"TOWNNAME":"東區","LI":"德高里","LIN":"6鄰","STREET":"德高街","SECT":" ","MAREA":" ","LANE":" ","ALLEY":" ","HOUSE_NO":"４９號","E_COORD97":171471.04999999999,"N_COORD97":2540849.3300000001,"ADDRESS":"德高街４９號","OBJECTID":524326},"geometry":{"x":171471.05000000168,"y":2540849.3300000019}},{"attributes":{"ID":524354,"DIS_CODE":0,"TOWNNAME":"東區","LI":"德高里","LIN":"6鄰","STREET":"德高街","SECT":" ","MAREA":" ","LANE":" ","ALLEY":" ","HOUSE_NO":"５１號","E_COORD97":171477.28,"N_COORD97":2540846.29,"ADDRESS":"德高街５１號","OBJECTID":524327},"geometry":{"x":171477.28000000119,"y":2540846.2899999991}},{"attributes":{"ID":524355,"DIS_CODE":0,"TOWNNAME":"東區","LI":"德高里","LIN":"6鄰","STREET":"德高街","SECT":" ","MAREA":" ","LANE":" ","ALLEY":" ","HOUSE_NO":"５３號","E_COORD97":171484.23000000001,"N_COORD97":2540843.1000000001,"ADDRESS":"德高街５３號","OBJECTID":524328},"geometry":{"x":171484.23000000138,"y":2540843.1000000034}},{"attributes":{"ID":524356,"DIS_CODE":0,"TOWNNAME":"東區","LI":"德高里","LIN":"6鄰","STREET":"德高街","SECT":" ","MAREA":" ","LANE":" ","ALLEY":" ","HOUSE_NO":"５５號","E_COORD97":171486.54999999999,"N_COORD97":2540840.79,"ADDRESS":"德高街５５號","OBJECTID":524329},"geometry":{"x":171486.55000000075,"y":2540840.7899999991}},{"attributes":{"ID":524357,"DIS_CODE":0,"TOWNNAME":"東區","LI":"德高里","LIN":"6鄰","STREET":"德高街","SECT":" ","MAREA":" ","LANE":" ","ALLEY":" ","HOUSE_NO":"５７號","E_COORD97":171490.89999999999,"N_COORD97":2540835.5800000001,"ADDRESS":"德高街５７號","OBJECTID":524330},"geometry":{"x":171490.90000000037,"y":2540835.5800000001}},{"attributes":{"ID":524358,"DIS_CODE":0,"TOWNNAME":"安南區","LI":"淵東里","LIN":"6鄰","STREET":"本原街","SECT":"三段","MAREA":" ","LANE":" ","ALLEY":" ","HOUSE_NO":"２１６號","E_COORD97":165414.39999999999,"N_COORD97":2550334.73,"ADDRESS":"本原街三段２１６號","OBJECTID":524331},"geometry":{"x":165414.4000000013,"y":2550334.7300000004}},{"attributes":{"ID":524359,"DIS_CODE":0,"TOWNNAME":"中西區","LI":"銀同里","LIN":"6鄰","STREET":"府中街","SECT":" ","MAREA":" ","LANE":" ","ALLEY":" ","HOUSE_NO":"４７號","E_COORD97":168756.82000000001,"N_COORD97":2543470.8599999999,"ADDRESS":"府中街４７號","OBJECTID":524332},"geometry":{"x":168756.8200000003,"y":2543470.8599999994}},{"attributes":{"ID":524360,"DIS_CODE":0,"TOWNNAME":"中西區","LI":"銀同里","LIN":"6鄰","STREET":"府中街","SECT":" ","MAREA":" ","LANE":" ","ALLEY":" ","HOUSE_NO":"５３號","E_COORD97":168747.42999999999,"N_COORD97":2543463.73,"ADDRESS":"府中街５３號","OBJECTID":524333},"geometry":{"x":168747.43000000156,"y":2543463.7300000042}},{"attributes":{"ID":524361,"DIS_CODE":0,"TOWNNAME":"中西區","LI":"福安里","LIN":"6鄰","STREET":"友愛街","SECT":" ","MAREA":" ","LANE":" ","ALLEY":" ","HOUSE_NO":"１４３號","E_COORD97":167889.39000000001,"N_COORD97":2543567.8900000001,"ADDRESS":"友愛街１４３號","OBJECTID":524334},"geometry":{"x":167889.38999999966,"y":2543567.8900000043}},{"attributes":{"ID":524362,"DIS_CODE":0,"TOWNNAME":"中西區","LI":"福安里","LIN":"6鄰","STREET":"友愛街","SECT":" ","MAREA":" ","LANE":" ","ALLEY":" ","HOUSE_NO":"１４５號","E_COORD97":167884.60999999999,"N_COORD97":2543568.8199999998,"ADDRESS":"友愛街１４５號","OBJECTID":524335},"geometry":{"x":167884.61000000127,"y":2543568.8200000022}},{"attributes":{"ID":524363,"DIS_CODE":0,"TOWNNAME":"中西區","LI":"福安里","LIN":"6鄰","STREET":"友愛街","SECT":" ","MAREA":" ","LANE":" ","ALLEY":" ","HOUSE_NO":"１４７號","E_COORD97":167877.56,"N_COORD97":2543570.0099999998,"ADDRESS":"友愛街１４７號","OBJECTID":524336},"geometry":{"x":167877.56000000052,"y":2543570.0100000016}},{"attributes":{"ID":524364,"DIS_CODE":0,"TOWNNAME":"中西區","LI":"福安里","LIN":"6鄰","STREET":"友愛街","SECT":" ","MAREA":" ","LANE":" ","ALLEY":" ","HOUSE_NO":"１５１號","E_COORD97":167868.39000000001,"N_COORD97":2543571.3999999999,"ADDRESS":"友愛街１５１號","OBJECTID":524337},"geometry":{"x":167868.3900000006,"y":2543571.4000000022}},{"attributes":{"ID":524365,"DIS_CODE":0,"TOWNNAME":"中西區","LI":"福安里","LIN":"6鄰","STREET":"友愛街","SECT":" ","MAREA":" ","LANE":" ","ALLEY":" ","HOUSE_NO":"１５３號","E_COORD97":167862.54000000001,"N_COORD97":2543573.5299999998,"ADDRESS":"友愛街１５３號","OBJECTID":524338},"geometry":{"x":167862.54000000097,"y":2543573.5300000012}},{"attributes":{"ID":524366,"DIS_CODE":0,"TOWNNAME":"中西區","LI":"福安里","LIN":"6鄰","STREET":"友愛街","SECT":" ","MAREA":" ","LANE":" ","ALLEY":" ","HOUSE_NO":"１５５號","E_COORD97":167859.20999999999,"N_COORD97":2543575.6499999999,"ADDRESS":"友愛街１５５號","OBJECTID":524339},"geometry":{"x":167859.21000000183,"y":2543575.6500000004}},{"attributes":{"ID":524367,"DIS_CODE":0,"TOWNNAME":"中西區","LI":"福安里","LIN":"6鄰","STREET":"友愛街","SECT":" ","MAREA":" ","LANE":" ","ALLEY":" ","HOUSE_NO":"１５７號","E_COORD97":167856.56,"N_COORD97":2543576.4500000002,"ADDRESS":"友愛街１５７號","OBJECTID":524340},"geometry":{"x":167856.56000000145,"y":2543576.450000003}},{"attributes":{"ID":524368,"DIS_CODE":0,"TOWNNAME":"中西區","LI":"福安里","LIN":"6鄰","STREET":"友愛街","SECT":" ","MAREA":" ","LANE":" ","ALLEY":" ","HOUSE_NO":"１６１號","E_COORD97":167852.04000000001,"N_COORD97":2543577.73,"ADDRESS":"友愛街１６１號","OBJECTID":524341},"geometry":{"x":167852.0400000019,"y":2543577.7300000004}},{"attributes":{"ID":524369,"DIS_CODE":0,"TOWNNAME":"中西區","LI":"福安里","LIN":"6鄰","STREET":"友愛街","SECT":" ","MAREA":" ","LANE":" ","ALLEY":" ","HOUSE_NO":"１６３號","E_COORD97":167846.32999999999,"N_COORD97":2543576.1800000002,"ADDRESS":"友愛街１６３號","OBJECTID":524342},"geometry":{"x":167846.33000000007,"y":2543576.1800000016}},{"attributes":{"ID":524370,"DIS_CODE":0,"TOWNNAME":"中西區","LI":"福安里","LIN":"6鄰","STREET":"友愛街","SECT":" ","MAREA":" ","LANE":" ","ALLEY":" ","HOUSE_NO":"１６５號","E_COORD97":167843.26000000001,"N_COORD97":2543576.48,"ADDRESS":"友愛街１６５號","OBJECTID":524343},"geometry":{"x":167843.25999999978,"y":2543576.4800000004}},{"attributes":{"ID":524371,"DIS_CODE":0,"TOWNNAME":"中西區","LI":"銀同里","LIN":"6鄰","STREET":"府中街","SECT":" ","MAREA":" ","LANE":" ","ALLEY":" ","HOUSE_NO":"２１號","E_COORD97":168792.63,"N_COORD97":2543499.2400000002,"ADDRESS":"府中街２１號","OBJECTID":524344},"geometry":{"x":168792.63000000082,"y":2543499.2400000002}},{"attributes":{"ID":524372,"DIS_CODE":0,"TOWNNAME":"中西區","LI":"銀同里","LIN":"6鄰","STREET":"府中街","SECT":" ","MAREA":" ","LANE":" ","ALLEY":" ","HOUSE_NO":"２３號","E_COORD97":168787.54000000001,"N_COORD97":2543495.3799999999,"ADDRESS":"府中街２３號","OBJECTID":524345},"geometry":{"x":168787.54000000004,"y":2543495.3800000008}},{"attributes":{"ID":524373,"DIS_CODE":0,"TOWNNAME":"白河區","LI":"白河里","LIN":"6鄰","STREET":"中正路","SECT":" ","MAREA":" ","LANE":" ","ALLEY":" ","HOUSE_NO":"１３之９號","E_COORD97":190228.47,"N_COORD97":2583089.8100000001,"ADDRESS":"中正路１３之９號","OBJECTID":524346},"geometry":{"x":190228.46999999974,"y":2583089.8099999987}},{"attributes":{"ID":524374,"DIS_CODE":0,"TOWNNAME":"白河區","LI":"秀祐里","LIN":"6鄰","STREET":"中正路","SECT":" ","MAREA":" ","LANE":" ","ALLEY":" ","HOUSE_NO":"７８３號","E_COORD97":188573.92000000001,"N_COORD97":2582918.7799999998,"ADDRESS":"中正路７８３號","OBJECTID":524347},"geometry":{"x":188573.91999999993,"y":2582918.7799999993}},{"attributes":{"ID":524375,"DIS_CODE":0,"TOWNNAME":"白河區","LI":"秀祐里","LIN":"6鄰","STREET":"中正路","SECT":" ","MAREA":" ","LANE":" ","ALLEY":" ","HOUSE_NO":"７８６號","E_COORD97":188525.26000000001,"N_COORD97":2582961.96,"ADDRESS":"中正路７８６號","OBJECTID":524348},"geometry":{"x":188525.26000000071,"y":2582961.9600000028}},{"attributes":{"ID":524376,"DIS_CODE":0,"TOWNNAME":"安南區","LI":"淵東里","LIN":"6鄰","STREET":"本原街","SECT":"三段","MAREA":" ","LANE":" ","ALLEY":" ","HOUSE_NO":"２２２號","E_COORD97":165401,"N_COORD97":2550331.3399999999,"ADDRESS":"本原街三段２２２號","OBJECTID":524349},"geometry":{"x":165401.00000000186,"y":2550331.3400000036}},{"attributes":{"ID":524377,"DIS_CODE":0,"TOWNNAME":"安南區","LI":"淵東里","LIN":"6鄰","STREET":"本原街","SECT":"三段","MAREA":" ","LANE":" ","ALLEY":" ","HOUSE_NO":"２２４號","E_COORD97":165388.53779100001,"N_COORD97":2550319.3149199998,"ADDRESS":"本原街三段２２４號","OBJECTID":524350},"geometry":{"x":165388.53779099882,"y":2550319.3149219994}},{"attributes":{"ID":524378,"DIS_CODE":0,"TOWNNAME":"永康區","LI":"勝利里","LIN":"6鄰","STREET":"勝學路","SECT":" ","MAREA":" ","LANE":" ","ALLEY":" ","HOUSE_NO":"３９號","E_COORD97":171139.62,"N_COORD97":2544663.5099999998,"ADDRESS":"勝學路３９號","OBJECTID":524351},"geometry":{"x":171139.62000000011,"y":2544663.5099999998}},{"attributes":{"ID":524379,"DIS_CODE":0,"TOWNNAME":"安南區","LI":"溪頂里","LIN":"6鄰","STREET":"府安路","SECT":"四段","MAREA":" ","LANE":" ","ALLEY":" ","HOUSE_NO":"１５７號","E_COORD97":168817.23999999999,"N_COORD97":2547252.5899999999,"ADDRESS":"府安路四段１５７號","OBJECTID":524352},"geometry":{"x":168817.24000000115,"y":2547252.5900000017}},{"attributes":{"ID":524380,"DIS_CODE":0,"TOWNNAME":"安南區","LI":"溪頂里","LIN":"6鄰","STREET":"府安路","SECT":"四段","MAREA":" ","LANE":" ","ALLEY":" ","HOUSE_NO":"１６４號","E_COORD97":168781.35999999999,"N_COORD97":2547249.3999999999,"ADDRESS":"府安路四段１６４號","OBJECTID":524353},"geometry":{"x":168781.36000000127,"y":2547249.3999999985}},{"attributes":{"ID":524381,"DIS_CODE":0,"TOWNNAME":"安南區","LI":"東和里","LIN":"6鄰","STREET":"長和路","SECT":"一段","MAREA":" ","LANE":" ","ALLEY":" ","HOUSE_NO":"８０５號","E_COORD97":170964.54000000001,"N_COORD97":2551353.2400000002,"ADDRESS":"長和路一段８０５號","OBJECTID":524354},"geometry":{"x":170964.54000000097,"y":2551353.2400000021}},{"attributes":{"ID":524382,"DIS_CODE":0,"TOWNNAME":"安南區","LI":"東和里","LIN":"6鄰","STREET":"長和路","SECT":"一段","MAREA":" ","LANE":" ","ALLEY":" ","HOUSE_NO":"８１０號","E_COORD97":170896.26999999999,"N_COORD97":2551440.02,"ADDRESS":"長和路一段８１０號","OBJECTID":524355},"geometry":{"x":170896.27000000142,"y":2551440.0200000014}},{"attributes":{"ID":524383,"DIS_CODE":0,"TOWNNAME":"安南區","LI":"淵中里","LIN":"6鄰","STREET":"本田路","SECT":"三段","MAREA":" ","LANE":" ","ALLEY":" ","HOUSE_NO":"３３７號","E_COORD97":164477.5,"N_COORD97":2549540.46,"ADDRESS":"本田路三段３３７號","OBJECTID":524356},"geometry":{"x":164477.50000000093,"y":2549540.4600000009}},{"attributes":{"ID":524384,"DIS_CODE":0,"TOWNNAME":"白河區","LI":"永安里","LIN":"6鄰","STREET":"中正路","SECT":" ","MAREA":" ","LANE":" ","ALLEY":" ","HOUSE_NO":"９３號","E_COORD97":189920.64999999999,"N_COORD97":2583100.54,"ADDRESS":"中正路９３號","OBJECTID":524357},"geometry":{"x":189920.65000000037,"y":2583100.5400000028}},{"attributes":{"ID":524385,"DIS_CODE":0,"TOWNNAME":"白河區","LI":"永安里","LIN":"6鄰","STREET":"中正路","SECT":" ","MAREA":" ","LANE":" ","ALLEY":" ","HOUSE_NO":"９７號","E_COORD97":189912.13,"N_COORD97":2583100.23,"ADDRESS":"中正路９７號","OBJECTID":524358},"geometry":{"x":189912.12999999989,"y":2583100.2300000004}},{"attributes":{"ID":524386,"DIS_CODE":0,"TOWNNAME":"白河區","LI":"永安里","LIN":"6鄰","STREET":"五福街","SECT":" ","MAREA":" ","LANE":" ","ALLEY":" ","HOUSE_NO":"９１號","E_COORD97":189826.45000000001,"N_COORD97":2583038.4399999999,"ADDRESS":"五福街９１號","OBJECTID":524359},"geometry":{"x":189826.45000000112,"y":2583038.4400000013}},{"attributes":{"ID":524387,"DIS_CODE":0,"TOWNNAME":"白河區","LI":"永安里","LIN":"6鄰","STREET":"五福街","SECT":" ","MAREA":" ","LANE":" ","ALLEY":" ","HOUSE_NO":"９５號","E_COORD97":189812.38,"N_COORD97":2583034.29,"ADDRESS":"五福街９５號","OBJECTID":524360},"geometry":{"x":189812.38000000175,"y":2583034.2900000028}},{"attributes":{"ID":524388,"DIS_CODE":0,"TOWNNAME":"白河區","LI":"永安里","LIN":"6鄰","STREET":"仁愛街","SECT":" ","MAREA":" ","LANE":" ","ALLEY":" ","HOUSE_NO":"３號","E_COORD97":189847.16,"N_COORD97":2582978.1600000001,"ADDRESS":"仁愛街３號","OBJECTID":524361},"geometry":{"x":189847.16000000108,"y":2582978.1600000001}},{"attributes":{"ID":524389,"DIS_CODE":0,"TOWNNAME":"東區","LI":"東智里","LIN":"6鄰","STREET":"德東街","SECT":" ","MAREA":" ","LANE":" ","ALLEY":" ","HOUSE_NO":"７４號","E_COORD97":170982.06,"N_COORD97":2540234.6699999999,"ADDRESS":"德東街７４號","OBJECTID":524362},"geometry":{"x":170982.05999999959,"y":2540234.6699999999}},{"attributes":{"ID":524390,"DIS_CODE":0,"TOWNNAME":"白河區","LI":"永安里","LIN":"6鄰","STREET":"六合街","SECT":" ","MAREA":" ","LANE":" ","ALLEY":" ","HOUSE_NO":"９４號","E_COORD97":189851.37,"N_COORD97":2583007.2799999998,"ADDRESS":"六合街９４號","OBJECTID":524363},"geometry":{"x":189851.37000000011,"y":2583007.2799999993}},{"attributes":{"ID":524391,"DIS_CODE":0,"TOWNNAME":"白河區","LI":"永安里","LIN":"6鄰","STREET":"六合街","SECT":" ","MAREA":" ","LANE":" ","ALLEY":" ","HOUSE_NO":"１００號","E_COORD97":189836.17999999999,"N_COORD97":2583002.98,"ADDRESS":"六合街１００號","OBJECTID":524364},"geometry":{"x":189836.18000000063,"y":2583002.9800000004}},{"attributes":{"ID":524392,"DIS_CODE":0,"TOWNNAME":"白河區","LI":"永安里","LIN":"6鄰","STREET":"六合街","SECT":" ","MAREA":" ","LANE":" ","ALLEY":" ","HOUSE_NO":"１０２號","E_COORD97":189831.67999999999,"N_COORD97":2583003.2200000002,"ADDRESS":"六合街１０２號","OBJECTID":524365},"geometry":{"x":189831.6799999997,"y":2583003.2200000025}},{"attributes":{"ID":524393,"DIS_CODE":0,"TOWNNAME":"南區","LI":"田寮里","LIN":"1鄰","STREET":"大成路","SECT":"二段","MAREA":" ","LANE":" ","ALLEY":" ","HOUSE_NO":"２２０號","E_COORD97":167143.95999999999,"N_COORD97":2541750.0600000001,"ADDRESS":"大成路二段２２０號","OBJECTID":524366},"geometry":{"x":167143.96000000183,"y":2541750.0600000024}},{"attributes":{"ID":524394,"DIS_CODE":0,"TOWNNAME":"南區","LI":"田寮里","LIN":"1鄰","STREET":"大成路","SECT":"二段","MAREA":" ","LANE":" ","ALLEY":" ","HOUSE_NO":"２４０號","E_COORD97":167088.07000000001,"N_COORD97":2541751.29,"ADDRESS":"大成路二段２４０號","OBJECTID":524367},"geometry":{"x":167088.07000000123,"y":2541751.290000001}},{"attributes":{"ID":524395,"DIS_CODE":0,"TOWNNAME":"南區","LI":"田寮里","LIN":"1鄰","STREET":"大成路","SECT":"二段","MAREA":" ","LANE":" ","ALLEY":" ","HOUSE_NO":"２４２號","E_COORD97":167084.17999999999,"N_COORD97":2541751.29,"ADDRESS":"大成路二段２４２號","OBJECTID":524368},"geometry":{"x":167084.1799999997,"y":2541751.290000001}},{"attributes":{"ID":524396,"DIS_CODE":0,"TOWNNAME":"南區","LI":"田寮里","LIN":"1鄰","STREET":"大成路","SECT":"二段","MAREA":" ","LANE":" ","ALLEY":" ","HOUSE_NO":"２４６號","E_COORD97":167078.85999999999,"N_COORD97":2541751.0800000001,"ADDRESS":"大成路二段２４６號","OBJECTID":524369},"geometry":{"x":167078.8600000022,"y":2541751.0800000001}},{"attributes":{"ID":524397,"DIS_CODE":0,"TOWNNAME":"南區","LI":"田寮里","LIN":"1鄰","STREET":"新興路","SECT":" ","MAREA":" ","LANE":" ","ALLEY":" ","HOUSE_NO":"３６１號","E_COORD97":167096.06,"N_COORD97":2541796.52,"ADDRESS":"新興路３６１號","OBJECTID":524370},"geometry":{"x":167096.06000000052,"y":2541796.5200000014}},{"attributes":{"ID":524398,"DIS_CODE":0,"TOWNNAME":"白河區","LI":"永安里","LIN":"6鄰","STREET":"六合街","SECT":" ","MAREA":" ","LANE":" ","ALLEY":" ","HOUSE_NO":"１０６號","E_COORD97":189817.76000000001,"N_COORD97":2582993.7000000002,"ADDRESS":"六合街１０６號","OBJECTID":524371},"geometry":{"x":189817.75999999978,"y":2582993.6999999993}},{"attributes":{"ID":524399,"DIS_CODE":0,"TOWNNAME":"白河區","LI":"永安里","LIN":"6鄰","STREET":"六合街","SECT":" ","MAREA":" ","LANE":" ","ALLEY":" ","HOUSE_NO":"１０８號","E_COORD97":189812.76000000001,"N_COORD97":2582991.8199999998,"ADDRESS":"六合街１０８號","OBJECTID":524372},"geometry":{"x":189812.75999999978,"y":2582991.8200000022}},{"attributes":{"ID":524400,"DIS_CODE":0,"TOWNNAME":"白河區","LI":"永安里","LIN":"6鄰","STREET":"六合街","SECT":" ","MAREA":" ","LANE":" ","ALLEY":" ","HOUSE_NO":"１１０號","E_COORD97":189807.41,"N_COORD97":2582991.3700000001,"ADDRESS":"六合街１１０號","OBJECTID":524373},"geometry":{"x":189807.41000000201,"y":2582991.370000001}},{"attributes":{"ID":524401,"DIS_CODE":0,"TOWNNAME":"白河區","LI":"永安里","LIN":"6鄰","STREET":"六合街","SECT":" ","MAREA":" ","LANE":" ","ALLEY":" ","HOUSE_NO":"１１２號","E_COORD97":189801.82999999999,"N_COORD97":2582990.7599999998,"ADDRESS":"六合街１１２號","OBJECTID":524374},"geometry":{"x":189801.83000000101,"y":2582990.7599999998}},{"attributes":{"ID":524402,"DIS_CODE":0,"TOWNNAME":"白河區","LI":"永安里","LIN":"6鄰","STREET":"六合街","SECT":" ","MAREA":" ","LANE":" ","ALLEY":" ","HOUSE_NO":"８２號","E_COORD97":189889.04000000001,"N_COORD97":2583004.6200000001,"ADDRESS":"六合街８２號","OBJECTID":524375},"geometry":{"x":189889.04000000004,"y":2583004.6200000029}},{"attributes":{"ID":524403,"DIS_CODE":0,"TOWNNAME":"白河區","LI":"永安里","LIN":"6鄰","STREET":"六合街","SECT":" ","MAREA":" ","LANE":" ","ALLEY":" ","HOUSE_NO":"８４號","E_COORD97":189883.48999999999,"N_COORD97":2583003.3599999999,"ADDRESS":"六合街８４號","OBJECTID":524376},"geometry":{"x":189883.49000000115,"y":2583003.3599999994}},{"attributes":{"ID":524404,"DIS_CODE":0,"TOWNNAME":"白河區","LI":"永安里","LIN":"6鄰","STREET":"六合街","SECT":" ","MAREA":" ","LANE":" ","ALLEY":" ","HOUSE_NO":"８６號","E_COORD97":189878.04999999999,"N_COORD97":2583002.7000000002,"ADDRESS":"六合街８６號","OBJECTID":524377},"geometry":{"x":189878.05000000075,"y":2583002.7000000011}},{"attributes":{"ID":524405,"DIS_CODE":0,"TOWNNAME":"白河區","LI":"永安里","LIN":"6鄰","STREET":"六合街","SECT":" ","MAREA":" ","LANE":" ","ALLEY":" ","HOUSE_NO":"８８號","E_COORD97":189872.35000000001,"N_COORD97":2583002.2999999998,"ADDRESS":"六合街８８號","OBJECTID":524378},"geometry":{"x":189872.35000000056,"y":2583002.3000000045}},{"attributes":{"ID":524406,"DIS_CODE":0,"TOWNNAME":"白河區","LI":"永安里","LIN":"6鄰","STREET":"六合街","SECT":" ","MAREA":" ","LANE":" ","ALLEY":" ","HOUSE_NO":"９０號","E_COORD97":189866.89999999999,"N_COORD97":2583001.6800000002,"ADDRESS":"六合街９０號","OBJECTID":524379},"geometry":{"x":189866.89999999944,"y":2583001.6799999978}},{"attributes":{"ID":524407,"DIS_CODE":0,"TOWNNAME":"白河區","LI":"永安里","LIN":"6鄰","STREET":"六合街","SECT":" ","MAREA":" ","LANE":" ","ALLEY":" ","HOUSE_NO":"９２號","E_COORD97":189862.78,"N_COORD97":2583003.48,"ADDRESS":"六合街９２號","OBJECTID":524380},"geometry":{"x":189862.78000000119,"y":2583003.4800000004}},{"attributes":{"ID":524408,"DIS_CODE":0,"TOWNNAME":"南區","LI":"田寮里","LIN":" ","STREET":"大成路","SECT":"二段","MAREA":" ","LANE":" ","ALLEY":" ","HOUSE_NO":"５５８號","E_COORD97":167060.63,"N_COORD97":2541747.2000000002,"ADDRESS":"大成路二段５５８號","OBJECTID":524381},"geometry":{"x":167060.62999999989,"y":2541747.200000003}},{"attributes":{"ID":524409,"DIS_CODE":0,"TOWNNAME":"南區","LI":"田寮里","LIN":" ","STREET":"大成路","SECT":"二段","MAREA":" ","LANE":" ","ALLEY":" ","HOUSE_NO":"５６０號","E_COORD97":167060.63,"N_COORD97":2541752.1099999999,"ADDRESS":"大成路二段５６０號","OBJECTID":524382},"geometry":{"x":167060.62999999989,"y":2541752.1100000013}},{"attributes":{"ID":524410,"DIS_CODE":0,"TOWNNAME":"南區","LI":"田寮里","LIN":" ","STREET":"大成路","SECT":"二段","MAREA":" ","LANE":" ","ALLEY":" ","HOUSE_NO":"５６２號","E_COORD97":167060.42999999999,"N_COORD97":2541756.3999999999,"ADDRESS":"大成路二段５６２號","OBJECTID":524383},"geometry":{"x":167060.4299999997,"y":2541756.4000000004}},{"attributes":{"ID":524411,"DIS_CODE":0,"TOWNNAME":"南區","LI":"田寮里","LIN":" ","STREET":"大成路","SECT":"二段","MAREA":" ","LANE":" ","ALLEY":" ","HOUSE_NO":"５６４號","E_COORD97":167060.63,"N_COORD97":2541760.3300000001,"ADDRESS":"大成路二段５６４號","OBJECTID":524384},"geometry":{"x":167060.62999999989,"y":2541760.3300000001}},{"attributes":{"ID":524412,"DIS_CODE":0,"TOWNNAME":"南區","LI":"田寮里","LIN":"1鄰","STREET":"新興路","SECT":" ","MAREA":" ","LANE":" ","ALLEY":" ","HOUSE_NO":"３５１號","E_COORD97":167120.28,"N_COORD97":2541814.7999999998,"ADDRESS":"新興路３５１號","OBJECTID":524385},"geometry":{"x":167120.28000000119,"y":2541814.8000000007}},{"attributes":{"ID":524413,"DIS_CODE":0,"TOWNNAME":"白河區","LI":"白河里","LIN":"6鄰","STREET":"文明街","SECT":" ","MAREA":" ","LANE":" ","ALLEY":" ","HOUSE_NO":"６０號","E_COORD97":190229.79999999999,"N_COORD97":2583015.0600000001,"ADDRESS":"文明街６０號","OBJECTID":524386},"geometry":{"x":190229.79999999888,"y":2583015.0600000024}},{"attributes":{"ID":524414,"DIS_CODE":0,"TOWNNAME":"白河區","LI":"白河里","LIN":"6鄰","STREET":"文明街","SECT":" ","MAREA":" ","LANE":" ","ALLEY":" ","HOUSE_NO":"６２號","E_COORD97":190227.64999999999,"N_COORD97":2583017.9900000002,"ADDRESS":"文明街６２號","OBJECTID":524387},"geometry":{"x":190227.65000000037,"y":2583017.9900000021}},{"attributes":{"ID":524415,"DIS_CODE":0,"TOWNNAME":"白河區","LI":"白河里","LIN":"6鄰","STREET":"文明街","SECT":" ","MAREA":" ","LANE":" ","ALLEY":" ","HOUSE_NO":"６８號","E_COORD97":190220.57000000001,"N_COORD97":2583028.71,"ADDRESS":"文明街６８號","OBJECTID":524388},"geometry":{"x":190220.57000000123,"y":2583028.7100000009}},{"attributes":{"ID":524416,"DIS_CODE":0,"TOWNNAME":"白河區","LI":"白河里","LIN":"6鄰","STREET":"文明街","SECT":" ","MAREA":" ","LANE":" ","ALLEY":" ","HOUSE_NO":"７０號","E_COORD97":190217.32000000001,"N_COORD97":2583033.4700000002,"ADDRESS":"文明街７０號","OBJECTID":524389},"geometry":{"x":190217.32000000123,"y":2583033.4700000007}},{"attributes":{"ID":524417,"DIS_CODE":0,"TOWNNAME":"白河區","LI":"白河里","LIN":"6鄰","STREET":"文明街","SECT":" ","MAREA":" ","LANE":" ","ALLEY":" ","HOUSE_NO":"７４號","E_COORD97":190204.63,"N_COORD97":2583045.3900000001,"ADDRESS":"文明街７４號","OBJECTID":524390},"geometry":{"x":190204.63000000082,"y":2583045.3900000043}},{"attributes":{"ID":524418,"DIS_CODE":0,"TOWNNAME":"仁德區","LI":"保安里","LIN":"6鄰","STREET":"文賢路","SECT":"一段","MAREA":" ","LANE":" ","ALLEY":" ","HOUSE_NO":"７４１號","E_COORD97":171467.32000000001,"N_COORD97":2536223.5699999998,"ADDRESS":"文賢路一段７４１號","OBJECTID":524391},"geometry":{"x":171467.3200000003,"y":2536223.5700000022}},{"attributes":{"ID":524419,"DIS_CODE":0,"TOWNNAME":"仁德區","LI":"仁德里","LIN":"6鄰","STREET":"中正路","SECT":"二段","MAREA":" ","LANE":" ","ALLEY":" ","HOUSE_NO":"１０８７號","E_COORD97":173379.20000000001,"N_COORD97":2540877.27,"ADDRESS":"中正路二段１０８７號","OBJECTID":524392},"geometry":{"x":173379.20000000205,"y":2540877.2700000014}},{"attributes":{"ID":524420,"DIS_CODE":0,"TOWNNAME":"仁德區","LI":"後壁里","LIN":"6鄰","STREET":"德善路","SECT":" ","MAREA":" ","LANE":" ","ALLEY":" ","HOUSE_NO":"１５７號","E_COORD97":173540.34,"N_COORD97":2538832.0099999998,"ADDRESS":"德善路１５７號","OBJECTID":524393},"geometry":{"x":173540.33999999985,"y":2538832.0099999998}},{"attributes":{"ID":524421,"DIS_CODE":0,"TOWNNAME":"仁德區","LI":"保安里","LIN":"6鄰","STREET":"文賢路","SECT":"一段","MAREA":" ","LANE":" ","ALLEY":" ","HOUSE_NO":"７５７號","E_COORD97":171486.03,"N_COORD97":2536187.3300000001,"ADDRESS":"文賢路一段７５７號","OBJECTID":524394},"geometry":{"x":171486.03000000026,"y":2536187.3300000019}},{"attributes":{"ID":524422,"DIS_CODE":0,"TOWNNAME":"仁德區","LI":"保安里","LIN":"6鄰","STREET":"文賢路","SECT":"一段","MAREA":" ","LANE":" ","ALLEY":" ","HOUSE_NO":"７５５號","E_COORD97":171483.82000000001,"N_COORD97":2536190.8300000001,"ADDRESS":"文賢路一段７５５號","OBJECTID":524395},"geometry":{"x":171483.82000000123,"y":2536190.8300000019}},{"attributes":{"ID":524423,"DIS_CODE":0,"TOWNNAME":"仁德區","LI":"新田里","LIN":"6鄰","STREET":"勝利二街","SECT":" ","MAREA":" ","LANE":" ","ALLEY":" ","HOUSE_NO":"２２號","E_COORD97":174866.20000000001,"N_COORD97":2539353.25,"ADDRESS":"勝利二街２２號","OBJECTID":524396},"geometry":{"x":174866.20000000112,"y":2539353.25}},{"attributes":{"ID":524424,"DIS_CODE":0,"TOWNNAME":"仁德區","LI":"保安里","LIN":"6鄰","STREET":"文賢路","SECT":"一段","MAREA":" ","LANE":" ","ALLEY":" ","HOUSE_NO":"７６７號","E_COORD97":171501.45000000001,"N_COORD97":2536155.5800000001,"ADDRESS":"文賢路一段７６７號","OBJECTID":524397},"geometry":{"x":171501.45000000112,"y":2536155.5800000019}},{"attributes":{"ID":524425,"DIS_CODE":0,"TOWNNAME":"仁德區","LI":"新田里","LIN":"6鄰","STREET":"勝利路","SECT":" ","MAREA":" ","LANE":" ","ALLEY":" ","HOUSE_NO":"２６９號","E_COORD97":174933.06,"N_COORD97":2539412.0099999998,"ADDRESS":"勝利路２６９號","OBJECTID":524398},"geometry":{"x":174933.05999999959,"y":2539412.0099999998}},{"attributes":{"ID":524426,"DIS_CODE":0,"TOWNNAME":"仁德區","LI":"新田里","LIN":"6鄰","STREET":"勝利二街","SECT":" ","MAREA":" ","LANE":" ","ALLEY":" ","HOUSE_NO":"３０號","E_COORD97":174855.12,"N_COORD97":2539325,"ADDRESS":"勝利二街３０號","OBJECTID":524399},"geometry":{"x":174855.12000000104,"y":2539324.9999999981}},{"attributes":{"ID":524427,"DIS_CODE":0,"TOWNNAME":"仁德區","LI":"新田里","LIN":"6鄰","STREET":"勝利二街","SECT":" ","MAREA":" ","LANE":" ","ALLEY":" ","HOUSE_NO":"２４號","E_COORD97":174863.38,"N_COORD97":2539346.75,"ADDRESS":"勝利二街２４號","OBJECTID":524400},"geometry":{"x":174863.37999999989,"y":2539346.75}}]}