{"displayFieldName":"TOWNNAME","fieldAliases":{"ID":"ID","DIS_CODE":"DIS_CODE","TOWNNAME":"TOWNNAME","LI":"LI","LIN":"LIN","STREET":"STREET","SECT":"SECT","MAREA":"MAREA","LANE":"LANE","ALLEY":"ALLEY","HOUSE_NO":"HOUSE_NO","E_COORD97":"E_COORD97","N_COORD97":"N_COORD97","ADDRESS":"ADDRESS","OBJECTID":"OBJECTID"},"geometryType":"esriGeometryPoint","spatialReference":{"wkid":102443,"latestWkid":3826},"fields":[{"name":"ID","type":"esriFieldTypeDouble","alias":"ID"},{"name":"DIS_CODE","type":"esriFieldTypeInteger","alias":"DIS_CODE"},{"name":"TOWNNAME","type":"esriFieldTypeString","alias":"TOWNNAME","length":8},{"name":"LI","type":"esriFieldTypeString","alias":"LI","length":8},{"name":"LIN","type":"esriFieldTypeString","alias":"LIN","length":12},{"name":"STREET","type":"esriFieldTypeString","alias":"STREET","length":20},{"name":"SECT","type":"esriFieldTypeString","alias":"SECT","length":8},{"name":"MAREA","type":"esriFieldTypeString","alias":"MAREA","length":12},{"name":"LANE","type":"esriFieldTypeString","alias":"LANE","length":10},{"name":"ALLEY","type":"esriFieldTypeString","alias":"ALLEY","length":10},{"name":"HOUSE_NO","type":"esriFieldTypeString","alias":"HOUSE_NO","length":20},{"name":"E_COORD97","type":"esriFieldTypeDouble","alias":"E_COORD97"},{"name":"N_COORD97","type":"esriFieldTypeDouble","alias":"N_COORD97"},{"name":"ADDRESS","type":"esriFieldTypeString","alias":"ADDRESS","length":50},{"name":"OBJECTID","type":"esriFieldTypeOID","alias":"OBJECTID"}],"features":[{"attributes":{"ID":417025,"DIS_CODE":0,"TOWNNAME":"安南區","LI":"安西里","LIN":"2鄰","STREET":"安和路","SECT":"一段","MAREA":" ","LANE":"１８５巷","ALLEY":" ","HOUSE_NO":"４７號","E_COORD97":169257.38,"N_COORD97":2547918.7799999998,"ADDRESS":"安和路一段１８５巷４７號","OBJECTID":417001},"geometry":{"x":169257.38000000082,"y":2547918.7800000012}},{"attributes":{"ID":417026,"DIS_CODE":0,"TOWNNAME":"安南區","LI":"安西里","LIN":"2鄰","STREET":"安和路","SECT":"一段","MAREA":" ","LANE":"１８５巷","ALLEY":" ","HOUSE_NO":"４９號","E_COORD97":169248.38,"N_COORD97":2547919.1699999999,"ADDRESS":"安和路一段１８５巷４９號","OBJECTID":417002},"geometry":{"x":169248.38000000082,"y":2547919.1700000018}},{"attributes":{"ID":417027,"DIS_CODE":0,"TOWNNAME":"安南區","LI":"安西里","LIN":"2鄰","STREET":"安和路","SECT":"一段","MAREA":" ","LANE":"２１５巷","ALLEY":" ","HOUSE_NO":"１０號","E_COORD97":169258.95000000001,"N_COORD97":2547954.6299999999,"ADDRESS":"安和路一段２１５巷１０號","OBJECTID":417003},"geometry":{"x":169258.95000000019,"y":2547954.629999999}},{"attributes":{"ID":417028,"DIS_CODE":0,"TOWNNAME":"安南區","LI":"安西里","LIN":"2鄰","STREET":"安和路","SECT":"一段","MAREA":" ","LANE":"２１５巷","ALLEY":" ","HOUSE_NO":"１２號","E_COORD97":169246.42000000001,"N_COORD97":2547956.5899999999,"ADDRESS":"安和路一段２１５巷１２號","OBJECTID":417004},"geometry":{"x":169246.42000000086,"y":2547956.5900000036}},{"attributes":{"ID":417029,"DIS_CODE":0,"TOWNNAME":"安南區","LI":"安西里","LIN":"2鄰","STREET":"安和路","SECT":"一段","MAREA":" ","LANE":"２１５巷","ALLEY":" ","HOUSE_NO":"１５號","E_COORD97":169247.20999999999,"N_COORD97":2547936.7599999998,"ADDRESS":"安和路一段２１５巷１５號","OBJECTID":417005},"geometry":{"x":169247.20999999996,"y":2547936.7599999998}},{"attributes":{"ID":417030,"DIS_CODE":0,"TOWNNAME":"安南區","LI":"安西里","LIN":"2鄰","STREET":"安和路","SECT":"一段","MAREA":" ","LANE":"２１５巷","ALLEY":" ","HOUSE_NO":"３號","E_COORD97":169275.76999999999,"N_COORD97":2547922.6899999999,"ADDRESS":"安和路一段２１５巷３號","OBJECTID":417006},"geometry":{"x":169275.77000000048,"y":2547922.6900000013}},{"attributes":{"ID":417031,"DIS_CODE":0,"TOWNNAME":"安南區","LI":"安西里","LIN":"2鄰","STREET":"安和路","SECT":"一段","MAREA":" ","LANE":"２１５巷","ALLEY":" ","HOUSE_NO":"５號","E_COORD97":169275.76999999999,"N_COORD97":2547926.98,"ADDRESS":"安和路一段２１５巷５號","OBJECTID":417007},"geometry":{"x":169275.77000000048,"y":2547926.9799999986}},{"attributes":{"ID":417032,"DIS_CODE":0,"TOWNNAME":"安南區","LI":"安西里","LIN":"2鄰","STREET":"安和路","SECT":"一段","MAREA":" ","LANE":"２１５巷","ALLEY":" ","HOUSE_NO":"７號","E_COORD97":169278.51000000001,"N_COORD97":2547940.6600000001,"ADDRESS":"安和路一段２１５巷７號","OBJECTID":417008},"geometry":{"x":169278.50999999978,"y":2547940.660000002}},{"attributes":{"ID":417033,"DIS_CODE":0,"TOWNNAME":"仁德區","LI":"後壁里","LIN":"18鄰","STREET":"德南路","SECT":" ","MAREA":" ","LANE":"７０巷","ALLEY":" ","HOUSE_NO":"１６號","E_COORD97":173361.31,"N_COORD97":2538631.2599999998,"ADDRESS":"德南路７０巷１６號","OBJECTID":417009},"geometry":{"x":173361.31000000052,"y":2538631.2599999998}},{"attributes":{"ID":417034,"DIS_CODE":0,"TOWNNAME":"仁德區","LI":"後壁里","LIN":"15鄰","STREET":"德善路","SECT":" ","MAREA":" ","LANE":"１０８巷","ALLEY":" ","HOUSE_NO":"５４號","E_COORD97":173520.10000000001,"N_COORD97":2538729.0099999998,"ADDRESS":"德善路１０８巷５４號","OBJECTID":417010},"geometry":{"x":173520.10000000056,"y":2538729.0100000016}},{"attributes":{"ID":417035,"DIS_CODE":0,"TOWNNAME":"安南區","LI":"安順里","LIN":"2鄰","STREET":"總安街","SECT":"一段","MAREA":" ","LANE":"５７巷","ALLEY":" ","HOUSE_NO":"７號","E_COORD97":169851.45000000001,"N_COORD97":2550065.9500000002,"ADDRESS":"總安街一段５７巷７號","OBJECTID":417011},"geometry":{"x":169851.45000000205,"y":2550065.9500000011}},{"attributes":{"ID":417036,"DIS_CODE":0,"TOWNNAME":"安南區","LI":"州北里","LIN":"2鄰","STREET":"安和路","SECT":"五段","MAREA":" ","LANE":"８１巷","ALLEY":" ","HOUSE_NO":"９６號","E_COORD97":169683.26999999999,"N_COORD97":2551591.9500000002,"ADDRESS":"安和路五段８１巷９６號","OBJECTID":417012},"geometry":{"x":169683.27000000048,"y":2551591.9500000011}},{"attributes":{"ID":417037,"DIS_CODE":0,"TOWNNAME":"安南區","LI":"安西里","LIN":"2鄰","STREET":"安和路","SECT":"一段","MAREA":" ","LANE":"２１５巷","ALLEY":" ","HOUSE_NO":"１６號","E_COORD97":169229.59,"N_COORD97":2547953.8500000001,"ADDRESS":"安和路一段２１５巷１６號","OBJECTID":417013},"geometry":{"x":169229.59000000171,"y":2547953.8499999996}},{"attributes":{"ID":417038,"DIS_CODE":0,"TOWNNAME":"安南區","LI":"安西里","LIN":"2鄰","STREET":"安和路","SECT":"一段","MAREA":" ","LANE":"２１５巷","ALLEY":" ","HOUSE_NO":"１３號","E_COORD97":169263.64000000001,"N_COORD97":2547940.27,"ADDRESS":"安和路一段２１５巷１３號","OBJECTID":417014},"geometry":{"x":169263.6400000006,"y":2547940.2699999996}},{"attributes":{"ID":417039,"DIS_CODE":0,"TOWNNAME":"安南區","LI":"溪墘里","LIN":"2鄰","STREET":"海佃路","SECT":"一段","MAREA":" ","LANE":"１５８巷","ALLEY":" ","HOUSE_NO":"２３號","E_COORD97":167244.98000000001,"N_COORD97":2547218.3199999998,"ADDRESS":"海佃路一段１５８巷２３號","OBJECTID":417015},"geometry":{"x":167244.98000000138,"y":2547218.3200000003}},{"attributes":{"ID":417040,"DIS_CODE":0,"TOWNNAME":"安南區","LI":"溪北里","LIN":"2鄰","STREET":"安和路","SECT":"一段","MAREA":" ","LANE":"９１巷","ALLEY":" ","HOUSE_NO":"５２號","E_COORD97":169323.56,"N_COORD97":2547538.1299999999,"ADDRESS":"安和路一段９１巷５２號","OBJECTID":417016},"geometry":{"x":169323.56000000052,"y":2547538.1300000027}},{"attributes":{"ID":417041,"DIS_CODE":0,"TOWNNAME":"東區","LI":"新東里","LIN":"2鄰","STREET":"東門路","SECT":"二段","MAREA":" ","LANE":"１６１巷","ALLEY":" ","HOUSE_NO":"５號","E_COORD97":170361.12,"N_COORD97":2542921.7799999998,"ADDRESS":"東門路二段１６１巷５號","OBJECTID":417017},"geometry":{"x":170361.12000000104,"y":2542921.7799999993}},{"attributes":{"ID":417042,"DIS_CODE":0,"TOWNNAME":"安南區","LI":"溪北里","LIN":"2鄰","STREET":"安和路","SECT":"一段","MAREA":" ","LANE":"９１巷","ALLEY":" ","HOUSE_NO":"７６號","E_COORD97":169247.91,"N_COORD97":2547510.75,"ADDRESS":"安和路一段９１巷７６號","OBJECTID":417018},"geometry":{"x":169247.91000000015,"y":2547510.75}},{"attributes":{"ID":417043,"DIS_CODE":0,"TOWNNAME":"麻豆區","LI":"埤頭里","LIN":"13鄰","STREET":" ","SECT":" ","MAREA":"埤頭","LANE":" ","ALLEY":" ","HOUSE_NO":"１１２號之３","E_COORD97":170835.986137,"N_COORD97":2566638.09815,"ADDRESS":"埤頭１１２號之３","OBJECTID":417019},"geometry":{"x":170835.98613699991,"y":2566638.0981540028}},{"attributes":{"ID":417044,"DIS_CODE":0,"TOWNNAME":"安南區","LI":"溪北里","LIN":"2鄰","STREET":"安和路","SECT":"一段","MAREA":" ","LANE":"９１巷","ALLEY":" ","HOUSE_NO":"１００號","E_COORD97":169152.04000000001,"N_COORD97":2547496.4399999999,"ADDRESS":"安和路一段９１巷１００號","OBJECTID":417020},"geometry":{"x":169152.04000000004,"y":2547496.4400000013}},{"attributes":{"ID":417045,"DIS_CODE":0,"TOWNNAME":"安南區","LI":"溪北里","LIN":"2鄰","STREET":"安和路","SECT":"一段","MAREA":" ","LANE":"９１巷","ALLEY":" ","HOUSE_NO":"１２號","E_COORD97":169439.26999999999,"N_COORD97":2547583.4100000001,"ADDRESS":"安和路一段９１巷１２號","OBJECTID":417021},"geometry":{"x":169439.26999999955,"y":2547583.4100000001}},{"attributes":{"ID":417046,"DIS_CODE":0,"TOWNNAME":"安南區","LI":"溪北里","LIN":"2鄰","STREET":"安和路","SECT":"一段","MAREA":" ","LANE":"９１巷","ALLEY":" ","HOUSE_NO":"１６號","E_COORD97":169429.51000000001,"N_COORD97":2547581.1400000001,"ADDRESS":"安和路一段９１巷１６號","OBJECTID":417022},"geometry":{"x":169429.50999999978,"y":2547581.1400000025}},{"attributes":{"ID":417047,"DIS_CODE":0,"TOWNNAME":"安南區","LI":"溪北里","LIN":"2鄰","STREET":"安和路","SECT":"一段","MAREA":" ","LANE":"９１巷","ALLEY":" ","HOUSE_NO":"１８號","E_COORD97":169418.97,"N_COORD97":2547575.3700000001,"ADDRESS":"安和路一段９１巷１８號","OBJECTID":417023},"geometry":{"x":169418.97000000067,"y":2547575.370000001}},{"attributes":{"ID":417048,"DIS_CODE":0,"TOWNNAME":"安南區","LI":"溪北里","LIN":"2鄰","STREET":"安和路","SECT":"一段","MAREA":" ","LANE":"９１巷","ALLEY":" ","HOUSE_NO":"２０號","E_COORD97":169414.48000000001,"N_COORD97":2547573.2400000002,"ADDRESS":"安和路一段９１巷２０號","OBJECTID":417024},"geometry":{"x":169414.48000000138,"y":2547573.2400000021}},{"attributes":{"ID":417049,"DIS_CODE":0,"TOWNNAME":"安南區","LI":"溪北里","LIN":"2鄰","STREET":"安和路","SECT":"一段","MAREA":" ","LANE":"９１巷","ALLEY":" ","HOUSE_NO":"２２號","E_COORD97":169408.63,"N_COORD97":2547570.8799999999,"ADDRESS":"安和路一段９１巷２２號","OBJECTID":417025},"geometry":{"x":169408.62999999989,"y":2547570.8800000008}},{"attributes":{"ID":417050,"DIS_CODE":0,"TOWNNAME":"安南區","LI":"溪北里","LIN":"2鄰","STREET":"安和路","SECT":"一段","MAREA":" ","LANE":"９１巷","ALLEY":" ","HOUSE_NO":"２４號","E_COORD97":169405.04000000001,"N_COORD97":2547568.0800000001,"ADDRESS":"安和路一段９１巷２４號","OBJECTID":417026},"geometry":{"x":169405.04000000097,"y":2547568.0800000019}},{"attributes":{"ID":417051,"DIS_CODE":0,"TOWNNAME":"安南區","LI":"溪北里","LIN":"2鄰","STREET":"安和路","SECT":"一段","MAREA":" ","LANE":"９１巷","ALLEY":" ","HOUSE_NO":"２６號","E_COORD97":169399.42000000001,"N_COORD97":2547566.8399999999,"ADDRESS":"安和路一段９１巷２６號","OBJECTID":417027},"geometry":{"x":169399.42000000086,"y":2547566.8399999999}},{"attributes":{"ID":417052,"DIS_CODE":0,"TOWNNAME":"安南區","LI":"溪北里","LIN":"2鄰","STREET":"安和路","SECT":"一段","MAREA":" ","LANE":"９１巷","ALLEY":" ","HOUSE_NO":"２８號","E_COORD97":169394.81,"N_COORD97":2547565.7200000002,"ADDRESS":"安和路一段９１巷２８號","OBJECTID":417028},"geometry":{"x":169394.81000000052,"y":2547565.7200000007}},{"attributes":{"ID":417053,"DIS_CODE":0,"TOWNNAME":"安南區","LI":"溪北里","LIN":"2鄰","STREET":"安和路","SECT":"一段","MAREA":" ","LANE":"９１巷","ALLEY":" ","HOUSE_NO":"２號","E_COORD97":169464.35000000001,"N_COORD97":2547592.6299999999,"ADDRESS":"安和路一段９１巷２號","OBJECTID":417029},"geometry":{"x":169464.34999999963,"y":2547592.6300000008}},{"attributes":{"ID":417054,"DIS_CODE":0,"TOWNNAME":"安南區","LI":"溪北里","LIN":"2鄰","STREET":"安和路","SECT":"一段","MAREA":" ","LANE":"９１巷","ALLEY":" ","HOUSE_NO":"３０號","E_COORD97":169389.37,"N_COORD97":2547563.5600000001,"ADDRESS":"安和路一段９１巷３０號","OBJECTID":417030},"geometry":{"x":169389.37000000104,"y":2547563.5600000005}},{"attributes":{"ID":417055,"DIS_CODE":0,"TOWNNAME":"仁德區","LI":"後壁里","LIN":"18鄰","STREET":"德南路","SECT":" ","MAREA":" ","LANE":"７０巷","ALLEY":" ","HOUSE_NO":"３７號","E_COORD97":173374.10000000001,"N_COORD97":2538618.2599999998,"ADDRESS":"德南路７０巷３７號","OBJECTID":417031},"geometry":{"x":173374.10000000149,"y":2538618.2600000016}},{"attributes":{"ID":417056,"DIS_CODE":0,"TOWNNAME":"仁德區","LI":"後壁里","LIN":"15鄰","STREET":"德南路","SECT":" ","MAREA":" ","LANE":"１３７巷","ALLEY":" ","HOUSE_NO":"６８之９號","E_COORD97":173656.44,"N_COORD97":2538650.8700000001,"ADDRESS":"德南路１３７巷６８之９號","OBJECTID":417032},"geometry":{"x":173656.44000000134,"y":2538650.870000001}},{"attributes":{"ID":417057,"DIS_CODE":0,"TOWNNAME":"仁德區","LI":"後壁里","LIN":"15鄰","STREET":"德善路","SECT":" ","MAREA":" ","LANE":"１０６巷","ALLEY":" ","HOUSE_NO":"１號","E_COORD97":173412.20000000001,"N_COORD97":2538795.0099999998,"ADDRESS":"德善路１０６巷１號","OBJECTID":417033},"geometry":{"x":173412.20000000019,"y":2538795.0099999998}},{"attributes":{"ID":417058,"DIS_CODE":0,"TOWNNAME":"安南區","LI":"溪北里","LIN":"2鄰","STREET":"安和路","SECT":"一段","MAREA":" ","LANE":"９１巷","ALLEY":" ","HOUSE_NO":"３２號","E_COORD97":169384.54000000001,"N_COORD97":2547561.6499999999,"ADDRESS":"安和路一段９１巷３２號","OBJECTID":417034},"geometry":{"x":169384.5400000019,"y":2547561.6500000004}},{"attributes":{"ID":417059,"DIS_CODE":0,"TOWNNAME":"安南區","LI":"溪北里","LIN":"2鄰","STREET":"安和路","SECT":"一段","MAREA":" ","LANE":"９１巷","ALLEY":" ","HOUSE_NO":"３４號","E_COORD97":169379.92999999999,"N_COORD97":2547558.96,"ADDRESS":"安和路一段９１巷３４號","OBJECTID":417035},"geometry":{"x":169379.93000000063,"y":2547558.9600000028}},{"attributes":{"ID":417060,"DIS_CODE":0,"TOWNNAME":"安南區","LI":"溪北里","LIN":"2鄰","STREET":"安和路","SECT":"一段","MAREA":" ","LANE":"９１巷","ALLEY":" ","HOUSE_NO":"３６號","E_COORD97":169374.76000000001,"N_COORD97":2547557.9500000002,"ADDRESS":"安和路一段９１巷３６號","OBJECTID":417036},"geometry":{"x":169374.76000000071,"y":2547557.9500000011}},{"attributes":{"ID":417061,"DIS_CODE":0,"TOWNNAME":"安南區","LI":"溪北里","LIN":"2鄰","STREET":"安和路","SECT":"一段","MAREA":" ","LANE":"９１巷","ALLEY":" ","HOUSE_NO":"３８號","E_COORD97":169369.92999999999,"N_COORD97":2547555.7000000002,"ADDRESS":"安和路一段９１巷３８號","OBJECTID":417037},"geometry":{"x":169369.93000000063,"y":2547555.7000000011}},{"attributes":{"ID":417062,"DIS_CODE":0,"TOWNNAME":"安南區","LI":"溪北里","LIN":"2鄰","STREET":"安和路","SECT":"一段","MAREA":" ","LANE":"９１巷","ALLEY":" ","HOUSE_NO":"４０號","E_COORD97":169364.76000000001,"N_COORD97":2547553.23,"ADDRESS":"安和路一段９１巷４０號","OBJECTID":417038},"geometry":{"x":169364.76000000071,"y":2547553.2300000023}},{"attributes":{"ID":417063,"DIS_CODE":0,"TOWNNAME":"安南區","LI":"溪北里","LIN":"2鄰","STREET":"安和路","SECT":"一段","MAREA":" ","LANE":"９１巷","ALLEY":" ","HOUSE_NO":"４２號","E_COORD97":169360.26999999999,"N_COORD97":2547551.77,"ADDRESS":"安和路一段９１巷４２號","OBJECTID":417039},"geometry":{"x":169360.27000000142,"y":2547551.7700000014}},{"attributes":{"ID":417064,"DIS_CODE":0,"TOWNNAME":"安南區","LI":"溪北里","LIN":"2鄰","STREET":"安和路","SECT":"一段","MAREA":" ","LANE":"９１巷","ALLEY":" ","HOUSE_NO":"４４號","E_COORD97":169348.62,"N_COORD97":2547546.3199999998,"ADDRESS":"安和路一段９１巷４４號","OBJECTID":417040},"geometry":{"x":169348.62000000104,"y":2547546.3200000022}},{"attributes":{"ID":417065,"DIS_CODE":0,"TOWNNAME":"安南區","LI":"溪北里","LIN":"2鄰","STREET":"安和路","SECT":"一段","MAREA":" ","LANE":"９１巷","ALLEY":" ","HOUSE_NO":"４６號","E_COORD97":169343.12,"N_COORD97":2547544.6400000001,"ADDRESS":"安和路一段９１巷４６號","OBJECTID":417041},"geometry":{"x":169343.12000000011,"y":2547544.6400000025}},{"attributes":{"ID":417066,"DIS_CODE":0,"TOWNNAME":"安南區","LI":"溪北里","LIN":"2鄰","STREET":"安和路","SECT":"一段","MAREA":" ","LANE":"９１巷","ALLEY":" ","HOUSE_NO":"４８號","E_COORD97":169336.14999999999,"N_COORD97":2547542.0600000001,"ADDRESS":"安和路一段９１巷４８號","OBJECTID":417042},"geometry":{"x":169336.15000000037,"y":2547542.0600000005}},{"attributes":{"ID":417067,"DIS_CODE":0,"TOWNNAME":"安南區","LI":"溪北里","LIN":"2鄰","STREET":"安和路","SECT":"一段","MAREA":" ","LANE":"９１巷","ALLEY":" ","HOUSE_NO":"４號","E_COORD97":169458.62,"N_COORD97":2547591.2000000002,"ADDRESS":"安和路一段９１巷４號","OBJECTID":417043},"geometry":{"x":169458.62000000197,"y":2547591.1999999993}},{"attributes":{"ID":417068,"DIS_CODE":0,"TOWNNAME":"安南區","LI":"溪北里","LIN":"2鄰","STREET":"安和路","SECT":"一段","MAREA":" ","LANE":"９１巷","ALLEY":" ","HOUSE_NO":"５０號","E_COORD97":169330.19,"N_COORD97":2547539.9300000002,"ADDRESS":"安和路一段９１巷５０號","OBJECTID":417044},"geometry":{"x":169330.19000000134,"y":2547539.9299999997}},{"attributes":{"ID":417069,"DIS_CODE":0,"TOWNNAME":"安南區","LI":"溪北里","LIN":"2鄰","STREET":"安和路","SECT":"一段","MAREA":" ","LANE":"９１巷","ALLEY":" ","HOUSE_NO":"５４號","E_COORD97":169317.5,"N_COORD97":2547535.5,"ADDRESS":"安和路一段９１巷５４號","OBJECTID":417045},"geometry":{"x":169317.50000000093,"y":2547535.5}},{"attributes":{"ID":417070,"DIS_CODE":0,"TOWNNAME":"安南區","LI":"溪北里","LIN":"2鄰","STREET":"安和路","SECT":"一段","MAREA":" ","LANE":"９１巷","ALLEY":" ","HOUSE_NO":"５６號","E_COORD97":169310.64999999999,"N_COORD97":2547532.8399999999,"ADDRESS":"安和路一段９１巷５６號","OBJECTID":417046},"geometry":{"x":169310.65000000037,"y":2547532.8399999999}},{"attributes":{"ID":417071,"DIS_CODE":0,"TOWNNAME":"安南區","LI":"溪北里","LIN":"2鄰","STREET":"安和路","SECT":"一段","MAREA":" ","LANE":"９１巷","ALLEY":" ","HOUSE_NO":"６０號","E_COORD97":169298.73000000001,"N_COORD97":2547528.6600000001,"ADDRESS":"安和路一段９１巷６０號","OBJECTID":417047},"geometry":{"x":169298.72999999952,"y":2547528.6600000001}},{"attributes":{"ID":417072,"DIS_CODE":0,"TOWNNAME":"安南區","LI":"溪北里","LIN":"2鄰","STREET":"安和路","SECT":"一段","MAREA":" ","LANE":"９１巷","ALLEY":" ","HOUSE_NO":"６２號","E_COORD97":169291.70999999999,"N_COORD97":2547526.2200000002,"ADDRESS":"安和路一段９１巷６２號","OBJECTID":417048},"geometry":{"x":169291.71000000183,"y":2547526.2200000025}},{"attributes":{"ID":417073,"DIS_CODE":0,"TOWNNAME":"安南區","LI":"溪北里","LIN":"2鄰","STREET":"安和路","SECT":"一段","MAREA":" ","LANE":"９１巷","ALLEY":" ","HOUSE_NO":"６４號","E_COORD97":169286.76000000001,"N_COORD97":2547523.9399999999,"ADDRESS":"安和路一段９１巷６４號","OBJECTID":417049},"geometry":{"x":169286.76000000071,"y":2547523.9400000013}},{"attributes":{"ID":417074,"DIS_CODE":0,"TOWNNAME":"安南區","LI":"溪北里","LIN":"2鄰","STREET":"安和路","SECT":"一段","MAREA":" ","LANE":"９１巷","ALLEY":" ","HOUSE_NO":"６６號","E_COORD97":169280.29999999999,"N_COORD97":2547522.04,"ADDRESS":"安和路一段９１巷６６號","OBJECTID":417050},"geometry":{"x":169280.29999999981,"y":2547522.0400000028}},{"attributes":{"ID":417075,"DIS_CODE":0,"TOWNNAME":"安南區","LI":"溪北里","LIN":"2鄰","STREET":"安和路","SECT":"一段","MAREA":" ","LANE":"９１巷","ALLEY":" ","HOUSE_NO":"６８號","E_COORD97":169273.82999999999,"N_COORD97":2547519.7599999998,"ADDRESS":"安和路一段９１巷６８號","OBJECTID":417051},"geometry":{"x":169273.83000000007,"y":2547519.7599999998}},{"attributes":{"ID":417076,"DIS_CODE":0,"TOWNNAME":"安南區","LI":"溪北里","LIN":"2鄰","STREET":"安和路","SECT":"一段","MAREA":" ","LANE":"９１巷","ALLEY":" ","HOUSE_NO":"６號","E_COORD97":169453.82000000001,"N_COORD97":2547589.25,"ADDRESS":"安和路一段９１巷６號","OBJECTID":417052},"geometry":{"x":169453.8200000003,"y":2547589.2500000037}},{"attributes":{"ID":417077,"DIS_CODE":0,"TOWNNAME":"安南區","LI":"溪北里","LIN":"2鄰","STREET":"安和路","SECT":"一段","MAREA":" ","LANE":"９１巷","ALLEY":" ","HOUSE_NO":"７０號","E_COORD97":169266.29999999999,"N_COORD97":2547517.3399999999,"ADDRESS":"安和路一段９１巷７０號","OBJECTID":417053},"geometry":{"x":169266.30000000075,"y":2547517.3400000036}},{"attributes":{"ID":417078,"DIS_CODE":0,"TOWNNAME":"安南區","LI":"溪北里","LIN":"2鄰","STREET":"安和路","SECT":"一段","MAREA":" ","LANE":"９１巷","ALLEY":" ","HOUSE_NO":"７２號","E_COORD97":169261.22,"N_COORD97":2547515.0600000001,"ADDRESS":"安和路一段９１巷７２號","OBJECTID":417054},"geometry":{"x":169261.22000000067,"y":2547515.0600000005}},{"attributes":{"ID":417079,"DIS_CODE":0,"TOWNNAME":"安南區","LI":"溪北里","LIN":"2鄰","STREET":"安和路","SECT":"一段","MAREA":" ","LANE":"９１巷","ALLEY":" ","HOUSE_NO":"７４號","E_COORD97":169254.88,"N_COORD97":2547512.3999999999,"ADDRESS":"安和路一段９１巷７４號","OBJECTID":417055},"geometry":{"x":169254.88000000175,"y":2547512.4000000004}},{"attributes":{"ID":417080,"DIS_CODE":0,"TOWNNAME":"安南區","LI":"溪北里","LIN":"2鄰","STREET":"安和路","SECT":"一段","MAREA":" ","LANE":"９１巷","ALLEY":" ","HOUSE_NO":"８４號","E_COORD97":169213.54000000001,"N_COORD97":2547501.6899999999,"ADDRESS":"安和路一段９１巷８４號","OBJECTID":417056},"geometry":{"x":169213.54000000097,"y":2547501.6900000013}},{"attributes":{"ID":417081,"DIS_CODE":0,"TOWNNAME":"安南區","LI":"溪北里","LIN":"2鄰","STREET":"安和路","SECT":"一段","MAREA":" ","LANE":"９１巷","ALLEY":" ","HOUSE_NO":"８６號","E_COORD97":169208.59,"N_COORD97":2547500.73,"ADDRESS":"安和路一段９１巷８６號","OBJECTID":417057},"geometry":{"x":169208.58999999985,"y":2547500.7300000004}},{"attributes":{"ID":417082,"DIS_CODE":0,"TOWNNAME":"仁德區","LI":"新田里","LIN":"5鄰","STREET":"勝利二街","SECT":" ","MAREA":" ","LANE":"２９巷","ALLEY":" ","HOUSE_NO":"９號","E_COORD97":174915.41,"N_COORD97":2539309,"ADDRESS":"勝利二街２９巷９號","OBJECTID":417058},"geometry":{"x":174915.41000000108,"y":2539309.0000000019}},{"attributes":{"ID":417083,"DIS_CODE":0,"TOWNNAME":"仁德區","LI":"後壁里","LIN":"15鄰","STREET":"德南路","SECT":" ","MAREA":" ","LANE":"４３巷","ALLEY":" ","HOUSE_NO":"６號","E_COORD97":173402.14999999999,"N_COORD97":2538781.77,"ADDRESS":"德南路４３巷６號","OBJECTID":417059},"geometry":{"x":173402.1500000013,"y":2538781.7700000014}},{"attributes":{"ID":417084,"DIS_CODE":0,"TOWNNAME":"仁德區","LI":"新田里","LIN":"6鄰","STREET":"勝利路","SECT":" ","MAREA":" ","LANE":"２４７巷","ALLEY":" ","HOUSE_NO":"４號","E_COORD97":174888.29000000001,"N_COORD97":2539447,"ADDRESS":"勝利路２４７巷４號","OBJECTID":417060},"geometry":{"x":174888.29000000004,"y":2539446.9999999981}},{"attributes":{"ID":417085,"DIS_CODE":0,"TOWNNAME":"安南區","LI":"溪北里","LIN":"2鄰","STREET":"安和路","SECT":"一段","MAREA":" ","LANE":"９１巷","ALLEY":" ","HOUSE_NO":"８８號","E_COORD97":169201.16,"N_COORD97":2547500.1899999999,"ADDRESS":"安和路一段９１巷８８號","OBJECTID":417061},"geometry":{"x":169201.16000000108,"y":2547500.1899999995}},{"attributes":{"ID":417086,"DIS_CODE":0,"TOWNNAME":"安南區","LI":"溪北里","LIN":"2鄰","STREET":"安和路","SECT":"一段","MAREA":" ","LANE":"９１巷","ALLEY":" ","HOUSE_NO":"８號","E_COORD97":169450.07000000001,"N_COORD97":2547587,"ADDRESS":"安和路一段９１巷８號","OBJECTID":417062},"geometry":{"x":169450.0700000003,"y":2547587}},{"attributes":{"ID":417087,"DIS_CODE":0,"TOWNNAME":"安南區","LI":"溪北里","LIN":"2鄰","STREET":"安和路","SECT":"一段","MAREA":" ","LANE":"９１巷","ALLEY":" ","HOUSE_NO":"９０號","E_COORD97":169193.95000000001,"N_COORD97":2547499.4399999999,"ADDRESS":"安和路一段９１巷９０號","OBJECTID":417063},"geometry":{"x":169193.95000000112,"y":2547499.4400000032}},{"attributes":{"ID":417088,"DIS_CODE":0,"TOWNNAME":"安南區","LI":"溪北里","LIN":"2鄰","STREET":"安和路","SECT":"一段","MAREA":" ","LANE":"９１巷","ALLEY":" ","HOUSE_NO":"９２號","E_COORD97":169188.14000000001,"N_COORD97":2547499.3300000001,"ADDRESS":"安和路一段９１巷９２號","OBJECTID":417064},"geometry":{"x":169188.13999999966,"y":2547499.3300000001}},{"attributes":{"ID":417089,"DIS_CODE":0,"TOWNNAME":"安南區","LI":"溪北里","LIN":"2鄰","STREET":"安和路","SECT":"一段","MAREA":" ","LANE":"９１巷","ALLEY":" ","HOUSE_NO":"９４號","E_COORD97":169177.54000000001,"N_COORD97":2547496.8500000001,"ADDRESS":"安和路一段９１巷９４號","OBJECTID":417065},"geometry":{"x":169177.53999999911,"y":2547496.8500000034}},{"attributes":{"ID":417090,"DIS_CODE":0,"TOWNNAME":"安南區","LI":"溪北里","LIN":"2鄰","STREET":"安和路","SECT":"一段","MAREA":" ","LANE":"９１巷","ALLEY":" ","HOUSE_NO":"９６號","E_COORD97":169171.51000000001,"N_COORD97":2547496.21,"ADDRESS":"安和路一段９１巷９６號","OBJECTID":417066},"geometry":{"x":169171.51000000071,"y":2547496.2100000028}},{"attributes":{"ID":417091,"DIS_CODE":0,"TOWNNAME":"安南區","LI":"溪北里","LIN":"2鄰","STREET":"安和路","SECT":"一段","MAREA":" ","LANE":"９１巷","ALLEY":" ","HOUSE_NO":"９８號","E_COORD97":169163.87,"N_COORD97":2547495.9900000002,"ADDRESS":"安和路一段９１巷９８號","OBJECTID":417067},"geometry":{"x":169163.87000000104,"y":2547495.9900000002}},{"attributes":{"ID":417092,"DIS_CODE":0,"TOWNNAME":"安南區","LI":"溪墘里","LIN":"2鄰","STREET":"海佃路","SECT":"一段","MAREA":" ","LANE":"１５８巷","ALLEY":" ","HOUSE_NO":"３３號","E_COORD97":167270.23000000001,"N_COORD97":2547222.8599999999,"ADDRESS":"海佃路一段１５８巷３３號","OBJECTID":417068},"geometry":{"x":167270.23000000138,"y":2547222.8600000013}},{"attributes":{"ID":417093,"DIS_CODE":0,"TOWNNAME":"安南區","LI":"溪墘里","LIN":"2鄰","STREET":"海佃路","SECT":"一段","MAREA":" ","LANE":"１５８巷","ALLEY":" ","HOUSE_NO":"１１號","E_COORD97":167216.32000000001,"N_COORD97":2547212.0299999998,"ADDRESS":"海佃路一段１５８巷１１號","OBJECTID":417069},"geometry":{"x":167216.32000000216,"y":2547212.0299999993}},{"attributes":{"ID":417094,"DIS_CODE":0,"TOWNNAME":"安南區","LI":"溪墘里","LIN":"2鄰","STREET":"海佃路","SECT":"一段","MAREA":" ","LANE":"１５８巷","ALLEY":" ","HOUSE_NO":"１３號","E_COORD97":167220.88,"N_COORD97":2547212.6800000002,"ADDRESS":"海佃路一段１５８巷１３號","OBJECTID":417070},"geometry":{"x":167220.88000000082,"y":2547212.6799999997}},{"attributes":{"ID":417095,"DIS_CODE":0,"TOWNNAME":"安南區","LI":"溪墘里","LIN":"2鄰","STREET":"海佃路","SECT":"一段","MAREA":" ","LANE":"１５８巷","ALLEY":" ","HOUSE_NO":"１７號","E_COORD97":167230.64000000001,"N_COORD97":2547216.2200000002,"ADDRESS":"海佃路一段１５８巷１７號","OBJECTID":417071},"geometry":{"x":167230.6400000006,"y":2547216.2200000007}},{"attributes":{"ID":417096,"DIS_CODE":0,"TOWNNAME":"安南區","LI":"溪墘里","LIN":"2鄰","STREET":"海佃路","SECT":"一段","MAREA":" ","LANE":"１５８巷","ALLEY":" ","HOUSE_NO":"１９號","E_COORD97":167235.17000000001,"N_COORD97":2547216.9199999999,"ADDRESS":"海佃路一段１５８巷１９號","OBJECTID":417072},"geometry":{"x":167235.16999999993,"y":2547216.9199999999}},{"attributes":{"ID":417097,"DIS_CODE":0,"TOWNNAME":"安南區","LI":"溪墘里","LIN":"2鄰","STREET":"海佃路","SECT":"一段","MAREA":" ","LANE":"１５８巷","ALLEY":" ","HOUSE_NO":"２１號","E_COORD97":167240.01999999999,"N_COORD97":2547217.79,"ADDRESS":"海佃路一段１５８巷２１號","OBJECTID":417073},"geometry":{"x":167240.02000000048,"y":2547217.7899999991}},{"attributes":{"ID":417098,"DIS_CODE":0,"TOWNNAME":"安南區","LI":"溪墘里","LIN":"2鄰","STREET":"海佃路","SECT":"一段","MAREA":" ","LANE":"１５８巷","ALLEY":" ","HOUSE_NO":"２５號","E_COORD97":167250.17000000001,"N_COORD97":2547219.02,"ADDRESS":"海佃路一段１５８巷２５號","OBJECTID":417074},"geometry":{"x":167250.16999999993,"y":2547219.0200000014}},{"attributes":{"ID":417099,"DIS_CODE":0,"TOWNNAME":"安南區","LI":"溪墘里","LIN":"2鄰","STREET":"海佃路","SECT":"一段","MAREA":" ","LANE":"１５８巷","ALLEY":" ","HOUSE_NO":"２７號","E_COORD97":167255.48000000001,"N_COORD97":2547219.7200000002,"ADDRESS":"海佃路一段１５８巷２７號","OBJECTID":417075},"geometry":{"x":167255.48000000045,"y":2547219.7200000007}},{"attributes":{"ID":417100,"DIS_CODE":0,"TOWNNAME":"安南區","LI":"溪墘里","LIN":"2鄰","STREET":"海佃路","SECT":"一段","MAREA":" ","LANE":"１５８巷","ALLEY":" ","HOUSE_NO":"２９號","E_COORD97":167259.26000000001,"N_COORD97":2547221.3500000001,"ADDRESS":"海佃路一段１５８巷２９號","OBJECTID":417076},"geometry":{"x":167259.26000000071,"y":2547221.3499999996}},{"attributes":{"ID":417101,"DIS_CODE":0,"TOWNNAME":"安南區","LI":"溪墘里","LIN":"2鄰","STREET":"海佃路","SECT":"一段","MAREA":" ","LANE":"１５８巷","ALLEY":" ","HOUSE_NO":"３１號","E_COORD97":167264.63,"N_COORD97":2547222.2799999998,"ADDRESS":"海佃路一段１５８巷３１號","OBJECTID":417077},"geometry":{"x":167264.63000000175,"y":2547222.2800000031}},{"attributes":{"ID":417102,"DIS_CODE":0,"TOWNNAME":"安南區","LI":"溪墘里","LIN":"2鄰","STREET":"海佃路","SECT":"一段","MAREA":" ","LANE":"１５８巷","ALLEY":" ","HOUSE_NO":"３５號","E_COORD97":167274.54000000001,"N_COORD97":2547223.9100000001,"ADDRESS":"海佃路一段１５８巷３５號","OBJECTID":417078},"geometry":{"x":167274.54000000097,"y":2547223.9100000001}},{"attributes":{"ID":417103,"DIS_CODE":0,"TOWNNAME":"安南區","LI":"溪墘里","LIN":"2鄰","STREET":"海佃路","SECT":"一段","MAREA":" ","LANE":"１５８巷","ALLEY":" ","HOUSE_NO":"３９號","E_COORD97":167286.16,"N_COORD97":2547229.0899999999,"ADDRESS":"海佃路一段１５８巷３９號","OBJECTID":417079},"geometry":{"x":167286.16000000015,"y":2547229.0899999999}},{"attributes":{"ID":417104,"DIS_CODE":0,"TOWNNAME":"安南區","LI":"溪墘里","LIN":"2鄰","STREET":"海佃路","SECT":"一段","MAREA":" ","LANE":"１５８巷","ALLEY":" ","HOUSE_NO":"４１號","E_COORD97":167290.88,"N_COORD97":2547228.5099999998,"ADDRESS":"海佃路一段１５８巷４１號","OBJECTID":417080},"geometry":{"x":167290.88000000082,"y":2547228.5100000016}},{"attributes":{"ID":417105,"DIS_CODE":0,"TOWNNAME":"安南區","LI":"溪墘里","LIN":"2鄰","STREET":"海佃路","SECT":"一段","MAREA":" ","LANE":"１５８巷","ALLEY":" ","HOUSE_NO":"４３號","E_COORD97":167295.45999999999,"N_COORD97":2547229.79,"ADDRESS":"海佃路一段１５８巷４３號","OBJECTID":417081},"geometry":{"x":167295.46000000089,"y":2547229.790000001}},{"attributes":{"ID":417106,"DIS_CODE":0,"TOWNNAME":"安南區","LI":"溪墘里","LIN":"2鄰","STREET":"海佃路","SECT":"一段","MAREA":" ","LANE":"１５８巷","ALLEY":" ","HOUSE_NO":"４５號","E_COORD97":167301.12,"N_COORD97":2547230.4900000002,"ADDRESS":"海佃路一段１５８巷４５號","OBJECTID":417082},"geometry":{"x":167301.12000000104,"y":2547230.4900000002}},{"attributes":{"ID":417107,"DIS_CODE":0,"TOWNNAME":"仁德區","LI":"新田里","LIN":"4鄰","STREET":"新田路","SECT":" ","MAREA":" ","LANE":"２４０巷","ALLEY":" ","HOUSE_NO":"９號","E_COORD97":174530.89999999999,"N_COORD97":2539607.75,"ADDRESS":"新田路２４０巷９號","OBJECTID":417083},"geometry":{"x":174530.9000000013,"y":2539607.75}},{"attributes":{"ID":417108,"DIS_CODE":0,"TOWNNAME":"安南區","LI":"溪墘里","LIN":"2鄰","STREET":"海佃路","SECT":"一段","MAREA":" ","LANE":"１５８巷","ALLEY":" ","HOUSE_NO":"４７號","E_COORD97":167305.95999999999,"N_COORD97":2547230.8999999999,"ADDRESS":"海佃路一段１５８巷４７號","OBJECTID":417084},"geometry":{"x":167305.95999999996,"y":2547230.9000000022}},{"attributes":{"ID":417109,"DIS_CODE":0,"TOWNNAME":"安南區","LI":"溪墘里","LIN":"2鄰","STREET":"海佃路","SECT":"一段","MAREA":" ","LANE":"１５８巷","ALLEY":" ","HOUSE_NO":"４９號","E_COORD97":167309.41,"N_COORD97":2547231.0699999998,"ADDRESS":"海佃路一段１５８巷４９號","OBJECTID":417085},"geometry":{"x":167309.41000000108,"y":2547231.0700000003}},{"attributes":{"ID":417110,"DIS_CODE":0,"TOWNNAME":"安南區","LI":"溪墘里","LIN":"2鄰","STREET":"海佃路","SECT":"一段","MAREA":" ","LANE":"１５８巷","ALLEY":" ","HOUSE_NO":"５１號","E_COORD97":167315.12,"N_COORD97":2547231.25,"ADDRESS":"海佃路一段１５８巷５１號","OBJECTID":417086},"geometry":{"x":167315.12000000011,"y":2547231.2500000019}},{"attributes":{"ID":417111,"DIS_CODE":0,"TOWNNAME":"安南區","LI":"溪墘里","LIN":"2鄰","STREET":"海佃路","SECT":"一段","MAREA":" ","LANE":"１５８巷","ALLEY":" ","HOUSE_NO":"５３號","E_COORD97":167320.88,"N_COORD97":2547232.8799999999,"ADDRESS":"海佃路一段１５８巷５３號","OBJECTID":417087},"geometry":{"x":167320.88000000082,"y":2547232.8800000008}},{"attributes":{"ID":417112,"DIS_CODE":0,"TOWNNAME":"安南區","LI":"溪墘里","LIN":"2鄰","STREET":"海佃路","SECT":"一段","MAREA":" ","LANE":"１５８巷","ALLEY":" ","HOUSE_NO":"５５號","E_COORD97":167326.07000000001,"N_COORD97":2547233.23,"ADDRESS":"海佃路一段１５８巷５５號","OBJECTID":417088},"geometry":{"x":167326.0700000003,"y":2547233.2300000004}},{"attributes":{"ID":417113,"DIS_CODE":0,"TOWNNAME":"安南區","LI":"溪墘里","LIN":"2鄰","STREET":"海佃路","SECT":"一段","MAREA":" ","LANE":"１５８巷","ALLEY":" ","HOUSE_NO":"５７號","E_COORD97":167330.09,"N_COORD97":2547233.9900000002,"ADDRESS":"海佃路一段１５８巷５７號","OBJECTID":417089},"geometry":{"x":167330.09000000078,"y":2547233.9900000002}},{"attributes":{"ID":417114,"DIS_CODE":0,"TOWNNAME":"安南區","LI":"溪墘里","LIN":"2鄰","STREET":"海佃路","SECT":"一段","MAREA":" ","LANE":"１５８巷","ALLEY":" ","HOUSE_NO":"５９號","E_COORD97":167335.04999999999,"N_COORD97":2547234.6800000002,"ADDRESS":"海佃路一段１５８巷５９號","OBJECTID":417090},"geometry":{"x":167335.05000000075,"y":2547234.6800000016}},{"attributes":{"ID":417115,"DIS_CODE":0,"TOWNNAME":"安南區","LI":"溪墘里","LIN":"2鄰","STREET":"海佃路","SECT":"一段","MAREA":" ","LANE":"１５８巷","ALLEY":" ","HOUSE_NO":"６１號","E_COORD97":167340.25,"N_COORD97":2547235.0899999999,"ADDRESS":"海佃路一段１５８巷６１號","OBJECTID":417091},"geometry":{"x":167340.25000000186,"y":2547235.0900000017}},{"attributes":{"ID":417116,"DIS_CODE":0,"TOWNNAME":"安南區","LI":"溪墘里","LIN":"2鄰","STREET":"海佃路","SECT":"一段","MAREA":" ","LANE":"１５８巷","ALLEY":" ","HOUSE_NO":"７號","E_COORD97":167206.06,"N_COORD97":2547210.3700000001,"ADDRESS":"海佃路一段１５８巷７號","OBJECTID":417092},"geometry":{"x":167206.06000000052,"y":2547210.3700000029}},{"attributes":{"ID":417117,"DIS_CODE":0,"TOWNNAME":"安南區","LI":"溪墘里","LIN":"2鄰","STREET":"海佃路","SECT":"一段","MAREA":" ","LANE":"１５８巷","ALLEY":" ","HOUSE_NO":"９號","E_COORD97":167210.89999999999,"N_COORD97":2547211.02,"ADDRESS":"海佃路一段１５８巷９號","OBJECTID":417093},"geometry":{"x":167210.90000000224,"y":2547211.0200000014}},{"attributes":{"ID":417118,"DIS_CODE":0,"TOWNNAME":"下營區","LI":"宅內里","LIN":"2鄰","STREET":"博愛街","SECT":" ","MAREA":" ","LANE":"９０巷","ALLEY":" ","HOUSE_NO":"６號","E_COORD97":173711.26999999999,"N_COORD97":2570566.98,"ADDRESS":"博愛街９０巷６號","OBJECTID":417094},"geometry":{"x":173711.26999999955,"y":2570566.9800000004}},{"attributes":{"ID":417119,"DIS_CODE":0,"TOWNNAME":"下營區","LI":"宅內里","LIN":"2鄰","STREET":"博愛街","SECT":" ","MAREA":" ","LANE":"１５巷","ALLEY":" ","HOUSE_NO":"１３號","E_COORD97":174154.28,"N_COORD97":2570548.23,"ADDRESS":"博愛街１５巷１３號","OBJECTID":417095},"geometry":{"x":174154.28000000026,"y":2570548.2300000004}},{"attributes":{"ID":417120,"DIS_CODE":0,"TOWNNAME":"下營區","LI":"宅內里","LIN":"2鄰","STREET":"博愛街","SECT":" ","MAREA":" ","LANE":"１５巷","ALLEY":" ","HOUSE_NO":"７號","E_COORD97":174149.91,"N_COORD97":2570566.9199999999,"ADDRESS":"博愛街１５巷７號","OBJECTID":417096},"geometry":{"x":174149.91000000015,"y":2570566.9199999999}},{"attributes":{"ID":417121,"DIS_CODE":0,"TOWNNAME":"北區","LI":"國姓里","LIN":"2鄰","STREET":"公園路","SECT":" ","MAREA":" ","LANE":"４３３巷","ALLEY":" ","HOUSE_NO":"１２號","E_COORD97":168952.32000000001,"N_COORD97":2545380.8399999999,"ADDRESS":"公園路４３３巷１２號","OBJECTID":417097},"geometry":{"x":168952.32000000216,"y":2545380.8399999999}},{"attributes":{"ID":417122,"DIS_CODE":0,"TOWNNAME":"北區","LI":"國姓里","LIN":"2鄰","STREET":"公園路","SECT":" ","MAREA":" ","LANE":"４３３巷","ALLEY":" ","HOUSE_NO":"２５號","E_COORD97":168889.39000000001,"N_COORD97":2545367.54,"ADDRESS":"公園路４３３巷２５號","OBJECTID":417098},"geometry":{"x":168889.38999999966,"y":2545367.5399999991}},{"attributes":{"ID":417123,"DIS_CODE":0,"TOWNNAME":"北區","LI":"國姓里","LIN":"2鄰","STREET":"公園路","SECT":" ","MAREA":" ","LANE":"４３３巷","ALLEY":" ","HOUSE_NO":"２６號","E_COORD97":168923.73999999999,"N_COORD97":2545386.1000000001,"ADDRESS":"公園路４３３巷２６號","OBJECTID":417099},"geometry":{"x":168923.74000000022,"y":2545386.1000000034}},{"attributes":{"ID":417124,"DIS_CODE":0,"TOWNNAME":"北區","LI":"國姓里","LIN":"2鄰","STREET":"公園路","SECT":" ","MAREA":" ","LANE":"４３３巷","ALLEY":" ","HOUSE_NO":"２７號","E_COORD97":168884.59,"N_COORD97":2545367.04,"ADDRESS":"公園路４３３巷２７號","OBJECTID":417100},"geometry":{"x":168884.59000000078,"y":2545367.040000001}},{"attributes":{"ID":417125,"DIS_CODE":0,"TOWNNAME":"北區","LI":"國姓里","LIN":"2鄰","STREET":"公園路","SECT":" ","MAREA":" ","LANE":"４３３巷","ALLEY":" ","HOUSE_NO":"２８號","E_COORD97":168920.41,"N_COORD97":2545387.4900000002,"ADDRESS":"公園路４３３巷２８號","OBJECTID":417101},"geometry":{"x":168920.41000000015,"y":2545387.4900000039}},{"attributes":{"ID":417126,"DIS_CODE":0,"TOWNNAME":"北區","LI":"國姓里","LIN":"2鄰","STREET":"公園路","SECT":" ","MAREA":" ","LANE":"４３３巷","ALLEY":" ","HOUSE_NO":"２９號","E_COORD97":168879.03,"N_COORD97":2545368.2999999998,"ADDRESS":"公園路４３３巷２９號","OBJECTID":417102},"geometry":{"x":168879.03000000026,"y":2545368.3000000007}},{"attributes":{"ID":417127,"DIS_CODE":0,"TOWNNAME":"北區","LI":"國姓里","LIN":"2鄰","STREET":"公園路","SECT":" ","MAREA":" ","LANE":"４３３巷","ALLEY":" ","HOUSE_NO":"２號","E_COORD97":168968.97,"N_COORD97":2545378.8999999999,"ADDRESS":"公園路４３３巷２號","OBJECTID":417103},"geometry":{"x":168968.96999999974,"y":2545378.9000000022}},{"attributes":{"ID":417128,"DIS_CODE":0,"TOWNNAME":"北區","LI":"國姓里","LIN":"2鄰","STREET":"公園路","SECT":" ","MAREA":" ","LANE":"４３３巷","ALLEY":" ","HOUSE_NO":"３１號","E_COORD97":168876,"N_COORD97":2545368.8100000001,"ADDRESS":"公園路４３３巷３１號","OBJECTID":417104},"geometry":{"x":168875.99999999907,"y":2545368.8100000042}},{"attributes":{"ID":417129,"DIS_CODE":0,"TOWNNAME":"北區","LI":"國姓里","LIN":"2鄰","STREET":"公園路","SECT":" ","MAREA":" ","LANE":"４３３巷","ALLEY":" ","HOUSE_NO":"３２號","E_COORD97":168900.26000000001,"N_COORD97":2545384.71,"ADDRESS":"公園路４３３巷３２號","OBJECTID":417105},"geometry":{"x":168900.26000000071,"y":2545384.7100000028}},{"attributes":{"ID":417130,"DIS_CODE":0,"TOWNNAME":"北區","LI":"國姓里","LIN":"2鄰","STREET":"公園路","SECT":" ","MAREA":" ","LANE":"４３３巷","ALLEY":" ","HOUSE_NO":"３３號","E_COORD97":168872.20999999999,"N_COORD97":2545369.3100000001,"ADDRESS":"公園路４３３巷３３號","OBJECTID":417106},"geometry":{"x":168872.20999999996,"y":2545369.3100000024}},{"attributes":{"ID":417131,"DIS_CODE":0,"TOWNNAME":"北區","LI":"國姓里","LIN":"2鄰","STREET":"公園路","SECT":" ","MAREA":" ","LANE":"４３３巷","ALLEY":" ","HOUSE_NO":"３４號","E_COORD97":168896.47,"N_COORD97":2545384.96,"ADDRESS":"公園路４３３巷３４號","OBJECTID":417107},"geometry":{"x":168896.4700000016,"y":2545384.9600000046}},{"attributes":{"ID":417132,"DIS_CODE":0,"TOWNNAME":"北區","LI":"國姓里","LIN":"2鄰","STREET":"公園路","SECT":" ","MAREA":" ","LANE":"４３３巷","ALLEY":" ","HOUSE_NO":"３５號","E_COORD97":168869.42999999999,"N_COORD97":2545369.5600000001,"ADDRESS":"公園路４３３巷３５號","OBJECTID":417108},"geometry":{"x":168869.42999999877,"y":2545369.5600000005}},{"attributes":{"ID":417133,"DIS_CODE":0,"TOWNNAME":"北區","LI":"國姓里","LIN":"2鄰","STREET":"公園路","SECT":" ","MAREA":" ","LANE":"４３３巷","ALLEY":" ","HOUSE_NO":"３６號","E_COORD97":168892.67999999999,"N_COORD97":2545384.96,"ADDRESS":"公園路４３３巷３６號","OBJECTID":417109},"geometry":{"x":168892.6799999997,"y":2545384.9600000046}},{"attributes":{"ID":417134,"DIS_CODE":0,"TOWNNAME":"北區","LI":"國姓里","LIN":"2鄰","STREET":"公園路","SECT":" ","MAREA":" ","LANE":"４３３巷","ALLEY":" ","HOUSE_NO":"３７號","E_COORD97":168865.13,"N_COORD97":2545371.0800000001,"ADDRESS":"公園路４３３巷３７號","OBJECTID":417110},"geometry":{"x":168865.13000000082,"y":2545371.0800000019}},{"attributes":{"ID":417135,"DIS_CODE":0,"TOWNNAME":"北區","LI":"國姓里","LIN":"2鄰","STREET":"公園路","SECT":" ","MAREA":" ","LANE":"４３３巷","ALLEY":" ","HOUSE_NO":"３８號","E_COORD97":168887.12,"N_COORD97":2545386.4700000002,"ADDRESS":"公園路４３３巷３８號","OBJECTID":417111},"geometry":{"x":168887.12000000011,"y":2545386.4700000007}},{"attributes":{"ID":417136,"DIS_CODE":0,"TOWNNAME":"北區","LI":"國姓里","LIN":"2鄰","STREET":"公園路","SECT":" ","MAREA":" ","LANE":"４３３巷","ALLEY":" ","HOUSE_NO":"３９號","E_COORD97":168858.81,"N_COORD97":2545372.5899999999,"ADDRESS":"公園路４３３巷３９號","OBJECTID":417112},"geometry":{"x":168858.81000000052,"y":2545372.589999998}},{"attributes":{"ID":417137,"DIS_CODE":0,"TOWNNAME":"北區","LI":"國姓里","LIN":"2鄰","STREET":"公園路","SECT":" ","MAREA":" ","LANE":"４３３巷","ALLEY":" ","HOUSE_NO":"４０號","E_COORD97":168884.34,"N_COORD97":2545386.2200000002,"ADDRESS":"公園路４３３巷４０號","OBJECTID":417113},"geometry":{"x":168884.34000000078,"y":2545386.2199999988}},{"attributes":{"ID":417138,"DIS_CODE":0,"TOWNNAME":"北區","LI":"國姓里","LIN":"2鄰","STREET":"公園路","SECT":" ","MAREA":" ","LANE":"４３３巷","ALLEY":" ","HOUSE_NO":"４１號","E_COORD97":168855.78,"N_COORD97":2545372.8399999999,"ADDRESS":"公園路４３３巷４１號","OBJECTID":417114},"geometry":{"x":168855.77999999933,"y":2545372.8400000017}},{"attributes":{"ID":417139,"DIS_CODE":0,"TOWNNAME":"仁德區","LI":"土庫里","LIN":"15鄰","STREET":"土庫一街","SECT":" ","MAREA":" ","LANE":"２２巷","ALLEY":" ","HOUSE_NO":"２０號","E_COORD97":174474.81,"N_COORD97":2543014.25,"ADDRESS":"土庫一街２２巷２０號","OBJECTID":417115},"geometry":{"x":174474.81000000052,"y":2543014.25}},{"attributes":{"ID":417140,"DIS_CODE":0,"TOWNNAME":"北區","LI":"國姓里","LIN":"2鄰","STREET":"公園路","SECT":" ","MAREA":" ","LANE":"４３３巷","ALLEY":" ","HOUSE_NO":"４２號","E_COORD97":168880.29000000001,"N_COORD97":2545386.98,"ADDRESS":"公園路４３３巷４２號","OBJECTID":417116},"geometry":{"x":168880.29000000004,"y":2545386.9800000004}},{"attributes":{"ID":417141,"DIS_CODE":0,"TOWNNAME":"北區","LI":"國姓里","LIN":"2鄰","STREET":"公園路","SECT":" ","MAREA":" ","LANE":"４３３巷","ALLEY":" ","HOUSE_NO":"４３號","E_COORD97":168851.73999999999,"N_COORD97":2545373.8500000001,"ADDRESS":"公園路４３３巷４３號","OBJECTID":417117},"geometry":{"x":168851.74000000115,"y":2545373.8499999996}},{"attributes":{"ID":417142,"DIS_CODE":0,"TOWNNAME":"北區","LI":"國姓里","LIN":"2鄰","STREET":"公園路","SECT":" ","MAREA":" ","LANE":"４３３巷","ALLEY":" ","HOUSE_NO":"４４號","E_COORD97":168874.23000000001,"N_COORD97":2545387.9900000002,"ADDRESS":"公園路４３３巷４４號","OBJECTID":417118},"geometry":{"x":168874.23000000045,"y":2545387.9900000021}},{"attributes":{"ID":417143,"DIS_CODE":0,"TOWNNAME":"北區","LI":"國姓里","LIN":"2鄰","STREET":"公園路","SECT":" ","MAREA":" ","LANE":"４３３巷","ALLEY":" ","HOUSE_NO":"４５號","E_COORD97":168849.45999999999,"N_COORD97":2545374.1099999999,"ADDRESS":"公園路４３３巷４５號","OBJECTID":417119},"geometry":{"x":168849.46000000089,"y":2545374.1099999994}},{"attributes":{"ID":417144,"DIS_CODE":0,"TOWNNAME":"北區","LI":"國姓里","LIN":"2鄰","STREET":"公園路","SECT":" ","MAREA":" ","LANE":"４３３巷","ALLEY":" ","HOUSE_NO":"４６號","E_COORD97":168870.44,"N_COORD97":2545388.7400000002,"ADDRESS":"公園路４３３巷４６號","OBJECTID":417120},"geometry":{"x":168870.44000000134,"y":2545388.7400000002}},{"attributes":{"ID":417145,"DIS_CODE":0,"TOWNNAME":"北區","LI":"國姓里","LIN":"2鄰","STREET":"公園路","SECT":" ","MAREA":" ","LANE":"４３３巷","ALLEY":" ","HOUSE_NO":"４８號","E_COORD97":168866.39000000001,"N_COORD97":2545389.5,"ADDRESS":"公園路４３３巷４８號","OBJECTID":417121},"geometry":{"x":168866.39000000153,"y":2545389.5}},{"attributes":{"ID":417146,"DIS_CODE":0,"TOWNNAME":"北區","LI":"國姓里","LIN":"2鄰","STREET":"公園路","SECT":" ","MAREA":" ","LANE":"４３３巷","ALLEY":" ","HOUSE_NO":"４９號","E_COORD97":168841.88,"N_COORD97":2545375.6200000001,"ADDRESS":"公園路４３３巷４９號","OBJECTID":417122},"geometry":{"x":168841.88000000082,"y":2545375.620000001}},{"attributes":{"ID":417147,"DIS_CODE":0,"TOWNNAME":"北區","LI":"國姓里","LIN":"2鄰","STREET":"公園路","SECT":" ","MAREA":" ","LANE":"４３３巷","ALLEY":" ","HOUSE_NO":"４號","E_COORD97":168964.53,"N_COORD97":2545378.6200000001,"ADDRESS":"公園路４３３巷４號","OBJECTID":417123},"geometry":{"x":168964.53000000119,"y":2545378.6200000029}},{"attributes":{"ID":417148,"DIS_CODE":0,"TOWNNAME":"北區","LI":"國姓里","LIN":"2鄰","STREET":"公園路","SECT":" ","MAREA":" ","LANE":"４３３巷","ALLEY":" ","HOUSE_NO":"５０號","E_COORD97":168863.60999999999,"N_COORD97":2545390.0099999998,"ADDRESS":"公園路４３３巷５０號","OBJECTID":417124},"geometry":{"x":168863.61000000034,"y":2545390.0099999979}},{"attributes":{"ID":417149,"DIS_CODE":0,"TOWNNAME":"北區","LI":"國姓里","LIN":"2鄰","STREET":"公園路","SECT":" ","MAREA":" ","LANE":"４３３巷","ALLEY":" ","HOUSE_NO":"５２號","E_COORD97":168860.32999999999,"N_COORD97":2545390.5099999998,"ADDRESS":"公園路４３３巷５２號","OBJECTID":417125},"geometry":{"x":168860.32999999914,"y":2545390.5100000035}},{"attributes":{"ID":417150,"DIS_CODE":0,"TOWNNAME":"北區","LI":"國姓里","LIN":"2鄰","STREET":"公園路","SECT":" ","MAREA":" ","LANE":"４３３巷","ALLEY":" ","HOUSE_NO":"５４號","E_COORD97":168854.51999999999,"N_COORD97":2545391.27,"ADDRESS":"公園路４３３巷５４號","OBJECTID":417126},"geometry":{"x":168854.51999999955,"y":2545391.2699999996}},{"attributes":{"ID":417151,"DIS_CODE":0,"TOWNNAME":"北區","LI":"國姓里","LIN":"2鄰","STREET":"公園路","SECT":" ","MAREA":" ","LANE":"４３３巷","ALLEY":" ","HOUSE_NO":"５號","E_COORD97":168952.32000000001,"N_COORD97":2545359.6699999999,"ADDRESS":"公園路４３３巷５號","OBJECTID":417127},"geometry":{"x":168952.32000000216,"y":2545359.6700000018}},{"attributes":{"ID":417152,"DIS_CODE":0,"TOWNNAME":"北區","LI":"國姓里","LIN":"2鄰","STREET":"公園路","SECT":" ","MAREA":" ","LANE":"４３３巷","ALLEY":" ","HOUSE_NO":"６號","E_COORD97":168961.75,"N_COORD97":2545380.0099999998,"ADDRESS":"公園路４３３巷６號","OBJECTID":417128},"geometry":{"x":168961.75,"y":2545380.0100000035}},{"attributes":{"ID":417153,"DIS_CODE":0,"TOWNNAME":"北區","LI":"國姓里","LIN":"2鄰","STREET":"公園路","SECT":" ","MAREA":" ","LANE":"４３３巷","ALLEY":" ","HOUSE_NO":"７號","E_COORD97":168945.66,"N_COORD97":2545360.2200000002,"ADDRESS":"公園路４３３巷７號","OBJECTID":417129},"geometry":{"x":168945.66000000015,"y":2545360.2200000025}},{"attributes":{"ID":417154,"DIS_CODE":0,"TOWNNAME":"北區","LI":"國姓里","LIN":"2鄰","STREET":"公園路","SECT":" ","MAREA":" ","LANE":"４３３巷","ALLEY":" ","HOUSE_NO":"８號","E_COORD97":168958.14000000001,"N_COORD97":2545379.1699999999,"ADDRESS":"公園路４３３巷８號","OBJECTID":417130},"geometry":{"x":168958.1400000006,"y":2545379.1700000037}},{"attributes":{"ID":417155,"DIS_CODE":0,"TOWNNAME":"北區","LI":"國姓里","LIN":"2鄰","STREET":"公園路","SECT":" ","MAREA":" ","LANE":"４３３巷","ALLEY":" ","HOUSE_NO":"９號","E_COORD97":168937.89000000001,"N_COORD97":2545360.2200000002,"ADDRESS":"公園路４３３巷９號","OBJECTID":417131},"geometry":{"x":168937.8900000006,"y":2545360.2200000025}},{"attributes":{"ID":417156,"DIS_CODE":0,"TOWNNAME":"新營區","LI":"民榮里","LIN":"2鄰","STREET":"復興路","SECT":" ","MAREA":" ","LANE":"１３５巷","ALLEY":" ","HOUSE_NO":"８之３號","E_COORD97":179325.17000000001,"N_COORD97":2577955.7999999998,"ADDRESS":"復興路１３５巷８之３號","OBJECTID":417132},"geometry":{"x":179325.16999999993,"y":2577955.8000000007}},{"attributes":{"ID":417157,"DIS_CODE":0,"TOWNNAME":"新營區","LI":"南紙里","LIN":"2鄰","STREET":"太子路","SECT":" ","MAREA":" ","LANE":"１３９巷","ALLEY":" ","HOUSE_NO":"２２號","E_COORD97":177974.98999999999,"N_COORD97":2577801.6699999999,"ADDRESS":"太子路１３９巷２２號","OBJECTID":417133},"geometry":{"x":177974.99000000115,"y":2577801.6700000018}},{"attributes":{"ID":417158,"DIS_CODE":0,"TOWNNAME":"安平區","LI":"文平里","LIN":"2鄰","STREET":"中華西路","SECT":"二段","MAREA":" ","LANE":"４９巷","ALLEY":" ","HOUSE_NO":"３號","E_COORD97":166592.20000000001,"N_COORD97":2543124.25,"ADDRESS":"中華西路二段４９巷３號","OBJECTID":417134},"geometry":{"x":166592.20000000112,"y":2543124.2500000037}},{"attributes":{"ID":417159,"DIS_CODE":0,"TOWNNAME":"安平區","LI":"億載里","LIN":"2鄰","STREET":"永華十一街","SECT":" ","MAREA":" ","LANE":"１５９巷","ALLEY":" ","HOUSE_NO":"５８號","E_COORD97":163903.92000000001,"N_COORD97":2543818.9199999999,"ADDRESS":"永華十一街１５９巷５８號","OBJECTID":417135},"geometry":{"x":163903.91999999993,"y":2543818.9200000018}},{"attributes":{"ID":417160,"DIS_CODE":0,"TOWNNAME":"安平區","LI":"億載里","LIN":"2鄰","STREET":"永華十一街","SECT":" ","MAREA":" ","LANE":"１５９巷","ALLEY":" ","HOUSE_NO":"６０號","E_COORD97":163896.64999999999,"N_COORD97":2543817.21,"ADDRESS":"永華十一街１５９巷６０號","OBJECTID":417136},"geometry":{"x":163896.64999999944,"y":2543817.2100000046}},{"attributes":{"ID":417161,"DIS_CODE":0,"TOWNNAME":"安平區","LI":"國平里","LIN":"2鄰","STREET":"建平七街","SECT":" ","MAREA":" ","LANE":"４５３巷","ALLEY":" ","HOUSE_NO":"５９號","E_COORD97":165446.39000000001,"N_COORD97":2543176.8999999999,"ADDRESS":"建平七街４５３巷５９號","OBJECTID":417137},"geometry":{"x":165446.38999999966,"y":2543176.9000000004}},{"attributes":{"ID":417162,"DIS_CODE":0,"TOWNNAME":"安平區","LI":"國平里","LIN":"2鄰","STREET":"建平七街","SECT":" ","MAREA":" ","LANE":"４５３巷","ALLEY":" ","HOUSE_NO":"５７號","E_COORD97":165446.78,"N_COORD97":2543181.8599999999,"ADDRESS":"建平七街４５３巷５７號","OBJECTID":417138},"geometry":{"x":165446.78000000212,"y":2543181.8600000013}},{"attributes":{"ID":417163,"DIS_CODE":0,"TOWNNAME":"安平區","LI":"國平里","LIN":"2鄰","STREET":"建平七街","SECT":" ","MAREA":" ","LANE":"４５３巷","ALLEY":" ","HOUSE_NO":"５５號","E_COORD97":165447.54000000001,"N_COORD97":2543187.0099999998,"ADDRESS":"建平七街４５３巷５５號","OBJECTID":417139},"geometry":{"x":165447.54000000004,"y":2543187.0100000016}},{"attributes":{"ID":417164,"DIS_CODE":0,"TOWNNAME":"安平區","LI":"國平里","LIN":"2鄰","STREET":"建平七街","SECT":" ","MAREA":" ","LANE":"４５３巷","ALLEY":" ","HOUSE_NO":"５３號","E_COORD97":165447.92000000001,"N_COORD97":2543191.3999999999,"ADDRESS":"建平七街４５３巷５３號","OBJECTID":417140},"geometry":{"x":165447.92000000086,"y":2543191.4000000041}},{"attributes":{"ID":417165,"DIS_CODE":0,"TOWNNAME":"安平區","LI":"國平里","LIN":"2鄰","STREET":"建平七街","SECT":" ","MAREA":" ","LANE":"４５３巷","ALLEY":" ","HOUSE_NO":"５１號","E_COORD97":165448.67999999999,"N_COORD97":2543196.5499999998,"ADDRESS":"建平七街４５３巷５１號","OBJECTID":417141},"geometry":{"x":165448.68000000156,"y":2543196.5500000007}},{"attributes":{"ID":417166,"DIS_CODE":0,"TOWNNAME":"安平區","LI":"國平里","LIN":"2鄰","STREET":"建平七街","SECT":" ","MAREA":" ","LANE":"４５３巷","ALLEY":" ","HOUSE_NO":"４９號","E_COORD97":165449.64000000001,"N_COORD97":2543201.7000000002,"ADDRESS":"建平七街４５３巷４９號","OBJECTID":417142},"geometry":{"x":165449.6400000006,"y":2543201.700000003}},{"attributes":{"ID":417167,"DIS_CODE":0,"TOWNNAME":"安平區","LI":"國平里","LIN":"2鄰","STREET":"建平七街","SECT":" ","MAREA":" ","LANE":"４５３巷","ALLEY":" ","HOUSE_NO":"４７號","E_COORD97":165450.59,"N_COORD97":2543207.6200000001,"ADDRESS":"建平七街４５３巷４７號","OBJECTID":417143},"geometry":{"x":165450.58999999985,"y":2543207.6200000048}},{"attributes":{"ID":417168,"DIS_CODE":0,"TOWNNAME":"安平區","LI":"國平里","LIN":"2鄰","STREET":"建平七街","SECT":" ","MAREA":" ","LANE":"４５３巷","ALLEY":" ","HOUSE_NO":"４０號","E_COORD97":165436.92000000001,"N_COORD97":2543217.2999999998,"ADDRESS":"建平七街４５３巷４０號","OBJECTID":417144},"geometry":{"x":165436.91999999899,"y":2543217.3000000026}},{"attributes":{"ID":417169,"DIS_CODE":0,"TOWNNAME":"安平區","LI":"國平里","LIN":"2鄰","STREET":"建平七街","SECT":" ","MAREA":" ","LANE":"４５３巷","ALLEY":" ","HOUSE_NO":"３８號","E_COORD97":165438.67999999999,"N_COORD97":2543229.6200000001,"ADDRESS":"建平七街４５３巷３８號","OBJECTID":417145},"geometry":{"x":165438.68000000063,"y":2543229.620000001}},{"attributes":{"ID":417170,"DIS_CODE":0,"TOWNNAME":"安平區","LI":"國平里","LIN":"2鄰","STREET":"建平七街","SECT":" ","MAREA":" ","LANE":"４５３巷","ALLEY":" ","HOUSE_NO":"３０號","E_COORD97":165443.51000000001,"N_COORD97":2543268.52,"ADDRESS":"建平七街４５３巷３０號","OBJECTID":417146},"geometry":{"x":165443.51000000071,"y":2543268.5200000014}},{"attributes":{"ID":417171,"DIS_CODE":0,"TOWNNAME":"安平區","LI":"國平里","LIN":"2鄰","STREET":"建平七街","SECT":" ","MAREA":" ","LANE":"４５３巷","ALLEY":" ","HOUSE_NO":"２８號","E_COORD97":165444.26000000001,"N_COORD97":2543271.5299999998,"ADDRESS":"建平七街４５３巷２８號","OBJECTID":417147},"geometry":{"x":165444.25999999978,"y":2543271.5300000012}},{"attributes":{"ID":417172,"DIS_CODE":0,"TOWNNAME":"安平區","LI":"國平里","LIN":"2鄰","STREET":"建平七街","SECT":" ","MAREA":" ","LANE":"４５３巷","ALLEY":" ","HOUSE_NO":"２６號","E_COORD97":165444.26000000001,"N_COORD97":2543277.0600000001,"ADDRESS":"建平七街４５３巷２６號","OBJECTID":417148},"geometry":{"x":165444.25999999978,"y":2543277.0600000005}},{"attributes":{"ID":417173,"DIS_CODE":0,"TOWNNAME":"安平區","LI":"國平里","LIN":"2鄰","STREET":"建平七街","SECT":" ","MAREA":" ","LANE":"４５３巷","ALLEY":" ","HOUSE_NO":"２４號","E_COORD97":165445.51999999999,"N_COORD97":2543280.8300000001,"ADDRESS":"建平七街４５３巷２４號","OBJECTID":417149},"geometry":{"x":165445.51999999955,"y":2543280.8300000019}},{"attributes":{"ID":417174,"DIS_CODE":0,"TOWNNAME":"安平區","LI":"國平里","LIN":"2鄰","STREET":"建平七街","SECT":" ","MAREA":" ","LANE":"４５３巷","ALLEY":" ","HOUSE_NO":"３７號","E_COORD97":165454.20999999999,"N_COORD97":2543250.3500000001,"ADDRESS":"建平七街４５３巷３７號","OBJECTID":417150},"geometry":{"x":165454.21000000089,"y":2543250.3499999996}},{"attributes":{"ID":417175,"DIS_CODE":0,"TOWNNAME":"安平區","LI":"國平里","LIN":"2鄰","STREET":"建平七街","SECT":" ","MAREA":" ","LANE":"４５３巷","ALLEY":" ","HOUSE_NO":"３５號","E_COORD97":165454.20999999999,"N_COORD97":2543254.3700000001,"ADDRESS":"建平七街４５３巷３５號","OBJECTID":417151},"geometry":{"x":165454.21000000089,"y":2543254.3700000029}},{"attributes":{"ID":417176,"DIS_CODE":0,"TOWNNAME":"安平區","LI":"國平里","LIN":"2鄰","STREET":"建平七街","SECT":" ","MAREA":" ","LANE":"４５３巷","ALLEY":" ","HOUSE_NO":"３３號","E_COORD97":165454.84,"N_COORD97":2543258.77,"ADDRESS":"建平七街４５３巷３３號","OBJECTID":417152},"geometry":{"x":165454.84000000078,"y":2543258.7699999996}},{"attributes":{"ID":417177,"DIS_CODE":0,"TOWNNAME":"安平區","LI":"國平里","LIN":"2鄰","STREET":"建平七街","SECT":" ","MAREA":" ","LANE":"４５３巷","ALLEY":" ","HOUSE_NO":"３１號","E_COORD97":165455.34,"N_COORD97":2543264.0499999998,"ADDRESS":"建平七街４５３巷３１號","OBJECTID":417153},"geometry":{"x":165455.33999999985,"y":2543264.0500000007}},{"attributes":{"ID":417178,"DIS_CODE":0,"TOWNNAME":"安平區","LI":"國平里","LIN":"2鄰","STREET":"建平七街","SECT":" ","MAREA":" ","LANE":"４５３巷","ALLEY":" ","HOUSE_NO":"２９號","E_COORD97":165456.35000000001,"N_COORD97":2543268.0699999998,"ADDRESS":"建平七街４５３巷２９號","OBJECTID":417154},"geometry":{"x":165456.35000000056,"y":2543268.070000004}},{"attributes":{"ID":417179,"DIS_CODE":0,"TOWNNAME":"安平區","LI":"國平里","LIN":"2鄰","STREET":"建平七街","SECT":" ","MAREA":" ","LANE":"４５３巷","ALLEY":" ","HOUSE_NO":"２７號","E_COORD97":165457.10000000001,"N_COORD97":2543273.1000000001,"ADDRESS":"建平七街４５３巷２７號","OBJECTID":417155},"geometry":{"x":165457.09999999963,"y":2543273.0999999996}},{"attributes":{"ID":417180,"DIS_CODE":0,"TOWNNAME":"安平區","LI":"國平里","LIN":"2鄰","STREET":"建平七街","SECT":" ","MAREA":" ","LANE":"４５３巷","ALLEY":" ","HOUSE_NO":"２５號","E_COORD97":165457.60000000001,"N_COORD97":2543277.6200000001,"ADDRESS":"建平七街４５３巷２５號","OBJECTID":417156},"geometry":{"x":165457.60000000149,"y":2543277.620000001}},{"attributes":{"ID":417181,"DIS_CODE":0,"TOWNNAME":"安平區","LI":"國平里","LIN":"2鄰","STREET":"建平七街","SECT":" ","MAREA":" ","LANE":"４５３巷","ALLEY":" ","HOUSE_NO":"２３號","E_COORD97":165457.98000000001,"N_COORD97":2543282.52,"ADDRESS":"建平七街４５３巷２３號","OBJECTID":417157},"geometry":{"x":165457.98000000138,"y":2543282.5200000014}},{"attributes":{"ID":417182,"DIS_CODE":0,"TOWNNAME":"安平區","LI":"國平里","LIN":"2鄰","STREET":"建平七街","SECT":" ","MAREA":" ","LANE":"４５３巷","ALLEY":" ","HOUSE_NO":"２１號","E_COORD97":165458.85999999999,"N_COORD97":2543286.9199999999,"ADDRESS":"建平七街４５３巷２１號","OBJECTID":417158},"geometry":{"x":165458.86000000127,"y":2543286.9200000018}},{"attributes":{"ID":417183,"DIS_CODE":0,"TOWNNAME":"安平區","LI":"漁光里","LIN":"2鄰","STREET":"漁光路","SECT":" ","MAREA":" ","LANE":"８９巷","ALLEY":" ","HOUSE_NO":"１５之５號","E_COORD97":164009.59,"N_COORD97":2541757.25,"ADDRESS":"漁光路８９巷１５之５號","OBJECTID":417159},"geometry":{"x":164009.58999999985,"y":2541757.25}},{"attributes":{"ID":417184,"DIS_CODE":0,"TOWNNAME":"新營區","LI":"護鎮里","LIN":"2鄰","STREET":"建國路","SECT":" ","MAREA":" ","LANE":"２４６巷","ALLEY":" ","HOUSE_NO":"１０號","E_COORD97":179367.39000000001,"N_COORD97":2581077.46,"ADDRESS":"建國路２４６巷１０號","OBJECTID":417160},"geometry":{"x":179367.38999999966,"y":2581077.4600000009}},{"attributes":{"ID":417185,"DIS_CODE":0,"TOWNNAME":"新營區","LI":"護鎮里","LIN":"2鄰","STREET":"建國路","SECT":" ","MAREA":" ","LANE":"２４６巷","ALLEY":" ","HOUSE_NO":"８號","E_COORD97":179367.20999999999,"N_COORD97":2581071.9199999999,"ADDRESS":"建國路２４６巷８號","OBJECTID":417161},"geometry":{"x":179367.20999999996,"y":2581071.9200000018}},{"attributes":{"ID":417186,"DIS_CODE":0,"TOWNNAME":"新營區","LI":"忠政里","LIN":"2鄰","STREET":"中正路","SECT":" ","MAREA":" ","LANE":"３１巷","ALLEY":" ","HOUSE_NO":"５號之１","E_COORD97":180066.26000000001,"N_COORD97":2579017.6499999999,"ADDRESS":"中正路３１巷５號之１","OBJECTID":417162},"geometry":{"x":180066.26000000071,"y":2579017.6500000004}},{"attributes":{"ID":417187,"DIS_CODE":0,"TOWNNAME":"六甲區","LI":"水林里","LIN":"2鄰","STREET":"中山路","SECT":" ","MAREA":" ","LANE":"２０６巷","ALLEY":" ","HOUSE_NO":"１４號","E_COORD97":183212.92000000001,"N_COORD97":2570160.7400000002,"ADDRESS":"中山路２０６巷１４號","OBJECTID":417163},"geometry":{"x":183212.92000000179,"y":2570160.7400000021}},{"attributes":{"ID":417188,"DIS_CODE":0,"TOWNNAME":"六甲區","LI":"水林里","LIN":"2鄰","STREET":"中山路","SECT":" ","MAREA":" ","LANE":"２０６巷","ALLEY":" ","HOUSE_NO":"１６之１號","E_COORD97":183177.60000000001,"N_COORD97":2570180.46,"ADDRESS":"中山路２０６巷１６之１號","OBJECTID":417164},"geometry":{"x":183177.60000000056,"y":2570180.4600000028}},{"attributes":{"ID":417189,"DIS_CODE":0,"TOWNNAME":"六甲區","LI":"水林里","LIN":"2鄰","STREET":"中山路","SECT":" ","MAREA":" ","LANE":"２０６巷","ALLEY":" ","HOUSE_NO":"１６號之２","E_COORD97":183176.91,"N_COORD97":2570185.0899999999,"ADDRESS":"中山路２０６巷１６號之２","OBJECTID":417165},"geometry":{"x":183176.91000000015,"y":2570185.0900000017}},{"attributes":{"ID":417190,"DIS_CODE":0,"TOWNNAME":"六甲區","LI":"水林里","LIN":"2鄰","STREET":"中山路","SECT":" ","MAREA":" ","LANE":"２０６巷","ALLEY":" ","HOUSE_NO":"１８號之１０","E_COORD97":183209.17999999999,"N_COORD97":2570221.79,"ADDRESS":"中山路２０６巷１８號之１０","OBJECTID":417166},"geometry":{"x":183209.18000000156,"y":2570221.7899999991}},{"attributes":{"ID":417191,"DIS_CODE":0,"TOWNNAME":"六甲區","LI":"水林里","LIN":"2鄰","STREET":"中山路","SECT":" ","MAREA":" ","LANE":"２０６巷","ALLEY":" ","HOUSE_NO":"２０號","E_COORD97":183184.75,"N_COORD97":2570246.25,"ADDRESS":"中山路２０６巷２０號","OBJECTID":417167},"geometry":{"x":183184.75,"y":2570246.25}},{"attributes":{"ID":417192,"DIS_CODE":0,"TOWNNAME":"六甲區","LI":"水林里","LIN":"2鄰","STREET":"中山路","SECT":" ","MAREA":" ","LANE":"２０６巷","ALLEY":" ","HOUSE_NO":"２２號之３","E_COORD97":183180.09,"N_COORD97":2570267.0899999999,"ADDRESS":"中山路２０６巷２２號之３","OBJECTID":417168},"geometry":{"x":183180.09000000078,"y":2570267.0899999999}},{"attributes":{"ID":417193,"DIS_CODE":0,"TOWNNAME":"六甲區","LI":"水林里","LIN":"2鄰","STREET":"中山路","SECT":" ","MAREA":" ","LANE":"２０６巷","ALLEY":" ","HOUSE_NO":"２２號之４","E_COORD97":183180.22,"N_COORD97":2570271.9900000002,"ADDRESS":"中山路２０６巷２２號之４","OBJECTID":417169},"geometry":{"x":183180.22000000067,"y":2570271.9900000002}},{"attributes":{"ID":417194,"DIS_CODE":0,"TOWNNAME":"六甲區","LI":"水林里","LIN":"2鄰","STREET":"中山路","SECT":" ","MAREA":" ","LANE":"２０６巷","ALLEY":" ","HOUSE_NO":"２２號","E_COORD97":183184.54999999999,"N_COORD97":2570259.5899999999,"ADDRESS":"中山路２０６巷２２號","OBJECTID":417170},"geometry":{"x":183184.54999999888,"y":2570259.5900000017}},{"attributes":{"ID":417195,"DIS_CODE":0,"TOWNNAME":"六甲區","LI":"水林里","LIN":"2鄰","STREET":"中山路","SECT":" ","MAREA":" ","LANE":"２０６巷","ALLEY":" ","HOUSE_NO":"２３號","E_COORD97":183154.39000000001,"N_COORD97":2570264.7599999998,"ADDRESS":"中山路２０６巷２３號","OBJECTID":417171},"geometry":{"x":183154.38999999966,"y":2570264.7600000016}},{"attributes":{"ID":417196,"DIS_CODE":0,"TOWNNAME":"六甲區","LI":"水林里","LIN":"2鄰","STREET":"中山路","SECT":" ","MAREA":" ","LANE":"２０６巷","ALLEY":" ","HOUSE_NO":"２４號","E_COORD97":183188.57000000001,"N_COORD97":2570290.7599999998,"ADDRESS":"中山路２０６巷２４號","OBJECTID":417172},"geometry":{"x":183188.57000000216,"y":2570290.7599999979}},{"attributes":{"ID":417197,"DIS_CODE":0,"TOWNNAME":"六甲區","LI":"水林里","LIN":"2鄰","STREET":"中山路","SECT":" ","MAREA":" ","LANE":"２０６巷","ALLEY":" ","HOUSE_NO":"２６號","E_COORD97":183184.97,"N_COORD97":2570303.25,"ADDRESS":"中山路２０６巷２６號","OBJECTID":417173},"geometry":{"x":183184.96999999974,"y":2570303.25}},{"attributes":{"ID":417198,"DIS_CODE":0,"TOWNNAME":"六甲區","LI":"水林里","LIN":"2鄰","STREET":"中山路","SECT":" ","MAREA":" ","LANE":"２０６巷","ALLEY":" ","HOUSE_NO":"２７號","E_COORD97":183153.42000000001,"N_COORD97":2570325.6600000001,"ADDRESS":"中山路２０６巷２７號","OBJECTID":417174},"geometry":{"x":183153.42000000179,"y":2570325.6599999983}},{"attributes":{"ID":417199,"DIS_CODE":0,"TOWNNAME":"六甲區","LI":"甲南里","LIN":"2鄰","STREET":"文化街","SECT":" ","MAREA":" ","LANE":"６１巷","ALLEY":" ","HOUSE_NO":"１２號","E_COORD97":183798.81,"N_COORD97":2569802.7000000002,"ADDRESS":"文化街６１巷１２號","OBJECTID":417175},"geometry":{"x":183798.81000000052,"y":2569802.700000003}},{"attributes":{"ID":417200,"DIS_CODE":0,"TOWNNAME":"六甲區","LI":"甲南里","LIN":"2鄰","STREET":"文化街","SECT":" ","MAREA":" ","LANE":"６１巷","ALLEY":" ","HOUSE_NO":"１３號","E_COORD97":183811.48000000001,"N_COORD97":2569782.9300000002,"ADDRESS":"文化街６１巷１３號","OBJECTID":417176},"geometry":{"x":183811.48000000231,"y":2569782.9299999997}},{"attributes":{"ID":417201,"DIS_CODE":0,"TOWNNAME":"六甲區","LI":"甲南里","LIN":"2鄰","STREET":"文化街","SECT":" ","MAREA":" ","LANE":"６１巷","ALLEY":" ","HOUSE_NO":"１４號","E_COORD97":183797.67999999999,"N_COORD97":2569798.3999999999,"ADDRESS":"文化街６１巷１４號","OBJECTID":417177},"geometry":{"x":183797.68000000063,"y":2569798.4000000004}},{"attributes":{"ID":417202,"DIS_CODE":0,"TOWNNAME":"六甲區","LI":"甲南里","LIN":"2鄰","STREET":"文化街","SECT":" ","MAREA":" ","LANE":"６１巷","ALLEY":" ","HOUSE_NO":"１５號","E_COORD97":183809.70999999999,"N_COORD97":2569777.6299999999,"ADDRESS":"文化街６１巷１５號","OBJECTID":417178},"geometry":{"x":183809.71000000089,"y":2569777.629999999}},{"attributes":{"ID":417203,"DIS_CODE":0,"TOWNNAME":"六甲區","LI":"甲南里","LIN":"2鄰","STREET":"文化街","SECT":" ","MAREA":" ","LANE":"６１巷","ALLEY":" ","HOUSE_NO":"１６號","E_COORD97":183796.95999999999,"N_COORD97":2569794.5,"ADDRESS":"文化街６１巷１６號","OBJECTID":417179},"geometry":{"x":183796.95999999996,"y":2569794.5000000037}},{"attributes":{"ID":417204,"DIS_CODE":0,"TOWNNAME":"六甲區","LI":"甲南里","LIN":"2鄰","STREET":"文化街","SECT":" ","MAREA":" ","LANE":"６１巷","ALLEY":" ","HOUSE_NO":"１７號","E_COORD97":183808.48999999999,"N_COORD97":2569771.8500000001,"ADDRESS":"文化街６１巷１７號","OBJECTID":417180},"geometry":{"x":183808.49000000115,"y":2569771.8500000015}},{"attributes":{"ID":417205,"DIS_CODE":0,"TOWNNAME":"楠西區","LI":"灣丘里","LIN":"10鄰","STREET":" ","SECT":" ","MAREA":"香蕉山","LANE":" ","ALLEY":" ","HOUSE_NO":"２１號之１","E_COORD97":204078.48837100001,"N_COORD97":2563957.2566499999,"ADDRESS":"香蕉山２１號之１","OBJECTID":417181},"geometry":{"x":204078.48837099876,"y":2563957.2566539999}},{"attributes":{"ID":417206,"DIS_CODE":0,"TOWNNAME":"六甲區","LI":"甲南里","LIN":"2鄰","STREET":"文化街","SECT":" ","MAREA":" ","LANE":"６１巷","ALLEY":" ","HOUSE_NO":"１８號","E_COORD97":183796.17999999999,"N_COORD97":2569790.0800000001,"ADDRESS":"文化街６１巷１８號","OBJECTID":417182},"geometry":{"x":183796.18000000063,"y":2569790.0800000001}},{"attributes":{"ID":417207,"DIS_CODE":0,"TOWNNAME":"六甲區","LI":"甲南里","LIN":"2鄰","STREET":"文化街","SECT":" ","MAREA":" ","LANE":"６１巷","ALLEY":" ","HOUSE_NO":"１號","E_COORD97":183816.29999999999,"N_COORD97":2569815.6499999999,"ADDRESS":"文化街６１巷１號","OBJECTID":417183},"geometry":{"x":183816.29999999981,"y":2569815.6500000022}},{"attributes":{"ID":417208,"DIS_CODE":0,"TOWNNAME":"六甲區","LI":"甲南里","LIN":"2鄰","STREET":"文化街","SECT":" ","MAREA":" ","LANE":"６１巷","ALLEY":" ","HOUSE_NO":"２０號","E_COORD97":183795.92999999999,"N_COORD97":2569786.2400000002,"ADDRESS":"文化街６１巷２０號","OBJECTID":417184},"geometry":{"x":183795.93000000063,"y":2569786.2400000039}},{"attributes":{"ID":417209,"DIS_CODE":0,"TOWNNAME":"六甲區","LI":"甲南里","LIN":"2鄰","STREET":"文化街","SECT":" ","MAREA":" ","LANE":"６１巷","ALLEY":" ","HOUSE_NO":"２１號","E_COORD97":183805.91,"N_COORD97":2569764.2400000002,"ADDRESS":"文化街６１巷２１號","OBJECTID":417185},"geometry":{"x":183805.91000000015,"y":2569764.2400000021}},{"attributes":{"ID":417210,"DIS_CODE":0,"TOWNNAME":"六甲區","LI":"甲南里","LIN":"2鄰","STREET":"文化街","SECT":" ","MAREA":" ","LANE":"６１巷","ALLEY":" ","HOUSE_NO":"２２號","E_COORD97":183789.51999999999,"N_COORD97":2569767.96,"ADDRESS":"文化街６１巷２２號","OBJECTID":417186},"geometry":{"x":183789.51999999955,"y":2569767.9600000009}},{"attributes":{"ID":417211,"DIS_CODE":0,"TOWNNAME":"六甲區","LI":"甲南里","LIN":"2鄰","STREET":"文化街","SECT":" ","MAREA":" ","LANE":"６１巷","ALLEY":" ","HOUSE_NO":"２４號","E_COORD97":183788.39000000001,"N_COORD97":2569764.5800000001,"ADDRESS":"文化街６１巷２４號","OBJECTID":417187},"geometry":{"x":183788.38999999966,"y":2569764.5800000019}},{"attributes":{"ID":417212,"DIS_CODE":0,"TOWNNAME":"六甲區","LI":"甲南里","LIN":"2鄰","STREET":"文化街","SECT":" ","MAREA":" ","LANE":"６１巷","ALLEY":" ","HOUSE_NO":"２號","E_COORD97":183803.04999999999,"N_COORD97":2569822.3599999999,"ADDRESS":"文化街６１巷２號","OBJECTID":417188},"geometry":{"x":183803.04999999981,"y":2569822.3600000013}},{"attributes":{"ID":417213,"DIS_CODE":0,"TOWNNAME":"六甲區","LI":"甲南里","LIN":"2鄰","STREET":"文化街","SECT":" ","MAREA":" ","LANE":"６１巷","ALLEY":" ","HOUSE_NO":"３６號","E_COORD97":183763.82999999999,"N_COORD97":2569728.4700000002,"ADDRESS":"文化街６１巷３６號","OBJECTID":417189},"geometry":{"x":183763.83000000007,"y":2569728.4700000025}},{"attributes":{"ID":417214,"DIS_CODE":0,"TOWNNAME":"六甲區","LI":"甲南里","LIN":"2鄰","STREET":"文化街","SECT":" ","MAREA":" ","LANE":"６１巷","ALLEY":" ","HOUSE_NO":"３號","E_COORD97":183815.03,"N_COORD97":2569811.3599999999,"ADDRESS":"文化街６１巷３號","OBJECTID":417190},"geometry":{"x":183815.03000000119,"y":2569811.3599999994}},{"attributes":{"ID":417215,"DIS_CODE":0,"TOWNNAME":"六甲區","LI":"甲南里","LIN":"2鄰","STREET":"文化街","SECT":" ","MAREA":" ","LANE":"６１巷","ALLEY":" ","HOUSE_NO":"４號","E_COORD97":183802.45999999999,"N_COORD97":2569818.3599999999,"ADDRESS":"文化街６１巷４號","OBJECTID":417191},"geometry":{"x":183802.46000000183,"y":2569818.3599999975}},{"attributes":{"ID":417216,"DIS_CODE":0,"TOWNNAME":"六甲區","LI":"甲南里","LIN":"2鄰","STREET":"文化街","SECT":" ","MAREA":" ","LANE":"６１巷","ALLEY":" ","HOUSE_NO":"５號","E_COORD97":183814.04000000001,"N_COORD97":2569806.9100000001,"ADDRESS":"文化街６１巷５號","OBJECTID":417192},"geometry":{"x":183814.04000000097,"y":2569806.910000002}},{"attributes":{"ID":417217,"DIS_CODE":0,"TOWNNAME":"六甲區","LI":"甲南里","LIN":"2鄰","STREET":"文化街","SECT":" ","MAREA":" ","LANE":"６１巷","ALLEY":" ","HOUSE_NO":"６號","E_COORD97":183802.01999999999,"N_COORD97":2569814.5499999998,"ADDRESS":"文化街６１巷６號","OBJECTID":417193},"geometry":{"x":183802.02000000048,"y":2569814.5500000007}},{"attributes":{"ID":417218,"DIS_CODE":0,"TOWNNAME":"六甲區","LI":"甲南里","LIN":"2鄰","STREET":"文化街","SECT":" ","MAREA":" ","LANE":"６１巷","ALLEY":" ","HOUSE_NO":"７號","E_COORD97":183812.82000000001,"N_COORD97":2569802.9399999999,"ADDRESS":"文化街６１巷７號","OBJECTID":417194},"geometry":{"x":183812.82000000123,"y":2569802.9399999995}},{"attributes":{"ID":417219,"DIS_CODE":0,"TOWNNAME":"六甲區","LI":"甲南里","LIN":"2鄰","STREET":"文化街","SECT":" ","MAREA":" ","LANE":"６１巷","ALLEY":" ","HOUSE_NO":"８號","E_COORD97":183800.73999999999,"N_COORD97":2569810.5699999998,"ADDRESS":"文化街６１巷８號","OBJECTID":417195},"geometry":{"x":183800.73999999929,"y":2569810.5700000003}},{"attributes":{"ID":417220,"DIS_CODE":0,"TOWNNAME":"六甲區","LI":"二甲里","LIN":"2鄰","STREET":"民權街","SECT":" ","MAREA":" ","LANE":"１５７巷","ALLEY":" ","HOUSE_NO":"１８號","E_COORD97":183176.84,"N_COORD97":2569646.0699999998,"ADDRESS":"民權街１５７巷１８號","OBJECTID":417196},"geometry":{"x":183176.83999999985,"y":2569646.0700000022}},{"attributes":{"ID":417221,"DIS_CODE":0,"TOWNNAME":"六甲區","LI":"二甲里","LIN":"2鄰","STREET":"民權街","SECT":" ","MAREA":" ","LANE":"１５７巷","ALLEY":" ","HOUSE_NO":"９號","E_COORD97":183218.67000000001,"N_COORD97":2569658.8300000001,"ADDRESS":"民權街１５７巷９號","OBJECTID":417197},"geometry":{"x":183218.67000000086,"y":2569658.8300000001}},{"attributes":{"ID":417222,"DIS_CODE":0,"TOWNNAME":"新營區","LI":"南紙里","LIN":"2鄰","STREET":"太子路","SECT":" ","MAREA":" ","LANE":"１３９巷","ALLEY":" ","HOUSE_NO":"３２號","E_COORD97":177982.07999999999,"N_COORD97":2577782.7999999998,"ADDRESS":"太子路１３９巷３２號","OBJECTID":417198},"geometry":{"x":177982.07999999914,"y":2577782.8000000007}},{"attributes":{"ID":417223,"DIS_CODE":0,"TOWNNAME":"關廟區","LI":"北勢里","LIN":"2鄰","STREET":"仁愛路","SECT":" ","MAREA":" ","LANE":"１０７巷","ALLEY":" ","HOUSE_NO":"７號","E_COORD97":181313.38031499999,"N_COORD97":2540288.6419899999,"ADDRESS":"仁愛路１０７巷７號","OBJECTID":417199},"geometry":{"x":181313.38031500112,"y":2540288.6419850029}},{"attributes":{"ID":417224,"DIS_CODE":0,"TOWNNAME":"柳營區","LI":"光福里","LIN":"2鄰","STREET":"中山西路","SECT":"二段","MAREA":" ","LANE":"１５９巷","ALLEY":" ","HOUSE_NO":"１號","E_COORD97":179774.51000000001,"N_COORD97":2575058.2000000002,"ADDRESS":"中山西路二段１５９巷１號","OBJECTID":417200},"geometry":{"x":179774.51000000071,"y":2575058.2000000011}}]}