{"displayFieldName":"TOWNNAME","fieldAliases":{"ID":"ID","DIS_CODE":"DIS_CODE","TOWNNAME":"TOWNNAME","LI":"LI","LIN":"LIN","STREET":"STREET","SECT":"SECT","MAREA":"MAREA","LANE":"LANE","ALLEY":"ALLEY","HOUSE_NO":"HOUSE_NO","E_COORD97":"E_COORD97","N_COORD97":"N_COORD97","ADDRESS":"ADDRESS","OBJECTID":"OBJECTID"},"geometryType":"esriGeometryPoint","spatialReference":{"wkid":102443,"latestWkid":3826},"fields":[{"name":"ID","type":"esriFieldTypeDouble","alias":"ID"},{"name":"DIS_CODE","type":"esriFieldTypeInteger","alias":"DIS_CODE"},{"name":"TOWNNAME","type":"esriFieldTypeString","alias":"TOWNNAME","length":8},{"name":"LI","type":"esriFieldTypeString","alias":"LI","length":8},{"name":"LIN","type":"esriFieldTypeString","alias":"LIN","length":12},{"name":"STREET","type":"esriFieldTypeString","alias":"STREET","length":20},{"name":"SECT","type":"esriFieldTypeString","alias":"SECT","length":8},{"name":"MAREA","type":"esriFieldTypeString","alias":"MAREA","length":12},{"name":"LANE","type":"esriFieldTypeString","alias":"LANE","length":10},{"name":"ALLEY","type":"esriFieldTypeString","alias":"ALLEY","length":10},{"name":"HOUSE_NO","type":"esriFieldTypeString","alias":"HOUSE_NO","length":20},{"name":"E_COORD97","type":"esriFieldTypeDouble","alias":"E_COORD97"},{"name":"N_COORD97","type":"esriFieldTypeDouble","alias":"N_COORD97"},{"name":"ADDRESS","type":"esriFieldTypeString","alias":"ADDRESS","length":50},{"name":"OBJECTID","type":"esriFieldTypeOID","alias":"OBJECTID"}],"features":[{"attributes":{"ID":140001,"DIS_CODE":0,"TOWNNAME":"南區","LI":"田寮里","LIN":"22鄰","STREET":"西門路","SECT":"一段","MAREA":" ","LANE":"２７９巷","ALLEY":"１６弄","HOUSE_NO":"１１號五樓","E_COORD97":167618.20999999999,"N_COORD97":2542012.3500000001,"ADDRESS":"西門路一段２７９巷１６弄１１號五樓","OBJECTID":140001},"geometry":{"x":167618.20999999996,"y":2542012.3500000015}},{"attributes":{"ID":140002,"DIS_CODE":0,"TOWNNAME":"南區","LI":"田寮里","LIN":"22鄰","STREET":"西門路","SECT":"一段","MAREA":" ","LANE":"２７９巷","ALLEY":"１６弄","HOUSE_NO":"１１號四樓","E_COORD97":167618.20999999999,"N_COORD97":2542012.3500000001,"ADDRESS":"西門路一段２７９巷１６弄１１號四樓","OBJECTID":140002},"geometry":{"x":167618.20999999996,"y":2542012.3500000015}},{"attributes":{"ID":140003,"DIS_CODE":0,"TOWNNAME":"南區","LI":"田寮里","LIN":"22鄰","STREET":"西門路","SECT":"一段","MAREA":" ","LANE":"２７９巷","ALLEY":"１６弄","HOUSE_NO":"１３號二樓","E_COORD97":167614.76000000001,"N_COORD97":2542025.0600000001,"ADDRESS":"西門路一段２７９巷１６弄１３號二樓","OBJECTID":140003},"geometry":{"x":167614.76000000071,"y":2542025.0600000024}},{"attributes":{"ID":140004,"DIS_CODE":0,"TOWNNAME":"關廟區","LI":"埤頭里","LIN":"5鄰","STREET":"關新一街","SECT":" ","MAREA":" ","LANE":" ","ALLEY":" ","HOUSE_NO":"６１號","E_COORD97":179259.67000000001,"N_COORD97":2543900.2999999998,"ADDRESS":"關新一街６１號","OBJECTID":140004},"geometry":{"x":179259.67000000179,"y":2543900.3000000007}},{"attributes":{"ID":140005,"DIS_CODE":0,"TOWNNAME":"關廟區","LI":"埤頭里","LIN":"4鄰","STREET":"保東路","SECT":" ","MAREA":" ","LANE":" ","ALLEY":" ","HOUSE_NO":"７９號","E_COORD97":178899.57000000001,"N_COORD97":2544010.2999999998,"ADDRESS":"保東路７９號","OBJECTID":140005},"geometry":{"x":178899.57000000216,"y":2544010.3000000026}},{"attributes":{"ID":140006,"DIS_CODE":0,"TOWNNAME":"關廟區","LI":"埤頭里","LIN":"5鄰","STREET":"保東路","SECT":" ","MAREA":" ","LANE":"２５巷","ALLEY":" ","HOUSE_NO":"７號","E_COORD97":179004.15170799999,"N_COORD97":2543985.4547600001,"ADDRESS":"保東路２５巷７號","OBJECTID":140006},"geometry":{"x":179004.15170800127,"y":2543985.4547610004}},{"attributes":{"ID":140007,"DIS_CODE":0,"TOWNNAME":"關廟區","LI":"埤頭里","LIN":"4鄰","STREET":"保東路","SECT":" ","MAREA":" ","LANE":" ","ALLEY":" ","HOUSE_NO":"１２９號","E_COORD97":178760.23999999999,"N_COORD97":2544012.23,"ADDRESS":"保東路１２９號","OBJECTID":140007},"geometry":{"x":178760.24000000022,"y":2544012.2300000004}},{"attributes":{"ID":140008,"DIS_CODE":0,"TOWNNAME":"關廟區","LI":"埤頭里","LIN":"6鄰","STREET":"保東路","SECT":" ","MAREA":" ","LANE":" ","ALLEY":" ","HOUSE_NO":"５１號","E_COORD97":178970.17000000001,"N_COORD97":2544012.2999999998,"ADDRESS":"保東路５１號","OBJECTID":140008},"geometry":{"x":178970.17000000086,"y":2544012.3000000007}},{"attributes":{"ID":140009,"DIS_CODE":0,"TOWNNAME":"南區","LI":"田寮里","LIN":"22鄰","STREET":"西門路","SECT":"一段","MAREA":" ","LANE":"２７９巷","ALLEY":"１６弄","HOUSE_NO":"１３號三樓","E_COORD97":167614.76000000001,"N_COORD97":2542025.0600000001,"ADDRESS":"西門路一段２７９巷１６弄１３號三樓","OBJECTID":140009},"geometry":{"x":167614.76000000071,"y":2542025.0600000024}},{"attributes":{"ID":140010,"DIS_CODE":0,"TOWNNAME":"永康區","LI":"網寮里","LIN":"6鄰","STREET":"永二街","SECT":" ","MAREA":" ","LANE":" ","ALLEY":" ","HOUSE_NO":"１９０號","E_COORD97":173383.94,"N_COORD97":2546277.3700000001,"ADDRESS":"永二街１９０號","OBJECTID":140010},"geometry":{"x":173383.94000000041,"y":2546277.3700000048}},{"attributes":{"ID":140011,"DIS_CODE":0,"TOWNNAME":"永康區","LI":"烏竹里","LIN":"6鄰","STREET":"龍橋街","SECT":" ","MAREA":" ","LANE":" ","ALLEY":" ","HOUSE_NO":"４２７號","E_COORD97":174408.38,"N_COORD97":2549246.7000000002,"ADDRESS":"龍橋街４２７號","OBJECTID":140011},"geometry":{"x":174408.38000000082,"y":2549246.700000003}},{"attributes":{"ID":140012,"DIS_CODE":0,"TOWNNAME":"南區","LI":"府南里","LIN":" ","STREET":"大成路","SECT":"二段","MAREA":" ","LANE":" ","ALLEY":" ","HOUSE_NO":"５９之１號","E_COORD97":167539.92000000001,"N_COORD97":2541725.8300000001,"ADDRESS":"大成路二段５９之１號","OBJECTID":140012},"geometry":{"x":167539.92000000086,"y":2541725.8300000001}},{"attributes":{"ID":140013,"DIS_CODE":0,"TOWNNAME":"南區","LI":"府南里","LIN":" ","STREET":"大成路","SECT":"二段","MAREA":" ","LANE":" ","ALLEY":" ","HOUSE_NO":"５９之２號","E_COORD97":167535.29000000001,"N_COORD97":2541725.4199999999,"ADDRESS":"大成路二段５９之２號","OBJECTID":140013},"geometry":{"x":167535.29000000097,"y":2541725.4199999999}},{"attributes":{"ID":140014,"DIS_CODE":0,"TOWNNAME":"南區","LI":"田寮里","LIN":"22鄰","STREET":"西門路","SECT":"一段","MAREA":" ","LANE":"２７９巷","ALLEY":"１６弄","HOUSE_NO":"１３號五樓","E_COORD97":167614.76000000001,"N_COORD97":2542025.0600000001,"ADDRESS":"西門路一段２７９巷１６弄１３號五樓","OBJECTID":140014},"geometry":{"x":167614.76000000071,"y":2542025.0600000024}},{"attributes":{"ID":140015,"DIS_CODE":0,"TOWNNAME":"南區","LI":"田寮里","LIN":"22鄰","STREET":"西門路","SECT":"一段","MAREA":" ","LANE":"２７９巷","ALLEY":"１６弄","HOUSE_NO":"１３號四樓","E_COORD97":167614.76000000001,"N_COORD97":2542025.0600000001,"ADDRESS":"西門路一段２７９巷１６弄１３號四樓","OBJECTID":140015},"geometry":{"x":167614.76000000071,"y":2542025.0600000024}},{"attributes":{"ID":140016,"DIS_CODE":0,"TOWNNAME":"南區","LI":"田寮里","LIN":"22鄰","STREET":"西門路","SECT":"一段","MAREA":" ","LANE":"２７９巷","ALLEY":"１６弄","HOUSE_NO":"１５號二樓","E_COORD97":167611.31,"N_COORD97":2542036.9700000002,"ADDRESS":"西門路一段２７９巷１６弄１５號二樓","OBJECTID":140016},"geometry":{"x":167611.31000000052,"y":2542036.9700000007}},{"attributes":{"ID":140017,"DIS_CODE":0,"TOWNNAME":"歸仁區","LI":"西埔里","LIN":"6鄰","STREET":"保大路","SECT":"二段","MAREA":" ","LANE":" ","ALLEY":" ","HOUSE_NO":"１２０號","E_COORD97":177056.27048100001,"N_COORD97":2544153.2457900001,"ADDRESS":"保大路二段１２０號","OBJECTID":140017},"geometry":{"x":177056.27048100065,"y":2544153.2457870003}},{"attributes":{"ID":140018,"DIS_CODE":0,"TOWNNAME":"南區","LI":"明興里","LIN":"1鄰","STREET":"德興路","SECT":" ","MAREA":" ","LANE":" ","ALLEY":" ","HOUSE_NO":"４８號","E_COORD97":167153.78,"N_COORD97":2540741.4300000002,"ADDRESS":"德興路４８號","OBJECTID":140018},"geometry":{"x":167153.77999999933,"y":2540741.4299999997}},{"attributes":{"ID":140019,"DIS_CODE":0,"TOWNNAME":"新營區","LI":"太北里","LIN":"6鄰","STREET":" ","SECT":" ","MAREA":"太子宮","LANE":" ","ALLEY":" ","HOUSE_NO":"４５號之１","E_COORD97":175796.48000000001,"N_COORD97":2577155.75,"ADDRESS":"太子宮４５號之１","OBJECTID":140019},"geometry":{"x":175796.48000000231,"y":2577155.75}},{"attributes":{"ID":140020,"DIS_CODE":0,"TOWNNAME":"東山區","LI":"大客里","LIN":"17鄰","STREET":" ","SECT":" ","MAREA":"凹子\u25A0","LANE":" ","ALLEY":" ","HOUSE_NO":"３０號之８","E_COORD97":191223.35999999999,"N_COORD97":2579354.02,"ADDRESS":"凹子\u25A0３０號之８","OBJECTID":140020},"geometry":{"x":191223.3600000022,"y":2579354.0199999996}},{"attributes":{"ID":140021,"DIS_CODE":0,"TOWNNAME":"東山區","LI":"大客里","LIN":"17鄰","STREET":" ","SECT":" ","MAREA":"凹子\u25A0","LANE":" ","ALLEY":" ","HOUSE_NO":"３０號","E_COORD97":191219.45000000001,"N_COORD97":2579341.04,"ADDRESS":"凹子\u25A0３０號","OBJECTID":140021},"geometry":{"x":191219.45000000112,"y":2579341.040000001}},{"attributes":{"ID":140022,"DIS_CODE":0,"TOWNNAME":"東區","LI":"富裕里","LIN":"6鄰","STREET":"裕農路","SECT":" ","MAREA":" ","LANE":"２８８巷","ALLEY":" ","HOUSE_NO":"６２號","E_COORD97":170914.455373,"N_COORD97":2542934.3949899999,"ADDRESS":"裕農路２８８巷６２號","OBJECTID":140022},"geometry":{"x":170914.45537300128,"y":2542934.3949880023}},{"attributes":{"ID":140023,"DIS_CODE":0,"TOWNNAME":"東山區","LI":"大客里","LIN":"21鄰","STREET":" ","SECT":" ","MAREA":"凹子\u25A0","LANE":" ","ALLEY":" ","HOUSE_NO":"４１號之１０","E_COORD97":190929.94,"N_COORD97":2579691.8100000001,"ADDRESS":"凹子\u25A0４１號之１０","OBJECTID":140023},"geometry":{"x":190929.94000000134,"y":2579691.8100000005}},{"attributes":{"ID":140024,"DIS_CODE":0,"TOWNNAME":"東山區","LI":"大客里","LIN":"21鄰","STREET":" ","SECT":" ","MAREA":"凹子\u25A0","LANE":" ","ALLEY":" ","HOUSE_NO":"４１號之１１","E_COORD97":190935.39000000001,"N_COORD97":2579689.3599999999,"ADDRESS":"凹子\u25A0４１號之１１","OBJECTID":140024},"geometry":{"x":190935.38999999966,"y":2579689.3600000013}},{"attributes":{"ID":140025,"DIS_CODE":0,"TOWNNAME":"安定區","LI":"安定里","LIN":"6鄰","STREET":" ","SECT":" ","MAREA":"安定","LANE":" ","ALLEY":" ","HOUSE_NO":"３７號","E_COORD97":172120.07000000001,"N_COORD97":2557867.3199999998,"ADDRESS":"安定３７號","OBJECTID":140025},"geometry":{"x":172120.0700000003,"y":2557867.3200000003}},{"attributes":{"ID":140026,"DIS_CODE":0,"TOWNNAME":"佳里區","LI":"忠仁里","LIN":"6鄰","STREET":" ","SECT":" ","MAREA":"忠仁","LANE":" ","ALLEY":" ","HOUSE_NO":"１１號之３","E_COORD97":165868.07999999999,"N_COORD97":2561979.1400000001,"ADDRESS":"忠仁１１號之３","OBJECTID":140026},"geometry":{"x":165868.08000000007,"y":2561979.1399999987}},{"attributes":{"ID":140027,"DIS_CODE":0,"TOWNNAME":"南區","LI":"田寮里","LIN":"22鄰","STREET":"西門路","SECT":"一段","MAREA":" ","LANE":"２７９巷","ALLEY":"１６弄","HOUSE_NO":"１５號三樓","E_COORD97":167611.31,"N_COORD97":2542036.9700000002,"ADDRESS":"西門路一段２７９巷１６弄１５號三樓","OBJECTID":140027},"geometry":{"x":167611.31000000052,"y":2542036.9700000007}},{"attributes":{"ID":140028,"DIS_CODE":0,"TOWNNAME":"南區","LI":"田寮里","LIN":"22鄰","STREET":"西門路","SECT":"一段","MAREA":" ","LANE":"２７９巷","ALLEY":"１６弄","HOUSE_NO":"１５號五樓","E_COORD97":167611.31,"N_COORD97":2542036.9700000002,"ADDRESS":"西門路一段２７９巷１６弄１５號五樓","OBJECTID":140028},"geometry":{"x":167611.31000000052,"y":2542036.9700000007}},{"attributes":{"ID":140029,"DIS_CODE":0,"TOWNNAME":"南區","LI":"田寮里","LIN":"22鄰","STREET":"西門路","SECT":"一段","MAREA":" ","LANE":"２７９巷","ALLEY":"１６弄","HOUSE_NO":"１５號四樓","E_COORD97":167611.31,"N_COORD97":2542036.9700000002,"ADDRESS":"西門路一段２７９巷１６弄１５號四樓","OBJECTID":140029},"geometry":{"x":167611.31000000052,"y":2542036.9700000007}},{"attributes":{"ID":140030,"DIS_CODE":0,"TOWNNAME":"南區","LI":"田寮里","LIN":"22鄰","STREET":"西門路","SECT":"一段","MAREA":" ","LANE":"２７９巷","ALLEY":"１６弄","HOUSE_NO":"１號二樓","E_COORD97":167633.76000000001,"N_COORD97":2541950.1899999999,"ADDRESS":"西門路一段２７９巷１６弄１號二樓","OBJECTID":140030},"geometry":{"x":167633.76000000071,"y":2541950.1899999995}},{"attributes":{"ID":140031,"DIS_CODE":0,"TOWNNAME":"佳里區","LI":"忠仁里","LIN":"6鄰","STREET":" ","SECT":" ","MAREA":"忠仁","LANE":" ","ALLEY":" ","HOUSE_NO":"１１號之６","E_COORD97":165839.92000000001,"N_COORD97":2561976.6600000001,"ADDRESS":"忠仁１１號之６","OBJECTID":140031},"geometry":{"x":165839.91999999993,"y":2561976.660000002}},{"attributes":{"ID":140032,"DIS_CODE":0,"TOWNNAME":"佳里區","LI":"忠仁里","LIN":"6鄰","STREET":" ","SECT":" ","MAREA":"忠仁","LANE":" ","ALLEY":" ","HOUSE_NO":"１３號之１","E_COORD97":165853.92000000001,"N_COORD97":2561983.7799999998,"ADDRESS":"忠仁１３號之１","OBJECTID":140032},"geometry":{"x":165853.91999999993,"y":2561983.7800000031}},{"attributes":{"ID":140033,"DIS_CODE":0,"TOWNNAME":"東山區","LI":"大客里","LIN":"19鄰","STREET":" ","SECT":" ","MAREA":"凹子\u25A0","LANE":" ","ALLEY":" ","HOUSE_NO":"３６號之１","E_COORD97":191058.82999999999,"N_COORD97":2579556.1800000002,"ADDRESS":"凹子\u25A0３６號之１","OBJECTID":140033},"geometry":{"x":191058.82999999914,"y":2579556.1799999997}},{"attributes":{"ID":140034,"DIS_CODE":0,"TOWNNAME":"東山區","LI":"大客里","LIN":"19鄰","STREET":" ","SECT":" ","MAREA":"凹子\u25A0","LANE":" ","ALLEY":" ","HOUSE_NO":"３６號之２","E_COORD97":191044.92000000001,"N_COORD97":2579551.4500000002,"ADDRESS":"凹子\u25A0３６號之２","OBJECTID":140034},"geometry":{"x":191044.92000000086,"y":2579551.450000003}},{"attributes":{"ID":140035,"DIS_CODE":0,"TOWNNAME":"東山區","LI":"大客里","LIN":"21鄰","STREET":" ","SECT":" ","MAREA":"凹子\u25A0","LANE":" ","ALLEY":" ","HOUSE_NO":"４１號之１２","E_COORD97":190941.63,"N_COORD97":2579684.7200000002,"ADDRESS":"凹子\u25A0４１號之１２","OBJECTID":140035},"geometry":{"x":190941.63000000082,"y":2579684.7200000025}},{"attributes":{"ID":140036,"DIS_CODE":0,"TOWNNAME":"東山區","LI":"大客里","LIN":"21鄰","STREET":" ","SECT":" ","MAREA":"凹子\u25A0","LANE":" ","ALLEY":" ","HOUSE_NO":"４１號之１３","E_COORD97":190938.22,"N_COORD97":2579670.96,"ADDRESS":"凹子\u25A0４１號之１３","OBJECTID":140036},"geometry":{"x":190938.21999999974,"y":2579670.9600000009}},{"attributes":{"ID":140037,"DIS_CODE":0,"TOWNNAME":"東山區","LI":"大客里","LIN":"21鄰","STREET":" ","SECT":" ","MAREA":"凹子\u25A0","LANE":" ","ALLEY":" ","HOUSE_NO":"４１號之１４","E_COORD97":190931.64999999999,"N_COORD97":2579672.2799999998,"ADDRESS":"凹子\u25A0４１號之１４","OBJECTID":140037},"geometry":{"x":190931.65000000224,"y":2579672.2800000012}},{"attributes":{"ID":140038,"DIS_CODE":0,"TOWNNAME":"東山區","LI":"大客里","LIN":"21鄰","STREET":" ","SECT":" ","MAREA":"凹子\u25A0","LANE":" ","ALLEY":" ","HOUSE_NO":"４１號之１５","E_COORD97":190926.03,"N_COORD97":2579673.3399999999,"ADDRESS":"凹子\u25A0４１號之１５","OBJECTID":140038},"geometry":{"x":190926.03000000119,"y":2579673.3399999999}},{"attributes":{"ID":140039,"DIS_CODE":0,"TOWNNAME":"東山區","LI":"大客里","LIN":"21鄰","STREET":" ","SECT":" ","MAREA":"凹子\u25A0","LANE":" ","ALLEY":" ","HOUSE_NO":"４１號之１６","E_COORD97":190920.09,"N_COORD97":2579674.6099999999,"ADDRESS":"凹子\u25A0４１號之１６","OBJECTID":140039},"geometry":{"x":190920.09000000078,"y":2579674.6099999994}},{"attributes":{"ID":140040,"DIS_CODE":0,"TOWNNAME":"東山區","LI":"大客里","LIN":"21鄰","STREET":" ","SECT":" ","MAREA":"凹子\u25A0","LANE":" ","ALLEY":" ","HOUSE_NO":"４１號之１７","E_COORD97":190914.17000000001,"N_COORD97":2579675.5499999998,"ADDRESS":"凹子\u25A0４１號之１７","OBJECTID":140040},"geometry":{"x":190914.17000000179,"y":2579675.5500000026}},{"attributes":{"ID":140041,"DIS_CODE":0,"TOWNNAME":"東山區","LI":"大客里","LIN":"21鄰","STREET":" ","SECT":" ","MAREA":"凹子\u25A0","LANE":" ","ALLEY":" ","HOUSE_NO":"４１號之１８","E_COORD97":190900.25,"N_COORD97":2579708.98,"ADDRESS":"凹子\u25A0４１號之１８","OBJECTID":140041},"geometry":{"x":190900.25000000093,"y":2579708.9800000023}},{"attributes":{"ID":140042,"DIS_CODE":0,"TOWNNAME":"柳營區","LI":"旭山里","LIN":" ","STREET":" ","SECT":" ","MAREA":"山子腳","LANE":" ","ALLEY":" ","HOUSE_NO":"４０９號","E_COORD97":186930.26000000001,"N_COORD97":2576138.6499999999,"ADDRESS":"山子腳４０９號","OBJECTID":140042},"geometry":{"x":186930.26000000071,"y":2576138.6500000022}},{"attributes":{"ID":140043,"DIS_CODE":0,"TOWNNAME":"柳營區","LI":"重溪里","LIN":" ","STREET":" ","SECT":" ","MAREA":"小腳腿","LANE":" ","ALLEY":" ","HOUSE_NO":"９８之２號","E_COORD97":185249.76000000001,"N_COORD97":2576791.7799999998,"ADDRESS":"小腳腿９８之２號","OBJECTID":140043},"geometry":{"x":185249.76000000164,"y":2576791.7799999993}},{"attributes":{"ID":140044,"DIS_CODE":0,"TOWNNAME":"柳營區","LI":"八翁里","LIN":" ","STREET":" ","SECT":" ","MAREA":"八老爺","LANE":" ","ALLEY":" ","HOUSE_NO":"１４之３號","E_COORD97":178238.10999999999,"N_COORD97":2575024.98,"ADDRESS":"八老爺１４之３號","OBJECTID":140044},"geometry":{"x":178238.11000000034,"y":2575024.9800000004}},{"attributes":{"ID":140045,"DIS_CODE":0,"TOWNNAME":"南區","LI":"田寮里","LIN":"22鄰","STREET":"西門路","SECT":"一段","MAREA":" ","LANE":"２７９巷","ALLEY":"１６弄","HOUSE_NO":"１號三樓","E_COORD97":167633.76000000001,"N_COORD97":2541950.1899999999,"ADDRESS":"西門路一段２７９巷１６弄１號三樓","OBJECTID":140045},"geometry":{"x":167633.76000000071,"y":2541950.1899999995}},{"attributes":{"ID":140046,"DIS_CODE":0,"TOWNNAME":"南區","LI":"田寮里","LIN":"22鄰","STREET":"西門路","SECT":"一段","MAREA":" ","LANE":"２７９巷","ALLEY":"１６弄","HOUSE_NO":"１號五樓","E_COORD97":167633.76000000001,"N_COORD97":2541950.1899999999,"ADDRESS":"西門路一段２７９巷１６弄１號五樓","OBJECTID":140046},"geometry":{"x":167633.76000000071,"y":2541950.1899999995}},{"attributes":{"ID":140047,"DIS_CODE":0,"TOWNNAME":"南區","LI":"田寮里","LIN":"22鄰","STREET":"西門路","SECT":"一段","MAREA":" ","LANE":"２７９巷","ALLEY":"１６弄","HOUSE_NO":"１號四樓","E_COORD97":167633.76000000001,"N_COORD97":2541950.1899999999,"ADDRESS":"西門路一段２７９巷１６弄１號四樓","OBJECTID":140047},"geometry":{"x":167633.76000000071,"y":2541950.1899999995}},{"attributes":{"ID":140048,"DIS_CODE":0,"TOWNNAME":"柳營區","LI":"八翁里","LIN":" ","STREET":" ","SECT":" ","MAREA":"八老爺","LANE":" ","ALLEY":" ","HOUSE_NO":"１６之３號","E_COORD97":178220.73000000001,"N_COORD97":2574966.6200000001,"ADDRESS":"八老爺１６之３號","OBJECTID":140048},"geometry":{"x":178220.73000000231,"y":2574966.6200000029}},{"attributes":{"ID":140049,"DIS_CODE":0,"TOWNNAME":"東山區","LI":"大客里","LIN":"22鄰","STREET":" ","SECT":" ","MAREA":"凹子\u25A0","LANE":" ","ALLEY":" ","HOUSE_NO":"５７號之１","E_COORD97":190835.32000000001,"N_COORD97":2579793.6200000001,"ADDRESS":"凹子\u25A0５７號之１","OBJECTID":140049},"geometry":{"x":190835.31999999937,"y":2579793.6200000029}},{"attributes":{"ID":140050,"DIS_CODE":0,"TOWNNAME":"東山區","LI":"大客里","LIN":"22鄰","STREET":" ","SECT":" ","MAREA":"凹子\u25A0","LANE":" ","ALLEY":" ","HOUSE_NO":"５７號","E_COORD97":190806.13,"N_COORD97":2579795.4300000002,"ADDRESS":"凹子\u25A0５７號","OBJECTID":140050},"geometry":{"x":190806.13000000082,"y":2579795.4299999997}},{"attributes":{"ID":140051,"DIS_CODE":0,"TOWNNAME":"東山區","LI":"大客里","LIN":"22鄰","STREET":" ","SECT":" ","MAREA":"凹子\u25A0","LANE":" ","ALLEY":" ","HOUSE_NO":"５８號","E_COORD97":190772.79999999999,"N_COORD97":2579802.6499999999,"ADDRESS":"凹子\u25A0５８號","OBJECTID":140051},"geometry":{"x":190772.80000000075,"y":2579802.6500000022}},{"attributes":{"ID":140052,"DIS_CODE":0,"TOWNNAME":"東山區","LI":"大客里","LIN":"22鄰","STREET":" ","SECT":" ","MAREA":"凹子\u25A0","LANE":" ","ALLEY":" ","HOUSE_NO":"５９號之１","E_COORD97":190737.32999999999,"N_COORD97":2579806.5499999998,"ADDRESS":"凹子\u25A0５９號之１","OBJECTID":140052},"geometry":{"x":190737.33000000101,"y":2579806.5499999989}},{"attributes":{"ID":140053,"DIS_CODE":0,"TOWNNAME":"南區","LI":"田寮里","LIN":"22鄰","STREET":"西門路","SECT":"一段","MAREA":" ","LANE":"２７９巷","ALLEY":"１６弄","HOUSE_NO":"３號二樓","E_COORD97":167630.39000000001,"N_COORD97":2541964.21,"ADDRESS":"西門路一段２７９巷１６弄３號二樓","OBJECTID":140053},"geometry":{"x":167630.38999999966,"y":2541964.2100000009}},{"attributes":{"ID":140054,"DIS_CODE":0,"TOWNNAME":"南區","LI":"田寮里","LIN":"22鄰","STREET":"西門路","SECT":"一段","MAREA":" ","LANE":"２７９巷","ALLEY":"１６弄","HOUSE_NO":"３號三樓","E_COORD97":167630.39000000001,"N_COORD97":2541964.21,"ADDRESS":"西門路一段２７９巷１６弄３號三樓","OBJECTID":140054},"geometry":{"x":167630.38999999966,"y":2541964.2100000009}},{"attributes":{"ID":140055,"DIS_CODE":0,"TOWNNAME":"南區","LI":"田寮里","LIN":"22鄰","STREET":"西門路","SECT":"一段","MAREA":" ","LANE":"２７９巷","ALLEY":"１６弄","HOUSE_NO":"３號五樓","E_COORD97":167630.39000000001,"N_COORD97":2541964.21,"ADDRESS":"西門路一段２７９巷１６弄３號五樓","OBJECTID":140055},"geometry":{"x":167630.38999999966,"y":2541964.2100000009}},{"attributes":{"ID":140056,"DIS_CODE":0,"TOWNNAME":"南區","LI":"田寮里","LIN":"22鄰","STREET":"西門路","SECT":"一段","MAREA":" ","LANE":"２７９巷","ALLEY":"１６弄","HOUSE_NO":"３號四樓","E_COORD97":167630.39000000001,"N_COORD97":2541964.21,"ADDRESS":"西門路一段２７９巷１６弄３號四樓","OBJECTID":140056},"geometry":{"x":167630.38999999966,"y":2541964.2100000009}},{"attributes":{"ID":140057,"DIS_CODE":0,"TOWNNAME":"佳里區","LI":"六安里","LIN":"6鄰","STREET":"信義二街","SECT":" ","MAREA":" ","LANE":" ","ALLEY":" ","HOUSE_NO":"１０６號","E_COORD97":166073.37,"N_COORD97":2562866.2200000002,"ADDRESS":"信義二街１０６號","OBJECTID":140057},"geometry":{"x":166073.37000000197,"y":2562866.2200000007}},{"attributes":{"ID":140058,"DIS_CODE":0,"TOWNNAME":"佳里區","LI":"六安里","LIN":"6鄰","STREET":"信義二街","SECT":" ","MAREA":" ","LANE":" ","ALLEY":" ","HOUSE_NO":"１０８號","E_COORD97":166073.09,"N_COORD97":2562870.3300000001,"ADDRESS":"信義二街１０８號","OBJECTID":140058},"geometry":{"x":166073.08999999892,"y":2562870.3300000019}},{"attributes":{"ID":140059,"DIS_CODE":0,"TOWNNAME":"佳里區","LI":"六安里","LIN":"6鄰","STREET":"信義二街","SECT":" ","MAREA":" ","LANE":" ","ALLEY":" ","HOUSE_NO":"１１０號","E_COORD97":166072.89000000001,"N_COORD97":2562874.6800000002,"ADDRESS":"信義二街１１０號","OBJECTID":140059},"geometry":{"x":166072.8900000006,"y":2562874.6800000016}},{"attributes":{"ID":140060,"DIS_CODE":0,"TOWNNAME":"永康區","LI":"中華里","LIN":"6鄰","STREET":"華興街","SECT":" ","MAREA":" ","LANE":" ","ALLEY":" ","HOUSE_NO":"３９號","E_COORD97":171986.72,"N_COORD97":2544563.3399999999,"ADDRESS":"華興街３９號","OBJECTID":140060},"geometry":{"x":171986.7200000016,"y":2544563.3399999999}},{"attributes":{"ID":140061,"DIS_CODE":0,"TOWNNAME":"永康區","LI":"網寮里","LIN":"6鄰","STREET":"永二街","SECT":" ","MAREA":" ","LANE":" ","ALLEY":" ","HOUSE_NO":"１７０號","E_COORD97":173382.89000000001,"N_COORD97":2546337.3300000001,"ADDRESS":"永二街１７０號","OBJECTID":140061},"geometry":{"x":173382.8900000006,"y":2546337.3300000001}},{"attributes":{"ID":140062,"DIS_CODE":0,"TOWNNAME":"南區","LI":"田寮里","LIN":"22鄰","STREET":"西門路","SECT":"一段","MAREA":" ","LANE":"２７９巷","ALLEY":"１６弄","HOUSE_NO":"５號二樓","E_COORD97":167627.01999999999,"N_COORD97":2541973.3700000001,"ADDRESS":"西門路一段２７９巷１６弄５號二樓","OBJECTID":140062},"geometry":{"x":167627.01999999955,"y":2541973.370000001}},{"attributes":{"ID":140063,"DIS_CODE":0,"TOWNNAME":"南區","LI":"田寮里","LIN":"22鄰","STREET":"西門路","SECT":"一段","MAREA":" ","LANE":"２７９巷","ALLEY":"１６弄","HOUSE_NO":"５號三樓","E_COORD97":167627.01999999999,"N_COORD97":2541973.3700000001,"ADDRESS":"西門路一段２７９巷１６弄５號三樓","OBJECTID":140063},"geometry":{"x":167627.01999999955,"y":2541973.370000001}},{"attributes":{"ID":140064,"DIS_CODE":0,"TOWNNAME":"南區","LI":"田寮里","LIN":"22鄰","STREET":"西門路","SECT":"一段","MAREA":" ","LANE":"２７９巷","ALLEY":"１６弄","HOUSE_NO":"５號五樓","E_COORD97":167627.01999999999,"N_COORD97":2541973.3700000001,"ADDRESS":"西門路一段２７９巷１６弄５號五樓","OBJECTID":140064},"geometry":{"x":167627.01999999955,"y":2541973.370000001}},{"attributes":{"ID":140065,"DIS_CODE":0,"TOWNNAME":"南區","LI":"田寮里","LIN":"22鄰","STREET":"西門路","SECT":"一段","MAREA":" ","LANE":"２７９巷","ALLEY":"１６弄","HOUSE_NO":"５號四樓","E_COORD97":167627.01999999999,"N_COORD97":2541973.3700000001,"ADDRESS":"西門路一段２７９巷１６弄５號四樓","OBJECTID":140065},"geometry":{"x":167627.01999999955,"y":2541973.370000001}},{"attributes":{"ID":140066,"DIS_CODE":0,"TOWNNAME":"南區","LI":"田寮里","LIN":"22鄰","STREET":"西門路","SECT":"一段","MAREA":" ","LANE":"２７９巷","ALLEY":"１６弄","HOUSE_NO":"７號二樓","E_COORD97":167624.57999999999,"N_COORD97":2541988.5099999998,"ADDRESS":"西門路一段２７９巷１６弄７號二樓","OBJECTID":140066},"geometry":{"x":167624.58000000194,"y":2541988.5099999998}},{"attributes":{"ID":140067,"DIS_CODE":0,"TOWNNAME":"南區","LI":"田寮里","LIN":"22鄰","STREET":"西門路","SECT":"一段","MAREA":" ","LANE":"２７９巷","ALLEY":"１６弄","HOUSE_NO":"７號三樓","E_COORD97":167624.57999999999,"N_COORD97":2541988.5099999998,"ADDRESS":"西門路一段２７９巷１６弄７號三樓","OBJECTID":140067},"geometry":{"x":167624.58000000194,"y":2541988.5099999998}},{"attributes":{"ID":140068,"DIS_CODE":0,"TOWNNAME":"南區","LI":"田寮里","LIN":"22鄰","STREET":"西門路","SECT":"一段","MAREA":" ","LANE":"２７９巷","ALLEY":"１６弄","HOUSE_NO":"７號五樓","E_COORD97":167624.57999999999,"N_COORD97":2541988.5099999998,"ADDRESS":"西門路一段２７９巷１６弄７號五樓","OBJECTID":140068},"geometry":{"x":167624.58000000194,"y":2541988.5099999998}},{"attributes":{"ID":140069,"DIS_CODE":0,"TOWNNAME":"南區","LI":"田寮里","LIN":"22鄰","STREET":"西門路","SECT":"一段","MAREA":" ","LANE":"２７９巷","ALLEY":"１６弄","HOUSE_NO":"７號四樓","E_COORD97":167624.57999999999,"N_COORD97":2541988.5099999998,"ADDRESS":"西門路一段２７９巷１６弄７號四樓","OBJECTID":140069},"geometry":{"x":167624.58000000194,"y":2541988.5099999998}},{"attributes":{"ID":140070,"DIS_CODE":0,"TOWNNAME":"南區","LI":"田寮里","LIN":"22鄰","STREET":"西門路","SECT":"一段","MAREA":" ","LANE":"２７９巷","ALLEY":"１６弄","HOUSE_NO":"９號二樓","E_COORD97":167621.12,"N_COORD97":2542000.4300000002,"ADDRESS":"西門路一段２７９巷１６弄９號二樓","OBJECTID":140070},"geometry":{"x":167621.12000000197,"y":2542000.4300000034}},{"attributes":{"ID":140071,"DIS_CODE":0,"TOWNNAME":"南區","LI":"田寮里","LIN":"22鄰","STREET":"西門路","SECT":"一段","MAREA":" ","LANE":"２７９巷","ALLEY":"１６弄","HOUSE_NO":"９號三樓","E_COORD97":167621.12,"N_COORD97":2542000.4300000002,"ADDRESS":"西門路一段２７９巷１６弄９號三樓","OBJECTID":140071},"geometry":{"x":167621.12000000197,"y":2542000.4300000034}},{"attributes":{"ID":140072,"DIS_CODE":0,"TOWNNAME":"南區","LI":"田寮里","LIN":"22鄰","STREET":"西門路","SECT":"一段","MAREA":" ","LANE":"２７９巷","ALLEY":"１６弄","HOUSE_NO":"９號五樓","E_COORD97":167621.12,"N_COORD97":2542000.4300000002,"ADDRESS":"西門路一段２７９巷１６弄９號五樓","OBJECTID":140072},"geometry":{"x":167621.12000000197,"y":2542000.4300000034}},{"attributes":{"ID":140073,"DIS_CODE":0,"TOWNNAME":"南區","LI":"田寮里","LIN":"22鄰","STREET":"西門路","SECT":"一段","MAREA":" ","LANE":"２７９巷","ALLEY":"１６弄","HOUSE_NO":"９號四樓","E_COORD97":167621.12,"N_COORD97":2542000.4300000002,"ADDRESS":"西門路一段２７９巷１６弄９號四樓","OBJECTID":140073},"geometry":{"x":167621.12000000197,"y":2542000.4300000034}},{"attributes":{"ID":140074,"DIS_CODE":0,"TOWNNAME":"安南區","LI":"梅花里","LIN":"22鄰","STREET":"同安路","SECT":" ","MAREA":" ","LANE":"２６２巷","ALLEY":"１７弄","HOUSE_NO":"１６號","E_COORD97":167254.75,"N_COORD97":2549130.5899999999,"ADDRESS":"同安路２６２巷１７弄１６號","OBJECTID":140074},"geometry":{"x":167254.75,"y":2549130.5900000017}},{"attributes":{"ID":140075,"DIS_CODE":0,"TOWNNAME":"東區","LI":"成大里","LIN":"6鄰","STREET":"民族路","SECT":"一段","MAREA":" ","LANE":" ","ALLEY":" ","HOUSE_NO":"２５號","E_COORD97":169509.87,"N_COORD97":2543860.6299999999,"ADDRESS":"民族路一段２５號","OBJECTID":140075},"geometry":{"x":169509.87000000104,"y":2543860.6300000008}},{"attributes":{"ID":140076,"DIS_CODE":0,"TOWNNAME":"東山區","LI":"大客里","LIN":"22鄰","STREET":" ","SECT":" ","MAREA":"凹子\u25A0","LANE":" ","ALLEY":" ","HOUSE_NO":"５９之２號","E_COORD97":190737.76999999999,"N_COORD97":2579790.1400000001,"ADDRESS":"凹子\u25A0５９之２號","OBJECTID":140076},"geometry":{"x":190737.76999999955,"y":2579790.1400000025}},{"attributes":{"ID":140077,"DIS_CODE":0,"TOWNNAME":"東山區","LI":"大客里","LIN":"22鄰","STREET":" ","SECT":" ","MAREA":"凹子\u25A0","LANE":" ","ALLEY":" ","HOUSE_NO":"５９號之２","E_COORD97":190737.76999999999,"N_COORD97":2579790.1400000001,"ADDRESS":"凹子\u25A0５９號之２","OBJECTID":140077},"geometry":{"x":190737.76999999955,"y":2579790.1400000025}},{"attributes":{"ID":140078,"DIS_CODE":0,"TOWNNAME":"柳營區","LI":"八翁里","LIN":" ","STREET":" ","SECT":" ","MAREA":"八老爺","LANE":" ","ALLEY":" ","HOUSE_NO":"１８號","E_COORD97":178271.17999999999,"N_COORD97":2574946.46,"ADDRESS":"八老爺１８號","OBJECTID":140078},"geometry":{"x":178271.18000000063,"y":2574946.4600000028}},{"attributes":{"ID":140079,"DIS_CODE":0,"TOWNNAME":"柳營區","LI":"八翁里","LIN":" ","STREET":" ","SECT":" ","MAREA":"八老爺","LANE":" ","ALLEY":" ","HOUSE_NO":"２５號","E_COORD97":178205.94,"N_COORD97":2574918.8700000001,"ADDRESS":"八老爺２５號","OBJECTID":140079},"geometry":{"x":178205.94000000134,"y":2574918.870000001}},{"attributes":{"ID":140080,"DIS_CODE":0,"TOWNNAME":"柳營區","LI":"八翁里","LIN":" ","STREET":" ","SECT":" ","MAREA":"八老爺","LANE":" ","ALLEY":" ","HOUSE_NO":"５８號","E_COORD97":178052.39999999999,"N_COORD97":2574780.4500000002,"ADDRESS":"八老爺５８號","OBJECTID":140080},"geometry":{"x":178052.4000000013,"y":2574780.4499999993}},{"attributes":{"ID":140081,"DIS_CODE":0,"TOWNNAME":"柳營區","LI":"旭山里","LIN":" ","STREET":" ","SECT":" ","MAREA":"大腳腿","LANE":" ","ALLEY":" ","HOUSE_NO":"１之５號","E_COORD97":186938.54000000001,"N_COORD97":2575725.7799999998,"ADDRESS":"大腳腿１之５號","OBJECTID":140081},"geometry":{"x":186938.54000000097,"y":2575725.7800000012}},{"attributes":{"ID":140082,"DIS_CODE":0,"TOWNNAME":"柳營區","LI":"大農里","LIN":" ","STREET":" ","SECT":" ","MAREA":"大腳腿","LANE":" ","ALLEY":" ","HOUSE_NO":"５號","E_COORD97":186047.14999999999,"N_COORD97":2575752.23,"ADDRESS":"大腳腿５號","OBJECTID":140082},"geometry":{"x":186047.15000000037,"y":2575752.2300000004}},{"attributes":{"ID":140083,"DIS_CODE":0,"TOWNNAME":"柳營區","LI":"重溪里","LIN":" ","STREET":" ","SECT":" ","MAREA":"小腳腿","LANE":" ","ALLEY":" ","HOUSE_NO":"１２３號","E_COORD97":185118.82000000001,"N_COORD97":2576710.6299999999,"ADDRESS":"小腳腿１２３號","OBJECTID":140083},"geometry":{"x":185118.8200000003,"y":2576710.629999999}},{"attributes":{"ID":140084,"DIS_CODE":0,"TOWNNAME":"柳營區","LI":"重溪里","LIN":" ","STREET":" ","SECT":" ","MAREA":"小腳腿","LANE":" ","ALLEY":" ","HOUSE_NO":"１３８號","E_COORD97":185080.73000000001,"N_COORD97":2576738.7200000002,"ADDRESS":"小腳腿１３８號","OBJECTID":140084},"geometry":{"x":185080.73000000045,"y":2576738.7200000025}},{"attributes":{"ID":140085,"DIS_CODE":0,"TOWNNAME":"柳營區","LI":"重溪里","LIN":" ","STREET":" ","SECT":" ","MAREA":"小腳腿","LANE":" ","ALLEY":" ","HOUSE_NO":"１３號","E_COORD97":185172.70000000001,"N_COORD97":2576349.6000000001,"ADDRESS":"小腳腿１３號","OBJECTID":140085},"geometry":{"x":185172.70000000112,"y":2576349.5999999996}},{"attributes":{"ID":140086,"DIS_CODE":0,"TOWNNAME":"柳營區","LI":"太康里","LIN":" ","STREET":" ","SECT":" ","MAREA":"太康","LANE":" ","ALLEY":" ","HOUSE_NO":"１５４號","E_COORD97":181919.92999999999,"N_COORD97":2576472.1600000001,"ADDRESS":"太康１５４號","OBJECTID":140086},"geometry":{"x":181919.9299999997,"y":2576472.1600000001}},{"attributes":{"ID":140087,"DIS_CODE":0,"TOWNNAME":"柳營區","LI":"篤農里","LIN":" ","STREET":" ","SECT":" ","MAREA":"小腳腿","LANE":" ","ALLEY":" ","HOUSE_NO":"２０２之１號","E_COORD97":185411.62,"N_COORD97":2576709.0600000001,"ADDRESS":"小腳腿２０２之１號","OBJECTID":140087},"geometry":{"x":185411.62000000011,"y":2576709.0600000024}},{"attributes":{"ID":140088,"DIS_CODE":0,"TOWNNAME":"柳營區","LI":"篤農里","LIN":" ","STREET":" ","SECT":" ","MAREA":"小腳腿","LANE":" ","ALLEY":" ","HOUSE_NO":"２２９號","E_COORD97":185261.69,"N_COORD97":2576554.7799999998,"ADDRESS":"小腳腿２２９號","OBJECTID":140088},"geometry":{"x":185261.69000000134,"y":2576554.7799999993}},{"attributes":{"ID":140089,"DIS_CODE":0,"TOWNNAME":"東區","LI":"成大里","LIN":"6鄰","STREET":"育樂街","SECT":" ","MAREA":" ","LANE":" ","ALLEY":" ","HOUSE_NO":"１６３號","E_COORD97":169497.43112699999,"N_COORD97":2543849.54825,"ADDRESS":"育樂街１６３號","OBJECTID":140089},"geometry":{"x":169497.4311270006,"y":2543849.5482490007}},{"attributes":{"ID":140090,"DIS_CODE":0,"TOWNNAME":"柳營區","LI":"篤農里","LIN":" ","STREET":" ","SECT":" ","MAREA":"小腳腿","LANE":" ","ALLEY":" ","HOUSE_NO":"２６０之３號","E_COORD97":185582.17000000001,"N_COORD97":2576215.77,"ADDRESS":"小腳腿２６０之３號","OBJECTID":140090},"geometry":{"x":185582.16999999993,"y":2576215.7699999996}},{"attributes":{"ID":140091,"DIS_CODE":0,"TOWNNAME":"東區","LI":"成大里","LIN":"6鄰","STREET":"育樂街","SECT":" ","MAREA":" ","LANE":" ","ALLEY":" ","HOUSE_NO":"１６５號","E_COORD97":169503.36358999999,"N_COORD97":2543848.9132500002,"ADDRESS":"育樂街１６５號","OBJECTID":140091},"geometry":{"x":169503.3635900002,"y":2543848.9132500011}},{"attributes":{"ID":140092,"DIS_CODE":0,"TOWNNAME":"東區","LI":"成大里","LIN":"6鄰","STREET":"育樂街","SECT":" ","MAREA":" ","LANE":" ","ALLEY":" ","HOUSE_NO":"１６７號","E_COORD97":169508.23668500001,"N_COORD97":2543849.1249199999,"ADDRESS":"育樂街１６７號","OBJECTID":140092},"geometry":{"x":169508.23668500036,"y":2543849.1249160022}},{"attributes":{"ID":140093,"DIS_CODE":0,"TOWNNAME":"安南區","LI":"梅花里","LIN":"22鄰","STREET":"同安路","SECT":" ","MAREA":" ","LANE":"２６２巷","ALLEY":"４３弄","HOUSE_NO":"２１號","E_COORD97":167279.20999999999,"N_COORD97":2549110.1800000002,"ADDRESS":"同安路２６２巷４３弄２１號","OBJECTID":140093},"geometry":{"x":167279.20999999996,"y":2549110.1799999997}},{"attributes":{"ID":140094,"DIS_CODE":0,"TOWNNAME":"下營區","LI":"仁里里","LIN":"22鄰","STREET":"仁里街","SECT":" ","MAREA":" ","LANE":"１２２巷","ALLEY":"２５弄","HOUSE_NO":"１０號","E_COORD97":174074.81,"N_COORD97":2569950.6800000002,"ADDRESS":"仁里街１２２巷２５弄１０號","OBJECTID":140094},"geometry":{"x":174074.81000000052,"y":2569950.6799999997}},{"attributes":{"ID":140095,"DIS_CODE":0,"TOWNNAME":"東區","LI":"成大里","LIN":"6鄰","STREET":"育樂街","SECT":" ","MAREA":" ","LANE":" ","ALLEY":" ","HOUSE_NO":"１８０號","E_COORD97":169482.60000000001,"N_COORD97":2543860.5099999998,"ADDRESS":"育樂街１８０號","OBJECTID":140095},"geometry":{"x":169482.60000000056,"y":2543860.5099999998}},{"attributes":{"ID":140096,"DIS_CODE":0,"TOWNNAME":"柳營區","LI":"篤農里","LIN":" ","STREET":" ","SECT":" ","MAREA":"小腳腿","LANE":" ","ALLEY":" ","HOUSE_NO":"２６５號","E_COORD97":185593.60000000001,"N_COORD97":2576400.4399999999,"ADDRESS":"小腳腿２６５號","OBJECTID":140096},"geometry":{"x":185593.60000000056,"y":2576400.4400000013}},{"attributes":{"ID":140097,"DIS_CODE":0,"TOWNNAME":"下營區","LI":"仁里里","LIN":"22鄰","STREET":"仁里街","SECT":" ","MAREA":" ","LANE":"１２２巷","ALLEY":"２５弄","HOUSE_NO":"１２號","E_COORD97":174074.51000000001,"N_COORD97":2569946.54,"ADDRESS":"仁里街１２２巷２５弄１２號","OBJECTID":140097},"geometry":{"x":174074.50999999978,"y":2569946.540000001}},{"attributes":{"ID":140098,"DIS_CODE":0,"TOWNNAME":"下營區","LI":"仁里里","LIN":"22鄰","STREET":"仁里街","SECT":" ","MAREA":" ","LANE":"１２２巷","ALLEY":"２５弄","HOUSE_NO":"１６號","E_COORD97":174073.63,"N_COORD97":2569941.9199999999,"ADDRESS":"仁里街１２２巷２５弄１６號","OBJECTID":140098},"geometry":{"x":174073.62999999989,"y":2569941.9200000018}},{"attributes":{"ID":140099,"DIS_CODE":0,"TOWNNAME":"下營區","LI":"仁里里","LIN":"22鄰","STREET":"仁里街","SECT":" ","MAREA":" ","LANE":"１２２巷","ALLEY":"２５弄","HOUSE_NO":"１８號","E_COORD97":174073.03,"N_COORD97":2569937.4100000001,"ADDRESS":"仁里街１２２巷２５弄１８號","OBJECTID":140099},"geometry":{"x":174073.03000000026,"y":2569937.4099999983}},{"attributes":{"ID":140100,"DIS_CODE":0,"TOWNNAME":"下營區","LI":"仁里里","LIN":"22鄰","STREET":"仁里街","SECT":" ","MAREA":" ","LANE":"１２２巷","ALLEY":"２５弄","HOUSE_NO":"２０號","E_COORD97":174072.59,"N_COORD97":2569933.02,"ADDRESS":"仁里街１２２巷２５弄２０號","OBJECTID":140100},"geometry":{"x":174072.58999999985,"y":2569933.0200000033}},{"attributes":{"ID":140101,"DIS_CODE":0,"TOWNNAME":"下營區","LI":"仁里里","LIN":"22鄰","STREET":"仁里街","SECT":" ","MAREA":" ","LANE":"１２２巷","ALLEY":"２５弄","HOUSE_NO":"２２號","E_COORD97":174071.66,"N_COORD97":2569928.8599999999,"ADDRESS":"仁里街１２２巷２５弄２２號","OBJECTID":140101},"geometry":{"x":174071.66000000108,"y":2569928.8599999994}},{"attributes":{"ID":140102,"DIS_CODE":0,"TOWNNAME":"柳營區","LI":"篤農里","LIN":" ","STREET":" ","SECT":" ","MAREA":"小腳腿","LANE":" ","ALLEY":" ","HOUSE_NO":"２６６之２號","E_COORD97":185667.64999999999,"N_COORD97":2576347.29,"ADDRESS":"小腳腿２６６之２號","OBJECTID":140102},"geometry":{"x":185667.65000000037,"y":2576347.2899999991}},{"attributes":{"ID":140103,"DIS_CODE":0,"TOWNNAME":"下營區","LI":"仁里里","LIN":"22鄰","STREET":"仁里街","SECT":" ","MAREA":" ","LANE":"１２２巷","ALLEY":"２５弄","HOUSE_NO":"２６號","E_COORD97":174070.98999999999,"N_COORD97":2569923.8700000001,"ADDRESS":"仁里街１２２巷２５弄２６號","OBJECTID":140103},"geometry":{"x":174070.99000000115,"y":2569923.870000001}},{"attributes":{"ID":140104,"DIS_CODE":0,"TOWNNAME":"鹽水區","LI":"福得里","LIN":"5鄰","STREET":" ","SECT":" ","MAREA":"後厝","LANE":" ","ALLEY":" ","HOUSE_NO":"８３號","E_COORD97":175398.98999999999,"N_COORD97":2579801.73,"ADDRESS":"後厝８３號","OBJECTID":140104},"geometry":{"x":175398.99000000022,"y":2579801.7300000042}},{"attributes":{"ID":140105,"DIS_CODE":0,"TOWNNAME":"柳營區","LI":"重溪里","LIN":" ","STREET":" ","SECT":" ","MAREA":"小腳腿","LANE":" ","ALLEY":" ","HOUSE_NO":"２７之２號","E_COORD97":185219.5,"N_COORD97":2576513.79,"ADDRESS":"小腳腿２７之２號","OBJECTID":140105},"geometry":{"x":185219.50000000186,"y":2576513.7899999991}},{"attributes":{"ID":140106,"DIS_CODE":0,"TOWNNAME":"柳營區","LI":"重溪里","LIN":" ","STREET":" ","SECT":" ","MAREA":"小腳腿","LANE":" ","ALLEY":" ","HOUSE_NO":"２７之５號","E_COORD97":185221.14999999999,"N_COORD97":2576525.3399999999,"ADDRESS":"小腳腿２７之５號","OBJECTID":140106},"geometry":{"x":185221.1500000013,"y":2576525.3400000036}},{"attributes":{"ID":140107,"DIS_CODE":0,"TOWNNAME":"柳營區","LI":"重溪里","LIN":" ","STREET":" ","SECT":" ","MAREA":"小腳腿","LANE":" ","ALLEY":" ","HOUSE_NO":"２７之６號","E_COORD97":185221.89000000001,"N_COORD97":2576529.8300000001,"ADDRESS":"小腳腿２７之６號","OBJECTID":140107},"geometry":{"x":185221.8900000006,"y":2576529.8300000019}},{"attributes":{"ID":140108,"DIS_CODE":0,"TOWNNAME":"柳營區","LI":"篤農里","LIN":" ","STREET":" ","SECT":" ","MAREA":"小腳腿","LANE":" ","ALLEY":" ","HOUSE_NO":"３１６之２號","E_COORD97":185572.56,"N_COORD97":2576646.4100000001,"ADDRESS":"小腳腿３１６之２號","OBJECTID":140108},"geometry":{"x":185572.55999999959,"y":2576646.4100000001}},{"attributes":{"ID":140109,"DIS_CODE":0,"TOWNNAME":"柳營區","LI":"篤農里","LIN":" ","STREET":" ","SECT":" ","MAREA":"小腳腿","LANE":" ","ALLEY":" ","HOUSE_NO":"３３４之６號","E_COORD97":185434.91,"N_COORD97":2576726.98,"ADDRESS":"小腳腿３３４之６號","OBJECTID":140109},"geometry":{"x":185434.91000000015,"y":2576726.9800000004}},{"attributes":{"ID":140110,"DIS_CODE":0,"TOWNNAME":"柳營區","LI":"篤農里","LIN":" ","STREET":" ","SECT":" ","MAREA":"小腳腿","LANE":" ","ALLEY":" ","HOUSE_NO":"３之１２號","E_COORD97":185190.14999999999,"N_COORD97":2577144.2000000002,"ADDRESS":"小腳腿３之１２號","OBJECTID":140110},"geometry":{"x":185190.1500000013,"y":2577144.2000000011}},{"attributes":{"ID":140111,"DIS_CODE":0,"TOWNNAME":"柳營區","LI":"重溪里","LIN":" ","STREET":" ","SECT":" ","MAREA":"小腳腿","LANE":" ","ALLEY":" ","HOUSE_NO":"４０號","E_COORD97":185070.64000000001,"N_COORD97":2576604.8799999999,"ADDRESS":"小腳腿４０號","OBJECTID":140111},"geometry":{"x":185070.64000000153,"y":2576604.879999999}},{"attributes":{"ID":140112,"DIS_CODE":0,"TOWNNAME":"柳營區","LI":"重溪里","LIN":" ","STREET":" ","SECT":" ","MAREA":"小腳腿","LANE":" ","ALLEY":" ","HOUSE_NO":"７０號","E_COORD97":185280.14000000001,"N_COORD97":2576631.4399999999,"ADDRESS":"小腳腿７０號","OBJECTID":140112},"geometry":{"x":185280.13999999966,"y":2576631.4399999995}},{"attributes":{"ID":140113,"DIS_CODE":0,"TOWNNAME":"柳營區","LI":"重溪里","LIN":" ","STREET":" ","SECT":" ","MAREA":"小腳腿","LANE":" ","ALLEY":" ","HOUSE_NO":"７１之２號","E_COORD97":185278.28,"N_COORD97":2576639.0699999998,"ADDRESS":"小腳腿７１之２號","OBJECTID":140113},"geometry":{"x":185278.28000000026,"y":2576639.0700000003}},{"attributes":{"ID":140114,"DIS_CODE":0,"TOWNNAME":"東區","LI":"成大里","LIN":"6鄰","STREET":"育樂街","SECT":" ","MAREA":" ","LANE":" ","ALLEY":" ","HOUSE_NO":"１８２號","E_COORD97":169483.51000000001,"N_COORD97":2543853.71,"ADDRESS":"育樂街１８２號","OBJECTID":140114},"geometry":{"x":169483.51000000071,"y":2543853.7100000009}},{"attributes":{"ID":140115,"DIS_CODE":0,"TOWNNAME":"柳營區","LI":"重溪里","LIN":" ","STREET":" ","SECT":" ","MAREA":"小腳腿","LANE":" ","ALLEY":" ","HOUSE_NO":"７５號","E_COORD97":185274.97,"N_COORD97":2576662.9500000002,"ADDRESS":"小腳腿７５號","OBJECTID":140115},"geometry":{"x":185274.96999999974,"y":2576662.950000003}},{"attributes":{"ID":140116,"DIS_CODE":0,"TOWNNAME":"柳營區","LI":"重溪里","LIN":" ","STREET":" ","SECT":" ","MAREA":"小腳腿","LANE":" ","ALLEY":" ","HOUSE_NO":"７６號","E_COORD97":185275.22,"N_COORD97":2576670.4100000001,"ADDRESS":"小腳腿７６號","OBJECTID":140116},"geometry":{"x":185275.21999999881,"y":2576670.4100000001}},{"attributes":{"ID":140117,"DIS_CODE":0,"TOWNNAME":"柳營區","LI":"重溪里","LIN":" ","STREET":" ","SECT":" ","MAREA":"小腳腿","LANE":" ","ALLEY":" ","HOUSE_NO":"７７號","E_COORD97":185275.16,"N_COORD97":2576678.0800000001,"ADDRESS":"小腳腿７７號","OBJECTID":140117},"geometry":{"x":185275.16000000108,"y":2576678.0800000019}},{"attributes":{"ID":140118,"DIS_CODE":0,"TOWNNAME":"柳營區","LI":"重溪里","LIN":" ","STREET":" ","SECT":" ","MAREA":"小腳腿","LANE":" ","ALLEY":" ","HOUSE_NO":"８１號","E_COORD97":185278.64999999999,"N_COORD97":2576689.7200000002,"ADDRESS":"小腳腿８１號","OBJECTID":140118},"geometry":{"x":185278.6500000013,"y":2576689.7200000044}},{"attributes":{"ID":140119,"DIS_CODE":0,"TOWNNAME":"柳營區","LI":"重溪里","LIN":" ","STREET":" ","SECT":" ","MAREA":"小腳腿","LANE":" ","ALLEY":" ","HOUSE_NO":"８７號","E_COORD97":185279.22,"N_COORD97":2576712.2400000002,"ADDRESS":"小腳腿８７號","OBJECTID":140119},"geometry":{"x":185279.22000000067,"y":2576712.2400000002}},{"attributes":{"ID":140120,"DIS_CODE":0,"TOWNNAME":"柳營區","LI":"重溪里","LIN":" ","STREET":" ","SECT":" ","MAREA":"小腳腿","LANE":" ","ALLEY":" ","HOUSE_NO":"８９號","E_COORD97":185279.20000000001,"N_COORD97":2576719.98,"ADDRESS":"小腳腿８９號","OBJECTID":140120},"geometry":{"x":185279.19999999925,"y":2576719.9800000004}},{"attributes":{"ID":140121,"DIS_CODE":0,"TOWNNAME":"柳營區","LI":"重溪里","LIN":" ","STREET":" ","SECT":" ","MAREA":"小腳腿","LANE":" ","ALLEY":" ","HOUSE_NO":"９０號","E_COORD97":185279.22,"N_COORD97":2576723.3199999998,"ADDRESS":"小腳腿９０號","OBJECTID":140121},"geometry":{"x":185279.22000000067,"y":2576723.3200000022}},{"attributes":{"ID":140122,"DIS_CODE":0,"TOWNNAME":"柳營區","LI":"旭山里","LIN":" ","STREET":" ","SECT":" ","MAREA":"山子腳","LANE":" ","ALLEY":" ","HOUSE_NO":"４６之２５號","E_COORD97":186998.92000000001,"N_COORD97":2573517.8799999999,"ADDRESS":"山子腳４６之２５號","OBJECTID":140122},"geometry":{"x":186998.92000000086,"y":2573517.8800000008}},{"attributes":{"ID":140123,"DIS_CODE":0,"TOWNNAME":"柳營區","LI":"旭山里","LIN":" ","STREET":" ","SECT":" ","MAREA":"山子腳","LANE":" ","ALLEY":" ","HOUSE_NO":"６之１２號","E_COORD97":187266.63,"N_COORD97":2574404.1600000001,"ADDRESS":"山子腳６之１２號","OBJECTID":140123},"geometry":{"x":187266.63000000082,"y":2574404.1600000001}},{"attributes":{"ID":140124,"DIS_CODE":0,"TOWNNAME":"柳營區","LI":"旭山里","LIN":" ","STREET":" ","SECT":" ","MAREA":"山子腳","LANE":" ","ALLEY":" ","HOUSE_NO":"６之１５號","E_COORD97":187278.39000000001,"N_COORD97":2574430.6400000001,"ADDRESS":"山子腳６之１５號","OBJECTID":140124},"geometry":{"x":187278.3900000006,"y":2574430.6400000006}},{"attributes":{"ID":140125,"DIS_CODE":0,"TOWNNAME":"柳營區","LI":"重溪里","LIN":" ","STREET":" ","SECT":" ","MAREA":"五軍營","LANE":" ","ALLEY":" ","HOUSE_NO":"２３號","E_COORD97":183528.42000000001,"N_COORD97":2577260.3599999999,"ADDRESS":"五軍營２３號","OBJECTID":140125},"geometry":{"x":183528.42000000086,"y":2577260.3600000031}},{"attributes":{"ID":140126,"DIS_CODE":0,"TOWNNAME":"柳營區","LI":"重溪里","LIN":" ","STREET":" ","SECT":" ","MAREA":"五軍營","LANE":" ","ALLEY":" ","HOUSE_NO":"３３號","E_COORD97":183450.60999999999,"N_COORD97":2577248.0800000001,"ADDRESS":"五軍營３３號","OBJECTID":140126},"geometry":{"x":183450.61000000034,"y":2577248.0800000001}},{"attributes":{"ID":140127,"DIS_CODE":0,"TOWNNAME":"柳營區","LI":"重溪里","LIN":" ","STREET":" ","SECT":" ","MAREA":"五軍營","LANE":" ","ALLEY":" ","HOUSE_NO":"９號","E_COORD97":183604.01999999999,"N_COORD97":2577351.0600000001,"ADDRESS":"五軍營９號","OBJECTID":140127},"geometry":{"x":183604.02000000048,"y":2577351.0600000005}},{"attributes":{"ID":140128,"DIS_CODE":0,"TOWNNAME":"柳營區","LI":"太康里","LIN":" ","STREET":" ","SECT":" ","MAREA":"太康","LANE":" ","ALLEY":" ","HOUSE_NO":"１１０號","E_COORD97":181670.60999999999,"N_COORD97":2576394.1600000001,"ADDRESS":"太康１１０號","OBJECTID":140128},"geometry":{"x":181670.61000000034,"y":2576394.1600000001}},{"attributes":{"ID":140129,"DIS_CODE":0,"TOWNNAME":"柳營區","LI":"太康里","LIN":" ","STREET":" ","SECT":" ","MAREA":"太康","LANE":" ","ALLEY":" ","HOUSE_NO":"１１３之１號","E_COORD97":181667.53,"N_COORD97":2576312.2000000002,"ADDRESS":"太康１１３之１號","OBJECTID":140129},"geometry":{"x":181667.53000000026,"y":2576312.200000003}},{"attributes":{"ID":140130,"DIS_CODE":0,"TOWNNAME":"柳營區","LI":"太康里","LIN":" ","STREET":" ","SECT":" ","MAREA":"太康","LANE":" ","ALLEY":" ","HOUSE_NO":"１４４之１號","E_COORD97":181902.26999999999,"N_COORD97":2576421.8799999999,"ADDRESS":"太康１４４之１號","OBJECTID":140130},"geometry":{"x":181902.26999999955,"y":2576421.879999999}},{"attributes":{"ID":140131,"DIS_CODE":0,"TOWNNAME":"柳營區","LI":"太康里","LIN":" ","STREET":" ","SECT":" ","MAREA":"太康","LANE":" ","ALLEY":" ","HOUSE_NO":"１４４之２號","E_COORD97":181888.14999999999,"N_COORD97":2576456.6099999999,"ADDRESS":"太康１４４之２號","OBJECTID":140131},"geometry":{"x":181888.1500000013,"y":2576456.6100000013}},{"attributes":{"ID":140132,"DIS_CODE":0,"TOWNNAME":"柳營區","LI":"太康里","LIN":" ","STREET":" ","SECT":" ","MAREA":"太康","LANE":" ","ALLEY":" ","HOUSE_NO":"１６５之４號","E_COORD97":181665.01000000001,"N_COORD97":2576503.1099999999,"ADDRESS":"太康１６５之４號","OBJECTID":140132},"geometry":{"x":181665.01000000071,"y":2576503.1100000013}},{"attributes":{"ID":140133,"DIS_CODE":0,"TOWNNAME":"下營區","LI":"仁里里","LIN":"22鄰","STREET":"仁里街","SECT":" ","MAREA":" ","LANE":"１２２巷","ALLEY":"２５弄","HOUSE_NO":"２８號","E_COORD97":174070.14000000001,"N_COORD97":2569919.02,"ADDRESS":"仁里街１２２巷２５弄２８號","OBJECTID":140133},"geometry":{"x":174070.13999999966,"y":2569919.0199999996}},{"attributes":{"ID":140134,"DIS_CODE":0,"TOWNNAME":"下營區","LI":"仁里里","LIN":"22鄰","STREET":"仁里街","SECT":" ","MAREA":" ","LANE":"１２２巷","ALLEY":"２５弄","HOUSE_NO":"２號","E_COORD97":174076.85999999999,"N_COORD97":2569964.2000000002,"ADDRESS":"仁里街１２２巷２５弄２號","OBJECTID":140134},"geometry":{"x":174076.86000000127,"y":2569964.1999999993}},{"attributes":{"ID":140135,"DIS_CODE":0,"TOWNNAME":"下營區","LI":"仁里里","LIN":"22鄰","STREET":"仁里街","SECT":" ","MAREA":" ","LANE":"１２２巷","ALLEY":"２５弄","HOUSE_NO":"３０號","E_COORD97":174069.64999999999,"N_COORD97":2569914,"ADDRESS":"仁里街１２２巷２５弄３０號","OBJECTID":140135},"geometry":{"x":174069.65000000224,"y":2569914.0000000019}},{"attributes":{"ID":140136,"DIS_CODE":0,"TOWNNAME":"下營區","LI":"仁里里","LIN":"22鄰","STREET":"仁里街","SECT":" ","MAREA":" ","LANE":"１２２巷","ALLEY":"２５弄","HOUSE_NO":"３２號","E_COORD97":174068.89000000001,"N_COORD97":2569909.1400000001,"ADDRESS":"仁里街１２２巷２５弄３２號","OBJECTID":140136},"geometry":{"x":174068.89000000153,"y":2569909.1400000006}},{"attributes":{"ID":140137,"DIS_CODE":0,"TOWNNAME":"下營區","LI":"仁里里","LIN":"22鄰","STREET":"仁里街","SECT":" ","MAREA":" ","LANE":"１２２巷","ALLEY":"２５弄","HOUSE_NO":"３６號","E_COORD97":174068.20000000001,"N_COORD97":2569903.8300000001,"ADDRESS":"仁里街１２２巷２５弄３６號","OBJECTID":140137},"geometry":{"x":174068.20000000019,"y":2569903.8300000001}},{"attributes":{"ID":140138,"DIS_CODE":0,"TOWNNAME":"下營區","LI":"仁里里","LIN":"22鄰","STREET":"仁里街","SECT":" ","MAREA":" ","LANE":"１２２巷","ALLEY":"２５弄","HOUSE_NO":"６號","E_COORD97":174076.56,"N_COORD97":2569959.8599999999,"ADDRESS":"仁里街１２２巷２５弄６號","OBJECTID":140138},"geometry":{"x":174076.56000000052,"y":2569959.8599999994}},{"attributes":{"ID":140139,"DIS_CODE":0,"TOWNNAME":"下營區","LI":"仁里里","LIN":"22鄰","STREET":"仁里街","SECT":" ","MAREA":" ","LANE":"１２２巷","ALLEY":"２５弄","HOUSE_NO":"８號","E_COORD97":174075.89999999999,"N_COORD97":2569955.1600000001,"ADDRESS":"仁里街１２２巷２５弄８號","OBJECTID":140139},"geometry":{"x":174075.90000000037,"y":2569955.1600000001}},{"attributes":{"ID":140140,"DIS_CODE":0,"TOWNNAME":"下營區","LI":"仁里里","LIN":"22鄰","STREET":"仁里街","SECT":" ","MAREA":" ","LANE":"１７６巷","ALLEY":"７弄","HOUSE_NO":"１５號","E_COORD97":174079.76999999999,"N_COORD97":2569688.4199999999,"ADDRESS":"仁里街１７６巷７弄１５號","OBJECTID":140140},"geometry":{"x":174079.77000000142,"y":2569688.4199999999}},{"attributes":{"ID":140141,"DIS_CODE":0,"TOWNNAME":"下營區","LI":"仁里里","LIN":"22鄰","STREET":"仁里街","SECT":" ","MAREA":" ","LANE":"１７６巷","ALLEY":"７弄","HOUSE_NO":"２號","E_COORD97":174070.35999999999,"N_COORD97":2569762.21,"ADDRESS":"仁里街１７６巷７弄２號","OBJECTID":140141},"geometry":{"x":174070.36000000127,"y":2569762.2100000009}},{"attributes":{"ID":140142,"DIS_CODE":0,"TOWNNAME":"下營區","LI":"仁里里","LIN":"22鄰","STREET":"仁里街","SECT":" ","MAREA":" ","LANE":"１７６巷","ALLEY":"７弄","HOUSE_NO":"３號","E_COORD97":174110.67999999999,"N_COORD97":2569730.27,"ADDRESS":"仁里街１７６巷７弄３號","OBJECTID":140142},"geometry":{"x":174110.6799999997,"y":2569730.2699999996}},{"attributes":{"ID":140143,"DIS_CODE":0,"TOWNNAME":"永康區","LI":"復華里","LIN":"22鄰","STREET":"國華街","SECT":" ","MAREA":" ","LANE":"１３２巷","ALLEY":"２弄","HOUSE_NO":"１號","E_COORD97":172754.73999999999,"N_COORD97":2546144,"ADDRESS":"國華街１３２巷２弄１號","OBJECTID":140143},"geometry":{"x":172754.74000000022,"y":2546144.0000000019}},{"attributes":{"ID":140144,"DIS_CODE":0,"TOWNNAME":"永康區","LI":"勝利里","LIN":"22鄰","STREET":"勝華街","SECT":" ","MAREA":" ","LANE":"３７巷","ALLEY":"３７弄","HOUSE_NO":"５９號","E_COORD97":171504.78,"N_COORD97":2545131.25,"ADDRESS":"勝華街３７巷３７弄５９號","OBJECTID":140144},"geometry":{"x":171504.78000000026,"y":2545131.2500000037}},{"attributes":{"ID":140145,"DIS_CODE":0,"TOWNNAME":"永康區","LI":"復興里","LIN":"22鄰","STREET":"復興路","SECT":" ","MAREA":" ","LANE":"２４６巷","ALLEY":"２７弄","HOUSE_NO":"３７號","E_COORD97":172351.31,"N_COORD97":2544478.6299999999,"ADDRESS":"復興路２４６巷２７弄３７號","OBJECTID":140145},"geometry":{"x":172351.30999999959,"y":2544478.629999999}},{"attributes":{"ID":140146,"DIS_CODE":0,"TOWNNAME":"永康區","LI":"復國里","LIN":"22鄰","STREET":"復華六街","SECT":" ","MAREA":" ","LANE":"９３巷","ALLEY":"２０弄","HOUSE_NO":"９號","E_COORD97":172574.35999999999,"N_COORD97":2545778.5899999999,"ADDRESS":"復華六街９３巷２０弄９號","OBJECTID":140146},"geometry":{"x":172574.36000000034,"y":2545778.5899999999}},{"attributes":{"ID":140147,"DIS_CODE":0,"TOWNNAME":"柳營區","LI":"太康里","LIN":" ","STREET":" ","SECT":" ","MAREA":"太康","LANE":" ","ALLEY":" ","HOUSE_NO":"１６６之２號","E_COORD97":181623.70000000001,"N_COORD97":2576604.2599999998,"ADDRESS":"太康１６６之２號","OBJECTID":140147},"geometry":{"x":181623.70000000019,"y":2576604.2600000016}},{"attributes":{"ID":140148,"DIS_CODE":0,"TOWNNAME":"柳營區","LI":"太康里","LIN":" ","STREET":" ","SECT":" ","MAREA":"太康","LANE":" ","ALLEY":" ","HOUSE_NO":"２４號","E_COORD97":181392.26999999999,"N_COORD97":2576309.1299999999,"ADDRESS":"太康２４號","OBJECTID":140148},"geometry":{"x":181392.26999999955,"y":2576309.1300000008}},{"attributes":{"ID":140149,"DIS_CODE":0,"TOWNNAME":"柳營區","LI":"太康里","LIN":" ","STREET":" ","SECT":" ","MAREA":"太康","LANE":" ","ALLEY":" ","HOUSE_NO":"４之２號","E_COORD97":181451.85000000001,"N_COORD97":2576499.23,"ADDRESS":"太康４之２號","OBJECTID":140149},"geometry":{"x":181451.85000000056,"y":2576499.2300000004}},{"attributes":{"ID":140150,"DIS_CODE":0,"TOWNNAME":"柳營區","LI":"太康里","LIN":" ","STREET":" ","SECT":" ","MAREA":"太康","LANE":" ","ALLEY":" ","HOUSE_NO":"５９號","E_COORD97":181491.39000000001,"N_COORD97":2576386.1800000002,"ADDRESS":"太康５９號","OBJECTID":140150},"geometry":{"x":181491.38999999966,"y":2576386.1799999997}},{"attributes":{"ID":140151,"DIS_CODE":0,"TOWNNAME":"柳營區","LI":"太康里","LIN":" ","STREET":" ","SECT":" ","MAREA":"太康","LANE":" ","ALLEY":" ","HOUSE_NO":"６４號","E_COORD97":181453.25,"N_COORD97":2576407.4199999999,"ADDRESS":"太康６４號","OBJECTID":140151},"geometry":{"x":181453.25000000093,"y":2576407.4200000018}},{"attributes":{"ID":140152,"DIS_CODE":0,"TOWNNAME":"柳營區","LI":"太康里","LIN":" ","STREET":" ","SECT":" ","MAREA":"太康","LANE":" ","ALLEY":" ","HOUSE_NO":"６８號","E_COORD97":181466.87,"N_COORD97":2576422.3799999999,"ADDRESS":"太康６８號","OBJECTID":140152},"geometry":{"x":181466.87000000011,"y":2576422.3800000027}},{"attributes":{"ID":140153,"DIS_CODE":0,"TOWNNAME":"柳營區","LI":"太康里","LIN":" ","STREET":" ","SECT":" ","MAREA":"太康","LANE":" ","ALLEY":" ","HOUSE_NO":"９７之６號","E_COORD97":181553.98000000001,"N_COORD97":2576484.4100000001,"ADDRESS":"太康９７之６號","OBJECTID":140153},"geometry":{"x":181553.98000000138,"y":2576484.4100000039}},{"attributes":{"ID":140154,"DIS_CODE":0,"TOWNNAME":"柳營區","LI":"太康里","LIN":" ","STREET":" ","SECT":" ","MAREA":"太康","LANE":" ","ALLEY":" ","HOUSE_NO":"９７之８號","E_COORD97":181542.22,"N_COORD97":2576483.3199999998,"ADDRESS":"太康９７之８號","OBJECTID":140154},"geometry":{"x":181542.21999999974,"y":2576483.3200000022}},{"attributes":{"ID":140155,"DIS_CODE":0,"TOWNNAME":"柳營區","LI":"太康里","LIN":" ","STREET":" ","SECT":" ","MAREA":"太康","LANE":" ","ALLEY":" ","HOUSE_NO":"９７之９號","E_COORD97":181536.76999999999,"N_COORD97":2576483.0699999998,"ADDRESS":"太康９７之９號","OBJECTID":140155},"geometry":{"x":181536.76999999862,"y":2576483.0700000003}},{"attributes":{"ID":140156,"DIS_CODE":0,"TOWNNAME":"柳營區","LI":"旭山里","LIN":" ","STREET":" ","SECT":" ","MAREA":"尖山","LANE":" ","ALLEY":" ","HOUSE_NO":"１２之１號","E_COORD97":188919.44,"N_COORD97":2570656.8999999999,"ADDRESS":"尖山１２之１號","OBJECTID":140156},"geometry":{"x":188919.44000000134,"y":2570656.9000000041}},{"attributes":{"ID":140157,"DIS_CODE":0,"TOWNNAME":"柳營區","LI":"旭山里","LIN":" ","STREET":" ","SECT":" ","MAREA":"尖山","LANE":" ","ALLEY":" ","HOUSE_NO":"２７號","E_COORD97":188768.38,"N_COORD97":2570657.6000000001,"ADDRESS":"尖山２７號","OBJECTID":140157},"geometry":{"x":188768.38000000082,"y":2570657.5999999996}},{"attributes":{"ID":140158,"DIS_CODE":0,"TOWNNAME":"柳營區","LI":"旭山里","LIN":" ","STREET":" ","SECT":" ","MAREA":"尖山","LANE":" ","ALLEY":" ","HOUSE_NO":"２９號","E_COORD97":188738.60999999999,"N_COORD97":2570618.9399999999,"ADDRESS":"尖山２９號","OBJECTID":140158},"geometry":{"x":188738.61000000127,"y":2570618.9400000013}},{"attributes":{"ID":140159,"DIS_CODE":0,"TOWNNAME":"柳營區","LI":"旭山里","LIN":" ","STREET":" ","SECT":" ","MAREA":"尖山","LANE":" ","ALLEY":" ","HOUSE_NO":"８５號","E_COORD97":188876.76000000001,"N_COORD97":2570578.3799999999,"ADDRESS":"尖山８５號","OBJECTID":140159},"geometry":{"x":188876.75999999978,"y":2570578.3800000008}},{"attributes":{"ID":140160,"DIS_CODE":0,"TOWNNAME":"柳營區","LI":"果毅里","LIN":" ","STREET":" ","SECT":" ","MAREA":"果毅後","LANE":" ","ALLEY":" ","HOUSE_NO":"１０２號","E_COORD97":185568.95999999999,"N_COORD97":2572814.4700000002,"ADDRESS":"果毅後１０２號","OBJECTID":140160},"geometry":{"x":185568.96000000183,"y":2572814.4700000025}},{"attributes":{"ID":140161,"DIS_CODE":0,"TOWNNAME":"柳營區","LI":"果毅里","LIN":" ","STREET":" ","SECT":" ","MAREA":"果毅後","LANE":" ","ALLEY":" ","HOUSE_NO":"１４６之１號","E_COORD97":185581.87,"N_COORD97":2572882.6099999999,"ADDRESS":"果毅後１４６之１號","OBJECTID":140161},"geometry":{"x":185581.87000000104,"y":2572882.6100000013}},{"attributes":{"ID":140162,"DIS_CODE":0,"TOWNNAME":"柳營區","LI":"果毅里","LIN":" ","STREET":" ","SECT":" ","MAREA":"果毅後","LANE":" ","ALLEY":" ","HOUSE_NO":"１５之４號","E_COORD97":185674.04000000001,"N_COORD97":2572997.21,"ADDRESS":"果毅後１５之４號","OBJECTID":140162},"geometry":{"x":185674.04000000097,"y":2572997.2100000009}},{"attributes":{"ID":140163,"DIS_CODE":0,"TOWNNAME":"柳營區","LI":"果毅里","LIN":" ","STREET":" ","SECT":" ","MAREA":"果毅後","LANE":" ","ALLEY":" ","HOUSE_NO":"１７４號","E_COORD97":185476.23999999999,"N_COORD97":2572843.8399999999,"ADDRESS":"果毅後１７４號","OBJECTID":140163},"geometry":{"x":185476.24000000115,"y":2572843.8400000017}},{"attributes":{"ID":140164,"DIS_CODE":0,"TOWNNAME":"柳營區","LI":"果毅里","LIN":" ","STREET":" ","SECT":" ","MAREA":"果毅後","LANE":" ","ALLEY":" ","HOUSE_NO":"１８８號","E_COORD97":185562.92999999999,"N_COORD97":2572819.6800000002,"ADDRESS":"果毅後１８８號","OBJECTID":140164},"geometry":{"x":185562.9299999997,"y":2572819.6799999997}},{"attributes":{"ID":140165,"DIS_CODE":0,"TOWNNAME":"柳營區","LI":"神農里","LIN":" ","STREET":" ","SECT":" ","MAREA":"果毅後","LANE":" ","ALLEY":" ","HOUSE_NO":"２０９號","E_COORD97":184996.48000000001,"N_COORD97":2572728.1699999999,"ADDRESS":"果毅後２０９號","OBJECTID":140165},"geometry":{"x":184996.48000000138,"y":2572728.1699999999}},{"attributes":{"ID":140166,"DIS_CODE":0,"TOWNNAME":"柳營區","LI":"果毅里","LIN":" ","STREET":" ","SECT":" ","MAREA":"果毅後","LANE":" ","ALLEY":" ","HOUSE_NO":"２１０號","E_COORD97":185542.88,"N_COORD97":2572783.1499999999,"ADDRESS":"果毅後２１０號","OBJECTID":140166},"geometry":{"x":185542.88000000082,"y":2572783.1500000004}},{"attributes":{"ID":140167,"DIS_CODE":0,"TOWNNAME":"柳營區","LI":"果毅里","LIN":" ","STREET":" ","SECT":" ","MAREA":"果毅後","LANE":" ","ALLEY":" ","HOUSE_NO":"２１３號","E_COORD97":185544.78,"N_COORD97":2572772.6600000001,"ADDRESS":"果毅後２１３號","OBJECTID":140167},"geometry":{"x":185544.78000000026,"y":2572772.6600000001}},{"attributes":{"ID":140168,"DIS_CODE":0,"TOWNNAME":"柳營區","LI":"果毅里","LIN":" ","STREET":" ","SECT":" ","MAREA":"果毅後","LANE":" ","ALLEY":" ","HOUSE_NO":"２１６之１號","E_COORD97":185525.84,"N_COORD97":2572716.73,"ADDRESS":"果毅後２１６之１號","OBJECTID":140168},"geometry":{"x":185525.84000000078,"y":2572716.7300000023}},{"attributes":{"ID":140169,"DIS_CODE":0,"TOWNNAME":"永康區","LI":"西橋里","LIN":"22鄰","STREET":"大橋三街","SECT":" ","MAREA":" ","LANE":"５７巷","ALLEY":"１９弄","HOUSE_NO":"２５號","E_COORD97":170483.89000000001,"N_COORD97":2546526.75,"ADDRESS":"大橋三街５７巷１９弄２５號","OBJECTID":140169},"geometry":{"x":170483.8900000006,"y":2546526.75}},{"attributes":{"ID":140170,"DIS_CODE":0,"TOWNNAME":"永康區","LI":"復國里","LIN":"22鄰","STREET":"復華六街","SECT":" ","MAREA":" ","LANE":"９３巷","ALLEY":"３４弄","HOUSE_NO":"１號","E_COORD97":172600.70999999999,"N_COORD97":2545737.2000000002,"ADDRESS":"復華六街９３巷３４弄１號","OBJECTID":140170},"geometry":{"x":172600.71000000183,"y":2545737.1999999993}},{"attributes":{"ID":140171,"DIS_CODE":0,"TOWNNAME":"永康區","LI":"光復里","LIN":"22鄰","STREET":"復興路","SECT":" ","MAREA":" ","LANE":"１２８巷","ALLEY":"１弄","HOUSE_NO":"２號","E_COORD97":172692.67000000001,"N_COORD97":2544380.6200000001,"ADDRESS":"復興路１２８巷１弄２號","OBJECTID":140171},"geometry":{"x":172692.67000000086,"y":2544380.6200000048}},{"attributes":{"ID":140172,"DIS_CODE":0,"TOWNNAME":"安南區","LI":"安慶里","LIN":"22鄰","STREET":"安中路","SECT":"一段","MAREA":" ","LANE":"１８９巷","ALLEY":"８５弄","HOUSE_NO":"１０號","E_COORD97":168821.07000000001,"N_COORD97":2548256.6400000001,"ADDRESS":"安中路一段１８９巷８５弄１０號","OBJECTID":140172},"geometry":{"x":168821.0700000003,"y":2548256.6400000025}},{"attributes":{"ID":140173,"DIS_CODE":0,"TOWNNAME":"安南區","LI":"安慶里","LIN":"22鄰","STREET":"安中路","SECT":"一段","MAREA":" ","LANE":"１８９巷","ALLEY":"８５弄","HOUSE_NO":"１１號","E_COORD97":168820.17000000001,"N_COORD97":2548283.5,"ADDRESS":"安中路一段１８９巷８５弄１１號","OBJECTID":140173},"geometry":{"x":168820.16999999993,"y":2548283.5000000019}},{"attributes":{"ID":140174,"DIS_CODE":0,"TOWNNAME":"柳營區","LI":"光福里","LIN":" ","STREET":" ","SECT":" ","MAREA":"柳營","LANE":" ","ALLEY":" ","HOUSE_NO":"２７８之２１號","E_COORD97":179791.01999999999,"N_COORD97":2575893.46,"ADDRESS":"柳營２７８之２１號","OBJECTID":140174},"geometry":{"x":179791.02000000048,"y":2575893.4600000009}},{"attributes":{"ID":140175,"DIS_CODE":0,"TOWNNAME":"安南區","LI":"安慶里","LIN":"22鄰","STREET":"安中路","SECT":"一段","MAREA":" ","LANE":"１８９巷","ALLEY":"８５弄","HOUSE_NO":"１２號","E_COORD97":168824.92000000001,"N_COORD97":2548257.0899999999,"ADDRESS":"安中路一段１８９巷８５弄１２號","OBJECTID":140175},"geometry":{"x":168824.91999999993,"y":2548257.0899999999}},{"attributes":{"ID":140176,"DIS_CODE":0,"TOWNNAME":"柳營區","LI":"果毅里","LIN":" ","STREET":" ","SECT":" ","MAREA":"果毅後","LANE":" ","ALLEY":" ","HOUSE_NO":"２２１號","E_COORD97":185487.92999999999,"N_COORD97":2572765.7200000002,"ADDRESS":"果毅後２２１號","OBJECTID":140176},"geometry":{"x":185487.93000000063,"y":2572765.7200000007}},{"attributes":{"ID":140177,"DIS_CODE":0,"TOWNNAME":"安南區","LI":"安慶里","LIN":"22鄰","STREET":"安中路","SECT":"一段","MAREA":" ","LANE":"１８９巷","ALLEY":"８５弄","HOUSE_NO":"１３號","E_COORD97":168823.94,"N_COORD97":2548283.5800000001,"ADDRESS":"安中路一段１８９巷８５弄１３號","OBJECTID":140177},"geometry":{"x":168823.94000000041,"y":2548283.5800000019}},{"attributes":{"ID":140178,"DIS_CODE":0,"TOWNNAME":"安南區","LI":"安慶里","LIN":"22鄰","STREET":"安中路","SECT":"一段","MAREA":" ","LANE":"１８９巷","ALLEY":"８５弄","HOUSE_NO":"１４號","E_COORD97":168828.42000000001,"N_COORD97":2548256.8799999999,"ADDRESS":"安中路一段１８９巷８５弄１４號","OBJECTID":140178},"geometry":{"x":168828.41999999993,"y":2548256.879999999}},{"attributes":{"ID":140179,"DIS_CODE":0,"TOWNNAME":"新營區","LI":"民榮里","LIN":"33鄰","STREET":"太子路","SECT":" ","MAREA":" ","LANE":"１３９巷","ALLEY":" ","HOUSE_NO":"３５號","E_COORD97":178082.94,"N_COORD97":2577815.4500000002,"ADDRESS":"太子路１３９巷３５號","OBJECTID":140179},"geometry":{"x":178082.94000000041,"y":2577815.4499999974}},{"attributes":{"ID":140180,"DIS_CODE":0,"TOWNNAME":"柳營區","LI":"神農里","LIN":"1鄰","STREET":" ","SECT":" ","MAREA":"果毅後","LANE":" ","ALLEY":" ","HOUSE_NO":"２２７之１號","E_COORD97":185479.94,"N_COORD97":2572816.6000000001,"ADDRESS":"果毅後２２７號","OBJECTID":140180},"geometry":{"x":185479.94000000134,"y":2572816.5999999996}},{"attributes":{"ID":140181,"DIS_CODE":0,"TOWNNAME":"南區","LI":"廣州里","LIN":"15鄰","STREET":"福吉二街","SECT":" ","MAREA":" ","LANE":" ","ALLEY":" ","HOUSE_NO":"２３號","E_COORD97":167332.39000000001,"N_COORD97":2542694.9500000002,"ADDRESS":"福吉二街２３號","OBJECTID":140181},"geometry":{"x":167332.3900000006,"y":2542694.950000003}},{"attributes":{"ID":140182,"DIS_CODE":0,"TOWNNAME":"南區","LI":"廣州里","LIN":"15鄰","STREET":"福吉二街","SECT":" ","MAREA":" ","LANE":" ","ALLEY":" ","HOUSE_NO":"２５號","E_COORD97":167328.59,"N_COORD97":2542698.3199999998,"ADDRESS":"福吉二街２５號","OBJECTID":140182},"geometry":{"x":167328.58999999985,"y":2542698.3200000022}},{"attributes":{"ID":140183,"DIS_CODE":0,"TOWNNAME":"南區","LI":"廣州里","LIN":"15鄰","STREET":"福吉二街","SECT":" ","MAREA":" ","LANE":" ","ALLEY":" ","HOUSE_NO":"２７號","E_COORD97":167326.06,"N_COORD97":2542701.27,"ADDRESS":"福吉二街２７號","OBJECTID":140183},"geometry":{"x":167326.06000000052,"y":2542701.2700000014}},{"attributes":{"ID":140184,"DIS_CODE":0,"TOWNNAME":"南區","LI":"廣州里","LIN":"15鄰","STREET":"福吉二街","SECT":" ","MAREA":" ","LANE":" ","ALLEY":" ","HOUSE_NO":"２９號","E_COORD97":167321.82999999999,"N_COORD97":2542703.7999999998,"ADDRESS":"福吉二街２９號","OBJECTID":140184},"geometry":{"x":167321.83000000101,"y":2542703.8000000007}},{"attributes":{"ID":140185,"DIS_CODE":0,"TOWNNAME":"南區","LI":"廣州里","LIN":"15鄰","STREET":"福吉二街","SECT":" ","MAREA":" ","LANE":" ","ALLEY":" ","HOUSE_NO":"３１號","E_COORD97":167318.45999999999,"N_COORD97":2542706.75,"ADDRESS":"福吉二街３１號","OBJECTID":140185},"geometry":{"x":167318.46000000183,"y":2542706.75}},{"attributes":{"ID":140186,"DIS_CODE":0,"TOWNNAME":"南區","LI":"廣州里","LIN":"15鄰","STREET":"福吉二街","SECT":" ","MAREA":" ","LANE":" ","ALLEY":" ","HOUSE_NO":"３３號","E_COORD97":167315.5,"N_COORD97":2542710.1299999999,"ADDRESS":"福吉二街３３號","OBJECTID":140186},"geometry":{"x":167315.50000000093,"y":2542710.1300000027}},{"attributes":{"ID":140187,"DIS_CODE":0,"TOWNNAME":"南區","LI":"廣州里","LIN":"15鄰","STREET":"福吉二街","SECT":" ","MAREA":" ","LANE":" ","ALLEY":" ","HOUSE_NO":"３５號","E_COORD97":167312.54999999999,"N_COORD97":2542713.0800000001,"ADDRESS":"福吉二街３５號","OBJECTID":140187},"geometry":{"x":167312.54999999888,"y":2542713.0800000019}},{"attributes":{"ID":140188,"DIS_CODE":0,"TOWNNAME":"柳營區","LI":"神農里","LIN":" ","STREET":" ","SECT":" ","MAREA":"果毅後","LANE":" ","ALLEY":" ","HOUSE_NO":"２３１號","E_COORD97":185448.42999999999,"N_COORD97":2572770.1899999999,"ADDRESS":"果毅後２３１號","OBJECTID":140188},"geometry":{"x":185448.43000000156,"y":2572770.1900000013}},{"attributes":{"ID":140189,"DIS_CODE":0,"TOWNNAME":"柳營區","LI":"神農里","LIN":" ","STREET":" ","SECT":" ","MAREA":"果毅後","LANE":" ","ALLEY":" ","HOUSE_NO":"２６５之３號","E_COORD97":185187.29999999999,"N_COORD97":2572782.77,"ADDRESS":"果毅後２６５之３號","OBJECTID":140189},"geometry":{"x":185187.30000000075,"y":2572782.7700000033}},{"attributes":{"ID":140190,"DIS_CODE":0,"TOWNNAME":"柳營區","LI":"神農里","LIN":" ","STREET":" ","SECT":" ","MAREA":"果毅後","LANE":" ","ALLEY":" ","HOUSE_NO":"２６５之４號","E_COORD97":185200.17999999999,"N_COORD97":2572782.3700000001,"ADDRESS":"果毅後２６５之４號","OBJECTID":140190},"geometry":{"x":185200.1799999997,"y":2572782.370000001}},{"attributes":{"ID":140191,"DIS_CODE":0,"TOWNNAME":"新化區","LI":"東榮里","LIN":"33鄰","STREET":"護安街","SECT":" ","MAREA":" ","LANE":" ","ALLEY":" ","HOUSE_NO":"７１號","E_COORD97":179198.38,"N_COORD97":2548380.2599999998,"ADDRESS":"護安街７１號","OBJECTID":140191},"geometry":{"x":179198.37999999989,"y":2548380.2600000016}},{"attributes":{"ID":140192,"DIS_CODE":0,"TOWNNAME":"新化區","LI":"東榮里","LIN":"33鄰","STREET":"信義路","SECT":" ","MAREA":" ","LANE":" ","ALLEY":" ","HOUSE_NO":"１９８號","E_COORD97":179181.53,"N_COORD97":2548343.25,"ADDRESS":"信義路１９８號","OBJECTID":140192},"geometry":{"x":179181.53000000119,"y":2548343.2500000019}},{"attributes":{"ID":140193,"DIS_CODE":0,"TOWNNAME":"柳營區","LI":"神農里","LIN":" ","STREET":" ","SECT":" ","MAREA":"果毅後","LANE":" ","ALLEY":" ","HOUSE_NO":"２９５之４號","E_COORD97":185336.45000000001,"N_COORD97":2572894.4300000002,"ADDRESS":"果毅後２９５之４號","OBJECTID":140193},"geometry":{"x":185336.45000000019,"y":2572894.4300000016}},{"attributes":{"ID":140194,"DIS_CODE":0,"TOWNNAME":"柳營區","LI":"神農里","LIN":" ","STREET":" ","SECT":" ","MAREA":"果毅後","LANE":" ","ALLEY":" ","HOUSE_NO":"２９６號","E_COORD97":185385.35000000001,"N_COORD97":2572891.3100000001,"ADDRESS":"果毅後２９６號","OBJECTID":140194},"geometry":{"x":185385.34999999963,"y":2572891.3100000005}},{"attributes":{"ID":140195,"DIS_CODE":0,"TOWNNAME":"柳營區","LI":"神農里","LIN":" ","STREET":" ","SECT":" ","MAREA":"果毅後","LANE":" ","ALLEY":" ","HOUSE_NO":"３２９之１號","E_COORD97":185434.42000000001,"N_COORD97":2573024.0299999998,"ADDRESS":"果毅後３２９之１號","OBJECTID":140195},"geometry":{"x":185434.41999999993,"y":2573024.0299999993}},{"attributes":{"ID":140196,"DIS_CODE":0,"TOWNNAME":"柳營區","LI":"神農里","LIN":" ","STREET":" ","SECT":" ","MAREA":"果毅後","LANE":" ","ALLEY":" ","HOUSE_NO":"３２９之２號","E_COORD97":185438.70999999999,"N_COORD97":2573024.1899999999,"ADDRESS":"果毅後３２９之２號","OBJECTID":140196},"geometry":{"x":185438.71000000089,"y":2573024.1900000013}},{"attributes":{"ID":140197,"DIS_CODE":0,"TOWNNAME":"新化區","LI":"東榮里","LIN":"33鄰","STREET":"護安街","SECT":" ","MAREA":" ","LANE":" ","ALLEY":" ","HOUSE_NO":"６９號","E_COORD97":179199.38,"N_COORD97":2548377.2599999998,"ADDRESS":"護安街６９號","OBJECTID":140197},"geometry":{"x":179199.38000000082,"y":2548377.2599999998}},{"attributes":{"ID":140198,"DIS_CODE":0,"TOWNNAME":"柳營區","LI":"神農里","LIN":" ","STREET":" ","SECT":" ","MAREA":"果毅後","LANE":" ","ALLEY":" ","HOUSE_NO":"３６３之１號","E_COORD97":185374.07000000001,"N_COORD97":2573152.8500000001,"ADDRESS":"果毅後３６３之１號","OBJECTID":140198},"geometry":{"x":185374.07000000123,"y":2573152.8500000015}},{"attributes":{"ID":140199,"DIS_CODE":0,"TOWNNAME":"安南區","LI":"安慶里","LIN":"22鄰","STREET":"安中路","SECT":"一段","MAREA":" ","LANE":"１８９巷","ALLEY":"８５弄","HOUSE_NO":"１５號","E_COORD97":168827.82999999999,"N_COORD97":2548284.2599999998,"ADDRESS":"安中路一段１８９巷８５弄１５號","OBJECTID":140199},"geometry":{"x":168827.83000000007,"y":2548284.2600000016}},{"attributes":{"ID":140200,"DIS_CODE":0,"TOWNNAME":"安南區","LI":"安慶里","LIN":"22鄰","STREET":"安中路","SECT":"一段","MAREA":" ","LANE":"１８９巷","ALLEY":"８５弄","HOUSE_NO":"１６號","E_COORD97":168832.85999999999,"N_COORD97":2548257.4700000002,"ADDRESS":"安中路一段１８９巷８５弄１６號","OBJECTID":140200},"geometry":{"x":168832.86000000034,"y":2548257.4700000025}}]}