{"displayFieldName":"TOWNNAME","fieldAliases":{"ID":"ID","DIS_CODE":"DIS_CODE","TOWNNAME":"TOWNNAME","LI":"LI","LIN":"LIN","STREET":"STREET","SECT":"SECT","MAREA":"MAREA","LANE":"LANE","ALLEY":"ALLEY","HOUSE_NO":"HOUSE_NO","E_COORD97":"E_COORD97","N_COORD97":"N_COORD97","ADDRESS":"ADDRESS","OBJECTID":"OBJECTID"},"geometryType":"esriGeometryPoint","spatialReference":{"wkid":102443,"latestWkid":3826},"fields":[{"name":"ID","type":"esriFieldTypeDouble","alias":"ID"},{"name":"DIS_CODE","type":"esriFieldTypeInteger","alias":"DIS_CODE"},{"name":"TOWNNAME","type":"esriFieldTypeString","alias":"TOWNNAME","length":8},{"name":"LI","type":"esriFieldTypeString","alias":"LI","length":8},{"name":"LIN","type":"esriFieldTypeString","alias":"LIN","length":12},{"name":"STREET","type":"esriFieldTypeString","alias":"STREET","length":20},{"name":"SECT","type":"esriFieldTypeString","alias":"SECT","length":8},{"name":"MAREA","type":"esriFieldTypeString","alias":"MAREA","length":12},{"name":"LANE","type":"esriFieldTypeString","alias":"LANE","length":10},{"name":"ALLEY","type":"esriFieldTypeString","alias":"ALLEY","length":10},{"name":"HOUSE_NO","type":"esriFieldTypeString","alias":"HOUSE_NO","length":20},{"name":"E_COORD97","type":"esriFieldTypeDouble","alias":"E_COORD97"},{"name":"N_COORD97","type":"esriFieldTypeDouble","alias":"N_COORD97"},{"name":"ADDRESS","type":"esriFieldTypeString","alias":"ADDRESS","length":50},{"name":"OBJECTID","type":"esriFieldTypeOID","alias":"OBJECTID"}],"features":[{"attributes":{"ID":193402,"DIS_CODE":0,"TOWNNAME":"麻豆區","LI":"中民里","LIN":"3鄰","STREET":" ","SECT":" ","MAREA":"謝厝寮","LANE":" ","ALLEY":" ","HOUSE_NO":"１０３號之１","E_COORD97":171693.31,"N_COORD97":2560751.0699999998,"ADDRESS":"謝厝寮１０３號之１","OBJECTID":193401},"geometry":{"x":171693.31000000052,"y":2560751.0700000003}},{"attributes":{"ID":193403,"DIS_CODE":0,"TOWNNAME":"麻豆區","LI":"中民里","LIN":"3鄰","STREET":" ","SECT":" ","MAREA":"謝厝寮","LANE":" ","ALLEY":" ","HOUSE_NO":"１０３號之２０","E_COORD97":171710.29999999999,"N_COORD97":2560790.4100000001,"ADDRESS":"謝厝寮１０３號之２０","OBJECTID":193402},"geometry":{"x":171710.30000000075,"y":2560790.4100000039}},{"attributes":{"ID":193404,"DIS_CODE":0,"TOWNNAME":"麻豆區","LI":"中民里","LIN":"3鄰","STREET":" ","SECT":" ","MAREA":"謝厝寮","LANE":" ","ALLEY":" ","HOUSE_NO":"１０３號之３","E_COORD97":171677.75,"N_COORD97":2560742.3100000001,"ADDRESS":"謝厝寮１０３號之３","OBJECTID":193403},"geometry":{"x":171677.75,"y":2560742.3100000024}},{"attributes":{"ID":193405,"DIS_CODE":0,"TOWNNAME":"麻豆區","LI":"中民里","LIN":"3鄰","STREET":" ","SECT":" ","MAREA":"謝厝寮","LANE":" ","ALLEY":" ","HOUSE_NO":"１０３號之４","E_COORD97":171673.70999999999,"N_COORD97":2560740.4900000002,"ADDRESS":"謝厝寮１０３號之４","OBJECTID":193404},"geometry":{"x":171673.71000000089,"y":2560740.4900000021}},{"attributes":{"ID":193406,"DIS_CODE":0,"TOWNNAME":"麻豆區","LI":"中民里","LIN":"3鄰","STREET":" ","SECT":" ","MAREA":"謝厝寮","LANE":" ","ALLEY":" ","HOUSE_NO":"１０３號之５","E_COORD97":171725.54000000001,"N_COORD97":2560819.25,"ADDRESS":"謝厝寮１０３號之５","OBJECTID":193405},"geometry":{"x":171725.5400000019,"y":2560819.2500000019}},{"attributes":{"ID":193407,"DIS_CODE":0,"TOWNNAME":"麻豆區","LI":"中民里","LIN":"3鄰","STREET":" ","SECT":" ","MAREA":"謝厝寮","LANE":" ","ALLEY":" ","HOUSE_NO":"１０３號之７","E_COORD97":171734.54999999999,"N_COORD97":2560831.9700000002,"ADDRESS":"謝厝寮１０３號之７","OBJECTID":193406},"geometry":{"x":171734.54999999981,"y":2560831.9700000025}},{"attributes":{"ID":193408,"DIS_CODE":0,"TOWNNAME":"麻豆區","LI":"中民里","LIN":"3鄰","STREET":" ","SECT":" ","MAREA":"謝厝寮","LANE":" ","ALLEY":" ","HOUSE_NO":"１０３號之８","E_COORD97":171740.22,"N_COORD97":2560837.9500000002,"ADDRESS":"謝厝寮１０３號之８","OBJECTID":193407},"geometry":{"x":171740.21999999974,"y":2560837.9500000011}},{"attributes":{"ID":193409,"DIS_CODE":0,"TOWNNAME":"麻豆區","LI":"中民里","LIN":"3鄰","STREET":" ","SECT":" ","MAREA":"謝厝寮","LANE":" ","ALLEY":" ","HOUSE_NO":"１０３號","E_COORD97":171716.44,"N_COORD97":2560803.3100000001,"ADDRESS":"謝厝寮１０３號","OBJECTID":193408},"geometry":{"x":171716.44000000227,"y":2560803.3100000024}},{"attributes":{"ID":193410,"DIS_CODE":0,"TOWNNAME":"安南區","LI":"新順里","LIN":"5鄰","STREET":"安豐六街","SECT":" ","MAREA":" ","LANE":"１０巷","ALLEY":"７１弄","HOUSE_NO":"２０號","E_COORD97":169317.45999999999,"N_COORD97":2549428.1600000001,"ADDRESS":"安豐六街１０巷７１弄２０號","OBJECTID":193409},"geometry":{"x":169317.46000000089,"y":2549428.160000002}},{"attributes":{"ID":193411,"DIS_CODE":0,"TOWNNAME":"永康區","LI":"中華里","LIN":"21鄰","STREET":"中華路","SECT":" ","MAREA":" ","LANE":" ","ALLEY":" ","HOUSE_NO":"２２號十二樓之７","E_COORD97":171618.70000000001,"N_COORD97":2544543.8199999998,"ADDRESS":"中華路２２號十二樓之７","OBJECTID":193410},"geometry":{"x":171618.70000000019,"y":2544543.8200000003}},{"attributes":{"ID":193412,"DIS_CODE":0,"TOWNNAME":"安南區","LI":"新順里","LIN":"5鄰","STREET":"安豐六街","SECT":" ","MAREA":" ","LANE":"１０巷","ALLEY":"７１弄","HOUSE_NO":"２２號","E_COORD97":169321.73000000001,"N_COORD97":2549431.0800000001,"ADDRESS":"安豐六街１０巷７１弄２２號","OBJECTID":193411},"geometry":{"x":169321.73000000045,"y":2549431.0800000001}},{"attributes":{"ID":193413,"DIS_CODE":0,"TOWNNAME":"永康區","LI":"中華里","LIN":"21鄰","STREET":"中華路","SECT":" ","MAREA":" ","LANE":" ","ALLEY":" ","HOUSE_NO":"２２號十五樓之３","E_COORD97":171618.72,"N_COORD97":2544543.8199999998,"ADDRESS":"中華路２２號十五樓之３","OBJECTID":193412},"geometry":{"x":171618.71999999974,"y":2544543.8200000003}},{"attributes":{"ID":193414,"DIS_CODE":0,"TOWNNAME":"永康區","LI":"中華里","LIN":"21鄰","STREET":"中華路","SECT":" ","MAREA":" ","LANE":" ","ALLEY":" ","HOUSE_NO":"２２號八樓之３","E_COORD97":171617.47,"N_COORD97":2544543.8199999998,"ADDRESS":"中華路２２號八樓之３","OBJECTID":193413},"geometry":{"x":171617.47000000067,"y":2544543.8200000003}},{"attributes":{"ID":193415,"DIS_CODE":0,"TOWNNAME":"永康區","LI":"中華里","LIN":"21鄰","STREET":"中華路","SECT":" ","MAREA":" ","LANE":" ","ALLEY":" ","HOUSE_NO":"２２號七樓之１","E_COORD97":171617.37,"N_COORD97":2544543.8199999998,"ADDRESS":"中華路２２號七樓之１","OBJECTID":193414},"geometry":{"x":171617.37000000104,"y":2544543.8200000003}},{"attributes":{"ID":193416,"DIS_CODE":0,"TOWNNAME":"麻豆區","LI":"\u25A0江里","LIN":"21鄰","STREET":"民生路","SECT":" ","MAREA":" ","LANE":" ","ALLEY":" ","HOUSE_NO":"７２號八樓","E_COORD97":173749.82000000001,"N_COORD97":2564421.8799999999,"ADDRESS":"民生路７２號八樓","OBJECTID":193415},"geometry":{"x":173749.82000000123,"y":2564421.8800000008}},{"attributes":{"ID":193417,"DIS_CODE":0,"TOWNNAME":"新化區","LI":"太平里","LIN":"4鄰","STREET":"民生路","SECT":" ","MAREA":" ","LANE":" ","ALLEY":" ","HOUSE_NO":"２２４號","E_COORD97":179070.81,"N_COORD97":2548997.25,"ADDRESS":"民生路２２４號","OBJECTID":193416},"geometry":{"x":179070.81000000052,"y":2548997.2500000019}},{"attributes":{"ID":193418,"DIS_CODE":0,"TOWNNAME":"新化區","LI":"太平里","LIN":"4鄰","STREET":"中正路","SECT":" ","MAREA":" ","LANE":" ","ALLEY":" ","HOUSE_NO":"５６８號","E_COORD97":178906.10999999999,"N_COORD97":2548980.25,"ADDRESS":"中正路５６８號","OBJECTID":193417},"geometry":{"x":178906.1100000022,"y":2548980.2500000019}},{"attributes":{"ID":193419,"DIS_CODE":0,"TOWNNAME":"新化區","LI":"清水里","LIN":"4鄰","STREET":"民治路","SECT":" ","MAREA":" ","LANE":" ","ALLEY":" ","HOUSE_NO":"２３２號","E_COORD97":178687.51000000001,"N_COORD97":2548459.25,"ADDRESS":"民治路２３２號","OBJECTID":193418},"geometry":{"x":178687.51000000164,"y":2548459.25}},{"attributes":{"ID":193420,"DIS_CODE":0,"TOWNNAME":"新化區","LI":"協興里","LIN":"14鄰","STREET":"大新路","SECT":" ","MAREA":" ","LANE":" ","ALLEY":" ","HOUSE_NO":"１１２號之１","E_COORD97":178068.85999999999,"N_COORD97":2548755.2599999998,"ADDRESS":"大新路１１２號之１","OBJECTID":193419},"geometry":{"x":178068.8600000022,"y":2548755.2600000035}},{"attributes":{"ID":193421,"DIS_CODE":0,"TOWNNAME":"新化區","LI":"唪口里","LIN":"4鄰","STREET":"大德路","SECT":" ","MAREA":" ","LANE":" ","ALLEY":" ","HOUSE_NO":"９０號之９","E_COORD97":178138.42000000001,"N_COORD97":2549513.2599999998,"ADDRESS":"大德路９０號之９","OBJECTID":193420},"geometry":{"x":178138.41999999993,"y":2549513.2599999998}},{"attributes":{"ID":193422,"DIS_CODE":0,"TOWNNAME":"安南區","LI":"新順里","LIN":"5鄰","STREET":"安豐六街","SECT":" ","MAREA":" ","LANE":"１０巷","ALLEY":"７１弄","HOUSE_NO":"２６號","E_COORD97":169326.22,"N_COORD97":2549428.3900000001,"ADDRESS":"安豐六街１０巷７１弄２６號","OBJECTID":193421},"geometry":{"x":169326.21999999974,"y":2549428.3900000006}},{"attributes":{"ID":193423,"DIS_CODE":0,"TOWNNAME":"安南區","LI":"佃東里","LIN":"5鄰","STREET":"十二佃路","SECT":" ","MAREA":" ","LANE":"１４６巷","ALLEY":"３０弄","HOUSE_NO":"３７之２號","E_COORD97":165499.82000000001,"N_COORD97":2552163.0299999998,"ADDRESS":"十二佃路１４６巷３０弄３７之２號","OBJECTID":193422},"geometry":{"x":165499.82000000123,"y":2552163.0299999993}},{"attributes":{"ID":193424,"DIS_CODE":0,"TOWNNAME":"東區","LI":"富強里","LIN":"5鄰","STREET":"東門路","SECT":"二段","MAREA":" ","LANE":"３０１巷","ALLEY":"９０弄","HOUSE_NO":"３０號","E_COORD97":170959.28,"N_COORD97":2542646.1000000001,"ADDRESS":"東門路二段３０１巷９０弄３０號","OBJECTID":193423},"geometry":{"x":170959.28000000026,"y":2542646.0999999996}},{"attributes":{"ID":193425,"DIS_CODE":0,"TOWNNAME":"東區","LI":"富強里","LIN":"5鄰","STREET":"東門路","SECT":"二段","MAREA":" ","LANE":"３０１巷","ALLEY":"９０弄","HOUSE_NO":"３２號","E_COORD97":170959.79999999999,"N_COORD97":2542642.4700000002,"ADDRESS":"東門路二段３０１巷９０弄３２號","OBJECTID":193424},"geometry":{"x":170959.80000000075,"y":2542642.4700000025}},{"attributes":{"ID":193426,"DIS_CODE":0,"TOWNNAME":"東區","LI":"富強里","LIN":"5鄰","STREET":"東門路","SECT":"二段","MAREA":" ","LANE":"３０１巷","ALLEY":"９０弄","HOUSE_NO":"１７號","E_COORD97":170970.85000000001,"N_COORD97":2542662.6600000001,"ADDRESS":"東門路二段３０１巷９０弄１７號","OBJECTID":193425},"geometry":{"x":170970.85000000056,"y":2542662.6600000001}},{"attributes":{"ID":193427,"DIS_CODE":0,"TOWNNAME":"東區","LI":"富強里","LIN":"5鄰","STREET":"東門路","SECT":"二段","MAREA":" ","LANE":"３０１巷","ALLEY":"９０弄","HOUSE_NO":"２３號","E_COORD97":170974.13,"N_COORD97":2542644.2000000002,"ADDRESS":"東門路二段３０１巷９０弄２３號","OBJECTID":193426},"geometry":{"x":170974.13000000082,"y":2542644.1999999993}},{"attributes":{"ID":193428,"DIS_CODE":0,"TOWNNAME":"東區","LI":"富強里","LIN":"5鄰","STREET":"東門路","SECT":"二段","MAREA":" ","LANE":"３０１巷","ALLEY":"９０弄","HOUSE_NO":"２６號","E_COORD97":170958.42000000001,"N_COORD97":2542655.9300000002,"ADDRESS":"東門路二段３０１巷９０弄２６號","OBJECTID":193427},"geometry":{"x":170958.42000000086,"y":2542655.9300000016}},{"attributes":{"ID":193429,"DIS_CODE":0,"TOWNNAME":"東區","LI":"富強里","LIN":"5鄰","STREET":"東門路","SECT":"二段","MAREA":" ","LANE":"３０１巷","ALLEY":"９０弄","HOUSE_NO":"２８號","E_COORD97":170958.59,"N_COORD97":2542650.9300000002,"ADDRESS":"東門路二段３０１巷９０弄２８號","OBJECTID":193428},"geometry":{"x":170958.58999999985,"y":2542650.9299999997}},{"attributes":{"ID":193430,"DIS_CODE":0,"TOWNNAME":"東區","LI":"富強里","LIN":"5鄰","STREET":"東門路","SECT":"二段","MAREA":" ","LANE":"３０１巷","ALLEY":"９０弄","HOUSE_NO":"３號","E_COORD97":170966.92000000001,"N_COORD97":2542703.2400000002,"ADDRESS":"東門路二段３０１巷９０弄３號","OBJECTID":193429},"geometry":{"x":170966.92000000086,"y":2542703.2400000002}},{"attributes":{"ID":193431,"DIS_CODE":0,"TOWNNAME":"安南區","LI":"海西里","LIN":"5鄰","STREET":"海中街","SECT":" ","MAREA":" ","LANE":"１２１巷","ALLEY":"８２弄","HOUSE_NO":"８之７號","E_COORD97":166230.849728,"N_COORD97":2548996.4471999998,"ADDRESS":"海中街１２１巷８２弄８之７號","OBJECTID":193430},"geometry":{"x":166230.84972800221,"y":2548996.4472020008}},{"attributes":{"ID":193432,"DIS_CODE":0,"TOWNNAME":"永康區","LI":"崑山里","LIN":"5鄰","STREET":"崑大路","SECT":" ","MAREA":" ","LANE":"１巷","ALLEY":" ","HOUSE_NO":"７７號","E_COORD97":173729.20000000001,"N_COORD97":2544140.4100000001,"ADDRESS":"崑大路１巷７７號","OBJECTID":193431},"geometry":{"x":173729.20000000019,"y":2544140.4100000039}},{"attributes":{"ID":193433,"DIS_CODE":0,"TOWNNAME":"新化區","LI":"豐榮里","LIN":"13鄰","STREET":"正新路","SECT":" ","MAREA":" ","LANE":" ","ALLEY":" ","HOUSE_NO":"２０號","E_COORD97":178644.67000000001,"N_COORD97":2547971.25,"ADDRESS":"正新路２０號","OBJECTID":193432},"geometry":{"x":178644.67000000086,"y":2547971.25}},{"attributes":{"ID":193434,"DIS_CODE":0,"TOWNNAME":"新化區","LI":"協興里","LIN":"4鄰","STREET":"中山路","SECT":" ","MAREA":" ","LANE":" ","ALLEY":" ","HOUSE_NO":"５４４號","E_COORD97":178452.70999999999,"N_COORD97":2548457.25,"ADDRESS":"中山路５４４號","OBJECTID":193433},"geometry":{"x":178452.71000000089,"y":2548457.2500000037}},{"attributes":{"ID":193435,"DIS_CODE":0,"TOWNNAME":"麻豆區","LI":"中民里","LIN":"3鄰","STREET":" ","SECT":" ","MAREA":"謝厝寮","LANE":" ","ALLEY":" ","HOUSE_NO":"１０４號","E_COORD97":171747.67999999999,"N_COORD97":2560796.0699999998,"ADDRESS":"謝厝寮１０４號","OBJECTID":193434},"geometry":{"x":171747.6799999997,"y":2560796.0699999984}},{"attributes":{"ID":193436,"DIS_CODE":0,"TOWNNAME":"麻豆區","LI":"中民里","LIN":"3鄰","STREET":" ","SECT":" ","MAREA":"謝厝寮","LANE":" ","ALLEY":" ","HOUSE_NO":"１０５號之１","E_COORD97":171750.64000000001,"N_COORD97":2560802.8100000001,"ADDRESS":"謝厝寮１０５號之１","OBJECTID":193435},"geometry":{"x":171750.6400000006,"y":2560802.8100000024}},{"attributes":{"ID":193437,"DIS_CODE":0,"TOWNNAME":"麻豆區","LI":"中民里","LIN":"3鄰","STREET":" ","SECT":" ","MAREA":"謝厝寮","LANE":" ","ALLEY":" ","HOUSE_NO":"１０５號","E_COORD97":171757.64999999999,"N_COORD97":2560809.96,"ADDRESS":"謝厝寮１０５號","OBJECTID":193436},"geometry":{"x":171757.6500000013,"y":2560809.9600000009}},{"attributes":{"ID":193438,"DIS_CODE":0,"TOWNNAME":"麻豆區","LI":"中民里","LIN":"3鄰","STREET":" ","SECT":" ","MAREA":"謝厝寮","LANE":" ","ALLEY":" ","HOUSE_NO":"１０６號","E_COORD97":171758.89000000001,"N_COORD97":2560822.1600000001,"ADDRESS":"謝厝寮１０６號","OBJECTID":193437},"geometry":{"x":171758.8900000006,"y":2560822.1600000001}},{"attributes":{"ID":193439,"DIS_CODE":0,"TOWNNAME":"麻豆區","LI":"中民里","LIN":"3鄰","STREET":" ","SECT":" ","MAREA":"謝厝寮","LANE":" ","ALLEY":" ","HOUSE_NO":"１０７號之１","E_COORD97":171749.76000000001,"N_COORD97":2560853.54,"ADDRESS":"謝厝寮１０７號之１","OBJECTID":193438},"geometry":{"x":171749.76000000071,"y":2560853.540000001}},{"attributes":{"ID":193440,"DIS_CODE":0,"TOWNNAME":"新市區","LI":"新和里","LIN":"50鄰","STREET":"自強街","SECT":" ","MAREA":" ","LANE":"３４巷","ALLEY":"１弄","HOUSE_NO":"３號","E_COORD97":177657.75,"N_COORD97":2553528,"ADDRESS":"自強街３４巷１弄３號","OBJECTID":193439},"geometry":{"x":177657.75000000093,"y":2553528.0000000019}},{"attributes":{"ID":193441,"DIS_CODE":0,"TOWNNAME":"新市區","LI":"新和里","LIN":"50鄰","STREET":"自強街","SECT":" ","MAREA":" ","LANE":"３４巷","ALLEY":"１弄","HOUSE_NO":"２５號","E_COORD97":177613,"N_COORD97":2553517.5,"ADDRESS":"自強街３４巷１弄２５號","OBJECTID":193440},"geometry":{"x":177612.99999999907,"y":2553517.5000000037}},{"attributes":{"ID":193442,"DIS_CODE":0,"TOWNNAME":"新市區","LI":"新和里","LIN":"50鄰","STREET":"自強街","SECT":" ","MAREA":" ","LANE":"３４巷","ALLEY":"１弄","HOUSE_NO":"４號","E_COORD97":177663.39000000001,"N_COORD97":2553543.25,"ADDRESS":"自強街３４巷１弄４號","OBJECTID":193441},"geometry":{"x":177663.3900000006,"y":2553543.2500000019}},{"attributes":{"ID":193443,"DIS_CODE":0,"TOWNNAME":"新市區","LI":"新和里","LIN":"50鄰","STREET":"自強街","SECT":" ","MAREA":" ","LANE":"３４巷","ALLEY":"１弄","HOUSE_NO":"１３號","E_COORD97":177638.25,"N_COORD97":2553523.25,"ADDRESS":"自強街３４巷１弄１３號","OBJECTID":193442},"geometry":{"x":177638.25,"y":2553523.2500000019}},{"attributes":{"ID":193444,"DIS_CODE":0,"TOWNNAME":"新市區","LI":"新和里","LIN":"50鄰","STREET":"自強街","SECT":" ","MAREA":" ","LANE":"３４巷","ALLEY":"１弄","HOUSE_NO":"１４號","E_COORD97":177644.89000000001,"N_COORD97":2553537.5,"ADDRESS":"自強街３４巷１弄１４號","OBJECTID":193443},"geometry":{"x":177644.88999999966,"y":2553537.4999999981}},{"attributes":{"ID":193445,"DIS_CODE":0,"TOWNNAME":"新市區","LI":"新和里","LIN":"50鄰","STREET":"自強街","SECT":" ","MAREA":" ","LANE":"３４巷","ALLEY":"１弄","HOUSE_NO":"２２號","E_COORD97":177624.57999999999,"N_COORD97":2553535,"ADDRESS":"自強街３４巷１弄２２號","OBJECTID":193444},"geometry":{"x":177624.58000000194,"y":2553535.0000000019}},{"attributes":{"ID":193446,"DIS_CODE":0,"TOWNNAME":"永康區","LI":"西灣里","LIN":"50鄰","STREET":"大灣路","SECT":" ","MAREA":" ","LANE":"９４２巷","ALLEY":"５００弄","HOUSE_NO":"２７號","E_COORD97":173955.82999999999,"N_COORD97":2545850.9900000002,"ADDRESS":"大灣路９４２巷５００弄２７號","OBJECTID":193445},"geometry":{"x":173955.83000000007,"y":2545850.9900000002}},{"attributes":{"ID":193447,"DIS_CODE":0,"TOWNNAME":"永康區","LI":"西灣里","LIN":"50鄰","STREET":"永華路","SECT":" ","MAREA":" ","LANE":"２７３巷","ALLEY":"４弄","HOUSE_NO":"１號","E_COORD97":173998.14999999999,"N_COORD97":2545840.9199999999,"ADDRESS":"永華路２７３巷４弄１號","OBJECTID":193446},"geometry":{"x":173998.15000000037,"y":2545840.9199999999}},{"attributes":{"ID":193448,"DIS_CODE":0,"TOWNNAME":"永康區","LI":"西灣里","LIN":"50鄰","STREET":"大灣路","SECT":" ","MAREA":" ","LANE":"９４２巷","ALLEY":"５００弄","HOUSE_NO":"３６號","E_COORD97":173975.44,"N_COORD97":2545841.52,"ADDRESS":"大灣路９４２巷５００弄３６號","OBJECTID":193447},"geometry":{"x":173975.44000000041,"y":2545841.5200000014}},{"attributes":{"ID":193449,"DIS_CODE":0,"TOWNNAME":"永康區","LI":"西灣里","LIN":"50鄰","STREET":"大灣路","SECT":" ","MAREA":" ","LANE":"９４２巷","ALLEY":"５００弄","HOUSE_NO":"３８號","E_COORD97":173978.42999999999,"N_COORD97":2545842.0699999998,"ADDRESS":"大灣路９４２巷５００弄３８號","OBJECTID":193448},"geometry":{"x":173978.4299999997,"y":2545842.0700000022}},{"attributes":{"ID":193450,"DIS_CODE":0,"TOWNNAME":"永康區","LI":"西灣里","LIN":"50鄰","STREET":"大灣路","SECT":" ","MAREA":" ","LANE":"９４２巷","ALLEY":"５００弄","HOUSE_NO":"４０號","E_COORD97":173981.72,"N_COORD97":2545843.2599999998,"ADDRESS":"大灣路９４２巷５００弄４０號","OBJECTID":193449},"geometry":{"x":173981.71999999974,"y":2545843.2600000016}},{"attributes":{"ID":193451,"DIS_CODE":0,"TOWNNAME":"新市區","LI":"新和里","LIN":"50鄰","STREET":"自強街","SECT":" ","MAREA":" ","LANE":"３４巷","ALLEY":"１弄","HOUSE_NO":"１６號","E_COORD97":177640.26999999999,"N_COORD97":2553536,"ADDRESS":"自強街３４巷１弄１６號","OBJECTID":193450},"geometry":{"x":177640.27000000048,"y":2553536}},{"attributes":{"ID":193452,"DIS_CODE":0,"TOWNNAME":"永康區","LI":"西灣里","LIN":"50鄰","STREET":"大灣路","SECT":" ","MAREA":" ","LANE":"９４２巷","ALLEY":"６４１弄","HOUSE_NO":"５號","E_COORD97":173838.23999999999,"N_COORD97":2545866.1899999999,"ADDRESS":"大灣路９４２巷６４１弄５號","OBJECTID":193451},"geometry":{"x":173838.24000000209,"y":2545866.1899999995}},{"attributes":{"ID":193453,"DIS_CODE":0,"TOWNNAME":"永康區","LI":"西灣里","LIN":"50鄰","STREET":"大灣路","SECT":" ","MAREA":" ","LANE":"９４２巷","ALLEY":"５００弄","HOUSE_NO":"２３號","E_COORD97":173947.69,"N_COORD97":2545848.7400000002,"ADDRESS":"大灣路９４２巷５００弄２３號","OBJECTID":193452},"geometry":{"x":173947.69000000134,"y":2545848.7400000002}},{"attributes":{"ID":193454,"DIS_CODE":0,"TOWNNAME":"永康區","LI":"西灣里","LIN":"50鄰","STREET":"大灣路","SECT":" ","MAREA":" ","LANE":"９４２巷","ALLEY":"５００弄","HOUSE_NO":"１６號","E_COORD97":173938.67000000001,"N_COORD97":2545831.29,"ADDRESS":"大灣路９４２巷５００弄１６號","OBJECTID":193453},"geometry":{"x":173938.67000000086,"y":2545831.2899999991}},{"attributes":{"ID":193455,"DIS_CODE":0,"TOWNNAME":"永康區","LI":"西灣里","LIN":"50鄰","STREET":"大灣路","SECT":" ","MAREA":" ","LANE":"９４２巷","ALLEY":"５００弄","HOUSE_NO":"１７號","E_COORD97":173935.48999999999,"N_COORD97":2545845.4900000002,"ADDRESS":"大灣路９４２巷５００弄１７號","OBJECTID":193454},"geometry":{"x":173935.49000000115,"y":2545845.4900000021}},{"attributes":{"ID":193456,"DIS_CODE":0,"TOWNNAME":"永康區","LI":"北灣里","LIN":"38鄰","STREET":"大灣路","SECT":" ","MAREA":" ","LANE":"４０巷","ALLEY":"１９１弄","HOUSE_NO":"４２號","E_COORD97":174745.09,"N_COORD97":2546249.2000000002,"ADDRESS":"大灣路４０巷１９１弄４２號","OBJECTID":193455},"geometry":{"x":174745.08999999985,"y":2546249.1999999993}},{"attributes":{"ID":193457,"DIS_CODE":0,"TOWNNAME":"永康區","LI":"二王里","LIN":"38鄰","STREET":"中山南路","SECT":" ","MAREA":" ","LANE":"４９０巷","ALLEY":"１２弄","HOUSE_NO":"１４３號","E_COORD97":172200.57000000001,"N_COORD97":2546174.0499999998,"ADDRESS":"中山南路４９０巷１２弄１４３號","OBJECTID":193456},"geometry":{"x":172200.57000000123,"y":2546174.0499999989}},{"attributes":{"ID":193458,"DIS_CODE":0,"TOWNNAME":"永康區","LI":"二王里","LIN":"38鄰","STREET":"中山南路","SECT":" ","MAREA":" ","LANE":"４９０巷","ALLEY":"１２弄","HOUSE_NO":"１３７號","E_COORD97":172200.28,"N_COORD97":2546189.7999999998,"ADDRESS":"中山南路４９０巷１２弄１３７號","OBJECTID":193457},"geometry":{"x":172200.28000000026,"y":2546189.8000000026}},{"attributes":{"ID":193459,"DIS_CODE":0,"TOWNNAME":"永康區","LI":"二王里","LIN":"38鄰","STREET":"中山南路","SECT":" ","MAREA":" ","LANE":"４９０巷","ALLEY":"１２弄","HOUSE_NO":"１２３號","E_COORD97":172200.72,"N_COORD97":2546226.8100000001,"ADDRESS":"中山南路４９０巷１２弄１２３號","OBJECTID":193458},"geometry":{"x":172200.72000000067,"y":2546226.8100000024}},{"attributes":{"ID":193460,"DIS_CODE":0,"TOWNNAME":"永康區","LI":"二王里","LIN":"38鄰","STREET":"中山南路","SECT":" ","MAREA":" ","LANE":"４９０巷","ALLEY":"１２弄","HOUSE_NO":"１４５號","E_COORD97":172200.19,"N_COORD97":2546169.5499999998,"ADDRESS":"中山南路４９０巷１２弄１４５號","OBJECTID":193459},"geometry":{"x":172200.19000000134,"y":2546169.5500000007}},{"attributes":{"ID":193461,"DIS_CODE":0,"TOWNNAME":"仁德區","LI":"仁義里","LIN":"38鄰","STREET":"仁義五街","SECT":" ","MAREA":" ","LANE":"２４巷","ALLEY":"２弄","HOUSE_NO":"３號","E_COORD97":173534.54999999999,"N_COORD97":2540388.3300000001,"ADDRESS":"仁義五街２４巷２弄３號","OBJECTID":193460},"geometry":{"x":173534.55000000075,"y":2540388.3300000019}},{"attributes":{"ID":193462,"DIS_CODE":0,"TOWNNAME":"永康區","LI":"二王里","LIN":"38鄰","STREET":"中山南路","SECT":" ","MAREA":" ","LANE":"４９０巷","ALLEY":"１２弄","HOUSE_NO":"８５號","E_COORD97":172237.51000000001,"N_COORD97":2546265.02,"ADDRESS":"中山南路４９０巷１２弄８５號","OBJECTID":193461},"geometry":{"x":172237.51000000164,"y":2546265.0200000014}},{"attributes":{"ID":193463,"DIS_CODE":0,"TOWNNAME":"永康區","LI":"二王里","LIN":"38鄰","STREET":"中山南路","SECT":" ","MAREA":" ","LANE":"４９０巷","ALLEY":"１２弄","HOUSE_NO":"１０１號","E_COORD97":172205.42000000001,"N_COORD97":2546265.02,"ADDRESS":"中山南路４９０巷１２弄１０１號","OBJECTID":193462},"geometry":{"x":172205.41999999993,"y":2546265.0200000014}},{"attributes":{"ID":193464,"DIS_CODE":0,"TOWNNAME":"永康區","LI":"二王里","LIN":"38鄰","STREET":"中山南路","SECT":" ","MAREA":" ","LANE":"４９０巷","ALLEY":"１２弄","HOUSE_NO":"１３９號","E_COORD97":172200.28,"N_COORD97":2546184.5499999998,"ADDRESS":"中山南路４９０巷１２弄１３９號","OBJECTID":193463},"geometry":{"x":172200.28000000026,"y":2546184.5500000045}},{"attributes":{"ID":193465,"DIS_CODE":0,"TOWNNAME":"永康區","LI":"二王里","LIN":"38鄰","STREET":"中山南路","SECT":" ","MAREA":" ","LANE":"４９０巷","ALLEY":"１２弄","HOUSE_NO":"１３１號","E_COORD97":172199.85000000001,"N_COORD97":2546204.5600000001,"ADDRESS":"中山南路４９０巷１２弄１３１號","OBJECTID":193464},"geometry":{"x":172199.85000000056,"y":2546204.5600000042}},{"attributes":{"ID":193466,"DIS_CODE":0,"TOWNNAME":"永康區","LI":"北灣里","LIN":"38鄰","STREET":"大灣路","SECT":" ","MAREA":" ","LANE":"４０巷","ALLEY":"１５３弄","HOUSE_NO":"２號","E_COORD97":174891.91,"N_COORD97":2546233.25,"ADDRESS":"大灣路４０巷１５３弄２號","OBJECTID":193465},"geometry":{"x":174891.91000000108,"y":2546233.2500000037}},{"attributes":{"ID":193467,"DIS_CODE":0,"TOWNNAME":"永康區","LI":"北灣里","LIN":"38鄰","STREET":"大灣路","SECT":" ","MAREA":" ","LANE":"４０巷","ALLEY":"１８１弄","HOUSE_NO":"２８號","E_COORD97":174809.51999999999,"N_COORD97":2546242.46,"ADDRESS":"大灣路４０巷１８１弄２８號","OBJECTID":193466},"geometry":{"x":174809.52000000048,"y":2546242.4600000009}},{"attributes":{"ID":193468,"DIS_CODE":0,"TOWNNAME":"永康區","LI":"北灣里","LIN":"38鄰","STREET":"大灣路","SECT":" ","MAREA":" ","LANE":"４０巷","ALLEY":"１５３弄","HOUSE_NO":"１０號","E_COORD97":174878.42999999999,"N_COORD97":2546217.5,"ADDRESS":"大灣路４０巷１５３弄１０號","OBJECTID":193467},"geometry":{"x":174878.4299999997,"y":2546217.5}},{"attributes":{"ID":193469,"DIS_CODE":0,"TOWNNAME":"新市區","LI":"永就里","LIN":"15鄰","STREET":"永華二街","SECT":" ","MAREA":" ","LANE":" ","ALLEY":" ","HOUSE_NO":"２號","E_COORD97":177700.75,"N_COORD97":2551026.5,"ADDRESS":"永華二街２號","OBJECTID":193468},"geometry":{"x":177700.75,"y":2551026.5000000019}},{"attributes":{"ID":193470,"DIS_CODE":0,"TOWNNAME":"永康區","LI":"北灣里","LIN":"38鄰","STREET":"大灣路","SECT":" ","MAREA":" ","LANE":"４０巷","ALLEY":"２０９弄","HOUSE_NO":"１８號","E_COORD97":174761.39999999999,"N_COORD97":2546320.6899999999,"ADDRESS":"大灣路４０巷２０９弄１８號","OBJECTID":193469},"geometry":{"x":174761.4000000013,"y":2546320.6899999995}},{"attributes":{"ID":193471,"DIS_CODE":0,"TOWNNAME":"中西區","LI":"大涼里","LIN":"21鄰","STREET":"府前二街","SECT":" ","MAREA":" ","LANE":" ","ALLEY":" ","HOUSE_NO":"７０號五樓之１９","E_COORD97":166684.92999999999,"N_COORD97":2543908.52,"ADDRESS":"府前二街７０號五樓之１９","OBJECTID":193470},"geometry":{"x":166684.93000000063,"y":2543908.5200000033}},{"attributes":{"ID":193472,"DIS_CODE":0,"TOWNNAME":"新化區","LI":"唪口里","LIN":"4鄰","STREET":"大德路","SECT":" ","MAREA":" ","LANE":" ","ALLEY":" ","HOUSE_NO":"９０號之１１","E_COORD97":178138.06,"N_COORD97":2549522.2599999998,"ADDRESS":"大德路９０號之１１","OBJECTID":193471},"geometry":{"x":178138.06000000052,"y":2549522.2600000016}},{"attributes":{"ID":193473,"DIS_CODE":0,"TOWNNAME":"新化區","LI":"竹林里","LIN":"4鄰","STREET":"中山路","SECT":" ","MAREA":" ","LANE":" ","ALLEY":" ","HOUSE_NO":"３５４號","E_COORD97":178891.70999999999,"N_COORD97":2548426.25,"ADDRESS":"中山路３５４號","OBJECTID":193472},"geometry":{"x":178891.71000000089,"y":2548426.25}},{"attributes":{"ID":193474,"DIS_CODE":0,"TOWNNAME":"新化區","LI":"太平里","LIN":"14鄰","STREET":"太平街","SECT":" ","MAREA":" ","LANE":" ","ALLEY":" ","HOUSE_NO":"５２號","E_COORD97":178818.47,"N_COORD97":2548792.25,"ADDRESS":"太平街５２號","OBJECTID":193473},"geometry":{"x":178818.4700000016,"y":2548792.25}},{"attributes":{"ID":193475,"DIS_CODE":0,"TOWNNAME":"新化區","LI":"護國里","LIN":"8鄰","STREET":"信義路","SECT":" ","MAREA":" ","LANE":" ","ALLEY":" ","HOUSE_NO":"１０８號之７","E_COORD97":179771.37,"N_COORD97":2548701.2599999998,"ADDRESS":"信義路１０８號之７","OBJECTID":193474},"geometry":{"x":179771.37000000011,"y":2548701.2600000016}},{"attributes":{"ID":193476,"DIS_CODE":0,"TOWNNAME":"新化區","LI":"護國里","LIN":"7鄰","STREET":"復興路","SECT":" ","MAREA":" ","LANE":" ","ALLEY":" ","HOUSE_NO":"２９２號之１","E_COORD97":179338.14999999999,"N_COORD97":2548468.2599999998,"ADDRESS":"復興路２９２號之１","OBJECTID":193475},"geometry":{"x":179338.15000000224,"y":2548468.2600000016}},{"attributes":{"ID":193477,"DIS_CODE":0,"TOWNNAME":"新化區","LI":"協興里","LIN":"7鄰","STREET":"太平街","SECT":" ","MAREA":" ","LANE":" ","ALLEY":" ","HOUSE_NO":"１４７號","E_COORD97":178276.01999999999,"N_COORD97":2548641.25,"ADDRESS":"太平街１４７號","OBJECTID":193476},"geometry":{"x":178276.02000000048,"y":2548641.2500000019}},{"attributes":{"ID":193478,"DIS_CODE":0,"TOWNNAME":"新化區","LI":"唪口里","LIN":"4鄰","STREET":"大德路","SECT":" ","MAREA":" ","LANE":" ","ALLEY":" ","HOUSE_NO":"９２號之２０","E_COORD97":178087.87,"N_COORD97":2549516.2599999998,"ADDRESS":"大德路９２號之２０","OBJECTID":193477},"geometry":{"x":178087.87000000104,"y":2549516.2600000016}},{"attributes":{"ID":193479,"DIS_CODE":0,"TOWNNAME":"永康區","LI":"北灣里","LIN":"38鄰","STREET":"大灣路","SECT":" ","MAREA":" ","LANE":"４０巷","ALLEY":"１８１弄","HOUSE_NO":"３２號","E_COORD97":174802.81,"N_COORD97":2546235.46,"ADDRESS":"大灣路４０巷１８１弄３２號","OBJECTID":193478},"geometry":{"x":174802.80999999959,"y":2546235.4600000009}},{"attributes":{"ID":193480,"DIS_CODE":0,"TOWNNAME":"永康區","LI":"北灣里","LIN":"38鄰","STREET":"大灣路","SECT":" ","MAREA":" ","LANE":"４０巷","ALLEY":"２０９弄","HOUSE_NO":"２號","E_COORD97":174779.10999999999,"N_COORD97":2546340.4399999999,"ADDRESS":"大灣路４０巷２０９弄２號","OBJECTID":193479},"geometry":{"x":174779.11000000127,"y":2546340.4400000013}},{"attributes":{"ID":193481,"DIS_CODE":0,"TOWNNAME":"永康區","LI":"北灣里","LIN":"38鄰","STREET":"大灣路","SECT":" ","MAREA":" ","LANE":"４０巷","ALLEY":"１９１弄","HOUSE_NO":"２號","E_COORD97":174796.70000000001,"N_COORD97":2546307.2200000002,"ADDRESS":"大灣路４０巷１９１弄２號","OBJECTID":193480},"geometry":{"x":174796.70000000112,"y":2546307.2200000007}},{"attributes":{"ID":193482,"DIS_CODE":0,"TOWNNAME":"永康區","LI":"北灣里","LIN":"38鄰","STREET":"大灣路","SECT":" ","MAREA":" ","LANE":"４０巷","ALLEY":"１９１弄","HOUSE_NO":"６號","E_COORD97":174792.73000000001,"N_COORD97":2546303.6899999999,"ADDRESS":"大灣路４０巷１９１弄６號","OBJECTID":193481},"geometry":{"x":174792.73000000045,"y":2546303.6899999995}},{"attributes":{"ID":193483,"DIS_CODE":0,"TOWNNAME":"永康區","LI":"北灣里","LIN":"38鄰","STREET":"大灣路","SECT":" ","MAREA":" ","LANE":"４０巷","ALLEY":"１９１弄","HOUSE_NO":"８號","E_COORD97":174789.06,"N_COORD97":2546299.6499999999,"ADDRESS":"大灣路４０巷１９１弄８號","OBJECTID":193482},"geometry":{"x":174789.05999999959,"y":2546299.6500000022}},{"attributes":{"ID":193484,"DIS_CODE":0,"TOWNNAME":"永康區","LI":"北灣里","LIN":"38鄰","STREET":"大灣路","SECT":" ","MAREA":" ","LANE":"４０巷","ALLEY":"１９１弄","HOUSE_NO":"１０號","E_COORD97":174786.92999999999,"N_COORD97":2546294.9500000002,"ADDRESS":"大灣路４０巷１９１弄１０號","OBJECTID":193483},"geometry":{"x":174786.9299999997,"y":2546294.9499999993}},{"attributes":{"ID":193485,"DIS_CODE":0,"TOWNNAME":"永康區","LI":"北灣里","LIN":"38鄰","STREET":"大灣路","SECT":" ","MAREA":" ","LANE":"４０巷","ALLEY":"１９１弄","HOUSE_NO":"１２號","E_COORD97":174785.76999999999,"N_COORD97":2546286.52,"ADDRESS":"大灣路４０巷１９１弄１２號","OBJECTID":193484},"geometry":{"x":174785.77000000048,"y":2546286.5200000014}},{"attributes":{"ID":193486,"DIS_CODE":0,"TOWNNAME":"永康區","LI":"北灣里","LIN":"38鄰","STREET":"大灣路","SECT":" ","MAREA":" ","LANE":"４０巷","ALLEY":"１９１弄","HOUSE_NO":"１６號","E_COORD97":174778.51999999999,"N_COORD97":2546291.3999999999,"ADDRESS":"大灣路４０巷１９１弄１６號","OBJECTID":193485},"geometry":{"x":174778.52000000048,"y":2546291.4000000022}},{"attributes":{"ID":193487,"DIS_CODE":0,"TOWNNAME":"永康區","LI":"北灣里","LIN":"38鄰","STREET":"大灣路","SECT":" ","MAREA":" ","LANE":"４０巷","ALLEY":"１９１弄","HOUSE_NO":"１８號","E_COORD97":174773.56,"N_COORD97":2546285.9900000002,"ADDRESS":"大灣路４０巷１９１弄１８號","OBJECTID":193486},"geometry":{"x":174773.56000000052,"y":2546285.9900000039}},{"attributes":{"ID":193488,"DIS_CODE":0,"TOWNNAME":"永康區","LI":"北灣里","LIN":"38鄰","STREET":"大灣路","SECT":" ","MAREA":" ","LANE":"４０巷","ALLEY":"１９１弄","HOUSE_NO":"２０號","E_COORD97":174778.87,"N_COORD97":2546278.9500000002,"ADDRESS":"大灣路４０巷１９１弄２０號","OBJECTID":193487},"geometry":{"x":174778.87000000104,"y":2546278.9500000011}},{"attributes":{"ID":193489,"DIS_CODE":0,"TOWNNAME":"永康區","LI":"北灣里","LIN":"38鄰","STREET":"大灣路","SECT":" ","MAREA":" ","LANE":"４０巷","ALLEY":"１９１弄","HOUSE_NO":"２２號","E_COORD97":174771.66,"N_COORD97":2546276.2999999998,"ADDRESS":"大灣路４０巷１９１弄２２號","OBJECTID":193488},"geometry":{"x":174771.66000000108,"y":2546276.3000000007}},{"attributes":{"ID":193490,"DIS_CODE":0,"TOWNNAME":"永康區","LI":"北灣里","LIN":"38鄰","STREET":"大灣路","SECT":" ","MAREA":" ","LANE":"４０巷","ALLEY":"１９１弄","HOUSE_NO":"２６號","E_COORD97":174766.17999999999,"N_COORD97":2546274.77,"ADDRESS":"大灣路４０巷１９１弄２６號","OBJECTID":193489},"geometry":{"x":174766.18000000063,"y":2546274.7700000014}},{"attributes":{"ID":193491,"DIS_CODE":0,"TOWNNAME":"永康區","LI":"北灣里","LIN":"38鄰","STREET":"大灣路","SECT":" ","MAREA":" ","LANE":"４０巷","ALLEY":"１９１弄","HOUSE_NO":"２８號","E_COORD97":174763.12,"N_COORD97":2546271.4100000001,"ADDRESS":"大灣路４０巷１９１弄２８號","OBJECTID":193490},"geometry":{"x":174763.12000000104,"y":2546271.4100000001}},{"attributes":{"ID":193492,"DIS_CODE":0,"TOWNNAME":"永康區","LI":"北灣里","LIN":"38鄰","STREET":"大灣路","SECT":" ","MAREA":" ","LANE":"４０巷","ALLEY":"１９１弄","HOUSE_NO":"３０號","E_COORD97":174760.06,"N_COORD97":2546268.0499999998,"ADDRESS":"大灣路４０巷１９１弄３０號","OBJECTID":193491},"geometry":{"x":174760.06000000052,"y":2546268.0500000007}},{"attributes":{"ID":193493,"DIS_CODE":0,"TOWNNAME":"永康區","LI":"北灣里","LIN":"38鄰","STREET":"大灣路","SECT":" ","MAREA":" ","LANE":"４０巷","ALLEY":"１９１弄","HOUSE_NO":"３２號","E_COORD97":174757,"N_COORD97":2546264.7000000002,"ADDRESS":"大灣路４０巷１９１弄３２號","OBJECTID":193492},"geometry":{"x":174757.00000000093,"y":2546264.7000000011}},{"attributes":{"ID":193494,"DIS_CODE":0,"TOWNNAME":"永康區","LI":"北灣里","LIN":"38鄰","STREET":"大灣路","SECT":" ","MAREA":" ","LANE":"４０巷","ALLEY":"１９１弄","HOUSE_NO":"３６號","E_COORD97":174752.35999999999,"N_COORD97":2546261.25,"ADDRESS":"大灣路４０巷１９１弄３６號","OBJECTID":193493},"geometry":{"x":174752.36000000034,"y":2546261.2500000019}},{"attributes":{"ID":193495,"DIS_CODE":0,"TOWNNAME":"永康區","LI":"北灣里","LIN":"38鄰","STREET":"大灣路","SECT":" ","MAREA":" ","LANE":"４０巷","ALLEY":"１９１弄","HOUSE_NO":"３８號","E_COORD97":174750.88,"N_COORD97":2546257.98,"ADDRESS":"大灣路４０巷１９１弄３８號","OBJECTID":193494},"geometry":{"x":174750.88000000082,"y":2546257.9800000004}},{"attributes":{"ID":193496,"DIS_CODE":0,"TOWNNAME":"安定區","LI":"港口里","LIN":"3鄰","STREET":" ","SECT":" ","MAREA":"港口","LANE":" ","ALLEY":" ","HOUSE_NO":"２６１號","E_COORD97":171509.98999999999,"N_COORD97":2554741.25,"ADDRESS":"港口２６１號","OBJECTID":193495},"geometry":{"x":171509.99000000022,"y":2554741.25}},{"attributes":{"ID":193497,"DIS_CODE":0,"TOWNNAME":"永康區","LI":"北灣里","LIN":"38鄰","STREET":"大灣路","SECT":" ","MAREA":" ","LANE":"４０巷","ALLEY":"１９１弄","HOUSE_NO":"４０號","E_COORD97":174747.84,"N_COORD97":2546254.6000000001,"ADDRESS":"大灣路４０巷１９１弄４０號","OBJECTID":193496},"geometry":{"x":174747.84000000078,"y":2546254.6000000015}},{"attributes":{"ID":193498,"DIS_CODE":0,"TOWNNAME":"永康區","LI":"北灣里","LIN":"38鄰","STREET":"大灣路","SECT":" ","MAREA":" ","LANE":"４０巷","ALLEY":"１９１弄","HOUSE_NO":"１號","E_COORD97":174813.89999999999,"N_COORD97":2546288.0699999998,"ADDRESS":"大灣路４０巷１９１弄１號","OBJECTID":193497},"geometry":{"x":174813.9000000013,"y":2546288.0700000003}},{"attributes":{"ID":193499,"DIS_CODE":0,"TOWNNAME":"新化區","LI":"唪口里","LIN":"4鄰","STREET":"大德路","SECT":" ","MAREA":" ","LANE":" ","ALLEY":" ","HOUSE_NO":"９２號之８","E_COORD97":178104.54000000001,"N_COORD97":2549507.2599999998,"ADDRESS":"大德路９２號之８","OBJECTID":193498},"geometry":{"x":178104.5400000019,"y":2549507.2599999998}},{"attributes":{"ID":193500,"DIS_CODE":0,"TOWNNAME":"新化區","LI":"護國里","LIN":"6鄰","STREET":"仁愛街","SECT":" ","MAREA":" ","LANE":" ","ALLEY":" ","HOUSE_NO":"１號","E_COORD97":179289.01000000001,"N_COORD97":2548619.25,"ADDRESS":"仁愛街１號","OBJECTID":193499},"geometry":{"x":179289.00999999978,"y":2548619.25}},{"attributes":{"ID":193501,"DIS_CODE":0,"TOWNNAME":"新化區","LI":"太平里","LIN":"13鄰","STREET":"中正路","SECT":" ","MAREA":" ","LANE":" ","ALLEY":" ","HOUSE_NO":"６１１號","E_COORD97":178936.10999999999,"N_COORD97":2548856.25,"ADDRESS":"中正路６１１號","OBJECTID":193500},"geometry":{"x":178936.11000000034,"y":2548856.25}},{"attributes":{"ID":193502,"DIS_CODE":0,"TOWNNAME":"麻豆區","LI":"謝安里","LIN":"3鄰","STREET":" ","SECT":" ","MAREA":"謝厝寮","LANE":" ","ALLEY":" ","HOUSE_NO":"２１號之１","E_COORD97":172220.22,"N_COORD97":2561314.6299999999,"ADDRESS":"謝厝寮２１號之１","OBJECTID":193501},"geometry":{"x":172220.21999999974,"y":2561314.6300000008}},{"attributes":{"ID":193503,"DIS_CODE":0,"TOWNNAME":"永康區","LI":"北灣里","LIN":"38鄰","STREET":"大灣路","SECT":" ","MAREA":" ","LANE":"４０巷","ALLEY":"１９１弄","HOUSE_NO":"３號","E_COORD97":174809.51999999999,"N_COORD97":2546283.6000000001,"ADDRESS":"大灣路４０巷１９１弄３號","OBJECTID":193502},"geometry":{"x":174809.52000000048,"y":2546283.5999999996}},{"attributes":{"ID":193504,"DIS_CODE":0,"TOWNNAME":"永康區","LI":"北灣里","LIN":"38鄰","STREET":"大灣路","SECT":" ","MAREA":" ","LANE":"４０巷","ALLEY":"１９１弄","HOUSE_NO":"５號","E_COORD97":174805.79999999999,"N_COORD97":2546279.5499999998,"ADDRESS":"大灣路４０巷１９１弄５號","OBJECTID":193503},"geometry":{"x":174805.80000000075,"y":2546279.5500000045}},{"attributes":{"ID":193505,"DIS_CODE":0,"TOWNNAME":"永康區","LI":"北灣里","LIN":"38鄰","STREET":"大灣路","SECT":" ","MAREA":" ","LANE":"４０巷","ALLEY":"１９１弄","HOUSE_NO":"７號","E_COORD97":174799.39000000001,"N_COORD97":2546275.75,"ADDRESS":"大灣路４０巷１９１弄７號","OBJECTID":193504},"geometry":{"x":174799.38999999873,"y":2546275.75}},{"attributes":{"ID":193506,"DIS_CODE":0,"TOWNNAME":"永康區","LI":"北灣里","LIN":"38鄰","STREET":"大灣路","SECT":" ","MAREA":" ","LANE":"４０巷","ALLEY":"１９１弄","HOUSE_NO":"１１號","E_COORD97":174789.10999999999,"N_COORD97":2546266.3599999999,"ADDRESS":"大灣路４０巷１９１弄１１號","OBJECTID":193505},"geometry":{"x":174789.11000000127,"y":2546266.3600000013}},{"attributes":{"ID":193507,"DIS_CODE":0,"TOWNNAME":"永康區","LI":"北灣里","LIN":"38鄰","STREET":"大灣路","SECT":" ","MAREA":" ","LANE":"４０巷","ALLEY":"１９１弄","HOUSE_NO":"１３號","E_COORD97":174787.14999999999,"N_COORD97":2546259.3599999999,"ADDRESS":"大灣路４０巷１９１弄１３號","OBJECTID":193506},"geometry":{"x":174787.1500000013,"y":2546259.3600000013}},{"attributes":{"ID":193508,"DIS_CODE":0,"TOWNNAME":"永康區","LI":"北灣里","LIN":"38鄰","STREET":"大灣路","SECT":" ","MAREA":" ","LANE":"４０巷","ALLEY":"１９１弄","HOUSE_NO":"１５號","E_COORD97":174783.19,"N_COORD97":2546255.2000000002,"ADDRESS":"大灣路４０巷１９１弄１５號","OBJECTID":193507},"geometry":{"x":174783.19000000134,"y":2546255.1999999993}},{"attributes":{"ID":193509,"DIS_CODE":0,"TOWNNAME":"永康區","LI":"北灣里","LIN":"38鄰","STREET":"大灣路","SECT":" ","MAREA":" ","LANE":"４０巷","ALLEY":"１９１弄","HOUSE_NO":"１７號","E_COORD97":174779.60000000001,"N_COORD97":2546250.4500000002,"ADDRESS":"大灣路４０巷１９１弄１７號","OBJECTID":193508},"geometry":{"x":174779.60000000056,"y":2546250.4499999993}},{"attributes":{"ID":193510,"DIS_CODE":0,"TOWNNAME":"永康區","LI":"北灣里","LIN":"38鄰","STREET":"大灣路","SECT":" ","MAREA":" ","LANE":"４０巷","ALLEY":"１９１弄","HOUSE_NO":"１９號","E_COORD97":174775.14000000001,"N_COORD97":2546246.3799999999,"ADDRESS":"大灣路４０巷１９１弄１９號","OBJECTID":193509},"geometry":{"x":174775.13999999966,"y":2546246.379999999}},{"attributes":{"ID":193511,"DIS_CODE":0,"TOWNNAME":"永康區","LI":"北灣里","LIN":"38鄰","STREET":"大灣路","SECT":" ","MAREA":" ","LANE":"４０巷","ALLEY":"１９１弄","HOUSE_NO":"２１號","E_COORD97":174771.42999999999,"N_COORD97":2546242.2599999998,"ADDRESS":"大灣路４０巷１９１弄２１號","OBJECTID":193510},"geometry":{"x":174771.4299999997,"y":2546242.2599999998}},{"attributes":{"ID":193512,"DIS_CODE":0,"TOWNNAME":"永康區","LI":"北灣里","LIN":"38鄰","STREET":"大灣路","SECT":" ","MAREA":" ","LANE":"４０巷","ALLEY":"１９１弄","HOUSE_NO":"２３號","E_COORD97":174767.54000000001,"N_COORD97":2546237.9399999999,"ADDRESS":"大灣路４０巷１９１弄２３號","OBJECTID":193511},"geometry":{"x":174767.54000000004,"y":2546237.9400000032}},{"attributes":{"ID":193513,"DIS_CODE":0,"TOWNNAME":"永康區","LI":"北灣里","LIN":"38鄰","STREET":"大灣路","SECT":" ","MAREA":" ","LANE":"４０巷","ALLEY":"１９１弄","HOUSE_NO":"２５號","E_COORD97":174761.82999999999,"N_COORD97":2546234.4900000002,"ADDRESS":"大灣路４０巷１９１弄２５號","OBJECTID":193512},"geometry":{"x":174761.83000000101,"y":2546234.4900000002}},{"attributes":{"ID":193514,"DIS_CODE":0,"TOWNNAME":"永康區","LI":"北灣里","LIN":"38鄰","STREET":"大灣路","SECT":" ","MAREA":" ","LANE":"４０巷","ALLEY":"２２７弄","HOUSE_NO":"１號","E_COORD97":174749.53,"N_COORD97":2546351.52,"ADDRESS":"大灣路４０巷２２７弄１號","OBJECTID":193513},"geometry":{"x":174749.53000000026,"y":2546351.5199999996}},{"attributes":{"ID":193515,"DIS_CODE":0,"TOWNNAME":"永康區","LI":"北灣里","LIN":"38鄰","STREET":"大灣路","SECT":" ","MAREA":" ","LANE":"４０巷","ALLEY":"２２７弄","HOUSE_NO":"３號","E_COORD97":174746.82999999999,"N_COORD97":2546346.96,"ADDRESS":"大灣路４０巷２２７弄３號","OBJECTID":193514},"geometry":{"x":174746.83000000101,"y":2546346.9600000009}},{"attributes":{"ID":193516,"DIS_CODE":0,"TOWNNAME":"永康區","LI":"北灣里","LIN":"38鄰","STREET":"大灣路","SECT":" ","MAREA":" ","LANE":"４０巷","ALLEY":"２２７弄","HOUSE_NO":"５號","E_COORD97":174743.82000000001,"N_COORD97":2546343.6899999999,"ADDRESS":"大灣路４０巷２２７弄５號","OBJECTID":193515},"geometry":{"x":174743.82000000123,"y":2546343.6899999995}},{"attributes":{"ID":193517,"DIS_CODE":0,"TOWNNAME":"永康區","LI":"北灣里","LIN":"38鄰","STREET":"大灣路","SECT":" ","MAREA":" ","LANE":"４０巷","ALLEY":"２２７弄","HOUSE_NO":"７號","E_COORD97":174740.81,"N_COORD97":2546340.4199999999,"ADDRESS":"大灣路４０巷２２７弄７號","OBJECTID":193516},"geometry":{"x":174740.81000000052,"y":2546340.4200000037}},{"attributes":{"ID":193518,"DIS_CODE":0,"TOWNNAME":"永康區","LI":"北灣里","LIN":"38鄰","STREET":"大灣路","SECT":" ","MAREA":" ","LANE":"４０巷","ALLEY":"２２７弄","HOUSE_NO":"９號","E_COORD97":174737.79000000001,"N_COORD97":2546337.1600000001,"ADDRESS":"大灣路４０巷２２７弄９號","OBJECTID":193517},"geometry":{"x":174737.7900000019,"y":2546337.160000002}},{"attributes":{"ID":193519,"DIS_CODE":0,"TOWNNAME":"永康區","LI":"北灣里","LIN":"38鄰","STREET":"大灣路","SECT":" ","MAREA":" ","LANE":"４０巷","ALLEY":"２２７弄","HOUSE_NO":"１１號","E_COORD97":174734.78,"N_COORD97":2546333.8900000001,"ADDRESS":"大灣路４０巷２２７弄１１號","OBJECTID":193518},"geometry":{"x":174734.78000000212,"y":2546333.8900000006}},{"attributes":{"ID":193520,"DIS_CODE":0,"TOWNNAME":"永康區","LI":"北灣里","LIN":"38鄰","STREET":"大灣路","SECT":" ","MAREA":" ","LANE":"４０巷","ALLEY":"２２７弄","HOUSE_NO":"１３號","E_COORD97":174731.76999999999,"N_COORD97":2546330.6299999999,"ADDRESS":"大灣路４０巷２２７弄１３號","OBJECTID":193519},"geometry":{"x":174731.76999999955,"y":2546330.629999999}},{"attributes":{"ID":193521,"DIS_CODE":0,"TOWNNAME":"永康區","LI":"北灣里","LIN":"38鄰","STREET":"大灣路","SECT":" ","MAREA":" ","LANE":"４０巷","ALLEY":"２２７弄","HOUSE_NO":"１５號","E_COORD97":174728.76999999999,"N_COORD97":2546327.3700000001,"ADDRESS":"大灣路４０巷２２７弄１５號","OBJECTID":193520},"geometry":{"x":174728.76999999955,"y":2546327.370000001}},{"attributes":{"ID":193522,"DIS_CODE":0,"TOWNNAME":"永康區","LI":"北灣里","LIN":"38鄰","STREET":"大灣路","SECT":" ","MAREA":" ","LANE":"４０巷","ALLEY":"２２７弄","HOUSE_NO":"１７號","E_COORD97":174725.76999999999,"N_COORD97":2546324.1200000001,"ADDRESS":"大灣路４０巷２２７弄１７號","OBJECTID":193521},"geometry":{"x":174725.77000000048,"y":2546324.1200000029}},{"attributes":{"ID":193523,"DIS_CODE":0,"TOWNNAME":"永康區","LI":"北灣里","LIN":"38鄰","STREET":"大灣路","SECT":" ","MAREA":" ","LANE":"４０巷","ALLEY":"２２７弄","HOUSE_NO":"１９號","E_COORD97":174722.76000000001,"N_COORD97":2546320.8599999999,"ADDRESS":"大灣路４０巷２２７弄１９號","OBJECTID":193522},"geometry":{"x":174722.76000000071,"y":2546320.8600000013}},{"attributes":{"ID":193524,"DIS_CODE":0,"TOWNNAME":"永康區","LI":"北灣里","LIN":"38鄰","STREET":"大灣路","SECT":" ","MAREA":" ","LANE":"４０巷","ALLEY":"２２７弄","HOUSE_NO":"２１號","E_COORD97":174719.76000000001,"N_COORD97":2546317.6099999999,"ADDRESS":"大灣路４０巷２２７弄２１號","OBJECTID":193523},"geometry":{"x":174719.76000000071,"y":2546317.6099999994}},{"attributes":{"ID":193525,"DIS_CODE":0,"TOWNNAME":"永康區","LI":"北灣里","LIN":"38鄰","STREET":"大灣路","SECT":" ","MAREA":" ","LANE":"４０巷","ALLEY":"２２７弄","HOUSE_NO":"２３號","E_COORD97":174715.48000000001,"N_COORD97":2546314.4300000002,"ADDRESS":"大灣路４０巷２２７弄２３號","OBJECTID":193524},"geometry":{"x":174715.48000000138,"y":2546314.4300000016}},{"attributes":{"ID":193526,"DIS_CODE":0,"TOWNNAME":"永康區","LI":"北灣里","LIN":"38鄰","STREET":"大灣路","SECT":" ","MAREA":" ","LANE":"４０巷","ALLEY":"２２７弄","HOUSE_NO":"２５號","E_COORD97":174699.16,"N_COORD97":2546313.0099999998,"ADDRESS":"大灣路４０巷２２７弄２５號","OBJECTID":193525},"geometry":{"x":174699.16000000015,"y":2546313.0100000016}},{"attributes":{"ID":193527,"DIS_CODE":0,"TOWNNAME":"永康區","LI":"北灣里","LIN":"38鄰","STREET":"大灣路","SECT":" ","MAREA":" ","LANE":"４０巷","ALLEY":"２２７弄","HOUSE_NO":"２７號","E_COORD97":174704.09,"N_COORD97":2546309.7999999998,"ADDRESS":"大灣路４０巷２２７弄２７號","OBJECTID":193526},"geometry":{"x":174704.09000000078,"y":2546309.8000000026}},{"attributes":{"ID":193528,"DIS_CODE":0,"TOWNNAME":"將軍區","LI":"長沙里","LIN":"3鄰","STREET":" ","SECT":" ","MAREA":"長沙","LANE":" ","ALLEY":" ","HOUSE_NO":"２４號","E_COORD97":157298.70000000001,"N_COORD97":2568715.46,"ADDRESS":"長沙２４號","OBJECTID":193527},"geometry":{"x":157298.70000000112,"y":2568715.4600000028}},{"attributes":{"ID":193529,"DIS_CODE":0,"TOWNNAME":"永康區","LI":"北灣里","LIN":"38鄰","STREET":"大灣路","SECT":" ","MAREA":" ","LANE":"４０巷","ALLEY":"２２７弄","HOUSE_NO":"２９號","E_COORD97":174706.64999999999,"N_COORD97":2546304.96,"ADDRESS":"大灣路４０巷２２７弄２９號","OBJECTID":193528},"geometry":{"x":174706.65000000037,"y":2546304.9600000028}},{"attributes":{"ID":193530,"DIS_CODE":0,"TOWNNAME":"永康區","LI":"北灣里","LIN":"38鄰","STREET":"大灣路","SECT":" ","MAREA":" ","LANE":"４０巷","ALLEY":"２２７弄","HOUSE_NO":"３１號","E_COORD97":174712.79999999999,"N_COORD97":2546301.7400000002,"ADDRESS":"大灣路４０巷２２７弄３１號","OBJECTID":193529},"geometry":{"x":174712.80000000075,"y":2546301.7400000021}},{"attributes":{"ID":193531,"DIS_CODE":0,"TOWNNAME":"安定區","LI":"南安里","LIN":"3鄰","STREET":" ","SECT":" ","MAREA":"油車","LANE":" ","ALLEY":" ","HOUSE_NO":"２６號","E_COORD97":170703.14000000001,"N_COORD97":2555746.25,"ADDRESS":"油車２６號","OBJECTID":193530},"geometry":{"x":170703.13999999966,"y":2555746.2499999981}},{"attributes":{"ID":193532,"DIS_CODE":0,"TOWNNAME":"永康區","LI":"龍潭里","LIN":"38鄰","STREET":"中山北路","SECT":" ","MAREA":" ","LANE":"１６４巷","ALLEY":"６８弄","HOUSE_NO":"２０號","E_COORD97":174388.39000000001,"N_COORD97":2547355.7000000002,"ADDRESS":"中山北路１６４巷６８弄２０號","OBJECTID":193531},"geometry":{"x":174388.3900000006,"y":2547355.7000000011}},{"attributes":{"ID":193533,"DIS_CODE":0,"TOWNNAME":"永康區","LI":"北灣里","LIN":"38鄰","STREET":"大灣路","SECT":" ","MAREA":" ","LANE":"４０巷","ALLEY":"１５３弄","HOUSE_NO":"３號","E_COORD97":174896.89000000001,"N_COORD97":2546220.6299999999,"ADDRESS":"大灣路４０巷１５３弄３號","OBJECTID":193532},"geometry":{"x":174896.8900000006,"y":2546220.6300000008}},{"attributes":{"ID":193534,"DIS_CODE":0,"TOWNNAME":"永康區","LI":"二王里","LIN":"38鄰","STREET":"中山南路","SECT":" ","MAREA":" ","LANE":"４９０巷","ALLEY":"１２弄","HOUSE_NO":"４５號","E_COORD97":172194.64000000001,"N_COORD97":2546279.5800000001,"ADDRESS":"中山南路４９０巷１２弄４５號","OBJECTID":193533},"geometry":{"x":172194.6400000006,"y":2546279.5800000019}},{"attributes":{"ID":193535,"DIS_CODE":0,"TOWNNAME":"麻豆區","LI":"謝安里","LIN":"3鄰","STREET":" ","SECT":" ","MAREA":"謝厝寮","LANE":" ","ALLEY":" ","HOUSE_NO":"２１號","E_COORD97":172219.76000000001,"N_COORD97":2561334.3399999999,"ADDRESS":"謝厝寮２１號","OBJECTID":193534},"geometry":{"x":172219.75999999978,"y":2561334.3400000017}},{"attributes":{"ID":193536,"DIS_CODE":0,"TOWNNAME":"永康區","LI":"北灣里","LIN":"38鄰","STREET":"大灣路","SECT":" ","MAREA":" ","LANE":"４０巷","ALLEY":"２０９弄","HOUSE_NO":"３６號","E_COORD97":174738.72,"N_COORD97":2546293.4300000002,"ADDRESS":"大灣路４０巷２０９弄３６號","OBJECTID":193535},"geometry":{"x":174738.72000000067,"y":2546293.4300000016}},{"attributes":{"ID":193537,"DIS_CODE":0,"TOWNNAME":"永康區","LI":"埔園里","LIN":"38鄰","STREET":"龍國街","SECT":" ","MAREA":" ","LANE":"１２８巷","ALLEY":"１９弄","HOUSE_NO":"１０號","E_COORD97":174234.82999999999,"N_COORD97":2548011.0899999999,"ADDRESS":"龍國街１２８巷１９弄１０號","OBJECTID":193536},"geometry":{"x":174234.83000000101,"y":2548011.0900000017}},{"attributes":{"ID":193538,"DIS_CODE":0,"TOWNNAME":"佳里區","LI":"安西里","LIN":"38鄰","STREET":"文化路","SECT":" ","MAREA":" ","LANE":"４７８巷","ALLEY":"２弄","HOUSE_NO":"９號","E_COORD97":165048.47,"N_COORD97":2562616.3399999999,"ADDRESS":"文化路４７８巷２弄９號","OBJECTID":193537},"geometry":{"x":165048.47000000067,"y":2562616.3399999999}},{"attributes":{"ID":193539,"DIS_CODE":0,"TOWNNAME":"佳里區","LI":"安西里","LIN":"38鄰","STREET":"文化路","SECT":" ","MAREA":" ","LANE":"５３６巷","ALLEY":"８弄","HOUSE_NO":"１０號之１","E_COORD97":164907.22,"N_COORD97":2562610.27,"ADDRESS":"文化路５３６巷８弄１０號之１","OBJECTID":193538},"geometry":{"x":164907.21999999974,"y":2562610.2699999996}},{"attributes":{"ID":193540,"DIS_CODE":0,"TOWNNAME":"佳里區","LI":"安西里","LIN":"38鄰","STREET":"文化路","SECT":" ","MAREA":" ","LANE":"５３６巷","ALLEY":"８弄","HOUSE_NO":"１０號之２","E_COORD97":164906.70999999999,"N_COORD97":2562603.96,"ADDRESS":"文化路５３６巷８弄１０號之２","OBJECTID":193539},"geometry":{"x":164906.71000000089,"y":2562603.9600000009}},{"attributes":{"ID":193541,"DIS_CODE":0,"TOWNNAME":"佳里區","LI":"安西里","LIN":"38鄰","STREET":"文化路","SECT":" ","MAREA":" ","LANE":"５３６巷","ALLEY":"８弄","HOUSE_NO":"１０號","E_COORD97":164905.44,"N_COORD97":2562627.7999999998,"ADDRESS":"文化路５３６巷８弄１０號","OBJECTID":193540},"geometry":{"x":164905.44000000134,"y":2562627.8000000007}},{"attributes":{"ID":193542,"DIS_CODE":0,"TOWNNAME":"佳里區","LI":"安西里","LIN":"38鄰","STREET":"文化路","SECT":" ","MAREA":" ","LANE":"５３６巷","ALLEY":"８弄","HOUSE_NO":"１２號","E_COORD97":164911.23999999999,"N_COORD97":2562627.8500000001,"ADDRESS":"文化路５３６巷８弄１２號","OBJECTID":193541},"geometry":{"x":164911.24000000022,"y":2562627.8500000034}},{"attributes":{"ID":193543,"DIS_CODE":0,"TOWNNAME":"佳里區","LI":"安西里","LIN":"38鄰","STREET":"文化路","SECT":" ","MAREA":" ","LANE":"５３６巷","ALLEY":"８弄","HOUSE_NO":"２號","E_COORD97":164878.29999999999,"N_COORD97":2562628.1099999999,"ADDRESS":"文化路５３６巷８弄２號","OBJECTID":193542},"geometry":{"x":164878.30000000168,"y":2562628.1099999994}},{"attributes":{"ID":193544,"DIS_CODE":0,"TOWNNAME":"佳里區","LI":"安西里","LIN":"38鄰","STREET":"文化路","SECT":" ","MAREA":" ","LANE":"５３６巷","ALLEY":"８弄","HOUSE_NO":"４號","E_COORD97":164883.66,"N_COORD97":2562628.1299999999,"ADDRESS":"文化路５３６巷８弄４號","OBJECTID":193543},"geometry":{"x":164883.66000000108,"y":2562628.129999999}},{"attributes":{"ID":193545,"DIS_CODE":0,"TOWNNAME":"佳里區","LI":"安西里","LIN":"38鄰","STREET":"文化路","SECT":" ","MAREA":" ","LANE":"５３６巷","ALLEY":"８弄","HOUSE_NO":"６號","E_COORD97":164889.17999999999,"N_COORD97":2562628.1099999999,"ADDRESS":"文化路５３６巷８弄６號","OBJECTID":193544},"geometry":{"x":164889.18000000156,"y":2562628.1099999994}},{"attributes":{"ID":193546,"DIS_CODE":0,"TOWNNAME":"佳里區","LI":"安西里","LIN":"38鄰","STREET":"文化路","SECT":" ","MAREA":" ","LANE":"５３６巷","ALLEY":"８弄","HOUSE_NO":"８號之１","E_COORD97":164886.59,"N_COORD97":2562611.3799999999,"ADDRESS":"文化路５３６巷８弄８號之１","OBJECTID":193545},"geometry":{"x":164886.59000000171,"y":2562611.3800000008}},{"attributes":{"ID":193547,"DIS_CODE":0,"TOWNNAME":"佳里區","LI":"安西里","LIN":"38鄰","STREET":"文化路","SECT":" ","MAREA":" ","LANE":"５３６巷","ALLEY":"８弄","HOUSE_NO":"８號之２","E_COORD97":164886.12,"N_COORD97":2562605.4700000002,"ADDRESS":"文化路５３６巷８弄８號之２","OBJECTID":193546},"geometry":{"x":164886.12000000011,"y":2562605.4700000025}},{"attributes":{"ID":193548,"DIS_CODE":0,"TOWNNAME":"佳里區","LI":"安西里","LIN":"38鄰","STREET":"文化路","SECT":" ","MAREA":" ","LANE":"５３６巷","ALLEY":"８弄","HOUSE_NO":"８號之３","E_COORD97":164885.95000000001,"N_COORD97":2562599.4500000002,"ADDRESS":"文化路５３６巷８弄８號之３","OBJECTID":193547},"geometry":{"x":164885.95000000019,"y":2562599.4499999974}},{"attributes":{"ID":193549,"DIS_CODE":0,"TOWNNAME":"佳里區","LI":"安西里","LIN":"38鄰","STREET":"文化路","SECT":" ","MAREA":" ","LANE":"５３６巷","ALLEY":"８弄","HOUSE_NO":"８號","E_COORD97":164894.89000000001,"N_COORD97":2562627.9100000001,"ADDRESS":"文化路５３６巷８弄８號","OBJECTID":193548},"geometry":{"x":164894.8900000006,"y":2562627.9100000039}},{"attributes":{"ID":193550,"DIS_CODE":0,"TOWNNAME":"永康區","LI":"勝利里","LIN":"38鄰","STREET":"勝利街","SECT":" ","MAREA":" ","LANE":"１９７巷","ALLEY":"８弄","HOUSE_NO":"８號四樓之４","E_COORD97":171347.10000000001,"N_COORD97":2545178.2999999998,"ADDRESS":"勝利街１９７巷８弄８號四樓之４","OBJECTID":193549},"geometry":{"x":171347.10000000056,"y":2545178.3000000007}},{"attributes":{"ID":193551,"DIS_CODE":0,"TOWNNAME":"永康區","LI":"勝利里","LIN":"38鄰","STREET":"勝利街","SECT":" ","MAREA":" ","LANE":"１９７巷","ALLEY":"８弄","HOUSE_NO":"８號四樓之３","E_COORD97":171347.17000000001,"N_COORD97":2545178.2999999998,"ADDRESS":"勝利街１９７巷８弄８號四樓之３","OBJECTID":193550},"geometry":{"x":171347.17000000086,"y":2545178.3000000007}},{"attributes":{"ID":193552,"DIS_CODE":0,"TOWNNAME":"永康區","LI":"勝利里","LIN":"38鄰","STREET":"勝利街","SECT":" ","MAREA":" ","LANE":"１９７巷","ALLEY":"８弄","HOUSE_NO":"３號","E_COORD97":171315.64999999999,"N_COORD97":2545145.4700000002,"ADDRESS":"勝利街１９７巷８弄３號","OBJECTID":193551},"geometry":{"x":171315.6500000013,"y":2545145.4700000025}},{"attributes":{"ID":193553,"DIS_CODE":0,"TOWNNAME":"永康區","LI":"二王里","LIN":"38鄰","STREET":"中山南路","SECT":" ","MAREA":" ","LANE":"４９０巷","ALLEY":"１２弄","HOUSE_NO":"９７號","E_COORD97":172212.81,"N_COORD97":2546264.77,"ADDRESS":"中山南路４９０巷１２弄９７號","OBJECTID":193552},"geometry":{"x":172212.80999999959,"y":2546264.7699999996}},{"attributes":{"ID":193554,"DIS_CODE":0,"TOWNNAME":"永康區","LI":"二王里","LIN":"38鄰","STREET":"中山南路","SECT":" ","MAREA":" ","LANE":"４９０巷","ALLEY":"１２弄","HOUSE_NO":"５１號","E_COORD97":172208.14000000001,"N_COORD97":2546279.8399999999,"ADDRESS":"中山南路４９０巷１２弄５１號","OBJECTID":193553},"geometry":{"x":172208.1400000006,"y":2546279.8400000036}},{"attributes":{"ID":193555,"DIS_CODE":0,"TOWNNAME":"永康區","LI":"二王里","LIN":"38鄰","STREET":"中山南路","SECT":" ","MAREA":" ","LANE":"４９０巷","ALLEY":"１２弄","HOUSE_NO":"５５號","E_COORD97":172216.48000000001,"N_COORD97":2546280.5899999999,"ADDRESS":"中山南路４９０巷１２弄５５號","OBJECTID":193554},"geometry":{"x":172216.48000000138,"y":2546280.5899999999}},{"attributes":{"ID":193556,"DIS_CODE":0,"TOWNNAME":"仁德區","LI":"仁義里","LIN":"38鄰","STREET":"仁義五街","SECT":" ","MAREA":" ","LANE":"２４巷","ALLEY":"２弄","HOUSE_NO":"２號","E_COORD97":173539.42000000001,"N_COORD97":2540403.0899999999,"ADDRESS":"仁義五街２４巷２弄２號","OBJECTID":193555},"geometry":{"x":173539.41999999993,"y":2540403.0900000017}},{"attributes":{"ID":193557,"DIS_CODE":0,"TOWNNAME":"永康區","LI":"龍潭里","LIN":"38鄰","STREET":"中山北路","SECT":" ","MAREA":" ","LANE":"１６４巷","ALLEY":"７８弄","HOUSE_NO":"１６之２號","E_COORD97":174415.03,"N_COORD97":2547365.6600000001,"ADDRESS":"中山北路１６４巷７８弄１６之２號","OBJECTID":193556},"geometry":{"x":174415.03000000119,"y":2547365.6600000001}},{"attributes":{"ID":193558,"DIS_CODE":0,"TOWNNAME":"永康區","LI":"龍潭里","LIN":"38鄰","STREET":"中山北路","SECT":" ","MAREA":" ","LANE":"１６４巷","ALLEY":"７８弄","HOUSE_NO":"１６之３號","E_COORD97":174410.87,"N_COORD97":2547365.8799999999,"ADDRESS":"中山北路１６４巷７８弄１６之３號","OBJECTID":193557},"geometry":{"x":174410.87000000104,"y":2547365.879999999}},{"attributes":{"ID":193559,"DIS_CODE":0,"TOWNNAME":"中西區","LI":"大涼里","LIN":"21鄰","STREET":"府前二街","SECT":" ","MAREA":" ","LANE":" ","ALLEY":" ","HOUSE_NO":"７０號五樓之１７","E_COORD97":166684.92999999999,"N_COORD97":2543908.52,"ADDRESS":"府前二街７０號五樓之１７","OBJECTID":193558},"geometry":{"x":166684.93000000063,"y":2543908.5200000033}},{"attributes":{"ID":193560,"DIS_CODE":0,"TOWNNAME":"中西區","LI":"大涼里","LIN":"21鄰","STREET":"府前二街","SECT":" ","MAREA":" ","LANE":" ","ALLEY":" ","HOUSE_NO":"７０號五樓之１８","E_COORD97":166684.92999999999,"N_COORD97":2543908.52,"ADDRESS":"府前二街７０號五樓之１８","OBJECTID":193559},"geometry":{"x":166684.93000000063,"y":2543908.5200000033}},{"attributes":{"ID":193561,"DIS_CODE":0,"TOWNNAME":"麻豆區","LI":"\u25A0江里","LIN":"21鄰","STREET":"民生路","SECT":" ","MAREA":" ","LANE":" ","ALLEY":" ","HOUSE_NO":"７２號五樓","E_COORD97":173749.82000000001,"N_COORD97":2564421.8799999999,"ADDRESS":"民生路７２號五樓","OBJECTID":193560},"geometry":{"x":173749.82000000123,"y":2564421.8800000008}},{"attributes":{"ID":193562,"DIS_CODE":0,"TOWNNAME":"新化區","LI":"太平里","LIN":"4鄰","STREET":"民生路","SECT":" ","MAREA":" ","LANE":" ","ALLEY":" ","HOUSE_NO":"２５７號","E_COORD97":179011.31,"N_COORD97":2549047.25,"ADDRESS":"民生路２５７號","OBJECTID":193561},"geometry":{"x":179011.31000000052,"y":2549047.2500000037}},{"attributes":{"ID":193563,"DIS_CODE":0,"TOWNNAME":"新化區","LI":"太平里","LIN":"4鄰","STREET":"中正路","SECT":" ","MAREA":" ","LANE":" ","ALLEY":" ","HOUSE_NO":"５６６號","E_COORD97":178908.20999999999,"N_COORD97":2548976.25,"ADDRESS":"中正路５６６號","OBJECTID":193562},"geometry":{"x":178908.20999999996,"y":2548976.2500000019}},{"attributes":{"ID":193564,"DIS_CODE":0,"TOWNNAME":"麻豆區","LI":"謝安里","LIN":"3鄰","STREET":" ","SECT":" ","MAREA":"謝厝寮","LANE":" ","ALLEY":" ","HOUSE_NO":"２２號","E_COORD97":172223.78,"N_COORD97":2561285.29,"ADDRESS":"謝厝寮２２號","OBJECTID":193563},"geometry":{"x":172223.78000000026,"y":2561285.2900000028}},{"attributes":{"ID":193565,"DIS_CODE":0,"TOWNNAME":"麻豆區","LI":"謝安里","LIN":"3鄰","STREET":" ","SECT":" ","MAREA":"謝厝寮","LANE":" ","ALLEY":" ","HOUSE_NO":"２３號","E_COORD97":172227.81,"N_COORD97":2561271.8500000001,"ADDRESS":"謝厝寮２３號","OBJECTID":193564},"geometry":{"x":172227.80999999959,"y":2561271.8500000034}},{"attributes":{"ID":193566,"DIS_CODE":0,"TOWNNAME":"麻豆區","LI":"謝安里","LIN":"3鄰","STREET":" ","SECT":" ","MAREA":"謝厝寮","LANE":" ","ALLEY":" ","HOUSE_NO":"２４號","E_COORD97":172196.64999999999,"N_COORD97":2561275.3999999999,"ADDRESS":"謝厝寮２４號","OBJECTID":193565},"geometry":{"x":172196.6500000013,"y":2561275.3999999985}},{"attributes":{"ID":193567,"DIS_CODE":0,"TOWNNAME":"麻豆區","LI":"謝安里","LIN":"3鄰","STREET":" ","SECT":" ","MAREA":"謝厝寮","LANE":" ","ALLEY":" ","HOUSE_NO":"２５號之１","E_COORD97":172205.73999999999,"N_COORD97":2561224.1600000001,"ADDRESS":"謝厝寮２５號之１","OBJECTID":193566},"geometry":{"x":172205.74000000209,"y":2561224.160000002}},{"attributes":{"ID":193568,"DIS_CODE":0,"TOWNNAME":"麻豆區","LI":"謝安里","LIN":"3鄰","STREET":" ","SECT":" ","MAREA":"謝厝寮","LANE":" ","ALLEY":" ","HOUSE_NO":"２５號之２","E_COORD97":172185.09,"N_COORD97":2561213.48,"ADDRESS":"謝厝寮２５號之２","OBJECTID":193567},"geometry":{"x":172185.09000000078,"y":2561213.4800000004}},{"attributes":{"ID":193569,"DIS_CODE":0,"TOWNNAME":"麻豆區","LI":"謝安里","LIN":"3鄰","STREET":" ","SECT":" ","MAREA":"謝厝寮","LANE":" ","ALLEY":" ","HOUSE_NO":"２５號之３","E_COORD97":172145.66,"N_COORD97":2561192.6800000002,"ADDRESS":"謝厝寮２５號之３","OBJECTID":193568},"geometry":{"x":172145.66000000108,"y":2561192.6800000016}},{"attributes":{"ID":193570,"DIS_CODE":0,"TOWNNAME":"麻豆區","LI":"謝安里","LIN":"3鄰","STREET":" ","SECT":" ","MAREA":"謝厝寮","LANE":" ","ALLEY":" ","HOUSE_NO":"２５號之４","E_COORD97":172126.59,"N_COORD97":2561185.75,"ADDRESS":"謝厝寮２５號之４","OBJECTID":193569},"geometry":{"x":172126.58999999985,"y":2561185.7500000019}},{"attributes":{"ID":193571,"DIS_CODE":0,"TOWNNAME":"麻豆區","LI":"謝安里","LIN":"3鄰","STREET":" ","SECT":" ","MAREA":"謝厝寮","LANE":" ","ALLEY":" ","HOUSE_NO":"２５號之５","E_COORD97":172119.57999999999,"N_COORD97":2561175.9700000002,"ADDRESS":"謝厝寮２５號之５","OBJECTID":193570},"geometry":{"x":172119.58000000007,"y":2561175.9700000007}},{"attributes":{"ID":193572,"DIS_CODE":0,"TOWNNAME":"麻豆區","LI":"謝安里","LIN":"3鄰","STREET":" ","SECT":" ","MAREA":"謝厝寮","LANE":" ","ALLEY":" ","HOUSE_NO":"２５號之６","E_COORD97":172161.85999999999,"N_COORD97":2561196.3999999999,"ADDRESS":"謝厝寮２５號之６","OBJECTID":193571},"geometry":{"x":172161.86000000034,"y":2561196.4000000004}},{"attributes":{"ID":193573,"DIS_CODE":0,"TOWNNAME":"麻豆區","LI":"謝安里","LIN":"3鄰","STREET":" ","SECT":" ","MAREA":"謝厝寮","LANE":" ","ALLEY":" ","HOUSE_NO":"２５號","E_COORD97":172180.70000000001,"N_COORD97":2561277.9399999999,"ADDRESS":"謝厝寮２５號","OBJECTID":193572},"geometry":{"x":172180.70000000205,"y":2561277.9400000032}},{"attributes":{"ID":193574,"DIS_CODE":0,"TOWNNAME":"麻豆區","LI":"謝安里","LIN":"3鄰","STREET":" ","SECT":" ","MAREA":"謝厝寮","LANE":" ","ALLEY":" ","HOUSE_NO":"２６號","E_COORD97":172199.62,"N_COORD97":2561318.5499999998,"ADDRESS":"謝厝寮２６號","OBJECTID":193573},"geometry":{"x":172199.61999999918,"y":2561318.5500000007}},{"attributes":{"ID":193575,"DIS_CODE":0,"TOWNNAME":"永康區","LI":"龍潭里","LIN":"38鄰","STREET":"中山北路","SECT":" ","MAREA":" ","LANE":"１６４巷","ALLEY":"７８弄","HOUSE_NO":"１６之５號","E_COORD97":174405.82000000001,"N_COORD97":2547365.8300000001,"ADDRESS":"中山北路１６４巷７８弄１６之５號","OBJECTID":193574},"geometry":{"x":174405.82000000123,"y":2547365.8300000019}},{"attributes":{"ID":193576,"DIS_CODE":0,"TOWNNAME":"麻豆區","LI":"謝安里","LIN":"3鄰","STREET":" ","SECT":" ","MAREA":"謝厝寮","LANE":" ","ALLEY":" ","HOUSE_NO":"２８號之１","E_COORD97":172166.23999999999,"N_COORD97":2561237.6000000001,"ADDRESS":"謝厝寮２８號之１","OBJECTID":193575},"geometry":{"x":172166.24000000022,"y":2561237.6000000015}},{"attributes":{"ID":193577,"DIS_CODE":0,"TOWNNAME":"麻豆區","LI":"謝安里","LIN":"3鄰","STREET":" ","SECT":" ","MAREA":"謝厝寮","LANE":" ","ALLEY":" ","HOUSE_NO":"２８號","E_COORD97":172157.57000000001,"N_COORD97":2561262.3999999999,"ADDRESS":"謝厝寮２８號","OBJECTID":193576},"geometry":{"x":172157.5700000003,"y":2561262.4000000022}},{"attributes":{"ID":193578,"DIS_CODE":0,"TOWNNAME":"中西區","LI":"大涼里","LIN":"21鄰","STREET":"府前二街","SECT":" ","MAREA":" ","LANE":" ","ALLEY":" ","HOUSE_NO":"７０號五樓之２０","E_COORD97":166684.92999999999,"N_COORD97":2543908.52,"ADDRESS":"府前二街７０號五樓之２０","OBJECTID":193577},"geometry":{"x":166684.93000000063,"y":2543908.5200000033}},{"attributes":{"ID":193579,"DIS_CODE":0,"TOWNNAME":"安定區","LI":"安加里","LIN":"3鄰","STREET":" ","SECT":" ","MAREA":"安定","LANE":" ","ALLEY":" ","HOUSE_NO":"１７３號","E_COORD97":171905.32000000001,"N_COORD97":2557660.3199999998,"ADDRESS":"安定１７３號","OBJECTID":193578},"geometry":{"x":171905.32000000216,"y":2557660.3200000003}},{"attributes":{"ID":193580,"DIS_CODE":0,"TOWNNAME":"安定區","LI":"管寮里","LIN":"3鄰","STREET":" ","SECT":" ","MAREA":"管寮","LANE":" ","ALLEY":" ","HOUSE_NO":"２３之１號","E_COORD97":170137.44,"N_COORD97":2556350.2999999998,"ADDRESS":"管寮２３之１號","OBJECTID":193579},"geometry":{"x":170137.44000000041,"y":2556350.3000000045}},{"attributes":{"ID":193581,"DIS_CODE":0,"TOWNNAME":"中西區","LI":"大涼里","LIN":"21鄰","STREET":"府前二街","SECT":" ","MAREA":" ","LANE":" ","ALLEY":" ","HOUSE_NO":"７０號五樓之２１","E_COORD97":166684.92999999999,"N_COORD97":2543908.52,"ADDRESS":"府前二街７０號五樓之２１","OBJECTID":193580},"geometry":{"x":166684.93000000063,"y":2543908.5200000033}},{"attributes":{"ID":193582,"DIS_CODE":0,"TOWNNAME":"永康區","LI":"龍潭里","LIN":"38鄰","STREET":"中山北路","SECT":" ","MAREA":" ","LANE":"１６４巷","ALLEY":"７８弄","HOUSE_NO":"１８之１號","E_COORD97":174419.51999999999,"N_COORD97":2547335.0800000001,"ADDRESS":"中山北路１６４巷７８弄１８之１號","OBJECTID":193581},"geometry":{"x":174419.52000000048,"y":2547335.0800000001}},{"attributes":{"ID":193583,"DIS_CODE":0,"TOWNNAME":"安定區","LI":"南安里","LIN":"3鄰","STREET":" ","SECT":" ","MAREA":"油車","LANE":" ","ALLEY":" ","HOUSE_NO":"２５號","E_COORD97":170674.64000000001,"N_COORD97":2555744.25,"ADDRESS":"油車２５號","OBJECTID":193582},"geometry":{"x":170674.63999999966,"y":2555744.2500000019}},{"attributes":{"ID":193584,"DIS_CODE":0,"TOWNNAME":"安定區","LI":"新吉里","LIN":"3鄰","STREET":" ","SECT":" ","MAREA":"新吉","LANE":" ","ALLEY":" ","HOUSE_NO":"２２號之２","E_COORD97":169507.73999999999,"N_COORD97":2554047.2999999998,"ADDRESS":"新吉２２號之２","OBJECTID":193583},"geometry":{"x":169507.74000000115,"y":2554047.3000000007}},{"attributes":{"ID":193585,"DIS_CODE":0,"TOWNNAME":"永康區","LI":"龍潭里","LIN":"38鄰","STREET":"中山北路","SECT":" ","MAREA":" ","LANE":"１６４巷","ALLEY":"７８弄","HOUSE_NO":"１８之２號","E_COORD97":174415.67999999999,"N_COORD97":2547335.0800000001,"ADDRESS":"中山北路１６４巷７８弄１８之２號","OBJECTID":193584},"geometry":{"x":174415.6799999997,"y":2547335.0800000001}},{"attributes":{"ID":193586,"DIS_CODE":0,"TOWNNAME":"永康區","LI":"龍潭里","LIN":"38鄰","STREET":"中山北路","SECT":" ","MAREA":" ","LANE":"１６４巷","ALLEY":"７８弄","HOUSE_NO":"１８之３號","E_COORD97":174412.14000000001,"N_COORD97":2547335.27,"ADDRESS":"中山北路１６４巷７８弄１８之３號","OBJECTID":193585},"geometry":{"x":174412.1400000006,"y":2547335.2700000014}},{"attributes":{"ID":193587,"DIS_CODE":0,"TOWNNAME":"安定區","LI":"港南里","LIN":"3鄰","STREET":" ","SECT":" ","MAREA":"港口","LANE":" ","ALLEY":" ","HOUSE_NO":"２０之２號","E_COORD97":171452.34,"N_COORD97":2554164.2999999998,"ADDRESS":"港口２０之２號","OBJECTID":193586},"geometry":{"x":171452.34000000078,"y":2554164.3000000026}},{"attributes":{"ID":193588,"DIS_CODE":0,"TOWNNAME":"安定區","LI":"港南里","LIN":"3鄰","STREET":" ","SECT":" ","MAREA":"港口","LANE":" ","ALLEY":" ","HOUSE_NO":"３３號","E_COORD97":171516.23999999999,"N_COORD97":2554162.25,"ADDRESS":"港口３３號","OBJECTID":193587},"geometry":{"x":171516.24000000115,"y":2554162.25}},{"attributes":{"ID":193589,"DIS_CODE":0,"TOWNNAME":"安定區","LI":"蘇厝里","LIN":"3鄰","STREET":" ","SECT":" ","MAREA":"蘇厝","LANE":" ","ALLEY":" ","HOUSE_NO":"２９５號","E_COORD97":173221.42000000001,"N_COORD97":2558443.25,"ADDRESS":"蘇厝２９５號","OBJECTID":193588},"geometry":{"x":173221.42000000179,"y":2558443.2500000019}},{"attributes":{"ID":193590,"DIS_CODE":0,"TOWNNAME":"安定區","LI":"新吉里","LIN":"3鄰","STREET":" ","SECT":" ","MAREA":"新吉","LANE":" ","ALLEY":" ","HOUSE_NO":"２３號","E_COORD97":169508.47,"N_COORD97":2554100.25,"ADDRESS":"新吉２３號","OBJECTID":193589},"geometry":{"x":169508.4700000016,"y":2554100.2500000019}},{"attributes":{"ID":193591,"DIS_CODE":0,"TOWNNAME":"安定區","LI":"新吉里","LIN":"3鄰","STREET":" ","SECT":" ","MAREA":"新吉","LANE":" ","ALLEY":" ","HOUSE_NO":"２４號之８","E_COORD97":169532.64999999999,"N_COORD97":2554108.2999999998,"ADDRESS":"新吉２４號之８","OBJECTID":193590},"geometry":{"x":169532.65000000037,"y":2554108.3000000007}},{"attributes":{"ID":193592,"DIS_CODE":0,"TOWNNAME":"安定區","LI":"港口里","LIN":"3鄰","STREET":" ","SECT":" ","MAREA":"港口","LANE":" ","ALLEY":" ","HOUSE_NO":"２５３號之４","E_COORD97":171588.16991999999,"N_COORD97":2554857.9124599998,"ADDRESS":"港口２５３之４號","OBJECTID":193591},"geometry":{"x":171588.16992000025,"y":2554857.9124599993}},{"attributes":{"ID":193593,"DIS_CODE":0,"TOWNNAME":"安定區","LI":"港口里","LIN":"3鄰","STREET":" ","SECT":" ","MAREA":"港口","LANE":" ","ALLEY":" ","HOUSE_NO":"２６３號之６","E_COORD97":171543.32999999999,"N_COORD97":2554676.2999999998,"ADDRESS":"港口２６３號之６","OBJECTID":193592},"geometry":{"x":171543.33000000007,"y":2554676.3000000026}},{"attributes":{"ID":193594,"DIS_CODE":0,"TOWNNAME":"安定區","LI":"中榮里","LIN":"3鄰","STREET":" ","SECT":" ","MAREA":"許中營","LANE":" ","ALLEY":" ","HOUSE_NO":"２９號","E_COORD97":172457.23999999999,"N_COORD97":2554991.25,"ADDRESS":"許中營２９號","OBJECTID":193593},"geometry":{"x":172457.24000000115,"y":2554991.2500000019}},{"attributes":{"ID":193595,"DIS_CODE":0,"TOWNNAME":"安定區","LI":"中榮里","LIN":"3鄰","STREET":" ","SECT":" ","MAREA":"許中營","LANE":" ","ALLEY":" ","HOUSE_NO":"３０之１６號","E_COORD97":172472.19,"N_COORD97":2554949.29,"ADDRESS":"許中營３０之１６號","OBJECTID":193594},"geometry":{"x":172472.19000000041,"y":2554949.290000001}},{"attributes":{"ID":193596,"DIS_CODE":0,"TOWNNAME":"安定區","LI":"港口里","LIN":"3鄰","STREET":" ","SECT":" ","MAREA":"港口","LANE":" ","ALLEY":" ","HOUSE_NO":"２５３之２號","E_COORD97":171537.869576,"N_COORD97":2554813.4264699998,"ADDRESS":"港口２５３之２號","OBJECTID":193595},"geometry":{"x":171537.86957599968,"y":2554813.4264680035}},{"attributes":{"ID":193597,"DIS_CODE":0,"TOWNNAME":"安定區","LI":"港尾里","LIN":"3鄰","STREET":" ","SECT":" ","MAREA":"港子尾","LANE":" ","ALLEY":" ","HOUSE_NO":"１之２５號","E_COORD97":171447.79000000001,"N_COORD97":2556329.2999999998,"ADDRESS":"港子尾１之２５號","OBJECTID":193596},"geometry":{"x":171447.79000000097,"y":2556329.3000000007}},{"attributes":{"ID":193598,"DIS_CODE":0,"TOWNNAME":"安定區","LI":"港口里","LIN":"3鄰","STREET":" ","SECT":" ","MAREA":"港口","LANE":" ","ALLEY":" ","HOUSE_NO":"２６３號之１２","E_COORD97":171541.70999999999,"N_COORD97":2554699.2999999998,"ADDRESS":"港口２６３號之１２","OBJECTID":193597},"geometry":{"x":171541.71000000089,"y":2554699.3000000045}},{"attributes":{"ID":193599,"DIS_CODE":0,"TOWNNAME":"安定區","LI":"港口里","LIN":"3鄰","STREET":" ","SECT":" ","MAREA":"港口","LANE":" ","ALLEY":" ","HOUSE_NO":"２６３號之１３","E_COORD97":171541.67000000001,"N_COORD97":2554703.2999999998,"ADDRESS":"港口２６３號之１３","OBJECTID":193598},"geometry":{"x":171541.67000000086,"y":2554703.3000000026}},{"attributes":{"ID":193600,"DIS_CODE":0,"TOWNNAME":"安定區","LI":"南安里","LIN":"3鄰","STREET":" ","SECT":" ","MAREA":"油車","LANE":" ","ALLEY":" ","HOUSE_NO":"３３之３號","E_COORD97":170848.84,"N_COORD97":2555800.2999999998,"ADDRESS":"油車３３之３號","OBJECTID":193599},"geometry":{"x":170848.84000000078,"y":2555800.3000000007}},{"attributes":{"ID":193601,"DIS_CODE":0,"TOWNNAME":"安定區","LI":"港口里","LIN":"3鄰","STREET":" ","SECT":" ","MAREA":"港口","LANE":" ","ALLEY":" ","HOUSE_NO":"２５４之７號","E_COORD97":171522.89000000001,"N_COORD97":2554801.2999999998,"ADDRESS":"港口２５４之７號","OBJECTID":193600},"geometry":{"x":171522.8900000006,"y":2554801.3000000026}}]}