{"displayFieldName":"TOWNNAME","fieldAliases":{"ID":"ID","DIS_CODE":"DIS_CODE","TOWNNAME":"TOWNNAME","LI":"LI","LIN":"LIN","STREET":"STREET","SECT":"SECT","MAREA":"MAREA","LANE":"LANE","ALLEY":"ALLEY","HOUSE_NO":"HOUSE_NO","E_COORD97":"E_COORD97","N_COORD97":"N_COORD97","ADDRESS":"ADDRESS","OBJECTID":"OBJECTID"},"geometryType":"esriGeometryPoint","spatialReference":{"wkid":102443,"latestWkid":3826},"fields":[{"name":"ID","type":"esriFieldTypeDouble","alias":"ID"},{"name":"DIS_CODE","type":"esriFieldTypeInteger","alias":"DIS_CODE"},{"name":"TOWNNAME","type":"esriFieldTypeString","alias":"TOWNNAME","length":8},{"name":"LI","type":"esriFieldTypeString","alias":"LI","length":8},{"name":"LIN","type":"esriFieldTypeString","alias":"LIN","length":12},{"name":"STREET","type":"esriFieldTypeString","alias":"STREET","length":20},{"name":"SECT","type":"esriFieldTypeString","alias":"SECT","length":8},{"name":"MAREA","type":"esriFieldTypeString","alias":"MAREA","length":12},{"name":"LANE","type":"esriFieldTypeString","alias":"LANE","length":10},{"name":"ALLEY","type":"esriFieldTypeString","alias":"ALLEY","length":10},{"name":"HOUSE_NO","type":"esriFieldTypeString","alias":"HOUSE_NO","length":20},{"name":"E_COORD97","type":"esriFieldTypeDouble","alias":"E_COORD97"},{"name":"N_COORD97","type":"esriFieldTypeDouble","alias":"N_COORD97"},{"name":"ADDRESS","type":"esriFieldTypeString","alias":"ADDRESS","length":50},{"name":"OBJECTID","type":"esriFieldTypeOID","alias":"OBJECTID"}],"features":[{"attributes":{"ID":477626,"DIS_CODE":0,"TOWNNAME":"南區","LI":"文南里","LIN":"20鄰","STREET":"仁南二街","SECT":" ","MAREA":" ","LANE":" ","ALLEY":" ","HOUSE_NO":"２８號五樓之２","E_COORD97":166483.35000000001,"N_COORD97":2542656.7599999998,"ADDRESS":"仁南二街２８號五樓之２","OBJECTID":477601},"geometry":{"x":166483.35000000056,"y":2542656.7600000016}},{"attributes":{"ID":477627,"DIS_CODE":0,"TOWNNAME":"南區","LI":"文南里","LIN":"20鄰","STREET":"仁南二街","SECT":" ","MAREA":" ","LANE":" ","ALLEY":" ","HOUSE_NO":"２８號五樓之１","E_COORD97":166483.35000000001,"N_COORD97":2542656.7599999998,"ADDRESS":"仁南二街２８號五樓之１","OBJECTID":477602},"geometry":{"x":166483.35000000056,"y":2542656.7600000016}},{"attributes":{"ID":477628,"DIS_CODE":0,"TOWNNAME":"南區","LI":"文南里","LIN":"20鄰","STREET":"仁南二街","SECT":" ","MAREA":" ","LANE":" ","ALLEY":" ","HOUSE_NO":"２８號五樓之５","E_COORD97":166483.35000000001,"N_COORD97":2542656.7599999998,"ADDRESS":"仁南二街２８號五樓之５","OBJECTID":477603},"geometry":{"x":166483.35000000056,"y":2542656.7600000016}},{"attributes":{"ID":477629,"DIS_CODE":0,"TOWNNAME":"南區","LI":"文南里","LIN":"20鄰","STREET":"仁南二街","SECT":" ","MAREA":" ","LANE":" ","ALLEY":" ","HOUSE_NO":"２８號四樓之１","E_COORD97":166483.35000000001,"N_COORD97":2542656.7599999998,"ADDRESS":"仁南二街２８號四樓之１","OBJECTID":477604},"geometry":{"x":166483.35000000056,"y":2542656.7600000016}},{"attributes":{"ID":477630,"DIS_CODE":0,"TOWNNAME":"南區","LI":"文南里","LIN":"20鄰","STREET":"仁南二街","SECT":" ","MAREA":" ","LANE":" ","ALLEY":" ","HOUSE_NO":"２８號四樓之２","E_COORD97":166483.35000000001,"N_COORD97":2542656.7599999998,"ADDRESS":"仁南二街２８號四樓之２","OBJECTID":477605},"geometry":{"x":166483.35000000056,"y":2542656.7600000016}},{"attributes":{"ID":477631,"DIS_CODE":0,"TOWNNAME":"南區","LI":"文南里","LIN":"20鄰","STREET":"仁南二街","SECT":" ","MAREA":" ","LANE":" ","ALLEY":" ","HOUSE_NO":"２８號四樓之３","E_COORD97":166483.35000000001,"N_COORD97":2542656.7599999998,"ADDRESS":"仁南二街２８號四樓之３","OBJECTID":477606},"geometry":{"x":166483.35000000056,"y":2542656.7600000016}},{"attributes":{"ID":477632,"DIS_CODE":0,"TOWNNAME":"南區","LI":"文南里","LIN":"20鄰","STREET":"仁南二街","SECT":" ","MAREA":" ","LANE":" ","ALLEY":" ","HOUSE_NO":"２８號四樓之５","E_COORD97":166483.35000000001,"N_COORD97":2542656.7599999998,"ADDRESS":"仁南二街２８號四樓之５","OBJECTID":477607},"geometry":{"x":166483.35000000056,"y":2542656.7600000016}},{"attributes":{"ID":477633,"DIS_CODE":0,"TOWNNAME":"南區","LI":"文南里","LIN":"20鄰","STREET":"仁南二街","SECT":" ","MAREA":" ","LANE":" ","ALLEY":" ","HOUSE_NO":"２８號六樓之１","E_COORD97":166483.35000000001,"N_COORD97":2542656.7599999998,"ADDRESS":"仁南二街２８號六樓之１","OBJECTID":477608},"geometry":{"x":166483.35000000056,"y":2542656.7600000016}},{"attributes":{"ID":477634,"DIS_CODE":0,"TOWNNAME":"南區","LI":"文南里","LIN":"20鄰","STREET":"仁南二街","SECT":" ","MAREA":" ","LANE":" ","ALLEY":" ","HOUSE_NO":"２８號六樓之２","E_COORD97":166483.35000000001,"N_COORD97":2542656.7599999998,"ADDRESS":"仁南二街２８號六樓之２","OBJECTID":477609},"geometry":{"x":166483.35000000056,"y":2542656.7600000016}},{"attributes":{"ID":477635,"DIS_CODE":0,"TOWNNAME":"南區","LI":"文南里","LIN":"20鄰","STREET":"仁南二街","SECT":" ","MAREA":" ","LANE":" ","ALLEY":" ","HOUSE_NO":"２８號六樓之３","E_COORD97":166483.35000000001,"N_COORD97":2542656.7599999998,"ADDRESS":"仁南二街２８號六樓之３","OBJECTID":477610},"geometry":{"x":166483.35000000056,"y":2542656.7600000016}},{"attributes":{"ID":477636,"DIS_CODE":0,"TOWNNAME":"南區","LI":"文南里","LIN":"20鄰","STREET":"仁南二街","SECT":" ","MAREA":" ","LANE":" ","ALLEY":" ","HOUSE_NO":"２８號六樓之５","E_COORD97":166483.35000000001,"N_COORD97":2542656.7599999998,"ADDRESS":"仁南二街２８號六樓之５","OBJECTID":477611},"geometry":{"x":166483.35000000056,"y":2542656.7600000016}},{"attributes":{"ID":477637,"DIS_CODE":0,"TOWNNAME":"南區","LI":"文南里","LIN":"20鄰","STREET":"仁南二街","SECT":" ","MAREA":" ","LANE":" ","ALLEY":" ","HOUSE_NO":"２號二樓之１","E_COORD97":166403.17999999999,"N_COORD97":2542665.9700000002,"ADDRESS":"仁南二街２號二樓之１","OBJECTID":477612},"geometry":{"x":166403.18000000063,"y":2542665.9700000025}},{"attributes":{"ID":477638,"DIS_CODE":0,"TOWNNAME":"南區","LI":"文南里","LIN":"20鄰","STREET":"仁南二街","SECT":" ","MAREA":" ","LANE":" ","ALLEY":" ","HOUSE_NO":"２號二樓之２","E_COORD97":166403.17999999999,"N_COORD97":2542665.9700000002,"ADDRESS":"仁南二街２號二樓之２","OBJECTID":477613},"geometry":{"x":166403.18000000063,"y":2542665.9700000025}},{"attributes":{"ID":477639,"DIS_CODE":0,"TOWNNAME":"南區","LI":"文南里","LIN":"20鄰","STREET":"仁南二街","SECT":" ","MAREA":" ","LANE":" ","ALLEY":" ","HOUSE_NO":"２號二樓之３","E_COORD97":166403.17999999999,"N_COORD97":2542665.9700000002,"ADDRESS":"仁南二街２號二樓之３","OBJECTID":477614},"geometry":{"x":166403.18000000063,"y":2542665.9700000025}},{"attributes":{"ID":477640,"DIS_CODE":0,"TOWNNAME":"南區","LI":"文南里","LIN":"20鄰","STREET":"仁南二街","SECT":" ","MAREA":" ","LANE":" ","ALLEY":" ","HOUSE_NO":"２號二樓之５","E_COORD97":166403.17999999999,"N_COORD97":2542665.9700000002,"ADDRESS":"仁南二街２號二樓之５","OBJECTID":477615},"geometry":{"x":166403.18000000063,"y":2542665.9700000025}},{"attributes":{"ID":477641,"DIS_CODE":0,"TOWNNAME":"南區","LI":"文南里","LIN":"20鄰","STREET":"仁南二街","SECT":" ","MAREA":" ","LANE":" ","ALLEY":" ","HOUSE_NO":"２號三樓之１","E_COORD97":166403.17999999999,"N_COORD97":2542665.9700000002,"ADDRESS":"仁南二街２號三樓之１","OBJECTID":477616},"geometry":{"x":166403.18000000063,"y":2542665.9700000025}},{"attributes":{"ID":477642,"DIS_CODE":0,"TOWNNAME":"南區","LI":"文南里","LIN":"20鄰","STREET":"仁南二街","SECT":" ","MAREA":" ","LANE":" ","ALLEY":" ","HOUSE_NO":"２號三樓之２","E_COORD97":166403.17999999999,"N_COORD97":2542665.9700000002,"ADDRESS":"仁南二街２號三樓之２","OBJECTID":477617},"geometry":{"x":166403.18000000063,"y":2542665.9700000025}},{"attributes":{"ID":477643,"DIS_CODE":0,"TOWNNAME":"南區","LI":"文南里","LIN":"20鄰","STREET":"仁南二街","SECT":" ","MAREA":" ","LANE":" ","ALLEY":" ","HOUSE_NO":"２號三樓之３","E_COORD97":166403.17999999999,"N_COORD97":2542665.9700000002,"ADDRESS":"仁南二街２號三樓之３","OBJECTID":477618},"geometry":{"x":166403.18000000063,"y":2542665.9700000025}},{"attributes":{"ID":477644,"DIS_CODE":0,"TOWNNAME":"南區","LI":"文南里","LIN":"20鄰","STREET":"仁南二街","SECT":" ","MAREA":" ","LANE":" ","ALLEY":" ","HOUSE_NO":"２號三樓之５","E_COORD97":166403.17999999999,"N_COORD97":2542665.9700000002,"ADDRESS":"仁南二街２號三樓之５","OBJECTID":477619},"geometry":{"x":166403.18000000063,"y":2542665.9700000025}},{"attributes":{"ID":477645,"DIS_CODE":0,"TOWNNAME":"南區","LI":"文南里","LIN":"20鄰","STREET":"仁南二街","SECT":" ","MAREA":" ","LANE":" ","ALLEY":" ","HOUSE_NO":"２號四樓之１","E_COORD97":166403.17999999999,"N_COORD97":2542665.9700000002,"ADDRESS":"仁南二街２號四樓之１","OBJECTID":477620},"geometry":{"x":166403.18000000063,"y":2542665.9700000025}},{"attributes":{"ID":477646,"DIS_CODE":0,"TOWNNAME":"南區","LI":"文南里","LIN":"20鄰","STREET":"仁南二街","SECT":" ","MAREA":" ","LANE":" ","ALLEY":" ","HOUSE_NO":"２號四樓之２","E_COORD97":166403.17999999999,"N_COORD97":2542665.9700000002,"ADDRESS":"仁南二街２號四樓之２","OBJECTID":477621},"geometry":{"x":166403.18000000063,"y":2542665.9700000025}},{"attributes":{"ID":477647,"DIS_CODE":0,"TOWNNAME":"南區","LI":"文南里","LIN":"20鄰","STREET":"仁南二街","SECT":" ","MAREA":" ","LANE":" ","ALLEY":" ","HOUSE_NO":"２號四樓之３","E_COORD97":166403.17999999999,"N_COORD97":2542665.9700000002,"ADDRESS":"仁南二街２號四樓之３","OBJECTID":477622},"geometry":{"x":166403.18000000063,"y":2542665.9700000025}},{"attributes":{"ID":477648,"DIS_CODE":0,"TOWNNAME":"南區","LI":"文南里","LIN":"20鄰","STREET":"仁南二街","SECT":" ","MAREA":" ","LANE":" ","ALLEY":" ","HOUSE_NO":"２號四樓之５","E_COORD97":166403.17999999999,"N_COORD97":2542665.9700000002,"ADDRESS":"仁南二街２號四樓之５","OBJECTID":477623},"geometry":{"x":166403.18000000063,"y":2542665.9700000025}},{"attributes":{"ID":477649,"DIS_CODE":0,"TOWNNAME":"南區","LI":"文南里","LIN":"20鄰","STREET":"仁南二街","SECT":" ","MAREA":" ","LANE":" ","ALLEY":" ","HOUSE_NO":"２號五樓之２","E_COORD97":166403.17999999999,"N_COORD97":2542665.9700000002,"ADDRESS":"仁南二街２號五樓之２","OBJECTID":477624},"geometry":{"x":166403.18000000063,"y":2542665.9700000025}},{"attributes":{"ID":477650,"DIS_CODE":0,"TOWNNAME":"南區","LI":"文南里","LIN":"20鄰","STREET":"仁南二街","SECT":" ","MAREA":" ","LANE":" ","ALLEY":" ","HOUSE_NO":"２號五樓之３","E_COORD97":166403.17999999999,"N_COORD97":2542665.9700000002,"ADDRESS":"仁南二街２號五樓之３","OBJECTID":477625},"geometry":{"x":166403.18000000063,"y":2542665.9700000025}},{"attributes":{"ID":477651,"DIS_CODE":0,"TOWNNAME":"南區","LI":"文南里","LIN":"20鄰","STREET":"仁南二街","SECT":" ","MAREA":" ","LANE":" ","ALLEY":" ","HOUSE_NO":"２號五樓之５","E_COORD97":166403.17999999999,"N_COORD97":2542665.9700000002,"ADDRESS":"仁南二街２號五樓之５","OBJECTID":477626},"geometry":{"x":166403.18000000063,"y":2542665.9700000025}},{"attributes":{"ID":477652,"DIS_CODE":0,"TOWNNAME":"南區","LI":"文南里","LIN":"20鄰","STREET":"仁南二街","SECT":" ","MAREA":" ","LANE":" ","ALLEY":" ","HOUSE_NO":"２號六樓之１","E_COORD97":166403.17999999999,"N_COORD97":2542665.9700000002,"ADDRESS":"仁南二街２號六樓之１","OBJECTID":477627},"geometry":{"x":166403.18000000063,"y":2542665.9700000025}},{"attributes":{"ID":477653,"DIS_CODE":0,"TOWNNAME":"南區","LI":"文南里","LIN":"20鄰","STREET":"仁南二街","SECT":" ","MAREA":" ","LANE":" ","ALLEY":" ","HOUSE_NO":"２號六樓之２","E_COORD97":166403.17999999999,"N_COORD97":2542665.9700000002,"ADDRESS":"仁南二街２號六樓之２","OBJECTID":477628},"geometry":{"x":166403.18000000063,"y":2542665.9700000025}},{"attributes":{"ID":477654,"DIS_CODE":0,"TOWNNAME":"南區","LI":"文南里","LIN":"20鄰","STREET":"仁南二街","SECT":" ","MAREA":" ","LANE":" ","ALLEY":" ","HOUSE_NO":"２號六樓之３","E_COORD97":166403.17999999999,"N_COORD97":2542665.9700000002,"ADDRESS":"仁南二街２號六樓之３","OBJECTID":477629},"geometry":{"x":166403.18000000063,"y":2542665.9700000025}},{"attributes":{"ID":477655,"DIS_CODE":0,"TOWNNAME":"南區","LI":"文南里","LIN":"20鄰","STREET":"仁南二街","SECT":" ","MAREA":" ","LANE":" ","ALLEY":" ","HOUSE_NO":"２號六樓之５","E_COORD97":166403.17999999999,"N_COORD97":2542665.9700000002,"ADDRESS":"仁南二街２號六樓之５","OBJECTID":477630},"geometry":{"x":166403.18000000063,"y":2542665.9700000025}},{"attributes":{"ID":477656,"DIS_CODE":0,"TOWNNAME":"南區","LI":"文南里","LIN":"20鄰","STREET":"仁南二街","SECT":" ","MAREA":" ","LANE":" ","ALLEY":" ","HOUSE_NO":"６號二樓","E_COORD97":166409.37,"N_COORD97":2542664.46,"ADDRESS":"仁南二街６號二樓","OBJECTID":477631},"geometry":{"x":166409.37000000104,"y":2542664.4600000009}},{"attributes":{"ID":477657,"DIS_CODE":0,"TOWNNAME":"南區","LI":"文南里","LIN":"20鄰","STREET":"仁南二街","SECT":" ","MAREA":" ","LANE":" ","ALLEY":" ","HOUSE_NO":"６號三樓","E_COORD97":166409.37,"N_COORD97":2542664.46,"ADDRESS":"仁南二街６號三樓","OBJECTID":477632},"geometry":{"x":166409.37000000104,"y":2542664.4600000009}},{"attributes":{"ID":477658,"DIS_CODE":0,"TOWNNAME":"南區","LI":"文南里","LIN":"20鄰","STREET":"仁南二街","SECT":" ","MAREA":" ","LANE":" ","ALLEY":" ","HOUSE_NO":"６號四樓","E_COORD97":166409.37,"N_COORD97":2542664.46,"ADDRESS":"仁南二街６號四樓","OBJECTID":477633},"geometry":{"x":166409.37000000104,"y":2542664.4600000009}},{"attributes":{"ID":477659,"DIS_CODE":0,"TOWNNAME":"南區","LI":"文南里","LIN":"20鄰","STREET":"仁南二街","SECT":" ","MAREA":" ","LANE":" ","ALLEY":" ","HOUSE_NO":"６號五樓","E_COORD97":166409.37,"N_COORD97":2542664.46,"ADDRESS":"仁南二街６號五樓","OBJECTID":477634},"geometry":{"x":166409.37000000104,"y":2542664.4600000009}},{"attributes":{"ID":477660,"DIS_CODE":0,"TOWNNAME":"南區","LI":"文南里","LIN":"20鄰","STREET":"仁南二街","SECT":" ","MAREA":" ","LANE":" ","ALLEY":" ","HOUSE_NO":"６號六樓","E_COORD97":166409.37,"N_COORD97":2542664.46,"ADDRESS":"仁南二街６號六樓","OBJECTID":477635},"geometry":{"x":166409.37000000104,"y":2542664.4600000009}},{"attributes":{"ID":477661,"DIS_CODE":0,"TOWNNAME":"南區","LI":"文南里","LIN":"20鄰","STREET":"仁南二街","SECT":" ","MAREA":" ","LANE":" ","ALLEY":" ","HOUSE_NO":"８號五樓","E_COORD97":166415.88,"N_COORD97":2542663.8300000001,"ADDRESS":"仁南二街８號五樓","OBJECTID":477636},"geometry":{"x":166415.88000000082,"y":2542663.8300000019}},{"attributes":{"ID":477662,"DIS_CODE":0,"TOWNNAME":"南區","LI":"文南里","LIN":"20鄰","STREET":"仁南二街","SECT":" ","MAREA":" ","LANE":" ","ALLEY":" ","HOUSE_NO":"８號六樓","E_COORD97":166415.88,"N_COORD97":2542663.8300000001,"ADDRESS":"仁南二街８號六樓","OBJECTID":477637},"geometry":{"x":166415.88000000082,"y":2542663.8300000019}},{"attributes":{"ID":477663,"DIS_CODE":0,"TOWNNAME":"安南區","LI":"安順里","LIN":"20鄰","STREET":"育安一街","SECT":" ","MAREA":" ","LANE":" ","ALLEY":" ","HOUSE_NO":"１３４號七樓","E_COORD97":169483.12,"N_COORD97":2549939.6099999999,"ADDRESS":"育安一街１３４號七樓","OBJECTID":477638},"geometry":{"x":169483.12000000104,"y":2549939.6100000013}},{"attributes":{"ID":477664,"DIS_CODE":0,"TOWNNAME":"東區","LI":"和平里","LIN":"20鄰","STREET":"文化路","SECT":" ","MAREA":" ","LANE":" ","ALLEY":" ","HOUSE_NO":"３１號二樓之１","E_COORD97":171161,"N_COORD97":2541952.3900000001,"ADDRESS":"文化路３１號二樓之１","OBJECTID":477639},"geometry":{"x":171161,"y":2541952.3900000025}},{"attributes":{"ID":477665,"DIS_CODE":0,"TOWNNAME":"東區","LI":"和平里","LIN":"20鄰","STREET":"文化路","SECT":" ","MAREA":" ","LANE":" ","ALLEY":" ","HOUSE_NO":"３１號三樓之１","E_COORD97":171161,"N_COORD97":2541952.3900000001,"ADDRESS":"文化路３１號三樓之１","OBJECTID":477640},"geometry":{"x":171161,"y":2541952.3900000025}},{"attributes":{"ID":477666,"DIS_CODE":0,"TOWNNAME":"歸仁區","LI":"許厝里","LIN":"38鄰","STREET":"公園路","SECT":" ","MAREA":" ","LANE":" ","ALLEY":" ","HOUSE_NO":"６０號","E_COORD97":178048.94,"N_COORD97":2540542.2799999998,"ADDRESS":"公園路６０號","OBJECTID":477641},"geometry":{"x":178048.94000000041,"y":2540542.2799999993}},{"attributes":{"ID":477667,"DIS_CODE":0,"TOWNNAME":"東區","LI":"和平里","LIN":"20鄰","STREET":"文化路","SECT":" ","MAREA":" ","LANE":" ","ALLEY":" ","HOUSE_NO":"３１號四樓之１","E_COORD97":171161,"N_COORD97":2541952.3900000001,"ADDRESS":"文化路３１號四樓之１","OBJECTID":477642},"geometry":{"x":171161,"y":2541952.3900000025}},{"attributes":{"ID":477668,"DIS_CODE":0,"TOWNNAME":"東區","LI":"和平里","LIN":"20鄰","STREET":"文化路","SECT":" ","MAREA":" ","LANE":" ","ALLEY":" ","HOUSE_NO":"３１號五樓之１","E_COORD97":171161,"N_COORD97":2541952.3900000001,"ADDRESS":"文化路３１號五樓之１","OBJECTID":477643},"geometry":{"x":171161,"y":2541952.3900000025}},{"attributes":{"ID":477669,"DIS_CODE":0,"TOWNNAME":"東區","LI":"和平里","LIN":"20鄰","STREET":"文化路","SECT":" ","MAREA":" ","LANE":" ","ALLEY":" ","HOUSE_NO":"３１號六樓之１","E_COORD97":171161,"N_COORD97":2541952.3900000001,"ADDRESS":"文化路３１號六樓之１","OBJECTID":477644},"geometry":{"x":171161,"y":2541952.3900000025}},{"attributes":{"ID":477670,"DIS_CODE":0,"TOWNNAME":"東區","LI":"和平里","LIN":"20鄰","STREET":"文化路","SECT":" ","MAREA":" ","LANE":" ","ALLEY":" ","HOUSE_NO":"３１號七樓之１","E_COORD97":171161,"N_COORD97":2541952.3900000001,"ADDRESS":"文化路３１號七樓之１","OBJECTID":477645},"geometry":{"x":171161,"y":2541952.3900000025}},{"attributes":{"ID":477671,"DIS_CODE":0,"TOWNNAME":"東區","LI":"和平里","LIN":"20鄰","STREET":"文化路","SECT":" ","MAREA":" ","LANE":" ","ALLEY":" ","HOUSE_NO":"３１號八樓之１","E_COORD97":171161,"N_COORD97":2541952.3900000001,"ADDRESS":"文化路３１號八樓之１","OBJECTID":477646},"geometry":{"x":171161,"y":2541952.3900000025}},{"attributes":{"ID":477672,"DIS_CODE":0,"TOWNNAME":"東區","LI":"和平里","LIN":"20鄰","STREET":"文化路","SECT":" ","MAREA":" ","LANE":" ","ALLEY":" ","HOUSE_NO":"３１號九樓之１","E_COORD97":171161,"N_COORD97":2541952.3900000001,"ADDRESS":"文化路３１號九樓之１","OBJECTID":477647},"geometry":{"x":171161,"y":2541952.3900000025}},{"attributes":{"ID":477673,"DIS_CODE":0,"TOWNNAME":"東區","LI":"和平里","LIN":"20鄰","STREET":"文化路","SECT":" ","MAREA":" ","LANE":" ","ALLEY":" ","HOUSE_NO":"３１號十樓之１","E_COORD97":171161,"N_COORD97":2541952.3900000001,"ADDRESS":"文化路３１號十樓之１","OBJECTID":477648},"geometry":{"x":171161,"y":2541952.3900000025}},{"attributes":{"ID":477674,"DIS_CODE":0,"TOWNNAME":"東區","LI":"和平里","LIN":"20鄰","STREET":"文化路","SECT":" ","MAREA":" ","LANE":" ","ALLEY":" ","HOUSE_NO":"３１號十一樓之１","E_COORD97":171161,"N_COORD97":2541952.3900000001,"ADDRESS":"文化路３１號十一樓之１","OBJECTID":477649},"geometry":{"x":171161,"y":2541952.3900000025}},{"attributes":{"ID":477675,"DIS_CODE":0,"TOWNNAME":"東區","LI":"和平里","LIN":"20鄰","STREET":"文化路","SECT":" ","MAREA":" ","LANE":" ","ALLEY":" ","HOUSE_NO":"３１號十二樓之１","E_COORD97":171161,"N_COORD97":2541952.3900000001,"ADDRESS":"文化路３１號十二樓之１","OBJECTID":477650},"geometry":{"x":171161,"y":2541952.3900000025}},{"attributes":{"ID":477676,"DIS_CODE":0,"TOWNNAME":"東區","LI":"和平里","LIN":"20鄰","STREET":"文化路","SECT":" ","MAREA":" ","LANE":" ","ALLEY":" ","HOUSE_NO":"３１號十三樓之１","E_COORD97":171161,"N_COORD97":2541952.3900000001,"ADDRESS":"文化路３１號十三樓之１","OBJECTID":477651},"geometry":{"x":171161,"y":2541952.3900000025}},{"attributes":{"ID":477677,"DIS_CODE":0,"TOWNNAME":"東區","LI":"和平里","LIN":"20鄰","STREET":"文化路","SECT":" ","MAREA":" ","LANE":" ","ALLEY":" ","HOUSE_NO":"３１號十四樓之１","E_COORD97":171161,"N_COORD97":2541952.3900000001,"ADDRESS":"文化路３１號十四樓之１","OBJECTID":477652},"geometry":{"x":171161,"y":2541952.3900000025}},{"attributes":{"ID":477678,"DIS_CODE":0,"TOWNNAME":"東區","LI":"和平里","LIN":"20鄰","STREET":"文化路","SECT":" ","MAREA":" ","LANE":" ","ALLEY":" ","HOUSE_NO":"３１號二樓之２","E_COORD97":171161,"N_COORD97":2541952.3900000001,"ADDRESS":"文化路３１號二樓之２","OBJECTID":477653},"geometry":{"x":171161,"y":2541952.3900000025}},{"attributes":{"ID":477679,"DIS_CODE":0,"TOWNNAME":"東區","LI":"和平里","LIN":"20鄰","STREET":"文化路","SECT":" ","MAREA":" ","LANE":" ","ALLEY":" ","HOUSE_NO":"３１號三樓之２","E_COORD97":171161,"N_COORD97":2541952.3900000001,"ADDRESS":"文化路３１號三樓之２","OBJECTID":477654},"geometry":{"x":171161,"y":2541952.3900000025}},{"attributes":{"ID":477680,"DIS_CODE":0,"TOWNNAME":"東區","LI":"和平里","LIN":"20鄰","STREET":"文化路","SECT":" ","MAREA":" ","LANE":" ","ALLEY":" ","HOUSE_NO":"３１號四樓之２","E_COORD97":171161,"N_COORD97":2541952.3900000001,"ADDRESS":"文化路３１號四樓之２","OBJECTID":477655},"geometry":{"x":171161,"y":2541952.3900000025}},{"attributes":{"ID":477681,"DIS_CODE":0,"TOWNNAME":"東區","LI":"和平里","LIN":"20鄰","STREET":"文化路","SECT":" ","MAREA":" ","LANE":" ","ALLEY":" ","HOUSE_NO":"３１號五樓之２","E_COORD97":171161,"N_COORD97":2541952.3900000001,"ADDRESS":"文化路３１號五樓之２","OBJECTID":477656},"geometry":{"x":171161,"y":2541952.3900000025}},{"attributes":{"ID":477682,"DIS_CODE":0,"TOWNNAME":"東區","LI":"和平里","LIN":"20鄰","STREET":"文化路","SECT":" ","MAREA":" ","LANE":" ","ALLEY":" ","HOUSE_NO":"３１號六樓之２","E_COORD97":171161,"N_COORD97":2541952.3900000001,"ADDRESS":"文化路３１號六樓之２","OBJECTID":477657},"geometry":{"x":171161,"y":2541952.3900000025}},{"attributes":{"ID":477683,"DIS_CODE":0,"TOWNNAME":"東區","LI":"和平里","LIN":"20鄰","STREET":"文化路","SECT":" ","MAREA":" ","LANE":" ","ALLEY":" ","HOUSE_NO":"３１號七樓之２","E_COORD97":171161,"N_COORD97":2541952.3900000001,"ADDRESS":"文化路３１號七樓之２","OBJECTID":477658},"geometry":{"x":171161,"y":2541952.3900000025}},{"attributes":{"ID":477684,"DIS_CODE":0,"TOWNNAME":"東區","LI":"和平里","LIN":"20鄰","STREET":"文化路","SECT":" ","MAREA":" ","LANE":" ","ALLEY":" ","HOUSE_NO":"３１號八樓之２","E_COORD97":171161,"N_COORD97":2541952.3900000001,"ADDRESS":"文化路３１號八樓之２","OBJECTID":477659},"geometry":{"x":171161,"y":2541952.3900000025}},{"attributes":{"ID":477685,"DIS_CODE":0,"TOWNNAME":"東區","LI":"和平里","LIN":"20鄰","STREET":"文化路","SECT":" ","MAREA":" ","LANE":" ","ALLEY":" ","HOUSE_NO":"３１號九樓之２","E_COORD97":171161,"N_COORD97":2541952.3900000001,"ADDRESS":"文化路３１號九樓之２","OBJECTID":477660},"geometry":{"x":171161,"y":2541952.3900000025}},{"attributes":{"ID":477686,"DIS_CODE":0,"TOWNNAME":"東區","LI":"和平里","LIN":"20鄰","STREET":"文化路","SECT":" ","MAREA":" ","LANE":" ","ALLEY":" ","HOUSE_NO":"３１號十樓之２","E_COORD97":171161,"N_COORD97":2541952.3900000001,"ADDRESS":"文化路３１號十樓之２","OBJECTID":477661},"geometry":{"x":171161,"y":2541952.3900000025}},{"attributes":{"ID":477687,"DIS_CODE":0,"TOWNNAME":"東區","LI":"和平里","LIN":"20鄰","STREET":"文化路","SECT":" ","MAREA":" ","LANE":" ","ALLEY":" ","HOUSE_NO":"３１號十一樓之２","E_COORD97":171161,"N_COORD97":2541952.3900000001,"ADDRESS":"文化路３１號十一樓之２","OBJECTID":477662},"geometry":{"x":171161,"y":2541952.3900000025}},{"attributes":{"ID":477688,"DIS_CODE":0,"TOWNNAME":"東區","LI":"和平里","LIN":"20鄰","STREET":"文化路","SECT":" ","MAREA":" ","LANE":" ","ALLEY":" ","HOUSE_NO":"３１號十二樓之２","E_COORD97":171161,"N_COORD97":2541952.3900000001,"ADDRESS":"文化路３１號十二樓之２","OBJECTID":477663},"geometry":{"x":171161,"y":2541952.3900000025}},{"attributes":{"ID":477689,"DIS_CODE":0,"TOWNNAME":"東區","LI":"和平里","LIN":"20鄰","STREET":"文化路","SECT":" ","MAREA":" ","LANE":" ","ALLEY":" ","HOUSE_NO":"３１號十三樓之２","E_COORD97":171161,"N_COORD97":2541952.3900000001,"ADDRESS":"文化路３１號十三樓之２","OBJECTID":477664},"geometry":{"x":171161,"y":2541952.3900000025}},{"attributes":{"ID":477690,"DIS_CODE":0,"TOWNNAME":"東區","LI":"和平里","LIN":"20鄰","STREET":"文化路","SECT":" ","MAREA":" ","LANE":" ","ALLEY":" ","HOUSE_NO":"３１號十四樓之２","E_COORD97":171161,"N_COORD97":2541952.3900000001,"ADDRESS":"文化路３１號十四樓之２","OBJECTID":477665},"geometry":{"x":171161,"y":2541952.3900000025}},{"attributes":{"ID":477691,"DIS_CODE":0,"TOWNNAME":"東區","LI":"和平里","LIN":"20鄰","STREET":"文化路","SECT":" ","MAREA":" ","LANE":" ","ALLEY":" ","HOUSE_NO":"３１號二樓之３","E_COORD97":171161,"N_COORD97":2541952.3900000001,"ADDRESS":"文化路３１號二樓之３","OBJECTID":477666},"geometry":{"x":171161,"y":2541952.3900000025}},{"attributes":{"ID":477692,"DIS_CODE":0,"TOWNNAME":"東區","LI":"和平里","LIN":"20鄰","STREET":"文化路","SECT":" ","MAREA":" ","LANE":" ","ALLEY":" ","HOUSE_NO":"３１號三樓之３","E_COORD97":171161,"N_COORD97":2541952.3900000001,"ADDRESS":"文化路３１號三樓之３","OBJECTID":477667},"geometry":{"x":171161,"y":2541952.3900000025}},{"attributes":{"ID":477693,"DIS_CODE":0,"TOWNNAME":"東區","LI":"和平里","LIN":"20鄰","STREET":"文化路","SECT":" ","MAREA":" ","LANE":" ","ALLEY":" ","HOUSE_NO":"３１號四樓之３","E_COORD97":171161,"N_COORD97":2541952.3900000001,"ADDRESS":"文化路３１號四樓之３","OBJECTID":477668},"geometry":{"x":171161,"y":2541952.3900000025}},{"attributes":{"ID":477694,"DIS_CODE":0,"TOWNNAME":"東區","LI":"和平里","LIN":"20鄰","STREET":"文化路","SECT":" ","MAREA":" ","LANE":" ","ALLEY":" ","HOUSE_NO":"３１號五樓之３","E_COORD97":171161,"N_COORD97":2541952.3900000001,"ADDRESS":"文化路３１號五樓之３","OBJECTID":477669},"geometry":{"x":171161,"y":2541952.3900000025}},{"attributes":{"ID":477695,"DIS_CODE":0,"TOWNNAME":"東區","LI":"和平里","LIN":"20鄰","STREET":"文化路","SECT":" ","MAREA":" ","LANE":" ","ALLEY":" ","HOUSE_NO":"３１號六樓之３","E_COORD97":171161,"N_COORD97":2541952.3900000001,"ADDRESS":"文化路３１號六樓之３","OBJECTID":477670},"geometry":{"x":171161,"y":2541952.3900000025}},{"attributes":{"ID":477696,"DIS_CODE":0,"TOWNNAME":"東區","LI":"和平里","LIN":"20鄰","STREET":"文化路","SECT":" ","MAREA":" ","LANE":" ","ALLEY":" ","HOUSE_NO":"３１號七樓之３","E_COORD97":171161,"N_COORD97":2541952.3900000001,"ADDRESS":"文化路３１號七樓之３","OBJECTID":477671},"geometry":{"x":171161,"y":2541952.3900000025}},{"attributes":{"ID":477697,"DIS_CODE":0,"TOWNNAME":"東區","LI":"和平里","LIN":"20鄰","STREET":"文化路","SECT":" ","MAREA":" ","LANE":" ","ALLEY":" ","HOUSE_NO":"３１號八樓之３","E_COORD97":171161,"N_COORD97":2541952.3900000001,"ADDRESS":"文化路３１號八樓之３","OBJECTID":477672},"geometry":{"x":171161,"y":2541952.3900000025}},{"attributes":{"ID":477698,"DIS_CODE":0,"TOWNNAME":"東區","LI":"和平里","LIN":"20鄰","STREET":"文化路","SECT":" ","MAREA":" ","LANE":" ","ALLEY":" ","HOUSE_NO":"３１號九樓之３","E_COORD97":171161,"N_COORD97":2541952.3900000001,"ADDRESS":"文化路３１號九樓之３","OBJECTID":477673},"geometry":{"x":171161,"y":2541952.3900000025}},{"attributes":{"ID":477699,"DIS_CODE":0,"TOWNNAME":"東區","LI":"和平里","LIN":"20鄰","STREET":"文化路","SECT":" ","MAREA":" ","LANE":" ","ALLEY":" ","HOUSE_NO":"３１號十樓之３","E_COORD97":171161,"N_COORD97":2541952.3900000001,"ADDRESS":"文化路３１號十樓之３","OBJECTID":477674},"geometry":{"x":171161,"y":2541952.3900000025}},{"attributes":{"ID":477700,"DIS_CODE":0,"TOWNNAME":"歸仁區","LI":"看東里","LIN":"8鄰","STREET":"成功一街","SECT":" ","MAREA":" ","LANE":" ","ALLEY":" ","HOUSE_NO":"４７號","E_COORD97":178642.04999999999,"N_COORD97":2540095.4500000002,"ADDRESS":"成功一街４７號","OBJECTID":477675},"geometry":{"x":178642.05000000075,"y":2540095.4500000011}},{"attributes":{"ID":477701,"DIS_CODE":0,"TOWNNAME":"東區","LI":"和平里","LIN":"20鄰","STREET":"文化路","SECT":" ","MAREA":" ","LANE":" ","ALLEY":" ","HOUSE_NO":"３１號十一樓之３","E_COORD97":171161,"N_COORD97":2541952.3900000001,"ADDRESS":"文化路３１號十一樓之３","OBJECTID":477676},"geometry":{"x":171161,"y":2541952.3900000025}},{"attributes":{"ID":477702,"DIS_CODE":0,"TOWNNAME":"東區","LI":"和平里","LIN":"20鄰","STREET":"文化路","SECT":" ","MAREA":" ","LANE":" ","ALLEY":" ","HOUSE_NO":"３１號十二樓之３","E_COORD97":171161,"N_COORD97":2541952.3900000001,"ADDRESS":"文化路３１號十二樓之３","OBJECTID":477677},"geometry":{"x":171161,"y":2541952.3900000025}},{"attributes":{"ID":477703,"DIS_CODE":0,"TOWNNAME":"東區","LI":"和平里","LIN":"20鄰","STREET":"文化路","SECT":" ","MAREA":" ","LANE":" ","ALLEY":" ","HOUSE_NO":"３１號十三樓之３","E_COORD97":171161,"N_COORD97":2541952.3900000001,"ADDRESS":"文化路３１號十三樓之３","OBJECTID":477678},"geometry":{"x":171161,"y":2541952.3900000025}},{"attributes":{"ID":477704,"DIS_CODE":0,"TOWNNAME":"東區","LI":"和平里","LIN":"20鄰","STREET":"文化路","SECT":" ","MAREA":" ","LANE":" ","ALLEY":" ","HOUSE_NO":"３１號十四樓之３","E_COORD97":171161,"N_COORD97":2541952.3900000001,"ADDRESS":"文化路３１號十四樓之３","OBJECTID":477679},"geometry":{"x":171161,"y":2541952.3900000025}},{"attributes":{"ID":477705,"DIS_CODE":0,"TOWNNAME":"東區","LI":"和平里","LIN":"20鄰","STREET":"文化路","SECT":" ","MAREA":" ","LANE":" ","ALLEY":" ","HOUSE_NO":"３３號二樓之３","E_COORD97":171156.57999999999,"N_COORD97":2541968.77,"ADDRESS":"文化路３３號二樓之３","OBJECTID":477680},"geometry":{"x":171156.58000000007,"y":2541968.7700000014}},{"attributes":{"ID":477706,"DIS_CODE":0,"TOWNNAME":"東區","LI":"和平里","LIN":"20鄰","STREET":"文化路","SECT":" ","MAREA":" ","LANE":" ","ALLEY":" ","HOUSE_NO":"３３號三樓之３","E_COORD97":171156.57999999999,"N_COORD97":2541968.77,"ADDRESS":"文化路３３號三樓之３","OBJECTID":477681},"geometry":{"x":171156.58000000007,"y":2541968.7700000014}},{"attributes":{"ID":477707,"DIS_CODE":0,"TOWNNAME":"東區","LI":"和平里","LIN":"20鄰","STREET":"文化路","SECT":" ","MAREA":" ","LANE":" ","ALLEY":" ","HOUSE_NO":"３３號四樓之３","E_COORD97":171156.57999999999,"N_COORD97":2541968.77,"ADDRESS":"文化路３３號四樓之３","OBJECTID":477682},"geometry":{"x":171156.58000000007,"y":2541968.7700000014}},{"attributes":{"ID":477708,"DIS_CODE":0,"TOWNNAME":"東區","LI":"和平里","LIN":"20鄰","STREET":"文化路","SECT":" ","MAREA":" ","LANE":" ","ALLEY":" ","HOUSE_NO":"３３號五樓之３","E_COORD97":171156.57999999999,"N_COORD97":2541968.77,"ADDRESS":"文化路３３號五樓之３","OBJECTID":477683},"geometry":{"x":171156.58000000007,"y":2541968.7700000014}},{"attributes":{"ID":477709,"DIS_CODE":0,"TOWNNAME":"東區","LI":"和平里","LIN":"20鄰","STREET":"文化路","SECT":" ","MAREA":" ","LANE":" ","ALLEY":" ","HOUSE_NO":"３３號六樓之３","E_COORD97":171156.57999999999,"N_COORD97":2541968.77,"ADDRESS":"文化路３３號六樓之３","OBJECTID":477684},"geometry":{"x":171156.58000000007,"y":2541968.7700000014}},{"attributes":{"ID":477710,"DIS_CODE":0,"TOWNNAME":"東區","LI":"和平里","LIN":"20鄰","STREET":"文化路","SECT":" ","MAREA":" ","LANE":" ","ALLEY":" ","HOUSE_NO":"３３號七樓之３","E_COORD97":171156.57999999999,"N_COORD97":2541968.77,"ADDRESS":"文化路３３號七樓之３","OBJECTID":477685},"geometry":{"x":171156.58000000007,"y":2541968.7700000014}},{"attributes":{"ID":477711,"DIS_CODE":0,"TOWNNAME":"東區","LI":"和平里","LIN":"20鄰","STREET":"文化路","SECT":" ","MAREA":" ","LANE":" ","ALLEY":" ","HOUSE_NO":"３３號八樓之３","E_COORD97":171156.57999999999,"N_COORD97":2541968.77,"ADDRESS":"文化路３３號八樓之３","OBJECTID":477686},"geometry":{"x":171156.58000000007,"y":2541968.7700000014}},{"attributes":{"ID":477712,"DIS_CODE":0,"TOWNNAME":"東區","LI":"和平里","LIN":"20鄰","STREET":"文化路","SECT":" ","MAREA":" ","LANE":" ","ALLEY":" ","HOUSE_NO":"３３號九樓之３","E_COORD97":171156.57999999999,"N_COORD97":2541968.77,"ADDRESS":"文化路３３號九樓之３","OBJECTID":477687},"geometry":{"x":171156.58000000007,"y":2541968.7700000014}},{"attributes":{"ID":477713,"DIS_CODE":0,"TOWNNAME":"東區","LI":"和平里","LIN":"20鄰","STREET":"文化路","SECT":" ","MAREA":" ","LANE":" ","ALLEY":" ","HOUSE_NO":"３３號十樓之３","E_COORD97":171156.57999999999,"N_COORD97":2541968.77,"ADDRESS":"文化路３３號十樓之３","OBJECTID":477688},"geometry":{"x":171156.58000000007,"y":2541968.7700000014}},{"attributes":{"ID":477714,"DIS_CODE":0,"TOWNNAME":"東區","LI":"和平里","LIN":"20鄰","STREET":"文化路","SECT":" ","MAREA":" ","LANE":" ","ALLEY":" ","HOUSE_NO":"３３號十一樓之３","E_COORD97":171156.57999999999,"N_COORD97":2541968.77,"ADDRESS":"文化路３３號十一樓之３","OBJECTID":477689},"geometry":{"x":171156.58000000007,"y":2541968.7700000014}},{"attributes":{"ID":477715,"DIS_CODE":0,"TOWNNAME":"東區","LI":"和平里","LIN":"20鄰","STREET":"文化路","SECT":" ","MAREA":" ","LANE":" ","ALLEY":" ","HOUSE_NO":"３３號十二樓之３","E_COORD97":171156.57999999999,"N_COORD97":2541968.77,"ADDRESS":"文化路３３號十二樓之３","OBJECTID":477690},"geometry":{"x":171156.58000000007,"y":2541968.7700000014}},{"attributes":{"ID":477716,"DIS_CODE":0,"TOWNNAME":"東區","LI":"和平里","LIN":"20鄰","STREET":"文化路","SECT":" ","MAREA":" ","LANE":" ","ALLEY":" ","HOUSE_NO":"３３號十三樓之３","E_COORD97":171156.57999999999,"N_COORD97":2541968.77,"ADDRESS":"文化路３３號十三樓之３","OBJECTID":477691},"geometry":{"x":171156.58000000007,"y":2541968.7700000014}},{"attributes":{"ID":477717,"DIS_CODE":0,"TOWNNAME":"東區","LI":"和平里","LIN":"20鄰","STREET":"文化路","SECT":" ","MAREA":" ","LANE":" ","ALLEY":" ","HOUSE_NO":"３３號十四樓之３","E_COORD97":171156.57999999999,"N_COORD97":2541968.77,"ADDRESS":"文化路３３號十四樓之３","OBJECTID":477692},"geometry":{"x":171156.58000000007,"y":2541968.7700000014}},{"attributes":{"ID":477718,"DIS_CODE":0,"TOWNNAME":"東區","LI":"和平里","LIN":"20鄰","STREET":"文化路","SECT":" ","MAREA":" ","LANE":" ","ALLEY":" ","HOUSE_NO":"３３號二樓之１","E_COORD97":171156.57999999999,"N_COORD97":2541968.77,"ADDRESS":"文化路３３號二樓之１","OBJECTID":477693},"geometry":{"x":171156.58000000007,"y":2541968.7700000014}},{"attributes":{"ID":477719,"DIS_CODE":0,"TOWNNAME":"東區","LI":"和平里","LIN":"20鄰","STREET":"文化路","SECT":" ","MAREA":" ","LANE":" ","ALLEY":" ","HOUSE_NO":"３３號三樓之１","E_COORD97":171156.57999999999,"N_COORD97":2541968.77,"ADDRESS":"文化路３３號三樓之１","OBJECTID":477694},"geometry":{"x":171156.58000000007,"y":2541968.7700000014}},{"attributes":{"ID":477720,"DIS_CODE":0,"TOWNNAME":"東區","LI":"和平里","LIN":"20鄰","STREET":"文化路","SECT":" ","MAREA":" ","LANE":" ","ALLEY":" ","HOUSE_NO":"３３號四樓之１","E_COORD97":171156.57999999999,"N_COORD97":2541968.77,"ADDRESS":"文化路３３號四樓之１","OBJECTID":477695},"geometry":{"x":171156.58000000007,"y":2541968.7700000014}},{"attributes":{"ID":477721,"DIS_CODE":0,"TOWNNAME":"東區","LI":"和平里","LIN":"20鄰","STREET":"文化路","SECT":" ","MAREA":" ","LANE":" ","ALLEY":" ","HOUSE_NO":"３３號五樓之１","E_COORD97":171156.57999999999,"N_COORD97":2541968.77,"ADDRESS":"文化路３３號五樓之１","OBJECTID":477696},"geometry":{"x":171156.58000000007,"y":2541968.7700000014}},{"attributes":{"ID":477722,"DIS_CODE":0,"TOWNNAME":"東區","LI":"和平里","LIN":"20鄰","STREET":"文化路","SECT":" ","MAREA":" ","LANE":" ","ALLEY":" ","HOUSE_NO":"３３號六樓之１","E_COORD97":171156.57999999999,"N_COORD97":2541968.77,"ADDRESS":"文化路３３號六樓之１","OBJECTID":477697},"geometry":{"x":171156.58000000007,"y":2541968.7700000014}},{"attributes":{"ID":477723,"DIS_CODE":0,"TOWNNAME":"東區","LI":"和平里","LIN":"20鄰","STREET":"文化路","SECT":" ","MAREA":" ","LANE":" ","ALLEY":" ","HOUSE_NO":"３３號七樓之１","E_COORD97":171156.57999999999,"N_COORD97":2541968.77,"ADDRESS":"文化路３３號七樓之１","OBJECTID":477698},"geometry":{"x":171156.58000000007,"y":2541968.7700000014}},{"attributes":{"ID":477724,"DIS_CODE":0,"TOWNNAME":"東區","LI":"和平里","LIN":"20鄰","STREET":"文化路","SECT":" ","MAREA":" ","LANE":" ","ALLEY":" ","HOUSE_NO":"３３號八樓之１","E_COORD97":171156.57999999999,"N_COORD97":2541968.77,"ADDRESS":"文化路３３號八樓之１","OBJECTID":477699},"geometry":{"x":171156.58000000007,"y":2541968.7700000014}},{"attributes":{"ID":477725,"DIS_CODE":0,"TOWNNAME":"東區","LI":"和平里","LIN":"20鄰","STREET":"文化路","SECT":" ","MAREA":" ","LANE":" ","ALLEY":" ","HOUSE_NO":"３３號九樓之１","E_COORD97":171156.57999999999,"N_COORD97":2541968.77,"ADDRESS":"文化路３３號九樓之１","OBJECTID":477700},"geometry":{"x":171156.58000000007,"y":2541968.7700000014}},{"attributes":{"ID":477726,"DIS_CODE":0,"TOWNNAME":"東區","LI":"和平里","LIN":"20鄰","STREET":"文化路","SECT":" ","MAREA":" ","LANE":" ","ALLEY":" ","HOUSE_NO":"３３號十樓之１","E_COORD97":171156.57999999999,"N_COORD97":2541968.77,"ADDRESS":"文化路３３號十樓之１","OBJECTID":477701},"geometry":{"x":171156.58000000007,"y":2541968.7700000014}},{"attributes":{"ID":477727,"DIS_CODE":0,"TOWNNAME":"東區","LI":"和平里","LIN":"20鄰","STREET":"文化路","SECT":" ","MAREA":" ","LANE":" ","ALLEY":" ","HOUSE_NO":"３３號十一樓之１","E_COORD97":171156.57999999999,"N_COORD97":2541968.77,"ADDRESS":"文化路３３號十一樓之１","OBJECTID":477702},"geometry":{"x":171156.58000000007,"y":2541968.7700000014}},{"attributes":{"ID":477728,"DIS_CODE":0,"TOWNNAME":"東區","LI":"和平里","LIN":"20鄰","STREET":"文化路","SECT":" ","MAREA":" ","LANE":" ","ALLEY":" ","HOUSE_NO":"３３號十二樓之１","E_COORD97":171156.57999999999,"N_COORD97":2541968.77,"ADDRESS":"文化路３３號十二樓之１","OBJECTID":477703},"geometry":{"x":171156.58000000007,"y":2541968.7700000014}},{"attributes":{"ID":477729,"DIS_CODE":0,"TOWNNAME":"中西區","LI":"開山里","LIN":"20鄰","STREET":"大埔街","SECT":" ","MAREA":" ","LANE":" ","ALLEY":" ","HOUSE_NO":"５號","E_COORD97":168997.54999999999,"N_COORD97":2543024.25,"ADDRESS":"大埔街５號","OBJECTID":477704},"geometry":{"x":168997.54999999888,"y":2543024.25}},{"attributes":{"ID":477730,"DIS_CODE":0,"TOWNNAME":"永康區","LI":"中華里","LIN":"20鄰","STREET":"小東路","SECT":" ","MAREA":" ","LANE":" ","ALLEY":" ","HOUSE_NO":"４７３號之４９七樓","E_COORD97":171593.10999999999,"N_COORD97":2544367.3500000001,"ADDRESS":"小東路４７３號之４９七樓","OBJECTID":477705},"geometry":{"x":171593.1100000022,"y":2544367.3500000034}},{"attributes":{"ID":477731,"DIS_CODE":0,"TOWNNAME":"永康區","LI":"中華里","LIN":"20鄰","STREET":"小東路","SECT":" ","MAREA":" ","LANE":" ","ALLEY":" ","HOUSE_NO":"４７３號之５５七樓","E_COORD97":171593.10999999999,"N_COORD97":2544367.3500000001,"ADDRESS":"小東路４７３號之５５七樓","OBJECTID":477706},"geometry":{"x":171593.1100000022,"y":2544367.3500000034}},{"attributes":{"ID":477732,"DIS_CODE":0,"TOWNNAME":"永康區","LI":"中華里","LIN":"20鄰","STREET":"小東路","SECT":" ","MAREA":" ","LANE":" ","ALLEY":" ","HOUSE_NO":"４７３號之５１七樓","E_COORD97":171593.10999999999,"N_COORD97":2544367.3500000001,"ADDRESS":"小東路４７３號之５１七樓","OBJECTID":477707},"geometry":{"x":171593.1100000022,"y":2544367.3500000034}},{"attributes":{"ID":477733,"DIS_CODE":0,"TOWNNAME":"永康區","LI":"網寮里","LIN":"20鄰","STREET":"文化路","SECT":" ","MAREA":" ","LANE":" ","ALLEY":" ","HOUSE_NO":"３０７號七樓之１","E_COORD97":173464.85000000001,"N_COORD97":2546123.7599999998,"ADDRESS":"文化路３０７號七樓之１","OBJECTID":477708},"geometry":{"x":173464.84999999963,"y":2546123.7599999998}},{"attributes":{"ID":477734,"DIS_CODE":0,"TOWNNAME":"永康區","LI":"網寮里","LIN":"20鄰","STREET":"文化路","SECT":" ","MAREA":" ","LANE":" ","ALLEY":" ","HOUSE_NO":"３０７號六樓之２","E_COORD97":173464.98999999999,"N_COORD97":2546123.7599999998,"ADDRESS":"文化路３０７號六樓之２","OBJECTID":477709},"geometry":{"x":173464.99000000022,"y":2546123.7599999998}},{"attributes":{"ID":477735,"DIS_CODE":0,"TOWNNAME":"東區","LI":"圍下里","LIN":"20鄰","STREET":"前鋒路","SECT":" ","MAREA":" ","LANE":" ","ALLEY":" ","HOUSE_NO":"８１號二樓","E_COORD97":169293.81,"N_COORD97":2543584.3799999999,"ADDRESS":"前鋒路８１號二樓","OBJECTID":477710},"geometry":{"x":169293.80999999959,"y":2543584.3800000008}},{"attributes":{"ID":477736,"DIS_CODE":0,"TOWNNAME":"東區","LI":"圍下里","LIN":"20鄰","STREET":"前鋒路","SECT":" ","MAREA":" ","LANE":" ","ALLEY":" ","HOUSE_NO":"８１號三樓","E_COORD97":169293.81,"N_COORD97":2543584.3799999999,"ADDRESS":"前鋒路８１號三樓","OBJECTID":477711},"geometry":{"x":169293.80999999959,"y":2543584.3800000008}},{"attributes":{"ID":477737,"DIS_CODE":0,"TOWNNAME":"東區","LI":"圍下里","LIN":"20鄰","STREET":"前鋒路","SECT":" ","MAREA":" ","LANE":" ","ALLEY":" ","HOUSE_NO":"８１號四樓","E_COORD97":169293.81,"N_COORD97":2543584.3799999999,"ADDRESS":"前鋒路８１號四樓","OBJECTID":477712},"geometry":{"x":169293.80999999959,"y":2543584.3800000008}},{"attributes":{"ID":477738,"DIS_CODE":0,"TOWNNAME":"東區","LI":"圍下里","LIN":"20鄰","STREET":"前鋒路","SECT":" ","MAREA":" ","LANE":" ","ALLEY":" ","HOUSE_NO":"８１號五樓","E_COORD97":169293.81,"N_COORD97":2543584.3799999999,"ADDRESS":"前鋒路８１號五樓","OBJECTID":477713},"geometry":{"x":169293.80999999959,"y":2543584.3800000008}},{"attributes":{"ID":477739,"DIS_CODE":0,"TOWNNAME":"東區","LI":"圍下里","LIN":"20鄰","STREET":"前鋒路","SECT":" ","MAREA":" ","LANE":" ","ALLEY":" ","HOUSE_NO":"８１號六樓","E_COORD97":169293.81,"N_COORD97":2543584.3799999999,"ADDRESS":"前鋒路８１號六樓","OBJECTID":477714},"geometry":{"x":169293.80999999959,"y":2543584.3800000008}},{"attributes":{"ID":477740,"DIS_CODE":0,"TOWNNAME":"東區","LI":"圍下里","LIN":"20鄰","STREET":"前鋒路","SECT":" ","MAREA":" ","LANE":" ","ALLEY":" ","HOUSE_NO":"８１號七樓","E_COORD97":169293.81,"N_COORD97":2543584.3799999999,"ADDRESS":"前鋒路８１號七樓","OBJECTID":477715},"geometry":{"x":169293.80999999959,"y":2543584.3800000008}},{"attributes":{"ID":477741,"DIS_CODE":0,"TOWNNAME":"東區","LI":"圍下里","LIN":"20鄰","STREET":"前鋒路","SECT":" ","MAREA":" ","LANE":" ","ALLEY":" ","HOUSE_NO":"８３號二樓","E_COORD97":169295.42000000001,"N_COORD97":2543594.2400000002,"ADDRESS":"前鋒路８３號二樓","OBJECTID":477716},"geometry":{"x":169295.42000000179,"y":2543594.2400000002}},{"attributes":{"ID":477742,"DIS_CODE":0,"TOWNNAME":"東區","LI":"圍下里","LIN":"20鄰","STREET":"前鋒路","SECT":" ","MAREA":" ","LANE":" ","ALLEY":" ","HOUSE_NO":"８３號三樓","E_COORD97":169295.42000000001,"N_COORD97":2543594.2400000002,"ADDRESS":"前鋒路８３號三樓","OBJECTID":477717},"geometry":{"x":169295.42000000179,"y":2543594.2400000002}},{"attributes":{"ID":477743,"DIS_CODE":0,"TOWNNAME":"東區","LI":"圍下里","LIN":"20鄰","STREET":"前鋒路","SECT":" ","MAREA":" ","LANE":" ","ALLEY":" ","HOUSE_NO":"８３號四樓","E_COORD97":169295.42000000001,"N_COORD97":2543594.2400000002,"ADDRESS":"前鋒路８３號四樓","OBJECTID":477718},"geometry":{"x":169295.42000000179,"y":2543594.2400000002}},{"attributes":{"ID":477744,"DIS_CODE":0,"TOWNNAME":"東區","LI":"圍下里","LIN":"20鄰","STREET":"前鋒路","SECT":" ","MAREA":" ","LANE":" ","ALLEY":" ","HOUSE_NO":"８３號五樓","E_COORD97":169295.42000000001,"N_COORD97":2543594.2400000002,"ADDRESS":"前鋒路８３號五樓","OBJECTID":477719},"geometry":{"x":169295.42000000179,"y":2543594.2400000002}},{"attributes":{"ID":477745,"DIS_CODE":0,"TOWNNAME":"東區","LI":"圍下里","LIN":"20鄰","STREET":"前鋒路","SECT":" ","MAREA":" ","LANE":" ","ALLEY":" ","HOUSE_NO":"８３號六樓","E_COORD97":169295.42000000001,"N_COORD97":2543594.2400000002,"ADDRESS":"前鋒路８３號六樓","OBJECTID":477720},"geometry":{"x":169295.42000000179,"y":2543594.2400000002}},{"attributes":{"ID":477746,"DIS_CODE":0,"TOWNNAME":"東區","LI":"圍下里","LIN":"20鄰","STREET":"前鋒路","SECT":" ","MAREA":" ","LANE":" ","ALLEY":" ","HOUSE_NO":"８３號七樓","E_COORD97":169295.42000000001,"N_COORD97":2543594.2400000002,"ADDRESS":"前鋒路８３號七樓","OBJECTID":477721},"geometry":{"x":169295.42000000179,"y":2543594.2400000002}},{"attributes":{"ID":477747,"DIS_CODE":0,"TOWNNAME":"東區","LI":"大學里","LIN":"20鄰","STREET":"長榮路","SECT":"三段","MAREA":" ","LANE":" ","ALLEY":" ","HOUSE_NO":"２１號三樓","E_COORD97":170190.97,"N_COORD97":2543754.2999999998,"ADDRESS":"長榮路三段２１號三樓","OBJECTID":477722},"geometry":{"x":170190.96999999974,"y":2543754.3000000007}},{"attributes":{"ID":477748,"DIS_CODE":0,"TOWNNAME":"東區","LI":"大學里","LIN":"20鄰","STREET":"長榮路","SECT":"三段","MAREA":" ","LANE":" ","ALLEY":" ","HOUSE_NO":"２１號四樓","E_COORD97":170190.97,"N_COORD97":2543754.2999999998,"ADDRESS":"長榮路三段２１號四樓","OBJECTID":477723},"geometry":{"x":170190.96999999974,"y":2543754.3000000007}},{"attributes":{"ID":477749,"DIS_CODE":0,"TOWNNAME":"永康區","LI":"中華里","LIN":"20鄰","STREET":"小東路","SECT":" ","MAREA":" ","LANE":" ","ALLEY":" ","HOUSE_NO":"４７３號之６１七樓","E_COORD97":171593.10999999999,"N_COORD97":2544367.3500000001,"ADDRESS":"小東路４７３號之６１七樓","OBJECTID":477724},"geometry":{"x":171593.1100000022,"y":2544367.3500000034}},{"attributes":{"ID":477750,"DIS_CODE":0,"TOWNNAME":"永康區","LI":"中華里","LIN":"20鄰","STREET":"小東路","SECT":" ","MAREA":" ","LANE":" ","ALLEY":" ","HOUSE_NO":"４７３號之６４七樓","E_COORD97":171593.10999999999,"N_COORD97":2544367.3500000001,"ADDRESS":"小東路４７３號之６４七樓","OBJECTID":477725},"geometry":{"x":171593.1100000022,"y":2544367.3500000034}},{"attributes":{"ID":477751,"DIS_CODE":0,"TOWNNAME":"永康區","LI":"中華里","LIN":"20鄰","STREET":"小東路","SECT":" ","MAREA":" ","LANE":" ","ALLEY":" ","HOUSE_NO":"４７３號之８７九樓","E_COORD97":171590.32000000001,"N_COORD97":2544367.3500000001,"ADDRESS":"小東路４７３號之８７九樓","OBJECTID":477726},"geometry":{"x":171590.32000000123,"y":2544367.3500000034}},{"attributes":{"ID":477752,"DIS_CODE":0,"TOWNNAME":"永康區","LI":"中華里","LIN":"20鄰","STREET":"小東路","SECT":" ","MAREA":" ","LANE":" ","ALLEY":" ","HOUSE_NO":"４７３號之７５八樓","E_COORD97":171590.39999999999,"N_COORD97":2544367.3500000001,"ADDRESS":"小東路４７３號之７５八樓","OBJECTID":477727},"geometry":{"x":171590.40000000037,"y":2544367.3500000034}},{"attributes":{"ID":477753,"DIS_CODE":0,"TOWNNAME":"永康區","LI":"中華里","LIN":"20鄰","STREET":"小東路","SECT":" ","MAREA":" ","LANE":" ","ALLEY":" ","HOUSE_NO":"４７３號之６３七樓","E_COORD97":171593.10999999999,"N_COORD97":2544367.3500000001,"ADDRESS":"小東路４７３號之６３七樓","OBJECTID":477728},"geometry":{"x":171593.1100000022,"y":2544367.3500000034}},{"attributes":{"ID":477754,"DIS_CODE":0,"TOWNNAME":"永康區","LI":"中華里","LIN":"20鄰","STREET":"小東路","SECT":" ","MAREA":" ","LANE":" ","ALLEY":" ","HOUSE_NO":"４７３號之５９七樓","E_COORD97":171593.10999999999,"N_COORD97":2544367.3500000001,"ADDRESS":"小東路４７３號之５９七樓","OBJECTID":477729},"geometry":{"x":171593.1100000022,"y":2544367.3500000034}},{"attributes":{"ID":477755,"DIS_CODE":0,"TOWNNAME":"永康區","LI":"中華里","LIN":"20鄰","STREET":"小東路","SECT":" ","MAREA":" ","LANE":" ","ALLEY":" ","HOUSE_NO":"４７３號之７８八樓","E_COORD97":171590.39000000001,"N_COORD97":2544367.3500000001,"ADDRESS":"小東路４７３號之７８八樓","OBJECTID":477730},"geometry":{"x":171590.38999999873,"y":2544367.3500000034}},{"attributes":{"ID":477756,"DIS_CODE":0,"TOWNNAME":"永康區","LI":"中華里","LIN":"20鄰","STREET":"小東路","SECT":" ","MAREA":" ","LANE":" ","ALLEY":" ","HOUSE_NO":"４７３號之７７八樓","E_COORD97":171590.32000000001,"N_COORD97":2544367.3500000001,"ADDRESS":"小東路４７３號之７７八樓","OBJECTID":477731},"geometry":{"x":171590.32000000123,"y":2544367.3500000034}},{"attributes":{"ID":477757,"DIS_CODE":0,"TOWNNAME":"永康區","LI":"中華里","LIN":"20鄰","STREET":"小東路","SECT":" ","MAREA":" ","LANE":" ","ALLEY":" ","HOUSE_NO":"４７３號之４６七樓","E_COORD97":171593.10999999999,"N_COORD97":2544367.3500000001,"ADDRESS":"小東路４７３號之４６七樓","OBJECTID":477732},"geometry":{"x":171593.1100000022,"y":2544367.3500000034}},{"attributes":{"ID":477758,"DIS_CODE":0,"TOWNNAME":"永康區","LI":"中華里","LIN":"20鄰","STREET":"小東路","SECT":" ","MAREA":" ","LANE":" ","ALLEY":" ","HOUSE_NO":"４７３號之１７五樓","E_COORD97":171593.10999999999,"N_COORD97":2544367.3500000001,"ADDRESS":"小東路４７３號之１７五樓","OBJECTID":477733},"geometry":{"x":171593.1100000022,"y":2544367.3500000034}},{"attributes":{"ID":477759,"DIS_CODE":0,"TOWNNAME":"永康區","LI":"中華里","LIN":"20鄰","STREET":"小東路","SECT":" ","MAREA":" ","LANE":" ","ALLEY":" ","HOUSE_NO":"４７３號之８３九樓","E_COORD97":171590.34,"N_COORD97":2544367.3500000001,"ADDRESS":"小東路４７３號之８３九樓","OBJECTID":477734},"geometry":{"x":171590.33999999985,"y":2544367.3500000034}},{"attributes":{"ID":477760,"DIS_CODE":0,"TOWNNAME":"永康區","LI":"中華里","LIN":"20鄰","STREET":"小東路","SECT":" ","MAREA":" ","LANE":" ","ALLEY":" ","HOUSE_NO":"４７３號之８５九樓","E_COORD97":171590.39999999999,"N_COORD97":2544367.3500000001,"ADDRESS":"小東路４７３號之８５九樓","OBJECTID":477735},"geometry":{"x":171590.40000000037,"y":2544367.3500000034}},{"attributes":{"ID":477761,"DIS_CODE":0,"TOWNNAME":"永康區","LI":"中華里","LIN":"20鄰","STREET":"小東路","SECT":" ","MAREA":" ","LANE":" ","ALLEY":" ","HOUSE_NO":"４７３號之８８九樓","E_COORD97":171590.39000000001,"N_COORD97":2544367.3500000001,"ADDRESS":"小東路４７３號之８８九樓","OBJECTID":477736},"geometry":{"x":171590.38999999873,"y":2544367.3500000034}},{"attributes":{"ID":477762,"DIS_CODE":0,"TOWNNAME":"永康區","LI":"中華里","LIN":"20鄰","STREET":"小東路","SECT":" ","MAREA":" ","LANE":" ","ALLEY":" ","HOUSE_NO":"４７３號之８２九樓","E_COORD97":171590.38,"N_COORD97":2544367.3500000001,"ADDRESS":"小東路４７３號之８２九樓","OBJECTID":477737},"geometry":{"x":171590.37999999989,"y":2544367.3500000034}},{"attributes":{"ID":477763,"DIS_CODE":0,"TOWNNAME":"永康區","LI":"中華里","LIN":"20鄰","STREET":"小東路","SECT":" ","MAREA":" ","LANE":" ","ALLEY":" ","HOUSE_NO":"４７３號之７４八樓","E_COORD97":171590.26999999999,"N_COORD97":2544367.3500000001,"ADDRESS":"小東路４７３號之７４八樓","OBJECTID":477738},"geometry":{"x":171590.27000000048,"y":2544367.3500000034}},{"attributes":{"ID":477764,"DIS_CODE":0,"TOWNNAME":"永康區","LI":"中華里","LIN":"20鄰","STREET":"小東路","SECT":" ","MAREA":" ","LANE":" ","ALLEY":" ","HOUSE_NO":"４７３號之５３七樓","E_COORD97":171593.10999999999,"N_COORD97":2544367.3500000001,"ADDRESS":"小東路４７３號之５３七樓","OBJECTID":477739},"geometry":{"x":171593.1100000022,"y":2544367.3500000034}},{"attributes":{"ID":477765,"DIS_CODE":0,"TOWNNAME":"永康區","LI":"中華里","LIN":"20鄰","STREET":"小東路","SECT":" ","MAREA":" ","LANE":" ","ALLEY":" ","HOUSE_NO":"４７３號之６５八樓","E_COORD97":171593.10999999999,"N_COORD97":2544367.3500000001,"ADDRESS":"小東路４７３號之６５八樓","OBJECTID":477740},"geometry":{"x":171593.1100000022,"y":2544367.3500000034}},{"attributes":{"ID":477766,"DIS_CODE":0,"TOWNNAME":"永康區","LI":"中華里","LIN":"20鄰","STREET":"小東路","SECT":" ","MAREA":" ","LANE":" ","ALLEY":" ","HOUSE_NO":"４７３號之６０七樓","E_COORD97":171593.10999999999,"N_COORD97":2544367.3500000001,"ADDRESS":"小東路４７３號之６０七樓","OBJECTID":477741},"geometry":{"x":171593.1100000022,"y":2544367.3500000034}},{"attributes":{"ID":477767,"DIS_CODE":0,"TOWNNAME":"永康區","LI":"中華里","LIN":"20鄰","STREET":"小東路","SECT":" ","MAREA":" ","LANE":" ","ALLEY":" ","HOUSE_NO":"４７３號之８６九樓","E_COORD97":171590.35000000001,"N_COORD97":2544367.3500000001,"ADDRESS":"小東路４７３號之８６九樓","OBJECTID":477742},"geometry":{"x":171590.34999999963,"y":2544367.3500000034}},{"attributes":{"ID":477768,"DIS_CODE":0,"TOWNNAME":"永康區","LI":"中華里","LIN":"20鄰","STREET":"小東路","SECT":" ","MAREA":" ","LANE":" ","ALLEY":" ","HOUSE_NO":"４７３號之６９九樓","E_COORD97":171593.10999999999,"N_COORD97":2544367.3500000001,"ADDRESS":"小東路４７３號之６９九樓","OBJECTID":477743},"geometry":{"x":171593.1100000022,"y":2544367.3500000034}},{"attributes":{"ID":477769,"DIS_CODE":0,"TOWNNAME":"永康區","LI":"中華里","LIN":"20鄰","STREET":"小東路","SECT":" ","MAREA":" ","LANE":" ","ALLEY":" ","HOUSE_NO":"４７３號之２６六樓","E_COORD97":171593.10999999999,"N_COORD97":2544367.3500000001,"ADDRESS":"小東路４７３號之２６六樓","OBJECTID":477744},"geometry":{"x":171593.1100000022,"y":2544367.3500000034}},{"attributes":{"ID":477770,"DIS_CODE":0,"TOWNNAME":"永康區","LI":"中華里","LIN":"20鄰","STREET":"小東路","SECT":" ","MAREA":" ","LANE":" ","ALLEY":" ","HOUSE_NO":"４７３號之２０六樓","E_COORD97":171593.10999999999,"N_COORD97":2544367.3500000001,"ADDRESS":"小東路４７３號之２０六樓","OBJECTID":477745},"geometry":{"x":171593.1100000022,"y":2544367.3500000034}},{"attributes":{"ID":477771,"DIS_CODE":0,"TOWNNAME":"永康區","LI":"中華里","LIN":"20鄰","STREET":"小東路","SECT":" ","MAREA":" ","LANE":" ","ALLEY":" ","HOUSE_NO":"４７３號之５７七樓","E_COORD97":171593.10999999999,"N_COORD97":2544367.3500000001,"ADDRESS":"小東路４７３號之５７七樓","OBJECTID":477746},"geometry":{"x":171593.1100000022,"y":2544367.3500000034}},{"attributes":{"ID":477772,"DIS_CODE":0,"TOWNNAME":"永康區","LI":"中華里","LIN":"20鄰","STREET":"小東路","SECT":" ","MAREA":" ","LANE":" ","ALLEY":" ","HOUSE_NO":"４７３號之５０七樓","E_COORD97":171593.10999999999,"N_COORD97":2544367.3500000001,"ADDRESS":"小東路４７３號之５０七樓","OBJECTID":477747},"geometry":{"x":171593.1100000022,"y":2544367.3500000034}},{"attributes":{"ID":477773,"DIS_CODE":0,"TOWNNAME":"永康區","LI":"中華里","LIN":"20鄰","STREET":"小東路","SECT":" ","MAREA":" ","LANE":" ","ALLEY":" ","HOUSE_NO":"４７３號之７２十樓","E_COORD97":171593.10999999999,"N_COORD97":2544367.3500000001,"ADDRESS":"小東路４７３號之７２十樓","OBJECTID":477748},"geometry":{"x":171593.1100000022,"y":2544367.3500000034}},{"attributes":{"ID":477774,"DIS_CODE":0,"TOWNNAME":"永康區","LI":"中華里","LIN":"20鄰","STREET":"小東路","SECT":" ","MAREA":" ","LANE":" ","ALLEY":" ","HOUSE_NO":"４７３號之２５六樓","E_COORD97":171593.10999999999,"N_COORD97":2544367.3500000001,"ADDRESS":"小東路４７３號之２５六樓","OBJECTID":477749},"geometry":{"x":171593.1100000022,"y":2544367.3500000034}},{"attributes":{"ID":477775,"DIS_CODE":0,"TOWNNAME":"永康區","LI":"中華里","LIN":"20鄰","STREET":"小東路","SECT":" ","MAREA":" ","LANE":" ","ALLEY":" ","HOUSE_NO":"４７３號之４７七樓","E_COORD97":171593.10999999999,"N_COORD97":2544367.3500000001,"ADDRESS":"小東路４７３號之４７七樓","OBJECTID":477750},"geometry":{"x":171593.1100000022,"y":2544367.3500000034}},{"attributes":{"ID":477776,"DIS_CODE":0,"TOWNNAME":"永康區","LI":"中華里","LIN":"20鄰","STREET":"小東路","SECT":" ","MAREA":" ","LANE":" ","ALLEY":" ","HOUSE_NO":"４７３號之２８六樓","E_COORD97":171593.10999999999,"N_COORD97":2544367.3500000001,"ADDRESS":"小東路４７３號之２８六樓","OBJECTID":477751},"geometry":{"x":171593.1100000022,"y":2544367.3500000034}},{"attributes":{"ID":477777,"DIS_CODE":0,"TOWNNAME":"永康區","LI":"中華里","LIN":"20鄰","STREET":"小東路","SECT":" ","MAREA":" ","LANE":" ","ALLEY":" ","HOUSE_NO":"４７３號之２４六樓","E_COORD97":171593.10999999999,"N_COORD97":2544367.3500000001,"ADDRESS":"小東路４７３號之２４六樓","OBJECTID":477752},"geometry":{"x":171593.1100000022,"y":2544367.3500000034}},{"attributes":{"ID":477778,"DIS_CODE":0,"TOWNNAME":"永康區","LI":"中華里","LIN":"20鄰","STREET":"小東路","SECT":" ","MAREA":" ","LANE":" ","ALLEY":" ","HOUSE_NO":"４７３號之３１六樓","E_COORD97":171593.10999999999,"N_COORD97":2544367.3500000001,"ADDRESS":"小東路４７３號之３１六樓","OBJECTID":477753},"geometry":{"x":171593.1100000022,"y":2544367.3500000034}},{"attributes":{"ID":477779,"DIS_CODE":0,"TOWNNAME":"永康區","LI":"中華里","LIN":"20鄰","STREET":"小東路","SECT":" ","MAREA":" ","LANE":" ","ALLEY":" ","HOUSE_NO":"４７３號之７９九樓","E_COORD97":171593.10999999999,"N_COORD97":2544367.3500000001,"ADDRESS":"小東路４７３號之７９九樓","OBJECTID":477754},"geometry":{"x":171593.1100000022,"y":2544367.3500000034}},{"attributes":{"ID":477780,"DIS_CODE":0,"TOWNNAME":"永康區","LI":"中華里","LIN":"20鄰","STREET":"小東路","SECT":" ","MAREA":" ","LANE":" ","ALLEY":" ","HOUSE_NO":"４７３號之１３四樓","E_COORD97":171593.10999999999,"N_COORD97":2544367.3500000001,"ADDRESS":"小東路４７３號之１３四樓","OBJECTID":477755},"geometry":{"x":171593.1100000022,"y":2544367.3500000034}},{"attributes":{"ID":477781,"DIS_CODE":0,"TOWNNAME":"永康區","LI":"中華里","LIN":"20鄰","STREET":"小東路","SECT":" ","MAREA":" ","LANE":" ","ALLEY":" ","HOUSE_NO":"４７３號之６８九樓","E_COORD97":171593.10999999999,"N_COORD97":2544367.3500000001,"ADDRESS":"小東路４７３號之６８九樓","OBJECTID":477756},"geometry":{"x":171593.1100000022,"y":2544367.3500000034}},{"attributes":{"ID":477782,"DIS_CODE":0,"TOWNNAME":"永康區","LI":"中華里","LIN":"20鄰","STREET":"小東路","SECT":" ","MAREA":" ","LANE":" ","ALLEY":" ","HOUSE_NO":"４７３號之７０九樓","E_COORD97":171593.10999999999,"N_COORD97":2544367.3500000001,"ADDRESS":"小東路４７３號之７０九樓","OBJECTID":477757},"geometry":{"x":171593.1100000022,"y":2544367.3500000034}},{"attributes":{"ID":477783,"DIS_CODE":0,"TOWNNAME":"永康區","LI":"中華里","LIN":"20鄰","STREET":"小東路","SECT":" ","MAREA":" ","LANE":" ","ALLEY":" ","HOUSE_NO":"４７３號之４０六樓","E_COORD97":171593.10999999999,"N_COORD97":2544367.3500000001,"ADDRESS":"小東路４７３號之４０六樓","OBJECTID":477758},"geometry":{"x":171593.1100000022,"y":2544367.3500000034}},{"attributes":{"ID":477784,"DIS_CODE":0,"TOWNNAME":"永康區","LI":"中華里","LIN":"20鄰","STREET":"小東路","SECT":" ","MAREA":" ","LANE":" ","ALLEY":" ","HOUSE_NO":"４７３號之３６六樓","E_COORD97":171593.10999999999,"N_COORD97":2544367.3500000001,"ADDRESS":"小東路４７３號之３６六樓","OBJECTID":477759},"geometry":{"x":171593.1100000022,"y":2544367.3500000034}},{"attributes":{"ID":477785,"DIS_CODE":0,"TOWNNAME":"永康區","LI":"中華里","LIN":"20鄰","STREET":"小東路","SECT":" ","MAREA":" ","LANE":" ","ALLEY":" ","HOUSE_NO":"４７３號之８１九樓","E_COORD97":171590.23999999999,"N_COORD97":2544367.3500000001,"ADDRESS":"小東路４７３號之８１九樓","OBJECTID":477760},"geometry":{"x":171590.24000000022,"y":2544367.3500000034}},{"attributes":{"ID":477786,"DIS_CODE":0,"TOWNNAME":"永康區","LI":"中華里","LIN":"20鄰","STREET":"小東路","SECT":" ","MAREA":" ","LANE":" ","ALLEY":" ","HOUSE_NO":"４７３號之５６七樓","E_COORD97":171593.10999999999,"N_COORD97":2544367.3500000001,"ADDRESS":"小東路４７３號之５６七樓","OBJECTID":477761},"geometry":{"x":171593.1100000022,"y":2544367.3500000034}},{"attributes":{"ID":477787,"DIS_CODE":0,"TOWNNAME":"永康區","LI":"中華里","LIN":"20鄰","STREET":"小東路","SECT":" ","MAREA":" ","LANE":" ","ALLEY":" ","HOUSE_NO":"４７３號之７３十一樓","E_COORD97":171594.35999999999,"N_COORD97":2544367.3500000001,"ADDRESS":"小東路４７３號之７３十一樓","OBJECTID":477762},"geometry":{"x":171594.36000000034,"y":2544367.3500000034}},{"attributes":{"ID":477788,"DIS_CODE":0,"TOWNNAME":"永康區","LI":"中華里","LIN":"20鄰","STREET":"小東路","SECT":" ","MAREA":" ","LANE":" ","ALLEY":" ","HOUSE_NO":"４７３號之７６八樓","E_COORD97":171590.35000000001,"N_COORD97":2544367.3500000001,"ADDRESS":"小東路４７３號之７６八樓","OBJECTID":477763},"geometry":{"x":171590.34999999963,"y":2544367.3500000034}},{"attributes":{"ID":477789,"DIS_CODE":0,"TOWNNAME":"永康區","LI":"中華里","LIN":"20鄰","STREET":"小東路","SECT":" ","MAREA":" ","LANE":" ","ALLEY":" ","HOUSE_NO":"４７３號之５８七樓","E_COORD97":171593.10999999999,"N_COORD97":2544367.3500000001,"ADDRESS":"小東路４７３號之５８七樓","OBJECTID":477764},"geometry":{"x":171593.1100000022,"y":2544367.3500000034}},{"attributes":{"ID":477790,"DIS_CODE":0,"TOWNNAME":"永康區","LI":"中華里","LIN":"20鄰","STREET":"小東路","SECT":" ","MAREA":" ","LANE":" ","ALLEY":" ","HOUSE_NO":"４７３號之１２三樓","E_COORD97":171593.10999999999,"N_COORD97":2544367.3500000001,"ADDRESS":"小東路４７３號之１２三樓","OBJECTID":477765},"geometry":{"x":171593.1100000022,"y":2544367.3500000034}},{"attributes":{"ID":477791,"DIS_CODE":0,"TOWNNAME":"永康區","LI":"中華里","LIN":"20鄰","STREET":"小東路","SECT":" ","MAREA":" ","LANE":" ","ALLEY":" ","HOUSE_NO":"４７３號之６７九樓","E_COORD97":171593.10999999999,"N_COORD97":2544367.3500000001,"ADDRESS":"小東路４７３號之６７九樓","OBJECTID":477766},"geometry":{"x":171593.1100000022,"y":2544367.3500000034}},{"attributes":{"ID":477792,"DIS_CODE":0,"TOWNNAME":"永康區","LI":"中華里","LIN":"20鄰","STREET":"小東路","SECT":" ","MAREA":" ","LANE":" ","ALLEY":" ","HOUSE_NO":"４７３號之６６八樓","E_COORD97":171593.10999999999,"N_COORD97":2544367.3500000001,"ADDRESS":"小東路４７３號之６６八樓","OBJECTID":477767},"geometry":{"x":171593.1100000022,"y":2544367.3500000034}},{"attributes":{"ID":477793,"DIS_CODE":0,"TOWNNAME":"永康區","LI":"中華里","LIN":"20鄰","STREET":"小東路","SECT":" ","MAREA":" ","LANE":" ","ALLEY":" ","HOUSE_NO":"４７３號之８４九樓","E_COORD97":171590.26999999999,"N_COORD97":2544367.3500000001,"ADDRESS":"小東路４７３號之８４九樓","OBJECTID":477768},"geometry":{"x":171590.27000000048,"y":2544367.3500000034}},{"attributes":{"ID":477794,"DIS_CODE":0,"TOWNNAME":"永康區","LI":"中華里","LIN":"20鄰","STREET":"小東路","SECT":" ","MAREA":" ","LANE":" ","ALLEY":" ","HOUSE_NO":"４７３號之１５四樓","E_COORD97":171593.10999999999,"N_COORD97":2544367.3500000001,"ADDRESS":"小東路４７３號之１５四樓","OBJECTID":477769},"geometry":{"x":171593.1100000022,"y":2544367.3500000034}},{"attributes":{"ID":477795,"DIS_CODE":0,"TOWNNAME":"永康區","LI":"中華里","LIN":"20鄰","STREET":"小東路","SECT":" ","MAREA":" ","LANE":" ","ALLEY":" ","HOUSE_NO":"４７３號之７１十樓","E_COORD97":171593.10999999999,"N_COORD97":2544367.3500000001,"ADDRESS":"小東路４７３號之７１十樓","OBJECTID":477770},"geometry":{"x":171593.1100000022,"y":2544367.3500000034}},{"attributes":{"ID":477796,"DIS_CODE":0,"TOWNNAME":"永康區","LI":"中華里","LIN":"20鄰","STREET":"小東路","SECT":" ","MAREA":" ","LANE":" ","ALLEY":" ","HOUSE_NO":"４７３號之４５六樓","E_COORD97":171593.10999999999,"N_COORD97":2544367.3500000001,"ADDRESS":"小東路４７３號之４５六樓","OBJECTID":477771},"geometry":{"x":171593.1100000022,"y":2544367.3500000034}},{"attributes":{"ID":477797,"DIS_CODE":0,"TOWNNAME":"永康區","LI":"中華里","LIN":"20鄰","STREET":"小東路","SECT":" ","MAREA":" ","LANE":" ","ALLEY":" ","HOUSE_NO":"４７３號之３３六樓","E_COORD97":171593.10999999999,"N_COORD97":2544367.3500000001,"ADDRESS":"小東路４７３號之３３六樓","OBJECTID":477772},"geometry":{"x":171593.1100000022,"y":2544367.3500000034}},{"attributes":{"ID":477798,"DIS_CODE":0,"TOWNNAME":"永康區","LI":"中華里","LIN":"20鄰","STREET":"小東路","SECT":" ","MAREA":" ","LANE":" ","ALLEY":" ","HOUSE_NO":"４７３號之４４六樓","E_COORD97":171593.10999999999,"N_COORD97":2544367.3500000001,"ADDRESS":"小東路４７３號之４４六樓","OBJECTID":477773},"geometry":{"x":171593.1100000022,"y":2544367.3500000034}},{"attributes":{"ID":477799,"DIS_CODE":0,"TOWNNAME":"永康區","LI":"中華里","LIN":"20鄰","STREET":"小東路","SECT":" ","MAREA":" ","LANE":" ","ALLEY":" ","HOUSE_NO":"４７３號之２９六樓","E_COORD97":171593.10999999999,"N_COORD97":2544367.3500000001,"ADDRESS":"小東路４７３號之２９六樓","OBJECTID":477774},"geometry":{"x":171593.1100000022,"y":2544367.3500000034}},{"attributes":{"ID":477800,"DIS_CODE":0,"TOWNNAME":"永康區","LI":"中華里","LIN":"20鄰","STREET":"小東路","SECT":" ","MAREA":" ","LANE":" ","ALLEY":" ","HOUSE_NO":"４７３號之８０九樓","E_COORD97":171590.29000000001,"N_COORD97":2544367.3500000001,"ADDRESS":"小東路４７３號之８０九樓","OBJECTID":477775},"geometry":{"x":171590.29000000097,"y":2544367.3500000034}},{"attributes":{"ID":477801,"DIS_CODE":0,"TOWNNAME":"永康區","LI":"中華里","LIN":"20鄰","STREET":"小東路","SECT":" ","MAREA":" ","LANE":" ","ALLEY":" ","HOUSE_NO":"４７３號之２３六樓","E_COORD97":171593.10999999999,"N_COORD97":2544367.3500000001,"ADDRESS":"小東路４７３號之２３六樓","OBJECTID":477776},"geometry":{"x":171593.1100000022,"y":2544367.3500000034}},{"attributes":{"ID":477802,"DIS_CODE":0,"TOWNNAME":"永康區","LI":"中華里","LIN":"20鄰","STREET":"小東路","SECT":" ","MAREA":" ","LANE":" ","ALLEY":" ","HOUSE_NO":"４７３號之１４四樓","E_COORD97":171593.10999999999,"N_COORD97":2544367.3500000001,"ADDRESS":"小東路４７３號之１４四樓","OBJECTID":477777},"geometry":{"x":171593.1100000022,"y":2544367.3500000034}},{"attributes":{"ID":477803,"DIS_CODE":0,"TOWNNAME":"永康區","LI":"中華里","LIN":"20鄰","STREET":"小東路","SECT":" ","MAREA":" ","LANE":" ","ALLEY":" ","HOUSE_NO":"４７３號之４１六樓","E_COORD97":171593.10999999999,"N_COORD97":2544367.3500000001,"ADDRESS":"小東路４７３號之４１六樓","OBJECTID":477778},"geometry":{"x":171593.1100000022,"y":2544367.3500000034}},{"attributes":{"ID":477804,"DIS_CODE":0,"TOWNNAME":"永康區","LI":"中華里","LIN":"20鄰","STREET":"小東路","SECT":" ","MAREA":" ","LANE":" ","ALLEY":" ","HOUSE_NO":"４７３號之３４六樓","E_COORD97":171593.10999999999,"N_COORD97":2544367.3500000001,"ADDRESS":"小東路４７３號之３４六樓","OBJECTID":477779},"geometry":{"x":171593.1100000022,"y":2544367.3500000034}},{"attributes":{"ID":477805,"DIS_CODE":0,"TOWNNAME":"永康區","LI":"中華里","LIN":"20鄰","STREET":"小東路","SECT":" ","MAREA":" ","LANE":" ","ALLEY":" ","HOUSE_NO":"４７３號之２２六樓","E_COORD97":171593.10999999999,"N_COORD97":2544367.3500000001,"ADDRESS":"小東路４７３號之２２六樓","OBJECTID":477780},"geometry":{"x":171593.1100000022,"y":2544367.3500000034}},{"attributes":{"ID":477806,"DIS_CODE":0,"TOWNNAME":"永康區","LI":"中華里","LIN":"20鄰","STREET":"小東路","SECT":" ","MAREA":" ","LANE":" ","ALLEY":" ","HOUSE_NO":"４７３號之３５六樓","E_COORD97":171593.10999999999,"N_COORD97":2544367.3500000001,"ADDRESS":"小東路４７３號之３５六樓","OBJECTID":477781},"geometry":{"x":171593.1100000022,"y":2544367.3500000034}},{"attributes":{"ID":477807,"DIS_CODE":0,"TOWNNAME":"永康區","LI":"中華里","LIN":"20鄰","STREET":"小東路","SECT":" ","MAREA":" ","LANE":" ","ALLEY":" ","HOUSE_NO":"４７３號之１６五樓","E_COORD97":171593.10999999999,"N_COORD97":2544367.3500000001,"ADDRESS":"小東路４７３號之１６五樓","OBJECTID":477782},"geometry":{"x":171593.1100000022,"y":2544367.3500000034}},{"attributes":{"ID":477808,"DIS_CODE":0,"TOWNNAME":"永康區","LI":"中華里","LIN":"20鄰","STREET":"小東路","SECT":" ","MAREA":" ","LANE":" ","ALLEY":" ","HOUSE_NO":"４７３號之１８五樓","E_COORD97":171593.10999999999,"N_COORD97":2544367.3500000001,"ADDRESS":"小東路４７３號之１８五樓","OBJECTID":477783},"geometry":{"x":171593.1100000022,"y":2544367.3500000034}},{"attributes":{"ID":477809,"DIS_CODE":0,"TOWNNAME":"中西區","LI":"仙草里","LIN":"20鄰","STREET":"健康路","SECT":"一段","MAREA":" ","LANE":" ","ALLEY":" ","HOUSE_NO":"３９６號一樓之１","E_COORD97":167805.69,"N_COORD97":2542490.52,"ADDRESS":"健康路一段３９６號一樓之１","OBJECTID":477784},"geometry":{"x":167805.69000000227,"y":2542490.5199999996}},{"attributes":{"ID":477810,"DIS_CODE":0,"TOWNNAME":"中西區","LI":"仙草里","LIN":"20鄰","STREET":"健康路","SECT":"一段","MAREA":" ","LANE":" ","ALLEY":" ","HOUSE_NO":"３９６號一樓之１０","E_COORD97":167805.69,"N_COORD97":2542489.6299999999,"ADDRESS":"健康路一段３９６號一樓之１０","OBJECTID":477785},"geometry":{"x":167805.69000000227,"y":2542489.6299999971}},{"attributes":{"ID":477811,"DIS_CODE":0,"TOWNNAME":"中西區","LI":"仙草里","LIN":"20鄰","STREET":"健康路","SECT":"一段","MAREA":" ","LANE":" ","ALLEY":" ","HOUSE_NO":"３９６號一樓之１１","E_COORD97":167805.69,"N_COORD97":2542488.7400000002,"ADDRESS":"健康路一段３９６號一樓之１１","OBJECTID":477786},"geometry":{"x":167805.69000000227,"y":2542488.7400000002}},{"attributes":{"ID":477812,"DIS_CODE":0,"TOWNNAME":"中西區","LI":"仙草里","LIN":"20鄰","STREET":"健康路","SECT":"一段","MAREA":" ","LANE":" ","ALLEY":" ","HOUSE_NO":"３９６號一樓之１２","E_COORD97":167805.69,"N_COORD97":2542487.8399999999,"ADDRESS":"健康路一段３９６號一樓之１２","OBJECTID":477787},"geometry":{"x":167805.69000000227,"y":2542487.8399999999}},{"attributes":{"ID":477813,"DIS_CODE":0,"TOWNNAME":"中西區","LI":"仙草里","LIN":"20鄰","STREET":"健康路","SECT":"一段","MAREA":" ","LANE":" ","ALLEY":" ","HOUSE_NO":"３９６號一樓之１３","E_COORD97":167805.69,"N_COORD97":2542486.9500000002,"ADDRESS":"健康路一段３９６號一樓之１３","OBJECTID":477788},"geometry":{"x":167805.69000000227,"y":2542486.9499999993}},{"attributes":{"ID":477814,"DIS_CODE":0,"TOWNNAME":"中西區","LI":"仙草里","LIN":"20鄰","STREET":"健康路","SECT":"一段","MAREA":" ","LANE":" ","ALLEY":" ","HOUSE_NO":"３９６號一樓之１４","E_COORD97":167805.69,"N_COORD97":2542486.0600000001,"ADDRESS":"健康路一段３９６號一樓之１４","OBJECTID":477789},"geometry":{"x":167805.69000000227,"y":2542486.0600000024}},{"attributes":{"ID":477815,"DIS_CODE":0,"TOWNNAME":"中西區","LI":"仙草里","LIN":"20鄰","STREET":"健康路","SECT":"一段","MAREA":" ","LANE":" ","ALLEY":" ","HOUSE_NO":"３９６號一樓之１５","E_COORD97":167805.69,"N_COORD97":2542485.1699999999,"ADDRESS":"健康路一段３９６號一樓之１５","OBJECTID":477790},"geometry":{"x":167805.69000000227,"y":2542485.1700000018}},{"attributes":{"ID":477816,"DIS_CODE":0,"TOWNNAME":"中西區","LI":"仙草里","LIN":"20鄰","STREET":"健康路","SECT":"一段","MAREA":" ","LANE":" ","ALLEY":" ","HOUSE_NO":"３９６號十二樓之１２","E_COORD97":167805.69,"N_COORD97":2542490.52,"ADDRESS":"健康路一段３９６號十二樓之１２","OBJECTID":477791},"geometry":{"x":167805.69000000227,"y":2542490.5199999996}},{"attributes":{"ID":477817,"DIS_CODE":0,"TOWNNAME":"中西區","LI":"仙草里","LIN":"20鄰","STREET":"健康路","SECT":"一段","MAREA":" ","LANE":" ","ALLEY":" ","HOUSE_NO":"３９６號十二樓之１３","E_COORD97":167805.69,"N_COORD97":2542490.52,"ADDRESS":"健康路一段３９６號十二樓之１３","OBJECTID":477792},"geometry":{"x":167805.69000000227,"y":2542490.5199999996}},{"attributes":{"ID":477818,"DIS_CODE":0,"TOWNNAME":"中西區","LI":"仙草里","LIN":"20鄰","STREET":"健康路","SECT":"一段","MAREA":" ","LANE":" ","ALLEY":" ","HOUSE_NO":"３９６號十二樓之１４","E_COORD97":167805.69,"N_COORD97":2542490.52,"ADDRESS":"健康路一段３９６號十二樓之１４","OBJECTID":477793},"geometry":{"x":167805.69000000227,"y":2542490.5199999996}},{"attributes":{"ID":477819,"DIS_CODE":0,"TOWNNAME":"中西區","LI":"仙草里","LIN":"20鄰","STREET":"健康路","SECT":"一段","MAREA":" ","LANE":" ","ALLEY":" ","HOUSE_NO":"３９６號十二樓之１５","E_COORD97":167805.69,"N_COORD97":2542490.52,"ADDRESS":"健康路一段３９６號十二樓之１５","OBJECTID":477794},"geometry":{"x":167805.69000000227,"y":2542490.5199999996}},{"attributes":{"ID":477820,"DIS_CODE":0,"TOWNNAME":"中西區","LI":"仙草里","LIN":"20鄰","STREET":"健康路","SECT":"一段","MAREA":" ","LANE":" ","ALLEY":" ","HOUSE_NO":"３９６號十二樓之１６","E_COORD97":167805.69,"N_COORD97":2542490.52,"ADDRESS":"健康路一段３９６號十二樓之１６","OBJECTID":477795},"geometry":{"x":167805.69000000227,"y":2542490.5199999996}},{"attributes":{"ID":477821,"DIS_CODE":0,"TOWNNAME":"中西區","LI":"仙草里","LIN":"20鄰","STREET":"健康路","SECT":"一段","MAREA":" ","LANE":" ","ALLEY":" ","HOUSE_NO":"３９６號十二樓之１７","E_COORD97":167805.69,"N_COORD97":2542490.52,"ADDRESS":"健康路一段３９６號十二樓之１７","OBJECTID":477796},"geometry":{"x":167805.69000000227,"y":2542490.5199999996}},{"attributes":{"ID":477822,"DIS_CODE":0,"TOWNNAME":"中西區","LI":"仙草里","LIN":"20鄰","STREET":"健康路","SECT":"一段","MAREA":" ","LANE":" ","ALLEY":" ","HOUSE_NO":"３９６號十二樓之１８","E_COORD97":167805.69,"N_COORD97":2542490.52,"ADDRESS":"健康路一段３９６號十二樓之１８","OBJECTID":477797},"geometry":{"x":167805.69000000227,"y":2542490.5199999996}},{"attributes":{"ID":477823,"DIS_CODE":0,"TOWNNAME":"中西區","LI":"仙草里","LIN":"20鄰","STREET":"健康路","SECT":"一段","MAREA":" ","LANE":" ","ALLEY":" ","HOUSE_NO":"３９６號十二樓之１９","E_COORD97":167805.69,"N_COORD97":2542490.52,"ADDRESS":"健康路一段３９６號十二樓之１９","OBJECTID":477798},"geometry":{"x":167805.69000000227,"y":2542490.5199999996}},{"attributes":{"ID":477824,"DIS_CODE":0,"TOWNNAME":"中西區","LI":"仙草里","LIN":"20鄰","STREET":"健康路","SECT":"一段","MAREA":" ","LANE":" ","ALLEY":" ","HOUSE_NO":"３９６號十二樓之２","E_COORD97":167805.69,"N_COORD97":2542490.52,"ADDRESS":"健康路一段３９６號十二樓之２","OBJECTID":477799},"geometry":{"x":167805.69000000227,"y":2542490.5199999996}},{"attributes":{"ID":477825,"DIS_CODE":0,"TOWNNAME":"中西區","LI":"仙草里","LIN":"20鄰","STREET":"健康路","SECT":"一段","MAREA":" ","LANE":" ","ALLEY":" ","HOUSE_NO":"３９６號十二樓之３","E_COORD97":167805.69,"N_COORD97":2542490.52,"ADDRESS":"健康路一段３９６號十二樓之３","OBJECTID":477800},"geometry":{"x":167805.69000000227,"y":2542490.5199999996}}]}