{"displayFieldName":"TOWNNAME","fieldAliases":{"ID":"ID","DIS_CODE":"DIS_CODE","TOWNNAME":"TOWNNAME","LI":"LI","LIN":"LIN","STREET":"STREET","SECT":"SECT","MAREA":"MAREA","LANE":"LANE","ALLEY":"ALLEY","HOUSE_NO":"HOUSE_NO","E_COORD97":"E_COORD97","N_COORD97":"N_COORD97","ADDRESS":"ADDRESS","OBJECTID":"OBJECTID"},"geometryType":"esriGeometryPoint","spatialReference":{"wkid":102443,"latestWkid":3826},"fields":[{"name":"ID","type":"esriFieldTypeDouble","alias":"ID"},{"name":"DIS_CODE","type":"esriFieldTypeInteger","alias":"DIS_CODE"},{"name":"TOWNNAME","type":"esriFieldTypeString","alias":"TOWNNAME","length":8},{"name":"LI","type":"esriFieldTypeString","alias":"LI","length":8},{"name":"LIN","type":"esriFieldTypeString","alias":"LIN","length":12},{"name":"STREET","type":"esriFieldTypeString","alias":"STREET","length":20},{"name":"SECT","type":"esriFieldTypeString","alias":"SECT","length":8},{"name":"MAREA","type":"esriFieldTypeString","alias":"MAREA","length":12},{"name":"LANE","type":"esriFieldTypeString","alias":"LANE","length":10},{"name":"ALLEY","type":"esriFieldTypeString","alias":"ALLEY","length":10},{"name":"HOUSE_NO","type":"esriFieldTypeString","alias":"HOUSE_NO","length":20},{"name":"E_COORD97","type":"esriFieldTypeDouble","alias":"E_COORD97"},{"name":"N_COORD97","type":"esriFieldTypeDouble","alias":"N_COORD97"},{"name":"ADDRESS","type":"esriFieldTypeString","alias":"ADDRESS","length":50},{"name":"OBJECTID","type":"esriFieldTypeOID","alias":"OBJECTID"}],"features":[{"attributes":{"ID":340210,"DIS_CODE":0,"TOWNNAME":"南區","LI":"喜東里","LIN":"1鄰","STREET":"明興路","SECT":" ","MAREA":" ","LANE":"３２１巷","ALLEY":" ","HOUSE_NO":"２３號之６","E_COORD97":166513.85000000001,"N_COORD97":2538947.8199999998,"ADDRESS":"明興路３２１巷２３號之６","OBJECTID":340201},"geometry":{"x":166513.85000000056,"y":2538947.8200000022}},{"attributes":{"ID":340211,"DIS_CODE":0,"TOWNNAME":"南區","LI":"建南里","LIN":"1鄰","STREET":"中華南路","SECT":"二段","MAREA":" ","LANE":"５３巷","ALLEY":" ","HOUSE_NO":"１０３號","E_COORD97":167378.59,"N_COORD97":2540076.3700000001,"ADDRESS":"中華南路二段５３巷１０３號","OBJECTID":340202},"geometry":{"x":167378.59000000171,"y":2540076.3700000048}},{"attributes":{"ID":340212,"DIS_CODE":0,"TOWNNAME":"新營區","LI":"太南里","LIN":"5鄰","STREET":" ","SECT":" ","MAREA":"太子宮","LANE":" ","ALLEY":" ","HOUSE_NO":"３２５之１號","E_COORD97":176340.5,"N_COORD97":2576862.8999999999,"ADDRESS":"太子宮３２５之１號","OBJECTID":340203},"geometry":{"x":176340.50000000093,"y":2576862.9000000004}},{"attributes":{"ID":340213,"DIS_CODE":0,"TOWNNAME":"新營區","LI":"太北里","LIN":"5鄰","STREET":" ","SECT":" ","MAREA":"太子宮","LANE":" ","ALLEY":" ","HOUSE_NO":"３８號","E_COORD97":175886.31,"N_COORD97":2577205.0800000001,"ADDRESS":"太子宮３８號","OBJECTID":340204},"geometry":{"x":175886.30999999959,"y":2577205.0800000001}},{"attributes":{"ID":340214,"DIS_CODE":0,"TOWNNAME":"南區","LI":"建南里","LIN":"1鄰","STREET":"中華南路","SECT":"二段","MAREA":" ","LANE":"５３巷","ALLEY":" ","HOUSE_NO":"１０５號","E_COORD97":167377.60000000001,"N_COORD97":2540072.6499999999,"ADDRESS":"中華南路二段５３巷１０５號","OBJECTID":340205},"geometry":{"x":167377.59999999963,"y":2540072.6500000004}},{"attributes":{"ID":340215,"DIS_CODE":0,"TOWNNAME":"新營區","LI":"埤寮里","LIN":"5鄰","STREET":" ","SECT":" ","MAREA":"埤寮","LANE":" ","ALLEY":" ","HOUSE_NO":"８之１１號","E_COORD97":180213.39000000001,"N_COORD97":2581017.0299999998,"ADDRESS":"埤寮８之１１號","OBJECTID":340206},"geometry":{"x":180213.38999999966,"y":2581017.0300000012}},{"attributes":{"ID":340216,"DIS_CODE":0,"TOWNNAME":"新營區","LI":"嘉芳里","LIN":"5鄰","STREET":" ","SECT":" ","MAREA":"茄苳腳","LANE":" ","ALLEY":" ","HOUSE_NO":"６０之３號","E_COORD97":176901.62,"N_COORD97":2578482.54,"ADDRESS":"茄苳腳６０之３號","OBJECTID":340207},"geometry":{"x":176901.62000000011,"y":2578482.5399999991}},{"attributes":{"ID":340217,"DIS_CODE":0,"TOWNNAME":"南區","LI":"建南里","LIN":"1鄰","STREET":"中華南路","SECT":"二段","MAREA":" ","LANE":"５３巷","ALLEY":" ","HOUSE_NO":"１０７號","E_COORD97":167378.59,"N_COORD97":2540067.9300000002,"ADDRESS":"中華南路二段５３巷１０７號","OBJECTID":340208},"geometry":{"x":167378.59000000171,"y":2540067.9300000034}},{"attributes":{"ID":340218,"DIS_CODE":0,"TOWNNAME":"中西區","LI":"民生里","LIN":"8鄰","STREET":"大勇街","SECT":" ","MAREA":" ","LANE":" ","ALLEY":" ","HOUSE_NO":"１３５號","E_COORD97":167172.56,"N_COORD97":2543367.04,"ADDRESS":"大勇街１３５號","OBJECTID":340209},"geometry":{"x":167172.55999999959,"y":2543367.0399999991}},{"attributes":{"ID":340219,"DIS_CODE":0,"TOWNNAME":"中西區","LI":"民生里","LIN":"8鄰","STREET":"大勇街","SECT":" ","MAREA":" ","LANE":" ","ALLEY":" ","HOUSE_NO":"１３７號","E_COORD97":167168.69,"N_COORD97":2543367.5,"ADDRESS":"大勇街１３７號","OBJECTID":340210},"geometry":{"x":167168.69000000134,"y":2543367.5000000019}},{"attributes":{"ID":340220,"DIS_CODE":0,"TOWNNAME":"新營區","LI":"鐵線里","LIN":"5鄰","STREET":" ","SECT":" ","MAREA":"鐵線橋","LANE":" ","ALLEY":" ","HOUSE_NO":"５４號之３","E_COORD97":176180.79999999999,"N_COORD97":2573663.1400000001,"ADDRESS":"鐵線橋５４號之３","OBJECTID":340211},"geometry":{"x":176180.80000000075,"y":2573663.1400000025}},{"attributes":{"ID":340221,"DIS_CODE":0,"TOWNNAME":"新營區","LI":"民榮里","LIN":"5鄰","STREET":"和平路","SECT":" ","MAREA":" ","LANE":"３２巷","ALLEY":" ","HOUSE_NO":"２４號","E_COORD97":179305.98999999999,"N_COORD97":2577841.77,"ADDRESS":"和平路３２巷２４號","OBJECTID":340212},"geometry":{"x":179305.99000000115,"y":2577841.7700000014}},{"attributes":{"ID":340222,"DIS_CODE":0,"TOWNNAME":"南區","LI":"建南里","LIN":"1鄰","STREET":"中華南路","SECT":"二段","MAREA":" ","LANE":"５３巷","ALLEY":" ","HOUSE_NO":"１０９號","E_COORD97":167377.35000000001,"N_COORD97":2540064.21,"ADDRESS":"中華南路二段５３巷１０９號","OBJECTID":340213},"geometry":{"x":167377.35000000056,"y":2540064.2100000028}},{"attributes":{"ID":340223,"DIS_CODE":0,"TOWNNAME":"安平區","LI":"億載里","LIN":"1鄰","STREET":"平豐路","SECT":" ","MAREA":" ","LANE":"３９１巷","ALLEY":" ","HOUSE_NO":"３８號","E_COORD97":164169.06,"N_COORD97":2543816.3100000001,"ADDRESS":"平豐路３９１巷３８號","OBJECTID":340214},"geometry":{"x":164169.05999999959,"y":2543816.3100000024}},{"attributes":{"ID":340224,"DIS_CODE":0,"TOWNNAME":"安平區","LI":"億載里","LIN":"1鄰","STREET":"平豐路","SECT":" ","MAREA":" ","LANE":"３９１巷","ALLEY":" ","HOUSE_NO":"４６號","E_COORD97":164137.32000000001,"N_COORD97":2543821.6299999999,"ADDRESS":"平豐路３９１巷４６號","OBJECTID":340215},"geometry":{"x":164137.3200000003,"y":2543821.629999999}},{"attributes":{"ID":340225,"DIS_CODE":0,"TOWNNAME":"安平區","LI":"億載里","LIN":"1鄰","STREET":"平豐路","SECT":" ","MAREA":" ","LANE":"３９１巷","ALLEY":" ","HOUSE_NO":"５０號","E_COORD97":164129.70000000001,"N_COORD97":2543820.2000000002,"ADDRESS":"平豐路３９１巷５０號","OBJECTID":340216},"geometry":{"x":164129.70000000019,"y":2543820.2000000011}},{"attributes":{"ID":340226,"DIS_CODE":0,"TOWNNAME":"安平區","LI":"億載里","LIN":"1鄰","STREET":"平豐路","SECT":" ","MAREA":" ","LANE":"３９１巷","ALLEY":" ","HOUSE_NO":"３５號","E_COORD97":164173.35000000001,"N_COORD97":2543804.7999999998,"ADDRESS":"平豐路３９１巷３５號","OBJECTID":340217},"geometry":{"x":164173.35000000056,"y":2543804.8000000007}},{"attributes":{"ID":340227,"DIS_CODE":0,"TOWNNAME":"北區","LI":"賢北里","LIN":"1鄰","STREET":"中華北路","SECT":"一段","MAREA":" ","LANE":"５３巷","ALLEY":" ","HOUSE_NO":"６７號","E_COORD97":166378.14000000001,"N_COORD97":2545309.7799999998,"ADDRESS":"中華北路一段５３巷６７號","OBJECTID":340218},"geometry":{"x":166378.1400000006,"y":2545309.7799999975}},{"attributes":{"ID":340228,"DIS_CODE":0,"TOWNNAME":"北區","LI":"六甲里","LIN":"1鄰","STREET":"公園路","SECT":" ","MAREA":" ","LANE":"４５１巷","ALLEY":" ","HOUSE_NO":"２８之３號","E_COORD97":168936.91,"N_COORD97":2545492.2000000002,"ADDRESS":"公園路４５１巷２８之３號","OBJECTID":340219},"geometry":{"x":168936.91000000108,"y":2545492.1999999993}},{"attributes":{"ID":340229,"DIS_CODE":0,"TOWNNAME":"北區","LI":"六甲里","LIN":"1鄰","STREET":"公園路","SECT":" ","MAREA":" ","LANE":"４５１巷","ALLEY":" ","HOUSE_NO":"２８之５號","E_COORD97":168932.45999999999,"N_COORD97":2545495.3700000001,"ADDRESS":"公園路４５１巷２８之５號","OBJECTID":340220},"geometry":{"x":168932.46000000089,"y":2545495.3700000029}},{"attributes":{"ID":340230,"DIS_CODE":0,"TOWNNAME":"北區","LI":"六甲里","LIN":"1鄰","STREET":"公園路","SECT":" ","MAREA":" ","LANE":"４５１巷","ALLEY":" ","HOUSE_NO":"２８之６號","E_COORD97":168930.69,"N_COORD97":2545499.8199999998,"ADDRESS":"公園路４５１巷２８之６號","OBJECTID":340221},"geometry":{"x":168930.69000000041,"y":2545499.8200000003}},{"attributes":{"ID":340231,"DIS_CODE":0,"TOWNNAME":"北區","LI":"六甲里","LIN":"1鄰","STREET":"公園路","SECT":" ","MAREA":" ","LANE":"４５１巷","ALLEY":" ","HOUSE_NO":"２８之７號","E_COORD97":168934.5,"N_COORD97":2545507.3100000001,"ADDRESS":"公園路４５１巷２８之７號","OBJECTID":340222},"geometry":{"x":168934.50000000093,"y":2545507.3100000005}},{"attributes":{"ID":340232,"DIS_CODE":0,"TOWNNAME":"南區","LI":"田寮里","LIN":"1鄰","STREET":"新興路","SECT":" ","MAREA":" ","LANE":"３１３巷","ALLEY":" ","HOUSE_NO":"５號","E_COORD97":167175.42000000001,"N_COORD97":2541782.4900000002,"ADDRESS":"新興路３１３巷５號","OBJECTID":340223},"geometry":{"x":167175.42000000086,"y":2541782.4900000002}},{"attributes":{"ID":340233,"DIS_CODE":0,"TOWNNAME":"南區","LI":"大恩里","LIN":"1鄰","STREET":"大同路","SECT":"二段","MAREA":" ","LANE":"６４０巷","ALLEY":" ","HOUSE_NO":"４５號","E_COORD97":169359.84,"N_COORD97":2541014.71,"ADDRESS":"大同路二段６４０巷４５號","OBJECTID":340224},"geometry":{"x":169359.83999999985,"y":2541014.7100000028}},{"attributes":{"ID":340234,"DIS_CODE":0,"TOWNNAME":"南區","LI":"日新里","LIN":"1鄰","STREET":"金華路","SECT":"一段","MAREA":" ","LANE":"３９３巷","ALLEY":" ","HOUSE_NO":"６號","E_COORD97":166958.01999999999,"N_COORD97":2541204.3100000001,"ADDRESS":"金華路一段３９３巷６號","OBJECTID":340225},"geometry":{"x":166958.01999999955,"y":2541204.3100000005}},{"attributes":{"ID":340235,"DIS_CODE":0,"TOWNNAME":"南區","LI":"日新里","LIN":"1鄰","STREET":"金華路","SECT":"一段","MAREA":" ","LANE":"３９３巷","ALLEY":" ","HOUSE_NO":"６號之１","E_COORD97":166952.10999999999,"N_COORD97":2541204.6499999999,"ADDRESS":"金華路一段３９３巷６號之１","OBJECTID":340226},"geometry":{"x":166952.11000000127,"y":2541204.6500000004}},{"attributes":{"ID":340236,"DIS_CODE":0,"TOWNNAME":"南區","LI":"新昌里","LIN":"1鄰","STREET":"大德街","SECT":" ","MAREA":" ","LANE":"１４１巷","ALLEY":" ","HOUSE_NO":"２７號之２","E_COORD97":167569.45000000001,"N_COORD97":2542941.4900000002,"ADDRESS":"大德街１４１巷２７號之２","OBJECTID":340227},"geometry":{"x":167569.45000000019,"y":2542941.4900000002}},{"attributes":{"ID":340237,"DIS_CODE":0,"TOWNNAME":"新營區","LI":"南興里","LIN":"4鄰","STREET":"和平路","SECT":" ","MAREA":" ","LANE":"９５巷","ALLEY":" ","HOUSE_NO":"３８號之１","E_COORD97":179544.64999999999,"N_COORD97":2577592.6299999999,"ADDRESS":"和平路９５巷３８之１號","OBJECTID":340228},"geometry":{"x":179544.65000000037,"y":2577592.629999999}},{"attributes":{"ID":340238,"DIS_CODE":0,"TOWNNAME":"新營區","LI":"新北里","LIN":"24鄰","STREET":"民生路","SECT":" ","MAREA":" ","LANE":"４２０巷","ALLEY":" ","HOUSE_NO":"２５號","E_COORD97":178865.42999999999,"N_COORD97":2579397.6400000001,"ADDRESS":"民生路４２０巷２５號","OBJECTID":340229},"geometry":{"x":178865.4299999997,"y":2579397.6400000006}},{"attributes":{"ID":340239,"DIS_CODE":0,"TOWNNAME":"中西區","LI":"民生里","LIN":"8鄰","STREET":"大勇街","SECT":" ","MAREA":" ","LANE":" ","ALLEY":" ","HOUSE_NO":"１３９號","E_COORD97":167165.5,"N_COORD97":2543367.9500000002,"ADDRESS":"大勇街１３９號","OBJECTID":340230},"geometry":{"x":167165.5,"y":2543367.9499999993}},{"attributes":{"ID":340240,"DIS_CODE":0,"TOWNNAME":"新化區","LI":"豐榮里","LIN":"1鄰","STREET":"大智路","SECT":" ","MAREA":" ","LANE":"２８巷","ALLEY":" ","HOUSE_NO":"１１號","E_COORD97":178250.03,"N_COORD97":2548417.25,"ADDRESS":"大智路２８巷１１號","OBJECTID":340231},"geometry":{"x":178250.03000000026,"y":2548417.2500000019}},{"attributes":{"ID":340241,"DIS_CODE":0,"TOWNNAME":"北區","LI":"大港里","LIN":"1鄰","STREET":"大和路","SECT":" ","MAREA":" ","LANE":"１９５巷","ALLEY":" ","HOUSE_NO":"１０號","E_COORD97":166940.09,"N_COORD97":2545924.1699999999,"ADDRESS":"大和路１９５巷１０號","OBJECTID":340232},"geometry":{"x":166940.09000000078,"y":2545924.1699999999}},{"attributes":{"ID":340242,"DIS_CODE":0,"TOWNNAME":"北區","LI":"大港里","LIN":"1鄰","STREET":"大和路","SECT":" ","MAREA":" ","LANE":"１９５巷","ALLEY":" ","HOUSE_NO":"１６號","E_COORD97":166931.91,"N_COORD97":2545923.46,"ADDRESS":"大和路１９５巷１６號","OBJECTID":340233},"geometry":{"x":166931.91000000015,"y":2545923.4600000009}},{"attributes":{"ID":340243,"DIS_CODE":0,"TOWNNAME":"北區","LI":"大港里","LIN":"1鄰","STREET":"大和路","SECT":" ","MAREA":" ","LANE":"１９５巷","ALLEY":" ","HOUSE_NO":"１８號","E_COORD97":166925.32000000001,"N_COORD97":2545923.46,"ADDRESS":"大和路１９５巷１８號","OBJECTID":340234},"geometry":{"x":166925.32000000123,"y":2545923.4600000009}},{"attributes":{"ID":340244,"DIS_CODE":0,"TOWNNAME":"北區","LI":"大港里","LIN":"1鄰","STREET":"大和路","SECT":" ","MAREA":" ","LANE":"１９５巷","ALLEY":" ","HOUSE_NO":"２０號","E_COORD97":166920.51999999999,"N_COORD97":2545922.9300000002,"ADDRESS":"大和路１９５巷２０號","OBJECTID":340235},"geometry":{"x":166920.51999999955,"y":2545922.9300000034}},{"attributes":{"ID":340245,"DIS_CODE":0,"TOWNNAME":"新化區","LI":"豐榮里","LIN":"1鄰","STREET":"中山路","SECT":" ","MAREA":" ","LANE":"６２７巷","ALLEY":" ","HOUSE_NO":"８號","E_COORD97":178204.70999999999,"N_COORD97":2548468.25,"ADDRESS":"中山路６２７巷８號","OBJECTID":340236},"geometry":{"x":178204.70999999996,"y":2548468.2500000019}},{"attributes":{"ID":340246,"DIS_CODE":0,"TOWNNAME":"北區","LI":"大港里","LIN":"1鄰","STREET":"大和路","SECT":" ","MAREA":" ","LANE":"１９５巷","ALLEY":" ","HOUSE_NO":"２２號","E_COORD97":166916.25,"N_COORD97":2545923.46,"ADDRESS":"大和路１９５巷２２號","OBJECTID":340237},"geometry":{"x":166916.25,"y":2545923.4600000009}},{"attributes":{"ID":340247,"DIS_CODE":0,"TOWNNAME":"北區","LI":"大港里","LIN":"1鄰","STREET":"大和路","SECT":" ","MAREA":" ","LANE":"１９５巷","ALLEY":" ","HOUSE_NO":"２號","E_COORD97":166957.53,"N_COORD97":2545925.77,"ADDRESS":"大和路１９５巷２號","OBJECTID":340238},"geometry":{"x":166957.53000000119,"y":2545925.7699999996}},{"attributes":{"ID":340248,"DIS_CODE":0,"TOWNNAME":"北區","LI":"大港里","LIN":"1鄰","STREET":"大和路","SECT":" ","MAREA":" ","LANE":"１９５巷","ALLEY":" ","HOUSE_NO":"６號","E_COORD97":166952.01999999999,"N_COORD97":2545925.2400000002,"ADDRESS":"大和路１９５巷６號","OBJECTID":340239},"geometry":{"x":166952.02000000048,"y":2545925.2400000021}},{"attributes":{"ID":340249,"DIS_CODE":0,"TOWNNAME":"北區","LI":"大港里","LIN":"1鄰","STREET":"大和路","SECT":" ","MAREA":" ","LANE":"１９５巷","ALLEY":" ","HOUSE_NO":"８號","E_COORD97":166946.14000000001,"N_COORD97":2545924.8900000001,"ADDRESS":"大和路１９５巷８號","OBJECTID":340240},"geometry":{"x":166946.1400000006,"y":2545924.8900000025}},{"attributes":{"ID":340250,"DIS_CODE":0,"TOWNNAME":"北區","LI":"賢北里","LIN":"1鄰","STREET":"賢北街","SECT":" ","MAREA":" ","LANE":"１６巷","ALLEY":" ","HOUSE_NO":"５５號","E_COORD97":166454.76000000001,"N_COORD97":2545297.5800000001,"ADDRESS":"賢北街１６巷５５號","OBJECTID":340241},"geometry":{"x":166454.75999999978,"y":2545297.5800000001}},{"attributes":{"ID":340251,"DIS_CODE":0,"TOWNNAME":"北區","LI":"賢北里","LIN":"1鄰","STREET":"中華北路","SECT":"一段","MAREA":" ","LANE":"５３巷","ALLEY":" ","HOUSE_NO":"３７號","E_COORD97":166435.89000000001,"N_COORD97":2545332.5499999998,"ADDRESS":"中華北路一段５３巷３７號","OBJECTID":340242},"geometry":{"x":166435.8900000006,"y":2545332.5500000007}},{"attributes":{"ID":340252,"DIS_CODE":0,"TOWNNAME":"北區","LI":"賢北里","LIN":"1鄰","STREET":"中華北路","SECT":"一段","MAREA":" ","LANE":"５３巷","ALLEY":" ","HOUSE_NO":"３９號","E_COORD97":166429.81,"N_COORD97":2545331.2000000002,"ADDRESS":"中華北路一段５３巷３９號","OBJECTID":340243},"geometry":{"x":166429.81000000052,"y":2545331.2000000011}},{"attributes":{"ID":340253,"DIS_CODE":0,"TOWNNAME":"北區","LI":"賢北里","LIN":"1鄰","STREET":"中華北路","SECT":"一段","MAREA":" ","LANE":"５３巷","ALLEY":" ","HOUSE_NO":"４１號","E_COORD97":166426.66,"N_COORD97":2545328.8399999999,"ADDRESS":"中華北路一段５３巷４１號","OBJECTID":340244},"geometry":{"x":166426.66000000015,"y":2545328.8399999999}},{"attributes":{"ID":340254,"DIS_CODE":0,"TOWNNAME":"北區","LI":"賢北里","LIN":"1鄰","STREET":"中華北路","SECT":"一段","MAREA":" ","LANE":"５３巷","ALLEY":" ","HOUSE_NO":"４３號","E_COORD97":166423.16,"N_COORD97":2545327.2599999998,"ADDRESS":"中華北路一段５３巷４３號","OBJECTID":340245},"geometry":{"x":166423.16000000015,"y":2545327.2599999998}},{"attributes":{"ID":340255,"DIS_CODE":0,"TOWNNAME":"北區","LI":"賢北里","LIN":"1鄰","STREET":"中華北路","SECT":"一段","MAREA":" ","LANE":"５３巷","ALLEY":" ","HOUSE_NO":"５７號","E_COORD97":166395.48999999999,"N_COORD97":2545318.75,"ADDRESS":"中華北路一段５３巷５７號","OBJECTID":340246},"geometry":{"x":166395.49000000115,"y":2545318.7500000019}},{"attributes":{"ID":340256,"DIS_CODE":0,"TOWNNAME":"北區","LI":"賢北里","LIN":"1鄰","STREET":"中華北路","SECT":"一段","MAREA":" ","LANE":"５３巷","ALLEY":" ","HOUSE_NO":"５９號","E_COORD97":166392.35000000001,"N_COORD97":2545316.96,"ADDRESS":"中華北路一段５３巷５９號","OBJECTID":340247},"geometry":{"x":166392.35000000056,"y":2545316.959999999}},{"attributes":{"ID":340257,"DIS_CODE":0,"TOWNNAME":"北區","LI":"賢北里","LIN":"1鄰","STREET":"中華北路","SECT":"一段","MAREA":" ","LANE":"５３巷","ALLEY":" ","HOUSE_NO":"６１號","E_COORD97":166388.16,"N_COORD97":2545314.71,"ADDRESS":"中華北路一段５３巷６１號","OBJECTID":340248},"geometry":{"x":166388.16000000015,"y":2545314.7100000009}},{"attributes":{"ID":340258,"DIS_CODE":0,"TOWNNAME":"北區","LI":"賢北里","LIN":"1鄰","STREET":"中華北路","SECT":"一段","MAREA":" ","LANE":"５３巷","ALLEY":" ","HOUSE_NO":"６３號","E_COORD97":166385.17000000001,"N_COORD97":2545313.3700000001,"ADDRESS":"中華北路一段５３巷６３號","OBJECTID":340249},"geometry":{"x":166385.17000000086,"y":2545313.370000001}},{"attributes":{"ID":340259,"DIS_CODE":0,"TOWNNAME":"北區","LI":"賢北里","LIN":"1鄰","STREET":"中華北路","SECT":"一段","MAREA":" ","LANE":"５３巷","ALLEY":" ","HOUSE_NO":"６５號","E_COORD97":166381.57999999999,"N_COORD97":2545312.0299999998,"ADDRESS":"中華北路一段５３巷６５號","OBJECTID":340250},"geometry":{"x":166381.58000000007,"y":2545312.0300000012}},{"attributes":{"ID":340260,"DIS_CODE":0,"TOWNNAME":"北區","LI":"賢北里","LIN":"1鄰","STREET":"中華北路","SECT":"一段","MAREA":" ","LANE":"５３巷","ALLEY":" ","HOUSE_NO":"６９號","E_COORD97":166374.69,"N_COORD97":2545308.1400000001,"ADDRESS":"中華北路一段５３巷６９號","OBJECTID":340251},"geometry":{"x":166374.69000000041,"y":2545308.1400000006}},{"attributes":{"ID":340261,"DIS_CODE":0,"TOWNNAME":"北區","LI":"賢北里","LIN":"1鄰","STREET":"中華北路","SECT":"一段","MAREA":" ","LANE":"５３巷","ALLEY":" ","HOUSE_NO":"７１號","E_COORD97":166370.20999999999,"N_COORD97":2545306.3500000001,"ADDRESS":"中華北路一段５３巷７１號","OBJECTID":340252},"geometry":{"x":166370.20999999996,"y":2545306.3500000034}},{"attributes":{"ID":340262,"DIS_CODE":0,"TOWNNAME":"北區","LI":"賢北里","LIN":"1鄰","STREET":"中華北路","SECT":"一段","MAREA":" ","LANE":"５３巷","ALLEY":" ","HOUSE_NO":"７３號","E_COORD97":166367.06,"N_COORD97":2545304.4100000001,"ADDRESS":"中華北路一段５３巷７３號","OBJECTID":340253},"geometry":{"x":166367.06000000052,"y":2545304.410000002}},{"attributes":{"ID":340263,"DIS_CODE":0,"TOWNNAME":"北區","LI":"賢北里","LIN":"1鄰","STREET":"中華北路","SECT":"一段","MAREA":" ","LANE":"５３巷","ALLEY":" ","HOUSE_NO":"７５號","E_COORD97":166363.17999999999,"N_COORD97":2545303.21,"ADDRESS":"中華北路一段５３巷７５號","OBJECTID":340254},"geometry":{"x":166363.1799999997,"y":2545303.2100000028}},{"attributes":{"ID":340264,"DIS_CODE":0,"TOWNNAME":"北區","LI":"賢北里","LIN":"1鄰","STREET":"中華北路","SECT":"一段","MAREA":" ","LANE":"５３巷","ALLEY":" ","HOUSE_NO":"７７號","E_COORD97":166360.03,"N_COORD97":2545301.8700000001,"ADDRESS":"中華北路一段５３巷７７號","OBJECTID":340255},"geometry":{"x":166360.03000000026,"y":2545301.8700000029}},{"attributes":{"ID":340265,"DIS_CODE":0,"TOWNNAME":"北區","LI":"賢北里","LIN":"1鄰","STREET":"中華北路","SECT":"一段","MAREA":" ","LANE":"５３巷","ALLEY":" ","HOUSE_NO":"７９號","E_COORD97":166355.70000000001,"N_COORD97":2545300.2200000002,"ADDRESS":"中華北路一段５３巷７９號","OBJECTID":340256},"geometry":{"x":166355.70000000019,"y":2545300.2200000007}},{"attributes":{"ID":340266,"DIS_CODE":0,"TOWNNAME":"北區","LI":"賢北里","LIN":"1鄰","STREET":"中華北路","SECT":"一段","MAREA":" ","LANE":"５３巷","ALLEY":" ","HOUSE_NO":"７號","E_COORD97":166498.73000000001,"N_COORD97":2545363.5499999998,"ADDRESS":"中華北路一段５３巷７號","OBJECTID":340257},"geometry":{"x":166498.73000000138,"y":2545363.5500000007}},{"attributes":{"ID":340267,"DIS_CODE":0,"TOWNNAME":"北區","LI":"賢北里","LIN":"1鄰","STREET":"中華北路","SECT":"一段","MAREA":" ","LANE":"５３巷","ALLEY":" ","HOUSE_NO":"８１號","E_COORD97":166352.70000000001,"N_COORD97":2545298.2799999998,"ADDRESS":"中華北路一段５３巷８１號","OBJECTID":340258},"geometry":{"x":166352.70000000112,"y":2545298.2799999993}},{"attributes":{"ID":340268,"DIS_CODE":0,"TOWNNAME":"北區","LI":"賢北里","LIN":"1鄰","STREET":"和緯路","SECT":"五段","MAREA":" ","LANE":"２６巷","ALLEY":" ","HOUSE_NO":"２７號","E_COORD97":166484.48999999999,"N_COORD97":2545332.77,"ADDRESS":"和緯路五段２６巷２７號","OBJECTID":340259},"geometry":{"x":166484.49000000209,"y":2545332.7699999996}},{"attributes":{"ID":340269,"DIS_CODE":0,"TOWNNAME":"北區","LI":"賢北里","LIN":"1鄰","STREET":"和緯路","SECT":"五段","MAREA":" ","LANE":"２６巷","ALLEY":" ","HOUSE_NO":"２９號","E_COORD97":166482.57000000001,"N_COORD97":2545336.6200000001,"ADDRESS":"和緯路五段２６巷２９號","OBJECTID":340260},"geometry":{"x":166482.57000000123,"y":2545336.6200000048}},{"attributes":{"ID":340270,"DIS_CODE":0,"TOWNNAME":"北區","LI":"賢北里","LIN":"1鄰","STREET":"和緯路","SECT":"五段","MAREA":" ","LANE":"２６巷","ALLEY":" ","HOUSE_NO":"３１號","E_COORD97":166481.67999999999,"N_COORD97":2545341.21,"ADDRESS":"和緯路五段２６巷３１號","OBJECTID":340261},"geometry":{"x":166481.68000000063,"y":2545341.2100000009}},{"attributes":{"ID":340271,"DIS_CODE":0,"TOWNNAME":"北區","LI":"賢北里","LIN":"1鄰","STREET":"和緯路","SECT":"五段","MAREA":" ","LANE":"２６巷","ALLEY":" ","HOUSE_NO":"３３號","E_COORD97":166480.48999999999,"N_COORD97":2545345.0499999998,"ADDRESS":"和緯路五段２６巷３３號","OBJECTID":340262},"geometry":{"x":166480.49000000022,"y":2545345.0500000026}},{"attributes":{"ID":340272,"DIS_CODE":0,"TOWNNAME":"北區","LI":"賢北里","LIN":"1鄰","STREET":"和緯路","SECT":"五段","MAREA":" ","LANE":"２６巷","ALLEY":" ","HOUSE_NO":"３５號","E_COORD97":166479.60999999999,"N_COORD97":2545349.0499999998,"ADDRESS":"和緯路五段２６巷３５號","OBJECTID":340263},"geometry":{"x":166479.61000000034,"y":2545349.0500000007}},{"attributes":{"ID":340273,"DIS_CODE":0,"TOWNNAME":"北區","LI":"賢北里","LIN":"1鄰","STREET":"和緯路","SECT":"五段","MAREA":" ","LANE":"２６巷","ALLEY":" ","HOUSE_NO":"３７號","E_COORD97":166478.12,"N_COORD97":2545353.6299999999,"ADDRESS":"和緯路五段２６巷３７號","OBJECTID":340264},"geometry":{"x":166478.12000000011,"y":2545353.629999999}},{"attributes":{"ID":340274,"DIS_CODE":0,"TOWNNAME":"新營區","LI":"民生里","LIN":" ","STREET":"三民路","SECT":" ","MAREA":" ","LANE":"２０８巷","ALLEY":" ","HOUSE_NO":"２之１號","E_COORD97":179172.59,"N_COORD97":2578132.6200000001,"ADDRESS":"三民路２０８巷２之１號","OBJECTID":340265},"geometry":{"x":179172.59000000078,"y":2578132.6200000029}},{"attributes":{"ID":340275,"DIS_CODE":0,"TOWNNAME":"北區","LI":"賢北里","LIN":"1鄰","STREET":"賢北街","SECT":" ","MAREA":" ","LANE":"１６巷","ALLEY":" ","HOUSE_NO":"１１號","E_COORD97":166389.13,"N_COORD97":2545268.0600000001,"ADDRESS":"賢北街１６巷１１號","OBJECTID":340266},"geometry":{"x":166389.12999999989,"y":2545268.0600000005}},{"attributes":{"ID":340276,"DIS_CODE":0,"TOWNNAME":"北區","LI":"賢北里","LIN":"1鄰","STREET":"賢北街","SECT":" ","MAREA":" ","LANE":"１６巷","ALLEY":" ","HOUSE_NO":"１３號","E_COORD97":166392.41,"N_COORD97":2545269.8500000001,"ADDRESS":"賢北街１６巷１３號","OBJECTID":340267},"geometry":{"x":166392.41000000108,"y":2545269.8500000015}},{"attributes":{"ID":340277,"DIS_CODE":0,"TOWNNAME":"北區","LI":"賢北里","LIN":"1鄰","STREET":"賢北街","SECT":" ","MAREA":" ","LANE":"１６巷","ALLEY":" ","HOUSE_NO":"１５號","E_COORD97":166396.14999999999,"N_COORD97":2545271.1899999999,"ADDRESS":"賢北街１６巷１５號","OBJECTID":340268},"geometry":{"x":166396.1500000013,"y":2545271.1900000013}},{"attributes":{"ID":340278,"DIS_CODE":0,"TOWNNAME":"北區","LI":"賢北里","LIN":"1鄰","STREET":"賢北街","SECT":" ","MAREA":" ","LANE":"１６巷","ALLEY":" ","HOUSE_NO":"１７號","E_COORD97":166401.07000000001,"N_COORD97":2545273.2799999998,"ADDRESS":"賢北街１６巷１７號","OBJECTID":340269},"geometry":{"x":166401.07000000216,"y":2545273.2800000012}},{"attributes":{"ID":340279,"DIS_CODE":0,"TOWNNAME":"北區","LI":"賢北里","LIN":"1鄰","STREET":"賢北街","SECT":" ","MAREA":" ","LANE":"１６巷","ALLEY":" ","HOUSE_NO":"１９號","E_COORD97":166403.60999999999,"N_COORD97":2545274.6200000001,"ADDRESS":"賢北街１６巷１９號","OBJECTID":340270},"geometry":{"x":166403.61000000034,"y":2545274.620000001}},{"attributes":{"ID":340280,"DIS_CODE":0,"TOWNNAME":"北區","LI":"賢北里","LIN":"1鄰","STREET":"賢北街","SECT":" ","MAREA":" ","LANE":"１６巷","ALLEY":" ","HOUSE_NO":"１號","E_COORD97":166369.12,"N_COORD97":2545260.3100000001,"ADDRESS":"賢北街１６巷１號","OBJECTID":340271},"geometry":{"x":166369.12000000011,"y":2545260.3100000042}},{"attributes":{"ID":340281,"DIS_CODE":0,"TOWNNAME":"北區","LI":"賢北里","LIN":"1鄰","STREET":"賢北街","SECT":" ","MAREA":" ","LANE":"１６巷","ALLEY":" ","HOUSE_NO":"２１號","E_COORD97":166408.39000000001,"N_COORD97":2545277.0099999998,"ADDRESS":"賢北街１６巷２１號","OBJECTID":340272},"geometry":{"x":166408.39000000153,"y":2545277.0099999998}},{"attributes":{"ID":340282,"DIS_CODE":0,"TOWNNAME":"北區","LI":"賢北里","LIN":"1鄰","STREET":"賢北街","SECT":" ","MAREA":" ","LANE":"１６巷","ALLEY":" ","HOUSE_NO":"２３號","E_COORD97":166411.38,"N_COORD97":2545278.3500000001,"ADDRESS":"賢北街１６巷２３號","OBJECTID":340273},"geometry":{"x":166411.37999999989,"y":2545278.3499999996}},{"attributes":{"ID":340283,"DIS_CODE":0,"TOWNNAME":"北區","LI":"賢北里","LIN":"1鄰","STREET":"賢北街","SECT":" ","MAREA":" ","LANE":"１６巷","ALLEY":" ","HOUSE_NO":"２５號","E_COORD97":166415.41,"N_COORD97":2545279.25,"ADDRESS":"賢北街１６巷２５號","OBJECTID":340274},"geometry":{"x":166415.41000000201,"y":2545279.25}},{"attributes":{"ID":340284,"DIS_CODE":0,"TOWNNAME":"北區","LI":"賢北里","LIN":"1鄰","STREET":"賢北街","SECT":" ","MAREA":" ","LANE":"１６巷","ALLEY":" ","HOUSE_NO":"２６號","E_COORD97":166424.76999999999,"N_COORD97":2545265.8700000001,"ADDRESS":"賢北街１６巷２６號","OBJECTID":340275},"geometry":{"x":166424.77000000048,"y":2545265.870000001}},{"attributes":{"ID":340285,"DIS_CODE":0,"TOWNNAME":"北區","LI":"賢北里","LIN":"1鄰","STREET":"賢北街","SECT":" ","MAREA":" ","LANE":"１６巷","ALLEY":" ","HOUSE_NO":"２７號","E_COORD97":166419.14000000001,"N_COORD97":2545281.3300000001,"ADDRESS":"賢北街１６巷２７號","OBJECTID":340276},"geometry":{"x":166419.1400000006,"y":2545281.3300000019}},{"attributes":{"ID":340286,"DIS_CODE":0,"TOWNNAME":"北區","LI":"賢北里","LIN":"1鄰","STREET":"賢北街","SECT":" ","MAREA":" ","LANE":"１６巷","ALLEY":" ","HOUSE_NO":"２８號","E_COORD97":166428.42000000001,"N_COORD97":2545266.98,"ADDRESS":"賢北街１６巷２８號","OBJECTID":340277},"geometry":{"x":166428.41999999993,"y":2545266.9800000023}},{"attributes":{"ID":340287,"DIS_CODE":0,"TOWNNAME":"北區","LI":"賢北里","LIN":"1鄰","STREET":"賢北街","SECT":" ","MAREA":" ","LANE":"１６巷","ALLEY":" ","HOUSE_NO":"２９號","E_COORD97":166423.32000000001,"N_COORD97":2545283.7200000002,"ADDRESS":"賢北街１６巷２９號","OBJECTID":340278},"geometry":{"x":166423.32000000123,"y":2545283.7200000007}},{"attributes":{"ID":340288,"DIS_CODE":0,"TOWNNAME":"北區","LI":"賢北里","LIN":"1鄰","STREET":"賢北街","SECT":" ","MAREA":" ","LANE":"１６巷","ALLEY":" ","HOUSE_NO":"３０號","E_COORD97":166432.07000000001,"N_COORD97":2545268.25,"ADDRESS":"賢北街１６巷３０號","OBJECTID":340279},"geometry":{"x":166432.07000000123,"y":2545268.2500000019}},{"attributes":{"ID":340289,"DIS_CODE":0,"TOWNNAME":"北區","LI":"賢北里","LIN":"1鄰","STREET":"賢北街","SECT":" ","MAREA":" ","LANE":"１６巷","ALLEY":" ","HOUSE_NO":"３１號","E_COORD97":166426.75,"N_COORD97":2545285.5099999998,"ADDRESS":"賢北街１６巷３１號","OBJECTID":340280},"geometry":{"x":166426.75000000093,"y":2545285.5100000016}},{"attributes":{"ID":340290,"DIS_CODE":0,"TOWNNAME":"北區","LI":"賢北里","LIN":"1鄰","STREET":"賢北街","SECT":" ","MAREA":" ","LANE":"１６巷","ALLEY":" ","HOUSE_NO":"３２號","E_COORD97":166436.04000000001,"N_COORD97":2545269.3599999999,"ADDRESS":"賢北街１６巷３２號","OBJECTID":340281},"geometry":{"x":166436.04000000004,"y":2545269.3600000013}},{"attributes":{"ID":340291,"DIS_CODE":0,"TOWNNAME":"北區","LI":"賢北里","LIN":"1鄰","STREET":"賢北街","SECT":" ","MAREA":" ","LANE":"１６巷","ALLEY":" ","HOUSE_NO":"３３號","E_COORD97":166430.92999999999,"N_COORD97":2545287.2999999998,"ADDRESS":"賢北街１６巷３３號","OBJECTID":340282},"geometry":{"x":166430.93000000063,"y":2545287.3000000007}},{"attributes":{"ID":340292,"DIS_CODE":0,"TOWNNAME":"歸仁區","LI":"看東里","LIN":"5鄰","STREET":"成功五街","SECT":" ","MAREA":" ","LANE":"９５巷","ALLEY":" ","HOUSE_NO":"６號","E_COORD97":178425.06,"N_COORD97":2539932.3599999999,"ADDRESS":"成功五街９５巷６號","OBJECTID":340283},"geometry":{"x":178425.06000000052,"y":2539932.3600000031}},{"attributes":{"ID":340293,"DIS_CODE":0,"TOWNNAME":"北區","LI":"賢北里","LIN":"1鄰","STREET":"賢北街","SECT":" ","MAREA":" ","LANE":"１６巷","ALLEY":" ","HOUSE_NO":"３５號","E_COORD97":166434.57000000001,"N_COORD97":2545288.5299999998,"ADDRESS":"賢北街１６巷３５號","OBJECTID":340284},"geometry":{"x":166434.5700000003,"y":2545288.5300000012}},{"attributes":{"ID":340294,"DIS_CODE":0,"TOWNNAME":"玉井區","LI":"三和里","LIN":"5鄰","STREET":" ","SECT":" ","MAREA":"三和","LANE":" ","ALLEY":" ","HOUSE_NO":"５８之１號","E_COORD97":194887.63,"N_COORD97":2555498.29,"ADDRESS":"三和５８之１號","OBJECTID":340285},"geometry":{"x":194887.62999999989,"y":2555498.290000001}},{"attributes":{"ID":340295,"DIS_CODE":0,"TOWNNAME":"玉井區","LI":"三和里","LIN":"5鄰","STREET":" ","SECT":" ","MAREA":"三和","LANE":" ","ALLEY":" ","HOUSE_NO":"５２號","E_COORD97":194714.54000000001,"N_COORD97":2555488.2400000002,"ADDRESS":"三和５２號","OBJECTID":340286},"geometry":{"x":194714.54000000097,"y":2555488.2400000002}},{"attributes":{"ID":340296,"DIS_CODE":0,"TOWNNAME":"北區","LI":"賢北里","LIN":"1鄰","STREET":"賢北街","SECT":" ","MAREA":" ","LANE":"１６巷","ALLEY":" ","HOUSE_NO":"３號","E_COORD97":166373.14999999999,"N_COORD97":2545261.6499999999,"ADDRESS":"賢北街１６巷３號","OBJECTID":340287},"geometry":{"x":166373.15000000037,"y":2545261.6500000022}},{"attributes":{"ID":340297,"DIS_CODE":0,"TOWNNAME":"玉井區","LI":"層林里","LIN":"5鄰","STREET":" ","SECT":" ","MAREA":"層林","LANE":" ","ALLEY":" ","HOUSE_NO":"６９之１號","E_COORD97":191022.57000000001,"N_COORD97":2552981.29,"ADDRESS":"層林６９之１號","OBJECTID":340288},"geometry":{"x":191022.57000000123,"y":2552981.2899999991}},{"attributes":{"ID":340298,"DIS_CODE":0,"TOWNNAME":"玉井區","LI":"三和里","LIN":"5鄰","STREET":" ","SECT":" ","MAREA":"三和","LANE":" ","ALLEY":" ","HOUSE_NO":"５４之３號","E_COORD97":194773.84,"N_COORD97":2555303.29,"ADDRESS":"三和５４之３號","OBJECTID":340289},"geometry":{"x":194773.83999999985,"y":2555303.2899999991}},{"attributes":{"ID":340299,"DIS_CODE":0,"TOWNNAME":"北區","LI":"賢北里","LIN":"1鄰","STREET":"賢北街","SECT":" ","MAREA":" ","LANE":"１６巷","ALLEY":" ","HOUSE_NO":"５１號","E_COORD97":166446.31,"N_COORD97":2545293.2599999998,"ADDRESS":"賢北街１６巷５１號","OBJECTID":340290},"geometry":{"x":166446.31000000052,"y":2545293.2599999998}},{"attributes":{"ID":340300,"DIS_CODE":0,"TOWNNAME":"玉井區","LI":"層林里","LIN":"5鄰","STREET":" ","SECT":" ","MAREA":"層林","LANE":" ","ALLEY":" ","HOUSE_NO":"５７號","E_COORD97":190891.66,"N_COORD97":2552721.2400000002,"ADDRESS":"層林５７號","OBJECTID":340291},"geometry":{"x":190891.66000000015,"y":2552721.2400000002}},{"attributes":{"ID":340301,"DIS_CODE":0,"TOWNNAME":"北區","LI":"賢北里","LIN":"1鄰","STREET":"賢北街","SECT":" ","MAREA":" ","LANE":"１６巷","ALLEY":" ","HOUSE_NO":"５９號","E_COORD97":166464.23999999999,"N_COORD97":2545301.29,"ADDRESS":"賢北街１６巷５９號","OBJECTID":340292},"geometry":{"x":166464.24000000209,"y":2545301.2899999991}},{"attributes":{"ID":340302,"DIS_CODE":0,"TOWNNAME":"北區","LI":"賢北里","LIN":"1鄰","STREET":"賢北街","SECT":" ","MAREA":" ","LANE":"１６巷","ALLEY":" ","HOUSE_NO":"５號","E_COORD97":166376.89000000001,"N_COORD97":2545263.4399999999,"ADDRESS":"賢北街１６巷５號","OBJECTID":340293},"geometry":{"x":166376.8900000006,"y":2545263.4399999995}},{"attributes":{"ID":340303,"DIS_CODE":0,"TOWNNAME":"北區","LI":"賢北里","LIN":"1鄰","STREET":"賢北街","SECT":" ","MAREA":" ","LANE":"１６巷","ALLEY":" ","HOUSE_NO":"６３號","E_COORD97":166472.07000000001,"N_COORD97":2545304.9900000002,"ADDRESS":"賢北街１６巷６３號","OBJECTID":340294},"geometry":{"x":166472.06999999937,"y":2545304.9900000002}},{"attributes":{"ID":340304,"DIS_CODE":0,"TOWNNAME":"玉井區","LI":"沙田里","LIN":"5鄰","STREET":" ","SECT":" ","MAREA":"沙田","LANE":" ","ALLEY":" ","HOUSE_NO":"４５之１６號","E_COORD97":197434.32000000001,"N_COORD97":2556377.2999999998,"ADDRESS":"沙田４５之１６號","OBJECTID":340295},"geometry":{"x":197434.3200000003,"y":2556377.2999999989}},{"attributes":{"ID":340305,"DIS_CODE":0,"TOWNNAME":"北區","LI":"賢北里","LIN":"1鄰","STREET":"賢北街","SECT":" ","MAREA":" ","LANE":"１６巷","ALLEY":" ","HOUSE_NO":"６５號","E_COORD97":166475.78,"N_COORD97":2545307.0499999998,"ADDRESS":"賢北街１６巷６５號","OBJECTID":340296},"geometry":{"x":166475.78000000212,"y":2545307.0500000026}},{"attributes":{"ID":340306,"DIS_CODE":0,"TOWNNAME":"北區","LI":"賢北里","LIN":"1鄰","STREET":"賢北街","SECT":" ","MAREA":" ","LANE":"１６巷","ALLEY":" ","HOUSE_NO":"６７號","E_COORD97":166480.31,"N_COORD97":2545308.7000000002,"ADDRESS":"賢北街１６巷６７號","OBJECTID":340297},"geometry":{"x":166480.31000000052,"y":2545308.7000000011}},{"attributes":{"ID":340307,"DIS_CODE":0,"TOWNNAME":"北區","LI":"賢北里","LIN":"1鄰","STREET":"賢北街","SECT":" ","MAREA":" ","LANE":"１６巷","ALLEY":" ","HOUSE_NO":"６９號","E_COORD97":166483.82000000001,"N_COORD97":2545310.96,"ADDRESS":"賢北街１６巷６９號","OBJECTID":340298},"geometry":{"x":166483.8200000003,"y":2545310.9600000028}},{"attributes":{"ID":340308,"DIS_CODE":0,"TOWNNAME":"北區","LI":"賢北里","LIN":"1鄰","STREET":"賢北街","SECT":" ","MAREA":" ","LANE":"１６巷","ALLEY":" ","HOUSE_NO":"７１號","E_COORD97":166488.14000000001,"N_COORD97":2545313.02,"ADDRESS":"賢北街１６巷７１號","OBJECTID":340299},"geometry":{"x":166488.1400000006,"y":2545313.0200000014}},{"attributes":{"ID":340309,"DIS_CODE":0,"TOWNNAME":"玉井區","LI":"三和里","LIN":"5鄰","STREET":" ","SECT":" ","MAREA":"三和","LANE":" ","ALLEY":" ","HOUSE_NO":"５５之６號","E_COORD97":194853.04000000001,"N_COORD97":2555468.29,"ADDRESS":"三和５５之６號","OBJECTID":340300},"geometry":{"x":194853.0400000019,"y":2555468.290000001}},{"attributes":{"ID":340310,"DIS_CODE":0,"TOWNNAME":"玉井區","LI":"沙田里","LIN":"5鄰","STREET":" ","SECT":" ","MAREA":"沙田","LANE":" ","ALLEY":" ","HOUSE_NO":"５０號","E_COORD97":197449.17000000001,"N_COORD97":2556743.2799999998,"ADDRESS":"沙田５０號","OBJECTID":340301},"geometry":{"x":197449.17000000086,"y":2556743.2800000012}},{"attributes":{"ID":340311,"DIS_CODE":0,"TOWNNAME":"玉井區","LI":"層林里","LIN":"5鄰","STREET":" ","SECT":" ","MAREA":"層林","LANE":" ","ALLEY":" ","HOUSE_NO":"７３號","E_COORD97":191025.67000000001,"N_COORD97":2552897.2400000002,"ADDRESS":"層林７３號","OBJECTID":340302},"geometry":{"x":191025.66999999993,"y":2552897.2400000002}},{"attributes":{"ID":340312,"DIS_CODE":0,"TOWNNAME":"鹽水區","LI":"岸內里","LIN":"5鄰","STREET":" ","SECT":" ","MAREA":"岸內","LANE":" ","ALLEY":" ","HOUSE_NO":"５８號","E_COORD97":174826.17000000001,"N_COORD97":2581316.7200000002,"ADDRESS":"岸內５８號","OBJECTID":340303},"geometry":{"x":174826.16999999993,"y":2581316.7200000007}},{"attributes":{"ID":340313,"DIS_CODE":0,"TOWNNAME":"玉井區","LI":"沙田里","LIN":"5鄰","STREET":" ","SECT":" ","MAREA":"沙田","LANE":" ","ALLEY":" ","HOUSE_NO":"５１號之２０","E_COORD97":198117.29999999999,"N_COORD97":2557138.29,"ADDRESS":"沙田５１號之２０","OBJECTID":340304},"geometry":{"x":198117.29999999981,"y":2557138.2899999991}},{"attributes":{"ID":340314,"DIS_CODE":0,"TOWNNAME":"中西區","LI":"民生里","LIN":"8鄰","STREET":"大勇街","SECT":" ","MAREA":" ","LANE":" ","ALLEY":" ","HOUSE_NO":"１４１號","E_COORD97":167161.85000000001,"N_COORD97":2543368.1800000002,"ADDRESS":"大勇街１４１號","OBJECTID":340305},"geometry":{"x":167161.85000000056,"y":2543368.1799999978}},{"attributes":{"ID":340315,"DIS_CODE":0,"TOWNNAME":"玉井區","LI":"三埔里","LIN":"5鄰","STREET":" ","SECT":" ","MAREA":"三埔","LANE":" ","ALLEY":" ","HOUSE_NO":"５４號","E_COORD97":196717.04000000001,"N_COORD97":2554295.25,"ADDRESS":"三埔５４號","OBJECTID":340306},"geometry":{"x":196717.04000000004,"y":2554295.2499999981}},{"attributes":{"ID":340316,"DIS_CODE":0,"TOWNNAME":"玉井區","LI":"玉田里","LIN":"5鄰","STREET":"中華路","SECT":" ","MAREA":" ","LANE":"２５巷","ALLEY":" ","HOUSE_NO":"８號","E_COORD97":194963.29999999999,"N_COORD97":2558141.25,"ADDRESS":"中華路２５巷８號","OBJECTID":340307},"geometry":{"x":194963.30000000075,"y":2558141.2500000019}},{"attributes":{"ID":340317,"DIS_CODE":0,"TOWNNAME":"玉井區","LI":"竹圍里","LIN":"5鄰","STREET":"大成路","SECT":" ","MAREA":" ","LANE":"３３０巷","ALLEY":" ","HOUSE_NO":"７號","E_COORD97":195608.12,"N_COORD97":2558461.2599999998,"ADDRESS":"大成路３３０巷７號","OBJECTID":340308},"geometry":{"x":195608.12000000011,"y":2558461.2599999998}},{"attributes":{"ID":340318,"DIS_CODE":0,"TOWNNAME":"玉井區","LI":"竹圍里","LIN":"5鄰","STREET":"大成路","SECT":" ","MAREA":" ","LANE":"３６６巷","ALLEY":" ","HOUSE_NO":"２２號","E_COORD97":195600.34,"N_COORD97":2558502.3500000001,"ADDRESS":"大成路３６６巷２２號","OBJECTID":340309},"geometry":{"x":195600.34000000078,"y":2558502.3500000015}},{"attributes":{"ID":340319,"DIS_CODE":0,"TOWNNAME":"玉井區","LI":"沙田里","LIN":"5鄰","STREET":" ","SECT":" ","MAREA":"沙田","LANE":" ","ALLEY":" ","HOUSE_NO":"４５號之２","E_COORD97":197318.42999999999,"N_COORD97":2556648.29,"ADDRESS":"沙田４５號之２","OBJECTID":340310},"geometry":{"x":197318.43000000063,"y":2556648.290000001}},{"attributes":{"ID":340320,"DIS_CODE":0,"TOWNNAME":"玉井區","LI":"竹圍里","LIN":"5鄰","STREET":"大成路","SECT":" ","MAREA":" ","LANE":"３３０巷","ALLEY":" ","HOUSE_NO":"３號","E_COORD97":195602.53,"N_COORD97":2558462.1600000001,"ADDRESS":"大成路３３０巷３號","OBJECTID":340311},"geometry":{"x":195602.53000000212,"y":2558462.1600000001}},{"attributes":{"ID":340321,"DIS_CODE":0,"TOWNNAME":"玉井區","LI":"玉田里","LIN":"5鄰","STREET":"中華路","SECT":" ","MAREA":" ","LANE":"２５巷","ALLEY":" ","HOUSE_NO":"２號","E_COORD97":194950.60000000001,"N_COORD97":2558141.25,"ADDRESS":"中華路２５巷２號","OBJECTID":340312},"geometry":{"x":194950.60000000056,"y":2558141.2500000019}},{"attributes":{"ID":340322,"DIS_CODE":0,"TOWNNAME":"玉井區","LI":"沙田里","LIN":"5鄰","STREET":" ","SECT":" ","MAREA":"沙田","LANE":" ","ALLEY":" ","HOUSE_NO":"４７號","E_COORD97":197437.37,"N_COORD97":2556693.29,"ADDRESS":"沙田４７號","OBJECTID":340313},"geometry":{"x":197437.37000000011,"y":2556693.2899999991}},{"attributes":{"ID":340323,"DIS_CODE":0,"TOWNNAME":"玉井區","LI":"玉田里","LIN":"5鄰","STREET":"中華路","SECT":" ","MAREA":" ","LANE":"２５巷","ALLEY":" ","HOUSE_NO":"９號","E_COORD97":194967.29999999999,"N_COORD97":2558146.25,"ADDRESS":"中華路２５巷９號","OBJECTID":340314},"geometry":{"x":194967.29999999981,"y":2558146.25}},{"attributes":{"ID":340324,"DIS_CODE":0,"TOWNNAME":"玉井區","LI":"沙田里","LIN":"5鄰","STREET":" ","SECT":" ","MAREA":"沙田","LANE":" ","ALLEY":" ","HOUSE_NO":"５６號之１","E_COORD97":197834,"N_COORD97":2556414.29,"ADDRESS":"沙田５６號之１","OBJECTID":340315},"geometry":{"x":197834.00000000093,"y":2556414.290000001}},{"attributes":{"ID":340325,"DIS_CODE":0,"TOWNNAME":"玉井區","LI":"沙田里","LIN":"5鄰","STREET":" ","SECT":" ","MAREA":"沙田","LANE":" ","ALLEY":" ","HOUSE_NO":"５６號","E_COORD97":197814.87,"N_COORD97":2556438.2799999998,"ADDRESS":"沙田５６號","OBJECTID":340316},"geometry":{"x":197814.87000000011,"y":2556438.2800000012}},{"attributes":{"ID":340326,"DIS_CODE":0,"TOWNNAME":"玉井區","LI":"沙田里","LIN":"5鄰","STREET":" ","SECT":" ","MAREA":"沙田","LANE":" ","ALLEY":" ","HOUSE_NO":"５０號之１","E_COORD97":197583.09,"N_COORD97":2556880.2999999998,"ADDRESS":"沙田５０號之１","OBJECTID":340317},"geometry":{"x":197583.08999999985,"y":2556880.3000000026}},{"attributes":{"ID":340327,"DIS_CODE":0,"TOWNNAME":"北區","LI":"賢北里","LIN":"1鄰","STREET":"賢北街","SECT":" ","MAREA":" ","LANE":"１６巷","ALLEY":" ","HOUSE_NO":"７３號","E_COORD97":166492.88,"N_COORD97":2545314.8700000001,"ADDRESS":"賢北街１６巷７３號","OBJECTID":340318},"geometry":{"x":166492.87999999989,"y":2545314.8700000029}},{"attributes":{"ID":340328,"DIS_CODE":0,"TOWNNAME":"玉井區","LI":"沙田里","LIN":"5鄰","STREET":" ","SECT":" ","MAREA":"沙田","LANE":" ","ALLEY":" ","HOUSE_NO":"４５號之４","E_COORD97":197257.42000000001,"N_COORD97":2556504.29,"ADDRESS":"沙田４５號之４","OBJECTID":340319},"geometry":{"x":197257.42000000179,"y":2556504.2899999991}},{"attributes":{"ID":340329,"DIS_CODE":0,"TOWNNAME":"玉井區","LI":"沙田里","LIN":"5鄰","STREET":" ","SECT":" ","MAREA":"沙田","LANE":" ","ALLEY":" ","HOUSE_NO":"５３號","E_COORD97":197710.76000000001,"N_COORD97":2556572.29,"ADDRESS":"沙田５３號","OBJECTID":340320},"geometry":{"x":197710.75999999978,"y":2556572.2899999972}},{"attributes":{"ID":340330,"DIS_CODE":0,"TOWNNAME":"玉井區","LI":"沙田里","LIN":"5鄰","STREET":" ","SECT":" ","MAREA":"沙田","LANE":" ","ALLEY":" ","HOUSE_NO":"５６號之１０","E_COORD97":197879.09,"N_COORD97":2556263.2999999998,"ADDRESS":"沙田５６號之１０","OBJECTID":340321},"geometry":{"x":197879.09000000078,"y":2556263.3000000026}},{"attributes":{"ID":340331,"DIS_CODE":0,"TOWNNAME":"北區","LI":"賢北里","LIN":"1鄰","STREET":"賢北街","SECT":" ","MAREA":" ","LANE":"１６巷","ALLEY":" ","HOUSE_NO":"７號","E_COORD97":166380.47,"N_COORD97":2545265.0800000001,"ADDRESS":"賢北街１６巷７號","OBJECTID":340322},"geometry":{"x":166380.46999999974,"y":2545265.0800000019}},{"attributes":{"ID":340332,"DIS_CODE":0,"TOWNNAME":"玉井區","LI":"沙田里","LIN":"5鄰","STREET":" ","SECT":" ","MAREA":"沙田","LANE":" ","ALLEY":" ","HOUSE_NO":"５５號","E_COORD97":197757.66,"N_COORD97":2556394.29,"ADDRESS":"沙田５５號","OBJECTID":340323},"geometry":{"x":197757.66000000015,"y":2556394.290000001}},{"attributes":{"ID":340333,"DIS_CODE":0,"TOWNNAME":"北區","LI":"賢北里","LIN":"1鄰","STREET":"賢北街","SECT":" ","MAREA":" ","LANE":"１６巷","ALLEY":" ","HOUSE_NO":"９號","E_COORD97":166384.35000000001,"N_COORD97":2545266.7200000002,"ADDRESS":"賢北街１６巷９號","OBJECTID":340324},"geometry":{"x":166384.34999999963,"y":2545266.7200000007}},{"attributes":{"ID":340334,"DIS_CODE":0,"TOWNNAME":"新營區","LI":"新北里","LIN":"24鄰","STREET":"民生路","SECT":" ","MAREA":" ","LANE":"４２０巷","ALLEY":" ","HOUSE_NO":"２７號","E_COORD97":178871.57000000001,"N_COORD97":2579397.6099999999,"ADDRESS":"民生路４２０巷２７號","OBJECTID":340325},"geometry":{"x":178871.57000000123,"y":2579397.6099999994}},{"attributes":{"ID":340335,"DIS_CODE":0,"TOWNNAME":"中西區","LI":"民生里","LIN":"8鄰","STREET":"大勇街","SECT":" ","MAREA":" ","LANE":" ","ALLEY":" ","HOUSE_NO":"１４３號","E_COORD97":167158.20000000001,"N_COORD97":2543368.8599999999,"ADDRESS":"大勇街１４３號","OBJECTID":340326},"geometry":{"x":167158.20000000112,"y":2543368.8599999994}},{"attributes":{"ID":340336,"DIS_CODE":0,"TOWNNAME":"中西區","LI":"民生里","LIN":"8鄰","STREET":"大勇街","SECT":" ","MAREA":" ","LANE":" ","ALLEY":" ","HOUSE_NO":"１４５號","E_COORD97":167152.73000000001,"N_COORD97":2543370.23,"ADDRESS":"大勇街１４５號","OBJECTID":340327},"geometry":{"x":167152.73000000231,"y":2543370.2300000023}},{"attributes":{"ID":340337,"DIS_CODE":0,"TOWNNAME":"中西區","LI":"民生里","LIN":"8鄰","STREET":"大勇街","SECT":" ","MAREA":" ","LANE":" ","ALLEY":" ","HOUSE_NO":"１４７號","E_COORD97":167148.17000000001,"N_COORD97":2543370.23,"ADDRESS":"大勇街１４７號","OBJECTID":340328},"geometry":{"x":167148.17000000086,"y":2543370.2300000023}},{"attributes":{"ID":340338,"DIS_CODE":0,"TOWNNAME":"中西區","LI":"民生里","LIN":"8鄰","STREET":"大勇街","SECT":" ","MAREA":" ","LANE":" ","ALLEY":" ","HOUSE_NO":"１４９號","E_COORD97":167145.20999999999,"N_COORD97":2543370.9100000001,"ADDRESS":"大勇街１４９號","OBJECTID":340329},"geometry":{"x":167145.20999999996,"y":2543370.9100000039}},{"attributes":{"ID":340339,"DIS_CODE":0,"TOWNNAME":"中西區","LI":"民生里","LIN":"8鄰","STREET":"大勇街","SECT":" ","MAREA":" ","LANE":" ","ALLEY":" ","HOUSE_NO":"１５１號","E_COORD97":167140.88,"N_COORD97":2543371.3700000001,"ADDRESS":"大勇街１５１號","OBJECTID":340330},"geometry":{"x":167140.88000000175,"y":2543371.370000001}},{"attributes":{"ID":340340,"DIS_CODE":0,"TOWNNAME":"中西區","LI":"民生里","LIN":"8鄰","STREET":"金華路","SECT":"三段","MAREA":" ","LANE":" ","ALLEY":" ","HOUSE_NO":"５７號","E_COORD97":167180.07999999999,"N_COORD97":2543360.3700000001,"ADDRESS":"金華路三段５７號","OBJECTID":340331},"geometry":{"x":167180.08000000007,"y":2543360.370000001}},{"attributes":{"ID":340341,"DIS_CODE":0,"TOWNNAME":"玉井區","LI":"沙田里","LIN":"5鄰","STREET":" ","SECT":" ","MAREA":"沙田","LANE":" ","ALLEY":" ","HOUSE_NO":"４８號","E_COORD97":197430.07000000001,"N_COORD97":2556712.2799999998,"ADDRESS":"沙田４８號","OBJECTID":340332},"geometry":{"x":197430.07000000123,"y":2556712.2800000012}},{"attributes":{"ID":340342,"DIS_CODE":0,"TOWNNAME":"玉井區","LI":"沙田里","LIN":"5鄰","STREET":" ","SECT":" ","MAREA":"沙田","LANE":" ","ALLEY":" ","HOUSE_NO":"４５號","E_COORD97":197393.95999999999,"N_COORD97":2556695.29,"ADDRESS":"沙田４５號","OBJECTID":340333},"geometry":{"x":197393.95999999996,"y":2556695.290000001}},{"attributes":{"ID":340343,"DIS_CODE":0,"TOWNNAME":"玉井區","LI":"玉田里","LIN":"5鄰","STREET":"中華路","SECT":" ","MAREA":" ","LANE":"２５巷","ALLEY":" ","HOUSE_NO":"４號","E_COORD97":194955.89999999999,"N_COORD97":2558141.25,"ADDRESS":"中華路２５巷４號","OBJECTID":340334},"geometry":{"x":194955.89999999944,"y":2558141.2500000019}},{"attributes":{"ID":340344,"DIS_CODE":0,"TOWNNAME":"玉井區","LI":"玉田里","LIN":"5鄰","STREET":"中華路","SECT":" ","MAREA":" ","LANE":"２５巷","ALLEY":" ","HOUSE_NO":"１６號","E_COORD97":194982.56,"N_COORD97":2558138.25,"ADDRESS":"中華路２５巷１６號","OBJECTID":340335},"geometry":{"x":194982.55999999959,"y":2558138.2500000019}},{"attributes":{"ID":340345,"DIS_CODE":0,"TOWNNAME":"玉井區","LI":"玉田里","LIN":"5鄰","STREET":"中華路","SECT":" ","MAREA":" ","LANE":"２５巷","ALLEY":" ","HOUSE_NO":"１５號","E_COORD97":194983.56,"N_COORD97":2558146.25,"ADDRESS":"中華路２５巷１５號","OBJECTID":340336},"geometry":{"x":194983.56000000052,"y":2558146.25}},{"attributes":{"ID":340346,"DIS_CODE":0,"TOWNNAME":"玉井區","LI":"玉田里","LIN":"5鄰","STREET":"中華路","SECT":" ","MAREA":" ","LANE":"２５巷","ALLEY":" ","HOUSE_NO":"１號","E_COORD97":194951.51000000001,"N_COORD97":2558149.25,"ADDRESS":"中華路２５巷１號","OBJECTID":340337},"geometry":{"x":194951.51000000071,"y":2558149.25}},{"attributes":{"ID":340347,"DIS_CODE":0,"TOWNNAME":"學甲區","LI":"明宜里","LIN":"5鄰","STREET":"和平路","SECT":" ","MAREA":" ","LANE":"２７３巷","ALLEY":" ","HOUSE_NO":"１０號","E_COORD97":165940.01000000001,"N_COORD97":2570415.2400000002,"ADDRESS":"和平路２７３巷１０號","OBJECTID":340338},"geometry":{"x":165940.01000000071,"y":2570415.2400000021}},{"attributes":{"ID":340348,"DIS_CODE":0,"TOWNNAME":"玉井區","LI":"沙田里","LIN":"5鄰","STREET":" ","SECT":" ","MAREA":"沙田","LANE":" ","ALLEY":" ","HOUSE_NO":"４６號","E_COORD97":197426.37,"N_COORD97":2556684.29,"ADDRESS":"沙田４６號","OBJECTID":340339},"geometry":{"x":197426.37000000104,"y":2556684.2900000028}},{"attributes":{"ID":340349,"DIS_CODE":0,"TOWNNAME":"玉井區","LI":"望明里","LIN":"5鄰","STREET":" ","SECT":" ","MAREA":"望明","LANE":" ","ALLEY":" ","HOUSE_NO":"４６之２號","E_COORD97":194101.73000000001,"N_COORD97":2556004.29,"ADDRESS":"望明４６之２號","OBJECTID":340340},"geometry":{"x":194101.73000000138,"y":2556004.290000001}},{"attributes":{"ID":340350,"DIS_CODE":0,"TOWNNAME":"玉井區","LI":"望明里","LIN":"5鄰","STREET":" ","SECT":" ","MAREA":"望明","LANE":" ","ALLEY":" ","HOUSE_NO":"５５之４號","E_COORD97":194186.84,"N_COORD97":2556133.29,"ADDRESS":"望明５５之４號","OBJECTID":340341},"geometry":{"x":194186.84000000078,"y":2556133.290000001}},{"attributes":{"ID":340351,"DIS_CODE":0,"TOWNNAME":"玉井區","LI":"望明里","LIN":"5鄰","STREET":" ","SECT":" ","MAREA":"望明","LANE":" ","ALLEY":" ","HOUSE_NO":"５３之２號","E_COORD97":193995.63,"N_COORD97":2556174.2999999998,"ADDRESS":"望明５３之２號","OBJECTID":340342},"geometry":{"x":193995.62999999989,"y":2556174.3000000045}},{"attributes":{"ID":340352,"DIS_CODE":0,"TOWNNAME":"玉井區","LI":"望明里","LIN":"5鄰","STREET":" ","SECT":" ","MAREA":"望明","LANE":" ","ALLEY":" ","HOUSE_NO":"４８之１號","E_COORD97":194207.92999999999,"N_COORD97":2555990.29,"ADDRESS":"望明４８之１號","OBJECTID":340343},"geometry":{"x":194207.93000000063,"y":2555990.290000001}},{"attributes":{"ID":340353,"DIS_CODE":0,"TOWNNAME":"玉井區","LI":"豐里里","LIN":"5鄰","STREET":" ","SECT":" ","MAREA":"豐里","LANE":" ","ALLEY":" ","HOUSE_NO":"５０號","E_COORD97":193175.76000000001,"N_COORD97":2558023.25,"ADDRESS":"豐里５０號","OBJECTID":340344},"geometry":{"x":193175.75999999978,"y":2558023.25}},{"attributes":{"ID":340354,"DIS_CODE":0,"TOWNNAME":"學甲區","LI":"宅港里","LIN":"5鄰","STREET":" ","SECT":" ","MAREA":"宅子港","LANE":" ","ALLEY":" ","HOUSE_NO":"６３號","E_COORD97":168418.57999999999,"N_COORD97":2573153.8399999999,"ADDRESS":"宅子港６３號","OBJECTID":340345},"geometry":{"x":168418.58000000101,"y":2573153.8399999999}},{"attributes":{"ID":340355,"DIS_CODE":0,"TOWNNAME":"學甲區","LI":"宅港里","LIN":"5鄰","STREET":" ","SECT":" ","MAREA":"宅子港","LANE":" ","ALLEY":" ","HOUSE_NO":"６４號","E_COORD97":168418.48999999999,"N_COORD97":2573180.5699999998,"ADDRESS":"宅子港６４號","OBJECTID":340346},"geometry":{"x":168418.49000000022,"y":2573180.5700000003}},{"attributes":{"ID":340356,"DIS_CODE":0,"TOWNNAME":"學甲區","LI":"宅港里","LIN":"5鄰","STREET":" ","SECT":" ","MAREA":"宅子港","LANE":" ","ALLEY":" ","HOUSE_NO":"６５號","E_COORD97":168434.89999999999,"N_COORD97":2573178.9100000001,"ADDRESS":"宅子港６５號","OBJECTID":340347},"geometry":{"x":168434.9000000013,"y":2573178.9100000039}},{"attributes":{"ID":340357,"DIS_CODE":0,"TOWNNAME":"學甲區","LI":"宅港里","LIN":"5鄰","STREET":" ","SECT":" ","MAREA":"宅子港","LANE":" ","ALLEY":" ","HOUSE_NO":"６６號","E_COORD97":168442.89000000001,"N_COORD97":2573172.6299999999,"ADDRESS":"宅子港６６號","OBJECTID":340348},"geometry":{"x":168442.8900000006,"y":2573172.6300000027}},{"attributes":{"ID":340358,"DIS_CODE":0,"TOWNNAME":"關廟區","LI":"北花里","LIN":"1鄰","STREET":"中正路","SECT":" ","MAREA":" ","LANE":"６５２巷","ALLEY":" ","HOUSE_NO":"６號","E_COORD97":181818.45999999999,"N_COORD97":2540402.25,"ADDRESS":"中正路６５２巷６號","OBJECTID":340349},"geometry":{"x":181818.45999999996,"y":2540402.2500000019}},{"attributes":{"ID":340359,"DIS_CODE":0,"TOWNNAME":"中西區","LI":"民生里","LIN":"8鄰","STREET":"金華路","SECT":"三段","MAREA":" ","LANE":" ","ALLEY":" ","HOUSE_NO":"５９號","E_COORD97":167180.76999999999,"N_COORD97":2543363.5600000001,"ADDRESS":"金華路三段５９號","OBJECTID":340350},"geometry":{"x":167180.77000000048,"y":2543363.5600000024}},{"attributes":{"ID":340360,"DIS_CODE":0,"TOWNNAME":"中西區","LI":"民生里","LIN":"8鄰","STREET":"金華路","SECT":"三段","MAREA":" ","LANE":" ","ALLEY":" ","HOUSE_NO":"６１號","E_COORD97":167181.22,"N_COORD97":2543366.9700000002,"ADDRESS":"金華路三段６１號","OBJECTID":340351},"geometry":{"x":167181.22000000067,"y":2543366.9700000007}},{"attributes":{"ID":340361,"DIS_CODE":0,"TOWNNAME":"中西區","LI":"安海里","LIN":"8鄰","STREET":"金華路","SECT":"三段","MAREA":" ","LANE":" ","ALLEY":" ","HOUSE_NO":"２１８號","E_COORD97":167349.89999999999,"N_COORD97":2543920.5099999998,"ADDRESS":"金華路三段２１８號","OBJECTID":340352},"geometry":{"x":167349.90000000224,"y":2543920.5100000016}},{"attributes":{"ID":340362,"DIS_CODE":0,"TOWNNAME":"中西區","LI":"三合里","LIN":"8鄰","STREET":"成功路","SECT":" ","MAREA":" ","LANE":" ","ALLEY":" ","HOUSE_NO":"４５７號","E_COORD97":167602.39000000001,"N_COORD97":2544649.3900000001,"ADDRESS":"成功路４５７號","OBJECTID":340353},"geometry":{"x":167602.3900000006,"y":2544649.3900000043}},{"attributes":{"ID":340363,"DIS_CODE":0,"TOWNNAME":"東區","LI":"裕聖里","LIN":"8鄰","STREET":"裕東一街","SECT":" ","MAREA":" ","LANE":" ","ALLEY":" ","HOUSE_NO":"８號","E_COORD97":172685.73000000001,"N_COORD97":2541998.3700000001,"ADDRESS":"裕東一街８號","OBJECTID":340354},"geometry":{"x":172685.72999999952,"y":2541998.370000001}},{"attributes":{"ID":340364,"DIS_CODE":0,"TOWNNAME":"麻豆區","LI":"東角里","LIN":"8鄰","STREET":"興中路","SECT":" ","MAREA":" ","LANE":" ","ALLEY":" ","HOUSE_NO":"１７２號","E_COORD97":173581.09,"N_COORD97":2564805.5099999998,"ADDRESS":"興中路１７２號","OBJECTID":340355},"geometry":{"x":173581.08999999892,"y":2564805.5099999998}},{"attributes":{"ID":340365,"DIS_CODE":0,"TOWNNAME":"學甲區","LI":"新榮里","LIN":"5鄰","STREET":" ","SECT":" ","MAREA":"東寮","LANE":" ","ALLEY":" ","HOUSE_NO":"５２號","E_COORD97":166746.42999999999,"N_COORD97":2569486.8799999999,"ADDRESS":"東寮５２號","OBJECTID":340356},"geometry":{"x":166746.4299999997,"y":2569486.8800000008}},{"attributes":{"ID":340366,"DIS_CODE":0,"TOWNNAME":"學甲區","LI":"新榮里","LIN":"5鄰","STREET":" ","SECT":" ","MAREA":"東寮","LANE":" ","ALLEY":" ","HOUSE_NO":"５３號","E_COORD97":166740.95999999999,"N_COORD97":2569498.0099999998,"ADDRESS":"東寮５３號","OBJECTID":340357},"geometry":{"x":166740.96000000089,"y":2569498.0099999998}},{"attributes":{"ID":340367,"DIS_CODE":0,"TOWNNAME":"學甲區","LI":"新榮里","LIN":"5鄰","STREET":" ","SECT":" ","MAREA":"東寮","LANE":" ","ALLEY":" ","HOUSE_NO":"５４號之２","E_COORD97":166724.98000000001,"N_COORD97":2569524.1400000001,"ADDRESS":"東寮５４號之２","OBJECTID":340358},"geometry":{"x":166724.98000000045,"y":2569524.1400000025}},{"attributes":{"ID":340368,"DIS_CODE":0,"TOWNNAME":"學甲區","LI":"新榮里","LIN":"5鄰","STREET":" ","SECT":" ","MAREA":"東寮","LANE":" ","ALLEY":" ","HOUSE_NO":"５５號","E_COORD97":166727.51000000001,"N_COORD97":2569529.3100000001,"ADDRESS":"東寮５５號","OBJECTID":340359},"geometry":{"x":166727.50999999978,"y":2569529.3100000024}},{"attributes":{"ID":340369,"DIS_CODE":0,"TOWNNAME":"學甲區","LI":"新榮里","LIN":"5鄰","STREET":" ","SECT":" ","MAREA":"東寮","LANE":" ","ALLEY":" ","HOUSE_NO":"５６號","E_COORD97":166709.67999999999,"N_COORD97":2569508.8500000001,"ADDRESS":"東寮５６號","OBJECTID":340360},"geometry":{"x":166709.6799999997,"y":2569508.8499999996}},{"attributes":{"ID":340370,"DIS_CODE":0,"TOWNNAME":"學甲區","LI":"新榮里","LIN":"5鄰","STREET":" ","SECT":" ","MAREA":"東寮","LANE":" ","ALLEY":" ","HOUSE_NO":"５７號","E_COORD97":166726.23999999999,"N_COORD97":2569501.1299999999,"ADDRESS":"東寮５７號","OBJECTID":340361},"geometry":{"x":166726.24000000022,"y":2569501.1300000027}},{"attributes":{"ID":340371,"DIS_CODE":0,"TOWNNAME":"學甲區","LI":"新榮里","LIN":"5鄰","STREET":" ","SECT":" ","MAREA":"東寮","LANE":" ","ALLEY":" ","HOUSE_NO":"５８號","E_COORD97":166726.95000000001,"N_COORD97":2569477.8999999999,"ADDRESS":"東寮５８號","OBJECTID":340362},"geometry":{"x":166726.95000000019,"y":2569477.9000000022}},{"attributes":{"ID":340372,"DIS_CODE":0,"TOWNNAME":"學甲區","LI":"新榮里","LIN":"5鄰","STREET":" ","SECT":" ","MAREA":"東寮","LANE":" ","ALLEY":" ","HOUSE_NO":"６０號之１","E_COORD97":166685.91,"N_COORD97":2569481.71,"ADDRESS":"東寮６０號之１","OBJECTID":340363},"geometry":{"x":166685.91000000015,"y":2569481.7100000009}},{"attributes":{"ID":340373,"DIS_CODE":0,"TOWNNAME":"學甲區","LI":"新榮里","LIN":"5鄰","STREET":" ","SECT":" ","MAREA":"東寮","LANE":" ","ALLEY":" ","HOUSE_NO":"６１號之１","E_COORD97":166685.03,"N_COORD97":2569504.79,"ADDRESS":"東寮６１號之１","OBJECTID":340364},"geometry":{"x":166685.03000000119,"y":2569504.790000001}},{"attributes":{"ID":340374,"DIS_CODE":0,"TOWNNAME":"學甲區","LI":"新榮里","LIN":"5鄰","STREET":" ","SECT":" ","MAREA":"東寮","LANE":" ","ALLEY":" ","HOUSE_NO":"６１號之３","E_COORD97":166684.45999999999,"N_COORD97":2569514.9500000002,"ADDRESS":"東寮６１號之３","OBJECTID":340365},"geometry":{"x":166684.46000000183,"y":2569514.9499999993}},{"attributes":{"ID":340375,"DIS_CODE":0,"TOWNNAME":"學甲區","LI":"新榮里","LIN":"5鄰","STREET":" ","SECT":" ","MAREA":"東寮","LANE":" ","ALLEY":" ","HOUSE_NO":"６１號","E_COORD97":166685.19,"N_COORD97":2569500.1200000001,"ADDRESS":"東寮６１號","OBJECTID":340366},"geometry":{"x":166685.19000000227,"y":2569500.1200000029}},{"attributes":{"ID":340376,"DIS_CODE":0,"TOWNNAME":"學甲區","LI":"豐和里","LIN":"5鄰","STREET":" ","SECT":" ","MAREA":"美豐","LANE":" ","ALLEY":" ","HOUSE_NO":"３３號","E_COORD97":168099.98000000001,"N_COORD97":2568702.5899999999,"ADDRESS":"美豐３３號","OBJECTID":340367},"geometry":{"x":168099.98000000045,"y":2568702.5900000017}},{"attributes":{"ID":340377,"DIS_CODE":0,"TOWNNAME":"學甲區","LI":"豐和里","LIN":"5鄰","STREET":" ","SECT":" ","MAREA":"美豐","LANE":" ","ALLEY":" ","HOUSE_NO":"３４號之１","E_COORD97":168108.87,"N_COORD97":2568672.9500000002,"ADDRESS":"美豐３４號之１","OBJECTID":340368},"geometry":{"x":168108.87000000011,"y":2568672.9500000011}},{"attributes":{"ID":340378,"DIS_CODE":0,"TOWNNAME":"東區","LI":"裕聖里","LIN":"1鄰","STREET":"裕忠一街","SECT":" ","MAREA":" ","LANE":" ","ALLEY":" ","HOUSE_NO":"２５號","E_COORD97":172323.75,"N_COORD97":2542419.5,"ADDRESS":"裕忠一街２５號","OBJECTID":340369},"geometry":{"x":172323.75,"y":2542419.5}},{"attributes":{"ID":340379,"DIS_CODE":0,"TOWNNAME":"學甲區","LI":"豐和里","LIN":"5鄰","STREET":" ","SECT":" ","MAREA":"美豐","LANE":" ","ALLEY":" ","HOUSE_NO":"３４號","E_COORD97":168101.09,"N_COORD97":2568671.1000000001,"ADDRESS":"美豐３４號","OBJECTID":340370},"geometry":{"x":168101.09000000078,"y":2568671.1000000034}},{"attributes":{"ID":340380,"DIS_CODE":0,"TOWNNAME":"學甲區","LI":"豐和里","LIN":"5鄰","STREET":" ","SECT":" ","MAREA":"美豐","LANE":" ","ALLEY":" ","HOUSE_NO":"３５號","E_COORD97":168120.70000000001,"N_COORD97":2568674.6099999999,"ADDRESS":"美豐３５號","OBJECTID":340371},"geometry":{"x":168120.70000000205,"y":2568674.6100000013}},{"attributes":{"ID":340381,"DIS_CODE":0,"TOWNNAME":"學甲區","LI":"豐和里","LIN":"5鄰","STREET":" ","SECT":" ","MAREA":"美豐","LANE":" ","ALLEY":" ","HOUSE_NO":"３６號","E_COORD97":168115.10000000001,"N_COORD97":2568714.3700000001,"ADDRESS":"美豐３６號","OBJECTID":340372},"geometry":{"x":168115.09999999963,"y":2568714.370000001}},{"attributes":{"ID":340382,"DIS_CODE":0,"TOWNNAME":"學甲區","LI":"豐和里","LIN":"5鄰","STREET":" ","SECT":" ","MAREA":"美豐","LANE":" ","ALLEY":" ","HOUSE_NO":"３７號之１","E_COORD97":168138.54999999999,"N_COORD97":2568696.6099999999,"ADDRESS":"美豐３７號之１","OBJECTID":340373},"geometry":{"x":168138.55000000075,"y":2568696.6099999994}},{"attributes":{"ID":340383,"DIS_CODE":0,"TOWNNAME":"學甲區","LI":"豐和里","LIN":"5鄰","STREET":" ","SECT":" ","MAREA":"美豐","LANE":" ","ALLEY":" ","HOUSE_NO":"３８號之１","E_COORD97":168145.69,"N_COORD97":2568680.3599999999,"ADDRESS":"美豐３８號之１","OBJECTID":340374},"geometry":{"x":168145.69000000041,"y":2568680.3600000013}},{"attributes":{"ID":340384,"DIS_CODE":0,"TOWNNAME":"學甲區","LI":"豐和里","LIN":"5鄰","STREET":" ","SECT":" ","MAREA":"美豐","LANE":" ","ALLEY":" ","HOUSE_NO":"３８號","E_COORD97":168151.92999999999,"N_COORD97":2568682.5600000001,"ADDRESS":"美豐３８號","OBJECTID":340375},"geometry":{"x":168151.9299999997,"y":2568682.5600000042}},{"attributes":{"ID":340385,"DIS_CODE":0,"TOWNNAME":"學甲區","LI":"豐和里","LIN":"5鄰","STREET":" ","SECT":" ","MAREA":"美豐","LANE":" ","ALLEY":" ","HOUSE_NO":"３９號","E_COORD97":168161.38,"N_COORD97":2568682.79,"ADDRESS":"美豐３９號","OBJECTID":340376},"geometry":{"x":168161.38000000175,"y":2568682.7899999972}},{"attributes":{"ID":340386,"DIS_CODE":0,"TOWNNAME":"北區","LI":"正覺里","LIN":"5鄰","STREET":"北安路","SECT":"一段","MAREA":" ","LANE":"５１巷","ALLEY":" ","HOUSE_NO":"１０號","E_COORD97":169120.98999999999,"N_COORD97":2546131.0800000001,"ADDRESS":"北安路一段５１巷１０號","OBJECTID":340377},"geometry":{"x":169120.99000000115,"y":2546131.0800000001}},{"attributes":{"ID":340387,"DIS_CODE":0,"TOWNNAME":"北區","LI":"正覺里","LIN":"5鄰","STREET":"北安路","SECT":"一段","MAREA":" ","LANE":"５１巷","ALLEY":" ","HOUSE_NO":"１１號","E_COORD97":169137.79000000001,"N_COORD97":2546117.1099999999,"ADDRESS":"北安路一段５１巷１１號","OBJECTID":340378},"geometry":{"x":169137.79000000097,"y":2546117.1099999994}},{"attributes":{"ID":340388,"DIS_CODE":0,"TOWNNAME":"北區","LI":"正覺里","LIN":"5鄰","STREET":"北安路","SECT":"一段","MAREA":" ","LANE":"５１巷","ALLEY":" ","HOUSE_NO":"１２號","E_COORD97":169118.35000000001,"N_COORD97":2546126.3900000001,"ADDRESS":"北安路一段５１巷１２號","OBJECTID":340379},"geometry":{"x":169118.34999999963,"y":2546126.3900000006}},{"attributes":{"ID":340389,"DIS_CODE":0,"TOWNNAME":"北區","LI":"正覺里","LIN":"5鄰","STREET":"北安路","SECT":"一段","MAREA":" ","LANE":"５１巷","ALLEY":" ","HOUSE_NO":"１３號","E_COORD97":169134.35999999999,"N_COORD97":2546110.6600000001,"ADDRESS":"北安路一段５１巷１３號","OBJECTID":340380},"geometry":{"x":169134.36000000034,"y":2546110.6600000001}},{"attributes":{"ID":340390,"DIS_CODE":0,"TOWNNAME":"北區","LI":"正覺里","LIN":"5鄰","STREET":"北安路","SECT":"一段","MAREA":" ","LANE":"５１巷","ALLEY":" ","HOUSE_NO":"１４號","E_COORD97":169108.64999999999,"N_COORD97":2546123.0600000001,"ADDRESS":"北安路一段５１巷１４號","OBJECTID":340381},"geometry":{"x":169108.65000000037,"y":2546123.0600000042}},{"attributes":{"ID":340391,"DIS_CODE":0,"TOWNNAME":"北區","LI":"正覺里","LIN":"5鄰","STREET":"北安路","SECT":"一段","MAREA":" ","LANE":"５１巷","ALLEY":" ","HOUSE_NO":"１５號","E_COORD97":169123.67000000001,"N_COORD97":2546103.5099999998,"ADDRESS":"北安路一段５１巷１５號","OBJECTID":340382},"geometry":{"x":169123.66999999993,"y":2546103.5100000016}},{"attributes":{"ID":340392,"DIS_CODE":0,"TOWNNAME":"北區","LI":"正覺里","LIN":"5鄰","STREET":"北安路","SECT":"一段","MAREA":" ","LANE":"５１巷","ALLEY":" ","HOUSE_NO":"１６號","E_COORD97":169079.25,"N_COORD97":2546130.2200000002,"ADDRESS":"北安路一段５１巷１６號","OBJECTID":340383},"geometry":{"x":169079.25,"y":2546130.2200000025}},{"attributes":{"ID":340393,"DIS_CODE":0,"TOWNNAME":"北區","LI":"正覺里","LIN":"5鄰","STREET":"北安路","SECT":"一段","MAREA":" ","LANE":"５１巷","ALLEY":" ","HOUSE_NO":"１７號","E_COORD97":169118.87,"N_COORD97":2546098.0299999998,"ADDRESS":"北安路一段５１巷１７號","OBJECTID":340384},"geometry":{"x":169118.87000000011,"y":2546098.0299999975}},{"attributes":{"ID":340394,"DIS_CODE":0,"TOWNNAME":"北區","LI":"正覺里","LIN":"5鄰","STREET":"北安路","SECT":"一段","MAREA":" ","LANE":"５１巷","ALLEY":" ","HOUSE_NO":"１８號","E_COORD97":169075.51000000001,"N_COORD97":2546120.96,"ADDRESS":"北安路一段５１巷１８號","OBJECTID":340385},"geometry":{"x":169075.50999999978,"y":2546120.9600000046}},{"attributes":{"ID":340395,"DIS_CODE":0,"TOWNNAME":"北區","LI":"正覺里","LIN":"5鄰","STREET":"北安路","SECT":"一段","MAREA":" ","LANE":"５１巷","ALLEY":" ","HOUSE_NO":"１９號","E_COORD97":169088.82999999999,"N_COORD97":2546114.7000000002,"ADDRESS":"北安路一段５１巷１９號","OBJECTID":340386},"geometry":{"x":169088.83000000007,"y":2546114.7000000011}},{"attributes":{"ID":340396,"DIS_CODE":0,"TOWNNAME":"關廟區","LI":"布袋里","LIN":"1鄰","STREET":"南雄路","SECT":"一段","MAREA":" ","LANE":"１９５巷","ALLEY":" ","HOUSE_NO":"１８７號","E_COORD97":182065.73999999999,"N_COORD97":2536194.25,"ADDRESS":"南雄路一段１９５巷１８７號","OBJECTID":340387},"geometry":{"x":182065.74000000115,"y":2536194.2500000037}},{"attributes":{"ID":340397,"DIS_CODE":0,"TOWNNAME":"關廟區","LI":"北勢里","LIN":"1鄰","STREET":"北新街","SECT":" ","MAREA":" ","LANE":"１５巷","ALLEY":" ","HOUSE_NO":"１３號","E_COORD97":181245.89000000001,"N_COORD97":2540324.25,"ADDRESS":"北新街１５巷１３號","OBJECTID":340388},"geometry":{"x":181245.88999999966,"y":2540324.2500000019}},{"attributes":{"ID":340398,"DIS_CODE":0,"TOWNNAME":"麻豆區","LI":"東角里","LIN":"8鄰","STREET":"興中路","SECT":" ","MAREA":" ","LANE":" ","ALLEY":" ","HOUSE_NO":"１７４號之１","E_COORD97":173593.60999999999,"N_COORD97":2564805.7799999998,"ADDRESS":"興中路１７４號之１","OBJECTID":340389},"geometry":{"x":173593.61000000127,"y":2564805.7800000012}},{"attributes":{"ID":340399,"DIS_CODE":0,"TOWNNAME":"麻豆區","LI":"東角里","LIN":"8鄰","STREET":"興中路","SECT":" ","MAREA":" ","LANE":" ","ALLEY":" ","HOUSE_NO":"１７４號","E_COORD97":173588.47,"N_COORD97":2564805.6400000001,"ADDRESS":"興中路１７４號","OBJECTID":340390},"geometry":{"x":173588.46999999974,"y":2564805.6400000006}},{"attributes":{"ID":340400,"DIS_CODE":0,"TOWNNAME":"麻豆區","LI":"東角里","LIN":"8鄰","STREET":"興中路","SECT":" ","MAREA":" ","LANE":" ","ALLEY":" ","HOUSE_NO":"１７６號","E_COORD97":173601.60000000001,"N_COORD97":2564802.6499999999,"ADDRESS":"興中路１７６號","OBJECTID":340391},"geometry":{"x":173601.60000000056,"y":2564802.6500000004}},{"attributes":{"ID":340401,"DIS_CODE":0,"TOWNNAME":"麻豆區","LI":"東角里","LIN":"8鄰","STREET":"興中路","SECT":" ","MAREA":" ","LANE":" ","ALLEY":" ","HOUSE_NO":"１７８號","E_COORD97":173611.17000000001,"N_COORD97":2564802.5499999998,"ADDRESS":"興中路１７８號","OBJECTID":340392},"geometry":{"x":173611.16999999899,"y":2564802.5500000026}},{"attributes":{"ID":340402,"DIS_CODE":0,"TOWNNAME":"麻豆區","LI":"東角里","LIN":"8鄰","STREET":"興中路","SECT":" ","MAREA":" ","LANE":" ","ALLEY":" ","HOUSE_NO":"１８０號","E_COORD97":173621.94,"N_COORD97":2564804.3900000001,"ADDRESS":"興中路１８０號","OBJECTID":340393},"geometry":{"x":173621.94000000134,"y":2564804.3900000006}},{"attributes":{"ID":340403,"DIS_CODE":0,"TOWNNAME":"東區","LI":"裕聖里","LIN":"8鄰","STREET":"裕信六街","SECT":" ","MAREA":" ","LANE":" ","ALLEY":" ","HOUSE_NO":"１０１號","E_COORD97":172718.25,"N_COORD97":2541896.71,"ADDRESS":"裕信六街１０１號","OBJECTID":340394},"geometry":{"x":172718.25000000093,"y":2541896.7100000009}},{"attributes":{"ID":340404,"DIS_CODE":0,"TOWNNAME":"東區","LI":"裕聖里","LIN":"8鄰","STREET":"裕信六街","SECT":" ","MAREA":" ","LANE":" ","ALLEY":" ","HOUSE_NO":"１０３號","E_COORD97":172731.79999999999,"N_COORD97":2541894.9500000002,"ADDRESS":"裕信六街１０３號","OBJECTID":340395},"geometry":{"x":172731.79999999981,"y":2541894.9500000011}},{"attributes":{"ID":340405,"DIS_CODE":0,"TOWNNAME":"東區","LI":"裕聖里","LIN":"8鄰","STREET":"裕信六街","SECT":" ","MAREA":" ","LANE":" ","ALLEY":" ","HOUSE_NO":"１０５號","E_COORD97":172732.67999999999,"N_COORD97":2541901.9900000002,"ADDRESS":"裕信六街１０５號","OBJECTID":340396},"geometry":{"x":172732.6799999997,"y":2541901.9899999984}},{"attributes":{"ID":340406,"DIS_CODE":0,"TOWNNAME":"東區","LI":"裕聖里","LIN":"8鄰","STREET":"裕信六街","SECT":" ","MAREA":" ","LANE":" ","ALLEY":" ","HOUSE_NO":"１０７號","E_COORD97":172732.67999999999,"N_COORD97":2541907.79,"ADDRESS":"裕信六街１０７號","OBJECTID":340397},"geometry":{"x":172732.6799999997,"y":2541907.7899999991}},{"attributes":{"ID":340407,"DIS_CODE":0,"TOWNNAME":"東區","LI":"裕聖里","LIN":"8鄰","STREET":"裕信六街","SECT":" ","MAREA":" ","LANE":" ","ALLEY":" ","HOUSE_NO":"１０９號","E_COORD97":172732.32999999999,"N_COORD97":2541914.29,"ADDRESS":"裕信六街１０９號","OBJECTID":340398},"geometry":{"x":172732.33000000194,"y":2541914.2899999991}},{"attributes":{"ID":340408,"DIS_CODE":0,"TOWNNAME":"東區","LI":"裕聖里","LIN":"8鄰","STREET":"裕信六街","SECT":" ","MAREA":" ","LANE":" ","ALLEY":" ","HOUSE_NO":"７１號","E_COORD97":172671.98000000001,"N_COORD97":2541896.1800000002,"ADDRESS":"裕信六街７１號","OBJECTID":340399},"geometry":{"x":172671.98000000045,"y":2541896.1799999997}},{"attributes":{"ID":340409,"DIS_CODE":0,"TOWNNAME":"北區","LI":"正覺里","LIN":"5鄰","STREET":"北安路","SECT":"一段","MAREA":" ","LANE":"５１巷","ALLEY":" ","HOUSE_NO":"６號","E_COORD97":169126.95999999999,"N_COORD97":2546139.21,"ADDRESS":"北安路一段５１巷６號","OBJECTID":340400},"geometry":{"x":169126.95999999996,"y":2546139.209999999}}]}