{"displayFieldName":"TOWNNAME","fieldAliases":{"ID":"ID","DIS_CODE":"DIS_CODE","TOWNNAME":"TOWNNAME","LI":"LI","LIN":"LIN","STREET":"STREET","SECT":"SECT","MAREA":"MAREA","LANE":"LANE","ALLEY":"ALLEY","HOUSE_NO":"HOUSE_NO","E_COORD97":"E_COORD97","N_COORD97":"N_COORD97","ADDRESS":"ADDRESS","OBJECTID":"OBJECTID"},"geometryType":"esriGeometryPoint","spatialReference":{"wkid":102443,"latestWkid":3826},"fields":[{"name":"ID","type":"esriFieldTypeDouble","alias":"ID"},{"name":"DIS_CODE","type":"esriFieldTypeInteger","alias":"DIS_CODE"},{"name":"TOWNNAME","type":"esriFieldTypeString","alias":"TOWNNAME","length":8},{"name":"LI","type":"esriFieldTypeString","alias":"LI","length":8},{"name":"LIN","type":"esriFieldTypeString","alias":"LIN","length":12},{"name":"STREET","type":"esriFieldTypeString","alias":"STREET","length":20},{"name":"SECT","type":"esriFieldTypeString","alias":"SECT","length":8},{"name":"MAREA","type":"esriFieldTypeString","alias":"MAREA","length":12},{"name":"LANE","type":"esriFieldTypeString","alias":"LANE","length":10},{"name":"ALLEY","type":"esriFieldTypeString","alias":"ALLEY","length":10},{"name":"HOUSE_NO","type":"esriFieldTypeString","alias":"HOUSE_NO","length":20},{"name":"E_COORD97","type":"esriFieldTypeDouble","alias":"E_COORD97"},{"name":"N_COORD97","type":"esriFieldTypeDouble","alias":"N_COORD97"},{"name":"ADDRESS","type":"esriFieldTypeString","alias":"ADDRESS","length":50},{"name":"OBJECTID","type":"esriFieldTypeOID","alias":"OBJECTID"}],"features":[{"attributes":{"ID":309409,"DIS_CODE":0,"TOWNNAME":"南區","LI":"開南里","LIN":"7鄰","STREET":"中華西路","SECT":"一段","MAREA":" ","LANE":"８巷","ALLEY":" ","HOUSE_NO":"１號十五樓之１","E_COORD97":166338.69,"N_COORD97":2540577.3199999998,"ADDRESS":"中華西路一段８巷１號十五樓之１","OBJECTID":309401},"geometry":{"x":166338.69000000041,"y":2540577.3200000003}},{"attributes":{"ID":309410,"DIS_CODE":0,"TOWNNAME":"南區","LI":"開南里","LIN":"7鄰","STREET":"中華西路","SECT":"一段","MAREA":" ","LANE":"８巷","ALLEY":" ","HOUSE_NO":"１號十五樓之２","E_COORD97":166338.69,"N_COORD97":2540577.3199999998,"ADDRESS":"中華西路一段８巷１號十五樓之２","OBJECTID":309402},"geometry":{"x":166338.69000000041,"y":2540577.3200000003}},{"attributes":{"ID":309411,"DIS_CODE":0,"TOWNNAME":"南區","LI":"開南里","LIN":"7鄰","STREET":"中華西路","SECT":"一段","MAREA":" ","LANE":"８巷","ALLEY":" ","HOUSE_NO":"１號十五樓之３","E_COORD97":166338.69,"N_COORD97":2540577.3199999998,"ADDRESS":"中華西路一段８巷１號十五樓之３","OBJECTID":309403},"geometry":{"x":166338.69000000041,"y":2540577.3200000003}},{"attributes":{"ID":309412,"DIS_CODE":0,"TOWNNAME":"南區","LI":"開南里","LIN":"7鄰","STREET":"中華西路","SECT":"一段","MAREA":" ","LANE":"８巷","ALLEY":" ","HOUSE_NO":"１號十六樓","E_COORD97":166338.69,"N_COORD97":2540577.3199999998,"ADDRESS":"中華西路一段８巷１號十六樓","OBJECTID":309404},"geometry":{"x":166338.69000000041,"y":2540577.3200000003}},{"attributes":{"ID":309413,"DIS_CODE":0,"TOWNNAME":"南區","LI":"開南里","LIN":"7鄰","STREET":"中華西路","SECT":"一段","MAREA":" ","LANE":"８巷","ALLEY":" ","HOUSE_NO":"１號十六樓之１","E_COORD97":166338.69,"N_COORD97":2540577.3199999998,"ADDRESS":"中華西路一段８巷１號十六樓之１","OBJECTID":309405},"geometry":{"x":166338.69000000041,"y":2540577.3200000003}},{"attributes":{"ID":309414,"DIS_CODE":0,"TOWNNAME":"南區","LI":"開南里","LIN":"7鄰","STREET":"中華西路","SECT":"一段","MAREA":" ","LANE":"８巷","ALLEY":" ","HOUSE_NO":"１號十六樓之２","E_COORD97":166338.69,"N_COORD97":2540577.3199999998,"ADDRESS":"中華西路一段８巷１號十六樓之２","OBJECTID":309406},"geometry":{"x":166338.69000000041,"y":2540577.3200000003}},{"attributes":{"ID":309415,"DIS_CODE":0,"TOWNNAME":"南區","LI":"開南里","LIN":"7鄰","STREET":"中華西路","SECT":"一段","MAREA":" ","LANE":"８巷","ALLEY":" ","HOUSE_NO":"１號十六樓之３","E_COORD97":166338.69,"N_COORD97":2540577.3199999998,"ADDRESS":"中華西路一段８巷１號十六樓之３","OBJECTID":309407},"geometry":{"x":166338.69000000041,"y":2540577.3200000003}},{"attributes":{"ID":309416,"DIS_CODE":0,"TOWNNAME":"南區","LI":"開南里","LIN":"7鄰","STREET":"中華西路","SECT":"一段","MAREA":" ","LANE":"８巷","ALLEY":" ","HOUSE_NO":"１號五樓之３","E_COORD97":166338.69,"N_COORD97":2540577.3199999998,"ADDRESS":"中華西路一段８巷１號五樓之３","OBJECTID":309408},"geometry":{"x":166338.69000000041,"y":2540577.3200000003}},{"attributes":{"ID":309417,"DIS_CODE":0,"TOWNNAME":"南區","LI":"開南里","LIN":"7鄰","STREET":"中華西路","SECT":"一段","MAREA":" ","LANE":"８巷","ALLEY":" ","HOUSE_NO":"１號三樓之２","E_COORD97":166338.69,"N_COORD97":2540577.3199999998,"ADDRESS":"中華西路一段８巷１號三樓之２","OBJECTID":309409},"geometry":{"x":166338.69000000041,"y":2540577.3200000003}},{"attributes":{"ID":309418,"DIS_CODE":0,"TOWNNAME":"北區","LI":"公園里","LIN":"17鄰","STREET":"成功路","SECT":" ","MAREA":" ","LANE":" ","ALLEY":" ","HOUSE_NO":"５４號六樓之２","E_COORD97":168749.89999999999,"N_COORD97":2544294.04,"ADDRESS":"成功路５４號六樓之２","OBJECTID":309410},"geometry":{"x":168749.90000000037,"y":2544294.0399999972}},{"attributes":{"ID":309419,"DIS_CODE":0,"TOWNNAME":"北區","LI":"公園里","LIN":"17鄰","STREET":"成功路","SECT":" ","MAREA":" ","LANE":" ","ALLEY":" ","HOUSE_NO":"５４號四樓之３","E_COORD97":168749.89999999999,"N_COORD97":2544294.04,"ADDRESS":"成功路５４號四樓之３","OBJECTID":309411},"geometry":{"x":168749.90000000037,"y":2544294.0399999972}},{"attributes":{"ID":309420,"DIS_CODE":0,"TOWNNAME":"北區","LI":"公園里","LIN":"17鄰","STREET":"成功路","SECT":" ","MAREA":" ","LANE":" ","ALLEY":" ","HOUSE_NO":"５４號四樓之２","E_COORD97":168749.89999999999,"N_COORD97":2544294.04,"ADDRESS":"成功路５４號四樓之２","OBJECTID":309412},"geometry":{"x":168749.90000000037,"y":2544294.0399999972}},{"attributes":{"ID":309421,"DIS_CODE":0,"TOWNNAME":"南區","LI":"開南里","LIN":"7鄰","STREET":"中華西路","SECT":"一段","MAREA":" ","LANE":"８巷","ALLEY":" ","HOUSE_NO":"３號二樓","E_COORD97":166376.82999999999,"N_COORD97":2540577.8799999999,"ADDRESS":"中華西路一段８巷３號二樓","OBJECTID":309413},"geometry":{"x":166376.82999999914,"y":2540577.879999999}},{"attributes":{"ID":309422,"DIS_CODE":0,"TOWNNAME":"新營區","LI":"嘉芳里","LIN":" ","STREET":" ","SECT":" ","MAREA":"茄苳腳","LANE":" ","ALLEY":" ","HOUSE_NO":"１３之４號一樓之１","E_COORD97":177117.17999999999,"N_COORD97":2578319.8100000001,"ADDRESS":"茄苳腳１３之４號一樓之１","OBJECTID":309414},"geometry":{"x":177117.18000000063,"y":2578319.8100000042}},{"attributes":{"ID":309423,"DIS_CODE":0,"TOWNNAME":"南區","LI":"開南里","LIN":"7鄰","STREET":"中華西路","SECT":"一段","MAREA":" ","LANE":"８巷","ALLEY":" ","HOUSE_NO":"３號二樓之１","E_COORD97":166376.82999999999,"N_COORD97":2540577.8799999999,"ADDRESS":"中華西路一段８巷３號二樓之１","OBJECTID":309415},"geometry":{"x":166376.82999999914,"y":2540577.879999999}},{"attributes":{"ID":309424,"DIS_CODE":0,"TOWNNAME":"南區","LI":"開南里","LIN":"7鄰","STREET":"中華西路","SECT":"一段","MAREA":" ","LANE":"８巷","ALLEY":" ","HOUSE_NO":"３號二樓之２","E_COORD97":166376.82999999999,"N_COORD97":2540577.8799999999,"ADDRESS":"中華西路一段８巷３號二樓之２","OBJECTID":309416},"geometry":{"x":166376.82999999914,"y":2540577.879999999}},{"attributes":{"ID":309425,"DIS_CODE":0,"TOWNNAME":"南區","LI":"開南里","LIN":"7鄰","STREET":"中華西路","SECT":"一段","MAREA":" ","LANE":"８巷","ALLEY":" ","HOUSE_NO":"３號二樓之３","E_COORD97":166376.82999999999,"N_COORD97":2540577.8799999999,"ADDRESS":"中華西路一段８巷３號二樓之３","OBJECTID":309417},"geometry":{"x":166376.82999999914,"y":2540577.879999999}},{"attributes":{"ID":309426,"DIS_CODE":0,"TOWNNAME":"南區","LI":"開南里","LIN":"7鄰","STREET":"中華西路","SECT":"一段","MAREA":" ","LANE":"８巷","ALLEY":" ","HOUSE_NO":"３號三樓","E_COORD97":166376.82999999999,"N_COORD97":2540577.8799999999,"ADDRESS":"中華西路一段８巷３號三樓","OBJECTID":309418},"geometry":{"x":166376.82999999914,"y":2540577.879999999}},{"attributes":{"ID":309427,"DIS_CODE":0,"TOWNNAME":"南區","LI":"開南里","LIN":"7鄰","STREET":"中華西路","SECT":"一段","MAREA":" ","LANE":"８巷","ALLEY":" ","HOUSE_NO":"３號三樓之１","E_COORD97":166376.82999999999,"N_COORD97":2540577.8799999999,"ADDRESS":"中華西路一段８巷３號三樓之１","OBJECTID":309419},"geometry":{"x":166376.82999999914,"y":2540577.879999999}},{"attributes":{"ID":309428,"DIS_CODE":0,"TOWNNAME":"南區","LI":"開南里","LIN":"7鄰","STREET":"中華西路","SECT":"一段","MAREA":" ","LANE":"８巷","ALLEY":" ","HOUSE_NO":"３號三樓之２","E_COORD97":166376.82999999999,"N_COORD97":2540577.8799999999,"ADDRESS":"中華西路一段８巷３號三樓之２","OBJECTID":309420},"geometry":{"x":166376.82999999914,"y":2540577.879999999}},{"attributes":{"ID":309429,"DIS_CODE":0,"TOWNNAME":"南區","LI":"開南里","LIN":"7鄰","STREET":"中華西路","SECT":"一段","MAREA":" ","LANE":"８巷","ALLEY":" ","HOUSE_NO":"３號三樓之３","E_COORD97":166376.82999999999,"N_COORD97":2540577.8799999999,"ADDRESS":"中華西路一段８巷３號三樓之３","OBJECTID":309421},"geometry":{"x":166376.82999999914,"y":2540577.879999999}},{"attributes":{"ID":309430,"DIS_CODE":0,"TOWNNAME":"南區","LI":"開南里","LIN":"7鄰","STREET":"中華西路","SECT":"一段","MAREA":" ","LANE":"８巷","ALLEY":" ","HOUSE_NO":"３號四樓","E_COORD97":166376.82999999999,"N_COORD97":2540577.8799999999,"ADDRESS":"中華西路一段８巷３號四樓","OBJECTID":309422},"geometry":{"x":166376.82999999914,"y":2540577.879999999}},{"attributes":{"ID":309431,"DIS_CODE":0,"TOWNNAME":"南區","LI":"開南里","LIN":"7鄰","STREET":"中華西路","SECT":"一段","MAREA":" ","LANE":"８巷","ALLEY":" ","HOUSE_NO":"３號四樓之１","E_COORD97":166376.82999999999,"N_COORD97":2540577.8799999999,"ADDRESS":"中華西路一段８巷３號四樓之１","OBJECTID":309423},"geometry":{"x":166376.82999999914,"y":2540577.879999999}},{"attributes":{"ID":309432,"DIS_CODE":0,"TOWNNAME":"南區","LI":"開南里","LIN":"7鄰","STREET":"中華西路","SECT":"一段","MAREA":" ","LANE":"８巷","ALLEY":" ","HOUSE_NO":"３號四樓之２","E_COORD97":166376.82999999999,"N_COORD97":2540577.8799999999,"ADDRESS":"中華西路一段８巷３號四樓之２","OBJECTID":309424},"geometry":{"x":166376.82999999914,"y":2540577.879999999}},{"attributes":{"ID":309433,"DIS_CODE":0,"TOWNNAME":"南區","LI":"開南里","LIN":"7鄰","STREET":"中華西路","SECT":"一段","MAREA":" ","LANE":"８巷","ALLEY":" ","HOUSE_NO":"３號四樓之３","E_COORD97":166376.82999999999,"N_COORD97":2540577.8799999999,"ADDRESS":"中華西路一段８巷３號四樓之３","OBJECTID":309425},"geometry":{"x":166376.82999999914,"y":2540577.879999999}},{"attributes":{"ID":309434,"DIS_CODE":0,"TOWNNAME":"南區","LI":"開南里","LIN":"7鄰","STREET":"中華西路","SECT":"一段","MAREA":" ","LANE":"８巷","ALLEY":" ","HOUSE_NO":"３號五樓","E_COORD97":166376.82999999999,"N_COORD97":2540577.8799999999,"ADDRESS":"中華西路一段８巷３號五樓","OBJECTID":309426},"geometry":{"x":166376.82999999914,"y":2540577.879999999}},{"attributes":{"ID":309435,"DIS_CODE":0,"TOWNNAME":"南區","LI":"開南里","LIN":"7鄰","STREET":"中華西路","SECT":"一段","MAREA":" ","LANE":"８巷","ALLEY":" ","HOUSE_NO":"３號五樓之１","E_COORD97":166376.82999999999,"N_COORD97":2540577.8799999999,"ADDRESS":"中華西路一段８巷３號五樓之１","OBJECTID":309427},"geometry":{"x":166376.82999999914,"y":2540577.879999999}},{"attributes":{"ID":309436,"DIS_CODE":0,"TOWNNAME":"南區","LI":"開南里","LIN":"7鄰","STREET":"中華西路","SECT":"一段","MAREA":" ","LANE":"８巷","ALLEY":" ","HOUSE_NO":"３號五樓之３","E_COORD97":166376.82999999999,"N_COORD97":2540577.8799999999,"ADDRESS":"中華西路一段８巷３號五樓之３","OBJECTID":309428},"geometry":{"x":166376.82999999914,"y":2540577.879999999}},{"attributes":{"ID":309437,"DIS_CODE":0,"TOWNNAME":"南區","LI":"開南里","LIN":"7鄰","STREET":"中華西路","SECT":"一段","MAREA":" ","LANE":"８巷","ALLEY":" ","HOUSE_NO":"３號六樓","E_COORD97":166376.82999999999,"N_COORD97":2540577.8799999999,"ADDRESS":"中華西路一段８巷３號六樓","OBJECTID":309429},"geometry":{"x":166376.82999999914,"y":2540577.879999999}},{"attributes":{"ID":309438,"DIS_CODE":0,"TOWNNAME":"南區","LI":"開南里","LIN":"7鄰","STREET":"中華西路","SECT":"一段","MAREA":" ","LANE":"８巷","ALLEY":" ","HOUSE_NO":"３號六樓之１","E_COORD97":166376.82999999999,"N_COORD97":2540577.8799999999,"ADDRESS":"中華西路一段８巷３號六樓之１","OBJECTID":309430},"geometry":{"x":166376.82999999914,"y":2540577.879999999}},{"attributes":{"ID":309439,"DIS_CODE":0,"TOWNNAME":"南區","LI":"開南里","LIN":"7鄰","STREET":"中華西路","SECT":"一段","MAREA":" ","LANE":"８巷","ALLEY":" ","HOUSE_NO":"３號六樓之２","E_COORD97":166376.82999999999,"N_COORD97":2540577.8799999999,"ADDRESS":"中華西路一段８巷３號六樓之２","OBJECTID":309431},"geometry":{"x":166376.82999999914,"y":2540577.879999999}},{"attributes":{"ID":309440,"DIS_CODE":0,"TOWNNAME":"南區","LI":"開南里","LIN":"7鄰","STREET":"中華西路","SECT":"一段","MAREA":" ","LANE":"８巷","ALLEY":" ","HOUSE_NO":"３號六樓之３","E_COORD97":166376.82999999999,"N_COORD97":2540577.8799999999,"ADDRESS":"中華西路一段８巷３號六樓之３","OBJECTID":309432},"geometry":{"x":166376.82999999914,"y":2540577.879999999}},{"attributes":{"ID":309441,"DIS_CODE":0,"TOWNNAME":"南區","LI":"開南里","LIN":"7鄰","STREET":"中華西路","SECT":"一段","MAREA":" ","LANE":"８巷","ALLEY":" ","HOUSE_NO":"３號七樓","E_COORD97":166376.82999999999,"N_COORD97":2540577.8799999999,"ADDRESS":"中華西路一段８巷３號七樓","OBJECTID":309433},"geometry":{"x":166376.82999999914,"y":2540577.879999999}},{"attributes":{"ID":309442,"DIS_CODE":0,"TOWNNAME":"南區","LI":"開南里","LIN":"7鄰","STREET":"中華西路","SECT":"一段","MAREA":" ","LANE":"８巷","ALLEY":" ","HOUSE_NO":"３號七樓之１","E_COORD97":166376.82999999999,"N_COORD97":2540577.8799999999,"ADDRESS":"中華西路一段８巷３號七樓之１","OBJECTID":309434},"geometry":{"x":166376.82999999914,"y":2540577.879999999}},{"attributes":{"ID":309443,"DIS_CODE":0,"TOWNNAME":"南區","LI":"開南里","LIN":"7鄰","STREET":"中華西路","SECT":"一段","MAREA":" ","LANE":"８巷","ALLEY":" ","HOUSE_NO":"３號七樓之２","E_COORD97":166376.82999999999,"N_COORD97":2540577.8799999999,"ADDRESS":"中華西路一段８巷３號七樓之２","OBJECTID":309435},"geometry":{"x":166376.82999999914,"y":2540577.879999999}},{"attributes":{"ID":309444,"DIS_CODE":0,"TOWNNAME":"南區","LI":"開南里","LIN":"7鄰","STREET":"中華西路","SECT":"一段","MAREA":" ","LANE":"８巷","ALLEY":" ","HOUSE_NO":"３號七樓之３","E_COORD97":166376.82999999999,"N_COORD97":2540577.8799999999,"ADDRESS":"中華西路一段８巷３號七樓之３","OBJECTID":309436},"geometry":{"x":166376.82999999914,"y":2540577.879999999}},{"attributes":{"ID":309445,"DIS_CODE":0,"TOWNNAME":"南區","LI":"開南里","LIN":"7鄰","STREET":"中華西路","SECT":"一段","MAREA":" ","LANE":"８巷","ALLEY":" ","HOUSE_NO":"３號八樓","E_COORD97":166376.82999999999,"N_COORD97":2540577.8799999999,"ADDRESS":"中華西路一段８巷３號八樓","OBJECTID":309437},"geometry":{"x":166376.82999999914,"y":2540577.879999999}},{"attributes":{"ID":309446,"DIS_CODE":0,"TOWNNAME":"南區","LI":"開南里","LIN":"7鄰","STREET":"中華西路","SECT":"一段","MAREA":" ","LANE":"８巷","ALLEY":" ","HOUSE_NO":"３號八樓之１","E_COORD97":166376.82999999999,"N_COORD97":2540577.8799999999,"ADDRESS":"中華西路一段８巷３號八樓之１","OBJECTID":309438},"geometry":{"x":166376.82999999914,"y":2540577.879999999}},{"attributes":{"ID":309447,"DIS_CODE":0,"TOWNNAME":"南區","LI":"開南里","LIN":"7鄰","STREET":"中華西路","SECT":"一段","MAREA":" ","LANE":"８巷","ALLEY":" ","HOUSE_NO":"３號八樓之２","E_COORD97":166376.82999999999,"N_COORD97":2540577.8799999999,"ADDRESS":"中華西路一段８巷３號八樓之２","OBJECTID":309439},"geometry":{"x":166376.82999999914,"y":2540577.879999999}},{"attributes":{"ID":309448,"DIS_CODE":0,"TOWNNAME":"南區","LI":"開南里","LIN":"7鄰","STREET":"中華西路","SECT":"一段","MAREA":" ","LANE":"８巷","ALLEY":" ","HOUSE_NO":"３號八樓之３","E_COORD97":166376.82999999999,"N_COORD97":2540577.8799999999,"ADDRESS":"中華西路一段８巷３號八樓之３","OBJECTID":309440},"geometry":{"x":166376.82999999914,"y":2540577.879999999}},{"attributes":{"ID":309449,"DIS_CODE":0,"TOWNNAME":"南區","LI":"開南里","LIN":"7鄰","STREET":"中華西路","SECT":"一段","MAREA":" ","LANE":"８巷","ALLEY":" ","HOUSE_NO":"３號九樓","E_COORD97":166376.82999999999,"N_COORD97":2540577.8799999999,"ADDRESS":"中華西路一段８巷３號九樓","OBJECTID":309441},"geometry":{"x":166376.82999999914,"y":2540577.879999999}},{"attributes":{"ID":309450,"DIS_CODE":0,"TOWNNAME":"南區","LI":"開南里","LIN":"7鄰","STREET":"中華西路","SECT":"一段","MAREA":" ","LANE":"８巷","ALLEY":" ","HOUSE_NO":"３號九樓之１","E_COORD97":166376.82999999999,"N_COORD97":2540577.8799999999,"ADDRESS":"中華西路一段８巷３號九樓之１","OBJECTID":309442},"geometry":{"x":166376.82999999914,"y":2540577.879999999}},{"attributes":{"ID":309451,"DIS_CODE":0,"TOWNNAME":"南區","LI":"開南里","LIN":"7鄰","STREET":"中華西路","SECT":"一段","MAREA":" ","LANE":"８巷","ALLEY":" ","HOUSE_NO":"３號九樓之２","E_COORD97":166376.82999999999,"N_COORD97":2540577.8799999999,"ADDRESS":"中華西路一段８巷３號九樓之２","OBJECTID":309443},"geometry":{"x":166376.82999999914,"y":2540577.879999999}},{"attributes":{"ID":309452,"DIS_CODE":0,"TOWNNAME":"南區","LI":"開南里","LIN":"7鄰","STREET":"中華西路","SECT":"一段","MAREA":" ","LANE":"８巷","ALLEY":" ","HOUSE_NO":"３號九樓之３","E_COORD97":166376.82999999999,"N_COORD97":2540577.8799999999,"ADDRESS":"中華西路一段８巷３號九樓之３","OBJECTID":309444},"geometry":{"x":166376.82999999914,"y":2540577.879999999}},{"attributes":{"ID":309453,"DIS_CODE":0,"TOWNNAME":"南區","LI":"開南里","LIN":"7鄰","STREET":"中華西路","SECT":"一段","MAREA":" ","LANE":"８巷","ALLEY":" ","HOUSE_NO":"３號十樓","E_COORD97":166376.82999999999,"N_COORD97":2540577.8799999999,"ADDRESS":"中華西路一段８巷３號十樓","OBJECTID":309445},"geometry":{"x":166376.82999999914,"y":2540577.879999999}},{"attributes":{"ID":309454,"DIS_CODE":0,"TOWNNAME":"南區","LI":"開南里","LIN":"7鄰","STREET":"中華西路","SECT":"一段","MAREA":" ","LANE":"８巷","ALLEY":" ","HOUSE_NO":"３號十樓之１","E_COORD97":166376.82999999999,"N_COORD97":2540577.8799999999,"ADDRESS":"中華西路一段８巷３號十樓之１","OBJECTID":309446},"geometry":{"x":166376.82999999914,"y":2540577.879999999}},{"attributes":{"ID":309455,"DIS_CODE":0,"TOWNNAME":"南區","LI":"開南里","LIN":"7鄰","STREET":"中華西路","SECT":"一段","MAREA":" ","LANE":"８巷","ALLEY":" ","HOUSE_NO":"３號十樓之２","E_COORD97":166376.82999999999,"N_COORD97":2540577.8799999999,"ADDRESS":"中華西路一段８巷３號十樓之２","OBJECTID":309447},"geometry":{"x":166376.82999999914,"y":2540577.879999999}},{"attributes":{"ID":309456,"DIS_CODE":0,"TOWNNAME":"南區","LI":"開南里","LIN":"7鄰","STREET":"中華西路","SECT":"一段","MAREA":" ","LANE":"８巷","ALLEY":" ","HOUSE_NO":"３號十樓之３","E_COORD97":166376.82999999999,"N_COORD97":2540577.8799999999,"ADDRESS":"中華西路一段８巷３號十樓之３","OBJECTID":309448},"geometry":{"x":166376.82999999914,"y":2540577.879999999}},{"attributes":{"ID":309457,"DIS_CODE":0,"TOWNNAME":"南區","LI":"開南里","LIN":"7鄰","STREET":"中華西路","SECT":"一段","MAREA":" ","LANE":"８巷","ALLEY":" ","HOUSE_NO":"３號十一樓","E_COORD97":166376.82999999999,"N_COORD97":2540577.8799999999,"ADDRESS":"中華西路一段８巷３號十一樓","OBJECTID":309449},"geometry":{"x":166376.82999999914,"y":2540577.879999999}},{"attributes":{"ID":309458,"DIS_CODE":0,"TOWNNAME":"南區","LI":"開南里","LIN":"7鄰","STREET":"中華西路","SECT":"一段","MAREA":" ","LANE":"８巷","ALLEY":" ","HOUSE_NO":"３號五樓之２","E_COORD97":166376.82999999999,"N_COORD97":2540577.8799999999,"ADDRESS":"中華西路一段８巷３號五樓之２","OBJECTID":309450},"geometry":{"x":166376.82999999914,"y":2540577.879999999}},{"attributes":{"ID":309459,"DIS_CODE":0,"TOWNNAME":"南區","LI":"開南里","LIN":"7鄰","STREET":"中華西路","SECT":"一段","MAREA":" ","LANE":"８巷","ALLEY":" ","HOUSE_NO":"３號十一樓之１","E_COORD97":166376.82999999999,"N_COORD97":2540577.8799999999,"ADDRESS":"中華西路一段８巷３號十一樓之１","OBJECTID":309451},"geometry":{"x":166376.82999999914,"y":2540577.879999999}},{"attributes":{"ID":309460,"DIS_CODE":0,"TOWNNAME":"南區","LI":"開南里","LIN":"7鄰","STREET":"中華西路","SECT":"一段","MAREA":" ","LANE":"８巷","ALLEY":" ","HOUSE_NO":"３號十一樓之２","E_COORD97":166376.82999999999,"N_COORD97":2540577.8799999999,"ADDRESS":"中華西路一段８巷３號十一樓之２","OBJECTID":309452},"geometry":{"x":166376.82999999914,"y":2540577.879999999}},{"attributes":{"ID":309461,"DIS_CODE":0,"TOWNNAME":"南區","LI":"開南里","LIN":"7鄰","STREET":"中華西路","SECT":"一段","MAREA":" ","LANE":"８巷","ALLEY":" ","HOUSE_NO":"３號十一樓之３","E_COORD97":166376.82999999999,"N_COORD97":2540577.8799999999,"ADDRESS":"中華西路一段８巷３號十一樓之３","OBJECTID":309453},"geometry":{"x":166376.82999999914,"y":2540577.879999999}},{"attributes":{"ID":309462,"DIS_CODE":0,"TOWNNAME":"南區","LI":"開南里","LIN":"7鄰","STREET":"中華西路","SECT":"一段","MAREA":" ","LANE":"８巷","ALLEY":" ","HOUSE_NO":"３號十二樓","E_COORD97":166376.82999999999,"N_COORD97":2540577.8799999999,"ADDRESS":"中華西路一段８巷３號十二樓","OBJECTID":309454},"geometry":{"x":166376.82999999914,"y":2540577.879999999}},{"attributes":{"ID":309463,"DIS_CODE":0,"TOWNNAME":"南區","LI":"開南里","LIN":"7鄰","STREET":"中華西路","SECT":"一段","MAREA":" ","LANE":"８巷","ALLEY":" ","HOUSE_NO":"３號十二樓之１","E_COORD97":166376.82999999999,"N_COORD97":2540577.8799999999,"ADDRESS":"中華西路一段８巷３號十二樓之１","OBJECTID":309455},"geometry":{"x":166376.82999999914,"y":2540577.879999999}},{"attributes":{"ID":309464,"DIS_CODE":0,"TOWNNAME":"南區","LI":"開南里","LIN":"7鄰","STREET":"中華西路","SECT":"一段","MAREA":" ","LANE":"８巷","ALLEY":" ","HOUSE_NO":"３號十二樓之２","E_COORD97":166376.82999999999,"N_COORD97":2540577.8799999999,"ADDRESS":"中華西路一段８巷３號十二樓之２","OBJECTID":309456},"geometry":{"x":166376.82999999914,"y":2540577.879999999}},{"attributes":{"ID":309465,"DIS_CODE":0,"TOWNNAME":"南區","LI":"開南里","LIN":"7鄰","STREET":"中華西路","SECT":"一段","MAREA":" ","LANE":"８巷","ALLEY":" ","HOUSE_NO":"３號十二樓之３","E_COORD97":166376.82999999999,"N_COORD97":2540577.8799999999,"ADDRESS":"中華西路一段８巷３號十二樓之３","OBJECTID":309457},"geometry":{"x":166376.82999999914,"y":2540577.879999999}},{"attributes":{"ID":309466,"DIS_CODE":0,"TOWNNAME":"南區","LI":"開南里","LIN":"7鄰","STREET":"中華西路","SECT":"一段","MAREA":" ","LANE":"８巷","ALLEY":" ","HOUSE_NO":"３號十三樓","E_COORD97":166376.82999999999,"N_COORD97":2540577.8799999999,"ADDRESS":"中華西路一段８巷３號十三樓","OBJECTID":309458},"geometry":{"x":166376.82999999914,"y":2540577.879999999}},{"attributes":{"ID":309467,"DIS_CODE":0,"TOWNNAME":"南區","LI":"開南里","LIN":"7鄰","STREET":"中華西路","SECT":"一段","MAREA":" ","LANE":"８巷","ALLEY":" ","HOUSE_NO":"３號十三樓之１","E_COORD97":166376.82999999999,"N_COORD97":2540577.8799999999,"ADDRESS":"中華西路一段８巷３號十三樓之１","OBJECTID":309459},"geometry":{"x":166376.82999999914,"y":2540577.879999999}},{"attributes":{"ID":309468,"DIS_CODE":0,"TOWNNAME":"南區","LI":"開南里","LIN":"7鄰","STREET":"中華西路","SECT":"一段","MAREA":" ","LANE":"８巷","ALLEY":" ","HOUSE_NO":"３號十三樓之２","E_COORD97":166376.82999999999,"N_COORD97":2540577.8799999999,"ADDRESS":"中華西路一段８巷３號十三樓之２","OBJECTID":309460},"geometry":{"x":166376.82999999914,"y":2540577.879999999}},{"attributes":{"ID":309469,"DIS_CODE":0,"TOWNNAME":"南區","LI":"開南里","LIN":"7鄰","STREET":"中華西路","SECT":"一段","MAREA":" ","LANE":"８巷","ALLEY":" ","HOUSE_NO":"３號十三樓之３","E_COORD97":166376.82999999999,"N_COORD97":2540577.8799999999,"ADDRESS":"中華西路一段８巷３號十三樓之３","OBJECTID":309461},"geometry":{"x":166376.82999999914,"y":2540577.879999999}},{"attributes":{"ID":309470,"DIS_CODE":0,"TOWNNAME":"南區","LI":"開南里","LIN":"7鄰","STREET":"中華西路","SECT":"一段","MAREA":" ","LANE":"８巷","ALLEY":" ","HOUSE_NO":"３號十四樓","E_COORD97":166376.82999999999,"N_COORD97":2540577.8799999999,"ADDRESS":"中華西路一段８巷３號十四樓","OBJECTID":309462},"geometry":{"x":166376.82999999914,"y":2540577.879999999}},{"attributes":{"ID":309471,"DIS_CODE":0,"TOWNNAME":"南區","LI":"開南里","LIN":"7鄰","STREET":"中華西路","SECT":"一段","MAREA":" ","LANE":"８巷","ALLEY":" ","HOUSE_NO":"３號十四樓之１","E_COORD97":166376.82999999999,"N_COORD97":2540577.8799999999,"ADDRESS":"中華西路一段８巷３號十四樓之１","OBJECTID":309463},"geometry":{"x":166376.82999999914,"y":2540577.879999999}},{"attributes":{"ID":309472,"DIS_CODE":0,"TOWNNAME":"東山區","LI":"南勢里","LIN":" ","STREET":" ","SECT":" ","MAREA":"大洋","LANE":" ","ALLEY":" ","HOUSE_NO":"６１號","E_COORD97":195920.79000000001,"N_COORD97":2573074.3799999999,"ADDRESS":"大洋６１號","OBJECTID":309464},"geometry":{"x":195920.79000000004,"y":2573074.3800000008}},{"attributes":{"ID":309473,"DIS_CODE":0,"TOWNNAME":"南區","LI":"開南里","LIN":"7鄰","STREET":"中華西路","SECT":"一段","MAREA":" ","LANE":"８巷","ALLEY":" ","HOUSE_NO":"３號十四樓之２","E_COORD97":166376.82999999999,"N_COORD97":2540577.8799999999,"ADDRESS":"中華西路一段８巷３號十四樓之２","OBJECTID":309465},"geometry":{"x":166376.82999999914,"y":2540577.879999999}},{"attributes":{"ID":309474,"DIS_CODE":0,"TOWNNAME":"南區","LI":"開南里","LIN":"7鄰","STREET":"中華西路","SECT":"一段","MAREA":" ","LANE":"８巷","ALLEY":" ","HOUSE_NO":"３號十五樓之１","E_COORD97":166376.82999999999,"N_COORD97":2540577.8799999999,"ADDRESS":"中華西路一段８巷３號十五樓之１","OBJECTID":309466},"geometry":{"x":166376.82999999914,"y":2540577.879999999}},{"attributes":{"ID":309475,"DIS_CODE":0,"TOWNNAME":"南區","LI":"開南里","LIN":"7鄰","STREET":"中華西路","SECT":"一段","MAREA":" ","LANE":"８巷","ALLEY":" ","HOUSE_NO":"３號十五樓之２","E_COORD97":166376.82999999999,"N_COORD97":2540577.8799999999,"ADDRESS":"中華西路一段８巷３號十五樓之２","OBJECTID":309467},"geometry":{"x":166376.82999999914,"y":2540577.879999999}},{"attributes":{"ID":309476,"DIS_CODE":0,"TOWNNAME":"南區","LI":"開南里","LIN":"7鄰","STREET":"中華西路","SECT":"一段","MAREA":" ","LANE":"８巷","ALLEY":" ","HOUSE_NO":"３號十五樓之３","E_COORD97":166376.82999999999,"N_COORD97":2540577.8799999999,"ADDRESS":"中華西路一段８巷３號十五樓之３","OBJECTID":309468},"geometry":{"x":166376.82999999914,"y":2540577.879999999}},{"attributes":{"ID":309477,"DIS_CODE":0,"TOWNNAME":"南區","LI":"開南里","LIN":"7鄰","STREET":"中華西路","SECT":"一段","MAREA":" ","LANE":"８巷","ALLEY":" ","HOUSE_NO":"３號十六樓","E_COORD97":166376.82999999999,"N_COORD97":2540577.8799999999,"ADDRESS":"中華西路一段８巷３號十六樓","OBJECTID":309469},"geometry":{"x":166376.82999999914,"y":2540577.879999999}},{"attributes":{"ID":309478,"DIS_CODE":0,"TOWNNAME":"南區","LI":"開南里","LIN":"7鄰","STREET":"中華西路","SECT":"一段","MAREA":" ","LANE":"８巷","ALLEY":" ","HOUSE_NO":"３號十六樓之１","E_COORD97":166376.82999999999,"N_COORD97":2540577.8799999999,"ADDRESS":"中華西路一段８巷３號十六樓之１","OBJECTID":309470},"geometry":{"x":166376.82999999914,"y":2540577.879999999}},{"attributes":{"ID":309479,"DIS_CODE":0,"TOWNNAME":"北區","LI":"賢北里","LIN":"7鄰","STREET":"賢北街","SECT":" ","MAREA":" ","LANE":"１５巷","ALLEY":" ","HOUSE_NO":"２１號二樓之１","E_COORD97":166288.31,"N_COORD97":2545182.1200000001,"ADDRESS":"賢北街１５巷２１號二樓之１","OBJECTID":309471},"geometry":{"x":166288.30999999866,"y":2545182.1200000029}},{"attributes":{"ID":309480,"DIS_CODE":0,"TOWNNAME":"北區","LI":"賢北里","LIN":"7鄰","STREET":"賢北街","SECT":" ","MAREA":" ","LANE":"１５巷","ALLEY":" ","HOUSE_NO":"２１號二樓之２","E_COORD97":166288.31,"N_COORD97":2545182.1200000001,"ADDRESS":"賢北街１５巷２１號二樓之２","OBJECTID":309472},"geometry":{"x":166288.30999999866,"y":2545182.1200000029}},{"attributes":{"ID":309481,"DIS_CODE":0,"TOWNNAME":"北區","LI":"賢北里","LIN":"7鄰","STREET":"賢北街","SECT":" ","MAREA":" ","LANE":"１５巷","ALLEY":" ","HOUSE_NO":"２１號三樓之１","E_COORD97":166288.31,"N_COORD97":2545182.1200000001,"ADDRESS":"賢北街１５巷２１號三樓之１","OBJECTID":309473},"geometry":{"x":166288.30999999866,"y":2545182.1200000029}},{"attributes":{"ID":309482,"DIS_CODE":0,"TOWNNAME":"北區","LI":"賢北里","LIN":"7鄰","STREET":"賢北街","SECT":" ","MAREA":" ","LANE":"１５巷","ALLEY":" ","HOUSE_NO":"２１號三樓之２","E_COORD97":166288.31,"N_COORD97":2545182.1200000001,"ADDRESS":"賢北街１５巷２１號三樓之２","OBJECTID":309474},"geometry":{"x":166288.30999999866,"y":2545182.1200000029}},{"attributes":{"ID":309483,"DIS_CODE":0,"TOWNNAME":"北區","LI":"賢北里","LIN":"7鄰","STREET":"賢北街","SECT":" ","MAREA":" ","LANE":"１５巷","ALLEY":" ","HOUSE_NO":"２１號五樓之１","E_COORD97":166288.31,"N_COORD97":2545182.1200000001,"ADDRESS":"賢北街１５巷２１號五樓之１","OBJECTID":309475},"geometry":{"x":166288.30999999866,"y":2545182.1200000029}},{"attributes":{"ID":309484,"DIS_CODE":0,"TOWNNAME":"北區","LI":"賢北里","LIN":"7鄰","STREET":"賢北街","SECT":" ","MAREA":" ","LANE":"１５巷","ALLEY":" ","HOUSE_NO":"２１號五樓之２","E_COORD97":166288.31,"N_COORD97":2545182.1200000001,"ADDRESS":"賢北街１５巷２１號五樓之２","OBJECTID":309476},"geometry":{"x":166288.30999999866,"y":2545182.1200000029}},{"attributes":{"ID":309485,"DIS_CODE":0,"TOWNNAME":"北區","LI":"賢北里","LIN":"7鄰","STREET":"賢北街","SECT":" ","MAREA":" ","LANE":"１５巷","ALLEY":" ","HOUSE_NO":"２１號四樓之１","E_COORD97":166288.31,"N_COORD97":2545182.1200000001,"ADDRESS":"賢北街１５巷２１號四樓之１","OBJECTID":309477},"geometry":{"x":166288.30999999866,"y":2545182.1200000029}},{"attributes":{"ID":309486,"DIS_CODE":0,"TOWNNAME":"北區","LI":"賢北里","LIN":"7鄰","STREET":"賢北街","SECT":" ","MAREA":" ","LANE":"１５巷","ALLEY":" ","HOUSE_NO":"２１號四樓之２","E_COORD97":166288.31,"N_COORD97":2545182.1200000001,"ADDRESS":"賢北街１５巷２１號四樓之２","OBJECTID":309478},"geometry":{"x":166288.30999999866,"y":2545182.1200000029}},{"attributes":{"ID":309487,"DIS_CODE":0,"TOWNNAME":"南區","LI":"新昌里","LIN":"7鄰","STREET":"府緯街","SECT":" ","MAREA":" ","LANE":"１１５巷","ALLEY":" ","HOUSE_NO":"１７號二樓","E_COORD97":167546.63,"N_COORD97":2542620.6000000001,"ADDRESS":"府緯街１１５巷１７號二樓","OBJECTID":309479},"geometry":{"x":167546.63000000082,"y":2542620.6000000015}},{"attributes":{"ID":309488,"DIS_CODE":0,"TOWNNAME":"南區","LI":"新昌里","LIN":"7鄰","STREET":"府緯街","SECT":" ","MAREA":" ","LANE":"１１５巷","ALLEY":" ","HOUSE_NO":"１７號三樓","E_COORD97":167546.63,"N_COORD97":2542620.6000000001,"ADDRESS":"府緯街１１５巷１７號三樓","OBJECTID":309480},"geometry":{"x":167546.63000000082,"y":2542620.6000000015}},{"attributes":{"ID":309489,"DIS_CODE":0,"TOWNNAME":"南區","LI":"新昌里","LIN":"7鄰","STREET":"府緯街","SECT":" ","MAREA":" ","LANE":"１１５巷","ALLEY":" ","HOUSE_NO":"１７號五樓","E_COORD97":167546.63,"N_COORD97":2542620.6000000001,"ADDRESS":"府緯街１１５巷１７號五樓","OBJECTID":309481},"geometry":{"x":167546.63000000082,"y":2542620.6000000015}},{"attributes":{"ID":309490,"DIS_CODE":0,"TOWNNAME":"南區","LI":"竹溪里","LIN":"7鄰","STREET":"體育路","SECT":" ","MAREA":" ","LANE":"２１巷","ALLEY":" ","HOUSE_NO":"１９號三樓","E_COORD97":168867.07000000001,"N_COORD97":2542355.8100000001,"ADDRESS":"體育路２１巷１９號三樓","OBJECTID":309482},"geometry":{"x":168867.0700000003,"y":2542355.8100000024}},{"attributes":{"ID":309491,"DIS_CODE":0,"TOWNNAME":"南區","LI":"竹溪里","LIN":"7鄰","STREET":"體育路","SECT":" ","MAREA":" ","LANE":"２１巷","ALLEY":" ","HOUSE_NO":"１９號二樓","E_COORD97":168867.07000000001,"N_COORD97":2542355.8100000001,"ADDRESS":"體育路２１巷１９號二樓","OBJECTID":309483},"geometry":{"x":168867.0700000003,"y":2542355.8100000024}},{"attributes":{"ID":309492,"DIS_CODE":0,"TOWNNAME":"北區","LI":"光武里","LIN":"7鄰","STREET":"北門路","SECT":"二段","MAREA":" ","LANE":"５７７巷","ALLEY":" ","HOUSE_NO":"１號五樓之２","E_COORD97":169658.07999999999,"N_COORD97":2545759.0800000001,"ADDRESS":"北門路二段５７７巷１號五樓之２","OBJECTID":309484},"geometry":{"x":169658.08000000007,"y":2545759.0800000001}},{"attributes":{"ID":309493,"DIS_CODE":0,"TOWNNAME":"北區","LI":"光武里","LIN":"7鄰","STREET":"北門路","SECT":"二段","MAREA":" ","LANE":"５７７巷","ALLEY":" ","HOUSE_NO":"１號六樓之２","E_COORD97":169658.07999999999,"N_COORD97":2545759.0800000001,"ADDRESS":"北門路二段５７７巷１號六樓之２","OBJECTID":309485},"geometry":{"x":169658.08000000007,"y":2545759.0800000001}},{"attributes":{"ID":309494,"DIS_CODE":0,"TOWNNAME":"北區","LI":"光武里","LIN":"7鄰","STREET":"北門路","SECT":"二段","MAREA":" ","LANE":"５７７巷","ALLEY":" ","HOUSE_NO":"１號七樓之２","E_COORD97":169658.07999999999,"N_COORD97":2545759.0800000001,"ADDRESS":"北門路二段５７７巷１號七樓之２","OBJECTID":309486},"geometry":{"x":169658.08000000007,"y":2545759.0800000001}},{"attributes":{"ID":309495,"DIS_CODE":0,"TOWNNAME":"北區","LI":"光武里","LIN":"7鄰","STREET":"北門路","SECT":"二段","MAREA":" ","LANE":"５７７巷","ALLEY":" ","HOUSE_NO":"１號八樓之２","E_COORD97":169658.07999999999,"N_COORD97":2545759.0800000001,"ADDRESS":"北門路二段５７７巷１號八樓之２","OBJECTID":309487},"geometry":{"x":169658.08000000007,"y":2545759.0800000001}},{"attributes":{"ID":309496,"DIS_CODE":0,"TOWNNAME":"北區","LI":"光武里","LIN":"7鄰","STREET":"北門路","SECT":"二段","MAREA":" ","LANE":"５７７巷","ALLEY":" ","HOUSE_NO":"１號九樓之２","E_COORD97":169658.07999999999,"N_COORD97":2545759.0800000001,"ADDRESS":"北門路二段５７７巷１號九樓之２","OBJECTID":309488},"geometry":{"x":169658.08000000007,"y":2545759.0800000001}},{"attributes":{"ID":309497,"DIS_CODE":0,"TOWNNAME":"北區","LI":"光武里","LIN":"7鄰","STREET":"北門路","SECT":"二段","MAREA":" ","LANE":"５７７巷","ALLEY":" ","HOUSE_NO":"１號十樓之２","E_COORD97":169658.07999999999,"N_COORD97":2545759.0800000001,"ADDRESS":"北門路二段５７７巷１號十樓之２","OBJECTID":309489},"geometry":{"x":169658.08000000007,"y":2545759.0800000001}},{"attributes":{"ID":309498,"DIS_CODE":0,"TOWNNAME":"北區","LI":"光武里","LIN":"7鄰","STREET":"北門路","SECT":"二段","MAREA":" ","LANE":"５７７巷","ALLEY":" ","HOUSE_NO":"１號十一樓之１","E_COORD97":169658.07999999999,"N_COORD97":2545759.0800000001,"ADDRESS":"北門路二段５７７巷１號十一樓之１","OBJECTID":309490},"geometry":{"x":169658.08000000007,"y":2545759.0800000001}},{"attributes":{"ID":309499,"DIS_CODE":0,"TOWNNAME":"北區","LI":"光武里","LIN":"7鄰","STREET":"北門路","SECT":"二段","MAREA":" ","LANE":"５７７巷","ALLEY":" ","HOUSE_NO":"１號十一樓之２","E_COORD97":169658.07999999999,"N_COORD97":2545759.0800000001,"ADDRESS":"北門路二段５７７巷１號十一樓之２","OBJECTID":309491},"geometry":{"x":169658.08000000007,"y":2545759.0800000001}},{"attributes":{"ID":309500,"DIS_CODE":0,"TOWNNAME":"新營區","LI":"忠政里","LIN":"7鄰","STREET":"中正路","SECT":" ","MAREA":" ","LANE":"３７巷","ALLEY":" ","HOUSE_NO":"１５號三樓","E_COORD97":180021.31,"N_COORD97":2579124.1400000001,"ADDRESS":"中正路３７巷１５號三樓","OBJECTID":309492},"geometry":{"x":180021.31000000052,"y":2579124.1400000006}},{"attributes":{"ID":309501,"DIS_CODE":0,"TOWNNAME":"新營區","LI":"忠政里","LIN":"7鄰","STREET":"中正路","SECT":" ","MAREA":" ","LANE":"３７巷","ALLEY":" ","HOUSE_NO":"１９號三樓","E_COORD97":180010.06,"N_COORD97":2579124.2000000002,"ADDRESS":"中正路３７巷１９號三樓","OBJECTID":309493},"geometry":{"x":180010.06000000052,"y":2579124.2000000011}},{"attributes":{"ID":309502,"DIS_CODE":0,"TOWNNAME":"南區","LI":"新昌里","LIN":"7鄰","STREET":"府緯街","SECT":" ","MAREA":" ","LANE":"１１５巷","ALLEY":" ","HOUSE_NO":"１號五樓","E_COORD97":167544.03,"N_COORD97":2542691.7599999998,"ADDRESS":"府緯街１１５巷１號五樓","OBJECTID":309494},"geometry":{"x":167544.03000000119,"y":2542691.7599999998}},{"attributes":{"ID":309503,"DIS_CODE":0,"TOWNNAME":"北區","LI":"和順里","LIN":"39鄰","STREET":"公園南路","SECT":" ","MAREA":" ","LANE":"３７０巷","ALLEY":" ","HOUSE_NO":"８６號十六樓","E_COORD97":168259.20000000001,"N_COORD97":2544933.71,"ADDRESS":"公園南路３７０巷８６號十六樓","OBJECTID":309495},"geometry":{"x":168259.20000000019,"y":2544933.7100000028}},{"attributes":{"ID":309504,"DIS_CODE":0,"TOWNNAME":"東區","LI":"路東里","LIN":"7鄰","STREET":"大同路","SECT":"二段","MAREA":" ","LANE":"６１巷","ALLEY":" ","HOUSE_NO":"２３號之２二樓","E_COORD97":169413.35999999999,"N_COORD97":2542238.8100000001,"ADDRESS":"大同路二段６１巷２３號之２二樓","OBJECTID":309496},"geometry":{"x":169413.36000000127,"y":2542238.8100000005}},{"attributes":{"ID":309505,"DIS_CODE":0,"TOWNNAME":"東區","LI":"路東里","LIN":"7鄰","STREET":"大同路","SECT":"二段","MAREA":" ","LANE":"６１巷","ALLEY":" ","HOUSE_NO":"２３號之２三樓","E_COORD97":169413.35999999999,"N_COORD97":2542238.8100000001,"ADDRESS":"大同路二段６１巷２３號之２三樓","OBJECTID":309497},"geometry":{"x":169413.36000000127,"y":2542238.8100000005}},{"attributes":{"ID":309506,"DIS_CODE":0,"TOWNNAME":"東區","LI":"路東里","LIN":"7鄰","STREET":"大同路","SECT":"二段","MAREA":" ","LANE":"６１巷","ALLEY":" ","HOUSE_NO":"２３號之２五樓","E_COORD97":169413.35999999999,"N_COORD97":2542238.8100000001,"ADDRESS":"大同路二段６１巷２３號之２五樓","OBJECTID":309498},"geometry":{"x":169413.36000000127,"y":2542238.8100000005}},{"attributes":{"ID":309507,"DIS_CODE":0,"TOWNNAME":"東區","LI":"路東里","LIN":"7鄰","STREET":"大同路","SECT":"二段","MAREA":" ","LANE":"６１巷","ALLEY":" ","HOUSE_NO":"２３號之２四樓","E_COORD97":169413.35999999999,"N_COORD97":2542238.8100000001,"ADDRESS":"大同路二段６１巷２３號之２四樓","OBJECTID":309499},"geometry":{"x":169413.36000000127,"y":2542238.8100000005}},{"attributes":{"ID":309508,"DIS_CODE":0,"TOWNNAME":"東區","LI":"路東里","LIN":"7鄰","STREET":"大同路","SECT":"二段","MAREA":" ","LANE":"６１巷","ALLEY":" ","HOUSE_NO":"２３號之３二樓","E_COORD97":169413.35999999999,"N_COORD97":2542248.25,"ADDRESS":"大同路二段６１巷２３號之３二樓","OBJECTID":309500},"geometry":{"x":169413.36000000127,"y":2542248.25}},{"attributes":{"ID":309509,"DIS_CODE":0,"TOWNNAME":"東區","LI":"路東里","LIN":"7鄰","STREET":"大同路","SECT":"二段","MAREA":" ","LANE":"６１巷","ALLEY":" ","HOUSE_NO":"２３號之３三樓","E_COORD97":169413.35999999999,"N_COORD97":2542248.25,"ADDRESS":"大同路二段６１巷２３號之３三樓","OBJECTID":309501},"geometry":{"x":169413.36000000127,"y":2542248.25}},{"attributes":{"ID":309510,"DIS_CODE":0,"TOWNNAME":"東區","LI":"路東里","LIN":"7鄰","STREET":"大同路","SECT":"二段","MAREA":" ","LANE":"６１巷","ALLEY":" ","HOUSE_NO":"２３號之３五樓","E_COORD97":169413.35999999999,"N_COORD97":2542248.25,"ADDRESS":"大同路二段６１巷２３號之３五樓","OBJECTID":309502},"geometry":{"x":169413.36000000127,"y":2542248.25}},{"attributes":{"ID":309511,"DIS_CODE":0,"TOWNNAME":"東區","LI":"路東里","LIN":"7鄰","STREET":"大同路","SECT":"二段","MAREA":" ","LANE":"６１巷","ALLEY":" ","HOUSE_NO":"２３號之３四樓","E_COORD97":169413.35999999999,"N_COORD97":2542248.25,"ADDRESS":"大同路二段６１巷２３號之３四樓","OBJECTID":309503},"geometry":{"x":169413.36000000127,"y":2542248.25}},{"attributes":{"ID":309512,"DIS_CODE":0,"TOWNNAME":"東區","LI":"路東里","LIN":"7鄰","STREET":"大同路","SECT":"二段","MAREA":" ","LANE":"６１巷","ALLEY":" ","HOUSE_NO":"３５號二樓","E_COORD97":169420.75,"N_COORD97":2542307.5699999998,"ADDRESS":"大同路二段６１巷３５號二樓","OBJECTID":309504},"geometry":{"x":169420.75000000093,"y":2542307.5700000003}},{"attributes":{"ID":309513,"DIS_CODE":0,"TOWNNAME":"東區","LI":"路東里","LIN":"7鄰","STREET":"大同路","SECT":"二段","MAREA":" ","LANE":"６１巷","ALLEY":" ","HOUSE_NO":"３５號四樓","E_COORD97":169420.75,"N_COORD97":2542307.5699999998,"ADDRESS":"大同路二段６１巷３５號四樓","OBJECTID":309505},"geometry":{"x":169420.75000000093,"y":2542307.5700000003}},{"attributes":{"ID":309514,"DIS_CODE":0,"TOWNNAME":"東區","LI":"龍山里","LIN":"7鄰","STREET":"長榮路","SECT":"一段","MAREA":" ","LANE":"２３４巷","ALLEY":" ","HOUSE_NO":"２５號七樓","E_COORD97":169922.48000000001,"N_COORD97":2542876.8599999999,"ADDRESS":"長榮路一段２３４巷２５號七樓","OBJECTID":309506},"geometry":{"x":169922.48000000045,"y":2542876.8600000013}},{"attributes":{"ID":309515,"DIS_CODE":0,"TOWNNAME":"東區","LI":"龍山里","LIN":"7鄰","STREET":"長榮路","SECT":"一段","MAREA":" ","LANE":"２３４巷","ALLEY":" ","HOUSE_NO":"２５號二樓","E_COORD97":169922.48000000001,"N_COORD97":2542876.8599999999,"ADDRESS":"長榮路一段２３４巷２５號二樓","OBJECTID":309507},"geometry":{"x":169922.48000000045,"y":2542876.8600000013}},{"attributes":{"ID":309516,"DIS_CODE":0,"TOWNNAME":"新營區","LI":"忠政里","LIN":"17鄰","STREET":"府西路","SECT":" ","MAREA":" ","LANE":" ","ALLEY":" ","HOUSE_NO":"２５６號二樓之２","E_COORD97":179806.69,"N_COORD97":2579697.77,"ADDRESS":"府西路２５６號二樓之２","OBJECTID":309508},"geometry":{"x":179806.69000000134,"y":2579697.7699999996}},{"attributes":{"ID":309517,"DIS_CODE":0,"TOWNNAME":"歸仁區","LI":"新厝里","LIN":"9鄰","STREET":"中正三街","SECT":" ","MAREA":" ","LANE":"５６巷","ALLEY":" ","HOUSE_NO":"３３號","E_COORD97":177739.88886400001,"N_COORD97":2540481.4806400002,"ADDRESS":"中正三街５６巷３３號","OBJECTID":309509},"geometry":{"x":177739.88886400126,"y":2540481.4806410018}},{"attributes":{"ID":309518,"DIS_CODE":0,"TOWNNAME":"歸仁區","LI":"大廟里","LIN":"3鄰","STREET":"保大路","SECT":"三段","MAREA":" ","LANE":"５５巷","ALLEY":" ","HOUSE_NO":"１６號","E_COORD97":176361.41490900001,"N_COORD97":2544032.0248799999,"ADDRESS":"保大路三段５５巷１６號","OBJECTID":309510},"geometry":{"x":176361.41490899958,"y":2544032.024875002}},{"attributes":{"ID":309519,"DIS_CODE":0,"TOWNNAME":"東區","LI":"龍山里","LIN":"7鄰","STREET":"長榮路","SECT":"一段","MAREA":" ","LANE":"２３４巷","ALLEY":" ","HOUSE_NO":"２５號三樓","E_COORD97":169922.48000000001,"N_COORD97":2542876.8599999999,"ADDRESS":"長榮路一段２３４巷２５號三樓","OBJECTID":309511},"geometry":{"x":169922.48000000045,"y":2542876.8600000013}},{"attributes":{"ID":309520,"DIS_CODE":0,"TOWNNAME":"東區","LI":"龍山里","LIN":"7鄰","STREET":"長榮路","SECT":"一段","MAREA":" ","LANE":"２３４巷","ALLEY":" ","HOUSE_NO":"２５號五樓","E_COORD97":169922.48000000001,"N_COORD97":2542876.8599999999,"ADDRESS":"長榮路一段２３４巷２５號五樓","OBJECTID":309512},"geometry":{"x":169922.48000000045,"y":2542876.8600000013}},{"attributes":{"ID":309521,"DIS_CODE":0,"TOWNNAME":"東區","LI":"龍山里","LIN":"7鄰","STREET":"長榮路","SECT":"一段","MAREA":" ","LANE":"２３４巷","ALLEY":" ","HOUSE_NO":"２５號六樓","E_COORD97":169922.48000000001,"N_COORD97":2542876.8599999999,"ADDRESS":"長榮路一段２３４巷２５號六樓","OBJECTID":309513},"geometry":{"x":169922.48000000045,"y":2542876.8600000013}},{"attributes":{"ID":309522,"DIS_CODE":0,"TOWNNAME":"東區","LI":"龍山里","LIN":"7鄰","STREET":"長榮路","SECT":"一段","MAREA":" ","LANE":"２３４巷","ALLEY":" ","HOUSE_NO":"２５號四樓","E_COORD97":169922.48000000001,"N_COORD97":2542876.8599999999,"ADDRESS":"長榮路一段２３４巷２５號四樓","OBJECTID":309514},"geometry":{"x":169922.48000000045,"y":2542876.8600000013}},{"attributes":{"ID":309523,"DIS_CODE":0,"TOWNNAME":"東區","LI":"龍山里","LIN":"7鄰","STREET":"長榮路","SECT":"一段","MAREA":" ","LANE":"２３４巷","ALLEY":" ","HOUSE_NO":"２６號七樓","E_COORD97":169939.03,"N_COORD97":2542867.1299999999,"ADDRESS":"長榮路一段２３４巷２６號七樓","OBJECTID":309515},"geometry":{"x":169939.03000000212,"y":2542867.1300000008}},{"attributes":{"ID":309524,"DIS_CODE":0,"TOWNNAME":"東區","LI":"龍山里","LIN":"7鄰","STREET":"長榮路","SECT":"一段","MAREA":" ","LANE":"２３４巷","ALLEY":" ","HOUSE_NO":"２６號二樓","E_COORD97":169939.03,"N_COORD97":2542867.1299999999,"ADDRESS":"長榮路一段２３４巷２６號二樓","OBJECTID":309516},"geometry":{"x":169939.03000000212,"y":2542867.1300000008}},{"attributes":{"ID":309525,"DIS_CODE":0,"TOWNNAME":"東區","LI":"龍山里","LIN":"7鄰","STREET":"長榮路","SECT":"一段","MAREA":" ","LANE":"２３４巷","ALLEY":" ","HOUSE_NO":"２６號三樓","E_COORD97":169939.03,"N_COORD97":2542867.1299999999,"ADDRESS":"長榮路一段２３４巷２６號三樓","OBJECTID":309517},"geometry":{"x":169939.03000000212,"y":2542867.1300000008}},{"attributes":{"ID":309526,"DIS_CODE":0,"TOWNNAME":"東區","LI":"龍山里","LIN":"7鄰","STREET":"長榮路","SECT":"一段","MAREA":" ","LANE":"２３４巷","ALLEY":" ","HOUSE_NO":"２６號五樓","E_COORD97":169939.03,"N_COORD97":2542867.1299999999,"ADDRESS":"長榮路一段２３４巷２６號五樓","OBJECTID":309518},"geometry":{"x":169939.03000000212,"y":2542867.1300000008}},{"attributes":{"ID":309527,"DIS_CODE":0,"TOWNNAME":"東區","LI":"龍山里","LIN":"7鄰","STREET":"長榮路","SECT":"一段","MAREA":" ","LANE":"２３４巷","ALLEY":" ","HOUSE_NO":"２６號六樓","E_COORD97":169939.03,"N_COORD97":2542867.1299999999,"ADDRESS":"長榮路一段２３４巷２６號六樓","OBJECTID":309519},"geometry":{"x":169939.03000000212,"y":2542867.1300000008}},{"attributes":{"ID":309528,"DIS_CODE":0,"TOWNNAME":"東區","LI":"龍山里","LIN":"7鄰","STREET":"長榮路","SECT":"一段","MAREA":" ","LANE":"２３４巷","ALLEY":" ","HOUSE_NO":"２６號四樓","E_COORD97":169939.03,"N_COORD97":2542867.1299999999,"ADDRESS":"長榮路一段２３４巷２６號四樓","OBJECTID":309520},"geometry":{"x":169939.03000000212,"y":2542867.1300000008}},{"attributes":{"ID":309529,"DIS_CODE":0,"TOWNNAME":"東區","LI":"龍山里","LIN":"7鄰","STREET":"長榮路","SECT":"一段","MAREA":" ","LANE":"２３４巷","ALLEY":" ","HOUSE_NO":"２７號七樓","E_COORD97":169942.44,"N_COORD97":2542884.1299999999,"ADDRESS":"長榮路一段２３４巷２７號七樓","OBJECTID":309521},"geometry":{"x":169942.44000000041,"y":2542884.1300000008}},{"attributes":{"ID":309530,"DIS_CODE":0,"TOWNNAME":"東區","LI":"龍山里","LIN":"7鄰","STREET":"長榮路","SECT":"一段","MAREA":" ","LANE":"２３４巷","ALLEY":" ","HOUSE_NO":"２７號二樓","E_COORD97":169942.44,"N_COORD97":2542884.1299999999,"ADDRESS":"長榮路一段２３４巷２７號二樓","OBJECTID":309522},"geometry":{"x":169942.44000000041,"y":2542884.1300000008}},{"attributes":{"ID":309531,"DIS_CODE":0,"TOWNNAME":"東區","LI":"龍山里","LIN":"7鄰","STREET":"長榮路","SECT":"一段","MAREA":" ","LANE":"２３４巷","ALLEY":" ","HOUSE_NO":"２７號三樓","E_COORD97":169942.44,"N_COORD97":2542884.1299999999,"ADDRESS":"長榮路一段２３４巷２７號三樓","OBJECTID":309523},"geometry":{"x":169942.44000000041,"y":2542884.1300000008}},{"attributes":{"ID":309532,"DIS_CODE":0,"TOWNNAME":"東區","LI":"龍山里","LIN":"7鄰","STREET":"長榮路","SECT":"一段","MAREA":" ","LANE":"２３４巷","ALLEY":" ","HOUSE_NO":"２７號五樓","E_COORD97":169942.44,"N_COORD97":2542884.1299999999,"ADDRESS":"長榮路一段２３４巷２７號五樓","OBJECTID":309524},"geometry":{"x":169942.44000000041,"y":2542884.1300000008}},{"attributes":{"ID":309533,"DIS_CODE":0,"TOWNNAME":"東區","LI":"龍山里","LIN":"7鄰","STREET":"長榮路","SECT":"一段","MAREA":" ","LANE":"２３４巷","ALLEY":" ","HOUSE_NO":"２７號六樓","E_COORD97":169942.44,"N_COORD97":2542884.1299999999,"ADDRESS":"長榮路一段２３４巷２７號六樓","OBJECTID":309525},"geometry":{"x":169942.44000000041,"y":2542884.1300000008}},{"attributes":{"ID":309534,"DIS_CODE":0,"TOWNNAME":"東區","LI":"龍山里","LIN":"7鄰","STREET":"長榮路","SECT":"一段","MAREA":" ","LANE":"２３４巷","ALLEY":" ","HOUSE_NO":"２７號四樓","E_COORD97":169942.44,"N_COORD97":2542884.1299999999,"ADDRESS":"長榮路一段２３４巷２７號四樓","OBJECTID":309526},"geometry":{"x":169942.44000000041,"y":2542884.1300000008}},{"attributes":{"ID":309535,"DIS_CODE":0,"TOWNNAME":"東區","LI":"龍山里","LIN":"7鄰","STREET":"長榮路","SECT":"一段","MAREA":" ","LANE":"２３４巷","ALLEY":" ","HOUSE_NO":"２８號七樓","E_COORD97":169945.84,"N_COORD97":2542894.3300000001,"ADDRESS":"長榮路一段２３４巷２８號七樓","OBJECTID":309527},"geometry":{"x":169945.84000000078,"y":2542894.3300000019}},{"attributes":{"ID":309536,"DIS_CODE":0,"TOWNNAME":"東區","LI":"龍山里","LIN":"7鄰","STREET":"長榮路","SECT":"一段","MAREA":" ","LANE":"２３４巷","ALLEY":" ","HOUSE_NO":"２８號二樓","E_COORD97":169945.84,"N_COORD97":2542894.3300000001,"ADDRESS":"長榮路一段２３４巷２８號二樓","OBJECTID":309528},"geometry":{"x":169945.84000000078,"y":2542894.3300000019}},{"attributes":{"ID":309537,"DIS_CODE":0,"TOWNNAME":"佳里區","LI":"東寧里","LIN":"1鄰","STREET":"中山路","SECT":" ","MAREA":" ","LANE":" ","ALLEY":" ","HOUSE_NO":"２８０號","E_COORD97":165724.48999999999,"N_COORD97":2562317.54,"ADDRESS":"中山路２８０號","OBJECTID":309529},"geometry":{"x":165724.49000000022,"y":2562317.5400000028}},{"attributes":{"ID":309538,"DIS_CODE":0,"TOWNNAME":"歸仁區","LI":"新厝里","LIN":"27鄰","STREET":"中正五街","SECT":" ","MAREA":" ","LANE":"３７巷","ALLEY":" ","HOUSE_NO":"８號","E_COORD97":177047.60397200001,"N_COORD97":2540072.8758700001,"ADDRESS":"中正五街３７巷８號","OBJECTID":309530},"geometry":{"x":177047.603972001,"y":2540072.8758690003}},{"attributes":{"ID":309539,"DIS_CODE":0,"TOWNNAME":"東區","LI":"龍山里","LIN":"7鄰","STREET":"長榮路","SECT":"一段","MAREA":" ","LANE":"２３４巷","ALLEY":" ","HOUSE_NO":"２８號三樓","E_COORD97":169945.84,"N_COORD97":2542894.3300000001,"ADDRESS":"長榮路一段２３４巷２８號三樓","OBJECTID":309531},"geometry":{"x":169945.84000000078,"y":2542894.3300000019}},{"attributes":{"ID":309540,"DIS_CODE":0,"TOWNNAME":"東區","LI":"龍山里","LIN":"7鄰","STREET":"長榮路","SECT":"一段","MAREA":" ","LANE":"２３４巷","ALLEY":" ","HOUSE_NO":"２８號五樓","E_COORD97":169945.84,"N_COORD97":2542894.3300000001,"ADDRESS":"長榮路一段２３４巷２８號五樓","OBJECTID":309532},"geometry":{"x":169945.84000000078,"y":2542894.3300000019}},{"attributes":{"ID":309541,"DIS_CODE":0,"TOWNNAME":"東區","LI":"龍山里","LIN":"7鄰","STREET":"長榮路","SECT":"一段","MAREA":" ","LANE":"２３４巷","ALLEY":" ","HOUSE_NO":"２８號六樓","E_COORD97":169945.84,"N_COORD97":2542894.3300000001,"ADDRESS":"長榮路一段２３４巷２８號六樓","OBJECTID":309533},"geometry":{"x":169945.84000000078,"y":2542894.3300000019}},{"attributes":{"ID":309542,"DIS_CODE":0,"TOWNNAME":"東區","LI":"龍山里","LIN":"7鄰","STREET":"長榮路","SECT":"一段","MAREA":" ","LANE":"２３４巷","ALLEY":" ","HOUSE_NO":"２８號四樓","E_COORD97":169945.84,"N_COORD97":2542894.3300000001,"ADDRESS":"長榮路一段２３４巷２８號四樓","OBJECTID":309534},"geometry":{"x":169945.84000000078,"y":2542894.3300000019}},{"attributes":{"ID":309543,"DIS_CODE":0,"TOWNNAME":"東區","LI":"龍山里","LIN":"7鄰","STREET":"長榮路","SECT":"一段","MAREA":" ","LANE":"２３４巷","ALLEY":" ","HOUSE_NO":"２９號七樓","E_COORD97":169947.44,"N_COORD97":2542901.3300000001,"ADDRESS":"長榮路一段２３４巷２９號七樓","OBJECTID":309535},"geometry":{"x":169947.44000000134,"y":2542901.3300000019}},{"attributes":{"ID":309544,"DIS_CODE":0,"TOWNNAME":"東區","LI":"龍山里","LIN":"7鄰","STREET":"長榮路","SECT":"一段","MAREA":" ","LANE":"２３４巷","ALLEY":" ","HOUSE_NO":"２９號二樓","E_COORD97":169947.44,"N_COORD97":2542901.3300000001,"ADDRESS":"長榮路一段２３４巷２９號二樓","OBJECTID":309536},"geometry":{"x":169947.44000000134,"y":2542901.3300000019}},{"attributes":{"ID":309545,"DIS_CODE":0,"TOWNNAME":"東區","LI":"龍山里","LIN":"7鄰","STREET":"長榮路","SECT":"一段","MAREA":" ","LANE":"２３４巷","ALLEY":" ","HOUSE_NO":"２９號三樓","E_COORD97":169947.44,"N_COORD97":2542901.3300000001,"ADDRESS":"長榮路一段２３４巷２９號三樓","OBJECTID":309537},"geometry":{"x":169947.44000000134,"y":2542901.3300000019}},{"attributes":{"ID":309546,"DIS_CODE":0,"TOWNNAME":"東區","LI":"龍山里","LIN":"7鄰","STREET":"長榮路","SECT":"一段","MAREA":" ","LANE":"２３４巷","ALLEY":" ","HOUSE_NO":"２９號五樓","E_COORD97":169947.44,"N_COORD97":2542901.3300000001,"ADDRESS":"長榮路一段２３４巷２９號五樓","OBJECTID":309538},"geometry":{"x":169947.44000000134,"y":2542901.3300000019}},{"attributes":{"ID":309547,"DIS_CODE":0,"TOWNNAME":"東區","LI":"龍山里","LIN":"7鄰","STREET":"長榮路","SECT":"一段","MAREA":" ","LANE":"２３４巷","ALLEY":" ","HOUSE_NO":"２９號六樓","E_COORD97":169947.44,"N_COORD97":2542901.3300000001,"ADDRESS":"長榮路一段２３４巷２９號六樓","OBJECTID":309539},"geometry":{"x":169947.44000000134,"y":2542901.3300000019}},{"attributes":{"ID":309548,"DIS_CODE":0,"TOWNNAME":"東區","LI":"龍山里","LIN":"7鄰","STREET":"長榮路","SECT":"一段","MAREA":" ","LANE":"２３４巷","ALLEY":" ","HOUSE_NO":"２９號四樓","E_COORD97":169947.44,"N_COORD97":2542901.3300000001,"ADDRESS":"長榮路一段２３４巷２９號四樓","OBJECTID":309540},"geometry":{"x":169947.44000000134,"y":2542901.3300000019}},{"attributes":{"ID":309549,"DIS_CODE":0,"TOWNNAME":"東區","LI":"龍山里","LIN":"7鄰","STREET":"長榮路","SECT":"一段","MAREA":" ","LANE":"２３４巷","ALLEY":" ","HOUSE_NO":"３０號七樓","E_COORD97":169932.23999999999,"N_COORD97":2542905.1299999999,"ADDRESS":"長榮路一段２３４巷３０號七樓","OBJECTID":309541},"geometry":{"x":169932.24000000022,"y":2542905.1300000008}},{"attributes":{"ID":309550,"DIS_CODE":0,"TOWNNAME":"東區","LI":"龍山里","LIN":"7鄰","STREET":"長榮路","SECT":"一段","MAREA":" ","LANE":"２３４巷","ALLEY":" ","HOUSE_NO":"３０號二樓","E_COORD97":169932.23999999999,"N_COORD97":2542905.1299999999,"ADDRESS":"長榮路一段２３４巷３０號二樓","OBJECTID":309542},"geometry":{"x":169932.24000000022,"y":2542905.1300000008}},{"attributes":{"ID":309551,"DIS_CODE":0,"TOWNNAME":"東區","LI":"龍山里","LIN":"7鄰","STREET":"長榮路","SECT":"一段","MAREA":" ","LANE":"２３４巷","ALLEY":" ","HOUSE_NO":"３０號三樓","E_COORD97":169932.23999999999,"N_COORD97":2542905.1299999999,"ADDRESS":"長榮路一段２３４巷３０號三樓","OBJECTID":309543},"geometry":{"x":169932.24000000022,"y":2542905.1300000008}},{"attributes":{"ID":309552,"DIS_CODE":0,"TOWNNAME":"東區","LI":"龍山里","LIN":"7鄰","STREET":"長榮路","SECT":"一段","MAREA":" ","LANE":"２３４巷","ALLEY":" ","HOUSE_NO":"３０號五樓","E_COORD97":169932.23999999999,"N_COORD97":2542905.1299999999,"ADDRESS":"長榮路一段２３４巷３０號五樓","OBJECTID":309544},"geometry":{"x":169932.24000000022,"y":2542905.1300000008}},{"attributes":{"ID":309553,"DIS_CODE":0,"TOWNNAME":"東區","LI":"龍山里","LIN":"7鄰","STREET":"長榮路","SECT":"一段","MAREA":" ","LANE":"２３４巷","ALLEY":" ","HOUSE_NO":"３０號六樓","E_COORD97":169932.23999999999,"N_COORD97":2542905.1299999999,"ADDRESS":"長榮路一段２３４巷３０號六樓","OBJECTID":309545},"geometry":{"x":169932.24000000022,"y":2542905.1300000008}},{"attributes":{"ID":309554,"DIS_CODE":0,"TOWNNAME":"東區","LI":"龍山里","LIN":"7鄰","STREET":"長榮路","SECT":"一段","MAREA":" ","LANE":"２３４巷","ALLEY":" ","HOUSE_NO":"３０號四樓","E_COORD97":169932.23999999999,"N_COORD97":2542905.1299999999,"ADDRESS":"長榮路一段２３４巷３０號四樓","OBJECTID":309546},"geometry":{"x":169932.24000000022,"y":2542905.1300000008}},{"attributes":{"ID":309555,"DIS_CODE":0,"TOWNNAME":"仁德區","LI":"成功里","LIN":"7鄰","STREET":"保華路","SECT":" ","MAREA":" ","LANE":"１１７巷","ALLEY":" ","HOUSE_NO":"１６號二樓之１","E_COORD97":171142.54999999999,"N_COORD97":2540005.2999999998,"ADDRESS":"保華路１１７巷１６號二樓之１","OBJECTID":309547},"geometry":{"x":171142.55000000075,"y":2540005.3000000045}},{"attributes":{"ID":309556,"DIS_CODE":0,"TOWNNAME":"中西區","LI":"小西里","LIN":"7鄰","STREET":"西門路","SECT":"一段","MAREA":" ","LANE":"６７６巷","ALLEY":" ","HOUSE_NO":"２號一樓","E_COORD97":167757.22,"N_COORD97":2543299.6699999999,"ADDRESS":"西門路一段６７６巷２號一樓","OBJECTID":309548},"geometry":{"x":167757.2200000016,"y":2543299.6699999999}},{"attributes":{"ID":309557,"DIS_CODE":0,"TOWNNAME":"中西區","LI":"小西里","LIN":"7鄰","STREET":"西門路","SECT":"一段","MAREA":" ","LANE":"６７６巷","ALLEY":" ","HOUSE_NO":"２號三樓","E_COORD97":167757.22,"N_COORD97":2543299.6699999999,"ADDRESS":"西門路一段６７６巷２號三樓","OBJECTID":309549},"geometry":{"x":167757.2200000016,"y":2543299.6699999999}},{"attributes":{"ID":309558,"DIS_CODE":0,"TOWNNAME":"中西區","LI":"小西里","LIN":"7鄰","STREET":"西門路","SECT":"一段","MAREA":" ","LANE":"６７６巷","ALLEY":" ","HOUSE_NO":"２號五樓","E_COORD97":167757.22,"N_COORD97":2543299.6699999999,"ADDRESS":"西門路一段６７６巷２號五樓","OBJECTID":309550},"geometry":{"x":167757.2200000016,"y":2543299.6699999999}},{"attributes":{"ID":309559,"DIS_CODE":0,"TOWNNAME":"中西區","LI":"小西里","LIN":"7鄰","STREET":"西門路","SECT":"一段","MAREA":" ","LANE":"６７６巷","ALLEY":" ","HOUSE_NO":"２號四樓","E_COORD97":167757.22,"N_COORD97":2543299.6699999999,"ADDRESS":"西門路一段６７６巷２號四樓","OBJECTID":309551},"geometry":{"x":167757.2200000016,"y":2543299.6699999999}},{"attributes":{"ID":309560,"DIS_CODE":0,"TOWNNAME":"仁德區","LI":"太子里","LIN":"7鄰","STREET":"太子路","SECT":" ","MAREA":" ","LANE":"１９０巷","ALLEY":" ","HOUSE_NO":"１２號四樓","E_COORD97":174328.78,"N_COORD97":2543621.2599999998,"ADDRESS":"太子路１９０巷１２號四樓","OBJECTID":309552},"geometry":{"x":174328.78000000026,"y":2543621.2599999998}},{"attributes":{"ID":309561,"DIS_CODE":0,"TOWNNAME":"永康區","LI":"三合里","LIN":"7鄰","STREET":"南工街","SECT":" ","MAREA":" ","LANE":"７１巷","ALLEY":" ","HOUSE_NO":"６號","E_COORD97":172068.42999999999,"N_COORD97":2545658.4900000002,"ADDRESS":"南工街７１巷６號","OBJECTID":309553},"geometry":{"x":172068.43000000156,"y":2545658.4899999984}},{"attributes":{"ID":309562,"DIS_CODE":0,"TOWNNAME":"仁德區","LI":"太子里","LIN":"7鄰","STREET":"太子路","SECT":" ","MAREA":" ","LANE":"１９０巷","ALLEY":" ","HOUSE_NO":"８號一樓","E_COORD97":174328.12,"N_COORD97":2543607,"ADDRESS":"太子路１９０巷８號一樓","OBJECTID":309554},"geometry":{"x":174328.12000000011,"y":2543606.9999999981}},{"attributes":{"ID":309563,"DIS_CODE":0,"TOWNNAME":"南區","LI":"開南里","LIN":"7鄰","STREET":"中華西路","SECT":"一段","MAREA":" ","LANE":"８巷","ALLEY":" ","HOUSE_NO":"１０號二樓","E_COORD97":166367.13,"N_COORD97":2540541.27,"ADDRESS":"中華西路一段８巷１０號二樓","OBJECTID":309555},"geometry":{"x":166367.12999999989,"y":2540541.2700000014}},{"attributes":{"ID":309564,"DIS_CODE":0,"TOWNNAME":"南區","LI":"開南里","LIN":"7鄰","STREET":"中華西路","SECT":"一段","MAREA":" ","LANE":"８巷","ALLEY":" ","HOUSE_NO":"１０號三樓","E_COORD97":166367.13,"N_COORD97":2540541.27,"ADDRESS":"中華西路一段８巷１０號三樓","OBJECTID":309556},"geometry":{"x":166367.12999999989,"y":2540541.2700000014}},{"attributes":{"ID":309565,"DIS_CODE":0,"TOWNNAME":"南區","LI":"開南里","LIN":"7鄰","STREET":"中華西路","SECT":"一段","MAREA":" ","LANE":"８巷","ALLEY":" ","HOUSE_NO":"１０號五樓","E_COORD97":166367.13,"N_COORD97":2540541.27,"ADDRESS":"中華西路一段８巷１０號五樓","OBJECTID":309557},"geometry":{"x":166367.12999999989,"y":2540541.2700000014}},{"attributes":{"ID":309566,"DIS_CODE":0,"TOWNNAME":"南區","LI":"開南里","LIN":"7鄰","STREET":"中華西路","SECT":"一段","MAREA":" ","LANE":"８巷","ALLEY":" ","HOUSE_NO":"１０號四樓","E_COORD97":166367.13,"N_COORD97":2540541.27,"ADDRESS":"中華西路一段８巷１０號四樓","OBJECTID":309558},"geometry":{"x":166367.12999999989,"y":2540541.2700000014}},{"attributes":{"ID":309567,"DIS_CODE":0,"TOWNNAME":"南區","LI":"開南里","LIN":"7鄰","STREET":"中華西路","SECT":"一段","MAREA":" ","LANE":"８巷","ALLEY":" ","HOUSE_NO":"１２號二樓","E_COORD97":166373.01999999999,"N_COORD97":2540541.4900000002,"ADDRESS":"中華西路一段８巷１２號二樓","OBJECTID":309559},"geometry":{"x":166373.01999999955,"y":2540541.4900000002}},{"attributes":{"ID":309568,"DIS_CODE":0,"TOWNNAME":"南區","LI":"開南里","LIN":"7鄰","STREET":"中華西路","SECT":"一段","MAREA":" ","LANE":"８巷","ALLEY":" ","HOUSE_NO":"１２號三樓","E_COORD97":166373.01999999999,"N_COORD97":2540541.4900000002,"ADDRESS":"中華西路一段８巷１２號三樓","OBJECTID":309560},"geometry":{"x":166373.01999999955,"y":2540541.4900000002}},{"attributes":{"ID":309569,"DIS_CODE":0,"TOWNNAME":"南區","LI":"開南里","LIN":"7鄰","STREET":"中華西路","SECT":"一段","MAREA":" ","LANE":"８巷","ALLEY":" ","HOUSE_NO":"１２號五樓","E_COORD97":166373.01999999999,"N_COORD97":2540541.4900000002,"ADDRESS":"中華西路一段８巷１２號五樓","OBJECTID":309561},"geometry":{"x":166373.01999999955,"y":2540541.4900000002}},{"attributes":{"ID":309570,"DIS_CODE":0,"TOWNNAME":"歸仁區","LI":"看東里","LIN":"9鄰","STREET":"凱旋路","SECT":"一段","MAREA":" ","LANE":" ","ALLEY":" ","HOUSE_NO":"９９號","E_COORD97":178759.71322000001,"N_COORD97":2539759.3330399999,"ADDRESS":"凱旋路一段９９號","OBJECTID":309562},"geometry":{"x":178759.71321999934,"y":2539759.3330400009}},{"attributes":{"ID":309571,"DIS_CODE":0,"TOWNNAME":"南區","LI":"開南里","LIN":"7鄰","STREET":"中華西路","SECT":"一段","MAREA":" ","LANE":"８巷","ALLEY":" ","HOUSE_NO":"１２號四樓","E_COORD97":166373.01999999999,"N_COORD97":2540541.4900000002,"ADDRESS":"中華西路一段８巷１２號四樓","OBJECTID":309563},"geometry":{"x":166373.01999999955,"y":2540541.4900000002}},{"attributes":{"ID":309572,"DIS_CODE":0,"TOWNNAME":"南區","LI":"開南里","LIN":"7鄰","STREET":"中華西路","SECT":"一段","MAREA":" ","LANE":"８巷","ALLEY":" ","HOUSE_NO":"２號二樓","E_COORD97":166332.14999999999,"N_COORD97":2540541.27,"ADDRESS":"中華西路一段８巷２號二樓","OBJECTID":309564},"geometry":{"x":166332.15000000037,"y":2540541.2700000014}},{"attributes":{"ID":309573,"DIS_CODE":0,"TOWNNAME":"南區","LI":"開南里","LIN":"7鄰","STREET":"中華西路","SECT":"一段","MAREA":" ","LANE":"８巷","ALLEY":" ","HOUSE_NO":"２號三樓","E_COORD97":166332.14999999999,"N_COORD97":2540541.27,"ADDRESS":"中華西路一段８巷２號三樓","OBJECTID":309565},"geometry":{"x":166332.15000000037,"y":2540541.2700000014}},{"attributes":{"ID":309574,"DIS_CODE":0,"TOWNNAME":"南區","LI":"開南里","LIN":"7鄰","STREET":"中華西路","SECT":"一段","MAREA":" ","LANE":"８巷","ALLEY":" ","HOUSE_NO":"２號五樓","E_COORD97":166332.14999999999,"N_COORD97":2540541.27,"ADDRESS":"中華西路一段８巷２號五樓","OBJECTID":309566},"geometry":{"x":166332.15000000037,"y":2540541.2700000014}},{"attributes":{"ID":309575,"DIS_CODE":0,"TOWNNAME":"新營區","LI":"忠政里","LIN":"17鄰","STREET":"府西路","SECT":" ","MAREA":" ","LANE":" ","ALLEY":" ","HOUSE_NO":"２５６號七樓之２","E_COORD97":179806.69,"N_COORD97":2579697.77,"ADDRESS":"府西路２５６號七樓之２","OBJECTID":309567},"geometry":{"x":179806.69000000134,"y":2579697.7699999996}},{"attributes":{"ID":309576,"DIS_CODE":0,"TOWNNAME":"南區","LI":"開南里","LIN":"7鄰","STREET":"中華西路","SECT":"一段","MAREA":" ","LANE":"８巷","ALLEY":" ","HOUSE_NO":"２號四樓","E_COORD97":166332.14999999999,"N_COORD97":2540541.27,"ADDRESS":"中華西路一段８巷２號四樓","OBJECTID":309568},"geometry":{"x":166332.15000000037,"y":2540541.2700000014}},{"attributes":{"ID":309577,"DIS_CODE":0,"TOWNNAME":"南區","LI":"開南里","LIN":"7鄰","STREET":"中華西路","SECT":"一段","MAREA":" ","LANE":"８巷","ALLEY":" ","HOUSE_NO":"４號二樓","E_COORD97":166337.48000000001,"N_COORD97":2540541.4900000002,"ADDRESS":"中華西路一段８巷４號二樓","OBJECTID":309569},"geometry":{"x":166337.48000000138,"y":2540541.4900000002}},{"attributes":{"ID":309578,"DIS_CODE":0,"TOWNNAME":"南區","LI":"開南里","LIN":"7鄰","STREET":"中華西路","SECT":"一段","MAREA":" ","LANE":"８巷","ALLEY":" ","HOUSE_NO":"４號三樓","E_COORD97":166337.48000000001,"N_COORD97":2540541.4900000002,"ADDRESS":"中華西路一段８巷４號三樓","OBJECTID":309570},"geometry":{"x":166337.48000000138,"y":2540541.4900000002}},{"attributes":{"ID":309579,"DIS_CODE":0,"TOWNNAME":"南區","LI":"開南里","LIN":"7鄰","STREET":"中華西路","SECT":"一段","MAREA":" ","LANE":"８巷","ALLEY":" ","HOUSE_NO":"４號五樓","E_COORD97":166337.48000000001,"N_COORD97":2540541.4900000002,"ADDRESS":"中華西路一段８巷４號五樓","OBJECTID":309571},"geometry":{"x":166337.48000000138,"y":2540541.4900000002}},{"attributes":{"ID":309580,"DIS_CODE":0,"TOWNNAME":"南區","LI":"開南里","LIN":"7鄰","STREET":"中華西路","SECT":"一段","MAREA":" ","LANE":"８巷","ALLEY":" ","HOUSE_NO":"４號四樓","E_COORD97":166337.48000000001,"N_COORD97":2540541.4900000002,"ADDRESS":"中華西路一段８巷４號四樓","OBJECTID":309572},"geometry":{"x":166337.48000000138,"y":2540541.4900000002}},{"attributes":{"ID":309581,"DIS_CODE":0,"TOWNNAME":"南區","LI":"開南里","LIN":"7鄰","STREET":"中華西路","SECT":"一段","MAREA":" ","LANE":"８巷","ALLEY":" ","HOUSE_NO":"６號二樓","E_COORD97":166349.92000000001,"N_COORD97":2540540.9399999999,"ADDRESS":"中華西路一段８巷６號二樓","OBJECTID":309573},"geometry":{"x":166349.91999999993,"y":2540540.9399999995}},{"attributes":{"ID":309582,"DIS_CODE":0,"TOWNNAME":"南區","LI":"開南里","LIN":"7鄰","STREET":"中華西路","SECT":"一段","MAREA":" ","LANE":"８巷","ALLEY":" ","HOUSE_NO":"６號三樓","E_COORD97":166349.92000000001,"N_COORD97":2540540.9399999999,"ADDRESS":"中華西路一段８巷６號三樓","OBJECTID":309574},"geometry":{"x":166349.91999999993,"y":2540540.9399999995}},{"attributes":{"ID":309583,"DIS_CODE":0,"TOWNNAME":"南區","LI":"開南里","LIN":"7鄰","STREET":"中華西路","SECT":"一段","MAREA":" ","LANE":"８巷","ALLEY":" ","HOUSE_NO":"６號五樓","E_COORD97":166349.92000000001,"N_COORD97":2540540.9399999999,"ADDRESS":"中華西路一段８巷６號五樓","OBJECTID":309575},"geometry":{"x":166349.91999999993,"y":2540540.9399999995}},{"attributes":{"ID":309584,"DIS_CODE":0,"TOWNNAME":"南區","LI":"開南里","LIN":"7鄰","STREET":"中華西路","SECT":"一段","MAREA":" ","LANE":"８巷","ALLEY":" ","HOUSE_NO":"６號四樓","E_COORD97":166349.92000000001,"N_COORD97":2540540.9399999999,"ADDRESS":"中華西路一段８巷６號四樓","OBJECTID":309576},"geometry":{"x":166349.91999999993,"y":2540540.9399999995}},{"attributes":{"ID":309585,"DIS_CODE":0,"TOWNNAME":"南區","LI":"開南里","LIN":"7鄰","STREET":"中華西路","SECT":"一段","MAREA":" ","LANE":"８巷","ALLEY":" ","HOUSE_NO":"８號二樓","E_COORD97":166356.25,"N_COORD97":2540541.0499999998,"ADDRESS":"中華西路一段８巷８號二樓","OBJECTID":309577},"geometry":{"x":166356.25,"y":2540541.0500000026}},{"attributes":{"ID":309586,"DIS_CODE":0,"TOWNNAME":"南區","LI":"開南里","LIN":"7鄰","STREET":"中華西路","SECT":"一段","MAREA":" ","LANE":"８巷","ALLEY":" ","HOUSE_NO":"８號三樓","E_COORD97":166356.25,"N_COORD97":2540541.0499999998,"ADDRESS":"中華西路一段８巷８號三樓","OBJECTID":309578},"geometry":{"x":166356.25,"y":2540541.0500000026}},{"attributes":{"ID":309587,"DIS_CODE":0,"TOWNNAME":"南區","LI":"開南里","LIN":"7鄰","STREET":"中華西路","SECT":"一段","MAREA":" ","LANE":"８巷","ALLEY":" ","HOUSE_NO":"８號五樓","E_COORD97":166356.25,"N_COORD97":2540541.0499999998,"ADDRESS":"中華西路一段８巷８號五樓","OBJECTID":309579},"geometry":{"x":166356.25,"y":2540541.0500000026}},{"attributes":{"ID":309588,"DIS_CODE":0,"TOWNNAME":"南區","LI":"開南里","LIN":"7鄰","STREET":"中華西路","SECT":"一段","MAREA":" ","LANE":"８巷","ALLEY":" ","HOUSE_NO":"８號四樓","E_COORD97":166356.25,"N_COORD97":2540541.0499999998,"ADDRESS":"中華西路一段８巷８號四樓","OBJECTID":309580},"geometry":{"x":166356.25,"y":2540541.0500000026}},{"attributes":{"ID":309589,"DIS_CODE":0,"TOWNNAME":"南區","LI":"新昌里","LIN":"7鄰","STREET":"西門路","SECT":"一段","MAREA":" ","LANE":"５４５巷","ALLEY":" ","HOUSE_NO":"３９號二樓","E_COORD97":167557.34,"N_COORD97":2542701.9700000002,"ADDRESS":"西門路一段５４５巷３９號二樓","OBJECTID":309581},"geometry":{"x":167557.34000000078,"y":2542701.9700000007}},{"attributes":{"ID":309590,"DIS_CODE":0,"TOWNNAME":"南區","LI":"新昌里","LIN":"7鄰","STREET":"西門路","SECT":"一段","MAREA":" ","LANE":"５４５巷","ALLEY":" ","HOUSE_NO":"３９號三樓","E_COORD97":167557.34,"N_COORD97":2542701.9700000002,"ADDRESS":"西門路一段５４５巷３９號三樓","OBJECTID":309582},"geometry":{"x":167557.34000000078,"y":2542701.9700000007}},{"attributes":{"ID":309591,"DIS_CODE":0,"TOWNNAME":"南區","LI":"新昌里","LIN":"7鄰","STREET":"西門路","SECT":"一段","MAREA":" ","LANE":"５４５巷","ALLEY":" ","HOUSE_NO":"３９號四樓","E_COORD97":167557.34,"N_COORD97":2542701.9700000002,"ADDRESS":"西門路一段５４５巷３９號四樓","OBJECTID":309583},"geometry":{"x":167557.34000000078,"y":2542701.9700000007}},{"attributes":{"ID":309592,"DIS_CODE":0,"TOWNNAME":"南區","LI":"新昌里","LIN":"7鄰","STREET":"西門路","SECT":"一段","MAREA":" ","LANE":"５４５巷","ALLEY":" ","HOUSE_NO":"３９號五樓","E_COORD97":167557.34,"N_COORD97":2542701.9700000002,"ADDRESS":"西門路一段５４５巷３９號五樓","OBJECTID":309584},"geometry":{"x":167557.34000000078,"y":2542701.9700000007}},{"attributes":{"ID":309593,"DIS_CODE":0,"TOWNNAME":"南區","LI":"新昌里","LIN":"7鄰","STREET":"西門路","SECT":"一段","MAREA":" ","LANE":"５４５巷","ALLEY":" ","HOUSE_NO":"４１號二樓","E_COORD97":167556.20000000001,"N_COORD97":2542698.0800000001,"ADDRESS":"西門路一段５４５巷４１號二樓","OBJECTID":309585},"geometry":{"x":167556.20000000205,"y":2542698.0800000038}},{"attributes":{"ID":309594,"DIS_CODE":0,"TOWNNAME":"南區","LI":"新昌里","LIN":"7鄰","STREET":"西門路","SECT":"一段","MAREA":" ","LANE":"５４５巷","ALLEY":" ","HOUSE_NO":"４１號三樓","E_COORD97":167556.20000000001,"N_COORD97":2542698.0800000001,"ADDRESS":"西門路一段５４５巷４１號三樓","OBJECTID":309586},"geometry":{"x":167556.20000000205,"y":2542698.0800000038}},{"attributes":{"ID":309595,"DIS_CODE":0,"TOWNNAME":"南區","LI":"新昌里","LIN":"7鄰","STREET":"西門路","SECT":"一段","MAREA":" ","LANE":"５４５巷","ALLEY":" ","HOUSE_NO":"４１號四樓","E_COORD97":167556.20000000001,"N_COORD97":2542698.0800000001,"ADDRESS":"西門路一段５４５巷４１號四樓","OBJECTID":309587},"geometry":{"x":167556.20000000205,"y":2542698.0800000038}},{"attributes":{"ID":309596,"DIS_CODE":0,"TOWNNAME":"南區","LI":"新昌里","LIN":"7鄰","STREET":"西門路","SECT":"一段","MAREA":" ","LANE":"５４５巷","ALLEY":" ","HOUSE_NO":"４１號五樓","E_COORD97":167556.20000000001,"N_COORD97":2542698.0800000001,"ADDRESS":"西門路一段５４５巷４１號五樓","OBJECTID":309588},"geometry":{"x":167556.20000000205,"y":2542698.0800000038}},{"attributes":{"ID":309597,"DIS_CODE":0,"TOWNNAME":"南區","LI":"新昌里","LIN":"7鄰","STREET":"府緯街","SECT":" ","MAREA":" ","LANE":"１１５巷","ALLEY":" ","HOUSE_NO":"１號二樓","E_COORD97":167544.03,"N_COORD97":2542691.7599999998,"ADDRESS":"府緯街１１５巷１號二樓","OBJECTID":309589},"geometry":{"x":167544.03000000119,"y":2542691.7599999998}},{"attributes":{"ID":309598,"DIS_CODE":0,"TOWNNAME":"南區","LI":"新昌里","LIN":"7鄰","STREET":"府緯街","SECT":" ","MAREA":" ","LANE":"１１５巷","ALLEY":" ","HOUSE_NO":"１號三樓","E_COORD97":167544.03,"N_COORD97":2542691.7599999998,"ADDRESS":"府緯街１１５巷１號三樓","OBJECTID":309590},"geometry":{"x":167544.03000000119,"y":2542691.7599999998}},{"attributes":{"ID":309599,"DIS_CODE":0,"TOWNNAME":"南區","LI":"新昌里","LIN":"7鄰","STREET":"府緯街","SECT":" ","MAREA":" ","LANE":"１１５巷","ALLEY":" ","HOUSE_NO":"３號二樓","E_COORD97":167545.98000000001,"N_COORD97":2542679.9300000002,"ADDRESS":"府緯街１１５巷３號二樓","OBJECTID":309591},"geometry":{"x":167545.98000000231,"y":2542679.9300000016}},{"attributes":{"ID":309600,"DIS_CODE":0,"TOWNNAME":"歸仁區","LI":"看東里","LIN":"9鄰","STREET":"凱旋路","SECT":"一段","MAREA":" ","LANE":" ","ALLEY":" ","HOUSE_NO":"９０號","E_COORD97":178822.22921699999,"N_COORD97":2539774.1497,"ADDRESS":"凱旋路一段９０號","OBJECTID":309592},"geometry":{"x":178822.22921700031,"y":2539774.1496980004}},{"attributes":{"ID":309601,"DIS_CODE":0,"TOWNNAME":"北區","LI":"大山里","LIN":"14鄰","STREET":"旭日街","SECT":" ","MAREA":" ","LANE":"１４３巷","ALLEY":" ","HOUSE_NO":"４號","E_COORD97":169379.48999999999,"N_COORD97":2545693.6299999999,"ADDRESS":"旭日街１４３巷４號","OBJECTID":309593},"geometry":{"x":169379.49000000022,"y":2545693.6300000027}},{"attributes":{"ID":309602,"DIS_CODE":0,"TOWNNAME":"南區","LI":"新昌里","LIN":"7鄰","STREET":"府緯街","SECT":" ","MAREA":" ","LANE":"１１５巷","ALLEY":" ","HOUSE_NO":"３號三樓","E_COORD97":167545.98000000001,"N_COORD97":2542679.9300000002,"ADDRESS":"府緯街１１５巷３號三樓","OBJECTID":309594},"geometry":{"x":167545.98000000231,"y":2542679.9300000016}},{"attributes":{"ID":309603,"DIS_CODE":0,"TOWNNAME":"南區","LI":"新昌里","LIN":"7鄰","STREET":"府緯街","SECT":" ","MAREA":" ","LANE":"１１５巷","ALLEY":" ","HOUSE_NO":"３號四樓","E_COORD97":167545.98000000001,"N_COORD97":2542679.9300000002,"ADDRESS":"府緯街１１５巷３號四樓","OBJECTID":309595},"geometry":{"x":167545.98000000231,"y":2542679.9300000016}},{"attributes":{"ID":309604,"DIS_CODE":0,"TOWNNAME":"南區","LI":"新昌里","LIN":"7鄰","STREET":"府緯街","SECT":" ","MAREA":" ","LANE":"１１５巷","ALLEY":" ","HOUSE_NO":"３號五樓","E_COORD97":167545.98000000001,"N_COORD97":2542679.9300000002,"ADDRESS":"府緯街１１５巷３號五樓","OBJECTID":309596},"geometry":{"x":167545.98000000231,"y":2542679.9300000016}},{"attributes":{"ID":309605,"DIS_CODE":0,"TOWNNAME":"南區","LI":"新昌里","LIN":"7鄰","STREET":"府緯街","SECT":" ","MAREA":" ","LANE":"１１５巷","ALLEY":" ","HOUSE_NO":"５號二樓","E_COORD97":167546.45999999999,"N_COORD97":2542673.9300000002,"ADDRESS":"府緯街１１５巷５號二樓","OBJECTID":309597},"geometry":{"x":167546.46000000089,"y":2542673.9299999997}},{"attributes":{"ID":309606,"DIS_CODE":0,"TOWNNAME":"南區","LI":"新昌里","LIN":"7鄰","STREET":"府緯街","SECT":" ","MAREA":" ","LANE":"１１５巷","ALLEY":" ","HOUSE_NO":"５號三樓","E_COORD97":167546.45999999999,"N_COORD97":2542673.9300000002,"ADDRESS":"府緯街１１５巷５號三樓","OBJECTID":309598},"geometry":{"x":167546.46000000089,"y":2542673.9299999997}},{"attributes":{"ID":309607,"DIS_CODE":0,"TOWNNAME":"南區","LI":"新昌里","LIN":"7鄰","STREET":"府緯街","SECT":" ","MAREA":" ","LANE":"１１５巷","ALLEY":" ","HOUSE_NO":"５號四樓","E_COORD97":167546.45999999999,"N_COORD97":2542673.9300000002,"ADDRESS":"府緯街１１５巷５號四樓","OBJECTID":309599},"geometry":{"x":167546.46000000089,"y":2542673.9299999997}},{"attributes":{"ID":309608,"DIS_CODE":0,"TOWNNAME":"南區","LI":"新昌里","LIN":"7鄰","STREET":"府緯街","SECT":" ","MAREA":" ","LANE":"１１５巷","ALLEY":" ","HOUSE_NO":"５號五樓","E_COORD97":167546.45999999999,"N_COORD97":2542673.9300000002,"ADDRESS":"府緯街１１５巷５號五樓","OBJECTID":309600},"geometry":{"x":167546.46000000089,"y":2542673.9299999997}}]}