{"displayFieldName":"TOWNNAME","fieldAliases":{"ID":"ID","DIS_CODE":"DIS_CODE","TOWNNAME":"TOWNNAME","LI":"LI","LIN":"LIN","STREET":"STREET","SECT":"SECT","MAREA":"MAREA","LANE":"LANE","ALLEY":"ALLEY","HOUSE_NO":"HOUSE_NO","E_COORD97":"E_COORD97","N_COORD97":"N_COORD97","ADDRESS":"ADDRESS","OBJECTID":"OBJECTID"},"geometryType":"esriGeometryPoint","spatialReference":{"wkid":102443,"latestWkid":3826},"fields":[{"name":"ID","type":"esriFieldTypeDouble","alias":"ID"},{"name":"DIS_CODE","type":"esriFieldTypeInteger","alias":"DIS_CODE"},{"name":"TOWNNAME","type":"esriFieldTypeString","alias":"TOWNNAME","length":8},{"name":"LI","type":"esriFieldTypeString","alias":"LI","length":8},{"name":"LIN","type":"esriFieldTypeString","alias":"LIN","length":12},{"name":"STREET","type":"esriFieldTypeString","alias":"STREET","length":20},{"name":"SECT","type":"esriFieldTypeString","alias":"SECT","length":8},{"name":"MAREA","type":"esriFieldTypeString","alias":"MAREA","length":12},{"name":"LANE","type":"esriFieldTypeString","alias":"LANE","length":10},{"name":"ALLEY","type":"esriFieldTypeString","alias":"ALLEY","length":10},{"name":"HOUSE_NO","type":"esriFieldTypeString","alias":"HOUSE_NO","length":20},{"name":"E_COORD97","type":"esriFieldTypeDouble","alias":"E_COORD97"},{"name":"N_COORD97","type":"esriFieldTypeDouble","alias":"N_COORD97"},{"name":"ADDRESS","type":"esriFieldTypeString","alias":"ADDRESS","length":50},{"name":"OBJECTID","type":"esriFieldTypeOID","alias":"OBJECTID"}],"features":[{"attributes":{"ID":654028,"DIS_CODE":0,"TOWNNAME":"後壁區","LI":"嘉民里","LIN":"1鄰","STREET":" ","SECT":" ","MAREA":"上茄苳","LANE":" ","ALLEY":" ","HOUSE_NO":"１２７號之７０","E_COORD97":186388.49853300001,"N_COORD97":2587680.38075,"ADDRESS":"上茄苳１２７號之７０","OBJECTID":654001},"geometry":{"x":186388.49853300117,"y":2587680.3807490021}},{"attributes":{"ID":654029,"DIS_CODE":0,"TOWNNAME":"佳里區","LI":"鎮山里","LIN":"23鄰","STREET":"仁愛路","SECT":" ","MAREA":" ","LANE":" ","ALLEY":" ","HOUSE_NO":"１３５號","E_COORD97":166400.046347,"N_COORD97":2561345.87818,"ADDRESS":"仁愛路１３５號","OBJECTID":654002},"geometry":{"x":166400.0463469997,"y":2561345.8781770021}},{"attributes":{"ID":654030,"DIS_CODE":0,"TOWNNAME":"佳里區","LI":"鎮山里","LIN":"23鄰","STREET":"仁愛路","SECT":" ","MAREA":" ","LANE":" ","ALLEY":" ","HOUSE_NO":"１３７號","E_COORD97":166396.02086600001,"N_COORD97":2561347.35984,"ADDRESS":"仁愛路１３７號","OBJECTID":654003},"geometry":{"x":166396.02086600102,"y":2561347.3598430026}},{"attributes":{"ID":654031,"DIS_CODE":0,"TOWNNAME":"佳里區","LI":"鎮山里","LIN":"23鄰","STREET":"鎮山街","SECT":" ","MAREA":" ","LANE":"１７巷","ALLEY":" ","HOUSE_NO":"２１號","E_COORD97":166384.15629000001,"N_COORD97":2561325.9815199999,"ADDRESS":"鎮山街１７巷２１號","OBJECTID":654004},"geometry":{"x":166384.1562900003,"y":2561325.9815209992}},{"attributes":{"ID":654032,"DIS_CODE":0,"TOWNNAME":"佳里區","LI":"鎮山里","LIN":"23鄰","STREET":"鎮山街","SECT":" ","MAREA":" ","LANE":"１７巷","ALLEY":" ","HOUSE_NO":"２３號","E_COORD97":166387.969904,"N_COORD97":2561325.3465200001,"ADDRESS":"鎮山街１７巷２３號","OBJECTID":654005},"geometry":{"x":166387.96990399994,"y":2561325.3465209994}},{"attributes":{"ID":654033,"DIS_CODE":0,"TOWNNAME":"下營區","LI":"中營里","LIN":"15鄰","STREET":" ","SECT":" ","MAREA":"中營","LANE":" ","ALLEY":" ","HOUSE_NO":"１２３３號","E_COORD97":175826.81864499999,"N_COORD97":2568462.9378399998,"ADDRESS":"中營１２３３號","OBJECTID":654006},"geometry":{"x":175826.81864500046,"y":2568462.9378420003}},{"attributes":{"ID":654034,"DIS_CODE":0,"TOWNNAME":"下營區","LI":"中營里","LIN":"15鄰","STREET":" ","SECT":" ","MAREA":"中營","LANE":" ","ALLEY":" ","HOUSE_NO":"１２６０號","E_COORD97":175760.407809,"N_COORD97":2568361.6321299998,"ADDRESS":"中營１２６０號","OBJECTID":654007},"geometry":{"x":175760.40780900046,"y":2568361.6321340017}},{"attributes":{"ID":654035,"DIS_CODE":0,"TOWNNAME":"下營區","LI":"中營里","LIN":"15鄰","STREET":" ","SECT":" ","MAREA":"中營","LANE":" ","ALLEY":" ","HOUSE_NO":"１２６５之９號","E_COORD97":175691.13277600001,"N_COORD97":2568593.4363199999,"ADDRESS":"中營１２６５之９號","OBJECTID":654008},"geometry":{"x":175691.13277600054,"y":2568593.4363199994}},{"attributes":{"ID":654036,"DIS_CODE":0,"TOWNNAME":"下營區","LI":"中營里","LIN":"15鄰","STREET":" ","SECT":" ","MAREA":"中營","LANE":" ","ALLEY":" ","HOUSE_NO":"１２７１之１號","E_COORD97":175528.82276700001,"N_COORD97":2568570.9592300002,"ADDRESS":"中營１２７１之１號","OBJECTID":654009},"geometry":{"x":175528.82276700065,"y":2568570.9592270013}},{"attributes":{"ID":654037,"DIS_CODE":0,"TOWNNAME":"下營區","LI":"中營里","LIN":"1鄰","STREET":" ","SECT":" ","MAREA":"中營","LANE":" ","ALLEY":" ","HOUSE_NO":"８３６號","E_COORD97":176068.028621,"N_COORD97":2568506.61259,"ADDRESS":"中營８３６號","OBJECTID":654010},"geometry":{"x":176068.02862100117,"y":2568506.6125950012}},{"attributes":{"ID":654038,"DIS_CODE":0,"TOWNNAME":"下營區","LI":"中營里","LIN":"1鄰","STREET":" ","SECT":" ","MAREA":"中營","LANE":" ","ALLEY":" ","HOUSE_NO":"８３７號","E_COORD97":176068.45211000001,"N_COORD97":2568523.1225899998,"ADDRESS":"中營８３７號","OBJECTID":654011},"geometry":{"x":176068.45211000089,"y":2568523.1225860026}},{"attributes":{"ID":654039,"DIS_CODE":0,"TOWNNAME":"下營區","LI":"中營里","LIN":"2鄰","STREET":" ","SECT":" ","MAREA":"中營","LANE":" ","ALLEY":" ","HOUSE_NO":"８５６號","E_COORD97":176150.185459,"N_COORD97":2568563.33923,"ADDRESS":"中營８５６號","OBJECTID":654012},"geometry":{"x":176150.18545900006,"y":2568563.3392310012}},{"attributes":{"ID":654040,"DIS_CODE":0,"TOWNNAME":"下營區","LI":"中營里","LIN":"2鄰","STREET":" ","SECT":" ","MAREA":"中營","LANE":" ","ALLEY":" ","HOUSE_NO":"８５８號","E_COORD97":176174.32432399999,"N_COORD97":2568569.47756,"ADDRESS":"中營８５８號","OBJECTID":654013},"geometry":{"x":176174.32432400063,"y":2568569.4775610045}},{"attributes":{"ID":654041,"DIS_CODE":0,"TOWNNAME":"下營區","LI":"中營里","LIN":"2鄰","STREET":" ","SECT":" ","MAREA":"中營","LANE":" ","ALLEY":" ","HOUSE_NO":"９０１號","E_COORD97":176077.983271,"N_COORD97":2568744.4914099998,"ADDRESS":"中營９０１號","OBJECTID":654014},"geometry":{"x":176077.98327100091,"y":2568744.491409}},{"attributes":{"ID":654042,"DIS_CODE":0,"TOWNNAME":"下營區","LI":"中營里","LIN":"2鄰","STREET":" ","SECT":" ","MAREA":"中營","LANE":" ","ALLEY":" ","HOUSE_NO":"９０１號之１","E_COORD97":176064.43161999999,"N_COORD97":2568748.19557,"ADDRESS":"中營９０１號之１","OBJECTID":654015},"geometry":{"x":176064.43162000086,"y":2568748.1955700014}},{"attributes":{"ID":654043,"DIS_CODE":0,"TOWNNAME":"下營區","LI":"中營里","LIN":"2鄰","STREET":" ","SECT":" ","MAREA":"中營","LANE":" ","ALLEY":" ","HOUSE_NO":"９０１號之２","E_COORD97":176064.43162799999,"N_COORD97":2568752.53474,"ADDRESS":"中營９０１號之２","OBJECTID":654016},"geometry":{"x":176064.43162799999,"y":2568752.5347380005}},{"attributes":{"ID":654044,"DIS_CODE":0,"TOWNNAME":"下營區","LI":"中營里","LIN":"2鄰","STREET":" ","SECT":" ","MAREA":"中營","LANE":" ","ALLEY":" ","HOUSE_NO":"９０１號之３","E_COORD97":176064.21988300001,"N_COORD97":2568756.7680700002,"ADDRESS":"中營９０１號之３","OBJECTID":654017},"geometry":{"x":176064.21988300141,"y":2568756.7680689991}},{"attributes":{"ID":654045,"DIS_CODE":0,"TOWNNAME":"下營區","LI":"中營里","LIN":"16鄰","STREET":" ","SECT":" ","MAREA":"中營","LANE":" ","ALLEY":" ","HOUSE_NO":"９１４號","E_COORD97":176018.05959799999,"N_COORD97":2568731.2622500001,"ADDRESS":"中營９１４號","OBJECTID":654018},"geometry":{"x":176018.05959799979,"y":2568731.2622490022}},{"attributes":{"ID":654046,"DIS_CODE":0,"TOWNNAME":"下營區","LI":"中營里","LIN":"3鄰","STREET":" ","SECT":" ","MAREA":"中營","LANE":" ","ALLEY":" ","HOUSE_NO":"９８７號","E_COORD97":175986.509678,"N_COORD97":2568555.3673399999,"ADDRESS":"中營９８７號","OBJECTID":654019},"geometry":{"x":175986.50967799965,"y":2568555.3673440013}},{"attributes":{"ID":654047,"DIS_CODE":0,"TOWNNAME":"下營區","LI":"中營里","LIN":"4鄰","STREET":" ","SECT":" ","MAREA":"中營","LANE":" ","ALLEY":" ","HOUSE_NO":"９９４號","E_COORD97":175966.81744700001,"N_COORD97":2568584.5773299998,"ADDRESS":"中營９９４號","OBJECTID":654020},"geometry":{"x":175966.81744700111,"y":2568584.5773290005}},{"attributes":{"ID":654048,"DIS_CODE":0,"TOWNNAME":"下營區","LI":"中營里","LIN":"4鄰","STREET":" ","SECT":" ","MAREA":"中營","LANE":" ","ALLEY":" ","HOUSE_NO":"９９８號","E_COORD97":175946.489982,"N_COORD97":2568545.2073499998,"ADDRESS":"中營９９８號","OBJECTID":654021},"geometry":{"x":175946.48998199962,"y":2568545.2073500026}},{"attributes":{"ID":654049,"DIS_CODE":0,"TOWNNAME":"後壁區","LI":"嘉民里","LIN":"3鄰","STREET":" ","SECT":" ","MAREA":"上茄苳","LANE":" ","ALLEY":" ","HOUSE_NO":"１４６號之１６０","E_COORD97":185623.582463,"N_COORD97":2587521.4248700002,"ADDRESS":"上茄苳１４６號之１６０","OBJECTID":654022},"geometry":{"x":185623.5824630009,"y":2587521.4248719998}},{"attributes":{"ID":654050,"DIS_CODE":0,"TOWNNAME":"後壁區","LI":"嘉民里","LIN":"3鄰","STREET":" ","SECT":" ","MAREA":"上茄苳","LANE":" ","ALLEY":" ","HOUSE_NO":"１４６號之２５１","E_COORD97":186101.979096,"N_COORD97":2587445.2249099999,"ADDRESS":"上茄苳１４６號之２５１","OBJECTID":654023},"geometry":{"x":186101.97909600101,"y":2587445.2249130048}},{"attributes":{"ID":654051,"DIS_CODE":0,"TOWNNAME":"後壁區","LI":"嘉民里","LIN":"3鄰","STREET":" ","SECT":" ","MAREA":"上茄苳","LANE":" ","ALLEY":" ","HOUSE_NO":"１４６號之３４","E_COORD97":186189.904075,"N_COORD97":2587498.8823799998,"ADDRESS":"上茄苳１４６號之３４","OBJECTID":654024},"geometry":{"x":186189.90407500044,"y":2587498.8823840022}},{"attributes":{"ID":654052,"DIS_CODE":0,"TOWNNAME":"後壁區","LI":"嘉民里","LIN":"3鄰","STREET":" ","SECT":" ","MAREA":"上茄苳","LANE":" ","ALLEY":" ","HOUSE_NO":"２５９號之２","E_COORD97":186111.19532900001,"N_COORD97":2586755.6682000002,"ADDRESS":"上茄苳２５９號之２","OBJECTID":654025},"geometry":{"x":186111.19532900024,"y":2586755.6682020035}},{"attributes":{"ID":654053,"DIS_CODE":0,"TOWNNAME":"永康區","LI":"\u25A0行里","LIN":"28鄰","STREET":"中正三街","SECT":" ","MAREA":" ","LANE":" ","ALLEY":" ","HOUSE_NO":"１２９號","E_COORD97":172552.761467,"N_COORD97":2548739.5930699999,"ADDRESS":"中正三街１２９號","OBJECTID":654026},"geometry":{"x":172552.76146700047,"y":2548739.5930680018}},{"attributes":{"ID":654054,"DIS_CODE":0,"TOWNNAME":"永康區","LI":"大橋里","LIN":"1鄰","STREET":"中華路","SECT":" ","MAREA":" ","LANE":" ","ALLEY":" ","HOUSE_NO":"８６２之３號","E_COORD97":170623.58078700001,"N_COORD97":2546617.5300500002,"ADDRESS":"中華路８６２之３號","OBJECTID":654027},"geometry":{"x":170623.58078700118,"y":2546617.5300479997}},{"attributes":{"ID":654055,"DIS_CODE":0,"TOWNNAME":"永康區","LI":"六合里","LIN":"4鄰","STREET":"中華路","SECT":" ","MAREA":" ","LANE":" ","ALLEY":" ","HOUSE_NO":"５３９號","E_COORD97":171183.98000899999,"N_COORD97":2545889.2912699999,"ADDRESS":"中華路５３９號","OBJECTID":654028},"geometry":{"x":171183.98000899982,"y":2545889.291274}},{"attributes":{"ID":654056,"DIS_CODE":0,"TOWNNAME":"永康區","LI":"北灣里","LIN":"37鄰","STREET":"大同街","SECT":" ","MAREA":" ","LANE":" ","ALLEY":" ","HOUSE_NO":"６３２號","E_COORD97":174699.82807799999,"N_COORD97":2546246.69025,"ADDRESS":"大同街６３２號","OBJECTID":654029},"geometry":{"x":174699.82807800174,"y":2546246.6902479995}},{"attributes":{"ID":654057,"DIS_CODE":0,"TOWNNAME":"永康區","LI":"北灣里","LIN":"37鄰","STREET":"大同街","SECT":" ","MAREA":" ","LANE":" ","ALLEY":" ","HOUSE_NO":"６３２之１號","E_COORD97":174696.22490599999,"N_COORD97":2546249.4419100001,"ADDRESS":"大同街６３２之１號","OBJECTID":654030},"geometry":{"x":174696.22490600031,"y":2546249.4419130012}},{"attributes":{"ID":654058,"DIS_CODE":0,"TOWNNAME":"永康區","LI":"北灣里","LIN":"37鄰","STREET":"大同街","SECT":" ","MAREA":" ","LANE":" ","ALLEY":" ","HOUSE_NO":"６３２之２號","E_COORD97":174693.46953900001,"N_COORD97":2546253.6752399998,"ADDRESS":"大同街６３２之２號","OBJECTID":654031},"geometry":{"x":174693.46953899972,"y":2546253.6752439998}},{"attributes":{"ID":654059,"DIS_CODE":0,"TOWNNAME":"永康區","LI":"北灣里","LIN":"37鄰","STREET":"大同街","SECT":" ","MAREA":" ","LANE":" ","ALLEY":" ","HOUSE_NO":"６３２之３號","E_COORD97":174689.86636700001,"N_COORD97":2546257.90857,"ADDRESS":"大同街６３２之３號","OBJECTID":654032},"geometry":{"x":174689.86636700109,"y":2546257.9085750021}},{"attributes":{"ID":654060,"DIS_CODE":0,"TOWNNAME":"安南區","LI":"安慶里","LIN":"11鄰","STREET":"長溪路","SECT":"一段","MAREA":" ","LANE":" ","ALLEY":" ","HOUSE_NO":"２４１號之５","E_COORD97":168859.39721299999,"N_COORD97":2548676.7909599999,"ADDRESS":"長溪路一段２４１號之５","OBJECTID":654033},"geometry":{"x":168859.3972130008,"y":2548676.7909559999}},{"attributes":{"ID":654061,"DIS_CODE":0,"TOWNNAME":"永康區","LI":"北灣里","LIN":"37鄰","STREET":"大同街","SECT":" ","MAREA":" ","LANE":"６０６巷","ALLEY":"１７弄","HOUSE_NO":"１９號","E_COORD97":174713.760909,"N_COORD97":2546253.0314500001,"ADDRESS":"大同街６０６巷１７弄１９號","OBJECTID":654034},"geometry":{"x":174713.76090900134,"y":2546253.0314510036}},{"attributes":{"ID":654062,"DIS_CODE":0,"TOWNNAME":"永康區","LI":"北灣里","LIN":"37鄰","STREET":"大同街","SECT":" ","MAREA":" ","LANE":"６０６巷","ALLEY":"１７弄","HOUSE_NO":"２１號","E_COORD97":174711.21749400001,"N_COORD97":2546256.41812,"ADDRESS":"大同街６０６巷１７弄２１號","OBJECTID":654035},"geometry":{"x":174711.21749400068,"y":2546256.4181159995}},{"attributes":{"ID":654063,"DIS_CODE":0,"TOWNNAME":"永康區","LI":"北灣里","LIN":"37鄰","STREET":"大同街","SECT":" ","MAREA":" ","LANE":"６０６巷","ALLEY":"１７弄","HOUSE_NO":"２３號","E_COORD97":174709.097981,"N_COORD97":2546259.5931099998,"ADDRESS":"大同街６０６巷１７弄２３號","OBJECTID":654036},"geometry":{"x":174709.09798100125,"y":2546259.5931139998}},{"attributes":{"ID":654064,"DIS_CODE":0,"TOWNNAME":"永康區","LI":"北灣里","LIN":"37鄰","STREET":"大同街","SECT":" ","MAREA":" ","LANE":"６０６巷","ALLEY":"１７弄","HOUSE_NO":"２５號","E_COORD97":174706.34261399999,"N_COORD97":2546261.7097800002,"ADDRESS":"大同街６０６巷１７弄２５號","OBJECTID":654037},"geometry":{"x":174706.34261400066,"y":2546261.7097800002}},{"attributes":{"ID":654065,"DIS_CODE":0,"TOWNNAME":"永康區","LI":"東橋里","LIN":"14鄰","STREET":"東橋一路","SECT":" ","MAREA":" ","LANE":" ","ALLEY":" ","HOUSE_NO":"２９２號","E_COORD97":171377.43558600001,"N_COORD97":2546691.49871,"ADDRESS":"東橋一路２９２號","OBJECTID":654038},"geometry":{"x":171377.43558599986,"y":2546691.4987140018}},{"attributes":{"ID":654066,"DIS_CODE":0,"TOWNNAME":"永康區","LI":"東橋里","LIN":"14鄰","STREET":"東橋一路","SECT":" ","MAREA":" ","LANE":" ","ALLEY":" ","HOUSE_NO":"２９６號","E_COORD97":171374.89217100001,"N_COORD97":2546695.09705,"ADDRESS":"東橋一路２９６號","OBJECTID":654039},"geometry":{"x":171374.8921709992,"y":2546695.0970460009}},{"attributes":{"ID":654067,"DIS_CODE":0,"TOWNNAME":"永康區","LI":"東橋里","LIN":"14鄰","STREET":"東橋一路","SECT":" ","MAREA":" ","LANE":" ","ALLEY":" ","HOUSE_NO":"２９８號","E_COORD97":171373.19656000001,"N_COORD97":2546698.0603800002,"ADDRESS":"東橋一路２９８號","OBJECTID":654040},"geometry":{"x":171373.19656000007,"y":2546698.0603770036}},{"attributes":{"ID":654068,"DIS_CODE":0,"TOWNNAME":"永康區","LI":"東橋里","LIN":"14鄰","STREET":"東橋一路","SECT":" ","MAREA":" ","LANE":" ","ALLEY":" ","HOUSE_NO":"３００號","E_COORD97":171370.86509599999,"N_COORD97":2546700.6003800002,"ADDRESS":"東橋一路３００號","OBJECTID":654041},"geometry":{"x":171370.86509600002,"y":2546700.6003760025}},{"attributes":{"ID":654069,"DIS_CODE":0,"TOWNNAME":"永康區","LI":"東橋里","LIN":"14鄰","STREET":"東橋一路","SECT":" ","MAREA":" ","LANE":" ","ALLEY":" ","HOUSE_NO":"３０２號","E_COORD97":171369.169486,"N_COORD97":2546703.1403800002,"ADDRESS":"東橋一路３０２號","OBJECTID":654042},"geometry":{"x":171369.16948599927,"y":2546703.1403750014}},{"attributes":{"ID":654070,"DIS_CODE":0,"TOWNNAME":"永康區","LI":"東橋里","LIN":"14鄰","STREET":"東橋一路","SECT":" ","MAREA":" ","LANE":" ","ALLEY":" ","HOUSE_NO":"３０６號","E_COORD97":171367.473875,"N_COORD97":2546705.4687100002,"ADDRESS":"東橋一路３０６號","OBJECTID":654043},"geometry":{"x":171367.47387500014,"y":2546705.4687070008}},{"attributes":{"ID":654071,"DIS_CODE":0,"TOWNNAME":"永康區","LI":"東橋里","LIN":"14鄰","STREET":"東橋一路","SECT":" ","MAREA":" ","LANE":" ","ALLEY":" ","HOUSE_NO":"３０８號","E_COORD97":171365.566314,"N_COORD97":2546707.7970400001,"ADDRESS":"東橋一路３０８號","OBJECTID":654044},"geometry":{"x":171365.56631400064,"y":2546707.7970390022}},{"attributes":{"ID":654072,"DIS_CODE":0,"TOWNNAME":"永康區","LI":"東橋里","LIN":"14鄰","STREET":"東橋一路","SECT":" ","MAREA":" ","LANE":" ","ALLEY":" ","HOUSE_NO":"３１０號","E_COORD97":171364.50655699999,"N_COORD97":2546710.3370400001,"ADDRESS":"東橋一路３１０號","OBJECTID":654045},"geometry":{"x":171364.5065570008,"y":2546710.3370370027}},{"attributes":{"ID":654073,"DIS_CODE":0,"TOWNNAME":"永康區","LI":"東橋里","LIN":"14鄰","STREET":"東橋一路","SECT":" ","MAREA":" ","LANE":" ","ALLEY":" ","HOUSE_NO":"３１２號","E_COORD97":171362.81094699999,"N_COORD97":2546712.6653700001,"ADDRESS":"東橋一路３１２號","OBJECTID":654046},"geometry":{"x":171362.81094700005,"y":2546712.6653690003}},{"attributes":{"ID":654074,"DIS_CODE":0,"TOWNNAME":"後壁區","LI":"竹新里","LIN":"16鄰","STREET":" ","SECT":" ","MAREA":"新厝","LANE":" ","ALLEY":" ","HOUSE_NO":"４９之３５號","E_COORD97":179693.706894,"N_COORD97":2582419.77991,"ADDRESS":"新厝４９之３５號","OBJECTID":654047},"geometry":{"x":179693.70689400192,"y":2582419.7799089998}},{"attributes":{"ID":654075,"DIS_CODE":0,"TOWNNAME":"安平區","LI":"漁光里","LIN":"7鄰","STREET":"漁光路","SECT":" ","MAREA":" ","LANE":" ","ALLEY":" ","HOUSE_NO":"１３４號之３","E_COORD97":163656.06302999999,"N_COORD97":2542394.7053999999,"ADDRESS":"漁光路１３４號之３","OBJECTID":654048},"geometry":{"x":163656.06302999984,"y":2542394.7054000013}},{"attributes":{"ID":654076,"DIS_CODE":0,"TOWNNAME":"安平區","LI":"漁光里","LIN":"6鄰","STREET":"漁光路","SECT":" ","MAREA":" ","LANE":" ","ALLEY":" ","HOUSE_NO":"１３９號","E_COORD97":163831.31056099999,"N_COORD97":2542062.6005899999,"ADDRESS":"漁光路１３９號","OBJECTID":654049},"geometry":{"x":163831.31056100223,"y":2542062.600585999}},{"attributes":{"ID":654077,"DIS_CODE":0,"TOWNNAME":"安平區","LI":"漁光里","LIN":"6鄰","STREET":"漁光路","SECT":" ","MAREA":" ","LANE":" ","ALLEY":" ","HOUSE_NO":"１４３號","E_COORD97":163785.53853600001,"N_COORD97":2542007.35562,"ADDRESS":"漁光路１４３號","OBJECTID":654050},"geometry":{"x":163785.53853600007,"y":2542007.3556159995}},{"attributes":{"ID":654078,"DIS_CODE":0,"TOWNNAME":"安平區","LI":"漁光里","LIN":"7鄰","STREET":"漁光路","SECT":" ","MAREA":" ","LANE":" ","ALLEY":" ","HOUSE_NO":"１５４號之１","E_COORD97":163258.52452000001,"N_COORD97":2542927.2584500001,"ADDRESS":"漁光路１５４號之１","OBJECTID":654051},"geometry":{"x":163258.52452000231,"y":2542927.2584500015}},{"attributes":{"ID":654079,"DIS_CODE":0,"TOWNNAME":"安平區","LI":"漁光里","LIN":"7鄰","STREET":"漁光路","SECT":" ","MAREA":" ","LANE":" ","ALLEY":" ","HOUSE_NO":"１５８號之３","E_COORD97":163230.65867999999,"N_COORD97":2542999.5954900002,"ADDRESS":"漁光路１５８號之３","OBJECTID":654052},"geometry":{"x":163230.65868000034,"y":2542999.595490003}},{"attributes":{"ID":654080,"DIS_CODE":0,"TOWNNAME":"安平區","LI":"漁光里","LIN":"1鄰","STREET":"漁光路","SECT":" ","MAREA":" ","LANE":" ","ALLEY":" ","HOUSE_NO":"１之１號","E_COORD97":164113.04161499999,"N_COORD97":2541550.73795,"ADDRESS":"漁光路１之１號","OBJECTID":654053},"geometry":{"x":164113.04161499999,"y":2541550.7379460037}},{"attributes":{"ID":654081,"DIS_CODE":0,"TOWNNAME":"安平區","LI":"漁光里","LIN":"1鄰","STREET":"漁光路","SECT":" ","MAREA":" ","LANE":" ","ALLEY":" ","HOUSE_NO":"５５之２號","E_COORD97":163987.59236000001,"N_COORD97":2541714.1445200001,"ADDRESS":"漁光路５５之２號","OBJECTID":654054},"geometry":{"x":163987.59236000106,"y":2541714.144524999}},{"attributes":{"ID":654082,"DIS_CODE":0,"TOWNNAME":"安平區","LI":"漁光里","LIN":"6鄰","STREET":"漁光路","SECT":" ","MAREA":" ","LANE":" ","ALLEY":" ","HOUSE_NO":"９４號","E_COORD97":163519.91245500001,"N_COORD97":2542466.83079,"ADDRESS":"漁光路９４號","OBJECTID":654055},"geometry":{"x":163519.91245499905,"y":2542466.8307850026}},{"attributes":{"ID":654083,"DIS_CODE":0,"TOWNNAME":"安平區","LI":"漁光里","LIN":"6鄰","STREET":"漁光路","SECT":" ","MAREA":" ","LANE":" ","ALLEY":" ","HOUSE_NO":"９６號","E_COORD97":163516.94574900001,"N_COORD97":2542471.2757799998,"ADDRESS":"漁光路９６號","OBJECTID":654056},"geometry":{"x":163516.94574900065,"y":2542471.2757820021}},{"attributes":{"ID":654084,"DIS_CODE":0,"TOWNNAME":"安平區","LI":"漁光里","LIN":"6鄰","STREET":"漁光路","SECT":" ","MAREA":" ","LANE":" ","ALLEY":" ","HOUSE_NO":"９８號","E_COORD97":163514.61476600001,"N_COORD97":2542476.77911,"ADDRESS":"漁光路９８號","OBJECTID":654057},"geometry":{"x":163514.61476599984,"y":2542476.7791130003}},{"attributes":{"ID":654085,"DIS_CODE":0,"TOWNNAME":"下營區","LI":"開化里","LIN":"8鄰","STREET":" ","SECT":" ","MAREA":"中營","LANE":" ","ALLEY":" ","HOUSE_NO":"４７４號","E_COORD97":176134.24717700001,"N_COORD97":2568134.8219499998,"ADDRESS":"中營４７４號","OBJECTID":654058},"geometry":{"x":176134.24717700109,"y":2568134.821952004}},{"attributes":{"ID":654086,"DIS_CODE":0,"TOWNNAME":"下營區","LI":"開化里","LIN":"9鄰","STREET":" ","SECT":" ","MAREA":"中營","LANE":" ","ALLEY":" ","HOUSE_NO":"５１７號","E_COORD97":176347.80953599999,"N_COORD97":2568112.9144600001,"ADDRESS":"中營５１７號","OBJECTID":654059},"geometry":{"x":176347.80953600071,"y":2568112.9144640006}},{"attributes":{"ID":654087,"DIS_CODE":0,"TOWNNAME":"下營區","LI":"開化里","LIN":"15鄰","STREET":" ","SECT":" ","MAREA":"中營","LANE":" ","ALLEY":" ","HOUSE_NO":"６２８號","E_COORD97":176236.23500700001,"N_COORD97":2568362.4031799999,"ADDRESS":"中營６２８號","OBJECTID":654060},"geometry":{"x":176236.23500700016,"y":2568362.403183002}},{"attributes":{"ID":654088,"DIS_CODE":0,"TOWNNAME":"下營區","LI":"開化里","LIN":"15鄰","STREET":" ","SECT":" ","MAREA":"中營","LANE":" ","ALLEY":" ","HOUSE_NO":"６４６號","E_COORD97":176335.25646599999,"N_COORD97":2568367.39065,"ADDRESS":"中營６４６號","OBJECTID":654061},"geometry":{"x":176335.25646600034,"y":2568367.390651999}},{"attributes":{"ID":654089,"DIS_CODE":0,"TOWNNAME":"新營區","LI":"忠政里","LIN":"31鄰","STREET":"府西路","SECT":" ","MAREA":" ","LANE":"４７巷","ALLEY":" ","HOUSE_NO":"２０號","E_COORD97":179736.71891200001,"N_COORD97":2579039.4029399999,"ADDRESS":"府西路４７巷２０號","OBJECTID":654062},"geometry":{"x":179736.7189120017,"y":2579039.4029370025}},{"attributes":{"ID":654090,"DIS_CODE":0,"TOWNNAME":"新營區","LI":"忠政里","LIN":"31鄰","STREET":"府西路","SECT":" ","MAREA":" ","LANE":"４７巷","ALLEY":" ","HOUSE_NO":"２２號","E_COORD97":179732.90503200001,"N_COORD97":2579039.6146,"ADDRESS":"府西路４７巷２２號","OBJECTID":654063},"geometry":{"x":179732.90503199957,"y":2579039.6146040037}},{"attributes":{"ID":654091,"DIS_CODE":0,"TOWNNAME":"麻豆區","LI":"磚井里","LIN":"11鄰","STREET":" ","SECT":" ","MAREA":"磚子井","LANE":" ","ALLEY":" ","HOUSE_NO":"１０８號之５","E_COORD97":173458.31597,"N_COORD97":2563043.1958699999,"ADDRESS":"磚子井１０８號之５","OBJECTID":654064},"geometry":{"x":173458.31596999895,"y":2563043.1958659999}},{"attributes":{"ID":654092,"DIS_CODE":0,"TOWNNAME":"麻豆區","LI":"磚井里","LIN":"9鄰","STREET":" ","SECT":" ","MAREA":"磚子井","LANE":" ","ALLEY":" ","HOUSE_NO":"８４號之３","E_COORD97":173545.81921300001,"N_COORD97":2563135.4824799998,"ADDRESS":"磚子井８４號之３","OBJECTID":654065},"geometry":{"x":173545.81921300106,"y":2563135.4824829977}},{"attributes":{"ID":654093,"DIS_CODE":0,"TOWNNAME":"下營區","LI":"開化里","LIN":"2鄰","STREET":" ","SECT":" ","MAREA":"中營","LANE":" ","ALLEY":" ","HOUSE_NO":"９１號","E_COORD97":175580.743694,"N_COORD97":2568149.63876,"ADDRESS":"中營９１號","OBJECTID":654066},"geometry":{"x":175580.74369399995,"y":2568149.6387620009}},{"attributes":{"ID":654094,"DIS_CODE":0,"TOWNNAME":"下營區","LI":"開化里","LIN":"2鄰","STREET":" ","SECT":" ","MAREA":"中營","LANE":" ","ALLEY":" ","HOUSE_NO":"９９號","E_COORD97":175532.54340299999,"N_COORD97":2568268.4893800002,"ADDRESS":"中營９９號","OBJECTID":654067},"geometry":{"x":175532.5434030015,"y":2568268.4893800002}},{"attributes":{"ID":654095,"DIS_CODE":0,"TOWNNAME":"永康區","LI":"埔園里","LIN":"31鄰","STREET":"永大路","SECT":"三段","MAREA":" ","LANE":"４６９巷","ALLEY":"３０弄","HOUSE_NO":"２８之２號","E_COORD97":173952.95880399999,"N_COORD97":2548836.0924399998,"ADDRESS":"永大路三段４６９巷３０弄２８之２號","OBJECTID":654068},"geometry":{"x":173952.95880400017,"y":2548836.0924360007}},{"attributes":{"ID":654096,"DIS_CODE":0,"TOWNNAME":"永康區","LI":"埔園里","LIN":"31鄰","STREET":"永大路","SECT":"三段","MAREA":" ","LANE":"４６９巷","ALLEY":"３０弄","HOUSE_NO":"２８之１號","E_COORD97":173953.59465700001,"N_COORD97":2548833.3407700001,"ADDRESS":"永大路三段４６９巷３０弄２８之１號","OBJECTID":654069},"geometry":{"x":173953.59465700109,"y":2548833.3407710046}},{"attributes":{"ID":654097,"DIS_CODE":0,"TOWNNAME":"永康區","LI":"埔園里","LIN":"31鄰","STREET":"永大路","SECT":"三段","MAREA":" ","LANE":"４６９巷","ALLEY":"３０弄","HOUSE_NO":"２８號","E_COORD97":173954.44246300001,"N_COORD97":2548830.5891100001,"ADDRESS":"永大路三段４６９巷３０弄２８號","OBJECTID":654070},"geometry":{"x":173954.4424630003,"y":2548830.5891060028}},{"attributes":{"ID":654098,"DIS_CODE":0,"TOWNNAME":"永康區","LI":"埔園里","LIN":"31鄰","STREET":"永大路","SECT":"三段","MAREA":" ","LANE":"４６９巷","ALLEY":"３０弄","HOUSE_NO":"２６號","E_COORD97":173955.29026800001,"N_COORD97":2548828.2607700001,"ADDRESS":"永大路三段４６９巷３０弄２６號","OBJECTID":654071},"geometry":{"x":173955.29026800022,"y":2548828.2607730012}},{"attributes":{"ID":654099,"DIS_CODE":0,"TOWNNAME":"永康區","LI":"埔園里","LIN":"31鄰","STREET":"永大路","SECT":"三段","MAREA":" ","LANE":"４６９巷","ALLEY":"３０弄","HOUSE_NO":"２２號","E_COORD97":173956.35002400001,"N_COORD97":2548825.72077,"ADDRESS":"永大路三段４６９巷３０弄２２號","OBJECTID":654072},"geometry":{"x":173956.35002400167,"y":2548825.7207750008}},{"attributes":{"ID":654100,"DIS_CODE":0,"TOWNNAME":"麻豆區","LI":"磚井里","LIN":"14鄰","STREET":" ","SECT":" ","MAREA":"磚子井","LANE":" ","ALLEY":" ","HOUSE_NO":"１３９號之１１","E_COORD97":172812.953071,"N_COORD97":2563802.8671200001,"ADDRESS":"磚子井１３９號之１１","OBJECTID":654073},"geometry":{"x":172812.95307100099,"y":2563802.8671220019}},{"attributes":{"ID":654101,"DIS_CODE":0,"TOWNNAME":"麻豆區","LI":"磚井里","LIN":"8鄰","STREET":" ","SECT":" ","MAREA":"磚子井","LANE":" ","ALLEY":" ","HOUSE_NO":"７７號之１０","E_COORD97":173575.69320099999,"N_COORD97":2563382.92068,"ADDRESS":"磚子井７７號之１０","OBJECTID":654074},"geometry":{"x":173575.6932010008,"y":2563382.920682}},{"attributes":{"ID":654102,"DIS_CODE":0,"TOWNNAME":"安南區","LI":"砂崙里","LIN":"9鄰","STREET":"青砂街","SECT":"一段","MAREA":" ","LANE":"８４０巷","ALLEY":" ","HOUSE_NO":"３０號","E_COORD97":159853.143545,"N_COORD97":2552997.45933,"ADDRESS":"青砂街一段８４０巷３０號","OBJECTID":654075},"geometry":{"x":159853.14354499988,"y":2552997.4593310021}},{"attributes":{"ID":654103,"DIS_CODE":0,"TOWNNAME":"麻豆區","LI":"磚井里","LIN":"5鄰","STREET":" ","SECT":" ","MAREA":"磚子井","LANE":" ","ALLEY":" ","HOUSE_NO":"４２號之３","E_COORD97":173563.61648299999,"N_COORD97":2563567.4939199998,"ADDRESS":"磚子井４２號之３","OBJECTID":654076},"geometry":{"x":173563.61648300011,"y":2563567.4939159993}},{"attributes":{"ID":654104,"DIS_CODE":0,"TOWNNAME":"大內區","LI":"二溪里","LIN":"6鄰","STREET":" ","SECT":" ","MAREA":"二重溪","LANE":" ","ALLEY":" ","HOUSE_NO":"２０１之１８號","E_COORD97":189592.66745499999,"N_COORD97":2558003.3273200002,"ADDRESS":"二重溪２０１之１８號","OBJECTID":654077},"geometry":{"x":189592.6674550008,"y":2558003.3273220025}},{"attributes":{"ID":654105,"DIS_CODE":0,"TOWNNAME":"麻豆區","LI":"磚井里","LIN":"5鄰","STREET":" ","SECT":" ","MAREA":"磚子井","LANE":" ","ALLEY":" ","HOUSE_NO":"４２號之５","E_COORD97":173553.02286999999,"N_COORD97":2563572.5739099998,"ADDRESS":"磚子井４２號之５","OBJECTID":654078},"geometry":{"x":173553.02287000045,"y":2563572.5739130024}},{"attributes":{"ID":654106,"DIS_CODE":0,"TOWNNAME":"安南區","LI":"安東里","LIN":"26鄰","STREET":"安和路","SECT":"二段","MAREA":" ","LANE":"５４巷","ALLEY":" ","HOUSE_NO":"１０５號","E_COORD97":169895.224495,"N_COORD97":2548557.7817899999,"ADDRESS":"安和路二段５４巷１０５號","OBJECTID":654079},"geometry":{"x":169895.22449500021,"y":2548557.7817899995}},{"attributes":{"ID":654107,"DIS_CODE":0,"TOWNNAME":"麻豆區","LI":"磚井里","LIN":"5鄰","STREET":" ","SECT":" ","MAREA":"磚子井","LANE":" ","ALLEY":" ","HOUSE_NO":"４２號之６","E_COORD97":173549.63291399999,"N_COORD97":2563577.86558,"ADDRESS":"磚子井４２號之６","OBJECTID":654080},"geometry":{"x":173549.63291400112,"y":2563577.865577003}},{"attributes":{"ID":654108,"DIS_CODE":0,"TOWNNAME":"大內區","LI":"二溪里","LIN":"3鄰","STREET":" ","SECT":" ","MAREA":"二重溪","LANE":" ","ALLEY":" ","HOUSE_NO":"１５４之８１號","E_COORD97":188348.915255,"N_COORD97":2558084.2897800002,"ADDRESS":"二重溪１５４之８１號","OBJECTID":654081},"geometry":{"x":188348.91525499988,"y":2558084.2897779997}},{"attributes":{"ID":654109,"DIS_CODE":0,"TOWNNAME":"後壁區","LI":"竹新里","LIN":"12鄰","STREET":" ","SECT":" ","MAREA":"竹圍後","LANE":" ","ALLEY":" ","HOUSE_NO":"１２０之２５號","E_COORD97":178849.69473399999,"N_COORD97":2582796.21453,"ADDRESS":"竹圍後１２０之２５號","OBJECTID":654082},"geometry":{"x":178849.6947340006,"y":2582796.2145290002}},{"attributes":{"ID":654110,"DIS_CODE":0,"TOWNNAME":"永康區","LI":"埔園里","LIN":"31鄰","STREET":"永大路","SECT":"三段","MAREA":" ","LANE":"４６９巷","ALLEY":"３０弄","HOUSE_NO":"２０號","E_COORD97":173957.19782900001,"N_COORD97":2548822.7574399998,"ADDRESS":"永大路三段４６９巷３０弄２０號","OBJECTID":654083},"geometry":{"x":173957.19782899972,"y":2548822.7574430034}},{"attributes":{"ID":654111,"DIS_CODE":0,"TOWNNAME":"永康區","LI":"埔園里","LIN":"31鄰","STREET":"永大路","SECT":"三段","MAREA":" ","LANE":"４６９巷","ALLEY":"３０弄","HOUSE_NO":"１８號","E_COORD97":173958.469537,"N_COORD97":2548816.1957800002,"ADDRESS":"永大路三段４６９巷３０弄１８號","OBJECTID":654084},"geometry":{"x":173958.46953700017,"y":2548816.1957800016}},{"attributes":{"ID":654112,"DIS_CODE":0,"TOWNNAME":"永康區","LI":"埔園里","LIN":"31鄰","STREET":"永大路","SECT":"三段","MAREA":" ","LANE":"４６９巷","ALLEY":"３０弄","HOUSE_NO":"１６號","E_COORD97":173959.74124500001,"N_COORD97":2548810.5866200002,"ADDRESS":"永大路三段４６９巷３０弄１６號","OBJECTID":654085},"geometry":{"x":173959.74124499969,"y":2548810.5866160002}},{"attributes":{"ID":654113,"DIS_CODE":0,"TOWNNAME":"永康區","LI":"埔園里","LIN":"31鄰","STREET":"永大路","SECT":"三段","MAREA":" ","LANE":"４６９巷","ALLEY":"３０弄","HOUSE_NO":"１２號","E_COORD97":173961.43685500001,"N_COORD97":2548803.28412,"ADDRESS":"永大路三段４６９巷３０弄１２號","OBJECTID":654086},"geometry":{"x":173961.43685500231,"y":2548803.2841200028}},{"attributes":{"ID":654114,"DIS_CODE":0,"TOWNNAME":"永康區","LI":"埔園里","LIN":"31鄰","STREET":"永大路","SECT":"三段","MAREA":" ","LANE":"４６９巷","ALLEY":"３０弄","HOUSE_NO":"１０號","E_COORD97":173962.920514,"N_COORD97":2548796.1932899999,"ADDRESS":"永大路三段４６９巷３０弄１０號","OBJECTID":654087},"geometry":{"x":173962.92051399965,"y":2548796.1932910029}},{"attributes":{"ID":654115,"DIS_CODE":0,"TOWNNAME":"永康區","LI":"埔園里","LIN":"31鄰","STREET":"永大路","SECT":"三段","MAREA":" ","LANE":"４６９巷","ALLEY":"３０弄","HOUSE_NO":"８號","E_COORD97":173963.34441699999,"N_COORD97":2548790.1607900001,"ADDRESS":"永大路三段４６９巷３０弄８號","OBJECTID":654088},"geometry":{"x":173963.34441700019,"y":2548790.1607940029}},{"attributes":{"ID":654116,"DIS_CODE":0,"TOWNNAME":"永康區","LI":"埔園里","LIN":"31鄰","STREET":"永大路","SECT":"三段","MAREA":" ","LANE":"４６９巷","ALLEY":"３０弄","HOUSE_NO":"６號","E_COORD97":173964.19222200001,"N_COORD97":2548783.06996,"ADDRESS":"永大路三段４６９巷３０弄６號","OBJECTID":654089},"geometry":{"x":173964.1922220001,"y":2548783.0699650031}},{"attributes":{"ID":654117,"DIS_CODE":0,"TOWNNAME":"永康區","LI":"埔園里","LIN":"31鄰","STREET":"永大路","SECT":"三段","MAREA":" ","LANE":"４６９巷","ALLEY":"３０弄","HOUSE_NO":"２號","E_COORD97":173964.19222200001,"N_COORD97":2548776.4024700001,"ADDRESS":"永大路三段４６９巷３０弄２號","OBJECTID":654090},"geometry":{"x":173964.1922220001,"y":2548776.4024680015}},{"attributes":{"ID":654118,"DIS_CODE":0,"TOWNNAME":"仁德區","LI":"上崙里","LIN":"12鄰","STREET":"德崙路","SECT":" ","MAREA":" ","LANE":" ","ALLEY":" ","HOUSE_NO":"１０３６號","E_COORD97":173978.26675099999,"N_COORD97":2537079.2801100002,"ADDRESS":"德崙路１０３６號","OBJECTID":654091},"geometry":{"x":173978.26675099973,"y":2537079.2801060043}},{"attributes":{"ID":654119,"DIS_CODE":0,"TOWNNAME":"仁德區","LI":"一甲里","LIN":"11鄰","STREET":"忠義路","SECT":" ","MAREA":" ","LANE":"１２６巷","ALLEY":" ","HOUSE_NO":"２６號","E_COORD97":174311.323458,"N_COORD97":2542004.8085400001,"ADDRESS":"忠義路１２６巷２６號","OBJECTID":654092},"geometry":{"x":174311.32345800009,"y":2542004.8085440006}},{"attributes":{"ID":654120,"DIS_CODE":0,"TOWNNAME":"永康區","LI":"埔園里","LIN":"31鄰","STREET":"永大路","SECT":"三段","MAREA":" ","LANE":"４６９巷","ALLEY":" ","HOUSE_NO":"２２號","E_COORD97":173964.40417299999,"N_COORD97":2548768.6766400002,"ADDRESS":"永大路三段４６９巷２２號","OBJECTID":654093},"geometry":{"x":173964.40417300072,"y":2548768.6766390018}},{"attributes":{"ID":654121,"DIS_CODE":0,"TOWNNAME":"仁德區","LI":"上崙里","LIN":"12鄰","STREET":"德崙路","SECT":" ","MAREA":" ","LANE":" ","ALLEY":" ","HOUSE_NO":"８３２號","E_COORD97":174148.61204599999,"N_COORD97":2537192.52171,"ADDRESS":"德崙路８３２號","OBJECTID":654094},"geometry":{"x":174148.61204600055,"y":2537192.5217109993}},{"attributes":{"ID":654122,"DIS_CODE":0,"TOWNNAME":"仁德區","LI":"上崙里","LIN":"12鄰","STREET":"德崙路","SECT":" ","MAREA":" ","LANE":" ","ALLEY":" ","HOUSE_NO":"７５２號","E_COORD97":174331.66967800001,"N_COORD97":2537421.5449199998,"ADDRESS":"德崙路７５２號","OBJECTID":654095},"geometry":{"x":174331.66967800166,"y":2537421.5449209996}},{"attributes":{"ID":654123,"DIS_CODE":0,"TOWNNAME":"仁德區","LI":"上崙里","LIN":"12鄰","STREET":"德崙路","SECT":" ","MAREA":" ","LANE":" ","ALLEY":" ","HOUSE_NO":"７５６號","E_COORD97":174307.939985,"N_COORD97":2537398.8966000001,"ADDRESS":"德崙路７５６號","OBJECTID":654096},"geometry":{"x":174307.9399849996,"y":2537398.8966000006}},{"attributes":{"ID":654124,"DIS_CODE":0,"TOWNNAME":"永康區","LI":"埔園里","LIN":"31鄰","STREET":"八德街","SECT":" ","MAREA":" ","LANE":" ","ALLEY":" ","HOUSE_NO":"３２２號","E_COORD97":173633.972106,"N_COORD97":2548595.9567300002,"ADDRESS":"八德街３２２號","OBJECTID":654097},"geometry":{"x":173633.97210600041,"y":2548595.9567320012}},{"attributes":{"ID":654125,"DIS_CODE":0,"TOWNNAME":"仁德區","LI":"上崙里","LIN":"12鄰","STREET":"德崙路","SECT":" ","MAREA":" ","LANE":" ","ALLEY":" ","HOUSE_NO":"７９７號","E_COORD97":174359.21307100001,"N_COORD97":2537416.2532600001,"ADDRESS":"德崙路７９７號","OBJECTID":654098},"geometry":{"x":174359.21307099983,"y":2537416.253256999}},{"attributes":{"ID":654126,"DIS_CODE":0,"TOWNNAME":"永康區","LI":"新樹里","LIN":"1鄰","STREET":"富強路","SECT":"二段","MAREA":" ","LANE":" ","ALLEY":" ","HOUSE_NO":"２５７號","E_COORD97":175615.08085299999,"N_COORD97":2547407.9782099999,"ADDRESS":"富強路二段２５７號","OBJECTID":654099},"geometry":{"x":175615.08085300028,"y":2547407.9782070015}},{"attributes":{"ID":654127,"DIS_CODE":0,"TOWNNAME":"永康區","LI":"新樹里","LIN":"1鄰","STREET":"富強路","SECT":"二段","MAREA":" ","LANE":" ","ALLEY":" ","HOUSE_NO":"２５５號","E_COORD97":175616.776464,"N_COORD97":2547402.8982099998,"ADDRESS":"富強路二段２５５號","OBJECTID":654100},"geometry":{"x":175616.77646400034,"y":2547402.8982100021}},{"attributes":{"ID":654128,"DIS_CODE":0,"TOWNNAME":"永康區","LI":"蔦松里","LIN":"7鄰","STREET":"蔦松一街","SECT":" ","MAREA":" ","LANE":" ","ALLEY":" ","HOUSE_NO":"４６之３號","E_COORD97":173950.83929100001,"N_COORD97":2549423.78462,"ADDRESS":"蔦松一街４６之３號","OBJECTID":654101},"geometry":{"x":173950.83929099888,"y":2549423.7846190017}},{"attributes":{"ID":654129,"DIS_CODE":0,"TOWNNAME":"大內區","LI":"二溪里","LIN":"12鄰","STREET":" ","SECT":" ","MAREA":"其子瓦","LANE":" ","ALLEY":" ","HOUSE_NO":"２０之１３號","E_COORD97":190415.480186,"N_COORD97":2557591.2125400002,"ADDRESS":"其子瓦２０之１３號","OBJECTID":654102},"geometry":{"x":190415.48018600047,"y":2557591.2125440016}},{"attributes":{"ID":654130,"DIS_CODE":0,"TOWNNAME":"仁德區","LI":"上崙里","LIN":"12鄰","STREET":"德崙路","SECT":" ","MAREA":" ","LANE":" ","ALLEY":" ","HOUSE_NO":"５２６號","E_COORD97":174442.47886900001,"N_COORD97":2537870.4896800001,"ADDRESS":"德崙路５２６號","OBJECTID":654103},"geometry":{"x":174442.47886900138,"y":2537870.4896779992}},{"attributes":{"ID":654131,"DIS_CODE":0,"TOWNNAME":"永康區","LI":"二王里","LIN":"3鄰","STREET":"二王路","SECT":" ","MAREA":" ","LANE":"１３５巷","ALLEY":"５３弄","HOUSE_NO":"１１號","E_COORD97":173096.142761,"N_COORD97":2546616.9509299998,"ADDRESS":"二王路１３５巷５３弄１１號","OBJECTID":654104},"geometry":{"x":173096.14276100043,"y":2546616.9509270042}},{"attributes":{"ID":654132,"DIS_CODE":0,"TOWNNAME":"安南區","LI":"城南里","LIN":"13鄰","STREET":"城西街","SECT":"二段","MAREA":" ","LANE":" ","ALLEY":" ","HOUSE_NO":"３６５號","E_COORD97":159447.479681,"N_COORD97":2551007.37041,"ADDRESS":"城西街二段３６５號","OBJECTID":654105},"geometry":{"x":159447.47968100104,"y":2551007.3704059999}},{"attributes":{"ID":654133,"DIS_CODE":0,"TOWNNAME":"仁德區","LI":"一甲里","LIN":"11鄰","STREET":"義林路","SECT":" ","MAREA":" ","LANE":"２５６巷","ALLEY":"２３３弄","HOUSE_NO":"２９８號","E_COORD97":175349.486707,"N_COORD97":2541980.36106,"ADDRESS":"義林路２５６巷２３３弄２９８號","OBJECTID":654106},"geometry":{"x":175349.48670700099,"y":2541980.3610580005}},{"attributes":{"ID":654134,"DIS_CODE":0,"TOWNNAME":"永康區","LI":"二王里","LIN":"3鄰","STREET":"二王路","SECT":" ","MAREA":" ","LANE":"１３５巷","ALLEY":" ","HOUSE_NO":"１７號","E_COORD97":173061.06775700001,"N_COORD97":2546586.0769799999,"ADDRESS":"二王路１３５巷１７號","OBJECTID":654107},"geometry":{"x":173061.06775700115,"y":2546586.0769840013}},{"attributes":{"ID":654135,"DIS_CODE":0,"TOWNNAME":"永康區","LI":"二王里","LIN":"3鄰","STREET":"二王路","SECT":" ","MAREA":" ","LANE":"１３５巷","ALLEY":" ","HOUSE_NO":"１９號","E_COORD97":173065.30678300001,"N_COORD97":2546586.28865,"ADDRESS":"二王路１３５巷１９號","OBJECTID":654108},"geometry":{"x":173065.30678300094,"y":2546586.2886510007}},{"attributes":{"ID":654136,"DIS_CODE":0,"TOWNNAME":"永康區","LI":"二王里","LIN":"3鄰","STREET":"二王路","SECT":" ","MAREA":" ","LANE":"１３５巷","ALLEY":" ","HOUSE_NO":"２１號","E_COORD97":173068.69800400001,"N_COORD97":2546586.28865,"ADDRESS":"二王路１３５巷２１號","OBJECTID":654109},"geometry":{"x":173068.69800400082,"y":2546586.2886510007}},{"attributes":{"ID":654137,"DIS_CODE":0,"TOWNNAME":"永康區","LI":"二王里","LIN":"3鄰","STREET":"二王路","SECT":" ","MAREA":" ","LANE":"１３５巷","ALLEY":" ","HOUSE_NO":"２３號","E_COORD97":173072.30117600001,"N_COORD97":2546586.7119800001,"ADDRESS":"二王路１３５巷２３號","OBJECTID":654110},"geometry":{"x":173072.30117600225,"y":2546586.7119839992}},{"attributes":{"ID":654138,"DIS_CODE":0,"TOWNNAME":"永康區","LI":"二王里","LIN":"3鄰","STREET":"二王路","SECT":" ","MAREA":" ","LANE":"１３５巷","ALLEY":" ","HOUSE_NO":"２５號","E_COORD97":173075.48044499999,"N_COORD97":2546587.55865,"ADDRESS":"二王路１３５巷２５號","OBJECTID":654111},"geometry":{"x":173075.48044499941,"y":2546587.5586500019}},{"attributes":{"ID":654139,"DIS_CODE":0,"TOWNNAME":"永康區","LI":"二王里","LIN":"3鄰","STREET":"二王路","SECT":" ","MAREA":" ","LANE":"１３５巷","ALLEY":" ","HOUSE_NO":"２７號","E_COORD97":173079.083617,"N_COORD97":2546587.55865,"ADDRESS":"二王路１３５巷２７號","OBJECTID":654112},"geometry":{"x":173079.08361700084,"y":2546587.5586500019}},{"attributes":{"ID":654140,"DIS_CODE":0,"TOWNNAME":"永康區","LI":"二王里","LIN":"3鄰","STREET":"二王路","SECT":" ","MAREA":" ","LANE":"１３５巷","ALLEY":" ","HOUSE_NO":"２９號","E_COORD97":173083.11069199999,"N_COORD97":2546587.9819800002,"ADDRESS":"二王路１３５巷２９號","OBJECTID":654113},"geometry":{"x":173083.11069200002,"y":2546587.9819830004}},{"attributes":{"ID":654141,"DIS_CODE":0,"TOWNNAME":"永康區","LI":"二王里","LIN":"3鄰","STREET":"二王路","SECT":" ","MAREA":" ","LANE":"１３５巷","ALLEY":" ","HOUSE_NO":"３１號","E_COORD97":173087.137766,"N_COORD97":2546588.4053199999,"ADDRESS":"二王路１３５巷３１號","OBJECTID":654114},"geometry":{"x":173087.13776600081,"y":2546588.4053159989}},{"attributes":{"ID":654142,"DIS_CODE":0,"TOWNNAME":"永康區","LI":"二王里","LIN":"3鄰","STREET":"二王路","SECT":" ","MAREA":" ","LANE":"１３５巷","ALLEY":" ","HOUSE_NO":"３３號","E_COORD97":173093.072403,"N_COORD97":2546588.4053199999,"ADDRESS":"二王路１３５巷３３號","OBJECTID":654115},"geometry":{"x":173093.07240300067,"y":2546588.4053159989}},{"attributes":{"ID":654143,"DIS_CODE":0,"TOWNNAME":"大內區","LI":"二溪里","LIN":"1鄰","STREET":" ","SECT":" ","MAREA":"二重溪","LANE":" ","ALLEY":" ","HOUSE_NO":"１２７號之１２","E_COORD97":187548.13458499999,"N_COORD97":2557733.8758,"ADDRESS":"二重溪１２７號之１２","OBJECTID":654116},"geometry":{"x":187548.13458500057,"y":2557733.8758010026}},{"attributes":{"ID":654144,"DIS_CODE":0,"TOWNNAME":"永康區","LI":"二王里","LIN":"3鄰","STREET":"二王路","SECT":" ","MAREA":" ","LANE":"１３５巷","ALLEY":" ","HOUSE_NO":"３５號","E_COORD97":173097.31142899999,"N_COORD97":2546589.0403200001,"ADDRESS":"二王路１３５巷３５號","OBJECTID":654117},"geometry":{"x":173097.31142900046,"y":2546589.0403160024}},{"attributes":{"ID":654145,"DIS_CODE":0,"TOWNNAME":"永康區","LI":"二王里","LIN":"3鄰","STREET":"二王路","SECT":" ","MAREA":" ","LANE":"１３５巷","ALLEY":" ","HOUSE_NO":"３７號","E_COORD97":173100.914601,"N_COORD97":2546589.4636499998,"ADDRESS":"二王路１３５巷３７號","OBJECTID":654118},"geometry":{"x":173100.91460100189,"y":2546589.463649001}},{"attributes":{"ID":654146,"DIS_CODE":0,"TOWNNAME":"仁德區","LI":"上崙里","LIN":"12鄰","STREET":"德崙路","SECT":" ","MAREA":" ","LANE":"１３２９巷","ALLEY":" ","HOUSE_NO":"２７號","E_COORD97":173878.263045,"N_COORD97":2537045.8367900001,"ADDRESS":"德崙路１３２９巷２７號","OBJECTID":654119},"geometry":{"x":173878.26304500084,"y":2537045.8367900029}},{"attributes":{"ID":654147,"DIS_CODE":0,"TOWNNAME":"永康區","LI":"二王里","LIN":"3鄰","STREET":"二王路","SECT":" ","MAREA":" ","LANE":"１３５巷","ALLEY":" ","HOUSE_NO":"３９號","E_COORD97":173103.88191900001,"N_COORD97":2546590.3103100001,"ADDRESS":"二王路１３５巷３９號","OBJECTID":654120},"geometry":{"x":173103.88191900123,"y":2546590.3103150036}},{"attributes":{"ID":654148,"DIS_CODE":0,"TOWNNAME":"仁德區","LI":"上崙里","LIN":"12鄰","STREET":"德崙路","SECT":" ","MAREA":" ","LANE":" ","ALLEY":" ","HOUSE_NO":"１３２５號","E_COORD97":173858.347052,"N_COORD97":2537078.5392700001,"ADDRESS":"德崙路１３２５號","OBJECTID":654121},"geometry":{"x":173858.34705200046,"y":2537078.5392729975}},{"attributes":{"ID":654149,"DIS_CODE":0,"TOWNNAME":"永康區","LI":"二王里","LIN":"3鄰","STREET":"二王路","SECT":" ","MAREA":" ","LANE":"１３５巷","ALLEY":"５３弄","HOUSE_NO":"１號","E_COORD97":173102.39825999999,"N_COORD97":2546598.1419799998,"ADDRESS":"二王路１３５巷５３弄１號","OBJECTID":654122},"geometry":{"x":173102.39826000109,"y":2546598.1419780031}},{"attributes":{"ID":654150,"DIS_CODE":0,"TOWNNAME":"永康區","LI":"二王里","LIN":"3鄰","STREET":"二王路","SECT":" ","MAREA":" ","LANE":"１３５巷","ALLEY":"５３弄","HOUSE_NO":"３號","E_COORD97":173100.914601,"N_COORD97":2546603.2219799999,"ADDRESS":"二王路１３５巷５３弄３號","OBJECTID":654123},"geometry":{"x":173100.91460100189,"y":2546603.2219750024}},{"attributes":{"ID":654151,"DIS_CODE":0,"TOWNNAME":"仁德區","LI":"一甲里","LIN":"11鄰","STREET":"義林路","SECT":" ","MAREA":" ","LANE":"２５６巷","ALLEY":"８７弄","HOUSE_NO":"１５號","E_COORD97":174975.129656,"N_COORD97":2541575.6016899999,"ADDRESS":"義林路２５６巷８７弄１５號","OBJECTID":654124},"geometry":{"x":174975.12965600006,"y":2541575.6016930025}},{"attributes":{"ID":654152,"DIS_CODE":0,"TOWNNAME":"仁德區","LI":"上崙里","LIN":"20鄰","STREET":"德崙路","SECT":" ","MAREA":" ","LANE":"１３２９巷","ALLEY":" ","HOUSE_NO":"９０號","E_COORD97":173905.17082100001,"N_COORD97":2536916.1910299999,"ADDRESS":"德崙路１３２９巷９０號","OBJECTID":654125},"geometry":{"x":173905.17082100082,"y":2536916.1910270005}},{"attributes":{"ID":654153,"DIS_CODE":0,"TOWNNAME":"仁德區","LI":"上崙里","LIN":"20鄰","STREET":"德崙路","SECT":" ","MAREA":" ","LANE":"１３２９巷","ALLEY":" ","HOUSE_NO":"６８號","E_COORD97":173847.11782300001,"N_COORD97":2536981.8076599999,"ADDRESS":"德崙路１３２９巷６８號","OBJECTID":654126},"geometry":{"x":173847.11782300193,"y":2536981.8076579999}},{"attributes":{"ID":654154,"DIS_CODE":0,"TOWNNAME":"大內區","LI":"二溪里","LIN":"1鄰","STREET":" ","SECT":" ","MAREA":"二重溪","LANE":" ","ALLEY":" ","HOUSE_NO":"１３５號","E_COORD97":187506.29485400001,"N_COORD97":2557877.9678099998,"ADDRESS":"二重溪１３５號","OBJECTID":654127},"geometry":{"x":187506.29485400207,"y":2557877.9678060021}},{"attributes":{"ID":654155,"DIS_CODE":0,"TOWNNAME":"仁德區","LI":"上崙里","LIN":"19鄰","STREET":"德崙路","SECT":" ","MAREA":" ","LANE":" ","ALLEY":" ","HOUSE_NO":"１３０７號","E_COORD97":173993.30968100001,"N_COORD97":2537048.69429,"ADDRESS":"德崙路１３０７號","OBJECTID":654128},"geometry":{"x":173993.30968100112,"y":2537048.6942889988}},{"attributes":{"ID":654156,"DIS_CODE":0,"TOWNNAME":"仁德區","LI":"上崙里","LIN":"19鄰","STREET":"德崙路","SECT":" ","MAREA":" ","LANE":" ","ALLEY":" ","HOUSE_NO":"１３０５號","E_COORD97":174006.022016,"N_COORD97":2537052.5042900001,"ADDRESS":"德崙路１３０５號","OBJECTID":654129},"geometry":{"x":174006.022016,"y":2537052.5042870026}},{"attributes":{"ID":654157,"DIS_CODE":0,"TOWNNAME":"大內區","LI":"二溪里","LIN":"2鄰","STREET":" ","SECT":" ","MAREA":"二重溪","LANE":" ","ALLEY":" ","HOUSE_NO":"１３６之２號","E_COORD97":187556.714378,"N_COORD97":2557877.3328100001,"ADDRESS":"二重溪１３６之２號","OBJECTID":654130},"geometry":{"x":187556.71437800024,"y":2557877.3328060023}},{"attributes":{"ID":654158,"DIS_CODE":0,"TOWNNAME":"安南區","LI":"城南里","LIN":"10鄰","STREET":"城西街","SECT":"一段","MAREA":" ","LANE":"２４９巷","ALLEY":"２９弄","HOUSE_NO":"１５號","E_COORD97":160423.82680800001,"N_COORD97":2551123.9986800002,"ADDRESS":"城西街一段２４９巷２９弄１５號","OBJECTID":654131},"geometry":{"x":160423.82680800091,"y":2551123.9986760002}},{"attributes":{"ID":654159,"DIS_CODE":0,"TOWNNAME":"安南區","LI":"城南里","LIN":"9鄰","STREET":"城西街","SECT":"一段","MAREA":" ","LANE":"１８１巷","ALLEY":" ","HOUSE_NO":"６７號","E_COORD97":160452.000852,"N_COORD97":2551135.0053400001,"ADDRESS":"城西街一段１８１巷６７號","OBJECTID":654132},"geometry":{"x":160452.00085200183,"y":2551135.0053369999}},{"attributes":{"ID":654160,"DIS_CODE":0,"TOWNNAME":"安南區","LI":"城南里","LIN":"8鄰","STREET":"城西街","SECT":"一段","MAREA":" ","LANE":"１８１巷","ALLEY":" ","HOUSE_NO":"７８號","E_COORD97":160432.30020500001,"N_COORD97":2551191.7319700001,"ADDRESS":"城西街一段１８１巷７８號","OBJECTID":654133},"geometry":{"x":160432.30020499974,"y":2551191.7319730017}},{"attributes":{"ID":654161,"DIS_CODE":0,"TOWNNAME":"仁德區","LI":"上崙里","LIN":"12鄰","STREET":"德崙路","SECT":" ","MAREA":" ","LANE":"９２５巷","ALLEY":"８０弄","HOUSE_NO":"２１０號","E_COORD97":174259.75373,"N_COORD97":2536971.8430900001,"ADDRESS":"德崙路９２５巷８０弄２１０號","OBJECTID":654134},"geometry":{"x":174259.75373,"y":2536971.8430880029}},{"attributes":{"ID":654162,"DIS_CODE":0,"TOWNNAME":"大內區","LI":"二溪里","LIN":"3鄰","STREET":" ","SECT":" ","MAREA":"二重溪","LANE":" ","ALLEY":" ","HOUSE_NO":"１５４號之２７","E_COORD97":188914.44012300001,"N_COORD97":2558071.4310300001,"ADDRESS":"二重溪１５４號之２７","OBJECTID":654135},"geometry":{"x":188914.44012300111,"y":2558071.4310350027}},{"attributes":{"ID":654163,"DIS_CODE":0,"TOWNNAME":"仁德區","LI":"一甲里","LIN":"17鄰","STREET":"正義三街","SECT":" ","MAREA":" ","LANE":" ","ALLEY":" ","HOUSE_NO":"２５５號","E_COORD97":174105.723516,"N_COORD97":2541514.90631,"ADDRESS":"正義三街２５５號","OBJECTID":654136},"geometry":{"x":174105.72351600043,"y":2541514.9063090049}},{"attributes":{"ID":654164,"DIS_CODE":0,"TOWNNAME":"仁德區","LI":"上崙里","LIN":"12鄰","STREET":"德崙路","SECT":" ","MAREA":" ","LANE":"５６５巷","ALLEY":"３１弄","HOUSE_NO":"１號","E_COORD97":174497.89814899999,"N_COORD97":2537756.4909999999,"ADDRESS":"德崙路５６５巷３１弄１號","OBJECTID":654137},"geometry":{"x":174497.89814899955,"y":2537756.4909980036}},{"attributes":{"ID":654165,"DIS_CODE":0,"TOWNNAME":"仁德區","LI":"上崙里","LIN":"12鄰","STREET":"德崙路","SECT":" ","MAREA":" ","LANE":"５６５巷","ALLEY":"３１弄","HOUSE_NO":"３號","E_COORD97":174502.34746600001,"N_COORD97":2537759.24266,"ADDRESS":"德崙路５６５巷３１弄３號","OBJECTID":654138},"geometry":{"x":174502.34746600129,"y":2537759.2426629998}},{"attributes":{"ID":654166,"DIS_CODE":0,"TOWNNAME":"後壁區","LI":"竹新里","LIN":"12鄰","STREET":" ","SECT":" ","MAREA":"竹圍後","LANE":" ","ALLEY":" ","HOUSE_NO":"１２０之３２號","E_COORD97":179073.67923099999,"N_COORD97":2582870.48618,"ADDRESS":"竹圍後１２０之３２號","OBJECTID":654139},"geometry":{"x":179073.679231002,"y":2582870.4861789998}},{"attributes":{"ID":654167,"DIS_CODE":0,"TOWNNAME":"仁德區","LI":"上崙里","LIN":"12鄰","STREET":"德崙路","SECT":" ","MAREA":" ","LANE":"５６５巷","ALLEY":"３１弄","HOUSE_NO":"１７號","E_COORD97":174542.20226399999,"N_COORD97":2537788.27189,"ADDRESS":"德崙路５６５巷３１弄１７號","OBJECTID":654140},"geometry":{"x":174542.20226399973,"y":2537788.2718930021}},{"attributes":{"ID":654168,"DIS_CODE":0,"TOWNNAME":"後壁區","LI":"竹新里","LIN":"7鄰","STREET":" ","SECT":" ","MAREA":"竹圍後","LANE":" ","ALLEY":" ","HOUSE_NO":"８８之４０號","E_COORD97":178309.95165100001,"N_COORD97":2582088.3782700002,"ADDRESS":"竹圍後８８之４０號","OBJECTID":654141},"geometry":{"x":178309.95165100135,"y":2582088.3782679997}},{"attributes":{"ID":654169,"DIS_CODE":0,"TOWNNAME":"仁德區","LI":"上崙里","LIN":"12鄰","STREET":"德崙路","SECT":" ","MAREA":" ","LANE":"５６５巷","ALLEY":"３１弄","HOUSE_NO":"１９號","E_COORD97":174547.07532599999,"N_COORD97":2537789.54189,"ADDRESS":"德崙路５６５巷３１弄１９號","OBJECTID":654142},"geometry":{"x":174547.07532600034,"y":2537789.5418920014}},{"attributes":{"ID":654170,"DIS_CODE":0,"TOWNNAME":"仁德區","LI":"上崙里","LIN":"12鄰","STREET":"德崙路","SECT":" ","MAREA":" ","LANE":"５６５巷","ALLEY":"３１弄","HOUSE_NO":"２１號","E_COORD97":174551.736515,"N_COORD97":2537791.8702199999,"ADDRESS":"德崙路５６５巷３１弄２１號","OBJECTID":654143},"geometry":{"x":174551.73651500139,"y":2537791.8702240009}},{"attributes":{"ID":654171,"DIS_CODE":0,"TOWNNAME":"仁德區","LI":"一甲里","LIN":"17鄰","STREET":"正義三街","SECT":" ","MAREA":" ","LANE":" ","ALLEY":" ","HOUSE_NO":"２１１號","E_COORD97":174045.16575799999,"N_COORD97":2541575.7604399999,"ADDRESS":"正義三街２１１號","OBJECTID":654144},"geometry":{"x":174045.16575800162,"y":2541575.760443002}},{"attributes":{"ID":654172,"DIS_CODE":0,"TOWNNAME":"後壁區","LI":"菁豊里","LIN":"10鄰","STREET":" ","SECT":" ","MAREA":"前菁寮","LANE":" ","ALLEY":" ","HOUSE_NO":"１１５之１２號","E_COORD97":182891.99935,"N_COORD97":2585845.5654099998,"ADDRESS":"前菁寮１１５之１２號","OBJECTID":654145},"geometry":{"x":182891.9993500011,"y":2585845.5654060021}},{"attributes":{"ID":654173,"DIS_CODE":0,"TOWNNAME":"大內區","LI":"二溪里","LIN":"5鄰","STREET":" ","SECT":" ","MAREA":"二重溪","LANE":" ","ALLEY":" ","HOUSE_NO":"１８４號","E_COORD97":187786.56808900001,"N_COORD97":2558160.5426500002,"ADDRESS":"二重溪１８４號","OBJECTID":654146},"geometry":{"x":187786.56808900181,"y":2558160.542653}},{"attributes":{"ID":654174,"DIS_CODE":0,"TOWNNAME":"仁德區","LI":"一甲里","LIN":"11鄰","STREET":"忠義路","SECT":" ","MAREA":" ","LANE":" ","ALLEY":" ","HOUSE_NO":"１４２號","E_COORD97":174129.54431299999,"N_COORD97":2541854.04904,"ADDRESS":"忠義路１４２號","OBJECTID":654147},"geometry":{"x":174129.54431299958,"y":2541854.0490419995}},{"attributes":{"ID":654175,"DIS_CODE":0,"TOWNNAME":"仁德區","LI":"一甲里","LIN":"19鄰","STREET":"太新路","SECT":" ","MAREA":" ","LANE":" ","ALLEY":" ","HOUSE_NO":"１７５號","E_COORD97":173528.41327799999,"N_COORD97":2542402.3712499999,"ADDRESS":"太新路１７５號","OBJECTID":654148},"geometry":{"x":173528.41327800043,"y":2542402.371245997}},{"attributes":{"ID":654176,"DIS_CODE":0,"TOWNNAME":"仁德區","LI":"一甲里","LIN":"20鄰","STREET":"太乙七街","SECT":" ","MAREA":" ","LANE":" ","ALLEY":" ","HOUSE_NO":"３３號","E_COORD97":173130.98340299999,"N_COORD97":2542280.9627200002,"ADDRESS":"太乙七街３３號","OBJECTID":654149},"geometry":{"x":173130.98340300005,"y":2542280.9627200011}},{"attributes":{"ID":654177,"DIS_CODE":0,"TOWNNAME":"仁德區","LI":"上崙里","LIN":"12鄰","STREET":"德崙路","SECT":" ","MAREA":" ","LANE":"５６５巷","ALLEY":" ","HOUSE_NO":"９７號","E_COORD97":174588.60228799999,"N_COORD97":2537554.5920199999,"ADDRESS":"德崙路５６５巷９７號","OBJECTID":654150},"geometry":{"x":174588.60228800215,"y":2537554.592019001}},{"attributes":{"ID":654178,"DIS_CODE":0,"TOWNNAME":"仁德區","LI":"上崙里","LIN":"12鄰","STREET":"德崙路","SECT":" ","MAREA":" ","LANE":"５６５巷","ALLEY":" ","HOUSE_NO":"６７號","E_COORD97":174555.70912000001,"N_COORD97":2537671.7759099999,"ADDRESS":"德崙路５６５巷６７號","OBJECTID":654151},"geometry":{"x":174555.70912000164,"y":2537671.7759140022}},{"attributes":{"ID":654179,"DIS_CODE":0,"TOWNNAME":"大內區","LI":"二溪里","LIN":"5鄰","STREET":" ","SECT":" ","MAREA":"二重溪","LANE":" ","ALLEY":" ","HOUSE_NO":"１８６號之２１","E_COORD97":187706.40253299999,"N_COORD97":2558314.0699200002,"ADDRESS":"二重溪１８６號之２１","OBJECTID":654152},"geometry":{"x":187706.40253300034,"y":2558314.0699240025}},{"attributes":{"ID":654180,"DIS_CODE":0,"TOWNNAME":"安南區","LI":"城南里","LIN":"2鄰","STREET":"安清路","SECT":"一段","MAREA":" ","LANE":" ","ALLEY":" ","HOUSE_NO":"３５１之１號","E_COORD97":160680.51776700001,"N_COORD97":2550536.1477399999,"ADDRESS":"安清路一段３５１之１號","OBJECTID":654153},"geometry":{"x":160680.51776700001,"y":2550536.147744}},{"attributes":{"ID":654181,"DIS_CODE":0,"TOWNNAME":"後壁區","LI":"菁豊里","LIN":"9鄰","STREET":" ","SECT":" ","MAREA":"前菁寮","LANE":" ","ALLEY":" ","HOUSE_NO":"１０６之２５號","E_COORD97":183425.768155,"N_COORD97":2585927.7459,"ADDRESS":"前菁寮１０６之２５號","OBJECTID":654154},"geometry":{"x":183425.76815500017,"y":2585927.7458950002}},{"attributes":{"ID":654182,"DIS_CODE":0,"TOWNNAME":"官田區","LI":"拔林里","LIN":"5鄰","STREET":" ","SECT":" ","MAREA":"拔子林","LANE":" ","ALLEY":" ","HOUSE_NO":"３７號","E_COORD97":180638.075125,"N_COORD97":2563676.59797,"ADDRESS":"拔子林３７號","OBJECTID":654155},"geometry":{"x":180638.07512500044,"y":2563676.5979670007}},{"attributes":{"ID":654183,"DIS_CODE":0,"TOWNNAME":"後壁區","LI":"崁頂里","LIN":"7鄰","STREET":" ","SECT":" ","MAREA":"崁頂","LANE":" ","ALLEY":" ","HOUSE_NO":"７４號之２","E_COORD97":182990.863205,"N_COORD97":2586571.3060300001,"ADDRESS":"崁頂７４號之２","OBJECTID":654156},"geometry":{"x":182990.86320500076,"y":2586571.3060320001}},{"attributes":{"ID":654184,"DIS_CODE":0,"TOWNNAME":"仁德區","LI":"上崙里","LIN":"12鄰","STREET":"德崙路","SECT":" ","MAREA":" ","LANE":" ","ALLEY":" ","HOUSE_NO":"３９１號","E_COORD97":174138.751857,"N_COORD97":2538098.5148100001,"ADDRESS":"德崙路３９１號","OBJECTID":654157},"geometry":{"x":174138.75185700133,"y":2538098.5148070008}},{"attributes":{"ID":654185,"DIS_CODE":0,"TOWNNAME":"仁德區","LI":"上崙里","LIN":"12鄰","STREET":"德崙路","SECT":" ","MAREA":" ","LANE":" ","ALLEY":" ","HOUSE_NO":"３８９號","E_COORD97":174135.15002900001,"N_COORD97":2538099.57314,"ADDRESS":"德崙路３８９號","OBJECTID":654158},"geometry":{"x":174135.15002900083,"y":2538099.5731399991}},{"attributes":{"ID":654186,"DIS_CODE":0,"TOWNNAME":"安平區","LI":"漁光里","LIN":"3鄰","STREET":"漁光路","SECT":" ","MAREA":" ","LANE":"８９巷","ALLEY":" ","HOUSE_NO":"１９號","E_COORD97":163916.55916500001,"N_COORD97":2541823.8084200001,"ADDRESS":"漁光路８９巷１９號","OBJECTID":654159},"geometry":{"x":163916.55916499998,"y":2541823.8084230013}},{"attributes":{"ID":654187,"DIS_CODE":0,"TOWNNAME":"仁德區","LI":"上崙里","LIN":"12鄰","STREET":"德崙路","SECT":" ","MAREA":" ","LANE":" ","ALLEY":" ","HOUSE_NO":"３８７號","E_COORD97":174131.76007300001,"N_COORD97":2538101.9014699999,"ADDRESS":"德崙路３８７號","OBJECTID":654160},"geometry":{"x":174131.76007300057,"y":2538101.9014720023}},{"attributes":{"ID":654188,"DIS_CODE":0,"TOWNNAME":"仁德區","LI":"仁義里","LIN":"5鄰","STREET":"中山路","SECT":" ","MAREA":" ","LANE":" ","ALLEY":" ","HOUSE_NO":"３６１號","E_COORD97":173915.466307,"N_COORD97":2541239.4485499999,"ADDRESS":"中山路３６１號","OBJECTID":654161},"geometry":{"x":173915.46630700026,"y":2541239.4485509992}},{"attributes":{"ID":654189,"DIS_CODE":0,"TOWNNAME":"安南區","LI":"安慶里","LIN":"32鄰","STREET":"頂安街","SECT":" ","MAREA":" ","LANE":"４５９巷","ALLEY":" ","HOUSE_NO":"２號","E_COORD97":168841.75124099999,"N_COORD97":2549326.3619499998,"ADDRESS":"頂安街４５９巷２號","OBJECTID":654162},"geometry":{"x":168841.7512410013,"y":2549326.3619519994}},{"attributes":{"ID":654190,"DIS_CODE":0,"TOWNNAME":"安南區","LI":"安慶里","LIN":"32鄰","STREET":"頂安街","SECT":" ","MAREA":" ","LANE":"４５９巷","ALLEY":" ","HOUSE_NO":"６號","E_COORD97":168842.810627,"N_COORD97":2549314.2969599999,"ADDRESS":"頂安街４５９巷６號","OBJECTID":654163},"geometry":{"x":168842.81062700041,"y":2549314.2969580013}},{"attributes":{"ID":654191,"DIS_CODE":0,"TOWNNAME":"安南區","LI":"安慶里","LIN":"32鄰","STREET":"頂安街","SECT":" ","MAREA":" ","LANE":"４５９巷","ALLEY":" ","HOUSE_NO":"８號","E_COORD97":168843.87001300001,"N_COORD97":2549303.50196,"ADDRESS":"頂安街４５９巷８號","OBJECTID":654164},"geometry":{"x":168843.87001300044,"y":2549303.5019639991}},{"attributes":{"ID":654192,"DIS_CODE":0,"TOWNNAME":"安南區","LI":"安慶里","LIN":"32鄰","STREET":"頂安街","SECT":" ","MAREA":" ","LANE":"４５９巷","ALLEY":" ","HOUSE_NO":"１０號","E_COORD97":168844.71752199999,"N_COORD97":2549291.6486399998,"ADDRESS":"頂安街４５９巷１０號","OBJECTID":654165},"geometry":{"x":168844.71752200089,"y":2549291.6486370023}},{"attributes":{"ID":654193,"DIS_CODE":0,"TOWNNAME":"安南區","LI":"安慶里","LIN":"32鄰","STREET":"頂安街","SECT":" ","MAREA":" ","LANE":"４５９巷","ALLEY":" ","HOUSE_NO":"１２號","E_COORD97":168845.776908,"N_COORD97":2549280.2186400001,"ADDRESS":"頂安街４５９巷１２號","OBJECTID":654166},"geometry":{"x":168845.77690800093,"y":2549280.2186430003}},{"attributes":{"ID":654194,"DIS_CODE":0,"TOWNNAME":"安南區","LI":"安慶里","LIN":"32鄰","STREET":"頂安街","SECT":" ","MAREA":" ","LANE":"４５９巷","ALLEY":" ","HOUSE_NO":"１６號","E_COORD97":168846.836293,"N_COORD97":2549268.1536500002,"ADDRESS":"頂安街４５９巷１６號","OBJECTID":654167},"geometry":{"x":168846.83629300073,"y":2549268.1536500026}},{"attributes":{"ID":654195,"DIS_CODE":0,"TOWNNAME":"善化區","LI":"小新里","LIN":"6鄰","STREET":" ","SECT":" ","MAREA":"小新營","LANE":" ","ALLEY":" ","HOUSE_NO":"６７號之１","E_COORD97":179678.51342,"N_COORD97":2558242.3892600001,"ADDRESS":"小新營６７號之１","OBJECTID":654168},"geometry":{"x":179678.51342000067,"y":2558242.3892600015}},{"attributes":{"ID":654196,"DIS_CODE":0,"TOWNNAME":"善化區","LI":"小新里","LIN":"7鄰","STREET":"成功路","SECT":" ","MAREA":" ","LANE":"１８６巷","ALLEY":" ","HOUSE_NO":"１２號之１","E_COORD97":179533.20981,"N_COORD97":2558869.7689200002,"ADDRESS":"成功路１８６巷１２號之１","OBJECTID":654169},"geometry":{"x":179533.20980999991,"y":2558869.7689200044}},{"attributes":{"ID":654197,"DIS_CODE":0,"TOWNNAME":"善化區","LI":"小新里","LIN":"7鄰","STREET":"成功路","SECT":" ","MAREA":" ","LANE":" ","ALLEY":" ","HOUSE_NO":"２２６號","E_COORD97":179359.09966199999,"N_COORD97":2558808.1739599998,"ADDRESS":"成功路２２６號","OBJECTID":654170},"geometry":{"x":179359.09966200218,"y":2558808.1739570033}},{"attributes":{"ID":654198,"DIS_CODE":0,"TOWNNAME":"善化區","LI":"小新里","LIN":"8鄰","STREET":" ","SECT":" ","MAREA":"小新營","LANE":" ","ALLEY":" ","HOUSE_NO":"７１號之６","E_COORD97":179639.53985999999,"N_COORD97":2558260.3809199999,"ADDRESS":"小新營７１號之６","OBJECTID":654171},"geometry":{"x":179639.53986000177,"y":2558260.3809200022}},{"attributes":{"ID":654199,"DIS_CODE":0,"TOWNNAME":"善化區","LI":"小新里","LIN":"9鄰","STREET":" ","SECT":" ","MAREA":"小新營","LANE":" ","ALLEY":" ","HOUSE_NO":"７０號","E_COORD97":179650.977759,"N_COORD97":2558277.5259099999,"ADDRESS":"小新營７０號","OBJECTID":654172},"geometry":{"x":179650.97775899991,"y":2558277.5259100012}},{"attributes":{"ID":654200,"DIS_CODE":0,"TOWNNAME":"善化區","LI":"小新里","LIN":"10鄰","STREET":" ","SECT":" ","MAREA":"小新營","LANE":" ","ALLEY":" ","HOUSE_NO":"７４號之１","E_COORD97":179567.31168000001,"N_COORD97":2558287.89757,"ADDRESS":"小新營７４號之１","OBJECTID":654173},"geometry":{"x":179567.31168000121,"y":2558287.897570001}},{"attributes":{"ID":654201,"DIS_CODE":0,"TOWNNAME":"善化區","LI":"小新里","LIN":"15鄰","STREET":" ","SECT":" ","MAREA":"小新營","LANE":" ","ALLEY":" ","HOUSE_NO":"１１０號","E_COORD97":179782.08990799999,"N_COORD97":2558102.0543399998,"ADDRESS":"小新營１１０號","OBJECTID":654174},"geometry":{"x":179782.08990800101,"y":2558102.054339001}},{"attributes":{"ID":654202,"DIS_CODE":0,"TOWNNAME":"善化區","LI":"小新里","LIN":"15鄰","STREET":" ","SECT":" ","MAREA":"小新營","LANE":" ","ALLEY":" ","HOUSE_NO":"１１３號之１０","E_COORD97":179828.68872999999,"N_COORD97":2558049.1376999998,"ADDRESS":"小新營１１３號之１０","OBJECTID":654175},"geometry":{"x":179828.68872999959,"y":2558049.1377000008}},{"attributes":{"ID":654203,"DIS_CODE":0,"TOWNNAME":"善化區","LI":"小新里","LIN":"15鄰","STREET":" ","SECT":" ","MAREA":"小新營","LANE":" ","ALLEY":" ","HOUSE_NO":"１１３號之３０","E_COORD97":179827.41785,"N_COORD97":2558033.2626999998,"ADDRESS":"小新營１１３號之３０","OBJECTID":654176},"geometry":{"x":179827.41785000078,"y":2558033.2627000008}},{"attributes":{"ID":654204,"DIS_CODE":0,"TOWNNAME":"善化區","LI":"小新里","LIN":"15鄰","STREET":" ","SECT":" ","MAREA":"小新營","LANE":" ","ALLEY":" ","HOUSE_NO":"１１３號之９","E_COORD97":179828.46186000001,"N_COORD97":2558044.7583499998,"ADDRESS":"小新營１１３號之９","OBJECTID":654177},"geometry":{"x":179828.46186000109,"y":2558044.7583499998}},{"attributes":{"ID":654205,"DIS_CODE":0,"TOWNNAME":"仁德區","LI":"新田里","LIN":"16鄰","STREET":"民安路","SECT":"二段","MAREA":" ","LANE":" ","ALLEY":" ","HOUSE_NO":"５１號一樓之１","E_COORD97":173427.652913,"N_COORD97":2539305.56996,"ADDRESS":"民安路二段５１號一樓之１","OBJECTID":654178},"geometry":{"x":173427.65291300043,"y":2539305.5699600037}},{"attributes":{"ID":654206,"DIS_CODE":0,"TOWNNAME":"仁德區","LI":"新田里","LIN":"16鄰","STREET":"民安路","SECT":"二段","MAREA":" ","LANE":" ","ALLEY":" ","HOUSE_NO":"５１號一樓之２","E_COORD97":173427.652913,"N_COORD97":2539305.56996,"ADDRESS":"民安路二段５１號一樓之２","OBJECTID":654179},"geometry":{"x":173427.65291300043,"y":2539305.5699600037}},{"attributes":{"ID":654207,"DIS_CODE":0,"TOWNNAME":"仁德區","LI":"新田里","LIN":"16鄰","STREET":"民安路","SECT":"二段","MAREA":" ","LANE":" ","ALLEY":" ","HOUSE_NO":"５１號一樓之３","E_COORD97":173427.652913,"N_COORD97":2539305.56996,"ADDRESS":"民安路二段５１號一樓之３","OBJECTID":654180},"geometry":{"x":173427.65291300043,"y":2539305.5699600037}},{"attributes":{"ID":654208,"DIS_CODE":0,"TOWNNAME":"仁德區","LI":"新田里","LIN":"16鄰","STREET":"民安路","SECT":"二段","MAREA":" ","LANE":" ","ALLEY":" ","HOUSE_NO":"５１號二樓之１","E_COORD97":173427.652913,"N_COORD97":2539305.56996,"ADDRESS":"民安路二段５１號二樓之１","OBJECTID":654181},"geometry":{"x":173427.65291300043,"y":2539305.5699600037}},{"attributes":{"ID":654209,"DIS_CODE":0,"TOWNNAME":"仁德區","LI":"新田里","LIN":"16鄰","STREET":"民安路","SECT":"二段","MAREA":" ","LANE":" ","ALLEY":" ","HOUSE_NO":"５１號二樓之２","E_COORD97":173427.652913,"N_COORD97":2539305.56996,"ADDRESS":"民安路二段５１號二樓之２","OBJECTID":654182},"geometry":{"x":173427.65291300043,"y":2539305.5699600037}},{"attributes":{"ID":654210,"DIS_CODE":0,"TOWNNAME":"仁德區","LI":"新田里","LIN":"16鄰","STREET":"民安路","SECT":"二段","MAREA":" ","LANE":" ","ALLEY":" ","HOUSE_NO":"５１號二樓之３","E_COORD97":173427.652913,"N_COORD97":2539305.56996,"ADDRESS":"民安路二段５１號二樓之３","OBJECTID":654183},"geometry":{"x":173427.65291300043,"y":2539305.5699600037}},{"attributes":{"ID":654211,"DIS_CODE":0,"TOWNNAME":"仁德區","LI":"新田里","LIN":"16鄰","STREET":"民安路","SECT":"二段","MAREA":" ","LANE":" ","ALLEY":" ","HOUSE_NO":"５１號三樓之２","E_COORD97":173427.652913,"N_COORD97":2539305.56996,"ADDRESS":"民安路二段５１號三樓之２","OBJECTID":654184},"geometry":{"x":173427.65291300043,"y":2539305.5699600037}},{"attributes":{"ID":654212,"DIS_CODE":0,"TOWNNAME":"仁德區","LI":"新田里","LIN":"16鄰","STREET":"民安路","SECT":"二段","MAREA":" ","LANE":" ","ALLEY":" ","HOUSE_NO":"５１號三樓之３","E_COORD97":173427.652913,"N_COORD97":2539305.56996,"ADDRESS":"民安路二段５１號三樓之３","OBJECTID":654185},"geometry":{"x":173427.65291300043,"y":2539305.5699600037}},{"attributes":{"ID":654213,"DIS_CODE":0,"TOWNNAME":"仁德區","LI":"新田里","LIN":"16鄰","STREET":"民安路","SECT":"二段","MAREA":" ","LANE":" ","ALLEY":" ","HOUSE_NO":"５１號四樓之１","E_COORD97":173427.652913,"N_COORD97":2539305.56996,"ADDRESS":"民安路二段５１號四樓之１","OBJECTID":654186},"geometry":{"x":173427.65291300043,"y":2539305.5699600037}},{"attributes":{"ID":654214,"DIS_CODE":0,"TOWNNAME":"仁德區","LI":"新田里","LIN":"16鄰","STREET":"民安路","SECT":"二段","MAREA":" ","LANE":" ","ALLEY":" ","HOUSE_NO":"５１號五樓之２","E_COORD97":173427.652913,"N_COORD97":2539305.56996,"ADDRESS":"民安路二段５１號五樓之２","OBJECTID":654187},"geometry":{"x":173427.65291300043,"y":2539305.5699600037}},{"attributes":{"ID":654215,"DIS_CODE":0,"TOWNNAME":"仁德區","LI":"新田里","LIN":"16鄰","STREET":"民安路","SECT":"二段","MAREA":" ","LANE":" ","ALLEY":" ","HOUSE_NO":"５１號五樓之３","E_COORD97":173427.652913,"N_COORD97":2539305.56996,"ADDRESS":"民安路二段５１號五樓之３","OBJECTID":654188},"geometry":{"x":173427.65291300043,"y":2539305.5699600037}},{"attributes":{"ID":654216,"DIS_CODE":0,"TOWNNAME":"仁德區","LI":"新田里","LIN":"16鄰","STREET":"民安路","SECT":"二段","MAREA":" ","LANE":" ","ALLEY":" ","HOUSE_NO":"５１號六樓之１","E_COORD97":173427.652913,"N_COORD97":2539305.56996,"ADDRESS":"民安路二段５１號六樓之１","OBJECTID":654189},"geometry":{"x":173427.65291300043,"y":2539305.5699600037}},{"attributes":{"ID":654217,"DIS_CODE":0,"TOWNNAME":"仁德區","LI":"新田里","LIN":"16鄰","STREET":"民安路","SECT":"二段","MAREA":" ","LANE":" ","ALLEY":" ","HOUSE_NO":"５１號六樓之２","E_COORD97":173427.652913,"N_COORD97":2539305.56996,"ADDRESS":"民安路二段５１號六樓之２","OBJECTID":654190},"geometry":{"x":173427.65291300043,"y":2539305.5699600037}},{"attributes":{"ID":654218,"DIS_CODE":0,"TOWNNAME":"仁德區","LI":"新田里","LIN":"16鄰","STREET":"民安路","SECT":"二段","MAREA":" ","LANE":" ","ALLEY":" ","HOUSE_NO":"５１號六樓之３","E_COORD97":173427.652913,"N_COORD97":2539305.56996,"ADDRESS":"民安路二段５１號六樓之３","OBJECTID":654191},"geometry":{"x":173427.65291300043,"y":2539305.5699600037}},{"attributes":{"ID":654219,"DIS_CODE":0,"TOWNNAME":"仁德區","LI":"新田里","LIN":"18鄰","STREET":"崑崙路","SECT":" ","MAREA":" ","LANE":" ","ALLEY":" ","HOUSE_NO":"１１７０號","E_COORD97":174969.86724699999,"N_COORD97":2538422.8675199999,"ADDRESS":"崑崙路１１７０號","OBJECTID":654192},"geometry":{"x":174969.86724700034,"y":2538422.8675200026}},{"attributes":{"ID":654220,"DIS_CODE":0,"TOWNNAME":"仁德區","LI":"新田里","LIN":"18鄰","STREET":"崑崙路","SECT":" ","MAREA":" ","LANE":" ","ALLEY":" ","HOUSE_NO":"１１７８號","E_COORD97":174983.42052099999,"N_COORD97":2538485.2033199999,"ADDRESS":"崑崙路１１７８號","OBJECTID":654193},"geometry":{"x":174983.42052100133,"y":2538485.2033190019}},{"attributes":{"ID":654221,"DIS_CODE":0,"TOWNNAME":"仁德區","LI":"新田里","LIN":"18鄰","STREET":"崑崙路","SECT":" ","MAREA":" ","LANE":" ","ALLEY":" ","HOUSE_NO":"１３８９號","E_COORD97":175068.552023,"N_COORD97":2538755.0781700001,"ADDRESS":"崑崙路１３８９號","OBJECTID":654194},"geometry":{"x":175068.55202300102,"y":2538755.0781740006}},{"attributes":{"ID":654222,"DIS_CODE":0,"TOWNNAME":"仁德區","LI":"新田里","LIN":"18鄰","STREET":"義林南路","SECT":" ","MAREA":" ","LANE":" ","ALLEY":" ","HOUSE_NO":"４２１號","E_COORD97":174368.65248600001,"N_COORD97":2538745.7648499999,"ADDRESS":"義林南路４２１號","OBJECTID":654195},"geometry":{"x":174368.65248600114,"y":2538745.7648450006}},{"attributes":{"ID":654223,"DIS_CODE":0,"TOWNNAME":"仁德區","LI":"仁義里","LIN":"7鄰","STREET":"中山路","SECT":" ","MAREA":" ","LANE":"４４１巷","ALLEY":" ","HOUSE_NO":"３號","E_COORD97":173759.15405400001,"N_COORD97":2541225.95481,"ADDRESS":"中山路４４１巷３號","OBJECTID":654196},"geometry":{"x":173759.15405400097,"y":2541225.9548080023}},{"attributes":{"ID":654224,"DIS_CODE":0,"TOWNNAME":"仁德區","LI":"仁義里","LIN":"34鄰","STREET":"正義二街","SECT":" ","MAREA":" ","LANE":" ","ALLEY":" ","HOUSE_NO":"１０１號","E_COORD97":173661.35000000001,"N_COORD97":2541581.77,"ADDRESS":"正義二街１０１號","OBJECTID":654197},"geometry":{"x":173661.35000000056,"y":2541581.7700000014}},{"attributes":{"ID":654225,"DIS_CODE":0,"TOWNNAME":"仁德區","LI":"仁義里","LIN":"34鄰","STREET":"正義二街","SECT":" ","MAREA":" ","LANE":" ","ALLEY":" ","HOUSE_NO":"１０１號五樓之１","E_COORD97":173661.35000000001,"N_COORD97":2541581.77,"ADDRESS":"正義二街１０１號五樓之１","OBJECTID":654198},"geometry":{"x":173661.35000000056,"y":2541581.7700000014}},{"attributes":{"ID":654226,"DIS_CODE":0,"TOWNNAME":"仁德區","LI":"仁義里","LIN":"34鄰","STREET":"正義二街","SECT":" ","MAREA":" ","LANE":" ","ALLEY":" ","HOUSE_NO":"１０１號五樓之４","E_COORD97":173661.35000000001,"N_COORD97":2541581.77,"ADDRESS":"正義二街１０１號五樓之４","OBJECTID":654199},"geometry":{"x":173661.35000000056,"y":2541581.7700000014}},{"attributes":{"ID":654227,"DIS_CODE":0,"TOWNNAME":"仁德區","LI":"仁義里","LIN":"34鄰","STREET":"正義二街","SECT":" ","MAREA":" ","LANE":" ","ALLEY":" ","HOUSE_NO":"１０１號五樓之３","E_COORD97":173661.35000000001,"N_COORD97":2541581.77,"ADDRESS":"正義二街１０１號五樓之３","OBJECTID":654200},"geometry":{"x":173661.35000000056,"y":2541581.7700000014}}]}