{"displayFieldName":"TOWNNAME","fieldAliases":{"ID":"ID","DIS_CODE":"DIS_CODE","TOWNNAME":"TOWNNAME","LI":"LI","LIN":"LIN","STREET":"STREET","SECT":"SECT","MAREA":"MAREA","LANE":"LANE","ALLEY":"ALLEY","HOUSE_NO":"HOUSE_NO","E_COORD97":"E_COORD97","N_COORD97":"N_COORD97","ADDRESS":"ADDRESS","OBJECTID":"OBJECTID"},"geometryType":"esriGeometryPoint","spatialReference":{"wkid":102443,"latestWkid":3826},"fields":[{"name":"ID","type":"esriFieldTypeDouble","alias":"ID"},{"name":"DIS_CODE","type":"esriFieldTypeInteger","alias":"DIS_CODE"},{"name":"TOWNNAME","type":"esriFieldTypeString","alias":"TOWNNAME","length":8},{"name":"LI","type":"esriFieldTypeString","alias":"LI","length":8},{"name":"LIN","type":"esriFieldTypeString","alias":"LIN","length":12},{"name":"STREET","type":"esriFieldTypeString","alias":"STREET","length":20},{"name":"SECT","type":"esriFieldTypeString","alias":"SECT","length":8},{"name":"MAREA","type":"esriFieldTypeString","alias":"MAREA","length":12},{"name":"LANE","type":"esriFieldTypeString","alias":"LANE","length":10},{"name":"ALLEY","type":"esriFieldTypeString","alias":"ALLEY","length":10},{"name":"HOUSE_NO","type":"esriFieldTypeString","alias":"HOUSE_NO","length":20},{"name":"E_COORD97","type":"esriFieldTypeDouble","alias":"E_COORD97"},{"name":"N_COORD97","type":"esriFieldTypeDouble","alias":"N_COORD97"},{"name":"ADDRESS","type":"esriFieldTypeString","alias":"ADDRESS","length":50},{"name":"OBJECTID","type":"esriFieldTypeOID","alias":"OBJECTID"}],"features":[{"attributes":{"ID":199202,"DIS_CODE":0,"TOWNNAME":"白河區","LI":"仙草里","LIN":"3鄰","STREET":" ","SECT":" ","MAREA":"仙草","LANE":" ","ALLEY":" ","HOUSE_NO":"２４之６號","E_COORD97":196289.13,"N_COORD97":2582555.2200000002,"ADDRESS":"仙草２４之６號","OBJECTID":199201},"geometry":{"x":196289.12999999989,"y":2582555.2200000044}},{"attributes":{"ID":199203,"DIS_CODE":0,"TOWNNAME":"白河區","LI":"仙草里","LIN":"3鄰","STREET":" ","SECT":" ","MAREA":"仙草","LANE":" ","ALLEY":" ","HOUSE_NO":"２４之８號","E_COORD97":196298.57000000001,"N_COORD97":2582553.71,"ADDRESS":"仙草２４之８號","OBJECTID":199202},"geometry":{"x":196298.5700000003,"y":2582553.7100000028}},{"attributes":{"ID":199204,"DIS_CODE":0,"TOWNNAME":"白河區","LI":"仙草里","LIN":"3鄰","STREET":" ","SECT":" ","MAREA":"仙草","LANE":" ","ALLEY":" ","HOUSE_NO":"２４之９號","E_COORD97":196300.38,"N_COORD97":2582550.96,"ADDRESS":"仙草２４之９號","OBJECTID":199203},"geometry":{"x":196300.38000000082,"y":2582550.9600000028}},{"attributes":{"ID":199205,"DIS_CODE":0,"TOWNNAME":"白河區","LI":"仙草里","LIN":"3鄰","STREET":" ","SECT":" ","MAREA":"仙草","LANE":" ","ALLEY":" ","HOUSE_NO":"２５之１號","E_COORD97":196252.26999999999,"N_COORD97":2582541.4500000002,"ADDRESS":"仙草２５之１號","OBJECTID":199204},"geometry":{"x":196252.26999999955,"y":2582541.4499999993}},{"attributes":{"ID":199206,"DIS_CODE":0,"TOWNNAME":"南區","LI":"彰南里","LIN":"15鄰","STREET":"新義路","SECT":" ","MAREA":" ","LANE":" ","ALLEY":" ","HOUSE_NO":"２號","E_COORD97":166184.64000000001,"N_COORD97":2541266.3100000001,"ADDRESS":"新義路２號","OBJECTID":199205},"geometry":{"x":166184.64000000153,"y":2541266.3100000042}},{"attributes":{"ID":199207,"DIS_CODE":0,"TOWNNAME":"南區","LI":"彰南里","LIN":"15鄰","STREET":"新義路","SECT":" ","MAREA":" ","LANE":" ","ALLEY":" ","HOUSE_NO":"８號","E_COORD97":166029.59,"N_COORD97":2541301.3700000001,"ADDRESS":"新義路８號","OBJECTID":199206},"geometry":{"x":166029.59000000078,"y":2541301.3700000029}},{"attributes":{"ID":199208,"DIS_CODE":0,"TOWNNAME":"南區","LI":"彰南里","LIN":"15鄰","STREET":"新樂路","SECT":" ","MAREA":" ","LANE":" ","ALLEY":" ","HOUSE_NO":"３９號","E_COORD97":165661.17000000001,"N_COORD97":2541428.8199999998,"ADDRESS":"新樂路３９號","OBJECTID":199207},"geometry":{"x":165661.17000000086,"y":2541428.820000004}},{"attributes":{"ID":199209,"DIS_CODE":0,"TOWNNAME":"南區","LI":"彰南里","LIN":"15鄰","STREET":"新樂路","SECT":" ","MAREA":" ","LANE":" ","ALLEY":" ","HOUSE_NO":"４１號","E_COORD97":165613.07000000001,"N_COORD97":2541367.8199999998,"ADDRESS":"新樂路４１號","OBJECTID":199208},"geometry":{"x":165613.07000000123,"y":2541367.820000004}},{"attributes":{"ID":199210,"DIS_CODE":0,"TOWNNAME":"南區","LI":"彰南里","LIN":"15鄰","STREET":"新樂路","SECT":" ","MAREA":" ","LANE":" ","ALLEY":" ","HOUSE_NO":"４１號之１","E_COORD97":165614.23000000001,"N_COORD97":2541387.96,"ADDRESS":"新樂路４１號之１","OBJECTID":199209},"geometry":{"x":165614.23000000138,"y":2541387.9600000046}},{"attributes":{"ID":199211,"DIS_CODE":0,"TOWNNAME":"玉井區","LI":"玉井里","LIN":"15鄰","STREET":"中正路","SECT":" ","MAREA":" ","LANE":" ","ALLEY":" ","HOUSE_NO":"１０２號","E_COORD97":194847.75,"N_COORD97":2558137.25,"ADDRESS":"中正路１０２號","OBJECTID":199210},"geometry":{"x":194847.75,"y":2558137.2500000019}},{"attributes":{"ID":199212,"DIS_CODE":0,"TOWNNAME":"南區","LI":"同安里","LIN":"15鄰","STREET":"明興路","SECT":" ","MAREA":" ","LANE":" ","ALLEY":" ","HOUSE_NO":"１３９７號","E_COORD97":166374.87,"N_COORD97":2535825.73,"ADDRESS":"明興路１３９７號","OBJECTID":199211},"geometry":{"x":166374.87000000011,"y":2535825.7300000023}},{"attributes":{"ID":199213,"DIS_CODE":0,"TOWNNAME":"南區","LI":"同安里","LIN":"15鄰","STREET":"明興路","SECT":" ","MAREA":" ","LANE":" ","ALLEY":" ","HOUSE_NO":"１３９９號","E_COORD97":166373.57000000001,"N_COORD97":2535822.02,"ADDRESS":"明興路１３９９號","OBJECTID":199212},"geometry":{"x":166373.5700000003,"y":2535822.0199999996}},{"attributes":{"ID":199214,"DIS_CODE":0,"TOWNNAME":"東區","LI":"崇誨里","LIN":"18鄰","STREET":"林森路","SECT":"二段","MAREA":" ","LANE":"１９２巷","ALLEY":"５０弄","HOUSE_NO":"２３號","E_COORD97":170672.45000000001,"N_COORD97":2543284.96,"ADDRESS":"林森路二段１９２巷５０弄２３號","OBJECTID":199213},"geometry":{"x":170672.45000000112,"y":2543284.9600000009}},{"attributes":{"ID":199215,"DIS_CODE":0,"TOWNNAME":"東區","LI":"崇誨里","LIN":"18鄰","STREET":"林森路","SECT":"二段","MAREA":" ","LANE":"１９２巷","ALLEY":"５０弄","HOUSE_NO":"２５號","E_COORD97":170673.35000000001,"N_COORD97":2543279.9199999999,"ADDRESS":"林森路二段１９２巷５０弄２５號","OBJECTID":199214},"geometry":{"x":170673.34999999963,"y":2543279.9200000018}},{"attributes":{"ID":199216,"DIS_CODE":0,"TOWNNAME":"善化區","LI":"東隆里","LIN":"9鄰","STREET":" ","SECT":" ","MAREA":"東勢寮","LANE":" ","ALLEY":" ","HOUSE_NO":"２６８號之１","E_COORD97":179953.60999999999,"N_COORD97":2561158.77,"ADDRESS":"東勢寮２６８號之１","OBJECTID":199215},"geometry":{"x":179953.61000000034,"y":2561158.7699999996}},{"attributes":{"ID":199217,"DIS_CODE":0,"TOWNNAME":"善化區","LI":"東隆里","LIN":"9鄰","STREET":" ","SECT":" ","MAREA":"東勢寮","LANE":" ","ALLEY":" ","HOUSE_NO":"２１３號之１","E_COORD97":179954.92999999999,"N_COORD97":2561397.77,"ADDRESS":"東勢寮２１３號之１","OBJECTID":199216},"geometry":{"x":179954.93000000063,"y":2561397.7700000033}},{"attributes":{"ID":199218,"DIS_CODE":0,"TOWNNAME":"白河區","LI":"仙草里","LIN":"3鄰","STREET":" ","SECT":" ","MAREA":"仙草","LANE":" ","ALLEY":" ","HOUSE_NO":"２５之３號","E_COORD97":196258.32999999999,"N_COORD97":2582551.0299999998,"ADDRESS":"仙草２５之３號","OBJECTID":199217},"geometry":{"x":196258.33000000101,"y":2582551.0299999993}},{"attributes":{"ID":199219,"DIS_CODE":0,"TOWNNAME":"東區","LI":"崇誨里","LIN":"18鄰","STREET":"林森路","SECT":"二段","MAREA":" ","LANE":"１９２巷","ALLEY":"５０弄","HOUSE_NO":"２７號","E_COORD97":170674.48999999999,"N_COORD97":2543275.6200000001,"ADDRESS":"林森路二段１９２巷５０弄２７號","OBJECTID":199218},"geometry":{"x":170674.49000000022,"y":2543275.6200000029}},{"attributes":{"ID":199220,"DIS_CODE":0,"TOWNNAME":"白河區","LI":"仙草里","LIN":"3鄰","STREET":" ","SECT":" ","MAREA":"仙草","LANE":" ","ALLEY":" ","HOUSE_NO":"２５之４號","E_COORD97":196268.23999999999,"N_COORD97":2582549.9900000002,"ADDRESS":"仙草２５之４號","OBJECTID":199219},"geometry":{"x":196268.24000000022,"y":2582549.9900000021}},{"attributes":{"ID":199221,"DIS_CODE":0,"TOWNNAME":"七股區","LI":"後港里","LIN":"3鄰","STREET":" ","SECT":" ","MAREA":"港東","LANE":" ","ALLEY":" ","HOUSE_NO":"２９號","E_COORD97":162980.10000000001,"N_COORD97":2565279.54,"ADDRESS":"港東２９號","OBJECTID":199220},"geometry":{"x":162980.09999999963,"y":2565279.5399999991}},{"attributes":{"ID":199222,"DIS_CODE":0,"TOWNNAME":"白河區","LI":"仙草里","LIN":"3鄰","STREET":" ","SECT":" ","MAREA":"仙草","LANE":" ","ALLEY":" ","HOUSE_NO":"２５之６號","E_COORD97":196257.79000000001,"N_COORD97":2582532.4500000002,"ADDRESS":"仙草２５之６號","OBJECTID":199221},"geometry":{"x":196257.79000000004,"y":2582532.4500000011}},{"attributes":{"ID":199223,"DIS_CODE":0,"TOWNNAME":"東區","LI":"崇誨里","LIN":"18鄰","STREET":"林森路","SECT":"二段","MAREA":" ","LANE":"１９２巷","ALLEY":"５０弄","HOUSE_NO":"２９號","E_COORD97":170675.39999999999,"N_COORD97":2543271.3100000001,"ADDRESS":"林森路二段１９２巷５０弄２９號","OBJECTID":199222},"geometry":{"x":170675.40000000037,"y":2543271.3100000024}},{"attributes":{"ID":199224,"DIS_CODE":0,"TOWNNAME":"東區","LI":"崇誨里","LIN":"18鄰","STREET":"林森路","SECT":"二段","MAREA":" ","LANE":"１９２巷","ALLEY":"５０弄","HOUSE_NO":"３１號","E_COORD97":170676.53,"N_COORD97":2543267.1200000001,"ADDRESS":"林森路二段１９２巷５０弄３１號","OBJECTID":199223},"geometry":{"x":170676.53000000212,"y":2543267.120000001}},{"attributes":{"ID":199225,"DIS_CODE":0,"TOWNNAME":"東區","LI":"崇誨里","LIN":"18鄰","STREET":"林森路","SECT":"二段","MAREA":" ","LANE":"１９２巷","ALLEY":"５０弄","HOUSE_NO":"３３號","E_COORD97":170677.54999999999,"N_COORD97":2543262.3599999999,"ADDRESS":"林森路二段１９２巷５０弄３３號","OBJECTID":199224},"geometry":{"x":170677.55000000168,"y":2543262.3600000013}},{"attributes":{"ID":199226,"DIS_CODE":0,"TOWNNAME":"東區","LI":"崇誨里","LIN":"18鄰","STREET":"林森路","SECT":"二段","MAREA":" ","LANE":"１９２巷","ALLEY":"５０弄","HOUSE_NO":"３５號","E_COORD97":170678.34,"N_COORD97":2543258.1699999999,"ADDRESS":"林森路二段１９２巷５０弄３５號","OBJECTID":199225},"geometry":{"x":170678.33999999985,"y":2543258.1700000018}},{"attributes":{"ID":199227,"DIS_CODE":0,"TOWNNAME":"東區","LI":"崇誨里","LIN":"18鄰","STREET":"林森路","SECT":"二段","MAREA":" ","LANE":"１９２巷","ALLEY":"５０弄","HOUSE_NO":"３７號","E_COORD97":170686.35000000001,"N_COORD97":2543253.4700000002,"ADDRESS":"林森路二段１９２巷５０弄３７號","OBJECTID":199226},"geometry":{"x":170686.35000000056,"y":2543253.4700000025}},{"attributes":{"ID":199228,"DIS_CODE":0,"TOWNNAME":"東區","LI":"崇誨里","LIN":"18鄰","STREET":"林森路","SECT":"二段","MAREA":" ","LANE":"１９２巷","ALLEY":"５０弄","HOUSE_NO":"３９號","E_COORD97":170684.07999999999,"N_COORD97":2543246.9100000001,"ADDRESS":"林森路二段１９２巷５０弄３９號","OBJECTID":199227},"geometry":{"x":170684.08000000007,"y":2543246.910000002}},{"attributes":{"ID":199229,"DIS_CODE":0,"TOWNNAME":"白河區","LI":"仙草里","LIN":"3鄰","STREET":" ","SECT":" ","MAREA":"仙草","LANE":" ","ALLEY":" ","HOUSE_NO":"２５號","E_COORD97":196289.17000000001,"N_COORD97":2582533.48,"ADDRESS":"仙草２５號","OBJECTID":199228},"geometry":{"x":196289.16999999993,"y":2582533.4800000023}},{"attributes":{"ID":199230,"DIS_CODE":0,"TOWNNAME":"東區","LI":"崇誨里","LIN":"18鄰","STREET":"林森路","SECT":"二段","MAREA":" ","LANE":"１９２巷","ALLEY":"５０弄","HOUSE_NO":"５號","E_COORD97":170661.79000000001,"N_COORD97":2543322.6400000001,"ADDRESS":"林森路二段１９２巷５０弄５號","OBJECTID":199229},"geometry":{"x":170661.79000000004,"y":2543322.6400000025}},{"attributes":{"ID":199231,"DIS_CODE":0,"TOWNNAME":"白河區","LI":"仙草里","LIN":"3鄰","STREET":" ","SECT":" ","MAREA":"仙草","LANE":" ","ALLEY":" ","HOUSE_NO":"２６號","E_COORD97":196291.84,"N_COORD97":2582525.3300000001,"ADDRESS":"仙草２６號","OBJECTID":199230},"geometry":{"x":196291.84000000078,"y":2582525.3300000001}},{"attributes":{"ID":199232,"DIS_CODE":0,"TOWNNAME":"東區","LI":"崇誨里","LIN":"18鄰","STREET":"林森路","SECT":"二段","MAREA":" ","LANE":"１９２巷","ALLEY":"５０弄","HOUSE_NO":"７號","E_COORD97":170663.14999999999,"N_COORD97":2543318.1099999999,"ADDRESS":"林森路二段１９２巷５０弄７號","OBJECTID":199231},"geometry":{"x":170663.15000000037,"y":2543318.1100000013}},{"attributes":{"ID":199233,"DIS_CODE":0,"TOWNNAME":"東區","LI":"崇誨里","LIN":"18鄰","STREET":"林森路","SECT":"二段","MAREA":" ","LANE":"１９２巷","ALLEY":"５０弄","HOUSE_NO":"９號","E_COORD97":170664.17000000001,"N_COORD97":2543313.3500000001,"ADDRESS":"林森路二段１９２巷５０弄９號","OBJECTID":199232},"geometry":{"x":170664.16999999993,"y":2543313.3500000015}},{"attributes":{"ID":199234,"DIS_CODE":0,"TOWNNAME":"白河區","LI":"仙草里","LIN":"3鄰","STREET":" ","SECT":" ","MAREA":"仙草","LANE":" ","ALLEY":" ","HOUSE_NO":"２７號","E_COORD97":196288.23999999999,"N_COORD97":2582518.9500000002,"ADDRESS":"仙草２７號","OBJECTID":199233},"geometry":{"x":196288.24000000115,"y":2582518.9500000011}},{"attributes":{"ID":199235,"DIS_CODE":0,"TOWNNAME":"白河區","LI":"仙草里","LIN":"3鄰","STREET":" ","SECT":" ","MAREA":"仙草","LANE":" ","ALLEY":" ","HOUSE_NO":"２９號","E_COORD97":196292.10999999999,"N_COORD97":2582503.73,"ADDRESS":"仙草２９號","OBJECTID":199234},"geometry":{"x":196292.1100000022,"y":2582503.7299999986}},{"attributes":{"ID":199236,"DIS_CODE":0,"TOWNNAME":"白河區","LI":"仙草里","LIN":"3鄰","STREET":" ","SECT":" ","MAREA":"仙草","LANE":" ","ALLEY":" ","HOUSE_NO":"３０號","E_COORD97":196291.37,"N_COORD97":2582498.3199999998,"ADDRESS":"仙草３０號","OBJECTID":199235},"geometry":{"x":196291.37000000011,"y":2582498.3200000003}},{"attributes":{"ID":199237,"DIS_CODE":0,"TOWNNAME":"白河區","LI":"仙草里","LIN":"3鄰","STREET":" ","SECT":" ","MAREA":"仙草","LANE":" ","ALLEY":" ","HOUSE_NO":"３１號","E_COORD97":196283.5,"N_COORD97":2582457.1099999999,"ADDRESS":"仙草３１號","OBJECTID":199236},"geometry":{"x":196283.5,"y":2582457.1100000013}},{"attributes":{"ID":199238,"DIS_CODE":0,"TOWNNAME":"白河區","LI":"仙草里","LIN":"3鄰","STREET":" ","SECT":" ","MAREA":"仙草","LANE":" ","ALLEY":" ","HOUSE_NO":"３２之１０號","E_COORD97":196227.66,"N_COORD97":2582486.6699999999,"ADDRESS":"仙草３２之１０號","OBJECTID":199237},"geometry":{"x":196227.66000000108,"y":2582486.6699999981}},{"attributes":{"ID":199239,"DIS_CODE":0,"TOWNNAME":"白河區","LI":"仙草里","LIN":"3鄰","STREET":" ","SECT":" ","MAREA":"仙草","LANE":" ","ALLEY":" ","HOUSE_NO":"３２之１１號","E_COORD97":196229.42000000001,"N_COORD97":2582490.6899999999,"ADDRESS":"仙草３２之１１號","OBJECTID":199238},"geometry":{"x":196229.41999999993,"y":2582490.6900000013}},{"attributes":{"ID":199240,"DIS_CODE":0,"TOWNNAME":"白河區","LI":"仙草里","LIN":"3鄰","STREET":" ","SECT":" ","MAREA":"仙草","LANE":" ","ALLEY":" ","HOUSE_NO":"３２之１２號","E_COORD97":196231.17999999999,"N_COORD97":2582494.7200000002,"ADDRESS":"仙草３２之１２號","OBJECTID":199239},"geometry":{"x":196231.1799999997,"y":2582494.7200000025}},{"attributes":{"ID":199241,"DIS_CODE":0,"TOWNNAME":"白河區","LI":"仙草里","LIN":"3鄰","STREET":" ","SECT":" ","MAREA":"仙草","LANE":" ","ALLEY":" ","HOUSE_NO":"３２之１３號","E_COORD97":196232.94,"N_COORD97":2582498.7400000002,"ADDRESS":"仙草３２之１３號","OBJECTID":199240},"geometry":{"x":196232.94000000134,"y":2582498.7400000002}},{"attributes":{"ID":199242,"DIS_CODE":0,"TOWNNAME":"永康區","LI":"西橋里","LIN":"9鄰","STREET":"中華西街","SECT":" ","MAREA":" ","LANE":"８５巷","ALLEY":" ","HOUSE_NO":"１４號","E_COORD97":170660.16,"N_COORD97":2546072.7400000002,"ADDRESS":"中華西街８５巷１４號","OBJECTID":199241},"geometry":{"x":170660.15999999922,"y":2546072.7400000002}},{"attributes":{"ID":199243,"DIS_CODE":0,"TOWNNAME":"歸仁區","LI":"六甲里","LIN":"15鄰","STREET":"六甲一街","SECT":" ","MAREA":" ","LANE":" ","ALLEY":" ","HOUSE_NO":"３８之１號","E_COORD97":175838.17000000001,"N_COORD97":2539120.25,"ADDRESS":"六甲一街３８之１號","OBJECTID":199242},"geometry":{"x":175838.16999999993,"y":2539120.2500000037}},{"attributes":{"ID":199244,"DIS_CODE":0,"TOWNNAME":"白河區","LI":"仙草里","LIN":"3鄰","STREET":" ","SECT":" ","MAREA":"仙草","LANE":" ","ALLEY":" ","HOUSE_NO":"３２之１４號","E_COORD97":196234.70000000001,"N_COORD97":2582502.77,"ADDRESS":"仙草３２之１４號","OBJECTID":199243},"geometry":{"x":196234.70000000019,"y":2582502.7700000033}},{"attributes":{"ID":199245,"DIS_CODE":0,"TOWNNAME":"東區","LI":"崇誨里","LIN":"18鄰","STREET":"林森路","SECT":"二段","MAREA":" ","LANE":"１９２巷","ALLEY":"５０弄","HOUSE_NO":"３號","E_COORD97":170660.64999999999,"N_COORD97":2543327.1699999999,"ADDRESS":"林森路二段１９２巷５０弄３號","OBJECTID":199244},"geometry":{"x":170660.65000000224,"y":2543327.1699999999}},{"attributes":{"ID":199246,"DIS_CODE":0,"TOWNNAME":"中西區","LI":"萬昌里","LIN":"9鄰","STREET":"民權路","SECT":"一段","MAREA":" ","LANE":" ","ALLEY":" ","HOUSE_NO":"１３３號","E_COORD97":168869.04000000001,"N_COORD97":2543476.52,"ADDRESS":"民權路一段１３３號","OBJECTID":199245},"geometry":{"x":168869.03999999911,"y":2543476.5199999996}},{"attributes":{"ID":199247,"DIS_CODE":0,"TOWNNAME":"中西區","LI":"萬昌里","LIN":"9鄰","STREET":"民權路","SECT":"一段","MAREA":" ","LANE":" ","ALLEY":" ","HOUSE_NO":"１３５號","E_COORD97":168867.34,"N_COORD97":2543479.5099999998,"ADDRESS":"民權路一段１３５號","OBJECTID":199246},"geometry":{"x":168867.34000000078,"y":2543479.5100000016}},{"attributes":{"ID":199248,"DIS_CODE":0,"TOWNNAME":"東區","LI":"崇誨里","LIN":"18鄰","STREET":"林森路","SECT":"二段","MAREA":" ","LANE":"１９２巷","ALLEY":"５０弄","HOUSE_NO":"１９號","E_COORD97":170670.17999999999,"N_COORD97":2543292.5600000001,"ADDRESS":"林森路二段１９２巷５０弄１９號","OBJECTID":199247},"geometry":{"x":170670.18000000063,"y":2543292.5600000024}},{"attributes":{"ID":199249,"DIS_CODE":0,"TOWNNAME":"中西區","LI":"仙草里","LIN":"9鄰","STREET":"府緯街","SECT":" ","MAREA":" ","LANE":" ","ALLEY":" ","HOUSE_NO":"３５號","E_COORD97":167869.23999999999,"N_COORD97":2542711.1200000001,"ADDRESS":"府緯街３５號","OBJECTID":199248},"geometry":{"x":167869.24000000022,"y":2542711.120000001}},{"attributes":{"ID":199250,"DIS_CODE":0,"TOWNNAME":"中西區","LI":"仙草里","LIN":"9鄰","STREET":"府緯街","SECT":" ","MAREA":" ","LANE":" ","ALLEY":" ","HOUSE_NO":"３７號","E_COORD97":167861.91,"N_COORD97":2542711.7200000002,"ADDRESS":"府緯街３７號","OBJECTID":199249},"geometry":{"x":167861.91000000108,"y":2542711.7200000025}},{"attributes":{"ID":199251,"DIS_CODE":0,"TOWNNAME":"中西區","LI":"仙草里","LIN":"9鄰","STREET":"府緯街","SECT":" ","MAREA":" ","LANE":" ","ALLEY":" ","HOUSE_NO":"３９號","E_COORD97":167855.37,"N_COORD97":2542711.9199999999,"ADDRESS":"府緯街３９號","OBJECTID":199250},"geometry":{"x":167855.37000000104,"y":2542711.9199999999}},{"attributes":{"ID":199252,"DIS_CODE":0,"TOWNNAME":"新化區","LI":"全興里","LIN":"9鄰","STREET":" ","SECT":" ","MAREA":"竹子\u25A0","LANE":" ","ALLEY":" ","HOUSE_NO":"１５１號之６","E_COORD97":177422.98000000001,"N_COORD97":2547663.2599999998,"ADDRESS":"竹子\u25A0１５１號之６","OBJECTID":199251},"geometry":{"x":177422.98000000138,"y":2547663.2599999979}},{"attributes":{"ID":199253,"DIS_CODE":0,"TOWNNAME":"大內區","LI":"大內里","LIN":"9鄰","STREET":" ","SECT":" ","MAREA":"內庄","LANE":" ","ALLEY":" ","HOUSE_NO":"９８號","E_COORD97":184640.82999999999,"N_COORD97":2557441.25,"ADDRESS":"內庄９８號","OBJECTID":199252},"geometry":{"x":184640.82999999914,"y":2557441.25}},{"attributes":{"ID":199254,"DIS_CODE":0,"TOWNNAME":"東區","LI":"崇誨里","LIN":"18鄰","STREET":"林森路","SECT":"二段","MAREA":" ","LANE":"１９２巷","ALLEY":"５０弄","HOUSE_NO":"４１號","E_COORD97":170683.25,"N_COORD97":2543241.6600000001,"ADDRESS":"林森路二段１９２巷５０弄４１號","OBJECTID":199253},"geometry":{"x":170683.25000000186,"y":2543241.660000002}},{"attributes":{"ID":199255,"DIS_CODE":0,"TOWNNAME":"東區","LI":"新東里","LIN":"18鄰","STREET":"裕豐街","SECT":" ","MAREA":" ","LANE":"１８５巷","ALLEY":"１７弄","HOUSE_NO":"１３號","E_COORD97":170743.81,"N_COORD97":2543155.77,"ADDRESS":"裕豐街１８５巷１７弄１３號","OBJECTID":199254},"geometry":{"x":170743.81000000052,"y":2543155.7699999996}},{"attributes":{"ID":199256,"DIS_CODE":0,"TOWNNAME":"東區","LI":"新東里","LIN":"18鄰","STREET":"裕豐街","SECT":" ","MAREA":" ","LANE":"１８５巷","ALLEY":"１７弄","HOUSE_NO":"１０號","E_COORD97":170729.75,"N_COORD97":2543161.0099999998,"ADDRESS":"裕豐街１８５巷１７弄１０號","OBJECTID":199255},"geometry":{"x":170729.75000000093,"y":2543161.0100000016}},{"attributes":{"ID":199257,"DIS_CODE":0,"TOWNNAME":"白河區","LI":"仙草里","LIN":"3鄰","STREET":" ","SECT":" ","MAREA":"仙草","LANE":" ","ALLEY":" ","HOUSE_NO":"３２之１５號","E_COORD97":196239.73999999999,"N_COORD97":2582514.25,"ADDRESS":"仙草３２之１５號","OBJECTID":199256},"geometry":{"x":196239.74000000022,"y":2582514.2500000019}},{"attributes":{"ID":199258,"DIS_CODE":0,"TOWNNAME":"白河區","LI":"仙草里","LIN":"3鄰","STREET":" ","SECT":" ","MAREA":"仙草","LANE":" ","ALLEY":" ","HOUSE_NO":"３２之１６號","E_COORD97":196240.94,"N_COORD97":2582518.8100000001,"ADDRESS":"仙草３２之１６號","OBJECTID":199257},"geometry":{"x":196240.94000000134,"y":2582518.8100000005}},{"attributes":{"ID":199259,"DIS_CODE":0,"TOWNNAME":"東區","LI":"新東里","LIN":"18鄰","STREET":"裕豐街","SECT":" ","MAREA":" ","LANE":"１８５巷","ALLEY":"１７弄","HOUSE_NO":"１１號","E_COORD97":170743.07999999999,"N_COORD97":2543159.96,"ADDRESS":"裕豐街１８５巷１７弄１１號","OBJECTID":199258},"geometry":{"x":170743.08000000007,"y":2543159.9600000009}},{"attributes":{"ID":199260,"DIS_CODE":0,"TOWNNAME":"東區","LI":"新東里","LIN":"18鄰","STREET":"裕豐街","SECT":" ","MAREA":" ","LANE":"１８５巷","ALLEY":"１７弄","HOUSE_NO":"１４號","E_COORD97":170731.32999999999,"N_COORD97":2543153.04,"ADDRESS":"裕豐街１８５巷１７弄１４號","OBJECTID":199259},"geometry":{"x":170731.33000000007,"y":2543153.040000001}},{"attributes":{"ID":199261,"DIS_CODE":0,"TOWNNAME":"白河區","LI":"仙草里","LIN":"3鄰","STREET":" ","SECT":" ","MAREA":"仙草","LANE":" ","ALLEY":" ","HOUSE_NO":"３２之１７號","E_COORD97":196242.07000000001,"N_COORD97":2582522.5699999998,"ADDRESS":"仙草３２之１７號","OBJECTID":199260},"geometry":{"x":196242.07000000123,"y":2582522.5700000022}},{"attributes":{"ID":199262,"DIS_CODE":0,"TOWNNAME":"東區","LI":"新東里","LIN":"18鄰","STREET":"裕豐街","SECT":" ","MAREA":" ","LANE":"１８５巷","ALLEY":"１７弄","HOUSE_NO":"１號","E_COORD97":170738.45999999999,"N_COORD97":2543179.8700000001,"ADDRESS":"裕豐街１８５巷１７弄１號","OBJECTID":199261},"geometry":{"x":170738.46000000089,"y":2543179.8700000029}},{"attributes":{"ID":199263,"DIS_CODE":0,"TOWNNAME":"東區","LI":"新東里","LIN":"18鄰","STREET":"裕豐街","SECT":" ","MAREA":" ","LANE":"１８５巷","ALLEY":"１７弄","HOUSE_NO":"２號","E_COORD97":170725.14000000001,"N_COORD97":2543176.6299999999,"ADDRESS":"裕豐街１８５巷１７弄２號","OBJECTID":199262},"geometry":{"x":170725.13999999966,"y":2543176.629999999}},{"attributes":{"ID":199264,"DIS_CODE":0,"TOWNNAME":"白河區","LI":"仙草里","LIN":"3鄰","STREET":" ","SECT":" ","MAREA":"仙草","LANE":" ","ALLEY":" ","HOUSE_NO":"３２之１８號","E_COORD97":196243.42999999999,"N_COORD97":2582526.4399999999,"ADDRESS":"仙草３２之１８號","OBJECTID":199263},"geometry":{"x":196243.43000000156,"y":2582526.4400000013}},{"attributes":{"ID":199265,"DIS_CODE":0,"TOWNNAME":"北區","LI":"和順里","LIN":"26鄰","STREET":"民德路","SECT":" ","MAREA":" ","LANE":"５８巷","ALLEY":"５弄","HOUSE_NO":"８號","E_COORD97":168193.38,"N_COORD97":2545258.4300000002,"ADDRESS":"民德路５８巷５弄８號","OBJECTID":199264},"geometry":{"x":168193.37999999989,"y":2545258.4300000034}},{"attributes":{"ID":199266,"DIS_CODE":0,"TOWNNAME":"東區","LI":"新東里","LIN":"18鄰","STREET":"裕豐街","SECT":" ","MAREA":" ","LANE":"１８５巷","ALLEY":"１７弄","HOUSE_NO":"３號","E_COORD97":170739.62,"N_COORD97":2543175.4700000002,"ADDRESS":"裕豐街１８５巷１７弄３號","OBJECTID":199265},"geometry":{"x":170739.62000000011,"y":2543175.4700000025}},{"attributes":{"ID":199267,"DIS_CODE":0,"TOWNNAME":"東區","LI":"新東里","LIN":"18鄰","STREET":"裕豐街","SECT":" ","MAREA":" ","LANE":"１８５巷","ALLEY":"１７弄","HOUSE_NO":"５號","E_COORD97":170740.76999999999,"N_COORD97":2543171.7000000002,"ADDRESS":"裕豐街１８５巷１７弄５號","OBJECTID":199266},"geometry":{"x":170740.77000000048,"y":2543171.7000000011}},{"attributes":{"ID":199268,"DIS_CODE":0,"TOWNNAME":"白河區","LI":"仙草里","LIN":"3鄰","STREET":" ","SECT":" ","MAREA":"仙草","LANE":" ","ALLEY":" ","HOUSE_NO":"３２之１９號","E_COORD97":196253.64999999999,"N_COORD97":2582505.1400000001,"ADDRESS":"仙草３２之１９號","OBJECTID":199267},"geometry":{"x":196253.6500000013,"y":2582505.1400000025}},{"attributes":{"ID":199269,"DIS_CODE":0,"TOWNNAME":"東區","LI":"新東里","LIN":"18鄰","STREET":"裕豐街","SECT":" ","MAREA":" ","LANE":"１８５巷","ALLEY":"１７弄","HOUSE_NO":"６號","E_COORD97":170727.54999999999,"N_COORD97":2543168.6600000001,"ADDRESS":"裕豐街１８５巷１７弄６號","OBJECTID":199268},"geometry":{"x":170727.55000000075,"y":2543168.6600000001}},{"attributes":{"ID":199270,"DIS_CODE":0,"TOWNNAME":"中西區","LI":"仙草里","LIN":"9鄰","STREET":"府緯街","SECT":" ","MAREA":" ","LANE":" ","ALLEY":" ","HOUSE_NO":"４１號","E_COORD97":167848.44,"N_COORD97":2542711.9199999999,"ADDRESS":"府緯街４１號","OBJECTID":199269},"geometry":{"x":167848.44000000134,"y":2542711.9199999999}},{"attributes":{"ID":199271,"DIS_CODE":0,"TOWNNAME":"白河區","LI":"仙草里","LIN":"3鄰","STREET":" ","SECT":" ","MAREA":"仙草","LANE":" ","ALLEY":" ","HOUSE_NO":"３２之６號","E_COORD97":196248.51000000001,"N_COORD97":2582478.73,"ADDRESS":"仙草３２之６號","OBJECTID":199270},"geometry":{"x":196248.51000000071,"y":2582478.7300000004}},{"attributes":{"ID":199272,"DIS_CODE":0,"TOWNNAME":"白河區","LI":"仙草里","LIN":"3鄰","STREET":" ","SECT":" ","MAREA":"仙草","LANE":" ","ALLEY":" ","HOUSE_NO":"３２之７號","E_COORD97":196244.29999999999,"N_COORD97":2582479.9900000002,"ADDRESS":"仙草３２之７號","OBJECTID":199271},"geometry":{"x":196244.29999999888,"y":2582479.9900000002}},{"attributes":{"ID":199273,"DIS_CODE":0,"TOWNNAME":"白河區","LI":"仙草里","LIN":"3鄰","STREET":" ","SECT":" ","MAREA":"仙草","LANE":" ","ALLEY":" ","HOUSE_NO":"３２之８號","E_COORD97":196223.78,"N_COORD97":2582478.27,"ADDRESS":"仙草３２之８號","OBJECTID":199272},"geometry":{"x":196223.78000000119,"y":2582478.2699999996}},{"attributes":{"ID":199274,"DIS_CODE":0,"TOWNNAME":"白河區","LI":"仙草里","LIN":"3鄰","STREET":" ","SECT":" ","MAREA":"仙草","LANE":" ","ALLEY":" ","HOUSE_NO":"３２之９號","E_COORD97":196225.76999999999,"N_COORD97":2582482.6899999999,"ADDRESS":"仙草３２之９號","OBJECTID":199273},"geometry":{"x":196225.77000000142,"y":2582482.6899999976}},{"attributes":{"ID":199275,"DIS_CODE":0,"TOWNNAME":"白河區","LI":"仙草里","LIN":"3鄰","STREET":" ","SECT":" ","MAREA":"仙草","LANE":" ","ALLEY":" ","HOUSE_NO":"３３號","E_COORD97":196224.12,"N_COORD97":2582441.2400000002,"ADDRESS":"仙草３３號","OBJECTID":199274},"geometry":{"x":196224.12000000104,"y":2582441.2400000002}},{"attributes":{"ID":199276,"DIS_CODE":0,"TOWNNAME":"永康區","LI":"蔦松里","LIN":"9鄰","STREET":"正北一路","SECT":" ","MAREA":" ","LANE":" ","ALLEY":" ","HOUSE_NO":"１０６號","E_COORD97":174318.04999999999,"N_COORD97":2549830.9399999999,"ADDRESS":"正北一路１０６號","OBJECTID":199275},"geometry":{"x":174318.04999999981,"y":2549830.9399999995}},{"attributes":{"ID":199277,"DIS_CODE":0,"TOWNNAME":"東區","LI":"新東里","LIN":"18鄰","STREET":"裕豐街","SECT":" ","MAREA":" ","LANE":"１８５巷","ALLEY":"１７弄","HOUSE_NO":"７號","E_COORD97":170741.60999999999,"N_COORD97":2543168.0299999998,"ADDRESS":"裕豐街１８５巷１７弄７號","OBJECTID":199276},"geometry":{"x":170741.61000000034,"y":2543168.0299999993}},{"attributes":{"ID":199278,"DIS_CODE":0,"TOWNNAME":"中西區","LI":"天后里","LIN":"9鄰","STREET":"民族路","SECT":"二段","MAREA":" ","LANE":" ","ALLEY":" ","HOUSE_NO":"４０５號","E_COORD97":168085.70000000001,"N_COORD97":2544197.1099999999,"ADDRESS":"民族路二段４０５號","OBJECTID":199277},"geometry":{"x":168085.70000000112,"y":2544197.1100000013}},{"attributes":{"ID":199279,"DIS_CODE":0,"TOWNNAME":"東區","LI":"新東里","LIN":"18鄰","STREET":"裕豐街","SECT":" ","MAREA":" ","LANE":"１８５巷","ALLEY":"１７弄","HOUSE_NO":"８號","E_COORD97":170728.60000000001,"N_COORD97":2543164.6800000002,"ADDRESS":"裕豐街１８５巷１７弄８號","OBJECTID":199278},"geometry":{"x":170728.60000000056,"y":2543164.6799999978}},{"attributes":{"ID":199280,"DIS_CODE":0,"TOWNNAME":"大內區","LI":"大內里","LIN":"9鄰","STREET":" ","SECT":" ","MAREA":"內庄","LANE":" ","ALLEY":" ","HOUSE_NO":"１０７號","E_COORD97":184664.38,"N_COORD97":2557461.25,"ADDRESS":"內庄１０７號","OBJECTID":199279},"geometry":{"x":184664.38000000082,"y":2557461.25}},{"attributes":{"ID":199281,"DIS_CODE":0,"TOWNNAME":"白河區","LI":"蓮潭里","LIN":"3鄰","STREET":" ","SECT":" ","MAREA":"北埔","LANE":" ","ALLEY":" ","HOUSE_NO":"１０之１０號","E_COORD97":189084.97,"N_COORD97":2589577.7599999998,"ADDRESS":"北埔１０之１０號","OBJECTID":199280},"geometry":{"x":189084.97000000067,"y":2589577.7599999998}},{"attributes":{"ID":199282,"DIS_CODE":0,"TOWNNAME":"白河區","LI":"蓮潭里","LIN":"3鄰","STREET":" ","SECT":" ","MAREA":"北埔","LANE":" ","ALLEY":" ","HOUSE_NO":"１０之１１號","E_COORD97":189022.62,"N_COORD97":2589642.54,"ADDRESS":"北埔１０之１１號","OBJECTID":199281},"geometry":{"x":189022.61999999918,"y":2589642.5399999991}},{"attributes":{"ID":199283,"DIS_CODE":0,"TOWNNAME":"白河區","LI":"蓮潭里","LIN":"3鄰","STREET":" ","SECT":" ","MAREA":"北埔","LANE":" ","ALLEY":" ","HOUSE_NO":"１０號","E_COORD97":189354.28,"N_COORD97":2589664.71,"ADDRESS":"北埔１０號","OBJECTID":199282},"geometry":{"x":189354.28000000119,"y":2589664.7100000009}},{"attributes":{"ID":199284,"DIS_CODE":0,"TOWNNAME":"白河區","LI":"蓮潭里","LIN":"3鄰","STREET":" ","SECT":" ","MAREA":"北埔","LANE":" ","ALLEY":" ","HOUSE_NO":"１之１號","E_COORD97":189588.82000000001,"N_COORD97":2589721.0099999998,"ADDRESS":"北埔１之１號","OBJECTID":199283},"geometry":{"x":189588.8200000003,"y":2589721.0100000016}},{"attributes":{"ID":199285,"DIS_CODE":0,"TOWNNAME":"白河區","LI":"蓮潭里","LIN":"3鄰","STREET":" ","SECT":" ","MAREA":"北埔","LANE":" ","ALLEY":" ","HOUSE_NO":"１號","E_COORD97":189535.98999999999,"N_COORD97":2589715.6499999999,"ADDRESS":"北埔１號","OBJECTID":199284},"geometry":{"x":189535.99000000115,"y":2589715.6500000041}},{"attributes":{"ID":199286,"DIS_CODE":0,"TOWNNAME":"白河區","LI":"蓮潭里","LIN":"3鄰","STREET":" ","SECT":" ","MAREA":"北埔","LANE":" ","ALLEY":" ","HOUSE_NO":"３號","E_COORD97":189501.97,"N_COORD97":2589678.1800000002,"ADDRESS":"北埔３號","OBJECTID":199285},"geometry":{"x":189501.97000000067,"y":2589678.1800000016}},{"attributes":{"ID":199287,"DIS_CODE":0,"TOWNNAME":"白河區","LI":"蓮潭里","LIN":"3鄰","STREET":" ","SECT":" ","MAREA":"北埔","LANE":" ","ALLEY":" ","HOUSE_NO":"５０號","E_COORD97":189484.95999999999,"N_COORD97":2589463.1600000001,"ADDRESS":"北埔５０號","OBJECTID":199286},"geometry":{"x":189484.96000000089,"y":2589463.1600000001}},{"attributes":{"ID":199288,"DIS_CODE":0,"TOWNNAME":"白河區","LI":"蓮潭里","LIN":"3鄰","STREET":" ","SECT":" ","MAREA":"北埔","LANE":" ","ALLEY":" ","HOUSE_NO":"５之１號","E_COORD97":189488.04999999999,"N_COORD97":2589672.8799999999,"ADDRESS":"北埔５之１號","OBJECTID":199287},"geometry":{"x":189488.05000000075,"y":2589672.8800000008}},{"attributes":{"ID":199289,"DIS_CODE":0,"TOWNNAME":"白河區","LI":"蓮潭里","LIN":"3鄰","STREET":" ","SECT":" ","MAREA":"北埔","LANE":" ","ALLEY":" ","HOUSE_NO":"５之２號","E_COORD97":189484.97,"N_COORD97":2589691.52,"ADDRESS":"北埔５之２號","OBJECTID":199288},"geometry":{"x":189484.97000000067,"y":2589691.5199999996}},{"attributes":{"ID":199290,"DIS_CODE":0,"TOWNNAME":"白河區","LI":"蓮潭里","LIN":"3鄰","STREET":" ","SECT":" ","MAREA":"北埔","LANE":" ","ALLEY":" ","HOUSE_NO":"７號","E_COORD97":189447.70000000001,"N_COORD97":2589688.5600000001,"ADDRESS":"北埔７號","OBJECTID":199289},"geometry":{"x":189447.69999999925,"y":2589688.5600000005}},{"attributes":{"ID":199291,"DIS_CODE":0,"TOWNNAME":"白河區","LI":"蓮潭里","LIN":"3鄰","STREET":" ","SECT":" ","MAREA":"北埔","LANE":" ","ALLEY":" ","HOUSE_NO":"８號","E_COORD97":189425.10999999999,"N_COORD97":2589720.8399999999,"ADDRESS":"北埔８號","OBJECTID":199290},"geometry":{"x":189425.11000000127,"y":2589720.8400000036}},{"attributes":{"ID":199292,"DIS_CODE":0,"TOWNNAME":"白河區","LI":"蓮潭里","LIN":"3鄰","STREET":" ","SECT":" ","MAREA":"北埔","LANE":" ","ALLEY":" ","HOUSE_NO":"９號","E_COORD97":189399.67000000001,"N_COORD97":2589720.23,"ADDRESS":"北埔９號","OBJECTID":199291},"geometry":{"x":189399.66999999993,"y":2589720.2300000023}},{"attributes":{"ID":199293,"DIS_CODE":0,"TOWNNAME":"白河區","LI":"外角里","LIN":"3鄰","STREET":" ","SECT":" ","MAREA":"外角","LANE":" ","ALLEY":" ","HOUSE_NO":"１７號","E_COORD97":190672.85999999999,"N_COORD97":2583207.1200000001,"ADDRESS":"外角１７號","OBJECTID":199292},"geometry":{"x":190672.86000000127,"y":2583207.1200000048}},{"attributes":{"ID":199294,"DIS_CODE":0,"TOWNNAME":"東區","LI":"新東里","LIN":"18鄰","STREET":"裕豐街","SECT":" ","MAREA":" ","LANE":"１８５巷","ALLEY":"１７弄","HOUSE_NO":"９號","E_COORD97":170742.45000000001,"N_COORD97":2543163.9399999999,"ADDRESS":"裕豐街１８５巷１７弄９號","OBJECTID":199293},"geometry":{"x":170742.45000000019,"y":2543163.9400000013}},{"attributes":{"ID":199295,"DIS_CODE":0,"TOWNNAME":"東區","LI":"新東里","LIN":"18鄰","STREET":"裕豐街","SECT":" ","MAREA":" ","LANE":"１８５巷","ALLEY":"７弄","HOUSE_NO":"１４號","E_COORD97":170755.72,"N_COORD97":2543158.4399999999,"ADDRESS":"裕豐街１８５巷７弄１４號","OBJECTID":199294},"geometry":{"x":170755.71999999974,"y":2543158.4399999995}},{"attributes":{"ID":199296,"DIS_CODE":0,"TOWNNAME":"東區","LI":"新東里","LIN":"18鄰","STREET":"裕豐街","SECT":" ","MAREA":" ","LANE":"１８５巷","ALLEY":"７弄","HOUSE_NO":"２號","E_COORD97":170751,"N_COORD97":2543180.2400000002,"ADDRESS":"裕豐街１８５巷７弄２號","OBJECTID":199295},"geometry":{"x":170751.00000000186,"y":2543180.2400000021}},{"attributes":{"ID":199297,"DIS_CODE":0,"TOWNNAME":"後壁區","LI":"平安里","LIN":"1鄰","STREET":" ","SECT":" ","MAREA":"葯店口","LANE":" ","ALLEY":" ","HOUSE_NO":"３號","E_COORD97":181832.10999999999,"N_COORD97":2585047.2000000002,"ADDRESS":"葯店口３號","OBJECTID":199296},"geometry":{"x":181832.1100000022,"y":2585047.2000000011}},{"attributes":{"ID":199298,"DIS_CODE":0,"TOWNNAME":"白河區","LI":"外角里","LIN":"3鄰","STREET":" ","SECT":" ","MAREA":"外角","LANE":" ","ALLEY":" ","HOUSE_NO":"１８號","E_COORD97":190663.75,"N_COORD97":2583205.4199999999,"ADDRESS":"外角１８號","OBJECTID":199297},"geometry":{"x":190663.75,"y":2583205.4200000018}},{"attributes":{"ID":199299,"DIS_CODE":0,"TOWNNAME":"白河區","LI":"外角里","LIN":"3鄰","STREET":" ","SECT":" ","MAREA":"外角","LANE":" ","ALLEY":" ","HOUSE_NO":"１９之１號","E_COORD97":190691.26000000001,"N_COORD97":2583185.0499999998,"ADDRESS":"外角１９之１號","OBJECTID":199298},"geometry":{"x":190691.26000000164,"y":2583185.0500000026}},{"attributes":{"ID":199300,"DIS_CODE":0,"TOWNNAME":"中西區","LI":"天后里","LIN":"9鄰","STREET":"民族路","SECT":"二段","MAREA":" ","LANE":" ","ALLEY":" ","HOUSE_NO":"４０７號","E_COORD97":168082.48000000001,"N_COORD97":2544199.1200000001,"ADDRESS":"民族路二段４０７號","OBJECTID":199299},"geometry":{"x":168082.48000000138,"y":2544199.1200000029}},{"attributes":{"ID":199301,"DIS_CODE":0,"TOWNNAME":"中西區","LI":"天后里","LIN":"9鄰","STREET":"民族路","SECT":"二段","MAREA":" ","LANE":" ","ALLEY":" ","HOUSE_NO":"４０９號","E_COORD97":168075.64000000001,"N_COORD97":2544200.46,"ADDRESS":"民族路二段４０９號","OBJECTID":199300},"geometry":{"x":168075.63999999966,"y":2544200.4600000009}},{"attributes":{"ID":199302,"DIS_CODE":0,"TOWNNAME":"永康區","LI":"西勢里","LIN":"18鄰","STREET":"富強路","SECT":"一段","MAREA":" ","LANE":"２巷","ALLEY":"８弄","HOUSE_NO":"４號","E_COORD97":175457.17000000001,"N_COORD97":2545976.5499999998,"ADDRESS":"富強路一段２巷８弄４號","OBJECTID":199301},"geometry":{"x":175457.16999999993,"y":2545976.5500000007}},{"attributes":{"ID":199303,"DIS_CODE":0,"TOWNNAME":"中西區","LI":"天后里","LIN":"9鄰","STREET":"民族路","SECT":"二段","MAREA":" ","LANE":" ","ALLEY":" ","HOUSE_NO":"４１１號","E_COORD97":168067.72,"N_COORD97":2544203.1400000001,"ADDRESS":"民族路二段４１１號","OBJECTID":199302},"geometry":{"x":168067.72000000067,"y":2544203.1400000006}},{"attributes":{"ID":199304,"DIS_CODE":0,"TOWNNAME":"中西區","LI":"天后里","LIN":"9鄰","STREET":"新美街","SECT":" ","MAREA":" ","LANE":" ","ALLEY":" ","HOUSE_NO":"１０１號","E_COORD97":168060.32999999999,"N_COORD97":2544122.4900000002,"ADDRESS":"新美街１０１號","OBJECTID":199303},"geometry":{"x":168060.33000000194,"y":2544122.4900000002}},{"attributes":{"ID":199305,"DIS_CODE":0,"TOWNNAME":"白河區","LI":"外角里","LIN":"3鄰","STREET":" ","SECT":" ","MAREA":"外角","LANE":" ","ALLEY":" ","HOUSE_NO":"１９號","E_COORD97":190669.38,"N_COORD97":2583175.6299999999,"ADDRESS":"外角１９號","OBJECTID":199304},"geometry":{"x":190669.37999999989,"y":2583175.6300000008}},{"attributes":{"ID":199306,"DIS_CODE":0,"TOWNNAME":"白河區","LI":"甘宅里","LIN":"3鄰","STREET":" ","SECT":" ","MAREA":"甘宅","LANE":" ","ALLEY":" ","HOUSE_NO":"２６之１號","E_COORD97":192817.51000000001,"N_COORD97":2586701.29,"ADDRESS":"甘宅２６之１號","OBJECTID":199305},"geometry":{"x":192817.51000000071,"y":2586701.2899999991}},{"attributes":{"ID":199307,"DIS_CODE":0,"TOWNNAME":"白河區","LI":"甘宅里","LIN":"3鄰","STREET":" ","SECT":" ","MAREA":"甘宅","LANE":" ","ALLEY":" ","HOUSE_NO":"２６之３號","E_COORD97":192848.53,"N_COORD97":2586707.27,"ADDRESS":"甘宅２６之３號","OBJECTID":199306},"geometry":{"x":192848.53000000119,"y":2586707.2700000014}},{"attributes":{"ID":199308,"DIS_CODE":0,"TOWNNAME":"安南區","LI":"安順里","LIN":"9鄰","STREET":"安和路","SECT":"四段","MAREA":" ","LANE":" ","ALLEY":" ","HOUSE_NO":"９９號","E_COORD97":169928.31,"N_COORD97":2550342.1699999999,"ADDRESS":"安和路四段９９號","OBJECTID":199307},"geometry":{"x":169928.31000000052,"y":2550342.1699999999}},{"attributes":{"ID":199309,"DIS_CODE":0,"TOWNNAME":"安南區","LI":"佃西里","LIN":"9鄰","STREET":"海佃路","SECT":"四段","MAREA":" ","LANE":" ","ALLEY":" ","HOUSE_NO":"５５１號","E_COORD97":165144.19,"N_COORD97":2551628.5,"ADDRESS":"海佃路四段５５１號","OBJECTID":199308},"geometry":{"x":165144.19000000227,"y":2551628.5}},{"attributes":{"ID":199310,"DIS_CODE":0,"TOWNNAME":"安南區","LI":"佃西里","LIN":"9鄰","STREET":"公學路","SECT":"四段","MAREA":" ","LANE":" ","ALLEY":" ","HOUSE_NO":"３８６號","E_COORD97":165138.82999999999,"N_COORD97":2551710.5499999998,"ADDRESS":"公學路四段３８６號","OBJECTID":199309},"geometry":{"x":165138.83000000007,"y":2551710.5500000045}},{"attributes":{"ID":199311,"DIS_CODE":0,"TOWNNAME":"永康區","LI":"尚頂里","LIN":"18鄰","STREET":"南台街","SECT":" ","MAREA":" ","LANE":"５４巷","ALLEY":"１６弄","HOUSE_NO":"３號","E_COORD97":170373.81,"N_COORD97":2547090.4900000002,"ADDRESS":"南台街５４巷１６弄３號","OBJECTID":199310},"geometry":{"x":170373.81000000145,"y":2547090.4900000021}},{"attributes":{"ID":199312,"DIS_CODE":0,"TOWNNAME":"東區","LI":"新東里","LIN":"18鄰","STREET":"裕豐街","SECT":" ","MAREA":" ","LANE":"１８５巷","ALLEY":"７弄","HOUSE_NO":"３號","E_COORD97":170765.57999999999,"N_COORD97":2543179.8199999998,"ADDRESS":"裕豐街１８５巷７弄３號","OBJECTID":199311},"geometry":{"x":170765.58000000007,"y":2543179.8200000022}},{"attributes":{"ID":199313,"DIS_CODE":0,"TOWNNAME":"東區","LI":"新東里","LIN":"18鄰","STREET":"裕豐街","SECT":" ","MAREA":" ","LANE":"１８５巷","ALLEY":"７弄","HOUSE_NO":"４號","E_COORD97":170751.51999999999,"N_COORD97":2543176.0499999998,"ADDRESS":"裕豐街１８５巷７弄４號","OBJECTID":199312},"geometry":{"x":170751.51999999955,"y":2543176.0500000007}},{"attributes":{"ID":199314,"DIS_CODE":0,"TOWNNAME":"東區","LI":"新東里","LIN":"18鄰","STREET":"裕豐街","SECT":" ","MAREA":" ","LANE":"１８５巷","ALLEY":"７弄","HOUSE_NO":"５號","E_COORD97":170766.32000000001,"N_COORD97":2543176.1499999999,"ADDRESS":"裕豐街１８５巷７弄５號","OBJECTID":199313},"geometry":{"x":170766.32000000123,"y":2543176.1500000041}},{"attributes":{"ID":199315,"DIS_CODE":0,"TOWNNAME":"東區","LI":"新東里","LIN":"18鄰","STREET":"裕豐街","SECT":" ","MAREA":" ","LANE":"１８５巷","ALLEY":"７弄","HOUSE_NO":"６號","E_COORD97":170752.26000000001,"N_COORD97":2543172.8999999999,"ADDRESS":"裕豐街１８５巷７弄６號","OBJECTID":199314},"geometry":{"x":170752.25999999885,"y":2543172.9000000004}},{"attributes":{"ID":199316,"DIS_CODE":0,"TOWNNAME":"東區","LI":"新東里","LIN":"18鄰","STREET":"裕豐街","SECT":" ","MAREA":" ","LANE":"１８５巷","ALLEY":"７弄","HOUSE_NO":"８號","E_COORD97":170753.20000000001,"N_COORD97":2543169.1299999999,"ADDRESS":"裕豐街１８５巷７弄８號","OBJECTID":199315},"geometry":{"x":170753.20000000205,"y":2543169.1300000008}},{"attributes":{"ID":199317,"DIS_CODE":0,"TOWNNAME":"東區","LI":"新東里","LIN":"18鄰","STREET":"裕豐街","SECT":" ","MAREA":" ","LANE":"１８５巷","ALLEY":"７弄","HOUSE_NO":"９號","E_COORD97":170768.10000000001,"N_COORD97":2543169.4399999999,"ADDRESS":"裕豐街１８５巷７弄９號","OBJECTID":199316},"geometry":{"x":170768.09999999963,"y":2543169.4399999995}},{"attributes":{"ID":199318,"DIS_CODE":0,"TOWNNAME":"安南區","LI":"佃西里","LIN":"9鄰","STREET":"公學路","SECT":"四段","MAREA":" ","LANE":" ","ALLEY":" ","HOUSE_NO":"４０４號","E_COORD97":165108.76000000001,"N_COORD97":2551710.54,"ADDRESS":"公學路四段４０４號","OBJECTID":199317},"geometry":{"x":165108.75999999978,"y":2551710.540000001}},{"attributes":{"ID":199319,"DIS_CODE":0,"TOWNNAME":"安南區","LI":"佃西里","LIN":"9鄰","STREET":"公學路","SECT":"四段","MAREA":" ","LANE":" ","ALLEY":" ","HOUSE_NO":"３２８號","E_COORD97":165281.04999999999,"N_COORD97":2551769.2000000002,"ADDRESS":"公學路四段３２８號","OBJECTID":199318},"geometry":{"x":165281.04999999981,"y":2551769.200000003}},{"attributes":{"ID":199320,"DIS_CODE":0,"TOWNNAME":"南區","LI":"新昌里","LIN":"19鄰","STREET":"西門路","SECT":"一段","MAREA":" ","LANE":" ","ALLEY":" ","HOUSE_NO":"６７５號","E_COORD97":167693.04999999999,"N_COORD97":2543023.0699999998,"ADDRESS":"西門路一段６７５號","OBJECTID":199319},"geometry":{"x":167693.05000000075,"y":2543023.0700000003}},{"attributes":{"ID":199321,"DIS_CODE":0,"TOWNNAME":"南區","LI":"新昌里","LIN":"19鄰","STREET":"西門路","SECT":"一段","MAREA":" ","LANE":" ","ALLEY":" ","HOUSE_NO":"６７７號","E_COORD97":167686.94,"N_COORD97":2543023.0699999998,"ADDRESS":"西門路一段６７７號","OBJECTID":199320},"geometry":{"x":167686.94000000227,"y":2543023.0700000003}},{"attributes":{"ID":199322,"DIS_CODE":0,"TOWNNAME":"南區","LI":"新昌里","LIN":"19鄰","STREET":"西門路","SECT":"一段","MAREA":" ","LANE":" ","ALLEY":" ","HOUSE_NO":"６７９號","E_COORD97":167680.17999999999,"N_COORD97":2543029.5,"ADDRESS":"西門路一段６７９號","OBJECTID":199321},"geometry":{"x":167680.18000000063,"y":2543029.5}},{"attributes":{"ID":199323,"DIS_CODE":0,"TOWNNAME":"仁德區","LI":"仁愛里","LIN":"18鄰","STREET":"保仁路","SECT":" ","MAREA":" ","LANE":"１２０巷","ALLEY":"１１６弄","HOUSE_NO":"６號","E_COORD97":170175.63,"N_COORD97":2540246.8199999998,"ADDRESS":"保仁路１２０巷１１６弄６號","OBJECTID":199322},"geometry":{"x":170175.63000000082,"y":2540246.8200000022}},{"attributes":{"ID":199324,"DIS_CODE":0,"TOWNNAME":"東區","LI":"新東里","LIN":"18鄰","STREET":"裕豐街","SECT":" ","MAREA":" ","LANE":"１８５巷","ALLEY":"７弄","HOUSE_NO":"７號","E_COORD97":170767.26000000001,"N_COORD97":2543172.5899999999,"ADDRESS":"裕豐街１８５巷７弄７號","OBJECTID":199323},"geometry":{"x":170767.25999999978,"y":2543172.5900000036}},{"attributes":{"ID":199325,"DIS_CODE":0,"TOWNNAME":"東區","LI":"新東里","LIN":"18鄰","STREET":"裕豐街","SECT":" ","MAREA":" ","LANE":"１８５巷","ALLEY":"１７弄","HOUSE_NO":"１２號","E_COORD97":170730.48999999999,"N_COORD97":2543157.23,"ADDRESS":"裕豐街１８５巷１７弄１２號","OBJECTID":199324},"geometry":{"x":170730.49000000022,"y":2543157.2300000004}},{"attributes":{"ID":199326,"DIS_CODE":0,"TOWNNAME":"東區","LI":"大學里","LIN":"18鄰","STREET":"長榮路","SECT":"三段","MAREA":" ","LANE":"６６巷","ALLEY":"１０弄","HOUSE_NO":"３號","E_COORD97":170256.04999999999,"N_COORD97":2543776.8500000001,"ADDRESS":"長榮路三段６６巷１０弄３號","OBJECTID":199325},"geometry":{"x":170256.05000000075,"y":2543776.8499999996}},{"attributes":{"ID":199327,"DIS_CODE":0,"TOWNNAME":"安南區","LI":"安東里","LIN":"18鄰","STREET":"安和路","SECT":"一段","MAREA":" ","LANE":"４９６巷","ALLEY":"１弄","HOUSE_NO":"６３號","E_COORD97":169627.17000000001,"N_COORD97":2548507.1800000002,"ADDRESS":"安和路一段４９６巷１弄６３號","OBJECTID":199326},"geometry":{"x":169627.16999999993,"y":2548507.1799999997}},{"attributes":{"ID":199328,"DIS_CODE":0,"TOWNNAME":"安南區","LI":"安東里","LIN":"18鄰","STREET":"安和路","SECT":"一段","MAREA":" ","LANE":"４９６巷","ALLEY":"１弄","HOUSE_NO":"５７號","E_COORD97":169613.62,"N_COORD97":2548507.4399999999,"ADDRESS":"安和路一段４９６巷１弄５７號","OBJECTID":199327},"geometry":{"x":169613.62000000104,"y":2548507.4400000013}},{"attributes":{"ID":199329,"DIS_CODE":0,"TOWNNAME":"安南區","LI":"安東里","LIN":"18鄰","STREET":"安和路","SECT":"一段","MAREA":" ","LANE":"４９６巷","ALLEY":"１弄","HOUSE_NO":"４７號","E_COORD97":169591.12,"N_COORD97":2548505.7599999998,"ADDRESS":"安和路一段４９６巷１弄４７號","OBJECTID":199328},"geometry":{"x":169591.12000000104,"y":2548505.7600000016}},{"attributes":{"ID":199330,"DIS_CODE":0,"TOWNNAME":"安南區","LI":"安東里","LIN":"18鄰","STREET":"安和路","SECT":"一段","MAREA":" ","LANE":"４９６巷","ALLEY":"１弄","HOUSE_NO":"２５號","E_COORD97":169542.35999999999,"N_COORD97":2548501.02,"ADDRESS":"安和路一段４９６巷１弄２５號","OBJECTID":199329},"geometry":{"x":169542.36000000127,"y":2548501.0199999996}},{"attributes":{"ID":199331,"DIS_CODE":0,"TOWNNAME":"南區","LI":"新昌里","LIN":"19鄰","STREET":"西門路","SECT":"一段","MAREA":" ","LANE":" ","ALLEY":" ","HOUSE_NO":"６８１號","E_COORD97":167705.26999999999,"N_COORD97":2543033.6800000002,"ADDRESS":"西門路一段６８１號","OBJECTID":199330},"geometry":{"x":167705.26999999955,"y":2543033.6800000016}},{"attributes":{"ID":199332,"DIS_CODE":0,"TOWNNAME":"南區","LI":"新昌里","LIN":"19鄰","STREET":"西門路","SECT":"一段","MAREA":" ","LANE":" ","ALLEY":" ","HOUSE_NO":"６８３號","E_COORD97":167705.26999999999,"N_COORD97":2543043.3199999998,"ADDRESS":"西門路一段６８３號","OBJECTID":199331},"geometry":{"x":167705.26999999955,"y":2543043.3200000022}},{"attributes":{"ID":199333,"DIS_CODE":0,"TOWNNAME":"南區","LI":"新昌里","LIN":"20鄰","STREET":"大德街","SECT":" ","MAREA":" ","LANE":" ","ALLEY":" ","HOUSE_NO":"１２３號","E_COORD97":167553.57000000001,"N_COORD97":2543070.0800000001,"ADDRESS":"大德街１２３號","OBJECTID":199332},"geometry":{"x":167553.5700000003,"y":2543070.0800000001}},{"attributes":{"ID":199334,"DIS_CODE":0,"TOWNNAME":"南區","LI":"彰南里","LIN":"14鄰","STREET":"新愛路","SECT":" ","MAREA":" ","LANE":" ","ALLEY":" ","HOUSE_NO":"２３號","E_COORD97":165919.64999999999,"N_COORD97":2541680.8199999998,"ADDRESS":"新愛路２３號","OBJECTID":199333},"geometry":{"x":165919.6500000013,"y":2541680.8200000022}},{"attributes":{"ID":199335,"DIS_CODE":0,"TOWNNAME":"大內區","LI":"內郭里","LIN":"9鄰","STREET":" ","SECT":" ","MAREA":"後堀","LANE":" ","ALLEY":" ","HOUSE_NO":"２８號","E_COORD97":185681.95999999999,"N_COORD97":2557342.3199999998,"ADDRESS":"後堀２８號","OBJECTID":199334},"geometry":{"x":185681.95999999996,"y":2557342.3200000003}},{"attributes":{"ID":199336,"DIS_CODE":0,"TOWNNAME":"白河區","LI":"甘宅里","LIN":"3鄰","STREET":" ","SECT":" ","MAREA":"甘宅","LANE":" ","ALLEY":" ","HOUSE_NO":"３１號","E_COORD97":192827.25,"N_COORD97":2586775.1299999999,"ADDRESS":"甘宅３１號","OBJECTID":199335},"geometry":{"x":192827.25,"y":2586775.1300000027}},{"attributes":{"ID":199337,"DIS_CODE":0,"TOWNNAME":"白河區","LI":"甘宅里","LIN":"3鄰","STREET":" ","SECT":" ","MAREA":"甘宅","LANE":" ","ALLEY":" ","HOUSE_NO":"３２號","E_COORD97":192795.25,"N_COORD97":2586810,"ADDRESS":"甘宅３２號","OBJECTID":199336},"geometry":{"x":192795.25000000186,"y":2586810}},{"attributes":{"ID":199338,"DIS_CODE":0,"TOWNNAME":"白河區","LI":"甘宅里","LIN":"3鄰","STREET":" ","SECT":" ","MAREA":"甘宅","LANE":" ","ALLEY":" ","HOUSE_NO":"３３號","E_COORD97":192805.63,"N_COORD97":2586784.73,"ADDRESS":"甘宅３３號","OBJECTID":199337},"geometry":{"x":192805.62999999989,"y":2586784.7300000004}},{"attributes":{"ID":199339,"DIS_CODE":0,"TOWNNAME":"安南區","LI":"城北里","LIN":"9鄰","STREET":"城北路","SECT":" ","MAREA":" ","LANE":" ","ALLEY":" ","HOUSE_NO":"８９號","E_COORD97":160978.75,"N_COORD97":2551589.8999999999,"ADDRESS":"城北路８９號","OBJECTID":199338},"geometry":{"x":160978.75000000093,"y":2551589.9000000022}},{"attributes":{"ID":199340,"DIS_CODE":0,"TOWNNAME":"安南區","LI":"城北里","LIN":"9鄰","STREET":"城北路","SECT":" ","MAREA":" ","LANE":" ","ALLEY":" ","HOUSE_NO":"７７號","E_COORD97":160965.26000000001,"N_COORD97":2551572.5899999999,"ADDRESS":"城北路７７號","OBJECTID":199339},"geometry":{"x":160965.25999999978,"y":2551572.5899999999}},{"attributes":{"ID":199341,"DIS_CODE":0,"TOWNNAME":"安南區","LI":"安富里","LIN":"18鄰","STREET":"安富街","SECT":" ","MAREA":" ","LANE":"１９９巷","ALLEY":"４弄","HOUSE_NO":"２號","E_COORD97":167693.67999999999,"N_COORD97":2547409.6600000001,"ADDRESS":"安富街１９９巷４弄２號","OBJECTID":199340},"geometry":{"x":167693.68000000063,"y":2547409.6600000001}},{"attributes":{"ID":199342,"DIS_CODE":0,"TOWNNAME":"白河區","LI":"甘宅里","LIN":"3鄰","STREET":" ","SECT":" ","MAREA":"甘宅","LANE":" ","ALLEY":" ","HOUSE_NO":"３６號","E_COORD97":192791.57999999999,"N_COORD97":2586769.0099999998,"ADDRESS":"甘宅３６號","OBJECTID":199341},"geometry":{"x":192791.58000000101,"y":2586769.0099999998}},{"attributes":{"ID":199343,"DIS_CODE":0,"TOWNNAME":"白河區","LI":"甘宅里","LIN":"3鄰","STREET":" ","SECT":" ","MAREA":"甘宅","LANE":" ","ALLEY":" ","HOUSE_NO":"３７號","E_COORD97":192780.69,"N_COORD97":2586770.2599999998,"ADDRESS":"甘宅３７號","OBJECTID":199342},"geometry":{"x":192780.69000000041,"y":2586770.2599999998}},{"attributes":{"ID":199344,"DIS_CODE":0,"TOWNNAME":"白河區","LI":"甘宅里","LIN":"3鄰","STREET":" ","SECT":" ","MAREA":"甘宅","LANE":" ","ALLEY":" ","HOUSE_NO":"３９號","E_COORD97":192745.54000000001,"N_COORD97":2586784.6699999999,"ADDRESS":"甘宅３９號","OBJECTID":199343},"geometry":{"x":192745.54000000004,"y":2586784.6699999999}},{"attributes":{"ID":199345,"DIS_CODE":0,"TOWNNAME":"官田區","LI":"渡頭里","LIN":"3鄰","STREET":" ","SECT":" ","MAREA":"渡子頭","LANE":" ","ALLEY":" ","HOUSE_NO":"２３號","E_COORD97":181397.10000000001,"N_COORD97":2563119.7200000002,"ADDRESS":"渡子頭２３號","OBJECTID":199344},"geometry":{"x":181397.09999999963,"y":2563119.7200000025}},{"attributes":{"ID":199346,"DIS_CODE":0,"TOWNNAME":"官田區","LI":"渡頭里","LIN":"3鄰","STREET":" ","SECT":" ","MAREA":"渡子頭","LANE":" ","ALLEY":" ","HOUSE_NO":"２４號","E_COORD97":181376.20999999999,"N_COORD97":2563116.96,"ADDRESS":"渡子頭２４號","OBJECTID":199345},"geometry":{"x":181376.20999999996,"y":2563116.9600000028}},{"attributes":{"ID":199347,"DIS_CODE":0,"TOWNNAME":"官田區","LI":"渡頭里","LIN":"3鄰","STREET":" ","SECT":" ","MAREA":"渡子頭","LANE":" ","ALLEY":" ","HOUSE_NO":"２５號","E_COORD97":181347.22,"N_COORD97":2563129.5299999998,"ADDRESS":"渡子頭２５號","OBJECTID":199346},"geometry":{"x":181347.21999999974,"y":2563129.5300000012}},{"attributes":{"ID":199348,"DIS_CODE":0,"TOWNNAME":"官田區","LI":"渡頭里","LIN":"3鄰","STREET":" ","SECT":" ","MAREA":"渡子頭","LANE":" ","ALLEY":" ","HOUSE_NO":"２６號之１","E_COORD97":181326.87,"N_COORD97":2563103.77,"ADDRESS":"渡子頭２６號之１","OBJECTID":199347},"geometry":{"x":181326.87000000104,"y":2563103.7700000014}},{"attributes":{"ID":199349,"DIS_CODE":0,"TOWNNAME":"官田區","LI":"渡頭里","LIN":"3鄰","STREET":" ","SECT":" ","MAREA":"渡子頭","LANE":" ","ALLEY":" ","HOUSE_NO":"２６號","E_COORD97":181334.62,"N_COORD97":2563110.9100000001,"ADDRESS":"渡子頭２６號","OBJECTID":199348},"geometry":{"x":181334.62000000011,"y":2563110.910000002}},{"attributes":{"ID":199350,"DIS_CODE":0,"TOWNNAME":"官田區","LI":"渡頭里","LIN":"3鄰","STREET":" ","SECT":" ","MAREA":"渡子頭","LANE":" ","ALLEY":" ","HOUSE_NO":"２７號之１","E_COORD97":181367.67000000001,"N_COORD97":2563078.9900000002,"ADDRESS":"渡子頭２７號之１","OBJECTID":199349},"geometry":{"x":181367.66999999993,"y":2563078.9900000021}},{"attributes":{"ID":199351,"DIS_CODE":0,"TOWNNAME":"官田區","LI":"渡頭里","LIN":"3鄰","STREET":" ","SECT":" ","MAREA":"渡子頭","LANE":" ","ALLEY":" ","HOUSE_NO":"２７號","E_COORD97":181392.01999999999,"N_COORD97":2563109.3700000001,"ADDRESS":"渡子頭２７號","OBJECTID":199350},"geometry":{"x":181392.01999999955,"y":2563109.370000001}},{"attributes":{"ID":199352,"DIS_CODE":0,"TOWNNAME":"官田區","LI":"渡頭里","LIN":"3鄰","STREET":" ","SECT":" ","MAREA":"渡子頭","LANE":" ","ALLEY":" ","HOUSE_NO":"２９號之１","E_COORD97":181327.89999999999,"N_COORD97":2563061.1600000001,"ADDRESS":"渡子頭２９號之１","OBJECTID":199351},"geometry":{"x":181327.90000000037,"y":2563061.160000002}},{"attributes":{"ID":199353,"DIS_CODE":0,"TOWNNAME":"官田區","LI":"渡頭里","LIN":"3鄰","STREET":" ","SECT":" ","MAREA":"渡子頭","LANE":" ","ALLEY":" ","HOUSE_NO":"２９號","E_COORD97":181325.10000000001,"N_COORD97":2563080.3599999999,"ADDRESS":"渡子頭２９號","OBJECTID":199352},"geometry":{"x":181325.10000000056,"y":2563080.3599999994}},{"attributes":{"ID":199354,"DIS_CODE":0,"TOWNNAME":"七股區","LI":"後港里","LIN":"3鄰","STREET":" ","SECT":" ","MAREA":"港東","LANE":" ","ALLEY":" ","HOUSE_NO":"３１號","E_COORD97":162962.29999999999,"N_COORD97":2565248.6400000001,"ADDRESS":"港東３１號","OBJECTID":199353},"geometry":{"x":162962.29999999981,"y":2565248.6400000025}},{"attributes":{"ID":199355,"DIS_CODE":0,"TOWNNAME":"安南區","LI":"安富里","LIN":"18鄰","STREET":"安富街","SECT":" ","MAREA":" ","LANE":"１９９巷","ALLEY":"４弄","HOUSE_NO":"１４號","E_COORD97":167650.54999999999,"N_COORD97":2547402.5600000001,"ADDRESS":"安富街１９９巷４弄１４號","OBJECTID":199354},"geometry":{"x":167650.55000000075,"y":2547402.5600000024}},{"attributes":{"ID":199356,"DIS_CODE":0,"TOWNNAME":"官田區","LI":"嘉南里","LIN":"3鄰","STREET":" ","SECT":" ","MAREA":"嘉南","LANE":" ","ALLEY":" ","HOUSE_NO":"１９號","E_COORD97":184751.01000000001,"N_COORD97":2568106.5499999998,"ADDRESS":"嘉南１９號","OBJECTID":199355},"geometry":{"x":184751.00999999978,"y":2568106.5500000045}},{"attributes":{"ID":199357,"DIS_CODE":0,"TOWNNAME":"官田區","LI":"嘉南里","LIN":"3鄰","STREET":" ","SECT":" ","MAREA":"嘉南","LANE":" ","ALLEY":" ","HOUSE_NO":"２０號","E_COORD97":184773.84,"N_COORD97":2568105.3900000001,"ADDRESS":"嘉南２０號","OBJECTID":199356},"geometry":{"x":184773.83999999985,"y":2568105.3900000025}},{"attributes":{"ID":199358,"DIS_CODE":0,"TOWNNAME":"官田區","LI":"嘉南里","LIN":"3鄰","STREET":" ","SECT":" ","MAREA":"嘉南","LANE":" ","ALLEY":" ","HOUSE_NO":"２１號","E_COORD97":184804.38,"N_COORD97":2568103.1899999999,"ADDRESS":"嘉南２１號","OBJECTID":199357},"geometry":{"x":184804.37999999989,"y":2568103.1899999995}},{"attributes":{"ID":199359,"DIS_CODE":0,"TOWNNAME":"安南區","LI":"安富里","LIN":"18鄰","STREET":"安富街","SECT":" ","MAREA":" ","LANE":"１９９巷","ALLEY":"４弄","HOUSE_NO":"１６號","E_COORD97":167644.35999999999,"N_COORD97":2547400.0499999998,"ADDRESS":"安富街１９９巷４弄１６號","OBJECTID":199358},"geometry":{"x":167644.36000000034,"y":2547400.0500000007}},{"attributes":{"ID":199360,"DIS_CODE":0,"TOWNNAME":"安南區","LI":"安富里","LIN":"18鄰","STREET":"安富街","SECT":" ","MAREA":" ","LANE":"１９９巷","ALLEY":"５弄","HOUSE_NO":"１１號","E_COORD97":167736.35000000001,"N_COORD97":2547420.0099999998,"ADDRESS":"安富街１９９巷５弄１１號","OBJECTID":199359},"geometry":{"x":167736.35000000056,"y":2547420.0099999998}},{"attributes":{"ID":199361,"DIS_CODE":0,"TOWNNAME":"東區","LI":"富強里","LIN":"18鄰","STREET":"東門路","SECT":"二段","MAREA":" ","LANE":"３０１巷","ALLEY":"１１５弄","HOUSE_NO":"１１號","E_COORD97":171019.12,"N_COORD97":2542773.4300000002,"ADDRESS":"東門路二段３０１巷１１５弄１１號","OBJECTID":199360},"geometry":{"x":171019.12000000011,"y":2542773.4300000034}},{"attributes":{"ID":199362,"DIS_CODE":0,"TOWNNAME":"官田區","LI":"嘉南里","LIN":"3鄰","STREET":" ","SECT":" ","MAREA":"嘉南","LANE":" ","ALLEY":" ","HOUSE_NO":"２２號之１","E_COORD97":184823.69,"N_COORD97":2568072.8799999999,"ADDRESS":"嘉南２２號之１","OBJECTID":199361},"geometry":{"x":184823.69000000227,"y":2568072.8800000008}},{"attributes":{"ID":199363,"DIS_CODE":0,"TOWNNAME":"官田區","LI":"嘉南里","LIN":"3鄰","STREET":" ","SECT":" ","MAREA":"嘉南","LANE":" ","ALLEY":" ","HOUSE_NO":"２２號","E_COORD97":184818.64000000001,"N_COORD97":2568093.8500000001,"ADDRESS":"嘉南２２號","OBJECTID":199362},"geometry":{"x":184818.6400000006,"y":2568093.8500000015}},{"attributes":{"ID":199364,"DIS_CODE":0,"TOWNNAME":"東區","LI":"富強里","LIN":"18鄰","STREET":"東門路","SECT":"二段","MAREA":" ","LANE":"３０１巷","ALLEY":"１１５弄","HOUSE_NO":"１２號","E_COORD97":171041.95999999999,"N_COORD97":2542779.1400000001,"ADDRESS":"東門路二段３０１巷１１５弄１２號","OBJECTID":199363},"geometry":{"x":171041.95999999996,"y":2542779.1400000006}},{"attributes":{"ID":199365,"DIS_CODE":0,"TOWNNAME":"東區","LI":"富強里","LIN":"18鄰","STREET":"東門路","SECT":"二段","MAREA":" ","LANE":"３０１巷","ALLEY":"１１５弄","HOUSE_NO":"１３號","E_COORD97":171019.20999999999,"N_COORD97":2542777.52,"ADDRESS":"東門路二段３０１巷１１５弄１３號","OBJECTID":199364},"geometry":{"x":171019.21000000089,"y":2542777.5200000014}},{"attributes":{"ID":199366,"DIS_CODE":0,"TOWNNAME":"官田區","LI":"嘉南里","LIN":"3鄰","STREET":" ","SECT":" ","MAREA":"嘉南","LANE":" ","ALLEY":" ","HOUSE_NO":"２３號之１","E_COORD97":184752.64999999999,"N_COORD97":2568082.4300000002,"ADDRESS":"嘉南２３號之１","OBJECTID":199365},"geometry":{"x":184752.65000000224,"y":2568082.4300000034}},{"attributes":{"ID":199367,"DIS_CODE":0,"TOWNNAME":"官田區","LI":"嘉南里","LIN":"3鄰","STREET":" ","SECT":" ","MAREA":"嘉南","LANE":" ","ALLEY":" ","HOUSE_NO":"２３號","E_COORD97":184770.32000000001,"N_COORD97":2568079.1699999999,"ADDRESS":"嘉南２３號","OBJECTID":199366},"geometry":{"x":184770.32000000123,"y":2568079.1700000018}},{"attributes":{"ID":199368,"DIS_CODE":0,"TOWNNAME":"官田區","LI":"嘉南里","LIN":"3鄰","STREET":" ","SECT":" ","MAREA":"嘉南","LANE":" ","ALLEY":" ","HOUSE_NO":"２４號之１","E_COORD97":184770.42000000001,"N_COORD97":2568060.5800000001,"ADDRESS":"嘉南２４號之１","OBJECTID":199367},"geometry":{"x":184770.41999999993,"y":2568060.5800000001}},{"attributes":{"ID":199369,"DIS_CODE":0,"TOWNNAME":"官田區","LI":"嘉南里","LIN":"3鄰","STREET":" ","SECT":" ","MAREA":"嘉南","LANE":" ","ALLEY":" ","HOUSE_NO":"２４號","E_COORD97":184750.39000000001,"N_COORD97":2568062.0099999998,"ADDRESS":"嘉南２４號","OBJECTID":199368},"geometry":{"x":184750.39000000153,"y":2568062.0100000016}},{"attributes":{"ID":199370,"DIS_CODE":0,"TOWNNAME":"官田區","LI":"嘉南里","LIN":"3鄰","STREET":" ","SECT":" ","MAREA":"嘉南","LANE":" ","ALLEY":" ","HOUSE_NO":"２５號之１","E_COORD97":184743.57999999999,"N_COORD97":2568026.5499999998,"ADDRESS":"嘉南２５號之１","OBJECTID":199369},"geometry":{"x":184743.58000000007,"y":2568026.5500000026}},{"attributes":{"ID":199371,"DIS_CODE":0,"TOWNNAME":"官田區","LI":"嘉南里","LIN":"3鄰","STREET":" ","SECT":" ","MAREA":"嘉南","LANE":" ","ALLEY":" ","HOUSE_NO":"２５號之２","E_COORD97":184750.69,"N_COORD97":2568029.79,"ADDRESS":"嘉南２５號之２","OBJECTID":199370},"geometry":{"x":184750.69000000227,"y":2568029.790000001}},{"attributes":{"ID":199372,"DIS_CODE":0,"TOWNNAME":"官田區","LI":"嘉南里","LIN":"3鄰","STREET":" ","SECT":" ","MAREA":"嘉南","LANE":" ","ALLEY":" ","HOUSE_NO":"２５號之５","E_COORD97":184760.62,"N_COORD97":2568028.1099999999,"ADDRESS":"嘉南２５號之５","OBJECTID":199371},"geometry":{"x":184760.62000000011,"y":2568028.1100000013}},{"attributes":{"ID":199373,"DIS_CODE":0,"TOWNNAME":"官田區","LI":"嘉南里","LIN":"3鄰","STREET":" ","SECT":" ","MAREA":"嘉南","LANE":" ","ALLEY":" ","HOUSE_NO":"２５號","E_COORD97":184738.32999999999,"N_COORD97":2568027.0899999999,"ADDRESS":"嘉南２５號","OBJECTID":199372},"geometry":{"x":184738.33000000101,"y":2568027.089999998}},{"attributes":{"ID":199374,"DIS_CODE":0,"TOWNNAME":"新市區","LI":"潭頂里","LIN":"3鄰","STREET":" ","SECT":" ","MAREA":"潭頂","LANE":" ","ALLEY":" ","HOUSE_NO":"１６６之７號","E_COORD97":180927.95000000001,"N_COORD97":2552859.2999999998,"ADDRESS":"潭頂１６６之７號","OBJECTID":199373},"geometry":{"x":180927.95000000112,"y":2552859.3000000026}},{"attributes":{"ID":199375,"DIS_CODE":0,"TOWNNAME":"新市區","LI":"豐華里","LIN":"3鄰","STREET":" ","SECT":" ","MAREA":"豐華","LANE":" ","ALLEY":" ","HOUSE_NO":"１５之１２號","E_COORD97":173972.84,"N_COORD97":2554186.5499999998,"ADDRESS":"豐華１５之１２號","OBJECTID":199374},"geometry":{"x":173972.84000000171,"y":2554186.5500000026}},{"attributes":{"ID":199376,"DIS_CODE":0,"TOWNNAME":"東區","LI":"富強里","LIN":"18鄰","STREET":"東門路","SECT":"二段","MAREA":" ","LANE":"３０１巷","ALLEY":"１１５弄","HOUSE_NO":"１４號","E_COORD97":171041.95999999999,"N_COORD97":2542783.2200000002,"ADDRESS":"東門路二段３０１巷１１５弄１４號","OBJECTID":199375},"geometry":{"x":171041.95999999996,"y":2542783.2200000025}},{"attributes":{"ID":199377,"DIS_CODE":0,"TOWNNAME":"東區","LI":"富強里","LIN":"18鄰","STREET":"東門路","SECT":"二段","MAREA":" ","LANE":"３０１巷","ALLEY":"１１５弄","HOUSE_NO":"１５號","E_COORD97":171019.04000000001,"N_COORD97":2542781.4900000002,"ADDRESS":"東門路二段３０１巷１１５弄１５號","OBJECTID":199376},"geometry":{"x":171019.04000000097,"y":2542781.4900000021}},{"attributes":{"ID":199378,"DIS_CODE":0,"TOWNNAME":"東區","LI":"富強里","LIN":"18鄰","STREET":"東門路","SECT":"二段","MAREA":" ","LANE":"３０１巷","ALLEY":"１１５弄","HOUSE_NO":"１６號","E_COORD97":171041.59,"N_COORD97":2542787.02,"ADDRESS":"東門路二段３０１巷１１５弄１６號","OBJECTID":199377},"geometry":{"x":171041.58999999985,"y":2542787.0200000014}},{"attributes":{"ID":199379,"DIS_CODE":0,"TOWNNAME":"仁德區","LI":"仁義里","LIN":"40鄰","STREET":"中正路","SECT":"二段","MAREA":" ","LANE":" ","ALLEY":" ","HOUSE_NO":"８５２號","E_COORD97":173463.42999999999,"N_COORD97":2540470.52,"ADDRESS":"中正路二段８５２號","OBJECTID":199378},"geometry":{"x":173463.43000000156,"y":2540470.5200000033}},{"attributes":{"ID":199380,"DIS_CODE":0,"TOWNNAME":"大內區","LI":"內郭里","LIN":"9鄰","STREET":" ","SECT":" ","MAREA":"後堀","LANE":" ","ALLEY":" ","HOUSE_NO":"３２之２號","E_COORD97":185695.63,"N_COORD97":2557267.5699999998,"ADDRESS":"後堀３２之２號","OBJECTID":199379},"geometry":{"x":185695.63000000082,"y":2557267.5700000022}},{"attributes":{"ID":199381,"DIS_CODE":0,"TOWNNAME":"東區","LI":"富強里","LIN":"18鄰","STREET":"東門路","SECT":"二段","MAREA":" ","LANE":"３０１巷","ALLEY":"１１５弄","HOUSE_NO":"１７號","E_COORD97":171018.32999999999,"N_COORD97":2542785.0299999998,"ADDRESS":"東門路二段３０１巷１１５弄１７號","OBJECTID":199380},"geometry":{"x":171018.33000000194,"y":2542785.0299999993}},{"attributes":{"ID":199382,"DIS_CODE":0,"TOWNNAME":"東區","LI":"富強里","LIN":"18鄰","STREET":"東門路","SECT":"二段","MAREA":" ","LANE":"３０１巷","ALLEY":"１１５弄","HOUSE_NO":"１８號","E_COORD97":171041.31,"N_COORD97":2542790.8199999998,"ADDRESS":"東門路二段３０１巷１１５弄１８號","OBJECTID":199381},"geometry":{"x":171041.30999999959,"y":2542790.8200000003}},{"attributes":{"ID":199383,"DIS_CODE":0,"TOWNNAME":"東區","LI":"富強里","LIN":"18鄰","STREET":"東門路","SECT":"二段","MAREA":" ","LANE":"３０１巷","ALLEY":"１１５弄","HOUSE_NO":"１９號","E_COORD97":171018.32999999999,"N_COORD97":2542789,"ADDRESS":"東門路二段３０１巷１１５弄１９號","OBJECTID":199382},"geometry":{"x":171018.33000000194,"y":2542789}},{"attributes":{"ID":199384,"DIS_CODE":0,"TOWNNAME":"東區","LI":"富強里","LIN":"18鄰","STREET":"東門路","SECT":"二段","MAREA":" ","LANE":"３０１巷","ALLEY":"１１５弄","HOUSE_NO":"１號","E_COORD97":171019.92000000001,"N_COORD97":2542753.3999999999,"ADDRESS":"東門路二段３０１巷１１５弄１號","OBJECTID":199383},"geometry":{"x":171019.92000000086,"y":2542753.4000000004}},{"attributes":{"ID":199385,"DIS_CODE":0,"TOWNNAME":"東區","LI":"富強里","LIN":"18鄰","STREET":"東門路","SECT":"二段","MAREA":" ","LANE":"３０１巷","ALLEY":"１１５弄","HOUSE_NO":"２０號","E_COORD97":171041.41,"N_COORD97":2542794.8100000001,"ADDRESS":"東門路二段３０１巷１１５弄２０號","OBJECTID":199384},"geometry":{"x":171041.41000000015,"y":2542794.8100000005}},{"attributes":{"ID":199386,"DIS_CODE":0,"TOWNNAME":"東區","LI":"富強里","LIN":"18鄰","STREET":"東門路","SECT":"二段","MAREA":" ","LANE":"３０１巷","ALLEY":"１１５弄","HOUSE_NO":"２１號","E_COORD97":171017.89000000001,"N_COORD97":2542793.5099999998,"ADDRESS":"東門路二段３０１巷１１５弄２１號","OBJECTID":199385},"geometry":{"x":171017.8900000006,"y":2542793.5100000016}},{"attributes":{"ID":199387,"DIS_CODE":0,"TOWNNAME":"東區","LI":"富強里","LIN":"18鄰","STREET":"東門路","SECT":"二段","MAREA":" ","LANE":"３０１巷","ALLEY":"１１５弄","HOUSE_NO":"２２號","E_COORD97":171040.48000000001,"N_COORD97":2542798.7999999998,"ADDRESS":"東門路二段３０１巷１１５弄２２號","OBJECTID":199386},"geometry":{"x":171040.48000000138,"y":2542798.8000000007}},{"attributes":{"ID":199388,"DIS_CODE":0,"TOWNNAME":"東區","LI":"富強里","LIN":"18鄰","STREET":"東門路","SECT":"二段","MAREA":" ","LANE":"３０１巷","ALLEY":"１１５弄","HOUSE_NO":"２３號","E_COORD97":171017.70999999999,"N_COORD97":2542797.2999999998,"ADDRESS":"東門路二段３０１巷１１５弄２３號","OBJECTID":199387},"geometry":{"x":171017.71000000089,"y":2542797.3000000026}},{"attributes":{"ID":199389,"DIS_CODE":0,"TOWNNAME":"東區","LI":"富強里","LIN":"18鄰","STREET":"東門路","SECT":"二段","MAREA":" ","LANE":"３０１巷","ALLEY":"１１５弄","HOUSE_NO":"２４號","E_COORD97":171040.57000000001,"N_COORD97":2542802.9700000002,"ADDRESS":"東門路二段３０１巷１１５弄２４號","OBJECTID":199388},"geometry":{"x":171040.5700000003,"y":2542802.9700000007}},{"attributes":{"ID":199390,"DIS_CODE":0,"TOWNNAME":"東區","LI":"富強里","LIN":"18鄰","STREET":"東門路","SECT":"二段","MAREA":" ","LANE":"３０１巷","ALLEY":"１１５弄","HOUSE_NO":"２５號","E_COORD97":171017.53,"N_COORD97":2542801.0099999998,"ADDRESS":"東門路二段３０１巷１１５弄２５號","OBJECTID":199389},"geometry":{"x":171017.53000000119,"y":2542801.0100000016}},{"attributes":{"ID":199391,"DIS_CODE":0,"TOWNNAME":"東區","LI":"富強里","LIN":"18鄰","STREET":"東門路","SECT":"二段","MAREA":" ","LANE":"３０１巷","ALLEY":"１１５弄","HOUSE_NO":"２６號","E_COORD97":171039.45999999999,"N_COORD97":2542806.5899999999,"ADDRESS":"東門路二段３０１巷１１５弄２６號","OBJECTID":199390},"geometry":{"x":171039.46000000183,"y":2542806.5900000036}},{"attributes":{"ID":199392,"DIS_CODE":0,"TOWNNAME":"東區","LI":"富強里","LIN":"18鄰","STREET":"東門路","SECT":"二段","MAREA":" ","LANE":"３０１巷","ALLEY":"１１５弄","HOUSE_NO":"２７號","E_COORD97":171017,"N_COORD97":2542805.0499999998,"ADDRESS":"東門路二段３０１巷１１５弄２７號","OBJECTID":199391},"geometry":{"x":171017,"y":2542805.0500000026}},{"attributes":{"ID":199393,"DIS_CODE":0,"TOWNNAME":"東區","LI":"富強里","LIN":"18鄰","STREET":"東門路","SECT":"二段","MAREA":" ","LANE":"３０１巷","ALLEY":"１１５弄","HOUSE_NO":"２８號","E_COORD97":171039.17999999999,"N_COORD97":2542810.4900000002,"ADDRESS":"東門路二段３０１巷１１５弄２８號","OBJECTID":199392},"geometry":{"x":171039.1799999997,"y":2542810.4900000002}},{"attributes":{"ID":199394,"DIS_CODE":0,"TOWNNAME":"東區","LI":"富強里","LIN":"18鄰","STREET":"東門路","SECT":"二段","MAREA":" ","LANE":"３０１巷","ALLEY":"１１５弄","HOUSE_NO":"２９號","E_COORD97":171016.47,"N_COORD97":2542809.1099999999,"ADDRESS":"東門路二段３０１巷１１５弄２９號","OBJECTID":199393},"geometry":{"x":171016.46999999974,"y":2542809.1100000031}},{"attributes":{"ID":199395,"DIS_CODE":0,"TOWNNAME":"東區","LI":"富強里","LIN":"18鄰","STREET":"東門路","SECT":"二段","MAREA":" ","LANE":"３０１巷","ALLEY":"１１５弄","HOUSE_NO":"２號","E_COORD97":171043.35999999999,"N_COORD97":2542759.3799999999,"ADDRESS":"東門路二段３０１巷１１５弄２號","OBJECTID":199394},"geometry":{"x":171043.36000000034,"y":2542759.3800000027}},{"attributes":{"ID":199396,"DIS_CODE":0,"TOWNNAME":"東區","LI":"富強里","LIN":"18鄰","STREET":"東門路","SECT":"二段","MAREA":" ","LANE":"３０１巷","ALLEY":"１１５弄","HOUSE_NO":"３１號","E_COORD97":171015.5,"N_COORD97":2542813.2599999998,"ADDRESS":"東門路二段３０１巷１１５弄３１號","OBJECTID":199395},"geometry":{"x":171015.50000000186,"y":2542813.2600000016}},{"attributes":{"ID":199397,"DIS_CODE":0,"TOWNNAME":"東區","LI":"富強里","LIN":"18鄰","STREET":"東門路","SECT":"二段","MAREA":" ","LANE":"３０１巷","ALLEY":"１１５弄","HOUSE_NO":"３號","E_COORD97":171020.01000000001,"N_COORD97":2542757.02,"ADDRESS":"東門路二段３０１巷１１５弄３號","OBJECTID":199396},"geometry":{"x":171020.00999999978,"y":2542757.0200000014}},{"attributes":{"ID":199398,"DIS_CODE":0,"TOWNNAME":"東區","LI":"富強里","LIN":"18鄰","STREET":"東門路","SECT":"二段","MAREA":" ","LANE":"３０１巷","ALLEY":"１１５弄","HOUSE_NO":"４號","E_COORD97":171043.63,"N_COORD97":2542762.7200000002,"ADDRESS":"東門路二段３０１巷１１５弄４號","OBJECTID":199397},"geometry":{"x":171043.63000000082,"y":2542762.7200000025}},{"attributes":{"ID":199399,"DIS_CODE":0,"TOWNNAME":"東區","LI":"富強里","LIN":"18鄰","STREET":"東門路","SECT":"二段","MAREA":" ","LANE":"３０１巷","ALLEY":"１１５弄","HOUSE_NO":"５號","E_COORD97":171019.29999999999,"N_COORD97":2542761.4199999999,"ADDRESS":"東門路二段３０１巷１１５弄５號","OBJECTID":199398},"geometry":{"x":171019.29999999981,"y":2542761.4200000018}},{"attributes":{"ID":199400,"DIS_CODE":0,"TOWNNAME":"東區","LI":"富強里","LIN":"18鄰","STREET":"東門路","SECT":"二段","MAREA":" ","LANE":"３０１巷","ALLEY":"１１５弄","HOUSE_NO":"６號","E_COORD97":171041.78,"N_COORD97":2542766.6099999999,"ADDRESS":"東門路二段３０１巷１１５弄６號","OBJECTID":199399},"geometry":{"x":171041.78000000119,"y":2542766.6100000013}},{"attributes":{"ID":199401,"DIS_CODE":0,"TOWNNAME":"東區","LI":"富強里","LIN":"18鄰","STREET":"東門路","SECT":"二段","MAREA":" ","LANE":"３０１巷","ALLEY":"１１５弄","HOUSE_NO":"７號","E_COORD97":171020.01000000001,"N_COORD97":2542765.3100000001,"ADDRESS":"東門路二段３０１巷１１５弄７號","OBJECTID":199400},"geometry":{"x":171020.00999999978,"y":2542765.3100000024}}]}