{"displayFieldName":"TOWNNAME","fieldAliases":{"ID":"ID","DIS_CODE":"DIS_CODE","TOWNNAME":"TOWNNAME","LI":"LI","LIN":"LIN","STREET":"STREET","SECT":"SECT","MAREA":"MAREA","LANE":"LANE","ALLEY":"ALLEY","HOUSE_NO":"HOUSE_NO","E_COORD97":"E_COORD97","N_COORD97":"N_COORD97","ADDRESS":"ADDRESS","OBJECTID":"OBJECTID"},"geometryType":"esriGeometryPoint","spatialReference":{"wkid":102443,"latestWkid":3826},"fields":[{"name":"ID","type":"esriFieldTypeDouble","alias":"ID"},{"name":"DIS_CODE","type":"esriFieldTypeInteger","alias":"DIS_CODE"},{"name":"TOWNNAME","type":"esriFieldTypeString","alias":"TOWNNAME","length":8},{"name":"LI","type":"esriFieldTypeString","alias":"LI","length":8},{"name":"LIN","type":"esriFieldTypeString","alias":"LIN","length":12},{"name":"STREET","type":"esriFieldTypeString","alias":"STREET","length":20},{"name":"SECT","type":"esriFieldTypeString","alias":"SECT","length":8},{"name":"MAREA","type":"esriFieldTypeString","alias":"MAREA","length":12},{"name":"LANE","type":"esriFieldTypeString","alias":"LANE","length":10},{"name":"ALLEY","type":"esriFieldTypeString","alias":"ALLEY","length":10},{"name":"HOUSE_NO","type":"esriFieldTypeString","alias":"HOUSE_NO","length":20},{"name":"E_COORD97","type":"esriFieldTypeDouble","alias":"E_COORD97"},{"name":"N_COORD97","type":"esriFieldTypeDouble","alias":"N_COORD97"},{"name":"ADDRESS","type":"esriFieldTypeString","alias":"ADDRESS","length":50},{"name":"OBJECTID","type":"esriFieldTypeOID","alias":"OBJECTID"}],"features":[{"attributes":{"ID":475626,"DIS_CODE":0,"TOWNNAME":"北區","LI":"大豐里","LIN":"18鄰","STREET":"大興街","SECT":" ","MAREA":" ","LANE":" ","ALLEY":" ","HOUSE_NO":"２４９號","E_COORD97":166807.61710100001,"N_COORD97":2545693.8142599999,"ADDRESS":"大興街２４９號","OBJECTID":475601},"geometry":{"x":166807.61710100155,"y":2545693.8142620027}},{"attributes":{"ID":475627,"DIS_CODE":0,"TOWNNAME":"北區","LI":"大豐里","LIN":"18鄰","STREET":"大興街","SECT":" ","MAREA":" ","LANE":" ","ALLEY":" ","HOUSE_NO":"２５１號","E_COORD97":166805.286979,"N_COORD97":2545694.02593,"ADDRESS":"大興街２５１號","OBJECTID":475602},"geometry":{"x":166805.28697900008,"y":2545694.025928}},{"attributes":{"ID":475628,"DIS_CODE":0,"TOWNNAME":"北區","LI":"大豐里","LIN":"18鄰","STREET":"大興街","SECT":" ","MAREA":" ","LANE":" ","ALLEY":" ","HOUSE_NO":"２５３號","E_COORD97":166803.25,"N_COORD97":2545694.3500000001,"ADDRESS":"大興街２５３號","OBJECTID":475603},"geometry":{"x":166803.25000000093,"y":2545694.3500000015}},{"attributes":{"ID":475629,"DIS_CODE":0,"TOWNNAME":"北區","LI":"大豐里","LIN":"18鄰","STREET":"大興街","SECT":" ","MAREA":" ","LANE":" ","ALLEY":" ","HOUSE_NO":"２５５號","E_COORD97":166798.92000000001,"N_COORD97":2545695.0600000001,"ADDRESS":"大興街２５５號","OBJECTID":475604},"geometry":{"x":166798.92000000086,"y":2545695.0600000005}},{"attributes":{"ID":475630,"DIS_CODE":0,"TOWNNAME":"北區","LI":"大豐里","LIN":"18鄰","STREET":"大興街","SECT":" ","MAREA":" ","LANE":" ","ALLEY":" ","HOUSE_NO":"２５７號","E_COORD97":166795.04999999999,"N_COORD97":2545696.0299999998,"ADDRESS":"大興街２５７號","OBJECTID":475605},"geometry":{"x":166795.04999999981,"y":2545696.0300000012}},{"attributes":{"ID":475631,"DIS_CODE":0,"TOWNNAME":"北區","LI":"大豐里","LIN":"18鄰","STREET":"大興街","SECT":" ","MAREA":" ","LANE":" ","ALLEY":" ","HOUSE_NO":"２５９號","E_COORD97":166790.39999999999,"N_COORD97":2545696.6800000002,"ADDRESS":"大興街２５９號","OBJECTID":475606},"geometry":{"x":166790.40000000224,"y":2545696.6799999997}},{"attributes":{"ID":475632,"DIS_CODE":0,"TOWNNAME":"北區","LI":"大豐里","LIN":"18鄰","STREET":"大興街","SECT":" ","MAREA":" ","LANE":" ","ALLEY":" ","HOUSE_NO":"２６１號","E_COORD97":166787.04999999999,"N_COORD97":2545697.1899999999,"ADDRESS":"大興街２６１號","OBJECTID":475607},"geometry":{"x":166787.05000000168,"y":2545697.1900000032}},{"attributes":{"ID":475633,"DIS_CODE":0,"TOWNNAME":"北區","LI":"大豐里","LIN":"18鄰","STREET":"大興街","SECT":" ","MAREA":" ","LANE":" ","ALLEY":" ","HOUSE_NO":"２６３號","E_COORD97":166782.59,"N_COORD97":2545698.0299999998,"ADDRESS":"大興街２６３號","OBJECTID":475608},"geometry":{"x":166782.59000000078,"y":2545698.0299999975}},{"attributes":{"ID":475634,"DIS_CODE":0,"TOWNNAME":"北區","LI":"大豐里","LIN":"18鄰","STREET":"大興街","SECT":" ","MAREA":" ","LANE":" ","ALLEY":" ","HOUSE_NO":"２６５號","E_COORD97":166778.53,"N_COORD97":2545698.7999999998,"ADDRESS":"大興街２６５號","OBJECTID":475609},"geometry":{"x":166778.53000000026,"y":2545698.8000000026}},{"attributes":{"ID":475635,"DIS_CODE":0,"TOWNNAME":"北區","LI":"大豐里","LIN":"18鄰","STREET":"大興街","SECT":" ","MAREA":" ","LANE":" ","ALLEY":" ","HOUSE_NO":"２６９號","E_COORD97":166769.45999999999,"N_COORD97":2545700.4199999999,"ADDRESS":"大興街２６９號","OBJECTID":475610},"geometry":{"x":166769.46000000089,"y":2545700.4200000018}},{"attributes":{"ID":475636,"DIS_CODE":0,"TOWNNAME":"北區","LI":"大豐里","LIN":"18鄰","STREET":"大興街","SECT":" ","MAREA":" ","LANE":" ","ALLEY":" ","HOUSE_NO":"２７１號","E_COORD97":166764.75,"N_COORD97":2545701.2000000002,"ADDRESS":"大興街２７１號","OBJECTID":475611},"geometry":{"x":166764.75000000093,"y":2545701.2000000011}},{"attributes":{"ID":475637,"DIS_CODE":0,"TOWNNAME":"北區","LI":"大豐里","LIN":"18鄰","STREET":"大興街","SECT":" ","MAREA":" ","LANE":" ","ALLEY":" ","HOUSE_NO":"２７３號","E_COORD97":166759.64999999999,"N_COORD97":2545702.1699999999,"ADDRESS":"大興街２７３號","OBJECTID":475612},"geometry":{"x":166759.65000000037,"y":2545702.1700000018}},{"attributes":{"ID":475638,"DIS_CODE":0,"TOWNNAME":"北區","LI":"中樓里","LIN":"18鄰","STREET":"勝利路","SECT":" ","MAREA":" ","LANE":" ","ALLEY":" ","HOUSE_NO":"３６７號","E_COORD97":169883.32000000001,"N_COORD97":2544799.9399999999,"ADDRESS":"勝利路３６７號","OBJECTID":475613},"geometry":{"x":169883.32000000123,"y":2544799.9399999995}},{"attributes":{"ID":475639,"DIS_CODE":0,"TOWNNAME":"北區","LI":"實踐里","LIN":"18鄰","STREET":"大武街","SECT":" ","MAREA":" ","LANE":" ","ALLEY":" ","HOUSE_NO":"２０９號","E_COORD97":169637.69,"N_COORD97":2546100.2000000002,"ADDRESS":"大武街２０９號","OBJECTID":475614},"geometry":{"x":169637.69000000041,"y":2546100.1999999974}},{"attributes":{"ID":475640,"DIS_CODE":0,"TOWNNAME":"北區","LI":"大豐里","LIN":"18鄰","STREET":"大興街","SECT":" ","MAREA":" ","LANE":" ","ALLEY":" ","HOUSE_NO":"２３１號","E_COORD97":166867.57000000001,"N_COORD97":2545670.3500000001,"ADDRESS":"大興街２３１號","OBJECTID":475615},"geometry":{"x":166867.57000000123,"y":2545670.3500000015}},{"attributes":{"ID":475641,"DIS_CODE":0,"TOWNNAME":"新營區","LI":"新北里","LIN":"18鄰","STREET":"民生路","SECT":" ","MAREA":" ","LANE":" ","ALLEY":" ","HOUSE_NO":"９２號","E_COORD97":179204.98000000001,"N_COORD97":2578772.5,"ADDRESS":"民生路９２號","OBJECTID":475616},"geometry":{"x":179204.98000000045,"y":2578772.5000000037}},{"attributes":{"ID":475642,"DIS_CODE":0,"TOWNNAME":"新營區","LI":"興業里","LIN":"18鄰","STREET":"中山路","SECT":" ","MAREA":" ","LANE":" ","ALLEY":" ","HOUSE_NO":"９１之２９號","E_COORD97":180477.48999999999,"N_COORD97":2578210.6200000001,"ADDRESS":"中山路９１之２９號","OBJECTID":475617},"geometry":{"x":180477.49000000022,"y":2578210.6200000029}},{"attributes":{"ID":475643,"DIS_CODE":0,"TOWNNAME":"東山區","LI":"東中里","LIN":"18鄰","STREET":"達雲路","SECT":"一段","MAREA":" ","LANE":" ","ALLEY":" ","HOUSE_NO":"３６號","E_COORD97":189040.89999999999,"N_COORD97":2580034.9100000001,"ADDRESS":"達雲路一段３６號","OBJECTID":475618},"geometry":{"x":189040.90000000037,"y":2580034.910000002}},{"attributes":{"ID":475644,"DIS_CODE":0,"TOWNNAME":"東山區","LI":"東中里","LIN":"18鄰","STREET":"達雲路","SECT":"一段","MAREA":" ","LANE":" ","ALLEY":" ","HOUSE_NO":"４２號","E_COORD97":189047.20000000001,"N_COORD97":2580021.4500000002,"ADDRESS":"達雲路一段４２號","OBJECTID":475619},"geometry":{"x":189047.20000000019,"y":2580021.4499999993}},{"attributes":{"ID":475645,"DIS_CODE":0,"TOWNNAME":"東山區","LI":"東中里","LIN":"18鄰","STREET":"達雲路","SECT":"一段","MAREA":" ","LANE":" ","ALLEY":" ","HOUSE_NO":"４６號","E_COORD97":189048.81,"N_COORD97":2580015.4700000002,"ADDRESS":"達雲路一段４６號","OBJECTID":475620},"geometry":{"x":189048.81000000052,"y":2580015.4700000025}},{"attributes":{"ID":475646,"DIS_CODE":0,"TOWNNAME":"東山區","LI":"東中里","LIN":"18鄰","STREET":"達雲路","SECT":"一段","MAREA":" ","LANE":" ","ALLEY":" ","HOUSE_NO":"４８號","E_COORD97":189064.06,"N_COORD97":2579997.5899999999,"ADDRESS":"達雲路一段４８號","OBJECTID":475621},"geometry":{"x":189064.06000000052,"y":2579997.5899999999}},{"attributes":{"ID":475647,"DIS_CODE":0,"TOWNNAME":"新化區","LI":"東榮里","LIN":"18鄰","STREET":"中興路","SECT":" ","MAREA":" ","LANE":" ","ALLEY":" ","HOUSE_NO":"６９５號","E_COORD97":179552.01000000001,"N_COORD97":2548090.25,"ADDRESS":"中興路６９５號","OBJECTID":475622},"geometry":{"x":179552.00999999885,"y":2548090.25}},{"attributes":{"ID":475648,"DIS_CODE":0,"TOWNNAME":"北區","LI":"成德里","LIN":"18鄰","STREET":"文成三路","SECT":" ","MAREA":" ","LANE":" ","ALLEY":" ","HOUSE_NO":"６１號","E_COORD97":168870.70000000001,"N_COORD97":2546289.4500000002,"ADDRESS":"文成三路６１號","OBJECTID":475623},"geometry":{"x":168870.70000000112,"y":2546289.4500000011}},{"attributes":{"ID":475649,"DIS_CODE":0,"TOWNNAME":"新營區","LI":"興業里","LIN":"18鄰","STREET":"公誠街","SECT":" ","MAREA":" ","LANE":" ","ALLEY":" ","HOUSE_NO":"１號","E_COORD97":180322.51000000001,"N_COORD97":2578199.96,"ADDRESS":"公誠街１號","OBJECTID":475624},"geometry":{"x":180322.51000000071,"y":2578199.9600000009}},{"attributes":{"ID":475650,"DIS_CODE":0,"TOWNNAME":"楠西區","LI":"楠西里","LIN":"18鄰","STREET":"中正路","SECT":" ","MAREA":" ","LANE":" ","ALLEY":" ","HOUSE_NO":"７８號","E_COORD97":197226.20999999999,"N_COORD97":2564020.25,"ADDRESS":"中正路７８號","OBJECTID":475625},"geometry":{"x":197226.20999999996,"y":2564020.2500000019}},{"attributes":{"ID":475651,"DIS_CODE":0,"TOWNNAME":"西港區","LI":"慶安里","LIN":"18鄰","STREET":"新興街","SECT":" ","MAREA":" ","LANE":" ","ALLEY":" ","HOUSE_NO":"４６號","E_COORD97":168191.64000000001,"N_COORD97":2557970.8700000001,"ADDRESS":"新興街４６號","OBJECTID":475626},"geometry":{"x":168191.64000000153,"y":2557970.8700000048}},{"attributes":{"ID":475652,"DIS_CODE":0,"TOWNNAME":"南區","LI":"文南里","LIN":"18鄰","STREET":"永南一街","SECT":" ","MAREA":" ","LANE":" ","ALLEY":" ","HOUSE_NO":"５５號","E_COORD97":166701.62,"N_COORD97":2542572.4900000002,"ADDRESS":"永南一街５５號","OBJECTID":475627},"geometry":{"x":166701.62000000011,"y":2542572.4900000002}},{"attributes":{"ID":475653,"DIS_CODE":0,"TOWNNAME":"南區","LI":"文華里","LIN":"18鄰","STREET":"德南街","SECT":" ","MAREA":" ","LANE":" ","ALLEY":" ","HOUSE_NO":"２１號","E_COORD97":166893.37,"N_COORD97":2543109.8300000001,"ADDRESS":"德南街２１號","OBJECTID":475628},"geometry":{"x":166893.37000000011,"y":2543109.8299999982}},{"attributes":{"ID":475654,"DIS_CODE":0,"TOWNNAME":"東區","LI":"龍山里","LIN":"18鄰","STREET":"東門路","SECT":"一段","MAREA":" ","LANE":" ","ALLEY":" ","HOUSE_NO":"３２６號","E_COORD97":169751.75,"N_COORD97":2543026.02,"ADDRESS":"東門路一段３２６號","OBJECTID":475629},"geometry":{"x":169751.75,"y":2543026.0199999996}},{"attributes":{"ID":475655,"DIS_CODE":0,"TOWNNAME":"東區","LI":"龍山里","LIN":"18鄰","STREET":"府東街","SECT":" ","MAREA":" ","LANE":" ","ALLEY":" ","HOUSE_NO":"１２８號","E_COORD97":169709.51999999999,"N_COORD97":2542998.8999999999,"ADDRESS":"府東街１２８號","OBJECTID":475630},"geometry":{"x":169709.52000000142,"y":2542998.9000000022}},{"attributes":{"ID":475656,"DIS_CODE":0,"TOWNNAME":"東區","LI":"龍山里","LIN":"18鄰","STREET":"府東街","SECT":" ","MAREA":" ","LANE":" ","ALLEY":" ","HOUSE_NO":"１３０號","E_COORD97":169699.32000000001,"N_COORD97":2543002.2000000002,"ADDRESS":"府東街１３０號","OBJECTID":475631},"geometry":{"x":169699.3200000003,"y":2543002.2000000011}},{"attributes":{"ID":475657,"DIS_CODE":0,"TOWNNAME":"東區","LI":"龍山里","LIN":"18鄰","STREET":"府東街","SECT":" ","MAREA":" ","LANE":" ","ALLEY":" ","HOUSE_NO":"１３２號","E_COORD97":169693.35000000001,"N_COORD97":2543003.9199999999,"ADDRESS":"府東街１３２號","OBJECTID":475632},"geometry":{"x":169693.34999999963,"y":2543003.9199999999}},{"attributes":{"ID":475658,"DIS_CODE":0,"TOWNNAME":"東區","LI":"龍山里","LIN":"18鄰","STREET":"府東街","SECT":" ","MAREA":" ","LANE":" ","ALLEY":" ","HOUSE_NO":"１３４號","E_COORD97":169689.66,"N_COORD97":2543006.2599999998,"ADDRESS":"府東街１３４號","OBJECTID":475633},"geometry":{"x":169689.66000000108,"y":2543006.2600000016}},{"attributes":{"ID":475659,"DIS_CODE":0,"TOWNNAME":"東區","LI":"龍山里","LIN":"18鄰","STREET":"府東街","SECT":" ","MAREA":" ","LANE":" ","ALLEY":" ","HOUSE_NO":"１３６號","E_COORD97":169685.5,"N_COORD97":2543009.1000000001,"ADDRESS":"府東街１３６號","OBJECTID":475634},"geometry":{"x":169685.50000000093,"y":2543009.0999999996}},{"attributes":{"ID":475660,"DIS_CODE":0,"TOWNNAME":"東區","LI":"龍山里","LIN":"18鄰","STREET":"府東街","SECT":" ","MAREA":" ","LANE":" ","ALLEY":" ","HOUSE_NO":"１３８號","E_COORD97":169663.51999999999,"N_COORD97":2543015.5299999998,"ADDRESS":"府東街１３８號","OBJECTID":475635},"geometry":{"x":169663.51999999955,"y":2543015.5299999993}},{"attributes":{"ID":475661,"DIS_CODE":0,"TOWNNAME":"南區","LI":"文南里","LIN":"18鄰","STREET":"中華西路","SECT":"一段","MAREA":" ","LANE":" ","ALLEY":" ","HOUSE_NO":"３０８號","E_COORD97":166581.64000000001,"N_COORD97":2542613.7200000002,"ADDRESS":"中華西路一段３０８號","OBJECTID":475636},"geometry":{"x":166581.6400000006,"y":2542613.7200000025}},{"attributes":{"ID":475662,"DIS_CODE":0,"TOWNNAME":"南區","LI":"文南里","LIN":"18鄰","STREET":"永南一街","SECT":" ","MAREA":" ","LANE":" ","ALLEY":" ","HOUSE_NO":"５３號","E_COORD97":166706.51000000001,"N_COORD97":2542572.1299999999,"ADDRESS":"永南一街５３號","OBJECTID":475637},"geometry":{"x":166706.51000000071,"y":2542572.1300000008}},{"attributes":{"ID":475663,"DIS_CODE":0,"TOWNNAME":"南區","LI":"文南里","LIN":"18鄰","STREET":"永南一街","SECT":" ","MAREA":" ","LANE":" ","ALLEY":" ","HOUSE_NO":"５７號","E_COORD97":166697.35000000001,"N_COORD97":2542573.29,"ADDRESS":"永南一街５７號","OBJECTID":475638},"geometry":{"x":166697.35000000056,"y":2542573.2899999991}},{"attributes":{"ID":475664,"DIS_CODE":0,"TOWNNAME":"南區","LI":"文南里","LIN":"18鄰","STREET":"永南一街","SECT":" ","MAREA":" ","LANE":" ","ALLEY":" ","HOUSE_NO":"５９號","E_COORD97":166693.51999999999,"N_COORD97":2542573.6499999999,"ADDRESS":"永南一街５９號","OBJECTID":475639},"geometry":{"x":166693.51999999955,"y":2542573.6500000022}},{"attributes":{"ID":475665,"DIS_CODE":0,"TOWNNAME":"南區","LI":"文南里","LIN":"18鄰","STREET":"永南一街","SECT":" ","MAREA":" ","LANE":" ","ALLEY":" ","HOUSE_NO":"６１號","E_COORD97":166689.60999999999,"N_COORD97":2542573.8199999998,"ADDRESS":"永南一街６１號","OBJECTID":475640},"geometry":{"x":166689.61000000127,"y":2542573.8200000003}},{"attributes":{"ID":475666,"DIS_CODE":0,"TOWNNAME":"南區","LI":"文南里","LIN":"18鄰","STREET":"永南一街","SECT":" ","MAREA":" ","LANE":" ","ALLEY":" ","HOUSE_NO":"６３號","E_COORD97":166685.51999999999,"N_COORD97":2542574.3599999999,"ADDRESS":"永南一街６３號","OBJECTID":475641},"geometry":{"x":166685.52000000048,"y":2542574.3600000013}},{"attributes":{"ID":475667,"DIS_CODE":0,"TOWNNAME":"南區","LI":"文南里","LIN":"18鄰","STREET":"永南一街","SECT":" ","MAREA":" ","LANE":" ","ALLEY":" ","HOUSE_NO":"６５號","E_COORD97":166681.32999999999,"N_COORD97":2542574.6299999999,"ADDRESS":"永南一街６５號","OBJECTID":475642},"geometry":{"x":166681.33000000007,"y":2542574.6300000027}},{"attributes":{"ID":475668,"DIS_CODE":0,"TOWNNAME":"南區","LI":"文南里","LIN":"18鄰","STREET":"健康路","SECT":"二段","MAREA":" ","LANE":" ","ALLEY":" ","HOUSE_NO":"３６４號","E_COORD97":166697.53,"N_COORD97":2542530.9399999999,"ADDRESS":"健康路二段３６４號","OBJECTID":475643},"geometry":{"x":166697.53000000026,"y":2542530.9399999995}},{"attributes":{"ID":475669,"DIS_CODE":0,"TOWNNAME":"南區","LI":"文南里","LIN":"18鄰","STREET":"健康路","SECT":"二段","MAREA":" ","LANE":" ","ALLEY":" ","HOUSE_NO":"３８０號","E_COORD97":166658.28,"N_COORD97":2542534.9500000002,"ADDRESS":"健康路二段３８０號","OBJECTID":475644},"geometry":{"x":166658.28000000026,"y":2542534.9499999993}},{"attributes":{"ID":475670,"DIS_CODE":0,"TOWNNAME":"南區","LI":"文南里","LIN":"18鄰","STREET":"健康路","SECT":"二段","MAREA":" ","LANE":" ","ALLEY":" ","HOUSE_NO":"３８２號","E_COORD97":166652.04999999999,"N_COORD97":2542535.6600000001,"ADDRESS":"健康路二段３８２號","OBJECTID":475645},"geometry":{"x":166652.05000000075,"y":2542535.660000002}},{"attributes":{"ID":475671,"DIS_CODE":0,"TOWNNAME":"南區","LI":"文南里","LIN":"18鄰","STREET":"健康路","SECT":"二段","MAREA":" ","LANE":" ","ALLEY":" ","HOUSE_NO":"３８４號","E_COORD97":166647.07000000001,"N_COORD97":2542536.1899999999,"ADDRESS":"健康路二段３８４號","OBJECTID":475646},"geometry":{"x":166647.07000000123,"y":2542536.1899999995}},{"attributes":{"ID":475672,"DIS_CODE":0,"TOWNNAME":"南區","LI":"文南里","LIN":"18鄰","STREET":"健康路","SECT":"二段","MAREA":" ","LANE":" ","ALLEY":" ","HOUSE_NO":"３８６號","E_COORD97":166641.98999999999,"N_COORD97":2542536.73,"ADDRESS":"健康路二段３８６號","OBJECTID":475647},"geometry":{"x":166641.99000000022,"y":2542536.7300000004}},{"attributes":{"ID":475673,"DIS_CODE":0,"TOWNNAME":"南區","LI":"文南里","LIN":"18鄰","STREET":"健康路","SECT":"二段","MAREA":" ","LANE":" ","ALLEY":" ","HOUSE_NO":"３８８號","E_COORD97":166637.01000000001,"N_COORD97":2542537.2599999998,"ADDRESS":"健康路二段３８８號","OBJECTID":475648},"geometry":{"x":166637.01000000071,"y":2542537.2600000035}},{"attributes":{"ID":475674,"DIS_CODE":0,"TOWNNAME":"南區","LI":"文南里","LIN":"18鄰","STREET":"健康路","SECT":"二段","MAREA":" ","LANE":" ","ALLEY":" ","HOUSE_NO":"３９２號","E_COORD97":166626.78,"N_COORD97":2542538.6800000002,"ADDRESS":"健康路二段３９２號","OBJECTID":475649},"geometry":{"x":166626.78000000212,"y":2542538.6800000016}},{"attributes":{"ID":475675,"DIS_CODE":0,"TOWNNAME":"東區","LI":"德光里","LIN":"18鄰","STREET":"崇善路","SECT":" ","MAREA":" ","LANE":" ","ALLEY":" ","HOUSE_NO":"１８號","E_COORD97":170178.12,"N_COORD97":2542469.8999999999,"ADDRESS":"崇善路１８號","OBJECTID":475650},"geometry":{"x":170178.12000000104,"y":2542469.9000000022}},{"attributes":{"ID":475676,"DIS_CODE":0,"TOWNNAME":"南區","LI":"文南里","LIN":"18鄰","STREET":"健康路","SECT":"二段","MAREA":" ","LANE":" ","ALLEY":" ","HOUSE_NO":"３９８號","E_COORD97":166612.09,"N_COORD97":2542540.6400000001,"ADDRESS":"健康路二段３９８號","OBJECTID":475651},"geometry":{"x":166612.08999999985,"y":2542540.6400000006}},{"attributes":{"ID":475677,"DIS_CODE":0,"TOWNNAME":"南區","LI":"文南里","LIN":"18鄰","STREET":"健康路","SECT":"二段","MAREA":" ","LANE":" ","ALLEY":" ","HOUSE_NO":"４００號","E_COORD97":166607.69,"N_COORD97":2542541,"ADDRESS":"健康路二段４００號","OBJECTID":475652},"geometry":{"x":166607.69000000134,"y":2542541}},{"attributes":{"ID":475678,"DIS_CODE":0,"TOWNNAME":"南區","LI":"文南里","LIN":"18鄰","STREET":"健康路","SECT":"二段","MAREA":" ","LANE":" ","ALLEY":" ","HOUSE_NO":"４０２號","E_COORD97":166603.5,"N_COORD97":2542541.4399999999,"ADDRESS":"健康路二段４０２號","OBJECTID":475653},"geometry":{"x":166603.50000000093,"y":2542541.4399999995}},{"attributes":{"ID":475679,"DIS_CODE":0,"TOWNNAME":"南區","LI":"文南里","LIN":"18鄰","STREET":"健康路","SECT":"二段","MAREA":" ","LANE":" ","ALLEY":" ","HOUSE_NO":"４０４號","E_COORD97":166599.22,"N_COORD97":2542541.8799999999,"ADDRESS":"健康路二段４０４號","OBJECTID":475654},"geometry":{"x":166599.21999999974,"y":2542541.879999999}},{"attributes":{"ID":475680,"DIS_CODE":0,"TOWNNAME":"南區","LI":"文南里","LIN":"18鄰","STREET":"健康路","SECT":"二段","MAREA":" ","LANE":" ","ALLEY":" ","HOUSE_NO":"４０６號","E_COORD97":166594.95999999999,"N_COORD97":2542542.4199999999,"ADDRESS":"健康路二段４０６號","OBJECTID":475655},"geometry":{"x":166594.96000000089,"y":2542542.4199999999}},{"attributes":{"ID":475681,"DIS_CODE":0,"TOWNNAME":"南區","LI":"文南里","LIN":"18鄰","STREET":"健康路","SECT":"二段","MAREA":" ","LANE":" ","ALLEY":" ","HOUSE_NO":"４０８號","E_COORD97":166590.76999999999,"N_COORD97":2542542.6899999999,"ADDRESS":"健康路二段４０８號","OBJECTID":475656},"geometry":{"x":166590.77000000048,"y":2542542.6899999995}},{"attributes":{"ID":475682,"DIS_CODE":0,"TOWNNAME":"南區","LI":"文南里","LIN":"18鄰","STREET":"健康路","SECT":"二段","MAREA":" ","LANE":" ","ALLEY":" ","HOUSE_NO":"４１０號","E_COORD97":166586.76999999999,"N_COORD97":2542543.2999999998,"ADDRESS":"健康路二段４１０號","OBJECTID":475657},"geometry":{"x":166586.76999999955,"y":2542543.3000000007}},{"attributes":{"ID":475683,"DIS_CODE":0,"TOWNNAME":"南區","LI":"文南里","LIN":"18鄰","STREET":"健康路","SECT":"二段","MAREA":" ","LANE":" ","ALLEY":" ","HOUSE_NO":"４１２號","E_COORD97":166582.39999999999,"N_COORD97":2542543.6600000001,"ADDRESS":"健康路二段４１２號","OBJECTID":475658},"geometry":{"x":166582.4000000013,"y":2542543.6600000001}},{"attributes":{"ID":475684,"DIS_CODE":0,"TOWNNAME":"東區","LI":"龍山里","LIN":"18鄰","STREET":"東門路","SECT":"一段","MAREA":" ","LANE":" ","ALLEY":" ","HOUSE_NO":"２７０號","E_COORD97":169687.22,"N_COORD97":2543044.1499999999,"ADDRESS":"東門路一段２７０號","OBJECTID":475659},"geometry":{"x":169687.21999999974,"y":2543044.1500000022}},{"attributes":{"ID":475685,"DIS_CODE":0,"TOWNNAME":"南區","LI":"文華里","LIN":"18鄰","STREET":"德南街","SECT":" ","MAREA":" ","LANE":" ","ALLEY":" ","HOUSE_NO":"５９號","E_COORD97":166827.51000000001,"N_COORD97":2543083.75,"ADDRESS":"德南街５９號","OBJECTID":475660},"geometry":{"x":166827.50999999978,"y":2543083.7500000019}},{"attributes":{"ID":475686,"DIS_CODE":0,"TOWNNAME":"南區","LI":"文華里","LIN":"18鄰","STREET":"德南街","SECT":" ","MAREA":" ","LANE":" ","ALLEY":" ","HOUSE_NO":"６１號","E_COORD97":166823.10000000001,"N_COORD97":2543078.8100000001,"ADDRESS":"德南街６１號","OBJECTID":475661},"geometry":{"x":166823.09999999963,"y":2543078.8100000005}},{"attributes":{"ID":475687,"DIS_CODE":0,"TOWNNAME":"南區","LI":"文華里","LIN":"18鄰","STREET":"德南街","SECT":" ","MAREA":" ","LANE":" ","ALLEY":" ","HOUSE_NO":"６３號","E_COORD97":166818.98999999999,"N_COORD97":2543075.7799999998,"ADDRESS":"德南街６３號","OBJECTID":475662},"geometry":{"x":166818.99000000115,"y":2543075.7800000031}},{"attributes":{"ID":475688,"DIS_CODE":0,"TOWNNAME":"南區","LI":"文華里","LIN":"18鄰","STREET":"德南街","SECT":" ","MAREA":" ","LANE":" ","ALLEY":" ","HOUSE_NO":"６５號","E_COORD97":166827.62,"N_COORD97":2543061.23,"ADDRESS":"德南街６５號","OBJECTID":475663},"geometry":{"x":166827.62000000197,"y":2543061.2300000023}},{"attributes":{"ID":475689,"DIS_CODE":0,"TOWNNAME":"南區","LI":"文華里","LIN":"18鄰","STREET":"德南街","SECT":" ","MAREA":" ","LANE":" ","ALLEY":" ","HOUSE_NO":"６７號","E_COORD97":166829.67999999999,"N_COORD97":2543056.2999999998,"ADDRESS":"德南街６７號","OBJECTID":475664},"geometry":{"x":166829.6799999997,"y":2543056.3000000007}},{"attributes":{"ID":475690,"DIS_CODE":0,"TOWNNAME":"南區","LI":"文華里","LIN":"18鄰","STREET":"德南街","SECT":" ","MAREA":" ","LANE":" ","ALLEY":" ","HOUSE_NO":"６９號","E_COORD97":166823.67999999999,"N_COORD97":2543052.2599999998,"ADDRESS":"德南街６９號","OBJECTID":475665},"geometry":{"x":166823.68000000063,"y":2543052.2599999998}},{"attributes":{"ID":475691,"DIS_CODE":0,"TOWNNAME":"南區","LI":"文華里","LIN":"18鄰","STREET":"德南街","SECT":" ","MAREA":" ","LANE":" ","ALLEY":" ","HOUSE_NO":"７１號","E_COORD97":166820.25,"N_COORD97":2543056.2200000002,"ADDRESS":"德南街７１號","OBJECTID":475666},"geometry":{"x":166820.25000000093,"y":2543056.2200000007}},{"attributes":{"ID":475692,"DIS_CODE":0,"TOWNNAME":"南區","LI":"文華里","LIN":"18鄰","STREET":"德南街","SECT":" ","MAREA":" ","LANE":" ","ALLEY":" ","HOUSE_NO":"７３號","E_COORD97":166810.07999999999,"N_COORD97":2543066.4900000002,"ADDRESS":"德南街７３號","OBJECTID":475667},"geometry":{"x":166810.08000000007,"y":2543066.4900000021}},{"attributes":{"ID":475693,"DIS_CODE":0,"TOWNNAME":"南區","LI":"文華里","LIN":"18鄰","STREET":"德南街","SECT":" ","MAREA":" ","LANE":" ","ALLEY":" ","HOUSE_NO":"７５號","E_COORD97":166805.26000000001,"N_COORD97":2543062.3199999998,"ADDRESS":"德南街７５號","OBJECTID":475668},"geometry":{"x":166805.25999999978,"y":2543062.3200000003}},{"attributes":{"ID":475694,"DIS_CODE":0,"TOWNNAME":"南區","LI":"文華里","LIN":"18鄰","STREET":"德南街","SECT":" ","MAREA":" ","LANE":" ","ALLEY":" ","HOUSE_NO":"１９號","E_COORD97":166900.64000000001,"N_COORD97":2543116.02,"ADDRESS":"德南街１９號","OBJECTID":475669},"geometry":{"x":166900.6400000006,"y":2543116.0200000014}},{"attributes":{"ID":475695,"DIS_CODE":0,"TOWNNAME":"東區","LI":"龍山里","LIN":"18鄰","STREET":"東門路","SECT":"一段","MAREA":" ","LANE":" ","ALLEY":" ","HOUSE_NO":"２７２號","E_COORD97":169688.13,"N_COORD97":2543045.96,"ADDRESS":"東門路一段２７２號","OBJECTID":475670},"geometry":{"x":169688.12999999989,"y":2543045.9600000028}},{"attributes":{"ID":475696,"DIS_CODE":0,"TOWNNAME":"南區","LI":"文華里","LIN":"18鄰","STREET":"德南街","SECT":" ","MAREA":" ","LANE":" ","ALLEY":" ","HOUSE_NO":"１號","E_COORD97":166940.09,"N_COORD97":2543168.04,"ADDRESS":"德南街１號","OBJECTID":475671},"geometry":{"x":166940.09000000078,"y":2543168.0399999991}},{"attributes":{"ID":475697,"DIS_CODE":0,"TOWNNAME":"南區","LI":"文華里","LIN":"18鄰","STREET":"德南街","SECT":" ","MAREA":" ","LANE":" ","ALLEY":" ","HOUSE_NO":"５號","E_COORD97":166911.73000000001,"N_COORD97":2543160.6899999999,"ADDRESS":"德南街５號","OBJECTID":475672},"geometry":{"x":166911.73000000045,"y":2543160.6899999995}},{"attributes":{"ID":475698,"DIS_CODE":0,"TOWNNAME":"南區","LI":"文華里","LIN":"18鄰","STREET":"德南街","SECT":" ","MAREA":" ","LANE":" ","ALLEY":" ","HOUSE_NO":"７號","E_COORD97":166906.42999999999,"N_COORD97":2543155.6600000001,"ADDRESS":"德南街７號","OBJECTID":475673},"geometry":{"x":166906.43000000156,"y":2543155.660000002}},{"attributes":{"ID":475699,"DIS_CODE":0,"TOWNNAME":"南區","LI":"文華里","LIN":"18鄰","STREET":"德南街","SECT":" ","MAREA":" ","LANE":" ","ALLEY":" ","HOUSE_NO":"９號","E_COORD97":166900.95000000001,"N_COORD97":2543151.1800000002,"ADDRESS":"德南街９號","OBJECTID":475674},"geometry":{"x":166900.95000000019,"y":2543151.1799999978}},{"attributes":{"ID":475700,"DIS_CODE":0,"TOWNNAME":"南區","LI":"文華里","LIN":"18鄰","STREET":"德南街","SECT":" ","MAREA":" ","LANE":" ","ALLEY":" ","HOUSE_NO":"１１號","E_COORD97":166895.12,"N_COORD97":2543146.3399999999,"ADDRESS":"德南街１１號","OBJECTID":475675},"geometry":{"x":166895.12000000011,"y":2543146.3399999999}},{"attributes":{"ID":475701,"DIS_CODE":0,"TOWNNAME":"南區","LI":"文華里","LIN":"18鄰","STREET":"德南街","SECT":" ","MAREA":" ","LANE":" ","ALLEY":" ","HOUSE_NO":"１３號","E_COORD97":166890.26999999999,"N_COORD97":2543141.3900000001,"ADDRESS":"德南街１３號","OBJECTID":475676},"geometry":{"x":166890.26999999955,"y":2543141.3900000025}},{"attributes":{"ID":475702,"DIS_CODE":0,"TOWNNAME":"南區","LI":"文華里","LIN":"18鄰","STREET":"德南街","SECT":" ","MAREA":" ","LANE":" ","ALLEY":" ","HOUSE_NO":"１７號","E_COORD97":166897.32000000001,"N_COORD97":2543120.1400000001,"ADDRESS":"德南街１７號","OBJECTID":475677},"geometry":{"x":166897.3200000003,"y":2543120.1400000025}},{"attributes":{"ID":475703,"DIS_CODE":0,"TOWNNAME":"南區","LI":"文華里","LIN":"18鄰","STREET":"德南街","SECT":" ","MAREA":" ","LANE":" ","ALLEY":" ","HOUSE_NO":"３１號","E_COORD97":166863.17000000001,"N_COORD97":2543116.3900000001,"ADDRESS":"德南街３１號","OBJECTID":475678},"geometry":{"x":166863.17000000086,"y":2543116.3900000006}},{"attributes":{"ID":475704,"DIS_CODE":0,"TOWNNAME":"南區","LI":"文華里","LIN":"18鄰","STREET":"德南街","SECT":" ","MAREA":" ","LANE":" ","ALLEY":" ","HOUSE_NO":"３３號","E_COORD97":166873.39999999999,"N_COORD97":2543100.52,"ADDRESS":"德南街３３號","OBJECTID":475679},"geometry":{"x":166873.39999999944,"y":2543100.5199999996}},{"attributes":{"ID":475705,"DIS_CODE":0,"TOWNNAME":"南區","LI":"文華里","LIN":"18鄰","STREET":"德南街","SECT":" ","MAREA":" ","LANE":" ","ALLEY":" ","HOUSE_NO":"３５號","E_COORD97":166875.82999999999,"N_COORD97":2543096.04,"ADDRESS":"德南街３５號","OBJECTID":475680},"geometry":{"x":166875.83000000101,"y":2543096.0399999991}},{"attributes":{"ID":475706,"DIS_CODE":0,"TOWNNAME":"南區","LI":"文華里","LIN":"18鄰","STREET":"德南街","SECT":" ","MAREA":" ","LANE":" ","ALLEY":" ","HOUSE_NO":"３７號","E_COORD97":166870.44,"N_COORD97":2543090.48,"ADDRESS":"德南街３７號","OBJECTID":475681},"geometry":{"x":166870.44000000134,"y":2543090.4800000023}},{"attributes":{"ID":475707,"DIS_CODE":0,"TOWNNAME":"東區","LI":"德光里","LIN":"18鄰","STREET":"林森路","SECT":"一段","MAREA":" ","LANE":" ","ALLEY":" ","HOUSE_NO":"２７６號","E_COORD97":169914.25,"N_COORD97":2542601.21,"ADDRESS":"林森路一段２７６號","OBJECTID":475682},"geometry":{"x":169914.25000000093,"y":2542601.2100000028}},{"attributes":{"ID":475708,"DIS_CODE":0,"TOWNNAME":"東區","LI":"德光里","LIN":"18鄰","STREET":"林森路","SECT":"一段","MAREA":" ","LANE":" ","ALLEY":" ","HOUSE_NO":"３１６號","E_COORD97":169997.13,"N_COORD97":2542604.75,"ADDRESS":"林森路一段３１６號","OBJECTID":475683},"geometry":{"x":169997.12999999989,"y":2542604.75}},{"attributes":{"ID":475709,"DIS_CODE":0,"TOWNNAME":"東區","LI":"德光里","LIN":"18鄰","STREET":"崇善路","SECT":" ","MAREA":" ","LANE":" ","ALLEY":" ","HOUSE_NO":"１０號","E_COORD97":170164.95999999999,"N_COORD97":2542479.5499999998,"ADDRESS":"崇善路１０號","OBJECTID":475684},"geometry":{"x":170164.96000000089,"y":2542479.5500000026}},{"attributes":{"ID":475710,"DIS_CODE":0,"TOWNNAME":"東區","LI":"德光里","LIN":"18鄰","STREET":"崇善路","SECT":" ","MAREA":" ","LANE":" ","ALLEY":" ","HOUSE_NO":"１２號","E_COORD97":170168.72,"N_COORD97":2542476.8100000001,"ADDRESS":"崇善路１２號","OBJECTID":475685},"geometry":{"x":170168.71999999974,"y":2542476.8100000042}},{"attributes":{"ID":475711,"DIS_CODE":0,"TOWNNAME":"東區","LI":"德光里","LIN":"18鄰","STREET":"崇善路","SECT":" ","MAREA":" ","LANE":" ","ALLEY":" ","HOUSE_NO":"１４號","E_COORD97":170171.70999999999,"N_COORD97":2542474.5899999999,"ADDRESS":"崇善路１４號","OBJECTID":475686},"geometry":{"x":170171.71000000089,"y":2542474.5900000017}},{"attributes":{"ID":475712,"DIS_CODE":0,"TOWNNAME":"東區","LI":"德光里","LIN":"18鄰","STREET":"崇善路","SECT":" ","MAREA":" ","LANE":" ","ALLEY":" ","HOUSE_NO":"１６號","E_COORD97":170175.22,"N_COORD97":2542472.1200000001,"ADDRESS":"崇善路１６號","OBJECTID":475687},"geometry":{"x":170175.22000000067,"y":2542472.1200000029}},{"attributes":{"ID":475713,"DIS_CODE":0,"TOWNNAME":"東區","LI":"德光里","LIN":"18鄰","STREET":"崇善路","SECT":" ","MAREA":" ","LANE":" ","ALLEY":" ","HOUSE_NO":"２０號","E_COORD97":170181.37,"N_COORD97":2542467.3399999999,"ADDRESS":"崇善路２０號","OBJECTID":475688},"geometry":{"x":170181.37000000104,"y":2542467.3399999999}},{"attributes":{"ID":475714,"DIS_CODE":0,"TOWNNAME":"東區","LI":"德光里","LIN":"18鄰","STREET":"崇善路","SECT":" ","MAREA":" ","LANE":" ","ALLEY":" ","HOUSE_NO":"４號","E_COORD97":170156.23999999999,"N_COORD97":2542487.0600000001,"ADDRESS":"崇善路４號","OBJECTID":475689},"geometry":{"x":170156.24000000209,"y":2542487.0600000005}},{"attributes":{"ID":475715,"DIS_CODE":0,"TOWNNAME":"東區","LI":"德光里","LIN":"18鄰","STREET":"崇善路","SECT":" ","MAREA":" ","LANE":" ","ALLEY":" ","HOUSE_NO":"６號","E_COORD97":170159.39999999999,"N_COORD97":2542484.8399999999,"ADDRESS":"崇善路６號","OBJECTID":475690},"geometry":{"x":170159.4000000013,"y":2542484.8399999999}},{"attributes":{"ID":475716,"DIS_CODE":0,"TOWNNAME":"東區","LI":"德光里","LIN":"18鄰","STREET":"崇善路","SECT":" ","MAREA":" ","LANE":" ","ALLEY":" ","HOUSE_NO":"８號","E_COORD97":170161.88,"N_COORD97":2542482.02,"ADDRESS":"崇善路８號","OBJECTID":475691},"geometry":{"x":170161.88000000175,"y":2542482.0200000014}},{"attributes":{"ID":475717,"DIS_CODE":0,"TOWNNAME":"東區","LI":"德光里","LIN":"18鄰","STREET":"崇德一街","SECT":" ","MAREA":" ","LANE":" ","ALLEY":" ","HOUSE_NO":"１００號","E_COORD97":170129.79999999999,"N_COORD97":2542457.9900000002,"ADDRESS":"崇德一街１００號","OBJECTID":475692},"geometry":{"x":170129.79999999981,"y":2542457.9899999984}},{"attributes":{"ID":475718,"DIS_CODE":0,"TOWNNAME":"東區","LI":"德光里","LIN":"18鄰","STREET":"崇德一街","SECT":" ","MAREA":" ","LANE":" ","ALLEY":" ","HOUSE_NO":"１０２號","E_COORD97":170132.76999999999,"N_COORD97":2542461.6499999999,"ADDRESS":"崇德一街１０２號","OBJECTID":475693},"geometry":{"x":170132.76999999955,"y":2542461.6500000022}},{"attributes":{"ID":475719,"DIS_CODE":0,"TOWNNAME":"東區","LI":"德光里","LIN":"18鄰","STREET":"崇德一街","SECT":" ","MAREA":" ","LANE":" ","ALLEY":" ","HOUSE_NO":"１０４號","E_COORD97":170135.39000000001,"N_COORD97":2542465.48,"ADDRESS":"崇德一街１０４號","OBJECTID":475694},"geometry":{"x":170135.38999999966,"y":2542465.4800000042}},{"attributes":{"ID":475720,"DIS_CODE":0,"TOWNNAME":"東區","LI":"德光里","LIN":"18鄰","STREET":"崇德一街","SECT":" ","MAREA":" ","LANE":" ","ALLEY":" ","HOUSE_NO":"１０６號","E_COORD97":170138.17999999999,"N_COORD97":2542469.1400000001,"ADDRESS":"崇德一街１０６號","OBJECTID":475695},"geometry":{"x":170138.18000000063,"y":2542469.1400000025}},{"attributes":{"ID":475721,"DIS_CODE":0,"TOWNNAME":"佳里區","LI":"安西里","LIN":"18鄰","STREET":"進學路","SECT":" ","MAREA":" ","LANE":" ","ALLEY":" ","HOUSE_NO":"２９４號","E_COORD97":165489.92000000001,"N_COORD97":2562719.0800000001,"ADDRESS":"進學路２９４號","OBJECTID":475696},"geometry":{"x":165489.92000000086,"y":2562719.0800000019}},{"attributes":{"ID":475722,"DIS_CODE":0,"TOWNNAME":"佳里區","LI":"安西里","LIN":"18鄰","STREET":"進學路","SECT":" ","MAREA":" ","LANE":" ","ALLEY":" ","HOUSE_NO":"３００號","E_COORD97":165472.98000000001,"N_COORD97":2562715.2999999998,"ADDRESS":"進學路３００號","OBJECTID":475697},"geometry":{"x":165472.98000000138,"y":2562715.3000000026}},{"attributes":{"ID":475723,"DIS_CODE":0,"TOWNNAME":"佳里區","LI":"安西里","LIN":"18鄰","STREET":"進學路","SECT":" ","MAREA":" ","LANE":" ","ALLEY":" ","HOUSE_NO":"３０２號","E_COORD97":165468.64999999999,"N_COORD97":2562715.3399999999,"ADDRESS":"進學路３０２號","OBJECTID":475698},"geometry":{"x":165468.6500000013,"y":2562715.3399999999}},{"attributes":{"ID":475724,"DIS_CODE":0,"TOWNNAME":"佳里區","LI":"安西里","LIN":"18鄰","STREET":"進學路","SECT":" ","MAREA":" ","LANE":" ","ALLEY":" ","HOUSE_NO":"３０４號","E_COORD97":165464.20999999999,"N_COORD97":2562715.6699999999,"ADDRESS":"進學路３０４號","OBJECTID":475699},"geometry":{"x":165464.21000000089,"y":2562715.6700000018}},{"attributes":{"ID":475725,"DIS_CODE":0,"TOWNNAME":"佳里區","LI":"安西里","LIN":"18鄰","STREET":"進學路","SECT":" ","MAREA":" ","LANE":" ","ALLEY":" ","HOUSE_NO":"３０６號","E_COORD97":165459.81,"N_COORD97":2562716.2200000002,"ADDRESS":"進學路３０６號","OBJECTID":475700},"geometry":{"x":165459.81000000052,"y":2562716.2200000025}},{"attributes":{"ID":475726,"DIS_CODE":0,"TOWNNAME":"佳里區","LI":"安西里","LIN":"18鄰","STREET":"進學路","SECT":" ","MAREA":" ","LANE":" ","ALLEY":" ","HOUSE_NO":"３０８號","E_COORD97":165455.47,"N_COORD97":2562716.3700000001,"ADDRESS":"進學路３０８號","OBJECTID":475701},"geometry":{"x":165455.47000000067,"y":2562716.370000001}},{"attributes":{"ID":475727,"DIS_CODE":0,"TOWNNAME":"佳里區","LI":"安西里","LIN":"18鄰","STREET":"進學路","SECT":" ","MAREA":" ","LANE":" ","ALLEY":" ","HOUSE_NO":"３１０號","E_COORD97":165450.92000000001,"N_COORD97":2562716.8599999999,"ADDRESS":"進學路３１０號","OBJECTID":475702},"geometry":{"x":165450.92000000086,"y":2562716.8600000013}},{"attributes":{"ID":475728,"DIS_CODE":0,"TOWNNAME":"佳里區","LI":"安西里","LIN":"18鄰","STREET":"進學路","SECT":" ","MAREA":" ","LANE":" ","ALLEY":" ","HOUSE_NO":"３１４號","E_COORD97":165440.26999999999,"N_COORD97":2562717.4300000002,"ADDRESS":"進學路３１４號","OBJECTID":475703},"geometry":{"x":165440.26999999955,"y":2562717.4299999997}},{"attributes":{"ID":475729,"DIS_CODE":0,"TOWNNAME":"中西區","LI":"民生里","LIN":"18鄰","STREET":"大仁街","SECT":" ","MAREA":" ","LANE":" ","ALLEY":" ","HOUSE_NO":"１０８號","E_COORD97":167163.70999999999,"N_COORD97":2543488.8799999999,"ADDRESS":"大仁街１０８號","OBJECTID":475704},"geometry":{"x":167163.70999999996,"y":2543488.8800000008}},{"attributes":{"ID":475730,"DIS_CODE":0,"TOWNNAME":"中西區","LI":"民生里","LIN":"18鄰","STREET":"大仁街","SECT":" ","MAREA":" ","LANE":" ","ALLEY":" ","HOUSE_NO":"１１０號","E_COORD97":167159.98999999999,"N_COORD97":2543489.7999999998,"ADDRESS":"大仁街１１０號","OBJECTID":475705},"geometry":{"x":167159.99000000115,"y":2543489.8000000007}},{"attributes":{"ID":475731,"DIS_CODE":0,"TOWNNAME":"中西區","LI":"民生里","LIN":"18鄰","STREET":"大仁街","SECT":" ","MAREA":" ","LANE":" ","ALLEY":" ","HOUSE_NO":"１１２號","E_COORD97":167156.79999999999,"N_COORD97":2543490.71,"ADDRESS":"大仁街１１２號","OBJECTID":475706},"geometry":{"x":167156.80000000168,"y":2543490.7100000009}},{"attributes":{"ID":475732,"DIS_CODE":0,"TOWNNAME":"永康區","LI":"安康里","LIN":"18鄰","STREET":"中華西街","SECT":" ","MAREA":" ","LANE":" ","ALLEY":" ","HOUSE_NO":"７２號","E_COORD97":170766.17999999999,"N_COORD97":2546049.4900000002,"ADDRESS":"中華西街７２號","OBJECTID":475707},"geometry":{"x":170766.1799999997,"y":2546049.4900000021}},{"attributes":{"ID":475733,"DIS_CODE":0,"TOWNNAME":"永康區","LI":"安康里","LIN":"18鄰","STREET":"中華西街","SECT":" ","MAREA":" ","LANE":" ","ALLEY":" ","HOUSE_NO":"１０２號","E_COORD97":170736.39999999999,"N_COORD97":2546105.75,"ADDRESS":"中華西街１０２號","OBJECTID":475708},"geometry":{"x":170736.40000000037,"y":2546105.7500000019}},{"attributes":{"ID":475734,"DIS_CODE":0,"TOWNNAME":"永康區","LI":"安康里","LIN":"18鄰","STREET":"中華西街","SECT":" ","MAREA":" ","LANE":" ","ALLEY":" ","HOUSE_NO":"５４號","E_COORD97":170784.79000000001,"N_COORD97":2546020.5,"ADDRESS":"中華西街５４號","OBJECTID":475709},"geometry":{"x":170784.7900000019,"y":2546020.5}},{"attributes":{"ID":475735,"DIS_CODE":0,"TOWNNAME":"永康區","LI":"安康里","LIN":"18鄰","STREET":"中華西街","SECT":" ","MAREA":" ","LANE":" ","ALLEY":" ","HOUSE_NO":"３６號","E_COORD97":170807.54000000001,"N_COORD97":2545980.9900000002,"ADDRESS":"中華西街３６號","OBJECTID":475710},"geometry":{"x":170807.54000000097,"y":2545980.9900000039}},{"attributes":{"ID":475736,"DIS_CODE":0,"TOWNNAME":"永康區","LI":"安康里","LIN":"18鄰","STREET":"中華西街","SECT":" ","MAREA":" ","LANE":" ","ALLEY":" ","HOUSE_NO":"５２號","E_COORD97":170787.41,"N_COORD97":2546017.0099999998,"ADDRESS":"中華西街５２號","OBJECTID":475711},"geometry":{"x":170787.41000000201,"y":2546017.0099999998}},{"attributes":{"ID":475737,"DIS_CODE":0,"TOWNNAME":"永康區","LI":"安康里","LIN":"18鄰","STREET":"中華西街","SECT":" ","MAREA":" ","LANE":" ","ALLEY":" ","HOUSE_NO":"３８號","E_COORD97":170805.32999999999,"N_COORD97":2545985.2400000002,"ADDRESS":"中華西街３８號","OBJECTID":475712},"geometry":{"x":170805.33000000101,"y":2545985.2400000002}},{"attributes":{"ID":475738,"DIS_CODE":0,"TOWNNAME":"永康區","LI":"安康里","LIN":"18鄰","STREET":"中華西街","SECT":" ","MAREA":" ","LANE":" ","ALLEY":" ","HOUSE_NO":"６６號","E_COORD97":170772.23000000001,"N_COORD97":2546038.25,"ADDRESS":"中華西街６６號","OBJECTID":475713},"geometry":{"x":170772.23000000138,"y":2546038.25}},{"attributes":{"ID":475739,"DIS_CODE":0,"TOWNNAME":"東區","LI":"德光里","LIN":"18鄰","STREET":"崇德二街","SECT":" ","MAREA":" ","LANE":" ","ALLEY":" ","HOUSE_NO":"６１號","E_COORD97":170106.94,"N_COORD97":2542378.3100000001,"ADDRESS":"崇德二街６１號","OBJECTID":475714},"geometry":{"x":170106.94000000041,"y":2542378.3100000042}},{"attributes":{"ID":475740,"DIS_CODE":0,"TOWNNAME":"東區","LI":"德光里","LIN":"18鄰","STREET":"崇德一街","SECT":" ","MAREA":" ","LANE":" ","ALLEY":" ","HOUSE_NO":"９４號","E_COORD97":170121.25,"N_COORD97":2542447.5299999998,"ADDRESS":"崇德一街９４號","OBJECTID":475715},"geometry":{"x":170121.25,"y":2542447.5300000012}},{"attributes":{"ID":475741,"DIS_CODE":0,"TOWNNAME":"東區","LI":"龍山里","LIN":"18鄰","STREET":"東門路","SECT":"一段","MAREA":" ","LANE":" ","ALLEY":" ","HOUSE_NO":"２７８號","E_COORD97":169689.94,"N_COORD97":2543052.1699999999,"ADDRESS":"東門路一段２７８號","OBJECTID":475716},"geometry":{"x":169689.94000000041,"y":2543052.1699999999}},{"attributes":{"ID":475742,"DIS_CODE":0,"TOWNNAME":"東區","LI":"龍山里","LIN":"18鄰","STREET":"東門路","SECT":"一段","MAREA":" ","LANE":" ","ALLEY":" ","HOUSE_NO":"２８０號","E_COORD97":169690.59,"N_COORD97":2543054.5,"ADDRESS":"東門路一段２８０號","OBJECTID":475717},"geometry":{"x":169690.58999999985,"y":2543054.5000000037}},{"attributes":{"ID":475743,"DIS_CODE":0,"TOWNNAME":"安南區","LI":"梅花里","LIN":"18鄰","STREET":"同安路","SECT":" ","MAREA":" ","LANE":" ","ALLEY":" ","HOUSE_NO":"３３２號","E_COORD97":167259.09,"N_COORD97":2549248.1099999999,"ADDRESS":"同安路３３２號","OBJECTID":475718},"geometry":{"x":167259.08999999985,"y":2549248.1100000013}},{"attributes":{"ID":475744,"DIS_CODE":0,"TOWNNAME":"南區","LI":"再興里","LIN":"18鄰","STREET":"金華路","SECT":"二段","MAREA":" ","LANE":" ","ALLEY":" ","HOUSE_NO":"１２２號","E_COORD97":167092.67000000001,"N_COORD97":2542145.0800000001,"ADDRESS":"金華路二段１２２號","OBJECTID":475719},"geometry":{"x":167092.66999999993,"y":2542145.0800000001}},{"attributes":{"ID":475745,"DIS_CODE":0,"TOWNNAME":"南區","LI":"再興里","LIN":"18鄰","STREET":"金華路","SECT":"二段","MAREA":" ","LANE":" ","ALLEY":" ","HOUSE_NO":"１０４號","E_COORD97":167090.47,"N_COORD97":2542104.8900000001,"ADDRESS":"金華路二段１０４號","OBJECTID":475720},"geometry":{"x":167090.46999999974,"y":2542104.8900000025}},{"attributes":{"ID":475746,"DIS_CODE":0,"TOWNNAME":"南區","LI":"再興里","LIN":"18鄰","STREET":"金華路","SECT":"二段","MAREA":" ","LANE":" ","ALLEY":" ","HOUSE_NO":"１０６號","E_COORD97":167090.47,"N_COORD97":2542110.3399999999,"ADDRESS":"金華路二段１０６號","OBJECTID":475721},"geometry":{"x":167090.46999999974,"y":2542110.3400000017}},{"attributes":{"ID":475747,"DIS_CODE":0,"TOWNNAME":"南區","LI":"再興里","LIN":"18鄰","STREET":"金華路","SECT":"二段","MAREA":" ","LANE":" ","ALLEY":" ","HOUSE_NO":"１０８號","E_COORD97":167090.57999999999,"N_COORD97":2542115.3599999999,"ADDRESS":"金華路二段１０８號","OBJECTID":475722},"geometry":{"x":167090.58000000194,"y":2542115.3599999994}},{"attributes":{"ID":475748,"DIS_CODE":0,"TOWNNAME":"南區","LI":"再興里","LIN":"18鄰","STREET":"金華路","SECT":"二段","MAREA":" ","LANE":" ","ALLEY":" ","HOUSE_NO":"１１０號","E_COORD97":167090.79000000001,"N_COORD97":2542120.4900000002,"ADDRESS":"金華路二段１１０號","OBJECTID":475723},"geometry":{"x":167090.7900000019,"y":2542120.4900000021}},{"attributes":{"ID":475749,"DIS_CODE":0,"TOWNNAME":"南區","LI":"再興里","LIN":"18鄰","STREET":"金華路","SECT":"二段","MAREA":" ","LANE":" ","ALLEY":" ","HOUSE_NO":"１１２號","E_COORD97":167091.41,"N_COORD97":2542125.2000000002,"ADDRESS":"金華路二段１１２號","OBJECTID":475724},"geometry":{"x":167091.41000000015,"y":2542125.1999999993}},{"attributes":{"ID":475750,"DIS_CODE":0,"TOWNNAME":"南區","LI":"再興里","LIN":"18鄰","STREET":"金華路","SECT":"二段","MAREA":" ","LANE":" ","ALLEY":" ","HOUSE_NO":"１１２之１號","E_COORD97":167091.82999999999,"N_COORD97":2542129.7999999998,"ADDRESS":"金華路二段１１２之１號","OBJECTID":475725},"geometry":{"x":167091.83000000007,"y":2542129.8000000007}},{"attributes":{"ID":475751,"DIS_CODE":0,"TOWNNAME":"南區","LI":"再興里","LIN":"18鄰","STREET":"金華路","SECT":"二段","MAREA":" ","LANE":" ","ALLEY":" ","HOUSE_NO":"１２４號","E_COORD97":167092.98999999999,"N_COORD97":2542151.5699999998,"ADDRESS":"金華路二段１２４號","OBJECTID":475726},"geometry":{"x":167092.98999999929,"y":2542151.5700000003}},{"attributes":{"ID":475752,"DIS_CODE":0,"TOWNNAME":"南區","LI":"再興里","LIN":"18鄰","STREET":"金華路","SECT":"二段","MAREA":" ","LANE":" ","ALLEY":" ","HOUSE_NO":"１２６號","E_COORD97":167093.60999999999,"N_COORD97":2542155.96,"ADDRESS":"金華路二段１２６號","OBJECTID":475727},"geometry":{"x":167093.61000000034,"y":2542155.9600000009}},{"attributes":{"ID":475753,"DIS_CODE":0,"TOWNNAME":"南區","LI":"再興里","LIN":"18鄰","STREET":"金華路","SECT":"二段","MAREA":" ","LANE":" ","ALLEY":" ","HOUSE_NO":"１３２號","E_COORD97":167094.66,"N_COORD97":2542171.1400000001,"ADDRESS":"金華路二段１３２號","OBJECTID":475728},"geometry":{"x":167094.66000000015,"y":2542171.1400000006}},{"attributes":{"ID":475754,"DIS_CODE":0,"TOWNNAME":"南區","LI":"再興里","LIN":"18鄰","STREET":"金華路","SECT":"二段","MAREA":" ","LANE":" ","ALLEY":" ","HOUSE_NO":"１３４號","E_COORD97":167095.07999999999,"N_COORD97":2542175.2000000002,"ADDRESS":"金華路二段１３４號","OBJECTID":475729},"geometry":{"x":167095.08000000007,"y":2542175.2000000011}},{"attributes":{"ID":475755,"DIS_CODE":0,"TOWNNAME":"南區","LI":"再興里","LIN":"18鄰","STREET":"金華路","SECT":"二段","MAREA":" ","LANE":" ","ALLEY":" ","HOUSE_NO":"１３６號","E_COORD97":167095.07999999999,"N_COORD97":2542180.75,"ADDRESS":"金華路二段１３６號","OBJECTID":475730},"geometry":{"x":167095.08000000007,"y":2542180.75}},{"attributes":{"ID":475756,"DIS_CODE":0,"TOWNNAME":"南區","LI":"再興里","LIN":"18鄰","STREET":"金華路","SECT":"二段","MAREA":" ","LANE":" ","ALLEY":" ","HOUSE_NO":"１３８號","E_COORD97":167095.92000000001,"N_COORD97":2542185.3599999999,"ADDRESS":"金華路二段１３８號","OBJECTID":475731},"geometry":{"x":167095.91999999993,"y":2542185.3599999994}},{"attributes":{"ID":475757,"DIS_CODE":0,"TOWNNAME":"南區","LI":"再興里","LIN":"18鄰","STREET":"金華路","SECT":"二段","MAREA":" ","LANE":" ","ALLEY":" ","HOUSE_NO":"１４０號","E_COORD97":167095.92000000001,"N_COORD97":2542190.1699999999,"ADDRESS":"金華路二段１４０號","OBJECTID":475732},"geometry":{"x":167095.91999999993,"y":2542190.1700000018}},{"attributes":{"ID":475758,"DIS_CODE":0,"TOWNNAME":"南區","LI":"佛壇里","LIN":"18鄰","STREET":"灣裡路","SECT":" ","MAREA":" ","LANE":" ","ALLEY":" ","HOUSE_NO":"５８６號","E_COORD97":166317.25,"N_COORD97":2535570.2599999998,"ADDRESS":"灣裡路５８６號","OBJECTID":475733},"geometry":{"x":166317.25,"y":2535570.2600000035}},{"attributes":{"ID":475759,"DIS_CODE":0,"TOWNNAME":"東區","LI":"德光里","LIN":"18鄰","STREET":"崇德一街","SECT":" ","MAREA":" ","LANE":" ","ALLEY":" ","HOUSE_NO":"８６號","E_COORD97":170110.60999999999,"N_COORD97":2542433.0699999998,"ADDRESS":"崇德一街８６號","OBJECTID":475734},"geometry":{"x":170110.61000000127,"y":2542433.0700000003}},{"attributes":{"ID":475760,"DIS_CODE":0,"TOWNNAME":"東區","LI":"德光里","LIN":"18鄰","STREET":"崇德二街","SECT":" ","MAREA":" ","LANE":" ","ALLEY":" ","HOUSE_NO":"６３號","E_COORD97":170109.39000000001,"N_COORD97":2542382.1400000001,"ADDRESS":"崇德二街６３號","OBJECTID":475735},"geometry":{"x":170109.3900000006,"y":2542382.1400000006}},{"attributes":{"ID":475761,"DIS_CODE":0,"TOWNNAME":"東區","LI":"德光里","LIN":"18鄰","STREET":"崇德二街","SECT":" ","MAREA":" ","LANE":" ","ALLEY":" ","HOUSE_NO":"６５號","E_COORD97":170112.17999999999,"N_COORD97":2542386.1499999999,"ADDRESS":"崇德二街６５號","OBJECTID":475736},"geometry":{"x":170112.18000000156,"y":2542386.1500000041}},{"attributes":{"ID":475762,"DIS_CODE":0,"TOWNNAME":"東區","LI":"德光里","LIN":"18鄰","STREET":"崇德一街","SECT":" ","MAREA":" ","LANE":" ","ALLEY":" ","HOUSE_NO":"１０８號","E_COORD97":170140.97,"N_COORD97":2542472.2799999998,"ADDRESS":"崇德一街１０８號","OBJECTID":475737},"geometry":{"x":170140.97000000067,"y":2542472.2800000031}},{"attributes":{"ID":475763,"DIS_CODE":0,"TOWNNAME":"東區","LI":"德光里","LIN":"18鄰","STREET":"崇德一街","SECT":" ","MAREA":" ","LANE":" ","ALLEY":" ","HOUSE_NO":"１１０號","E_COORD97":170143.45000000001,"N_COORD97":2542476.1699999999,"ADDRESS":"崇德一街１１０號","OBJECTID":475738},"geometry":{"x":170143.45000000112,"y":2542476.1699999999}},{"attributes":{"ID":475764,"DIS_CODE":0,"TOWNNAME":"東區","LI":"德光里","LIN":"18鄰","STREET":"崇德一街","SECT":" ","MAREA":" ","LANE":" ","ALLEY":" ","HOUSE_NO":"６０號","E_COORD97":170078.47,"N_COORD97":2542390.9399999999,"ADDRESS":"崇德一街６０號","OBJECTID":475739},"geometry":{"x":170078.47000000067,"y":2542390.9400000013}},{"attributes":{"ID":475765,"DIS_CODE":0,"TOWNNAME":"東區","LI":"德光里","LIN":"18鄰","STREET":"崇德一街","SECT":" ","MAREA":" ","LANE":" ","ALLEY":" ","HOUSE_NO":"６２號","E_COORD97":170081.26000000001,"N_COORD97":2542393.8999999999,"ADDRESS":"崇德一街６２號","OBJECTID":475740},"geometry":{"x":170081.26000000071,"y":2542393.9000000004}},{"attributes":{"ID":475766,"DIS_CODE":0,"TOWNNAME":"東區","LI":"德光里","LIN":"18鄰","STREET":"崇德一街","SECT":" ","MAREA":" ","LANE":" ","ALLEY":" ","HOUSE_NO":"６４號","E_COORD97":170083.53,"N_COORD97":2542397.3900000001,"ADDRESS":"崇德一街６４號","OBJECTID":475741},"geometry":{"x":170083.53000000119,"y":2542397.3900000006}},{"attributes":{"ID":475767,"DIS_CODE":0,"TOWNNAME":"東區","LI":"德光里","LIN":"18鄰","STREET":"崇德一街","SECT":" ","MAREA":" ","LANE":" ","ALLEY":" ","HOUSE_NO":"６６號","E_COORD97":170086.14000000001,"N_COORD97":2542400.7000000002,"ADDRESS":"崇德一街６６號","OBJECTID":475742},"geometry":{"x":170086.13999999966,"y":2542400.6999999993}},{"attributes":{"ID":475768,"DIS_CODE":0,"TOWNNAME":"東區","LI":"德光里","LIN":"18鄰","STREET":"崇德一街","SECT":" ","MAREA":" ","LANE":" ","ALLEY":" ","HOUSE_NO":"６８號","E_COORD97":170089.10999999999,"N_COORD97":2542403.8300000001,"ADDRESS":"崇德一街６８號","OBJECTID":475743},"geometry":{"x":170089.11000000034,"y":2542403.8300000001}},{"attributes":{"ID":475769,"DIS_CODE":0,"TOWNNAME":"東區","LI":"德光里","LIN":"18鄰","STREET":"崇德一街","SECT":" ","MAREA":" ","LANE":" ","ALLEY":" ","HOUSE_NO":"７０號","E_COORD97":170091.54999999999,"N_COORD97":2542407.1400000001,"ADDRESS":"崇德一街７０號","OBJECTID":475744},"geometry":{"x":170091.55000000075,"y":2542407.1400000025}},{"attributes":{"ID":475770,"DIS_CODE":0,"TOWNNAME":"東區","LI":"德光里","LIN":"18鄰","STREET":"崇德一街","SECT":" ","MAREA":" ","LANE":" ","ALLEY":" ","HOUSE_NO":"７２號","E_COORD97":170095.76000000001,"N_COORD97":2542412.25,"ADDRESS":"崇德一街７２號","OBJECTID":475745},"geometry":{"x":170095.75999999978,"y":2542412.2500000037}},{"attributes":{"ID":475771,"DIS_CODE":0,"TOWNNAME":"東區","LI":"德光里","LIN":"18鄰","STREET":"崇德一街","SECT":" ","MAREA":" ","LANE":" ","ALLEY":" ","HOUSE_NO":"７４號","E_COORD97":170099.25,"N_COORD97":2542417.1299999999,"ADDRESS":"崇德一街７４號","OBJECTID":475746},"geometry":{"x":170099.25,"y":2542417.129999999}},{"attributes":{"ID":475772,"DIS_CODE":0,"TOWNNAME":"東區","LI":"德光里","LIN":"18鄰","STREET":"崇德一街","SECT":" ","MAREA":" ","LANE":" ","ALLEY":" ","HOUSE_NO":"８２號","E_COORD97":170104.31,"N_COORD97":2542423.75,"ADDRESS":"崇德一街８２號","OBJECTID":475747},"geometry":{"x":170104.31000000145,"y":2542423.7500000019}},{"attributes":{"ID":475773,"DIS_CODE":0,"TOWNNAME":"東區","LI":"德光里","LIN":"18鄰","STREET":"崇德一街","SECT":" ","MAREA":" ","LANE":" ","ALLEY":" ","HOUSE_NO":"８４號","E_COORD97":170107.82000000001,"N_COORD97":2542428.8900000001,"ADDRESS":"崇德一街８４號","OBJECTID":475748},"geometry":{"x":170107.8200000003,"y":2542428.8900000043}},{"attributes":{"ID":475774,"DIS_CODE":0,"TOWNNAME":"東區","LI":"德光里","LIN":"18鄰","STREET":"崇德一街","SECT":" ","MAREA":" ","LANE":" ","ALLEY":" ","HOUSE_NO":"８８號","E_COORD97":170112.70000000001,"N_COORD97":2542436.8999999999,"ADDRESS":"崇德一街８８號","OBJECTID":475749},"geometry":{"x":170112.70000000112,"y":2542436.9000000022}},{"attributes":{"ID":475775,"DIS_CODE":0,"TOWNNAME":"東區","LI":"德光里","LIN":"18鄰","STREET":"崇德一街","SECT":" ","MAREA":" ","LANE":" ","ALLEY":" ","HOUSE_NO":"９０號","E_COORD97":170115.84,"N_COORD97":2542440.21,"ADDRESS":"崇德一街９０號","OBJECTID":475750},"geometry":{"x":170115.83999999985,"y":2542440.209999999}},{"attributes":{"ID":475776,"DIS_CODE":0,"TOWNNAME":"東區","LI":"德光里","LIN":"18鄰","STREET":"崇德一街","SECT":" ","MAREA":" ","LANE":" ","ALLEY":" ","HOUSE_NO":"９２號","E_COORD97":170118.45999999999,"N_COORD97":2542443.8700000001,"ADDRESS":"崇德一街９２號","OBJECTID":475751},"geometry":{"x":170118.45999999996,"y":2542443.8700000029}},{"attributes":{"ID":475777,"DIS_CODE":0,"TOWNNAME":"東區","LI":"德光里","LIN":"18鄰","STREET":"崇德一街","SECT":" ","MAREA":" ","LANE":" ","ALLEY":" ","HOUSE_NO":"９６號","E_COORD97":170124.22,"N_COORD97":2542450.8399999999,"ADDRESS":"崇德一街９６號","OBJECTID":475752},"geometry":{"x":170124.22000000067,"y":2542450.8399999999}},{"attributes":{"ID":475778,"DIS_CODE":0,"TOWNNAME":"東區","LI":"德光里","LIN":"18鄰","STREET":"崇德一街","SECT":" ","MAREA":" ","LANE":" ","ALLEY":" ","HOUSE_NO":"９８號","E_COORD97":170127.17999999999,"N_COORD97":2542455.02,"ADDRESS":"崇德一街９８號","OBJECTID":475753},"geometry":{"x":170127.1799999997,"y":2542455.0200000014}},{"attributes":{"ID":475779,"DIS_CODE":0,"TOWNNAME":"東區","LI":"德光里","LIN":"18鄰","STREET":"崇德二街","SECT":" ","MAREA":" ","LANE":" ","ALLEY":" ","HOUSE_NO":"１０１號","E_COORD97":170158.67999999999,"N_COORD97":2542448.21,"ADDRESS":"崇德二街１０１號","OBJECTID":475754},"geometry":{"x":170158.68000000063,"y":2542448.2100000028}},{"attributes":{"ID":475780,"DIS_CODE":0,"TOWNNAME":"東區","LI":"德光里","LIN":"18鄰","STREET":"崇德二街","SECT":" ","MAREA":" ","LANE":" ","ALLEY":" ","HOUSE_NO":"１０３號","E_COORD97":170161.29999999999,"N_COORD97":2542451.3500000001,"ADDRESS":"崇德二街１０３號","OBJECTID":475755},"geometry":{"x":170161.30000000075,"y":2542451.3499999996}},{"attributes":{"ID":475781,"DIS_CODE":0,"TOWNNAME":"東區","LI":"德光里","LIN":"18鄰","STREET":"崇德二街","SECT":" ","MAREA":" ","LANE":" ","ALLEY":" ","HOUSE_NO":"１０５號","E_COORD97":170163.39000000001,"N_COORD97":2542455.0099999998,"ADDRESS":"崇德二街１０５號","OBJECTID":475756},"geometry":{"x":170163.3900000006,"y":2542455.0100000016}},{"attributes":{"ID":475782,"DIS_CODE":0,"TOWNNAME":"東區","LI":"德光里","LIN":"18鄰","STREET":"崇德二街","SECT":" ","MAREA":" ","LANE":" ","ALLEY":" ","HOUSE_NO":"１０７號","E_COORD97":170166.17999999999,"N_COORD97":2542458.6699999999,"ADDRESS":"崇德二街１０７號","OBJECTID":475757},"geometry":{"x":170166.1799999997,"y":2542458.6699999999}},{"attributes":{"ID":475783,"DIS_CODE":0,"TOWNNAME":"東區","LI":"德光里","LIN":"18鄰","STREET":"崇德二街","SECT":" ","MAREA":" ","LANE":" ","ALLEY":" ","HOUSE_NO":"５５號","E_COORD97":170098.73999999999,"N_COORD97":2542367.6800000002,"ADDRESS":"崇德二街５５號","OBJECTID":475758},"geometry":{"x":170098.74000000209,"y":2542367.6799999997}},{"attributes":{"ID":475784,"DIS_CODE":0,"TOWNNAME":"東區","LI":"德光里","LIN":"18鄰","STREET":"崇德二街","SECT":" ","MAREA":" ","LANE":" ","ALLEY":" ","HOUSE_NO":"５７號","E_COORD97":170101.54000000001,"N_COORD97":2542371.3399999999,"ADDRESS":"崇德二街５７號","OBJECTID":475759},"geometry":{"x":170101.5400000019,"y":2542371.3400000017}},{"attributes":{"ID":475785,"DIS_CODE":0,"TOWNNAME":"東區","LI":"德光里","LIN":"18鄰","STREET":"崇德二街","SECT":" ","MAREA":" ","LANE":" ","ALLEY":" ","HOUSE_NO":"５９號","E_COORD97":170104.67999999999,"N_COORD97":2542375.1699999999,"ADDRESS":"崇德二街５９號","OBJECTID":475760},"geometry":{"x":170104.6799999997,"y":2542375.1700000037}},{"attributes":{"ID":475786,"DIS_CODE":0,"TOWNNAME":"東區","LI":"德光里","LIN":"18鄰","STREET":"崇德二街","SECT":" ","MAREA":" ","LANE":" ","ALLEY":" ","HOUSE_NO":"６９號","E_COORD97":170117.59,"N_COORD97":2542393.29,"ADDRESS":"崇德二街６９號","OBJECTID":475761},"geometry":{"x":170117.58999999985,"y":2542393.2899999991}},{"attributes":{"ID":475787,"DIS_CODE":0,"TOWNNAME":"東區","LI":"德光里","LIN":"18鄰","STREET":"崇德二街","SECT":" ","MAREA":" ","LANE":" ","ALLEY":" ","HOUSE_NO":"７１號","E_COORD97":170120.54999999999,"N_COORD97":2542396.9500000002,"ADDRESS":"崇德二街７１號","OBJECTID":475762},"geometry":{"x":170120.55000000075,"y":2542396.9500000011}},{"attributes":{"ID":475788,"DIS_CODE":0,"TOWNNAME":"東區","LI":"德光里","LIN":"18鄰","STREET":"崇德二街","SECT":" ","MAREA":" ","LANE":" ","ALLEY":" ","HOUSE_NO":"７３號","E_COORD97":170123.23000000001,"N_COORD97":2542400.5699999998,"ADDRESS":"崇德二街７３號","OBJECTID":475763},"geometry":{"x":170123.23000000138,"y":2542400.5700000022}},{"attributes":{"ID":475789,"DIS_CODE":0,"TOWNNAME":"東區","LI":"德光里","LIN":"18鄰","STREET":"崇德二街","SECT":" ","MAREA":" ","LANE":" ","ALLEY":" ","HOUSE_NO":"７５號","E_COORD97":170126.01999999999,"N_COORD97":2542404.0499999998,"ADDRESS":"崇德二街７５號","OBJECTID":475764},"geometry":{"x":170126.01999999955,"y":2542404.0500000045}},{"attributes":{"ID":475790,"DIS_CODE":0,"TOWNNAME":"東區","LI":"德光里","LIN":"18鄰","STREET":"崇德二街","SECT":" ","MAREA":" ","LANE":" ","ALLEY":" ","HOUSE_NO":"７７號","E_COORD97":170129.16,"N_COORD97":2542408.5800000001,"ADDRESS":"崇德二街７７號","OBJECTID":475765},"geometry":{"x":170129.16000000015,"y":2542408.5800000001}},{"attributes":{"ID":475791,"DIS_CODE":0,"TOWNNAME":"東區","LI":"德光里","LIN":"18鄰","STREET":"崇德二街","SECT":" ","MAREA":" ","LANE":" ","ALLEY":" ","HOUSE_NO":"７９號","E_COORD97":170131.60000000001,"N_COORD97":2542411.7200000002,"ADDRESS":"崇德二街７９號","OBJECTID":475766},"geometry":{"x":170131.60000000056,"y":2542411.7200000007}},{"attributes":{"ID":475792,"DIS_CODE":0,"TOWNNAME":"東區","LI":"德光里","LIN":"18鄰","STREET":"崇德二街","SECT":" ","MAREA":" ","LANE":" ","ALLEY":" ","HOUSE_NO":"８１號","E_COORD97":170134.57000000001,"N_COORD97":2542415.5499999998,"ADDRESS":"崇德二街８１號","OBJECTID":475767},"geometry":{"x":170134.57000000123,"y":2542415.5500000026}},{"attributes":{"ID":475793,"DIS_CODE":0,"TOWNNAME":"東區","LI":"德光里","LIN":"18鄰","STREET":"崇德二街","SECT":" ","MAREA":" ","LANE":" ","ALLEY":" ","HOUSE_NO":"８３號","E_COORD97":170137.17999999999,"N_COORD97":2542418.8700000001,"ADDRESS":"崇德二街８３號","OBJECTID":475768},"geometry":{"x":170137.1799999997,"y":2542418.870000001}},{"attributes":{"ID":475794,"DIS_CODE":0,"TOWNNAME":"東區","LI":"德光里","LIN":"18鄰","STREET":"崇德二街","SECT":" ","MAREA":" ","LANE":" ","ALLEY":" ","HOUSE_NO":"８５號","E_COORD97":170139.45000000001,"N_COORD97":2542422.5299999998,"ADDRESS":"崇德二街８５號","OBJECTID":475769},"geometry":{"x":170139.44999999925,"y":2542422.5299999993}},{"attributes":{"ID":475795,"DIS_CODE":0,"TOWNNAME":"東區","LI":"德光里","LIN":"18鄰","STREET":"崇德二街","SECT":" ","MAREA":" ","LANE":" ","ALLEY":" ","HOUSE_NO":"８７號","E_COORD97":170141.54999999999,"N_COORD97":2542425.6600000001,"ADDRESS":"崇德二街８７號","OBJECTID":475770},"geometry":{"x":170141.54999999981,"y":2542425.6600000001}},{"attributes":{"ID":475796,"DIS_CODE":0,"TOWNNAME":"東區","LI":"德光里","LIN":"18鄰","STREET":"崇德二街","SECT":" ","MAREA":" ","LANE":" ","ALLEY":" ","HOUSE_NO":"８９號","E_COORD97":170143.81,"N_COORD97":2542429.1499999999,"ADDRESS":"崇德二街８９號","OBJECTID":475771},"geometry":{"x":170143.81000000052,"y":2542429.1500000004}},{"attributes":{"ID":475797,"DIS_CODE":0,"TOWNNAME":"東區","LI":"德光里","LIN":"18鄰","STREET":"崇德二街","SECT":" ","MAREA":" ","LANE":" ","ALLEY":" ","HOUSE_NO":"９１號","E_COORD97":170146.26000000001,"N_COORD97":2542432.46,"ADDRESS":"崇德二街９１號","OBJECTID":475772},"geometry":{"x":170146.26000000071,"y":2542432.4600000028}},{"attributes":{"ID":475798,"DIS_CODE":0,"TOWNNAME":"東區","LI":"德光里","LIN":"18鄰","STREET":"崇德二街","SECT":" ","MAREA":" ","LANE":" ","ALLEY":" ","HOUSE_NO":"９３號","E_COORD97":170148.70000000001,"N_COORD97":2542435.77,"ADDRESS":"崇德二街９３號","OBJECTID":475773},"geometry":{"x":170148.70000000112,"y":2542435.7700000014}},{"attributes":{"ID":475799,"DIS_CODE":0,"TOWNNAME":"東區","LI":"德光里","LIN":"18鄰","STREET":"崇德二街","SECT":" ","MAREA":" ","LANE":" ","ALLEY":" ","HOUSE_NO":"９５號","E_COORD97":170151.32000000001,"N_COORD97":2542438.73,"ADDRESS":"崇德二街９５號","OBJECTID":475774},"geometry":{"x":170151.32000000123,"y":2542438.7300000004}},{"attributes":{"ID":475800,"DIS_CODE":0,"TOWNNAME":"東區","LI":"德光里","LIN":"18鄰","STREET":"崇德二街","SECT":" ","MAREA":" ","LANE":" ","ALLEY":" ","HOUSE_NO":"９７號","E_COORD97":170153.76000000001,"N_COORD97":2542442.2200000002,"ADDRESS":"崇德二街９７號","OBJECTID":475775},"geometry":{"x":170153.75999999978,"y":2542442.2200000007}},{"attributes":{"ID":475801,"DIS_CODE":0,"TOWNNAME":"東區","LI":"德光里","LIN":"18鄰","STREET":"崇德二街","SECT":" ","MAREA":" ","LANE":" ","ALLEY":" ","HOUSE_NO":"９９號","E_COORD97":170156.38,"N_COORD97":2542445.3500000001,"ADDRESS":"崇德二街９９號","OBJECTID":475776},"geometry":{"x":170156.37999999989,"y":2542445.3500000015}},{"attributes":{"ID":475802,"DIS_CODE":0,"TOWNNAME":"東區","LI":"德光里","LIN":"18鄰","STREET":"崇德路","SECT":" ","MAREA":" ","LANE":" ","ALLEY":" ","HOUSE_NO":"１６７號","E_COORD97":169964.37,"N_COORD97":2542306.5099999998,"ADDRESS":"崇德路１６７號","OBJECTID":475777},"geometry":{"x":169964.37000000104,"y":2542306.5100000016}},{"attributes":{"ID":475803,"DIS_CODE":0,"TOWNNAME":"東區","LI":"德光里","LIN":"18鄰","STREET":"崇德路","SECT":" ","MAREA":" ","LANE":" ","ALLEY":" ","HOUSE_NO":"１號","E_COORD97":169788.70999999999,"N_COORD97":2542508.5600000001,"ADDRESS":"崇德路１號","OBJECTID":475778},"geometry":{"x":169788.71000000089,"y":2542508.5600000005}},{"attributes":{"ID":475804,"DIS_CODE":0,"TOWNNAME":"東區","LI":"文聖里","LIN":"18鄰","STREET":"裕文路","SECT":" ","MAREA":" ","LANE":" ","ALLEY":" ","HOUSE_NO":"２２９號","E_COORD97":172448.67999999999,"N_COORD97":2542540.8999999999,"ADDRESS":"裕文路２２９號","OBJECTID":475779},"geometry":{"x":172448.68000000063,"y":2542540.9000000022}},{"attributes":{"ID":475805,"DIS_CODE":0,"TOWNNAME":"東區","LI":"文聖里","LIN":"18鄰","STREET":"裕文路","SECT":" ","MAREA":" ","LANE":" ","ALLEY":" ","HOUSE_NO":"２３１號","E_COORD97":172454.19,"N_COORD97":2542543.71,"ADDRESS":"裕文路２３１號","OBJECTID":475780},"geometry":{"x":172454.19000000134,"y":2542543.7100000028}},{"attributes":{"ID":475806,"DIS_CODE":0,"TOWNNAME":"東區","LI":"文聖里","LIN":"18鄰","STREET":"裕文路","SECT":" ","MAREA":" ","LANE":" ","ALLEY":" ","HOUSE_NO":"２３３號","E_COORD97":172458.69,"N_COORD97":2542540.1099999999,"ADDRESS":"裕文路２３３號","OBJECTID":475781},"geometry":{"x":172458.69000000041,"y":2542540.1099999994}},{"attributes":{"ID":475807,"DIS_CODE":0,"TOWNNAME":"東區","LI":"文聖里","LIN":"18鄰","STREET":"裕文路","SECT":" ","MAREA":" ","LANE":" ","ALLEY":" ","HOUSE_NO":"２３５號","E_COORD97":172464.42999999999,"N_COORD97":2542543.8199999998,"ADDRESS":"裕文路２３５號","OBJECTID":475782},"geometry":{"x":172464.4299999997,"y":2542543.8200000003}},{"attributes":{"ID":475808,"DIS_CODE":0,"TOWNNAME":"東區","LI":"文聖里","LIN":"18鄰","STREET":"裕文路","SECT":" ","MAREA":" ","LANE":" ","ALLEY":" ","HOUSE_NO":"２３７號","E_COORD97":172469.16,"N_COORD97":2542540.4500000002,"ADDRESS":"裕文路２３７號","OBJECTID":475783},"geometry":{"x":172469.16000000108,"y":2542540.4500000011}},{"attributes":{"ID":475809,"DIS_CODE":0,"TOWNNAME":"東區","LI":"關聖里","LIN":"18鄰","STREET":"裕孝路","SECT":" ","MAREA":" ","LANE":" ","ALLEY":" ","HOUSE_NO":"１３１之１０號","E_COORD97":172498.41,"N_COORD97":2543064.2799999998,"ADDRESS":"裕孝路１３１之１０號","OBJECTID":475784},"geometry":{"x":172498.41000000108,"y":2543064.2799999993}},{"attributes":{"ID":475810,"DIS_CODE":0,"TOWNNAME":"東區","LI":"關聖里","LIN":"18鄰","STREET":"裕孝路","SECT":" ","MAREA":" ","LANE":" ","ALLEY":" ","HOUSE_NO":"１３１之１１號","E_COORD97":172503.44,"N_COORD97":2543061.3900000001,"ADDRESS":"裕孝路１３１之１１號","OBJECTID":475785},"geometry":{"x":172503.44000000134,"y":2543061.3900000006}},{"attributes":{"ID":475811,"DIS_CODE":0,"TOWNNAME":"東區","LI":"關聖里","LIN":"18鄰","STREET":"裕孝路","SECT":" ","MAREA":" ","LANE":" ","ALLEY":" ","HOUSE_NO":"１３１之１２號","E_COORD97":172508.25,"N_COORD97":2543064.2799999998,"ADDRESS":"裕孝路１３１之１２號","OBJECTID":475786},"geometry":{"x":172508.25,"y":2543064.2799999993}},{"attributes":{"ID":475812,"DIS_CODE":0,"TOWNNAME":"東區","LI":"關聖里","LIN":"18鄰","STREET":"裕孝路","SECT":" ","MAREA":" ","LANE":" ","ALLEY":" ","HOUSE_NO":"１３１之１３號","E_COORD97":172513.39000000001,"N_COORD97":2543060.8599999999,"ADDRESS":"裕孝路１３１之１３號","OBJECTID":475787},"geometry":{"x":172513.3900000006,"y":2543060.8599999994}},{"attributes":{"ID":475813,"DIS_CODE":0,"TOWNNAME":"東區","LI":"關聖里","LIN":"18鄰","STREET":"裕孝路","SECT":" ","MAREA":" ","LANE":" ","ALLEY":" ","HOUSE_NO":"１３１之１５號","E_COORD97":172517.98999999999,"N_COORD97":2543064.8199999998,"ADDRESS":"裕孝路１３１之１５號","OBJECTID":475788},"geometry":{"x":172517.99000000115,"y":2543064.8200000003}},{"attributes":{"ID":475814,"DIS_CODE":0,"TOWNNAME":"東區","LI":"關聖里","LIN":"18鄰","STREET":"裕孝路","SECT":" ","MAREA":" ","LANE":" ","ALLEY":" ","HOUSE_NO":"１３１之１號","E_COORD97":172460.09,"N_COORD97":2543064.6000000001,"ADDRESS":"裕孝路１３１之１號","OBJECTID":475789},"geometry":{"x":172460.08999999985,"y":2543064.6000000015}},{"attributes":{"ID":475815,"DIS_CODE":0,"TOWNNAME":"東區","LI":"關聖里","LIN":"18鄰","STREET":"裕孝路","SECT":" ","MAREA":" ","LANE":" ","ALLEY":" ","HOUSE_NO":"１３１之２號","E_COORD97":172464.91,"N_COORD97":2543061.9300000002,"ADDRESS":"裕孝路１３１之２號","OBJECTID":475790},"geometry":{"x":172464.91000000015,"y":2543061.9300000016}},{"attributes":{"ID":475816,"DIS_CODE":0,"TOWNNAME":"東區","LI":"關聖里","LIN":"18鄰","STREET":"裕孝路","SECT":" ","MAREA":" ","LANE":" ","ALLEY":" ","HOUSE_NO":"１３１之３號","E_COORD97":172469.19,"N_COORD97":2543064.6000000001,"ADDRESS":"裕孝路１３１之３號","OBJECTID":475791},"geometry":{"x":172469.19000000227,"y":2543064.6000000015}},{"attributes":{"ID":475817,"DIS_CODE":0,"TOWNNAME":"東區","LI":"關聖里","LIN":"18鄰","STREET":"裕孝路","SECT":" ","MAREA":" ","LANE":" ","ALLEY":" ","HOUSE_NO":"１３１之５號","E_COORD97":172474.32999999999,"N_COORD97":2543061.7200000002,"ADDRESS":"裕孝路１３１之５號","OBJECTID":475792},"geometry":{"x":172474.33000000007,"y":2543061.7200000025}},{"attributes":{"ID":475818,"DIS_CODE":0,"TOWNNAME":"東區","LI":"關聖里","LIN":"18鄰","STREET":"裕孝路","SECT":" ","MAREA":" ","LANE":" ","ALLEY":" ","HOUSE_NO":"１３１之６號","E_COORD97":172479.14000000001,"N_COORD97":2543064.8199999998,"ADDRESS":"裕孝路１３１之６號","OBJECTID":475793},"geometry":{"x":172479.1400000006,"y":2543064.8200000003}},{"attributes":{"ID":475819,"DIS_CODE":0,"TOWNNAME":"東區","LI":"關聖里","LIN":"18鄰","STREET":"裕孝路","SECT":" ","MAREA":" ","LANE":" ","ALLEY":" ","HOUSE_NO":"１３１之７號","E_COORD97":172483.95999999999,"N_COORD97":2543061.3900000001,"ADDRESS":"裕孝路１３１之７號","OBJECTID":475794},"geometry":{"x":172483.96000000089,"y":2543061.3900000006}},{"attributes":{"ID":475820,"DIS_CODE":0,"TOWNNAME":"東區","LI":"關聖里","LIN":"18鄰","STREET":"裕孝路","SECT":" ","MAREA":" ","LANE":" ","ALLEY":" ","HOUSE_NO":"１３１之８號","E_COORD97":172488.76999999999,"N_COORD97":2543064.2799999998,"ADDRESS":"裕孝路１３１之８號","OBJECTID":475795},"geometry":{"x":172488.77000000048,"y":2543064.2799999993}},{"attributes":{"ID":475821,"DIS_CODE":0,"TOWNNAME":"東區","LI":"關聖里","LIN":"18鄰","STREET":"裕孝路","SECT":" ","MAREA":" ","LANE":" ","ALLEY":" ","HOUSE_NO":"１３１之９號","E_COORD97":172493.59,"N_COORD97":2543061.7200000002,"ADDRESS":"裕孝路１３１之９號","OBJECTID":475796},"geometry":{"x":172493.59000000078,"y":2543061.7200000025}},{"attributes":{"ID":475822,"DIS_CODE":0,"TOWNNAME":"東區","LI":"關聖里","LIN":"18鄰","STREET":"裕孝路","SECT":" ","MAREA":" ","LANE":" ","ALLEY":" ","HOUSE_NO":"１３１號","E_COORD97":172455.06,"N_COORD97":2543061.0699999998,"ADDRESS":"裕孝路１３１號","OBJECTID":475797},"geometry":{"x":172455.05999999959,"y":2543061.0699999984}},{"attributes":{"ID":475823,"DIS_CODE":0,"TOWNNAME":"東區","LI":"關聖里","LIN":"18鄰","STREET":"裕孝路","SECT":" ","MAREA":" ","LANE":" ","ALLEY":" ","HOUSE_NO":"１３３之１０號","E_COORD97":172503.22,"N_COORD97":2543043.96,"ADDRESS":"裕孝路１３３之１０號","OBJECTID":475798},"geometry":{"x":172503.21999999974,"y":2543043.9600000009}},{"attributes":{"ID":475824,"DIS_CODE":0,"TOWNNAME":"東區","LI":"關聖里","LIN":"18鄰","STREET":"裕孝路","SECT":" ","MAREA":" ","LANE":" ","ALLEY":" ","HOUSE_NO":"１３３之１１號","E_COORD97":172507.82999999999,"N_COORD97":2543046.4199999999,"ADDRESS":"裕孝路１３３之１１號","OBJECTID":475799},"geometry":{"x":172507.83000000007,"y":2543046.4200000018}},{"attributes":{"ID":475825,"DIS_CODE":0,"TOWNNAME":"東區","LI":"關聖里","LIN":"18鄰","STREET":"裕孝路","SECT":" ","MAREA":" ","LANE":" ","ALLEY":" ","HOUSE_NO":"１３３之１２號","E_COORD97":172513.39000000001,"N_COORD97":2543044.0699999998,"ADDRESS":"裕孝路１３３之１２號","OBJECTID":475800},"geometry":{"x":172513.3900000006,"y":2543044.0699999984}}]}