{"displayFieldName":"TOWNNAME","fieldAliases":{"ID":"ID","DIS_CODE":"DIS_CODE","TOWNNAME":"TOWNNAME","LI":"LI","LIN":"LIN","STREET":"STREET","SECT":"SECT","MAREA":"MAREA","LANE":"LANE","ALLEY":"ALLEY","HOUSE_NO":"HOUSE_NO","E_COORD97":"E_COORD97","N_COORD97":"N_COORD97","ADDRESS":"ADDRESS","OBJECTID":"OBJECTID"},"geometryType":"esriGeometryPoint","spatialReference":{"wkid":102443,"latestWkid":3826},"fields":[{"name":"ID","type":"esriFieldTypeDouble","alias":"ID"},{"name":"DIS_CODE","type":"esriFieldTypeInteger","alias":"DIS_CODE"},{"name":"TOWNNAME","type":"esriFieldTypeString","alias":"TOWNNAME","length":8},{"name":"LI","type":"esriFieldTypeString","alias":"LI","length":8},{"name":"LIN","type":"esriFieldTypeString","alias":"LIN","length":12},{"name":"STREET","type":"esriFieldTypeString","alias":"STREET","length":20},{"name":"SECT","type":"esriFieldTypeString","alias":"SECT","length":8},{"name":"MAREA","type":"esriFieldTypeString","alias":"MAREA","length":12},{"name":"LANE","type":"esriFieldTypeString","alias":"LANE","length":10},{"name":"ALLEY","type":"esriFieldTypeString","alias":"ALLEY","length":10},{"name":"HOUSE_NO","type":"esriFieldTypeString","alias":"HOUSE_NO","length":20},{"name":"E_COORD97","type":"esriFieldTypeDouble","alias":"E_COORD97"},{"name":"N_COORD97","type":"esriFieldTypeDouble","alias":"N_COORD97"},{"name":"ADDRESS","type":"esriFieldTypeString","alias":"ADDRESS","length":50},{"name":"OBJECTID","type":"esriFieldTypeOID","alias":"OBJECTID"}],"features":[{"attributes":{"ID":276806,"DIS_CODE":0,"TOWNNAME":"南區","LI":"喜北里","LIN":"1鄰","STREET":"喜樹路","SECT":" ","MAREA":" ","LANE":"２０巷","ALLEY":" ","HOUSE_NO":"２１號","E_COORD97":165799.64000000001,"N_COORD97":2538680.9199999999,"ADDRESS":"喜樹路２０巷２１號","OBJECTID":276801},"geometry":{"x":165799.63999999873,"y":2538680.9199999999}},{"attributes":{"ID":276807,"DIS_CODE":0,"TOWNNAME":"南區","LI":"喜北里","LIN":"1鄰","STREET":"喜樹路","SECT":" ","MAREA":" ","LANE":"２０巷","ALLEY":" ","HOUSE_NO":"２３號","E_COORD97":165793.26000000001,"N_COORD97":2538680.9199999999,"ADDRESS":"喜樹路２０巷２３號","OBJECTID":276802},"geometry":{"x":165793.25999999978,"y":2538680.9199999999}},{"attributes":{"ID":276808,"DIS_CODE":0,"TOWNNAME":"南區","LI":"喜北里","LIN":"1鄰","STREET":"喜樹路","SECT":" ","MAREA":" ","LANE":"２０巷","ALLEY":" ","HOUSE_NO":"２５號","E_COORD97":165787.13,"N_COORD97":2538681.4300000002,"ADDRESS":"喜樹路２０巷２５號","OBJECTID":276803},"geometry":{"x":165787.13000000082,"y":2538681.4300000034}},{"attributes":{"ID":276809,"DIS_CODE":0,"TOWNNAME":"仁德區","LI":"仁義里","LIN":"34鄰","STREET":"正義二街","SECT":" ","MAREA":" ","LANE":" ","ALLEY":" ","HOUSE_NO":"１０７號五樓","E_COORD97":173678.37,"N_COORD97":2541601.5099999998,"ADDRESS":"正義二街１０７號五樓","OBJECTID":276804},"geometry":{"x":173678.37000000104,"y":2541601.5100000016}},{"attributes":{"ID":276810,"DIS_CODE":0,"TOWNNAME":"南區","LI":"大林里","LIN":"1鄰","STREET":"大林路","SECT":" ","MAREA":" ","LANE":"５５巷","ALLEY":" ","HOUSE_NO":"１號","E_COORD97":169273.37,"N_COORD97":2541800.0899999999,"ADDRESS":"大林路５５巷１號","OBJECTID":276805},"geometry":{"x":169273.37000000011,"y":2541800.0900000017}},{"attributes":{"ID":276811,"DIS_CODE":0,"TOWNNAME":"安南區","LI":"城北里","LIN":"3鄰","STREET":"安中路","SECT":"六段","MAREA":" ","LANE":"５７８巷","ALLEY":" ","HOUSE_NO":"９０號","E_COORD97":161067.76999999999,"N_COORD97":2551495.02,"ADDRESS":"安中路六段５７８巷９０號","OBJECTID":276806},"geometry":{"x":161067.77000000048,"y":2551495.0199999996}},{"attributes":{"ID":276812,"DIS_CODE":0,"TOWNNAME":"後壁區","LI":"頂長里","LIN":"3鄰","STREET":" ","SECT":" ","MAREA":"長短樹","LANE":" ","ALLEY":" ","HOUSE_NO":"２２號","E_COORD97":181431.12,"N_COORD97":2585058.1600000001,"ADDRESS":"長短樹２２號","OBJECTID":276807},"geometry":{"x":181431.12000000011,"y":2585058.160000002}},{"attributes":{"ID":276813,"DIS_CODE":0,"TOWNNAME":"北區","LI":"大和里","LIN":"1鄰","STREET":"文賢路","SECT":" ","MAREA":" ","LANE":"６２７巷","ALLEY":" ","HOUSE_NO":"２號","E_COORD97":167335.45000000001,"N_COORD97":2545983.2400000002,"ADDRESS":"文賢路６２７巷２號","OBJECTID":276808},"geometry":{"x":167335.45000000019,"y":2545983.2400000021}},{"attributes":{"ID":276814,"DIS_CODE":0,"TOWNNAME":"北區","LI":"文元里","LIN":"1鄰","STREET":"北成路","SECT":" ","MAREA":" ","LANE":"４８１巷","ALLEY":" ","HOUSE_NO":"１１號","E_COORD97":167857.60999999999,"N_COORD97":2546516.7999999998,"ADDRESS":"北成路４８１巷１１號","OBJECTID":276809},"geometry":{"x":167857.61000000127,"y":2546516.8000000007}},{"attributes":{"ID":276815,"DIS_CODE":0,"TOWNNAME":"白河區","LI":"永安里","LIN":"3鄰","STREET":"中正路","SECT":" ","MAREA":" ","LANE":" ","ALLEY":" ","HOUSE_NO":"４７號","E_COORD97":190062.95000000001,"N_COORD97":2583115.6499999999,"ADDRESS":"中正路４７號","OBJECTID":276810},"geometry":{"x":190062.95000000019,"y":2583115.6500000022}},{"attributes":{"ID":276816,"DIS_CODE":0,"TOWNNAME":"白河區","LI":"永安里","LIN":"3鄰","STREET":"中正路","SECT":" ","MAREA":" ","LANE":" ","ALLEY":" ","HOUSE_NO":"４９號","E_COORD97":190059.28,"N_COORD97":2583119.3999999999,"ADDRESS":"中正路４９號","OBJECTID":276811},"geometry":{"x":190059.28000000212,"y":2583119.4000000004}},{"attributes":{"ID":276817,"DIS_CODE":0,"TOWNNAME":"白河區","LI":"永安里","LIN":"3鄰","STREET":"中正路","SECT":" ","MAREA":" ","LANE":" ","ALLEY":" ","HOUSE_NO":"５３號","E_COORD97":190052.14000000001,"N_COORD97":2583124.7200000002,"ADDRESS":"中正路５３號","OBJECTID":276812},"geometry":{"x":190052.13999999966,"y":2583124.7200000044}},{"attributes":{"ID":276818,"DIS_CODE":0,"TOWNNAME":"白河區","LI":"永安里","LIN":"3鄰","STREET":"中正路","SECT":" ","MAREA":" ","LANE":" ","ALLEY":" ","HOUSE_NO":"５５號","E_COORD97":190043.26999999999,"N_COORD97":2583123.79,"ADDRESS":"中正路５５號","OBJECTID":276813},"geometry":{"x":190043.26999999862,"y":2583123.790000001}},{"attributes":{"ID":276819,"DIS_CODE":0,"TOWNNAME":"北區","LI":"文元里","LIN":"1鄰","STREET":"北成路","SECT":" ","MAREA":" ","LANE":"４８１巷","ALLEY":" ","HOUSE_NO":"１３號","E_COORD97":167851.57000000001,"N_COORD97":2546515.6800000002,"ADDRESS":"北成路４８１巷１３號","OBJECTID":276814},"geometry":{"x":167851.5700000003,"y":2546515.6800000016}},{"attributes":{"ID":276820,"DIS_CODE":0,"TOWNNAME":"北區","LI":"文元里","LIN":"1鄰","STREET":"北成路","SECT":" ","MAREA":" ","LANE":"４８１巷","ALLEY":" ","HOUSE_NO":"１５號","E_COORD97":167845.64000000001,"N_COORD97":2546514.7200000002,"ADDRESS":"北成路４８１巷１５號","OBJECTID":276815},"geometry":{"x":167845.63999999966,"y":2546514.7200000007}},{"attributes":{"ID":276821,"DIS_CODE":0,"TOWNNAME":"北區","LI":"文元里","LIN":"1鄰","STREET":"北成路","SECT":" ","MAREA":" ","LANE":"４８１巷","ALLEY":" ","HOUSE_NO":"２號","E_COORD97":167828.62,"N_COORD97":2546518.02,"ADDRESS":"北成路４８１巷２號","OBJECTID":276816},"geometry":{"x":167828.62000000104,"y":2546518.0199999996}},{"attributes":{"ID":276822,"DIS_CODE":0,"TOWNNAME":"北區","LI":"文元里","LIN":"1鄰","STREET":"北成路","SECT":" ","MAREA":" ","LANE":"４８１巷","ALLEY":" ","HOUSE_NO":"６號","E_COORD97":167824.75,"N_COORD97":2546517.75,"ADDRESS":"北成路４８１巷６號","OBJECTID":276817},"geometry":{"x":167824.75,"y":2546517.7500000037}},{"attributes":{"ID":276823,"DIS_CODE":0,"TOWNNAME":"南區","LI":"大成里","LIN":"1鄰","STREET":"健康路","SECT":"一段","MAREA":" ","LANE":"３４７巷","ALLEY":" ","HOUSE_NO":"１１號","E_COORD97":168021.25,"N_COORD97":2542383.5099999998,"ADDRESS":"健康路一段３４７巷１１號","OBJECTID":276818},"geometry":{"x":168021.25,"y":2542383.5100000016}},{"attributes":{"ID":276824,"DIS_CODE":0,"TOWNNAME":"南區","LI":"大成里","LIN":"1鄰","STREET":"健康路","SECT":"一段","MAREA":" ","LANE":"３４７巷","ALLEY":" ","HOUSE_NO":"１２號","E_COORD97":168002.60999999999,"N_COORD97":2542388.1099999999,"ADDRESS":"健康路一段３４７巷１２號","OBJECTID":276819},"geometry":{"x":168002.6099999994,"y":2542388.1099999994}},{"attributes":{"ID":276825,"DIS_CODE":0,"TOWNNAME":"北區","LI":"正風里","LIN":"1鄰","STREET":"公園路","SECT":" ","MAREA":" ","LANE":"８６２巷","ALLEY":" ","HOUSE_NO":"２１號","E_COORD97":169359.44,"N_COORD97":2545990.2599999998,"ADDRESS":"公園路８６２巷２１號","OBJECTID":276820},"geometry":{"x":169359.44000000041,"y":2545990.2600000016}},{"attributes":{"ID":276826,"DIS_CODE":0,"TOWNNAME":"北區","LI":"重興里","LIN":"1鄰","STREET":"東豐路","SECT":" ","MAREA":" ","LANE":"３０５巷","ALLEY":" ","HOUSE_NO":"２６號","E_COORD97":170439.97,"N_COORD97":2544874.9900000002,"ADDRESS":"東豐路３０５巷２６號","OBJECTID":276821},"geometry":{"x":170439.96999999974,"y":2544874.9900000002}},{"attributes":{"ID":276827,"DIS_CODE":0,"TOWNNAME":"北區","LI":"大豐里","LIN":"1鄰","STREET":"武聖路","SECT":" ","MAREA":" ","LANE":"８巷","ALLEY":" ","HOUSE_NO":"４號","E_COORD97":167287.70000000001,"N_COORD97":2545139.1899999999,"ADDRESS":"武聖路８巷４號","OBJECTID":276822},"geometry":{"x":167287.70000000019,"y":2545139.1900000013}},{"attributes":{"ID":276828,"DIS_CODE":0,"TOWNNAME":"北區","LI":"重興里","LIN":"1鄰","STREET":"東豐路","SECT":" ","MAREA":" ","LANE":"３０５巷","ALLEY":" ","HOUSE_NO":"２０號","E_COORD97":170435.35000000001,"N_COORD97":2544857.7799999998,"ADDRESS":"東豐路３０５巷２０號","OBJECTID":276823},"geometry":{"x":170435.35000000056,"y":2544857.7799999993}},{"attributes":{"ID":276829,"DIS_CODE":0,"TOWNNAME":"北區","LI":"重興里","LIN":"1鄰","STREET":"東豐路","SECT":" ","MAREA":" ","LANE":"３０５巷","ALLEY":" ","HOUSE_NO":"２２號","E_COORD97":170437.25,"N_COORD97":2544864.9199999999,"ADDRESS":"東豐路３０５巷２２號","OBJECTID":276824},"geometry":{"x":170437.25,"y":2544864.9199999999}},{"attributes":{"ID":276830,"DIS_CODE":0,"TOWNNAME":"北區","LI":"重興里","LIN":"1鄰","STREET":"東豐路","SECT":" ","MAREA":" ","LANE":"３０５巷","ALLEY":" ","HOUSE_NO":"２４號","E_COORD97":170438.84,"N_COORD97":2544869.3599999999,"ADDRESS":"東豐路３０５巷２４號","OBJECTID":276825},"geometry":{"x":170438.84000000078,"y":2544869.3600000013}},{"attributes":{"ID":276831,"DIS_CODE":0,"TOWNNAME":"北區","LI":"重興里","LIN":"1鄰","STREET":"東豐路","SECT":" ","MAREA":" ","LANE":"３０５巷","ALLEY":" ","HOUSE_NO":"２８號","E_COORD97":170440.64000000001,"N_COORD97":2544878.8700000001,"ADDRESS":"東豐路３０５巷２８號","OBJECTID":276826},"geometry":{"x":170440.63999999966,"y":2544878.8700000029}},{"attributes":{"ID":276832,"DIS_CODE":0,"TOWNNAME":"白河區","LI":"永安里","LIN":"3鄰","STREET":"中正路","SECT":" ","MAREA":" ","LANE":" ","ALLEY":" ","HOUSE_NO":"５７號","E_COORD97":190037.12,"N_COORD97":2583122.9900000002,"ADDRESS":"中正路５７號","OBJECTID":276827},"geometry":{"x":190037.12000000104,"y":2583122.9900000021}},{"attributes":{"ID":276833,"DIS_CODE":0,"TOWNNAME":"北區","LI":"重興里","LIN":"1鄰","STREET":"東豐路","SECT":" ","MAREA":" ","LANE":"３０５巷","ALLEY":" ","HOUSE_NO":"３０號","E_COORD97":170441.01000000001,"N_COORD97":2544882.8500000001,"ADDRESS":"東豐路３０５巷３０號","OBJECTID":276828},"geometry":{"x":170441.01000000071,"y":2544882.8500000034}},{"attributes":{"ID":276834,"DIS_CODE":0,"TOWNNAME":"北區","LI":"重興里","LIN":"1鄰","STREET":"東豐路","SECT":" ","MAREA":" ","LANE":"３０５巷","ALLEY":" ","HOUSE_NO":"３２號","E_COORD97":170441.10999999999,"N_COORD97":2544887.1099999999,"ADDRESS":"東豐路３０５巷３２號","OBJECTID":276829},"geometry":{"x":170441.11000000127,"y":2544887.1099999994}},{"attributes":{"ID":276835,"DIS_CODE":0,"TOWNNAME":"北區","LI":"重興里","LIN":"1鄰","STREET":"東豐路","SECT":" ","MAREA":" ","LANE":"３０５巷","ALLEY":" ","HOUSE_NO":"３４號","E_COORD97":170441.20000000001,"N_COORD97":2544891.27,"ADDRESS":"東豐路３０５巷３４號","OBJECTID":276830},"geometry":{"x":170441.19999999925,"y":2544891.2700000014}},{"attributes":{"ID":276836,"DIS_CODE":0,"TOWNNAME":"仁德區","LI":"保安里","LIN":"12鄰","STREET":"開發六路","SECT":" ","MAREA":" ","LANE":" ","ALLEY":" ","HOUSE_NO":"１７號","E_COORD97":172982.89389899999,"N_COORD97":2535723.9997299998,"ADDRESS":"開發六路１７號","OBJECTID":276831},"geometry":{"x":172982.89389900211,"y":2535723.9997340012}},{"attributes":{"ID":276837,"DIS_CODE":0,"TOWNNAME":"北區","LI":"興北里","LIN":"1鄰","STREET":"北門路","SECT":"二段","MAREA":" ","LANE":"２０２巷","ALLEY":" ","HOUSE_NO":"１號","E_COORD97":169473.39999999999,"N_COORD97":2545138.3900000001,"ADDRESS":"北門路二段２０２巷１號","OBJECTID":276832},"geometry":{"x":169473.40000000037,"y":2545138.3900000025}},{"attributes":{"ID":276838,"DIS_CODE":0,"TOWNNAME":"北區","LI":"興北里","LIN":"1鄰","STREET":"北門路","SECT":"二段","MAREA":" ","LANE":"２０２巷","ALLEY":" ","HOUSE_NO":"３號","E_COORD97":169477.29999999999,"N_COORD97":2545136.5800000001,"ADDRESS":"北門路二段２０２巷３號","OBJECTID":276833},"geometry":{"x":169477.29999999888,"y":2545136.5800000019}},{"attributes":{"ID":276839,"DIS_CODE":0,"TOWNNAME":"北區","LI":"興北里","LIN":"1鄰","STREET":"北門路","SECT":"二段","MAREA":" ","LANE":"２０２巷","ALLEY":" ","HOUSE_NO":"４號","E_COORD97":169478.56,"N_COORD97":2545124.54,"ADDRESS":"北門路二段２０２巷４號","OBJECTID":276834},"geometry":{"x":169478.55999999959,"y":2545124.5399999991}},{"attributes":{"ID":276840,"DIS_CODE":0,"TOWNNAME":"北區","LI":"興北里","LIN":"1鄰","STREET":"北門路","SECT":"二段","MAREA":" ","LANE":"２０２巷","ALLEY":" ","HOUSE_NO":"５號","E_COORD97":169480.29000000001,"N_COORD97":2545135.5800000001,"ADDRESS":"北門路二段２０２巷５號","OBJECTID":276835},"geometry":{"x":169480.29000000004,"y":2545135.5799999982}},{"attributes":{"ID":276841,"DIS_CODE":0,"TOWNNAME":"北區","LI":"興北里","LIN":"1鄰","STREET":"北門路","SECT":"二段","MAREA":" ","LANE":"２０２巷","ALLEY":" ","HOUSE_NO":"６號","E_COORD97":169480.92000000001,"N_COORD97":2545131.3300000001,"ADDRESS":"北門路二段２０２巷６號","OBJECTID":276836},"geometry":{"x":169480.92000000086,"y":2545131.3300000019}},{"attributes":{"ID":276842,"DIS_CODE":0,"TOWNNAME":"永康區","LI":"安康里","LIN":"1鄰","STREET":"中華路","SECT":" ","MAREA":" ","LANE":"７２７巷","ALLEY":" ","HOUSE_NO":"１６號十一樓之６","E_COORD97":170792.01000000001,"N_COORD97":2546399.8300000001,"ADDRESS":"中華路７２７巷１６號十一樓之６","OBJECTID":276837},"geometry":{"x":170792.01000000071,"y":2546399.8300000019}},{"attributes":{"ID":276843,"DIS_CODE":0,"TOWNNAME":"安南區","LI":"溪東里","LIN":"1鄰","STREET":"府安路","SECT":"五段","MAREA":" ","LANE":"１４４巷","ALLEY":" ","HOUSE_NO":"１８號三樓之７","E_COORD97":167888.07999999999,"N_COORD97":2547117.6400000001,"ADDRESS":"府安路五段１４４巷１８號三樓之７","OBJECTID":276838},"geometry":{"x":167888.08000000101,"y":2547117.6400000025}},{"attributes":{"ID":276844,"DIS_CODE":0,"TOWNNAME":"安南區","LI":"溪東里","LIN":"1鄰","STREET":"府安路","SECT":"五段","MAREA":" ","LANE":"１４４巷","ALLEY":" ","HOUSE_NO":"１８號四樓之７","E_COORD97":167888.07999999999,"N_COORD97":2547117.6400000001,"ADDRESS":"府安路五段１４４巷１８號四樓之７","OBJECTID":276839},"geometry":{"x":167888.08000000101,"y":2547117.6400000025}},{"attributes":{"ID":276845,"DIS_CODE":0,"TOWNNAME":"南區","LI":"明興里","LIN":"10鄰","STREET":"金華路","SECT":"一段","MAREA":" ","LANE":"１０２巷","ALLEY":" ","HOUSE_NO":"１９號","E_COORD97":167019.60999999999,"N_COORD97":2540513.79,"ADDRESS":"金華路一段１０２巷１９號","OBJECTID":276840},"geometry":{"x":167019.6100000022,"y":2540513.790000001}},{"attributes":{"ID":276846,"DIS_CODE":0,"TOWNNAME":"永康區","LI":"安康里","LIN":"1鄰","STREET":"中華路","SECT":" ","MAREA":" ","LANE":"７２７巷","ALLEY":" ","HOUSE_NO":"１６號六樓之７","E_COORD97":170790.73999999999,"N_COORD97":2546399.8300000001,"ADDRESS":"中華路７２７巷１６號六樓之７","OBJECTID":276841},"geometry":{"x":170790.74000000115,"y":2546399.8300000019}},{"attributes":{"ID":276847,"DIS_CODE":0,"TOWNNAME":"永康區","LI":"安康里","LIN":"1鄰","STREET":"中華路","SECT":" ","MAREA":" ","LANE":"７２７巷","ALLEY":" ","HOUSE_NO":"１６號五樓之８","E_COORD97":170790.81,"N_COORD97":2546399.8300000001,"ADDRESS":"中華路７２７巷１６號五樓之８","OBJECTID":276842},"geometry":{"x":170790.81000000145,"y":2546399.8300000019}},{"attributes":{"ID":276848,"DIS_CODE":0,"TOWNNAME":"永康區","LI":"安康里","LIN":"1鄰","STREET":"中華路","SECT":" ","MAREA":" ","LANE":"７２７巷","ALLEY":" ","HOUSE_NO":"１６號五樓之９","E_COORD97":170790.73999999999,"N_COORD97":2546399.8300000001,"ADDRESS":"中華路７２７巷１６號五樓之９","OBJECTID":276843},"geometry":{"x":170790.74000000115,"y":2546399.8300000019}},{"attributes":{"ID":276849,"DIS_CODE":0,"TOWNNAME":"北區","LI":"振興里","LIN":"1鄰","STREET":"開元路","SECT":" ","MAREA":" ","LANE":"１４８巷","ALLEY":" ","HOUSE_NO":"１０號二樓","E_COORD97":169994.22,"N_COORD97":2545175.6099999999,"ADDRESS":"開元路１４８巷１０號二樓","OBJECTID":276844},"geometry":{"x":169994.21999999974,"y":2545175.6100000031}},{"attributes":{"ID":276850,"DIS_CODE":0,"TOWNNAME":"北區","LI":"振興里","LIN":"1鄰","STREET":"開元路","SECT":" ","MAREA":" ","LANE":"１４８巷","ALLEY":" ","HOUSE_NO":"１０號三樓","E_COORD97":169994.22,"N_COORD97":2545175.6099999999,"ADDRESS":"開元路１４８巷１０號三樓","OBJECTID":276845},"geometry":{"x":169994.21999999974,"y":2545175.6100000031}},{"attributes":{"ID":276851,"DIS_CODE":0,"TOWNNAME":"北區","LI":"振興里","LIN":"1鄰","STREET":"開元路","SECT":" ","MAREA":" ","LANE":"１４８巷","ALLEY":" ","HOUSE_NO":"１０號四樓","E_COORD97":169994.22,"N_COORD97":2545175.6099999999,"ADDRESS":"開元路１４８巷１０號四樓","OBJECTID":276846},"geometry":{"x":169994.21999999974,"y":2545175.6100000031}},{"attributes":{"ID":276852,"DIS_CODE":0,"TOWNNAME":"歸仁區","LI":"七甲里","LIN":"1鄰","STREET":"中正北路","SECT":"二段","MAREA":" ","LANE":"７５巷","ALLEY":" ","HOUSE_NO":"７７號三樓之１","E_COORD97":177428.89000000001,"N_COORD97":2542267.2599999998,"ADDRESS":"中正北路二段７５巷７７號三樓之１","OBJECTID":276847},"geometry":{"x":177428.8900000006,"y":2542267.2600000016}},{"attributes":{"ID":276853,"DIS_CODE":0,"TOWNNAME":"歸仁區","LI":"七甲里","LIN":"1鄰","STREET":"中正北路","SECT":"二段","MAREA":" ","LANE":"７５巷","ALLEY":" ","HOUSE_NO":"７５號三樓之１","E_COORD97":177449.48999999999,"N_COORD97":2542268.2599999998,"ADDRESS":"中正北路二段７５巷７５號三樓之１","OBJECTID":276848},"geometry":{"x":177449.49000000115,"y":2542268.2599999998}},{"attributes":{"ID":276854,"DIS_CODE":0,"TOWNNAME":"歸仁區","LI":"七甲里","LIN":"1鄰","STREET":"中正北路","SECT":"二段","MAREA":" ","LANE":"７５巷","ALLEY":" ","HOUSE_NO":"７５號一樓之２","E_COORD97":177449.51000000001,"N_COORD97":2542268.2599999998,"ADDRESS":"中正北路二段７５巷７５號一樓之２","OBJECTID":276849},"geometry":{"x":177449.50999999978,"y":2542268.2599999998}},{"attributes":{"ID":276855,"DIS_CODE":0,"TOWNNAME":"歸仁區","LI":"七甲里","LIN":"1鄰","STREET":"中正北路","SECT":"二段","MAREA":" ","LANE":"７５巷","ALLEY":" ","HOUSE_NO":"８２號一樓之１","E_COORD97":177421.89000000001,"N_COORD97":2542292.2599999998,"ADDRESS":"中正北路二段７５巷８２號一樓之１","OBJECTID":276850},"geometry":{"x":177421.88999999873,"y":2542292.2599999998}},{"attributes":{"ID":276856,"DIS_CODE":0,"TOWNNAME":"歸仁區","LI":"七甲里","LIN":"1鄰","STREET":"中正北路","SECT":"二段","MAREA":" ","LANE":"７５巷","ALLEY":" ","HOUSE_NO":"８０號四樓之２","E_COORD97":177437.31,"N_COORD97":2542293.2599999998,"ADDRESS":"中正北路二段７５巷８０號四樓之２","OBJECTID":276851},"geometry":{"x":177437.30999999959,"y":2542293.2600000035}},{"attributes":{"ID":276857,"DIS_CODE":0,"TOWNNAME":"永康區","LI":"成功里","LIN":"13鄰","STREET":"忠孝路","SECT":" ","MAREA":" ","LANE":"２０７巷","ALLEY":" ","HOUSE_NO":"３５號","E_COORD97":171987.84,"N_COORD97":2544915.7400000002,"ADDRESS":"忠孝路２０７巷３５號","OBJECTID":276852},"geometry":{"x":171987.84000000171,"y":2544915.7400000021}},{"attributes":{"ID":276858,"DIS_CODE":0,"TOWNNAME":"永康區","LI":"永康里","LIN":"20鄰","STREET":"永明街","SECT":" ","MAREA":" ","LANE":" ","ALLEY":" ","HOUSE_NO":"２０號","E_COORD97":174040.97,"N_COORD97":2547344.1099999999,"ADDRESS":"永明街２０號","OBJECTID":276853},"geometry":{"x":174040.96999999974,"y":2547344.1099999994}},{"attributes":{"ID":276859,"DIS_CODE":0,"TOWNNAME":"永康區","LI":"復華里","LIN":"35鄰","STREET":"復國一路","SECT":" ","MAREA":" ","LANE":" ","ALLEY":" ","HOUSE_NO":"４４７號","E_COORD97":172652.64999999999,"N_COORD97":2546078.6699999999,"ADDRESS":"復國一路４４７號","OBJECTID":276854},"geometry":{"x":172652.6500000013,"y":2546078.6700000018}},{"attributes":{"ID":276860,"DIS_CODE":0,"TOWNNAME":"東區","LI":"德高里","LIN":"19鄰","STREET":"城東街","SECT":" ","MAREA":" ","LANE":" ","ALLEY":" ","HOUSE_NO":"１０１號","E_COORD97":171741.35999999999,"N_COORD97":2540827.73,"ADDRESS":"城東街１０１號","OBJECTID":276855},"geometry":{"x":171741.36000000127,"y":2540827.7300000004}},{"attributes":{"ID":276861,"DIS_CODE":0,"TOWNNAME":"東區","LI":"關聖里","LIN":"13鄰","STREET":"裕和一街","SECT":" ","MAREA":" ","LANE":" ","ALLEY":" ","HOUSE_NO":"１１號","E_COORD97":172148.82000000001,"N_COORD97":2543070.0800000001,"ADDRESS":"裕和一街１１號","OBJECTID":276856},"geometry":{"x":172148.8200000003,"y":2543070.0800000001}},{"attributes":{"ID":276862,"DIS_CODE":0,"TOWNNAME":"東區","LI":"文聖里","LIN":"13鄰","STREET":"裕興街","SECT":" ","MAREA":" ","LANE":" ","ALLEY":" ","HOUSE_NO":"１９７號","E_COORD97":172318.88,"N_COORD97":2542655.6600000001,"ADDRESS":"裕興街１９７號","OBJECTID":276857},"geometry":{"x":172318.88000000082,"y":2542655.6600000001}},{"attributes":{"ID":276863,"DIS_CODE":0,"TOWNNAME":"歸仁區","LI":"七甲里","LIN":"1鄰","STREET":"中正北路","SECT":"二段","MAREA":" ","LANE":"７５巷","ALLEY":" ","HOUSE_NO":"８２號二樓之１","E_COORD97":177421.89000000001,"N_COORD97":2542292.2599999998,"ADDRESS":"中正北路二段７５巷８２號二樓之１","OBJECTID":276858},"geometry":{"x":177421.88999999873,"y":2542292.2599999998}},{"attributes":{"ID":276864,"DIS_CODE":0,"TOWNNAME":"歸仁區","LI":"七甲里","LIN":"1鄰","STREET":"中正北路","SECT":"二段","MAREA":" ","LANE":"７５巷","ALLEY":" ","HOUSE_NO":"８２號二樓之２","E_COORD97":177421.91,"N_COORD97":2542292.2599999998,"ADDRESS":"中正北路二段７５巷８２號二樓之２","OBJECTID":276859},"geometry":{"x":177421.91000000015,"y":2542292.2599999998}},{"attributes":{"ID":276865,"DIS_CODE":0,"TOWNNAME":"歸仁區","LI":"七甲里","LIN":"1鄰","STREET":"中正北路","SECT":"二段","MAREA":" ","LANE":"７５巷","ALLEY":" ","HOUSE_NO":"７８號二樓之２","E_COORD97":177452.70999999999,"N_COORD97":2542293.2599999998,"ADDRESS":"中正北路二段７５巷７８號二樓之２","OBJECTID":276860},"geometry":{"x":177452.71000000089,"y":2542293.2600000035}},{"attributes":{"ID":276866,"DIS_CODE":0,"TOWNNAME":"永康區","LI":"永康里","LIN":"1鄰","STREET":"永埔街","SECT":" ","MAREA":" ","LANE":"３３巷","ALLEY":" ","HOUSE_NO":"２２號","E_COORD97":173957.92000000001,"N_COORD97":2547527.9900000002,"ADDRESS":"永埔街３３巷２２號","OBJECTID":276861},"geometry":{"x":173957.91999999993,"y":2547527.9900000021}},{"attributes":{"ID":276867,"DIS_CODE":0,"TOWNNAME":"永康區","LI":"永康里","LIN":"1鄰","STREET":"永埔街","SECT":" ","MAREA":" ","LANE":"３３巷","ALLEY":" ","HOUSE_NO":"４８號","E_COORD97":173913.20000000001,"N_COORD97":2547511.4900000002,"ADDRESS":"永埔街３３巷４８號","OBJECTID":276862},"geometry":{"x":173913.20000000205,"y":2547511.4900000021}},{"attributes":{"ID":276868,"DIS_CODE":0,"TOWNNAME":"安南區","LI":"理想里","LIN":"3鄰","STREET":"大安街","SECT":" ","MAREA":" ","LANE":" ","ALLEY":" ","HOUSE_NO":"６９６號","E_COORD97":167105.03,"N_COORD97":2548959.8199999998,"ADDRESS":"大安街６９６號","OBJECTID":276863},"geometry":{"x":167105.03000000119,"y":2548959.8200000022}},{"attributes":{"ID":276869,"DIS_CODE":0,"TOWNNAME":"安南區","LI":"理想里","LIN":"3鄰","STREET":"大安街","SECT":" ","MAREA":" ","LANE":" ","ALLEY":" ","HOUSE_NO":"７０８號","E_COORD97":167078.51999999999,"N_COORD97":2548978.48,"ADDRESS":"大安街７０８號","OBJECTID":276864},"geometry":{"x":167078.51999999862,"y":2548978.4800000023}},{"attributes":{"ID":276870,"DIS_CODE":0,"TOWNNAME":"安南區","LI":"新順里","LIN":"3鄰","STREET":"安和路","SECT":"三段","MAREA":" ","LANE":" ","ALLEY":" ","HOUSE_NO":"１１６號","E_COORD97":169864.62,"N_COORD97":2549610.1899999999,"ADDRESS":"安和路三段１１６號","OBJECTID":276865},"geometry":{"x":169864.62000000011,"y":2549610.1900000013}},{"attributes":{"ID":276871,"DIS_CODE":0,"TOWNNAME":"安南區","LI":"新順里","LIN":"3鄰","STREET":"安和路","SECT":"三段","MAREA":" ","LANE":" ","ALLEY":" ","HOUSE_NO":"４號","E_COORD97":169745.94,"N_COORD97":2549309.4300000002,"ADDRESS":"安和路三段４號","OBJECTID":276866},"geometry":{"x":169745.94000000041,"y":2549309.4299999997}},{"attributes":{"ID":276872,"DIS_CODE":0,"TOWNNAME":"安南區","LI":"新順里","LIN":"3鄰","STREET":"安和路","SECT":"三段","MAREA":" ","LANE":" ","ALLEY":" ","HOUSE_NO":"２２號","E_COORD97":169765.59,"N_COORD97":2549366.8100000001,"ADDRESS":"安和路三段２２號","OBJECTID":276867},"geometry":{"x":169765.59000000078,"y":2549366.8100000024}},{"attributes":{"ID":276873,"DIS_CODE":0,"TOWNNAME":"安南區","LI":"總頭里","LIN":"1鄰","STREET":"長溪路","SECT":"二段","MAREA":" ","LANE":"４８６巷","ALLEY":" ","HOUSE_NO":"１３號","E_COORD97":168285.54000000001,"N_COORD97":2550419.27,"ADDRESS":"長溪路二段４８６巷１３號","OBJECTID":276868},"geometry":{"x":168285.54000000004,"y":2550419.2699999996}},{"attributes":{"ID":276874,"DIS_CODE":0,"TOWNNAME":"安南區","LI":"總頭里","LIN":"1鄰","STREET":"長溪路","SECT":"二段","MAREA":" ","LANE":"４８６巷","ALLEY":" ","HOUSE_NO":"１５號","E_COORD97":168285.09,"N_COORD97":2550415.2000000002,"ADDRESS":"長溪路二段４８６巷１５號","OBJECTID":276869},"geometry":{"x":168285.08999999985,"y":2550415.1999999993}},{"attributes":{"ID":276875,"DIS_CODE":0,"TOWNNAME":"安南區","LI":"新順里","LIN":"3鄰","STREET":"安和路","SECT":"三段","MAREA":" ","LANE":" ","ALLEY":" ","HOUSE_NO":"５６號","E_COORD97":169858.66,"N_COORD97":2549456.7999999998,"ADDRESS":"安和路三段５６號","OBJECTID":276870},"geometry":{"x":169858.66000000108,"y":2549456.8000000007}},{"attributes":{"ID":276876,"DIS_CODE":0,"TOWNNAME":"永康區","LI":"東灣里","LIN":"26鄰","STREET":"大灣東路","SECT":" ","MAREA":" ","LANE":" ","ALLEY":" ","HOUSE_NO":"４１０號","E_COORD97":175219.31,"N_COORD97":2544683.3100000001,"ADDRESS":"大灣東路４１０號","OBJECTID":276871},"geometry":{"x":175219.31000000052,"y":2544683.3100000005}},{"attributes":{"ID":276877,"DIS_CODE":0,"TOWNNAME":"永康區","LI":"南灣里","LIN":"7鄰","STREET":"大灣路","SECT":" ","MAREA":" ","LANE":" ","ALLEY":" ","HOUSE_NO":"５９１號之１","E_COORD97":174317.73000000001,"N_COORD97":2544534.0699999998,"ADDRESS":"大灣路５９１號之１","OBJECTID":276872},"geometry":{"x":174317.73000000045,"y":2544534.0700000022}},{"attributes":{"ID":276878,"DIS_CODE":0,"TOWNNAME":"安南區","LI":"總頭里","LIN":"1鄰","STREET":"長溪路","SECT":"二段","MAREA":" ","LANE":"４８６巷","ALLEY":" ","HOUSE_NO":"１７號","E_COORD97":168285.09,"N_COORD97":2550412.04,"ADDRESS":"長溪路二段４８６巷１７號","OBJECTID":276873},"geometry":{"x":168285.08999999985,"y":2550412.040000001}},{"attributes":{"ID":276879,"DIS_CODE":0,"TOWNNAME":"安南區","LI":"總頭里","LIN":"1鄰","STREET":"長溪路","SECT":"二段","MAREA":" ","LANE":"４８６巷","ALLEY":" ","HOUSE_NO":"２７號","E_COORD97":168329.85000000001,"N_COORD97":2550424.23,"ADDRESS":"長溪路二段４８６巷２７號","OBJECTID":276874},"geometry":{"x":168329.85000000056,"y":2550424.2300000042}},{"attributes":{"ID":276880,"DIS_CODE":0,"TOWNNAME":"永康區","LI":"東灣里","LIN":"29鄰","STREET":"民族路","SECT":" ","MAREA":" ","LANE":" ","ALLEY":" ","HOUSE_NO":"２０７號","E_COORD97":175216.35999999999,"N_COORD97":2544934.1600000001,"ADDRESS":"民族路２０７號","OBJECTID":276875},"geometry":{"x":175216.36000000127,"y":2544934.1600000001}},{"attributes":{"ID":276881,"DIS_CODE":0,"TOWNNAME":"永康區","LI":"永康里","LIN":"23鄰","STREET":"正強街","SECT":" ","MAREA":" ","LANE":" ","ALLEY":" ","HOUSE_NO":"４８號","E_COORD97":173364.32999999999,"N_COORD97":2547250.2999999998,"ADDRESS":"正強街４８號","OBJECTID":276876},"geometry":{"x":173364.33000000007,"y":2547250.3000000007}},{"attributes":{"ID":276882,"DIS_CODE":0,"TOWNNAME":"安南區","LI":"總頭里","LIN":"1鄰","STREET":"長溪路","SECT":"二段","MAREA":" ","LANE":"４８６巷","ALLEY":" ","HOUSE_NO":"２號","E_COORD97":168274.23999999999,"N_COORD97":2550395.7999999998,"ADDRESS":"長溪路二段４８６巷２號","OBJECTID":276877},"geometry":{"x":168274.24000000022,"y":2550395.8000000007}},{"attributes":{"ID":276883,"DIS_CODE":0,"TOWNNAME":"安南區","LI":"青草里","LIN":"1鄰","STREET":"青砂街","SECT":"一段","MAREA":" ","LANE":"６９５巷","ALLEY":" ","HOUSE_NO":"１８５號之１","E_COORD97":159498.69,"N_COORD97":2552734.4100000001,"ADDRESS":"青砂街一段６９５巷１８５號之１","OBJECTID":276878},"geometry":{"x":159498.69000000041,"y":2552734.4100000001}},{"attributes":{"ID":276884,"DIS_CODE":0,"TOWNNAME":"安南區","LI":"淵西里","LIN":"1鄰","STREET":"安中路","SECT":"四段","MAREA":" ","LANE":"２９０巷","ALLEY":" ","HOUSE_NO":"３０９號","E_COORD97":165145.20999999999,"N_COORD97":2550331.0299999998,"ADDRESS":"安中路四段２９０巷３０９號","OBJECTID":276879},"geometry":{"x":165145.21000000183,"y":2550331.0300000012}},{"attributes":{"ID":276885,"DIS_CODE":0,"TOWNNAME":"後壁區","LI":"菁豊里","LIN":"3鄰","STREET":" ","SECT":" ","MAREA":"前菁寮","LANE":" ","ALLEY":" ","HOUSE_NO":"３０號","E_COORD97":183146.54999999999,"N_COORD97":2586381.5099999998,"ADDRESS":"前菁寮３０號","OBJECTID":276880},"geometry":{"x":183146.54999999981,"y":2586381.5100000016}},{"attributes":{"ID":276886,"DIS_CODE":0,"TOWNNAME":"後壁區","LI":"竹新里","LIN":"3鄰","STREET":" ","SECT":" ","MAREA":"竹圍後","LANE":" ","ALLEY":" ","HOUSE_NO":"２１號之１","E_COORD97":178567.98000000001,"N_COORD97":2582502.2000000002,"ADDRESS":"竹圍後２１號之１","OBJECTID":276881},"geometry":{"x":178567.98000000045,"y":2582502.1999999993}},{"attributes":{"ID":276887,"DIS_CODE":0,"TOWNNAME":"後壁區","LI":"竹新里","LIN":"3鄰","STREET":" ","SECT":" ","MAREA":"竹圍後","LANE":" ","ALLEY":" ","HOUSE_NO":"２１號","E_COORD97":178559.70000000001,"N_COORD97":2582522.6000000001,"ADDRESS":"竹圍後２１號","OBJECTID":276882},"geometry":{"x":178559.70000000205,"y":2582522.6000000015}},{"attributes":{"ID":276888,"DIS_CODE":0,"TOWNNAME":"後壁區","LI":"竹新里","LIN":"3鄰","STREET":" ","SECT":" ","MAREA":"竹圍後","LANE":" ","ALLEY":" ","HOUSE_NO":"２４號","E_COORD97":178586.07999999999,"N_COORD97":2582460.9500000002,"ADDRESS":"竹圍後２４號","OBJECTID":276883},"geometry":{"x":178586.08000000101,"y":2582460.9500000011}},{"attributes":{"ID":276889,"DIS_CODE":0,"TOWNNAME":"後壁區","LI":"竹新里","LIN":"3鄰","STREET":" ","SECT":" ","MAREA":"竹圍後","LANE":" ","ALLEY":" ","HOUSE_NO":"２６號","E_COORD97":178614.26999999999,"N_COORD97":2582431.6600000001,"ADDRESS":"竹圍後２６號","OBJECTID":276884},"geometry":{"x":178614.26999999862,"y":2582431.6600000001}},{"attributes":{"ID":276890,"DIS_CODE":0,"TOWNNAME":"後壁區","LI":"竹新里","LIN":"3鄰","STREET":" ","SECT":" ","MAREA":"竹圍後","LANE":" ","ALLEY":" ","HOUSE_NO":"２９號之１","E_COORD97":178551.39999999999,"N_COORD97":2582472.8300000001,"ADDRESS":"竹圍後２９號之１","OBJECTID":276885},"geometry":{"x":178551.40000000037,"y":2582472.8300000019}},{"attributes":{"ID":276891,"DIS_CODE":0,"TOWNNAME":"後壁區","LI":"竹新里","LIN":"3鄰","STREET":" ","SECT":" ","MAREA":"竹圍後","LANE":" ","ALLEY":" ","HOUSE_NO":"２９號之２","E_COORD97":178538.35999999999,"N_COORD97":2582446.1299999999,"ADDRESS":"竹圍後２９號之２","OBJECTID":276886},"geometry":{"x":178538.3600000022,"y":2582446.1300000008}},{"attributes":{"ID":276892,"DIS_CODE":0,"TOWNNAME":"後壁區","LI":"竹新里","LIN":"3鄰","STREET":" ","SECT":" ","MAREA":"竹圍後","LANE":" ","ALLEY":" ","HOUSE_NO":"２９號之３","E_COORD97":178505.91,"N_COORD97":2582433.3799999999,"ADDRESS":"竹圍後２９號之３","OBJECTID":276887},"geometry":{"x":178505.91000000108,"y":2582433.3799999971}},{"attributes":{"ID":276893,"DIS_CODE":0,"TOWNNAME":"安南區","LI":"長安里","LIN":"1鄰","STREET":"長溪路","SECT":"三段","MAREA":" ","LANE":"３７３巷","ALLEY":" ","HOUSE_NO":"２０號","E_COORD97":167640.60999999999,"N_COORD97":2551958.5099999998,"ADDRESS":"長溪路三段３７３巷２０號","OBJECTID":276888},"geometry":{"x":167640.61000000127,"y":2551958.5100000016}},{"attributes":{"ID":276894,"DIS_CODE":0,"TOWNNAME":"後壁區","LI":"竹新里","LIN":"3鄰","STREET":" ","SECT":" ","MAREA":"竹圍後","LANE":" ","ALLEY":" ","HOUSE_NO":"３０號之１","E_COORD97":178608.76000000001,"N_COORD97":2582394.25,"ADDRESS":"竹圍後３０號之１","OBJECTID":276889},"geometry":{"x":178608.75999999978,"y":2582394.25}},{"attributes":{"ID":276895,"DIS_CODE":0,"TOWNNAME":"安南區","LI":"淵西里","LIN":"1鄰","STREET":"安中路","SECT":"四段","MAREA":" ","LANE":"２９０巷","ALLEY":" ","HOUSE_NO":"３０７號","E_COORD97":165140.81,"N_COORD97":2550326.79,"ADDRESS":"安中路四段２９０巷３０７號","OBJECTID":276890},"geometry":{"x":165140.81000000145,"y":2550326.7899999991}},{"attributes":{"ID":276896,"DIS_CODE":0,"TOWNNAME":"安南區","LI":"淵西里","LIN":"1鄰","STREET":"安中路","SECT":"四段","MAREA":" ","LANE":"２９０巷","ALLEY":" ","HOUSE_NO":"３１１號","E_COORD97":165147.25,"N_COORD97":2550334.96,"ADDRESS":"安中路四段２９０巷３１１號","OBJECTID":276891},"geometry":{"x":165147.25000000093,"y":2550334.9600000046}},{"attributes":{"ID":276897,"DIS_CODE":0,"TOWNNAME":"安南區","LI":"淵西里","LIN":"1鄰","STREET":"安中路","SECT":"四段","MAREA":" ","LANE":"２９０巷","ALLEY":" ","HOUSE_NO":"３１３號","E_COORD97":165151.97,"N_COORD97":2550337.4700000002,"ADDRESS":"安中路四段２９０巷３１３號","OBJECTID":276892},"geometry":{"x":165151.97000000067,"y":2550337.4700000007}},{"attributes":{"ID":276898,"DIS_CODE":0,"TOWNNAME":"安南區","LI":"淵西里","LIN":"1鄰","STREET":"安中路","SECT":"四段","MAREA":" ","LANE":"２９０巷","ALLEY":" ","HOUSE_NO":"３１５號","E_COORD97":165155.10999999999,"N_COORD97":2550340.1400000001,"ADDRESS":"安中路四段２９０巷３１５號","OBJECTID":276893},"geometry":{"x":165155.11000000127,"y":2550340.1400000043}},{"attributes":{"ID":276899,"DIS_CODE":0,"TOWNNAME":"安南區","LI":"淵西里","LIN":"1鄰","STREET":"安中路","SECT":"四段","MAREA":" ","LANE":"２９０巷","ALLEY":" ","HOUSE_NO":"３１７號","E_COORD97":165158.26000000001,"N_COORD97":2550343.75,"ADDRESS":"安中路四段２９０巷３１７號","OBJECTID":276894},"geometry":{"x":165158.26000000164,"y":2550343.7500000019}},{"attributes":{"ID":276900,"DIS_CODE":0,"TOWNNAME":"仁德區","LI":"保安里","LIN":"12鄰","STREET":"開發六路","SECT":" ","MAREA":" ","LANE":" ","ALLEY":" ","HOUSE_NO":"３５號","E_COORD97":173246.19371600001,"N_COORD97":2536009.9612500002,"ADDRESS":"開發六路３５號","OBJECTID":276895},"geometry":{"x":173246.19371599983,"y":2536009.9612460025}},{"attributes":{"ID":276901,"DIS_CODE":0,"TOWNNAME":"安南區","LI":"淵西里","LIN":"1鄰","STREET":"安中路","SECT":"四段","MAREA":" ","LANE":"２９０巷","ALLEY":" ","HOUSE_NO":"３１９號","E_COORD97":165162.82000000001,"N_COORD97":2550346.4199999999,"ADDRESS":"安中路四段２９０巷３１９號","OBJECTID":276896},"geometry":{"x":165162.8200000003,"y":2550346.4199999999}},{"attributes":{"ID":276902,"DIS_CODE":0,"TOWNNAME":"安南區","LI":"溪心里","LIN":"1鄰","STREET":"安中路","SECT":"三段","MAREA":" ","LANE":"１９巷","ALLEY":" ","HOUSE_NO":"１２號","E_COORD97":166294.89999999999,"N_COORD97":2549720.9500000002,"ADDRESS":"安中路三段１９巷１２號","OBJECTID":276897},"geometry":{"x":166294.90000000037,"y":2549720.9500000011}},{"attributes":{"ID":276903,"DIS_CODE":0,"TOWNNAME":"安南區","LI":"溪北里","LIN":"3鄰","STREET":"安和路","SECT":"一段","MAREA":" ","LANE":"９１巷","ALLEY":" ","HOUSE_NO":"２７號","E_COORD97":169402.32000000001,"N_COORD97":2547545.8399999999,"ADDRESS":"安和路一段９１巷２７號","OBJECTID":276898},"geometry":{"x":169402.3200000003,"y":2547545.8400000017}},{"attributes":{"ID":276904,"DIS_CODE":0,"TOWNNAME":"中西區","LI":"三合里","LIN":"15鄰","STREET":"文賢路","SECT":" ","MAREA":" ","LANE":" ","ALLEY":" ","HOUSE_NO":"７２號","E_COORD97":167418.92000000001,"N_COORD97":2544603.75,"ADDRESS":"文賢路７２號","OBJECTID":276899},"geometry":{"x":167418.92000000086,"y":2544603.7500000019}},{"attributes":{"ID":276905,"DIS_CODE":0,"TOWNNAME":"永康區","LI":"西橋里","LIN":"5鄰","STREET":"中華西街","SECT":" ","MAREA":" ","LANE":" ","ALLEY":" ","HOUSE_NO":"３３號之１","E_COORD97":170778.98999999999,"N_COORD97":2545996.5800000001,"ADDRESS":"中華西街３３號之１","OBJECTID":276900},"geometry":{"x":170778.99000000115,"y":2545996.5800000001}},{"attributes":{"ID":276906,"DIS_CODE":0,"TOWNNAME":"永康區","LI":"西灣里","LIN":"53鄰","STREET":"文化路","SECT":" ","MAREA":" ","LANE":" ","ALLEY":" ","HOUSE_NO":"１８５號","E_COORD97":173764.91,"N_COORD97":2546178.4399999999,"ADDRESS":"文化路１８５號","OBJECTID":276901},"geometry":{"x":173764.91000000108,"y":2546178.4400000013}},{"attributes":{"ID":276907,"DIS_CODE":0,"TOWNNAME":"永康區","LI":"南灣里","LIN":"9鄰","STREET":"永大路","SECT":"一段","MAREA":" ","LANE":" ","ALLEY":" ","HOUSE_NO":"３２０號","E_COORD97":174042.60999999999,"N_COORD97":2544388.71,"ADDRESS":"永大路一段３２０號","OBJECTID":276902},"geometry":{"x":174042.6100000022,"y":2544388.7100000009}},{"attributes":{"ID":276908,"DIS_CODE":0,"TOWNNAME":"安南區","LI":"溪心里","LIN":"1鄰","STREET":"安中路","SECT":"三段","MAREA":" ","LANE":"１９巷","ALLEY":" ","HOUSE_NO":"１２號之１","E_COORD97":166291.88,"N_COORD97":2549717.6299999999,"ADDRESS":"安中路三段１９巷１２號之１","OBJECTID":276903},"geometry":{"x":166291.88000000082,"y":2549717.629999999}},{"attributes":{"ID":276909,"DIS_CODE":0,"TOWNNAME":"南區","LI":"大忠里","LIN":"24鄰","STREET":"中華南路","SECT":"一段","MAREA":" ","LANE":"９７巷","ALLEY":" ","HOUSE_NO":"２１號","E_COORD97":169271.26999999999,"N_COORD97":2541262.8199999998,"ADDRESS":"中華南路一段９７巷２１號","OBJECTID":276904},"geometry":{"x":169271.27000000048,"y":2541262.820000004}},{"attributes":{"ID":276910,"DIS_CODE":0,"TOWNNAME":"南區","LI":"大忠里","LIN":"24鄰","STREET":"中華南路","SECT":"一段","MAREA":" ","LANE":"９７巷","ALLEY":" ","HOUSE_NO":"２３號","E_COORD97":169274.95999999999,"N_COORD97":2541263.0800000001,"ADDRESS":"中華南路一段９７巷２３號","OBJECTID":276905},"geometry":{"x":169274.96000000089,"y":2541263.0800000001}},{"attributes":{"ID":276911,"DIS_CODE":0,"TOWNNAME":"後壁區","LI":"頂長里","LIN":"3鄰","STREET":" ","SECT":" ","MAREA":"長短樹","LANE":" ","ALLEY":" ","HOUSE_NO":"１６號之９","E_COORD97":181514.32000000001,"N_COORD97":2584906.3700000001,"ADDRESS":"長短樹１６號之９","OBJECTID":276906},"geometry":{"x":181514.32000000123,"y":2584906.370000001}},{"attributes":{"ID":276912,"DIS_CODE":0,"TOWNNAME":"南區","LI":"大忠里","LIN":"24鄰","STREET":"中華南路","SECT":"一段","MAREA":" ","LANE":"９７巷","ALLEY":" ","HOUSE_NO":"３號","E_COORD97":169264.54999999999,"N_COORD97":2541292.48,"ADDRESS":"中華南路一段９７巷３號","OBJECTID":276907},"geometry":{"x":169264.55000000075,"y":2541292.4800000042}},{"attributes":{"ID":276913,"DIS_CODE":0,"TOWNNAME":"後壁區","LI":"頂長里","LIN":"3鄰","STREET":" ","SECT":" ","MAREA":"長短樹","LANE":" ","ALLEY":" ","HOUSE_NO":"１６號","E_COORD97":181456.67999999999,"N_COORD97":2585043.2200000002,"ADDRESS":"長短樹１６號","OBJECTID":276908},"geometry":{"x":181456.68000000063,"y":2585043.2200000007}},{"attributes":{"ID":276914,"DIS_CODE":0,"TOWNNAME":"後壁區","LI":"頂長里","LIN":"3鄰","STREET":" ","SECT":" ","MAREA":"長短樹","LANE":" ","ALLEY":" ","HOUSE_NO":"１７號","E_COORD97":181462.47,"N_COORD97":2585053.2200000002,"ADDRESS":"長短樹１７號","OBJECTID":276909},"geometry":{"x":181462.46999999974,"y":2585053.2200000007}},{"attributes":{"ID":276915,"DIS_CODE":0,"TOWNNAME":"後壁區","LI":"頂長里","LIN":"3鄰","STREET":" ","SECT":" ","MAREA":"長短樹","LANE":" ","ALLEY":" ","HOUSE_NO":"１８號","E_COORD97":181455.48000000001,"N_COORD97":2585081.54,"ADDRESS":"長短樹１８號","OBJECTID":276910},"geometry":{"x":181455.48000000138,"y":2585081.540000001}},{"attributes":{"ID":276916,"DIS_CODE":0,"TOWNNAME":"安南區","LI":"溪心里","LIN":"1鄰","STREET":"海環街","SECT":" ","MAREA":" ","LANE":"７１５巷","ALLEY":" ","HOUSE_NO":"１００號之２","E_COORD97":166371.53,"N_COORD97":2549502.2400000002,"ADDRESS":"海環街７１５巷１００號之２","OBJECTID":276911},"geometry":{"x":166371.53000000119,"y":2549502.2400000021}},{"attributes":{"ID":276917,"DIS_CODE":0,"TOWNNAME":"後壁區","LI":"頂長里","LIN":"3鄰","STREET":" ","SECT":" ","MAREA":"長短樹","LANE":" ","ALLEY":" ","HOUSE_NO":"１９號","E_COORD97":181424.03,"N_COORD97":2585119.71,"ADDRESS":"長短樹１９號","OBJECTID":276912},"geometry":{"x":181424.03000000212,"y":2585119.7100000028}},{"attributes":{"ID":276918,"DIS_CODE":0,"TOWNNAME":"安南區","LI":"原佃里","LIN":"1鄰","STREET":"本原街","SECT":"一段","MAREA":" ","LANE":"１６７巷","ALLEY":" ","HOUSE_NO":"１１６號","E_COORD97":167856.76000000001,"N_COORD97":2550031.77,"ADDRESS":"本原街一段１６７巷１１６號","OBJECTID":276913},"geometry":{"x":167856.75999999978,"y":2550031.7699999996}},{"attributes":{"ID":276919,"DIS_CODE":0,"TOWNNAME":"安南區","LI":"原佃里","LIN":"1鄰","STREET":"本原街","SECT":"一段","MAREA":" ","LANE":"１６７巷","ALLEY":" ","HOUSE_NO":"１０６號","E_COORD97":167858.54000000001,"N_COORD97":2550012.3900000001,"ADDRESS":"本原街一段１６７巷１０６號","OBJECTID":276914},"geometry":{"x":167858.54000000004,"y":2550012.3900000006}},{"attributes":{"ID":276920,"DIS_CODE":0,"TOWNNAME":"安南區","LI":"原佃里","LIN":"1鄰","STREET":"本原街","SECT":"一段","MAREA":" ","LANE":"１６７巷","ALLEY":" ","HOUSE_NO":"１０８號","E_COORD97":167858.42999999999,"N_COORD97":2550016.1499999999,"ADDRESS":"本原街一段１６７巷１０８號","OBJECTID":276915},"geometry":{"x":167858.4299999997,"y":2550016.1500000004}},{"attributes":{"ID":276921,"DIS_CODE":0,"TOWNNAME":"後壁區","LI":"頂長里","LIN":"3鄰","STREET":" ","SECT":" ","MAREA":"長短樹","LANE":" ","ALLEY":" ","HOUSE_NO":"２０號之１","E_COORD97":181427.78,"N_COORD97":2585088.8599999999,"ADDRESS":"長短樹２０號之１","OBJECTID":276916},"geometry":{"x":181427.78000000119,"y":2585088.8600000031}},{"attributes":{"ID":276922,"DIS_CODE":0,"TOWNNAME":"後壁區","LI":"頂長里","LIN":"3鄰","STREET":" ","SECT":" ","MAREA":"長短樹","LANE":" ","ALLEY":" ","HOUSE_NO":"２３號之２","E_COORD97":181447.56,"N_COORD97":2585008.8599999999,"ADDRESS":"長短樹２３號之２","OBJECTID":276917},"geometry":{"x":181447.56000000052,"y":2585008.8600000013}},{"attributes":{"ID":276923,"DIS_CODE":0,"TOWNNAME":"後壁區","LI":"頂長里","LIN":"3鄰","STREET":" ","SECT":" ","MAREA":"長短樹","LANE":" ","ALLEY":" ","HOUSE_NO":"２３號","E_COORD97":181436.82000000001,"N_COORD97":2585033.75,"ADDRESS":"長短樹２３號","OBJECTID":276918},"geometry":{"x":181436.8200000003,"y":2585033.7500000019}},{"attributes":{"ID":276924,"DIS_CODE":0,"TOWNNAME":"後壁區","LI":"菁豊里","LIN":"3鄰","STREET":" ","SECT":" ","MAREA":"前菁寮","LANE":" ","ALLEY":" ","HOUSE_NO":"３１號","E_COORD97":183165.53,"N_COORD97":2586386.9900000002,"ADDRESS":"前菁寮３１號","OBJECTID":276919},"geometry":{"x":183165.53000000119,"y":2586386.9900000002}},{"attributes":{"ID":276925,"DIS_CODE":0,"TOWNNAME":"安南區","LI":"原佃里","LIN":"1鄰","STREET":"本原街","SECT":"一段","MAREA":" ","LANE":"１６７巷","ALLEY":" ","HOUSE_NO":"１１０號","E_COORD97":167857.98000000001,"N_COORD97":2550019.9199999999,"ADDRESS":"本原街一段１６７巷１１０號","OBJECTID":276920},"geometry":{"x":167857.98000000231,"y":2550019.9200000018}},{"attributes":{"ID":276926,"DIS_CODE":0,"TOWNNAME":"永康區","LI":"北灣里","LIN":"4鄰","STREET":"信義街","SECT":" ","MAREA":" ","LANE":" ","ALLEY":" ","HOUSE_NO":"７８號","E_COORD97":175345.73999999999,"N_COORD97":2545670.2599999998,"ADDRESS":"信義街７８號","OBJECTID":276921},"geometry":{"x":175345.74000000115,"y":2545670.2600000016}},{"attributes":{"ID":276927,"DIS_CODE":0,"TOWNNAME":"安南區","LI":"原佃里","LIN":"1鄰","STREET":"本原街","SECT":"一段","MAREA":" ","LANE":"１６７巷","ALLEY":" ","HOUSE_NO":"１１２號","E_COORD97":167857.64999999999,"N_COORD97":2550023.46,"ADDRESS":"本原街一段１６７巷１１２號","OBJECTID":276922},"geometry":{"x":167857.65000000037,"y":2550023.4600000028}},{"attributes":{"ID":276928,"DIS_CODE":0,"TOWNNAME":"永康區","LI":"北灣里","LIN":"3鄰","STREET":"信義街","SECT":" ","MAREA":" ","LANE":" ","ALLEY":" ","HOUSE_NO":"５３號","E_COORD97":175406.29999999999,"N_COORD97":2545640.8999999999,"ADDRESS":"信義街５３號","OBJECTID":276923},"geometry":{"x":175406.30000000075,"y":2545640.9000000004}},{"attributes":{"ID":276929,"DIS_CODE":0,"TOWNNAME":"後壁區","LI":"菁豊里","LIN":"3鄰","STREET":" ","SECT":" ","MAREA":"前菁寮","LANE":" ","ALLEY":" ","HOUSE_NO":"３２號","E_COORD97":183157.17000000001,"N_COORD97":2586400.7000000002,"ADDRESS":"前菁寮３２號","OBJECTID":276924},"geometry":{"x":183157.17000000086,"y":2586400.6999999993}},{"attributes":{"ID":276930,"DIS_CODE":0,"TOWNNAME":"後壁區","LI":"菁豊里","LIN":"3鄰","STREET":" ","SECT":" ","MAREA":"前菁寮","LANE":" ","ALLEY":" ","HOUSE_NO":"２２號之６","E_COORD97":183037.38,"N_COORD97":2586329.8500000001,"ADDRESS":"前菁寮２２號之６","OBJECTID":276925},"geometry":{"x":183037.38000000082,"y":2586329.8499999978}},{"attributes":{"ID":276931,"DIS_CODE":0,"TOWNNAME":"安南區","LI":"原佃里","LIN":"1鄰","STREET":"本原街","SECT":"一段","MAREA":" ","LANE":"１６７巷","ALLEY":" ","HOUSE_NO":"１１４號","E_COORD97":167857.42999999999,"N_COORD97":2550027.7799999998,"ADDRESS":"本原街一段１６７巷１１４號","OBJECTID":276926},"geometry":{"x":167857.43000000156,"y":2550027.7799999993}},{"attributes":{"ID":276932,"DIS_CODE":0,"TOWNNAME":"安南區","LI":"海西里","LIN":"1鄰","STREET":"海環街","SECT":" ","MAREA":" ","LANE":"５３４巷","ALLEY":" ","HOUSE_NO":"１０號","E_COORD97":166270.47,"N_COORD97":2549181.52,"ADDRESS":"海環街５３４巷１０號","OBJECTID":276927},"geometry":{"x":166270.46999999881,"y":2549181.5200000014}},{"attributes":{"ID":276933,"DIS_CODE":0,"TOWNNAME":"安南區","LI":"長安里","LIN":"1鄰","STREET":"長溪路","SECT":"三段","MAREA":" ","LANE":"３７３巷","ALLEY":" ","HOUSE_NO":"１４號","E_COORD97":167649.53,"N_COORD97":2551972.9300000002,"ADDRESS":"長溪路三段３７３巷１４號","OBJECTID":276928},"geometry":{"x":167649.53000000119,"y":2551972.9300000016}},{"attributes":{"ID":276934,"DIS_CODE":0,"TOWNNAME":"安南區","LI":"長安里","LIN":"1鄰","STREET":"長溪路","SECT":"三段","MAREA":" ","LANE":"３７３巷","ALLEY":" ","HOUSE_NO":"１６號","E_COORD97":167645.29000000001,"N_COORD97":2551967.98,"ADDRESS":"長溪路三段３７３巷１６號","OBJECTID":276929},"geometry":{"x":167645.2900000019,"y":2551967.9800000004}},{"attributes":{"ID":276935,"DIS_CODE":0,"TOWNNAME":"安南區","LI":"理想里","LIN":"1鄰","STREET":"同安路","SECT":" ","MAREA":" ","LANE":"３６巷","ALLEY":" ","HOUSE_NO":"１５號","E_COORD97":166877.16,"N_COORD97":2548816.7400000002,"ADDRESS":"同安路３６巷１５號","OBJECTID":276930},"geometry":{"x":166877.16000000108,"y":2548816.7400000039}},{"attributes":{"ID":276936,"DIS_CODE":0,"TOWNNAME":"安南區","LI":"州南里","LIN":"1鄰","STREET":"安和路","SECT":"四段","MAREA":" ","LANE":"３６２巷","ALLEY":" ","HOUSE_NO":"５號","E_COORD97":169973.70999999999,"N_COORD97":2550950.3999999999,"ADDRESS":"安和路四段３６２巷５號","OBJECTID":276931},"geometry":{"x":169973.71000000089,"y":2550950.4000000004}},{"attributes":{"ID":276937,"DIS_CODE":0,"TOWNNAME":"安南區","LI":"州南里","LIN":"1鄰","STREET":"安和路","SECT":"四段","MAREA":" ","LANE":"３６２巷","ALLEY":" ","HOUSE_NO":"７號","E_COORD97":169978.73000000001,"N_COORD97":2550953.5099999998,"ADDRESS":"安和路四段３６２巷７號","OBJECTID":276932},"geometry":{"x":169978.73000000231,"y":2550953.5099999998}},{"attributes":{"ID":276938,"DIS_CODE":0,"TOWNNAME":"安南區","LI":"州南里","LIN":"1鄰","STREET":"安和路","SECT":"四段","MAREA":" ","LANE":"３６２巷","ALLEY":" ","HOUSE_NO":"９號","E_COORD97":169982.01000000001,"N_COORD97":2550952.8199999998,"ADDRESS":"安和路四段３６２巷９號","OBJECTID":276933},"geometry":{"x":169982.00999999978,"y":2550952.8200000022}},{"attributes":{"ID":276939,"DIS_CODE":0,"TOWNNAME":"安南區","LI":"安順里","LIN":"1鄰","STREET":"總安街","SECT":"一段","MAREA":" ","LANE":"１９巷","ALLEY":" ","HOUSE_NO":"２０號","E_COORD97":169885.16,"N_COORD97":2550059.5,"ADDRESS":"總安街一段１９巷２０號","OBJECTID":276934},"geometry":{"x":169885.16000000015,"y":2550059.5000000019}},{"attributes":{"ID":276940,"DIS_CODE":0,"TOWNNAME":"安南區","LI":"安順里","LIN":"1鄰","STREET":"總安街","SECT":"一段","MAREA":" ","LANE":"１９巷","ALLEY":" ","HOUSE_NO":"２０號之１","E_COORD97":169885.73999999999,"N_COORD97":2550054.73,"ADDRESS":"總安街一段１９巷２０號之１","OBJECTID":276935},"geometry":{"x":169885.74000000115,"y":2550054.7300000042}},{"attributes":{"ID":276941,"DIS_CODE":0,"TOWNNAME":"安南區","LI":"公\u25A0里","LIN":"1鄰","STREET":"公學路","SECT":"五段","MAREA":" ","LANE":"３６３巷","ALLEY":" ","HOUSE_NO":"２５號","E_COORD97":164341.89000000001,"N_COORD97":2552314.02,"ADDRESS":"公學路五段３６３巷２５號","OBJECTID":276936},"geometry":{"x":164341.89000000153,"y":2552314.0200000014}},{"attributes":{"ID":276942,"DIS_CODE":0,"TOWNNAME":"下營區","LI":"後街里","LIN":"1鄰","STREET":"水池街","SECT":" ","MAREA":" ","LANE":"１５巷","ALLEY":" ","HOUSE_NO":"３１號","E_COORD97":174434.47,"N_COORD97":2571179.4300000002,"ADDRESS":"水池街１５巷３１號","OBJECTID":276937},"geometry":{"x":174434.46999999881,"y":2571179.4300000016}},{"attributes":{"ID":276943,"DIS_CODE":0,"TOWNNAME":"下營區","LI":"新興里","LIN":"1鄰","STREET":"自由街","SECT":" ","MAREA":" ","LANE":"１３２巷","ALLEY":" ","HOUSE_NO":"１８號","E_COORD97":174877.67000000001,"N_COORD97":2570978.5299999998,"ADDRESS":"自由街１３２巷１８號","OBJECTID":276938},"geometry":{"x":174877.67000000179,"y":2570978.5300000012}},{"attributes":{"ID":276944,"DIS_CODE":0,"TOWNNAME":"永康區","LI":"北灣里","LIN":"33鄰","STREET":"大灣路","SECT":" ","MAREA":" ","LANE":"４１巷","ALLEY":" ","HOUSE_NO":"２號","E_COORD97":175316.73999999999,"N_COORD97":2545843.27,"ADDRESS":"大灣路４１巷２號","OBJECTID":276939},"geometry":{"x":175316.74000000115,"y":2545843.2700000014}},{"attributes":{"ID":276945,"DIS_CODE":0,"TOWNNAME":"中西區","LI":"三合里","LIN":"15鄰","STREET":"文賢路","SECT":" ","MAREA":" ","LANE":" ","ALLEY":" ","HOUSE_NO":"７６號","E_COORD97":167425.84,"N_COORD97":2544616.8100000001,"ADDRESS":"文賢路７６號","OBJECTID":276940},"geometry":{"x":167425.83999999892,"y":2544616.8100000024}},{"attributes":{"ID":276946,"DIS_CODE":0,"TOWNNAME":"中西區","LI":"三合里","LIN":"15鄰","STREET":"文賢路","SECT":" ","MAREA":" ","LANE":" ","ALLEY":" ","HOUSE_NO":"７８號","E_COORD97":167426.67000000001,"N_COORD97":2544620.96,"ADDRESS":"文賢路７８號","OBJECTID":276941},"geometry":{"x":167426.66999999993,"y":2544620.9600000009}},{"attributes":{"ID":276947,"DIS_CODE":0,"TOWNNAME":"中西區","LI":"三合里","LIN":"15鄰","STREET":"文賢路","SECT":" ","MAREA":" ","LANE":" ","ALLEY":" ","HOUSE_NO":"８０號","E_COORD97":167427.92000000001,"N_COORD97":2544623.5899999999,"ADDRESS":"文賢路８０號","OBJECTID":276942},"geometry":{"x":167427.92000000086,"y":2544623.5900000036}},{"attributes":{"ID":276948,"DIS_CODE":0,"TOWNNAME":"中西區","LI":"三合里","LIN":"15鄰","STREET":"文賢路","SECT":" ","MAREA":" ","LANE":" ","ALLEY":" ","HOUSE_NO":"８２號","E_COORD97":167429.03,"N_COORD97":2544626.9100000001,"ADDRESS":"文賢路８２號","OBJECTID":276943},"geometry":{"x":167429.03000000119,"y":2544626.9100000001}},{"attributes":{"ID":276949,"DIS_CODE":0,"TOWNNAME":"下營區","LI":"新興里","LIN":"1鄰","STREET":"自由街","SECT":" ","MAREA":" ","LANE":"１３２巷","ALLEY":" ","HOUSE_NO":"２０號","E_COORD97":174878.07000000001,"N_COORD97":2570968.5,"ADDRESS":"自由街１３２巷２０號","OBJECTID":276944},"geometry":{"x":174878.0700000003,"y":2570968.5000000019}},{"attributes":{"ID":276950,"DIS_CODE":0,"TOWNNAME":"永康區","LI":"西灣里","LIN":"27鄰","STREET":"永大路","SECT":"二段","MAREA":" ","LANE":" ","ALLEY":" ","HOUSE_NO":"３８９號","E_COORD97":174476.53,"N_COORD97":2545818.5299999998,"ADDRESS":"永大路二段３８９號","OBJECTID":276945},"geometry":{"x":174476.53000000026,"y":2545818.5300000012}},{"attributes":{"ID":276951,"DIS_CODE":0,"TOWNNAME":"下營區","LI":"新興里","LIN":"1鄰","STREET":"自由街","SECT":" ","MAREA":" ","LANE":"１３２巷","ALLEY":" ","HOUSE_NO":"２３號","E_COORD97":174896.09,"N_COORD97":2570983.6000000001,"ADDRESS":"自由街１３２巷２３號","OBJECTID":276946},"geometry":{"x":174896.08999999985,"y":2570983.6000000034}},{"attributes":{"ID":276952,"DIS_CODE":0,"TOWNNAME":"永康區","LI":"永康里","LIN":"12鄰","STREET":"永二街","SECT":" ","MAREA":" ","LANE":" ","ALLEY":" ","HOUSE_NO":"５號","E_COORD97":173806.82000000001,"N_COORD97":2547137,"ADDRESS":"永二街５號","OBJECTID":276947},"geometry":{"x":173806.8200000003,"y":2547137.0000000019}},{"attributes":{"ID":276953,"DIS_CODE":0,"TOWNNAME":"東區","LI":"文聖里","LIN":"13鄰","STREET":"裕興街","SECT":" ","MAREA":" ","LANE":" ","ALLEY":" ","HOUSE_NO":"２０１號","E_COORD97":172324.89999999999,"N_COORD97":2542655.3599999999,"ADDRESS":"裕興街２０１號","OBJECTID":276948},"geometry":{"x":172324.90000000037,"y":2542655.3600000013}},{"attributes":{"ID":276954,"DIS_CODE":0,"TOWNNAME":"東區","LI":"崇信里","LIN":"8鄰","STREET":"中華東路","SECT":"三段","MAREA":" ","LANE":" ","ALLEY":" ","HOUSE_NO":"４６號","E_COORD97":170880.72,"N_COORD97":2542300.1200000001,"ADDRESS":"中華東路三段４６號","OBJECTID":276949},"geometry":{"x":170880.71999999974,"y":2542300.1200000029}},{"attributes":{"ID":276955,"DIS_CODE":0,"TOWNNAME":"後壁區","LI":"後壁里","LIN":"3鄰","STREET":" ","SECT":" ","MAREA":"後壁","LANE":" ","ALLEY":" ","HOUSE_NO":"４２號之１６","E_COORD97":184428.14000000001,"N_COORD97":2584329.52,"ADDRESS":"後壁４２號之１６","OBJECTID":276950},"geometry":{"x":184428.14000000153,"y":2584329.5200000014}},{"attributes":{"ID":276956,"DIS_CODE":0,"TOWNNAME":"下營區","LI":"新興里","LIN":"1鄰","STREET":"自由街","SECT":" ","MAREA":" ","LANE":"１３２巷","ALLEY":" ","HOUSE_NO":"２５號","E_COORD97":174896.67999999999,"N_COORD97":2570978.9700000002,"ADDRESS":"自由街１３２巷２５號","OBJECTID":276951},"geometry":{"x":174896.68000000063,"y":2570978.9700000025}},{"attributes":{"ID":276957,"DIS_CODE":0,"TOWNNAME":"後壁區","LI":"後壁里","LIN":"3鄰","STREET":" ","SECT":" ","MAREA":"後壁","LANE":" ","ALLEY":" ","HOUSE_NO":"５８號之２","E_COORD97":184635.82000000001,"N_COORD97":2584871.3100000001,"ADDRESS":"後壁５８號之２","OBJECTID":276952},"geometry":{"x":184635.8200000003,"y":2584871.3100000024}},{"attributes":{"ID":276958,"DIS_CODE":0,"TOWNNAME":"後壁區","LI":"後壁里","LIN":"3鄰","STREET":" ","SECT":" ","MAREA":"後壁","LANE":" ","ALLEY":" ","HOUSE_NO":"５８號","E_COORD97":184629.60000000001,"N_COORD97":2584864.3500000001,"ADDRESS":"後壁５８號","OBJECTID":276953},"geometry":{"x":184629.59999999963,"y":2584864.3499999996}},{"attributes":{"ID":276959,"DIS_CODE":0,"TOWNNAME":"永康區","LI":"大橋里","LIN":"4鄰","STREET":"大橋五街","SECT":" ","MAREA":" ","LANE":" ","ALLEY":" ","HOUSE_NO":"１４９號","E_COORD97":170984.07000000001,"N_COORD97":2546995.3100000001,"ADDRESS":"大橋五街１４９號","OBJECTID":276954},"geometry":{"x":170984.0700000003,"y":2546995.3100000005}},{"attributes":{"ID":276960,"DIS_CODE":0,"TOWNNAME":"後壁區","LI":"後壁里","LIN":"3鄰","STREET":" ","SECT":" ","MAREA":"後壁","LANE":" ","ALLEY":" ","HOUSE_NO":"５９號","E_COORD97":184638.26000000001,"N_COORD97":2584880.0899999999,"ADDRESS":"後壁５９號","OBJECTID":276955},"geometry":{"x":184638.26000000071,"y":2584880.0899999999}},{"attributes":{"ID":276961,"DIS_CODE":0,"TOWNNAME":"下營區","LI":"新興里","LIN":"1鄰","STREET":"自由街","SECT":" ","MAREA":" ","LANE":"１３２巷","ALLEY":" ","HOUSE_NO":"２７號","E_COORD97":174897.12,"N_COORD97":2570974.04,"ADDRESS":"自由街１３２巷２７號","OBJECTID":276956},"geometry":{"x":174897.12000000104,"y":2570974.040000001}},{"attributes":{"ID":276962,"DIS_CODE":0,"TOWNNAME":"下營區","LI":"新興里","LIN":"1鄰","STREET":"自由街","SECT":" ","MAREA":" ","LANE":"１３２巷","ALLEY":" ","HOUSE_NO":"２９號","E_COORD97":174897.92000000001,"N_COORD97":2570969.0899999999,"ADDRESS":"自由街１３２巷２９號","OBJECTID":276957},"geometry":{"x":174897.92000000179,"y":2570969.0899999999}},{"attributes":{"ID":276963,"DIS_CODE":0,"TOWNNAME":"東區","LI":"仁和里","LIN":"17鄰","STREET":"仁東街","SECT":" ","MAREA":" ","LANE":" ","ALLEY":" ","HOUSE_NO":"１７號","E_COORD97":171550.42999999999,"N_COORD97":2541156.5299999998,"ADDRESS":"仁東街１７號","OBJECTID":276958},"geometry":{"x":171550.43000000063,"y":2541156.5300000012}},{"attributes":{"ID":276964,"DIS_CODE":0,"TOWNNAME":"下營區","LI":"新興里","LIN":"1鄰","STREET":"自由街","SECT":" ","MAREA":" ","LANE":"１３２巷","ALLEY":" ","HOUSE_NO":"３１號","E_COORD97":174898.26000000001,"N_COORD97":2570964.8100000001,"ADDRESS":"自由街１３２巷３１號","OBJECTID":276959},"geometry":{"x":174898.25999999978,"y":2570964.8100000005}},{"attributes":{"ID":276965,"DIS_CODE":0,"TOWNNAME":"後壁區","LI":"崁頂里","LIN":"3鄰","STREET":" ","SECT":" ","MAREA":"崁頂","LANE":" ","ALLEY":" ","HOUSE_NO":"３５號之１","E_COORD97":182930.54000000001,"N_COORD97":2586820.5899999999,"ADDRESS":"崁頂３５號之１","OBJECTID":276960},"geometry":{"x":182930.54000000004,"y":2586820.5900000017}},{"attributes":{"ID":276966,"DIS_CODE":0,"TOWNNAME":"後壁區","LI":"崁頂里","LIN":"3鄰","STREET":" ","SECT":" ","MAREA":"崁頂","LANE":" ","ALLEY":" ","HOUSE_NO":"３６號","E_COORD97":182916.89000000001,"N_COORD97":2586810.8999999999,"ADDRESS":"崁頂３６號","OBJECTID":276961},"geometry":{"x":182916.8900000006,"y":2586810.9000000004}},{"attributes":{"ID":276967,"DIS_CODE":0,"TOWNNAME":"後壁區","LI":"崁頂里","LIN":"3鄰","STREET":" ","SECT":" ","MAREA":"崁頂","LANE":" ","ALLEY":" ","HOUSE_NO":"３７號","E_COORD97":182924.28,"N_COORD97":2586776.52,"ADDRESS":"崁頂３７號","OBJECTID":276962},"geometry":{"x":182924.28000000212,"y":2586776.5200000033}},{"attributes":{"ID":276968,"DIS_CODE":0,"TOWNNAME":"後壁區","LI":"崁頂里","LIN":"3鄰","STREET":" ","SECT":" ","MAREA":"崁頂","LANE":" ","ALLEY":" ","HOUSE_NO":"３８號之２","E_COORD97":182923.29000000001,"N_COORD97":2586734.4900000002,"ADDRESS":"崁頂３８號之２","OBJECTID":276963},"geometry":{"x":182923.29000000004,"y":2586734.4900000021}},{"attributes":{"ID":276969,"DIS_CODE":0,"TOWNNAME":"白河區","LI":"永安里","LIN":"3鄰","STREET":"中正路","SECT":" ","MAREA":" ","LANE":" ","ALLEY":" ","HOUSE_NO":"８７號","E_COORD97":189954.78,"N_COORD97":2583112.04,"ADDRESS":"中正路８７號","OBJECTID":276964},"geometry":{"x":189954.78000000119,"y":2583112.040000001}},{"attributes":{"ID":276970,"DIS_CODE":0,"TOWNNAME":"安南區","LI":"顯宮里","LIN":"3鄰","STREET":"顯宮一街","SECT":" ","MAREA":" ","LANE":" ","ALLEY":" ","HOUSE_NO":"３０號","E_COORD97":160815.92000000001,"N_COORD97":2548999.2200000002,"ADDRESS":"顯宮一街３０號","OBJECTID":276965},"geometry":{"x":160815.92000000179,"y":2548999.2200000007}},{"attributes":{"ID":276971,"DIS_CODE":0,"TOWNNAME":"安南區","LI":"顯宮里","LIN":"3鄰","STREET":"顯宮一街","SECT":" ","MAREA":" ","LANE":" ","ALLEY":" ","HOUSE_NO":"３７之３５７號","E_COORD97":161225.72,"N_COORD97":2549735.5899999999,"ADDRESS":"顯宮一街３７之３５７號","OBJECTID":276966},"geometry":{"x":161225.7200000016,"y":2549735.5899999999}},{"attributes":{"ID":276972,"DIS_CODE":0,"TOWNNAME":"下營區","LI":"新興里","LIN":"1鄰","STREET":"自由街","SECT":" ","MAREA":" ","LANE":"１３２巷","ALLEY":" ","HOUSE_NO":"３３號","E_COORD97":174899.32000000001,"N_COORD97":2570960.0299999998,"ADDRESS":"自由街１３２巷３３號","OBJECTID":276967},"geometry":{"x":174899.32000000123,"y":2570960.0300000031}},{"attributes":{"ID":276973,"DIS_CODE":0,"TOWNNAME":"後壁區","LI":"頂安里","LIN":"3鄰","STREET":" ","SECT":" ","MAREA":"頂寮","LANE":" ","ALLEY":" ","HOUSE_NO":"３４號之１","E_COORD97":184080.37,"N_COORD97":2581507.3399999999,"ADDRESS":"頂寮３４號之１","OBJECTID":276968},"geometry":{"x":184080.37000000104,"y":2581507.3400000017}},{"attributes":{"ID":276974,"DIS_CODE":0,"TOWNNAME":"後壁區","LI":"頂安里","LIN":"3鄰","STREET":" ","SECT":" ","MAREA":"頂寮","LANE":" ","ALLEY":" ","HOUSE_NO":"３４號","E_COORD97":184055.92999999999,"N_COORD97":2581516.6699999999,"ADDRESS":"頂寮３４號","OBJECTID":276969},"geometry":{"x":184055.9299999997,"y":2581516.6699999999}},{"attributes":{"ID":276975,"DIS_CODE":0,"TOWNNAME":"後壁區","LI":"頂安里","LIN":"3鄰","STREET":" ","SECT":" ","MAREA":"頂寮","LANE":" ","ALLEY":" ","HOUSE_NO":"３５號之１","E_COORD97":184034.54000000001,"N_COORD97":2581522.98,"ADDRESS":"頂寮３５號之１","OBJECTID":276970},"geometry":{"x":184034.54000000097,"y":2581522.9800000023}},{"attributes":{"ID":276976,"DIS_CODE":0,"TOWNNAME":"後壁區","LI":"頂安里","LIN":"3鄰","STREET":" ","SECT":" ","MAREA":"頂寮","LANE":" ","ALLEY":" ","HOUSE_NO":"３６號","E_COORD97":184018.17999999999,"N_COORD97":2581516.54,"ADDRESS":"頂寮３６號","OBJECTID":276971},"geometry":{"x":184018.18000000063,"y":2581516.5399999991}},{"attributes":{"ID":276977,"DIS_CODE":0,"TOWNNAME":"永康區","LI":"北灣里","LIN":"13鄰","STREET":"大灣路","SECT":" ","MAREA":" ","LANE":" ","ALLEY":" ","HOUSE_NO":"６０號","E_COORD97":175265.34,"N_COORD97":2545827.29,"ADDRESS":"大灣路６０號","OBJECTID":276972},"geometry":{"x":175265.34000000078,"y":2545827.2899999991}},{"attributes":{"ID":276978,"DIS_CODE":0,"TOWNNAME":"永康區","LI":"王行里","LIN":"8鄰","STREET":"王行路","SECT":" ","MAREA":" ","LANE":" ","ALLEY":" ","HOUSE_NO":"３５５號","E_COORD97":175405.14999999999,"N_COORD97":2548564.7000000002,"ADDRESS":"王行路３５５號","OBJECTID":276973},"geometry":{"x":175405.15000000037,"y":2548564.6999999993}},{"attributes":{"ID":276979,"DIS_CODE":0,"TOWNNAME":"永康區","LI":"北灣里","LIN":"30鄰","STREET":"大同街","SECT":" ","MAREA":" ","LANE":" ","ALLEY":" ","HOUSE_NO":"２９號","E_COORD97":175277.75,"N_COORD97":2545399.2999999998,"ADDRESS":"大同街２９號","OBJECTID":276974},"geometry":{"x":175277.75000000093,"y":2545399.2999999989}},{"attributes":{"ID":276980,"DIS_CODE":0,"TOWNNAME":"永康區","LI":"永康里","LIN":"1鄰","STREET":"永埔街","SECT":" ","MAREA":" ","LANE":"３３巷","ALLEY":" ","HOUSE_NO":"３６號","E_COORD97":173930.95000000001,"N_COORD97":2547517.7400000002,"ADDRESS":"永埔街３３巷３６號","OBJECTID":276975},"geometry":{"x":173930.95000000019,"y":2547517.7400000002}},{"attributes":{"ID":276981,"DIS_CODE":0,"TOWNNAME":"永康區","LI":"復華里","LIN":"1鄰","STREET":"復國二路","SECT":" ","MAREA":" ","LANE":"２７４巷","ALLEY":" ","HOUSE_NO":"８號","E_COORD97":173042.35999999999,"N_COORD97":2546058.27,"ADDRESS":"復國二路２７４巷８號","OBJECTID":276976},"geometry":{"x":173042.36000000034,"y":2546058.2699999996}},{"attributes":{"ID":276982,"DIS_CODE":0,"TOWNNAME":"永康區","LI":"烏竹里","LIN":"1鄰","STREET":"烏竹北街","SECT":" ","MAREA":" ","LANE":"９８巷","ALLEY":" ","HOUSE_NO":"４３號","E_COORD97":174476.32999999999,"N_COORD97":2549588.7400000002,"ADDRESS":"烏竹北街９８巷４３號","OBJECTID":276977},"geometry":{"x":174476.33000000007,"y":2549588.7400000002}},{"attributes":{"ID":276983,"DIS_CODE":0,"TOWNNAME":"永康區","LI":"神洲里","LIN":"1鄰","STREET":"忠孝路","SECT":" ","MAREA":" ","LANE":"６巷","ALLEY":" ","HOUSE_NO":"４號","E_COORD97":172110.54999999999,"N_COORD97":2544566.75,"ADDRESS":"忠孝路６巷４號","OBJECTID":276978},"geometry":{"x":172110.55000000075,"y":2544566.75}},{"attributes":{"ID":276984,"DIS_CODE":0,"TOWNNAME":"永康區","LI":"神洲里","LIN":"1鄰","STREET":"忠孝路","SECT":" ","MAREA":" ","LANE":"２２巷","ALLEY":" ","HOUSE_NO":"８號","E_COORD97":172116.12,"N_COORD97":2544602.7400000002,"ADDRESS":"忠孝路２２巷８號","OBJECTID":276979},"geometry":{"x":172116.12000000011,"y":2544602.7400000039}},{"attributes":{"ID":276985,"DIS_CODE":0,"TOWNNAME":"歸仁區","LI":"崙頂里","LIN":"15鄰","STREET":"崙頂一街","SECT":" ","MAREA":" ","LANE":"３２巷","ALLEY":" ","HOUSE_NO":"３０號","E_COORD97":177939.76000000001,"N_COORD97":2539917.1099999999,"ADDRESS":"崙頂一街３２巷３０號","OBJECTID":276980},"geometry":{"x":177939.75999999978,"y":2539917.1100000031}},{"attributes":{"ID":276986,"DIS_CODE":0,"TOWNNAME":"東區","LI":"崇學里","LIN":"1鄰","STREET":"崇德路","SECT":" ","MAREA":" ","LANE":"３３３巷","ALLEY":" ","HOUSE_NO":"２５號","E_COORD97":170404.39999999999,"N_COORD97":2542047.6099999999,"ADDRESS":"崇德路３３３巷２５號","OBJECTID":276981},"geometry":{"x":170404.40000000037,"y":2542047.6100000013}},{"attributes":{"ID":276987,"DIS_CODE":0,"TOWNNAME":"東區","LI":"崇學里","LIN":"1鄰","STREET":"崇德路","SECT":" ","MAREA":" ","LANE":"３３３巷","ALLEY":" ","HOUSE_NO":"２７號","E_COORD97":170408.81,"N_COORD97":2542052.3399999999,"ADDRESS":"崇德路３３３巷２７號","OBJECTID":276982},"geometry":{"x":170408.80999999959,"y":2542052.3400000017}},{"attributes":{"ID":276988,"DIS_CODE":0,"TOWNNAME":"東區","LI":"崇學里","LIN":"1鄰","STREET":"崇德路","SECT":" ","MAREA":" ","LANE":"３３３巷","ALLEY":" ","HOUSE_NO":"２９號","E_COORD97":170410.44,"N_COORD97":2542054.7799999998,"ADDRESS":"崇德路３３３巷２９號","OBJECTID":276983},"geometry":{"x":170410.44000000041,"y":2542054.7799999993}},{"attributes":{"ID":276989,"DIS_CODE":0,"TOWNNAME":"東區","LI":"崇學里","LIN":"1鄰","STREET":"崇德路","SECT":" ","MAREA":" ","LANE":"３３３巷","ALLEY":" ","HOUSE_NO":"３１號","E_COORD97":170413.70000000001,"N_COORD97":2542058.04,"ADDRESS":"崇德路３３３巷３１號","OBJECTID":276984},"geometry":{"x":170413.70000000019,"y":2542058.040000001}},{"attributes":{"ID":276990,"DIS_CODE":0,"TOWNNAME":"東區","LI":"崇學里","LIN":"1鄰","STREET":"崇德路","SECT":" ","MAREA":" ","LANE":"３３３巷","ALLEY":" ","HOUSE_NO":"３３號","E_COORD97":170415.98999999999,"N_COORD97":2542061.4700000002,"ADDRESS":"崇德路３３３巷３３號","OBJECTID":276985},"geometry":{"x":170415.99000000115,"y":2542061.4700000007}},{"attributes":{"ID":276991,"DIS_CODE":0,"TOWNNAME":"東區","LI":"崇學里","LIN":"1鄰","STREET":"崇德路","SECT":" ","MAREA":" ","LANE":"３３３巷","ALLEY":" ","HOUSE_NO":"３５號","E_COORD97":170419.41,"N_COORD97":2542065.0499999998,"ADDRESS":"崇德路３３３巷３５號","OBJECTID":276986},"geometry":{"x":170419.40999999922,"y":2542065.0500000045}},{"attributes":{"ID":276992,"DIS_CODE":0,"TOWNNAME":"永康區","LI":"永康里","LIN":"37鄰","STREET":"西勢路","SECT":" ","MAREA":" ","LANE":" ","ALLEY":" ","HOUSE_NO":"７５８號","E_COORD97":174518.67000000001,"N_COORD97":2546748.4199999999,"ADDRESS":"西勢路７５８號","OBJECTID":276987},"geometry":{"x":174518.67000000086,"y":2546748.4200000018}},{"attributes":{"ID":276993,"DIS_CODE":0,"TOWNNAME":"後壁區","LI":"頂安里","LIN":"3鄰","STREET":" ","SECT":" ","MAREA":"頂寮","LANE":" ","ALLEY":" ","HOUSE_NO":"３７號之１","E_COORD97":184023.04999999999,"N_COORD97":2581467.1899999999,"ADDRESS":"頂寮３７號之１","OBJECTID":276988},"geometry":{"x":184023.04999999981,"y":2581467.1900000013}},{"attributes":{"ID":276994,"DIS_CODE":0,"TOWNNAME":"後壁區","LI":"頂安里","LIN":"3鄰","STREET":" ","SECT":" ","MAREA":"頂寮","LANE":" ","ALLEY":" ","HOUSE_NO":"３７號之２","E_COORD97":184013.23999999999,"N_COORD97":2581492.2799999998,"ADDRESS":"頂寮３７號之２","OBJECTID":276989},"geometry":{"x":184013.24000000115,"y":2581492.2800000031}},{"attributes":{"ID":276995,"DIS_CODE":0,"TOWNNAME":"東區","LI":"崇學里","LIN":"1鄰","STREET":"崇學路","SECT":" ","MAREA":" ","LANE":"９６巷","ALLEY":" ","HOUSE_NO":"１０號","E_COORD97":170348.85999999999,"N_COORD97":2542141.77,"ADDRESS":"崇學路９６巷１０號","OBJECTID":276990},"geometry":{"x":170348.8600000022,"y":2542141.7700000014}},{"attributes":{"ID":276996,"DIS_CODE":0,"TOWNNAME":"東區","LI":"崇學里","LIN":"1鄰","STREET":"崇學路","SECT":" ","MAREA":" ","LANE":"９６巷","ALLEY":" ","HOUSE_NO":"１２號","E_COORD97":170355.20999999999,"N_COORD97":2542131.0600000001,"ADDRESS":"崇學路９６巷１２號","OBJECTID":276991},"geometry":{"x":170355.21000000089,"y":2542131.0600000005}},{"attributes":{"ID":276997,"DIS_CODE":0,"TOWNNAME":"永康區","LI":"崑山里","LIN":"20鄰","STREET":"國光一街","SECT":" ","MAREA":" ","LANE":" ","ALLEY":" ","HOUSE_NO":"３３號","E_COORD97":173900.66,"N_COORD97":2544603.8799999999,"ADDRESS":"國光一街３３號","OBJECTID":276992},"geometry":{"x":173900.66000000015,"y":2544603.8800000027}},{"attributes":{"ID":276998,"DIS_CODE":0,"TOWNNAME":"東區","LI":"崇學里","LIN":"1鄰","STREET":"崇學路","SECT":" ","MAREA":" ","LANE":"９６巷","ALLEY":" ","HOUSE_NO":"１４號","E_COORD97":170358.89999999999,"N_COORD97":2542129.21,"ADDRESS":"崇學路９６巷１４號","OBJECTID":276993},"geometry":{"x":170358.90000000224,"y":2542129.2100000028}},{"attributes":{"ID":276999,"DIS_CODE":0,"TOWNNAME":"東區","LI":"崇學里","LIN":"1鄰","STREET":"崇學路","SECT":" ","MAREA":" ","LANE":"９６巷","ALLEY":" ","HOUSE_NO":"１８號","E_COORD97":170364.45000000001,"N_COORD97":2542125.52,"ADDRESS":"崇學路９６巷１８號","OBJECTID":276994},"geometry":{"x":170364.45000000019,"y":2542125.5200000014}},{"attributes":{"ID":277000,"DIS_CODE":0,"TOWNNAME":"永康區","LI":"永康里","LIN":"31鄰","STREET":"聖龍街","SECT":" ","MAREA":" ","LANE":" ","ALLEY":" ","HOUSE_NO":"１７８號","E_COORD97":174207.45999999999,"N_COORD97":2547847.25,"ADDRESS":"聖龍街１７８號","OBJECTID":276995},"geometry":{"x":174207.45999999996,"y":2547847.2500000019}},{"attributes":{"ID":277001,"DIS_CODE":0,"TOWNNAME":"永康區","LI":"勝利里","LIN":"21鄰","STREET":"勝利街","SECT":" ","MAREA":" ","LANE":" ","ALLEY":" ","HOUSE_NO":"１７９號","E_COORD97":171364.38,"N_COORD97":2545088.7599999998,"ADDRESS":"勝利街１７９號","OBJECTID":276996},"geometry":{"x":171364.38000000082,"y":2545088.7599999998}},{"attributes":{"ID":277002,"DIS_CODE":0,"TOWNNAME":"安南區","LI":"鳳凰里","LIN":"3鄰","STREET":"安中路","SECT":"一段","MAREA":" ","LANE":" ","ALLEY":" ","HOUSE_NO":"５３０號","E_COORD97":168079.425353,"N_COORD97":2548959.0219700001,"ADDRESS":"安中路一段５３０號","OBJECTID":276997},"geometry":{"x":168079.42535300087,"y":2548959.0219740029}},{"attributes":{"ID":277003,"DIS_CODE":0,"TOWNNAME":"安南區","LI":"鳳凰里","LIN":"3鄰","STREET":"安中路","SECT":"一段","MAREA":" ","LANE":" ","ALLEY":" ","HOUSE_NO":"５２８號","E_COORD97":168082.813081,"N_COORD97":2548957.1169799999,"ADDRESS":"安中路一段５２８號","OBJECTID":276998},"geometry":{"x":168082.81308100093,"y":2548957.116975002}},{"attributes":{"ID":277004,"DIS_CODE":0,"TOWNNAME":"安南區","LI":"鳳凰里","LIN":"3鄰","STREET":"安中路","SECT":"一段","MAREA":" ","LANE":" ","ALLEY":" ","HOUSE_NO":"５１８號","E_COORD97":168098.05786100001,"N_COORD97":2548948.0153100002,"ADDRESS":"安中路一段５１８號","OBJECTID":276999},"geometry":{"x":168098.0578610003,"y":2548948.0153129976}},{"attributes":{"ID":277005,"DIS_CODE":0,"TOWNNAME":"安南區","LI":"鳳凰里","LIN":"3鄰","STREET":"安中路","SECT":"一段","MAREA":" ","LANE":" ","ALLEY":" ","HOUSE_NO":"５２０號","E_COORD97":168093.82320000001,"N_COORD97":2548949.92031,"ADDRESS":"安中路一段５２０號","OBJECTID":277000},"geometry":{"x":168093.82320000231,"y":2548949.9203120023}}]}