{"displayFieldName":"TOWNNAME","fieldAliases":{"ID":"ID","DIS_CODE":"DIS_CODE","TOWNNAME":"TOWNNAME","LI":"LI","LIN":"LIN","STREET":"STREET","SECT":"SECT","MAREA":"MAREA","LANE":"LANE","ALLEY":"ALLEY","HOUSE_NO":"HOUSE_NO","E_COORD97":"E_COORD97","N_COORD97":"N_COORD97","ADDRESS":"ADDRESS","OBJECTID":"OBJECTID"},"geometryType":"esriGeometryPoint","spatialReference":{"wkid":102443,"latestWkid":3826},"fields":[{"name":"ID","type":"esriFieldTypeDouble","alias":"ID"},{"name":"DIS_CODE","type":"esriFieldTypeInteger","alias":"DIS_CODE"},{"name":"TOWNNAME","type":"esriFieldTypeString","alias":"TOWNNAME","length":8},{"name":"LI","type":"esriFieldTypeString","alias":"LI","length":8},{"name":"LIN","type":"esriFieldTypeString","alias":"LIN","length":12},{"name":"STREET","type":"esriFieldTypeString","alias":"STREET","length":20},{"name":"SECT","type":"esriFieldTypeString","alias":"SECT","length":8},{"name":"MAREA","type":"esriFieldTypeString","alias":"MAREA","length":12},{"name":"LANE","type":"esriFieldTypeString","alias":"LANE","length":10},{"name":"ALLEY","type":"esriFieldTypeString","alias":"ALLEY","length":10},{"name":"HOUSE_NO","type":"esriFieldTypeString","alias":"HOUSE_NO","length":20},{"name":"E_COORD97","type":"esriFieldTypeDouble","alias":"E_COORD97"},{"name":"N_COORD97","type":"esriFieldTypeDouble","alias":"N_COORD97"},{"name":"ADDRESS","type":"esriFieldTypeString","alias":"ADDRESS","length":50},{"name":"OBJECTID","type":"esriFieldTypeOID","alias":"OBJECTID"}],"features":[{"attributes":{"ID":298209,"DIS_CODE":0,"TOWNNAME":"麻豆區","LI":"東角里","LIN":"4鄰","STREET":"興中路","SECT":" ","MAREA":" ","LANE":"１７５巷","ALLEY":" ","HOUSE_NO":"３號之２０","E_COORD97":173649.04999999999,"N_COORD97":2564854.3500000001,"ADDRESS":"興中路１７５巷３號之２０","OBJECTID":298201},"geometry":{"x":173649.04999999981,"y":2564854.3499999996}},{"attributes":{"ID":298210,"DIS_CODE":0,"TOWNNAME":"麻豆區","LI":"東角里","LIN":"4鄰","STREET":"興中路","SECT":" ","MAREA":" ","LANE":"１７５巷","ALLEY":" ","HOUSE_NO":"３號之２１","E_COORD97":173649.42000000001,"N_COORD97":2564849.7799999998,"ADDRESS":"興中路１７５巷３號之２１","OBJECTID":298202},"geometry":{"x":173649.41999999993,"y":2564849.7800000012}},{"attributes":{"ID":298211,"DIS_CODE":0,"TOWNNAME":"麻豆區","LI":"東角里","LIN":"4鄰","STREET":"興中路","SECT":" ","MAREA":" ","LANE":"１７５巷","ALLEY":" ","HOUSE_NO":"３號之２２","E_COORD97":173649.79000000001,"N_COORD97":2564845.2200000002,"ADDRESS":"興中路１７５巷３號之２２","OBJECTID":298203},"geometry":{"x":173649.79000000097,"y":2564845.2200000025}},{"attributes":{"ID":298212,"DIS_CODE":0,"TOWNNAME":"中西區","LI":"永福里","LIN":"4鄰","STREET":"中正路","SECT":" ","MAREA":" ","LANE":"５３巷","ALLEY":" ","HOUSE_NO":"１６號","E_COORD97":168172.97,"N_COORD97":2543543.1299999999,"ADDRESS":"中正路５３巷１６號","OBJECTID":298204},"geometry":{"x":168172.97000000067,"y":2543543.129999999}},{"attributes":{"ID":298213,"DIS_CODE":0,"TOWNNAME":"中西區","LI":"永福里","LIN":"4鄰","STREET":"中正路","SECT":" ","MAREA":" ","LANE":"５３巷","ALLEY":" ","HOUSE_NO":"１８號","E_COORD97":168177.54000000001,"N_COORD97":2543542.3999999999,"ADDRESS":"中正路５３巷１８號","OBJECTID":298205},"geometry":{"x":168177.5400000019,"y":2543542.4000000004}},{"attributes":{"ID":298214,"DIS_CODE":0,"TOWNNAME":"中西區","LI":"永福里","LIN":"4鄰","STREET":"中正路","SECT":" ","MAREA":" ","LANE":"５３巷","ALLEY":" ","HOUSE_NO":"１８號之１","E_COORD97":168181.20000000001,"N_COORD97":2543541.6600000001,"ADDRESS":"中正路５３巷１８號之１","OBJECTID":298206},"geometry":{"x":168181.20000000019,"y":2543541.6599999983}},{"attributes":{"ID":298215,"DIS_CODE":0,"TOWNNAME":"中西區","LI":"民權里","LIN":"8鄰","STREET":"金華路","SECT":"四段","MAREA":" ","LANE":"４４巷","ALLEY":" ","HOUSE_NO":"３２號","E_COORD97":167528.16,"N_COORD97":2544197.2799999998,"ADDRESS":"金華路四段４４巷３２號","OBJECTID":298207},"geometry":{"x":167528.16000000108,"y":2544197.2799999993}},{"attributes":{"ID":298216,"DIS_CODE":0,"TOWNNAME":"中西區","LI":"民權里","LIN":"8鄰","STREET":"金華路","SECT":"四段","MAREA":" ","LANE":"４４巷","ALLEY":" ","HOUSE_NO":"３４號","E_COORD97":167534.79999999999,"N_COORD97":2544195.0899999999,"ADDRESS":"金華路四段４４巷３４號","OBJECTID":298208},"geometry":{"x":167534.80000000168,"y":2544195.0899999999}},{"attributes":{"ID":298217,"DIS_CODE":0,"TOWNNAME":"中西區","LI":"民權里","LIN":"8鄰","STREET":"金華路","SECT":"四段","MAREA":" ","LANE":"４４巷","ALLEY":" ","HOUSE_NO":"４號","E_COORD97":167430.70999999999,"N_COORD97":2544182.73,"ADDRESS":"金華路四段４４巷４號","OBJECTID":298209},"geometry":{"x":167430.71000000089,"y":2544182.7300000042}},{"attributes":{"ID":298218,"DIS_CODE":0,"TOWNNAME":"中西區","LI":"民權里","LIN":"8鄰","STREET":"金華路","SECT":"四段","MAREA":" ","LANE":"４４巷","ALLEY":" ","HOUSE_NO":"６號","E_COORD97":167434.82999999999,"N_COORD97":2544187.6600000001,"ADDRESS":"金華路四段４４巷６號","OBJECTID":298210},"geometry":{"x":167434.83000000194,"y":2544187.660000002}},{"attributes":{"ID":298219,"DIS_CODE":0,"TOWNNAME":"中西區","LI":"民權里","LIN":"8鄰","STREET":"金華路","SECT":"四段","MAREA":" ","LANE":"４４巷","ALLEY":" ","HOUSE_NO":"８號","E_COORD97":167441.39000000001,"N_COORD97":2544184.7000000002,"ADDRESS":"金華路四段４４巷８號","OBJECTID":298211},"geometry":{"x":167441.3900000006,"y":2544184.6999999974}},{"attributes":{"ID":298220,"DIS_CODE":0,"TOWNNAME":"中西區","LI":"協和里","LIN":"8鄰","STREET":"協和街","SECT":" ","MAREA":" ","LANE":"２００巷","ALLEY":" ","HOUSE_NO":"２號","E_COORD97":167336.10999999999,"N_COORD97":2544714.0499999998,"ADDRESS":"協和街２００巷２號","OBJECTID":298212},"geometry":{"x":167336.11000000034,"y":2544714.0500000026}},{"attributes":{"ID":298221,"DIS_CODE":0,"TOWNNAME":"東區","LI":"文聖里","LIN":"14鄰","STREET":"裕孝路","SECT":" ","MAREA":" ","LANE":" ","ALLEY":" ","HOUSE_NO":"２６０之１５號","E_COORD97":172364.22,"N_COORD97":2542710.0299999998,"ADDRESS":"裕孝路２６０之１５號","OBJECTID":298213},"geometry":{"x":172364.21999999974,"y":2542710.0299999993}},{"attributes":{"ID":298222,"DIS_CODE":0,"TOWNNAME":"東區","LI":"文聖里","LIN":"14鄰","STREET":"裕孝路","SECT":" ","MAREA":" ","LANE":" ","ALLEY":" ","HOUSE_NO":"２６０之１６號","E_COORD97":172358.82000000001,"N_COORD97":2542710.0299999998,"ADDRESS":"裕孝路２６０之１６號","OBJECTID":298214},"geometry":{"x":172358.8200000003,"y":2542710.0299999993}},{"attributes":{"ID":298223,"DIS_CODE":0,"TOWNNAME":"東區","LI":"文聖里","LIN":"14鄰","STREET":"裕孝路","SECT":" ","MAREA":" ","LANE":" ","ALLEY":" ","HOUSE_NO":"２６０之１號","E_COORD97":172424.97,"N_COORD97":2542708.0600000001,"ADDRESS":"裕孝路２６０之１號","OBJECTID":298215},"geometry":{"x":172424.96999999974,"y":2542708.0600000005}},{"attributes":{"ID":298224,"DIS_CODE":0,"TOWNNAME":"東區","LI":"文聖里","LIN":"14鄰","STREET":"裕孝路","SECT":" ","MAREA":" ","LANE":" ","ALLEY":" ","HOUSE_NO":"２６０之２號","E_COORD97":172419.39999999999,"N_COORD97":2542708.3900000001,"ADDRESS":"裕孝路２６０之２號","OBJECTID":298216},"geometry":{"x":172419.40000000037,"y":2542708.3900000025}},{"attributes":{"ID":298225,"DIS_CODE":0,"TOWNNAME":"新營區","LI":"大宏里","LIN":"3鄰","STREET":"綠川北街","SECT":" ","MAREA":" ","LANE":" ","ALLEY":" ","HOUSE_NO":"１１３號","E_COORD97":180334.778292,"N_COORD97":2578684.46594,"ADDRESS":"綠川北街１１３號","OBJECTID":298217},"geometry":{"x":180334.77829200123,"y":2578684.4659390021}},{"attributes":{"ID":298226,"DIS_CODE":0,"TOWNNAME":"東區","LI":"文聖里","LIN":"14鄰","STREET":"裕孝路","SECT":" ","MAREA":" ","LANE":" ","ALLEY":" ","HOUSE_NO":"２６０之３號","E_COORD97":172414.48999999999,"N_COORD97":2542708.5499999998,"ADDRESS":"裕孝路２６０之３號","OBJECTID":298218},"geometry":{"x":172414.49000000115,"y":2542708.5500000007}},{"attributes":{"ID":298227,"DIS_CODE":0,"TOWNNAME":"中西區","LI":"西湖里","LIN":"4鄰","STREET":"頂美一街","SECT":" ","MAREA":" ","LANE":"４８巷","ALLEY":" ","HOUSE_NO":"１０號","E_COORD97":166370.51000000001,"N_COORD97":2544557.0899999999,"ADDRESS":"頂美一街４８巷１０號","OBJECTID":298219},"geometry":{"x":166370.51000000071,"y":2544557.0900000017}},{"attributes":{"ID":298228,"DIS_CODE":0,"TOWNNAME":"中西區","LI":"西湖里","LIN":"4鄰","STREET":"頂美一街","SECT":" ","MAREA":" ","LANE":"４８巷","ALLEY":" ","HOUSE_NO":"１２號","E_COORD97":166384.62,"N_COORD97":2544558.5499999998,"ADDRESS":"頂美一街４８巷１２號","OBJECTID":298220},"geometry":{"x":166384.62000000011,"y":2544558.5500000026}},{"attributes":{"ID":298229,"DIS_CODE":0,"TOWNNAME":"中西區","LI":"西湖里","LIN":"4鄰","STREET":"頂美一街","SECT":" ","MAREA":" ","LANE":"４８巷","ALLEY":" ","HOUSE_NO":"１４號","E_COORD97":166394.35999999999,"N_COORD97":2544557.0899999999,"ADDRESS":"頂美一街４８巷１４號","OBJECTID":298221},"geometry":{"x":166394.36000000127,"y":2544557.0900000017}},{"attributes":{"ID":298230,"DIS_CODE":0,"TOWNNAME":"中西區","LI":"西湖里","LIN":"4鄰","STREET":"頂美一街","SECT":" ","MAREA":" ","LANE":"４８巷","ALLEY":" ","HOUSE_NO":"１６號","E_COORD97":166401.41,"N_COORD97":2544557.3399999999,"ADDRESS":"頂美一街４８巷１６號","OBJECTID":298222},"geometry":{"x":166401.41000000015,"y":2544557.3400000036}},{"attributes":{"ID":298231,"DIS_CODE":0,"TOWNNAME":"中西區","LI":"西湖里","LIN":"4鄰","STREET":"頂美一街","SECT":" ","MAREA":" ","LANE":"４８巷","ALLEY":" ","HOUSE_NO":"２號","E_COORD97":166329.63,"N_COORD97":2544557.0899999999,"ADDRESS":"頂美一街４８巷２號","OBJECTID":298223},"geometry":{"x":166329.63000000082,"y":2544557.0900000017}},{"attributes":{"ID":298232,"DIS_CODE":0,"TOWNNAME":"中西區","LI":"西湖里","LIN":"4鄰","STREET":"頂美一街","SECT":" ","MAREA":" ","LANE":"４８巷","ALLEY":" ","HOUSE_NO":"４號","E_COORD97":166344.72,"N_COORD97":2544556.8500000001,"ADDRESS":"頂美一街４８巷４號","OBJECTID":298224},"geometry":{"x":166344.71999999974,"y":2544556.8499999996}},{"attributes":{"ID":298233,"DIS_CODE":0,"TOWNNAME":"安南區","LI":"國安里","LIN":"4鄰","STREET":"國安街","SECT":" ","MAREA":" ","LANE":"１５６巷","ALLEY":" ","HOUSE_NO":"１４３號","E_COORD97":166649.04999999999,"N_COORD97":2547355.1099999999,"ADDRESS":"國安街１５６巷１４３號","OBJECTID":298225},"geometry":{"x":166649.04999999981,"y":2547355.1099999994}},{"attributes":{"ID":298234,"DIS_CODE":0,"TOWNNAME":"安南區","LI":"國安里","LIN":"4鄰","STREET":"國安街","SECT":" ","MAREA":" ","LANE":"１５６巷","ALLEY":" ","HOUSE_NO":"１４７號","E_COORD97":166647.70999999999,"N_COORD97":2547363.1000000001,"ADDRESS":"國安街１５６巷１４７號","OBJECTID":298226},"geometry":{"x":166647.71000000089,"y":2547363.1000000015}},{"attributes":{"ID":298235,"DIS_CODE":0,"TOWNNAME":"安南區","LI":"國安里","LIN":"4鄰","STREET":"國安街","SECT":" ","MAREA":" ","LANE":"１５６巷","ALLEY":" ","HOUSE_NO":"１４９號","E_COORD97":166647,"N_COORD97":2547367.2000000002,"ADDRESS":"國安街１５６巷１４９號","OBJECTID":298227},"geometry":{"x":166647.00000000186,"y":2547367.1999999993}},{"attributes":{"ID":298236,"DIS_CODE":0,"TOWNNAME":"安南區","LI":"國安里","LIN":"4鄰","STREET":"國安街","SECT":" ","MAREA":" ","LANE":"１５６巷","ALLEY":" ","HOUSE_NO":"１５１號","E_COORD97":166645.98000000001,"N_COORD97":2547371.98,"ADDRESS":"國安街１５６巷１５１號","OBJECTID":298228},"geometry":{"x":166645.98000000231,"y":2547371.9800000023}},{"attributes":{"ID":298237,"DIS_CODE":0,"TOWNNAME":"永康區","LI":"復興里","LIN":"25鄰","STREET":"復興路","SECT":" ","MAREA":" ","LANE":"４２９巷","ALLEY":" ","HOUSE_NO":"８３號之１","E_COORD97":172279.97,"N_COORD97":2543893.9700000002,"ADDRESS":"復興路４２９巷８３號之１","OBJECTID":298229},"geometry":{"x":172279.9700000016,"y":2543893.9700000025}},{"attributes":{"ID":298238,"DIS_CODE":0,"TOWNNAME":"永康區","LI":"網寮里","LIN":"25鄰","STREET":"永春街","SECT":" ","MAREA":" ","LANE":"９６巷","ALLEY":" ","HOUSE_NO":"９號","E_COORD97":173753.57999999999,"N_COORD97":2546552.4700000002,"ADDRESS":"永春街９６巷９號","OBJECTID":298230},"geometry":{"x":173753.58000000007,"y":2546552.4700000025}},{"attributes":{"ID":298239,"DIS_CODE":0,"TOWNNAME":"中西區","LI":"協和里","LIN":"8鄰","STREET":"協和街","SECT":" ","MAREA":" ","LANE":"２００巷","ALLEY":" ","HOUSE_NO":"３號","E_COORD97":167326.60000000001,"N_COORD97":2544727.21,"ADDRESS":"協和街２００巷３號","OBJECTID":298231},"geometry":{"x":167326.59999999963,"y":2544727.2100000028}},{"attributes":{"ID":298240,"DIS_CODE":0,"TOWNNAME":"中西區","LI":"協和里","LIN":"8鄰","STREET":"協和街","SECT":" ","MAREA":" ","LANE":"２００巷","ALLEY":" ","HOUSE_NO":"４號","E_COORD97":167338.95999999999,"N_COORD97":2544716.8999999999,"ADDRESS":"協和街２００巷４號","OBJECTID":298232},"geometry":{"x":167338.96000000089,"y":2544716.9000000041}},{"attributes":{"ID":298241,"DIS_CODE":0,"TOWNNAME":"中西區","LI":"協和里","LIN":"8鄰","STREET":"協和街","SECT":" ","MAREA":" ","LANE":"２００巷","ALLEY":" ","HOUSE_NO":"５號","E_COORD97":167329.70999999999,"N_COORD97":2544724,"ADDRESS":"協和街２００巷５號","OBJECTID":298233},"geometry":{"x":167329.70999999996,"y":2544724.0000000019}},{"attributes":{"ID":298242,"DIS_CODE":0,"TOWNNAME":"中西區","LI":"協和里","LIN":"8鄰","STREET":"協和街","SECT":" ","MAREA":" ","LANE":"２００巷","ALLEY":" ","HOUSE_NO":"６號","E_COORD97":167341.81,"N_COORD97":2544719.4300000002,"ADDRESS":"協和街２００巷６號","OBJECTID":298234},"geometry":{"x":167341.81000000052,"y":2544719.4300000034}},{"attributes":{"ID":298243,"DIS_CODE":0,"TOWNNAME":"中西區","LI":"協和里","LIN":"8鄰","STREET":"協和街","SECT":" ","MAREA":" ","LANE":"２００巷","ALLEY":" ","HOUSE_NO":"８號","E_COORD97":167344.19,"N_COORD97":2544722.5899999999,"ADDRESS":"協和街２００巷８號","OBJECTID":298235},"geometry":{"x":167344.19000000041,"y":2544722.5900000017}},{"attributes":{"ID":298244,"DIS_CODE":0,"TOWNNAME":"中西區","LI":"協和里","LIN":"8鄰","STREET":"臨安路","SECT":"一段","MAREA":" ","LANE":"２６７巷","ALLEY":" ","HOUSE_NO":"１１號","E_COORD97":167339.45000000001,"N_COORD97":2544749.0499999998,"ADDRESS":"臨安路一段２６７巷１１號","OBJECTID":298236},"geometry":{"x":167339.45000000112,"y":2544749.0500000007}},{"attributes":{"ID":298245,"DIS_CODE":0,"TOWNNAME":"中西區","LI":"協和里","LIN":"8鄰","STREET":"臨安路","SECT":"一段","MAREA":" ","LANE":"２６７巷","ALLEY":" ","HOUSE_NO":"１３號","E_COORD97":167336.98999999999,"N_COORD97":2544751.8300000001,"ADDRESS":"臨安路一段２６７巷１３號","OBJECTID":298237},"geometry":{"x":167336.99000000022,"y":2544751.8300000019}},{"attributes":{"ID":298246,"DIS_CODE":0,"TOWNNAME":"東區","LI":"文聖里","LIN":"14鄰","STREET":"裕孝路","SECT":" ","MAREA":" ","LANE":" ","ALLEY":" ","HOUSE_NO":"２６０之５號","E_COORD97":172409.41,"N_COORD97":2542708.5499999998,"ADDRESS":"裕孝路２６０之５號","OBJECTID":298238},"geometry":{"x":172409.41000000015,"y":2542708.5500000007}},{"attributes":{"ID":298247,"DIS_CODE":0,"TOWNNAME":"東區","LI":"文聖里","LIN":"14鄰","STREET":"裕孝路","SECT":" ","MAREA":" ","LANE":" ","ALLEY":" ","HOUSE_NO":"２６０之６號","E_COORD97":172405.32000000001,"N_COORD97":2542709.0499999998,"ADDRESS":"裕孝路２６０之６號","OBJECTID":298239},"geometry":{"x":172405.32000000216,"y":2542709.0499999989}},{"attributes":{"ID":298248,"DIS_CODE":0,"TOWNNAME":"東區","LI":"文聖里","LIN":"14鄰","STREET":"裕孝路","SECT":" ","MAREA":" ","LANE":" ","ALLEY":" ","HOUSE_NO":"２６０之７號","E_COORD97":172400.73999999999,"N_COORD97":2542709.21,"ADDRESS":"裕孝路２６０之７號","OBJECTID":298240},"geometry":{"x":172400.74000000209,"y":2542709.2100000028}},{"attributes":{"ID":298249,"DIS_CODE":0,"TOWNNAME":"東區","LI":"文聖里","LIN":"14鄰","STREET":"裕孝路","SECT":" ","MAREA":" ","LANE":" ","ALLEY":" ","HOUSE_NO":"２６０之８號","E_COORD97":172395.32999999999,"N_COORD97":2542709.7000000002,"ADDRESS":"裕孝路２６０之８號","OBJECTID":298241},"geometry":{"x":172395.33000000101,"y":2542709.6999999993}},{"attributes":{"ID":298250,"DIS_CODE":0,"TOWNNAME":"東區","LI":"文聖里","LIN":"14鄰","STREET":"裕孝路","SECT":" ","MAREA":" ","LANE":" ","ALLEY":" ","HOUSE_NO":"２６０之９號","E_COORD97":172390.09,"N_COORD97":2542709.54,"ADDRESS":"裕孝路２６０之９號","OBJECTID":298242},"geometry":{"x":172390.09000000078,"y":2542709.5399999991}},{"attributes":{"ID":298251,"DIS_CODE":0,"TOWNNAME":"東區","LI":"文聖里","LIN":"14鄰","STREET":"裕孝路","SECT":" ","MAREA":" ","LANE":" ","ALLEY":" ","HOUSE_NO":"２６２之１０號","E_COORD97":172383.48999999999,"N_COORD97":2542688.7799999998,"ADDRESS":"裕孝路２６２之１０號","OBJECTID":298243},"geometry":{"x":172383.49000000022,"y":2542688.7799999993}},{"attributes":{"ID":298252,"DIS_CODE":0,"TOWNNAME":"東區","LI":"文聖里","LIN":"14鄰","STREET":"裕孝路","SECT":" ","MAREA":" ","LANE":" ","ALLEY":" ","HOUSE_NO":"２６２之１１號","E_COORD97":172379.09,"N_COORD97":2542688.6200000001,"ADDRESS":"裕孝路２６２之１１號","OBJECTID":298244},"geometry":{"x":172379.08999999985,"y":2542688.6200000048}},{"attributes":{"ID":298253,"DIS_CODE":0,"TOWNNAME":"東區","LI":"文聖里","LIN":"14鄰","STREET":"裕孝路","SECT":" ","MAREA":" ","LANE":" ","ALLEY":" ","HOUSE_NO":"２６２之１２號","E_COORD97":172374.22,"N_COORD97":2542688.7799999998,"ADDRESS":"裕孝路２６２之１２號","OBJECTID":298245},"geometry":{"x":172374.21999999974,"y":2542688.7799999993}},{"attributes":{"ID":298254,"DIS_CODE":0,"TOWNNAME":"東區","LI":"文聖里","LIN":"14鄰","STREET":"裕孝路","SECT":" ","MAREA":" ","LANE":" ","ALLEY":" ","HOUSE_NO":"２６２之１３號","E_COORD97":172369.03,"N_COORD97":2542689.0899999999,"ADDRESS":"裕孝路２６２之１３號","OBJECTID":298246},"geometry":{"x":172369.03000000119,"y":2542689.0900000017}},{"attributes":{"ID":298255,"DIS_CODE":0,"TOWNNAME":"東區","LI":"文聖里","LIN":"14鄰","STREET":"裕孝路","SECT":" ","MAREA":" ","LANE":" ","ALLEY":" ","HOUSE_NO":"２６２之１５號","E_COORD97":172364.47,"N_COORD97":2542688.9300000002,"ADDRESS":"裕孝路２６２之１５號","OBJECTID":298247},"geometry":{"x":172364.46999999974,"y":2542688.9300000016}},{"attributes":{"ID":298256,"DIS_CODE":0,"TOWNNAME":"東區","LI":"文聖里","LIN":"14鄰","STREET":"裕孝路","SECT":" ","MAREA":" ","LANE":" ","ALLEY":" ","HOUSE_NO":"２６２之１６號","E_COORD97":172358.82000000001,"N_COORD97":2542688.7799999998,"ADDRESS":"裕孝路２６２之１６號","OBJECTID":298248},"geometry":{"x":172358.8200000003,"y":2542688.7799999993}},{"attributes":{"ID":298257,"DIS_CODE":0,"TOWNNAME":"安南區","LI":"國安里","LIN":"4鄰","STREET":"國安街","SECT":" ","MAREA":" ","LANE":"１５６巷","ALLEY":" ","HOUSE_NO":"１５７號","E_COORD97":166643.22,"N_COORD97":2547388.1299999999,"ADDRESS":"國安街１５６巷１５７號","OBJECTID":298249},"geometry":{"x":166643.21999999974,"y":2547388.129999999}},{"attributes":{"ID":298258,"DIS_CODE":0,"TOWNNAME":"安南區","LI":"海佃里","LIN":"4鄰","STREET":"國安街","SECT":" ","MAREA":" ","LANE":"１４０巷","ALLEY":" ","HOUSE_NO":"２２號","E_COORD97":166779.57999999999,"N_COORD97":2547064.4399999999,"ADDRESS":"國安街１４０巷２２號","OBJECTID":298250},"geometry":{"x":166779.58000000007,"y":2547064.4399999995}},{"attributes":{"ID":298259,"DIS_CODE":0,"TOWNNAME":"安南區","LI":"海佃里","LIN":"4鄰","STREET":"國安街","SECT":" ","MAREA":" ","LANE":"１５６巷","ALLEY":" ","HOUSE_NO":"２６號","E_COORD97":166741.67000000001,"N_COORD97":2547049.1600000001,"ADDRESS":"國安街１５６巷２６號","OBJECTID":298251},"geometry":{"x":166741.66999999993,"y":2547049.160000002}},{"attributes":{"ID":298260,"DIS_CODE":0,"TOWNNAME":"安南區","LI":"海佃里","LIN":"4鄰","STREET":"國安街","SECT":" ","MAREA":" ","LANE":"１５６巷","ALLEY":" ","HOUSE_NO":"２８號","E_COORD97":166740.34,"N_COORD97":2547054.48,"ADDRESS":"國安街１５６巷２８號","OBJECTID":298252},"geometry":{"x":166740.33999999985,"y":2547054.4800000004}},{"attributes":{"ID":298261,"DIS_CODE":0,"TOWNNAME":"安南區","LI":"海佃里","LIN":"4鄰","STREET":"國安街","SECT":" ","MAREA":" ","LANE":"１５６巷","ALLEY":" ","HOUSE_NO":"２號","E_COORD97":166750.32000000001,"N_COORD97":2546991.3700000001,"ADDRESS":"國安街１５６巷２號","OBJECTID":298253},"geometry":{"x":166750.32000000216,"y":2546991.370000001}},{"attributes":{"ID":298262,"DIS_CODE":0,"TOWNNAME":"安南區","LI":"海佃里","LIN":"4鄰","STREET":"國安街","SECT":" ","MAREA":" ","LANE":"１５６巷","ALLEY":" ","HOUSE_NO":"３０號","E_COORD97":166739.01000000001,"N_COORD97":2547060.46,"ADDRESS":"國安街１５６巷３０號","OBJECTID":298254},"geometry":{"x":166739.01000000071,"y":2547060.4600000028}},{"attributes":{"ID":298263,"DIS_CODE":0,"TOWNNAME":"永康區","LI":"復興里","LIN":"20鄰","STREET":"復興路","SECT":" ","MAREA":" ","LANE":"３５６巷","ALLEY":" ","HOUSE_NO":"４６號","E_COORD97":172311.04000000001,"N_COORD97":2544434.52,"ADDRESS":"復興路３５６巷４６號","OBJECTID":298255},"geometry":{"x":172311.04000000097,"y":2544434.5200000014}},{"attributes":{"ID":298264,"DIS_CODE":0,"TOWNNAME":"安南區","LI":"海佃里","LIN":"4鄰","STREET":"國安街","SECT":" ","MAREA":" ","LANE":"１５６巷","ALLEY":" ","HOUSE_NO":"３２號","E_COORD97":166740.34,"N_COORD97":2547064.4399999999,"ADDRESS":"國安街１５６巷３２號","OBJECTID":298256},"geometry":{"x":166740.33999999985,"y":2547064.4399999995}},{"attributes":{"ID":298265,"DIS_CODE":0,"TOWNNAME":"中西區","LI":"協和里","LIN":"8鄰","STREET":"臨安路","SECT":"一段","MAREA":" ","LANE":"２６７巷","ALLEY":" ","HOUSE_NO":"１號","E_COORD97":167354.44,"N_COORD97":2544736.4100000001,"ADDRESS":"臨安路一段２６７巷１號","OBJECTID":298257},"geometry":{"x":167354.44000000041,"y":2544736.4100000001}},{"attributes":{"ID":298266,"DIS_CODE":0,"TOWNNAME":"中西區","LI":"協和里","LIN":"8鄰","STREET":"臨安路","SECT":"一段","MAREA":" ","LANE":"２６７巷","ALLEY":" ","HOUSE_NO":"３號","E_COORD97":167351.44,"N_COORD97":2544739.9300000002,"ADDRESS":"臨安路一段２６７巷３號","OBJECTID":298258},"geometry":{"x":167351.44000000134,"y":2544739.9300000034}},{"attributes":{"ID":298267,"DIS_CODE":0,"TOWNNAME":"中西區","LI":"協和里","LIN":"8鄰","STREET":"臨安路","SECT":"一段","MAREA":" ","LANE":"２６７巷","ALLEY":" ","HOUSE_NO":"５號","E_COORD97":167346.41,"N_COORD97":2544740.9199999999,"ADDRESS":"臨安路一段２６７巷５號","OBJECTID":298259},"geometry":{"x":167346.41000000108,"y":2544740.9200000018}},{"attributes":{"ID":298268,"DIS_CODE":0,"TOWNNAME":"中西區","LI":"協和里","LIN":"8鄰","STREET":"臨安路","SECT":"一段","MAREA":" ","LANE":"２６７巷","ALLEY":" ","HOUSE_NO":"７號","E_COORD97":167343.95000000001,"N_COORD97":2544743.3799999999,"ADDRESS":"臨安路一段２６７巷７號","OBJECTID":298260},"geometry":{"x":167343.95000000019,"y":2544743.3800000008}},{"attributes":{"ID":298269,"DIS_CODE":0,"TOWNNAME":"中西區","LI":"協和里","LIN":"8鄰","STREET":"臨安路","SECT":"一段","MAREA":" ","LANE":"２６７巷","ALLEY":" ","HOUSE_NO":"９號","E_COORD97":167341.70000000001,"N_COORD97":2544746.3799999999,"ADDRESS":"臨安路一段２６７巷９號","OBJECTID":298261},"geometry":{"x":167341.70000000019,"y":2544746.3800000027}},{"attributes":{"ID":298270,"DIS_CODE":0,"TOWNNAME":"佳里區","LI":"東寧里","LIN":"8鄰","STREET":"中山路","SECT":" ","MAREA":" ","LANE":"３９０巷","ALLEY":" ","HOUSE_NO":"３號","E_COORD97":165733.59,"N_COORD97":2562545.8799999999,"ADDRESS":"中山路３９０巷３號","OBJECTID":298262},"geometry":{"x":165733.58999999985,"y":2562545.8800000008}},{"attributes":{"ID":298271,"DIS_CODE":0,"TOWNNAME":"佳里區","LI":"東寧里","LIN":"8鄰","STREET":"中山路","SECT":" ","MAREA":" ","LANE":"３９０巷","ALLEY":" ","HOUSE_NO":"６號","E_COORD97":165748.03,"N_COORD97":2562542.6299999999,"ADDRESS":"中山路３９０巷６號","OBJECTID":298263},"geometry":{"x":165748.03000000026,"y":2562542.629999999}},{"attributes":{"ID":298272,"DIS_CODE":0,"TOWNNAME":"新化區","LI":"護國里","LIN":"8鄰","STREET":"信義路","SECT":" ","MAREA":" ","LANE":"８６巷","ALLEY":" ","HOUSE_NO":"１號","E_COORD97":179828.28,"N_COORD97":2548765.25,"ADDRESS":"信義路８６巷１號","OBJECTID":298264},"geometry":{"x":179828.28000000026,"y":2548765.25}},{"attributes":{"ID":298273,"DIS_CODE":0,"TOWNNAME":"新化區","LI":"護國里","LIN":"8鄰","STREET":"信義路","SECT":" ","MAREA":" ","LANE":"８６巷","ALLEY":" ","HOUSE_NO":"４３號","E_COORD97":179796.63,"N_COORD97":2548777.25,"ADDRESS":"信義路８６巷４３號","OBJECTID":298265},"geometry":{"x":179796.62999999989,"y":2548777.2500000019}},{"attributes":{"ID":298274,"DIS_CODE":0,"TOWNNAME":"新化區","LI":"護國里","LIN":"8鄰","STREET":"信義路","SECT":" ","MAREA":" ","LANE":"８６巷","ALLEY":" ","HOUSE_NO":"４１號","E_COORD97":179800.13,"N_COORD97":2548777.25,"ADDRESS":"信義路８６巷４１號","OBJECTID":298266},"geometry":{"x":179800.12999999989,"y":2548777.2500000019}},{"attributes":{"ID":298275,"DIS_CODE":0,"TOWNNAME":"新化區","LI":"護國里","LIN":"8鄰","STREET":"信義路","SECT":" ","MAREA":" ","LANE":"８６巷","ALLEY":" ","HOUSE_NO":"２２號","E_COORD97":179867.42999999999,"N_COORD97":2548791.25,"ADDRESS":"信義路８６巷２２號","OBJECTID":298267},"geometry":{"x":179867.4299999997,"y":2548791.25}},{"attributes":{"ID":298276,"DIS_CODE":0,"TOWNNAME":"新化區","LI":"護國里","LIN":"8鄰","STREET":"信義路","SECT":" ","MAREA":" ","LANE":"８６巷","ALLEY":" ","HOUSE_NO":"１６號","E_COORD97":179841.03,"N_COORD97":2548793.25,"ADDRESS":"信義路８６巷１６號","OBJECTID":298268},"geometry":{"x":179841.03000000119,"y":2548793.2500000019}},{"attributes":{"ID":298277,"DIS_CODE":0,"TOWNNAME":"新化區","LI":"唪口里","LIN":"8鄰","STREET":"大德路","SECT":" ","MAREA":" ","LANE":"１６１巷","ALLEY":" ","HOUSE_NO":"３１號","E_COORD97":177930.38,"N_COORD97":2549244.25,"ADDRESS":"大德路１６１巷３１號","OBJECTID":298269},"geometry":{"x":177930.37999999989,"y":2549244.2500000019}},{"attributes":{"ID":298278,"DIS_CODE":0,"TOWNNAME":"新化區","LI":"護國里","LIN":"8鄰","STREET":"信義路","SECT":" ","MAREA":" ","LANE":"８６巷","ALLEY":" ","HOUSE_NO":"４５號之１","E_COORD97":179783.56,"N_COORD97":2548778.2599999998,"ADDRESS":"信義路８６巷４５號之１","OBJECTID":298270},"geometry":{"x":179783.55999999959,"y":2548778.2599999998}},{"attributes":{"ID":298279,"DIS_CODE":0,"TOWNNAME":"新化區","LI":"護國里","LIN":"8鄰","STREET":"信義路","SECT":" ","MAREA":" ","LANE":"８６巷","ALLEY":" ","HOUSE_NO":"４７號","E_COORD97":179774.23000000001,"N_COORD97":2548776.25,"ADDRESS":"信義路８６巷４７號","OBJECTID":298271},"geometry":{"x":179774.23000000138,"y":2548776.2500000019}},{"attributes":{"ID":298280,"DIS_CODE":0,"TOWNNAME":"新化區","LI":"護國里","LIN":"8鄰","STREET":"信義路","SECT":" ","MAREA":" ","LANE":"８６巷","ALLEY":" ","HOUSE_NO":"２８號","E_COORD97":179880.32999999999,"N_COORD97":2548790.25,"ADDRESS":"信義路８６巷２８號","OBJECTID":298272},"geometry":{"x":179880.33000000007,"y":2548790.2500000019}},{"attributes":{"ID":298281,"DIS_CODE":0,"TOWNNAME":"東區","LI":"文聖里","LIN":"14鄰","STREET":"裕孝路","SECT":" ","MAREA":" ","LANE":" ","ALLEY":" ","HOUSE_NO":"２６２之１號","E_COORD97":172425.92999999999,"N_COORD97":2542688.6200000001,"ADDRESS":"裕孝路２６２之１號","OBJECTID":298273},"geometry":{"x":172425.92999999877,"y":2542688.6200000048}},{"attributes":{"ID":298282,"DIS_CODE":0,"TOWNNAME":"東區","LI":"文聖里","LIN":"14鄰","STREET":"裕孝路","SECT":" ","MAREA":" ","LANE":" ","ALLEY":" ","HOUSE_NO":"２６２之２號","E_COORD97":172421.06,"N_COORD97":2542688.7799999998,"ADDRESS":"裕孝路２６２之２號","OBJECTID":298274},"geometry":{"x":172421.05999999959,"y":2542688.7799999993}},{"attributes":{"ID":298283,"DIS_CODE":0,"TOWNNAME":"東區","LI":"文聖里","LIN":"14鄰","STREET":"裕孝路","SECT":" ","MAREA":" ","LANE":" ","ALLEY":" ","HOUSE_NO":"２６２之３號","E_COORD97":172416.17999999999,"N_COORD97":2542688.9300000002,"ADDRESS":"裕孝路２６２之３號","OBJECTID":298275},"geometry":{"x":172416.18000000063,"y":2542688.9300000016}},{"attributes":{"ID":298284,"DIS_CODE":0,"TOWNNAME":"東區","LI":"文聖里","LIN":"14鄰","STREET":"裕孝路","SECT":" ","MAREA":" ","LANE":" ","ALLEY":" ","HOUSE_NO":"２６２之５號","E_COORD97":172410.67999999999,"N_COORD97":2542688.3100000001,"ADDRESS":"裕孝路２６２之５號","OBJECTID":298276},"geometry":{"x":172410.67999999877,"y":2542688.3100000024}},{"attributes":{"ID":298285,"DIS_CODE":0,"TOWNNAME":"東區","LI":"文聖里","LIN":"14鄰","STREET":"裕孝路","SECT":" ","MAREA":" ","LANE":" ","ALLEY":" ","HOUSE_NO":"２６２之６號","E_COORD97":172405.81,"N_COORD97":2542688.46,"ADDRESS":"裕孝路２６２之６號","OBJECTID":298277},"geometry":{"x":172405.80999999959,"y":2542688.4600000009}},{"attributes":{"ID":298286,"DIS_CODE":0,"TOWNNAME":"東區","LI":"文聖里","LIN":"14鄰","STREET":"裕孝路","SECT":" ","MAREA":" ","LANE":" ","ALLEY":" ","HOUSE_NO":"２６２之７號","E_COORD97":172401.25,"N_COORD97":2542688.6200000001,"ADDRESS":"裕孝路２６２之７號","OBJECTID":298278},"geometry":{"x":172401.25000000093,"y":2542688.6200000048}},{"attributes":{"ID":298287,"DIS_CODE":0,"TOWNNAME":"東區","LI":"文聖里","LIN":"14鄰","STREET":"裕孝路","SECT":" ","MAREA":" ","LANE":" ","ALLEY":" ","HOUSE_NO":"２６２之８號","E_COORD97":172396.38,"N_COORD97":2542688.7799999998,"ADDRESS":"裕孝路２６２之８號","OBJECTID":298279},"geometry":{"x":172396.38000000082,"y":2542688.7799999993}},{"attributes":{"ID":298288,"DIS_CODE":0,"TOWNNAME":"麻豆區","LI":"安正里","LIN":"4鄰","STREET":" ","SECT":" ","MAREA":"方厝寮","LANE":" ","ALLEY":" ","HOUSE_NO":"３６號之１００","E_COORD97":169575.89999999999,"N_COORD97":2562148.75,"ADDRESS":"方厝寮３６號之１００","OBJECTID":298280},"geometry":{"x":169575.9000000013,"y":2562148.7500000019}},{"attributes":{"ID":298289,"DIS_CODE":0,"TOWNNAME":"麻豆區","LI":"安正里","LIN":"4鄰","STREET":" ","SECT":" ","MAREA":"方厝寮","LANE":" ","ALLEY":" ","HOUSE_NO":"３６號之１１","E_COORD97":170840.70000000001,"N_COORD97":2562275.6200000001,"ADDRESS":"方厝寮３６號之１１","OBJECTID":298281},"geometry":{"x":170840.70000000019,"y":2562275.6200000029}},{"attributes":{"ID":298290,"DIS_CODE":0,"TOWNNAME":"麻豆區","LI":"安正里","LIN":"4鄰","STREET":" ","SECT":" ","MAREA":"方厝寮","LANE":" ","ALLEY":" ","HOUSE_NO":"３６號之１２","E_COORD97":170819.35000000001,"N_COORD97":2562336.3100000001,"ADDRESS":"方厝寮３６號之１２","OBJECTID":298282},"geometry":{"x":170819.3499999987,"y":2562336.3100000005}},{"attributes":{"ID":298291,"DIS_CODE":0,"TOWNNAME":"麻豆區","LI":"安正里","LIN":"4鄰","STREET":" ","SECT":" ","MAREA":"方厝寮","LANE":" ","ALLEY":" ","HOUSE_NO":"３６號之１６","E_COORD97":171006.98000000001,"N_COORD97":2562357.0499999998,"ADDRESS":"方厝寮３６號之１６","OBJECTID":298283},"geometry":{"x":171006.98000000045,"y":2562357.0500000026}},{"attributes":{"ID":298292,"DIS_CODE":0,"TOWNNAME":"麻豆區","LI":"安正里","LIN":"4鄰","STREET":" ","SECT":" ","MAREA":"方厝寮","LANE":" ","ALLEY":" ","HOUSE_NO":"３６號之２","E_COORD97":170957.94,"N_COORD97":2562040.1200000001,"ADDRESS":"方厝寮３６號之２","OBJECTID":298284},"geometry":{"x":170957.94000000041,"y":2562040.120000001}},{"attributes":{"ID":298293,"DIS_CODE":0,"TOWNNAME":"永康區","LI":"網寮里","LIN":"20鄰","STREET":"永二街","SECT":" ","MAREA":" ","LANE":"２４５巷","ALLEY":" ","HOUSE_NO":"２７號之１１","E_COORD97":173302.60999999999,"N_COORD97":2546124.7400000002,"ADDRESS":"永二街２４５巷２７號之１１","OBJECTID":298285},"geometry":{"x":173302.61000000127,"y":2546124.7399999984}},{"attributes":{"ID":298294,"DIS_CODE":0,"TOWNNAME":"安南區","LI":"安西里","LIN":"8鄰","STREET":"安中路","SECT":"一段","MAREA":" ","LANE":"２９巷","ALLEY":" ","HOUSE_NO":"５號","E_COORD97":169169.5,"N_COORD97":2548200.2400000002,"ADDRESS":"安中路一段２９巷５號","OBJECTID":298286},"geometry":{"x":169169.50000000186,"y":2548200.2400000021}},{"attributes":{"ID":298295,"DIS_CODE":0,"TOWNNAME":"安南區","LI":"安西里","LIN":"8鄰","STREET":"安中路","SECT":"一段","MAREA":" ","LANE":"２９巷","ALLEY":" ","HOUSE_NO":"７號","E_COORD97":169165.20000000001,"N_COORD97":2548200.6299999999,"ADDRESS":"安中路一段２９巷７號","OBJECTID":298287},"geometry":{"x":169165.20000000112,"y":2548200.6300000008}},{"attributes":{"ID":298296,"DIS_CODE":0,"TOWNNAME":"安南區","LI":"安西里","LIN":"8鄰","STREET":"安中路","SECT":"一段","MAREA":" ","LANE":"２９巷","ALLEY":" ","HOUSE_NO":"９號","E_COORD97":169161.67999999999,"N_COORD97":2548197.8999999999,"ADDRESS":"安中路一段２９巷９號","OBJECTID":298288},"geometry":{"x":169161.68000000063,"y":2548197.9000000004}},{"attributes":{"ID":298297,"DIS_CODE":0,"TOWNNAME":"安南區","LI":"海東里","LIN":"8鄰","STREET":"海佃路","SECT":"二段","MAREA":" ","LANE":"５０９巷","ALLEY":" ","HOUSE_NO":"４１號","E_COORD97":166584.48000000001,"N_COORD97":2549133.8100000001,"ADDRESS":"海佃路二段５０９巷４１號","OBJECTID":298289},"geometry":{"x":166584.48000000045,"y":2549133.8100000005}},{"attributes":{"ID":298298,"DIS_CODE":0,"TOWNNAME":"東區","LI":"文聖里","LIN":"14鄰","STREET":"裕孝路","SECT":" ","MAREA":" ","LANE":" ","ALLEY":" ","HOUSE_NO":"２６２之９號","E_COORD97":172390.41,"N_COORD97":2542688.7799999998,"ADDRESS":"裕孝路２６２之９號","OBJECTID":298290},"geometry":{"x":172390.41000000015,"y":2542688.7799999993}},{"attributes":{"ID":298299,"DIS_CODE":0,"TOWNNAME":"歸仁區","LI":"媽廟里","LIN":"5鄰","STREET":"中正北路","SECT":"三段","MAREA":" ","LANE":" ","ALLEY":" ","HOUSE_NO":"１４９號","E_COORD97":177570.45999999999,"N_COORD97":2543729.7200000002,"ADDRESS":"中正北路三段１４９號","OBJECTID":298291},"geometry":{"x":177570.45999999996,"y":2543729.7200000025}},{"attributes":{"ID":298300,"DIS_CODE":0,"TOWNNAME":"麻豆區","LI":"安正里","LIN":"4鄰","STREET":" ","SECT":" ","MAREA":"方厝寮","LANE":" ","ALLEY":" ","HOUSE_NO":"３８號之１９","E_COORD97":171003.20999999999,"N_COORD97":2562044.98,"ADDRESS":"方厝寮３８號之１９","OBJECTID":298292},"geometry":{"x":171003.20999999996,"y":2562044.9800000042}},{"attributes":{"ID":298301,"DIS_CODE":0,"TOWNNAME":"安南區","LI":"海東里","LIN":"8鄰","STREET":"海佃路","SECT":"二段","MAREA":" ","LANE":"５０９巷","ALLEY":" ","HOUSE_NO":"４３號","E_COORD97":166580.70999999999,"N_COORD97":2549131.79,"ADDRESS":"海佃路二段５０９巷４３號","OBJECTID":298293},"geometry":{"x":166580.70999999996,"y":2549131.790000001}},{"attributes":{"ID":298302,"DIS_CODE":0,"TOWNNAME":"安南區","LI":"海東里","LIN":"8鄰","STREET":"海佃路","SECT":"二段","MAREA":" ","LANE":"５０９巷","ALLEY":" ","HOUSE_NO":"４５號","E_COORD97":166577.12,"N_COORD97":2549130,"ADDRESS":"海佃路二段５０９巷４５號","OBJECTID":298294},"geometry":{"x":166577.12000000104,"y":2549129.9999999981}},{"attributes":{"ID":298303,"DIS_CODE":0,"TOWNNAME":"白河區","LI":"仙草里","LIN":"4鄰","STREET":" ","SECT":" ","MAREA":"仙草","LANE":" ","ALLEY":" ","HOUSE_NO":"４５之１５號","E_COORD97":196246.91,"N_COORD97":2582278.3199999998,"ADDRESS":"仙草４５之１５號","OBJECTID":298295},"geometry":{"x":196246.91000000015,"y":2582278.3200000003}},{"attributes":{"ID":298304,"DIS_CODE":0,"TOWNNAME":"中西區","LI":"青年里","LIN":"4鄰","STREET":"武德街","SECT":" ","MAREA":" ","LANE":"２６巷","ALLEY":" ","HOUSE_NO":"３號","E_COORD97":169045.82999999999,"N_COORD97":2543680.3900000001,"ADDRESS":"武德街２６巷３號","OBJECTID":298296},"geometry":{"x":169045.83000000101,"y":2543680.3900000025}},{"attributes":{"ID":298305,"DIS_CODE":0,"TOWNNAME":"中西區","LI":"青年里","LIN":"4鄰","STREET":"武德街","SECT":" ","MAREA":" ","LANE":"２６巷","ALLEY":" ","HOUSE_NO":"５號","E_COORD97":169053.07999999999,"N_COORD97":2543679.1000000001,"ADDRESS":"武德街２６巷５號","OBJECTID":298297},"geometry":{"x":169053.08000000007,"y":2543679.0999999996}},{"attributes":{"ID":298306,"DIS_CODE":0,"TOWNNAME":"永康區","LI":"網寮里","LIN":"25鄰","STREET":"永春街","SECT":" ","MAREA":" ","LANE":"１０８巷","ALLEY":" ","HOUSE_NO":"２５號","E_COORD97":173814.01999999999,"N_COORD97":2546596.6800000002,"ADDRESS":"永春街１０８巷２５號","OBJECTID":298298},"geometry":{"x":173814.02000000048,"y":2546596.6800000016}},{"attributes":{"ID":298307,"DIS_CODE":0,"TOWNNAME":"永康區","LI":"復華里","LIN":"41鄰","STREET":"復華六街","SECT":" ","MAREA":" ","LANE":"８８巷","ALLEY":" ","HOUSE_NO":"５號","E_COORD97":172647.12,"N_COORD97":2545881.5499999998,"ADDRESS":"復華六街８８巷５號","OBJECTID":298299},"geometry":{"x":172647.11999999918,"y":2545881.5500000007}},{"attributes":{"ID":298308,"DIS_CODE":0,"TOWNNAME":"安南區","LI":"海東里","LIN":"8鄰","STREET":"海佃路","SECT":"二段","MAREA":" ","LANE":"５０９巷","ALLEY":" ","HOUSE_NO":"４７號","E_COORD97":166573.39000000001,"N_COORD97":2549127.6800000002,"ADDRESS":"海佃路二段５０９巷４７號","OBJECTID":298300},"geometry":{"x":166573.3900000006,"y":2549127.6799999997}},{"attributes":{"ID":298309,"DIS_CODE":0,"TOWNNAME":"白河區","LI":"仙草里","LIN":"4鄰","STREET":" ","SECT":" ","MAREA":"仙草","LANE":" ","ALLEY":" ","HOUSE_NO":"４５之３號","E_COORD97":196263.26999999999,"N_COORD97":2582323.52,"ADDRESS":"仙草４５之３號","OBJECTID":298301},"geometry":{"x":196263.27000000048,"y":2582323.5199999996}},{"attributes":{"ID":298310,"DIS_CODE":0,"TOWNNAME":"白河區","LI":"仙草里","LIN":"4鄰","STREET":" ","SECT":" ","MAREA":"仙草","LANE":" ","ALLEY":" ","HOUSE_NO":"４５之４號","E_COORD97":196254.94,"N_COORD97":2582321.1099999999,"ADDRESS":"仙草４５之４號","OBJECTID":298302},"geometry":{"x":196254.94000000134,"y":2582321.1100000013}},{"attributes":{"ID":298311,"DIS_CODE":0,"TOWNNAME":"白河區","LI":"仙草里","LIN":"4鄰","STREET":" ","SECT":" ","MAREA":"仙草","LANE":" ","ALLEY":" ","HOUSE_NO":"４５號","E_COORD97":196260.34,"N_COORD97":2582307.7200000002,"ADDRESS":"仙草４５號","OBJECTID":298303},"geometry":{"x":196260.33999999985,"y":2582307.7200000044}},{"attributes":{"ID":298312,"DIS_CODE":0,"TOWNNAME":"白河區","LI":"仙草里","LIN":"4鄰","STREET":" ","SECT":" ","MAREA":"仙草","LANE":" ","ALLEY":" ","HOUSE_NO":"４６號","E_COORD97":196243.59,"N_COORD97":2582195.9300000002,"ADDRESS":"仙草４６號","OBJECTID":298304},"geometry":{"x":196243.58999999985,"y":2582195.9299999997}},{"attributes":{"ID":298313,"DIS_CODE":0,"TOWNNAME":"東區","LI":"文聖里","LIN":"14鄰","STREET":"裕孝路","SECT":" ","MAREA":" ","LANE":" ","ALLEY":" ","HOUSE_NO":"２６６之１０號","E_COORD97":172385.54000000001,"N_COORD97":2542676.52,"ADDRESS":"裕孝路２６６之１０號","OBJECTID":298305},"geometry":{"x":172385.54000000097,"y":2542676.5199999996}},{"attributes":{"ID":298314,"DIS_CODE":0,"TOWNNAME":"東區","LI":"文聖里","LIN":"14鄰","STREET":"裕孝路","SECT":" ","MAREA":" ","LANE":" ","ALLEY":" ","HOUSE_NO":"２６６之１１號","E_COORD97":172380.03,"N_COORD97":2542676.52,"ADDRESS":"裕孝路２６６之１１號","OBJECTID":298306},"geometry":{"x":172380.02999999933,"y":2542676.5199999996}},{"attributes":{"ID":298315,"DIS_CODE":0,"TOWNNAME":"東區","LI":"文聖里","LIN":"14鄰","STREET":"裕孝路","SECT":" ","MAREA":" ","LANE":" ","ALLEY":" ","HOUSE_NO":"２６６之１２號","E_COORD97":172375,"N_COORD97":2542676.3599999999,"ADDRESS":"裕孝路２６６之１２號","OBJECTID":298307},"geometry":{"x":172375.00000000186,"y":2542676.3600000013}},{"attributes":{"ID":298316,"DIS_CODE":0,"TOWNNAME":"新市區","LI":"社內里","LIN":"4鄰","STREET":" ","SECT":" ","MAREA":"社內","LANE":" ","ALLEY":" ","HOUSE_NO":"５０之１２２號","E_COORD97":176357.20999999999,"N_COORD97":2551668.6200000001,"ADDRESS":"社內５０之１２２號","OBJECTID":298308},"geometry":{"x":176357.21000000183,"y":2551668.620000001}},{"attributes":{"ID":298317,"DIS_CODE":0,"TOWNNAME":"後壁區","LI":"平安里","LIN":"4鄰","STREET":" ","SECT":" ","MAREA":"葯店口","LANE":" ","ALLEY":" ","HOUSE_NO":"５５號之８","E_COORD97":182151.66,"N_COORD97":2584349.9900000002,"ADDRESS":"葯店口５５號之８","OBJECTID":298309},"geometry":{"x":182151.66000000015,"y":2584349.9900000021}},{"attributes":{"ID":298318,"DIS_CODE":0,"TOWNNAME":"後壁區","LI":"平安里","LIN":"4鄰","STREET":" ","SECT":" ","MAREA":"葯店口","LANE":" ","ALLEY":" ","HOUSE_NO":"５５號","E_COORD97":182036.88,"N_COORD97":2584639.9100000001,"ADDRESS":"葯店口５５號","OBJECTID":298310},"geometry":{"x":182036.88000000082,"y":2584639.910000002}},{"attributes":{"ID":298319,"DIS_CODE":0,"TOWNNAME":"永康區","LI":"復興里","LIN":"5鄰","STREET":"復興路","SECT":" ","MAREA":" ","LANE":"４２３巷","ALLEY":" ","HOUSE_NO":"３號","E_COORD97":172120.37,"N_COORD97":2544267.7799999998,"ADDRESS":"復興路４２３巷３號","OBJECTID":298311},"geometry":{"x":172120.37000000104,"y":2544267.7799999993}},{"attributes":{"ID":298320,"DIS_CODE":0,"TOWNNAME":"佳里區","LI":"東寧里","LIN":"4鄰","STREET":"中山路","SECT":" ","MAREA":" ","LANE":"３１０巷","ALLEY":" ","HOUSE_NO":"８號","E_COORD97":165757.56,"N_COORD97":2562390.5499999998,"ADDRESS":"中山路３１０巷８號","OBJECTID":298312},"geometry":{"x":165757.55999999959,"y":2562390.5500000045}},{"attributes":{"ID":298321,"DIS_CODE":0,"TOWNNAME":"安南區","LI":"海東里","LIN":"8鄰","STREET":"海佃路","SECT":"二段","MAREA":" ","LANE":"５０９巷","ALLEY":" ","HOUSE_NO":"４９號","E_COORD97":166569.85000000001,"N_COORD97":2549125.2599999998,"ADDRESS":"海佃路二段５０９巷４９號","OBJECTID":298313},"geometry":{"x":166569.85000000056,"y":2549125.2600000016}},{"attributes":{"ID":298322,"DIS_CODE":0,"TOWNNAME":"安南區","LI":"公親里","LIN":"8鄰","STREET":"公學路","SECT":"一段","MAREA":" ","LANE":"１６０巷","ALLEY":" ","HOUSE_NO":"１號","E_COORD97":168141.17000000001,"N_COORD97":2553113.0899999999,"ADDRESS":"公學路一段１６０巷１號","OBJECTID":298314},"geometry":{"x":168141.17000000086,"y":2553113.0900000036}},{"attributes":{"ID":298323,"DIS_CODE":0,"TOWNNAME":"安南區","LI":"溪頂里","LIN":"8鄰","STREET":"惠安街","SECT":" ","MAREA":" ","LANE":"５１巷","ALLEY":" ","HOUSE_NO":"１２號","E_COORD97":168964.56,"N_COORD97":2547458.0800000001,"ADDRESS":"惠安街５１巷１２號","OBJECTID":298315},"geometry":{"x":168964.55999999959,"y":2547458.0799999982}},{"attributes":{"ID":298324,"DIS_CODE":0,"TOWNNAME":"新營區","LI":"大宏里","LIN":"3鄰","STREET":"綠川北街","SECT":" ","MAREA":" ","LANE":" ","ALLEY":" ","HOUSE_NO":"１０７號","E_COORD97":180327.56954299999,"N_COORD97":2578716.6921700002,"ADDRESS":"綠川北街１０７號","OBJECTID":298316},"geometry":{"x":180327.56954300124,"y":2578716.692172002}},{"attributes":{"ID":298325,"DIS_CODE":0,"TOWNNAME":"安南區","LI":"溪頂里","LIN":"8鄰","STREET":"惠安街","SECT":" ","MAREA":" ","LANE":"５１巷","ALLEY":" ","HOUSE_NO":"１３號","E_COORD97":168997.76999999999,"N_COORD97":2547442.0899999999,"ADDRESS":"惠安街５１巷１３號","OBJECTID":298317},"geometry":{"x":168997.77000000048,"y":2547442.0900000017}},{"attributes":{"ID":298326,"DIS_CODE":0,"TOWNNAME":"安南區","LI":"溪頂里","LIN":"8鄰","STREET":"惠安街","SECT":" ","MAREA":" ","LANE":"５１巷","ALLEY":" ","HOUSE_NO":"１４號","E_COORD97":168955.69,"N_COORD97":2547457.0299999998,"ADDRESS":"惠安街５１巷１４號","OBJECTID":298318},"geometry":{"x":168955.69000000134,"y":2547457.0299999993}},{"attributes":{"ID":298327,"DIS_CODE":0,"TOWNNAME":"安南區","LI":"溪頂里","LIN":"8鄰","STREET":"惠安街","SECT":" ","MAREA":" ","LANE":"５１巷","ALLEY":" ","HOUSE_NO":"１５號","E_COORD97":168989.45000000001,"N_COORD97":2547442.0899999999,"ADDRESS":"惠安街５１巷１５號","OBJECTID":298319},"geometry":{"x":168989.45000000019,"y":2547442.0900000017}},{"attributes":{"ID":298328,"DIS_CODE":0,"TOWNNAME":"安南區","LI":"溪頂里","LIN":"8鄰","STREET":"惠安街","SECT":" ","MAREA":" ","LANE":"５１巷","ALLEY":" ","HOUSE_NO":"１６號","E_COORD97":168947.01999999999,"N_COORD97":2547457.0299999998,"ADDRESS":"惠安街５１巷１６號","OBJECTID":298320},"geometry":{"x":168947.02000000048,"y":2547457.0299999993}},{"attributes":{"ID":298329,"DIS_CODE":0,"TOWNNAME":"安南區","LI":"溪頂里","LIN":"8鄰","STREET":"惠安街","SECT":" ","MAREA":" ","LANE":"５１巷","ALLEY":" ","HOUSE_NO":"１７號","E_COORD97":168981.54000000001,"N_COORD97":2547442.5099999998,"ADDRESS":"惠安街５１巷１７號","OBJECTID":298321},"geometry":{"x":168981.54000000097,"y":2547442.5100000016}},{"attributes":{"ID":298330,"DIS_CODE":0,"TOWNNAME":"安南區","LI":"溪頂里","LIN":"8鄰","STREET":"惠安街","SECT":" ","MAREA":" ","LANE":"５１巷","ALLEY":" ","HOUSE_NO":"１８號","E_COORD97":168938.98000000001,"N_COORD97":2547457.02,"ADDRESS":"惠安街５１巷１８號","OBJECTID":298322},"geometry":{"x":168938.98000000045,"y":2547457.0199999996}},{"attributes":{"ID":298331,"DIS_CODE":0,"TOWNNAME":"安南區","LI":"溪頂里","LIN":"8鄰","STREET":"惠安街","SECT":" ","MAREA":" ","LANE":"５１巷","ALLEY":" ","HOUSE_NO":"１９號","E_COORD97":168972.95999999999,"N_COORD97":2547441.9199999999,"ADDRESS":"惠安街５１巷１９號","OBJECTID":298323},"geometry":{"x":168972.96000000183,"y":2547441.9199999999}},{"attributes":{"ID":298332,"DIS_CODE":0,"TOWNNAME":"安南區","LI":"溪頂里","LIN":"8鄰","STREET":"惠安街","SECT":" ","MAREA":" ","LANE":"５１巷","ALLEY":" ","HOUSE_NO":"２０號","E_COORD97":168930.13,"N_COORD97":2547457.1800000002,"ADDRESS":"惠安街５１巷２０號","OBJECTID":298324},"geometry":{"x":168930.13000000082,"y":2547457.1800000034}},{"attributes":{"ID":298333,"DIS_CODE":0,"TOWNNAME":"安南區","LI":"溪頂里","LIN":"8鄰","STREET":"惠安街","SECT":" ","MAREA":" ","LANE":"５１巷","ALLEY":" ","HOUSE_NO":"２１號","E_COORD97":168964.72,"N_COORD97":2547442.0899999999,"ADDRESS":"惠安街５１巷２１號","OBJECTID":298325},"geometry":{"x":168964.72000000067,"y":2547442.0900000017}},{"attributes":{"ID":298334,"DIS_CODE":0,"TOWNNAME":"安南區","LI":"溪頂里","LIN":"8鄰","STREET":"惠安街","SECT":" ","MAREA":" ","LANE":"５１巷","ALLEY":" ","HOUSE_NO":"２２號","E_COORD97":168920.97,"N_COORD97":2547456.8500000001,"ADDRESS":"惠安街５１巷２２號","OBJECTID":298326},"geometry":{"x":168920.97000000067,"y":2547456.8500000015}},{"attributes":{"ID":298335,"DIS_CODE":0,"TOWNNAME":"安南區","LI":"溪頂里","LIN":"8鄰","STREET":"惠安街","SECT":" ","MAREA":" ","LANE":"５１巷","ALLEY":" ","HOUSE_NO":"２３號","E_COORD97":168955.67999999999,"N_COORD97":2547441.1699999999,"ADDRESS":"惠安街５１巷２３號","OBJECTID":298327},"geometry":{"x":168955.6799999997,"y":2547441.1700000018}},{"attributes":{"ID":298336,"DIS_CODE":0,"TOWNNAME":"東區","LI":"文聖里","LIN":"14鄰","STREET":"裕孝路","SECT":" ","MAREA":" ","LANE":" ","ALLEY":" ","HOUSE_NO":"２６６之１３號","E_COORD97":172369.66,"N_COORD97":2542676.52,"ADDRESS":"裕孝路２６６之１３號","OBJECTID":298328},"geometry":{"x":172369.66000000108,"y":2542676.5199999996}},{"attributes":{"ID":298337,"DIS_CODE":0,"TOWNNAME":"東區","LI":"文聖里","LIN":"14鄰","STREET":"裕孝路","SECT":" ","MAREA":" ","LANE":" ","ALLEY":" ","HOUSE_NO":"２６６之１５號","E_COORD97":172364.32000000001,"N_COORD97":2542676.8300000001,"ADDRESS":"裕孝路２６６之１５號","OBJECTID":298329},"geometry":{"x":172364.3200000003,"y":2542676.8300000019}},{"attributes":{"ID":298338,"DIS_CODE":0,"TOWNNAME":"永康區","LI":"復華里","LIN":"31鄰","STREET":"忠孝路","SECT":" ","MAREA":" ","LANE":"３８０巷","ALLEY":" ","HOUSE_NO":"１０號","E_COORD97":172494.81198999999,"N_COORD97":2546435.0264300001,"ADDRESS":"忠孝路３８０巷１０號","OBJECTID":298330},"geometry":{"x":172494.81199000124,"y":2546435.0264300015}},{"attributes":{"ID":298339,"DIS_CODE":0,"TOWNNAME":"東區","LI":"大同里","LIN":"4鄰","STREET":"大同路","SECT":"一段","MAREA":" ","LANE":"７３巷","ALLEY":" ","HOUSE_NO":"３７號","E_COORD97":169296.19,"N_COORD97":2543050.2200000002,"ADDRESS":"大同路一段７３巷３７號","OBJECTID":298331},"geometry":{"x":169296.19000000134,"y":2543050.2199999988}},{"attributes":{"ID":298340,"DIS_CODE":0,"TOWNNAME":"永康區","LI":"網寮里","LIN":"24鄰","STREET":"永春街","SECT":" ","MAREA":" ","LANE":"３６巷","ALLEY":" ","HOUSE_NO":"３號","E_COORD97":173754.73999999999,"N_COORD97":2546398.04,"ADDRESS":"永春街３６巷３號","OBJECTID":298332},"geometry":{"x":173754.74000000022,"y":2546398.0399999991}},{"attributes":{"ID":298341,"DIS_CODE":0,"TOWNNAME":"東區","LI":"大同里","LIN":"4鄰","STREET":"大同路","SECT":"一段","MAREA":" ","LANE":"７３巷","ALLEY":" ","HOUSE_NO":"３９號","E_COORD97":169305.38,"N_COORD97":2543046.9199999999,"ADDRESS":"大同路一段７３巷３９號","OBJECTID":298333},"geometry":{"x":169305.37999999989,"y":2543046.9199999999}},{"attributes":{"ID":298342,"DIS_CODE":0,"TOWNNAME":"東區","LI":"大同里","LIN":"4鄰","STREET":"大同路","SECT":"一段","MAREA":" ","LANE":"７３巷","ALLEY":" ","HOUSE_NO":"３號","E_COORD97":169233.95999999999,"N_COORD97":2543051.4900000002,"ADDRESS":"大同路一段７３巷３號","OBJECTID":298334},"geometry":{"x":169233.95999999903,"y":2543051.4900000039}},{"attributes":{"ID":298343,"DIS_CODE":0,"TOWNNAME":"東區","LI":"大同里","LIN":"4鄰","STREET":"大同路","SECT":"一段","MAREA":" ","LANE":"７３巷","ALLEY":" ","HOUSE_NO":"７號","E_COORD97":169234.04999999999,"N_COORD97":2543056.0499999998,"ADDRESS":"大同路一段７３巷７號","OBJECTID":298335},"geometry":{"x":169234.05000000075,"y":2543056.0500000026}},{"attributes":{"ID":298344,"DIS_CODE":0,"TOWNNAME":"東區","LI":"大同里","LIN":"4鄰","STREET":"大同路","SECT":"一段","MAREA":" ","LANE":"７３巷","ALLEY":" ","HOUSE_NO":"９號","E_COORD97":169233.78,"N_COORD97":2543059.1699999999,"ADDRESS":"大同路一段７３巷９號","OBJECTID":298336},"geometry":{"x":169233.77999999933,"y":2543059.1699999999}},{"attributes":{"ID":298345,"DIS_CODE":0,"TOWNNAME":"東區","LI":"復興里","LIN":"4鄰","STREET":"富農街","SECT":"一段","MAREA":" ","LANE":"２３２巷","ALLEY":" ","HOUSE_NO":"２０號","E_COORD97":171633.51000000001,"N_COORD97":2542577.48,"ADDRESS":"富農街一段２３２巷２０號","OBJECTID":298337},"geometry":{"x":171633.50999999978,"y":2542577.4800000023}},{"attributes":{"ID":298346,"DIS_CODE":0,"TOWNNAME":"東區","LI":"復興里","LIN":"4鄰","STREET":"富農街","SECT":"一段","MAREA":" ","LANE":"２３２巷","ALLEY":" ","HOUSE_NO":"２１號","E_COORD97":171659.20000000001,"N_COORD97":2542597.8999999999,"ADDRESS":"富農街一段２３２巷２１號","OBJECTID":298338},"geometry":{"x":171659.20000000112,"y":2542597.9000000041}},{"attributes":{"ID":298347,"DIS_CODE":0,"TOWNNAME":"東區","LI":"復興里","LIN":"4鄰","STREET":"富農街","SECT":"一段","MAREA":" ","LANE":"２３２巷","ALLEY":" ","HOUSE_NO":"２２號","E_COORD97":171638.95999999999,"N_COORD97":2542577.7999999998,"ADDRESS":"富農街一段２３２巷２２號","OBJECTID":298339},"geometry":{"x":171638.95999999996,"y":2542577.8000000007}},{"attributes":{"ID":298348,"DIS_CODE":0,"TOWNNAME":"東區","LI":"復興里","LIN":"4鄰","STREET":"富農街","SECT":"一段","MAREA":" ","LANE":"２３２巷","ALLEY":" ","HOUSE_NO":"２３號","E_COORD97":171665.67999999999,"N_COORD97":2542598.9199999999,"ADDRESS":"富農街一段２３２巷２３號","OBJECTID":298340},"geometry":{"x":171665.68000000063,"y":2542598.9200000018}},{"attributes":{"ID":298349,"DIS_CODE":0,"TOWNNAME":"東區","LI":"復興里","LIN":"4鄰","STREET":"富農街","SECT":"一段","MAREA":" ","LANE":"２３２巷","ALLEY":" ","HOUSE_NO":"２４號","E_COORD97":171643.13,"N_COORD97":2542579.7200000002,"ADDRESS":"富農街一段２３２巷２４號","OBJECTID":298341},"geometry":{"x":171643.12999999989,"y":2542579.7200000025}},{"attributes":{"ID":298350,"DIS_CODE":0,"TOWNNAME":"東區","LI":"復興里","LIN":"4鄰","STREET":"富農街","SECT":"一段","MAREA":" ","LANE":"２３２巷","ALLEY":" ","HOUSE_NO":"２６號","E_COORD97":171647.62,"N_COORD97":2542578.7599999998,"ADDRESS":"富農街一段２３２巷２６號","OBJECTID":298342},"geometry":{"x":171647.62000000104,"y":2542578.7600000016}},{"attributes":{"ID":298351,"DIS_CODE":0,"TOWNNAME":"東區","LI":"復興里","LIN":"4鄰","STREET":"富農街","SECT":"一段","MAREA":" ","LANE":"２３２巷","ALLEY":" ","HOUSE_NO":"２８號","E_COORD97":171652.42999999999,"N_COORD97":2542580.04,"ADDRESS":"富農街一段２３２巷２８號","OBJECTID":298343},"geometry":{"x":171652.4299999997,"y":2542580.040000001}},{"attributes":{"ID":298352,"DIS_CODE":0,"TOWNNAME":"東區","LI":"復興里","LIN":"4鄰","STREET":"富農街","SECT":"一段","MAREA":" ","LANE":"２３２巷","ALLEY":" ","HOUSE_NO":"２號","E_COORD97":171589.59,"N_COORD97":2542574.6899999999,"ADDRESS":"富農街一段２３２巷２號","OBJECTID":298344},"geometry":{"x":171589.59000000078,"y":2542574.6900000032}},{"attributes":{"ID":298353,"DIS_CODE":0,"TOWNNAME":"東區","LI":"文聖里","LIN":"14鄰","STREET":"裕孝路","SECT":" ","MAREA":" ","LANE":" ","ALLEY":" ","HOUSE_NO":"２６６之１６號","E_COORD97":172358.82000000001,"N_COORD97":2542676.9900000002,"ADDRESS":"裕孝路２６６之１６號","OBJECTID":298345},"geometry":{"x":172358.8200000003,"y":2542676.9900000002}},{"attributes":{"ID":298354,"DIS_CODE":0,"TOWNNAME":"東區","LI":"文聖里","LIN":"14鄰","STREET":"裕孝路","SECT":" ","MAREA":" ","LANE":" ","ALLEY":" ","HOUSE_NO":"２６６之１號","E_COORD97":172426.39999999999,"N_COORD97":2542676.8300000001,"ADDRESS":"裕孝路２６６之１號","OBJECTID":298346},"geometry":{"x":172426.40000000037,"y":2542676.8300000019}},{"attributes":{"ID":298355,"DIS_CODE":0,"TOWNNAME":"仁德區","LI":"一甲里","LIN":"14鄰","STREET":"忠義路","SECT":" ","MAREA":" ","LANE":" ","ALLEY":" ","HOUSE_NO":"２４９號","E_COORD97":173841.51000000001,"N_COORD97":2541842.0099999998,"ADDRESS":"忠義路２４９號","OBJECTID":298347},"geometry":{"x":173841.51000000071,"y":2541842.0100000016}},{"attributes":{"ID":298356,"DIS_CODE":0,"TOWNNAME":"東區","LI":"文聖里","LIN":"14鄰","STREET":"裕孝路","SECT":" ","MAREA":" ","LANE":" ","ALLEY":" ","HOUSE_NO":"２６６之３號","E_COORD97":172417.60000000001,"N_COORD97":2542676.6699999999,"ADDRESS":"裕孝路２６６之３號","OBJECTID":298348},"geometry":{"x":172417.59999999963,"y":2542676.6699999999}},{"attributes":{"ID":298357,"DIS_CODE":0,"TOWNNAME":"東區","LI":"文聖里","LIN":"14鄰","STREET":"裕孝路","SECT":" ","MAREA":" ","LANE":" ","ALLEY":" ","HOUSE_NO":"２６６之５號","E_COORD97":172412.73000000001,"N_COORD97":2542676.3599999999,"ADDRESS":"裕孝路２６６之５號","OBJECTID":298349},"geometry":{"x":172412.73000000045,"y":2542676.3600000013}},{"attributes":{"ID":298358,"DIS_CODE":0,"TOWNNAME":"東區","LI":"文聖里","LIN":"14鄰","STREET":"裕孝路","SECT":" ","MAREA":" ","LANE":" ","ALLEY":" ","HOUSE_NO":"２６６之６號","E_COORD97":172406.44,"N_COORD97":2542676.52,"ADDRESS":"裕孝路２６６之６號","OBJECTID":298350},"geometry":{"x":172406.44000000227,"y":2542676.5199999996}},{"attributes":{"ID":298359,"DIS_CODE":0,"TOWNNAME":"東區","LI":"文聖里","LIN":"14鄰","STREET":"裕孝路","SECT":" ","MAREA":" ","LANE":" ","ALLEY":" ","HOUSE_NO":"２６６之７號","E_COORD97":172401.88,"N_COORD97":2542676.52,"ADDRESS":"裕孝路２６６之７號","OBJECTID":298351},"geometry":{"x":172401.88000000082,"y":2542676.5199999996}},{"attributes":{"ID":298360,"DIS_CODE":0,"TOWNNAME":"東區","LI":"文聖里","LIN":"14鄰","STREET":"裕孝路","SECT":" ","MAREA":" ","LANE":" ","ALLEY":" ","HOUSE_NO":"２６６之８號","E_COORD97":172396.85000000001,"N_COORD97":2542676.52,"ADDRESS":"裕孝路２６６之８號","OBJECTID":298352},"geometry":{"x":172396.84999999963,"y":2542676.5199999996}},{"attributes":{"ID":298361,"DIS_CODE":0,"TOWNNAME":"東區","LI":"文聖里","LIN":"14鄰","STREET":"裕孝路","SECT":" ","MAREA":" ","LANE":" ","ALLEY":" ","HOUSE_NO":"２６６之９號","E_COORD97":172391.51000000001,"N_COORD97":2542676.52,"ADDRESS":"裕孝路２６６之９號","OBJECTID":298353},"geometry":{"x":172391.50999999885,"y":2542676.5199999996}},{"attributes":{"ID":298362,"DIS_CODE":0,"TOWNNAME":"東區","LI":"關聖里","LIN":"14鄰","STREET":"裕和二街","SECT":" ","MAREA":" ","LANE":" ","ALLEY":" ","HOUSE_NO":"１１５號","E_COORD97":172207.37,"N_COORD97":2542892.0499999998,"ADDRESS":"裕和二街１１５號","OBJECTID":298354},"geometry":{"x":172207.37000000011,"y":2542892.0499999989}},{"attributes":{"ID":298363,"DIS_CODE":0,"TOWNNAME":"東區","LI":"關聖里","LIN":"14鄰","STREET":"裕和二街","SECT":" ","MAREA":" ","LANE":" ","ALLEY":" ","HOUSE_NO":"１２１號","E_COORD97":172207.72,"N_COORD97":2542883.1400000001,"ADDRESS":"裕和二街１２１號","OBJECTID":298355},"geometry":{"x":172207.72000000067,"y":2542883.1400000006}},{"attributes":{"ID":298364,"DIS_CODE":0,"TOWNNAME":"東區","LI":"關聖里","LIN":"14鄰","STREET":"裕和二街","SECT":" ","MAREA":" ","LANE":" ","ALLEY":" ","HOUSE_NO":"１２３號","E_COORD97":172207.01999999999,"N_COORD97":2542876.5099999998,"ADDRESS":"裕和二街１２３號","OBJECTID":298356},"geometry":{"x":172207.02000000048,"y":2542876.5099999998}},{"attributes":{"ID":298365,"DIS_CODE":0,"TOWNNAME":"東區","LI":"關聖里","LIN":"14鄰","STREET":"裕忠路","SECT":" ","MAREA":" ","LANE":" ","ALLEY":" ","HOUSE_NO":"１５６號","E_COORD97":172243.72,"N_COORD97":2542956.1099999999,"ADDRESS":"裕忠路１５６號","OBJECTID":298357},"geometry":{"x":172243.71999999974,"y":2542956.1100000013}},{"attributes":{"ID":298366,"DIS_CODE":0,"TOWNNAME":"東區","LI":"裕聖里","LIN":"14鄰","STREET":"裕信三街","SECT":" ","MAREA":" ","LANE":" ","ALLEY":" ","HOUSE_NO":"１１６號","E_COORD97":172820.53,"N_COORD97":2542390.0899999999,"ADDRESS":"裕信三街１１６號","OBJECTID":298358},"geometry":{"x":172820.53000000026,"y":2542390.0900000017}},{"attributes":{"ID":298367,"DIS_CODE":0,"TOWNNAME":"東區","LI":"裕聖里","LIN":"14鄰","STREET":"裕信三街","SECT":" ","MAREA":" ","LANE":" ","ALLEY":" ","HOUSE_NO":"１１８號","E_COORD97":172820.07000000001,"N_COORD97":2542385.4900000002,"ADDRESS":"裕信三街１１８號","OBJECTID":298359},"geometry":{"x":172820.0700000003,"y":2542385.4900000002}},{"attributes":{"ID":298368,"DIS_CODE":0,"TOWNNAME":"東區","LI":"復興里","LIN":"4鄰","STREET":"富農街","SECT":"一段","MAREA":" ","LANE":"２３２巷","ALLEY":" ","HOUSE_NO":"３０號","E_COORD97":171657.56,"N_COORD97":2542579.7200000002,"ADDRESS":"富農街一段２３２巷３０號","OBJECTID":298360},"geometry":{"x":171657.56000000052,"y":2542579.7200000025}},{"attributes":{"ID":298369,"DIS_CODE":0,"TOWNNAME":"東區","LI":"復興里","LIN":"4鄰","STREET":"富農街","SECT":"一段","MAREA":" ","LANE":"２３２巷","ALLEY":" ","HOUSE_NO":"３２號","E_COORD97":171661.73000000001,"N_COORD97":2542581.3199999998,"ADDRESS":"富農街一段２３２巷３２號","OBJECTID":298361},"geometry":{"x":171661.73000000045,"y":2542581.3199999984}},{"attributes":{"ID":298370,"DIS_CODE":0,"TOWNNAME":"安南區","LI":"溪頂里","LIN":"8鄰","STREET":"惠安街","SECT":" ","MAREA":" ","LANE":"５１巷","ALLEY":" ","HOUSE_NO":"２４號","E_COORD97":168912.98000000001,"N_COORD97":2547456.6800000002,"ADDRESS":"惠安街５１巷２４號","OBJECTID":298362},"geometry":{"x":168912.98000000138,"y":2547456.6799999997}},{"attributes":{"ID":298371,"DIS_CODE":0,"TOWNNAME":"安南區","LI":"溪頂里","LIN":"8鄰","STREET":"惠安街","SECT":" ","MAREA":" ","LANE":"５１巷","ALLEY":" ","HOUSE_NO":"２５號","E_COORD97":168947.19,"N_COORD97":2547441.5899999999,"ADDRESS":"惠安街５１巷２５號","OBJECTID":298363},"geometry":{"x":168947.19000000134,"y":2547441.5900000017}},{"attributes":{"ID":298372,"DIS_CODE":0,"TOWNNAME":"安南區","LI":"溪頂里","LIN":"8鄰","STREET":"惠安街","SECT":" ","MAREA":" ","LANE":"５１巷","ALLEY":" ","HOUSE_NO":"２６號","E_COORD97":168904.35000000001,"N_COORD97":2547455.8500000001,"ADDRESS":"惠安街５１巷２６號","OBJECTID":298364},"geometry":{"x":168904.35000000056,"y":2547455.8500000034}},{"attributes":{"ID":298373,"DIS_CODE":0,"TOWNNAME":"安南區","LI":"溪頂里","LIN":"8鄰","STREET":"惠安街","SECT":" ","MAREA":" ","LANE":"５１巷","ALLEY":" ","HOUSE_NO":"２７號","E_COORD97":168938.78,"N_COORD97":2547441.5899999999,"ADDRESS":"惠安街５１巷２７號","OBJECTID":298365},"geometry":{"x":168938.77999999933,"y":2547441.5900000017}},{"attributes":{"ID":298374,"DIS_CODE":0,"TOWNNAME":"安南區","LI":"溪頂里","LIN":"8鄰","STREET":"惠安街","SECT":" ","MAREA":" ","LANE":"５１巷","ALLEY":" ","HOUSE_NO":"２９號","E_COORD97":168930.45999999999,"N_COORD97":2547441.8399999999,"ADDRESS":"惠安街５１巷２９號","OBJECTID":298366},"geometry":{"x":168930.45999999996,"y":2547441.8399999999}},{"attributes":{"ID":298375,"DIS_CODE":0,"TOWNNAME":"安南區","LI":"溪頂里","LIN":"8鄰","STREET":"惠安街","SECT":" ","MAREA":" ","LANE":"５１巷","ALLEY":" ","HOUSE_NO":"３０號","E_COORD97":168887.79000000001,"N_COORD97":2547455.9300000002,"ADDRESS":"惠安街５１巷３０號","OBJECTID":298367},"geometry":{"x":168887.7900000019,"y":2547455.9300000016}},{"attributes":{"ID":298376,"DIS_CODE":0,"TOWNNAME":"安南區","LI":"溪頂里","LIN":"8鄰","STREET":"惠安街","SECT":" ","MAREA":" ","LANE":"５１巷","ALLEY":" ","HOUSE_NO":"３１號","E_COORD97":168921.54999999999,"N_COORD97":2547441.9199999999,"ADDRESS":"惠安街５１巷３１號","OBJECTID":298368},"geometry":{"x":168921.55000000075,"y":2547441.9199999999}},{"attributes":{"ID":298377,"DIS_CODE":0,"TOWNNAME":"安南區","LI":"溪頂里","LIN":"8鄰","STREET":"惠安街","SECT":" ","MAREA":" ","LANE":"５１巷","ALLEY":" ","HOUSE_NO":"３３號","E_COORD97":168913.01000000001,"N_COORD97":2547441.0899999999,"ADDRESS":"惠安街５１巷３３號","OBJECTID":298369},"geometry":{"x":168913.00999999885,"y":2547441.0900000036}},{"attributes":{"ID":298378,"DIS_CODE":0,"TOWNNAME":"安南區","LI":"溪頂里","LIN":"8鄰","STREET":"惠安街","SECT":" ","MAREA":" ","LANE":"５１巷","ALLEY":" ","HOUSE_NO":"３５號","E_COORD97":168904.44,"N_COORD97":2547440.9199999999,"ADDRESS":"惠安街５１巷３５號","OBJECTID":298370},"geometry":{"x":168904.44000000134,"y":2547440.9199999999}},{"attributes":{"ID":298379,"DIS_CODE":0,"TOWNNAME":"安南區","LI":"溪頂里","LIN":"8鄰","STREET":"惠安街","SECT":" ","MAREA":" ","LANE":"５１巷","ALLEY":" ","HOUSE_NO":"３７號","E_COORD97":168896.03,"N_COORD97":2547440.9199999999,"ADDRESS":"惠安街５１巷３７號","OBJECTID":298371},"geometry":{"x":168896.03000000026,"y":2547440.9199999999}},{"attributes":{"ID":298380,"DIS_CODE":0,"TOWNNAME":"安南區","LI":"溪頂里","LIN":"8鄰","STREET":"惠安街","SECT":" ","MAREA":" ","LANE":"５１巷","ALLEY":" ","HOUSE_NO":"３９號","E_COORD97":168887.54000000001,"N_COORD97":2547440.9199999999,"ADDRESS":"惠安街５１巷３９號","OBJECTID":298372},"geometry":{"x":168887.54000000004,"y":2547440.9199999999}},{"attributes":{"ID":298381,"DIS_CODE":0,"TOWNNAME":"安南區","LI":"溪頂里","LIN":"8鄰","STREET":"惠安街","SECT":" ","MAREA":" ","LANE":"５１巷","ALLEY":" ","HOUSE_NO":"４號","E_COORD97":168998.10000000001,"N_COORD97":2547458.7799999998,"ADDRESS":"惠安街５１巷４號","OBJECTID":298373},"geometry":{"x":168998.09999999963,"y":2547458.7799999993}},{"attributes":{"ID":298382,"DIS_CODE":0,"TOWNNAME":"安南區","LI":"溪頂里","LIN":"8鄰","STREET":"惠安街","SECT":" ","MAREA":" ","LANE":"５１巷","ALLEY":" ","HOUSE_NO":"６號","E_COORD97":168989.89999999999,"N_COORD97":2547458.2799999998,"ADDRESS":"惠安街５１巷６號","OBJECTID":298374},"geometry":{"x":168989.9000000013,"y":2547458.2799999993}},{"attributes":{"ID":298383,"DIS_CODE":0,"TOWNNAME":"安南區","LI":"溪頂里","LIN":"8鄰","STREET":"惠安街","SECT":" ","MAREA":" ","LANE":"５１巷","ALLEY":" ","HOUSE_NO":"８號","E_COORD97":168981.42000000001,"N_COORD97":2547457.7999999998,"ADDRESS":"惠安街５１巷８號","OBJECTID":298375},"geometry":{"x":168981.41999999993,"y":2547457.8000000026}},{"attributes":{"ID":298384,"DIS_CODE":0,"TOWNNAME":"永康區","LI":"安康里","LIN":"8鄰","STREET":"中山南路","SECT":" ","MAREA":" ","LANE":"１１９巷","ALLEY":" ","HOUSE_NO":"１０號","E_COORD97":171034.32000000001,"N_COORD97":2545987.7400000002,"ADDRESS":"中山南路１１９巷１０號","OBJECTID":298376},"geometry":{"x":171034.32000000123,"y":2545987.7400000002}},{"attributes":{"ID":298385,"DIS_CODE":0,"TOWNNAME":"永康區","LI":"正強里","LIN":"8鄰","STREET":"正義街","SECT":" ","MAREA":" ","LANE":"７９巷","ALLEY":" ","HOUSE_NO":"７號","E_COORD97":173495.07999999999,"N_COORD97":2547554.8999999999,"ADDRESS":"正義街７９巷７號","OBJECTID":298377},"geometry":{"x":173495.08000000194,"y":2547554.9000000041}},{"attributes":{"ID":298386,"DIS_CODE":0,"TOWNNAME":"永康區","LI":"南灣里","LIN":"8鄰","STREET":"南興路","SECT":" ","MAREA":" ","LANE":"４８巷","ALLEY":" ","HOUSE_NO":"２０號之３","E_COORD97":174411.53,"N_COORD97":2544145.2400000002,"ADDRESS":"南興路４８巷２０號之３","OBJECTID":298378},"geometry":{"x":174411.53000000119,"y":2544145.2400000021}},{"attributes":{"ID":298387,"DIS_CODE":0,"TOWNNAME":"永康區","LI":"東灣里","LIN":"8鄰","STREET":"大灣路","SECT":" ","MAREA":" ","LANE":"４５０巷","ALLEY":" ","HOUSE_NO":"２號","E_COORD97":174751.04000000001,"N_COORD97":2544957.4500000002,"ADDRESS":"大灣路４５０巷２號","OBJECTID":298379},"geometry":{"x":174751.04000000004,"y":2544957.4500000011}},{"attributes":{"ID":298388,"DIS_CODE":0,"TOWNNAME":"永康區","LI":"永康里","LIN":"8鄰","STREET":"永中街","SECT":" ","MAREA":" ","LANE":"５３巷","ALLEY":" ","HOUSE_NO":"８號","E_COORD97":173904.42999999999,"N_COORD97":2547234.75,"ADDRESS":"永中街５３巷８號","OBJECTID":298380},"geometry":{"x":173904.43000000063,"y":2547234.7500000019}},{"attributes":{"ID":298389,"DIS_CODE":0,"TOWNNAME":"永康區","LI":"南灣里","LIN":"8鄰","STREET":"大灣東路","SECT":" ","MAREA":" ","LANE":"２１８巷","ALLEY":" ","HOUSE_NO":"１８號","E_COORD97":174755.14999999999,"N_COORD97":2544465,"ADDRESS":"大灣東路２１８巷１８號","OBJECTID":298381},"geometry":{"x":174755.1500000013,"y":2544465.0000000037}},{"attributes":{"ID":298390,"DIS_CODE":0,"TOWNNAME":"永康區","LI":"正強里","LIN":"8鄰","STREET":"永正路","SECT":" ","MAREA":" ","LANE":"６５巷","ALLEY":" ","HOUSE_NO":"１２號","E_COORD97":173499.79000000001,"N_COORD97":2547445,"ADDRESS":"永正路６５巷１２號","OBJECTID":298382},"geometry":{"x":173499.79000000004,"y":2547444.9999999981}},{"attributes":{"ID":298391,"DIS_CODE":0,"TOWNNAME":"永康區","LI":"西灣里","LIN":"8鄰","STREET":"大灣五街","SECT":" ","MAREA":" ","LANE":"９３巷","ALLEY":" ","HOUSE_NO":"１０９號","E_COORD97":174476.16,"N_COORD97":2545209.5,"ADDRESS":"大灣五街９３巷１０９號","OBJECTID":298383},"geometry":{"x":174476.16000000201,"y":2545209.5}},{"attributes":{"ID":298392,"DIS_CODE":0,"TOWNNAME":"東區","LI":"裕聖里","LIN":"14鄰","STREET":"裕信三街","SECT":" ","MAREA":" ","LANE":" ","ALLEY":" ","HOUSE_NO":"１３２號","E_COORD97":172819.31,"N_COORD97":2542361.46,"ADDRESS":"裕信三街１３２號","OBJECTID":298384},"geometry":{"x":172819.30999999959,"y":2542361.4600000028}},{"attributes":{"ID":298393,"DIS_CODE":0,"TOWNNAME":"東區","LI":"裕聖里","LIN":"14鄰","STREET":"裕信三街","SECT":" ","MAREA":" ","LANE":" ","ALLEY":" ","HOUSE_NO":"１３６號","E_COORD97":172819.45999999999,"N_COORD97":2542357.02,"ADDRESS":"裕信三街１３６號","OBJECTID":298385},"geometry":{"x":172819.46000000183,"y":2542357.0200000014}},{"attributes":{"ID":298394,"DIS_CODE":0,"TOWNNAME":"仁德區","LI":"一甲里","LIN":"4鄰","STREET":"中正路","SECT":"三段","MAREA":" ","LANE":"１３６巷","ALLEY":" ","HOUSE_NO":"３８號","E_COORD97":173514.51999999999,"N_COORD97":2541691.7599999998,"ADDRESS":"中正路三段１３６巷３８號","OBJECTID":298386},"geometry":{"x":173514.51999999955,"y":2541691.7599999998}},{"attributes":{"ID":298395,"DIS_CODE":0,"TOWNNAME":"永康區","LI":"東灣里","LIN":"8鄰","STREET":"大灣路","SECT":" ","MAREA":" ","LANE":"４５０巷","ALLEY":" ","HOUSE_NO":"１０號","E_COORD97":174726.82999999999,"N_COORD97":2544958.25,"ADDRESS":"大灣路４５０巷１０號","OBJECTID":298387},"geometry":{"x":174726.83000000007,"y":2544958.2500000037}},{"attributes":{"ID":298396,"DIS_CODE":0,"TOWNNAME":"永康區","LI":"正強里","LIN":"8鄰","STREET":"正義街","SECT":" ","MAREA":" ","LANE":"７９巷","ALLEY":" ","HOUSE_NO":"１號","E_COORD97":173488.28,"N_COORD97":2547572.3999999999,"ADDRESS":"正義街７９巷１號","OBJECTID":298388},"geometry":{"x":173488.28000000026,"y":2547572.4000000022}},{"attributes":{"ID":298397,"DIS_CODE":0,"TOWNNAME":"永康區","LI":"甲頂里","LIN":"8鄰","STREET":"中華路","SECT":" ","MAREA":" ","LANE":"８９５巷","ALLEY":" ","HOUSE_NO":"２號","E_COORD97":170433.76999999999,"N_COORD97":2546696.2000000002,"ADDRESS":"中華路８９５巷２號","OBJECTID":298389},"geometry":{"x":170433.77000000048,"y":2546696.1999999993}},{"attributes":{"ID":298398,"DIS_CODE":0,"TOWNNAME":"東區","LI":"復興里","LIN":"8鄰","STREET":"裕學路","SECT":" ","MAREA":" ","LANE":"１８５巷","ALLEY":" ","HOUSE_NO":"６號","E_COORD97":171671.13,"N_COORD97":2542808.9500000002,"ADDRESS":"裕學路１８５巷６號","OBJECTID":298390},"geometry":{"x":171671.13000000082,"y":2542808.9499999993}},{"attributes":{"ID":298399,"DIS_CODE":0,"TOWNNAME":"東區","LI":"復興里","LIN":"8鄰","STREET":"裕學路","SECT":" ","MAREA":" ","LANE":"１８５巷","ALLEY":" ","HOUSE_NO":"１１號","E_COORD97":171694.66,"N_COORD97":2542800.7799999998,"ADDRESS":"裕學路１８５巷１１號","OBJECTID":298391},"geometry":{"x":171694.66000000108,"y":2542800.7799999993}},{"attributes":{"ID":298400,"DIS_CODE":0,"TOWNNAME":"東區","LI":"復興里","LIN":"8鄰","STREET":"裕學路","SECT":" ","MAREA":" ","LANE":"１８５巷","ALLEY":" ","HOUSE_NO":"８號","E_COORD97":171671.48000000001,"N_COORD97":2542805.5499999998,"ADDRESS":"裕學路１８５巷８號","OBJECTID":298392},"geometry":{"x":171671.48000000045,"y":2542805.5500000026}},{"attributes":{"ID":298401,"DIS_CODE":0,"TOWNNAME":"東區","LI":"復興里","LIN":"8鄰","STREET":"裕學路","SECT":" ","MAREA":" ","LANE":"１８５巷","ALLEY":" ","HOUSE_NO":"１３號","E_COORD97":171694.32000000001,"N_COORD97":2542797.7200000002,"ADDRESS":"裕學路１８５巷１３號","OBJECTID":298393},"geometry":{"x":171694.3200000003,"y":2542797.7200000025}},{"attributes":{"ID":298402,"DIS_CODE":0,"TOWNNAME":"東區","LI":"復興里","LIN":"8鄰","STREET":"裕學路","SECT":" ","MAREA":" ","LANE":"１８５巷","ALLEY":" ","HOUSE_NO":"１０號","E_COORD97":171671.82000000001,"N_COORD97":2542801.46,"ADDRESS":"裕學路１８５巷１０號","OBJECTID":298394},"geometry":{"x":171671.82000000123,"y":2542801.4600000046}},{"attributes":{"ID":298403,"DIS_CODE":0,"TOWNNAME":"東區","LI":"復興里","LIN":"8鄰","STREET":"裕學路","SECT":" ","MAREA":" ","LANE":"１８５巷","ALLEY":" ","HOUSE_NO":"１５號","E_COORD97":171695.67999999999,"N_COORD97":2542793.8999999999,"ADDRESS":"裕學路１８５巷１５號","OBJECTID":298395},"geometry":{"x":171695.68000000063,"y":2542793.9000000004}},{"attributes":{"ID":298404,"DIS_CODE":0,"TOWNNAME":"東區","LI":"復興里","LIN":"8鄰","STREET":"裕學路","SECT":" ","MAREA":" ","LANE":"１８５巷","ALLEY":" ","HOUSE_NO":"１２號","E_COORD97":171672.16,"N_COORD97":2542798.0600000001,"ADDRESS":"裕學路１８５巷１２號","OBJECTID":298396},"geometry":{"x":171672.15999999922,"y":2542798.0600000024}},{"attributes":{"ID":298405,"DIS_CODE":0,"TOWNNAME":"東區","LI":"復興里","LIN":"8鄰","STREET":"裕學路","SECT":" ","MAREA":" ","LANE":"１８５巷","ALLEY":" ","HOUSE_NO":"１７號","E_COORD97":171696.35999999999,"N_COORD97":2542791.1800000002,"ADDRESS":"裕學路１８５巷１７號","OBJECTID":298397},"geometry":{"x":171696.36000000034,"y":2542791.1799999997}},{"attributes":{"ID":298406,"DIS_CODE":0,"TOWNNAME":"東區","LI":"復興里","LIN":"8鄰","STREET":"裕學路","SECT":" ","MAREA":" ","LANE":"１８５巷","ALLEY":" ","HOUSE_NO":"１６號","E_COORD97":171671.82000000001,"N_COORD97":2542793.9700000002,"ADDRESS":"裕學路１８５巷１６號","OBJECTID":298398},"geometry":{"x":171671.82000000123,"y":2542793.9700000007}},{"attributes":{"ID":298407,"DIS_CODE":0,"TOWNNAME":"東區","LI":"復興里","LIN":"8鄰","STREET":"裕學路","SECT":" ","MAREA":" ","LANE":"１８５巷","ALLEY":" ","HOUSE_NO":"１９號","E_COORD97":171697.04000000001,"N_COORD97":2542786.75,"ADDRESS":"裕學路１８５巷１９號","OBJECTID":298399},"geometry":{"x":171697.04000000097,"y":2542786.7500000019}},{"attributes":{"ID":298408,"DIS_CODE":0,"TOWNNAME":"東區","LI":"復興里","LIN":"8鄰","STREET":"裕學路","SECT":" ","MAREA":" ","LANE":"１８５巷","ALLEY":" ","HOUSE_NO":"１８號","E_COORD97":171673.85999999999,"N_COORD97":2542791.25,"ADDRESS":"裕學路１８５巷１８號","OBJECTID":298400},"geometry":{"x":171673.86000000034,"y":2542791.25}}]}