{"displayFieldName":"TOWNNAME","fieldAliases":{"ID":"ID","DIS_CODE":"DIS_CODE","TOWNNAME":"TOWNNAME","LI":"LI","LIN":"LIN","STREET":"STREET","SECT":"SECT","MAREA":"MAREA","LANE":"LANE","ALLEY":"ALLEY","HOUSE_NO":"HOUSE_NO","E_COORD97":"E_COORD97","N_COORD97":"N_COORD97","ADDRESS":"ADDRESS","OBJECTID":"OBJECTID"},"geometryType":"esriGeometryPoint","spatialReference":{"wkid":102443,"latestWkid":3826},"fields":[{"name":"ID","type":"esriFieldTypeDouble","alias":"ID"},{"name":"DIS_CODE","type":"esriFieldTypeInteger","alias":"DIS_CODE"},{"name":"TOWNNAME","type":"esriFieldTypeString","alias":"TOWNNAME","length":8},{"name":"LI","type":"esriFieldTypeString","alias":"LI","length":8},{"name":"LIN","type":"esriFieldTypeString","alias":"LIN","length":12},{"name":"STREET","type":"esriFieldTypeString","alias":"STREET","length":20},{"name":"SECT","type":"esriFieldTypeString","alias":"SECT","length":8},{"name":"MAREA","type":"esriFieldTypeString","alias":"MAREA","length":12},{"name":"LANE","type":"esriFieldTypeString","alias":"LANE","length":10},{"name":"ALLEY","type":"esriFieldTypeString","alias":"ALLEY","length":10},{"name":"HOUSE_NO","type":"esriFieldTypeString","alias":"HOUSE_NO","length":20},{"name":"E_COORD97","type":"esriFieldTypeDouble","alias":"E_COORD97"},{"name":"N_COORD97","type":"esriFieldTypeDouble","alias":"N_COORD97"},{"name":"ADDRESS","type":"esriFieldTypeString","alias":"ADDRESS","length":50},{"name":"OBJECTID","type":"esriFieldTypeOID","alias":"OBJECTID"}],"features":[{"attributes":{"ID":59601,"DIS_CODE":0,"TOWNNAME":"安南區","LI":"砂崙里","LIN":"1鄰","STREET":"城北路","SECT":" ","MAREA":" ","LANE":"８７１巷","ALLEY":"８７弄","HOUSE_NO":"４６號","E_COORD97":160629.38,"N_COORD97":2553135.9399999999,"ADDRESS":"城北路８７１巷８７弄４６號","OBJECTID":59601},"geometry":{"x":160629.37999999989,"y":2553135.9399999995}},{"attributes":{"ID":59602,"DIS_CODE":0,"TOWNNAME":"關廟區","LI":"龜洞里","LIN":"7鄰","STREET":"南雄南路","SECT":" ","MAREA":" ","LANE":"７０１巷","ALLEY":"１６弄","HOUSE_NO":"１號","E_COORD97":183372.356497,"N_COORD97":2533403.6335800001,"ADDRESS":"南雄南路７０１巷１６弄１號","OBJECTID":59602},"geometry":{"x":183372.35649700183,"y":2533403.633576002}},{"attributes":{"ID":59603,"DIS_CODE":0,"TOWNNAME":"東區","LI":"崇信里","LIN":"8鄰","STREET":"崇信街","SECT":" ","MAREA":" ","LANE":" ","ALLEY":" ","HOUSE_NO":"１３３號十樓","E_COORD97":170824.53,"N_COORD97":2542235.21,"ADDRESS":"崇信街１３３號十樓","OBJECTID":59603},"geometry":{"x":170824.53000000119,"y":2542235.2100000028}},{"attributes":{"ID":59604,"DIS_CODE":0,"TOWNNAME":"鹽水區","LI":"水正里","LIN":"1鄰","STREET":" ","SECT":" ","MAREA":"過港","LANE":" ","ALLEY":" ","HOUSE_NO":"１２號之１４","E_COORD97":175365.85000000001,"N_COORD97":2579748.5499999998,"ADDRESS":"過港１２號之１４","OBJECTID":59604},"geometry":{"x":175365.8499999987,"y":2579748.5500000007}},{"attributes":{"ID":59605,"DIS_CODE":0,"TOWNNAME":"鹽水區","LI":"水正里","LIN":"1鄰","STREET":" ","SECT":" ","MAREA":"過港","LANE":" ","ALLEY":" ","HOUSE_NO":"１２號之１６","E_COORD97":175372.54000000001,"N_COORD97":2579743.52,"ADDRESS":"過港１２號之１６","OBJECTID":59605},"geometry":{"x":175372.54000000097,"y":2579743.5199999996}},{"attributes":{"ID":59606,"DIS_CODE":0,"TOWNNAME":"鹽水區","LI":"水正里","LIN":"1鄰","STREET":" ","SECT":" ","MAREA":"過港","LANE":" ","ALLEY":" ","HOUSE_NO":"１２號之１７","E_COORD97":175376.23000000001,"N_COORD97":2579741.4399999999,"ADDRESS":"過港１２號之１７","OBJECTID":59606},"geometry":{"x":175376.23000000138,"y":2579741.4399999995}},{"attributes":{"ID":59607,"DIS_CODE":0,"TOWNNAME":"新營區","LI":"埤寮里","LIN":"11鄰","STREET":" ","SECT":" ","MAREA":"埤寮","LANE":" ","ALLEY":" ","HOUSE_NO":"７４號","E_COORD97":180452.45999999999,"N_COORD97":2580854.1499999999,"ADDRESS":"埤寮７４號","OBJECTID":59607},"geometry":{"x":180452.45999999996,"y":2580854.1500000022}},{"attributes":{"ID":59608,"DIS_CODE":0,"TOWNNAME":"新營區","LI":"土庫里","LIN":"16鄰","STREET":" ","SECT":" ","MAREA":"卯舍","LANE":" ","ALLEY":" ","HOUSE_NO":"１２號之１","E_COORD97":181730.19,"N_COORD97":2580180.4700000002,"ADDRESS":"卯舍１２號之１","OBJECTID":59608},"geometry":{"x":181730.19000000134,"y":2580180.4700000025}},{"attributes":{"ID":59609,"DIS_CODE":0,"TOWNNAME":"鹽水區","LI":"水正里","LIN":"1鄰","STREET":" ","SECT":" ","MAREA":"過港","LANE":" ","ALLEY":" ","HOUSE_NO":"１２號之２１","E_COORD97":175390.04000000001,"N_COORD97":2579731.3100000001,"ADDRESS":"過港１２號之２１","OBJECTID":59609},"geometry":{"x":175390.04000000004,"y":2579731.3100000024}},{"attributes":{"ID":59610,"DIS_CODE":0,"TOWNNAME":"鹽水區","LI":"水正里","LIN":"1鄰","STREET":" ","SECT":" ","MAREA":"過港","LANE":" ","ALLEY":" ","HOUSE_NO":"１２號之２２","E_COORD97":175393.29000000001,"N_COORD97":2579729.02,"ADDRESS":"過港１２號之２２","OBJECTID":59610},"geometry":{"x":175393.29000000004,"y":2579729.0200000014}},{"attributes":{"ID":59611,"DIS_CODE":0,"TOWNNAME":"東區","LI":"崇信里","LIN":"8鄰","STREET":"崇信街","SECT":" ","MAREA":" ","LANE":" ","ALLEY":" ","HOUSE_NO":"１３３號十樓之１","E_COORD97":170824.53,"N_COORD97":2542235.21,"ADDRESS":"崇信街１３３號十樓之１","OBJECTID":59611},"geometry":{"x":170824.53000000119,"y":2542235.2100000028}},{"attributes":{"ID":59612,"DIS_CODE":0,"TOWNNAME":"東區","LI":"崇信里","LIN":"8鄰","STREET":"崇信街","SECT":" ","MAREA":" ","LANE":" ","ALLEY":" ","HOUSE_NO":"１３３號五樓","E_COORD97":170824.53,"N_COORD97":2542235.21,"ADDRESS":"崇信街１３３號五樓","OBJECTID":59612},"geometry":{"x":170824.53000000119,"y":2542235.2100000028}},{"attributes":{"ID":59613,"DIS_CODE":0,"TOWNNAME":"鹽水區","LI":"水正里","LIN":"1鄰","STREET":" ","SECT":" ","MAREA":"過港","LANE":" ","ALLEY":" ","HOUSE_NO":"１２號之２３","E_COORD97":175397.76999999999,"N_COORD97":2579725.25,"ADDRESS":"過港１２號之２３","OBJECTID":59613},"geometry":{"x":175397.76999999955,"y":2579725.25}},{"attributes":{"ID":59614,"DIS_CODE":0,"TOWNNAME":"鹽水區","LI":"水正里","LIN":"1鄰","STREET":" ","SECT":" ","MAREA":"過港","LANE":" ","ALLEY":" ","HOUSE_NO":"１２號之２４","E_COORD97":175354.38,"N_COORD97":2579737.3500000001,"ADDRESS":"過港１２號之２４","OBJECTID":59614},"geometry":{"x":175354.38000000082,"y":2579737.3500000015}},{"attributes":{"ID":59615,"DIS_CODE":0,"TOWNNAME":"鹽水區","LI":"水正里","LIN":"1鄰","STREET":" ","SECT":" ","MAREA":"過港","LANE":" ","ALLEY":" ","HOUSE_NO":"１２號之２５","E_COORD97":175333.10000000001,"N_COORD97":2579745.8100000001,"ADDRESS":"過港１２號之２５","OBJECTID":59615},"geometry":{"x":175333.09999999963,"y":2579745.8100000005}},{"attributes":{"ID":59616,"DIS_CODE":0,"TOWNNAME":"鹽水區","LI":"水正里","LIN":"1鄰","STREET":" ","SECT":" ","MAREA":"過港","LANE":" ","ALLEY":" ","HOUSE_NO":"１２號之２６","E_COORD97":175336.20999999999,"N_COORD97":2579750.5899999999,"ADDRESS":"過港１２號之２６","OBJECTID":59616},"geometry":{"x":175336.20999999996,"y":2579750.5899999999}},{"attributes":{"ID":59617,"DIS_CODE":0,"TOWNNAME":"鹽水區","LI":"水正里","LIN":"1鄰","STREET":" ","SECT":" ","MAREA":"過港","LANE":" ","ALLEY":" ","HOUSE_NO":"１２號","E_COORD97":175294.72,"N_COORD97":2579786.4300000002,"ADDRESS":"過港１２號","OBJECTID":59617},"geometry":{"x":175294.72000000067,"y":2579786.4300000016}},{"attributes":{"ID":59618,"DIS_CODE":0,"TOWNNAME":"鹽水區","LI":"水正里","LIN":"1鄰","STREET":" ","SECT":" ","MAREA":"過港","LANE":" ","ALLEY":" ","HOUSE_NO":"１３號之１","E_COORD97":175264.97,"N_COORD97":2579784.77,"ADDRESS":"過港１３號之１","OBJECTID":59618},"geometry":{"x":175264.96999999974,"y":2579784.7700000014}},{"attributes":{"ID":59619,"DIS_CODE":0,"TOWNNAME":"鹽水區","LI":"水正里","LIN":"1鄰","STREET":" ","SECT":" ","MAREA":"過港","LANE":" ","ALLEY":" ","HOUSE_NO":"１３號之２","E_COORD97":175251.64999999999,"N_COORD97":2579779.6099999999,"ADDRESS":"過港１３號之２","OBJECTID":59619},"geometry":{"x":175251.6500000013,"y":2579779.6099999994}},{"attributes":{"ID":59620,"DIS_CODE":0,"TOWNNAME":"安南區","LI":"砂崙里","LIN":"1鄰","STREET":"城北路","SECT":" ","MAREA":" ","LANE":"８７１巷","ALLEY":"８７弄","HOUSE_NO":"５號","E_COORD97":160660.20000000001,"N_COORD97":2553231.8999999999,"ADDRESS":"城北路８７１巷８７弄５號","OBJECTID":59620},"geometry":{"x":160660.20000000205,"y":2553231.9000000004}},{"attributes":{"ID":59621,"DIS_CODE":0,"TOWNNAME":"安南區","LI":"砂崙里","LIN":"1鄰","STREET":"城北路","SECT":" ","MAREA":" ","LANE":"８７１巷","ALLEY":"８７弄","HOUSE_NO":"７號","E_COORD97":160661.22,"N_COORD97":2553226.79,"ADDRESS":"城北路８７１巷８７弄７號","OBJECTID":59621},"geometry":{"x":160661.2200000016,"y":2553226.790000001}},{"attributes":{"ID":59622,"DIS_CODE":0,"TOWNNAME":"安南區","LI":"砂崙里","LIN":"1鄰","STREET":"城北路","SECT":" ","MAREA":" ","LANE":"８７１巷","ALLEY":"８７弄","HOUSE_NO":"４６號之７","E_COORD97":160616.54999999999,"N_COORD97":2553029.3199999998,"ADDRESS":"城北路８７１巷８７弄４６號之７","OBJECTID":59622},"geometry":{"x":160616.54999999888,"y":2553029.3200000003}},{"attributes":{"ID":59623,"DIS_CODE":0,"TOWNNAME":"鹽水區","LI":"水正里","LIN":"1鄰","STREET":" ","SECT":" ","MAREA":"過港","LANE":" ","ALLEY":" ","HOUSE_NO":"１３號","E_COORD97":175273.75,"N_COORD97":2579798.54,"ADDRESS":"過港１３號","OBJECTID":59623},"geometry":{"x":175273.75000000186,"y":2579798.5400000028}},{"attributes":{"ID":59624,"DIS_CODE":0,"TOWNNAME":"鹽水區","LI":"水正里","LIN":"1鄰","STREET":" ","SECT":" ","MAREA":"過港","LANE":" ","ALLEY":" ","HOUSE_NO":"１４號之１","E_COORD97":175286.45000000001,"N_COORD97":2579808.3599999999,"ADDRESS":"過港１４號之１","OBJECTID":59624},"geometry":{"x":175286.45000000112,"y":2579808.3599999994}},{"attributes":{"ID":59625,"DIS_CODE":0,"TOWNNAME":"安南區","LI":"佃東里","LIN":"1鄰","STREET":"海佃路","SECT":"四段","MAREA":" ","LANE":"３８８巷","ALLEY":"６弄","HOUSE_NO":"５４號之５６","E_COORD97":165800.26999999999,"N_COORD97":2551521.5600000001,"ADDRESS":"海佃路四段３８８巷６弄５４號之５６","OBJECTID":59625},"geometry":{"x":165800.26999999955,"y":2551521.5600000024}},{"attributes":{"ID":59626,"DIS_CODE":0,"TOWNNAME":"安南區","LI":"溪心里","LIN":"1鄰","STREET":"海環街","SECT":" ","MAREA":" ","LANE":"７１５巷","ALLEY":"１１８弄","HOUSE_NO":"１９號","E_COORD97":166355.10999999999,"N_COORD97":2549625.8199999998,"ADDRESS":"海環街７１５巷１１８弄１９號","OBJECTID":59626},"geometry":{"x":166355.1100000022,"y":2549625.8200000003}},{"attributes":{"ID":59627,"DIS_CODE":0,"TOWNNAME":"安南區","LI":"淵西里","LIN":"1鄰","STREET":"安中路","SECT":"四段","MAREA":" ","LANE":"２９０巷","ALLEY":"３２５弄","HOUSE_NO":"２１號","E_COORD97":165123.57999999999,"N_COORD97":2550411.3599999999,"ADDRESS":"安中路四段２９０巷３２５弄２１號","OBJECTID":59627},"geometry":{"x":165123.58000000007,"y":2550411.3599999994}},{"attributes":{"ID":59628,"DIS_CODE":0,"TOWNNAME":"安南區","LI":"淵西里","LIN":"1鄰","STREET":"安中路","SECT":"四段","MAREA":" ","LANE":"２９０巷","ALLEY":"３２５弄","HOUSE_NO":"２３號","E_COORD97":165118.14999999999,"N_COORD97":2550405.2599999998,"ADDRESS":"安中路四段２９０巷３２５弄２３號","OBJECTID":59628},"geometry":{"x":165118.15000000037,"y":2550405.2599999998}},{"attributes":{"ID":59629,"DIS_CODE":0,"TOWNNAME":"安南區","LI":"砂崙里","LIN":"1鄰","STREET":"城北路","SECT":" ","MAREA":" ","LANE":"８７１巷","ALLEY":"８７弄","HOUSE_NO":"１１號","E_COORD97":160662.67999999999,"N_COORD97":2553216,"ADDRESS":"城北路８７１巷８７弄１１號","OBJECTID":59629},"geometry":{"x":160662.6799999997,"y":2553216.0000000019}},{"attributes":{"ID":59630,"DIS_CODE":0,"TOWNNAME":"安南區","LI":"砂崙里","LIN":"1鄰","STREET":"城北路","SECT":" ","MAREA":" ","LANE":"８７１巷","ALLEY":"８７弄","HOUSE_NO":"１３號","E_COORD97":160663.01000000001,"N_COORD97":2553210.9500000002,"ADDRESS":"城北路８７１巷８７弄１３號","OBJECTID":59630},"geometry":{"x":160663.01000000071,"y":2553210.9499999993}},{"attributes":{"ID":59631,"DIS_CODE":0,"TOWNNAME":"安南區","LI":"砂崙里","LIN":"1鄰","STREET":"城北路","SECT":" ","MAREA":" ","LANE":"８７１巷","ALLEY":"８７弄","HOUSE_NO":"１號","E_COORD97":160658.95999999999,"N_COORD97":2553245.04,"ADDRESS":"城北路８７１巷８７弄１號","OBJECTID":59631},"geometry":{"x":160658.95999999996,"y":2553245.0400000028}},{"attributes":{"ID":59632,"DIS_CODE":0,"TOWNNAME":"安南區","LI":"砂崙里","LIN":"1鄰","STREET":"城北路","SECT":" ","MAREA":" ","LANE":"８７１巷","ALLEY":"８７弄","HOUSE_NO":"９號","E_COORD97":160661.78,"N_COORD97":2553219.8199999998,"ADDRESS":"城北路８７１巷８７弄９號","OBJECTID":59632},"geometry":{"x":160661.78000000119,"y":2553219.8200000003}},{"attributes":{"ID":59633,"DIS_CODE":0,"TOWNNAME":"安南區","LI":"海南里","LIN":"1鄰","STREET":"府安路","SECT":"六段","MAREA":" ","LANE":"１０３巷","ALLEY":"１１１弄","HOUSE_NO":"１０號","E_COORD97":166634.87,"N_COORD97":2546777.1600000001,"ADDRESS":"府安路六段１０３巷１１１弄１０號","OBJECTID":59633},"geometry":{"x":166634.87000000104,"y":2546777.160000002}},{"attributes":{"ID":59634,"DIS_CODE":0,"TOWNNAME":"安南區","LI":"海南里","LIN":"1鄰","STREET":"府安路","SECT":"六段","MAREA":" ","LANE":"１０３巷","ALLEY":"１１１弄","HOUSE_NO":"１１號","E_COORD97":166630.82999999999,"N_COORD97":2546760.6800000002,"ADDRESS":"府安路六段１０３巷１１１弄１１號","OBJECTID":59634},"geometry":{"x":166630.83000000007,"y":2546760.6799999997}},{"attributes":{"ID":59635,"DIS_CODE":0,"TOWNNAME":"安南區","LI":"海南里","LIN":"1鄰","STREET":"府安路","SECT":"六段","MAREA":" ","LANE":"１０３巷","ALLEY":"１１１弄","HOUSE_NO":"１２號","E_COORD97":166627.29000000001,"N_COORD97":2546776.27,"ADDRESS":"府安路六段１０３巷１１１弄１２號","OBJECTID":59635},"geometry":{"x":166627.29000000004,"y":2546776.2700000014}},{"attributes":{"ID":59636,"DIS_CODE":0,"TOWNNAME":"安南區","LI":"海南里","LIN":"1鄰","STREET":"府安路","SECT":"六段","MAREA":" ","LANE":"１０３巷","ALLEY":"１１１弄","HOUSE_NO":"１３號","E_COORD97":166624.14999999999,"N_COORD97":2546758.7200000002,"ADDRESS":"府安路六段１０３巷１１１弄１３號","OBJECTID":59636},"geometry":{"x":166624.15000000037,"y":2546758.7200000007}},{"attributes":{"ID":59637,"DIS_CODE":0,"TOWNNAME":"安南區","LI":"海南里","LIN":"1鄰","STREET":"府安路","SECT":"六段","MAREA":" ","LANE":"１０３巷","ALLEY":"１１１弄","HOUSE_NO":"１４號","E_COORD97":166621.51000000001,"N_COORD97":2546774.6400000001,"ADDRESS":"府安路六段１０３巷１１１弄１４號","OBJECTID":59637},"geometry":{"x":166621.51000000071,"y":2546774.6400000025}},{"attributes":{"ID":59638,"DIS_CODE":0,"TOWNNAME":"安南區","LI":"海南里","LIN":"1鄰","STREET":"府安路","SECT":"六段","MAREA":" ","LANE":"１０３巷","ALLEY":"１１１弄","HOUSE_NO":"１５號","E_COORD97":166617.01000000001,"N_COORD97":2546757.9100000001,"ADDRESS":"府安路六段１０３巷１１１弄１５號","OBJECTID":59638},"geometry":{"x":166617.00999999978,"y":2546757.9100000039}},{"attributes":{"ID":59639,"DIS_CODE":0,"TOWNNAME":"安南區","LI":"海南里","LIN":"1鄰","STREET":"府安路","SECT":"六段","MAREA":" ","LANE":"１０３巷","ALLEY":"１１１弄","HOUSE_NO":"１６號","E_COORD97":166614.22,"N_COORD97":2546773.2999999998,"ADDRESS":"府安路六段１０３巷１１１弄１６號","OBJECTID":59639},"geometry":{"x":166614.21999999974,"y":2546773.3000000026}},{"attributes":{"ID":59640,"DIS_CODE":0,"TOWNNAME":"安南區","LI":"海南里","LIN":"1鄰","STREET":"府安路","SECT":"六段","MAREA":" ","LANE":"１０３巷","ALLEY":"１１１弄","HOUSE_NO":"１７號","E_COORD97":166610.98000000001,"N_COORD97":2546757.0899999999,"ADDRESS":"府安路六段１０３巷１１１弄１７號","OBJECTID":59640},"geometry":{"x":166610.98000000138,"y":2546757.0900000017}},{"attributes":{"ID":59641,"DIS_CODE":0,"TOWNNAME":"安南區","LI":"海南里","LIN":"1鄰","STREET":"府安路","SECT":"六段","MAREA":" ","LANE":"１０３巷","ALLEY":"１１１弄","HOUSE_NO":"１８號","E_COORD97":166607.20999999999,"N_COORD97":2546772.73,"ADDRESS":"府安路六段１０３巷１１１弄１８號","OBJECTID":59641},"geometry":{"x":166607.21000000089,"y":2546772.7300000042}},{"attributes":{"ID":59642,"DIS_CODE":0,"TOWNNAME":"東區","LI":"崇文里","LIN":"8鄰","STREET":"崇善路","SECT":" ","MAREA":" ","LANE":" ","ALLEY":" ","HOUSE_NO":"６３０號","E_COORD97":171131.87,"N_COORD97":2541060.5699999998,"ADDRESS":"崇善路６３０號","OBJECTID":59642},"geometry":{"x":171131.87000000104,"y":2541060.5700000003}},{"attributes":{"ID":59643,"DIS_CODE":0,"TOWNNAME":"安南區","LI":"海南里","LIN":"1鄰","STREET":"府安路","SECT":"六段","MAREA":" ","LANE":"１０３巷","ALLEY":"１１１弄","HOUSE_NO":"１９號","E_COORD97":166604.45999999999,"N_COORD97":2546755.2999999998,"ADDRESS":"府安路六段１０３巷１１１弄１９號","OBJECTID":59643},"geometry":{"x":166604.45999999996,"y":2546755.3000000007}},{"attributes":{"ID":59644,"DIS_CODE":0,"TOWNNAME":"鹽水區","LI":"水正里","LIN":"1鄰","STREET":" ","SECT":" ","MAREA":"過港","LANE":" ","ALLEY":" ","HOUSE_NO":"１４號","E_COORD97":175276.5,"N_COORD97":2579813.1600000001,"ADDRESS":"過港１４號","OBJECTID":59644},"geometry":{"x":175276.5,"y":2579813.160000002}},{"attributes":{"ID":59645,"DIS_CODE":0,"TOWNNAME":"安南區","LI":"海南里","LIN":"1鄰","STREET":"府安路","SECT":"六段","MAREA":" ","LANE":"１０３巷","ALLEY":"１１１弄","HOUSE_NO":"１號","E_COORD97":166663.84,"N_COORD97":2546766.9500000002,"ADDRESS":"府安路六段１０３巷１１１弄１號","OBJECTID":59645},"geometry":{"x":166663.84000000078,"y":2546766.9500000011}},{"attributes":{"ID":59646,"DIS_CODE":0,"TOWNNAME":"安南區","LI":"海南里","LIN":"1鄰","STREET":"府安路","SECT":"六段","MAREA":" ","LANE":"１０３巷","ALLEY":"１１１弄","HOUSE_NO":"２０號","E_COORD97":166600.44,"N_COORD97":2546771.3399999999,"ADDRESS":"府安路六段１０３巷１１１弄２０號","OBJECTID":59646},"geometry":{"x":166600.44000000227,"y":2546771.3400000036}},{"attributes":{"ID":59647,"DIS_CODE":0,"TOWNNAME":"安南區","LI":"海南里","LIN":"1鄰","STREET":"府安路","SECT":"六段","MAREA":" ","LANE":"１０３巷","ALLEY":"１１１弄","HOUSE_NO":"２１號","E_COORD97":166597.85999999999,"N_COORD97":2546753.8399999999,"ADDRESS":"府安路六段１０３巷１１１弄２１號","OBJECTID":59647},"geometry":{"x":166597.86000000127,"y":2546753.8399999999}},{"attributes":{"ID":59648,"DIS_CODE":0,"TOWNNAME":"安南區","LI":"海南里","LIN":"1鄰","STREET":"府安路","SECT":"六段","MAREA":" ","LANE":"１０３巷","ALLEY":"１１１弄","HOUSE_NO":"２３號","E_COORD97":166590.92999999999,"N_COORD97":2546752.9399999999,"ADDRESS":"府安路六段１０３巷１１１弄２３號","OBJECTID":59648},"geometry":{"x":166590.9299999997,"y":2546752.9399999995}},{"attributes":{"ID":59649,"DIS_CODE":0,"TOWNNAME":"安南區","LI":"海南里","LIN":"1鄰","STREET":"府安路","SECT":"六段","MAREA":" ","LANE":"１０３巷","ALLEY":"１１１弄","HOUSE_NO":"２４號","E_COORD97":166587.57000000001,"N_COORD97":2546768.7400000002,"ADDRESS":"府安路六段１０３巷１１１弄２４號","OBJECTID":59649},"geometry":{"x":166587.57000000216,"y":2546768.7400000002}},{"attributes":{"ID":59650,"DIS_CODE":0,"TOWNNAME":"安南區","LI":"海南里","LIN":"1鄰","STREET":"府安路","SECT":"六段","MAREA":" ","LANE":"１０３巷","ALLEY":"１１１弄","HOUSE_NO":"２５號","E_COORD97":166583.92000000001,"N_COORD97":2546751.7999999998,"ADDRESS":"府安路六段１０３巷１１１弄２５號","OBJECTID":59650},"geometry":{"x":166583.91999999993,"y":2546751.8000000007}},{"attributes":{"ID":59651,"DIS_CODE":0,"TOWNNAME":"安南區","LI":"海南里","LIN":"1鄰","STREET":"府安路","SECT":"六段","MAREA":" ","LANE":"１０３巷","ALLEY":"１１１弄","HOUSE_NO":"２６號","E_COORD97":166581.85999999999,"N_COORD97":2546767.3500000001,"ADDRESS":"府安路六段１０３巷１１１弄２６號","OBJECTID":59651},"geometry":{"x":166581.86000000034,"y":2546767.3499999996}},{"attributes":{"ID":59652,"DIS_CODE":0,"TOWNNAME":"關廟區","LI":"龜洞里","LIN":"7鄰","STREET":"南雄南路","SECT":" ","MAREA":" ","LANE":"７０１巷","ALLEY":"１６弄","HOUSE_NO":"３號","E_COORD97":183367.483435,"N_COORD97":2533401.7285799999,"ADDRESS":"南雄南路７０１巷１６弄３號","OBJECTID":59652},"geometry":{"x":183367.48343500122,"y":2533401.7285770029}},{"attributes":{"ID":59653,"DIS_CODE":0,"TOWNNAME":"安南區","LI":"海南里","LIN":"1鄰","STREET":"府安路","SECT":"六段","MAREA":" ","LANE":"１０３巷","ALLEY":"１１１弄","HOUSE_NO":"２７號","E_COORD97":166578.06,"N_COORD97":2546750.1699999999,"ADDRESS":"府安路六段１０３巷１１１弄２７號","OBJECTID":59653},"geometry":{"x":166578.05999999959,"y":2546750.1700000018}},{"attributes":{"ID":59654,"DIS_CODE":0,"TOWNNAME":"安南區","LI":"海南里","LIN":"1鄰","STREET":"府安路","SECT":"六段","MAREA":" ","LANE":"１０３巷","ALLEY":"１１１弄","HOUSE_NO":"２８號","E_COORD97":166574.04000000001,"N_COORD97":2546765.9700000002,"ADDRESS":"府安路六段１０３巷１１１弄２８號","OBJECTID":59654},"geometry":{"x":166574.04000000097,"y":2546765.9700000025}},{"attributes":{"ID":59655,"DIS_CODE":0,"TOWNNAME":"安南區","LI":"海南里","LIN":"1鄰","STREET":"府安路","SECT":"六段","MAREA":" ","LANE":"１０３巷","ALLEY":"１１１弄","HOUSE_NO":"２９號","E_COORD97":166571.03,"N_COORD97":2546749.2000000002,"ADDRESS":"府安路六段１０３巷１１１弄２９號","OBJECTID":59655},"geometry":{"x":166571.03000000119,"y":2546749.2000000011}},{"attributes":{"ID":59656,"DIS_CODE":0,"TOWNNAME":"安南區","LI":"海南里","LIN":"1鄰","STREET":"府安路","SECT":"六段","MAREA":" ","LANE":"１０３巷","ALLEY":"１１１弄","HOUSE_NO":"２號","E_COORD97":166661.88,"N_COORD97":2546781.1600000001,"ADDRESS":"府安路六段１０３巷１１１弄２號","OBJECTID":59656},"geometry":{"x":166661.88000000082,"y":2546781.160000002}},{"attributes":{"ID":59657,"DIS_CODE":0,"TOWNNAME":"安南區","LI":"海南里","LIN":"1鄰","STREET":"府安路","SECT":"六段","MAREA":" ","LANE":"１０３巷","ALLEY":"１１１弄","HOUSE_NO":"３０號","E_COORD97":166567.44,"N_COORD97":2546764.5,"ADDRESS":"府安路六段１０３巷１１１弄３０號","OBJECTID":59657},"geometry":{"x":166567.44000000041,"y":2546764.5000000019}},{"attributes":{"ID":59658,"DIS_CODE":0,"TOWNNAME":"安南區","LI":"海南里","LIN":"1鄰","STREET":"府安路","SECT":"六段","MAREA":" ","LANE":"１０３巷","ALLEY":"１１１弄","HOUSE_NO":"３１號","E_COORD97":166564.10000000001,"N_COORD97":2546747.9700000002,"ADDRESS":"府安路六段１０３巷１１１弄３１號","OBJECTID":59658},"geometry":{"x":166564.09999999963,"y":2546747.9700000025}},{"attributes":{"ID":59659,"DIS_CODE":0,"TOWNNAME":"安南區","LI":"海南里","LIN":"1鄰","STREET":"府安路","SECT":"六段","MAREA":" ","LANE":"１０３巷","ALLEY":"１１１弄","HOUSE_NO":"３３號","E_COORD97":166556.28,"N_COORD97":2546747.5699999998,"ADDRESS":"府安路六段１０３巷１１１弄３３號","OBJECTID":59659},"geometry":{"x":166556.28000000119,"y":2546747.5700000022}},{"attributes":{"ID":59660,"DIS_CODE":0,"TOWNNAME":"安南區","LI":"海南里","LIN":"1鄰","STREET":"府安路","SECT":"六段","MAREA":" ","LANE":"１０３巷","ALLEY":"１１１弄","HOUSE_NO":"３５號","E_COORD97":166551.22,"N_COORD97":2546746.5899999999,"ADDRESS":"府安路六段１０３巷１１１弄３５號","OBJECTID":59660},"geometry":{"x":166551.21999999974,"y":2546746.5900000017}},{"attributes":{"ID":59661,"DIS_CODE":0,"TOWNNAME":"安南區","LI":"海南里","LIN":"1鄰","STREET":"府安路","SECT":"六段","MAREA":" ","LANE":"１０３巷","ALLEY":"１１１弄","HOUSE_NO":"３號","E_COORD97":166657.56,"N_COORD97":2546765.7200000002,"ADDRESS":"府安路六段１０３巷１１１弄３號","OBJECTID":59661},"geometry":{"x":166657.55999999959,"y":2546765.7200000007}},{"attributes":{"ID":59662,"DIS_CODE":0,"TOWNNAME":"安南區","LI":"海南里","LIN":"1鄰","STREET":"府安路","SECT":"六段","MAREA":" ","LANE":"１０３巷","ALLEY":"１１１弄","HOUSE_NO":"４號","E_COORD97":166655,"N_COORD97":2546779.0299999998,"ADDRESS":"府安路六段１０３巷１１１弄４號","OBJECTID":59662},"geometry":{"x":166655,"y":2546779.0299999993}},{"attributes":{"ID":59663,"DIS_CODE":0,"TOWNNAME":"安南區","LI":"海南里","LIN":"1鄰","STREET":"府安路","SECT":"六段","MAREA":" ","LANE":"１０３巷","ALLEY":"１１１弄","HOUSE_NO":"６號","E_COORD97":166647.17999999999,"N_COORD97":2546779.8500000001,"ADDRESS":"府安路六段１０３巷１１１弄６號","OBJECTID":59663},"geometry":{"x":166647.18000000156,"y":2546779.8499999996}},{"attributes":{"ID":59664,"DIS_CODE":0,"TOWNNAME":"安南區","LI":"海南里","LIN":"1鄰","STREET":"府安路","SECT":"六段","MAREA":" ","LANE":"１０３巷","ALLEY":"１１１弄","HOUSE_NO":"７號","E_COORD97":166645.17000000001,"N_COORD97":2546763.1200000001,"ADDRESS":"府安路六段１０３巷１１１弄７號","OBJECTID":59664},"geometry":{"x":166645.16999999993,"y":2546763.120000001}},{"attributes":{"ID":59665,"DIS_CODE":0,"TOWNNAME":"安南區","LI":"海南里","LIN":"1鄰","STREET":"府安路","SECT":"六段","MAREA":" ","LANE":"１０３巷","ALLEY":"１１１弄","HOUSE_NO":"９號","E_COORD97":166637.51000000001,"N_COORD97":2546761.6499999999,"ADDRESS":"府安路六段１０３巷１１１弄９號","OBJECTID":59665},"geometry":{"x":166637.50999999978,"y":2546761.6500000004}},{"attributes":{"ID":59666,"DIS_CODE":0,"TOWNNAME":"善化區","LI":"小新里","LIN":"1鄰","STREET":"成功路","SECT":" ","MAREA":" ","LANE":"３巷","ALLEY":"６６弄","HOUSE_NO":"９號","E_COORD97":179997.57999999999,"N_COORD97":2558313.75,"ADDRESS":"成功路３巷６６弄９號","OBJECTID":59666},"geometry":{"x":179997.58000000007,"y":2558313.7500000019}},{"attributes":{"ID":59667,"DIS_CODE":0,"TOWNNAME":"善化區","LI":"小新里","LIN":"1鄰","STREET":"成功路","SECT":" ","MAREA":" ","LANE":"３巷","ALLEY":"６６弄","HOUSE_NO":"６號","E_COORD97":179994.98000000001,"N_COORD97":2558325,"ADDRESS":"成功路３巷６６弄６號","OBJECTID":59667},"geometry":{"x":179994.98000000045,"y":2558325.0000000037}},{"attributes":{"ID":59668,"DIS_CODE":0,"TOWNNAME":"善化區","LI":"小新里","LIN":"1鄰","STREET":"成功路","SECT":" ","MAREA":" ","LANE":"３巷","ALLEY":"６６弄","HOUSE_NO":"１０號","E_COORD97":179998.82000000001,"N_COORD97":2558309.75,"ADDRESS":"成功路３巷６６弄１０號","OBJECTID":59668},"geometry":{"x":179998.82000000123,"y":2558309.7500000037}},{"attributes":{"ID":59669,"DIS_CODE":0,"TOWNNAME":"東區","LI":"關聖里","LIN":"1鄰","STREET":"富農街","SECT":"二段","MAREA":" ","LANE":"９２巷","ALLEY":"１２弄","HOUSE_NO":"１１號","E_COORD97":171702.81,"N_COORD97":2543016.6899999999,"ADDRESS":"富農街二段９２巷１２弄１１號","OBJECTID":59669},"geometry":{"x":171702.81000000145,"y":2543016.6900000013}},{"attributes":{"ID":59670,"DIS_CODE":0,"TOWNNAME":"東區","LI":"關聖里","LIN":"1鄰","STREET":"富農街","SECT":"二段","MAREA":" ","LANE":"９２巷","ALLEY":"１２弄","HOUSE_NO":"１３號","E_COORD97":171703.10000000001,"N_COORD97":2543013.1099999999,"ADDRESS":"富農街二段９２巷１２弄１３號","OBJECTID":59670},"geometry":{"x":171703.10000000056,"y":2543013.1100000013}},{"attributes":{"ID":59671,"DIS_CODE":0,"TOWNNAME":"東區","LI":"關聖里","LIN":"1鄰","STREET":"富農街","SECT":"二段","MAREA":" ","LANE":"９２巷","ALLEY":"１２弄","HOUSE_NO":"１５號","E_COORD97":171703.10000000001,"N_COORD97":2543008.3700000001,"ADDRESS":"富農街二段９２巷１２弄１５號","OBJECTID":59671},"geometry":{"x":171703.10000000056,"y":2543008.370000001}},{"attributes":{"ID":59672,"DIS_CODE":0,"TOWNNAME":"東區","LI":"關聖里","LIN":"1鄰","STREET":"富農街","SECT":"二段","MAREA":" ","LANE":"９２巷","ALLEY":"１２弄","HOUSE_NO":"１７號","E_COORD97":171699.39000000001,"N_COORD97":2543001.9199999999,"ADDRESS":"富農街二段９２巷１２弄１７號","OBJECTID":59672},"geometry":{"x":171699.3900000006,"y":2543001.9200000018}},{"attributes":{"ID":59673,"DIS_CODE":0,"TOWNNAME":"鹽水區","LI":"水正里","LIN":"1鄰","STREET":" ","SECT":" ","MAREA":"過港","LANE":" ","ALLEY":" ","HOUSE_NO":"１５號","E_COORD97":175270.66,"N_COORD97":2579814.5800000001,"ADDRESS":"過港１５號","OBJECTID":59673},"geometry":{"x":175270.66000000015,"y":2579814.5800000001}},{"attributes":{"ID":59674,"DIS_CODE":0,"TOWNNAME":"六甲區","LI":"甲東里","LIN":" ","STREET":"忠孝街","SECT":" ","MAREA":" ","LANE":" ","ALLEY":" ","HOUSE_NO":"２１５號","E_COORD97":184018.35000000001,"N_COORD97":2570078.3500000001,"ADDRESS":"忠孝街２１５號","OBJECTID":59674},"geometry":{"x":184018.35000000056,"y":2570078.3499999996}},{"attributes":{"ID":59675,"DIS_CODE":0,"TOWNNAME":"六甲區","LI":"甲東里","LIN":" ","STREET":"忠孝街","SECT":" ","MAREA":" ","LANE":" ","ALLEY":" ","HOUSE_NO":"７４號","E_COORD97":183884.70999999999,"N_COORD97":2569570.52,"ADDRESS":"忠孝街７４號","OBJECTID":59675},"geometry":{"x":183884.71000000089,"y":2569570.5200000014}},{"attributes":{"ID":59676,"DIS_CODE":0,"TOWNNAME":"東區","LI":"關聖里","LIN":"1鄰","STREET":"富農街","SECT":"二段","MAREA":" ","LANE":"９２巷","ALLEY":"１２弄","HOUSE_NO":"１號","E_COORD97":171700.79999999999,"N_COORD97":2543036.0600000001,"ADDRESS":"富農街二段９２巷１２弄１號","OBJECTID":59676},"geometry":{"x":171700.79999999981,"y":2543036.0600000024}},{"attributes":{"ID":59677,"DIS_CODE":0,"TOWNNAME":"東區","LI":"關聖里","LIN":"1鄰","STREET":"富農街","SECT":"二段","MAREA":" ","LANE":"９２巷","ALLEY":"１２弄","HOUSE_NO":"２１號","E_COORD97":171700.82000000001,"N_COORD97":2542973.2599999998,"ADDRESS":"富農街二段９２巷１２弄２１號","OBJECTID":59677},"geometry":{"x":171700.82000000123,"y":2542973.2599999998}},{"attributes":{"ID":59678,"DIS_CODE":0,"TOWNNAME":"東區","LI":"關聖里","LIN":"1鄰","STREET":"富農街","SECT":"二段","MAREA":" ","LANE":"９２巷","ALLEY":"１２弄","HOUSE_NO":"２號","E_COORD97":171681.42000000001,"N_COORD97":2543021,"ADDRESS":"富農街二段９２巷１２弄２號","OBJECTID":59678},"geometry":{"x":171681.41999999993,"y":2543021.0000000019}},{"attributes":{"ID":59679,"DIS_CODE":0,"TOWNNAME":"東區","LI":"關聖里","LIN":"1鄰","STREET":"富農街","SECT":"二段","MAREA":" ","LANE":"９２巷","ALLEY":"１２弄","HOUSE_NO":"３號","E_COORD97":171701.38,"N_COORD97":2543032.4700000002,"ADDRESS":"富農街二段９２巷１２弄３號","OBJECTID":59679},"geometry":{"x":171701.38000000082,"y":2543032.4700000025}},{"attributes":{"ID":59680,"DIS_CODE":0,"TOWNNAME":"東區","LI":"關聖里","LIN":"1鄰","STREET":"富農街","SECT":"二段","MAREA":" ","LANE":"９２巷","ALLEY":"１２弄","HOUSE_NO":"４號","E_COORD97":171681.70999999999,"N_COORD97":2543016.1200000001,"ADDRESS":"富農街二段９２巷１２弄４號","OBJECTID":59680},"geometry":{"x":171681.70999999996,"y":2543016.120000001}},{"attributes":{"ID":59681,"DIS_CODE":0,"TOWNNAME":"東區","LI":"關聖里","LIN":"1鄰","STREET":"富農街","SECT":"二段","MAREA":" ","LANE":"９２巷","ALLEY":"１２弄","HOUSE_NO":"５號","E_COORD97":171701.81,"N_COORD97":2543028.1699999999,"ADDRESS":"富農街二段９２巷１２弄５號","OBJECTID":59681},"geometry":{"x":171701.81000000052,"y":2543028.1699999999}},{"attributes":{"ID":59682,"DIS_CODE":0,"TOWNNAME":"東區","LI":"關聖里","LIN":"1鄰","STREET":"富農街","SECT":"二段","MAREA":" ","LANE":"９２巷","ALLEY":"１２弄","HOUSE_NO":"６號","E_COORD97":171682.42999999999,"N_COORD97":2543010.9500000002,"ADDRESS":"富農街二段９２巷１２弄６號","OBJECTID":59682},"geometry":{"x":171682.43000000063,"y":2543010.9500000011}},{"attributes":{"ID":59683,"DIS_CODE":0,"TOWNNAME":"東區","LI":"關聖里","LIN":"1鄰","STREET":"富農街","SECT":"二段","MAREA":" ","LANE":"９２巷","ALLEY":"１２弄","HOUSE_NO":"７號","E_COORD97":171702.81,"N_COORD97":2543024.8700000001,"ADDRESS":"富農街二段９２巷１２弄７號","OBJECTID":59683},"geometry":{"x":171702.81000000145,"y":2543024.870000001}},{"attributes":{"ID":59684,"DIS_CODE":0,"TOWNNAME":"東區","LI":"關聖里","LIN":"1鄰","STREET":"富農街","SECT":"二段","MAREA":" ","LANE":"９２巷","ALLEY":"１２弄","HOUSE_NO":"９號","E_COORD97":171702.95000000001,"N_COORD97":2543021,"ADDRESS":"富農街二段９２巷１２弄９號","OBJECTID":59684},"geometry":{"x":171702.95000000112,"y":2543021.0000000019}},{"attributes":{"ID":59685,"DIS_CODE":0,"TOWNNAME":"東區","LI":"關聖里","LIN":"1鄰","STREET":"富農街","SECT":"二段","MAREA":" ","LANE":"９２巷","ALLEY":"２弄","HOUSE_NO":"１１號","E_COORD97":171666.39000000001,"N_COORD97":2542995.7400000002,"ADDRESS":"富農街二段９２巷２弄１１號","OBJECTID":59685},"geometry":{"x":171666.38999999966,"y":2542995.7400000039}},{"attributes":{"ID":59686,"DIS_CODE":0,"TOWNNAME":"關廟區","LI":"龜洞里","LIN":"7鄰","STREET":"南雄南路","SECT":" ","MAREA":" ","LANE":"７０１巷","ALLEY":"１６弄","HOUSE_NO":"５號","E_COORD97":183363.03411800001,"N_COORD97":2533400.4585799999,"ADDRESS":"南雄南路７０１巷１６弄５號","OBJECTID":59686},"geometry":{"x":183363.03411800135,"y":2533400.4585780017}},{"attributes":{"ID":59687,"DIS_CODE":0,"TOWNNAME":"東區","LI":"關聖里","LIN":"1鄰","STREET":"富農街","SECT":"二段","MAREA":" ","LANE":"９２巷","ALLEY":"２弄","HOUSE_NO":"１５號","E_COORD97":171667.47,"N_COORD97":2542986.8900000001,"ADDRESS":"富農街二段９２巷２弄１５號","OBJECTID":59687},"geometry":{"x":171667.46999999974,"y":2542986.8900000006}},{"attributes":{"ID":59688,"DIS_CODE":0,"TOWNNAME":"東區","LI":"關聖里","LIN":"1鄰","STREET":"富農街","SECT":"二段","MAREA":" ","LANE":"９２巷","ALLEY":"２弄","HOUSE_NO":"１７號","E_COORD97":171667.95999999999,"N_COORD97":2542982.8599999999,"ADDRESS":"富農街二段９２巷２弄１７號","OBJECTID":59688},"geometry":{"x":171667.95999999996,"y":2542982.8599999994}},{"attributes":{"ID":59689,"DIS_CODE":0,"TOWNNAME":"東區","LI":"關聖里","LIN":"1鄰","STREET":"富農街","SECT":"二段","MAREA":" ","LANE":"９２巷","ALLEY":"２弄","HOUSE_NO":"１９號","E_COORD97":171667.95999999999,"N_COORD97":2542978.6000000001,"ADDRESS":"富農街二段９２巷２弄１９號","OBJECTID":59689},"geometry":{"x":171667.95999999996,"y":2542978.5999999996}},{"attributes":{"ID":59690,"DIS_CODE":0,"TOWNNAME":"東區","LI":"關聖里","LIN":"1鄰","STREET":"富農街","SECT":"二段","MAREA":" ","LANE":"９２巷","ALLEY":"２弄","HOUSE_NO":"１號","E_COORD97":171665.76999999999,"N_COORD97":2543019.7599999998,"ADDRESS":"富農街二段９２巷２弄１號","OBJECTID":59690},"geometry":{"x":171665.77000000142,"y":2543019.7600000016}},{"attributes":{"ID":59691,"DIS_CODE":0,"TOWNNAME":"東區","LI":"關聖里","LIN":"1鄰","STREET":"富農街","SECT":"二段","MAREA":" ","LANE":"９２巷","ALLEY":"２弄","HOUSE_NO":"２１號","E_COORD97":171674.73999999999,"N_COORD97":2542965.23,"ADDRESS":"富農街二段９２巷２弄２１號","OBJECTID":59691},"geometry":{"x":171674.74000000022,"y":2542965.2300000042}},{"attributes":{"ID":59692,"DIS_CODE":0,"TOWNNAME":"東區","LI":"關聖里","LIN":"1鄰","STREET":"富農街","SECT":"二段","MAREA":" ","LANE":"９２巷","ALLEY":"２弄","HOUSE_NO":"３號","E_COORD97":171665.76999999999,"N_COORD97":2543015.5800000001,"ADDRESS":"富農街二段９２巷２弄３號","OBJECTID":59692},"geometry":{"x":171665.77000000142,"y":2543015.5800000001}},{"attributes":{"ID":59693,"DIS_CODE":0,"TOWNNAME":"東區","LI":"關聖里","LIN":"1鄰","STREET":"富農街","SECT":"二段","MAREA":" ","LANE":"９２巷","ALLEY":"２弄","HOUSE_NO":"５號","E_COORD97":171666.19,"N_COORD97":2543010.7799999998,"ADDRESS":"富農街二段９２巷２弄５號","OBJECTID":59693},"geometry":{"x":171666.19000000134,"y":2543010.7799999993}},{"attributes":{"ID":59694,"DIS_CODE":0,"TOWNNAME":"東區","LI":"關聖里","LIN":"1鄰","STREET":"富農街","SECT":"二段","MAREA":" ","LANE":"９２巷","ALLEY":"２弄","HOUSE_NO":"７號","E_COORD97":171666.39000000001,"N_COORD97":2543005.5600000001,"ADDRESS":"富農街二段９２巷２弄７號","OBJECTID":59694},"geometry":{"x":171666.38999999966,"y":2543005.5600000024}},{"attributes":{"ID":59695,"DIS_CODE":0,"TOWNNAME":"東區","LI":"關聖里","LIN":"1鄰","STREET":"富農街","SECT":"二段","MAREA":" ","LANE":"９２巷","ALLEY":"２弄","HOUSE_NO":"９號","E_COORD97":171666.81,"N_COORD97":2543000.96,"ADDRESS":"富農街二段９２巷２弄９號","OBJECTID":59695},"geometry":{"x":171666.80999999959,"y":2543000.9600000009}},{"attributes":{"ID":59696,"DIS_CODE":0,"TOWNNAME":"鹽水區","LI":"舊營里","LIN":"1鄰","STREET":" ","SECT":" ","MAREA":"舊營","LANE":" ","ALLEY":" ","HOUSE_NO":"１之１號","E_COORD97":174439.76000000001,"N_COORD97":2578657.4900000002,"ADDRESS":"舊營１之１號","OBJECTID":59696},"geometry":{"x":174439.76000000071,"y":2578657.4900000039}},{"attributes":{"ID":59697,"DIS_CODE":0,"TOWNNAME":"東區","LI":"關聖里","LIN":"1鄰","STREET":"富農街","SECT":"二段","MAREA":" ","LANE":"９２巷","ALLEY":"１２弄","HOUSE_NO":"８號","E_COORD97":171682.70999999999,"N_COORD97":2543007.0800000001,"ADDRESS":"富農街二段９２巷１２弄８號","OBJECTID":59697},"geometry":{"x":171682.71000000089,"y":2543007.0800000019}},{"attributes":{"ID":59698,"DIS_CODE":0,"TOWNNAME":"永康區","LI":"尚頂里","LIN":"1鄰","STREET":"中正南路","SECT":" ","MAREA":" ","LANE":"３０６巷","ALLEY":"３３弄","HOUSE_NO":"３號","E_COORD97":170842.78,"N_COORD97":2547718.77,"ADDRESS":"中正南路３０６巷３３弄３號","OBJECTID":59698},"geometry":{"x":170842.78000000119,"y":2547718.7700000014}},{"attributes":{"ID":59699,"DIS_CODE":0,"TOWNNAME":"永康區","LI":"尚頂里","LIN":"1鄰","STREET":"中正南路","SECT":" ","MAREA":" ","LANE":"３０６巷","ALLEY":"３３弄","HOUSE_NO":"８號","E_COORD97":170882.98999999999,"N_COORD97":2547710.2400000002,"ADDRESS":"中正南路３０６巷３３弄８號","OBJECTID":59699},"geometry":{"x":170882.99000000022,"y":2547710.2400000002}},{"attributes":{"ID":59700,"DIS_CODE":0,"TOWNNAME":"永康區","LI":"\u25A0行里","LIN":"1鄰","STREET":"中正路","SECT":" ","MAREA":" ","LANE":"９７０巷","ALLEY":"１８弄","HOUSE_NO":"１號","E_COORD97":172036.45999999999,"N_COORD97":2548994.04,"ADDRESS":"中正路９７０巷１８弄１號","OBJECTID":59700},"geometry":{"x":172036.46000000089,"y":2548994.040000001}},{"attributes":{"ID":59701,"DIS_CODE":0,"TOWNNAME":"永康區","LI":"\u25A0行里","LIN":"1鄰","STREET":"中正路","SECT":" ","MAREA":" ","LANE":"９７０巷","ALLEY":"１８弄","HOUSE_NO":"７號","E_COORD97":172049.81,"N_COORD97":2548982.5299999998,"ADDRESS":"中正路９７０巷１８弄７號","OBJECTID":59701},"geometry":{"x":172049.80999999959,"y":2548982.5299999993}},{"attributes":{"ID":59702,"DIS_CODE":0,"TOWNNAME":"永康區","LI":"\u25A0行里","LIN":"1鄰","STREET":"中正路","SECT":" ","MAREA":" ","LANE":"９７０巷","ALLEY":"１８弄","HOUSE_NO":"９號","E_COORD97":172060.12,"N_COORD97":2548979.0299999998,"ADDRESS":"中正路９７０巷１８弄９號","OBJECTID":59702},"geometry":{"x":172060.12000000011,"y":2548979.0299999993}},{"attributes":{"ID":59703,"DIS_CODE":0,"TOWNNAME":"安南區","LI":"海南里","LIN":"1鄰","STREET":"府安路","SECT":"六段","MAREA":" ","LANE":"１０３巷","ALLEY":"１１１弄","HOUSE_NO":"３４號","E_COORD97":166554.56,"N_COORD97":2546762.3900000001,"ADDRESS":"府安路六段１０３巷１１１弄３４號","OBJECTID":59703},"geometry":{"x":166554.56000000145,"y":2546762.3900000025}},{"attributes":{"ID":59704,"DIS_CODE":0,"TOWNNAME":"安南區","LI":"溪頂里","LIN":"1鄰","STREET":"府安路","SECT":"四段","MAREA":" ","LANE":"９１巷","ALLEY":"２３弄","HOUSE_NO":"６號","E_COORD97":169078.14000000001,"N_COORD97":2547360.8900000001,"ADDRESS":"府安路四段９１巷２３弄６號","OBJECTID":59704},"geometry":{"x":169078.13999999873,"y":2547360.8900000006}},{"attributes":{"ID":59705,"DIS_CODE":0,"TOWNNAME":"鹽水區","LI":"水正里","LIN":"1鄰","STREET":" ","SECT":" ","MAREA":"過港","LANE":" ","ALLEY":" ","HOUSE_NO":"１６號","E_COORD97":175258.94,"N_COORD97":2579822.0099999998,"ADDRESS":"過港１６號","OBJECTID":59705},"geometry":{"x":175258.94000000041,"y":2579822.0099999998}},{"attributes":{"ID":59706,"DIS_CODE":0,"TOWNNAME":"永康區","LI":"蔦松里","LIN":"1鄰","STREET":"蔦松二街","SECT":" ","MAREA":" ","LANE":"８７巷","ALLEY":"３０弄","HOUSE_NO":"５０之１號","E_COORD97":173488.70999999999,"N_COORD97":2549331.5800000001,"ADDRESS":"蔦松二街８７巷３０弄５０之１號","OBJECTID":59706},"geometry":{"x":173488.70999999996,"y":2549331.5800000001}},{"attributes":{"ID":59707,"DIS_CODE":0,"TOWNNAME":"永康區","LI":"新樹里","LIN":"1鄰","STREET":"富強路","SECT":"二段","MAREA":" ","LANE":"２７５巷","ALLEY":"２弄","HOUSE_NO":"３之１號","E_COORD97":175572.60999999999,"N_COORD97":2547465.25,"ADDRESS":"富強路二段２７５巷２弄３之１號","OBJECTID":59707},"geometry":{"x":175572.61000000034,"y":2547465.2500000019}},{"attributes":{"ID":59708,"DIS_CODE":0,"TOWNNAME":"鹽水區","LI":"水正里","LIN":"1鄰","STREET":" ","SECT":" ","MAREA":"過港","LANE":" ","ALLEY":" ","HOUSE_NO":"１７號","E_COORD97":175255.19,"N_COORD97":2579800.8100000001,"ADDRESS":"過港１７號","OBJECTID":59708},"geometry":{"x":175255.19000000041,"y":2579800.8100000005}},{"attributes":{"ID":59709,"DIS_CODE":0,"TOWNNAME":"鹽水區","LI":"水正里","LIN":"1鄰","STREET":" ","SECT":" ","MAREA":"過港","LANE":" ","ALLEY":" ","HOUSE_NO":"２１號之１","E_COORD97":175242.48000000001,"N_COORD97":2579804.9900000002,"ADDRESS":"過港２１號之１","OBJECTID":59709},"geometry":{"x":175242.48000000138,"y":2579804.9900000002}},{"attributes":{"ID":59710,"DIS_CODE":0,"TOWNNAME":"永康區","LI":"新樹里","LIN":"1鄰","STREET":"富強路","SECT":"二段","MAREA":" ","LANE":"２７５巷","ALLEY":"２弄","HOUSE_NO":"５號","E_COORD97":175570.10999999999,"N_COORD97":2547468.98,"ADDRESS":"富強路二段２７５巷２弄５號","OBJECTID":59710},"geometry":{"x":175570.1100000022,"y":2547468.9800000004}},{"attributes":{"ID":59711,"DIS_CODE":0,"TOWNNAME":"永康區","LI":"蔦松里","LIN":"1鄰","STREET":"蔦松二街","SECT":" ","MAREA":" ","LANE":"８７巷","ALLEY":"３０弄","HOUSE_NO":"５６號","E_COORD97":173452.94,"N_COORD97":2549335.7400000002,"ADDRESS":"蔦松二街８７巷３０弄５６號","OBJECTID":59711},"geometry":{"x":173452.94000000134,"y":2549335.7400000039}},{"attributes":{"ID":59712,"DIS_CODE":0,"TOWNNAME":"永康區","LI":"蔦松里","LIN":"1鄰","STREET":"蔦松二街","SECT":" ","MAREA":" ","LANE":"８７巷","ALLEY":"３０弄","HOUSE_NO":"５８號","E_COORD97":173448.09,"N_COORD97":2549335.7400000002,"ADDRESS":"蔦松二街８７巷３０弄５８號","OBJECTID":59712},"geometry":{"x":173448.09000000078,"y":2549335.7400000039}},{"attributes":{"ID":59713,"DIS_CODE":0,"TOWNNAME":"永康區","LI":"新樹里","LIN":"1鄰","STREET":"富強路","SECT":"二段","MAREA":" ","LANE":"２７５巷","ALLEY":"２弄","HOUSE_NO":"３號","E_COORD97":175570.25,"N_COORD97":2547461.48,"ADDRESS":"富強路二段２７５巷２弄３號","OBJECTID":59713},"geometry":{"x":175570.25,"y":2547461.4800000004}},{"attributes":{"ID":59714,"DIS_CODE":0,"TOWNNAME":"永康區","LI":"新樹里","LIN":"1鄰","STREET":"富強路","SECT":"二段","MAREA":" ","LANE":"２７５巷","ALLEY":"２弄","HOUSE_NO":"７號","E_COORD97":175570.16,"N_COORD97":2547477.23,"ADDRESS":"富強路二段２７５巷２弄７號","OBJECTID":59714},"geometry":{"x":175570.16000000108,"y":2547477.2300000004}},{"attributes":{"ID":59715,"DIS_CODE":0,"TOWNNAME":"仁德區","LI":"上崙里","LIN":"1鄰","STREET":"德崙路","SECT":" ","MAREA":" ","LANE":"７７巷","ALLEY":"１１４弄","HOUSE_NO":"５號","E_COORD97":173689.17999999999,"N_COORD97":2538440.27,"ADDRESS":"德崙路７７巷１１４弄５號","OBJECTID":59715},"geometry":{"x":173689.18000000063,"y":2538440.2699999996}},{"attributes":{"ID":59716,"DIS_CODE":0,"TOWNNAME":"仁德區","LI":"上崙里","LIN":"1鄰","STREET":"德崙路","SECT":" ","MAREA":" ","LANE":"７７巷","ALLEY":"１２０弄","HOUSE_NO":"５號","E_COORD97":173717.09,"N_COORD97":2538389.0899999999,"ADDRESS":"德崙路７７巷１２０弄５號","OBJECTID":59716},"geometry":{"x":173717.09000000078,"y":2538389.0900000017}},{"attributes":{"ID":59717,"DIS_CODE":0,"TOWNNAME":"仁德區","LI":"上崙里","LIN":"1鄰","STREET":"德崙路","SECT":" ","MAREA":" ","LANE":"７７巷","ALLEY":"１１４弄","HOUSE_NO":"７號","E_COORD97":173686.98000000001,"N_COORD97":2538437.02,"ADDRESS":"德崙路７７巷１１４弄７號","OBJECTID":59717},"geometry":{"x":173686.98000000045,"y":2538437.0200000014}},{"attributes":{"ID":59718,"DIS_CODE":0,"TOWNNAME":"仁德區","LI":"上崙里","LIN":"1鄰","STREET":"德崙路","SECT":" ","MAREA":" ","LANE":"７７巷","ALLEY":"１１４弄","HOUSE_NO":"３號","E_COORD97":173691.32000000001,"N_COORD97":2538443.52,"ADDRESS":"德崙路７７巷１１４弄３號","OBJECTID":59718},"geometry":{"x":173691.3200000003,"y":2538443.5200000014}},{"attributes":{"ID":59719,"DIS_CODE":0,"TOWNNAME":"仁德區","LI":"上崙里","LIN":"1鄰","STREET":"德崙路","SECT":" ","MAREA":" ","LANE":"７７巷","ALLEY":"１２０弄","HOUSE_NO":"８號","E_COORD97":173678.26000000001,"N_COORD97":2538365.79,"ADDRESS":"德崙路７７巷１２０弄８號","OBJECTID":59719},"geometry":{"x":173678.26000000164,"y":2538365.7899999991}},{"attributes":{"ID":59720,"DIS_CODE":0,"TOWNNAME":"仁德區","LI":"上崙里","LIN":"1鄰","STREET":"德崙路","SECT":" ","MAREA":" ","LANE":"７７巷","ALLEY":"１２０弄","HOUSE_NO":"１號","E_COORD97":173722.79000000001,"N_COORD97":2538396.3399999999,"ADDRESS":"德崙路７７巷１２０弄１號","OBJECTID":59720},"geometry":{"x":173722.79000000097,"y":2538396.3399999999}},{"attributes":{"ID":59721,"DIS_CODE":0,"TOWNNAME":"鹽水區","LI":"水正里","LIN":"1鄰","STREET":" ","SECT":" ","MAREA":"過港","LANE":" ","ALLEY":" ","HOUSE_NO":"２１號","E_COORD97":175174.70000000001,"N_COORD97":2579789.79,"ADDRESS":"過港２１號","OBJECTID":59721},"geometry":{"x":175174.70000000112,"y":2579789.7900000028}},{"attributes":{"ID":59722,"DIS_CODE":0,"TOWNNAME":"鹽水區","LI":"水正里","LIN":"1鄰","STREET":" ","SECT":" ","MAREA":"過港","LANE":" ","ALLEY":" ","HOUSE_NO":"２２號之１","E_COORD97":175188,"N_COORD97":2579746.5099999998,"ADDRESS":"過港２２號之１","OBJECTID":59722},"geometry":{"x":175188.00000000093,"y":2579746.5100000016}},{"attributes":{"ID":59723,"DIS_CODE":0,"TOWNNAME":"鹽水區","LI":"水正里","LIN":"1鄰","STREET":" ","SECT":" ","MAREA":"過港","LANE":" ","ALLEY":" ","HOUSE_NO":"２２號之２","E_COORD97":175189.45999999999,"N_COORD97":2579742.1899999999,"ADDRESS":"過港２２號之２","OBJECTID":59723},"geometry":{"x":175189.46000000089,"y":2579742.1899999995}},{"attributes":{"ID":59724,"DIS_CODE":0,"TOWNNAME":"鹽水區","LI":"水正里","LIN":"1鄰","STREET":" ","SECT":" ","MAREA":"過港","LANE":" ","ALLEY":" ","HOUSE_NO":"２２號","E_COORD97":175183.14000000001,"N_COORD97":2579756.3300000001,"ADDRESS":"過港２２號","OBJECTID":59724},"geometry":{"x":175183.1400000006,"y":2579756.3300000001}},{"attributes":{"ID":59725,"DIS_CODE":0,"TOWNNAME":"鹽水區","LI":"水正里","LIN":"1鄰","STREET":" ","SECT":" ","MAREA":"過港","LANE":" ","ALLEY":" ","HOUSE_NO":"２３號之１","E_COORD97":175193.01999999999,"N_COORD97":2579717.7999999998,"ADDRESS":"過港２３號之１","OBJECTID":59725},"geometry":{"x":175193.01999999955,"y":2579717.8000000026}},{"attributes":{"ID":59726,"DIS_CODE":0,"TOWNNAME":"仁德區","LI":"仁義里","LIN":"1鄰","STREET":"義林路","SECT":" ","MAREA":" ","LANE":"１４５巷","ALLEY":"２弄","HOUSE_NO":"３之１號","E_COORD97":174257.09,"N_COORD97":2540626.27,"ADDRESS":"義林路１４５巷２弄３之１號","OBJECTID":59726},"geometry":{"x":174257.08999999985,"y":2540626.2700000014}},{"attributes":{"ID":59727,"DIS_CODE":0,"TOWNNAME":"新營區","LI":"大宏里","LIN":"8鄰","STREET":"文昌街","SECT":" ","MAREA":" ","LANE":" ","ALLEY":" ","HOUSE_NO":"１６號二樓之４","E_COORD97":180442.56,"N_COORD97":2578413.4500000002,"ADDRESS":"文昌街１６號二樓之４","OBJECTID":59727},"geometry":{"x":180442.55999999959,"y":2578413.4500000011}},{"attributes":{"ID":59728,"DIS_CODE":0,"TOWNNAME":"鹽水區","LI":"水正里","LIN":"1鄰","STREET":" ","SECT":" ","MAREA":"過港","LANE":" ","ALLEY":" ","HOUSE_NO":"２３號之２","E_COORD97":175246.88,"N_COORD97":2579701.6499999999,"ADDRESS":"過港２３號之２","OBJECTID":59728},"geometry":{"x":175246.87999999989,"y":2579701.6500000022}},{"attributes":{"ID":59729,"DIS_CODE":0,"TOWNNAME":"鹽水區","LI":"舊營里","LIN":"1鄰","STREET":" ","SECT":" ","MAREA":"舊營","LANE":" ","ALLEY":" ","HOUSE_NO":"１之２０號","E_COORD97":174481.04000000001,"N_COORD97":2578556.52,"ADDRESS":"舊營１之２０號","OBJECTID":59729},"geometry":{"x":174481.04000000004,"y":2578556.5199999996}},{"attributes":{"ID":59730,"DIS_CODE":0,"TOWNNAME":"新營區","LI":"大宏里","LIN":"8鄰","STREET":"文昌街","SECT":" ","MAREA":" ","LANE":" ","ALLEY":" ","HOUSE_NO":"１６號七樓之２","E_COORD97":180442.67000000001,"N_COORD97":2578413.4500000002,"ADDRESS":"文昌街１６號七樓之２","OBJECTID":59730},"geometry":{"x":180442.66999999993,"y":2578413.4500000011}},{"attributes":{"ID":59731,"DIS_CODE":0,"TOWNNAME":"新營區","LI":"大宏里","LIN":"8鄰","STREET":"文昌街","SECT":" ","MAREA":" ","LANE":" ","ALLEY":" ","HOUSE_NO":"１６號三樓之１","E_COORD97":180442.54000000001,"N_COORD97":2578413.4500000002,"ADDRESS":"文昌街１６號三樓之１","OBJECTID":59731},"geometry":{"x":180442.54000000097,"y":2578413.4500000011}},{"attributes":{"ID":59732,"DIS_CODE":0,"TOWNNAME":"鹽水區","LI":"水正里","LIN":"1鄰","STREET":" ","SECT":" ","MAREA":"過港","LANE":" ","ALLEY":" ","HOUSE_NO":"２３號之３","E_COORD97":175217.51999999999,"N_COORD97":2579716.9399999999,"ADDRESS":"過港２３號之３","OBJECTID":59732},"geometry":{"x":175217.52000000048,"y":2579716.9399999995}},{"attributes":{"ID":59733,"DIS_CODE":0,"TOWNNAME":"鹽水區","LI":"水正里","LIN":"1鄰","STREET":" ","SECT":" ","MAREA":"過港","LANE":" ","ALLEY":" ","HOUSE_NO":"２３號之４","E_COORD97":175198.20000000001,"N_COORD97":2579716.7000000002,"ADDRESS":"過港２３號之４","OBJECTID":59733},"geometry":{"x":175198.20000000112,"y":2579716.7000000011}},{"attributes":{"ID":59734,"DIS_CODE":0,"TOWNNAME":"鹽水區","LI":"水正里","LIN":"1鄰","STREET":" ","SECT":" ","MAREA":"過港","LANE":" ","ALLEY":" ","HOUSE_NO":"２３號","E_COORD97":175183.25,"N_COORD97":2579729.2000000002,"ADDRESS":"過港２３號","OBJECTID":59734},"geometry":{"x":175183.25,"y":2579729.1999999993}},{"attributes":{"ID":59735,"DIS_CODE":0,"TOWNNAME":"鹽水區","LI":"水正里","LIN":"1鄰","STREET":" ","SECT":" ","MAREA":"過港","LANE":" ","ALLEY":" ","HOUSE_NO":"２４之１０號","E_COORD97":175332.45999999999,"N_COORD97":2579703.79,"ADDRESS":"過港２４之１０號","OBJECTID":59735},"geometry":{"x":175332.46000000089,"y":2579703.7899999991}},{"attributes":{"ID":59736,"DIS_CODE":0,"TOWNNAME":"鹽水區","LI":"水正里","LIN":"1鄰","STREET":" ","SECT":" ","MAREA":"過港","LANE":" ","ALLEY":" ","HOUSE_NO":"２４之１１號","E_COORD97":175341.16,"N_COORD97":2579724.3700000001,"ADDRESS":"過港２４之１１號","OBJECTID":59736},"geometry":{"x":175341.16000000108,"y":2579724.3700000029}},{"attributes":{"ID":59737,"DIS_CODE":0,"TOWNNAME":"鹽水區","LI":"水正里","LIN":"1鄰","STREET":" ","SECT":" ","MAREA":"過港","LANE":" ","ALLEY":" ","HOUSE_NO":"２４之１２號","E_COORD97":175337.17000000001,"N_COORD97":2579702,"ADDRESS":"過港２４之１２號","OBJECTID":59737},"geometry":{"x":175337.17000000086,"y":2579702.0000000019}},{"attributes":{"ID":59738,"DIS_CODE":0,"TOWNNAME":"鹽水區","LI":"水正里","LIN":"1鄰","STREET":" ","SECT":" ","MAREA":"過港","LANE":" ","ALLEY":" ","HOUSE_NO":"２４之１３號","E_COORD97":175345.44,"N_COORD97":2579722.29,"ADDRESS":"過港２４之１３號","OBJECTID":59738},"geometry":{"x":175345.44000000041,"y":2579722.2900000028}},{"attributes":{"ID":59739,"DIS_CODE":0,"TOWNNAME":"鹽水區","LI":"水正里","LIN":"1鄰","STREET":" ","SECT":" ","MAREA":"過港","LANE":" ","ALLEY":" ","HOUSE_NO":"２４之１４號","E_COORD97":175341.29000000001,"N_COORD97":2579698.7999999998,"ADDRESS":"過港２４之１４號","OBJECTID":59739},"geometry":{"x":175341.2900000019,"y":2579698.8000000007}},{"attributes":{"ID":59740,"DIS_CODE":0,"TOWNNAME":"鹽水區","LI":"水正里","LIN":"1鄰","STREET":" ","SECT":" ","MAREA":"過港","LANE":" ","ALLEY":" ","HOUSE_NO":"２４之１５號","E_COORD97":175349.70999999999,"N_COORD97":2579720.21,"ADDRESS":"過港２４之１５號","OBJECTID":59740},"geometry":{"x":175349.70999999996,"y":2579720.2100000009}},{"attributes":{"ID":59741,"DIS_CODE":0,"TOWNNAME":"鹽水區","LI":"水正里","LIN":"1鄰","STREET":" ","SECT":" ","MAREA":"過港","LANE":" ","ALLEY":" ","HOUSE_NO":"２４之１６號","E_COORD97":175345.57000000001,"N_COORD97":2579696.21,"ADDRESS":"過港２４之１６號","OBJECTID":59741},"geometry":{"x":175345.57000000123,"y":2579696.2100000009}},{"attributes":{"ID":59742,"DIS_CODE":0,"TOWNNAME":"鹽水區","LI":"水正里","LIN":"1鄰","STREET":" ","SECT":" ","MAREA":"過港","LANE":" ","ALLEY":" ","HOUSE_NO":"２４之１７號","E_COORD97":175353.98999999999,"N_COORD97":2579718.1400000001,"ADDRESS":"過港２４之１７號","OBJECTID":59742},"geometry":{"x":175353.99000000115,"y":2579718.1400000025}},{"attributes":{"ID":59743,"DIS_CODE":0,"TOWNNAME":"鹽水區","LI":"水正里","LIN":"1鄰","STREET":" ","SECT":" ","MAREA":"過港","LANE":" ","ALLEY":" ","HOUSE_NO":"２４之１８號","E_COORD97":175349.29000000001,"N_COORD97":2579693.73,"ADDRESS":"過港２４之１８號","OBJECTID":59743},"geometry":{"x":175349.29000000004,"y":2579693.7300000023}},{"attributes":{"ID":59744,"DIS_CODE":0,"TOWNNAME":"鹽水區","LI":"水正里","LIN":"1鄰","STREET":" ","SECT":" ","MAREA":"過港","LANE":" ","ALLEY":" ","HOUSE_NO":"２４之１９號","E_COORD97":175358.26999999999,"N_COORD97":2579716.0600000001,"ADDRESS":"過港２４之１９號","OBJECTID":59744},"geometry":{"x":175358.27000000048,"y":2579716.0600000024}},{"attributes":{"ID":59745,"DIS_CODE":0,"TOWNNAME":"鹽水區","LI":"水正里","LIN":"1鄰","STREET":" ","SECT":" ","MAREA":"過港","LANE":" ","ALLEY":" ","HOUSE_NO":"２４號之１","E_COORD97":175384.44,"N_COORD97":2579713.8500000001,"ADDRESS":"過港２４號之１","OBJECTID":59745},"geometry":{"x":175384.44000000041,"y":2579713.8499999996}},{"attributes":{"ID":59746,"DIS_CODE":0,"TOWNNAME":"鹽水區","LI":"水正里","LIN":"1鄰","STREET":" ","SECT":" ","MAREA":"過港","LANE":" ","ALLEY":" ","HOUSE_NO":"２４之２０號","E_COORD97":175353.67999999999,"N_COORD97":2579692.3500000001,"ADDRESS":"過港２４之２０號","OBJECTID":59746},"geometry":{"x":175353.68000000156,"y":2579692.3500000015}},{"attributes":{"ID":59747,"DIS_CODE":0,"TOWNNAME":"鹽水區","LI":"水正里","LIN":"1鄰","STREET":" ","SECT":" ","MAREA":"過港","LANE":" ","ALLEY":" ","HOUSE_NO":"２４之２１號","E_COORD97":175362.54999999999,"N_COORD97":2579713.98,"ADDRESS":"過港２４之２１號","OBJECTID":59747},"geometry":{"x":175362.54999999981,"y":2579713.9800000004}},{"attributes":{"ID":59748,"DIS_CODE":0,"TOWNNAME":"鹽水區","LI":"水正里","LIN":"1鄰","STREET":" ","SECT":" ","MAREA":"過港","LANE":" ","ALLEY":" ","HOUSE_NO":"２４之２２號","E_COORD97":175357.35000000001,"N_COORD97":2579689.9100000001,"ADDRESS":"過港２４之２２號","OBJECTID":59748},"geometry":{"x":175357.3499999987,"y":2579689.910000002}},{"attributes":{"ID":59749,"DIS_CODE":0,"TOWNNAME":"鹽水區","LI":"水正里","LIN":"1鄰","STREET":" ","SECT":" ","MAREA":"過港","LANE":" ","ALLEY":" ","HOUSE_NO":"２４之２４號","E_COORD97":175361.42999999999,"N_COORD97":2579688.04,"ADDRESS":"過港２４之２４號","OBJECTID":59749},"geometry":{"x":175361.4299999997,"y":2579688.040000001}},{"attributes":{"ID":59750,"DIS_CODE":0,"TOWNNAME":"鹽水區","LI":"水正里","LIN":"1鄰","STREET":" ","SECT":" ","MAREA":"過港","LANE":" ","ALLEY":" ","HOUSE_NO":"２４之２６號","E_COORD97":175372.20999999999,"N_COORD97":2579692.3599999999,"ADDRESS":"過港２４之２６號","OBJECTID":59750},"geometry":{"x":175372.20999999903,"y":2579692.3600000013}},{"attributes":{"ID":59751,"DIS_CODE":0,"TOWNNAME":"鹽水區","LI":"水正里","LIN":"1鄰","STREET":" ","SECT":" ","MAREA":"過港","LANE":" ","ALLEY":" ","HOUSE_NO":"２４之２８號","E_COORD97":175371.17000000001,"N_COORD97":2579688.1400000001,"ADDRESS":"過港２４之２８號","OBJECTID":59751},"geometry":{"x":175371.17000000086,"y":2579688.1400000025}},{"attributes":{"ID":59752,"DIS_CODE":0,"TOWNNAME":"鹽水區","LI":"水正里","LIN":"1鄰","STREET":" ","SECT":" ","MAREA":"過港","LANE":" ","ALLEY":" ","HOUSE_NO":"２４之３０號","E_COORD97":175369.85000000001,"N_COORD97":2579683.7599999998,"ADDRESS":"過港２４之３０號","OBJECTID":59752},"geometry":{"x":175369.85000000056,"y":2579683.7600000016}},{"attributes":{"ID":59753,"DIS_CODE":0,"TOWNNAME":"鹽水區","LI":"水正里","LIN":"1鄰","STREET":" ","SECT":" ","MAREA":"過港","LANE":" ","ALLEY":" ","HOUSE_NO":"２４之３２號","E_COORD97":175368.73000000001,"N_COORD97":2579679.73,"ADDRESS":"過港２４之３２號","OBJECTID":59753},"geometry":{"x":175368.73000000045,"y":2579679.7300000042}},{"attributes":{"ID":59754,"DIS_CODE":0,"TOWNNAME":"鹽水區","LI":"水正里","LIN":"1鄰","STREET":" ","SECT":" ","MAREA":"過港","LANE":" ","ALLEY":" ","HOUSE_NO":"２４之３４號","E_COORD97":175367.81,"N_COORD97":2579675.0899999999,"ADDRESS":"過港２４之３４號","OBJECTID":59754},"geometry":{"x":175367.81000000145,"y":2579675.0899999999}},{"attributes":{"ID":59755,"DIS_CODE":0,"TOWNNAME":"鹽水區","LI":"水正里","LIN":"1鄰","STREET":" ","SECT":" ","MAREA":"過港","LANE":" ","ALLEY":" ","HOUSE_NO":"２４之５號","E_COORD97":175333.35999999999,"N_COORD97":2579727.3100000001,"ADDRESS":"過港２４之５號","OBJECTID":59755},"geometry":{"x":175333.36000000127,"y":2579727.3100000024}},{"attributes":{"ID":59756,"DIS_CODE":0,"TOWNNAME":"鹽水區","LI":"水正里","LIN":"1鄰","STREET":" ","SECT":" ","MAREA":"過港","LANE":" ","ALLEY":" ","HOUSE_NO":"２４之６號","E_COORD97":175324.20000000001,"N_COORD97":2579709.2799999998,"ADDRESS":"過港２４之６號","OBJECTID":59756},"geometry":{"x":175324.20000000112,"y":2579709.2800000012}},{"attributes":{"ID":59757,"DIS_CODE":0,"TOWNNAME":"鹽水區","LI":"水正里","LIN":"1鄰","STREET":" ","SECT":" ","MAREA":"過港","LANE":" ","ALLEY":" ","HOUSE_NO":"２４之７號","E_COORD97":175366.82999999999,"N_COORD97":2579711.8999999999,"ADDRESS":"過港２４之７號","OBJECTID":59757},"geometry":{"x":175366.83000000101,"y":2579711.9000000004}},{"attributes":{"ID":59758,"DIS_CODE":0,"TOWNNAME":"鹽水區","LI":"水正里","LIN":"1鄰","STREET":" ","SECT":" ","MAREA":"過港","LANE":" ","ALLEY":" ","HOUSE_NO":"２４之８號","E_COORD97":175328.23999999999,"N_COORD97":2579706.1899999999,"ADDRESS":"過港２４之８號","OBJECTID":59758},"geometry":{"x":175328.23999999929,"y":2579706.1900000032}},{"attributes":{"ID":59759,"DIS_CODE":0,"TOWNNAME":"鹽水區","LI":"水正里","LIN":"1鄰","STREET":" ","SECT":" ","MAREA":"過港","LANE":" ","ALLEY":" ","HOUSE_NO":"２４之９號","E_COORD97":175371.10000000001,"N_COORD97":2579709.8199999998,"ADDRESS":"過港２４之９號","OBJECTID":59759},"geometry":{"x":175371.10000000149,"y":2579709.8200000022}},{"attributes":{"ID":59760,"DIS_CODE":0,"TOWNNAME":"鹽水區","LI":"水正里","LIN":"1鄰","STREET":" ","SECT":" ","MAREA":"過港","LANE":" ","ALLEY":" ","HOUSE_NO":"２４號","E_COORD97":175355.31,"N_COORD97":2579661.46,"ADDRESS":"過港２４號","OBJECTID":59760},"geometry":{"x":175355.30999999959,"y":2579661.4600000009}},{"attributes":{"ID":59761,"DIS_CODE":0,"TOWNNAME":"鹽水區","LI":"水正里","LIN":"1鄰","STREET":" ","SECT":" ","MAREA":"過港","LANE":" ","ALLEY":" ","HOUSE_NO":"２５號之１０","E_COORD97":175313.32000000001,"N_COORD97":2579637.7999999998,"ADDRESS":"過港２５號之１０","OBJECTID":59761},"geometry":{"x":175313.32000000123,"y":2579637.8000000007}},{"attributes":{"ID":59762,"DIS_CODE":0,"TOWNNAME":"鹽水區","LI":"水正里","LIN":"1鄰","STREET":" ","SECT":" ","MAREA":"過港","LANE":" ","ALLEY":" ","HOUSE_NO":"２５號之１２","E_COORD97":175317.41,"N_COORD97":2579634.8100000001,"ADDRESS":"過港２５號之１２","OBJECTID":59762},"geometry":{"x":175317.41000000108,"y":2579634.8100000005}},{"attributes":{"ID":59763,"DIS_CODE":0,"TOWNNAME":"仁德區","LI":"仁義里","LIN":"1鄰","STREET":"義林路","SECT":" ","MAREA":" ","LANE":"１４５巷","ALLEY":"２弄","HOUSE_NO":"４號","E_COORD97":174305.37,"N_COORD97":2540666.2599999998,"ADDRESS":"義林路１４５巷２弄４號","OBJECTID":59763},"geometry":{"x":174305.37000000104,"y":2540666.2600000016}},{"attributes":{"ID":59764,"DIS_CODE":0,"TOWNNAME":"安南區","LI":"淵東里","LIN":"1鄰","STREET":"海佃路","SECT":"四段","MAREA":" ","LANE":"１１８巷","ALLEY":"８弄","HOUSE_NO":"３６號","E_COORD97":165733.01999999999,"N_COORD97":2550678.4399999999,"ADDRESS":"海佃路四段１１８巷８弄３６號","OBJECTID":59764},"geometry":{"x":165733.02000000048,"y":2550678.4399999995}},{"attributes":{"ID":59765,"DIS_CODE":0,"TOWNNAME":"安南區","LI":"淵東里","LIN":"1鄰","STREET":"海佃路","SECT":"四段","MAREA":" ","LANE":"１１８巷","ALLEY":"８弄","HOUSE_NO":"３８號","E_COORD97":165728.32000000001,"N_COORD97":2550677.25,"ADDRESS":"海佃路四段１１８巷８弄３８號","OBJECTID":59765},"geometry":{"x":165728.32000000123,"y":2550677.25}},{"attributes":{"ID":59766,"DIS_CODE":0,"TOWNNAME":"安南區","LI":"淵東里","LIN":"1鄰","STREET":"海佃路","SECT":"四段","MAREA":" ","LANE":"１１８巷","ALLEY":"８弄","HOUSE_NO":"４０號","E_COORD97":165723.60999999999,"N_COORD97":2550676.0699999998,"ADDRESS":"海佃路四段１１８巷８弄４０號","OBJECTID":59766},"geometry":{"x":165723.61000000034,"y":2550676.070000004}},{"attributes":{"ID":59767,"DIS_CODE":0,"TOWNNAME":"安南區","LI":"淵東里","LIN":"1鄰","STREET":"海佃路","SECT":"四段","MAREA":" ","LANE":"１１８巷","ALLEY":"８弄","HOUSE_NO":"４２號","E_COORD97":165718.91,"N_COORD97":2550674.8900000001,"ADDRESS":"海佃路四段１１８巷８弄４２號","OBJECTID":59767},"geometry":{"x":165718.91000000108,"y":2550674.8900000025}},{"attributes":{"ID":59768,"DIS_CODE":0,"TOWNNAME":"安南區","LI":"淵東里","LIN":"1鄰","STREET":"海佃路","SECT":"四段","MAREA":" ","LANE":"１１８巷","ALLEY":"８弄","HOUSE_NO":"４６號","E_COORD97":165712.92999999999,"N_COORD97":2550676.3100000001,"ADDRESS":"海佃路四段１１８巷８弄４６號","OBJECTID":59768},"geometry":{"x":165712.92999999877,"y":2550676.3100000024}},{"attributes":{"ID":59769,"DIS_CODE":0,"TOWNNAME":"安南區","LI":"淵東里","LIN":"1鄰","STREET":"海佃路","SECT":"四段","MAREA":" ","LANE":"１１８巷","ALLEY":"８弄","HOUSE_NO":"５０號","E_COORD97":165718.64999999999,"N_COORD97":2550653.1299999999,"ADDRESS":"海佃路四段１１８巷８弄５０號","OBJECTID":59769},"geometry":{"x":165718.65000000037,"y":2550653.129999999}},{"attributes":{"ID":59770,"DIS_CODE":0,"TOWNNAME":"安南區","LI":"淵東里","LIN":"1鄰","STREET":"海佃路","SECT":"四段","MAREA":" ","LANE":"１１８巷","ALLEY":"８弄","HOUSE_NO":"５２號","E_COORD97":165724.81,"N_COORD97":2550651.3900000001,"ADDRESS":"海佃路四段１１８巷８弄５２號","OBJECTID":59770},"geometry":{"x":165724.80999999959,"y":2550651.3900000025}},{"attributes":{"ID":59771,"DIS_CODE":0,"TOWNNAME":"安南區","LI":"淵東里","LIN":"1鄰","STREET":"海佃路","SECT":"四段","MAREA":" ","LANE":"１１８巷","ALLEY":"８弄","HOUSE_NO":"５６號","E_COORD97":165729.62,"N_COORD97":2550652.1600000001,"ADDRESS":"海佃路四段１１８巷８弄５６號","OBJECTID":59771},"geometry":{"x":165729.62000000104,"y":2550652.160000002}},{"attributes":{"ID":59772,"DIS_CODE":0,"TOWNNAME":"南區","LI":"金華里","LIN":"6鄰","STREET":"聖南街","SECT":" ","MAREA":" ","LANE":" ","ALLEY":" ","HOUSE_NO":"６號","E_COORD97":167034.29999999999,"N_COORD97":2542435.04,"ADDRESS":"聖南街６號","OBJECTID":59772},"geometry":{"x":167034.29999999981,"y":2542435.0399999991}},{"attributes":{"ID":59773,"DIS_CODE":0,"TOWNNAME":"安南區","LI":"淵東里","LIN":"1鄰","STREET":"海佃路","SECT":"四段","MAREA":" ","LANE":"１１８巷","ALLEY":"８弄","HOUSE_NO":"５８號","E_COORD97":165734.42999999999,"N_COORD97":2550652.9199999999,"ADDRESS":"海佃路四段１１８巷８弄５８號","OBJECTID":59773},"geometry":{"x":165734.4299999997,"y":2550652.9200000037}},{"attributes":{"ID":59774,"DIS_CODE":0,"TOWNNAME":"安南區","LI":"淵東里","LIN":"1鄰","STREET":"海佃路","SECT":"四段","MAREA":" ","LANE":"１１８巷","ALLEY":"８弄","HOUSE_NO":"６０號","E_COORD97":165739.23999999999,"N_COORD97":2550653.6800000002,"ADDRESS":"海佃路四段１１８巷８弄６０號","OBJECTID":59774},"geometry":{"x":165739.24000000115,"y":2550653.6799999997}},{"attributes":{"ID":59775,"DIS_CODE":0,"TOWNNAME":"安南區","LI":"淵東里","LIN":"1鄰","STREET":"海佃路","SECT":"四段","MAREA":" ","LANE":"１１８巷","ALLEY":"８弄","HOUSE_NO":"６２號","E_COORD97":165744.19,"N_COORD97":2550654.46,"ADDRESS":"海佃路四段１１８巷８弄６２號","OBJECTID":59775},"geometry":{"x":165744.19000000227,"y":2550654.4600000028}},{"attributes":{"ID":59776,"DIS_CODE":0,"TOWNNAME":"安南區","LI":"淵東里","LIN":"1鄰","STREET":"海佃路","SECT":"四段","MAREA":" ","LANE":"１１８巷","ALLEY":"８弄","HOUSE_NO":"８號","E_COORD97":165722,"N_COORD97":2550727.1499999999,"ADDRESS":"海佃路四段１１８巷８弄８號","OBJECTID":59776},"geometry":{"x":165722.00000000093,"y":2550727.1500000022}},{"attributes":{"ID":59777,"DIS_CODE":0,"TOWNNAME":"安南區","LI":"淵東里","LIN":"1鄰","STREET":"海佃路","SECT":"四段","MAREA":" ","LANE":"１１８巷","ALLEY":"８弄","HOUSE_NO":"１０號","E_COORD97":165721.60999999999,"N_COORD97":2550722.9399999999,"ADDRESS":"海佃路四段１１８巷８弄１０號","OBJECTID":59777},"geometry":{"x":165721.61000000127,"y":2550722.9399999995}},{"attributes":{"ID":59778,"DIS_CODE":0,"TOWNNAME":"安南區","LI":"淵東里","LIN":"1鄰","STREET":"海佃路","SECT":"四段","MAREA":" ","LANE":"１１８巷","ALLEY":"８弄","HOUSE_NO":"１２號","E_COORD97":165722.07999999999,"N_COORD97":2550718.5899999999,"ADDRESS":"海佃路四段１１８巷８弄１２號","OBJECTID":59778},"geometry":{"x":165722.08000000007,"y":2550718.5899999999}},{"attributes":{"ID":59779,"DIS_CODE":0,"TOWNNAME":"安南區","LI":"淵東里","LIN":"1鄰","STREET":"海佃路","SECT":"四段","MAREA":" ","LANE":"１１８巷","ALLEY":"８弄","HOUSE_NO":"１６號","E_COORD97":165714.70000000001,"N_COORD97":2550713.2999999998,"ADDRESS":"海佃路四段１１８巷８弄１６號","OBJECTID":59779},"geometry":{"x":165714.70000000019,"y":2550713.3000000026}},{"attributes":{"ID":59780,"DIS_CODE":0,"TOWNNAME":"安南區","LI":"淵東里","LIN":"1鄰","STREET":"海佃路","SECT":"四段","MAREA":" ","LANE":"１１８巷","ALLEY":"８弄","HOUSE_NO":"１８號","E_COORD97":165716.35999999999,"N_COORD97":2550709.0800000001,"ADDRESS":"海佃路四段１１８巷８弄１８號","OBJECTID":59780},"geometry":{"x":165716.36000000127,"y":2550709.0800000001}},{"attributes":{"ID":59781,"DIS_CODE":0,"TOWNNAME":"安南區","LI":"淵東里","LIN":"1鄰","STREET":"海佃路","SECT":"四段","MAREA":" ","LANE":"１１８巷","ALLEY":"８弄","HOUSE_NO":"２０號","E_COORD97":165717.39000000001,"N_COORD97":2550705,"ADDRESS":"海佃路四段１１８巷８弄２０號","OBJECTID":59781},"geometry":{"x":165717.3900000006,"y":2550705}},{"attributes":{"ID":59782,"DIS_CODE":0,"TOWNNAME":"安南區","LI":"淵東里","LIN":"1鄰","STREET":"海佃路","SECT":"四段","MAREA":" ","LANE":"１１８巷","ALLEY":"８弄","HOUSE_NO":"２２號","E_COORD97":165718.41,"N_COORD97":2550700.9199999999,"ADDRESS":"海佃路四段１１８巷８弄２２號","OBJECTID":59782},"geometry":{"x":165718.41000000015,"y":2550700.9200000018}},{"attributes":{"ID":59783,"DIS_CODE":0,"TOWNNAME":"安南區","LI":"淵東里","LIN":"1鄰","STREET":"海佃路","SECT":"四段","MAREA":" ","LANE":"１１８巷","ALLEY":"８弄","HOUSE_NO":"２６號","E_COORD97":165720.95999999999,"N_COORD97":2550697.6600000001,"ADDRESS":"海佃路四段１１８巷８弄２６號","OBJECTID":59783},"geometry":{"x":165720.95999999996,"y":2550697.6600000001}},{"attributes":{"ID":59784,"DIS_CODE":0,"TOWNNAME":"安南區","LI":"淵東里","LIN":"1鄰","STREET":"海佃路","SECT":"四段","MAREA":" ","LANE":"１１８巷","ALLEY":"８弄","HOUSE_NO":"２８號","E_COORD97":165720.29000000001,"N_COORD97":2550693.4500000002,"ADDRESS":"海佃路四段１１８巷８弄２８號","OBJECTID":59784},"geometry":{"x":165720.29000000097,"y":2550693.4500000011}},{"attributes":{"ID":59785,"DIS_CODE":0,"TOWNNAME":"安南區","LI":"梅花里","LIN":"1鄰","STREET":"安中路","SECT":"一段","MAREA":" ","LANE":"５５７巷","ALLEY":"１９弄","HOUSE_NO":"１９號","E_COORD97":168036.26000000001,"N_COORD97":2548911.5699999998,"ADDRESS":"安中路一段５５７巷１９弄１９號","OBJECTID":59785},"geometry":{"x":168036.25999999978,"y":2548911.5700000003}},{"attributes":{"ID":59786,"DIS_CODE":0,"TOWNNAME":"安南區","LI":"梅花里","LIN":"1鄰","STREET":"安中路","SECT":"一段","MAREA":" ","LANE":"５５７巷","ALLEY":"１９弄","HOUSE_NO":"２１號","E_COORD97":168036.26000000001,"N_COORD97":2548911.5699999998,"ADDRESS":"安中路一段５５７巷１９弄２１號","OBJECTID":59786},"geometry":{"x":168036.25999999978,"y":2548911.5700000003}},{"attributes":{"ID":59787,"DIS_CODE":0,"TOWNNAME":"安南區","LI":"梅花里","LIN":"1鄰","STREET":"安中路","SECT":"一段","MAREA":" ","LANE":"５５７巷","ALLEY":"１９弄","HOUSE_NO":"２３號","E_COORD97":168036.26000000001,"N_COORD97":2548911.5699999998,"ADDRESS":"安中路一段５５７巷１９弄２３號","OBJECTID":59787},"geometry":{"x":168036.25999999978,"y":2548911.5700000003}},{"attributes":{"ID":59788,"DIS_CODE":0,"TOWNNAME":"安南區","LI":"梅花里","LIN":"1鄰","STREET":"安中路","SECT":"一段","MAREA":" ","LANE":"５５７巷","ALLEY":"１９弄","HOUSE_NO":"２５號","E_COORD97":168036.26000000001,"N_COORD97":2548911.5699999998,"ADDRESS":"安中路一段５５７巷１９弄２５號","OBJECTID":59788},"geometry":{"x":168036.25999999978,"y":2548911.5700000003}},{"attributes":{"ID":59789,"DIS_CODE":0,"TOWNNAME":"安南區","LI":"梅花里","LIN":"1鄰","STREET":"安中路","SECT":"一段","MAREA":" ","LANE":"５５７巷","ALLEY":"１９弄","HOUSE_NO":"２７號","E_COORD97":168036.26000000001,"N_COORD97":2548911.5699999998,"ADDRESS":"安中路一段５５７巷１９弄２７號","OBJECTID":59789},"geometry":{"x":168036.25999999978,"y":2548911.5700000003}},{"attributes":{"ID":59790,"DIS_CODE":0,"TOWNNAME":"安南區","LI":"梅花里","LIN":"1鄰","STREET":"安中路","SECT":"一段","MAREA":" ","LANE":"５５７巷","ALLEY":"１９弄","HOUSE_NO":"２９號","E_COORD97":168036.26000000001,"N_COORD97":2548911.5699999998,"ADDRESS":"安中路一段５５７巷１９弄２９號","OBJECTID":59790},"geometry":{"x":168036.25999999978,"y":2548911.5700000003}},{"attributes":{"ID":59791,"DIS_CODE":0,"TOWNNAME":"安南區","LI":"梅花里","LIN":"1鄰","STREET":"安中路","SECT":"一段","MAREA":" ","LANE":"５５７巷","ALLEY":"１９弄","HOUSE_NO":"３１號","E_COORD97":168036.26000000001,"N_COORD97":2548911.5699999998,"ADDRESS":"安中路一段５５７巷１９弄３１號","OBJECTID":59791},"geometry":{"x":168036.25999999978,"y":2548911.5700000003}},{"attributes":{"ID":59792,"DIS_CODE":0,"TOWNNAME":"北區","LI":"振興里","LIN":"8鄰","STREET":"長榮路","SECT":"四段","MAREA":" ","LANE":" ","ALLEY":" ","HOUSE_NO":"１４１號三樓","E_COORD97":170223.20000000001,"N_COORD97":2545157.29,"ADDRESS":"長榮路四段１４１號三樓","OBJECTID":59792},"geometry":{"x":170223.20000000112,"y":2545157.2900000028}},{"attributes":{"ID":59793,"DIS_CODE":0,"TOWNNAME":"安南區","LI":"梅花里","LIN":"1鄰","STREET":"安中路","SECT":"一段","MAREA":" ","LANE":"５５７巷","ALLEY":"１９弄","HOUSE_NO":"３３號","E_COORD97":168036.26000000001,"N_COORD97":2548911.5699999998,"ADDRESS":"安中路一段５５７巷１９弄３３號","OBJECTID":59793},"geometry":{"x":168036.25999999978,"y":2548911.5700000003}},{"attributes":{"ID":59794,"DIS_CODE":0,"TOWNNAME":"安南區","LI":"梅花里","LIN":"1鄰","STREET":"安中路","SECT":"一段","MAREA":" ","LANE":"５５７巷","ALLEY":"１９弄","HOUSE_NO":"３５號","E_COORD97":168036.26000000001,"N_COORD97":2548911.5699999998,"ADDRESS":"安中路一段５５７巷１９弄３５號","OBJECTID":59794},"geometry":{"x":168036.25999999978,"y":2548911.5700000003}},{"attributes":{"ID":59795,"DIS_CODE":0,"TOWNNAME":"安南區","LI":"梅花里","LIN":"1鄰","STREET":"安中路","SECT":"一段","MAREA":" ","LANE":"５５７巷","ALLEY":"１９弄","HOUSE_NO":"３７號","E_COORD97":168036.26000000001,"N_COORD97":2548911.5699999998,"ADDRESS":"安中路一段５５７巷１９弄３７號","OBJECTID":59795},"geometry":{"x":168036.25999999978,"y":2548911.5700000003}},{"attributes":{"ID":59796,"DIS_CODE":0,"TOWNNAME":"安南區","LI":"梅花里","LIN":"1鄰","STREET":"安中路","SECT":"一段","MAREA":" ","LANE":"５５７巷","ALLEY":"１９弄","HOUSE_NO":"３９號","E_COORD97":168036.26000000001,"N_COORD97":2548911.5699999998,"ADDRESS":"安中路一段５５７巷１９弄３９號","OBJECTID":59796},"geometry":{"x":168036.25999999978,"y":2548911.5700000003}},{"attributes":{"ID":59797,"DIS_CODE":0,"TOWNNAME":"安南區","LI":"梅花里","LIN":"1鄰","STREET":"安中路","SECT":"一段","MAREA":" ","LANE":"５５７巷","ALLEY":"１９弄","HOUSE_NO":"４１號","E_COORD97":168036.26000000001,"N_COORD97":2548911.5699999998,"ADDRESS":"安中路一段５５７巷１９弄４１號","OBJECTID":59797},"geometry":{"x":168036.25999999978,"y":2548911.5700000003}},{"attributes":{"ID":59798,"DIS_CODE":0,"TOWNNAME":"安南區","LI":"梅花里","LIN":"1鄰","STREET":"安中路","SECT":"一段","MAREA":" ","LANE":"５５７巷","ALLEY":"１９弄","HOUSE_NO":"４３號","E_COORD97":168036.26000000001,"N_COORD97":2548911.5699999998,"ADDRESS":"安中路一段５５７巷１９弄４３號","OBJECTID":59798},"geometry":{"x":168036.25999999978,"y":2548911.5700000003}},{"attributes":{"ID":59799,"DIS_CODE":0,"TOWNNAME":"安南區","LI":"梅花里","LIN":"1鄰","STREET":"安中路","SECT":"一段","MAREA":" ","LANE":"５５７巷","ALLEY":"１９弄","HOUSE_NO":"４５號","E_COORD97":168036.26000000001,"N_COORD97":2548911.5699999998,"ADDRESS":"安中路一段５５７巷１９弄４５號","OBJECTID":59799},"geometry":{"x":168036.25999999978,"y":2548911.5700000003}},{"attributes":{"ID":59800,"DIS_CODE":0,"TOWNNAME":"安南區","LI":"梅花里","LIN":"1鄰","STREET":"安中路","SECT":"一段","MAREA":" ","LANE":"５５７巷","ALLEY":"１９弄","HOUSE_NO":"４７號","E_COORD97":168036.26000000001,"N_COORD97":2548911.5699999998,"ADDRESS":"安中路一段５５７巷１９弄４７號","OBJECTID":59800},"geometry":{"x":168036.25999999978,"y":2548911.5700000003}}]}