{"displayFieldName":"TOWNNAME","fieldAliases":{"ID":"ID","DIS_CODE":"DIS_CODE","TOWNNAME":"TOWNNAME","LI":"LI","LIN":"LIN","STREET":"STREET","SECT":"SECT","MAREA":"MAREA","LANE":"LANE","ALLEY":"ALLEY","HOUSE_NO":"HOUSE_NO","E_COORD97":"E_COORD97","N_COORD97":"N_COORD97","ADDRESS":"ADDRESS","OBJECTID":"OBJECTID"},"geometryType":"esriGeometryPoint","spatialReference":{"wkid":102443,"latestWkid":3826},"fields":[{"name":"ID","type":"esriFieldTypeDouble","alias":"ID"},{"name":"DIS_CODE","type":"esriFieldTypeInteger","alias":"DIS_CODE"},{"name":"TOWNNAME","type":"esriFieldTypeString","alias":"TOWNNAME","length":8},{"name":"LI","type":"esriFieldTypeString","alias":"LI","length":8},{"name":"LIN","type":"esriFieldTypeString","alias":"LIN","length":12},{"name":"STREET","type":"esriFieldTypeString","alias":"STREET","length":20},{"name":"SECT","type":"esriFieldTypeString","alias":"SECT","length":8},{"name":"MAREA","type":"esriFieldTypeString","alias":"MAREA","length":12},{"name":"LANE","type":"esriFieldTypeString","alias":"LANE","length":10},{"name":"ALLEY","type":"esriFieldTypeString","alias":"ALLEY","length":10},{"name":"HOUSE_NO","type":"esriFieldTypeString","alias":"HOUSE_NO","length":20},{"name":"E_COORD97","type":"esriFieldTypeDouble","alias":"E_COORD97"},{"name":"N_COORD97","type":"esriFieldTypeDouble","alias":"N_COORD97"},{"name":"ADDRESS","type":"esriFieldTypeString","alias":"ADDRESS","length":50},{"name":"OBJECTID","type":"esriFieldTypeOID","alias":"OBJECTID"}],"features":[{"attributes":{"ID":157002,"DIS_CODE":0,"TOWNNAME":"鹽水區","LI":"大豐里","LIN":"5鄰","STREET":" ","SECT":" ","MAREA":"大豐","LANE":" ","ALLEY":" ","HOUSE_NO":"６２之５號","E_COORD97":170582.37,"N_COORD97":2573713.5299999998,"ADDRESS":"大豐６２之５號","OBJECTID":157001},"geometry":{"x":170582.36999999918,"y":2573713.5300000012}},{"attributes":{"ID":157003,"DIS_CODE":0,"TOWNNAME":"鹽水區","LI":"大豐里","LIN":"5鄰","STREET":" ","SECT":" ","MAREA":"大豐","LANE":" ","ALLEY":" ","HOUSE_NO":"６２之６號","E_COORD97":170586.39000000001,"N_COORD97":2573714.3700000001,"ADDRESS":"大豐６２之６號","OBJECTID":157002},"geometry":{"x":170586.38999999966,"y":2573714.370000001}},{"attributes":{"ID":157004,"DIS_CODE":0,"TOWNNAME":"鹽水區","LI":"大豐里","LIN":"5鄰","STREET":" ","SECT":" ","MAREA":"大豐","LANE":" ","ALLEY":" ","HOUSE_NO":"６２號之８","E_COORD97":170594.84,"N_COORD97":2573716.4500000002,"ADDRESS":"大豐６２號之８","OBJECTID":157003},"geometry":{"x":170594.84000000078,"y":2573716.4499999993}},{"attributes":{"ID":157005,"DIS_CODE":0,"TOWNNAME":"麻豆區","LI":"麻口里","LIN":"5鄰","STREET":" ","SECT":" ","MAREA":"麻豆口","LANE":" ","ALLEY":" ","HOUSE_NO":"２４號之１","E_COORD97":170179.67999999999,"N_COORD97":2564365.2200000002,"ADDRESS":"麻豆口２４號之１","OBJECTID":157004},"geometry":{"x":170179.6799999997,"y":2564365.2200000007}},{"attributes":{"ID":157006,"DIS_CODE":0,"TOWNNAME":"安南區","LI":"梅花里","LIN":"2鄰","STREET":"安中路","SECT":"一段","MAREA":" ","LANE":"６３９巷","ALLEY":"８０弄","HOUSE_NO":"１號","E_COORD97":167690.51999999999,"N_COORD97":2549000.8999999999,"ADDRESS":"安中路一段６３９巷８０弄１號","OBJECTID":157005},"geometry":{"x":167690.52000000142,"y":2549000.9000000004}},{"attributes":{"ID":157007,"DIS_CODE":0,"TOWNNAME":"安南區","LI":"梅花里","LIN":"2鄰","STREET":"安中路","SECT":"一段","MAREA":" ","LANE":"６３９巷","ALLEY":"８０弄","HOUSE_NO":"２號","E_COORD97":167699.23000000001,"N_COORD97":2549022.7200000002,"ADDRESS":"安中路一段６３９巷８０弄２號","OBJECTID":157006},"geometry":{"x":167699.23000000138,"y":2549022.7200000007}},{"attributes":{"ID":157008,"DIS_CODE":0,"TOWNNAME":"安南區","LI":"梅花里","LIN":"2鄰","STREET":"安中路","SECT":"一段","MAREA":" ","LANE":"６３９巷","ALLEY":"８０弄","HOUSE_NO":"３號","E_COORD97":167685.35000000001,"N_COORD97":2549001.46,"ADDRESS":"安中路一段６３９巷８０弄３號","OBJECTID":157007},"geometry":{"x":167685.35000000056,"y":2549001.4600000009}},{"attributes":{"ID":157009,"DIS_CODE":0,"TOWNNAME":"安南區","LI":"梅花里","LIN":"2鄰","STREET":"安中路","SECT":"一段","MAREA":" ","LANE":"６３９巷","ALLEY":"８０弄","HOUSE_NO":"１５號","E_COORD97":167661.5,"N_COORD97":2549010.4900000002,"ADDRESS":"安中路一段６３９巷８０弄１５號","OBJECTID":157008},"geometry":{"x":167661.50000000093,"y":2549010.4900000002}},{"attributes":{"ID":157010,"DIS_CODE":0,"TOWNNAME":"安南區","LI":"梅花里","LIN":"2鄰","STREET":"安中路","SECT":"一段","MAREA":" ","LANE":"６３９巷","ALLEY":"８０弄","HOUSE_NO":"１６號","E_COORD97":167680.95999999999,"N_COORD97":2549031.6899999999,"ADDRESS":"安中路一段６３９巷８０弄１６號","OBJECTID":157009},"geometry":{"x":167680.95999999996,"y":2549031.6900000013}},{"attributes":{"ID":157011,"DIS_CODE":0,"TOWNNAME":"安南區","LI":"梅花里","LIN":"2鄰","STREET":"安中路","SECT":"一段","MAREA":" ","LANE":"６３９巷","ALLEY":"８０弄","HOUSE_NO":"１７號","E_COORD97":167656.95000000001,"N_COORD97":2549010.21,"ADDRESS":"安中路一段６３９巷８０弄１７號","OBJECTID":157010},"geometry":{"x":167656.95000000112,"y":2549010.2100000009}},{"attributes":{"ID":157012,"DIS_CODE":0,"TOWNNAME":"安南區","LI":"梅花里","LIN":"2鄰","STREET":"安中路","SECT":"一段","MAREA":" ","LANE":"６３９巷","ALLEY":"８０弄","HOUSE_NO":"１８號","E_COORD97":167674.94,"N_COORD97":2549033.9700000002,"ADDRESS":"安中路一段６３９巷８０弄１８號","OBJECTID":157011},"geometry":{"x":167674.93999999948,"y":2549033.9700000025}},{"attributes":{"ID":157013,"DIS_CODE":0,"TOWNNAME":"安南區","LI":"梅花里","LIN":"2鄰","STREET":"安中路","SECT":"一段","MAREA":" ","LANE":"６３９巷","ALLEY":"８０弄","HOUSE_NO":"１９號","E_COORD97":167653.54999999999,"N_COORD97":2549013.4900000002,"ADDRESS":"安中路一段６３９巷８０弄１９號","OBJECTID":157012},"geometry":{"x":167653.55000000075,"y":2549013.4900000021}},{"attributes":{"ID":157014,"DIS_CODE":0,"TOWNNAME":"安南區","LI":"梅花里","LIN":"2鄰","STREET":"安中路","SECT":"一段","MAREA":" ","LANE":"６３９巷","ALLEY":"８０弄","HOUSE_NO":"２０號","E_COORD97":167670.95999999999,"N_COORD97":2549035.4700000002,"ADDRESS":"安中路一段６３９巷８０弄２０號","OBJECTID":157013},"geometry":{"x":167670.95999999903,"y":2549035.4700000007}},{"attributes":{"ID":157015,"DIS_CODE":0,"TOWNNAME":"安南區","LI":"梅花里","LIN":"2鄰","STREET":"安中路","SECT":"一段","MAREA":" ","LANE":"６３９巷","ALLEY":"８０弄","HOUSE_NO":"２１號","E_COORD97":167649.20000000001,"N_COORD97":2549013.1400000001,"ADDRESS":"安中路一段６３９巷８０弄２１號","OBJECTID":157014},"geometry":{"x":167649.20000000019,"y":2549013.1400000006}},{"attributes":{"ID":157016,"DIS_CODE":0,"TOWNNAME":"安南區","LI":"梅花里","LIN":"2鄰","STREET":"安中路","SECT":"一段","MAREA":" ","LANE":"６３９巷","ALLEY":"８０弄","HOUSE_NO":"２２號","E_COORD97":167666.98999999999,"N_COORD97":2549036.98,"ADDRESS":"安中路一段６３９巷８０弄２２號","OBJECTID":157015},"geometry":{"x":167666.99000000022,"y":2549036.9800000023}},{"attributes":{"ID":157017,"DIS_CODE":0,"TOWNNAME":"安南區","LI":"梅花里","LIN":"2鄰","STREET":"安中路","SECT":"一段","MAREA":" ","LANE":"６３９巷","ALLEY":"８０弄","HOUSE_NO":"２３號","E_COORD97":167644.76999999999,"N_COORD97":2549014.8199999998,"ADDRESS":"安中路一段６３９巷８０弄２３號","OBJECTID":157016},"geometry":{"x":167644.77000000142,"y":2549014.8200000003}},{"attributes":{"ID":157018,"DIS_CODE":0,"TOWNNAME":"安南區","LI":"梅花里","LIN":"2鄰","STREET":"安中路","SECT":"一段","MAREA":" ","LANE":"６３９巷","ALLEY":"８０弄","HOUSE_NO":"２５號","E_COORD97":167641.63,"N_COORD97":2549018.0099999998,"ADDRESS":"安中路一段６３９巷８０弄２５號","OBJECTID":157017},"geometry":{"x":167641.63000000082,"y":2549018.0100000035}},{"attributes":{"ID":157019,"DIS_CODE":0,"TOWNNAME":"麻豆區","LI":"麻口里","LIN":"5鄰","STREET":" ","SECT":" ","MAREA":"麻豆口","LANE":" ","ALLEY":" ","HOUSE_NO":"２４號之２","E_COORD97":170182.69,"N_COORD97":2564378.96,"ADDRESS":"麻豆口２４號之２","OBJECTID":157018},"geometry":{"x":170182.69000000134,"y":2564378.9600000028}},{"attributes":{"ID":157020,"DIS_CODE":0,"TOWNNAME":"麻豆區","LI":"麻口里","LIN":"5鄰","STREET":" ","SECT":" ","MAREA":"麻豆口","LANE":" ","ALLEY":" ","HOUSE_NO":"２５號","E_COORD97":170199.42999999999,"N_COORD97":2564392.0699999998,"ADDRESS":"麻豆口２５號","OBJECTID":157019},"geometry":{"x":170199.4299999997,"y":2564392.0700000003}},{"attributes":{"ID":157021,"DIS_CODE":0,"TOWNNAME":"麻豆區","LI":"麻口里","LIN":"5鄰","STREET":" ","SECT":" ","MAREA":"麻豆口","LANE":" ","ALLEY":" ","HOUSE_NO":"２６號之１","E_COORD97":170240.10000000001,"N_COORD97":2564342.52,"ADDRESS":"麻豆口２６號之１","OBJECTID":157020},"geometry":{"x":170240.10000000056,"y":2564342.5200000014}},{"attributes":{"ID":157022,"DIS_CODE":0,"TOWNNAME":"麻豆區","LI":"麻口里","LIN":"5鄰","STREET":" ","SECT":" ","MAREA":"麻豆口","LANE":" ","ALLEY":" ","HOUSE_NO":"２６號之２","E_COORD97":170232.51999999999,"N_COORD97":2564340.9700000002,"ADDRESS":"麻豆口２６號之２","OBJECTID":157021},"geometry":{"x":170232.51999999955,"y":2564340.9700000025}},{"attributes":{"ID":157023,"DIS_CODE":0,"TOWNNAME":"麻豆區","LI":"麻口里","LIN":"5鄰","STREET":" ","SECT":" ","MAREA":"麻豆口","LANE":" ","ALLEY":" ","HOUSE_NO":"２６號之３","E_COORD97":170221.82000000001,"N_COORD97":2564339.3799999999,"ADDRESS":"麻豆口２６號之３","OBJECTID":157022},"geometry":{"x":170221.81999999937,"y":2564339.3800000027}},{"attributes":{"ID":157024,"DIS_CODE":0,"TOWNNAME":"麻豆區","LI":"麻口里","LIN":"5鄰","STREET":" ","SECT":" ","MAREA":"麻豆口","LANE":" ","ALLEY":" ","HOUSE_NO":"２６號","E_COORD97":170213.23000000001,"N_COORD97":2564395.1800000002,"ADDRESS":"麻豆口２６號","OBJECTID":157023},"geometry":{"x":170213.23000000138,"y":2564395.1799999997}},{"attributes":{"ID":157025,"DIS_CODE":0,"TOWNNAME":"麻豆區","LI":"麻口里","LIN":"5鄰","STREET":" ","SECT":" ","MAREA":"麻豆口","LANE":" ","ALLEY":" ","HOUSE_NO":"２７號之１","E_COORD97":170163.98999999999,"N_COORD97":2564396.7000000002,"ADDRESS":"麻豆口２７號之１","OBJECTID":157024},"geometry":{"x":170163.99000000022,"y":2564396.6999999993}},{"attributes":{"ID":157026,"DIS_CODE":0,"TOWNNAME":"麻豆區","LI":"麻口里","LIN":"5鄰","STREET":" ","SECT":" ","MAREA":"麻豆口","LANE":" ","ALLEY":" ","HOUSE_NO":"２７號之２","E_COORD97":170138.73000000001,"N_COORD97":2564395.3900000001,"ADDRESS":"麻豆口２７號之２","OBJECTID":157025},"geometry":{"x":170138.73000000138,"y":2564395.3900000025}},{"attributes":{"ID":157027,"DIS_CODE":0,"TOWNNAME":"麻豆區","LI":"麻口里","LIN":"5鄰","STREET":" ","SECT":" ","MAREA":"麻豆口","LANE":" ","ALLEY":" ","HOUSE_NO":"２７號","E_COORD97":170178.89000000001,"N_COORD97":2564407.9300000002,"ADDRESS":"麻豆口２７號","OBJECTID":157026},"geometry":{"x":170178.8900000006,"y":2564407.9300000016}},{"attributes":{"ID":157028,"DIS_CODE":0,"TOWNNAME":"麻豆區","LI":"麻口里","LIN":"5鄰","STREET":" ","SECT":" ","MAREA":"麻豆口","LANE":" ","ALLEY":" ","HOUSE_NO":"２８號之１","E_COORD97":170143.92999999999,"N_COORD97":2564418.9500000002,"ADDRESS":"麻豆口２８號之１","OBJECTID":157027},"geometry":{"x":170143.9299999997,"y":2564418.9499999993}},{"attributes":{"ID":157029,"DIS_CODE":0,"TOWNNAME":"麻豆區","LI":"麻口里","LIN":"5鄰","STREET":" ","SECT":" ","MAREA":"麻豆口","LANE":" ","ALLEY":" ","HOUSE_NO":"２８號","E_COORD97":170168.64000000001,"N_COORD97":2564429.75,"ADDRESS":"麻豆口２８號","OBJECTID":157028},"geometry":{"x":170168.6400000006,"y":2564429.7500000019}},{"attributes":{"ID":157030,"DIS_CODE":0,"TOWNNAME":"麻豆區","LI":"麻口里","LIN":"5鄰","STREET":" ","SECT":" ","MAREA":"麻豆口","LANE":" ","ALLEY":" ","HOUSE_NO":"２９號","E_COORD97":170158.66,"N_COORD97":2564444.0499999998,"ADDRESS":"麻豆口２９號","OBJECTID":157029},"geometry":{"x":170158.66000000108,"y":2564444.0500000007}},{"attributes":{"ID":157031,"DIS_CODE":0,"TOWNNAME":"北門區","LI":"北門里","LIN":"16鄰","STREET":" ","SECT":" ","MAREA":"舊埕","LANE":" ","ALLEY":" ","HOUSE_NO":"５３號","E_COORD97":160454.42999999999,"N_COORD97":2574134.0600000001,"ADDRESS":"舊埕５３號","OBJECTID":157030},"geometry":{"x":160454.4299999997,"y":2574134.0600000005}},{"attributes":{"ID":157032,"DIS_CODE":0,"TOWNNAME":"麻豆區","LI":"麻口里","LIN":"5鄰","STREET":" ","SECT":" ","MAREA":"麻豆口","LANE":" ","ALLEY":" ","HOUSE_NO":"３１號之１","E_COORD97":170221.56,"N_COORD97":2564494.1299999999,"ADDRESS":"麻豆口３１號之１","OBJECTID":157031},"geometry":{"x":170221.56000000052,"y":2564494.1300000008}},{"attributes":{"ID":157033,"DIS_CODE":0,"TOWNNAME":"麻豆區","LI":"麻口里","LIN":"5鄰","STREET":" ","SECT":" ","MAREA":"麻豆口","LANE":" ","ALLEY":" ","HOUSE_NO":"３１號之２","E_COORD97":170226.06,"N_COORD97":2564493.8599999999,"ADDRESS":"麻豆口３１號之２","OBJECTID":157032},"geometry":{"x":170226.05999999959,"y":2564493.8600000013}},{"attributes":{"ID":157034,"DIS_CODE":0,"TOWNNAME":"麻豆區","LI":"麻口里","LIN":"5鄰","STREET":" ","SECT":" ","MAREA":"麻豆口","LANE":" ","ALLEY":" ","HOUSE_NO":"３１號之３","E_COORD97":170329.51000000001,"N_COORD97":2564430.75,"ADDRESS":"麻豆口３１號之３","OBJECTID":157033},"geometry":{"x":170329.50999999978,"y":2564430.7500000019}},{"attributes":{"ID":157035,"DIS_CODE":0,"TOWNNAME":"麻豆區","LI":"麻口里","LIN":"5鄰","STREET":" ","SECT":" ","MAREA":"麻豆口","LANE":" ","ALLEY":" ","HOUSE_NO":"３１號","E_COORD97":170213.31,"N_COORD97":2564520.1800000002,"ADDRESS":"麻豆口３１號","OBJECTID":157034},"geometry":{"x":170213.31000000052,"y":2564520.1799999997}},{"attributes":{"ID":157036,"DIS_CODE":0,"TOWNNAME":"麻豆區","LI":"麻口里","LIN":"5鄰","STREET":" ","SECT":" ","MAREA":"麻豆口","LANE":" ","ALLEY":" ","HOUSE_NO":"３２號之１０","E_COORD97":170183.12,"N_COORD97":2565435.1899999999,"ADDRESS":"麻豆口３２號之１０","OBJECTID":157035},"geometry":{"x":170183.12000000104,"y":2565435.1899999995}},{"attributes":{"ID":157037,"DIS_CODE":0,"TOWNNAME":"麻豆區","LI":"麻口里","LIN":"5鄰","STREET":" ","SECT":" ","MAREA":"麻豆口","LANE":" ","ALLEY":" ","HOUSE_NO":"３２號之１１","E_COORD97":170296.31,"N_COORD97":2565164.9100000001,"ADDRESS":"麻豆口３２號之１１","OBJECTID":157036},"geometry":{"x":170296.31000000052,"y":2565164.910000002}},{"attributes":{"ID":157038,"DIS_CODE":0,"TOWNNAME":"麻豆區","LI":"麻口里","LIN":"5鄰","STREET":" ","SECT":" ","MAREA":"麻豆口","LANE":" ","ALLEY":" ","HOUSE_NO":"３２號之１２","E_COORD97":170237.20000000001,"N_COORD97":2565501.54,"ADDRESS":"麻豆口３２號之１２","OBJECTID":157037},"geometry":{"x":170237.20000000019,"y":2565501.540000001}},{"attributes":{"ID":157039,"DIS_CODE":0,"TOWNNAME":"安南區","LI":"梅花里","LIN":"2鄰","STREET":"安中路","SECT":"一段","MAREA":" ","LANE":"６３９巷","ALLEY":"８０弄","HOUSE_NO":"２６號","E_COORD97":167663.01000000001,"N_COORD97":2549038.48,"ADDRESS":"安中路一段６３９巷８０弄２６號","OBJECTID":157038},"geometry":{"x":167663.00999999978,"y":2549038.4800000004}},{"attributes":{"ID":157040,"DIS_CODE":0,"TOWNNAME":"安南區","LI":"梅花里","LIN":"2鄰","STREET":"安中路","SECT":"一段","MAREA":" ","LANE":"６３９巷","ALLEY":"８０弄","HOUSE_NO":"２７號","E_COORD97":167636.97,"N_COORD97":2549017.77,"ADDRESS":"安中路一段６３９巷８０弄２７號","OBJECTID":157039},"geometry":{"x":167636.9700000016,"y":2549017.7699999996}},{"attributes":{"ID":157041,"DIS_CODE":0,"TOWNNAME":"安南區","LI":"梅花里","LIN":"2鄰","STREET":"安中路","SECT":"一段","MAREA":" ","LANE":"６３９巷","ALLEY":"８０弄","HOUSE_NO":"２８號","E_COORD97":167659.04000000001,"N_COORD97":2549039.9900000002,"ADDRESS":"安中路一段６３９巷８０弄２８號","OBJECTID":157040},"geometry":{"x":167659.04000000097,"y":2549039.9900000021}},{"attributes":{"ID":157042,"DIS_CODE":0,"TOWNNAME":"安南區","LI":"梅花里","LIN":"2鄰","STREET":"安中路","SECT":"一段","MAREA":" ","LANE":"６３９巷","ALLEY":"８０弄","HOUSE_NO":"２９號","E_COORD97":167633.09,"N_COORD97":2549021.2400000002,"ADDRESS":"安中路一段６３９巷８０弄２９號","OBJECTID":157041},"geometry":{"x":167633.09000000078,"y":2549021.2400000021}},{"attributes":{"ID":157043,"DIS_CODE":0,"TOWNNAME":"安南區","LI":"梅花里","LIN":"2鄰","STREET":"安中路","SECT":"一段","MAREA":" ","LANE":"６３９巷","ALLEY":"８０弄","HOUSE_NO":"３０號","E_COORD97":167655.06,"N_COORD97":2549041.4900000002,"ADDRESS":"安中路一段６３９巷８０弄３０號","OBJECTID":157042},"geometry":{"x":167655.06000000052,"y":2549041.4900000002}},{"attributes":{"ID":157044,"DIS_CODE":0,"TOWNNAME":"安南區","LI":"梅花里","LIN":"2鄰","STREET":"安中路","SECT":"一段","MAREA":" ","LANE":"６３９巷","ALLEY":"８０弄","HOUSE_NO":"３１號","E_COORD97":167629.12,"N_COORD97":2549020.7400000002,"ADDRESS":"安中路一段６３９巷８０弄３１號","OBJECTID":157043},"geometry":{"x":167629.12000000011,"y":2549020.7400000021}},{"attributes":{"ID":157045,"DIS_CODE":0,"TOWNNAME":"安南區","LI":"梅花里","LIN":"2鄰","STREET":"安中路","SECT":"一段","MAREA":" ","LANE":"６３９巷","ALLEY":"８０弄","HOUSE_NO":"３２號","E_COORD97":167651.09,"N_COORD97":2549043,"ADDRESS":"安中路一段６３９巷８０弄３２號","OBJECTID":157044},"geometry":{"x":167651.08999999985,"y":2549043.0000000019}},{"attributes":{"ID":157046,"DIS_CODE":0,"TOWNNAME":"安南區","LI":"梅花里","LIN":"2鄰","STREET":"安中路","SECT":"一段","MAREA":" ","LANE":"６３９巷","ALLEY":"８０弄","HOUSE_NO":"３３號","E_COORD97":167624.67000000001,"N_COORD97":2549022.4300000002,"ADDRESS":"安中路一段６３９巷８０弄３３號","OBJECTID":157045},"geometry":{"x":167624.67000000086,"y":2549022.4300000016}},{"attributes":{"ID":157047,"DIS_CODE":0,"TOWNNAME":"安南區","LI":"梅花里","LIN":"2鄰","STREET":"安中路","SECT":"一段","MAREA":" ","LANE":"６３９巷","ALLEY":"８０弄","HOUSE_NO":"３５號","E_COORD97":167621.56,"N_COORD97":2549025.6000000001,"ADDRESS":"安中路一段６３９巷８０弄３５號","OBJECTID":157046},"geometry":{"x":167621.56000000052,"y":2549025.6000000015}},{"attributes":{"ID":157048,"DIS_CODE":0,"TOWNNAME":"安南區","LI":"梅花里","LIN":"2鄰","STREET":"安中路","SECT":"一段","MAREA":" ","LANE":"６３９巷","ALLEY":"８０弄","HOUSE_NO":"３６號","E_COORD97":167647.06,"N_COORD97":2549044.52,"ADDRESS":"安中路一段６３９巷８０弄３６號","OBJECTID":157047},"geometry":{"x":167647.06000000052,"y":2549044.5199999977}},{"attributes":{"ID":157049,"DIS_CODE":0,"TOWNNAME":"安南區","LI":"梅花里","LIN":"2鄰","STREET":"安中路","SECT":"一段","MAREA":" ","LANE":"６３９巷","ALLEY":"８０弄","HOUSE_NO":"３７號","E_COORD97":167615.60000000001,"N_COORD97":2549022.8199999998,"ADDRESS":"安中路一段６３９巷８０弄３７號","OBJECTID":157048},"geometry":{"x":167615.60000000149,"y":2549022.8200000003}},{"attributes":{"ID":157050,"DIS_CODE":0,"TOWNNAME":"安南區","LI":"梅花里","LIN":"2鄰","STREET":"安中路","SECT":"一段","MAREA":" ","LANE":"６３９巷","ALLEY":"８０弄","HOUSE_NO":"３８號","E_COORD97":167642.60999999999,"N_COORD97":2549046.21,"ADDRESS":"安中路一段６３９巷８０弄３８號","OBJECTID":157049},"geometry":{"x":167642.61000000034,"y":2549046.2100000028}},{"attributes":{"ID":157051,"DIS_CODE":0,"TOWNNAME":"安南區","LI":"梅花里","LIN":"2鄰","STREET":"安中路","SECT":"一段","MAREA":" ","LANE":"６３９巷","ALLEY":"８０弄","HOUSE_NO":"３９號","E_COORD97":167612.76000000001,"N_COORD97":2549026,"ADDRESS":"安中路一段６３９巷８０弄３９號","OBJECTID":157050},"geometry":{"x":167612.75999999978,"y":2549026.0000000019}},{"attributes":{"ID":157052,"DIS_CODE":0,"TOWNNAME":"安南區","LI":"梅花里","LIN":"2鄰","STREET":"安中路","SECT":"一段","MAREA":" ","LANE":"６３９巷","ALLEY":"８０弄","HOUSE_NO":"４０號","E_COORD97":167638.98000000001,"N_COORD97":2549047.5800000001,"ADDRESS":"安中路一段６３９巷８０弄４０號","OBJECTID":157051},"geometry":{"x":167638.98000000045,"y":2549047.5800000001}},{"attributes":{"ID":157053,"DIS_CODE":0,"TOWNNAME":"安南區","LI":"梅花里","LIN":"2鄰","STREET":"安中路","SECT":"一段","MAREA":" ","LANE":"６３９巷","ALLEY":"８０弄","HOUSE_NO":"４１號","E_COORD97":167608.53,"N_COORD97":2549026.4700000002,"ADDRESS":"安中路一段６３９巷８０弄４１號","OBJECTID":157052},"geometry":{"x":167608.53000000119,"y":2549026.4700000025}},{"attributes":{"ID":157054,"DIS_CODE":0,"TOWNNAME":"安南區","LI":"梅花里","LIN":"2鄰","STREET":"安中路","SECT":"一段","MAREA":" ","LANE":"６３９巷","ALLEY":"８０弄","HOUSE_NO":"４２號","E_COORD97":167635,"N_COORD97":2549049.0899999999,"ADDRESS":"安中路一段６３９巷８０弄４２號","OBJECTID":157053},"geometry":{"x":167635,"y":2549049.0900000017}},{"attributes":{"ID":157055,"DIS_CODE":0,"TOWNNAME":"安南區","LI":"梅花里","LIN":"2鄰","STREET":"安中路","SECT":"一段","MAREA":" ","LANE":"６３９巷","ALLEY":"８０弄","HOUSE_NO":"４３號","E_COORD97":167604.81,"N_COORD97":2549029.0099999998,"ADDRESS":"安中路一段６３９巷８０弄４３號","OBJECTID":157054},"geometry":{"x":167604.80999999959,"y":2549029.0100000016}},{"attributes":{"ID":157056,"DIS_CODE":0,"TOWNNAME":"安南區","LI":"梅花里","LIN":"2鄰","STREET":"安中路","SECT":"一段","MAREA":" ","LANE":"６３９巷","ALLEY":"８０弄","HOUSE_NO":"４５號","E_COORD97":167600.73000000001,"N_COORD97":2549029.4199999999,"ADDRESS":"安中路一段６３９巷８０弄４５號","OBJECTID":157055},"geometry":{"x":167600.73000000138,"y":2549029.4200000018}},{"attributes":{"ID":157057,"DIS_CODE":0,"TOWNNAME":"安南區","LI":"梅花里","LIN":"2鄰","STREET":"安中路","SECT":"一段","MAREA":" ","LANE":"６３９巷","ALLEY":"８０弄","HOUSE_NO":"４６號","E_COORD97":167631.03,"N_COORD97":2549050.5899999999,"ADDRESS":"安中路一段６３９巷８０弄４６號","OBJECTID":157056},"geometry":{"x":167631.03000000119,"y":2549050.5899999999}},{"attributes":{"ID":157058,"DIS_CODE":0,"TOWNNAME":"安南區","LI":"梅花里","LIN":"2鄰","STREET":"安中路","SECT":"一段","MAREA":" ","LANE":"６３９巷","ALLEY":"８０弄","HOUSE_NO":"４７號","E_COORD97":167596.85999999999,"N_COORD97":2549032.02,"ADDRESS":"安中路一段６３９巷８０弄４７號","OBJECTID":157057},"geometry":{"x":167596.86000000034,"y":2549032.0200000014}},{"attributes":{"ID":157059,"DIS_CODE":0,"TOWNNAME":"安南區","LI":"梅花里","LIN":"2鄰","STREET":"安中路","SECT":"一段","MAREA":" ","LANE":"６３９巷","ALLEY":"８０弄","HOUSE_NO":"４８號","E_COORD97":167627.04999999999,"N_COORD97":2549052.1000000001,"ADDRESS":"安中路一段６３９巷８０弄４８號","OBJECTID":157058},"geometry":{"x":167627.05000000075,"y":2549052.1000000015}},{"attributes":{"ID":157060,"DIS_CODE":0,"TOWNNAME":"安南區","LI":"梅花里","LIN":"2鄰","STREET":"安中路","SECT":"一段","MAREA":" ","LANE":"６３９巷","ALLEY":"８０弄","HOUSE_NO":"４９號","E_COORD97":167592.88,"N_COORD97":2549033.52,"ADDRESS":"安中路一段６３９巷８０弄４９號","OBJECTID":157059},"geometry":{"x":167592.87999999989,"y":2549033.5199999996}},{"attributes":{"ID":157061,"DIS_CODE":0,"TOWNNAME":"安南區","LI":"梅花里","LIN":"2鄰","STREET":"安中路","SECT":"一段","MAREA":" ","LANE":"６３９巷","ALLEY":"８０弄","HOUSE_NO":"５０號","E_COORD97":167623.07999999999,"N_COORD97":2549053.6000000001,"ADDRESS":"安中路一段６３９巷８０弄５０號","OBJECTID":157060},"geometry":{"x":167623.08000000101,"y":2549053.5999999996}},{"attributes":{"ID":157062,"DIS_CODE":0,"TOWNNAME":"安南區","LI":"梅花里","LIN":"2鄰","STREET":"安中路","SECT":"一段","MAREA":" ","LANE":"６３９巷","ALLEY":"８０弄","HOUSE_NO":"５１號","E_COORD97":167588.60999999999,"N_COORD97":2549034,"ADDRESS":"安中路一段６３９巷８０弄５１號","OBJECTID":157061},"geometry":{"x":167588.61000000034,"y":2549034}},{"attributes":{"ID":157063,"DIS_CODE":0,"TOWNNAME":"安南區","LI":"梅花里","LIN":"2鄰","STREET":"安中路","SECT":"一段","MAREA":" ","LANE":"６３９巷","ALLEY":"８０弄","HOUSE_NO":"５２號","E_COORD97":167619.10000000001,"N_COORD97":2549055.1000000001,"ADDRESS":"安中路一段６３９巷８０弄５２號","OBJECTID":157062},"geometry":{"x":167619.10000000056,"y":2549055.1000000015}},{"attributes":{"ID":157064,"DIS_CODE":0,"TOWNNAME":"安南區","LI":"梅花里","LIN":"2鄰","STREET":"安中路","SECT":"一段","MAREA":" ","LANE":"６３９巷","ALLEY":"８０弄","HOUSE_NO":"５３號","E_COORD97":167584.92999999999,"N_COORD97":2549036.5299999998,"ADDRESS":"安中路一段６３９巷８０弄５３號","OBJECTID":157063},"geometry":{"x":167584.93000000063,"y":2549036.5299999993}},{"attributes":{"ID":157065,"DIS_CODE":0,"TOWNNAME":"安南區","LI":"梅花里","LIN":"2鄰","STREET":"安中路","SECT":"一段","MAREA":" ","LANE":"６３９巷","ALLEY":"８０弄","HOUSE_NO":"５５號","E_COORD97":167580.81,"N_COORD97":2549036.96,"ADDRESS":"安中路一段６３９巷８０弄５５號","OBJECTID":157064},"geometry":{"x":167580.81000000052,"y":2549036.9600000028}},{"attributes":{"ID":157066,"DIS_CODE":0,"TOWNNAME":"安南區","LI":"梅花里","LIN":"2鄰","STREET":"安中路","SECT":"一段","MAREA":" ","LANE":"６３９巷","ALLEY":"８０弄","HOUSE_NO":"５６號","E_COORD97":167615.13,"N_COORD97":2549056.6099999999,"ADDRESS":"安中路一段６３９巷８０弄５６號","OBJECTID":157065},"geometry":{"x":167615.12999999989,"y":2549056.6099999994}},{"attributes":{"ID":157067,"DIS_CODE":0,"TOWNNAME":"安南區","LI":"梅花里","LIN":"2鄰","STREET":"安中路","SECT":"一段","MAREA":" ","LANE":"６３９巷","ALLEY":"８０弄","HOUSE_NO":"５７號","E_COORD97":167576.48999999999,"N_COORD97":2549038.5899999999,"ADDRESS":"安中路一段６３９巷８０弄５７號","OBJECTID":157066},"geometry":{"x":167576.49000000115,"y":2549038.5900000017}},{"attributes":{"ID":157068,"DIS_CODE":0,"TOWNNAME":"安南區","LI":"梅花里","LIN":"2鄰","STREET":"安中路","SECT":"一段","MAREA":" ","LANE":"６３９巷","ALLEY":"８０弄","HOUSE_NO":"５８號","E_COORD97":167611.14999999999,"N_COORD97":2549058.1099999999,"ADDRESS":"安中路一段６３９巷８０弄５８號","OBJECTID":157067},"geometry":{"x":167611.1500000013,"y":2549058.1100000013}},{"attributes":{"ID":157069,"DIS_CODE":0,"TOWNNAME":"安南區","LI":"長安里","LIN":"19鄰","STREET":"公學路","SECT":"二段","MAREA":" ","LANE":" ","ALLEY":" ","HOUSE_NO":"５６號","E_COORD97":167746.16,"N_COORD97":2552480.0099999998,"ADDRESS":"公學路二段５６號","OBJECTID":157068},"geometry":{"x":167746.16000000201,"y":2552480.0100000016}},{"attributes":{"ID":157070,"DIS_CODE":0,"TOWNNAME":"善化區","LI":"光文里","LIN":"19鄰","STREET":"民生路","SECT":" ","MAREA":" ","LANE":" ","ALLEY":" ","HOUSE_NO":"３０６號","E_COORD97":178139.82000000001,"N_COORD97":2558920.0099999998,"ADDRESS":"民生路３０６號","OBJECTID":157069},"geometry":{"x":178139.8200000003,"y":2558920.0099999998}},{"attributes":{"ID":157071,"DIS_CODE":0,"TOWNNAME":"善化區","LI":"文昌里","LIN":"19鄰","STREET":"中正路","SECT":" ","MAREA":" ","LANE":" ","ALLEY":" ","HOUSE_NO":"２８３號","E_COORD97":177692.48999999999,"N_COORD97":2558350,"ADDRESS":"中正路２８３號","OBJECTID":157070},"geometry":{"x":177692.49000000022,"y":2558350.0000000019}},{"attributes":{"ID":157072,"DIS_CODE":0,"TOWNNAME":"善化區","LI":"東關里","LIN":"19鄰","STREET":"中興路","SECT":" ","MAREA":" ","LANE":" ","ALLEY":" ","HOUSE_NO":"７４號","E_COORD97":177562.73000000001,"N_COORD97":2559024.75,"ADDRESS":"中興路７４號","OBJECTID":157071},"geometry":{"x":177562.73000000045,"y":2559024.7499999981}},{"attributes":{"ID":157073,"DIS_CODE":0,"TOWNNAME":"善化區","LI":"光文里","LIN":"19鄰","STREET":"民生路","SECT":" ","MAREA":" ","LANE":" ","ALLEY":" ","HOUSE_NO":"２６２號","E_COORD97":178240.67999999999,"N_COORD97":2558935.5099999998,"ADDRESS":"民生路２６２號","OBJECTID":157072},"geometry":{"x":178240.68000000063,"y":2558935.5100000016}},{"attributes":{"ID":157074,"DIS_CODE":0,"TOWNNAME":"善化區","LI":"光文里","LIN":"19鄰","STREET":"大成路","SECT":" ","MAREA":" ","LANE":" ","ALLEY":" ","HOUSE_NO":"２６８號","E_COORD97":178220.95999999999,"N_COORD97":2558854,"ADDRESS":"大成路２６８號","OBJECTID":157073},"geometry":{"x":178220.96000000089,"y":2558854.0000000037}},{"attributes":{"ID":157075,"DIS_CODE":0,"TOWNNAME":"中西區","LI":"協和里","LIN":" ","STREET":"永和街","SECT":" ","MAREA":" ","LANE":" ","ALLEY":" ","HOUSE_NO":"１１１號","E_COORD97":167108.29999999999,"N_COORD97":2544669.4199999999,"ADDRESS":"永和街１１１號","OBJECTID":157074},"geometry":{"x":167108.30000000075,"y":2544669.4200000018}},{"attributes":{"ID":157076,"DIS_CODE":0,"TOWNNAME":"安南區","LI":"梅花里","LIN":"2鄰","STREET":"安中路","SECT":"一段","MAREA":" ","LANE":"６３９巷","ALLEY":"８０弄","HOUSE_NO":"５９號","E_COORD97":167573.01000000001,"N_COORD97":2549041.04,"ADDRESS":"安中路一段６３９巷８０弄５９號","OBJECTID":157075},"geometry":{"x":167573.01000000071,"y":2549041.0400000028}},{"attributes":{"ID":157077,"DIS_CODE":0,"TOWNNAME":"安南區","LI":"梅花里","LIN":"2鄰","STREET":"安中路","SECT":"一段","MAREA":" ","LANE":"６３９巷","ALLEY":"８０弄","HOUSE_NO":"６０號","E_COORD97":167607.17999999999,"N_COORD97":2549059.6200000001,"ADDRESS":"安中路一段６３９巷８０弄６０號","OBJECTID":157076},"geometry":{"x":167607.18000000063,"y":2549059.6200000029}},{"attributes":{"ID":157078,"DIS_CODE":0,"TOWNNAME":"安南區","LI":"梅花里","LIN":"2鄰","STREET":"安中路","SECT":"一段","MAREA":" ","LANE":"６３９巷","ALLEY":"８０弄","HOUSE_NO":"６１號","E_COORD97":167564.87,"N_COORD97":2549042.73,"ADDRESS":"安中路一段６３９巷８０弄６１號","OBJECTID":157077},"geometry":{"x":167564.87000000011,"y":2549042.7300000004}},{"attributes":{"ID":157079,"DIS_CODE":0,"TOWNNAME":"安南區","LI":"梅花里","LIN":"2鄰","STREET":"安中路","SECT":"一段","MAREA":" ","LANE":"６３９巷","ALLEY":"８０弄","HOUSE_NO":"６２號","E_COORD97":167603.20000000001,"N_COORD97":2549061.1200000001,"ADDRESS":"安中路一段６３９巷８０弄６２號","OBJECTID":157078},"geometry":{"x":167603.20000000019,"y":2549061.120000001}},{"attributes":{"ID":157080,"DIS_CODE":0,"TOWNNAME":"鹽水區","LI":"福得里","LIN":"5鄰","STREET":" ","SECT":" ","MAREA":"後厝","LANE":" ","ALLEY":" ","HOUSE_NO":"４９號","E_COORD97":175395.92000000001,"N_COORD97":2579857.4199999999,"ADDRESS":"後厝４９號","OBJECTID":157079},"geometry":{"x":175395.91999999993,"y":2579857.4199999981}},{"attributes":{"ID":157081,"DIS_CODE":0,"TOWNNAME":"安南區","LI":"梅花里","LIN":"2鄰","STREET":"安中路","SECT":"一段","MAREA":" ","LANE":"６３９巷","ALLEY":"８０弄","HOUSE_NO":"６６號","E_COORD97":167599.23000000001,"N_COORD97":2549062.6299999999,"ADDRESS":"安中路一段６３９巷８０弄６６號","OBJECTID":157080},"geometry":{"x":167599.23000000138,"y":2549062.629999999}},{"attributes":{"ID":157082,"DIS_CODE":0,"TOWNNAME":"安南區","LI":"梅花里","LIN":"2鄰","STREET":"安中路","SECT":"一段","MAREA":" ","LANE":"６３９巷","ALLEY":"８０弄","HOUSE_NO":"６８號","E_COORD97":167594.76999999999,"N_COORD97":2549062.8100000001,"ADDRESS":"安中路一段６３９巷８０弄６８號","OBJECTID":157081},"geometry":{"x":167594.77000000048,"y":2549062.8100000005}},{"attributes":{"ID":157083,"DIS_CODE":0,"TOWNNAME":"中西區","LI":"協和里","LIN":" ","STREET":"永和街","SECT":" ","MAREA":" ","LANE":" ","ALLEY":" ","HOUSE_NO":"１２３號","E_COORD97":167127.60999999999,"N_COORD97":2544715.3100000001,"ADDRESS":"永和街１２３號","OBJECTID":157082},"geometry":{"x":167127.61000000034,"y":2544715.3100000024}},{"attributes":{"ID":157084,"DIS_CODE":0,"TOWNNAME":"中西區","LI":"協和里","LIN":" ","STREET":"永和街","SECT":" ","MAREA":" ","LANE":" ","ALLEY":" ","HOUSE_NO":"１４１號","E_COORD97":167150.60999999999,"N_COORD97":2544730.7599999998,"ADDRESS":"永和街１４１號","OBJECTID":157083},"geometry":{"x":167150.61000000127,"y":2544730.7600000035}},{"attributes":{"ID":157085,"DIS_CODE":0,"TOWNNAME":"善化區","LI":"坐駕里","LIN":"19鄰","STREET":" ","SECT":" ","MAREA":"坐駕","LANE":" ","ALLEY":" ","HOUSE_NO":"５之１號","E_COORD97":178315.45999999999,"N_COORD97":2558385.02,"ADDRESS":"坐駕５之１號","OBJECTID":157084},"geometry":{"x":178315.46000000089,"y":2558385.0199999977}},{"attributes":{"ID":157086,"DIS_CODE":0,"TOWNNAME":"善化區","LI":"坐駕里","LIN":"19鄰","STREET":" ","SECT":" ","MAREA":"坐駕","LANE":" ","ALLEY":" ","HOUSE_NO":"５之６號","E_COORD97":178300.03,"N_COORD97":2558420.52,"ADDRESS":"坐駕５之６號","OBJECTID":157085},"geometry":{"x":178300.03000000119,"y":2558420.5200000014}},{"attributes":{"ID":157087,"DIS_CODE":0,"TOWNNAME":"麻豆區","LI":"麻口里","LIN":"5鄰","STREET":" ","SECT":" ","MAREA":"麻豆口","LANE":" ","ALLEY":" ","HOUSE_NO":"３２號之１６","E_COORD97":170524.14000000001,"N_COORD97":2565602.4300000002,"ADDRESS":"麻豆口３２號之１６","OBJECTID":157086},"geometry":{"x":170524.13999999873,"y":2565602.4300000016}},{"attributes":{"ID":157088,"DIS_CODE":0,"TOWNNAME":"麻豆區","LI":"麻口里","LIN":"5鄰","STREET":" ","SECT":" ","MAREA":"麻豆口","LANE":" ","ALLEY":" ","HOUSE_NO":"３２號之１７","E_COORD97":170537.14000000001,"N_COORD97":2565633.8599999999,"ADDRESS":"麻豆口３２號之１７","OBJECTID":157087},"geometry":{"x":170537.13999999966,"y":2565633.8599999994}},{"attributes":{"ID":157089,"DIS_CODE":0,"TOWNNAME":"麻豆區","LI":"麻口里","LIN":"5鄰","STREET":" ","SECT":" ","MAREA":"麻豆口","LANE":" ","ALLEY":" ","HOUSE_NO":"３２號之１","E_COORD97":170219.70000000001,"N_COORD97":2564772.2400000002,"ADDRESS":"麻豆口３２號之１","OBJECTID":157088},"geometry":{"x":170219.70000000112,"y":2564772.2400000039}},{"attributes":{"ID":157090,"DIS_CODE":0,"TOWNNAME":"麻豆區","LI":"麻口里","LIN":"5鄰","STREET":" ","SECT":" ","MAREA":"麻豆口","LANE":" ","ALLEY":" ","HOUSE_NO":"３２號之２０","E_COORD97":170219.17000000001,"N_COORD97":2564852.7799999998,"ADDRESS":"麻豆口３２號之２０","OBJECTID":157089},"geometry":{"x":170219.17000000179,"y":2564852.7800000012}},{"attributes":{"ID":157091,"DIS_CODE":0,"TOWNNAME":"善化區","LI":"胡厝里","LIN":"19鄰","STREET":" ","SECT":" ","MAREA":"西衛","LANE":" ","ALLEY":" ","HOUSE_NO":"２３號","E_COORD97":174325.89000000001,"N_COORD97":2559395.5,"ADDRESS":"西衛２３號","OBJECTID":157090},"geometry":{"x":174325.88999999966,"y":2559395.5}},{"attributes":{"ID":157092,"DIS_CODE":0,"TOWNNAME":"善化區","LI":"胡厝里","LIN":"19鄰","STREET":" ","SECT":" ","MAREA":"西衛","LANE":" ","ALLEY":" ","HOUSE_NO":"２４號之１","E_COORD97":174250.10000000001,"N_COORD97":2559363.52,"ADDRESS":"西衛２４號之１","OBJECTID":157091},"geometry":{"x":174250.09999999963,"y":2559363.5199999996}},{"attributes":{"ID":157093,"DIS_CODE":0,"TOWNNAME":"善化區","LI":"胡厝里","LIN":"19鄰","STREET":" ","SECT":" ","MAREA":"西衛","LANE":" ","ALLEY":" ","HOUSE_NO":"３０之６號","E_COORD97":174182.73000000001,"N_COORD97":2559254.77,"ADDRESS":"西衛３０之６號","OBJECTID":157092},"geometry":{"x":174182.73000000231,"y":2559254.7699999977}},{"attributes":{"ID":157094,"DIS_CODE":0,"TOWNNAME":"善化區","LI":"坐駕里","LIN":"19鄰","STREET":" ","SECT":" ","MAREA":"坐駕","LANE":" ","ALLEY":" ","HOUSE_NO":"５之３號","E_COORD97":178301.01000000001,"N_COORD97":2558407.77,"ADDRESS":"坐駕５之３號","OBJECTID":157093},"geometry":{"x":178301.01000000164,"y":2558407.7700000014}},{"attributes":{"ID":157095,"DIS_CODE":0,"TOWNNAME":"善化區","LI":"小新里","LIN":"19鄰","STREET":" ","SECT":" ","MAREA":"小新營","LANE":" ","ALLEY":" ","HOUSE_NO":"１５５號","E_COORD97":179931.88,"N_COORD97":2558254,"ADDRESS":"小新營１５５號","OBJECTID":157094},"geometry":{"x":179931.88000000082,"y":2558254.0000000019}},{"attributes":{"ID":157096,"DIS_CODE":0,"TOWNNAME":"善化區","LI":"小新里","LIN":"19鄰","STREET":" ","SECT":" ","MAREA":"小新營","LANE":" ","ALLEY":" ","HOUSE_NO":"１５４號","E_COORD97":179906.94,"N_COORD97":2558265,"ADDRESS":"小新營１５４號","OBJECTID":157095},"geometry":{"x":179906.94000000041,"y":2558265.0000000019}},{"attributes":{"ID":157097,"DIS_CODE":0,"TOWNNAME":"善化區","LI":"小新里","LIN":"19鄰","STREET":" ","SECT":" ","MAREA":"小新營","LANE":" ","ALLEY":" ","HOUSE_NO":"１５５號之１","E_COORD97":179937.89000000001,"N_COORD97":2558254.27,"ADDRESS":"小新營１５５號之１","OBJECTID":157096},"geometry":{"x":179937.8900000006,"y":2558254.2699999996}},{"attributes":{"ID":157098,"DIS_CODE":0,"TOWNNAME":"善化區","LI":"坐駕里","LIN":"19鄰","STREET":" ","SECT":" ","MAREA":"坐駕","LANE":" ","ALLEY":" ","HOUSE_NO":"６號","E_COORD97":178390.16,"N_COORD97":2558348.25,"ADDRESS":"坐駕６號","OBJECTID":157097},"geometry":{"x":178390.15999999922,"y":2558348.2500000019}},{"attributes":{"ID":157099,"DIS_CODE":0,"TOWNNAME":"麻豆區","LI":"麻口里","LIN":"5鄰","STREET":" ","SECT":" ","MAREA":"麻豆口","LANE":" ","ALLEY":" ","HOUSE_NO":"３２號之２６","E_COORD97":170352.03,"N_COORD97":2564910.4300000002,"ADDRESS":"麻豆口３２號之２６","OBJECTID":157098},"geometry":{"x":170352.03000000026,"y":2564910.4300000016}},{"attributes":{"ID":157100,"DIS_CODE":0,"TOWNNAME":"麻豆區","LI":"麻口里","LIN":"5鄰","STREET":" ","SECT":" ","MAREA":"麻豆口","LANE":" ","ALLEY":" ","HOUSE_NO":"３２號之２７","E_COORD97":170294.17000000001,"N_COORD97":2564875.9100000001,"ADDRESS":"麻豆口３２號之２７","OBJECTID":157099},"geometry":{"x":170294.17000000086,"y":2564875.9100000039}},{"attributes":{"ID":157101,"DIS_CODE":0,"TOWNNAME":"安南區","LI":"梅花里","LIN":"2鄰","STREET":"安中路","SECT":"一段","MAREA":" ","LANE":"６３９巷","ALLEY":"１００弄","HOUSE_NO":"１６號","E_COORD97":167681.57000000001,"N_COORD97":2548984.3399999999,"ADDRESS":"安中路一段６３９巷１００弄１６號","OBJECTID":157100},"geometry":{"x":167681.57000000123,"y":2548984.3399999999}},{"attributes":{"ID":157102,"DIS_CODE":0,"TOWNNAME":"安南區","LI":"梅花里","LIN":"2鄰","STREET":"安中路","SECT":"一段","MAREA":" ","LANE":"６３９巷","ALLEY":"１００弄","HOUSE_NO":"１８號","E_COORD97":167675.34,"N_COORD97":2548987.6299999999,"ADDRESS":"安中路一段６３９巷１００弄１８號","OBJECTID":157101},"geometry":{"x":167675.34000000078,"y":2548987.629999999}},{"attributes":{"ID":157103,"DIS_CODE":0,"TOWNNAME":"麻豆區","LI":"麻口里","LIN":"5鄰","STREET":" ","SECT":" ","MAREA":"麻豆口","LANE":" ","ALLEY":" ","HOUSE_NO":"３２號之２８","E_COORD97":170175.63,"N_COORD97":2564730.2599999998,"ADDRESS":"麻豆口３２號之２８","OBJECTID":157102},"geometry":{"x":170175.63000000082,"y":2564730.2599999998}},{"attributes":{"ID":157104,"DIS_CODE":0,"TOWNNAME":"麻豆區","LI":"麻口里","LIN":"5鄰","STREET":" ","SECT":" ","MAREA":"麻豆口","LANE":" ","ALLEY":" ","HOUSE_NO":"３２號之２９","E_COORD97":170487.92999999999,"N_COORD97":2565615.6499999999,"ADDRESS":"麻豆口３２號之２９","OBJECTID":157103},"geometry":{"x":170487.9299999997,"y":2565615.6500000004}},{"attributes":{"ID":157105,"DIS_CODE":0,"TOWNNAME":"麻豆區","LI":"麻口里","LIN":"5鄰","STREET":" ","SECT":" ","MAREA":"麻豆口","LANE":" ","ALLEY":" ","HOUSE_NO":"３２號之２","E_COORD97":170191.60000000001,"N_COORD97":2564979.8300000001,"ADDRESS":"麻豆口３２號之２","OBJECTID":157104},"geometry":{"x":170191.59999999963,"y":2564979.8300000001}},{"attributes":{"ID":157106,"DIS_CODE":0,"TOWNNAME":"安南區","LI":"梅花里","LIN":"2鄰","STREET":"安中路","SECT":"一段","MAREA":" ","LANE":"６３９巷","ALLEY":"１００弄","HOUSE_NO":"２０號","E_COORD97":167668.26000000001,"N_COORD97":2548990.3100000001,"ADDRESS":"安中路一段６３９巷１００弄２０號","OBJECTID":157105},"geometry":{"x":167668.25999999978,"y":2548990.3100000024}},{"attributes":{"ID":157107,"DIS_CODE":0,"TOWNNAME":"安南區","LI":"梅花里","LIN":"2鄰","STREET":"安中路","SECT":"一段","MAREA":" ","LANE":"６３９巷","ALLEY":"１００弄","HOUSE_NO":"２２號","E_COORD97":167661.34768899999,"N_COORD97":2548991.2785299998,"ADDRESS":"安中路一段６３９巷１００弄２２號","OBJECTID":157106},"geometry":{"x":167661.34768899996,"y":2548991.2785309982}},{"attributes":{"ID":157108,"DIS_CODE":0,"TOWNNAME":"安南區","LI":"梅花里","LIN":"2鄰","STREET":"安中路","SECT":"一段","MAREA":" ","LANE":"６３９巷","ALLEY":"１００弄","HOUSE_NO":"２６號","E_COORD97":167655.23000000001,"N_COORD97":2548995.2400000002,"ADDRESS":"安中路一段６３９巷１００弄２６號","OBJECTID":157107},"geometry":{"x":167655.23000000138,"y":2548995.2400000002}},{"attributes":{"ID":157109,"DIS_CODE":0,"TOWNNAME":"麻豆區","LI":"麻口里","LIN":"5鄰","STREET":" ","SECT":" ","MAREA":"麻豆口","LANE":" ","ALLEY":" ","HOUSE_NO":"３２號之３０","E_COORD97":170494.48999999999,"N_COORD97":2565615.73,"ADDRESS":"麻豆口３２號之３０","OBJECTID":157108},"geometry":{"x":170494.49000000022,"y":2565615.7300000004}},{"attributes":{"ID":157110,"DIS_CODE":0,"TOWNNAME":"安南區","LI":"梅花里","LIN":"2鄰","STREET":"安中路","SECT":"一段","MAREA":" ","LANE":"６３９巷","ALLEY":"１００弄","HOUSE_NO":"２８號","E_COORD97":167647.22,"N_COORD97":2548995.4700000002,"ADDRESS":"安中路一段６３９巷１００弄２８號","OBJECTID":157109},"geometry":{"x":167647.22000000067,"y":2548995.4700000044}},{"attributes":{"ID":157111,"DIS_CODE":0,"TOWNNAME":"麻豆區","LI":"麻口里","LIN":"5鄰","STREET":" ","SECT":" ","MAREA":"麻豆口","LANE":" ","ALLEY":" ","HOUSE_NO":"３２號之３１","E_COORD97":170243.51999999999,"N_COORD97":2564843.7999999998,"ADDRESS":"麻豆口３２號之３１","OBJECTID":157110},"geometry":{"x":170243.52000000142,"y":2564843.8000000026}},{"attributes":{"ID":157112,"DIS_CODE":0,"TOWNNAME":"安南區","LI":"梅花里","LIN":"2鄰","STREET":"安中路","SECT":"一段","MAREA":" ","LANE":"６３９巷","ALLEY":"１００弄","HOUSE_NO":"３０號","E_COORD97":167641.23999999999,"N_COORD97":2548999.6000000001,"ADDRESS":"安中路一段６３９巷１００弄３０號","OBJECTID":157111},"geometry":{"x":167641.24000000115,"y":2548999.5999999996}},{"attributes":{"ID":157113,"DIS_CODE":0,"TOWNNAME":"麻豆區","LI":"麻口里","LIN":"5鄰","STREET":" ","SECT":" ","MAREA":"麻豆口","LANE":" ","ALLEY":" ","HOUSE_NO":"３２號之３２","E_COORD97":170182.82000000001,"N_COORD97":2565272.3300000001,"ADDRESS":"麻豆口３２號之３２","OBJECTID":157112},"geometry":{"x":170182.81999999937,"y":2565272.3300000001}},{"attributes":{"ID":157114,"DIS_CODE":0,"TOWNNAME":"安南區","LI":"梅花里","LIN":"2鄰","STREET":"安中路","SECT":"一段","MAREA":" ","LANE":"６３９巷","ALLEY":"１００弄","HOUSE_NO":"３２號","E_COORD97":167635.12,"N_COORD97":2549002.8500000001,"ADDRESS":"安中路一段６３９巷１００弄３２號","OBJECTID":157113},"geometry":{"x":167635.12000000104,"y":2549002.8500000015}},{"attributes":{"ID":157115,"DIS_CODE":0,"TOWNNAME":"麻豆區","LI":"麻口里","LIN":"5鄰","STREET":" ","SECT":" ","MAREA":"麻豆口","LANE":" ","ALLEY":" ","HOUSE_NO":"３２號之３３","E_COORD97":170183.81,"N_COORD97":2565249.4300000002,"ADDRESS":"麻豆口３２號之３３","OBJECTID":157114},"geometry":{"x":170183.80999999959,"y":2565249.4300000016}},{"attributes":{"ID":157116,"DIS_CODE":0,"TOWNNAME":"永康區","LI":"蔦松里","LIN":"2鄰","STREET":"蔦松二街","SECT":" ","MAREA":" ","LANE":"１２４巷","ALLEY":"３５弄","HOUSE_NO":"１號","E_COORD97":173888.13,"N_COORD97":2549306.75,"ADDRESS":"蔦松二街１２４巷３５弄１號","OBJECTID":157115},"geometry":{"x":173888.13000000082,"y":2549306.75}},{"attributes":{"ID":157117,"DIS_CODE":0,"TOWNNAME":"安南區","LI":"梅花里","LIN":"2鄰","STREET":"安中路","SECT":"一段","MAREA":" ","LANE":"６３９巷","ALLEY":"１００弄","HOUSE_NO":"３６號","E_COORD97":167626.32000000001,"N_COORD97":2549005.25,"ADDRESS":"安中路一段６３９巷１００弄３６號","OBJECTID":157116},"geometry":{"x":167626.3200000003,"y":2549005.25}},{"attributes":{"ID":157118,"DIS_CODE":0,"TOWNNAME":"安南區","LI":"梅花里","LIN":"2鄰","STREET":"安中路","SECT":"一段","MAREA":" ","LANE":"６３９巷","ALLEY":"１００弄","HOUSE_NO":"３８號","E_COORD97":167621.01999999999,"N_COORD97":2549007.2599999998,"ADDRESS":"安中路一段６３９巷１００弄３８號","OBJECTID":157117},"geometry":{"x":167621.02000000142,"y":2549007.2600000016}},{"attributes":{"ID":157119,"DIS_CODE":0,"TOWNNAME":"安南區","LI":"安順里","LIN":"19鄰","STREET":"育安街","SECT":" ","MAREA":" ","LANE":" ","ALLEY":" ","HOUSE_NO":"１５２號之１","E_COORD97":169607.67999999999,"N_COORD97":2549849.7999999998,"ADDRESS":"育安街１５２號之１","OBJECTID":157118},"geometry":{"x":169607.68000000063,"y":2549849.8000000007}},{"attributes":{"ID":157120,"DIS_CODE":0,"TOWNNAME":"安南區","LI":"安順里","LIN":"19鄰","STREET":"育安街","SECT":" ","MAREA":" ","LANE":" ","ALLEY":" ","HOUSE_NO":"１４２號之１","E_COORD97":169612.67000000001,"N_COORD97":2549828.7999999998,"ADDRESS":"育安街１４２號之１","OBJECTID":157119},"geometry":{"x":169612.67000000086,"y":2549828.8000000026}},{"attributes":{"ID":157121,"DIS_CODE":0,"TOWNNAME":"安南區","LI":"梅花里","LIN":"2鄰","STREET":"安中路","SECT":"一段","MAREA":" ","LANE":"６３９巷","ALLEY":"１００弄","HOUSE_NO":"４０號","E_COORD97":167614.85999999999,"N_COORD97":2549010.52,"ADDRESS":"安中路一段６３９巷１００弄４０號","OBJECTID":157120},"geometry":{"x":167614.86000000127,"y":2549010.5199999996}},{"attributes":{"ID":157122,"DIS_CODE":0,"TOWNNAME":"仁德區","LI":"一甲里","LIN":"19鄰","STREET":"太乙二街","SECT":" ","MAREA":" ","LANE":" ","ALLEY":" ","HOUSE_NO":"４８號","E_COORD97":173437.92000000001,"N_COORD97":2542211,"ADDRESS":"太乙二街４８號","OBJECTID":157121},"geometry":{"x":173437.91999999993,"y":2542211.0000000019}},{"attributes":{"ID":157123,"DIS_CODE":0,"TOWNNAME":"仁德區","LI":"土庫里","LIN":"19鄰","STREET":"太子二街","SECT":" ","MAREA":" ","LANE":" ","ALLEY":" ","HOUSE_NO":"２１７號","E_COORD97":174495.73000000001,"N_COORD97":2543144.25,"ADDRESS":"太子二街２１７號","OBJECTID":157122},"geometry":{"x":174495.73000000045,"y":2543144.2499999981}},{"attributes":{"ID":157124,"DIS_CODE":0,"TOWNNAME":"善化區","LI":"小新里","LIN":"19鄰","STREET":" ","SECT":" ","MAREA":"小新營","LANE":" ","ALLEY":" ","HOUSE_NO":"１３０號","E_COORD97":179846.20999999999,"N_COORD97":2558260,"ADDRESS":"小新營１３０號","OBJECTID":157123},"geometry":{"x":179846.21000000089,"y":2558260}},{"attributes":{"ID":157125,"DIS_CODE":0,"TOWNNAME":"仁德區","LI":"土庫里","LIN":"19鄰","STREET":"太子一街","SECT":" ","MAREA":" ","LANE":" ","ALLEY":" ","HOUSE_NO":"２５３號","E_COORD97":174527.95999999999,"N_COORD97":2543188.25,"ADDRESS":"太子一街２５３號","OBJECTID":157124},"geometry":{"x":174527.95999999996,"y":2543188.2499999981}},{"attributes":{"ID":157126,"DIS_CODE":0,"TOWNNAME":"仁德區","LI":"大甲里","LIN":"19鄰","STREET":"中正西路","SECT":" ","MAREA":" ","LANE":" ","ALLEY":" ","HOUSE_NO":"５１３之１號","E_COORD97":169260.92999999999,"N_COORD97":2535497.79,"ADDRESS":"中正西路５１３之１號","OBJECTID":157125},"geometry":{"x":169260.9299999997,"y":2535497.7900000028}},{"attributes":{"ID":157127,"DIS_CODE":0,"TOWNNAME":"中西區","LI":"協和里","LIN":" ","STREET":"永和街","SECT":" ","MAREA":" ","LANE":" ","ALLEY":" ","HOUSE_NO":"１８１號","E_COORD97":167229.35999999999,"N_COORD97":2544797.9700000002,"ADDRESS":"永和街１８１號","OBJECTID":157126},"geometry":{"x":167229.36000000034,"y":2544797.9699999988}},{"attributes":{"ID":157128,"DIS_CODE":0,"TOWNNAME":"官田區","LI":"東庄里","LIN":"19鄰","STREET":" ","SECT":" ","MAREA":"瓦\u25A0","LANE":" ","ALLEY":" ","HOUSE_NO":"１７號之１","E_COORD97":179126.64000000001,"N_COORD97":2564897.3700000001,"ADDRESS":"瓦\u25A0１７號之１","OBJECTID":157127},"geometry":{"x":179126.63999999966,"y":2564897.3700000048}},{"attributes":{"ID":157129,"DIS_CODE":0,"TOWNNAME":"安南區","LI":"梅花里","LIN":"2鄰","STREET":"安中路","SECT":"一段","MAREA":" ","LANE":"６３９巷","ALLEY":"１００弄","HOUSE_NO":"４２號","E_COORD97":167607.42000000001,"N_COORD97":2549010.2200000002,"ADDRESS":"安中路一段６３９巷１００弄４２號","OBJECTID":157128},"geometry":{"x":167607.42000000086,"y":2549010.2200000007}},{"attributes":{"ID":157130,"DIS_CODE":0,"TOWNNAME":"安南區","LI":"梅花里","LIN":"2鄰","STREET":"安中路","SECT":"一段","MAREA":" ","LANE":"６３９巷","ALLEY":"１００弄","HOUSE_NO":"４６號","E_COORD97":167600.67000000001,"N_COORD97":2549015.8900000001,"ADDRESS":"安中路一段６３９巷１００弄４６號","OBJECTID":157129},"geometry":{"x":167600.67000000086,"y":2549015.8900000006}},{"attributes":{"ID":157131,"DIS_CODE":0,"TOWNNAME":"安南區","LI":"梅花里","LIN":"2鄰","STREET":"安中路","SECT":"一段","MAREA":" ","LANE":"６３９巷","ALLEY":"１００弄","HOUSE_NO":"４８號","E_COORD97":167593.82000000001,"N_COORD97":2549017.5499999998,"ADDRESS":"安中路一段６３９巷１００弄４８號","OBJECTID":157130},"geometry":{"x":167593.8200000003,"y":2549017.5500000007}},{"attributes":{"ID":157132,"DIS_CODE":0,"TOWNNAME":"官田區","LI":"東庄里","LIN":"19鄰","STREET":" ","SECT":" ","MAREA":"瓦\u25A0","LANE":" ","ALLEY":" ","HOUSE_NO":"１７號","E_COORD97":179133.26999999999,"N_COORD97":2564907.48,"ADDRESS":"瓦\u25A0１７號","OBJECTID":157131},"geometry":{"x":179133.27000000048,"y":2564907.4800000023}},{"attributes":{"ID":157133,"DIS_CODE":0,"TOWNNAME":"官田區","LI":"東庄里","LIN":"19鄰","STREET":" ","SECT":" ","MAREA":"瓦\u25A0","LANE":" ","ALLEY":" ","HOUSE_NO":"１８號","E_COORD97":179158.23000000001,"N_COORD97":2564920.9500000002,"ADDRESS":"瓦\u25A0１８號","OBJECTID":157132},"geometry":{"x":179158.23000000138,"y":2564920.9499999993}},{"attributes":{"ID":157134,"DIS_CODE":0,"TOWNNAME":"仁德區","LI":"仁愛里","LIN":"19鄰","STREET":" ","SECT":" ","MAREA":"仁愛","LANE":" ","ALLEY":" ","HOUSE_NO":"３９０號","E_COORD97":170094.99546999999,"N_COORD97":2540196.2337199999,"ADDRESS":"仁愛３９０號","OBJECTID":157133},"geometry":{"x":170094.99547000229,"y":2540196.2337240018}},{"attributes":{"ID":157135,"DIS_CODE":0,"TOWNNAME":"麻豆區","LI":"麻口里","LIN":"5鄰","STREET":" ","SECT":" ","MAREA":"麻豆口","LANE":" ","ALLEY":" ","HOUSE_NO":"３２號之３","E_COORD97":170242.20000000001,"N_COORD97":2565094.8300000001,"ADDRESS":"麻豆口３２號之３","OBJECTID":157134},"geometry":{"x":170242.20000000019,"y":2565094.8300000019}},{"attributes":{"ID":157136,"DIS_CODE":0,"TOWNNAME":"麻豆區","LI":"麻口里","LIN":"5鄰","STREET":" ","SECT":" ","MAREA":"麻豆口","LANE":" ","ALLEY":" ","HOUSE_NO":"３２號之４","E_COORD97":170176.92999999999,"N_COORD97":2565171.75,"ADDRESS":"麻豆口３２號之４","OBJECTID":157135},"geometry":{"x":170176.93000000063,"y":2565171.7500000037}},{"attributes":{"ID":157137,"DIS_CODE":0,"TOWNNAME":"麻豆區","LI":"麻口里","LIN":"5鄰","STREET":" ","SECT":" ","MAREA":"麻豆口","LANE":" ","ALLEY":" ","HOUSE_NO":"３２號之５","E_COORD97":170186.41,"N_COORD97":2565195.6400000001,"ADDRESS":"麻豆口３２號之５","OBJECTID":157136},"geometry":{"x":170186.41000000108,"y":2565195.6400000006}},{"attributes":{"ID":157138,"DIS_CODE":0,"TOWNNAME":"麻豆區","LI":"麻口里","LIN":"5鄰","STREET":" ","SECT":" ","MAREA":"麻豆口","LANE":" ","ALLEY":" ","HOUSE_NO":"３２號之６","E_COORD97":170194.17000000001,"N_COORD97":2565294.5499999998,"ADDRESS":"麻豆口３２號之６","OBJECTID":157137},"geometry":{"x":170194.17000000086,"y":2565294.5500000007}},{"attributes":{"ID":157139,"DIS_CODE":0,"TOWNNAME":"麻豆區","LI":"麻口里","LIN":"5鄰","STREET":" ","SECT":" ","MAREA":"麻豆口","LANE":" ","ALLEY":" ","HOUSE_NO":"３２號之８","E_COORD97":170190.03,"N_COORD97":2565470.2799999998,"ADDRESS":"麻豆口３２號之８","OBJECTID":157138},"geometry":{"x":170190.03000000212,"y":2565470.2800000012}},{"attributes":{"ID":157140,"DIS_CODE":0,"TOWNNAME":"麻豆區","LI":"麻口里","LIN":"5鄰","STREET":" ","SECT":" ","MAREA":"麻豆口","LANE":" ","ALLEY":" ","HOUSE_NO":"３２號之９","E_COORD97":170259.22,"N_COORD97":2565518.6099999999,"ADDRESS":"麻豆口３２號之９","OBJECTID":157139},"geometry":{"x":170259.21999999881,"y":2565518.6100000013}},{"attributes":{"ID":157141,"DIS_CODE":0,"TOWNNAME":"麻豆區","LI":"港尾里","LIN":"5鄰","STREET":" ","SECT":" ","MAREA":"港子尾","LANE":" ","ALLEY":" ","HOUSE_NO":"１號之１２","E_COORD97":168949.48999999999,"N_COORD97":2567205.5,"ADDRESS":"港子尾１號之１２","OBJECTID":157140},"geometry":{"x":168949.49000000115,"y":2567205.5000000019}},{"attributes":{"ID":157142,"DIS_CODE":0,"TOWNNAME":"麻豆區","LI":"港尾里","LIN":"5鄰","STREET":" ","SECT":" ","MAREA":"港子尾","LANE":" ","ALLEY":" ","HOUSE_NO":"１號之２９","E_COORD97":169002.17999999999,"N_COORD97":2567112.8399999999,"ADDRESS":"港子尾１號之２９","OBJECTID":157141},"geometry":{"x":169002.18000000063,"y":2567112.8399999999}},{"attributes":{"ID":157143,"DIS_CODE":0,"TOWNNAME":"麻豆區","LI":"港尾里","LIN":"5鄰","STREET":" ","SECT":" ","MAREA":"港子尾","LANE":" ","ALLEY":" ","HOUSE_NO":"１號之６","E_COORD97":168871.07000000001,"N_COORD97":2567412.9500000002,"ADDRESS":"港子尾１號之６","OBJECTID":157142},"geometry":{"x":168871.07000000123,"y":2567412.9499999993}},{"attributes":{"ID":157144,"DIS_CODE":0,"TOWNNAME":"麻豆區","LI":"港尾里","LIN":"5鄰","STREET":" ","SECT":" ","MAREA":"港子尾","LANE":" ","ALLEY":" ","HOUSE_NO":"２號之２","E_COORD97":168816.60999999999,"N_COORD97":2567380.98,"ADDRESS":"港子尾２號之２","OBJECTID":157143},"geometry":{"x":168816.61000000127,"y":2567380.9799999986}},{"attributes":{"ID":157145,"DIS_CODE":0,"TOWNNAME":"麻豆區","LI":"港尾里","LIN":"5鄰","STREET":" ","SECT":" ","MAREA":"港子尾","LANE":" ","ALLEY":" ","HOUSE_NO":"２號之５","E_COORD97":168776,"N_COORD97":2567369.77,"ADDRESS":"港子尾２號之５","OBJECTID":157144},"geometry":{"x":168775.99999999907,"y":2567369.7700000014}},{"attributes":{"ID":157146,"DIS_CODE":0,"TOWNNAME":"麻豆區","LI":"港尾里","LIN":"5鄰","STREET":" ","SECT":" ","MAREA":"港子尾","LANE":" ","ALLEY":" ","HOUSE_NO":"２號之６","E_COORD97":168772.66,"N_COORD97":2567360.9399999999,"ADDRESS":"港子尾２號之６","OBJECTID":157145},"geometry":{"x":168772.66000000015,"y":2567360.9400000013}},{"attributes":{"ID":157147,"DIS_CODE":0,"TOWNNAME":"麻豆區","LI":"港尾里","LIN":"5鄰","STREET":" ","SECT":" ","MAREA":"港子尾","LANE":" ","ALLEY":" ","HOUSE_NO":"２號","E_COORD97":168755.54999999999,"N_COORD97":2567397.2000000002,"ADDRESS":"港子尾２號","OBJECTID":157146},"geometry":{"x":168755.55000000075,"y":2567397.1999999993}},{"attributes":{"ID":157148,"DIS_CODE":0,"TOWNNAME":"安南區","LI":"梅花里","LIN":"2鄰","STREET":"安中路","SECT":"一段","MAREA":" ","LANE":"６３９巷","ALLEY":"１００弄","HOUSE_NO":"５０號","E_COORD97":167587.64000000001,"N_COORD97":2549020.8199999998,"ADDRESS":"安中路一段６３９巷１００弄５０號","OBJECTID":157147},"geometry":{"x":167587.63999999966,"y":2549020.8200000022}},{"attributes":{"ID":157149,"DIS_CODE":0,"TOWNNAME":"仁德區","LI":"一甲里","LIN":"19鄰","STREET":"太乙路","SECT":" ","MAREA":" ","LANE":" ","ALLEY":" ","HOUSE_NO":"３９號","E_COORD97":173526.70000000001,"N_COORD97":2542462.75,"ADDRESS":"太乙路３９號","OBJECTID":157148},"geometry":{"x":173526.70000000112,"y":2542462.7499999981}},{"attributes":{"ID":157150,"DIS_CODE":0,"TOWNNAME":"安南區","LI":"梅花里","LIN":"2鄰","STREET":"安中路","SECT":"一段","MAREA":" ","LANE":"６３９巷","ALLEY":"１００弄","HOUSE_NO":"５２號","E_COORD97":167580.56,"N_COORD97":2549023.5,"ADDRESS":"安中路一段６３９巷１００弄５２號","OBJECTID":157149},"geometry":{"x":167580.56000000052,"y":2549023.5}},{"attributes":{"ID":157151,"DIS_CODE":0,"TOWNNAME":"仁德區","LI":"上崙里","LIN":"19鄰","STREET":"德崙路","SECT":" ","MAREA":" ","LANE":" ","ALLEY":" ","HOUSE_NO":"３０４號","E_COORD97":173851.64000000001,"N_COORD97":2538116.7599999998,"ADDRESS":"德崙路３０４號","OBJECTID":157150},"geometry":{"x":173851.63999999966,"y":2538116.7600000016}},{"attributes":{"ID":157152,"DIS_CODE":0,"TOWNNAME":"仁德區","LI":"大甲里","LIN":"19鄰","STREET":"行大街","SECT":" ","MAREA":" ","LANE":" ","ALLEY":" ","HOUSE_NO":"４５０號","E_COORD97":169363.85000000001,"N_COORD97":2535322.5,"ADDRESS":"行大街４５０號","OBJECTID":157151},"geometry":{"x":169363.85000000056,"y":2535322.5000000019}},{"attributes":{"ID":157153,"DIS_CODE":0,"TOWNNAME":"仁德區","LI":"一甲里","LIN":"19鄰","STREET":"太乙二街","SECT":" ","MAREA":" ","LANE":" ","ALLEY":" ","HOUSE_NO":"３１號","E_COORD97":173414.37,"N_COORD97":2542193.0099999998,"ADDRESS":"太乙二街３１號","OBJECTID":157152},"geometry":{"x":173414.37000000011,"y":2542193.0100000035}},{"attributes":{"ID":157154,"DIS_CODE":0,"TOWNNAME":"仁德區","LI":"土庫里","LIN":"19鄰","STREET":"太子二街","SECT":" ","MAREA":" ","LANE":" ","ALLEY":" ","HOUSE_NO":"２１３號","E_COORD97":174493.42000000001,"N_COORD97":2543160,"ADDRESS":"太子二街２１３號","OBJECTID":157153},"geometry":{"x":174493.42000000086,"y":2543160.0000000019}},{"attributes":{"ID":157155,"DIS_CODE":0,"TOWNNAME":"安南區","LI":"梅花里","LIN":"2鄰","STREET":"安中路","SECT":"一段","MAREA":" ","LANE":"６３９巷","ALLEY":"１００弄","HOUSE_NO":"５６號","E_COORD97":167573.67999999999,"N_COORD97":2549025.1699999999,"ADDRESS":"安中路一段６３９巷１００弄５６號","OBJECTID":157154},"geometry":{"x":167573.6799999997,"y":2549025.1700000018}},{"attributes":{"ID":157156,"DIS_CODE":0,"TOWNNAME":"麻豆區","LI":"港尾里","LIN":"5鄰","STREET":" ","SECT":" ","MAREA":"港子尾","LANE":" ","ALLEY":" ","HOUSE_NO":"３號","E_COORD97":168760.42999999999,"N_COORD97":2567422.71,"ADDRESS":"港子尾３號","OBJECTID":157155},"geometry":{"x":168760.4299999997,"y":2567422.7100000009}},{"attributes":{"ID":157157,"DIS_CODE":0,"TOWNNAME":"麻豆區","LI":"港尾里","LIN":"5鄰","STREET":" ","SECT":" ","MAREA":"港子尾","LANE":" ","ALLEY":" ","HOUSE_NO":"５號之１","E_COORD97":168588.292082,"N_COORD97":2567185.9823599998,"ADDRESS":"港子尾５號之１","OBJECTID":157156},"geometry":{"x":168588.29208200052,"y":2567185.9823549986}},{"attributes":{"ID":157158,"DIS_CODE":0,"TOWNNAME":"安南區","LI":"梅花里","LIN":"2鄰","STREET":"安中路","SECT":"一段","MAREA":" ","LANE":"６３９巷","ALLEY":"１００弄","HOUSE_NO":"５８號","E_COORD97":167567.53,"N_COORD97":2549028.4300000002,"ADDRESS":"安中路一段６３９巷１００弄５８號","OBJECTID":157157},"geometry":{"x":167567.53000000212,"y":2549028.4299999978}},{"attributes":{"ID":157159,"DIS_CODE":0,"TOWNNAME":"麻豆區","LI":"港尾里","LIN":"5鄰","STREET":" ","SECT":" ","MAREA":"港子尾","LANE":" ","ALLEY":" ","HOUSE_NO":"５號","E_COORD97":168738,"N_COORD97":2567439.0699999998,"ADDRESS":"港子尾５號","OBJECTID":157158},"geometry":{"x":168738,"y":2567439.0700000022}},{"attributes":{"ID":157160,"DIS_CODE":0,"TOWNNAME":"安南區","LI":"梅花里","LIN":"2鄰","STREET":"安中路","SECT":"一段","MAREA":" ","LANE":"６３９巷","ALLEY":"１００弄","HOUSE_NO":"６０號","E_COORD97":167559.69,"N_COORD97":2549029.1499999999,"ADDRESS":"安中路一段６３９巷１００弄６０號","OBJECTID":157159},"geometry":{"x":167559.68999999948,"y":2549029.1500000022}},{"attributes":{"ID":157161,"DIS_CODE":0,"TOWNNAME":"安南區","LI":"梅花里","LIN":"2鄰","STREET":"安中路","SECT":"一段","MAREA":" ","LANE":"６３９巷","ALLEY":"１００弄","HOUSE_NO":"６２號","E_COORD97":167549.39000000001,"N_COORD97":2549032.1200000001,"ADDRESS":"安中路一段６３９巷１００弄６２號","OBJECTID":157160},"geometry":{"x":167549.3900000006,"y":2549032.1200000048}},{"attributes":{"ID":157162,"DIS_CODE":0,"TOWNNAME":"仁德區","LI":"一甲里","LIN":"19鄰","STREET":"太乙二街","SECT":" ","MAREA":" ","LANE":" ","ALLEY":" ","HOUSE_NO":"６８號","E_COORD97":173352.62,"N_COORD97":2542212.5,"ADDRESS":"太乙二街６８號","OBJECTID":157161},"geometry":{"x":173352.62000000104,"y":2542212.5}},{"attributes":{"ID":157163,"DIS_CODE":0,"TOWNNAME":"麻豆區","LI":"港尾里","LIN":"5鄰","STREET":" ","SECT":" ","MAREA":"港子尾","LANE":" ","ALLEY":" ","HOUSE_NO":"６號","E_COORD97":168747,"N_COORD97":2567418.8700000001,"ADDRESS":"港子尾６號","OBJECTID":157162},"geometry":{"x":168747,"y":2567418.870000001}},{"attributes":{"ID":157164,"DIS_CODE":0,"TOWNNAME":"麻豆區","LI":"港尾里","LIN":"5鄰","STREET":" ","SECT":" ","MAREA":"港子尾","LANE":" ","ALLEY":" ","HOUSE_NO":"７號之１","E_COORD97":168716.95000000001,"N_COORD97":2567429.6400000001,"ADDRESS":"港子尾７號之１","OBJECTID":157163},"geometry":{"x":168716.95000000019,"y":2567429.6400000006}},{"attributes":{"ID":157165,"DIS_CODE":0,"TOWNNAME":"安南區","LI":"砂崙里","LIN":"2鄰","STREET":"城北路","SECT":" ","MAREA":" ","LANE":"８７１巷","ALLEY":"１１７弄","HOUSE_NO":"４２號","E_COORD97":160560,"N_COORD97":2553171.6400000001,"ADDRESS":"城北路８７１巷１１７弄４２號","OBJECTID":157164},"geometry":{"x":160560.00000000093,"y":2553171.6400000025}},{"attributes":{"ID":157166,"DIS_CODE":0,"TOWNNAME":"麻豆區","LI":"港尾里","LIN":"5鄰","STREET":" ","SECT":" ","MAREA":"港子尾","LANE":" ","ALLEY":" ","HOUSE_NO":"７號之２","E_COORD97":168727.92000000001,"N_COORD97":2567419.25,"ADDRESS":"港子尾７號之２","OBJECTID":157165},"geometry":{"x":168727.92000000086,"y":2567419.25}},{"attributes":{"ID":157167,"DIS_CODE":0,"TOWNNAME":"麻豆區","LI":"港尾里","LIN":"5鄰","STREET":" ","SECT":" ","MAREA":"港子尾","LANE":" ","ALLEY":" ","HOUSE_NO":"８號之１","E_COORD97":168728.48999999999,"N_COORD97":2567367.8399999999,"ADDRESS":"港子尾８號之１","OBJECTID":157166},"geometry":{"x":168728.49000000022,"y":2567367.8400000036}},{"attributes":{"ID":157168,"DIS_CODE":0,"TOWNNAME":"麻豆區","LI":"港尾里","LIN":"5鄰","STREET":" ","SECT":" ","MAREA":"港子尾","LANE":" ","ALLEY":" ","HOUSE_NO":"８號之２","E_COORD97":168756.42999999999,"N_COORD97":2567314.3700000001,"ADDRESS":"港子尾８號之２","OBJECTID":157167},"geometry":{"x":168756.43000000063,"y":2567314.370000001}},{"attributes":{"ID":157169,"DIS_CODE":0,"TOWNNAME":"麻豆區","LI":"港尾里","LIN":"5鄰","STREET":" ","SECT":" ","MAREA":"港子尾","LANE":" ","ALLEY":" ","HOUSE_NO":"８號之３","E_COORD97":168743.73999999999,"N_COORD97":2567297.0499999998,"ADDRESS":"港子尾８號之３","OBJECTID":157168},"geometry":{"x":168743.74000000022,"y":2567297.0500000026}},{"attributes":{"ID":157170,"DIS_CODE":0,"TOWNNAME":"麻豆區","LI":"港尾里","LIN":"5鄰","STREET":" ","SECT":" ","MAREA":"港子尾","LANE":" ","ALLEY":" ","HOUSE_NO":"８號之６","E_COORD97":168692.04999999999,"N_COORD97":2567372.3799999999,"ADDRESS":"港子尾８號之６","OBJECTID":157169},"geometry":{"x":168692.04999999981,"y":2567372.379999999}},{"attributes":{"ID":157171,"DIS_CODE":0,"TOWNNAME":"麻豆區","LI":"港尾里","LIN":"5鄰","STREET":" ","SECT":" ","MAREA":"港子尾","LANE":" ","ALLEY":" ","HOUSE_NO":"８號","E_COORD97":168736.10000000001,"N_COORD97":2567388.5099999998,"ADDRESS":"港子尾８號","OBJECTID":157170},"geometry":{"x":168736.10000000149,"y":2567388.5100000016}},{"attributes":{"ID":157172,"DIS_CODE":0,"TOWNNAME":"麻豆區","LI":"港尾里","LIN":"5鄰","STREET":" ","SECT":" ","MAREA":"港子尾","LANE":" ","ALLEY":" ","HOUSE_NO":"９號之１","E_COORD97":168825.91,"N_COORD97":2567351.9399999999,"ADDRESS":"港子尾９號之１","OBJECTID":157171},"geometry":{"x":168825.90999999922,"y":2567351.9399999995}},{"attributes":{"ID":157173,"DIS_CODE":0,"TOWNNAME":"麻豆區","LI":"港尾里","LIN":"5鄰","STREET":" ","SECT":" ","MAREA":"港子尾","LANE":" ","ALLEY":" ","HOUSE_NO":"９號之２","E_COORD97":168837.67000000001,"N_COORD97":2567357.98,"ADDRESS":"港子尾９號之２","OBJECTID":157172},"geometry":{"x":168837.67000000179,"y":2567357.9800000023}},{"attributes":{"ID":157174,"DIS_CODE":0,"TOWNNAME":"麻豆區","LI":"港尾里","LIN":"5鄰","STREET":" ","SECT":" ","MAREA":"港子尾","LANE":" ","ALLEY":" ","HOUSE_NO":"９號之３","E_COORD97":168804.84,"N_COORD97":2567321.8900000001,"ADDRESS":"港子尾９號之３","OBJECTID":157173},"geometry":{"x":168804.84000000078,"y":2567321.8900000025}},{"attributes":{"ID":157175,"DIS_CODE":0,"TOWNNAME":"麻豆區","LI":"港尾里","LIN":"5鄰","STREET":" ","SECT":" ","MAREA":"港子尾","LANE":" ","ALLEY":" ","HOUSE_NO":"９號之８","E_COORD97":168824.95000000001,"N_COORD97":2567329,"ADDRESS":"港子尾９號之８","OBJECTID":157174},"geometry":{"x":168824.95000000112,"y":2567329}},{"attributes":{"ID":157176,"DIS_CODE":0,"TOWNNAME":"麻豆區","LI":"寮\u25A0里","LIN":"5鄰","STREET":" ","SECT":" ","MAREA":"寮子\u25A0","LANE":" ","ALLEY":" ","HOUSE_NO":"３８號之３","E_COORD97":176757.54000000001,"N_COORD97":2565419.6200000001,"ADDRESS":"寮子\u25A0３８號之３","OBJECTID":157175},"geometry":{"x":176757.54000000097,"y":2565419.620000001}},{"attributes":{"ID":157177,"DIS_CODE":0,"TOWNNAME":"麻豆區","LI":"寮\u25A0里","LIN":"5鄰","STREET":" ","SECT":" ","MAREA":"寮子\u25A0","LANE":" ","ALLEY":" ","HOUSE_NO":"３８號之６","E_COORD97":176729.56,"N_COORD97":2565436.6600000001,"ADDRESS":"寮子\u25A0３８號之６","OBJECTID":157176},"geometry":{"x":176729.56000000052,"y":2565436.6600000001}},{"attributes":{"ID":157178,"DIS_CODE":0,"TOWNNAME":"麻豆區","LI":"寮\u25A0里","LIN":"5鄰","STREET":" ","SECT":" ","MAREA":"寮子\u25A0","LANE":" ","ALLEY":" ","HOUSE_NO":"３８號","E_COORD97":176764.69,"N_COORD97":2565409.2599999998,"ADDRESS":"寮子\u25A0３８號","OBJECTID":157177},"geometry":{"x":176764.69000000227,"y":2565409.2600000016}},{"attributes":{"ID":157179,"DIS_CODE":0,"TOWNNAME":"麻豆區","LI":"寮\u25A0里","LIN":"5鄰","STREET":" ","SECT":" ","MAREA":"寮子\u25A0","LANE":" ","ALLEY":" ","HOUSE_NO":"４１號之１","E_COORD97":176775.95000000001,"N_COORD97":2565371.8599999999,"ADDRESS":"寮子\u25A0４１號之１","OBJECTID":157178},"geometry":{"x":176775.95000000019,"y":2565371.8600000013}},{"attributes":{"ID":157180,"DIS_CODE":0,"TOWNNAME":"麻豆區","LI":"寮\u25A0里","LIN":"5鄰","STREET":" ","SECT":" ","MAREA":"寮子\u25A0","LANE":" ","ALLEY":" ","HOUSE_NO":"４１號之２","E_COORD97":176807.81,"N_COORD97":2565394.8900000001,"ADDRESS":"寮子\u25A0４１號之２","OBJECTID":157179},"geometry":{"x":176807.81000000052,"y":2565394.8900000006}},{"attributes":{"ID":157181,"DIS_CODE":0,"TOWNNAME":"麻豆區","LI":"寮\u25A0里","LIN":"5鄰","STREET":" ","SECT":" ","MAREA":"寮子\u25A0","LANE":" ","ALLEY":" ","HOUSE_NO":"４１號之５","E_COORD97":176782.51000000001,"N_COORD97":2565422.5600000001,"ADDRESS":"寮子\u25A0４１號之５","OBJECTID":157180},"geometry":{"x":176782.51000000071,"y":2565422.5600000024}},{"attributes":{"ID":157182,"DIS_CODE":0,"TOWNNAME":"麻豆區","LI":"寮\u25A0里","LIN":"5鄰","STREET":" ","SECT":" ","MAREA":"寮子\u25A0","LANE":" ","ALLEY":" ","HOUSE_NO":"４１號之６","E_COORD97":176787.87,"N_COORD97":2565367.6499999999,"ADDRESS":"寮子\u25A0４１號之６","OBJECTID":157181},"geometry":{"x":176787.87000000011,"y":2565367.6500000022}},{"attributes":{"ID":157183,"DIS_CODE":0,"TOWNNAME":"麻豆區","LI":"寮\u25A0里","LIN":"5鄰","STREET":" ","SECT":" ","MAREA":"寮子\u25A0","LANE":" ","ALLEY":" ","HOUSE_NO":"４１號","E_COORD97":176784.95000000001,"N_COORD97":2565398.1899999999,"ADDRESS":"寮子\u25A0４１號","OBJECTID":157182},"geometry":{"x":176784.95000000112,"y":2565398.1899999995}},{"attributes":{"ID":157184,"DIS_CODE":0,"TOWNNAME":"麻豆區","LI":"寮\u25A0里","LIN":"5鄰","STREET":" ","SECT":" ","MAREA":"寮子\u25A0","LANE":" ","ALLEY":" ","HOUSE_NO":"４２號之１","E_COORD97":176808.26999999999,"N_COORD97":2565357.6400000001,"ADDRESS":"寮子\u25A0４２號之１","OBJECTID":157183},"geometry":{"x":176808.26999999955,"y":2565357.6400000025}},{"attributes":{"ID":157185,"DIS_CODE":0,"TOWNNAME":"麻豆區","LI":"寮\u25A0里","LIN":"5鄰","STREET":" ","SECT":" ","MAREA":"寮子\u25A0","LANE":" ","ALLEY":" ","HOUSE_NO":"４２號之２","E_COORD97":176791.85000000001,"N_COORD97":2565364.6800000002,"ADDRESS":"寮子\u25A0４２號之２","OBJECTID":157184},"geometry":{"x":176791.85000000056,"y":2565364.6799999997}},{"attributes":{"ID":157186,"DIS_CODE":0,"TOWNNAME":"麻豆區","LI":"寮\u25A0里","LIN":"5鄰","STREET":" ","SECT":" ","MAREA":"寮子\u25A0","LANE":" ","ALLEY":" ","HOUSE_NO":"４２號之３","E_COORD97":176798.01999999999,"N_COORD97":2565362.6400000001,"ADDRESS":"寮子\u25A0４２號之３","OBJECTID":157185},"geometry":{"x":176798.01999999955,"y":2565362.6400000006}},{"attributes":{"ID":157187,"DIS_CODE":0,"TOWNNAME":"麻豆區","LI":"寮\u25A0里","LIN":"5鄰","STREET":" ","SECT":" ","MAREA":"寮子\u25A0","LANE":" ","ALLEY":" ","HOUSE_NO":"４２號","E_COORD97":176803.87,"N_COORD97":2565361.1299999999,"ADDRESS":"寮子\u25A0４２號","OBJECTID":157186},"geometry":{"x":176803.87000000197,"y":2565361.1299999971}},{"attributes":{"ID":157188,"DIS_CODE":0,"TOWNNAME":"麻豆區","LI":"寮\u25A0里","LIN":"5鄰","STREET":" ","SECT":" ","MAREA":"寮子\u25A0","LANE":" ","ALLEY":" ","HOUSE_NO":"４３號之１","E_COORD97":176846.12,"N_COORD97":2565360.1200000001,"ADDRESS":"寮子\u25A0４３號之１","OBJECTID":157187},"geometry":{"x":176846.11999999918,"y":2565360.1200000048}},{"attributes":{"ID":157189,"DIS_CODE":0,"TOWNNAME":"麻豆區","LI":"寮\u25A0里","LIN":"5鄰","STREET":" ","SECT":" ","MAREA":"寮子\u25A0","LANE":" ","ALLEY":" ","HOUSE_NO":"４３號","E_COORD97":176830.32000000001,"N_COORD97":2565370.8900000001,"ADDRESS":"寮子\u25A0４３號","OBJECTID":157188},"geometry":{"x":176830.32000000123,"y":2565370.8900000006}},{"attributes":{"ID":157190,"DIS_CODE":0,"TOWNNAME":"麻豆區","LI":"寮\u25A0里","LIN":"5鄰","STREET":" ","SECT":" ","MAREA":"寮子\u25A0","LANE":" ","ALLEY":" ","HOUSE_NO":"４４號之１０","E_COORD97":177125.16,"N_COORD97":2565274.4700000002,"ADDRESS":"寮子\u25A0４４號之１０","OBJECTID":157189},"geometry":{"x":177125.16000000015,"y":2565274.4700000007}},{"attributes":{"ID":157191,"DIS_CODE":0,"TOWNNAME":"麻豆區","LI":"寮\u25A0里","LIN":"5鄰","STREET":" ","SECT":" ","MAREA":"寮子\u25A0","LANE":" ","ALLEY":" ","HOUSE_NO":"４４號之１２","E_COORD97":177129.92000000001,"N_COORD97":2565251.0099999998,"ADDRESS":"寮子\u25A0４４號之１２","OBJECTID":157190},"geometry":{"x":177129.91999999993,"y":2565251.0100000035}},{"attributes":{"ID":157192,"DIS_CODE":0,"TOWNNAME":"麻豆區","LI":"寮\u25A0里","LIN":"5鄰","STREET":" ","SECT":" ","MAREA":"寮子\u25A0","LANE":" ","ALLEY":" ","HOUSE_NO":"４４號之１５","E_COORD97":177195.43444300001,"N_COORD97":2565229.6299299998,"ADDRESS":"寮子\u25A0４４號之１５","OBJECTID":157191},"geometry":{"x":177195.43444299977,"y":2565229.629931001}},{"attributes":{"ID":157193,"DIS_CODE":0,"TOWNNAME":"麻豆區","LI":"寮\u25A0里","LIN":"5鄰","STREET":" ","SECT":" ","MAREA":"寮子\u25A0","LANE":" ","ALLEY":" ","HOUSE_NO":"４４號之１８","E_COORD97":177243.43372,"N_COORD97":2565211.7441099999,"ADDRESS":"寮子\u25A0４４號之１８","OBJECTID":157192},"geometry":{"x":177243.43372000009,"y":2565211.7441070024}},{"attributes":{"ID":157194,"DIS_CODE":0,"TOWNNAME":"中西區","LI":"福安里","LIN":"19鄰","STREET":"中正路","SECT":" ","MAREA":" ","LANE":" ","ALLEY":" ","HOUSE_NO":"１６１號","E_COORD97":167886.54999999999,"N_COORD97":2543678.1699999999,"ADDRESS":"中正路１６１號","OBJECTID":157193},"geometry":{"x":167886.54999999981,"y":2543678.1700000018}},{"attributes":{"ID":157195,"DIS_CODE":0,"TOWNNAME":"麻豆區","LI":"寮\u25A0里","LIN":"5鄰","STREET":" ","SECT":" ","MAREA":"寮子\u25A0","LANE":" ","ALLEY":" ","HOUSE_NO":"４４號之１","E_COORD97":176866,"N_COORD97":2565369.4700000002,"ADDRESS":"寮子\u25A0４４號之１","OBJECTID":157194},"geometry":{"x":176866.00000000093,"y":2565369.4700000007}},{"attributes":{"ID":157196,"DIS_CODE":0,"TOWNNAME":"麻豆區","LI":"寮\u25A0里","LIN":"5鄰","STREET":" ","SECT":" ","MAREA":"寮子\u25A0","LANE":" ","ALLEY":" ","HOUSE_NO":"４４號之２０","E_COORD97":176998.66,"N_COORD97":2565308.4500000002,"ADDRESS":"寮子\u25A0４４號之２０","OBJECTID":157195},"geometry":{"x":176998.66000000201,"y":2565308.4499999974}},{"attributes":{"ID":157197,"DIS_CODE":0,"TOWNNAME":"麻豆區","LI":"寮\u25A0里","LIN":"5鄰","STREET":" ","SECT":" ","MAREA":"寮子\u25A0","LANE":" ","ALLEY":" ","HOUSE_NO":"４４號之２２","E_COORD97":176884.64999999999,"N_COORD97":2565348.0600000001,"ADDRESS":"寮子\u25A0４４號之２２","OBJECTID":157196},"geometry":{"x":176884.65000000037,"y":2565348.0600000024}},{"attributes":{"ID":157198,"DIS_CODE":0,"TOWNNAME":"麻豆區","LI":"寮\u25A0里","LIN":"5鄰","STREET":" ","SECT":" ","MAREA":"寮子\u25A0","LANE":" ","ALLEY":" ","HOUSE_NO":"４４號之２３","E_COORD97":176888.87,"N_COORD97":2565345.9399999999,"ADDRESS":"寮子\u25A0４４號之２３","OBJECTID":157197},"geometry":{"x":176888.87000000104,"y":2565345.9399999976}},{"attributes":{"ID":157199,"DIS_CODE":0,"TOWNNAME":"麻豆區","LI":"寮\u25A0里","LIN":"5鄰","STREET":" ","SECT":" ","MAREA":"寮子\u25A0","LANE":" ","ALLEY":" ","HOUSE_NO":"４４號之２４","E_COORD97":176895.10000000001,"N_COORD97":2565342.5499999998,"ADDRESS":"寮子\u25A0４４號之２４","OBJECTID":157198},"geometry":{"x":176895.10000000149,"y":2565342.5500000007}},{"attributes":{"ID":157200,"DIS_CODE":0,"TOWNNAME":"麻豆區","LI":"寮\u25A0里","LIN":"5鄰","STREET":" ","SECT":" ","MAREA":"寮子\u25A0","LANE":" ","ALLEY":" ","HOUSE_NO":"４４號之２８","E_COORD97":177295.35999999999,"N_COORD97":2565215.3300000001,"ADDRESS":"寮子\u25A0４４號之２８","OBJECTID":157199},"geometry":{"x":177295.36000000034,"y":2565215.3300000038}},{"attributes":{"ID":157201,"DIS_CODE":0,"TOWNNAME":"麻豆區","LI":"寮\u25A0里","LIN":"5鄰","STREET":" ","SECT":" ","MAREA":"寮子\u25A0","LANE":" ","ALLEY":" ","HOUSE_NO":"４４號之２","E_COORD97":176928.66,"N_COORD97":2565332.1200000001,"ADDRESS":"寮子\u25A0４４號之２","OBJECTID":157200},"geometry":{"x":176928.66000000015,"y":2565332.120000001}}]}