{"displayFieldName":"TOWNNAME","fieldAliases":{"ID":"ID","DIS_CODE":"DIS_CODE","TOWNNAME":"TOWNNAME","LI":"LI","LIN":"LIN","STREET":"STREET","SECT":"SECT","MAREA":"MAREA","LANE":"LANE","ALLEY":"ALLEY","HOUSE_NO":"HOUSE_NO","E_COORD97":"E_COORD97","N_COORD97":"N_COORD97","ADDRESS":"ADDRESS","OBJECTID":"OBJECTID"},"geometryType":"esriGeometryPoint","spatialReference":{"wkid":102443,"latestWkid":3826},"fields":[{"name":"ID","type":"esriFieldTypeDouble","alias":"ID"},{"name":"DIS_CODE","type":"esriFieldTypeInteger","alias":"DIS_CODE"},{"name":"TOWNNAME","type":"esriFieldTypeString","alias":"TOWNNAME","length":8},{"name":"LI","type":"esriFieldTypeString","alias":"LI","length":8},{"name":"LIN","type":"esriFieldTypeString","alias":"LIN","length":12},{"name":"STREET","type":"esriFieldTypeString","alias":"STREET","length":20},{"name":"SECT","type":"esriFieldTypeString","alias":"SECT","length":8},{"name":"MAREA","type":"esriFieldTypeString","alias":"MAREA","length":12},{"name":"LANE","type":"esriFieldTypeString","alias":"LANE","length":10},{"name":"ALLEY","type":"esriFieldTypeString","alias":"ALLEY","length":10},{"name":"HOUSE_NO","type":"esriFieldTypeString","alias":"HOUSE_NO","length":20},{"name":"E_COORD97","type":"esriFieldTypeDouble","alias":"E_COORD97"},{"name":"N_COORD97","type":"esriFieldTypeDouble","alias":"N_COORD97"},{"name":"ADDRESS","type":"esriFieldTypeString","alias":"ADDRESS","length":50},{"name":"OBJECTID","type":"esriFieldTypeOID","alias":"OBJECTID"}],"features":[{"attributes":{"ID":614628,"DIS_CODE":0,"TOWNNAME":"仁德區","LI":"保安里","LIN":"23鄰","STREET":"保學一街","SECT":" ","MAREA":" ","LANE":" ","ALLEY":" ","HOUSE_NO":"５號","E_COORD97":171576.37,"N_COORD97":2535591.6099999999,"ADDRESS":"保學一街５號","OBJECTID":614601},"geometry":{"x":171576.37000000104,"y":2535591.6100000013}},{"attributes":{"ID":614629,"DIS_CODE":0,"TOWNNAME":"玉井區","LI":"中正里","LIN":"2鄰","STREET":"玉安街","SECT":" ","MAREA":" ","LANE":" ","ALLEY":" ","HOUSE_NO":"２６１號","E_COORD97":195313.47,"N_COORD97":2558769.3199999998,"ADDRESS":"玉安街２６１號","OBJECTID":614602},"geometry":{"x":195313.46999999974,"y":2558769.3200000003}},{"attributes":{"ID":614630,"DIS_CODE":0,"TOWNNAME":"玉井區","LI":"中正里","LIN":"2鄰","STREET":"後旦街","SECT":" ","MAREA":" ","LANE":" ","ALLEY":" ","HOUSE_NO":"９９號","E_COORD97":195344.70999999999,"N_COORD97":2558718.3100000001,"ADDRESS":"後旦街９９號","OBJECTID":614603},"geometry":{"x":195344.70999999996,"y":2558718.3100000005}},{"attributes":{"ID":614631,"DIS_CODE":0,"TOWNNAME":"玉井區","LI":"中正里","LIN":"2鄰","STREET":"玉安街","SECT":" ","MAREA":" ","LANE":" ","ALLEY":" ","HOUSE_NO":"２０５號","E_COORD97":195223.45999999999,"N_COORD97":2558713.3100000001,"ADDRESS":"玉安街２０５號","OBJECTID":614604},"geometry":{"x":195223.46000000089,"y":2558713.3100000042}},{"attributes":{"ID":614632,"DIS_CODE":0,"TOWNNAME":"玉井區","LI":"中正里","LIN":"2鄰","STREET":"大成路","SECT":" ","MAREA":" ","LANE":" ","ALLEY":" ","HOUSE_NO":"５５５號","E_COORD97":195341.76000000001,"N_COORD97":2558799.2599999998,"ADDRESS":"大成路５５５號","OBJECTID":614605},"geometry":{"x":195341.76000000071,"y":2558799.2599999998}},{"attributes":{"ID":614633,"DIS_CODE":0,"TOWNNAME":"玉井區","LI":"中正里","LIN":"2鄰","STREET":"玉安街","SECT":" ","MAREA":" ","LANE":" ","ALLEY":" ","HOUSE_NO":"２０９號","E_COORD97":195228.87,"N_COORD97":2558717.3100000001,"ADDRESS":"玉安街２０９號","OBJECTID":614606},"geometry":{"x":195228.87000000197,"y":2558717.3100000024}},{"attributes":{"ID":614634,"DIS_CODE":0,"TOWNNAME":"玉井區","LI":"中正里","LIN":"2鄰","STREET":"玉安街","SECT":" ","MAREA":" ","LANE":" ","ALLEY":" ","HOUSE_NO":"２１３號","E_COORD97":195236.07000000001,"N_COORD97":2558721.3100000001,"ADDRESS":"玉安街２１３號","OBJECTID":614607},"geometry":{"x":195236.06999999937,"y":2558721.3100000024}},{"attributes":{"ID":614635,"DIS_CODE":0,"TOWNNAME":"玉井區","LI":"中正里","LIN":"2鄰","STREET":"玉安街","SECT":" ","MAREA":" ","LANE":" ","ALLEY":" ","HOUSE_NO":"３１０號","E_COORD97":195355.66,"N_COORD97":2558758.3199999998,"ADDRESS":"玉安街３１０號","OBJECTID":614608},"geometry":{"x":195355.65999999922,"y":2558758.3200000022}},{"attributes":{"ID":614636,"DIS_CODE":0,"TOWNNAME":"玉井區","LI":"中正里","LIN":"2鄰","STREET":"玉安街","SECT":" ","MAREA":" ","LANE":" ","ALLEY":" ","HOUSE_NO":"２０３號","E_COORD97":195221.17000000001,"N_COORD97":2558711.3100000001,"ADDRESS":"玉安街２０３號","OBJECTID":614609},"geometry":{"x":195221.16999999993,"y":2558711.3100000024}},{"attributes":{"ID":614637,"DIS_CODE":0,"TOWNNAME":"歸仁區","LI":"歸南里","LIN":"2鄰","STREET":"民權南路","SECT":" ","MAREA":" ","LANE":" ","ALLEY":" ","HOUSE_NO":"２００號","E_COORD97":176948.10999999999,"N_COORD97":2540338.5,"ADDRESS":"民權南路２００號","OBJECTID":614610},"geometry":{"x":176948.1099999994,"y":2540338.5}},{"attributes":{"ID":614638,"DIS_CODE":0,"TOWNNAME":"歸仁區","LI":"歸仁里","LIN":"2鄰","STREET":"文化街","SECT":"一段","MAREA":" ","LANE":" ","ALLEY":" ","HOUSE_NO":"１６９號","E_COORD97":177774.39000000001,"N_COORD97":2541114.0499999998,"ADDRESS":"文化街一段１６９號","OBJECTID":614611},"geometry":{"x":177774.38999999966,"y":2541114.0500000026}},{"attributes":{"ID":614639,"DIS_CODE":0,"TOWNNAME":"歸仁區","LI":"歸南里","LIN":"2鄰","STREET":"民權南路","SECT":" ","MAREA":" ","LANE":" ","ALLEY":" ","HOUSE_NO":"２０４號","E_COORD97":176945.01000000001,"N_COORD97":2540328.5,"ADDRESS":"民權南路２０４號","OBJECTID":614612},"geometry":{"x":176945.01000000164,"y":2540328.4999999981}},{"attributes":{"ID":614640,"DIS_CODE":0,"TOWNNAME":"歸仁區","LI":"辜厝里","LIN":"2鄰","STREET":"中山路","SECT":"二段","MAREA":" ","LANE":" ","ALLEY":" ","HOUSE_NO":"５７號","E_COORD97":177462.23999999999,"N_COORD97":2540781.5499999998,"ADDRESS":"中山路二段５７號","OBJECTID":614613},"geometry":{"x":177462.24000000022,"y":2540781.5500000026}},{"attributes":{"ID":614641,"DIS_CODE":0,"TOWNNAME":"歸仁區","LI":"新厝里","LIN":"2鄰","STREET":"中正一街","SECT":" ","MAREA":" ","LANE":" ","ALLEY":" ","HOUSE_NO":"１５號","E_COORD97":177681.09,"N_COORD97":2540711.6800000002,"ADDRESS":"中正一街１５號","OBJECTID":614614},"geometry":{"x":177681.08999999985,"y":2540711.6800000016}},{"attributes":{"ID":614642,"DIS_CODE":0,"TOWNNAME":"歸仁區","LI":"許厝里","LIN":"2鄰","STREET":"仁愛一街","SECT":" ","MAREA":" ","LANE":" ","ALLEY":" ","HOUSE_NO":"１１號","E_COORD97":178302.76999999999,"N_COORD97":2540632.0099999998,"ADDRESS":"仁愛一街１１號","OBJECTID":614615},"geometry":{"x":178302.77000000048,"y":2540632.0099999998}},{"attributes":{"ID":614643,"DIS_CODE":0,"TOWNNAME":"歸仁區","LI":"歸南里","LIN":"2鄰","STREET":"民權南路","SECT":" ","MAREA":" ","LANE":" ","ALLEY":" ","HOUSE_NO":"２０６號","E_COORD97":176945.01000000001,"N_COORD97":2540324.5,"ADDRESS":"民權南路２０６號","OBJECTID":614616},"geometry":{"x":176945.01000000164,"y":2540324.5}},{"attributes":{"ID":614644,"DIS_CODE":0,"TOWNNAME":"歸仁區","LI":"歸仁里","LIN":"2鄰","STREET":"和平北街","SECT":" ","MAREA":" ","LANE":" ","ALLEY":" ","HOUSE_NO":"９１號","E_COORD97":177844.59,"N_COORD97":2541086.04,"ADDRESS":"和平北街９１號","OBJECTID":614617},"geometry":{"x":177844.59000000171,"y":2541086.0399999991}},{"attributes":{"ID":614645,"DIS_CODE":0,"TOWNNAME":"歸仁區","LI":"歸仁里","LIN":"2鄰","STREET":"文化街","SECT":"一段","MAREA":" ","LANE":" ","ALLEY":" ","HOUSE_NO":"１６３號","E_COORD97":177799.09,"N_COORD97":2541117.0499999998,"ADDRESS":"文化街一段１６３號","OBJECTID":614618},"geometry":{"x":177799.09000000078,"y":2541117.0500000026}},{"attributes":{"ID":614646,"DIS_CODE":0,"TOWNNAME":"歸仁區","LI":"新厝里","LIN":"2鄰","STREET":"復興路","SECT":" ","MAREA":" ","LANE":" ","ALLEY":" ","HOUSE_NO":"１３２號","E_COORD97":177683.76999999999,"N_COORD97":2540654.25,"ADDRESS":"復興路１３２號","OBJECTID":614619},"geometry":{"x":177683.77000000142,"y":2540654.25}},{"attributes":{"ID":614647,"DIS_CODE":0,"TOWNNAME":"歸仁區","LI":"新厝里","LIN":"2鄰","STREET":"復興路","SECT":" ","MAREA":" ","LANE":" ","ALLEY":" ","HOUSE_NO":"１２８號","E_COORD97":177695.97,"N_COORD97":2540646.25,"ADDRESS":"復興路１２８號","OBJECTID":614620},"geometry":{"x":177695.96999999974,"y":2540646.2500000019}},{"attributes":{"ID":614648,"DIS_CODE":0,"TOWNNAME":"麻豆區","LI":"南勢里","LIN":"2鄰","STREET":"新生北路","SECT":" ","MAREA":" ","LANE":" ","ALLEY":" ","HOUSE_NO":"７３１號","E_COORD97":173563.78,"N_COORD97":2565524.5800000001,"ADDRESS":"新生北路７３１號","OBJECTID":614621},"geometry":{"x":173563.78000000119,"y":2565524.5800000001}},{"attributes":{"ID":614649,"DIS_CODE":0,"TOWNNAME":"仁德區","LI":"保安里","LIN":"23鄰","STREET":"保學路","SECT":" ","MAREA":" ","LANE":" ","ALLEY":" ","HOUSE_NO":"８６號","E_COORD97":171614.63,"N_COORD97":2535621.6000000001,"ADDRESS":"保學路８６號","OBJECTID":614622},"geometry":{"x":171614.63000000175,"y":2535621.5999999978}},{"attributes":{"ID":614650,"DIS_CODE":0,"TOWNNAME":"麻豆區","LI":"東角里","LIN":"2鄰","STREET":"民生路","SECT":" ","MAREA":" ","LANE":" ","ALLEY":" ","HOUSE_NO":"２號之１０","E_COORD97":173513.72,"N_COORD97":2564948.5899999999,"ADDRESS":"民生路２號之１０","OBJECTID":614623},"geometry":{"x":173513.71999999974,"y":2564948.5899999999}},{"attributes":{"ID":614651,"DIS_CODE":0,"TOWNNAME":"麻豆區","LI":"東角里","LIN":"2鄰","STREET":"民生路","SECT":" ","MAREA":" ","LANE":" ","ALLEY":" ","HOUSE_NO":"２號之１１","E_COORD97":173510.51999999999,"N_COORD97":2564947.0699999998,"ADDRESS":"民生路２號之１１","OBJECTID":614624},"geometry":{"x":173510.52000000048,"y":2564947.0700000022}},{"attributes":{"ID":614652,"DIS_CODE":0,"TOWNNAME":"麻豆區","LI":"東角里","LIN":"2鄰","STREET":"民生路","SECT":" ","MAREA":" ","LANE":" ","ALLEY":" ","HOUSE_NO":"２號之１２","E_COORD97":173507.06,"N_COORD97":2564945.6600000001,"ADDRESS":"民生路２號之１２","OBJECTID":614625},"geometry":{"x":173507.06000000052,"y":2564945.660000002}},{"attributes":{"ID":614653,"DIS_CODE":0,"TOWNNAME":"麻豆區","LI":"東角里","LIN":"2鄰","STREET":"民生路","SECT":" ","MAREA":" ","LANE":" ","ALLEY":" ","HOUSE_NO":"２號之１３","E_COORD97":173503.42999999999,"N_COORD97":2564943.77,"ADDRESS":"民生路２號之１３","OBJECTID":614626},"geometry":{"x":173503.4299999997,"y":2564943.7699999977}},{"attributes":{"ID":614654,"DIS_CODE":0,"TOWNNAME":"麻豆區","LI":"東角里","LIN":"2鄰","STREET":"民生路","SECT":" ","MAREA":" ","LANE":" ","ALLEY":" ","HOUSE_NO":"２號之１４","E_COORD97":173500.97,"N_COORD97":2564942.0899999999,"ADDRESS":"民生路２號之１４","OBJECTID":614627},"geometry":{"x":173500.97000000067,"y":2564942.0900000036}},{"attributes":{"ID":614655,"DIS_CODE":0,"TOWNNAME":"麻豆區","LI":"東角里","LIN":"2鄰","STREET":"民生路","SECT":" ","MAREA":" ","LANE":" ","ALLEY":" ","HOUSE_NO":"２號之１５","E_COORD97":173497.26000000001,"N_COORD97":2564940.5099999998,"ADDRESS":"民生路２號之１５","OBJECTID":614628},"geometry":{"x":173497.26000000071,"y":2564940.5100000016}},{"attributes":{"ID":614656,"DIS_CODE":0,"TOWNNAME":"麻豆區","LI":"東角里","LIN":"2鄰","STREET":"民生路","SECT":" ","MAREA":" ","LANE":" ","ALLEY":" ","HOUSE_NO":"２號之１６","E_COORD97":173493.92000000001,"N_COORD97":2564938.77,"ADDRESS":"民生路２號之１６","OBJECTID":614629},"geometry":{"x":173493.91999999993,"y":2564938.7700000014}},{"attributes":{"ID":614657,"DIS_CODE":0,"TOWNNAME":"麻豆區","LI":"東角里","LIN":"2鄰","STREET":"民生路","SECT":" ","MAREA":" ","LANE":" ","ALLEY":" ","HOUSE_NO":"２號之５","E_COORD97":173529.79000000001,"N_COORD97":2564956.9700000002,"ADDRESS":"民生路２號之５","OBJECTID":614630},"geometry":{"x":173529.79000000097,"y":2564956.9700000007}},{"attributes":{"ID":614658,"DIS_CODE":0,"TOWNNAME":"麻豆區","LI":"東角里","LIN":"2鄰","STREET":"民生路","SECT":" ","MAREA":" ","LANE":" ","ALLEY":" ","HOUSE_NO":"２號之６","E_COORD97":173526.79999999999,"N_COORD97":2564955.1699999999,"ADDRESS":"民生路２號之６","OBJECTID":614631},"geometry":{"x":173526.79999999981,"y":2564955.1700000037}},{"attributes":{"ID":614659,"DIS_CODE":0,"TOWNNAME":"麻豆區","LI":"東角里","LIN":"2鄰","STREET":"民生路","SECT":" ","MAREA":" ","LANE":" ","ALLEY":" ","HOUSE_NO":"２號之７","E_COORD97":173523.64999999999,"N_COORD97":2564953.3700000001,"ADDRESS":"民生路２號之７","OBJECTID":614632},"geometry":{"x":173523.65000000224,"y":2564953.370000001}},{"attributes":{"ID":614660,"DIS_CODE":0,"TOWNNAME":"麻豆區","LI":"東角里","LIN":"2鄰","STREET":"民生路","SECT":" ","MAREA":" ","LANE":" ","ALLEY":" ","HOUSE_NO":"２號之８","E_COORD97":173520.26999999999,"N_COORD97":2564951.7400000002,"ADDRESS":"民生路２號之８","OBJECTID":614633},"geometry":{"x":173520.27000000142,"y":2564951.7400000039}},{"attributes":{"ID":614661,"DIS_CODE":0,"TOWNNAME":"麻豆區","LI":"東角里","LIN":"2鄰","STREET":"民生路","SECT":" ","MAREA":" ","LANE":" ","ALLEY":" ","HOUSE_NO":"２號之９","E_COORD97":173516.95000000001,"N_COORD97":2564950.1800000002,"ADDRESS":"民生路２號之９","OBJECTID":614634},"geometry":{"x":173516.95000000112,"y":2564950.1799999997}},{"attributes":{"ID":614662,"DIS_CODE":0,"TOWNNAME":"北區","LI":"公園里","LIN":"2鄰","STREET":"北門路","SECT":"二段","MAREA":" ","LANE":" ","ALLEY":" ","HOUSE_NO":"５７號","E_COORD97":169253.07000000001,"N_COORD97":2544345.6099999999,"ADDRESS":"北門路二段５７號","OBJECTID":614635},"geometry":{"x":169253.07000000123,"y":2544345.6100000013}},{"attributes":{"ID":614663,"DIS_CODE":0,"TOWNNAME":"北區","LI":"公園里","LIN":"2鄰","STREET":"北門路","SECT":"二段","MAREA":" ","LANE":" ","ALLEY":" ","HOUSE_NO":"５９號","E_COORD97":169253.95000000001,"N_COORD97":2544349.1499999999,"ADDRESS":"北門路二段５９號","OBJECTID":614636},"geometry":{"x":169253.95000000019,"y":2544349.1500000041}},{"attributes":{"ID":614664,"DIS_CODE":0,"TOWNNAME":"北區","LI":"公園里","LIN":"2鄰","STREET":"北門路","SECT":"二段","MAREA":" ","LANE":" ","ALLEY":" ","HOUSE_NO":"６３號","E_COORD97":169255.87,"N_COORD97":2544354.6099999999,"ADDRESS":"北門路二段６３號","OBJECTID":614637},"geometry":{"x":169255.87000000104,"y":2544354.6099999994}},{"attributes":{"ID":614665,"DIS_CODE":0,"TOWNNAME":"北區","LI":"公園里","LIN":"2鄰","STREET":"北門路","SECT":"二段","MAREA":" ","LANE":" ","ALLEY":" ","HOUSE_NO":"６５號","E_COORD97":169256.76000000001,"N_COORD97":2544360.0600000001,"ADDRESS":"北門路二段６５號","OBJECTID":614638},"geometry":{"x":169256.75999999978,"y":2544360.0600000042}},{"attributes":{"ID":614666,"DIS_CODE":0,"TOWNNAME":"北區","LI":"公園里","LIN":"2鄰","STREET":"北門路","SECT":"二段","MAREA":" ","LANE":" ","ALLEY":" ","HOUSE_NO":"６７號","E_COORD97":169257.06,"N_COORD97":2544363.8999999999,"ADDRESS":"北門路二段６７號","OBJECTID":614639},"geometry":{"x":169257.06000000052,"y":2544363.9000000004}},{"attributes":{"ID":614667,"DIS_CODE":0,"TOWNNAME":"北區","LI":"公園里","LIN":"2鄰","STREET":"北門路","SECT":"二段","MAREA":" ","LANE":" ","ALLEY":" ","HOUSE_NO":"６９號","E_COORD97":169257.79000000001,"N_COORD97":2544365.96,"ADDRESS":"北門路二段６９號","OBJECTID":614640},"geometry":{"x":169257.79000000097,"y":2544365.9600000028}},{"attributes":{"ID":614668,"DIS_CODE":0,"TOWNNAME":"北區","LI":"公園里","LIN":"2鄰","STREET":"北門路","SECT":"二段","MAREA":" ","LANE":" ","ALLEY":" ","HOUSE_NO":"７１號","E_COORD97":169258.38,"N_COORD97":2544371.1299999999,"ADDRESS":"北門路二段７１號","OBJECTID":614641},"geometry":{"x":169258.38000000082,"y":2544371.129999999}},{"attributes":{"ID":614669,"DIS_CODE":0,"TOWNNAME":"北區","LI":"公園里","LIN":"2鄰","STREET":"北門路","SECT":"二段","MAREA":" ","LANE":" ","ALLEY":" ","HOUSE_NO":"７３號","E_COORD97":169259.85999999999,"N_COORD97":2544379.6800000002,"ADDRESS":"北門路二段７３號","OBJECTID":614642},"geometry":{"x":169259.86000000034,"y":2544379.6800000016}},{"attributes":{"ID":614670,"DIS_CODE":0,"TOWNNAME":"北區","LI":"公園里","LIN":"2鄰","STREET":"北門路","SECT":"二段","MAREA":" ","LANE":" ","ALLEY":" ","HOUSE_NO":"７５號","E_COORD97":169262.07999999999,"N_COORD97":2544388.54,"ADDRESS":"北門路二段７５號","OBJECTID":614643},"geometry":{"x":169262.07999999914,"y":2544388.5399999991}},{"attributes":{"ID":614671,"DIS_CODE":0,"TOWNNAME":"北區","LI":"公園里","LIN":"2鄰","STREET":"北門路","SECT":"二段","MAREA":" ","LANE":" ","ALLEY":" ","HOUSE_NO":"７７號","E_COORD97":169260,"N_COORD97":2544393.2999999998,"ADDRESS":"北門路二段７７號","OBJECTID":614644},"geometry":{"x":169260.00000000093,"y":2544393.3000000026}},{"attributes":{"ID":614672,"DIS_CODE":0,"TOWNNAME":"北區","LI":"公園里","LIN":"2鄰","STREET":"北門路","SECT":"二段","MAREA":" ","LANE":" ","ALLEY":" ","HOUSE_NO":"７９號","E_COORD97":169260.41,"N_COORD97":2544396.1699999999,"ADDRESS":"北門路二段７９號","OBJECTID":614645},"geometry":{"x":169260.41000000108,"y":2544396.1700000037}},{"attributes":{"ID":614673,"DIS_CODE":0,"TOWNNAME":"麻豆區","LI":"穀興里","LIN":"2鄰","STREET":"光復路","SECT":" ","MAREA":" ","LANE":" ","ALLEY":" ","HOUSE_NO":"４５號","E_COORD97":172981.67999999999,"N_COORD97":2564902.3599999999,"ADDRESS":"光復路４５號","OBJECTID":614646},"geometry":{"x":172981.6799999997,"y":2564902.3599999975}},{"attributes":{"ID":614674,"DIS_CODE":0,"TOWNNAME":"麻豆區","LI":"穀興里","LIN":"2鄰","STREET":"光復路","SECT":" ","MAREA":" ","LANE":" ","ALLEY":" ","HOUSE_NO":"４６號","E_COORD97":172959.84,"N_COORD97":2564922.0899999999,"ADDRESS":"光復路４６號","OBJECTID":614647},"geometry":{"x":172959.84000000078,"y":2564922.0900000017}},{"attributes":{"ID":614675,"DIS_CODE":0,"TOWNNAME":"麻豆區","LI":"新建里","LIN":"2鄰","STREET":"光復路","SECT":" ","MAREA":" ","LANE":" ","ALLEY":" ","HOUSE_NO":"１１７號","E_COORD97":172756.88,"N_COORD97":2564900.0899999999,"ADDRESS":"光復路１１７號","OBJECTID":614648},"geometry":{"x":172756.87999999989,"y":2564900.0899999999}},{"attributes":{"ID":614676,"DIS_CODE":0,"TOWNNAME":"麻豆區","LI":"新建里","LIN":"2鄰","STREET":"光復路","SECT":" ","MAREA":" ","LANE":" ","ALLEY":" ","HOUSE_NO":"１１９號","E_COORD97":172751.88,"N_COORD97":2564900.3500000001,"ADDRESS":"光復路１１９號","OBJECTID":614649},"geometry":{"x":172751.87999999989,"y":2564900.3500000015}},{"attributes":{"ID":614677,"DIS_CODE":0,"TOWNNAME":"麻豆區","LI":"新建里","LIN":"2鄰","STREET":"光復路","SECT":" ","MAREA":" ","LANE":" ","ALLEY":" ","HOUSE_NO":"１２１號","E_COORD97":172746.81,"N_COORD97":2564900.5699999998,"ADDRESS":"光復路１２１號","OBJECTID":614650},"geometry":{"x":172746.80999999959,"y":2564900.5700000003}},{"attributes":{"ID":614678,"DIS_CODE":0,"TOWNNAME":"麻豆區","LI":"新建里","LIN":"2鄰","STREET":"光復路","SECT":" ","MAREA":" ","LANE":" ","ALLEY":" ","HOUSE_NO":"１２５號","E_COORD97":172715.67999999999,"N_COORD97":2564896.6600000001,"ADDRESS":"光復路１２５號","OBJECTID":614651},"geometry":{"x":172715.6799999997,"y":2564896.6600000001}},{"attributes":{"ID":614679,"DIS_CODE":0,"TOWNNAME":"麻豆區","LI":"新建里","LIN":"2鄰","STREET":"光復路","SECT":" ","MAREA":" ","LANE":" ","ALLEY":" ","HOUSE_NO":"１２７號","E_COORD97":172711.39999999999,"N_COORD97":2564897.3900000001,"ADDRESS":"光復路１２７號","OBJECTID":614652},"geometry":{"x":172711.40000000037,"y":2564897.3900000025}},{"attributes":{"ID":614680,"DIS_CODE":0,"TOWNNAME":"麻豆區","LI":"新建里","LIN":"2鄰","STREET":"光復路","SECT":" ","MAREA":" ","LANE":" ","ALLEY":" ","HOUSE_NO":"１２９號","E_COORD97":172707.20000000001,"N_COORD97":2564897.9700000002,"ADDRESS":"光復路１２９號","OBJECTID":614653},"geometry":{"x":172707.20000000019,"y":2564897.9700000025}},{"attributes":{"ID":614681,"DIS_CODE":0,"TOWNNAME":"麻豆區","LI":"新建里","LIN":"2鄰","STREET":"光復路","SECT":" ","MAREA":" ","LANE":" ","ALLEY":" ","HOUSE_NO":"１３１號","E_COORD97":172703,"N_COORD97":2564898.5499999998,"ADDRESS":"光復路１３１號","OBJECTID":614654},"geometry":{"x":172703.00000000093,"y":2564898.5500000007}},{"attributes":{"ID":614682,"DIS_CODE":0,"TOWNNAME":"麻豆區","LI":"新建里","LIN":"2鄰","STREET":"光復路","SECT":" ","MAREA":" ","LANE":" ","ALLEY":" ","HOUSE_NO":"１３３號","E_COORD97":172698.81,"N_COORD97":2564899.1400000001,"ADDRESS":"光復路１３３號","OBJECTID":614655},"geometry":{"x":172698.80999999959,"y":2564899.1400000025}},{"attributes":{"ID":614683,"DIS_CODE":0,"TOWNNAME":"麻豆區","LI":"新建里","LIN":"2鄰","STREET":"光復路","SECT":" ","MAREA":" ","LANE":" ","ALLEY":" ","HOUSE_NO":"１３５號","E_COORD97":172694.60999999999,"N_COORD97":2564899.7200000002,"ADDRESS":"光復路１３５號","OBJECTID":614656},"geometry":{"x":172694.61000000034,"y":2564899.7200000025}},{"attributes":{"ID":614684,"DIS_CODE":0,"TOWNNAME":"麻豆區","LI":"新建里","LIN":"2鄰","STREET":"光復路","SECT":" ","MAREA":" ","LANE":" ","ALLEY":" ","HOUSE_NO":"１３９號","E_COORD97":172685.06,"N_COORD97":2564898.8199999998,"ADDRESS":"光復路１３９號","OBJECTID":614657},"geometry":{"x":172685.06000000052,"y":2564898.8200000003}},{"attributes":{"ID":614685,"DIS_CODE":0,"TOWNNAME":"麻豆區","LI":"新建里","LIN":"2鄰","STREET":"光復路","SECT":" ","MAREA":" ","LANE":" ","ALLEY":" ","HOUSE_NO":"１４３號","E_COORD97":172674.54999999999,"N_COORD97":2564900.1800000002,"ADDRESS":"光復路１４３號","OBJECTID":614658},"geometry":{"x":172674.55000000168,"y":2564900.1799999997}},{"attributes":{"ID":614686,"DIS_CODE":0,"TOWNNAME":"麻豆區","LI":"穀興里","LIN":"2鄰","STREET":"光復路","SECT":" ","MAREA":" ","LANE":" ","ALLEY":" ","HOUSE_NO":"３２號","E_COORD97":172993.88,"N_COORD97":2564920.5699999998,"ADDRESS":"光復路３２號","OBJECTID":614659},"geometry":{"x":172993.87999999989,"y":2564920.5700000022}},{"attributes":{"ID":614687,"DIS_CODE":0,"TOWNNAME":"麻豆區","LI":"穀興里","LIN":"2鄰","STREET":"光復路","SECT":" ","MAREA":" ","LANE":" ","ALLEY":" ","HOUSE_NO":"３４號","E_COORD97":172989.28,"N_COORD97":2564921.29,"ADDRESS":"光復路３４號","OBJECTID":614660},"geometry":{"x":172989.28000000119,"y":2564921.290000001}},{"attributes":{"ID":614688,"DIS_CODE":0,"TOWNNAME":"麻豆區","LI":"穀興里","LIN":"2鄰","STREET":"光復路","SECT":" ","MAREA":" ","LANE":" ","ALLEY":" ","HOUSE_NO":"３６號","E_COORD97":172984.29999999999,"N_COORD97":2564921.21,"ADDRESS":"光復路３６號","OBJECTID":614661},"geometry":{"x":172984.29999999981,"y":2564921.2100000009}},{"attributes":{"ID":614689,"DIS_CODE":0,"TOWNNAME":"麻豆區","LI":"穀興里","LIN":"2鄰","STREET":"光復路","SECT":" ","MAREA":" ","LANE":" ","ALLEY":" ","HOUSE_NO":"３７號","E_COORD97":173000.92000000001,"N_COORD97":2564899.8300000001,"ADDRESS":"光復路３７號","OBJECTID":614662},"geometry":{"x":173000.92000000179,"y":2564899.8299999982}},{"attributes":{"ID":614690,"DIS_CODE":0,"TOWNNAME":"麻豆區","LI":"穀興里","LIN":"2鄰","STREET":"光復路","SECT":" ","MAREA":" ","LANE":" ","ALLEY":" ","HOUSE_NO":"３８號","E_COORD97":172979.67000000001,"N_COORD97":2564921.3799999999,"ADDRESS":"光復路３８號","OBJECTID":614663},"geometry":{"x":172979.67000000086,"y":2564921.379999999}},{"attributes":{"ID":614691,"DIS_CODE":0,"TOWNNAME":"麻豆區","LI":"穀興里","LIN":"2鄰","STREET":"光復路","SECT":" ","MAREA":" ","LANE":" ","ALLEY":" ","HOUSE_NO":"５７號","E_COORD97":172951.70000000001,"N_COORD97":2564903.3100000001,"ADDRESS":"光復路５７號","OBJECTID":614664},"geometry":{"x":172951.70000000019,"y":2564903.3100000005}},{"attributes":{"ID":614692,"DIS_CODE":0,"TOWNNAME":"麻豆區","LI":"穀興里","LIN":"2鄰","STREET":"光復路","SECT":" ","MAREA":" ","LANE":" ","ALLEY":" ","HOUSE_NO":"５９號","E_COORD97":172947.13,"N_COORD97":2564904.4300000002,"ADDRESS":"光復路５９號","OBJECTID":614665},"geometry":{"x":172947.13000000082,"y":2564904.4299999997}},{"attributes":{"ID":614693,"DIS_CODE":0,"TOWNNAME":"麻豆區","LI":"穀興里","LIN":"2鄰","STREET":"光復路","SECT":" ","MAREA":" ","LANE":" ","ALLEY":" ","HOUSE_NO":"６１號","E_COORD97":172943.01000000001,"N_COORD97":2564905.77,"ADDRESS":"光復路６１號","OBJECTID":614666},"geometry":{"x":172943.01000000071,"y":2564905.7699999996}},{"attributes":{"ID":614694,"DIS_CODE":0,"TOWNNAME":"六甲區","LI":"二甲里","LIN":"2鄰","STREET":"民權街","SECT":" ","MAREA":" ","LANE":" ","ALLEY":" ","HOUSE_NO":"１６９號","E_COORD97":183171.95000000001,"N_COORD97":2569702.4300000002,"ADDRESS":"民權街１６９號","OBJECTID":614667},"geometry":{"x":183171.95000000019,"y":2569702.4299999997}},{"attributes":{"ID":614695,"DIS_CODE":0,"TOWNNAME":"六甲區","LI":"龍湖里","LIN":"2鄰","STREET":"成功街","SECT":" ","MAREA":" ","LANE":" ","ALLEY":" ","HOUSE_NO":"２３號","E_COORD97":183227.64999999999,"N_COORD97":2569079.9399999999,"ADDRESS":"成功街２３號","OBJECTID":614668},"geometry":{"x":183227.6500000013,"y":2569079.9400000013}},{"attributes":{"ID":614696,"DIS_CODE":0,"TOWNNAME":"六甲區","LI":"龍湖里","LIN":"2鄰","STREET":"成功街","SECT":" ","MAREA":" ","LANE":" ","ALLEY":" ","HOUSE_NO":"２５號","E_COORD97":183230.04000000001,"N_COORD97":2569084.6699999999,"ADDRESS":"成功街２５號","OBJECTID":614669},"geometry":{"x":183230.04000000004,"y":2569084.6700000037}},{"attributes":{"ID":614697,"DIS_CODE":0,"TOWNNAME":"六甲區","LI":"龍湖里","LIN":"2鄰","STREET":"成功街","SECT":" ","MAREA":" ","LANE":" ","ALLEY":" ","HOUSE_NO":"２９之２號","E_COORD97":183217.92000000001,"N_COORD97":2569120.0600000001,"ADDRESS":"成功街２９之２號","OBJECTID":614670},"geometry":{"x":183217.92000000179,"y":2569120.0600000042}},{"attributes":{"ID":614698,"DIS_CODE":0,"TOWNNAME":"六甲區","LI":"龍湖里","LIN":"2鄰","STREET":"成功街","SECT":" ","MAREA":" ","LANE":" ","ALLEY":" ","HOUSE_NO":"２９之３號","E_COORD97":183208.53,"N_COORD97":2569110.8599999999,"ADDRESS":"成功街２９之３號","OBJECTID":614671},"geometry":{"x":183208.53000000026,"y":2569110.8600000013}},{"attributes":{"ID":614699,"DIS_CODE":0,"TOWNNAME":"六甲區","LI":"龍湖里","LIN":"2鄰","STREET":"成功街","SECT":" ","MAREA":" ","LANE":" ","ALLEY":" ","HOUSE_NO":"２９號","E_COORD97":183240.87,"N_COORD97":2569112.98,"ADDRESS":"成功街２９號","OBJECTID":614672},"geometry":{"x":183240.87000000104,"y":2569112.9800000004}},{"attributes":{"ID":614700,"DIS_CODE":0,"TOWNNAME":"六甲區","LI":"二甲里","LIN":"2鄰","STREET":"自由街","SECT":" ","MAREA":" ","LANE":" ","ALLEY":" ","HOUSE_NO":"３０號","E_COORD97":183178.98000000001,"N_COORD97":2569611.0499999998,"ADDRESS":"自由街３０號","OBJECTID":614673},"geometry":{"x":183178.98000000231,"y":2569611.0500000007}},{"attributes":{"ID":614701,"DIS_CODE":0,"TOWNNAME":"六甲區","LI":"二甲里","LIN":"2鄰","STREET":"自由街","SECT":" ","MAREA":" ","LANE":" ","ALLEY":" ","HOUSE_NO":"３４號","E_COORD97":183168.54000000001,"N_COORD97":2569629.3700000001,"ADDRESS":"自由街３４號","OBJECTID":614674},"geometry":{"x":183168.54000000097,"y":2569629.370000001}},{"attributes":{"ID":614702,"DIS_CODE":0,"TOWNNAME":"六甲區","LI":"甲東里","LIN":"2鄰","STREET":"忠孝街","SECT":" ","MAREA":" ","LANE":" ","ALLEY":" ","HOUSE_NO":"１７５號","E_COORD97":183988.01999999999,"N_COORD97":2569965.54,"ADDRESS":"忠孝街１７５號","OBJECTID":614675},"geometry":{"x":183988.01999999862,"y":2569965.5399999991}},{"attributes":{"ID":614703,"DIS_CODE":0,"TOWNNAME":"六甲區","LI":"水林里","LIN":"2鄰","STREET":"林森街","SECT":" ","MAREA":" ","LANE":" ","ALLEY":" ","HOUSE_NO":"４１號","E_COORD97":183232.45000000001,"N_COORD97":2570193.9300000002,"ADDRESS":"林森街４１號","OBJECTID":614676},"geometry":{"x":183232.45000000019,"y":2570193.9299999997}},{"attributes":{"ID":614704,"DIS_CODE":0,"TOWNNAME":"六甲區","LI":"水林里","LIN":"2鄰","STREET":"林森街","SECT":" ","MAREA":" ","LANE":" ","ALLEY":" ","HOUSE_NO":"４３號","E_COORD97":183233.10999999999,"N_COORD97":2570216.1299999999,"ADDRESS":"林森街４３號","OBJECTID":614677},"geometry":{"x":183233.11000000127,"y":2570216.1299999971}},{"attributes":{"ID":614705,"DIS_CODE":0,"TOWNNAME":"六甲區","LI":"水林里","LIN":"2鄰","STREET":"林森街","SECT":" ","MAREA":" ","LANE":" ","ALLEY":" ","HOUSE_NO":"５５號","E_COORD97":183237.78,"N_COORD97":2570236.8199999998,"ADDRESS":"林森街５５號","OBJECTID":614678},"geometry":{"x":183237.78000000212,"y":2570236.820000004}},{"attributes":{"ID":614706,"DIS_CODE":0,"TOWNNAME":"六甲區","LI":"水林里","LIN":"2鄰","STREET":"林森街","SECT":" ","MAREA":" ","LANE":" ","ALLEY":" ","HOUSE_NO":"５７號","E_COORD97":183216.01000000001,"N_COORD97":2570236.5600000001,"ADDRESS":"林森街５７號","OBJECTID":614679},"geometry":{"x":183216.01000000071,"y":2570236.5600000024}},{"attributes":{"ID":614707,"DIS_CODE":0,"TOWNNAME":"六甲區","LI":"水林里","LIN":"2鄰","STREET":"林森街","SECT":" ","MAREA":" ","LANE":" ","ALLEY":" ","HOUSE_NO":"５９號","E_COORD97":183234.66,"N_COORD97":2570266.5099999998,"ADDRESS":"林森街５９號","OBJECTID":614680},"geometry":{"x":183234.66000000015,"y":2570266.5100000016}},{"attributes":{"ID":614708,"DIS_CODE":0,"TOWNNAME":"六甲區","LI":"水林里","LIN":"2鄰","STREET":"林森街","SECT":" ","MAREA":" ","LANE":" ","ALLEY":" ","HOUSE_NO":"６１號","E_COORD97":183210.57000000001,"N_COORD97":2570265.3500000001,"ADDRESS":"林森街６１號","OBJECTID":614681},"geometry":{"x":183210.57000000216,"y":2570265.3499999996}},{"attributes":{"ID":614709,"DIS_CODE":0,"TOWNNAME":"六甲區","LI":"水林里","LIN":"2鄰","STREET":"林森街","SECT":" ","MAREA":" ","LANE":" ","ALLEY":" ","HOUSE_NO":"６３號","E_COORD97":183207.60999999999,"N_COORD97":2570294.4100000001,"ADDRESS":"林森街６３號","OBJECTID":614682},"geometry":{"x":183207.61000000127,"y":2570294.410000002}},{"attributes":{"ID":614710,"DIS_CODE":0,"TOWNNAME":"六甲區","LI":"六甲里","LIN":"2鄰","STREET":"信義街","SECT":" ","MAREA":" ","LANE":" ","ALLEY":" ","HOUSE_NO":"７號","E_COORD97":183209.84,"N_COORD97":2569338.1299999999,"ADDRESS":"信義街７號","OBJECTID":614683},"geometry":{"x":183209.84000000171,"y":2569338.1300000027}},{"attributes":{"ID":614711,"DIS_CODE":0,"TOWNNAME":"六甲區","LI":"六甲里","LIN":"2鄰","STREET":"信義街","SECT":" ","MAREA":" ","LANE":" ","ALLEY":" ","HOUSE_NO":"９號","E_COORD97":183211.66,"N_COORD97":2569345.7200000002,"ADDRESS":"信義街９號","OBJECTID":614684},"geometry":{"x":183211.66000000108,"y":2569345.7200000007}},{"attributes":{"ID":614712,"DIS_CODE":0,"TOWNNAME":"麻豆區","LI":"興農里","LIN":"2鄰","STREET":"成功街","SECT":" ","MAREA":" ","LANE":" ","ALLEY":" ","HOUSE_NO":"３１號之１","E_COORD97":172490.87,"N_COORD97":2564429.5499999998,"ADDRESS":"成功街３１號之１","OBJECTID":614685},"geometry":{"x":172490.87000000011,"y":2564429.5500000026}},{"attributes":{"ID":614713,"DIS_CODE":0,"TOWNNAME":"麻豆區","LI":"興農里","LIN":"2鄰","STREET":"成功街","SECT":" ","MAREA":" ","LANE":" ","ALLEY":" ","HOUSE_NO":"３１號","E_COORD97":172497.51000000001,"N_COORD97":2564430.2000000002,"ADDRESS":"成功街３１號","OBJECTID":614686},"geometry":{"x":172497.51000000071,"y":2564430.2000000011}},{"attributes":{"ID":614714,"DIS_CODE":0,"TOWNNAME":"麻豆區","LI":"興農里","LIN":"2鄰","STREET":"成功街","SECT":" ","MAREA":" ","LANE":" ","ALLEY":" ","HOUSE_NO":"３３號","E_COORD97":172503.59,"N_COORD97":2564432.2400000002,"ADDRESS":"成功街３３號","OBJECTID":614687},"geometry":{"x":172503.59000000078,"y":2564432.2400000002}},{"attributes":{"ID":614715,"DIS_CODE":0,"TOWNNAME":"麻豆區","LI":"新建里","LIN":"2鄰","STREET":"自由路","SECT":" ","MAREA":" ","LANE":" ","ALLEY":" ","HOUSE_NO":"３０號之１","E_COORD97":172643.06,"N_COORD97":2564876.7000000002,"ADDRESS":"自由路３０號之１","OBJECTID":614688},"geometry":{"x":172643.05999999959,"y":2564876.7000000011}},{"attributes":{"ID":614716,"DIS_CODE":0,"TOWNNAME":"麻豆區","LI":"新建里","LIN":"2鄰","STREET":"自由路","SECT":" ","MAREA":" ","LANE":" ","ALLEY":" ","HOUSE_NO":"３２號之１","E_COORD97":172651.32999999999,"N_COORD97":2564903.0699999998,"ADDRESS":"自由路３２號之１","OBJECTID":614689},"geometry":{"x":172651.33000000101,"y":2564903.0700000022}},{"attributes":{"ID":614717,"DIS_CODE":0,"TOWNNAME":"麻豆區","LI":"新建里","LIN":"2鄰","STREET":"自由路","SECT":" ","MAREA":" ","LANE":" ","ALLEY":" ","HOUSE_NO":"３２號之２","E_COORD97":172637.84,"N_COORD97":2564904.8399999999,"ADDRESS":"自由路３２號之２","OBJECTID":614690},"geometry":{"x":172637.83999999985,"y":2564904.8399999999}},{"attributes":{"ID":614718,"DIS_CODE":0,"TOWNNAME":"麻豆區","LI":"新建里","LIN":"2鄰","STREET":"自由路","SECT":" ","MAREA":" ","LANE":" ","ALLEY":" ","HOUSE_NO":"３２號之３","E_COORD97":172637.54571599999,"N_COORD97":2564898.52648,"ADDRESS":"自由路３２號之３","OBJECTID":614691},"geometry":{"x":172637.54571600072,"y":2564898.5264790002}},{"attributes":{"ID":614719,"DIS_CODE":0,"TOWNNAME":"麻豆區","LI":"新建里","LIN":"2鄰","STREET":"自由路","SECT":" ","MAREA":" ","LANE":" ","ALLEY":" ","HOUSE_NO":"３２號之４","E_COORD97":172637.33386000001,"N_COORD97":2564894.0814800002,"ADDRESS":"自由路３２號之４","OBJECTID":614692},"geometry":{"x":172637.3338600006,"y":2564894.0814820006}},{"attributes":{"ID":614720,"DIS_CODE":0,"TOWNNAME":"麻豆區","LI":"新建里","LIN":"2鄰","STREET":"自由路","SECT":" ","MAREA":" ","LANE":" ","ALLEY":" ","HOUSE_NO":"３２號之５","E_COORD97":172637.016076,"N_COORD97":2564890.1656499999,"ADDRESS":"自由路３２號之５","OBJECTID":614693},"geometry":{"x":172637.01607600134,"y":2564890.1656510048}},{"attributes":{"ID":614721,"DIS_CODE":0,"TOWNNAME":"麻豆區","LI":"新建里","LIN":"2鄰","STREET":"自由路","SECT":" ","MAREA":" ","LANE":" ","ALLEY":" ","HOUSE_NO":"３２號之６","E_COORD97":172630.16,"N_COORD97":2564944.6800000002,"ADDRESS":"自由路３２號之６","OBJECTID":614694},"geometry":{"x":172630.16000000201,"y":2564944.6800000034}},{"attributes":{"ID":614722,"DIS_CODE":0,"TOWNNAME":"麻豆區","LI":"新建里","LIN":"2鄰","STREET":"自由路","SECT":" ","MAREA":" ","LANE":" ","ALLEY":" ","HOUSE_NO":"３２號","E_COORD97":172655.5,"N_COORD97":2564903.2999999998,"ADDRESS":"自由路３２號","OBJECTID":614695},"geometry":{"x":172655.50000000093,"y":2564903.3000000007}},{"attributes":{"ID":614723,"DIS_CODE":0,"TOWNNAME":"麻豆區","LI":"油車里","LIN":"2鄰","STREET":"自強街","SECT":" ","MAREA":" ","LANE":" ","ALLEY":" ","HOUSE_NO":"５號之１０","E_COORD97":172679.59,"N_COORD97":2565126.6000000001,"ADDRESS":"自強街５號之１０","OBJECTID":614696},"geometry":{"x":172679.59000000078,"y":2565126.5999999996}},{"attributes":{"ID":614724,"DIS_CODE":0,"TOWNNAME":"麻豆區","LI":"油車里","LIN":"2鄰","STREET":"自強街","SECT":" ","MAREA":" ","LANE":" ","ALLEY":" ","HOUSE_NO":"５號之１１","E_COORD97":172679.10000000001,"N_COORD97":2565131.1000000001,"ADDRESS":"自強街５號之１１","OBJECTID":614697},"geometry":{"x":172679.10000000149,"y":2565131.0999999996}},{"attributes":{"ID":614725,"DIS_CODE":0,"TOWNNAME":"麻豆區","LI":"油車里","LIN":"2鄰","STREET":"自強街","SECT":" ","MAREA":" ","LANE":" ","ALLEY":" ","HOUSE_NO":"５號之１２","E_COORD97":172678.60999999999,"N_COORD97":2565135.6099999999,"ADDRESS":"自強街５號之１２","OBJECTID":614698},"geometry":{"x":172678.61000000127,"y":2565135.6100000013}},{"attributes":{"ID":614726,"DIS_CODE":0,"TOWNNAME":"麻豆區","LI":"油車里","LIN":"2鄰","STREET":"自強街","SECT":" ","MAREA":" ","LANE":" ","ALLEY":" ","HOUSE_NO":"５號之１３","E_COORD97":172685.89999999999,"N_COORD97":2565142.8500000001,"ADDRESS":"自強街５號之１３","OBJECTID":614699},"geometry":{"x":172685.90000000037,"y":2565142.8499999996}},{"attributes":{"ID":614727,"DIS_CODE":0,"TOWNNAME":"麻豆區","LI":"油車里","LIN":"2鄰","STREET":"自強街","SECT":" ","MAREA":" ","LANE":" ","ALLEY":" ","HOUSE_NO":"５號之１","E_COORD97":172685.72,"N_COORD97":2565087.5499999998,"ADDRESS":"自強街５號之１","OBJECTID":614700},"geometry":{"x":172685.72000000067,"y":2565087.5500000007}},{"attributes":{"ID":614728,"DIS_CODE":0,"TOWNNAME":"麻豆區","LI":"油車里","LIN":"2鄰","STREET":"自強街","SECT":" ","MAREA":" ","LANE":" ","ALLEY":" ","HOUSE_NO":"５號之２","E_COORD97":172685.13,"N_COORD97":2565091.9300000002,"ADDRESS":"自強街５號之２","OBJECTID":614701},"geometry":{"x":172685.12999999989,"y":2565091.9299999997}},{"attributes":{"ID":614729,"DIS_CODE":0,"TOWNNAME":"麻豆區","LI":"油車里","LIN":"2鄰","STREET":"自強街","SECT":" ","MAREA":" ","LANE":" ","ALLEY":" ","HOUSE_NO":"５號之３","E_COORD97":172684.53,"N_COORD97":2565096.3199999998,"ADDRESS":"自強街５號之３","OBJECTID":614702},"geometry":{"x":172684.53000000026,"y":2565096.3200000003}},{"attributes":{"ID":614730,"DIS_CODE":0,"TOWNNAME":"麻豆區","LI":"油車里","LIN":"2鄰","STREET":"自強街","SECT":" ","MAREA":" ","LANE":" ","ALLEY":" ","HOUSE_NO":"５號之４","E_COORD97":172683.92999999999,"N_COORD97":2565100.7000000002,"ADDRESS":"自強街５號之４","OBJECTID":614703},"geometry":{"x":172683.93000000063,"y":2565100.7000000011}},{"attributes":{"ID":614731,"DIS_CODE":0,"TOWNNAME":"麻豆區","LI":"油車里","LIN":"2鄰","STREET":"自強街","SECT":" ","MAREA":" ","LANE":" ","ALLEY":" ","HOUSE_NO":"５號之５","E_COORD97":172683.32999999999,"N_COORD97":2565105.0800000001,"ADDRESS":"自強街５號之５","OBJECTID":614704},"geometry":{"x":172683.33000000101,"y":2565105.0800000038}},{"attributes":{"ID":614732,"DIS_CODE":0,"TOWNNAME":"麻豆區","LI":"油車里","LIN":"2鄰","STREET":"自強街","SECT":" ","MAREA":" ","LANE":" ","ALLEY":" ","HOUSE_NO":"５號之６","E_COORD97":172682.73000000001,"N_COORD97":2565109.4700000002,"ADDRESS":"自強街５號之６","OBJECTID":614705},"geometry":{"x":172682.73000000138,"y":2565109.4700000007}},{"attributes":{"ID":614733,"DIS_CODE":0,"TOWNNAME":"麻豆區","LI":"油車里","LIN":"2鄰","STREET":"自強街","SECT":" ","MAREA":" ","LANE":" ","ALLEY":" ","HOUSE_NO":"５號之７","E_COORD97":172682.13,"N_COORD97":2565113.8500000001,"ADDRESS":"自強街５號之７","OBJECTID":614706},"geometry":{"x":172682.12999999989,"y":2565113.8500000015}},{"attributes":{"ID":614734,"DIS_CODE":0,"TOWNNAME":"麻豆區","LI":"油車里","LIN":"2鄰","STREET":"自強街","SECT":" ","MAREA":" ","LANE":" ","ALLEY":" ","HOUSE_NO":"５號之８","E_COORD97":172681.53,"N_COORD97":2565118.23,"ADDRESS":"自強街５號之８","OBJECTID":614707},"geometry":{"x":172681.53000000026,"y":2565118.2300000042}},{"attributes":{"ID":614735,"DIS_CODE":0,"TOWNNAME":"麻豆區","LI":"油車里","LIN":"2鄰","STREET":"自強街","SECT":" ","MAREA":" ","LANE":" ","ALLEY":" ","HOUSE_NO":"５號之９","E_COORD97":172680.92999999999,"N_COORD97":2565122.6099999999,"ADDRESS":"自強街５號之９","OBJECTID":614708},"geometry":{"x":172680.93000000063,"y":2565122.6100000013}},{"attributes":{"ID":614736,"DIS_CODE":0,"TOWNNAME":"麻豆區","LI":"油車里","LIN":"2鄰","STREET":"自強街","SECT":" ","MAREA":" ","LANE":" ","ALLEY":" ","HOUSE_NO":"５號","E_COORD97":172686.32000000001,"N_COORD97":2565083.1699999999,"ADDRESS":"自強街５號","OBJECTID":614709},"geometry":{"x":172686.3200000003,"y":2565083.1699999999}},{"attributes":{"ID":614737,"DIS_CODE":0,"TOWNNAME":"麻豆區","LI":"油車里","LIN":"2鄰","STREET":"自強街","SECT":" ","MAREA":" ","LANE":" ","ALLEY":" ","HOUSE_NO":"６號之１０","E_COORD97":172698.37,"N_COORD97":2565096.9399999999,"ADDRESS":"自強街６號之１０","OBJECTID":614710},"geometry":{"x":172698.37000000104,"y":2565096.9400000013}},{"attributes":{"ID":614738,"DIS_CODE":0,"TOWNNAME":"麻豆區","LI":"油車里","LIN":"2鄰","STREET":"自強街","SECT":" ","MAREA":" ","LANE":" ","ALLEY":" ","HOUSE_NO":"６號之１１","E_COORD97":172697.98000000001,"N_COORD97":2565100.9900000002,"ADDRESS":"自強街６號之１１","OBJECTID":614711},"geometry":{"x":172697.98000000138,"y":2565100.9900000002}},{"attributes":{"ID":614739,"DIS_CODE":0,"TOWNNAME":"麻豆區","LI":"油車里","LIN":"2鄰","STREET":"自強街","SECT":" ","MAREA":" ","LANE":" ","ALLEY":" ","HOUSE_NO":"６號之１２","E_COORD97":172697.60000000001,"N_COORD97":2565105.04,"ADDRESS":"自強街６號之１２","OBJECTID":614712},"geometry":{"x":172697.5999999987,"y":2565105.040000001}},{"attributes":{"ID":614740,"DIS_CODE":0,"TOWNNAME":"麻豆區","LI":"油車里","LIN":"2鄰","STREET":"自強街","SECT":" ","MAREA":" ","LANE":" ","ALLEY":" ","HOUSE_NO":"６號之１３","E_COORD97":172697.20999999999,"N_COORD97":2565109.1000000001,"ADDRESS":"自強街６號之１３","OBJECTID":614713},"geometry":{"x":172697.20999999903,"y":2565109.1000000015}},{"attributes":{"ID":614741,"DIS_CODE":0,"TOWNNAME":"麻豆區","LI":"油車里","LIN":"2鄰","STREET":"自強街","SECT":" ","MAREA":" ","LANE":" ","ALLEY":" ","HOUSE_NO":"６號之１４","E_COORD97":172696.82000000001,"N_COORD97":2565113.1499999999,"ADDRESS":"自強街６號之１４","OBJECTID":614714},"geometry":{"x":172696.81999999937,"y":2565113.1500000022}},{"attributes":{"ID":614742,"DIS_CODE":0,"TOWNNAME":"麻豆區","LI":"油車里","LIN":"2鄰","STREET":"自強街","SECT":" ","MAREA":" ","LANE":" ","ALLEY":" ","HOUSE_NO":"６號之１５","E_COORD97":172696.42999999999,"N_COORD97":2565117.21,"ADDRESS":"自強街６號之１５","OBJECTID":614715},"geometry":{"x":172696.4299999997,"y":2565117.2100000009}},{"attributes":{"ID":614743,"DIS_CODE":0,"TOWNNAME":"麻豆區","LI":"油車里","LIN":"2鄰","STREET":"自強街","SECT":" ","MAREA":" ","LANE":" ","ALLEY":" ","HOUSE_NO":"６號之１６","E_COORD97":172696.04000000001,"N_COORD97":2565121.2599999998,"ADDRESS":"自強街６號之１６","OBJECTID":614716},"geometry":{"x":172696.04000000004,"y":2565121.2600000016}},{"attributes":{"ID":614744,"DIS_CODE":0,"TOWNNAME":"麻豆區","LI":"油車里","LIN":"2鄰","STREET":"自強街","SECT":" ","MAREA":" ","LANE":" ","ALLEY":" ","HOUSE_NO":"６號之１７","E_COORD97":172695.66,"N_COORD97":2565125.3100000001,"ADDRESS":"自強街６號之１７","OBJECTID":614717},"geometry":{"x":172695.66000000015,"y":2565125.3100000024}},{"attributes":{"ID":614745,"DIS_CODE":0,"TOWNNAME":"麻豆區","LI":"油車里","LIN":"2鄰","STREET":"自強街","SECT":" ","MAREA":" ","LANE":" ","ALLEY":" ","HOUSE_NO":"６號之１８","E_COORD97":172695.26999999999,"N_COORD97":2565129.3700000001,"ADDRESS":"自強街６號之１８","OBJECTID":614718},"geometry":{"x":172695.27000000048,"y":2565129.3700000029}},{"attributes":{"ID":614746,"DIS_CODE":0,"TOWNNAME":"麻豆區","LI":"油車里","LIN":"2鄰","STREET":"自強街","SECT":" ","MAREA":" ","LANE":" ","ALLEY":" ","HOUSE_NO":"６號之１９","E_COORD97":172694.88,"N_COORD97":2565133.4199999999,"ADDRESS":"自強街６號之１９","OBJECTID":614719},"geometry":{"x":172694.88000000082,"y":2565133.4200000037}},{"attributes":{"ID":614747,"DIS_CODE":0,"TOWNNAME":"麻豆區","LI":"油車里","LIN":"2鄰","STREET":"自強街","SECT":" ","MAREA":" ","LANE":" ","ALLEY":" ","HOUSE_NO":"６號之１","E_COORD97":172685.95999999999,"N_COORD97":2565072.2000000002,"ADDRESS":"自強街６號之１","OBJECTID":614720},"geometry":{"x":172685.96000000089,"y":2565072.1999999993}},{"attributes":{"ID":614748,"DIS_CODE":0,"TOWNNAME":"麻豆區","LI":"油車里","LIN":"2鄰","STREET":"自強街","SECT":" ","MAREA":" ","LANE":" ","ALLEY":" ","HOUSE_NO":"６號之２０","E_COORD97":172694.48999999999,"N_COORD97":2565137.4700000002,"ADDRESS":"自強街６號之２０","OBJECTID":614721},"geometry":{"x":172694.49000000115,"y":2565137.4700000025}},{"attributes":{"ID":614749,"DIS_CODE":0,"TOWNNAME":"麻豆區","LI":"油車里","LIN":"2鄰","STREET":"自強街","SECT":" ","MAREA":" ","LANE":" ","ALLEY":" ","HOUSE_NO":"６號之２１","E_COORD97":172709.82000000001,"N_COORD97":2565139.54,"ADDRESS":"自強街６號之２１","OBJECTID":614722},"geometry":{"x":172709.8200000003,"y":2565139.540000001}},{"attributes":{"ID":614750,"DIS_CODE":0,"TOWNNAME":"麻豆區","LI":"油車里","LIN":"2鄰","STREET":"自強街","SECT":" ","MAREA":" ","LANE":" ","ALLEY":" ","HOUSE_NO":"６號之２２","E_COORD97":172710.29000000001,"N_COORD97":2565135.2799999998,"ADDRESS":"自強街６號之２２","OBJECTID":614723},"geometry":{"x":172710.28999999911,"y":2565135.2799999993}},{"attributes":{"ID":614751,"DIS_CODE":0,"TOWNNAME":"麻豆區","LI":"油車里","LIN":"2鄰","STREET":"自強街","SECT":" ","MAREA":" ","LANE":" ","ALLEY":" ","HOUSE_NO":"６號之２３","E_COORD97":172710.76999999999,"N_COORD97":2565131.02,"ADDRESS":"自強街６號之２３","OBJECTID":614724},"geometry":{"x":172710.77000000048,"y":2565131.0199999996}},{"attributes":{"ID":614752,"DIS_CODE":0,"TOWNNAME":"麻豆區","LI":"油車里","LIN":"2鄰","STREET":"自強街","SECT":" ","MAREA":" ","LANE":" ","ALLEY":" ","HOUSE_NO":"６號之２４","E_COORD97":172711.23999999999,"N_COORD97":2565126.77,"ADDRESS":"自強街６號之２４","OBJECTID":614725},"geometry":{"x":172711.24000000115,"y":2565126.7699999996}},{"attributes":{"ID":614753,"DIS_CODE":0,"TOWNNAME":"麻豆區","LI":"油車里","LIN":"2鄰","STREET":"自強街","SECT":" ","MAREA":" ","LANE":" ","ALLEY":" ","HOUSE_NO":"６號之２５","E_COORD97":172711.72,"N_COORD97":2565122.5099999998,"ADDRESS":"自強街６號之２５","OBJECTID":614726},"geometry":{"x":172711.71999999974,"y":2565122.5100000035}},{"attributes":{"ID":614754,"DIS_CODE":0,"TOWNNAME":"麻豆區","LI":"油車里","LIN":"2鄰","STREET":"自強街","SECT":" ","MAREA":" ","LANE":" ","ALLEY":" ","HOUSE_NO":"６號之２６","E_COORD97":172712.19,"N_COORD97":2565118.25,"ADDRESS":"自強街６號之２６","OBJECTID":614727},"geometry":{"x":172712.19000000134,"y":2565118.2500000019}},{"attributes":{"ID":614755,"DIS_CODE":0,"TOWNNAME":"麻豆區","LI":"油車里","LIN":"2鄰","STREET":"自強街","SECT":" ","MAREA":" ","LANE":" ","ALLEY":" ","HOUSE_NO":"６號之２７","E_COORD97":172712.67000000001,"N_COORD97":2565113.9900000002,"ADDRESS":"自強街６號之２７","OBJECTID":614728},"geometry":{"x":172712.66999999899,"y":2565113.9900000021}},{"attributes":{"ID":614756,"DIS_CODE":0,"TOWNNAME":"麻豆區","LI":"油車里","LIN":"2鄰","STREET":"自強街","SECT":" ","MAREA":" ","LANE":" ","ALLEY":" ","HOUSE_NO":"６號之２８","E_COORD97":172713.14000000001,"N_COORD97":2565109.73,"ADDRESS":"自強街６號之２８","OBJECTID":614729},"geometry":{"x":172713.1400000006,"y":2565109.7300000004}},{"attributes":{"ID":614757,"DIS_CODE":0,"TOWNNAME":"麻豆區","LI":"油車里","LIN":"2鄰","STREET":"自強街","SECT":" ","MAREA":" ","LANE":" ","ALLEY":" ","HOUSE_NO":"６號之２９","E_COORD97":172713.62,"N_COORD97":2565105.4700000002,"ADDRESS":"自強街６號之２９","OBJECTID":614730},"geometry":{"x":172713.62000000104,"y":2565105.4700000007}},{"attributes":{"ID":614758,"DIS_CODE":0,"TOWNNAME":"麻豆區","LI":"油車里","LIN":"2鄰","STREET":"自強街","SECT":" ","MAREA":" ","LANE":" ","ALLEY":" ","HOUSE_NO":"６號之２","E_COORD97":172690.10999999999,"N_COORD97":2565072.71,"ADDRESS":"自強街６號之２","OBJECTID":614731},"geometry":{"x":172690.11000000127,"y":2565072.7100000028}},{"attributes":{"ID":614759,"DIS_CODE":0,"TOWNNAME":"麻豆區","LI":"油車里","LIN":"2鄰","STREET":"自強街","SECT":" ","MAREA":" ","LANE":" ","ALLEY":" ","HOUSE_NO":"６號之３０","E_COORD97":172714.09,"N_COORD97":2565101.2200000002,"ADDRESS":"自強街６號之３０","OBJECTID":614732},"geometry":{"x":172714.09000000078,"y":2565101.2199999988}},{"attributes":{"ID":614760,"DIS_CODE":0,"TOWNNAME":"麻豆區","LI":"油車里","LIN":"2鄰","STREET":"自強街","SECT":" ","MAREA":" ","LANE":" ","ALLEY":" ","HOUSE_NO":"６號之３１","E_COORD97":172714.57000000001,"N_COORD97":2565096.96,"ADDRESS":"自強街６號之３１","OBJECTID":614733},"geometry":{"x":172714.57000000123,"y":2565096.9600000028}},{"attributes":{"ID":614761,"DIS_CODE":0,"TOWNNAME":"麻豆區","LI":"油車里","LIN":"2鄰","STREET":"自強街","SECT":" ","MAREA":" ","LANE":" ","ALLEY":" ","HOUSE_NO":"６號之３２","E_COORD97":172715.04000000001,"N_COORD97":2565092.7000000002,"ADDRESS":"自強街６號之３２","OBJECTID":614734},"geometry":{"x":172715.04000000004,"y":2565092.6999999993}},{"attributes":{"ID":614762,"DIS_CODE":0,"TOWNNAME":"麻豆區","LI":"油車里","LIN":"2鄰","STREET":"自強街","SECT":" ","MAREA":" ","LANE":" ","ALLEY":" ","HOUSE_NO":"６號之３３","E_COORD97":172716.62,"N_COORD97":2565079.46,"ADDRESS":"自強街６號之３３","OBJECTID":614735},"geometry":{"x":172716.61999999918,"y":2565079.459999999}},{"attributes":{"ID":614763,"DIS_CODE":0,"TOWNNAME":"麻豆區","LI":"油車里","LIN":"2鄰","STREET":"自強街","SECT":" ","MAREA":" ","LANE":" ","ALLEY":" ","HOUSE_NO":"６號之３４","E_COORD97":172720.20999999999,"N_COORD97":2565079.7799999998,"ADDRESS":"自強街６號之３４","OBJECTID":614736},"geometry":{"x":172720.20999999996,"y":2565079.7800000012}},{"attributes":{"ID":614764,"DIS_CODE":0,"TOWNNAME":"麻豆區","LI":"油車里","LIN":"2鄰","STREET":"自強街","SECT":" ","MAREA":" ","LANE":" ","ALLEY":" ","HOUSE_NO":"６號之３５","E_COORD97":172723.79000000001,"N_COORD97":2565080.1000000001,"ADDRESS":"自強街６號之３５","OBJECTID":614737},"geometry":{"x":172723.79000000004,"y":2565080.0999999996}},{"attributes":{"ID":614765,"DIS_CODE":0,"TOWNNAME":"麻豆區","LI":"油車里","LIN":"2鄰","STREET":"自強街","SECT":" ","MAREA":" ","LANE":" ","ALLEY":" ","HOUSE_NO":"６號之３６","E_COORD97":172727.37,"N_COORD97":2565080.4199999999,"ADDRESS":"自強街６號之３６","OBJECTID":614738},"geometry":{"x":172727.37000000104,"y":2565080.4200000018}},{"attributes":{"ID":614766,"DIS_CODE":0,"TOWNNAME":"麻豆區","LI":"油車里","LIN":"2鄰","STREET":"自強街","SECT":" ","MAREA":" ","LANE":" ","ALLEY":" ","HOUSE_NO":"６號之３７","E_COORD97":172730.95000000001,"N_COORD97":2565080.7400000002,"ADDRESS":"自強街６號之３７","OBJECTID":614739},"geometry":{"x":172730.95000000019,"y":2565080.7400000039}},{"attributes":{"ID":614767,"DIS_CODE":0,"TOWNNAME":"麻豆區","LI":"油車里","LIN":"2鄰","STREET":"自強街","SECT":" ","MAREA":" ","LANE":" ","ALLEY":" ","HOUSE_NO":"６號之３８","E_COORD97":172734.54000000001,"N_COORD97":2565081.0699999998,"ADDRESS":"自強街６號之３８","OBJECTID":614740},"geometry":{"x":172734.54000000097,"y":2565081.0700000003}},{"attributes":{"ID":614768,"DIS_CODE":0,"TOWNNAME":"麻豆區","LI":"油車里","LIN":"2鄰","STREET":"自強街","SECT":" ","MAREA":" ","LANE":" ","ALLEY":" ","HOUSE_NO":"６號之３９","E_COORD97":172738.12,"N_COORD97":2565081.3900000001,"ADDRESS":"自強街６號之３９","OBJECTID":614741},"geometry":{"x":172738.12000000011,"y":2565081.3900000025}},{"attributes":{"ID":614769,"DIS_CODE":0,"TOWNNAME":"麻豆區","LI":"油車里","LIN":"2鄰","STREET":"自強街","SECT":" ","MAREA":" ","LANE":" ","ALLEY":" ","HOUSE_NO":"６號之３","E_COORD97":172694.26000000001,"N_COORD97":2565073.2200000002,"ADDRESS":"自強街６號之３","OBJECTID":614742},"geometry":{"x":172694.25999999978,"y":2565073.2200000007}},{"attributes":{"ID":614770,"DIS_CODE":0,"TOWNNAME":"麻豆區","LI":"油車里","LIN":"2鄰","STREET":"自強街","SECT":" ","MAREA":" ","LANE":" ","ALLEY":" ","HOUSE_NO":"６號之４０","E_COORD97":172741.70000000001,"N_COORD97":2565081.71,"ADDRESS":"自強街６號之４０","OBJECTID":614743},"geometry":{"x":172741.70000000205,"y":2565081.7100000028}},{"attributes":{"ID":614771,"DIS_CODE":0,"TOWNNAME":"麻豆區","LI":"油車里","LIN":"2鄰","STREET":"自強街","SECT":" ","MAREA":" ","LANE":" ","ALLEY":" ","HOUSE_NO":"６號之４","E_COORD97":172698.42000000001,"N_COORD97":2565073.73,"ADDRESS":"自強街６號之４","OBJECTID":614744},"geometry":{"x":172698.41999999993,"y":2565073.7300000004}},{"attributes":{"ID":614772,"DIS_CODE":0,"TOWNNAME":"麻豆區","LI":"油車里","LIN":"2鄰","STREET":"自強街","SECT":" ","MAREA":" ","LANE":" ","ALLEY":" ","HOUSE_NO":"６號之５","E_COORD97":172702.57000000001,"N_COORD97":2565074.2400000002,"ADDRESS":"自強街６號之５","OBJECTID":614745},"geometry":{"x":172702.57000000123,"y":2565074.2400000021}},{"attributes":{"ID":614773,"DIS_CODE":0,"TOWNNAME":"麻豆區","LI":"油車里","LIN":"2鄰","STREET":"自強街","SECT":" ","MAREA":" ","LANE":" ","ALLEY":" ","HOUSE_NO":"６號之６","E_COORD97":172706.72,"N_COORD97":2565074.75,"ADDRESS":"自強街６號之６","OBJECTID":614746},"geometry":{"x":172706.71999999974,"y":2565074.7500000019}},{"attributes":{"ID":614774,"DIS_CODE":0,"TOWNNAME":"麻豆區","LI":"油車里","LIN":"2鄰","STREET":"自強街","SECT":" ","MAREA":" ","LANE":" ","ALLEY":" ","HOUSE_NO":"６號之７","E_COORD97":172699.73999999999,"N_COORD97":2565084.98,"ADDRESS":"自強街６號之７","OBJECTID":614747},"geometry":{"x":172699.74000000115,"y":2565084.9800000004}},{"attributes":{"ID":614775,"DIS_CODE":0,"TOWNNAME":"麻豆區","LI":"油車里","LIN":"2鄰","STREET":"自強街","SECT":" ","MAREA":" ","LANE":" ","ALLEY":" ","HOUSE_NO":"６號之８","E_COORD97":172699.32000000001,"N_COORD97":2565089.1499999999,"ADDRESS":"自強街６號之８","OBJECTID":614748},"geometry":{"x":172699.32000000123,"y":2565089.1500000022}},{"attributes":{"ID":614776,"DIS_CODE":0,"TOWNNAME":"麻豆區","LI":"油車里","LIN":"2鄰","STREET":"自強街","SECT":" ","MAREA":" ","LANE":" ","ALLEY":" ","HOUSE_NO":"６號之９","E_COORD97":172699.04000000001,"N_COORD97":2565093.1400000001,"ADDRESS":"自強街６號之９","OBJECTID":614749},"geometry":{"x":172699.04000000097,"y":2565093.1400000025}},{"attributes":{"ID":614777,"DIS_CODE":0,"TOWNNAME":"下營區","LI":"後街里","LIN":"18鄰","STREET":"人和二街","SECT":" ","MAREA":" ","LANE":" ","ALLEY":" ","HOUSE_NO":"６號","E_COORD97":174768.47,"N_COORD97":2570777.7200000002,"ADDRESS":"人和二街６號","OBJECTID":614750},"geometry":{"x":174768.4700000016,"y":2570777.7200000025}},{"attributes":{"ID":614778,"DIS_CODE":0,"TOWNNAME":"下營區","LI":"後街里","LIN":"15鄰","STREET":"人和二街","SECT":" ","MAREA":" ","LANE":" ","ALLEY":" ","HOUSE_NO":"６９號","E_COORD97":174510.17000000001,"N_COORD97":2570768.75,"ADDRESS":"人和二街６９號","OBJECTID":614751},"geometry":{"x":174510.17000000086,"y":2570768.75}},{"attributes":{"ID":614779,"DIS_CODE":0,"TOWNNAME":"下營區","LI":"後街里","LIN":"15鄰","STREET":"人和二街","SECT":" ","MAREA":" ","LANE":" ","ALLEY":" ","HOUSE_NO":"７１號","E_COORD97":174491.17000000001,"N_COORD97":2570771.1800000002,"ADDRESS":"人和二街７１號","OBJECTID":614752},"geometry":{"x":174491.17000000179,"y":2570771.1799999997}},{"attributes":{"ID":614780,"DIS_CODE":0,"TOWNNAME":"下營區","LI":"後街里","LIN":"16鄰","STREET":"人和二街","SECT":" ","MAREA":" ","LANE":" ","ALLEY":" ","HOUSE_NO":"６８號","E_COORD97":174617.22,"N_COORD97":2570784.75,"ADDRESS":"人和二街６８號","OBJECTID":614753},"geometry":{"x":174617.21999999974,"y":2570784.75}},{"attributes":{"ID":614781,"DIS_CODE":0,"TOWNNAME":"麻豆區","LI":"油車里","LIN":"2鄰","STREET":"自強街","SECT":" ","MAREA":" ","LANE":" ","ALLEY":" ","HOUSE_NO":"６號","E_COORD97":172681.79999999999,"N_COORD97":2565071.6899999999,"ADDRESS":"自強街６號","OBJECTID":614754},"geometry":{"x":172681.80000000075,"y":2565071.6899999995}},{"attributes":{"ID":614782,"DIS_CODE":0,"TOWNNAME":"新營區","LI":"興業里","LIN":"2鄰","STREET":"新進路","SECT":" ","MAREA":" ","LANE":" ","ALLEY":" ","HOUSE_NO":"２５２號","E_COORD97":180177.92999999999,"N_COORD97":2577881.9399999999,"ADDRESS":"新進路２５２號","OBJECTID":614755},"geometry":{"x":180177.9299999997,"y":2577881.9400000013}},{"attributes":{"ID":614783,"DIS_CODE":0,"TOWNNAME":"新營區","LI":"延平里","LIN":"2鄰","STREET":"延平路","SECT":" ","MAREA":" ","LANE":" ","ALLEY":" ","HOUSE_NO":"４２之１號","E_COORD97":179776.88,"N_COORD97":2577818.5499999998,"ADDRESS":"延平路４２之１號","OBJECTID":614756},"geometry":{"x":179776.88000000175,"y":2577818.5500000007}},{"attributes":{"ID":614784,"DIS_CODE":0,"TOWNNAME":"新營區","LI":"嘉芳里","LIN":"2鄰","STREET":"復興路","SECT":" ","MAREA":" ","LANE":" ","ALLEY":" ","HOUSE_NO":"７２４之１號","E_COORD97":177164.26999999999,"N_COORD97":2578595.3199999998,"ADDRESS":"復興路７２４之１號","OBJECTID":614757},"geometry":{"x":177164.26999999955,"y":2578595.3200000022}},{"attributes":{"ID":614785,"DIS_CODE":0,"TOWNNAME":"新營區","LI":"民權里","LIN":"2鄰","STREET":"博愛街","SECT":" ","MAREA":" ","LANE":" ","ALLEY":" ","HOUSE_NO":"３號","E_COORD97":180036.59,"N_COORD97":2578152.8100000001,"ADDRESS":"博愛街３號","OBJECTID":614758},"geometry":{"x":180036.59000000171,"y":2578152.8100000005}},{"attributes":{"ID":614786,"DIS_CODE":0,"TOWNNAME":"新營區","LI":"嘉芳里","LIN":"2鄰","STREET":"復興路","SECT":" ","MAREA":" ","LANE":" ","ALLEY":" ","HOUSE_NO":"７７３號","E_COORD97":177183.01999999999,"N_COORD97":2578547.54,"ADDRESS":"復興路７７３號","OBJECTID":614759},"geometry":{"x":177183.01999999955,"y":2578547.540000001}},{"attributes":{"ID":614787,"DIS_CODE":0,"TOWNNAME":"新營區","LI":"興業里","LIN":"2鄰","STREET":"新進路","SECT":" ","MAREA":" ","LANE":" ","ALLEY":" ","HOUSE_NO":"２３８號之２","E_COORD97":180207.82000000001,"N_COORD97":2577882.96,"ADDRESS":"新進路２３８號之２","OBJECTID":614760},"geometry":{"x":180207.8200000003,"y":2577882.9600000028}},{"attributes":{"ID":614788,"DIS_CODE":0,"TOWNNAME":"新營區","LI":"興業里","LIN":"2鄰","STREET":"新進路","SECT":" ","MAREA":" ","LANE":" ","ALLEY":" ","HOUSE_NO":"２５８之５號","E_COORD97":180147.69,"N_COORD97":2577882.1400000001,"ADDRESS":"新進路２５８之５號","OBJECTID":614761},"geometry":{"x":180147.69000000041,"y":2577882.1400000006}},{"attributes":{"ID":614789,"DIS_CODE":0,"TOWNNAME":"新營區","LI":"民榮里","LIN":"2鄰","STREET":"復興路","SECT":" ","MAREA":" ","LANE":" ","ALLEY":" ","HOUSE_NO":"１４３之３號","E_COORD97":179273.69,"N_COORD97":2578018.0800000001,"ADDRESS":"復興路１４３之３號","OBJECTID":614762},"geometry":{"x":179273.69000000227,"y":2578018.0800000001}},{"attributes":{"ID":614790,"DIS_CODE":0,"TOWNNAME":"新營區","LI":"三仙里","LIN":"2鄰","STREET":"復興路","SECT":" ","MAREA":" ","LANE":" ","ALLEY":" ","HOUSE_NO":"１２號","E_COORD97":179720.92999999999,"N_COORD97":2577994.8300000001,"ADDRESS":"復興路１２號","OBJECTID":614763},"geometry":{"x":179720.93000000063,"y":2577994.8300000019}},{"attributes":{"ID":614791,"DIS_CODE":0,"TOWNNAME":"新營區","LI":"興業里","LIN":"2鄰","STREET":"新進路","SECT":" ","MAREA":" ","LANE":" ","ALLEY":" ","HOUSE_NO":"２５６號","E_COORD97":180168.72,"N_COORD97":2577883.0899999999,"ADDRESS":"新進路２５６號","OBJECTID":614764},"geometry":{"x":180168.71999999974,"y":2577883.0900000036}},{"attributes":{"ID":614792,"DIS_CODE":0,"TOWNNAME":"新營區","LI":"民生里","LIN":"2鄰","STREET":"中華路","SECT":" ","MAREA":" ","LANE":" ","ALLEY":" ","HOUSE_NO":"６３號","E_COORD97":179450.69,"N_COORD97":2578167.7799999998,"ADDRESS":"中華路６３號","OBJECTID":614765},"geometry":{"x":179450.69000000134,"y":2578167.7800000012}},{"attributes":{"ID":614793,"DIS_CODE":0,"TOWNNAME":"新營區","LI":"興業里","LIN":"2鄰","STREET":"新進路","SECT":" ","MAREA":" ","LANE":" ","ALLEY":" ","HOUSE_NO":"２５８之２號","E_COORD97":180156.89999999999,"N_COORD97":2577883.2000000002,"ADDRESS":"新進路２５８之２號","OBJECTID":614766},"geometry":{"x":180156.89999999944,"y":2577883.2000000011}},{"attributes":{"ID":614794,"DIS_CODE":0,"TOWNNAME":"新營區","LI":"嘉芳里","LIN":"2鄰","STREET":"復興路","SECT":" ","MAREA":" ","LANE":" ","ALLEY":" ","HOUSE_NO":"７０４號","E_COORD97":177263.14000000001,"N_COORD97":2578615.8100000001,"ADDRESS":"復興路７０４號","OBJECTID":614767},"geometry":{"x":177263.1400000006,"y":2578615.8100000024}},{"attributes":{"ID":614795,"DIS_CODE":0,"TOWNNAME":"新營區","LI":"民生里","LIN":"2鄰","STREET":"中華路","SECT":" ","MAREA":" ","LANE":" ","ALLEY":" ","HOUSE_NO":"７３號","E_COORD97":179421.03,"N_COORD97":2578163.4900000002,"ADDRESS":"中華路７３號","OBJECTID":614768},"geometry":{"x":179421.03000000119,"y":2578163.4900000021}},{"attributes":{"ID":614796,"DIS_CODE":0,"TOWNNAME":"新營區","LI":"南興里","LIN":"2鄰","STREET":"建業路","SECT":" ","MAREA":" ","LANE":" ","ALLEY":" ","HOUSE_NO":"１０號","E_COORD97":179638.23999999999,"N_COORD97":2577598.77,"ADDRESS":"建業路１０號","OBJECTID":614769},"geometry":{"x":179638.24000000115,"y":2577598.7699999996}},{"attributes":{"ID":614797,"DIS_CODE":0,"TOWNNAME":"新營區","LI":"興業里","LIN":"2鄰","STREET":"新進路","SECT":" ","MAREA":" ","LANE":" ","ALLEY":" ","HOUSE_NO":"２４６號","E_COORD97":180191.22,"N_COORD97":2577882.98,"ADDRESS":"新進路２４６號","OBJECTID":614770},"geometry":{"x":180191.21999999974,"y":2577882.9800000004}},{"attributes":{"ID":614798,"DIS_CODE":0,"TOWNNAME":"新營區","LI":"民榮里","LIN":"2鄰","STREET":"復興路","SECT":" ","MAREA":" ","LANE":" ","ALLEY":" ","HOUSE_NO":"１３７號","E_COORD97":179315.20999999999,"N_COORD97":2578025.5699999998,"ADDRESS":"復興路１３７號","OBJECTID":614771},"geometry":{"x":179315.20999999903,"y":2578025.5700000003}},{"attributes":{"ID":614799,"DIS_CODE":0,"TOWNNAME":"北區","LI":"華興里","LIN":"2鄰","STREET":"開南街","SECT":" ","MAREA":" ","LANE":" ","ALLEY":" ","HOUSE_NO":"８１號","E_COORD97":170402.39999999999,"N_COORD97":2545300.8399999999,"ADDRESS":"開南街８１號","OBJECTID":614772},"geometry":{"x":170402.40000000037,"y":2545300.8400000017}},{"attributes":{"ID":614800,"DIS_CODE":0,"TOWNNAME":"柳營區","LI":"光福里","LIN":"2鄰","STREET":"建安街","SECT":" ","MAREA":" ","LANE":" ","ALLEY":" ","HOUSE_NO":"３１號","E_COORD97":179808.26000000001,"N_COORD97":2574987.8799999999,"ADDRESS":"建安街３１號","OBJECTID":614773},"geometry":{"x":179808.26000000071,"y":2574987.879999999}},{"attributes":{"ID":614801,"DIS_CODE":0,"TOWNNAME":"歸仁區","LI":"七甲里","LIN":"2鄰","STREET":"七甲五街","SECT":" ","MAREA":" ","LANE":" ","ALLEY":" ","HOUSE_NO":"９８號","E_COORD97":177212.48000000001,"N_COORD97":2542609.25,"ADDRESS":"七甲五街９８號","OBJECTID":614774},"geometry":{"x":177212.48000000138,"y":2542609.2500000019}},{"attributes":{"ID":614802,"DIS_CODE":0,"TOWNNAME":"歸仁區","LI":"八甲里","LIN":"2鄰","STREET":"忠孝北路","SECT":" ","MAREA":" ","LANE":" ","ALLEY":" ","HOUSE_NO":"３３６號","E_COORD97":177861.76999999999,"N_COORD97":2541589.6099999999,"ADDRESS":"忠孝北路３３６號","OBJECTID":614775},"geometry":{"x":177861.77000000142,"y":2541589.6100000013}},{"attributes":{"ID":614803,"DIS_CODE":0,"TOWNNAME":"歸仁區","LI":"武東里","LIN":"2鄰","STREET":"中正南路","SECT":"二段","MAREA":" ","LANE":" ","ALLEY":" ","HOUSE_NO":"２１３號","E_COORD97":175430.41,"N_COORD97":2535358.2799999998,"ADDRESS":"中正南路二段２１３號","OBJECTID":614776},"geometry":{"x":175430.40999999922,"y":2535358.2799999993}},{"attributes":{"ID":614804,"DIS_CODE":0,"TOWNNAME":"歸仁區","LI":"大潭里","LIN":"2鄰","STREET":"大潭一街","SECT":" ","MAREA":" ","LANE":" ","ALLEY":" ","HOUSE_NO":"４１號","E_COORD97":175254.07000000001,"N_COORD97":2534664.25,"ADDRESS":"大潭一街４１號","OBJECTID":614777},"geometry":{"x":175254.07000000123,"y":2534664.25}},{"attributes":{"ID":614805,"DIS_CODE":0,"TOWNNAME":"歸仁區","LI":"武東里","LIN":"2鄰","STREET":"武東二街","SECT":" ","MAREA":" ","LANE":" ","ALLEY":" ","HOUSE_NO":"１６號","E_COORD97":175448.23999999999,"N_COORD97":2535351.25,"ADDRESS":"武東二街１６號","OBJECTID":614778},"geometry":{"x":175448.24000000022,"y":2535351.2500000019}},{"attributes":{"ID":614806,"DIS_CODE":0,"TOWNNAME":"歸仁區","LI":"武東里","LIN":"2鄰","STREET":"中正南路","SECT":"二段","MAREA":" ","LANE":" ","ALLEY":" ","HOUSE_NO":"２１５號","E_COORD97":175431.41,"N_COORD97":2535352.2799999998,"ADDRESS":"中正南路二段２１５號","OBJECTID":614779},"geometry":{"x":175431.41000000015,"y":2535352.2799999975}},{"attributes":{"ID":614807,"DIS_CODE":0,"TOWNNAME":"歸仁區","LI":"文化里","LIN":"2鄰","STREET":"民族北街","SECT":" ","MAREA":" ","LANE":" ","ALLEY":" ","HOUSE_NO":"１６３號","E_COORD97":177452.70000000001,"N_COORD97":2541290.3300000001,"ADDRESS":"民族北街１６３號","OBJECTID":614780},"geometry":{"x":177452.70000000205,"y":2541290.3300000019}},{"attributes":{"ID":614808,"DIS_CODE":0,"TOWNNAME":"歸仁區","LI":"八甲里","LIN":"2鄰","STREET":"大光街","SECT":" ","MAREA":" ","LANE":" ","ALLEY":" ","HOUSE_NO":"５０號","E_COORD97":177951.87,"N_COORD97":2541675.6099999999,"ADDRESS":"大光街５０號","OBJECTID":614781},"geometry":{"x":177951.87000000104,"y":2541675.6099999994}},{"attributes":{"ID":614809,"DIS_CODE":0,"TOWNNAME":"歸仁區","LI":"大潭里","LIN":"2鄰","STREET":"中正南路","SECT":"三段","MAREA":" ","LANE":" ","ALLEY":" ","HOUSE_NO":"１６５號","E_COORD97":175222.70999999999,"N_COORD97":2534850.2799999998,"ADDRESS":"中正南路三段１６５號","OBJECTID":614782},"geometry":{"x":175222.70999999996,"y":2534850.2799999993}},{"attributes":{"ID":614810,"DIS_CODE":0,"TOWNNAME":"歸仁區","LI":"八甲里","LIN":"2鄰","STREET":"大明三街","SECT":" ","MAREA":" ","LANE":" ","ALLEY":" ","HOUSE_NO":"８４號","E_COORD97":178021.51999999999,"N_COORD97":2541617.6099999999,"ADDRESS":"大明三街８４號","OBJECTID":614783},"geometry":{"x":178021.52000000048,"y":2541617.6099999994}},{"attributes":{"ID":614811,"DIS_CODE":0,"TOWNNAME":"歸仁區","LI":"八甲里","LIN":"2鄰","STREET":"大明三街","SECT":" ","MAREA":" ","LANE":" ","ALLEY":" ","HOUSE_NO":"８０號","E_COORD97":178028.82000000001,"N_COORD97":2541625.6099999999,"ADDRESS":"大明三街８０號","OBJECTID":614784},"geometry":{"x":178028.82000000123,"y":2541625.6099999975}},{"attributes":{"ID":614812,"DIS_CODE":0,"TOWNNAME":"北區","LI":"裕民里","LIN":"2鄰","STREET":"康樂街","SECT":" ","MAREA":" ","LANE":" ","ALLEY":" ","HOUSE_NO":"４４５號","E_COORD97":167747.29000000001,"N_COORD97":2544690.6699999999,"ADDRESS":"康樂街４４５號","OBJECTID":614785},"geometry":{"x":167747.29000000097,"y":2544690.6699999981}},{"attributes":{"ID":614813,"DIS_CODE":0,"TOWNNAME":"北區","LI":"裕民里","LIN":"2鄰","STREET":"康樂街","SECT":" ","MAREA":" ","LANE":" ","ALLEY":" ","HOUSE_NO":"４６１號","E_COORD97":167761.82999999999,"N_COORD97":2544721.04,"ADDRESS":"康樂街４６１號","OBJECTID":614786},"geometry":{"x":167761.82999999914,"y":2544721.0399999991}},{"attributes":{"ID":614814,"DIS_CODE":0,"TOWNNAME":"北區","LI":"東興里","LIN":"2鄰","STREET":"小東路","SECT":" ","MAREA":" ","LANE":" ","ALLEY":" ","HOUSE_NO":"１６７號","E_COORD97":170763.72,"N_COORD97":2544536.6499999999,"ADDRESS":"小東路１６７號","OBJECTID":614787},"geometry":{"x":170763.71999999974,"y":2544536.6500000022}},{"attributes":{"ID":614815,"DIS_CODE":0,"TOWNNAME":"北區","LI":"東興里","LIN":"2鄰","STREET":"小東路","SECT":" ","MAREA":" ","LANE":" ","ALLEY":" ","HOUSE_NO":"１６９號","E_COORD97":170768.48999999999,"N_COORD97":2544536.0600000001,"ADDRESS":"小東路１６９號","OBJECTID":614788},"geometry":{"x":170768.49000000115,"y":2544536.0600000005}},{"attributes":{"ID":614816,"DIS_CODE":0,"TOWNNAME":"北區","LI":"東興里","LIN":"2鄰","STREET":"小東路","SECT":" ","MAREA":" ","LANE":" ","ALLEY":" ","HOUSE_NO":"１７１號","E_COORD97":170772.09,"N_COORD97":2544534.4100000001,"ADDRESS":"小東路１７１號","OBJECTID":614789},"geometry":{"x":170772.08999999985,"y":2544534.410000002}},{"attributes":{"ID":614817,"DIS_CODE":0,"TOWNNAME":"北區","LI":"東興里","LIN":"2鄰","STREET":"小東路","SECT":" ","MAREA":" ","LANE":" ","ALLEY":" ","HOUSE_NO":"１７３號","E_COORD97":170775.88,"N_COORD97":2544532.1800000002,"ADDRESS":"小東路１７３號","OBJECTID":614790},"geometry":{"x":170775.88000000082,"y":2544532.1800000016}},{"attributes":{"ID":614818,"DIS_CODE":0,"TOWNNAME":"北區","LI":"東興里","LIN":"2鄰","STREET":"小東路","SECT":" ","MAREA":" ","LANE":" ","ALLEY":" ","HOUSE_NO":"１７５號","E_COORD97":170780.16,"N_COORD97":2544531.2000000002,"ADDRESS":"小東路１７５號","OBJECTID":614791},"geometry":{"x":170780.16000000015,"y":2544531.2000000011}},{"attributes":{"ID":614819,"DIS_CODE":0,"TOWNNAME":"北區","LI":"東興里","LIN":"2鄰","STREET":"小東路","SECT":" ","MAREA":" ","LANE":" ","ALLEY":" ","HOUSE_NO":"１７７號","E_COORD97":170784.54000000001,"N_COORD97":2544530.23,"ADDRESS":"小東路１７７號","OBJECTID":614792},"geometry":{"x":170784.53999999911,"y":2544530.2300000004}},{"attributes":{"ID":614820,"DIS_CODE":0,"TOWNNAME":"北區","LI":"和順里","LIN":"2鄰","STREET":"公園南路","SECT":" ","MAREA":" ","LANE":" ","ALLEY":" ","HOUSE_NO":"３４０號","E_COORD97":168294.48999999999,"N_COORD97":2544834.8100000001,"ADDRESS":"公園南路３４０號","OBJECTID":614793},"geometry":{"x":168294.49000000022,"y":2544834.8100000005}},{"attributes":{"ID":614821,"DIS_CODE":0,"TOWNNAME":"北區","LI":"和順里","LIN":"2鄰","STREET":"公園南路","SECT":" ","MAREA":" ","LANE":" ","ALLEY":" ","HOUSE_NO":"３４２號","E_COORD97":168289.76999999999,"N_COORD97":2544835.46,"ADDRESS":"公園南路３４２號","OBJECTID":614794},"geometry":{"x":168289.77000000048,"y":2544835.4600000009}},{"attributes":{"ID":614822,"DIS_CODE":0,"TOWNNAME":"北區","LI":"和順里","LIN":"2鄰","STREET":"公園南路","SECT":" ","MAREA":" ","LANE":" ","ALLEY":" ","HOUSE_NO":"３４６號","E_COORD97":168285.54000000001,"N_COORD97":2544837.0800000001,"ADDRESS":"公園南路３４６號","OBJECTID":614795},"geometry":{"x":168285.54000000004,"y":2544837.0800000001}},{"attributes":{"ID":614823,"DIS_CODE":0,"TOWNNAME":"北區","LI":"和順里","LIN":"2鄰","STREET":"公園南路","SECT":" ","MAREA":" ","LANE":" ","ALLEY":" ","HOUSE_NO":"３５０號","E_COORD97":168281.47,"N_COORD97":2544838.0600000001,"ADDRESS":"公園南路３５０號","OBJECTID":614796},"geometry":{"x":168281.47000000067,"y":2544838.0600000042}},{"attributes":{"ID":614824,"DIS_CODE":0,"TOWNNAME":"北區","LI":"和順里","LIN":"2鄰","STREET":"公園南路","SECT":" ","MAREA":" ","LANE":" ","ALLEY":" ","HOUSE_NO":"３５２號","E_COORD97":168277.07999999999,"N_COORD97":2544838.71,"ADDRESS":"公園南路３５２號","OBJECTID":614797},"geometry":{"x":168277.08000000007,"y":2544838.7100000028}},{"attributes":{"ID":614825,"DIS_CODE":0,"TOWNNAME":"北區","LI":"和順里","LIN":"2鄰","STREET":"公園南路","SECT":" ","MAREA":" ","LANE":" ","ALLEY":" ","HOUSE_NO":"３５６號","E_COORD97":168272.20000000001,"N_COORD97":2544840.6600000001,"ADDRESS":"公園南路３５６號","OBJECTID":614798},"geometry":{"x":168272.20000000112,"y":2544840.6600000039}},{"attributes":{"ID":614826,"DIS_CODE":0,"TOWNNAME":"北區","LI":"和順里","LIN":"2鄰","STREET":"公園南路","SECT":" ","MAREA":" ","LANE":" ","ALLEY":" ","HOUSE_NO":"４０６號","E_COORD97":168115.92000000001,"N_COORD97":2544918.9300000002,"ADDRESS":"公園南路４０６號","OBJECTID":614799},"geometry":{"x":168115.92000000086,"y":2544918.9299999997}},{"attributes":{"ID":614827,"DIS_CODE":0,"TOWNNAME":"北區","LI":"和順里","LIN":"2鄰","STREET":"公園南路","SECT":" ","MAREA":" ","LANE":" ","ALLEY":" ","HOUSE_NO":"３３０號","E_COORD97":168313.20999999999,"N_COORD97":2544828.3100000001,"ADDRESS":"公園南路３３０號","OBJECTID":614800},"geometry":{"x":168313.20999999996,"y":2544828.3100000005}}]}