{"displayFieldName":"TOWNNAME","fieldAliases":{"ID":"ID","DIS_CODE":"DIS_CODE","TOWNNAME":"TOWNNAME","LI":"LI","LIN":"LIN","STREET":"STREET","SECT":"SECT","MAREA":"MAREA","LANE":"LANE","ALLEY":"ALLEY","HOUSE_NO":"HOUSE_NO","E_COORD97":"E_COORD97","N_COORD97":"N_COORD97","ADDRESS":"ADDRESS","OBJECTID":"OBJECTID"},"geometryType":"esriGeometryPoint","spatialReference":{"wkid":102443,"latestWkid":3826},"fields":[{"name":"ID","type":"esriFieldTypeDouble","alias":"ID"},{"name":"DIS_CODE","type":"esriFieldTypeInteger","alias":"DIS_CODE"},{"name":"TOWNNAME","type":"esriFieldTypeString","alias":"TOWNNAME","length":8},{"name":"LI","type":"esriFieldTypeString","alias":"LI","length":8},{"name":"LIN","type":"esriFieldTypeString","alias":"LIN","length":12},{"name":"STREET","type":"esriFieldTypeString","alias":"STREET","length":20},{"name":"SECT","type":"esriFieldTypeString","alias":"SECT","length":8},{"name":"MAREA","type":"esriFieldTypeString","alias":"MAREA","length":12},{"name":"LANE","type":"esriFieldTypeString","alias":"LANE","length":10},{"name":"ALLEY","type":"esriFieldTypeString","alias":"ALLEY","length":10},{"name":"HOUSE_NO","type":"esriFieldTypeString","alias":"HOUSE_NO","length":20},{"name":"E_COORD97","type":"esriFieldTypeDouble","alias":"E_COORD97"},{"name":"N_COORD97","type":"esriFieldTypeDouble","alias":"N_COORD97"},{"name":"ADDRESS","type":"esriFieldTypeString","alias":"ADDRESS","length":50},{"name":"OBJECTID","type":"esriFieldTypeOID","alias":"OBJECTID"}],"features":[{"attributes":{"ID":456826,"DIS_CODE":0,"TOWNNAME":"仁德區","LI":"仁義里","LIN":"41鄰","STREET":"中正路","SECT":"二段","MAREA":" ","LANE":"８９２巷","ALLEY":" ","HOUSE_NO":"３５號","E_COORD97":173546.85000000001,"N_COORD97":2540589.77,"ADDRESS":"中正路二段８９２巷３５號","OBJECTID":456801},"geometry":{"x":173546.84999999963,"y":2540589.7699999996}},{"attributes":{"ID":456827,"DIS_CODE":0,"TOWNNAME":"仁德區","LI":"仁義里","LIN":"41鄰","STREET":"中正路","SECT":"二段","MAREA":" ","LANE":"８９２巷","ALLEY":" ","HOUSE_NO":"２２號","E_COORD97":173506.39000000001,"N_COORD97":2540565.27,"ADDRESS":"中正路二段８９２巷２２號","OBJECTID":456802},"geometry":{"x":173506.3900000006,"y":2540565.2700000014}},{"attributes":{"ID":456828,"DIS_CODE":0,"TOWNNAME":"仁德區","LI":"仁義里","LIN":"41鄰","STREET":"中正路","SECT":"二段","MAREA":" ","LANE":"９３６巷","ALLEY":" ","HOUSE_NO":"６號","E_COORD97":173474.16,"N_COORD97":2540667.6499999999,"ADDRESS":"中正路二段９３６巷６號","OBJECTID":456803},"geometry":{"x":173474.15999999922,"y":2540667.6500000022}},{"attributes":{"ID":456829,"DIS_CODE":0,"TOWNNAME":"仁德區","LI":"仁義里","LIN":"41鄰","STREET":"中正路","SECT":"二段","MAREA":" ","LANE":"９１４巷","ALLEY":" ","HOUSE_NO":"３３號","E_COORD97":173525.26000000001,"N_COORD97":2540627.2799999998,"ADDRESS":"中正路二段９１４巷３３號","OBJECTID":456804},"geometry":{"x":173525.25999999978,"y":2540627.2799999993}},{"attributes":{"ID":456830,"DIS_CODE":0,"TOWNNAME":"仁德區","LI":"仁義里","LIN":"41鄰","STREET":"中正路","SECT":"二段","MAREA":" ","LANE":"９１４巷","ALLEY":" ","HOUSE_NO":"４６號","E_COORD97":173543.56,"N_COORD97":2540619.7799999998,"ADDRESS":"中正路二段９１４巷４６號","OBJECTID":456805},"geometry":{"x":173543.55999999959,"y":2540619.7799999993}},{"attributes":{"ID":456831,"DIS_CODE":0,"TOWNNAME":"仁德區","LI":"仁義里","LIN":"41鄰","STREET":"中正路","SECT":"二段","MAREA":" ","LANE":"９１４巷","ALLEY":" ","HOUSE_NO":"３１號","E_COORD97":173514.89999999999,"N_COORD97":2540626.2799999998,"ADDRESS":"中正路二段９１４巷３１號","OBJECTID":456806},"geometry":{"x":173514.90000000037,"y":2540626.2799999993}},{"attributes":{"ID":456832,"DIS_CODE":0,"TOWNNAME":"仁德區","LI":"仁義里","LIN":"41鄰","STREET":"中正路","SECT":"二段","MAREA":" ","LANE":"８９２巷","ALLEY":" ","HOUSE_NO":"２４號","E_COORD97":173510.73000000001,"N_COORD97":2540565.52,"ADDRESS":"中正路二段８９２巷２４號","OBJECTID":456807},"geometry":{"x":173510.73000000045,"y":2540565.5200000033}},{"attributes":{"ID":456833,"DIS_CODE":0,"TOWNNAME":"仁德區","LI":"仁義里","LIN":"41鄰","STREET":"中正路","SECT":"二段","MAREA":" ","LANE":"９１４巷","ALLEY":" ","HOUSE_NO":"４３號","E_COORD97":173546.57000000001,"N_COORD97":2540629.2799999998,"ADDRESS":"中正路二段９１４巷４３號","OBJECTID":456808},"geometry":{"x":173546.57000000123,"y":2540629.2800000012}},{"attributes":{"ID":456834,"DIS_CODE":0,"TOWNNAME":"仁德區","LI":"仁義里","LIN":"41鄰","STREET":"中正路","SECT":"二段","MAREA":" ","LANE":"８９２巷","ALLEY":" ","HOUSE_NO":"１２號","E_COORD97":173484.59,"N_COORD97":2540564.02,"ADDRESS":"中正路二段８９２巷１２號","OBJECTID":456809},"geometry":{"x":173484.59000000171,"y":2540564.0199999996}},{"attributes":{"ID":456835,"DIS_CODE":0,"TOWNNAME":"仁德區","LI":"仁義里","LIN":"41鄰","STREET":"中正路","SECT":"二段","MAREA":" ","LANE":"９３６巷","ALLEY":" ","HOUSE_NO":"９號","E_COORD97":173473.35999999999,"N_COORD97":2540682.3999999999,"ADDRESS":"中正路二段９３６巷９號","OBJECTID":456810},"geometry":{"x":173473.36000000127,"y":2540682.4000000041}},{"attributes":{"ID":456836,"DIS_CODE":0,"TOWNNAME":"仁德區","LI":"仁義里","LIN":"41鄰","STREET":"中正路","SECT":"二段","MAREA":" ","LANE":"８９２巷","ALLEY":" ","HOUSE_NO":"３７號","E_COORD97":173551.07000000001,"N_COORD97":2540590.27,"ADDRESS":"中正路二段８９２巷３７號","OBJECTID":456811},"geometry":{"x":173551.0700000003,"y":2540590.2699999996}},{"attributes":{"ID":456837,"DIS_CODE":0,"TOWNNAME":"新市區","LI":"新和里","LIN":"41鄰","STREET":"西寧街","SECT":" ","MAREA":" ","LANE":"３１巷","ALLEY":" ","HOUSE_NO":"２號","E_COORD97":177094.29000000001,"N_COORD97":2552856,"ADDRESS":"西寧街３１巷２號","OBJECTID":456812},"geometry":{"x":177094.2900000019,"y":2552855.9999999981}},{"attributes":{"ID":456838,"DIS_CODE":0,"TOWNNAME":"永康區","LI":"北灣里","LIN":"41鄰","STREET":"大灣七街","SECT":" ","MAREA":" ","LANE":"７９巷","ALLEY":" ","HOUSE_NO":"３號","E_COORD97":175033.35999999999,"N_COORD97":2545765.9700000002,"ADDRESS":"大灣七街７９巷３號","OBJECTID":456813},"geometry":{"x":175033.36000000127,"y":2545765.9700000025}},{"attributes":{"ID":456839,"DIS_CODE":0,"TOWNNAME":"永康區","LI":"北灣里","LIN":"41鄰","STREET":"大灣路","SECT":" ","MAREA":" ","LANE":"７４巷","ALLEY":" ","HOUSE_NO":"６號之３","E_COORD97":175182.45999999999,"N_COORD97":2545790.5499999998,"ADDRESS":"大灣路７４巷６號之３","OBJECTID":456814},"geometry":{"x":175182.46000000183,"y":2545790.5500000007}},{"attributes":{"ID":456840,"DIS_CODE":0,"TOWNNAME":"永康區","LI":"六合里","LIN":"8鄰","STREET":"六合路","SECT":" ","MAREA":" ","LANE":"４７巷","ALLEY":" ","HOUSE_NO":"７號","E_COORD97":171144.45999999999,"N_COORD97":2545583.2200000002,"ADDRESS":"六合路４７巷７號","OBJECTID":456815},"geometry":{"x":171144.46000000183,"y":2545583.2200000044}},{"attributes":{"ID":456841,"DIS_CODE":0,"TOWNNAME":"六甲區","LI":"六甲里","LIN":"9鄰","STREET":"中興街","SECT":" ","MAREA":" ","LANE":" ","ALLEY":" ","HOUSE_NO":"５號","E_COORD97":183642.75,"N_COORD97":2569655.8100000001,"ADDRESS":"中興街５號","OBJECTID":456816},"geometry":{"x":183642.75,"y":2569655.8100000005}},{"attributes":{"ID":456842,"DIS_CODE":0,"TOWNNAME":"永康區","LI":"北灣里","LIN":"41鄰","STREET":"大灣路","SECT":" ","MAREA":" ","LANE":"７４巷","ALLEY":" ","HOUSE_NO":"２４號","E_COORD97":175124.01000000001,"N_COORD97":2545793,"ADDRESS":"大灣路７４巷２４號","OBJECTID":456817},"geometry":{"x":175124.00999999978,"y":2545793}},{"attributes":{"ID":456843,"DIS_CODE":0,"TOWNNAME":"永康區","LI":"北灣里","LIN":"41鄰","STREET":"大灣路","SECT":" ","MAREA":" ","LANE":"７４巷","ALLEY":" ","HOUSE_NO":"１０號","E_COORD97":175167.64000000001,"N_COORD97":2545788,"ADDRESS":"大灣路７４巷１０號","OBJECTID":456818},"geometry":{"x":175167.6400000006,"y":2545788.0000000019}},{"attributes":{"ID":456844,"DIS_CODE":0,"TOWNNAME":"永康區","LI":"北灣里","LIN":"41鄰","STREET":"大灣路","SECT":" ","MAREA":" ","LANE":"７４巷","ALLEY":" ","HOUSE_NO":"６號之２","E_COORD97":175188.35999999999,"N_COORD97":2545789.7999999998,"ADDRESS":"大灣路７４巷６號之２","OBJECTID":456819},"geometry":{"x":175188.36000000034,"y":2545789.8000000026}},{"attributes":{"ID":456845,"DIS_CODE":0,"TOWNNAME":"永康區","LI":"北灣里","LIN":"41鄰","STREET":"大灣路","SECT":" ","MAREA":" ","LANE":"７４巷","ALLEY":" ","HOUSE_NO":"３號","E_COORD97":175205.98000000001,"N_COORD97":2545776.5,"ADDRESS":"大灣路７４巷３號","OBJECTID":456820},"geometry":{"x":175205.98000000045,"y":2545776.5}},{"attributes":{"ID":456846,"DIS_CODE":0,"TOWNNAME":"永康區","LI":"北灣里","LIN":"41鄰","STREET":"大灣路","SECT":" ","MAREA":" ","LANE":"７４巷","ALLEY":" ","HOUSE_NO":"１２號","E_COORD97":175161.17000000001,"N_COORD97":2545788.5,"ADDRESS":"大灣路７４巷１２號","OBJECTID":456821},"geometry":{"x":175161.17000000086,"y":2545788.5000000019}},{"attributes":{"ID":456847,"DIS_CODE":0,"TOWNNAME":"永康區","LI":"北灣里","LIN":"41鄰","STREET":"大灣路","SECT":" ","MAREA":" ","LANE":"７４巷","ALLEY":" ","HOUSE_NO":"２號","E_COORD97":175220.48000000001,"N_COORD97":2545788.79,"ADDRESS":"大灣路７４巷２號","OBJECTID":456822},"geometry":{"x":175220.48000000138,"y":2545788.790000001}},{"attributes":{"ID":456848,"DIS_CODE":0,"TOWNNAME":"永康區","LI":"北灣里","LIN":"41鄰","STREET":"大灣路","SECT":" ","MAREA":" ","LANE":"７４巷","ALLEY":" ","HOUSE_NO":"２６號","E_COORD97":175118.19,"N_COORD97":2545793.75,"ADDRESS":"大灣路７４巷２６號","OBJECTID":456823},"geometry":{"x":175118.19000000041,"y":2545793.7500000019}},{"attributes":{"ID":456849,"DIS_CODE":0,"TOWNNAME":"永康區","LI":"北灣里","LIN":"41鄰","STREET":"大灣路","SECT":" ","MAREA":" ","LANE":"７４巷","ALLEY":" ","HOUSE_NO":"３２號","E_COORD97":175098.70000000001,"N_COORD97":2545796.25,"ADDRESS":"大灣路７４巷３２號","OBJECTID":456824},"geometry":{"x":175098.70000000112,"y":2545796.2500000019}},{"attributes":{"ID":456850,"DIS_CODE":0,"TOWNNAME":"永康區","LI":"北灣里","LIN":"41鄰","STREET":"大灣路","SECT":" ","MAREA":" ","LANE":"７４巷","ALLEY":" ","HOUSE_NO":"１８號","E_COORD97":175143.76999999999,"N_COORD97":2545791,"ADDRESS":"大灣路７４巷１８號","OBJECTID":456825},"geometry":{"x":175143.76999999955,"y":2545791.0000000019}},{"attributes":{"ID":456851,"DIS_CODE":0,"TOWNNAME":"永康區","LI":"北灣里","LIN":"41鄰","STREET":"大灣路","SECT":" ","MAREA":" ","LANE":"７４巷","ALLEY":" ","HOUSE_NO":"１６號","E_COORD97":175149.78,"N_COORD97":2545790.25,"ADDRESS":"大灣路７４巷１６號","OBJECTID":456826},"geometry":{"x":175149.78000000026,"y":2545790.2500000019}},{"attributes":{"ID":456852,"DIS_CODE":0,"TOWNNAME":"永康區","LI":"北灣里","LIN":"41鄰","STREET":"大灣路","SECT":" ","MAREA":" ","LANE":"７４巷","ALLEY":" ","HOUSE_NO":"６號之１","E_COORD97":175193.76000000001,"N_COORD97":2545789.2999999998,"ADDRESS":"大灣路７４巷６號之１","OBJECTID":456827},"geometry":{"x":175193.76000000164,"y":2545789.3000000045}},{"attributes":{"ID":456853,"DIS_CODE":0,"TOWNNAME":"永康區","LI":"永康里","LIN":"41鄰","STREET":"永大路","SECT":"二段","MAREA":" ","LANE":"７２３巷","ALLEY":" ","HOUSE_NO":"２８號","E_COORD97":174301.92999999999,"N_COORD97":2546639.2200000002,"ADDRESS":"永大路二段７２３巷２８號","OBJECTID":456828},"geometry":{"x":174301.9299999997,"y":2546639.2200000007}},{"attributes":{"ID":456854,"DIS_CODE":0,"TOWNNAME":"永康區","LI":"北灣里","LIN":"41鄰","STREET":"大灣路","SECT":" ","MAREA":" ","LANE":"７４巷","ALLEY":" ","HOUSE_NO":"２０號","E_COORD97":175137.51999999999,"N_COORD97":2545791.5,"ADDRESS":"大灣路７４巷２０號","OBJECTID":456829},"geometry":{"x":175137.52000000142,"y":2545791.5000000019}},{"attributes":{"ID":456855,"DIS_CODE":0,"TOWNNAME":"永康區","LI":"五王里","LIN":"41鄰","STREET":"中山南路","SECT":" ","MAREA":" ","LANE":"２６２巷","ALLEY":" ","HOUSE_NO":"６號底一層之１","E_COORD97":171561.51000000001,"N_COORD97":2546015.2000000002,"ADDRESS":"中山南路２６２巷６號底一層之１","OBJECTID":456830},"geometry":{"x":171561.51000000071,"y":2546015.1999999993}},{"attributes":{"ID":456856,"DIS_CODE":0,"TOWNNAME":"永康區","LI":"北灣里","LIN":"41鄰","STREET":"大灣七街","SECT":" ","MAREA":" ","LANE":"７９巷","ALLEY":" ","HOUSE_NO":"６號","E_COORD97":175018.47,"N_COORD97":2545763.7200000002,"ADDRESS":"大灣七街７９巷６號","OBJECTID":456831},"geometry":{"x":175018.47000000067,"y":2545763.7200000025}},{"attributes":{"ID":456857,"DIS_CODE":0,"TOWNNAME":"永康區","LI":"北灣里","LIN":"41鄰","STREET":"大灣七街","SECT":" ","MAREA":" ","LANE":"７９巷","ALLEY":" ","HOUSE_NO":"５號","E_COORD97":175023.31,"N_COORD97":2545764.2200000002,"ADDRESS":"大灣七街７９巷５號","OBJECTID":456832},"geometry":{"x":175023.30999999959,"y":2545764.2200000025}},{"attributes":{"ID":456858,"DIS_CODE":0,"TOWNNAME":"楠西區","LI":"東勢里","LIN":"18鄰","STREET":"東勢路","SECT":" ","MAREA":" ","LANE":"２６巷","ALLEY":" ","HOUSE_NO":"３６號","E_COORD97":197695.47,"N_COORD97":2564134.29,"ADDRESS":"東勢路２６巷３６號","OBJECTID":456833},"geometry":{"x":197695.46999999974,"y":2564134.290000001}},{"attributes":{"ID":456859,"DIS_CODE":0,"TOWNNAME":"新市區","LI":"新和里","LIN":"41鄰","STREET":"西寧街","SECT":" ","MAREA":" ","LANE":"４２巷","ALLEY":" ","HOUSE_NO":"２號","E_COORD97":177030.12,"N_COORD97":2552908.5,"ADDRESS":"西寧街４２巷２號","OBJECTID":456834},"geometry":{"x":177030.12000000104,"y":2552908.5000000019}},{"attributes":{"ID":456860,"DIS_CODE":0,"TOWNNAME":"新市區","LI":"新和里","LIN":"41鄰","STREET":"西寧街","SECT":" ","MAREA":" ","LANE":"３１巷","ALLEY":" ","HOUSE_NO":"４號","E_COORD97":177086.84,"N_COORD97":2552869.25,"ADDRESS":"西寧街３１巷４號","OBJECTID":456835},"geometry":{"x":177086.84000000171,"y":2552869.2500000019}},{"attributes":{"ID":456861,"DIS_CODE":0,"TOWNNAME":"永康區","LI":"南灣里","LIN":"41鄰","STREET":"南興路","SECT":" ","MAREA":" ","LANE":"１１２巷","ALLEY":" ","HOUSE_NO":"９０號","E_COORD97":174628.41,"N_COORD97":2544543.8799999999,"ADDRESS":"南興路１１２巷９０號","OBJECTID":456836},"geometry":{"x":174628.41000000015,"y":2544543.8800000008}},{"attributes":{"ID":456862,"DIS_CODE":0,"TOWNNAME":"仁德區","LI":"後壁里","LIN":"41鄰","STREET":"德善路","SECT":" ","MAREA":" ","LANE":"２７３巷","ALLEY":" ","HOUSE_NO":"１３號","E_COORD97":173952.45999999999,"N_COORD97":2538721.0099999998,"ADDRESS":"德善路２７３巷１３號","OBJECTID":456837},"geometry":{"x":173952.46000000089,"y":2538721.0099999998}},{"attributes":{"ID":456863,"DIS_CODE":0,"TOWNNAME":"永康區","LI":"南灣里","LIN":"41鄰","STREET":"南興路","SECT":" ","MAREA":" ","LANE":"１１２巷","ALLEY":" ","HOUSE_NO":"１０２號之６","E_COORD97":174676.76000000001,"N_COORD97":2544556.4300000002,"ADDRESS":"南興路１１２巷１０２號之６","OBJECTID":456838},"geometry":{"x":174676.76000000164,"y":2544556.4299999978}},{"attributes":{"ID":456864,"DIS_CODE":0,"TOWNNAME":"永康區","LI":"南灣里","LIN":"41鄰","STREET":"南興路","SECT":" ","MAREA":" ","LANE":"１１２巷","ALLEY":" ","HOUSE_NO":"９２號","E_COORD97":174632.20999999999,"N_COORD97":2544545.1299999999,"ADDRESS":"南興路１１２巷９２號","OBJECTID":456839},"geometry":{"x":174632.21000000089,"y":2544545.1300000008}},{"attributes":{"ID":456865,"DIS_CODE":0,"TOWNNAME":"永康區","LI":"南灣里","LIN":"41鄰","STREET":"南興路","SECT":" ","MAREA":" ","LANE":"１１２巷","ALLEY":" ","HOUSE_NO":"９８號","E_COORD97":174643.51000000001,"N_COORD97":2544548.6299999999,"ADDRESS":"南興路１１２巷９８號","OBJECTID":456840},"geometry":{"x":174643.51000000071,"y":2544548.6300000008}},{"attributes":{"ID":456866,"DIS_CODE":0,"TOWNNAME":"新市區","LI":"新和里","LIN":"41鄰","STREET":"西寧街","SECT":" ","MAREA":" ","LANE":"４２巷","ALLEY":" ","HOUSE_NO":"４號","E_COORD97":177033.12,"N_COORD97":2552913.5,"ADDRESS":"西寧街４２巷４號","OBJECTID":456841},"geometry":{"x":177033.12000000104,"y":2552913.5}},{"attributes":{"ID":456867,"DIS_CODE":0,"TOWNNAME":"永康區","LI":"南灣里","LIN":"41鄰","STREET":"南興路","SECT":" ","MAREA":" ","LANE":"１１２巷","ALLEY":" ","HOUSE_NO":"８４號","E_COORD97":174617.38,"N_COORD97":2544539.3799999999,"ADDRESS":"南興路１１２巷８４號","OBJECTID":456842},"geometry":{"x":174617.38000000082,"y":2544539.3800000027}},{"attributes":{"ID":456868,"DIS_CODE":0,"TOWNNAME":"佳里區","LI":"安西里","LIN":"41鄰","STREET":"同心街","SECT":" ","MAREA":" ","LANE":"１２２巷","ALLEY":" ","HOUSE_NO":"１０號","E_COORD97":164844.37,"N_COORD97":2562374.4700000002,"ADDRESS":"同心街１２２巷１０號","OBJECTID":456843},"geometry":{"x":164844.37000000197,"y":2562374.4700000025}},{"attributes":{"ID":456869,"DIS_CODE":0,"TOWNNAME":"佳里區","LI":"安西里","LIN":"41鄰","STREET":"同心街","SECT":" ","MAREA":" ","LANE":"１２２巷","ALLEY":" ","HOUSE_NO":"１１號","E_COORD97":164818.35999999999,"N_COORD97":2562389.3399999999,"ADDRESS":"同心街１２２巷１１號","OBJECTID":456844},"geometry":{"x":164818.36000000034,"y":2562389.3399999999}},{"attributes":{"ID":456870,"DIS_CODE":0,"TOWNNAME":"佳里區","LI":"安西里","LIN":"41鄰","STREET":"同心街","SECT":" ","MAREA":" ","LANE":"１２２巷","ALLEY":" ","HOUSE_NO":"１２號","E_COORD97":164844.51000000001,"N_COORD97":2562379.3700000001,"ADDRESS":"同心街１２２巷１２號","OBJECTID":456845},"geometry":{"x":164844.50999999978,"y":2562379.3700000029}},{"attributes":{"ID":456871,"DIS_CODE":0,"TOWNNAME":"佳里區","LI":"安西里","LIN":"41鄰","STREET":"同心街","SECT":" ","MAREA":" ","LANE":"１２２巷","ALLEY":" ","HOUSE_NO":"１３號","E_COORD97":164803.09,"N_COORD97":2562385.04,"ADDRESS":"同心街１２２巷１３號","OBJECTID":456846},"geometry":{"x":164803.08999999985,"y":2562385.0399999991}},{"attributes":{"ID":456872,"DIS_CODE":0,"TOWNNAME":"佳里區","LI":"安西里","LIN":"41鄰","STREET":"同心街","SECT":" ","MAREA":" ","LANE":"１２２巷","ALLEY":" ","HOUSE_NO":"１５號","E_COORD97":164801.29999999999,"N_COORD97":2562407.8700000001,"ADDRESS":"同心街１２２巷１５號","OBJECTID":456847},"geometry":{"x":164801.29999999981,"y":2562407.870000001}},{"attributes":{"ID":456873,"DIS_CODE":0,"TOWNNAME":"佳里區","LI":"安西里","LIN":"41鄰","STREET":"同心街","SECT":" ","MAREA":" ","LANE":"１２２巷","ALLEY":" ","HOUSE_NO":"１６號","E_COORD97":164844.48000000001,"N_COORD97":2562384.3199999998,"ADDRESS":"同心街１２２巷１６號","OBJECTID":456848},"geometry":{"x":164844.48000000138,"y":2562384.3200000003}},{"attributes":{"ID":456874,"DIS_CODE":0,"TOWNNAME":"東區","LI":"崇文里","LIN":"40鄰","STREET":"生產路","SECT":" ","MAREA":" ","LANE":" ","ALLEY":" ","HOUSE_NO":"２７７號十二樓","E_COORD97":170920.14000000001,"N_COORD97":2540618.3100000001,"ADDRESS":"生產路２７７號十二樓","OBJECTID":456849},"geometry":{"x":170920.13999999966,"y":2540618.3100000005}},{"attributes":{"ID":456875,"DIS_CODE":0,"TOWNNAME":"佳里區","LI":"安西里","LIN":"41鄰","STREET":"同心街","SECT":" ","MAREA":" ","LANE":"１２２巷","ALLEY":" ","HOUSE_NO":"１７號","E_COORD97":164805.73000000001,"N_COORD97":2562407.9100000001,"ADDRESS":"同心街１２２巷１７號","OBJECTID":456850},"geometry":{"x":164805.73000000138,"y":2562407.9100000039}},{"attributes":{"ID":456876,"DIS_CODE":0,"TOWNNAME":"佳里區","LI":"安西里","LIN":"41鄰","STREET":"同心街","SECT":" ","MAREA":" ","LANE":"１２２巷","ALLEY":" ","HOUSE_NO":"１９號","E_COORD97":164817.73000000001,"N_COORD97":2562399.1299999999,"ADDRESS":"同心街１２２巷１９號","OBJECTID":456851},"geometry":{"x":164817.73000000045,"y":2562399.1300000008}},{"attributes":{"ID":456877,"DIS_CODE":0,"TOWNNAME":"佳里區","LI":"安西里","LIN":"41鄰","STREET":"同心街","SECT":" ","MAREA":" ","LANE":"１２２巷","ALLEY":" ","HOUSE_NO":"１號","E_COORD97":164818.28,"N_COORD97":2562365.9199999999,"ADDRESS":"同心街１２２巷１號","OBJECTID":456852},"geometry":{"x":164818.28000000119,"y":2562365.9199999999}},{"attributes":{"ID":456878,"DIS_CODE":0,"TOWNNAME":"佳里區","LI":"安西里","LIN":"41鄰","STREET":"同心街","SECT":" ","MAREA":" ","LANE":"１２２巷","ALLEY":" ","HOUSE_NO":"２１號","E_COORD97":164817.5,"N_COORD97":2562404.0800000001,"ADDRESS":"同心街１２２巷２１號","OBJECTID":456853},"geometry":{"x":164817.5,"y":2562404.0800000019}},{"attributes":{"ID":456879,"DIS_CODE":0,"TOWNNAME":"佳里區","LI":"安西里","LIN":"41鄰","STREET":"同心街","SECT":" ","MAREA":" ","LANE":"１２２巷","ALLEY":" ","HOUSE_NO":"２３號","E_COORD97":164817.76999999999,"N_COORD97":2562409.1699999999,"ADDRESS":"同心街１２２巷２３號","OBJECTID":456854},"geometry":{"x":164817.77000000048,"y":2562409.1700000037}},{"attributes":{"ID":456880,"DIS_CODE":0,"TOWNNAME":"佳里區","LI":"安西里","LIN":"41鄰","STREET":"同心街","SECT":" ","MAREA":" ","LANE":"１２２巷","ALLEY":" ","HOUSE_NO":"２５號","E_COORD97":164817.59,"N_COORD97":2562414.1499999999,"ADDRESS":"同心街１２２巷２５號","OBJECTID":456855},"geometry":{"x":164817.59000000078,"y":2562414.1500000022}},{"attributes":{"ID":456881,"DIS_CODE":0,"TOWNNAME":"佳里區","LI":"安西里","LIN":"41鄰","STREET":"同心街","SECT":" ","MAREA":" ","LANE":"１２２巷","ALLEY":" ","HOUSE_NO":"２７號","E_COORD97":164817.72,"N_COORD97":2562418.8999999999,"ADDRESS":"同心街１２２巷２７號","OBJECTID":456856},"geometry":{"x":164817.7200000016,"y":2562418.9000000022}},{"attributes":{"ID":456882,"DIS_CODE":0,"TOWNNAME":"佳里區","LI":"安西里","LIN":"41鄰","STREET":"同心街","SECT":" ","MAREA":" ","LANE":"１２２巷","ALLEY":" ","HOUSE_NO":"２９號","E_COORD97":164817.94,"N_COORD97":2562423.0800000001,"ADDRESS":"同心街１２２巷２９號","OBJECTID":456857},"geometry":{"x":164817.94000000041,"y":2562423.0800000001}},{"attributes":{"ID":456883,"DIS_CODE":0,"TOWNNAME":"佳里區","LI":"安西里","LIN":"41鄰","STREET":"同心街","SECT":" ","MAREA":" ","LANE":"１２２巷","ALLEY":" ","HOUSE_NO":"２號","E_COORD97":164843.88,"N_COORD97":2562359.5299999998,"ADDRESS":"同心街１２２巷２號","OBJECTID":456858},"geometry":{"x":164843.87999999896,"y":2562359.5300000012}},{"attributes":{"ID":456884,"DIS_CODE":0,"TOWNNAME":"佳里區","LI":"安西里","LIN":"41鄰","STREET":"同心街","SECT":" ","MAREA":" ","LANE":"１２２巷","ALLEY":" ","HOUSE_NO":"３號","E_COORD97":164818.26000000001,"N_COORD97":2562370.3399999999,"ADDRESS":"同心街１２２巷３號","OBJECTID":456859},"geometry":{"x":164818.26000000071,"y":2562370.339999998}},{"attributes":{"ID":456885,"DIS_CODE":0,"TOWNNAME":"佳里區","LI":"安西里","LIN":"41鄰","STREET":"同心街","SECT":" ","MAREA":" ","LANE":"１２２巷","ALLEY":" ","HOUSE_NO":"５號","E_COORD97":164818.25,"N_COORD97":2562374.6400000001,"ADDRESS":"同心街１２２巷５號","OBJECTID":456860},"geometry":{"x":164818.25000000093,"y":2562374.6400000006}},{"attributes":{"ID":456886,"DIS_CODE":0,"TOWNNAME":"佳里區","LI":"安西里","LIN":"41鄰","STREET":"同心街","SECT":" ","MAREA":" ","LANE":"１２２巷","ALLEY":" ","HOUSE_NO":"６號","E_COORD97":164843.85000000001,"N_COORD97":2562364.6699999999,"ADDRESS":"同心街１２２巷６號","OBJECTID":456861},"geometry":{"x":164843.85000000149,"y":2562364.6699999999}},{"attributes":{"ID":456887,"DIS_CODE":0,"TOWNNAME":"佳里區","LI":"安西里","LIN":"41鄰","STREET":"同心街","SECT":" ","MAREA":" ","LANE":"１２２巷","ALLEY":" ","HOUSE_NO":"７號","E_COORD97":164818.01999999999,"N_COORD97":2562379.4500000002,"ADDRESS":"同心街１２２巷７號","OBJECTID":456862},"geometry":{"x":164818.02000000048,"y":2562379.450000003}},{"attributes":{"ID":456888,"DIS_CODE":0,"TOWNNAME":"佳里區","LI":"安西里","LIN":"41鄰","STREET":"同心街","SECT":" ","MAREA":" ","LANE":"１２２巷","ALLEY":" ","HOUSE_NO":"８號","E_COORD97":164844.06,"N_COORD97":2562369.5299999998,"ADDRESS":"同心街１２２巷８號","OBJECTID":456863},"geometry":{"x":164844.06000000145,"y":2562369.5300000012}},{"attributes":{"ID":456889,"DIS_CODE":0,"TOWNNAME":"佳里區","LI":"安西里","LIN":"41鄰","STREET":"同心街","SECT":" ","MAREA":" ","LANE":"１２２巷","ALLEY":" ","HOUSE_NO":"９號","E_COORD97":164818.26999999999,"N_COORD97":2562384.5499999998,"ADDRESS":"同心街１２２巷９號","OBJECTID":456864},"geometry":{"x":164818.26999999955,"y":2562384.5500000026}},{"attributes":{"ID":456890,"DIS_CODE":0,"TOWNNAME":"佳里區","LI":"安西里","LIN":"41鄰","STREET":"同心街","SECT":" ","MAREA":" ","LANE":"８３巷","ALLEY":" ","HOUSE_NO":"１號","E_COORD97":164900.64000000001,"N_COORD97":2562302.4500000002,"ADDRESS":"同心街８３巷１號","OBJECTID":456865},"geometry":{"x":164900.63999999966,"y":2562302.4500000011}},{"attributes":{"ID":456891,"DIS_CODE":0,"TOWNNAME":"佳里區","LI":"安西里","LIN":"41鄰","STREET":"同心街","SECT":" ","MAREA":" ","LANE":"８３巷","ALLEY":" ","HOUSE_NO":"２號","E_COORD97":164879.20000000001,"N_COORD97":2562302.3199999998,"ADDRESS":"同心街８３巷２號","OBJECTID":456866},"geometry":{"x":164879.20000000019,"y":2562302.3200000003}},{"attributes":{"ID":456892,"DIS_CODE":0,"TOWNNAME":"佳里區","LI":"安西里","LIN":"41鄰","STREET":"同心街","SECT":" ","MAREA":" ","LANE":"８３巷","ALLEY":" ","HOUSE_NO":"３號","E_COORD97":164900.64000000001,"N_COORD97":2562297.8799999999,"ADDRESS":"同心街８３巷３號","OBJECTID":456867},"geometry":{"x":164900.63999999966,"y":2562297.8799999971}},{"attributes":{"ID":456893,"DIS_CODE":0,"TOWNNAME":"佳里區","LI":"安西里","LIN":"41鄰","STREET":"同心街","SECT":" ","MAREA":" ","LANE":"８３巷","ALLEY":" ","HOUSE_NO":"６號","E_COORD97":164879.04999999999,"N_COORD97":2562297.1699999999,"ADDRESS":"同心街８３巷６號","OBJECTID":456868},"geometry":{"x":164879.05000000075,"y":2562297.1700000037}},{"attributes":{"ID":456894,"DIS_CODE":0,"TOWNNAME":"佳里區","LI":"安西里","LIN":"41鄰","STREET":"同心街","SECT":" ","MAREA":" ","LANE":"９８巷","ALLEY":" ","HOUSE_NO":"１號","E_COORD97":164891.95000000001,"N_COORD97":2562364.6800000002,"ADDRESS":"同心街９８巷１號","OBJECTID":456869},"geometry":{"x":164891.95000000112,"y":2562364.6800000034}},{"attributes":{"ID":456895,"DIS_CODE":0,"TOWNNAME":"佳里區","LI":"安西里","LIN":"41鄰","STREET":"同心街","SECT":" ","MAREA":" ","LANE":"９８巷","ALLEY":" ","HOUSE_NO":"３號","E_COORD97":164892.06,"N_COORD97":2562375.8799999999,"ADDRESS":"同心街９８巷３號","OBJECTID":456870},"geometry":{"x":164892.06000000052,"y":2562375.8799999971}},{"attributes":{"ID":456896,"DIS_CODE":0,"TOWNNAME":"佳里區","LI":"安西里","LIN":"41鄰","STREET":"同心街","SECT":" ","MAREA":" ","LANE":"９９巷","ALLEY":" ","HOUSE_NO":"１０號","E_COORD97":164818.91,"N_COORD97":2562292.46,"ADDRESS":"同心街９９巷１０號","OBJECTID":456871},"geometry":{"x":164818.91000000108,"y":2562292.4600000009}},{"attributes":{"ID":456897,"DIS_CODE":0,"TOWNNAME":"佳里區","LI":"安西里","LIN":"41鄰","STREET":"同心街","SECT":" ","MAREA":" ","LANE":"９９巷","ALLEY":" ","HOUSE_NO":"１號","E_COORD97":164849.48999999999,"N_COORD97":2562302.0699999998,"ADDRESS":"同心街９９巷１號","OBJECTID":456872},"geometry":{"x":164849.49000000115,"y":2562302.0700000022}},{"attributes":{"ID":456898,"DIS_CODE":0,"TOWNNAME":"佳里區","LI":"安西里","LIN":"41鄰","STREET":"同心街","SECT":" ","MAREA":" ","LANE":"９９巷","ALLEY":" ","HOUSE_NO":"２號","E_COORD97":164819.28,"N_COORD97":2562305.3500000001,"ADDRESS":"同心街９９巷２號","OBJECTID":456873},"geometry":{"x":164819.28000000026,"y":2562305.3499999996}},{"attributes":{"ID":456899,"DIS_CODE":0,"TOWNNAME":"佳里區","LI":"安西里","LIN":"41鄰","STREET":"同心街","SECT":" ","MAREA":" ","LANE":"９９巷","ALLEY":" ","HOUSE_NO":"８號","E_COORD97":164819.16,"N_COORD97":2562297.1000000001,"ADDRESS":"同心街９９巷８號","OBJECTID":456874},"geometry":{"x":164819.16000000108,"y":2562297.0999999978}},{"attributes":{"ID":456900,"DIS_CODE":0,"TOWNNAME":"佳里區","LI":"安西里","LIN":"41鄰","STREET":"育善街","SECT":" ","MAREA":" ","LANE":"１３５巷","ALLEY":" ","HOUSE_NO":"２６號","E_COORD97":164904.35000000001,"N_COORD97":2562410.8900000001,"ADDRESS":"育善街１３５巷２６號","OBJECTID":456875},"geometry":{"x":164904.34999999963,"y":2562410.8900000006}},{"attributes":{"ID":456901,"DIS_CODE":0,"TOWNNAME":"佳里區","LI":"安西里","LIN":"41鄰","STREET":"育善街","SECT":" ","MAREA":" ","LANE":"１３５巷","ALLEY":" ","HOUSE_NO":"２８號","E_COORD97":164904.56,"N_COORD97":2562416.9399999999,"ADDRESS":"育善街１３５巷２８號","OBJECTID":456876},"geometry":{"x":164904.55999999959,"y":2562416.9400000032}},{"attributes":{"ID":456902,"DIS_CODE":0,"TOWNNAME":"佳里區","LI":"安西里","LIN":"41鄰","STREET":"育善街","SECT":" ","MAREA":" ","LANE":"９７巷","ALLEY":" ","HOUSE_NO":"１０號","E_COORD97":164923.14000000001,"N_COORD97":2562276.9100000001,"ADDRESS":"育善街９７巷１０號","OBJECTID":456877},"geometry":{"x":164923.13999999966,"y":2562276.910000002}},{"attributes":{"ID":456903,"DIS_CODE":0,"TOWNNAME":"佳里區","LI":"安西里","LIN":"41鄰","STREET":"育善街","SECT":" ","MAREA":" ","LANE":"９７巷","ALLEY":" ","HOUSE_NO":"１２號","E_COORD97":164918.88,"N_COORD97":2562276.6800000002,"ADDRESS":"育善街９７巷１２號","OBJECTID":456878},"geometry":{"x":164918.88000000082,"y":2562276.6800000034}},{"attributes":{"ID":456904,"DIS_CODE":0,"TOWNNAME":"佳里區","LI":"安西里","LIN":"41鄰","STREET":"育善街","SECT":" ","MAREA":" ","LANE":"９７巷","ALLEY":" ","HOUSE_NO":"１６號","E_COORD97":164914.64999999999,"N_COORD97":2562276.6800000002,"ADDRESS":"育善街９７巷１６號","OBJECTID":456879},"geometry":{"x":164914.6500000013,"y":2562276.6800000034}},{"attributes":{"ID":456905,"DIS_CODE":0,"TOWNNAME":"佳里區","LI":"安西里","LIN":"41鄰","STREET":"育善街","SECT":" ","MAREA":" ","LANE":"９７巷","ALLEY":" ","HOUSE_NO":"１８號","E_COORD97":164910.39999999999,"N_COORD97":2562276.71,"ADDRESS":"育善街９７巷１８號","OBJECTID":456880},"geometry":{"x":164910.40000000224,"y":2562276.7100000009}},{"attributes":{"ID":456906,"DIS_CODE":0,"TOWNNAME":"佳里區","LI":"安西里","LIN":"41鄰","STREET":"育善街","SECT":" ","MAREA":" ","LANE":"９７巷","ALLEY":" ","HOUSE_NO":"２０號","E_COORD97":164906.32000000001,"N_COORD97":2562276.8300000001,"ADDRESS":"育善街９７巷２０號","OBJECTID":456881},"geometry":{"x":164906.32000000123,"y":2562276.8300000019}},{"attributes":{"ID":456907,"DIS_CODE":0,"TOWNNAME":"佳里區","LI":"安西里","LIN":"41鄰","STREET":"育善街","SECT":" ","MAREA":" ","LANE":"９７巷","ALLEY":" ","HOUSE_NO":"２２號","E_COORD97":164901.89000000001,"N_COORD97":2562276.7799999998,"ADDRESS":"育善街９７巷２２號","OBJECTID":456882},"geometry":{"x":164901.8900000006,"y":2562276.7800000012}},{"attributes":{"ID":456908,"DIS_CODE":0,"TOWNNAME":"佳里區","LI":"安西里","LIN":"41鄰","STREET":"育善街","SECT":" ","MAREA":" ","LANE":"９７巷","ALLEY":" ","HOUSE_NO":"２８號","E_COORD97":164893.17000000001,"N_COORD97":2562276.5800000001,"ADDRESS":"育善街９７巷２８號","OBJECTID":456883},"geometry":{"x":164893.17000000086,"y":2562276.5800000001}},{"attributes":{"ID":456909,"DIS_CODE":0,"TOWNNAME":"佳里區","LI":"安西里","LIN":"41鄰","STREET":"育善街","SECT":" ","MAREA":" ","LANE":"９７巷","ALLEY":" ","HOUSE_NO":"２號","E_COORD97":164935.57000000001,"N_COORD97":2562277.4199999999,"ADDRESS":"育善街９７巷２號","OBJECTID":456884},"geometry":{"x":164935.5700000003,"y":2562277.4199999999}},{"attributes":{"ID":456910,"DIS_CODE":0,"TOWNNAME":"佳里區","LI":"安西里","LIN":"41鄰","STREET":"育善街","SECT":" ","MAREA":" ","LANE":"９７巷","ALLEY":" ","HOUSE_NO":"３０號","E_COORD97":164889.20000000001,"N_COORD97":2562276.3300000001,"ADDRESS":"育善街９７巷３０號","OBJECTID":456885},"geometry":{"x":164889.20000000019,"y":2562276.3300000019}},{"attributes":{"ID":456911,"DIS_CODE":0,"TOWNNAME":"楠西區","LI":"楠西里","LIN":"26鄰","STREET":"茄拔路","SECT":" ","MAREA":" ","LANE":"２巷","ALLEY":" ","HOUSE_NO":"１１９號","E_COORD97":197034.64000000001,"N_COORD97":2563540.2799999998,"ADDRESS":"茄拔路２巷１１９號","OBJECTID":456886},"geometry":{"x":197034.63999999966,"y":2563540.2800000031}},{"attributes":{"ID":456912,"DIS_CODE":0,"TOWNNAME":"永康區","LI":"永康里","LIN":"41鄰","STREET":"永大路","SECT":"二段","MAREA":" ","LANE":"７２３巷","ALLEY":" ","HOUSE_NO":"３２號","E_COORD97":174292.70000000001,"N_COORD97":2546637.2200000002,"ADDRESS":"永大路二段７２３巷３２號","OBJECTID":456887},"geometry":{"x":174292.69999999925,"y":2546637.2199999988}},{"attributes":{"ID":456913,"DIS_CODE":0,"TOWNNAME":"永康區","LI":"永康里","LIN":"41鄰","STREET":"永福街","SECT":" ","MAREA":" ","LANE":"９７巷","ALLEY":" ","HOUSE_NO":"１０號六樓之２","E_COORD97":174257.84,"N_COORD97":2546628.23,"ADDRESS":"永福街９７巷１０號六樓之２","OBJECTID":456888},"geometry":{"x":174257.84000000078,"y":2546628.2300000023}},{"attributes":{"ID":456914,"DIS_CODE":0,"TOWNNAME":"永康區","LI":"永康里","LIN":"41鄰","STREET":"永福街","SECT":" ","MAREA":" ","LANE":"９７巷","ALLEY":" ","HOUSE_NO":"１０號四樓之２","E_COORD97":174257.84,"N_COORD97":2546628.23,"ADDRESS":"永福街９７巷１０號四樓之２","OBJECTID":456889},"geometry":{"x":174257.84000000078,"y":2546628.2300000023}},{"attributes":{"ID":456915,"DIS_CODE":0,"TOWNNAME":"永康區","LI":"永康里","LIN":"41鄰","STREET":"永福街","SECT":" ","MAREA":" ","LANE":"９７巷","ALLEY":" ","HOUSE_NO":"１０號十樓之３","E_COORD97":174257.81,"N_COORD97":2546628.23,"ADDRESS":"永福街９７巷１０號十樓之３","OBJECTID":456890},"geometry":{"x":174257.81000000052,"y":2546628.2300000023}},{"attributes":{"ID":456916,"DIS_CODE":0,"TOWNNAME":"永康區","LI":"永康里","LIN":"41鄰","STREET":"永福街","SECT":" ","MAREA":" ","LANE":"９７巷","ALLEY":" ","HOUSE_NO":"１０號七樓之９","E_COORD97":174257.79000000001,"N_COORD97":2546628.23,"ADDRESS":"永福街９７巷１０號七樓之９","OBJECTID":456891},"geometry":{"x":174257.79000000004,"y":2546628.2300000023}},{"attributes":{"ID":456917,"DIS_CODE":0,"TOWNNAME":"玉井區","LI":"玉田里","LIN":"41鄰","STREET":"民族路","SECT":" ","MAREA":" ","LANE":"１７９巷","ALLEY":" ","HOUSE_NO":"１號","E_COORD97":195440.67999999999,"N_COORD97":2558119.29,"ADDRESS":"民族路１７９巷１號","OBJECTID":456892},"geometry":{"x":195440.68000000063,"y":2558119.290000001}},{"attributes":{"ID":456918,"DIS_CODE":0,"TOWNNAME":"永康區","LI":"永康里","LIN":"41鄰","STREET":"永福街","SECT":" ","MAREA":" ","LANE":"９７巷","ALLEY":" ","HOUSE_NO":"１０號三樓","E_COORD97":174255.57000000001,"N_COORD97":2546628.1899999999,"ADDRESS":"永福街９７巷１０號三樓","OBJECTID":456893},"geometry":{"x":174255.57000000123,"y":2546628.1899999995}},{"attributes":{"ID":456919,"DIS_CODE":0,"TOWNNAME":"永康區","LI":"永康里","LIN":"41鄰","STREET":"永福街","SECT":" ","MAREA":" ","LANE":"９７巷","ALLEY":" ","HOUSE_NO":"１０號九樓之４","E_COORD97":174257.73999999999,"N_COORD97":2546628.23,"ADDRESS":"永福街９７巷１０號九樓之４","OBJECTID":456894},"geometry":{"x":174257.74000000115,"y":2546628.2300000023}},{"attributes":{"ID":456920,"DIS_CODE":0,"TOWNNAME":"永康區","LI":"永康里","LIN":"41鄰","STREET":"永福街","SECT":" ","MAREA":" ","LANE":"９７巷","ALLEY":" ","HOUSE_NO":"１０號四樓之１","E_COORD97":174257.70999999999,"N_COORD97":2546628.23,"ADDRESS":"永福街９７巷１０號四樓之１","OBJECTID":456895},"geometry":{"x":174257.71000000089,"y":2546628.2300000023}},{"attributes":{"ID":456921,"DIS_CODE":0,"TOWNNAME":"楠西區","LI":"楠西里","LIN":"24鄰","STREET":"中興路","SECT":" ","MAREA":" ","LANE":"６３巷","ALLEY":" ","HOUSE_NO":"１２號","E_COORD97":197166.66,"N_COORD97":2564373.25,"ADDRESS":"中興路６３巷１２號","OBJECTID":456896},"geometry":{"x":197166.66000000108,"y":2564373.2500000019}},{"attributes":{"ID":456922,"DIS_CODE":0,"TOWNNAME":"永康區","LI":"永康里","LIN":"41鄰","STREET":"永福街","SECT":" ","MAREA":" ","LANE":"９７巷","ALLEY":" ","HOUSE_NO":"１０號七樓之５","E_COORD97":174257.87,"N_COORD97":2546628.23,"ADDRESS":"永福街９７巷１０號七樓之５","OBJECTID":456897},"geometry":{"x":174257.87000000104,"y":2546628.2300000023}},{"attributes":{"ID":456923,"DIS_CODE":0,"TOWNNAME":"永康區","LI":"永康里","LIN":"41鄰","STREET":"永福街","SECT":" ","MAREA":" ","LANE":"９７巷","ALLEY":" ","HOUSE_NO":"１０號七樓之４","E_COORD97":174257.73999999999,"N_COORD97":2546628.23,"ADDRESS":"永福街９７巷１０號七樓之４","OBJECTID":456898},"geometry":{"x":174257.74000000115,"y":2546628.2300000023}},{"attributes":{"ID":456924,"DIS_CODE":0,"TOWNNAME":"永康區","LI":"永康里","LIN":"41鄰","STREET":"永福街","SECT":" ","MAREA":" ","LANE":"９７巷","ALLEY":" ","HOUSE_NO":"１０號十樓之８","E_COORD97":174257.85999999999,"N_COORD97":2546628.23,"ADDRESS":"永福街９７巷１０號十樓之８","OBJECTID":456899},"geometry":{"x":174257.8599999994,"y":2546628.2300000023}},{"attributes":{"ID":456925,"DIS_CODE":0,"TOWNNAME":"永康區","LI":"永康里","LIN":"41鄰","STREET":"永福街","SECT":" ","MAREA":" ","LANE":"９７巷","ALLEY":" ","HOUSE_NO":"１０號四樓之８","E_COORD97":174257.85999999999,"N_COORD97":2546628.23,"ADDRESS":"永福街９７巷１０號四樓之８","OBJECTID":456900},"geometry":{"x":174257.8599999994,"y":2546628.2300000023}},{"attributes":{"ID":456926,"DIS_CODE":0,"TOWNNAME":"永康區","LI":"永康里","LIN":"41鄰","STREET":"永福街","SECT":" ","MAREA":" ","LANE":"９７巷","ALLEY":" ","HOUSE_NO":"１０號五樓之２","E_COORD97":174257.84,"N_COORD97":2546628.23,"ADDRESS":"永福街９７巷１０號五樓之２","OBJECTID":456901},"geometry":{"x":174257.84000000078,"y":2546628.2300000023}},{"attributes":{"ID":456927,"DIS_CODE":0,"TOWNNAME":"永康區","LI":"永康里","LIN":"41鄰","STREET":"永福街","SECT":" ","MAREA":" ","LANE":"９７巷","ALLEY":" ","HOUSE_NO":"１０號十樓之６","E_COORD97":174257.81,"N_COORD97":2546628.23,"ADDRESS":"永福街９７巷１０號十樓之６","OBJECTID":456902},"geometry":{"x":174257.81000000052,"y":2546628.2300000023}},{"attributes":{"ID":456928,"DIS_CODE":0,"TOWNNAME":"永康區","LI":"西灣里","LIN":"41鄰","STREET":"國光六街","SECT":" ","MAREA":" ","LANE":"９０巷","ALLEY":" ","HOUSE_NO":"１８號六樓","E_COORD97":174066.67000000001,"N_COORD97":2545388.7000000002,"ADDRESS":"國光六街９０巷１８號六樓","OBJECTID":456903},"geometry":{"x":174066.66999999993,"y":2545388.7000000011}},{"attributes":{"ID":456929,"DIS_CODE":0,"TOWNNAME":"永康區","LI":"崑山里","LIN":"41鄰","STREET":"崑山街","SECT":" ","MAREA":" ","LANE":"２１９巷","ALLEY":" ","HOUSE_NO":"５號","E_COORD97":174061.92999999999,"N_COORD97":2545047.2999999998,"ADDRESS":"崑山街２１９巷５號","OBJECTID":456904},"geometry":{"x":174061.93000000156,"y":2545047.3000000026}},{"attributes":{"ID":456930,"DIS_CODE":0,"TOWNNAME":"永康區","LI":"西灣里","LIN":"41鄰","STREET":"國光六街","SECT":" ","MAREA":" ","LANE":"９０巷","ALLEY":" ","HOUSE_NO":"１６號二樓","E_COORD97":174067.67000000001,"N_COORD97":2545376.3900000001,"ADDRESS":"國光六街９０巷１６號二樓","OBJECTID":456905},"geometry":{"x":174067.67000000086,"y":2545376.3900000025}},{"attributes":{"ID":456931,"DIS_CODE":0,"TOWNNAME":"永康區","LI":"西灣里","LIN":"41鄰","STREET":"國光六街","SECT":" ","MAREA":" ","LANE":"９０巷","ALLEY":" ","HOUSE_NO":"１６號三樓","E_COORD97":174067.67000000001,"N_COORD97":2545376.3900000001,"ADDRESS":"國光六街９０巷１６號三樓","OBJECTID":456906},"geometry":{"x":174067.67000000086,"y":2545376.3900000025}},{"attributes":{"ID":456932,"DIS_CODE":0,"TOWNNAME":"永康區","LI":"西灣里","LIN":"41鄰","STREET":"國光六街","SECT":" ","MAREA":" ","LANE":"９０巷","ALLEY":" ","HOUSE_NO":"１８號四樓","E_COORD97":174066.67000000001,"N_COORD97":2545388.7000000002,"ADDRESS":"國光六街９０巷１８號四樓","OBJECTID":456907},"geometry":{"x":174066.66999999993,"y":2545388.7000000011}},{"attributes":{"ID":456933,"DIS_CODE":0,"TOWNNAME":"永康區","LI":"西灣里","LIN":"41鄰","STREET":"國光六街","SECT":" ","MAREA":" ","LANE":"９０巷","ALLEY":" ","HOUSE_NO":"２０號五樓","E_COORD97":174054.42000000001,"N_COORD97":2545389.0600000001,"ADDRESS":"國光六街９０巷２０號五樓","OBJECTID":456908},"geometry":{"x":174054.42000000086,"y":2545389.0600000005}},{"attributes":{"ID":456934,"DIS_CODE":0,"TOWNNAME":"永康區","LI":"西灣里","LIN":"41鄰","STREET":"國光六街","SECT":" ","MAREA":" ","LANE":"９０巷","ALLEY":" ","HOUSE_NO":"１８號三樓","E_COORD97":174066.67000000001,"N_COORD97":2545388.7000000002,"ADDRESS":"國光六街９０巷１８號三樓","OBJECTID":456909},"geometry":{"x":174066.66999999993,"y":2545388.7000000011}},{"attributes":{"ID":456935,"DIS_CODE":0,"TOWNNAME":"永康區","LI":"西灣里","LIN":"41鄰","STREET":"國光六街","SECT":" ","MAREA":" ","LANE":"９０巷","ALLEY":" ","HOUSE_NO":"１４號四樓","E_COORD97":174056.78,"N_COORD97":2545396.21,"ADDRESS":"國光六街９０巷１４號四樓","OBJECTID":456910},"geometry":{"x":174056.78000000212,"y":2545396.2100000009}},{"attributes":{"ID":456936,"DIS_CODE":0,"TOWNNAME":"永康區","LI":"西灣里","LIN":"41鄰","STREET":"國光六街","SECT":" ","MAREA":" ","LANE":"９０巷","ALLEY":" ","HOUSE_NO":"１６號六樓","E_COORD97":174067.67000000001,"N_COORD97":2545376.3900000001,"ADDRESS":"國光六街９０巷１６號六樓","OBJECTID":456911},"geometry":{"x":174067.67000000086,"y":2545376.3900000025}},{"attributes":{"ID":456937,"DIS_CODE":0,"TOWNNAME":"永康區","LI":"西灣里","LIN":"41鄰","STREET":"國光六街","SECT":" ","MAREA":" ","LANE":"９０巷","ALLEY":" ","HOUSE_NO":"２０號三樓","E_COORD97":174054.42000000001,"N_COORD97":2545389.0600000001,"ADDRESS":"國光六街９０巷２０號三樓","OBJECTID":456912},"geometry":{"x":174054.42000000086,"y":2545389.0600000005}},{"attributes":{"ID":456938,"DIS_CODE":0,"TOWNNAME":"永康區","LI":"西灣里","LIN":"41鄰","STREET":"國光六街","SECT":" ","MAREA":" ","LANE":"９０巷","ALLEY":" ","HOUSE_NO":"２０號四樓","E_COORD97":174054.42000000001,"N_COORD97":2545389.0600000001,"ADDRESS":"國光六街９０巷２０號四樓","OBJECTID":456913},"geometry":{"x":174054.42000000086,"y":2545389.0600000005}},{"attributes":{"ID":456939,"DIS_CODE":0,"TOWNNAME":"永康區","LI":"西灣里","LIN":"41鄰","STREET":"國光六街","SECT":" ","MAREA":" ","LANE":"９０巷","ALLEY":" ","HOUSE_NO":"１６號四樓","E_COORD97":174067.67000000001,"N_COORD97":2545376.3900000001,"ADDRESS":"國光六街９０巷１６號四樓","OBJECTID":456914},"geometry":{"x":174067.67000000086,"y":2545376.3900000025}},{"attributes":{"ID":456940,"DIS_CODE":0,"TOWNNAME":"永康區","LI":"西灣里","LIN":"41鄰","STREET":"國光六街","SECT":" ","MAREA":" ","LANE":"９０巷","ALLEY":" ","HOUSE_NO":"２０號六樓","E_COORD97":174054.42000000001,"N_COORD97":2545389.0600000001,"ADDRESS":"國光六街９０巷２０號六樓","OBJECTID":456915},"geometry":{"x":174054.42000000086,"y":2545389.0600000005}},{"attributes":{"ID":456941,"DIS_CODE":0,"TOWNNAME":"永康區","LI":"西灣里","LIN":"41鄰","STREET":"國光六街","SECT":" ","MAREA":" ","LANE":"９０巷","ALLEY":" ","HOUSE_NO":"１４號三樓","E_COORD97":174056.78,"N_COORD97":2545396.21,"ADDRESS":"國光六街９０巷１４號三樓","OBJECTID":456916},"geometry":{"x":174056.78000000212,"y":2545396.2100000009}},{"attributes":{"ID":456942,"DIS_CODE":0,"TOWNNAME":"永康區","LI":"西灣里","LIN":"41鄰","STREET":"國光六街","SECT":" ","MAREA":" ","LANE":"９０巷","ALLEY":" ","HOUSE_NO":"１８號二樓","E_COORD97":174066.67000000001,"N_COORD97":2545388.7000000002,"ADDRESS":"國光六街９０巷１８號二樓","OBJECTID":456917},"geometry":{"x":174066.66999999993,"y":2545388.7000000011}},{"attributes":{"ID":456943,"DIS_CODE":0,"TOWNNAME":"永康區","LI":"永康里","LIN":"41鄰","STREET":"永福街","SECT":" ","MAREA":" ","LANE":"９７巷","ALLEY":" ","HOUSE_NO":"１０號五樓之３","E_COORD97":174257.81,"N_COORD97":2546628.23,"ADDRESS":"永福街９７巷１０號五樓之３","OBJECTID":456918},"geometry":{"x":174257.81000000052,"y":2546628.2300000023}},{"attributes":{"ID":456944,"DIS_CODE":0,"TOWNNAME":"永康區","LI":"五王里","LIN":"41鄰","STREET":"中山南路","SECT":" ","MAREA":" ","LANE":"２６２巷","ALLEY":" ","HOUSE_NO":"２號十二樓之１０","E_COORD97":171551.75,"N_COORD97":2546054.6200000001,"ADDRESS":"中山南路２６２巷２號十二樓之１０","OBJECTID":456919},"geometry":{"x":171551.75000000093,"y":2546054.620000001}},{"attributes":{"ID":456945,"DIS_CODE":0,"TOWNNAME":"永康區","LI":"永康里","LIN":"41鄰","STREET":"永福街","SECT":" ","MAREA":" ","LANE":"９７巷","ALLEY":" ","HOUSE_NO":"１０號七樓之３","E_COORD97":174257.81,"N_COORD97":2546628.23,"ADDRESS":"永福街９７巷１０號七樓之３","OBJECTID":456920},"geometry":{"x":174257.81000000052,"y":2546628.2300000023}},{"attributes":{"ID":456946,"DIS_CODE":0,"TOWNNAME":"永康區","LI":"西灣里","LIN":"41鄰","STREET":"國光六街","SECT":" ","MAREA":" ","LANE":"９０巷","ALLEY":" ","HOUSE_NO":"１２號三樓","E_COORD97":174052.98000000001,"N_COORD97":2545384.96,"ADDRESS":"國光六街９０巷１２號三樓","OBJECTID":456921},"geometry":{"x":174052.98000000138,"y":2545384.9600000046}},{"attributes":{"ID":456947,"DIS_CODE":0,"TOWNNAME":"永康區","LI":"西灣里","LIN":"41鄰","STREET":"國光六街","SECT":" ","MAREA":" ","LANE":"９０巷","ALLEY":" ","HOUSE_NO":"１２號六樓","E_COORD97":174052.98000000001,"N_COORD97":2545384.96,"ADDRESS":"國光六街９０巷１２號六樓","OBJECTID":456922},"geometry":{"x":174052.98000000138,"y":2545384.9600000046}},{"attributes":{"ID":456948,"DIS_CODE":0,"TOWNNAME":"永康區","LI":"二王里","LIN":"41鄰","STREET":"中山南路","SECT":" ","MAREA":" ","LANE":"３１６巷","ALLEY":" ","HOUSE_NO":"１８號三樓之３","E_COORD97":171991.69,"N_COORD97":2546124.29,"ADDRESS":"中山南路３１６巷１８號三樓之３","OBJECTID":456923},"geometry":{"x":171991.69000000134,"y":2546124.290000001}},{"attributes":{"ID":456949,"DIS_CODE":0,"TOWNNAME":"永康區","LI":"二王里","LIN":"41鄰","STREET":"中山南路","SECT":" ","MAREA":" ","LANE":"３１６巷","ALLEY":" ","HOUSE_NO":"１２號三樓之２","E_COORD97":171993.53,"N_COORD97":2546163.0299999998,"ADDRESS":"中山南路３１６巷１２號三樓之２","OBJECTID":456924},"geometry":{"x":171993.52999999933,"y":2546163.0300000012}},{"attributes":{"ID":456950,"DIS_CODE":0,"TOWNNAME":"永康區","LI":"二王里","LIN":"41鄰","STREET":"中山南路","SECT":" ","MAREA":" ","LANE":"３１６巷","ALLEY":" ","HOUSE_NO":"１２號五樓之３","E_COORD97":171993.5,"N_COORD97":2546163.0299999998,"ADDRESS":"中山南路３１６巷１２號五樓之３","OBJECTID":456925},"geometry":{"x":171993.49999999907,"y":2546163.0300000012}},{"attributes":{"ID":456951,"DIS_CODE":0,"TOWNNAME":"永康區","LI":"二王里","LIN":"41鄰","STREET":"中山南路","SECT":" ","MAREA":" ","LANE":"３１６巷","ALLEY":" ","HOUSE_NO":"２０號六樓之２","E_COORD97":171999.23000000001,"N_COORD97":2546125.54,"ADDRESS":"中山南路３１６巷２０號六樓之２","OBJECTID":456926},"geometry":{"x":171999.23000000231,"y":2546125.540000001}},{"attributes":{"ID":456952,"DIS_CODE":0,"TOWNNAME":"永康區","LI":"二王里","LIN":"41鄰","STREET":"中山南路","SECT":" ","MAREA":" ","LANE":"３１６巷","ALLEY":" ","HOUSE_NO":"１２號二樓之１","E_COORD97":171993.39999999999,"N_COORD97":2546163.0299999998,"ADDRESS":"中山南路３１６巷１２號二樓之１","OBJECTID":456927},"geometry":{"x":171993.4000000013,"y":2546163.0300000012}},{"attributes":{"ID":456953,"DIS_CODE":0,"TOWNNAME":"永康區","LI":"二王里","LIN":"41鄰","STREET":"中山南路","SECT":" ","MAREA":" ","LANE":"３１６巷","ALLEY":" ","HOUSE_NO":"１８號二樓之３","E_COORD97":171991.69,"N_COORD97":2546124.29,"ADDRESS":"中山南路３１６巷１８號二樓之３","OBJECTID":456928},"geometry":{"x":171991.69000000134,"y":2546124.290000001}},{"attributes":{"ID":456954,"DIS_CODE":0,"TOWNNAME":"永康區","LI":"二王里","LIN":"41鄰","STREET":"中山南路","SECT":" ","MAREA":" ","LANE":"３１６巷","ALLEY":" ","HOUSE_NO":"２４號四樓之２","E_COORD97":172007.85000000001,"N_COORD97":2546155.2799999998,"ADDRESS":"中山南路３１６巷２４號四樓之２","OBJECTID":456929},"geometry":{"x":172007.85000000149,"y":2546155.2800000012}},{"attributes":{"ID":456955,"DIS_CODE":0,"TOWNNAME":"永康區","LI":"二王里","LIN":"41鄰","STREET":"中山南路","SECT":" ","MAREA":" ","LANE":"３１６巷","ALLEY":" ","HOUSE_NO":"１８號二樓之２","E_COORD97":171991.72,"N_COORD97":2546124.29,"ADDRESS":"中山南路３１６巷１８號二樓之２","OBJECTID":456930},"geometry":{"x":171991.71999999881,"y":2546124.290000001}},{"attributes":{"ID":456956,"DIS_CODE":0,"TOWNNAME":"永康區","LI":"二王里","LIN":"41鄰","STREET":"中山南路","SECT":" ","MAREA":" ","LANE":"３１６巷","ALLEY":" ","HOUSE_NO":"１２號五樓之２","E_COORD97":171993.53,"N_COORD97":2546163.0299999998,"ADDRESS":"中山南路３１６巷１２號五樓之２","OBJECTID":456931},"geometry":{"x":171993.52999999933,"y":2546163.0300000012}},{"attributes":{"ID":456957,"DIS_CODE":0,"TOWNNAME":"永康區","LI":"二王里","LIN":"41鄰","STREET":"中山南路","SECT":" ","MAREA":" ","LANE":"３１６巷","ALLEY":" ","HOUSE_NO":"１８號四樓之３","E_COORD97":171991.69,"N_COORD97":2546124.29,"ADDRESS":"中山南路３１６巷１８號四樓之３","OBJECTID":456932},"geometry":{"x":171991.69000000134,"y":2546124.290000001}},{"attributes":{"ID":456958,"DIS_CODE":0,"TOWNNAME":"永康區","LI":"二王里","LIN":"41鄰","STREET":"中山南路","SECT":" ","MAREA":" ","LANE":"３１６巷","ALLEY":" ","HOUSE_NO":"１２號六樓之３","E_COORD97":171993.5,"N_COORD97":2546163.0299999998,"ADDRESS":"中山南路３１６巷１２號六樓之３","OBJECTID":456933},"geometry":{"x":171993.49999999907,"y":2546163.0300000012}},{"attributes":{"ID":456959,"DIS_CODE":0,"TOWNNAME":"麻豆區","LI":"大埕里","LIN":"13鄰","STREET":"平等路","SECT":" ","MAREA":" ","LANE":"３３巷","ALLEY":" ","HOUSE_NO":"２號","E_COORD97":173012.06,"N_COORD97":2565049.6400000001,"ADDRESS":"平等路３３巷２號","OBJECTID":456934},"geometry":{"x":173012.06000000052,"y":2565049.6400000006}},{"attributes":{"ID":456960,"DIS_CODE":0,"TOWNNAME":"永康區","LI":"二王里","LIN":"41鄰","STREET":"中山南路","SECT":" ","MAREA":" ","LANE":"３１６巷","ALLEY":" ","HOUSE_NO":"１８號六樓之２","E_COORD97":171991.72,"N_COORD97":2546124.29,"ADDRESS":"中山南路３１６巷１８號六樓之２","OBJECTID":456935},"geometry":{"x":171991.71999999881,"y":2546124.290000001}},{"attributes":{"ID":456961,"DIS_CODE":0,"TOWNNAME":"永康區","LI":"二王里","LIN":"41鄰","STREET":"中山南路","SECT":" ","MAREA":" ","LANE":"３１６巷","ALLEY":" ","HOUSE_NO":"１８號五樓之２","E_COORD97":171991.72,"N_COORD97":2546124.29,"ADDRESS":"中山南路３１６巷１８號五樓之２","OBJECTID":456936},"geometry":{"x":171991.71999999881,"y":2546124.290000001}},{"attributes":{"ID":456962,"DIS_CODE":0,"TOWNNAME":"永康區","LI":"二王里","LIN":"41鄰","STREET":"中山南路","SECT":" ","MAREA":" ","LANE":"３１６巷","ALLEY":" ","HOUSE_NO":"２０號三樓之１","E_COORD97":171999.10000000001,"N_COORD97":2546125.54,"ADDRESS":"中山南路３１６巷２０號三樓之１","OBJECTID":456937},"geometry":{"x":171999.09999999963,"y":2546125.540000001}},{"attributes":{"ID":456963,"DIS_CODE":0,"TOWNNAME":"永康區","LI":"二王里","LIN":"41鄰","STREET":"中山南路","SECT":" ","MAREA":" ","LANE":"３１６巷","ALLEY":" ","HOUSE_NO":"１２號二樓之２","E_COORD97":171993.53,"N_COORD97":2546163.0299999998,"ADDRESS":"中山南路３１６巷１２號二樓之２","OBJECTID":456938},"geometry":{"x":171993.52999999933,"y":2546163.0300000012}},{"attributes":{"ID":456964,"DIS_CODE":0,"TOWNNAME":"永康區","LI":"二王里","LIN":"41鄰","STREET":"中山南路","SECT":" ","MAREA":" ","LANE":"３１６巷","ALLEY":" ","HOUSE_NO":"１２號七樓之１","E_COORD97":171993.39999999999,"N_COORD97":2546163.0299999998,"ADDRESS":"中山南路３１６巷１２號七樓之１","OBJECTID":456939},"geometry":{"x":171993.4000000013,"y":2546163.0300000012}},{"attributes":{"ID":456965,"DIS_CODE":0,"TOWNNAME":"永康區","LI":"二王里","LIN":"41鄰","STREET":"中山南路","SECT":" ","MAREA":" ","LANE":"３１６巷","ALLEY":" ","HOUSE_NO":"２０號六樓之１","E_COORD97":171999.10000000001,"N_COORD97":2546125.54,"ADDRESS":"中山南路３１６巷２０號六樓之１","OBJECTID":456940},"geometry":{"x":171999.09999999963,"y":2546125.540000001}},{"attributes":{"ID":456966,"DIS_CODE":0,"TOWNNAME":"永康區","LI":"二王里","LIN":"41鄰","STREET":"中山南路","SECT":" ","MAREA":" ","LANE":"３１６巷","ALLEY":" ","HOUSE_NO":"２０號二樓之１","E_COORD97":171999.10000000001,"N_COORD97":2546125.54,"ADDRESS":"中山南路３１６巷２０號二樓之１","OBJECTID":456941},"geometry":{"x":171999.09999999963,"y":2546125.540000001}},{"attributes":{"ID":456967,"DIS_CODE":0,"TOWNNAME":"永康區","LI":"二王里","LIN":"41鄰","STREET":"中山南路","SECT":" ","MAREA":" ","LANE":"３１６巷","ALLEY":" ","HOUSE_NO":"２４號六樓之２","E_COORD97":172007.85000000001,"N_COORD97":2546155.2799999998,"ADDRESS":"中山南路３１６巷２４號六樓之２","OBJECTID":456942},"geometry":{"x":172007.85000000149,"y":2546155.2800000012}},{"attributes":{"ID":456968,"DIS_CODE":0,"TOWNNAME":"東區","LI":"和平里","LIN":"1鄰","STREET":"仁和路","SECT":" ","MAREA":" ","LANE":" ","ALLEY":" ","HOUSE_NO":"３７號五樓","E_COORD97":171099.45000000001,"N_COORD97":2542097.2200000002,"ADDRESS":"仁和路３７號五樓","OBJECTID":456943},"geometry":{"x":171099.45000000112,"y":2542097.2200000007}},{"attributes":{"ID":456969,"DIS_CODE":0,"TOWNNAME":"永康區","LI":"二王里","LIN":"41鄰","STREET":"中山南路","SECT":" ","MAREA":" ","LANE":"３１６巷","ALLEY":" ","HOUSE_NO":"１２號二樓之３","E_COORD97":171993.5,"N_COORD97":2546163.0299999998,"ADDRESS":"中山南路３１６巷１２號二樓之３","OBJECTID":456944},"geometry":{"x":171993.49999999907,"y":2546163.0300000012}},{"attributes":{"ID":456970,"DIS_CODE":0,"TOWNNAME":"仁德區","LI":"後壁里","LIN":"41鄰","STREET":"德善路","SECT":" ","MAREA":" ","LANE":"２８１巷","ALLEY":" ","HOUSE_NO":"１１號","E_COORD97":173966.23999999999,"N_COORD97":2538660.8100000001,"ADDRESS":"德善路２８１巷１１號","OBJECTID":456945},"geometry":{"x":173966.24000000022,"y":2538660.8100000024}},{"attributes":{"ID":456971,"DIS_CODE":0,"TOWNNAME":"永康區","LI":"二王里","LIN":"41鄰","STREET":"中山南路","SECT":" ","MAREA":" ","LANE":"３１６巷","ALLEY":" ","HOUSE_NO":"２４號五樓之２","E_COORD97":172007.85000000001,"N_COORD97":2546155.2799999998,"ADDRESS":"中山南路３１６巷２４號五樓之２","OBJECTID":456946},"geometry":{"x":172007.85000000149,"y":2546155.2800000012}},{"attributes":{"ID":456972,"DIS_CODE":0,"TOWNNAME":"永康區","LI":"二王里","LIN":"41鄰","STREET":"中山南路","SECT":" ","MAREA":" ","LANE":"３１６巷","ALLEY":" ","HOUSE_NO":"２４號三樓之２","E_COORD97":172007.85000000001,"N_COORD97":2546155.2799999998,"ADDRESS":"中山南路３１６巷２４號三樓之２","OBJECTID":456947},"geometry":{"x":172007.85000000149,"y":2546155.2800000012}},{"attributes":{"ID":456973,"DIS_CODE":0,"TOWNNAME":"永康區","LI":"二王里","LIN":"41鄰","STREET":"中山南路","SECT":" ","MAREA":" ","LANE":"３１６巷","ALLEY":" ","HOUSE_NO":"１８號二樓之１","E_COORD97":171991.59,"N_COORD97":2546124.29,"ADDRESS":"中山南路３１６巷１８號二樓之１","OBJECTID":456948},"geometry":{"x":171991.59000000078,"y":2546124.290000001}},{"attributes":{"ID":456974,"DIS_CODE":0,"TOWNNAME":"永康區","LI":"二王里","LIN":"41鄰","STREET":"中山南路","SECT":" ","MAREA":" ","LANE":"３１６巷","ALLEY":" ","HOUSE_NO":"１２號七樓之２","E_COORD97":171993.53,"N_COORD97":2546163.0299999998,"ADDRESS":"中山南路３１６巷１２號七樓之２","OBJECTID":456949},"geometry":{"x":171993.52999999933,"y":2546163.0300000012}},{"attributes":{"ID":456975,"DIS_CODE":0,"TOWNNAME":"永康區","LI":"二王里","LIN":"41鄰","STREET":"中山南路","SECT":" ","MAREA":" ","LANE":"３１６巷","ALLEY":" ","HOUSE_NO":"１８號五樓之３","E_COORD97":171991.69,"N_COORD97":2546124.29,"ADDRESS":"中山南路３１６巷１８號五樓之３","OBJECTID":456950},"geometry":{"x":171991.69000000134,"y":2546124.290000001}},{"attributes":{"ID":456976,"DIS_CODE":0,"TOWNNAME":"永康區","LI":"二王里","LIN":"41鄰","STREET":"中山南路","SECT":" ","MAREA":" ","LANE":"３１６巷","ALLEY":" ","HOUSE_NO":"１２號四樓之２","E_COORD97":171993.53,"N_COORD97":2546163.0299999998,"ADDRESS":"中山南路３１６巷１２號四樓之２","OBJECTID":456951},"geometry":{"x":171993.52999999933,"y":2546163.0300000012}},{"attributes":{"ID":456977,"DIS_CODE":0,"TOWNNAME":"永康區","LI":"二王里","LIN":"41鄰","STREET":"中山南路","SECT":" ","MAREA":" ","LANE":"３１６巷","ALLEY":" ","HOUSE_NO":"１２號六樓之１","E_COORD97":171993.39999999999,"N_COORD97":2546163.0299999998,"ADDRESS":"中山南路３１６巷１２號六樓之１","OBJECTID":456952},"geometry":{"x":171993.4000000013,"y":2546163.0300000012}},{"attributes":{"ID":456978,"DIS_CODE":0,"TOWNNAME":"永康區","LI":"二王里","LIN":"41鄰","STREET":"中山南路","SECT":" ","MAREA":" ","LANE":"３１６巷","ALLEY":" ","HOUSE_NO":"２０號三樓之２","E_COORD97":171999.23000000001,"N_COORD97":2546125.54,"ADDRESS":"中山南路３１６巷２０號三樓之２","OBJECTID":456953},"geometry":{"x":171999.23000000231,"y":2546125.540000001}},{"attributes":{"ID":456979,"DIS_CODE":0,"TOWNNAME":"永康區","LI":"二王里","LIN":"41鄰","STREET":"中山南路","SECT":" ","MAREA":" ","LANE":"３１６巷","ALLEY":" ","HOUSE_NO":"１８號三樓之１","E_COORD97":171991.59,"N_COORD97":2546124.29,"ADDRESS":"中山南路３１６巷１８號三樓之１","OBJECTID":456954},"geometry":{"x":171991.59000000078,"y":2546124.290000001}},{"attributes":{"ID":456980,"DIS_CODE":0,"TOWNNAME":"永康區","LI":"二王里","LIN":"41鄰","STREET":"中山南路","SECT":" ","MAREA":" ","LANE":"３１６巷","ALLEY":" ","HOUSE_NO":"１２號六樓之２","E_COORD97":171993.53,"N_COORD97":2546163.0299999998,"ADDRESS":"中山南路３１６巷１２號六樓之２","OBJECTID":456955},"geometry":{"x":171993.52999999933,"y":2546163.0300000012}},{"attributes":{"ID":456981,"DIS_CODE":0,"TOWNNAME":"永康區","LI":"二王里","LIN":"41鄰","STREET":"中山南路","SECT":" ","MAREA":" ","LANE":"３１６巷","ALLEY":" ","HOUSE_NO":"１８號六樓之１","E_COORD97":171991.59,"N_COORD97":2546124.29,"ADDRESS":"中山南路３１６巷１８號六樓之１","OBJECTID":456956},"geometry":{"x":171991.59000000078,"y":2546124.290000001}},{"attributes":{"ID":456982,"DIS_CODE":0,"TOWNNAME":"永康區","LI":"崑山里","LIN":"41鄰","STREET":"崑山街","SECT":" ","MAREA":" ","LANE":"２１９巷","ALLEY":" ","HOUSE_NO":"６號","E_COORD97":174070.20999999999,"N_COORD97":2545061.21,"ADDRESS":"崑山街２１９巷６號","OBJECTID":456957},"geometry":{"x":174070.20999999996,"y":2545061.2100000046}},{"attributes":{"ID":456983,"DIS_CODE":0,"TOWNNAME":"永康區","LI":"二王里","LIN":"41鄰","STREET":"中山南路","SECT":" ","MAREA":" ","LANE":"３１６巷","ALLEY":" ","HOUSE_NO":"２０號五樓之２","E_COORD97":171999.23000000001,"N_COORD97":2546125.54,"ADDRESS":"中山南路３１６巷２０號五樓之２","OBJECTID":456958},"geometry":{"x":171999.23000000231,"y":2546125.540000001}},{"attributes":{"ID":456984,"DIS_CODE":0,"TOWNNAME":"永康區","LI":"崑山里","LIN":"41鄰","STREET":"崑山街","SECT":" ","MAREA":" ","LANE":"２１９巷","ALLEY":" ","HOUSE_NO":"１９號","E_COORD97":174031.10999999999,"N_COORD97":2545056.54,"ADDRESS":"崑山街２１９巷１９號","OBJECTID":456959},"geometry":{"x":174031.11000000127,"y":2545056.5399999991}},{"attributes":{"ID":456985,"DIS_CODE":0,"TOWNNAME":"永康區","LI":"崑山里","LIN":"41鄰","STREET":"崑山街","SECT":" ","MAREA":" ","LANE":"２１９巷","ALLEY":" ","HOUSE_NO":"２號","E_COORD97":174079.23000000001,"N_COORD97":2545057.96,"ADDRESS":"崑山街２１９巷２號","OBJECTID":456960},"geometry":{"x":174079.23000000231,"y":2545057.9600000009}},{"attributes":{"ID":456986,"DIS_CODE":0,"TOWNNAME":"永康區","LI":"崑山里","LIN":"41鄰","STREET":"崑山街","SECT":" ","MAREA":" ","LANE":"２１９巷","ALLEY":" ","HOUSE_NO":"１０號","E_COORD97":174062.89000000001,"N_COORD97":2545064.21,"ADDRESS":"崑山街２１９巷１０號","OBJECTID":456961},"geometry":{"x":174062.8900000006,"y":2545064.2100000009}},{"attributes":{"ID":456987,"DIS_CODE":0,"TOWNNAME":"永康區","LI":"崑山里","LIN":"41鄰","STREET":"崑山街","SECT":" ","MAREA":" ","LANE":"２１９巷","ALLEY":" ","HOUSE_NO":"１４號","E_COORD97":174054.10999999999,"N_COORD97":2545067.46,"ADDRESS":"崑山街２１９巷１４號","OBJECTID":456962},"geometry":{"x":174054.11000000034,"y":2545067.4600000028}},{"attributes":{"ID":456988,"DIS_CODE":0,"TOWNNAME":"永康區","LI":"崑山里","LIN":"41鄰","STREET":"崑山街","SECT":" ","MAREA":" ","LANE":"２１９巷","ALLEY":" ","HOUSE_NO":"１７號","E_COORD97":174035.92000000001,"N_COORD97":2545055.04,"ADDRESS":"崑山街２１９巷１７號","OBJECTID":456963},"geometry":{"x":174035.91999999993,"y":2545055.040000001}},{"attributes":{"ID":456989,"DIS_CODE":0,"TOWNNAME":"永康區","LI":"崑山里","LIN":"41鄰","STREET":"崑山街","SECT":" ","MAREA":" ","LANE":"２０３巷","ALLEY":" ","HOUSE_NO":"２２號","E_COORD97":174016.89999999999,"N_COORD97":2545023.9399999999,"ADDRESS":"崑山街２０３巷２２號","OBJECTID":456964},"geometry":{"x":174016.89999999944,"y":2545023.9399999995}},{"attributes":{"ID":456990,"DIS_CODE":0,"TOWNNAME":"永康區","LI":"崑山里","LIN":"41鄰","STREET":"崑山街","SECT":" ","MAREA":" ","LANE":"２１９巷","ALLEY":" ","HOUSE_NO":"２０號","E_COORD97":174040.85000000001,"N_COORD97":2545071.96,"ADDRESS":"崑山街２１９巷２０號","OBJECTID":456965},"geometry":{"x":174040.85000000056,"y":2545071.9600000009}},{"attributes":{"ID":456991,"DIS_CODE":0,"TOWNNAME":"新市區","LI":"新和里","LIN":"41鄰","STREET":"信義街","SECT":" ","MAREA":" ","LANE":"２５巷","ALLEY":" ","HOUSE_NO":"４號","E_COORD97":177187.45000000001,"N_COORD97":2552781.52,"ADDRESS":"信義街２５巷４號","OBJECTID":456966},"geometry":{"x":177187.45000000019,"y":2552781.5200000014}},{"attributes":{"ID":456992,"DIS_CODE":0,"TOWNNAME":"新市區","LI":"新和里","LIN":"41鄰","STREET":"西寧街","SECT":" ","MAREA":" ","LANE":"４２巷","ALLEY":" ","HOUSE_NO":"８號","E_COORD97":177045.70999999999,"N_COORD97":2552934,"ADDRESS":"西寧街４２巷８號","OBJECTID":456967},"geometry":{"x":177045.71000000089,"y":2552933.9999999981}},{"attributes":{"ID":456993,"DIS_CODE":0,"TOWNNAME":"新市區","LI":"新和里","LIN":"41鄰","STREET":"信義街","SECT":" ","MAREA":" ","LANE":"２５巷","ALLEY":" ","HOUSE_NO":"６號","E_COORD97":177186.39999999999,"N_COORD97":2552787.02,"ADDRESS":"信義街２５巷６號","OBJECTID":456968},"geometry":{"x":177186.40000000037,"y":2552787.0199999996}},{"attributes":{"ID":456994,"DIS_CODE":0,"TOWNNAME":"永康區","LI":"崑山里","LIN":"41鄰","STREET":"崑山街","SECT":" ","MAREA":" ","LANE":"２１９巷","ALLEY":" ","HOUSE_NO":"３４號","E_COORD97":174003.76000000001,"N_COORD97":2545088.3599999999,"ADDRESS":"崑山街２１９巷３４號","OBJECTID":456969},"geometry":{"x":174003.76000000164,"y":2545088.3599999994}},{"attributes":{"ID":456995,"DIS_CODE":0,"TOWNNAME":"永康區","LI":"崑山里","LIN":"41鄰","STREET":"崑山街","SECT":" ","MAREA":" ","LANE":"２１９巷","ALLEY":" ","HOUSE_NO":"８號","E_COORD97":174065.98000000001,"N_COORD97":2545062.71,"ADDRESS":"崑山街２１９巷８號","OBJECTID":456970},"geometry":{"x":174065.98000000138,"y":2545062.7100000028}},{"attributes":{"ID":456996,"DIS_CODE":0,"TOWNNAME":"永康區","LI":"崑山里","LIN":"41鄰","STREET":"崑山街","SECT":" ","MAREA":" ","LANE":"２０３巷","ALLEY":" ","HOUSE_NO":"１２號","E_COORD97":174039.57000000001,"N_COORD97":2545016.1899999999,"ADDRESS":"崑山街２０３巷１２號","OBJECTID":456971},"geometry":{"x":174039.57000000216,"y":2545016.1900000013}},{"attributes":{"ID":456997,"DIS_CODE":0,"TOWNNAME":"永康區","LI":"崑山里","LIN":"41鄰","STREET":"崑山街","SECT":" ","MAREA":" ","LANE":"２０３巷","ALLEY":" ","HOUSE_NO":"１０號","E_COORD97":174044.16,"N_COORD97":2545014.6899999999,"ADDRESS":"崑山街２０３巷１０號","OBJECTID":456972},"geometry":{"x":174044.16000000108,"y":2545014.6899999995}},{"attributes":{"ID":456998,"DIS_CODE":0,"TOWNNAME":"永康區","LI":"崑山里","LIN":"41鄰","STREET":"崑山街","SECT":" ","MAREA":" ","LANE":"２１９巷","ALLEY":" ","HOUSE_NO":"２８號","E_COORD97":174017.67000000001,"N_COORD97":2545079.9500000002,"ADDRESS":"崑山街２１９巷２８號","OBJECTID":456973},"geometry":{"x":174017.66999999993,"y":2545079.9499999993}},{"attributes":{"ID":456999,"DIS_CODE":0,"TOWNNAME":"仁德區","LI":"太子里","LIN":"41鄰","STREET":"太子路","SECT":" ","MAREA":" ","LANE":"４２巷","ALLEY":" ","HOUSE_NO":"６號","E_COORD97":175291.73999999999,"N_COORD97":2543598.75,"ADDRESS":"太子路４２巷６號","OBJECTID":456974},"geometry":{"x":175291.74000000115,"y":2543598.7500000037}},{"attributes":{"ID":457000,"DIS_CODE":0,"TOWNNAME":"仁德區","LI":"太子里","LIN":"41鄰","STREET":"太子路","SECT":" ","MAREA":" ","LANE":"４２巷","ALLEY":" ","HOUSE_NO":"８號","E_COORD97":175293.09,"N_COORD97":2543605.5,"ADDRESS":"太子路４２巷８號","OBJECTID":456975},"geometry":{"x":175293.08999999985,"y":2543605.5000000019}},{"attributes":{"ID":457001,"DIS_CODE":0,"TOWNNAME":"永康區","LI":"崑山里","LIN":"41鄰","STREET":"崑山街","SECT":" ","MAREA":" ","LANE":"２１９巷","ALLEY":" ","HOUSE_NO":"２１號","E_COORD97":174026.92000000001,"N_COORD97":2545058.2999999998,"ADDRESS":"崑山街２１９巷２１號","OBJECTID":456976},"geometry":{"x":174026.92000000086,"y":2545058.3000000026}},{"attributes":{"ID":457002,"DIS_CODE":0,"TOWNNAME":"永康區","LI":"東灣里","LIN":"13鄰","STREET":"大灣路","SECT":" ","MAREA":" ","LANE":"３４１巷","ALLEY":" ","HOUSE_NO":"３號","E_COORD97":174809.13,"N_COORD97":2544938.7400000002,"ADDRESS":"大灣路３４１巷３號","OBJECTID":456977},"geometry":{"x":174809.13000000082,"y":2544938.7400000021}},{"attributes":{"ID":457003,"DIS_CODE":0,"TOWNNAME":"仁德區","LI":"後壁里","LIN":"41鄰","STREET":"民安路","SECT":"二段","MAREA":" ","LANE":"３８２巷","ALLEY":" ","HOUSE_NO":"３６號","E_COORD97":173993.06,"N_COORD97":2538693.0899999999,"ADDRESS":"民安路二段３８２巷３６號","OBJECTID":456978},"geometry":{"x":173993.06000000145,"y":2538693.0899999999}},{"attributes":{"ID":457004,"DIS_CODE":0,"TOWNNAME":"歸仁區","LI":"辜厝里","LIN":"41鄰","STREET":"大吉街","SECT":" ","MAREA":" ","LANE":"１２０巷","ALLEY":" ","HOUSE_NO":"２號","E_COORD97":177174.73999999999,"N_COORD97":2540562.6800000002,"ADDRESS":"大吉街１２０巷２號","OBJECTID":456979},"geometry":{"x":177174.74000000115,"y":2540562.6800000016}},{"attributes":{"ID":457005,"DIS_CODE":0,"TOWNNAME":"歸仁區","LI":"辜厝里","LIN":"41鄰","STREET":"大吉街","SECT":" ","MAREA":" ","LANE":"１２０巷","ALLEY":" ","HOUSE_NO":"１號","E_COORD97":177182.84,"N_COORD97":2540535.6800000002,"ADDRESS":"大吉街１２０巷１號","OBJECTID":456980},"geometry":{"x":177182.83999999985,"y":2540535.6800000016}},{"attributes":{"ID":457006,"DIS_CODE":0,"TOWNNAME":"歸仁區","LI":"辜厝里","LIN":"41鄰","STREET":"大吉街","SECT":" ","MAREA":" ","LANE":"１３０巷","ALLEY":" ","HOUSE_NO":"１７號","E_COORD97":177165.39000000001,"N_COORD97":2540494.6800000002,"ADDRESS":"大吉街１３０巷１７號","OBJECTID":456981},"geometry":{"x":177165.38999999966,"y":2540494.6800000016}},{"attributes":{"ID":457007,"DIS_CODE":0,"TOWNNAME":"玉井區","LI":"玉田里","LIN":"41鄰","STREET":"民族路","SECT":" ","MAREA":" ","LANE":"１７９巷","ALLEY":" ","HOUSE_NO":"４０號","E_COORD97":195454.13,"N_COORD97":2558213.29,"ADDRESS":"民族路１７９巷４０號","OBJECTID":456982},"geometry":{"x":195454.13000000175,"y":2558213.2899999972}},{"attributes":{"ID":457008,"DIS_CODE":0,"TOWNNAME":"玉井區","LI":"玉田里","LIN":"41鄰","STREET":"民族路","SECT":" ","MAREA":" ","LANE":"１７９巷","ALLEY":" ","HOUSE_NO":"４２號","E_COORD97":195454.23999999999,"N_COORD97":2558218.29,"ADDRESS":"民族路１７９巷４２號","OBJECTID":456983},"geometry":{"x":195454.24000000115,"y":2558218.290000001}},{"attributes":{"ID":457009,"DIS_CODE":0,"TOWNNAME":"玉井區","LI":"玉田里","LIN":"41鄰","STREET":"民族路","SECT":" ","MAREA":" ","LANE":"１７９巷","ALLEY":" ","HOUSE_NO":"１９號","E_COORD97":195440.63,"N_COORD97":2558160.2799999998,"ADDRESS":"民族路１７９巷１９號","OBJECTID":456984},"geometry":{"x":195440.63000000082,"y":2558160.2800000012}},{"attributes":{"ID":457010,"DIS_CODE":0,"TOWNNAME":"玉井區","LI":"玉田里","LIN":"41鄰","STREET":"民族路","SECT":" ","MAREA":" ","LANE":"１７９巷","ALLEY":" ","HOUSE_NO":"７號","E_COORD97":195439.07999999999,"N_COORD97":2558134.29,"ADDRESS":"民族路１７９巷７號","OBJECTID":456985},"geometry":{"x":195439.08000000007,"y":2558134.2899999991}},{"attributes":{"ID":457011,"DIS_CODE":0,"TOWNNAME":"玉井區","LI":"玉田里","LIN":"41鄰","STREET":"民族路","SECT":" ","MAREA":" ","LANE":"１７９巷","ALLEY":" ","HOUSE_NO":"１８號","E_COORD97":195458.34,"N_COORD97":2558150.29,"ADDRESS":"民族路１７９巷１８號","OBJECTID":456986},"geometry":{"x":195458.34000000078,"y":2558150.290000001}},{"attributes":{"ID":457012,"DIS_CODE":0,"TOWNNAME":"玉井區","LI":"玉田里","LIN":"41鄰","STREET":"民族路","SECT":" ","MAREA":" ","LANE":"１７９巷","ALLEY":" ","HOUSE_NO":"１３號","E_COORD97":195439.84,"N_COORD97":2558146.29,"ADDRESS":"民族路１７９巷１３號","OBJECTID":456987},"geometry":{"x":195439.83999999985,"y":2558146.290000001}},{"attributes":{"ID":457013,"DIS_CODE":0,"TOWNNAME":"玉井區","LI":"玉田里","LIN":"41鄰","STREET":"民族路","SECT":" ","MAREA":" ","LANE":"１７９巷","ALLEY":" ","HOUSE_NO":"９號","E_COORD97":195439.29000000001,"N_COORD97":2558138.29,"ADDRESS":"民族路１７９巷９號","OBJECTID":456988},"geometry":{"x":195439.29000000004,"y":2558138.2899999991}},{"attributes":{"ID":457014,"DIS_CODE":0,"TOWNNAME":"玉井區","LI":"玉田里","LIN":"41鄰","STREET":"民族路","SECT":" ","MAREA":" ","LANE":"１７９巷","ALLEY":" ","HOUSE_NO":"２９號","E_COORD97":195440.84,"N_COORD97":2558180.2799999998,"ADDRESS":"民族路１７９巷２９號","OBJECTID":456989},"geometry":{"x":195440.84000000078,"y":2558180.2800000012}},{"attributes":{"ID":457015,"DIS_CODE":0,"TOWNNAME":"玉井區","LI":"玉田里","LIN":"41鄰","STREET":"民族路","SECT":" ","MAREA":" ","LANE":"１７９巷","ALLEY":" ","HOUSE_NO":"２６號","E_COORD97":195453.54000000001,"N_COORD97":2558166.2799999998,"ADDRESS":"民族路１７９巷２６號","OBJECTID":456990},"geometry":{"x":195453.54000000097,"y":2558166.2800000031}},{"attributes":{"ID":457016,"DIS_CODE":0,"TOWNNAME":"玉井區","LI":"玉田里","LIN":"41鄰","STREET":"民族路","SECT":" ","MAREA":" ","LANE":"１７９巷","ALLEY":" ","HOUSE_NO":"５２號","E_COORD97":195454.13,"N_COORD97":2558239.29,"ADDRESS":"民族路１７９巷５２號","OBJECTID":456991},"geometry":{"x":195454.13000000175,"y":2558239.2899999991}},{"attributes":{"ID":457017,"DIS_CODE":0,"TOWNNAME":"玉井區","LI":"玉田里","LIN":"41鄰","STREET":"民族路","SECT":" ","MAREA":" ","LANE":"１７９巷","ALLEY":" ","HOUSE_NO":"２１號","E_COORD97":195440.92999999999,"N_COORD97":2558164.2799999998,"ADDRESS":"民族路１７９巷２１號","OBJECTID":456992},"geometry":{"x":195440.9299999997,"y":2558164.2800000012}},{"attributes":{"ID":457018,"DIS_CODE":0,"TOWNNAME":"玉井區","LI":"玉田里","LIN":"41鄰","STREET":"民族路","SECT":" ","MAREA":" ","LANE":"１７９巷","ALLEY":" ","HOUSE_NO":"１６號","E_COORD97":195458.04000000001,"N_COORD97":2558145.29,"ADDRESS":"民族路１７９巷１６號","OBJECTID":456993},"geometry":{"x":195458.03999999911,"y":2558145.2899999991}},{"attributes":{"ID":457019,"DIS_CODE":0,"TOWNNAME":"玉井區","LI":"玉田里","LIN":"41鄰","STREET":"民族路","SECT":" ","MAREA":" ","LANE":"１７９巷","ALLEY":" ","HOUSE_NO":"２３號","E_COORD97":195440.92999999999,"N_COORD97":2558168.2799999998,"ADDRESS":"民族路１７９巷２３號","OBJECTID":456994},"geometry":{"x":195440.9299999997,"y":2558168.2799999993}},{"attributes":{"ID":457020,"DIS_CODE":0,"TOWNNAME":"北區","LI":"成德里","LIN":"41鄰","STREET":"文成二路","SECT":" ","MAREA":" ","LANE":"２２７巷","ALLEY":" ","HOUSE_NO":"１號","E_COORD97":168241.78,"N_COORD97":2546156.3799999999,"ADDRESS":"文成二路２２７巷１號","OBJECTID":456995},"geometry":{"x":168241.78000000026,"y":2546156.3800000027}},{"attributes":{"ID":457021,"DIS_CODE":0,"TOWNNAME":"北區","LI":"成德里","LIN":"41鄰","STREET":"文成二路","SECT":" ","MAREA":" ","LANE":"２２７巷","ALLEY":" ","HOUSE_NO":"３號","E_COORD97":168242.29000000001,"N_COORD97":2546149.8399999999,"ADDRESS":"文成二路２２７巷３號","OBJECTID":456996},"geometry":{"x":168242.29000000097,"y":2546149.8399999999}},{"attributes":{"ID":457022,"DIS_CODE":0,"TOWNNAME":"北區","LI":"成德里","LIN":"41鄰","STREET":"文成二路","SECT":" ","MAREA":" ","LANE":"２２７巷","ALLEY":" ","HOUSE_NO":"５號","E_COORD97":168242.79999999999,"N_COORD97":2546143.8700000001,"ADDRESS":"文成二路２２７巷５號","OBJECTID":456997},"geometry":{"x":168242.79999999981,"y":2546143.870000001}},{"attributes":{"ID":457023,"DIS_CODE":0,"TOWNNAME":"北區","LI":"成德里","LIN":"41鄰","STREET":"文成二路","SECT":" ","MAREA":" ","LANE":"２２７巷","ALLEY":" ","HOUSE_NO":"９號","E_COORD97":168243.67999999999,"N_COORD97":2546133.0699999998,"ADDRESS":"文成二路２２７巷９號","OBJECTID":456998},"geometry":{"x":168243.6799999997,"y":2546133.070000004}},{"attributes":{"ID":457024,"DIS_CODE":0,"TOWNNAME":"北區","LI":"成德里","LIN":"41鄰","STREET":"文成二路","SECT":" ","MAREA":" ","LANE":"２２７巷","ALLEY":" ","HOUSE_NO":"１１號","E_COORD97":168244.19,"N_COORD97":2546126.6000000001,"ADDRESS":"文成二路２２７巷１１號","OBJECTID":456999},"geometry":{"x":168244.19000000041,"y":2546126.6000000015}},{"attributes":{"ID":457025,"DIS_CODE":0,"TOWNNAME":"北區","LI":"成德里","LIN":"41鄰","STREET":"文成二路","SECT":" ","MAREA":" ","LANE":"２２７巷","ALLEY":" ","HOUSE_NO":"１３號","E_COORD97":168244.82999999999,"N_COORD97":2546120.8799999999,"ADDRESS":"文成二路２２７巷１３號","OBJECTID":457000},"geometry":{"x":168244.83000000007,"y":2546120.8800000008}}]}