{"displayFieldName":"TOWNNAME","fieldAliases":{"ID":"ID","DIS_CODE":"DIS_CODE","TOWNNAME":"TOWNNAME","LI":"LI","LIN":"LIN","STREET":"STREET","SECT":"SECT","MAREA":"MAREA","LANE":"LANE","ALLEY":"ALLEY","HOUSE_NO":"HOUSE_NO","E_COORD97":"E_COORD97","N_COORD97":"N_COORD97","ADDRESS":"ADDRESS","OBJECTID":"OBJECTID"},"geometryType":"esriGeometryPoint","spatialReference":{"wkid":102443,"latestWkid":3826},"fields":[{"name":"ID","type":"esriFieldTypeDouble","alias":"ID"},{"name":"DIS_CODE","type":"esriFieldTypeInteger","alias":"DIS_CODE"},{"name":"TOWNNAME","type":"esriFieldTypeString","alias":"TOWNNAME","length":8},{"name":"LI","type":"esriFieldTypeString","alias":"LI","length":8},{"name":"LIN","type":"esriFieldTypeString","alias":"LIN","length":12},{"name":"STREET","type":"esriFieldTypeString","alias":"STREET","length":20},{"name":"SECT","type":"esriFieldTypeString","alias":"SECT","length":8},{"name":"MAREA","type":"esriFieldTypeString","alias":"MAREA","length":12},{"name":"LANE","type":"esriFieldTypeString","alias":"LANE","length":10},{"name":"ALLEY","type":"esriFieldTypeString","alias":"ALLEY","length":10},{"name":"HOUSE_NO","type":"esriFieldTypeString","alias":"HOUSE_NO","length":20},{"name":"E_COORD97","type":"esriFieldTypeDouble","alias":"E_COORD97"},{"name":"N_COORD97","type":"esriFieldTypeDouble","alias":"N_COORD97"},{"name":"ADDRESS","type":"esriFieldTypeString","alias":"ADDRESS","length":50},{"name":"OBJECTID","type":"esriFieldTypeOID","alias":"OBJECTID"}],"features":[{"attributes":{"ID":376011,"DIS_CODE":0,"TOWNNAME":"歸仁區","LI":"西埔里","LIN":"10鄰","STREET":"西埔一街","SECT":" ","MAREA":" ","LANE":"１８８巷","ALLEY":" ","HOUSE_NO":"４７號","E_COORD97":177148.81,"N_COORD97":2544661.9700000002,"ADDRESS":"西埔一街１８８巷４７號","OBJECTID":376001},"geometry":{"x":177148.80999999959,"y":2544661.9700000007}},{"attributes":{"ID":376012,"DIS_CODE":0,"TOWNNAME":"歸仁區","LI":"南保里","LIN":"10鄰","STREET":"文化十街","SECT":" ","MAREA":" ","LANE":"２８巷","ALLEY":" ","HOUSE_NO":"１６號","E_COORD97":176726.39000000001,"N_COORD97":2541322.3300000001,"ADDRESS":"文化十街２８巷１６號","OBJECTID":376002},"geometry":{"x":176726.38999999966,"y":2541322.3300000001}},{"attributes":{"ID":376013,"DIS_CODE":0,"TOWNNAME":"歸仁區","LI":"西埔里","LIN":"10鄰","STREET":"西埔一街","SECT":" ","MAREA":" ","LANE":"３００巷","ALLEY":" ","HOUSE_NO":"６８號","E_COORD97":177272.79000000001,"N_COORD97":2544756.4199999999,"ADDRESS":"西埔一街３００巷６８號","OBJECTID":376003},"geometry":{"x":177272.79000000097,"y":2544756.4199999999}},{"attributes":{"ID":376014,"DIS_CODE":0,"TOWNNAME":"歸仁區","LI":"南保里","LIN":"10鄰","STREET":"文化十街","SECT":" ","MAREA":" ","LANE":"２８巷","ALLEY":" ","HOUSE_NO":"１４號","E_COORD97":176723.29000000001,"N_COORD97":2541322.3300000001,"ADDRESS":"文化十街２８巷１４號","OBJECTID":376004},"geometry":{"x":176723.29000000097,"y":2541322.3300000001}},{"attributes":{"ID":376015,"DIS_CODE":0,"TOWNNAME":"歸仁區","LI":"西埔里","LIN":"10鄰","STREET":"西埔一街","SECT":" ","MAREA":" ","LANE":"１８８巷","ALLEY":" ","HOUSE_NO":"４０號","E_COORD97":177169.31,"N_COORD97":2544664.9700000002,"ADDRESS":"西埔一街１８８巷４０號","OBJECTID":376005},"geometry":{"x":177169.30999999959,"y":2544664.9700000007}},{"attributes":{"ID":376016,"DIS_CODE":0,"TOWNNAME":"歸仁區","LI":"西埔里","LIN":"10鄰","STREET":"西埔一街","SECT":" ","MAREA":" ","LANE":"３００巷","ALLEY":" ","HOUSE_NO":"３０號","E_COORD97":177209.04000000001,"N_COORD97":2544770.9500000002,"ADDRESS":"西埔一街３００巷３０號","OBJECTID":376006},"geometry":{"x":177209.04000000004,"y":2544770.9500000011}},{"attributes":{"ID":376017,"DIS_CODE":0,"TOWNNAME":"歸仁區","LI":"文化里","LIN":"10鄰","STREET":"民族北街","SECT":" ","MAREA":" ","LANE":"２３１巷","ALLEY":" ","HOUSE_NO":"５號","E_COORD97":177439.5,"N_COORD97":2541423.3300000001,"ADDRESS":"民族北街２３１巷５號","OBJECTID":376007},"geometry":{"x":177439.5,"y":2541423.3300000019}},{"attributes":{"ID":376018,"DIS_CODE":0,"TOWNNAME":"歸仁區","LI":"西埔里","LIN":"10鄰","STREET":"西埔一街","SECT":" ","MAREA":" ","LANE":"６６０巷","ALLEY":" ","HOUSE_NO":"２００號","E_COORD97":177487.37,"N_COORD97":2545849.25,"ADDRESS":"西埔一街６６０巷２００號","OBJECTID":376008},"geometry":{"x":177487.37000000104,"y":2545849.25}},{"attributes":{"ID":376019,"DIS_CODE":0,"TOWNNAME":"歸仁區","LI":"武東里","LIN":"10鄰","STREET":"武東三街","SECT":" ","MAREA":" ","LANE":"２０巷","ALLEY":" ","HOUSE_NO":"２３號","E_COORD97":175274.19,"N_COORD97":2535289.2400000002,"ADDRESS":"武東三街２０巷２３號","OBJECTID":376009},"geometry":{"x":175274.19000000041,"y":2535289.2400000039}},{"attributes":{"ID":376020,"DIS_CODE":0,"TOWNNAME":"歸仁區","LI":"西埔里","LIN":"10鄰","STREET":"西埔一街","SECT":" ","MAREA":" ","LANE":"６６０巷","ALLEY":" ","HOUSE_NO":"３１號","E_COORD97":177133.51999999999,"N_COORD97":2545658.25,"ADDRESS":"西埔一街６６０巷３１號","OBJECTID":376010},"geometry":{"x":177133.52000000048,"y":2545658.2500000019}},{"attributes":{"ID":376021,"DIS_CODE":0,"TOWNNAME":"歸仁區","LI":"文化里","LIN":"10鄰","STREET":"民族北街","SECT":" ","MAREA":" ","LANE":"２３７巷","ALLEY":" ","HOUSE_NO":"３號","E_COORD97":177426.76000000001,"N_COORD97":2541462.25,"ADDRESS":"民族北街２３７巷３號","OBJECTID":376011},"geometry":{"x":177426.76000000071,"y":2541462.25}},{"attributes":{"ID":376022,"DIS_CODE":0,"TOWNNAME":"歸仁區","LI":"許厝里","LIN":"10鄰","STREET":"公園路","SECT":" ","MAREA":" ","LANE":"３９巷","ALLEY":" ","HOUSE_NO":"２號","E_COORD97":178166.76999999999,"N_COORD97":2540527.1000000001,"ADDRESS":"公園路３９巷２號","OBJECTID":376012},"geometry":{"x":178166.76999999862,"y":2540527.0999999996}},{"attributes":{"ID":376023,"DIS_CODE":0,"TOWNNAME":"歸仁區","LI":"歸南里","LIN":"10鄰","STREET":"民生九街","SECT":" ","MAREA":" ","LANE":"１３３巷","ALLEY":" ","HOUSE_NO":"２３號","E_COORD97":176282.59,"N_COORD97":2540068.29,"ADDRESS":"民生九街１３３巷２３號","OBJECTID":376013},"geometry":{"x":176282.58999999985,"y":2540068.2900000028}},{"attributes":{"ID":376024,"DIS_CODE":0,"TOWNNAME":"歸仁區","LI":"看東里","LIN":"10鄰","STREET":"忠孝南路","SECT":" ","MAREA":" ","LANE":"１３９巷","ALLEY":" ","HOUSE_NO":"１８號","E_COORD97":178601.57000000001,"N_COORD97":2540300.6800000002,"ADDRESS":"忠孝南路１３９巷１８號","OBJECTID":376014},"geometry":{"x":178601.57000000123,"y":2540300.6800000016}},{"attributes":{"ID":376025,"DIS_CODE":0,"TOWNNAME":"歸仁區","LI":"歸南里","LIN":"10鄰","STREET":"民生九街","SECT":" ","MAREA":" ","LANE":"１３３巷","ALLEY":" ","HOUSE_NO":"２９號","E_COORD97":176299.98999999999,"N_COORD97":2540072.29,"ADDRESS":"民生九街１３３巷２９號","OBJECTID":376015},"geometry":{"x":176299.99000000115,"y":2540072.290000001}},{"attributes":{"ID":376026,"DIS_CODE":0,"TOWNNAME":"歸仁區","LI":"七甲里","LIN":"10鄰","STREET":"七甲一街","SECT":" ","MAREA":" ","LANE":"３３巷","ALLEY":" ","HOUSE_NO":"７號","E_COORD97":177581.69,"N_COORD97":2542521.6600000001,"ADDRESS":"七甲一街３３巷７號","OBJECTID":376016},"geometry":{"x":177581.68999999948,"y":2542521.660000002}},{"attributes":{"ID":376027,"DIS_CODE":0,"TOWNNAME":"歸仁區","LI":"媽廟里","LIN":"10鄰","STREET":"保大路","SECT":"一段","MAREA":" ","LANE":"１８７巷","ALLEY":" ","HOUSE_NO":"１７號","E_COORD97":177562.78,"N_COORD97":2543945.7200000002,"ADDRESS":"保大路一段１８７巷１７號","OBJECTID":376017},"geometry":{"x":177562.78000000119,"y":2543945.7200000044}},{"attributes":{"ID":376028,"DIS_CODE":0,"TOWNNAME":"歸仁區","LI":"西埔里","LIN":"10鄰","STREET":"西埔一街","SECT":" ","MAREA":" ","LANE":"３００巷","ALLEY":" ","HOUSE_NO":"６號","E_COORD97":177163.79000000001,"N_COORD97":2544788.9500000002,"ADDRESS":"西埔一街３００巷６號","OBJECTID":376018},"geometry":{"x":177163.7900000019,"y":2544788.9499999993}},{"attributes":{"ID":376029,"DIS_CODE":0,"TOWNNAME":"歸仁區","LI":"西埔里","LIN":"10鄰","STREET":"西埔一街","SECT":" ","MAREA":" ","LANE":"３００巷","ALLEY":" ","HOUSE_NO":"７１號","E_COORD97":177293.39000000001,"N_COORD97":2544770.4199999999,"ADDRESS":"西埔一街３００巷７１號","OBJECTID":376019},"geometry":{"x":177293.3900000006,"y":2544770.4199999981}},{"attributes":{"ID":376030,"DIS_CODE":0,"TOWNNAME":"歸仁區","LI":"西埔里","LIN":"10鄰","STREET":"西埔一街","SECT":" ","MAREA":" ","LANE":"３００巷","ALLEY":" ","HOUSE_NO":"４６號","E_COORD97":177242.84,"N_COORD97":2544769.9500000002,"ADDRESS":"西埔一街３００巷４６號","OBJECTID":376020},"geometry":{"x":177242.84000000171,"y":2544769.950000003}},{"attributes":{"ID":376031,"DIS_CODE":0,"TOWNNAME":"新營區","LI":"新北里","LIN":"10鄰","STREET":"長榮路","SECT":"二段","MAREA":" ","LANE":"２７１巷","ALLEY":" ","HOUSE_NO":"１３號","E_COORD97":179266.98000000001,"N_COORD97":2579754.52,"ADDRESS":"長榮路二段２７１巷１３號","OBJECTID":376021},"geometry":{"x":179266.98000000138,"y":2579754.5199999996}},{"attributes":{"ID":376032,"DIS_CODE":0,"TOWNNAME":"新營區","LI":"民生里","LIN":"10鄰","STREET":"復興路","SECT":" ","MAREA":" ","LANE":"１４８巷","ALLEY":" ","HOUSE_NO":"１之３號","E_COORD97":179264.26000000001,"N_COORD97":2578065.73,"ADDRESS":"復興路１４８巷１之３號","OBJECTID":376022},"geometry":{"x":179264.26000000071,"y":2578065.7299999986}},{"attributes":{"ID":376033,"DIS_CODE":0,"TOWNNAME":"新營區","LI":"民生里","LIN":"10鄰","STREET":"復興路","SECT":" ","MAREA":" ","LANE":"１４８巷","ALLEY":" ","HOUSE_NO":"１之４號","E_COORD97":179264.28,"N_COORD97":2578070.1600000001,"ADDRESS":"復興路１４８巷１之４號","OBJECTID":376023},"geometry":{"x":179264.28000000212,"y":2578070.160000002}},{"attributes":{"ID":376034,"DIS_CODE":0,"TOWNNAME":"新營區","LI":"新北里","LIN":"10鄰","STREET":"長榮路","SECT":"二段","MAREA":" ","LANE":"２７１巷","ALLEY":" ","HOUSE_NO":"１０號","E_COORD97":179247.57000000001,"N_COORD97":2579760.1600000001,"ADDRESS":"長榮路二段２７１巷１０號","OBJECTID":376024},"geometry":{"x":179247.57000000123,"y":2579760.1600000001}},{"attributes":{"ID":376035,"DIS_CODE":0,"TOWNNAME":"新營區","LI":"南紙里","LIN":"10鄰","STREET":"南紙街","SECT":" ","MAREA":" ","LANE":"８２巷","ALLEY":" ","HOUSE_NO":"２號","E_COORD97":177773.34,"N_COORD97":2577609.9500000002,"ADDRESS":"南紙街８２巷２號","OBJECTID":376025},"geometry":{"x":177773.34000000171,"y":2577609.9500000011}},{"attributes":{"ID":376036,"DIS_CODE":0,"TOWNNAME":"新營區","LI":"新北里","LIN":"10鄰","STREET":"長榮路","SECT":"二段","MAREA":" ","LANE":"２７１巷","ALLEY":" ","HOUSE_NO":"６號","E_COORD97":179245.35000000001,"N_COORD97":2579767.9199999999,"ADDRESS":"長榮路二段２７１巷６號","OBJECTID":376026},"geometry":{"x":179245.35000000056,"y":2579767.9199999999}},{"attributes":{"ID":376037,"DIS_CODE":0,"TOWNNAME":"新營區","LI":"民生里","LIN":"10鄰","STREET":"復興路","SECT":" ","MAREA":" ","LANE":"１４８巷","ALLEY":" ","HOUSE_NO":"１之１號","E_COORD97":179265.25,"N_COORD97":2578057.9700000002,"ADDRESS":"復興路１４８巷１之１號","OBJECTID":376027},"geometry":{"x":179265.25,"y":2578057.9700000044}},{"attributes":{"ID":376038,"DIS_CODE":0,"TOWNNAME":"新營區","LI":"新南里","LIN":"10鄰","STREET":"新北五街","SECT":" ","MAREA":" ","LANE":"１４３巷","ALLEY":" ","HOUSE_NO":"５號","E_COORD97":178542.66,"N_COORD97":2579119,"ADDRESS":"新北五街１４３巷５號","OBJECTID":376028},"geometry":{"x":178542.66000000015,"y":2579119.0000000019}},{"attributes":{"ID":376039,"DIS_CODE":0,"TOWNNAME":"新營區","LI":"南紙里","LIN":"10鄰","STREET":"南紙街","SECT":" ","MAREA":" ","LANE":"５４巷","ALLEY":" ","HOUSE_NO":"８號","E_COORD97":177771.64000000001,"N_COORD97":2577679.7200000002,"ADDRESS":"南紙街５４巷８號","OBJECTID":376029},"geometry":{"x":177771.6400000006,"y":2577679.7200000044}},{"attributes":{"ID":376040,"DIS_CODE":0,"TOWNNAME":"新營區","LI":"南紙里","LIN":"10鄰","STREET":"南紙街","SECT":" ","MAREA":" ","LANE":"７４巷","ALLEY":" ","HOUSE_NO":"２號","E_COORD97":177788.87,"N_COORD97":2577646.4199999999,"ADDRESS":"南紙街７４巷２號","OBJECTID":376030},"geometry":{"x":177788.87000000104,"y":2577646.4199999999}},{"attributes":{"ID":376041,"DIS_CODE":0,"TOWNNAME":"新營區","LI":"南紙里","LIN":"10鄰","STREET":"南紙街","SECT":" ","MAREA":" ","LANE":"７４巷","ALLEY":" ","HOUSE_NO":"８號","E_COORD97":177776.57999999999,"N_COORD97":2577644.2599999998,"ADDRESS":"南紙街７４巷８號","OBJECTID":376031},"geometry":{"x":177776.58000000007,"y":2577644.2599999998}},{"attributes":{"ID":376042,"DIS_CODE":0,"TOWNNAME":"新營區","LI":"南紙里","LIN":"10鄰","STREET":"南紙街","SECT":" ","MAREA":" ","LANE":"７４巷","ALLEY":" ","HOUSE_NO":"４號","E_COORD97":177784.78,"N_COORD97":2577645.3300000001,"ADDRESS":"南紙街７４巷４號","OBJECTID":376032},"geometry":{"x":177784.78000000119,"y":2577645.3300000019}},{"attributes":{"ID":376043,"DIS_CODE":0,"TOWNNAME":"新營區","LI":"新南里","LIN":"10鄰","STREET":"新北五街","SECT":" ","MAREA":" ","LANE":"１４３巷","ALLEY":" ","HOUSE_NO":"３４號","E_COORD97":178492.76000000001,"N_COORD97":2579104.8500000001,"ADDRESS":"新北五街１４３巷３４號","OBJECTID":376033},"geometry":{"x":178492.76000000164,"y":2579104.8499999978}},{"attributes":{"ID":376044,"DIS_CODE":0,"TOWNNAME":"新營區","LI":"新東里","LIN":"10鄰","STREET":"東仁街","SECT":" ","MAREA":" ","LANE":"１０巷","ALLEY":" ","HOUSE_NO":"２１號","E_COORD97":181322.81,"N_COORD97":2579530,"ADDRESS":"東仁街１０巷２１號","OBJECTID":376034},"geometry":{"x":181322.80999999959,"y":2579530}},{"attributes":{"ID":376045,"DIS_CODE":0,"TOWNNAME":"新營區","LI":"興業里","LIN":"10鄰","STREET":"公誠街","SECT":" ","MAREA":" ","LANE":"６巷","ALLEY":" ","HOUSE_NO":"１１號","E_COORD97":180240.60000000001,"N_COORD97":2578003.46,"ADDRESS":"公誠街６巷１１號","OBJECTID":376035},"geometry":{"x":180240.59999999963,"y":2578003.4600000009}},{"attributes":{"ID":376046,"DIS_CODE":0,"TOWNNAME":"新營區","LI":"南興里","LIN":"10鄰","STREET":"和平路","SECT":" ","MAREA":" ","LANE":"１０４巷","ALLEY":" ","HOUSE_NO":"４之１號","E_COORD97":179388.79999999999,"N_COORD97":2577565.6699999999,"ADDRESS":"和平路１０４巷４之１號","OBJECTID":376036},"geometry":{"x":179388.79999999981,"y":2577565.6700000018}},{"attributes":{"ID":376047,"DIS_CODE":0,"TOWNNAME":"歸仁區","LI":"西埔里","LIN":"10鄰","STREET":"西埔一街","SECT":" ","MAREA":" ","LANE":"１８８巷","ALLEY":" ","HOUSE_NO":"１５號","E_COORD97":177118.91,"N_COORD97":2544622.9700000002,"ADDRESS":"西埔一街１８８巷１５號","OBJECTID":376037},"geometry":{"x":177118.91000000201,"y":2544622.9700000025}},{"attributes":{"ID":376048,"DIS_CODE":0,"TOWNNAME":"歸仁區","LI":"八甲里","LIN":"10鄰","STREET":"大明街","SECT":" ","MAREA":" ","LANE":"１９巷","ALLEY":" ","HOUSE_NO":"５號","E_COORD97":177765.97,"N_COORD97":2541926.6099999999,"ADDRESS":"大明街１９巷５號","OBJECTID":376038},"geometry":{"x":177765.97000000067,"y":2541926.6099999994}},{"attributes":{"ID":376049,"DIS_CODE":0,"TOWNNAME":"歸仁區","LI":"六甲里","LIN":"10鄰","STREET":"六甲路","SECT":" ","MAREA":" ","LANE":"１５１巷","ALLEY":" ","HOUSE_NO":"３２號","E_COORD97":176121.70999999999,"N_COORD97":2539100.25,"ADDRESS":"六甲路１５１巷３２號","OBJECTID":376039},"geometry":{"x":176121.71000000183,"y":2539100.2500000019}},{"attributes":{"ID":376050,"DIS_CODE":0,"TOWNNAME":"歸仁區","LI":"崙頂里","LIN":"10鄰","STREET":"成功路","SECT":"二段","MAREA":" ","LANE":"１６８巷","ALLEY":" ","HOUSE_NO":"４０號","E_COORD97":177951.19,"N_COORD97":2539809.25,"ADDRESS":"成功路二段１６８巷４０號","OBJECTID":376040},"geometry":{"x":177951.18999999948,"y":2539809.2500000019}},{"attributes":{"ID":376051,"DIS_CODE":0,"TOWNNAME":"歸仁區","LI":"媽廟里","LIN":"10鄰","STREET":"保大路","SECT":"一段","MAREA":" ","LANE":"１８７巷","ALLEY":" ","HOUSE_NO":"１５號","E_COORD97":177569.98000000001,"N_COORD97":2543957.7200000002,"ADDRESS":"保大路一段１８７巷１５號","OBJECTID":376041},"geometry":{"x":177569.98000000138,"y":2543957.7200000007}},{"attributes":{"ID":376052,"DIS_CODE":0,"TOWNNAME":"關廟區","LI":"北花里","LIN":"10鄰","STREET":"四維街","SECT":" ","MAREA":" ","LANE":"２７７巷","ALLEY":" ","HOUSE_NO":"１１號","E_COORD97":181822.70999999999,"N_COORD97":2540301.25,"ADDRESS":"四維街２７７巷１１號","OBJECTID":376042},"geometry":{"x":181822.71000000089,"y":2540301.2500000019}},{"attributes":{"ID":376053,"DIS_CODE":0,"TOWNNAME":"關廟區","LI":"北勢里","LIN":"10鄰","STREET":"成功路","SECT":" ","MAREA":" ","LANE":"１８０巷","ALLEY":" ","HOUSE_NO":"５號","E_COORD97":181572.47,"N_COORD97":2540517.27,"ADDRESS":"成功路１８０巷５號","OBJECTID":376043},"geometry":{"x":181572.46999999974,"y":2540517.2700000014}},{"attributes":{"ID":376054,"DIS_CODE":0,"TOWNNAME":"關廟區","LI":"北花里","LIN":"10鄰","STREET":"四維街","SECT":" ","MAREA":" ","LANE":"２７７巷","ALLEY":" ","HOUSE_NO":"１號","E_COORD97":181852.95999999999,"N_COORD97":2540295.25,"ADDRESS":"四維街２７７巷１號","OBJECTID":376044},"geometry":{"x":181852.96000000183,"y":2540295.25}},{"attributes":{"ID":376055,"DIS_CODE":0,"TOWNNAME":"關廟區","LI":"北勢里","LIN":"10鄰","STREET":"成功路","SECT":" ","MAREA":" ","LANE":"１８０巷","ALLEY":" ","HOUSE_NO":"５０號","E_COORD97":181599.12,"N_COORD97":2540530.27,"ADDRESS":"成功路１８０巷５０號","OBJECTID":376045},"geometry":{"x":181599.12000000011,"y":2540530.2700000014}},{"attributes":{"ID":376056,"DIS_CODE":0,"TOWNNAME":"關廟區","LI":"北勢里","LIN":"10鄰","STREET":"成功路","SECT":" ","MAREA":" ","LANE":"１８０巷","ALLEY":" ","HOUSE_NO":"２２號","E_COORD97":181596.82000000001,"N_COORD97":2540499.27,"ADDRESS":"成功路１８０巷２２號","OBJECTID":376046},"geometry":{"x":181596.82000000123,"y":2540499.2700000033}},{"attributes":{"ID":376057,"DIS_CODE":0,"TOWNNAME":"關廟區","LI":"北花里","LIN":"10鄰","STREET":"四維街","SECT":" ","MAREA":" ","LANE":"２７７巷","ALLEY":" ","HOUSE_NO":"９號","E_COORD97":181836.45999999999,"N_COORD97":2540288.25,"ADDRESS":"四維街２７７巷９號","OBJECTID":376047},"geometry":{"x":181836.46000000089,"y":2540288.25}},{"attributes":{"ID":376058,"DIS_CODE":0,"TOWNNAME":"關廟區","LI":"東勢里","LIN":"10鄰","STREET":"東榮街","SECT":" ","MAREA":" ","LANE":"２９巷","ALLEY":" ","HOUSE_NO":"１２號","E_COORD97":182013.97,"N_COORD97":2539392.25,"ADDRESS":"東榮街２９巷１２號","OBJECTID":376048},"geometry":{"x":182013.97000000067,"y":2539392.2500000019}},{"attributes":{"ID":376059,"DIS_CODE":0,"TOWNNAME":"關廟區","LI":"東勢里","LIN":"10鄰","STREET":"旺萊路","SECT":" ","MAREA":" ","LANE":"３０６巷","ALLEY":" ","HOUSE_NO":"１８號","E_COORD97":182036.98999999999,"N_COORD97":2539441.25,"ADDRESS":"旺萊路３０６巷１８號","OBJECTID":376049},"geometry":{"x":182036.99000000115,"y":2539441.25}},{"attributes":{"ID":376060,"DIS_CODE":0,"TOWNNAME":"關廟區","LI":"布袋里","LIN":"10鄰","STREET":"長榮街","SECT":" ","MAREA":" ","LANE":"３３７巷","ALLEY":" ","HOUSE_NO":"２８號","E_COORD97":181944.48999999999,"N_COORD97":2534337.25,"ADDRESS":"長榮街３３７巷２８號","OBJECTID":376050},"geometry":{"x":181944.49000000022,"y":2534337.2500000019}},{"attributes":{"ID":376061,"DIS_CODE":0,"TOWNNAME":"關廟區","LI":"埤頭里","LIN":"10鄰","STREET":"關新路","SECT":"二段","MAREA":" ","LANE":"５１巷","ALLEY":" ","HOUSE_NO":"２８號","E_COORD97":179009.37,"N_COORD97":2544192.2999999998,"ADDRESS":"關新路二段５１巷２８號","OBJECTID":376051},"geometry":{"x":179009.37000000197,"y":2544192.2999999989}},{"attributes":{"ID":376062,"DIS_CODE":0,"TOWNNAME":"關廟區","LI":"五甲里","LIN":"10鄰","STREET":"五甲路","SECT":" ","MAREA":" ","LANE":"２８０巷","ALLEY":" ","HOUSE_NO":"７１號","E_COORD97":180717.42000000001,"N_COORD97":2538774.25,"ADDRESS":"五甲路２８０巷７１號","OBJECTID":376052},"geometry":{"x":180717.42000000179,"y":2538774.2500000037}},{"attributes":{"ID":376063,"DIS_CODE":0,"TOWNNAME":"關廟區","LI":"關廟里","LIN":"10鄰","STREET":"大仁街","SECT":" ","MAREA":" ","LANE":"３４６巷","ALLEY":" ","HOUSE_NO":"３８號","E_COORD97":180837.51999999999,"N_COORD97":2539619.25,"ADDRESS":"大仁街３４６巷３８號","OBJECTID":376053},"geometry":{"x":180837.52000000048,"y":2539619.2500000019}},{"attributes":{"ID":376064,"DIS_CODE":0,"TOWNNAME":"關廟區","LI":"關廟里","LIN":"10鄰","STREET":"大仁街","SECT":" ","MAREA":" ","LANE":"３４６巷","ALLEY":" ","HOUSE_NO":"４２號","E_COORD97":180836.01999999999,"N_COORD97":2539610.25,"ADDRESS":"大仁街３４６巷４２號","OBJECTID":376054},"geometry":{"x":180836.01999999955,"y":2539610.25}},{"attributes":{"ID":376065,"DIS_CODE":0,"TOWNNAME":"關廟區","LI":"關廟里","LIN":"10鄰","STREET":"民生街","SECT":" ","MAREA":" ","LANE":"３７巷","ALLEY":" ","HOUSE_NO":"２７號","E_COORD97":180859.98999999999,"N_COORD97":2539533.29,"ADDRESS":"民生街３７巷２７號","OBJECTID":376055},"geometry":{"x":180859.99000000115,"y":2539533.290000001}},{"attributes":{"ID":376066,"DIS_CODE":0,"TOWNNAME":"關廟區","LI":"埤頭里","LIN":"10鄰","STREET":"保東路","SECT":" ","MAREA":" ","LANE":"８８巷","ALLEY":" ","HOUSE_NO":"３８號","E_COORD97":178864.67000000001,"N_COORD97":2544147.2999999998,"ADDRESS":"保東路８８巷３８號","OBJECTID":376056},"geometry":{"x":178864.67000000179,"y":2544147.3000000007}},{"attributes":{"ID":376067,"DIS_CODE":0,"TOWNNAME":"關廟區","LI":"新埔里","LIN":"10鄰","STREET":"新埔二街","SECT":" ","MAREA":" ","LANE":"７２巷","ALLEY":" ","HOUSE_NO":"２號","E_COORD97":181433.17000000001,"N_COORD97":2540998.25,"ADDRESS":"新埔二街７２巷２號","OBJECTID":376057},"geometry":{"x":181433.17000000086,"y":2540998.2500000037}},{"attributes":{"ID":376068,"DIS_CODE":0,"TOWNNAME":"關廟區","LI":"新埔里","LIN":"10鄰","STREET":"新埔二街","SECT":" ","MAREA":" ","LANE":"５３巷","ALLEY":" ","HOUSE_NO":"３號","E_COORD97":181411.26999999999,"N_COORD97":2540967.25,"ADDRESS":"新埔二街５３巷３號","OBJECTID":376058},"geometry":{"x":181411.26999999955,"y":2540967.25}},{"attributes":{"ID":376069,"DIS_CODE":0,"TOWNNAME":"關廟區","LI":"關廟里","LIN":"10鄰","STREET":"民生街","SECT":" ","MAREA":" ","LANE":"３７巷","ALLEY":" ","HOUSE_NO":"１２號","E_COORD97":180882.98999999999,"N_COORD97":2539552.29,"ADDRESS":"民生街３７巷１２號","OBJECTID":376059},"geometry":{"x":180882.99000000022,"y":2539552.2899999991}},{"attributes":{"ID":376070,"DIS_CODE":0,"TOWNNAME":"關廟區","LI":"埤頭里","LIN":"10鄰","STREET":"保東路","SECT":" ","MAREA":" ","LANE":"８８巷","ALLEY":" ","HOUSE_NO":"４２號","E_COORD97":178864.26999999999,"N_COORD97":2544160.2999999998,"ADDRESS":"保東路８８巷４２號","OBJECTID":376060},"geometry":{"x":178864.27000000048,"y":2544160.3000000026}},{"attributes":{"ID":376071,"DIS_CODE":0,"TOWNNAME":"關廟區","LI":"深坑里","LIN":"10鄰","STREET":"南雄路","SECT":"一段","MAREA":" ","LANE":"３４７巷","ALLEY":" ","HOUSE_NO":"３號","E_COORD97":181815.47,"N_COORD97":2537434.2799999998,"ADDRESS":"南雄路一段３４７巷３號","OBJECTID":376061},"geometry":{"x":181815.4700000016,"y":2537434.2800000031}},{"attributes":{"ID":376072,"DIS_CODE":0,"TOWNNAME":"關廟區","LI":"南花里","LIN":"10鄰","STREET":"四維街","SECT":" ","MAREA":" ","LANE":"２０９巷","ALLEY":" ","HOUSE_NO":"２７號","E_COORD97":181789.627809,"N_COORD97":2540121.3771500001,"ADDRESS":"四維街２０９巷２７號","OBJECTID":376062},"geometry":{"x":181789.62780900113,"y":2540121.3771509994}},{"attributes":{"ID":376073,"DIS_CODE":0,"TOWNNAME":"關廟區","LI":"深坑里","LIN":"10鄰","STREET":"南雄路","SECT":"一段","MAREA":" ","LANE":"３５９巷","ALLEY":" ","HOUSE_NO":"３號","E_COORD97":181813.76999999999,"N_COORD97":2537444.29,"ADDRESS":"南雄路一段３５９巷３號","OBJECTID":376063},"geometry":{"x":181813.77000000048,"y":2537444.290000001}},{"attributes":{"ID":376074,"DIS_CODE":0,"TOWNNAME":"關廟區","LI":"深坑里","LIN":"10鄰","STREET":"南雄路","SECT":"一段","MAREA":" ","LANE":"３３３巷","ALLEY":" ","HOUSE_NO":"２號","E_COORD97":181836.76999999999,"N_COORD97":2537416.2999999998,"ADDRESS":"南雄路一段３３３巷２號","OBJECTID":376064},"geometry":{"x":181836.76999999955,"y":2537416.3000000026}},{"attributes":{"ID":376075,"DIS_CODE":0,"TOWNNAME":"關廟區","LI":"深坑里","LIN":"10鄰","STREET":"南雄路","SECT":"一段","MAREA":" ","LANE":"３５９巷","ALLEY":" ","HOUSE_NO":"５號","E_COORD97":181808.76999999999,"N_COORD97":2537442.2999999998,"ADDRESS":"南雄路一段３５９巷５號","OBJECTID":376065},"geometry":{"x":181808.77000000048,"y":2537442.3000000045}},{"attributes":{"ID":376076,"DIS_CODE":0,"TOWNNAME":"關廟區","LI":"南花里","LIN":"10鄰","STREET":"四維街","SECT":" ","MAREA":" ","LANE":"２０９巷","ALLEY":" ","HOUSE_NO":"２０號","E_COORD97":181796.409916,"N_COORD97":2540132.8071499998,"ADDRESS":"四維街２０９巷２０號","OBJECTID":376066},"geometry":{"x":181796.40991600137,"y":2540132.8071450014}},{"attributes":{"ID":376077,"DIS_CODE":0,"TOWNNAME":"關廟區","LI":"新埔里","LIN":"10鄰","STREET":"新埔二街","SECT":" ","MAREA":" ","LANE":"７０巷","ALLEY":" ","HOUSE_NO":"１１號","E_COORD97":181463.92000000001,"N_COORD97":2541001.25,"ADDRESS":"新埔二街７０巷１１號","OBJECTID":376067},"geometry":{"x":181463.92000000086,"y":2541001.25}},{"attributes":{"ID":376078,"DIS_CODE":0,"TOWNNAME":"關廟區","LI":"南花里","LIN":"10鄰","STREET":"四維街","SECT":" ","MAREA":" ","LANE":"２０９巷","ALLEY":" ","HOUSE_NO":"１２號","E_COORD97":181817.39205699999,"N_COORD97":2540134.3946400001,"ADDRESS":"四維街２０９巷１２號","OBJECTID":376068},"geometry":{"x":181817.39205700066,"y":2540134.3946439996}},{"attributes":{"ID":376079,"DIS_CODE":0,"TOWNNAME":"關廟區","LI":"南花里","LIN":"10鄰","STREET":"四維街","SECT":" ","MAREA":" ","LANE":"２０９巷","ALLEY":" ","HOUSE_NO":"２２號","E_COORD97":181781.78599900001,"N_COORD97":2540132.2779799998,"ADDRESS":"四維街２０９巷２２號","OBJECTID":376069},"geometry":{"x":181781.785999001,"y":2540132.277978003}},{"attributes":{"ID":376080,"DIS_CODE":0,"TOWNNAME":"關廟區","LI":"深坑里","LIN":"10鄰","STREET":"南雄路","SECT":"一段","MAREA":" ","LANE":"３４７巷","ALLEY":" ","HOUSE_NO":"１號","E_COORD97":181830.07000000001,"N_COORD97":2537439.2799999998,"ADDRESS":"南雄路一段３４７巷１號","OBJECTID":376070},"geometry":{"x":181830.0700000003,"y":2537439.2799999993}},{"attributes":{"ID":376081,"DIS_CODE":0,"TOWNNAME":"關廟區","LI":"深坑里","LIN":"10鄰","STREET":"南雄路","SECT":"一段","MAREA":" ","LANE":"３３３巷","ALLEY":" ","HOUSE_NO":"１６號","E_COORD97":181813.57000000001,"N_COORD97":2537402.2799999998,"ADDRESS":"南雄路一段３３３巷１６號","OBJECTID":376071},"geometry":{"x":181813.56999999937,"y":2537402.2799999993}},{"attributes":{"ID":376082,"DIS_CODE":0,"TOWNNAME":"關廟區","LI":"新光里","LIN":"10鄰","STREET":"新光街","SECT":" ","MAREA":" ","LANE":"２０６巷","ALLEY":" ","HOUSE_NO":"２７號","E_COORD97":184359.97,"N_COORD97":2541828.25,"ADDRESS":"新光街２０６巷２７號","OBJECTID":376072},"geometry":{"x":184359.9700000016,"y":2541828.25}},{"attributes":{"ID":376083,"DIS_CODE":0,"TOWNNAME":"關廟區","LI":"關廟里","LIN":"10鄰","STREET":"大仁街","SECT":" ","MAREA":" ","LANE":"３４６巷","ALLEY":" ","HOUSE_NO":"７０號","E_COORD97":180876.32000000001,"N_COORD97":2539514.25,"ADDRESS":"大仁街３４６巷７０號","OBJECTID":376073},"geometry":{"x":180876.32000000216,"y":2539514.2500000019}},{"attributes":{"ID":376084,"DIS_CODE":0,"TOWNNAME":"關廟區","LI":"關廟里","LIN":"10鄰","STREET":"大仁街","SECT":" ","MAREA":" ","LANE":"３４６巷","ALLEY":" ","HOUSE_NO":"５３號","E_COORD97":180844.42000000001,"N_COORD97":2539574.25,"ADDRESS":"大仁街３４６巷５３號","OBJECTID":376074},"geometry":{"x":180844.41999999993,"y":2539574.2500000037}},{"attributes":{"ID":376085,"DIS_CODE":0,"TOWNNAME":"關廟區","LI":"新光里","LIN":"10鄰","STREET":"新光街","SECT":" ","MAREA":" ","LANE":"２９６巷","ALLEY":" ","HOUSE_NO":"１６號","E_COORD97":184347.67000000001,"N_COORD97":2541788.25,"ADDRESS":"新光街２９６巷１６號","OBJECTID":376075},"geometry":{"x":184347.67000000086,"y":2541788.2500000037}},{"attributes":{"ID":376086,"DIS_CODE":0,"TOWNNAME":"關廟區","LI":"關廟里","LIN":"10鄰","STREET":"大仁街","SECT":" ","MAREA":" ","LANE":"３４６巷","ALLEY":" ","HOUSE_NO":"５９號","E_COORD97":180856.32000000001,"N_COORD97":2539554.25,"ADDRESS":"大仁街３４６巷５９號","OBJECTID":376076},"geometry":{"x":180856.32000000123,"y":2539554.2500000037}},{"attributes":{"ID":376087,"DIS_CODE":0,"TOWNNAME":"南區","LI":"喜東里","LIN":"10鄰","STREET":"明興路","SECT":" ","MAREA":" ","LANE":"６１９巷","ALLEY":" ","HOUSE_NO":"２號之２８","E_COORD97":166126.85999999999,"N_COORD97":2537747.5800000001,"ADDRESS":"明興路６１９巷２號之２８","OBJECTID":376077},"geometry":{"x":166126.86000000127,"y":2537747.5800000001}},{"attributes":{"ID":376088,"DIS_CODE":0,"TOWNNAME":"南區","LI":"喜東里","LIN":"10鄰","STREET":"明興路","SECT":" ","MAREA":" ","LANE":"６１９巷","ALLEY":" ","HOUSE_NO":"８號","E_COORD97":166178.95999999999,"N_COORD97":2537911.48,"ADDRESS":"明興路６１９巷８號","OBJECTID":376078},"geometry":{"x":166178.95999999996,"y":2537911.4800000004}},{"attributes":{"ID":376089,"DIS_CODE":0,"TOWNNAME":"南區","LI":"喜東里","LIN":"10鄰","STREET":"明興路","SECT":" ","MAREA":" ","LANE":"６１９巷","ALLEY":" ","HOUSE_NO":"３５３號","E_COORD97":166809.25,"N_COORD97":2537966.1299999999,"ADDRESS":"明興路６１９巷３５３號","OBJECTID":376079},"geometry":{"x":166809.25,"y":2537966.129999999}},{"attributes":{"ID":376090,"DIS_CODE":0,"TOWNNAME":"南區","LI":"喜東里","LIN":"10鄰","STREET":"明興路","SECT":" ","MAREA":" ","LANE":"６１９巷","ALLEY":" ","HOUSE_NO":"２號之２７","E_COORD97":166148.95000000001,"N_COORD97":2537816.8500000001,"ADDRESS":"明興路６１９巷２號之２７","OBJECTID":376080},"geometry":{"x":166148.95000000019,"y":2537816.8499999978}},{"attributes":{"ID":376091,"DIS_CODE":0,"TOWNNAME":"安平區","LI":"國平里","LIN":"10鄰","STREET":"建平一街","SECT":" ","MAREA":" ","LANE":"２０６巷","ALLEY":" ","HOUSE_NO":"１５號","E_COORD97":165487.60999999999,"N_COORD97":2542840.5,"ADDRESS":"建平一街２０６巷１５號","OBJECTID":376081},"geometry":{"x":165487.61000000127,"y":2542840.5}},{"attributes":{"ID":376092,"DIS_CODE":0,"TOWNNAME":"安平區","LI":"國平里","LIN":"10鄰","STREET":"建平一街","SECT":" ","MAREA":" ","LANE":"２０６巷","ALLEY":" ","HOUSE_NO":"１９號","E_COORD97":165488.88,"N_COORD97":2542848.9100000001,"ADDRESS":"建平一街２０６巷１９號","OBJECTID":376082},"geometry":{"x":165488.88000000082,"y":2542848.910000002}},{"attributes":{"ID":376093,"DIS_CODE":0,"TOWNNAME":"安平區","LI":"國平里","LIN":"10鄰","STREET":"建平一街","SECT":" ","MAREA":" ","LANE":"２０６巷","ALLEY":" ","HOUSE_NO":"２１號","E_COORD97":165489.82999999999,"N_COORD97":2542853.8399999999,"ADDRESS":"建平一街２０６巷２１號","OBJECTID":376083},"geometry":{"x":165489.83000000007,"y":2542853.8399999999}},{"attributes":{"ID":376094,"DIS_CODE":0,"TOWNNAME":"安平區","LI":"國平里","LIN":"10鄰","STREET":"建平一街","SECT":" ","MAREA":" ","LANE":"２０６巷","ALLEY":" ","HOUSE_NO":"４１號","E_COORD97":165494.91,"N_COORD97":2542898.29,"ADDRESS":"建平一街２０６巷４１號","OBJECTID":376084},"geometry":{"x":165494.90999999922,"y":2542898.2899999991}},{"attributes":{"ID":376095,"DIS_CODE":0,"TOWNNAME":"安平區","LI":"國平里","LIN":"10鄰","STREET":"建平一街","SECT":" ","MAREA":" ","LANE":"２０６巷","ALLEY":" ","HOUSE_NO":"３９號","E_COORD97":165494.75,"N_COORD97":2542893.8399999999,"ADDRESS":"建平一街２０６巷３９號","OBJECTID":376085},"geometry":{"x":165494.75000000093,"y":2542893.8400000017}},{"attributes":{"ID":376096,"DIS_CODE":0,"TOWNNAME":"安平區","LI":"國平里","LIN":"10鄰","STREET":"建平一街","SECT":" ","MAREA":" ","LANE":"２０６巷","ALLEY":" ","HOUSE_NO":"３７號","E_COORD97":165494.12,"N_COORD97":2542889.0800000001,"ADDRESS":"建平一街２０６巷３７號","OBJECTID":376086},"geometry":{"x":165494.12000000104,"y":2542889.0800000019}},{"attributes":{"ID":376097,"DIS_CODE":0,"TOWNNAME":"安平區","LI":"國平里","LIN":"10鄰","STREET":"建平一街","SECT":" ","MAREA":" ","LANE":"２０６巷","ALLEY":" ","HOUSE_NO":"３５號","E_COORD97":165493.32999999999,"N_COORD97":2542885.1099999999,"ADDRESS":"建平一街２０６巷３５號","OBJECTID":376087},"geometry":{"x":165493.33000000007,"y":2542885.1100000013}},{"attributes":{"ID":376098,"DIS_CODE":0,"TOWNNAME":"安平區","LI":"國平里","LIN":"10鄰","STREET":"建平一街","SECT":" ","MAREA":" ","LANE":"２０６巷","ALLEY":" ","HOUSE_NO":"３３號","E_COORD97":165492.69,"N_COORD97":2542880.6600000001,"ADDRESS":"建平一街２０６巷３３號","OBJECTID":376088},"geometry":{"x":165492.69000000041,"y":2542880.6600000039}},{"attributes":{"ID":376099,"DIS_CODE":0,"TOWNNAME":"安平區","LI":"國平里","LIN":"10鄰","STREET":"建平一街","SECT":" ","MAREA":" ","LANE":"２０６巷","ALLEY":" ","HOUSE_NO":"３１號","E_COORD97":165492.85000000001,"N_COORD97":2542876.3799999999,"ADDRESS":"建平一街２０６巷３１號","OBJECTID":376089},"geometry":{"x":165492.84999999963,"y":2542876.379999999}},{"attributes":{"ID":376100,"DIS_CODE":0,"TOWNNAME":"安平區","LI":"國平里","LIN":"10鄰","STREET":"建平一街","SECT":" ","MAREA":" ","LANE":"２０６巷","ALLEY":" ","HOUSE_NO":"２９號","E_COORD97":165492.20999999999,"N_COORD97":2542871.77,"ADDRESS":"建平一街２０６巷２９號","OBJECTID":376090},"geometry":{"x":165492.20999999996,"y":2542871.7699999996}},{"attributes":{"ID":376101,"DIS_CODE":0,"TOWNNAME":"鹽水區","LI":"武廟里","LIN":"10鄰","STREET":"武廟路","SECT":" ","MAREA":" ","LANE":"７０巷","ALLEY":" ","HOUSE_NO":"１４號","E_COORD97":175030.70000000001,"N_COORD97":2580094.5699999998,"ADDRESS":"武廟路７０巷１４號","OBJECTID":376091},"geometry":{"x":175030.70000000112,"y":2580094.570000004}},{"attributes":{"ID":376102,"DIS_CODE":0,"TOWNNAME":"鹽水區","LI":"武廟里","LIN":"10鄰","STREET":"武廟路","SECT":" ","MAREA":" ","LANE":"７０巷","ALLEY":" ","HOUSE_NO":"１７號之１","E_COORD97":175007.73000000001,"N_COORD97":2580079.2999999998,"ADDRESS":"武廟路７０巷１７號之１","OBJECTID":376092},"geometry":{"x":175007.73000000045,"y":2580079.3000000007}},{"attributes":{"ID":376103,"DIS_CODE":0,"TOWNNAME":"鹽水區","LI":"武廟里","LIN":"10鄰","STREET":"武廟路","SECT":" ","MAREA":" ","LANE":"７０巷","ALLEY":" ","HOUSE_NO":"１７號","E_COORD97":175014.91,"N_COORD97":2580071.2200000002,"ADDRESS":"武廟路７０巷１７號","OBJECTID":376093},"geometry":{"x":175014.91000000015,"y":2580071.2200000025}},{"attributes":{"ID":376104,"DIS_CODE":0,"TOWNNAME":"鹽水區","LI":"武廟里","LIN":"10鄰","STREET":"武廟路","SECT":" ","MAREA":" ","LANE":"７０巷","ALLEY":" ","HOUSE_NO":"１８號","E_COORD97":175027.04999999999,"N_COORD97":2580081.4300000002,"ADDRESS":"武廟路７０巷１８號","OBJECTID":376094},"geometry":{"x":175027.04999999981,"y":2580081.4300000016}},{"attributes":{"ID":376105,"DIS_CODE":0,"TOWNNAME":"鹽水區","LI":"武廟里","LIN":"10鄰","STREET":"武廟路","SECT":" ","MAREA":" ","LANE":"７０巷","ALLEY":" ","HOUSE_NO":"１９號","E_COORD97":174997.01000000001,"N_COORD97":2580088.2200000002,"ADDRESS":"武廟路７０巷１９號","OBJECTID":376095},"geometry":{"x":174997.00999999978,"y":2580088.2200000025}},{"attributes":{"ID":376106,"DIS_CODE":0,"TOWNNAME":"鹽水區","LI":"武廟里","LIN":"10鄰","STREET":"武廟路","SECT":" ","MAREA":" ","LANE":"７０巷","ALLEY":" ","HOUSE_NO":"２０號","E_COORD97":175034.62,"N_COORD97":2580082.6600000001,"ADDRESS":"武廟路７０巷２０號","OBJECTID":376096},"geometry":{"x":175034.62000000104,"y":2580082.6600000001}},{"attributes":{"ID":376107,"DIS_CODE":0,"TOWNNAME":"鹽水區","LI":"武廟里","LIN":"10鄰","STREET":"武廟路","SECT":" ","MAREA":" ","LANE":"７０巷","ALLEY":" ","HOUSE_NO":"２１號","E_COORD97":174982.67999999999,"N_COORD97":2580089.52,"ADDRESS":"武廟路７０巷２１號","OBJECTID":376097},"geometry":{"x":174982.68000000063,"y":2580089.5199999996}},{"attributes":{"ID":376108,"DIS_CODE":0,"TOWNNAME":"鹽水區","LI":"武廟里","LIN":"10鄰","STREET":"武廟路","SECT":" ","MAREA":" ","LANE":"７０巷","ALLEY":" ","HOUSE_NO":"２２號","E_COORD97":175011.34,"N_COORD97":2580090.8700000001,"ADDRESS":"武廟路７０巷２２號","OBJECTID":376098},"geometry":{"x":175011.33999999985,"y":2580090.8700000029}},{"attributes":{"ID":376109,"DIS_CODE":0,"TOWNNAME":"永康區","LI":"正強里","LIN":"10鄰","STREET":"正義街","SECT":" ","MAREA":" ","LANE":"１０１巷","ALLEY":" ","HOUSE_NO":"１２號","E_COORD97":173419.34,"N_COORD97":2547513.5099999998,"ADDRESS":"正義街１０１巷１２號","OBJECTID":376099},"geometry":{"x":173419.33999999985,"y":2547513.5100000016}},{"attributes":{"ID":376110,"DIS_CODE":0,"TOWNNAME":"南區","LI":"喜東里","LIN":"10鄰","STREET":"明興路","SECT":" ","MAREA":" ","LANE":"６１１巷","ALLEY":" ","HOUSE_NO":"２６５號之１０","E_COORD97":166504.78,"N_COORD97":2538333.5699999998,"ADDRESS":"明興路６１１巷２６５號之１０","OBJECTID":376100},"geometry":{"x":166504.78000000119,"y":2538333.5700000003}},{"attributes":{"ID":376111,"DIS_CODE":0,"TOWNNAME":"南區","LI":"省躬里","LIN":"10鄰","STREET":"灣裡路","SECT":" ","MAREA":" ","LANE":"６２巷","ALLEY":" ","HOUSE_NO":"４６號","E_COORD97":165693.42999999999,"N_COORD97":2537159.4500000002,"ADDRESS":"灣裡路６２巷４６號","OBJECTID":376101},"geometry":{"x":165693.43000000063,"y":2537159.4500000011}},{"attributes":{"ID":376112,"DIS_CODE":0,"TOWNNAME":"南區","LI":"省躬里","LIN":"10鄰","STREET":"灣裡路","SECT":" ","MAREA":" ","LANE":"６２巷","ALLEY":" ","HOUSE_NO":"４８號","E_COORD97":165690.10000000001,"N_COORD97":2537156.96,"ADDRESS":"灣裡路６２巷４８號","OBJECTID":376102},"geometry":{"x":165690.10000000056,"y":2537156.9600000028}},{"attributes":{"ID":376113,"DIS_CODE":0,"TOWNNAME":"北區","LI":"大港里","LIN":"10鄰","STREET":"大興街","SECT":" ","MAREA":" ","LANE":"２８０巷","ALLEY":" ","HOUSE_NO":"１８號","E_COORD97":166606.41,"N_COORD97":2545721.8900000001,"ADDRESS":"大興街２８０巷１８號","OBJECTID":376103},"geometry":{"x":166606.41000000015,"y":2545721.8900000025}},{"attributes":{"ID":376114,"DIS_CODE":0,"TOWNNAME":"北區","LI":"大港里","LIN":"10鄰","STREET":"大興街","SECT":" ","MAREA":" ","LANE":"２８０巷","ALLEY":" ","HOUSE_NO":"１９號","E_COORD97":166592.51999999999,"N_COORD97":2545731.73,"ADDRESS":"大興街２８０巷１９號","OBJECTID":376104},"geometry":{"x":166592.52000000048,"y":2545731.7299999986}},{"attributes":{"ID":376115,"DIS_CODE":0,"TOWNNAME":"北區","LI":"大港里","LIN":"10鄰","STREET":"大興街","SECT":" ","MAREA":" ","LANE":"２８０巷","ALLEY":" ","HOUSE_NO":"１號","E_COORD97":166600.62,"N_COORD97":2545694.3300000001,"ADDRESS":"大興街２８０巷１號","OBJECTID":376105},"geometry":{"x":166600.62000000104,"y":2545694.3300000019}},{"attributes":{"ID":376116,"DIS_CODE":0,"TOWNNAME":"北區","LI":"大港里","LIN":"10鄰","STREET":"大興街","SECT":" ","MAREA":" ","LANE":"２８０巷","ALLEY":" ","HOUSE_NO":"２１號","E_COORD97":166591.59,"N_COORD97":2545735.96,"ADDRESS":"大興街２８０巷２１號","OBJECTID":376106},"geometry":{"x":166591.58999999985,"y":2545735.9600000009}},{"attributes":{"ID":376117,"DIS_CODE":0,"TOWNNAME":"北區","LI":"大港里","LIN":"10鄰","STREET":"大興街","SECT":" ","MAREA":" ","LANE":"２８０巷","ALLEY":" ","HOUSE_NO":"２３號","E_COORD97":166590.16,"N_COORD97":2545740.5600000001,"ADDRESS":"大興街２８０巷２３號","OBJECTID":376107},"geometry":{"x":166590.16000000201,"y":2545740.5600000024}},{"attributes":{"ID":376118,"DIS_CODE":0,"TOWNNAME":"北區","LI":"大港里","LIN":"10鄰","STREET":"大興街","SECT":" ","MAREA":" ","LANE":"２８０巷","ALLEY":" ","HOUSE_NO":"２５號","E_COORD97":166589.75,"N_COORD97":2545744.75,"ADDRESS":"大興街２８０巷２５號","OBJECTID":376108},"geometry":{"x":166589.75000000093,"y":2545744.7500000037}},{"attributes":{"ID":376119,"DIS_CODE":0,"TOWNNAME":"北區","LI":"大港里","LIN":"10鄰","STREET":"大興街","SECT":" ","MAREA":" ","LANE":"２８０巷","ALLEY":" ","HOUSE_NO":"２７號","E_COORD97":166588.81,"N_COORD97":2545748.7999999998,"ADDRESS":"大興街２８０巷２７號","OBJECTID":376109},"geometry":{"x":166588.81000000052,"y":2545748.8000000045}},{"attributes":{"ID":376120,"DIS_CODE":0,"TOWNNAME":"北區","LI":"大港里","LIN":"10鄰","STREET":"大興街","SECT":" ","MAREA":" ","LANE":"２８０巷","ALLEY":" ","HOUSE_NO":"２９號","E_COORD97":166587.85000000001,"N_COORD97":2545752.6800000002,"ADDRESS":"大興街２８０巷２９號","OBJECTID":376110},"geometry":{"x":166587.84999999963,"y":2545752.6800000016}},{"attributes":{"ID":376121,"DIS_CODE":0,"TOWNNAME":"北區","LI":"大港里","LIN":"10鄰","STREET":"大興街","SECT":" ","MAREA":" ","LANE":"２８０巷","ALLEY":" ","HOUSE_NO":"２號","E_COORD97":166614.14000000001,"N_COORD97":2545687.1200000001,"ADDRESS":"大興街２８０巷２號","OBJECTID":376111},"geometry":{"x":166614.1400000006,"y":2545687.1200000029}},{"attributes":{"ID":376122,"DIS_CODE":0,"TOWNNAME":"北區","LI":"大港里","LIN":"10鄰","STREET":"大興街","SECT":" ","MAREA":" ","LANE":"２８０巷","ALLEY":" ","HOUSE_NO":"３１號","E_COORD97":166586.76999999999,"N_COORD97":2545757.2599999998,"ADDRESS":"大興街２８０巷３１號","OBJECTID":376112},"geometry":{"x":166586.76999999955,"y":2545757.2599999998}},{"attributes":{"ID":376123,"DIS_CODE":0,"TOWNNAME":"北區","LI":"大港里","LIN":"10鄰","STREET":"大興街","SECT":" ","MAREA":" ","LANE":"２８０巷","ALLEY":" ","HOUSE_NO":"３３號","E_COORD97":166586.85000000001,"N_COORD97":2545760.8999999999,"ADDRESS":"大興街２８０巷３３號","OBJECTID":376113},"geometry":{"x":166586.85000000056,"y":2545760.9000000004}},{"attributes":{"ID":376124,"DIS_CODE":0,"TOWNNAME":"北區","LI":"大港里","LIN":"10鄰","STREET":"大興街","SECT":" ","MAREA":" ","LANE":"２８０巷","ALLEY":" ","HOUSE_NO":"３號","E_COORD97":166599.63,"N_COORD97":2545697.6800000002,"ADDRESS":"大興街２８０巷３號","OBJECTID":376114},"geometry":{"x":166599.62999999989,"y":2545697.6800000034}},{"attributes":{"ID":376125,"DIS_CODE":0,"TOWNNAME":"北區","LI":"大港里","LIN":"10鄰","STREET":"大興街","SECT":" ","MAREA":" ","LANE":"２８０巷","ALLEY":" ","HOUSE_NO":"４號","E_COORD97":166615.16,"N_COORD97":2545690.96,"ADDRESS":"大興街２８０巷４號","OBJECTID":376115},"geometry":{"x":166615.16000000015,"y":2545690.9600000028}},{"attributes":{"ID":376126,"DIS_CODE":0,"TOWNNAME":"北區","LI":"大港里","LIN":"10鄰","STREET":"大興街","SECT":" ","MAREA":" ","LANE":"２８０巷","ALLEY":" ","HOUSE_NO":"５號","E_COORD97":166598.51999999999,"N_COORD97":2545701.9199999999,"ADDRESS":"大興街２８０巷５號","OBJECTID":376116},"geometry":{"x":166598.51999999955,"y":2545701.9199999999}},{"attributes":{"ID":376127,"DIS_CODE":0,"TOWNNAME":"北區","LI":"大港里","LIN":"10鄰","STREET":"大興街","SECT":" ","MAREA":" ","LANE":"２８０巷","ALLEY":" ","HOUSE_NO":"６號","E_COORD97":166612.95999999999,"N_COORD97":2545695.8100000001,"ADDRESS":"大興街２８０巷６號","OBJECTID":376117},"geometry":{"x":166612.95999999996,"y":2545695.8100000024}},{"attributes":{"ID":376128,"DIS_CODE":0,"TOWNNAME":"北區","LI":"大港里","LIN":"10鄰","STREET":"大興街","SECT":" ","MAREA":" ","LANE":"２８０巷","ALLEY":" ","HOUSE_NO":"７號","E_COORD97":166597.38,"N_COORD97":2545705.6299999999,"ADDRESS":"大興街２８０巷７號","OBJECTID":376118},"geometry":{"x":166597.38000000082,"y":2545705.629999999}},{"attributes":{"ID":376129,"DIS_CODE":0,"TOWNNAME":"北區","LI":"大港里","LIN":"10鄰","STREET":"大興街","SECT":" ","MAREA":" ","LANE":"２８０巷","ALLEY":" ","HOUSE_NO":"８號","E_COORD97":166612.14999999999,"N_COORD97":2545699.9399999999,"ADDRESS":"大興街２８０巷８號","OBJECTID":376119},"geometry":{"x":166612.15000000037,"y":2545699.9400000013}},{"attributes":{"ID":376130,"DIS_CODE":0,"TOWNNAME":"北區","LI":"大港里","LIN":"10鄰","STREET":"大興街","SECT":" ","MAREA":" ","LANE":"２８０巷","ALLEY":" ","HOUSE_NO":"９號","E_COORD97":166596.64999999999,"N_COORD97":2545710.6499999999,"ADDRESS":"大興街２８０巷９號","OBJECTID":376120},"geometry":{"x":166596.65000000037,"y":2545710.6500000004}},{"attributes":{"ID":376131,"DIS_CODE":0,"TOWNNAME":"北區","LI":"大和里","LIN":"10鄰","STREET":"大港街","SECT":" ","MAREA":" ","LANE":"３８巷","ALLEY":" ","HOUSE_NO":"５號","E_COORD97":167149.26000000001,"N_COORD97":2546109.4399999999,"ADDRESS":"大港街３８巷５號","OBJECTID":376121},"geometry":{"x":167149.26000000071,"y":2546109.4400000032}},{"attributes":{"ID":376132,"DIS_CODE":0,"TOWNNAME":"北區","LI":"大和里","LIN":"10鄰","STREET":"大港街","SECT":" ","MAREA":" ","LANE":"３８巷","ALLEY":" ","HOUSE_NO":"７號","E_COORD97":167148.54000000001,"N_COORD97":2546113.73,"ADDRESS":"大港街３８巷７號","OBJECTID":376122},"geometry":{"x":167148.5400000019,"y":2546113.7300000004}},{"attributes":{"ID":376133,"DIS_CODE":0,"TOWNNAME":"北區","LI":"大和里","LIN":"10鄰","STREET":"大港街","SECT":" ","MAREA":" ","LANE":"３８巷","ALLEY":" ","HOUSE_NO":"９號","E_COORD97":167147.29999999999,"N_COORD97":2546118.1499999999,"ADDRESS":"大港街３８巷９號","OBJECTID":376123},"geometry":{"x":167147.30000000075,"y":2546118.1500000004}},{"attributes":{"ID":376134,"DIS_CODE":0,"TOWNNAME":"北區","LI":"賢北里","LIN":"10鄰","STREET":"賢北街","SECT":" ","MAREA":" ","LANE":"１９巷","ALLEY":" ","HOUSE_NO":"５０號","E_COORD97":166199.75,"N_COORD97":2545256.46,"ADDRESS":"賢北街１９巷５０號","OBJECTID":376124},"geometry":{"x":166199.75000000093,"y":2545256.4600000028}},{"attributes":{"ID":376135,"DIS_CODE":0,"TOWNNAME":"北區","LI":"賢北里","LIN":"10鄰","STREET":"賢北街","SECT":" ","MAREA":" ","LANE":"１９巷","ALLEY":" ","HOUSE_NO":"５２號","E_COORD97":166195.57999999999,"N_COORD97":2545254.79,"ADDRESS":"賢北街１９巷５２號","OBJECTID":376125},"geometry":{"x":166195.58000000194,"y":2545254.7899999991}},{"attributes":{"ID":376136,"DIS_CODE":0,"TOWNNAME":"北區","LI":"賢北里","LIN":"10鄰","STREET":"賢北街","SECT":" ","MAREA":" ","LANE":"１９巷","ALLEY":" ","HOUSE_NO":"５４號","E_COORD97":166192.45000000001,"N_COORD97":2545253.3300000001,"ADDRESS":"賢北街１９巷５４號","OBJECTID":376126},"geometry":{"x":166192.45000000019,"y":2545253.3300000019}},{"attributes":{"ID":376137,"DIS_CODE":0,"TOWNNAME":"北區","LI":"賢北里","LIN":"10鄰","STREET":"賢北街","SECT":" ","MAREA":" ","LANE":"１９巷","ALLEY":" ","HOUSE_NO":"５６號","E_COORD97":166188.28,"N_COORD97":2545251.8799999999,"ADDRESS":"賢北街１９巷５６號","OBJECTID":376127},"geometry":{"x":166188.28000000119,"y":2545251.8800000008}},{"attributes":{"ID":376138,"DIS_CODE":0,"TOWNNAME":"北區","LI":"賢北里","LIN":"10鄰","STREET":"賢北街","SECT":" ","MAREA":" ","LANE":"１９巷","ALLEY":" ","HOUSE_NO":"５８號","E_COORD97":166183.28,"N_COORD97":2545249.5899999999,"ADDRESS":"賢北街１９巷５８號","OBJECTID":376128},"geometry":{"x":166183.28000000119,"y":2545249.5899999999}},{"attributes":{"ID":376139,"DIS_CODE":0,"TOWNNAME":"北區","LI":"賢北里","LIN":"10鄰","STREET":"賢北街","SECT":" ","MAREA":" ","LANE":"１９巷","ALLEY":" ","HOUSE_NO":"６０號","E_COORD97":166180.14999999999,"N_COORD97":2545248.1299999999,"ADDRESS":"賢北街１９巷６０號","OBJECTID":376129},"geometry":{"x":166180.15000000224,"y":2545248.129999999}},{"attributes":{"ID":376140,"DIS_CODE":0,"TOWNNAME":"北區","LI":"賢北里","LIN":"10鄰","STREET":"賢北街","SECT":" ","MAREA":" ","LANE":"１９巷","ALLEY":" ","HOUSE_NO":"６２號","E_COORD97":166176.19,"N_COORD97":2545246.25,"ADDRESS":"賢北街１９巷６２號","OBJECTID":376130},"geometry":{"x":166176.19000000041,"y":2545246.2499999981}},{"attributes":{"ID":376141,"DIS_CODE":0,"TOWNNAME":"北區","LI":"賢北里","LIN":"10鄰","STREET":"賢北街","SECT":" ","MAREA":" ","LANE":"１９巷","ALLEY":" ","HOUSE_NO":"６４號","E_COORD97":166172.64999999999,"N_COORD97":2545244.1699999999,"ADDRESS":"賢北街１９巷６４號","OBJECTID":376131},"geometry":{"x":166172.65000000037,"y":2545244.1700000018}},{"attributes":{"ID":376142,"DIS_CODE":0,"TOWNNAME":"北區","LI":"賢北里","LIN":"10鄰","STREET":"賢北街","SECT":" ","MAREA":" ","LANE":"１９巷","ALLEY":" ","HOUSE_NO":"６６號","E_COORD97":166165.97,"N_COORD97":2545241.8799999999,"ADDRESS":"賢北街１９巷６６號","OBJECTID":376132},"geometry":{"x":166165.97000000067,"y":2545241.8800000008}},{"attributes":{"ID":376143,"DIS_CODE":0,"TOWNNAME":"北區","LI":"賢北里","LIN":"10鄰","STREET":"賢北街","SECT":" ","MAREA":" ","LANE":"１９巷","ALLEY":" ","HOUSE_NO":"６８號","E_COORD97":166159.44,"N_COORD97":2545240.02,"ADDRESS":"賢北街１９巷６８號","OBJECTID":376133},"geometry":{"x":166159.43999999948,"y":2545240.0199999996}},{"attributes":{"ID":376144,"DIS_CODE":0,"TOWNNAME":"北區","LI":"賢北里","LIN":"10鄰","STREET":"賢北街","SECT":" ","MAREA":" ","LANE":"１９巷","ALLEY":" ","HOUSE_NO":"７０號","E_COORD97":166155.51999999999,"N_COORD97":2545238.5299999998,"ADDRESS":"賢北街１９巷７０號","OBJECTID":376134},"geometry":{"x":166155.52000000048,"y":2545238.5300000012}},{"attributes":{"ID":376145,"DIS_CODE":0,"TOWNNAME":"北區","LI":"賢北里","LIN":"10鄰","STREET":"賢北街","SECT":" ","MAREA":" ","LANE":"１９巷","ALLEY":" ","HOUSE_NO":"７２號","E_COORD97":166152.16,"N_COORD97":2545236.29,"ADDRESS":"賢北街１９巷７２號","OBJECTID":376135},"geometry":{"x":166152.16000000015,"y":2545236.290000001}},{"attributes":{"ID":376146,"DIS_CODE":0,"TOWNNAME":"北區","LI":"賢北里","LIN":"10鄰","STREET":"賢北街","SECT":" ","MAREA":" ","LANE":"１９巷","ALLEY":" ","HOUSE_NO":"７４號","E_COORD97":166148.42999999999,"N_COORD97":2545234.98,"ADDRESS":"賢北街１９巷７４號","OBJECTID":376136},"geometry":{"x":166148.4299999997,"y":2545234.9799999986}},{"attributes":{"ID":376147,"DIS_CODE":0,"TOWNNAME":"北區","LI":"賢北里","LIN":"10鄰","STREET":"賢北街","SECT":" ","MAREA":" ","LANE":"１９巷","ALLEY":" ","HOUSE_NO":"７６號","E_COORD97":166144.32000000001,"N_COORD97":2545232.9300000002,"ADDRESS":"賢北街１９巷７６號","OBJECTID":376137},"geometry":{"x":166144.3200000003,"y":2545232.9300000016}},{"attributes":{"ID":376148,"DIS_CODE":0,"TOWNNAME":"關廟區","LI":"新埔里","LIN":"10鄰","STREET":"新埔二街","SECT":" ","MAREA":" ","LANE":"７０巷","ALLEY":" ","HOUSE_NO":"１號","E_COORD97":181427.76999999999,"N_COORD97":2540992.25,"ADDRESS":"新埔二街７０巷１號","OBJECTID":376138},"geometry":{"x":181427.76999999955,"y":2540992.2500000019}},{"attributes":{"ID":376149,"DIS_CODE":0,"TOWNNAME":"關廟區","LI":"新埔里","LIN":"10鄰","STREET":"新埔二街","SECT":" ","MAREA":" ","LANE":"５３巷","ALLEY":" ","HOUSE_NO":"１號","E_COORD97":181415.47,"N_COORD97":2540976.25,"ADDRESS":"新埔二街５３巷１號","OBJECTID":376139},"geometry":{"x":181415.4700000016,"y":2540976.2500000019}},{"attributes":{"ID":376150,"DIS_CODE":0,"TOWNNAME":"關廟區","LI":"深坑里","LIN":"10鄰","STREET":"南雄路","SECT":"一段","MAREA":" ","LANE":"３４７巷","ALLEY":" ","HOUSE_NO":"２０號","E_COORD97":181768.07000000001,"N_COORD97":2537442.2999999998,"ADDRESS":"南雄路一段３４７巷２０號","OBJECTID":376140},"geometry":{"x":181768.07000000123,"y":2537442.3000000045}},{"attributes":{"ID":376151,"DIS_CODE":0,"TOWNNAME":"關廟區","LI":"關廟里","LIN":"10鄰","STREET":"大仁街","SECT":" ","MAREA":" ","LANE":"３４６巷","ALLEY":" ","HOUSE_NO":"６５號","E_COORD97":180890.92000000001,"N_COORD97":2539527.25,"ADDRESS":"大仁街３４６巷６５號","OBJECTID":376141},"geometry":{"x":180890.92000000086,"y":2539527.2500000019}},{"attributes":{"ID":376152,"DIS_CODE":0,"TOWNNAME":"關廟區","LI":"關廟里","LIN":"10鄰","STREET":"大仁街","SECT":" ","MAREA":" ","LANE":"３４６巷","ALLEY":" ","HOUSE_NO":"６８號","E_COORD97":180873.22,"N_COORD97":2539517.25,"ADDRESS":"大仁街３４６巷６８號","OBJECTID":376142},"geometry":{"x":180873.22000000067,"y":2539517.2500000019}},{"attributes":{"ID":376153,"DIS_CODE":0,"TOWNNAME":"關廟區","LI":"關廟里","LIN":"10鄰","STREET":"大仁街","SECT":" ","MAREA":" ","LANE":"３４６巷","ALLEY":" ","HOUSE_NO":"５５號","E_COORD97":180843.72,"N_COORD97":2539566.25,"ADDRESS":"大仁街３４６巷５５號","OBJECTID":376143},"geometry":{"x":180843.71999999974,"y":2539566.25}},{"attributes":{"ID":376154,"DIS_CODE":0,"TOWNNAME":"關廟區","LI":"關廟里","LIN":"10鄰","STREET":"大仁街","SECT":" ","MAREA":" ","LANE":"３４６巷","ALLEY":" ","HOUSE_NO":"６１號","E_COORD97":180860.92000000001,"N_COORD97":2539553.25,"ADDRESS":"大仁街３４６巷６１號","OBJECTID":376144},"geometry":{"x":180860.91999999993,"y":2539553.25}},{"attributes":{"ID":376155,"DIS_CODE":0,"TOWNNAME":"關廟區","LI":"南花里","LIN":"10鄰","STREET":"四維街","SECT":" ","MAREA":" ","LANE":"２０９巷","ALLEY":" ","HOUSE_NO":"２３號","E_COORD97":181803.20999999999,"N_COORD97":2540112.25,"ADDRESS":"四維街２０９巷２３號","OBJECTID":376145},"geometry":{"x":181803.20999999996,"y":2540112.25}},{"attributes":{"ID":376156,"DIS_CODE":0,"TOWNNAME":"關廟區","LI":"南花里","LIN":"10鄰","STREET":"四維街","SECT":" ","MAREA":" ","LANE":"２０９巷","ALLEY":" ","HOUSE_NO":"２６號","E_COORD97":181781.574058,"N_COORD97":2540139.79214,"ADDRESS":"四維街２０９巷２６號","OBJECTID":376146},"geometry":{"x":181781.574058,"y":2540139.7921409998}},{"attributes":{"ID":376157,"DIS_CODE":0,"TOWNNAME":"關廟區","LI":"深坑里","LIN":"10鄰","STREET":"南雄路","SECT":"一段","MAREA":" ","LANE":"３３３巷","ALLEY":" ","HOUSE_NO":"１０號","E_COORD97":181821.57000000001,"N_COORD97":2537411.2799999998,"ADDRESS":"南雄路一段３３３巷１０號","OBJECTID":376147},"geometry":{"x":181821.5700000003,"y":2537411.2800000012}},{"attributes":{"ID":376158,"DIS_CODE":0,"TOWNNAME":"關廟區","LI":"南花里","LIN":"10鄰","STREET":"四維街","SECT":" ","MAREA":" ","LANE":"２０９巷","ALLEY":" ","HOUSE_NO":"８號","E_COORD97":181824.80998600001,"N_COORD97":2540133.1246400001,"ADDRESS":"四維街２０９巷８號","OBJECTID":376148},"geometry":{"x":181824.80998599995,"y":2540133.1246440001}},{"attributes":{"ID":376159,"DIS_CODE":0,"TOWNNAME":"關廟區","LI":"深坑里","LIN":"10鄰","STREET":"南雄路","SECT":"一段","MAREA":" ","LANE":"３３３巷","ALLEY":" ","HOUSE_NO":"２０號","E_COORD97":181805.07000000001,"N_COORD97":2537399.2799999998,"ADDRESS":"南雄路一段３３３巷２０號","OBJECTID":376149},"geometry":{"x":181805.06999999937,"y":2537399.2799999993}},{"attributes":{"ID":376160,"DIS_CODE":0,"TOWNNAME":"新營區","LI":"南興里","LIN":"10鄰","STREET":"和平路","SECT":" ","MAREA":" ","LANE":"１０４巷","ALLEY":" ","HOUSE_NO":"４號","E_COORD97":179389.35999999999,"N_COORD97":2577565.6099999999,"ADDRESS":"和平路１０４巷４號","OBJECTID":376150},"geometry":{"x":179389.3600000022,"y":2577565.6099999994}},{"attributes":{"ID":376161,"DIS_CODE":0,"TOWNNAME":"南區","LI":"佛壇里","LIN":"10鄰","STREET":"明興路","SECT":" ","MAREA":" ","LANE":"１３５６巷","ALLEY":" ","HOUSE_NO":"１１號","E_COORD97":166308.85000000001,"N_COORD97":2535912.23,"ADDRESS":"明興路１３５６巷１１號","OBJECTID":376151},"geometry":{"x":166308.85000000056,"y":2535912.2300000004}},{"attributes":{"ID":376162,"DIS_CODE":0,"TOWNNAME":"南區","LI":"佛壇里","LIN":"10鄰","STREET":"明興路","SECT":" ","MAREA":" ","LANE":"１３５６巷","ALLEY":" ","HOUSE_NO":"１３號","E_COORD97":166302.45000000001,"N_COORD97":2535914.5699999998,"ADDRESS":"明興路１３５６巷１３號","OBJECTID":376152},"geometry":{"x":166302.45000000112,"y":2535914.570000004}},{"attributes":{"ID":376163,"DIS_CODE":0,"TOWNNAME":"南區","LI":"佛壇里","LIN":"10鄰","STREET":"明興路","SECT":" ","MAREA":" ","LANE":"１３５６巷","ALLEY":" ","HOUSE_NO":"１５號","E_COORD97":166294.98999999999,"N_COORD97":2535913.5,"ADDRESS":"明興路１３５６巷１５號","OBJECTID":376153},"geometry":{"x":166294.99000000115,"y":2535913.5}},{"attributes":{"ID":376164,"DIS_CODE":0,"TOWNNAME":"南區","LI":"佛壇里","LIN":"10鄰","STREET":"明興路","SECT":" ","MAREA":" ","LANE":"１３５６巷","ALLEY":" ","HOUSE_NO":"９號","E_COORD97":166313.97,"N_COORD97":2535916.0600000001,"ADDRESS":"明興路１３５６巷９號","OBJECTID":376154},"geometry":{"x":166313.96999999974,"y":2535916.0600000024}},{"attributes":{"ID":376165,"DIS_CODE":0,"TOWNNAME":"南區","LI":"佛壇里","LIN":"10鄰","STREET":"明興路","SECT":" ","MAREA":" ","LANE":"１３９８巷","ALLEY":" ","HOUSE_NO":"１號","E_COORD97":166328.44,"N_COORD97":2535831.6099999999,"ADDRESS":"明興路１３９８巷１號","OBJECTID":376155},"geometry":{"x":166328.44000000041,"y":2535831.6100000031}},{"attributes":{"ID":376166,"DIS_CODE":0,"TOWNNAME":"南區","LI":"佛壇里","LIN":"10鄰","STREET":"明興路","SECT":" ","MAREA":" ","LANE":"１３９８巷","ALLEY":" ","HOUSE_NO":"５號","E_COORD97":166318.63,"N_COORD97":2535833.5299999998,"ADDRESS":"明興路１３９８巷５號","OBJECTID":376156},"geometry":{"x":166318.62999999989,"y":2535833.5300000012}},{"attributes":{"ID":376167,"DIS_CODE":0,"TOWNNAME":"南區","LI":"喜東里","LIN":"10鄰","STREET":"明興路","SECT":" ","MAREA":" ","LANE":"６１９巷","ALLEY":" ","HOUSE_NO":"３３７號","E_COORD97":166684.94,"N_COORD97":2537958.5,"ADDRESS":"明興路６１９巷３３７號","OBJECTID":376157},"geometry":{"x":166684.94000000041,"y":2537958.5}},{"attributes":{"ID":376168,"DIS_CODE":0,"TOWNNAME":"歸仁區","LI":"六甲里","LIN":"10鄰","STREET":"六甲路","SECT":" ","MAREA":" ","LANE":"１５１巷","ALLEY":" ","HOUSE_NO":"３９號","E_COORD97":176132.01000000001,"N_COORD97":2539104.25,"ADDRESS":"六甲路１５１巷３９號","OBJECTID":376158},"geometry":{"x":176132.01000000071,"y":2539104.2500000019}},{"attributes":{"ID":376169,"DIS_CODE":0,"TOWNNAME":"歸仁區","LI":"八甲里","LIN":"10鄰","STREET":"大明二街","SECT":" ","MAREA":" ","LANE":"７５巷","ALLEY":" ","HOUSE_NO":"７號","E_COORD97":177816.51999999999,"N_COORD97":2541944.6099999999,"ADDRESS":"大明二街７５巷７號","OBJECTID":376159},"geometry":{"x":177816.52000000048,"y":2541944.6100000031}},{"attributes":{"ID":376170,"DIS_CODE":0,"TOWNNAME":"仁德區","LI":"大甲里","LIN":"20鄰","STREET":"行大街","SECT":" ","MAREA":" ","LANE":"４８０巷","ALLEY":" ","HOUSE_NO":"３２號","E_COORD97":169335.26000000001,"N_COORD97":2535419.2400000002,"ADDRESS":"行大街４８０巷３２號","OBJECTID":376160},"geometry":{"x":169335.26000000164,"y":2535419.2400000021}},{"attributes":{"ID":376171,"DIS_CODE":0,"TOWNNAME":"歸仁區","LI":"七甲里","LIN":"10鄰","STREET":"七甲一街","SECT":" ","MAREA":" ","LANE":"３６巷","ALLEY":" ","HOUSE_NO":"１０號","E_COORD97":177631.64000000001,"N_COORD97":2542404.6600000001,"ADDRESS":"七甲一街３６巷１０號","OBJECTID":376161},"geometry":{"x":177631.63999999966,"y":2542404.6600000001}},{"attributes":{"ID":376172,"DIS_CODE":0,"TOWNNAME":"歸仁區","LI":"文化里","LIN":"10鄰","STREET":"民族北街","SECT":" ","MAREA":" ","LANE":"２３１巷","ALLEY":" ","HOUSE_NO":"１０號","E_COORD97":177426.81,"N_COORD97":2541440.25,"ADDRESS":"民族北街２３１巷１０號","OBJECTID":376162},"geometry":{"x":177426.80999999959,"y":2541440.2500000019}},{"attributes":{"ID":376173,"DIS_CODE":0,"TOWNNAME":"歸仁區","LI":"武東里","LIN":"10鄰","STREET":"武東三街","SECT":" ","MAREA":" ","LANE":"４６巷","ALLEY":" ","HOUSE_NO":"７號","E_COORD97":175173.34,"N_COORD97":2535268.25,"ADDRESS":"武東三街４６巷７號","OBJECTID":376163},"geometry":{"x":175173.34000000078,"y":2535268.25}},{"attributes":{"ID":376174,"DIS_CODE":0,"TOWNNAME":"歸仁區","LI":"文化里","LIN":"10鄰","STREET":"民族北街","SECT":" ","MAREA":" ","LANE":"２３７巷","ALLEY":" ","HOUSE_NO":"７號","E_COORD97":177428.76000000001,"N_COORD97":2541470.25,"ADDRESS":"民族北街２３７巷７號","OBJECTID":376164},"geometry":{"x":177428.76000000071,"y":2541470.2500000019}},{"attributes":{"ID":376175,"DIS_CODE":0,"TOWNNAME":"歸仁區","LI":"六甲里","LIN":"10鄰","STREET":"六甲路","SECT":" ","MAREA":" ","LANE":"２０１巷","ALLEY":" ","HOUSE_NO":"１１號","E_COORD97":176078.91,"N_COORD97":2539148.25,"ADDRESS":"六甲路２０１巷１１號","OBJECTID":376165},"geometry":{"x":176078.91000000015,"y":2539148.2500000019}},{"attributes":{"ID":376176,"DIS_CODE":0,"TOWNNAME":"歸仁區","LI":"武東里","LIN":"10鄰","STREET":"武東三街","SECT":" ","MAREA":" ","LANE":"２０巷","ALLEY":" ","HOUSE_NO":"７號","E_COORD97":175258.34,"N_COORD97":2535230.25,"ADDRESS":"武東三街２０巷７號","OBJECTID":376166},"geometry":{"x":175258.34000000078,"y":2535230.25}},{"attributes":{"ID":376177,"DIS_CODE":0,"TOWNNAME":"歸仁區","LI":"八甲里","LIN":"10鄰","STREET":"大明二街","SECT":" ","MAREA":" ","LANE":"７５巷","ALLEY":" ","HOUSE_NO":"９號","E_COORD97":177809.32000000001,"N_COORD97":2541944.6099999999,"ADDRESS":"大明二街７５巷９號","OBJECTID":376167},"geometry":{"x":177809.3200000003,"y":2541944.6100000031}},{"attributes":{"ID":376178,"DIS_CODE":0,"TOWNNAME":"歸仁區","LI":"武東里","LIN":"10鄰","STREET":"武東三街","SECT":" ","MAREA":" ","LANE":"２０巷","ALLEY":" ","HOUSE_NO":"３０號","E_COORD97":175320.29000000001,"N_COORD97":2535275.25,"ADDRESS":"武東三街２０巷３０號","OBJECTID":376168},"geometry":{"x":175320.29000000004,"y":2535275.2500000037}},{"attributes":{"ID":376179,"DIS_CODE":0,"TOWNNAME":"歸仁區","LI":"武東里","LIN":"10鄰","STREET":"武東三街","SECT":" ","MAREA":" ","LANE":"４６巷","ALLEY":" ","HOUSE_NO":"１３號","E_COORD97":175175.69,"N_COORD97":2535280.25,"ADDRESS":"武東三街４６巷１３號","OBJECTID":376169},"geometry":{"x":175175.69000000041,"y":2535280.2500000019}},{"attributes":{"ID":376180,"DIS_CODE":0,"TOWNNAME":"歸仁區","LI":"新厝里","LIN":"10鄰","STREET":"中正三街","SECT":" ","MAREA":" ","LANE":"５６巷","ALLEY":" ","HOUSE_NO":"１２號","E_COORD97":177733.73999999999,"N_COORD97":2540518.48,"ADDRESS":"中正三街５６巷１２號","OBJECTID":376170},"geometry":{"x":177733.74000000209,"y":2540518.4800000004}},{"attributes":{"ID":376181,"DIS_CODE":0,"TOWNNAME":"歸仁區","LI":"新厝里","LIN":"10鄰","STREET":"中正三街","SECT":" ","MAREA":" ","LANE":"５６巷","ALLEY":" ","HOUSE_NO":"１６號","E_COORD97":177733.03,"N_COORD97":2540515.7400000002,"ADDRESS":"中正三街５６巷１６號","OBJECTID":376171},"geometry":{"x":177733.03000000026,"y":2540515.7400000002}},{"attributes":{"ID":376182,"DIS_CODE":0,"TOWNNAME":"歸仁區","LI":"新厝里","LIN":"10鄰","STREET":"中正三街","SECT":" ","MAREA":" ","LANE":"５６巷","ALLEY":" ","HOUSE_NO":"１８號","E_COORD97":177732.23999999999,"N_COORD97":2540512.9100000001,"ADDRESS":"中正三街５６巷１８號","OBJECTID":376172},"geometry":{"x":177732.24000000115,"y":2540512.910000002}},{"attributes":{"ID":376183,"DIS_CODE":0,"TOWNNAME":"歸仁區","LI":"新厝里","LIN":"10鄰","STREET":"中正三街","SECT":" ","MAREA":" ","LANE":"５６巷","ALLEY":" ","HOUSE_NO":"２０號","E_COORD97":177731.82999999999,"N_COORD97":2540510.1699999999,"ADDRESS":"中正三街５６巷２０號","OBJECTID":376173},"geometry":{"x":177731.83000000101,"y":2540510.1699999999}},{"attributes":{"ID":376184,"DIS_CODE":0,"TOWNNAME":"歸仁區","LI":"新厝里","LIN":"10鄰","STREET":"中正三街","SECT":" ","MAREA":" ","LANE":"５６巷","ALLEY":" ","HOUSE_NO":"２２號","E_COORD97":177731.07999999999,"N_COORD97":2540507.4199999999,"ADDRESS":"中正三街５６巷２２號","OBJECTID":376174},"geometry":{"x":177731.08000000007,"y":2540507.4199999999}},{"attributes":{"ID":376185,"DIS_CODE":0,"TOWNNAME":"歸仁區","LI":"八甲里","LIN":"10鄰","STREET":"中正北路","SECT":"一段","MAREA":" ","LANE":"５２５巷","ALLEY":" ","HOUSE_NO":"１３號","E_COORD97":177484.17000000001,"N_COORD97":2542034.73,"ADDRESS":"中正北路一段５２５巷１３號","OBJECTID":376175},"geometry":{"x":177484.16999999993,"y":2542034.7300000004}},{"attributes":{"ID":376186,"DIS_CODE":0,"TOWNNAME":"仁德區","LI":"土庫里","LIN":"11鄰","STREET":"土庫路","SECT":" ","MAREA":" ","LANE":"１１１巷","ALLEY":" ","HOUSE_NO":"３號","E_COORD97":174322.79000000001,"N_COORD97":2543174.9900000002,"ADDRESS":"土庫路１１１巷３號","OBJECTID":376176},"geometry":{"x":174322.79000000097,"y":2543174.9900000021}},{"attributes":{"ID":376187,"DIS_CODE":0,"TOWNNAME":"南區","LI":"竹溪里","LIN":"10鄰","STREET":"體育路","SECT":" ","MAREA":" ","LANE":"４３巷","ALLEY":" ","HOUSE_NO":"４６號","E_COORD97":168771.07999999999,"N_COORD97":2542187.8100000001,"ADDRESS":"體育路４３巷４６號","OBJECTID":376177},"geometry":{"x":168771.08000000101,"y":2542187.8100000005}},{"attributes":{"ID":376188,"DIS_CODE":0,"TOWNNAME":"南區","LI":"竹溪里","LIN":"10鄰","STREET":"體育路","SECT":" ","MAREA":" ","LANE":"４３巷","ALLEY":" ","HOUSE_NO":"３０號","E_COORD97":168788.07999999999,"N_COORD97":2542208.9300000002,"ADDRESS":"體育路４３巷３０號","OBJECTID":376178},"geometry":{"x":168788.08000000101,"y":2542208.9299999997}},{"attributes":{"ID":376189,"DIS_CODE":0,"TOWNNAME":"南區","LI":"竹溪里","LIN":"10鄰","STREET":"體育路","SECT":" ","MAREA":" ","LANE":"４３巷","ALLEY":" ","HOUSE_NO":"２４號","E_COORD97":168781.48999999999,"N_COORD97":2542209.2799999998,"ADDRESS":"體育路４３巷２４號","OBJECTID":376179},"geometry":{"x":168781.49000000209,"y":2542209.2800000012}},{"attributes":{"ID":376190,"DIS_CODE":0,"TOWNNAME":"南區","LI":"竹溪里","LIN":"10鄰","STREET":"體育路","SECT":" ","MAREA":" ","LANE":"４３巷","ALLEY":" ","HOUSE_NO":"２２號","E_COORD97":168778.37,"N_COORD97":2542208.9300000002,"ADDRESS":"體育路４３巷２２號","OBJECTID":376180},"geometry":{"x":168778.37000000011,"y":2542208.9299999997}},{"attributes":{"ID":376191,"DIS_CODE":0,"TOWNNAME":"南區","LI":"廣州里","LIN":"10鄰","STREET":"福吉一街","SECT":" ","MAREA":" ","LANE":"１８巷","ALLEY":" ","HOUSE_NO":"１１號","E_COORD97":167372.07999999999,"N_COORD97":2542787.7400000002,"ADDRESS":"福吉一街１８巷１１號","OBJECTID":376181},"geometry":{"x":167372.08000000194,"y":2542787.7400000002}},{"attributes":{"ID":376192,"DIS_CODE":0,"TOWNNAME":"南區","LI":"廣州里","LIN":"10鄰","STREET":"福吉一街","SECT":" ","MAREA":" ","LANE":"１８巷","ALLEY":" ","HOUSE_NO":"１３號","E_COORD97":167374.60999999999,"N_COORD97":2542791.54,"ADDRESS":"福吉一街１８巷１３號","OBJECTID":376182},"geometry":{"x":167374.61000000127,"y":2542791.5399999991}},{"attributes":{"ID":376193,"DIS_CODE":0,"TOWNNAME":"南區","LI":"廣州里","LIN":"10鄰","STREET":"福吉一街","SECT":" ","MAREA":" ","LANE":"１８巷","ALLEY":" ","HOUSE_NO":"１５號","E_COORD97":167380.10000000001,"N_COORD97":2542795.3300000001,"ADDRESS":"福吉一街１８巷１５號","OBJECTID":376183},"geometry":{"x":167380.10000000056,"y":2542795.3300000019}},{"attributes":{"ID":376194,"DIS_CODE":0,"TOWNNAME":"南區","LI":"廣州里","LIN":"10鄰","STREET":"福吉一街","SECT":" ","MAREA":" ","LANE":"１８巷","ALLEY":" ","HOUSE_NO":"１７號","E_COORD97":167385.17000000001,"N_COORD97":2542799.1299999999,"ADDRESS":"福吉一街１８巷１７號","OBJECTID":376184},"geometry":{"x":167385.17000000086,"y":2542799.1300000008}},{"attributes":{"ID":376195,"DIS_CODE":0,"TOWNNAME":"南區","LI":"廣州里","LIN":"10鄰","STREET":"福吉一街","SECT":" ","MAREA":" ","LANE":"１８巷","ALLEY":" ","HOUSE_NO":"１９號","E_COORD97":167388.54999999999,"N_COORD97":2542802.9199999999,"ADDRESS":"福吉一街１８巷１９號","OBJECTID":376185},"geometry":{"x":167388.54999999981,"y":2542802.9199999999}},{"attributes":{"ID":376196,"DIS_CODE":0,"TOWNNAME":"南區","LI":"廣州里","LIN":"10鄰","STREET":"福吉一街","SECT":" ","MAREA":" ","LANE":"１８巷","ALLEY":" ","HOUSE_NO":"１號","E_COORD97":167356.03,"N_COORD97":2542771.7200000002,"ADDRESS":"福吉一街１８巷１號","OBJECTID":376186},"geometry":{"x":167356.03000000119,"y":2542771.7200000007}},{"attributes":{"ID":376197,"DIS_CODE":0,"TOWNNAME":"南區","LI":"廣州里","LIN":"10鄰","STREET":"福吉一街","SECT":" ","MAREA":" ","LANE":"１８巷","ALLEY":" ","HOUSE_NO":"２１號","E_COORD97":167394.03,"N_COORD97":2542802.0800000001,"ADDRESS":"福吉一街１８巷２１號","OBJECTID":376187},"geometry":{"x":167394.03000000026,"y":2542802.0800000001}},{"attributes":{"ID":376198,"DIS_CODE":0,"TOWNNAME":"南區","LI":"廣州里","LIN":"10鄰","STREET":"福吉一街","SECT":" ","MAREA":" ","LANE":"１８巷","ALLEY":" ","HOUSE_NO":"２３號","E_COORD97":167399.10000000001,"N_COORD97":2542801.23,"ADDRESS":"福吉一街１８巷２３號","OBJECTID":376188},"geometry":{"x":167399.10000000056,"y":2542801.2300000004}},{"attributes":{"ID":376199,"DIS_CODE":0,"TOWNNAME":"南區","LI":"廣州里","LIN":"10鄰","STREET":"福吉一街","SECT":" ","MAREA":" ","LANE":"１８巷","ALLEY":" ","HOUSE_NO":"２５號","E_COORD97":167403.73999999999,"N_COORD97":2542806.71,"ADDRESS":"福吉一街１８巷２５號","OBJECTID":376189},"geometry":{"x":167403.74000000115,"y":2542806.7100000046}},{"attributes":{"ID":376200,"DIS_CODE":0,"TOWNNAME":"南區","LI":"廣州里","LIN":"10鄰","STREET":"福吉一街","SECT":" ","MAREA":" ","LANE":"１８巷","ALLEY":" ","HOUSE_NO":"３號","E_COORD97":167358.57000000001,"N_COORD97":2542774.25,"ADDRESS":"福吉一街１８巷３號","OBJECTID":376190},"geometry":{"x":167358.5700000003,"y":2542774.25}},{"attributes":{"ID":376201,"DIS_CODE":0,"TOWNNAME":"南區","LI":"廣州里","LIN":"10鄰","STREET":"福吉一街","SECT":" ","MAREA":" ","LANE":"１８巷","ALLEY":" ","HOUSE_NO":"５號","E_COORD97":167362.79000000001,"N_COORD97":2542776.7799999998,"ADDRESS":"福吉一街１８巷５號","OBJECTID":376191},"geometry":{"x":167362.79000000097,"y":2542776.7799999993}},{"attributes":{"ID":376202,"DIS_CODE":0,"TOWNNAME":"南區","LI":"廣州里","LIN":"10鄰","STREET":"福吉一街","SECT":" ","MAREA":" ","LANE":"１８巷","ALLEY":" ","HOUSE_NO":"７號","E_COORD97":167365.75,"N_COORD97":2542779.73,"ADDRESS":"福吉一街１８巷７號","OBJECTID":376192},"geometry":{"x":167365.75000000186,"y":2542779.7300000023}},{"attributes":{"ID":376203,"DIS_CODE":0,"TOWNNAME":"南區","LI":"廣州里","LIN":"10鄰","STREET":"福吉一街","SECT":" ","MAREA":" ","LANE":"１８巷","ALLEY":" ","HOUSE_NO":"９號","E_COORD97":167369.97,"N_COORD97":2542783.9500000002,"ADDRESS":"福吉一街１８巷９號","OBJECTID":376193},"geometry":{"x":167369.96999999974,"y":2542783.9500000011}},{"attributes":{"ID":376204,"DIS_CODE":0,"TOWNNAME":"南區","LI":"田寮里","LIN":"10鄰","STREET":"新興路","SECT":" ","MAREA":" ","LANE":"１１３巷","ALLEY":" ","HOUSE_NO":"３０號","E_COORD97":167565.28,"N_COORD97":2542037.3999999999,"ADDRESS":"新興路１１３巷３０號","OBJECTID":376194},"geometry":{"x":167565.28000000026,"y":2542037.4000000004}},{"attributes":{"ID":376205,"DIS_CODE":0,"TOWNNAME":"南區","LI":"田寮里","LIN":"10鄰","STREET":"新興路","SECT":" ","MAREA":" ","LANE":"１１３巷","ALLEY":" ","HOUSE_NO":"３２號","E_COORD97":167564.01999999999,"N_COORD97":2542032.8900000001,"ADDRESS":"新興路１１３巷３２號","OBJECTID":376195},"geometry":{"x":167564.02000000048,"y":2542032.8900000025}},{"attributes":{"ID":376206,"DIS_CODE":0,"TOWNNAME":"南區","LI":"田寮里","LIN":"10鄰","STREET":"新興路","SECT":" ","MAREA":" ","LANE":"１１３巷","ALLEY":" ","HOUSE_NO":"３４號","E_COORD97":167562.97,"N_COORD97":2542028.8999999999,"ADDRESS":"新興路１１３巷３４號","OBJECTID":376196},"geometry":{"x":167562.97000000067,"y":2542028.9000000022}},{"attributes":{"ID":376207,"DIS_CODE":0,"TOWNNAME":"南區","LI":"田寮里","LIN":"10鄰","STREET":"新興路","SECT":" ","MAREA":" ","LANE":"１１３巷","ALLEY":" ","HOUSE_NO":"３６號","E_COORD97":167562.13,"N_COORD97":2542024.5,"ADDRESS":"新興路１１３巷３６號","OBJECTID":376197},"geometry":{"x":167562.13000000082,"y":2542024.5000000019}},{"attributes":{"ID":376208,"DIS_CODE":0,"TOWNNAME":"南區","LI":"田寮里","LIN":"10鄰","STREET":"新興路","SECT":" ","MAREA":" ","LANE":"１１３巷","ALLEY":" ","HOUSE_NO":"３８號","E_COORD97":167561.29000000001,"N_COORD97":2542019.8799999999,"ADDRESS":"新興路１１３巷３８號","OBJECTID":376198},"geometry":{"x":167561.29000000004,"y":2542019.879999999}},{"attributes":{"ID":376209,"DIS_CODE":0,"TOWNNAME":"南區","LI":"田寮里","LIN":"10鄰","STREET":"新興路","SECT":" ","MAREA":" ","LANE":"１１３巷","ALLEY":" ","HOUSE_NO":"３９號","E_COORD97":167586.25,"N_COORD97":2542063.1000000001,"ADDRESS":"新興路１１３巷３９號","OBJECTID":376199},"geometry":{"x":167586.25000000093,"y":2542063.0999999996}},{"attributes":{"ID":376210,"DIS_CODE":0,"TOWNNAME":"仁德區","LI":"上崙里","LIN":"13鄰","STREET":"德崙路","SECT":" ","MAREA":" ","LANE":"４５０巷","ALLEY":" ","HOUSE_NO":"４３號","E_COORD97":174197,"N_COORD97":2537962.2599999998,"ADDRESS":"德崙路４５０巷４３號","OBJECTID":376200},"geometry":{"x":174197,"y":2537962.2599999998}}]}