{"displayFieldName":"TOWNNAME","fieldAliases":{"ID":"ID","DIS_CODE":"DIS_CODE","TOWNNAME":"TOWNNAME","LI":"LI","LIN":"LIN","STREET":"STREET","SECT":"SECT","MAREA":"MAREA","LANE":"LANE","ALLEY":"ALLEY","HOUSE_NO":"HOUSE_NO","E_COORD97":"E_COORD97","N_COORD97":"N_COORD97","ADDRESS":"ADDRESS","OBJECTID":"OBJECTID"},"geometryType":"esriGeometryPoint","spatialReference":{"wkid":102443,"latestWkid":3826},"fields":[{"name":"ID","type":"esriFieldTypeDouble","alias":"ID"},{"name":"DIS_CODE","type":"esriFieldTypeInteger","alias":"DIS_CODE"},{"name":"TOWNNAME","type":"esriFieldTypeString","alias":"TOWNNAME","length":8},{"name":"LI","type":"esriFieldTypeString","alias":"LI","length":8},{"name":"LIN","type":"esriFieldTypeString","alias":"LIN","length":12},{"name":"STREET","type":"esriFieldTypeString","alias":"STREET","length":20},{"name":"SECT","type":"esriFieldTypeString","alias":"SECT","length":8},{"name":"MAREA","type":"esriFieldTypeString","alias":"MAREA","length":12},{"name":"LANE","type":"esriFieldTypeString","alias":"LANE","length":10},{"name":"ALLEY","type":"esriFieldTypeString","alias":"ALLEY","length":10},{"name":"HOUSE_NO","type":"esriFieldTypeString","alias":"HOUSE_NO","length":20},{"name":"E_COORD97","type":"esriFieldTypeDouble","alias":"E_COORD97"},{"name":"N_COORD97","type":"esriFieldTypeDouble","alias":"N_COORD97"},{"name":"ADDRESS","type":"esriFieldTypeString","alias":"ADDRESS","length":50},{"name":"OBJECTID","type":"esriFieldTypeOID","alias":"OBJECTID"}],"features":[{"attributes":{"ID":576428,"DIS_CODE":0,"TOWNNAME":"永康區","LI":"二王里","LIN":"3鄰","STREET":"二王路","SECT":" ","MAREA":" ","LANE":" ","ALLEY":" ","HOUSE_NO":"８８號","E_COORD97":173016.35000000001,"N_COORD97":2546650.1299999999,"ADDRESS":"二王路８８號","OBJECTID":576401},"geometry":{"x":173016.35000000149,"y":2546650.1300000008}},{"attributes":{"ID":576429,"DIS_CODE":0,"TOWNNAME":"歸仁區","LI":"大廟里","LIN":"23鄰","STREET":"大廟一街","SECT":" ","MAREA":" ","LANE":" ","ALLEY":" ","HOUSE_NO":"１３６號","E_COORD97":175658.62,"N_COORD97":2543844.25,"ADDRESS":"大廟一街１３６號","OBJECTID":576402},"geometry":{"x":175658.62000000104,"y":2543844.2500000019}},{"attributes":{"ID":576430,"DIS_CODE":0,"TOWNNAME":"歸仁區","LI":"大廟里","LIN":"23鄰","STREET":"大廟一街","SECT":" ","MAREA":" ","LANE":" ","ALLEY":" ","HOUSE_NO":"９６號","E_COORD97":175718.26999999999,"N_COORD97":2543927.25,"ADDRESS":"大廟一街９６號","OBJECTID":576403},"geometry":{"x":175718.26999999955,"y":2543927.25}},{"attributes":{"ID":576431,"DIS_CODE":0,"TOWNNAME":"歸仁區","LI":"大廟里","LIN":"23鄰","STREET":"大廟一街","SECT":" ","MAREA":" ","LANE":" ","ALLEY":" ","HOUSE_NO":"１００號","E_COORD97":175717.42000000001,"N_COORD97":2543919.25,"ADDRESS":"大廟一街１００號","OBJECTID":576404},"geometry":{"x":175717.42000000086,"y":2543919.25}},{"attributes":{"ID":576432,"DIS_CODE":0,"TOWNNAME":"歸仁區","LI":"大廟里","LIN":"23鄰","STREET":"大廟一街","SECT":" ","MAREA":" ","LANE":" ","ALLEY":" ","HOUSE_NO":"１２６號","E_COORD97":175695.72,"N_COORD97":2543886.25,"ADDRESS":"大廟一街１２６號","OBJECTID":576405},"geometry":{"x":175695.71999999881,"y":2543886.25}},{"attributes":{"ID":576433,"DIS_CODE":0,"TOWNNAME":"歸仁區","LI":"大廟里","LIN":"23鄰","STREET":"大廟一街","SECT":" ","MAREA":" ","LANE":" ","ALLEY":" ","HOUSE_NO":"９２號","E_COORD97":175731.67000000001,"N_COORD97":2543936.25,"ADDRESS":"大廟一街９２號","OBJECTID":576406},"geometry":{"x":175731.66999999993,"y":2543936.25}},{"attributes":{"ID":576434,"DIS_CODE":0,"TOWNNAME":"楠西區","LI":"楠西里","LIN":"22鄰","STREET":"四維路","SECT":" ","MAREA":" ","LANE":" ","ALLEY":" ","HOUSE_NO":"８號","E_COORD97":197340.85999999999,"N_COORD97":2563504.25,"ADDRESS":"四維路８號","OBJECTID":576407},"geometry":{"x":197340.86000000034,"y":2563504.2500000019}},{"attributes":{"ID":576435,"DIS_CODE":0,"TOWNNAME":"永康區","LI":"三合里","LIN":"5鄰","STREET":"南工街","SECT":" ","MAREA":" ","LANE":" ","ALLEY":" ","HOUSE_NO":"６０號","E_COORD97":172104.51999999999,"N_COORD97":2545638.8599999999,"ADDRESS":"南工街６０號","OBJECTID":576408},"geometry":{"x":172104.51999999955,"y":2545638.8600000013}},{"attributes":{"ID":576436,"DIS_CODE":0,"TOWNNAME":"永康區","LI":"三合里","LIN":"25鄰","STREET":"中山東路","SECT":" ","MAREA":" ","LANE":" ","ALLEY":" ","HOUSE_NO":"１０９號","E_COORD97":171760.87,"N_COORD97":2545897.75,"ADDRESS":"中山東路１０９號","OBJECTID":576409},"geometry":{"x":171760.87000000104,"y":2545897.7500000019}},{"attributes":{"ID":576437,"DIS_CODE":0,"TOWNNAME":"楠西區","LI":"楠西里","LIN":"23鄰","STREET":"茄拔路","SECT":" ","MAREA":" ","LANE":" ","ALLEY":" ","HOUSE_NO":"２５號","E_COORD97":197107.29000000001,"N_COORD97":2563807.2799999998,"ADDRESS":"茄拔路２５號","OBJECTID":576410},"geometry":{"x":197107.29000000004,"y":2563807.2799999993}},{"attributes":{"ID":576438,"DIS_CODE":0,"TOWNNAME":"楠西區","LI":"楠西里","LIN":"23鄰","STREET":"茄拔路","SECT":" ","MAREA":" ","LANE":" ","ALLEY":" ","HOUSE_NO":"８３號","E_COORD97":197152.59,"N_COORD97":2563842.2799999998,"ADDRESS":"茄拔路８３號","OBJECTID":576411},"geometry":{"x":197152.58999999985,"y":2563842.2800000012}},{"attributes":{"ID":576439,"DIS_CODE":0,"TOWNNAME":"楠西區","LI":"楠西里","LIN":"23鄰","STREET":"茄拔路","SECT":" ","MAREA":" ","LANE":" ","ALLEY":" ","HOUSE_NO":"４５號","E_COORD97":197145.89000000001,"N_COORD97":2563802.2799999998,"ADDRESS":"茄拔路４５號","OBJECTID":576412},"geometry":{"x":197145.8900000006,"y":2563802.2800000012}},{"attributes":{"ID":576440,"DIS_CODE":0,"TOWNNAME":"楠西區","LI":"楠西里","LIN":"23鄰","STREET":"茄拔路","SECT":" ","MAREA":" ","LANE":" ","ALLEY":" ","HOUSE_NO":"１０１號","E_COORD97":197174.94,"N_COORD97":2563801.2799999998,"ADDRESS":"茄拔路１０１號","OBJECTID":576413},"geometry":{"x":197174.94000000134,"y":2563801.2800000031}},{"attributes":{"ID":576441,"DIS_CODE":0,"TOWNNAME":"楠西區","LI":"楠西里","LIN":"23鄰","STREET":"茄拔路","SECT":" ","MAREA":" ","LANE":" ","ALLEY":" ","HOUSE_NO":"８１號","E_COORD97":197151.39000000001,"N_COORD97":2563847.2799999998,"ADDRESS":"茄拔路８１號","OBJECTID":576414},"geometry":{"x":197151.3900000006,"y":2563847.2799999993}},{"attributes":{"ID":576442,"DIS_CODE":0,"TOWNNAME":"楠西區","LI":"楠西里","LIN":"23鄰","STREET":"茄拔路","SECT":" ","MAREA":" ","LANE":" ","ALLEY":" ","HOUSE_NO":"１０９號","E_COORD97":197190.54000000001,"N_COORD97":2563801.2799999998,"ADDRESS":"茄拔路１０９號","OBJECTID":576415},"geometry":{"x":197190.53999999911,"y":2563801.2800000031}},{"attributes":{"ID":576443,"DIS_CODE":0,"TOWNNAME":"楠西區","LI":"楠西里","LIN":"23鄰","STREET":"茄拔路","SECT":" ","MAREA":" ","LANE":" ","ALLEY":" ","HOUSE_NO":"４７號","E_COORD97":197149.69,"N_COORD97":2563802.2799999998,"ADDRESS":"茄拔路４７號","OBJECTID":576416},"geometry":{"x":197149.69000000134,"y":2563802.2800000012}},{"attributes":{"ID":576444,"DIS_CODE":0,"TOWNNAME":"楠西區","LI":"楠西里","LIN":"23鄰","STREET":"茄拔路","SECT":" ","MAREA":" ","LANE":" ","ALLEY":" ","HOUSE_NO":"４９號","E_COORD97":197153.19,"N_COORD97":2563802.2799999998,"ADDRESS":"茄拔路４９號","OBJECTID":576417},"geometry":{"x":197153.19000000134,"y":2563802.2800000012}},{"attributes":{"ID":576445,"DIS_CODE":0,"TOWNNAME":"楠西區","LI":"楠西里","LIN":"23鄰","STREET":"茄拔路","SECT":" ","MAREA":" ","LANE":" ","ALLEY":" ","HOUSE_NO":"９９號","E_COORD97":197169.48999999999,"N_COORD97":2563801.2799999998,"ADDRESS":"茄拔路９９號","OBJECTID":576418},"geometry":{"x":197169.49000000115,"y":2563801.2800000031}},{"attributes":{"ID":576446,"DIS_CODE":0,"TOWNNAME":"楠西區","LI":"楠西里","LIN":"23鄰","STREET":"茄拔路","SECT":" ","MAREA":" ","LANE":" ","ALLEY":" ","HOUSE_NO":"３５號","E_COORD97":197126.48999999999,"N_COORD97":2563804.2799999998,"ADDRESS":"茄拔路３５號","OBJECTID":576419},"geometry":{"x":197126.49000000022,"y":2563804.2799999975}},{"attributes":{"ID":576447,"DIS_CODE":0,"TOWNNAME":"楠西區","LI":"楠西里","LIN":"23鄰","STREET":"茄拔路","SECT":" ","MAREA":" ","LANE":" ","ALLEY":" ","HOUSE_NO":"７９號","E_COORD97":197150.29000000001,"N_COORD97":2563850.2799999998,"ADDRESS":"茄拔路７９號","OBJECTID":576420},"geometry":{"x":197150.29000000097,"y":2563850.2799999993}},{"attributes":{"ID":576448,"DIS_CODE":0,"TOWNNAME":"楠西區","LI":"楠西里","LIN":"23鄰","STREET":"茄拔路","SECT":" ","MAREA":" ","LANE":" ","ALLEY":" ","HOUSE_NO":"９１號","E_COORD97":197157.48999999999,"N_COORD97":2563826.2799999998,"ADDRESS":"茄拔路９１號","OBJECTID":576421},"geometry":{"x":197157.49000000115,"y":2563826.2800000012}},{"attributes":{"ID":576449,"DIS_CODE":0,"TOWNNAME":"楠西區","LI":"楠西里","LIN":"23鄰","STREET":"茄拔路","SECT":" ","MAREA":" ","LANE":" ","ALLEY":" ","HOUSE_NO":"８９號","E_COORD97":197156.69,"N_COORD97":2563829.2799999998,"ADDRESS":"茄拔路８９號","OBJECTID":576422},"geometry":{"x":197156.69000000134,"y":2563829.2800000012}},{"attributes":{"ID":576450,"DIS_CODE":0,"TOWNNAME":"楠西區","LI":"楠西里","LIN":"23鄰","STREET":"茄拔路","SECT":" ","MAREA":" ","LANE":" ","ALLEY":" ","HOUSE_NO":"７１號","E_COORD97":197137.69,"N_COORD97":2563855.2799999998,"ADDRESS":"茄拔路７１號","OBJECTID":576423},"geometry":{"x":197137.69000000134,"y":2563855.2800000031}},{"attributes":{"ID":576451,"DIS_CODE":0,"TOWNNAME":"楠西區","LI":"楠西里","LIN":"23鄰","STREET":"茄拔路","SECT":" ","MAREA":" ","LANE":" ","ALLEY":" ","HOUSE_NO":"９７號","E_COORD97":197165.69,"N_COORD97":2563802.2799999998,"ADDRESS":"茄拔路９７號","OBJECTID":576424},"geometry":{"x":197165.69000000041,"y":2563802.2800000012}},{"attributes":{"ID":576452,"DIS_CODE":0,"TOWNNAME":"楠西區","LI":"楠西里","LIN":"23鄰","STREET":"茄拔路","SECT":" ","MAREA":" ","LANE":" ","ALLEY":" ","HOUSE_NO":"９３號","E_COORD97":197158.89000000001,"N_COORD97":2563822.2799999998,"ADDRESS":"茄拔路９３號","OBJECTID":576425},"geometry":{"x":197158.88999999966,"y":2563822.2800000012}},{"attributes":{"ID":576453,"DIS_CODE":0,"TOWNNAME":"楠西區","LI":"楠西里","LIN":"23鄰","STREET":"茄拔路","SECT":" ","MAREA":" ","LANE":" ","ALLEY":" ","HOUSE_NO":"３９號","E_COORD97":197133.69,"N_COORD97":2563803.2799999998,"ADDRESS":"茄拔路３９號","OBJECTID":576426},"geometry":{"x":197133.69000000041,"y":2563803.2799999993}},{"attributes":{"ID":576454,"DIS_CODE":0,"TOWNNAME":"楠西區","LI":"楠西里","LIN":"23鄰","STREET":"茄拔路","SECT":" ","MAREA":" ","LANE":" ","ALLEY":" ","HOUSE_NO":"３１號","E_COORD97":197118.59,"N_COORD97":2563805.2799999998,"ADDRESS":"茄拔路３１號","OBJECTID":576427},"geometry":{"x":197118.58999999985,"y":2563805.2800000012}},{"attributes":{"ID":576455,"DIS_CODE":0,"TOWNNAME":"楠西區","LI":"楠西里","LIN":"23鄰","STREET":"茄拔路","SECT":" ","MAREA":" ","LANE":" ","ALLEY":" ","HOUSE_NO":"１１１號","E_COORD97":197194.84,"N_COORD97":2563801.2799999998,"ADDRESS":"茄拔路１１１號","OBJECTID":576428},"geometry":{"x":197194.83999999985,"y":2563801.2800000031}},{"attributes":{"ID":576456,"DIS_CODE":0,"TOWNNAME":"楠西區","LI":"楠西里","LIN":"23鄰","STREET":"茄拔路","SECT":" ","MAREA":" ","LANE":" ","ALLEY":" ","HOUSE_NO":"２７號","E_COORD97":197110.79000000001,"N_COORD97":2563806.2799999998,"ADDRESS":"茄拔路２７號","OBJECTID":576429},"geometry":{"x":197110.79000000004,"y":2563806.2799999993}},{"attributes":{"ID":576457,"DIS_CODE":0,"TOWNNAME":"楠西區","LI":"楠西里","LIN":"23鄰","STREET":"茄拔路","SECT":" ","MAREA":" ","LANE":" ","ALLEY":" ","HOUSE_NO":"５５號","E_COORD97":197143.09,"N_COORD97":2563837.2799999998,"ADDRESS":"茄拔路５５號","OBJECTID":576430},"geometry":{"x":197143.09000000078,"y":2563837.2799999993}},{"attributes":{"ID":576458,"DIS_CODE":0,"TOWNNAME":"楠西區","LI":"楠西里","LIN":"23鄰","STREET":"茄拔路","SECT":" ","MAREA":" ","LANE":" ","ALLEY":" ","HOUSE_NO":"７５號","E_COORD97":197148.09,"N_COORD97":2563857.27,"ADDRESS":"茄拔路７５號","OBJECTID":576431},"geometry":{"x":197148.09000000078,"y":2563857.2700000014}},{"attributes":{"ID":576459,"DIS_CODE":0,"TOWNNAME":"楠西區","LI":"楠西里","LIN":"23鄰","STREET":"茄拔路","SECT":" ","MAREA":" ","LANE":" ","ALLEY":" ","HOUSE_NO":"３３號","E_COORD97":197122.69,"N_COORD97":2563805.2799999998,"ADDRESS":"茄拔路３３號","OBJECTID":576432},"geometry":{"x":197122.69000000134,"y":2563805.2800000012}},{"attributes":{"ID":576460,"DIS_CODE":0,"TOWNNAME":"楠西區","LI":"楠西里","LIN":"23鄰","STREET":"茄拔路","SECT":" ","MAREA":" ","LANE":" ","ALLEY":" ","HOUSE_NO":"１０５號","E_COORD97":197183.44,"N_COORD97":2563801.2799999998,"ADDRESS":"茄拔路１０５號","OBJECTID":576433},"geometry":{"x":197183.44000000134,"y":2563801.2800000031}},{"attributes":{"ID":576461,"DIS_CODE":0,"TOWNNAME":"柳營區","LI":"東昇里","LIN":"23鄰","STREET":"十美街","SECT":" ","MAREA":" ","LANE":" ","ALLEY":" ","HOUSE_NO":"１７７號","E_COORD97":180384.62,"N_COORD97":2575497.9399999999,"ADDRESS":"十美街１７７號","OBJECTID":576434},"geometry":{"x":180384.62000000104,"y":2575497.9400000013}},{"attributes":{"ID":576462,"DIS_CODE":0,"TOWNNAME":"柳營區","LI":"東昇里","LIN":"23鄰","STREET":"十美街","SECT":" ","MAREA":" ","LANE":" ","ALLEY":" ","HOUSE_NO":"１９９號","E_COORD97":180337.67999999999,"N_COORD97":2575524.8700000001,"ADDRESS":"十美街１９９號","OBJECTID":576435},"geometry":{"x":180337.68000000063,"y":2575524.870000001}},{"attributes":{"ID":576463,"DIS_CODE":0,"TOWNNAME":"柳營區","LI":"東昇里","LIN":"23鄰","STREET":"十美街","SECT":" ","MAREA":" ","LANE":" ","ALLEY":" ","HOUSE_NO":"２０１號","E_COORD97":180332.84,"N_COORD97":2575524.5899999999,"ADDRESS":"十美街２０１號","OBJECTID":576436},"geometry":{"x":180332.83999999985,"y":2575524.5900000017}},{"attributes":{"ID":576464,"DIS_CODE":0,"TOWNNAME":"柳營區","LI":"東昇里","LIN":"23鄰","STREET":"十美街","SECT":" ","MAREA":" ","LANE":" ","ALLEY":" ","HOUSE_NO":"２０３號","E_COORD97":180328,"N_COORD97":2575524.3100000001,"ADDRESS":"十美街２０３號","OBJECTID":576437},"geometry":{"x":180328,"y":2575524.3100000024}},{"attributes":{"ID":576465,"DIS_CODE":0,"TOWNNAME":"柳營區","LI":"東昇里","LIN":"23鄰","STREET":"十美街","SECT":" ","MAREA":" ","LANE":" ","ALLEY":" ","HOUSE_NO":"２０５號","E_COORD97":180323.16,"N_COORD97":2575524.0299999998,"ADDRESS":"十美街２０５號","OBJECTID":576438},"geometry":{"x":180323.16000000108,"y":2575524.0300000012}},{"attributes":{"ID":576466,"DIS_CODE":0,"TOWNNAME":"柳營區","LI":"東昇里","LIN":"23鄰","STREET":"十美街","SECT":" ","MAREA":" ","LANE":" ","ALLEY":" ","HOUSE_NO":"２０７號","E_COORD97":180318.32000000001,"N_COORD97":2575523.75,"ADDRESS":"十美街２０７號","OBJECTID":576439},"geometry":{"x":180318.3200000003,"y":2575523.7500000019}},{"attributes":{"ID":576467,"DIS_CODE":0,"TOWNNAME":"柳營區","LI":"東昇里","LIN":"23鄰","STREET":"十美街","SECT":" ","MAREA":" ","LANE":" ","ALLEY":" ","HOUSE_NO":"２１９號","E_COORD97":180257.76000000001,"N_COORD97":2575510.1699999999,"ADDRESS":"十美街２１９號","OBJECTID":576440},"geometry":{"x":180257.76000000071,"y":2575510.1700000018}},{"attributes":{"ID":576468,"DIS_CODE":0,"TOWNNAME":"永康區","LI":"三合里","LIN":"18鄰","STREET":"南工街","SECT":" ","MAREA":" ","LANE":" ","ALLEY":" ","HOUSE_NO":"２６５號","E_COORD97":171891.12,"N_COORD97":2545960.9900000002,"ADDRESS":"南工街２６５號","OBJECTID":576441},"geometry":{"x":171891.12000000197,"y":2545960.9900000021}},{"attributes":{"ID":576469,"DIS_CODE":0,"TOWNNAME":"新營區","LI":"王公里","LIN":"23鄰","STREET":"樂仁街","SECT":" ","MAREA":" ","LANE":" ","ALLEY":" ","HOUSE_NO":"４１號","E_COORD97":180515.20999999999,"N_COORD97":2579178.2799999998,"ADDRESS":"樂仁街４１號","OBJECTID":576442},"geometry":{"x":180515.20999999996,"y":2579178.2799999993}},{"attributes":{"ID":576470,"DIS_CODE":0,"TOWNNAME":"新營區","LI":"新東里","LIN":"23鄰","STREET":"大同路","SECT":" ","MAREA":" ","LANE":" ","ALLEY":" ","HOUSE_NO":"５５號","E_COORD97":180682.87,"N_COORD97":2578954.8999999999,"ADDRESS":"大同路５５號","OBJECTID":576443},"geometry":{"x":180682.87000000104,"y":2578954.9000000004}},{"attributes":{"ID":576471,"DIS_CODE":0,"TOWNNAME":"新營區","LI":"王公里","LIN":"23鄰","STREET":"義和街","SECT":" ","MAREA":" ","LANE":" ","ALLEY":" ","HOUSE_NO":"２之１６號","E_COORD97":180567.37,"N_COORD97":2579081.75,"ADDRESS":"義和街２之１６號","OBJECTID":576444},"geometry":{"x":180567.37000000104,"y":2579081.75}},{"attributes":{"ID":576472,"DIS_CODE":0,"TOWNNAME":"新營區","LI":"三仙里","LIN":"23鄰","STREET":"民治路","SECT":" ","MAREA":" ","LANE":" ","ALLEY":" ","HOUSE_NO":"７６號之３","E_COORD97":179585.04000000001,"N_COORD97":2578843.8599999999,"ADDRESS":"民治路７６號之３","OBJECTID":576445},"geometry":{"x":179585.04000000097,"y":2578843.8600000031}},{"attributes":{"ID":576473,"DIS_CODE":0,"TOWNNAME":"新營區","LI":"新南里","LIN":"23鄰","STREET":"復興路","SECT":" ","MAREA":" ","LANE":" ","ALLEY":" ","HOUSE_NO":"６６０之１號","E_COORD97":177942.57000000001,"N_COORD97":2578368.9100000001,"ADDRESS":"復興路６６０之１號","OBJECTID":576446},"geometry":{"x":177942.57000000123,"y":2578368.9100000001}},{"attributes":{"ID":576474,"DIS_CODE":0,"TOWNNAME":"新營區","LI":"王公里","LIN":"23鄰","STREET":"義和街","SECT":" ","MAREA":" ","LANE":" ","ALLEY":" ","HOUSE_NO":"８之２號","E_COORD97":180547.95000000001,"N_COORD97":2579134.9900000002,"ADDRESS":"義和街８之２號","OBJECTID":576447},"geometry":{"x":180547.94999999925,"y":2579134.9900000002}},{"attributes":{"ID":576475,"DIS_CODE":0,"TOWNNAME":"新營區","LI":"王公里","LIN":"23鄰","STREET":"義和街","SECT":" ","MAREA":" ","LANE":" ","ALLEY":" ","HOUSE_NO":"８之１４號","E_COORD97":180568.04000000001,"N_COORD97":2579226.8199999998,"ADDRESS":"義和街８之１４號","OBJECTID":576448},"geometry":{"x":180568.04000000097,"y":2579226.8200000003}},{"attributes":{"ID":576476,"DIS_CODE":0,"TOWNNAME":"新營區","LI":"新東里","LIN":"23鄰","STREET":"民治東路","SECT":" ","MAREA":" ","LANE":" ","ALLEY":" ","HOUSE_NO":"１４號","E_COORD97":180739.92999999999,"N_COORD97":2578912.54,"ADDRESS":"民治東路１４號","OBJECTID":576449},"geometry":{"x":180739.93000000063,"y":2578912.5399999991}},{"attributes":{"ID":576477,"DIS_CODE":0,"TOWNNAME":"新營區","LI":"王公里","LIN":"23鄰","STREET":"樂仁街","SECT":" ","MAREA":" ","LANE":" ","ALLEY":" ","HOUSE_NO":"４７號","E_COORD97":180514.25,"N_COORD97":2579191.5699999998,"ADDRESS":"樂仁街４７號","OBJECTID":576450},"geometry":{"x":180514.25000000093,"y":2579191.5700000003}},{"attributes":{"ID":576478,"DIS_CODE":0,"TOWNNAME":"新營區","LI":"民權里","LIN":"23鄰","STREET":"民治路","SECT":" ","MAREA":" ","LANE":" ","ALLEY":" ","HOUSE_NO":"４１號地下一層","E_COORD97":179775.98999999999,"N_COORD97":2578834.0600000001,"ADDRESS":"民治路４１號地下一層","OBJECTID":576451},"geometry":{"x":179775.99000000022,"y":2578834.0600000024}},{"attributes":{"ID":576479,"DIS_CODE":0,"TOWNNAME":"新營區","LI":"民權里","LIN":"23鄰","STREET":"民治路","SECT":" ","MAREA":" ","LANE":" ","ALLEY":" ","HOUSE_NO":"４９號之７","E_COORD97":179710.76000000001,"N_COORD97":2578818.8900000001,"ADDRESS":"民治路４９號之７","OBJECTID":576452},"geometry":{"x":179710.75999999978,"y":2578818.8900000025}},{"attributes":{"ID":576480,"DIS_CODE":0,"TOWNNAME":"新營區","LI":"民榮里","LIN":"23鄰","STREET":"裕民路","SECT":" ","MAREA":" ","LANE":" ","ALLEY":" ","HOUSE_NO":"２４號","E_COORD97":179132.37,"N_COORD97":2577899.0800000001,"ADDRESS":"裕民路２４號","OBJECTID":576453},"geometry":{"x":179132.37000000011,"y":2577899.0800000001}},{"attributes":{"ID":576481,"DIS_CODE":0,"TOWNNAME":"新營區","LI":"王公里","LIN":"23鄰","STREET":"樂仁街","SECT":" ","MAREA":" ","LANE":" ","ALLEY":" ","HOUSE_NO":"３０號","E_COORD97":180533.42000000001,"N_COORD97":2579132.7799999998,"ADDRESS":"樂仁街３０號","OBJECTID":576454},"geometry":{"x":180533.42000000086,"y":2579132.7800000012}},{"attributes":{"ID":576482,"DIS_CODE":0,"TOWNNAME":"新營區","LI":"三仙里","LIN":"23鄰","STREET":"育德街","SECT":" ","MAREA":" ","LANE":" ","ALLEY":" ","HOUSE_NO":"１３之１號","E_COORD97":179599.89000000001,"N_COORD97":2578903.5800000001,"ADDRESS":"育德街１３之１號","OBJECTID":576455},"geometry":{"x":179599.88999999966,"y":2578903.5800000001}},{"attributes":{"ID":576483,"DIS_CODE":0,"TOWNNAME":"新營區","LI":"民權里","LIN":"23鄰","STREET":"民治路","SECT":" ","MAREA":" ","LANE":" ","ALLEY":" ","HOUSE_NO":"４５之１號","E_COORD97":179773.51999999999,"N_COORD97":2578834.1099999999,"ADDRESS":"民治路４５之１號","OBJECTID":576456},"geometry":{"x":179773.51999999955,"y":2578834.1099999994}},{"attributes":{"ID":576484,"DIS_CODE":0,"TOWNNAME":"新營區","LI":"民權里","LIN":"23鄰","STREET":"民權路","SECT":" ","MAREA":" ","LANE":" ","ALLEY":" ","HOUSE_NO":"９８號","E_COORD97":179639.26999999999,"N_COORD97":2578685.1699999999,"ADDRESS":"民權路９８號","OBJECTID":576457},"geometry":{"x":179639.26999999955,"y":2578685.1699999999}},{"attributes":{"ID":576485,"DIS_CODE":0,"TOWNNAME":"新營區","LI":"新南里","LIN":"23鄰","STREET":"長榮路","SECT":"二段","MAREA":" ","LANE":" ","ALLEY":" ","HOUSE_NO":"１０９８號","E_COORD97":177782.85000000001,"N_COORD97":2578596.6600000001,"ADDRESS":"長榮路二段１０９８號","OBJECTID":576458},"geometry":{"x":177782.84999999963,"y":2578596.660000002}},{"attributes":{"ID":576486,"DIS_CODE":0,"TOWNNAME":"新營區","LI":"民權里","LIN":"23鄰","STREET":"民治路","SECT":" ","MAREA":" ","LANE":" ","ALLEY":" ","HOUSE_NO":"４９號之８","E_COORD97":179738.42000000001,"N_COORD97":2578814.3300000001,"ADDRESS":"民治路４９號之８","OBJECTID":576459},"geometry":{"x":179738.42000000086,"y":2578814.3300000038}},{"attributes":{"ID":576487,"DIS_CODE":0,"TOWNNAME":"永康區","LI":"三合里","LIN":"6鄰","STREET":"南工街","SECT":" ","MAREA":" ","LANE":" ","ALLEY":" ","HOUSE_NO":"１２４號","E_COORD97":172104.89000000001,"N_COORD97":2545776.21,"ADDRESS":"南工街１２４號","OBJECTID":576460},"geometry":{"x":172104.8900000006,"y":2545776.2100000009}},{"attributes":{"ID":576488,"DIS_CODE":0,"TOWNNAME":"新營區","LI":"民生里","LIN":"23鄰","STREET":"民生路","SECT":" ","MAREA":" ","LANE":" ","ALLEY":" ","HOUSE_NO":"１０３之６號","E_COORD97":179130.76999999999,"N_COORD97":2578503.8199999998,"ADDRESS":"民生路１０３之６號","OBJECTID":576461},"geometry":{"x":179130.76999999955,"y":2578503.8200000022}},{"attributes":{"ID":576489,"DIS_CODE":0,"TOWNNAME":"新營區","LI":"三仙里","LIN":"23鄰","STREET":"育德一街","SECT":" ","MAREA":" ","LANE":" ","ALLEY":" ","HOUSE_NO":"１５號","E_COORD97":179562.73000000001,"N_COORD97":2578928.0699999998,"ADDRESS":"育德一街１５號","OBJECTID":576462},"geometry":{"x":179562.73000000045,"y":2578928.070000004}},{"attributes":{"ID":576490,"DIS_CODE":0,"TOWNNAME":"安平區","LI":"建平里","LIN":"23鄰","STREET":"平通路","SECT":" ","MAREA":" ","LANE":" ","ALLEY":" ","HOUSE_NO":"５９號","E_COORD97":166055.39000000001,"N_COORD97":2543659.3999999999,"ADDRESS":"平通路５９號","OBJECTID":576463},"geometry":{"x":166055.38999999966,"y":2543659.4000000041}},{"attributes":{"ID":576491,"DIS_CODE":0,"TOWNNAME":"安平區","LI":"建平里","LIN":"23鄰","STREET":"平通路","SECT":" ","MAREA":" ","LANE":" ","ALLEY":" ","HOUSE_NO":"６１號","E_COORD97":166050.72,"N_COORD97":2543660.02,"ADDRESS":"平通路６１號","OBJECTID":576464},"geometry":{"x":166050.72000000067,"y":2543660.0199999996}},{"attributes":{"ID":576492,"DIS_CODE":0,"TOWNNAME":"安平區","LI":"建平里","LIN":"23鄰","STREET":"平通路","SECT":" ","MAREA":" ","LANE":" ","ALLEY":" ","HOUSE_NO":"６３之１號","E_COORD97":166040.97,"N_COORD97":2543661.6400000001,"ADDRESS":"平通路６３之１號","OBJECTID":576465},"geometry":{"x":166040.96999999974,"y":2543661.6400000025}},{"attributes":{"ID":576493,"DIS_CODE":0,"TOWNNAME":"安平區","LI":"建平里","LIN":"23鄰","STREET":"平通路","SECT":" ","MAREA":" ","LANE":" ","ALLEY":" ","HOUSE_NO":"６３號","E_COORD97":166046.66,"N_COORD97":2543660.8300000001,"ADDRESS":"平通路６３號","OBJECTID":576466},"geometry":{"x":166046.66000000108,"y":2543660.8300000019}},{"attributes":{"ID":576494,"DIS_CODE":0,"TOWNNAME":"安平區","LI":"建平里","LIN":"23鄰","STREET":"平通路","SECT":" ","MAREA":" ","LANE":" ","ALLEY":" ","HOUSE_NO":"６５號","E_COORD97":166029.48999999999,"N_COORD97":2543667.2400000002,"ADDRESS":"平通路６５號","OBJECTID":576467},"geometry":{"x":166029.49000000022,"y":2543667.2400000021}},{"attributes":{"ID":576495,"DIS_CODE":0,"TOWNNAME":"安平區","LI":"建平里","LIN":"23鄰","STREET":"平通路","SECT":" ","MAREA":" ","LANE":" ","ALLEY":" ","HOUSE_NO":"６７號","E_COORD97":166027.10999999999,"N_COORD97":2543668.3500000001,"ADDRESS":"平通路６７號","OBJECTID":576468},"geometry":{"x":166027.11000000034,"y":2543668.3499999996}},{"attributes":{"ID":576496,"DIS_CODE":0,"TOWNNAME":"安平區","LI":"建平里","LIN":"23鄰","STREET":"平通路","SECT":" ","MAREA":" ","LANE":" ","ALLEY":" ","HOUSE_NO":"６９號","E_COORD97":166024.56,"N_COORD97":2543668.3500000001,"ADDRESS":"平通路６９號","OBJECTID":576469},"geometry":{"x":166024.56000000052,"y":2543668.3499999996}},{"attributes":{"ID":576497,"DIS_CODE":0,"TOWNNAME":"安平區","LI":"建平里","LIN":"23鄰","STREET":"平通路","SECT":" ","MAREA":" ","LANE":" ","ALLEY":" ","HOUSE_NO":"７１號","E_COORD97":166021.85000000001,"N_COORD97":2543668.9900000002,"ADDRESS":"平通路７１號","OBJECTID":576470},"geometry":{"x":166021.84999999963,"y":2543668.9900000021}},{"attributes":{"ID":576498,"DIS_CODE":0,"TOWNNAME":"安平區","LI":"建平里","LIN":"23鄰","STREET":"平通路","SECT":" ","MAREA":" ","LANE":" ","ALLEY":" ","HOUSE_NO":"７３號","E_COORD97":166017.70999999999,"N_COORD97":2543669.79,"ADDRESS":"平通路７３號","OBJECTID":576471},"geometry":{"x":166017.70999999996,"y":2543669.790000001}},{"attributes":{"ID":576499,"DIS_CODE":0,"TOWNNAME":"安平區","LI":"建平里","LIN":"23鄰","STREET":"平通路","SECT":" ","MAREA":" ","LANE":" ","ALLEY":" ","HOUSE_NO":"７５號","E_COORD97":166012.78,"N_COORD97":2543670.2599999998,"ADDRESS":"平通路７５號","OBJECTID":576472},"geometry":{"x":166012.78000000026,"y":2543670.2600000016}},{"attributes":{"ID":576500,"DIS_CODE":0,"TOWNNAME":"安平區","LI":"建平里","LIN":"23鄰","STREET":"平通路","SECT":" ","MAREA":" ","LANE":" ","ALLEY":" ","HOUSE_NO":"７７號","E_COORD97":166008.16,"N_COORD97":2543670.2599999998,"ADDRESS":"平通路７７號","OBJECTID":576473},"geometry":{"x":166008.16000000015,"y":2543670.2600000016}},{"attributes":{"ID":576501,"DIS_CODE":0,"TOWNNAME":"安平區","LI":"建平里","LIN":"23鄰","STREET":"平通路","SECT":" ","MAREA":" ","LANE":" ","ALLEY":" ","HOUSE_NO":"７９之２號","E_COORD97":165993.35000000001,"N_COORD97":2543671.7000000002,"ADDRESS":"平通路７９之２號","OBJECTID":576474},"geometry":{"x":165993.35000000149,"y":2543671.6999999993}},{"attributes":{"ID":576502,"DIS_CODE":0,"TOWNNAME":"安平區","LI":"建平里","LIN":"23鄰","STREET":"平通路","SECT":" ","MAREA":" ","LANE":" ","ALLEY":" ","HOUSE_NO":"７９號","E_COORD97":166002.89999999999,"N_COORD97":2543670.5800000001,"ADDRESS":"平通路７９號","OBJECTID":576475},"geometry":{"x":166002.9000000013,"y":2543670.5800000001}},{"attributes":{"ID":576503,"DIS_CODE":0,"TOWNNAME":"安平區","LI":"建平里","LIN":"23鄰","STREET":"平通路","SECT":" ","MAREA":" ","LANE":" ","ALLEY":" ","HOUSE_NO":"８１號","E_COORD97":165988.5,"N_COORD97":2543669.3300000001,"ADDRESS":"平通路８１號","OBJECTID":576476},"geometry":{"x":165988.5,"y":2543669.3299999982}},{"attributes":{"ID":576504,"DIS_CODE":0,"TOWNNAME":"安平區","LI":"建平里","LIN":"23鄰","STREET":"平通路","SECT":" ","MAREA":" ","LANE":" ","ALLEY":" ","HOUSE_NO":"８３號","E_COORD97":165983.67000000001,"N_COORD97":2543669.3300000001,"ADDRESS":"平通路８３號","OBJECTID":576477},"geometry":{"x":165983.67000000086,"y":2543669.3299999982}},{"attributes":{"ID":576505,"DIS_CODE":0,"TOWNNAME":"安平區","LI":"建平里","LIN":"23鄰","STREET":"平通路","SECT":" ","MAREA":" ","LANE":" ","ALLEY":" ","HOUSE_NO":"８５號","E_COORD97":165979.59,"N_COORD97":2543669.3300000001,"ADDRESS":"平通路８５號","OBJECTID":576478},"geometry":{"x":165979.58999999985,"y":2543669.3299999982}},{"attributes":{"ID":576506,"DIS_CODE":0,"TOWNNAME":"安平區","LI":"建平里","LIN":"23鄰","STREET":"平通路","SECT":" ","MAREA":" ","LANE":" ","ALLEY":" ","HOUSE_NO":"８７號","E_COORD97":165976.25,"N_COORD97":2543670.6299999999,"ADDRESS":"平通路８７號","OBJECTID":576479},"geometry":{"x":165976.25000000093,"y":2543670.6300000008}},{"attributes":{"ID":576507,"DIS_CODE":0,"TOWNNAME":"安平區","LI":"建平里","LIN":"23鄰","STREET":"平通路","SECT":" ","MAREA":" ","LANE":" ","ALLEY":" ","HOUSE_NO":"８９號","E_COORD97":165971.42999999999,"N_COORD97":2543671.3700000001,"ADDRESS":"平通路８９號","OBJECTID":576480},"geometry":{"x":165971.43000000063,"y":2543671.3700000029}},{"attributes":{"ID":576508,"DIS_CODE":0,"TOWNNAME":"安平區","LI":"建平里","LIN":"23鄰","STREET":"平通路","SECT":" ","MAREA":" ","LANE":" ","ALLEY":" ","HOUSE_NO":"９１號","E_COORD97":165966.98000000001,"N_COORD97":2543672.2999999998,"ADDRESS":"平通路９１號","OBJECTID":576481},"geometry":{"x":165966.98000000045,"y":2543672.3000000007}},{"attributes":{"ID":576509,"DIS_CODE":0,"TOWNNAME":"安平區","LI":"建平里","LIN":"23鄰","STREET":"平通路","SECT":" ","MAREA":" ","LANE":" ","ALLEY":" ","HOUSE_NO":"９３號","E_COORD97":165962.51999999999,"N_COORD97":2543673.4100000001,"ADDRESS":"平通路９３號","OBJECTID":576482},"geometry":{"x":165962.51999999955,"y":2543673.410000002}},{"attributes":{"ID":576510,"DIS_CODE":0,"TOWNNAME":"安平區","LI":"建平里","LIN":"23鄰","STREET":"平通路","SECT":" ","MAREA":" ","LANE":" ","ALLEY":" ","HOUSE_NO":"９５號","E_COORD97":165958.63,"N_COORD97":2543675.27,"ADDRESS":"平通路９５號","OBJECTID":576483},"geometry":{"x":165958.62999999989,"y":2543675.2699999996}},{"attributes":{"ID":576511,"DIS_CODE":0,"TOWNNAME":"安平區","LI":"建平里","LIN":"23鄰","STREET":"平通路","SECT":" ","MAREA":" ","LANE":" ","ALLEY":" ","HOUSE_NO":"９７號","E_COORD97":165953.06,"N_COORD97":2543677.4900000002,"ADDRESS":"平通路９７號","OBJECTID":576484},"geometry":{"x":165953.06000000052,"y":2543677.4900000002}},{"attributes":{"ID":576512,"DIS_CODE":0,"TOWNNAME":"安平區","LI":"建平里","LIN":"23鄰","STREET":"平通路","SECT":" ","MAREA":" ","LANE":" ","ALLEY":" ","HOUSE_NO":"９９號","E_COORD97":165947.67999999999,"N_COORD97":2543674.5299999998,"ADDRESS":"平通路９９號","OBJECTID":576485},"geometry":{"x":165947.68000000063,"y":2543674.5300000012}},{"attributes":{"ID":576513,"DIS_CODE":0,"TOWNNAME":"安平區","LI":"建平里","LIN":"23鄰","STREET":"永華三街","SECT":" ","MAREA":" ","LANE":" ","ALLEY":" ","HOUSE_NO":"４５號","E_COORD97":166077.76000000001,"N_COORD97":2543543.9399999999,"ADDRESS":"永華三街４５號","OBJECTID":576486},"geometry":{"x":166077.76000000071,"y":2543543.9400000013}},{"attributes":{"ID":576514,"DIS_CODE":0,"TOWNNAME":"安平區","LI":"建平里","LIN":"23鄰","STREET":"永華三街","SECT":" ","MAREA":" ","LANE":" ","ALLEY":" ","HOUSE_NO":"４７號","E_COORD97":166078.67999999999,"N_COORD97":2543548.8599999999,"ADDRESS":"永華三街４７號","OBJECTID":576487},"geometry":{"x":166078.6799999997,"y":2543548.8599999994}},{"attributes":{"ID":576515,"DIS_CODE":0,"TOWNNAME":"安平區","LI":"建平里","LIN":"23鄰","STREET":"永華三街","SECT":" ","MAREA":" ","LANE":" ","ALLEY":" ","HOUSE_NO":"５５號","E_COORD97":166083.20000000001,"N_COORD97":2543581.5699999998,"ADDRESS":"永華三街５５號","OBJECTID":576488},"geometry":{"x":166083.20000000112,"y":2543581.5700000022}},{"attributes":{"ID":576516,"DIS_CODE":0,"TOWNNAME":"安平區","LI":"建平里","LIN":"23鄰","STREET":"永華三街","SECT":" ","MAREA":" ","LANE":" ","ALLEY":" ","HOUSE_NO":"５７號","E_COORD97":166083.60000000001,"N_COORD97":2543585.71,"ADDRESS":"永華三街５７號","OBJECTID":576489},"geometry":{"x":166083.60000000056,"y":2543585.7100000009}},{"attributes":{"ID":576517,"DIS_CODE":0,"TOWNNAME":"永康區","LI":"三民里","LIN":"8鄰","STREET":"仁愛街","SECT":" ","MAREA":" ","LANE":" ","ALLEY":" ","HOUSE_NO":"４０７號","E_COORD97":172488.95000000001,"N_COORD97":2550419.27,"ADDRESS":"仁愛街４０７號","OBJECTID":576490},"geometry":{"x":172488.95000000019,"y":2550419.2699999996}},{"attributes":{"ID":576518,"DIS_CODE":0,"TOWNNAME":"安平區","LI":"建平里","LIN":"23鄰","STREET":"永華三街","SECT":" ","MAREA":" ","LANE":" ","ALLEY":" ","HOUSE_NO":"５９號","E_COORD97":166083.60000000001,"N_COORD97":2543590.8900000001,"ADDRESS":"永華三街５９號","OBJECTID":576491},"geometry":{"x":166083.60000000056,"y":2543590.8900000006}},{"attributes":{"ID":576519,"DIS_CODE":0,"TOWNNAME":"安平區","LI":"建平里","LIN":"23鄰","STREET":"永華三街","SECT":" ","MAREA":" ","LANE":" ","ALLEY":" ","HOUSE_NO":"６１號","E_COORD97":166083.85000000001,"N_COORD97":2543594.98,"ADDRESS":"永華三街６１號","OBJECTID":576492},"geometry":{"x":166083.85000000056,"y":2543594.9800000023}},{"attributes":{"ID":576520,"DIS_CODE":0,"TOWNNAME":"安平區","LI":"建平里","LIN":"23鄰","STREET":"永華三街","SECT":" ","MAREA":" ","LANE":" ","ALLEY":" ","HOUSE_NO":"６３號","E_COORD97":166082.60999999999,"N_COORD97":2543599.1699999999,"ADDRESS":"永華三街６３號","OBJECTID":576493},"geometry":{"x":166082.61000000127,"y":2543599.1700000037}},{"attributes":{"ID":576521,"DIS_CODE":0,"TOWNNAME":"安平區","LI":"建平里","LIN":"23鄰","STREET":"永華三街","SECT":" ","MAREA":" ","LANE":" ","ALLEY":" ","HOUSE_NO":"６５號","E_COORD97":166083.35000000001,"N_COORD97":2543603.6200000001,"ADDRESS":"永華三街６５號","OBJECTID":576494},"geometry":{"x":166083.35000000056,"y":2543603.620000001}},{"attributes":{"ID":576522,"DIS_CODE":0,"TOWNNAME":"安平區","LI":"建平里","LIN":"23鄰","STREET":"永華三街","SECT":" ","MAREA":" ","LANE":" ","ALLEY":" ","HOUSE_NO":"６７號","E_COORD97":166082.35999999999,"N_COORD97":2543608.0600000001,"ADDRESS":"永華三街６７號","OBJECTID":576495},"geometry":{"x":166082.36000000127,"y":2543608.0600000024}},{"attributes":{"ID":576523,"DIS_CODE":0,"TOWNNAME":"安平區","LI":"建平里","LIN":"23鄰","STREET":"永華三街","SECT":" ","MAREA":" ","LANE":" ","ALLEY":" ","HOUSE_NO":"６９號","E_COORD97":166083.85000000001,"N_COORD97":2543612.5099999998,"ADDRESS":"永華三街６９號","OBJECTID":576496},"geometry":{"x":166083.85000000056,"y":2543612.5099999998}},{"attributes":{"ID":576524,"DIS_CODE":0,"TOWNNAME":"安平區","LI":"建平里","LIN":"23鄰","STREET":"永華三街","SECT":" ","MAREA":" ","LANE":" ","ALLEY":" ","HOUSE_NO":"７１號","E_COORD97":166086.07000000001,"N_COORD97":2543616.46,"ADDRESS":"永華三街７１號","OBJECTID":576497},"geometry":{"x":166086.07000000123,"y":2543616.4600000028}},{"attributes":{"ID":576525,"DIS_CODE":0,"TOWNNAME":"安平區","LI":"建平里","LIN":"23鄰","STREET":"永華三街","SECT":" ","MAREA":" ","LANE":" ","ALLEY":" ","HOUSE_NO":"７３號","E_COORD97":166085.57999999999,"N_COORD97":2543621.1499999999,"ADDRESS":"永華三街７３號","OBJECTID":576498},"geometry":{"x":166085.58000000101,"y":2543621.1500000022}},{"attributes":{"ID":576526,"DIS_CODE":0,"TOWNNAME":"安平區","LI":"建平里","LIN":"23鄰","STREET":"永華三街","SECT":" ","MAREA":" ","LANE":" ","ALLEY":" ","HOUSE_NO":"７５號","E_COORD97":166086.07000000001,"N_COORD97":2543625.8500000001,"ADDRESS":"永華三街７５號","OBJECTID":576499},"geometry":{"x":166086.07000000123,"y":2543625.8500000015}},{"attributes":{"ID":576527,"DIS_CODE":0,"TOWNNAME":"永康區","LI":"三合里","LIN":"21鄰","STREET":"南工街","SECT":" ","MAREA":" ","LANE":" ","ALLEY":" ","HOUSE_NO":"３０３號","E_COORD97":171853.22,"N_COORD97":2546058.9900000002,"ADDRESS":"南工街３０３號","OBJECTID":576500},"geometry":{"x":171853.22000000067,"y":2546058.9900000039}},{"attributes":{"ID":576528,"DIS_CODE":0,"TOWNNAME":"永康區","LI":"三合里","LIN":"23鄰","STREET":"中山東路","SECT":" ","MAREA":" ","LANE":" ","ALLEY":" ","HOUSE_NO":"９１號","E_COORD97":171744.85000000001,"N_COORD97":2545949.1000000001,"ADDRESS":"中山東路９１號","OBJECTID":576501},"geometry":{"x":171744.84999999963,"y":2545949.1000000034}},{"attributes":{"ID":576529,"DIS_CODE":0,"TOWNNAME":"永康區","LI":"三合里","LIN":"25鄰","STREET":"中山東路","SECT":" ","MAREA":" ","LANE":" ","ALLEY":" ","HOUSE_NO":"１３５號","E_COORD97":171774.82000000001,"N_COORD97":2545842.5600000001,"ADDRESS":"中山東路１３５號","OBJECTID":576502},"geometry":{"x":171774.82000000216,"y":2545842.5600000024}},{"attributes":{"ID":576530,"DIS_CODE":0,"TOWNNAME":"永康區","LI":"二王里","LIN":"9鄰","STREET":"永二街","SECT":" ","MAREA":" ","LANE":" ","ALLEY":" ","HOUSE_NO":"４１８號","E_COORD97":172725.82000000001,"N_COORD97":2546672.1200000001,"ADDRESS":"永二街４１８號","OBJECTID":576503},"geometry":{"x":172725.82000000216,"y":2546672.120000001}},{"attributes":{"ID":576531,"DIS_CODE":0,"TOWNNAME":"永康區","LI":"三合里","LIN":"23鄰","STREET":"南工街","SECT":" ","MAREA":" ","LANE":" ","ALLEY":" ","HOUSE_NO":"３３９號","E_COORD97":171740.41,"N_COORD97":2546032.3599999999,"ADDRESS":"南工街３３９號","OBJECTID":576504},"geometry":{"x":171740.41000000108,"y":2546032.3600000013}},{"attributes":{"ID":576532,"DIS_CODE":0,"TOWNNAME":"學甲區","LI":"慈福里","LIN":"23鄰","STREET":"綿和路","SECT":" ","MAREA":" ","LANE":" ","ALLEY":" ","HOUSE_NO":"４３號之５","E_COORD97":166273.03,"N_COORD97":2570357.8799999999,"ADDRESS":"綿和路４３號之５","OBJECTID":576505},"geometry":{"x":166273.03000000119,"y":2570357.8800000008}},{"attributes":{"ID":576533,"DIS_CODE":0,"TOWNNAME":"學甲區","LI":"慈福里","LIN":"23鄰","STREET":"綿和路","SECT":" ","MAREA":" ","LANE":" ","ALLEY":" ","HOUSE_NO":"４３號","E_COORD97":166276.92000000001,"N_COORD97":2570356.8399999999,"ADDRESS":"綿和路４３號","OBJECTID":576506},"geometry":{"x":166276.92000000086,"y":2570356.8399999999}},{"attributes":{"ID":576534,"DIS_CODE":0,"TOWNNAME":"學甲區","LI":"慈福里","LIN":"23鄰","STREET":"綿和路","SECT":" ","MAREA":" ","LANE":" ","ALLEY":" ","HOUSE_NO":"４５號","E_COORD97":166268.62,"N_COORD97":2570349.1800000002,"ADDRESS":"綿和路４５號","OBJECTID":576507},"geometry":{"x":166268.62000000104,"y":2570349.1800000034}},{"attributes":{"ID":576535,"DIS_CODE":0,"TOWNNAME":"學甲區","LI":"慈福里","LIN":"23鄰","STREET":"綿和路","SECT":" ","MAREA":" ","LANE":" ","ALLEY":" ","HOUSE_NO":"４７號","E_COORD97":166256.51999999999,"N_COORD97":2570349.9500000002,"ADDRESS":"綿和路４７號","OBJECTID":576508},"geometry":{"x":166256.52000000142,"y":2570349.9499999974}},{"attributes":{"ID":576536,"DIS_CODE":0,"TOWNNAME":"學甲區","LI":"慈福里","LIN":"23鄰","STREET":"綿和路","SECT":" ","MAREA":" ","LANE":" ","ALLEY":" ","HOUSE_NO":"５９號","E_COORD97":166224.03,"N_COORD97":2570376.2599999998,"ADDRESS":"綿和路５９號","OBJECTID":576509},"geometry":{"x":166224.03000000119,"y":2570376.2600000016}},{"attributes":{"ID":576537,"DIS_CODE":0,"TOWNNAME":"六甲區","LI":"六甲里","LIN":"23鄰","STREET":"中山路","SECT":" ","MAREA":" ","LANE":" ","ALLEY":" ","HOUSE_NO":"１１號","E_COORD97":183610.73999999999,"N_COORD97":2569967.9700000002,"ADDRESS":"中山路１１號","OBJECTID":576510},"geometry":{"x":183610.74000000022,"y":2569967.9700000007}},{"attributes":{"ID":576538,"DIS_CODE":0,"TOWNNAME":"六甲區","LI":"六甲里","LIN":"23鄰","STREET":"中山路","SECT":" ","MAREA":" ","LANE":" ","ALLEY":" ","HOUSE_NO":"１３號","E_COORD97":183606.47,"N_COORD97":2569969.1899999999,"ADDRESS":"中山路１３號","OBJECTID":576511},"geometry":{"x":183606.46999999974,"y":2569969.1900000032}},{"attributes":{"ID":576539,"DIS_CODE":0,"TOWNNAME":"南區","LI":"明亮里","LIN":"23鄰","STREET":"金華路","SECT":"一段","MAREA":" ","LANE":" ","ALLEY":" ","HOUSE_NO":"４２６號","E_COORD97":167024.59,"N_COORD97":2541385.8399999999,"ADDRESS":"金華路一段４２６號","OBJECTID":576512},"geometry":{"x":167024.59000000078,"y":2541385.8399999999}},{"attributes":{"ID":576540,"DIS_CODE":0,"TOWNNAME":"南區","LI":"明興里","LIN":"23鄰","STREET":"永興一街","SECT":" ","MAREA":" ","LANE":" ","ALLEY":" ","HOUSE_NO":"４９號","E_COORD97":167135.42000000001,"N_COORD97":2540719.4300000002,"ADDRESS":"永興一街４９號","OBJECTID":576513},"geometry":{"x":167135.41999999993,"y":2540719.4300000016}},{"attributes":{"ID":576541,"DIS_CODE":0,"TOWNNAME":"南區","LI":"明興里","LIN":"23鄰","STREET":"永興一街","SECT":" ","MAREA":" ","LANE":" ","ALLEY":" ","HOUSE_NO":"４７號","E_COORD97":167131.76999999999,"N_COORD97":2540718.75,"ADDRESS":"永興一街４７號","OBJECTID":576514},"geometry":{"x":167131.77000000048,"y":2540718.75}},{"attributes":{"ID":576542,"DIS_CODE":0,"TOWNNAME":"北區","LI":"文元里","LIN":"23鄰","STREET":"文成三路","SECT":" ","MAREA":" ","LANE":" ","ALLEY":" ","HOUSE_NO":"７２８號","E_COORD97":167865.98999999999,"N_COORD97":2546284.3399999999,"ADDRESS":"文成三路７２８號","OBJECTID":576515},"geometry":{"x":167865.98999999929,"y":2546284.3400000017}},{"attributes":{"ID":576543,"DIS_CODE":0,"TOWNNAME":"東區","LI":"龍山里","LIN":"23鄰","STREET":"府東街","SECT":" ","MAREA":" ","LANE":" ","ALLEY":" ","HOUSE_NO":"４５號五樓","E_COORD97":170002.67999999999,"N_COORD97":2542881.8399999999,"ADDRESS":"府東街４５號五樓","OBJECTID":576516},"geometry":{"x":170002.68000000063,"y":2542881.8399999999}},{"attributes":{"ID":576544,"DIS_CODE":0,"TOWNNAME":"永康區","LI":"三合里","LIN":"21鄰","STREET":"南工街","SECT":" ","MAREA":" ","LANE":" ","ALLEY":" ","HOUSE_NO":"３０１號","E_COORD97":171859.98000000001,"N_COORD97":2546058.4900000002,"ADDRESS":"南工街３０１號","OBJECTID":576517},"geometry":{"x":171859.98000000045,"y":2546058.4900000002}},{"attributes":{"ID":576545,"DIS_CODE":0,"TOWNNAME":"南區","LI":"大忠里","LIN":"23鄰","STREET":"中華南路","SECT":"一段","MAREA":" ","LANE":" ","ALLEY":" ","HOUSE_NO":"２１３號","E_COORD97":169043.47,"N_COORD97":2541098.9399999999,"ADDRESS":"中華南路一段２１３號","OBJECTID":576518},"geometry":{"x":169043.46999999974,"y":2541098.9400000013}},{"attributes":{"ID":576546,"DIS_CODE":0,"TOWNNAME":"南區","LI":"廣州里","LIN":"23鄰","STREET":"健康路","SECT":"二段","MAREA":" ","LANE":" ","ALLEY":" ","HOUSE_NO":"１７４號","E_COORD97":167252.17999999999,"N_COORD97":2542480.9700000002,"ADDRESS":"健康路二段１７４號","OBJECTID":576519},"geometry":{"x":167252.17999999877,"y":2542480.9700000007}},{"attributes":{"ID":576547,"DIS_CODE":0,"TOWNNAME":"北區","LI":"大豐里","LIN":"23鄰","STREET":"中華北路","SECT":"一段","MAREA":" ","LANE":" ","ALLEY":" ","HOUSE_NO":"９０號","E_COORD97":166539.69,"N_COORD97":2545505.7200000002,"ADDRESS":"中華北路一段９０號","OBJECTID":576520},"geometry":{"x":166539.69000000134,"y":2545505.7200000025}},{"attributes":{"ID":576548,"DIS_CODE":0,"TOWNNAME":"北區","LI":"大豐里","LIN":"23鄰","STREET":"中華北路","SECT":"一段","MAREA":" ","LANE":" ","ALLEY":" ","HOUSE_NO":"９２號","E_COORD97":166537.84,"N_COORD97":2545509.6600000001,"ADDRESS":"中華北路一段９２號","OBJECTID":576521},"geometry":{"x":166537.84000000078,"y":2545509.660000002}},{"attributes":{"ID":576549,"DIS_CODE":0,"TOWNNAME":"北區","LI":"大豐里","LIN":"23鄰","STREET":"中華北路","SECT":"一段","MAREA":" ","LANE":" ","ALLEY":" ","HOUSE_NO":"９４號","E_COORD97":166536.35999999999,"N_COORD97":2545513.8399999999,"ADDRESS":"中華北路一段９４號","OBJECTID":576522},"geometry":{"x":166536.3600000022,"y":2545513.8400000017}},{"attributes":{"ID":576550,"DIS_CODE":0,"TOWNNAME":"北區","LI":"大豐里","LIN":"23鄰","STREET":"中華北路","SECT":"一段","MAREA":" ","LANE":" ","ALLEY":" ","HOUSE_NO":"９６號","E_COORD97":166535.38,"N_COORD97":2545517.5299999998,"ADDRESS":"中華北路一段９６號","OBJECTID":576523},"geometry":{"x":166535.37999999989,"y":2545517.5299999993}},{"attributes":{"ID":576551,"DIS_CODE":0,"TOWNNAME":"永康區","LI":"五王里","LIN":"23鄰","STREET":"成功路","SECT":" ","MAREA":" ","LANE":" ","ALLEY":" ","HOUSE_NO":"２３８號四樓","E_COORD97":171345.23999999999,"N_COORD97":2545786.02,"ADDRESS":"成功路２３８號四樓","OBJECTID":576524},"geometry":{"x":171345.24000000115,"y":2545786.0199999996}},{"attributes":{"ID":576552,"DIS_CODE":0,"TOWNNAME":"永康區","LI":"五王里","LIN":"23鄰","STREET":"成功路","SECT":" ","MAREA":" ","LANE":" ","ALLEY":" ","HOUSE_NO":"２３８號二樓","E_COORD97":171345.23999999999,"N_COORD97":2545786.02,"ADDRESS":"成功路２３８號二樓","OBJECTID":576525},"geometry":{"x":171345.24000000115,"y":2545786.0199999996}},{"attributes":{"ID":576553,"DIS_CODE":0,"TOWNNAME":"東區","LI":"龍山里","LIN":"23鄰","STREET":"府東街","SECT":" ","MAREA":" ","LANE":" ","ALLEY":" ","HOUSE_NO":"４７號六樓","E_COORD97":169992.39000000001,"N_COORD97":2542886.8799999999,"ADDRESS":"府東街４７號六樓","OBJECTID":576526},"geometry":{"x":169992.3900000006,"y":2542886.879999999}},{"attributes":{"ID":576554,"DIS_CODE":0,"TOWNNAME":"東區","LI":"龍山里","LIN":"23鄰","STREET":"府東街","SECT":" ","MAREA":" ","LANE":" ","ALLEY":" ","HOUSE_NO":"４３號二樓","E_COORD97":170011.95999999999,"N_COORD97":2542879.6200000001,"ADDRESS":"府東街４３號二樓","OBJECTID":576527},"geometry":{"x":170011.95999999996,"y":2542879.6200000029}},{"attributes":{"ID":576555,"DIS_CODE":0,"TOWNNAME":"東區","LI":"龍山里","LIN":"23鄰","STREET":"府東街","SECT":" ","MAREA":" ","LANE":" ","ALLEY":" ","HOUSE_NO":"４３號三樓","E_COORD97":170011.95999999999,"N_COORD97":2542879.6200000001,"ADDRESS":"府東街４３號三樓","OBJECTID":576528},"geometry":{"x":170011.95999999996,"y":2542879.6200000029}},{"attributes":{"ID":576556,"DIS_CODE":0,"TOWNNAME":"東區","LI":"龍山里","LIN":"23鄰","STREET":"府東街","SECT":" ","MAREA":" ","LANE":" ","ALLEY":" ","HOUSE_NO":"４３號四樓","E_COORD97":170011.95999999999,"N_COORD97":2542879.6200000001,"ADDRESS":"府東街４３號四樓","OBJECTID":576529},"geometry":{"x":170011.95999999996,"y":2542879.6200000029}},{"attributes":{"ID":576557,"DIS_CODE":0,"TOWNNAME":"東區","LI":"龍山里","LIN":"23鄰","STREET":"府東街","SECT":" ","MAREA":" ","LANE":" ","ALLEY":" ","HOUSE_NO":"４３號五樓","E_COORD97":170011.95999999999,"N_COORD97":2542879.6200000001,"ADDRESS":"府東街４３號五樓","OBJECTID":576530},"geometry":{"x":170011.95999999996,"y":2542879.6200000029}},{"attributes":{"ID":576558,"DIS_CODE":0,"TOWNNAME":"東區","LI":"龍山里","LIN":"23鄰","STREET":"府東街","SECT":" ","MAREA":" ","LANE":" ","ALLEY":" ","HOUSE_NO":"４３號六樓","E_COORD97":170011.95999999999,"N_COORD97":2542879.6200000001,"ADDRESS":"府東街４３號六樓","OBJECTID":576531},"geometry":{"x":170011.95999999996,"y":2542879.6200000029}},{"attributes":{"ID":576559,"DIS_CODE":0,"TOWNNAME":"東區","LI":"龍山里","LIN":"23鄰","STREET":"府東街","SECT":" ","MAREA":" ","LANE":" ","ALLEY":" ","HOUSE_NO":"４５號二樓","E_COORD97":170002.67999999999,"N_COORD97":2542881.8399999999,"ADDRESS":"府東街４５號二樓","OBJECTID":576532},"geometry":{"x":170002.68000000063,"y":2542881.8399999999}},{"attributes":{"ID":576560,"DIS_CODE":0,"TOWNNAME":"東區","LI":"龍山里","LIN":"23鄰","STREET":"府東街","SECT":" ","MAREA":" ","LANE":" ","ALLEY":" ","HOUSE_NO":"４５號三樓","E_COORD97":170002.67999999999,"N_COORD97":2542881.8399999999,"ADDRESS":"府東街４５號三樓","OBJECTID":576533},"geometry":{"x":170002.68000000063,"y":2542881.8399999999}},{"attributes":{"ID":576561,"DIS_CODE":0,"TOWNNAME":"東區","LI":"龍山里","LIN":"23鄰","STREET":"府東街","SECT":" ","MAREA":" ","LANE":" ","ALLEY":" ","HOUSE_NO":"４５號四樓","E_COORD97":170002.67999999999,"N_COORD97":2542881.8399999999,"ADDRESS":"府東街４５號四樓","OBJECTID":576534},"geometry":{"x":170002.68000000063,"y":2542881.8399999999}},{"attributes":{"ID":576562,"DIS_CODE":0,"TOWNNAME":"東區","LI":"龍山里","LIN":"23鄰","STREET":"府東街","SECT":" ","MAREA":" ","LANE":" ","ALLEY":" ","HOUSE_NO":"４５號六樓","E_COORD97":170002.67999999999,"N_COORD97":2542881.8399999999,"ADDRESS":"府東街４５號六樓","OBJECTID":576535},"geometry":{"x":170002.68000000063,"y":2542881.8399999999}},{"attributes":{"ID":576563,"DIS_CODE":0,"TOWNNAME":"東區","LI":"龍山里","LIN":"23鄰","STREET":"府東街","SECT":" ","MAREA":" ","LANE":" ","ALLEY":" ","HOUSE_NO":"４７號二樓","E_COORD97":169992.39000000001,"N_COORD97":2542886.8799999999,"ADDRESS":"府東街４７號二樓","OBJECTID":576536},"geometry":{"x":169992.3900000006,"y":2542886.879999999}},{"attributes":{"ID":576564,"DIS_CODE":0,"TOWNNAME":"東區","LI":"龍山里","LIN":"23鄰","STREET":"府東街","SECT":" ","MAREA":" ","LANE":" ","ALLEY":" ","HOUSE_NO":"４７號三樓","E_COORD97":169992.39000000001,"N_COORD97":2542886.8799999999,"ADDRESS":"府東街４７號三樓","OBJECTID":576537},"geometry":{"x":169992.3900000006,"y":2542886.879999999}},{"attributes":{"ID":576565,"DIS_CODE":0,"TOWNNAME":"東區","LI":"龍山里","LIN":"23鄰","STREET":"府東街","SECT":" ","MAREA":" ","LANE":" ","ALLEY":" ","HOUSE_NO":"４７號四樓","E_COORD97":169992.39000000001,"N_COORD97":2542886.8799999999,"ADDRESS":"府東街４７號四樓","OBJECTID":576538},"geometry":{"x":169992.3900000006,"y":2542886.879999999}},{"attributes":{"ID":576566,"DIS_CODE":0,"TOWNNAME":"東區","LI":"龍山里","LIN":"23鄰","STREET":"府東街","SECT":" ","MAREA":" ","LANE":" ","ALLEY":" ","HOUSE_NO":"４７號五樓","E_COORD97":169992.39000000001,"N_COORD97":2542886.8799999999,"ADDRESS":"府東街４７號五樓","OBJECTID":576539},"geometry":{"x":169992.3900000006,"y":2542886.879999999}},{"attributes":{"ID":576567,"DIS_CODE":0,"TOWNNAME":"東區","LI":"龍山里","LIN":"23鄰","STREET":"府東街","SECT":" ","MAREA":" ","LANE":" ","ALLEY":" ","HOUSE_NO":"４９號二樓","E_COORD97":169982.70000000001,"N_COORD97":2542888.8999999999,"ADDRESS":"府東街４９號二樓","OBJECTID":576540},"geometry":{"x":169982.70000000112,"y":2542888.9000000004}},{"attributes":{"ID":576568,"DIS_CODE":0,"TOWNNAME":"東區","LI":"龍山里","LIN":"23鄰","STREET":"府東街","SECT":" ","MAREA":" ","LANE":" ","ALLEY":" ","HOUSE_NO":"４９號三樓","E_COORD97":169982.70000000001,"N_COORD97":2542888.8999999999,"ADDRESS":"府東街４９號三樓","OBJECTID":576541},"geometry":{"x":169982.70000000112,"y":2542888.9000000004}},{"attributes":{"ID":576569,"DIS_CODE":0,"TOWNNAME":"東區","LI":"龍山里","LIN":"23鄰","STREET":"府東街","SECT":" ","MAREA":" ","LANE":" ","ALLEY":" ","HOUSE_NO":"４９號四樓","E_COORD97":169982.70000000001,"N_COORD97":2542888.8999999999,"ADDRESS":"府東街４９號四樓","OBJECTID":576542},"geometry":{"x":169982.70000000112,"y":2542888.9000000004}},{"attributes":{"ID":576570,"DIS_CODE":0,"TOWNNAME":"東區","LI":"龍山里","LIN":"23鄰","STREET":"府東街","SECT":" ","MAREA":" ","LANE":" ","ALLEY":" ","HOUSE_NO":"４９號五樓","E_COORD97":169982.70000000001,"N_COORD97":2542888.8999999999,"ADDRESS":"府東街４９號五樓","OBJECTID":576543},"geometry":{"x":169982.70000000112,"y":2542888.9000000004}},{"attributes":{"ID":576571,"DIS_CODE":0,"TOWNNAME":"東區","LI":"龍山里","LIN":"23鄰","STREET":"府東街","SECT":" ","MAREA":" ","LANE":" ","ALLEY":" ","HOUSE_NO":"４９號六樓","E_COORD97":169982.70000000001,"N_COORD97":2542888.8999999999,"ADDRESS":"府東街４９號六樓","OBJECTID":576544},"geometry":{"x":169982.70000000112,"y":2542888.9000000004}},{"attributes":{"ID":576572,"DIS_CODE":0,"TOWNNAME":"永康區","LI":"三合里","LIN":"20鄰","STREET":"南工街","SECT":" ","MAREA":" ","LANE":" ","ALLEY":" ","HOUSE_NO":"２７７號","E_COORD97":171880.54000000001,"N_COORD97":2545992.75,"ADDRESS":"南工街２７７號","OBJECTID":576545},"geometry":{"x":171880.54000000097,"y":2545992.7500000019}},{"attributes":{"ID":576573,"DIS_CODE":0,"TOWNNAME":"安南區","LI":"溪北里","LIN":"23鄰","STREET":"敬安街","SECT":" ","MAREA":" ","LANE":" ","ALLEY":" ","HOUSE_NO":"１１號八樓之３","E_COORD97":169185.98000000001,"N_COORD97":2547570.1400000001,"ADDRESS":"敬安街１１號八樓之３","OBJECTID":576546},"geometry":{"x":169185.98000000138,"y":2547570.1400000043}},{"attributes":{"ID":576574,"DIS_CODE":0,"TOWNNAME":"安南區","LI":"溪北里","LIN":"23鄰","STREET":"敬安街","SECT":" ","MAREA":" ","LANE":" ","ALLEY":" ","HOUSE_NO":"１１號十二樓之１","E_COORD97":169185.98000000001,"N_COORD97":2547570.1400000001,"ADDRESS":"敬安街１１號十二樓之１","OBJECTID":576547},"geometry":{"x":169185.98000000138,"y":2547570.1400000043}},{"attributes":{"ID":576575,"DIS_CODE":0,"TOWNNAME":"安南區","LI":"溪北里","LIN":"23鄰","STREET":"敬安街","SECT":" ","MAREA":" ","LANE":" ","ALLEY":" ","HOUSE_NO":"１１號十二樓之２","E_COORD97":169185.98000000001,"N_COORD97":2547570.1400000001,"ADDRESS":"敬安街１１號十二樓之２","OBJECTID":576548},"geometry":{"x":169185.98000000138,"y":2547570.1400000043}},{"attributes":{"ID":576576,"DIS_CODE":0,"TOWNNAME":"安南區","LI":"溪北里","LIN":"23鄰","STREET":"敬安街","SECT":" ","MAREA":" ","LANE":" ","ALLEY":" ","HOUSE_NO":"１１號十二樓之４","E_COORD97":169185.98000000001,"N_COORD97":2547570.1400000001,"ADDRESS":"敬安街１１號十二樓之４","OBJECTID":576549},"geometry":{"x":169185.98000000138,"y":2547570.1400000043}},{"attributes":{"ID":576577,"DIS_CODE":0,"TOWNNAME":"安南區","LI":"溪北里","LIN":"23鄰","STREET":"敬安街","SECT":" ","MAREA":" ","LANE":" ","ALLEY":" ","HOUSE_NO":"１１號十四樓之１","E_COORD97":169185.98000000001,"N_COORD97":2547570.1400000001,"ADDRESS":"敬安街１１號十四樓之１","OBJECTID":576550},"geometry":{"x":169185.98000000138,"y":2547570.1400000043}},{"attributes":{"ID":576578,"DIS_CODE":0,"TOWNNAME":"安南區","LI":"溪北里","LIN":"23鄰","STREET":"敬安街","SECT":" ","MAREA":" ","LANE":" ","ALLEY":" ","HOUSE_NO":"１１號十樓之１","E_COORD97":169185.98000000001,"N_COORD97":2547570.1400000001,"ADDRESS":"敬安街１１號十樓之１","OBJECTID":576551},"geometry":{"x":169185.98000000138,"y":2547570.1400000043}},{"attributes":{"ID":576579,"DIS_CODE":0,"TOWNNAME":"安南區","LI":"溪北里","LIN":"23鄰","STREET":"敬安街","SECT":" ","MAREA":" ","LANE":" ","ALLEY":" ","HOUSE_NO":"１１號十樓之２","E_COORD97":169185.98000000001,"N_COORD97":2547570.1400000001,"ADDRESS":"敬安街１１號十樓之２","OBJECTID":576552},"geometry":{"x":169185.98000000138,"y":2547570.1400000043}},{"attributes":{"ID":576580,"DIS_CODE":0,"TOWNNAME":"安南區","LI":"溪北里","LIN":"23鄰","STREET":"敬安街","SECT":" ","MAREA":" ","LANE":" ","ALLEY":" ","HOUSE_NO":"１１號十樓之３","E_COORD97":169185.98000000001,"N_COORD97":2547570.1400000001,"ADDRESS":"敬安街１１號十樓之３","OBJECTID":576553},"geometry":{"x":169185.98000000138,"y":2547570.1400000043}},{"attributes":{"ID":576581,"DIS_CODE":0,"TOWNNAME":"安南區","LI":"溪北里","LIN":"23鄰","STREET":"敬安街","SECT":" ","MAREA":" ","LANE":" ","ALLEY":" ","HOUSE_NO":"１１號十樓之４","E_COORD97":169185.98000000001,"N_COORD97":2547570.1400000001,"ADDRESS":"敬安街１１號十樓之４","OBJECTID":576554},"geometry":{"x":169185.98000000138,"y":2547570.1400000043}},{"attributes":{"ID":576582,"DIS_CODE":0,"TOWNNAME":"安南區","LI":"溪北里","LIN":"23鄰","STREET":"敬安街","SECT":" ","MAREA":" ","LANE":" ","ALLEY":" ","HOUSE_NO":"１１號三樓之２","E_COORD97":169185.98000000001,"N_COORD97":2547570.1400000001,"ADDRESS":"敬安街１１號三樓之２","OBJECTID":576555},"geometry":{"x":169185.98000000138,"y":2547570.1400000043}},{"attributes":{"ID":576583,"DIS_CODE":0,"TOWNNAME":"安南區","LI":"溪北里","LIN":"23鄰","STREET":"敬安街","SECT":" ","MAREA":" ","LANE":" ","ALLEY":" ","HOUSE_NO":"１１號三樓之３","E_COORD97":169185.98000000001,"N_COORD97":2547570.1400000001,"ADDRESS":"敬安街１１號三樓之３","OBJECTID":576556},"geometry":{"x":169185.98000000138,"y":2547570.1400000043}},{"attributes":{"ID":576584,"DIS_CODE":0,"TOWNNAME":"安南區","LI":"溪北里","LIN":"23鄰","STREET":"敬安街","SECT":" ","MAREA":" ","LANE":" ","ALLEY":" ","HOUSE_NO":"１１號六樓之１","E_COORD97":169185.98000000001,"N_COORD97":2547570.1400000001,"ADDRESS":"敬安街１１號六樓之１","OBJECTID":576557},"geometry":{"x":169185.98000000138,"y":2547570.1400000043}},{"attributes":{"ID":576585,"DIS_CODE":0,"TOWNNAME":"安南區","LI":"溪北里","LIN":"23鄰","STREET":"敬安街","SECT":" ","MAREA":" ","LANE":" ","ALLEY":" ","HOUSE_NO":"１１號六樓之２","E_COORD97":169185.98000000001,"N_COORD97":2547570.1400000001,"ADDRESS":"敬安街１１號六樓之２","OBJECTID":576558},"geometry":{"x":169185.98000000138,"y":2547570.1400000043}},{"attributes":{"ID":576586,"DIS_CODE":0,"TOWNNAME":"安南區","LI":"溪北里","LIN":"23鄰","STREET":"敬安街","SECT":" ","MAREA":" ","LANE":" ","ALLEY":" ","HOUSE_NO":"１１號六樓之４","E_COORD97":169185.98000000001,"N_COORD97":2547570.1400000001,"ADDRESS":"敬安街１１號六樓之４","OBJECTID":576559},"geometry":{"x":169185.98000000138,"y":2547570.1400000043}},{"attributes":{"ID":576587,"DIS_CODE":0,"TOWNNAME":"安南區","LI":"溪北里","LIN":"23鄰","STREET":"敬安街","SECT":" ","MAREA":" ","LANE":" ","ALLEY":" ","HOUSE_NO":"１１號四樓","E_COORD97":169185.98000000001,"N_COORD97":2547570.1400000001,"ADDRESS":"敬安街１１號四樓","OBJECTID":576560},"geometry":{"x":169185.98000000138,"y":2547570.1400000043}},{"attributes":{"ID":576588,"DIS_CODE":0,"TOWNNAME":"安南區","LI":"溪北里","LIN":"23鄰","STREET":"敬安街","SECT":" ","MAREA":" ","LANE":" ","ALLEY":" ","HOUSE_NO":"１１號四樓之２","E_COORD97":169185.98000000001,"N_COORD97":2547570.1400000001,"ADDRESS":"敬安街１１號四樓之２","OBJECTID":576561},"geometry":{"x":169185.98000000138,"y":2547570.1400000043}},{"attributes":{"ID":576589,"DIS_CODE":0,"TOWNNAME":"安南區","LI":"溪北里","LIN":"23鄰","STREET":"敬安街","SECT":" ","MAREA":" ","LANE":" ","ALLEY":" ","HOUSE_NO":"１１號四樓之３","E_COORD97":169185.98000000001,"N_COORD97":2547570.1400000001,"ADDRESS":"敬安街１１號四樓之３","OBJECTID":576562},"geometry":{"x":169185.98000000138,"y":2547570.1400000043}},{"attributes":{"ID":576590,"DIS_CODE":0,"TOWNNAME":"安南區","LI":"溪北里","LIN":"23鄰","STREET":"敬安街","SECT":" ","MAREA":" ","LANE":" ","ALLEY":" ","HOUSE_NO":"１１號四樓之４","E_COORD97":169185.98000000001,"N_COORD97":2547570.1400000001,"ADDRESS":"敬安街１１號四樓之４","OBJECTID":576563},"geometry":{"x":169185.98000000138,"y":2547570.1400000043}},{"attributes":{"ID":576591,"DIS_CODE":0,"TOWNNAME":"安南區","LI":"溪北里","LIN":"23鄰","STREET":"敬安街","SECT":" ","MAREA":" ","LANE":" ","ALLEY":" ","HOUSE_NO":"１３號八樓之１","E_COORD97":169160.48000000001,"N_COORD97":2547570.2599999998,"ADDRESS":"敬安街１３號八樓之１","OBJECTID":576564},"geometry":{"x":169160.48000000138,"y":2547570.2600000016}},{"attributes":{"ID":576592,"DIS_CODE":0,"TOWNNAME":"安南區","LI":"溪北里","LIN":"23鄰","STREET":"敬安街","SECT":" ","MAREA":" ","LANE":" ","ALLEY":" ","HOUSE_NO":"１３號八樓之３","E_COORD97":169160.48000000001,"N_COORD97":2547570.2599999998,"ADDRESS":"敬安街１３號八樓之３","OBJECTID":576565},"geometry":{"x":169160.48000000138,"y":2547570.2600000016}},{"attributes":{"ID":576593,"DIS_CODE":0,"TOWNNAME":"安南區","LI":"溪北里","LIN":"23鄰","STREET":"敬安街","SECT":" ","MAREA":" ","LANE":" ","ALLEY":" ","HOUSE_NO":"１３號八樓之４","E_COORD97":169160.48000000001,"N_COORD97":2547570.2599999998,"ADDRESS":"敬安街１３號八樓之４","OBJECTID":576566},"geometry":{"x":169160.48000000138,"y":2547570.2600000016}},{"attributes":{"ID":576594,"DIS_CODE":0,"TOWNNAME":"永康區","LI":"三合里","LIN":"7鄰","STREET":"南工街","SECT":" ","MAREA":" ","LANE":" ","ALLEY":" ","HOUSE_NO":"６３號","E_COORD97":172090.37,"N_COORD97":2545635.2400000002,"ADDRESS":"南工街６３號","OBJECTID":576567},"geometry":{"x":172090.37000000011,"y":2545635.2400000002}},{"attributes":{"ID":576595,"DIS_CODE":0,"TOWNNAME":"永康區","LI":"二王里","LIN":"12鄰","STREET":"永二街","SECT":" ","MAREA":" ","LANE":" ","ALLEY":" ","HOUSE_NO":"４０５號","E_COORD97":172841.98000000001,"N_COORD97":2546650.1800000002,"ADDRESS":"永二街４０５號","OBJECTID":576568},"geometry":{"x":172841.98000000138,"y":2546650.1800000034}},{"attributes":{"ID":576596,"DIS_CODE":0,"TOWNNAME":"安南區","LI":"溪北里","LIN":"23鄰","STREET":"敬安街","SECT":" ","MAREA":" ","LANE":" ","ALLEY":" ","HOUSE_NO":"１３號十二樓之４","E_COORD97":169160.48000000001,"N_COORD97":2547570.2599999998,"ADDRESS":"敬安街１３號十二樓之４","OBJECTID":576569},"geometry":{"x":169160.48000000138,"y":2547570.2600000016}},{"attributes":{"ID":576597,"DIS_CODE":0,"TOWNNAME":"安南區","LI":"溪北里","LIN":"23鄰","STREET":"敬安街","SECT":" ","MAREA":" ","LANE":" ","ALLEY":" ","HOUSE_NO":"１３號十樓之１","E_COORD97":169160.48000000001,"N_COORD97":2547570.2599999998,"ADDRESS":"敬安街１３號十樓之１","OBJECTID":576570},"geometry":{"x":169160.48000000138,"y":2547570.2600000016}},{"attributes":{"ID":576598,"DIS_CODE":0,"TOWNNAME":"安南區","LI":"溪北里","LIN":"23鄰","STREET":"敬安街","SECT":" ","MAREA":" ","LANE":" ","ALLEY":" ","HOUSE_NO":"１３號十樓之２","E_COORD97":169160.48000000001,"N_COORD97":2547570.2599999998,"ADDRESS":"敬安街１３號十樓之２","OBJECTID":576571},"geometry":{"x":169160.48000000138,"y":2547570.2600000016}},{"attributes":{"ID":576599,"DIS_CODE":0,"TOWNNAME":"安南區","LI":"溪北里","LIN":"23鄰","STREET":"敬安街","SECT":" ","MAREA":" ","LANE":" ","ALLEY":" ","HOUSE_NO":"１３號十樓之３","E_COORD97":169160.48000000001,"N_COORD97":2547570.2599999998,"ADDRESS":"敬安街１３號十樓之３","OBJECTID":576572},"geometry":{"x":169160.48000000138,"y":2547570.2600000016}},{"attributes":{"ID":576600,"DIS_CODE":0,"TOWNNAME":"安南區","LI":"溪北里","LIN":"23鄰","STREET":"敬安街","SECT":" ","MAREA":" ","LANE":" ","ALLEY":" ","HOUSE_NO":"１３號十樓之４","E_COORD97":169160.48000000001,"N_COORD97":2547570.2599999998,"ADDRESS":"敬安街１３號十樓之４","OBJECTID":576573},"geometry":{"x":169160.48000000138,"y":2547570.2600000016}},{"attributes":{"ID":576601,"DIS_CODE":0,"TOWNNAME":"安南區","LI":"溪北里","LIN":"23鄰","STREET":"敬安街","SECT":" ","MAREA":" ","LANE":" ","ALLEY":" ","HOUSE_NO":"１３號三樓之３","E_COORD97":169160.48000000001,"N_COORD97":2547570.2599999998,"ADDRESS":"敬安街１３號三樓之３","OBJECTID":576574},"geometry":{"x":169160.48000000138,"y":2547570.2600000016}},{"attributes":{"ID":576602,"DIS_CODE":0,"TOWNNAME":"安南區","LI":"溪北里","LIN":"23鄰","STREET":"敬安街","SECT":" ","MAREA":" ","LANE":" ","ALLEY":" ","HOUSE_NO":"１３號六樓之３","E_COORD97":169160.48000000001,"N_COORD97":2547570.2599999998,"ADDRESS":"敬安街１３號六樓之３","OBJECTID":576575},"geometry":{"x":169160.48000000138,"y":2547570.2600000016}},{"attributes":{"ID":576603,"DIS_CODE":0,"TOWNNAME":"安南區","LI":"溪北里","LIN":"23鄰","STREET":"敬安街","SECT":" ","MAREA":" ","LANE":" ","ALLEY":" ","HOUSE_NO":"１３號四樓之２","E_COORD97":169160.48000000001,"N_COORD97":2547570.2599999998,"ADDRESS":"敬安街１３號四樓之２","OBJECTID":576576},"geometry":{"x":169160.48000000138,"y":2547570.2600000016}},{"attributes":{"ID":576604,"DIS_CODE":0,"TOWNNAME":"東區","LI":"崇善里","LIN":"23鄰","STREET":"崇善十二街","SECT":" ","MAREA":" ","LANE":" ","ALLEY":" ","HOUSE_NO":"４１號二樓","E_COORD97":171263.82000000001,"N_COORD97":2541117.8500000001,"ADDRESS":"崇善十二街４１號二樓","OBJECTID":576577},"geometry":{"x":171263.8200000003,"y":2541117.8499999996}},{"attributes":{"ID":576605,"DIS_CODE":0,"TOWNNAME":"東區","LI":"崇善里","LIN":"23鄰","STREET":"崇善十二街","SECT":" ","MAREA":" ","LANE":" ","ALLEY":" ","HOUSE_NO":"４１號二樓之１","E_COORD97":171263.82000000001,"N_COORD97":2541117.8500000001,"ADDRESS":"崇善十二街４１號二樓之１","OBJECTID":576578},"geometry":{"x":171263.8200000003,"y":2541117.8499999996}},{"attributes":{"ID":576606,"DIS_CODE":0,"TOWNNAME":"東區","LI":"崇善里","LIN":"23鄰","STREET":"崇善十二街","SECT":" ","MAREA":" ","LANE":" ","ALLEY":" ","HOUSE_NO":"４１號二樓之２","E_COORD97":171263.82000000001,"N_COORD97":2541117.8500000001,"ADDRESS":"崇善十二街４１號二樓之２","OBJECTID":576579},"geometry":{"x":171263.8200000003,"y":2541117.8499999996}},{"attributes":{"ID":576607,"DIS_CODE":0,"TOWNNAME":"東區","LI":"崇善里","LIN":"23鄰","STREET":"崇善十二街","SECT":" ","MAREA":" ","LANE":" ","ALLEY":" ","HOUSE_NO":"４１號三樓","E_COORD97":171263.82000000001,"N_COORD97":2541117.8500000001,"ADDRESS":"崇善十二街４１號三樓","OBJECTID":576580},"geometry":{"x":171263.8200000003,"y":2541117.8499999996}},{"attributes":{"ID":576608,"DIS_CODE":0,"TOWNNAME":"東區","LI":"崇善里","LIN":"23鄰","STREET":"崇善十二街","SECT":" ","MAREA":" ","LANE":" ","ALLEY":" ","HOUSE_NO":"４１號三樓之１","E_COORD97":171263.82000000001,"N_COORD97":2541117.8500000001,"ADDRESS":"崇善十二街４１號三樓之１","OBJECTID":576581},"geometry":{"x":171263.8200000003,"y":2541117.8499999996}},{"attributes":{"ID":576609,"DIS_CODE":0,"TOWNNAME":"東區","LI":"崇善里","LIN":"23鄰","STREET":"崇善十二街","SECT":" ","MAREA":" ","LANE":" ","ALLEY":" ","HOUSE_NO":"４１號三樓之２","E_COORD97":171263.82000000001,"N_COORD97":2541117.8500000001,"ADDRESS":"崇善十二街４１號三樓之２","OBJECTID":576582},"geometry":{"x":171263.8200000003,"y":2541117.8499999996}},{"attributes":{"ID":576610,"DIS_CODE":0,"TOWNNAME":"東區","LI":"崇善里","LIN":"23鄰","STREET":"崇善十二街","SECT":" ","MAREA":" ","LANE":" ","ALLEY":" ","HOUSE_NO":"４１號四樓","E_COORD97":171263.82000000001,"N_COORD97":2541117.8500000001,"ADDRESS":"崇善十二街４１號四樓","OBJECTID":576583},"geometry":{"x":171263.8200000003,"y":2541117.8499999996}},{"attributes":{"ID":576611,"DIS_CODE":0,"TOWNNAME":"東區","LI":"崇善里","LIN":"23鄰","STREET":"崇善十二街","SECT":" ","MAREA":" ","LANE":" ","ALLEY":" ","HOUSE_NO":"４１號四樓之１","E_COORD97":171263.82000000001,"N_COORD97":2541117.8500000001,"ADDRESS":"崇善十二街４１號四樓之１","OBJECTID":576584},"geometry":{"x":171263.8200000003,"y":2541117.8499999996}},{"attributes":{"ID":576612,"DIS_CODE":0,"TOWNNAME":"東區","LI":"崇善里","LIN":"23鄰","STREET":"崇善十二街","SECT":" ","MAREA":" ","LANE":" ","ALLEY":" ","HOUSE_NO":"４１號四樓之２","E_COORD97":171263.82000000001,"N_COORD97":2541117.8500000001,"ADDRESS":"崇善十二街４１號四樓之２","OBJECTID":576585},"geometry":{"x":171263.8200000003,"y":2541117.8499999996}},{"attributes":{"ID":576613,"DIS_CODE":0,"TOWNNAME":"東區","LI":"崇善里","LIN":"23鄰","STREET":"崇善十二街","SECT":" ","MAREA":" ","LANE":" ","ALLEY":" ","HOUSE_NO":"４１號五樓","E_COORD97":171263.82000000001,"N_COORD97":2541117.8500000001,"ADDRESS":"崇善十二街４１號五樓","OBJECTID":576586},"geometry":{"x":171263.8200000003,"y":2541117.8499999996}},{"attributes":{"ID":576614,"DIS_CODE":0,"TOWNNAME":"東區","LI":"崇善里","LIN":"23鄰","STREET":"崇善十二街","SECT":" ","MAREA":" ","LANE":" ","ALLEY":" ","HOUSE_NO":"４１號五樓之１","E_COORD97":171263.82000000001,"N_COORD97":2541117.8500000001,"ADDRESS":"崇善十二街４１號五樓之１","OBJECTID":576587},"geometry":{"x":171263.8200000003,"y":2541117.8499999996}},{"attributes":{"ID":576615,"DIS_CODE":0,"TOWNNAME":"東區","LI":"崇善里","LIN":"23鄰","STREET":"崇善十二街","SECT":" ","MAREA":" ","LANE":" ","ALLEY":" ","HOUSE_NO":"４１號五樓之２","E_COORD97":171263.82000000001,"N_COORD97":2541117.8500000001,"ADDRESS":"崇善十二街４１號五樓之２","OBJECTID":576588},"geometry":{"x":171263.8200000003,"y":2541117.8499999996}},{"attributes":{"ID":576616,"DIS_CODE":0,"TOWNNAME":"東區","LI":"崇善里","LIN":"23鄰","STREET":"崇善十二街","SECT":" ","MAREA":" ","LANE":" ","ALLEY":" ","HOUSE_NO":"４１號六樓","E_COORD97":171263.82000000001,"N_COORD97":2541117.8500000001,"ADDRESS":"崇善十二街４１號六樓","OBJECTID":576589},"geometry":{"x":171263.8200000003,"y":2541117.8499999996}},{"attributes":{"ID":576617,"DIS_CODE":0,"TOWNNAME":"東區","LI":"崇善里","LIN":"23鄰","STREET":"崇善十二街","SECT":" ","MAREA":" ","LANE":" ","ALLEY":" ","HOUSE_NO":"４１號六樓之１","E_COORD97":171263.82000000001,"N_COORD97":2541117.8500000001,"ADDRESS":"崇善十二街４１號六樓之１","OBJECTID":576590},"geometry":{"x":171263.8200000003,"y":2541117.8499999996}},{"attributes":{"ID":576618,"DIS_CODE":0,"TOWNNAME":"東區","LI":"崇善里","LIN":"23鄰","STREET":"崇善十二街","SECT":" ","MAREA":" ","LANE":" ","ALLEY":" ","HOUSE_NO":"４１號六樓之２","E_COORD97":171263.82000000001,"N_COORD97":2541117.8500000001,"ADDRESS":"崇善十二街４１號六樓之２","OBJECTID":576591},"geometry":{"x":171263.8200000003,"y":2541117.8499999996}},{"attributes":{"ID":576619,"DIS_CODE":0,"TOWNNAME":"東區","LI":"崇善里","LIN":"23鄰","STREET":"崇善十二街","SECT":" ","MAREA":" ","LANE":" ","ALLEY":" ","HOUSE_NO":"４１號七樓","E_COORD97":171263.82000000001,"N_COORD97":2541117.8500000001,"ADDRESS":"崇善十二街４１號七樓","OBJECTID":576592},"geometry":{"x":171263.8200000003,"y":2541117.8499999996}},{"attributes":{"ID":576620,"DIS_CODE":0,"TOWNNAME":"東區","LI":"崇善里","LIN":"23鄰","STREET":"崇善十二街","SECT":" ","MAREA":" ","LANE":" ","ALLEY":" ","HOUSE_NO":"４１號七樓之１","E_COORD97":171263.82000000001,"N_COORD97":2541117.8500000001,"ADDRESS":"崇善十二街４１號七樓之１","OBJECTID":576593},"geometry":{"x":171263.8200000003,"y":2541117.8499999996}},{"attributes":{"ID":576621,"DIS_CODE":0,"TOWNNAME":"東區","LI":"崇善里","LIN":"23鄰","STREET":"崇善十二街","SECT":" ","MAREA":" ","LANE":" ","ALLEY":" ","HOUSE_NO":"４１號七樓之２","E_COORD97":171263.82000000001,"N_COORD97":2541117.8500000001,"ADDRESS":"崇善十二街４１號七樓之２","OBJECTID":576594},"geometry":{"x":171263.8200000003,"y":2541117.8499999996}},{"attributes":{"ID":576622,"DIS_CODE":0,"TOWNNAME":"東區","LI":"崇善里","LIN":"23鄰","STREET":"崇善十二街","SECT":" ","MAREA":" ","LANE":" ","ALLEY":" ","HOUSE_NO":"４５號二樓","E_COORD97":171267.53,"N_COORD97":2541134.2599999998,"ADDRESS":"崇善十二街４５號二樓","OBJECTID":576595},"geometry":{"x":171267.53000000026,"y":2541134.2600000016}},{"attributes":{"ID":576623,"DIS_CODE":0,"TOWNNAME":"東區","LI":"崇善里","LIN":"23鄰","STREET":"崇善十二街","SECT":" ","MAREA":" ","LANE":" ","ALLEY":" ","HOUSE_NO":"４５號二樓之１","E_COORD97":171267.53,"N_COORD97":2541134.2599999998,"ADDRESS":"崇善十二街４５號二樓之１","OBJECTID":576596},"geometry":{"x":171267.53000000026,"y":2541134.2600000016}},{"attributes":{"ID":576624,"DIS_CODE":0,"TOWNNAME":"東區","LI":"崇善里","LIN":"23鄰","STREET":"崇善十二街","SECT":" ","MAREA":" ","LANE":" ","ALLEY":" ","HOUSE_NO":"４５號三樓","E_COORD97":171267.53,"N_COORD97":2541134.2599999998,"ADDRESS":"崇善十二街４５號三樓","OBJECTID":576597},"geometry":{"x":171267.53000000026,"y":2541134.2600000016}},{"attributes":{"ID":576625,"DIS_CODE":0,"TOWNNAME":"東區","LI":"崇善里","LIN":"23鄰","STREET":"崇善十二街","SECT":" ","MAREA":" ","LANE":" ","ALLEY":" ","HOUSE_NO":"４５號三樓之１","E_COORD97":171267.53,"N_COORD97":2541134.2599999998,"ADDRESS":"崇善十二街４５號三樓之１","OBJECTID":576598},"geometry":{"x":171267.53000000026,"y":2541134.2600000016}},{"attributes":{"ID":576626,"DIS_CODE":0,"TOWNNAME":"東區","LI":"崇善里","LIN":"23鄰","STREET":"崇善十二街","SECT":" ","MAREA":" ","LANE":" ","ALLEY":" ","HOUSE_NO":"４５號四樓","E_COORD97":171267.53,"N_COORD97":2541134.2599999998,"ADDRESS":"崇善十二街４５號四樓","OBJECTID":576599},"geometry":{"x":171267.53000000026,"y":2541134.2600000016}},{"attributes":{"ID":576627,"DIS_CODE":0,"TOWNNAME":"東區","LI":"崇善里","LIN":"23鄰","STREET":"崇善十二街","SECT":" ","MAREA":" ","LANE":" ","ALLEY":" ","HOUSE_NO":"４５號四樓之１","E_COORD97":171267.53,"N_COORD97":2541134.2599999998,"ADDRESS":"崇善十二街４５號四樓之１","OBJECTID":576600},"geometry":{"x":171267.53000000026,"y":2541134.2600000016}}]}