{"displayFieldName":"TOWNNAME","fieldAliases":{"ID":"ID","DIS_CODE":"DIS_CODE","TOWNNAME":"TOWNNAME","LI":"LI","LIN":"LIN","STREET":"STREET","SECT":"SECT","MAREA":"MAREA","LANE":"LANE","ALLEY":"ALLEY","HOUSE_NO":"HOUSE_NO","E_COORD97":"E_COORD97","N_COORD97":"N_COORD97","ADDRESS":"ADDRESS","OBJECTID":"OBJECTID"},"geometryType":"esriGeometryPoint","spatialReference":{"wkid":102443,"latestWkid":3826},"fields":[{"name":"ID","type":"esriFieldTypeDouble","alias":"ID"},{"name":"DIS_CODE","type":"esriFieldTypeInteger","alias":"DIS_CODE"},{"name":"TOWNNAME","type":"esriFieldTypeString","alias":"TOWNNAME","length":8},{"name":"LI","type":"esriFieldTypeString","alias":"LI","length":8},{"name":"LIN","type":"esriFieldTypeString","alias":"LIN","length":12},{"name":"STREET","type":"esriFieldTypeString","alias":"STREET","length":20},{"name":"SECT","type":"esriFieldTypeString","alias":"SECT","length":8},{"name":"MAREA","type":"esriFieldTypeString","alias":"MAREA","length":12},{"name":"LANE","type":"esriFieldTypeString","alias":"LANE","length":10},{"name":"ALLEY","type":"esriFieldTypeString","alias":"ALLEY","length":10},{"name":"HOUSE_NO","type":"esriFieldTypeString","alias":"HOUSE_NO","length":20},{"name":"E_COORD97","type":"esriFieldTypeDouble","alias":"E_COORD97"},{"name":"N_COORD97","type":"esriFieldTypeDouble","alias":"N_COORD97"},{"name":"ADDRESS","type":"esriFieldTypeString","alias":"ADDRESS","length":50},{"name":"OBJECTID","type":"esriFieldTypeOID","alias":"OBJECTID"}],"features":[{"attributes":{"ID":278607,"DIS_CODE":0,"TOWNNAME":"永康區","LI":"北灣里","LIN":"3鄰","STREET":"信義街","SECT":" ","MAREA":" ","LANE":" ","ALLEY":" ","HOUSE_NO":"７５號","E_COORD97":175335.95999999999,"N_COORD97":2545645.1400000001,"ADDRESS":"信義街７５號","OBJECTID":278601},"geometry":{"x":175335.95999999996,"y":2545645.1400000025}},{"attributes":{"ID":278608,"DIS_CODE":0,"TOWNNAME":"永康區","LI":"蔦松里","LIN":"2鄰","STREET":"中正北路","SECT":" ","MAREA":" ","LANE":" ","ALLEY":" ","HOUSE_NO":"５３３號四樓之３","E_COORD97":173895.20999999999,"N_COORD97":2549210.29,"ADDRESS":"中正北路５３３號四樓之３","OBJECTID":278602},"geometry":{"x":173895.20999999996,"y":2549210.290000001}},{"attributes":{"ID":278609,"DIS_CODE":0,"TOWNNAME":"安南區","LI":"四草里","LIN":"4鄰","STREET":"大眾五街","SECT":" ","MAREA":" ","LANE":"３６巷","ALLEY":" ","HOUSE_NO":"１１號","E_COORD97":160712.57532900001,"N_COORD97":2546235.2634100001,"ADDRESS":"大眾五街３６巷１１號","OBJECTID":278603},"geometry":{"x":160712.57532900013,"y":2546235.2634089999}},{"attributes":{"ID":278610,"DIS_CODE":0,"TOWNNAME":"東區","LI":"大智里","LIN":"35鄰","STREET":"崇善十五街","SECT":" ","MAREA":" ","LANE":"３３巷","ALLEY":" ","HOUSE_NO":"６５號","E_COORD97":171384.14999999999,"N_COORD97":2540467.1499999999,"ADDRESS":"崇善十五街３３巷６５號","OBJECTID":278604},"geometry":{"x":171384.15000000037,"y":2540467.1500000041}},{"attributes":{"ID":278611,"DIS_CODE":0,"TOWNNAME":"東區","LI":"大智里","LIN":"35鄰","STREET":"崇善十五街","SECT":" ","MAREA":" ","LANE":"３３巷","ALLEY":" ","HOUSE_NO":"６７號","E_COORD97":171389.06,"N_COORD97":2540466.8300000001,"ADDRESS":"崇善十五街３３巷６７號","OBJECTID":278605},"geometry":{"x":171389.05999999959,"y":2540466.8300000019}},{"attributes":{"ID":278612,"DIS_CODE":0,"TOWNNAME":"安南區","LI":"四草里","LIN":"5鄰","STREET":"北汕尾一路","SECT":" ","MAREA":" ","LANE":"９６巷","ALLEY":" ","HOUSE_NO":"４９號","E_COORD97":160851.67743400001,"N_COORD97":2546120.94099,"ADDRESS":"北汕尾一路９６巷４９號","OBJECTID":278606},"geometry":{"x":160851.67743400019,"y":2546120.9409940001}},{"attributes":{"ID":278613,"DIS_CODE":0,"TOWNNAME":"仁德區","LI":"成功里","LIN":"35鄰","STREET":"成功一街","SECT":" ","MAREA":" ","LANE":"６７巷","ALLEY":" ","HOUSE_NO":"１９號","E_COORD97":170608.89999999999,"N_COORD97":2540057.7599999998,"ADDRESS":"成功一街６７巷１９號","OBJECTID":278607},"geometry":{"x":170608.90000000037,"y":2540057.7599999998}},{"attributes":{"ID":278614,"DIS_CODE":0,"TOWNNAME":"仁德區","LI":"後壁里","LIN":"35鄰","STREET":"德洋路","SECT":" ","MAREA":" ","LANE":"２０５巷","ALLEY":" ","HOUSE_NO":"１９號","E_COORD97":172439.17999999999,"N_COORD97":2539510.02,"ADDRESS":"德洋路２０５巷１９號","OBJECTID":278608},"geometry":{"x":172439.1799999997,"y":2539510.0199999996}},{"attributes":{"ID":278615,"DIS_CODE":0,"TOWNNAME":"仁德區","LI":"太子里","LIN":"35鄰","STREET":"太子路","SECT":" ","MAREA":" ","LANE":"４５９巷","ALLEY":" ","HOUSE_NO":"１０號","E_COORD97":174226.67999999999,"N_COORD97":2543455.5,"ADDRESS":"太子路４５９巷１０號","OBJECTID":278609},"geometry":{"x":174226.68000000063,"y":2543455.5000000019}},{"attributes":{"ID":278616,"DIS_CODE":0,"TOWNNAME":"永康區","LI":"永康里","LIN":"3鄰","STREET":"中山路","SECT":" ","MAREA":" ","LANE":" ","ALLEY":" ","HOUSE_NO":"１２號","E_COORD97":173877.79000000001,"N_COORD97":2547415.1800000002,"ADDRESS":"中山路１２號","OBJECTID":278610},"geometry":{"x":173877.79000000004,"y":2547415.1799999997}},{"attributes":{"ID":278617,"DIS_CODE":0,"TOWNNAME":"永康區","LI":"五王里","LIN":"2鄰","STREET":"成功路","SECT":" ","MAREA":" ","LANE":" ","ALLEY":" ","HOUSE_NO":"９１號六樓之１","E_COORD97":171454.91,"N_COORD97":2545566.54,"ADDRESS":"成功路９１號六樓之１","OBJECTID":278611},"geometry":{"x":171454.91000000015,"y":2545566.540000001}},{"attributes":{"ID":278618,"DIS_CODE":0,"TOWNNAME":"永康區","LI":"西橋里","LIN":"2鄰","STREET":"中山南路","SECT":" ","MAREA":" ","LANE":" ","ALLEY":" ","HOUSE_NO":"６１號五樓之１","E_COORD97":170806.57000000001,"N_COORD97":2545857.54,"ADDRESS":"中山南路６１號五樓之１","OBJECTID":278612},"geometry":{"x":170806.5700000003,"y":2545857.540000001}},{"attributes":{"ID":278619,"DIS_CODE":0,"TOWNNAME":"永康區","LI":"西橋里","LIN":"2鄰","STREET":"中山南路","SECT":" ","MAREA":" ","LANE":" ","ALLEY":" ","HOUSE_NO":"６１號七樓之４","E_COORD97":170806.59,"N_COORD97":2545857.54,"ADDRESS":"中山南路６１號七樓之４","OBJECTID":278613},"geometry":{"x":170806.59000000078,"y":2545857.540000001}},{"attributes":{"ID":278620,"DIS_CODE":0,"TOWNNAME":"仁德區","LI":"太子里","LIN":"35鄰","STREET":"太子路","SECT":" ","MAREA":" ","LANE":"４５９巷","ALLEY":" ","HOUSE_NO":"５號","E_COORD97":174232.17000000001,"N_COORD97":2543469.75,"ADDRESS":"太子路４５９巷５號","OBJECTID":278614},"geometry":{"x":174232.17000000086,"y":2543469.7499999981}},{"attributes":{"ID":278621,"DIS_CODE":0,"TOWNNAME":"北區","LI":"仁愛里","LIN":"2鄰","STREET":"勝利路","SECT":" ","MAREA":" ","LANE":" ","ALLEY":" ","HOUSE_NO":"２２０號六樓之５","E_COORD97":169935.87,"N_COORD97":2545010.29,"ADDRESS":"勝利路２２０號六樓之５","OBJECTID":278615},"geometry":{"x":169935.87000000011,"y":2545010.2899999991}},{"attributes":{"ID":278622,"DIS_CODE":0,"TOWNNAME":"北區","LI":"仁愛里","LIN":"2鄰","STREET":"勝利路","SECT":" ","MAREA":" ","LANE":" ","ALLEY":" ","HOUSE_NO":"２２０號四樓","E_COORD97":169935.87,"N_COORD97":2545010.29,"ADDRESS":"勝利路２２０號四樓","OBJECTID":278616},"geometry":{"x":169935.87000000011,"y":2545010.2899999991}},{"attributes":{"ID":278623,"DIS_CODE":0,"TOWNNAME":"仁德區","LI":"成功里","LIN":"35鄰","STREET":"保華路","SECT":" ","MAREA":" ","LANE":"６４巷","ALLEY":" ","HOUSE_NO":"１１號","E_COORD97":170611.26000000001,"N_COORD97":2540037.2400000002,"ADDRESS":"保華路６４巷１１號","OBJECTID":278617},"geometry":{"x":170611.25999999978,"y":2540037.2400000021}},{"attributes":{"ID":278624,"DIS_CODE":0,"TOWNNAME":"永康區","LI":"\u25A0行里","LIN":"35鄰","STREET":"中正北路","SECT":" ","MAREA":" ","LANE":"１７７巷","ALLEY":" ","HOUSE_NO":"３２號","E_COORD97":172360.04000000001,"N_COORD97":2549212.4700000002,"ADDRESS":"中正北路１７７巷３２號","OBJECTID":278618},"geometry":{"x":172360.04000000097,"y":2549212.4700000044}},{"attributes":{"ID":278625,"DIS_CODE":0,"TOWNNAME":"北區","LI":"仁愛里","LIN":"2鄰","STREET":"勝利路","SECT":" ","MAREA":" ","LANE":" ","ALLEY":" ","HOUSE_NO":"２２０號四樓之１","E_COORD97":169935.87,"N_COORD97":2545010.29,"ADDRESS":"勝利路２２０號四樓之１","OBJECTID":278619},"geometry":{"x":169935.87000000011,"y":2545010.2899999991}},{"attributes":{"ID":278626,"DIS_CODE":0,"TOWNNAME":"永康區","LI":"\u25A0行里","LIN":"35鄰","STREET":"中正北路","SECT":" ","MAREA":" ","LANE":"１７７巷","ALLEY":" ","HOUSE_NO":"２６號","E_COORD97":172371.54999999999,"N_COORD97":2549213.2200000002,"ADDRESS":"中正北路１７７巷２６號","OBJECTID":278620},"geometry":{"x":172371.55000000075,"y":2549213.2200000007}},{"attributes":{"ID":278627,"DIS_CODE":0,"TOWNNAME":"永康區","LI":"\u25A0行里","LIN":"35鄰","STREET":"中正北路","SECT":" ","MAREA":" ","LANE":"１７７巷","ALLEY":" ","HOUSE_NO":"６號","E_COORD97":172422.97,"N_COORD97":2549164.4900000002,"ADDRESS":"中正北路１７７巷６號","OBJECTID":278621},"geometry":{"x":172422.97000000067,"y":2549164.4900000039}},{"attributes":{"ID":278628,"DIS_CODE":0,"TOWNNAME":"永康區","LI":"\u25A0行里","LIN":"35鄰","STREET":"中正北路","SECT":" ","MAREA":" ","LANE":"１７７巷","ALLEY":" ","HOUSE_NO":"４號","E_COORD97":172426.59,"N_COORD97":2549164.9900000002,"ADDRESS":"中正北路１７７巷４號","OBJECTID":278622},"geometry":{"x":172426.58999999985,"y":2549164.9900000021}},{"attributes":{"ID":278629,"DIS_CODE":0,"TOWNNAME":"永康區","LI":"\u25A0行里","LIN":"35鄰","STREET":"中正北路","SECT":" ","MAREA":" ","LANE":"１７７巷","ALLEY":" ","HOUSE_NO":"３４號","E_COORD97":172355.95999999999,"N_COORD97":2549212.4700000002,"ADDRESS":"中正北路１７７巷３４號","OBJECTID":278623},"geometry":{"x":172355.95999999996,"y":2549212.4700000044}},{"attributes":{"ID":278630,"DIS_CODE":0,"TOWNNAME":"永康區","LI":"\u25A0行里","LIN":"35鄰","STREET":"中正北路","SECT":" ","MAREA":" ","LANE":"１７７巷","ALLEY":" ","HOUSE_NO":"１２號","E_COORD97":172411.29999999999,"N_COORD97":2549163.9900000002,"ADDRESS":"中正北路１７７巷１２號","OBJECTID":278624},"geometry":{"x":172411.29999999981,"y":2549163.9900000002}},{"attributes":{"ID":278631,"DIS_CODE":0,"TOWNNAME":"永康區","LI":"北灣里","LIN":"5鄰","STREET":"大灣路","SECT":" ","MAREA":" ","LANE":" ","ALLEY":" ","HOUSE_NO":"９９號","E_COORD97":175161.75,"N_COORD97":2545605.8500000001,"ADDRESS":"大灣路９９號","OBJECTID":278625},"geometry":{"x":175161.74999999907,"y":2545605.8500000015}},{"attributes":{"ID":278632,"DIS_CODE":0,"TOWNNAME":"永康區","LI":"\u25A0行里","LIN":"35鄰","STREET":"中正北路","SECT":" ","MAREA":" ","LANE":"１７７巷","ALLEY":" ","HOUSE_NO":"３３號","E_COORD97":172359.63,"N_COORD97":2549199.3500000001,"ADDRESS":"中正北路１７７巷３３號","OBJECTID":278626},"geometry":{"x":172359.62999999989,"y":2549199.3500000015}},{"attributes":{"ID":278633,"DIS_CODE":0,"TOWNNAME":"永康區","LI":"\u25A0行里","LIN":"35鄰","STREET":"中正北路","SECT":" ","MAREA":" ","LANE":"１７７巷","ALLEY":" ","HOUSE_NO":"１３號","E_COORD97":172386.07999999999,"N_COORD97":2549168.96,"ADDRESS":"中正北路１７７巷１３號","OBJECTID":278627},"geometry":{"x":172386.08000000007,"y":2549168.9600000028}},{"attributes":{"ID":278634,"DIS_CODE":0,"TOWNNAME":"永康區","LI":"\u25A0行里","LIN":"35鄰","STREET":"中正北路","SECT":" ","MAREA":" ","LANE":"１７７巷","ALLEY":" ","HOUSE_NO":"１０號","E_COORD97":172415.44,"N_COORD97":2549164.2400000002,"ADDRESS":"中正北路１７７巷１０號","OBJECTID":278628},"geometry":{"x":172415.44000000134,"y":2549164.2400000021}},{"attributes":{"ID":278635,"DIS_CODE":0,"TOWNNAME":"永康區","LI":"\u25A0行里","LIN":"35鄰","STREET":"中正北路","SECT":" ","MAREA":" ","LANE":"１７７巷","ALLEY":" ","HOUSE_NO":"１６號","E_COORD97":172402.54999999999,"N_COORD97":2549163.7400000002,"ADDRESS":"中正北路１７７巷１６號","OBJECTID":278629},"geometry":{"x":172402.54999999981,"y":2549163.7400000021}},{"attributes":{"ID":278636,"DIS_CODE":0,"TOWNNAME":"永康區","LI":"龍潭里","LIN":"35鄰","STREET":"龍安街","SECT":" ","MAREA":" ","LANE":"１８９巷","ALLEY":" ","HOUSE_NO":"７號","E_COORD97":174618.39999999999,"N_COORD97":2548509.9100000001,"ADDRESS":"龍安街１８９巷７號","OBJECTID":278630},"geometry":{"x":174618.40000000037,"y":2548509.9100000001}},{"attributes":{"ID":278637,"DIS_CODE":0,"TOWNNAME":"永康區","LI":"安康里","LIN":"25鄰","STREET":"中華路","SECT":" ","MAREA":" ","LANE":" ","ALLEY":" ","HOUSE_NO":"７０５號","E_COORD97":170897.10999999999,"N_COORD97":2546336.75,"ADDRESS":"中華路７０５號","OBJECTID":278631},"geometry":{"x":170897.11000000127,"y":2546336.75}},{"attributes":{"ID":278638,"DIS_CODE":0,"TOWNNAME":"永康區","LI":"龍潭里","LIN":"35鄰","STREET":"自強路","SECT":" ","MAREA":" ","LANE":"７５０巷","ALLEY":" ","HOUSE_NO":"６７號","E_COORD97":174560.10000000001,"N_COORD97":2548473.3199999998,"ADDRESS":"自強路７５０巷６７號","OBJECTID":278632},"geometry":{"x":174560.09999999963,"y":2548473.3200000003}},{"attributes":{"ID":278639,"DIS_CODE":0,"TOWNNAME":"永康區","LI":"龍潭里","LIN":"35鄰","STREET":"自強路","SECT":" ","MAREA":" ","LANE":"７５０巷","ALLEY":" ","HOUSE_NO":"５５號","E_COORD97":174528.23000000001,"N_COORD97":2548482.5,"ADDRESS":"自強路７５０巷５５號","OBJECTID":278633},"geometry":{"x":174528.23000000045,"y":2548482.5000000037}},{"attributes":{"ID":278640,"DIS_CODE":0,"TOWNNAME":"安平區","LI":"建平里","LIN":"2鄰","STREET":"建平十七街","SECT":" ","MAREA":" ","LANE":" ","ALLEY":" ","HOUSE_NO":"４３號十七樓之４","E_COORD97":166197.94,"N_COORD97":2544207.8599999999,"ADDRESS":"建平十七街４３號十七樓之４","OBJECTID":278634},"geometry":{"x":166197.94000000041,"y":2544207.8600000031}},{"attributes":{"ID":278641,"DIS_CODE":0,"TOWNNAME":"安平區","LI":"建平里","LIN":"2鄰","STREET":"建平十七街","SECT":" ","MAREA":" ","LANE":" ","ALLEY":" ","HOUSE_NO":"４３號十七樓之５","E_COORD97":166197.94,"N_COORD97":2544207.8599999999,"ADDRESS":"建平十七街４３號十七樓之５","OBJECTID":278635},"geometry":{"x":166197.94000000041,"y":2544207.8600000031}},{"attributes":{"ID":278642,"DIS_CODE":0,"TOWNNAME":"永康區","LI":"龍潭里","LIN":"35鄰","STREET":"自強路","SECT":" ","MAREA":" ","LANE":"７５０巷","ALLEY":" ","HOUSE_NO":"６５號","E_COORD97":174555.20999999999,"N_COORD97":2548473.5699999998,"ADDRESS":"自強路７５０巷６５號","OBJECTID":278636},"geometry":{"x":174555.21000000183,"y":2548473.5700000022}},{"attributes":{"ID":278643,"DIS_CODE":0,"TOWNNAME":"永康區","LI":"龍潭里","LIN":"35鄰","STREET":"龍安街","SECT":" ","MAREA":" ","LANE":"１８９巷","ALLEY":" ","HOUSE_NO":"１６號","E_COORD97":174640.04999999999,"N_COORD97":2548536.1600000001,"ADDRESS":"龍安街１８９巷１６號","OBJECTID":278637},"geometry":{"x":174640.05000000075,"y":2548536.1600000039}},{"attributes":{"ID":278644,"DIS_CODE":0,"TOWNNAME":"永康區","LI":"龍潭里","LIN":"35鄰","STREET":"自強路","SECT":" ","MAREA":" ","LANE":"７５０巷","ALLEY":" ","HOUSE_NO":"５７號","E_COORD97":174532.95000000001,"N_COORD97":2548482,"ADDRESS":"自強路７５０巷５７號","OBJECTID":278638},"geometry":{"x":174532.95000000019,"y":2548482}},{"attributes":{"ID":278645,"DIS_CODE":0,"TOWNNAME":"永康區","LI":"龍潭里","LIN":"35鄰","STREET":"龍安街","SECT":" ","MAREA":" ","LANE":"１８９巷","ALLEY":" ","HOUSE_NO":"１２號","E_COORD97":174643.10000000001,"N_COORD97":2548532.6600000001,"ADDRESS":"龍安街１８９巷１２號","OBJECTID":278639},"geometry":{"x":174643.09999999963,"y":2548532.6600000039}},{"attributes":{"ID":278646,"DIS_CODE":0,"TOWNNAME":"永康區","LI":"西灣里","LIN":"19鄰","STREET":"大安街","SECT":" ","MAREA":" ","LANE":" ","ALLEY":" ","HOUSE_NO":"３２５號","E_COORD97":174625.28,"N_COORD97":2545707.79,"ADDRESS":"大安街３２５號","OBJECTID":278640},"geometry":{"x":174625.28000000119,"y":2545707.790000001}},{"attributes":{"ID":278647,"DIS_CODE":0,"TOWNNAME":"永康區","LI":"龍潭里","LIN":"35鄰","STREET":"自強路","SECT":" ","MAREA":" ","LANE":"７５０巷","ALLEY":" ","HOUSE_NO":"６３號","E_COORD97":174549.84,"N_COORD97":2548474.5699999998,"ADDRESS":"自強路７５０巷６３號","OBJECTID":278641},"geometry":{"x":174549.84000000078,"y":2548474.5700000003}},{"attributes":{"ID":278648,"DIS_CODE":0,"TOWNNAME":"永康區","LI":"龍潭里","LIN":"23鄰","STREET":"龍中街","SECT":" ","MAREA":" ","LANE":" ","ALLEY":" ","HOUSE_NO":"１６４號","E_COORD97":174408.92000000001,"N_COORD97":2548345.52,"ADDRESS":"龍中街１６４號","OBJECTID":278642},"geometry":{"x":174408.91999999993,"y":2548345.5199999996}},{"attributes":{"ID":278649,"DIS_CODE":0,"TOWNNAME":"安平區","LI":"建平里","LIN":"2鄰","STREET":"建平十七街","SECT":" ","MAREA":" ","LANE":" ","ALLEY":" ","HOUSE_NO":"４３號十三樓之６","E_COORD97":166197.94,"N_COORD97":2544207.8599999999,"ADDRESS":"建平十七街４３號十三樓之６","OBJECTID":278643},"geometry":{"x":166197.94000000041,"y":2544207.8600000031}},{"attributes":{"ID":278650,"DIS_CODE":0,"TOWNNAME":"永康區","LI":"龍潭里","LIN":"35鄰","STREET":"龍安街","SECT":" ","MAREA":" ","LANE":"１８９巷","ALLEY":" ","HOUSE_NO":"２６號","E_COORD97":174627.82000000001,"N_COORD97":2548550.4100000001,"ADDRESS":"龍安街１８９巷２６號","OBJECTID":278644},"geometry":{"x":174627.82000000216,"y":2548550.4100000001}},{"attributes":{"ID":278651,"DIS_CODE":0,"TOWNNAME":"永康區","LI":"龍潭里","LIN":"35鄰","STREET":"自強路","SECT":" ","MAREA":" ","LANE":"７５０巷","ALLEY":" ","HOUSE_NO":"５號","E_COORD97":174474.19,"N_COORD97":2548485,"ADDRESS":"自強路７５０巷５號","OBJECTID":278645},"geometry":{"x":174474.19000000041,"y":2548485}},{"attributes":{"ID":278652,"DIS_CODE":0,"TOWNNAME":"安平區","LI":"建平里","LIN":"2鄰","STREET":"建平十七街","SECT":" ","MAREA":" ","LANE":" ","ALLEY":" ","HOUSE_NO":"４３號十三樓之７","E_COORD97":166197.94,"N_COORD97":2544207.8599999999,"ADDRESS":"建平十七街４３號十三樓之７","OBJECTID":278646},"geometry":{"x":166197.94000000041,"y":2544207.8600000031}},{"attributes":{"ID":278653,"DIS_CODE":0,"TOWNNAME":"仁德區","LI":"仁德里","LIN":"35鄰","STREET":"中山路","SECT":" ","MAREA":" ","LANE":"７５８巷","ALLEY":" ","HOUSE_NO":"１６號","E_COORD97":172706,"N_COORD97":2541588.4900000002,"ADDRESS":"中山路７５８巷１６號","OBJECTID":278647},"geometry":{"x":172706.00000000093,"y":2541588.4900000021}},{"attributes":{"ID":278654,"DIS_CODE":0,"TOWNNAME":"安平區","LI":"建平里","LIN":"2鄰","STREET":"建平十七街","SECT":" ","MAREA":" ","LANE":" ","ALLEY":" ","HOUSE_NO":"４３號十六樓之３","E_COORD97":166197.94,"N_COORD97":2544207.8599999999,"ADDRESS":"建平十七街４３號十六樓之３","OBJECTID":278648},"geometry":{"x":166197.94000000041,"y":2544207.8600000031}},{"attributes":{"ID":278655,"DIS_CODE":0,"TOWNNAME":"安平區","LI":"建平里","LIN":"2鄰","STREET":"建平十七街","SECT":" ","MAREA":" ","LANE":" ","ALLEY":" ","HOUSE_NO":"４３號十六樓之４","E_COORD97":166197.94,"N_COORD97":2544207.8599999999,"ADDRESS":"建平十七街４３號十六樓之４","OBJECTID":278649},"geometry":{"x":166197.94000000041,"y":2544207.8600000031}},{"attributes":{"ID":278656,"DIS_CODE":0,"TOWNNAME":"仁德區","LI":"仁義里","LIN":"35鄰","STREET":"中正路","SECT":"二段","MAREA":" ","LANE":"６４２巷","ALLEY":" ","HOUSE_NO":"３號","E_COORD97":173435.89999999999,"N_COORD97":2539798.5299999998,"ADDRESS":"中正路二段６４２巷３號","OBJECTID":278650},"geometry":{"x":173435.9000000013,"y":2539798.5299999993}},{"attributes":{"ID":278657,"DIS_CODE":0,"TOWNNAME":"仁德區","LI":"太子里","LIN":"35鄰","STREET":"太子路","SECT":" ","MAREA":" ","LANE":"４５９巷","ALLEY":" ","HOUSE_NO":"４號","E_COORD97":174221.84,"N_COORD97":2543468,"ADDRESS":"太子路４５９巷４號","OBJECTID":278651},"geometry":{"x":174221.83999999985,"y":2543467.9999999981}},{"attributes":{"ID":278658,"DIS_CODE":0,"TOWNNAME":"永康區","LI":"\u25A0行里","LIN":"35鄰","STREET":"中正北路","SECT":" ","MAREA":" ","LANE":"１７７巷","ALLEY":" ","HOUSE_NO":"２７號","E_COORD97":172383.79999999999,"N_COORD97":2549199.7200000002,"ADDRESS":"中正北路１７７巷２７號","OBJECTID":278652},"geometry":{"x":172383.79999999981,"y":2549199.7200000007}},{"attributes":{"ID":278659,"DIS_CODE":0,"TOWNNAME":"永康區","LI":"\u25A0行里","LIN":"35鄰","STREET":"中正北路","SECT":" ","MAREA":" ","LANE":"１７７巷","ALLEY":" ","HOUSE_NO":"１號","E_COORD97":172423.26000000001,"N_COORD97":2549138.75,"ADDRESS":"中正北路１７７巷１號","OBJECTID":278653},"geometry":{"x":172423.25999999978,"y":2549138.7500000037}},{"attributes":{"ID":278660,"DIS_CODE":0,"TOWNNAME":"安平區","LI":"建平里","LIN":"2鄰","STREET":"建平十七街","SECT":" ","MAREA":" ","LANE":" ","ALLEY":" ","HOUSE_NO":"４３號十樓之７","E_COORD97":166197.94,"N_COORD97":2544207.8599999999,"ADDRESS":"建平十七街４３號十樓之７","OBJECTID":278654},"geometry":{"x":166197.94000000041,"y":2544207.8600000031}},{"attributes":{"ID":278661,"DIS_CODE":0,"TOWNNAME":"安平區","LI":"建平里","LIN":"2鄰","STREET":"建平十七街","SECT":" ","MAREA":" ","LANE":" ","ALLEY":" ","HOUSE_NO":"４３號十樓之８","E_COORD97":166197.94,"N_COORD97":2544207.8599999999,"ADDRESS":"建平十七街４３號十樓之８","OBJECTID":278655},"geometry":{"x":166197.94000000041,"y":2544207.8600000031}},{"attributes":{"ID":278662,"DIS_CODE":0,"TOWNNAME":"安平區","LI":"建平里","LIN":"2鄰","STREET":"建平十七街","SECT":" ","MAREA":" ","LANE":" ","ALLEY":" ","HOUSE_NO":"４３號十樓之９","E_COORD97":166197.94,"N_COORD97":2544207.8599999999,"ADDRESS":"建平十七街４３號十樓之９","OBJECTID":278656},"geometry":{"x":166197.94000000041,"y":2544207.8600000031}},{"attributes":{"ID":278663,"DIS_CODE":0,"TOWNNAME":"永康區","LI":"\u25A0行里","LIN":"35鄰","STREET":"中正北路","SECT":" ","MAREA":" ","LANE":"１７７巷","ALLEY":" ","HOUSE_NO":"９號","E_COORD97":172384.54999999999,"N_COORD97":2549158.4399999999,"ADDRESS":"中正北路１７７巷９號","OBJECTID":278657},"geometry":{"x":172384.54999999888,"y":2549158.4400000013}},{"attributes":{"ID":278664,"DIS_CODE":0,"TOWNNAME":"永康區","LI":"勝利里","LIN":"35鄰","STREET":"勝利街","SECT":" ","MAREA":" ","LANE":"２巷","ALLEY":" ","HOUSE_NO":"１４號","E_COORD97":171112.48999999999,"N_COORD97":2544706.25,"ADDRESS":"勝利街２巷１４號","OBJECTID":278658},"geometry":{"x":171112.49000000209,"y":2544706.25}},{"attributes":{"ID":278665,"DIS_CODE":0,"TOWNNAME":"永康區","LI":"勝利里","LIN":"35鄰","STREET":"勝利街","SECT":" ","MAREA":" ","LANE":"２巷","ALLEY":" ","HOUSE_NO":"２０號","E_COORD97":171099.82000000001,"N_COORD97":2544706.25,"ADDRESS":"勝利街２巷２０號","OBJECTID":278659},"geometry":{"x":171099.8200000003,"y":2544706.25}},{"attributes":{"ID":278666,"DIS_CODE":0,"TOWNNAME":"永康區","LI":"龍潭里","LIN":"35鄰","STREET":"龍安街","SECT":" ","MAREA":" ","LANE":"１８９巷","ALLEY":" ","HOUSE_NO":"２８號","E_COORD97":174624.97,"N_COORD97":2548553.4100000001,"ADDRESS":"龍安街１８９巷２８號","OBJECTID":278660},"geometry":{"x":174624.97000000067,"y":2548553.4100000001}},{"attributes":{"ID":278667,"DIS_CODE":0,"TOWNNAME":"永康區","LI":"龍潭里","LIN":"35鄰","STREET":"自強路","SECT":" ","MAREA":" ","LANE":"７５０巷","ALLEY":" ","HOUSE_NO":"５３號","E_COORD97":174518.54999999999,"N_COORD97":2548483.1600000001,"ADDRESS":"自強路７５０巷５３號","OBJECTID":278661},"geometry":{"x":174518.54999999981,"y":2548483.160000002}},{"attributes":{"ID":278668,"DIS_CODE":0,"TOWNNAME":"永康區","LI":"龍潭里","LIN":"35鄰","STREET":"龍安街","SECT":" ","MAREA":" ","LANE":"１８９巷","ALLEY":" ","HOUSE_NO":"１號","E_COORD97":174636.48000000001,"N_COORD97":2548515.3199999998,"ADDRESS":"龍安街１８９巷１號","OBJECTID":278662},"geometry":{"x":174636.48000000045,"y":2548515.3200000022}},{"attributes":{"ID":278669,"DIS_CODE":0,"TOWNNAME":"安平區","LI":"建平里","LIN":"2鄰","STREET":"建平十七街","SECT":" ","MAREA":" ","LANE":" ","ALLEY":" ","HOUSE_NO":"４３號五樓之７","E_COORD97":166197.94,"N_COORD97":2544207.8599999999,"ADDRESS":"建平十七街４３號五樓之７","OBJECTID":278663},"geometry":{"x":166197.94000000041,"y":2544207.8600000031}},{"attributes":{"ID":278670,"DIS_CODE":0,"TOWNNAME":"永康區","LI":"安康里","LIN":"7鄰","STREET":"中山南路","SECT":" ","MAREA":" ","LANE":" ","ALLEY":" ","HOUSE_NO":"１０１號","E_COORD97":170908.98000000001,"N_COORD97":2545917,"ADDRESS":"中山南路１０１號","OBJECTID":278664},"geometry":{"x":170908.98000000045,"y":2545917.0000000019}},{"attributes":{"ID":278671,"DIS_CODE":0,"TOWNNAME":"永康區","LI":"龍潭里","LIN":"35鄰","STREET":"自強路","SECT":" ","MAREA":" ","LANE":"８０２巷","ALLEY":" ","HOUSE_NO":"２號","E_COORD97":174581.20999999999,"N_COORD97":2548579.8900000001,"ADDRESS":"自強路８０２巷２號","OBJECTID":278665},"geometry":{"x":174581.21000000089,"y":2548579.8900000025}},{"attributes":{"ID":278672,"DIS_CODE":0,"TOWNNAME":"永康區","LI":"龍潭里","LIN":"35鄰","STREET":"龍安街","SECT":" ","MAREA":" ","LANE":"１８９巷","ALLEY":" ","HOUSE_NO":"５號","E_COORD97":174626.17999999999,"N_COORD97":2548527.3100000001,"ADDRESS":"龍安街１８９巷５號","OBJECTID":278666},"geometry":{"x":174626.1799999997,"y":2548527.3100000005}},{"attributes":{"ID":278673,"DIS_CODE":0,"TOWNNAME":"永康區","LI":"埔園里","LIN":"35鄰","STREET":"自強路","SECT":" ","MAREA":" ","LANE":" ","ALLEY":" ","HOUSE_NO":"６１１號","E_COORD97":174185.63,"N_COORD97":2548333.5600000001,"ADDRESS":"自強路６１１號","OBJECTID":278667},"geometry":{"x":174185.62999999989,"y":2548333.5600000042}},{"attributes":{"ID":278674,"DIS_CODE":0,"TOWNNAME":"東區","LI":"後甲里","LIN":"34鄰","STREET":"中華東路","SECT":"一段","MAREA":" ","LANE":" ","ALLEY":" ","HOUSE_NO":"１３３號","E_COORD97":171481.22,"N_COORD97":2543579.0699999998,"ADDRESS":"中華東路一段１３３號","OBJECTID":278668},"geometry":{"x":171481.21999999974,"y":2543579.0700000003}},{"attributes":{"ID":278675,"DIS_CODE":0,"TOWNNAME":"永康區","LI":"龍潭里","LIN":"35鄰","STREET":"龍安街","SECT":" ","MAREA":" ","LANE":"１８９巷","ALLEY":" ","HOUSE_NO":"８號","E_COORD97":174647.85999999999,"N_COORD97":2548525.6699999999,"ADDRESS":"龍安街１８９巷８號","OBJECTID":278669},"geometry":{"x":174647.8600000022,"y":2548525.6700000037}},{"attributes":{"ID":278676,"DIS_CODE":0,"TOWNNAME":"永康區","LI":"永康里","LIN":"35鄰","STREET":"大同街","SECT":" ","MAREA":" ","LANE":"８０１巷","ALLEY":" ","HOUSE_NO":"１６號","E_COORD97":174398.04999999999,"N_COORD97":2546988.5499999998,"ADDRESS":"大同街８０１巷１６號","OBJECTID":278670},"geometry":{"x":174398.04999999981,"y":2546988.5500000026}},{"attributes":{"ID":278677,"DIS_CODE":0,"TOWNNAME":"永康區","LI":"永康里","LIN":"35鄰","STREET":"大同街","SECT":" ","MAREA":" ","LANE":"８０１巷","ALLEY":" ","HOUSE_NO":"９號","E_COORD97":174405,"N_COORD97":2546977.9900000002,"ADDRESS":"大同街８０１巷９號","OBJECTID":278671},"geometry":{"x":174405,"y":2546977.9900000021}},{"attributes":{"ID":278678,"DIS_CODE":0,"TOWNNAME":"永康區","LI":"復華里","LIN":"35鄰","STREET":"復華七街","SECT":" ","MAREA":" ","LANE":"３９巷","ALLEY":" ","HOUSE_NO":"１６號","E_COORD97":172594.13,"N_COORD97":2546075.04,"ADDRESS":"復華七街３９巷１６號","OBJECTID":278672},"geometry":{"x":172594.12999999989,"y":2546075.040000001}},{"attributes":{"ID":278679,"DIS_CODE":0,"TOWNNAME":"永康區","LI":"埔園里","LIN":"35鄰","STREET":"八德街","SECT":" ","MAREA":" ","LANE":"９１巷","ALLEY":" ","HOUSE_NO":"８號","E_COORD97":174127.98000000001,"N_COORD97":2548447.6800000002,"ADDRESS":"八德街９１巷８號","OBJECTID":278673},"geometry":{"x":174127.98000000045,"y":2548447.6800000016}},{"attributes":{"ID":278680,"DIS_CODE":0,"TOWNNAME":"永康區","LI":"龍潭里","LIN":"35鄰","STREET":"龍安街","SECT":" ","MAREA":" ","LANE":"１８９巷","ALLEY":" ","HOUSE_NO":"３號","E_COORD97":174631.07000000001,"N_COORD97":2548522.0699999998,"ADDRESS":"龍安街１８９巷３號","OBJECTID":278674},"geometry":{"x":174631.07000000216,"y":2548522.0700000003}},{"attributes":{"ID":278681,"DIS_CODE":0,"TOWNNAME":"永康區","LI":"\u25A0行里","LIN":"35鄰","STREET":"中正北路","SECT":" ","MAREA":" ","LANE":"１７７巷","ALLEY":" ","HOUSE_NO":"３號","E_COORD97":172419.89999999999,"N_COORD97":2549135.25,"ADDRESS":"中正北路１７７巷３號","OBJECTID":278675},"geometry":{"x":172419.90000000037,"y":2549135.2500000037}},{"attributes":{"ID":278682,"DIS_CODE":0,"TOWNNAME":"永康區","LI":"\u25A0行里","LIN":"35鄰","STREET":"中正北路","SECT":" ","MAREA":" ","LANE":"１７７巷","ALLEY":" ","HOUSE_NO":"８號","E_COORD97":172418.73000000001,"N_COORD97":2549164.4900000002,"ADDRESS":"中正北路１７７巷８號","OBJECTID":278676},"geometry":{"x":172418.73000000138,"y":2549164.4900000039}},{"attributes":{"ID":278683,"DIS_CODE":0,"TOWNNAME":"永康區","LI":"正強里","LIN":"35鄰","STREET":"正強街","SECT":" ","MAREA":" ","LANE":"３１３巷","ALLEY":" ","HOUSE_NO":"１０號","E_COORD97":173224.64999999999,"N_COORD97":2548268.8999999999,"ADDRESS":"正強街３１３巷１０號","OBJECTID":278677},"geometry":{"x":173224.65000000037,"y":2548268.9000000004}},{"attributes":{"ID":278684,"DIS_CODE":0,"TOWNNAME":"東區","LI":"路東里","LIN":"10鄰","STREET":"大同路","SECT":"二段","MAREA":" ","LANE":"１９巷","ALLEY":" ","HOUSE_NO":"４２號","E_COORD97":169405.94,"N_COORD97":2542328.4700000002,"ADDRESS":"大同路二段１９巷４２號","OBJECTID":278678},"geometry":{"x":169405.94000000227,"y":2542328.4700000007}},{"attributes":{"ID":278685,"DIS_CODE":0,"TOWNNAME":"中西區","LI":"公正里","LIN":"10鄰","STREET":"西華南街","SECT":" ","MAREA":" ","LANE":"３６巷","ALLEY":" ","HOUSE_NO":"１６號","E_COORD97":168988.25,"N_COORD97":2543796.0600000001,"ADDRESS":"西華南街３６巷１６號","OBJECTID":278679},"geometry":{"x":168988.25000000093,"y":2543796.0600000005}},{"attributes":{"ID":278686,"DIS_CODE":0,"TOWNNAME":"安南區","LI":"城南里","LIN":"10鄰","STREET":"城南路","SECT":" ","MAREA":" ","LANE":"２５２巷","ALLEY":" ","HOUSE_NO":"１２６號","E_COORD97":160294.82999999999,"N_COORD97":2550843.5,"ADDRESS":"城南路２５２巷１２６號","OBJECTID":278680},"geometry":{"x":160294.83000000101,"y":2550843.5000000019}},{"attributes":{"ID":278687,"DIS_CODE":0,"TOWNNAME":"安南區","LI":"城南里","LIN":"10鄰","STREET":"城南路","SECT":" ","MAREA":" ","LANE":"２５２巷","ALLEY":" ","HOUSE_NO":"７６號","E_COORD97":160283.09,"N_COORD97":2550841.4399999999,"ADDRESS":"城南路２５２巷７６號","OBJECTID":278681},"geometry":{"x":160283.09000000078,"y":2550841.4399999995}},{"attributes":{"ID":278688,"DIS_CODE":0,"TOWNNAME":"安南區","LI":"州北里","LIN":"10鄰","STREET":"安和路","SECT":"五段","MAREA":" ","LANE":"１７１巷","ALLEY":" ","HOUSE_NO":"１１０之１號","E_COORD97":169591.89000000001,"N_COORD97":2551734.0699999998,"ADDRESS":"安和路五段１７１巷１１０之１號","OBJECTID":278682},"geometry":{"x":169591.89000000153,"y":2551734.070000004}},{"attributes":{"ID":278689,"DIS_CODE":0,"TOWNNAME":"安南區","LI":"州北里","LIN":"10鄰","STREET":"安和路","SECT":"五段","MAREA":" ","LANE":"１７１巷","ALLEY":" ","HOUSE_NO":"１１０之２號","E_COORD97":169586.85999999999,"N_COORD97":2551731.6800000002,"ADDRESS":"安和路五段１７１巷１１０之２號","OBJECTID":278683},"geometry":{"x":169586.86000000127,"y":2551731.6799999997}},{"attributes":{"ID":278690,"DIS_CODE":0,"TOWNNAME":"安南區","LI":"州北里","LIN":"10鄰","STREET":"安和路","SECT":"五段","MAREA":" ","LANE":"１７１巷","ALLEY":" ","HOUSE_NO":"１１０之３號","E_COORD97":169582.17999999999,"N_COORD97":2551729.8799999999,"ADDRESS":"安和路五段１７１巷１１０之３號","OBJECTID":278684},"geometry":{"x":169582.18000000063,"y":2551729.879999999}},{"attributes":{"ID":278691,"DIS_CODE":0,"TOWNNAME":"安南區","LI":"州北里","LIN":"10鄰","STREET":"安和路","SECT":"五段","MAREA":" ","LANE":"１７１巷","ALLEY":" ","HOUSE_NO":"１１０之５號","E_COORD97":169577.63,"N_COORD97":2551727.8399999999,"ADDRESS":"安和路五段１７１巷１１０之５號","OBJECTID":278685},"geometry":{"x":169577.63000000082,"y":2551727.8399999999}},{"attributes":{"ID":278692,"DIS_CODE":0,"TOWNNAME":"安南區","LI":"州北里","LIN":"10鄰","STREET":"安和路","SECT":"五段","MAREA":" ","LANE":"１７１巷","ALLEY":" ","HOUSE_NO":"１１０之６號","E_COORD97":169573.79000000001,"N_COORD97":2551726.6400000001,"ADDRESS":"安和路五段１７１巷１１０之６號","OBJECTID":278686},"geometry":{"x":169573.79000000004,"y":2551726.6399999987}},{"attributes":{"ID":278693,"DIS_CODE":0,"TOWNNAME":"安南區","LI":"海西里","LIN":"10鄰","STREET":"海環街","SECT":" ","MAREA":" ","LANE":"１４６巷","ALLEY":" ","HOUSE_NO":"４６號","E_COORD97":166326.91,"N_COORD97":2548688.75,"ADDRESS":"海環街１４６巷４６號","OBJECTID":278687},"geometry":{"x":166326.91000000015,"y":2548688.7500000019}},{"attributes":{"ID":278694,"DIS_CODE":0,"TOWNNAME":"南區","LI":"荔宅里","LIN":"10鄰","STREET":"大成路","SECT":"一段","MAREA":" ","LANE":"１９３巷","ALLEY":" ","HOUSE_NO":"１０號","E_COORD97":167753.78,"N_COORD97":2541707.9100000001,"ADDRESS":"大成路一段１９３巷１０號","OBJECTID":278688},"geometry":{"x":167753.78000000026,"y":2541707.9100000001}},{"attributes":{"ID":278695,"DIS_CODE":0,"TOWNNAME":"南區","LI":"白雪里","LIN":"10鄰","STREET":"鹽埕路","SECT":" ","MAREA":" ","LANE":"１０３巷","ALLEY":" ","HOUSE_NO":"１３號","E_COORD97":166794.09,"N_COORD97":2540805.6299999999,"ADDRESS":"鹽埕路１０３巷１３號","OBJECTID":278689},"geometry":{"x":166794.09000000078,"y":2540805.6300000008}},{"attributes":{"ID":278696,"DIS_CODE":0,"TOWNNAME":"南區","LI":"白雪里","LIN":"10鄰","STREET":"鹽埕路","SECT":" ","MAREA":" ","LANE":"１０３巷","ALLEY":" ","HOUSE_NO":"１３號之１","E_COORD97":166793.16,"N_COORD97":2540799.2000000002,"ADDRESS":"鹽埕路１０３巷１３號之１","OBJECTID":278690},"geometry":{"x":166793.16000000015,"y":2540799.2000000011}},{"attributes":{"ID":278697,"DIS_CODE":0,"TOWNNAME":"南區","LI":"白雪里","LIN":"10鄰","STREET":"鹽埕路","SECT":" ","MAREA":" ","LANE":"１０３巷","ALLEY":" ","HOUSE_NO":"１３號之２","E_COORD97":166791.89000000001,"N_COORD97":2540795.3900000001,"ADDRESS":"鹽埕路１０３巷１３號之２","OBJECTID":278691},"geometry":{"x":166791.8900000006,"y":2540795.3900000025}},{"attributes":{"ID":278698,"DIS_CODE":0,"TOWNNAME":"東區","LI":"復興里","LIN":"11鄰","STREET":"裕忠二街","SECT":" ","MAREA":" ","LANE":" ","ALLEY":" ","HOUSE_NO":"１號","E_COORD97":172234.31,"N_COORD97":2542243.6400000001,"ADDRESS":"裕忠二街１號","OBJECTID":278692},"geometry":{"x":172234.30999999959,"y":2542243.6400000006}},{"attributes":{"ID":278699,"DIS_CODE":0,"TOWNNAME":"南區","LI":"白雪里","LIN":"10鄰","STREET":"鹽埕路","SECT":" ","MAREA":" ","LANE":"１０３巷","ALLEY":" ","HOUSE_NO":"１３號之３","E_COORD97":166789.53,"N_COORD97":2540789.5800000001,"ADDRESS":"鹽埕路１０３巷１３號之３","OBJECTID":278693},"geometry":{"x":166789.53000000212,"y":2540789.5800000038}},{"attributes":{"ID":278700,"DIS_CODE":0,"TOWNNAME":"北區","LI":"和順里","LIN":"2鄰","STREET":"西門路","SECT":"三段","MAREA":" ","LANE":" ","ALLEY":" ","HOUSE_NO":"１５５號五樓之２","E_COORD97":168379.76000000001,"N_COORD97":2544890.1499999999,"ADDRESS":"西門路三段１５５號五樓之２","OBJECTID":278694},"geometry":{"x":168379.76000000071,"y":2544890.1500000004}},{"attributes":{"ID":278701,"DIS_CODE":0,"TOWNNAME":"北區","LI":"和順里","LIN":"2鄰","STREET":"西門路","SECT":"三段","MAREA":" ","LANE":" ","ALLEY":" ","HOUSE_NO":"１５５號五樓之３","E_COORD97":168379.76000000001,"N_COORD97":2544890.1499999999,"ADDRESS":"西門路三段１５５號五樓之３","OBJECTID":278695},"geometry":{"x":168379.76000000071,"y":2544890.1500000004}},{"attributes":{"ID":278702,"DIS_CODE":0,"TOWNNAME":"北區","LI":"和順里","LIN":"2鄰","STREET":"西門路","SECT":"三段","MAREA":" ","LANE":" ","ALLEY":" ","HOUSE_NO":"１５５號五樓之５","E_COORD97":168379.76000000001,"N_COORD97":2544890.1499999999,"ADDRESS":"西門路三段１５５號五樓之５","OBJECTID":278696},"geometry":{"x":168379.76000000071,"y":2544890.1500000004}},{"attributes":{"ID":278703,"DIS_CODE":0,"TOWNNAME":"永康區","LI":"復國里","LIN":"8鄰","STREET":"復國二路","SECT":" ","MAREA":" ","LANE":" ","ALLEY":" ","HOUSE_NO":"７２號","E_COORD97":172844.09,"N_COORD97":2545143.02,"ADDRESS":"復國二路７２號","OBJECTID":278697},"geometry":{"x":172844.09000000078,"y":2545143.0200000014}},{"attributes":{"ID":278704,"DIS_CODE":0,"TOWNNAME":"南區","LI":"白雪里","LIN":"10鄰","STREET":"鹽埕路","SECT":" ","MAREA":" ","LANE":"１０３巷","ALLEY":" ","HOUSE_NO":"１３號之４","E_COORD97":166787.89000000001,"N_COORD97":2540782.1400000001,"ADDRESS":"鹽埕路１０３巷１３號之４","OBJECTID":278698},"geometry":{"x":166787.88999999966,"y":2540782.1400000006}},{"attributes":{"ID":278705,"DIS_CODE":0,"TOWNNAME":"安南區","LI":"布袋里","LIN":"10鄰","STREET":"長和路","SECT":"四段","MAREA":" ","LANE":"１６０巷","ALLEY":" ","HOUSE_NO":"７５號","E_COORD97":168937.23999999999,"N_COORD97":2551865.21,"ADDRESS":"長和路四段１６０巷７５號","OBJECTID":278699},"geometry":{"x":168937.24000000022,"y":2551865.2100000009}},{"attributes":{"ID":278706,"DIS_CODE":0,"TOWNNAME":"安南區","LI":"布袋里","LIN":"10鄰","STREET":"長和路","SECT":"四段","MAREA":" ","LANE":"１６０巷","ALLEY":" ","HOUSE_NO":"６５號","E_COORD97":168951.23000000001,"N_COORD97":2551844.0600000001,"ADDRESS":"長和路四段１６０巷６５號","OBJECTID":278700},"geometry":{"x":168951.22999999952,"y":2551844.0600000024}},{"attributes":{"ID":278707,"DIS_CODE":0,"TOWNNAME":"南區","LI":"白雪里","LIN":"10鄰","STREET":"鹽埕路","SECT":" ","MAREA":" ","LANE":"１０３巷","ALLEY":" ","HOUSE_NO":"１３號之５","E_COORD97":166785.32999999999,"N_COORD97":2540775.04,"ADDRESS":"鹽埕路１０３巷１３號之５","OBJECTID":278701},"geometry":{"x":166785.33000000007,"y":2540775.0400000028}},{"attributes":{"ID":278708,"DIS_CODE":0,"TOWNNAME":"安平區","LI":"平安里","LIN":"10鄰","STREET":"安平路","SECT":" ","MAREA":" ","LANE":"４４６巷","ALLEY":" ","HOUSE_NO":"１２號","E_COORD97":165288.07000000001,"N_COORD97":2544365.3999999999,"ADDRESS":"安平路４４６巷１２號","OBJECTID":278702},"geometry":{"x":165288.07000000123,"y":2544365.4000000022}},{"attributes":{"ID":278709,"DIS_CODE":0,"TOWNNAME":"安平區","LI":"平安里","LIN":"10鄰","STREET":"安平路","SECT":" ","MAREA":" ","LANE":"４４６巷","ALLEY":" ","HOUSE_NO":"１４號","E_COORD97":165288.76999999999,"N_COORD97":2544369.0899999999,"ADDRESS":"安平路４４６巷１４號","OBJECTID":278703},"geometry":{"x":165288.77000000048,"y":2544369.089999998}},{"attributes":{"ID":278710,"DIS_CODE":0,"TOWNNAME":"安平區","LI":"平安里","LIN":"10鄰","STREET":"安平路","SECT":" ","MAREA":" ","LANE":"４４６巷","ALLEY":" ","HOUSE_NO":"１６號","E_COORD97":165290,"N_COORD97":2544372.4300000002,"ADDRESS":"安平路４４６巷１６號","OBJECTID":278704},"geometry":{"x":165290,"y":2544372.4299999997}},{"attributes":{"ID":278711,"DIS_CODE":0,"TOWNNAME":"安平區","LI":"平安里","LIN":"10鄰","STREET":"安平路","SECT":" ","MAREA":" ","LANE":"４４６巷","ALLEY":" ","HOUSE_NO":"２號","E_COORD97":165283.19,"N_COORD97":2544343.4500000002,"ADDRESS":"安平路４４６巷２號","OBJECTID":278705},"geometry":{"x":165283.19000000227,"y":2544343.4500000011}},{"attributes":{"ID":278712,"DIS_CODE":0,"TOWNNAME":"南區","LI":"國宅里","LIN":"10鄰","STREET":"金華路","SECT":"二段","MAREA":" ","LANE":"３巷","ALLEY":" ","HOUSE_NO":"９號","E_COORD97":166922.23999999999,"N_COORD97":2541807.1000000001,"ADDRESS":"金華路二段３巷９號","OBJECTID":278706},"geometry":{"x":166922.24000000115,"y":2541807.1000000015}},{"attributes":{"ID":278713,"DIS_CODE":0,"TOWNNAME":"南區","LI":"喜東里","LIN":"10鄰","STREET":"明興路","SECT":" ","MAREA":" ","LANE":"６１９巷","ALLEY":" ","HOUSE_NO":"４２４號之５","E_COORD97":166984.57000000001,"N_COORD97":2537910.3599999999,"ADDRESS":"明興路６１９巷４２４號之５","OBJECTID":278707},"geometry":{"x":166984.57000000123,"y":2537910.3599999994}},{"attributes":{"ID":278714,"DIS_CODE":0,"TOWNNAME":"南區","LI":"府南里","LIN":"10鄰","STREET":"永成路","SECT":"三段","MAREA":" ","LANE":"３５７巷","ALLEY":" ","HOUSE_NO":"３７號","E_COORD97":167398.44,"N_COORD97":2541287.5600000001,"ADDRESS":"永成路三段３５７巷３７號","OBJECTID":278708},"geometry":{"x":167398.44000000041,"y":2541287.5600000005}},{"attributes":{"ID":278715,"DIS_CODE":0,"TOWNNAME":"南區","LI":"府南里","LIN":"10鄰","STREET":"永成路","SECT":"三段","MAREA":" ","LANE":"３５７巷","ALLEY":" ","HOUSE_NO":"３９號","E_COORD97":167393.98999999999,"N_COORD97":2541284.71,"ADDRESS":"永成路三段３５７巷３９號","OBJECTID":278709},"geometry":{"x":167393.99000000022,"y":2541284.7100000028}},{"attributes":{"ID":278716,"DIS_CODE":0,"TOWNNAME":"北區","LI":"和順里","LIN":"2鄰","STREET":"西門路","SECT":"三段","MAREA":" ","LANE":" ","ALLEY":" ","HOUSE_NO":"１５５號九樓之５","E_COORD97":168379.76000000001,"N_COORD97":2544890.1499999999,"ADDRESS":"西門路三段１５５號九樓之５","OBJECTID":278710},"geometry":{"x":168379.76000000071,"y":2544890.1500000004}},{"attributes":{"ID":278717,"DIS_CODE":0,"TOWNNAME":"歸仁區","LI":"沙崙里","LIN":"2鄰","STREET":" ","SECT":" ","MAREA":"二甲","LANE":" ","ALLEY":" ","HOUSE_NO":"７３號四樓","E_COORD97":178390.28,"N_COORD97":2539310.8900000001,"ADDRESS":"二甲７３號四樓","OBJECTID":278711},"geometry":{"x":178390.28000000119,"y":2539310.8900000025}},{"attributes":{"ID":278718,"DIS_CODE":0,"TOWNNAME":"北區","LI":"和順里","LIN":"2鄰","STREET":"西門路","SECT":"三段","MAREA":" ","LANE":" ","ALLEY":" ","HOUSE_NO":"１５５號十七樓之１","E_COORD97":168379.76000000001,"N_COORD97":2544890.1499999999,"ADDRESS":"西門路三段１５５號十七樓之１","OBJECTID":278712},"geometry":{"x":168379.76000000071,"y":2544890.1500000004}},{"attributes":{"ID":278719,"DIS_CODE":0,"TOWNNAME":"北區","LI":"和順里","LIN":"2鄰","STREET":"西門路","SECT":"三段","MAREA":" ","LANE":" ","ALLEY":" ","HOUSE_NO":"１５５號十七樓之２","E_COORD97":168379.76000000001,"N_COORD97":2544890.1499999999,"ADDRESS":"西門路三段１５５號十七樓之２","OBJECTID":278713},"geometry":{"x":168379.76000000071,"y":2544890.1500000004}},{"attributes":{"ID":278720,"DIS_CODE":0,"TOWNNAME":"南區","LI":"府南里","LIN":"10鄰","STREET":"永成路","SECT":"三段","MAREA":" ","LANE":"３５７巷","ALLEY":" ","HOUSE_NO":"４１號","E_COORD97":167389.85999999999,"N_COORD97":2541280.7400000002,"ADDRESS":"永成路三段３５７巷４１號","OBJECTID":278714},"geometry":{"x":167389.86000000127,"y":2541280.7400000021}},{"attributes":{"ID":278721,"DIS_CODE":0,"TOWNNAME":"南區","LI":"喜東里","LIN":"10鄰","STREET":"永成路","SECT":"二段","MAREA":" ","LANE":"８８巷","ALLEY":" ","HOUSE_NO":"６０號","E_COORD97":167846.01999999999,"N_COORD97":2538954.52,"ADDRESS":"永成路二段８８巷６０號","OBJECTID":278715},"geometry":{"x":167846.01999999955,"y":2538954.5199999996}},{"attributes":{"ID":278722,"DIS_CODE":0,"TOWNNAME":"南區","LI":"佛壇里","LIN":"10鄰","STREET":"大同路","SECT":"二段","MAREA":" ","LANE":"４３０巷","ALLEY":" ","HOUSE_NO":"５之３號","E_COORD97":169418.48000000001,"N_COORD97":2541588.8399999999,"ADDRESS":"大同路二段４３０巷５之３號","OBJECTID":278716},"geometry":{"x":169418.48000000045,"y":2541588.8400000017}},{"attributes":{"ID":278723,"DIS_CODE":0,"TOWNNAME":"南區","LI":"喜東里","LIN":"10鄰","STREET":"永成路","SECT":"二段","MAREA":" ","LANE":"８８巷","ALLEY":" ","HOUSE_NO":"９號","E_COORD97":167813.31,"N_COORD97":2538954.4500000002,"ADDRESS":"永成路二段８８巷９號","OBJECTID":278717},"geometry":{"x":167813.30999999959,"y":2538954.4499999993}},{"attributes":{"ID":278724,"DIS_CODE":0,"TOWNNAME":"永康區","LI":"東灣里","LIN":"31鄰","STREET":"大灣二街","SECT":" ","MAREA":" ","LANE":" ","ALLEY":" ","HOUSE_NO":"３１號","E_COORD97":174917.53,"N_COORD97":2544710.2599999998,"ADDRESS":"大灣二街３１號","OBJECTID":278718},"geometry":{"x":174917.53000000026,"y":2544710.2599999979}},{"attributes":{"ID":278725,"DIS_CODE":0,"TOWNNAME":"永康區","LI":"西灣里","LIN":"28鄰","STREET":"公園路","SECT":" ","MAREA":" ","LANE":" ","ALLEY":" ","HOUSE_NO":"２３號","E_COORD97":174432.07000000001,"N_COORD97":2545997.04,"ADDRESS":"公園路２３號","OBJECTID":278719},"geometry":{"x":174432.0700000003,"y":2545997.040000001}},{"attributes":{"ID":278726,"DIS_CODE":0,"TOWNNAME":"南區","LI":"省躬里","LIN":"10鄰","STREET":"灣裡路","SECT":" ","MAREA":" ","LANE":"６２巷","ALLEY":" ","HOUSE_NO":"２之２號","E_COORD97":165823.07999999999,"N_COORD97":2537184.96,"ADDRESS":"灣裡路６２巷２之２號","OBJECTID":278720},"geometry":{"x":165823.08000000101,"y":2537184.9600000028}},{"attributes":{"ID":278727,"DIS_CODE":0,"TOWNNAME":"安南區","LI":"南興里","LIN":"10鄰","STREET":"安興街","SECT":" ","MAREA":" ","LANE":"６３２巷","ALLEY":" ","HOUSE_NO":"８３號之１","E_COORD97":163733.88,"N_COORD97":2552459.73,"ADDRESS":"安興街６３２巷８３號之１","OBJECTID":278721},"geometry":{"x":163733.88000000082,"y":2552459.7300000023}},{"attributes":{"ID":278728,"DIS_CODE":0,"TOWNNAME":"安南區","LI":"南興里","LIN":"10鄰","STREET":"安興街","SECT":" ","MAREA":" ","LANE":"６３２巷","ALLEY":" ","HOUSE_NO":"８３號之１","E_COORD97":163733.19,"N_COORD97":2552464.23,"ADDRESS":"安興街６３２巷８３號之１","OBJECTID":278722},"geometry":{"x":163733.19000000041,"y":2552464.2300000004}},{"attributes":{"ID":278729,"DIS_CODE":0,"TOWNNAME":"安南區","LI":"南興里","LIN":"10鄰","STREET":"安興街","SECT":" ","MAREA":" ","LANE":"６３２巷","ALLEY":" ","HOUSE_NO":"８３之３號","E_COORD97":163733.19,"N_COORD97":2552468.4399999999,"ADDRESS":"安興街６３２巷８３之３號","OBJECTID":278723},"geometry":{"x":163733.19000000041,"y":2552468.4399999995}},{"attributes":{"ID":278730,"DIS_CODE":0,"TOWNNAME":"安南區","LI":"南興里","LIN":"10鄰","STREET":"安興街","SECT":" ","MAREA":" ","LANE":"６３２巷","ALLEY":" ","HOUSE_NO":"８３之４號","E_COORD97":163733.70999999999,"N_COORD97":2552472.6400000001,"ADDRESS":"安興街６３２巷８３之４號","OBJECTID":278724},"geometry":{"x":163733.71000000089,"y":2552472.6400000043}},{"attributes":{"ID":278731,"DIS_CODE":0,"TOWNNAME":"安南區","LI":"南興里","LIN":"10鄰","STREET":"安興街","SECT":" ","MAREA":" ","LANE":"６３２巷","ALLEY":" ","HOUSE_NO":"８３之５號","E_COORD97":163734.23999999999,"N_COORD97":2552477.3700000001,"ADDRESS":"安興街６３２巷８３之５號","OBJECTID":278725},"geometry":{"x":163734.24000000022,"y":2552477.370000001}},{"attributes":{"ID":278732,"DIS_CODE":0,"TOWNNAME":"安南區","LI":"南興里","LIN":"10鄰","STREET":"安興街","SECT":" ","MAREA":" ","LANE":"６３２巷","ALLEY":" ","HOUSE_NO":"８３之６號","E_COORD97":163735.82000000001,"N_COORD97":2552482.1000000001,"ADDRESS":"安興街６３２巷８３之６號","OBJECTID":278726},"geometry":{"x":163735.8200000003,"y":2552482.1000000034}},{"attributes":{"ID":278733,"DIS_CODE":0,"TOWNNAME":"安南區","LI":"南興里","LIN":"10鄰","STREET":"安興街","SECT":" ","MAREA":" ","LANE":"６３２巷","ALLEY":" ","HOUSE_NO":"８３之７號","E_COORD97":163736.13,"N_COORD97":2552488.0800000001,"ADDRESS":"安興街６３２巷８３之７號","OBJECTID":278727},"geometry":{"x":163736.13000000082,"y":2552488.0800000001}},{"attributes":{"ID":278734,"DIS_CODE":0,"TOWNNAME":"東區","LI":"關聖里","LIN":"10鄰","STREET":"裕農一街","SECT":" ","MAREA":" ","LANE":"９２巷","ALLEY":" ","HOUSE_NO":"２８號","E_COORD97":171825.42000000001,"N_COORD97":2542902.2799999998,"ADDRESS":"裕農一街９２巷２８號","OBJECTID":278728},"geometry":{"x":171825.41999999993,"y":2542902.2799999993}},{"attributes":{"ID":278735,"DIS_CODE":0,"TOWNNAME":"佳里區","LI":"安西里","LIN":"31鄰","STREET":"安西路","SECT":" ","MAREA":" ","LANE":"３１１巷","ALLEY":" ","HOUSE_NO":"３號","E_COORD97":165171.81,"N_COORD97":2562971.6499999999,"ADDRESS":"安西路３１１巷３號","OBJECTID":278729},"geometry":{"x":165171.81000000052,"y":2562971.6500000004}},{"attributes":{"ID":278736,"DIS_CODE":0,"TOWNNAME":"永康區","LI":"永康里","LIN":"31鄰","STREET":"永大路","SECT":"三段","MAREA":" ","LANE":"７８巷","ALLEY":" ","HOUSE_NO":"２５號","E_COORD97":174281.32999999999,"N_COORD97":2547763.0800000001,"ADDRESS":"永大路三段７８巷２５號","OBJECTID":278730},"geometry":{"x":174281.33000000007,"y":2547763.0800000001}},{"attributes":{"ID":278737,"DIS_CODE":0,"TOWNNAME":"仁德區","LI":"保安里","LIN":"23鄰","STREET":"保學路","SECT":" ","MAREA":" ","LANE":" ","ALLEY":" ","HOUSE_NO":"９號","E_COORD97":171478.76000000001,"N_COORD97":2535594.52,"ADDRESS":"保學路９號","OBJECTID":278731},"geometry":{"x":171478.76000000071,"y":2535594.5199999996}},{"attributes":{"ID":278738,"DIS_CODE":0,"TOWNNAME":"永康區","LI":"北灣里","LIN":"18鄰","STREET":"大安街","SECT":" ","MAREA":" ","LANE":" ","ALLEY":" ","HOUSE_NO":"４４６號","E_COORD97":174596.92000000001,"N_COORD97":2545888.6099999999,"ADDRESS":"大安街４４６號","OBJECTID":278732},"geometry":{"x":174596.92000000086,"y":2545888.6100000013}},{"attributes":{"ID":278739,"DIS_CODE":0,"TOWNNAME":"永康區","LI":"西勢里","LIN":"31鄰","STREET":"富強路","SECT":"一段","MAREA":" ","LANE":"９３巷","ALLEY":" ","HOUSE_NO":"７０號","E_COORD97":175275.45999999999,"N_COORD97":2546405.2799999998,"ADDRESS":"富強路一段９３巷７０號","OBJECTID":278733},"geometry":{"x":175275.45999999996,"y":2546405.2800000031}},{"attributes":{"ID":278740,"DIS_CODE":0,"TOWNNAME":"永康區","LI":"永康里","LIN":"31鄰","STREET":"永大路","SECT":"三段","MAREA":" ","LANE":"７８巷","ALLEY":" ","HOUSE_NO":"１７號","E_COORD97":174268.62,"N_COORD97":2547764.5800000001,"ADDRESS":"永大路三段７８巷１７號","OBJECTID":278734},"geometry":{"x":174268.62000000104,"y":2547764.5800000019}},{"attributes":{"ID":278741,"DIS_CODE":0,"TOWNNAME":"新營區","LI":"忠政里","LIN":"31鄰","STREET":"府西路","SECT":" ","MAREA":" ","LANE":"６３巷","ALLEY":" ","HOUSE_NO":"２號","E_COORD97":179786.34,"N_COORD97":2579095.3300000001,"ADDRESS":"府西路６３巷２號","OBJECTID":278735},"geometry":{"x":179786.34000000078,"y":2579095.3299999982}},{"attributes":{"ID":278742,"DIS_CODE":0,"TOWNNAME":"新營區","LI":"民榮里","LIN":"31鄰","STREET":"太子路","SECT":" ","MAREA":" ","LANE":"５３巷","ALLEY":" ","HOUSE_NO":"１５號","E_COORD97":178355.29999999999,"N_COORD97":2577983.6600000001,"ADDRESS":"太子路５３巷１５號","OBJECTID":278736},"geometry":{"x":178355.30000000075,"y":2577983.6600000001}},{"attributes":{"ID":278743,"DIS_CODE":0,"TOWNNAME":"新營區","LI":"王公里","LIN":"31鄰","STREET":"大勇街","SECT":" ","MAREA":" ","LANE":"１９巷","ALLEY":" ","HOUSE_NO":"１０號","E_COORD97":180229.29999999999,"N_COORD97":2579512.9700000002,"ADDRESS":"大勇街１９巷１０號","OBJECTID":278737},"geometry":{"x":180229.29999999981,"y":2579512.9700000025}},{"attributes":{"ID":278744,"DIS_CODE":0,"TOWNNAME":"新營區","LI":"南興里","LIN":"31鄰","STREET":"建業路","SECT":" ","MAREA":" ","LANE":"１６７巷","ALLEY":" ","HOUSE_NO":"１１號","E_COORD97":178333.28,"N_COORD97":2577447.7599999998,"ADDRESS":"建業路１６７巷１１號","OBJECTID":278738},"geometry":{"x":178333.28000000026,"y":2577447.7599999979}},{"attributes":{"ID":278745,"DIS_CODE":0,"TOWNNAME":"新營區","LI":"民榮里","LIN":"31鄰","STREET":"太子路","SECT":" ","MAREA":" ","LANE":"５３巷","ALLEY":" ","HOUSE_NO":"２３號","E_COORD97":178362.44,"N_COORD97":2577964.7999999998,"ADDRESS":"太子路５３巷２３號","OBJECTID":278739},"geometry":{"x":178362.44000000041,"y":2577964.8000000026}},{"attributes":{"ID":278746,"DIS_CODE":0,"TOWNNAME":"新營區","LI":"王公里","LIN":"31鄰","STREET":"大勇街","SECT":" ","MAREA":" ","LANE":"１９巷","ALLEY":" ","HOUSE_NO":"８號","E_COORD97":180229.07000000001,"N_COORD97":2579498.5699999998,"ADDRESS":"大勇街１９巷８號","OBJECTID":278740},"geometry":{"x":180229.07000000123,"y":2579498.5700000022}},{"attributes":{"ID":278747,"DIS_CODE":0,"TOWNNAME":"安平區","LI":"育平里","LIN":"31鄰","STREET":"健康三街","SECT":" ","MAREA":" ","LANE":"１０７巷","ALLEY":" ","HOUSE_NO":"１５號","E_COORD97":164693.70999999999,"N_COORD97":2543145.2599999998,"ADDRESS":"健康三街１０７巷１５號","OBJECTID":278741},"geometry":{"x":164693.70999999996,"y":2543145.2600000016}},{"attributes":{"ID":278748,"DIS_CODE":0,"TOWNNAME":"安平區","LI":"育平里","LIN":"31鄰","STREET":"健康三街","SECT":" ","MAREA":" ","LANE":"１０７巷","ALLEY":" ","HOUSE_NO":"２３號","E_COORD97":164676.72,"N_COORD97":2543147.0899999999,"ADDRESS":"健康三街１０７巷２３號","OBJECTID":278742},"geometry":{"x":164676.71999999974,"y":2543147.0899999999}},{"attributes":{"ID":278749,"DIS_CODE":0,"TOWNNAME":"安平區","LI":"育平里","LIN":"31鄰","STREET":"健康三街","SECT":" ","MAREA":" ","LANE":"１０７巷","ALLEY":" ","HOUSE_NO":"２５號","E_COORD97":164672.26999999999,"N_COORD97":2543147.8799999999,"ADDRESS":"健康三街１０７巷２５號","OBJECTID":278743},"geometry":{"x":164672.27000000048,"y":2543147.879999999}},{"attributes":{"ID":278750,"DIS_CODE":0,"TOWNNAME":"安平區","LI":"育平里","LIN":"31鄰","STREET":"健康三街","SECT":" ","MAREA":" ","LANE":"１０７巷","ALLEY":" ","HOUSE_NO":"２７號","E_COORD97":164667.82999999999,"N_COORD97":2543148.9199999999,"ADDRESS":"健康三街１０７巷２７號","OBJECTID":278744},"geometry":{"x":164667.83000000007,"y":2543148.9199999999}},{"attributes":{"ID":278751,"DIS_CODE":0,"TOWNNAME":"新營區","LI":"忠政里","LIN":"31鄰","STREET":"府西路","SECT":" ","MAREA":" ","LANE":"４７巷","ALLEY":" ","HOUSE_NO":"１５之４號","E_COORD97":179760.95999999999,"N_COORD97":2579006.9199999999,"ADDRESS":"府西路４７巷１５之４號","OBJECTID":278745},"geometry":{"x":179760.95999999996,"y":2579006.9200000018}},{"attributes":{"ID":278752,"DIS_CODE":0,"TOWNNAME":"新營區","LI":"忠政里","LIN":"31鄰","STREET":"府西路","SECT":" ","MAREA":" ","LANE":"６３巷","ALLEY":" ","HOUSE_NO":"３０號","E_COORD97":179727.25,"N_COORD97":2579092.29,"ADDRESS":"府西路６３巷３０號","OBJECTID":278746},"geometry":{"x":179727.25000000093,"y":2579092.290000001}},{"attributes":{"ID":278753,"DIS_CODE":0,"TOWNNAME":"永康區","LI":"埔園里","LIN":"31鄰","STREET":"永大路","SECT":"三段","MAREA":" ","LANE":"５１１巷","ALLEY":" ","HOUSE_NO":"１０號","E_COORD97":173938.88,"N_COORD97":2548899.0499999998,"ADDRESS":"永大路三段５１１巷１０號","OBJECTID":278747},"geometry":{"x":173938.88000000082,"y":2548899.0500000007}},{"attributes":{"ID":278754,"DIS_CODE":0,"TOWNNAME":"安南區","LI":"溪頂里","LIN":"20鄰","STREET":"聖安街","SECT":" ","MAREA":" ","LANE":" ","ALLEY":" ","HOUSE_NO":"６１號","E_COORD97":168576.20999999999,"N_COORD97":2547453.04,"ADDRESS":"聖安街６１號","OBJECTID":278748},"geometry":{"x":168576.20999999903,"y":2547453.0399999991}},{"attributes":{"ID":278755,"DIS_CODE":0,"TOWNNAME":"安南區","LI":"溪頂里","LIN":"20鄰","STREET":"聖安街","SECT":" ","MAREA":" ","LANE":" ","ALLEY":" ","HOUSE_NO":"６３號","E_COORD97":168571.79000000001,"N_COORD97":2547452.6600000001,"ADDRESS":"聖安街６３號","OBJECTID":278749},"geometry":{"x":168571.79000000004,"y":2547452.660000002}},{"attributes":{"ID":278756,"DIS_CODE":0,"TOWNNAME":"安南區","LI":"溪頂里","LIN":"20鄰","STREET":"聖安街","SECT":" ","MAREA":" ","LANE":" ","ALLEY":" ","HOUSE_NO":"６７號","E_COORD97":168563.45000000001,"N_COORD97":2547452.2799999998,"ADDRESS":"聖安街６７號","OBJECTID":278750},"geometry":{"x":168563.45000000112,"y":2547452.2799999993}},{"attributes":{"ID":278757,"DIS_CODE":0,"TOWNNAME":"安南區","LI":"溪頂里","LIN":"20鄰","STREET":"聖安街","SECT":" ","MAREA":" ","LANE":" ","ALLEY":" ","HOUSE_NO":"９號","E_COORD97":168698.12,"N_COORD97":2547466.3700000001,"ADDRESS":"聖安街９號","OBJECTID":278751},"geometry":{"x":168698.12000000104,"y":2547466.370000001}},{"attributes":{"ID":278758,"DIS_CODE":0,"TOWNNAME":"東區","LI":"小東里","LIN":"4鄰","STREET":"光明街","SECT":" ","MAREA":" ","LANE":" ","ALLEY":" ","HOUSE_NO":"３６號","E_COORD97":170873.35999999999,"N_COORD97":2544376.79,"ADDRESS":"光明街３６號","OBJECTID":278752},"geometry":{"x":170873.36000000127,"y":2544376.7899999991}},{"attributes":{"ID":278759,"DIS_CODE":0,"TOWNNAME":"安南區","LI":"布袋里","LIN":"10鄰","STREET":"長和路","SECT":"四段","MAREA":" ","LANE":"１６０巷","ALLEY":" ","HOUSE_NO":"７９號","E_COORD97":168931.45000000001,"N_COORD97":2551875.0800000001,"ADDRESS":"長和路四段１６０巷７９號","OBJECTID":278753},"geometry":{"x":168931.45000000112,"y":2551875.0800000001}},{"attributes":{"ID":278760,"DIS_CODE":0,"TOWNNAME":"安南區","LI":"布袋里","LIN":"10鄰","STREET":"長和路","SECT":"四段","MAREA":" ","LANE":"１６０巷","ALLEY":" ","HOUSE_NO":"８１號","E_COORD97":168928.29999999999,"N_COORD97":2551878.3999999999,"ADDRESS":"長和路四段１６０巷８１號","OBJECTID":278754},"geometry":{"x":168928.30000000075,"y":2551878.4000000022}},{"attributes":{"ID":278761,"DIS_CODE":0,"TOWNNAME":"安南區","LI":"布袋里","LIN":"10鄰","STREET":"長和路","SECT":"四段","MAREA":" ","LANE":"１６０巷","ALLEY":" ","HOUSE_NO":"９９號","E_COORD97":168903.10999999999,"N_COORD97":2551918,"ADDRESS":"長和路四段１６０巷９９號","OBJECTID":278755},"geometry":{"x":168903.11000000127,"y":2551918.0000000019}},{"attributes":{"ID":278762,"DIS_CODE":0,"TOWNNAME":"東區","LI":"崇成里","LIN":"18鄰","STREET":"崇德路","SECT":" ","MAREA":" ","LANE":" ","ALLEY":" ","HOUSE_NO":"６４６之１號","E_COORD97":170775.45000000001,"N_COORD97":2541149.0299999998,"ADDRESS":"崇德路６４６之１號","OBJECTID":278756},"geometry":{"x":170775.45000000112,"y":2541149.0300000012}},{"attributes":{"ID":278763,"DIS_CODE":0,"TOWNNAME":"東區","LI":"文聖里","LIN":"20鄰","STREET":"裕信二街","SECT":" ","MAREA":" ","LANE":" ","ALLEY":" ","HOUSE_NO":"１０１號","E_COORD97":172818.82999999999,"N_COORD97":2542657.8500000001,"ADDRESS":"裕信二街１０１號","OBJECTID":278757},"geometry":{"x":172818.83000000101,"y":2542657.8499999996}},{"attributes":{"ID":278764,"DIS_CODE":0,"TOWNNAME":"東區","LI":"崇善里","LIN":"26鄰","STREET":"崇善十三街","SECT":" ","MAREA":" ","LANE":" ","ALLEY":" ","HOUSE_NO":"１１號","E_COORD97":171241.29000000001,"N_COORD97":2541003.1600000001,"ADDRESS":"崇善十三街１１號","OBJECTID":278758},"geometry":{"x":171241.29000000097,"y":2541003.160000002}},{"attributes":{"ID":278765,"DIS_CODE":0,"TOWNNAME":"東區","LI":"崇善里","LIN":"26鄰","STREET":"崇善十三街","SECT":" ","MAREA":" ","LANE":" ","ALLEY":" ","HOUSE_NO":"９號","E_COORD97":171234.39999999999,"N_COORD97":2540999.25,"ADDRESS":"崇善十三街９號","OBJECTID":278759},"geometry":{"x":171234.40000000037,"y":2540999.2500000019}},{"attributes":{"ID":278766,"DIS_CODE":0,"TOWNNAME":"東區","LI":"關聖里","LIN":"18鄰","STREET":"裕信路","SECT":" ","MAREA":" ","LANE":" ","ALLEY":" ","HOUSE_NO":"１７２之７號","E_COORD97":172560.79999999999,"N_COORD97":2543095.7999999998,"ADDRESS":"裕信路１７２之７號","OBJECTID":278760},"geometry":{"x":172560.79999999888,"y":2543095.8000000007}},{"attributes":{"ID":278767,"DIS_CODE":0,"TOWNNAME":"東區","LI":"關聖里","LIN":"18鄰","STREET":"裕信路","SECT":" ","MAREA":" ","LANE":" ","ALLEY":" ","HOUSE_NO":"１７２之８號","E_COORD97":172561.09,"N_COORD97":2543101.4700000002,"ADDRESS":"裕信路１７２之８號","OBJECTID":278761},"geometry":{"x":172561.09000000078,"y":2543101.4700000007}},{"attributes":{"ID":278768,"DIS_CODE":0,"TOWNNAME":"東區","LI":"關聖里","LIN":"18鄰","STREET":"裕信路","SECT":" ","MAREA":" ","LANE":" ","ALLEY":" ","HOUSE_NO":"１７２號","E_COORD97":172560.95000000001,"N_COORD97":2543063.7999999998,"ADDRESS":"裕信路１７２號","OBJECTID":278762},"geometry":{"x":172560.95000000112,"y":2543063.8000000026}},{"attributes":{"ID":278769,"DIS_CODE":0,"TOWNNAME":"東區","LI":"關聖里","LIN":"18鄰","STREET":"裕信路","SECT":" ","MAREA":" ","LANE":" ","ALLEY":" ","HOUSE_NO":"１７６之１號","E_COORD97":172541.60000000001,"N_COORD97":2543067.4300000002,"ADDRESS":"裕信路１７６之１號","OBJECTID":278763},"geometry":{"x":172541.59999999963,"y":2543067.4299999997}},{"attributes":{"ID":278770,"DIS_CODE":0,"TOWNNAME":"東區","LI":"關聖里","LIN":"18鄰","STREET":"裕信路","SECT":" ","MAREA":" ","LANE":" ","ALLEY":" ","HOUSE_NO":"１７６之２號","E_COORD97":172541.01999999999,"N_COORD97":2543072.23,"ADDRESS":"裕信路１７６之２號","OBJECTID":278764},"geometry":{"x":172541.02000000048,"y":2543072.2300000004}},{"attributes":{"ID":278771,"DIS_CODE":0,"TOWNNAME":"東區","LI":"崇善里","LIN":"8鄰","STREET":"崇善七街","SECT":" ","MAREA":" ","LANE":" ","ALLEY":" ","HOUSE_NO":"１０號","E_COORD97":171082.75,"N_COORD97":2541448.9900000002,"ADDRESS":"崇善七街１０號","OBJECTID":278765},"geometry":{"x":171082.75,"y":2541448.9900000021}},{"attributes":{"ID":278772,"DIS_CODE":0,"TOWNNAME":"東區","LI":"裕聖里","LIN":"7鄰","STREET":"裕華三街","SECT":" ","MAREA":" ","LANE":" ","ALLEY":" ","HOUSE_NO":"３號","E_COORD97":172783.76999999999,"N_COORD97":2542167.6400000001,"ADDRESS":"裕華三街３號","OBJECTID":278766},"geometry":{"x":172783.77000000048,"y":2542167.6400000025}},{"attributes":{"ID":278773,"DIS_CODE":0,"TOWNNAME":"永康區","LI":"埔園里","LIN":"14鄰","STREET":"埔園街","SECT":" ","MAREA":" ","LANE":" ","ALLEY":" ","HOUSE_NO":"２６８號","E_COORD97":173598.04999999999,"N_COORD97":2548248.9900000002,"ADDRESS":"埔園街２６８號","OBJECTID":278767},"geometry":{"x":173598.04999999981,"y":2548248.9900000039}},{"attributes":{"ID":278774,"DIS_CODE":0,"TOWNNAME":"永康區","LI":"勝利里","LIN":"33鄰","STREET":"中華路","SECT":" ","MAREA":" ","LANE":" ","ALLEY":" ","HOUSE_NO":"１號之１０４","E_COORD97":171503.13,"N_COORD97":2544353.0499999998,"ADDRESS":"中華路１號之１０４","OBJECTID":278768},"geometry":{"x":171503.13000000082,"y":2544353.0500000007}},{"attributes":{"ID":278775,"DIS_CODE":0,"TOWNNAME":"永康區","LI":"六合里","LIN":"3鄰","STREET":"中山南路","SECT":" ","MAREA":" ","LANE":" ","ALLEY":" ","HOUSE_NO":"７６號","E_COORD97":170935.16,"N_COORD97":2545899.8900000001,"ADDRESS":"中山南路７６號","OBJECTID":278769},"geometry":{"x":170935.16000000108,"y":2545899.8900000006}},{"attributes":{"ID":278776,"DIS_CODE":0,"TOWNNAME":"永康區","LI":"埔園里","LIN":"31鄰","STREET":"八德街","SECT":" ","MAREA":" ","LANE":"２３０巷","ALLEY":" ","HOUSE_NO":"２２號","E_COORD97":173812.19,"N_COORD97":2548610.8599999999,"ADDRESS":"八德街２３０巷２２號","OBJECTID":278770},"geometry":{"x":173812.19000000134,"y":2548610.8599999994}},{"attributes":{"ID":278777,"DIS_CODE":0,"TOWNNAME":"永康區","LI":"埔園里","LIN":"31鄰","STREET":"八德街","SECT":" ","MAREA":" ","LANE":"２３０巷","ALLEY":" ","HOUSE_NO":"３８號","E_COORD97":173821.60999999999,"N_COORD97":2548638.9100000001,"ADDRESS":"八德街２３０巷３８號","OBJECTID":278771},"geometry":{"x":173821.61000000034,"y":2548638.9100000001}},{"attributes":{"ID":278778,"DIS_CODE":0,"TOWNNAME":"永康區","LI":"埔園里","LIN":"31鄰","STREET":"永大路","SECT":"三段","MAREA":" ","LANE":"５１１巷","ALLEY":" ","HOUSE_NO":"１號","E_COORD97":173963.57999999999,"N_COORD97":2548881.6099999999,"ADDRESS":"永大路三段５１１巷１號","OBJECTID":278772},"geometry":{"x":173963.58000000101,"y":2548881.6100000013}},{"attributes":{"ID":278779,"DIS_CODE":0,"TOWNNAME":"永康區","LI":"\u25A0洲里","LIN":"31鄰","STREET":"洲尾街","SECT":" ","MAREA":" ","LANE":"３１９巷","ALLEY":" ","HOUSE_NO":"１１號","E_COORD97":171056.41,"N_COORD97":2549189.23,"ADDRESS":"洲尾街３１９巷１１號","OBJECTID":278773},"geometry":{"x":171056.41000000015,"y":2549189.2300000004}},{"attributes":{"ID":278780,"DIS_CODE":0,"TOWNNAME":"永康區","LI":"\u25A0洲里","LIN":"31鄰","STREET":"洲尾街","SECT":" ","MAREA":" ","LANE":"３１９巷","ALLEY":" ","HOUSE_NO":"７號","E_COORD97":171062.75,"N_COORD97":2549186.98,"ADDRESS":"洲尾街３１９巷７號","OBJECTID":278774},"geometry":{"x":171062.75,"y":2549186.9800000004}},{"attributes":{"ID":278781,"DIS_CODE":0,"TOWNNAME":"永康區","LI":"\u25A0洲里","LIN":"31鄰","STREET":"洲尾街","SECT":" ","MAREA":" ","LANE":"３１９巷","ALLEY":" ","HOUSE_NO":"２８號","E_COORD97":171060.39999999999,"N_COORD97":2549206.7999999998,"ADDRESS":"洲尾街３１９巷２８號","OBJECTID":278775},"geometry":{"x":171060.40000000037,"y":2549206.8000000045}},{"attributes":{"ID":278782,"DIS_CODE":0,"TOWNNAME":"永康區","LI":"\u25A0洲里","LIN":"31鄰","STREET":"洲尾街","SECT":" ","MAREA":" ","LANE":"３１９巷","ALLEY":" ","HOUSE_NO":"３３號","E_COORD97":171032.23000000001,"N_COORD97":2549197.52,"ADDRESS":"洲尾街３１９巷３３號","OBJECTID":278776},"geometry":{"x":171032.23000000045,"y":2549197.5200000033}},{"attributes":{"ID":278783,"DIS_CODE":0,"TOWNNAME":"東區","LI":"東明里","LIN":"31鄰","STREET":"東寧路","SECT":" ","MAREA":" ","LANE":"２０１巷","ALLEY":" ","HOUSE_NO":"３２號","E_COORD97":170643.69,"N_COORD97":2543623.7799999998,"ADDRESS":"東寧路２０１巷３２號","OBJECTID":278777},"geometry":{"x":170643.69000000134,"y":2543623.7799999993}},{"attributes":{"ID":278784,"DIS_CODE":0,"TOWNNAME":"東區","LI":"東明里","LIN":"31鄰","STREET":"東寧路","SECT":" ","MAREA":" ","LANE":"２０１巷","ALLEY":" ","HOUSE_NO":"３４號","E_COORD97":170643.69,"N_COORD97":2543628.3799999999,"ADDRESS":"東寧路２０１巷３４號","OBJECTID":278778},"geometry":{"x":170643.69000000134,"y":2543628.3800000008}},{"attributes":{"ID":278785,"DIS_CODE":0,"TOWNNAME":"安南區","LI":"四草里","LIN":"1鄰","STREET":"大眾六街","SECT":" ","MAREA":" ","LANE":" ","ALLEY":" ","HOUSE_NO":"６６號","E_COORD97":160535.913333,"N_COORD97":2546530.8467799998,"ADDRESS":"大眾六街６６號","OBJECTID":278779},"geometry":{"x":160535.91333300155,"y":2546530.8467839994}},{"attributes":{"ID":278786,"DIS_CODE":0,"TOWNNAME":"東區","LI":"東明里","LIN":"31鄰","STREET":"東寧路","SECT":" ","MAREA":" ","LANE":"２０１巷","ALLEY":" ","HOUSE_NO":"３６號","E_COORD97":170644.34,"N_COORD97":2543633.3100000001,"ADDRESS":"東寧路２０１巷３６號","OBJECTID":278780},"geometry":{"x":170644.33999999985,"y":2543633.3100000024}},{"attributes":{"ID":278787,"DIS_CODE":0,"TOWNNAME":"東區","LI":"東明里","LIN":"31鄰","STREET":"東寧路","SECT":" ","MAREA":" ","LANE":"２０１巷","ALLEY":" ","HOUSE_NO":"３８號","E_COORD97":170645.17000000001,"N_COORD97":2543637.4100000001,"ADDRESS":"東寧路２０１巷３８號","OBJECTID":278781},"geometry":{"x":170645.17000000086,"y":2543637.4100000001}},{"attributes":{"ID":278788,"DIS_CODE":0,"TOWNNAME":"東區","LI":"東明里","LIN":"31鄰","STREET":"東寧路","SECT":" ","MAREA":" ","LANE":"２０１巷","ALLEY":" ","HOUSE_NO":"４０號","E_COORD97":170646.81,"N_COORD97":2543641.1899999999,"ADDRESS":"東寧路２０１巷４０號","OBJECTID":278782},"geometry":{"x":170646.81000000145,"y":2543641.1899999995}},{"attributes":{"ID":278789,"DIS_CODE":0,"TOWNNAME":"東區","LI":"東明里","LIN":"31鄰","STREET":"東寧路","SECT":" ","MAREA":" ","LANE":"２０１巷","ALLEY":" ","HOUSE_NO":"４２號","E_COORD97":170646.81,"N_COORD97":2543645.6200000001,"ADDRESS":"東寧路２０１巷４２號","OBJECTID":278783},"geometry":{"x":170646.81000000145,"y":2543645.6200000029}},{"attributes":{"ID":278790,"DIS_CODE":0,"TOWNNAME":"永康區","LI":"復國里","LIN":"31鄰","STREET":"復國一路","SECT":" ","MAREA":" ","LANE":"１７３巷","ALLEY":" ","HOUSE_NO":"２７號","E_COORD97":172604.29000000001,"N_COORD97":2545209.5299999998,"ADDRESS":"復國一路１７３巷２７號","OBJECTID":278784},"geometry":{"x":172604.29000000097,"y":2545209.5299999993}},{"attributes":{"ID":278791,"DIS_CODE":0,"TOWNNAME":"永康區","LI":"復國里","LIN":"31鄰","STREET":"復國一路","SECT":" ","MAREA":" ","LANE":"１７３巷","ALLEY":" ","HOUSE_NO":"１５號","E_COORD97":172670.10000000001,"N_COORD97":2545204.0499999998,"ADDRESS":"復國一路１７３巷１５號","OBJECTID":278785},"geometry":{"x":172670.09999999963,"y":2545204.0500000007}},{"attributes":{"ID":278792,"DIS_CODE":0,"TOWNNAME":"永康區","LI":"復國里","LIN":"31鄰","STREET":"復國一路","SECT":" ","MAREA":" ","LANE":"１７３巷","ALLEY":" ","HOUSE_NO":"２５號","E_COORD97":172608.94,"N_COORD97":2545209.0299999998,"ADDRESS":"復國一路１７３巷２５號","OBJECTID":278786},"geometry":{"x":172608.94000000041,"y":2545209.0299999993}},{"attributes":{"ID":278793,"DIS_CODE":0,"TOWNNAME":"永康區","LI":"復國里","LIN":"31鄰","STREET":"復國一路","SECT":" ","MAREA":" ","LANE":"１７３巷","ALLEY":" ","HOUSE_NO":"２３號","E_COORD97":172615.04000000001,"N_COORD97":2545208.2799999998,"ADDRESS":"復國一路１７３巷２３號","OBJECTID":278787},"geometry":{"x":172615.04000000004,"y":2545208.2800000031}},{"attributes":{"ID":278794,"DIS_CODE":0,"TOWNNAME":"永康區","LI":"復國里","LIN":"31鄰","STREET":"復國一路","SECT":" ","MAREA":" ","LANE":"１５９巷","ALLEY":" ","HOUSE_NO":"９號","E_COORD97":172677.51999999999,"N_COORD97":2545163.7799999998,"ADDRESS":"復國一路１５９巷９號","OBJECTID":278788},"geometry":{"x":172677.51999999955,"y":2545163.7799999993}},{"attributes":{"ID":278795,"DIS_CODE":0,"TOWNNAME":"永康區","LI":"復國里","LIN":"31鄰","STREET":"復國一路","SECT":" ","MAREA":" ","LANE":"１７３巷","ALLEY":" ","HOUSE_NO":"３５號","E_COORD97":172575.45999999999,"N_COORD97":2545212.2799999998,"ADDRESS":"復國一路１７３巷３５號","OBJECTID":278789},"geometry":{"x":172575.46000000089,"y":2545212.2800000012}},{"attributes":{"ID":278796,"DIS_CODE":0,"TOWNNAME":"永康區","LI":"龍潭里","LIN":"31鄰","STREET":"龍中街","SECT":" ","MAREA":" ","LANE":"３０巷","ALLEY":" ","HOUSE_NO":"１１號","E_COORD97":174523.19,"N_COORD97":2547831.4399999999,"ADDRESS":"龍中街３０巷１１號","OBJECTID":278790},"geometry":{"x":174523.19000000041,"y":2547831.4400000032}},{"attributes":{"ID":278797,"DIS_CODE":0,"TOWNNAME":"永康區","LI":"二王里","LIN":"31鄰","STREET":"中山南路","SECT":" ","MAREA":" ","LANE":"４９０巷","ALLEY":" ","HOUSE_NO":"１５號","E_COORD97":172133.32999999999,"N_COORD97":2546378.7799999998,"ADDRESS":"中山南路４９０巷１５號","OBJECTID":278791},"geometry":{"x":172133.33000000007,"y":2546378.7800000012}},{"attributes":{"ID":278798,"DIS_CODE":0,"TOWNNAME":"永康區","LI":"二王里","LIN":"31鄰","STREET":"中山南路","SECT":" ","MAREA":" ","LANE":"４９０巷","ALLEY":" ","HOUSE_NO":"９號","E_COORD97":172118.17000000001,"N_COORD97":2546387.7799999998,"ADDRESS":"中山南路４９０巷９號","OBJECTID":278792},"geometry":{"x":172118.17000000086,"y":2546387.7799999993}},{"attributes":{"ID":278799,"DIS_CODE":0,"TOWNNAME":"永康區","LI":"龍潭里","LIN":"31鄰","STREET":"龍中街","SECT":" ","MAREA":" ","LANE":"３０巷","ALLEY":" ","HOUSE_NO":"１０號","E_COORD97":174529.45000000001,"N_COORD97":2547796.7599999998,"ADDRESS":"龍中街３０巷１０號","OBJECTID":278793},"geometry":{"x":174529.45000000019,"y":2547796.7600000016}},{"attributes":{"ID":278800,"DIS_CODE":0,"TOWNNAME":"永康區","LI":"二王里","LIN":"31鄰","STREET":"中山南路","SECT":" ","MAREA":" ","LANE":"４９０巷","ALLEY":" ","HOUSE_NO":"１９號","E_COORD97":172147.5,"N_COORD97":2546369.98,"ADDRESS":"中山南路４９０巷１９號","OBJECTID":278794},"geometry":{"x":172147.5,"y":2546369.9800000004}},{"attributes":{"ID":278801,"DIS_CODE":0,"TOWNNAME":"永康區","LI":"二王里","LIN":"31鄰","STREET":"中山南路","SECT":" ","MAREA":" ","LANE":"５１０巷","ALLEY":" ","HOUSE_NO":"２６號","E_COORD97":172159.23999999999,"N_COORD97":2546433.1299999999,"ADDRESS":"中山南路５１０巷２６號","OBJECTID":278795},"geometry":{"x":172159.24000000022,"y":2546433.1300000008}},{"attributes":{"ID":278802,"DIS_CODE":0,"TOWNNAME":"佳里區","LI":"安西里","LIN":"31鄰","STREET":"安西路","SECT":" ","MAREA":" ","LANE":"３１１巷","ALLEY":" ","HOUSE_NO":"５號","E_COORD97":165166.07000000001,"N_COORD97":2562968.5800000001,"ADDRESS":"安西路３１１巷５號","OBJECTID":278796},"geometry":{"x":165166.0700000003,"y":2562968.5800000001}},{"attributes":{"ID":278803,"DIS_CODE":0,"TOWNNAME":"下營區","LI":"仁里里","LIN":"2鄰","STREET":"公園路","SECT":" ","MAREA":" ","LANE":" ","ALLEY":" ","HOUSE_NO":"１３號","E_COORD97":174271.14000000001,"N_COORD97":2570313.73,"ADDRESS":"公園路１３號","OBJECTID":278797},"geometry":{"x":174271.1400000006,"y":2570313.7300000023}},{"attributes":{"ID":278804,"DIS_CODE":0,"TOWNNAME":"永康區","LI":"二王里","LIN":"31鄰","STREET":"中山南路","SECT":" ","MAREA":" ","LANE":"５１０巷","ALLEY":" ","HOUSE_NO":"２２號","E_COORD97":172150.48000000001,"N_COORD97":2546436.6299999999,"ADDRESS":"中山南路５１０巷２２號","OBJECTID":278798},"geometry":{"x":172150.48000000138,"y":2546436.6300000008}},{"attributes":{"ID":278805,"DIS_CODE":0,"TOWNNAME":"永康區","LI":"二王里","LIN":"31鄰","STREET":"中山南路","SECT":" ","MAREA":" ","LANE":"５１０巷","ALLEY":" ","HOUSE_NO":"１８號","E_COORD97":172142.95000000001,"N_COORD97":2546444.4700000002,"ADDRESS":"中山南路５１０巷１８號","OBJECTID":278799},"geometry":{"x":172142.95000000019,"y":2546444.4700000007}},{"attributes":{"ID":278806,"DIS_CODE":0,"TOWNNAME":"東區","LI":"東明里","LIN":"31鄰","STREET":"東寧路","SECT":" ","MAREA":" ","LANE":"２０１巷","ALLEY":" ","HOUSE_NO":"１００號","E_COORD97":170674.04999999999,"N_COORD97":2543774.1099999999,"ADDRESS":"東寧路２０１巷１００號","OBJECTID":278800},"geometry":{"x":170674.04999999888,"y":2543774.1099999994}}]}