{"displayFieldName":"TOWNNAME","fieldAliases":{"ID":"ID","DIS_CODE":"DIS_CODE","TOWNNAME":"TOWNNAME","LI":"LI","LIN":"LIN","STREET":"STREET","SECT":"SECT","MAREA":"MAREA","LANE":"LANE","ALLEY":"ALLEY","HOUSE_NO":"HOUSE_NO","E_COORD97":"E_COORD97","N_COORD97":"N_COORD97","ADDRESS":"ADDRESS","OBJECTID":"OBJECTID"},"geometryType":"esriGeometryPoint","spatialReference":{"wkid":102443,"latestWkid":3826},"fields":[{"name":"ID","type":"esriFieldTypeDouble","alias":"ID"},{"name":"DIS_CODE","type":"esriFieldTypeInteger","alias":"DIS_CODE"},{"name":"TOWNNAME","type":"esriFieldTypeString","alias":"TOWNNAME","length":8},{"name":"LI","type":"esriFieldTypeString","alias":"LI","length":8},{"name":"LIN","type":"esriFieldTypeString","alias":"LIN","length":12},{"name":"STREET","type":"esriFieldTypeString","alias":"STREET","length":20},{"name":"SECT","type":"esriFieldTypeString","alias":"SECT","length":8},{"name":"MAREA","type":"esriFieldTypeString","alias":"MAREA","length":12},{"name":"LANE","type":"esriFieldTypeString","alias":"LANE","length":10},{"name":"ALLEY","type":"esriFieldTypeString","alias":"ALLEY","length":10},{"name":"HOUSE_NO","type":"esriFieldTypeString","alias":"HOUSE_NO","length":20},{"name":"E_COORD97","type":"esriFieldTypeDouble","alias":"E_COORD97"},{"name":"N_COORD97","type":"esriFieldTypeDouble","alias":"N_COORD97"},{"name":"ADDRESS","type":"esriFieldTypeString","alias":"ADDRESS","length":50},{"name":"OBJECTID","type":"esriFieldTypeOID","alias":"OBJECTID"}],"features":[{"attributes":{"ID":314609,"DIS_CODE":0,"TOWNNAME":"安平區","LI":"文平里","LIN":"7鄰","STREET":"建平七街","SECT":" ","MAREA":" ","LANE":"５８巷","ALLEY":" ","HOUSE_NO":"５５號","E_COORD97":166255.95000000001,"N_COORD97":2543268.9900000002,"ADDRESS":"建平七街５８巷５５號","OBJECTID":314601},"geometry":{"x":166255.95000000205,"y":2543268.9900000021}},{"attributes":{"ID":314610,"DIS_CODE":0,"TOWNNAME":"安平區","LI":"文平里","LIN":"7鄰","STREET":"建平七街","SECT":" ","MAREA":" ","LANE":"５８巷","ALLEY":" ","HOUSE_NO":"５７號","E_COORD97":166251.51000000001,"N_COORD97":2543269.6899999999,"ADDRESS":"建平七街５８巷５７號","OBJECTID":314602},"geometry":{"x":166251.50999999978,"y":2543269.6900000032}},{"attributes":{"ID":314611,"DIS_CODE":0,"TOWNNAME":"安平區","LI":"文平里","LIN":"7鄰","STREET":"建平七街","SECT":" ","MAREA":" ","LANE":"５８巷","ALLEY":" ","HOUSE_NO":"５９號","E_COORD97":166247.17999999999,"N_COORD97":2543270.3900000001,"ADDRESS":"建平七街５８巷５９號","OBJECTID":314603},"geometry":{"x":166247.18000000063,"y":2543270.3900000025}},{"attributes":{"ID":314612,"DIS_CODE":0,"TOWNNAME":"安平區","LI":"文平里","LIN":"7鄰","STREET":"建平七街","SECT":" ","MAREA":" ","LANE":"５８巷","ALLEY":" ","HOUSE_NO":"６１號","E_COORD97":166242.26999999999,"N_COORD97":2543270.7400000002,"ADDRESS":"建平七街５８巷６１號","OBJECTID":314604},"geometry":{"x":166242.26999999955,"y":2543270.7400000021}},{"attributes":{"ID":314613,"DIS_CODE":0,"TOWNNAME":"新營區","LI":"南紙里","LIN":"17鄰","STREET":"南紙街","SECT":" ","MAREA":" ","LANE":"１６２巷","ALLEY":" ","HOUSE_NO":"７１號","E_COORD97":177898.88,"N_COORD97":2577303.6899999999,"ADDRESS":"南紙街１６２巷７１號","OBJECTID":314605},"geometry":{"x":177898.88000000082,"y":2577303.6900000013}},{"attributes":{"ID":314614,"DIS_CODE":0,"TOWNNAME":"安平區","LI":"文平里","LIN":"7鄰","STREET":"建平七街","SECT":" ","MAREA":" ","LANE":"９４巷","ALLEY":" ","HOUSE_NO":"１３號","E_COORD97":166218.14999999999,"N_COORD97":2543282.0099999998,"ADDRESS":"建平七街９４巷１３號","OBJECTID":314606},"geometry":{"x":166218.1500000013,"y":2543282.0100000016}},{"attributes":{"ID":314615,"DIS_CODE":0,"TOWNNAME":"鹽水區","LI":"橋南里","LIN":"7鄰","STREET":"忠孝路","SECT":" ","MAREA":" ","LANE":"１５５巷","ALLEY":" ","HOUSE_NO":"２３號","E_COORD97":175534.26999999999,"N_COORD97":2578822.8900000001,"ADDRESS":"忠孝路１５５巷２３號","OBJECTID":314607},"geometry":{"x":175534.27000000142,"y":2578822.8900000006}},{"attributes":{"ID":314616,"DIS_CODE":0,"TOWNNAME":"鹽水區","LI":"橋南里","LIN":"7鄰","STREET":"南門路","SECT":" ","MAREA":" ","LANE":"２０１巷","ALLEY":" ","HOUSE_NO":"１１號","E_COORD97":175441.20000000001,"N_COORD97":2578997.7200000002,"ADDRESS":"南門路２０１巷１１號","OBJECTID":314608},"geometry":{"x":175441.20000000112,"y":2578997.7200000007}},{"attributes":{"ID":314617,"DIS_CODE":0,"TOWNNAME":"南區","LI":"大忠里","LIN":"7鄰","STREET":"中華南路","SECT":"一段","MAREA":" ","LANE":"５３巷","ALLEY":" ","HOUSE_NO":"２８號","E_COORD97":169361.23999999999,"N_COORD97":2541314.52,"ADDRESS":"中華南路一段５３巷２８號","OBJECTID":314609},"geometry":{"x":169361.24000000209,"y":2541314.5199999977}},{"attributes":{"ID":314618,"DIS_CODE":0,"TOWNNAME":"南區","LI":"大忠里","LIN":"7鄰","STREET":"中華南路","SECT":"一段","MAREA":" ","LANE":"５３巷","ALLEY":" ","HOUSE_NO":"２號","E_COORD97":169342.38,"N_COORD97":2541361.9199999999,"ADDRESS":"中華南路一段５３巷２號","OBJECTID":314610},"geometry":{"x":169342.37999999989,"y":2541361.9199999999}},{"attributes":{"ID":314619,"DIS_CODE":0,"TOWNNAME":"南區","LI":"大忠里","LIN":"7鄰","STREET":"中華南路","SECT":"一段","MAREA":" ","LANE":"５３巷","ALLEY":" ","HOUSE_NO":"３２號","E_COORD97":169346.81,"N_COORD97":2541313.54,"ADDRESS":"中華南路一段５３巷３２號","OBJECTID":314611},"geometry":{"x":169346.81000000052,"y":2541313.5399999991}},{"attributes":{"ID":314620,"DIS_CODE":0,"TOWNNAME":"南區","LI":"大忠里","LIN":"7鄰","STREET":"中華南路","SECT":"一段","MAREA":" ","LANE":"５３巷","ALLEY":" ","HOUSE_NO":"３４號","E_COORD97":169340.91,"N_COORD97":2541312.8799999999,"ADDRESS":"中華南路一段５３巷３４號","OBJECTID":314612},"geometry":{"x":169340.91000000015,"y":2541312.8800000008}},{"attributes":{"ID":314621,"DIS_CODE":0,"TOWNNAME":"歸仁區","LI":"看東里","LIN":"8鄰","STREET":"成功一街","SECT":" ","MAREA":" ","LANE":" ","ALLEY":" ","HOUSE_NO":"１０７號","E_COORD97":178535.049252,"N_COORD97":2540007.7993899998,"ADDRESS":"成功一街１０７號","OBJECTID":314613},"geometry":{"x":178535.04925199971,"y":2540007.7993899994}},{"attributes":{"ID":314622,"DIS_CODE":0,"TOWNNAME":"歸仁區","LI":"看東里","LIN":"8鄰","STREET":"成功一街","SECT":" ","MAREA":" ","LANE":" ","ALLEY":" ","HOUSE_NO":"１１３號","E_COORD97":178525.936751,"N_COORD97":2539999.9677300001,"ADDRESS":"成功一街１１３號","OBJECTID":314614},"geometry":{"x":178525.93675100151,"y":2539999.9677280039}},{"attributes":{"ID":314623,"DIS_CODE":0,"TOWNNAME":"南區","LI":"大忠里","LIN":"7鄰","STREET":"中華南路","SECT":"一段","MAREA":" ","LANE":"５３巷","ALLEY":" ","HOUSE_NO":"３６號","E_COORD97":169333.70000000001,"N_COORD97":2541311.8999999999,"ADDRESS":"中華南路一段５３巷３６號","OBJECTID":314615},"geometry":{"x":169333.70000000019,"y":2541311.9000000004}},{"attributes":{"ID":314624,"DIS_CODE":0,"TOWNNAME":"南區","LI":"大忠里","LIN":"7鄰","STREET":"中華南路","SECT":"一段","MAREA":" ","LANE":"５３巷","ALLEY":" ","HOUSE_NO":"４６號","E_COORD97":169357.48999999999,"N_COORD97":2541295.0699999998,"ADDRESS":"中華南路一段５３巷４６號","OBJECTID":314616},"geometry":{"x":169357.49000000022,"y":2541295.070000004}},{"attributes":{"ID":314625,"DIS_CODE":0,"TOWNNAME":"南區","LI":"大忠里","LIN":"7鄰","STREET":"中華南路","SECT":"一段","MAREA":" ","LANE":"５３巷","ALLEY":" ","HOUSE_NO":"４號","E_COORD97":169348.31,"N_COORD97":2541352.9100000001,"ADDRESS":"中華南路一段５３巷４號","OBJECTID":314617},"geometry":{"x":169348.31000000145,"y":2541352.9100000001}},{"attributes":{"ID":314626,"DIS_CODE":0,"TOWNNAME":"南區","LI":"大忠里","LIN":"7鄰","STREET":"中華南路","SECT":"一段","MAREA":" ","LANE":"５３巷","ALLEY":" ","HOUSE_NO":"５２號","E_COORD97":169366.10000000001,"N_COORD97":2541283.1200000001,"ADDRESS":"中華南路一段５３巷５２號","OBJECTID":314618},"geometry":{"x":169366.09999999963,"y":2541283.1200000029}},{"attributes":{"ID":314627,"DIS_CODE":0,"TOWNNAME":"南區","LI":"大忠里","LIN":"7鄰","STREET":"中華南路","SECT":"一段","MAREA":" ","LANE":"５３巷","ALLEY":" ","HOUSE_NO":"６號","E_COORD97":169352.26000000001,"N_COORD97":2541344.4700000002,"ADDRESS":"中華南路一段５３巷６號","OBJECTID":314619},"geometry":{"x":169352.26000000164,"y":2541344.4700000025}},{"attributes":{"ID":314628,"DIS_CODE":0,"TOWNNAME":"新營區","LI":"忠政里","LIN":"30鄰","STREET":"府西路","SECT":" ","MAREA":" ","LANE":"３３巷","ALLEY":" ","HOUSE_NO":"２５號","E_COORD97":179744.134789,"N_COORD97":2578964.8963100002,"ADDRESS":"府西路３３巷２５號","OBJECTID":314620},"geometry":{"x":179744.1347890012,"y":2578964.896311}},{"attributes":{"ID":314629,"DIS_CODE":0,"TOWNNAME":"新營區","LI":"南紙里","LIN":"18鄰","STREET":"南紙街","SECT":" ","MAREA":" ","LANE":"４４巷","ALLEY":" ","HOUSE_NO":"８號","E_COORD97":177754.34,"N_COORD97":2577698.6400000001,"ADDRESS":"南紙街４４巷８號","OBJECTID":314621},"geometry":{"x":177754.33999999985,"y":2577698.6400000025}},{"attributes":{"ID":314630,"DIS_CODE":0,"TOWNNAME":"新營區","LI":"忠政里","LIN":"13鄰","STREET":"中正路","SECT":" ","MAREA":" ","LANE":"７７巷","ALLEY":" ","HOUSE_NO":"７號","E_COORD97":180037.32999999999,"N_COORD97":2579623.5,"ADDRESS":"中正路７７巷７號","OBJECTID":314622},"geometry":{"x":180037.33000000101,"y":2579623.5000000019}},{"attributes":{"ID":314631,"DIS_CODE":0,"TOWNNAME":"南區","LI":"大忠里","LIN":"7鄰","STREET":"中華南路","SECT":"一段","MAREA":" ","LANE":"５３巷","ALLEY":" ","HOUSE_NO":"８號","E_COORD97":169353.10999999999,"N_COORD97":2541339.6800000002,"ADDRESS":"中華南路一段５３巷８號","OBJECTID":314623},"geometry":{"x":169353.11000000034,"y":2541339.6799999997}},{"attributes":{"ID":314632,"DIS_CODE":0,"TOWNNAME":"南區","LI":"大忠里","LIN":"7鄰","STREET":"中華南路","SECT":"一段","MAREA":" ","LANE":"７７巷","ALLEY":" ","HOUSE_NO":"２６號","E_COORD97":169304.42999999999,"N_COORD97":2541280.1099999999,"ADDRESS":"中華南路一段７７巷２６號","OBJECTID":314624},"geometry":{"x":169304.4299999997,"y":2541280.1100000031}},{"attributes":{"ID":314633,"DIS_CODE":0,"TOWNNAME":"南區","LI":"大忠里","LIN":"7鄰","STREET":"中華南路","SECT":"一段","MAREA":" ","LANE":"７７巷","ALLEY":" ","HOUSE_NO":"２８號","E_COORD97":169304.42999999999,"N_COORD97":2541275.6600000001,"ADDRESS":"中華南路一段７７巷２８號","OBJECTID":314625},"geometry":{"x":169304.4299999997,"y":2541275.6600000001}},{"attributes":{"ID":314634,"DIS_CODE":0,"TOWNNAME":"南區","LI":"大忠里","LIN":"7鄰","STREET":"中華南路","SECT":"一段","MAREA":" ","LANE":"７７巷","ALLEY":" ","HOUSE_NO":"３０號","E_COORD97":169304.70999999999,"N_COORD97":2541271.5,"ADDRESS":"中華南路一段７７巷３０號","OBJECTID":314626},"geometry":{"x":169304.70999999996,"y":2541271.5000000037}},{"attributes":{"ID":314635,"DIS_CODE":0,"TOWNNAME":"南區","LI":"大忠里","LIN":"7鄰","STREET":"中華南路","SECT":"一段","MAREA":" ","LANE":"７７巷","ALLEY":" ","HOUSE_NO":"３２號","E_COORD97":169304.98999999999,"N_COORD97":2541267.6099999999,"ADDRESS":"中華南路一段７７巷３２號","OBJECTID":314627},"geometry":{"x":169304.99000000022,"y":2541267.6100000013}},{"attributes":{"ID":314636,"DIS_CODE":0,"TOWNNAME":"南區","LI":"大忠里","LIN":"7鄰","STREET":"中華南路","SECT":"一段","MAREA":" ","LANE":"７７巷","ALLEY":" ","HOUSE_NO":"３４號","E_COORD97":169305.54000000001,"N_COORD97":2541263.4500000002,"ADDRESS":"中華南路一段７７巷３４號","OBJECTID":314628},"geometry":{"x":169305.54000000097,"y":2541263.4499999993}},{"attributes":{"ID":314637,"DIS_CODE":0,"TOWNNAME":"南區","LI":"大忠里","LIN":"7鄰","STREET":"中華南路","SECT":"一段","MAREA":" ","LANE":"７７巷","ALLEY":" ","HOUSE_NO":"３７號","E_COORD97":169320.64000000001,"N_COORD97":2541283.79,"ADDRESS":"中華南路一段７７巷３７號","OBJECTID":314629},"geometry":{"x":169320.64000000153,"y":2541283.7899999991}},{"attributes":{"ID":314638,"DIS_CODE":0,"TOWNNAME":"南區","LI":"大忠里","LIN":"7鄰","STREET":"中華南路","SECT":"一段","MAREA":" ","LANE":"７７巷","ALLEY":" ","HOUSE_NO":"３８號","E_COORD97":169290.23000000001,"N_COORD97":2541272.0499999998,"ADDRESS":"中華南路一段７７巷３８號","OBJECTID":314630},"geometry":{"x":169290.22999999952,"y":2541272.0500000026}},{"attributes":{"ID":314639,"DIS_CODE":0,"TOWNNAME":"南區","LI":"大忠里","LIN":"7鄰","STREET":"中華南路","SECT":"一段","MAREA":" ","LANE":"７７巷","ALLEY":" ","HOUSE_NO":"４３號","E_COORD97":169325.59,"N_COORD97":2541266.2200000002,"ADDRESS":"中華南路一段７７巷４３號","OBJECTID":314631},"geometry":{"x":169325.58999999985,"y":2541266.2200000007}},{"attributes":{"ID":314640,"DIS_CODE":0,"TOWNNAME":"歸仁區","LI":"崙頂里","LIN":"7鄰","STREET":"崙頂一街","SECT":" ","MAREA":" ","LANE":"３２巷","ALLEY":" ","HOUSE_NO":"１號","E_COORD97":177951.01000000001,"N_COORD97":2539962.1099999999,"ADDRESS":"崙頂一街３２巷１號","OBJECTID":314632},"geometry":{"x":177951.01000000071,"y":2539962.1100000013}},{"attributes":{"ID":314641,"DIS_CODE":0,"TOWNNAME":"歸仁區","LI":"看西里","LIN":"7鄰","STREET":"信義南路","SECT":" ","MAREA":" ","LANE":"１８７巷","ALLEY":" ","HOUSE_NO":"７號","E_COORD97":178163.06,"N_COORD97":2540260.4900000002,"ADDRESS":"信義南路１８７巷７號","OBJECTID":314633},"geometry":{"x":178163.05999999959,"y":2540260.4900000002}},{"attributes":{"ID":314642,"DIS_CODE":0,"TOWNNAME":"歸仁區","LI":"崙頂里","LIN":"7鄰","STREET":"崙頂一街","SECT":" ","MAREA":" ","LANE":"３２巷","ALLEY":" ","HOUSE_NO":"１３號","E_COORD97":177951.26000000001,"N_COORD97":2539945.1099999999,"ADDRESS":"崙頂一街３２巷１３號","OBJECTID":314634},"geometry":{"x":177951.25999999978,"y":2539945.1100000013}},{"attributes":{"ID":314643,"DIS_CODE":0,"TOWNNAME":"歸仁區","LI":"崙頂里","LIN":"7鄰","STREET":"崙頂一街","SECT":" ","MAREA":" ","LANE":"３２巷","ALLEY":" ","HOUSE_NO":"７號","E_COORD97":177952.01000000001,"N_COORD97":2539957.1099999999,"ADDRESS":"崙頂一街３２巷７號","OBJECTID":314635},"geometry":{"x":177952.01000000071,"y":2539957.1099999994}},{"attributes":{"ID":314644,"DIS_CODE":0,"TOWNNAME":"歸仁區","LI":"看西里","LIN":"7鄰","STREET":"信義南路","SECT":" ","MAREA":" ","LANE":"１８７巷","ALLEY":" ","HOUSE_NO":"１８號","E_COORD97":178176.60999999999,"N_COORD97":2540247.4900000002,"ADDRESS":"信義南路１８７巷１８號","OBJECTID":314636},"geometry":{"x":178176.61000000034,"y":2540247.4899999984}},{"attributes":{"ID":314645,"DIS_CODE":0,"TOWNNAME":"歸仁區","LI":"看西里","LIN":"7鄰","STREET":"信義南路","SECT":" ","MAREA":" ","LANE":"１８７巷","ALLEY":" ","HOUSE_NO":"２０號","E_COORD97":178176.60999999999,"N_COORD97":2540252.4900000002,"ADDRESS":"信義南路１８７巷２０號","OBJECTID":314637},"geometry":{"x":178176.61000000034,"y":2540252.4900000021}},{"attributes":{"ID":314646,"DIS_CODE":0,"TOWNNAME":"歸仁區","LI":"看西里","LIN":"7鄰","STREET":"信義南路","SECT":" ","MAREA":" ","LANE":"１８７巷","ALLEY":" ","HOUSE_NO":"１６號","E_COORD97":178175.51000000001,"N_COORD97":2540241.4900000002,"ADDRESS":"信義南路１８７巷１６號","OBJECTID":314638},"geometry":{"x":178175.50999999885,"y":2540241.4900000021}},{"attributes":{"ID":314647,"DIS_CODE":0,"TOWNNAME":"歸仁區","LI":"看西里","LIN":"7鄰","STREET":"信義南路","SECT":" ","MAREA":" ","LANE":"１８７巷","ALLEY":" ","HOUSE_NO":"２２號","E_COORD97":178177.70999999999,"N_COORD97":2540259.4900000002,"ADDRESS":"信義南路１８７巷２２號","OBJECTID":314639},"geometry":{"x":178177.70999999996,"y":2540259.4900000021}},{"attributes":{"ID":314648,"DIS_CODE":0,"TOWNNAME":"歸仁區","LI":"看西里","LIN":"7鄰","STREET":"信義南路","SECT":" ","MAREA":" ","LANE":"１８７巷","ALLEY":" ","HOUSE_NO":"２８號","E_COORD97":178177.81,"N_COORD97":2540279.4900000002,"ADDRESS":"信義南路１８７巷２８號","OBJECTID":314640},"geometry":{"x":178177.80999999959,"y":2540279.4900000021}},{"attributes":{"ID":314649,"DIS_CODE":0,"TOWNNAME":"新營區","LI":"南興里","LIN":"7鄰","STREET":"和平路","SECT":" ","MAREA":" ","LANE":"９５巷","ALLEY":" ","HOUSE_NO":"１７號","E_COORD97":179481.82999999999,"N_COORD97":2577620.5499999998,"ADDRESS":"和平路９５巷１７號","OBJECTID":314641},"geometry":{"x":179481.83000000007,"y":2577620.5500000026}},{"attributes":{"ID":314650,"DIS_CODE":0,"TOWNNAME":"新營區","LI":"興業里","LIN":"7鄰","STREET":"公誠街","SECT":" ","MAREA":" ","LANE":"９巷","ALLEY":" ","HOUSE_NO":"２號","E_COORD97":180302.82999999999,"N_COORD97":2578003.1600000001,"ADDRESS":"公誠街９巷２號","OBJECTID":314642},"geometry":{"x":180302.82999999914,"y":2578003.160000002}},{"attributes":{"ID":314651,"DIS_CODE":0,"TOWNNAME":"新營區","LI":"南興里","LIN":"7鄰","STREET":"和平路","SECT":" ","MAREA":" ","LANE":"９５巷","ALLEY":" ","HOUSE_NO":"２５號","E_COORD97":179504.41,"N_COORD97":2577620.4399999999,"ADDRESS":"和平路９５巷２５號","OBJECTID":314643},"geometry":{"x":179504.41000000108,"y":2577620.4400000013}},{"attributes":{"ID":314652,"DIS_CODE":0,"TOWNNAME":"新營區","LI":"忠政里","LIN":"7鄰","STREET":"中正路","SECT":" ","MAREA":" ","LANE":"３７巷","ALLEY":" ","HOUSE_NO":"１９號","E_COORD97":180007.56,"N_COORD97":2579124.1899999999,"ADDRESS":"中正路３７巷１９號","OBJECTID":314644},"geometry":{"x":180007.56000000145,"y":2579124.1900000013}},{"attributes":{"ID":314653,"DIS_CODE":0,"TOWNNAME":"新營區","LI":"新南里","LIN":"30鄰","STREET":"明清三街","SECT":" ","MAREA":" ","LANE":" ","ALLEY":" ","HOUSE_NO":"４５號","E_COORD97":178209.993177,"N_COORD97":2578817.2406700002,"ADDRESS":"明清三街４５號","OBJECTID":314645},"geometry":{"x":178209.99317700136,"y":2578817.2406740021}},{"attributes":{"ID":314654,"DIS_CODE":0,"TOWNNAME":"學甲區","LI":"仁得里","LIN":"17鄰","STREET":"自強路","SECT":" ","MAREA":" ","LANE":" ","ALLEY":" ","HOUSE_NO":"１５２號","E_COORD97":165721.03,"N_COORD97":2569970.9900000002,"ADDRESS":"自強路１５２號","OBJECTID":314646},"geometry":{"x":165721.03000000026,"y":2569970.9900000039}},{"attributes":{"ID":314655,"DIS_CODE":0,"TOWNNAME":"新營區","LI":"南興里","LIN":"7鄰","STREET":"和平路","SECT":" ","MAREA":" ","LANE":"９５巷","ALLEY":" ","HOUSE_NO":"２３號","E_COORD97":179498.26999999999,"N_COORD97":2577620.4700000002,"ADDRESS":"和平路９５巷２３號","OBJECTID":314647},"geometry":{"x":179498.27000000048,"y":2577620.4700000044}},{"attributes":{"ID":314656,"DIS_CODE":0,"TOWNNAME":"新營區","LI":"新北里","LIN":"7鄰","STREET":"三興街","SECT":" ","MAREA":" ","LANE":"２７５巷","ALLEY":" ","HOUSE_NO":"２０號","E_COORD97":179268.76000000001,"N_COORD97":2579683.6499999999,"ADDRESS":"三興街２７５巷２０號","OBJECTID":314648},"geometry":{"x":179268.75999999978,"y":2579683.6500000041}},{"attributes":{"ID":314657,"DIS_CODE":0,"TOWNNAME":"新營區","LI":"新北里","LIN":"7鄰","STREET":"三興街","SECT":" ","MAREA":" ","LANE":"２７５巷","ALLEY":" ","HOUSE_NO":"８號","E_COORD97":179286.97,"N_COORD97":2579689.0899999999,"ADDRESS":"三興街２７５巷８號","OBJECTID":314649},"geometry":{"x":179286.97000000067,"y":2579689.0899999999}},{"attributes":{"ID":314658,"DIS_CODE":0,"TOWNNAME":"新營區","LI":"新北里","LIN":"7鄰","STREET":"三興街","SECT":" ","MAREA":" ","LANE":"２７５巷","ALLEY":" ","HOUSE_NO":"２２號","E_COORD97":179269.76000000001,"N_COORD97":2579679.21,"ADDRESS":"三興街２７５巷２２號","OBJECTID":314650},"geometry":{"x":179269.76000000071,"y":2579679.2100000009}},{"attributes":{"ID":314659,"DIS_CODE":0,"TOWNNAME":"新營區","LI":"新北里","LIN":"7鄰","STREET":"三興街","SECT":" ","MAREA":" ","LANE":"３０１巷","ALLEY":" ","HOUSE_NO":"２７號","E_COORD97":179248.45999999999,"N_COORD97":2579715.8599999999,"ADDRESS":"三興街３０１巷２７號","OBJECTID":314651},"geometry":{"x":179248.45999999996,"y":2579715.8600000013}},{"attributes":{"ID":314660,"DIS_CODE":0,"TOWNNAME":"新營區","LI":"新北里","LIN":"7鄰","STREET":"三興街","SECT":" ","MAREA":" ","LANE":"２７５巷","ALLEY":" ","HOUSE_NO":"４號","E_COORD97":179287.95000000001,"N_COORD97":2579679.1200000001,"ADDRESS":"三興街２７５巷４號","OBJECTID":314652},"geometry":{"x":179287.95000000019,"y":2579679.1200000029}},{"attributes":{"ID":314661,"DIS_CODE":0,"TOWNNAME":"新營區","LI":"興業里","LIN":"7鄰","STREET":"公誠街","SECT":" ","MAREA":" ","LANE":"９巷","ALLEY":" ","HOUSE_NO":"２之４號","E_COORD97":180305.32999999999,"N_COORD97":2578003.21,"ADDRESS":"公誠街９巷２之４號","OBJECTID":314653},"geometry":{"x":180305.33000000101,"y":2578003.2100000028}},{"attributes":{"ID":314662,"DIS_CODE":0,"TOWNNAME":"新營區","LI":"民權里","LIN":"7鄰","STREET":"中山路","SECT":" ","MAREA":" ","LANE":"２５２巷","ALLEY":" ","HOUSE_NO":"８號","E_COORD97":179847.89000000001,"N_COORD97":2578054.0299999998,"ADDRESS":"中山路２５２巷８號","OBJECTID":314654},"geometry":{"x":179847.89000000153,"y":2578054.0300000012}},{"attributes":{"ID":314663,"DIS_CODE":0,"TOWNNAME":"新營區","LI":"新北里","LIN":"7鄰","STREET":"三興街","SECT":" ","MAREA":" ","LANE":"３０１巷","ALLEY":" ","HOUSE_NO":"３９號","E_COORD97":179223.92000000001,"N_COORD97":2579712.6499999999,"ADDRESS":"三興街３０１巷３９號","OBJECTID":314655},"geometry":{"x":179223.91999999899,"y":2579712.6500000004}},{"attributes":{"ID":314664,"DIS_CODE":0,"TOWNNAME":"新營區","LI":"忠政里","LIN":"17鄰","STREET":"府西路","SECT":" ","MAREA":" ","LANE":"２５８巷","ALLEY":" ","HOUSE_NO":"３０號","E_COORD97":179905.14999999999,"N_COORD97":2579726.02,"ADDRESS":"府西路２５８巷３０號","OBJECTID":314656},"geometry":{"x":179905.1500000013,"y":2579726.0200000014}},{"attributes":{"ID":314665,"DIS_CODE":0,"TOWNNAME":"楠西區","LI":"東勢里","LIN":"7鄰","STREET":"仁愛路","SECT":" ","MAREA":" ","LANE":"１４２巷","ALLEY":" ","HOUSE_NO":"１１號","E_COORD97":197542.73999999999,"N_COORD97":2564008.2799999998,"ADDRESS":"仁愛路１４２巷１１號","OBJECTID":314657},"geometry":{"x":197542.74000000115,"y":2564008.2800000012}},{"attributes":{"ID":314666,"DIS_CODE":0,"TOWNNAME":"新營區","LI":"新東里","LIN":"26鄰","STREET":"東興五街","SECT":" ","MAREA":" ","LANE":"２１巷","ALLEY":" ","HOUSE_NO":"３３號","E_COORD97":180679.14000000001,"N_COORD97":2579453.27,"ADDRESS":"東興五街２１巷３３號","OBJECTID":314658},"geometry":{"x":180679.1400000006,"y":2579453.2699999996}},{"attributes":{"ID":314667,"DIS_CODE":0,"TOWNNAME":"新化區","LI":"豐榮里","LIN":"7鄰","STREET":"大智路","SECT":" ","MAREA":" ","LANE":"１６４巷","ALLEY":" ","HOUSE_NO":"１號","E_COORD97":178038.63,"N_COORD97":2548135.25,"ADDRESS":"大智路１６４巷１號","OBJECTID":314659},"geometry":{"x":178038.62999999989,"y":2548135.2500000037}},{"attributes":{"ID":314668,"DIS_CODE":0,"TOWNNAME":"新化區","LI":"東榮里","LIN":"7鄰","STREET":"信義路","SECT":" ","MAREA":" ","LANE":"１１７巷","ALLEY":" ","HOUSE_NO":"６號之２","E_COORD97":179678.48000000001,"N_COORD97":2548460.2599999998,"ADDRESS":"信義路１１７巷６號之２","OBJECTID":314660},"geometry":{"x":179678.48000000231,"y":2548460.2600000035}},{"attributes":{"ID":314669,"DIS_CODE":0,"TOWNNAME":"新營區","LI":"忠政里","LIN":"1鄰","STREET":"中正路","SECT":" ","MAREA":" ","LANE":"３１巷","ALLEY":" ","HOUSE_NO":"２２號","E_COORD97":180048.92000000001,"N_COORD97":2578986.6699999999,"ADDRESS":"中正路３１巷２２號","OBJECTID":314661},"geometry":{"x":180048.91999999993,"y":2578986.6699999999}},{"attributes":{"ID":314670,"DIS_CODE":0,"TOWNNAME":"新化區","LI":"協興里","LIN":"7鄰","STREET":"忠孝路","SECT":" ","MAREA":" ","LANE":"２０６巷","ALLEY":" ","HOUSE_NO":"２３號","E_COORD97":178314.47,"N_COORD97":2548635.25,"ADDRESS":"忠孝路２０６巷２３號","OBJECTID":314662},"geometry":{"x":178314.46999999974,"y":2548635.25}},{"attributes":{"ID":314671,"DIS_CODE":0,"TOWNNAME":"新化區","LI":"協興里","LIN":"7鄰","STREET":"太平街","SECT":" ","MAREA":" ","LANE":"１６９巷","ALLEY":" ","HOUSE_NO":"９號","E_COORD97":178248.51999999999,"N_COORD97":2548619.25,"ADDRESS":"太平街１６９巷９號","OBJECTID":314663},"geometry":{"x":178248.52000000048,"y":2548619.25}},{"attributes":{"ID":314672,"DIS_CODE":0,"TOWNNAME":"新化區","LI":"太平里","LIN":"7鄰","STREET":"民生路","SECT":" ","MAREA":" ","LANE":"３１４巷","ALLEY":" ","HOUSE_NO":"５９號","E_COORD97":179116.16,"N_COORD97":2549239.25,"ADDRESS":"民生路３１４巷５９號","OBJECTID":314664},"geometry":{"x":179116.16000000108,"y":2549239.25}},{"attributes":{"ID":314673,"DIS_CODE":0,"TOWNNAME":"新化區","LI":"豐榮里","LIN":"7鄰","STREET":"大智路","SECT":" ","MAREA":" ","LANE":"２３９巷","ALLEY":" ","HOUSE_NO":"２６號","E_COORD97":177973.47,"N_COORD97":2547929.2599999998,"ADDRESS":"大智路２３９巷２６號","OBJECTID":314665},"geometry":{"x":177973.46999999974,"y":2547929.2600000016}},{"attributes":{"ID":314674,"DIS_CODE":0,"TOWNNAME":"新化區","LI":"東榮里","LIN":"7鄰","STREET":"信義路","SECT":" ","MAREA":" ","LANE":"１３１巷","ALLEY":" ","HOUSE_NO":"１９號","E_COORD97":179666.57999999999,"N_COORD97":2548380.25,"ADDRESS":"信義路１３１巷１９號","OBJECTID":314666},"geometry":{"x":179666.58000000007,"y":2548380.2500000019}},{"attributes":{"ID":314675,"DIS_CODE":0,"TOWNNAME":"新化區","LI":"觀音里","LIN":"7鄰","STREET":"中正路","SECT":" ","MAREA":" ","LANE":"５４９巷","ALLEY":" ","HOUSE_NO":"２９號之４","E_COORD97":178955.69,"N_COORD97":2548625.2599999998,"ADDRESS":"中正路５４９巷２９號之４","OBJECTID":314667},"geometry":{"x":178955.69000000134,"y":2548625.2599999998}},{"attributes":{"ID":314676,"DIS_CODE":0,"TOWNNAME":"新化區","LI":"東榮里","LIN":"7鄰","STREET":"信義路","SECT":" ","MAREA":" ","LANE":"１３１巷","ALLEY":" ","HOUSE_NO":"７號","E_COORD97":179660.73000000001,"N_COORD97":2548443.25,"ADDRESS":"信義路１３１巷７號","OBJECTID":314668},"geometry":{"x":179660.73000000045,"y":2548443.25}},{"attributes":{"ID":314677,"DIS_CODE":0,"TOWNNAME":"新化區","LI":"東榮里","LIN":"7鄰","STREET":"信義路","SECT":" ","MAREA":" ","LANE":"１３１巷","ALLEY":" ","HOUSE_NO":"９號","E_COORD97":179662.42999999999,"N_COORD97":2548437.25,"ADDRESS":"信義路１３１巷９號","OBJECTID":314669},"geometry":{"x":179662.4299999997,"y":2548437.2500000019}},{"attributes":{"ID":314678,"DIS_CODE":0,"TOWNNAME":"新化區","LI":"協興里","LIN":"7鄰","STREET":"忠孝路","SECT":" ","MAREA":" ","LANE":"２０６巷","ALLEY":" ","HOUSE_NO":"３１號","E_COORD97":178331.47,"N_COORD97":2548637.25,"ADDRESS":"忠孝路２０６巷３１號","OBJECTID":314670},"geometry":{"x":178331.46999999974,"y":2548637.2500000019}},{"attributes":{"ID":314679,"DIS_CODE":0,"TOWNNAME":"新化區","LI":"護國里","LIN":"7鄰","STREET":"復興路","SECT":" ","MAREA":" ","LANE":"２９０巷","ALLEY":" ","HOUSE_NO":"５號","E_COORD97":179352.32000000001,"N_COORD97":2548509.25,"ADDRESS":"復興路２９０巷５號","OBJECTID":314671},"geometry":{"x":179352.32000000216,"y":2548509.2500000019}},{"attributes":{"ID":314680,"DIS_CODE":0,"TOWNNAME":"新化區","LI":"觀音里","LIN":"7鄰","STREET":"中正路","SECT":" ","MAREA":" ","LANE":"５４９巷","ALLEY":" ","HOUSE_NO":"１９號","E_COORD97":178950.95999999999,"N_COORD97":2548605.25,"ADDRESS":"中正路５４９巷１９號","OBJECTID":314672},"geometry":{"x":178950.96000000183,"y":2548605.25}},{"attributes":{"ID":314681,"DIS_CODE":0,"TOWNNAME":"新化區","LI":"東榮里","LIN":"7鄰","STREET":"信義路","SECT":" ","MAREA":" ","LANE":"１３１巷","ALLEY":" ","HOUSE_NO":"５號之３","E_COORD97":179656.17999999999,"N_COORD97":2548455.2599999998,"ADDRESS":"信義路１３１巷５號之３","OBJECTID":314673},"geometry":{"x":179656.18000000063,"y":2548455.2599999998}},{"attributes":{"ID":314682,"DIS_CODE":0,"TOWNNAME":"新營區","LI":"忠政里","LIN":"1鄰","STREET":"中正路","SECT":" ","MAREA":" ","LANE":"３１巷","ALLEY":" ","HOUSE_NO":"１４號","E_COORD97":180043.79999999999,"N_COORD97":2579002.2000000002,"ADDRESS":"中正路３１巷１４號","OBJECTID":314674},"geometry":{"x":180043.80000000075,"y":2579002.2000000011}},{"attributes":{"ID":314683,"DIS_CODE":0,"TOWNNAME":"新營區","LI":"南紙里","LIN":"24鄰","STREET":"南紙街","SECT":" ","MAREA":" ","LANE":"１１７巷","ALLEY":" ","HOUSE_NO":"５６號","E_COORD97":177948.75,"N_COORD97":2577462.9100000001,"ADDRESS":"南紙街１１７巷５６號","OBJECTID":314675},"geometry":{"x":177948.75000000186,"y":2577462.9100000001}},{"attributes":{"ID":314684,"DIS_CODE":0,"TOWNNAME":"新化區","LI":"太平里","LIN":"7鄰","STREET":"民生路","SECT":" ","MAREA":" ","LANE":"３１４巷","ALLEY":" ","HOUSE_NO":"６４號","E_COORD97":179123.56,"N_COORD97":2549191.25,"ADDRESS":"民生路３１４巷６４號","OBJECTID":314676},"geometry":{"x":179123.55999999959,"y":2549191.25}},{"attributes":{"ID":314685,"DIS_CODE":0,"TOWNNAME":"新化區","LI":"太平里","LIN":"7鄰","STREET":"民生路","SECT":" ","MAREA":" ","LANE":"３１４巷","ALLEY":" ","HOUSE_NO":"５０號","E_COORD97":179110.26000000001,"N_COORD97":2549223.25,"ADDRESS":"民生路３１４巷５０號","OBJECTID":314677},"geometry":{"x":179110.26000000071,"y":2549223.2499999981}},{"attributes":{"ID":314686,"DIS_CODE":0,"TOWNNAME":"新化區","LI":"太平里","LIN":"7鄰","STREET":"民生路","SECT":" ","MAREA":" ","LANE":"３１４巷","ALLEY":" ","HOUSE_NO":"４０號","E_COORD97":179076.66,"N_COORD97":2549224.25,"ADDRESS":"民生路３１４巷４０號","OBJECTID":314678},"geometry":{"x":179076.66000000015,"y":2549224.2500000019}},{"attributes":{"ID":314687,"DIS_CODE":0,"TOWNNAME":"新化區","LI":"太平里","LIN":"7鄰","STREET":"民生路","SECT":" ","MAREA":" ","LANE":"３１４巷","ALLEY":" ","HOUSE_NO":"６２號","E_COORD97":179124.85999999999,"N_COORD97":2549197.25,"ADDRESS":"民生路３１４巷６２號","OBJECTID":314679},"geometry":{"x":179124.8600000022,"y":2549197.2500000019}},{"attributes":{"ID":314688,"DIS_CODE":0,"TOWNNAME":"歸仁區","LI":"看東里","LIN":"8鄰","STREET":"成功一街","SECT":" ","MAREA":" ","LANE":" ","ALLEY":" ","HOUSE_NO":"１１５號","E_COORD97":178521.48645999999,"N_COORD97":2539998.48606,"ADDRESS":"成功一街１１５號","OBJECTID":314680},"geometry":{"x":178521.48646000028,"y":2539998.4860620014}},{"attributes":{"ID":314689,"DIS_CODE":0,"TOWNNAME":"北區","LI":"勝安里","LIN":"4鄰","STREET":"開元路","SECT":" ","MAREA":" ","LANE":"７３巷","ALLEY":" ","HOUSE_NO":"２８號","E_COORD97":169782.79999999999,"N_COORD97":2545249.4399999999,"ADDRESS":"開元路７３巷２８號","OBJECTID":314681},"geometry":{"x":169782.80000000075,"y":2545249.4400000013}},{"attributes":{"ID":314690,"DIS_CODE":0,"TOWNNAME":"北區","LI":"勝安里","LIN":"4鄰","STREET":"開元路","SECT":" ","MAREA":" ","LANE":"７３巷","ALLEY":" ","HOUSE_NO":"３０號","E_COORD97":169785.17000000001,"N_COORD97":2545251.7200000002,"ADDRESS":"開元路７３巷３０號","OBJECTID":314682},"geometry":{"x":169785.17000000179,"y":2545251.7200000025}},{"attributes":{"ID":314691,"DIS_CODE":0,"TOWNNAME":"北區","LI":"勝安里","LIN":"4鄰","STREET":"開元路","SECT":" ","MAREA":" ","LANE":"７３巷","ALLEY":" ","HOUSE_NO":"３２號","E_COORD97":169787.06,"N_COORD97":2545254.3999999999,"ADDRESS":"開元路７３巷３２號","OBJECTID":314683},"geometry":{"x":169787.05999999959,"y":2545254.4000000004}},{"attributes":{"ID":314692,"DIS_CODE":0,"TOWNNAME":"北區","LI":"勝安里","LIN":"4鄰","STREET":"開元路","SECT":" ","MAREA":" ","LANE":"７３巷","ALLEY":" ","HOUSE_NO":"３４號","E_COORD97":169788.95000000001,"N_COORD97":2545257.2400000002,"ADDRESS":"開元路７３巷３４號","OBJECTID":314684},"geometry":{"x":169788.95000000112,"y":2545257.2400000021}},{"attributes":{"ID":314693,"DIS_CODE":0,"TOWNNAME":"北區","LI":"勝安里","LIN":"4鄰","STREET":"開元路","SECT":" ","MAREA":" ","LANE":"７３巷","ALLEY":" ","HOUSE_NO":"３６號","E_COORD97":169791,"N_COORD97":2545259.7599999998,"ADDRESS":"開元路７３巷３６號","OBJECTID":314685},"geometry":{"x":169791,"y":2545259.7600000035}},{"attributes":{"ID":314694,"DIS_CODE":0,"TOWNNAME":"北區","LI":"勝安里","LIN":"10鄰","STREET":"開元路","SECT":" ","MAREA":" ","LANE":"２４９巷","ALLEY":" ","HOUSE_NO":"３３號","E_COORD97":169856.17000000001,"N_COORD97":2545515.8500000001,"ADDRESS":"開元路２４９巷３３號","OBJECTID":314686},"geometry":{"x":169856.16999999993,"y":2545515.8499999996}},{"attributes":{"ID":314695,"DIS_CODE":0,"TOWNNAME":"北區","LI":"勝安里","LIN":"11鄰","STREET":"開元路","SECT":" ","MAREA":" ","LANE":"１８３巷","ALLEY":" ","HOUSE_NO":"１０號","E_COORD97":169973.76999999999,"N_COORD97":2545353.4900000002,"ADDRESS":"開元路１８３巷１０號","OBJECTID":314687},"geometry":{"x":169973.76999999955,"y":2545353.4900000039}},{"attributes":{"ID":314696,"DIS_CODE":0,"TOWNNAME":"北區","LI":"勝安里","LIN":"11鄰","STREET":"開元路","SECT":" ","MAREA":" ","LANE":"１８３巷","ALLEY":" ","HOUSE_NO":"１０號之１","E_COORD97":169973.45000000001,"N_COORD97":2545357.5899999999,"ADDRESS":"開元路１８３巷１０號之１","OBJECTID":314688},"geometry":{"x":169973.45000000205,"y":2545357.5900000017}},{"attributes":{"ID":314697,"DIS_CODE":0,"TOWNNAME":"北區","LI":"勝安里","LIN":"11鄰","STREET":"開元路","SECT":" ","MAREA":" ","LANE":"１８３巷","ALLEY":" ","HOUSE_NO":"１０號之２","E_COORD97":169973.92999999999,"N_COORD97":2545361.6899999999,"ADDRESS":"開元路１８３巷１０號之２","OBJECTID":314689},"geometry":{"x":169973.9299999997,"y":2545361.6900000032}},{"attributes":{"ID":314698,"DIS_CODE":0,"TOWNNAME":"北區","LI":"勝安里","LIN":"11鄰","STREET":"開元路","SECT":" ","MAREA":" ","LANE":"１８３巷","ALLEY":" ","HOUSE_NO":"８號","E_COORD97":170006.10999999999,"N_COORD97":2545368.46,"ADDRESS":"開元路１８３巷８號","OBJECTID":314690},"geometry":{"x":170006.11000000034,"y":2545368.4600000028}},{"attributes":{"ID":314699,"DIS_CODE":0,"TOWNNAME":"新化區","LI":"太平里","LIN":"7鄰","STREET":"民生路","SECT":" ","MAREA":" ","LANE":"３１４巷","ALLEY":" ","HOUSE_NO":"６７號之７７","E_COORD97":179115.95999999999,"N_COORD97":2549725.2599999998,"ADDRESS":"民生路３１４巷６７號之７７","OBJECTID":314691},"geometry":{"x":179115.96000000089,"y":2549725.2600000016}},{"attributes":{"ID":314700,"DIS_CODE":0,"TOWNNAME":"新化區","LI":"太平里","LIN":"7鄰","STREET":"民生路","SECT":" ","MAREA":" ","LANE":"３１４巷","ALLEY":" ","HOUSE_NO":"６７號之２１","E_COORD97":179144.94,"N_COORD97":2549520.2599999998,"ADDRESS":"民生路３１４巷６７號之２１","OBJECTID":314692},"geometry":{"x":179144.94000000134,"y":2549520.2599999998}},{"attributes":{"ID":314701,"DIS_CODE":0,"TOWNNAME":"新化區","LI":"護國里","LIN":"7鄰","STREET":"中山路","SECT":" ","MAREA":" ","LANE":"２０９巷","ALLEY":" ","HOUSE_NO":"９號","E_COORD97":179264.41,"N_COORD97":2548401.25,"ADDRESS":"中山路２０９巷９號","OBJECTID":314693},"geometry":{"x":179264.41000000015,"y":2548401.25}},{"attributes":{"ID":314702,"DIS_CODE":0,"TOWNNAME":"新化區","LI":"太平里","LIN":"7鄰","STREET":"民生路","SECT":" ","MAREA":" ","LANE":"３１４巷","ALLEY":" ","HOUSE_NO":"６７號之１９","E_COORD97":179163.45999999999,"N_COORD97":2549416.2599999998,"ADDRESS":"民生路３１４巷６７號之１９","OBJECTID":314694},"geometry":{"x":179163.46000000089,"y":2549416.2600000035}},{"attributes":{"ID":314703,"DIS_CODE":0,"TOWNNAME":"新化區","LI":"豐榮里","LIN":"7鄰","STREET":"大智路","SECT":" ","MAREA":" ","LANE":"１６４巷","ALLEY":" ","HOUSE_NO":"７號","E_COORD97":178024.03,"N_COORD97":2548160.25,"ADDRESS":"大智路１６４巷７號","OBJECTID":314695},"geometry":{"x":178024.03000000119,"y":2548160.2500000019}},{"attributes":{"ID":314704,"DIS_CODE":0,"TOWNNAME":"新化區","LI":"豐榮里","LIN":"7鄰","STREET":"大智路","SECT":" ","MAREA":" ","LANE":"２７８巷","ALLEY":" ","HOUSE_NO":"１２號","E_COORD97":177788.38,"N_COORD97":2547934.25,"ADDRESS":"大智路２７８巷１２號","OBJECTID":314696},"geometry":{"x":177788.38000000175,"y":2547934.25}},{"attributes":{"ID":314705,"DIS_CODE":0,"TOWNNAME":"新營區","LI":"民生里","LIN":" ","STREET":"進修街","SECT":" ","MAREA":" ","LANE":"２９巷","ALLEY":" ","HOUSE_NO":"１４之２號","E_COORD97":178983.14000000001,"N_COORD97":2578482.3799999999,"ADDRESS":"進修街２９巷１４之２號","OBJECTID":314697},"geometry":{"x":178983.13999999873,"y":2578482.379999999}},{"attributes":{"ID":314706,"DIS_CODE":0,"TOWNNAME":"學甲區","LI":"仁得里","LIN":"17鄰","STREET":"自強路","SECT":" ","MAREA":" ","LANE":" ","ALLEY":" ","HOUSE_NO":"１５３號","E_COORD97":165862.23000000001,"N_COORD97":2569888.9199999999,"ADDRESS":"自強路１５３號","OBJECTID":314698},"geometry":{"x":165862.23000000045,"y":2569888.9199999999}},{"attributes":{"ID":314707,"DIS_CODE":0,"TOWNNAME":"學甲區","LI":"仁得里","LIN":"17鄰","STREET":"自強路","SECT":" ","MAREA":" ","LANE":" ","ALLEY":" ","HOUSE_NO":"１５４號","E_COORD97":165714.23999999999,"N_COORD97":2569973.6200000001,"ADDRESS":"自強路１５４號","OBJECTID":314699},"geometry":{"x":165714.24000000022,"y":2569973.620000001}},{"attributes":{"ID":314708,"DIS_CODE":0,"TOWNNAME":"學甲區","LI":"仁得里","LIN":"17鄰","STREET":"自強路","SECT":" ","MAREA":" ","LANE":" ","ALLEY":" ","HOUSE_NO":"１５７號","E_COORD97":165837.75,"N_COORD97":2569895.9500000002,"ADDRESS":"自強路１５７號","OBJECTID":314700},"geometry":{"x":165837.75,"y":2569895.950000003}},{"attributes":{"ID":314709,"DIS_CODE":0,"TOWNNAME":"學甲區","LI":"仁得里","LIN":"17鄰","STREET":"自強路","SECT":" ","MAREA":" ","LANE":" ","ALLEY":" ","HOUSE_NO":"１５９號","E_COORD97":165832.5,"N_COORD97":2569898,"ADDRESS":"自強路１５９號","OBJECTID":314701},"geometry":{"x":165832.5,"y":2569898}},{"attributes":{"ID":314710,"DIS_CODE":0,"TOWNNAME":"學甲區","LI":"仁得里","LIN":"17鄰","STREET":"自強路","SECT":" ","MAREA":" ","LANE":" ","ALLEY":" ","HOUSE_NO":"１６１號","E_COORD97":165828.51000000001,"N_COORD97":2569899.3700000001,"ADDRESS":"自強路１６１號","OBJECTID":314702},"geometry":{"x":165828.51000000071,"y":2569899.3700000029}},{"attributes":{"ID":314711,"DIS_CODE":0,"TOWNNAME":"學甲區","LI":"仁得里","LIN":"17鄰","STREET":"自強路","SECT":" ","MAREA":" ","LANE":" ","ALLEY":" ","HOUSE_NO":"１６３號之１","E_COORD97":165811.04000000001,"N_COORD97":2569898.1499999999,"ADDRESS":"自強路１６３號之１","OBJECTID":314703},"geometry":{"x":165811.0400000019,"y":2569898.1500000004}},{"attributes":{"ID":314712,"DIS_CODE":0,"TOWNNAME":"學甲區","LI":"仁得里","LIN":"17鄰","STREET":"自強路","SECT":" ","MAREA":" ","LANE":" ","ALLEY":" ","HOUSE_NO":"１６５號","E_COORD97":165802.79999999999,"N_COORD97":2569898.7000000002,"ADDRESS":"自強路１６５號","OBJECTID":314704},"geometry":{"x":165802.80000000075,"y":2569898.7000000011}},{"attributes":{"ID":314713,"DIS_CODE":0,"TOWNNAME":"學甲區","LI":"仁得里","LIN":"17鄰","STREET":"自強路","SECT":" ","MAREA":" ","LANE":" ","ALLEY":" ","HOUSE_NO":"１９７號","E_COORD97":165718.32000000001,"N_COORD97":2569939.3599999999,"ADDRESS":"自強路１９７號","OBJECTID":314705},"geometry":{"x":165718.32000000123,"y":2569939.3599999994}},{"attributes":{"ID":314714,"DIS_CODE":0,"TOWNNAME":"學甲區","LI":"仁得里","LIN":"17鄰","STREET":"和平路","SECT":" ","MAREA":" ","LANE":" ","ALLEY":" ","HOUSE_NO":"１４３號","E_COORD97":165849.17000000001,"N_COORD97":2569959.6499999999,"ADDRESS":"和平路１４３號","OBJECTID":314706},"geometry":{"x":165849.17000000086,"y":2569959.6500000004}},{"attributes":{"ID":314715,"DIS_CODE":0,"TOWNNAME":"學甲區","LI":"仁得里","LIN":"17鄰","STREET":"和平路","SECT":" ","MAREA":" ","LANE":" ","ALLEY":" ","HOUSE_NO":"１４５號","E_COORD97":165850.76999999999,"N_COORD97":2569964.29,"ADDRESS":"和平路１４５號","OBJECTID":314707},"geometry":{"x":165850.76999999955,"y":2569964.2899999972}},{"attributes":{"ID":314716,"DIS_CODE":0,"TOWNNAME":"學甲區","LI":"仁得里","LIN":"17鄰","STREET":"和平路","SECT":" ","MAREA":" ","LANE":" ","ALLEY":" ","HOUSE_NO":"１４７號","E_COORD97":165852.37,"N_COORD97":2569968.9199999999,"ADDRESS":"和平路１４７號","OBJECTID":314708},"geometry":{"x":165852.37000000011,"y":2569968.9200000018}},{"attributes":{"ID":314717,"DIS_CODE":0,"TOWNNAME":"學甲區","LI":"仁得里","LIN":"17鄰","STREET":"和平路","SECT":" ","MAREA":" ","LANE":" ","ALLEY":" ","HOUSE_NO":"１４９號","E_COORD97":165853.97,"N_COORD97":2569973.5600000001,"ADDRESS":"和平路１４９號","OBJECTID":314709},"geometry":{"x":165853.97000000067,"y":2569973.5600000005}},{"attributes":{"ID":314718,"DIS_CODE":0,"TOWNNAME":"六甲區","LI":"中社里","LIN":"14鄰","STREET":" ","SECT":" ","MAREA":"農場","LANE":" ","ALLEY":" ","HOUSE_NO":"５９號","E_COORD97":181017.79000000001,"N_COORD97":2572211.9900000002,"ADDRESS":"農場５９號","OBJECTID":314710},"geometry":{"x":181017.79000000004,"y":2572211.9899999984}},{"attributes":{"ID":314719,"DIS_CODE":0,"TOWNNAME":"新營區","LI":"新東里","LIN":"26鄰","STREET":"東興五街","SECT":" ","MAREA":" ","LANE":"２１巷","ALLEY":" ","HOUSE_NO":"２２號","E_COORD97":180688.41,"N_COORD97":2579473.1600000001,"ADDRESS":"東興五街２１巷２２號","OBJECTID":314711},"geometry":{"x":180688.41000000015,"y":2579473.1600000039}},{"attributes":{"ID":314720,"DIS_CODE":0,"TOWNNAME":"新營區","LI":"新南里","LIN":"14鄰","STREET":"民治路","SECT":" ","MAREA":" ","LANE":"２３０巷","ALLEY":" ","HOUSE_NO":"６３號","E_COORD97":178642.82999999999,"N_COORD97":2578639,"ADDRESS":"民治路２３０巷６３號","OBJECTID":314712},"geometry":{"x":178642.83000000007,"y":2578639}},{"attributes":{"ID":314721,"DIS_CODE":0,"TOWNNAME":"新化區","LI":"護國里","LIN":"7鄰","STREET":"中山路","SECT":" ","MAREA":" ","LANE":"２０９巷","ALLEY":" ","HOUSE_NO":"３號之１","E_COORD97":179267.04000000001,"N_COORD97":2548415.2599999998,"ADDRESS":"中山路２０９巷３號之１","OBJECTID":314713},"geometry":{"x":179267.04000000004,"y":2548415.2599999998}},{"attributes":{"ID":314722,"DIS_CODE":0,"TOWNNAME":"學甲區","LI":"仁得里","LIN":"17鄰","STREET":"和平路","SECT":" ","MAREA":" ","LANE":" ","ALLEY":" ","HOUSE_NO":"１號","E_COORD97":165780.38,"N_COORD97":2569707.8300000001,"ADDRESS":"和平路１號","OBJECTID":314714},"geometry":{"x":165780.38000000082,"y":2569707.8300000038}},{"attributes":{"ID":314723,"DIS_CODE":0,"TOWNNAME":"新化區","LI":"護國里","LIN":"7鄰","STREET":"中山路","SECT":" ","MAREA":" ","LANE":"２０９巷","ALLEY":" ","HOUSE_NO":"３號","E_COORD97":179265.60999999999,"N_COORD97":2548419.25,"ADDRESS":"中山路２０９巷３號","OBJECTID":314715},"geometry":{"x":179265.6100000022,"y":2548419.25}},{"attributes":{"ID":314724,"DIS_CODE":0,"TOWNNAME":"新化區","LI":"太平里","LIN":"7鄰","STREET":"民生路","SECT":" ","MAREA":" ","LANE":"３１４巷","ALLEY":" ","HOUSE_NO":"６７號之１０１","E_COORD97":179172.89000000001,"N_COORD97":2549931.2599999998,"ADDRESS":"民生路３１４巷６７號之１０１","OBJECTID":314716},"geometry":{"x":179172.88999999966,"y":2549931.2599999998}},{"attributes":{"ID":314725,"DIS_CODE":0,"TOWNNAME":"新化區","LI":"東榮里","LIN":"7鄰","STREET":"信義路","SECT":" ","MAREA":" ","LANE":"１３１巷","ALLEY":" ","HOUSE_NO":"３號之１","E_COORD97":179650.35999999999,"N_COORD97":2548471.2599999998,"ADDRESS":"信義路１３１巷３號之１","OBJECTID":314717},"geometry":{"x":179650.3600000022,"y":2548471.2600000016}},{"attributes":{"ID":314726,"DIS_CODE":0,"TOWNNAME":"新化區","LI":"護國里","LIN":"7鄰","STREET":"復興路","SECT":" ","MAREA":" ","LANE":"２９０巷","ALLEY":" ","HOUSE_NO":"１號","E_COORD97":179354.22,"N_COORD97":2548463.25,"ADDRESS":"復興路２９０巷１號","OBJECTID":314718},"geometry":{"x":179354.22000000067,"y":2548463.25}},{"attributes":{"ID":314727,"DIS_CODE":0,"TOWNNAME":"新營區","LI":"新南里","LIN":"25鄰","STREET":"復興路","SECT":" ","MAREA":" ","LANE":"６２０巷","ALLEY":" ","HOUSE_NO":"６８號","E_COORD97":178062.45000000001,"N_COORD97":2578549.8900000001,"ADDRESS":"復興路６２０巷６８號","OBJECTID":314719},"geometry":{"x":178062.45000000019,"y":2578549.8900000043}},{"attributes":{"ID":314728,"DIS_CODE":0,"TOWNNAME":"新化區","LI":"豐榮里","LIN":"7鄰","STREET":"大智路","SECT":" ","MAREA":" ","LANE":"２３９巷","ALLEY":" ","HOUSE_NO":"６６號","E_COORD97":177998.73000000001,"N_COORD97":2547850.25,"ADDRESS":"大智路２３９巷６６號","OBJECTID":314720},"geometry":{"x":177998.73000000138,"y":2547850.2500000037}},{"attributes":{"ID":314729,"DIS_CODE":0,"TOWNNAME":"新化區","LI":"太平里","LIN":"7鄰","STREET":"民生路","SECT":" ","MAREA":" ","LANE":"３１４巷","ALLEY":" ","HOUSE_NO":"６７號之６","E_COORD97":179194.10999999999,"N_COORD97":2549287.2599999998,"ADDRESS":"民生路３１４巷６７號之６","OBJECTID":314721},"geometry":{"x":179194.11000000034,"y":2549287.2599999979}},{"attributes":{"ID":314730,"DIS_CODE":0,"TOWNNAME":"北區","LI":"華興里","LIN":"6鄰","STREET":"林森路","SECT":"三段","MAREA":" ","LANE":"２７８巷","ALLEY":" ","HOUSE_NO":"２號","E_COORD97":170479.57000000001,"N_COORD97":2545336.9399999999,"ADDRESS":"林森路三段２７８巷２號","OBJECTID":314722},"geometry":{"x":170479.57000000216,"y":2545336.9400000013}},{"attributes":{"ID":314731,"DIS_CODE":0,"TOWNNAME":"北區","LI":"華興里","LIN":"6鄰","STREET":"林森路","SECT":"三段","MAREA":" ","LANE":"２７８巷","ALLEY":" ","HOUSE_NO":"３號","E_COORD97":170482.70999999999,"N_COORD97":2545347.7799999998,"ADDRESS":"林森路三段２７８巷３號","OBJECTID":314723},"geometry":{"x":170482.70999999996,"y":2545347.7800000012}},{"attributes":{"ID":314732,"DIS_CODE":0,"TOWNNAME":"北區","LI":"華興里","LIN":"6鄰","STREET":"林森路","SECT":"三段","MAREA":" ","LANE":"２７８巷","ALLEY":" ","HOUSE_NO":"４號","E_COORD97":170487.57000000001,"N_COORD97":2545338.0699999998,"ADDRESS":"林森路三段２７８巷４號","OBJECTID":314724},"geometry":{"x":170487.5700000003,"y":2545338.0700000003}},{"attributes":{"ID":314733,"DIS_CODE":0,"TOWNNAME":"北區","LI":"華興里","LIN":"6鄰","STREET":"林森路","SECT":"三段","MAREA":" ","LANE":"２７８巷","ALLEY":" ","HOUSE_NO":"５號","E_COORD97":170490.70999999999,"N_COORD97":2545349.0800000001,"ADDRESS":"林森路三段２７８巷５號","OBJECTID":314725},"geometry":{"x":170490.71000000089,"y":2545349.0800000001}},{"attributes":{"ID":314734,"DIS_CODE":0,"TOWNNAME":"北區","LI":"華興里","LIN":"19鄰","STREET":"開南街","SECT":" ","MAREA":" ","LANE":"１４３巷","ALLEY":" ","HOUSE_NO":"５號","E_COORD97":170642.64000000001,"N_COORD97":2545143.8500000001,"ADDRESS":"開南街１４３巷５號","OBJECTID":314726},"geometry":{"x":170642.63999999966,"y":2545143.8500000034}},{"attributes":{"ID":314735,"DIS_CODE":0,"TOWNNAME":"新化區","LI":"太平里","LIN":"7鄰","STREET":"民生路","SECT":" ","MAREA":" ","LANE":"３１４巷","ALLEY":" ","HOUSE_NO":"５６號","E_COORD97":179130.56,"N_COORD97":2549221.25,"ADDRESS":"民生路３１４巷５６號","OBJECTID":314727},"geometry":{"x":179130.55999999959,"y":2549221.2500000019}},{"attributes":{"ID":314736,"DIS_CODE":0,"TOWNNAME":"新化區","LI":"豐榮里","LIN":"7鄰","STREET":"大智路","SECT":" ","MAREA":" ","LANE":"１６４巷","ALLEY":" ","HOUSE_NO":"１５號之１","E_COORD97":178004.60999999999,"N_COORD97":2548178.2599999998,"ADDRESS":"大智路１６４巷１５號之１","OBJECTID":314728},"geometry":{"x":178004.61000000127,"y":2548178.2599999998}},{"attributes":{"ID":314737,"DIS_CODE":0,"TOWNNAME":"新營區","LI":"忠政里","LIN":"33鄰","STREET":"中正路","SECT":" ","MAREA":" ","LANE":"３７巷","ALLEY":" ","HOUSE_NO":"１６０號","E_COORD97":179887.04999999999,"N_COORD97":2579115.8999999999,"ADDRESS":"中正路３７巷１６０號","OBJECTID":314729},"geometry":{"x":179887.04999999981,"y":2579115.9000000041}},{"attributes":{"ID":314738,"DIS_CODE":0,"TOWNNAME":"新化區","LI":"觀音里","LIN":"7鄰","STREET":"中正路","SECT":" ","MAREA":" ","LANE":"５４９巷","ALLEY":" ","HOUSE_NO":"２９號之１","E_COORD97":178953.59,"N_COORD97":2548635.2599999998,"ADDRESS":"中正路５４９巷２９號之１","OBJECTID":314730},"geometry":{"x":178953.59000000078,"y":2548635.2599999998}},{"attributes":{"ID":314739,"DIS_CODE":0,"TOWNNAME":"新化區","LI":"東榮里","LIN":"7鄰","STREET":"信義路","SECT":" ","MAREA":" ","LANE":"１１７巷","ALLEY":" ","HOUSE_NO":"６號之１","E_COORD97":179677.45999999999,"N_COORD97":2548464.2599999998,"ADDRESS":"信義路１１７巷６號之１","OBJECTID":314731},"geometry":{"x":179677.45999999996,"y":2548464.2600000016}},{"attributes":{"ID":314740,"DIS_CODE":0,"TOWNNAME":"新化區","LI":"東榮里","LIN":"7鄰","STREET":"信義路","SECT":" ","MAREA":" ","LANE":"１３１巷","ALLEY":" ","HOUSE_NO":"５號之２","E_COORD97":179654.67999999999,"N_COORD97":2548459.2599999998,"ADDRESS":"信義路１３１巷５號之２","OBJECTID":314732},"geometry":{"x":179654.68000000063,"y":2548459.2599999998}},{"attributes":{"ID":314741,"DIS_CODE":0,"TOWNNAME":"新化區","LI":"觀音里","LIN":"7鄰","STREET":"中正路","SECT":" ","MAREA":" ","LANE":"５４９巷","ALLEY":" ","HOUSE_NO":"２９號之５","E_COORD97":178956.22,"N_COORD97":2548623.2599999998,"ADDRESS":"中正路５４９巷２９號之５","OBJECTID":314733},"geometry":{"x":178956.22000000067,"y":2548623.2600000035}},{"attributes":{"ID":314742,"DIS_CODE":0,"TOWNNAME":"新化區","LI":"豐榮里","LIN":"7鄰","STREET":"大智路","SECT":" ","MAREA":" ","LANE":"１６４巷","ALLEY":" ","HOUSE_NO":"５號","E_COORD97":178028.13,"N_COORD97":2548151.25,"ADDRESS":"大智路１６４巷５號","OBJECTID":314734},"geometry":{"x":178028.13000000082,"y":2548151.25}},{"attributes":{"ID":314743,"DIS_CODE":0,"TOWNNAME":"新化區","LI":"豐榮里","LIN":"7鄰","STREET":"大智路","SECT":" ","MAREA":" ","LANE":"１６４巷","ALLEY":" ","HOUSE_NO":"１５號","E_COORD97":177999.98000000001,"N_COORD97":2548174.25,"ADDRESS":"大智路１６４巷１５號","OBJECTID":314735},"geometry":{"x":177999.98000000045,"y":2548174.25}},{"attributes":{"ID":314744,"DIS_CODE":0,"TOWNNAME":"新化區","LI":"東榮里","LIN":"7鄰","STREET":"信義路","SECT":" ","MAREA":" ","LANE":"１３１巷","ALLEY":" ","HOUSE_NO":"１５號","E_COORD97":179667.78,"N_COORD97":2548400.25,"ADDRESS":"信義路１３１巷１５號","OBJECTID":314736},"geometry":{"x":179667.78000000212,"y":2548400.2500000019}},{"attributes":{"ID":314745,"DIS_CODE":0,"TOWNNAME":"新化區","LI":"東榮里","LIN":"7鄰","STREET":"信義路","SECT":" ","MAREA":" ","LANE":"１３１巷","ALLEY":" ","HOUSE_NO":"３號","E_COORD97":179648.92999999999,"N_COORD97":2548473.25,"ADDRESS":"信義路１３１巷３號","OBJECTID":314737},"geometry":{"x":179648.9299999997,"y":2548473.25}},{"attributes":{"ID":314746,"DIS_CODE":0,"TOWNNAME":"新化區","LI":"東榮里","LIN":"7鄰","STREET":"信義路","SECT":" ","MAREA":" ","LANE":"１３１巷","ALLEY":" ","HOUSE_NO":"５號之１","E_COORD97":179652.95999999999,"N_COORD97":2548463.2599999998,"ADDRESS":"信義路１３１巷５號之１","OBJECTID":314738},"geometry":{"x":179652.96000000089,"y":2548463.2599999998}},{"attributes":{"ID":314747,"DIS_CODE":0,"TOWNNAME":"新化區","LI":"護國里","LIN":"7鄰","STREET":"復興路","SECT":" ","MAREA":" ","LANE":"２９０巷","ALLEY":" ","HOUSE_NO":"２７號","E_COORD97":179407.37,"N_COORD97":2548445.25,"ADDRESS":"復興路２９０巷２７號","OBJECTID":314739},"geometry":{"x":179407.37000000011,"y":2548445.2500000019}},{"attributes":{"ID":314748,"DIS_CODE":0,"TOWNNAME":"新營區","LI":"三仙里","LIN":"12鄰","STREET":"民權路","SECT":" ","MAREA":" ","LANE":"４１巷","ALLEY":" ","HOUSE_NO":"６號","E_COORD97":179656.56,"N_COORD97":2578270.8900000001,"ADDRESS":"民權路４１巷６號","OBJECTID":314740},"geometry":{"x":179656.55999999866,"y":2578270.8900000006}},{"attributes":{"ID":314749,"DIS_CODE":0,"TOWNNAME":"新化區","LI":"協興里","LIN":"7鄰","STREET":"太平街","SECT":" ","MAREA":" ","LANE":"１６９巷","ALLEY":" ","HOUSE_NO":"１１號","E_COORD97":178251.67000000001,"N_COORD97":2548617.25,"ADDRESS":"太平街１６９巷１１號","OBJECTID":314741},"geometry":{"x":178251.67000000086,"y":2548617.2500000019}},{"attributes":{"ID":314750,"DIS_CODE":0,"TOWNNAME":"新化區","LI":"協興里","LIN":"7鄰","STREET":"太平街","SECT":" ","MAREA":" ","LANE":"１６９巷","ALLEY":" ","HOUSE_NO":"７號","E_COORD97":178246.92000000001,"N_COORD97":2548623.25,"ADDRESS":"太平街１６９巷７號","OBJECTID":314742},"geometry":{"x":178246.91999999993,"y":2548623.2500000037}},{"attributes":{"ID":314751,"DIS_CODE":0,"TOWNNAME":"新化區","LI":"協興里","LIN":"7鄰","STREET":"太平街","SECT":" ","MAREA":" ","LANE":"１６９巷","ALLEY":" ","HOUSE_NO":"１３號","E_COORD97":178254.07000000001,"N_COORD97":2548613.25,"ADDRESS":"太平街１６９巷１３號","OBJECTID":314743},"geometry":{"x":178254.07000000123,"y":2548613.2500000037}},{"attributes":{"ID":314752,"DIS_CODE":0,"TOWNNAME":"新化區","LI":"觀音里","LIN":"7鄰","STREET":"中正路","SECT":" ","MAREA":" ","LANE":"５４９巷","ALLEY":" ","HOUSE_NO":"８號","E_COORD97":178942.20999999999,"N_COORD97":2548662.25,"ADDRESS":"中正路５４９巷８號","OBJECTID":314744},"geometry":{"x":178942.20999999996,"y":2548662.2500000019}},{"attributes":{"ID":314753,"DIS_CODE":0,"TOWNNAME":"新化區","LI":"清水里","LIN":"7鄰","STREET":"忠孝路","SECT":" ","MAREA":" ","LANE":"１６１巷","ALLEY":" ","HOUSE_NO":"２５號","E_COORD97":178631.17000000001,"N_COORD97":2548560.25,"ADDRESS":"忠孝路１６１巷２５號","OBJECTID":314745},"geometry":{"x":178631.17000000086,"y":2548560.2500000019}},{"attributes":{"ID":314754,"DIS_CODE":0,"TOWNNAME":"新化區","LI":"清水里","LIN":"7鄰","STREET":"忠孝路","SECT":" ","MAREA":" ","LANE":"１６１巷","ALLEY":" ","HOUSE_NO":"９號","E_COORD97":178645.51999999999,"N_COORD97":2548599.25,"ADDRESS":"忠孝路１６１巷９號","OBJECTID":314746},"geometry":{"x":178645.52000000048,"y":2548599.25}},{"attributes":{"ID":314755,"DIS_CODE":0,"TOWNNAME":"學甲區","LI":"仁得里","LIN":"17鄰","STREET":"和平路","SECT":" ","MAREA":" ","LANE":" ","ALLEY":" ","HOUSE_NO":"１５１號","E_COORD97":165855.57000000001,"N_COORD97":2569978.1899999999,"ADDRESS":"和平路１５１號","OBJECTID":314747},"geometry":{"x":165855.57000000123,"y":2569978.1899999995}},{"attributes":{"ID":314756,"DIS_CODE":0,"TOWNNAME":"六甲區","LI":"中社里","LIN":"14鄰","STREET":" ","SECT":" ","MAREA":"農場","LANE":" ","ALLEY":" ","HOUSE_NO":"１０號","E_COORD97":181212.10999999999,"N_COORD97":2572159.6099999999,"ADDRESS":"農場１０號","OBJECTID":314748},"geometry":{"x":181212.11000000127,"y":2572159.6100000031}},{"attributes":{"ID":314757,"DIS_CODE":0,"TOWNNAME":"學甲區","LI":"仁得里","LIN":"17鄰","STREET":"和平路","SECT":" ","MAREA":" ","LANE":" ","ALLEY":" ","HOUSE_NO":"３號","E_COORD97":165782.35999999999,"N_COORD97":2569712.98,"ADDRESS":"和平路３號","OBJECTID":314749},"geometry":{"x":165782.36000000127,"y":2569712.9800000004}},{"attributes":{"ID":314758,"DIS_CODE":0,"TOWNNAME":"學甲區","LI":"仁得里","LIN":"17鄰","STREET":"和平路","SECT":" ","MAREA":" ","LANE":" ","ALLEY":" ","HOUSE_NO":"５號","E_COORD97":165784.13,"N_COORD97":2569717.46,"ADDRESS":"和平路５號","OBJECTID":314750},"geometry":{"x":165784.12999999989,"y":2569717.4600000009}},{"attributes":{"ID":314759,"DIS_CODE":0,"TOWNNAME":"學甲區","LI":"仁得里","LIN":"17鄰","STREET":"和平路","SECT":" ","MAREA":" ","LANE":" ","ALLEY":" ","HOUSE_NO":"７號","E_COORD97":165784.95999999999,"N_COORD97":2569721.25,"ADDRESS":"和平路７號","OBJECTID":314751},"geometry":{"x":165784.96000000089,"y":2569721.25}},{"attributes":{"ID":314760,"DIS_CODE":0,"TOWNNAME":"學甲區","LI":"仁得里","LIN":"17鄰","STREET":"和平路","SECT":" ","MAREA":" ","LANE":" ","ALLEY":" ","HOUSE_NO":"９號","E_COORD97":165786.60999999999,"N_COORD97":2569725.75,"ADDRESS":"和平路９號","OBJECTID":314752},"geometry":{"x":165786.61000000034,"y":2569725.7500000019}},{"attributes":{"ID":314761,"DIS_CODE":0,"TOWNNAME":"學甲區","LI":"仁得里","LIN":"17鄰","STREET":"信義路","SECT":" ","MAREA":" ","LANE":" ","ALLEY":" ","HOUSE_NO":"１０號之１２","E_COORD97":165634.48000000001,"N_COORD97":2569805.3199999998,"ADDRESS":"信義路１０號之１２","OBJECTID":314753},"geometry":{"x":165634.48000000138,"y":2569805.3200000003}},{"attributes":{"ID":314762,"DIS_CODE":0,"TOWNNAME":"六甲區","LI":"龜港里","LIN":"4鄰","STREET":" ","SECT":" ","MAREA":"龜子港","LANE":"１６１巷","ALLEY":"４１弄","HOUSE_NO":"２４號","E_COORD97":179436.38,"N_COORD97":2572233.8599999999,"ADDRESS":"龜子港１６１巷４１弄２４號","OBJECTID":314754},"geometry":{"x":179436.38000000082,"y":2572233.8600000013}},{"attributes":{"ID":314763,"DIS_CODE":0,"TOWNNAME":"六甲區","LI":"龜港里","LIN":"3鄰","STREET":" ","SECT":" ","MAREA":"龜子港","LANE":"１６１巷","ALLEY":"４１弄","HOUSE_NO":"１０號","E_COORD97":179481.54999999999,"N_COORD97":2572235.98,"ADDRESS":"龜子港１６１巷４１弄１０號","OBJECTID":314755},"geometry":{"x":179481.54999999981,"y":2572235.9799999986}},{"attributes":{"ID":314764,"DIS_CODE":0,"TOWNNAME":"六甲區","LI":"龜港里","LIN":"3鄰","STREET":" ","SECT":" ","MAREA":"龜子港","LANE":"１６１巷","ALLEY":"４１弄","HOUSE_NO":"１１號","E_COORD97":179570.20999999999,"N_COORD97":2572133.8900000001,"ADDRESS":"龜子港１６１巷４１弄１１號","OBJECTID":314756},"geometry":{"x":179570.21000000089,"y":2572133.8900000006}},{"attributes":{"ID":314765,"DIS_CODE":0,"TOWNNAME":"六甲區","LI":"龜港里","LIN":"3鄰","STREET":" ","SECT":" ","MAREA":"龜子港","LANE":"１６１巷","ALLEY":"４１弄","HOUSE_NO":"１２號","E_COORD97":179485.23999999999,"N_COORD97":2572218.8500000001,"ADDRESS":"龜子港１６１巷４１弄１２號","OBJECTID":314757},"geometry":{"x":179485.24000000115,"y":2572218.8499999996}},{"attributes":{"ID":314766,"DIS_CODE":0,"TOWNNAME":"六甲區","LI":"龜港里","LIN":"3鄰","STREET":" ","SECT":" ","MAREA":"龜子港","LANE":"１６１巷","ALLEY":"４１弄","HOUSE_NO":"１４號","E_COORD97":179466.38,"N_COORD97":2572220.5099999998,"ADDRESS":"龜子港１６１巷４１弄１４號","OBJECTID":314758},"geometry":{"x":179466.37999999989,"y":2572220.5099999998}},{"attributes":{"ID":314767,"DIS_CODE":0,"TOWNNAME":"六甲區","LI":"龜港里","LIN":"3鄰","STREET":" ","SECT":" ","MAREA":"龜子港","LANE":"１６１巷","ALLEY":"４１弄","HOUSE_NO":"１５號","E_COORD97":179506.04999999999,"N_COORD97":2572163.1699999999,"ADDRESS":"龜子港１６１巷４１弄１５號","OBJECTID":314759},"geometry":{"x":179506.04999999888,"y":2572163.1700000037}},{"attributes":{"ID":314768,"DIS_CODE":0,"TOWNNAME":"六甲區","LI":"龜港里","LIN":"1鄰","STREET":" ","SECT":" ","MAREA":"龜子港","LANE":"１６１巷","ALLEY":" ","HOUSE_NO":"４０號","E_COORD97":179540.14999999999,"N_COORD97":2572258.8500000001,"ADDRESS":"龜子港１６１巷４０號","OBJECTID":314760},"geometry":{"x":179540.1500000013,"y":2572258.8499999996}},{"attributes":{"ID":314769,"DIS_CODE":0,"TOWNNAME":"六甲區","LI":"龜港里","LIN":"11鄰","STREET":" ","SECT":" ","MAREA":"龜子港","LANE":"１６１巷","ALLEY":" ","HOUSE_NO":"１２８號","E_COORD97":179294.06,"N_COORD97":2572546.5899999999,"ADDRESS":"龜子港１６１巷１２８號","OBJECTID":314761},"geometry":{"x":179294.06000000052,"y":2572546.589999998}},{"attributes":{"ID":314770,"DIS_CODE":0,"TOWNNAME":"六甲區","LI":"龜港里","LIN":"1鄰","STREET":" ","SECT":" ","MAREA":"龜子港","LANE":"１６１巷","ALLEY":" ","HOUSE_NO":"４６號","E_COORD97":179511.64000000001,"N_COORD97":2572279.1899999999,"ADDRESS":"龜子港１６１巷４６號","OBJECTID":314762},"geometry":{"x":179511.63999999966,"y":2572279.1900000013}},{"attributes":{"ID":314771,"DIS_CODE":0,"TOWNNAME":"六甲區","LI":"龜港里","LIN":"1鄰","STREET":" ","SECT":" ","MAREA":"龜子港","LANE":"１６１巷","ALLEY":" ","HOUSE_NO":"４８號","E_COORD97":179493,"N_COORD97":2572280.3700000001,"ADDRESS":"龜子港１６１巷４８號","OBJECTID":314763},"geometry":{"x":179492.99999999907,"y":2572280.370000001}},{"attributes":{"ID":314772,"DIS_CODE":0,"TOWNNAME":"六甲區","LI":"龜港里","LIN":"1鄰","STREET":" ","SECT":" ","MAREA":"龜子港","LANE":"１６１巷","ALLEY":" ","HOUSE_NO":"５０號","E_COORD97":179491.34,"N_COORD97":2572283.5699999998,"ADDRESS":"龜子港１６１巷５０號","OBJECTID":314764},"geometry":{"x":179491.34000000078,"y":2572283.5700000022}},{"attributes":{"ID":314773,"DIS_CODE":0,"TOWNNAME":"六甲區","LI":"龜港里","LIN":"1鄰","STREET":" ","SECT":" ","MAREA":"龜子港","LANE":"１６１巷","ALLEY":" ","HOUSE_NO":"５２之１號","E_COORD97":179482.54999999999,"N_COORD97":2572294.6099999999,"ADDRESS":"龜子港１６１巷５２之１號","OBJECTID":314765},"geometry":{"x":179482.55000000075,"y":2572294.6099999994}},{"attributes":{"ID":314774,"DIS_CODE":0,"TOWNNAME":"六甲區","LI":"龜港里","LIN":"1鄰","STREET":" ","SECT":" ","MAREA":"龜子港","LANE":"１６１巷","ALLEY":" ","HOUSE_NO":"５２號","E_COORD97":179484.73999999999,"N_COORD97":2572290.4300000002,"ADDRESS":"龜子港１６１巷５２號","OBJECTID":314766},"geometry":{"x":179484.74000000022,"y":2572290.4300000016}},{"attributes":{"ID":314775,"DIS_CODE":0,"TOWNNAME":"六甲區","LI":"龜港里","LIN":"1鄰","STREET":" ","SECT":" ","MAREA":"龜子港","LANE":"１６１巷","ALLEY":" ","HOUSE_NO":"５６號","E_COORD97":179472.63,"N_COORD97":2572288.9900000002,"ADDRESS":"龜子港１６１巷５６號","OBJECTID":314767},"geometry":{"x":179472.62999999989,"y":2572288.9900000002}},{"attributes":{"ID":314776,"DIS_CODE":0,"TOWNNAME":"六甲區","LI":"龜港里","LIN":"13鄰","STREET":" ","SECT":" ","MAREA":"龜子港","LANE":" ","ALLEY":" ","HOUSE_NO":"２８２號","E_COORD97":179676.32000000001,"N_COORD97":2573004.23,"ADDRESS":"龜子港２８２號","OBJECTID":314768},"geometry":{"x":179676.32000000123,"y":2573004.2300000042}},{"attributes":{"ID":314777,"DIS_CODE":0,"TOWNNAME":"六甲區","LI":"龜港里","LIN":"13鄰","STREET":" ","SECT":" ","MAREA":"龜子港","LANE":" ","ALLEY":" ","HOUSE_NO":"３１１號","E_COORD97":179571.17000000001,"N_COORD97":2572605.73,"ADDRESS":"龜子港３１１號","OBJECTID":314769},"geometry":{"x":179571.16999999993,"y":2572605.7300000023}},{"attributes":{"ID":314778,"DIS_CODE":0,"TOWNNAME":"歸仁區","LI":"看東里","LIN":"8鄰","STREET":"成功一街","SECT":" ","MAREA":" ","LANE":" ","ALLEY":" ","HOUSE_NO":"１２１號","E_COORD97":178512.585877,"N_COORD97":2539990.2310700002,"ADDRESS":"成功一街１２１號","OBJECTID":314770},"geometry":{"x":178512.58587700129,"y":2539990.2310659997}},{"attributes":{"ID":314779,"DIS_CODE":0,"TOWNNAME":"六甲區","LI":"龜港里","LIN":"13鄰","STREET":" ","SECT":" ","MAREA":"龜子港","LANE":" ","ALLEY":" ","HOUSE_NO":"３１２號","E_COORD97":179681.23000000001,"N_COORD97":2573081.3799999999,"ADDRESS":"龜子港３１２號","OBJECTID":314771},"geometry":{"x":179681.23000000045,"y":2573081.379999999}},{"attributes":{"ID":314780,"DIS_CODE":0,"TOWNNAME":"六甲區","LI":"龜港里","LIN":"13鄰","STREET":" ","SECT":" ","MAREA":"龜子港","LANE":" ","ALLEY":" ","HOUSE_NO":"３１６號","E_COORD97":179681.57999999999,"N_COORD97":2573090.1600000001,"ADDRESS":"龜子港３１６號","OBJECTID":314772},"geometry":{"x":179681.58000000101,"y":2573090.160000002}},{"attributes":{"ID":314781,"DIS_CODE":0,"TOWNNAME":"六甲區","LI":"龜港里","LIN":"13鄰","STREET":" ","SECT":" ","MAREA":"龜子港","LANE":" ","ALLEY":" ","HOUSE_NO":"３１８號","E_COORD97":179681.39000000001,"N_COORD97":2573094.4199999999,"ADDRESS":"龜子港３１８號","OBJECTID":314773},"geometry":{"x":179681.38999999966,"y":2573094.4200000018}},{"attributes":{"ID":314782,"DIS_CODE":0,"TOWNNAME":"歸仁區","LI":"看東里","LIN":"8鄰","STREET":"成功一街","SECT":" ","MAREA":" ","LANE":" ","ALLEY":" ","HOUSE_NO":"９１號","E_COORD97":178563.022512,"N_COORD97":2540028.9660499999,"ADDRESS":"成功一街９１號","OBJECTID":314774},"geometry":{"x":178563.02251200005,"y":2540028.9660450015}},{"attributes":{"ID":314783,"DIS_CODE":0,"TOWNNAME":"六甲區","LI":"龜港里","LIN":"13鄰","STREET":" ","SECT":" ","MAREA":"龜子港","LANE":" ","ALLEY":" ","HOUSE_NO":"３２０號","E_COORD97":179681.78,"N_COORD97":2573098.8100000001,"ADDRESS":"龜子港３２０號","OBJECTID":314775},"geometry":{"x":179681.78000000119,"y":2573098.8100000042}},{"attributes":{"ID":314784,"DIS_CODE":0,"TOWNNAME":"歸仁區","LI":"看東里","LIN":"8鄰","STREET":"成功一街","SECT":" ","MAREA":" ","LANE":" ","ALLEY":" ","HOUSE_NO":"８９號","E_COORD97":178566.83704700001,"N_COORD97":2540031.0827100002,"ADDRESS":"成功一街８９號","OBJECTID":314776},"geometry":{"x":178566.83704700042,"y":2540031.0827110019}},{"attributes":{"ID":314785,"DIS_CODE":0,"TOWNNAME":"關廟區","LI":"南花里","LIN":"4鄰","STREET":"園東街","SECT":" ","MAREA":" ","LANE":"６５巷","ALLEY":" ","HOUSE_NO":"５號","E_COORD97":181998.35999999999,"N_COORD97":2540058.25,"ADDRESS":"園東街６５巷５號","OBJECTID":314777},"geometry":{"x":181998.36000000127,"y":2540058.25}},{"attributes":{"ID":314786,"DIS_CODE":0,"TOWNNAME":"六甲區","LI":"龜港里","LIN":"13鄰","STREET":" ","SECT":" ","MAREA":"龜子港","LANE":" ","ALLEY":" ","HOUSE_NO":"３２２號","E_COORD97":179682.07999999999,"N_COORD97":2573103.1699999999,"ADDRESS":"龜子港３２２號","OBJECTID":314778},"geometry":{"x":179682.08000000007,"y":2573103.1700000018}},{"attributes":{"ID":314787,"DIS_CODE":0,"TOWNNAME":"六甲區","LI":"水林里","LIN":"18鄰","STREET":"中正路","SECT":" ","MAREA":" ","LANE":"６４９巷","ALLEY":" ","HOUSE_NO":"１０號","E_COORD97":183708.66,"N_COORD97":2570323.96,"ADDRESS":"中正路６４９巷１０號","OBJECTID":314779},"geometry":{"x":183708.66000000108,"y":2570323.9600000009}},{"attributes":{"ID":314788,"DIS_CODE":0,"TOWNNAME":"關廟區","LI":"五甲里","LIN":"13鄰","STREET":"光復街","SECT":" ","MAREA":" ","LANE":"６３巷","ALLEY":" ","HOUSE_NO":"１８號","E_COORD97":181461.94,"N_COORD97":2539308.2799999998,"ADDRESS":"光復街６３巷１８號","OBJECTID":314780},"geometry":{"x":181461.93999999948,"y":2539308.2799999993}},{"attributes":{"ID":314789,"DIS_CODE":0,"TOWNNAME":"六甲區","LI":"龜港里","LIN":"13鄰","STREET":" ","SECT":" ","MAREA":"龜子港","LANE":" ","ALLEY":" ","HOUSE_NO":"３２４號","E_COORD97":179682.31,"N_COORD97":2573107.2799999998,"ADDRESS":"龜子港３２４號","OBJECTID":314781},"geometry":{"x":179682.31000000052,"y":2573107.2799999993}},{"attributes":{"ID":314790,"DIS_CODE":0,"TOWNNAME":"六甲區","LI":"龜港里","LIN":"13鄰","STREET":" ","SECT":" ","MAREA":"龜子港","LANE":" ","ALLEY":" ","HOUSE_NO":"３２６號","E_COORD97":179683.01000000001,"N_COORD97":2573111.8500000001,"ADDRESS":"龜子港３２６號","OBJECTID":314782},"geometry":{"x":179683.01000000071,"y":2573111.8500000015}},{"attributes":{"ID":314791,"DIS_CODE":0,"TOWNNAME":"新營區","LI":"土庫里","LIN":"4鄰","STREET":" ","SECT":" ","MAREA":"土庫","LANE":" ","ALLEY":" ","HOUSE_NO":"３６號","E_COORD97":183281.47,"N_COORD97":2579987.2799999998,"ADDRESS":"土庫３６號","OBJECTID":314783},"geometry":{"x":183281.46999999974,"y":2579987.2800000012}},{"attributes":{"ID":314792,"DIS_CODE":0,"TOWNNAME":"六甲區","LI":"龜港里","LIN":"13鄰","STREET":" ","SECT":" ","MAREA":"龜子港","LANE":" ","ALLEY":" ","HOUSE_NO":"３２８號","E_COORD97":179683.26000000001,"N_COORD97":2573115.8799999999,"ADDRESS":"龜子港３２８號","OBJECTID":314784},"geometry":{"x":179683.26000000071,"y":2573115.879999999}},{"attributes":{"ID":314793,"DIS_CODE":0,"TOWNNAME":"六甲區","LI":"龜港里","LIN":"13鄰","STREET":" ","SECT":" ","MAREA":"龜子港","LANE":" ","ALLEY":" ","HOUSE_NO":"３３０號","E_COORD97":179683.54999999999,"N_COORD97":2573120.1299999999,"ADDRESS":"龜子港３３０號","OBJECTID":314785},"geometry":{"x":179683.54999999981,"y":2573120.1300000008}},{"attributes":{"ID":314794,"DIS_CODE":0,"TOWNNAME":"新化區","LI":"清水里","LIN":"7鄰","STREET":"忠孝路","SECT":" ","MAREA":" ","LANE":"１６１巷","ALLEY":" ","HOUSE_NO":"３７號之６","E_COORD97":178618.62,"N_COORD97":2548514.2599999998,"ADDRESS":"忠孝路１６１巷３７號之６","OBJECTID":314786},"geometry":{"x":178618.62000000011,"y":2548514.2599999979}},{"attributes":{"ID":314795,"DIS_CODE":0,"TOWNNAME":"新化區","LI":"清水里","LIN":"7鄰","STREET":"忠孝路","SECT":" ","MAREA":" ","LANE":"１６１巷","ALLEY":" ","HOUSE_NO":"２９號","E_COORD97":178620.07000000001,"N_COORD97":2548537.25,"ADDRESS":"忠孝路１６１巷２９號","OBJECTID":314787},"geometry":{"x":178620.07000000123,"y":2548537.25}},{"attributes":{"ID":314796,"DIS_CODE":0,"TOWNNAME":"學甲區","LI":"仁得里","LIN":"17鄰","STREET":"信義路","SECT":" ","MAREA":" ","LANE":" ","ALLEY":" ","HOUSE_NO":"１０號之１３","E_COORD97":165640.48000000001,"N_COORD97":2569818.2799999998,"ADDRESS":"信義路１０號之１３","OBJECTID":314788},"geometry":{"x":165640.47999999952,"y":2569818.2799999993}},{"attributes":{"ID":314797,"DIS_CODE":0,"TOWNNAME":"學甲區","LI":"仁得里","LIN":"17鄰","STREET":"信義路","SECT":" ","MAREA":" ","LANE":" ","ALLEY":" ","HOUSE_NO":"１０號之１４","E_COORD97":165643.14000000001,"N_COORD97":2569824.73,"ADDRESS":"信義路１０號之１４","OBJECTID":314789},"geometry":{"x":165643.13999999966,"y":2569824.7300000023}},{"attributes":{"ID":314798,"DIS_CODE":0,"TOWNNAME":"學甲區","LI":"仁得里","LIN":"17鄰","STREET":"信義路","SECT":" ","MAREA":" ","LANE":" ","ALLEY":" ","HOUSE_NO":"１０號之１５","E_COORD97":165659.07999999999,"N_COORD97":2569839.7000000002,"ADDRESS":"信義路１０號之１５","OBJECTID":314790},"geometry":{"x":165659.08000000007,"y":2569839.6999999974}},{"attributes":{"ID":314799,"DIS_CODE":0,"TOWNNAME":"學甲區","LI":"仁得里","LIN":"17鄰","STREET":"信義路","SECT":" ","MAREA":" ","LANE":" ","ALLEY":" ","HOUSE_NO":"１０號之１６","E_COORD97":165654.10000000001,"N_COORD97":2569847.3900000001,"ADDRESS":"信義路１０號之１６","OBJECTID":314791},"geometry":{"x":165654.0999999987,"y":2569847.3900000025}},{"attributes":{"ID":314800,"DIS_CODE":0,"TOWNNAME":"學甲區","LI":"仁得里","LIN":"17鄰","STREET":"信義路","SECT":" ","MAREA":" ","LANE":" ","ALLEY":" ","HOUSE_NO":"１０號之１７","E_COORD97":165656.07000000001,"N_COORD97":2569851,"ADDRESS":"信義路１０號之１７","OBJECTID":314792},"geometry":{"x":165656.0700000003,"y":2569851}},{"attributes":{"ID":314801,"DIS_CODE":0,"TOWNNAME":"六甲區","LI":"龜港里","LIN":"1鄰","STREET":" ","SECT":" ","MAREA":"龜子港","LANE":"２８１巷","ALLEY":" ","HOUSE_NO":"４５號","E_COORD97":179476.07999999999,"N_COORD97":2572308.8100000001,"ADDRESS":"龜子港２８１巷４５號","OBJECTID":314793},"geometry":{"x":179476.08000000101,"y":2572308.8100000042}},{"attributes":{"ID":314802,"DIS_CODE":0,"TOWNNAME":"歸仁區","LI":"看東里","LIN":"8鄰","STREET":"成功一街","SECT":" ","MAREA":" ","LANE":" ","ALLEY":" ","HOUSE_NO":"８７號","E_COORD97":178569.168152,"N_COORD97":2540035.3160399999,"ADDRESS":"成功一街８７號","OBJECTID":314794},"geometry":{"x":178569.16815200169,"y":2540035.3160420004}},{"attributes":{"ID":314803,"DIS_CODE":0,"TOWNNAME":"關廟區","LI":"香洋里","LIN":"26鄰","STREET":"民權街","SECT":" ","MAREA":" ","LANE":"２２８巷","ALLEY":" ","HOUSE_NO":"４３號","E_COORD97":181120.73999999999,"N_COORD97":2539882.29,"ADDRESS":"民權街２２８巷４３號","OBJECTID":314795},"geometry":{"x":181120.74000000209,"y":2539882.290000001}},{"attributes":{"ID":314804,"DIS_CODE":0,"TOWNNAME":"關廟區","LI":"香洋里","LIN":"4鄰","STREET":"成功路","SECT":" ","MAREA":" ","LANE":"３７５巷","ALLEY":" ","HOUSE_NO":"１６號","E_COORD97":181211.01999999999,"N_COORD97":2540454.27,"ADDRESS":"成功路３７５巷１６號","OBJECTID":314796},"geometry":{"x":181211.01999999955,"y":2540454.2699999996}},{"attributes":{"ID":314805,"DIS_CODE":0,"TOWNNAME":"關廟區","LI":"南花里","LIN":"4鄰","STREET":"園東街","SECT":" ","MAREA":" ","LANE":"１巷","ALLEY":" ","HOUSE_NO":"３號","E_COORD97":182117.31,"N_COORD97":2540047.25,"ADDRESS":"園東街１巷３號","OBJECTID":314797},"geometry":{"x":182117.30999999959,"y":2540047.2500000019}},{"attributes":{"ID":314806,"DIS_CODE":0,"TOWNNAME":"新化區","LI":"護國里","LIN":"7鄰","STREET":"復興路","SECT":" ","MAREA":" ","LANE":"２９０巷","ALLEY":" ","HOUSE_NO":"２號","E_COORD97":179343.32000000001,"N_COORD97":2548452.25,"ADDRESS":"復興路２９０巷２號","OBJECTID":314798},"geometry":{"x":179343.3200000003,"y":2548452.25}},{"attributes":{"ID":314807,"DIS_CODE":0,"TOWNNAME":"新化區","LI":"東榮里","LIN":"7鄰","STREET":"信義路","SECT":" ","MAREA":" ","LANE":"１１７巷","ALLEY":" ","HOUSE_NO":"１８號","E_COORD97":179696.07999999999,"N_COORD97":2548401.25,"ADDRESS":"信義路１１７巷１８號","OBJECTID":314799},"geometry":{"x":179696.08000000194,"y":2548401.25}},{"attributes":{"ID":314808,"DIS_CODE":0,"TOWNNAME":"新化區","LI":"護國里","LIN":"7鄰","STREET":"復興路","SECT":" ","MAREA":" ","LANE":"２９０巷","ALLEY":" ","HOUSE_NO":"１號之５","E_COORD97":179377.48000000001,"N_COORD97":2548456.2599999998,"ADDRESS":"復興路２９０巷１號之５","OBJECTID":314800},"geometry":{"x":179377.48000000138,"y":2548456.2599999998}}]}