{"displayFieldName":"TOWNNAME","fieldAliases":{"ID":"ID","DIS_CODE":"DIS_CODE","TOWNNAME":"TOWNNAME","LI":"LI","LIN":"LIN","STREET":"STREET","SECT":"SECT","MAREA":"MAREA","LANE":"LANE","ALLEY":"ALLEY","HOUSE_NO":"HOUSE_NO","E_COORD97":"E_COORD97","N_COORD97":"N_COORD97","ADDRESS":"ADDRESS","OBJECTID":"OBJECTID"},"geometryType":"esriGeometryPoint","spatialReference":{"wkid":102443,"latestWkid":3826},"fields":[{"name":"ID","type":"esriFieldTypeDouble","alias":"ID"},{"name":"DIS_CODE","type":"esriFieldTypeInteger","alias":"DIS_CODE"},{"name":"TOWNNAME","type":"esriFieldTypeString","alias":"TOWNNAME","length":8},{"name":"LI","type":"esriFieldTypeString","alias":"LI","length":8},{"name":"LIN","type":"esriFieldTypeString","alias":"LIN","length":12},{"name":"STREET","type":"esriFieldTypeString","alias":"STREET","length":20},{"name":"SECT","type":"esriFieldTypeString","alias":"SECT","length":8},{"name":"MAREA","type":"esriFieldTypeString","alias":"MAREA","length":12},{"name":"LANE","type":"esriFieldTypeString","alias":"LANE","length":10},{"name":"ALLEY","type":"esriFieldTypeString","alias":"ALLEY","length":10},{"name":"HOUSE_NO","type":"esriFieldTypeString","alias":"HOUSE_NO","length":20},{"name":"E_COORD97","type":"esriFieldTypeDouble","alias":"E_COORD97"},{"name":"N_COORD97","type":"esriFieldTypeDouble","alias":"N_COORD97"},{"name":"ADDRESS","type":"esriFieldTypeString","alias":"ADDRESS","length":50},{"name":"OBJECTID","type":"esriFieldTypeOID","alias":"OBJECTID"}],"features":[{"attributes":{"ID":119801,"DIS_CODE":0,"TOWNNAME":"北區","LI":"大和里","LIN":"16鄰","STREET":"文賢路","SECT":" ","MAREA":" ","LANE":"７９９巷","ALLEY":"５８弄","HOUSE_NO":"７號","E_COORD97":167144.03,"N_COORD97":2546298.6299999999,"ADDRESS":"文賢路７９９巷５８弄７號","OBJECTID":119801},"geometry":{"x":167144.03000000119,"y":2546298.6300000008}},{"attributes":{"ID":119802,"DIS_CODE":0,"TOWNNAME":"北區","LI":"大和里","LIN":"16鄰","STREET":"文賢路","SECT":" ","MAREA":" ","LANE":"７９９巷","ALLEY":"５８弄","HOUSE_NO":"８號","E_COORD97":167163.94,"N_COORD97":2546303.04,"ADDRESS":"文賢路７９９巷５８弄８號","OBJECTID":119802},"geometry":{"x":167163.94000000134,"y":2546303.040000001}},{"attributes":{"ID":119803,"DIS_CODE":0,"TOWNNAME":"北區","LI":"大和里","LIN":"16鄰","STREET":"文賢路","SECT":" ","MAREA":" ","LANE":"７９９巷","ALLEY":"５８弄","HOUSE_NO":"９號","E_COORD97":167143.81,"N_COORD97":2546303.1899999999,"ADDRESS":"文賢路７９９巷５８弄９號","OBJECTID":119803},"geometry":{"x":167143.80999999959,"y":2546303.1899999995}},{"attributes":{"ID":119804,"DIS_CODE":0,"TOWNNAME":"北區","LI":"成功里","LIN":"16鄰","STREET":"北成路","SECT":" ","MAREA":" ","LANE":"８０巷","ALLEY":"１弄","HOUSE_NO":"１０號","E_COORD97":168985.70000000001,"N_COORD97":2546694.5699999998,"ADDRESS":"北成路８０巷１弄１０號","OBJECTID":119804},"geometry":{"x":168985.70000000112,"y":2546694.5700000003}},{"attributes":{"ID":119805,"DIS_CODE":0,"TOWNNAME":"北區","LI":"成功里","LIN":"16鄰","STREET":"北成路","SECT":" ","MAREA":" ","LANE":"８０巷","ALLEY":"１弄","HOUSE_NO":"１１號","E_COORD97":168972.39999999999,"N_COORD97":2546681.29,"ADDRESS":"北成路８０巷１弄１１號","OBJECTID":119805},"geometry":{"x":168972.4000000013,"y":2546681.2899999991}},{"attributes":{"ID":119806,"DIS_CODE":0,"TOWNNAME":"北區","LI":"成功里","LIN":"16鄰","STREET":"北成路","SECT":" ","MAREA":" ","LANE":"８０巷","ALLEY":"１弄","HOUSE_NO":"１２號","E_COORD97":168981.06,"N_COORD97":2546697.3500000001,"ADDRESS":"北成路８０巷１弄１２號","OBJECTID":119806},"geometry":{"x":168981.06000000052,"y":2546697.3500000015}},{"attributes":{"ID":119807,"DIS_CODE":0,"TOWNNAME":"北區","LI":"成功里","LIN":"16鄰","STREET":"北成路","SECT":" ","MAREA":" ","LANE":"８０巷","ALLEY":"１弄","HOUSE_NO":"１３號","E_COORD97":168967.45000000001,"N_COORD97":2546682.8300000001,"ADDRESS":"北成路８０巷１弄１３號","OBJECTID":119807},"geometry":{"x":168967.45000000019,"y":2546682.8300000001}},{"attributes":{"ID":119808,"DIS_CODE":0,"TOWNNAME":"北區","LI":"成功里","LIN":"16鄰","STREET":"北成路","SECT":" ","MAREA":" ","LANE":"８０巷","ALLEY":"１弄","HOUSE_NO":"１４號","E_COORD97":168976.42000000001,"N_COORD97":2546700.1299999999,"ADDRESS":"北成路８０巷１弄１４號","OBJECTID":119808},"geometry":{"x":168976.41999999993,"y":2546700.129999999}},{"attributes":{"ID":119809,"DIS_CODE":0,"TOWNNAME":"北區","LI":"成功里","LIN":"16鄰","STREET":"北成路","SECT":" ","MAREA":" ","LANE":"８０巷","ALLEY":"１弄","HOUSE_NO":"１５號","E_COORD97":168962.5,"N_COORD97":2546685.6099999999,"ADDRESS":"北成路８０巷１弄１５號","OBJECTID":119809},"geometry":{"x":168962.49999999907,"y":2546685.6100000013}},{"attributes":{"ID":119810,"DIS_CODE":0,"TOWNNAME":"北區","LI":"成功里","LIN":"16鄰","STREET":"北成路","SECT":" ","MAREA":" ","LANE":"８０巷","ALLEY":"１弄","HOUSE_NO":"１６號","E_COORD97":168970.54000000001,"N_COORD97":2546702.9100000001,"ADDRESS":"北成路８０巷１弄１６號","OBJECTID":119810},"geometry":{"x":168970.54000000004,"y":2546702.9100000001}},{"attributes":{"ID":119811,"DIS_CODE":0,"TOWNNAME":"北區","LI":"成功里","LIN":"16鄰","STREET":"北成路","SECT":" ","MAREA":" ","LANE":"８０巷","ALLEY":"１弄","HOUSE_NO":"１７號","E_COORD97":168957.25,"N_COORD97":2546689.3199999998,"ADDRESS":"北成路８０巷１弄１７號","OBJECTID":119811},"geometry":{"x":168957.25,"y":2546689.3200000003}},{"attributes":{"ID":119812,"DIS_CODE":0,"TOWNNAME":"北區","LI":"成功里","LIN":"16鄰","STREET":"北成路","SECT":" ","MAREA":" ","LANE":"８０巷","ALLEY":"１弄","HOUSE_NO":"１８號","E_COORD97":168966.82999999999,"N_COORD97":2546705.0699999998,"ADDRESS":"北成路８０巷１弄１８號","OBJECTID":119812},"geometry":{"x":168966.83000000007,"y":2546705.0700000003}},{"attributes":{"ID":119813,"DIS_CODE":0,"TOWNNAME":"北區","LI":"成功里","LIN":"16鄰","STREET":"北成路","SECT":" ","MAREA":" ","LANE":"８０巷","ALLEY":"１弄","HOUSE_NO":"１９號","E_COORD97":168952.29999999999,"N_COORD97":2546691.79,"ADDRESS":"北成路８０巷１弄１９號","OBJECTID":119813},"geometry":{"x":168952.30000000075,"y":2546691.7899999991}},{"attributes":{"ID":119814,"DIS_CODE":0,"TOWNNAME":"北區","LI":"成功里","LIN":"16鄰","STREET":"北成路","SECT":" ","MAREA":" ","LANE":"８０巷","ALLEY":"１弄","HOUSE_NO":"１號","E_COORD97":168999.92999999999,"N_COORD97":2546665.8399999999,"ADDRESS":"北成路８０巷１弄１號","OBJECTID":119814},"geometry":{"x":168999.92999999877,"y":2546665.8399999999}},{"attributes":{"ID":119815,"DIS_CODE":0,"TOWNNAME":"北區","LI":"成功里","LIN":"16鄰","STREET":"北成路","SECT":" ","MAREA":" ","LANE":"８０巷","ALLEY":"１弄","HOUSE_NO":"２０號","E_COORD97":168962.5,"N_COORD97":2546708.4700000002,"ADDRESS":"北成路８０巷１弄２０號","OBJECTID":119815},"geometry":{"x":168962.49999999907,"y":2546708.4700000025}},{"attributes":{"ID":119816,"DIS_CODE":0,"TOWNNAME":"北區","LI":"成功里","LIN":"16鄰","STREET":"北成路","SECT":" ","MAREA":" ","LANE":"８０巷","ALLEY":"１弄","HOUSE_NO":"２１號","E_COORD97":168947.97,"N_COORD97":2546693.6400000001,"ADDRESS":"北成路８０巷１弄２１號","OBJECTID":119816},"geometry":{"x":168947.97000000067,"y":2546693.6400000025}},{"attributes":{"ID":119817,"DIS_CODE":0,"TOWNNAME":"北區","LI":"成功里","LIN":"16鄰","STREET":"北成路","SECT":" ","MAREA":" ","LANE":"８０巷","ALLEY":"１弄","HOUSE_NO":"２２號","E_COORD97":168956.94,"N_COORD97":2546711.5600000001,"ADDRESS":"北成路８０巷１弄２２號","OBJECTID":119817},"geometry":{"x":168956.94000000134,"y":2546711.5600000005}},{"attributes":{"ID":119818,"DIS_CODE":0,"TOWNNAME":"北區","LI":"成功里","LIN":"16鄰","STREET":"北成路","SECT":" ","MAREA":" ","LANE":"８０巷","ALLEY":"１弄","HOUSE_NO":"２３號","E_COORD97":168943.01999999999,"N_COORD97":2546696.1099999999,"ADDRESS":"北成路８０巷１弄２３號","OBJECTID":119818},"geometry":{"x":168943.01999999955,"y":2546696.1100000013}},{"attributes":{"ID":119819,"DIS_CODE":0,"TOWNNAME":"北區","LI":"成功里","LIN":"16鄰","STREET":"北成路","SECT":" ","MAREA":" ","LANE":"８０巷","ALLEY":"１弄","HOUSE_NO":"２４號","E_COORD97":168951.98999999999,"N_COORD97":2546713.4100000001,"ADDRESS":"北成路８０巷１弄２４號","OBJECTID":119819},"geometry":{"x":168951.99000000022,"y":2546713.4099999983}},{"attributes":{"ID":119820,"DIS_CODE":0,"TOWNNAME":"關廟區","LI":"田中里","LIN":"9鄰","STREET":"南雄南路","SECT":" ","MAREA":" ","LANE":"６５９巷","ALLEY":" ","HOUSE_NO":"６號","E_COORD97":183483.73999999999,"N_COORD97":2533529.2999999998,"ADDRESS":"南雄南路６５９巷６號","OBJECTID":119820},"geometry":{"x":183483.73999999929,"y":2533529.3000000007}},{"attributes":{"ID":119821,"DIS_CODE":0,"TOWNNAME":"北區","LI":"成功里","LIN":"16鄰","STREET":"北成路","SECT":" ","MAREA":" ","LANE":"８０巷","ALLEY":"１弄","HOUSE_NO":"２之１號","E_COORD97":169003.95000000001,"N_COORD97":2546685.6099999999,"ADDRESS":"北成路８０巷１弄２之１號","OBJECTID":119821},"geometry":{"x":169003.95000000112,"y":2546685.6100000013}},{"attributes":{"ID":119822,"DIS_CODE":0,"TOWNNAME":"北區","LI":"成功里","LIN":"16鄰","STREET":"北成路","SECT":" ","MAREA":" ","LANE":"８０巷","ALLEY":"１弄","HOUSE_NO":"２號","E_COORD97":169010.44,"N_COORD97":2546682.21,"ADDRESS":"北成路８０巷１弄２號","OBJECTID":119822},"geometry":{"x":169010.44000000041,"y":2546682.2100000028}},{"attributes":{"ID":119823,"DIS_CODE":0,"TOWNNAME":"北區","LI":"成功里","LIN":"16鄰","STREET":"北成路","SECT":" ","MAREA":" ","LANE":"８０巷","ALLEY":"１弄","HOUSE_NO":"３號","E_COORD97":168993.42999999999,"N_COORD97":2546669.2400000002,"ADDRESS":"北成路８０巷１弄３號","OBJECTID":119823},"geometry":{"x":168993.43000000063,"y":2546669.2400000002}},{"attributes":{"ID":119824,"DIS_CODE":0,"TOWNNAME":"北區","LI":"成功里","LIN":"16鄰","STREET":"北成路","SECT":" ","MAREA":" ","LANE":"８０巷","ALLEY":"１弄","HOUSE_NO":"５號","E_COORD97":168988.17000000001,"N_COORD97":2546672.6400000001,"ADDRESS":"北成路８０巷１弄５號","OBJECTID":119824},"geometry":{"x":168988.16999999993,"y":2546672.6400000025}},{"attributes":{"ID":119825,"DIS_CODE":0,"TOWNNAME":"北區","LI":"成功里","LIN":"16鄰","STREET":"北成路","SECT":" ","MAREA":" ","LANE":"８０巷","ALLEY":"１弄","HOUSE_NO":"６號","E_COORD97":168997.45000000001,"N_COORD97":2546688.7000000002,"ADDRESS":"北成路８０巷１弄６號","OBJECTID":119825},"geometry":{"x":168997.45000000112,"y":2546688.6999999993}},{"attributes":{"ID":119826,"DIS_CODE":0,"TOWNNAME":"北區","LI":"成功里","LIN":"16鄰","STREET":"北成路","SECT":" ","MAREA":" ","LANE":"８０巷","ALLEY":"１弄","HOUSE_NO":"７號","E_COORD97":168982.60999999999,"N_COORD97":2546675.1099999999,"ADDRESS":"北成路８０巷１弄７號","OBJECTID":119826},"geometry":{"x":168982.6100000022,"y":2546675.1100000013}},{"attributes":{"ID":119827,"DIS_CODE":0,"TOWNNAME":"北區","LI":"成功里","LIN":"16鄰","STREET":"北成路","SECT":" ","MAREA":" ","LANE":"８０巷","ALLEY":"１弄","HOUSE_NO":"８號","E_COORD97":168992.19,"N_COORD97":2546691.48,"ADDRESS":"北成路８０巷１弄８號","OBJECTID":119827},"geometry":{"x":168992.19000000227,"y":2546691.4800000004}},{"attributes":{"ID":119828,"DIS_CODE":0,"TOWNNAME":"北區","LI":"成功里","LIN":"16鄰","STREET":"北成路","SECT":" ","MAREA":" ","LANE":"８０巷","ALLEY":"１弄","HOUSE_NO":"９號","E_COORD97":168977.35000000001,"N_COORD97":2546677.8900000001,"ADDRESS":"北成路８０巷１弄９號","OBJECTID":119828},"geometry":{"x":168977.35000000056,"y":2546677.8900000025}},{"attributes":{"ID":119829,"DIS_CODE":0,"TOWNNAME":"北區","LI":"成功里","LIN":"16鄰","STREET":"北成路","SECT":" ","MAREA":" ","LANE":"８０巷","ALLEY":"２３弄","HOUSE_NO":"２１號","E_COORD97":168967.14000000001,"N_COORD97":2546725.1499999999,"ADDRESS":"北成路８０巷２３弄２１號","OBJECTID":119829},"geometry":{"x":168967.1400000006,"y":2546725.1500000004}},{"attributes":{"ID":119830,"DIS_CODE":0,"TOWNNAME":"永康區","LI":"龍潭里","LIN":"35鄰","STREET":"龍橋街","SECT":" ","MAREA":" ","LANE":" ","ALLEY":" ","HOUSE_NO":"１２３號","E_COORD97":174662.32999999999,"N_COORD97":2548571.2400000002,"ADDRESS":"龍橋街１２３號","OBJECTID":119830},"geometry":{"x":174662.33000000007,"y":2548571.2400000002}},{"attributes":{"ID":119831,"DIS_CODE":0,"TOWNNAME":"北區","LI":"成功里","LIN":"16鄰","STREET":"北成路","SECT":" ","MAREA":" ","LANE":"８０巷","ALLEY":"２３弄","HOUSE_NO":"２３號","E_COORD97":168961.89000000001,"N_COORD97":2546727.9300000002,"ADDRESS":"北成路８０巷２３弄２３號","OBJECTID":119831},"geometry":{"x":168961.8900000006,"y":2546727.9300000016}},{"attributes":{"ID":119832,"DIS_CODE":0,"TOWNNAME":"永康區","LI":"龍潭里","LIN":"35鄰","STREET":"龍橋街","SECT":" ","MAREA":" ","LANE":" ","ALLEY":" ","HOUSE_NO":"１２９號","E_COORD97":174657.92999999999,"N_COORD97":2548584.25,"ADDRESS":"龍橋街１２９號","OBJECTID":119832},"geometry":{"x":174657.9299999997,"y":2548584.2500000019}},{"attributes":{"ID":119833,"DIS_CODE":0,"TOWNNAME":"永康區","LI":"龍潭里","LIN":"35鄰","STREET":"自強路","SECT":" ","MAREA":" ","LANE":" ","ALLEY":" ","HOUSE_NO":"８０６號","E_COORD97":174583.17999999999,"N_COORD97":2548613.6200000001,"ADDRESS":"自強路８０６號","OBJECTID":119833},"geometry":{"x":174583.1799999997,"y":2548613.620000001}},{"attributes":{"ID":119834,"DIS_CODE":0,"TOWNNAME":"永康區","LI":"龍潭里","LIN":"35鄰","STREET":"自強路","SECT":" ","MAREA":" ","LANE":" ","ALLEY":" ","HOUSE_NO":"７５６號","E_COORD97":174465.94,"N_COORD97":2548522,"ADDRESS":"自強路７５６號","OBJECTID":119834},"geometry":{"x":174465.94000000227,"y":2548522}},{"attributes":{"ID":119835,"DIS_CODE":0,"TOWNNAME":"北區","LI":"成功里","LIN":"16鄰","STREET":"北成路","SECT":" ","MAREA":" ","LANE":"８０巷","ALLEY":"２３弄","HOUSE_NO":"３號","E_COORD97":169014.45999999999,"N_COORD97":2546699.2000000002,"ADDRESS":"北成路８０巷２３弄３號","OBJECTID":119835},"geometry":{"x":169014.46000000089,"y":2546699.1999999993}},{"attributes":{"ID":119836,"DIS_CODE":0,"TOWNNAME":"北區","LI":"成功里","LIN":"16鄰","STREET":"北成路","SECT":" ","MAREA":" ","LANE":"８０巷","ALLEY":"２３弄","HOUSE_NO":"５號","E_COORD97":169010.44,"N_COORD97":2546701.6699999999,"ADDRESS":"北成路８０巷２３弄５號","OBJECTID":119836},"geometry":{"x":169010.44000000041,"y":2546701.6700000037}},{"attributes":{"ID":119837,"DIS_CODE":0,"TOWNNAME":"北區","LI":"成功里","LIN":"16鄰","STREET":"北成路","SECT":" ","MAREA":" ","LANE":"８０巷","ALLEY":"２３弄","HOUSE_NO":"７號","E_COORD97":169004.87,"N_COORD97":2546704.4500000002,"ADDRESS":"北成路８０巷２３弄７號","OBJECTID":119837},"geometry":{"x":169004.87000000104,"y":2546704.4499999993}},{"attributes":{"ID":119838,"DIS_CODE":0,"TOWNNAME":"北區","LI":"成功里","LIN":"16鄰","STREET":"北成路","SECT":" ","MAREA":" ","LANE":"８０巷","ALLEY":"２３弄","HOUSE_NO":"９號","E_COORD97":169000.85000000001,"N_COORD97":2546707.23,"ADDRESS":"北成路８０巷２３弄９號","OBJECTID":119838},"geometry":{"x":169000.85000000056,"y":2546707.2300000004}},{"attributes":{"ID":119839,"DIS_CODE":0,"TOWNNAME":"北區","LI":"公園里","LIN":"16鄰","STREET":"成功路","SECT":" ","MAREA":" ","LANE":"２２巷","ALLEY":"１８弄","HOUSE_NO":"８號","E_COORD97":168929.10999999999,"N_COORD97":2544319.0699999998,"ADDRESS":"成功路２２巷１８弄８號","OBJECTID":119839},"geometry":{"x":168929.11000000127,"y":2544319.070000004}},{"attributes":{"ID":119840,"DIS_CODE":0,"TOWNNAME":"永康區","LI":"龍潭里","LIN":"35鄰","STREET":"自強路","SECT":" ","MAREA":" ","LANE":" ","ALLEY":" ","HOUSE_NO":"７９４號","E_COORD97":174553.07000000001,"N_COORD97":2548590.04,"ADDRESS":"自強路７９４號","OBJECTID":119840},"geometry":{"x":174553.06999999937,"y":2548590.0400000028}},{"attributes":{"ID":119841,"DIS_CODE":0,"TOWNNAME":"北區","LI":"公園里","LIN":"16鄰","STREET":"成功路","SECT":" ","MAREA":" ","LANE":"２２巷","ALLEY":"１８弄","HOUSE_NO":"１１號","E_COORD97":168957.09,"N_COORD97":2544355.2200000002,"ADDRESS":"成功路２２巷１８弄１１號","OBJECTID":119841},"geometry":{"x":168957.09000000078,"y":2544355.2200000007}},{"attributes":{"ID":119842,"DIS_CODE":0,"TOWNNAME":"北區","LI":"公園里","LIN":"16鄰","STREET":"成功路","SECT":" ","MAREA":" ","LANE":"２２巷","ALLEY":"１８弄","HOUSE_NO":"１３號","E_COORD97":168961.51000000001,"N_COORD97":2544355.2200000002,"ADDRESS":"成功路２２巷１８弄１３號","OBJECTID":119842},"geometry":{"x":168961.50999999978,"y":2544355.2200000007}},{"attributes":{"ID":119843,"DIS_CODE":0,"TOWNNAME":"北區","LI":"公園里","LIN":"16鄰","STREET":"成功路","SECT":" ","MAREA":" ","LANE":"２２巷","ALLEY":"１８弄","HOUSE_NO":"３號","E_COORD97":168941.41,"N_COORD97":2544355.6499999999,"ADDRESS":"成功路２２巷１８弄３號","OBJECTID":119843},"geometry":{"x":168941.41000000201,"y":2544355.6499999985}},{"attributes":{"ID":119844,"DIS_CODE":0,"TOWNNAME":"北區","LI":"公園里","LIN":"16鄰","STREET":"成功路","SECT":" ","MAREA":" ","LANE":"２２巷","ALLEY":"１８弄","HOUSE_NO":"５號","E_COORD97":168944.69,"N_COORD97":2544355.2200000002,"ADDRESS":"成功路２２巷１８弄５號","OBJECTID":119844},"geometry":{"x":168944.68999999948,"y":2544355.2200000007}},{"attributes":{"ID":119845,"DIS_CODE":0,"TOWNNAME":"永康區","LI":"龍潭里","LIN":"35鄰","STREET":"自強路","SECT":" ","MAREA":" ","LANE":" ","ALLEY":" ","HOUSE_NO":"８１４號","E_COORD97":174596.53,"N_COORD97":2548624.3700000001,"ADDRESS":"自強路８１４號","OBJECTID":119845},"geometry":{"x":174596.53000000119,"y":2548624.3700000029}},{"attributes":{"ID":119846,"DIS_CODE":0,"TOWNNAME":"永康區","LI":"龍潭里","LIN":"35鄰","STREET":"龍橋街","SECT":" ","MAREA":" ","LANE":" ","ALLEY":" ","HOUSE_NO":"１２７號","E_COORD97":174659.45999999999,"N_COORD97":2548580,"ADDRESS":"龍橋街１２７號","OBJECTID":119846},"geometry":{"x":174659.46000000089,"y":2548580}},{"attributes":{"ID":119847,"DIS_CODE":0,"TOWNNAME":"北區","LI":"公園里","LIN":"16鄰","STREET":"成功路","SECT":" ","MAREA":" ","LANE":"２２巷","ALLEY":"１８弄","HOUSE_NO":"７號","E_COORD97":168948.67999999999,"N_COORD97":2544355.2200000002,"ADDRESS":"成功路２２巷１８弄７號","OBJECTID":119847},"geometry":{"x":168948.6799999997,"y":2544355.2200000007}},{"attributes":{"ID":119848,"DIS_CODE":0,"TOWNNAME":"東區","LI":"大智里","LIN":"26鄰","STREET":"德東街","SECT":" ","MAREA":" ","LANE":" ","ALLEY":" ","HOUSE_NO":"２３３號","E_COORD97":171387.14000000001,"N_COORD97":2540268.3300000001,"ADDRESS":"德東街２３３號","OBJECTID":119848},"geometry":{"x":171387.14000000153,"y":2540268.3300000001}},{"attributes":{"ID":119849,"DIS_CODE":0,"TOWNNAME":"善化區","LI":"田寮里","LIN":"4鄰","STREET":" ","SECT":" ","MAREA":"六分寮","LANE":" ","ALLEY":" ","HOUSE_NO":"５３號之１３","E_COORD97":178385.25,"N_COORD97":2560992.1000000001,"ADDRESS":"六分寮５３號之１３","OBJECTID":119849},"geometry":{"x":178385.25000000093,"y":2560992.1000000034}},{"attributes":{"ID":119850,"DIS_CODE":0,"TOWNNAME":"善化區","LI":"田寮里","LIN":"4鄰","STREET":" ","SECT":" ","MAREA":"六分寮","LANE":" ","ALLEY":" ","HOUSE_NO":"５３號之１４","E_COORD97":178385.25,"N_COORD97":2560992.1000000001,"ADDRESS":"六分寮５３號之１４","OBJECTID":119850},"geometry":{"x":178385.25000000093,"y":2560992.1000000034}},{"attributes":{"ID":119851,"DIS_CODE":0,"TOWNNAME":"善化區","LI":"什乃里","LIN":"1鄰","STREET":" ","SECT":" ","MAREA":"什乃","LANE":" ","ALLEY":" ","HOUSE_NO":"１５號之９","E_COORD97":176195.67999999999,"N_COORD97":2560561.98,"ADDRESS":"什乃１５號之９","OBJECTID":119851},"geometry":{"x":176195.6799999997,"y":2560561.9800000004}},{"attributes":{"ID":119852,"DIS_CODE":0,"TOWNNAME":"善化區","LI":"溪美里","LIN":"4鄰","STREET":" ","SECT":" ","MAREA":"溪尾","LANE":" ","ALLEY":" ","HOUSE_NO":"３３號之２","E_COORD97":176713.57000000001,"N_COORD97":2561080.5699999998,"ADDRESS":"溪尾３３號之２","OBJECTID":119852},"geometry":{"x":176713.57000000123,"y":2561080.5700000003}},{"attributes":{"ID":119853,"DIS_CODE":0,"TOWNNAME":"善化區","LI":"溪美里","LIN":"4鄰","STREET":" ","SECT":" ","MAREA":"溪尾","LANE":" ","ALLEY":" ","HOUSE_NO":"３６號之３","E_COORD97":176693.48000000001,"N_COORD97":2561053.8500000001,"ADDRESS":"溪尾３６號之３","OBJECTID":119853},"geometry":{"x":176693.48000000138,"y":2561053.8499999996}},{"attributes":{"ID":119854,"DIS_CODE":0,"TOWNNAME":"善化區","LI":"嘉南里","LIN":"4鄰","STREET":" ","SECT":" ","MAREA":"茄拔","LANE":" ","ALLEY":" ","HOUSE_NO":"８６號之１","E_COORD97":181009.82999999999,"N_COORD97":2559469.3399999999,"ADDRESS":"茄拔８６號之１","OBJECTID":119854},"geometry":{"x":181009.83000000194,"y":2559469.3400000017}},{"attributes":{"ID":119855,"DIS_CODE":0,"TOWNNAME":"永康區","LI":"龍潭里","LIN":"35鄰","STREET":"自強路","SECT":" ","MAREA":" ","LANE":" ","ALLEY":" ","HOUSE_NO":"７９８號之１","E_COORD97":174567.01999999999,"N_COORD97":2548598.8300000001,"ADDRESS":"自強路７９８號之１","OBJECTID":119855},"geometry":{"x":174567.02000000048,"y":2548598.8299999982}},{"attributes":{"ID":119856,"DIS_CODE":0,"TOWNNAME":"北區","LI":"公園里","LIN":"16鄰","STREET":"成功路","SECT":" ","MAREA":" ","LANE":"２２巷","ALLEY":"１８弄","HOUSE_NO":"９號","E_COORD97":168952.81,"N_COORD97":2544355.3700000001,"ADDRESS":"成功路２２巷１８弄９號","OBJECTID":119856},"geometry":{"x":168952.80999999959,"y":2544355.3700000048}},{"attributes":{"ID":119857,"DIS_CODE":0,"TOWNNAME":"永康區","LI":"龍潭里","LIN":"35鄰","STREET":"自強路","SECT":" ","MAREA":" ","LANE":" ","ALLEY":" ","HOUSE_NO":"７６２號","E_COORD97":174491.82999999999,"N_COORD97":2548538.5499999998,"ADDRESS":"自強路７６２號","OBJECTID":119857},"geometry":{"x":174491.83000000194,"y":2548538.5500000026}},{"attributes":{"ID":119858,"DIS_CODE":0,"TOWNNAME":"永康區","LI":"龍潭里","LIN":"35鄰","STREET":"自強路","SECT":" ","MAREA":" ","LANE":" ","ALLEY":" ","HOUSE_NO":"７６０號","E_COORD97":174488.17999999999,"N_COORD97":2548535.7999999998,"ADDRESS":"自強路７６０號","OBJECTID":119858},"geometry":{"x":174488.18000000063,"y":2548535.8000000045}},{"attributes":{"ID":119859,"DIS_CODE":0,"TOWNNAME":"北區","LI":"公園里","LIN":"16鄰","STREET":"成功路","SECT":" ","MAREA":" ","LANE":"２２巷","ALLEY":"４２弄","HOUSE_NO":"１２號","E_COORD97":168973.5,"N_COORD97":2544386.4199999999,"ADDRESS":"成功路２２巷４２弄１２號","OBJECTID":119859},"geometry":{"x":168973.50000000093,"y":2544386.4199999999}},{"attributes":{"ID":119860,"DIS_CODE":0,"TOWNNAME":"北區","LI":"公園里","LIN":"16鄰","STREET":"成功路","SECT":" ","MAREA":" ","LANE":"２２巷","ALLEY":"４２弄","HOUSE_NO":"１０號","E_COORD97":168969.35999999999,"N_COORD97":2544387.5600000001,"ADDRESS":"成功路２２巷４２弄１０號","OBJECTID":119860},"geometry":{"x":168969.36000000127,"y":2544387.5600000024}},{"attributes":{"ID":119861,"DIS_CODE":0,"TOWNNAME":"北區","LI":"公園里","LIN":"16鄰","STREET":"成功路","SECT":" ","MAREA":" ","LANE":"２２巷","ALLEY":"４２弄","HOUSE_NO":"２號","E_COORD97":168954.81,"N_COORD97":2544393.54,"ADDRESS":"成功路２２巷４２弄２號","OBJECTID":119861},"geometry":{"x":168954.80999999959,"y":2544393.540000001}},{"attributes":{"ID":119862,"DIS_CODE":0,"TOWNNAME":"北區","LI":"公園里","LIN":"16鄰","STREET":"成功路","SECT":" ","MAREA":" ","LANE":"２２巷","ALLEY":"４２弄","HOUSE_NO":"４號","E_COORD97":168958.66,"N_COORD97":2544391.1200000001,"ADDRESS":"成功路２２巷４２弄４號","OBJECTID":119862},"geometry":{"x":168958.66000000108,"y":2544391.1200000029}},{"attributes":{"ID":119863,"DIS_CODE":0,"TOWNNAME":"北區","LI":"公園里","LIN":"16鄰","STREET":"成功路","SECT":" ","MAREA":" ","LANE":"２２巷","ALLEY":"４２弄","HOUSE_NO":"６號","E_COORD97":168961.94,"N_COORD97":2544389.6899999999,"ADDRESS":"成功路２２巷４２弄６號","OBJECTID":119863},"geometry":{"x":168961.94000000134,"y":2544389.6900000013}},{"attributes":{"ID":119864,"DIS_CODE":0,"TOWNNAME":"北區","LI":"公園里","LIN":"16鄰","STREET":"成功路","SECT":" ","MAREA":" ","LANE":"２２巷","ALLEY":"４２弄","HOUSE_NO":"８號","E_COORD97":168966.22,"N_COORD97":2544389.1200000001,"ADDRESS":"成功路２２巷４２弄８號","OBJECTID":119864},"geometry":{"x":168966.22000000067,"y":2544389.120000001}},{"attributes":{"ID":119865,"DIS_CODE":0,"TOWNNAME":"白河區","LI":"昇安里","LIN":"4鄰","STREET":" ","SECT":" ","MAREA":"三間厝","LANE":" ","ALLEY":" ","HOUSE_NO":"５１之３號","E_COORD97":191762.42000000001,"N_COORD97":2584714.7000000002,"ADDRESS":"三間厝５１之３號","OBJECTID":119865},"geometry":{"x":191762.42000000086,"y":2584714.7000000011}},{"attributes":{"ID":119866,"DIS_CODE":0,"TOWNNAME":"白河區","LI":"昇安里","LIN":"4鄰","STREET":" ","SECT":" ","MAREA":"三間厝","LANE":" ","ALLEY":" ","HOUSE_NO":"５１之６號","E_COORD97":191717.01999999999,"N_COORD97":2584705.73,"ADDRESS":"三間厝５１之６號","OBJECTID":119866},"geometry":{"x":191717.02000000048,"y":2584705.7300000023}},{"attributes":{"ID":119867,"DIS_CODE":0,"TOWNNAME":"永康區","LI":"龍潭里","LIN":"35鄰","STREET":"自強路","SECT":" ","MAREA":" ","LANE":" ","ALLEY":" ","HOUSE_NO":"７７８號","E_COORD97":174518.53,"N_COORD97":2548558.7999999998,"ADDRESS":"自強路７７８號","OBJECTID":119867},"geometry":{"x":174518.53000000119,"y":2548558.8000000007}},{"attributes":{"ID":119868,"DIS_CODE":0,"TOWNNAME":"白河區","LI":"昇安里","LIN":"4鄰","STREET":" ","SECT":" ","MAREA":"三間厝","LANE":" ","ALLEY":" ","HOUSE_NO":"５１號","E_COORD97":191774.57000000001,"N_COORD97":2584713.0600000001,"ADDRESS":"三間厝５１號","OBJECTID":119868},"geometry":{"x":191774.57000000216,"y":2584713.0600000024}},{"attributes":{"ID":119869,"DIS_CODE":0,"TOWNNAME":"新營區","LI":"忠政里","LIN":"16鄰","STREET":"府西路","SECT":" ","MAREA":" ","LANE":"２５７巷","ALLEY":"３１弄","HOUSE_NO":"５號","E_COORD97":179702.95999999999,"N_COORD97":2579641.7000000002,"ADDRESS":"府西路２５７巷３１弄５號","OBJECTID":119869},"geometry":{"x":179702.95999999996,"y":2579641.7000000011}},{"attributes":{"ID":119870,"DIS_CODE":0,"TOWNNAME":"新營區","LI":"忠政里","LIN":"16鄰","STREET":"府西路","SECT":" ","MAREA":" ","LANE":"２５７巷","ALLEY":"４０弄","HOUSE_NO":"１號","E_COORD97":179684.70999999999,"N_COORD97":2579678.3399999999,"ADDRESS":"府西路２５７巷４０弄１號","OBJECTID":119870},"geometry":{"x":179684.70999999996,"y":2579678.3400000036}},{"attributes":{"ID":119871,"DIS_CODE":0,"TOWNNAME":"新營區","LI":"忠政里","LIN":"16鄰","STREET":"府西路","SECT":" ","MAREA":" ","LANE":"２５７巷","ALLEY":"４０弄","HOUSE_NO":"２號","E_COORD97":179711.48000000001,"N_COORD97":2579702.5699999998,"ADDRESS":"府西路２５７巷４０弄２號","OBJECTID":119871},"geometry":{"x":179711.48000000138,"y":2579702.5700000022}},{"attributes":{"ID":119872,"DIS_CODE":0,"TOWNNAME":"新營區","LI":"忠政里","LIN":"16鄰","STREET":"府西路","SECT":" ","MAREA":" ","LANE":"２５７巷","ALLEY":"４０弄","HOUSE_NO":"２之１號","E_COORD97":179713.01000000001,"N_COORD97":2579712.5899999999,"ADDRESS":"府西路２５７巷４０弄２之１號","OBJECTID":119872},"geometry":{"x":179713.00999999978,"y":2579712.5899999999}},{"attributes":{"ID":119873,"DIS_CODE":0,"TOWNNAME":"永康區","LI":"龍潭里","LIN":"35鄰","STREET":"自強路","SECT":" ","MAREA":" ","LANE":" ","ALLEY":" ","HOUSE_NO":"８２２號","E_COORD97":174609.63,"N_COORD97":2548635.1099999999,"ADDRESS":"自強路８２２號","OBJECTID":119873},"geometry":{"x":174609.62999999989,"y":2548635.1100000013}},{"attributes":{"ID":119874,"DIS_CODE":0,"TOWNNAME":"新營區","LI":"忠政里","LIN":"16鄰","STREET":"府西路","SECT":" ","MAREA":" ","LANE":"２５７巷","ALLEY":"４０弄","HOUSE_NO":"３號","E_COORD97":179689.97,"N_COORD97":2579689.3900000001,"ADDRESS":"府西路２５７巷４０弄３號","OBJECTID":119874},"geometry":{"x":179689.97000000067,"y":2579689.3900000025}},{"attributes":{"ID":119875,"DIS_CODE":0,"TOWNNAME":"永康區","LI":"龍潭里","LIN":"35鄰","STREET":"自強路","SECT":" ","MAREA":" ","LANE":" ","ALLEY":" ","HOUSE_NO":"８２０號","E_COORD97":174606.32999999999,"N_COORD97":2548632.3599999999,"ADDRESS":"自強路８２０號","OBJECTID":119875},"geometry":{"x":174606.33000000007,"y":2548632.3600000031}},{"attributes":{"ID":119876,"DIS_CODE":0,"TOWNNAME":"白河區","LI":"昇安里","LIN":"4鄰","STREET":" ","SECT":" ","MAREA":"三間厝","LANE":" ","ALLEY":" ","HOUSE_NO":"５２之２號","E_COORD97":191621.03,"N_COORD97":2584504.1499999999,"ADDRESS":"三間厝５２之２號","OBJECTID":119876},"geometry":{"x":191621.03000000119,"y":2584504.1500000004}},{"attributes":{"ID":119877,"DIS_CODE":0,"TOWNNAME":"白河區","LI":"昇安里","LIN":"4鄰","STREET":" ","SECT":" ","MAREA":"三間厝","LANE":" ","ALLEY":" ","HOUSE_NO":"５２之４號","E_COORD97":191678.42000000001,"N_COORD97":2584491.8399999999,"ADDRESS":"三間厝５２之４號","OBJECTID":119877},"geometry":{"x":191678.41999999993,"y":2584491.8399999999}},{"attributes":{"ID":119878,"DIS_CODE":0,"TOWNNAME":"白河區","LI":"昇安里","LIN":"4鄰","STREET":" ","SECT":" ","MAREA":"三間厝","LANE":" ","ALLEY":" ","HOUSE_NO":"５２之５號","E_COORD97":191683.48999999999,"N_COORD97":2584491.9500000002,"ADDRESS":"三間厝５２之５號","OBJECTID":119878},"geometry":{"x":191683.49000000209,"y":2584491.9500000011}},{"attributes":{"ID":119879,"DIS_CODE":0,"TOWNNAME":"善化區","LI":"溪美里","LIN":"1鄰","STREET":" ","SECT":" ","MAREA":"溪尾","LANE":" ","ALLEY":" ","HOUSE_NO":"１０３５號","E_COORD97":177214.38,"N_COORD97":2559869.6600000001,"ADDRESS":"溪尾１０３５號","OBJECTID":119879},"geometry":{"x":177214.38000000082,"y":2559869.6600000001}},{"attributes":{"ID":119880,"DIS_CODE":0,"TOWNNAME":"南區","LI":"佛壇里","LIN":"16鄰","STREET":"興南街","SECT":" ","MAREA":" ","LANE":"１０１巷","ALLEY":"１０弄","HOUSE_NO":"１０號","E_COORD97":166178.51000000001,"N_COORD97":2535764.2000000002,"ADDRESS":"興南街１０１巷１０弄１０號","OBJECTID":119880},"geometry":{"x":166178.50999999978,"y":2535764.2000000011}},{"attributes":{"ID":119881,"DIS_CODE":0,"TOWNNAME":"南區","LI":"佛壇里","LIN":"16鄰","STREET":"興南街","SECT":" ","MAREA":" ","LANE":"１０１巷","ALLEY":"１０弄","HOUSE_NO":"１１號","E_COORD97":166178.88,"N_COORD97":2535741.9700000002,"ADDRESS":"興南街１０１巷１０弄１１號","OBJECTID":119881},"geometry":{"x":166178.88000000082,"y":2535741.9700000007}},{"attributes":{"ID":119882,"DIS_CODE":0,"TOWNNAME":"永康區","LI":"龍潭里","LIN":"35鄰","STREET":"龍橋街","SECT":" ","MAREA":" ","LANE":" ","ALLEY":" ","HOUSE_NO":"１３３號","E_COORD97":174655.01000000001,"N_COORD97":2548593.25,"ADDRESS":"龍橋街１３３號","OBJECTID":119882},"geometry":{"x":174655.01000000071,"y":2548593.2500000019}},{"attributes":{"ID":119883,"DIS_CODE":0,"TOWNNAME":"善化區","LI":"胡厝里","LIN":"19鄰","STREET":" ","SECT":" ","MAREA":"西衛","LANE":" ","ALLEY":" ","HOUSE_NO":"２０之６號","E_COORD97":174388.53,"N_COORD97":2559330.48,"ADDRESS":"西衛２０之６號","OBJECTID":119883},"geometry":{"x":174388.53000000026,"y":2559330.4800000023}},{"attributes":{"ID":119884,"DIS_CODE":0,"TOWNNAME":"善化區","LI":"胡厝里","LIN":"19鄰","STREET":" ","SECT":" ","MAREA":"西衛","LANE":" ","ALLEY":" ","HOUSE_NO":"２０之７號","E_COORD97":174389.73000000001,"N_COORD97":2559326.0099999998,"ADDRESS":"西衛２０之７號","OBJECTID":119884},"geometry":{"x":174389.73000000138,"y":2559326.0100000016}},{"attributes":{"ID":119885,"DIS_CODE":0,"TOWNNAME":"善化區","LI":"胡厝里","LIN":"19鄰","STREET":" ","SECT":" ","MAREA":"西衛","LANE":" ","ALLEY":" ","HOUSE_NO":"２０之８號","E_COORD97":174392.23000000001,"N_COORD97":2559321,"ADDRESS":"西衛２０之８號","OBJECTID":119885},"geometry":{"x":174392.23000000045,"y":2559321}},{"attributes":{"ID":119886,"DIS_CODE":0,"TOWNNAME":"善化區","LI":"胡厝里","LIN":"19鄰","STREET":" ","SECT":" ","MAREA":"西衛","LANE":" ","ALLEY":" ","HOUSE_NO":"２０之９號","E_COORD97":174391.89999999999,"N_COORD97":2559317.0299999998,"ADDRESS":"西衛２０之９號","OBJECTID":119886},"geometry":{"x":174391.9000000013,"y":2559317.0299999993}},{"attributes":{"ID":119887,"DIS_CODE":0,"TOWNNAME":"善化區","LI":"胡厝里","LIN":"19鄰","STREET":" ","SECT":" ","MAREA":"西衛","LANE":" ","ALLEY":" ","HOUSE_NO":"２０之１０號","E_COORD97":174393.92999999999,"N_COORD97":2559311.7200000002,"ADDRESS":"西衛２０之１０號","OBJECTID":119887},"geometry":{"x":174393.9299999997,"y":2559311.7200000025}},{"attributes":{"ID":119888,"DIS_CODE":0,"TOWNNAME":"南區","LI":"白雪里","LIN":"10鄰","STREET":"鹽埕路","SECT":" ","MAREA":" ","LANE":" ","ALLEY":" ","HOUSE_NO":"１號","E_COORD97":166890.79000000001,"N_COORD97":2540663.0800000001,"ADDRESS":"鹽埕路１號","OBJECTID":119888},"geometry":{"x":166890.7900000019,"y":2540663.0800000001}},{"attributes":{"ID":119889,"DIS_CODE":0,"TOWNNAME":"南區","LI":"佛壇里","LIN":"16鄰","STREET":"興南街","SECT":" ","MAREA":" ","LANE":"１０１巷","ALLEY":"１０弄","HOUSE_NO":"１２號","E_COORD97":166175.01000000001,"N_COORD97":2535761.8100000001,"ADDRESS":"興南街１０１巷１０弄１２號","OBJECTID":119889},"geometry":{"x":166175.00999999978,"y":2535761.8100000024}},{"attributes":{"ID":119890,"DIS_CODE":0,"TOWNNAME":"南區","LI":"佛壇里","LIN":"16鄰","STREET":"興南街","SECT":" ","MAREA":" ","LANE":"１０１巷","ALLEY":"１０弄","HOUSE_NO":"１３號","E_COORD97":166172.98999999999,"N_COORD97":2535742.8900000001,"ADDRESS":"興南街１０１巷１０弄１３號","OBJECTID":119890},"geometry":{"x":166172.99000000115,"y":2535742.8900000043}},{"attributes":{"ID":119891,"DIS_CODE":0,"TOWNNAME":"南區","LI":"佛壇里","LIN":"16鄰","STREET":"興南街","SECT":" ","MAREA":" ","LANE":"１０１巷","ALLEY":"１０弄","HOUSE_NO":"１４號","E_COORD97":166171.32999999999,"N_COORD97":2535760.71,"ADDRESS":"興南街１０１巷１０弄１４號","OBJECTID":119891},"geometry":{"x":166171.33000000007,"y":2535760.7100000009}},{"attributes":{"ID":119892,"DIS_CODE":0,"TOWNNAME":"南區","LI":"佛壇里","LIN":"16鄰","STREET":"興南街","SECT":" ","MAREA":" ","LANE":"１０１巷","ALLEY":"１０弄","HOUSE_NO":"１５號","E_COORD97":166170.95999999999,"N_COORD97":2535739.5800000001,"ADDRESS":"興南街１０１巷１０弄１５號","OBJECTID":119892},"geometry":{"x":166170.96000000183,"y":2535739.5800000001}},{"attributes":{"ID":119893,"DIS_CODE":0,"TOWNNAME":"南區","LI":"佛壇里","LIN":"16鄰","STREET":"興南街","SECT":" ","MAREA":" ","LANE":"１０１巷","ALLEY":"１０弄","HOUSE_NO":"１６號","E_COORD97":166167.84,"N_COORD97":2535757.9500000002,"ADDRESS":"興南街１０１巷１０弄１６號","OBJECTID":119893},"geometry":{"x":166167.83999999985,"y":2535757.950000003}},{"attributes":{"ID":119894,"DIS_CODE":0,"TOWNNAME":"南區","LI":"佛壇里","LIN":"16鄰","STREET":"興南街","SECT":" ","MAREA":" ","LANE":"１０１巷","ALLEY":"１０弄","HOUSE_NO":"１７號","E_COORD97":166166,"N_COORD97":2535737.0099999998,"ADDRESS":"興南街１０１巷１０弄１７號","OBJECTID":119894},"geometry":{"x":166166.00000000093,"y":2535737.0099999998}},{"attributes":{"ID":119895,"DIS_CODE":0,"TOWNNAME":"南區","LI":"佛壇里","LIN":"16鄰","STREET":"興南街","SECT":" ","MAREA":" ","LANE":"１０１巷","ALLEY":"１０弄","HOUSE_NO":"１８號","E_COORD97":166162.13,"N_COORD97":2535755.9300000002,"ADDRESS":"興南街１０１巷１０弄１８號","OBJECTID":119895},"geometry":{"x":166162.12999999989,"y":2535755.9300000016}},{"attributes":{"ID":119896,"DIS_CODE":0,"TOWNNAME":"南區","LI":"佛壇里","LIN":"16鄰","STREET":"興南街","SECT":" ","MAREA":" ","LANE":"１０１巷","ALLEY":"１０弄","HOUSE_NO":"１號","E_COORD97":166199.29000000001,"N_COORD97":2535749.5,"ADDRESS":"興南街１０１巷１０弄１號","OBJECTID":119896},"geometry":{"x":166199.2900000019,"y":2535749.5000000019}},{"attributes":{"ID":119897,"DIS_CODE":0,"TOWNNAME":"南區","LI":"佛壇里","LIN":"16鄰","STREET":"興南街","SECT":" ","MAREA":" ","LANE":"１０１巷","ALLEY":"１０弄","HOUSE_NO":"２號","E_COORD97":166192.67000000001,"N_COORD97":2535768.0600000001,"ADDRESS":"興南街１０１巷１０弄２號","OBJECTID":119897},"geometry":{"x":166192.66999999993,"y":2535768.0600000005}},{"attributes":{"ID":119898,"DIS_CODE":0,"TOWNNAME":"安南區","LI":"新順里","LIN":"10鄰","STREET":"安和路","SECT":"二段","MAREA":" ","LANE":" ","ALLEY":" ","HOUSE_NO":"１８２號之１","E_COORD97":169613.17000000001,"N_COORD97":2548978.54,"ADDRESS":"安和路二段１８２號之１","OBJECTID":119898},"geometry":{"x":169613.16999999993,"y":2548978.5399999991}},{"attributes":{"ID":119899,"DIS_CODE":0,"TOWNNAME":"南區","LI":"佛壇里","LIN":"16鄰","STREET":"興南街","SECT":" ","MAREA":" ","LANE":"１０１巷","ALLEY":"１０弄","HOUSE_NO":"３號","E_COORD97":166194.32999999999,"N_COORD97":2535751.3399999999,"ADDRESS":"興南街１０１巷１０弄３號","OBJECTID":119899},"geometry":{"x":166194.33000000101,"y":2535751.3399999999}},{"attributes":{"ID":119900,"DIS_CODE":0,"TOWNNAME":"安南區","LI":"城南里","LIN":"10鄰","STREET":"城南路","SECT":" ","MAREA":" ","LANE":" ","ALLEY":" ","HOUSE_NO":"２５０號","E_COORD97":160270.07000000001,"N_COORD97":2550834.6099999999,"ADDRESS":"城南路２５０號","OBJECTID":119900},"geometry":{"x":160270.07000000123,"y":2550834.6100000013}},{"attributes":{"ID":119901,"DIS_CODE":0,"TOWNNAME":"南區","LI":"佛壇里","LIN":"16鄰","STREET":"興南街","SECT":" ","MAREA":" ","LANE":"１０１巷","ALLEY":"１０弄","HOUSE_NO":"５號","E_COORD97":166191.20000000001,"N_COORD97":2535747.2999999998,"ADDRESS":"興南街１０１巷１０弄５號","OBJECTID":119901},"geometry":{"x":166191.20000000019,"y":2535747.3000000045}},{"attributes":{"ID":119902,"DIS_CODE":0,"TOWNNAME":"東區","LI":"大智里","LIN":"13鄰","STREET":"長東街","SECT":" ","MAREA":" ","LANE":" ","ALLEY":" ","HOUSE_NO":"１３９號之４","E_COORD97":171039.10000000001,"N_COORD97":2540139.3700000001,"ADDRESS":"長東街１３９號之４","OBJECTID":119902},"geometry":{"x":171039.09999999963,"y":2540139.370000001}},{"attributes":{"ID":119903,"DIS_CODE":0,"TOWNNAME":"東區","LI":"大福里","LIN":"4鄰","STREET":"立德二路","SECT":" ","MAREA":" ","LANE":" ","ALLEY":" ","HOUSE_NO":"３６號","E_COORD97":169538.45000000001,"N_COORD97":2541727.6099999999,"ADDRESS":"立德二路３６號","OBJECTID":119903},"geometry":{"x":169538.45000000112,"y":2541727.6100000031}},{"attributes":{"ID":119904,"DIS_CODE":0,"TOWNNAME":"東區","LI":"大福里","LIN":"4鄰","STREET":"立德二路","SECT":" ","MAREA":" ","LANE":" ","ALLEY":" ","HOUSE_NO":"３８號","E_COORD97":169544.73000000001,"N_COORD97":2541726.9199999999,"ADDRESS":"立德二路３８號","OBJECTID":119904},"geometry":{"x":169544.73000000231,"y":2541726.9200000018}},{"attributes":{"ID":119905,"DIS_CODE":0,"TOWNNAME":"南區","LI":"佛壇里","LIN":"16鄰","STREET":"興南街","SECT":" ","MAREA":" ","LANE":"１０１巷","ALLEY":"１０弄","HOUSE_NO":"６號","E_COORD97":166187.51999999999,"N_COORD97":2535768.0600000001,"ADDRESS":"興南街１０１巷１０弄６號","OBJECTID":119905},"geometry":{"x":166187.52000000048,"y":2535768.0600000005}},{"attributes":{"ID":119906,"DIS_CODE":0,"TOWNNAME":"南區","LI":"佛壇里","LIN":"16鄰","STREET":"興南街","SECT":" ","MAREA":" ","LANE":"１０１巷","ALLEY":"１０弄","HOUSE_NO":"７號","E_COORD97":166185.5,"N_COORD97":2535748.3999999999,"ADDRESS":"興南街１０１巷１０弄７號","OBJECTID":119906},"geometry":{"x":166185.5,"y":2535748.4000000004}},{"attributes":{"ID":119907,"DIS_CODE":0,"TOWNNAME":"南區","LI":"佛壇里","LIN":"16鄰","STREET":"興南街","SECT":" ","MAREA":" ","LANE":"１０１巷","ALLEY":"１０弄","HOUSE_NO":"８號","E_COORD97":166182.92000000001,"N_COORD97":2535765.8500000001,"ADDRESS":"興南街１０１巷１０弄８號","OBJECTID":119907},"geometry":{"x":166182.92000000179,"y":2535765.8500000034}},{"attributes":{"ID":119908,"DIS_CODE":0,"TOWNNAME":"南區","LI":"佛壇里","LIN":"16鄰","STREET":"興南街","SECT":" ","MAREA":" ","LANE":"１０１巷","ALLEY":"１０弄","HOUSE_NO":"９號","E_COORD97":166182,"N_COORD97":2535745.0899999999,"ADDRESS":"興南街１０１巷１０弄９號","OBJECTID":119908},"geometry":{"x":166182,"y":2535745.0900000017}},{"attributes":{"ID":119909,"DIS_CODE":0,"TOWNNAME":"南區","LI":"佛壇里","LIN":"16鄰","STREET":"興南街","SECT":" ","MAREA":" ","LANE":"１０１巷","ALLEY":"８弄","HOUSE_NO":"１１號","E_COORD97":166166.37,"N_COORD97":2535774.79,"ADDRESS":"興南街１０１巷８弄１１號","OBJECTID":119909},"geometry":{"x":166166.37000000011,"y":2535774.7899999991}},{"attributes":{"ID":119910,"DIS_CODE":0,"TOWNNAME":"善化區","LI":"胡厝里","LIN":"19鄰","STREET":" ","SECT":" ","MAREA":"西衛","LANE":" ","ALLEY":" ","HOUSE_NO":"２０之１１號","E_COORD97":174393.73999999999,"N_COORD97":2559307.9700000002,"ADDRESS":"西衛２０之１１號","OBJECTID":119910},"geometry":{"x":174393.74000000022,"y":2559307.9700000007}},{"attributes":{"ID":119911,"DIS_CODE":0,"TOWNNAME":"後壁區","LI":"仕安里","LIN":"4鄰","STREET":" ","SECT":" ","MAREA":"下長","LANE":" ","ALLEY":" ","HOUSE_NO":"２９號","E_COORD97":180621.13,"N_COORD97":2583919.4199999999,"ADDRESS":"下長２９號","OBJECTID":119911},"geometry":{"x":180621.13000000175,"y":2583919.4200000037}},{"attributes":{"ID":119912,"DIS_CODE":0,"TOWNNAME":"善化區","LI":"嘉南里","LIN":"13鄰","STREET":" ","SECT":" ","MAREA":"茄拔","LANE":" ","ALLEY":" ","HOUSE_NO":"３７３號","E_COORD97":180757.60999999999,"N_COORD97":2559235.8799999999,"ADDRESS":"茄拔３７３號","OBJECTID":119912},"geometry":{"x":180757.61000000127,"y":2559235.879999999}},{"attributes":{"ID":119913,"DIS_CODE":0,"TOWNNAME":"後壁區","LI":"仕安里","LIN":"1鄰","STREET":" ","SECT":" ","MAREA":"下長","LANE":" ","ALLEY":" ","HOUSE_NO":"１號之１２","E_COORD97":180736.07000000001,"N_COORD97":2584088.6099999999,"ADDRESS":"下長１號之１２","OBJECTID":119913},"geometry":{"x":180736.07000000123,"y":2584088.6100000013}},{"attributes":{"ID":119914,"DIS_CODE":0,"TOWNNAME":"後壁區","LI":"仕安里","LIN":"4鄰","STREET":" ","SECT":" ","MAREA":"下長","LANE":" ","ALLEY":" ","HOUSE_NO":"３０號之６","E_COORD97":180594.07999999999,"N_COORD97":2583871.3399999999,"ADDRESS":"下長３０號之６","OBJECTID":119914},"geometry":{"x":180594.08000000007,"y":2583871.3399999999}},{"attributes":{"ID":119915,"DIS_CODE":0,"TOWNNAME":"後壁區","LI":"仕安里","LIN":"4鄰","STREET":" ","SECT":" ","MAREA":"下長","LANE":" ","ALLEY":" ","HOUSE_NO":"３１號","E_COORD97":180648.60999999999,"N_COORD97":2583892.1299999999,"ADDRESS":"下長３１號","OBJECTID":119915},"geometry":{"x":180648.61000000034,"y":2583892.129999999}},{"attributes":{"ID":119916,"DIS_CODE":0,"TOWNNAME":"安南區","LI":"新順里","LIN":"10鄰","STREET":"興安路","SECT":" ","MAREA":" ","LANE":" ","ALLEY":" ","HOUSE_NO":"８號","E_COORD97":169586.79000000001,"N_COORD97":2549098.4500000002,"ADDRESS":"興安路８號","OBJECTID":119916},"geometry":{"x":169586.79000000097,"y":2549098.4499999993}},{"attributes":{"ID":119917,"DIS_CODE":0,"TOWNNAME":"安南區","LI":"原佃里","LIN":"10鄰","STREET":"安吉路","SECT":"二段","MAREA":" ","LANE":" ","ALLEY":" ","HOUSE_NO":"１３６之１號","E_COORD97":167129.95999999999,"N_COORD97":2550939.8199999998,"ADDRESS":"安吉路二段１３６之１號","OBJECTID":119917},"geometry":{"x":167129.95999999996,"y":2550939.8200000022}},{"attributes":{"ID":119918,"DIS_CODE":0,"TOWNNAME":"南區","LI":"佛壇里","LIN":"16鄰","STREET":"興南街","SECT":" ","MAREA":" ","LANE":"１０１巷","ALLEY":"８弄","HOUSE_NO":"１３號","E_COORD97":166162.5,"N_COORD97":2535773.1400000001,"ADDRESS":"興南街１０１巷８弄１３號","OBJECTID":119918},"geometry":{"x":166162.50000000093,"y":2535773.1400000025}},{"attributes":{"ID":119919,"DIS_CODE":0,"TOWNNAME":"南區","LI":"佛壇里","LIN":"16鄰","STREET":"興南街","SECT":" ","MAREA":" ","LANE":"１０１巷","ALLEY":"８弄","HOUSE_NO":"１５號","E_COORD97":166158.45999999999,"N_COORD97":2535771.6699999999,"ADDRESS":"興南街１０１巷８弄１５號","OBJECTID":119919},"geometry":{"x":166158.45999999996,"y":2535771.6700000018}},{"attributes":{"ID":119920,"DIS_CODE":0,"TOWNNAME":"南區","LI":"佛壇里","LIN":"16鄰","STREET":"興南街","SECT":" ","MAREA":" ","LANE":"１０１巷","ALLEY":"８弄","HOUSE_NO":"１號","E_COORD97":166185.5,"N_COORD97":2535787.4700000002,"ADDRESS":"興南街１０１巷８弄１號","OBJECTID":119920},"geometry":{"x":166185.5,"y":2535787.4700000025}},{"attributes":{"ID":119921,"DIS_CODE":0,"TOWNNAME":"南區","LI":"佛壇里","LIN":"16鄰","STREET":"興南街","SECT":" ","MAREA":" ","LANE":"１０１巷","ALLEY":"８弄","HOUSE_NO":"３號","E_COORD97":166181.07999999999,"N_COORD97":2535783.98,"ADDRESS":"興南街１０１巷８弄３號","OBJECTID":119921},"geometry":{"x":166181.08000000101,"y":2535783.9800000023}},{"attributes":{"ID":119922,"DIS_CODE":0,"TOWNNAME":"南區","LI":"佛壇里","LIN":"16鄰","STREET":"興南街","SECT":" ","MAREA":" ","LANE":"１０１巷","ALLEY":"８弄","HOUSE_NO":"５號","E_COORD97":166177.39999999999,"N_COORD97":2535781.77,"ADDRESS":"興南街１０１巷８弄５號","OBJECTID":119922},"geometry":{"x":166177.4000000013,"y":2535781.7699999996}},{"attributes":{"ID":119923,"DIS_CODE":0,"TOWNNAME":"南區","LI":"佛壇里","LIN":"16鄰","STREET":"興南街","SECT":" ","MAREA":" ","LANE":"１０１巷","ALLEY":"８弄","HOUSE_NO":"７號","E_COORD97":166173.91,"N_COORD97":2535780.4900000002,"ADDRESS":"興南街１０１巷８弄７號","OBJECTID":119923},"geometry":{"x":166173.91000000108,"y":2535780.4900000021}},{"attributes":{"ID":119924,"DIS_CODE":0,"TOWNNAME":"安南區","LI":"佃西里","LIN":"10鄰","STREET":"海佃路","SECT":"四段","MAREA":" ","LANE":" ","ALLEY":" ","HOUSE_NO":"３３７號","E_COORD97":165579.57999999999,"N_COORD97":2551402.52,"ADDRESS":"海佃路四段３３７號","OBJECTID":119924},"geometry":{"x":165579.58000000007,"y":2551402.5200000014}},{"attributes":{"ID":119925,"DIS_CODE":0,"TOWNNAME":"南區","LI":"國宅里","LIN":"10鄰","STREET":"新興路","SECT":" ","MAREA":" ","LANE":" ","ALLEY":" ","HOUSE_NO":"３６８號二樓之１","E_COORD97":166888.51000000001,"N_COORD97":2541791.9500000002,"ADDRESS":"新興路３６８號二樓之１","OBJECTID":119925},"geometry":{"x":166888.50999999978,"y":2541791.9499999993}},{"attributes":{"ID":119926,"DIS_CODE":0,"TOWNNAME":"南區","LI":"國宅里","LIN":"10鄰","STREET":"新興路","SECT":" ","MAREA":" ","LANE":" ","ALLEY":" ","HOUSE_NO":"３６８號二樓之２","E_COORD97":166888.51000000001,"N_COORD97":2541791.9500000002,"ADDRESS":"新興路３６８號二樓之２","OBJECTID":119926},"geometry":{"x":166888.50999999978,"y":2541791.9499999993}},{"attributes":{"ID":119927,"DIS_CODE":0,"TOWNNAME":"南區","LI":"國宅里","LIN":"10鄰","STREET":"新興路","SECT":" ","MAREA":" ","LANE":" ","ALLEY":" ","HOUSE_NO":"３６８號二樓之３","E_COORD97":166888.51000000001,"N_COORD97":2541791.9500000002,"ADDRESS":"新興路３６８號二樓之３","OBJECTID":119927},"geometry":{"x":166888.50999999978,"y":2541791.9499999993}},{"attributes":{"ID":119928,"DIS_CODE":0,"TOWNNAME":"南區","LI":"國宅里","LIN":"10鄰","STREET":"新興路","SECT":" ","MAREA":" ","LANE":" ","ALLEY":" ","HOUSE_NO":"３６８號二樓之４","E_COORD97":166888.51000000001,"N_COORD97":2541791.9500000002,"ADDRESS":"新興路３６８號二樓之４","OBJECTID":119928},"geometry":{"x":166888.50999999978,"y":2541791.9499999993}},{"attributes":{"ID":119929,"DIS_CODE":0,"TOWNNAME":"東區","LI":"虎尾里","LIN":"10鄰","STREET":"東門路","SECT":"三段","MAREA":" ","LANE":" ","ALLEY":" ","HOUSE_NO":"１０１號四樓之４","E_COORD97":171300.14000000001,"N_COORD97":2542191.2200000002,"ADDRESS":"東門路三段１０１號四樓之４","OBJECTID":119929},"geometry":{"x":171300.13999999966,"y":2542191.2200000007}},{"attributes":{"ID":119930,"DIS_CODE":0,"TOWNNAME":"南區","LI":"佛壇里","LIN":"16鄰","STREET":"興南街","SECT":" ","MAREA":" ","LANE":"１０１巷","ALLEY":"８弄","HOUSE_NO":"９號","E_COORD97":166170.60000000001,"N_COORD97":2535776.2599999998,"ADDRESS":"興南街１０１巷８弄９號","OBJECTID":119930},"geometry":{"x":166170.59999999963,"y":2535776.2599999998}},{"attributes":{"ID":119931,"DIS_CODE":0,"TOWNNAME":"仁德區","LI":"仁義里","LIN":"31鄰","STREET":"正義二街","SECT":" ","MAREA":" ","LANE":" ","ALLEY":" ","HOUSE_NO":"８２號","E_COORD97":173604.20000000001,"N_COORD97":2541565.52,"ADDRESS":"正義二街８２號","OBJECTID":119931},"geometry":{"x":173604.20000000019,"y":2541565.5200000033}},{"attributes":{"ID":119932,"DIS_CODE":0,"TOWNNAME":"東區","LI":"大福里","LIN":"4鄰","STREET":"立德二路","SECT":" ","MAREA":" ","LANE":" ","ALLEY":" ","HOUSE_NO":"４０號","E_COORD97":169549.60999999999,"N_COORD97":2541729.0099999998,"ADDRESS":"立德二路４０號","OBJECTID":119932},"geometry":{"x":169549.61000000034,"y":2541729.0100000016}},{"attributes":{"ID":119933,"DIS_CODE":0,"TOWNNAME":"南區","LI":"郡南里","LIN":"16鄰","STREET":"德興路","SECT":" ","MAREA":" ","LANE":"１３９巷","ALLEY":"４７弄","HOUSE_NO":"２之１號","E_COORD97":167409.63,"N_COORD97":2540472.8500000001,"ADDRESS":"德興路１３９巷４７弄２之１號","OBJECTID":119933},"geometry":{"x":167409.63000000082,"y":2540472.8500000015}},{"attributes":{"ID":119934,"DIS_CODE":0,"TOWNNAME":"歸仁區","LI":"七甲里","LIN":"16鄰","STREET":"南潭二街","SECT":" ","MAREA":" ","LANE":"１３０巷","ALLEY":"７弄","HOUSE_NO":"９號","E_COORD97":176466.88,"N_COORD97":2542947.0299999998,"ADDRESS":"南潭二街１３０巷７弄９號","OBJECTID":119934},"geometry":{"x":176466.88000000082,"y":2542947.0299999993}},{"attributes":{"ID":119935,"DIS_CODE":0,"TOWNNAME":"歸仁區","LI":"七甲里","LIN":"16鄰","STREET":"南潭二街","SECT":" ","MAREA":" ","LANE":"１３０巷","ALLEY":"３弄","HOUSE_NO":"１９號","E_COORD97":176489.82000000001,"N_COORD97":2542983,"ADDRESS":"南潭二街１３０巷３弄１９號","OBJECTID":119935},"geometry":{"x":176489.82000000123,"y":2542983}},{"attributes":{"ID":119936,"DIS_CODE":0,"TOWNNAME":"歸仁區","LI":"武東里","LIN":"16鄰","STREET":"中正南路","SECT":"二段","MAREA":" ","LANE":"５０巷","ALLEY":"２弄","HOUSE_NO":"１１號","E_COORD97":175814,"N_COORD97":2536562.6200000001,"ADDRESS":"中正南路二段５０巷２弄１１號","OBJECTID":119936},"geometry":{"x":175814,"y":2536562.6200000029}},{"attributes":{"ID":119937,"DIS_CODE":0,"TOWNNAME":"東區","LI":"大福里","LIN":"4鄰","STREET":"立德二路","SECT":" ","MAREA":" ","LANE":" ","ALLEY":" ","HOUSE_NO":"４２號","E_COORD97":169554.84,"N_COORD97":2541729.3500000001,"ADDRESS":"立德二路４２號","OBJECTID":119937},"geometry":{"x":169554.83999999985,"y":2541729.3499999978}},{"attributes":{"ID":119938,"DIS_CODE":0,"TOWNNAME":"東區","LI":"大福里","LIN":"4鄰","STREET":"立德二路","SECT":" ","MAREA":" ","LANE":" ","ALLEY":" ","HOUSE_NO":"４４號","E_COORD97":169560.07999999999,"N_COORD97":2541730.75,"ADDRESS":"立德二路４４號","OBJECTID":119938},"geometry":{"x":169560.08000000007,"y":2541730.7500000037}},{"attributes":{"ID":119939,"DIS_CODE":0,"TOWNNAME":"東區","LI":"大福里","LIN":"4鄰","STREET":"立德二路","SECT":" ","MAREA":" ","LANE":" ","ALLEY":" ","HOUSE_NO":"４６號","E_COORD97":169565.66,"N_COORD97":2541730.3999999999,"ADDRESS":"立德二路４６號","OBJECTID":119939},"geometry":{"x":169565.66000000108,"y":2541730.4000000022}},{"attributes":{"ID":119940,"DIS_CODE":0,"TOWNNAME":"後壁區","LI":"仕安里","LIN":"4鄰","STREET":" ","SECT":" ","MAREA":"下長","LANE":" ","ALLEY":" ","HOUSE_NO":"３２號","E_COORD97":180663.07999999999,"N_COORD97":2583878.77,"ADDRESS":"下長３２號","OBJECTID":119940},"geometry":{"x":180663.08000000101,"y":2583878.7699999996}},{"attributes":{"ID":119941,"DIS_CODE":0,"TOWNNAME":"後壁區","LI":"仕安里","LIN":"1鄰","STREET":" ","SECT":" ","MAREA":"下長","LANE":" ","ALLEY":" ","HOUSE_NO":"２號之８０","E_COORD97":181405.75,"N_COORD97":2583852.6499999999,"ADDRESS":"下長２號之８０","OBJECTID":119941},"geometry":{"x":181405.75000000093,"y":2583852.6500000004}},{"attributes":{"ID":119942,"DIS_CODE":0,"TOWNNAME":"後壁區","LI":"仕安里","LIN":"1鄰","STREET":" ","SECT":" ","MAREA":"下長","LANE":" ","ALLEY":" ","HOUSE_NO":"２號之９","E_COORD97":180869.37,"N_COORD97":2583919,"ADDRESS":"下長２號之９","OBJECTID":119942},"geometry":{"x":180869.37000000104,"y":2583919.0000000037}},{"attributes":{"ID":119943,"DIS_CODE":0,"TOWNNAME":"後壁區","LI":"仕安里","LIN":"1鄰","STREET":" ","SECT":" ","MAREA":"下長","LANE":" ","ALLEY":" ","HOUSE_NO":"２號","E_COORD97":180768.07999999999,"N_COORD97":2583941.8799999999,"ADDRESS":"下長２號","OBJECTID":119943},"geometry":{"x":180768.08000000101,"y":2583941.879999999}},{"attributes":{"ID":119944,"DIS_CODE":0,"TOWNNAME":"後壁區","LI":"仕安里","LIN":"1鄰","STREET":" ","SECT":" ","MAREA":"下長","LANE":" ","ALLEY":" ","HOUSE_NO":"３號","E_COORD97":180746.47,"N_COORD97":2583883.5899999999,"ADDRESS":"下長３號","OBJECTID":119944},"geometry":{"x":180746.47000000067,"y":2583883.5899999999}},{"attributes":{"ID":119945,"DIS_CODE":0,"TOWNNAME":"後壁區","LI":"仕安里","LIN":"1鄰","STREET":" ","SECT":" ","MAREA":"下長","LANE":" ","ALLEY":" ","HOUSE_NO":"４號之１２","E_COORD97":180997.84,"N_COORD97":2583845.5699999998,"ADDRESS":"下長４號之１２","OBJECTID":119945},"geometry":{"x":180997.84000000078,"y":2583845.5700000022}},{"attributes":{"ID":119946,"DIS_CODE":0,"TOWNNAME":"後壁區","LI":"仕安里","LIN":"1鄰","STREET":" ","SECT":" ","MAREA":"下長","LANE":" ","ALLEY":" ","HOUSE_NO":"４號之１６","E_COORD97":181038.54999999999,"N_COORD97":2583807.2799999998,"ADDRESS":"下長４號之１６","OBJECTID":119946},"geometry":{"x":181038.55000000168,"y":2583807.2799999993}},{"attributes":{"ID":119947,"DIS_CODE":0,"TOWNNAME":"後壁區","LI":"仕安里","LIN":"1鄰","STREET":" ","SECT":" ","MAREA":"下長","LANE":" ","ALLEY":" ","HOUSE_NO":"４號之１","E_COORD97":180794.44,"N_COORD97":2583896.5800000001,"ADDRESS":"下長４號之１","OBJECTID":119947},"geometry":{"x":180794.44000000134,"y":2583896.5800000001}},{"attributes":{"ID":119948,"DIS_CODE":0,"TOWNNAME":"後壁區","LI":"仕安里","LIN":"1鄰","STREET":" ","SECT":" ","MAREA":"下長","LANE":" ","ALLEY":" ","HOUSE_NO":"４號之２","E_COORD97":180805.64999999999,"N_COORD97":2583892.3500000001,"ADDRESS":"下長４號之２","OBJECTID":119948},"geometry":{"x":180805.65000000037,"y":2583892.3500000034}},{"attributes":{"ID":119949,"DIS_CODE":0,"TOWNNAME":"後壁區","LI":"仕安里","LIN":"6鄰","STREET":" ","SECT":" ","MAREA":"下長","LANE":" ","ALLEY":" ","HOUSE_NO":"４１號之２","E_COORD97":180722.98000000001,"N_COORD97":2583748.29,"ADDRESS":"下長４１號之２","OBJECTID":119949},"geometry":{"x":180722.98000000138,"y":2583748.2899999991}},{"attributes":{"ID":119950,"DIS_CODE":0,"TOWNNAME":"麻豆區","LI":"大山里","LIN":"4鄰","STREET":" ","SECT":" ","MAREA":"大山\u25A0","LANE":" ","ALLEY":" ","HOUSE_NO":"３９號之１","E_COORD97":170300.64000000001,"N_COORD97":2566012.0600000001,"ADDRESS":"大山\u25A0３９號之１","OBJECTID":119950},"geometry":{"x":170300.6400000006,"y":2566012.0600000024}},{"attributes":{"ID":119951,"DIS_CODE":0,"TOWNNAME":"麻豆區","LI":"大山里","LIN":"4鄰","STREET":" ","SECT":" ","MAREA":"大山\u25A0","LANE":" ","ALLEY":" ","HOUSE_NO":"３９號","E_COORD97":170256.73000000001,"N_COORD97":2566023.7000000002,"ADDRESS":"大山\u25A0３９號","OBJECTID":119951},"geometry":{"x":170256.73000000231,"y":2566023.7000000011}},{"attributes":{"ID":119952,"DIS_CODE":0,"TOWNNAME":"麻豆區","LI":"大山里","LIN":"4鄰","STREET":" ","SECT":" ","MAREA":"大山\u25A0","LANE":" ","ALLEY":" ","HOUSE_NO":"４１號之６","E_COORD97":170407.07000000001,"N_COORD97":2566023.1200000001,"ADDRESS":"大山\u25A0４１號之６","OBJECTID":119952},"geometry":{"x":170407.07000000123,"y":2566023.120000001}},{"attributes":{"ID":119953,"DIS_CODE":0,"TOWNNAME":"麻豆區","LI":"大山里","LIN":"4鄰","STREET":" ","SECT":" ","MAREA":"大山\u25A0","LANE":" ","ALLEY":" ","HOUSE_NO":"４１號","E_COORD97":170277.75,"N_COORD97":2566043.5499999998,"ADDRESS":"大山\u25A0４１號","OBJECTID":119953},"geometry":{"x":170277.75,"y":2566043.5500000007}},{"attributes":{"ID":119954,"DIS_CODE":0,"TOWNNAME":"麻豆區","LI":"大山里","LIN":"4鄰","STREET":" ","SECT":" ","MAREA":"大山\u25A0","LANE":" ","ALLEY":" ","HOUSE_NO":"４２號之１０","E_COORD97":170317.42999999999,"N_COORD97":2566054.9199999999,"ADDRESS":"大山\u25A0４２號之１０","OBJECTID":119954},"geometry":{"x":170317.43000000063,"y":2566054.9199999999}},{"attributes":{"ID":119955,"DIS_CODE":0,"TOWNNAME":"麻豆區","LI":"大山里","LIN":"4鄰","STREET":" ","SECT":" ","MAREA":"大山\u25A0","LANE":" ","ALLEY":" ","HOUSE_NO":"４２號之１１","E_COORD97":170317.88,"N_COORD97":2566088.6200000001,"ADDRESS":"大山\u25A0４２號之１１","OBJECTID":119955},"geometry":{"x":170317.88000000082,"y":2566088.620000001}},{"attributes":{"ID":119956,"DIS_CODE":0,"TOWNNAME":"麻豆區","LI":"大山里","LIN":"4鄰","STREET":" ","SECT":" ","MAREA":"大山\u25A0","LANE":" ","ALLEY":" ","HOUSE_NO":"４２號之１２","E_COORD97":170317.92000000001,"N_COORD97":2566092.8100000001,"ADDRESS":"大山\u25A0４２號之１２","OBJECTID":119956},"geometry":{"x":170317.92000000086,"y":2566092.8100000005}},{"attributes":{"ID":119957,"DIS_CODE":0,"TOWNNAME":"歸仁區","LI":"武東里","LIN":"16鄰","STREET":"中正南路","SECT":"二段","MAREA":" ","LANE":"５０巷","ALLEY":"２弄","HOUSE_NO":"１３號","E_COORD97":175812.29000000001,"N_COORD97":2536552.9900000002,"ADDRESS":"中正南路二段５０巷２弄１３號","OBJECTID":119957},"geometry":{"x":175812.29000000004,"y":2536552.9900000021}},{"attributes":{"ID":119958,"DIS_CODE":0,"TOWNNAME":"歸仁區","LI":"武東里","LIN":"16鄰","STREET":"中正南路","SECT":"二段","MAREA":" ","LANE":"５０巷","ALLEY":"２弄","HOUSE_NO":"１５號","E_COORD97":175811.03,"N_COORD97":2536542.79,"ADDRESS":"中正南路二段５０巷２弄１５號","OBJECTID":119958},"geometry":{"x":175811.03000000026,"y":2536542.790000001}},{"attributes":{"ID":119959,"DIS_CODE":0,"TOWNNAME":"中西區","LI":"民主里","LIN":"10鄰","STREET":"友愛街","SECT":" ","MAREA":" ","LANE":" ","ALLEY":" ","HOUSE_NO":"３６３號十一樓之１４","E_COORD97":167368.14999999999,"N_COORD97":2543680.0499999998,"ADDRESS":"友愛街３６３號十一樓之１４","OBJECTID":119959},"geometry":{"x":167368.15000000037,"y":2543680.0500000026}},{"attributes":{"ID":119960,"DIS_CODE":0,"TOWNNAME":"歸仁區","LI":"武東里","LIN":"16鄰","STREET":"中正南路","SECT":"二段","MAREA":" ","LANE":"５０巷","ALLEY":"２弄","HOUSE_NO":"１７號","E_COORD97":175809.48999999999,"N_COORD97":2536533.1499999999,"ADDRESS":"中正南路二段５０巷２弄１７號","OBJECTID":119960},"geometry":{"x":175809.49000000022,"y":2536533.1500000004}},{"attributes":{"ID":119961,"DIS_CODE":0,"TOWNNAME":"後壁區","LI":"福安里","LIN":" ","STREET":" ","SECT":" ","MAREA":"下寮","LANE":" ","ALLEY":" ","HOUSE_NO":"１２號","E_COORD97":184341.70999999999,"N_COORD97":2581074.8900000001,"ADDRESS":"下寮１２號","OBJECTID":119961},"geometry":{"x":184341.71000000089,"y":2581074.8900000006}},{"attributes":{"ID":119962,"DIS_CODE":0,"TOWNNAME":"歸仁區","LI":"武東里","LIN":"16鄰","STREET":"中正南路","SECT":"二段","MAREA":" ","LANE":"５０巷","ALLEY":"２弄","HOUSE_NO":"１９號","E_COORD97":175807.75,"N_COORD97":2536523.1899999999,"ADDRESS":"中正南路二段５０巷２弄１９號","OBJECTID":119962},"geometry":{"x":175807.75000000186,"y":2536523.1900000013}},{"attributes":{"ID":119963,"DIS_CODE":0,"TOWNNAME":"歸仁區","LI":"武東里","LIN":"16鄰","STREET":"中正南路","SECT":"二段","MAREA":" ","LANE":"５０巷","ALLEY":"２弄","HOUSE_NO":"１號","E_COORD97":175819.60999999999,"N_COORD97":2536613.0499999998,"ADDRESS":"中正南路二段５０巷２弄１號","OBJECTID":119963},"geometry":{"x":175819.61000000127,"y":2536613.0500000007}},{"attributes":{"ID":119964,"DIS_CODE":0,"TOWNNAME":"歸仁區","LI":"武東里","LIN":"16鄰","STREET":"中正南路","SECT":"二段","MAREA":" ","LANE":"５０巷","ALLEY":"２弄","HOUSE_NO":"２１號","E_COORD97":175806.48000000001,"N_COORD97":2536512.9100000001,"ADDRESS":"中正南路二段５０巷２弄２１號","OBJECTID":119964},"geometry":{"x":175806.48000000045,"y":2536512.910000002}},{"attributes":{"ID":119965,"DIS_CODE":0,"TOWNNAME":"歸仁區","LI":"武東里","LIN":"16鄰","STREET":"中正南路","SECT":"二段","MAREA":" ","LANE":"５０巷","ALLEY":"２弄","HOUSE_NO":"２３號","E_COORD97":175804.89999999999,"N_COORD97":2536504.8500000001,"ADDRESS":"中正南路二段５０巷２弄２３號","OBJECTID":119965},"geometry":{"x":175804.90000000037,"y":2536504.8499999978}},{"attributes":{"ID":119966,"DIS_CODE":0,"TOWNNAME":"歸仁區","LI":"武東里","LIN":"16鄰","STREET":"中正南路","SECT":"二段","MAREA":" ","LANE":"５０巷","ALLEY":"２弄","HOUSE_NO":"３號","E_COORD97":175818.63,"N_COORD97":2536602.52,"ADDRESS":"中正南路二段５０巷２弄３號","OBJECTID":119966},"geometry":{"x":175818.63000000175,"y":2536602.5200000014}},{"attributes":{"ID":119967,"DIS_CODE":0,"TOWNNAME":"歸仁區","LI":"武東里","LIN":"16鄰","STREET":"中正南路","SECT":"二段","MAREA":" ","LANE":"５０巷","ALLEY":"２弄","HOUSE_NO":"５號","E_COORD97":175817.76000000001,"N_COORD97":2536592.1400000001,"ADDRESS":"中正南路二段５０巷２弄５號","OBJECTID":119967},"geometry":{"x":175817.76000000071,"y":2536592.1400000043}},{"attributes":{"ID":119968,"DIS_CODE":0,"TOWNNAME":"歸仁區","LI":"武東里","LIN":"16鄰","STREET":"中正南路","SECT":"二段","MAREA":" ","LANE":"５０巷","ALLEY":"２弄","HOUSE_NO":"７號","E_COORD97":175816.39999999999,"N_COORD97":2536582.1400000001,"ADDRESS":"中正南路二段５０巷２弄７號","OBJECTID":119968},"geometry":{"x":175816.4000000013,"y":2536582.1400000043}},{"attributes":{"ID":119969,"DIS_CODE":0,"TOWNNAME":"歸仁區","LI":"武東里","LIN":"16鄰","STREET":"中正南路","SECT":"二段","MAREA":" ","LANE":"５０巷","ALLEY":"２弄","HOUSE_NO":"９號","E_COORD97":175815.19,"N_COORD97":2536572.29,"ADDRESS":"中正南路二段５０巷２弄９號","OBJECTID":119969},"geometry":{"x":175815.19000000041,"y":2536572.2899999991}},{"attributes":{"ID":119970,"DIS_CODE":0,"TOWNNAME":"歸仁區","LI":"看東里","LIN":"16鄰","STREET":"成功路","SECT":"一段","MAREA":" ","LANE":"２７巷","ALLEY":"６０弄","HOUSE_NO":"６２５號","E_COORD97":178923.10999999999,"N_COORD97":2540142.8300000001,"ADDRESS":"成功路一段２７巷６０弄６２５號","OBJECTID":119970},"geometry":{"x":178923.1100000022,"y":2540142.8300000001}},{"attributes":{"ID":119971,"DIS_CODE":0,"TOWNNAME":"南區","LI":"南都里","LIN":"16鄰","STREET":"中華南路","SECT":"二段","MAREA":" ","LANE":"３１５巷","ALLEY":"５弄","HOUSE_NO":"１６號","E_COORD97":166533.42000000001,"N_COORD97":2540107.3700000001,"ADDRESS":"中華南路二段３１５巷５弄１６號","OBJECTID":119971},"geometry":{"x":166533.41999999993,"y":2540107.3700000029}},{"attributes":{"ID":119972,"DIS_CODE":0,"TOWNNAME":"南區","LI":"南都里","LIN":"16鄰","STREET":"中華南路","SECT":"二段","MAREA":" ","LANE":"３１５巷","ALLEY":"５弄","HOUSE_NO":"１８號","E_COORD97":166536.60000000001,"N_COORD97":2540103.3999999999,"ADDRESS":"中華南路二段３１５巷５弄１８號","OBJECTID":119972},"geometry":{"x":166536.59999999963,"y":2540103.4000000022}},{"attributes":{"ID":119973,"DIS_CODE":0,"TOWNNAME":"安平區","LI":"國平里","LIN":"16鄰","STREET":"華平路","SECT":" ","MAREA":" ","LANE":"２１巷","ALLEY":"１８弄","HOUSE_NO":"１５號","E_COORD97":165258.10999999999,"N_COORD97":2542838.6200000001,"ADDRESS":"華平路２１巷１８弄１５號","OBJECTID":119973},"geometry":{"x":165258.1099999994,"y":2542838.6200000029}},{"attributes":{"ID":119974,"DIS_CODE":0,"TOWNNAME":"安平區","LI":"國平里","LIN":"16鄰","STREET":"華平路","SECT":" ","MAREA":" ","LANE":"２１巷","ALLEY":"１８弄","HOUSE_NO":"１７號","E_COORD97":165260.87,"N_COORD97":2542846.21,"ADDRESS":"華平路２１巷１８弄１７號","OBJECTID":119974},"geometry":{"x":165260.87000000011,"y":2542846.2100000009}},{"attributes":{"ID":119975,"DIS_CODE":0,"TOWNNAME":"安平區","LI":"國平里","LIN":"16鄰","STREET":"華平路","SECT":" ","MAREA":" ","LANE":"２１巷","ALLEY":"１８弄","HOUSE_NO":"１號","E_COORD97":165250.54999999999,"N_COORD97":2542796.8700000001,"ADDRESS":"華平路２１巷１８弄１號","OBJECTID":119975},"geometry":{"x":165250.54999999981,"y":2542796.8700000029}},{"attributes":{"ID":119976,"DIS_CODE":0,"TOWNNAME":"南區","LI":"省躬里","LIN":"16鄰","STREET":"灣裡路","SECT":" ","MAREA":" ","LANE":"６２巷","ALLEY":"４０弄","HOUSE_NO":"３９號","E_COORD97":165645.53,"N_COORD97":2537269.8100000001,"ADDRESS":"灣裡路６２巷４０弄３９號","OBJECTID":119976},"geometry":{"x":165645.53000000119,"y":2537269.8100000024}},{"attributes":{"ID":119977,"DIS_CODE":0,"TOWNNAME":"南區","LI":"喜南里","LIN":"16鄰","STREET":"喜樹路","SECT":" ","MAREA":" ","LANE":"２２２巷","ALLEY":"２９弄","HOUSE_NO":"１１號","E_COORD97":165560.72,"N_COORD97":2537956.52,"ADDRESS":"喜樹路２２２巷２９弄１１號","OBJECTID":119977},"geometry":{"x":165560.72000000067,"y":2537956.5200000014}},{"attributes":{"ID":119978,"DIS_CODE":0,"TOWNNAME":"南區","LI":"喜南里","LIN":"16鄰","STREET":"喜樹路","SECT":" ","MAREA":" ","LANE":"２２２巷","ALLEY":"２９弄","HOUSE_NO":"１２號","E_COORD97":165582.20000000001,"N_COORD97":2537991.3300000001,"ADDRESS":"喜樹路２２２巷２９弄１２號","OBJECTID":119978},"geometry":{"x":165582.20000000019,"y":2537991.3300000019}},{"attributes":{"ID":119979,"DIS_CODE":0,"TOWNNAME":"南區","LI":"喜南里","LIN":"16鄰","STREET":"喜樹路","SECT":" ","MAREA":" ","LANE":"２２２巷","ALLEY":"２９弄","HOUSE_NO":"１８號","E_COORD97":165567.32999999999,"N_COORD97":2537965.1000000001,"ADDRESS":"喜樹路２２２巷２９弄１８號","OBJECTID":119979},"geometry":{"x":165567.33000000101,"y":2537965.1000000015}},{"attributes":{"ID":119980,"DIS_CODE":0,"TOWNNAME":"麻豆區","LI":"大山里","LIN":"4鄰","STREET":" ","SECT":" ","MAREA":"大山\u25A0","LANE":" ","ALLEY":" ","HOUSE_NO":"４２號之１３","E_COORD97":170317.97,"N_COORD97":2566097,"ADDRESS":"大山\u25A0４２號之１３","OBJECTID":119980},"geometry":{"x":170317.96999999974,"y":2566097.0000000019}},{"attributes":{"ID":119981,"DIS_CODE":0,"TOWNNAME":"麻豆區","LI":"大山里","LIN":"4鄰","STREET":" ","SECT":" ","MAREA":"大山\u25A0","LANE":" ","ALLEY":" ","HOUSE_NO":"４２號之２０","E_COORD97":170305.45999999999,"N_COORD97":2566111,"ADDRESS":"大山\u25A0４２號之２０","OBJECTID":119981},"geometry":{"x":170305.46000000183,"y":2566111}},{"attributes":{"ID":119982,"DIS_CODE":0,"TOWNNAME":"南區","LI":"喜南里","LIN":"16鄰","STREET":"喜樹路","SECT":" ","MAREA":" ","LANE":"２２２巷","ALLEY":"２９弄","HOUSE_NO":"２０號","E_COORD97":165554.94,"N_COORD97":2537959.8199999998,"ADDRESS":"喜樹路２２２巷２９弄２０號","OBJECTID":119982},"geometry":{"x":165554.94000000134,"y":2537959.8200000003}},{"attributes":{"ID":119983,"DIS_CODE":0,"TOWNNAME":"南區","LI":"喜南里","LIN":"16鄰","STREET":"喜樹路","SECT":" ","MAREA":" ","LANE":"２２２巷","ALLEY":"２９弄","HOUSE_NO":"２２號","E_COORD97":165542.22,"N_COORD97":2537956.52,"ADDRESS":"喜樹路２２２巷２９弄２２號","OBJECTID":119983},"geometry":{"x":165542.22000000067,"y":2537956.5200000014}},{"attributes":{"ID":119984,"DIS_CODE":0,"TOWNNAME":"南區","LI":"喜南里","LIN":"16鄰","STREET":"喜樹路","SECT":" ","MAREA":" ","LANE":"２２２巷","ALLEY":"２９弄","HOUSE_NO":"２４號","E_COORD97":165528.5,"N_COORD97":2537953.71,"ADDRESS":"喜樹路２２２巷２９弄２４號","OBJECTID":119984},"geometry":{"x":165528.50000000093,"y":2537953.7100000009}},{"attributes":{"ID":119985,"DIS_CODE":0,"TOWNNAME":"南區","LI":"喜南里","LIN":"16鄰","STREET":"喜樹路","SECT":" ","MAREA":" ","LANE":"２２２巷","ALLEY":"２９弄","HOUSE_NO":"２６號","E_COORD97":165518.59,"N_COORD97":2537958.1699999999,"ADDRESS":"喜樹路２２２巷２９弄２６號","OBJECTID":119985},"geometry":{"x":165518.58999999985,"y":2537958.1700000018}},{"attributes":{"ID":119986,"DIS_CODE":0,"TOWNNAME":"南區","LI":"白雪里","LIN":"10鄰","STREET":"鹽埕路","SECT":" ","MAREA":" ","LANE":" ","ALLEY":" ","HOUSE_NO":"３５號","E_COORD97":166877.67999999999,"N_COORD97":2540706.3999999999,"ADDRESS":"鹽埕路３５號","OBJECTID":119986},"geometry":{"x":166877.68000000156,"y":2540706.4000000041}},{"attributes":{"ID":119987,"DIS_CODE":0,"TOWNNAME":"南區","LI":"白雪里","LIN":"10鄰","STREET":"鹽埕路","SECT":" ","MAREA":" ","LANE":" ","ALLEY":" ","HOUSE_NO":"３５號之１","E_COORD97":166878.48000000001,"N_COORD97":2540714.5,"ADDRESS":"鹽埕路３５號之１","OBJECTID":119987},"geometry":{"x":166878.48000000138,"y":2540714.5}},{"attributes":{"ID":119988,"DIS_CODE":0,"TOWNNAME":"南區","LI":"白雪里","LIN":"10鄰","STREET":"鹽埕路","SECT":" ","MAREA":" ","LANE":" ","ALLEY":" ","HOUSE_NO":"３５號之２","E_COORD97":166877.91,"N_COORD97":2540719.0600000001,"ADDRESS":"鹽埕路３５號之２","OBJECTID":119988},"geometry":{"x":166877.91000000015,"y":2540719.0600000024}},{"attributes":{"ID":119989,"DIS_CODE":0,"TOWNNAME":"南區","LI":"白雪里","LIN":"10鄰","STREET":"鹽埕路","SECT":" ","MAREA":" ","LANE":" ","ALLEY":" ","HOUSE_NO":"２３號","E_COORD97":166883.72,"N_COORD97":2540685.5899999999,"ADDRESS":"鹽埕路２３號","OBJECTID":119989},"geometry":{"x":166883.71999999974,"y":2540685.5900000017}},{"attributes":{"ID":119990,"DIS_CODE":0,"TOWNNAME":"南區","LI":"白雪里","LIN":"10鄰","STREET":"鹽埕路","SECT":" ","MAREA":" ","LANE":" ","ALLEY":" ","HOUSE_NO":"２３號之１","E_COORD97":166882.45999999999,"N_COORD97":2540692.7200000002,"ADDRESS":"鹽埕路２３號之１","OBJECTID":119990},"geometry":{"x":166882.45999999996,"y":2540692.7200000007}},{"attributes":{"ID":119991,"DIS_CODE":0,"TOWNNAME":"永康區","LI":"埔園里","LIN":"31鄰","STREET":"八德街","SECT":" ","MAREA":" ","LANE":" ","ALLEY":" ","HOUSE_NO":"１６８號","E_COORD97":173936.94,"N_COORD97":2548562.73,"ADDRESS":"八德街１６８號","OBJECTID":119991},"geometry":{"x":173936.94000000041,"y":2548562.7299999986}},{"attributes":{"ID":119992,"DIS_CODE":0,"TOWNNAME":"東區","LI":"大福里","LIN":"4鄰","STREET":"立德二路","SECT":" ","MAREA":" ","LANE":" ","ALLEY":" ","HOUSE_NO":"４８號","E_COORD97":169570.54000000001,"N_COORD97":2541733.5299999998,"ADDRESS":"立德二路４８號","OBJECTID":119992},"geometry":{"x":169570.54000000004,"y":2541733.5299999993}},{"attributes":{"ID":119993,"DIS_CODE":0,"TOWNNAME":"東區","LI":"大福里","LIN":"4鄰","STREET":"立德二路","SECT":" ","MAREA":" ","LANE":" ","ALLEY":" ","HOUSE_NO":"５０號","E_COORD97":169575.76999999999,"N_COORD97":2541733.1899999999,"ADDRESS":"立德二路５０號","OBJECTID":119993},"geometry":{"x":169575.77000000048,"y":2541733.1899999995}},{"attributes":{"ID":119994,"DIS_CODE":0,"TOWNNAME":"東區","LI":"大福里","LIN":"4鄰","STREET":"立德二路","SECT":" ","MAREA":" ","LANE":" ","ALLEY":" ","HOUSE_NO":"５２號","E_COORD97":169581,"N_COORD97":2541734.5800000001,"ADDRESS":"立德二路５２號","OBJECTID":119994},"geometry":{"x":169581,"y":2541734.5800000001}},{"attributes":{"ID":119995,"DIS_CODE":0,"TOWNNAME":"南區","LI":"喜南里","LIN":"16鄰","STREET":"喜樹路","SECT":" ","MAREA":" ","LANE":"２２２巷","ALLEY":"２９弄","HOUSE_NO":"２８號","E_COORD97":165511.48000000001,"N_COORD97":2537954.8700000001,"ADDRESS":"喜樹路２２２巷２９弄２８號","OBJECTID":119995},"geometry":{"x":165511.48000000045,"y":2537954.8700000029}},{"attributes":{"ID":119996,"DIS_CODE":0,"TOWNNAME":"南區","LI":"喜南里","LIN":"16鄰","STREET":"喜樹路","SECT":" ","MAREA":" ","LANE":"２２２巷","ALLEY":"３７弄","HOUSE_NO":"１１號","E_COORD97":165542.09,"N_COORD97":2537979.3900000001,"ADDRESS":"喜樹路２２２巷３７弄１１號","OBJECTID":119996},"geometry":{"x":165542.08999999985,"y":2537979.3900000006}},{"attributes":{"ID":119997,"DIS_CODE":0,"TOWNNAME":"南區","LI":"喜南里","LIN":"16鄰","STREET":"喜樹路","SECT":" ","MAREA":" ","LANE":"２２２巷","ALLEY":"３７弄","HOUSE_NO":"１５號","E_COORD97":165553.73999999999,"N_COORD97":2537975.02,"ADDRESS":"喜樹路２２２巷３７弄１５號","OBJECTID":119997},"geometry":{"x":165553.73999999929,"y":2537975.0199999977}},{"attributes":{"ID":119998,"DIS_CODE":0,"TOWNNAME":"南區","LI":"喜南里","LIN":"16鄰","STREET":"喜樹路","SECT":" ","MAREA":" ","LANE":"２２２巷","ALLEY":"３７弄","HOUSE_NO":"１７號","E_COORD97":165547.75,"N_COORD97":2537972.1099999999,"ADDRESS":"喜樹路２２２巷３７弄１７號","OBJECTID":119998},"geometry":{"x":165547.75,"y":2537972.1100000013}},{"attributes":{"ID":119999,"DIS_CODE":0,"TOWNNAME":"南區","LI":"喜南里","LIN":"16鄰","STREET":"喜樹路","SECT":" ","MAREA":" ","LANE":"２２２巷","ALLEY":"３７弄","HOUSE_NO":"１９號","E_COORD97":165533.03,"N_COORD97":2537966.9399999999,"ADDRESS":"喜樹路２２２巷３７弄１９號","OBJECTID":119999},"geometry":{"x":165533.03000000026,"y":2537966.9400000013}},{"attributes":{"ID":120000,"DIS_CODE":0,"TOWNNAME":"南區","LI":"喜南里","LIN":"16鄰","STREET":"喜樹路","SECT":" ","MAREA":" ","LANE":"２２２巷","ALLEY":"３７弄","HOUSE_NO":"２１號","E_COORD97":165527.85999999999,"N_COORD97":2537972.9199999999,"ADDRESS":"喜樹路２２２巷３７弄２１號","OBJECTID":120000},"geometry":{"x":165527.8600000022,"y":2537972.9200000037}}]}