{"displayFieldName":"TOWNNAME","fieldAliases":{"ID":"ID","DIS_CODE":"DIS_CODE","TOWNNAME":"TOWNNAME","LI":"LI","LIN":"LIN","STREET":"STREET","SECT":"SECT","MAREA":"MAREA","LANE":"LANE","ALLEY":"ALLEY","HOUSE_NO":"HOUSE_NO","E_COORD97":"E_COORD97","N_COORD97":"N_COORD97","ADDRESS":"ADDRESS","OBJECTID":"OBJECTID"},"geometryType":"esriGeometryPoint","spatialReference":{"wkid":102443,"latestWkid":3826},"fields":[{"name":"ID","type":"esriFieldTypeDouble","alias":"ID"},{"name":"DIS_CODE","type":"esriFieldTypeInteger","alias":"DIS_CODE"},{"name":"TOWNNAME","type":"esriFieldTypeString","alias":"TOWNNAME","length":8},{"name":"LI","type":"esriFieldTypeString","alias":"LI","length":8},{"name":"LIN","type":"esriFieldTypeString","alias":"LIN","length":12},{"name":"STREET","type":"esriFieldTypeString","alias":"STREET","length":20},{"name":"SECT","type":"esriFieldTypeString","alias":"SECT","length":8},{"name":"MAREA","type":"esriFieldTypeString","alias":"MAREA","length":12},{"name":"LANE","type":"esriFieldTypeString","alias":"LANE","length":10},{"name":"ALLEY","type":"esriFieldTypeString","alias":"ALLEY","length":10},{"name":"HOUSE_NO","type":"esriFieldTypeString","alias":"HOUSE_NO","length":20},{"name":"E_COORD97","type":"esriFieldTypeDouble","alias":"E_COORD97"},{"name":"N_COORD97","type":"esriFieldTypeDouble","alias":"N_COORD97"},{"name":"ADDRESS","type":"esriFieldTypeString","alias":"ADDRESS","length":50},{"name":"OBJECTID","type":"esriFieldTypeOID","alias":"OBJECTID"}],"features":[{"attributes":{"ID":652428,"DIS_CODE":0,"TOWNNAME":"中西區","LI":"元安里","LIN":"13鄰","STREET":"海安路","SECT":"一段","MAREA":" ","LANE":" ","ALLEY":" ","HOUSE_NO":"１６８號","E_COORD97":167520.47528799999,"N_COORD97":2543418.1454799999,"ADDRESS":"海安路一段１６８號","OBJECTID":652401},"geometry":{"x":167520.47528800182,"y":2543418.1454799995}},{"attributes":{"ID":652429,"DIS_CODE":0,"TOWNNAME":"中西區","LI":"元安里","LIN":"13鄰","STREET":"海安路","SECT":"一段","MAREA":" ","LANE":" ","ALLEY":" ","HOUSE_NO":"１７０號","E_COORD97":167521.32277200001,"N_COORD97":2543423.6488100002,"ADDRESS":"海安路一段１７０號","OBJECTID":652402},"geometry":{"x":167521.32277200092,"y":2543423.648810003}},{"attributes":{"ID":652430,"DIS_CODE":0,"TOWNNAME":"新營區","LI":"民生里","LIN":"2鄰","STREET":"中華路","SECT":" ","MAREA":" ","LANE":" ","ALLEY":" ","HOUSE_NO":"６１號","E_COORD97":179479.51705200001,"N_COORD97":2578171.4162400002,"ADDRESS":"中華路６１號","OBJECTID":652403},"geometry":{"x":179479.51705200039,"y":2578171.4162399992}},{"attributes":{"ID":652431,"DIS_CODE":0,"TOWNNAME":"中西區","LI":"元安里","LIN":"13鄰","STREET":"海安路","SECT":"一段","MAREA":" ","LANE":" ","ALLEY":" ","HOUSE_NO":"１４６號","E_COORD97":167539.967431,"N_COORD97":2543428.7288099998,"ADDRESS":"海安路一段１４６號","OBJECTID":652404},"geometry":{"x":167539.96743100043,"y":2543428.7288080007}},{"attributes":{"ID":652432,"DIS_CODE":0,"TOWNNAME":"中西區","LI":"元安里","LIN":"13鄰","STREET":"海安路","SECT":"一段","MAREA":" ","LANE":" ","ALLEY":" ","HOUSE_NO":"１０２號","E_COORD97":167511.36483000001,"N_COORD97":2543358.2438500002,"ADDRESS":"海安路一段１０２號","OBJECTID":652405},"geometry":{"x":167511.36483000033,"y":2543358.2438459992}},{"attributes":{"ID":652433,"DIS_CODE":0,"TOWNNAME":"中西區","LI":"元安里","LIN":"13鄰","STREET":"海安路","SECT":"一段","MAREA":" ","LANE":" ","ALLEY":" ","HOUSE_NO":"１００號","E_COORD97":167508.822376,"N_COORD97":2543353.3755199998,"ADDRESS":"海安路一段１００號","OBJECTID":652406},"geometry":{"x":167508.82237599976,"y":2543353.3755150009}},{"attributes":{"ID":652434,"DIS_CODE":0,"TOWNNAME":"中西區","LI":"元安里","LIN":"13鄰","STREET":"海安路","SECT":"一段","MAREA":" ","LANE":" ","ALLEY":" ","HOUSE_NO":"１３２號","E_COORD97":167526.407679,"N_COORD97":2543406.5038200002,"ADDRESS":"海安路一段１３２號","OBJECTID":652407},"geometry":{"x":167526.40767899994,"y":2543406.5038200002}},{"attributes":{"ID":652435,"DIS_CODE":0,"TOWNNAME":"中西區","LI":"元安里","LIN":"13鄰","STREET":"海安路","SECT":"一段","MAREA":" ","LANE":" ","ALLEY":" ","HOUSE_NO":"１３６號","E_COORD97":167528.31451900001,"N_COORD97":2543412.8538199998,"ADDRESS":"海安路一段１３６號","OBJECTID":652408},"geometry":{"x":167528.31451900024,"y":2543412.8538159989}},{"attributes":{"ID":652436,"DIS_CODE":0,"TOWNNAME":"新營區","LI":"民生里","LIN":"3鄰","STREET":"中華路","SECT":" ","MAREA":" ","LANE":" ","ALLEY":" ","HOUSE_NO":"７２號","E_COORD97":179480.86780000001,"N_COORD97":2578189.0242499998,"ADDRESS":"中華路７２號","OBJECTID":652409},"geometry":{"x":179480.86780000106,"y":2578189.0242500044}},{"attributes":{"ID":652437,"DIS_CODE":0,"TOWNNAME":"中西區","LI":"元安里","LIN":"12鄰","STREET":"海安路","SECT":"一段","MAREA":" ","LANE":" ","ALLEY":" ","HOUSE_NO":"５６號","E_COORD97":167488.69461999999,"N_COORD97":2543269.5555599998,"ADDRESS":"海安路一段５６號","OBJECTID":652410},"geometry":{"x":167488.69462000113,"y":2543269.5555600021}},{"attributes":{"ID":652438,"DIS_CODE":0,"TOWNNAME":"中西區","LI":"元安里","LIN":"12鄰","STREET":"海安路","SECT":"一段","MAREA":" ","LANE":" ","ALLEY":" ","HOUSE_NO":"６０號","E_COORD97":167488.48274899999,"N_COORD97":2543279.7155599999,"ADDRESS":"海安路一段６０號","OBJECTID":652411},"geometry":{"x":167488.48274900112,"y":2543279.7155550011}},{"attributes":{"ID":652439,"DIS_CODE":0,"TOWNNAME":"中西區","LI":"元安里","LIN":"12鄰","STREET":"海安路","SECT":"一段","MAREA":" ","LANE":" ","ALLEY":" ","HOUSE_NO":"６６號","E_COORD97":167491.44894500001,"N_COORD97":2543292.8388800002,"ADDRESS":"海安路一段６６號","OBJECTID":652412},"geometry":{"x":167491.44894500077,"y":2543292.8388810009}},{"attributes":{"ID":652440,"DIS_CODE":0,"TOWNNAME":"中西區","LI":"元安里","LIN":"7鄰","STREET":"海安路","SECT":"一段","MAREA":" ","LANE":" ","ALLEY":" ","HOUSE_NO":"４８號","E_COORD97":167481.06726000001,"N_COORD97":2543244.1555699999,"ADDRESS":"海安路一段４８號","OBJECTID":652413},"geometry":{"x":167481.06726000085,"y":2543244.1555740032}},{"attributes":{"ID":652441,"DIS_CODE":0,"TOWNNAME":"中西區","LI":"元安里","LIN":"7鄰","STREET":"海安路","SECT":"一段","MAREA":" ","LANE":" ","ALLEY":" ","HOUSE_NO":"３８號","E_COORD97":167479.37229100001,"N_COORD97":2543225.52892,"ADDRESS":"海安路一段３８號","OBJECTID":652414},"geometry":{"x":167479.37229100056,"y":2543225.5289169997}},{"attributes":{"ID":652442,"DIS_CODE":0,"TOWNNAME":"中西區","LI":"元安里","LIN":"7鄰","STREET":"海安路","SECT":"一段","MAREA":" ","LANE":" ","ALLEY":" ","HOUSE_NO":"３０號","E_COORD97":167478.10106399999,"N_COORD97":2543206.4789300002,"ADDRESS":"海安路一段３０號","OBJECTID":652415},"geometry":{"x":167478.10106400028,"y":2543206.4789280035}},{"attributes":{"ID":652443,"DIS_CODE":0,"TOWNNAME":"中西區","LI":"元安里","LIN":"7鄰","STREET":"海安路","SECT":"一段","MAREA":" ","LANE":" ","ALLEY":" ","HOUSE_NO":"２６號","E_COORD97":167477.04170900001,"N_COORD97":2543199.91726,"ADDRESS":"海安路一段２６號","OBJECTID":652416},"geometry":{"x":167477.04170900118,"y":2543199.9172650017}},{"attributes":{"ID":652444,"DIS_CODE":0,"TOWNNAME":"中西區","LI":"元安里","LIN":"7鄰","STREET":"海安路","SECT":"一段","MAREA":" ","LANE":" ","ALLEY":" ","HOUSE_NO":"２０號","E_COORD97":167476.40609500001,"N_COORD97":2543187.2172699999,"ADDRESS":"海安路一段２０號","OBJECTID":652417},"geometry":{"x":167476.40609499998,"y":2543187.2172710001}},{"attributes":{"ID":652445,"DIS_CODE":0,"TOWNNAME":"中西區","LI":"元安里","LIN":"7鄰","STREET":"海安路","SECT":"一段","MAREA":" ","LANE":" ","ALLEY":" ","HOUSE_NO":"１８號","E_COORD97":167475.982353,"N_COORD97":2543184.4656099998,"ADDRESS":"海安路一段１８號","OBJECTID":652418},"geometry":{"x":167475.98235299997,"y":2543184.4656059984}},{"attributes":{"ID":652446,"DIS_CODE":0,"TOWNNAME":"中西區","LI":"元安里","LIN":"6鄰","STREET":"大德街","SECT":" ","MAREA":" ","LANE":" ","ALLEY":" ","HOUSE_NO":"８２之１號","E_COORD97":167530.327295,"N_COORD97":2543219.7080899999,"ADDRESS":"大德街８２之１號","OBJECTID":652419},"geometry":{"x":167530.32729499973,"y":2543219.7080869991}},{"attributes":{"ID":652447,"DIS_CODE":0,"TOWNNAME":"中西區","LI":"中正里","LIN":"6鄰","STREET":"正興街","SECT":" ","MAREA":" ","LANE":"１１６巷","ALLEY":" ","HOUSE_NO":"１０號","E_COORD97":167643.67834300001,"N_COORD97":2543889.3152299998,"ADDRESS":"正興街１１６巷１０號","OBJECTID":652420},"geometry":{"x":167643.67834299989,"y":2543889.3152259998}},{"attributes":{"ID":652448,"DIS_CODE":0,"TOWNNAME":"中西區","LI":"中正里","LIN":"9鄰","STREET":"中正路","SECT":" ","MAREA":" ","LANE":" ","ALLEY":" ","HOUSE_NO":"２９６號之１","E_COORD97":167534.03503900001,"N_COORD97":2543786.8686099998,"ADDRESS":"中正路２９６號之１","OBJECTID":652421},"geometry":{"x":167534.03503900114,"y":2543786.8686139993}},{"attributes":{"ID":652449,"DIS_CODE":0,"TOWNNAME":"中西區","LI":"中正里","LIN":"9鄰","STREET":"中正路","SECT":" ","MAREA":" ","LANE":" ","ALLEY":" ","HOUSE_NO":"２９８號","E_COORD97":167531.91632799999,"N_COORD97":2543787.50361,"ADDRESS":"中正路２９８號","OBJECTID":652422},"geometry":{"x":167531.9163279999,"y":2543787.5036140028}},{"attributes":{"ID":652450,"DIS_CODE":0,"TOWNNAME":"中西區","LI":"中正里","LIN":"10鄰","STREET":"海安路","SECT":" ","MAREA":" ","LANE":" ","ALLEY":" ","HOUSE_NO":"１７９號","E_COORD97":167586.15533499999,"N_COORD97":2543882.5419000001,"ADDRESS":"海安路１７９號","OBJECTID":652423},"geometry":{"x":167586.15533500072,"y":2543882.5418960024}},{"attributes":{"ID":652451,"DIS_CODE":0,"TOWNNAME":"中西區","LI":"中正里","LIN":"10鄰","STREET":"海安路","SECT":" ","MAREA":" ","LANE":"１９７巷","ALLEY":" ","HOUSE_NO":"９號","E_COORD97":167577.46861899999,"N_COORD97":2543877.99107,"ADDRESS":"海安路１９７巷９號","OBJECTID":652424},"geometry":{"x":167577.4686190011,"y":2543877.9910649993}},{"attributes":{"ID":652452,"DIS_CODE":0,"TOWNNAME":"新營區","LI":"好平里","LIN":"5鄰","STREET":"新進路","SECT":"二段","MAREA":" ","LANE":" ","ALLEY":" ","HOUSE_NO":"９１號","E_COORD97":179500.174004,"N_COORD97":2577719.19576,"ADDRESS":"新進路二段９１號","OBJECTID":652425},"geometry":{"x":179500.17400399968,"y":2577719.1957560014}},{"attributes":{"ID":652453,"DIS_CODE":0,"TOWNNAME":"新營區","LI":"好平里","LIN":"5鄰","STREET":"新進路","SECT":"二段","MAREA":" ","LANE":" ","ALLEY":" ","HOUSE_NO":"９４號","E_COORD97":179497.63099400001,"N_COORD97":2577744.3840800002,"ADDRESS":"新進路二段９４號","OBJECTID":652426},"geometry":{"x":179497.63099399954,"y":2577744.3840759993}},{"attributes":{"ID":652454,"DIS_CODE":0,"TOWNNAME":"新營區","LI":"好平里","LIN":"5鄰","STREET":"新進路","SECT":"二段","MAREA":" ","LANE":" ","ALLEY":" ","HOUSE_NO":"９７號","E_COORD97":179487.24703699999,"N_COORD97":2577718.3490900001,"ADDRESS":"新進路二段９７號","OBJECTID":652427},"geometry":{"x":179487.24703700002,"y":2577718.3490899988}},{"attributes":{"ID":652455,"DIS_CODE":0,"TOWNNAME":"新營區","LI":"好平里","LIN":"5鄰","STREET":"新進路","SECT":"二段","MAREA":" ","LANE":" ","ALLEY":" ","HOUSE_NO":"９５號","E_COORD97":179491.48538699999,"N_COORD97":2577718.7724199998,"ADDRESS":"新進路二段９５號","OBJECTID":652428},"geometry":{"x":179491.48538700026,"y":2577718.7724229973}},{"attributes":{"ID":652456,"DIS_CODE":0,"TOWNNAME":"新營區","LI":"好平里","LIN":"5鄰","STREET":"新進路","SECT":"二段","MAREA":" ","LANE":" ","ALLEY":" ","HOUSE_NO":"８７之１號","E_COORD97":179505.26002300001,"N_COORD97":2577720.0424199998,"ADDRESS":"新進路二段８７之１號","OBJECTID":652429},"geometry":{"x":179505.26002300065,"y":2577720.0424220022}},{"attributes":{"ID":652457,"DIS_CODE":0,"TOWNNAME":"新營區","LI":"好平里","LIN":"6鄰","STREET":"和平路","SECT":" ","MAREA":" ","LANE":" ","ALLEY":" ","HOUSE_NO":"５３號之２","E_COORD97":179423.24795799999,"N_COORD97":2577776.0282299998,"ADDRESS":"和平路５３號之２","OBJECTID":652430},"geometry":{"x":179423.24795799982,"y":2577776.0282250028}},{"attributes":{"ID":652458,"DIS_CODE":0,"TOWNNAME":"中西區","LI":"中正里","LIN":"11鄰","STREET":"民生路","SECT":"二段","MAREA":" ","LANE":" ","ALLEY":" ","HOUSE_NO":"１０５號","E_COORD97":167609.24928700001,"N_COORD97":2543987.7668099999,"ADDRESS":"民生路二段１０５號","OBJECTID":652431},"geometry":{"x":167609.24928700086,"y":2543987.766811002}},{"attributes":{"ID":652459,"DIS_CODE":0,"TOWNNAME":"中西區","LI":"中正里","LIN":"11鄰","STREET":"民生路","SECT":"二段","MAREA":" ","LANE":" ","ALLEY":" ","HOUSE_NO":"１０７號","E_COORD97":167606.91870400001,"N_COORD97":2543988.4018100002,"ADDRESS":"民生路二段１０７號","OBJECTID":652432},"geometry":{"x":167606.9187040003,"y":2543988.4018110018}},{"attributes":{"ID":652460,"DIS_CODE":0,"TOWNNAME":"中西區","LI":"中正里","LIN":"11鄰","STREET":"民生路","SECT":"二段","MAREA":" ","LANE":" ","ALLEY":" ","HOUSE_NO":"１０９號","E_COORD97":167605.43560600001,"N_COORD97":2543988.1901400001,"ADDRESS":"民生路二段１０９號","OBJECTID":652433},"geometry":{"x":167605.43560600001,"y":2543988.1901440006}},{"attributes":{"ID":652461,"DIS_CODE":0,"TOWNNAME":"中西區","LI":"中正里","LIN":"11鄰","STREET":"民生路","SECT":"二段","MAREA":" ","LANE":" ","ALLEY":" ","HOUSE_NO":"１１１號","E_COORD97":167602.89315300001,"N_COORD97":2543989.03681,"ADDRESS":"民生路二段１１１號","OBJECTID":652434},"geometry":{"x":167602.89315300062,"y":2543989.0368099976}},{"attributes":{"ID":652462,"DIS_CODE":0,"TOWNNAME":"中西區","LI":"中正里","LIN":"12鄰","STREET":"康樂街","SECT":" ","MAREA":" ","LANE":" ","ALLEY":" ","HOUSE_NO":"１５４號","E_COORD97":167488.27087800001,"N_COORD97":2543967.6584899998,"ADDRESS":"康樂街１５４號","OBJECTID":652435},"geometry":{"x":167488.27087800112,"y":2543967.6584890038}},{"attributes":{"ID":652463,"DIS_CODE":0,"TOWNNAME":"中西區","LI":"中正里","LIN":"13鄰","STREET":"康樂街","SECT":" ","MAREA":" ","LANE":" ","ALLEY":" ","HOUSE_NO":"１４４號","E_COORD97":167475.34674000001,"N_COORD97":2543913.89518,"ADDRESS":"康樂街１４４號","OBJECTID":652436},"geometry":{"x":167475.34674000088,"y":2543913.895184001}},{"attributes":{"ID":652464,"DIS_CODE":0,"TOWNNAME":"安南區","LI":"佃東里","LIN":"1鄰","STREET":"安吉路","SECT":"二段","MAREA":" ","LANE":" ","ALLEY":" ","HOUSE_NO":"１０１號","E_COORD97":166898.37145899999,"N_COORD97":2551505.0009599999,"ADDRESS":"安吉路二段１０１號","OBJECTID":652437},"geometry":{"x":166898.37145899981,"y":2551505.0009559989}},{"attributes":{"ID":652465,"DIS_CODE":0,"TOWNNAME":"安南區","LI":"佃東里","LIN":"3鄰","STREET":"公學路","SECT":"四段","MAREA":" ","LANE":" ","ALLEY":" ","HOUSE_NO":"４５號","E_COORD97":165782.32658200001,"N_COORD97":2552012.3656799998,"ADDRESS":"公學路四段４５號","OBJECTID":652438},"geometry":{"x":165782.32658200152,"y":2552012.3656820022}},{"attributes":{"ID":652466,"DIS_CODE":0,"TOWNNAME":"新營區","LI":"民生里","LIN":"3鄰","STREET":"中華路","SECT":" ","MAREA":" ","LANE":" ","ALLEY":" ","HOUSE_NO":"７８號","E_COORD97":179425.16926200001,"N_COORD97":2578196.2341399998,"ADDRESS":"中華路７８號","OBJECTID":652439},"geometry":{"x":179425.16926200036,"y":2578196.234143002}},{"attributes":{"ID":652467,"DIS_CODE":0,"TOWNNAME":"新營區","LI":"延平里","LIN":"5鄰","STREET":"成功街","SECT":" ","MAREA":" ","LANE":" ","ALLEY":" ","HOUSE_NO":"３６之３號","E_COORD97":179687.340077,"N_COORD97":2577883.0748700001,"ADDRESS":"成功街３６之３號","OBJECTID":652440},"geometry":{"x":179687.34007699974,"y":2577883.0748669989}},{"attributes":{"ID":652468,"DIS_CODE":0,"TOWNNAME":"新營區","LI":"延平里","LIN":"5鄰","STREET":"成功街","SECT":" ","MAREA":" ","LANE":" ","ALLEY":" ","HOUSE_NO":"３６之５號","E_COORD97":179681.40622400001,"N_COORD97":2577888.3665300002,"ADDRESS":"成功街３６之５號","OBJECTID":652441},"geometry":{"x":179681.40622400027,"y":2577888.3665309977}},{"attributes":{"ID":652469,"DIS_CODE":0,"TOWNNAME":"安南區","LI":"\u25A0南里","LIN":"12鄰","STREET":"安昌街","SECT":" ","MAREA":" ","LANE":"２７５巷","ALLEY":"３７弄","HOUSE_NO":"１７號","E_COORD97":170049.33038900001,"N_COORD97":2552635.82173,"ADDRESS":"安昌街２７５巷３７弄１７號","OBJECTID":652442},"geometry":{"x":170049.33038900141,"y":2552635.821731003}},{"attributes":{"ID":652470,"DIS_CODE":0,"TOWNNAME":"安南區","LI":"\u25A0南里","LIN":"4鄰","STREET":"環福街","SECT":" ","MAREA":" ","LANE":"２２２巷","ALLEY":"３０弄","HOUSE_NO":"１２號１","E_COORD97":170177.07199299999,"N_COORD97":2552519.9342899998,"ADDRESS":"環福街２２２巷３０弄１２號１","OBJECTID":652443},"geometry":{"x":170177.07199300174,"y":2552519.9342930019}},{"attributes":{"ID":652471,"DIS_CODE":0,"TOWNNAME":"安南區","LI":"\u25A0南里","LIN":"6鄰","STREET":"安昌街","SECT":" ","MAREA":" ","LANE":" ","ALLEY":" ","HOUSE_NO":"２１１號１","E_COORD97":170110.341304,"N_COORD97":2552523.9559599999,"ADDRESS":"安昌街２１１號１","OBJECTID":652444},"geometry":{"x":170110.34130400047,"y":2552523.9559579976}},{"attributes":{"ID":652472,"DIS_CODE":0,"TOWNNAME":"新營區","LI":"民生里","LIN":"4鄰","STREET":"三興街","SECT":" ","MAREA":" ","LANE":" ","ALLEY":" ","HOUSE_NO":"１３號","E_COORD97":179467.96947099999,"N_COORD97":2578232.0057899999,"ADDRESS":"三興街１３號","OBJECTID":652445},"geometry":{"x":179467.96947100107,"y":2578232.0057900008}},{"attributes":{"ID":652473,"DIS_CODE":0,"TOWNNAME":"中西區","LI":"西湖里","LIN":"32鄰","STREET":"和緯路","SECT":"五段","MAREA":" ","LANE":" ","ALLEY":" ","HOUSE_NO":"１８９號","E_COORD97":166255.635943,"N_COORD97":2545088.1020200001,"ADDRESS":"和緯路五段１８９號","OBJECTID":652446},"geometry":{"x":166255.6359430002,"y":2545088.1020250004}},{"attributes":{"ID":652474,"DIS_CODE":0,"TOWNNAME":"中西區","LI":"西湖里","LIN":"32鄰","STREET":"和緯路","SECT":"五段","MAREA":" ","LANE":" ","ALLEY":" ","HOUSE_NO":"１８７號","E_COORD97":166258.17964799999,"N_COORD97":2545089.1603600001,"ADDRESS":"和緯路五段１８７號","OBJECTID":652447},"geometry":{"x":166258.17964800075,"y":2545089.1603580043}},{"attributes":{"ID":652475,"DIS_CODE":0,"TOWNNAME":"中西區","LI":"西湖里","LIN":"32鄰","STREET":"和緯路","SECT":"五段","MAREA":" ","LANE":" ","ALLEY":" ","HOUSE_NO":"１８５號","E_COORD97":166260.72335399999,"N_COORD97":2545090.21869,"ADDRESS":"和緯路五段１８５號","OBJECTID":652448},"geometry":{"x":166260.7233540006,"y":2545090.2186910026}},{"attributes":{"ID":652476,"DIS_CODE":0,"TOWNNAME":"中西區","LI":"西湖里","LIN":"32鄰","STREET":"和緯路","SECT":"五段","MAREA":" ","LANE":" ","ALLEY":" ","HOUSE_NO":"１８３號","E_COORD97":166262.843108,"N_COORD97":2545090.6420200001,"ADDRESS":"和緯路五段１８３號","OBJECTID":652449},"geometry":{"x":166262.84310800023,"y":2545090.6420240011}},{"attributes":{"ID":652477,"DIS_CODE":0,"TOWNNAME":"新營區","LI":"民生里","LIN":"4鄰","STREET":"三興街","SECT":" ","MAREA":" ","LANE":" ","ALLEY":" ","HOUSE_NO":"１３號之１","E_COORD97":179467.96947099999,"N_COORD97":2578235.7628700002,"ADDRESS":"三興街１３號之１","OBJECTID":652450},"geometry":{"x":179467.96947100107,"y":2578235.762872003}},{"attributes":{"ID":652478,"DIS_CODE":0,"TOWNNAME":"新營區","LI":"民生里","LIN":"4鄰","STREET":"三興街","SECT":" ","MAREA":" ","LANE":" ","ALLEY":" ","HOUSE_NO":"１３號之２","E_COORD97":179466.592237,"N_COORD97":2578240.20787,"ADDRESS":"三興街１３號之２","OBJECTID":652451},"geometry":{"x":179466.59223700128,"y":2578240.2078690026}},{"attributes":{"ID":652479,"DIS_CODE":0,"TOWNNAME":"新營區","LI":"好平里","LIN":"6鄰","STREET":"和平路","SECT":" ","MAREA":" ","LANE":" ","ALLEY":" ","HOUSE_NO":"５３號之３","E_COORD97":179422.92875399999,"N_COORD97":2577772.21955,"ADDRESS":"和平路５３號之３","OBJECTID":652452},"geometry":{"x":179422.92875399999,"y":2577772.2195539996}},{"attributes":{"ID":652480,"DIS_CODE":0,"TOWNNAME":"中西區","LI":"福安里","LIN":"17鄰","STREET":"友愛街","SECT":" ","MAREA":" ","LANE":" ","ALLEY":" ","HOUSE_NO":"８０之３號","E_COORD97":167967.33773699999,"N_COORD97":2543575.9561700001,"ADDRESS":"友愛街８０之３號","OBJECTID":652453},"geometry":{"x":167967.33773699962,"y":2543575.9561750013}},{"attributes":{"ID":652481,"DIS_CODE":0,"TOWNNAME":"新營區","LI":"延平里","LIN":"5鄰","STREET":"長春街","SECT":" ","MAREA":" ","LANE":" ","ALLEY":" ","HOUSE_NO":"２之７號","E_COORD97":179744.983224,"N_COORD97":2577928.1598399999,"ADDRESS":"長春街２之７號","OBJECTID":652454},"geometry":{"x":179744.98322399985,"y":2577928.1598429997}},{"attributes":{"ID":652482,"DIS_CODE":0,"TOWNNAME":"新營區","LI":"好平里","LIN":"6鄰","STREET":"和平路","SECT":" ","MAREA":" ","LANE":" ","ALLEY":" ","HOUSE_NO":"５３號之４","E_COORD97":179422.504919,"N_COORD97":2577768.19789,"ADDRESS":"和平路５３號之４","OBJECTID":652455},"geometry":{"x":179422.5049190009,"y":2577768.1978890039}},{"attributes":{"ID":652483,"DIS_CODE":0,"TOWNNAME":"安平區","LI":"海頭里","LIN":"13鄰","STREET":"安北路","SECT":" ","MAREA":" ","LANE":"１２１巷","ALLEY":"１６弄","HOUSE_NO":"１１號","E_COORD97":164146.35814999999,"N_COORD97":2544749.5015500002,"ADDRESS":"安北路１２１巷１６弄１１號","OBJECTID":652456},"geometry":{"x":164146.35814999975,"y":2544749.501554003}},{"attributes":{"ID":652484,"DIS_CODE":0,"TOWNNAME":"新營區","LI":"好平里","LIN":"6鄰","STREET":"和平路","SECT":" ","MAREA":" ","LANE":" ","ALLEY":" ","HOUSE_NO":"５３之５號","E_COORD97":179423.35258899999,"N_COORD97":2577763.32956,"ADDRESS":"和平路５３之５號","OBJECTID":652457},"geometry":{"x":179423.35258900095,"y":2577763.3295580018}},{"attributes":{"ID":652485,"DIS_CODE":0,"TOWNNAME":"新營區","LI":"好平里","LIN":"6鄰","STREET":"和平路","SECT":" ","MAREA":" ","LANE":" ","ALLEY":" ","HOUSE_NO":"５３號之６","E_COORD97":179422.92875399999,"N_COORD97":2577759.4137300001,"ADDRESS":"和平路５３號之６","OBJECTID":652458},"geometry":{"x":179422.92875399999,"y":2577759.4137270004}},{"attributes":{"ID":652486,"DIS_CODE":0,"TOWNNAME":"新營區","LI":"好平里","LIN":"6鄰","STREET":"和平路","SECT":" ","MAREA":" ","LANE":" ","ALLEY":" ","HOUSE_NO":"５３號之７","E_COORD97":179422.504919,"N_COORD97":2577754.7570600002,"ADDRESS":"和平路５３號之７","OBJECTID":652459},"geometry":{"x":179422.5049190009,"y":2577754.7570629995}},{"attributes":{"ID":652487,"DIS_CODE":0,"TOWNNAME":"安平區","LI":"海頭里","LIN":"7鄰","STREET":"延平街","SECT":" ","MAREA":" ","LANE":" ","ALLEY":" ","HOUSE_NO":"１２８號","E_COORD97":164102.06947700001,"N_COORD97":2544614.45829,"ADDRESS":"延平街１２８號","OBJECTID":652460},"geometry":{"x":164102.06947700121,"y":2544614.4582930002}},{"attributes":{"ID":652488,"DIS_CODE":0,"TOWNNAME":"北門區","LI":"永華里","LIN":"1鄰","STREET":" ","SECT":" ","MAREA":"井子\u25A0","LANE":" ","ALLEY":" ","HOUSE_NO":"５號之１","E_COORD97":160251.96815999999,"N_COORD97":2573118.0901500001,"ADDRESS":"井子\u25A0５號之１","OBJECTID":652461},"geometry":{"x":160251.96816000063,"y":2573118.0901499987}},{"attributes":{"ID":652489,"DIS_CODE":0,"TOWNNAME":"新營區","LI":"好平里","LIN":"6鄰","STREET":"和平路","SECT":" ","MAREA":" ","LANE":" ","ALLEY":" ","HOUSE_NO":"５５號之１","E_COORD97":179423.77642400001,"N_COORD97":2577746.71373,"ADDRESS":"和平路５５號之１","OBJECTID":652462},"geometry":{"x":179423.77642400004,"y":2577746.7137340028}},{"attributes":{"ID":652490,"DIS_CODE":0,"TOWNNAME":"新營區","LI":"好平里","LIN":"6鄰","STREET":"長春街","SECT":" ","MAREA":" ","LANE":" ","ALLEY":" ","HOUSE_NO":"１４５號","E_COORD97":179438.610648,"N_COORD97":2577803.8637000001,"ADDRESS":"長春街１４５號","OBJECTID":652463},"geometry":{"x":179438.61064799875,"y":2577803.8637030032}},{"attributes":{"ID":652491,"DIS_CODE":0,"TOWNNAME":"中西區","LI":"福安里","LIN":"18鄰","STREET":"友愛街","SECT":" ","MAREA":" ","LANE":" ","ALLEY":" ","HOUSE_NO":"８２之１號","E_COORD97":167935.49633200001,"N_COORD97":2543571.2057400001,"ADDRESS":"友愛街８２之１號","OBJECTID":652464},"geometry":{"x":167935.49633200094,"y":2543571.2057420015}},{"attributes":{"ID":652492,"DIS_CODE":0,"TOWNNAME":"新營區","LI":"民生里","LIN":"4鄰","STREET":"三興街","SECT":" ","MAREA":" ","LANE":" ","ALLEY":" ","HOUSE_NO":"１５號之２","E_COORD97":179465.320943,"N_COORD97":2578265.13161,"ADDRESS":"三興街１５號之２","OBJECTID":652465},"geometry":{"x":179465.32094300073,"y":2578265.1316060014}},{"attributes":{"ID":652493,"DIS_CODE":0,"TOWNNAME":"新營區","LI":"民生里","LIN":"4鄰","STREET":"三興街","SECT":" ","MAREA":" ","LANE":" ","ALLEY":" ","HOUSE_NO":"１５號之３","E_COORD97":179465.00312000001,"N_COORD97":2578267.7774399999,"ADDRESS":"三興街１５號之３","OBJECTID":652466},"geometry":{"x":179465.00311999954,"y":2578267.7774380017}},{"attributes":{"ID":652494,"DIS_CODE":0,"TOWNNAME":"新營區","LI":"延平里","LIN":"5鄰","STREET":"長春街","SECT":" ","MAREA":" ","LANE":" ","ALLEY":" ","HOUSE_NO":"２之２１號","E_COORD97":179716.161651,"N_COORD97":2577911.4381800001,"ADDRESS":"長春街２之２１號","OBJECTID":652467},"geometry":{"x":179716.16165100038,"y":2577911.4381850008}},{"attributes":{"ID":652495,"DIS_CODE":0,"TOWNNAME":"新營區","LI":"延平里","LIN":"5鄰","STREET":"長春街","SECT":" ","MAREA":" ","LANE":" ","ALLEY":" ","HOUSE_NO":"２之２２號","E_COORD97":179714.46626399999,"N_COORD97":2577909.95652,"ADDRESS":"長春街２之２２號","OBJECTID":652468},"geometry":{"x":179714.46626400203,"y":2577909.9565190002}},{"attributes":{"ID":652496,"DIS_CODE":0,"TOWNNAME":"新營區","LI":"延平里","LIN":"5鄰","STREET":"長春街","SECT":" ","MAREA":" ","LANE":" ","ALLEY":" ","HOUSE_NO":"２之２３號","E_COORD97":179713.406647,"N_COORD97":2577909.1098500001,"ADDRESS":"長春街２之２３號","OBJECTID":652469},"geometry":{"x":179713.40664700046,"y":2577909.1098530032}},{"attributes":{"ID":652497,"DIS_CODE":0,"TOWNNAME":"新營區","LI":"延平里","LIN":"5鄰","STREET":"長春街","SECT":" ","MAREA":" ","LANE":" ","ALLEY":" ","HOUSE_NO":"２號之２４","E_COORD97":179711.92318000001,"N_COORD97":2577908.0515200002,"ADDRESS":"長春街２之２４號","OBJECTID":652470},"geometry":{"x":179711.92318000179,"y":2577908.0515200049}},{"attributes":{"ID":652498,"DIS_CODE":0,"TOWNNAME":"新營區","LI":"延平里","LIN":"5鄰","STREET":"長春街","SECT":" ","MAREA":" ","LANE":" ","ALLEY":" ","HOUSE_NO":"２之２５號","E_COORD97":179710.86356699999,"N_COORD97":2577907.2048499999,"ADDRESS":"長春街２之２５號","OBJECTID":652471},"geometry":{"x":179710.86356699932,"y":2577907.2048540022}},{"attributes":{"ID":652499,"DIS_CODE":0,"TOWNNAME":"新營區","LI":"延平里","LIN":"5鄰","STREET":"長春街","SECT":" ","MAREA":" ","LANE":" ","ALLEY":" ","HOUSE_NO":"２之２６號","E_COORD97":179709.16818099999,"N_COORD97":2577906.7815200002,"ADDRESS":"長春街２之２６號","OBJECTID":652472},"geometry":{"x":179709.16818100028,"y":2577906.781521}},{"attributes":{"ID":652500,"DIS_CODE":0,"TOWNNAME":"新營區","LI":"延平里","LIN":"5鄰","STREET":"長春街","SECT":" ","MAREA":" ","LANE":" ","ALLEY":" ","HOUSE_NO":"２號之２７","E_COORD97":179707.68471,"N_COORD97":2577905.9348499998,"ADDRESS":"長春街２之２７號","OBJECTID":652473},"geometry":{"x":179707.68470999971,"y":2577905.9348500017}},{"attributes":{"ID":652501,"DIS_CODE":0,"TOWNNAME":"新營區","LI":"延平里","LIN":"5鄰","STREET":"長春街","SECT":" ","MAREA":" ","LANE":" ","ALLEY":" ","HOUSE_NO":"２之２８號","E_COORD97":179705.56548399999,"N_COORD97":2577904.4531899998,"ADDRESS":"長春街２之２８號","OBJECTID":652474},"geometry":{"x":179705.56548400037,"y":2577904.4531890023}},{"attributes":{"ID":652502,"DIS_CODE":0,"TOWNNAME":"新營區","LI":"延平里","LIN":"5鄰","STREET":"長春街","SECT":" ","MAREA":" ","LANE":" ","ALLEY":" ","HOUSE_NO":"２之２９號","E_COORD97":179703.02240399999,"N_COORD97":2577902.54819,"ADDRESS":"長春街２之２９號","OBJECTID":652475},"geometry":{"x":179703.02240400016,"y":2577902.5481900014}},{"attributes":{"ID":652503,"DIS_CODE":0,"TOWNNAME":"新營區","LI":"延平里","LIN":"5鄰","STREET":"長春街","SECT":" ","MAREA":" ","LANE":" ","ALLEY":" ","HOUSE_NO":"２之３０號","E_COORD97":179700.05547699999,"N_COORD97":2577901.27819,"ADDRESS":"長春街２之３０號","OBJECTID":652476},"geometry":{"x":179700.05547699984,"y":2577901.2781900018}},{"attributes":{"ID":652504,"DIS_CODE":0,"TOWNNAME":"新營區","LI":"好平里","LIN":"6鄰","STREET":"長春街","SECT":" ","MAREA":" ","LANE":" ","ALLEY":" ","HOUSE_NO":"１７８號","E_COORD97":179433.41999699999,"N_COORD97":2577817.1987000001,"ADDRESS":"長春街１７８號","OBJECTID":652477},"geometry":{"x":179433.41999700014,"y":2577817.1986960005}},{"attributes":{"ID":652505,"DIS_CODE":0,"TOWNNAME":"山上區","LI":"平陽里","LIN":"5鄰","STREET":" ","SECT":" ","MAREA":"卓猴","LANE":" ","ALLEY":" ","HOUSE_NO":"１號","E_COORD97":186846.360629,"N_COORD97":2553145.3653099998,"ADDRESS":"卓猴１號","OBJECTID":652478},"geometry":{"x":186846.36062900163,"y":2553145.365306003}},{"attributes":{"ID":652506,"DIS_CODE":0,"TOWNNAME":"新營區","LI":"民生里","LIN":"4鄰","STREET":"三興街","SECT":" ","MAREA":" ","LANE":" ","ALLEY":" ","HOUSE_NO":"２５號","E_COORD97":179406.87928600001,"N_COORD97":2578453.1198499999,"ADDRESS":"三興街２５號","OBJECTID":652479},"geometry":{"x":179406.87928599864,"y":2578453.1198520008}},{"attributes":{"ID":652507,"DIS_CODE":0,"TOWNNAME":"安南區","LI":"\u25A0南里","LIN":"4鄰","STREET":"環福街","SECT":" ","MAREA":" ","LANE":"６１巷","ALLEY":" ","HOUSE_NO":"３號","E_COORD97":170236.44629699999,"N_COORD97":2552499.4000499998,"ADDRESS":"環福街６１巷３號","OBJECTID":652480},"geometry":{"x":170236.44629700016,"y":2552499.4000520017}},{"attributes":{"ID":652508,"DIS_CODE":0,"TOWNNAME":"安南區","LI":"\u25A0南里","LIN":"4鄰","STREET":"環福街","SECT":" ","MAREA":" ","LANE":"６１巷","ALLEY":" ","HOUSE_NO":"５號","E_COORD97":170240.36540099999,"N_COORD97":2552499.1883899998,"ADDRESS":"環福街６１巷５號","OBJECTID":652481},"geometry":{"x":170240.36540100072,"y":2552499.1883850005}},{"attributes":{"ID":652509,"DIS_CODE":0,"TOWNNAME":"新營區","LI":"好平里","LIN":"6鄰","STREET":"長春街","SECT":" ","MAREA":" ","LANE":" ","ALLEY":" ","HOUSE_NO":"１７６號","E_COORD97":179441.049027,"N_COORD97":2577816.6695300001,"ADDRESS":"長春街１７６號","OBJECTID":652482},"geometry":{"x":179441.04902700055,"y":2577816.6695300005}},{"attributes":{"ID":652510,"DIS_CODE":0,"TOWNNAME":"新營區","LI":"民生里","LIN":"4鄰","STREET":"三興街","SECT":" ","MAREA":" ","LANE":" ","ALLEY":" ","HOUSE_NO":"２３號之１樓","E_COORD97":179420.318673,"N_COORD97":2578441.6898599998,"ADDRESS":"三興街２３號之１樓","OBJECTID":652483},"geometry":{"x":179420.3186730016,"y":2578441.6898590028}},{"attributes":{"ID":652511,"DIS_CODE":0,"TOWNNAME":"新營區","LI":"好平里","LIN":"6鄰","STREET":"長春街","SECT":" ","MAREA":" ","LANE":" ","ALLEY":" ","HOUSE_NO":"１７６號之１","E_COORD97":179437.446429,"N_COORD97":2577817.3045299998,"ADDRESS":"長春街１７６號之１","OBJECTID":652484},"geometry":{"x":179437.44642900117,"y":2577817.3045290001}},{"attributes":{"ID":652512,"DIS_CODE":0,"TOWNNAME":"安南區","LI":"\u25A0南里","LIN":"4鄰","STREET":"環福街","SECT":" ","MAREA":" ","LANE":"６１巷","ALLEY":" ","HOUSE_NO":"５號","E_COORD97":170240.57724399999,"N_COORD97":2552499.1883899998,"ADDRESS":"環福街６１巷５號","OBJECTID":652485},"geometry":{"x":170240.57724400051,"y":2552499.1883850005}},{"attributes":{"ID":652513,"DIS_CODE":0,"TOWNNAME":"新營區","LI":"民生里","LIN":"4鄰","STREET":"三興街","SECT":" ","MAREA":" ","LANE":" ","ALLEY":" ","HOUSE_NO":"２５號之１樓","E_COORD97":179380.726967,"N_COORD97":2578429.3527199998,"ADDRESS":"三興街２５號之１樓","OBJECTID":652486},"geometry":{"x":179380.7269670004,"y":2578429.3527220022}},{"attributes":{"ID":652514,"DIS_CODE":0,"TOWNNAME":"新營區","LI":"好平里","LIN":"6鄰","STREET":"長春街","SECT":" ","MAREA":" ","LANE":" ","ALLEY":" ","HOUSE_NO":"１８２號","E_COORD97":179423.03604100001,"N_COORD97":2577817.72786,"ADDRESS":"長春街１８２號","OBJECTID":652487},"geometry":{"x":179423.03604099993,"y":2577817.7278619986}},{"attributes":{"ID":652515,"DIS_CODE":0,"TOWNNAME":"新營區","LI":"好平里","LIN":"6鄰","STREET":"和平路","SECT":" ","MAREA":" ","LANE":" ","ALLEY":" ","HOUSE_NO":"４９號","E_COORD97":179420.49303099999,"N_COORD97":2577829.3695200002,"ADDRESS":"和平路４９號","OBJECTID":652488},"geometry":{"x":179420.49303099979,"y":2577829.3695230037}},{"attributes":{"ID":652516,"DIS_CODE":0,"TOWNNAME":"新營區","LI":"好平里","LIN":"7鄰","STREET":"和平路","SECT":" ","MAREA":" ","LANE":" ","ALLEY":" ","HOUSE_NO":"４５之４號","E_COORD97":179419.645361,"N_COORD97":2577847.7845100001,"ADDRESS":"和平路４５之４號","OBJECTID":652489},"geometry":{"x":179419.64536099974,"y":2577847.7845130004}},{"attributes":{"ID":652517,"DIS_CODE":0,"TOWNNAME":"新營區","LI":"好平里","LIN":"7鄰","STREET":"和平路","SECT":" ","MAREA":" ","LANE":" ","ALLEY":" ","HOUSE_NO":"４５號之３","E_COORD97":179419.43344299999,"N_COORD97":2577852.0178399999,"ADDRESS":"和平路４５號之３","OBJECTID":652490},"geometry":{"x":179419.43344300054,"y":2577852.0178440027}},{"attributes":{"ID":652518,"DIS_CODE":0,"TOWNNAME":"官田區","LI":"嘉南里","LIN":"7鄰","STREET":" ","SECT":" ","MAREA":"嘉南","LANE":" ","ALLEY":" ","HOUSE_NO":"７６號之５","E_COORD97":184116.40009499999,"N_COORD97":2567786.4387699999,"ADDRESS":"嘉南７６號之５","OBJECTID":652491},"geometry":{"x":184116.40009500179,"y":2567786.4387689997}},{"attributes":{"ID":652519,"DIS_CODE":0,"TOWNNAME":"官田區","LI":"嘉南里","LIN":"7鄰","STREET":" ","SECT":" ","MAREA":"嘉南","LANE":" ","ALLEY":" ","HOUSE_NO":"７６號之６","E_COORD97":183978.28599999999,"N_COORD97":2567688.2450000001,"ADDRESS":"嘉南７６號之６","OBJECTID":652492},"geometry":{"x":183978.28600000124,"y":2567688.2450000029}},{"attributes":{"ID":652520,"DIS_CODE":0,"TOWNNAME":"善化區","LI":"坐駕里","LIN":"22鄰","STREET":" ","SECT":" ","MAREA":"坐駕","LANE":" ","ALLEY":" ","HOUSE_NO":"４５之５號","E_COORD97":177936.22378500001,"N_COORD97":2558004.95762,"ADDRESS":"坐駕４５之５號","OBJECTID":652493},"geometry":{"x":177936.22378499992,"y":2558004.9576210044}},{"attributes":{"ID":652521,"DIS_CODE":0,"TOWNNAME":"善化區","LI":"坐駕里","LIN":"22鄰","STREET":" ","SECT":" ","MAREA":"坐駕","LANE":" ","ALLEY":" ","HOUSE_NO":"１３號之６","E_COORD97":178152.23293999999,"N_COORD97":2558414.3207299998,"ADDRESS":"坐駕１３號之６","OBJECTID":652494},"geometry":{"x":178152.23293999955,"y":2558414.3207300026}},{"attributes":{"ID":652522,"DIS_CODE":0,"TOWNNAME":"北門區","LI":"永華里","LIN":"1鄰","STREET":" ","SECT":" ","MAREA":"井子\u25A0","LANE":" ","ALLEY":" ","HOUSE_NO":"３號之１","E_COORD97":160235.54858800001,"N_COORD97":2573163.5986199998,"ADDRESS":"井子\u25A0３號之１","OBJECTID":652495},"geometry":{"x":160235.5485880021,"y":2573163.5986150019}},{"attributes":{"ID":652523,"DIS_CODE":0,"TOWNNAME":"北門區","LI":"永華里","LIN":"3鄰","STREET":" ","SECT":" ","MAREA":"井子\u25A0","LANE":" ","ALLEY":" ","HOUSE_NO":"２４號之１","E_COORD97":159894.65390999999,"N_COORD97":2572962.0920600002,"ADDRESS":"井子\u25A0２４號之１","OBJECTID":652496},"geometry":{"x":159894.65390999988,"y":2572962.0920579992}},{"attributes":{"ID":652524,"DIS_CODE":0,"TOWNNAME":"善化區","LI":"坐駕里","LIN":"2鄰","STREET":"青年路","SECT":" ","MAREA":" ","LANE":" ","ALLEY":" ","HOUSE_NO":"１９６號","E_COORD97":177822.28954200001,"N_COORD97":2559004.87041,"ADDRESS":"青年路１９６號","OBJECTID":652497},"geometry":{"x":177822.28954200074,"y":2559004.8704140037}},{"attributes":{"ID":652525,"DIS_CODE":0,"TOWNNAME":"北門區","LI":"永華里","LIN":"3鄰","STREET":" ","SECT":" ","MAREA":"井子\u25A0","LANE":" ","ALLEY":" ","HOUSE_NO":"２５之１號","E_COORD97":159867.74674800001,"N_COORD97":2572972.67539,"ADDRESS":"井子\u25A0２５之１號","OBJECTID":652498},"geometry":{"x":159867.74674800038,"y":2572972.6753850002}},{"attributes":{"ID":652526,"DIS_CODE":0,"TOWNNAME":"北門區","LI":"永華里","LIN":"2鄰","STREET":" ","SECT":" ","MAREA":"井子\u25A0","LANE":" ","ALLEY":" ","HOUSE_NO":"２０號之２","E_COORD97":159837.23783900001,"N_COORD97":2572964.4203900001,"ADDRESS":"井子\u25A0２０號之２","OBJECTID":652499},"geometry":{"x":159837.23783899937,"y":2572964.4203900006}},{"attributes":{"ID":652527,"DIS_CODE":0,"TOWNNAME":"中西區","LI":"開山里","LIN":"22鄰","STREET":"開山路","SECT":" ","MAREA":" ","LANE":"２６３巷","ALLEY":" ","HOUSE_NO":"２號","E_COORD97":169076.503322,"N_COORD97":2542954.99541,"ADDRESS":"開山路２６３巷２號","OBJECTID":652500},"geometry":{"x":169076.50332200062,"y":2542954.9954080041}},{"attributes":{"ID":652528,"DIS_CODE":0,"TOWNNAME":"山上區","LI":"平陽里","LIN":"5鄰","STREET":" ","SECT":" ","MAREA":"卓猴","LANE":" ","ALLEY":" ","HOUSE_NO":"６號","E_COORD97":187268.19,"N_COORD97":2553629.25,"ADDRESS":"卓猴６號","OBJECTID":652501},"geometry":{"x":187268.19000000227,"y":2553629.25}},{"attributes":{"ID":652529,"DIS_CODE":0,"TOWNNAME":"中西區","LI":"開山里","LIN":"22鄰","STREET":"開山路","SECT":" ","MAREA":" ","LANE":"２６３巷","ALLEY":" ","HOUSE_NO":"４號","E_COORD97":169073.960705,"N_COORD97":2542958.3820699998,"ADDRESS":"開山路２６３巷４號","OBJECTID":652502},"geometry":{"x":169073.96070500091,"y":2542958.3820730001}},{"attributes":{"ID":652530,"DIS_CODE":0,"TOWNNAME":"中西區","LI":"開山里","LIN":"12鄰","STREET":"大同路","SECT":"一段","MAREA":" ","LANE":"４６巷","ALLEY":" ","HOUSE_NO":"４號","E_COORD97":169111.04053299999,"N_COORD97":2543136.2878100001,"ADDRESS":"大同路一段４６巷４號","OBJECTID":652503},"geometry":{"x":169111.04053300153,"y":2543136.2878100015}},{"attributes":{"ID":652531,"DIS_CODE":0,"TOWNNAME":"山上區","LI":"平陽里","LIN":"5鄰","STREET":" ","SECT":" ","MAREA":"卓猴","LANE":" ","ALLEY":" ","HOUSE_NO":"５號之１","E_COORD97":187146.84111800001,"N_COORD97":2553651.3167400002,"ADDRESS":"卓猴５號之１","OBJECTID":652504},"geometry":{"x":187146.84111800045,"y":2553651.3167389985}},{"attributes":{"ID":652532,"DIS_CODE":0,"TOWNNAME":"山上區","LI":"平陽里","LIN":"5鄰","STREET":" ","SECT":" ","MAREA":"卓猴","LANE":" ","ALLEY":" ","HOUSE_NO":"４號","E_COORD97":187218.03019600001,"N_COORD97":2553420.4943599999,"ADDRESS":"卓猴４號","OBJECTID":652505},"geometry":{"x":187218.03019599989,"y":2553420.4943640009}},{"attributes":{"ID":652533,"DIS_CODE":0,"TOWNNAME":"中西區","LI":"開山里","LIN":"9鄰","STREET":"府前路","SECT":"一段","MAREA":" ","LANE":"４９巷","ALLEY":" ","HOUSE_NO":"１４號","E_COORD97":169016.32805899999,"N_COORD97":2543217.4619300002,"ADDRESS":"府前路一段４９巷１４號","OBJECTID":652506},"geometry":{"x":169016.32805900089,"y":2543217.461933}},{"attributes":{"ID":652534,"DIS_CODE":0,"TOWNNAME":"中西區","LI":"開山里","LIN":"9鄰","STREET":"府前路","SECT":"一段","MAREA":" ","LANE":"６１巷","ALLEY":" ","HOUSE_NO":"１３號","E_COORD97":169005.098168,"N_COORD97":2543232.38442,"ADDRESS":"府前路一段６１巷１３號","OBJECTID":652507},"geometry":{"x":169005.09816800151,"y":2543232.3844250012}},{"attributes":{"ID":652535,"DIS_CODE":0,"TOWNNAME":"中西區","LI":"開山里","LIN":"9鄰","STREET":"府前路","SECT":"一段","MAREA":" ","LANE":"６１巷","ALLEY":" ","HOUSE_NO":"９號","E_COORD97":169004.674398,"N_COORD97":2543235.3477599998,"ADDRESS":"府前路一段６１巷９號","OBJECTID":652508},"geometry":{"x":169004.67439800221,"y":2543235.3477570023}},{"attributes":{"ID":652536,"DIS_CODE":0,"TOWNNAME":"中西區","LI":"開山里","LIN":"16鄰","STREET":"大同路","SECT":"一段","MAREA":" ","LANE":"７０巷","ALLEY":" ","HOUSE_NO":"１９號","E_COORD97":169083.07174799999,"N_COORD97":2543027.1737000002,"ADDRESS":"大同路一段７０巷１９號","OBJECTID":652509},"geometry":{"x":169083.07174799964,"y":2543027.1737019997}},{"attributes":{"ID":652537,"DIS_CODE":0,"TOWNNAME":"中西區","LI":"開山里","LIN":"22鄰","STREET":"開山路","SECT":" ","MAREA":" ","LANE":" ","ALLEY":" ","HOUSE_NO":"２８５號","E_COORD97":169073.113166,"N_COORD97":2542902.60794,"ADDRESS":"開山路２８５號","OBJECTID":652510},"geometry":{"x":169073.11316600163,"y":2542902.6079360023}},{"attributes":{"ID":652538,"DIS_CODE":0,"TOWNNAME":"新營區","LI":"好平里","LIN":"7鄰","STREET":"和平路","SECT":" ","MAREA":" ","LANE":"４７巷","ALLEY":" ","HOUSE_NO":"１號","E_COORD97":179421.65724900001,"N_COORD97":2577838.15368,"ADDRESS":"和平路４７巷１號","OBJECTID":652511},"geometry":{"x":179421.65724900085,"y":2577838.1536849998}},{"attributes":{"ID":652539,"DIS_CODE":0,"TOWNNAME":"新營區","LI":"好平里","LIN":"7鄰","STREET":"和平路","SECT":" ","MAREA":" ","LANE":" ","ALLEY":" ","HOUSE_NO":"４５號","E_COORD97":179419.749992,"N_COORD97":2577863.977,"ADDRESS":"和平路４５號","OBJECTID":652512},"geometry":{"x":179419.74999200087,"y":2577863.9770039991}},{"attributes":{"ID":652540,"DIS_CODE":0,"TOWNNAME":"新營區","LI":"好平里","LIN":"7鄰","STREET":"和平路","SECT":" ","MAREA":" ","LANE":" ","ALLEY":" ","HOUSE_NO":"４３號","E_COORD97":179420.17382699999,"N_COORD97":2577890.4353200002,"ADDRESS":"和平路４３號","OBJECTID":652513},"geometry":{"x":179420.17382699996,"y":2577890.4353230018}},{"attributes":{"ID":652541,"DIS_CODE":0,"TOWNNAME":"北門區","LI":"永華里","LIN":"5鄰","STREET":" ","SECT":" ","MAREA":"井子\u25A0","LANE":" ","ALLEY":" ","HOUSE_NO":"４５號之３","E_COORD97":159541.311644,"N_COORD97":2573079.4081700002,"ADDRESS":"井子\u25A0４５號之３","OBJECTID":652514},"geometry":{"x":159541.31164400093,"y":2573079.4081690013}},{"attributes":{"ID":652542,"DIS_CODE":0,"TOWNNAME":"新營區","LI":"好平里","LIN":"7鄰","STREET":"和平路","SECT":" ","MAREA":" ","LANE":"４７巷","ALLEY":" ","HOUSE_NO":"４號","E_COORD97":179444.75625499999,"N_COORD97":2577864.2944999998,"ADDRESS":"和平路４７巷４號","OBJECTID":652515},"geometry":{"x":179444.75625500083,"y":2577864.2945040017}},{"attributes":{"ID":652543,"DIS_CODE":0,"TOWNNAME":"楠西區","LI":"鹿田里","LIN":"11鄰","STREET":" ","SECT":" ","MAREA":"油車","LANE":" ","ALLEY":" ","HOUSE_NO":"５９號之１","E_COORD97":198040,"N_COORD97":2562573,"ADDRESS":"油車５９號之１","OBJECTID":652516},"geometry":{"x":198040,"y":2562573.0000000037}},{"attributes":{"ID":652544,"DIS_CODE":0,"TOWNNAME":"新營區","LI":"嘉芳里","LIN":"14鄰","STREET":"新芳街","SECT":" ","MAREA":" ","LANE":" ","ALLEY":" ","HOUSE_NO":"１０號","E_COORD97":176649.524519,"N_COORD97":2578530.0744400001,"ADDRESS":"新芳街１０號","OBJECTID":652517},"geometry":{"x":176649.52451900207,"y":2578530.0744390003}},{"attributes":{"ID":652545,"DIS_CODE":0,"TOWNNAME":"新營區","LI":"好平里","LIN":"7鄰","STREET":"和平路","SECT":" ","MAREA":" ","LANE":"４７巷","ALLEY":" ","HOUSE_NO":"５號","E_COORD97":179431.19353600001,"N_COORD97":2577878.6878300002,"ADDRESS":"和平路４７巷５號","OBJECTID":652518},"geometry":{"x":179431.19353600033,"y":2577878.687828999}},{"attributes":{"ID":652546,"DIS_CODE":0,"TOWNNAME":"新營區","LI":"好平里","LIN":"7鄰","STREET":"和平路","SECT":" ","MAREA":" ","LANE":"４７巷","ALLEY":" ","HOUSE_NO":"５號之１","E_COORD97":179433.10079299999,"N_COORD97":2577871.7028299998,"ADDRESS":"和平路４７巷５號之１","OBJECTID":652519},"geometry":{"x":179433.10079300031,"y":2577871.7028330043}},{"attributes":{"ID":652547,"DIS_CODE":0,"TOWNNAME":"善化區","LI":"坐駕里","LIN":"7鄰","STREET":"大成路","SECT":" ","MAREA":" ","LANE":" ","ALLEY":" ","HOUSE_NO":"４３２號之１","E_COORD97":177738.71966,"N_COORD97":2558785.4341699998,"ADDRESS":"大成路４３２號之１","OBJECTID":652520},"geometry":{"x":177738.71965999994,"y":2558785.4341700021}},{"attributes":{"ID":652548,"DIS_CODE":0,"TOWNNAME":"北門區","LI":"永華里","LIN":"5鄰","STREET":" ","SECT":" ","MAREA":"井子\u25A0","LANE":" ","ALLEY":" ","HOUSE_NO":"４３之３號","E_COORD97":159610.34293099999,"N_COORD97":2572816.5429500001,"ADDRESS":"井子\u25A0４３之３號","OBJECTID":652521},"geometry":{"x":159610.34293100052,"y":2572816.5429470018}},{"attributes":{"ID":652549,"DIS_CODE":0,"TOWNNAME":"楠西區","LI":"鹿田里","LIN":"11鄰","STREET":" ","SECT":" ","MAREA":"油車","LANE":" ","ALLEY":" ","HOUSE_NO":"６０號","E_COORD97":197816,"N_COORD97":2562635,"ADDRESS":"油車６０號","OBJECTID":652522},"geometry":{"x":197816,"y":2562635.0000000019}},{"attributes":{"ID":652550,"DIS_CODE":0,"TOWNNAME":"新營區","LI":"好平里","LIN":"7鄰","STREET":"和平路","SECT":" ","MAREA":" ","LANE":"４７巷","ALLEY":" ","HOUSE_NO":"９號","E_COORD97":179437.33914299999,"N_COORD97":2577862.6011700002,"ADDRESS":"和平路４７巷９號","OBJECTID":652523},"geometry":{"x":179437.33914300054,"y":2577862.6011709999}},{"attributes":{"ID":652551,"DIS_CODE":0,"TOWNNAME":"新營區","LI":"新東里","LIN":"19鄰","STREET":"東學路","SECT":" ","MAREA":" ","LANE":"８０巷","ALLEY":"８弄","HOUSE_NO":"６號","E_COORD97":180878.03580799999,"N_COORD97":2579281.77936,"ADDRESS":"東學路８０巷８弄６號","OBJECTID":652524},"geometry":{"x":180878.03580799978,"y":2579281.7793560028}},{"attributes":{"ID":652552,"DIS_CODE":0,"TOWNNAME":"新營區","LI":"新東里","LIN":"19鄰","STREET":"東學路","SECT":" ","MAREA":" ","LANE":"８０巷","ALLEY":"８弄","HOUSE_NO":"８號","E_COORD97":180872.42092900001,"N_COORD97":2579281.3560199998,"ADDRESS":"東學路８０巷８弄８號","OBJECTID":652525},"geometry":{"x":180872.42092899978,"y":2579281.3560230043}},{"attributes":{"ID":652553,"DIS_CODE":0,"TOWNNAME":"中西區","LI":"中正里","LIN":"9鄰","STREET":"正德街","SECT":" ","MAREA":" ","LANE":"１３巷","ALLEY":" ","HOUSE_NO":"１號","E_COORD97":167505.63764299999,"N_COORD97":2543841.1810599999,"ADDRESS":"正德街１３巷１號","OBJECTID":652526},"geometry":{"x":167505.63764300011,"y":2543841.1810640004}},{"attributes":{"ID":652554,"DIS_CODE":0,"TOWNNAME":"中西區","LI":"中正里","LIN":"9鄰","STREET":"康樂街","SECT":" ","MAREA":" ","LANE":"１１４巷","ALLEY":" ","HOUSE_NO":"１號","E_COORD97":167470.572973,"N_COORD97":2543833.9844,"ADDRESS":"康樂街１１４巷１號","OBJECTID":652527},"geometry":{"x":167470.57297299989,"y":2543833.9844010007}},{"attributes":{"ID":652555,"DIS_CODE":0,"TOWNNAME":"中西區","LI":"中正里","LIN":"9鄰","STREET":"康樂街","SECT":" ","MAREA":" ","LANE":"１１４巷","ALLEY":" ","HOUSE_NO":"７號","E_COORD97":167475.65788000001,"N_COORD97":2543832.2910699998,"ADDRESS":"康樂街１１４巷７號","OBJECTID":652528},"geometry":{"x":167475.65788000077,"y":2543832.291069001}},{"attributes":{"ID":652556,"DIS_CODE":0,"TOWNNAME":"新營區","LI":"好平里","LIN":"8鄰","STREET":"長春街","SECT":" ","MAREA":" ","LANE":"１３４巷","ALLEY":" ","HOUSE_NO":"１３之１號","E_COORD97":179487.13975100001,"N_COORD97":2577870.4328299998,"ADDRESS":"長春街１３４巷１３之１號","OBJECTID":652529},"geometry":{"x":179487.13975100126,"y":2577870.4328339994}},{"attributes":{"ID":652557,"DIS_CODE":0,"TOWNNAME":"中西區","LI":"中正里","LIN":"8鄰","STREET":"中正路","SECT":" ","MAREA":" ","LANE":" ","ALLEY":" ","HOUSE_NO":"２４２號","E_COORD97":167658.29078400001,"N_COORD97":2543764.5577699998,"ADDRESS":"中正路２４２號","OBJECTID":652530},"geometry":{"x":167658.29078400135,"y":2543764.5577720013}},{"attributes":{"ID":652558,"DIS_CODE":0,"TOWNNAME":"新營區","LI":"好平里","LIN":"8鄰","STREET":"長春街","SECT":" ","MAREA":" ","LANE":"１３４巷","ALLEY":" ","HOUSE_NO":"１３號","E_COORD97":179493.28535799999,"N_COORD97":2577870.4328299998,"ADDRESS":"長春街１３４巷１３號","OBJECTID":652531},"geometry":{"x":179493.28535800148,"y":2577870.4328339994}},{"attributes":{"ID":652559,"DIS_CODE":0,"TOWNNAME":"新營區","LI":"新東里","LIN":"19鄰","STREET":"東學路","SECT":" ","MAREA":" ","LANE":"８０巷","ALLEY":"８弄","HOUSE_NO":"１２號","E_COORD97":180860.87334799999,"N_COORD97":2579281.3560199998,"ADDRESS":"東學路８０巷８弄１２號","OBJECTID":652532},"geometry":{"x":180860.87334800046,"y":2579281.3560230043}},{"attributes":{"ID":652560,"DIS_CODE":0,"TOWNNAME":"新營區","LI":"新東里","LIN":"19鄰","STREET":"東學路","SECT":" ","MAREA":" ","LANE":"８０巷","ALLEY":"８弄","HOUSE_NO":"１６號","E_COORD97":180856.211939,"N_COORD97":2579281.5676899999,"ADDRESS":"東學路８０巷８弄１６號","OBJECTID":652533},"geometry":{"x":180856.21193899959,"y":2579281.5676899999}},{"attributes":{"ID":652561,"DIS_CODE":0,"TOWNNAME":"新營區","LI":"新東里","LIN":"19鄰","STREET":"東學路","SECT":" ","MAREA":" ","LANE":"８０巷","ALLEY":"８弄","HOUSE_NO":"１８號","E_COORD97":180851.97429499999,"N_COORD97":2579281.9910200001,"ADDRESS":"東學路８０巷８弄１８號","OBJECTID":652534},"geometry":{"x":180851.97429499961,"y":2579281.9910230041}},{"attributes":{"ID":652562,"DIS_CODE":0,"TOWNNAME":"新營區","LI":"新東里","LIN":"19鄰","STREET":"東學路","SECT":" ","MAREA":" ","LANE":"８０巷","ALLEY":"８弄","HOUSE_NO":"２０號","E_COORD97":180847.524768,"N_COORD97":2579282.6260199999,"ADDRESS":"東學路８０巷８弄２０號","OBJECTID":652535},"geometry":{"x":180847.52476800047,"y":2579282.626023002}},{"attributes":{"ID":652563,"DIS_CODE":0,"TOWNNAME":"新營區","LI":"好平里","LIN":"8鄰","STREET":"長春街","SECT":" ","MAREA":" ","LANE":"１３４巷","ALLEY":" ","HOUSE_NO":"３號","E_COORD97":179497.31179000001,"N_COORD97":2577857.9445099998,"ADDRESS":"長春街１３４巷３號","OBJECTID":652536},"geometry":{"x":179497.31178999972,"y":2577857.9445069991}},{"attributes":{"ID":652564,"DIS_CODE":0,"TOWNNAME":"中西區","LI":"中正里","LIN":"1鄰","STREET":"西門路","SECT":"二段","MAREA":" ","LANE":" ","ALLEY":" ","HOUSE_NO":"１３９之６號","E_COORD97":167823.97399900001,"N_COORD97":2543740.21612,"ADDRESS":"西門路二段１３９之６號","OBJECTID":652537},"geometry":{"x":167823.97399900202,"y":2543740.2161180004}},{"attributes":{"ID":652565,"DIS_CODE":0,"TOWNNAME":"新營區","LI":"好平里","LIN":"8鄰","STREET":"長春街","SECT":" ","MAREA":" ","LANE":"１３４巷","ALLEY":" ","HOUSE_NO":"５號","E_COORD97":179479.72263900001,"N_COORD97":2577850.5361799998,"ADDRESS":"長春街１３４巷５號","OBJECTID":652538},"geometry":{"x":179479.72263900004,"y":2577850.5361780003}},{"attributes":{"ID":652566,"DIS_CODE":0,"TOWNNAME":"中西區","LI":"中正里","LIN":"1鄰","STREET":"西門路","SECT":"二段","MAREA":" ","LANE":" ","ALLEY":" ","HOUSE_NO":"１４１號","E_COORD97":167804.90559899999,"N_COORD97":2543749.7411099998,"ADDRESS":"西門路二段１４１號","OBJECTID":652539},"geometry":{"x":167804.90559900086,"y":2543749.7411130033}},{"attributes":{"ID":652567,"DIS_CODE":0,"TOWNNAME":"楠西區","LI":"鹿田里","LIN":"11鄰","STREET":" ","SECT":" ","MAREA":"油車","LANE":" ","ALLEY":" ","HOUSE_NO":"６０號之１","E_COORD97":197777,"N_COORD97":2562641,"ADDRESS":"油車６０號之１","OBJECTID":652540},"geometry":{"x":197777,"y":2562641.0000000037}},{"attributes":{"ID":652568,"DIS_CODE":0,"TOWNNAME":"中西區","LI":"中正里","LIN":"1鄰","STREET":"西門路","SECT":"二段","MAREA":" ","LANE":" ","ALLEY":" ","HOUSE_NO":"１６３號","E_COORD97":167845.372982,"N_COORD97":2543781.2794300001,"ADDRESS":"西門路二段１６３號","OBJECTID":652541},"geometry":{"x":167845.37298200186,"y":2543781.2794300001}},{"attributes":{"ID":652569,"DIS_CODE":0,"TOWNNAME":"中西區","LI":"中正里","LIN":"1鄰","STREET":"西門路","SECT":"二段","MAREA":" ","LANE":" ","ALLEY":" ","HOUSE_NO":"１６１號","E_COORD97":167844.94923999999,"N_COORD97":2543780.0094300001,"ADDRESS":"西門路二段１６１號","OBJECTID":652542},"geometry":{"x":167844.94924000092,"y":2543780.0094300006}},{"attributes":{"ID":652570,"DIS_CODE":0,"TOWNNAME":"中西區","LI":"中正里","LIN":"2鄰","STREET":"西門商場","SECT":" ","MAREA":" ","LANE":" ","ALLEY":" ","HOUSE_NO":"３３號","E_COORD97":167837.95749299999,"N_COORD97":2543786.99443,"ADDRESS":"西門商場３３號","OBJECTID":652543},"geometry":{"x":167837.95749300066,"y":2543786.9944269992}},{"attributes":{"ID":652571,"DIS_CODE":0,"TOWNNAME":"中西區","LI":"中正里","LIN":"2鄰","STREET":"西門商場","SECT":" ","MAREA":" ","LANE":" ","ALLEY":" ","HOUSE_NO":"３５號","E_COORD97":167838.38123500001,"N_COORD97":2543791.2277600002,"ADDRESS":"西門商場３５號","OBJECTID":652544},"geometry":{"x":167838.38123499975,"y":2543791.2277580015}},{"attributes":{"ID":652572,"DIS_CODE":0,"TOWNNAME":"中西區","LI":"中正里","LIN":"2鄰","STREET":"西門商場","SECT":" ","MAREA":" ","LANE":" ","ALLEY":" ","HOUSE_NO":"３７號","E_COORD97":167839.22872000001,"N_COORD97":2543795.67276,"ADDRESS":"西門商場３７號","OBJECTID":652545},"geometry":{"x":167839.22872000095,"y":2543795.6727550011}},{"attributes":{"ID":652573,"DIS_CODE":0,"TOWNNAME":"中西區","LI":"中正里","LIN":"2鄰","STREET":"西門商場","SECT":" ","MAREA":" ","LANE":" ","ALLEY":" ","HOUSE_NO":"３９號","E_COORD97":167841.13556,"N_COORD97":2543799.0594199998,"ADDRESS":"西門商場３９號","OBJECTID":652546},"geometry":{"x":167841.13556000125,"y":2543799.0594200008}},{"attributes":{"ID":652574,"DIS_CODE":0,"TOWNNAME":"中西區","LI":"中正里","LIN":"3鄰","STREET":"正興街","SECT":" ","MAREA":" ","LANE":" ","ALLEY":" ","HOUSE_NO":"１７號","E_COORD97":167793.46455800001,"N_COORD97":2543846.47273,"ADDRESS":"正興街１７號","OBJECTID":652547},"geometry":{"x":167793.46455800161,"y":2543846.472728001}},{"attributes":{"ID":652575,"DIS_CODE":0,"TOWNNAME":"北門區","LI":"永華里","LIN":"5鄰","STREET":" ","SECT":" ","MAREA":"井子\u25A0","LANE":" ","ALLEY":" ","HOUSE_NO":"５３之２５號","E_COORD97":159761.877454,"N_COORD97":2573761.8601000002,"ADDRESS":"井子\u25A0５３之２５號","OBJECTID":652548},"geometry":{"x":159761.87745399959,"y":2573761.8600980006}},{"attributes":{"ID":652576,"DIS_CODE":0,"TOWNNAME":"中西區","LI":"中正里","LIN":"3鄰","STREET":"國華街","SECT":"三段","MAREA":" ","LANE":" ","ALLEY":" ","HOUSE_NO":"２號","E_COORD97":167725.45392900001,"N_COORD97":2543751.8577800002,"ADDRESS":"國華街三段２號","OBJECTID":652549},"geometry":{"x":167725.45392900053,"y":2543751.8577789981}},{"attributes":{"ID":652577,"DIS_CODE":0,"TOWNNAME":"新營區","LI":"新東里","LIN":"20鄰","STREET":"東明街","SECT":" ","MAREA":" ","LANE":" ","ALLEY":" ","HOUSE_NO":"１號","E_COORD97":180795.25440899999,"N_COORD97":2579557.18732,"ADDRESS":"東明街１號","OBJECTID":652550},"geometry":{"x":180795.25440899935,"y":2579557.1873239987}},{"attributes":{"ID":652578,"DIS_CODE":0,"TOWNNAME":"楠西區","LI":"鹿田里","LIN":"11鄰","STREET":" ","SECT":" ","MAREA":"油車","LANE":" ","ALLEY":" ","HOUSE_NO":"６０號之３","E_COORD97":197808,"N_COORD97":2562647,"ADDRESS":"油車６０號之３","OBJECTID":652551},"geometry":{"x":197808.00000000186,"y":2562647}},{"attributes":{"ID":652579,"DIS_CODE":0,"TOWNNAME":"中西區","LI":"中正里","LIN":"7鄰","STREET":"正興街","SECT":" ","MAREA":" ","LANE":"６１巷","ALLEY":" ","HOUSE_NO":"７號","E_COORD97":167695.79197200001,"N_COORD97":2543845.6260600002,"ADDRESS":"正興街６１巷７號","OBJECTID":652552},"geometry":{"x":167695.79197200201,"y":2543845.6260619983}},{"attributes":{"ID":652580,"DIS_CODE":0,"TOWNNAME":"中西區","LI":"中正里","LIN":"7鄰","STREET":"正興街","SECT":" ","MAREA":" ","LANE":"６１巷","ALLEY":" ","HOUSE_NO":"９號","E_COORD97":167694.52074599999,"N_COORD97":2543841.1810599999,"ADDRESS":"正興街６１巷９號","OBJECTID":652553},"geometry":{"x":167694.52074600104,"y":2543841.1810640004}},{"attributes":{"ID":652581,"DIS_CODE":0,"TOWNNAME":"北門區","LI":"永華里","LIN":"5鄰","STREET":" ","SECT":" ","MAREA":"井子\u25A0","LANE":" ","ALLEY":" ","HOUSE_NO":"５３之２０號","E_COORD97":159679.46102799999,"N_COORD97":2573803.8759099999,"ADDRESS":"井子\u25A0５３之２０號","OBJECTID":652554},"geometry":{"x":159679.4610280022,"y":2573803.8759090044}},{"attributes":{"ID":652582,"DIS_CODE":0,"TOWNNAME":"中西區","LI":"中正里","LIN":"7鄰","STREET":"正興街","SECT":" ","MAREA":" ","LANE":"６１巷","ALLEY":" ","HOUSE_NO":"１３號","E_COORD97":167691.34267899999,"N_COORD97":2543825.9410700002,"ADDRESS":"正興街６１巷１３號","OBJECTID":652555},"geometry":{"x":167691.34267900139,"y":2543825.9410720021}},{"attributes":{"ID":652583,"DIS_CODE":0,"TOWNNAME":"麻豆區","LI":"油車里","LIN":"9鄰","STREET":" ","SECT":" ","MAREA":"油車","LANE":" ","ALLEY":" ","HOUSE_NO":"５２號之１","E_COORD97":172735.34390499999,"N_COORD97":2565586.6687400001,"ADDRESS":"油車５２號之１","OBJECTID":652556},"geometry":{"x":172735.34390500095,"y":2565586.668738002}},{"attributes":{"ID":652584,"DIS_CODE":0,"TOWNNAME":"中西區","LI":"中正里","LIN":"7鄰","STREET":"正興街","SECT":" ","MAREA":" ","LANE":"６１巷","ALLEY":" ","HOUSE_NO":"１７號","E_COORD97":167690.28332300001,"N_COORD97":2543821.70774,"ADDRESS":"正興街６１巷１７號","OBJECTID":652557},"geometry":{"x":167690.28332299925,"y":2543821.7077409998}},{"attributes":{"ID":652585,"DIS_CODE":0,"TOWNNAME":"北門區","LI":"永華里","LIN":"5鄰","STREET":" ","SECT":" ","MAREA":"井子\u25A0","LANE":" ","ALLEY":" ","HOUSE_NO":"５３之２號","E_COORD97":159468.441078,"N_COORD97":2573486.79941,"ADDRESS":"井子\u25A0５３之２號","OBJECTID":652558},"geometry":{"x":159468.4410780007,"y":2573486.7994140014}},{"attributes":{"ID":652586,"DIS_CODE":0,"TOWNNAME":"新營區","LI":"新東里","LIN":"20鄰","STREET":"東明街","SECT":" ","MAREA":" ","LANE":"２巷","ALLEY":" ","HOUSE_NO":"４１號","E_COORD97":180885.72811699999,"N_COORD97":2579546.2864999999,"ADDRESS":"東明街２巷４１號","OBJECTID":652559},"geometry":{"x":180885.72811700031,"y":2579546.2864970006}},{"attributes":{"ID":652587,"DIS_CODE":0,"TOWNNAME":"新營區","LI":"新東里","LIN":"20鄰","STREET":"東明街","SECT":" ","MAREA":" ","LANE":"２巷","ALLEY":" ","HOUSE_NO":"３７號","E_COORD97":180877.252828,"N_COORD97":2579545.2281599999,"ADDRESS":"東明街２巷３７號","OBJECTID":652560},"geometry":{"x":180877.25282800104,"y":2579545.2281640023}},{"attributes":{"ID":652588,"DIS_CODE":0,"TOWNNAME":"中西區","LI":"中正里","LIN":"7鄰","STREET":"正興街","SECT":" ","MAREA":" ","LANE":"６１巷","ALLEY":" ","HOUSE_NO":"１５號","E_COORD97":167690.071452,"N_COORD97":2543824.4594100001,"ADDRESS":"正興街６１巷１５號","OBJECTID":652561},"geometry":{"x":167690.07145200111,"y":2543824.4594060015}},{"attributes":{"ID":652589,"DIS_CODE":0,"TOWNNAME":"新營區","LI":"新東里","LIN":"20鄰","STREET":"東明街","SECT":" ","MAREA":" ","LANE":"２巷","ALLEY":" ","HOUSE_NO":"４７號","E_COORD97":180900.55987299999,"N_COORD97":2579547.1331600002,"ADDRESS":"東明街２巷４７號","OBJECTID":652562},"geometry":{"x":180900.55987300072,"y":2579547.1331630014}},{"attributes":{"ID":652590,"DIS_CODE":0,"TOWNNAME":"中西區","LI":"中正里","LIN":"7鄰","STREET":"正興街","SECT":" ","MAREA":" ","LANE":" ","ALLEY":" ","HOUSE_NO":"１０１號","E_COORD97":167583.71215100001,"N_COORD97":2543907.6443599998,"ADDRESS":"正興街１０１號","OBJECTID":652563},"geometry":{"x":167583.71215100121,"y":2543907.6443610005}},{"attributes":{"ID":652591,"DIS_CODE":0,"TOWNNAME":"新營區","LI":"新東里","LIN":"20鄰","STREET":"東明街","SECT":" ","MAREA":" ","LANE":"２巷","ALLEY":" ","HOUSE_NO":"６０號","E_COORD97":180909.88269,"N_COORD97":2579528.9298399999,"ADDRESS":"東明街２巷６０號","OBJECTID":652564},"geometry":{"x":180909.88269000035,"y":2579528.9298400022}},{"attributes":{"ID":652592,"DIS_CODE":0,"TOWNNAME":"北門區","LI":"永華里","LIN":"11鄰","STREET":" ","SECT":" ","MAREA":"井子\u25A0","LANE":" ","ALLEY":" ","HOUSE_NO":"８９號","E_COORD97":159068.37036999999,"N_COORD97":2573670.0639800001,"ADDRESS":"井子\u25A0８９號","OBJECTID":652565},"geometry":{"x":159068.3703700006,"y":2573670.0639850013}},{"attributes":{"ID":652593,"DIS_CODE":0,"TOWNNAME":"中西區","LI":"中正里","LIN":"4鄰","STREET":"正興街","SECT":" ","MAREA":" ","LANE":" ","ALLEY":" ","HOUSE_NO":"２２號之１","E_COORD97":167822.49090100001,"N_COORD97":2543871.02605,"ADDRESS":"正興街２２號之１","OBJECTID":652566},"geometry":{"x":167822.49090099987,"y":2543871.0260480046}},{"attributes":{"ID":652594,"DIS_CODE":0,"TOWNNAME":"新營區","LI":"新東里","LIN":"20鄰","STREET":"東明街","SECT":" ","MAREA":" ","LANE":"２巷","ALLEY":" ","HOUSE_NO":"２６號","E_COORD97":180849.28437499999,"N_COORD97":2579527.2365100002,"ADDRESS":"東明街２巷２６號","OBJECTID":652567},"geometry":{"x":180849.28437499981,"y":2579527.2365070041}},{"attributes":{"ID":652595,"DIS_CODE":0,"TOWNNAME":"中西區","LI":"中正里","LIN":"4鄰","STREET":"正興街","SECT":" ","MAREA":" ","LANE":" ","ALLEY":" ","HOUSE_NO":"２號","E_COORD97":167867.40757899999,"N_COORD97":2543852.61106,"ADDRESS":"正興街２號","OBJECTID":652568},"geometry":{"x":167867.40757899918,"y":2543852.6110580023}},{"attributes":{"ID":652596,"DIS_CODE":0,"TOWNNAME":"中西區","LI":"中正里","LIN":"4鄰","STREET":"正興街","SECT":" ","MAREA":" ","LANE":" ","ALLEY":" ","HOUSE_NO":"３４號","E_COORD97":167799.18507800001,"N_COORD97":2543868.6977200001,"ADDRESS":"正興街３４號","OBJECTID":652569},"geometry":{"x":167799.18507800158,"y":2543868.6977160014}},{"attributes":{"ID":652597,"DIS_CODE":0,"TOWNNAME":"北門區","LI":"永華里","LIN":"10鄰","STREET":" ","SECT":" ","MAREA":"井子\u25A0","LANE":" ","ALLEY":" ","HOUSE_NO":"８２之１號","E_COORD97":159050.149772,"N_COORD97":2573541.4765499998,"ADDRESS":"井子\u25A0８２之１號","OBJECTID":652570},"geometry":{"x":159050.14977199957,"y":2573541.4765539989}},{"attributes":{"ID":652598,"DIS_CODE":0,"TOWNNAME":"中西區","LI":"中正里","LIN":"4鄰","STREET":"正興街","SECT":" ","MAREA":" ","LANE":" ","ALLEY":" ","HOUSE_NO":"３６號","E_COORD97":167796.00701199999,"N_COORD97":2543869.1210500002,"ADDRESS":"正興街３６號","OBJECTID":652571},"geometry":{"x":167796.00701200031,"y":2543869.121049}},{"attributes":{"ID":652599,"DIS_CODE":0,"TOWNNAME":"新營區","LI":"新東里","LIN":"20鄰","STREET":"東明街","SECT":" ","MAREA":" ","LANE":"４２巷","ALLEY":" ","HOUSE_NO":"６號","E_COORD97":180825.765449,"N_COORD97":2579641.2189500001,"ADDRESS":"東明街４２巷６號","OBJECTID":652572},"geometry":{"x":180825.76544899959,"y":2579641.2189460006}},{"attributes":{"ID":652600,"DIS_CODE":0,"TOWNNAME":"中西區","LI":"中正里","LIN":"4鄰","STREET":"正興街","SECT":" ","MAREA":" ","LANE":" ","ALLEY":" ","HOUSE_NO":"３８號","E_COORD97":167792.405203,"N_COORD97":2543869.96771,"ADDRESS":"正興街３８號","OBJECTID":652573},"geometry":{"x":167792.40520299878,"y":2543869.9677150007}},{"attributes":{"ID":652601,"DIS_CODE":0,"TOWNNAME":"北門區","LI":"永華里","LIN":"10鄰","STREET":" ","SECT":" ","MAREA":"井子\u25A0","LANE":" ","ALLEY":" ","HOUSE_NO":"８３號","E_COORD97":159060.95501000001,"N_COORD97":2573541.2648900002,"ADDRESS":"井子\u25A0８３號","OBJECTID":652574},"geometry":{"x":159060.95500999968,"y":2573541.2648870014}},{"attributes":{"ID":652602,"DIS_CODE":0,"TOWNNAME":"新營區","LI":"新東里","LIN":"20鄰","STREET":"東明街","SECT":" ","MAREA":" ","LANE":"４２巷","ALLEY":" ","HOUSE_NO":"８號","E_COORD97":180831.91003299999,"N_COORD97":2579641.6422799998,"ADDRESS":"東明街４２巷８號","OBJECTID":652575},"geometry":{"x":180831.91003300063,"y":2579641.6422789972}},{"attributes":{"ID":652603,"DIS_CODE":0,"TOWNNAME":"中西區","LI":"中正里","LIN":"4鄰","STREET":"正興街","SECT":" ","MAREA":" ","LANE":" ","ALLEY":" ","HOUSE_NO":"４４號之１","E_COORD97":167776.72674000001,"N_COORD97":2543873.7777100001,"ADDRESS":"正興街４４號之１","OBJECTID":652576},"geometry":{"x":167776.72673999984,"y":2543873.7777130008}},{"attributes":{"ID":652604,"DIS_CODE":0,"TOWNNAME":"安南區","LI":"城北里","LIN":"8鄰","STREET":"安中路","SECT":"六段","MAREA":" ","LANE":"１巷","ALLEY":" ","HOUSE_NO":"１２０號之４０","E_COORD97":161763.94945099999,"N_COORD97":2550659.3334499998,"ADDRESS":"安中路六段１巷１２０號之４０","OBJECTID":652577},"geometry":{"x":161763.94945100043,"y":2550659.333451001}},{"attributes":{"ID":652605,"DIS_CODE":0,"TOWNNAME":"新營區","LI":"新東里","LIN":"20鄰","STREET":"東興八街","SECT":" ","MAREA":" ","LANE":" ","ALLEY":" ","HOUSE_NO":"６１號","E_COORD97":180895.05093500001,"N_COORD97":2579492.3115300001,"ADDRESS":"東興八街６１號","OBJECTID":652578},"geometry":{"x":180895.05093500018,"y":2579492.3115260005}},{"attributes":{"ID":652606,"DIS_CODE":0,"TOWNNAME":"中西區","LI":"元安里","LIN":"6鄰","STREET":"大德街","SECT":" ","MAREA":" ","LANE":" ","ALLEY":" ","HOUSE_NO":"１２０號","E_COORD97":167537.31237599999,"N_COORD97":2543139.4797999999,"ADDRESS":"大德街１２０號","OBJECTID":652579},"geometry":{"x":167537.31237600092,"y":2543139.4798040017}},{"attributes":{"ID":652607,"DIS_CODE":0,"TOWNNAME":"中西區","LI":"元安里","LIN":"6鄰","STREET":"大德街","SECT":" ","MAREA":" ","LANE":" ","ALLEY":" ","HOUSE_NO":"１２２號","E_COORD97":167538.583602,"N_COORD97":2543138.2098099999,"ADDRESS":"大德街１２２號","OBJECTID":652580},"geometry":{"x":167538.58360200096,"y":2543138.2098050024}},{"attributes":{"ID":652608,"DIS_CODE":0,"TOWNNAME":"中西區","LI":"中正里","LIN":"11鄰","STREET":"正興街","SECT":" ","MAREA":" ","LANE":" ","ALLEY":" ","HOUSE_NO":"１６０號","E_COORD97":167542.60915400001,"N_COORD97":2543931.11271,"ADDRESS":"正興街１６０號","OBJECTID":652581},"geometry":{"x":167542.60915399995,"y":2543931.1127100009}},{"attributes":{"ID":652609,"DIS_CODE":0,"TOWNNAME":"中西區","LI":"中正里","LIN":"11鄰","STREET":"正興街","SECT":" ","MAREA":" ","LANE":" ","ALLEY":" ","HOUSE_NO":"１４８號","E_COORD97":167558.92322999999,"N_COORD97":2543931.7477099998,"ADDRESS":"正興街１４８號","OBJECTID":652582},"geometry":{"x":167558.92323000077,"y":2543931.7477099989}},{"attributes":{"ID":652610,"DIS_CODE":0,"TOWNNAME":"中西區","LI":"中正里","LIN":"11鄰","STREET":"正興街","SECT":" ","MAREA":" ","LANE":" ","ALLEY":" ","HOUSE_NO":"１３６號","E_COORD97":167572.48298100001,"N_COORD97":2543927.23018,"ADDRESS":"正興街１３６號","OBJECTID":652583},"geometry":{"x":167572.4829810001,"y":2543927.230177002}},{"attributes":{"ID":652611,"DIS_CODE":0,"TOWNNAME":"中西區","LI":"中正里","LIN":"11鄰","STREET":"正興街","SECT":" ","MAREA":" ","LANE":" ","ALLEY":" ","HOUSE_NO":"１３０號","E_COORD97":167582.22905299999,"N_COORD97":2543922.9968500002,"ADDRESS":"正興街１３０號","OBJECTID":652584},"geometry":{"x":167582.22905300092,"y":2543922.9968459997}},{"attributes":{"ID":652612,"DIS_CODE":0,"TOWNNAME":"中西區","LI":"中正里","LIN":"13鄰","STREET":"正興街","SECT":" ","MAREA":" ","LANE":" ","ALLEY":" ","HOUSE_NO":"１３７號","E_COORD97":167526.295078,"N_COORD97":2543922.7851800001,"ADDRESS":"正興街１３７號","OBJECTID":652585},"geometry":{"x":167526.29507800099,"y":2543922.7851800025}},{"attributes":{"ID":652613,"DIS_CODE":0,"TOWNNAME":"新營區","LI":"新東里","LIN":"20鄰","STREET":"東興路","SECT":" ","MAREA":" ","LANE":" ","ALLEY":" ","HOUSE_NO":"１８８號","E_COORD97":180776.820656,"N_COORD97":2579373.3020100002,"ADDRESS":"東興路１８８號","OBJECTID":652586},"geometry":{"x":180776.82065599971,"y":2579373.3020070028}},{"attributes":{"ID":652614,"DIS_CODE":0,"TOWNNAME":"中西區","LI":"中正里","LIN":"13鄰","STREET":"正興街","SECT":" ","MAREA":" ","LANE":" ","ALLEY":" ","HOUSE_NO":"１４３號","E_COORD97":167519.303331,"N_COORD97":2543924.90185,"ADDRESS":"正興街１４３號","OBJECTID":652587},"geometry":{"x":167519.30333099887,"y":2543924.9018450007}},{"attributes":{"ID":652615,"DIS_CODE":0,"TOWNNAME":"安平區","LI":"國平里","LIN":"13鄰","STREET":"建平一街","SECT":" ","MAREA":" ","LANE":"１８９巷","ALLEY":" ","HOUSE_NO":"６０號之１","E_COORD97":165519.28042900001,"N_COORD97":2542751.2430099999,"ADDRESS":"建平一街１８９巷６０號之１","OBJECTID":652588},"geometry":{"x":165519.28042900003,"y":2542751.2430060003}},{"attributes":{"ID":652616,"DIS_CODE":0,"TOWNNAME":"中西區","LI":"中正里","LIN":"2鄰","STREET":"西門商場","SECT":" ","MAREA":" ","LANE":" ","ALLEY":" ","HOUSE_NO":"４６號","E_COORD97":167834.35568400001,"N_COORD97":2543769.32693,"ADDRESS":"西門商場４６號","OBJECTID":652589},"geometry":{"x":167834.35568400007,"y":2543769.3269289993}},{"attributes":{"ID":652617,"DIS_CODE":0,"TOWNNAME":"安南區","LI":"城北里","LIN":"8鄰","STREET":"安中路","SECT":"六段","MAREA":" ","LANE":"１巷","ALLEY":" ","HOUSE_NO":"１２０號","E_COORD97":161690.68981800001,"N_COORD97":2550689.3901,"ADDRESS":"安中路六段１巷１２０號","OBJECTID":652590},"geometry":{"x":161690.68981800135,"y":2550689.3901010025}},{"attributes":{"ID":652618,"DIS_CODE":0,"TOWNNAME":"中西區","LI":"中正里","LIN":"6鄰","STREET":"海安路","SECT":"二段","MAREA":" ","LANE":"８６巷","ALLEY":" ","HOUSE_NO":"２８號","E_COORD97":167691.34267899999,"N_COORD97":2543914.5301799998,"ADDRESS":"海安路二段８６巷２８號","OBJECTID":652591},"geometry":{"x":167691.34267900139,"y":2543914.5301840007}},{"attributes":{"ID":652619,"DIS_CODE":0,"TOWNNAME":"中西區","LI":"中正里","LIN":"6鄰","STREET":"海安路","SECT":"二段","MAREA":" ","LANE":"８６巷","ALLEY":" ","HOUSE_NO":"３２號","E_COORD97":167695.15635899999,"N_COORD97":2543913.68352,"ADDRESS":"海安路二段８６巷３２號","OBJECTID":652592},"geometry":{"x":167695.15635900013,"y":2543913.6835179981}},{"attributes":{"ID":652620,"DIS_CODE":0,"TOWNNAME":"中西區","LI":"中正里","LIN":"6鄰","STREET":"海安路","SECT":"二段","MAREA":" ","LANE":"８６巷","ALLEY":" ","HOUSE_NO":"３６號","E_COORD97":167697.910684,"N_COORD97":2543912.62518,"ADDRESS":"海安路二段８６巷３６號","OBJECTID":652593},"geometry":{"x":167697.91068399977,"y":2543912.6251850016}},{"attributes":{"ID":652621,"DIS_CODE":0,"TOWNNAME":"安平區","LI":"國平里","LIN":"11鄰","STREET":"建平一街","SECT":" ","MAREA":" ","LANE":"２０２巷","ALLEY":" ","HOUSE_NO":"３４號之１","E_COORD97":165598.53384300001,"N_COORD97":2542877.60794,"ADDRESS":"建平一街２０２巷３４號之１","OBJECTID":652594},"geometry":{"x":165598.53384300042,"y":2542877.6079380028}},{"attributes":{"ID":652622,"DIS_CODE":0,"TOWNNAME":"安平區","LI":"國平里","LIN":"11鄰","STREET":"建平一街","SECT":" ","MAREA":" ","LANE":"２０２巷","ALLEY":" ","HOUSE_NO":"３４號之２","E_COORD97":165598.53384300001,"N_COORD97":2542877.60794,"ADDRESS":"建平一街２０２巷３４號之２","OBJECTID":652595},"geometry":{"x":165598.53384300042,"y":2542877.6079380028}},{"attributes":{"ID":652623,"DIS_CODE":0,"TOWNNAME":"中西區","LI":"中正里","LIN":"6鄰","STREET":"海安路","SECT":"二段","MAREA":" ","LANE":"８６巷","ALLEY":" ","HOUSE_NO":"３８號","E_COORD97":167699.18191000001,"N_COORD97":2543912.2018499998,"ADDRESS":"海安路二段８６巷３８號","OBJECTID":652596},"geometry":{"x":167699.18190999981,"y":2543912.2018520031}},{"attributes":{"ID":652624,"DIS_CODE":0,"TOWNNAME":"安平區","LI":"國平里","LIN":"11鄰","STREET":"建平一街","SECT":" ","MAREA":" ","LANE":"２０２巷","ALLEY":" ","HOUSE_NO":"３４號之３","E_COORD97":165598.53384300001,"N_COORD97":2542877.60794,"ADDRESS":"建平一街２０２巷３４號之３","OBJECTID":652597},"geometry":{"x":165598.53384300042,"y":2542877.6079380028}},{"attributes":{"ID":652625,"DIS_CODE":0,"TOWNNAME":"麻豆區","LI":"油車里","LIN":"7鄰","STREET":" ","SECT":" ","MAREA":"油車","LANE":" ","ALLEY":" ","HOUSE_NO":"２３號之２","E_COORD97":172721.56920500001,"N_COORD97":2565504.1187800001,"ADDRESS":"油車２３號之２","OBJECTID":652598},"geometry":{"x":172721.56920500007,"y":2565504.1187820025}},{"attributes":{"ID":652626,"DIS_CODE":0,"TOWNNAME":"安平區","LI":"國平里","LIN":"11鄰","STREET":"建平一街","SECT":" ","MAREA":" ","LANE":"２０２巷","ALLEY":" ","HOUSE_NO":"３４號之４","E_COORD97":165598.53384300001,"N_COORD97":2542877.60794,"ADDRESS":"建平一街２０２巷３４號之４","OBJECTID":652599},"geometry":{"x":165598.53384300042,"y":2542877.6079380028}},{"attributes":{"ID":652627,"DIS_CODE":0,"TOWNNAME":"安平區","LI":"國平里","LIN":"11鄰","STREET":"建平一街","SECT":" ","MAREA":" ","LANE":"２０２巷","ALLEY":" ","HOUSE_NO":"３４號之５","E_COORD97":165598.53384300001,"N_COORD97":2542877.60794,"ADDRESS":"建平一街２０２巷３４號之５","OBJECTID":652600},"geometry":{"x":165598.53384300042,"y":2542877.6079380028}}]}