{"displayFieldName":"TOWNNAME","fieldAliases":{"ID":"ID","DIS_CODE":"DIS_CODE","TOWNNAME":"TOWNNAME","LI":"LI","LIN":"LIN","STREET":"STREET","SECT":"SECT","MAREA":"MAREA","LANE":"LANE","ALLEY":"ALLEY","HOUSE_NO":"HOUSE_NO","E_COORD97":"E_COORD97","N_COORD97":"N_COORD97","ADDRESS":"ADDRESS","OBJECTID":"OBJECTID"},"geometryType":"esriGeometryPoint","spatialReference":{"wkid":102443,"latestWkid":3826},"fields":[{"name":"ID","type":"esriFieldTypeDouble","alias":"ID"},{"name":"DIS_CODE","type":"esriFieldTypeInteger","alias":"DIS_CODE"},{"name":"TOWNNAME","type":"esriFieldTypeString","alias":"TOWNNAME","length":8},{"name":"LI","type":"esriFieldTypeString","alias":"LI","length":8},{"name":"LIN","type":"esriFieldTypeString","alias":"LIN","length":12},{"name":"STREET","type":"esriFieldTypeString","alias":"STREET","length":20},{"name":"SECT","type":"esriFieldTypeString","alias":"SECT","length":8},{"name":"MAREA","type":"esriFieldTypeString","alias":"MAREA","length":12},{"name":"LANE","type":"esriFieldTypeString","alias":"LANE","length":10},{"name":"ALLEY","type":"esriFieldTypeString","alias":"ALLEY","length":10},{"name":"HOUSE_NO","type":"esriFieldTypeString","alias":"HOUSE_NO","length":20},{"name":"E_COORD97","type":"esriFieldTypeDouble","alias":"E_COORD97"},{"name":"N_COORD97","type":"esriFieldTypeDouble","alias":"N_COORD97"},{"name":"ADDRESS","type":"esriFieldTypeString","alias":"ADDRESS","length":50},{"name":"OBJECTID","type":"esriFieldTypeOID","alias":"OBJECTID"}],"features":[{"attributes":{"ID":611428,"DIS_CODE":0,"TOWNNAME":"永康區","LI":"\u25A0行里","LIN":"3鄰","STREET":"中正路","SECT":" ","MAREA":" ","LANE":" ","ALLEY":" ","HOUSE_NO":"８５２號七樓之４","E_COORD97":172144.78,"N_COORD97":2548792.0499999998,"ADDRESS":"中正路８５２號七樓之４","OBJECTID":611401},"geometry":{"x":172144.78000000119,"y":2548792.0500000026}},{"attributes":{"ID":611429,"DIS_CODE":0,"TOWNNAME":"永康區","LI":"\u25A0行里","LIN":"3鄰","STREET":"中正路","SECT":" ","MAREA":" ","LANE":" ","ALLEY":" ","HOUSE_NO":"８５２號六樓之３","E_COORD97":172144.85999999999,"N_COORD97":2548792.0499999998,"ADDRESS":"中正路８５２號六樓之３","OBJECTID":611402},"geometry":{"x":172144.86000000127,"y":2548792.0500000026}},{"attributes":{"ID":611430,"DIS_CODE":0,"TOWNNAME":"永康區","LI":"\u25A0行里","LIN":"3鄰","STREET":"中正七街","SECT":" ","MAREA":" ","LANE":" ","ALLEY":" ","HOUSE_NO":"１０號二樓之５","E_COORD97":172079.10000000001,"N_COORD97":2548864.48,"ADDRESS":"中正七街１０號二樓之５","OBJECTID":611403},"geometry":{"x":172079.10000000056,"y":2548864.4800000023}},{"attributes":{"ID":611431,"DIS_CODE":0,"TOWNNAME":"永康區","LI":"\u25A0行里","LIN":"3鄰","STREET":"中正七街","SECT":" ","MAREA":" ","LANE":" ","ALLEY":" ","HOUSE_NO":"１０號五樓之５","E_COORD97":172079.10000000001,"N_COORD97":2548864.48,"ADDRESS":"中正七街１０號五樓之５","OBJECTID":611404},"geometry":{"x":172079.10000000056,"y":2548864.4800000023}},{"attributes":{"ID":611432,"DIS_CODE":0,"TOWNNAME":"永康區","LI":"\u25A0行里","LIN":"3鄰","STREET":"中正路","SECT":" ","MAREA":" ","LANE":" ","ALLEY":" ","HOUSE_NO":"８７０號七樓之１","E_COORD97":172102.01000000001,"N_COORD97":2548811.1000000001,"ADDRESS":"中正路８７０號七樓之１","OBJECTID":611405},"geometry":{"x":172102.01000000071,"y":2548811.1000000015}},{"attributes":{"ID":611433,"DIS_CODE":0,"TOWNNAME":"中西區","LI":"三民里","LIN":"3鄰","STREET":"民生路","SECT":"一段","MAREA":" ","LANE":" ","ALLEY":" ","HOUSE_NO":"１０號一樓之１","E_COORD97":168438.70000000001,"N_COORD97":2543726.1600000001,"ADDRESS":"民生路一段１０號一樓之１","OBJECTID":611406},"geometry":{"x":168438.70000000019,"y":2543726.160000002}},{"attributes":{"ID":611434,"DIS_CODE":0,"TOWNNAME":"中西區","LI":"三民里","LIN":"3鄰","STREET":"民生路","SECT":"一段","MAREA":" ","LANE":" ","ALLEY":" ","HOUSE_NO":"１０號一樓之２","E_COORD97":168437.70999999999,"N_COORD97":2543730.1200000001,"ADDRESS":"民生路一段１０號一樓之２","OBJECTID":611407},"geometry":{"x":168437.71000000089,"y":2543730.1200000029}},{"attributes":{"ID":611435,"DIS_CODE":0,"TOWNNAME":"中西區","LI":"三民里","LIN":"3鄰","STREET":"民生路","SECT":"一段","MAREA":" ","LANE":" ","ALLEY":" ","HOUSE_NO":"１０號一樓之３","E_COORD97":168433.39000000001,"N_COORD97":2543729.3999999999,"ADDRESS":"民生路一段１０號一樓之３","OBJECTID":611408},"geometry":{"x":168433.38999999966,"y":2543729.4000000004}},{"attributes":{"ID":611436,"DIS_CODE":0,"TOWNNAME":"中西區","LI":"三民里","LIN":"3鄰","STREET":"民生路","SECT":"一段","MAREA":" ","LANE":" ","ALLEY":" ","HOUSE_NO":"１０號二樓之１","E_COORD97":168433.39000000001,"N_COORD97":2543729.3999999999,"ADDRESS":"民生路一段１０號二樓之１","OBJECTID":611409},"geometry":{"x":168433.38999999966,"y":2543729.4000000004}},{"attributes":{"ID":611437,"DIS_CODE":0,"TOWNNAME":"中西區","LI":"三民里","LIN":"3鄰","STREET":"民生路","SECT":"一段","MAREA":" ","LANE":" ","ALLEY":" ","HOUSE_NO":"１０號二樓之２","E_COORD97":168433.39000000001,"N_COORD97":2543729.3999999999,"ADDRESS":"民生路一段１０號二樓之２","OBJECTID":611410},"geometry":{"x":168433.38999999966,"y":2543729.4000000004}},{"attributes":{"ID":611438,"DIS_CODE":0,"TOWNNAME":"中西區","LI":"三民里","LIN":"3鄰","STREET":"民生路","SECT":"一段","MAREA":" ","LANE":" ","ALLEY":" ","HOUSE_NO":"１０號二樓之３","E_COORD97":168433.39000000001,"N_COORD97":2543729.3999999999,"ADDRESS":"民生路一段１０號二樓之３","OBJECTID":611411},"geometry":{"x":168433.38999999966,"y":2543729.4000000004}},{"attributes":{"ID":611439,"DIS_CODE":0,"TOWNNAME":"中西區","LI":"三民里","LIN":"3鄰","STREET":"民生路","SECT":"一段","MAREA":" ","LANE":" ","ALLEY":" ","HOUSE_NO":"１０號二樓之４","E_COORD97":168433.39000000001,"N_COORD97":2543729.3999999999,"ADDRESS":"民生路一段１０號二樓之４","OBJECTID":611412},"geometry":{"x":168433.38999999966,"y":2543729.4000000004}},{"attributes":{"ID":611440,"DIS_CODE":0,"TOWNNAME":"中西區","LI":"三民里","LIN":"3鄰","STREET":"民生路","SECT":"一段","MAREA":" ","LANE":" ","ALLEY":" ","HOUSE_NO":"１０號二樓之５","E_COORD97":168433.39000000001,"N_COORD97":2543729.3999999999,"ADDRESS":"民生路一段１０號二樓之５","OBJECTID":611413},"geometry":{"x":168433.38999999966,"y":2543729.4000000004}},{"attributes":{"ID":611441,"DIS_CODE":0,"TOWNNAME":"中西區","LI":"三民里","LIN":"3鄰","STREET":"民生路","SECT":"一段","MAREA":" ","LANE":" ","ALLEY":" ","HOUSE_NO":"１０號二樓之６","E_COORD97":168433.39000000001,"N_COORD97":2543729.3999999999,"ADDRESS":"民生路一段１０號二樓之６","OBJECTID":611414},"geometry":{"x":168433.38999999966,"y":2543729.4000000004}},{"attributes":{"ID":611442,"DIS_CODE":0,"TOWNNAME":"中西區","LI":"三民里","LIN":"3鄰","STREET":"民生路","SECT":"一段","MAREA":" ","LANE":" ","ALLEY":" ","HOUSE_NO":"１０號三樓之１","E_COORD97":168433.39000000001,"N_COORD97":2543729.3999999999,"ADDRESS":"民生路一段１０號三樓之１","OBJECTID":611415},"geometry":{"x":168433.38999999966,"y":2543729.4000000004}},{"attributes":{"ID":611443,"DIS_CODE":0,"TOWNNAME":"中西區","LI":"三民里","LIN":"3鄰","STREET":"民生路","SECT":"一段","MAREA":" ","LANE":" ","ALLEY":" ","HOUSE_NO":"１０號三樓之２","E_COORD97":168433.39000000001,"N_COORD97":2543729.3999999999,"ADDRESS":"民生路一段１０號三樓之２","OBJECTID":611416},"geometry":{"x":168433.38999999966,"y":2543729.4000000004}},{"attributes":{"ID":611444,"DIS_CODE":0,"TOWNNAME":"中西區","LI":"三民里","LIN":"3鄰","STREET":"民生路","SECT":"一段","MAREA":" ","LANE":" ","ALLEY":" ","HOUSE_NO":"１０號三樓之３","E_COORD97":168433.39000000001,"N_COORD97":2543729.3999999999,"ADDRESS":"民生路一段１０號三樓之３","OBJECTID":611417},"geometry":{"x":168433.38999999966,"y":2543729.4000000004}},{"attributes":{"ID":611445,"DIS_CODE":0,"TOWNNAME":"中西區","LI":"三民里","LIN":"3鄰","STREET":"民生路","SECT":"一段","MAREA":" ","LANE":" ","ALLEY":" ","HOUSE_NO":"１０號五樓之１","E_COORD97":168433.39000000001,"N_COORD97":2543729.3999999999,"ADDRESS":"民生路一段１０號五樓之１","OBJECTID":611418},"geometry":{"x":168433.38999999966,"y":2543729.4000000004}},{"attributes":{"ID":611446,"DIS_CODE":0,"TOWNNAME":"中西區","LI":"三民里","LIN":"3鄰","STREET":"民生路","SECT":"一段","MAREA":" ","LANE":" ","ALLEY":" ","HOUSE_NO":"１０號五樓之１０","E_COORD97":168433.39000000001,"N_COORD97":2543729.3999999999,"ADDRESS":"民生路一段１０號五樓之１０","OBJECTID":611419},"geometry":{"x":168433.38999999966,"y":2543729.4000000004}},{"attributes":{"ID":611447,"DIS_CODE":0,"TOWNNAME":"中西區","LI":"三民里","LIN":"3鄰","STREET":"民生路","SECT":"一段","MAREA":" ","LANE":" ","ALLEY":" ","HOUSE_NO":"１０號五樓之１１","E_COORD97":168433.39000000001,"N_COORD97":2543729.3999999999,"ADDRESS":"民生路一段１０號五樓之１１","OBJECTID":611420},"geometry":{"x":168433.38999999966,"y":2543729.4000000004}},{"attributes":{"ID":611448,"DIS_CODE":0,"TOWNNAME":"中西區","LI":"三民里","LIN":"3鄰","STREET":"民生路","SECT":"一段","MAREA":" ","LANE":" ","ALLEY":" ","HOUSE_NO":"１０號五樓之１２","E_COORD97":168433.39000000001,"N_COORD97":2543729.3999999999,"ADDRESS":"民生路一段１０號五樓之１２","OBJECTID":611421},"geometry":{"x":168433.38999999966,"y":2543729.4000000004}},{"attributes":{"ID":611449,"DIS_CODE":0,"TOWNNAME":"中西區","LI":"三民里","LIN":"3鄰","STREET":"民生路","SECT":"一段","MAREA":" ","LANE":" ","ALLEY":" ","HOUSE_NO":"１０號五樓之１３","E_COORD97":168433.39000000001,"N_COORD97":2543729.3999999999,"ADDRESS":"民生路一段１０號五樓之１３","OBJECTID":611422},"geometry":{"x":168433.38999999966,"y":2543729.4000000004}},{"attributes":{"ID":611450,"DIS_CODE":0,"TOWNNAME":"中西區","LI":"三民里","LIN":"3鄰","STREET":"民生路","SECT":"一段","MAREA":" ","LANE":" ","ALLEY":" ","HOUSE_NO":"１０號五樓之１４","E_COORD97":168433.39000000001,"N_COORD97":2543729.3999999999,"ADDRESS":"民生路一段１０號五樓之１４","OBJECTID":611423},"geometry":{"x":168433.38999999966,"y":2543729.4000000004}},{"attributes":{"ID":611451,"DIS_CODE":0,"TOWNNAME":"中西區","LI":"三民里","LIN":"3鄰","STREET":"民生路","SECT":"一段","MAREA":" ","LANE":" ","ALLEY":" ","HOUSE_NO":"１０號五樓之２","E_COORD97":168433.39000000001,"N_COORD97":2543729.3999999999,"ADDRESS":"民生路一段１０號五樓之２","OBJECTID":611424},"geometry":{"x":168433.38999999966,"y":2543729.4000000004}},{"attributes":{"ID":611452,"DIS_CODE":0,"TOWNNAME":"中西區","LI":"三民里","LIN":"3鄰","STREET":"民生路","SECT":"一段","MAREA":" ","LANE":" ","ALLEY":" ","HOUSE_NO":"１０號五樓之３","E_COORD97":168433.39000000001,"N_COORD97":2543729.3999999999,"ADDRESS":"民生路一段１０號五樓之３","OBJECTID":611425},"geometry":{"x":168433.38999999966,"y":2543729.4000000004}},{"attributes":{"ID":611453,"DIS_CODE":0,"TOWNNAME":"中西區","LI":"三民里","LIN":"3鄰","STREET":"民生路","SECT":"一段","MAREA":" ","LANE":" ","ALLEY":" ","HOUSE_NO":"１０號五樓之４","E_COORD97":168433.39000000001,"N_COORD97":2543729.3999999999,"ADDRESS":"民生路一段１０號五樓之４","OBJECTID":611426},"geometry":{"x":168433.38999999966,"y":2543729.4000000004}},{"attributes":{"ID":611454,"DIS_CODE":0,"TOWNNAME":"中西區","LI":"三民里","LIN":"3鄰","STREET":"民生路","SECT":"一段","MAREA":" ","LANE":" ","ALLEY":" ","HOUSE_NO":"１０號五樓之５","E_COORD97":168433.39000000001,"N_COORD97":2543729.3999999999,"ADDRESS":"民生路一段１０號五樓之５","OBJECTID":611427},"geometry":{"x":168433.38999999966,"y":2543729.4000000004}},{"attributes":{"ID":611455,"DIS_CODE":0,"TOWNNAME":"中西區","LI":"三民里","LIN":"3鄰","STREET":"民生路","SECT":"一段","MAREA":" ","LANE":" ","ALLEY":" ","HOUSE_NO":"１０號五樓之６","E_COORD97":168433.39000000001,"N_COORD97":2543729.3999999999,"ADDRESS":"民生路一段１０號五樓之６","OBJECTID":611428},"geometry":{"x":168433.38999999966,"y":2543729.4000000004}},{"attributes":{"ID":611456,"DIS_CODE":0,"TOWNNAME":"中西區","LI":"三民里","LIN":"3鄰","STREET":"民生路","SECT":"一段","MAREA":" ","LANE":" ","ALLEY":" ","HOUSE_NO":"１０號五樓之７","E_COORD97":168433.39000000001,"N_COORD97":2543729.3999999999,"ADDRESS":"民生路一段１０號五樓之７","OBJECTID":611429},"geometry":{"x":168433.38999999966,"y":2543729.4000000004}},{"attributes":{"ID":611457,"DIS_CODE":0,"TOWNNAME":"中西區","LI":"三民里","LIN":"3鄰","STREET":"民生路","SECT":"一段","MAREA":" ","LANE":" ","ALLEY":" ","HOUSE_NO":"１０號五樓之８","E_COORD97":168433.39000000001,"N_COORD97":2543729.3999999999,"ADDRESS":"民生路一段１０號五樓之８","OBJECTID":611430},"geometry":{"x":168433.38999999966,"y":2543729.4000000004}},{"attributes":{"ID":611458,"DIS_CODE":0,"TOWNNAME":"中西區","LI":"三民里","LIN":"3鄰","STREET":"民生路","SECT":"一段","MAREA":" ","LANE":" ","ALLEY":" ","HOUSE_NO":"１０號五樓之９","E_COORD97":168433.39000000001,"N_COORD97":2543729.3999999999,"ADDRESS":"民生路一段１０號五樓之９","OBJECTID":611431},"geometry":{"x":168433.38999999966,"y":2543729.4000000004}},{"attributes":{"ID":611459,"DIS_CODE":0,"TOWNNAME":"中西區","LI":"三民里","LIN":"3鄰","STREET":"民生路","SECT":"一段","MAREA":" ","LANE":" ","ALLEY":" ","HOUSE_NO":"１０號六樓之１","E_COORD97":168433.39000000001,"N_COORD97":2543729.3999999999,"ADDRESS":"民生路一段１０號六樓之１","OBJECTID":611432},"geometry":{"x":168433.38999999966,"y":2543729.4000000004}},{"attributes":{"ID":611460,"DIS_CODE":0,"TOWNNAME":"中西區","LI":"三民里","LIN":"3鄰","STREET":"民生路","SECT":"一段","MAREA":" ","LANE":" ","ALLEY":" ","HOUSE_NO":"１０號六樓之２","E_COORD97":168433.39000000001,"N_COORD97":2543729.3999999999,"ADDRESS":"民生路一段１０號六樓之２","OBJECTID":611433},"geometry":{"x":168433.38999999966,"y":2543729.4000000004}},{"attributes":{"ID":611461,"DIS_CODE":0,"TOWNNAME":"中西區","LI":"三民里","LIN":"3鄰","STREET":"民生路","SECT":"一段","MAREA":" ","LANE":" ","ALLEY":" ","HOUSE_NO":"１０號四樓之１","E_COORD97":168433.39000000001,"N_COORD97":2543729.3999999999,"ADDRESS":"民生路一段１０號四樓之１","OBJECTID":611434},"geometry":{"x":168433.38999999966,"y":2543729.4000000004}},{"attributes":{"ID":611462,"DIS_CODE":0,"TOWNNAME":"中西區","LI":"三民里","LIN":"3鄰","STREET":"民生路","SECT":"一段","MAREA":" ","LANE":" ","ALLEY":" ","HOUSE_NO":"１０號四樓之２","E_COORD97":168433.39000000001,"N_COORD97":2543729.3999999999,"ADDRESS":"民生路一段１０號四樓之２","OBJECTID":611435},"geometry":{"x":168433.38999999966,"y":2543729.4000000004}},{"attributes":{"ID":611463,"DIS_CODE":0,"TOWNNAME":"中西區","LI":"三民里","LIN":"3鄰","STREET":"民生路","SECT":"一段","MAREA":" ","LANE":" ","ALLEY":" ","HOUSE_NO":"１０號四樓之３","E_COORD97":168433.39000000001,"N_COORD97":2543729.3999999999,"ADDRESS":"民生路一段１０號四樓之３","OBJECTID":611436},"geometry":{"x":168433.38999999966,"y":2543729.4000000004}},{"attributes":{"ID":611464,"DIS_CODE":0,"TOWNNAME":"新化區","LI":"太平里","LIN":"3鄰","STREET":"太平街","SECT":" ","MAREA":" ","LANE":" ","ALLEY":" ","HOUSE_NO":"１３號之２二樓","E_COORD97":179022.57000000001,"N_COORD97":2548822.2599999998,"ADDRESS":"太平街１３號之２二樓","OBJECTID":611437},"geometry":{"x":179022.5700000003,"y":2548822.2599999998}},{"attributes":{"ID":611465,"DIS_CODE":0,"TOWNNAME":"新化區","LI":"太平里","LIN":"3鄰","STREET":"太平街","SECT":" ","MAREA":" ","LANE":" ","ALLEY":" ","HOUSE_NO":"１３號之２三樓","E_COORD97":179022.57000000001,"N_COORD97":2548822.2599999998,"ADDRESS":"太平街１３號之２三樓","OBJECTID":611438},"geometry":{"x":179022.5700000003,"y":2548822.2599999998}},{"attributes":{"ID":611466,"DIS_CODE":0,"TOWNNAME":"新化區","LI":"太平里","LIN":"3鄰","STREET":"太平街","SECT":" ","MAREA":" ","LANE":" ","ALLEY":" ","HOUSE_NO":"１３號之２五樓","E_COORD97":179022.57000000001,"N_COORD97":2548822.2599999998,"ADDRESS":"太平街１３號之２五樓","OBJECTID":611439},"geometry":{"x":179022.5700000003,"y":2548822.2599999998}},{"attributes":{"ID":611467,"DIS_CODE":0,"TOWNNAME":"東區","LI":"南聖里","LIN":"3鄰","STREET":"富農街","SECT":"二段","MAREA":" ","LANE":" ","ALLEY":" ","HOUSE_NO":"１３０號三樓","E_COORD97":171646.10999999999,"N_COORD97":2543145.04,"ADDRESS":"富農街二段１３０號三樓","OBJECTID":611440},"geometry":{"x":171646.11000000127,"y":2543145.0400000028}},{"attributes":{"ID":611468,"DIS_CODE":0,"TOWNNAME":"東區","LI":"大福里","LIN":"3鄰","STREET":"榮譽街","SECT":" ","MAREA":" ","LANE":" ","ALLEY":" ","HOUSE_NO":"４５號之３四樓","E_COORD97":169647.31,"N_COORD97":2541668.6600000001,"ADDRESS":"榮譽街４５號之３四樓","OBJECTID":611441},"geometry":{"x":169647.31000000052,"y":2541668.660000002}},{"attributes":{"ID":611469,"DIS_CODE":0,"TOWNNAME":"東區","LI":"大福里","LIN":"3鄰","STREET":"榮譽街","SECT":" ","MAREA":" ","LANE":" ","ALLEY":" ","HOUSE_NO":"４５號二樓之２","E_COORD97":169652.79999999999,"N_COORD97":2541662.0499999998,"ADDRESS":"榮譽街４５號二樓之２","OBJECTID":611442},"geometry":{"x":169652.80000000075,"y":2541662.0500000026}},{"attributes":{"ID":611470,"DIS_CODE":0,"TOWNNAME":"東區","LI":"大福里","LIN":"3鄰","STREET":"榮譽街","SECT":" ","MAREA":" ","LANE":" ","ALLEY":" ","HOUSE_NO":"４５號三樓之１","E_COORD97":169652.79999999999,"N_COORD97":2541662.0499999998,"ADDRESS":"榮譽街４５號三樓之１","OBJECTID":611443},"geometry":{"x":169652.80000000075,"y":2541662.0500000026}},{"attributes":{"ID":611471,"DIS_CODE":0,"TOWNNAME":"東區","LI":"大福里","LIN":"3鄰","STREET":"榮譽街","SECT":" ","MAREA":" ","LANE":" ","ALLEY":" ","HOUSE_NO":"４５號三樓之２","E_COORD97":169652.79999999999,"N_COORD97":2541662.0499999998,"ADDRESS":"榮譽街４５號三樓之２","OBJECTID":611444},"geometry":{"x":169652.80000000075,"y":2541662.0500000026}},{"attributes":{"ID":611472,"DIS_CODE":0,"TOWNNAME":"東區","LI":"大福里","LIN":"3鄰","STREET":"榮譽街","SECT":" ","MAREA":" ","LANE":" ","ALLEY":" ","HOUSE_NO":"４５號之３三樓","E_COORD97":169647.31,"N_COORD97":2541668.6600000001,"ADDRESS":"榮譽街４５號之３三樓","OBJECTID":611445},"geometry":{"x":169647.31000000052,"y":2541668.660000002}},{"attributes":{"ID":611473,"DIS_CODE":0,"TOWNNAME":"東區","LI":"大福里","LIN":"3鄰","STREET":"榮譽街","SECT":" ","MAREA":" ","LANE":" ","ALLEY":" ","HOUSE_NO":"４５號五樓之１","E_COORD97":169652.79999999999,"N_COORD97":2541662.0499999998,"ADDRESS":"榮譽街４５號五樓之１","OBJECTID":611446},"geometry":{"x":169652.80000000075,"y":2541662.0500000026}},{"attributes":{"ID":611474,"DIS_CODE":0,"TOWNNAME":"東區","LI":"大福里","LIN":"3鄰","STREET":"榮譽街","SECT":" ","MAREA":" ","LANE":" ","ALLEY":" ","HOUSE_NO":"４５號五樓之２","E_COORD97":169652.79999999999,"N_COORD97":2541662.0499999998,"ADDRESS":"榮譽街４５號五樓之２","OBJECTID":611447},"geometry":{"x":169652.80000000075,"y":2541662.0500000026}},{"attributes":{"ID":611475,"DIS_CODE":0,"TOWNNAME":"東區","LI":"大福里","LIN":"3鄰","STREET":"榮譽街","SECT":" ","MAREA":" ","LANE":" ","ALLEY":" ","HOUSE_NO":"４５號四樓之２","E_COORD97":169652.79999999999,"N_COORD97":2541662.0499999998,"ADDRESS":"榮譽街４５號四樓之２","OBJECTID":611448},"geometry":{"x":169652.80000000075,"y":2541662.0500000026}},{"attributes":{"ID":611476,"DIS_CODE":0,"TOWNNAME":"東區","LI":"大福里","LIN":"3鄰","STREET":"榮譽街","SECT":" ","MAREA":" ","LANE":" ","ALLEY":" ","HOUSE_NO":"４５號四樓之１","E_COORD97":169652.79999999999,"N_COORD97":2541662.0499999998,"ADDRESS":"榮譽街４５號四樓之１","OBJECTID":611449},"geometry":{"x":169652.80000000075,"y":2541662.0500000026}},{"attributes":{"ID":611477,"DIS_CODE":0,"TOWNNAME":"東區","LI":"大福里","LIN":"3鄰","STREET":"榮譽街","SECT":" ","MAREA":" ","LANE":" ","ALLEY":" ","HOUSE_NO":"４５號之３二樓","E_COORD97":169647.31,"N_COORD97":2541668.6600000001,"ADDRESS":"榮譽街４５號之３二樓","OBJECTID":611450},"geometry":{"x":169647.31000000052,"y":2541668.660000002}},{"attributes":{"ID":611478,"DIS_CODE":0,"TOWNNAME":"東區","LI":"大福里","LIN":"3鄰","STREET":"榮譽街","SECT":" ","MAREA":" ","LANE":" ","ALLEY":" ","HOUSE_NO":"４５號之３五樓","E_COORD97":169647.31,"N_COORD97":2541668.6600000001,"ADDRESS":"榮譽街４５號之３五樓","OBJECTID":611451},"geometry":{"x":169647.31000000052,"y":2541668.660000002}},{"attributes":{"ID":611479,"DIS_CODE":0,"TOWNNAME":"永康區","LI":"\u25A0行里","LIN":"3鄰","STREET":"中正路","SECT":" ","MAREA":" ","LANE":" ","ALLEY":" ","HOUSE_NO":"８７０號五樓之２","E_COORD97":172102.14999999999,"N_COORD97":2548811.1000000001,"ADDRESS":"中正路８７０號五樓之２","OBJECTID":611452},"geometry":{"x":172102.1500000013,"y":2548811.1000000015}},{"attributes":{"ID":611480,"DIS_CODE":0,"TOWNNAME":"中西區","LI":"郡西里","LIN":"3鄰","STREET":"郡西路","SECT":" ","MAREA":" ","LANE":" ","ALLEY":" ","HOUSE_NO":"７號","E_COORD97":167349.35999999999,"N_COORD97":2543203.27,"ADDRESS":"郡西路７號","OBJECTID":611453},"geometry":{"x":167349.36000000034,"y":2543203.2699999996}},{"attributes":{"ID":611481,"DIS_CODE":0,"TOWNNAME":"永康區","LI":"\u25A0行里","LIN":"3鄰","STREET":"中正路","SECT":" ","MAREA":" ","LANE":" ","ALLEY":" ","HOUSE_NO":"８７０號七樓之４","E_COORD97":172102.04000000001,"N_COORD97":2548811.1000000001,"ADDRESS":"中正路８７０號七樓之４","OBJECTID":611454},"geometry":{"x":172102.04000000097,"y":2548811.1000000015}},{"attributes":{"ID":611482,"DIS_CODE":0,"TOWNNAME":"新化區","LI":"唪口里","LIN":"4鄰","STREET":"大德路","SECT":" ","MAREA":" ","LANE":" ","ALLEY":" ","HOUSE_NO":"８６號之９","E_COORD97":178196.32000000001,"N_COORD97":2549511.2599999998,"ADDRESS":"大德路８６號之９","OBJECTID":611455},"geometry":{"x":178196.32000000123,"y":2549511.2600000035}},{"attributes":{"ID":611483,"DIS_CODE":0,"TOWNNAME":"永康區","LI":"\u25A0行里","LIN":"3鄰","STREET":"中正路","SECT":" ","MAREA":" ","LANE":" ","ALLEY":" ","HOUSE_NO":"８７４號六樓之１","E_COORD97":172097.95999999999,"N_COORD97":2548814.8500000001,"ADDRESS":"中正路８７４號六樓之１","OBJECTID":611456},"geometry":{"x":172097.96000000089,"y":2548814.8499999996}},{"attributes":{"ID":611484,"DIS_CODE":0,"TOWNNAME":"永康區","LI":"\u25A0洲里","LIN":"3鄰","STREET":"\u25A0洲二街","SECT":" ","MAREA":" ","LANE":" ","ALLEY":" ","HOUSE_NO":"１８６號三樓之２","E_COORD97":171725.56,"N_COORD97":2549383.8399999999,"ADDRESS":"\u25A0洲二街１８６號三樓之２","OBJECTID":611457},"geometry":{"x":171725.56000000052,"y":2549383.8399999999}},{"attributes":{"ID":611485,"DIS_CODE":0,"TOWNNAME":"永康區","LI":"\u25A0洲里","LIN":"3鄰","STREET":"\u25A0洲二街","SECT":" ","MAREA":" ","LANE":" ","ALLEY":" ","HOUSE_NO":"１９０號七樓之２","E_COORD97":171734.19,"N_COORD97":2549392.0899999999,"ADDRESS":"\u25A0洲二街１９０號七樓之２","OBJECTID":611458},"geometry":{"x":171734.19000000134,"y":2549392.0900000017}},{"attributes":{"ID":611486,"DIS_CODE":0,"TOWNNAME":"永康區","LI":"\u25A0行里","LIN":"3鄰","STREET":"中正路","SECT":" ","MAREA":" ","LANE":" ","ALLEY":" ","HOUSE_NO":"８７４號四樓之６","E_COORD97":172098.07000000001,"N_COORD97":2548814.8500000001,"ADDRESS":"中正路８７４號四樓之６","OBJECTID":611459},"geometry":{"x":172098.0700000003,"y":2548814.8499999996}},{"attributes":{"ID":611487,"DIS_CODE":0,"TOWNNAME":"永康區","LI":"\u25A0行里","LIN":"3鄰","STREET":"中正路","SECT":" ","MAREA":" ","LANE":" ","ALLEY":" ","HOUSE_NO":"８７４號六樓之６","E_COORD97":172098.07000000001,"N_COORD97":2548814.8500000001,"ADDRESS":"中正路８７４號六樓之６","OBJECTID":611460},"geometry":{"x":172098.0700000003,"y":2548814.8499999996}},{"attributes":{"ID":611488,"DIS_CODE":0,"TOWNNAME":"東區","LI":"中西里","LIN":"3鄰","STREET":"勝利路","SECT":" ","MAREA":" ","LANE":" ","ALLEY":" ","HOUSE_NO":"８號之６二樓","E_COORD97":169825.64999999999,"N_COORD97":2543122.7000000002,"ADDRESS":"勝利路８號之６二樓","OBJECTID":611461},"geometry":{"x":169825.6500000013,"y":2543122.6999999993}},{"attributes":{"ID":611489,"DIS_CODE":0,"TOWNNAME":"永康區","LI":"\u25A0行里","LIN":"3鄰","STREET":"中正路","SECT":" ","MAREA":" ","LANE":" ","ALLEY":" ","HOUSE_NO":"８７０號五樓之１","E_COORD97":172102.01000000001,"N_COORD97":2548811.1000000001,"ADDRESS":"中正路８７０號五樓之１","OBJECTID":611462},"geometry":{"x":172102.01000000071,"y":2548811.1000000015}},{"attributes":{"ID":611490,"DIS_CODE":0,"TOWNNAME":"東區","LI":"東明里","LIN":"3鄰","STREET":"怡東路","SECT":" ","MAREA":" ","LANE":" ","ALLEY":" ","HOUSE_NO":"６２號二樓","E_COORD97":170852.31,"N_COORD97":2543602.6499999999,"ADDRESS":"怡東路６２號二樓","OBJECTID":611463},"geometry":{"x":170852.31000000052,"y":2543602.6500000004}},{"attributes":{"ID":611491,"DIS_CODE":0,"TOWNNAME":"東區","LI":"東明里","LIN":"3鄰","STREET":"怡東路","SECT":" ","MAREA":" ","LANE":" ","ALLEY":" ","HOUSE_NO":"６２號三樓","E_COORD97":170852.31,"N_COORD97":2543602.6499999999,"ADDRESS":"怡東路６２號三樓","OBJECTID":611464},"geometry":{"x":170852.31000000052,"y":2543602.6500000004}},{"attributes":{"ID":611492,"DIS_CODE":0,"TOWNNAME":"永康區","LI":"\u25A0行里","LIN":"3鄰","STREET":"中正七街","SECT":" ","MAREA":" ","LANE":" ","ALLEY":" ","HOUSE_NO":"１０號四樓之６","E_COORD97":172079.04999999999,"N_COORD97":2548864.48,"ADDRESS":"中正七街１０號四樓之６","OBJECTID":611465},"geometry":{"x":172079.04999999981,"y":2548864.4800000023}},{"attributes":{"ID":611493,"DIS_CODE":0,"TOWNNAME":"永康區","LI":"\u25A0行里","LIN":"3鄰","STREET":"中正七街","SECT":" ","MAREA":" ","LANE":" ","ALLEY":" ","HOUSE_NO":"１０號四樓之１５","E_COORD97":172080.35000000001,"N_COORD97":2548864.48,"ADDRESS":"中正七街１０號四樓之１５","OBJECTID":611466},"geometry":{"x":172080.34999999963,"y":2548864.4800000023}},{"attributes":{"ID":611494,"DIS_CODE":0,"TOWNNAME":"永康區","LI":"\u25A0行里","LIN":"3鄰","STREET":"中正七街","SECT":" ","MAREA":" ","LANE":" ","ALLEY":" ","HOUSE_NO":"１０號四樓之９","E_COORD97":172079.03,"N_COORD97":2548864.48,"ADDRESS":"中正七街１０號四樓之９","OBJECTID":611467},"geometry":{"x":172079.03000000119,"y":2548864.4800000023}},{"attributes":{"ID":611495,"DIS_CODE":0,"TOWNNAME":"永康區","LI":"\u25A0行里","LIN":"3鄰","STREET":"中正七街","SECT":" ","MAREA":" ","LANE":" ","ALLEY":" ","HOUSE_NO":"１０號五樓之１１","E_COORD97":172080.19,"N_COORD97":2548864.48,"ADDRESS":"中正七街１０號五樓之１１","OBJECTID":611468},"geometry":{"x":172080.19000000041,"y":2548864.4800000023}},{"attributes":{"ID":611496,"DIS_CODE":0,"TOWNNAME":"永康區","LI":"\u25A0行里","LIN":"3鄰","STREET":"中正七街","SECT":" ","MAREA":" ","LANE":" ","ALLEY":" ","HOUSE_NO":"１０號二樓之１０","E_COORD97":172080.25,"N_COORD97":2548864.48,"ADDRESS":"中正七街１０號二樓之１０","OBJECTID":611469},"geometry":{"x":172080.25000000093,"y":2548864.4800000023}},{"attributes":{"ID":611497,"DIS_CODE":0,"TOWNNAME":"永康區","LI":"\u25A0行里","LIN":"3鄰","STREET":"中正七街","SECT":" ","MAREA":" ","LANE":" ","ALLEY":" ","HOUSE_NO":"１０號三樓之９","E_COORD97":172079.03,"N_COORD97":2548864.48,"ADDRESS":"中正七街１０號三樓之９","OBJECTID":611470},"geometry":{"x":172079.03000000119,"y":2548864.4800000023}},{"attributes":{"ID":611498,"DIS_CODE":0,"TOWNNAME":"永康區","LI":"\u25A0行里","LIN":"3鄰","STREET":"中正七街","SECT":" ","MAREA":" ","LANE":" ","ALLEY":" ","HOUSE_NO":"１０號七樓之１０","E_COORD97":172080.25,"N_COORD97":2548864.48,"ADDRESS":"中正七街１０號七樓之１０","OBJECTID":611471},"geometry":{"x":172080.25000000093,"y":2548864.4800000023}},{"attributes":{"ID":611499,"DIS_CODE":0,"TOWNNAME":"永康區","LI":"\u25A0行里","LIN":"3鄰","STREET":"中正七街","SECT":" ","MAREA":" ","LANE":" ","ALLEY":" ","HOUSE_NO":"１７號四樓之８","E_COORD97":172044.45000000001,"N_COORD97":2548879.54,"ADDRESS":"中正七街１７號四樓之８","OBJECTID":611472},"geometry":{"x":172044.45000000019,"y":2548879.540000001}},{"attributes":{"ID":611500,"DIS_CODE":0,"TOWNNAME":"永康區","LI":"\u25A0行里","LIN":"3鄰","STREET":"中正七街","SECT":" ","MAREA":" ","LANE":" ","ALLEY":" ","HOUSE_NO":"１０號五樓之６","E_COORD97":172079.04999999999,"N_COORD97":2548864.48,"ADDRESS":"中正七街１０號五樓之６","OBJECTID":611473},"geometry":{"x":172079.04999999981,"y":2548864.4800000023}},{"attributes":{"ID":611501,"DIS_CODE":0,"TOWNNAME":"永康區","LI":"\u25A0行里","LIN":"3鄰","STREET":"中正七街","SECT":" ","MAREA":" ","LANE":" ","ALLEY":" ","HOUSE_NO":"１０號六樓之１１","E_COORD97":172080.19,"N_COORD97":2548864.48,"ADDRESS":"中正七街１０號六樓之１１","OBJECTID":611474},"geometry":{"x":172080.19000000041,"y":2548864.4800000023}},{"attributes":{"ID":611502,"DIS_CODE":0,"TOWNNAME":"永康區","LI":"\u25A0行里","LIN":"3鄰","STREET":"中正路","SECT":" ","MAREA":" ","LANE":" ","ALLEY":" ","HOUSE_NO":"８５２號四樓之２","E_COORD97":172144.89000000001,"N_COORD97":2548792.0499999998,"ADDRESS":"中正路８５２號四樓之２","OBJECTID":611475},"geometry":{"x":172144.89000000153,"y":2548792.0500000026}},{"attributes":{"ID":611503,"DIS_CODE":0,"TOWNNAME":"永康區","LI":"\u25A0行里","LIN":"3鄰","STREET":"中正七街","SECT":" ","MAREA":" ","LANE":" ","ALLEY":" ","HOUSE_NO":"１０號四樓之１６","E_COORD97":172080.29999999999,"N_COORD97":2548864.48,"ADDRESS":"中正七街１０號四樓之１６","OBJECTID":611476},"geometry":{"x":172080.30000000075,"y":2548864.4800000023}},{"attributes":{"ID":611504,"DIS_CODE":0,"TOWNNAME":"永康區","LI":"\u25A0行里","LIN":"3鄰","STREET":"中正七街","SECT":" ","MAREA":" ","LANE":" ","ALLEY":" ","HOUSE_NO":"１０號七樓之２","E_COORD97":172079.07999999999,"N_COORD97":2548864.48,"ADDRESS":"中正七街１０號七樓之２","OBJECTID":611477},"geometry":{"x":172079.08000000007,"y":2548864.4800000023}},{"attributes":{"ID":611505,"DIS_CODE":0,"TOWNNAME":"永康區","LI":"\u25A0行里","LIN":"3鄰","STREET":"中正七街","SECT":" ","MAREA":" ","LANE":" ","ALLEY":" ","HOUSE_NO":"１０號二樓之９","E_COORD97":172079.03,"N_COORD97":2548864.48,"ADDRESS":"中正七街１０號二樓之９","OBJECTID":611478},"geometry":{"x":172079.03000000119,"y":2548864.4800000023}},{"attributes":{"ID":611506,"DIS_CODE":0,"TOWNNAME":"永康區","LI":"\u25A0行里","LIN":"3鄰","STREET":"中正七街","SECT":" ","MAREA":" ","LANE":" ","ALLEY":" ","HOUSE_NO":"１７號六樓之５","E_COORD97":172044.45000000001,"N_COORD97":2548879.54,"ADDRESS":"中正七街１７號六樓之５","OBJECTID":611479},"geometry":{"x":172044.45000000019,"y":2548879.540000001}},{"attributes":{"ID":611507,"DIS_CODE":0,"TOWNNAME":"永康區","LI":"\u25A0行里","LIN":"3鄰","STREET":"中正七街","SECT":" ","MAREA":" ","LANE":" ","ALLEY":" ","HOUSE_NO":"１０號二樓之３","E_COORD97":172079.04000000001,"N_COORD97":2548864.48,"ADDRESS":"中正七街１０號二樓之３","OBJECTID":611480},"geometry":{"x":172079.04000000004,"y":2548864.4800000023}},{"attributes":{"ID":611508,"DIS_CODE":0,"TOWNNAME":"永康區","LI":"\u25A0行里","LIN":"3鄰","STREET":"中正七街","SECT":" ","MAREA":" ","LANE":" ","ALLEY":" ","HOUSE_NO":"１０號四樓之２","E_COORD97":172079.07999999999,"N_COORD97":2548864.48,"ADDRESS":"中正七街１０號四樓之２","OBJECTID":611481},"geometry":{"x":172079.08000000007,"y":2548864.4800000023}},{"attributes":{"ID":611509,"DIS_CODE":0,"TOWNNAME":"永康區","LI":"\u25A0行里","LIN":"3鄰","STREET":"中正七街","SECT":" ","MAREA":" ","LANE":" ","ALLEY":" ","HOUSE_NO":"１０號五樓之１５","E_COORD97":172080.35000000001,"N_COORD97":2548864.48,"ADDRESS":"中正七街１０號五樓之１５","OBJECTID":611482},"geometry":{"x":172080.34999999963,"y":2548864.4800000023}},{"attributes":{"ID":611510,"DIS_CODE":0,"TOWNNAME":"永康區","LI":"\u25A0行里","LIN":"3鄰","STREET":"中正路","SECT":" ","MAREA":" ","LANE":" ","ALLEY":" ","HOUSE_NO":"８７０號五樓之４","E_COORD97":172102.04000000001,"N_COORD97":2548811.1000000001,"ADDRESS":"中正路８７０號五樓之４","OBJECTID":611483},"geometry":{"x":172102.04000000097,"y":2548811.1000000015}},{"attributes":{"ID":611511,"DIS_CODE":0,"TOWNNAME":"永康區","LI":"\u25A0行里","LIN":"3鄰","STREET":"中正七街","SECT":" ","MAREA":" ","LANE":" ","ALLEY":" ","HOUSE_NO":"１０號七樓之１３","E_COORD97":172080.29000000001,"N_COORD97":2548864.48,"ADDRESS":"中正七街１０號七樓之１３","OBJECTID":611484},"geometry":{"x":172080.29000000097,"y":2548864.4800000023}},{"attributes":{"ID":611512,"DIS_CODE":0,"TOWNNAME":"永康區","LI":"\u25A0行里","LIN":"3鄰","STREET":"中正七街","SECT":" ","MAREA":" ","LANE":" ","ALLEY":" ","HOUSE_NO":"１７號五樓之１２","E_COORD97":172045.67999999999,"N_COORD97":2548879.54,"ADDRESS":"中正七街１７號五樓之１２","OBJECTID":611485},"geometry":{"x":172045.6799999997,"y":2548879.540000001}},{"attributes":{"ID":611513,"DIS_CODE":0,"TOWNNAME":"永康區","LI":"\u25A0行里","LIN":"3鄰","STREET":"中正七街","SECT":" ","MAREA":" ","LANE":" ","ALLEY":" ","HOUSE_NO":"１０號七樓之１２","E_COORD97":172080.32999999999,"N_COORD97":2548864.48,"ADDRESS":"中正七街１０號七樓之１２","OBJECTID":611486},"geometry":{"x":172080.33000000101,"y":2548864.4800000023}},{"attributes":{"ID":611514,"DIS_CODE":0,"TOWNNAME":"永康區","LI":"\u25A0行里","LIN":"3鄰","STREET":"中正七街","SECT":" ","MAREA":" ","LANE":" ","ALLEY":" ","HOUSE_NO":"１７號六樓之１","E_COORD97":172044.29999999999,"N_COORD97":2548879.54,"ADDRESS":"中正七街１７號六樓之１","OBJECTID":611487},"geometry":{"x":172044.30000000075,"y":2548879.540000001}},{"attributes":{"ID":611515,"DIS_CODE":0,"TOWNNAME":"永康區","LI":"\u25A0行里","LIN":"3鄰","STREET":"中正七街","SECT":" ","MAREA":" ","LANE":" ","ALLEY":" ","HOUSE_NO":"１７號六樓之１２","E_COORD97":172045.67999999999,"N_COORD97":2548879.54,"ADDRESS":"中正七街１７號六樓之１２","OBJECTID":611488},"geometry":{"x":172045.6799999997,"y":2548879.540000001}},{"attributes":{"ID":611516,"DIS_CODE":0,"TOWNNAME":"永康區","LI":"\u25A0行里","LIN":"3鄰","STREET":"中正路","SECT":" ","MAREA":" ","LANE":" ","ALLEY":" ","HOUSE_NO":"８７４號七樓之３","E_COORD97":172098.06,"N_COORD97":2548814.8500000001,"ADDRESS":"中正路８７４號七樓之３","OBJECTID":611489},"geometry":{"x":172098.06000000052,"y":2548814.8499999996}},{"attributes":{"ID":611517,"DIS_CODE":0,"TOWNNAME":"永康區","LI":"\u25A0行里","LIN":"3鄰","STREET":"中正七街","SECT":" ","MAREA":" ","LANE":" ","ALLEY":" ","HOUSE_NO":"１０號五樓之１７","E_COORD97":172080.26999999999,"N_COORD97":2548864.48,"ADDRESS":"中正七街１０號五樓之１７","OBJECTID":611490},"geometry":{"x":172080.26999999955,"y":2548864.4800000023}},{"attributes":{"ID":611518,"DIS_CODE":0,"TOWNNAME":"永康區","LI":"\u25A0行里","LIN":"3鄰","STREET":"中正七街","SECT":" ","MAREA":" ","LANE":" ","ALLEY":" ","HOUSE_NO":"１７號四樓之１","E_COORD97":172044.29999999999,"N_COORD97":2548879.54,"ADDRESS":"中正七街１７號四樓之１","OBJECTID":611491},"geometry":{"x":172044.30000000075,"y":2548879.540000001}},{"attributes":{"ID":611519,"DIS_CODE":0,"TOWNNAME":"永康區","LI":"\u25A0行里","LIN":"3鄰","STREET":"中正路","SECT":" ","MAREA":" ","LANE":" ","ALLEY":" ","HOUSE_NO":"８７０號六樓之４","E_COORD97":172102.04000000001,"N_COORD97":2548811.1000000001,"ADDRESS":"中正路８７０號六樓之４","OBJECTID":611492},"geometry":{"x":172102.04000000097,"y":2548811.1000000015}},{"attributes":{"ID":611520,"DIS_CODE":0,"TOWNNAME":"永康區","LI":"\u25A0行里","LIN":"3鄰","STREET":"中正七街","SECT":" ","MAREA":" ","LANE":" ","ALLEY":" ","HOUSE_NO":"１０號六樓之９","E_COORD97":172079.03,"N_COORD97":2548864.48,"ADDRESS":"中正七街１０號六樓之９","OBJECTID":611493},"geometry":{"x":172079.03000000119,"y":2548864.4800000023}},{"attributes":{"ID":611521,"DIS_CODE":0,"TOWNNAME":"永康區","LI":"\u25A0行里","LIN":"3鄰","STREET":"中正七街","SECT":" ","MAREA":" ","LANE":" ","ALLEY":" ","HOUSE_NO":"１０號七樓之３","E_COORD97":172079.04000000001,"N_COORD97":2548864.48,"ADDRESS":"中正七街１０號七樓之３","OBJECTID":611494},"geometry":{"x":172079.04000000004,"y":2548864.4800000023}},{"attributes":{"ID":611522,"DIS_CODE":0,"TOWNNAME":"永康區","LI":"\u25A0行里","LIN":"3鄰","STREET":"中正七街","SECT":" ","MAREA":" ","LANE":" ","ALLEY":" ","HOUSE_NO":"１０號四樓之８","E_COORD97":172079.09,"N_COORD97":2548864.48,"ADDRESS":"中正七街１０號四樓之８","OBJECTID":611495},"geometry":{"x":172079.08999999985,"y":2548864.4800000023}},{"attributes":{"ID":611523,"DIS_CODE":0,"TOWNNAME":"永康區","LI":"\u25A0行里","LIN":"3鄰","STREET":"中正路","SECT":" ","MAREA":" ","LANE":" ","ALLEY":" ","HOUSE_NO":"８７０號五樓之５","E_COORD97":172102.17000000001,"N_COORD97":2548811.1000000001,"ADDRESS":"中正路８７０號五樓之５","OBJECTID":611496},"geometry":{"x":172102.16999999993,"y":2548811.1000000015}},{"attributes":{"ID":611524,"DIS_CODE":0,"TOWNNAME":"永康區","LI":"\u25A0行里","LIN":"3鄰","STREET":"中正路","SECT":" ","MAREA":" ","LANE":" ","ALLEY":" ","HOUSE_NO":"８５２號八樓之３","E_COORD97":172144.85999999999,"N_COORD97":2548792.0499999998,"ADDRESS":"中正路８５２號八樓之３","OBJECTID":611497},"geometry":{"x":172144.86000000127,"y":2548792.0500000026}},{"attributes":{"ID":611525,"DIS_CODE":0,"TOWNNAME":"永康區","LI":"\u25A0行里","LIN":"3鄰","STREET":"中正七街","SECT":" ","MAREA":" ","LANE":" ","ALLEY":" ","HOUSE_NO":"１７號八樓之１","E_COORD97":172044.42999999999,"N_COORD97":2548879.54,"ADDRESS":"中正七街１７號八樓之１","OBJECTID":611498},"geometry":{"x":172044.4299999997,"y":2548879.540000001}},{"attributes":{"ID":611526,"DIS_CODE":0,"TOWNNAME":"永康區","LI":"\u25A0行里","LIN":"3鄰","STREET":"中正七街","SECT":" ","MAREA":" ","LANE":" ","ALLEY":" ","HOUSE_NO":"１０號八樓之６","E_COORD97":172079.04999999999,"N_COORD97":2548864.48,"ADDRESS":"中正七街１０號八樓之６","OBJECTID":611499},"geometry":{"x":172079.04999999981,"y":2548864.4800000023}},{"attributes":{"ID":611527,"DIS_CODE":0,"TOWNNAME":"永康區","LI":"\u25A0行里","LIN":"3鄰","STREET":"中正七街","SECT":" ","MAREA":" ","LANE":" ","ALLEY":" ","HOUSE_NO":"１７號八樓之１","E_COORD97":172044.45000000001,"N_COORD97":2548879.54,"ADDRESS":"中正七街１７號八樓之１","OBJECTID":611500},"geometry":{"x":172044.45000000019,"y":2548879.540000001}},{"attributes":{"ID":611528,"DIS_CODE":0,"TOWNNAME":"永康區","LI":"\u25A0行里","LIN":"3鄰","STREET":"中正七街","SECT":" ","MAREA":" ","LANE":" ","ALLEY":" ","HOUSE_NO":"１０號六樓之１５","E_COORD97":172080.35000000001,"N_COORD97":2548864.48,"ADDRESS":"中正七街１０號六樓之１５","OBJECTID":611501},"geometry":{"x":172080.34999999963,"y":2548864.4800000023}},{"attributes":{"ID":611529,"DIS_CODE":0,"TOWNNAME":"永康區","LI":"\u25A0行里","LIN":"3鄰","STREET":"中正七街","SECT":" ","MAREA":" ","LANE":" ","ALLEY":" ","HOUSE_NO":"１７號七樓之８","E_COORD97":172044.45000000001,"N_COORD97":2548879.54,"ADDRESS":"中正七街１７號七樓之８","OBJECTID":611502},"geometry":{"x":172044.45000000019,"y":2548879.540000001}},{"attributes":{"ID":611530,"DIS_CODE":0,"TOWNNAME":"永康區","LI":"\u25A0行里","LIN":"3鄰","STREET":"中正七街","SECT":" ","MAREA":" ","LANE":" ","ALLEY":" ","HOUSE_NO":"１０號四樓之３","E_COORD97":172079.04000000001,"N_COORD97":2548864.48,"ADDRESS":"中正七街１０號四樓之３","OBJECTID":611503},"geometry":{"x":172079.04000000004,"y":2548864.4800000023}},{"attributes":{"ID":611531,"DIS_CODE":0,"TOWNNAME":"永康區","LI":"\u25A0行里","LIN":"3鄰","STREET":"中正七街","SECT":" ","MAREA":" ","LANE":" ","ALLEY":" ","HOUSE_NO":"１０號六樓之７","E_COORD97":172079.01999999999,"N_COORD97":2548864.48,"ADDRESS":"中正七街１０號六樓之７","OBJECTID":611504},"geometry":{"x":172079.01999999955,"y":2548864.4800000023}},{"attributes":{"ID":611532,"DIS_CODE":0,"TOWNNAME":"永康區","LI":"\u25A0行里","LIN":"3鄰","STREET":"中正七街","SECT":" ","MAREA":" ","LANE":" ","ALLEY":" ","HOUSE_NO":"１７號四樓之６","E_COORD97":172044.39999999999,"N_COORD97":2548879.54,"ADDRESS":"中正七街１７號四樓之６","OBJECTID":611505},"geometry":{"x":172044.4000000013,"y":2548879.540000001}},{"attributes":{"ID":611533,"DIS_CODE":0,"TOWNNAME":"永康區","LI":"\u25A0行里","LIN":"3鄰","STREET":"中正路","SECT":" ","MAREA":" ","LANE":" ","ALLEY":" ","HOUSE_NO":"８７０號六樓之５","E_COORD97":172102.17000000001,"N_COORD97":2548811.1000000001,"ADDRESS":"中正路８７０號六樓之５","OBJECTID":611506},"geometry":{"x":172102.16999999993,"y":2548811.1000000015}},{"attributes":{"ID":611534,"DIS_CODE":0,"TOWNNAME":"永康區","LI":"\u25A0行里","LIN":"3鄰","STREET":"中正七街","SECT":" ","MAREA":" ","LANE":" ","ALLEY":" ","HOUSE_NO":"１７號七樓之７","E_COORD97":172044.38,"N_COORD97":2548879.54,"ADDRESS":"中正七街１７號七樓之７","OBJECTID":611507},"geometry":{"x":172044.37999999989,"y":2548879.540000001}},{"attributes":{"ID":611535,"DIS_CODE":0,"TOWNNAME":"永康區","LI":"\u25A0行里","LIN":"3鄰","STREET":"中正七街","SECT":" ","MAREA":" ","LANE":" ","ALLEY":" ","HOUSE_NO":"１０號五樓之１２","E_COORD97":172080.32999999999,"N_COORD97":2548864.48,"ADDRESS":"中正七街１０號五樓之１２","OBJECTID":611508},"geometry":{"x":172080.33000000101,"y":2548864.4800000023}},{"attributes":{"ID":611536,"DIS_CODE":0,"TOWNNAME":"永康區","LI":"\u25A0行里","LIN":"3鄰","STREET":"中正七街","SECT":" ","MAREA":" ","LANE":" ","ALLEY":" ","HOUSE_NO":"１０號七樓之１","E_COORD97":172078.94,"N_COORD97":2548864.48,"ADDRESS":"中正七街１０號七樓之１","OBJECTID":611509},"geometry":{"x":172078.94000000041,"y":2548864.4800000023}},{"attributes":{"ID":611537,"DIS_CODE":0,"TOWNNAME":"安南區","LI":"溪北里","LIN":"17鄰","STREET":"惠安街","SECT":" ","MAREA":" ","LANE":" ","ALLEY":" ","HOUSE_NO":"５號","E_COORD97":169140.25,"N_COORD97":2547456.71,"ADDRESS":"惠安街５號","OBJECTID":611510},"geometry":{"x":169140.25,"y":2547456.7100000009}},{"attributes":{"ID":611538,"DIS_CODE":0,"TOWNNAME":"新化區","LI":"護國里","LIN":"9鄰","STREET":"中山路","SECT":" ","MAREA":" ","LANE":" ","ALLEY":" ","HOUSE_NO":"１１５號之５","E_COORD97":179672.97,"N_COORD97":2549133.2599999998,"ADDRESS":"中山路１１５號之５","OBJECTID":611511},"geometry":{"x":179672.97000000067,"y":2549133.2599999998}},{"attributes":{"ID":611539,"DIS_CODE":0,"TOWNNAME":"永康區","LI":"\u25A0行里","LIN":"3鄰","STREET":"中正路","SECT":" ","MAREA":" ","LANE":" ","ALLEY":" ","HOUSE_NO":"８７４號六樓之２","E_COORD97":172098.10000000001,"N_COORD97":2548814.8500000001,"ADDRESS":"中正路８７４號六樓之２","OBJECTID":611512},"geometry":{"x":172098.10000000056,"y":2548814.8499999996}},{"attributes":{"ID":611540,"DIS_CODE":0,"TOWNNAME":"永康區","LI":"\u25A0洲里","LIN":"3鄰","STREET":"\u25A0洲二街","SECT":" ","MAREA":" ","LANE":" ","ALLEY":" ","HOUSE_NO":"１８６號六樓之１","E_COORD97":171725.42999999999,"N_COORD97":2549383.8399999999,"ADDRESS":"\u25A0洲二街１８６號六樓之１","OBJECTID":611513},"geometry":{"x":171725.4299999997,"y":2549383.8399999999}},{"attributes":{"ID":611541,"DIS_CODE":0,"TOWNNAME":"永康區","LI":"\u25A0行里","LIN":"3鄰","STREET":"中正路","SECT":" ","MAREA":" ","LANE":" ","ALLEY":" ","HOUSE_NO":"８５２號六樓之１","E_COORD97":172144.76000000001,"N_COORD97":2548792.0499999998,"ADDRESS":"中正路８５２號六樓之１","OBJECTID":611514},"geometry":{"x":172144.76000000071,"y":2548792.0500000026}},{"attributes":{"ID":611542,"DIS_CODE":0,"TOWNNAME":"永康區","LI":"\u25A0行里","LIN":"3鄰","STREET":"中正路","SECT":" ","MAREA":" ","LANE":" ","ALLEY":" ","HOUSE_NO":"８７４號五樓之３","E_COORD97":172098.06,"N_COORD97":2548814.8500000001,"ADDRESS":"中正路８７４號五樓之３","OBJECTID":611515},"geometry":{"x":172098.06000000052,"y":2548814.8499999996}},{"attributes":{"ID":611543,"DIS_CODE":0,"TOWNNAME":"永康區","LI":"\u25A0行里","LIN":"3鄰","STREET":"中正路","SECT":" ","MAREA":" ","LANE":" ","ALLEY":" ","HOUSE_NO":"８５２號五樓之３","E_COORD97":172144.85999999999,"N_COORD97":2548792.0499999998,"ADDRESS":"中正路８５２號五樓之３","OBJECTID":611516},"geometry":{"x":172144.86000000127,"y":2548792.0500000026}},{"attributes":{"ID":611544,"DIS_CODE":0,"TOWNNAME":"永康區","LI":"\u25A0洲里","LIN":"3鄰","STREET":"\u25A0洲二街","SECT":" ","MAREA":" ","LANE":" ","ALLEY":" ","HOUSE_NO":"１８６號四樓之１","E_COORD97":171725.42999999999,"N_COORD97":2549383.8399999999,"ADDRESS":"\u25A0洲二街１８６號四樓之１","OBJECTID":611517},"geometry":{"x":171725.4299999997,"y":2549383.8399999999}},{"attributes":{"ID":611545,"DIS_CODE":0,"TOWNNAME":"永康區","LI":"\u25A0行里","LIN":"3鄰","STREET":"中正七街","SECT":" ","MAREA":" ","LANE":" ","ALLEY":" ","HOUSE_NO":"１０號四樓之１０","E_COORD97":172080.25,"N_COORD97":2548864.48,"ADDRESS":"中正七街１０號四樓之１０","OBJECTID":611518},"geometry":{"x":172080.25000000093,"y":2548864.4800000023}},{"attributes":{"ID":611546,"DIS_CODE":0,"TOWNNAME":"永康區","LI":"\u25A0行里","LIN":"3鄰","STREET":"中正路","SECT":" ","MAREA":" ","LANE":" ","ALLEY":" ","HOUSE_NO":"８７４號四樓之５","E_COORD97":172098.12,"N_COORD97":2548814.8500000001,"ADDRESS":"中正路８７４號四樓之５","OBJECTID":611519},"geometry":{"x":172098.12000000104,"y":2548814.8499999996}},{"attributes":{"ID":611547,"DIS_CODE":0,"TOWNNAME":"永康區","LI":"\u25A0行里","LIN":"3鄰","STREET":"中正七街","SECT":" ","MAREA":" ","LANE":" ","ALLEY":" ","HOUSE_NO":"１７號七樓之５","E_COORD97":172044.45000000001,"N_COORD97":2548879.54,"ADDRESS":"中正七街１７號七樓之５","OBJECTID":611520},"geometry":{"x":172044.45000000019,"y":2548879.540000001}},{"attributes":{"ID":611548,"DIS_CODE":0,"TOWNNAME":"永康區","LI":"\u25A0行里","LIN":"3鄰","STREET":"中正七街","SECT":" ","MAREA":" ","LANE":" ","ALLEY":" ","HOUSE_NO":"１７號八樓之１","E_COORD97":172045.54999999999,"N_COORD97":2548879.54,"ADDRESS":"中正七街１７號八樓之１","OBJECTID":611521},"geometry":{"x":172045.55000000168,"y":2548879.540000001}},{"attributes":{"ID":611549,"DIS_CODE":0,"TOWNNAME":"東區","LI":"東明里","LIN":"3鄰","STREET":"怡東路","SECT":" ","MAREA":" ","LANE":" ","ALLEY":" ","HOUSE_NO":"６２號五樓","E_COORD97":170852.31,"N_COORD97":2543602.6499999999,"ADDRESS":"怡東路６２號五樓","OBJECTID":611522},"geometry":{"x":170852.31000000052,"y":2543602.6500000004}},{"attributes":{"ID":611550,"DIS_CODE":0,"TOWNNAME":"永康區","LI":"蔦松里","LIN":"3鄰","STREET":"中正北路","SECT":" ","MAREA":" ","LANE":" ","ALLEY":" ","HOUSE_NO":"６１９號十樓之３","E_COORD97":174017.57999999999,"N_COORD97":2549303.29,"ADDRESS":"中正北路６１９號十樓之３","OBJECTID":611523},"geometry":{"x":174017.58000000101,"y":2549303.2899999972}},{"attributes":{"ID":611551,"DIS_CODE":0,"TOWNNAME":"永康區","LI":"蔦松里","LIN":"3鄰","STREET":"中正北路","SECT":" ","MAREA":" ","LANE":" ","ALLEY":" ","HOUSE_NO":"６１９號六樓之２","E_COORD97":174017.60999999999,"N_COORD97":2549303.29,"ADDRESS":"中正北路６１９號六樓之２","OBJECTID":611524},"geometry":{"x":174017.61000000127,"y":2549303.2899999972}},{"attributes":{"ID":611552,"DIS_CODE":0,"TOWNNAME":"永康區","LI":"蔦松里","LIN":"3鄰","STREET":"中正北路","SECT":" ","MAREA":" ","LANE":" ","ALLEY":" ","HOUSE_NO":"６１７號八樓之１","E_COORD97":174034.82000000001,"N_COORD97":2549299.29,"ADDRESS":"中正北路６１７號八樓之１","OBJECTID":611525},"geometry":{"x":174034.82000000123,"y":2549299.2899999991}},{"attributes":{"ID":611553,"DIS_CODE":0,"TOWNNAME":"永康區","LI":"蔦松里","LIN":"3鄰","STREET":"中正北路","SECT":" ","MAREA":" ","LANE":" ","ALLEY":" ","HOUSE_NO":"６１７號六樓之２","E_COORD97":174034.95000000001,"N_COORD97":2549299.29,"ADDRESS":"中正北路６１７號六樓之２","OBJECTID":611526},"geometry":{"x":174034.95000000019,"y":2549299.2899999991}},{"attributes":{"ID":611554,"DIS_CODE":0,"TOWNNAME":"永康區","LI":"蔦松里","LIN":"3鄰","STREET":"中正北路","SECT":" ","MAREA":" ","LANE":" ","ALLEY":" ","HOUSE_NO":"６１７號十一樓之２","E_COORD97":174036.20000000001,"N_COORD97":2549299.29,"ADDRESS":"中正北路６１７號十一樓之２","OBJECTID":611527},"geometry":{"x":174036.20000000019,"y":2549299.2899999991}},{"attributes":{"ID":611555,"DIS_CODE":0,"TOWNNAME":"新化區","LI":"太平里","LIN":"4鄰","STREET":"民生路","SECT":" ","MAREA":" ","LANE":" ","ALLEY":" ","HOUSE_NO":"２４９號","E_COORD97":179022.31,"N_COORD97":2549031.25,"ADDRESS":"民生路２４９號","OBJECTID":611528},"geometry":{"x":179022.30999999959,"y":2549031.2500000019}},{"attributes":{"ID":611556,"DIS_CODE":0,"TOWNNAME":"永康區","LI":"蔦松里","LIN":"3鄰","STREET":"中正北路","SECT":" ","MAREA":" ","LANE":" ","ALLEY":" ","HOUSE_NO":"６１７號七樓之１","E_COORD97":174034.82000000001,"N_COORD97":2549299.29,"ADDRESS":"中正北路６１７號七樓之１","OBJECTID":611529},"geometry":{"x":174034.82000000123,"y":2549299.2899999991}},{"attributes":{"ID":611557,"DIS_CODE":0,"TOWNNAME":"永康區","LI":"蔦松里","LIN":"3鄰","STREET":"中正北路","SECT":" ","MAREA":" ","LANE":" ","ALLEY":" ","HOUSE_NO":"６１７號五樓之１","E_COORD97":174034.82000000001,"N_COORD97":2549299.29,"ADDRESS":"中正北路６１７號五樓之１","OBJECTID":611530},"geometry":{"x":174034.82000000123,"y":2549299.2899999991}},{"attributes":{"ID":611558,"DIS_CODE":0,"TOWNNAME":"永康區","LI":"蔦松里","LIN":"3鄰","STREET":"中正北路","SECT":" ","MAREA":" ","LANE":" ","ALLEY":" ","HOUSE_NO":"６１９號十二樓之１","E_COORD97":174018.73000000001,"N_COORD97":2549303.29,"ADDRESS":"中正北路６１９號十二樓之１","OBJECTID":611531},"geometry":{"x":174018.73000000138,"y":2549303.2899999972}},{"attributes":{"ID":611559,"DIS_CODE":0,"TOWNNAME":"永康區","LI":"蔦松里","LIN":"3鄰","STREET":"中正北路","SECT":" ","MAREA":" ","LANE":" ","ALLEY":" ","HOUSE_NO":"６１９號五樓之３","E_COORD97":174017.57999999999,"N_COORD97":2549303.29,"ADDRESS":"中正北路６１９號五樓之３","OBJECTID":611532},"geometry":{"x":174017.58000000101,"y":2549303.2899999972}},{"attributes":{"ID":611560,"DIS_CODE":0,"TOWNNAME":"永康區","LI":"蔦松里","LIN":"3鄰","STREET":"中正北路","SECT":" ","MAREA":" ","LANE":" ","ALLEY":" ","HOUSE_NO":"６１９號十樓之２","E_COORD97":174017.60999999999,"N_COORD97":2549303.29,"ADDRESS":"中正北路６１９號十樓之２","OBJECTID":611533},"geometry":{"x":174017.61000000127,"y":2549303.2899999972}},{"attributes":{"ID":611561,"DIS_CODE":0,"TOWNNAME":"永康區","LI":"蔦松里","LIN":"3鄰","STREET":"中正北路","SECT":" ","MAREA":" ","LANE":" ","ALLEY":" ","HOUSE_NO":"６１９號六樓之３","E_COORD97":174017.57999999999,"N_COORD97":2549303.29,"ADDRESS":"中正北路６１９號六樓之３","OBJECTID":611534},"geometry":{"x":174017.58000000101,"y":2549303.2899999972}},{"attributes":{"ID":611562,"DIS_CODE":0,"TOWNNAME":"永康區","LI":"蔦松里","LIN":"3鄰","STREET":"中正北路","SECT":" ","MAREA":" ","LANE":" ","ALLEY":" ","HOUSE_NO":"６１７號三樓之１","E_COORD97":174034.82000000001,"N_COORD97":2549299.29,"ADDRESS":"中正北路６１７號三樓之１","OBJECTID":611535},"geometry":{"x":174034.82000000123,"y":2549299.2899999991}},{"attributes":{"ID":611563,"DIS_CODE":0,"TOWNNAME":"永康區","LI":"蔦松里","LIN":"3鄰","STREET":"中正北路","SECT":" ","MAREA":" ","LANE":" ","ALLEY":" ","HOUSE_NO":"６１９號四樓之３","E_COORD97":174017.57999999999,"N_COORD97":2549303.29,"ADDRESS":"中正北路６１９號四樓之３","OBJECTID":611536},"geometry":{"x":174017.58000000101,"y":2549303.2899999972}},{"attributes":{"ID":611564,"DIS_CODE":0,"TOWNNAME":"永康區","LI":"蔦松里","LIN":"3鄰","STREET":"中正北路","SECT":" ","MAREA":" ","LANE":" ","ALLEY":" ","HOUSE_NO":"６１７號十樓之１","E_COORD97":174034.82000000001,"N_COORD97":2549299.29,"ADDRESS":"中正北路６１７號十樓之１","OBJECTID":611537},"geometry":{"x":174034.82000000123,"y":2549299.2899999991}},{"attributes":{"ID":611565,"DIS_CODE":0,"TOWNNAME":"永康區","LI":"蔦松里","LIN":"3鄰","STREET":"中正北路","SECT":" ","MAREA":" ","LANE":" ","ALLEY":" ","HOUSE_NO":"６１９號八樓之２","E_COORD97":174017.60999999999,"N_COORD97":2549303.29,"ADDRESS":"中正北路６１９號八樓之２","OBJECTID":611538},"geometry":{"x":174017.61000000127,"y":2549303.2899999972}},{"attributes":{"ID":611566,"DIS_CODE":0,"TOWNNAME":"仁德區","LI":"大甲里","LIN":"3鄰","STREET":"行大一街","SECT":" ","MAREA":" ","LANE":" ","ALLEY":" ","HOUSE_NO":"２０２號二樓之４","E_COORD97":169797.85000000001,"N_COORD97":2535064.29,"ADDRESS":"行大一街２０２號二樓之４","OBJECTID":611539},"geometry":{"x":169797.85000000056,"y":2535064.290000001}},{"attributes":{"ID":611567,"DIS_CODE":0,"TOWNNAME":"仁德區","LI":"大甲里","LIN":"3鄰","STREET":"行大一街","SECT":" ","MAREA":" ","LANE":" ","ALLEY":" ","HOUSE_NO":"２０２號三樓之７","E_COORD97":169797.89999999999,"N_COORD97":2535064.29,"ADDRESS":"行大一街２０２號三樓之７","OBJECTID":611540},"geometry":{"x":169797.9000000013,"y":2535064.290000001}},{"attributes":{"ID":611568,"DIS_CODE":0,"TOWNNAME":"仁德區","LI":"大甲里","LIN":"3鄰","STREET":"行大一街","SECT":" ","MAREA":" ","LANE":" ","ALLEY":" ","HOUSE_NO":"２０２號四樓之１","E_COORD97":169797.82000000001,"N_COORD97":2535064.29,"ADDRESS":"行大一街２０２號四樓之１","OBJECTID":611541},"geometry":{"x":169797.8200000003,"y":2535064.290000001}},{"attributes":{"ID":611569,"DIS_CODE":0,"TOWNNAME":"仁德區","LI":"大甲里","LIN":"3鄰","STREET":"行大一街","SECT":" ","MAREA":" ","LANE":" ","ALLEY":" ","HOUSE_NO":"２０２號四樓之８","E_COORD97":169797.97,"N_COORD97":2535064.29,"ADDRESS":"行大一街２０２號四樓之８","OBJECTID":611542},"geometry":{"x":169797.96999999974,"y":2535064.290000001}},{"attributes":{"ID":611570,"DIS_CODE":0,"TOWNNAME":"東區","LI":"東明里","LIN":"3鄰","STREET":"怡東路","SECT":" ","MAREA":" ","LANE":" ","ALLEY":" ","HOUSE_NO":"６２號四樓","E_COORD97":170852.31,"N_COORD97":2543602.6499999999,"ADDRESS":"怡東路６２號四樓","OBJECTID":611543},"geometry":{"x":170852.31000000052,"y":2543602.6500000004}},{"attributes":{"ID":611571,"DIS_CODE":0,"TOWNNAME":"東區","LI":"中西里","LIN":"3鄰","STREET":"勝利路","SECT":" ","MAREA":" ","LANE":" ","ALLEY":" ","HOUSE_NO":"８號之３六樓","E_COORD97":169800.94,"N_COORD97":2543132.25,"ADDRESS":"勝利路８號之３六樓","OBJECTID":611544},"geometry":{"x":169800.94000000227,"y":2543132.2500000019}},{"attributes":{"ID":611572,"DIS_CODE":0,"TOWNNAME":"永康區","LI":"\u25A0洲里","LIN":"3鄰","STREET":"\u25A0洲二街","SECT":" ","MAREA":" ","LANE":" ","ALLEY":" ","HOUSE_NO":"１９８號六樓之２","E_COORD97":171746.04999999999,"N_COORD97":2549402.3399999999,"ADDRESS":"\u25A0洲二街１９８號六樓之２","OBJECTID":611545},"geometry":{"x":171746.05000000075,"y":2549402.3400000036}},{"attributes":{"ID":611573,"DIS_CODE":0,"TOWNNAME":"永康區","LI":"蔦松里","LIN":"3鄰","STREET":"中正北路","SECT":" ","MAREA":" ","LANE":" ","ALLEY":" ","HOUSE_NO":"６１７號十二樓之３","E_COORD97":174036.17000000001,"N_COORD97":2549299.29,"ADDRESS":"中正北路６１７號十二樓之３","OBJECTID":611546},"geometry":{"x":174036.16999999993,"y":2549299.2899999991}},{"attributes":{"ID":611574,"DIS_CODE":0,"TOWNNAME":"永康區","LI":"蔦松里","LIN":"3鄰","STREET":"中正北路","SECT":" ","MAREA":" ","LANE":" ","ALLEY":" ","HOUSE_NO":"６１７號二樓","E_COORD97":174032.67999999999,"N_COORD97":2549299.25,"ADDRESS":"中正北路６１７號二樓","OBJECTID":611547},"geometry":{"x":174032.6799999997,"y":2549299.2500000019}},{"attributes":{"ID":611575,"DIS_CODE":0,"TOWNNAME":"永康區","LI":"蔦松里","LIN":"3鄰","STREET":"中正北路","SECT":" ","MAREA":" ","LANE":" ","ALLEY":" ","HOUSE_NO":"６１７號三樓之３","E_COORD97":174034.92000000001,"N_COORD97":2549299.29,"ADDRESS":"中正北路６１７號三樓之３","OBJECTID":611548},"geometry":{"x":174034.91999999899,"y":2549299.2899999991}},{"attributes":{"ID":611576,"DIS_CODE":0,"TOWNNAME":"永康區","LI":"蔦松里","LIN":"3鄰","STREET":"中正北路","SECT":" ","MAREA":" ","LANE":" ","ALLEY":" ","HOUSE_NO":"６１７號四樓之３","E_COORD97":174034.92000000001,"N_COORD97":2549299.29,"ADDRESS":"中正北路６１７號四樓之３","OBJECTID":611549},"geometry":{"x":174034.91999999899,"y":2549299.2899999991}},{"attributes":{"ID":611577,"DIS_CODE":0,"TOWNNAME":"永康區","LI":"蔦松里","LIN":"3鄰","STREET":"中正北路","SECT":" ","MAREA":" ","LANE":" ","ALLEY":" ","HOUSE_NO":"６１７號八樓之２","E_COORD97":174034.95000000001,"N_COORD97":2549299.29,"ADDRESS":"中正北路６１７號八樓之２","OBJECTID":611550},"geometry":{"x":174034.95000000019,"y":2549299.2899999991}},{"attributes":{"ID":611578,"DIS_CODE":0,"TOWNNAME":"永康區","LI":"蔦松里","LIN":"3鄰","STREET":"中正北路","SECT":" ","MAREA":" ","LANE":" ","ALLEY":" ","HOUSE_NO":"６１７號四樓之１","E_COORD97":174034.82000000001,"N_COORD97":2549299.29,"ADDRESS":"中正北路６１７號四樓之１","OBJECTID":611551},"geometry":{"x":174034.82000000123,"y":2549299.2899999991}},{"attributes":{"ID":611579,"DIS_CODE":0,"TOWNNAME":"永康區","LI":"蔦松里","LIN":"3鄰","STREET":"中正北路","SECT":" ","MAREA":" ","LANE":" ","ALLEY":" ","HOUSE_NO":"６１９號四樓之１","E_COORD97":174017.48000000001,"N_COORD97":2549303.29,"ADDRESS":"中正北路６１９號四樓之１","OBJECTID":611552},"geometry":{"x":174017.48000000045,"y":2549303.2899999972}},{"attributes":{"ID":611580,"DIS_CODE":0,"TOWNNAME":"永康區","LI":"蔦松里","LIN":"3鄰","STREET":"中正北路","SECT":" ","MAREA":" ","LANE":" ","ALLEY":" ","HOUSE_NO":"６１７號三樓之２","E_COORD97":174034.95000000001,"N_COORD97":2549299.29,"ADDRESS":"中正北路６１７號三樓之２","OBJECTID":611553},"geometry":{"x":174034.95000000019,"y":2549299.2899999991}},{"attributes":{"ID":611581,"DIS_CODE":0,"TOWNNAME":"永康區","LI":"蔦松里","LIN":"3鄰","STREET":"中正北路","SECT":" ","MAREA":" ","LANE":" ","ALLEY":" ","HOUSE_NO":"６１７號十二樓之１","E_COORD97":174036.07000000001,"N_COORD97":2549299.29,"ADDRESS":"中正北路６１７號十二樓之１","OBJECTID":611554},"geometry":{"x":174036.07000000216,"y":2549299.2899999991}},{"attributes":{"ID":611582,"DIS_CODE":0,"TOWNNAME":"永康區","LI":"蔦松里","LIN":"3鄰","STREET":"中正北路","SECT":" ","MAREA":" ","LANE":" ","ALLEY":" ","HOUSE_NO":"６１７號九樓之２","E_COORD97":174034.95000000001,"N_COORD97":2549299.29,"ADDRESS":"中正北路６１７號九樓之２","OBJECTID":611555},"geometry":{"x":174034.95000000019,"y":2549299.2899999991}},{"attributes":{"ID":611583,"DIS_CODE":0,"TOWNNAME":"永康區","LI":"蔦松里","LIN":"3鄰","STREET":"中正北路","SECT":" ","MAREA":" ","LANE":" ","ALLEY":" ","HOUSE_NO":"６１７號五樓之２","E_COORD97":174034.95000000001,"N_COORD97":2549299.29,"ADDRESS":"中正北路６１７號五樓之２","OBJECTID":611556},"geometry":{"x":174034.95000000019,"y":2549299.2899999991}},{"attributes":{"ID":611584,"DIS_CODE":0,"TOWNNAME":"永康區","LI":"蔦松里","LIN":"3鄰","STREET":"中正北路","SECT":" ","MAREA":" ","LANE":" ","ALLEY":" ","HOUSE_NO":"６１９號三樓之２","E_COORD97":174017.60999999999,"N_COORD97":2549303.29,"ADDRESS":"中正北路６１９號三樓之２","OBJECTID":611557},"geometry":{"x":174017.61000000127,"y":2549303.2899999972}},{"attributes":{"ID":611585,"DIS_CODE":0,"TOWNNAME":"永康區","LI":"蔦松里","LIN":"3鄰","STREET":"中正北路","SECT":" ","MAREA":" ","LANE":" ","ALLEY":" ","HOUSE_NO":"６１９號五樓之２","E_COORD97":174017.60999999999,"N_COORD97":2549303.29,"ADDRESS":"中正北路６１９號五樓之２","OBJECTID":611558},"geometry":{"x":174017.61000000127,"y":2549303.2899999972}},{"attributes":{"ID":611586,"DIS_CODE":0,"TOWNNAME":"永康區","LI":"蔦松里","LIN":"3鄰","STREET":"中正北路","SECT":" ","MAREA":" ","LANE":" ","ALLEY":" ","HOUSE_NO":"６１７號九樓之１","E_COORD97":174034.82000000001,"N_COORD97":2549299.29,"ADDRESS":"中正北路６１７號九樓之１","OBJECTID":611559},"geometry":{"x":174034.82000000123,"y":2549299.2899999991}},{"attributes":{"ID":611587,"DIS_CODE":0,"TOWNNAME":"永康區","LI":"蔦松里","LIN":"3鄰","STREET":"中正北路","SECT":" ","MAREA":" ","LANE":" ","ALLEY":" ","HOUSE_NO":"６１７號七樓之３","E_COORD97":174034.92000000001,"N_COORD97":2549299.29,"ADDRESS":"中正北路６１７號七樓之３","OBJECTID":611560},"geometry":{"x":174034.91999999899,"y":2549299.2899999991}},{"attributes":{"ID":611588,"DIS_CODE":0,"TOWNNAME":"永康區","LI":"\u25A0行里","LIN":"3鄰","STREET":"中正七街","SECT":" ","MAREA":" ","LANE":" ","ALLEY":" ","HOUSE_NO":"１０號八樓之３","E_COORD97":172079.04000000001,"N_COORD97":2548864.48,"ADDRESS":"中正七街１０號八樓之３","OBJECTID":611561},"geometry":{"x":172079.04000000004,"y":2548864.4800000023}},{"attributes":{"ID":611589,"DIS_CODE":0,"TOWNNAME":"永康區","LI":"\u25A0行里","LIN":"3鄰","STREET":"中正七街","SECT":" ","MAREA":" ","LANE":" ","ALLEY":" ","HOUSE_NO":"１７號七樓之３","E_COORD97":172044.39999999999,"N_COORD97":2548879.54,"ADDRESS":"中正七街１７號七樓之３","OBJECTID":611562},"geometry":{"x":172044.4000000013,"y":2548879.540000001}},{"attributes":{"ID":611590,"DIS_CODE":0,"TOWNNAME":"永康區","LI":"\u25A0行里","LIN":"3鄰","STREET":"中正七街","SECT":" ","MAREA":" ","LANE":" ","ALLEY":" ","HOUSE_NO":"１０號六樓之１","E_COORD97":172078.94,"N_COORD97":2548864.48,"ADDRESS":"中正七街１０號六樓之１","OBJECTID":611563},"geometry":{"x":172078.94000000041,"y":2548864.4800000023}},{"attributes":{"ID":611591,"DIS_CODE":0,"TOWNNAME":"永康區","LI":"\u25A0行里","LIN":"3鄰","STREET":"中正七街","SECT":" ","MAREA":" ","LANE":" ","ALLEY":" ","HOUSE_NO":"１７號五樓之３","E_COORD97":172044.39999999999,"N_COORD97":2548879.54,"ADDRESS":"中正七街１７號五樓之３","OBJECTID":611564},"geometry":{"x":172044.4000000013,"y":2548879.540000001}},{"attributes":{"ID":611592,"DIS_CODE":0,"TOWNNAME":"永康區","LI":"\u25A0行里","LIN":"3鄰","STREET":"中正路","SECT":" ","MAREA":" ","LANE":" ","ALLEY":" ","HOUSE_NO":"８７０號六樓之３","E_COORD97":172102.10999999999,"N_COORD97":2548811.1000000001,"ADDRESS":"中正路８７０號六樓之３","OBJECTID":611565},"geometry":{"x":172102.11000000127,"y":2548811.1000000015}},{"attributes":{"ID":611593,"DIS_CODE":0,"TOWNNAME":"永康區","LI":"\u25A0行里","LIN":"3鄰","STREET":"中正七街","SECT":" ","MAREA":" ","LANE":" ","ALLEY":" ","HOUSE_NO":"１７號四樓之１０","E_COORD97":172045.60000000001,"N_COORD97":2548879.54,"ADDRESS":"中正七街１７號四樓之１０","OBJECTID":611566},"geometry":{"x":172045.60000000056,"y":2548879.540000001}},{"attributes":{"ID":611594,"DIS_CODE":0,"TOWNNAME":"永康區","LI":"\u25A0行里","LIN":"3鄰","STREET":"中正七街","SECT":" ","MAREA":" ","LANE":" ","ALLEY":" ","HOUSE_NO":"１７號七樓之１０","E_COORD97":172045.60000000001,"N_COORD97":2548879.54,"ADDRESS":"中正七街１７號七樓之１０","OBJECTID":611567},"geometry":{"x":172045.60000000056,"y":2548879.540000001}},{"attributes":{"ID":611595,"DIS_CODE":0,"TOWNNAME":"永康區","LI":"\u25A0行里","LIN":"3鄰","STREET":"中正七街","SECT":" ","MAREA":" ","LANE":" ","ALLEY":" ","HOUSE_NO":"１０號八樓之１","E_COORD97":172078.94,"N_COORD97":2548864.48,"ADDRESS":"中正七街１０號八樓之１","OBJECTID":611568},"geometry":{"x":172078.94000000041,"y":2548864.4800000023}},{"attributes":{"ID":611596,"DIS_CODE":0,"TOWNNAME":"永康區","LI":"\u25A0行里","LIN":"3鄰","STREET":"中正七街","SECT":" ","MAREA":" ","LANE":" ","ALLEY":" ","HOUSE_NO":"１７號六樓之１０","E_COORD97":172045.60000000001,"N_COORD97":2548879.54,"ADDRESS":"中正七街１７號六樓之１０","OBJECTID":611569},"geometry":{"x":172045.60000000056,"y":2548879.540000001}},{"attributes":{"ID":611597,"DIS_CODE":0,"TOWNNAME":"永康區","LI":"\u25A0行里","LIN":"3鄰","STREET":"中正七街","SECT":" ","MAREA":" ","LANE":" ","ALLEY":" ","HOUSE_NO":"１０號六樓之２","E_COORD97":172079.07999999999,"N_COORD97":2548864.48,"ADDRESS":"中正七街１０號六樓之２","OBJECTID":611570},"geometry":{"x":172079.08000000007,"y":2548864.4800000023}},{"attributes":{"ID":611598,"DIS_CODE":0,"TOWNNAME":"永康區","LI":"\u25A0行里","LIN":"3鄰","STREET":"中正七街","SECT":" ","MAREA":" ","LANE":" ","ALLEY":" ","HOUSE_NO":"１７號七樓之２","E_COORD97":172044.42999999999,"N_COORD97":2548879.54,"ADDRESS":"中正七街１７號七樓之２","OBJECTID":611571},"geometry":{"x":172044.4299999997,"y":2548879.540000001}},{"attributes":{"ID":611599,"DIS_CODE":0,"TOWNNAME":"永康區","LI":"\u25A0行里","LIN":"3鄰","STREET":"中正七街","SECT":" ","MAREA":" ","LANE":" ","ALLEY":" ","HOUSE_NO":"１０號八樓之１１","E_COORD97":172080.19,"N_COORD97":2548864.48,"ADDRESS":"中正七街１０號八樓之１１","OBJECTID":611572},"geometry":{"x":172080.19000000041,"y":2548864.4800000023}},{"attributes":{"ID":611600,"DIS_CODE":0,"TOWNNAME":"永康區","LI":"\u25A0行里","LIN":"3鄰","STREET":"中正七街","SECT":" ","MAREA":" ","LANE":" ","ALLEY":" ","HOUSE_NO":"１７號八樓之１","E_COORD97":172045.67999999999,"N_COORD97":2548879.54,"ADDRESS":"中正七街１７號八樓之１","OBJECTID":611573},"geometry":{"x":172045.6799999997,"y":2548879.540000001}},{"attributes":{"ID":611601,"DIS_CODE":0,"TOWNNAME":"永康區","LI":"\u25A0行里","LIN":"3鄰","STREET":"中正七街","SECT":" ","MAREA":" ","LANE":" ","ALLEY":" ","HOUSE_NO":"１７號八樓之１","E_COORD97":172045.60000000001,"N_COORD97":2548879.54,"ADDRESS":"中正七街１７號八樓之１","OBJECTID":611574},"geometry":{"x":172045.60000000056,"y":2548879.540000001}},{"attributes":{"ID":611602,"DIS_CODE":0,"TOWNNAME":"永康區","LI":"\u25A0行里","LIN":"3鄰","STREET":"中正七街","SECT":" ","MAREA":" ","LANE":" ","ALLEY":" ","HOUSE_NO":"１０號七樓之５","E_COORD97":172079.10000000001,"N_COORD97":2548864.48,"ADDRESS":"中正七街１０號七樓之５","OBJECTID":611575},"geometry":{"x":172079.10000000056,"y":2548864.4800000023}},{"attributes":{"ID":611603,"DIS_CODE":0,"TOWNNAME":"永康區","LI":"\u25A0行里","LIN":"3鄰","STREET":"中正七街","SECT":" ","MAREA":" ","LANE":" ","ALLEY":" ","HOUSE_NO":"１７號五樓之２","E_COORD97":172044.42999999999,"N_COORD97":2548879.54,"ADDRESS":"中正七街１７號五樓之２","OBJECTID":611576},"geometry":{"x":172044.4299999997,"y":2548879.540000001}},{"attributes":{"ID":611604,"DIS_CODE":0,"TOWNNAME":"永康區","LI":"\u25A0行里","LIN":"3鄰","STREET":"中正七街","SECT":" ","MAREA":" ","LANE":" ","ALLEY":" ","HOUSE_NO":"１７號七樓之６","E_COORD97":172044.39999999999,"N_COORD97":2548879.54,"ADDRESS":"中正七街１７號七樓之６","OBJECTID":611577},"geometry":{"x":172044.4000000013,"y":2548879.540000001}},{"attributes":{"ID":611605,"DIS_CODE":0,"TOWNNAME":"新化區","LI":"竹林里","LIN":"5鄰","STREET":"竹林路","SECT":" ","MAREA":" ","LANE":" ","ALLEY":" ","HOUSE_NO":"３０號","E_COORD97":178858.48000000001,"N_COORD97":2548500.25,"ADDRESS":"竹林路３０號","OBJECTID":611578},"geometry":{"x":178858.48000000138,"y":2548500.25}},{"attributes":{"ID":611606,"DIS_CODE":0,"TOWNNAME":"永康區","LI":"\u25A0行里","LIN":"3鄰","STREET":"中正七街","SECT":" ","MAREA":" ","LANE":" ","ALLEY":" ","HOUSE_NO":"１０號六樓之１０","E_COORD97":172080.25,"N_COORD97":2548864.48,"ADDRESS":"中正七街１０號六樓之１０","OBJECTID":611579},"geometry":{"x":172080.25000000093,"y":2548864.4800000023}},{"attributes":{"ID":611607,"DIS_CODE":0,"TOWNNAME":"永康區","LI":"\u25A0行里","LIN":"3鄰","STREET":"中正七街","SECT":" ","MAREA":" ","LANE":" ","ALLEY":" ","HOUSE_NO":"１０號八樓之７","E_COORD97":172079.01999999999,"N_COORD97":2548864.48,"ADDRESS":"中正七街１０號八樓之７","OBJECTID":611580},"geometry":{"x":172079.01999999955,"y":2548864.4800000023}},{"attributes":{"ID":611608,"DIS_CODE":0,"TOWNNAME":"永康區","LI":"\u25A0行里","LIN":"3鄰","STREET":"中正七街","SECT":" ","MAREA":" ","LANE":" ","ALLEY":" ","HOUSE_NO":"１７號七樓之１","E_COORD97":172044.29999999999,"N_COORD97":2548879.54,"ADDRESS":"中正七街１７號七樓之１","OBJECTID":611581},"geometry":{"x":172044.30000000075,"y":2548879.540000001}},{"attributes":{"ID":611609,"DIS_CODE":0,"TOWNNAME":"永康區","LI":"\u25A0行里","LIN":"3鄰","STREET":"中正七街","SECT":" ","MAREA":" ","LANE":" ","ALLEY":" ","HOUSE_NO":"１０號三樓之６","E_COORD97":172079.04999999999,"N_COORD97":2548864.48,"ADDRESS":"中正七街１０號三樓之６","OBJECTID":611582},"geometry":{"x":172079.04999999981,"y":2548864.4800000023}},{"attributes":{"ID":611610,"DIS_CODE":0,"TOWNNAME":"永康區","LI":"\u25A0行里","LIN":"3鄰","STREET":"中正七街","SECT":" ","MAREA":" ","LANE":" ","ALLEY":" ","HOUSE_NO":"１７號五樓之１","E_COORD97":172044.29999999999,"N_COORD97":2548879.54,"ADDRESS":"中正七街１７號五樓之１","OBJECTID":611583},"geometry":{"x":172044.30000000075,"y":2548879.540000001}},{"attributes":{"ID":611611,"DIS_CODE":0,"TOWNNAME":"永康區","LI":"\u25A0行里","LIN":"3鄰","STREET":"中正七街","SECT":" ","MAREA":" ","LANE":" ","ALLEY":" ","HOUSE_NO":"１０號二樓之８","E_COORD97":172079.09,"N_COORD97":2548864.48,"ADDRESS":"中正七街１０號二樓之８","OBJECTID":611584},"geometry":{"x":172079.08999999985,"y":2548864.4800000023}},{"attributes":{"ID":611612,"DIS_CODE":0,"TOWNNAME":"永康區","LI":"\u25A0行里","LIN":"3鄰","STREET":"中正七街","SECT":" ","MAREA":" ","LANE":" ","ALLEY":" ","HOUSE_NO":"１０號七樓之６","E_COORD97":172079.04999999999,"N_COORD97":2548864.48,"ADDRESS":"中正七街１０號七樓之６","OBJECTID":611585},"geometry":{"x":172079.04999999981,"y":2548864.4800000023}},{"attributes":{"ID":611613,"DIS_CODE":0,"TOWNNAME":"永康區","LI":"\u25A0行里","LIN":"3鄰","STREET":"中正七街","SECT":" ","MAREA":" ","LANE":" ","ALLEY":" ","HOUSE_NO":"１７號八樓之１","E_COORD97":172044.29999999999,"N_COORD97":2548879.54,"ADDRESS":"中正七街１７號八樓之１","OBJECTID":611586},"geometry":{"x":172044.30000000075,"y":2548879.540000001}},{"attributes":{"ID":611614,"DIS_CODE":0,"TOWNNAME":"永康區","LI":"\u25A0行里","LIN":"3鄰","STREET":"中正七街","SECT":" ","MAREA":" ","LANE":" ","ALLEY":" ","HOUSE_NO":"１０號八樓之９","E_COORD97":172079.03,"N_COORD97":2548864.48,"ADDRESS":"中正七街１０號八樓之９","OBJECTID":611587},"geometry":{"x":172079.03000000119,"y":2548864.4800000023}},{"attributes":{"ID":611615,"DIS_CODE":0,"TOWNNAME":"永康區","LI":"\u25A0行里","LIN":"3鄰","STREET":"中正七街","SECT":" ","MAREA":" ","LANE":" ","ALLEY":" ","HOUSE_NO":"１７號四樓之３","E_COORD97":172044.39999999999,"N_COORD97":2548879.54,"ADDRESS":"中正七街１７號四樓之３","OBJECTID":611588},"geometry":{"x":172044.4000000013,"y":2548879.540000001}},{"attributes":{"ID":611616,"DIS_CODE":0,"TOWNNAME":"永康區","LI":"\u25A0行里","LIN":"3鄰","STREET":"中正七街","SECT":" ","MAREA":" ","LANE":" ","ALLEY":" ","HOUSE_NO":"１７號四樓之７","E_COORD97":172044.38,"N_COORD97":2548879.54,"ADDRESS":"中正七街１７號四樓之７","OBJECTID":611589},"geometry":{"x":172044.37999999989,"y":2548879.540000001}},{"attributes":{"ID":611617,"DIS_CODE":0,"TOWNNAME":"永康區","LI":"\u25A0行里","LIN":"3鄰","STREET":"中正七街","SECT":" ","MAREA":" ","LANE":" ","ALLEY":" ","HOUSE_NO":"１０號八樓之１０","E_COORD97":172080.25,"N_COORD97":2548864.48,"ADDRESS":"中正七街１０號八樓之１０","OBJECTID":611590},"geometry":{"x":172080.25000000093,"y":2548864.4800000023}},{"attributes":{"ID":611618,"DIS_CODE":0,"TOWNNAME":"永康區","LI":"\u25A0行里","LIN":"3鄰","STREET":"中正七街","SECT":" ","MAREA":" ","LANE":" ","ALLEY":" ","HOUSE_NO":"１７號六樓之１１","E_COORD97":172045.54999999999,"N_COORD97":2548879.54,"ADDRESS":"中正七街１７號六樓之１１","OBJECTID":611591},"geometry":{"x":172045.55000000168,"y":2548879.540000001}},{"attributes":{"ID":611619,"DIS_CODE":0,"TOWNNAME":"永康區","LI":"\u25A0行里","LIN":"3鄰","STREET":"中正路","SECT":" ","MAREA":" ","LANE":" ","ALLEY":" ","HOUSE_NO":"８７０號七樓之２","E_COORD97":172102.14999999999,"N_COORD97":2548811.1000000001,"ADDRESS":"中正路８７０號七樓之２","OBJECTID":611592},"geometry":{"x":172102.1500000013,"y":2548811.1000000015}},{"attributes":{"ID":611620,"DIS_CODE":0,"TOWNNAME":"永康區","LI":"\u25A0行里","LIN":"3鄰","STREET":"中正七街","SECT":" ","MAREA":" ","LANE":" ","ALLEY":" ","HOUSE_NO":"１０號三樓之３","E_COORD97":172079.04000000001,"N_COORD97":2548864.48,"ADDRESS":"中正七街１０號三樓之３","OBJECTID":611593},"geometry":{"x":172079.04000000004,"y":2548864.4800000023}},{"attributes":{"ID":611621,"DIS_CODE":0,"TOWNNAME":"永康區","LI":"\u25A0行里","LIN":"3鄰","STREET":"中正七街","SECT":" ","MAREA":" ","LANE":" ","ALLEY":" ","HOUSE_NO":"１７號六樓之３","E_COORD97":172044.39999999999,"N_COORD97":2548879.54,"ADDRESS":"中正七街１７號六樓之３","OBJECTID":611594},"geometry":{"x":172044.4000000013,"y":2548879.540000001}},{"attributes":{"ID":611622,"DIS_CODE":0,"TOWNNAME":"永康區","LI":"\u25A0行里","LIN":"3鄰","STREET":"中正七街","SECT":" ","MAREA":" ","LANE":" ","ALLEY":" ","HOUSE_NO":"１７號五樓之９","E_COORD97":172044.38,"N_COORD97":2548879.54,"ADDRESS":"中正七街１７號五樓之９","OBJECTID":611595},"geometry":{"x":172044.37999999989,"y":2548879.540000001}},{"attributes":{"ID":611623,"DIS_CODE":0,"TOWNNAME":"永康區","LI":"\u25A0行里","LIN":"3鄰","STREET":"中正七街","SECT":" ","MAREA":" ","LANE":" ","ALLEY":" ","HOUSE_NO":"１０號八樓之２","E_COORD97":172079.07999999999,"N_COORD97":2548864.48,"ADDRESS":"中正七街１０號八樓之２","OBJECTID":611596},"geometry":{"x":172079.08000000007,"y":2548864.4800000023}},{"attributes":{"ID":611624,"DIS_CODE":0,"TOWNNAME":"永康區","LI":"\u25A0行里","LIN":"3鄰","STREET":"中正七街","SECT":" ","MAREA":" ","LANE":" ","ALLEY":" ","HOUSE_NO":"１７號五樓之７","E_COORD97":172044.38,"N_COORD97":2548879.54,"ADDRESS":"中正七街１７號五樓之７","OBJECTID":611597},"geometry":{"x":172044.37999999989,"y":2548879.540000001}},{"attributes":{"ID":611625,"DIS_CODE":0,"TOWNNAME":"永康區","LI":"\u25A0行里","LIN":"3鄰","STREET":"中正七街","SECT":" ","MAREA":" ","LANE":" ","ALLEY":" ","HOUSE_NO":"１７號八樓之１","E_COORD97":172044.38,"N_COORD97":2548879.54,"ADDRESS":"中正七街１７號八樓之１","OBJECTID":611598},"geometry":{"x":172044.37999999989,"y":2548879.540000001}},{"attributes":{"ID":611626,"DIS_CODE":0,"TOWNNAME":"永康區","LI":"\u25A0行里","LIN":"3鄰","STREET":"中正路","SECT":" ","MAREA":" ","LANE":" ","ALLEY":" ","HOUSE_NO":"８７０號四樓之２","E_COORD97":172102.14999999999,"N_COORD97":2548811.1000000001,"ADDRESS":"中正路８７０號四樓之２","OBJECTID":611599},"geometry":{"x":172102.1500000013,"y":2548811.1000000015}},{"attributes":{"ID":611627,"DIS_CODE":0,"TOWNNAME":"永康區","LI":"\u25A0行里","LIN":"3鄰","STREET":"中正七街","SECT":" ","MAREA":" ","LANE":" ","ALLEY":" ","HOUSE_NO":"１７號八樓之１","E_COORD97":172044.45000000001,"N_COORD97":2548879.54,"ADDRESS":"中正七街１７號八樓之１","OBJECTID":611600},"geometry":{"x":172044.45000000019,"y":2548879.540000001}}]}