{"displayFieldName":"TOWNNAME","fieldAliases":{"ID":"ID","DIS_CODE":"DIS_CODE","TOWNNAME":"TOWNNAME","LI":"LI","LIN":"LIN","STREET":"STREET","SECT":"SECT","MAREA":"MAREA","LANE":"LANE","ALLEY":"ALLEY","HOUSE_NO":"HOUSE_NO","E_COORD97":"E_COORD97","N_COORD97":"N_COORD97","ADDRESS":"ADDRESS","OBJECTID":"OBJECTID"},"geometryType":"esriGeometryPoint","spatialReference":{"wkid":102443,"latestWkid":3826},"fields":[{"name":"ID","type":"esriFieldTypeDouble","alias":"ID"},{"name":"DIS_CODE","type":"esriFieldTypeInteger","alias":"DIS_CODE"},{"name":"TOWNNAME","type":"esriFieldTypeString","alias":"TOWNNAME","length":8},{"name":"LI","type":"esriFieldTypeString","alias":"LI","length":8},{"name":"LIN","type":"esriFieldTypeString","alias":"LIN","length":12},{"name":"STREET","type":"esriFieldTypeString","alias":"STREET","length":20},{"name":"SECT","type":"esriFieldTypeString","alias":"SECT","length":8},{"name":"MAREA","type":"esriFieldTypeString","alias":"MAREA","length":12},{"name":"LANE","type":"esriFieldTypeString","alias":"LANE","length":10},{"name":"ALLEY","type":"esriFieldTypeString","alias":"ALLEY","length":10},{"name":"HOUSE_NO","type":"esriFieldTypeString","alias":"HOUSE_NO","length":20},{"name":"E_COORD97","type":"esriFieldTypeDouble","alias":"E_COORD97"},{"name":"N_COORD97","type":"esriFieldTypeDouble","alias":"N_COORD97"},{"name":"ADDRESS","type":"esriFieldTypeString","alias":"ADDRESS","length":50},{"name":"OBJECTID","type":"esriFieldTypeOID","alias":"OBJECTID"}],"features":[{"attributes":{"ID":289207,"DIS_CODE":0,"TOWNNAME":"佳里區","LI":"安西里","LIN":"48鄰","STREET":" ","SECT":" ","MAREA":"安西","LANE":" ","ALLEY":" ","HOUSE_NO":"１２０號之８","E_COORD97":164824.29999999999,"N_COORD97":2562075.0299999998,"ADDRESS":"安西１２０號之８","OBJECTID":289201},"geometry":{"x":164824.30000000075,"y":2562075.0300000012}},{"attributes":{"ID":289208,"DIS_CODE":0,"TOWNNAME":"佳里區","LI":"安西里","LIN":"48鄰","STREET":" ","SECT":" ","MAREA":"安西","LANE":" ","ALLEY":" ","HOUSE_NO":"１２１號之２","E_COORD97":164869.12,"N_COORD97":2562236.04,"ADDRESS":"安西１２１號之２","OBJECTID":289202},"geometry":{"x":164869.12000000011,"y":2562236.0400000028}},{"attributes":{"ID":289209,"DIS_CODE":0,"TOWNNAME":"佳里區","LI":"安西里","LIN":"48鄰","STREET":" ","SECT":" ","MAREA":"安西","LANE":" ","ALLEY":" ","HOUSE_NO":"１２２號之１０","E_COORD97":164814.92999999999,"N_COORD97":2562136.73,"ADDRESS":"安西１２２號之１０","OBJECTID":289203},"geometry":{"x":164814.93000000063,"y":2562136.7300000004}},{"attributes":{"ID":289210,"DIS_CODE":0,"TOWNNAME":"中西區","LI":"三合里","LIN":"16鄰","STREET":"成功路","SECT":" ","MAREA":" ","LANE":" ","ALLEY":" ","HOUSE_NO":"４９９號","E_COORD97":167475.70999999999,"N_COORD97":2544690.0299999998,"ADDRESS":"成功路４９９號","OBJECTID":289204},"geometry":{"x":167475.70999999996,"y":2544690.0299999993}},{"attributes":{"ID":289211,"DIS_CODE":0,"TOWNNAME":"安南區","LI":"南興里","LIN":"10鄰","STREET":"安興街","SECT":" ","MAREA":" ","LANE":"６４６巷","ALLEY":" ","HOUSE_NO":"６９號","E_COORD97":163702.72,"N_COORD97":2552532.1099999999,"ADDRESS":"安興街６４６巷６９號","OBJECTID":289205},"geometry":{"x":163702.72000000067,"y":2552532.1099999994}},{"attributes":{"ID":289212,"DIS_CODE":0,"TOWNNAME":"安南區","LI":"南興里","LIN":"10鄰","STREET":"安興街","SECT":" ","MAREA":" ","LANE":"６４６巷","ALLEY":" ","HOUSE_NO":"７１號","E_COORD97":163702.59,"N_COORD97":2552536.29,"ADDRESS":"安興街６４６巷７１號","OBJECTID":289206},"geometry":{"x":163702.58999999985,"y":2552536.2899999991}},{"attributes":{"ID":289213,"DIS_CODE":0,"TOWNNAME":"安南區","LI":"南興里","LIN":"10鄰","STREET":"安興街","SECT":" ","MAREA":" ","LANE":"６４６巷","ALLEY":" ","HOUSE_NO":"７３號","E_COORD97":163702.59,"N_COORD97":2552541.3599999999,"ADDRESS":"安興街６４６巷７３號","OBJECTID":289207},"geometry":{"x":163702.58999999985,"y":2552541.3600000031}},{"attributes":{"ID":289214,"DIS_CODE":0,"TOWNNAME":"善化區","LI":"文正里","LIN":"10鄰","STREET":"文正路","SECT":" ","MAREA":" ","LANE":"７９巷","ALLEY":" ","HOUSE_NO":"４６號之１","E_COORD97":176987.54000000001,"N_COORD97":2559397.2799999998,"ADDRESS":"文正路７９巷４６號之１","OBJECTID":289208},"geometry":{"x":176987.54000000097,"y":2559397.2800000031}},{"attributes":{"ID":289215,"DIS_CODE":0,"TOWNNAME":"善化區","LI":"坐駕里","LIN":"10鄰","STREET":"自強路","SECT":" ","MAREA":" ","LANE":"１２７巷","ALLEY":" ","HOUSE_NO":"１號","E_COORD97":177949.85999999999,"N_COORD97":2558677,"ADDRESS":"自強路１２７巷１號","OBJECTID":289209},"geometry":{"x":177949.86000000034,"y":2558677}},{"attributes":{"ID":289216,"DIS_CODE":0,"TOWNNAME":"佳里區","LI":"安西里","LIN":"48鄰","STREET":" ","SECT":" ","MAREA":"安西","LANE":" ","ALLEY":" ","HOUSE_NO":"１２２號之８","E_COORD97":164838.23000000001,"N_COORD97":2562141.1200000001,"ADDRESS":"安西１２２號之８","OBJECTID":289210},"geometry":{"x":164838.23000000045,"y":2562141.120000001}},{"attributes":{"ID":289217,"DIS_CODE":0,"TOWNNAME":"佳里區","LI":"安西里","LIN":"48鄰","STREET":" ","SECT":" ","MAREA":"安西","LANE":" ","ALLEY":" ","HOUSE_NO":"１２２號之９","E_COORD97":164836.64000000001,"N_COORD97":2562137.29,"ADDRESS":"安西１２２號之９","OBJECTID":289211},"geometry":{"x":164836.63999999966,"y":2562137.290000001}},{"attributes":{"ID":289218,"DIS_CODE":0,"TOWNNAME":"佳里區","LI":"安西里","LIN":"48鄰","STREET":" ","SECT":" ","MAREA":"安西","LANE":" ","ALLEY":" ","HOUSE_NO":"１２３號之２","E_COORD97":164683.22,"N_COORD97":2562080.3399999999,"ADDRESS":"安西１２３號之２","OBJECTID":289212},"geometry":{"x":164683.21999999974,"y":2562080.3400000017}},{"attributes":{"ID":289219,"DIS_CODE":0,"TOWNNAME":"善化區","LI":"坐駕里","LIN":"10鄰","STREET":"自立路","SECT":" ","MAREA":" ","LANE":"１１１巷","ALLEY":" ","HOUSE_NO":"９號","E_COORD97":177968.07999999999,"N_COORD97":2558578.75,"ADDRESS":"自立路１１１巷９號","OBJECTID":289213},"geometry":{"x":177968.08000000007,"y":2558578.7500000019}},{"attributes":{"ID":289220,"DIS_CODE":0,"TOWNNAME":"東區","LI":"崇明里","LIN":"16鄰","STREET":"崇明路","SECT":" ","MAREA":" ","LANE":"７０６巷","ALLEY":" ","HOUSE_NO":"２１號","E_COORD97":170501.98999999999,"N_COORD97":2541051.8100000001,"ADDRESS":"崇明路７０６巷２１號","OBJECTID":289214},"geometry":{"x":170501.98999999929,"y":2541051.8100000005}},{"attributes":{"ID":289221,"DIS_CODE":0,"TOWNNAME":"東區","LI":"裕聖里","LIN":"10鄰","STREET":"裕信路","SECT":" ","MAREA":" ","LANE":"３９２巷","ALLEY":" ","HOUSE_NO":"６號","E_COORD97":172567.39999999999,"N_COORD97":2542039.23,"ADDRESS":"裕信路３９２巷６號","OBJECTID":289215},"geometry":{"x":172567.40000000037,"y":2542039.2300000004}},{"attributes":{"ID":289222,"DIS_CODE":0,"TOWNNAME":"安南區","LI":"淵西里","LIN":"10鄰","STREET":"安中路","SECT":"四段","MAREA":" ","LANE":"３２０巷","ALLEY":" ","HOUSE_NO":"５０號","E_COORD97":164535.73000000001,"N_COORD97":2550344.5099999998,"ADDRESS":"安中路四段３２０巷５０號","OBJECTID":289216},"geometry":{"x":164535.73000000138,"y":2550344.5100000016}},{"attributes":{"ID":289223,"DIS_CODE":0,"TOWNNAME":"安南區","LI":"淵西里","LIN":"10鄰","STREET":"安中路","SECT":"四段","MAREA":" ","LANE":"３２０巷","ALLEY":" ","HOUSE_NO":"５２號","E_COORD97":164543.23000000001,"N_COORD97":2550345.1899999999,"ADDRESS":"安中路四段３２０巷５２號","OBJECTID":289217},"geometry":{"x":164543.23000000045,"y":2550345.1899999995}},{"attributes":{"ID":289224,"DIS_CODE":0,"TOWNNAME":"安南區","LI":"淵西里","LIN":"10鄰","STREET":"安中路","SECT":"四段","MAREA":" ","LANE":"３２０巷","ALLEY":" ","HOUSE_NO":"５６號","E_COORD97":164546.64000000001,"N_COORD97":2550347.9100000001,"ADDRESS":"安中路四段３２０巷５６號","OBJECTID":289218},"geometry":{"x":164546.63999999966,"y":2550347.9099999983}},{"attributes":{"ID":289225,"DIS_CODE":0,"TOWNNAME":"南區","LI":"建南里","LIN":"7鄰","STREET":"永成路","SECT":"二段","MAREA":" ","LANE":"８８１巷","ALLEY":" ","HOUSE_NO":"３１號","E_COORD97":167416.78187800001,"N_COORD97":2540244.7001499999,"ADDRESS":"永成路二段８８１巷３１號","OBJECTID":289219},"geometry":{"x":167416.78187800199,"y":2540244.7001500018}},{"attributes":{"ID":289226,"DIS_CODE":0,"TOWNNAME":"安南區","LI":"淵西里","LIN":"10鄰","STREET":"安中路","SECT":"四段","MAREA":" ","LANE":"３２０巷","ALLEY":" ","HOUSE_NO":"５８號","E_COORD97":164549.37,"N_COORD97":2550350.6400000001,"ADDRESS":"安中路四段３２０巷５８號","OBJECTID":289220},"geometry":{"x":164549.37000000197,"y":2550350.6400000043}},{"attributes":{"ID":289227,"DIS_CODE":0,"TOWNNAME":"安南區","LI":"淵西里","LIN":"10鄰","STREET":"安中路","SECT":"四段","MAREA":" ","LANE":"３２０巷","ALLEY":" ","HOUSE_NO":"６０號","E_COORD97":164552.32000000001,"N_COORD97":2550352.9100000001,"ADDRESS":"安中路四段３２０巷６０號","OBJECTID":289221},"geometry":{"x":164552.32000000123,"y":2550352.910000002}},{"attributes":{"ID":289228,"DIS_CODE":0,"TOWNNAME":"安南區","LI":"淵西里","LIN":"10鄰","STREET":"安中路","SECT":"四段","MAREA":" ","LANE":"３２０巷","ALLEY":" ","HOUSE_NO":"６２號","E_COORD97":164555.28,"N_COORD97":2550355.3999999999,"ADDRESS":"安中路四段３２０巷６２號","OBJECTID":289222},"geometry":{"x":164555.28000000212,"y":2550355.4000000041}},{"attributes":{"ID":289229,"DIS_CODE":0,"TOWNNAME":"安南區","LI":"淵西里","LIN":"10鄰","STREET":"安中路","SECT":"四段","MAREA":" ","LANE":"３２０巷","ALLEY":" ","HOUSE_NO":"６６號","E_COORD97":164558.45999999999,"N_COORD97":2550358.1299999999,"ADDRESS":"安中路四段３２０巷６６號","OBJECTID":289223},"geometry":{"x":164558.45999999996,"y":2550358.129999999}},{"attributes":{"ID":289230,"DIS_CODE":0,"TOWNNAME":"安南區","LI":"淵西里","LIN":"10鄰","STREET":"安中路","SECT":"四段","MAREA":" ","LANE":"３２０巷","ALLEY":" ","HOUSE_NO":"６８號","E_COORD97":164561.64000000001,"N_COORD97":2550359.9399999999,"ADDRESS":"安中路四段３２０巷６８號","OBJECTID":289224},"geometry":{"x":164561.63999999966,"y":2550359.9399999995}},{"attributes":{"ID":289231,"DIS_CODE":0,"TOWNNAME":"安南區","LI":"淵西里","LIN":"10鄰","STREET":"安中路","SECT":"四段","MAREA":" ","LANE":"３２０巷","ALLEY":" ","HOUSE_NO":"７０號","E_COORD97":164564.60000000001,"N_COORD97":2550362.6699999999,"ADDRESS":"安中路四段３２０巷７０號","OBJECTID":289225},"geometry":{"x":164564.60000000056,"y":2550362.6699999999}},{"attributes":{"ID":289232,"DIS_CODE":0,"TOWNNAME":"安南區","LI":"淵西里","LIN":"10鄰","STREET":"安中路","SECT":"四段","MAREA":" ","LANE":"３２０巷","ALLEY":" ","HOUSE_NO":"７２號","E_COORD97":164567.78,"N_COORD97":2550365.6200000001,"ADDRESS":"安中路四段３２０巷７２號","OBJECTID":289226},"geometry":{"x":164567.78000000119,"y":2550365.6200000029}},{"attributes":{"ID":289233,"DIS_CODE":0,"TOWNNAME":"安南區","LI":"淵西里","LIN":"10鄰","STREET":"安中路","SECT":"四段","MAREA":" ","LANE":"３２０巷","ALLEY":" ","HOUSE_NO":"７６號","E_COORD97":164570.95999999999,"N_COORD97":2550369.48,"ADDRESS":"安中路四段３２０巷７６號","OBJECTID":289227},"geometry":{"x":164570.96000000089,"y":2550369.4800000023}},{"attributes":{"ID":289234,"DIS_CODE":0,"TOWNNAME":"安南區","LI":"安慶里","LIN":"10鄰","STREET":"長溪路","SECT":"一段","MAREA":" ","LANE":"３４１巷","ALLEY":" ","HOUSE_NO":"１１號","E_COORD97":168717.17999999999,"N_COORD97":2548776.0899999999,"ADDRESS":"長溪路一段３４１巷１１號","OBJECTID":289228},"geometry":{"x":168717.18000000063,"y":2548776.0899999999}},{"attributes":{"ID":289235,"DIS_CODE":0,"TOWNNAME":"安南區","LI":"安慶里","LIN":"10鄰","STREET":"長溪路","SECT":"一段","MAREA":" ","LANE":"３４１巷","ALLEY":" ","HOUSE_NO":"１３號","E_COORD97":168716.34,"N_COORD97":2548770.8900000001,"ADDRESS":"長溪路一段３４１巷１３號","OBJECTID":289229},"geometry":{"x":168716.34000000078,"y":2548770.8900000006}},{"attributes":{"ID":289236,"DIS_CODE":0,"TOWNNAME":"安南區","LI":"海東里","LIN":"10鄰","STREET":"海佃路","SECT":"二段","MAREA":" ","LANE":"４６１巷","ALLEY":" ","HOUSE_NO":"２５號","E_COORD97":166640.37,"N_COORD97":2549038.3399999999,"ADDRESS":"海佃路二段４６１巷２５號","OBJECTID":289230},"geometry":{"x":166640.37000000011,"y":2549038.3399999999}},{"attributes":{"ID":289237,"DIS_CODE":0,"TOWNNAME":"安南區","LI":"海東里","LIN":"10鄰","STREET":"海佃路","SECT":"二段","MAREA":" ","LANE":"４６１巷","ALLEY":" ","HOUSE_NO":"２７號","E_COORD97":166636.5,"N_COORD97":2549035.5499999998,"ADDRESS":"海佃路二段４６１巷２７號","OBJECTID":289231},"geometry":{"x":166636.5,"y":2549035.5500000045}},{"attributes":{"ID":289238,"DIS_CODE":0,"TOWNNAME":"安南區","LI":"海東里","LIN":"10鄰","STREET":"海佃路","SECT":"二段","MAREA":" ","LANE":"４６１巷","ALLEY":" ","HOUSE_NO":"２９號","E_COORD97":166633.20999999999,"N_COORD97":2549031.3500000001,"ADDRESS":"海佃路二段４６１巷２９號","OBJECTID":289232},"geometry":{"x":166633.20999999996,"y":2549031.3499999996}},{"attributes":{"ID":289239,"DIS_CODE":0,"TOWNNAME":"安南區","LI":"海東里","LIN":"10鄰","STREET":"海佃路","SECT":"二段","MAREA":" ","LANE":"４６１巷","ALLEY":" ","HOUSE_NO":"３１號","E_COORD97":166630.73999999999,"N_COORD97":2549026.3100000001,"ADDRESS":"海佃路二段４６１巷３１號","OBJECTID":289233},"geometry":{"x":166630.74000000115,"y":2549026.3100000005}},{"attributes":{"ID":289240,"DIS_CODE":0,"TOWNNAME":"安南區","LI":"州南里","LIN":"10鄰","STREET":"安和路","SECT":"四段","MAREA":" ","LANE":"５８９巷","ALLEY":" ","HOUSE_NO":"１６號","E_COORD97":169892.81,"N_COORD97":2551482.4399999999,"ADDRESS":"安和路四段５８９巷１６號","OBJECTID":289234},"geometry":{"x":169892.81000000052,"y":2551482.4399999995}},{"attributes":{"ID":289241,"DIS_CODE":0,"TOWNNAME":"善化區","LI":"文昌里","LIN":"8鄰","STREET":"文昌路","SECT":" ","MAREA":" ","LANE":" ","ALLEY":" ","HOUSE_NO":"２６號","E_COORD97":177475.69,"N_COORD97":2558804.2799999998,"ADDRESS":"文昌路２６號","OBJECTID":289235},"geometry":{"x":177475.69000000134,"y":2558804.2800000012}},{"attributes":{"ID":289242,"DIS_CODE":0,"TOWNNAME":"善化區","LI":"光文里","LIN":"13鄰","STREET":"仁愛路","SECT":" ","MAREA":" ","LANE":" ","ALLEY":" ","HOUSE_NO":"８８號","E_COORD97":178485.29999999999,"N_COORD97":2559102.7599999998,"ADDRESS":"仁愛路８８號","OBJECTID":289236},"geometry":{"x":178485.29999999981,"y":2559102.7600000035}},{"attributes":{"ID":289243,"DIS_CODE":0,"TOWNNAME":"善化區","LI":"文正里","LIN":"13鄰","STREET":"陽明路","SECT":" ","MAREA":" ","LANE":" ","ALLEY":" ","HOUSE_NO":"６６號","E_COORD97":176530.54999999999,"N_COORD97":2559331.7599999998,"ADDRESS":"陽明路６６號","OBJECTID":289237},"geometry":{"x":176530.54999999981,"y":2559331.7599999998}},{"attributes":{"ID":289244,"DIS_CODE":0,"TOWNNAME":"善化區","LI":"文正里","LIN":" ","STREET":"文正路","SECT":" ","MAREA":" ","LANE":" ","ALLEY":" ","HOUSE_NO":"４８號","E_COORD97":176963.67999999999,"N_COORD97":2559395.5299999998,"ADDRESS":"文正路４８號","OBJECTID":289238},"geometry":{"x":176963.6799999997,"y":2559395.5300000031}},{"attributes":{"ID":289245,"DIS_CODE":0,"TOWNNAME":"善化區","LI":"光文里","LIN":" ","STREET":"中山路","SECT":" ","MAREA":" ","LANE":" ","ALLEY":" ","HOUSE_NO":"４０號","E_COORD97":178860.97,"N_COORD97":2559235.5,"ADDRESS":"中山路４０號","OBJECTID":289239},"geometry":{"x":178860.97000000067,"y":2559235.5}},{"attributes":{"ID":289246,"DIS_CODE":0,"TOWNNAME":"善化區","LI":"光文里","LIN":"18鄰","STREET":"信義路","SECT":" ","MAREA":" ","LANE":" ","ALLEY":" ","HOUSE_NO":"１２９號","E_COORD97":178243.04000000001,"N_COORD97":2558956.25,"ADDRESS":"信義路１２９號","OBJECTID":289240},"geometry":{"x":178243.04000000004,"y":2558956.25}},{"attributes":{"ID":289247,"DIS_CODE":0,"TOWNNAME":"善化區","LI":"文昌里","LIN":" ","STREET":"中正路","SECT":" ","MAREA":" ","LANE":" ","ALLEY":" ","HOUSE_NO":"３９５號","E_COORD97":177685.38,"N_COORD97":2558653.75,"ADDRESS":"中正路３９５號","OBJECTID":289241},"geometry":{"x":177685.38000000082,"y":2558653.75}},{"attributes":{"ID":289248,"DIS_CODE":0,"TOWNNAME":"善化區","LI":"文昌里","LIN":"13鄰","STREET":"大信路","SECT":" ","MAREA":" ","LANE":" ","ALLEY":" ","HOUSE_NO":"３９號","E_COORD97":177551.20999999999,"N_COORD97":2558876,"ADDRESS":"大信路３９號","OBJECTID":289242},"geometry":{"x":177551.21000000089,"y":2558876}},{"attributes":{"ID":289249,"DIS_CODE":0,"TOWNNAME":"善化區","LI":"光文里","LIN":"18鄰","STREET":"信義路","SECT":" ","MAREA":" ","LANE":" ","ALLEY":" ","HOUSE_NO":"１３９號","E_COORD97":178239.63,"N_COORD97":2558979,"ADDRESS":"信義路１３９號","OBJECTID":289243},"geometry":{"x":178239.63000000082,"y":2558978.9999999981}},{"attributes":{"ID":289250,"DIS_CODE":0,"TOWNNAME":"善化區","LI":"文昌里","LIN":"4鄰","STREET":"平等路","SECT":" ","MAREA":" ","LANE":" ","ALLEY":" ","HOUSE_NO":"３１號","E_COORD97":177248.53,"N_COORD97":2558933.75,"ADDRESS":"平等路３１號","OBJECTID":289244},"geometry":{"x":177248.53000000026,"y":2558933.7500000019}},{"attributes":{"ID":289251,"DIS_CODE":0,"TOWNNAME":"善化區","LI":"光文里","LIN":" ","STREET":"仁愛路","SECT":" ","MAREA":" ","LANE":" ","ALLEY":" ","HOUSE_NO":"３６號","E_COORD97":178524.42000000001,"N_COORD97":2558962.5099999998,"ADDRESS":"仁愛路３６號","OBJECTID":289245},"geometry":{"x":178524.42000000086,"y":2558962.5100000016}},{"attributes":{"ID":289252,"DIS_CODE":0,"TOWNNAME":"善化區","LI":"光文里","LIN":"13鄰","STREET":"仁愛路","SECT":" ","MAREA":" ","LANE":" ","ALLEY":" ","HOUSE_NO":"７９號","E_COORD97":178488.42000000001,"N_COORD97":2559085.2599999998,"ADDRESS":"仁愛路７９號","OBJECTID":289246},"geometry":{"x":178488.42000000179,"y":2559085.2599999998}},{"attributes":{"ID":289253,"DIS_CODE":0,"TOWNNAME":"佳里區","LI":"安西里","LIN":"48鄰","STREET":"育善街","SECT":" ","MAREA":" ","LANE":" ","ALLEY":" ","HOUSE_NO":"４７號","E_COORD97":164968.75,"N_COORD97":2562188.1600000001,"ADDRESS":"育善街４７號","OBJECTID":289247},"geometry":{"x":164968.75000000186,"y":2562188.1600000001}},{"attributes":{"ID":289254,"DIS_CODE":0,"TOWNNAME":"佳里區","LI":"安西里","LIN":"48鄰","STREET":"育善街","SECT":" ","MAREA":" ","LANE":" ","ALLEY":" ","HOUSE_NO":"５６號","E_COORD97":165002.42000000001,"N_COORD97":2562198.5800000001,"ADDRESS":"育善街５６號","OBJECTID":289248},"geometry":{"x":165002.41999999993,"y":2562198.5800000001}},{"attributes":{"ID":289255,"DIS_CODE":0,"TOWNNAME":"佳里區","LI":"安西里","LIN":"48鄰","STREET":"育善街","SECT":" ","MAREA":" ","LANE":" ","ALLEY":" ","HOUSE_NO":"５８號","E_COORD97":165001.92999999999,"N_COORD97":2562203.3100000001,"ADDRESS":"育善街５８號","OBJECTID":289249},"geometry":{"x":165001.9299999997,"y":2562203.3100000024}},{"attributes":{"ID":289256,"DIS_CODE":0,"TOWNNAME":"佳里區","LI":"安西里","LIN":"48鄰","STREET":"育善街","SECT":" ","MAREA":" ","LANE":" ","ALLEY":" ","HOUSE_NO":"６０號","E_COORD97":165001.57999999999,"N_COORD97":2562208.5099999998,"ADDRESS":"育善街６０號","OBJECTID":289250},"geometry":{"x":165001.58000000007,"y":2562208.5099999998}},{"attributes":{"ID":289257,"DIS_CODE":0,"TOWNNAME":"佳里區","LI":"安西里","LIN":"48鄰","STREET":"育善街","SECT":" ","MAREA":" ","LANE":" ","ALLEY":" ","HOUSE_NO":"６２號","E_COORD97":165001.16,"N_COORD97":2562213.2799999998,"ADDRESS":"育善街６２號","OBJECTID":289251},"geometry":{"x":165001.16000000015,"y":2562213.2799999993}},{"attributes":{"ID":289258,"DIS_CODE":0,"TOWNNAME":"佳里區","LI":"安西里","LIN":"48鄰","STREET":"育善街","SECT":" ","MAREA":" ","LANE":" ","ALLEY":" ","HOUSE_NO":"６４號","E_COORD97":165000.78,"N_COORD97":2562218.0099999998,"ADDRESS":"育善街６４號","OBJECTID":289252},"geometry":{"x":165000.78000000026,"y":2562218.0100000016}},{"attributes":{"ID":289259,"DIS_CODE":0,"TOWNNAME":"佳里區","LI":"安西里","LIN":"48鄰","STREET":"育善街","SECT":" ","MAREA":" ","LANE":" ","ALLEY":" ","HOUSE_NO":"６６號","E_COORD97":165000.53,"N_COORD97":2562223.6499999999,"ADDRESS":"育善街６６號","OBJECTID":289253},"geometry":{"x":165000.53000000026,"y":2562223.6500000022}},{"attributes":{"ID":289260,"DIS_CODE":0,"TOWNNAME":"佳里區","LI":"安西里","LIN":"48鄰","STREET":"育善街","SECT":" ","MAREA":" ","LANE":" ","ALLEY":" ","HOUSE_NO":"７１號","E_COORD97":164964.09,"N_COORD97":2562206.5499999998,"ADDRESS":"育善街７１號","OBJECTID":289254},"geometry":{"x":164964.08999999985,"y":2562206.5500000007}},{"attributes":{"ID":289261,"DIS_CODE":0,"TOWNNAME":"仁德區","LI":"大甲里","LIN":"10鄰","STREET":"行大街","SECT":" ","MAREA":" ","LANE":"３４１巷","ALLEY":" ","HOUSE_NO":"７號","E_COORD97":169646.17999999999,"N_COORD97":2535175.2400000002,"ADDRESS":"行大街３４１巷７號","OBJECTID":289255},"geometry":{"x":169646.18000000063,"y":2535175.2400000021}},{"attributes":{"ID":289262,"DIS_CODE":0,"TOWNNAME":"仁德區","LI":"上崙里","LIN":"10鄰","STREET":"德善路","SECT":" ","MAREA":" ","LANE":"３８５巷","ALLEY":" ","HOUSE_NO":"１號","E_COORD97":174032.92999999999,"N_COORD97":2538366.77,"ADDRESS":"德善路３８５巷１號","OBJECTID":289256},"geometry":{"x":174032.92999999877,"y":2538366.7700000033}},{"attributes":{"ID":289263,"DIS_CODE":0,"TOWNNAME":"仁德區","LI":"上崙里","LIN":"10鄰","STREET":"德善路","SECT":" ","MAREA":" ","LANE":"３８５巷","ALLEY":" ","HOUSE_NO":"１０號","E_COORD97":174041.84,"N_COORD97":2538353.8300000001,"ADDRESS":"德善路３８５巷１０號","OBJECTID":289257},"geometry":{"x":174041.83999999985,"y":2538353.8300000019}},{"attributes":{"ID":289264,"DIS_CODE":0,"TOWNNAME":"仁德區","LI":"上崙里","LIN":"10鄰","STREET":"德善路","SECT":" ","MAREA":" ","LANE":"３４９巷","ALLEY":" ","HOUSE_NO":"４號","E_COORD97":174017.47,"N_COORD97":2538433.0299999998,"ADDRESS":"德善路３４９巷４號","OBJECTID":289258},"geometry":{"x":174017.46999999881,"y":2538433.0300000012}},{"attributes":{"ID":289265,"DIS_CODE":0,"TOWNNAME":"仁德區","LI":"上崙里","LIN":"10鄰","STREET":"德善路","SECT":" ","MAREA":" ","LANE":"３８５巷","ALLEY":" ","HOUSE_NO":"８號","E_COORD97":174036.64000000001,"N_COORD97":2538352.5800000001,"ADDRESS":"德善路３８５巷８號","OBJECTID":289259},"geometry":{"x":174036.64000000153,"y":2538352.5800000019}},{"attributes":{"ID":289266,"DIS_CODE":0,"TOWNNAME":"仁德區","LI":"大甲里","LIN":"10鄰","STREET":"行大街","SECT":" ","MAREA":" ","LANE":"３４１巷","ALLEY":" ","HOUSE_NO":"１號","E_COORD97":169648.51000000001,"N_COORD97":2535186.9900000002,"ADDRESS":"行大街３４１巷１號","OBJECTID":289260},"geometry":{"x":169648.50999999978,"y":2535186.9900000021}},{"attributes":{"ID":289267,"DIS_CODE":0,"TOWNNAME":"中西區","LI":"開山里","LIN":"10鄰","STREET":"大同路","SECT":"一段","MAREA":" ","LANE":"２２巷","ALLEY":" ","HOUSE_NO":"７７號","E_COORD97":169036.85000000001,"N_COORD97":2543229.3399999999,"ADDRESS":"大同路一段２２巷７７號","OBJECTID":289261},"geometry":{"x":169036.85000000056,"y":2543229.3400000017}},{"attributes":{"ID":289268,"DIS_CODE":0,"TOWNNAME":"中西區","LI":"開山里","LIN":"10鄰","STREET":"大同路","SECT":"一段","MAREA":" ","LANE":"２２巷","ALLEY":" ","HOUSE_NO":"７９號","E_COORD97":169032.23000000001,"N_COORD97":2543231.23,"ADDRESS":"大同路一段２２巷７９號","OBJECTID":289262},"geometry":{"x":169032.23000000045,"y":2543231.2300000023}},{"attributes":{"ID":289269,"DIS_CODE":0,"TOWNNAME":"中西區","LI":"開山里","LIN":"10鄰","STREET":"大同路","SECT":"一段","MAREA":" ","LANE":"２２巷","ALLEY":" ","HOUSE_NO":"１９號","E_COORD97":169086.23999999999,"N_COORD97":2543189.6299999999,"ADDRESS":"大同路一段２２巷１９號","OBJECTID":289263},"geometry":{"x":169086.24000000022,"y":2543189.6300000008}},{"attributes":{"ID":289270,"DIS_CODE":0,"TOWNNAME":"中西區","LI":"開山里","LIN":"10鄰","STREET":"大同路","SECT":"一段","MAREA":" ","LANE":"２２巷","ALLEY":" ","HOUSE_NO":"２１號","E_COORD97":169083.14000000001,"N_COORD97":2543191.4199999999,"ADDRESS":"大同路一段２２巷２１號","OBJECTID":289264},"geometry":{"x":169083.13999999966,"y":2543191.4200000018}},{"attributes":{"ID":289271,"DIS_CODE":0,"TOWNNAME":"中西區","LI":"三民里","LIN":"10鄰","STREET":"中山路","SECT":" ","MAREA":" ","LANE":"７９巷","ALLEY":" ","HOUSE_NO":"３０號","E_COORD97":168706.89000000001,"N_COORD97":2543920.52,"ADDRESS":"中山路７９巷３０號","OBJECTID":289265},"geometry":{"x":168706.88999999873,"y":2543920.5199999996}},{"attributes":{"ID":289272,"DIS_CODE":0,"TOWNNAME":"中西區","LI":"三民里","LIN":"10鄰","STREET":"中山路","SECT":" ","MAREA":" ","LANE":"７９巷","ALLEY":" ","HOUSE_NO":"３２號","E_COORD97":168700.76999999999,"N_COORD97":2543920.1099999999,"ADDRESS":"中山路７９巷３２號","OBJECTID":289266},"geometry":{"x":168700.76999999955,"y":2543920.1099999994}},{"attributes":{"ID":289273,"DIS_CODE":0,"TOWNNAME":"佳里區","LI":"安西里","LIN":"48鄰","STREET":"育善街","SECT":" ","MAREA":" ","LANE":"６９巷","ALLEY":" ","HOUSE_NO":"６號","E_COORD97":164895.78,"N_COORD97":2562227.52,"ADDRESS":"育善街６９巷６號","OBJECTID":289267},"geometry":{"x":164895.77999999933,"y":2562227.5200000014}},{"attributes":{"ID":289274,"DIS_CODE":0,"TOWNNAME":"佳里區","LI":"安西里","LIN":"48鄰","STREET":"育善街","SECT":" ","MAREA":" ","LANE":" ","ALLEY":" ","HOUSE_NO":"７３號","E_COORD97":164964.01999999999,"N_COORD97":2562211.0299999998,"ADDRESS":"育善街７３號","OBJECTID":289268},"geometry":{"x":164964.01999999955,"y":2562211.0299999993}},{"attributes":{"ID":289275,"DIS_CODE":0,"TOWNNAME":"佳里區","LI":"安西里","LIN":"48鄰","STREET":"育善街","SECT":" ","MAREA":" ","LANE":" ","ALLEY":" ","HOUSE_NO":"７５號","E_COORD97":164963.70000000001,"N_COORD97":2562215.6099999999,"ADDRESS":"育善街７５號","OBJECTID":289269},"geometry":{"x":164963.70000000019,"y":2562215.6100000031}},{"attributes":{"ID":289276,"DIS_CODE":0,"TOWNNAME":"佳里區","LI":"安西里","LIN":"48鄰","STREET":"育善街","SECT":" ","MAREA":" ","LANE":" ","ALLEY":" ","HOUSE_NO":"７９號","E_COORD97":164963.51999999999,"N_COORD97":2562223.98,"ADDRESS":"育善街７９號","OBJECTID":289270},"geometry":{"x":164963.52000000048,"y":2562223.9800000004}},{"attributes":{"ID":289277,"DIS_CODE":0,"TOWNNAME":"佳里區","LI":"安西里","LIN":"48鄰","STREET":"育善街","SECT":" ","MAREA":" ","LANE":" ","ALLEY":" ","HOUSE_NO":"８１號","E_COORD97":164963.12,"N_COORD97":2562228.4700000002,"ADDRESS":"育善街８１號","OBJECTID":289271},"geometry":{"x":164963.12000000104,"y":2562228.4700000025}},{"attributes":{"ID":289278,"DIS_CODE":0,"TOWNNAME":"麻豆區","LI":"磚井里","LIN":"13鄰","STREET":" ","SECT":" ","MAREA":"磚子井","LANE":" ","ALLEY":" ","HOUSE_NO":"１２５號","E_COORD97":172901.69,"N_COORD97":2563209.0699999998,"ADDRESS":"磚子井１２５號","OBJECTID":289272},"geometry":{"x":172901.69000000134,"y":2563209.0700000003}},{"attributes":{"ID":289279,"DIS_CODE":0,"TOWNNAME":"麻豆區","LI":"磚井里","LIN":"12鄰","STREET":" ","SECT":" ","MAREA":"磚子井","LANE":" ","ALLEY":" ","HOUSE_NO":"１２４號之１","E_COORD97":172905.14999999999,"N_COORD97":2563225.1800000002,"ADDRESS":"磚子井１２４號之１","OBJECTID":289273},"geometry":{"x":172905.1500000013,"y":2563225.1799999997}},{"attributes":{"ID":289280,"DIS_CODE":0,"TOWNNAME":"麻豆區","LI":"磚井里","LIN":"12鄰","STREET":" ","SECT":" ","MAREA":"磚子井","LANE":" ","ALLEY":" ","HOUSE_NO":"１２４號之２","E_COORD97":172909.63,"N_COORD97":2563230.3599999999,"ADDRESS":"磚子井１２４號之２","OBJECTID":289274},"geometry":{"x":172909.63000000175,"y":2563230.3599999994}},{"attributes":{"ID":289281,"DIS_CODE":0,"TOWNNAME":"關廟區","LI":"龜洞里","LIN":"8鄰","STREET":"官崙街","SECT":" ","MAREA":" ","LANE":" ","ALLEY":" ","HOUSE_NO":"５０號","E_COORD97":183468.97024699999,"N_COORD97":2533394.3959599999,"ADDRESS":"官崙街５０號","OBJECTID":289275},"geometry":{"x":183468.97024700139,"y":2533394.3959550019}},{"attributes":{"ID":289282,"DIS_CODE":0,"TOWNNAME":"中西區","LI":"三民里","LIN":"10鄰","STREET":"中山路","SECT":" ","MAREA":" ","LANE":"７９巷","ALLEY":" ","HOUSE_NO":"３４號","E_COORD97":168693.22,"N_COORD97":2543909.52,"ADDRESS":"中山路７９巷３４號","OBJECTID":289276},"geometry":{"x":168693.22000000067,"y":2543909.5200000014}},{"attributes":{"ID":289283,"DIS_CODE":0,"TOWNNAME":"中西區","LI":"三民里","LIN":"10鄰","STREET":"中山路","SECT":" ","MAREA":" ","LANE":"７９巷","ALLEY":" ","HOUSE_NO":"４０號","E_COORD97":168712.59,"N_COORD97":2543880.3799999999,"ADDRESS":"中山路７９巷４０號","OBJECTID":289277},"geometry":{"x":168712.59000000171,"y":2543880.379999999}},{"attributes":{"ID":289284,"DIS_CODE":0,"TOWNNAME":"中西區","LI":"三民里","LIN":"10鄰","STREET":"中山路","SECT":" ","MAREA":" ","LANE":"７９巷","ALLEY":" ","HOUSE_NO":"６號","E_COORD97":168714.01999999999,"N_COORD97":2543854.3100000001,"ADDRESS":"中山路７９巷６號","OBJECTID":289278},"geometry":{"x":168714.01999999955,"y":2543854.3100000024}},{"attributes":{"ID":289285,"DIS_CODE":0,"TOWNNAME":"東區","LI":"裕農里","LIN":"10鄰","STREET":"東寧路","SECT":" ","MAREA":" ","LANE":"５３８巷","ALLEY":" ","HOUSE_NO":"２０號","E_COORD97":171204.89000000001,"N_COORD97":2543201.3199999998,"ADDRESS":"東寧路５３８巷２０號","OBJECTID":289279},"geometry":{"x":171204.88999999966,"y":2543201.3200000003}},{"attributes":{"ID":289286,"DIS_CODE":0,"TOWNNAME":"東區","LI":"裕農里","LIN":"10鄰","STREET":"東寧路","SECT":" ","MAREA":" ","LANE":"５３８巷","ALLEY":" ","HOUSE_NO":"２４號","E_COORD97":171205.54999999999,"N_COORD97":2543192.7400000002,"ADDRESS":"東寧路５３８巷２４號","OBJECTID":289280},"geometry":{"x":171205.55000000075,"y":2543192.7400000021}},{"attributes":{"ID":289287,"DIS_CODE":0,"TOWNNAME":"東區","LI":"裕農里","LIN":"10鄰","STREET":"東寧路","SECT":" ","MAREA":" ","LANE":"５３８巷","ALLEY":" ","HOUSE_NO":"２６號","E_COORD97":171205.88,"N_COORD97":2543189.4399999999,"ADDRESS":"東寧路５３８巷２６號","OBJECTID":289281},"geometry":{"x":171205.87999999896,"y":2543189.4399999995}},{"attributes":{"ID":289288,"DIS_CODE":0,"TOWNNAME":"東區","LI":"裕農里","LIN":"10鄰","STREET":"東寧路","SECT":" ","MAREA":" ","LANE":"５３８巷","ALLEY":" ","HOUSE_NO":"２８號","E_COORD97":171208.14999999999,"N_COORD97":2543185.2999999998,"ADDRESS":"東寧路５３８巷２８號","OBJECTID":289282},"geometry":{"x":171208.15000000224,"y":2543185.3000000007}},{"attributes":{"ID":289289,"DIS_CODE":0,"TOWNNAME":"東區","LI":"裕農里","LIN":"10鄰","STREET":"東寧路","SECT":" ","MAREA":" ","LANE":"５３８巷","ALLEY":" ","HOUSE_NO":"３０號","E_COORD97":171207.89000000001,"N_COORD97":2543181.1499999999,"ADDRESS":"東寧路５３８巷３０號","OBJECTID":289283},"geometry":{"x":171207.8900000006,"y":2543181.1500000004}},{"attributes":{"ID":289290,"DIS_CODE":0,"TOWNNAME":"東區","LI":"仁和里","LIN":"10鄰","STREET":"仁和路","SECT":" ","MAREA":" ","LANE":"１３９巷","ALLEY":" ","HOUSE_NO":"１５號","E_COORD97":171611.69,"N_COORD97":2541103.2799999998,"ADDRESS":"仁和路１３９巷１５號","OBJECTID":289284},"geometry":{"x":171611.69000000134,"y":2541103.2800000012}},{"attributes":{"ID":289291,"DIS_CODE":0,"TOWNNAME":"永康區","LI":"西灣里","LIN":"10鄰","STREET":"大灣五街","SECT":" ","MAREA":" ","LANE":"１４１巷","ALLEY":" ","HOUSE_NO":"１號","E_COORD97":174458.82999999999,"N_COORD97":2545296.6400000001,"ADDRESS":"大灣五街１４１巷１號","OBJECTID":289285},"geometry":{"x":174458.83000000007,"y":2545296.6400000025}},{"attributes":{"ID":289292,"DIS_CODE":0,"TOWNNAME":"永康區","LI":"西橋里","LIN":"10鄰","STREET":"中華西街","SECT":" ","MAREA":" ","LANE":"１２７巷","ALLEY":" ","HOUSE_NO":"９號","E_COORD97":170636.20999999999,"N_COORD97":2546161.9900000002,"ADDRESS":"中華西街１２７巷９號","OBJECTID":289286},"geometry":{"x":170636.21000000089,"y":2546161.9900000021}},{"attributes":{"ID":289293,"DIS_CODE":0,"TOWNNAME":"永康區","LI":"安康里","LIN":"10鄰","STREET":"中華路","SECT":" ","MAREA":" ","LANE":"６１９巷","ALLEY":" ","HOUSE_NO":"６７號","E_COORD97":170855.67999999999,"N_COORD97":2545983.2400000002,"ADDRESS":"中華路６１９巷６７號","OBJECTID":289287},"geometry":{"x":170855.6799999997,"y":2545983.2400000021}},{"attributes":{"ID":289294,"DIS_CODE":0,"TOWNNAME":"永康區","LI":"安康里","LIN":"10鄰","STREET":"中山南路","SECT":" ","MAREA":" ","LANE":"９５巷","ALLEY":" ","HOUSE_NO":"６號","E_COORD97":170873.85000000001,"N_COORD97":2545950.7400000002,"ADDRESS":"中山南路９５巷６號","OBJECTID":289288},"geometry":{"x":170873.85000000056,"y":2545950.7400000002}},{"attributes":{"ID":289295,"DIS_CODE":0,"TOWNNAME":"永康區","LI":"西灣里","LIN":"10鄰","STREET":"大灣五街","SECT":" ","MAREA":" ","LANE":"９３巷","ALLEY":" ","HOUSE_NO":"１１２號","E_COORD97":174504.73999999999,"N_COORD97":2545245.9900000002,"ADDRESS":"大灣五街９３巷１１２號","OBJECTID":289289},"geometry":{"x":174504.74000000115,"y":2545245.9900000021}},{"attributes":{"ID":289296,"DIS_CODE":0,"TOWNNAME":"永康區","LI":"西勢里","LIN":"10鄰","STREET":"廣興街","SECT":" ","MAREA":" ","LANE":"９５巷","ALLEY":" ","HOUSE_NO":"４２號","E_COORD97":176030.95000000001,"N_COORD97":2546679.1099999999,"ADDRESS":"廣興街９５巷４２號","OBJECTID":289290},"geometry":{"x":176030.95000000112,"y":2546679.1100000013}},{"attributes":{"ID":289297,"DIS_CODE":0,"TOWNNAME":"永康區","LI":"西勢里","LIN":"10鄰","STREET":"西勢路","SECT":" ","MAREA":" ","LANE":"１４３巷","ALLEY":" ","HOUSE_NO":"７號","E_COORD97":175977.01999999999,"N_COORD97":2546733,"ADDRESS":"西勢路１４３巷７號","OBJECTID":289291},"geometry":{"x":175977.02000000048,"y":2546732.9999999981}},{"attributes":{"ID":289298,"DIS_CODE":0,"TOWNNAME":"永康區","LI":"西橋里","LIN":"10鄰","STREET":"中華西街","SECT":" ","MAREA":" ","LANE":"１２７巷","ALLEY":" ","HOUSE_NO":"７號","E_COORD97":170640.26000000001,"N_COORD97":2546164.2400000002,"ADDRESS":"中華西街１２７巷７號","OBJECTID":289292},"geometry":{"x":170640.25999999978,"y":2546164.2400000002}},{"attributes":{"ID":289299,"DIS_CODE":0,"TOWNNAME":"東區","LI":"和平里","LIN":"20鄰","STREET":"文化一街","SECT":" ","MAREA":" ","LANE":"１６８巷","ALLEY":" ","HOUSE_NO":"１１號","E_COORD97":171228.62,"N_COORD97":2541856.1699999999,"ADDRESS":"文化一街１６８巷１１號","OBJECTID":289293},"geometry":{"x":171228.62000000104,"y":2541856.1699999999}},{"attributes":{"ID":289300,"DIS_CODE":0,"TOWNNAME":"安南區","LI":"城南里","LIN":"10鄰","STREET":"城西街","SECT":"一段","MAREA":" ","LANE":"２４９巷","ALLEY":" ","HOUSE_NO":"１０號","E_COORD97":160380.89000000001,"N_COORD97":2551149.29,"ADDRESS":"城西街一段２４９巷１０號","OBJECTID":289294},"geometry":{"x":160380.8900000006,"y":2551149.290000001}},{"attributes":{"ID":289301,"DIS_CODE":0,"TOWNNAME":"安南區","LI":"城南里","LIN":"10鄰","STREET":"城西街","SECT":"一段","MAREA":" ","LANE":"２４９巷","ALLEY":" ","HOUSE_NO":"１８號","E_COORD97":160393.07000000001,"N_COORD97":2551144.3199999998,"ADDRESS":"城西街一段２４９巷１８號","OBJECTID":289295},"geometry":{"x":160393.0700000003,"y":2551144.3200000003}},{"attributes":{"ID":289302,"DIS_CODE":0,"TOWNNAME":"安南區","LI":"城南里","LIN":"10鄰","STREET":"城西街","SECT":"一段","MAREA":" ","LANE":"２４９巷","ALLEY":" ","HOUSE_NO":"６號","E_COORD97":160372.94,"N_COORD97":2551154.5,"ADDRESS":"城西街一段２４９巷６號","OBJECTID":289296},"geometry":{"x":160372.94000000134,"y":2551154.5000000019}},{"attributes":{"ID":289303,"DIS_CODE":0,"TOWNNAME":"安南區","LI":"城南里","LIN":"10鄰","STREET":"城西街","SECT":"一段","MAREA":" ","LANE":"２４９巷","ALLEY":" ","HOUSE_NO":"７６號","E_COORD97":160381.39000000001,"N_COORD97":2551107.04,"ADDRESS":"城西街一段２４９巷７６號","OBJECTID":289297},"geometry":{"x":160381.38999999966,"y":2551107.040000001}},{"attributes":{"ID":289304,"DIS_CODE":0,"TOWNNAME":"安南區","LI":"城南里","LIN":"10鄰","STREET":"城西街","SECT":"一段","MAREA":" ","LANE":"２４９巷","ALLEY":" ","HOUSE_NO":"８０號","E_COORD97":160374.67999999999,"N_COORD97":2551120.4300000002,"ADDRESS":"城西街一段２４９巷８０號","OBJECTID":289298},"geometry":{"x":160374.6799999997,"y":2551120.4300000034}},{"attributes":{"ID":289305,"DIS_CODE":0,"TOWNNAME":"安南區","LI":"城南里","LIN":"10鄰","STREET":"城西街","SECT":"一段","MAREA":" ","LANE":"２４９巷","ALLEY":" ","HOUSE_NO":"８４號","E_COORD97":160374.17999999999,"N_COORD97":2551129.3700000001,"ADDRESS":"城西街一段２４９巷８４號","OBJECTID":289299},"geometry":{"x":160374.1799999997,"y":2551129.3700000029}},{"attributes":{"ID":289306,"DIS_CODE":0,"TOWNNAME":"仁德區","LI":"仁義里","LIN":"34鄰","STREET":"正義二街","SECT":" ","MAREA":" ","LANE":" ","ALLEY":" ","HOUSE_NO":"１４９號四樓","E_COORD97":173780.62,"N_COORD97":2541595.0099999998,"ADDRESS":"正義二街１４９號四樓","OBJECTID":289300},"geometry":{"x":173780.62000000011,"y":2541595.0099999998}},{"attributes":{"ID":289307,"DIS_CODE":0,"TOWNNAME":"安南區","LI":"城南里","LIN":"10鄰","STREET":"城西街","SECT":"一段","MAREA":" ","LANE":"２４９巷","ALLEY":" ","HOUSE_NO":"８６號","E_COORD97":160371.69,"N_COORD97":2551134.5800000001,"ADDRESS":"城西街一段２４９巷８６號","OBJECTID":289301},"geometry":{"x":160371.69000000041,"y":2551134.5800000019}},{"attributes":{"ID":289308,"DIS_CODE":0,"TOWNNAME":"安南區","LI":"城南里","LIN":"10鄰","STREET":"城西街","SECT":"一段","MAREA":" ","LANE":"２４９巷","ALLEY":" ","HOUSE_NO":"８８號","E_COORD97":160362.98999999999,"N_COORD97":2551141.3399999999,"ADDRESS":"城西街一段２４９巷８８號","OBJECTID":289302},"geometry":{"x":160362.99000000022,"y":2551141.339999998}},{"attributes":{"ID":289309,"DIS_CODE":0,"TOWNNAME":"安南區","LI":"城南里","LIN":"10鄰","STREET":"城西街","SECT":"一段","MAREA":" ","LANE":"２４９巷","ALLEY":" ","HOUSE_NO":"９２號","E_COORD97":160350.06,"N_COORD97":2551156.98,"ADDRESS":"城西街一段２４９巷９２號","OBJECTID":289303},"geometry":{"x":160350.05999999866,"y":2551156.9800000004}},{"attributes":{"ID":289310,"DIS_CODE":0,"TOWNNAME":"安南區","LI":"城南里","LIN":"10鄰","STREET":"城西街","SECT":"一段","MAREA":" ","LANE":"２４９巷","ALLEY":" ","HOUSE_NO":"９８號","E_COORD97":160341.35999999999,"N_COORD97":2551145.0699999998,"ADDRESS":"城西街一段２４９巷９８號","OBJECTID":289304},"geometry":{"x":160341.36000000034,"y":2551145.0700000022}},{"attributes":{"ID":289311,"DIS_CODE":0,"TOWNNAME":"安南區","LI":"砂崙里","LIN":"10鄰","STREET":"青砂街","SECT":"一段","MAREA":" ","LANE":"６９５巷","ALLEY":" ","HOUSE_NO":"４２號","E_COORD97":159801.82000000001,"N_COORD97":2552814.0499999998,"ADDRESS":"青砂街一段６９５巷４２號","OBJECTID":289305},"geometry":{"x":159801.82000000123,"y":2552814.0500000026}},{"attributes":{"ID":289312,"DIS_CODE":0,"TOWNNAME":"安南區","LI":"砂崙里","LIN":"10鄰","STREET":"青砂街","SECT":"一段","MAREA":" ","LANE":"６９５巷","ALLEY":" ","HOUSE_NO":"４５號","E_COORD97":159811.38,"N_COORD97":2552799.8799999999,"ADDRESS":"青砂街一段６９５巷４５號","OBJECTID":289306},"geometry":{"x":159811.38000000082,"y":2552799.8800000008}},{"attributes":{"ID":289313,"DIS_CODE":0,"TOWNNAME":"安南區","LI":"砂崙里","LIN":"10鄰","STREET":"青砂街","SECT":"一段","MAREA":" ","LANE":"６９５巷","ALLEY":" ","HOUSE_NO":"５１號","E_COORD97":159791.03,"N_COORD97":2552795.2200000002,"ADDRESS":"青砂街一段６９５巷５１號","OBJECTID":289307},"geometry":{"x":159791.03000000026,"y":2552795.2200000025}},{"attributes":{"ID":289314,"DIS_CODE":0,"TOWNNAME":"安南區","LI":"海東里","LIN":"10鄰","STREET":"海環街","SECT":" ","MAREA":" ","LANE":"３２巷","ALLEY":" ","HOUSE_NO":"６４號","E_COORD97":166554.04000000001,"N_COORD97":2549012.5,"ADDRESS":"海環街３２巷６４號","OBJECTID":289308},"geometry":{"x":166554.04000000097,"y":2549012.5000000019}},{"attributes":{"ID":289315,"DIS_CODE":0,"TOWNNAME":"安南區","LI":"城北里","LIN":"10鄰","STREET":"安中路","SECT":"六段","MAREA":" ","LANE":"４２９巷","ALLEY":" ","HOUSE_NO":"３３號","E_COORD97":161139.73000000001,"N_COORD97":2551209.4500000002,"ADDRESS":"安中路六段４２９巷３３號","OBJECTID":289309},"geometry":{"x":161139.73000000045,"y":2551209.4500000011}},{"attributes":{"ID":289316,"DIS_CODE":0,"TOWNNAME":"安南區","LI":"淵中里","LIN":"10鄰","STREET":"本原街","SECT":"三段","MAREA":" ","LANE":"２５８巷","ALLEY":" ","HOUSE_NO":"１２號","E_COORD97":165297.47,"N_COORD97":2550240.4300000002,"ADDRESS":"本原街三段２５８巷１２號","OBJECTID":289310},"geometry":{"x":165297.4700000016,"y":2550240.4300000016}},{"attributes":{"ID":289317,"DIS_CODE":0,"TOWNNAME":"安南區","LI":"淵西里","LIN":"10鄰","STREET":"安中路","SECT":"四段","MAREA":" ","LANE":"３２０巷","ALLEY":" ","HOUSE_NO":"１９號","E_COORD97":164430.48999999999,"N_COORD97":2550324.6800000002,"ADDRESS":"安中路四段３２０巷１９號","OBJECTID":289311},"geometry":{"x":164430.49000000115,"y":2550324.6799999997}},{"attributes":{"ID":289318,"DIS_CODE":0,"TOWNNAME":"安南區","LI":"州南里","LIN":"10鄰","STREET":"安和路","SECT":"四段","MAREA":" ","LANE":"５８９巷","ALLEY":" ","HOUSE_NO":"１０號之１","E_COORD97":169855.79999999999,"N_COORD97":2551473.5899999999,"ADDRESS":"安和路四段５８９巷１０號之１","OBJECTID":289312},"geometry":{"x":169855.80000000075,"y":2551473.5900000017}},{"attributes":{"ID":289319,"DIS_CODE":0,"TOWNNAME":"安南區","LI":"安東里","LIN":"10鄰","STREET":"安和路","SECT":"一段","MAREA":" ","LANE":"２２０巷","ALLEY":" ","HOUSE_NO":"５７號","E_COORD97":169462.67999999999,"N_COORD97":2548016.29,"ADDRESS":"安和路一段２２０巷５７號","OBJECTID":289313},"geometry":{"x":169462.6799999997,"y":2548016.290000001}},{"attributes":{"ID":289320,"DIS_CODE":0,"TOWNNAME":"安南區","LI":"溪北里","LIN":"10鄰","STREET":"府安路","SECT":"四段","MAREA":" ","LANE":"３４巷","ALLEY":" ","HOUSE_NO":"３２號","E_COORD97":169368.89000000001,"N_COORD97":2547390.6499999999,"ADDRESS":"府安路四段３４巷３２號","OBJECTID":289314},"geometry":{"x":169368.8900000006,"y":2547390.6500000022}},{"attributes":{"ID":289321,"DIS_CODE":0,"TOWNNAME":"安南區","LI":"溪北里","LIN":"10鄰","STREET":"府安路","SECT":"四段","MAREA":" ","LANE":"３４巷","ALLEY":" ","HOUSE_NO":"３４號","E_COORD97":169365.45999999999,"N_COORD97":2547396.4700000002,"ADDRESS":"府安路四段３４巷３４號","OBJECTID":289315},"geometry":{"x":169365.45999999996,"y":2547396.4700000025}},{"attributes":{"ID":289322,"DIS_CODE":0,"TOWNNAME":"安南區","LI":"溪北里","LIN":"10鄰","STREET":"府安路","SECT":"四段","MAREA":" ","LANE":"３４巷","ALLEY":" ","HOUSE_NO":"３６號","E_COORD97":169364.37,"N_COORD97":2547399.9100000001,"ADDRESS":"府安路四段３４巷３６號","OBJECTID":289316},"geometry":{"x":169364.37000000104,"y":2547399.910000002}},{"attributes":{"ID":289323,"DIS_CODE":0,"TOWNNAME":"安南區","LI":"溪北里","LIN":"10鄰","STREET":"府安路","SECT":"四段","MAREA":" ","LANE":"３４巷","ALLEY":" ","HOUSE_NO":"４號","E_COORD97":169389.47,"N_COORD97":2547333.1000000001,"ADDRESS":"府安路四段３４巷４號","OBJECTID":289317},"geometry":{"x":169389.46999999974,"y":2547333.1000000015}},{"attributes":{"ID":289324,"DIS_CODE":0,"TOWNNAME":"安南區","LI":"溪北里","LIN":"10鄰","STREET":"府安路","SECT":"四段","MAREA":" ","LANE":"３４巷","ALLEY":" ","HOUSE_NO":"６號","E_COORD97":169387.70999999999,"N_COORD97":2547336.3300000001,"ADDRESS":"府安路四段３４巷６號","OBJECTID":289318},"geometry":{"x":169387.70999999996,"y":2547336.3300000001}},{"attributes":{"ID":289325,"DIS_CODE":0,"TOWNNAME":"安南區","LI":"溪北里","LIN":"10鄰","STREET":"府安路","SECT":"四段","MAREA":" ","LANE":"３４巷","ALLEY":" ","HOUSE_NO":"８號","E_COORD97":169385.73999999999,"N_COORD97":2547339.54,"ADDRESS":"府安路四段３４巷８號","OBJECTID":289319},"geometry":{"x":169385.74000000115,"y":2547339.540000001}},{"attributes":{"ID":289326,"DIS_CODE":0,"TOWNNAME":"中西區","LI":"大涼里","LIN":"2鄰","STREET":"金華新路","SECT":" ","MAREA":" ","LANE":" ","ALLEY":" ","HOUSE_NO":"４７號","E_COORD97":167229.13225200001,"N_COORD97":2543770.8453000002,"ADDRESS":"金華新路４７號","OBJECTID":289320},"geometry":{"x":167229.1322520012,"y":2543770.8452990018}},{"attributes":{"ID":289327,"DIS_CODE":0,"TOWNNAME":"善化區","LI":"文正里","LIN":"10鄰","STREET":"文正路","SECT":" ","MAREA":" ","LANE":"７９巷","ALLEY":" ","HOUSE_NO":"４８號","E_COORD97":176963,"N_COORD97":2559382.2799999998,"ADDRESS":"文正路７９巷４８號","OBJECTID":289321},"geometry":{"x":176963.00000000093,"y":2559382.2799999993}},{"attributes":{"ID":289328,"DIS_CODE":0,"TOWNNAME":"東區","LI":"仁和里","LIN":"10鄰","STREET":"仁和路","SECT":" ","MAREA":" ","LANE":"１３９巷","ALLEY":" ","HOUSE_NO":"５號之２","E_COORD97":171562.51999999999,"N_COORD97":2541087.71,"ADDRESS":"仁和路１３９巷５號之２","OBJECTID":289322},"geometry":{"x":171562.52000000142,"y":2541087.7100000046}},{"attributes":{"ID":289329,"DIS_CODE":0,"TOWNNAME":"東區","LI":"仁和里","LIN":"10鄰","STREET":"仁和路","SECT":" ","MAREA":" ","LANE":"１３９巷","ALLEY":" ","HOUSE_NO":"５號之３","E_COORD97":171566.39000000001,"N_COORD97":2541088.04,"ADDRESS":"仁和路１３９巷５號之３","OBJECTID":289323},"geometry":{"x":171566.38999999966,"y":2541088.040000001}},{"attributes":{"ID":289330,"DIS_CODE":0,"TOWNNAME":"東區","LI":"仁和里","LIN":"10鄰","STREET":"仁和路","SECT":" ","MAREA":" ","LANE":"１３９巷","ALLEY":" ","HOUSE_NO":"９號","E_COORD97":171575.75,"N_COORD97":2541093.52,"ADDRESS":"仁和路１３９巷９號","OBJECTID":289324},"geometry":{"x":171575.75,"y":2541093.5199999996}},{"attributes":{"ID":289331,"DIS_CODE":0,"TOWNNAME":"東區","LI":"仁和里","LIN":"10鄰","STREET":"仁和路","SECT":" ","MAREA":" ","LANE":"１３９巷","ALLEY":" ","HOUSE_NO":"９號之１","E_COORD97":171580.26999999999,"N_COORD97":2541094.8100000001,"ADDRESS":"仁和路１３９巷９號之１","OBJECTID":289325},"geometry":{"x":171580.26999999955,"y":2541094.8100000024}},{"attributes":{"ID":289332,"DIS_CODE":0,"TOWNNAME":"東區","LI":"仁和里","LIN":"10鄰","STREET":"仁和路","SECT":" ","MAREA":" ","LANE":"１３９巷","ALLEY":" ","HOUSE_NO":"９號之３","E_COORD97":171586.72,"N_COORD97":2541100.29,"ADDRESS":"仁和路１３９巷９號之３","OBJECTID":289326},"geometry":{"x":171586.7200000016,"y":2541100.290000001}},{"attributes":{"ID":289333,"DIS_CODE":0,"TOWNNAME":"東區","LI":"大學里","LIN":"10鄰","STREET":"大學路","SECT":" ","MAREA":" ","LANE":"２２巷","ALLEY":" ","HOUSE_NO":"１５號","E_COORD97":170175.62,"N_COORD97":2543981.6400000001,"ADDRESS":"大學路２２巷１５號","OBJECTID":289327},"geometry":{"x":170175.62000000197,"y":2543981.6400000006}},{"attributes":{"ID":289334,"DIS_CODE":0,"TOWNNAME":"東區","LI":"大學里","LIN":"10鄰","STREET":"大學路","SECT":" ","MAREA":" ","LANE":"２２巷","ALLEY":" ","HOUSE_NO":"２０號之１","E_COORD97":170155.20999999999,"N_COORD97":2543931.4399999999,"ADDRESS":"大學路２２巷２０號之１","OBJECTID":289328},"geometry":{"x":170155.21000000089,"y":2543931.4399999995}},{"attributes":{"ID":289335,"DIS_CODE":0,"TOWNNAME":"東區","LI":"龍山里","LIN":"5鄰","STREET":"崇善路","SECT":" ","MAREA":" ","LANE":"２５巷","ALLEY":" ","HOUSE_NO":"９２號","E_COORD97":170240.39999999999,"N_COORD97":2542681.29,"ADDRESS":"崇善路２５巷９２號","OBJECTID":289329},"geometry":{"x":170240.4000000013,"y":2542681.2899999991}},{"attributes":{"ID":289336,"DIS_CODE":0,"TOWNNAME":"東區","LI":"龍山里","LIN":"5鄰","STREET":"崇善路","SECT":" ","MAREA":" ","LANE":"２５巷","ALLEY":" ","HOUSE_NO":"９６號","E_COORD97":170247.60000000001,"N_COORD97":2542690.9900000002,"ADDRESS":"崇善路２５巷９６號","OBJECTID":289330},"geometry":{"x":170247.59999999963,"y":2542690.9900000002}},{"attributes":{"ID":289337,"DIS_CODE":0,"TOWNNAME":"麻豆區","LI":"東角里","LIN":"10鄰","STREET":"信義路","SECT":" ","MAREA":" ","LANE":"１２３巷","ALLEY":" ","HOUSE_NO":"１２號","E_COORD97":173902.76999999999,"N_COORD97":2564695.46,"ADDRESS":"信義路１２３巷１２號","OBJECTID":289331},"geometry":{"x":173902.76999999955,"y":2564695.4600000009}},{"attributes":{"ID":289338,"DIS_CODE":0,"TOWNNAME":"麻豆區","LI":"東角里","LIN":"10鄰","STREET":"信義路","SECT":" ","MAREA":" ","LANE":"１２３巷","ALLEY":" ","HOUSE_NO":"１４號","E_COORD97":173902.54999999999,"N_COORD97":2564699.77,"ADDRESS":"信義路１２３巷１４號","OBJECTID":289332},"geometry":{"x":173902.55000000075,"y":2564699.7700000033}},{"attributes":{"ID":289339,"DIS_CODE":0,"TOWNNAME":"麻豆區","LI":"\u25A0江里","LIN":"10鄰","STREET":"建南一街","SECT":" ","MAREA":" ","LANE":"２巷","ALLEY":" ","HOUSE_NO":"１號","E_COORD97":173616.32000000001,"N_COORD97":2564270.3999999999,"ADDRESS":"建南一街２巷１號","OBJECTID":289333},"geometry":{"x":173616.32000000123,"y":2564270.4000000022}},{"attributes":{"ID":289340,"DIS_CODE":0,"TOWNNAME":"仁德區","LI":"大甲里","LIN":"10鄰","STREET":"行大街","SECT":" ","MAREA":" ","LANE":"３０７巷","ALLEY":" ","HOUSE_NO":"７４號","E_COORD97":169648.62,"N_COORD97":2535128.25,"ADDRESS":"行大街３０７巷７４號","OBJECTID":289334},"geometry":{"x":169648.62000000104,"y":2535128.25}},{"attributes":{"ID":289341,"DIS_CODE":0,"TOWNNAME":"仁德區","LI":"上崙里","LIN":"10鄰","STREET":"德善路","SECT":" ","MAREA":" ","LANE":"３８５巷","ALLEY":" ","HOUSE_NO":"３號","E_COORD97":174036.89000000001,"N_COORD97":2538367.77,"ADDRESS":"德善路３８５巷３號","OBJECTID":289335},"geometry":{"x":174036.8900000006,"y":2538367.7700000014}},{"attributes":{"ID":289342,"DIS_CODE":0,"TOWNNAME":"仁德區","LI":"上崙里","LIN":"10鄰","STREET":"德善路","SECT":" ","MAREA":" ","LANE":"３４９巷","ALLEY":" ","HOUSE_NO":"２號","E_COORD97":174011.22,"N_COORD97":2538431.2799999998,"ADDRESS":"德善路３４９巷２號","OBJECTID":289336},"geometry":{"x":174011.22000000067,"y":2538431.2800000012}},{"attributes":{"ID":289343,"DIS_CODE":0,"TOWNNAME":"仁德區","LI":"大甲里","LIN":"10鄰","STREET":"行大街","SECT":" ","MAREA":" ","LANE":"３０７巷","ALLEY":" ","HOUSE_NO":"７０號","E_COORD97":169643.62,"N_COORD97":2535117.25,"ADDRESS":"行大街３０７巷７０號","OBJECTID":289337},"geometry":{"x":169643.62000000104,"y":2535117.2500000019}},{"attributes":{"ID":289344,"DIS_CODE":0,"TOWNNAME":"仁德區","LI":"仁德里","LIN":"10鄰","STREET":"中正路","SECT":"二段","MAREA":" ","LANE":"１２１５巷","ALLEY":" ","HOUSE_NO":"４號","E_COORD97":173238.97,"N_COORD97":2541208.5299999998,"ADDRESS":"中正路二段１２１５巷４號","OBJECTID":289338},"geometry":{"x":173238.96999999974,"y":2541208.5299999993}},{"attributes":{"ID":289345,"DIS_CODE":0,"TOWNNAME":"仁德區","LI":"仁義里","LIN":"10鄰","STREET":"中山路","SECT":" ","MAREA":" ","LANE":"５０９巷","ALLEY":" ","HOUSE_NO":"２８號","E_COORD97":173526.73999999999,"N_COORD97":2541216.8399999999,"ADDRESS":"中山路５０９巷２８號","OBJECTID":289339},"geometry":{"x":173526.74000000115,"y":2541216.8399999999}},{"attributes":{"ID":289346,"DIS_CODE":0,"TOWNNAME":"仁德區","LI":"仁德里","LIN":"10鄰","STREET":"中正路","SECT":"二段","MAREA":" ","LANE":"１２０５巷","ALLEY":" ","HOUSE_NO":"１１號地下室","E_COORD97":173181.63,"N_COORD97":2541196.0299999998,"ADDRESS":"中正路二段１２０５巷１１號地下室","OBJECTID":289340},"geometry":{"x":173181.63000000082,"y":2541196.0300000031}},{"attributes":{"ID":289347,"DIS_CODE":0,"TOWNNAME":"仁德區","LI":"仁義里","LIN":"10鄰","STREET":"中山路","SECT":" ","MAREA":" ","LANE":"５０９巷","ALLEY":" ","HOUSE_NO":"２０號","E_COORD97":173528.26000000001,"N_COORD97":2541234.3500000001,"ADDRESS":"中山路５０９巷２０號","OBJECTID":289341},"geometry":{"x":173528.26000000071,"y":2541234.3499999978}},{"attributes":{"ID":289348,"DIS_CODE":0,"TOWNNAME":"仁德區","LI":"仁義里","LIN":"10鄰","STREET":"中山路","SECT":" ","MAREA":" ","LANE":"５０９巷","ALLEY":" ","HOUSE_NO":"２６號","E_COORD97":173527.17999999999,"N_COORD97":2541220.8399999999,"ADDRESS":"中山路５０９巷２６號","OBJECTID":289342},"geometry":{"x":173527.1799999997,"y":2541220.8399999999}},{"attributes":{"ID":289349,"DIS_CODE":0,"TOWNNAME":"安南區","LI":"安順里","LIN":"10鄰","STREET":"開安路","SECT":" ","MAREA":" ","LANE":"６３巷","ALLEY":" ","HOUSE_NO":"８０號","E_COORD97":170115.44,"N_COORD97":2549906.3700000001,"ADDRESS":"開安路６３巷８０號","OBJECTID":289343},"geometry":{"x":170115.44000000041,"y":2549906.3700000029}},{"attributes":{"ID":289350,"DIS_CODE":0,"TOWNNAME":"東區","LI":"中西里","LIN":"10鄰","STREET":"勝利路","SECT":" ","MAREA":" ","LANE":"５２巷","ALLEY":" ","HOUSE_NO":"１０號","E_COORD97":169863.12,"N_COORD97":2543537.21,"ADDRESS":"勝利路５２巷１０號","OBJECTID":289344},"geometry":{"x":169863.12000000011,"y":2543537.2100000028}},{"attributes":{"ID":289351,"DIS_CODE":0,"TOWNNAME":"東區","LI":"大德里","LIN":"10鄰","STREET":"大同路","SECT":"二段","MAREA":" ","LANE":"６１巷","ALLEY":" ","HOUSE_NO":"１２６號","E_COORD97":169430.82999999999,"N_COORD97":2542253.4700000002,"ADDRESS":"大同路二段６１巷１２６號","OBJECTID":289345},"geometry":{"x":169430.83000000101,"y":2542253.4700000025}},{"attributes":{"ID":289352,"DIS_CODE":0,"TOWNNAME":"東區","LI":"富裕里","LIN":"10鄰","STREET":"東門路","SECT":"二段","MAREA":" ","LANE":"３０１巷","ALLEY":" ","HOUSE_NO":"４５號","E_COORD97":170832,"N_COORD97":2542725.2000000002,"ADDRESS":"東門路二段３０１巷４５號","OBJECTID":289346},"geometry":{"x":170832,"y":2542725.2000000011}},{"attributes":{"ID":289353,"DIS_CODE":0,"TOWNNAME":"東區","LI":"大德里","LIN":"10鄰","STREET":"大同路","SECT":"二段","MAREA":" ","LANE":"６１巷","ALLEY":" ","HOUSE_NO":"１２８號","E_COORD97":169432.06,"N_COORD97":2542261.6699999999,"ADDRESS":"大同路二段６１巷１２８號","OBJECTID":289347},"geometry":{"x":169432.06000000052,"y":2542261.6700000018}},{"attributes":{"ID":289354,"DIS_CODE":0,"TOWNNAME":"東區","LI":"大德里","LIN":"10鄰","STREET":"大同路","SECT":"二段","MAREA":" ","LANE":"６１巷","ALLEY":" ","HOUSE_NO":"１３０號","E_COORD97":169431.85999999999,"N_COORD97":2542273.5499999998,"ADDRESS":"大同路二段６１巷１３０號","OBJECTID":289348},"geometry":{"x":169431.8600000022,"y":2542273.5500000026}},{"attributes":{"ID":289355,"DIS_CODE":0,"TOWNNAME":"安南區","LI":"州北里","LIN":"10鄰","STREET":"安和路","SECT":"五段","MAREA":" ","LANE":"１７１巷","ALLEY":" ","HOUSE_NO":"１１０之５號","E_COORD97":169577.67000000001,"N_COORD97":2551731.25,"ADDRESS":"安和路五段１７１巷１１０之５號","OBJECTID":289349},"geometry":{"x":169577.66999999993,"y":2551731.25}},{"attributes":{"ID":289356,"DIS_CODE":0,"TOWNNAME":"永康區","LI":"\u25A0洲里","LIN":"10鄰","STREET":"\u25A0行路","SECT":" ","MAREA":" ","LANE":"１００巷","ALLEY":" ","HOUSE_NO":"４９號","E_COORD97":171409.19,"N_COORD97":2549382.5600000001,"ADDRESS":"\u25A0行路１００巷４９號","OBJECTID":289350},"geometry":{"x":171409.19000000041,"y":2549382.5600000024}},{"attributes":{"ID":289357,"DIS_CODE":0,"TOWNNAME":"永康區","LI":"南灣里","LIN":"10鄰","STREET":"南興路","SECT":" ","MAREA":" ","LANE":"３巷","ALLEY":" ","HOUSE_NO":"５號","E_COORD97":173966.85000000001,"N_COORD97":2543829.1299999999,"ADDRESS":"南興路３巷５號","OBJECTID":289351},"geometry":{"x":173966.84999999963,"y":2543829.1300000027}},{"attributes":{"ID":289358,"DIS_CODE":0,"TOWNNAME":"永康區","LI":"\u25A0洲里","LIN":"10鄰","STREET":"\u25A0行路","SECT":" ","MAREA":" ","LANE":"１００巷","ALLEY":" ","HOUSE_NO":"５１號","E_COORD97":171405.94,"N_COORD97":2549385.0600000001,"ADDRESS":"\u25A0行路１００巷５１號","OBJECTID":289352},"geometry":{"x":171405.94000000041,"y":2549385.0600000024}},{"attributes":{"ID":289359,"DIS_CODE":0,"TOWNNAME":"永康區","LI":"\u25A0洲里","LIN":"10鄰","STREET":"\u25A0行路","SECT":" ","MAREA":" ","LANE":"１００巷","ALLEY":" ","HOUSE_NO":"１７號","E_COORD97":171391.92999999999,"N_COORD97":2549359.8900000001,"ADDRESS":"\u25A0行路１００巷１７號","OBJECTID":289353},"geometry":{"x":171391.93000000156,"y":2549359.8900000025}},{"attributes":{"ID":289360,"DIS_CODE":0,"TOWNNAME":"永康區","LI":"\u25A0洲里","LIN":"10鄰","STREET":"\u25A0行路","SECT":" ","MAREA":" ","LANE":"１４６巷","ALLEY":" ","HOUSE_NO":"１６號","E_COORD97":171400.23000000001,"N_COORD97":2549287.2999999998,"ADDRESS":"\u25A0行路１４６巷１６號","OBJECTID":289354},"geometry":{"x":171400.23000000045,"y":2549287.3000000007}},{"attributes":{"ID":289361,"DIS_CODE":0,"TOWNNAME":"永康區","LI":"\u25A0洲里","LIN":"10鄰","STREET":"\u25A0行路","SECT":" ","MAREA":" ","LANE":"１１１巷","ALLEY":" ","HOUSE_NO":"１號","E_COORD97":171473.54000000001,"N_COORD97":2549202,"ADDRESS":"\u25A0行路１１１巷１號","OBJECTID":289355},"geometry":{"x":171473.54000000097,"y":2549202.0000000019}},{"attributes":{"ID":289362,"DIS_CODE":0,"TOWNNAME":"永康區","LI":"\u25A0洲里","LIN":"10鄰","STREET":"\u25A0行路","SECT":" ","MAREA":" ","LANE":"１００巷","ALLEY":" ","HOUSE_NO":"４２號","E_COORD97":171438.88,"N_COORD97":2549374.1099999999,"ADDRESS":"\u25A0行路１００巷４２號","OBJECTID":289356},"geometry":{"x":171438.88000000082,"y":2549374.1100000013}},{"attributes":{"ID":289363,"DIS_CODE":0,"TOWNNAME":"永康區","LI":"\u25A0洲里","LIN":"10鄰","STREET":"\u25A0行路","SECT":" ","MAREA":" ","LANE":"１００巷","ALLEY":" ","HOUSE_NO":"５３號","E_COORD97":171403.10999999999,"N_COORD97":2549387.5600000001,"ADDRESS":"\u25A0行路１００巷５３號","OBJECTID":289357},"geometry":{"x":171403.11000000034,"y":2549387.5600000005}},{"attributes":{"ID":289364,"DIS_CODE":0,"TOWNNAME":"永康區","LI":"\u25A0洲里","LIN":"10鄰","STREET":"\u25A0行路","SECT":" ","MAREA":" ","LANE":"１００巷","ALLEY":" ","HOUSE_NO":"４７號","E_COORD97":171412.04000000001,"N_COORD97":2549380.0600000001,"ADDRESS":"\u25A0行路１００巷４７號","OBJECTID":289358},"geometry":{"x":171412.04000000097,"y":2549380.0600000005}},{"attributes":{"ID":289365,"DIS_CODE":0,"TOWNNAME":"永康區","LI":"\u25A0洲里","LIN":"10鄰","STREET":"\u25A0行路","SECT":" ","MAREA":" ","LANE":"１００巷","ALLEY":" ","HOUSE_NO":"１之１號","E_COORD97":171531.79999999999,"N_COORD97":2549286.79,"ADDRESS":"\u25A0行路１００巷１之１號","OBJECTID":289359},"geometry":{"x":171531.79999999981,"y":2549286.7900000028}},{"attributes":{"ID":289366,"DIS_CODE":0,"TOWNNAME":"永康區","LI":"\u25A0洲里","LIN":"10鄰","STREET":"\u25A0行路","SECT":" ","MAREA":" ","LANE":"１００巷","ALLEY":" ","HOUSE_NO":"１１號","E_COORD97":171491.95000000001,"N_COORD97":2549305.1899999999,"ADDRESS":"\u25A0行路１００巷１１號","OBJECTID":289360},"geometry":{"x":171491.95000000019,"y":2549305.1900000013}},{"attributes":{"ID":289367,"DIS_CODE":0,"TOWNNAME":"永康區","LI":"\u25A0洲里","LIN":"10鄰","STREET":"\u25A0行路","SECT":" ","MAREA":" ","LANE":"１４６巷","ALLEY":" ","HOUSE_NO":"１２號","E_COORD97":171406.01999999999,"N_COORD97":2549281.2999999998,"ADDRESS":"\u25A0行路１４６巷１２號","OBJECTID":289361},"geometry":{"x":171406.01999999955,"y":2549281.2999999989}},{"attributes":{"ID":289368,"DIS_CODE":0,"TOWNNAME":"永康區","LI":"\u25A0洲里","LIN":"10鄰","STREET":"\u25A0行路","SECT":" ","MAREA":" ","LANE":"１２８巷","ALLEY":" ","HOUSE_NO":"６號","E_COORD97":171448.35000000001,"N_COORD97":2549273.7400000002,"ADDRESS":"\u25A0行路１２８巷６號","OBJECTID":289362},"geometry":{"x":171448.35000000149,"y":2549273.7400000002}},{"attributes":{"ID":289369,"DIS_CODE":0,"TOWNNAME":"永康區","LI":"\u25A0洲里","LIN":"10鄰","STREET":"\u25A0行路","SECT":" ","MAREA":" ","LANE":"１００巷","ALLEY":" ","HOUSE_NO":"５９號","E_COORD97":171383.42000000001,"N_COORD97":2549398.1400000001,"ADDRESS":"\u25A0行路１００巷５９號","OBJECTID":289363},"geometry":{"x":171383.41999999993,"y":2549398.1400000025}},{"attributes":{"ID":289370,"DIS_CODE":0,"TOWNNAME":"永康區","LI":"\u25A0洲里","LIN":"10鄰","STREET":"\u25A0行路","SECT":" ","MAREA":" ","LANE":"１００巷","ALLEY":" ","HOUSE_NO":"４３號","E_COORD97":171418.23000000001,"N_COORD97":2549375.0600000001,"ADDRESS":"\u25A0行路１００巷４３號","OBJECTID":289364},"geometry":{"x":171418.23000000138,"y":2549375.0600000024}},{"attributes":{"ID":289371,"DIS_CODE":0,"TOWNNAME":"永康區","LI":"\u25A0洲里","LIN":"10鄰","STREET":"\u25A0行路","SECT":" ","MAREA":" ","LANE":"１００巷","ALLEY":" ","HOUSE_NO":"３６號","E_COORD97":171463.23999999999,"N_COORD97":2549358.7400000002,"ADDRESS":"\u25A0行路１００巷３６號","OBJECTID":289365},"geometry":{"x":171463.24000000209,"y":2549358.7400000002}},{"attributes":{"ID":289372,"DIS_CODE":0,"TOWNNAME":"安南區","LI":"佃西里","LIN":"10鄰","STREET":"海佃路","SECT":"四段","MAREA":" ","LANE":"３２７巷","ALLEY":" ","HOUSE_NO":"２之１號","E_COORD97":165562.64000000001,"N_COORD97":2551391.4399999999,"ADDRESS":"海佃路四段３２７巷２之１號","OBJECTID":289366},"geometry":{"x":165562.6400000006,"y":2551391.4400000032}},{"attributes":{"ID":289373,"DIS_CODE":0,"TOWNNAME":"安南區","LI":"新順里","LIN":"10鄰","STREET":"政安路","SECT":" ","MAREA":" ","LANE":"４２巷","ALLEY":" ","HOUSE_NO":"１３號","E_COORD97":169815.64000000001,"N_COORD97":2549024.5099999998,"ADDRESS":"政安路４２巷１３號","OBJECTID":289367},"geometry":{"x":169815.64000000153,"y":2549024.5099999979}},{"attributes":{"ID":289374,"DIS_CODE":0,"TOWNNAME":"安南區","LI":"大安里","LIN":"10鄰","STREET":"大安街","SECT":" ","MAREA":" ","LANE":"２３６巷","ALLEY":" ","HOUSE_NO":"１號","E_COORD97":167464.57000000001,"N_COORD97":2548366.3999999999,"ADDRESS":"大安街２３６巷１號","OBJECTID":289368},"geometry":{"x":167464.57000000123,"y":2548366.4000000022}},{"attributes":{"ID":289375,"DIS_CODE":0,"TOWNNAME":"安南區","LI":"大安里","LIN":"10鄰","STREET":"大安街","SECT":" ","MAREA":" ","LANE":"２５０巷","ALLEY":" ","HOUSE_NO":"１８號","E_COORD97":167505.29000000001,"N_COORD97":2548362.0299999998,"ADDRESS":"大安街２５０巷１８號","OBJECTID":289369},"geometry":{"x":167505.29000000097,"y":2548362.0299999993}},{"attributes":{"ID":289376,"DIS_CODE":0,"TOWNNAME":"安南區","LI":"安東里","LIN":"10鄰","STREET":"安和路","SECT":"一段","MAREA":" ","LANE":"２２０巷","ALLEY":" ","HOUSE_NO":"２９號","E_COORD97":169406.38,"N_COORD97":2547968.1299999999,"ADDRESS":"安和路一段２２０巷２９號","OBJECTID":289370},"geometry":{"x":169406.38000000082,"y":2547968.129999999}},{"attributes":{"ID":289377,"DIS_CODE":0,"TOWNNAME":"善化區","LI":"坐駕里","LIN":"10鄰","STREET":"自立路","SECT":" ","MAREA":" ","LANE":"１１１巷","ALLEY":" ","HOUSE_NO":"２２號","E_COORD97":177957,"N_COORD97":2558586.25,"ADDRESS":"自立路１１１巷２２號","OBJECTID":289371},"geometry":{"x":177957,"y":2558586.25}},{"attributes":{"ID":289378,"DIS_CODE":0,"TOWNNAME":"善化區","LI":"坐駕里","LIN":"10鄰","STREET":"自立路","SECT":" ","MAREA":" ","LANE":"１１１巷","ALLEY":" ","HOUSE_NO":"１３號","E_COORD97":177958.44,"N_COORD97":2558577,"ADDRESS":"自立路１１１巷１３號","OBJECTID":289372},"geometry":{"x":177958.44000000134,"y":2558577.0000000019}},{"attributes":{"ID":289379,"DIS_CODE":0,"TOWNNAME":"善化區","LI":"坐駕里","LIN":"10鄰","STREET":"自立路","SECT":" ","MAREA":" ","LANE":"１１１巷","ALLEY":" ","HOUSE_NO":"６號","E_COORD97":177991.44,"N_COORD97":2558591.5,"ADDRESS":"自立路１１１巷６號","OBJECTID":289373},"geometry":{"x":177991.44000000041,"y":2558591.5}},{"attributes":{"ID":289380,"DIS_CODE":0,"TOWNNAME":"善化區","LI":"坐駕里","LIN":"10鄰","STREET":"自立路","SECT":" ","MAREA":" ","LANE":"１１１巷","ALLEY":" ","HOUSE_NO":"１０號","E_COORD97":177981.63,"N_COORD97":2558590,"ADDRESS":"自立路１１１巷１０號","OBJECTID":289374},"geometry":{"x":177981.63000000175,"y":2558590.0000000019}},{"attributes":{"ID":289381,"DIS_CODE":0,"TOWNNAME":"善化區","LI":"西關里","LIN":"10鄰","STREET":"復興街","SECT":" ","MAREA":" ","LANE":"３６巷","ALLEY":" ","HOUSE_NO":"１１號","E_COORD97":176988.04999999999,"N_COORD97":2559099.7599999998,"ADDRESS":"復興街３６巷１１號","OBJECTID":289375},"geometry":{"x":176988.04999999981,"y":2559099.7600000016}},{"attributes":{"ID":289382,"DIS_CODE":0,"TOWNNAME":"永康區","LI":"網寮里","LIN":"10鄰","STREET":"永勝街","SECT":" ","MAREA":" ","LANE":"１５１巷","ALLEY":" ","HOUSE_NO":"７號","E_COORD97":173318.56,"N_COORD97":2546424.7599999998,"ADDRESS":"永勝街１５１巷７號","OBJECTID":289376},"geometry":{"x":173318.56000000052,"y":2546424.7599999998}},{"attributes":{"ID":289383,"DIS_CODE":0,"TOWNNAME":"永康區","LI":"網寮里","LIN":"10鄰","STREET":"永勝街","SECT":" ","MAREA":" ","LANE":"２１８巷","ALLEY":" ","HOUSE_NO":"２０號","E_COORD97":173365.64000000001,"N_COORD97":2546475.75,"ADDRESS":"永勝街２１８巷２０號","OBJECTID":289377},"geometry":{"x":173365.6400000006,"y":2546475.75}},{"attributes":{"ID":289384,"DIS_CODE":0,"TOWNNAME":"新營區","LI":"太北里","LIN":"1鄰","STREET":" ","SECT":" ","MAREA":"太子宮","LANE":" ","ALLEY":" ","HOUSE_NO":"１號之２","E_COORD97":176404.89000000001,"N_COORD97":2577167.1099999999,"ADDRESS":"太子宮１號之２","OBJECTID":289378},"geometry":{"x":176404.89000000153,"y":2577167.1100000031}},{"attributes":{"ID":289385,"DIS_CODE":0,"TOWNNAME":"東區","LI":"富裕里","LIN":"10鄰","STREET":"東門路","SECT":"二段","MAREA":" ","LANE":"３０１巷","ALLEY":" ","HOUSE_NO":"３７號","E_COORD97":170796.94,"N_COORD97":2542708.7599999998,"ADDRESS":"東門路二段３０１巷３７號","OBJECTID":289379},"geometry":{"x":170796.94000000041,"y":2542708.7599999998}},{"attributes":{"ID":289386,"DIS_CODE":0,"TOWNNAME":"東區","LI":"富裕里","LIN":"10鄰","STREET":"東門路","SECT":"二段","MAREA":" ","LANE":"３０１巷","ALLEY":" ","HOUSE_NO":"４７號","E_COORD97":170843.14999999999,"N_COORD97":2542726.2599999998,"ADDRESS":"東門路二段３０１巷４７號","OBJECTID":289380},"geometry":{"x":170843.15000000037,"y":2542726.2599999998}},{"attributes":{"ID":289387,"DIS_CODE":0,"TOWNNAME":"東區","LI":"富裕里","LIN":"10鄰","STREET":"東門路","SECT":"二段","MAREA":" ","LANE":"３０１巷","ALLEY":" ","HOUSE_NO":"４９號","E_COORD97":170849.29000000001,"N_COORD97":2542729.1400000001,"ADDRESS":"東門路二段３０１巷４９號","OBJECTID":289381},"geometry":{"x":170849.29000000097,"y":2542729.1400000025}},{"attributes":{"ID":289388,"DIS_CODE":0,"TOWNNAME":"東區","LI":"富強里","LIN":"10鄰","STREET":"中華東路","SECT":"二段","MAREA":" ","LANE":"２２６巷","ALLEY":" ","HOUSE_NO":"４３號","E_COORD97":171095.45999999999,"N_COORD97":2542657.2000000002,"ADDRESS":"中華東路二段２２６巷４３號","OBJECTID":289382},"geometry":{"x":171095.46000000183,"y":2542657.2000000011}},{"attributes":{"ID":289389,"DIS_CODE":0,"TOWNNAME":"東區","LI":"富強里","LIN":"10鄰","STREET":"中華東路","SECT":"二段","MAREA":" ","LANE":"２２６巷","ALLEY":" ","HOUSE_NO":"４５號","E_COORD97":171095.45999999999,"N_COORD97":2542662.1000000001,"ADDRESS":"中華東路二段２２６巷４５號","OBJECTID":289383},"geometry":{"x":171095.46000000183,"y":2542662.0999999996}},{"attributes":{"ID":289390,"DIS_CODE":0,"TOWNNAME":"東區","LI":"富強里","LIN":"10鄰","STREET":"中華東路","SECT":"二段","MAREA":" ","LANE":"２２６巷","ALLEY":" ","HOUSE_NO":"４７號","E_COORD97":171095.13,"N_COORD97":2542666.9900000002,"ADDRESS":"中華東路二段２２６巷４７號","OBJECTID":289384},"geometry":{"x":171095.12999999989,"y":2542666.9900000002}},{"attributes":{"ID":289391,"DIS_CODE":0,"TOWNNAME":"東區","LI":"富強里","LIN":"10鄰","STREET":"中華東路","SECT":"二段","MAREA":" ","LANE":"２２６巷","ALLEY":" ","HOUSE_NO":"４８號","E_COORD97":171109.29000000001,"N_COORD97":2542673.48,"ADDRESS":"中華東路二段２２６巷４８號","OBJECTID":289385},"geometry":{"x":171109.29000000097,"y":2542673.4800000023}},{"attributes":{"ID":289392,"DIS_CODE":0,"TOWNNAME":"東區","LI":"富強里","LIN":"10鄰","STREET":"中華東路","SECT":"二段","MAREA":" ","LANE":"２２６巷","ALLEY":" ","HOUSE_NO":"６６號","E_COORD97":171106.51999999999,"N_COORD97":2542718.0099999998,"ADDRESS":"中華東路二段２２６巷６６號","OBJECTID":289386},"geometry":{"x":171106.52000000048,"y":2542718.0099999998}},{"attributes":{"ID":289393,"DIS_CODE":0,"TOWNNAME":"東區","LI":"富強里","LIN":"10鄰","STREET":"中華東路","SECT":"二段","MAREA":" ","LANE":"２２６巷","ALLEY":" ","HOUSE_NO":"６７號","E_COORD97":171088.44,"N_COORD97":2542716.8700000001,"ADDRESS":"中華東路二段２２６巷６７號","OBJECTID":289387},"geometry":{"x":171088.44000000041,"y":2542716.870000001}},{"attributes":{"ID":289394,"DIS_CODE":0,"TOWNNAME":"東區","LI":"富強里","LIN":"10鄰","STREET":"東門路","SECT":"二段","MAREA":" ","LANE":"３０１巷","ALLEY":" ","HOUSE_NO":"１４６號","E_COORD97":171130.59,"N_COORD97":2542729.2999999998,"ADDRESS":"東門路二段３０１巷１４６號","OBJECTID":289388},"geometry":{"x":171130.59000000078,"y":2542729.3000000026}},{"attributes":{"ID":289395,"DIS_CODE":0,"TOWNNAME":"東區","LI":"富強里","LIN":"10鄰","STREET":"東門路","SECT":"二段","MAREA":" ","LANE":"３０１巷","ALLEY":" ","HOUSE_NO":"１５６號","E_COORD97":171154.10000000001,"N_COORD97":2542731.0899999999,"ADDRESS":"東門路二段３０１巷１５６號","OBJECTID":289389},"geometry":{"x":171154.10000000056,"y":2542731.0899999999}},{"attributes":{"ID":289396,"DIS_CODE":0,"TOWNNAME":"永康區","LI":"勝利里","LIN":"10鄰","STREET":"勝利街","SECT":" ","MAREA":" ","LANE":"２２巷","ALLEY":" ","HOUSE_NO":"５０號","E_COORD97":171278.51000000001,"N_COORD97":2544694.75,"ADDRESS":"勝利街２２巷５０號","OBJECTID":289390},"geometry":{"x":171278.51000000071,"y":2544694.7500000019}},{"attributes":{"ID":289397,"DIS_CODE":0,"TOWNNAME":"永康區","LI":"烏竹里","LIN":"10鄰","STREET":"竹園二街","SECT":" ","MAREA":" ","LANE":"１６３巷","ALLEY":" ","HOUSE_NO":"１號","E_COORD97":174531.34,"N_COORD97":2549278.7400000002,"ADDRESS":"竹園二街１６３巷１號","OBJECTID":289391},"geometry":{"x":174531.34000000078,"y":2549278.7400000021}},{"attributes":{"ID":289398,"DIS_CODE":0,"TOWNNAME":"永康區","LI":"復國里","LIN":"10鄰","STREET":"復國二路","SECT":" ","MAREA":" ","LANE":"７９巷","ALLEY":" ","HOUSE_NO":"１５號","E_COORD97":172786.29999999999,"N_COORD97":2545264.8199999998,"ADDRESS":"復國二路７９巷１５號","OBJECTID":289392},"geometry":{"x":172786.29999999888,"y":2545264.8200000022}},{"attributes":{"ID":289399,"DIS_CODE":0,"TOWNNAME":"永康區","LI":"\u25A0洲里","LIN":"10鄰","STREET":"\u25A0行路","SECT":" ","MAREA":" ","LANE":"１４６巷","ALLEY":" ","HOUSE_NO":"８號","E_COORD97":171410.78,"N_COORD97":2549275.5499999998,"ADDRESS":"\u25A0行路１４６巷８號","OBJECTID":289393},"geometry":{"x":171410.78000000119,"y":2549275.5500000007}},{"attributes":{"ID":289400,"DIS_CODE":0,"TOWNNAME":"永康區","LI":"\u25A0洲里","LIN":"10鄰","STREET":"\u25A0行路","SECT":" ","MAREA":" ","LANE":"１００巷","ALLEY":" ","HOUSE_NO":"４５號","E_COORD97":171415.14000000001,"N_COORD97":2549377.5600000001,"ADDRESS":"\u25A0行路１００巷４５號","OBJECTID":289394},"geometry":{"x":171415.13999999966,"y":2549377.5599999987}},{"attributes":{"ID":289401,"DIS_CODE":0,"TOWNNAME":"新營區","LI":"忠政里","LIN":"21鄰","STREET":"府西路","SECT":" ","MAREA":" ","LANE":"２３１巷","ALLEY":" ","HOUSE_NO":"５號","E_COORD97":179765.16,"N_COORD97":2579599.3199999998,"ADDRESS":"府西路２３１巷５號","OBJECTID":289395},"geometry":{"x":179765.16000000201,"y":2579599.3200000022}},{"attributes":{"ID":289402,"DIS_CODE":0,"TOWNNAME":"新營區","LI":"新北里","LIN":"21鄰","STREET":"民生路","SECT":" ","MAREA":" ","LANE":"３３６巷","ALLEY":" ","HOUSE_NO":"３５之１號","E_COORD97":178999.20999999999,"N_COORD97":2579255.3100000001,"ADDRESS":"民生路３３６巷３５之１號","OBJECTID":289396},"geometry":{"x":178999.20999999996,"y":2579255.3099999987}},{"attributes":{"ID":289403,"DIS_CODE":0,"TOWNNAME":"安平區","LI":"華平里","LIN":"21鄰","STREET":"建平八街","SECT":" ","MAREA":" ","LANE":"４５５巷","ALLEY":" ","HOUSE_NO":"２號","E_COORD97":165082.35000000001,"N_COORD97":2543574.71,"ADDRESS":"建平八街４５５巷２號","OBJECTID":289397},"geometry":{"x":165082.34999999963,"y":2543574.7100000009}},{"attributes":{"ID":289404,"DIS_CODE":0,"TOWNNAME":"安平區","LI":"華平里","LIN":"21鄰","STREET":"建平八街","SECT":" ","MAREA":" ","LANE":"４５５巷","ALLEY":" ","HOUSE_NO":"３號","E_COORD97":165089.89000000001,"N_COORD97":2543578.2599999998,"ADDRESS":"建平八街４５５巷３號","OBJECTID":289398},"geometry":{"x":165089.8900000006,"y":2543578.2600000035}},{"attributes":{"ID":289405,"DIS_CODE":0,"TOWNNAME":"南區","LI":"南華里","LIN":"21鄰","STREET":"中華南路","SECT":"二段","MAREA":" ","LANE":"３００巷","ALLEY":" ","HOUSE_NO":"１１號","E_COORD97":166704.51000000001,"N_COORD97":2540351.7599999998,"ADDRESS":"中華南路二段３００巷１１號","OBJECTID":289399},"geometry":{"x":166704.51000000071,"y":2540351.7600000016}},{"attributes":{"ID":289406,"DIS_CODE":0,"TOWNNAME":"南區","LI":"南華里","LIN":"21鄰","STREET":"中華南路","SECT":"二段","MAREA":" ","LANE":"３００巷","ALLEY":" ","HOUSE_NO":"１３號","E_COORD97":166705.23000000001,"N_COORD97":2540355.7999999998,"ADDRESS":"中華南路二段３００巷１３號","OBJECTID":289400},"geometry":{"x":166705.23000000231,"y":2540355.8000000026}}]}