{"displayFieldName":"TOWNNAME","fieldAliases":{"ID":"ID","DIS_CODE":"DIS_CODE","TOWNNAME":"TOWNNAME","LI":"LI","LIN":"LIN","STREET":"STREET","SECT":"SECT","MAREA":"MAREA","LANE":"LANE","ALLEY":"ALLEY","HOUSE_NO":"HOUSE_NO","E_COORD97":"E_COORD97","N_COORD97":"N_COORD97","ADDRESS":"ADDRESS","OBJECTID":"OBJECTID"},"geometryType":"esriGeometryPoint","spatialReference":{"wkid":102443,"latestWkid":3826},"fields":[{"name":"ID","type":"esriFieldTypeDouble","alias":"ID"},{"name":"DIS_CODE","type":"esriFieldTypeInteger","alias":"DIS_CODE"},{"name":"TOWNNAME","type":"esriFieldTypeString","alias":"TOWNNAME","length":8},{"name":"LI","type":"esriFieldTypeString","alias":"LI","length":8},{"name":"LIN","type":"esriFieldTypeString","alias":"LIN","length":12},{"name":"STREET","type":"esriFieldTypeString","alias":"STREET","length":20},{"name":"SECT","type":"esriFieldTypeString","alias":"SECT","length":8},{"name":"MAREA","type":"esriFieldTypeString","alias":"MAREA","length":12},{"name":"LANE","type":"esriFieldTypeString","alias":"LANE","length":10},{"name":"ALLEY","type":"esriFieldTypeString","alias":"ALLEY","length":10},{"name":"HOUSE_NO","type":"esriFieldTypeString","alias":"HOUSE_NO","length":20},{"name":"E_COORD97","type":"esriFieldTypeDouble","alias":"E_COORD97"},{"name":"N_COORD97","type":"esriFieldTypeDouble","alias":"N_COORD97"},{"name":"ADDRESS","type":"esriFieldTypeString","alias":"ADDRESS","length":50},{"name":"OBJECTID","type":"esriFieldTypeOID","alias":"OBJECTID"}],"features":[{"attributes":{"ID":240405,"DIS_CODE":0,"TOWNNAME":"南區","LI":"新興里","LIN":"13鄰","STREET":"夏林路","SECT":" ","MAREA":" ","LANE":"２２２巷","ALLEY":" ","HOUSE_NO":"２９號","E_COORD97":167384.75,"N_COORD97":2542232.4100000001,"ADDRESS":"夏林路２２２巷２９號","OBJECTID":240401},"geometry":{"x":167384.75000000093,"y":2542232.410000002}},{"attributes":{"ID":240406,"DIS_CODE":0,"TOWNNAME":"南區","LI":"新興里","LIN":"13鄰","STREET":"夏林路","SECT":" ","MAREA":" ","LANE":"２２２巷","ALLEY":" ","HOUSE_NO":"２號","E_COORD97":167433.57999999999,"N_COORD97":2542240.3100000001,"ADDRESS":"夏林路２２２巷２號","OBJECTID":240402},"geometry":{"x":167433.58000000101,"y":2542240.3100000024}},{"attributes":{"ID":240407,"DIS_CODE":0,"TOWNNAME":"安平區","LI":"國平里","LIN":"13鄰","STREET":"建平一街","SECT":" ","MAREA":" ","LANE":"１８９巷","ALLEY":" ","HOUSE_NO":"６０號之２","E_COORD97":165515.25418600001,"N_COORD97":2542750.8196700001,"ADDRESS":"建平一街１８９巷６０號之２","OBJECTID":240403},"geometry":{"x":165515.25418599974,"y":2542750.8196730018}},{"attributes":{"ID":240408,"DIS_CODE":0,"TOWNNAME":"中西區","LI":"保安里","LIN":"14鄰","STREET":"康樂街","SECT":" ","MAREA":" ","LANE":" ","ALLEY":" ","HOUSE_NO":"１０２號九樓之２","E_COORD97":167440.75,"N_COORD97":2543732.3500000001,"ADDRESS":"康樂街１０２號九樓之２","OBJECTID":240404},"geometry":{"x":167440.75000000093,"y":2543732.3499999996}},{"attributes":{"ID":240409,"DIS_CODE":0,"TOWNNAME":"中西區","LI":"保安里","LIN":"14鄰","STREET":"康樂街","SECT":" ","MAREA":" ","LANE":" ","ALLEY":" ","HOUSE_NO":"１０２號九樓之３","E_COORD97":167440.75,"N_COORD97":2543732.3500000001,"ADDRESS":"康樂街１０２號九樓之３","OBJECTID":240405},"geometry":{"x":167440.75000000093,"y":2543732.3499999996}},{"attributes":{"ID":240410,"DIS_CODE":0,"TOWNNAME":"中西區","LI":"保安里","LIN":"14鄰","STREET":"康樂街","SECT":" ","MAREA":" ","LANE":" ","ALLEY":" ","HOUSE_NO":"１０２號九樓之４","E_COORD97":167440.75,"N_COORD97":2543732.3500000001,"ADDRESS":"康樂街１０２號九樓之４","OBJECTID":240406},"geometry":{"x":167440.75000000093,"y":2543732.3499999996}},{"attributes":{"ID":240411,"DIS_CODE":0,"TOWNNAME":"中西區","LI":"保安里","LIN":"14鄰","STREET":"康樂街","SECT":" ","MAREA":" ","LANE":" ","ALLEY":" ","HOUSE_NO":"１０２號九樓之５","E_COORD97":167440.75,"N_COORD97":2543732.3500000001,"ADDRESS":"康樂街１０２號九樓之５","OBJECTID":240407},"geometry":{"x":167440.75000000093,"y":2543732.3499999996}},{"attributes":{"ID":240412,"DIS_CODE":0,"TOWNNAME":"中西區","LI":"保安里","LIN":"14鄰","STREET":"康樂街","SECT":" ","MAREA":" ","LANE":" ","ALLEY":" ","HOUSE_NO":"１０２號九樓之６","E_COORD97":167440.75,"N_COORD97":2543732.3500000001,"ADDRESS":"康樂街１０２號九樓之６","OBJECTID":240408},"geometry":{"x":167440.75000000093,"y":2543732.3499999996}},{"attributes":{"ID":240413,"DIS_CODE":0,"TOWNNAME":"中西區","LI":"保安里","LIN":"14鄰","STREET":"康樂街","SECT":" ","MAREA":" ","LANE":" ","ALLEY":" ","HOUSE_NO":"１０２號八樓之１","E_COORD97":167440.75,"N_COORD97":2543732.3500000001,"ADDRESS":"康樂街１０２號八樓之１","OBJECTID":240409},"geometry":{"x":167440.75000000093,"y":2543732.3499999996}},{"attributes":{"ID":240414,"DIS_CODE":0,"TOWNNAME":"中西區","LI":"保安里","LIN":"14鄰","STREET":"康樂街","SECT":" ","MAREA":" ","LANE":" ","ALLEY":" ","HOUSE_NO":"１０２號八樓之２","E_COORD97":167440.75,"N_COORD97":2543732.3500000001,"ADDRESS":"康樂街１０２號八樓之２","OBJECTID":240410},"geometry":{"x":167440.75000000093,"y":2543732.3499999996}},{"attributes":{"ID":240415,"DIS_CODE":0,"TOWNNAME":"中西區","LI":"保安里","LIN":"14鄰","STREET":"康樂街","SECT":" ","MAREA":" ","LANE":" ","ALLEY":" ","HOUSE_NO":"１０２號八樓之３","E_COORD97":167440.75,"N_COORD97":2543732.3500000001,"ADDRESS":"康樂街１０２號八樓之３","OBJECTID":240411},"geometry":{"x":167440.75000000093,"y":2543732.3499999996}},{"attributes":{"ID":240416,"DIS_CODE":0,"TOWNNAME":"中西區","LI":"保安里","LIN":"14鄰","STREET":"康樂街","SECT":" ","MAREA":" ","LANE":" ","ALLEY":" ","HOUSE_NO":"１０２號八樓之４","E_COORD97":167440.75,"N_COORD97":2543732.3500000001,"ADDRESS":"康樂街１０２號八樓之４","OBJECTID":240412},"geometry":{"x":167440.75000000093,"y":2543732.3499999996}},{"attributes":{"ID":240417,"DIS_CODE":0,"TOWNNAME":"中西區","LI":"萬昌里","LIN":"16鄰","STREET":"青年路","SECT":" ","MAREA":" ","LANE":"１３２巷","ALLEY":" ","HOUSE_NO":"２８號","E_COORD97":168914.04000000001,"N_COORD97":2543541.4300000002,"ADDRESS":"青年路１３２巷２８號","OBJECTID":240413},"geometry":{"x":168914.04000000004,"y":2543541.4299999997}},{"attributes":{"ID":240418,"DIS_CODE":0,"TOWNNAME":"中西區","LI":"萬昌里","LIN":"16鄰","STREET":"青年路","SECT":" ","MAREA":" ","LANE":"１３２巷","ALLEY":" ","HOUSE_NO":"３０號","E_COORD97":168915.19,"N_COORD97":2543536.7200000002,"ADDRESS":"青年路１３２巷３０號","OBJECTID":240414},"geometry":{"x":168915.19000000041,"y":2543536.7200000025}},{"attributes":{"ID":240419,"DIS_CODE":0,"TOWNNAME":"中西區","LI":"萬昌里","LIN":"16鄰","STREET":"青年路","SECT":" ","MAREA":" ","LANE":"１３２巷","ALLEY":" ","HOUSE_NO":"３２號","E_COORD97":168915.82999999999,"N_COORD97":2543531.7000000002,"ADDRESS":"青年路１３２巷３２號","OBJECTID":240415},"geometry":{"x":168915.83000000007,"y":2543531.7000000011}},{"attributes":{"ID":240420,"DIS_CODE":0,"TOWNNAME":"中西區","LI":"萬昌里","LIN":"16鄰","STREET":"青年路","SECT":" ","MAREA":" ","LANE":"１３２巷","ALLEY":" ","HOUSE_NO":"３４號","E_COORD97":168916.45999999999,"N_COORD97":2543521.3799999999,"ADDRESS":"青年路１３２巷３４號","OBJECTID":240416},"geometry":{"x":168916.45999999996,"y":2543521.379999999}},{"attributes":{"ID":240421,"DIS_CODE":0,"TOWNNAME":"中西區","LI":"萬昌里","LIN":"16鄰","STREET":"青年路","SECT":" ","MAREA":" ","LANE":"１３２巷","ALLEY":" ","HOUSE_NO":"３６號","E_COORD97":168917.87,"N_COORD97":2543516.54,"ADDRESS":"青年路１３２巷３６號","OBJECTID":240417},"geometry":{"x":168917.87000000197,"y":2543516.5399999991}},{"attributes":{"ID":240422,"DIS_CODE":0,"TOWNNAME":"中西區","LI":"萬昌里","LIN":"16鄰","STREET":"青年路","SECT":" ","MAREA":" ","LANE":"１３２巷","ALLEY":" ","HOUSE_NO":"３８號","E_COORD97":168917.60999999999,"N_COORD97":2543512.75,"ADDRESS":"青年路１３２巷３８號","OBJECTID":240418},"geometry":{"x":168917.61000000034,"y":2543512.75}},{"attributes":{"ID":240423,"DIS_CODE":0,"TOWNNAME":"中西區","LI":"萬昌里","LIN":"16鄰","STREET":"青年路","SECT":" ","MAREA":" ","LANE":"１３２巷","ALLEY":" ","HOUSE_NO":"４０號","E_COORD97":168915.82999999999,"N_COORD97":2543504.8500000001,"ADDRESS":"青年路１３２巷４０號","OBJECTID":240419},"geometry":{"x":168915.83000000007,"y":2543504.8499999996}},{"attributes":{"ID":240424,"DIS_CODE":0,"TOWNNAME":"安平區","LI":"國平里","LIN":"13鄰","STREET":"建平一街","SECT":" ","MAREA":" ","LANE":"１８９巷","ALLEY":" ","HOUSE_NO":"１０５號","E_COORD97":165428.95000000001,"N_COORD97":2542746.04,"ADDRESS":"建平一街１８９巷１０５號","OBJECTID":240420},"geometry":{"x":165428.95000000112,"y":2542746.040000001}},{"attributes":{"ID":240425,"DIS_CODE":0,"TOWNNAME":"安平區","LI":"國平里","LIN":"13鄰","STREET":"建平一街","SECT":" ","MAREA":" ","LANE":"１８９巷","ALLEY":" ","HOUSE_NO":"１０７號","E_COORD97":165424.17999999999,"N_COORD97":2542746.8399999999,"ADDRESS":"建平一街１８９巷１０７號","OBJECTID":240421},"geometry":{"x":165424.1799999997,"y":2542746.839999998}},{"attributes":{"ID":240426,"DIS_CODE":0,"TOWNNAME":"北區","LI":"玉皇里","LIN":"13鄰","STREET":"成功路","SECT":" ","MAREA":" ","LANE":"６８巷","ALLEY":" ","HOUSE_NO":"２２號","E_COORD97":168724.31,"N_COORD97":2544424.8500000001,"ADDRESS":"成功路６８巷２２號","OBJECTID":240422},"geometry":{"x":168724.30999999866,"y":2544424.8500000034}},{"attributes":{"ID":240427,"DIS_CODE":0,"TOWNNAME":"北區","LI":"玉皇里","LIN":"13鄰","STREET":"成功路","SECT":" ","MAREA":" ","LANE":"６８巷","ALLEY":" ","HOUSE_NO":"２２之１號","E_COORD97":168726.04000000001,"N_COORD97":2544440.5600000001,"ADDRESS":"成功路６８巷２２之１號","OBJECTID":240423},"geometry":{"x":168726.04000000004,"y":2544440.5600000005}},{"attributes":{"ID":240428,"DIS_CODE":0,"TOWNNAME":"北區","LI":"玉皇里","LIN":"13鄰","STREET":"成功路","SECT":" ","MAREA":" ","LANE":"６８巷","ALLEY":" ","HOUSE_NO":"２６號","E_COORD97":168738.60999999999,"N_COORD97":2544441.4100000001,"ADDRESS":"成功路６８巷２６號","OBJECTID":240424},"geometry":{"x":168738.61000000127,"y":2544441.4100000001}},{"attributes":{"ID":240429,"DIS_CODE":0,"TOWNNAME":"北區","LI":"玉皇里","LIN":"13鄰","STREET":"成功路","SECT":" ","MAREA":" ","LANE":"６８巷","ALLEY":" ","HOUSE_NO":"２８號","E_COORD97":168742.92000000001,"N_COORD97":2544444.7799999998,"ADDRESS":"成功路６８巷２８號","OBJECTID":240425},"geometry":{"x":168742.92000000086,"y":2544444.7799999993}},{"attributes":{"ID":240430,"DIS_CODE":0,"TOWNNAME":"北區","LI":"玉皇里","LIN":"13鄰","STREET":"成功路","SECT":" ","MAREA":" ","LANE":"６８巷","ALLEY":" ","HOUSE_NO":"３０號","E_COORD97":168727.29000000001,"N_COORD97":2544446.2000000002,"ADDRESS":"成功路６８巷３０號","OBJECTID":240426},"geometry":{"x":168727.29000000097,"y":2544446.2000000011}},{"attributes":{"ID":240431,"DIS_CODE":0,"TOWNNAME":"中西區","LI":"保安里","LIN":"14鄰","STREET":"康樂街","SECT":" ","MAREA":" ","LANE":" ","ALLEY":" ","HOUSE_NO":"１０２號八樓之５","E_COORD97":167440.75,"N_COORD97":2543732.3500000001,"ADDRESS":"康樂街１０２號八樓之５","OBJECTID":240427},"geometry":{"x":167440.75000000093,"y":2543732.3499999996}},{"attributes":{"ID":240432,"DIS_CODE":0,"TOWNNAME":"中西區","LI":"保安里","LIN":"14鄰","STREET":"康樂街","SECT":" ","MAREA":" ","LANE":" ","ALLEY":" ","HOUSE_NO":"１０２號八樓之６","E_COORD97":167440.75,"N_COORD97":2543732.3500000001,"ADDRESS":"康樂街１０２號八樓之６","OBJECTID":240428},"geometry":{"x":167440.75000000093,"y":2543732.3499999996}},{"attributes":{"ID":240433,"DIS_CODE":0,"TOWNNAME":"中西區","LI":"保安里","LIN":"14鄰","STREET":"康樂街","SECT":" ","MAREA":" ","LANE":" ","ALLEY":" ","HOUSE_NO":"１０２號八樓之７","E_COORD97":167440.75,"N_COORD97":2543732.3500000001,"ADDRESS":"康樂街１０２號八樓之７","OBJECTID":240429},"geometry":{"x":167440.75000000093,"y":2543732.3499999996}},{"attributes":{"ID":240434,"DIS_CODE":0,"TOWNNAME":"中西區","LI":"保安里","LIN":"14鄰","STREET":"康樂街","SECT":" ","MAREA":" ","LANE":" ","ALLEY":" ","HOUSE_NO":"１０２號八樓之８","E_COORD97":167440.75,"N_COORD97":2543732.3500000001,"ADDRESS":"康樂街１０２號八樓之８","OBJECTID":240430},"geometry":{"x":167440.75000000093,"y":2543732.3499999996}},{"attributes":{"ID":240435,"DIS_CODE":0,"TOWNNAME":"中西區","LI":"保安里","LIN":"14鄰","STREET":"康樂街","SECT":" ","MAREA":" ","LANE":" ","ALLEY":" ","HOUSE_NO":"１０２號八樓之９","E_COORD97":167440.75,"N_COORD97":2543732.3500000001,"ADDRESS":"康樂街１０２號八樓之９","OBJECTID":240431},"geometry":{"x":167440.75000000093,"y":2543732.3499999996}},{"attributes":{"ID":240436,"DIS_CODE":0,"TOWNNAME":"中西區","LI":"保安里","LIN":"14鄰","STREET":"康樂街","SECT":" ","MAREA":" ","LANE":" ","ALLEY":" ","HOUSE_NO":"１０２號十樓","E_COORD97":167440.75,"N_COORD97":2543732.3500000001,"ADDRESS":"康樂街１０２號十樓","OBJECTID":240432},"geometry":{"x":167440.75000000093,"y":2543732.3499999996}},{"attributes":{"ID":240437,"DIS_CODE":0,"TOWNNAME":"中西區","LI":"保安里","LIN":"14鄰","STREET":"康樂街","SECT":" ","MAREA":" ","LANE":" ","ALLEY":" ","HOUSE_NO":"１０２號三樓之１","E_COORD97":167440.75,"N_COORD97":2543732.3500000001,"ADDRESS":"康樂街１０２號三樓之１","OBJECTID":240433},"geometry":{"x":167440.75000000093,"y":2543732.3499999996}},{"attributes":{"ID":240438,"DIS_CODE":0,"TOWNNAME":"歸仁區","LI":"媽廟里","LIN":"13鄰","STREET":"媽廟二街","SECT":" ","MAREA":" ","LANE":"１０巷","ALLEY":" ","HOUSE_NO":"５號之１","E_COORD97":177601.14999999999,"N_COORD97":2543686.73,"ADDRESS":"媽廟二街１０巷５號之１","OBJECTID":240434},"geometry":{"x":177601.1500000013,"y":2543686.7300000004}},{"attributes":{"ID":240439,"DIS_CODE":0,"TOWNNAME":"歸仁區","LI":"看西里","LIN":"13鄰","STREET":"仁愛南街","SECT":" ","MAREA":" ","LANE":"２３５巷","ALLEY":" ","HOUSE_NO":"７號","E_COORD97":178328.45999999999,"N_COORD97":2540139.1200000001,"ADDRESS":"仁愛南街２３５巷７號","OBJECTID":240435},"geometry":{"x":178328.45999999996,"y":2540139.1200000048}},{"attributes":{"ID":240440,"DIS_CODE":0,"TOWNNAME":"北區","LI":"三德里","LIN":"13鄰","STREET":"成功路","SECT":" ","MAREA":" ","LANE":"２２０巷","ALLEY":" ","HOUSE_NO":"６３之３號","E_COORD97":168429.32999999999,"N_COORD97":2544475.21,"ADDRESS":"成功路２２０巷６３之３號","OBJECTID":240436},"geometry":{"x":168429.33000000007,"y":2544475.2100000028}},{"attributes":{"ID":240441,"DIS_CODE":0,"TOWNNAME":"學甲區","LI":"慈福里","LIN":"13鄰","STREET":"民族路","SECT":" ","MAREA":" ","LANE":"５４巷","ALLEY":" ","HOUSE_NO":"１０號","E_COORD97":166663.88,"N_COORD97":2570308.5899999999,"ADDRESS":"民族路５４巷１０號","OBJECTID":240437},"geometry":{"x":166663.87999999989,"y":2570308.5899999999}},{"attributes":{"ID":240442,"DIS_CODE":0,"TOWNNAME":"學甲區","LI":"慈福里","LIN":"13鄰","STREET":"民族路","SECT":" ","MAREA":" ","LANE":"５４巷","ALLEY":" ","HOUSE_NO":"１２號","E_COORD97":166665.17999999999,"N_COORD97":2570319.2999999998,"ADDRESS":"民族路５４巷１２號","OBJECTID":240438},"geometry":{"x":166665.1799999997,"y":2570319.3000000026}},{"attributes":{"ID":240443,"DIS_CODE":0,"TOWNNAME":"學甲區","LI":"慈福里","LIN":"13鄰","STREET":"民族路","SECT":" ","MAREA":" ","LANE":"５４巷","ALLEY":" ","HOUSE_NO":"２號","E_COORD97":166647.57000000001,"N_COORD97":2570303.4300000002,"ADDRESS":"民族路５４巷２號","OBJECTID":240439},"geometry":{"x":166647.57000000123,"y":2570303.4300000034}},{"attributes":{"ID":240444,"DIS_CODE":0,"TOWNNAME":"學甲區","LI":"慈福里","LIN":"13鄰","STREET":"民族路","SECT":" ","MAREA":" ","LANE":"５４巷","ALLEY":" ","HOUSE_NO":"６號","E_COORD97":166653.41,"N_COORD97":2570303.1299999999,"ADDRESS":"民族路５４巷６號","OBJECTID":240440},"geometry":{"x":166653.41000000108,"y":2570303.129999999}},{"attributes":{"ID":240445,"DIS_CODE":0,"TOWNNAME":"北區","LI":"文元里","LIN":"13鄰","STREET":"文賢路","SECT":" ","MAREA":" ","LANE":"１１８０巷","ALLEY":" ","HOUSE_NO":"３７號","E_COORD97":167408.82000000001,"N_COORD97":2546489.0499999998,"ADDRESS":"文賢路１１８０巷３７號","OBJECTID":240441},"geometry":{"x":167408.8200000003,"y":2546489.0500000007}},{"attributes":{"ID":240446,"DIS_CODE":0,"TOWNNAME":"新營區","LI":"王公里","LIN":"13鄰","STREET":"義和街","SECT":" ","MAREA":" ","LANE":"８巷","ALLEY":" ","HOUSE_NO":"１７之３號","E_COORD97":180479.59,"N_COORD97":2579136.4300000002,"ADDRESS":"義和街８巷１７之３號","OBJECTID":240442},"geometry":{"x":180479.59000000078,"y":2579136.4300000016}},{"attributes":{"ID":240447,"DIS_CODE":0,"TOWNNAME":"中西區","LI":"萬昌里","LIN":"16鄰","STREET":"青年路","SECT":" ","MAREA":" ","LANE":" ","ALLEY":" ","HOUSE_NO":"９６號","E_COORD97":168845.29999999999,"N_COORD97":2543601.2799999998,"ADDRESS":"青年路９６號","OBJECTID":240443},"geometry":{"x":168845.30000000075,"y":2543601.2800000031}},{"attributes":{"ID":240448,"DIS_CODE":0,"TOWNNAME":"安南區","LI":"海西里","LIN":"16鄰","STREET":"海環街","SECT":" ","MAREA":" ","LANE":"１２１巷","ALLEY":" ","HOUSE_NO":"２７號","E_COORD97":166541.39000000001,"N_COORD97":2548676.6499999999,"ADDRESS":"海環街１２１巷２７號","OBJECTID":240444},"geometry":{"x":166541.3900000006,"y":2548676.6500000022}},{"attributes":{"ID":240449,"DIS_CODE":0,"TOWNNAME":"新營區","LI":"忠政里","LIN":"13鄰","STREET":"中正路","SECT":" ","MAREA":" ","LANE":"１１５巷","ALLEY":" ","HOUSE_NO":"１９號","E_COORD97":179968.19,"N_COORD97":2579667.0299999998,"ADDRESS":"中正路１１５巷１９號","OBJECTID":240445},"geometry":{"x":179968.19000000041,"y":2579667.0300000012}},{"attributes":{"ID":240450,"DIS_CODE":0,"TOWNNAME":"永康區","LI":"崑山里","LIN":"40鄰","STREET":"崑山街","SECT":" ","MAREA":" ","LANE":"２００巷","ALLEY":" ","HOUSE_NO":"１號","E_COORD97":174089.10999999999,"N_COORD97":2544998.1099999999,"ADDRESS":"崑山街２００巷１號","OBJECTID":240446},"geometry":{"x":174089.11000000127,"y":2544998.1099999994}},{"attributes":{"ID":240451,"DIS_CODE":0,"TOWNNAME":"安平區","LI":"怡平里","LIN":"13鄰","STREET":"建平十二街","SECT":" ","MAREA":" ","LANE":"３９６巷","ALLEY":" ","HOUSE_NO":"１２號","E_COORD97":165572.01999999999,"N_COORD97":2544076.6200000001,"ADDRESS":"建平十二街３９６巷１２號","OBJECTID":240447},"geometry":{"x":165572.02000000048,"y":2544076.6200000029}},{"attributes":{"ID":240452,"DIS_CODE":0,"TOWNNAME":"安平區","LI":"怡平里","LIN":"13鄰","STREET":"建平十二街","SECT":" ","MAREA":" ","LANE":"３９６巷","ALLEY":" ","HOUSE_NO":"１４號","E_COORD97":165572.85000000001,"N_COORD97":2544081.4700000002,"ADDRESS":"建平十二街３９６巷１４號","OBJECTID":240448},"geometry":{"x":165572.85000000149,"y":2544081.4700000007}},{"attributes":{"ID":240453,"DIS_CODE":0,"TOWNNAME":"安平區","LI":"怡平里","LIN":"13鄰","STREET":"建平十二街","SECT":" ","MAREA":" ","LANE":"３９６巷","ALLEY":" ","HOUSE_NO":"１６號","E_COORD97":165573.13,"N_COORD97":2544085.6299999999,"ADDRESS":"建平十二街３９６巷１６號","OBJECTID":240449},"geometry":{"x":165573.13000000082,"y":2544085.629999999}},{"attributes":{"ID":240454,"DIS_CODE":0,"TOWNNAME":"南區","LI":"南都里","LIN":"13鄰","STREET":"中華南路","SECT":"二段","MAREA":" ","LANE":"２４９巷","ALLEY":" ","HOUSE_NO":"２０號","E_COORD97":166614.82000000001,"N_COORD97":2540167.3599999999,"ADDRESS":"中華南路二段２４９巷２０號","OBJECTID":240450},"geometry":{"x":166614.82000000123,"y":2540167.3600000013}},{"attributes":{"ID":240455,"DIS_CODE":0,"TOWNNAME":"南區","LI":"南都里","LIN":"13鄰","STREET":"中華南路","SECT":"二段","MAREA":" ","LANE":"２４９巷","ALLEY":" ","HOUSE_NO":"２２號","E_COORD97":166617.95999999999,"N_COORD97":2540164.23,"ADDRESS":"中華南路二段２４９巷２２號","OBJECTID":240451},"geometry":{"x":166617.95999999996,"y":2540164.2300000004}},{"attributes":{"ID":240456,"DIS_CODE":0,"TOWNNAME":"南區","LI":"南都里","LIN":"13鄰","STREET":"中華南路","SECT":"二段","MAREA":" ","LANE":"２４９巷","ALLEY":" ","HOUSE_NO":"２４號","E_COORD97":166619.70000000001,"N_COORD97":2540159.7000000002,"ADDRESS":"中華南路二段２４９巷２４號","OBJECTID":240452},"geometry":{"x":166619.70000000019,"y":2540159.6999999993}},{"attributes":{"ID":240457,"DIS_CODE":0,"TOWNNAME":"南區","LI":"南都里","LIN":"13鄰","STREET":"中華南路","SECT":"二段","MAREA":" ","LANE":"２４９巷","ALLEY":" ","HOUSE_NO":"２６號","E_COORD97":166621.09,"N_COORD97":2540155.1800000002,"ADDRESS":"中華南路二段２４９巷２６號","OBJECTID":240453},"geometry":{"x":166621.09000000078,"y":2540155.1800000016}},{"attributes":{"ID":240458,"DIS_CODE":0,"TOWNNAME":"南區","LI":"南都里","LIN":"13鄰","STREET":"中華南路","SECT":"二段","MAREA":" ","LANE":"２４９巷","ALLEY":" ","HOUSE_NO":"２８號","E_COORD97":166622.84,"N_COORD97":2540151.3500000001,"ADDRESS":"中華南路二段２４９巷２８號","OBJECTID":240454},"geometry":{"x":166622.84000000078,"y":2540151.3500000015}},{"attributes":{"ID":240459,"DIS_CODE":0,"TOWNNAME":"北區","LI":"中樓里","LIN":"13鄰","STREET":"開元路","SECT":" ","MAREA":" ","LANE":"９０巷","ALLEY":" ","HOUSE_NO":"３２號","E_COORD97":169802.48999999999,"N_COORD97":2545099.1000000001,"ADDRESS":"開元路９０巷３２號","OBJECTID":240455},"geometry":{"x":169802.49000000115,"y":2545099.1000000015}},{"attributes":{"ID":240460,"DIS_CODE":0,"TOWNNAME":"北區","LI":"中樓里","LIN":"13鄰","STREET":"開元路","SECT":" ","MAREA":" ","LANE":"９０巷","ALLEY":" ","HOUSE_NO":"３４號","E_COORD97":169804.19,"N_COORD97":2545091.0099999998,"ADDRESS":"開元路９０巷３４號","OBJECTID":240456},"geometry":{"x":169804.19000000227,"y":2545091.0099999998}},{"attributes":{"ID":240461,"DIS_CODE":0,"TOWNNAME":"柳營區","LI":"人和里","LIN":"14鄰","STREET":"柳營路","SECT":"三段","MAREA":" ","LANE":" ","ALLEY":" ","HOUSE_NO":"１９５號","E_COORD97":179649.69,"N_COORD97":2576697.9399999999,"ADDRESS":"柳營路三段１９５號","OBJECTID":240457},"geometry":{"x":179649.69000000041,"y":2576697.9400000013}},{"attributes":{"ID":240462,"DIS_CODE":0,"TOWNNAME":"東區","LI":"大智里","LIN":"40鄰","STREET":"文東街","SECT":" ","MAREA":" ","LANE":"２巷","ALLEY":" ","HOUSE_NO":"１０號","E_COORD97":171350.97,"N_COORD97":2540115.5899999999,"ADDRESS":"文東街２巷１０號","OBJECTID":240458},"geometry":{"x":171350.9700000016,"y":2540115.5900000017}},{"attributes":{"ID":240463,"DIS_CODE":0,"TOWNNAME":"東區","LI":"大智里","LIN":"40鄰","STREET":"文東街","SECT":" ","MAREA":" ","LANE":"２巷","ALLEY":" ","HOUSE_NO":"１１號","E_COORD97":171352.04000000001,"N_COORD97":2540119.21,"ADDRESS":"文東街２巷１１號","OBJECTID":240459},"geometry":{"x":171352.04000000004,"y":2540119.2100000028}},{"attributes":{"ID":240464,"DIS_CODE":0,"TOWNNAME":"東區","LI":"大智里","LIN":"40鄰","STREET":"文東街","SECT":" ","MAREA":" ","LANE":"２巷","ALLEY":" ","HOUSE_NO":"１２號","E_COORD97":171351.37,"N_COORD97":2540122.98,"ADDRESS":"文東街２巷１２號","OBJECTID":240460},"geometry":{"x":171351.37000000011,"y":2540122.9800000023}},{"attributes":{"ID":240465,"DIS_CODE":0,"TOWNNAME":"東區","LI":"大智里","LIN":"40鄰","STREET":"文東街","SECT":" ","MAREA":" ","LANE":"２巷","ALLEY":" ","HOUSE_NO":"１３號","E_COORD97":171351.23999999999,"N_COORD97":2540127.4100000001,"ADDRESS":"文東街２巷１３號","OBJECTID":240461},"geometry":{"x":171351.24000000022,"y":2540127.410000002}},{"attributes":{"ID":240466,"DIS_CODE":0,"TOWNNAME":"東區","LI":"大智里","LIN":"40鄰","STREET":"文東街","SECT":" ","MAREA":" ","LANE":"２巷","ALLEY":" ","HOUSE_NO":"１５號","E_COORD97":171350.70000000001,"N_COORD97":2540135.7400000002,"ADDRESS":"文東街２巷１５號","OBJECTID":240462},"geometry":{"x":171350.70000000112,"y":2540135.7400000021}},{"attributes":{"ID":240467,"DIS_CODE":0,"TOWNNAME":"仁德區","LI":"後壁里","LIN":"40鄰","STREET":"德善二街","SECT":" ","MAREA":" ","LANE":"１７巷","ALLEY":" ","HOUSE_NO":"３３號","E_COORD97":173487.34,"N_COORD97":2538967.02,"ADDRESS":"德善二街１７巷３３號","OBJECTID":240463},"geometry":{"x":173487.33999999985,"y":2538967.0199999996}},{"attributes":{"ID":240468,"DIS_CODE":0,"TOWNNAME":"仁德區","LI":"後壁里","LIN":"40鄰","STREET":"德善二街","SECT":" ","MAREA":" ","LANE":"１７巷","ALLEY":" ","HOUSE_NO":"６號","E_COORD97":173534.17000000001,"N_COORD97":2538926.7599999998,"ADDRESS":"德善二街１７巷６號","OBJECTID":240464},"geometry":{"x":173534.16999999993,"y":2538926.7600000035}},{"attributes":{"ID":240469,"DIS_CODE":0,"TOWNNAME":"仁德區","LI":"後壁里","LIN":"40鄰","STREET":"德善二街","SECT":" ","MAREA":" ","LANE":"１７巷","ALLEY":" ","HOUSE_NO":"３號","E_COORD97":173521.79999999999,"N_COORD97":2538918.2599999998,"ADDRESS":"德善二街１７巷３號","OBJECTID":240465},"geometry":{"x":173521.79999999981,"y":2538918.2599999998}},{"attributes":{"ID":240470,"DIS_CODE":0,"TOWNNAME":"仁德區","LI":"後壁里","LIN":"40鄰","STREET":"德善二街","SECT":" ","MAREA":" ","LANE":"１７巷","ALLEY":" ","HOUSE_NO":"２１號","E_COORD97":173501.32999999999,"N_COORD97":2538947.27,"ADDRESS":"德善二街１７巷２１號","OBJECTID":240466},"geometry":{"x":173501.33000000007,"y":2538947.2700000014}},{"attributes":{"ID":240471,"DIS_CODE":0,"TOWNNAME":"仁德區","LI":"後壁里","LIN":"40鄰","STREET":"德善二街","SECT":" ","MAREA":" ","LANE":"１７巷","ALLEY":" ","HOUSE_NO":"２號","E_COORD97":173538.41,"N_COORD97":2538920.5099999998,"ADDRESS":"德善二街１７巷２號","OBJECTID":240467},"geometry":{"x":173538.41000000015,"y":2538920.5099999998}},{"attributes":{"ID":240472,"DIS_CODE":0,"TOWNNAME":"永康區","LI":"崑山里","LIN":"40鄰","STREET":"崑山街","SECT":" ","MAREA":" ","LANE":"２２２巷","ALLEY":" ","HOUSE_NO":"１１號","E_COORD97":174149.48999999999,"N_COORD97":2545039.0699999998,"ADDRESS":"崑山街２２２巷１１號","OBJECTID":240468},"geometry":{"x":174149.49000000022,"y":2545039.0700000022}},{"attributes":{"ID":240473,"DIS_CODE":0,"TOWNNAME":"永康區","LI":"崑山里","LIN":"40鄰","STREET":"永大路","SECT":"二段","MAREA":" ","LANE":"１０３巷","ALLEY":" ","HOUSE_NO":"６號","E_COORD97":174204.42000000001,"N_COORD97":2544969.9399999999,"ADDRESS":"永大路二段１０３巷６號","OBJECTID":240469},"geometry":{"x":174204.41999999993,"y":2544969.9400000032}},{"attributes":{"ID":240474,"DIS_CODE":0,"TOWNNAME":"永康區","LI":"崑山里","LIN":"40鄰","STREET":"崑山街","SECT":" ","MAREA":" ","LANE":"２２２巷","ALLEY":" ","HOUSE_NO":"５號","E_COORD97":174126.10000000001,"N_COORD97":2545042.8999999999,"ADDRESS":"崑山街２２２巷５號","OBJECTID":240470},"geometry":{"x":174126.09999999963,"y":2545042.9000000022}},{"attributes":{"ID":240475,"DIS_CODE":0,"TOWNNAME":"永康區","LI":"崑山里","LIN":"40鄰","STREET":"崑山街","SECT":" ","MAREA":" ","LANE":"２００巷","ALLEY":" ","HOUSE_NO":"３號","E_COORD97":174093.41,"N_COORD97":2544996.3599999999,"ADDRESS":"崑山街２００巷３號","OBJECTID":240471},"geometry":{"x":174093.41000000108,"y":2544996.3599999994}},{"attributes":{"ID":240476,"DIS_CODE":0,"TOWNNAME":"安南區","LI":"理想里","LIN":"16鄰","STREET":"大安街","SECT":" ","MAREA":" ","LANE":"１８７巷","ALLEY":" ","HOUSE_NO":"３號","E_COORD97":167343.98999999999,"N_COORD97":2548288.5,"ADDRESS":"大安街１８７巷３號","OBJECTID":240472},"geometry":{"x":167343.99000000209,"y":2548288.5}},{"attributes":{"ID":240477,"DIS_CODE":0,"TOWNNAME":"安南區","LI":"理想里","LIN":"16鄰","STREET":"大安街","SECT":" ","MAREA":" ","LANE":"１８７巷","ALLEY":" ","HOUSE_NO":"５號","E_COORD97":167339.97,"N_COORD97":2548292.1400000001,"ADDRESS":"大安街１８７巷５號","OBJECTID":240473},"geometry":{"x":167339.96999999974,"y":2548292.1400000006}},{"attributes":{"ID":240478,"DIS_CODE":0,"TOWNNAME":"安南區","LI":"理想里","LIN":"16鄰","STREET":"大安街","SECT":" ","MAREA":" ","LANE":"１８７巷","ALLEY":" ","HOUSE_NO":"７號","E_COORD97":167336.48999999999,"N_COORD97":2548293.7200000002,"ADDRESS":"大安街１８７巷７號","OBJECTID":240474},"geometry":{"x":167336.49000000022,"y":2548293.7200000007}},{"attributes":{"ID":240479,"DIS_CODE":0,"TOWNNAME":"安南區","LI":"理想里","LIN":"16鄰","STREET":"大安街","SECT":" ","MAREA":" ","LANE":"１８７巷","ALLEY":" ","HOUSE_NO":"９號","E_COORD97":167333.07000000001,"N_COORD97":2548295.3100000001,"ADDRESS":"大安街１８７巷９號","OBJECTID":240475},"geometry":{"x":167333.0700000003,"y":2548295.3100000024}},{"attributes":{"ID":240480,"DIS_CODE":0,"TOWNNAME":"安南區","LI":"理想里","LIN":"16鄰","STREET":"大安街","SECT":" ","MAREA":" ","LANE":"１８７巷","ALLEY":" ","HOUSE_NO":"１１號","E_COORD97":167329.29000000001,"N_COORD97":2548298.0499999998,"ADDRESS":"大安街１８７巷１１號","OBJECTID":240476},"geometry":{"x":167329.29000000004,"y":2548298.0500000026}},{"attributes":{"ID":240481,"DIS_CODE":0,"TOWNNAME":"永康區","LI":"崑山里","LIN":"40鄰","STREET":"崑山街","SECT":" ","MAREA":" ","LANE":"２２２巷","ALLEY":" ","HOUSE_NO":"９號","E_COORD97":174135.07999999999,"N_COORD97":2545039.6499999999,"ADDRESS":"崑山街２２２巷９號","OBJECTID":240477},"geometry":{"x":174135.08000000007,"y":2545039.6500000004}},{"attributes":{"ID":240482,"DIS_CODE":0,"TOWNNAME":"中西區","LI":"保安里","LIN":"14鄰","STREET":"康樂街","SECT":" ","MAREA":" ","LANE":" ","ALLEY":" ","HOUSE_NO":"１０２號三樓之２","E_COORD97":167440.75,"N_COORD97":2543732.3500000001,"ADDRESS":"康樂街１０２號三樓之２","OBJECTID":240478},"geometry":{"x":167440.75000000093,"y":2543732.3499999996}},{"attributes":{"ID":240483,"DIS_CODE":0,"TOWNNAME":"中西區","LI":"保安里","LIN":"14鄰","STREET":"康樂街","SECT":" ","MAREA":" ","LANE":" ","ALLEY":" ","HOUSE_NO":"１０２號三樓之３","E_COORD97":167440.75,"N_COORD97":2543732.3500000001,"ADDRESS":"康樂街１０２號三樓之３","OBJECTID":240479},"geometry":{"x":167440.75000000093,"y":2543732.3499999996}},{"attributes":{"ID":240484,"DIS_CODE":0,"TOWNNAME":"中西區","LI":"保安里","LIN":"14鄰","STREET":"康樂街","SECT":" ","MAREA":" ","LANE":" ","ALLEY":" ","HOUSE_NO":"１０２號三樓之４","E_COORD97":167440.75,"N_COORD97":2543732.3500000001,"ADDRESS":"康樂街１０２號三樓之４","OBJECTID":240480},"geometry":{"x":167440.75000000093,"y":2543732.3499999996}},{"attributes":{"ID":240485,"DIS_CODE":0,"TOWNNAME":"中西區","LI":"保安里","LIN":"14鄰","STREET":"康樂街","SECT":" ","MAREA":" ","LANE":" ","ALLEY":" ","HOUSE_NO":"１０２號三樓之５","E_COORD97":167440.75,"N_COORD97":2543732.3500000001,"ADDRESS":"康樂街１０２號三樓之５","OBJECTID":240481},"geometry":{"x":167440.75000000093,"y":2543732.3499999996}},{"attributes":{"ID":240486,"DIS_CODE":0,"TOWNNAME":"中西區","LI":"保安里","LIN":"14鄰","STREET":"康樂街","SECT":" ","MAREA":" ","LANE":" ","ALLEY":" ","HOUSE_NO":"１０２號三樓之６","E_COORD97":167440.75,"N_COORD97":2543732.3500000001,"ADDRESS":"康樂街１０２號三樓之６","OBJECTID":240482},"geometry":{"x":167440.75000000093,"y":2543732.3499999996}},{"attributes":{"ID":240487,"DIS_CODE":0,"TOWNNAME":"安南區","LI":"溪北里","LIN":"16鄰","STREET":"府安路","SECT":"四段","MAREA":" ","LANE":"９１巷","ALLEY":" ","HOUSE_NO":"６號","E_COORD97":169121.34,"N_COORD97":2547301.7000000002,"ADDRESS":"府安路四段９１巷６號","OBJECTID":240483},"geometry":{"x":169121.34000000078,"y":2547301.7000000011}},{"attributes":{"ID":240488,"DIS_CODE":0,"TOWNNAME":"安南區","LI":"學東里","LIN":"16鄰","STREET":"城北路","SECT":" ","MAREA":" ","LANE":"８６６巷","ALLEY":" ","HOUSE_NO":"１４９號","E_COORD97":161057.64999999999,"N_COORD97":2553038.3500000001,"ADDRESS":"城北路８６６巷１４９號","OBJECTID":240484},"geometry":{"x":161057.6500000013,"y":2553038.3499999996}},{"attributes":{"ID":240489,"DIS_CODE":0,"TOWNNAME":"安南區","LI":"學東里","LIN":"16鄰","STREET":"城北路","SECT":" ","MAREA":" ","LANE":"８６６巷","ALLEY":" ","HOUSE_NO":"１４１號","E_COORD97":161061.54999999999,"N_COORD97":2553062.6899999999,"ADDRESS":"城北路８６６巷１４１號","OBJECTID":240485},"geometry":{"x":161061.55000000075,"y":2553062.6900000013}},{"attributes":{"ID":240490,"DIS_CODE":0,"TOWNNAME":"安南區","LI":"溪墘里","LIN":"16鄰","STREET":"海佃路","SECT":"一段","MAREA":" ","LANE":"３４０巷","ALLEY":" ","HOUSE_NO":"１１號","E_COORD97":167136.95999999999,"N_COORD97":2547538.2200000002,"ADDRESS":"海佃路一段３４０巷１１號","OBJECTID":240486},"geometry":{"x":167136.95999999903,"y":2547538.2200000007}},{"attributes":{"ID":240491,"DIS_CODE":0,"TOWNNAME":"安南區","LI":"溪墘里","LIN":"16鄰","STREET":"海佃路","SECT":"一段","MAREA":" ","LANE":"３４０巷","ALLEY":" ","HOUSE_NO":"２１號","E_COORD97":167159.39999999999,"N_COORD97":2547542.7999999998,"ADDRESS":"海佃路一段３４０巷２１號","OBJECTID":240487},"geometry":{"x":167159.40000000037,"y":2547542.8000000026}},{"attributes":{"ID":240492,"DIS_CODE":0,"TOWNNAME":"永康區","LI":"勝利里","LIN":"16鄰","STREET":"勝利街","SECT":" ","MAREA":" ","LANE":"１０７巷","ALLEY":" ","HOUSE_NO":"７０號","E_COORD97":171180.20999999999,"N_COORD97":2544941.25,"ADDRESS":"勝利街１０７巷７０號","OBJECTID":240488},"geometry":{"x":171180.21000000183,"y":2544941.2500000037}},{"attributes":{"ID":240493,"DIS_CODE":0,"TOWNNAME":"永康區","LI":"南灣里","LIN":"16鄰","STREET":"大灣一街","SECT":" ","MAREA":" ","LANE":"１３１巷","ALLEY":" ","HOUSE_NO":"４１號","E_COORD97":174616.32999999999,"N_COORD97":2544752.02,"ADDRESS":"大灣一街１３１巷４１號","OBJECTID":240489},"geometry":{"x":174616.33000000101,"y":2544752.0199999996}},{"attributes":{"ID":240494,"DIS_CODE":0,"TOWNNAME":"永康區","LI":"\u25A0行里","LIN":"16鄰","STREET":"中正六街","SECT":" ","MAREA":" ","LANE":"２６６巷","ALLEY":" ","HOUSE_NO":"２８號","E_COORD97":171923.35999999999,"N_COORD97":2548861.8799999999,"ADDRESS":"中正六街２６６巷２８號","OBJECTID":240490},"geometry":{"x":171923.36000000034,"y":2548861.8799999971}},{"attributes":{"ID":240495,"DIS_CODE":0,"TOWNNAME":"永康區","LI":"崑山里","LIN":"40鄰","STREET":"國光五街","SECT":" ","MAREA":" ","LANE":"９巷","ALLEY":" ","HOUSE_NO":"７號","E_COORD97":174165.20000000001,"N_COORD97":2545012.02,"ADDRESS":"國光五街９巷７號","OBJECTID":240491},"geometry":{"x":174165.20000000019,"y":2545012.0199999996}},{"attributes":{"ID":240496,"DIS_CODE":0,"TOWNNAME":"仁德區","LI":"後壁里","LIN":"40鄰","STREET":"德善二街","SECT":" ","MAREA":" ","LANE":"１７巷","ALLEY":" ","HOUSE_NO":"１８號","E_COORD97":173521.29000000001,"N_COORD97":2538946.52,"ADDRESS":"德善二街１７巷１８號","OBJECTID":240492},"geometry":{"x":173521.29000000097,"y":2538946.5200000014}},{"attributes":{"ID":240497,"DIS_CODE":0,"TOWNNAME":"永康區","LI":"龍潭里","LIN":"40鄰","STREET":"國民路","SECT":" ","MAREA":" ","LANE":"２０１巷","ALLEY":" ","HOUSE_NO":"１號","E_COORD97":174486.66,"N_COORD97":2547101.3599999999,"ADDRESS":"國民路２０１巷１號","OBJECTID":240493},"geometry":{"x":174486.66000000108,"y":2547101.3599999994}},{"attributes":{"ID":240498,"DIS_CODE":0,"TOWNNAME":"中西區","LI":"保安里","LIN":"14鄰","STREET":"康樂街","SECT":" ","MAREA":" ","LANE":" ","ALLEY":" ","HOUSE_NO":"１０２號三樓之７","E_COORD97":167440.75,"N_COORD97":2543732.3500000001,"ADDRESS":"康樂街１０２號三樓之７","OBJECTID":240494},"geometry":{"x":167440.75000000093,"y":2543732.3499999996}},{"attributes":{"ID":240499,"DIS_CODE":0,"TOWNNAME":"中西區","LI":"保安里","LIN":"14鄰","STREET":"康樂街","SECT":" ","MAREA":" ","LANE":" ","ALLEY":" ","HOUSE_NO":"１０２號五樓之１","E_COORD97":167440.75,"N_COORD97":2543732.3500000001,"ADDRESS":"康樂街１０２號五樓之１","OBJECTID":240495},"geometry":{"x":167440.75000000093,"y":2543732.3499999996}},{"attributes":{"ID":240500,"DIS_CODE":0,"TOWNNAME":"中西區","LI":"保安里","LIN":"14鄰","STREET":"康樂街","SECT":" ","MAREA":" ","LANE":" ","ALLEY":" ","HOUSE_NO":"１０２號五樓之２","E_COORD97":167440.75,"N_COORD97":2543732.3500000001,"ADDRESS":"康樂街１０２號五樓之２","OBJECTID":240496},"geometry":{"x":167440.75000000093,"y":2543732.3499999996}},{"attributes":{"ID":240501,"DIS_CODE":0,"TOWNNAME":"中西區","LI":"保安里","LIN":"14鄰","STREET":"康樂街","SECT":" ","MAREA":" ","LANE":" ","ALLEY":" ","HOUSE_NO":"１０２號五樓之３","E_COORD97":167440.75,"N_COORD97":2543732.3500000001,"ADDRESS":"康樂街１０２號五樓之３","OBJECTID":240497},"geometry":{"x":167440.75000000093,"y":2543732.3499999996}},{"attributes":{"ID":240502,"DIS_CODE":0,"TOWNNAME":"中西區","LI":"保安里","LIN":"14鄰","STREET":"康樂街","SECT":" ","MAREA":" ","LANE":" ","ALLEY":" ","HOUSE_NO":"１０２號五樓之４","E_COORD97":167440.75,"N_COORD97":2543732.3500000001,"ADDRESS":"康樂街１０２號五樓之４","OBJECTID":240498},"geometry":{"x":167440.75000000093,"y":2543732.3499999996}},{"attributes":{"ID":240503,"DIS_CODE":0,"TOWNNAME":"中西區","LI":"保安里","LIN":"14鄰","STREET":"康樂街","SECT":" ","MAREA":" ","LANE":" ","ALLEY":" ","HOUSE_NO":"１０２號五樓之５","E_COORD97":167440.75,"N_COORD97":2543732.3500000001,"ADDRESS":"康樂街１０２號五樓之５","OBJECTID":240499},"geometry":{"x":167440.75000000093,"y":2543732.3499999996}},{"attributes":{"ID":240504,"DIS_CODE":0,"TOWNNAME":"中西區","LI":"保安里","LIN":"14鄰","STREET":"康樂街","SECT":" ","MAREA":" ","LANE":" ","ALLEY":" ","HOUSE_NO":"１０２號五樓之６","E_COORD97":167440.75,"N_COORD97":2543732.3500000001,"ADDRESS":"康樂街１０２號五樓之６","OBJECTID":240500},"geometry":{"x":167440.75000000093,"y":2543732.3499999996}},{"attributes":{"ID":240505,"DIS_CODE":0,"TOWNNAME":"中西區","LI":"保安里","LIN":"14鄰","STREET":"康樂街","SECT":" ","MAREA":" ","LANE":" ","ALLEY":" ","HOUSE_NO":"１０２號五樓之７","E_COORD97":167440.75,"N_COORD97":2543732.3500000001,"ADDRESS":"康樂街１０２號五樓之７","OBJECTID":240501},"geometry":{"x":167440.75000000093,"y":2543732.3499999996}},{"attributes":{"ID":240506,"DIS_CODE":0,"TOWNNAME":"中西區","LI":"保安里","LIN":"14鄰","STREET":"康樂街","SECT":" ","MAREA":" ","LANE":" ","ALLEY":" ","HOUSE_NO":"１０２號五樓之８","E_COORD97":167440.75,"N_COORD97":2543732.3500000001,"ADDRESS":"康樂街１０２號五樓之８","OBJECTID":240502},"geometry":{"x":167440.75000000093,"y":2543732.3499999996}},{"attributes":{"ID":240507,"DIS_CODE":0,"TOWNNAME":"歸仁區","LI":"西埔里","LIN":"15鄰","STREET":"西埔二街","SECT":" ","MAREA":" ","LANE":"１１０巷","ALLEY":" ","HOUSE_NO":"９０號","E_COORD97":176698.32994,"N_COORD97":2545076.0867699999,"ADDRESS":"西埔二街１１０巷９０號","OBJECTID":240503},"geometry":{"x":176698.32993999962,"y":2545076.086771002}},{"attributes":{"ID":240508,"DIS_CODE":0,"TOWNNAME":"永康區","LI":"勝利里","LIN":"16鄰","STREET":"勝利街","SECT":" ","MAREA":" ","LANE":"１１３巷","ALLEY":" ","HOUSE_NO":"３３號","E_COORD97":171278.17999999999,"N_COORD97":2544921.25,"ADDRESS":"勝利街１１３巷３３號","OBJECTID":240504},"geometry":{"x":171278.1799999997,"y":2544921.2500000037}},{"attributes":{"ID":240509,"DIS_CODE":0,"TOWNNAME":"永康區","LI":"勝利里","LIN":"16鄰","STREET":"勝利街","SECT":" ","MAREA":" ","LANE":"１０７巷","ALLEY":" ","HOUSE_NO":"５６號","E_COORD97":171208.73000000001,"N_COORD97":2544939,"ADDRESS":"勝利街１０７巷５６號","OBJECTID":240505},"geometry":{"x":171208.73000000045,"y":2544939}},{"attributes":{"ID":240510,"DIS_CODE":0,"TOWNNAME":"永康區","LI":"烏竹里","LIN":"16鄰","STREET":"龍橋街","SECT":" ","MAREA":" ","LANE":"２９６巷","ALLEY":" ","HOUSE_NO":"３５號","E_COORD97":174597.01999999999,"N_COORD97":2549035,"ADDRESS":"龍橋街２９６巷３５號","OBJECTID":240506},"geometry":{"x":174597.02000000048,"y":2549034.9999999981}},{"attributes":{"ID":240511,"DIS_CODE":0,"TOWNNAME":"永康區","LI":"勝利里","LIN":"16鄰","STREET":"勝利街","SECT":" ","MAREA":" ","LANE":"１１３巷","ALLEY":" ","HOUSE_NO":"３１號","E_COORD97":171281.84,"N_COORD97":2544920.75,"ADDRESS":"勝利街１１３巷３１號","OBJECTID":240507},"geometry":{"x":171281.83999999985,"y":2544920.7499999981}},{"attributes":{"ID":240512,"DIS_CODE":0,"TOWNNAME":"永康區","LI":"勝利里","LIN":"16鄰","STREET":"勝利街","SECT":" ","MAREA":" ","LANE":"１０７巷","ALLEY":" ","HOUSE_NO":"６０號","E_COORD97":171200.42999999999,"N_COORD97":2544939.5,"ADDRESS":"勝利街１０７巷６０號","OBJECTID":240508},"geometry":{"x":171200.43000000156,"y":2544939.4999999981}},{"attributes":{"ID":240513,"DIS_CODE":0,"TOWNNAME":"歸仁區","LI":"西埔里","LIN":"15鄰","STREET":"大埔路","SECT":"二段","MAREA":" ","LANE":"２５０巷","ALLEY":" ","HOUSE_NO":"５０號","E_COORD97":175758.89841299999,"N_COORD97":2545723.79562,"ADDRESS":"大埔路二段２５０巷５０號","OBJECTID":240509},"geometry":{"x":175758.8984129997,"y":2545723.795617003}},{"attributes":{"ID":240514,"DIS_CODE":0,"TOWNNAME":"永康區","LI":"勝利里","LIN":"16鄰","STREET":"勝利街","SECT":" ","MAREA":" ","LANE":"１１３巷","ALLEY":" ","HOUSE_NO":"１５號","E_COORD97":171313.17999999999,"N_COORD97":2544918.25,"ADDRESS":"勝利街１１３巷１５號","OBJECTID":240510},"geometry":{"x":171313.1799999997,"y":2544918.2500000019}},{"attributes":{"ID":240515,"DIS_CODE":0,"TOWNNAME":"永康區","LI":"勝利里","LIN":"16鄰","STREET":"勝利街","SECT":" ","MAREA":" ","LANE":"１０７巷","ALLEY":" ","HOUSE_NO":"２８號之１","E_COORD97":171333.19,"N_COORD97":2544902.54,"ADDRESS":"勝利街１０７巷２８號之１","OBJECTID":240511},"geometry":{"x":171333.18999999948,"y":2544902.540000001}},{"attributes":{"ID":240516,"DIS_CODE":0,"TOWNNAME":"永康區","LI":"勝利里","LIN":"16鄰","STREET":"勝利街","SECT":" ","MAREA":" ","LANE":"１１３巷","ALLEY":" ","HOUSE_NO":"１７號","E_COORD97":171309.38,"N_COORD97":2544918.5,"ADDRESS":"勝利街１１３巷１７號","OBJECTID":240512},"geometry":{"x":171309.38000000175,"y":2544918.5}},{"attributes":{"ID":240517,"DIS_CODE":0,"TOWNNAME":"永康區","LI":"勝利里","LIN":"16鄰","STREET":"勝利街","SECT":" ","MAREA":" ","LANE":"１０７巷","ALLEY":" ","HOUSE_NO":"５０號","E_COORD97":171220.84,"N_COORD97":2544938.25,"ADDRESS":"勝利街１０７巷５０號","OBJECTID":240513},"geometry":{"x":171220.83999999985,"y":2544938.2500000019}},{"attributes":{"ID":240518,"DIS_CODE":0,"TOWNNAME":"後壁區","LI":"侯伯里","LIN":"16鄰","STREET":" ","SECT":" ","MAREA":"後壁寮","LANE":" ","ALLEY":" ","HOUSE_NO":"１３４號","E_COORD97":185178.31,"N_COORD97":2585553.8900000001,"ADDRESS":"後壁寮１３４號","OBJECTID":240514},"geometry":{"x":185178.31000000052,"y":2585553.8900000006}},{"attributes":{"ID":240519,"DIS_CODE":0,"TOWNNAME":"永康區","LI":"勝利里","LIN":"16鄰","STREET":"勝利街","SECT":" ","MAREA":" ","LANE":"１０７巷","ALLEY":" ","HOUSE_NO":"６６號","E_COORD97":171188.42999999999,"N_COORD97":2544940.25,"ADDRESS":"勝利街１０７巷６６號","OBJECTID":240515},"geometry":{"x":171188.42999999877,"y":2544940.25}},{"attributes":{"ID":240520,"DIS_CODE":0,"TOWNNAME":"永康區","LI":"勝利里","LIN":"16鄰","STREET":"勝利街","SECT":" ","MAREA":" ","LANE":"１０７巷","ALLEY":" ","HOUSE_NO":"４８號","E_COORD97":171225.07999999999,"N_COORD97":2544938,"ADDRESS":"勝利街１０７巷４８號","OBJECTID":240516},"geometry":{"x":171225.07999999914,"y":2544938}},{"attributes":{"ID":240521,"DIS_CODE":0,"TOWNNAME":"永康區","LI":"龍潭里","LIN":"40鄰","STREET":"國民路","SECT":" ","MAREA":" ","LANE":"２０１巷","ALLEY":" ","HOUSE_NO":"３號","E_COORD97":174490.73000000001,"N_COORD97":2547101.5,"ADDRESS":"國民路２０１巷３號","OBJECTID":240517},"geometry":{"x":174490.73000000045,"y":2547101.5}},{"attributes":{"ID":240522,"DIS_CODE":0,"TOWNNAME":"永康區","LI":"龍潭里","LIN":"40鄰","STREET":"國民路","SECT":" ","MAREA":" ","LANE":"２０１巷","ALLEY":" ","HOUSE_NO":"５號","E_COORD97":174494.59,"N_COORD97":2547101.5,"ADDRESS":"國民路２０１巷５號","OBJECTID":240518},"geometry":{"x":174494.58999999985,"y":2547101.5}},{"attributes":{"ID":240523,"DIS_CODE":0,"TOWNNAME":"永康區","LI":"龍潭里","LIN":"40鄰","STREET":"國民路","SECT":" ","MAREA":" ","LANE":"２０１巷","ALLEY":" ","HOUSE_NO":"７之１號","E_COORD97":174505.32999999999,"N_COORD97":2547100.9399999999,"ADDRESS":"國民路２０１巷７之１號","OBJECTID":240519},"geometry":{"x":174505.33000000194,"y":2547100.9399999995}},{"attributes":{"ID":240524,"DIS_CODE":0,"TOWNNAME":"中西區","LI":"保安里","LIN":"14鄰","STREET":"康樂街","SECT":" ","MAREA":" ","LANE":" ","ALLEY":" ","HOUSE_NO":"１０２號五樓之９","E_COORD97":167440.75,"N_COORD97":2543732.3500000001,"ADDRESS":"康樂街１０２號五樓之９","OBJECTID":240520},"geometry":{"x":167440.75000000093,"y":2543732.3499999996}},{"attributes":{"ID":240525,"DIS_CODE":0,"TOWNNAME":"中西區","LI":"保安里","LIN":"14鄰","STREET":"康樂街","SECT":" ","MAREA":" ","LANE":" ","ALLEY":" ","HOUSE_NO":"１０２號六樓之１","E_COORD97":167440.75,"N_COORD97":2543732.3500000001,"ADDRESS":"康樂街１０２號六樓之１","OBJECTID":240521},"geometry":{"x":167440.75000000093,"y":2543732.3499999996}},{"attributes":{"ID":240526,"DIS_CODE":0,"TOWNNAME":"中西區","LI":"保安里","LIN":"14鄰","STREET":"康樂街","SECT":" ","MAREA":" ","LANE":" ","ALLEY":" ","HOUSE_NO":"１０２號六樓之３","E_COORD97":167440.75,"N_COORD97":2543732.3500000001,"ADDRESS":"康樂街１０２號六樓之３","OBJECTID":240522},"geometry":{"x":167440.75000000093,"y":2543732.3499999996}},{"attributes":{"ID":240527,"DIS_CODE":0,"TOWNNAME":"中西區","LI":"保安里","LIN":"14鄰","STREET":"康樂街","SECT":" ","MAREA":" ","LANE":" ","ALLEY":" ","HOUSE_NO":"１０２號六樓之４","E_COORD97":167440.75,"N_COORD97":2543732.3500000001,"ADDRESS":"康樂街１０２號六樓之４","OBJECTID":240523},"geometry":{"x":167440.75000000093,"y":2543732.3499999996}},{"attributes":{"ID":240528,"DIS_CODE":0,"TOWNNAME":"中西區","LI":"保安里","LIN":"14鄰","STREET":"康樂街","SECT":" ","MAREA":" ","LANE":" ","ALLEY":" ","HOUSE_NO":"１０２號六樓之５","E_COORD97":167440.75,"N_COORD97":2543732.3500000001,"ADDRESS":"康樂街１０２號六樓之５","OBJECTID":240524},"geometry":{"x":167440.75000000093,"y":2543732.3499999996}},{"attributes":{"ID":240529,"DIS_CODE":0,"TOWNNAME":"中西區","LI":"保安里","LIN":"14鄰","STREET":"康樂街","SECT":" ","MAREA":" ","LANE":" ","ALLEY":" ","HOUSE_NO":"１０２號六樓之６","E_COORD97":167440.75,"N_COORD97":2543732.3500000001,"ADDRESS":"康樂街１０２號六樓之６","OBJECTID":240525},"geometry":{"x":167440.75000000093,"y":2543732.3499999996}},{"attributes":{"ID":240530,"DIS_CODE":0,"TOWNNAME":"中西區","LI":"保安里","LIN":"14鄰","STREET":"康樂街","SECT":" ","MAREA":" ","LANE":" ","ALLEY":" ","HOUSE_NO":"１０２號六樓之７","E_COORD97":167440.75,"N_COORD97":2543732.3500000001,"ADDRESS":"康樂街１０２號六樓之７","OBJECTID":240526},"geometry":{"x":167440.75000000093,"y":2543732.3499999996}},{"attributes":{"ID":240531,"DIS_CODE":0,"TOWNNAME":"中西區","LI":"保安里","LIN":"14鄰","STREET":"康樂街","SECT":" ","MAREA":" ","LANE":" ","ALLEY":" ","HOUSE_NO":"１０２號六樓之８","E_COORD97":167440.75,"N_COORD97":2543732.3500000001,"ADDRESS":"康樂街１０２號六樓之８","OBJECTID":240527},"geometry":{"x":167440.75000000093,"y":2543732.3499999996}},{"attributes":{"ID":240532,"DIS_CODE":0,"TOWNNAME":"中西區","LI":"保安里","LIN":"14鄰","STREET":"康樂街","SECT":" ","MAREA":" ","LANE":" ","ALLEY":" ","HOUSE_NO":"１０２號六樓之９","E_COORD97":167440.75,"N_COORD97":2543732.3500000001,"ADDRESS":"康樂街１０２號六樓之９","OBJECTID":240528},"geometry":{"x":167440.75000000093,"y":2543732.3499999996}},{"attributes":{"ID":240533,"DIS_CODE":0,"TOWNNAME":"中西區","LI":"保安里","LIN":"14鄰","STREET":"康樂街","SECT":" ","MAREA":" ","LANE":" ","ALLEY":" ","HOUSE_NO":"１０２號四樓之１","E_COORD97":167440.75,"N_COORD97":2543732.3500000001,"ADDRESS":"康樂街１０２號四樓之１","OBJECTID":240529},"geometry":{"x":167440.75000000093,"y":2543732.3499999996}},{"attributes":{"ID":240534,"DIS_CODE":0,"TOWNNAME":"中西區","LI":"文賢里","LIN":"2鄰","STREET":"文和街","SECT":" ","MAREA":" ","LANE":" ","ALLEY":" ","HOUSE_NO":"１６號","E_COORD97":167277.03,"N_COORD97":2544983.8700000001,"ADDRESS":"文和街１６號","OBJECTID":240530},"geometry":{"x":167277.03000000026,"y":2544983.8700000029}},{"attributes":{"ID":240535,"DIS_CODE":0,"TOWNNAME":"後壁區","LI":"侯伯里","LIN":"16鄰","STREET":" ","SECT":" ","MAREA":"後壁寮","LANE":" ","ALLEY":" ","HOUSE_NO":"１３９號之５","E_COORD97":185115.34,"N_COORD97":2585506.75,"ADDRESS":"後壁寮１３９號之５","OBJECTID":240531},"geometry":{"x":185115.34000000171,"y":2585506.75}},{"attributes":{"ID":240536,"DIS_CODE":0,"TOWNNAME":"後壁區","LI":"侯伯里","LIN":"16鄰","STREET":" ","SECT":" ","MAREA":"後壁寮","LANE":" ","ALLEY":" ","HOUSE_NO":"１３９號之６","E_COORD97":185109.57000000001,"N_COORD97":2585505.4300000002,"ADDRESS":"後壁寮１３９號之６","OBJECTID":240532},"geometry":{"x":185109.57000000123,"y":2585505.4299999978}},{"attributes":{"ID":240537,"DIS_CODE":0,"TOWNNAME":"後壁區","LI":"侯伯里","LIN":"16鄰","STREET":" ","SECT":" ","MAREA":"後壁寮","LANE":" ","ALLEY":" ","HOUSE_NO":"１３９號","E_COORD97":185152.04000000001,"N_COORD97":2585531.3900000001,"ADDRESS":"後壁寮１３９號","OBJECTID":240533},"geometry":{"x":185152.04000000097,"y":2585531.3900000025}},{"attributes":{"ID":240538,"DIS_CODE":0,"TOWNNAME":"安南區","LI":"幸福里","LIN":"16鄰","STREET":"海佃路","SECT":"一段","MAREA":" ","LANE":"９５巷","ALLEY":" ","HOUSE_NO":"２９號","E_COORD97":167063.04000000001,"N_COORD97":2546919.6400000001,"ADDRESS":"海佃路一段９５巷２９號","OBJECTID":240534},"geometry":{"x":167063.04000000004,"y":2546919.6400000025}},{"attributes":{"ID":240539,"DIS_CODE":0,"TOWNNAME":"安南區","LI":"幸福里","LIN":"16鄰","STREET":"府安路","SECT":"六段","MAREA":" ","LANE":"３７巷","ALLEY":" ","HOUSE_NO":"３號","E_COORD97":166990.84,"N_COORD97":2546680.23,"ADDRESS":"府安路六段３７巷３號","OBJECTID":240535},"geometry":{"x":166990.84000000078,"y":2546680.2300000004}},{"attributes":{"ID":240540,"DIS_CODE":0,"TOWNNAME":"柳營區","LI":"東昇里","LIN":"14鄰","STREET":"康樂街","SECT":" ","MAREA":" ","LANE":" ","ALLEY":" ","HOUSE_NO":"１１６號","E_COORD97":180252.48999999999,"N_COORD97":2575194.8500000001,"ADDRESS":"康樂街１１６號","OBJECTID":240536},"geometry":{"x":180252.49000000022,"y":2575194.8499999996}},{"attributes":{"ID":240541,"DIS_CODE":0,"TOWNNAME":"安南區","LI":"淵中里","LIN":"16鄰","STREET":"本田路","SECT":"三段","MAREA":" ","LANE":"７２０巷","ALLEY":" ","HOUSE_NO":"３號","E_COORD97":165005.48999999999,"N_COORD97":2549860.1800000002,"ADDRESS":"本田路三段７２０巷３號","OBJECTID":240537},"geometry":{"x":165005.49000000022,"y":2549860.1799999997}},{"attributes":{"ID":240542,"DIS_CODE":0,"TOWNNAME":"安南區","LI":"淵中里","LIN":"16鄰","STREET":"本田路","SECT":"三段","MAREA":" ","LANE":"６６８巷","ALLEY":" ","HOUSE_NO":"１５號","E_COORD97":164954.52995699999,"N_COORD97":2549796.4205800002,"ADDRESS":"本田路三段６６８巷１５號","OBJECTID":240538},"geometry":{"x":164954.5299570011,"y":2549796.4205830041}},{"attributes":{"ID":240543,"DIS_CODE":0,"TOWNNAME":"永康區","LI":"龍潭里","LIN":"40鄰","STREET":"國民路","SECT":" ","MAREA":" ","LANE":"２０１巷","ALLEY":" ","HOUSE_NO":"７號","E_COORD97":174498.78,"N_COORD97":2547101.0800000001,"ADDRESS":"國民路２０１巷７號","OBJECTID":240539},"geometry":{"x":174498.78000000026,"y":2547101.0800000001}},{"attributes":{"ID":240544,"DIS_CODE":0,"TOWNNAME":"永康區","LI":"崑山里","LIN":"40鄰","STREET":"國光五街","SECT":" ","MAREA":" ","LANE":"９巷","ALLEY":" ","HOUSE_NO":"１８號","E_COORD97":174126.07999999999,"N_COORD97":2544996.9500000002,"ADDRESS":"國光五街９巷１８號","OBJECTID":240540},"geometry":{"x":174126.08000000101,"y":2544996.950000003}},{"attributes":{"ID":240545,"DIS_CODE":0,"TOWNNAME":"永康區","LI":"勝利里","LIN":"40鄰","STREET":"中華一路","SECT":" ","MAREA":" ","LANE":"１８２巷","ALLEY":" ","HOUSE_NO":"４號二樓之１","E_COORD97":171533.47,"N_COORD97":2545051.54,"ADDRESS":"中華一路１８２巷４號二樓之１","OBJECTID":240541},"geometry":{"x":171533.46999999974,"y":2545051.540000001}},{"attributes":{"ID":240546,"DIS_CODE":0,"TOWNNAME":"永康區","LI":"勝利里","LIN":"40鄰","STREET":"中華一路","SECT":" ","MAREA":" ","LANE":"１８２巷","ALLEY":" ","HOUSE_NO":"４號四樓之２","E_COORD97":171533.60000000001,"N_COORD97":2545051.54,"ADDRESS":"中華一路１８２巷４號四樓之２","OBJECTID":240542},"geometry":{"x":171533.60000000056,"y":2545051.540000001}},{"attributes":{"ID":240547,"DIS_CODE":0,"TOWNNAME":"永康區","LI":"勝利里","LIN":"40鄰","STREET":"中華一路","SECT":" ","MAREA":" ","LANE":"１８２巷","ALLEY":" ","HOUSE_NO":"４號七樓之１","E_COORD97":171533.47,"N_COORD97":2545051.54,"ADDRESS":"中華一路１８２巷４號七樓之１","OBJECTID":240543},"geometry":{"x":171533.46999999974,"y":2545051.540000001}},{"attributes":{"ID":240548,"DIS_CODE":0,"TOWNNAME":"永康區","LI":"勝利里","LIN":"40鄰","STREET":"中華一路","SECT":" ","MAREA":" ","LANE":"１８２巷","ALLEY":" ","HOUSE_NO":"４號七樓之３","E_COORD97":171533.57000000001,"N_COORD97":2545051.54,"ADDRESS":"中華一路１８２巷４號七樓之３","OBJECTID":240544},"geometry":{"x":171533.5700000003,"y":2545051.540000001}},{"attributes":{"ID":240549,"DIS_CODE":0,"TOWNNAME":"永康區","LI":"勝利里","LIN":"40鄰","STREET":"中華一路","SECT":" ","MAREA":" ","LANE":"１８２巷","ALLEY":" ","HOUSE_NO":"４號三樓之４","E_COORD97":171533.48999999999,"N_COORD97":2545051.54,"ADDRESS":"中華一路１８２巷４號三樓之４","OBJECTID":240545},"geometry":{"x":171533.49000000115,"y":2545051.540000001}},{"attributes":{"ID":240550,"DIS_CODE":0,"TOWNNAME":"東區","LI":"忠孝里","LIN":"40鄰","STREET":"崇明路","SECT":" ","MAREA":" ","LANE":"２６６巷","ALLEY":" ","HOUSE_NO":"１０號七樓","E_COORD97":169904.01000000001,"N_COORD97":2542042.8999999999,"ADDRESS":"崇明路２６６巷１０號七樓","OBJECTID":240546},"geometry":{"x":169904.00999999978,"y":2542042.9000000022}},{"attributes":{"ID":240551,"DIS_CODE":0,"TOWNNAME":"東區","LI":"忠孝里","LIN":"40鄰","STREET":"崇明路","SECT":" ","MAREA":" ","LANE":"２６６巷","ALLEY":" ","HOUSE_NO":"１０號三樓","E_COORD97":169904.01000000001,"N_COORD97":2542042.8999999999,"ADDRESS":"崇明路２６６巷１０號三樓","OBJECTID":240547},"geometry":{"x":169904.00999999978,"y":2542042.9000000022}},{"attributes":{"ID":240552,"DIS_CODE":0,"TOWNNAME":"東區","LI":"忠孝里","LIN":"40鄰","STREET":"崇明路","SECT":" ","MAREA":" ","LANE":"２６６巷","ALLEY":" ","HOUSE_NO":"１０號五樓","E_COORD97":169904.01000000001,"N_COORD97":2542042.8999999999,"ADDRESS":"崇明路２６６巷１０號五樓","OBJECTID":240548},"geometry":{"x":169904.00999999978,"y":2542042.9000000022}},{"attributes":{"ID":240553,"DIS_CODE":0,"TOWNNAME":"東區","LI":"忠孝里","LIN":"40鄰","STREET":"崇明路","SECT":" ","MAREA":" ","LANE":"２６６巷","ALLEY":" ","HOUSE_NO":"１０號六樓","E_COORD97":169904.01000000001,"N_COORD97":2542042.8999999999,"ADDRESS":"崇明路２６６巷１０號六樓","OBJECTID":240549},"geometry":{"x":169904.00999999978,"y":2542042.9000000022}},{"attributes":{"ID":240554,"DIS_CODE":0,"TOWNNAME":"東區","LI":"忠孝里","LIN":"40鄰","STREET":"崇明路","SECT":" ","MAREA":" ","LANE":"２６６巷","ALLEY":" ","HOUSE_NO":"１０號四樓","E_COORD97":169904.01000000001,"N_COORD97":2542042.8999999999,"ADDRESS":"崇明路２６６巷１０號四樓","OBJECTID":240550},"geometry":{"x":169904.00999999978,"y":2542042.9000000022}},{"attributes":{"ID":240555,"DIS_CODE":0,"TOWNNAME":"東區","LI":"忠孝里","LIN":"40鄰","STREET":"崇明路","SECT":" ","MAREA":" ","LANE":"２６６巷","ALLEY":" ","HOUSE_NO":"１２號七樓","E_COORD97":169897.79000000001,"N_COORD97":2542039.54,"ADDRESS":"崇明路２６６巷１２號七樓","OBJECTID":240551},"geometry":{"x":169897.79000000004,"y":2542039.5400000028}},{"attributes":{"ID":240556,"DIS_CODE":0,"TOWNNAME":"東區","LI":"忠孝里","LIN":"40鄰","STREET":"崇明路","SECT":" ","MAREA":" ","LANE":"２６６巷","ALLEY":" ","HOUSE_NO":"１２號三樓","E_COORD97":169897.79000000001,"N_COORD97":2542039.54,"ADDRESS":"崇明路２６６巷１２號三樓","OBJECTID":240552},"geometry":{"x":169897.79000000004,"y":2542039.5400000028}},{"attributes":{"ID":240557,"DIS_CODE":0,"TOWNNAME":"東區","LI":"忠孝里","LIN":"40鄰","STREET":"崇明路","SECT":" ","MAREA":" ","LANE":"２６６巷","ALLEY":" ","HOUSE_NO":"１２號五樓","E_COORD97":169897.79000000001,"N_COORD97":2542039.54,"ADDRESS":"崇明路２６６巷１２號五樓","OBJECTID":240553},"geometry":{"x":169897.79000000004,"y":2542039.5400000028}},{"attributes":{"ID":240558,"DIS_CODE":0,"TOWNNAME":"東區","LI":"忠孝里","LIN":"40鄰","STREET":"崇明路","SECT":" ","MAREA":" ","LANE":"２６６巷","ALLEY":" ","HOUSE_NO":"１２號六樓","E_COORD97":169897.79000000001,"N_COORD97":2542039.54,"ADDRESS":"崇明路２６６巷１２號六樓","OBJECTID":240554},"geometry":{"x":169897.79000000004,"y":2542039.5400000028}},{"attributes":{"ID":240559,"DIS_CODE":0,"TOWNNAME":"東區","LI":"忠孝里","LIN":"40鄰","STREET":"崇明路","SECT":" ","MAREA":" ","LANE":"２６６巷","ALLEY":" ","HOUSE_NO":"１２號四樓","E_COORD97":169897.79000000001,"N_COORD97":2542039.54,"ADDRESS":"崇明路２６６巷１２號四樓","OBJECTID":240555},"geometry":{"x":169897.79000000004,"y":2542039.5400000028}},{"attributes":{"ID":240560,"DIS_CODE":0,"TOWNNAME":"中西區","LI":"保安里","LIN":"14鄰","STREET":"康樂街","SECT":" ","MAREA":" ","LANE":" ","ALLEY":" ","HOUSE_NO":"１０２號四樓之２","E_COORD97":167440.75,"N_COORD97":2543732.3500000001,"ADDRESS":"康樂街１０２號四樓之２","OBJECTID":240556},"geometry":{"x":167440.75000000093,"y":2543732.3499999996}},{"attributes":{"ID":240561,"DIS_CODE":0,"TOWNNAME":"中西區","LI":"保安里","LIN":"14鄰","STREET":"康樂街","SECT":" ","MAREA":" ","LANE":" ","ALLEY":" ","HOUSE_NO":"１０２號四樓之３","E_COORD97":167440.75,"N_COORD97":2543732.3500000001,"ADDRESS":"康樂街１０２號四樓之３","OBJECTID":240557},"geometry":{"x":167440.75000000093,"y":2543732.3499999996}},{"attributes":{"ID":240562,"DIS_CODE":0,"TOWNNAME":"中西區","LI":"保安里","LIN":"14鄰","STREET":"康樂街","SECT":" ","MAREA":" ","LANE":" ","ALLEY":" ","HOUSE_NO":"１０２號四樓之４","E_COORD97":167440.75,"N_COORD97":2543732.3500000001,"ADDRESS":"康樂街１０２號四樓之４","OBJECTID":240558},"geometry":{"x":167440.75000000093,"y":2543732.3499999996}},{"attributes":{"ID":240563,"DIS_CODE":0,"TOWNNAME":"中西區","LI":"保安里","LIN":"14鄰","STREET":"康樂街","SECT":" ","MAREA":" ","LANE":" ","ALLEY":" ","HOUSE_NO":"１０２號四樓之５","E_COORD97":167440.75,"N_COORD97":2543732.3500000001,"ADDRESS":"康樂街１０２號四樓之５","OBJECTID":240559},"geometry":{"x":167440.75000000093,"y":2543732.3499999996}},{"attributes":{"ID":240564,"DIS_CODE":0,"TOWNNAME":"安南區","LI":"新順里","LIN":"16鄰","STREET":"頂安街","SECT":" ","MAREA":" ","LANE":"４０巷","ALLEY":" ","HOUSE_NO":"７號","E_COORD97":169612,"N_COORD97":2549374.8500000001,"ADDRESS":"頂安街４０巷７號","OBJECTID":240560},"geometry":{"x":169612.00000000093,"y":2549374.8500000034}},{"attributes":{"ID":240565,"DIS_CODE":0,"TOWNNAME":"安南區","LI":"新順里","LIN":"16鄰","STREET":"頂安街","SECT":" ","MAREA":" ","LANE":"４０巷","ALLEY":" ","HOUSE_NO":"８號","E_COORD97":169627.19,"N_COORD97":2549368.0899999999,"ADDRESS":"頂安街４０巷８號","OBJECTID":240561},"geometry":{"x":169627.19000000041,"y":2549368.0900000017}},{"attributes":{"ID":240566,"DIS_CODE":0,"TOWNNAME":"安南區","LI":"新順里","LIN":"16鄰","STREET":"頂安街","SECT":" ","MAREA":" ","LANE":"４０巷","ALLEY":" ","HOUSE_NO":"９號","E_COORD97":169613.01999999999,"N_COORD97":2549379.71,"ADDRESS":"頂安街４０巷９號","OBJECTID":240562},"geometry":{"x":169613.02000000142,"y":2549379.7100000009}},{"attributes":{"ID":240567,"DIS_CODE":0,"TOWNNAME":"安南區","LI":"新順里","LIN":"16鄰","STREET":"頂安街","SECT":" ","MAREA":" ","LANE":"４０巷","ALLEY":" ","HOUSE_NO":"１１號","E_COORD97":169614.81,"N_COORD97":2549383.79,"ADDRESS":"頂安街４０巷１１號","OBJECTID":240563},"geometry":{"x":169614.81000000052,"y":2549383.7899999991}},{"attributes":{"ID":240568,"DIS_CODE":0,"TOWNNAME":"安南區","LI":"新順里","LIN":"16鄰","STREET":"頂安街","SECT":" ","MAREA":" ","LANE":"４０巷","ALLEY":" ","HOUSE_NO":"１３號","E_COORD97":169617.87,"N_COORD97":2549388,"ADDRESS":"頂安街４０巷１３號","OBJECTID":240564},"geometry":{"x":169617.87000000197,"y":2549388.0000000037}},{"attributes":{"ID":240569,"DIS_CODE":0,"TOWNNAME":"安南區","LI":"新順里","LIN":"16鄰","STREET":"頂安街","SECT":" ","MAREA":" ","LANE":"４０巷","ALLEY":" ","HOUSE_NO":"１５號","E_COORD97":169621.06,"N_COORD97":2549393.3700000001,"ADDRESS":"頂安街４０巷１５號","OBJECTID":240565},"geometry":{"x":169621.05999999866,"y":2549393.3700000048}},{"attributes":{"ID":240570,"DIS_CODE":0,"TOWNNAME":"東區","LI":"忠孝里","LIN":"40鄰","STREET":"崇明路","SECT":" ","MAREA":" ","LANE":"２６６巷","ALLEY":" ","HOUSE_NO":"１４號七樓","E_COORD97":169891.97,"N_COORD97":2542036.4300000002,"ADDRESS":"崇明路２６６巷１４號七樓","OBJECTID":240566},"geometry":{"x":169891.97000000067,"y":2542036.4299999997}},{"attributes":{"ID":240571,"DIS_CODE":0,"TOWNNAME":"東區","LI":"忠孝里","LIN":"40鄰","STREET":"崇明路","SECT":" ","MAREA":" ","LANE":"２６６巷","ALLEY":" ","HOUSE_NO":"１４號三樓","E_COORD97":169891.97,"N_COORD97":2542036.4300000002,"ADDRESS":"崇明路２６６巷１４號三樓","OBJECTID":240567},"geometry":{"x":169891.97000000067,"y":2542036.4299999997}},{"attributes":{"ID":240572,"DIS_CODE":0,"TOWNNAME":"龍崎區","LI":"崎頂里","LIN":"16鄰","STREET":" ","SECT":" ","MAREA":"過嶺","LANE":" ","ALLEY":" ","HOUSE_NO":"２１號","E_COORD97":187923.67000000001,"N_COORD97":2540482.25,"ADDRESS":"過嶺２１號","OBJECTID":240568},"geometry":{"x":187923.67000000179,"y":2540482.25}},{"attributes":{"ID":240573,"DIS_CODE":0,"TOWNNAME":"東區","LI":"忠孝里","LIN":"40鄰","STREET":"崇明路","SECT":" ","MAREA":" ","LANE":"２６６巷","ALLEY":" ","HOUSE_NO":"１４號五樓","E_COORD97":169891.97,"N_COORD97":2542036.4300000002,"ADDRESS":"崇明路２６６巷１４號五樓","OBJECTID":240569},"geometry":{"x":169891.97000000067,"y":2542036.4299999997}},{"attributes":{"ID":240574,"DIS_CODE":0,"TOWNNAME":"中西區","LI":"保安里","LIN":"14鄰","STREET":"康樂街","SECT":" ","MAREA":" ","LANE":" ","ALLEY":" ","HOUSE_NO":"１０２號四樓之６","E_COORD97":167440.75,"N_COORD97":2543732.3500000001,"ADDRESS":"康樂街１０２號四樓之６","OBJECTID":240570},"geometry":{"x":167440.75000000093,"y":2543732.3499999996}},{"attributes":{"ID":240575,"DIS_CODE":0,"TOWNNAME":"中西區","LI":"保安里","LIN":"14鄰","STREET":"康樂街","SECT":" ","MAREA":" ","LANE":" ","ALLEY":" ","HOUSE_NO":"１０２號四樓之７","E_COORD97":167440.75,"N_COORD97":2543732.3500000001,"ADDRESS":"康樂街１０２號四樓之７","OBJECTID":240571},"geometry":{"x":167440.75000000093,"y":2543732.3499999996}},{"attributes":{"ID":240576,"DIS_CODE":0,"TOWNNAME":"中西區","LI":"保安里","LIN":"14鄰","STREET":"康樂街","SECT":" ","MAREA":" ","LANE":" ","ALLEY":" ","HOUSE_NO":"１０２號四樓之８","E_COORD97":167440.75,"N_COORD97":2543732.3500000001,"ADDRESS":"康樂街１０２號四樓之８","OBJECTID":240572},"geometry":{"x":167440.75000000093,"y":2543732.3499999996}},{"attributes":{"ID":240577,"DIS_CODE":0,"TOWNNAME":"中西區","LI":"保安里","LIN":"14鄰","STREET":"康樂街","SECT":" ","MAREA":" ","LANE":" ","ALLEY":" ","HOUSE_NO":"１０２號四樓之９","E_COORD97":167440.75,"N_COORD97":2543732.3500000001,"ADDRESS":"康樂街１０２號四樓之９","OBJECTID":240573},"geometry":{"x":167440.75000000093,"y":2543732.3499999996}},{"attributes":{"ID":240578,"DIS_CODE":0,"TOWNNAME":"東區","LI":"中西里","LIN":"14鄰","STREET":"東寧路","SECT":" ","MAREA":" ","LANE":" ","ALLEY":" ","HOUSE_NO":"５８號八樓","E_COORD97":170111.59,"N_COORD97":2543575.71,"ADDRESS":"東寧路５８號八樓","OBJECTID":240574},"geometry":{"x":170111.59000000078,"y":2543575.7100000009}},{"attributes":{"ID":240579,"DIS_CODE":0,"TOWNNAME":"安南區","LI":"安東里","LIN":"14鄰","STREET":"安和路","SECT":"一段","MAREA":" ","LANE":"２２０巷","ALLEY":" ","HOUSE_NO":"２８號","E_COORD97":169413.81251600001,"N_COORD97":2547945.8922199998,"ADDRESS":"安和路一段２２０巷２８號","OBJECTID":240575},"geometry":{"x":169413.81251599919,"y":2547945.8922220021}},{"attributes":{"ID":240580,"DIS_CODE":0,"TOWNNAME":"東區","LI":"中西里","LIN":"15鄰","STREET":"勝利路","SECT":" ","MAREA":" ","LANE":"５２巷","ALLEY":" ","HOUSE_NO":"１１０號","E_COORD97":169995.56,"N_COORD97":2543378.1800000002,"ADDRESS":"勝利路５２巷１１０號","OBJECTID":240576},"geometry":{"x":169995.55999999959,"y":2543378.1799999997}},{"attributes":{"ID":240581,"DIS_CODE":0,"TOWNNAME":"東區","LI":"中西里","LIN":"15鄰","STREET":"勝利路","SECT":" ","MAREA":" ","LANE":"５２巷","ALLEY":" ","HOUSE_NO":"１１２號","E_COORD97":169999.94,"N_COORD97":2543370.5299999998,"ADDRESS":"勝利路５２巷１１２號","OBJECTID":240577},"geometry":{"x":169999.94000000134,"y":2543370.5300000012}},{"attributes":{"ID":240582,"DIS_CODE":0,"TOWNNAME":"東區","LI":"中西里","LIN":"15鄰","STREET":"長榮路","SECT":"二段","MAREA":" ","LANE":"７１巷","ALLEY":" ","HOUSE_NO":"１０號","E_COORD97":170050.56,"N_COORD97":2543425.7799999998,"ADDRESS":"長榮路二段７１巷１０號","OBJECTID":240578},"geometry":{"x":170050.56000000052,"y":2543425.7800000012}},{"attributes":{"ID":240583,"DIS_CODE":0,"TOWNNAME":"東區","LI":"中西里","LIN":"15鄰","STREET":"長榮路","SECT":"二段","MAREA":" ","LANE":"７１巷","ALLEY":" ","HOUSE_NO":"１２號","E_COORD97":170042.95000000001,"N_COORD97":2543421.3100000001,"ADDRESS":"長榮路二段７１巷１２號","OBJECTID":240579},"geometry":{"x":170042.95000000205,"y":2543421.3100000005}},{"attributes":{"ID":240584,"DIS_CODE":0,"TOWNNAME":"東區","LI":"忠孝里","LIN":"40鄰","STREET":"崇明路","SECT":" ","MAREA":" ","LANE":"２６６巷","ALLEY":" ","HOUSE_NO":"１４號六樓","E_COORD97":169891.97,"N_COORD97":2542036.4300000002,"ADDRESS":"崇明路２６６巷１４號六樓","OBJECTID":240580},"geometry":{"x":169891.97000000067,"y":2542036.4299999997}},{"attributes":{"ID":240585,"DIS_CODE":0,"TOWNNAME":"東區","LI":"忠孝里","LIN":"40鄰","STREET":"崇明路","SECT":" ","MAREA":" ","LANE":"２６６巷","ALLEY":" ","HOUSE_NO":"１４號四樓","E_COORD97":169891.97,"N_COORD97":2542036.4300000002,"ADDRESS":"崇明路２６６巷１４號四樓","OBJECTID":240581},"geometry":{"x":169891.97000000067,"y":2542036.4299999997}},{"attributes":{"ID":240586,"DIS_CODE":0,"TOWNNAME":"東區","LI":"忠孝里","LIN":"40鄰","STREET":"崇明路","SECT":" ","MAREA":" ","LANE":"２６６巷","ALLEY":" ","HOUSE_NO":"１６號七樓","E_COORD97":169885.37,"N_COORD97":2542032.5499999998,"ADDRESS":"崇明路２６６巷１６號七樓","OBJECTID":240582},"geometry":{"x":169885.37000000011,"y":2542032.5500000026}},{"attributes":{"ID":240587,"DIS_CODE":0,"TOWNNAME":"東區","LI":"忠孝里","LIN":"40鄰","STREET":"崇明路","SECT":" ","MAREA":" ","LANE":"２６６巷","ALLEY":" ","HOUSE_NO":"１６號三樓","E_COORD97":169885.37,"N_COORD97":2542032.5499999998,"ADDRESS":"崇明路２６６巷１６號三樓","OBJECTID":240583},"geometry":{"x":169885.37000000011,"y":2542032.5500000026}},{"attributes":{"ID":240588,"DIS_CODE":0,"TOWNNAME":"東區","LI":"忠孝里","LIN":"40鄰","STREET":"崇明路","SECT":" ","MAREA":" ","LANE":"２６６巷","ALLEY":" ","HOUSE_NO":"１６號五樓","E_COORD97":169885.37,"N_COORD97":2542032.5499999998,"ADDRESS":"崇明路２６６巷１６號五樓","OBJECTID":240584},"geometry":{"x":169885.37000000011,"y":2542032.5500000026}},{"attributes":{"ID":240589,"DIS_CODE":0,"TOWNNAME":"東區","LI":"忠孝里","LIN":"40鄰","STREET":"崇明路","SECT":" ","MAREA":" ","LANE":"２６６巷","ALLEY":" ","HOUSE_NO":"１６號六樓","E_COORD97":169885.37,"N_COORD97":2542032.5499999998,"ADDRESS":"崇明路２６６巷１６號六樓","OBJECTID":240585},"geometry":{"x":169885.37000000011,"y":2542032.5500000026}},{"attributes":{"ID":240590,"DIS_CODE":0,"TOWNNAME":"東區","LI":"忠孝里","LIN":"40鄰","STREET":"崇明路","SECT":" ","MAREA":" ","LANE":"２６６巷","ALLEY":" ","HOUSE_NO":"１６號四樓","E_COORD97":169885.37,"N_COORD97":2542032.5499999998,"ADDRESS":"崇明路２６６巷１６號四樓","OBJECTID":240586},"geometry":{"x":169885.37000000011,"y":2542032.5500000026}},{"attributes":{"ID":240591,"DIS_CODE":0,"TOWNNAME":"東區","LI":"忠孝里","LIN":"40鄰","STREET":"崇明路","SECT":" ","MAREA":" ","LANE":"２６６巷","ALLEY":" ","HOUSE_NO":"１８號七樓","E_COORD97":169878.25,"N_COORD97":2542029.5800000001,"ADDRESS":"崇明路２６６巷１８號七樓","OBJECTID":240587},"geometry":{"x":169878.25000000093,"y":2542029.5800000001}},{"attributes":{"ID":240592,"DIS_CODE":0,"TOWNNAME":"東區","LI":"忠孝里","LIN":"40鄰","STREET":"崇明路","SECT":" ","MAREA":" ","LANE":"２６６巷","ALLEY":" ","HOUSE_NO":"１８號三樓","E_COORD97":169878.25,"N_COORD97":2542029.5800000001,"ADDRESS":"崇明路２６６巷１８號三樓","OBJECTID":240588},"geometry":{"x":169878.25000000093,"y":2542029.5800000001}},{"attributes":{"ID":240593,"DIS_CODE":0,"TOWNNAME":"東區","LI":"忠孝里","LIN":"40鄰","STREET":"崇明路","SECT":" ","MAREA":" ","LANE":"２６６巷","ALLEY":" ","HOUSE_NO":"１８號五樓","E_COORD97":169878.25,"N_COORD97":2542029.5800000001,"ADDRESS":"崇明路２６６巷１８號五樓","OBJECTID":240589},"geometry":{"x":169878.25000000093,"y":2542029.5800000001}},{"attributes":{"ID":240594,"DIS_CODE":0,"TOWNNAME":"東區","LI":"裕農里","LIN":"14鄰","STREET":"東寧路","SECT":" ","MAREA":" ","LANE":" ","ALLEY":" ","HOUSE_NO":"３４２號二樓","E_COORD97":170826.60000000001,"N_COORD97":2543378.3999999999,"ADDRESS":"東寧路３４２號二樓","OBJECTID":240590},"geometry":{"x":170826.60000000056,"y":2543378.4000000022}},{"attributes":{"ID":240595,"DIS_CODE":0,"TOWNNAME":"東區","LI":"裕農里","LIN":"14鄰","STREET":"東寧路","SECT":" ","MAREA":" ","LANE":" ","ALLEY":" ","HOUSE_NO":"３４２號三樓","E_COORD97":170826.60000000001,"N_COORD97":2543378.3999999999,"ADDRESS":"東寧路３４２號三樓","OBJECTID":240591},"geometry":{"x":170826.60000000056,"y":2543378.4000000022}},{"attributes":{"ID":240596,"DIS_CODE":0,"TOWNNAME":"東區","LI":"裕農里","LIN":"14鄰","STREET":"東寧路","SECT":" ","MAREA":" ","LANE":" ","ALLEY":" ","HOUSE_NO":"３４２號三樓之１","E_COORD97":170826.60000000001,"N_COORD97":2543378.3999999999,"ADDRESS":"東寧路３４２號三樓之１","OBJECTID":240592},"geometry":{"x":170826.60000000056,"y":2543378.4000000022}},{"attributes":{"ID":240597,"DIS_CODE":0,"TOWNNAME":"中西區","LI":"公正里","LIN":"15鄰","STREET":"衛民街","SECT":" ","MAREA":" ","LANE":" ","ALLEY":" ","HOUSE_NO":"１０６號之５０","E_COORD97":168877.92999999999,"N_COORD97":2543754.1299999999,"ADDRESS":"衛民街１０６號之５０","OBJECTID":240593},"geometry":{"x":168877.93000000156,"y":2543754.129999999}},{"attributes":{"ID":240598,"DIS_CODE":0,"TOWNNAME":"柳營區","LI":"東昇里","LIN":"14鄰","STREET":"康樂街","SECT":" ","MAREA":" ","LANE":" ","ALLEY":" ","HOUSE_NO":"１０６號","E_COORD97":180263.57000000001,"N_COORD97":2575158.0800000001,"ADDRESS":"康樂街１０６號","OBJECTID":240594},"geometry":{"x":180263.5700000003,"y":2575158.0800000019}},{"attributes":{"ID":240599,"DIS_CODE":0,"TOWNNAME":"東區","LI":"中西里","LIN":"15鄰","STREET":"長榮路","SECT":"二段","MAREA":" ","LANE":"７１巷","ALLEY":" ","HOUSE_NO":"７號","E_COORD97":170015.04000000001,"N_COORD97":2543389.3399999999,"ADDRESS":"長榮路二段７１巷７號","OBJECTID":240595},"geometry":{"x":170015.0400000019,"y":2543389.3400000017}},{"attributes":{"ID":240600,"DIS_CODE":0,"TOWNNAME":"東區","LI":"中西里","LIN":"15鄰","STREET":"長榮路","SECT":"二段","MAREA":" ","LANE":"７１巷","ALLEY":" ","HOUSE_NO":"９號","E_COORD97":170008.91,"N_COORD97":2543388.25,"ADDRESS":"長榮路二段７１巷９號","OBJECTID":240596},"geometry":{"x":170008.91000000015,"y":2543388.25}},{"attributes":{"ID":240601,"DIS_CODE":0,"TOWNNAME":"東區","LI":"中西里","LIN":"15鄰","STREET":"長榮路","SECT":"二段","MAREA":" ","LANE":"７１巷","ALLEY":" ","HOUSE_NO":"１１號","E_COORD97":170004.75,"N_COORD97":2543386.5,"ADDRESS":"長榮路二段７１巷１１號","OBJECTID":240597},"geometry":{"x":170004.75,"y":2543386.5}},{"attributes":{"ID":240602,"DIS_CODE":0,"TOWNNAME":"東區","LI":"忠孝里","LIN":"40鄰","STREET":"崇明路","SECT":" ","MAREA":" ","LANE":"２６６巷","ALLEY":" ","HOUSE_NO":"１８號六樓","E_COORD97":169878.25,"N_COORD97":2542029.5800000001,"ADDRESS":"崇明路２６６巷１８號六樓","OBJECTID":240598},"geometry":{"x":169878.25000000093,"y":2542029.5800000001}},{"attributes":{"ID":240603,"DIS_CODE":0,"TOWNNAME":"東區","LI":"忠孝里","LIN":"40鄰","STREET":"崇明路","SECT":" ","MAREA":" ","LANE":"２６６巷","ALLEY":" ","HOUSE_NO":"１８號四樓","E_COORD97":169878.25,"N_COORD97":2542029.5800000001,"ADDRESS":"崇明路２６６巷１８號四樓","OBJECTID":240599},"geometry":{"x":169878.25000000093,"y":2542029.5800000001}},{"attributes":{"ID":240604,"DIS_CODE":0,"TOWNNAME":"東區","LI":"忠孝里","LIN":"40鄰","STREET":"崇明路","SECT":" ","MAREA":" ","LANE":"２６６巷","ALLEY":" ","HOUSE_NO":"２０號七樓","E_COORD97":169869.57999999999,"N_COORD97":2542030.1000000001,"ADDRESS":"崇明路２６６巷２０號七樓","OBJECTID":240600},"geometry":{"x":169869.58000000101,"y":2542030.1000000015}}]}