{"displayFieldName":"TOWNNAME","fieldAliases":{"ID":"ID","DIS_CODE":"DIS_CODE","TOWNNAME":"TOWNNAME","LI":"LI","LIN":"LIN","STREET":"STREET","SECT":"SECT","MAREA":"MAREA","LANE":"LANE","ALLEY":"ALLEY","HOUSE_NO":"HOUSE_NO","E_COORD97":"E_COORD97","N_COORD97":"N_COORD97","ADDRESS":"ADDRESS","OBJECTID":"OBJECTID"},"geometryType":"esriGeometryPoint","spatialReference":{"wkid":102443,"latestWkid":3826},"fields":[{"name":"ID","type":"esriFieldTypeDouble","alias":"ID"},{"name":"DIS_CODE","type":"esriFieldTypeInteger","alias":"DIS_CODE"},{"name":"TOWNNAME","type":"esriFieldTypeString","alias":"TOWNNAME","length":8},{"name":"LI","type":"esriFieldTypeString","alias":"LI","length":8},{"name":"LIN","type":"esriFieldTypeString","alias":"LIN","length":12},{"name":"STREET","type":"esriFieldTypeString","alias":"STREET","length":20},{"name":"SECT","type":"esriFieldTypeString","alias":"SECT","length":8},{"name":"MAREA","type":"esriFieldTypeString","alias":"MAREA","length":12},{"name":"LANE","type":"esriFieldTypeString","alias":"LANE","length":10},{"name":"ALLEY","type":"esriFieldTypeString","alias":"ALLEY","length":10},{"name":"HOUSE_NO","type":"esriFieldTypeString","alias":"HOUSE_NO","length":20},{"name":"E_COORD97","type":"esriFieldTypeDouble","alias":"E_COORD97"},{"name":"N_COORD97","type":"esriFieldTypeDouble","alias":"N_COORD97"},{"name":"ADDRESS","type":"esriFieldTypeString","alias":"ADDRESS","length":50},{"name":"OBJECTID","type":"esriFieldTypeOID","alias":"OBJECTID"}],"features":[{"attributes":{"ID":93401,"DIS_CODE":0,"TOWNNAME":"南區","LI":"田寮里","LIN":"21鄰","STREET":"西門路","SECT":"一段","MAREA":" ","LANE":"２７９巷","ALLEY":"１６弄","HOUSE_NO":"６號","E_COORD97":167656.59,"N_COORD97":2541969.6299999999,"ADDRESS":"西門路一段２７９巷１６弄６號","OBJECTID":93401},"geometry":{"x":167656.59000000171,"y":2541969.629999999}},{"attributes":{"ID":93402,"DIS_CODE":0,"TOWNNAME":"新營區","LI":"南紙里","LIN":"21鄰","STREET":"建業路","SECT":" ","MAREA":" ","LANE":"２２７巷","ALLEY":"２弄","HOUSE_NO":"１號","E_COORD97":178100.89999999999,"N_COORD97":2577459.9500000002,"ADDRESS":"建業路２２７巷２弄１號","OBJECTID":93402},"geometry":{"x":178100.9000000013,"y":2577459.950000003}},{"attributes":{"ID":93403,"DIS_CODE":0,"TOWNNAME":"新營區","LI":"南紙里","LIN":"21鄰","STREET":"建業路","SECT":" ","MAREA":" ","LANE":"２２７巷","ALLEY":"２０弄","HOUSE_NO":"２７號","E_COORD97":178047.73999999999,"N_COORD97":2577403.7400000002,"ADDRESS":"建業路２２７巷２０弄２７號","OBJECTID":93403},"geometry":{"x":178047.74000000115,"y":2577403.7400000002}},{"attributes":{"ID":93404,"DIS_CODE":0,"TOWNNAME":"新營區","LI":"南紙里","LIN":"21鄰","STREET":"建業路","SECT":" ","MAREA":" ","LANE":"２２７巷","ALLEY":"２弄","HOUSE_NO":"２１號","E_COORD97":178054.16,"N_COORD97":2577463.5099999998,"ADDRESS":"建業路２２７巷２弄２１號","OBJECTID":93404},"geometry":{"x":178054.16000000015,"y":2577463.5100000035}},{"attributes":{"ID":93405,"DIS_CODE":0,"TOWNNAME":"新營區","LI":"南紙里","LIN":"21鄰","STREET":"建業路","SECT":" ","MAREA":" ","LANE":"２２７巷","ALLEY":"２０弄","HOUSE_NO":"３７號","E_COORD97":178024.23000000001,"N_COORD97":2577404.96,"ADDRESS":"建業路２２７巷２０弄３７號","OBJECTID":93405},"geometry":{"x":178024.23000000138,"y":2577404.9600000028}},{"attributes":{"ID":93406,"DIS_CODE":0,"TOWNNAME":"安平區","LI":"平通里","LIN":"21鄰","STREET":"育平九街","SECT":" ","MAREA":" ","LANE":"３７２巷","ALLEY":"１６５弄","HOUSE_NO":"１３號","E_COORD97":164556.35999999999,"N_COORD97":2544134.2000000002,"ADDRESS":"育平九街３７２巷１６５弄１３號","OBJECTID":93406},"geometry":{"x":164556.3600000022,"y":2544134.200000003}},{"attributes":{"ID":93407,"DIS_CODE":0,"TOWNNAME":"歸仁區","LI":"南興里","LIN":"15鄰","STREET":"文化街","SECT":"三段","MAREA":" ","LANE":"５３０巷","ALLEY":" ","HOUSE_NO":"１號","E_COORD97":175782.73999999999,"N_COORD97":2541234.3300000001,"ADDRESS":"文化街三段５３０巷１號","OBJECTID":93407},"geometry":{"x":175782.74000000209,"y":2541234.3300000001}},{"attributes":{"ID":93408,"DIS_CODE":0,"TOWNNAME":"安平區","LI":"港仔里","LIN":"8鄰","STREET":"安平路","SECT":" ","MAREA":" ","LANE":" ","ALLEY":" ","HOUSE_NO":"９９號之５","E_COORD97":164311.88,"N_COORD97":2544441.3199999998,"ADDRESS":"安平路９９號之５","OBJECTID":93408},"geometry":{"x":164311.88000000082,"y":2544441.3200000003}},{"attributes":{"ID":93409,"DIS_CODE":0,"TOWNNAME":"東山區","LI":"聖賢里","LIN":"15鄰","STREET":" ","SECT":" ","MAREA":"頂窩","LANE":" ","ALLEY":" ","HOUSE_NO":"１０號之１","E_COORD97":183365.03,"N_COORD97":2578563.2200000002,"ADDRESS":"頂窩１０號之１","OBJECTID":93409},"geometry":{"x":183365.03000000212,"y":2578563.2200000007}},{"attributes":{"ID":93410,"DIS_CODE":0,"TOWNNAME":"東山區","LI":"聖賢里","LIN":"15鄰","STREET":" ","SECT":" ","MAREA":"頂窩","LANE":" ","ALLEY":" ","HOUSE_NO":"１０號","E_COORD97":183358.64999999999,"N_COORD97":2578564.8799999999,"ADDRESS":"頂窩１０號","OBJECTID":93410},"geometry":{"x":183358.65000000037,"y":2578564.8799999971}},{"attributes":{"ID":93411,"DIS_CODE":0,"TOWNNAME":"安平區","LI":"平通里","LIN":"21鄰","STREET":"育平九街","SECT":" ","MAREA":" ","LANE":"３７２巷","ALLEY":"１６５弄","HOUSE_NO":"１４號","E_COORD97":164557.03,"N_COORD97":2544165.9700000002,"ADDRESS":"育平九街３７２巷１６５弄１４號","OBJECTID":93411},"geometry":{"x":164557.03000000119,"y":2544165.9700000007}},{"attributes":{"ID":93412,"DIS_CODE":0,"TOWNNAME":"安平區","LI":"平通里","LIN":"21鄰","STREET":"育平九街","SECT":" ","MAREA":" ","LANE":"３７２巷","ALLEY":"１６５弄","HOUSE_NO":"１５號","E_COORD97":164552,"N_COORD97":2544134.4500000002,"ADDRESS":"育平九街３７２巷１６５弄１５號","OBJECTID":93412},"geometry":{"x":164552.00000000093,"y":2544134.4499999993}},{"attributes":{"ID":93413,"DIS_CODE":0,"TOWNNAME":"永康區","LI":"西勢里","LIN":"21鄰","STREET":"富強路","SECT":"一段","MAREA":" ","LANE":"９８巷","ALLEY":"３４弄","HOUSE_NO":"８號","E_COORD97":175541.23999999999,"N_COORD97":2546092.8700000001,"ADDRESS":"富強路一段９８巷３４弄８號","OBJECTID":93413},"geometry":{"x":175541.24000000022,"y":2546092.870000001}},{"attributes":{"ID":93414,"DIS_CODE":0,"TOWNNAME":"東山區","LI":"聖賢里","LIN":"15鄰","STREET":" ","SECT":" ","MAREA":"頂窩","LANE":" ","ALLEY":" ","HOUSE_NO":"１１號","E_COORD97":183359.64000000001,"N_COORD97":2578547.4199999999,"ADDRESS":"頂窩１１號","OBJECTID":93414},"geometry":{"x":183359.63999999966,"y":2578547.4199999999}},{"attributes":{"ID":93415,"DIS_CODE":0,"TOWNNAME":"東山區","LI":"聖賢里","LIN":"15鄰","STREET":" ","SECT":" ","MAREA":"頂窩","LANE":" ","ALLEY":" ","HOUSE_NO":"１號之１","E_COORD97":183411.17000000001,"N_COORD97":2578564.8500000001,"ADDRESS":"頂窩１號之１","OBJECTID":93415},"geometry":{"x":183411.17000000179,"y":2578564.8499999996}},{"attributes":{"ID":93416,"DIS_CODE":0,"TOWNNAME":"東山區","LI":"聖賢里","LIN":"15鄰","STREET":" ","SECT":" ","MAREA":"頂窩","LANE":" ","ALLEY":" ","HOUSE_NO":"１號之３","E_COORD97":183582.23000000001,"N_COORD97":2578536.3599999999,"ADDRESS":"頂窩１號之３","OBJECTID":93416},"geometry":{"x":183582.23000000045,"y":2578536.3600000013}},{"attributes":{"ID":93417,"DIS_CODE":0,"TOWNNAME":"安平區","LI":"平通里","LIN":"21鄰","STREET":"育平九街","SECT":" ","MAREA":" ","LANE":"３７２巷","ALLEY":"１６５弄","HOUSE_NO":"１６號","E_COORD97":164530.75,"N_COORD97":2544164.5,"ADDRESS":"育平九街３７２巷１６５弄１６號","OBJECTID":93417},"geometry":{"x":164530.75,"y":2544164.5000000019}},{"attributes":{"ID":93418,"DIS_CODE":0,"TOWNNAME":"東山區","LI":"聖賢里","LIN":"15鄰","STREET":" ","SECT":" ","MAREA":"頂窩","LANE":" ","ALLEY":" ","HOUSE_NO":"１號之４","E_COORD97":183443.01000000001,"N_COORD97":2578557.8500000001,"ADDRESS":"頂窩１號之４","OBJECTID":93418},"geometry":{"x":183443.01000000071,"y":2578557.8499999996}},{"attributes":{"ID":93419,"DIS_CODE":0,"TOWNNAME":"東山區","LI":"聖賢里","LIN":"15鄰","STREET":" ","SECT":" ","MAREA":"頂窩","LANE":" ","ALLEY":" ","HOUSE_NO":"１號之６","E_COORD97":184015.20000000001,"N_COORD97":2578630.6699999999,"ADDRESS":"頂窩１號之６","OBJECTID":93419},"geometry":{"x":184015.20000000112,"y":2578630.6699999999}},{"attributes":{"ID":93420,"DIS_CODE":0,"TOWNNAME":"東山區","LI":"聖賢里","LIN":"15鄰","STREET":" ","SECT":" ","MAREA":"頂窩","LANE":" ","ALLEY":" ","HOUSE_NO":"１號之７","E_COORD97":183673.51999999999,"N_COORD97":2578477.8100000001,"ADDRESS":"頂窩１號之７","OBJECTID":93420},"geometry":{"x":183673.52000000048,"y":2578477.8100000005}},{"attributes":{"ID":93421,"DIS_CODE":0,"TOWNNAME":"東山區","LI":"聖賢里","LIN":"15鄰","STREET":" ","SECT":" ","MAREA":"頂窩","LANE":" ","ALLEY":" ","HOUSE_NO":"２號之１","E_COORD97":183410.89000000001,"N_COORD97":2578505.54,"ADDRESS":"頂窩２號之１","OBJECTID":93421},"geometry":{"x":183410.88999999966,"y":2578505.5399999991}},{"attributes":{"ID":93422,"DIS_CODE":0,"TOWNNAME":"新營區","LI":"南紙里","LIN":"21鄰","STREET":"建業路","SECT":" ","MAREA":" ","LANE":"２２７巷","ALLEY":"１６弄","HOUSE_NO":"３２號","E_COORD97":178044.82000000001,"N_COORD97":2577431.4399999999,"ADDRESS":"建業路２２７巷１６弄３２號","OBJECTID":93422},"geometry":{"x":178044.8200000003,"y":2577431.4399999995}},{"attributes":{"ID":93423,"DIS_CODE":0,"TOWNNAME":"北區","LI":"正覺里","LIN":"21鄰","STREET":"正覺街","SECT":" ","MAREA":" ","LANE":"１０２巷","ALLEY":"４０弄","HOUSE_NO":"６８號","E_COORD97":169455.92000000001,"N_COORD97":2546433.98,"ADDRESS":"正覺街１０２巷４０弄６８號","OBJECTID":93423},"geometry":{"x":169455.91999999993,"y":2546433.9800000004}},{"attributes":{"ID":93424,"DIS_CODE":0,"TOWNNAME":"北區","LI":"正覺里","LIN":"21鄰","STREET":"正覺街","SECT":" ","MAREA":" ","LANE":"１０２巷","ALLEY":"４０弄","HOUSE_NO":"６號","E_COORD97":169458.42999999999,"N_COORD97":2546456.7000000002,"ADDRESS":"正覺街１０２巷４０弄６號","OBJECTID":93424},"geometry":{"x":169458.43000000063,"y":2546456.7000000011}},{"attributes":{"ID":93425,"DIS_CODE":0,"TOWNNAME":"北區","LI":"正覺里","LIN":"21鄰","STREET":"正覺街","SECT":" ","MAREA":" ","LANE":"１０２巷","ALLEY":"４０弄","HOUSE_NO":"７０號","E_COORD97":169451.57000000001,"N_COORD97":2546435.27,"ADDRESS":"正覺街１０２巷４０弄７０號","OBJECTID":93425},"geometry":{"x":169451.5700000003,"y":2546435.2699999996}},{"attributes":{"ID":93426,"DIS_CODE":0,"TOWNNAME":"七股區","LI":"大埕里","LIN":"10鄰","STREET":" ","SECT":" ","MAREA":"大埕","LANE":" ","ALLEY":" ","HOUSE_NO":"２８０號之９","E_COORD97":162686.78,"N_COORD97":2560828.7999999998,"ADDRESS":"大埕２８０號之９","OBJECTID":93426},"geometry":{"x":162686.78000000026,"y":2560828.8000000007}},{"attributes":{"ID":93427,"DIS_CODE":0,"TOWNNAME":"北區","LI":"正覺里","LIN":"21鄰","STREET":"正覺街","SECT":" ","MAREA":" ","LANE":"１０２巷","ALLEY":"４０弄","HOUSE_NO":"７２號","E_COORD97":169447.38,"N_COORD97":2546436.2400000002,"ADDRESS":"正覺街１０２巷４０弄７２號","OBJECTID":93427},"geometry":{"x":169447.37999999989,"y":2546436.2400000002}},{"attributes":{"ID":93428,"DIS_CODE":0,"TOWNNAME":"東山區","LI":"聖賢里","LIN":"15鄰","STREET":" ","SECT":" ","MAREA":"頂窩","LANE":" ","ALLEY":" ","HOUSE_NO":"２號之２","E_COORD97":183453.48000000001,"N_COORD97":2578506.6600000001,"ADDRESS":"頂窩２號之２","OBJECTID":93428},"geometry":{"x":183453.48000000045,"y":2578506.6599999983}},{"attributes":{"ID":93429,"DIS_CODE":0,"TOWNNAME":"東山區","LI":"聖賢里","LIN":"15鄰","STREET":" ","SECT":" ","MAREA":"頂窩","LANE":" ","ALLEY":" ","HOUSE_NO":"２號之３","E_COORD97":183446.17000000001,"N_COORD97":2578509.46,"ADDRESS":"頂窩２號之３","OBJECTID":93429},"geometry":{"x":183446.16999999993,"y":2578509.4600000028}},{"attributes":{"ID":93430,"DIS_CODE":0,"TOWNNAME":"北區","LI":"正覺里","LIN":"21鄰","STREET":"正覺街","SECT":" ","MAREA":" ","LANE":"１０２巷","ALLEY":"４０弄","HOUSE_NO":"７４號","E_COORD97":169443.60000000001,"N_COORD97":2546437.1200000001,"ADDRESS":"正覺街１０２巷４０弄７４號","OBJECTID":93430},"geometry":{"x":169443.60000000056,"y":2546437.120000001}},{"attributes":{"ID":93431,"DIS_CODE":0,"TOWNNAME":"新營區","LI":"三仙里","LIN":"15鄰","STREET":"武昌街","SECT":" ","MAREA":" ","LANE":" ","ALLEY":" ","HOUSE_NO":"５８號","E_COORD97":179628.44,"N_COORD97":2578333.0499999998,"ADDRESS":"武昌街５８號","OBJECTID":93431},"geometry":{"x":179628.44000000134,"y":2578333.0500000026}},{"attributes":{"ID":93432,"DIS_CODE":0,"TOWNNAME":"東山區","LI":"聖賢里","LIN":"15鄰","STREET":" ","SECT":" ","MAREA":"頂窩","LANE":" ","ALLEY":" ","HOUSE_NO":"２號之４","E_COORD97":183424.57000000001,"N_COORD97":2578533.5,"ADDRESS":"頂窩２號之４","OBJECTID":93432},"geometry":{"x":183424.57000000123,"y":2578533.5}},{"attributes":{"ID":93433,"DIS_CODE":0,"TOWNNAME":"新營區","LI":"三仙里","LIN":"15鄰","STREET":"武昌街","SECT":" ","MAREA":" ","LANE":" ","ALLEY":" ","HOUSE_NO":"５８之２號","E_COORD97":179626.89000000001,"N_COORD97":2578341.98,"ADDRESS":"武昌街５８之２號","OBJECTID":93433},"geometry":{"x":179626.88999999966,"y":2578341.9800000004}},{"attributes":{"ID":93434,"DIS_CODE":0,"TOWNNAME":"東山區","LI":"聖賢里","LIN":"15鄰","STREET":" ","SECT":" ","MAREA":"頂窩","LANE":" ","ALLEY":" ","HOUSE_NO":"２號之５","E_COORD97":183415.97,"N_COORD97":2578532.0299999998,"ADDRESS":"頂窩２號之５","OBJECTID":93434},"geometry":{"x":183415.97000000067,"y":2578532.0300000012}},{"attributes":{"ID":93435,"DIS_CODE":0,"TOWNNAME":"七股區","LI":"三股里","LIN":"10鄰","STREET":" ","SECT":" ","MAREA":"三股","LANE":" ","ALLEY":" ","HOUSE_NO":"１１１號之１","E_COORD97":157883.32999999999,"N_COORD97":2555696.96,"ADDRESS":"三股１１１號之１","OBJECTID":93435},"geometry":{"x":157883.33000000007,"y":2555696.9600000009}},{"attributes":{"ID":93436,"DIS_CODE":0,"TOWNNAME":"七股區","LI":"三股里","LIN":"10鄰","STREET":" ","SECT":" ","MAREA":"三股","LANE":" ","ALLEY":" ","HOUSE_NO":"１１１號之２","E_COORD97":158007.38,"N_COORD97":2555704.1400000001,"ADDRESS":"三股１１１號之２","OBJECTID":93436},"geometry":{"x":158007.38000000175,"y":2555704.1400000025}},{"attributes":{"ID":93437,"DIS_CODE":0,"TOWNNAME":"七股區","LI":"三股里","LIN":"10鄰","STREET":" ","SECT":" ","MAREA":"三股","LANE":" ","ALLEY":" ","HOUSE_NO":"１１１號","E_COORD97":157861.12,"N_COORD97":2555691.6600000001,"ADDRESS":"三股１１１號","OBJECTID":93437},"geometry":{"x":157861.12000000011,"y":2555691.6600000001}},{"attributes":{"ID":93438,"DIS_CODE":0,"TOWNNAME":"七股區","LI":"三股里","LIN":"10鄰","STREET":" ","SECT":" ","MAREA":"三股","LANE":" ","ALLEY":" ","HOUSE_NO":"１１２號之１","E_COORD97":157756.56,"N_COORD97":2555671.98,"ADDRESS":"三股１１２號之１","OBJECTID":93438},"geometry":{"x":157756.56000000145,"y":2555671.9800000023}},{"attributes":{"ID":93439,"DIS_CODE":0,"TOWNNAME":"七股區","LI":"三股里","LIN":"10鄰","STREET":" ","SECT":" ","MAREA":"三股","LANE":" ","ALLEY":" ","HOUSE_NO":"１１２號之２","E_COORD97":157736.39000000001,"N_COORD97":2555669.77,"ADDRESS":"三股１１２號之２","OBJECTID":93439},"geometry":{"x":157736.3900000006,"y":2555669.7699999996}},{"attributes":{"ID":93440,"DIS_CODE":0,"TOWNNAME":"七股區","LI":"三股里","LIN":"10鄰","STREET":" ","SECT":" ","MAREA":"三股","LANE":" ","ALLEY":" ","HOUSE_NO":"１１２號","E_COORD97":157837.39999999999,"N_COORD97":2555691.3199999998,"ADDRESS":"三股１１２號","OBJECTID":93440},"geometry":{"x":157837.40000000037,"y":2555691.3200000003}},{"attributes":{"ID":93441,"DIS_CODE":0,"TOWNNAME":"七股區","LI":"三股里","LIN":"10鄰","STREET":" ","SECT":" ","MAREA":"三股","LANE":" ","ALLEY":" ","HOUSE_NO":"１１３號","E_COORD97":159065.67000000001,"N_COORD97":2555895.0899999999,"ADDRESS":"三股１１３號","OBJECTID":93441},"geometry":{"x":159065.67000000086,"y":2555895.0899999999}},{"attributes":{"ID":93442,"DIS_CODE":0,"TOWNNAME":"七股區","LI":"三股里","LIN":"10鄰","STREET":" ","SECT":" ","MAREA":"三股","LANE":" ","ALLEY":" ","HOUSE_NO":"１１５號","E_COORD97":157133.12,"N_COORD97":2555844.6800000002,"ADDRESS":"三股１１５號","OBJECTID":93442},"geometry":{"x":157133.12000000104,"y":2555844.6799999997}},{"attributes":{"ID":93443,"DIS_CODE":0,"TOWNNAME":"七股區","LI":"三股里","LIN":"10鄰","STREET":" ","SECT":" ","MAREA":"三股","LANE":" ","ALLEY":" ","HOUSE_NO":"１１８號之１","E_COORD97":156526.20000000001,"N_COORD97":2555965.0600000001,"ADDRESS":"三股１１８號之１","OBJECTID":93443},"geometry":{"x":156526.20000000112,"y":2555965.0599999987}},{"attributes":{"ID":93444,"DIS_CODE":0,"TOWNNAME":"北區","LI":"正覺里","LIN":"21鄰","STREET":"正覺街","SECT":" ","MAREA":" ","LANE":"１０２巷","ALLEY":"４０弄","HOUSE_NO":"７６號","E_COORD97":169439.48999999999,"N_COORD97":2546438.3300000001,"ADDRESS":"正覺街１０２巷４０弄７６號","OBJECTID":93444},"geometry":{"x":169439.49000000115,"y":2546438.3300000001}},{"attributes":{"ID":93445,"DIS_CODE":0,"TOWNNAME":"北區","LI":"正覺里","LIN":"21鄰","STREET":"正覺街","SECT":" ","MAREA":" ","LANE":"１０２巷","ALLEY":"４０弄","HOUSE_NO":"７８號","E_COORD97":169435.45000000001,"N_COORD97":2546439.6299999999,"ADDRESS":"正覺街１０２巷４０弄７８號","OBJECTID":93445},"geometry":{"x":169435.45000000019,"y":2546439.6300000027}},{"attributes":{"ID":93446,"DIS_CODE":0,"TOWNNAME":"七股區","LI":"三股里","LIN":"10鄰","STREET":" ","SECT":" ","MAREA":"三股","LANE":" ","ALLEY":" ","HOUSE_NO":"１１８號之２","E_COORD97":156639.16,"N_COORD97":2556105.8900000001,"ADDRESS":"三股１１８號之２","OBJECTID":93446},"geometry":{"x":156639.16000000015,"y":2556105.8900000025}},{"attributes":{"ID":93447,"DIS_CODE":0,"TOWNNAME":"七股區","LI":"三股里","LIN":"10鄰","STREET":" ","SECT":" ","MAREA":"三股","LANE":" ","ALLEY":" ","HOUSE_NO":"１１８號","E_COORD97":156564.25,"N_COORD97":2555967.9199999999,"ADDRESS":"三股１１８號","OBJECTID":93447},"geometry":{"x":156564.25000000093,"y":2555967.9199999999}},{"attributes":{"ID":93448,"DIS_CODE":0,"TOWNNAME":"七股區","LI":"三股里","LIN":"10鄰","STREET":" ","SECT":" ","MAREA":"三股","LANE":" ","ALLEY":" ","HOUSE_NO":"１１９號","E_COORD97":156475.70000000001,"N_COORD97":2555963.8199999998,"ADDRESS":"三股１１９號","OBJECTID":93448},"geometry":{"x":156475.70000000019,"y":2555963.8200000022}},{"attributes":{"ID":93449,"DIS_CODE":0,"TOWNNAME":"北區","LI":"正覺里","LIN":"21鄰","STREET":"正覺街","SECT":" ","MAREA":" ","LANE":"１０２巷","ALLEY":"４０弄","HOUSE_NO":"８０號","E_COORD97":169431.34,"N_COORD97":2546441.1499999999,"ADDRESS":"正覺街１０２巷４０弄８０號","OBJECTID":93449},"geometry":{"x":169431.34000000171,"y":2546441.1500000041}},{"attributes":{"ID":93450,"DIS_CODE":0,"TOWNNAME":"七股區","LI":"三股里","LIN":"10鄰","STREET":" ","SECT":" ","MAREA":"三股","LANE":" ","ALLEY":" ","HOUSE_NO":"１２０號","E_COORD97":155683.59,"N_COORD97":2556118.8799999999,"ADDRESS":"三股１２０號","OBJECTID":93450},"geometry":{"x":155683.59000000078,"y":2556118.8800000008}},{"attributes":{"ID":93451,"DIS_CODE":0,"TOWNNAME":"北區","LI":"正覺里","LIN":"21鄰","STREET":"正覺街","SECT":" ","MAREA":" ","LANE":"１０２巷","ALLEY":"４０弄","HOUSE_NO":"８２號","E_COORD97":169426.75,"N_COORD97":2546441.5600000001,"ADDRESS":"正覺街１０２巷４０弄８２號","OBJECTID":93451},"geometry":{"x":169426.75,"y":2546441.5599999987}},{"attributes":{"ID":93452,"DIS_CODE":0,"TOWNNAME":"北區","LI":"正覺里","LIN":"21鄰","STREET":"正覺街","SECT":" ","MAREA":" ","LANE":"１０２巷","ALLEY":"４０弄","HOUSE_NO":"８４號","E_COORD97":169422.39999999999,"N_COORD97":2546442.7599999998,"ADDRESS":"正覺街１０２巷４０弄８４號","OBJECTID":93452},"geometry":{"x":169422.40000000037,"y":2546442.7599999979}},{"attributes":{"ID":93453,"DIS_CODE":0,"TOWNNAME":"七股區","LI":"三股里","LIN":"10鄰","STREET":" ","SECT":" ","MAREA":"三股","LANE":" ","ALLEY":" ","HOUSE_NO":"１２１號","E_COORD97":156475.92000000001,"N_COORD97":2556321.7200000002,"ADDRESS":"三股１２１號","OBJECTID":93453},"geometry":{"x":156475.91999999993,"y":2556321.7200000025}},{"attributes":{"ID":93454,"DIS_CODE":0,"TOWNNAME":"七股區","LI":"三股里","LIN":"10鄰","STREET":" ","SECT":" ","MAREA":"三股","LANE":" ","ALLEY":" ","HOUSE_NO":"１２３號之５","E_COORD97":156593.85000000001,"N_COORD97":2556879.1699999999,"ADDRESS":"三股１２３號之５","OBJECTID":93454},"geometry":{"x":156593.85000000056,"y":2556879.1699999981}},{"attributes":{"ID":93455,"DIS_CODE":0,"TOWNNAME":"七股區","LI":"三股里","LIN":"10鄰","STREET":" ","SECT":" ","MAREA":"三股","LANE":" ","ALLEY":" ","HOUSE_NO":"１２３號","E_COORD97":156514.47,"N_COORD97":2556809.1699999999,"ADDRESS":"三股１２３號","OBJECTID":93455},"geometry":{"x":156514.46999999974,"y":2556809.1700000018}},{"attributes":{"ID":93456,"DIS_CODE":0,"TOWNNAME":"歸仁區","LI":"歸南里","LIN":"21鄰","STREET":"民生八街","SECT":" ","MAREA":" ","LANE":"２８巷","ALLEY":"１９弄","HOUSE_NO":"４７號","E_COORD97":176001.10999999999,"N_COORD97":2540416.25,"ADDRESS":"民生八街２８巷１９弄４７號","OBJECTID":93456},"geometry":{"x":176001.11000000127,"y":2540416.2500000019}},{"attributes":{"ID":93457,"DIS_CODE":0,"TOWNNAME":"七股區","LI":"三股里","LIN":"10鄰","STREET":" ","SECT":" ","MAREA":"三股","LANE":" ","ALLEY":" ","HOUSE_NO":"１２４號之２","E_COORD97":155651.51999999999,"N_COORD97":2557251.8999999999,"ADDRESS":"三股１２４號之２","OBJECTID":93457},"geometry":{"x":155651.52000000048,"y":2557251.9000000022}},{"attributes":{"ID":93458,"DIS_CODE":0,"TOWNNAME":"歸仁區","LI":"歸南里","LIN":"21鄰","STREET":"民生八街","SECT":" ","MAREA":" ","LANE":"２８巷","ALLEY":"１９弄","HOUSE_NO":"２９號","E_COORD97":176038.01000000001,"N_COORD97":2540415.25,"ADDRESS":"民生八街２８巷１９弄２９號","OBJECTID":93458},"geometry":{"x":176038.01000000164,"y":2540415.2500000037}},{"attributes":{"ID":93459,"DIS_CODE":0,"TOWNNAME":"七股區","LI":"三股里","LIN":"10鄰","STREET":" ","SECT":" ","MAREA":"三股","LANE":" ","ALLEY":" ","HOUSE_NO":"１２９號之１","E_COORD97":158379.31,"N_COORD97":2556734.02,"ADDRESS":"三股１２９號之１","OBJECTID":93459},"geometry":{"x":158379.31000000052,"y":2556734.0199999977}},{"attributes":{"ID":93460,"DIS_CODE":0,"TOWNNAME":"新市區","LI":"大社里","LIN":"1鄰","STREET":" ","SECT":" ","MAREA":"大社","LANE":" ","ALLEY":" ","HOUSE_NO":"１１號","E_COORD97":180302.06,"N_COORD97":2553713,"ADDRESS":"大社１１號","OBJECTID":93460},"geometry":{"x":180302.05999999959,"y":2553713}},{"attributes":{"ID":93461,"DIS_CODE":0,"TOWNNAME":"七股區","LI":"大埕里","LIN":"10鄰","STREET":" ","SECT":" ","MAREA":"大埕","LANE":" ","ALLEY":" ","HOUSE_NO":"２８３號之１","E_COORD97":162465.26999999999,"N_COORD97":2560598.2799999998,"ADDRESS":"大埕２８３號之１","OBJECTID":93461},"geometry":{"x":162465.26999999955,"y":2560598.2800000012}},{"attributes":{"ID":93462,"DIS_CODE":0,"TOWNNAME":"七股區","LI":"大埕里","LIN":"10鄰","STREET":" ","SECT":" ","MAREA":"大埕","LANE":" ","ALLEY":" ","HOUSE_NO":"２８３號","E_COORD97":162437.98999999999,"N_COORD97":2560621.0699999998,"ADDRESS":"大埕２８３號","OBJECTID":93462},"geometry":{"x":162437.98999999929,"y":2560621.0700000022}},{"attributes":{"ID":93463,"DIS_CODE":0,"TOWNNAME":"七股區","LI":"大埕里","LIN":"10鄰","STREET":" ","SECT":" ","MAREA":"大埕","LANE":" ","ALLEY":" ","HOUSE_NO":"２８５號","E_COORD97":162364.01999999999,"N_COORD97":2560555.1699999999,"ADDRESS":"大埕２８５號","OBJECTID":93463},"geometry":{"x":162364.01999999955,"y":2560555.1700000018}},{"attributes":{"ID":93464,"DIS_CODE":0,"TOWNNAME":"七股區","LI":"大埕里","LIN":"10鄰","STREET":" ","SECT":" ","MAREA":"大埕","LANE":" ","ALLEY":" ","HOUSE_NO":"２８６號","E_COORD97":162354.81,"N_COORD97":2560547.1000000001,"ADDRESS":"大埕２８６號","OBJECTID":93464},"geometry":{"x":162354.80999999959,"y":2560547.0999999996}},{"attributes":{"ID":93465,"DIS_CODE":0,"TOWNNAME":"七股區","LI":"大埕里","LIN":"10鄰","STREET":" ","SECT":" ","MAREA":"大埕","LANE":" ","ALLEY":" ","HOUSE_NO":"２８７號","E_COORD97":162347.17999999999,"N_COORD97":2560531.3399999999,"ADDRESS":"大埕２８７號","OBJECTID":93465},"geometry":{"x":162347.18000000063,"y":2560531.3399999999}},{"attributes":{"ID":93466,"DIS_CODE":0,"TOWNNAME":"七股區","LI":"大埕里","LIN":"10鄰","STREET":" ","SECT":" ","MAREA":"大埕","LANE":" ","ALLEY":" ","HOUSE_NO":"２８８號","E_COORD97":162323.51000000001,"N_COORD97":2560519.02,"ADDRESS":"大埕２８８號","OBJECTID":93466},"geometry":{"x":162323.50999999978,"y":2560519.0200000014}},{"attributes":{"ID":93467,"DIS_CODE":0,"TOWNNAME":"七股區","LI":"大埕里","LIN":"10鄰","STREET":" ","SECT":" ","MAREA":"大埕","LANE":" ","ALLEY":" ","HOUSE_NO":"２８９號","E_COORD97":162323.57999999999,"N_COORD97":2560513.77,"ADDRESS":"大埕２８９號","OBJECTID":93467},"geometry":{"x":162323.58000000007,"y":2560513.7700000014}},{"attributes":{"ID":93468,"DIS_CODE":0,"TOWNNAME":"七股區","LI":"大寮里","LIN":"10鄰","STREET":" ","SECT":" ","MAREA":"大寮","LANE":" ","ALLEY":" ","HOUSE_NO":"１０５號之１","E_COORD97":163353.51999999999,"N_COORD97":2560764.5899999999,"ADDRESS":"大寮１０５號之１","OBJECTID":93468},"geometry":{"x":163353.51999999955,"y":2560764.5899999999}},{"attributes":{"ID":93469,"DIS_CODE":0,"TOWNNAME":"七股區","LI":"大寮里","LIN":"10鄰","STREET":" ","SECT":" ","MAREA":"大寮","LANE":" ","ALLEY":" ","HOUSE_NO":"１０５號","E_COORD97":163362.12,"N_COORD97":2560756.9300000002,"ADDRESS":"大寮１０５號","OBJECTID":93469},"geometry":{"x":163362.12000000011,"y":2560756.9300000016}},{"attributes":{"ID":93470,"DIS_CODE":0,"TOWNNAME":"七股區","LI":"大寮里","LIN":"10鄰","STREET":" ","SECT":" ","MAREA":"大寮","LANE":" ","ALLEY":" ","HOUSE_NO":"１０６號","E_COORD97":163345.29000000001,"N_COORD97":2560776.1400000001,"ADDRESS":"大寮１０６號","OBJECTID":93470},"geometry":{"x":163345.29000000097,"y":2560776.1400000025}},{"attributes":{"ID":93471,"DIS_CODE":0,"TOWNNAME":"歸仁區","LI":"歸南里","LIN":"21鄰","STREET":"民生八街","SECT":" ","MAREA":" ","LANE":"２８巷","ALLEY":"１９弄","HOUSE_NO":"３５號","E_COORD97":176025.70999999999,"N_COORD97":2540416.25,"ADDRESS":"民生八街２８巷１９弄３５號","OBJECTID":93471},"geometry":{"x":176025.71000000089,"y":2540416.2500000019}},{"attributes":{"ID":93472,"DIS_CODE":0,"TOWNNAME":"北區","LI":"大豐里","LIN":"21鄰","STREET":"大興街","SECT":" ","MAREA":" ","LANE":"２３３巷","ALLEY":"４６弄","HOUSE_NO":"６２之１號","E_COORD97":166718.01000000001,"N_COORD97":2545517.98,"ADDRESS":"大興街２３３巷４６弄６２之１號","OBJECTID":93472},"geometry":{"x":166718.01000000071,"y":2545517.9800000023}},{"attributes":{"ID":93473,"DIS_CODE":0,"TOWNNAME":"七股區","LI":"大寮里","LIN":"10鄰","STREET":" ","SECT":" ","MAREA":"大寮","LANE":" ","ALLEY":" ","HOUSE_NO":"１０７號之１","E_COORD97":163330.89999999999,"N_COORD97":2560785.48,"ADDRESS":"大寮１０７號之１","OBJECTID":93473},"geometry":{"x":163330.9000000013,"y":2560785.4800000004}},{"attributes":{"ID":93474,"DIS_CODE":0,"TOWNNAME":"七股區","LI":"大寮里","LIN":"10鄰","STREET":" ","SECT":" ","MAREA":"大寮","LANE":" ","ALLEY":" ","HOUSE_NO":"１０７號之２","E_COORD97":163334.76000000001,"N_COORD97":2560782.0800000001,"ADDRESS":"大寮１０７號之２","OBJECTID":93474},"geometry":{"x":163334.76000000071,"y":2560782.0800000001}},{"attributes":{"ID":93475,"DIS_CODE":0,"TOWNNAME":"七股區","LI":"大寮里","LIN":"10鄰","STREET":" ","SECT":" ","MAREA":"大寮","LANE":" ","ALLEY":" ","HOUSE_NO":"１０７號","E_COORD97":163327.98999999999,"N_COORD97":2560789.3900000001,"ADDRESS":"大寮１０７號","OBJECTID":93475},"geometry":{"x":163327.98999999929,"y":2560789.3900000006}},{"attributes":{"ID":93476,"DIS_CODE":0,"TOWNNAME":"七股區","LI":"大寮里","LIN":"10鄰","STREET":" ","SECT":" ","MAREA":"大寮","LANE":" ","ALLEY":" ","HOUSE_NO":"１０８號","E_COORD97":163313.84,"N_COORD97":2560809.9399999999,"ADDRESS":"大寮１０８號","OBJECTID":93476},"geometry":{"x":163313.84000000078,"y":2560809.9400000032}},{"attributes":{"ID":93477,"DIS_CODE":0,"TOWNNAME":"七股區","LI":"大寮里","LIN":"10鄰","STREET":" ","SECT":" ","MAREA":"大寮","LANE":" ","ALLEY":" ","HOUSE_NO":"９２號之１","E_COORD97":163371.59,"N_COORD97":2560821.2799999998,"ADDRESS":"大寮９２號之１","OBJECTID":93477},"geometry":{"x":163371.59000000078,"y":2560821.2800000012}},{"attributes":{"ID":93478,"DIS_CODE":0,"TOWNNAME":"七股區","LI":"大寮里","LIN":"10鄰","STREET":" ","SECT":" ","MAREA":"大寮","LANE":" ","ALLEY":" ","HOUSE_NO":"９３號","E_COORD97":163378.10000000001,"N_COORD97":2560788.2400000002,"ADDRESS":"大寮９３號","OBJECTID":93478},"geometry":{"x":163378.10000000056,"y":2560788.2400000039}},{"attributes":{"ID":93479,"DIS_CODE":0,"TOWNNAME":"七股區","LI":"大寮里","LIN":"10鄰","STREET":" ","SECT":" ","MAREA":"大寮","LANE":" ","ALLEY":" ","HOUSE_NO":"９４號之１","E_COORD97":163420.29999999999,"N_COORD97":2560747.1099999999,"ADDRESS":"大寮９４號之１","OBJECTID":93479},"geometry":{"x":163420.29999999981,"y":2560747.1099999994}},{"attributes":{"ID":93480,"DIS_CODE":0,"TOWNNAME":"七股區","LI":"大寮里","LIN":"10鄰","STREET":" ","SECT":" ","MAREA":"大寮","LANE":" ","ALLEY":" ","HOUSE_NO":"９４號之２","E_COORD97":163412.29999999999,"N_COORD97":2560731.0600000001,"ADDRESS":"大寮９４號之２","OBJECTID":93480},"geometry":{"x":163412.30000000075,"y":2560731.0600000005}},{"attributes":{"ID":93481,"DIS_CODE":0,"TOWNNAME":"七股區","LI":"大寮里","LIN":"10鄰","STREET":" ","SECT":" ","MAREA":"大寮","LANE":" ","ALLEY":" ","HOUSE_NO":"９４號之３","E_COORD97":163399.45000000001,"N_COORD97":2560746.21,"ADDRESS":"大寮９４號之３","OBJECTID":93481},"geometry":{"x":163399.45000000205,"y":2560746.2100000028}},{"attributes":{"ID":93482,"DIS_CODE":0,"TOWNNAME":"北區","LI":"大豐里","LIN":"21鄰","STREET":"大興街","SECT":" ","MAREA":" ","LANE":"２８５巷","ALLEY":"２６弄","HOUSE_NO":"１０號","E_COORD97":166663.57000000001,"N_COORD97":2545605.96,"ADDRESS":"大興街２８５巷２６弄１０號","OBJECTID":93482},"geometry":{"x":166663.5700000003,"y":2545605.9600000028}},{"attributes":{"ID":93483,"DIS_CODE":0,"TOWNNAME":"七股區","LI":"大寮里","LIN":"10鄰","STREET":" ","SECT":" ","MAREA":"大寮","LANE":" ","ALLEY":" ","HOUSE_NO":"９４號","E_COORD97":163413.48999999999,"N_COORD97":2560759.21,"ADDRESS":"大寮９４號","OBJECTID":93483},"geometry":{"x":163413.49000000115,"y":2560759.2100000028}},{"attributes":{"ID":93484,"DIS_CODE":0,"TOWNNAME":"七股區","LI":"大寮里","LIN":"10鄰","STREET":" ","SECT":" ","MAREA":"大寮","LANE":" ","ALLEY":" ","HOUSE_NO":"９５號","E_COORD97":163406.47,"N_COORD97":2560702.5499999998,"ADDRESS":"大寮９５號","OBJECTID":93484},"geometry":{"x":163406.47000000067,"y":2560702.5500000026}},{"attributes":{"ID":93485,"DIS_CODE":0,"TOWNNAME":"七股區","LI":"大寮里","LIN":"10鄰","STREET":" ","SECT":" ","MAREA":"大寮","LANE":" ","ALLEY":" ","HOUSE_NO":"９６號","E_COORD97":163390.32000000001,"N_COORD97":2560726.1699999999,"ADDRESS":"大寮９６號","OBJECTID":93485},"geometry":{"x":163390.32000000216,"y":2560726.1699999999}},{"attributes":{"ID":93486,"DIS_CODE":0,"TOWNNAME":"七股區","LI":"大寮里","LIN":"10鄰","STREET":" ","SECT":" ","MAREA":"大寮","LANE":" ","ALLEY":" ","HOUSE_NO":"９７號","E_COORD97":163373.26999999999,"N_COORD97":2560730.1200000001,"ADDRESS":"大寮９７號","OBJECTID":93486},"geometry":{"x":163373.27000000048,"y":2560730.1200000029}},{"attributes":{"ID":93487,"DIS_CODE":0,"TOWNNAME":"新營區","LI":"土庫里","LIN":"1鄰","STREET":" ","SECT":" ","MAREA":"土庫","LANE":" ","ALLEY":" ","HOUSE_NO":"３號","E_COORD97":183064.5,"N_COORD97":2580005.98,"ADDRESS":"土庫３號","OBJECTID":93487},"geometry":{"x":183064.5,"y":2580005.9800000004}},{"attributes":{"ID":93488,"DIS_CODE":0,"TOWNNAME":"七股區","LI":"大埕里","LIN":"10鄰","STREET":" ","SECT":" ","MAREA":"大埕","LANE":" ","ALLEY":" ","HOUSE_NO":"２８４號之１","E_COORD97":162460.70999999999,"N_COORD97":2560581.9500000002,"ADDRESS":"大埕２８４號之１","OBJECTID":93488},"geometry":{"x":162460.71000000089,"y":2560581.9499999993}},{"attributes":{"ID":93489,"DIS_CODE":0,"TOWNNAME":"七股區","LI":"大埕里","LIN":"10鄰","STREET":" ","SECT":" ","MAREA":"大埕","LANE":" ","ALLEY":" ","HOUSE_NO":"３２２號之１０","E_COORD97":162071.35999999999,"N_COORD97":2560260.8100000001,"ADDRESS":"大埕３２２號之１０","OBJECTID":93489},"geometry":{"x":162071.3600000022,"y":2560260.8100000024}},{"attributes":{"ID":93490,"DIS_CODE":0,"TOWNNAME":"七股區","LI":"大埕里","LIN":"10鄰","STREET":" ","SECT":" ","MAREA":"大埕","LANE":" ","ALLEY":" ","HOUSE_NO":"３２２號之１１","E_COORD97":162067.25,"N_COORD97":2560260.7599999998,"ADDRESS":"大埕３２２號之１１","OBJECTID":93490},"geometry":{"x":162067.25000000093,"y":2560260.7599999998}},{"attributes":{"ID":93491,"DIS_CODE":0,"TOWNNAME":"七股區","LI":"大埕里","LIN":"10鄰","STREET":" ","SECT":" ","MAREA":"大埕","LANE":" ","ALLEY":" ","HOUSE_NO":"３２２號之１２","E_COORD97":162062.95000000001,"N_COORD97":2560260.79,"ADDRESS":"大埕３２２號之１２","OBJECTID":93491},"geometry":{"x":162062.95000000019,"y":2560260.7899999991}},{"attributes":{"ID":93492,"DIS_CODE":0,"TOWNNAME":"七股區","LI":"大埕里","LIN":"10鄰","STREET":" ","SECT":" ","MAREA":"大埕","LANE":" ","ALLEY":" ","HOUSE_NO":"３２２號之２","E_COORD97":162070.22,"N_COORD97":2560288.3100000001,"ADDRESS":"大埕３２２號之２","OBJECTID":93492},"geometry":{"x":162070.22000000067,"y":2560288.3100000005}},{"attributes":{"ID":93493,"DIS_CODE":0,"TOWNNAME":"七股區","LI":"大埕里","LIN":"10鄰","STREET":" ","SECT":" ","MAREA":"大埕","LANE":" ","ALLEY":" ","HOUSE_NO":"３２２號之３","E_COORD97":162074.29000000001,"N_COORD97":2560288.3799999999,"ADDRESS":"大埕３２２號之３","OBJECTID":93493},"geometry":{"x":162074.29000000004,"y":2560288.3800000008}},{"attributes":{"ID":93494,"DIS_CODE":0,"TOWNNAME":"七股區","LI":"大埕里","LIN":"10鄰","STREET":" ","SECT":" ","MAREA":"大埕","LANE":" ","ALLEY":" ","HOUSE_NO":"３２２號之４","E_COORD97":162078.37,"N_COORD97":2560288.4500000002,"ADDRESS":"大埕３２２號之４","OBJECTID":93494},"geometry":{"x":162078.37000000104,"y":2560288.4500000011}},{"attributes":{"ID":93495,"DIS_CODE":0,"TOWNNAME":"新營區","LI":"南紙里","LIN":"21鄰","STREET":"建業路","SECT":" ","MAREA":" ","LANE":"２２７巷","ALLEY":"１６弄","HOUSE_NO":"１０號","E_COORD97":178097.91,"N_COORD97":2577427.8599999999,"ADDRESS":"建業路２２７巷１６弄１０號","OBJECTID":93495},"geometry":{"x":178097.91000000015,"y":2577427.8600000013}},{"attributes":{"ID":93496,"DIS_CODE":0,"TOWNNAME":"楠西區","LI":"東勢里","LIN":"21鄰","STREET":"民生路","SECT":" ","MAREA":" ","LANE":"１０６巷","ALLEY":"１２弄","HOUSE_NO":"３號","E_COORD97":197356.14000000001,"N_COORD97":2564223.29,"ADDRESS":"民生路１０６巷１２弄３號","OBJECTID":93496},"geometry":{"x":197356.1400000006,"y":2564223.2899999991}},{"attributes":{"ID":93497,"DIS_CODE":0,"TOWNNAME":"七股區","LI":"大埕里","LIN":"10鄰","STREET":" ","SECT":" ","MAREA":"大埕","LANE":" ","ALLEY":" ","HOUSE_NO":"３２２號之５","E_COORD97":162082.44,"N_COORD97":2560288.52,"ADDRESS":"大埕３２２號之５","OBJECTID":93497},"geometry":{"x":162082.44000000041,"y":2560288.5200000014}},{"attributes":{"ID":93498,"DIS_CODE":0,"TOWNNAME":"關廟區","LI":"東勢里","LIN":"15鄰","STREET":"東興路","SECT":" ","MAREA":" ","LANE":" ","ALLEY":" ","HOUSE_NO":"１６２號","E_COORD97":181578.87,"N_COORD97":2539555.25,"ADDRESS":"東興路１６２號","OBJECTID":93498},"geometry":{"x":181578.87000000011,"y":2539555.2500000019}},{"attributes":{"ID":93499,"DIS_CODE":0,"TOWNNAME":"關廟區","LI":"松腳里","LIN":"15鄰","STREET":"和平路","SECT":" ","MAREA":" ","LANE":" ","ALLEY":" ","HOUSE_NO":"１７５號","E_COORD97":181686.64000000001,"N_COORD97":2539754.25,"ADDRESS":"和平路１７５號","OBJECTID":93499},"geometry":{"x":181686.63999999966,"y":2539754.2500000037}},{"attributes":{"ID":93500,"DIS_CODE":0,"TOWNNAME":"關廟區","LI":"五甲里","LIN":"15鄰","STREET":"東興二街","SECT":" ","MAREA":" ","LANE":" ","ALLEY":" ","HOUSE_NO":"５２號","E_COORD97":181309.37,"N_COORD97":2539515.25,"ADDRESS":"東興二街５２號","OBJECTID":93500},"geometry":{"x":181309.37000000011,"y":2539515.25}},{"attributes":{"ID":93501,"DIS_CODE":0,"TOWNNAME":"關廟區","LI":"五甲里","LIN":"15鄰","STREET":"東興二街","SECT":" ","MAREA":" ","LANE":" ","ALLEY":" ","HOUSE_NO":"１０３號","E_COORD97":181314.82000000001,"N_COORD97":2539418.25,"ADDRESS":"東興二街１０３號","OBJECTID":93501},"geometry":{"x":181314.8200000003,"y":2539418.2499999981}},{"attributes":{"ID":93502,"DIS_CODE":0,"TOWNNAME":"關廟區","LI":"東勢里","LIN":"15鄰","STREET":"東興路","SECT":" ","MAREA":" ","LANE":" ","ALLEY":" ","HOUSE_NO":"１９２號","E_COORD97":181626.47,"N_COORD97":2539554.25,"ADDRESS":"東興路１９２號","OBJECTID":93502},"geometry":{"x":181626.46999999974,"y":2539554.2500000037}},{"attributes":{"ID":93503,"DIS_CODE":0,"TOWNNAME":"關廟區","LI":"香洋里","LIN":"15鄰","STREET":"香洋路","SECT":" ","MAREA":" ","LANE":" ","ALLEY":" ","HOUSE_NO":"６８號","E_COORD97":181379.09,"N_COORD97":2540099.25,"ADDRESS":"香洋路６８號","OBJECTID":93503},"geometry":{"x":181379.09000000171,"y":2540099.25}},{"attributes":{"ID":93504,"DIS_CODE":0,"TOWNNAME":"新化區","LI":"全興里","LIN":"15鄰","STREET":" ","SECT":" ","MAREA":"竹子\u25A0","LANE":" ","ALLEY":" ","HOUSE_NO":"２４７號之５４９","E_COORD97":178141.78,"N_COORD97":2546667.2599999998,"ADDRESS":"竹子\u25A0２４７號之５４９","OBJECTID":93504},"geometry":{"x":178141.78000000026,"y":2546667.2600000016}},{"attributes":{"ID":93505,"DIS_CODE":0,"TOWNNAME":"新化區","LI":"全興里","LIN":"15鄰","STREET":" ","SECT":" ","MAREA":"竹子\u25A0","LANE":" ","ALLEY":" ","HOUSE_NO":"２４７號之４２２","E_COORD97":178178.79000000001,"N_COORD97":2546680.2599999998,"ADDRESS":"竹子\u25A0２４７號之４２２","OBJECTID":93505},"geometry":{"x":178178.79000000004,"y":2546680.2600000035}},{"attributes":{"ID":93506,"DIS_CODE":0,"TOWNNAME":"新化區","LI":"全興里","LIN":"15鄰","STREET":" ","SECT":" ","MAREA":"竹子\u25A0","LANE":" ","ALLEY":" ","HOUSE_NO":"２４７號之６８５","E_COORD97":178142.09,"N_COORD97":2546611.2599999998,"ADDRESS":"竹子\u25A0２４７號之６８５","OBJECTID":93506},"geometry":{"x":178142.09000000078,"y":2546611.2599999998}},{"attributes":{"ID":93507,"DIS_CODE":0,"TOWNNAME":"新化區","LI":"全興里","LIN":"15鄰","STREET":" ","SECT":" ","MAREA":"竹子\u25A0","LANE":" ","ALLEY":" ","HOUSE_NO":"２４７號之５８２","E_COORD97":178136.48999999999,"N_COORD97":2546638.2599999998,"ADDRESS":"竹子\u25A0２４７號之５８２","OBJECTID":93507},"geometry":{"x":178136.49000000022,"y":2546638.2599999998}},{"attributes":{"ID":93508,"DIS_CODE":0,"TOWNNAME":"新化區","LI":"全興里","LIN":"15鄰","STREET":" ","SECT":" ","MAREA":"竹子\u25A0","LANE":" ","ALLEY":" ","HOUSE_NO":"２４７號之５４１","E_COORD97":178160.45999999999,"N_COORD97":2546667.2599999998,"ADDRESS":"竹子\u25A0２４７號之５４１","OBJECTID":93508},"geometry":{"x":178160.45999999996,"y":2546667.2600000016}},{"attributes":{"ID":93509,"DIS_CODE":0,"TOWNNAME":"新化區","LI":"全興里","LIN":"15鄰","STREET":" ","SECT":" ","MAREA":"竹子\u25A0","LANE":" ","ALLEY":" ","HOUSE_NO":"２４７號之４２８","E_COORD97":178164.79000000001,"N_COORD97":2546680.2599999998,"ADDRESS":"竹子\u25A0２４７號之４２８","OBJECTID":93509},"geometry":{"x":178164.79000000004,"y":2546680.2600000035}},{"attributes":{"ID":93510,"DIS_CODE":0,"TOWNNAME":"鹽水區","LI":"孫厝里","LIN":"15鄰","STREET":" ","SECT":" ","MAREA":"羊稠厝","LANE":" ","ALLEY":" ","HOUSE_NO":"２２號","E_COORD97":169546.63,"N_COORD97":2575901.7799999998,"ADDRESS":"羊稠厝２２號","OBJECTID":93510},"geometry":{"x":169546.63000000082,"y":2575901.7800000012}},{"attributes":{"ID":93511,"DIS_CODE":0,"TOWNNAME":"永康區","LI":"大橋里","LIN":"21鄰","STREET":"大橋一街","SECT":" ","MAREA":" ","LANE":"２２３巷","ALLEY":"３弄","HOUSE_NO":"２８之５號","E_COORD97":171143.76000000001,"N_COORD97":2546674.98,"ADDRESS":"大橋一街２２３巷３弄２８之５號","OBJECTID":93511},"geometry":{"x":171143.75999999978,"y":2546674.9800000004}},{"attributes":{"ID":93512,"DIS_CODE":0,"TOWNNAME":"永康區","LI":"大橋里","LIN":"21鄰","STREET":"大橋一街","SECT":" ","MAREA":" ","LANE":"２２３巷","ALLEY":"３弄","HOUSE_NO":"２８之１號","E_COORD97":171154.32000000001,"N_COORD97":2546663.73,"ADDRESS":"大橋一街２２３巷３弄２８之１號","OBJECTID":93512},"geometry":{"x":171154.32000000216,"y":2546663.7300000004}},{"attributes":{"ID":93513,"DIS_CODE":0,"TOWNNAME":"七股區","LI":"大埕里","LIN":"10鄰","STREET":" ","SECT":" ","MAREA":"大埕","LANE":" ","ALLEY":" ","HOUSE_NO":"３２２號之６","E_COORD97":162087.14000000001,"N_COORD97":2560261.27,"ADDRESS":"大埕３２２號之６","OBJECTID":93513},"geometry":{"x":162087.13999999966,"y":2560261.2699999996}},{"attributes":{"ID":93514,"DIS_CODE":0,"TOWNNAME":"南區","LI":"大忠里","LIN":"22鄰","STREET":"中華南路","SECT":"一段","MAREA":" ","LANE":"１７５巷","ALLEY":"５弄","HOUSE_NO":"６號","E_COORD97":169138.44,"N_COORD97":2541143.8700000001,"ADDRESS":"中華南路一段１７５巷５弄６號","OBJECTID":93514},"geometry":{"x":169138.44000000134,"y":2541143.870000001}},{"attributes":{"ID":93515,"DIS_CODE":0,"TOWNNAME":"東區","LI":"小東里","LIN":"24鄰","STREET":"光明街","SECT":" ","MAREA":" ","LANE":"２０１巷","ALLEY":"４弄","HOUSE_NO":"８號","E_COORD97":170969.37,"N_COORD97":2544023.3999999999,"ADDRESS":"光明街２０１巷４弄８號","OBJECTID":93515},"geometry":{"x":170969.37000000104,"y":2544023.4000000022}},{"attributes":{"ID":93516,"DIS_CODE":0,"TOWNNAME":"永康區","LI":"\u25A0行里","LIN":"21鄰","STREET":"正南五街","SECT":" ","MAREA":" ","LANE":"３２７巷","ALLEY":"１１弄","HOUSE_NO":"１７號","E_COORD97":171779.44,"N_COORD97":2548519.9100000001,"ADDRESS":"正南五街３２７巷１１弄１７號","OBJECTID":93516},"geometry":{"x":171779.44000000134,"y":2548519.9100000001}},{"attributes":{"ID":93517,"DIS_CODE":0,"TOWNNAME":"七股區","LI":"大埕里","LIN":"10鄰","STREET":" ","SECT":" ","MAREA":"大埕","LANE":" ","ALLEY":" ","HOUSE_NO":"３２２號之７","E_COORD97":162083.34,"N_COORD97":2560261.1200000001,"ADDRESS":"大埕３２２號之７","OBJECTID":93517},"geometry":{"x":162083.34000000078,"y":2560261.1200000048}},{"attributes":{"ID":93518,"DIS_CODE":0,"TOWNNAME":"東區","LI":"衛國里","LIN":"21鄰","STREET":"林森路","SECT":"二段","MAREA":" ","LANE":"１９０巷","ALLEY":"１８弄","HOUSE_NO":"１０號","E_COORD97":170547.94,"N_COORD97":2543254.02,"ADDRESS":"林森路二段１９０巷１８弄１０號","OBJECTID":93518},"geometry":{"x":170547.94000000041,"y":2543254.0200000033}},{"attributes":{"ID":93519,"DIS_CODE":0,"TOWNNAME":"七股區","LI":"大埕里","LIN":"10鄰","STREET":" ","SECT":" ","MAREA":"大埕","LANE":" ","ALLEY":" ","HOUSE_NO":"３２２號之８","E_COORD97":162078.78,"N_COORD97":2560261.0499999998,"ADDRESS":"大埕３２２號之８","OBJECTID":93519},"geometry":{"x":162078.78000000119,"y":2560261.0499999989}},{"attributes":{"ID":93520,"DIS_CODE":0,"TOWNNAME":"東區","LI":"衛國里","LIN":"21鄰","STREET":"林森路","SECT":"二段","MAREA":" ","LANE":"１９０巷","ALLEY":"１８弄","HOUSE_NO":"１２號","E_COORD97":170547.75,"N_COORD97":2543249.04,"ADDRESS":"林森路二段１９０巷１８弄１２號","OBJECTID":93520},"geometry":{"x":170547.75000000093,"y":2543249.0399999991}},{"attributes":{"ID":93521,"DIS_CODE":0,"TOWNNAME":"東區","LI":"衛國里","LIN":"21鄰","STREET":"林森路","SECT":"二段","MAREA":" ","LANE":"１９０巷","ALLEY":"１８弄","HOUSE_NO":"１４號","E_COORD97":170548.32000000001,"N_COORD97":2543245.5899999999,"ADDRESS":"林森路二段１９０巷１８弄１４號","OBJECTID":93521},"geometry":{"x":170548.3200000003,"y":2543245.5899999999}},{"attributes":{"ID":93522,"DIS_CODE":0,"TOWNNAME":"東區","LI":"衛國里","LIN":"21鄰","STREET":"林森路","SECT":"二段","MAREA":" ","LANE":"１９０巷","ALLEY":"１８弄","HOUSE_NO":"１６號","E_COORD97":170553.31,"N_COORD97":2543240.2200000002,"ADDRESS":"林森路二段１９０巷１８弄１６號","OBJECTID":93522},"geometry":{"x":170553.30999999959,"y":2543240.2200000044}},{"attributes":{"ID":93523,"DIS_CODE":0,"TOWNNAME":"東區","LI":"衛國里","LIN":"21鄰","STREET":"林森路","SECT":"二段","MAREA":" ","LANE":"１９０巷","ALLEY":"１８弄","HOUSE_NO":"１８號","E_COORD97":170551.01000000001,"N_COORD97":2543228.8199999998,"ADDRESS":"林森路二段１９０巷１８弄１８號","OBJECTID":93523},"geometry":{"x":170551.01000000071,"y":2543228.8199999984}},{"attributes":{"ID":93524,"DIS_CODE":0,"TOWNNAME":"關廟區","LI":"北花里","LIN":"15鄰","STREET":"中正路","SECT":" ","MAREA":" ","LANE":"２２１巷","ALLEY":" ","HOUSE_NO":"３號","E_COORD97":183370.56903300001,"N_COORD97":2540866.3575599999,"ADDRESS":"中正路２２１巷３號","OBJECTID":93524},"geometry":{"x":183370.56903300155,"y":2540866.3575589992}},{"attributes":{"ID":93525,"DIS_CODE":0,"TOWNNAME":"安平區","LI":"港仔里","LIN":"8鄰","STREET":"安平路","SECT":" ","MAREA":" ","LANE":" ","ALLEY":" ","HOUSE_NO":"９９號之６","E_COORD97":164307.23999999999,"N_COORD97":2544437.5899999999,"ADDRESS":"安平路９９號之６","OBJECTID":93525},"geometry":{"x":164307.24000000022,"y":2544437.5900000017}},{"attributes":{"ID":93526,"DIS_CODE":0,"TOWNNAME":"安平區","LI":"港仔里","LIN":"8鄰","STREET":"安平路","SECT":" ","MAREA":" ","LANE":" ","ALLEY":" ","HOUSE_NO":"９９號之７","E_COORD97":164303.07999999999,"N_COORD97":2544432.7999999998,"ADDRESS":"安平路９９號之７","OBJECTID":93526},"geometry":{"x":164303.08000000007,"y":2544432.8000000007}},{"attributes":{"ID":93527,"DIS_CODE":0,"TOWNNAME":"安平區","LI":"港仔里","LIN":"8鄰","STREET":"安平路","SECT":" ","MAREA":" ","LANE":" ","ALLEY":" ","HOUSE_NO":"９９號之８","E_COORD97":164297.67999999999,"N_COORD97":2544428.21,"ADDRESS":"安平路９９號之８","OBJECTID":93527},"geometry":{"x":164297.68000000156,"y":2544428.2100000028}},{"attributes":{"ID":93528,"DIS_CODE":0,"TOWNNAME":"安平區","LI":"港仔里","LIN":"8鄰","STREET":"安平路","SECT":" ","MAREA":" ","LANE":" ","ALLEY":" ","HOUSE_NO":"９９號之９","E_COORD97":164292.17000000001,"N_COORD97":2544419.8399999999,"ADDRESS":"安平路９９號之９","OBJECTID":93528},"geometry":{"x":164292.16999999993,"y":2544419.8400000017}},{"attributes":{"ID":93529,"DIS_CODE":0,"TOWNNAME":"鹽水區","LI":"孫厝里","LIN":"15鄰","STREET":" ","SECT":" ","MAREA":"羊稠厝","LANE":" ","ALLEY":" ","HOUSE_NO":"２６號","E_COORD97":169529.09,"N_COORD97":2575888.9900000002,"ADDRESS":"羊稠厝２６號","OBJECTID":93529},"geometry":{"x":169529.08999999985,"y":2575888.9900000021}},{"attributes":{"ID":93530,"DIS_CODE":0,"TOWNNAME":"鹽水區","LI":"孫厝里","LIN":"15鄰","STREET":" ","SECT":" ","MAREA":"羊稠厝","LANE":" ","ALLEY":" ","HOUSE_NO":"３２號","E_COORD97":169496.92999999999,"N_COORD97":2575882.0499999998,"ADDRESS":"羊稠厝３２號","OBJECTID":93530},"geometry":{"x":169496.93000000063,"y":2575882.0500000026}},{"attributes":{"ID":93531,"DIS_CODE":0,"TOWNNAME":"東區","LI":"衛國里","LIN":"21鄰","STREET":"林森路","SECT":"二段","MAREA":" ","LANE":"１９０巷","ALLEY":"１８弄","HOUSE_NO":"２０號","E_COORD97":170555.60999999999,"N_COORD97":2543215.98,"ADDRESS":"林森路二段１９０巷１８弄２０號","OBJECTID":93531},"geometry":{"x":170555.6100000022,"y":2543215.9800000023}},{"attributes":{"ID":93532,"DIS_CODE":0,"TOWNNAME":"七股區","LI":"大埕里","LIN":"10鄰","STREET":" ","SECT":" ","MAREA":"大埕","LANE":" ","ALLEY":" ","HOUSE_NO":"３２２號之９","E_COORD97":162074.70000000001,"N_COORD97":2560260.9100000001,"ADDRESS":"大埕３２２號之９","OBJECTID":93532},"geometry":{"x":162074.70000000112,"y":2560260.9100000001}},{"attributes":{"ID":93533,"DIS_CODE":0,"TOWNNAME":"七股區","LI":"大埕里","LIN":"10鄰","STREET":" ","SECT":" ","MAREA":"大埕","LANE":" ","ALLEY":" ","HOUSE_NO":"３２２號","E_COORD97":162062.07000000001,"N_COORD97":2560288.1699999999,"ADDRESS":"大埕３２２號","OBJECTID":93533},"geometry":{"x":162062.07000000123,"y":2560288.1700000018}},{"attributes":{"ID":93534,"DIS_CODE":0,"TOWNNAME":"七股區","LI":"大埕里","LIN":"10鄰","STREET":" ","SECT":" ","MAREA":"大埕","LANE":" ","ALLEY":" ","HOUSE_NO":"３２４號","E_COORD97":162023.60999999999,"N_COORD97":2560257.8599999999,"ADDRESS":"大埕３２４號","OBJECTID":93534},"geometry":{"x":162023.61000000034,"y":2560257.8600000031}},{"attributes":{"ID":93535,"DIS_CODE":0,"TOWNNAME":"七股區","LI":"大埕里","LIN":"10鄰","STREET":" ","SECT":" ","MAREA":"大埕","LANE":" ","ALLEY":" ","HOUSE_NO":"３２５號之１","E_COORD97":162023.32000000001,"N_COORD97":2560250.3399999999,"ADDRESS":"大埕３２５號之１","OBJECTID":93535},"geometry":{"x":162023.3200000003,"y":2560250.3399999999}},{"attributes":{"ID":93536,"DIS_CODE":0,"TOWNNAME":"七股區","LI":"大埕里","LIN":"10鄰","STREET":" ","SECT":" ","MAREA":"大埕","LANE":" ","ALLEY":" ","HOUSE_NO":"３２５號","E_COORD97":162023.45000000001,"N_COORD97":2560254.21,"ADDRESS":"大埕３２５號","OBJECTID":93536},"geometry":{"x":162023.45000000112,"y":2560254.2100000028}},{"attributes":{"ID":93537,"DIS_CODE":0,"TOWNNAME":"七股區","LI":"大埕里","LIN":"10鄰","STREET":" ","SECT":" ","MAREA":"大埕","LANE":" ","ALLEY":" ","HOUSE_NO":"３２７號","E_COORD97":162028.57999999999,"N_COORD97":2560240.3300000001,"ADDRESS":"大埕３２７號","OBJECTID":93537},"geometry":{"x":162028.58000000007,"y":2560240.3300000001}},{"attributes":{"ID":93538,"DIS_CODE":0,"TOWNNAME":"七股區","LI":"大埕里","LIN":"10鄰","STREET":" ","SECT":" ","MAREA":"大埕","LANE":" ","ALLEY":" ","HOUSE_NO":"３３２號","E_COORD97":162028.38,"N_COORD97":2560214.0800000001,"ADDRESS":"大埕３３２號","OBJECTID":93538},"geometry":{"x":162028.38000000175,"y":2560214.0800000019}},{"attributes":{"ID":93539,"DIS_CODE":0,"TOWNNAME":"七股區","LI":"大埕里","LIN":"10鄰","STREET":" ","SECT":" ","MAREA":"大埕","LANE":" ","ALLEY":" ","HOUSE_NO":"３３３號","E_COORD97":162028.31,"N_COORD97":2560209.98,"ADDRESS":"大埕３３３號","OBJECTID":93539},"geometry":{"x":162028.30999999866,"y":2560209.9800000004}},{"attributes":{"ID":93540,"DIS_CODE":0,"TOWNNAME":"七股區","LI":"大埕里","LIN":"10鄰","STREET":" ","SECT":" ","MAREA":"大埕","LANE":" ","ALLEY":" ","HOUSE_NO":"３３４號","E_COORD97":162028.04999999999,"N_COORD97":2560205.8700000001,"ADDRESS":"大埕３３４號","OBJECTID":93540},"geometry":{"x":162028.04999999981,"y":2560205.8700000029}},{"attributes":{"ID":93541,"DIS_CODE":0,"TOWNNAME":"七股區","LI":"大埕里","LIN":"10鄰","STREET":" ","SECT":" ","MAREA":"大埕","LANE":" ","ALLEY":" ","HOUSE_NO":"３３５號","E_COORD97":162027.85999999999,"N_COORD97":2560201.6200000001,"ADDRESS":"大埕３３５號","OBJECTID":93541},"geometry":{"x":162027.86000000127,"y":2560201.6200000029}},{"attributes":{"ID":93542,"DIS_CODE":0,"TOWNNAME":"七股區","LI":"大埕里","LIN":"10鄰","STREET":" ","SECT":" ","MAREA":"大埕","LANE":" ","ALLEY":" ","HOUSE_NO":"３３６號","E_COORD97":162028.01000000001,"N_COORD97":2560197.4300000002,"ADDRESS":"大埕３３６號","OBJECTID":93542},"geometry":{"x":162028.01000000071,"y":2560197.4300000016}},{"attributes":{"ID":93543,"DIS_CODE":0,"TOWNNAME":"七股區","LI":"大埕里","LIN":"10鄰","STREET":" ","SECT":" ","MAREA":"大埕","LANE":" ","ALLEY":" ","HOUSE_NO":"３４０號","E_COORD97":162025.20999999999,"N_COORD97":2560158.1600000001,"ADDRESS":"大埕３４０號","OBJECTID":93543},"geometry":{"x":162025.21000000089,"y":2560158.1600000039}},{"attributes":{"ID":93544,"DIS_CODE":0,"TOWNNAME":"七股區","LI":"大埕里","LIN":"10鄰","STREET":" ","SECT":" ","MAREA":"大埕","LANE":" ","ALLEY":" ","HOUSE_NO":"３４２號","E_COORD97":162040.32999999999,"N_COORD97":2560124.0099999998,"ADDRESS":"大埕３４２號","OBJECTID":93544},"geometry":{"x":162040.33000000007,"y":2560124.0099999998}},{"attributes":{"ID":93545,"DIS_CODE":0,"TOWNNAME":"七股區","LI":"大埕里","LIN":"10鄰","STREET":" ","SECT":" ","MAREA":"大埕","LANE":" ","ALLEY":" ","HOUSE_NO":"３４５號","E_COORD97":162031.87,"N_COORD97":2560107.5299999998,"ADDRESS":"大埕３４５號","OBJECTID":93545},"geometry":{"x":162031.86999999918,"y":2560107.5300000031}},{"attributes":{"ID":93546,"DIS_CODE":0,"TOWNNAME":"七股區","LI":"大埕里","LIN":"10鄰","STREET":" ","SECT":" ","MAREA":"大埕","LANE":" ","ALLEY":" ","HOUSE_NO":"３４７號","E_COORD97":162063.20000000001,"N_COORD97":2560093.4100000001,"ADDRESS":"大埕３４７號","OBJECTID":93546},"geometry":{"x":162063.20000000019,"y":2560093.410000002}},{"attributes":{"ID":93547,"DIS_CODE":0,"TOWNNAME":"七股區","LI":"大埕里","LIN":"10鄰","STREET":" ","SECT":" ","MAREA":"大埕","LANE":" ","ALLEY":" ","HOUSE_NO":"３４８號","E_COORD97":162029.42000000001,"N_COORD97":2560080.9399999999,"ADDRESS":"大埕３４８號","OBJECTID":93547},"geometry":{"x":162029.41999999993,"y":2560080.9400000032}},{"attributes":{"ID":93548,"DIS_CODE":0,"TOWNNAME":"七股區","LI":"大埕里","LIN":"10鄰","STREET":" ","SECT":" ","MAREA":"大埕","LANE":" ","ALLEY":" ","HOUSE_NO":"５００號","E_COORD97":162826.07000000001,"N_COORD97":2560867.5099999998,"ADDRESS":"大埕５００號","OBJECTID":93548},"geometry":{"x":162826.07000000123,"y":2560867.5100000035}},{"attributes":{"ID":93549,"DIS_CODE":0,"TOWNNAME":"七股區","LI":"中寮里","LIN":"10鄰","STREET":" ","SECT":" ","MAREA":"中寮","LANE":" ","ALLEY":" ","HOUSE_NO":"２２號之１","E_COORD97":158734.64999999999,"N_COORD97":2561376.8500000001,"ADDRESS":"中寮２２號之１","OBJECTID":93549},"geometry":{"x":158734.65000000037,"y":2561376.8500000034}},{"attributes":{"ID":93550,"DIS_CODE":0,"TOWNNAME":"七股區","LI":"中寮里","LIN":"10鄰","STREET":" ","SECT":" ","MAREA":"中寮","LANE":" ","ALLEY":" ","HOUSE_NO":"２２號之２","E_COORD97":158651.73000000001,"N_COORD97":2561308.6800000002,"ADDRESS":"中寮２２號之２","OBJECTID":93550},"geometry":{"x":158651.73000000138,"y":2561308.6799999997}},{"attributes":{"ID":93551,"DIS_CODE":0,"TOWNNAME":"七股區","LI":"中寮里","LIN":"10鄰","STREET":" ","SECT":" ","MAREA":"中寮","LANE":" ","ALLEY":" ","HOUSE_NO":"２２號之３","E_COORD97":158673.35999999999,"N_COORD97":2561302.0600000001,"ADDRESS":"中寮２２號之３","OBJECTID":93551},"geometry":{"x":158673.36000000034,"y":2561302.0600000024}},{"attributes":{"ID":93552,"DIS_CODE":0,"TOWNNAME":"七股區","LI":"中寮里","LIN":"10鄰","STREET":" ","SECT":" ","MAREA":"中寮","LANE":" ","ALLEY":" ","HOUSE_NO":"２２號之６","E_COORD97":158643.04999999999,"N_COORD97":2561347.4100000001,"ADDRESS":"中寮２２號之６","OBJECTID":93552},"geometry":{"x":158643.04999999981,"y":2561347.410000002}},{"attributes":{"ID":93553,"DIS_CODE":0,"TOWNNAME":"東區","LI":"衛國里","LIN":"21鄰","STREET":"林森路","SECT":"二段","MAREA":" ","LANE":"１９０巷","ALLEY":"１８弄","HOUSE_NO":"２４號","E_COORD97":170553.92000000001,"N_COORD97":2543205.7000000002,"ADDRESS":"林森路二段１９０巷１８弄２４號","OBJECTID":93553},"geometry":{"x":170553.92000000086,"y":2543205.7000000011}},{"attributes":{"ID":93554,"DIS_CODE":0,"TOWNNAME":"東區","LI":"衛國里","LIN":"21鄰","STREET":"林森路","SECT":"二段","MAREA":" ","LANE":"１９０巷","ALLEY":"１８弄","HOUSE_NO":"２６號","E_COORD97":170548.89999999999,"N_COORD97":2543204.48,"ADDRESS":"林森路二段１９０巷１８弄２６號","OBJECTID":93554},"geometry":{"x":170548.9000000013,"y":2543204.4800000042}},{"attributes":{"ID":93555,"DIS_CODE":0,"TOWNNAME":"左鎮區","LI":"岡林里","LIN":"9鄰","STREET":" ","SECT":" ","MAREA":"岡林","LANE":" ","ALLEY":" ","HOUSE_NO":"９１號","E_COORD97":190039.85999999999,"N_COORD97":2547568.25,"ADDRESS":"岡林９１號","OBJECTID":93555},"geometry":{"x":190039.86000000034,"y":2547568.25}},{"attributes":{"ID":93556,"DIS_CODE":0,"TOWNNAME":"東區","LI":"衛國里","LIN":"21鄰","STREET":"林森路","SECT":"二段","MAREA":" ","LANE":"１９０巷","ALLEY":"１８弄","HOUSE_NO":"２８號","E_COORD97":170542.95000000001,"N_COORD97":2543203.9100000001,"ADDRESS":"林森路二段１９０巷１８弄２８號","OBJECTID":93556},"geometry":{"x":170542.94999999925,"y":2543203.9100000001}},{"attributes":{"ID":93557,"DIS_CODE":0,"TOWNNAME":"東區","LI":"衛國里","LIN":"21鄰","STREET":"林森路","SECT":"二段","MAREA":" ","LANE":"１９０巷","ALLEY":"１８弄","HOUSE_NO":"２號","E_COORD97":170548.23000000001,"N_COORD97":2543282.8599999999,"ADDRESS":"林森路二段１９０巷１８弄２號","OBJECTID":93557},"geometry":{"x":170548.23000000231,"y":2543282.8600000013}},{"attributes":{"ID":93558,"DIS_CODE":0,"TOWNNAME":"東區","LI":"衛國里","LIN":"21鄰","STREET":"林森路","SECT":"二段","MAREA":" ","LANE":"１９０巷","ALLEY":"１８弄","HOUSE_NO":"３０號","E_COORD97":170537.76999999999,"N_COORD97":2543202.9500000002,"ADDRESS":"林森路二段１９０巷１８弄３０號","OBJECTID":93558},"geometry":{"x":170537.76999999955,"y":2543202.9499999993}},{"attributes":{"ID":93559,"DIS_CODE":0,"TOWNNAME":"南區","LI":"同安里","LIN":"15鄰","STREET":"明興路","SECT":" ","MAREA":" ","LANE":" ","ALLEY":" ","HOUSE_NO":"１４１７號","E_COORD97":166367.94,"N_COORD97":2535787.1800000002,"ADDRESS":"明興路１４１７號","OBJECTID":93559},"geometry":{"x":166367.94000000041,"y":2535787.1799999997}},{"attributes":{"ID":93560,"DIS_CODE":0,"TOWNNAME":"南區","LI":"文南里","LIN":"15鄰","STREET":"智南街","SECT":" ","MAREA":" ","LANE":" ","ALLEY":" ","HOUSE_NO":"２７號","E_COORD97":166652.79999999999,"N_COORD97":2542748.9399999999,"ADDRESS":"智南街２７號","OBJECTID":93560},"geometry":{"x":166652.79999999981,"y":2542748.9399999995}},{"attributes":{"ID":93561,"DIS_CODE":0,"TOWNNAME":"南區","LI":"文南里","LIN":"15鄰","STREET":"智南街","SECT":" ","MAREA":" ","LANE":" ","ALLEY":" ","HOUSE_NO":"２７號之１","E_COORD97":166652.41,"N_COORD97":2542744.5299999998,"ADDRESS":"智南街２７號之１","OBJECTID":93561},"geometry":{"x":166652.41000000015,"y":2542744.5299999993}},{"attributes":{"ID":93562,"DIS_CODE":0,"TOWNNAME":"南區","LI":"文南里","LIN":"15鄰","STREET":"美南街","SECT":" ","MAREA":" ","LANE":" ","ALLEY":" ","HOUSE_NO":"１６０號","E_COORD97":166694.41,"N_COORD97":2542772.2799999998,"ADDRESS":"美南街１６０號","OBJECTID":93562},"geometry":{"x":166694.41000000015,"y":2542772.2800000012}},{"attributes":{"ID":93563,"DIS_CODE":0,"TOWNNAME":"東區","LI":"衛國里","LIN":"21鄰","STREET":"林森路","SECT":"二段","MAREA":" ","LANE":"１９０巷","ALLEY":"１８弄","HOUSE_NO":"３２號","E_COORD97":170531.44,"N_COORD97":2543203.9100000001,"ADDRESS":"林森路二段１９０巷１８弄３２號","OBJECTID":93563},"geometry":{"x":170531.44000000227,"y":2543203.9100000001}},{"attributes":{"ID":93564,"DIS_CODE":0,"TOWNNAME":"東區","LI":"衛國里","LIN":"21鄰","STREET":"林森路","SECT":"二段","MAREA":" ","LANE":"１９０巷","ALLEY":"１８弄","HOUSE_NO":"４號","E_COORD97":170542.09,"N_COORD97":2543272.52,"ADDRESS":"林森路二段１９０巷１８弄４號","OBJECTID":93564},"geometry":{"x":170542.09000000078,"y":2543272.5200000014}},{"attributes":{"ID":93565,"DIS_CODE":0,"TOWNNAME":"東區","LI":"衛國里","LIN":"21鄰","STREET":"林森路","SECT":"二段","MAREA":" ","LANE":"１９０巷","ALLEY":"１８弄","HOUSE_NO":"６號","E_COORD97":170550.82000000001,"N_COORD97":2543262.6499999999,"ADDRESS":"林森路二段１９０巷１８弄６號","OBJECTID":93565},"geometry":{"x":170550.82000000216,"y":2543262.6500000004}},{"attributes":{"ID":93566,"DIS_CODE":0,"TOWNNAME":"東區","LI":"衛國里","LIN":"21鄰","STREET":"林森路","SECT":"二段","MAREA":" ","LANE":"１９０巷","ALLEY":"１８弄","HOUSE_NO":"８號","E_COORD97":170541.60999999999,"N_COORD97":2543263.0299999998,"ADDRESS":"林森路二段１９０巷１８弄８號","OBJECTID":93566},"geometry":{"x":170541.61000000034,"y":2543263.0299999993}},{"attributes":{"ID":93567,"DIS_CODE":0,"TOWNNAME":"永康區","LI":"安康里","LIN":"21鄰","STREET":"中華路","SECT":" ","MAREA":" ","LANE":"７０３巷","ALLEY":"３弄","HOUSE_NO":"１號","E_COORD97":170881.04000000001,"N_COORD97":2546311.75,"ADDRESS":"中華路７０３巷３弄１號","OBJECTID":93567},"geometry":{"x":170881.04000000004,"y":2546311.7500000019}},{"attributes":{"ID":93568,"DIS_CODE":0,"TOWNNAME":"仁德區","LI":"仁德里","LIN":"21鄰","STREET":"中山路","SECT":" ","MAREA":" ","LANE":"８７５巷","ALLEY":"５９弄","HOUSE_NO":"１號","E_COORD97":172384.26999999999,"N_COORD97":2541377.2200000002,"ADDRESS":"中山路８７５巷５９弄１號","OBJECTID":93568},"geometry":{"x":172384.26999999955,"y":2541377.2200000025}},{"attributes":{"ID":93569,"DIS_CODE":0,"TOWNNAME":"南區","LI":"郡南里","LIN":"21鄰","STREET":"新都路","SECT":" ","MAREA":" ","LANE":"３５３巷","ALLEY":"２弄","HOUSE_NO":"１１號","E_COORD97":167527.98000000001,"N_COORD97":2540828.6099999999,"ADDRESS":"新都路３５３巷２弄１１號","OBJECTID":93569},"geometry":{"x":167527.98000000138,"y":2540828.6099999994}},{"attributes":{"ID":93570,"DIS_CODE":0,"TOWNNAME":"南區","LI":"郡南里","LIN":"21鄰","STREET":"新都路","SECT":" ","MAREA":" ","LANE":"３５３巷","ALLEY":"２弄","HOUSE_NO":"１２號","E_COORD97":167528.94,"N_COORD97":2540852.1200000001,"ADDRESS":"新都路３５３巷２弄１２號","OBJECTID":93570},"geometry":{"x":167528.94000000041,"y":2540852.1200000029}},{"attributes":{"ID":93571,"DIS_CODE":0,"TOWNNAME":"永康區","LI":"烏竹里","LIN":"21鄰","STREET":"自強路","SECT":" ","MAREA":" ","LANE":"７７３巷","ALLEY":"２弄","HOUSE_NO":"２０號","E_COORD97":174545.47,"N_COORD97":2548646.7000000002,"ADDRESS":"自強路７７３巷２弄２０號","OBJECTID":93571},"geometry":{"x":174545.47000000067,"y":2548646.700000003}},{"attributes":{"ID":93572,"DIS_CODE":0,"TOWNNAME":"永康區","LI":"烏竹里","LIN":"21鄰","STREET":"自強路","SECT":" ","MAREA":" ","LANE":"７７３巷","ALLEY":"２弄","HOUSE_NO":"３號","E_COORD97":174487.29000000001,"N_COORD97":2548636.7200000002,"ADDRESS":"自強路７７３巷２弄３號","OBJECTID":93572},"geometry":{"x":174487.29000000097,"y":2548636.7200000007}},{"attributes":{"ID":93573,"DIS_CODE":0,"TOWNNAME":"永康區","LI":"烏竹里","LIN":"21鄰","STREET":"自強路","SECT":" ","MAREA":" ","LANE":"７７３巷","ALLEY":"２弄","HOUSE_NO":"１８號","E_COORD97":174538.32000000001,"N_COORD97":2548640.7000000002,"ADDRESS":"自強路７７３巷２弄１８號","OBJECTID":93573},"geometry":{"x":174538.32000000123,"y":2548640.7000000011}},{"attributes":{"ID":93574,"DIS_CODE":0,"TOWNNAME":"永康區","LI":"安康里","LIN":"21鄰","STREET":"中華路","SECT":" ","MAREA":" ","LANE":"７０３巷","ALLEY":"３弄","HOUSE_NO":"３５號","E_COORD97":170918.17999999999,"N_COORD97":2546248.7400000002,"ADDRESS":"中華路７０３巷３弄３５號","OBJECTID":93574},"geometry":{"x":170918.1799999997,"y":2546248.7400000002}},{"attributes":{"ID":93575,"DIS_CODE":0,"TOWNNAME":"永康區","LI":"西橋里","LIN":"21鄰","STREET":"大橋三街","SECT":" ","MAREA":" ","LANE":"５７巷","ALLEY":"１９弄","HOUSE_NO":"７１號","E_COORD97":170427.69,"N_COORD97":2546455.46,"ADDRESS":"大橋三街５７巷１９弄７１號","OBJECTID":93575},"geometry":{"x":170427.69000000041,"y":2546455.4600000009}},{"attributes":{"ID":93576,"DIS_CODE":0,"TOWNNAME":"永康區","LI":"西橋里","LIN":"21鄰","STREET":"大橋三街","SECT":" ","MAREA":" ","LANE":"５７巷","ALLEY":"１９弄","HOUSE_NO":"６５號","E_COORD97":170434.89999999999,"N_COORD97":2546466.2000000002,"ADDRESS":"大橋三街５７巷１９弄６５號","OBJECTID":93576},"geometry":{"x":170434.90000000037,"y":2546466.1999999993}},{"attributes":{"ID":93577,"DIS_CODE":0,"TOWNNAME":"永康區","LI":"西勢里","LIN":"21鄰","STREET":"富強路","SECT":"一段","MAREA":" ","LANE":"９８巷","ALLEY":"６２弄","HOUSE_NO":"３５號","E_COORD97":175576.01000000001,"N_COORD97":2545975.1400000001,"ADDRESS":"富強路一段９８巷６２弄３５號","OBJECTID":93577},"geometry":{"x":175576.01000000071,"y":2545975.1400000006}},{"attributes":{"ID":93578,"DIS_CODE":0,"TOWNNAME":"永康區","LI":"西勢里","LIN":"21鄰","STREET":"富強路","SECT":"一段","MAREA":" ","LANE":"９８巷","ALLEY":"６２弄","HOUSE_NO":"１７號","E_COORD97":175603.62,"N_COORD97":2546003.8999999999,"ADDRESS":"富強路一段９８巷６２弄１７號","OBJECTID":93578},"geometry":{"x":175603.62000000197,"y":2546003.9000000004}},{"attributes":{"ID":93579,"DIS_CODE":0,"TOWNNAME":"永康區","LI":"西勢里","LIN":"21鄰","STREET":"富強路","SECT":"一段","MAREA":" ","LANE":"９８巷","ALLEY":"２０弄","HOUSE_NO":"１３號","E_COORD97":175522.23999999999,"N_COORD97":2546090.9900000002,"ADDRESS":"富強路一段９８巷２０弄１３號","OBJECTID":93579},"geometry":{"x":175522.24000000115,"y":2546090.9900000002}},{"attributes":{"ID":93580,"DIS_CODE":0,"TOWNNAME":"永康區","LI":"西勢里","LIN":"21鄰","STREET":"富強路","SECT":"一段","MAREA":" ","LANE":"９８巷","ALLEY":"２０弄","HOUSE_NO":"３５號","E_COORD97":175489.70000000001,"N_COORD97":2546050.4900000002,"ADDRESS":"富強路一段９８巷２０弄３５號","OBJECTID":93580},"geometry":{"x":175489.70000000205,"y":2546050.4900000002}},{"attributes":{"ID":93581,"DIS_CODE":0,"TOWNNAME":"永康區","LI":"西勢里","LIN":"21鄰","STREET":"富強路","SECT":"一段","MAREA":" ","LANE":"９８巷","ALLEY":"３４弄","HOUSE_NO":"１１號","E_COORD97":175532.89000000001,"N_COORD97":2546064.1400000001,"ADDRESS":"富強路一段９８巷３４弄１１號","OBJECTID":93581},"geometry":{"x":175532.88999999966,"y":2546064.1400000006}},{"attributes":{"ID":93582,"DIS_CODE":0,"TOWNNAME":"七股區","LI":"中寮里","LIN":"10鄰","STREET":" ","SECT":" ","MAREA":"中寮","LANE":" ","ALLEY":" ","HOUSE_NO":"２２號之８","E_COORD97":158783.48000000001,"N_COORD97":2561382.3100000001,"ADDRESS":"中寮２２號之８","OBJECTID":93582},"geometry":{"x":158783.47999999952,"y":2561382.3100000024}},{"attributes":{"ID":93583,"DIS_CODE":0,"TOWNNAME":"永康區","LI":"西勢里","LIN":"21鄰","STREET":"富強路","SECT":"一段","MAREA":" ","LANE":"１３巷","ALLEY":"２弄","HOUSE_NO":"３０號","E_COORD97":175396.45999999999,"N_COORD97":2546098.0299999998,"ADDRESS":"富強路一段１３巷２弄３０號","OBJECTID":93583},"geometry":{"x":175396.46000000089,"y":2546098.0299999975}},{"attributes":{"ID":93584,"DIS_CODE":0,"TOWNNAME":"永康區","LI":"西勢里","LIN":"21鄰","STREET":"富強路","SECT":"一段","MAREA":" ","LANE":"９８巷","ALLEY":"３８弄","HOUSE_NO":"５號","E_COORD97":175572.14000000001,"N_COORD97":2546062.6400000001,"ADDRESS":"富強路一段９８巷３８弄５號","OBJECTID":93584},"geometry":{"x":175572.13999999966,"y":2546062.6400000025}},{"attributes":{"ID":93585,"DIS_CODE":0,"TOWNNAME":"永康區","LI":"西勢里","LIN":"21鄰","STREET":"富強路","SECT":"一段","MAREA":" ","LANE":"９８巷","ALLEY":"３４弄","HOUSE_NO":"１３號","E_COORD97":175527.92999999999,"N_COORD97":2546058.3900000001,"ADDRESS":"富強路一段９８巷３４弄１３號","OBJECTID":93585},"geometry":{"x":175527.9299999997,"y":2546058.3900000006}},{"attributes":{"ID":93586,"DIS_CODE":0,"TOWNNAME":"學甲區","LI":"秀昌里","LIN":"9鄰","STREET":" ","SECT":" ","MAREA":"一秀","LANE":" ","ALLEY":" ","HOUSE_NO":"８７號","E_COORD97":165850.37,"N_COORD97":2570890.8999999999,"ADDRESS":"一秀８７號","OBJECTID":93586},"geometry":{"x":165850.37000000011,"y":2570890.9000000041}},{"attributes":{"ID":93587,"DIS_CODE":0,"TOWNNAME":"永康區","LI":"西勢里","LIN":"21鄰","STREET":"富強路","SECT":"一段","MAREA":" ","LANE":"９８巷","ALLEY":"３４弄","HOUSE_NO":"１２號","E_COORD97":175533.26000000001,"N_COORD97":2546082.8700000001,"ADDRESS":"富強路一段９８巷３４弄１２號","OBJECTID":93587},"geometry":{"x":175533.26000000071,"y":2546082.870000001}},{"attributes":{"ID":93588,"DIS_CODE":0,"TOWNNAME":"永康區","LI":"西勢里","LIN":"21鄰","STREET":"富強路","SECT":"一段","MAREA":" ","LANE":"９８巷","ALLEY":"３８弄","HOUSE_NO":"１９號","E_COORD97":175551.44,"N_COORD97":2546039.6499999999,"ADDRESS":"富強路一段９８巷３８弄１９號","OBJECTID":93588},"geometry":{"x":175551.44000000134,"y":2546039.6500000004}},{"attributes":{"ID":93589,"DIS_CODE":0,"TOWNNAME":"永康區","LI":"西勢里","LIN":"21鄰","STREET":"富強路","SECT":"一段","MAREA":" ","LANE":"１３巷","ALLEY":"２弄","HOUSE_NO":"６號","E_COORD97":175372.26000000001,"N_COORD97":2546057.77,"ADDRESS":"富強路一段１３巷２弄６號","OBJECTID":93589},"geometry":{"x":175372.26000000071,"y":2546057.7700000014}},{"attributes":{"ID":93590,"DIS_CODE":0,"TOWNNAME":"安平區","LI":"港仔里","LIN":"8鄰","STREET":"運河路","SECT":" ","MAREA":" ","LANE":" ","ALLEY":" ","HOUSE_NO":"１號","E_COORD97":164256.48999999999,"N_COORD97":2544405.9399999999,"ADDRESS":"運河路１號","OBJECTID":93590},"geometry":{"x":164256.49000000022,"y":2544405.9399999995}},{"attributes":{"ID":93591,"DIS_CODE":0,"TOWNNAME":"安平區","LI":"海頭里","LIN":"8鄰","STREET":"安平路","SECT":" ","MAREA":" ","LANE":" ","ALLEY":" ","HOUSE_NO":"７９４號","E_COORD97":164010.94,"N_COORD97":2544571.2200000002,"ADDRESS":"安平路７９４號","OBJECTID":93591},"geometry":{"x":164010.94000000041,"y":2544571.2200000007}},{"attributes":{"ID":93592,"DIS_CODE":0,"TOWNNAME":"安平區","LI":"海頭里","LIN":"8鄰","STREET":"延平街","SECT":" ","MAREA":" ","LANE":" ","ALLEY":" ","HOUSE_NO":"１３８號","E_COORD97":164072.88,"N_COORD97":2544614.4900000002,"ADDRESS":"延平街１３８號","OBJECTID":93592},"geometry":{"x":164072.88000000082,"y":2544614.4900000039}},{"attributes":{"ID":93593,"DIS_CODE":0,"TOWNNAME":"安平區","LI":"海頭里","LIN":"8鄰","STREET":"延平街","SECT":" ","MAREA":" ","LANE":" ","ALLEY":" ","HOUSE_NO":"１４０號","E_COORD97":164067.35000000001,"N_COORD97":2544614.6299999999,"ADDRESS":"延平街１４０號","OBJECTID":93593},"geometry":{"x":164067.34999999963,"y":2544614.629999999}},{"attributes":{"ID":93594,"DIS_CODE":0,"TOWNNAME":"永康區","LI":"西橋里","LIN":"21鄰","STREET":"大橋三街","SECT":" ","MAREA":" ","LANE":"５７巷","ALLEY":"７弄","HOUSE_NO":"８８號","E_COORD97":170444.17999999999,"N_COORD97":2546403.8799999999,"ADDRESS":"大橋三街５７巷７弄８８號","OBJECTID":93594},"geometry":{"x":170444.1799999997,"y":2546403.8800000027}},{"attributes":{"ID":93595,"DIS_CODE":0,"TOWNNAME":"永康區","LI":"西勢里","LIN":"21鄰","STREET":"富強路","SECT":"一段","MAREA":" ","LANE":"９８巷","ALLEY":"５６弄","HOUSE_NO":"３１號","E_COORD97":175555.39000000001,"N_COORD97":2545998.6499999999,"ADDRESS":"富強路一段９８巷５６弄３１號","OBJECTID":93595},"geometry":{"x":175555.38999999966,"y":2545998.6500000004}},{"attributes":{"ID":93596,"DIS_CODE":0,"TOWNNAME":"永康區","LI":"西勢里","LIN":"21鄰","STREET":"富強路","SECT":"一段","MAREA":" ","LANE":"９８巷","ALLEY":"５６弄","HOUSE_NO":"１２號","E_COORD97":175580.88,"N_COORD97":2546041.1499999999,"ADDRESS":"富強路一段９８巷５６弄１２號","OBJECTID":93596},"geometry":{"x":175580.87999999989,"y":2546041.1500000041}},{"attributes":{"ID":93597,"DIS_CODE":0,"TOWNNAME":"永康區","LI":"西勢里","LIN":"21鄰","STREET":"富強路","SECT":"一段","MAREA":" ","LANE":"９８巷","ALLEY":"３８弄","HOUSE_NO":"１７號","E_COORD97":175555.04000000001,"N_COORD97":2546043.6400000001,"ADDRESS":"富強路一段９８巷３８弄１７號","OBJECTID":93597},"geometry":{"x":175555.0400000019,"y":2546043.6400000006}},{"attributes":{"ID":93598,"DIS_CODE":0,"TOWNNAME":"東區","LI":"自強里","LIN":"21鄰","STREET":"中華東路","SECT":"二段","MAREA":" ","LANE":"２０３巷","ALLEY":"１９弄","HOUSE_NO":"２８號","E_COORD97":171421.07000000001,"N_COORD97":2542623.9700000002,"ADDRESS":"中華東路二段２０３巷１９弄２８號","OBJECTID":93598},"geometry":{"x":171421.07000000123,"y":2542623.9700000007}},{"attributes":{"ID":93599,"DIS_CODE":0,"TOWNNAME":"東區","LI":"虎尾里","LIN":"21鄰","STREET":"東門路","SECT":"三段","MAREA":" ","LANE":"２７３巷","ALLEY":"２４弄","HOUSE_NO":"１１號","E_COORD97":171773.06,"N_COORD97":2541933.3399999999,"ADDRESS":"東門路三段２７３巷２４弄１１號","OBJECTID":93599},"geometry":{"x":171773.06000000052,"y":2541933.3400000036}},{"attributes":{"ID":93600,"DIS_CODE":0,"TOWNNAME":"東區","LI":"虎尾里","LIN":"21鄰","STREET":"東門路","SECT":"三段","MAREA":" ","LANE":"２７３巷","ALLEY":"２４弄","HOUSE_NO":"１２號","E_COORD97":171760.73000000001,"N_COORD97":2541893.7000000002,"ADDRESS":"東門路三段２７３巷２４弄１２號","OBJECTID":93600},"geometry":{"x":171760.73000000138,"y":2541893.7000000011}}]}