{"displayFieldName":"TOWNNAME","fieldAliases":{"ID":"ID","DIS_CODE":"DIS_CODE","TOWNNAME":"TOWNNAME","LI":"LI","LIN":"LIN","STREET":"STREET","SECT":"SECT","MAREA":"MAREA","LANE":"LANE","ALLEY":"ALLEY","HOUSE_NO":"HOUSE_NO","E_COORD97":"E_COORD97","N_COORD97":"N_COORD97","ADDRESS":"ADDRESS","OBJECTID":"OBJECTID"},"geometryType":"esriGeometryPoint","spatialReference":{"wkid":102443,"latestWkid":3826},"fields":[{"name":"ID","type":"esriFieldTypeDouble","alias":"ID"},{"name":"DIS_CODE","type":"esriFieldTypeInteger","alias":"DIS_CODE"},{"name":"TOWNNAME","type":"esriFieldTypeString","alias":"TOWNNAME","length":8},{"name":"LI","type":"esriFieldTypeString","alias":"LI","length":8},{"name":"LIN","type":"esriFieldTypeString","alias":"LIN","length":12},{"name":"STREET","type":"esriFieldTypeString","alias":"STREET","length":20},{"name":"SECT","type":"esriFieldTypeString","alias":"SECT","length":8},{"name":"MAREA","type":"esriFieldTypeString","alias":"MAREA","length":12},{"name":"LANE","type":"esriFieldTypeString","alias":"LANE","length":10},{"name":"ALLEY","type":"esriFieldTypeString","alias":"ALLEY","length":10},{"name":"HOUSE_NO","type":"esriFieldTypeString","alias":"HOUSE_NO","length":20},{"name":"E_COORD97","type":"esriFieldTypeDouble","alias":"E_COORD97"},{"name":"N_COORD97","type":"esriFieldTypeDouble","alias":"N_COORD97"},{"name":"ADDRESS","type":"esriFieldTypeString","alias":"ADDRESS","length":50},{"name":"OBJECTID","type":"esriFieldTypeOID","alias":"OBJECTID"}],"features":[{"attributes":{"ID":537628,"DIS_CODE":0,"TOWNNAME":"西港區","LI":"慶安里","LIN":"19鄰","STREET":"慶安路","SECT":" ","MAREA":" ","LANE":" ","ALLEY":" ","HOUSE_NO":"４號","E_COORD97":168377.42000000001,"N_COORD97":2557937.2000000002,"ADDRESS":"慶安路４號","OBJECTID":537601},"geometry":{"x":168377.41999999993,"y":2557937.2000000011}},{"attributes":{"ID":537629,"DIS_CODE":0,"TOWNNAME":"西港區","LI":"慶安里","LIN":"19鄰","STREET":"慶安路","SECT":" ","MAREA":" ","LANE":" ","ALLEY":" ","HOUSE_NO":"６號","E_COORD97":168373.64999999999,"N_COORD97":2557936.4300000002,"ADDRESS":"慶安路６號","OBJECTID":537602},"geometry":{"x":168373.64999999944,"y":2557936.4300000016}},{"attributes":{"ID":537630,"DIS_CODE":0,"TOWNNAME":"西港區","LI":"慶安里","LIN":"19鄰","STREET":"慶安路","SECT":" ","MAREA":" ","LANE":" ","ALLEY":" ","HOUSE_NO":"８號","E_COORD97":168368.85000000001,"N_COORD97":2557936.96,"ADDRESS":"慶安路８號","OBJECTID":537603},"geometry":{"x":168368.85000000056,"y":2557936.9600000028}},{"attributes":{"ID":537631,"DIS_CODE":0,"TOWNNAME":"白河區","LI":"白河里","LIN":"19鄰","STREET":"中山路","SECT":" ","MAREA":" ","LANE":" ","ALLEY":" ","HOUSE_NO":"２１４號","E_COORD97":190493.22,"N_COORD97":2583521.46,"ADDRESS":"中山路２１４號","OBJECTID":537604},"geometry":{"x":190493.2200000016,"y":2583521.4600000028}},{"attributes":{"ID":537632,"DIS_CODE":0,"TOWNNAME":"南區","LI":"彰南里","LIN":"19鄰","STREET":"新樂路","SECT":" ","MAREA":" ","LANE":" ","ALLEY":" ","HOUSE_NO":"６０之１號","E_COORD97":165521.35000000001,"N_COORD97":2541284.3300000001,"ADDRESS":"新樂路６０之１號","OBJECTID":537605},"geometry":{"x":165521.34999999963,"y":2541284.3300000019}},{"attributes":{"ID":537633,"DIS_CODE":0,"TOWNNAME":"南區","LI":"新興里","LIN":"19鄰","STREET":"新興路","SECT":" ","MAREA":" ","LANE":" ","ALLEY":" ","HOUSE_NO":"１８２號","E_COORD97":167345.23999999999,"N_COORD97":2542014.75,"ADDRESS":"新興路１８２號","OBJECTID":537606},"geometry":{"x":167345.24000000022,"y":2542014.75}},{"attributes":{"ID":537634,"DIS_CODE":0,"TOWNNAME":"南區","LI":"建南里","LIN":"19鄰","STREET":"明興路","SECT":" ","MAREA":" ","LANE":" ","ALLEY":" ","HOUSE_NO":"２５９號","E_COORD97":166571.20000000001,"N_COORD97":2539678.1000000001,"ADDRESS":"明興路２５９號","OBJECTID":537607},"geometry":{"x":166571.20000000205,"y":2539678.1000000015}},{"attributes":{"ID":537635,"DIS_CODE":0,"TOWNNAME":"南區","LI":"建南里","LIN":"19鄰","STREET":"明興路","SECT":" ","MAREA":" ","LANE":" ","ALLEY":" ","HOUSE_NO":"３０５號","E_COORD97":166408.35000000001,"N_COORD97":2539088.0800000001,"ADDRESS":"明興路３０５號","OBJECTID":537608},"geometry":{"x":166408.34999999963,"y":2539088.0800000019}},{"attributes":{"ID":537636,"DIS_CODE":0,"TOWNNAME":"南區","LI":"新生里","LIN":"19鄰","STREET":"健康路","SECT":"一段","MAREA":" ","LANE":" ","ALLEY":" ","HOUSE_NO":"７７號","E_COORD97":169128.31,"N_COORD97":2542259.4300000002,"ADDRESS":"健康路一段７７號","OBJECTID":537609},"geometry":{"x":169128.31000000052,"y":2542259.4300000016}},{"attributes":{"ID":537637,"DIS_CODE":0,"TOWNNAME":"南區","LI":"彰南里","LIN":"19鄰","STREET":"新樂路","SECT":" ","MAREA":" ","LANE":" ","ALLEY":" ","HOUSE_NO":"３０之１號","E_COORD97":165650.48999999999,"N_COORD97":2541812.7000000002,"ADDRESS":"新樂路３０之１號","OBJECTID":537610},"geometry":{"x":165650.49000000209,"y":2541812.7000000011}},{"attributes":{"ID":537638,"DIS_CODE":0,"TOWNNAME":"南區","LI":"彰南里","LIN":"19鄰","STREET":"新樂路","SECT":" ","MAREA":" ","LANE":" ","ALLEY":" ","HOUSE_NO":"３０之２號","E_COORD97":165648.59,"N_COORD97":2541794.5899999999,"ADDRESS":"新樂路３０之２號","OBJECTID":537611},"geometry":{"x":165648.58999999985,"y":2541794.5899999999}},{"attributes":{"ID":537639,"DIS_CODE":0,"TOWNNAME":"東區","LI":"大福里","LIN":"19鄰","STREET":"立德七路","SECT":" ","MAREA":" ","LANE":" ","ALLEY":" ","HOUSE_NO":"２５號","E_COORD97":169542.73000000001,"N_COORD97":2541910.3399999999,"ADDRESS":"立德七路２５號","OBJECTID":537612},"geometry":{"x":169542.73000000045,"y":2541910.3400000017}},{"attributes":{"ID":537640,"DIS_CODE":0,"TOWNNAME":"東區","LI":"大福里","LIN":"19鄰","STREET":"立德八路","SECT":" ","MAREA":" ","LANE":" ","ALLEY":" ","HOUSE_NO":"４２號","E_COORD97":169522.51000000001,"N_COORD97":2541922.9100000001,"ADDRESS":"立德八路４２號","OBJECTID":537613},"geometry":{"x":169522.51000000071,"y":2541922.9100000039}},{"attributes":{"ID":537641,"DIS_CODE":0,"TOWNNAME":"東區","LI":"大福里","LIN":"19鄰","STREET":"立德八路","SECT":" ","MAREA":" ","LANE":" ","ALLEY":" ","HOUSE_NO":"４６號","E_COORD97":169527.09,"N_COORD97":2541923.29,"ADDRESS":"立德八路４６號","OBJECTID":537614},"geometry":{"x":169527.09000000078,"y":2541923.290000001}},{"attributes":{"ID":537642,"DIS_CODE":0,"TOWNNAME":"東區","LI":"大福里","LIN":"19鄰","STREET":"立德八路","SECT":" ","MAREA":" ","LANE":" ","ALLEY":" ","HOUSE_NO":"４８號","E_COORD97":169531.67000000001,"N_COORD97":2541923.6699999999,"ADDRESS":"立德八路４８號","OBJECTID":537615},"geometry":{"x":169531.67000000086,"y":2541923.6699999999}},{"attributes":{"ID":537643,"DIS_CODE":0,"TOWNNAME":"東區","LI":"大福里","LIN":"19鄰","STREET":"立德八路","SECT":" ","MAREA":" ","LANE":" ","ALLEY":" ","HOUSE_NO":"５０號","E_COORD97":169535.85999999999,"N_COORD97":2541924.0499999998,"ADDRESS":"立德八路５０號","OBJECTID":537616},"geometry":{"x":169535.86000000127,"y":2541924.0500000026}},{"attributes":{"ID":537644,"DIS_CODE":0,"TOWNNAME":"東區","LI":"大福里","LIN":"19鄰","STREET":"立德八路","SECT":" ","MAREA":" ","LANE":" ","ALLEY":" ","HOUSE_NO":"５２號","E_COORD97":169540.44,"N_COORD97":2541924.8100000001,"ADDRESS":"立德八路５２號","OBJECTID":537617},"geometry":{"x":169540.44000000134,"y":2541924.8100000024}},{"attributes":{"ID":537645,"DIS_CODE":0,"TOWNNAME":"東區","LI":"大福里","LIN":"19鄰","STREET":"立德八路","SECT":" ","MAREA":" ","LANE":" ","ALLEY":" ","HOUSE_NO":"５４號","E_COORD97":169544.26000000001,"N_COORD97":2541927.48,"ADDRESS":"立德八路５４號","OBJECTID":537618},"geometry":{"x":169544.26000000071,"y":2541927.4800000023}},{"attributes":{"ID":537646,"DIS_CODE":0,"TOWNNAME":"東區","LI":"大福里","LIN":"19鄰","STREET":"立德七路","SECT":" ","MAREA":" ","LANE":" ","ALLEY":" ","HOUSE_NO":"２７號","E_COORD97":169547.66,"N_COORD97":2541911.7200000002,"ADDRESS":"立德七路２７號","OBJECTID":537619},"geometry":{"x":169547.66000000015,"y":2541911.7200000025}},{"attributes":{"ID":537647,"DIS_CODE":0,"TOWNNAME":"東區","LI":"大福里","LIN":"19鄰","STREET":"立德八路","SECT":" ","MAREA":" ","LANE":" ","ALLEY":" ","HOUSE_NO":"４０號","E_COORD97":169514.88,"N_COORD97":2541920.2400000002,"ADDRESS":"立德八路４０號","OBJECTID":537620},"geometry":{"x":169514.88000000082,"y":2541920.2400000002}},{"attributes":{"ID":537648,"DIS_CODE":0,"TOWNNAME":"東區","LI":"大福里","LIN":"19鄰","STREET":"立德七路","SECT":" ","MAREA":" ","LANE":" ","ALLEY":" ","HOUSE_NO":"１１號","E_COORD97":169513.73999999999,"N_COORD97":2541906.5299999998,"ADDRESS":"立德七路１１號","OBJECTID":537621},"geometry":{"x":169513.73999999929,"y":2541906.5299999993}},{"attributes":{"ID":537649,"DIS_CODE":0,"TOWNNAME":"東區","LI":"大福里","LIN":"19鄰","STREET":"立德七路","SECT":" ","MAREA":" ","LANE":" ","ALLEY":" ","HOUSE_NO":"１號","E_COORD97":169489.70000000001,"N_COORD97":2541901.9500000002,"ADDRESS":"立德七路１號","OBJECTID":537622},"geometry":{"x":169489.70000000019,"y":2541901.9500000011}},{"attributes":{"ID":537650,"DIS_CODE":0,"TOWNNAME":"東區","LI":"大福里","LIN":"19鄰","STREET":"立德七路","SECT":" ","MAREA":" ","LANE":" ","ALLEY":" ","HOUSE_NO":"３號","E_COORD97":169493.51999999999,"N_COORD97":2541901.5699999998,"ADDRESS":"立德七路３號","OBJECTID":537623},"geometry":{"x":169493.51999999955,"y":2541901.5699999984}},{"attributes":{"ID":537651,"DIS_CODE":0,"TOWNNAME":"東區","LI":"大福里","LIN":"19鄰","STREET":"立德七路","SECT":" ","MAREA":" ","LANE":" ","ALLEY":" ","HOUSE_NO":"５號","E_COORD97":169497.32999999999,"N_COORD97":2541903.1000000001,"ADDRESS":"立德七路５號","OBJECTID":537624},"geometry":{"x":169497.33000000007,"y":2541903.0999999996}},{"attributes":{"ID":537652,"DIS_CODE":0,"TOWNNAME":"東區","LI":"大福里","LIN":"19鄰","STREET":"立德七路","SECT":" ","MAREA":" ","LANE":" ","ALLEY":" ","HOUSE_NO":"７號","E_COORD97":169505.34,"N_COORD97":2541904.6200000001,"ADDRESS":"立德七路７號","OBJECTID":537625},"geometry":{"x":169505.33999999985,"y":2541904.620000001}},{"attributes":{"ID":537653,"DIS_CODE":0,"TOWNNAME":"東區","LI":"大福里","LIN":"19鄰","STREET":"立德七路","SECT":" ","MAREA":" ","LANE":" ","ALLEY":" ","HOUSE_NO":"９號","E_COORD97":169510.29999999999,"N_COORD97":2541905.7599999998,"ADDRESS":"立德七路９號","OBJECTID":537626},"geometry":{"x":169510.30000000075,"y":2541905.7599999998}},{"attributes":{"ID":537654,"DIS_CODE":0,"TOWNNAME":"東區","LI":"大福里","LIN":"19鄰","STREET":"立德八路","SECT":" ","MAREA":" ","LANE":" ","ALLEY":" ","HOUSE_NO":"２８號","E_COORD97":169486.26999999999,"N_COORD97":2541915.29,"ADDRESS":"立德八路２８號","OBJECTID":537627},"geometry":{"x":169486.27000000048,"y":2541915.2899999991}},{"attributes":{"ID":537655,"DIS_CODE":0,"TOWNNAME":"東區","LI":"大福里","LIN":"19鄰","STREET":"立德八路","SECT":" ","MAREA":" ","LANE":" ","ALLEY":" ","HOUSE_NO":"３０號","E_COORD97":169491.23000000001,"N_COORD97":2541915.6699999999,"ADDRESS":"立德八路３０號","OBJECTID":537628},"geometry":{"x":169491.23000000138,"y":2541915.6700000018}},{"attributes":{"ID":537656,"DIS_CODE":0,"TOWNNAME":"東區","LI":"大福里","LIN":"19鄰","STREET":"立德八路","SECT":" ","MAREA":" ","LANE":" ","ALLEY":" ","HOUSE_NO":"３２號","E_COORD97":169495.04000000001,"N_COORD97":2541917.1899999999,"ADDRESS":"立德八路３２號","OBJECTID":537629},"geometry":{"x":169495.04000000097,"y":2541917.1900000032}},{"attributes":{"ID":537657,"DIS_CODE":0,"TOWNNAME":"東區","LI":"大福里","LIN":"19鄰","STREET":"立德八路","SECT":" ","MAREA":" ","LANE":" ","ALLEY":" ","HOUSE_NO":"３４號","E_COORD97":169502.67000000001,"N_COORD97":2541918.7200000002,"ADDRESS":"立德八路３４號","OBJECTID":537630},"geometry":{"x":169502.67000000086,"y":2541918.7200000025}},{"attributes":{"ID":537658,"DIS_CODE":0,"TOWNNAME":"東區","LI":"大福里","LIN":"19鄰","STREET":"立德八路","SECT":" ","MAREA":" ","LANE":" ","ALLEY":" ","HOUSE_NO":"３６號","E_COORD97":169506.87,"N_COORD97":2541919.1000000001,"ADDRESS":"立德八路３６號","OBJECTID":537631},"geometry":{"x":169506.87000000104,"y":2541919.1000000015}},{"attributes":{"ID":537659,"DIS_CODE":0,"TOWNNAME":"東區","LI":"大福里","LIN":"19鄰","STREET":"立德八路","SECT":" ","MAREA":" ","LANE":" ","ALLEY":" ","HOUSE_NO":"３８號","E_COORD97":169511.07000000001,"N_COORD97":2541919.8599999999,"ADDRESS":"立德八路３８號","OBJECTID":537632},"geometry":{"x":169511.0700000003,"y":2541919.8600000013}},{"attributes":{"ID":537660,"DIS_CODE":0,"TOWNNAME":"東區","LI":"龍山里","LIN":"19鄰","STREET":"德光街","SECT":" ","MAREA":" ","LANE":" ","ALLEY":" ","HOUSE_NO":"２８號","E_COORD97":170510.92999999999,"N_COORD97":2542670.8399999999,"ADDRESS":"德光街２８號","OBJECTID":537633},"geometry":{"x":170510.93000000063,"y":2542670.8399999999}},{"attributes":{"ID":537661,"DIS_CODE":0,"TOWNNAME":"東區","LI":"龍山里","LIN":"19鄰","STREET":"德光街","SECT":" ","MAREA":" ","LANE":" ","ALLEY":" ","HOUSE_NO":"３２號","E_COORD97":170507.34,"N_COORD97":2542665.3900000001,"ADDRESS":"德光街３２號","OBJECTID":537634},"geometry":{"x":170507.33999999985,"y":2542665.3900000006}},{"attributes":{"ID":537662,"DIS_CODE":0,"TOWNNAME":"善化區","LI":"文昌里","LIN":"19鄰","STREET":"中正路","SECT":" ","MAREA":" ","LANE":" ","ALLEY":" ","HOUSE_NO":"２３０號","E_COORD97":177713.42000000001,"N_COORD97":2558333,"ADDRESS":"中正路２３０號","OBJECTID":537635},"geometry":{"x":177713.41999999993,"y":2558333.0000000019}},{"attributes":{"ID":537663,"DIS_CODE":0,"TOWNNAME":"善化區","LI":"光文里","LIN":"19鄰","STREET":"民生路","SECT":" ","MAREA":" ","LANE":" ","ALLEY":" ","HOUSE_NO":"３００號","E_COORD97":178154.48000000001,"N_COORD97":2558922.0099999998,"ADDRESS":"民生路３００號","OBJECTID":537636},"geometry":{"x":178154.48000000231,"y":2558922.0100000016}},{"attributes":{"ID":537664,"DIS_CODE":0,"TOWNNAME":"善化區","LI":"光文里","LIN":"19鄰","STREET":"民生路","SECT":" ","MAREA":" ","LANE":" ","ALLEY":" ","HOUSE_NO":"３０８號","E_COORD97":178133.82000000001,"N_COORD97":2558918.7599999998,"ADDRESS":"民生路３０８號","OBJECTID":537637},"geometry":{"x":178133.82000000123,"y":2558918.7599999998}},{"attributes":{"ID":537665,"DIS_CODE":0,"TOWNNAME":"善化區","LI":"光文里","LIN":"19鄰","STREET":"民生路","SECT":" ","MAREA":" ","LANE":" ","ALLEY":" ","HOUSE_NO":"２９２號","E_COORD97":178168.76999999999,"N_COORD97":2558924.2599999998,"ADDRESS":"民生路２９２號","OBJECTID":537638},"geometry":{"x":178168.77000000048,"y":2558924.2600000016}},{"attributes":{"ID":537666,"DIS_CODE":0,"TOWNNAME":"善化區","LI":"文昌里","LIN":"19鄰","STREET":"光復路","SECT":" ","MAREA":" ","LANE":" ","ALLEY":" ","HOUSE_NO":"１７５號之１","E_COORD97":177344.13,"N_COORD97":2558587.27,"ADDRESS":"光復路１７５號之１","OBJECTID":537639},"geometry":{"x":177344.12999999989,"y":2558587.2700000033}},{"attributes":{"ID":537667,"DIS_CODE":0,"TOWNNAME":"善化區","LI":"文昌里","LIN":"19鄰","STREET":"中正路","SECT":" ","MAREA":" ","LANE":" ","ALLEY":" ","HOUSE_NO":"２６９號","E_COORD97":177692.07000000001,"N_COORD97":2558339,"ADDRESS":"中正路２６９號","OBJECTID":537640},"geometry":{"x":177692.0700000003,"y":2558339.0000000019}},{"attributes":{"ID":537668,"DIS_CODE":0,"TOWNNAME":"善化區","LI":"光文里","LIN":"19鄰","STREET":"民生路","SECT":" ","MAREA":" ","LANE":" ","ALLEY":" ","HOUSE_NO":"２８８號","E_COORD97":178178.79000000001,"N_COORD97":2558925.7599999998,"ADDRESS":"民生路２８８號","OBJECTID":537641},"geometry":{"x":178178.79000000004,"y":2558925.7599999998}},{"attributes":{"ID":537669,"DIS_CODE":0,"TOWNNAME":"善化區","LI":"文昌里","LIN":"19鄰","STREET":"中正路","SECT":" ","MAREA":" ","LANE":" ","ALLEY":" ","HOUSE_NO":"２８５號","E_COORD97":177674.29999999999,"N_COORD97":2558358.75,"ADDRESS":"中正路２８５號","OBJECTID":537642},"geometry":{"x":177674.30000000075,"y":2558358.7500000019}},{"attributes":{"ID":537670,"DIS_CODE":0,"TOWNNAME":"善化區","LI":"文昌里","LIN":"19鄰","STREET":"中正路","SECT":" ","MAREA":" ","LANE":" ","ALLEY":" ","HOUSE_NO":"２９９號","E_COORD97":177690.13,"N_COORD97":2558379.75,"ADDRESS":"中正路２９９號","OBJECTID":537643},"geometry":{"x":177690.13000000175,"y":2558379.75}},{"attributes":{"ID":537671,"DIS_CODE":0,"TOWNNAME":"善化區","LI":"文昌里","LIN":"19鄰","STREET":"中正路","SECT":" ","MAREA":" ","LANE":" ","ALLEY":" ","HOUSE_NO":"２４８號","E_COORD97":177712.35999999999,"N_COORD97":2558372,"ADDRESS":"中正路２４８號","OBJECTID":537644},"geometry":{"x":177712.36000000034,"y":2558372}},{"attributes":{"ID":537672,"DIS_CODE":0,"TOWNNAME":"善化區","LI":"光文里","LIN":"19鄰","STREET":"信義路","SECT":" ","MAREA":" ","LANE":" ","ALLEY":" ","HOUSE_NO":"１１５號","E_COORD97":178251.76999999999,"N_COORD97":2558892.5,"ADDRESS":"信義路１１５號","OBJECTID":537645},"geometry":{"x":178251.77000000048,"y":2558892.5000000019}},{"attributes":{"ID":537673,"DIS_CODE":0,"TOWNNAME":"善化區","LI":"文昌里","LIN":"19鄰","STREET":"中正路","SECT":" ","MAREA":" ","LANE":" ","ALLEY":" ","HOUSE_NO":"２３８號","E_COORD97":177712.69,"N_COORD97":2558356,"ADDRESS":"中正路２３８號","OBJECTID":537646},"geometry":{"x":177712.69000000134,"y":2558356.0000000019}},{"attributes":{"ID":537674,"DIS_CODE":0,"TOWNNAME":"善化區","LI":"文昌里","LIN":"19鄰","STREET":"中正路","SECT":" ","MAREA":" ","LANE":" ","ALLEY":" ","HOUSE_NO":"３３９號","E_COORD97":177671.63,"N_COORD97":2558462.75,"ADDRESS":"中正路３３９號","OBJECTID":537647},"geometry":{"x":177671.63000000082,"y":2558462.7500000019}},{"attributes":{"ID":537675,"DIS_CODE":0,"TOWNNAME":"善化區","LI":"文昌里","LIN":"19鄰","STREET":"光復路","SECT":" ","MAREA":" ","LANE":" ","ALLEY":" ","HOUSE_NO":"１７５號之２","E_COORD97":177293.51000000001,"N_COORD97":2558581.02,"ADDRESS":"光復路１７５號之２","OBJECTID":537648},"geometry":{"x":177293.50999999978,"y":2558581.0199999996}},{"attributes":{"ID":537676,"DIS_CODE":0,"TOWNNAME":"善化區","LI":"文昌里","LIN":"19鄰","STREET":"光復路","SECT":" ","MAREA":" ","LANE":" ","ALLEY":" ","HOUSE_NO":"２６９號","E_COORD97":177184.87,"N_COORD97":2558542.2599999998,"ADDRESS":"光復路２６９號","OBJECTID":537649},"geometry":{"x":177184.87000000011,"y":2558542.2599999998}},{"attributes":{"ID":537677,"DIS_CODE":0,"TOWNNAME":"善化區","LI":"文昌里","LIN":"19鄰","STREET":"中正路","SECT":" ","MAREA":" ","LANE":" ","ALLEY":" ","HOUSE_NO":"３１１號","E_COORD97":177689.42000000001,"N_COORD97":2558417.5,"ADDRESS":"中正路３１１號","OBJECTID":537650},"geometry":{"x":177689.41999999993,"y":2558417.5000000019}},{"attributes":{"ID":537678,"DIS_CODE":0,"TOWNNAME":"善化區","LI":"文昌里","LIN":"19鄰","STREET":"光復路","SECT":" ","MAREA":" ","LANE":" ","ALLEY":" ","HOUSE_NO":"２６７號","E_COORD97":177203.94,"N_COORD97":2558543.0099999998,"ADDRESS":"光復路２６７號","OBJECTID":537651},"geometry":{"x":177203.94000000134,"y":2558543.0100000016}},{"attributes":{"ID":537679,"DIS_CODE":0,"TOWNNAME":"善化區","LI":"文昌里","LIN":"19鄰","STREET":"中正路","SECT":" ","MAREA":" ","LANE":" ","ALLEY":" ","HOUSE_NO":"２２２號","E_COORD97":177713.67000000001,"N_COORD97":2558314.75,"ADDRESS":"中正路２２２號","OBJECTID":537652},"geometry":{"x":177713.67000000179,"y":2558314.75}},{"attributes":{"ID":537680,"DIS_CODE":0,"TOWNNAME":"善化區","LI":"文昌里","LIN":"19鄰","STREET":"中正路","SECT":" ","MAREA":" ","LANE":" ","ALLEY":" ","HOUSE_NO":"２２６號","E_COORD97":177716.62,"N_COORD97":2558324,"ADDRESS":"中正路２２６號","OBJECTID":537653},"geometry":{"x":177716.62000000104,"y":2558324}},{"attributes":{"ID":537681,"DIS_CODE":0,"TOWNNAME":"安南區","LI":"長安里","LIN":"19鄰","STREET":"公學路","SECT":"二段","MAREA":" ","LANE":" ","ALLEY":" ","HOUSE_NO":"１７４號","E_COORD97":167570.45000000001,"N_COORD97":2552189.1899999999,"ADDRESS":"公學路二段１７４號","OBJECTID":537654},"geometry":{"x":167570.45000000112,"y":2552189.1899999995}},{"attributes":{"ID":537682,"DIS_CODE":0,"TOWNNAME":"中西區","LI":"協和里","LIN":" ","STREET":"永和街","SECT":" ","MAREA":" ","LANE":" ","ALLEY":" ","HOUSE_NO":"１９０號","E_COORD97":167235.39000000001,"N_COORD97":2544780.6299999999,"ADDRESS":"永和街１９０號","OBJECTID":537655},"geometry":{"x":167235.38999999966,"y":2544780.629999999}},{"attributes":{"ID":537683,"DIS_CODE":0,"TOWNNAME":"仁德區","LI":"土庫里","LIN":"19鄰","STREET":"太子一街","SECT":" ","MAREA":" ","LANE":" ","ALLEY":" ","HOUSE_NO":"２６８號","E_COORD97":174523.17999999999,"N_COORD97":2543225.0099999998,"ADDRESS":"太子一街２６８號","OBJECTID":537656},"geometry":{"x":174523.18000000063,"y":2543225.0100000016}},{"attributes":{"ID":537684,"DIS_CODE":0,"TOWNNAME":"仁德區","LI":"土庫里","LIN":"19鄰","STREET":"土庫一街","SECT":" ","MAREA":" ","LANE":" ","ALLEY":" ","HOUSE_NO":"３３號","E_COORD97":174503.70999999999,"N_COORD97":2542971.7400000002,"ADDRESS":"土庫一街３３號","OBJECTID":537657},"geometry":{"x":174503.70999999996,"y":2542971.7400000039}},{"attributes":{"ID":537685,"DIS_CODE":0,"TOWNNAME":"仁德區","LI":"仁義里","LIN":"19鄰","STREET":"中山路","SECT":" ","MAREA":" ","LANE":" ","ALLEY":" ","HOUSE_NO":"３０２號","E_COORD97":174001.82000000001,"N_COORD97":2541256.25,"ADDRESS":"中山路３０２號","OBJECTID":537658},"geometry":{"x":174001.8200000003,"y":2541256.2500000037}},{"attributes":{"ID":537686,"DIS_CODE":0,"TOWNNAME":"仁德區","LI":"土庫里","LIN":"19鄰","STREET":"太子一街","SECT":" ","MAREA":" ","LANE":" ","ALLEY":" ","HOUSE_NO":"２４６號","E_COORD97":174563.31,"N_COORD97":2543250.5,"ADDRESS":"太子一街２４６號","OBJECTID":537659},"geometry":{"x":174563.31000000052,"y":2543250.5}},{"attributes":{"ID":537687,"DIS_CODE":0,"TOWNNAME":"仁德區","LI":"仁義里","LIN":"19鄰","STREET":"中山路","SECT":" ","MAREA":" ","LANE":" ","ALLEY":" ","HOUSE_NO":"３０６號","E_COORD97":173994.13,"N_COORD97":2541257,"ADDRESS":"中山路３０６號","OBJECTID":537660},"geometry":{"x":173994.12999999989,"y":2541257}},{"attributes":{"ID":537688,"DIS_CODE":0,"TOWNNAME":"仁德區","LI":"土庫里","LIN":"19鄰","STREET":"土庫一街","SECT":" ","MAREA":" ","LANE":" ","ALLEY":" ","HOUSE_NO":"３７號","E_COORD97":170019.66,"N_COORD97":2535893.2400000002,"ADDRESS":"土庫一街３７號","OBJECTID":537661},"geometry":{"x":170019.66000000108,"y":2535893.2400000021}},{"attributes":{"ID":537689,"DIS_CODE":0,"TOWNNAME":"仁德區","LI":"大甲里","LIN":"19鄰","STREET":"行大街","SECT":" ","MAREA":" ","LANE":" ","ALLEY":" ","HOUSE_NO":"４７８之１號","E_COORD97":169333.51999999999,"N_COORD97":2535342.2999999998,"ADDRESS":"行大街４７８之１號","OBJECTID":537662},"geometry":{"x":169333.52000000048,"y":2535342.3000000007}},{"attributes":{"ID":537690,"DIS_CODE":0,"TOWNNAME":"仁德區","LI":"仁義里","LIN":"19鄰","STREET":"中山路","SECT":" ","MAREA":" ","LANE":" ","ALLEY":" ","HOUSE_NO":"２９８號","E_COORD97":174010.26999999999,"N_COORD97":2541254.75,"ADDRESS":"中山路２９８號","OBJECTID":537663},"geometry":{"x":174010.27000000142,"y":2541254.75}},{"attributes":{"ID":537691,"DIS_CODE":0,"TOWNNAME":"仁德區","LI":"仁義里","LIN":"19鄰","STREET":"中山路","SECT":" ","MAREA":" ","LANE":" ","ALLEY":" ","HOUSE_NO":"２９２號","E_COORD97":174024.51000000001,"N_COORD97":2541253.75,"ADDRESS":"中山路２９２號","OBJECTID":537664},"geometry":{"x":174024.51000000071,"y":2541253.7500000019}},{"attributes":{"ID":537692,"DIS_CODE":0,"TOWNNAME":"仁德區","LI":"一甲里","LIN":"19鄰","STREET":"太乙二街","SECT":" ","MAREA":" ","LANE":" ","ALLEY":" ","HOUSE_NO":"５２號","E_COORD97":173418.45999999999,"N_COORD97":2542209.25,"ADDRESS":"太乙二街５２號","OBJECTID":537665},"geometry":{"x":173418.46000000089,"y":2542209.2500000019}},{"attributes":{"ID":537693,"DIS_CODE":0,"TOWNNAME":"仁德區","LI":"一甲里","LIN":"19鄰","STREET":"太乙二街","SECT":" ","MAREA":" ","LANE":" ","ALLEY":" ","HOUSE_NO":"３７號","E_COORD97":173391.66,"N_COORD97":2542192.5099999998,"ADDRESS":"太乙二街３７號","OBJECTID":537666},"geometry":{"x":173391.66000000108,"y":2542192.5099999998}},{"attributes":{"ID":537694,"DIS_CODE":0,"TOWNNAME":"仁德區","LI":"一甲里","LIN":"19鄰","STREET":"太乙二街","SECT":" ","MAREA":" ","LANE":" ","ALLEY":" ","HOUSE_NO":"１１號","E_COORD97":173496.19,"N_COORD97":2542355.75,"ADDRESS":"太乙二街１１號","OBJECTID":537667},"geometry":{"x":173496.19000000041,"y":2542355.7500000019}},{"attributes":{"ID":537695,"DIS_CODE":0,"TOWNNAME":"仁德區","LI":"一甲里","LIN":"19鄰","STREET":"太乙路","SECT":" ","MAREA":" ","LANE":" ","ALLEY":" ","HOUSE_NO":"２１號","E_COORD97":173608.78,"N_COORD97":2542459.75,"ADDRESS":"太乙路２１號","OBJECTID":537668},"geometry":{"x":173608.78000000026,"y":2542459.7500000037}},{"attributes":{"ID":537696,"DIS_CODE":0,"TOWNNAME":"中西區","LI":"保安里","LIN":" ","STREET":"康樂街","SECT":" ","MAREA":" ","LANE":" ","ALLEY":" ","HOUSE_NO":"９６之７號","E_COORD97":167450.23000000001,"N_COORD97":2543690.2000000002,"ADDRESS":"康樂街９６之７號","OBJECTID":537669},"geometry":{"x":167450.23000000045,"y":2543690.2000000011}},{"attributes":{"ID":537697,"DIS_CODE":0,"TOWNNAME":"中西區","LI":"保安里","LIN":" ","STREET":"康樂街","SECT":" ","MAREA":" ","LANE":" ","ALLEY":" ","HOUSE_NO":"９６之８號","E_COORD97":167452.48000000001,"N_COORD97":2543689.4500000002,"ADDRESS":"康樂街９６之８號","OBJECTID":537670},"geometry":{"x":167452.48000000045,"y":2543689.4500000011}},{"attributes":{"ID":537698,"DIS_CODE":0,"TOWNNAME":"中西區","LI":"福安里","LIN":"19鄰","STREET":"中正路","SECT":" ","MAREA":" ","LANE":" ","ALLEY":" ","HOUSE_NO":"１３３號","E_COORD97":167955.60999999999,"N_COORD97":2543666.21,"ADDRESS":"中正路１３３號","OBJECTID":537671},"geometry":{"x":167955.61000000127,"y":2543666.2100000009}},{"attributes":{"ID":537699,"DIS_CODE":0,"TOWNNAME":"中西區","LI":"福安里","LIN":"19鄰","STREET":"中正路","SECT":" ","MAREA":" ","LANE":" ","ALLEY":" ","HOUSE_NO":"１３５號","E_COORD97":167951.75,"N_COORD97":2543666.4700000002,"ADDRESS":"中正路１３５號","OBJECTID":537672},"geometry":{"x":167951.75,"y":2543666.4700000025}},{"attributes":{"ID":537700,"DIS_CODE":0,"TOWNNAME":"中西區","LI":"福安里","LIN":"19鄰","STREET":"中正路","SECT":" ","MAREA":" ","LANE":" ","ALLEY":" ","HOUSE_NO":"１３７號","E_COORD97":167947.84,"N_COORD97":2543667.8100000001,"ADDRESS":"中正路１３７號","OBJECTID":537673},"geometry":{"x":167947.83999999985,"y":2543667.8100000024}},{"attributes":{"ID":537701,"DIS_CODE":0,"TOWNNAME":"中西區","LI":"福安里","LIN":"19鄰","STREET":"中正路","SECT":" ","MAREA":" ","LANE":" ","ALLEY":" ","HOUSE_NO":"１３９號","E_COORD97":167941.98999999999,"N_COORD97":2543668.48,"ADDRESS":"中正路１３９號","OBJECTID":537674},"geometry":{"x":167941.99000000022,"y":2543668.4800000004}},{"attributes":{"ID":537702,"DIS_CODE":0,"TOWNNAME":"中西區","LI":"福安里","LIN":"19鄰","STREET":"中正路","SECT":" ","MAREA":" ","LANE":" ","ALLEY":" ","HOUSE_NO":"１４３號","E_COORD97":167937.47,"N_COORD97":2543669.54,"ADDRESS":"中正路１４３號","OBJECTID":537675},"geometry":{"x":167937.47000000067,"y":2543669.5399999991}},{"attributes":{"ID":537703,"DIS_CODE":0,"TOWNNAME":"中西區","LI":"福安里","LIN":"19鄰","STREET":"中正路","SECT":" ","MAREA":" ","LANE":" ","ALLEY":" ","HOUSE_NO":"１４５號","E_COORD97":167934.67999999999,"N_COORD97":2543670.0699999998,"ADDRESS":"中正路１４５號","OBJECTID":537676},"geometry":{"x":167934.6799999997,"y":2543670.0700000003}},{"attributes":{"ID":537704,"DIS_CODE":0,"TOWNNAME":"中西區","LI":"福安里","LIN":"19鄰","STREET":"中正路","SECT":" ","MAREA":" ","LANE":" ","ALLEY":" ","HOUSE_NO":"１４７號","E_COORD97":167930.42999999999,"N_COORD97":2543671,"ADDRESS":"中正路１４７號","OBJECTID":537677},"geometry":{"x":167930.43000000156,"y":2543671}},{"attributes":{"ID":537705,"DIS_CODE":0,"TOWNNAME":"中西區","LI":"福安里","LIN":"19鄰","STREET":"中正路","SECT":" ","MAREA":" ","LANE":" ","ALLEY":" ","HOUSE_NO":"１５１號","E_COORD97":167925.76999999999,"N_COORD97":2543672.3300000001,"ADDRESS":"中正路１５１號","OBJECTID":537678},"geometry":{"x":167925.76999999955,"y":2543672.3300000001}},{"attributes":{"ID":537706,"DIS_CODE":0,"TOWNNAME":"中西區","LI":"福安里","LIN":"19鄰","STREET":"中正路","SECT":" ","MAREA":" ","LANE":" ","ALLEY":" ","HOUSE_NO":"１５３號","E_COORD97":167922.45000000001,"N_COORD97":2543672.9900000002,"ADDRESS":"中正路１５３號","OBJECTID":537679},"geometry":{"x":167922.45000000112,"y":2543672.9900000021}},{"attributes":{"ID":537707,"DIS_CODE":0,"TOWNNAME":"中西區","LI":"福安里","LIN":"19鄰","STREET":"中正路","SECT":" ","MAREA":" ","LANE":" ","ALLEY":" ","HOUSE_NO":"１５５號","E_COORD97":167919.13,"N_COORD97":2543674.1899999999,"ADDRESS":"中正路１５５號","OBJECTID":537680},"geometry":{"x":167919.13000000175,"y":2543674.1900000013}},{"attributes":{"ID":537708,"DIS_CODE":0,"TOWNNAME":"中西區","LI":"福安里","LIN":"19鄰","STREET":"中正路","SECT":" ","MAREA":" ","LANE":" ","ALLEY":" ","HOUSE_NO":"１５７號","E_COORD97":167911.81,"N_COORD97":2543675.1200000001,"ADDRESS":"中正路１５７號","OBJECTID":537681},"geometry":{"x":167911.80999999959,"y":2543675.1199999992}},{"attributes":{"ID":537709,"DIS_CODE":0,"TOWNNAME":"中西區","LI":"福安里","LIN":"19鄰","STREET":"中正路","SECT":" ","MAREA":" ","LANE":" ","ALLEY":" ","HOUSE_NO":"１５９號","E_COORD97":167901.57999999999,"N_COORD97":2543677.5099999998,"ADDRESS":"中正路１５９號","OBJECTID":537682},"geometry":{"x":167901.58000000101,"y":2543677.5099999998}},{"attributes":{"ID":537710,"DIS_CODE":0,"TOWNNAME":"中西區","LI":"福安里","LIN":"19鄰","STREET":"中正路","SECT":" ","MAREA":" ","LANE":" ","ALLEY":" ","HOUSE_NO":"１６７號","E_COORD97":167871.62,"N_COORD97":2543681.1299999999,"ADDRESS":"中正路１６７號","OBJECTID":537683},"geometry":{"x":167871.62000000011,"y":2543681.1300000008}},{"attributes":{"ID":537711,"DIS_CODE":0,"TOWNNAME":"中西區","LI":"福安里","LIN":"19鄰","STREET":"中正路","SECT":" ","MAREA":" ","LANE":" ","ALLEY":" ","HOUSE_NO":"１６９號","E_COORD97":167867.41,"N_COORD97":2543684.1499999999,"ADDRESS":"中正路１６９號","OBJECTID":537684},"geometry":{"x":167867.41000000015,"y":2543684.1500000004}},{"attributes":{"ID":537712,"DIS_CODE":0,"TOWNNAME":"中西區","LI":"福安里","LIN":"19鄰","STREET":"中正路","SECT":" ","MAREA":" ","LANE":" ","ALLEY":" ","HOUSE_NO":"１６９號之１","E_COORD97":167862.91,"N_COORD97":2543683.0800000001,"ADDRESS":"中正路１６９號之１","OBJECTID":537685},"geometry":{"x":167862.91000000015,"y":2543683.0800000001}},{"attributes":{"ID":537713,"DIS_CODE":0,"TOWNNAME":"中西區","LI":"福安里","LIN":"19鄰","STREET":"中正路","SECT":" ","MAREA":" ","LANE":" ","ALLEY":" ","HOUSE_NO":"１７１號","E_COORD97":167852.25,"N_COORD97":2543688.27,"ADDRESS":"中正路１７１號","OBJECTID":537686},"geometry":{"x":167852.25000000186,"y":2543688.2699999996}},{"attributes":{"ID":537714,"DIS_CODE":0,"TOWNNAME":"東區","LI":"崇文里","LIN":"19鄰","STREET":"崇德二十街","SECT":" ","MAREA":" ","LANE":" ","ALLEY":" ","HOUSE_NO":"６號","E_COORD97":170828.85000000001,"N_COORD97":2540907.1699999999,"ADDRESS":"崇德二十街６號","OBJECTID":537687},"geometry":{"x":170828.84999999963,"y":2540907.1700000037}},{"attributes":{"ID":537715,"DIS_CODE":0,"TOWNNAME":"東區","LI":"大智里","LIN":"19鄰","STREET":"崇善十四街","SECT":" ","MAREA":" ","LANE":" ","ALLEY":" ","HOUSE_NO":"１２號","E_COORD97":171330.69,"N_COORD97":2540661.8500000001,"ADDRESS":"崇善十四街１２號","OBJECTID":537688},"geometry":{"x":171330.69000000134,"y":2540661.8500000034}},{"attributes":{"ID":537716,"DIS_CODE":0,"TOWNNAME":"東區","LI":"裕聖里","LIN":"19鄰","STREET":"裕信六街","SECT":" ","MAREA":" ","LANE":" ","ALLEY":" ","HOUSE_NO":"２１號","E_COORD97":172618.98000000001,"N_COORD97":2541899.5,"ADDRESS":"裕信六街２１號","OBJECTID":537689},"geometry":{"x":172618.98000000045,"y":2541899.5000000019}},{"attributes":{"ID":537717,"DIS_CODE":0,"TOWNNAME":"東區","LI":"崇成里","LIN":"19鄰","STREET":"崇明路","SECT":" ","MAREA":" ","LANE":" ","ALLEY":" ","HOUSE_NO":"５８１號","E_COORD97":170621.51999999999,"N_COORD97":2541213.5299999998,"ADDRESS":"崇明路５８１號","OBJECTID":537690},"geometry":{"x":170621.52000000142,"y":2541213.5300000012}},{"attributes":{"ID":537718,"DIS_CODE":0,"TOWNNAME":"東區","LI":"崇成里","LIN":"19鄰","STREET":"崇明路","SECT":" ","MAREA":" ","LANE":" ","ALLEY":" ","HOUSE_NO":"５８３號","E_COORD97":170620.23000000001,"N_COORD97":2541208.5600000001,"ADDRESS":"崇明路５８３號","OBJECTID":537691},"geometry":{"x":170620.23000000138,"y":2541208.5600000024}},{"attributes":{"ID":537719,"DIS_CODE":0,"TOWNNAME":"東區","LI":"龍山里","LIN":"19鄰","STREET":"富德街","SECT":" ","MAREA":" ","LANE":" ","ALLEY":" ","HOUSE_NO":"２１之１號","E_COORD97":170469.31,"N_COORD97":2542720.79,"ADDRESS":"富德街２１之１號","OBJECTID":537692},"geometry":{"x":170469.31000000052,"y":2542720.790000001}},{"attributes":{"ID":537720,"DIS_CODE":0,"TOWNNAME":"東區","LI":"崇信里","LIN":"19鄰","STREET":"中華東路","SECT":"三段","MAREA":" ","LANE":" ","ALLEY":" ","HOUSE_NO":"１２６號","E_COORD97":170755.44,"N_COORD97":2542141.5299999998,"ADDRESS":"中華東路三段１２６號","OBJECTID":537693},"geometry":{"x":170755.44000000134,"y":2542141.5299999975}},{"attributes":{"ID":537721,"DIS_CODE":0,"TOWNNAME":"東區","LI":"裕聖里","LIN":"19鄰","STREET":"裕信六街","SECT":" ","MAREA":" ","LANE":" ","ALLEY":" ","HOUSE_NO":"２號","E_COORD97":172645.79000000001,"N_COORD97":2541874.9100000001,"ADDRESS":"裕信六街２號","OBJECTID":537694},"geometry":{"x":172645.79000000004,"y":2541874.9100000001}},{"attributes":{"ID":537722,"DIS_CODE":0,"TOWNNAME":"東區","LI":"關聖里","LIN":"19鄰","STREET":"裕英街","SECT":" ","MAREA":" ","LANE":" ","ALLEY":" ","HOUSE_NO":"１５２號","E_COORD97":172455.20999999999,"N_COORD97":2543003.6699999999,"ADDRESS":"裕英街１５２號","OBJECTID":537695},"geometry":{"x":172455.21000000089,"y":2543003.6700000018}},{"attributes":{"ID":537723,"DIS_CODE":0,"TOWNNAME":"東區","LI":"關聖里","LIN":"19鄰","STREET":"裕英街","SECT":" ","MAREA":" ","LANE":" ","ALLEY":" ","HOUSE_NO":"１５６號","E_COORD97":172465.54000000001,"N_COORD97":2543003.5,"ADDRESS":"裕英街１５６號","OBJECTID":537696},"geometry":{"x":172465.54000000004,"y":2543003.4999999981}},{"attributes":{"ID":537724,"DIS_CODE":0,"TOWNNAME":"東區","LI":"關聖里","LIN":"19鄰","STREET":"裕英街","SECT":" ","MAREA":" ","LANE":" ","ALLEY":" ","HOUSE_NO":"１５８號","E_COORD97":172475.87,"N_COORD97":2543003.8300000001,"ADDRESS":"裕英街１５８號","OBJECTID":537697},"geometry":{"x":172475.87000000011,"y":2543003.8300000001}},{"attributes":{"ID":537725,"DIS_CODE":0,"TOWNNAME":"東區","LI":"關聖里","LIN":"19鄰","STREET":"裕英街","SECT":" ","MAREA":" ","LANE":" ","ALLEY":" ","HOUSE_NO":"１６０號","E_COORD97":172484.87,"N_COORD97":2543004,"ADDRESS":"裕英街１６０號","OBJECTID":537698},"geometry":{"x":172484.87000000104,"y":2543004.0000000037}},{"attributes":{"ID":537726,"DIS_CODE":0,"TOWNNAME":"東區","LI":"關聖里","LIN":"19鄰","STREET":"裕英街","SECT":" ","MAREA":" ","LANE":" ","ALLEY":" ","HOUSE_NO":"１６２號","E_COORD97":172495.70999999999,"N_COORD97":2543004.1699999999,"ADDRESS":"裕英街１６２號","OBJECTID":537699},"geometry":{"x":172495.71000000183,"y":2543004.1700000018}},{"attributes":{"ID":537727,"DIS_CODE":0,"TOWNNAME":"東區","LI":"關聖里","LIN":"19鄰","STREET":"裕英街","SECT":" ","MAREA":" ","LANE":" ","ALLEY":" ","HOUSE_NO":"１６６號","E_COORD97":172505.20999999999,"N_COORD97":2543004.1699999999,"ADDRESS":"裕英街１６６號","OBJECTID":537700},"geometry":{"x":172505.20999999996,"y":2543004.1700000018}},{"attributes":{"ID":537728,"DIS_CODE":0,"TOWNNAME":"東區","LI":"崇德里","LIN":"19鄰","STREET":"崇明十三街","SECT":" ","MAREA":" ","LANE":" ","ALLEY":" ","HOUSE_NO":"８１號","E_COORD97":170581.95000000001,"N_COORD97":2541727.77,"ADDRESS":"崇明十三街８１號","OBJECTID":537701},"geometry":{"x":170581.94999999925,"y":2541727.7700000014}},{"attributes":{"ID":537729,"DIS_CODE":0,"TOWNNAME":"東區","LI":"龍山里","LIN":"19鄰","STREET":"富德街","SECT":" ","MAREA":" ","LANE":" ","ALLEY":" ","HOUSE_NO":"１號","E_COORD97":170544.60000000001,"N_COORD97":2542714.1600000001,"ADDRESS":"富德街１號","OBJECTID":537702},"geometry":{"x":170544.59999999963,"y":2542714.1600000001}},{"attributes":{"ID":537730,"DIS_CODE":0,"TOWNNAME":"東區","LI":"龍山里","LIN":"19鄰","STREET":"富德街","SECT":" ","MAREA":" ","LANE":" ","ALLEY":" ","HOUSE_NO":"３號","E_COORD97":170539.29999999999,"N_COORD97":2542717.4300000002,"ADDRESS":"富德街３號","OBJECTID":537703},"geometry":{"x":170539.30000000075,"y":2542717.4299999997}},{"attributes":{"ID":537731,"DIS_CODE":0,"TOWNNAME":"東區","LI":"龍山里","LIN":"19鄰","STREET":"富德街","SECT":" ","MAREA":" ","LANE":" ","ALLEY":" ","HOUSE_NO":"５號","E_COORD97":170534.31,"N_COORD97":2542719.77,"ADDRESS":"富德街５號","OBJECTID":537704},"geometry":{"x":170534.30999999959,"y":2542719.7699999977}},{"attributes":{"ID":537732,"DIS_CODE":0,"TOWNNAME":"東區","LI":"龍山里","LIN":"19鄰","STREET":"富德街","SECT":" ","MAREA":" ","LANE":" ","ALLEY":" ","HOUSE_NO":"１５號","E_COORD97":170495.48999999999,"N_COORD97":2542732.8500000001,"ADDRESS":"富德街１５號","OBJECTID":537705},"geometry":{"x":170495.49000000115,"y":2542732.8499999996}},{"attributes":{"ID":537733,"DIS_CODE":0,"TOWNNAME":"東區","LI":"龍山里","LIN":"19鄰","STREET":"富德街","SECT":" ","MAREA":" ","LANE":" ","ALLEY":" ","HOUSE_NO":"１７號","E_COORD97":170484.10999999999,"N_COORD97":2542734.5699999998,"ADDRESS":"富德街１７號","OBJECTID":537706},"geometry":{"x":170484.11000000034,"y":2542734.5700000003}},{"attributes":{"ID":537734,"DIS_CODE":0,"TOWNNAME":"東區","LI":"龍山里","LIN":"19鄰","STREET":"富德街","SECT":" ","MAREA":" ","LANE":" ","ALLEY":" ","HOUSE_NO":"１９號","E_COORD97":170476.32000000001,"N_COORD97":2542737.3700000001,"ADDRESS":"富德街１９號","OBJECTID":537707},"geometry":{"x":170476.32000000216,"y":2542737.370000001}},{"attributes":{"ID":537735,"DIS_CODE":0,"TOWNNAME":"永康區","LI":"西橋里","LIN":"19鄰","STREET":"大橋三街","SECT":" ","MAREA":" ","LANE":" ","ALLEY":" ","HOUSE_NO":"１３號","E_COORD97":170462.04000000001,"N_COORD97":2546332.75,"ADDRESS":"大橋三街１３號","OBJECTID":537708},"geometry":{"x":170462.04000000004,"y":2546332.7500000019}},{"attributes":{"ID":537736,"DIS_CODE":0,"TOWNNAME":"永康區","LI":"西橋里","LIN":"19鄰","STREET":"大橋三街","SECT":" ","MAREA":" ","LANE":" ","ALLEY":" ","HOUSE_NO":"３３號之１","E_COORD97":170494.79999999999,"N_COORD97":2546389.54,"ADDRESS":"大橋三街３３號之１","OBJECTID":537709},"geometry":{"x":170494.80000000075,"y":2546389.5400000028}},{"attributes":{"ID":537737,"DIS_CODE":0,"TOWNNAME":"永康區","LI":"西橋里","LIN":"19鄰","STREET":"大橋三街","SECT":" ","MAREA":" ","LANE":" ","ALLEY":" ","HOUSE_NO":"５號","E_COORD97":170446.23999999999,"N_COORD97":2546342.25,"ADDRESS":"大橋三街５號","OBJECTID":537710},"geometry":{"x":170446.24000000209,"y":2546342.2500000019}},{"attributes":{"ID":537738,"DIS_CODE":0,"TOWNNAME":"永康區","LI":"西橋里","LIN":"19鄰","STREET":"大橋三街","SECT":" ","MAREA":" ","LANE":" ","ALLEY":" ","HOUSE_NO":"２９號","E_COORD97":170516.95999999999,"N_COORD97":2546425.25,"ADDRESS":"大橋三街２９號","OBJECTID":537711},"geometry":{"x":170516.95999999996,"y":2546425.25}},{"attributes":{"ID":537739,"DIS_CODE":0,"TOWNNAME":"永康區","LI":"西橋里","LIN":"19鄰","STREET":"大橋三街","SECT":" ","MAREA":" ","LANE":" ","ALLEY":" ","HOUSE_NO":"３７號之１","E_COORD97":170506.48999999999,"N_COORD97":2546394.29,"ADDRESS":"大橋三街３７號之１","OBJECTID":537712},"geometry":{"x":170506.49000000022,"y":2546394.2899999991}},{"attributes":{"ID":537740,"DIS_CODE":0,"TOWNNAME":"永康區","LI":"西橋里","LIN":"19鄰","STREET":"大橋三街","SECT":" ","MAREA":" ","LANE":" ","ALLEY":" ","HOUSE_NO":"２７號","E_COORD97":170488.35000000001,"N_COORD97":2546370.4900000002,"ADDRESS":"大橋三街２７號","OBJECTID":537713},"geometry":{"x":170488.34999999963,"y":2546370.4899999984}},{"attributes":{"ID":537741,"DIS_CODE":0,"TOWNNAME":"永康區","LI":"西橋里","LIN":"19鄰","STREET":"大橋三街","SECT":" ","MAREA":" ","LANE":" ","ALLEY":" ","HOUSE_NO":"２５號","E_COORD97":170484.69,"N_COORD97":2546364.9900000002,"ADDRESS":"大橋三街２５號","OBJECTID":537714},"geometry":{"x":170484.69000000134,"y":2546364.9900000021}},{"attributes":{"ID":537742,"DIS_CODE":0,"TOWNNAME":"永康區","LI":"西橋里","LIN":"19鄰","STREET":"大橋三街","SECT":" ","MAREA":" ","LANE":" ","ALLEY":" ","HOUSE_NO":"９號","E_COORD97":170452.26000000001,"N_COORD97":2546335.75,"ADDRESS":"大橋三街９號","OBJECTID":537715},"geometry":{"x":170452.25999999885,"y":2546335.7500000019}},{"attributes":{"ID":537743,"DIS_CODE":0,"TOWNNAME":"永康區","LI":"西橋里","LIN":"19鄰","STREET":"大橋三街","SECT":" ","MAREA":" ","LANE":" ","ALLEY":" ","HOUSE_NO":"１１號","E_COORD97":170457.14999999999,"N_COORD97":2546333.5,"ADDRESS":"大橋三街１１號","OBJECTID":537716},"geometry":{"x":170457.15000000224,"y":2546333.5000000019}},{"attributes":{"ID":537744,"DIS_CODE":0,"TOWNNAME":"永康區","LI":"西橋里","LIN":"19鄰","STREET":"大橋三街","SECT":" ","MAREA":" ","LANE":" ","ALLEY":" ","HOUSE_NO":"３１號","E_COORD97":170527.10999999999,"N_COORD97":2546425.25,"ADDRESS":"大橋三街３１號","OBJECTID":537717},"geometry":{"x":170527.11000000127,"y":2546425.25}},{"attributes":{"ID":537745,"DIS_CODE":0,"TOWNNAME":"永康區","LI":"西橋里","LIN":"19鄰","STREET":"大橋三街","SECT":" ","MAREA":" ","LANE":" ","ALLEY":" ","HOUSE_NO":"３７號","E_COORD97":170506.73999999999,"N_COORD97":2546398.2400000002,"ADDRESS":"大橋三街３７號","OBJECTID":537718},"geometry":{"x":170506.74000000022,"y":2546398.2400000002}},{"attributes":{"ID":537746,"DIS_CODE":0,"TOWNNAME":"中西區","LI":"五妃里","LIN":"19鄰","STREET":"樹林街","SECT":"二段","MAREA":" ","LANE":" ","ALLEY":" ","HOUSE_NO":"１０１號","E_COORD97":168444.10999999999,"N_COORD97":2542929.27,"ADDRESS":"樹林街二段１０１號","OBJECTID":537719},"geometry":{"x":168444.11000000127,"y":2542929.2699999996}},{"attributes":{"ID":537747,"DIS_CODE":0,"TOWNNAME":"中西區","LI":"五妃里","LIN":"19鄰","STREET":"樹林街","SECT":"二段","MAREA":" ","LANE":" ","ALLEY":" ","HOUSE_NO":"６５號","E_COORD97":168560.87,"N_COORD97":2542907.98,"ADDRESS":"樹林街二段６５號","OBJECTID":537720},"geometry":{"x":168560.87000000104,"y":2542907.9800000004}},{"attributes":{"ID":537748,"DIS_CODE":0,"TOWNNAME":"中西區","LI":"五妃里","LIN":"19鄰","STREET":"樹林街","SECT":"二段","MAREA":" ","LANE":" ","ALLEY":" ","HOUSE_NO":"６７號","E_COORD97":168550.53,"N_COORD97":2542908.23,"ADDRESS":"樹林街二段６７號","OBJECTID":537721},"geometry":{"x":168550.53000000026,"y":2542908.2300000023}},{"attributes":{"ID":537749,"DIS_CODE":0,"TOWNNAME":"中西區","LI":"五妃里","LIN":"19鄰","STREET":"樹林街","SECT":"二段","MAREA":" ","LANE":" ","ALLEY":" ","HOUSE_NO":"６９號","E_COORD97":168543.63,"N_COORD97":2542909.8900000001,"ADDRESS":"樹林街二段６９號","OBJECTID":537722},"geometry":{"x":168543.63000000082,"y":2542909.8900000006}},{"attributes":{"ID":537750,"DIS_CODE":0,"TOWNNAME":"中西區","LI":"五妃里","LIN":"19鄰","STREET":"樹林街","SECT":"二段","MAREA":" ","LANE":" ","ALLEY":" ","HOUSE_NO":"７３號","E_COORD97":168526.98000000001,"N_COORD97":2542913.5899999999,"ADDRESS":"樹林街二段７３號","OBJECTID":537723},"geometry":{"x":168526.98000000045,"y":2542913.5899999999}},{"attributes":{"ID":537751,"DIS_CODE":0,"TOWNNAME":"中西區","LI":"仙草里","LIN":"19鄰","STREET":"五妃街","SECT":" ","MAREA":" ","LANE":" ","ALLEY":" ","HOUSE_NO":"３２７號","E_COORD97":167858.41,"N_COORD97":2542576.9900000002,"ADDRESS":"五妃街３２７號","OBJECTID":537724},"geometry":{"x":167858.41000000108,"y":2542576.9900000039}},{"attributes":{"ID":537752,"DIS_CODE":0,"TOWNNAME":"中西區","LI":"仙草里","LIN":"19鄰","STREET":"五妃街","SECT":" ","MAREA":" ","LANE":" ","ALLEY":" ","HOUSE_NO":"３２９號","E_COORD97":167852.13,"N_COORD97":2542577.3799999999,"ADDRESS":"五妃街３２９號","OBJECTID":537725},"geometry":{"x":167852.12999999989,"y":2542577.3800000008}},{"attributes":{"ID":537753,"DIS_CODE":0,"TOWNNAME":"中西區","LI":"仙草里","LIN":"19鄰","STREET":"健康路","SECT":"一段","MAREA":" ","LANE":" ","ALLEY":" ","HOUSE_NO":"３８６號","E_COORD97":167858.01999999999,"N_COORD97":2542465.71,"ADDRESS":"健康路一段３８６號","OBJECTID":537726},"geometry":{"x":167858.01999999955,"y":2542465.7100000028}},{"attributes":{"ID":537754,"DIS_CODE":0,"TOWNNAME":"中西區","LI":"仙草里","LIN":"19鄰","STREET":"健康路","SECT":"一段","MAREA":" ","LANE":" ","ALLEY":" ","HOUSE_NO":"３８８號","E_COORD97":167854.88,"N_COORD97":2542466.8799999999,"ADDRESS":"健康路一段３８８號","OBJECTID":537727},"geometry":{"x":167854.88000000082,"y":2542466.879999999}},{"attributes":{"ID":537755,"DIS_CODE":0,"TOWNNAME":"官田區","LI":"隆本里","LIN":"19鄰","STREET":"忠孝街","SECT":" ","MAREA":" ","LANE":" ","ALLEY":" ","HOUSE_NO":"１２２號","E_COORD97":180018.57999999999,"N_COORD97":2566356.1000000001,"ADDRESS":"忠孝街１２２號","OBJECTID":537728},"geometry":{"x":180018.58000000101,"y":2566356.1000000015}},{"attributes":{"ID":537756,"DIS_CODE":0,"TOWNNAME":"東區","LI":"龍山里","LIN":"19鄰","STREET":"富德街","SECT":" ","MAREA":" ","LANE":" ","ALLEY":" ","HOUSE_NO":"１１號","E_COORD97":170513.10999999999,"N_COORD97":2542724.4399999999,"ADDRESS":"富德街１１號","OBJECTID":537729},"geometry":{"x":170513.11000000034,"y":2542724.4399999995}},{"attributes":{"ID":537757,"DIS_CODE":0,"TOWNNAME":"善化區","LI":"文昌里","LIN":"19鄰","STREET":"中正路","SECT":" ","MAREA":" ","LANE":" ","ALLEY":" ","HOUSE_NO":"２５７號","E_COORD97":177693.28,"N_COORD97":2558308.5,"ADDRESS":"中正路２５７號","OBJECTID":537730},"geometry":{"x":177693.28000000119,"y":2558308.5000000019}},{"attributes":{"ID":537758,"DIS_CODE":0,"TOWNNAME":"善化區","LI":"文昌里","LIN":"19鄰","STREET":"中正路","SECT":" ","MAREA":" ","LANE":" ","ALLEY":" ","HOUSE_NO":"３０９之１號","E_COORD97":177645.64000000001,"N_COORD97":2558396.27,"ADDRESS":"中正路３０９之１號","OBJECTID":537731},"geometry":{"x":177645.63999999873,"y":2558396.2699999996}},{"attributes":{"ID":537759,"DIS_CODE":0,"TOWNNAME":"善化區","LI":"文昌里","LIN":"19鄰","STREET":"中正路","SECT":" ","MAREA":" ","LANE":" ","ALLEY":" ","HOUSE_NO":"２５９號之１","E_COORD97":177668.78,"N_COORD97":2558312.52,"ADDRESS":"中正路２５９號之１","OBJECTID":537732},"geometry":{"x":177668.78000000026,"y":2558312.5199999996}},{"attributes":{"ID":537760,"DIS_CODE":0,"TOWNNAME":"善化區","LI":"光文里","LIN":"19鄰","STREET":"民生路","SECT":" ","MAREA":" ","LANE":" ","ALLEY":" ","HOUSE_NO":"２７３號","E_COORD97":178219.26999999999,"N_COORD97":2558906.0099999998,"ADDRESS":"民生路２７３號","OBJECTID":537733},"geometry":{"x":178219.26999999862,"y":2558906.0100000016}},{"attributes":{"ID":537761,"DIS_CODE":0,"TOWNNAME":"善化區","LI":"文昌里","LIN":"19鄰","STREET":"大同路","SECT":" ","MAREA":" ","LANE":" ","ALLEY":" ","HOUSE_NO":"１９９號之１","E_COORD97":177449.91,"N_COORD97":2558632.02,"ADDRESS":"大同路１９９號之１","OBJECTID":537734},"geometry":{"x":177449.91000000108,"y":2558632.0199999996}},{"attributes":{"ID":537762,"DIS_CODE":0,"TOWNNAME":"善化區","LI":"光文里","LIN":"19鄰","STREET":"信義路","SECT":" ","MAREA":" ","LANE":" ","ALLEY":" ","HOUSE_NO":"１１１號","E_COORD97":178253.22,"N_COORD97":2558882,"ADDRESS":"信義路１１１號","OBJECTID":537735},"geometry":{"x":178253.21999999974,"y":2558882.0000000019}},{"attributes":{"ID":537763,"DIS_CODE":0,"TOWNNAME":"善化區","LI":"文昌里","LIN":"19鄰","STREET":"大同路","SECT":" ","MAREA":" ","LANE":" ","ALLEY":" ","HOUSE_NO":"１９３號之１","E_COORD97":177460.38,"N_COORD97":2558610.77,"ADDRESS":"大同路１９３號之１","OBJECTID":537736},"geometry":{"x":177460.38000000082,"y":2558610.7700000033}},{"attributes":{"ID":537764,"DIS_CODE":0,"TOWNNAME":"善化區","LI":"光文里","LIN":"19鄰","STREET":"信義路","SECT":" ","MAREA":" ","LANE":" ","ALLEY":" ","HOUSE_NO":"１１７號","E_COORD97":178251.14000000001,"N_COORD97":2558897,"ADDRESS":"信義路１１７號","OBJECTID":537737},"geometry":{"x":178251.1400000006,"y":2558897}},{"attributes":{"ID":537765,"DIS_CODE":0,"TOWNNAME":"善化區","LI":"光文里","LIN":"19鄰","STREET":"信義路","SECT":" ","MAREA":" ","LANE":" ","ALLEY":" ","HOUSE_NO":"１１３號","E_COORD97":178254.09,"N_COORD97":2558888.75,"ADDRESS":"信義路１１３號","OBJECTID":537738},"geometry":{"x":178254.08999999985,"y":2558888.75}},{"attributes":{"ID":537766,"DIS_CODE":0,"TOWNNAME":"善化區","LI":"光文里","LIN":"19鄰","STREET":"信義路","SECT":" ","MAREA":" ","LANE":" ","ALLEY":" ","HOUSE_NO":"１１９號","E_COORD97":178250.41,"N_COORD97":2558901.5,"ADDRESS":"信義路１１９號","OBJECTID":537739},"geometry":{"x":178250.41000000108,"y":2558901.5000000037}},{"attributes":{"ID":537767,"DIS_CODE":0,"TOWNNAME":"善化區","LI":"光文里","LIN":"19鄰","STREET":"民生路","SECT":" ","MAREA":" ","LANE":" ","ALLEY":" ","HOUSE_NO":"２８７號","E_COORD97":178203.41,"N_COORD97":2558912.2599999998,"ADDRESS":"民生路２８７號","OBJECTID":537740},"geometry":{"x":178203.41000000015,"y":2558912.2599999998}},{"attributes":{"ID":537768,"DIS_CODE":0,"TOWNNAME":"善化區","LI":"光文里","LIN":"19鄰","STREET":"民生路","SECT":" ","MAREA":" ","LANE":" ","ALLEY":" ","HOUSE_NO":"２７２號","E_COORD97":178212.53,"N_COORD97":2558930.7599999998,"ADDRESS":"民生路２７２號","OBJECTID":537741},"geometry":{"x":178212.53000000026,"y":2558930.7600000016}},{"attributes":{"ID":537769,"DIS_CODE":0,"TOWNNAME":"善化區","LI":"光文里","LIN":"19鄰","STREET":"民生路","SECT":" ","MAREA":" ","LANE":" ","ALLEY":" ","HOUSE_NO":"３１１號","E_COORD97":178155.87,"N_COORD97":2558898.0099999998,"ADDRESS":"民生路３１１號","OBJECTID":537742},"geometry":{"x":178155.87000000011,"y":2558898.0100000016}},{"attributes":{"ID":537770,"DIS_CODE":0,"TOWNNAME":"善化區","LI":"光文里","LIN":"19鄰","STREET":"民生路","SECT":" ","MAREA":" ","LANE":" ","ALLEY":" ","HOUSE_NO":"２７９號","E_COORD97":178215.92999999999,"N_COORD97":2558883.7599999998,"ADDRESS":"民生路２７９號","OBJECTID":537743},"geometry":{"x":178215.9299999997,"y":2558883.7600000016}},{"attributes":{"ID":537771,"DIS_CODE":0,"TOWNNAME":"善化區","LI":"光文里","LIN":"19鄰","STREET":"民生路","SECT":" ","MAREA":" ","LANE":" ","ALLEY":" ","HOUSE_NO":"２８９號","E_COORD97":178199.12,"N_COORD97":2558911.7599999998,"ADDRESS":"民生路２８９號","OBJECTID":537744},"geometry":{"x":178199.12000000104,"y":2558911.7599999998}},{"attributes":{"ID":537772,"DIS_CODE":0,"TOWNNAME":"善化區","LI":"光文里","LIN":"19鄰","STREET":"民生路","SECT":" ","MAREA":" ","LANE":" ","ALLEY":" ","HOUSE_NO":"３１９號","E_COORD97":178137.73999999999,"N_COORD97":2558895.2599999998,"ADDRESS":"民生路３１９號","OBJECTID":537745},"geometry":{"x":178137.74000000115,"y":2558895.2599999998}},{"attributes":{"ID":537773,"DIS_CODE":0,"TOWNNAME":"善化區","LI":"光文里","LIN":"19鄰","STREET":"和平路","SECT":" ","MAREA":" ","LANE":" ","ALLEY":" ","HOUSE_NO":"１１６號","E_COORD97":178141.60000000001,"N_COORD97":2558869.5,"ADDRESS":"和平路１１６號","OBJECTID":537746},"geometry":{"x":178141.60000000056,"y":2558869.5}},{"attributes":{"ID":537774,"DIS_CODE":0,"TOWNNAME":"西港區","LI":"慶安里","LIN":"19鄰","STREET":"進學街","SECT":" ","MAREA":" ","LANE":" ","ALLEY":" ","HOUSE_NO":"４５號","E_COORD97":168291.66,"N_COORD97":2558045.2999999998,"ADDRESS":"進學街４５號","OBJECTID":537747},"geometry":{"x":168291.66000000015,"y":2558045.3000000007}},{"attributes":{"ID":537775,"DIS_CODE":0,"TOWNNAME":"東區","LI":"和平里","LIN":"19鄰","STREET":"仁和路","SECT":" ","MAREA":" ","LANE":" ","ALLEY":" ","HOUSE_NO":"９５號之５２","E_COORD97":171368.73000000001,"N_COORD97":2541510.8500000001,"ADDRESS":"仁和路９５號之５２","OBJECTID":537748},"geometry":{"x":171368.73000000231,"y":2541510.8500000015}},{"attributes":{"ID":537776,"DIS_CODE":0,"TOWNNAME":"東區","LI":"和平里","LIN":"19鄰","STREET":"仁和路","SECT":" ","MAREA":" ","LANE":" ","ALLEY":" ","HOUSE_NO":"９５號之５３","E_COORD97":171375.89000000001,"N_COORD97":2541512.04,"ADDRESS":"仁和路９５號之５３","OBJECTID":537749},"geometry":{"x":171375.8900000006,"y":2541512.040000001}},{"attributes":{"ID":537777,"DIS_CODE":0,"TOWNNAME":"東區","LI":"和平里","LIN":"19鄰","STREET":"仁和路","SECT":" ","MAREA":" ","LANE":" ","ALLEY":" ","HOUSE_NO":"９５號之５４","E_COORD97":171381.64999999999,"N_COORD97":2541513.6299999999,"ADDRESS":"仁和路９５號之５４","OBJECTID":537750},"geometry":{"x":171381.6500000013,"y":2541513.6300000027}},{"attributes":{"ID":537778,"DIS_CODE":0,"TOWNNAME":"東區","LI":"和平里","LIN":"19鄰","STREET":"仁和路","SECT":" ","MAREA":" ","LANE":" ","ALLEY":" ","HOUSE_NO":"９５號之５８","E_COORD97":171386.04999999999,"N_COORD97":2541529.6800000002,"ADDRESS":"仁和路９５號之５８","OBJECTID":537751},"geometry":{"x":171386.04999999888,"y":2541529.6799999997}},{"attributes":{"ID":537779,"DIS_CODE":0,"TOWNNAME":"東區","LI":"和平里","LIN":"19鄰","STREET":"仁和路","SECT":" ","MAREA":" ","LANE":" ","ALLEY":" ","HOUSE_NO":"９５號之５９","E_COORD97":171378.54000000001,"N_COORD97":2541528.79,"ADDRESS":"仁和路９５號之５９","OBJECTID":537752},"geometry":{"x":171378.54000000097,"y":2541528.7899999991}},{"attributes":{"ID":537780,"DIS_CODE":0,"TOWNNAME":"東區","LI":"和平里","LIN":"19鄰","STREET":"仁和路","SECT":" ","MAREA":" ","LANE":" ","ALLEY":" ","HOUSE_NO":"９５號之６０","E_COORD97":171372.89999999999,"N_COORD97":2541526.73,"ADDRESS":"仁和路９５號之６０","OBJECTID":537753},"geometry":{"x":171372.9000000013,"y":2541526.7300000004}},{"attributes":{"ID":537781,"DIS_CODE":0,"TOWNNAME":"東區","LI":"和平里","LIN":"19鄰","STREET":"仁和路","SECT":" ","MAREA":" ","LANE":" ","ALLEY":" ","HOUSE_NO":"９５號之６２","E_COORD97":171361.16,"N_COORD97":2541525.3199999998,"ADDRESS":"仁和路９５號之６２","OBJECTID":537754},"geometry":{"x":171361.16000000108,"y":2541525.3200000022}},{"attributes":{"ID":537782,"DIS_CODE":0,"TOWNNAME":"東區","LI":"和平里","LIN":"19鄰","STREET":"仁和路","SECT":" ","MAREA":" ","LANE":" ","ALLEY":" ","HOUSE_NO":"９５號之６３","E_COORD97":171356.20999999999,"N_COORD97":2541523.75,"ADDRESS":"仁和路９５號之６３","OBJECTID":537755},"geometry":{"x":171356.20999999996,"y":2541523.7500000037}},{"attributes":{"ID":537783,"DIS_CODE":0,"TOWNNAME":"東區","LI":"和平里","LIN":"19鄰","STREET":"仁和路","SECT":" ","MAREA":" ","LANE":" ","ALLEY":" ","HOUSE_NO":"９５號之６４","E_COORD97":171350.45000000001,"N_COORD97":2541522.5600000001,"ADDRESS":"仁和路９５號之６４","OBJECTID":537756},"geometry":{"x":171350.45000000112,"y":2541522.5600000042}},{"attributes":{"ID":537784,"DIS_CODE":0,"TOWNNAME":"東區","LI":"和平里","LIN":"19鄰","STREET":"仁和路","SECT":" ","MAREA":" ","LANE":" ","ALLEY":" ","HOUSE_NO":"９５號之６５","E_COORD97":171345.67999999999,"N_COORD97":2541522.7000000002,"ADDRESS":"仁和路９５號之６５","OBJECTID":537757},"geometry":{"x":171345.6799999997,"y":2541522.6999999993}},{"attributes":{"ID":537785,"DIS_CODE":0,"TOWNNAME":"東區","LI":"和平里","LIN":"19鄰","STREET":"仁和路","SECT":" ","MAREA":" ","LANE":" ","ALLEY":" ","HOUSE_NO":"９５號之６６","E_COORD97":171340.23000000001,"N_COORD97":2541522.1099999999,"ADDRESS":"仁和路９５號之６６","OBJECTID":537758},"geometry":{"x":171340.23000000138,"y":2541522.1100000013}},{"attributes":{"ID":537786,"DIS_CODE":0,"TOWNNAME":"東區","LI":"和平里","LIN":"19鄰","STREET":"仁和路","SECT":" ","MAREA":" ","LANE":" ","ALLEY":" ","HOUSE_NO":"９５號之３９","E_COORD97":171371.92000000001,"N_COORD97":2541496.0499999998,"ADDRESS":"仁和路９５號之３９","OBJECTID":537759},"geometry":{"x":171371.92000000179,"y":2541496.0500000026}},{"attributes":{"ID":537787,"DIS_CODE":0,"TOWNNAME":"東區","LI":"和平里","LIN":"19鄰","STREET":"仁和路","SECT":" ","MAREA":" ","LANE":" ","ALLEY":" ","HOUSE_NO":"９５號之４０","E_COORD97":171366.54999999999,"N_COORD97":2541493.0699999998,"ADDRESS":"仁和路９５號之４０","OBJECTID":537760},"geometry":{"x":171366.55000000075,"y":2541493.0700000022}},{"attributes":{"ID":537788,"DIS_CODE":0,"TOWNNAME":"東區","LI":"和平里","LIN":"19鄰","STREET":"仁和路","SECT":" ","MAREA":" ","LANE":" ","ALLEY":" ","HOUSE_NO":"９５號之４２","E_COORD97":171359,"N_COORD97":2541491.6800000002,"ADDRESS":"仁和路９５號之４２","OBJECTID":537761},"geometry":{"x":171359,"y":2541491.6800000016}},{"attributes":{"ID":537789,"DIS_CODE":0,"TOWNNAME":"東區","LI":"和平里","LIN":"19鄰","STREET":"仁和路","SECT":" ","MAREA":" ","LANE":" ","ALLEY":" ","HOUSE_NO":"９５號之４３","E_COORD97":171354.42999999999,"N_COORD97":2541491.29,"ADDRESS":"仁和路９５號之４３","OBJECTID":537762},"geometry":{"x":171354.4299999997,"y":2541491.2899999991}},{"attributes":{"ID":537790,"DIS_CODE":0,"TOWNNAME":"東區","LI":"和平里","LIN":"19鄰","STREET":"仁和路","SECT":" ","MAREA":" ","LANE":" ","ALLEY":" ","HOUSE_NO":"９５號之４５","E_COORD97":171350.25,"N_COORD97":2541491.29,"ADDRESS":"仁和路９５號之４５","OBJECTID":537763},"geometry":{"x":171350.25000000093,"y":2541491.2899999991}},{"attributes":{"ID":537791,"DIS_CODE":0,"TOWNNAME":"東區","LI":"和平里","LIN":"19鄰","STREET":"仁和路","SECT":" ","MAREA":" ","LANE":" ","ALLEY":" ","HOUSE_NO":"９５號之４６","E_COORD97":171347.26999999999,"N_COORD97":2541491.29,"ADDRESS":"仁和路９５號之４６","OBJECTID":537764},"geometry":{"x":171347.27000000048,"y":2541491.2899999991}},{"attributes":{"ID":537792,"DIS_CODE":0,"TOWNNAME":"東區","LI":"和平里","LIN":"19鄰","STREET":"仁和路","SECT":" ","MAREA":" ","LANE":" ","ALLEY":" ","HOUSE_NO":"９５號之４７","E_COORD97":171343.89000000001,"N_COORD97":2541507.0800000001,"ADDRESS":"仁和路９５號之４７","OBJECTID":537765},"geometry":{"x":171343.88999999966,"y":2541507.0800000001}},{"attributes":{"ID":537793,"DIS_CODE":0,"TOWNNAME":"東區","LI":"和平里","LIN":"19鄰","STREET":"仁和路","SECT":" ","MAREA":" ","LANE":" ","ALLEY":" ","HOUSE_NO":"９５號之４８","E_COORD97":171347.66,"N_COORD97":2541507.48,"ADDRESS":"仁和路９５號之４８","OBJECTID":537766},"geometry":{"x":171347.66000000015,"y":2541507.4800000023}},{"attributes":{"ID":537794,"DIS_CODE":0,"TOWNNAME":"東區","LI":"和平里","LIN":"19鄰","STREET":"仁和路","SECT":" ","MAREA":" ","LANE":" ","ALLEY":" ","HOUSE_NO":"９５號之４９","E_COORD97":171353.03,"N_COORD97":2541508.0699999998,"ADDRESS":"仁和路９５號之４９","OBJECTID":537767},"geometry":{"x":171353.03000000119,"y":2541508.0700000003}},{"attributes":{"ID":537795,"DIS_CODE":0,"TOWNNAME":"東區","LI":"和平里","LIN":"19鄰","STREET":"仁和路","SECT":" ","MAREA":" ","LANE":" ","ALLEY":" ","HOUSE_NO":"９５號之５０","E_COORD97":171358.39999999999,"N_COORD97":2541508.27,"ADDRESS":"仁和路９５號之５０","OBJECTID":537768},"geometry":{"x":171358.40000000037,"y":2541508.2699999996}},{"attributes":{"ID":537796,"DIS_CODE":0,"TOWNNAME":"東區","LI":"和平里","LIN":"19鄰","STREET":"仁和路","SECT":" ","MAREA":" ","LANE":" ","ALLEY":" ","HOUSE_NO":"９５號之５１","E_COORD97":171363.95999999999,"N_COORD97":2541509.6600000001,"ADDRESS":"仁和路９５號之５１","OBJECTID":537769},"geometry":{"x":171363.96000000089,"y":2541509.6600000001}},{"attributes":{"ID":537797,"DIS_CODE":0,"TOWNNAME":"東區","LI":"和平里","LIN":"19鄰","STREET":"仁和路","SECT":" ","MAREA":" ","LANE":" ","ALLEY":" ","HOUSE_NO":"９５號之３８","E_COORD97":171378.26999999999,"N_COORD97":2541496.0499999998,"ADDRESS":"仁和路９５號之３８","OBJECTID":537770},"geometry":{"x":171378.27000000048,"y":2541496.0500000026}},{"attributes":{"ID":537798,"DIS_CODE":0,"TOWNNAME":"東區","LI":"和平里","LIN":"19鄰","STREET":"仁和路","SECT":" ","MAREA":" ","LANE":" ","ALLEY":" ","HOUSE_NO":"９５號之１２","E_COORD97":171360.01000000001,"N_COORD97":2541446.5499999998,"ADDRESS":"仁和路９５號之１２","OBJECTID":537771},"geometry":{"x":171360.01000000071,"y":2541446.5500000007}},{"attributes":{"ID":537799,"DIS_CODE":0,"TOWNNAME":"東區","LI":"和平里","LIN":"19鄰","STREET":"仁和路","SECT":" ","MAREA":" ","LANE":" ","ALLEY":" ","HOUSE_NO":"９５號之１３","E_COORD97":171363.98000000001,"N_COORD97":2541446.75,"ADDRESS":"仁和路９５號之１３","OBJECTID":537772},"geometry":{"x":171363.98000000138,"y":2541446.7500000019}},{"attributes":{"ID":537800,"DIS_CODE":0,"TOWNNAME":"中西區","LI":"仙草里","LIN":"1鄰","STREET":"五妃街","SECT":" ","MAREA":" ","LANE":" ","ALLEY":" ","HOUSE_NO":"３２８號","E_COORD97":167781.29999999999,"N_COORD97":2542594.4700000002,"ADDRESS":"五妃街３２８號","OBJECTID":537773},"geometry":{"x":167781.30000000075,"y":2542594.4700000044}},{"attributes":{"ID":537801,"DIS_CODE":0,"TOWNNAME":"中西區","LI":"仙草里","LIN":"1鄰","STREET":"五妃街","SECT":" ","MAREA":" ","LANE":" ","ALLEY":" ","HOUSE_NO":"３３２號","E_COORD97":167765.64999999999,"N_COORD97":2542596.6499999999,"ADDRESS":"五妃街３３２號","OBJECTID":537774},"geometry":{"x":167765.6500000013,"y":2542596.6500000022}},{"attributes":{"ID":537802,"DIS_CODE":0,"TOWNNAME":"中西區","LI":"仙草里","LIN":"1鄰","STREET":"五妃街","SECT":" ","MAREA":" ","LANE":" ","ALLEY":" ","HOUSE_NO":"３３６號","E_COORD97":167760.48999999999,"N_COORD97":2542597.8399999999,"ADDRESS":"五妃街３３６號","OBJECTID":537775},"geometry":{"x":167760.49000000022,"y":2542597.8400000036}},{"attributes":{"ID":537803,"DIS_CODE":0,"TOWNNAME":"中西區","LI":"仙草里","LIN":"1鄰","STREET":"五妃街","SECT":" ","MAREA":" ","LANE":" ","ALLEY":" ","HOUSE_NO":"３３８號","E_COORD97":167755.34,"N_COORD97":2542597.6800000002,"ADDRESS":"五妃街３３８號","OBJECTID":537776},"geometry":{"x":167755.34000000078,"y":2542597.6799999997}},{"attributes":{"ID":537804,"DIS_CODE":0,"TOWNNAME":"東區","LI":"和平里","LIN":"19鄰","STREET":"仁和路","SECT":" ","MAREA":" ","LANE":" ","ALLEY":" ","HOUSE_NO":"９５號之１４","E_COORD97":171368.95000000001,"N_COORD97":2541446.9500000002,"ADDRESS":"仁和路９５號之１４","OBJECTID":537777},"geometry":{"x":171368.95000000112,"y":2541446.9499999974}},{"attributes":{"ID":537805,"DIS_CODE":0,"TOWNNAME":"東區","LI":"和平里","LIN":"19鄰","STREET":"仁和路","SECT":" ","MAREA":" ","LANE":" ","ALLEY":" ","HOUSE_NO":"９５號之１５","E_COORD97":171375.31,"N_COORD97":2541448.1400000001,"ADDRESS":"仁和路９５號之１５","OBJECTID":537778},"geometry":{"x":171375.30999999959,"y":2541448.1400000025}},{"attributes":{"ID":537806,"DIS_CODE":0,"TOWNNAME":"東區","LI":"和平里","LIN":"19鄰","STREET":"仁和路","SECT":" ","MAREA":" ","LANE":" ","ALLEY":" ","HOUSE_NO":"９５號之２４","E_COORD97":171371.32000000001,"N_COORD97":2541463.1000000001,"ADDRESS":"仁和路９５號之２４","OBJECTID":537779},"geometry":{"x":171371.32000000216,"y":2541463.0999999996}},{"attributes":{"ID":537807,"DIS_CODE":0,"TOWNNAME":"東區","LI":"和平里","LIN":"19鄰","STREET":"仁和路","SECT":" ","MAREA":" ","LANE":" ","ALLEY":" ","HOUSE_NO":"９５號之２５","E_COORD97":171366.75,"N_COORD97":2541461.71,"ADDRESS":"仁和路９５號之２５","OBJECTID":537780},"geometry":{"x":171366.75000000093,"y":2541461.7100000028}},{"attributes":{"ID":537808,"DIS_CODE":0,"TOWNNAME":"東區","LI":"和平里","LIN":"19鄰","STREET":"仁和路","SECT":" ","MAREA":" ","LANE":" ","ALLEY":" ","HOUSE_NO":"９５號之２６","E_COORD97":171361.38,"N_COORD97":2541461.1200000001,"ADDRESS":"仁和路９５號之２６","OBJECTID":537781},"geometry":{"x":171361.37999999989,"y":2541461.120000001}},{"attributes":{"ID":537809,"DIS_CODE":0,"TOWNNAME":"東區","LI":"和平里","LIN":"19鄰","STREET":"仁和路","SECT":" ","MAREA":" ","LANE":" ","ALLEY":" ","HOUSE_NO":"９５號之２７","E_COORD97":171357.20999999999,"N_COORD97":2541460.7200000002,"ADDRESS":"仁和路９５號之２７","OBJECTID":537782},"geometry":{"x":171357.21000000089,"y":2541460.7200000025}},{"attributes":{"ID":537810,"DIS_CODE":0,"TOWNNAME":"東區","LI":"和平里","LIN":"19鄰","STREET":"仁和路","SECT":" ","MAREA":" ","LANE":" ","ALLEY":" ","HOUSE_NO":"９５號之２８","E_COORD97":171356.01999999999,"N_COORD97":2541477.2000000002,"ADDRESS":"仁和路９５號之２８","OBJECTID":537783},"geometry":{"x":171356.02000000048,"y":2541477.2000000011}},{"attributes":{"ID":537811,"DIS_CODE":0,"TOWNNAME":"東區","LI":"和平里","LIN":"19鄰","STREET":"仁和路","SECT":" ","MAREA":" ","LANE":" ","ALLEY":" ","HOUSE_NO":"９５號之２９","E_COORD97":171360.19,"N_COORD97":2541477.5899999999,"ADDRESS":"仁和路９５號之２９","OBJECTID":537784},"geometry":{"x":171360.19000000041,"y":2541477.5900000017}},{"attributes":{"ID":537812,"DIS_CODE":0,"TOWNNAME":"東區","LI":"和平里","LIN":"19鄰","STREET":"仁和路","SECT":" ","MAREA":" ","LANE":" ","ALLEY":" ","HOUSE_NO":"９５號之３０","E_COORD97":171364.35999999999,"N_COORD97":2541477.9900000002,"ADDRESS":"仁和路９５號之３０","OBJECTID":537785},"geometry":{"x":171364.3600000022,"y":2541477.9900000002}},{"attributes":{"ID":537813,"DIS_CODE":0,"TOWNNAME":"東區","LI":"和平里","LIN":"19鄰","STREET":"仁和路","SECT":" ","MAREA":" ","LANE":" ","ALLEY":" ","HOUSE_NO":"９５號之３７","E_COORD97":171387.81,"N_COORD97":2541492.48,"ADDRESS":"仁和路９５號之３７","OBJECTID":537786},"geometry":{"x":171387.81000000052,"y":2541492.4800000042}},{"attributes":{"ID":537814,"DIS_CODE":0,"TOWNNAME":"東區","LI":"和平里","LIN":"19鄰","STREET":"仁和路","SECT":" ","MAREA":" ","LANE":" ","ALLEY":" ","HOUSE_NO":"９５號之１６","E_COORD97":171381.07000000001,"N_COORD97":2541447.54,"ADDRESS":"仁和路９５號之１６","OBJECTID":537787},"geometry":{"x":171381.0700000003,"y":2541447.540000001}},{"attributes":{"ID":537815,"DIS_CODE":0,"TOWNNAME":"東區","LI":"和平里","LIN":"19鄰","STREET":"仁和路","SECT":" ","MAREA":" ","LANE":" ","ALLEY":" ","HOUSE_NO":"９５號之１７","E_COORD97":171388.03,"N_COORD97":2541448.73,"ADDRESS":"仁和路９５號之１７","OBJECTID":537788},"geometry":{"x":171388.03000000026,"y":2541448.7300000004}},{"attributes":{"ID":537816,"DIS_CODE":0,"TOWNNAME":"東區","LI":"和平里","LIN":"19鄰","STREET":"仁和路","SECT":" ","MAREA":" ","LANE":" ","ALLEY":" ","HOUSE_NO":"９５號之２１","E_COORD97":171387.42000000001,"N_COORD97":2541465.6800000002,"ADDRESS":"仁和路９５號之２１","OBJECTID":537789},"geometry":{"x":171387.42000000086,"y":2541465.6799999997}},{"attributes":{"ID":537817,"DIS_CODE":0,"TOWNNAME":"東區","LI":"和平里","LIN":"19鄰","STREET":"仁和路","SECT":" ","MAREA":" ","LANE":" ","ALLEY":" ","HOUSE_NO":"９５號之２２","E_COORD97":171382.04999999999,"N_COORD97":2541464.6899999999,"ADDRESS":"仁和路９５號之２２","OBJECTID":537790},"geometry":{"x":171382.04999999981,"y":2541464.6899999995}},{"attributes":{"ID":537818,"DIS_CODE":0,"TOWNNAME":"東區","LI":"和平里","LIN":"19鄰","STREET":"仁和路","SECT":" ","MAREA":" ","LANE":" ","ALLEY":" ","HOUSE_NO":"９５號之２３","E_COORD97":171377.88,"N_COORD97":2541462.5099999998,"ADDRESS":"仁和路９５號之２３","OBJECTID":537791},"geometry":{"x":171377.88000000082,"y":2541462.5100000016}},{"attributes":{"ID":537819,"DIS_CODE":0,"TOWNNAME":"東區","LI":"和平里","LIN":"19鄰","STREET":"仁和路","SECT":" ","MAREA":" ","LANE":" ","ALLEY":" ","HOUSE_NO":"９５號之３２","E_COORD97":171376.09,"N_COORD97":2541480.1699999999,"ADDRESS":"仁和路９５號之３２","OBJECTID":537792},"geometry":{"x":171376.09000000078,"y":2541480.1700000037}},{"attributes":{"ID":537820,"DIS_CODE":0,"TOWNNAME":"中西區","LI":"仙草里","LIN":"3鄰","STREET":"五妃街","SECT":" ","MAREA":" ","LANE":" ","ALLEY":" ","HOUSE_NO":"２８２號","E_COORD97":167889.82999999999,"N_COORD97":2542591.6299999999,"ADDRESS":"五妃街２８２號","OBJECTID":537793},"geometry":{"x":167889.83000000101,"y":2542591.6300000027}},{"attributes":{"ID":537821,"DIS_CODE":0,"TOWNNAME":"東區","LI":"東光里","LIN":"19鄰","STREET":"東興路","SECT":" ","MAREA":" ","LANE":" ","ALLEY":" ","HOUSE_NO":"１４９號","E_COORD97":170972.67000000001,"N_COORD97":2543755.98,"ADDRESS":"東興路１４９號","OBJECTID":537794},"geometry":{"x":170972.67000000086,"y":2543755.9800000004}},{"attributes":{"ID":537822,"DIS_CODE":0,"TOWNNAME":"東區","LI":"東光里","LIN":"19鄰","STREET":"東興路","SECT":" ","MAREA":" ","LANE":" ","ALLEY":" ","HOUSE_NO":"１５１號","E_COORD97":170974.13,"N_COORD97":2543761.3100000001,"ADDRESS":"東興路１５１號","OBJECTID":537795},"geometry":{"x":170974.13000000082,"y":2543761.3100000005}},{"attributes":{"ID":537823,"DIS_CODE":0,"TOWNNAME":"東區","LI":"東光里","LIN":"19鄰","STREET":"東興路","SECT":" ","MAREA":" ","LANE":" ","ALLEY":" ","HOUSE_NO":"１５３號","E_COORD97":170976.14999999999,"N_COORD97":2543766.0800000001,"ADDRESS":"東興路１５３號","OBJECTID":537796},"geometry":{"x":170976.1500000013,"y":2543766.0800000038}},{"attributes":{"ID":537824,"DIS_CODE":0,"TOWNNAME":"東區","LI":"東光里","LIN":"19鄰","STREET":"東興路","SECT":" ","MAREA":" ","LANE":" ","ALLEY":" ","HOUSE_NO":"１５５號","E_COORD97":170977.92999999999,"N_COORD97":2543769.5600000001,"ADDRESS":"東興路１５５號","OBJECTID":537797},"geometry":{"x":170977.9299999997,"y":2543769.5600000005}},{"attributes":{"ID":537825,"DIS_CODE":0,"TOWNNAME":"東區","LI":"東光里","LIN":"19鄰","STREET":"東興路","SECT":" ","MAREA":" ","LANE":" ","ALLEY":" ","HOUSE_NO":"１５７號","E_COORD97":170978.57000000001,"N_COORD97":2543774,"ADDRESS":"東興路１５７號","OBJECTID":537798},"geometry":{"x":170978.57000000123,"y":2543774.0000000019}},{"attributes":{"ID":537826,"DIS_CODE":0,"TOWNNAME":"東區","LI":"東光里","LIN":"19鄰","STREET":"東興路","SECT":" ","MAREA":" ","LANE":" ","ALLEY":" ","HOUSE_NO":"１５９號","E_COORD97":170979.38,"N_COORD97":2543777.6400000001,"ADDRESS":"東興路１５９號","OBJECTID":537799},"geometry":{"x":170979.38000000082,"y":2543777.6400000025}},{"attributes":{"ID":537827,"DIS_CODE":0,"TOWNNAME":"東區","LI":"東光里","LIN":"19鄰","STREET":"東興路","SECT":" ","MAREA":" ","LANE":" ","ALLEY":" ","HOUSE_NO":"１６１號","E_COORD97":170981.16,"N_COORD97":2543781.8399999999,"ADDRESS":"東興路１６１號","OBJECTID":537800},"geometry":{"x":170981.16000000108,"y":2543781.8400000017}}]}