{"displayFieldName":"TOWNNAME","fieldAliases":{"ID":"ID","DIS_CODE":"DIS_CODE","TOWNNAME":"TOWNNAME","LI":"LI","LIN":"LIN","STREET":"STREET","SECT":"SECT","MAREA":"MAREA","LANE":"LANE","ALLEY":"ALLEY","HOUSE_NO":"HOUSE_NO","E_COORD97":"E_COORD97","N_COORD97":"N_COORD97","ADDRESS":"ADDRESS","OBJECTID":"OBJECTID"},"geometryType":"esriGeometryPoint","spatialReference":{"wkid":102443,"latestWkid":3826},"fields":[{"name":"ID","type":"esriFieldTypeDouble","alias":"ID"},{"name":"DIS_CODE","type":"esriFieldTypeInteger","alias":"DIS_CODE"},{"name":"TOWNNAME","type":"esriFieldTypeString","alias":"TOWNNAME","length":8},{"name":"LI","type":"esriFieldTypeString","alias":"LI","length":8},{"name":"LIN","type":"esriFieldTypeString","alias":"LIN","length":12},{"name":"STREET","type":"esriFieldTypeString","alias":"STREET","length":20},{"name":"SECT","type":"esriFieldTypeString","alias":"SECT","length":8},{"name":"MAREA","type":"esriFieldTypeString","alias":"MAREA","length":12},{"name":"LANE","type":"esriFieldTypeString","alias":"LANE","length":10},{"name":"ALLEY","type":"esriFieldTypeString","alias":"ALLEY","length":10},{"name":"HOUSE_NO","type":"esriFieldTypeString","alias":"HOUSE_NO","length":20},{"name":"E_COORD97","type":"esriFieldTypeDouble","alias":"E_COORD97"},{"name":"N_COORD97","type":"esriFieldTypeDouble","alias":"N_COORD97"},{"name":"ADDRESS","type":"esriFieldTypeString","alias":"ADDRESS","length":50},{"name":"OBJECTID","type":"esriFieldTypeOID","alias":"OBJECTID"}],"features":[{"attributes":{"ID":416625,"DIS_CODE":0,"TOWNNAME":"南區","LI":"新生里","LIN":"2鄰","STREET":"大同路","SECT":"二段","MAREA":" ","LANE":"１８６巷","ALLEY":" ","HOUSE_NO":"３號五樓之５","E_COORD97":169325.45000000001,"N_COORD97":2541931.1200000001,"ADDRESS":"大同路二段１８６巷３號五樓之５","OBJECTID":416601},"geometry":{"x":169325.45000000019,"y":2541931.120000001}},{"attributes":{"ID":416626,"DIS_CODE":0,"TOWNNAME":"南區","LI":"新生里","LIN":"2鄰","STREET":"大同路","SECT":"二段","MAREA":" ","LANE":"１８６巷","ALLEY":" ","HOUSE_NO":"３號六樓之１","E_COORD97":169325.45000000001,"N_COORD97":2541931.1200000001,"ADDRESS":"大同路二段１８６巷３號六樓之１","OBJECTID":416602},"geometry":{"x":169325.45000000019,"y":2541931.120000001}},{"attributes":{"ID":416627,"DIS_CODE":0,"TOWNNAME":"南區","LI":"新生里","LIN":"2鄰","STREET":"大同路","SECT":"二段","MAREA":" ","LANE":"１８６巷","ALLEY":" ","HOUSE_NO":"３號六樓之２","E_COORD97":169325.45000000001,"N_COORD97":2541931.1200000001,"ADDRESS":"大同路二段１８６巷３號六樓之２","OBJECTID":416603},"geometry":{"x":169325.45000000019,"y":2541931.120000001}},{"attributes":{"ID":416628,"DIS_CODE":0,"TOWNNAME":"南區","LI":"新生里","LIN":"2鄰","STREET":"大同路","SECT":"二段","MAREA":" ","LANE":"１８６巷","ALLEY":" ","HOUSE_NO":"３號六樓之３","E_COORD97":169325.45000000001,"N_COORD97":2541931.1200000001,"ADDRESS":"大同路二段１８６巷３號六樓之３","OBJECTID":416604},"geometry":{"x":169325.45000000019,"y":2541931.120000001}},{"attributes":{"ID":416629,"DIS_CODE":0,"TOWNNAME":"南區","LI":"新生里","LIN":"2鄰","STREET":"大同路","SECT":"二段","MAREA":" ","LANE":"１８６巷","ALLEY":" ","HOUSE_NO":"３號六樓之５","E_COORD97":169325.45000000001,"N_COORD97":2541931.1200000001,"ADDRESS":"大同路二段１８６巷３號六樓之５","OBJECTID":416605},"geometry":{"x":169325.45000000019,"y":2541931.120000001}},{"attributes":{"ID":416630,"DIS_CODE":0,"TOWNNAME":"南區","LI":"新生里","LIN":"2鄰","STREET":"大同路","SECT":"二段","MAREA":" ","LANE":"１８６巷","ALLEY":" ","HOUSE_NO":"３號七樓之１","E_COORD97":169325.45000000001,"N_COORD97":2541931.1200000001,"ADDRESS":"大同路二段１８６巷３號七樓之１","OBJECTID":416606},"geometry":{"x":169325.45000000019,"y":2541931.120000001}},{"attributes":{"ID":416631,"DIS_CODE":0,"TOWNNAME":"楠西區","LI":"灣丘里","LIN":"9鄰","STREET":" ","SECT":" ","MAREA":"香蕉山","LANE":" ","ALLEY":" ","HOUSE_NO":"３號之１０","E_COORD97":202201.30016099999,"N_COORD97":2564728.7812399999,"ADDRESS":"香蕉山３號之１０","OBJECTID":416607},"geometry":{"x":202201.30016100127,"y":2564728.7812370006}},{"attributes":{"ID":416632,"DIS_CODE":0,"TOWNNAME":"南區","LI":"新生里","LIN":"2鄰","STREET":"大同路","SECT":"二段","MAREA":" ","LANE":"１８６巷","ALLEY":" ","HOUSE_NO":"３號七樓之２","E_COORD97":169325.45000000001,"N_COORD97":2541931.1200000001,"ADDRESS":"大同路二段１８６巷３號七樓之２","OBJECTID":416608},"geometry":{"x":169325.45000000019,"y":2541931.120000001}},{"attributes":{"ID":416633,"DIS_CODE":0,"TOWNNAME":"南區","LI":"新生里","LIN":"2鄰","STREET":"大同路","SECT":"二段","MAREA":" ","LANE":"１８６巷","ALLEY":" ","HOUSE_NO":"３號七樓之３","E_COORD97":169325.45000000001,"N_COORD97":2541931.1200000001,"ADDRESS":"大同路二段１８６巷３號七樓之３","OBJECTID":416609},"geometry":{"x":169325.45000000019,"y":2541931.120000001}},{"attributes":{"ID":416634,"DIS_CODE":0,"TOWNNAME":"南區","LI":"新生里","LIN":"2鄰","STREET":"大同路","SECT":"二段","MAREA":" ","LANE":"１８６巷","ALLEY":" ","HOUSE_NO":"３號七樓之５","E_COORD97":169325.45000000001,"N_COORD97":2541931.1200000001,"ADDRESS":"大同路二段１８６巷３號七樓之５","OBJECTID":416610},"geometry":{"x":169325.45000000019,"y":2541931.120000001}},{"attributes":{"ID":416635,"DIS_CODE":0,"TOWNNAME":"中西區","LI":"赤嵌里","LIN":"3鄰","STREET":"廣慈街","SECT":" ","MAREA":" ","LANE":"３２巷","ALLEY":" ","HOUSE_NO":"３號","E_COORD97":168689.35999999999,"N_COORD97":2544081.9300000002,"ADDRESS":"廣慈街３２巷３號","OBJECTID":416611},"geometry":{"x":168689.3600000022,"y":2544081.9300000034}},{"attributes":{"ID":416636,"DIS_CODE":0,"TOWNNAME":"南區","LI":"新生里","LIN":"2鄰","STREET":"大同路","SECT":"二段","MAREA":" ","LANE":"１８６巷","ALLEY":" ","HOUSE_NO":"３號三樓之１","E_COORD97":169325.45000000001,"N_COORD97":2541931.1200000001,"ADDRESS":"大同路二段１８６巷３號三樓之１","OBJECTID":416612},"geometry":{"x":169325.45000000019,"y":2541931.120000001}},{"attributes":{"ID":416637,"DIS_CODE":0,"TOWNNAME":"南區","LI":"新生里","LIN":"2鄰","STREET":"大同路","SECT":"二段","MAREA":" ","LANE":"１８６巷","ALLEY":" ","HOUSE_NO":"３號三樓之２","E_COORD97":169325.45000000001,"N_COORD97":2541931.1200000001,"ADDRESS":"大同路二段１８６巷３號三樓之２","OBJECTID":416613},"geometry":{"x":169325.45000000019,"y":2541931.120000001}},{"attributes":{"ID":416638,"DIS_CODE":0,"TOWNNAME":"南區","LI":"新生里","LIN":"2鄰","STREET":"大同路","SECT":"二段","MAREA":" ","LANE":"１８６巷","ALLEY":" ","HOUSE_NO":"３號三樓之３","E_COORD97":169325.45000000001,"N_COORD97":2541931.1200000001,"ADDRESS":"大同路二段１８６巷３號三樓之３","OBJECTID":416614},"geometry":{"x":169325.45000000019,"y":2541931.120000001}},{"attributes":{"ID":416639,"DIS_CODE":0,"TOWNNAME":"南區","LI":"新生里","LIN":"2鄰","STREET":"大同路","SECT":"二段","MAREA":" ","LANE":"１８６巷","ALLEY":" ","HOUSE_NO":"３號三樓之５","E_COORD97":169325.45000000001,"N_COORD97":2541931.1200000001,"ADDRESS":"大同路二段１８６巷３號三樓之５","OBJECTID":416615},"geometry":{"x":169325.45000000019,"y":2541931.120000001}},{"attributes":{"ID":416640,"DIS_CODE":0,"TOWNNAME":"南區","LI":"新生里","LIN":"2鄰","STREET":"大同路","SECT":"二段","MAREA":" ","LANE":"１８６巷","ALLEY":" ","HOUSE_NO":"３號四樓之１","E_COORD97":169325.45000000001,"N_COORD97":2541931.1200000001,"ADDRESS":"大同路二段１８６巷３號四樓之１","OBJECTID":416616},"geometry":{"x":169325.45000000019,"y":2541931.120000001}},{"attributes":{"ID":416641,"DIS_CODE":0,"TOWNNAME":"南區","LI":"新生里","LIN":"2鄰","STREET":"大同路","SECT":"二段","MAREA":" ","LANE":"１８６巷","ALLEY":" ","HOUSE_NO":"３號四樓之２","E_COORD97":169325.45000000001,"N_COORD97":2541931.1200000001,"ADDRESS":"大同路二段１８６巷３號四樓之２","OBJECTID":416617},"geometry":{"x":169325.45000000019,"y":2541931.120000001}},{"attributes":{"ID":416642,"DIS_CODE":0,"TOWNNAME":"南區","LI":"新生里","LIN":"2鄰","STREET":"大同路","SECT":"二段","MAREA":" ","LANE":"１８６巷","ALLEY":" ","HOUSE_NO":"３號四樓之３","E_COORD97":169325.45000000001,"N_COORD97":2541931.1200000001,"ADDRESS":"大同路二段１８６巷３號四樓之３","OBJECTID":416618},"geometry":{"x":169325.45000000019,"y":2541931.120000001}},{"attributes":{"ID":416643,"DIS_CODE":0,"TOWNNAME":"北區","LI":"振興里","LIN":"2鄰","STREET":"勝利路","SECT":" ","MAREA":" ","LANE":"２６２巷","ALLEY":" ","HOUSE_NO":"４號二樓","E_COORD97":169960.98999999999,"N_COORD97":2545095.5899999999,"ADDRESS":"勝利路２６２巷４號二樓","OBJECTID":416619},"geometry":{"x":169960.99000000022,"y":2545095.5900000017}},{"attributes":{"ID":416644,"DIS_CODE":0,"TOWNNAME":"南區","LI":"新生里","LIN":"2鄰","STREET":"大同路","SECT":"二段","MAREA":" ","LANE":"１８６巷","ALLEY":" ","HOUSE_NO":"３號四樓之５","E_COORD97":169325.45000000001,"N_COORD97":2541931.1200000001,"ADDRESS":"大同路二段１８６巷３號四樓之５","OBJECTID":416620},"geometry":{"x":169325.45000000019,"y":2541931.120000001}},{"attributes":{"ID":416645,"DIS_CODE":0,"TOWNNAME":"南區","LI":"新生里","LIN":"2鄰","STREET":"大同路","SECT":"二段","MAREA":" ","LANE":"１８６巷","ALLEY":" ","HOUSE_NO":"３號八樓之１","E_COORD97":169325.45000000001,"N_COORD97":2541931.1200000001,"ADDRESS":"大同路二段１８６巷３號八樓之１","OBJECTID":416621},"geometry":{"x":169325.45000000019,"y":2541931.120000001}},{"attributes":{"ID":416646,"DIS_CODE":0,"TOWNNAME":"南區","LI":"新生里","LIN":"2鄰","STREET":"大同路","SECT":"二段","MAREA":" ","LANE":"１８６巷","ALLEY":" ","HOUSE_NO":"３號八樓之２","E_COORD97":169325.45000000001,"N_COORD97":2541931.1200000001,"ADDRESS":"大同路二段１８６巷３號八樓之２","OBJECTID":416622},"geometry":{"x":169325.45000000019,"y":2541931.120000001}},{"attributes":{"ID":416647,"DIS_CODE":0,"TOWNNAME":"南區","LI":"新生里","LIN":"2鄰","STREET":"大同路","SECT":"二段","MAREA":" ","LANE":"１８６巷","ALLEY":" ","HOUSE_NO":"３號八樓之３","E_COORD97":169325.45000000001,"N_COORD97":2541931.1200000001,"ADDRESS":"大同路二段１８６巷３號八樓之３","OBJECTID":416623},"geometry":{"x":169325.45000000019,"y":2541931.120000001}},{"attributes":{"ID":416648,"DIS_CODE":0,"TOWNNAME":"南區","LI":"新生里","LIN":"2鄰","STREET":"大同路","SECT":"二段","MAREA":" ","LANE":"１８６巷","ALLEY":" ","HOUSE_NO":"３號八樓之５","E_COORD97":169325.45000000001,"N_COORD97":2541931.1200000001,"ADDRESS":"大同路二段１８６巷３號八樓之５","OBJECTID":416624},"geometry":{"x":169325.45000000019,"y":2541931.120000001}},{"attributes":{"ID":416649,"DIS_CODE":0,"TOWNNAME":"南區","LI":"新生里","LIN":"2鄰","STREET":"大同路","SECT":"二段","MAREA":" ","LANE":"１８６巷","ALLEY":" ","HOUSE_NO":"３號九樓之１","E_COORD97":169325.45000000001,"N_COORD97":2541931.1200000001,"ADDRESS":"大同路二段１８６巷３號九樓之１","OBJECTID":416625},"geometry":{"x":169325.45000000019,"y":2541931.120000001}},{"attributes":{"ID":416650,"DIS_CODE":0,"TOWNNAME":"南區","LI":"新生里","LIN":"2鄰","STREET":"大同路","SECT":"二段","MAREA":" ","LANE":"１８６巷","ALLEY":" ","HOUSE_NO":"３號九樓之２","E_COORD97":169325.45000000001,"N_COORD97":2541931.1200000001,"ADDRESS":"大同路二段１８６巷３號九樓之２","OBJECTID":416626},"geometry":{"x":169325.45000000019,"y":2541931.120000001}},{"attributes":{"ID":416651,"DIS_CODE":0,"TOWNNAME":"南區","LI":"新生里","LIN":"2鄰","STREET":"大同路","SECT":"二段","MAREA":" ","LANE":"１８６巷","ALLEY":" ","HOUSE_NO":"３號九樓之３","E_COORD97":169325.45000000001,"N_COORD97":2541931.1200000001,"ADDRESS":"大同路二段１８６巷３號九樓之３","OBJECTID":416627},"geometry":{"x":169325.45000000019,"y":2541931.120000001}},{"attributes":{"ID":416652,"DIS_CODE":0,"TOWNNAME":"南區","LI":"新生里","LIN":"2鄰","STREET":"大同路","SECT":"二段","MAREA":" ","LANE":"１８６巷","ALLEY":" ","HOUSE_NO":"３號九樓之５","E_COORD97":169325.45000000001,"N_COORD97":2541931.1200000001,"ADDRESS":"大同路二段１８６巷３號九樓之５","OBJECTID":416628},"geometry":{"x":169325.45000000019,"y":2541931.120000001}},{"attributes":{"ID":416653,"DIS_CODE":0,"TOWNNAME":"南區","LI":"新生里","LIN":"2鄰","STREET":"大同路","SECT":"二段","MAREA":" ","LANE":"１８６巷","ALLEY":" ","HOUSE_NO":"３號二樓之１","E_COORD97":169325.45000000001,"N_COORD97":2541931.1200000001,"ADDRESS":"大同路二段１８６巷３號二樓之１","OBJECTID":416629},"geometry":{"x":169325.45000000019,"y":2541931.120000001}},{"attributes":{"ID":416654,"DIS_CODE":0,"TOWNNAME":"南區","LI":"新生里","LIN":"2鄰","STREET":"大同路","SECT":"二段","MAREA":" ","LANE":"１８６巷","ALLEY":" ","HOUSE_NO":"３號二樓之２","E_COORD97":169325.45000000001,"N_COORD97":2541931.1200000001,"ADDRESS":"大同路二段１８６巷３號二樓之２","OBJECTID":416630},"geometry":{"x":169325.45000000019,"y":2541931.120000001}},{"attributes":{"ID":416655,"DIS_CODE":0,"TOWNNAME":"北區","LI":"大道里","LIN":"2鄰","STREET":"北門路","SECT":"二段","MAREA":" ","LANE":"５７６巷","ALLEY":" ","HOUSE_NO":"１１號二樓之２","E_COORD97":169738.39999999999,"N_COORD97":2545771.8599999999,"ADDRESS":"北門路二段５７６巷１１號二樓之２","OBJECTID":416631},"geometry":{"x":169738.40000000224,"y":2545771.8600000013}},{"attributes":{"ID":416656,"DIS_CODE":0,"TOWNNAME":"北區","LI":"大道里","LIN":"2鄰","STREET":"北門路","SECT":"二段","MAREA":" ","LANE":"５７６巷","ALLEY":" ","HOUSE_NO":"１１號二樓之１","E_COORD97":169738.39999999999,"N_COORD97":2545771.8599999999,"ADDRESS":"北門路二段５７６巷１１號二樓之１","OBJECTID":416632},"geometry":{"x":169738.40000000224,"y":2545771.8600000013}},{"attributes":{"ID":416657,"DIS_CODE":0,"TOWNNAME":"北區","LI":"大道里","LIN":"2鄰","STREET":"北門路","SECT":"二段","MAREA":" ","LANE":"５７６巷","ALLEY":" ","HOUSE_NO":"１１號三樓之２","E_COORD97":169738.39999999999,"N_COORD97":2545771.8599999999,"ADDRESS":"北門路二段５７６巷１１號三樓之２","OBJECTID":416633},"geometry":{"x":169738.40000000224,"y":2545771.8600000013}},{"attributes":{"ID":416658,"DIS_CODE":0,"TOWNNAME":"北區","LI":"大道里","LIN":"2鄰","STREET":"北門路","SECT":"二段","MAREA":" ","LANE":"５７６巷","ALLEY":" ","HOUSE_NO":"１１號三樓之１","E_COORD97":169738.39999999999,"N_COORD97":2545771.8599999999,"ADDRESS":"北門路二段５７６巷１１號三樓之１","OBJECTID":416634},"geometry":{"x":169738.40000000224,"y":2545771.8600000013}},{"attributes":{"ID":416659,"DIS_CODE":0,"TOWNNAME":"北區","LI":"大道里","LIN":"2鄰","STREET":"北門路","SECT":"二段","MAREA":" ","LANE":"５７６巷","ALLEY":" ","HOUSE_NO":"１１號四樓之２","E_COORD97":169738.39999999999,"N_COORD97":2545771.8599999999,"ADDRESS":"北門路二段５７６巷１１號四樓之２","OBJECTID":416635},"geometry":{"x":169738.40000000224,"y":2545771.8600000013}},{"attributes":{"ID":416660,"DIS_CODE":0,"TOWNNAME":"中西區","LI":"天后里","LIN":"13鄰","STREET":"赤嵌街","SECT":" ","MAREA":" ","LANE":"３巷","ALLEY":" ","HOUSE_NO":"５號","E_COORD97":168185.59,"N_COORD97":2544212.02,"ADDRESS":"赤嵌街３巷５號","OBJECTID":416636},"geometry":{"x":168185.59000000078,"y":2544212.0199999996}},{"attributes":{"ID":416661,"DIS_CODE":0,"TOWNNAME":"北區","LI":"大道里","LIN":"2鄰","STREET":"北門路","SECT":"二段","MAREA":" ","LANE":"５７６巷","ALLEY":" ","HOUSE_NO":"１１號四樓之１","E_COORD97":169738.39999999999,"N_COORD97":2545771.8599999999,"ADDRESS":"北門路二段５７６巷１１號四樓之１","OBJECTID":416637},"geometry":{"x":169738.40000000224,"y":2545771.8600000013}},{"attributes":{"ID":416662,"DIS_CODE":0,"TOWNNAME":"北區","LI":"大道里","LIN":"2鄰","STREET":"北門路","SECT":"二段","MAREA":" ","LANE":"５７６巷","ALLEY":" ","HOUSE_NO":"１１號五樓之２","E_COORD97":169738.39999999999,"N_COORD97":2545771.8599999999,"ADDRESS":"北門路二段５７６巷１１號五樓之２","OBJECTID":416638},"geometry":{"x":169738.40000000224,"y":2545771.8600000013}},{"attributes":{"ID":416663,"DIS_CODE":0,"TOWNNAME":"北區","LI":"大道里","LIN":"2鄰","STREET":"北門路","SECT":"二段","MAREA":" ","LANE":"５７６巷","ALLEY":" ","HOUSE_NO":"１１號五樓之１","E_COORD97":169738.39999999999,"N_COORD97":2545771.8599999999,"ADDRESS":"北門路二段５７６巷１１號五樓之１","OBJECTID":416639},"geometry":{"x":169738.40000000224,"y":2545771.8600000013}},{"attributes":{"ID":416664,"DIS_CODE":0,"TOWNNAME":"北區","LI":"大道里","LIN":"2鄰","STREET":"北門路","SECT":"二段","MAREA":" ","LANE":"５７６巷","ALLEY":" ","HOUSE_NO":"１１號六樓之２","E_COORD97":169738.39999999999,"N_COORD97":2545771.8599999999,"ADDRESS":"北門路二段５７６巷１１號六樓之２","OBJECTID":416640},"geometry":{"x":169738.40000000224,"y":2545771.8600000013}},{"attributes":{"ID":416665,"DIS_CODE":0,"TOWNNAME":"北區","LI":"大道里","LIN":"2鄰","STREET":"北門路","SECT":"二段","MAREA":" ","LANE":"５７６巷","ALLEY":" ","HOUSE_NO":"１１號六樓之１","E_COORD97":169738.39999999999,"N_COORD97":2545771.8599999999,"ADDRESS":"北門路二段５７６巷１１號六樓之１","OBJECTID":416641},"geometry":{"x":169738.40000000224,"y":2545771.8600000013}},{"attributes":{"ID":416666,"DIS_CODE":0,"TOWNNAME":"北區","LI":"大道里","LIN":"2鄰","STREET":"北門路","SECT":"二段","MAREA":" ","LANE":"５７６巷","ALLEY":" ","HOUSE_NO":"１１號七樓之２","E_COORD97":169738.39999999999,"N_COORD97":2545771.8599999999,"ADDRESS":"北門路二段５７６巷１１號七樓之２","OBJECTID":416642},"geometry":{"x":169738.40000000224,"y":2545771.8600000013}},{"attributes":{"ID":416667,"DIS_CODE":0,"TOWNNAME":"北區","LI":"大道里","LIN":"2鄰","STREET":"北門路","SECT":"二段","MAREA":" ","LANE":"５７６巷","ALLEY":" ","HOUSE_NO":"１１號七樓之１","E_COORD97":169738.39999999999,"N_COORD97":2545771.8599999999,"ADDRESS":"北門路二段５７６巷１１號七樓之１","OBJECTID":416643},"geometry":{"x":169738.40000000224,"y":2545771.8600000013}},{"attributes":{"ID":416668,"DIS_CODE":0,"TOWNNAME":"北區","LI":"大道里","LIN":"2鄰","STREET":"北門路","SECT":"二段","MAREA":" ","LANE":"５７６巷","ALLEY":" ","HOUSE_NO":"１１號八樓之２","E_COORD97":169738.39999999999,"N_COORD97":2545771.8599999999,"ADDRESS":"北門路二段５７６巷１１號八樓之２","OBJECTID":416644},"geometry":{"x":169738.40000000224,"y":2545771.8600000013}},{"attributes":{"ID":416669,"DIS_CODE":0,"TOWNNAME":"北區","LI":"大道里","LIN":"2鄰","STREET":"北門路","SECT":"二段","MAREA":" ","LANE":"５７６巷","ALLEY":" ","HOUSE_NO":"１１號八樓之１","E_COORD97":169738.39999999999,"N_COORD97":2545771.8599999999,"ADDRESS":"北門路二段５７６巷１１號八樓之１","OBJECTID":416645},"geometry":{"x":169738.40000000224,"y":2545771.8600000013}},{"attributes":{"ID":416670,"DIS_CODE":0,"TOWNNAME":"北區","LI":"三德里","LIN":"5鄰","STREET":"裕民街","SECT":" ","MAREA":" ","LANE":"７２巷","ALLEY":" ","HOUSE_NO":"８號","E_COORD97":168507.87,"N_COORD97":2544485.9700000002,"ADDRESS":"裕民街７２巷８號","OBJECTID":416646},"geometry":{"x":168507.87000000104,"y":2544485.9700000007}},{"attributes":{"ID":416671,"DIS_CODE":0,"TOWNNAME":"北區","LI":"大道里","LIN":"2鄰","STREET":"北門路","SECT":"二段","MAREA":" ","LANE":"５７６巷","ALLEY":" ","HOUSE_NO":"１１號九樓之２","E_COORD97":169738.39999999999,"N_COORD97":2545771.8599999999,"ADDRESS":"北門路二段５７６巷１１號九樓之２","OBJECTID":416647},"geometry":{"x":169738.40000000224,"y":2545771.8600000013}},{"attributes":{"ID":416672,"DIS_CODE":0,"TOWNNAME":"北區","LI":"大道里","LIN":"2鄰","STREET":"北門路","SECT":"二段","MAREA":" ","LANE":"５７６巷","ALLEY":" ","HOUSE_NO":"１１號九樓之１","E_COORD97":169738.39999999999,"N_COORD97":2545771.8599999999,"ADDRESS":"北門路二段５７６巷１１號九樓之１","OBJECTID":416648},"geometry":{"x":169738.40000000224,"y":2545771.8600000013}},{"attributes":{"ID":416673,"DIS_CODE":0,"TOWNNAME":"北區","LI":"大道里","LIN":"2鄰","STREET":"北門路","SECT":"二段","MAREA":" ","LANE":"５７６巷","ALLEY":" ","HOUSE_NO":"１１號十樓之２","E_COORD97":169738.39999999999,"N_COORD97":2545771.8599999999,"ADDRESS":"北門路二段５７６巷１１號十樓之２","OBJECTID":416649},"geometry":{"x":169738.40000000224,"y":2545771.8600000013}},{"attributes":{"ID":416674,"DIS_CODE":0,"TOWNNAME":"北區","LI":"大道里","LIN":"2鄰","STREET":"北門路","SECT":"二段","MAREA":" ","LANE":"５７６巷","ALLEY":" ","HOUSE_NO":"１１號十樓之１","E_COORD97":169738.39999999999,"N_COORD97":2545771.8599999999,"ADDRESS":"北門路二段５７６巷１１號十樓之１","OBJECTID":416650},"geometry":{"x":169738.40000000224,"y":2545771.8600000013}},{"attributes":{"ID":416675,"DIS_CODE":0,"TOWNNAME":"北區","LI":"大道里","LIN":"2鄰","STREET":"北門路","SECT":"二段","MAREA":" ","LANE":"５７６巷","ALLEY":" ","HOUSE_NO":"１５號二樓之２","E_COORD97":169731.26000000001,"N_COORD97":2545738.9199999999,"ADDRESS":"北門路二段５７６巷１５號二樓之２","OBJECTID":416651},"geometry":{"x":169731.25999999978,"y":2545738.9199999999}},{"attributes":{"ID":416676,"DIS_CODE":0,"TOWNNAME":"北區","LI":"大道里","LIN":"2鄰","STREET":"北門路","SECT":"二段","MAREA":" ","LANE":"５７６巷","ALLEY":" ","HOUSE_NO":"１５號二樓之１","E_COORD97":169731.26000000001,"N_COORD97":2545738.9199999999,"ADDRESS":"北門路二段５７６巷１５號二樓之１","OBJECTID":416652},"geometry":{"x":169731.25999999978,"y":2545738.9199999999}},{"attributes":{"ID":416677,"DIS_CODE":0,"TOWNNAME":"北區","LI":"大道里","LIN":"2鄰","STREET":"北門路","SECT":"二段","MAREA":" ","LANE":"５７６巷","ALLEY":" ","HOUSE_NO":"１５號三樓之２","E_COORD97":169731.26000000001,"N_COORD97":2545738.9199999999,"ADDRESS":"北門路二段５７６巷１５號三樓之２","OBJECTID":416653},"geometry":{"x":169731.25999999978,"y":2545738.9199999999}},{"attributes":{"ID":416678,"DIS_CODE":0,"TOWNNAME":"北區","LI":"大道里","LIN":"2鄰","STREET":"北門路","SECT":"二段","MAREA":" ","LANE":"５７６巷","ALLEY":" ","HOUSE_NO":"１５號三樓之１","E_COORD97":169731.26000000001,"N_COORD97":2545738.9199999999,"ADDRESS":"北門路二段５７６巷１５號三樓之１","OBJECTID":416654},"geometry":{"x":169731.25999999978,"y":2545738.9199999999}},{"attributes":{"ID":416679,"DIS_CODE":0,"TOWNNAME":"北區","LI":"大道里","LIN":"2鄰","STREET":"北門路","SECT":"二段","MAREA":" ","LANE":"５７６巷","ALLEY":" ","HOUSE_NO":"１５號四樓之２","E_COORD97":169731.26000000001,"N_COORD97":2545738.9199999999,"ADDRESS":"北門路二段５７６巷１５號四樓之２","OBJECTID":416655},"geometry":{"x":169731.25999999978,"y":2545738.9199999999}},{"attributes":{"ID":416680,"DIS_CODE":0,"TOWNNAME":"北區","LI":"大道里","LIN":"2鄰","STREET":"北門路","SECT":"二段","MAREA":" ","LANE":"５７６巷","ALLEY":" ","HOUSE_NO":"１５號四樓之１","E_COORD97":169731.26000000001,"N_COORD97":2545738.9199999999,"ADDRESS":"北門路二段５７６巷１５號四樓之１","OBJECTID":416656},"geometry":{"x":169731.25999999978,"y":2545738.9199999999}},{"attributes":{"ID":416681,"DIS_CODE":0,"TOWNNAME":"北區","LI":"大道里","LIN":"2鄰","STREET":"北門路","SECT":"二段","MAREA":" ","LANE":"５７６巷","ALLEY":" ","HOUSE_NO":"１５號五樓之２","E_COORD97":169731.26000000001,"N_COORD97":2545738.9199999999,"ADDRESS":"北門路二段５７６巷１５號五樓之２","OBJECTID":416657},"geometry":{"x":169731.25999999978,"y":2545738.9199999999}},{"attributes":{"ID":416682,"DIS_CODE":0,"TOWNNAME":"北區","LI":"大道里","LIN":"2鄰","STREET":"北門路","SECT":"二段","MAREA":" ","LANE":"５７６巷","ALLEY":" ","HOUSE_NO":"１５號五樓之１","E_COORD97":169731.26000000001,"N_COORD97":2545738.9199999999,"ADDRESS":"北門路二段５７６巷１５號五樓之１","OBJECTID":416658},"geometry":{"x":169731.25999999978,"y":2545738.9199999999}},{"attributes":{"ID":416683,"DIS_CODE":0,"TOWNNAME":"北區","LI":"大道里","LIN":"2鄰","STREET":"北門路","SECT":"二段","MAREA":" ","LANE":"５７６巷","ALLEY":" ","HOUSE_NO":"１５號六樓之２","E_COORD97":169731.26000000001,"N_COORD97":2545738.9199999999,"ADDRESS":"北門路二段５７６巷１５號六樓之２","OBJECTID":416659},"geometry":{"x":169731.25999999978,"y":2545738.9199999999}},{"attributes":{"ID":416684,"DIS_CODE":0,"TOWNNAME":"北區","LI":"大道里","LIN":"2鄰","STREET":"北門路","SECT":"二段","MAREA":" ","LANE":"５７６巷","ALLEY":" ","HOUSE_NO":"１５號六樓之１","E_COORD97":169731.26000000001,"N_COORD97":2545738.9199999999,"ADDRESS":"北門路二段５７６巷１５號六樓之１","OBJECTID":416660},"geometry":{"x":169731.25999999978,"y":2545738.9199999999}},{"attributes":{"ID":416685,"DIS_CODE":0,"TOWNNAME":"北區","LI":"大道里","LIN":"2鄰","STREET":"北門路","SECT":"二段","MAREA":" ","LANE":"５７６巷","ALLEY":" ","HOUSE_NO":"１５號七樓之２","E_COORD97":169731.26000000001,"N_COORD97":2545738.9199999999,"ADDRESS":"北門路二段５７６巷１５號七樓之２","OBJECTID":416661},"geometry":{"x":169731.25999999978,"y":2545738.9199999999}},{"attributes":{"ID":416686,"DIS_CODE":0,"TOWNNAME":"北區","LI":"大道里","LIN":"2鄰","STREET":"北門路","SECT":"二段","MAREA":" ","LANE":"５７６巷","ALLEY":" ","HOUSE_NO":"１５號七樓之１","E_COORD97":169731.26000000001,"N_COORD97":2545738.9199999999,"ADDRESS":"北門路二段５７６巷１５號七樓之１","OBJECTID":416662},"geometry":{"x":169731.25999999978,"y":2545738.9199999999}},{"attributes":{"ID":416687,"DIS_CODE":0,"TOWNNAME":"北區","LI":"大道里","LIN":"2鄰","STREET":"北門路","SECT":"二段","MAREA":" ","LANE":"５７６巷","ALLEY":" ","HOUSE_NO":"１５號八樓之２","E_COORD97":169731.26000000001,"N_COORD97":2545738.9199999999,"ADDRESS":"北門路二段５７６巷１５號八樓之２","OBJECTID":416663},"geometry":{"x":169731.25999999978,"y":2545738.9199999999}},{"attributes":{"ID":416688,"DIS_CODE":0,"TOWNNAME":"北區","LI":"大道里","LIN":"2鄰","STREET":"北門路","SECT":"二段","MAREA":" ","LANE":"５７６巷","ALLEY":" ","HOUSE_NO":"１５號八樓之１","E_COORD97":169731.26000000001,"N_COORD97":2545738.9199999999,"ADDRESS":"北門路二段５７６巷１５號八樓之１","OBJECTID":416664},"geometry":{"x":169731.25999999978,"y":2545738.9199999999}},{"attributes":{"ID":416689,"DIS_CODE":0,"TOWNNAME":"北區","LI":"大道里","LIN":"2鄰","STREET":"北門路","SECT":"二段","MAREA":" ","LANE":"５７６巷","ALLEY":" ","HOUSE_NO":"１５號九樓之２","E_COORD97":169731.26000000001,"N_COORD97":2545738.9199999999,"ADDRESS":"北門路二段５７６巷１５號九樓之２","OBJECTID":416665},"geometry":{"x":169731.25999999978,"y":2545738.9199999999}},{"attributes":{"ID":416690,"DIS_CODE":0,"TOWNNAME":"北區","LI":"大道里","LIN":"2鄰","STREET":"北門路","SECT":"二段","MAREA":" ","LANE":"５７６巷","ALLEY":" ","HOUSE_NO":"１５號九樓之１","E_COORD97":169731.26000000001,"N_COORD97":2545738.9199999999,"ADDRESS":"北門路二段５７６巷１５號九樓之１","OBJECTID":416666},"geometry":{"x":169731.25999999978,"y":2545738.9199999999}},{"attributes":{"ID":416691,"DIS_CODE":0,"TOWNNAME":"北區","LI":"大道里","LIN":"2鄰","STREET":"北門路","SECT":"二段","MAREA":" ","LANE":"５７６巷","ALLEY":" ","HOUSE_NO":"１５號十樓之２","E_COORD97":169731.26000000001,"N_COORD97":2545738.9199999999,"ADDRESS":"北門路二段５７６巷１５號十樓之２","OBJECTID":416667},"geometry":{"x":169731.25999999978,"y":2545738.9199999999}},{"attributes":{"ID":416692,"DIS_CODE":0,"TOWNNAME":"北區","LI":"大道里","LIN":"2鄰","STREET":"北門路","SECT":"二段","MAREA":" ","LANE":"５７６巷","ALLEY":" ","HOUSE_NO":"１５號十樓之１","E_COORD97":169731.26000000001,"N_COORD97":2545738.9199999999,"ADDRESS":"北門路二段５７６巷１５號十樓之１","OBJECTID":416668},"geometry":{"x":169731.25999999978,"y":2545738.9199999999}},{"attributes":{"ID":416693,"DIS_CODE":0,"TOWNNAME":"北區","LI":"振興里","LIN":"2鄰","STREET":"勝利路","SECT":" ","MAREA":" ","LANE":"２６２巷","ALLEY":" ","HOUSE_NO":"４號之１二樓","E_COORD97":169966.07999999999,"N_COORD97":2545103.1600000001,"ADDRESS":"勝利路２６２巷４號之１二樓","OBJECTID":416669},"geometry":{"x":169966.08000000101,"y":2545103.1600000001}},{"attributes":{"ID":416694,"DIS_CODE":0,"TOWNNAME":"北區","LI":"振興里","LIN":"2鄰","STREET":"勝利路","SECT":" ","MAREA":" ","LANE":"２６２巷","ALLEY":" ","HOUSE_NO":"４號之１三樓","E_COORD97":169966.07999999999,"N_COORD97":2545103.1600000001,"ADDRESS":"勝利路２６２巷４號之１三樓","OBJECTID":416670},"geometry":{"x":169966.08000000101,"y":2545103.1600000001}},{"attributes":{"ID":416695,"DIS_CODE":0,"TOWNNAME":"北區","LI":"振興里","LIN":"2鄰","STREET":"勝利路","SECT":" ","MAREA":" ","LANE":"２６２巷","ALLEY":" ","HOUSE_NO":"４號之１四樓","E_COORD97":169966.07999999999,"N_COORD97":2545103.1600000001,"ADDRESS":"勝利路２６２巷４號之１四樓","OBJECTID":416671},"geometry":{"x":169966.08000000101,"y":2545103.1600000001}},{"attributes":{"ID":416696,"DIS_CODE":0,"TOWNNAME":"北區","LI":"振興里","LIN":"2鄰","STREET":"勝利路","SECT":" ","MAREA":" ","LANE":"２６２巷","ALLEY":" ","HOUSE_NO":"４號四樓","E_COORD97":169960.98999999999,"N_COORD97":2545095.5899999999,"ADDRESS":"勝利路２６２巷４號四樓","OBJECTID":416672},"geometry":{"x":169960.99000000022,"y":2545095.5900000017}},{"attributes":{"ID":416697,"DIS_CODE":0,"TOWNNAME":"北區","LI":"長德里","LIN":"13鄰","STREET":"西門路","SECT":"三段","MAREA":" ","LANE":" ","ALLEY":" ","HOUSE_NO":"２９６之１號","E_COORD97":168581.67999999999,"N_COORD97":2545101.7999999998,"ADDRESS":"西門路三段２９６之１號","OBJECTID":416673},"geometry":{"x":168581.68000000063,"y":2545101.8000000026}},{"attributes":{"ID":416698,"DIS_CODE":0,"TOWNNAME":"北區","LI":"振興里","LIN":"2鄰","STREET":"勝利路","SECT":" ","MAREA":" ","LANE":"２６２巷","ALLEY":" ","HOUSE_NO":"６號二樓","E_COORD97":169971.92000000001,"N_COORD97":2545107.3799999999,"ADDRESS":"勝利路２６２巷６號二樓","OBJECTID":416674},"geometry":{"x":169971.92000000086,"y":2545107.379999999}},{"attributes":{"ID":416699,"DIS_CODE":0,"TOWNNAME":"北區","LI":"振興里","LIN":"2鄰","STREET":"勝利路","SECT":" ","MAREA":" ","LANE":"２６２巷","ALLEY":" ","HOUSE_NO":"６號之１一樓","E_COORD97":169979.60999999999,"N_COORD97":2545109.4199999999,"ADDRESS":"勝利路２６２巷６號之１一樓","OBJECTID":416675},"geometry":{"x":169979.61000000127,"y":2545109.4199999981}},{"attributes":{"ID":416700,"DIS_CODE":0,"TOWNNAME":"北區","LI":"振興里","LIN":"2鄰","STREET":"勝利路","SECT":" ","MAREA":" ","LANE":"２６２巷","ALLEY":" ","HOUSE_NO":"６號之１二樓","E_COORD97":169979.60999999999,"N_COORD97":2545109.4199999999,"ADDRESS":"勝利路２６２巷６號之１二樓","OBJECTID":416676},"geometry":{"x":169979.61000000127,"y":2545109.4199999981}},{"attributes":{"ID":416701,"DIS_CODE":0,"TOWNNAME":"北區","LI":"振興里","LIN":"2鄰","STREET":"勝利路","SECT":" ","MAREA":" ","LANE":"２６２巷","ALLEY":" ","HOUSE_NO":"６號之１三樓","E_COORD97":169979.60999999999,"N_COORD97":2545109.4199999999,"ADDRESS":"勝利路２６２巷６號之１三樓","OBJECTID":416677},"geometry":{"x":169979.61000000127,"y":2545109.4199999981}},{"attributes":{"ID":416702,"DIS_CODE":0,"TOWNNAME":"北區","LI":"振興里","LIN":"2鄰","STREET":"勝利路","SECT":" ","MAREA":" ","LANE":"２６２巷","ALLEY":" ","HOUSE_NO":"６號之１四樓","E_COORD97":169979.60999999999,"N_COORD97":2545109.4199999999,"ADDRESS":"勝利路２６２巷６號之１四樓","OBJECTID":416678},"geometry":{"x":169979.61000000127,"y":2545109.4199999981}},{"attributes":{"ID":416703,"DIS_CODE":0,"TOWNNAME":"北區","LI":"振興里","LIN":"2鄰","STREET":"勝利路","SECT":" ","MAREA":" ","LANE":"２６２巷","ALLEY":" ","HOUSE_NO":"６號之２二樓","E_COORD97":169987.84,"N_COORD97":2545110.2999999998,"ADDRESS":"勝利路２６２巷６號之２二樓","OBJECTID":416679},"geometry":{"x":169987.84000000078,"y":2545110.3000000007}},{"attributes":{"ID":416704,"DIS_CODE":0,"TOWNNAME":"北區","LI":"國姓里","LIN":"2鄰","STREET":"公園路","SECT":" ","MAREA":" ","LANE":"４３３巷","ALLEY":" ","HOUSE_NO":"１３號二樓之１","E_COORD97":168925.13,"N_COORD97":2545359.6699999999,"ADDRESS":"公園路４３３巷１３號二樓之１","OBJECTID":416680},"geometry":{"x":168925.13000000082,"y":2545359.6700000018}},{"attributes":{"ID":416705,"DIS_CODE":0,"TOWNNAME":"北區","LI":"國姓里","LIN":"2鄰","STREET":"公園路","SECT":" ","MAREA":" ","LANE":"４３３巷","ALLEY":" ","HOUSE_NO":"１３號二樓之２","E_COORD97":168925.13,"N_COORD97":2545359.6699999999,"ADDRESS":"公園路４３３巷１３號二樓之２","OBJECTID":416681},"geometry":{"x":168925.13000000082,"y":2545359.6700000018}},{"attributes":{"ID":416706,"DIS_CODE":0,"TOWNNAME":"北區","LI":"國姓里","LIN":"2鄰","STREET":"公園路","SECT":" ","MAREA":" ","LANE":"４３３巷","ALLEY":" ","HOUSE_NO":"１３號二樓之３","E_COORD97":168925.13,"N_COORD97":2545359.6699999999,"ADDRESS":"公園路４３３巷１３號二樓之３","OBJECTID":416682},"geometry":{"x":168925.13000000082,"y":2545359.6700000018}},{"attributes":{"ID":416707,"DIS_CODE":0,"TOWNNAME":"北區","LI":"國姓里","LIN":"2鄰","STREET":"公園路","SECT":" ","MAREA":" ","LANE":"４３３巷","ALLEY":" ","HOUSE_NO":"１３號三樓之１","E_COORD97":168925.13,"N_COORD97":2545359.6699999999,"ADDRESS":"公園路４３３巷１３號三樓之１","OBJECTID":416683},"geometry":{"x":168925.13000000082,"y":2545359.6700000018}},{"attributes":{"ID":416708,"DIS_CODE":0,"TOWNNAME":"北區","LI":"國姓里","LIN":"2鄰","STREET":"公園路","SECT":" ","MAREA":" ","LANE":"４３３巷","ALLEY":" ","HOUSE_NO":"１３號三樓之２","E_COORD97":168925.13,"N_COORD97":2545359.6699999999,"ADDRESS":"公園路４３３巷１３號三樓之２","OBJECTID":416684},"geometry":{"x":168925.13000000082,"y":2545359.6700000018}},{"attributes":{"ID":416709,"DIS_CODE":0,"TOWNNAME":"北區","LI":"國姓里","LIN":"2鄰","STREET":"公園路","SECT":" ","MAREA":" ","LANE":"４３３巷","ALLEY":" ","HOUSE_NO":"１３號三樓之３","E_COORD97":168925.13,"N_COORD97":2545359.6699999999,"ADDRESS":"公園路４３３巷１３號三樓之３","OBJECTID":416685},"geometry":{"x":168925.13000000082,"y":2545359.6700000018}},{"attributes":{"ID":416710,"DIS_CODE":0,"TOWNNAME":"北區","LI":"國姓里","LIN":"2鄰","STREET":"公園路","SECT":" ","MAREA":" ","LANE":"４３３巷","ALLEY":" ","HOUSE_NO":"１３號四樓之１","E_COORD97":168925.13,"N_COORD97":2545359.6699999999,"ADDRESS":"公園路４３３巷１３號四樓之１","OBJECTID":416686},"geometry":{"x":168925.13000000082,"y":2545359.6700000018}},{"attributes":{"ID":416711,"DIS_CODE":0,"TOWNNAME":"北區","LI":"國姓里","LIN":"2鄰","STREET":"公園路","SECT":" ","MAREA":" ","LANE":"４３３巷","ALLEY":" ","HOUSE_NO":"１３號四樓之２","E_COORD97":168925.13,"N_COORD97":2545359.6699999999,"ADDRESS":"公園路４３３巷１３號四樓之２","OBJECTID":416687},"geometry":{"x":168925.13000000082,"y":2545359.6700000018}},{"attributes":{"ID":416712,"DIS_CODE":0,"TOWNNAME":"北區","LI":"國姓里","LIN":"2鄰","STREET":"公園路","SECT":" ","MAREA":" ","LANE":"４３３巷","ALLEY":" ","HOUSE_NO":"１９號二樓之１","E_COORD97":168908.48000000001,"N_COORD97":2545362.4399999999,"ADDRESS":"公園路４３３巷１９號二樓之１","OBJECTID":416688},"geometry":{"x":168908.48000000045,"y":2545362.4399999995}},{"attributes":{"ID":416713,"DIS_CODE":0,"TOWNNAME":"北區","LI":"國姓里","LIN":"2鄰","STREET":"公園路","SECT":" ","MAREA":" ","LANE":"４３３巷","ALLEY":" ","HOUSE_NO":"１９號二樓之２","E_COORD97":168908.48000000001,"N_COORD97":2545362.4399999999,"ADDRESS":"公園路４３３巷１９號二樓之２","OBJECTID":416689},"geometry":{"x":168908.48000000045,"y":2545362.4399999995}},{"attributes":{"ID":416714,"DIS_CODE":0,"TOWNNAME":"北區","LI":"國姓里","LIN":"2鄰","STREET":"公園路","SECT":" ","MAREA":" ","LANE":"４３３巷","ALLEY":" ","HOUSE_NO":"１９號三樓之１","E_COORD97":168908.48000000001,"N_COORD97":2545362.4399999999,"ADDRESS":"公園路４３３巷１９號三樓之１","OBJECTID":416690},"geometry":{"x":168908.48000000045,"y":2545362.4399999995}},{"attributes":{"ID":416715,"DIS_CODE":0,"TOWNNAME":"北區","LI":"國姓里","LIN":"2鄰","STREET":"公園路","SECT":" ","MAREA":" ","LANE":"４３３巷","ALLEY":" ","HOUSE_NO":"１９號三樓之２","E_COORD97":168908.48000000001,"N_COORD97":2545362.4399999999,"ADDRESS":"公園路４３３巷１９號三樓之２","OBJECTID":416691},"geometry":{"x":168908.48000000045,"y":2545362.4399999995}},{"attributes":{"ID":416716,"DIS_CODE":0,"TOWNNAME":"北區","LI":"國姓里","LIN":"2鄰","STREET":"公園路","SECT":" ","MAREA":" ","LANE":"４３３巷","ALLEY":" ","HOUSE_NO":"１９號四樓之１","E_COORD97":168908.48000000001,"N_COORD97":2545362.4399999999,"ADDRESS":"公園路４３３巷１９號四樓之１","OBJECTID":416692},"geometry":{"x":168908.48000000045,"y":2545362.4399999995}},{"attributes":{"ID":416717,"DIS_CODE":0,"TOWNNAME":"北區","LI":"國姓里","LIN":"2鄰","STREET":"公園路","SECT":" ","MAREA":" ","LANE":"４３３巷","ALLEY":" ","HOUSE_NO":"１９號四樓之２","E_COORD97":168908.48000000001,"N_COORD97":2545362.4399999999,"ADDRESS":"公園路４３３巷１９號四樓之２","OBJECTID":416693},"geometry":{"x":168908.48000000045,"y":2545362.4399999995}},{"attributes":{"ID":416718,"DIS_CODE":0,"TOWNNAME":"新營區","LI":"南紙里","LIN":"2鄰","STREET":"太子路","SECT":" ","MAREA":" ","LANE":"１３９巷","ALLEY":" ","HOUSE_NO":"６６號五樓之１","E_COORD97":178005.63,"N_COORD97":2577691.96,"ADDRESS":"太子路１３９巷６６號五樓之１","OBJECTID":416694},"geometry":{"x":178005.63000000082,"y":2577691.9600000046}},{"attributes":{"ID":416719,"DIS_CODE":0,"TOWNNAME":"新營區","LI":"南紙里","LIN":"2鄰","STREET":"太子路","SECT":" ","MAREA":" ","LANE":"１３９巷","ALLEY":" ","HOUSE_NO":"５８號五樓之２","E_COORD97":178008.94,"N_COORD97":2577710.77,"ADDRESS":"太子路１３９巷５８號五樓之２","OBJECTID":416695},"geometry":{"x":178008.94000000227,"y":2577710.7699999996}},{"attributes":{"ID":416720,"DIS_CODE":0,"TOWNNAME":"南區","LI":"文南里","LIN":"2鄰","STREET":"金華路","SECT":"二段","MAREA":" ","LANE":"２８９巷","ALLEY":" ","HOUSE_NO":"２０號四樓","E_COORD97":167023.09,"N_COORD97":2542792.3799999999,"ADDRESS":"金華路二段２８９巷２０號四樓","OBJECTID":416696},"geometry":{"x":167023.09000000078,"y":2542792.379999999}},{"attributes":{"ID":416721,"DIS_CODE":0,"TOWNNAME":"南區","LI":"文南里","LIN":"2鄰","STREET":"建南路","SECT":" ","MAREA":" ","LANE":"１１７巷","ALLEY":" ","HOUSE_NO":"４號二樓","E_COORD97":167027.14000000001,"N_COORD97":2542810.6400000001,"ADDRESS":"建南路１１７巷４號二樓","OBJECTID":416697},"geometry":{"x":167027.14000000153,"y":2542810.6400000025}},{"attributes":{"ID":416722,"DIS_CODE":0,"TOWNNAME":"南區","LI":"文南里","LIN":"2鄰","STREET":"建南路","SECT":" ","MAREA":" ","LANE":"１１７巷","ALLEY":" ","HOUSE_NO":"４號三樓","E_COORD97":167027.14000000001,"N_COORD97":2542810.6400000001,"ADDRESS":"建南路１１７巷４號三樓","OBJECTID":416698},"geometry":{"x":167027.14000000153,"y":2542810.6400000025}},{"attributes":{"ID":416723,"DIS_CODE":0,"TOWNNAME":"南區","LI":"文南里","LIN":"2鄰","STREET":"建南路","SECT":" ","MAREA":" ","LANE":"１１７巷","ALLEY":" ","HOUSE_NO":"４號四樓","E_COORD97":167027.14000000001,"N_COORD97":2542810.6400000001,"ADDRESS":"建南路１１７巷４號四樓","OBJECTID":416699},"geometry":{"x":167027.14000000153,"y":2542810.6400000025}},{"attributes":{"ID":416724,"DIS_CODE":0,"TOWNNAME":"新營區","LI":"南紙里","LIN":"2鄰","STREET":"太子路","SECT":" ","MAREA":" ","LANE":"１３９巷","ALLEY":" ","HOUSE_NO":"５８號七樓之３","E_COORD97":178008.89999999999,"N_COORD97":2577710.77,"ADDRESS":"太子路１３９巷５８號七樓之３","OBJECTID":416700},"geometry":{"x":178008.90000000037,"y":2577710.7699999996}},{"attributes":{"ID":416725,"DIS_CODE":0,"TOWNNAME":"新營區","LI":"南紙里","LIN":"2鄰","STREET":"太子路","SECT":" ","MAREA":" ","LANE":"１３９巷","ALLEY":" ","HOUSE_NO":"５８號七樓之１","E_COORD97":178008.81,"N_COORD97":2577710.77,"ADDRESS":"太子路１３９巷５８號七樓之１","OBJECTID":416701},"geometry":{"x":178008.80999999959,"y":2577710.7699999996}},{"attributes":{"ID":416726,"DIS_CODE":0,"TOWNNAME":"北區","LI":"長榮里","LIN":"2鄰","STREET":"長榮路","SECT":"五段","MAREA":" ","LANE":"４１巷","ALLEY":" ","HOUSE_NO":"４０號二樓之１","E_COORD97":169892.04999999999,"N_COORD97":2545649.98,"ADDRESS":"長榮路五段４１巷４０號二樓之１","OBJECTID":416702},"geometry":{"x":169892.04999999981,"y":2545649.9800000023}},{"attributes":{"ID":416727,"DIS_CODE":0,"TOWNNAME":"北區","LI":"長榮里","LIN":"2鄰","STREET":"長榮路","SECT":"五段","MAREA":" ","LANE":"４１巷","ALLEY":" ","HOUSE_NO":"４０號二樓之２","E_COORD97":169892.04999999999,"N_COORD97":2545649.98,"ADDRESS":"長榮路五段４１巷４０號二樓之２","OBJECTID":416703},"geometry":{"x":169892.04999999981,"y":2545649.9800000023}},{"attributes":{"ID":416728,"DIS_CODE":0,"TOWNNAME":"北區","LI":"長榮里","LIN":"2鄰","STREET":"長榮路","SECT":"五段","MAREA":" ","LANE":"４１巷","ALLEY":" ","HOUSE_NO":"４０號三樓之１","E_COORD97":169892.04999999999,"N_COORD97":2545649.98,"ADDRESS":"長榮路五段４１巷４０號三樓之１","OBJECTID":416704},"geometry":{"x":169892.04999999981,"y":2545649.9800000023}},{"attributes":{"ID":416729,"DIS_CODE":0,"TOWNNAME":"北區","LI":"長榮里","LIN":"2鄰","STREET":"長榮路","SECT":"五段","MAREA":" ","LANE":"４１巷","ALLEY":" ","HOUSE_NO":"４０號三樓之２","E_COORD97":169892.04999999999,"N_COORD97":2545649.98,"ADDRESS":"長榮路五段４１巷４０號三樓之２","OBJECTID":416705},"geometry":{"x":169892.04999999981,"y":2545649.9800000023}},{"attributes":{"ID":416730,"DIS_CODE":0,"TOWNNAME":"北區","LI":"長榮里","LIN":"2鄰","STREET":"長榮路","SECT":"五段","MAREA":" ","LANE":"４１巷","ALLEY":" ","HOUSE_NO":"４０號四樓之１","E_COORD97":169892.04999999999,"N_COORD97":2545649.98,"ADDRESS":"長榮路五段４１巷４０號四樓之１","OBJECTID":416706},"geometry":{"x":169892.04999999981,"y":2545649.9800000023}},{"attributes":{"ID":416731,"DIS_CODE":0,"TOWNNAME":"北區","LI":"長榮里","LIN":"2鄰","STREET":"長榮路","SECT":"五段","MAREA":" ","LANE":"４１巷","ALLEY":" ","HOUSE_NO":"４０號四樓之２","E_COORD97":169892.04999999999,"N_COORD97":2545649.98,"ADDRESS":"長榮路五段４１巷４０號四樓之２","OBJECTID":416707},"geometry":{"x":169892.04999999981,"y":2545649.9800000023}},{"attributes":{"ID":416732,"DIS_CODE":0,"TOWNNAME":"北區","LI":"長榮里","LIN":"2鄰","STREET":"長榮路","SECT":"五段","MAREA":" ","LANE":"４１巷","ALLEY":" ","HOUSE_NO":"４０號四樓之３","E_COORD97":169892.04999999999,"N_COORD97":2545649.98,"ADDRESS":"長榮路五段４１巷４０號四樓之３","OBJECTID":416708},"geometry":{"x":169892.04999999981,"y":2545649.9800000023}},{"attributes":{"ID":416733,"DIS_CODE":0,"TOWNNAME":"北區","LI":"長榮里","LIN":"2鄰","STREET":"長榮路","SECT":"五段","MAREA":" ","LANE":"４１巷","ALLEY":" ","HOUSE_NO":"４０號四樓之５","E_COORD97":169892.04999999999,"N_COORD97":2545649.98,"ADDRESS":"長榮路五段４１巷４０號四樓之５","OBJECTID":416709},"geometry":{"x":169892.04999999981,"y":2545649.9800000023}},{"attributes":{"ID":416734,"DIS_CODE":0,"TOWNNAME":"北區","LI":"長榮里","LIN":"2鄰","STREET":"長榮路","SECT":"五段","MAREA":" ","LANE":"４１巷","ALLEY":" ","HOUSE_NO":"４０號五樓之１","E_COORD97":169892.04999999999,"N_COORD97":2545649.98,"ADDRESS":"長榮路五段４１巷４０號五樓之１","OBJECTID":416710},"geometry":{"x":169892.04999999981,"y":2545649.9800000023}},{"attributes":{"ID":416735,"DIS_CODE":0,"TOWNNAME":"仁德區","LI":"後壁里","LIN":"28鄰","STREET":"德洋路","SECT":" ","MAREA":" ","LANE":"３９巷","ALLEY":" ","HOUSE_NO":"４號","E_COORD97":173113.85000000001,"N_COORD97":2539017.5099999998,"ADDRESS":"德洋路３９巷４號","OBJECTID":416711},"geometry":{"x":173113.85000000056,"y":2539017.5100000016}},{"attributes":{"ID":416736,"DIS_CODE":0,"TOWNNAME":"北區","LI":"長榮里","LIN":"2鄰","STREET":"長榮路","SECT":"五段","MAREA":" ","LANE":"４１巷","ALLEY":" ","HOUSE_NO":"４０號五樓之２","E_COORD97":169892.04999999999,"N_COORD97":2545649.98,"ADDRESS":"長榮路五段４１巷４０號五樓之２","OBJECTID":416712},"geometry":{"x":169892.04999999981,"y":2545649.9800000023}},{"attributes":{"ID":416737,"DIS_CODE":0,"TOWNNAME":"北區","LI":"長榮里","LIN":"2鄰","STREET":"長榮路","SECT":"五段","MAREA":" ","LANE":"４１巷","ALLEY":" ","HOUSE_NO":"４０號五樓之３","E_COORD97":169892.04999999999,"N_COORD97":2545649.98,"ADDRESS":"長榮路五段４１巷４０號五樓之３","OBJECTID":416713},"geometry":{"x":169892.04999999981,"y":2545649.9800000023}},{"attributes":{"ID":416738,"DIS_CODE":0,"TOWNNAME":"北區","LI":"長榮里","LIN":"2鄰","STREET":"長榮路","SECT":"五段","MAREA":" ","LANE":"４１巷","ALLEY":" ","HOUSE_NO":"４０號五樓之５","E_COORD97":169892.04999999999,"N_COORD97":2545649.98,"ADDRESS":"長榮路五段４１巷４０號五樓之５","OBJECTID":416714},"geometry":{"x":169892.04999999981,"y":2545649.9800000023}},{"attributes":{"ID":416739,"DIS_CODE":0,"TOWNNAME":"北區","LI":"長榮里","LIN":"2鄰","STREET":"長榮路","SECT":"五段","MAREA":" ","LANE":"４１巷","ALLEY":" ","HOUSE_NO":"４０號六樓之１","E_COORD97":169892.04999999999,"N_COORD97":2545649.98,"ADDRESS":"長榮路五段４１巷４０號六樓之１","OBJECTID":416715},"geometry":{"x":169892.04999999981,"y":2545649.9800000023}},{"attributes":{"ID":416740,"DIS_CODE":0,"TOWNNAME":"北區","LI":"長榮里","LIN":"2鄰","STREET":"長榮路","SECT":"五段","MAREA":" ","LANE":"４１巷","ALLEY":" ","HOUSE_NO":"４０號六樓之２","E_COORD97":169892.04999999999,"N_COORD97":2545649.98,"ADDRESS":"長榮路五段４１巷４０號六樓之２","OBJECTID":416716},"geometry":{"x":169892.04999999981,"y":2545649.9800000023}},{"attributes":{"ID":416741,"DIS_CODE":0,"TOWNNAME":"北區","LI":"長榮里","LIN":"2鄰","STREET":"長榮路","SECT":"五段","MAREA":" ","LANE":"４１巷","ALLEY":" ","HOUSE_NO":"４０號六樓之３","E_COORD97":169892.04999999999,"N_COORD97":2545649.98,"ADDRESS":"長榮路五段４１巷４０號六樓之３","OBJECTID":416717},"geometry":{"x":169892.04999999981,"y":2545649.9800000023}},{"attributes":{"ID":416742,"DIS_CODE":0,"TOWNNAME":"北區","LI":"長榮里","LIN":"2鄰","STREET":"長榮路","SECT":"五段","MAREA":" ","LANE":"４１巷","ALLEY":" ","HOUSE_NO":"４０號六樓之５","E_COORD97":169892.04999999999,"N_COORD97":2545649.98,"ADDRESS":"長榮路五段４１巷４０號六樓之５","OBJECTID":416718},"geometry":{"x":169892.04999999981,"y":2545649.9800000023}},{"attributes":{"ID":416743,"DIS_CODE":0,"TOWNNAME":"北區","LI":"長榮里","LIN":"2鄰","STREET":"長榮路","SECT":"五段","MAREA":" ","LANE":"４１巷","ALLEY":" ","HOUSE_NO":"４０號七樓之１","E_COORD97":169892.04999999999,"N_COORD97":2545649.98,"ADDRESS":"長榮路五段４１巷４０號七樓之１","OBJECTID":416719},"geometry":{"x":169892.04999999981,"y":2545649.9800000023}},{"attributes":{"ID":416744,"DIS_CODE":0,"TOWNNAME":"北區","LI":"長榮里","LIN":"2鄰","STREET":"長榮路","SECT":"五段","MAREA":" ","LANE":"４１巷","ALLEY":" ","HOUSE_NO":"４０號七樓之２","E_COORD97":169892.04999999999,"N_COORD97":2545649.98,"ADDRESS":"長榮路五段４１巷４０號七樓之２","OBJECTID":416720},"geometry":{"x":169892.04999999981,"y":2545649.9800000023}},{"attributes":{"ID":416745,"DIS_CODE":0,"TOWNNAME":"北區","LI":"長榮里","LIN":"2鄰","STREET":"長榮路","SECT":"五段","MAREA":" ","LANE":"４１巷","ALLEY":" ","HOUSE_NO":"４０號八樓之１","E_COORD97":169892.04999999999,"N_COORD97":2545649.98,"ADDRESS":"長榮路五段４１巷４０號八樓之１","OBJECTID":416721},"geometry":{"x":169892.04999999981,"y":2545649.9800000023}},{"attributes":{"ID":416746,"DIS_CODE":0,"TOWNNAME":"北區","LI":"長榮里","LIN":"2鄰","STREET":"長榮路","SECT":"五段","MAREA":" ","LANE":"４１巷","ALLEY":" ","HOUSE_NO":"４０號八樓之２","E_COORD97":169892.04999999999,"N_COORD97":2545649.98,"ADDRESS":"長榮路五段４１巷４０號八樓之２","OBJECTID":416722},"geometry":{"x":169892.04999999981,"y":2545649.9800000023}},{"attributes":{"ID":416747,"DIS_CODE":0,"TOWNNAME":"北區","LI":"長榮里","LIN":"2鄰","STREET":"長榮路","SECT":"五段","MAREA":" ","LANE":"４１巷","ALLEY":" ","HOUSE_NO":"４０號八樓之３","E_COORD97":169892.04999999999,"N_COORD97":2545649.98,"ADDRESS":"長榮路五段４１巷４０號八樓之３","OBJECTID":416723},"geometry":{"x":169892.04999999981,"y":2545649.9800000023}},{"attributes":{"ID":416748,"DIS_CODE":0,"TOWNNAME":"北區","LI":"長榮里","LIN":"2鄰","STREET":"長榮路","SECT":"五段","MAREA":" ","LANE":"４１巷","ALLEY":" ","HOUSE_NO":"４０號八樓之５","E_COORD97":169892.04999999999,"N_COORD97":2545649.98,"ADDRESS":"長榮路五段４１巷４０號八樓之５","OBJECTID":416724},"geometry":{"x":169892.04999999981,"y":2545649.9800000023}},{"attributes":{"ID":416749,"DIS_CODE":0,"TOWNNAME":"北區","LI":"長榮里","LIN":"2鄰","STREET":"長榮路","SECT":"五段","MAREA":" ","LANE":"４１巷","ALLEY":" ","HOUSE_NO":"４０號九樓之１","E_COORD97":169892.04999999999,"N_COORD97":2545649.98,"ADDRESS":"長榮路五段４１巷４０號九樓之１","OBJECTID":416725},"geometry":{"x":169892.04999999981,"y":2545649.9800000023}},{"attributes":{"ID":416750,"DIS_CODE":0,"TOWNNAME":"北區","LI":"長榮里","LIN":"2鄰","STREET":"長榮路","SECT":"五段","MAREA":" ","LANE":"４１巷","ALLEY":" ","HOUSE_NO":"４０號九樓之２","E_COORD97":169892.04999999999,"N_COORD97":2545649.98,"ADDRESS":"長榮路五段４１巷４０號九樓之２","OBJECTID":416726},"geometry":{"x":169892.04999999981,"y":2545649.9800000023}},{"attributes":{"ID":416751,"DIS_CODE":0,"TOWNNAME":"北區","LI":"長榮里","LIN":"2鄰","STREET":"長榮路","SECT":"五段","MAREA":" ","LANE":"４１巷","ALLEY":" ","HOUSE_NO":"４０號九樓之３","E_COORD97":169892.04999999999,"N_COORD97":2545649.98,"ADDRESS":"長榮路五段４１巷４０號九樓之３","OBJECTID":416727},"geometry":{"x":169892.04999999981,"y":2545649.9800000023}},{"attributes":{"ID":416752,"DIS_CODE":0,"TOWNNAME":"北區","LI":"長榮里","LIN":"2鄰","STREET":"長榮路","SECT":"五段","MAREA":" ","LANE":"４１巷","ALLEY":" ","HOUSE_NO":"４０號九樓之５","E_COORD97":169892.04999999999,"N_COORD97":2545649.98,"ADDRESS":"長榮路五段４１巷４０號九樓之５","OBJECTID":416728},"geometry":{"x":169892.04999999981,"y":2545649.9800000023}},{"attributes":{"ID":416753,"DIS_CODE":0,"TOWNNAME":"北區","LI":"長榮里","LIN":"2鄰","STREET":"長榮路","SECT":"五段","MAREA":" ","LANE":"４１巷","ALLEY":" ","HOUSE_NO":"４０號十樓之１","E_COORD97":169892.04999999999,"N_COORD97":2545649.98,"ADDRESS":"長榮路五段４１巷４０號十樓之１","OBJECTID":416729},"geometry":{"x":169892.04999999981,"y":2545649.9800000023}},{"attributes":{"ID":416754,"DIS_CODE":0,"TOWNNAME":"北區","LI":"長榮里","LIN":"2鄰","STREET":"長榮路","SECT":"五段","MAREA":" ","LANE":"４１巷","ALLEY":" ","HOUSE_NO":"４０號十樓之２","E_COORD97":169892.04999999999,"N_COORD97":2545649.98,"ADDRESS":"長榮路五段４１巷４０號十樓之２","OBJECTID":416730},"geometry":{"x":169892.04999999981,"y":2545649.9800000023}},{"attributes":{"ID":416755,"DIS_CODE":0,"TOWNNAME":"玉井區","LI":"玉田里","LIN":"13鄰","STREET":"民權路","SECT":" ","MAREA":" ","LANE":" ","ALLEY":" ","HOUSE_NO":"５９號","E_COORD97":194912.13,"N_COORD97":2557898.2799999998,"ADDRESS":"民權路５９號","OBJECTID":416731},"geometry":{"x":194912.13000000082,"y":2557898.2799999975}},{"attributes":{"ID":416756,"DIS_CODE":0,"TOWNNAME":"北區","LI":"長榮里","LIN":"2鄰","STREET":"長榮路","SECT":"五段","MAREA":" ","LANE":"４１巷","ALLEY":" ","HOUSE_NO":"４０號十樓之３","E_COORD97":169892.04999999999,"N_COORD97":2545649.98,"ADDRESS":"長榮路五段４１巷４０號十樓之３","OBJECTID":416732},"geometry":{"x":169892.04999999981,"y":2545649.9800000023}},{"attributes":{"ID":416757,"DIS_CODE":0,"TOWNNAME":"北區","LI":"長榮里","LIN":"2鄰","STREET":"長榮路","SECT":"五段","MAREA":" ","LANE":"４１巷","ALLEY":" ","HOUSE_NO":"４０號十樓之５","E_COORD97":169892.04999999999,"N_COORD97":2545649.98,"ADDRESS":"長榮路五段４１巷４０號十樓之５","OBJECTID":416733},"geometry":{"x":169892.04999999981,"y":2545649.9800000023}},{"attributes":{"ID":416758,"DIS_CODE":0,"TOWNNAME":"北區","LI":"長榮里","LIN":"2鄰","STREET":"長榮路","SECT":"五段","MAREA":" ","LANE":"４１巷","ALLEY":" ","HOUSE_NO":"４０號十一樓之１","E_COORD97":169892.04999999999,"N_COORD97":2545649.98,"ADDRESS":"長榮路五段４１巷４０號十一樓之１","OBJECTID":416734},"geometry":{"x":169892.04999999981,"y":2545649.9800000023}},{"attributes":{"ID":416759,"DIS_CODE":0,"TOWNNAME":"北區","LI":"長榮里","LIN":"2鄰","STREET":"長榮路","SECT":"五段","MAREA":" ","LANE":"４１巷","ALLEY":" ","HOUSE_NO":"４０號十一樓之２","E_COORD97":169892.04999999999,"N_COORD97":2545649.98,"ADDRESS":"長榮路五段４１巷４０號十一樓之２","OBJECTID":416735},"geometry":{"x":169892.04999999981,"y":2545649.9800000023}},{"attributes":{"ID":416760,"DIS_CODE":0,"TOWNNAME":"北區","LI":"長榮里","LIN":"2鄰","STREET":"長榮路","SECT":"五段","MAREA":" ","LANE":"４１巷","ALLEY":" ","HOUSE_NO":"４０號十一樓之３","E_COORD97":169892.04999999999,"N_COORD97":2545649.98,"ADDRESS":"長榮路五段４１巷４０號十一樓之３","OBJECTID":416736},"geometry":{"x":169892.04999999981,"y":2545649.9800000023}},{"attributes":{"ID":416761,"DIS_CODE":0,"TOWNNAME":"北區","LI":"長榮里","LIN":"2鄰","STREET":"長榮路","SECT":"五段","MAREA":" ","LANE":"４１巷","ALLEY":" ","HOUSE_NO":"４０號十一樓之５","E_COORD97":169892.04999999999,"N_COORD97":2545649.98,"ADDRESS":"長榮路五段４１巷４０號十一樓之５","OBJECTID":416737},"geometry":{"x":169892.04999999981,"y":2545649.9800000023}},{"attributes":{"ID":416762,"DIS_CODE":0,"TOWNNAME":"北區","LI":"長榮里","LIN":"2鄰","STREET":"長榮路","SECT":"五段","MAREA":" ","LANE":"４１巷","ALLEY":" ","HOUSE_NO":"４０號十二樓之１","E_COORD97":169892.04999999999,"N_COORD97":2545649.98,"ADDRESS":"長榮路五段４１巷４０號十二樓之１","OBJECTID":416738},"geometry":{"x":169892.04999999981,"y":2545649.9800000023}},{"attributes":{"ID":416763,"DIS_CODE":0,"TOWNNAME":"北區","LI":"長榮里","LIN":"2鄰","STREET":"長榮路","SECT":"五段","MAREA":" ","LANE":"４１巷","ALLEY":" ","HOUSE_NO":"４０號十二樓之２","E_COORD97":169892.04999999999,"N_COORD97":2545649.98,"ADDRESS":"長榮路五段４１巷４０號十二樓之２","OBJECTID":416739},"geometry":{"x":169892.04999999981,"y":2545649.9800000023}},{"attributes":{"ID":416764,"DIS_CODE":0,"TOWNNAME":"北區","LI":"長榮里","LIN":"2鄰","STREET":"長榮路","SECT":"五段","MAREA":" ","LANE":"４１巷","ALLEY":" ","HOUSE_NO":"４０號十二樓之３","E_COORD97":169892.04999999999,"N_COORD97":2545649.98,"ADDRESS":"長榮路五段４１巷４０號十二樓之３","OBJECTID":416740},"geometry":{"x":169892.04999999981,"y":2545649.9800000023}},{"attributes":{"ID":416765,"DIS_CODE":0,"TOWNNAME":"北區","LI":"長榮里","LIN":"2鄰","STREET":"長榮路","SECT":"五段","MAREA":" ","LANE":"４１巷","ALLEY":" ","HOUSE_NO":"４０號十二樓之５","E_COORD97":169892.04999999999,"N_COORD97":2545649.98,"ADDRESS":"長榮路五段４１巷４０號十二樓之５","OBJECTID":416741},"geometry":{"x":169892.04999999981,"y":2545649.9800000023}},{"attributes":{"ID":416766,"DIS_CODE":0,"TOWNNAME":"北區","LI":"長榮里","LIN":"2鄰","STREET":"長榮路","SECT":"五段","MAREA":" ","LANE":"４１巷","ALLEY":" ","HOUSE_NO":"４０號十三樓之１","E_COORD97":169892.04999999999,"N_COORD97":2545649.98,"ADDRESS":"長榮路五段４１巷４０號十三樓之１","OBJECTID":416742},"geometry":{"x":169892.04999999981,"y":2545649.9800000023}},{"attributes":{"ID":416767,"DIS_CODE":0,"TOWNNAME":"北區","LI":"長榮里","LIN":"2鄰","STREET":"長榮路","SECT":"五段","MAREA":" ","LANE":"４１巷","ALLEY":" ","HOUSE_NO":"４０號十三樓之２","E_COORD97":169892.04999999999,"N_COORD97":2545649.98,"ADDRESS":"長榮路五段４１巷４０號十三樓之２","OBJECTID":416743},"geometry":{"x":169892.04999999981,"y":2545649.9800000023}},{"attributes":{"ID":416768,"DIS_CODE":0,"TOWNNAME":"北區","LI":"長榮里","LIN":"2鄰","STREET":"長榮路","SECT":"五段","MAREA":" ","LANE":"４１巷","ALLEY":" ","HOUSE_NO":"４０號十三樓之３","E_COORD97":169892.04999999999,"N_COORD97":2545649.98,"ADDRESS":"長榮路五段４１巷４０號十三樓之３","OBJECTID":416744},"geometry":{"x":169892.04999999981,"y":2545649.9800000023}},{"attributes":{"ID":416769,"DIS_CODE":0,"TOWNNAME":"北區","LI":"長榮里","LIN":"2鄰","STREET":"長榮路","SECT":"五段","MAREA":" ","LANE":"４１巷","ALLEY":" ","HOUSE_NO":"４０號十三樓之５","E_COORD97":169892.04999999999,"N_COORD97":2545649.98,"ADDRESS":"長榮路五段４１巷４０號十三樓之５","OBJECTID":416745},"geometry":{"x":169892.04999999981,"y":2545649.9800000023}},{"attributes":{"ID":416770,"DIS_CODE":0,"TOWNNAME":"北區","LI":"長榮里","LIN":"2鄰","STREET":"長榮路","SECT":"五段","MAREA":" ","LANE":"４１巷","ALLEY":" ","HOUSE_NO":"４０號十四樓之１","E_COORD97":169892.04999999999,"N_COORD97":2545649.98,"ADDRESS":"長榮路五段４１巷４０號十四樓之１","OBJECTID":416746},"geometry":{"x":169892.04999999981,"y":2545649.9800000023}},{"attributes":{"ID":416771,"DIS_CODE":0,"TOWNNAME":"北區","LI":"長榮里","LIN":"2鄰","STREET":"長榮路","SECT":"五段","MAREA":" ","LANE":"４１巷","ALLEY":" ","HOUSE_NO":"４０號十四樓之２","E_COORD97":169892.04999999999,"N_COORD97":2545649.98,"ADDRESS":"長榮路五段４１巷４０號十四樓之２","OBJECTID":416747},"geometry":{"x":169892.04999999981,"y":2545649.9800000023}},{"attributes":{"ID":416772,"DIS_CODE":0,"TOWNNAME":"北區","LI":"長榮里","LIN":"2鄰","STREET":"長榮路","SECT":"五段","MAREA":" ","LANE":"４１巷","ALLEY":" ","HOUSE_NO":"４０號十四樓之３","E_COORD97":169892.04999999999,"N_COORD97":2545649.98,"ADDRESS":"長榮路五段４１巷４０號十四樓之３","OBJECTID":416748},"geometry":{"x":169892.04999999981,"y":2545649.9800000023}},{"attributes":{"ID":416773,"DIS_CODE":0,"TOWNNAME":"中西區","LI":"天后里","LIN":"13鄰","STREET":"赤嵌街","SECT":" ","MAREA":" ","LANE":"１５巷","ALLEY":" ","HOUSE_NO":"３號","E_COORD97":168192.35999999999,"N_COORD97":2544249.0499999998,"ADDRESS":"赤嵌街１５巷３號","OBJECTID":416749},"geometry":{"x":168192.36000000034,"y":2544249.0500000026}},{"attributes":{"ID":416774,"DIS_CODE":0,"TOWNNAME":"北區","LI":"長榮里","LIN":"2鄰","STREET":"長榮路","SECT":"五段","MAREA":" ","LANE":"４１巷","ALLEY":" ","HOUSE_NO":"４０號十四樓之５","E_COORD97":169892.04999999999,"N_COORD97":2545649.98,"ADDRESS":"長榮路五段４１巷４０號十四樓之５","OBJECTID":416750},"geometry":{"x":169892.04999999981,"y":2545649.9800000023}},{"attributes":{"ID":416775,"DIS_CODE":0,"TOWNNAME":"新營區","LI":"南紙里","LIN":"2鄰","STREET":"太子路","SECT":" ","MAREA":" ","LANE":"１３９巷","ALLEY":" ","HOUSE_NO":"５８號三樓之２","E_COORD97":178008.94,"N_COORD97":2577710.77,"ADDRESS":"太子路１３９巷５８號三樓之２","OBJECTID":416751},"geometry":{"x":178008.94000000227,"y":2577710.7699999996}},{"attributes":{"ID":416776,"DIS_CODE":0,"TOWNNAME":"新營區","LI":"南紙里","LIN":"2鄰","STREET":"太子路","SECT":" ","MAREA":" ","LANE":"１３９巷","ALLEY":" ","HOUSE_NO":"６６號七樓","E_COORD97":178003.5,"N_COORD97":2577691.9199999999,"ADDRESS":"太子路１３９巷６６號七樓","OBJECTID":416752},"geometry":{"x":178003.50000000093,"y":2577691.9200000018}},{"attributes":{"ID":416777,"DIS_CODE":0,"TOWNNAME":"新營區","LI":"南紙里","LIN":"2鄰","STREET":"太子路","SECT":" ","MAREA":" ","LANE":"１３９巷","ALLEY":" ","HOUSE_NO":"６８號四樓","E_COORD97":178003.5,"N_COORD97":2577691.9199999999,"ADDRESS":"太子路１３９巷６８號四樓","OBJECTID":416753},"geometry":{"x":178003.50000000093,"y":2577691.9200000018}},{"attributes":{"ID":416778,"DIS_CODE":0,"TOWNNAME":"新營區","LI":"南紙里","LIN":"2鄰","STREET":"太子路","SECT":" ","MAREA":" ","LANE":"１３９巷","ALLEY":" ","HOUSE_NO":"５８號六樓之３","E_COORD97":178008.89999999999,"N_COORD97":2577710.77,"ADDRESS":"太子路１３９巷５８號六樓之３","OBJECTID":416754},"geometry":{"x":178008.90000000037,"y":2577710.7699999996}},{"attributes":{"ID":416779,"DIS_CODE":0,"TOWNNAME":"新營區","LI":"南紙里","LIN":"2鄰","STREET":"太子路","SECT":" ","MAREA":" ","LANE":"１３９巷","ALLEY":" ","HOUSE_NO":"５８號六樓之２","E_COORD97":178008.94,"N_COORD97":2577710.77,"ADDRESS":"太子路１３９巷５８號六樓之２","OBJECTID":416755},"geometry":{"x":178008.94000000227,"y":2577710.7699999996}},{"attributes":{"ID":416780,"DIS_CODE":0,"TOWNNAME":"永康區","LI":"正強里","LIN":"2鄰","STREET":"中正路","SECT":" ","MAREA":" ","LANE":"１巷","ALLEY":" ","HOUSE_NO":"６號","E_COORD97":173691.81,"N_COORD97":2547662.8900000001,"ADDRESS":"中正路１巷６號","OBJECTID":416756},"geometry":{"x":173691.81000000052,"y":2547662.8900000006}},{"attributes":{"ID":416781,"DIS_CODE":0,"TOWNNAME":"永康區","LI":"正強里","LIN":"2鄰","STREET":"中正路","SECT":" ","MAREA":" ","LANE":"１５巷","ALLEY":" ","HOUSE_NO":"５號","E_COORD97":173679.42999999999,"N_COORD97":2547694.25,"ADDRESS":"中正路１５巷５號","OBJECTID":416757},"geometry":{"x":173679.43000000063,"y":2547694.2500000037}},{"attributes":{"ID":416782,"DIS_CODE":0,"TOWNNAME":"永康區","LI":"正強里","LIN":"2鄰","STREET":"中正路","SECT":" ","MAREA":" ","LANE":"１５巷","ALLEY":" ","HOUSE_NO":"１５號","E_COORD97":173664.62,"N_COORD97":2547682,"ADDRESS":"中正路１５巷１５號","OBJECTID":416758},"geometry":{"x":173664.62000000104,"y":2547682}},{"attributes":{"ID":416783,"DIS_CODE":0,"TOWNNAME":"永康區","LI":"正強里","LIN":"2鄰","STREET":"中正路","SECT":" ","MAREA":" ","LANE":"１５巷","ALLEY":" ","HOUSE_NO":"２１號","E_COORD97":173655.53,"N_COORD97":2547674,"ADDRESS":"中正路１５巷２１號","OBJECTID":416759},"geometry":{"x":173655.53000000119,"y":2547674}},{"attributes":{"ID":416784,"DIS_CODE":0,"TOWNNAME":"永康區","LI":"正強里","LIN":"2鄰","STREET":"中正路","SECT":" ","MAREA":" ","LANE":"１巷","ALLEY":" ","HOUSE_NO":"２３號","E_COORD97":173682.39999999999,"N_COORD97":2547639.5699999998,"ADDRESS":"中正路１巷２３號","OBJECTID":416760},"geometry":{"x":173682.40000000037,"y":2547639.5700000022}},{"attributes":{"ID":416785,"DIS_CODE":0,"TOWNNAME":"永康區","LI":"正強里","LIN":"2鄰","STREET":"中正路","SECT":" ","MAREA":" ","LANE":"１５巷","ALLEY":" ","HOUSE_NO":"１９號","E_COORD97":173658.37,"N_COORD97":2547676.5099999998,"ADDRESS":"中正路１５巷１９號","OBJECTID":416761},"geometry":{"x":173658.37000000104,"y":2547676.5100000016}},{"attributes":{"ID":416786,"DIS_CODE":0,"TOWNNAME":"永康區","LI":"正強里","LIN":"2鄰","STREET":"中正路","SECT":" ","MAREA":" ","LANE":"１巷","ALLEY":" ","HOUSE_NO":"２９號","E_COORD97":173680.07000000001,"N_COORD97":2547614.4100000001,"ADDRESS":"中正路１巷２９號","OBJECTID":416762},"geometry":{"x":173680.07000000216,"y":2547614.4100000001}},{"attributes":{"ID":416787,"DIS_CODE":0,"TOWNNAME":"永康區","LI":"正強里","LIN":"2鄰","STREET":"中正路","SECT":" ","MAREA":" ","LANE":"１巷","ALLEY":" ","HOUSE_NO":"１７號","E_COORD97":173692.39999999999,"N_COORD97":2547646.3199999998,"ADDRESS":"中正路１巷１７號","OBJECTID":416763},"geometry":{"x":173692.40000000037,"y":2547646.3200000003}},{"attributes":{"ID":416788,"DIS_CODE":0,"TOWNNAME":"安南區","LI":"海東里","LIN":"2鄰","STREET":"海環街","SECT":" ","MAREA":" ","LANE":"５９６巷","ALLEY":" ","HOUSE_NO":"４２號","E_COORD97":166515.98999999999,"N_COORD97":2549256.5800000001,"ADDRESS":"海環街５９６巷４２號","OBJECTID":416764},"geometry":{"x":166515.99000000022,"y":2549256.5800000019}},{"attributes":{"ID":416789,"DIS_CODE":0,"TOWNNAME":"安南區","LI":"理想里","LIN":"2鄰","STREET":"同安路","SECT":" ","MAREA":" ","LANE":"３６巷","ALLEY":" ","HOUSE_NO":"５７號","E_COORD97":166917.45999999999,"N_COORD97":2548739.79,"ADDRESS":"同安路３６巷５７號","OBJECTID":416765},"geometry":{"x":166917.46000000089,"y":2548739.7899999991}},{"attributes":{"ID":416790,"DIS_CODE":0,"TOWNNAME":"安南區","LI":"南興里","LIN":"2鄰","STREET":"安興街","SECT":" ","MAREA":" ","LANE":"３８１巷","ALLEY":" ","HOUSE_NO":"６８號","E_COORD97":163654.13,"N_COORD97":2552235.7599999998,"ADDRESS":"安興街３８１巷６８號","OBJECTID":416766},"geometry":{"x":163654.13000000082,"y":2552235.7599999998}},{"attributes":{"ID":416791,"DIS_CODE":0,"TOWNNAME":"安南區","LI":"南興里","LIN":"2鄰","STREET":"安興街","SECT":" ","MAREA":" ","LANE":"４３５巷","ALLEY":" ","HOUSE_NO":"５３號","E_COORD97":163623.07999999999,"N_COORD97":2552204.75,"ADDRESS":"安興街４３５巷５３號","OBJECTID":416767},"geometry":{"x":163623.08000000101,"y":2552204.7500000019}},{"attributes":{"ID":416792,"DIS_CODE":0,"TOWNNAME":"安南區","LI":"學東里","LIN":"2鄰","STREET":"公學路","SECT":"六段","MAREA":" ","LANE":"４６９巷","ALLEY":" ","HOUSE_NO":"６２號","E_COORD97":162574.19,"N_COORD97":2553058.7799999998,"ADDRESS":"公學路六段４６９巷６２號","OBJECTID":416768},"geometry":{"x":162574.19000000227,"y":2553058.7799999993}},{"attributes":{"ID":416793,"DIS_CODE":0,"TOWNNAME":"安南區","LI":"公親里","LIN":"2鄰","STREET":"公學路","SECT":"一段","MAREA":" ","LANE":"２５０巷","ALLEY":" ","HOUSE_NO":"１０號","E_COORD97":167931.51999999999,"N_COORD97":2553045.3599999999,"ADDRESS":"公學路一段２５０巷１０號","OBJECTID":416769},"geometry":{"x":167931.52000000048,"y":2553045.3599999994}},{"attributes":{"ID":416794,"DIS_CODE":0,"TOWNNAME":"安南區","LI":"公親里","LIN":"2鄰","STREET":"公學路","SECT":"一段","MAREA":" ","LANE":"２５０巷","ALLEY":" ","HOUSE_NO":"８號","E_COORD97":167943.42000000001,"N_COORD97":2553045.8700000001,"ADDRESS":"公學路一段２５０巷８號","OBJECTID":416770},"geometry":{"x":167943.41999999993,"y":2553045.8700000029}},{"attributes":{"ID":416795,"DIS_CODE":0,"TOWNNAME":"安南區","LI":"理想里","LIN":"2鄰","STREET":"同安路","SECT":" ","MAREA":" ","LANE":"３６巷","ALLEY":" ","HOUSE_NO":"７７號","E_COORD97":166938.64999999999,"N_COORD97":2548702.9399999999,"ADDRESS":"同安路３６巷７７號","OBJECTID":416771},"geometry":{"x":166938.6500000013,"y":2548702.9400000032}},{"attributes":{"ID":416796,"DIS_CODE":0,"TOWNNAME":"安南區","LI":"理想里","LIN":"2鄰","STREET":"同安路","SECT":" ","MAREA":" ","LANE":"３６巷","ALLEY":" ","HOUSE_NO":"７９號","E_COORD97":166939.95999999999,"N_COORD97":2548699.1699999999,"ADDRESS":"同安路３６巷７９號","OBJECTID":416772},"geometry":{"x":166939.95999999996,"y":2548699.1700000018}},{"attributes":{"ID":416797,"DIS_CODE":0,"TOWNNAME":"安南區","LI":"理想里","LIN":"2鄰","STREET":"同安路","SECT":" ","MAREA":" ","LANE":"３６巷","ALLEY":" ","HOUSE_NO":"８１號","E_COORD97":166941.42999999999,"N_COORD97":2548695.2400000002,"ADDRESS":"同安路３６巷８１號","OBJECTID":416773},"geometry":{"x":166941.4299999997,"y":2548695.2400000021}},{"attributes":{"ID":416798,"DIS_CODE":0,"TOWNNAME":"安南區","LI":"理想里","LIN":"2鄰","STREET":"同安路","SECT":" ","MAREA":" ","LANE":"３６巷","ALLEY":" ","HOUSE_NO":"８３號","E_COORD97":166944.88,"N_COORD97":2548692.6200000001,"ADDRESS":"同安路３６巷８３號","OBJECTID":416774},"geometry":{"x":166944.88000000082,"y":2548692.620000001}},{"attributes":{"ID":416799,"DIS_CODE":0,"TOWNNAME":"安南區","LI":"理想里","LIN":"2鄰","STREET":"同安路","SECT":" ","MAREA":" ","LANE":"３６巷","ALLEY":" ","HOUSE_NO":"８５號","E_COORD97":166946.84,"N_COORD97":2548688.3599999999,"ADDRESS":"同安路３６巷８５號","OBJECTID":416775},"geometry":{"x":166946.84000000078,"y":2548688.3599999994}},{"attributes":{"ID":416800,"DIS_CODE":0,"TOWNNAME":"安南區","LI":"理想里","LIN":"2鄰","STREET":"同安路","SECT":" ","MAREA":" ","LANE":"３６巷","ALLEY":" ","HOUSE_NO":"８７號","E_COORD97":166950.17999999999,"N_COORD97":2548681.7000000002,"ADDRESS":"同安路３６巷８７號","OBJECTID":416776},"geometry":{"x":166950.1799999997,"y":2548681.7000000011}},{"attributes":{"ID":416801,"DIS_CODE":0,"TOWNNAME":"安南區","LI":"理想里","LIN":"2鄰","STREET":"同安路","SECT":" ","MAREA":" ","LANE":"３６巷","ALLEY":" ","HOUSE_NO":"８９號","E_COORD97":166954.34,"N_COORD97":2548675.77,"ADDRESS":"同安路３６巷８９號","OBJECTID":416777},"geometry":{"x":166954.33999999985,"y":2548675.7699999996}},{"attributes":{"ID":416802,"DIS_CODE":0,"TOWNNAME":"安南區","LI":"理想里","LIN":"2鄰","STREET":"同安路","SECT":" ","MAREA":" ","LANE":"３６巷","ALLEY":" ","HOUSE_NO":"９１號","E_COORD97":166956.70999999999,"N_COORD97":2548669.8399999999,"ADDRESS":"同安路３６巷９１號","OBJECTID":416778},"geometry":{"x":166956.70999999996,"y":2548669.839999998}},{"attributes":{"ID":416803,"DIS_CODE":0,"TOWNNAME":"安南區","LI":"理想里","LIN":"2鄰","STREET":"同安路","SECT":" ","MAREA":" ","LANE":"３６巷","ALLEY":" ","HOUSE_NO":"９３號","E_COORD97":166959.09,"N_COORD97":2548667.27,"ADDRESS":"同安路３６巷９３號","OBJECTID":416779},"geometry":{"x":166959.08999999985,"y":2548667.2700000014}},{"attributes":{"ID":416804,"DIS_CODE":0,"TOWNNAME":"安南區","LI":"理想里","LIN":"2鄰","STREET":"同安路","SECT":" ","MAREA":" ","LANE":"３６巷","ALLEY":" ","HOUSE_NO":"９５號","E_COORD97":166958.92000000001,"N_COORD97":2548665.7599999998,"ADDRESS":"同安路３６巷９５號","OBJECTID":416780},"geometry":{"x":166958.91999999993,"y":2548665.7599999998}},{"attributes":{"ID":416805,"DIS_CODE":0,"TOWNNAME":"東區","LI":"崇文里","LIN":"2鄰","STREET":"崇德十五街","SECT":" ","MAREA":" ","LANE":"９２巷","ALLEY":" ","HOUSE_NO":"１７號","E_COORD97":171074.64999999999,"N_COORD97":2541162.0499999998,"ADDRESS":"崇德十五街９２巷１７號","OBJECTID":416781},"geometry":{"x":171074.6500000013,"y":2541162.0500000007}},{"attributes":{"ID":416806,"DIS_CODE":0,"TOWNNAME":"東區","LI":"崇文里","LIN":"2鄰","STREET":"崇德十五街","SECT":" ","MAREA":" ","LANE":"９２巷","ALLEY":" ","HOUSE_NO":"１８號","E_COORD97":171062.48000000001,"N_COORD97":2541116.5899999999,"ADDRESS":"崇德十五街９２巷１８號","OBJECTID":416782},"geometry":{"x":171062.48000000138,"y":2541116.5899999999}},{"attributes":{"ID":416807,"DIS_CODE":0,"TOWNNAME":"東區","LI":"崇文里","LIN":"2鄰","STREET":"崇德十五街","SECT":" ","MAREA":" ","LANE":"９２巷","ALLEY":" ","HOUSE_NO":"１９號","E_COORD97":171076.25,"N_COORD97":2541157.6699999999,"ADDRESS":"崇德十五街９２巷１９號","OBJECTID":416783},"geometry":{"x":171076.25,"y":2541157.6699999999}},{"attributes":{"ID":416808,"DIS_CODE":0,"TOWNNAME":"東區","LI":"崇文里","LIN":"2鄰","STREET":"崇德十五街","SECT":" ","MAREA":" ","LANE":"９２巷","ALLEY":" ","HOUSE_NO":"１號","E_COORD97":171065.10000000001,"N_COORD97":2541195.1699999999,"ADDRESS":"崇德十五街９２巷１號","OBJECTID":416784},"geometry":{"x":171065.0999999987,"y":2541195.1699999981}},{"attributes":{"ID":416809,"DIS_CODE":0,"TOWNNAME":"東區","LI":"崇文里","LIN":"2鄰","STREET":"崇德十五街","SECT":" ","MAREA":" ","LANE":"９２巷","ALLEY":" ","HOUSE_NO":"２１號","E_COORD97":171077.44,"N_COORD97":2541153.8500000001,"ADDRESS":"崇德十五街９２巷２１號","OBJECTID":416785},"geometry":{"x":171077.44000000227,"y":2541153.8500000015}},{"attributes":{"ID":416810,"DIS_CODE":0,"TOWNNAME":"東區","LI":"崇文里","LIN":"2鄰","STREET":"崇德十五街","SECT":" ","MAREA":" ","LANE":"９２巷","ALLEY":" ","HOUSE_NO":"２３號","E_COORD97":171078.54000000001,"N_COORD97":2541149.8300000001,"ADDRESS":"崇德十五街９２巷２３號","OBJECTID":416786},"geometry":{"x":171078.54000000097,"y":2541149.8300000001}},{"attributes":{"ID":416811,"DIS_CODE":0,"TOWNNAME":"東區","LI":"崇文里","LIN":"2鄰","STREET":"崇德十五街","SECT":" ","MAREA":" ","LANE":"９２巷","ALLEY":" ","HOUSE_NO":"２５號","E_COORD97":171080.03,"N_COORD97":2541145.75,"ADDRESS":"崇德十五街９２巷２５號","OBJECTID":416787},"geometry":{"x":171080.03000000212,"y":2541145.7500000019}},{"attributes":{"ID":416812,"DIS_CODE":0,"TOWNNAME":"東區","LI":"崇文里","LIN":"2鄰","STREET":"崇德十五街","SECT":" ","MAREA":" ","LANE":"９２巷","ALLEY":" ","HOUSE_NO":"３１號","E_COORD97":171083.91,"N_COORD97":2541133.9199999999,"ADDRESS":"崇德十五街９２巷３１號","OBJECTID":416788},"geometry":{"x":171083.90999999922,"y":2541133.9200000018}},{"attributes":{"ID":416813,"DIS_CODE":0,"TOWNNAME":"東區","LI":"崇文里","LIN":"2鄰","STREET":"崇德十五街","SECT":" ","MAREA":" ","LANE":"９２巷","ALLEY":" ","HOUSE_NO":"３３號","E_COORD97":171085.31,"N_COORD97":2541129.6400000001,"ADDRESS":"崇德十五街９２巷３３號","OBJECTID":416789},"geometry":{"x":171085.30999999959,"y":2541129.6400000025}},{"attributes":{"ID":416814,"DIS_CODE":0,"TOWNNAME":"東區","LI":"崇文里","LIN":"2鄰","STREET":"崇德十五街","SECT":" ","MAREA":" ","LANE":"９２巷","ALLEY":" ","HOUSE_NO":"３５號","E_COORD97":171086.79999999999,"N_COORD97":2541126.21,"ADDRESS":"崇德十五街９２巷３５號","OBJECTID":416790},"geometry":{"x":171086.80000000075,"y":2541126.2100000028}},{"attributes":{"ID":416815,"DIS_CODE":0,"TOWNNAME":"東區","LI":"崇文里","LIN":"2鄰","STREET":"崇德十五街","SECT":" ","MAREA":" ","LANE":"９２巷","ALLEY":" ","HOUSE_NO":"３７號","E_COORD97":171087.79000000001,"N_COORD97":2541122.1299999999,"ADDRESS":"崇德十五街９２巷３７號","OBJECTID":416791},"geometry":{"x":171087.79000000004,"y":2541122.129999999}},{"attributes":{"ID":416816,"DIS_CODE":0,"TOWNNAME":"東區","LI":"崇文里","LIN":"2鄰","STREET":"崇德十五街","SECT":" ","MAREA":" ","LANE":"９２巷","ALLEY":" ","HOUSE_NO":"３９號","E_COORD97":171090.48000000001,"N_COORD97":2541118.2599999998,"ADDRESS":"崇德十五街９２巷３９號","OBJECTID":416792},"geometry":{"x":171090.48000000045,"y":2541118.2600000016}},{"attributes":{"ID":416817,"DIS_CODE":0,"TOWNNAME":"東區","LI":"崇文里","LIN":"2鄰","STREET":"崇德十五街","SECT":" ","MAREA":" ","LANE":"９２巷","ALLEY":" ","HOUSE_NO":"３號","E_COORD97":171066.09,"N_COORD97":2541190.6899999999,"ADDRESS":"崇德十五街９２巷３號","OBJECTID":416793},"geometry":{"x":171066.09000000078,"y":2541190.6899999995}},{"attributes":{"ID":416818,"DIS_CODE":0,"TOWNNAME":"東區","LI":"崇文里","LIN":"2鄰","STREET":"崇德十五街","SECT":" ","MAREA":" ","LANE":"９２巷","ALLEY":" ","HOUSE_NO":"４１號","E_COORD97":171091.97,"N_COORD97":2541113.0800000001,"ADDRESS":"崇德十五街９２巷４１號","OBJECTID":416794},"geometry":{"x":171091.97000000067,"y":2541113.0800000019}},{"attributes":{"ID":416819,"DIS_CODE":0,"TOWNNAME":"東區","LI":"崇文里","LIN":"2鄰","STREET":"崇德十五街","SECT":" ","MAREA":" ","LANE":"９２巷","ALLEY":" ","HOUSE_NO":"４３號","E_COORD97":171092.57000000001,"N_COORD97":2541108.0099999998,"ADDRESS":"崇德十五街９２巷４３號","OBJECTID":416795},"geometry":{"x":171092.5700000003,"y":2541108.0099999979}},{"attributes":{"ID":416820,"DIS_CODE":0,"TOWNNAME":"東區","LI":"崇明里","LIN":"2鄰","STREET":"大同路","SECT":"二段","MAREA":" ","LANE":"４０３巷","ALLEY":" ","HOUSE_NO":"６１號","E_COORD97":169612.09,"N_COORD97":2541375.4199999999,"ADDRESS":"大同路二段４０３巷６１號","OBJECTID":416796},"geometry":{"x":169612.08999999985,"y":2541375.4199999999}},{"attributes":{"ID":416821,"DIS_CODE":0,"TOWNNAME":"中西區","LI":"保安里","LIN":"2鄰","STREET":"友愛街","SECT":" ","MAREA":" ","LANE":"２０１巷","ALLEY":" ","HOUSE_NO":"２１號","E_COORD97":167692.60999999999,"N_COORD97":2543537.4700000002,"ADDRESS":"友愛街２０１巷２１號","OBJECTID":416797},"geometry":{"x":167692.6100000022,"y":2543537.4700000025}},{"attributes":{"ID":416822,"DIS_CODE":0,"TOWNNAME":"中西區","LI":"保安里","LIN":"2鄰","STREET":"友愛街","SECT":" ","MAREA":" ","LANE":"２０１巷","ALLEY":" ","HOUSE_NO":"２３號","E_COORD97":167692.60999999999,"N_COORD97":2543531.7999999998,"ADDRESS":"友愛街２０１巷２３號","OBJECTID":416798},"geometry":{"x":167692.6100000022,"y":2543531.8000000026}},{"attributes":{"ID":416823,"DIS_CODE":0,"TOWNNAME":"中西區","LI":"保安里","LIN":"2鄰","STREET":"友愛街","SECT":" ","MAREA":" ","LANE":"２０１巷","ALLEY":" ","HOUSE_NO":"２５號","E_COORD97":167688.48000000001,"N_COORD97":2543522.52,"ADDRESS":"友愛街２０１巷２５號","OBJECTID":416799},"geometry":{"x":167688.48000000231,"y":2543522.5200000014}},{"attributes":{"ID":416824,"DIS_CODE":0,"TOWNNAME":"中西區","LI":"保安里","LIN":"2鄰","STREET":"友愛街","SECT":" ","MAREA":" ","LANE":"２０１巷","ALLEY":" ","HOUSE_NO":"２７號","E_COORD97":167698.79999999999,"N_COORD97":2543523.0299999998,"ADDRESS":"友愛街２０１巷２７號","OBJECTID":416800},"geometry":{"x":167698.79999999981,"y":2543523.0300000012}}]}