{"displayFieldName":"TOWNNAME","fieldAliases":{"ID":"ID","DIS_CODE":"DIS_CODE","TOWNNAME":"TOWNNAME","LI":"LI","LIN":"LIN","STREET":"STREET","SECT":"SECT","MAREA":"MAREA","LANE":"LANE","ALLEY":"ALLEY","HOUSE_NO":"HOUSE_NO","E_COORD97":"E_COORD97","N_COORD97":"N_COORD97","ADDRESS":"ADDRESS","OBJECTID":"OBJECTID"},"geometryType":"esriGeometryPoint","spatialReference":{"wkid":102443,"latestWkid":3826},"fields":[{"name":"ID","type":"esriFieldTypeDouble","alias":"ID"},{"name":"DIS_CODE","type":"esriFieldTypeInteger","alias":"DIS_CODE"},{"name":"TOWNNAME","type":"esriFieldTypeString","alias":"TOWNNAME","length":8},{"name":"LI","type":"esriFieldTypeString","alias":"LI","length":8},{"name":"LIN","type":"esriFieldTypeString","alias":"LIN","length":12},{"name":"STREET","type":"esriFieldTypeString","alias":"STREET","length":20},{"name":"SECT","type":"esriFieldTypeString","alias":"SECT","length":8},{"name":"MAREA","type":"esriFieldTypeString","alias":"MAREA","length":12},{"name":"LANE","type":"esriFieldTypeString","alias":"LANE","length":10},{"name":"ALLEY","type":"esriFieldTypeString","alias":"ALLEY","length":10},{"name":"HOUSE_NO","type":"esriFieldTypeString","alias":"HOUSE_NO","length":20},{"name":"E_COORD97","type":"esriFieldTypeDouble","alias":"E_COORD97"},{"name":"N_COORD97","type":"esriFieldTypeDouble","alias":"N_COORD97"},{"name":"ADDRESS","type":"esriFieldTypeString","alias":"ADDRESS","length":50},{"name":"OBJECTID","type":"esriFieldTypeOID","alias":"OBJECTID"}],"features":[{"attributes":{"ID":634628,"DIS_CODE":0,"TOWNNAME":"東區","LI":"文聖里","LIN":"6鄰","STREET":"裕農一街","SECT":" ","MAREA":" ","LANE":" ","ALLEY":" ","HOUSE_NO":"１８６號六樓之１９","E_COORD97":171910.89999999999,"N_COORD97":2542639.48,"ADDRESS":"裕農一街１８６號六樓之１９","OBJECTID":634601},"geometry":{"x":171910.90000000037,"y":2542639.4800000023}},{"attributes":{"ID":634629,"DIS_CODE":0,"TOWNNAME":"東區","LI":"文聖里","LIN":"6鄰","STREET":"裕農一街","SECT":" ","MAREA":" ","LANE":" ","ALLEY":" ","HOUSE_NO":"１８６號六樓之２","E_COORD97":171910.89999999999,"N_COORD97":2542639.48,"ADDRESS":"裕農一街１８６號六樓之２","OBJECTID":634602},"geometry":{"x":171910.90000000037,"y":2542639.4800000023}},{"attributes":{"ID":634630,"DIS_CODE":0,"TOWNNAME":"東區","LI":"文聖里","LIN":"6鄰","STREET":"裕農一街","SECT":" ","MAREA":" ","LANE":" ","ALLEY":" ","HOUSE_NO":"１８６號六樓之２０","E_COORD97":171910.89999999999,"N_COORD97":2542639.48,"ADDRESS":"裕農一街１８６號六樓之２０","OBJECTID":634603},"geometry":{"x":171910.90000000037,"y":2542639.4800000023}},{"attributes":{"ID":634631,"DIS_CODE":0,"TOWNNAME":"東區","LI":"文聖里","LIN":"6鄰","STREET":"裕農一街","SECT":" ","MAREA":" ","LANE":" ","ALLEY":" ","HOUSE_NO":"１８６號六樓之２１","E_COORD97":171910.89999999999,"N_COORD97":2542639.48,"ADDRESS":"裕農一街１８６號六樓之２１","OBJECTID":634604},"geometry":{"x":171910.90000000037,"y":2542639.4800000023}},{"attributes":{"ID":634632,"DIS_CODE":0,"TOWNNAME":"東區","LI":"文聖里","LIN":"6鄰","STREET":"裕農一街","SECT":" ","MAREA":" ","LANE":" ","ALLEY":" ","HOUSE_NO":"１８６號六樓之２２","E_COORD97":171910.89999999999,"N_COORD97":2542639.48,"ADDRESS":"裕農一街１８６號六樓之２２","OBJECTID":634605},"geometry":{"x":171910.90000000037,"y":2542639.4800000023}},{"attributes":{"ID":634633,"DIS_CODE":0,"TOWNNAME":"東區","LI":"文聖里","LIN":"6鄰","STREET":"裕農一街","SECT":" ","MAREA":" ","LANE":" ","ALLEY":" ","HOUSE_NO":"１８６號六樓之２３","E_COORD97":171910.89999999999,"N_COORD97":2542639.48,"ADDRESS":"裕農一街１８６號六樓之２３","OBJECTID":634606},"geometry":{"x":171910.90000000037,"y":2542639.4800000023}},{"attributes":{"ID":634634,"DIS_CODE":0,"TOWNNAME":"玉井區","LI":"玉井里","LIN":"10鄰","STREET":"民生路","SECT":" ","MAREA":" ","LANE":" ","ALLEY":" ","HOUSE_NO":"１號二樓之１","E_COORD97":194734.72,"N_COORD97":2558173.29,"ADDRESS":"民生路１號二樓之１","OBJECTID":634607},"geometry":{"x":194734.72000000067,"y":2558173.290000001}},{"attributes":{"ID":634635,"DIS_CODE":0,"TOWNNAME":"東區","LI":"文聖里","LIN":"6鄰","STREET":"裕農一街","SECT":" ","MAREA":" ","LANE":" ","ALLEY":" ","HOUSE_NO":"１８６號六樓之２４","E_COORD97":171910.89999999999,"N_COORD97":2542639.48,"ADDRESS":"裕農一街１８６號六樓之２４","OBJECTID":634608},"geometry":{"x":171910.90000000037,"y":2542639.4800000023}},{"attributes":{"ID":634636,"DIS_CODE":0,"TOWNNAME":"東區","LI":"文聖里","LIN":"6鄰","STREET":"裕農一街","SECT":" ","MAREA":" ","LANE":" ","ALLEY":" ","HOUSE_NO":"１８６號六樓之２５","E_COORD97":171910.89999999999,"N_COORD97":2542639.48,"ADDRESS":"裕農一街１８６號六樓之２５","OBJECTID":634609},"geometry":{"x":171910.90000000037,"y":2542639.4800000023}},{"attributes":{"ID":634637,"DIS_CODE":0,"TOWNNAME":"東區","LI":"文聖里","LIN":"6鄰","STREET":"裕農一街","SECT":" ","MAREA":" ","LANE":" ","ALLEY":" ","HOUSE_NO":"１８６號六樓之３","E_COORD97":171910.89999999999,"N_COORD97":2542639.48,"ADDRESS":"裕農一街１８６號六樓之３","OBJECTID":634610},"geometry":{"x":171910.90000000037,"y":2542639.4800000023}},{"attributes":{"ID":634638,"DIS_CODE":0,"TOWNNAME":"東區","LI":"文聖里","LIN":"6鄰","STREET":"裕農一街","SECT":" ","MAREA":" ","LANE":" ","ALLEY":" ","HOUSE_NO":"１８６號六樓之５","E_COORD97":171910.89999999999,"N_COORD97":2542639.48,"ADDRESS":"裕農一街１８６號六樓之５","OBJECTID":634611},"geometry":{"x":171910.90000000037,"y":2542639.4800000023}},{"attributes":{"ID":634639,"DIS_CODE":0,"TOWNNAME":"東區","LI":"文聖里","LIN":"6鄰","STREET":"裕農一街","SECT":" ","MAREA":" ","LANE":" ","ALLEY":" ","HOUSE_NO":"１８６號六樓之６","E_COORD97":171910.89999999999,"N_COORD97":2542639.48,"ADDRESS":"裕農一街１８６號六樓之６","OBJECTID":634612},"geometry":{"x":171910.90000000037,"y":2542639.4800000023}},{"attributes":{"ID":634640,"DIS_CODE":0,"TOWNNAME":"東區","LI":"文聖里","LIN":"6鄰","STREET":"裕農一街","SECT":" ","MAREA":" ","LANE":" ","ALLEY":" ","HOUSE_NO":"１８６號六樓之７","E_COORD97":171910.89999999999,"N_COORD97":2542639.48,"ADDRESS":"裕農一街１８６號六樓之７","OBJECTID":634613},"geometry":{"x":171910.90000000037,"y":2542639.4800000023}},{"attributes":{"ID":634641,"DIS_CODE":0,"TOWNNAME":"東區","LI":"文聖里","LIN":"6鄰","STREET":"裕農一街","SECT":" ","MAREA":" ","LANE":" ","ALLEY":" ","HOUSE_NO":"１８６號六樓之８","E_COORD97":171910.89999999999,"N_COORD97":2542639.48,"ADDRESS":"裕農一街１８６號六樓之８","OBJECTID":634614},"geometry":{"x":171910.90000000037,"y":2542639.4800000023}},{"attributes":{"ID":634642,"DIS_CODE":0,"TOWNNAME":"東區","LI":"文聖里","LIN":"6鄰","STREET":"裕農一街","SECT":" ","MAREA":" ","LANE":" ","ALLEY":" ","HOUSE_NO":"１８６號六樓之９","E_COORD97":171910.89999999999,"N_COORD97":2542639.48,"ADDRESS":"裕農一街１８６號六樓之９","OBJECTID":634615},"geometry":{"x":171910.90000000037,"y":2542639.4800000023}},{"attributes":{"ID":634643,"DIS_CODE":0,"TOWNNAME":"東區","LI":"崇明里","LIN":"20鄰","STREET":"中華東路","SECT":"三段","MAREA":" ","LANE":" ","ALLEY":" ","HOUSE_NO":"３７９號十二樓之２","E_COORD97":170157.42999999999,"N_COORD97":2541555.7599999998,"ADDRESS":"中華東路三段３７９號十二樓之２","OBJECTID":634616},"geometry":{"x":170157.4299999997,"y":2541555.7599999998}},{"attributes":{"ID":634644,"DIS_CODE":0,"TOWNNAME":"東區","LI":"崇明里","LIN":"20鄰","STREET":"中華東路","SECT":"三段","MAREA":" ","LANE":" ","ALLEY":" ","HOUSE_NO":"３７９號十三樓之１","E_COORD97":170157.42999999999,"N_COORD97":2541555.7599999998,"ADDRESS":"中華東路三段３７９號十三樓之１","OBJECTID":634617},"geometry":{"x":170157.4299999997,"y":2541555.7599999998}},{"attributes":{"ID":634645,"DIS_CODE":0,"TOWNNAME":"東區","LI":"崇明里","LIN":"20鄰","STREET":"中華東路","SECT":"三段","MAREA":" ","LANE":" ","ALLEY":" ","HOUSE_NO":"３７９號十三樓之２","E_COORD97":170157.42999999999,"N_COORD97":2541555.7599999998,"ADDRESS":"中華東路三段３７９號十三樓之２","OBJECTID":634618},"geometry":{"x":170157.4299999997,"y":2541555.7599999998}},{"attributes":{"ID":634646,"DIS_CODE":0,"TOWNNAME":"東區","LI":"崇明里","LIN":"20鄰","STREET":"中華東路","SECT":"三段","MAREA":" ","LANE":" ","ALLEY":" ","HOUSE_NO":"３７９號十四樓之１","E_COORD97":170157.42999999999,"N_COORD97":2541555.7599999998,"ADDRESS":"中華東路三段３７９號十四樓之１","OBJECTID":634619},"geometry":{"x":170157.4299999997,"y":2541555.7599999998}},{"attributes":{"ID":634647,"DIS_CODE":0,"TOWNNAME":"東區","LI":"崇明里","LIN":"20鄰","STREET":"中華東路","SECT":"三段","MAREA":" ","LANE":" ","ALLEY":" ","HOUSE_NO":"３７９號十四樓之２","E_COORD97":170157.42999999999,"N_COORD97":2541555.7599999998,"ADDRESS":"中華東路三段３７９號十四樓之２","OBJECTID":634620},"geometry":{"x":170157.4299999997,"y":2541555.7599999998}},{"attributes":{"ID":634648,"DIS_CODE":0,"TOWNNAME":"東區","LI":"崇明里","LIN":"20鄰","STREET":"中華東路","SECT":"三段","MAREA":" ","LANE":" ","ALLEY":" ","HOUSE_NO":"３７９號十五樓之１","E_COORD97":170157.42999999999,"N_COORD97":2541555.7599999998,"ADDRESS":"中華東路三段３７９號十五樓之１","OBJECTID":634621},"geometry":{"x":170157.4299999997,"y":2541555.7599999998}},{"attributes":{"ID":634649,"DIS_CODE":0,"TOWNNAME":"東區","LI":"崇明里","LIN":"20鄰","STREET":"中華東路","SECT":"三段","MAREA":" ","LANE":" ","ALLEY":" ","HOUSE_NO":"３７９號十五樓之２","E_COORD97":170157.42999999999,"N_COORD97":2541555.7599999998,"ADDRESS":"中華東路三段３７９號十五樓之２","OBJECTID":634622},"geometry":{"x":170157.4299999997,"y":2541555.7599999998}},{"attributes":{"ID":634650,"DIS_CODE":0,"TOWNNAME":"東區","LI":"崇明里","LIN":"20鄰","STREET":"中華東路","SECT":"三段","MAREA":" ","LANE":" ","ALLEY":" ","HOUSE_NO":"３７９號十六樓之１","E_COORD97":170157.42999999999,"N_COORD97":2541555.7599999998,"ADDRESS":"中華東路三段３７９號十六樓之１","OBJECTID":634623},"geometry":{"x":170157.4299999997,"y":2541555.7599999998}},{"attributes":{"ID":634651,"DIS_CODE":0,"TOWNNAME":"東區","LI":"崇明里","LIN":"20鄰","STREET":"中華東路","SECT":"三段","MAREA":" ","LANE":" ","ALLEY":" ","HOUSE_NO":"３７９號十六樓之２","E_COORD97":170157.42999999999,"N_COORD97":2541555.7599999998,"ADDRESS":"中華東路三段３７９號十六樓之２","OBJECTID":634624},"geometry":{"x":170157.4299999997,"y":2541555.7599999998}},{"attributes":{"ID":634652,"DIS_CODE":0,"TOWNNAME":"東區","LI":"崇明里","LIN":"20鄰","STREET":"中華東路","SECT":"三段","MAREA":" ","LANE":" ","ALLEY":" ","HOUSE_NO":"３７９號十七樓之１","E_COORD97":170157.42999999999,"N_COORD97":2541555.7599999998,"ADDRESS":"中華東路三段３７９號十七樓之１","OBJECTID":634625},"geometry":{"x":170157.4299999997,"y":2541555.7599999998}},{"attributes":{"ID":634653,"DIS_CODE":0,"TOWNNAME":"東區","LI":"崇明里","LIN":"20鄰","STREET":"中華東路","SECT":"三段","MAREA":" ","LANE":" ","ALLEY":" ","HOUSE_NO":"３７９號十七樓之２","E_COORD97":170157.42999999999,"N_COORD97":2541555.7599999998,"ADDRESS":"中華東路三段３７９號十七樓之２","OBJECTID":634626},"geometry":{"x":170157.4299999997,"y":2541555.7599999998}},{"attributes":{"ID":634654,"DIS_CODE":0,"TOWNNAME":"東區","LI":"崇明里","LIN":"20鄰","STREET":"中華東路","SECT":"三段","MAREA":" ","LANE":" ","ALLEY":" ","HOUSE_NO":"３７９號十八樓之１","E_COORD97":170157.42999999999,"N_COORD97":2541555.7599999998,"ADDRESS":"中華東路三段３７９號十八樓之１","OBJECTID":634627},"geometry":{"x":170157.4299999997,"y":2541555.7599999998}},{"attributes":{"ID":634655,"DIS_CODE":0,"TOWNNAME":"東區","LI":"崇明里","LIN":"20鄰","STREET":"中華東路","SECT":"三段","MAREA":" ","LANE":" ","ALLEY":" ","HOUSE_NO":"３７９號十八樓之２","E_COORD97":170157.42999999999,"N_COORD97":2541555.7599999998,"ADDRESS":"中華東路三段３７９號十八樓之２","OBJECTID":634628},"geometry":{"x":170157.4299999997,"y":2541555.7599999998}},{"attributes":{"ID":634656,"DIS_CODE":0,"TOWNNAME":"東區","LI":"東明里","LIN":"13鄰","STREET":"凱旋路","SECT":" ","MAREA":" ","LANE":" ","ALLEY":" ","HOUSE_NO":"２２７號二樓","E_COORD97":170753.06,"N_COORD97":2543764.1200000001,"ADDRESS":"凱旋路２２７號二樓","OBJECTID":634629},"geometry":{"x":170753.05999999959,"y":2543764.1200000029}},{"attributes":{"ID":634657,"DIS_CODE":0,"TOWNNAME":"東區","LI":"東明里","LIN":"13鄰","STREET":"凱旋路","SECT":" ","MAREA":" ","LANE":" ","ALLEY":" ","HOUSE_NO":"２２７號二樓之１","E_COORD97":170753.06,"N_COORD97":2543764.1200000001,"ADDRESS":"凱旋路２２７號二樓之１","OBJECTID":634630},"geometry":{"x":170753.05999999959,"y":2543764.1200000029}},{"attributes":{"ID":634658,"DIS_CODE":0,"TOWNNAME":"東區","LI":"東明里","LIN":"13鄰","STREET":"凱旋路","SECT":" ","MAREA":" ","LANE":" ","ALLEY":" ","HOUSE_NO":"２２７號二樓之２","E_COORD97":170753.06,"N_COORD97":2543764.1200000001,"ADDRESS":"凱旋路２２７號二樓之２","OBJECTID":634631},"geometry":{"x":170753.05999999959,"y":2543764.1200000029}},{"attributes":{"ID":634659,"DIS_CODE":0,"TOWNNAME":"東區","LI":"東明里","LIN":"13鄰","STREET":"凱旋路","SECT":" ","MAREA":" ","LANE":" ","ALLEY":" ","HOUSE_NO":"２２７號二樓之３","E_COORD97":170753.06,"N_COORD97":2543764.1200000001,"ADDRESS":"凱旋路２２７號二樓之３","OBJECTID":634632},"geometry":{"x":170753.05999999959,"y":2543764.1200000029}},{"attributes":{"ID":634660,"DIS_CODE":0,"TOWNNAME":"東區","LI":"東明里","LIN":"13鄰","STREET":"凱旋路","SECT":" ","MAREA":" ","LANE":" ","ALLEY":" ","HOUSE_NO":"２２７號三樓","E_COORD97":170753.06,"N_COORD97":2543764.1200000001,"ADDRESS":"凱旋路２２７號三樓","OBJECTID":634633},"geometry":{"x":170753.05999999959,"y":2543764.1200000029}},{"attributes":{"ID":634661,"DIS_CODE":0,"TOWNNAME":"東區","LI":"東明里","LIN":"13鄰","STREET":"凱旋路","SECT":" ","MAREA":" ","LANE":" ","ALLEY":" ","HOUSE_NO":"２２７號三樓之２","E_COORD97":170753.06,"N_COORD97":2543764.1200000001,"ADDRESS":"凱旋路２２７號三樓之２","OBJECTID":634634},"geometry":{"x":170753.05999999959,"y":2543764.1200000029}},{"attributes":{"ID":634662,"DIS_CODE":0,"TOWNNAME":"東區","LI":"東明里","LIN":"13鄰","STREET":"凱旋路","SECT":" ","MAREA":" ","LANE":" ","ALLEY":" ","HOUSE_NO":"２２７號三樓之３","E_COORD97":170753.06,"N_COORD97":2543764.1200000001,"ADDRESS":"凱旋路２２７號三樓之３","OBJECTID":634635},"geometry":{"x":170753.05999999959,"y":2543764.1200000029}},{"attributes":{"ID":634663,"DIS_CODE":0,"TOWNNAME":"東區","LI":"東明里","LIN":"13鄰","STREET":"凱旋路","SECT":" ","MAREA":" ","LANE":" ","ALLEY":" ","HOUSE_NO":"２２７號四樓","E_COORD97":170753.06,"N_COORD97":2543764.1200000001,"ADDRESS":"凱旋路２２７號四樓","OBJECTID":634636},"geometry":{"x":170753.05999999959,"y":2543764.1200000029}},{"attributes":{"ID":634664,"DIS_CODE":0,"TOWNNAME":"東區","LI":"東明里","LIN":"13鄰","STREET":"凱旋路","SECT":" ","MAREA":" ","LANE":" ","ALLEY":" ","HOUSE_NO":"２２７號四樓之２","E_COORD97":170753.06,"N_COORD97":2543764.1200000001,"ADDRESS":"凱旋路２２７號四樓之２","OBJECTID":634637},"geometry":{"x":170753.05999999959,"y":2543764.1200000029}},{"attributes":{"ID":634665,"DIS_CODE":0,"TOWNNAME":"東區","LI":"東明里","LIN":"13鄰","STREET":"凱旋路","SECT":" ","MAREA":" ","LANE":" ","ALLEY":" ","HOUSE_NO":"２２７號四樓之３","E_COORD97":170753.06,"N_COORD97":2543764.1200000001,"ADDRESS":"凱旋路２２７號四樓之３","OBJECTID":634638},"geometry":{"x":170753.05999999959,"y":2543764.1200000029}},{"attributes":{"ID":634666,"DIS_CODE":0,"TOWNNAME":"東區","LI":"東明里","LIN":"13鄰","STREET":"凱旋路","SECT":" ","MAREA":" ","LANE":" ","ALLEY":" ","HOUSE_NO":"２２７號五樓","E_COORD97":170753.06,"N_COORD97":2543764.1200000001,"ADDRESS":"凱旋路２２７號五樓","OBJECTID":634639},"geometry":{"x":170753.05999999959,"y":2543764.1200000029}},{"attributes":{"ID":634667,"DIS_CODE":0,"TOWNNAME":"東區","LI":"東明里","LIN":"13鄰","STREET":"凱旋路","SECT":" ","MAREA":" ","LANE":" ","ALLEY":" ","HOUSE_NO":"２２７號五樓之１","E_COORD97":170753.06,"N_COORD97":2543764.1200000001,"ADDRESS":"凱旋路２２７號五樓之１","OBJECTID":634640},"geometry":{"x":170753.05999999959,"y":2543764.1200000029}},{"attributes":{"ID":634668,"DIS_CODE":0,"TOWNNAME":"東區","LI":"東明里","LIN":"13鄰","STREET":"凱旋路","SECT":" ","MAREA":" ","LANE":" ","ALLEY":" ","HOUSE_NO":"２２７號五樓之２","E_COORD97":170753.06,"N_COORD97":2543764.1200000001,"ADDRESS":"凱旋路２２７號五樓之２","OBJECTID":634641},"geometry":{"x":170753.05999999959,"y":2543764.1200000029}},{"attributes":{"ID":634669,"DIS_CODE":0,"TOWNNAME":"東區","LI":"東明里","LIN":"13鄰","STREET":"凱旋路","SECT":" ","MAREA":" ","LANE":" ","ALLEY":" ","HOUSE_NO":"２２７號五樓之３","E_COORD97":170753.06,"N_COORD97":2543764.1200000001,"ADDRESS":"凱旋路２２７號五樓之３","OBJECTID":634642},"geometry":{"x":170753.05999999959,"y":2543764.1200000029}},{"attributes":{"ID":634670,"DIS_CODE":0,"TOWNNAME":"東區","LI":"東明里","LIN":"13鄰","STREET":"凱旋路","SECT":" ","MAREA":" ","LANE":" ","ALLEY":" ","HOUSE_NO":"２２７號六樓","E_COORD97":170753.06,"N_COORD97":2543764.1200000001,"ADDRESS":"凱旋路２２７號六樓","OBJECTID":634643},"geometry":{"x":170753.05999999959,"y":2543764.1200000029}},{"attributes":{"ID":634671,"DIS_CODE":0,"TOWNNAME":"東區","LI":"龍山里","LIN":"10鄰","STREET":"府東街","SECT":" ","MAREA":" ","LANE":" ","ALLEY":" ","HOUSE_NO":"６２號二樓","E_COORD97":169931.92440600001,"N_COORD97":2542933.1447399999,"ADDRESS":"府東街６２號二樓","OBJECTID":634644},"geometry":{"x":169931.92440600041,"y":2542933.1447399985}},{"attributes":{"ID":634672,"DIS_CODE":0,"TOWNNAME":"東區","LI":"龍山里","LIN":"10鄰","STREET":"府東街","SECT":" ","MAREA":" ","LANE":" ","ALLEY":" ","HOUSE_NO":"６２號五樓","E_COORD97":169931.92440600001,"N_COORD97":2542933.1447399999,"ADDRESS":"府東街６２號五樓","OBJECTID":634645},"geometry":{"x":169931.92440600041,"y":2542933.1447399985}},{"attributes":{"ID":634673,"DIS_CODE":0,"TOWNNAME":"東區","LI":"龍山里","LIN":"10鄰","STREET":"府東街","SECT":" ","MAREA":" ","LANE":" ","ALLEY":" ","HOUSE_NO":"６２號六樓","E_COORD97":169931.92440600001,"N_COORD97":2542933.1447399999,"ADDRESS":"府東街６２號六樓","OBJECTID":634646},"geometry":{"x":169931.92440600041,"y":2542933.1447399985}},{"attributes":{"ID":634674,"DIS_CODE":0,"TOWNNAME":"東區","LI":"龍山里","LIN":"10鄰","STREET":"府東街","SECT":" ","MAREA":" ","LANE":" ","ALLEY":" ","HOUSE_NO":"６２號七樓","E_COORD97":169931.92440600001,"N_COORD97":2542933.1447399999,"ADDRESS":"府東街６２號七樓","OBJECTID":634647},"geometry":{"x":169931.92440600041,"y":2542933.1447399985}},{"attributes":{"ID":634675,"DIS_CODE":0,"TOWNNAME":"東區","LI":"龍山里","LIN":"10鄰","STREET":"府東街","SECT":" ","MAREA":" ","LANE":" ","ALLEY":" ","HOUSE_NO":"６６號五樓","E_COORD97":169936.05594300001,"N_COORD97":2542942.3786900002,"ADDRESS":"府東街６６號五樓","OBJECTID":634648},"geometry":{"x":169936.05594300013,"y":2542942.3786940016}},{"attributes":{"ID":634676,"DIS_CODE":0,"TOWNNAME":"東區","LI":"龍山里","LIN":"10鄰","STREET":"府東街","SECT":" ","MAREA":" ","LANE":" ","ALLEY":" ","HOUSE_NO":"６６號六樓","E_COORD97":169936.05594300001,"N_COORD97":2542942.3786900002,"ADDRESS":"府東街６６號六樓","OBJECTID":634649},"geometry":{"x":169936.05594300013,"y":2542942.3786940016}},{"attributes":{"ID":634677,"DIS_CODE":0,"TOWNNAME":"東區","LI":"大智里","LIN":"5鄰","STREET":"長東街","SECT":" ","MAREA":" ","LANE":" ","ALLEY":" ","HOUSE_NO":"７１號三樓","E_COORD97":171020.20000000001,"N_COORD97":2540438.7400000002,"ADDRESS":"長東街７１號三樓","OBJECTID":634650},"geometry":{"x":171020.20000000112,"y":2540438.7400000002}},{"attributes":{"ID":634678,"DIS_CODE":0,"TOWNNAME":"東區","LI":"忠孝里","LIN":"24鄰","STREET":"崇明路","SECT":" ","MAREA":" ","LANE":" ","ALLEY":" ","HOUSE_NO":"９６號四樓","E_COORD97":169732.01000000001,"N_COORD97":2542286.4100000001,"ADDRESS":"崇明路９６號四樓","OBJECTID":634651},"geometry":{"x":169732.01000000164,"y":2542286.410000002}},{"attributes":{"ID":634679,"DIS_CODE":0,"TOWNNAME":"東區","LI":"崇德里","LIN":"15鄰","STREET":"崇明十三街","SECT":" ","MAREA":" ","LANE":" ","ALLEY":" ","HOUSE_NO":"１號四樓之７","E_COORD97":170450.95000000001,"N_COORD97":2541570.7000000002,"ADDRESS":"崇明十三街１號四樓之７","OBJECTID":634652},"geometry":{"x":170450.95000000019,"y":2541570.6999999974}},{"attributes":{"ID":634680,"DIS_CODE":0,"TOWNNAME":"東區","LI":"泉南里","LIN":"30鄰","STREET":"府連路","SECT":" ","MAREA":" ","LANE":" ","ALLEY":" ","HOUSE_NO":"２８９號四樓","E_COORD97":169515.28,"N_COORD97":2542874.27,"ADDRESS":"府連路２８９號四樓","OBJECTID":634653},"geometry":{"x":169515.28000000212,"y":2542874.2700000014}},{"attributes":{"ID":634681,"DIS_CODE":0,"TOWNNAME":"東區","LI":"東門里","LIN":"12鄰","STREET":"新樓街","SECT":" ","MAREA":" ","LANE":" ","ALLEY":" ","HOUSE_NO":"４７號三樓","E_COORD97":169529.42999999999,"N_COORD97":2543354.9199999999,"ADDRESS":"新樓街４７號三樓","OBJECTID":634654},"geometry":{"x":169529.43000000063,"y":2543354.9200000018}},{"attributes":{"ID":634682,"DIS_CODE":0,"TOWNNAME":"東區","LI":"東門里","LIN":"12鄰","STREET":"新樓街","SECT":" ","MAREA":" ","LANE":" ","ALLEY":" ","HOUSE_NO":"４７號五樓","E_COORD97":169529.42999999999,"N_COORD97":2543354.9199999999,"ADDRESS":"新樓街４７號五樓","OBJECTID":634655},"geometry":{"x":169529.43000000063,"y":2543354.9200000018}},{"attributes":{"ID":634683,"DIS_CODE":0,"TOWNNAME":"東區","LI":"東門里","LIN":"12鄰","STREET":"新樓街","SECT":" ","MAREA":" ","LANE":" ","ALLEY":" ","HOUSE_NO":"４７號四樓","E_COORD97":169529.42999999999,"N_COORD97":2543354.9199999999,"ADDRESS":"新樓街４７號四樓","OBJECTID":634656},"geometry":{"x":169529.43000000063,"y":2543354.9200000018}},{"attributes":{"ID":634684,"DIS_CODE":0,"TOWNNAME":"東區","LI":"大學里","LIN":"4鄰","STREET":"大學路","SECT":" ","MAREA":" ","LANE":" ","ALLEY":" ","HOUSE_NO":"１０號七樓之１","E_COORD97":170059.16,"N_COORD97":2544045.0699999998,"ADDRESS":"大學路１０號七樓之１","OBJECTID":634657},"geometry":{"x":170059.16000000108,"y":2544045.0700000022}},{"attributes":{"ID":634685,"DIS_CODE":0,"TOWNNAME":"東區","LI":"大學里","LIN":"4鄰","STREET":"大學路","SECT":" ","MAREA":" ","LANE":" ","ALLEY":" ","HOUSE_NO":"１０號七樓之２","E_COORD97":170059.16,"N_COORD97":2544045.0699999998,"ADDRESS":"大學路１０號七樓之２","OBJECTID":634658},"geometry":{"x":170059.16000000108,"y":2544045.0700000022}},{"attributes":{"ID":634686,"DIS_CODE":0,"TOWNNAME":"東區","LI":"大學里","LIN":"4鄰","STREET":"大學路","SECT":" ","MAREA":" ","LANE":" ","ALLEY":" ","HOUSE_NO":"１０號二樓之１","E_COORD97":170059.16,"N_COORD97":2544045.0699999998,"ADDRESS":"大學路１０號二樓之１","OBJECTID":634659},"geometry":{"x":170059.16000000108,"y":2544045.0700000022}},{"attributes":{"ID":634687,"DIS_CODE":0,"TOWNNAME":"東區","LI":"大學里","LIN":"4鄰","STREET":"大學路","SECT":" ","MAREA":" ","LANE":" ","ALLEY":" ","HOUSE_NO":"１０號二樓之２","E_COORD97":170059.16,"N_COORD97":2544045.0699999998,"ADDRESS":"大學路１０號二樓之２","OBJECTID":634660},"geometry":{"x":170059.16000000108,"y":2544045.0700000022}},{"attributes":{"ID":634688,"DIS_CODE":0,"TOWNNAME":"東區","LI":"大學里","LIN":"4鄰","STREET":"大學路","SECT":" ","MAREA":" ","LANE":" ","ALLEY":" ","HOUSE_NO":"１０號二樓之３","E_COORD97":170059.16,"N_COORD97":2544045.0699999998,"ADDRESS":"大學路１０號二樓之３","OBJECTID":634661},"geometry":{"x":170059.16000000108,"y":2544045.0700000022}},{"attributes":{"ID":634689,"DIS_CODE":0,"TOWNNAME":"東區","LI":"大學里","LIN":"4鄰","STREET":"大學路","SECT":" ","MAREA":" ","LANE":" ","ALLEY":" ","HOUSE_NO":"１０號三樓之１","E_COORD97":170059.16,"N_COORD97":2544045.0699999998,"ADDRESS":"大學路１０號三樓之１","OBJECTID":634662},"geometry":{"x":170059.16000000108,"y":2544045.0700000022}},{"attributes":{"ID":634690,"DIS_CODE":0,"TOWNNAME":"東區","LI":"大學里","LIN":"4鄰","STREET":"大學路","SECT":" ","MAREA":" ","LANE":" ","ALLEY":" ","HOUSE_NO":"１０號三樓之２","E_COORD97":170059.16,"N_COORD97":2544045.0699999998,"ADDRESS":"大學路１０號三樓之２","OBJECTID":634663},"geometry":{"x":170059.16000000108,"y":2544045.0700000022}},{"attributes":{"ID":634691,"DIS_CODE":0,"TOWNNAME":"東區","LI":"大學里","LIN":"4鄰","STREET":"大學路","SECT":" ","MAREA":" ","LANE":" ","ALLEY":" ","HOUSE_NO":"１０號三樓之３","E_COORD97":170059.16,"N_COORD97":2544045.0699999998,"ADDRESS":"大學路１０號三樓之３","OBJECTID":634664},"geometry":{"x":170059.16000000108,"y":2544045.0700000022}},{"attributes":{"ID":634692,"DIS_CODE":0,"TOWNNAME":"東區","LI":"大學里","LIN":"4鄰","STREET":"大學路","SECT":" ","MAREA":" ","LANE":" ","ALLEY":" ","HOUSE_NO":"１０號五樓之１","E_COORD97":170059.16,"N_COORD97":2544045.0699999998,"ADDRESS":"大學路１０號五樓之１","OBJECTID":634665},"geometry":{"x":170059.16000000108,"y":2544045.0700000022}},{"attributes":{"ID":634693,"DIS_CODE":0,"TOWNNAME":"東區","LI":"大學里","LIN":"4鄰","STREET":"大學路","SECT":" ","MAREA":" ","LANE":" ","ALLEY":" ","HOUSE_NO":"１０號五樓之２","E_COORD97":170059.16,"N_COORD97":2544045.0699999998,"ADDRESS":"大學路１０號五樓之２","OBJECTID":634666},"geometry":{"x":170059.16000000108,"y":2544045.0700000022}},{"attributes":{"ID":634694,"DIS_CODE":0,"TOWNNAME":"東區","LI":"大學里","LIN":"4鄰","STREET":"大學路","SECT":" ","MAREA":" ","LANE":" ","ALLEY":" ","HOUSE_NO":"１０號五樓之３","E_COORD97":170059.16,"N_COORD97":2544045.0699999998,"ADDRESS":"大學路１０號五樓之３","OBJECTID":634667},"geometry":{"x":170059.16000000108,"y":2544045.0700000022}},{"attributes":{"ID":634695,"DIS_CODE":0,"TOWNNAME":"東區","LI":"大學里","LIN":"4鄰","STREET":"大學路","SECT":" ","MAREA":" ","LANE":" ","ALLEY":" ","HOUSE_NO":"１０號六樓之１","E_COORD97":170059.16,"N_COORD97":2544045.0699999998,"ADDRESS":"大學路１０號六樓之１","OBJECTID":634668},"geometry":{"x":170059.16000000108,"y":2544045.0700000022}},{"attributes":{"ID":634696,"DIS_CODE":0,"TOWNNAME":"東區","LI":"大學里","LIN":"4鄰","STREET":"大學路","SECT":" ","MAREA":" ","LANE":" ","ALLEY":" ","HOUSE_NO":"１０號六樓之２","E_COORD97":170059.16,"N_COORD97":2544045.0699999998,"ADDRESS":"大學路１０號六樓之２","OBJECTID":634669},"geometry":{"x":170059.16000000108,"y":2544045.0700000022}},{"attributes":{"ID":634697,"DIS_CODE":0,"TOWNNAME":"東區","LI":"大學里","LIN":"4鄰","STREET":"大學路","SECT":" ","MAREA":" ","LANE":" ","ALLEY":" ","HOUSE_NO":"１０號六樓之３","E_COORD97":170059.16,"N_COORD97":2544045.0699999998,"ADDRESS":"大學路１０號六樓之３","OBJECTID":634670},"geometry":{"x":170059.16000000108,"y":2544045.0700000022}},{"attributes":{"ID":634698,"DIS_CODE":0,"TOWNNAME":"東區","LI":"大學里","LIN":"4鄰","STREET":"大學路","SECT":" ","MAREA":" ","LANE":" ","ALLEY":" ","HOUSE_NO":"１０號四樓之１","E_COORD97":170059.16,"N_COORD97":2544045.0699999998,"ADDRESS":"大學路１０號四樓之１","OBJECTID":634671},"geometry":{"x":170059.16000000108,"y":2544045.0700000022}},{"attributes":{"ID":634699,"DIS_CODE":0,"TOWNNAME":"東區","LI":"大學里","LIN":"4鄰","STREET":"大學路","SECT":" ","MAREA":" ","LANE":" ","ALLEY":" ","HOUSE_NO":"１０號四樓之２","E_COORD97":170059.16,"N_COORD97":2544045.0699999998,"ADDRESS":"大學路１０號四樓之２","OBJECTID":634672},"geometry":{"x":170059.16000000108,"y":2544045.0700000022}},{"attributes":{"ID":634700,"DIS_CODE":0,"TOWNNAME":"東區","LI":"大學里","LIN":"4鄰","STREET":"大學路","SECT":" ","MAREA":" ","LANE":" ","ALLEY":" ","HOUSE_NO":"１０號四樓之３","E_COORD97":170059.16,"N_COORD97":2544045.0699999998,"ADDRESS":"大學路１０號四樓之３","OBJECTID":634673},"geometry":{"x":170059.16000000108,"y":2544045.0700000022}},{"attributes":{"ID":634701,"DIS_CODE":0,"TOWNNAME":"東區","LI":"大學里","LIN":"4鄰","STREET":"大學路","SECT":" ","MAREA":" ","LANE":" ","ALLEY":" ","HOUSE_NO":"１６號七樓之１","E_COORD97":170110.63,"N_COORD97":2544043.5499999998,"ADDRESS":"大學路１６號七樓之１","OBJECTID":634674},"geometry":{"x":170110.62999999989,"y":2544043.5500000007}},{"attributes":{"ID":634702,"DIS_CODE":0,"TOWNNAME":"永康區","LI":"網寮里","LIN":"26鄰","STREET":"永興路","SECT":" ","MAREA":" ","LANE":" ","ALLEY":" ","HOUSE_NO":"１０７號六樓之２","E_COORD97":173910.48000000001,"N_COORD97":2546555.3900000001,"ADDRESS":"永興路１０７號六樓之２","OBJECTID":634675},"geometry":{"x":173910.48000000138,"y":2546555.3900000025}},{"attributes":{"ID":634703,"DIS_CODE":0,"TOWNNAME":"東區","LI":"大福里","LIN":"24鄰","STREET":"中華東路","SECT":"三段","MAREA":" ","LANE":" ","ALLEY":" ","HOUSE_NO":"５２４號四樓之８","E_COORD97":169690.23000000001,"N_COORD97":2541533.2999999998,"ADDRESS":"中華東路三段５２４號四樓之８","OBJECTID":634676},"geometry":{"x":169690.23000000045,"y":2541533.3000000007}},{"attributes":{"ID":634704,"DIS_CODE":0,"TOWNNAME":"東區","LI":"大學里","LIN":"4鄰","STREET":"大學路","SECT":" ","MAREA":" ","LANE":" ","ALLEY":" ","HOUSE_NO":"１６號七樓之２","E_COORD97":170110.63,"N_COORD97":2544043.5499999998,"ADDRESS":"大學路１６號七樓之２","OBJECTID":634677},"geometry":{"x":170110.62999999989,"y":2544043.5500000007}},{"attributes":{"ID":634705,"DIS_CODE":0,"TOWNNAME":"東區","LI":"大學里","LIN":"4鄰","STREET":"大學路","SECT":" ","MAREA":" ","LANE":" ","ALLEY":" ","HOUSE_NO":"１６號三樓之１","E_COORD97":170110.63,"N_COORD97":2544043.5499999998,"ADDRESS":"大學路１６號三樓之１","OBJECTID":634678},"geometry":{"x":170110.62999999989,"y":2544043.5500000007}},{"attributes":{"ID":634706,"DIS_CODE":0,"TOWNNAME":"東區","LI":"大學里","LIN":"4鄰","STREET":"大學路","SECT":" ","MAREA":" ","LANE":" ","ALLEY":" ","HOUSE_NO":"１６號三樓之２","E_COORD97":170110.63,"N_COORD97":2544043.5499999998,"ADDRESS":"大學路１６號三樓之２","OBJECTID":634679},"geometry":{"x":170110.62999999989,"y":2544043.5500000007}},{"attributes":{"ID":634707,"DIS_CODE":0,"TOWNNAME":"東區","LI":"大學里","LIN":"4鄰","STREET":"大學路","SECT":" ","MAREA":" ","LANE":" ","ALLEY":" ","HOUSE_NO":"１６號五樓之１","E_COORD97":170110.63,"N_COORD97":2544043.5499999998,"ADDRESS":"大學路１６號五樓之１","OBJECTID":634680},"geometry":{"x":170110.62999999989,"y":2544043.5500000007}},{"attributes":{"ID":634708,"DIS_CODE":0,"TOWNNAME":"東區","LI":"大學里","LIN":"4鄰","STREET":"大學路","SECT":" ","MAREA":" ","LANE":" ","ALLEY":" ","HOUSE_NO":"１６號五樓之２","E_COORD97":170110.63,"N_COORD97":2544043.5499999998,"ADDRESS":"大學路１６號五樓之２","OBJECTID":634681},"geometry":{"x":170110.62999999989,"y":2544043.5500000007}},{"attributes":{"ID":634709,"DIS_CODE":0,"TOWNNAME":"東區","LI":"大學里","LIN":"4鄰","STREET":"大學路","SECT":" ","MAREA":" ","LANE":" ","ALLEY":" ","HOUSE_NO":"１６號六樓之１","E_COORD97":170110.63,"N_COORD97":2544043.5499999998,"ADDRESS":"大學路１６號六樓之１","OBJECTID":634682},"geometry":{"x":170110.62999999989,"y":2544043.5500000007}},{"attributes":{"ID":634710,"DIS_CODE":0,"TOWNNAME":"東區","LI":"大學里","LIN":"4鄰","STREET":"大學路","SECT":" ","MAREA":" ","LANE":" ","ALLEY":" ","HOUSE_NO":"１６號六樓之２","E_COORD97":170110.63,"N_COORD97":2544043.5499999998,"ADDRESS":"大學路１６號六樓之２","OBJECTID":634683},"geometry":{"x":170110.62999999989,"y":2544043.5500000007}},{"attributes":{"ID":634711,"DIS_CODE":0,"TOWNNAME":"東區","LI":"大學里","LIN":"4鄰","STREET":"大學路","SECT":" ","MAREA":" ","LANE":" ","ALLEY":" ","HOUSE_NO":"１６號四樓之１","E_COORD97":170110.63,"N_COORD97":2544043.5499999998,"ADDRESS":"大學路１６號四樓之１","OBJECTID":634684},"geometry":{"x":170110.62999999989,"y":2544043.5500000007}},{"attributes":{"ID":634712,"DIS_CODE":0,"TOWNNAME":"東區","LI":"大學里","LIN":"4鄰","STREET":"大學路","SECT":" ","MAREA":" ","LANE":" ","ALLEY":" ","HOUSE_NO":"１６號四樓之２","E_COORD97":170110.63,"N_COORD97":2544043.5499999998,"ADDRESS":"大學路１６號四樓之２","OBJECTID":634685},"geometry":{"x":170110.62999999989,"y":2544043.5500000007}},{"attributes":{"ID":634713,"DIS_CODE":0,"TOWNNAME":"東區","LI":"大學里","LIN":"4鄰","STREET":"大學路","SECT":" ","MAREA":" ","LANE":" ","ALLEY":" ","HOUSE_NO":"１６號四樓之３","E_COORD97":170110.63,"N_COORD97":2544043.5499999998,"ADDRESS":"大學路１６號四樓之３","OBJECTID":634686},"geometry":{"x":170110.62999999989,"y":2544043.5500000007}},{"attributes":{"ID":634714,"DIS_CODE":0,"TOWNNAME":"東區","LI":"大學里","LIN":"4鄰","STREET":"大學路","SECT":" ","MAREA":" ","LANE":" ","ALLEY":" ","HOUSE_NO":"２８號之２二樓","E_COORD97":170194.35000000001,"N_COORD97":2544027.3799999999,"ADDRESS":"大學路２８號之２二樓","OBJECTID":634687},"geometry":{"x":170194.35000000056,"y":2544027.3800000027}},{"attributes":{"ID":634715,"DIS_CODE":0,"TOWNNAME":"東區","LI":"大學里","LIN":"4鄰","STREET":"大學路","SECT":" ","MAREA":" ","LANE":" ","ALLEY":" ","HOUSE_NO":"２８號之２三樓","E_COORD97":170194.35000000001,"N_COORD97":2544027.3799999999,"ADDRESS":"大學路２８號之２三樓","OBJECTID":634688},"geometry":{"x":170194.35000000056,"y":2544027.3800000027}},{"attributes":{"ID":634716,"DIS_CODE":0,"TOWNNAME":"東區","LI":"大學里","LIN":"4鄰","STREET":"大學路","SECT":" ","MAREA":" ","LANE":" ","ALLEY":" ","HOUSE_NO":"２８號之２四樓","E_COORD97":170194.35000000001,"N_COORD97":2544027.3799999999,"ADDRESS":"大學路２８號之２四樓","OBJECTID":634689},"geometry":{"x":170194.35000000056,"y":2544027.3800000027}},{"attributes":{"ID":634717,"DIS_CODE":0,"TOWNNAME":"中西區","LI":"民權里","LIN":"12鄰","STREET":"神農街","SECT":" ","MAREA":" ","LANE":" ","ALLEY":" ","HOUSE_NO":"１２３號三樓之１","E_COORD97":167529.66,"N_COORD97":2544276.0899999999,"ADDRESS":"神農街１２３號三樓之１","OBJECTID":634690},"geometry":{"x":167529.66000000108,"y":2544276.0899999999}},{"attributes":{"ID":634718,"DIS_CODE":0,"TOWNNAME":"中西區","LI":"民權里","LIN":"12鄰","STREET":"神農街","SECT":" ","MAREA":" ","LANE":" ","ALLEY":" ","HOUSE_NO":"１２３號三樓之２","E_COORD97":167529.66,"N_COORD97":2544276.0899999999,"ADDRESS":"神農街１２３號三樓之２","OBJECTID":634691},"geometry":{"x":167529.66000000108,"y":2544276.0899999999}},{"attributes":{"ID":634719,"DIS_CODE":0,"TOWNNAME":"東區","LI":"大同里","LIN":"27鄰","STREET":"林森路","SECT":"一段","MAREA":" ","LANE":" ","ALLEY":" ","HOUSE_NO":"５１號二樓","E_COORD97":169336.81,"N_COORD97":2542479.0099999998,"ADDRESS":"林森路一段５１號二樓","OBJECTID":634692},"geometry":{"x":169336.81000000052,"y":2542479.0100000016}},{"attributes":{"ID":634720,"DIS_CODE":0,"TOWNNAME":"中西區","LI":"協和里","LIN":"4鄰","STREET":"文賢路","SECT":" ","MAREA":" ","LANE":" ","ALLEY":" ","HOUSE_NO":"１３號七樓之１","E_COORD97":167428.60000000001,"N_COORD97":2544465.2599999998,"ADDRESS":"文賢路１３號七樓之１","OBJECTID":634693},"geometry":{"x":167428.59999999963,"y":2544465.2599999998}},{"attributes":{"ID":634721,"DIS_CODE":0,"TOWNNAME":"中西區","LI":"協和里","LIN":"4鄰","STREET":"文賢路","SECT":" ","MAREA":" ","LANE":" ","ALLEY":" ","HOUSE_NO":"１３號七樓之２","E_COORD97":167428.60000000001,"N_COORD97":2544465.2599999998,"ADDRESS":"文賢路１３號七樓之２","OBJECTID":634694},"geometry":{"x":167428.59999999963,"y":2544465.2599999998}},{"attributes":{"ID":634722,"DIS_CODE":0,"TOWNNAME":"中西區","LI":"協和里","LIN":"4鄰","STREET":"文賢路","SECT":" ","MAREA":" ","LANE":" ","ALLEY":" ","HOUSE_NO":"１３號六樓之１５","E_COORD97":167428.60000000001,"N_COORD97":2544465.2599999998,"ADDRESS":"文賢路１３號六樓之１５","OBJECTID":634695},"geometry":{"x":167428.59999999963,"y":2544465.2599999998}},{"attributes":{"ID":634723,"DIS_CODE":0,"TOWNNAME":"中西區","LI":"協和里","LIN":"4鄰","STREET":"文賢路","SECT":" ","MAREA":" ","LANE":" ","ALLEY":" ","HOUSE_NO":"１３號六樓之１６","E_COORD97":167428.60000000001,"N_COORD97":2544465.2599999998,"ADDRESS":"文賢路１３號六樓之１６","OBJECTID":634696},"geometry":{"x":167428.59999999963,"y":2544465.2599999998}},{"attributes":{"ID":634724,"DIS_CODE":0,"TOWNNAME":"中西區","LI":"協和里","LIN":"4鄰","STREET":"文賢路","SECT":" ","MAREA":" ","LANE":" ","ALLEY":" ","HOUSE_NO":"１３號六樓之１７","E_COORD97":167428.60000000001,"N_COORD97":2544465.2599999998,"ADDRESS":"文賢路１３號六樓之１７","OBJECTID":634697},"geometry":{"x":167428.59999999963,"y":2544465.2599999998}},{"attributes":{"ID":634725,"DIS_CODE":0,"TOWNNAME":"中西區","LI":"協和里","LIN":"4鄰","STREET":"文賢路","SECT":" ","MAREA":" ","LANE":" ","ALLEY":" ","HOUSE_NO":"１３號六樓之２","E_COORD97":167428.60000000001,"N_COORD97":2544465.2599999998,"ADDRESS":"文賢路１３號六樓之２","OBJECTID":634698},"geometry":{"x":167428.59999999963,"y":2544465.2599999998}},{"attributes":{"ID":634726,"DIS_CODE":0,"TOWNNAME":"中西區","LI":"協和里","LIN":"4鄰","STREET":"文賢路","SECT":" ","MAREA":" ","LANE":" ","ALLEY":" ","HOUSE_NO":"１３號六樓之３","E_COORD97":167428.60000000001,"N_COORD97":2544465.2599999998,"ADDRESS":"文賢路１３號六樓之３","OBJECTID":634699},"geometry":{"x":167428.59999999963,"y":2544465.2599999998}},{"attributes":{"ID":634727,"DIS_CODE":0,"TOWNNAME":"中西區","LI":"協和里","LIN":"4鄰","STREET":"文賢路","SECT":" ","MAREA":" ","LANE":" ","ALLEY":" ","HOUSE_NO":"１３號六樓之４","E_COORD97":167428.60000000001,"N_COORD97":2544465.2599999998,"ADDRESS":"文賢路１３號六樓之４","OBJECTID":634700},"geometry":{"x":167428.59999999963,"y":2544465.2599999998}},{"attributes":{"ID":634728,"DIS_CODE":0,"TOWNNAME":"中西區","LI":"協和里","LIN":"4鄰","STREET":"文賢路","SECT":" ","MAREA":" ","LANE":" ","ALLEY":" ","HOUSE_NO":"１３號六樓之５","E_COORD97":167428.60000000001,"N_COORD97":2544465.2599999998,"ADDRESS":"文賢路１３號六樓之５","OBJECTID":634701},"geometry":{"x":167428.59999999963,"y":2544465.2599999998}},{"attributes":{"ID":634729,"DIS_CODE":0,"TOWNNAME":"中西區","LI":"協和里","LIN":"4鄰","STREET":"文賢路","SECT":" ","MAREA":" ","LANE":" ","ALLEY":" ","HOUSE_NO":"１３號六樓之６","E_COORD97":167428.60000000001,"N_COORD97":2544465.2599999998,"ADDRESS":"文賢路１３號六樓之６","OBJECTID":634702},"geometry":{"x":167428.59999999963,"y":2544465.2599999998}},{"attributes":{"ID":634730,"DIS_CODE":0,"TOWNNAME":"中西區","LI":"協和里","LIN":"4鄰","STREET":"文賢路","SECT":" ","MAREA":" ","LANE":" ","ALLEY":" ","HOUSE_NO":"１３號六樓之７","E_COORD97":167428.60000000001,"N_COORD97":2544465.2599999998,"ADDRESS":"文賢路１３號六樓之７","OBJECTID":634703},"geometry":{"x":167428.59999999963,"y":2544465.2599999998}},{"attributes":{"ID":634731,"DIS_CODE":0,"TOWNNAME":"中西區","LI":"協和里","LIN":"4鄰","STREET":"文賢路","SECT":" ","MAREA":" ","LANE":" ","ALLEY":" ","HOUSE_NO":"１３號六樓之８","E_COORD97":167428.60000000001,"N_COORD97":2544465.2599999998,"ADDRESS":"文賢路１３號六樓之８","OBJECTID":634704},"geometry":{"x":167428.59999999963,"y":2544465.2599999998}},{"attributes":{"ID":634732,"DIS_CODE":0,"TOWNNAME":"中西區","LI":"協和里","LIN":"4鄰","STREET":"文賢路","SECT":" ","MAREA":" ","LANE":" ","ALLEY":" ","HOUSE_NO":"１３號六樓之９","E_COORD97":167428.60000000001,"N_COORD97":2544465.2599999998,"ADDRESS":"文賢路１３號六樓之９","OBJECTID":634705},"geometry":{"x":167428.59999999963,"y":2544465.2599999998}},{"attributes":{"ID":634733,"DIS_CODE":0,"TOWNNAME":"中西區","LI":"協和里","LIN":"4鄰","STREET":"文賢路","SECT":" ","MAREA":" ","LANE":" ","ALLEY":" ","HOUSE_NO":"１３號四樓之１","E_COORD97":167428.60000000001,"N_COORD97":2544465.2599999998,"ADDRESS":"文賢路１３號四樓之１","OBJECTID":634706},"geometry":{"x":167428.59999999963,"y":2544465.2599999998}},{"attributes":{"ID":634734,"DIS_CODE":0,"TOWNNAME":"中西區","LI":"協和里","LIN":"4鄰","STREET":"文賢路","SECT":" ","MAREA":" ","LANE":" ","ALLEY":" ","HOUSE_NO":"１３號四樓之１０","E_COORD97":167428.60000000001,"N_COORD97":2544465.2599999998,"ADDRESS":"文賢路１３號四樓之１０","OBJECTID":634707},"geometry":{"x":167428.59999999963,"y":2544465.2599999998}},{"attributes":{"ID":634735,"DIS_CODE":0,"TOWNNAME":"中西區","LI":"協進里","LIN":"10鄰","STREET":"民生路","SECT":"二段","MAREA":" ","LANE":" ","ALLEY":" ","HOUSE_NO":"３９０號七樓","E_COORD97":166819.03,"N_COORD97":2544269.8199999998,"ADDRESS":"民生路二段３９０號七樓","OBJECTID":634708},"geometry":{"x":166819.03000000119,"y":2544269.820000004}},{"attributes":{"ID":634736,"DIS_CODE":0,"TOWNNAME":"中西區","LI":"協進里","LIN":"10鄰","STREET":"民生路","SECT":"二段","MAREA":" ","LANE":" ","ALLEY":" ","HOUSE_NO":"３９０號九樓","E_COORD97":166819.03,"N_COORD97":2544269.8199999998,"ADDRESS":"民生路二段３９０號九樓","OBJECTID":634709},"geometry":{"x":166819.03000000119,"y":2544269.820000004}},{"attributes":{"ID":634737,"DIS_CODE":0,"TOWNNAME":"中西區","LI":"協進里","LIN":"10鄰","STREET":"民生路","SECT":"二段","MAREA":" ","LANE":" ","ALLEY":" ","HOUSE_NO":"３９０號二樓","E_COORD97":166819.03,"N_COORD97":2544269.8199999998,"ADDRESS":"民生路二段３９０號二樓","OBJECTID":634710},"geometry":{"x":166819.03000000119,"y":2544269.820000004}},{"attributes":{"ID":634738,"DIS_CODE":0,"TOWNNAME":"中西區","LI":"協進里","LIN":"10鄰","STREET":"民生路","SECT":"二段","MAREA":" ","LANE":" ","ALLEY":" ","HOUSE_NO":"３９０號八樓","E_COORD97":166819.03,"N_COORD97":2544269.8199999998,"ADDRESS":"民生路二段３９０號八樓","OBJECTID":634711},"geometry":{"x":166819.03000000119,"y":2544269.820000004}},{"attributes":{"ID":634739,"DIS_CODE":0,"TOWNNAME":"新化區","LI":"太平里","LIN":"4鄰","STREET":"中正路","SECT":" ","MAREA":" ","LANE":" ","ALLEY":" ","HOUSE_NO":"５７８號七樓之６","E_COORD97":178895.85999999999,"N_COORD97":2549000.2599999998,"ADDRESS":"中正路５７８號七樓之６","OBJECTID":634712},"geometry":{"x":178895.8599999994,"y":2549000.2600000016}},{"attributes":{"ID":634740,"DIS_CODE":0,"TOWNNAME":"新化區","LI":"太平里","LIN":"4鄰","STREET":"中正路","SECT":" ","MAREA":" ","LANE":" ","ALLEY":" ","HOUSE_NO":"５７８號四樓之７","E_COORD97":178895.85000000001,"N_COORD97":2549000.2599999998,"ADDRESS":"中正路５７８號四樓之７","OBJECTID":634713},"geometry":{"x":178895.85000000056,"y":2549000.2600000016}},{"attributes":{"ID":634741,"DIS_CODE":0,"TOWNNAME":"新化區","LI":"太平里","LIN":"4鄰","STREET":"中正路","SECT":" ","MAREA":" ","LANE":" ","ALLEY":" ","HOUSE_NO":"５７８號四樓之３","E_COORD97":178895.85999999999,"N_COORD97":2549000.2599999998,"ADDRESS":"中正路５７８號四樓之３","OBJECTID":634714},"geometry":{"x":178895.8599999994,"y":2549000.2600000016}},{"attributes":{"ID":634742,"DIS_CODE":0,"TOWNNAME":"永康區","LI":"中華里","LIN":"20鄰","STREET":"小東路","SECT":" ","MAREA":" ","LANE":" ","ALLEY":" ","HOUSE_NO":"４７３號之１９六樓","E_COORD97":171593.10999999999,"N_COORD97":2544367.3500000001,"ADDRESS":"小東路４７３號之１９六樓","OBJECTID":634715},"geometry":{"x":171593.1100000022,"y":2544367.3500000034}},{"attributes":{"ID":634743,"DIS_CODE":0,"TOWNNAME":"永康區","LI":"永康里","LIN":"26鄰","STREET":"永大路","SECT":"二段","MAREA":" ","LANE":" ","ALLEY":" ","HOUSE_NO":"１１２９號十四樓之１","E_COORD97":174199.69,"N_COORD97":2547482.3599999999,"ADDRESS":"永大路二段１１２９號十四樓之１","OBJECTID":634716},"geometry":{"x":174199.69000000041,"y":2547482.3599999994}},{"attributes":{"ID":634744,"DIS_CODE":0,"TOWNNAME":"永康區","LI":"安康里","LIN":"26鄰","STREET":"大橋一街","SECT":" ","MAREA":" ","LANE":" ","ALLEY":" ","HOUSE_NO":"５３號十三樓之２","E_COORD97":170780.12,"N_COORD97":2546346.7999999998,"ADDRESS":"大橋一街５３號十三樓之２","OBJECTID":634717},"geometry":{"x":170780.12000000011,"y":2546346.8000000026}},{"attributes":{"ID":634745,"DIS_CODE":0,"TOWNNAME":"永康區","LI":"\u25A0洲里","LIN":"39鄰","STREET":"\u25A0洲一街","SECT":" ","MAREA":" ","LANE":" ","ALLEY":" ","HOUSE_NO":"３９號三樓之１","E_COORD97":171585.41,"N_COORD97":2549070.7999999998,"ADDRESS":"\u25A0洲一街３９號三樓之１","OBJECTID":634718},"geometry":{"x":171585.41000000015,"y":2549070.8000000007}},{"attributes":{"ID":634746,"DIS_CODE":0,"TOWNNAME":"永康區","LI":"永康里","LIN":"39鄰","STREET":"永大一路","SECT":" ","MAREA":" ","LANE":" ","ALLEY":" ","HOUSE_NO":"６２號七樓之９","E_COORD97":174180.62,"N_COORD97":2546456.7200000002,"ADDRESS":"永大一路６２號七樓之９","OBJECTID":634719},"geometry":{"x":174180.62000000011,"y":2546456.7200000007}},{"attributes":{"ID":634747,"DIS_CODE":0,"TOWNNAME":"永康區","LI":"大橋里","LIN":"4鄰","STREET":"大橋五街","SECT":" ","MAREA":" ","LANE":" ","ALLEY":" ","HOUSE_NO":"１４３號四樓之１","E_COORD97":170978.67999999999,"N_COORD97":2546989.3599999999,"ADDRESS":"大橋五街１４３號四樓之１","OBJECTID":634720},"geometry":{"x":170978.68000000063,"y":2546989.3600000013}},{"attributes":{"ID":634748,"DIS_CODE":0,"TOWNNAME":"永康區","LI":"永康里","LIN":"26鄰","STREET":"永大路","SECT":"二段","MAREA":" ","LANE":" ","ALLEY":" ","HOUSE_NO":"１１２９號十二樓之１","E_COORD97":174199.69,"N_COORD97":2547482.3599999999,"ADDRESS":"永大路二段１１２９號十二樓之１","OBJECTID":634721},"geometry":{"x":174199.69000000041,"y":2547482.3599999994}},{"attributes":{"ID":634749,"DIS_CODE":0,"TOWNNAME":"永康區","LI":"西灣里","LIN":"25鄰","STREET":"國光七街","SECT":" ","MAREA":" ","LANE":" ","ALLEY":" ","HOUSE_NO":"２２號七樓","E_COORD97":174302.25,"N_COORD97":2545539.3900000001,"ADDRESS":"國光七街２２號七樓","OBJECTID":634722},"geometry":{"x":174302.25,"y":2545539.3900000025}},{"attributes":{"ID":634750,"DIS_CODE":0,"TOWNNAME":"永康區","LI":"正強里","LIN":"39鄰","STREET":"中正路","SECT":" ","MAREA":" ","LANE":" ","ALLEY":" ","HOUSE_NO":"２３４號四樓","E_COORD97":173252.10000000001,"N_COORD97":2547909.75,"ADDRESS":"中正路２３４號四樓","OBJECTID":634723},"geometry":{"x":173252.10000000149,"y":2547909.75}},{"attributes":{"ID":634751,"DIS_CODE":0,"TOWNNAME":"永康區","LI":"正強里","LIN":"39鄰","STREET":"中正路","SECT":" ","MAREA":" ","LANE":" ","ALLEY":" ","HOUSE_NO":"２３６號五樓","E_COORD97":173246.29999999999,"N_COORD97":2547911.25,"ADDRESS":"中正路２３６號五樓","OBJECTID":634724},"geometry":{"x":173246.30000000075,"y":2547911.2500000037}},{"attributes":{"ID":634752,"DIS_CODE":0,"TOWNNAME":"永康區","LI":"正強里","LIN":"32鄰","STREET":"四維街","SECT":" ","MAREA":" ","LANE":" ","ALLEY":" ","HOUSE_NO":"４３號六樓之４","E_COORD97":173405.41,"N_COORD97":2548041.5499999998,"ADDRESS":"四維街４３號六樓之４","OBJECTID":634725},"geometry":{"x":173405.41000000108,"y":2548041.5500000007}},{"attributes":{"ID":634753,"DIS_CODE":0,"TOWNNAME":"永康區","LI":"大橋里","LIN":"4鄰","STREET":"大橋五街","SECT":" ","MAREA":" ","LANE":" ","ALLEY":" ","HOUSE_NO":"１４３號五樓之３","E_COORD97":170978.78,"N_COORD97":2546989.3599999999,"ADDRESS":"大橋五街１４３號五樓之３","OBJECTID":634726},"geometry":{"x":170978.78000000119,"y":2546989.3600000013}},{"attributes":{"ID":634754,"DIS_CODE":0,"TOWNNAME":"永康區","LI":"大橋里","LIN":"4鄰","STREET":"大橋五街","SECT":" ","MAREA":" ","LANE":" ","ALLEY":" ","HOUSE_NO":"１４１號九樓之１","E_COORD97":170968.73999999999,"N_COORD97":2547008.29,"ADDRESS":"大橋五街１４１號九樓之１","OBJECTID":634727},"geometry":{"x":170968.74000000115,"y":2547008.2900000028}},{"attributes":{"ID":634755,"DIS_CODE":0,"TOWNNAME":"永康區","LI":"永康里","LIN":"39鄰","STREET":"永大一路","SECT":" ","MAREA":" ","LANE":" ","ALLEY":" ","HOUSE_NO":"６２號五樓之７","E_COORD97":174180.62,"N_COORD97":2546456.7200000002,"ADDRESS":"永大一路６２號五樓之７","OBJECTID":634728},"geometry":{"x":174180.62000000011,"y":2546456.7200000007}},{"attributes":{"ID":634756,"DIS_CODE":0,"TOWNNAME":"永康區","LI":"正強里","LIN":"39鄰","STREET":"中正路","SECT":" ","MAREA":" ","LANE":" ","ALLEY":" ","HOUSE_NO":"２３２號三樓","E_COORD97":173259.45999999999,"N_COORD97":2547907.5,"ADDRESS":"中正路２３２號三樓","OBJECTID":634729},"geometry":{"x":173259.45999999996,"y":2547907.5000000019}},{"attributes":{"ID":634757,"DIS_CODE":0,"TOWNNAME":"東區","LI":"小東里","LIN":"13鄰","STREET":"東和路","SECT":" ","MAREA":" ","LANE":" ","ALLEY":" ","HOUSE_NO":"８１號六樓之３","E_COORD97":170854.82999999999,"N_COORD97":2544293.0299999998,"ADDRESS":"東和路８１號六樓之３","OBJECTID":634730},"geometry":{"x":170854.83000000007,"y":2544293.0299999993}},{"attributes":{"ID":634758,"DIS_CODE":0,"TOWNNAME":"永康區","LI":"大橋里","LIN":"18鄰","STREET":"大橋二街","SECT":" ","MAREA":" ","LANE":" ","ALLEY":" ","HOUSE_NO":"１６６號四樓","E_COORD97":171072.94,"N_COORD97":2546759.27,"ADDRESS":"大橋二街１６６號四樓","OBJECTID":634731},"geometry":{"x":171072.94000000134,"y":2546759.2700000014}},{"attributes":{"ID":634759,"DIS_CODE":0,"TOWNNAME":"永康區","LI":"大橋里","LIN":"18鄰","STREET":"大橋二街","SECT":" ","MAREA":" ","LANE":" ","ALLEY":" ","HOUSE_NO":"１６８號三樓","E_COORD97":171074.64999999999,"N_COORD97":2546755.2000000002,"ADDRESS":"大橋二街１６８號三樓","OBJECTID":634732},"geometry":{"x":171074.6500000013,"y":2546755.2000000011}},{"attributes":{"ID":634760,"DIS_CODE":0,"TOWNNAME":"永康區","LI":"永康里","LIN":"26鄰","STREET":"中山北路","SECT":" ","MAREA":" ","LANE":" ","ALLEY":" ","HOUSE_NO":"１１４號十八樓之３","E_COORD97":174165.09,"N_COORD97":2547447.25,"ADDRESS":"中山北路１１４號十八樓之３","OBJECTID":634733},"geometry":{"x":174165.09000000078,"y":2547447.2500000019}},{"attributes":{"ID":634761,"DIS_CODE":0,"TOWNNAME":"永康區","LI":"正強里","LIN":"32鄰","STREET":"四維街","SECT":" ","MAREA":" ","LANE":" ","ALLEY":" ","HOUSE_NO":"３７號三樓之５","E_COORD97":173407.85000000001,"N_COORD97":2548034.8799999999,"ADDRESS":"四維街３７號三樓之５","OBJECTID":634734},"geometry":{"x":173407.8499999987,"y":2548034.8800000027}},{"attributes":{"ID":634762,"DIS_CODE":0,"TOWNNAME":"永康區","LI":"龍潭里","LIN":"5鄰","STREET":"龍埔街","SECT":" ","MAREA":" ","LANE":" ","ALLEY":" ","HOUSE_NO":"８５號十樓之１３","E_COORD97":174621.04000000001,"N_COORD97":2548225.75,"ADDRESS":"龍埔街８５號十樓之１３","OBJECTID":634735},"geometry":{"x":174621.04000000097,"y":2548225.75}},{"attributes":{"ID":634763,"DIS_CODE":0,"TOWNNAME":"永康區","LI":"大橋里","LIN":"18鄰","STREET":"大橋二街","SECT":" ","MAREA":" ","LANE":" ","ALLEY":" ","HOUSE_NO":"１６６號二樓","E_COORD97":171072.94,"N_COORD97":2546759.27,"ADDRESS":"大橋二街１６６號二樓","OBJECTID":634736},"geometry":{"x":171072.94000000134,"y":2546759.2700000014}},{"attributes":{"ID":634764,"DIS_CODE":0,"TOWNNAME":"永康區","LI":"永康里","LIN":"26鄰","STREET":"中山北路","SECT":" ","MAREA":" ","LANE":" ","ALLEY":" ","HOUSE_NO":"１１４號三樓之１","E_COORD97":174163.73999999999,"N_COORD97":2547447.25,"ADDRESS":"中山北路１１４號三樓之１","OBJECTID":634737},"geometry":{"x":174163.74000000209,"y":2547447.2500000019}},{"attributes":{"ID":634765,"DIS_CODE":0,"TOWNNAME":"永康區","LI":"永康里","LIN":"26鄰","STREET":"中山北路","SECT":" ","MAREA":" ","LANE":" ","ALLEY":" ","HOUSE_NO":"１１４號五樓之４","E_COORD97":174163.76000000001,"N_COORD97":2547447.25,"ADDRESS":"中山北路１１４號五樓之４","OBJECTID":634738},"geometry":{"x":174163.76000000071,"y":2547447.2500000019}},{"attributes":{"ID":634766,"DIS_CODE":0,"TOWNNAME":"永康區","LI":"永康里","LIN":"39鄰","STREET":"永大一路","SECT":" ","MAREA":" ","LANE":" ","ALLEY":" ","HOUSE_NO":"６２號六樓之９","E_COORD97":174180.62,"N_COORD97":2546456.7200000002,"ADDRESS":"永大一路６２號六樓之９","OBJECTID":634739},"geometry":{"x":174180.62000000011,"y":2546456.7200000007}},{"attributes":{"ID":634767,"DIS_CODE":0,"TOWNNAME":"東區","LI":"小東里","LIN":"13鄰","STREET":"東和路","SECT":" ","MAREA":" ","LANE":" ","ALLEY":" ","HOUSE_NO":"８１號五樓之２","E_COORD97":170854.82999999999,"N_COORD97":2544293.0299999998,"ADDRESS":"東和路８１號五樓之２","OBJECTID":634740},"geometry":{"x":170854.83000000007,"y":2544293.0299999993}},{"attributes":{"ID":634768,"DIS_CODE":0,"TOWNNAME":"東區","LI":"小東里","LIN":"13鄰","STREET":"東和路","SECT":" ","MAREA":" ","LANE":" ","ALLEY":" ","HOUSE_NO":"８１號五樓之３","E_COORD97":170854.82999999999,"N_COORD97":2544293.0299999998,"ADDRESS":"東和路８１號五樓之３","OBJECTID":634741},"geometry":{"x":170854.83000000007,"y":2544293.0299999993}},{"attributes":{"ID":634769,"DIS_CODE":0,"TOWNNAME":"東區","LI":"小東里","LIN":"13鄰","STREET":"東和路","SECT":" ","MAREA":" ","LANE":" ","ALLEY":" ","HOUSE_NO":"８１號五樓之４","E_COORD97":170854.82999999999,"N_COORD97":2544293.0299999998,"ADDRESS":"東和路８１號五樓之４","OBJECTID":634742},"geometry":{"x":170854.83000000007,"y":2544293.0299999993}},{"attributes":{"ID":634770,"DIS_CODE":0,"TOWNNAME":"東區","LI":"小東里","LIN":"13鄰","STREET":"東和路","SECT":" ","MAREA":" ","LANE":" ","ALLEY":" ","HOUSE_NO":"８１號五樓之５","E_COORD97":170854.82999999999,"N_COORD97":2544293.0299999998,"ADDRESS":"東和路８１號五樓之５","OBJECTID":634743},"geometry":{"x":170854.83000000007,"y":2544293.0299999993}},{"attributes":{"ID":634771,"DIS_CODE":0,"TOWNNAME":"東區","LI":"小東里","LIN":"13鄰","STREET":"東和路","SECT":" ","MAREA":" ","LANE":" ","ALLEY":" ","HOUSE_NO":"８１號五樓之６","E_COORD97":170854.82999999999,"N_COORD97":2544293.0299999998,"ADDRESS":"東和路８１號五樓之６","OBJECTID":634744},"geometry":{"x":170854.83000000007,"y":2544293.0299999993}},{"attributes":{"ID":634772,"DIS_CODE":0,"TOWNNAME":"東區","LI":"小東里","LIN":"13鄰","STREET":"東和路","SECT":" ","MAREA":" ","LANE":" ","ALLEY":" ","HOUSE_NO":"８１號六樓之１","E_COORD97":170854.82999999999,"N_COORD97":2544293.0299999998,"ADDRESS":"東和路８１號六樓之１","OBJECTID":634745},"geometry":{"x":170854.83000000007,"y":2544293.0299999993}},{"attributes":{"ID":634773,"DIS_CODE":0,"TOWNNAME":"東區","LI":"小東里","LIN":"13鄰","STREET":"東和路","SECT":" ","MAREA":" ","LANE":" ","ALLEY":" ","HOUSE_NO":"８１號六樓之２","E_COORD97":170854.82999999999,"N_COORD97":2544293.0299999998,"ADDRESS":"東和路８１號六樓之２","OBJECTID":634746},"geometry":{"x":170854.83000000007,"y":2544293.0299999993}},{"attributes":{"ID":634774,"DIS_CODE":0,"TOWNNAME":"東區","LI":"小東里","LIN":"13鄰","STREET":"東和路","SECT":" ","MAREA":" ","LANE":" ","ALLEY":" ","HOUSE_NO":"８１號六樓之４","E_COORD97":170854.82999999999,"N_COORD97":2544293.0299999998,"ADDRESS":"東和路８１號六樓之４","OBJECTID":634747},"geometry":{"x":170854.83000000007,"y":2544293.0299999993}},{"attributes":{"ID":634775,"DIS_CODE":0,"TOWNNAME":"東區","LI":"小東里","LIN":"13鄰","STREET":"東和路","SECT":" ","MAREA":" ","LANE":" ","ALLEY":" ","HOUSE_NO":"８１號六樓之５","E_COORD97":170854.82999999999,"N_COORD97":2544293.0299999998,"ADDRESS":"東和路８１號六樓之５","OBJECTID":634748},"geometry":{"x":170854.83000000007,"y":2544293.0299999993}},{"attributes":{"ID":634776,"DIS_CODE":0,"TOWNNAME":"東區","LI":"小東里","LIN":"13鄰","STREET":"東和路","SECT":" ","MAREA":" ","LANE":" ","ALLEY":" ","HOUSE_NO":"８１號六樓之６","E_COORD97":170854.82999999999,"N_COORD97":2544293.0299999998,"ADDRESS":"東和路８１號六樓之６","OBJECTID":634749},"geometry":{"x":170854.83000000007,"y":2544293.0299999993}},{"attributes":{"ID":634777,"DIS_CODE":0,"TOWNNAME":"東區","LI":"小東里","LIN":"13鄰","STREET":"東和路","SECT":" ","MAREA":" ","LANE":" ","ALLEY":" ","HOUSE_NO":"８１號四樓之１","E_COORD97":170854.82999999999,"N_COORD97":2544293.0299999998,"ADDRESS":"東和路８１號四樓之１","OBJECTID":634750},"geometry":{"x":170854.83000000007,"y":2544293.0299999993}},{"attributes":{"ID":634778,"DIS_CODE":0,"TOWNNAME":"東區","LI":"小東里","LIN":"13鄰","STREET":"東和路","SECT":" ","MAREA":" ","LANE":" ","ALLEY":" ","HOUSE_NO":"８１號四樓之２","E_COORD97":170854.82999999999,"N_COORD97":2544293.0299999998,"ADDRESS":"東和路８１號四樓之２","OBJECTID":634751},"geometry":{"x":170854.83000000007,"y":2544293.0299999993}},{"attributes":{"ID":634779,"DIS_CODE":0,"TOWNNAME":"東區","LI":"小東里","LIN":"13鄰","STREET":"東和路","SECT":" ","MAREA":" ","LANE":" ","ALLEY":" ","HOUSE_NO":"８１號四樓之３","E_COORD97":170854.82999999999,"N_COORD97":2544293.0299999998,"ADDRESS":"東和路８１號四樓之３","OBJECTID":634752},"geometry":{"x":170854.83000000007,"y":2544293.0299999993}},{"attributes":{"ID":634780,"DIS_CODE":0,"TOWNNAME":"東區","LI":"大同里","LIN":"1鄰","STREET":"大同路","SECT":"一段","MAREA":" ","LANE":" ","ALLEY":" ","HOUSE_NO":"１１號三樓之１","E_COORD97":169193.42999999999,"N_COORD97":2543213.2599999998,"ADDRESS":"大同路一段１１號三樓之１","OBJECTID":634753},"geometry":{"x":169193.43000000063,"y":2543213.2600000016}},{"attributes":{"ID":634781,"DIS_CODE":0,"TOWNNAME":"東區","LI":"大同里","LIN":"1鄰","STREET":"大同路","SECT":"一段","MAREA":" ","LANE":" ","ALLEY":" ","HOUSE_NO":"１１號三樓之２","E_COORD97":169193.42999999999,"N_COORD97":2543213.2599999998,"ADDRESS":"大同路一段１１號三樓之２","OBJECTID":634754},"geometry":{"x":169193.43000000063,"y":2543213.2600000016}},{"attributes":{"ID":634782,"DIS_CODE":0,"TOWNNAME":"東區","LI":"大同里","LIN":"1鄰","STREET":"大同路","SECT":"一段","MAREA":" ","LANE":" ","ALLEY":" ","HOUSE_NO":"１１號三樓之３","E_COORD97":169193.42999999999,"N_COORD97":2543213.2599999998,"ADDRESS":"大同路一段１１號三樓之３","OBJECTID":634755},"geometry":{"x":169193.43000000063,"y":2543213.2600000016}},{"attributes":{"ID":634783,"DIS_CODE":0,"TOWNNAME":"東區","LI":"大同里","LIN":"1鄰","STREET":"大同路","SECT":"一段","MAREA":" ","LANE":" ","ALLEY":" ","HOUSE_NO":"１１號五樓之１","E_COORD97":169193.42999999999,"N_COORD97":2543213.2599999998,"ADDRESS":"大同路一段１１號五樓之１","OBJECTID":634756},"geometry":{"x":169193.43000000063,"y":2543213.2600000016}},{"attributes":{"ID":634784,"DIS_CODE":0,"TOWNNAME":"東區","LI":"大同里","LIN":"1鄰","STREET":"大同路","SECT":"一段","MAREA":" ","LANE":" ","ALLEY":" ","HOUSE_NO":"１１號五樓之２","E_COORD97":169193.42999999999,"N_COORD97":2543213.2599999998,"ADDRESS":"大同路一段１１號五樓之２","OBJECTID":634757},"geometry":{"x":169193.43000000063,"y":2543213.2600000016}},{"attributes":{"ID":634785,"DIS_CODE":0,"TOWNNAME":"東區","LI":"大同里","LIN":"7鄰","STREET":"樹林街","SECT":"一段","MAREA":" ","LANE":" ","ALLEY":" ","HOUSE_NO":"１７６號七樓","E_COORD97":169201.22,"N_COORD97":2543023.2799999998,"ADDRESS":"樹林街一段１７６號七樓","OBJECTID":634758},"geometry":{"x":169201.21999999974,"y":2543023.2799999993}},{"attributes":{"ID":634786,"DIS_CODE":0,"TOWNNAME":"東區","LI":"大同里","LIN":"7鄰","STREET":"樹林街","SECT":"一段","MAREA":" ","LANE":" ","ALLEY":" ","HOUSE_NO":"１７６號二樓","E_COORD97":169201.22,"N_COORD97":2543023.2799999998,"ADDRESS":"樹林街一段１７６號二樓","OBJECTID":634759},"geometry":{"x":169201.21999999974,"y":2543023.2799999993}},{"attributes":{"ID":634787,"DIS_CODE":0,"TOWNNAME":"東區","LI":"大同里","LIN":"7鄰","STREET":"樹林街","SECT":"一段","MAREA":" ","LANE":" ","ALLEY":" ","HOUSE_NO":"１７６號三樓","E_COORD97":169201.22,"N_COORD97":2543023.2799999998,"ADDRESS":"樹林街一段１７６號三樓","OBJECTID":634760},"geometry":{"x":169201.21999999974,"y":2543023.2799999993}},{"attributes":{"ID":634788,"DIS_CODE":0,"TOWNNAME":"東區","LI":"大同里","LIN":"7鄰","STREET":"樹林街","SECT":"一段","MAREA":" ","LANE":" ","ALLEY":" ","HOUSE_NO":"１７６號五樓","E_COORD97":169201.22,"N_COORD97":2543023.2799999998,"ADDRESS":"樹林街一段１７６號五樓","OBJECTID":634761},"geometry":{"x":169201.21999999974,"y":2543023.2799999993}},{"attributes":{"ID":634789,"DIS_CODE":0,"TOWNNAME":"東區","LI":"大同里","LIN":"7鄰","STREET":"樹林街","SECT":"一段","MAREA":" ","LANE":" ","ALLEY":" ","HOUSE_NO":"１７６號六樓","E_COORD97":169201.22,"N_COORD97":2543023.2799999998,"ADDRESS":"樹林街一段１７６號六樓","OBJECTID":634762},"geometry":{"x":169201.21999999974,"y":2543023.2799999993}},{"attributes":{"ID":634790,"DIS_CODE":0,"TOWNNAME":"東區","LI":"大同里","LIN":"7鄰","STREET":"樹林街","SECT":"一段","MAREA":" ","LANE":" ","ALLEY":" ","HOUSE_NO":"１７６號四樓","E_COORD97":169201.22,"N_COORD97":2543023.2799999998,"ADDRESS":"樹林街一段１７６號四樓","OBJECTID":634763},"geometry":{"x":169201.21999999974,"y":2543023.2799999993}},{"attributes":{"ID":634791,"DIS_CODE":0,"TOWNNAME":"東區","LI":"仁和里","LIN":"27鄰","STREET":"仁東街","SECT":" ","MAREA":" ","LANE":" ","ALLEY":" ","HOUSE_NO":"７０號七樓","E_COORD97":171704.29999999999,"N_COORD97":2541174.2000000002,"ADDRESS":"仁東街７０號七樓","OBJECTID":634764},"geometry":{"x":171704.29999999981,"y":2541174.200000003}},{"attributes":{"ID":634792,"DIS_CODE":0,"TOWNNAME":"東區","LI":"仁和里","LIN":"27鄰","STREET":"仁東街","SECT":" ","MAREA":" ","LANE":" ","ALLEY":" ","HOUSE_NO":"７０號七樓之１","E_COORD97":171704.29999999999,"N_COORD97":2541174.2000000002,"ADDRESS":"仁東街７０號七樓之１","OBJECTID":634765},"geometry":{"x":171704.29999999981,"y":2541174.200000003}},{"attributes":{"ID":634793,"DIS_CODE":0,"TOWNNAME":"東區","LI":"仁和里","LIN":"27鄰","STREET":"仁東街","SECT":" ","MAREA":" ","LANE":" ","ALLEY":" ","HOUSE_NO":"７０號七樓之２","E_COORD97":171704.29999999999,"N_COORD97":2541174.2000000002,"ADDRESS":"仁東街７０號七樓之２","OBJECTID":634766},"geometry":{"x":171704.29999999981,"y":2541174.200000003}},{"attributes":{"ID":634794,"DIS_CODE":0,"TOWNNAME":"東區","LI":"仁和里","LIN":"27鄰","STREET":"仁東街","SECT":" ","MAREA":" ","LANE":" ","ALLEY":" ","HOUSE_NO":"７０號九樓","E_COORD97":171704.29999999999,"N_COORD97":2541174.2000000002,"ADDRESS":"仁東街７０號九樓","OBJECTID":634767},"geometry":{"x":171704.29999999981,"y":2541174.200000003}},{"attributes":{"ID":634795,"DIS_CODE":0,"TOWNNAME":"東區","LI":"仁和里","LIN":"27鄰","STREET":"仁東街","SECT":" ","MAREA":" ","LANE":" ","ALLEY":" ","HOUSE_NO":"７０號九樓之１","E_COORD97":171704.29999999999,"N_COORD97":2541174.2000000002,"ADDRESS":"仁東街７０號九樓之１","OBJECTID":634768},"geometry":{"x":171704.29999999981,"y":2541174.200000003}},{"attributes":{"ID":634796,"DIS_CODE":0,"TOWNNAME":"東區","LI":"仁和里","LIN":"27鄰","STREET":"仁東街","SECT":" ","MAREA":" ","LANE":" ","ALLEY":" ","HOUSE_NO":"７０號九樓之２","E_COORD97":171704.29999999999,"N_COORD97":2541174.2000000002,"ADDRESS":"仁東街７０號九樓之２","OBJECTID":634769},"geometry":{"x":171704.29999999981,"y":2541174.200000003}},{"attributes":{"ID":634797,"DIS_CODE":0,"TOWNNAME":"東區","LI":"仁和里","LIN":"27鄰","STREET":"仁東街","SECT":" ","MAREA":" ","LANE":" ","ALLEY":" ","HOUSE_NO":"７０號八樓","E_COORD97":171704.29999999999,"N_COORD97":2541174.2000000002,"ADDRESS":"仁東街７０號八樓","OBJECTID":634770},"geometry":{"x":171704.29999999981,"y":2541174.200000003}},{"attributes":{"ID":634798,"DIS_CODE":0,"TOWNNAME":"東區","LI":"仁和里","LIN":"25鄰","STREET":"利東街","SECT":" ","MAREA":" ","LANE":" ","ALLEY":" ","HOUSE_NO":"３１號七樓","E_COORD97":171671.67000000001,"N_COORD97":2541129.9300000002,"ADDRESS":"利東街３１號七樓","OBJECTID":634771},"geometry":{"x":171671.66999999993,"y":2541129.9300000016}},{"attributes":{"ID":634799,"DIS_CODE":0,"TOWNNAME":"東區","LI":"仁和里","LIN":"25鄰","STREET":"利東街","SECT":" ","MAREA":" ","LANE":" ","ALLEY":" ","HOUSE_NO":"３３號七樓","E_COORD97":171666.67000000001,"N_COORD97":2541143.0299999998,"ADDRESS":"利東街３３號七樓","OBJECTID":634772},"geometry":{"x":171666.66999999993,"y":2541143.0300000012}},{"attributes":{"ID":634800,"DIS_CODE":0,"TOWNNAME":"東區","LI":"仁和里","LIN":"28鄰","STREET":"利東街","SECT":" ","MAREA":" ","LANE":" ","ALLEY":" ","HOUSE_NO":"４５號七樓","E_COORD97":171709.70000000001,"N_COORD97":2541119.8799999999,"ADDRESS":"利東街４５號七樓","OBJECTID":634773},"geometry":{"x":171709.70000000112,"y":2541119.8800000008}},{"attributes":{"ID":634801,"DIS_CODE":0,"TOWNNAME":"東區","LI":"仁和里","LIN":"28鄰","STREET":"利東街","SECT":" ","MAREA":" ","LANE":" ","ALLEY":" ","HOUSE_NO":"４９號四樓之２","E_COORD97":171710.44,"N_COORD97":2541084.25,"ADDRESS":"利東街４９號四樓之２","OBJECTID":634774},"geometry":{"x":171710.44000000134,"y":2541084.2500000019}},{"attributes":{"ID":634802,"DIS_CODE":0,"TOWNNAME":"東區","LI":"仁和里","LIN":"28鄰","STREET":"利東街","SECT":" ","MAREA":" ","LANE":" ","ALLEY":" ","HOUSE_NO":"４９號四樓之３","E_COORD97":171710.44,"N_COORD97":2541084.25,"ADDRESS":"利東街４９號四樓之３","OBJECTID":634775},"geometry":{"x":171710.44000000134,"y":2541084.2500000019}},{"attributes":{"ID":634803,"DIS_CODE":0,"TOWNNAME":"東區","LI":"仁和里","LIN":"26鄰","STREET":"利東街","SECT":" ","MAREA":" ","LANE":" ","ALLEY":" ","HOUSE_NO":"５３號三樓","E_COORD97":171686.12,"N_COORD97":2541083.6200000001,"ADDRESS":"利東街５３號三樓","OBJECTID":634776},"geometry":{"x":171686.12000000197,"y":2541083.620000001}},{"attributes":{"ID":634804,"DIS_CODE":0,"TOWNNAME":"東區","LI":"仁和里","LIN":"25鄰","STREET":"利東街","SECT":" ","MAREA":" ","LANE":" ","ALLEY":" ","HOUSE_NO":"５號七樓","E_COORD97":171646.64999999999,"N_COORD97":2541164.6899999999,"ADDRESS":"利東街５號七樓","OBJECTID":634777},"geometry":{"x":171646.65000000037,"y":2541164.6900000013}},{"attributes":{"ID":634805,"DIS_CODE":0,"TOWNNAME":"東區","LI":"仁和里","LIN":"25鄰","STREET":"利東街","SECT":" ","MAREA":" ","LANE":" ","ALLEY":" ","HOUSE_NO":"５號七樓之１","E_COORD97":171646.64999999999,"N_COORD97":2541164.6899999999,"ADDRESS":"利東街５號七樓之１","OBJECTID":634778},"geometry":{"x":171646.65000000037,"y":2541164.6900000013}},{"attributes":{"ID":634806,"DIS_CODE":0,"TOWNNAME":"東區","LI":"仁和里","LIN":"25鄰","STREET":"利東街","SECT":" ","MAREA":" ","LANE":" ","ALLEY":" ","HOUSE_NO":"５號九樓","E_COORD97":171646.64999999999,"N_COORD97":2541164.6899999999,"ADDRESS":"利東街５號九樓","OBJECTID":634779},"geometry":{"x":171646.65000000037,"y":2541164.6900000013}},{"attributes":{"ID":634807,"DIS_CODE":0,"TOWNNAME":"東區","LI":"仁和里","LIN":"25鄰","STREET":"利東街","SECT":" ","MAREA":" ","LANE":" ","ALLEY":" ","HOUSE_NO":"５號九樓之１","E_COORD97":171646.64999999999,"N_COORD97":2541164.6899999999,"ADDRESS":"利東街５號九樓之１","OBJECTID":634780},"geometry":{"x":171646.65000000037,"y":2541164.6900000013}},{"attributes":{"ID":634808,"DIS_CODE":0,"TOWNNAME":"東區","LI":"仁和里","LIN":"25鄰","STREET":"利東街","SECT":" ","MAREA":" ","LANE":" ","ALLEY":" ","HOUSE_NO":"５號八樓","E_COORD97":171646.64999999999,"N_COORD97":2541164.6899999999,"ADDRESS":"利東街５號八樓","OBJECTID":634781},"geometry":{"x":171646.65000000037,"y":2541164.6900000013}},{"attributes":{"ID":634809,"DIS_CODE":0,"TOWNNAME":"東區","LI":"仁和里","LIN":"25鄰","STREET":"利東街","SECT":" ","MAREA":" ","LANE":" ","ALLEY":" ","HOUSE_NO":"５號八樓之１","E_COORD97":171646.64999999999,"N_COORD97":2541164.6899999999,"ADDRESS":"利東街５號八樓之１","OBJECTID":634782},"geometry":{"x":171646.65000000037,"y":2541164.6900000013}},{"attributes":{"ID":634810,"DIS_CODE":0,"TOWNNAME":"東區","LI":"仁和里","LIN":"25鄰","STREET":"利東街","SECT":" ","MAREA":" ","LANE":" ","ALLEY":" ","HOUSE_NO":"５號五樓","E_COORD97":171646.64999999999,"N_COORD97":2541164.6899999999,"ADDRESS":"利東街５號五樓","OBJECTID":634783},"geometry":{"x":171646.65000000037,"y":2541164.6900000013}},{"attributes":{"ID":634811,"DIS_CODE":0,"TOWNNAME":"東區","LI":"仁和里","LIN":"25鄰","STREET":"利東街","SECT":" ","MAREA":" ","LANE":" ","ALLEY":" ","HOUSE_NO":"５號五樓之１","E_COORD97":171646.64999999999,"N_COORD97":2541164.6899999999,"ADDRESS":"利東街５號五樓之１","OBJECTID":634784},"geometry":{"x":171646.65000000037,"y":2541164.6900000013}},{"attributes":{"ID":634812,"DIS_CODE":0,"TOWNNAME":"東區","LI":"仁和里","LIN":"25鄰","STREET":"利東街","SECT":" ","MAREA":" ","LANE":" ","ALLEY":" ","HOUSE_NO":"５號六樓","E_COORD97":171646.64999999999,"N_COORD97":2541164.6899999999,"ADDRESS":"利東街５號六樓","OBJECTID":634785},"geometry":{"x":171646.65000000037,"y":2541164.6900000013}},{"attributes":{"ID":634813,"DIS_CODE":0,"TOWNNAME":"東區","LI":"仁和里","LIN":"25鄰","STREET":"利東街","SECT":" ","MAREA":" ","LANE":" ","ALLEY":" ","HOUSE_NO":"５號六樓之１","E_COORD97":171646.64999999999,"N_COORD97":2541164.6899999999,"ADDRESS":"利東街５號六樓之１","OBJECTID":634786},"geometry":{"x":171646.65000000037,"y":2541164.6900000013}},{"attributes":{"ID":634814,"DIS_CODE":0,"TOWNNAME":"東區","LI":"仁和里","LIN":"25鄰","STREET":"利東街","SECT":" ","MAREA":" ","LANE":" ","ALLEY":" ","HOUSE_NO":"５號四樓","E_COORD97":171646.64999999999,"N_COORD97":2541164.6899999999,"ADDRESS":"利東街５號四樓","OBJECTID":634787},"geometry":{"x":171646.65000000037,"y":2541164.6900000013}},{"attributes":{"ID":634815,"DIS_CODE":0,"TOWNNAME":"東區","LI":"仁和里","LIN":"25鄰","STREET":"利東街","SECT":" ","MAREA":" ","LANE":" ","ALLEY":" ","HOUSE_NO":"５號四樓之１","E_COORD97":171646.64999999999,"N_COORD97":2541164.6899999999,"ADDRESS":"利東街５號四樓之１","OBJECTID":634788},"geometry":{"x":171646.65000000037,"y":2541164.6900000013}},{"attributes":{"ID":634816,"DIS_CODE":0,"TOWNNAME":"永康區","LI":"大橋里","LIN":"4鄰","STREET":"大橋五街","SECT":" ","MAREA":" ","LANE":" ","ALLEY":" ","HOUSE_NO":"９３號三樓之２","E_COORD97":170877.19,"N_COORD97":2546938.3300000001,"ADDRESS":"大橋五街９３號三樓之２","OBJECTID":634789},"geometry":{"x":170877.18999999948,"y":2546938.3300000019}},{"attributes":{"ID":634817,"DIS_CODE":0,"TOWNNAME":"永康區","LI":"大橋里","LIN":"4鄰","STREET":"大橋五街","SECT":" ","MAREA":" ","LANE":" ","ALLEY":" ","HOUSE_NO":"１７號四樓之１","E_COORD97":170789.45999999999,"N_COORD97":2546868.9199999999,"ADDRESS":"大橋五街１７號四樓之１","OBJECTID":634790},"geometry":{"x":170789.45999999996,"y":2546868.9199999999}},{"attributes":{"ID":634818,"DIS_CODE":0,"TOWNNAME":"永康區","LI":"永康里","LIN":"26鄰","STREET":"永大路","SECT":"二段","MAREA":" ","LANE":" ","ALLEY":" ","HOUSE_NO":"１１２９號十九樓之１","E_COORD97":174199.69,"N_COORD97":2547482.3599999999,"ADDRESS":"永大路二段１１２９號十九樓之１","OBJECTID":634791},"geometry":{"x":174199.69000000041,"y":2547482.3599999994}},{"attributes":{"ID":634819,"DIS_CODE":0,"TOWNNAME":"永康區","LI":"北灣里","LIN":"4鄰","STREET":"信義街","SECT":" ","MAREA":" ","LANE":" ","ALLEY":" ","HOUSE_NO":"９９號","E_COORD97":175244.82999999999,"N_COORD97":2545637.75,"ADDRESS":"信義街９９號","OBJECTID":634792},"geometry":{"x":175244.83000000101,"y":2545637.7500000019}},{"attributes":{"ID":634820,"DIS_CODE":0,"TOWNNAME":"永康區","LI":"網寮里","LIN":"26鄰","STREET":"永興路","SECT":" ","MAREA":" ","LANE":" ","ALLEY":" ","HOUSE_NO":"１０７號五樓之２","E_COORD97":173910.48000000001,"N_COORD97":2546555.3900000001,"ADDRESS":"永興路１０７號五樓之２","OBJECTID":634793},"geometry":{"x":173910.48000000138,"y":2546555.3900000025}},{"attributes":{"ID":634821,"DIS_CODE":0,"TOWNNAME":"永康區","LI":"永康里","LIN":"26鄰","STREET":"永大路","SECT":"二段","MAREA":" ","LANE":" ","ALLEY":" ","HOUSE_NO":"１１２９號六樓之７","E_COORD97":174198.51999999999,"N_COORD97":2547482.3599999999,"ADDRESS":"永大路二段１１２９號六樓之７","OBJECTID":634794},"geometry":{"x":174198.52000000142,"y":2547482.3599999994}},{"attributes":{"ID":634822,"DIS_CODE":0,"TOWNNAME":"永康區","LI":"西灣里","LIN":"25鄰","STREET":"國光七街","SECT":" ","MAREA":" ","LANE":" ","ALLEY":" ","HOUSE_NO":"２２號四樓","E_COORD97":174302.25,"N_COORD97":2545539.3900000001,"ADDRESS":"國光七街２２號四樓","OBJECTID":634795},"geometry":{"x":174302.25,"y":2545539.3900000025}},{"attributes":{"ID":634823,"DIS_CODE":0,"TOWNNAME":"東區","LI":"富裕里","LIN":"20鄰","STREET":"裕豐街","SECT":" ","MAREA":" ","LANE":" ","ALLEY":" ","HOUSE_NO":"８號六樓","E_COORD97":170736.51000000001,"N_COORD97":2542700.3300000001,"ADDRESS":"裕豐街８號六樓","OBJECTID":634796},"geometry":{"x":170736.50999999978,"y":2542700.3300000019}},{"attributes":{"ID":634824,"DIS_CODE":0,"TOWNNAME":"永康區","LI":"永康里","LIN":"26鄰","STREET":"中山北路","SECT":" ","MAREA":" ","LANE":" ","ALLEY":" ","HOUSE_NO":"７０號五樓之１","E_COORD97":174075.35000000001,"N_COORD97":2547398.25,"ADDRESS":"中山北路７０號五樓之１","OBJECTID":634797},"geometry":{"x":174075.34999999963,"y":2547398.25}},{"attributes":{"ID":634825,"DIS_CODE":0,"TOWNNAME":"永康區","LI":"正強里","LIN":"41鄰","STREET":"正強街","SECT":" ","MAREA":" ","LANE":" ","ALLEY":" ","HOUSE_NO":"２９８號十一樓之１","E_COORD97":173293.42000000001,"N_COORD97":2547971.0499999998,"ADDRESS":"正強街２９８號十一樓之１","OBJECTID":634798},"geometry":{"x":173293.41999999993,"y":2547971.0500000045}},{"attributes":{"ID":634826,"DIS_CODE":0,"TOWNNAME":"永康區","LI":"大橋里","LIN":"4鄰","STREET":"大橋五街","SECT":" ","MAREA":" ","LANE":" ","ALLEY":" ","HOUSE_NO":"１４３號九樓之３","E_COORD97":170978.78,"N_COORD97":2546989.3599999999,"ADDRESS":"大橋五街１４３號九樓之３","OBJECTID":634799},"geometry":{"x":170978.78000000119,"y":2546989.3600000013}},{"attributes":{"ID":634827,"DIS_CODE":0,"TOWNNAME":"永康區","LI":"復國里","LIN":"20鄰","STREET":"國華街","SECT":" ","MAREA":" ","LANE":" ","ALLEY":" ","HOUSE_NO":"５９號十二樓之２","E_COORD97":172824.79999999999,"N_COORD97":2545757.4199999999,"ADDRESS":"國華街５９號十二樓之２","OBJECTID":634800},"geometry":{"x":172824.79999999981,"y":2545757.4200000037}}]}