{"displayFieldName":"TOWNNAME","fieldAliases":{"ID":"ID","DIS_CODE":"DIS_CODE","TOWNNAME":"TOWNNAME","LI":"LI","LIN":"LIN","STREET":"STREET","SECT":"SECT","MAREA":"MAREA","LANE":"LANE","ALLEY":"ALLEY","HOUSE_NO":"HOUSE_NO","E_COORD97":"E_COORD97","N_COORD97":"N_COORD97","ADDRESS":"ADDRESS","OBJECTID":"OBJECTID"},"geometryType":"esriGeometryPoint","spatialReference":{"wkid":102443,"latestWkid":3826},"fields":[{"name":"ID","type":"esriFieldTypeDouble","alias":"ID"},{"name":"DIS_CODE","type":"esriFieldTypeInteger","alias":"DIS_CODE"},{"name":"TOWNNAME","type":"esriFieldTypeString","alias":"TOWNNAME","length":8},{"name":"LI","type":"esriFieldTypeString","alias":"LI","length":8},{"name":"LIN","type":"esriFieldTypeString","alias":"LIN","length":12},{"name":"STREET","type":"esriFieldTypeString","alias":"STREET","length":20},{"name":"SECT","type":"esriFieldTypeString","alias":"SECT","length":8},{"name":"MAREA","type":"esriFieldTypeString","alias":"MAREA","length":12},{"name":"LANE","type":"esriFieldTypeString","alias":"LANE","length":10},{"name":"ALLEY","type":"esriFieldTypeString","alias":"ALLEY","length":10},{"name":"HOUSE_NO","type":"esriFieldTypeString","alias":"HOUSE_NO","length":20},{"name":"E_COORD97","type":"esriFieldTypeDouble","alias":"E_COORD97"},{"name":"N_COORD97","type":"esriFieldTypeDouble","alias":"N_COORD97"},{"name":"ADDRESS","type":"esriFieldTypeString","alias":"ADDRESS","length":50},{"name":"OBJECTID","type":"esriFieldTypeOID","alias":"OBJECTID"}],"features":[{"attributes":{"ID":411625,"DIS_CODE":0,"TOWNNAME":"玉井區","LI":"玉田里","LIN":"3鄰","STREET":"民主街","SECT":" ","MAREA":" ","LANE":"１２４巷","ALLEY":" ","HOUSE_NO":"９號","E_COORD97":195135.17999999999,"N_COORD97":2558166.2799999998,"ADDRESS":"民主街１２４巷９號","OBJECTID":411601},"geometry":{"x":195135.18000000063,"y":2558166.2800000031}},{"attributes":{"ID":411626,"DIS_CODE":0,"TOWNNAME":"玉井區","LI":"玉井里","LIN":"3鄰","STREET":"憲政街","SECT":" ","MAREA":" ","LANE":"６６巷","ALLEY":" ","HOUSE_NO":"２號","E_COORD97":194538,"N_COORD97":2558073.02,"ADDRESS":"憲政街６６巷２號","OBJECTID":411602},"geometry":{"x":194538.00000000186,"y":2558073.0199999996}},{"attributes":{"ID":411627,"DIS_CODE":0,"TOWNNAME":"玉井區","LI":"中正里","LIN":"3鄰","STREET":"大成路","SECT":" ","MAREA":" ","LANE":"４７９巷","ALLEY":" ","HOUSE_NO":"１０號","E_COORD97":195412.12,"N_COORD97":2558670.27,"ADDRESS":"大成路４７９巷１０號","OBJECTID":411603},"geometry":{"x":195412.12000000104,"y":2558670.2699999996}},{"attributes":{"ID":411628,"DIS_CODE":0,"TOWNNAME":"玉井區","LI":"玉井里","LIN":"3鄰","STREET":"憲政街","SECT":" ","MAREA":" ","LANE":"６６巷","ALLEY":" ","HOUSE_NO":"４號","E_COORD97":194544.01999999999,"N_COORD97":2558075.1299999999,"ADDRESS":"憲政街６６巷４號","OBJECTID":411604},"geometry":{"x":194544.02000000142,"y":2558075.1299999971}},{"attributes":{"ID":411629,"DIS_CODE":0,"TOWNNAME":"玉井區","LI":"中正里","LIN":"3鄰","STREET":"後旦街","SECT":" ","MAREA":" ","LANE":"１２０巷","ALLEY":" ","HOUSE_NO":"１０號","E_COORD97":195369.82000000001,"N_COORD97":2558681.3100000001,"ADDRESS":"後旦街１２０巷１０號","OBJECTID":411605},"geometry":{"x":195369.8200000003,"y":2558681.3100000005}},{"attributes":{"ID":411630,"DIS_CODE":0,"TOWNNAME":"玉井區","LI":"玉井里","LIN":"3鄰","STREET":"憲政街","SECT":" ","MAREA":" ","LANE":"４８巷","ALLEY":" ","HOUSE_NO":"９號","E_COORD97":194586.16,"N_COORD97":2558108.98,"ADDRESS":"憲政街４８巷９號","OBJECTID":411606},"geometry":{"x":194586.16000000201,"y":2558108.9800000023}},{"attributes":{"ID":411631,"DIS_CODE":0,"TOWNNAME":"玉井區","LI":"玉井里","LIN":"3鄰","STREET":"憲政街","SECT":" ","MAREA":" ","LANE":"６６巷","ALLEY":" ","HOUSE_NO":"１６號","E_COORD97":194554.41,"N_COORD97":2558096.9700000002,"ADDRESS":"憲政街６６巷１６號","OBJECTID":411607},"geometry":{"x":194554.41000000108,"y":2558096.9700000007}},{"attributes":{"ID":411632,"DIS_CODE":0,"TOWNNAME":"玉井區","LI":"玉井里","LIN":"3鄰","STREET":"憲政街","SECT":" ","MAREA":" ","LANE":"６６巷","ALLEY":" ","HOUSE_NO":"１２號","E_COORD97":194538.29999999999,"N_COORD97":2558093.9700000002,"ADDRESS":"憲政街６６巷１２號","OBJECTID":411608},"geometry":{"x":194538.29999999981,"y":2558093.9700000007}},{"attributes":{"ID":411633,"DIS_CODE":0,"TOWNNAME":"玉井區","LI":"玉井里","LIN":"3鄰","STREET":"憲政街","SECT":" ","MAREA":" ","LANE":"４８巷","ALLEY":" ","HOUSE_NO":"７號","E_COORD97":194567.06,"N_COORD97":2558083.5699999998,"ADDRESS":"憲政街４８巷７號","OBJECTID":411609},"geometry":{"x":194567.05999999959,"y":2558083.5700000003}},{"attributes":{"ID":411634,"DIS_CODE":0,"TOWNNAME":"玉井區","LI":"玉井里","LIN":"3鄰","STREET":"憲政街","SECT":" ","MAREA":" ","LANE":"４８巷","ALLEY":" ","HOUSE_NO":"１１號","E_COORD97":194580,"N_COORD97":2558105.9700000002,"ADDRESS":"憲政街４８巷１１號","OBJECTID":411610},"geometry":{"x":194580,"y":2558105.9700000025}},{"attributes":{"ID":411635,"DIS_CODE":0,"TOWNNAME":"玉井區","LI":"玉井里","LIN":"3鄰","STREET":"憲政街","SECT":" ","MAREA":" ","LANE":"４８巷","ALLEY":" ","HOUSE_NO":"１５號","E_COORD97":194563.91,"N_COORD97":2558100.9700000002,"ADDRESS":"憲政街４８巷１５號","OBJECTID":411611},"geometry":{"x":194563.91000000015,"y":2558100.9700000007}},{"attributes":{"ID":411636,"DIS_CODE":0,"TOWNNAME":"北區","LI":"公園里","LIN":"3鄰","STREET":"北門路","SECT":"二段","MAREA":" ","LANE":"９１巷","ALLEY":" ","HOUSE_NO":"２３號","E_COORD97":169251.07999999999,"N_COORD97":2544419.9100000001,"ADDRESS":"北門路二段９１巷２３號","OBJECTID":411612},"geometry":{"x":169251.08000000101,"y":2544419.910000002}},{"attributes":{"ID":411637,"DIS_CODE":0,"TOWNNAME":"北區","LI":"公園里","LIN":"3鄰","STREET":"北門路","SECT":"二段","MAREA":" ","LANE":"９１巷","ALLEY":" ","HOUSE_NO":"２５號","E_COORD97":169250.45999999999,"N_COORD97":2544416.3399999999,"ADDRESS":"北門路二段９１巷２５號","OBJECTID":411613},"geometry":{"x":169250.45999999996,"y":2544416.3400000017}},{"attributes":{"ID":411638,"DIS_CODE":0,"TOWNNAME":"北區","LI":"公園里","LIN":"3鄰","STREET":"北門路","SECT":"二段","MAREA":" ","LANE":"９１巷","ALLEY":" ","HOUSE_NO":"２７號","E_COORD97":169249.95999999999,"N_COORD97":2544413.5299999998,"ADDRESS":"北門路二段９１巷２７號","OBJECTID":411614},"geometry":{"x":169249.96000000089,"y":2544413.5300000012}},{"attributes":{"ID":411639,"DIS_CODE":0,"TOWNNAME":"北區","LI":"公園里","LIN":"3鄰","STREET":"北門路","SECT":"二段","MAREA":" ","LANE":"９１巷","ALLEY":" ","HOUSE_NO":"２９號","E_COORD97":169249.20999999999,"N_COORD97":2544411.2200000002,"ADDRESS":"北門路二段９１巷２９號","OBJECTID":411615},"geometry":{"x":169249.20999999903,"y":2544411.2200000025}},{"attributes":{"ID":411640,"DIS_CODE":0,"TOWNNAME":"北區","LI":"公園里","LIN":"3鄰","STREET":"北門路","SECT":"二段","MAREA":" ","LANE":"９１巷","ALLEY":" ","HOUSE_NO":"３１號","E_COORD97":169248.57999999999,"N_COORD97":2544408.4700000002,"ADDRESS":"北門路二段９１巷３１號","OBJECTID":411616},"geometry":{"x":169248.58000000194,"y":2544408.4700000044}},{"attributes":{"ID":411641,"DIS_CODE":0,"TOWNNAME":"北區","LI":"公園里","LIN":"3鄰","STREET":"北門路","SECT":"二段","MAREA":" ","LANE":"９１巷","ALLEY":" ","HOUSE_NO":"３３號","E_COORD97":169248.07999999999,"N_COORD97":2544405.8999999999,"ADDRESS":"北門路二段９１巷３３號","OBJECTID":411617},"geometry":{"x":169248.08000000007,"y":2544405.9000000022}},{"attributes":{"ID":411642,"DIS_CODE":0,"TOWNNAME":"北區","LI":"公園里","LIN":"3鄰","STREET":"北門路","SECT":"二段","MAREA":" ","LANE":"９１巷","ALLEY":" ","HOUSE_NO":"３５號","E_COORD97":169243.45000000001,"N_COORD97":2544409.0299999998,"ADDRESS":"北門路二段９１巷３５號","OBJECTID":411618},"geometry":{"x":169243.45000000112,"y":2544409.0299999993}},{"attributes":{"ID":411643,"DIS_CODE":0,"TOWNNAME":"北區","LI":"公園里","LIN":"3鄰","STREET":"北門路","SECT":"二段","MAREA":" ","LANE":"９１巷","ALLEY":" ","HOUSE_NO":"３７號","E_COORD97":169243.95000000001,"N_COORD97":2544411.3999999999,"ADDRESS":"北門路二段９１巷３７號","OBJECTID":411619},"geometry":{"x":169243.95000000019,"y":2544411.4000000004}},{"attributes":{"ID":411644,"DIS_CODE":0,"TOWNNAME":"北區","LI":"公園里","LIN":"3鄰","STREET":"北門路","SECT":"二段","MAREA":" ","LANE":"９１巷","ALLEY":" ","HOUSE_NO":"３９號","E_COORD97":169244.38,"N_COORD97":2544413.8399999999,"ADDRESS":"北門路二段９１巷３９號","OBJECTID":411620},"geometry":{"x":169244.37999999989,"y":2544413.8399999999}},{"attributes":{"ID":411645,"DIS_CODE":0,"TOWNNAME":"北區","LI":"公園里","LIN":"3鄰","STREET":"北門路","SECT":"二段","MAREA":" ","LANE":"９１巷","ALLEY":" ","HOUSE_NO":"４１號","E_COORD97":169245.01000000001,"N_COORD97":2544416.7200000002,"ADDRESS":"北門路二段９１巷４１號","OBJECTID":411621},"geometry":{"x":169245.00999999978,"y":2544416.7200000044}},{"attributes":{"ID":411646,"DIS_CODE":0,"TOWNNAME":"北區","LI":"公園里","LIN":"3鄰","STREET":"北門路","SECT":"二段","MAREA":" ","LANE":"９１巷","ALLEY":" ","HOUSE_NO":"４２號","E_COORD97":169248.45999999999,"N_COORD97":2544430.3199999998,"ADDRESS":"北門路二段９１巷４２號","OBJECTID":411622},"geometry":{"x":169248.45999999996,"y":2544430.3200000022}},{"attributes":{"ID":411647,"DIS_CODE":0,"TOWNNAME":"北區","LI":"公園里","LIN":"3鄰","STREET":"北門路","SECT":"二段","MAREA":" ","LANE":"９１巷","ALLEY":" ","HOUSE_NO":"４３號","E_COORD97":169245.57999999999,"N_COORD97":2544420.2400000002,"ADDRESS":"北門路二段９１巷４３號","OBJECTID":411623},"geometry":{"x":169245.58000000101,"y":2544420.2400000021}},{"attributes":{"ID":411648,"DIS_CODE":0,"TOWNNAME":"北區","LI":"公園里","LIN":"3鄰","STREET":"北門路","SECT":"二段","MAREA":" ","LANE":"９１巷","ALLEY":" ","HOUSE_NO":"４５號","E_COORD97":169246.39000000001,"N_COORD97":2544423.2200000002,"ADDRESS":"北門路二段９１巷４５號","OBJECTID":411624},"geometry":{"x":169246.3900000006,"y":2544423.2200000007}},{"attributes":{"ID":411649,"DIS_CODE":0,"TOWNNAME":"北區","LI":"公園里","LIN":"3鄰","STREET":"北門路","SECT":"二段","MAREA":" ","LANE":"９１巷","ALLEY":" ","HOUSE_NO":"５號","E_COORD97":169256.28,"N_COORD97":2544428.6800000002,"ADDRESS":"北門路二段９１巷５號","OBJECTID":411625},"geometry":{"x":169256.28000000119,"y":2544428.6799999997}},{"attributes":{"ID":411650,"DIS_CODE":0,"TOWNNAME":"北區","LI":"公園里","LIN":"3鄰","STREET":"北門路","SECT":"二段","MAREA":" ","LANE":"９１巷","ALLEY":" ","HOUSE_NO":"７號","E_COORD97":169252.34,"N_COORD97":2544405.2799999998,"ADDRESS":"北門路二段９１巷７號","OBJECTID":411626},"geometry":{"x":169252.34000000078,"y":2544405.2800000012}},{"attributes":{"ID":411651,"DIS_CODE":0,"TOWNNAME":"北區","LI":"公園里","LIN":"3鄰","STREET":"北門路","SECT":"二段","MAREA":" ","LANE":"９１巷","ALLEY":" ","HOUSE_NO":"９號","E_COORD97":169252.95999999999,"N_COORD97":2544408.1499999999,"ADDRESS":"北門路二段９１巷９號","OBJECTID":411627},"geometry":{"x":169252.96000000089,"y":2544408.1500000022}},{"attributes":{"ID":411652,"DIS_CODE":0,"TOWNNAME":"北區","LI":"公園里","LIN":"3鄰","STREET":"北忠街","SECT":" ","MAREA":" ","LANE":"１６巷","ALLEY":" ","HOUSE_NO":"４９號","E_COORD97":169222.35999999999,"N_COORD97":2544448.1400000001,"ADDRESS":"北忠街１６巷４９號","OBJECTID":411628},"geometry":{"x":169222.36000000127,"y":2544448.1400000025}},{"attributes":{"ID":411653,"DIS_CODE":0,"TOWNNAME":"北區","LI":"公園里","LIN":"3鄰","STREET":"北忠街","SECT":" ","MAREA":" ","LANE":"１６巷","ALLEY":" ","HOUSE_NO":"５１號","E_COORD97":169225.56,"N_COORD97":2544447.73,"ADDRESS":"北忠街１６巷５１號","OBJECTID":411629},"geometry":{"x":169225.55999999959,"y":2544447.7300000023}},{"attributes":{"ID":411654,"DIS_CODE":0,"TOWNNAME":"北區","LI":"正風里","LIN":"3鄰","STREET":"公園路","SECT":" ","MAREA":" ","LANE":"９０４巷","ALLEY":" ","HOUSE_NO":"２４號","E_COORD97":169412.01000000001,"N_COORD97":2546085.3999999999,"ADDRESS":"公園路９０４巷２４號","OBJECTID":411630},"geometry":{"x":169412.01000000071,"y":2546085.4000000004}},{"attributes":{"ID":411655,"DIS_CODE":0,"TOWNNAME":"北區","LI":"正風里","LIN":"3鄰","STREET":"公園路","SECT":" ","MAREA":" ","LANE":"９０４巷","ALLEY":" ","HOUSE_NO":"２５號","E_COORD97":169423.19,"N_COORD97":2546093.8799999999,"ADDRESS":"公園路９０４巷２５號","OBJECTID":411631},"geometry":{"x":169423.19000000134,"y":2546093.879999999}},{"attributes":{"ID":411656,"DIS_CODE":0,"TOWNNAME":"北區","LI":"正風里","LIN":"3鄰","STREET":"公園路","SECT":" ","MAREA":" ","LANE":"９０４巷","ALLEY":" ","HOUSE_NO":"２６號","E_COORD97":169415.04999999999,"N_COORD97":2546083.3700000001,"ADDRESS":"公園路９０４巷２６號","OBJECTID":411632},"geometry":{"x":169415.05000000075,"y":2546083.370000001}},{"attributes":{"ID":411657,"DIS_CODE":0,"TOWNNAME":"北區","LI":"正風里","LIN":"3鄰","STREET":"公園路","SECT":" ","MAREA":" ","LANE":"９０４巷","ALLEY":" ","HOUSE_NO":"２８號","E_COORD97":169418.85000000001,"N_COORD97":2546080.3900000001,"ADDRESS":"公園路９０４巷２８號","OBJECTID":411633},"geometry":{"x":169418.84999999963,"y":2546080.3900000043}},{"attributes":{"ID":411658,"DIS_CODE":0,"TOWNNAME":"北區","LI":"正風里","LIN":"3鄰","STREET":"公園路","SECT":" ","MAREA":" ","LANE":"９０４巷","ALLEY":" ","HOUSE_NO":"２號","E_COORD97":169371.07000000001,"N_COORD97":2546115.02,"ADDRESS":"公園路９０４巷２號","OBJECTID":411634},"geometry":{"x":169371.07000000216,"y":2546115.0199999996}},{"attributes":{"ID":411659,"DIS_CODE":0,"TOWNNAME":"北區","LI":"正風里","LIN":"3鄰","STREET":"公園路","SECT":" ","MAREA":" ","LANE":"９０４巷","ALLEY":" ","HOUSE_NO":"３號","E_COORD97":169385.62,"N_COORD97":2546122.0299999998,"ADDRESS":"公園路９０４巷３號","OBJECTID":411635},"geometry":{"x":169385.62000000197,"y":2546122.0300000031}},{"attributes":{"ID":411660,"DIS_CODE":0,"TOWNNAME":"北區","LI":"正風里","LIN":"3鄰","STREET":"公園路","SECT":" ","MAREA":" ","LANE":"９０４巷","ALLEY":" ","HOUSE_NO":"５號","E_COORD97":169388.73000000001,"N_COORD97":2546119.3700000001,"ADDRESS":"公園路９０４巷５號","OBJECTID":411636},"geometry":{"x":169388.73000000231,"y":2546119.3700000029}},{"attributes":{"ID":411661,"DIS_CODE":0,"TOWNNAME":"北區","LI":"正風里","LIN":"3鄰","STREET":"公園路","SECT":" ","MAREA":" ","LANE":"９０４巷","ALLEY":" ","HOUSE_NO":"６號","E_COORD97":169378.23999999999,"N_COORD97":2546111.2999999998,"ADDRESS":"公園路９０４巷６號","OBJECTID":411637},"geometry":{"x":169378.24000000209,"y":2546111.2999999989}},{"attributes":{"ID":411662,"DIS_CODE":0,"TOWNNAME":"北區","LI":"正風里","LIN":"3鄰","STREET":"公園路","SECT":" ","MAREA":" ","LANE":"９０４巷","ALLEY":" ","HOUSE_NO":"７號","E_COORD97":169390.85000000001,"N_COORD97":2546117.6000000001,"ADDRESS":"公園路９０４巷７號","OBJECTID":411638},"geometry":{"x":169390.85000000056,"y":2546117.5999999996}},{"attributes":{"ID":411663,"DIS_CODE":0,"TOWNNAME":"北區","LI":"正風里","LIN":"3鄰","STREET":"公園路","SECT":" ","MAREA":" ","LANE":"９０４巷","ALLEY":" ","HOUSE_NO":"８號","E_COORD97":169381.42999999999,"N_COORD97":2546108.8199999998,"ADDRESS":"公園路９０４巷８號","OBJECTID":411639},"geometry":{"x":169381.43000000156,"y":2546108.8200000022}},{"attributes":{"ID":411664,"DIS_CODE":0,"TOWNNAME":"北區","LI":"正覺里","LIN":"3鄰","STREET":"西門路","SECT":"四段","MAREA":" ","LANE":"３８０巷","ALLEY":" ","HOUSE_NO":"１１號","E_COORD97":169073.04999999999,"N_COORD97":2546106.3900000001,"ADDRESS":"西門路四段３８０巷１１號","OBJECTID":411640},"geometry":{"x":169073.05000000075,"y":2546106.3900000006}},{"attributes":{"ID":411665,"DIS_CODE":0,"TOWNNAME":"北區","LI":"正覺里","LIN":"3鄰","STREET":"西門路","SECT":"四段","MAREA":" ","LANE":"３８０巷","ALLEY":" ","HOUSE_NO":"１３號","E_COORD97":169078.25,"N_COORD97":2546104.7200000002,"ADDRESS":"西門路四段３８０巷１３號","OBJECTID":411641},"geometry":{"x":169078.25000000093,"y":2546104.7200000007}},{"attributes":{"ID":411666,"DIS_CODE":0,"TOWNNAME":"北區","LI":"正覺里","LIN":"3鄰","STREET":"西門路","SECT":"四段","MAREA":" ","LANE":"３８０巷","ALLEY":" ","HOUSE_NO":"１５號","E_COORD97":169089.26000000001,"N_COORD97":2546103.52,"ADDRESS":"西門路四段３８０巷１５號","OBJECTID":411642},"geometry":{"x":169089.25999999978,"y":2546103.5200000014}},{"attributes":{"ID":411667,"DIS_CODE":0,"TOWNNAME":"北區","LI":"正覺里","LIN":"3鄰","STREET":"西門路","SECT":"四段","MAREA":" ","LANE":"３８０巷","ALLEY":" ","HOUSE_NO":"１７號","E_COORD97":169106.98000000001,"N_COORD97":2546102.6400000001,"ADDRESS":"西門路四段３８０巷１７號","OBJECTID":411643},"geometry":{"x":169106.98000000045,"y":2546102.6400000025}},{"attributes":{"ID":411668,"DIS_CODE":0,"TOWNNAME":"六甲區","LI":"二甲里","LIN":"3鄰","STREET":"民權街","SECT":" ","MAREA":" ","LANE":"１７７巷","ALLEY":" ","HOUSE_NO":"１３號","E_COORD97":183141.79999999999,"N_COORD97":2569668.1499999999,"ADDRESS":"民權街１７７巷１３號","OBJECTID":411644},"geometry":{"x":183141.79999999981,"y":2569668.1500000004}},{"attributes":{"ID":411669,"DIS_CODE":0,"TOWNNAME":"六甲區","LI":"二甲里","LIN":"3鄰","STREET":"民權街","SECT":" ","MAREA":" ","LANE":"１７７巷","ALLEY":" ","HOUSE_NO":"１號","E_COORD97":183156.16,"N_COORD97":2569708.9100000001,"ADDRESS":"民權街１７７巷１號","OBJECTID":411645},"geometry":{"x":183156.16000000108,"y":2569708.9100000001}},{"attributes":{"ID":411670,"DIS_CODE":0,"TOWNNAME":"六甲區","LI":"二甲里","LIN":"3鄰","STREET":"民權街","SECT":" ","MAREA":" ","LANE":"１７７巷","ALLEY":" ","HOUSE_NO":"９號","E_COORD97":183149.51000000001,"N_COORD97":2569677.4900000002,"ADDRESS":"民權街１７７巷９號","OBJECTID":411646},"geometry":{"x":183149.51000000071,"y":2569677.4900000021}},{"attributes":{"ID":411671,"DIS_CODE":0,"TOWNNAME":"六甲區","LI":"甲東里","LIN":"3鄰","STREET":"忠孝街","SECT":" ","MAREA":" ","LANE":"２１７巷","ALLEY":" ","HOUSE_NO":"７號","E_COORD97":183957.92904300001,"N_COORD97":2570050.7200199999,"ADDRESS":"忠孝街２１７巷７號","OBJECTID":411647},"geometry":{"x":183957.92904299963,"y":2570050.7200189997}},{"attributes":{"ID":411672,"DIS_CODE":0,"TOWNNAME":"仁德區","LI":"後壁里","LIN":"38鄰","STREET":"德安路","SECT":" ","MAREA":" ","LANE":"４８巷","ALLEY":" ","HOUSE_NO":"２號","E_COORD97":173393.98999999999,"N_COORD97":2539178.8199999998,"ADDRESS":"德安路４８巷２號","OBJECTID":411648},"geometry":{"x":173393.98999999929,"y":2539178.8200000022}},{"attributes":{"ID":411673,"DIS_CODE":0,"TOWNNAME":"仁德區","LI":"成功里","LIN":"17鄰","STREET":"全福路","SECT":" ","MAREA":" ","LANE":"８０巷","ALLEY":" ","HOUSE_NO":"２３號","E_COORD97":171030.75,"N_COORD97":2539234.7400000002,"ADDRESS":"全福路８０巷２３號","OBJECTID":411649},"geometry":{"x":171030.75000000186,"y":2539234.7400000002}},{"attributes":{"ID":411674,"DIS_CODE":0,"TOWNNAME":"安平區","LI":"平通里","LIN":"3鄰","STREET":"平通路","SECT":" ","MAREA":" ","LANE":"５８０巷","ALLEY":" ","HOUSE_NO":"９４號","E_COORD97":164980.07999999999,"N_COORD97":2544169.6200000001,"ADDRESS":"平通路５８０巷９４號","OBJECTID":411650},"geometry":{"x":164980.08000000194,"y":2544169.620000001}},{"attributes":{"ID":411675,"DIS_CODE":0,"TOWNNAME":"新營區","LI":"民權里","LIN":"3鄰","STREET":"博愛街","SECT":" ","MAREA":" ","LANE":"２巷","ALLEY":" ","HOUSE_NO":"３號","E_COORD97":180006.20000000001,"N_COORD97":2578216.0800000001,"ADDRESS":"博愛街２巷３號","OBJECTID":411651},"geometry":{"x":180006.20000000112,"y":2578216.0800000019}},{"attributes":{"ID":411676,"DIS_CODE":0,"TOWNNAME":"新營區","LI":"興安里","LIN":"3鄰","STREET":"中興路","SECT":" ","MAREA":" ","LANE":"６６巷","ALLEY":" ","HOUSE_NO":"１１號","E_COORD97":179922.89000000001,"N_COORD97":2577442.3700000001,"ADDRESS":"中興路６６巷１１號","OBJECTID":411652},"geometry":{"x":179922.8900000006,"y":2577442.3700000029}},{"attributes":{"ID":411677,"DIS_CODE":0,"TOWNNAME":"仁德區","LI":"後壁里","LIN":"32鄰","STREET":"德洋路","SECT":" ","MAREA":" ","LANE":"２２７巷","ALLEY":" ","HOUSE_NO":"１８號","E_COORD97":172490.10000000001,"N_COORD97":2539559.5099999998,"ADDRESS":"德洋路２２７巷１８號","OBJECTID":411653},"geometry":{"x":172490.09999999963,"y":2539559.5100000016}},{"attributes":{"ID":411678,"DIS_CODE":0,"TOWNNAME":"新營區","LI":"興安里","LIN":"3鄰","STREET":"中興路","SECT":" ","MAREA":" ","LANE":"６８巷","ALLEY":" ","HOUSE_NO":"６號","E_COORD97":179884.70000000001,"N_COORD97":2577417.0800000001,"ADDRESS":"中興路６８巷６號","OBJECTID":411654},"geometry":{"x":179884.70000000019,"y":2577417.0800000019}},{"attributes":{"ID":411679,"DIS_CODE":0,"TOWNNAME":"新營區","LI":"興安里","LIN":"3鄰","STREET":"中興路","SECT":" ","MAREA":" ","LANE":"６６巷","ALLEY":" ","HOUSE_NO":"１３號","E_COORD97":179912.66,"N_COORD97":2577442.4199999999,"ADDRESS":"中興路６６巷１３號","OBJECTID":411655},"geometry":{"x":179912.66000000201,"y":2577442.4199999999}},{"attributes":{"ID":411680,"DIS_CODE":0,"TOWNNAME":"新營區","LI":"興業里","LIN":"3鄰","STREET":"公誠街","SECT":" ","MAREA":" ","LANE":"１７巷","ALLEY":" ","HOUSE_NO":"１之２號","E_COORD97":180313.17000000001,"N_COORD97":2577944.48,"ADDRESS":"公誠街１７巷１之２號","OBJECTID":411656},"geometry":{"x":180313.17000000086,"y":2577944.4800000004}},{"attributes":{"ID":411681,"DIS_CODE":0,"TOWNNAME":"新營區","LI":"新東里","LIN":"3鄰","STREET":"東大街","SECT":" ","MAREA":" ","LANE":"１２巷","ALLEY":" ","HOUSE_NO":"８號","E_COORD97":181030.89000000001,"N_COORD97":2579049.6200000001,"ADDRESS":"東大街１２巷８號","OBJECTID":411657},"geometry":{"x":181030.88999999873,"y":2579049.620000001}},{"attributes":{"ID":411682,"DIS_CODE":0,"TOWNNAME":"新營區","LI":"新東里","LIN":"3鄰","STREET":"東大街","SECT":" ","MAREA":" ","LANE":"１２巷","ALLEY":" ","HOUSE_NO":"９號","E_COORD97":181040.04000000001,"N_COORD97":2579058.4300000002,"ADDRESS":"東大街１２巷９號","OBJECTID":411658},"geometry":{"x":181040.04000000004,"y":2579058.4300000016}},{"attributes":{"ID":411683,"DIS_CODE":0,"TOWNNAME":"仁德區","LI":"新田里","LIN":"4鄰","STREET":"勝利一街","SECT":" ","MAREA":" ","LANE":"５８巷","ALLEY":" ","HOUSE_NO":"３號","E_COORD97":174031.51000000001,"N_COORD97":2539373.0099999998,"ADDRESS":"勝利一街５８巷３號","OBJECTID":411659},"geometry":{"x":174031.51000000071,"y":2539373.0100000016}},{"attributes":{"ID":411684,"DIS_CODE":0,"TOWNNAME":"仁德區","LI":"成功里","LIN":"7鄰","STREET":"保華路","SECT":" ","MAREA":" ","LANE":"１２９巷","ALLEY":" ","HOUSE_NO":"３７號","E_COORD97":171112.67999999999,"N_COORD97":2539931.9900000002,"ADDRESS":"保華路１２９巷３７號","OBJECTID":411660},"geometry":{"x":171112.68000000063,"y":2539931.9900000002}},{"attributes":{"ID":411685,"DIS_CODE":0,"TOWNNAME":"新營區","LI":"新東里","LIN":"3鄰","STREET":"東大街","SECT":" ","MAREA":" ","LANE":"１２巷","ALLEY":" ","HOUSE_NO":"１５號","E_COORD97":181054.60999999999,"N_COORD97":2579057.2599999998,"ADDRESS":"東大街１２巷１５號","OBJECTID":411661},"geometry":{"x":181054.61000000127,"y":2579057.2599999998}},{"attributes":{"ID":411686,"DIS_CODE":0,"TOWNNAME":"歸仁區","LI":"七甲里","LIN":"3鄰","STREET":"中正北路","SECT":"二段","MAREA":" ","LANE":"５０１巷","ALLEY":" ","HOUSE_NO":"７６號","E_COORD97":176811.16,"N_COORD97":2543243.2799999998,"ADDRESS":"中正北路二段５０１巷７６號","OBJECTID":411662},"geometry":{"x":176811.16000000108,"y":2543243.2800000012}},{"attributes":{"ID":411687,"DIS_CODE":0,"TOWNNAME":"歸仁區","LI":"七甲里","LIN":"3鄰","STREET":"中正北路","SECT":"二段","MAREA":" ","LANE":"５０１巷","ALLEY":" ","HOUSE_NO":"２５號","E_COORD97":177417.87,"N_COORD97":2543213.2599999998,"ADDRESS":"中正北路二段５０１巷２５號","OBJECTID":411663},"geometry":{"x":177417.87000000104,"y":2543213.2600000016}},{"attributes":{"ID":411688,"DIS_CODE":0,"TOWNNAME":"歸仁區","LI":"文化里","LIN":"3鄰","STREET":"國光街","SECT":" ","MAREA":" ","LANE":"１４３巷","ALLEY":" ","HOUSE_NO":"５號","E_COORD97":177318.53,"N_COORD97":2541204.3300000001,"ADDRESS":"國光街１４３巷５號","OBJECTID":411664},"geometry":{"x":177318.53000000119,"y":2541204.3300000001}},{"attributes":{"ID":411689,"DIS_CODE":0,"TOWNNAME":"歸仁區","LI":"七甲里","LIN":"3鄰","STREET":"中正北路","SECT":"二段","MAREA":" ","LANE":"５０１巷","ALLEY":" ","HOUSE_NO":"８１號","E_COORD97":176817.06,"N_COORD97":2543188.2799999998,"ADDRESS":"中正北路二段５０１巷８１號","OBJECTID":411665},"geometry":{"x":176817.05999999959,"y":2543188.2800000012}},{"attributes":{"ID":411690,"DIS_CODE":0,"TOWNNAME":"歸仁區","LI":"大廟里","LIN":"3鄰","STREET":"保大路","SECT":"三段","MAREA":" ","LANE":"５５巷","ALLEY":" ","HOUSE_NO":"１１號","E_COORD97":176366.67000000001,"N_COORD97":2544048.2799999998,"ADDRESS":"保大路三段５５巷１１號","OBJECTID":411666},"geometry":{"x":176366.67000000086,"y":2544048.2799999993}},{"attributes":{"ID":411691,"DIS_CODE":0,"TOWNNAME":"歸仁區","LI":"七甲里","LIN":"3鄰","STREET":"中正北路","SECT":"二段","MAREA":" ","LANE":"５１６巷","ALLEY":" ","HOUSE_NO":"４０號","E_COORD97":177520.47,"N_COORD97":2543234.2599999998,"ADDRESS":"中正北路二段５１６巷４０號","OBJECTID":411667},"geometry":{"x":177520.47000000067,"y":2543234.2599999998}},{"attributes":{"ID":411692,"DIS_CODE":0,"TOWNNAME":"歸仁區","LI":"七甲里","LIN":"3鄰","STREET":"中正北路","SECT":"二段","MAREA":" ","LANE":"５１６巷","ALLEY":" ","HOUSE_NO":"４２號","E_COORD97":177519.47,"N_COORD97":2543230.2599999998,"ADDRESS":"中正北路二段５１６巷４２號","OBJECTID":411668},"geometry":{"x":177519.46999999974,"y":2543230.2600000016}},{"attributes":{"ID":411693,"DIS_CODE":0,"TOWNNAME":"歸仁區","LI":"大廟里","LIN":"3鄰","STREET":"大廟三街","SECT":" ","MAREA":" ","LANE":"９４巷","ALLEY":" ","HOUSE_NO":"１７號","E_COORD97":176123.10000000001,"N_COORD97":2543859.1699999999,"ADDRESS":"大廟三街９４巷１７號","OBJECTID":411669},"geometry":{"x":176123.09999999963,"y":2543859.1699999999}},{"attributes":{"ID":411694,"DIS_CODE":0,"TOWNNAME":"歸仁區","LI":"大潭里","LIN":"3鄰","STREET":"大潭一街","SECT":" ","MAREA":" ","LANE":"６１巷","ALLEY":" ","HOUSE_NO":"１３號","E_COORD97":175362.32000000001,"N_COORD97":2534638.25,"ADDRESS":"大潭一街６１巷１３號","OBJECTID":411670},"geometry":{"x":175362.32000000123,"y":2534638.2500000037}},{"attributes":{"ID":411695,"DIS_CODE":0,"TOWNNAME":"歸仁區","LI":"大潭里","LIN":"3鄰","STREET":"大潭一街","SECT":" ","MAREA":" ","LANE":"５１巷","ALLEY":" ","HOUSE_NO":"４２號","E_COORD97":175373.82000000001,"N_COORD97":2534677.25,"ADDRESS":"大潭一街５１巷４２號","OBJECTID":411671},"geometry":{"x":175373.82000000123,"y":2534677.25}},{"attributes":{"ID":411696,"DIS_CODE":0,"TOWNNAME":"歸仁區","LI":"大潭里","LIN":"3鄰","STREET":"大潭一街","SECT":" ","MAREA":" ","LANE":"６１巷","ALLEY":" ","HOUSE_NO":"６號","E_COORD97":175301.47,"N_COORD97":2534613.25,"ADDRESS":"大潭一街６１巷６號","OBJECTID":411672},"geometry":{"x":175301.47000000067,"y":2534613.25}},{"attributes":{"ID":411697,"DIS_CODE":0,"TOWNNAME":"歸仁區","LI":"七甲里","LIN":"3鄰","STREET":"中正北路","SECT":"二段","MAREA":" ","LANE":"５０１巷","ALLEY":" ","HOUSE_NO":"２０號","E_COORD97":177431.37,"N_COORD97":2543252.2599999998,"ADDRESS":"中正北路二段５０１巷２０號","OBJECTID":411673},"geometry":{"x":177431.37000000104,"y":2543252.2599999998}},{"attributes":{"ID":411698,"DIS_CODE":0,"TOWNNAME":"歸仁區","LI":"大潭里","LIN":"3鄰","STREET":"大潭一街","SECT":" ","MAREA":" ","LANE":"６１巷","ALLEY":" ","HOUSE_NO":"５號","E_COORD97":175323.07000000001,"N_COORD97":2534639.25,"ADDRESS":"大潭一街６１巷５號","OBJECTID":411674},"geometry":{"x":175323.07000000123,"y":2534639.2500000019}},{"attributes":{"ID":411699,"DIS_CODE":0,"TOWNNAME":"北區","LI":"裕民里","LIN":"3鄰","STREET":"康樂街","SECT":" ","MAREA":" ","LANE":"４３５巷","ALLEY":" ","HOUSE_NO":"３號","E_COORD97":167722.62,"N_COORD97":2544685.98,"ADDRESS":"康樂街４３５巷３號","OBJECTID":411675},"geometry":{"x":167722.61999999918,"y":2544685.9800000042}},{"attributes":{"ID":411700,"DIS_CODE":0,"TOWNNAME":"北區","LI":"文元里","LIN":"3鄰","STREET":"文賢路","SECT":" ","MAREA":" ","LANE":"１１２２巷","ALLEY":" ","HOUSE_NO":"８７號之３","E_COORD97":167577.62,"N_COORD97":2546428.1800000002,"ADDRESS":"文賢路１１２２巷８７號之３","OBJECTID":411676},"geometry":{"x":167577.62000000104,"y":2546428.1800000016}},{"attributes":{"ID":411701,"DIS_CODE":0,"TOWNNAME":"北區","LI":"文元里","LIN":"3鄰","STREET":"中華北路","SECT":"二段","MAREA":" ","LANE":"８０巷","ALLEY":" ","HOUSE_NO":"６３號","E_COORD97":167728.51000000001,"N_COORD97":2546452.4900000002,"ADDRESS":"中華北路二段８０巷６３號","OBJECTID":411677},"geometry":{"x":167728.51000000071,"y":2546452.4900000021}},{"attributes":{"ID":411702,"DIS_CODE":0,"TOWNNAME":"北區","LI":"文元里","LIN":"3鄰","STREET":"文賢路","SECT":" ","MAREA":" ","LANE":"１１２２巷","ALLEY":" ","HOUSE_NO":"１３６號","E_COORD97":167665.51000000001,"N_COORD97":2546351.9199999999,"ADDRESS":"文賢路１１２２巷１３６號","OBJECTID":411678},"geometry":{"x":167665.51000000164,"y":2546351.9200000018}},{"attributes":{"ID":411703,"DIS_CODE":0,"TOWNNAME":"北區","LI":"文元里","LIN":"3鄰","STREET":"文賢路","SECT":" ","MAREA":" ","LANE":"１１２２巷","ALLEY":" ","HOUSE_NO":"１３８號","E_COORD97":167671.48999999999,"N_COORD97":2546349.6299999999,"ADDRESS":"文賢路１１２２巷１３８號","OBJECTID":411679},"geometry":{"x":167671.49000000115,"y":2546349.6300000008}},{"attributes":{"ID":411704,"DIS_CODE":0,"TOWNNAME":"北區","LI":"文元里","LIN":"3鄰","STREET":"文賢路","SECT":" ","MAREA":" ","LANE":"１１２２巷","ALLEY":" ","HOUSE_NO":"１４０號","E_COORD97":167676.41,"N_COORD97":2546351.7400000002,"ADDRESS":"文賢路１１２２巷１４０號","OBJECTID":411680},"geometry":{"x":167676.41000000015,"y":2546351.7400000002}},{"attributes":{"ID":411705,"DIS_CODE":0,"TOWNNAME":"北區","LI":"文元里","LIN":"3鄰","STREET":"文賢路","SECT":" ","MAREA":" ","LANE":"１１２２巷","ALLEY":" ","HOUSE_NO":"１４２號","E_COORD97":167681.67999999999,"N_COORD97":2546349.9900000002,"ADDRESS":"文賢路１１２２巷１４２號","OBJECTID":411681},"geometry":{"x":167681.68000000063,"y":2546349.9900000002}},{"attributes":{"ID":411706,"DIS_CODE":0,"TOWNNAME":"北區","LI":"文元里","LIN":"3鄰","STREET":"文賢路","SECT":" ","MAREA":" ","LANE":"１１２２巷","ALLEY":" ","HOUSE_NO":"８７之１號","E_COORD97":167578.51000000001,"N_COORD97":2546424.1200000001,"ADDRESS":"文賢路１１２２巷８７之１號","OBJECTID":411682},"geometry":{"x":167578.50999999978,"y":2546424.120000001}},{"attributes":{"ID":411707,"DIS_CODE":0,"TOWNNAME":"仁德區","LI":"成功里","LIN":"20鄰","STREET":"保生路","SECT":" ","MAREA":" ","LANE":"８９巷","ALLEY":" ","HOUSE_NO":"１號","E_COORD97":170664.92000000001,"N_COORD97":2539780.25,"ADDRESS":"保生路８９巷１號","OBJECTID":411683},"geometry":{"x":170664.91999999899,"y":2539780.25}},{"attributes":{"ID":411708,"DIS_CODE":0,"TOWNNAME":"仁德區","LI":"田厝里","LIN":"1鄰","STREET":"保安路","SECT":"二段","MAREA":" ","LANE":"６３０巷","ALLEY":" ","HOUSE_NO":"３７號","E_COORD97":172801.28,"N_COORD97":2537490.5600000001,"ADDRESS":"保安路二段６３０巷３７號","OBJECTID":411684},"geometry":{"x":172801.28000000119,"y":2537490.5600000005}},{"attributes":{"ID":411709,"DIS_CODE":0,"TOWNNAME":"柳營區","LI":"大農里","LIN":"3鄰","STREET":"義士路","SECT":"一段","MAREA":" ","LANE":"２６２巷","ALLEY":" ","HOUSE_NO":"１２３號","E_COORD97":186107.17999999999,"N_COORD97":2575827.1600000001,"ADDRESS":"義士路一段２６２巷１２３號","OBJECTID":411685},"geometry":{"x":186107.1799999997,"y":2575827.1600000001}},{"attributes":{"ID":411710,"DIS_CODE":0,"TOWNNAME":"柳營區","LI":"大農里","LIN":"3鄰","STREET":"義士路","SECT":"一段","MAREA":" ","LANE":"２６２巷","ALLEY":" ","HOUSE_NO":"１４０號","E_COORD97":186133.07999999999,"N_COORD97":2575869.1099999999,"ADDRESS":"義士路一段２６２巷１４０號","OBJECTID":411686},"geometry":{"x":186133.08000000101,"y":2575869.1100000013}},{"attributes":{"ID":411711,"DIS_CODE":0,"TOWNNAME":"仁德區","LI":"田厝里","LIN":"1鄰","STREET":"保安路","SECT":"二段","MAREA":" ","LANE":"６３０巷","ALLEY":" ","HOUSE_NO":"４３號","E_COORD97":172802.87,"N_COORD97":2537478.3100000001,"ADDRESS":"保安路二段６３０巷４３號","OBJECTID":411687},"geometry":{"x":172802.87000000011,"y":2537478.3100000005}},{"attributes":{"ID":411712,"DIS_CODE":0,"TOWNNAME":"仁德區","LI":"成功里","LIN":"21鄰","STREET":"保生路","SECT":" ","MAREA":" ","LANE":"６３巷","ALLEY":" ","HOUSE_NO":"１０號","E_COORD97":170738.17000000001,"N_COORD97":2539757.7400000002,"ADDRESS":"保生路６３巷１０號","OBJECTID":411688},"geometry":{"x":170738.17000000086,"y":2539757.7400000039}},{"attributes":{"ID":411713,"DIS_CODE":0,"TOWNNAME":"仁德區","LI":"成功里","LIN":"21鄰","STREET":"保生路","SECT":" ","MAREA":" ","LANE":"６５巷","ALLEY":" ","HOUSE_NO":"４號","E_COORD97":170713.63,"N_COORD97":2539783.75,"ADDRESS":"保生路６５巷４號","OBJECTID":411689},"geometry":{"x":170713.62999999989,"y":2539783.75}},{"attributes":{"ID":411714,"DIS_CODE":0,"TOWNNAME":"柳營區","LI":"大農里","LIN":"3鄰","STREET":"義士路","SECT":"一段","MAREA":" ","LANE":"２６２巷","ALLEY":" ","HOUSE_NO":"１４３號","E_COORD97":186071.76000000001,"N_COORD97":2575810.3799999999,"ADDRESS":"義士路一段２６２巷１４３號","OBJECTID":411690},"geometry":{"x":186071.76000000164,"y":2575810.3800000008}},{"attributes":{"ID":411715,"DIS_CODE":0,"TOWNNAME":"柳營區","LI":"大農里","LIN":"3鄰","STREET":"義士路","SECT":"一段","MAREA":" ","LANE":"２６２巷","ALLEY":" ","HOUSE_NO":"１４７號","E_COORD97":186079.84,"N_COORD97":2575799.2400000002,"ADDRESS":"義士路一段２６２巷１４７號","OBJECTID":411691},"geometry":{"x":186079.84000000171,"y":2575799.2400000002}},{"attributes":{"ID":411716,"DIS_CODE":0,"TOWNNAME":"柳營區","LI":"大農里","LIN":"3鄰","STREET":"義士路","SECT":"一段","MAREA":" ","LANE":"２６２巷","ALLEY":" ","HOUSE_NO":"１５０號","E_COORD97":186129.85999999999,"N_COORD97":2575856.7799999998,"ADDRESS":"義士路一段２６２巷１５０號","OBJECTID":411692},"geometry":{"x":186129.86000000127,"y":2575856.7799999993}},{"attributes":{"ID":411717,"DIS_CODE":0,"TOWNNAME":"柳營區","LI":"大農里","LIN":"3鄰","STREET":"義士路","SECT":"一段","MAREA":" ","LANE":"３８６巷","ALLEY":" ","HOUSE_NO":"８號","E_COORD97":186141.76000000001,"N_COORD97":2575774.98,"ADDRESS":"義士路一段３８６巷８號","OBJECTID":411693},"geometry":{"x":186141.76000000071,"y":2575774.9800000004}},{"attributes":{"ID":411718,"DIS_CODE":0,"TOWNNAME":"北區","LI":"文元里","LIN":"3鄰","STREET":"文賢三街","SECT":" ","MAREA":" ","LANE":"３３７巷","ALLEY":" ","HOUSE_NO":"４５號","E_COORD97":167678.20000000001,"N_COORD97":2546296.5600000001,"ADDRESS":"文賢三街３３７巷４５號","OBJECTID":411694},"geometry":{"x":167678.20000000205,"y":2546296.5600000024}},{"attributes":{"ID":411719,"DIS_CODE":0,"TOWNNAME":"東區","LI":"大智里","LIN":"40鄰","STREET":"文東街","SECT":" ","MAREA":" ","LANE":"２巷","ALLEY":" ","HOUSE_NO":"４號","E_COORD97":171332.72,"N_COORD97":2540119.21,"ADDRESS":"文東街２巷４號","OBJECTID":411695},"geometry":{"x":171332.72000000067,"y":2540119.2100000028}},{"attributes":{"ID":411720,"DIS_CODE":0,"TOWNNAME":"北區","LI":"興南里","LIN":"3鄰","STREET":"公園路","SECT":" ","MAREA":" ","LANE":"３２１巷","ALLEY":" ","HOUSE_NO":"１號","E_COORD97":169033.45999999999,"N_COORD97":2544938.1099999999,"ADDRESS":"公園路３２１巷１號","OBJECTID":411696},"geometry":{"x":169033.45999999996,"y":2544938.1099999975}},{"attributes":{"ID":411721,"DIS_CODE":0,"TOWNNAME":"北區","LI":"興南里","LIN":"3鄰","STREET":"公園路","SECT":" ","MAREA":" ","LANE":"２９５巷","ALLEY":" ","HOUSE_NO":"１０號","E_COORD97":168969.41,"N_COORD97":2544881.1200000001,"ADDRESS":"公園路２９５巷１０號","OBJECTID":411697},"geometry":{"x":168969.41000000015,"y":2544881.120000001}},{"attributes":{"ID":411722,"DIS_CODE":0,"TOWNNAME":"北區","LI":"興南里","LIN":"3鄰","STREET":"公園路","SECT":" ","MAREA":" ","LANE":"２９５巷","ALLEY":" ","HOUSE_NO":"１２號","E_COORD97":168966.95999999999,"N_COORD97":2544886.21,"ADDRESS":"公園路２９５巷１２號","OBJECTID":411698},"geometry":{"x":168966.96000000089,"y":2544886.2100000028}},{"attributes":{"ID":411723,"DIS_CODE":0,"TOWNNAME":"北區","LI":"興南里","LIN":"3鄰","STREET":"公園路","SECT":" ","MAREA":" ","LANE":"２９５巷","ALLEY":" ","HOUSE_NO":"１４號","E_COORD97":168954.69,"N_COORD97":2544899.9700000002,"ADDRESS":"公園路２９５巷１４號","OBJECTID":411699},"geometry":{"x":168954.69000000041,"y":2544899.9700000044}},{"attributes":{"ID":411724,"DIS_CODE":0,"TOWNNAME":"北區","LI":"興南里","LIN":"3鄰","STREET":"公園路","SECT":" ","MAREA":" ","LANE":"２９５巷","ALLEY":" ","HOUSE_NO":"１６號","E_COORD97":168956.94,"N_COORD97":2544909.9900000002,"ADDRESS":"公園路２９５巷１６號","OBJECTID":411700},"geometry":{"x":168956.94000000134,"y":2544909.9900000021}},{"attributes":{"ID":411725,"DIS_CODE":0,"TOWNNAME":"北區","LI":"興南里","LIN":"3鄰","STREET":"公園路","SECT":" ","MAREA":" ","LANE":"２９５巷","ALLEY":" ","HOUSE_NO":"１８號","E_COORD97":168965.22,"N_COORD97":2544906.8599999999,"ADDRESS":"公園路２９５巷１８號","OBJECTID":411701},"geometry":{"x":168965.21999999974,"y":2544906.8600000013}},{"attributes":{"ID":411726,"DIS_CODE":0,"TOWNNAME":"北區","LI":"興南里","LIN":"3鄰","STREET":"公園路","SECT":" ","MAREA":" ","LANE":"２９５巷","ALLEY":" ","HOUSE_NO":"２０號","E_COORD97":168972.16,"N_COORD97":2544908.77,"ADDRESS":"公園路２９５巷２０號","OBJECTID":411702},"geometry":{"x":168972.16000000108,"y":2544908.7699999996}},{"attributes":{"ID":411727,"DIS_CODE":0,"TOWNNAME":"北區","LI":"興南里","LIN":"3鄰","STREET":"公園路","SECT":" ","MAREA":" ","LANE":"２９５巷","ALLEY":" ","HOUSE_NO":"２２號","E_COORD97":168992.41,"N_COORD97":2544906.4300000002,"ADDRESS":"公園路２９５巷２２號","OBJECTID":411703},"geometry":{"x":168992.41000000108,"y":2544906.4300000016}},{"attributes":{"ID":411728,"DIS_CODE":0,"TOWNNAME":"北區","LI":"興南里","LIN":"3鄰","STREET":"公園路","SECT":" ","MAREA":" ","LANE":"２９５巷","ALLEY":" ","HOUSE_NO":"２４號","E_COORD97":168993.63,"N_COORD97":2544910.9399999999,"ADDRESS":"公園路２９５巷２４號","OBJECTID":411704},"geometry":{"x":168993.62999999989,"y":2544910.9399999995}},{"attributes":{"ID":411729,"DIS_CODE":0,"TOWNNAME":"北區","LI":"興南里","LIN":"3鄰","STREET":"公園路","SECT":" ","MAREA":" ","LANE":"２９５巷","ALLEY":" ","HOUSE_NO":"２６號","E_COORD97":168994.45000000001,"N_COORD97":2544914.21,"ADDRESS":"公園路２９５巷２６號","OBJECTID":411705},"geometry":{"x":168994.45000000112,"y":2544914.2100000009}},{"attributes":{"ID":411730,"DIS_CODE":0,"TOWNNAME":"北區","LI":"興南里","LIN":"3鄰","STREET":"公園路","SECT":" ","MAREA":" ","LANE":"２９５巷","ALLEY":" ","HOUSE_NO":"２８號","E_COORD97":168994.57999999999,"N_COORD97":2544917.7400000002,"ADDRESS":"公園路２９５巷２８號","OBJECTID":411706},"geometry":{"x":168994.58000000101,"y":2544917.7399999984}},{"attributes":{"ID":411731,"DIS_CODE":0,"TOWNNAME":"北區","LI":"興南里","LIN":"3鄰","STREET":"公園路","SECT":" ","MAREA":" ","LANE":"２９５巷","ALLEY":" ","HOUSE_NO":"２號","E_COORD97":168978.62,"N_COORD97":2544855.71,"ADDRESS":"公園路２９５巷２號","OBJECTID":411707},"geometry":{"x":168978.62000000011,"y":2544855.7100000028}},{"attributes":{"ID":411732,"DIS_CODE":0,"TOWNNAME":"仁德區","LI":"後壁里","LIN":"22鄰","STREET":"中正路","SECT":"二段","MAREA":" ","LANE":"１８７巷","ALLEY":" ","HOUSE_NO":"１３號","E_COORD97":173168.38,"N_COORD97":2538658.7799999998,"ADDRESS":"中正路二段１８７巷１３號","OBJECTID":411708},"geometry":{"x":173168.37999999989,"y":2538658.7800000012}},{"attributes":{"ID":411733,"DIS_CODE":0,"TOWNNAME":"北區","LI":"興南里","LIN":"3鄰","STREET":"公園路","SECT":" ","MAREA":" ","LANE":"２９５巷","ALLEY":" ","HOUSE_NO":"３２號","E_COORD97":168980.32000000001,"N_COORD97":2544921.1400000001,"ADDRESS":"公園路２９５巷３２號","OBJECTID":411709},"geometry":{"x":168980.3200000003,"y":2544921.1400000006}},{"attributes":{"ID":411734,"DIS_CODE":0,"TOWNNAME":"北區","LI":"興南里","LIN":"3鄰","STREET":"公園路","SECT":" ","MAREA":" ","LANE":"２９５巷","ALLEY":" ","HOUSE_NO":"３６號之１","E_COORD97":168959.26000000001,"N_COORD97":2544918.0099999998,"ADDRESS":"公園路２９５巷３６號之１","OBJECTID":411710},"geometry":{"x":168959.26000000071,"y":2544918.0099999998}},{"attributes":{"ID":411735,"DIS_CODE":0,"TOWNNAME":"北區","LI":"興南里","LIN":"3鄰","STREET":"公園路","SECT":" ","MAREA":" ","LANE":"２９５巷","ALLEY":" ","HOUSE_NO":"３６號之２","E_COORD97":168959.94,"N_COORD97":2544921.54,"ADDRESS":"公園路２９５巷３６號之２","OBJECTID":411711},"geometry":{"x":168959.93999999948,"y":2544921.5400000028}},{"attributes":{"ID":411736,"DIS_CODE":0,"TOWNNAME":"麻豆區","LI":"大埕里","LIN":"8鄰","STREET":" ","SECT":" ","MAREA":"大埕","LANE":" ","ALLEY":" ","HOUSE_NO":"１５號之１８","E_COORD97":173174.91255000001,"N_COORD97":2565335.11467,"ADDRESS":"大埕１５號之１８","OBJECTID":411712},"geometry":{"x":173174.91255000141,"y":2565335.1146700028}},{"attributes":{"ID":411737,"DIS_CODE":0,"TOWNNAME":"北區","LI":"興南里","LIN":"3鄰","STREET":"公園路","SECT":" ","MAREA":" ","LANE":"２９５巷","ALLEY":" ","HOUSE_NO":"３８號","E_COORD97":168962.92999999999,"N_COORD97":2544928.0699999998,"ADDRESS":"公園路２９５巷３８號","OBJECTID":411713},"geometry":{"x":168962.93000000063,"y":2544928.0700000003}},{"attributes":{"ID":411738,"DIS_CODE":0,"TOWNNAME":"北區","LI":"興南里","LIN":"3鄰","STREET":"公園路","SECT":" ","MAREA":" ","LANE":"２９５巷","ALLEY":" ","HOUSE_NO":"４０號","E_COORD97":168971.5,"N_COORD97":2544935.9500000002,"ADDRESS":"公園路２９５巷４０號","OBJECTID":411714},"geometry":{"x":168971.50000000093,"y":2544935.950000003}},{"attributes":{"ID":411739,"DIS_CODE":0,"TOWNNAME":"北區","LI":"興南里","LIN":"3鄰","STREET":"公園路","SECT":" ","MAREA":" ","LANE":"２９５巷","ALLEY":" ","HOUSE_NO":"４２號","E_COORD97":168963.20000000001,"N_COORD97":2544934.46,"ADDRESS":"公園路２９５巷４２號","OBJECTID":411715},"geometry":{"x":168963.20000000205,"y":2544934.4600000028}},{"attributes":{"ID":411740,"DIS_CODE":0,"TOWNNAME":"鹽水區","LI":"水仙里","LIN":"3鄰","STREET":"中山路","SECT":" ","MAREA":" ","LANE":"３巷","ALLEY":" ","HOUSE_NO":"１４號","E_COORD97":175056.88,"N_COORD97":2579789.4199999999,"ADDRESS":"中山路３巷１４號","OBJECTID":411716},"geometry":{"x":175056.87999999989,"y":2579789.4199999999}},{"attributes":{"ID":411741,"DIS_CODE":0,"TOWNNAME":"北區","LI":"興南里","LIN":"3鄰","STREET":"公園路","SECT":" ","MAREA":" ","LANE":"２９５巷","ALLEY":" ","HOUSE_NO":"４２號之１","E_COORD97":168964.01999999999,"N_COORD97":2544938.9399999999,"ADDRESS":"公園路２９５巷４２號之１","OBJECTID":411717},"geometry":{"x":168964.02000000048,"y":2544938.9399999995}},{"attributes":{"ID":411742,"DIS_CODE":0,"TOWNNAME":"北區","LI":"興南里","LIN":"3鄰","STREET":"公園路","SECT":" ","MAREA":" ","LANE":"２９５巷","ALLEY":" ","HOUSE_NO":"４２號之２","E_COORD97":168965.51000000001,"N_COORD97":2544948.46,"ADDRESS":"公園路２９５巷４２號之２","OBJECTID":411718},"geometry":{"x":168965.50999999978,"y":2544948.4600000028}},{"attributes":{"ID":411743,"DIS_CODE":0,"TOWNNAME":"北區","LI":"興南里","LIN":"3鄰","STREET":"公園路","SECT":" ","MAREA":" ","LANE":"２９５巷","ALLEY":" ","HOUSE_NO":"４號","E_COORD97":168971.67000000001,"N_COORD97":2544868.6800000002,"ADDRESS":"公園路２９５巷４號","OBJECTID":411719},"geometry":{"x":168971.67000000086,"y":2544868.6799999997}},{"attributes":{"ID":411744,"DIS_CODE":0,"TOWNNAME":"北區","LI":"興南里","LIN":"3鄰","STREET":"公園路","SECT":" ","MAREA":" ","LANE":"２９５巷","ALLEY":" ","HOUSE_NO":"６號","E_COORD97":168971.10999999999,"N_COORD97":2544872.0699999998,"ADDRESS":"公園路２９５巷６號","OBJECTID":411720},"geometry":{"x":168971.11000000127,"y":2544872.0700000022}},{"attributes":{"ID":411745,"DIS_CODE":0,"TOWNNAME":"北區","LI":"興南里","LIN":"3鄰","STREET":"公園路","SECT":" ","MAREA":" ","LANE":"２９５巷","ALLEY":" ","HOUSE_NO":"８號","E_COORD97":168969.79000000001,"N_COORD97":2544877.1600000001,"ADDRESS":"公園路２９５巷８號","OBJECTID":411721},"geometry":{"x":168969.79000000097,"y":2544877.1600000001}},{"attributes":{"ID":411746,"DIS_CODE":0,"TOWNNAME":"北區","LI":"興南里","LIN":"3鄰","STREET":"公園路","SECT":" ","MAREA":" ","LANE":"３２１巷","ALLEY":" ","HOUSE_NO":"１１號","E_COORD97":168973.26999999999,"N_COORD97":2544953.0800000001,"ADDRESS":"公園路３２１巷１１號","OBJECTID":411722},"geometry":{"x":168973.26999999955,"y":2544953.0800000019}},{"attributes":{"ID":411747,"DIS_CODE":0,"TOWNNAME":"北區","LI":"興南里","LIN":"3鄰","STREET":"公園路","SECT":" ","MAREA":" ","LANE":"３２１巷","ALLEY":" ","HOUSE_NO":"３號","E_COORD97":169000.57000000001,"N_COORD97":2544937.23,"ADDRESS":"公園路３２１巷３號","OBJECTID":411723},"geometry":{"x":169000.5700000003,"y":2544937.2300000004}},{"attributes":{"ID":411748,"DIS_CODE":0,"TOWNNAME":"北區","LI":"興南里","LIN":"3鄰","STREET":"公園路","SECT":" ","MAREA":" ","LANE":"３２１巷","ALLEY":" ","HOUSE_NO":"３號之１","E_COORD97":168998.67000000001,"N_COORD97":2544937.9100000001,"ADDRESS":"公園路３２１巷３號之１","OBJECTID":411724},"geometry":{"x":168998.67000000179,"y":2544937.910000002}},{"attributes":{"ID":411749,"DIS_CODE":0,"TOWNNAME":"北區","LI":"興南里","LIN":"3鄰","STREET":"公園路","SECT":" ","MAREA":" ","LANE":"３２１巷","ALLEY":" ","HOUSE_NO":"３號之２","E_COORD97":168996.62,"N_COORD97":2544938.4500000002,"ADDRESS":"公園路３２１巷３號之２","OBJECTID":411725},"geometry":{"x":168996.62000000104,"y":2544938.4499999993}},{"attributes":{"ID":411750,"DIS_CODE":0,"TOWNNAME":"北區","LI":"興南里","LIN":"3鄰","STREET":"公園路","SECT":" ","MAREA":" ","LANE":"３２１巷","ALLEY":" ","HOUSE_NO":"５號","E_COORD97":168994.04000000001,"N_COORD97":2544944.4300000002,"ADDRESS":"公園路３２１巷５號","OBJECTID":411726},"geometry":{"x":168994.04000000004,"y":2544944.4300000016}},{"attributes":{"ID":411751,"DIS_CODE":0,"TOWNNAME":"北區","LI":"興南里","LIN":"3鄰","STREET":"公園路","SECT":" ","MAREA":" ","LANE":"３２１巷","ALLEY":" ","HOUSE_NO":"７號","E_COORD97":168985.32999999999,"N_COORD97":2544948.9199999999,"ADDRESS":"公園路３２１巷７號","OBJECTID":411727},"geometry":{"x":168985.33000000007,"y":2544948.9199999999}},{"attributes":{"ID":411752,"DIS_CODE":0,"TOWNNAME":"北區","LI":"興南里","LIN":"3鄰","STREET":"公園路","SECT":" ","MAREA":" ","LANE":"３２１巷","ALLEY":" ","HOUSE_NO":"９號","E_COORD97":168981.51999999999,"N_COORD97":2544933.5600000001,"ADDRESS":"公園路３２１巷９號","OBJECTID":411728},"geometry":{"x":168981.51999999955,"y":2544933.5600000024}},{"attributes":{"ID":411753,"DIS_CODE":0,"TOWNNAME":"歸仁區","LI":"大潭里","LIN":"3鄰","STREET":"大潭一街","SECT":" ","MAREA":" ","LANE":"５１巷","ALLEY":" ","HOUSE_NO":"６６號","E_COORD97":175314.42000000001,"N_COORD97":2534696.25,"ADDRESS":"大潭一街５１巷６６號","OBJECTID":411729},"geometry":{"x":175314.41999999993,"y":2534696.2500000019}},{"attributes":{"ID":411754,"DIS_CODE":0,"TOWNNAME":"仁德區","LI":"後壁里","LIN":"30鄰","STREET":"德洋一街","SECT":" ","MAREA":" ","LANE":"３７巷","ALLEY":" ","HOUSE_NO":"１２號","E_COORD97":173086.26000000001,"N_COORD97":2539202.02,"ADDRESS":"德洋一街３７巷１２號","OBJECTID":411730},"geometry":{"x":173086.25999999978,"y":2539202.0199999996}},{"attributes":{"ID":411755,"DIS_CODE":0,"TOWNNAME":"仁德區","LI":"成功里","LIN":"12鄰","STREET":"成功二街","SECT":" ","MAREA":" ","LANE":"６巷","ALLEY":" ","HOUSE_NO":"２４號","E_COORD97":170866.04000000001,"N_COORD97":2539994.02,"ADDRESS":"成功二街６巷２４號","OBJECTID":411731},"geometry":{"x":170866.0400000019,"y":2539994.0200000014}},{"attributes":{"ID":411756,"DIS_CODE":0,"TOWNNAME":"歸仁區","LI":"南興里","LIN":"3鄰","STREET":"文化十二街","SECT":" ","MAREA":" ","LANE":"７１巷","ALLEY":" ","HOUSE_NO":"２號","E_COORD97":176465.98999999999,"N_COORD97":2541347.3300000001,"ADDRESS":"文化十二街７１巷２號","OBJECTID":411732},"geometry":{"x":176465.99000000115,"y":2541347.3300000038}},{"attributes":{"ID":411757,"DIS_CODE":0,"TOWNNAME":"歸仁區","LI":"西埔里","LIN":"3鄰","STREET":"保大路","SECT":"二段","MAREA":" ","LANE":"１１１巷","ALLEY":" ","HOUSE_NO":"３２號","E_COORD97":177020.01999999999,"N_COORD97":2544043.2799999998,"ADDRESS":"保大路二段１１１巷３２號","OBJECTID":411733},"geometry":{"x":177020.02000000048,"y":2544043.2800000012}},{"attributes":{"ID":411758,"DIS_CODE":0,"TOWNNAME":"歸仁區","LI":"南興里","LIN":"3鄰","STREET":"文化十二街","SECT":" ","MAREA":" ","LANE":"７１巷","ALLEY":" ","HOUSE_NO":"５號","E_COORD97":176434.19,"N_COORD97":2541336.3300000001,"ADDRESS":"文化十二街７１巷５號","OBJECTID":411734},"geometry":{"x":176434.19000000227,"y":2541336.3300000001}},{"attributes":{"ID":411759,"DIS_CODE":0,"TOWNNAME":"歸仁區","LI":"七甲里","LIN":"3鄰","STREET":"中正北路","SECT":"二段","MAREA":" ","LANE":"５１６巷","ALLEY":" ","HOUSE_NO":"３２之１號","E_COORD97":177525.17000000001,"N_COORD97":2543248.27,"ADDRESS":"中正北路二段５１６巷３２之１號","OBJECTID":411735},"geometry":{"x":177525.16999999993,"y":2543248.2699999996}},{"attributes":{"ID":411760,"DIS_CODE":0,"TOWNNAME":"歸仁區","LI":"西埔里","LIN":"3鄰","STREET":"西埔三街","SECT":" ","MAREA":" ","LANE":"５１巷","ALLEY":" ","HOUSE_NO":"９５號","E_COORD97":177135.47,"N_COORD97":2543987.25,"ADDRESS":"西埔三街５１巷９５號","OBJECTID":411736},"geometry":{"x":177135.47000000067,"y":2543987.25}},{"attributes":{"ID":411761,"DIS_CODE":0,"TOWNNAME":"歸仁區","LI":"西埔里","LIN":"3鄰","STREET":"西埔三街","SECT":" ","MAREA":" ","LANE":"５１巷","ALLEY":" ","HOUSE_NO":"４１號","E_COORD97":176987.48999999999,"N_COORD97":2543991.25,"ADDRESS":"西埔三街５１巷４１號","OBJECTID":411737},"geometry":{"x":176987.49000000022,"y":2543991.25}},{"attributes":{"ID":411762,"DIS_CODE":0,"TOWNNAME":"歸仁區","LI":"文化里","LIN":"3鄰","STREET":"國光街","SECT":" ","MAREA":" ","LANE":"１４３巷","ALLEY":" ","HOUSE_NO":"１７號","E_COORD97":177291.07999999999,"N_COORD97":2541207.3300000001,"ADDRESS":"國光街１４３巷１７號","OBJECTID":411738},"geometry":{"x":177291.08000000101,"y":2541207.3300000001}},{"attributes":{"ID":411763,"DIS_CODE":0,"TOWNNAME":"歸仁區","LI":"西埔里","LIN":"3鄰","STREET":"保大路","SECT":"二段","MAREA":" ","LANE":"１４５巷","ALLEY":" ","HOUSE_NO":"３３號","E_COORD97":176943.92000000001,"N_COORD97":2543998.2799999998,"ADDRESS":"保大路二段１４５巷３３號","OBJECTID":411739},"geometry":{"x":176943.91999999899,"y":2543998.2800000012}},{"attributes":{"ID":411764,"DIS_CODE":0,"TOWNNAME":"歸仁區","LI":"武東里","LIN":"3鄰","STREET":"武東二街","SECT":" ","MAREA":" ","LANE":"２６巷","ALLEY":" ","HOUSE_NO":"２０號","E_COORD97":175466.09,"N_COORD97":2535293.25,"ADDRESS":"武東二街２６巷２０號","OBJECTID":411740},"geometry":{"x":175466.08999999985,"y":2535293.2500000019}},{"attributes":{"ID":411765,"DIS_CODE":0,"TOWNNAME":"仁德區","LI":"後壁里","LIN":"41鄰","STREET":"德善路","SECT":" ","MAREA":" ","LANE":"２７３巷","ALLEY":" ","HOUSE_NO":"２號","E_COORD97":173927.17000000001,"N_COORD97":2538660.52,"ADDRESS":"德善路２７３巷２號","OBJECTID":411741},"geometry":{"x":173927.17000000086,"y":2538660.5200000014}},{"attributes":{"ID":411766,"DIS_CODE":0,"TOWNNAME":"歸仁區","LI":"武東里","LIN":"3鄰","STREET":"武東二街","SECT":" ","MAREA":" ","LANE":"２０巷","ALLEY":" ","HOUSE_NO":"７號","E_COORD97":175463.94,"N_COORD97":2535331.25,"ADDRESS":"武東二街２０巷７號","OBJECTID":411742},"geometry":{"x":175463.94000000041,"y":2535331.2500000019}},{"attributes":{"ID":411767,"DIS_CODE":0,"TOWNNAME":"歸仁區","LI":"南興里","LIN":"3鄰","STREET":"文化十二街","SECT":" ","MAREA":" ","LANE":"７１巷","ALLEY":" ","HOUSE_NO":"１０號","E_COORD97":176454.94,"N_COORD97":2541347.3300000001,"ADDRESS":"文化十二街７１巷１０號","OBJECTID":411743},"geometry":{"x":176454.94000000134,"y":2541347.3300000038}},{"attributes":{"ID":411768,"DIS_CODE":0,"TOWNNAME":"歸仁區","LI":"南興里","LIN":"3鄰","STREET":"文化十二街","SECT":" ","MAREA":" ","LANE":"７１巷","ALLEY":" ","HOUSE_NO":"１６號","E_COORD97":176443.73999999999,"N_COORD97":2541347.3300000001,"ADDRESS":"文化十二街７１巷１６號","OBJECTID":411744},"geometry":{"x":176443.74000000209,"y":2541347.3300000038}},{"attributes":{"ID":411769,"DIS_CODE":0,"TOWNNAME":"歸仁區","LI":"南興里","LIN":"3鄰","STREET":"文化十二街","SECT":" ","MAREA":" ","LANE":"７１巷","ALLEY":" ","HOUSE_NO":"７號","E_COORD97":176430.09,"N_COORD97":2541336.3300000001,"ADDRESS":"文化十二街７１巷７號","OBJECTID":411745},"geometry":{"x":176430.08999999985,"y":2541336.3300000001}},{"attributes":{"ID":411770,"DIS_CODE":0,"TOWNNAME":"仁德區","LI":"土庫里","LIN":"19鄰","STREET":"太子二街","SECT":" ","MAREA":" ","LANE":"８８巷","ALLEY":" ","HOUSE_NO":"５０號","E_COORD97":174391.79000000001,"N_COORD97":2543178.5,"ADDRESS":"太子二街８８巷５０號","OBJECTID":411746},"geometry":{"x":174391.79000000004,"y":2543178.5}},{"attributes":{"ID":411771,"DIS_CODE":0,"TOWNNAME":"麻豆區","LI":"大埕里","LIN":"8鄰","STREET":" ","SECT":" ","MAREA":"大埕","LANE":" ","ALLEY":" ","HOUSE_NO":"１５號之３０","E_COORD97":173168.13118999999,"N_COORD97":2565382.5279799998,"ADDRESS":"大埕１５號之３０","OBJECTID":411747},"geometry":{"x":173168.13119000196,"y":2565382.5279799998}},{"attributes":{"ID":411772,"DIS_CODE":0,"TOWNNAME":"仁德區","LI":"新田里","LIN":"16鄰","STREET":"北保東路","SECT":" ","MAREA":" ","LANE":"１８巷","ALLEY":" ","HOUSE_NO":"７號","E_COORD97":173412.60999999999,"N_COORD97":2539359.2400000002,"ADDRESS":"北保東路１８巷７號","OBJECTID":411748},"geometry":{"x":173412.61000000127,"y":2539359.2400000021}},{"attributes":{"ID":411773,"DIS_CODE":0,"TOWNNAME":"歸仁區","LI":"文化里","LIN":"3鄰","STREET":"國光街","SECT":" ","MAREA":" ","LANE":"１４３巷","ALLEY":" ","HOUSE_NO":"２４號","E_COORD97":177269.67999999999,"N_COORD97":2541219.3300000001,"ADDRESS":"國光街１４３巷２４號","OBJECTID":411749},"geometry":{"x":177269.68000000063,"y":2541219.3300000019}},{"attributes":{"ID":411774,"DIS_CODE":0,"TOWNNAME":"鹽水區","LI":"水仙里","LIN":"3鄰","STREET":"中山路","SECT":" ","MAREA":" ","LANE":"３巷","ALLEY":" ","HOUSE_NO":"２號","E_COORD97":175063.31,"N_COORD97":2579873.0299999998,"ADDRESS":"中山路３巷２號","OBJECTID":411750},"geometry":{"x":175063.31000000052,"y":2579873.0299999975}},{"attributes":{"ID":411775,"DIS_CODE":0,"TOWNNAME":"歸仁區","LI":"六甲里","LIN":"3鄰","STREET":"中正南路","SECT":"一段","MAREA":" ","LANE":"６３７巷","ALLEY":" ","HOUSE_NO":"２號","E_COORD97":176646.922486,"N_COORD97":2539824.7264200002,"ADDRESS":"中正南路一段６３７巷２號","OBJECTID":411751},"geometry":{"x":176646.92248600069,"y":2539824.726419}},{"attributes":{"ID":411776,"DIS_CODE":0,"TOWNNAME":"歸仁區","LI":"文化里","LIN":"3鄰","STREET":"國光街","SECT":" ","MAREA":" ","LANE":"１４３巷","ALLEY":" ","HOUSE_NO":"１５號","E_COORD97":177297.28,"N_COORD97":2541206.3300000001,"ADDRESS":"國光街１４３巷１５號","OBJECTID":411752},"geometry":{"x":177297.28000000026,"y":2541206.3300000019}},{"attributes":{"ID":411777,"DIS_CODE":0,"TOWNNAME":"歸仁區","LI":"文化里","LIN":"3鄰","STREET":"國光街","SECT":" ","MAREA":" ","LANE":"１４３巷","ALLEY":" ","HOUSE_NO":"３０號","E_COORD97":177244.70999999999,"N_COORD97":2541220.3300000001,"ADDRESS":"國光街１４３巷３０號","OBJECTID":411753},"geometry":{"x":177244.70999999996,"y":2541220.3300000001}},{"attributes":{"ID":411778,"DIS_CODE":0,"TOWNNAME":"歸仁區","LI":"八甲里","LIN":"3鄰","STREET":"大光街","SECT":" ","MAREA":" ","LANE":"６８巷","ALLEY":" ","HOUSE_NO":"６號","E_COORD97":178019.07000000001,"N_COORD97":2541689.6099999999,"ADDRESS":"大光街６８巷６號","OBJECTID":411754},"geometry":{"x":178019.0700000003,"y":2541689.6099999994}},{"attributes":{"ID":411779,"DIS_CODE":0,"TOWNNAME":"仁德區","LI":"後壁里","LIN":"13鄰","STREET":"德善路","SECT":" ","MAREA":" ","LANE":"１０８巷","ALLEY":" ","HOUSE_NO":"２５號","E_COORD97":173511.60000000001,"N_COORD97":2538765.02,"ADDRESS":"德善路１０８巷２５號","OBJECTID":411755},"geometry":{"x":173511.60000000056,"y":2538765.0199999977}},{"attributes":{"ID":411780,"DIS_CODE":0,"TOWNNAME":"仁德區","LI":"新田里","LIN":"12鄰","STREET":"民安路","SECT":"一段","MAREA":" ","LANE":"３９３巷","ALLEY":" ","HOUSE_NO":"２號","E_COORD97":173000.62,"N_COORD97":2539894.5699999998,"ADDRESS":"民安路一段３９３巷２號","OBJECTID":411756},"geometry":{"x":173000.62000000104,"y":2539894.570000004}},{"attributes":{"ID":411781,"DIS_CODE":0,"TOWNNAME":"北區","LI":"國興里","LIN":"3鄰","STREET":"南園街","SECT":" ","MAREA":" ","LANE":"２９巷","ALLEY":" ","HOUSE_NO":"１號","E_COORD97":170489.48000000001,"N_COORD97":2545460.6099999999,"ADDRESS":"南園街２９巷１號","OBJECTID":411757},"geometry":{"x":170489.48000000138,"y":2545460.6100000031}},{"attributes":{"ID":411782,"DIS_CODE":0,"TOWNNAME":"北區","LI":"國興里","LIN":"3鄰","STREET":"南園街","SECT":" ","MAREA":" ","LANE":"２９巷","ALLEY":" ","HOUSE_NO":"３號","E_COORD97":170493.38,"N_COORD97":2545463.5800000001,"ADDRESS":"南園街２９巷３號","OBJECTID":411758},"geometry":{"x":170493.37999999989,"y":2545463.5800000001}},{"attributes":{"ID":411783,"DIS_CODE":0,"TOWNNAME":"北區","LI":"國興里","LIN":"3鄰","STREET":"南園街","SECT":" ","MAREA":" ","LANE":"２９巷","ALLEY":" ","HOUSE_NO":"５號","E_COORD97":170498.01999999999,"N_COORD97":2545461.3599999999,"ADDRESS":"南園街２９巷５號","OBJECTID":411759},"geometry":{"x":170498.02000000048,"y":2545461.3599999994}},{"attributes":{"ID":411784,"DIS_CODE":0,"TOWNNAME":"北區","LI":"國興里","LIN":"3鄰","STREET":"南園街","SECT":" ","MAREA":" ","LANE":"２９巷","ALLEY":" ","HOUSE_NO":"７號","E_COORD97":170501.73999999999,"N_COORD97":2545464.1400000001,"ADDRESS":"南園街２９巷７號","OBJECTID":411760},"geometry":{"x":170501.74000000022,"y":2545464.1400000006}},{"attributes":{"ID":411785,"DIS_CODE":0,"TOWNNAME":"北區","LI":"國興里","LIN":"3鄰","STREET":"南園街","SECT":" ","MAREA":" ","LANE":"２９巷","ALLEY":" ","HOUSE_NO":"９號","E_COORD97":170506.38,"N_COORD97":2545462.1000000001,"ADDRESS":"南園街２９巷９號","OBJECTID":411761},"geometry":{"x":170506.38000000082,"y":2545462.1000000015}},{"attributes":{"ID":411786,"DIS_CODE":0,"TOWNNAME":"北區","LI":"國興里","LIN":"3鄰","STREET":"南園街","SECT":" ","MAREA":" ","LANE":"４９巷","ALLEY":" ","HOUSE_NO":"１３號","E_COORD97":170527.54999999999,"N_COORD97":2545473.9700000002,"ADDRESS":"南園街４９巷１３號","OBJECTID":411762},"geometry":{"x":170527.54999999981,"y":2545473.9700000025}},{"attributes":{"ID":411787,"DIS_CODE":0,"TOWNNAME":"北區","LI":"國興里","LIN":"3鄰","STREET":"南園街","SECT":" ","MAREA":" ","LANE":"４９巷","ALLEY":" ","HOUSE_NO":"１５號","E_COORD97":170526.07000000001,"N_COORD97":2545479.1699999999,"ADDRESS":"南園街４９巷１５號","OBJECTID":411763},"geometry":{"x":170526.07000000123,"y":2545479.1700000018}},{"attributes":{"ID":411788,"DIS_CODE":0,"TOWNNAME":"北區","LI":"國興里","LIN":"3鄰","STREET":"南園街","SECT":" ","MAREA":" ","LANE":"４９巷","ALLEY":" ","HOUSE_NO":"１７號","E_COORD97":170527.17999999999,"N_COORD97":2545483.25,"ADDRESS":"南園街４９巷１７號","OBJECTID":411764},"geometry":{"x":170527.1799999997,"y":2545483.25}},{"attributes":{"ID":411789,"DIS_CODE":0,"TOWNNAME":"北區","LI":"國興里","LIN":"3鄰","STREET":"南園街","SECT":" ","MAREA":" ","LANE":"４９巷","ALLEY":" ","HOUSE_NO":"１９號","E_COORD97":170518.45000000001,"N_COORD97":2545481.77,"ADDRESS":"南園街４９巷１９號","OBJECTID":411765},"geometry":{"x":170518.45000000019,"y":2545481.7699999996}},{"attributes":{"ID":411790,"DIS_CODE":0,"TOWNNAME":"東區","LI":"大智里","LIN":"40鄰","STREET":"文東街","SECT":" ","MAREA":" ","LANE":"２巷","ALLEY":" ","HOUSE_NO":"５號","E_COORD97":171332.72,"N_COORD97":2540122.8399999999,"ADDRESS":"文東街２巷５號","OBJECTID":411766},"geometry":{"x":171332.72000000067,"y":2540122.8400000036}},{"attributes":{"ID":411791,"DIS_CODE":0,"TOWNNAME":"北區","LI":"國興里","LIN":"3鄰","STREET":"南園街","SECT":" ","MAREA":" ","LANE":"４９巷","ALLEY":" ","HOUSE_NO":"１號","E_COORD97":170519.75,"N_COORD97":2545454.1200000001,"ADDRESS":"南園街４９巷１號","OBJECTID":411767},"geometry":{"x":170519.75,"y":2545454.120000001}},{"attributes":{"ID":411792,"DIS_CODE":0,"TOWNNAME":"北區","LI":"國興里","LIN":"3鄰","STREET":"南園街","SECT":" ","MAREA":" ","LANE":"４９巷","ALLEY":" ","HOUSE_NO":"２１號","E_COORD97":170512.88,"N_COORD97":2545484,"ADDRESS":"南園街４９巷２１號","OBJECTID":411768},"geometry":{"x":170512.88000000082,"y":2545484}},{"attributes":{"ID":411793,"DIS_CODE":0,"TOWNNAME":"北區","LI":"國興里","LIN":"3鄰","STREET":"南園街","SECT":" ","MAREA":" ","LANE":"４９巷","ALLEY":" ","HOUSE_NO":"２３號","E_COORD97":170509.54000000001,"N_COORD97":2545499.77,"ADDRESS":"南園街４９巷２３號","OBJECTID":411769},"geometry":{"x":170509.54000000004,"y":2545499.7699999996}},{"attributes":{"ID":411794,"DIS_CODE":0,"TOWNNAME":"北區","LI":"國興里","LIN":"3鄰","STREET":"南園街","SECT":" ","MAREA":" ","LANE":"４９巷","ALLEY":" ","HOUSE_NO":"２５號","E_COORD97":170513.63,"N_COORD97":2545498.1000000001,"ADDRESS":"南園街４９巷２５號","OBJECTID":411770},"geometry":{"x":170513.62999999989,"y":2545498.1000000034}},{"attributes":{"ID":411795,"DIS_CODE":0,"TOWNNAME":"北區","LI":"國興里","LIN":"3鄰","STREET":"南園街","SECT":" ","MAREA":" ","LANE":"４９巷","ALLEY":" ","HOUSE_NO":"２７號","E_COORD97":170517.70999999999,"N_COORD97":2545498.8399999999,"ADDRESS":"南園街４９巷２７號","OBJECTID":411771},"geometry":{"x":170517.71000000089,"y":2545498.8399999999}},{"attributes":{"ID":411796,"DIS_CODE":0,"TOWNNAME":"北區","LI":"國興里","LIN":"3鄰","STREET":"南園街","SECT":" ","MAREA":" ","LANE":"４９巷","ALLEY":" ","HOUSE_NO":"２９號","E_COORD97":170521.04999999999,"N_COORD97":2545496.7999999998,"ADDRESS":"南園街４９巷２９號","OBJECTID":411772},"geometry":{"x":170521.04999999981,"y":2545496.8000000007}},{"attributes":{"ID":411797,"DIS_CODE":0,"TOWNNAME":"北區","LI":"國興里","LIN":"3鄰","STREET":"南園街","SECT":" ","MAREA":" ","LANE":"４９巷","ALLEY":" ","HOUSE_NO":"３１號","E_COORD97":170529.23000000001,"N_COORD97":2545490.4900000002,"ADDRESS":"南園街４９巷３１號","OBJECTID":411773},"geometry":{"x":170529.23000000045,"y":2545490.4900000021}},{"attributes":{"ID":411798,"DIS_CODE":0,"TOWNNAME":"北區","LI":"國興里","LIN":"3鄰","STREET":"南園街","SECT":" ","MAREA":" ","LANE":"４９巷","ALLEY":" ","HOUSE_NO":"３３號","E_COORD97":170530.14999999999,"N_COORD97":2545495.1299999999,"ADDRESS":"南園街４９巷３３號","OBJECTID":411774},"geometry":{"x":170530.1500000013,"y":2545495.1300000008}},{"attributes":{"ID":411799,"DIS_CODE":0,"TOWNNAME":"北區","LI":"國興里","LIN":"3鄰","STREET":"南園街","SECT":" ","MAREA":" ","LANE":"４９巷","ALLEY":" ","HOUSE_NO":"６１號","E_COORD97":170536.47,"N_COORD97":2545530.7000000002,"ADDRESS":"南園街４９巷６１號","OBJECTID":411775},"geometry":{"x":170536.47000000067,"y":2545530.700000003}},{"attributes":{"ID":411800,"DIS_CODE":0,"TOWNNAME":"北區","LI":"國興里","LIN":"3鄰","STREET":"南園街","SECT":" ","MAREA":" ","LANE":"４９巷","ALLEY":" ","HOUSE_NO":"６３號","E_COORD97":170542.04000000001,"N_COORD97":2545533.8599999999,"ADDRESS":"南園街４９巷６３號","OBJECTID":411776},"geometry":{"x":170542.04000000004,"y":2545533.8600000013}},{"attributes":{"ID":411801,"DIS_CODE":0,"TOWNNAME":"北區","LI":"國興里","LIN":"3鄰","STREET":"南園街","SECT":" ","MAREA":" ","LANE":"４９巷","ALLEY":" ","HOUSE_NO":"７號","E_COORD97":170513.44,"N_COORD97":2545473.23,"ADDRESS":"南園街４９巷７號","OBJECTID":411777},"geometry":{"x":170513.44000000134,"y":2545473.2300000004}},{"attributes":{"ID":411802,"DIS_CODE":0,"TOWNNAME":"北區","LI":"國興里","LIN":"3鄰","STREET":"南園街","SECT":" ","MAREA":" ","LANE":"４９巷","ALLEY":" ","HOUSE_NO":"９號","E_COORD97":170525.51000000001,"N_COORD97":2545469.52,"ADDRESS":"南園街４９巷９號","OBJECTID":411778},"geometry":{"x":170525.51000000071,"y":2545469.5200000014}},{"attributes":{"ID":411803,"DIS_CODE":0,"TOWNNAME":"北區","LI":"勝安里","LIN":"3鄰","STREET":"開元路","SECT":" ","MAREA":" ","LANE":"７１巷","ALLEY":" ","HOUSE_NO":"２５號之１","E_COORD97":169684.20999999999,"N_COORD97":2545318.1200000001,"ADDRESS":"開元路７１巷２５號之１","OBJECTID":411779},"geometry":{"x":169684.20999999996,"y":2545318.120000001}},{"attributes":{"ID":411804,"DIS_CODE":0,"TOWNNAME":"北區","LI":"勝安里","LIN":"3鄰","STREET":"開元路","SECT":" ","MAREA":" ","LANE":"７１巷","ALLEY":" ","HOUSE_NO":"２７號","E_COORD97":169678.20999999999,"N_COORD97":2545332.2999999998,"ADDRESS":"開元路７１巷２７號","OBJECTID":411780},"geometry":{"x":169678.21000000183,"y":2545332.3000000026}},{"attributes":{"ID":411805,"DIS_CODE":0,"TOWNNAME":"北區","LI":"勝安里","LIN":"3鄰","STREET":"開元路","SECT":" ","MAREA":" ","LANE":"７１巷","ALLEY":" ","HOUSE_NO":"２９號","E_COORD97":169673.79999999999,"N_COORD97":2545344.4399999999,"ADDRESS":"開元路７１巷２９號","OBJECTID":411781},"geometry":{"x":169673.79999999981,"y":2545344.4400000013}},{"attributes":{"ID":411806,"DIS_CODE":0,"TOWNNAME":"北區","LI":"勝安里","LIN":"3鄰","STREET":"開元路","SECT":" ","MAREA":" ","LANE":"７１巷","ALLEY":" ","HOUSE_NO":"３１號","E_COORD97":169666.54000000001,"N_COORD97":2545354.29,"ADDRESS":"開元路７１巷３１號","OBJECTID":411782},"geometry":{"x":169666.54000000097,"y":2545354.290000001}},{"attributes":{"ID":411807,"DIS_CODE":0,"TOWNNAME":"北區","LI":"勝安里","LIN":"3鄰","STREET":"開元路","SECT":" ","MAREA":" ","LANE":"７１巷","ALLEY":" ","HOUSE_NO":"３３號","E_COORD97":169662.59,"N_COORD97":2545361.6899999999,"ADDRESS":"開元路７１巷３３號","OBJECTID":411783},"geometry":{"x":169662.59000000078,"y":2545361.6900000032}},{"attributes":{"ID":411808,"DIS_CODE":0,"TOWNNAME":"北區","LI":"勝安里","LIN":"3鄰","STREET":"開元路","SECT":" ","MAREA":" ","LANE":"７１巷","ALLEY":" ","HOUSE_NO":"３５號","E_COORD97":169661.95999999999,"N_COORD97":2545370.6800000002,"ADDRESS":"開元路７１巷３５號","OBJECTID":411784},"geometry":{"x":169661.96000000089,"y":2545370.6799999997}},{"attributes":{"ID":411809,"DIS_CODE":0,"TOWNNAME":"北區","LI":"勝安里","LIN":"3鄰","STREET":"開元路","SECT":" ","MAREA":" ","LANE":"７１巷","ALLEY":" ","HOUSE_NO":"３５號之１","E_COORD97":169653.92000000001,"N_COORD97":2545366.27,"ADDRESS":"開元路７１巷３５號之１","OBJECTID":411785},"geometry":{"x":169653.91999999993,"y":2545366.2699999996}},{"attributes":{"ID":411810,"DIS_CODE":0,"TOWNNAME":"北區","LI":"勝安里","LIN":"3鄰","STREET":"開元路","SECT":" ","MAREA":" ","LANE":"７１巷","ALLEY":" ","HOUSE_NO":"３９號","E_COORD97":169647.60999999999,"N_COORD97":2545359.4900000002,"ADDRESS":"開元路７１巷３９號","OBJECTID":411786},"geometry":{"x":169647.61000000127,"y":2545359.4900000002}},{"attributes":{"ID":411811,"DIS_CODE":0,"TOWNNAME":"北區","LI":"勝安里","LIN":"3鄰","STREET":"開元路","SECT":" ","MAREA":" ","LANE":"７１巷","ALLEY":" ","HOUSE_NO":"４１號","E_COORD97":169649.17999999999,"N_COORD97":2545354.7599999998,"ADDRESS":"開元路７１巷４１號","OBJECTID":411787},"geometry":{"x":169649.17999999877,"y":2545354.7600000035}},{"attributes":{"ID":411812,"DIS_CODE":0,"TOWNNAME":"北區","LI":"勝安里","LIN":"3鄰","STREET":"開元路","SECT":" ","MAREA":" ","LANE":"７１巷","ALLEY":" ","HOUSE_NO":"４３號","E_COORD97":169645.23999999999,"N_COORD97":2545350.8199999998,"ADDRESS":"開元路７１巷４３號","OBJECTID":411788},"geometry":{"x":169645.24000000022,"y":2545350.8200000003}},{"attributes":{"ID":411813,"DIS_CODE":0,"TOWNNAME":"北區","LI":"勝安里","LIN":"3鄰","STREET":"開元路","SECT":" ","MAREA":" ","LANE":"７１巷","ALLEY":" ","HOUSE_NO":"４５號","E_COORD97":169642.39999999999,"N_COORD97":2545346.25,"ADDRESS":"開元路７１巷４５號","OBJECTID":411789},"geometry":{"x":169642.4000000013,"y":2545346.2500000019}},{"attributes":{"ID":411814,"DIS_CODE":0,"TOWNNAME":"北區","LI":"華興里","LIN":"3鄰","STREET":"南園街","SECT":" ","MAREA":" ","LANE":"１４巷","ALLEY":" ","HOUSE_NO":"１０號","E_COORD97":170409.75,"N_COORD97":2545451.3900000001,"ADDRESS":"南園街１４巷１０號","OBJECTID":411790},"geometry":{"x":170409.75,"y":2545451.3900000006}},{"attributes":{"ID":411815,"DIS_CODE":0,"TOWNNAME":"北區","LI":"華興里","LIN":"3鄰","STREET":"南園街","SECT":" ","MAREA":" ","LANE":"１４巷","ALLEY":" ","HOUSE_NO":"１１號","E_COORD97":170421.19,"N_COORD97":2545444.52,"ADDRESS":"南園街１４巷１１號","OBJECTID":411791},"geometry":{"x":170421.18999999948,"y":2545444.5200000014}},{"attributes":{"ID":411816,"DIS_CODE":0,"TOWNNAME":"北區","LI":"華興里","LIN":"3鄰","STREET":"南園街","SECT":" ","MAREA":" ","LANE":"１４巷","ALLEY":" ","HOUSE_NO":"１３號","E_COORD97":170419.35000000001,"N_COORD97":2545440.9300000002,"ADDRESS":"南園街１４巷１３號","OBJECTID":411792},"geometry":{"x":170419.35000000149,"y":2545440.9299999997}},{"attributes":{"ID":411817,"DIS_CODE":0,"TOWNNAME":"北區","LI":"華興里","LIN":"3鄰","STREET":"南園街","SECT":" ","MAREA":" ","LANE":"１４巷","ALLEY":" ","HOUSE_NO":"１號","E_COORD97":170431.20000000001,"N_COORD97":2545462.1499999999,"ADDRESS":"南園街１４巷１號","OBJECTID":411793},"geometry":{"x":170431.20000000205,"y":2545462.1500000022}},{"attributes":{"ID":411818,"DIS_CODE":0,"TOWNNAME":"北區","LI":"華興里","LIN":"3鄰","STREET":"南園街","SECT":" ","MAREA":" ","LANE":"１４巷","ALLEY":" ","HOUSE_NO":"２號","E_COORD97":170415.06,"N_COORD97":2545467.3100000001,"ADDRESS":"南園街１４巷２號","OBJECTID":411794},"geometry":{"x":170415.06000000052,"y":2545467.3100000024}},{"attributes":{"ID":411819,"DIS_CODE":0,"TOWNNAME":"北區","LI":"華興里","LIN":"3鄰","STREET":"南園街","SECT":" ","MAREA":" ","LANE":"１４巷","ALLEY":" ","HOUSE_NO":"３號","E_COORD97":170429.34,"N_COORD97":2545458.75,"ADDRESS":"南園街１４巷３號","OBJECTID":411795},"geometry":{"x":170429.33999999985,"y":2545458.75}},{"attributes":{"ID":411820,"DIS_CODE":0,"TOWNNAME":"北區","LI":"華興里","LIN":"3鄰","STREET":"南園街","SECT":" ","MAREA":" ","LANE":"１４巷","ALLEY":" ","HOUSE_NO":"４號","E_COORD97":170413.04000000001,"N_COORD97":2545463.5600000001,"ADDRESS":"南園街１４巷４號","OBJECTID":411796},"geometry":{"x":170413.04000000004,"y":2545463.5600000024}},{"attributes":{"ID":411821,"DIS_CODE":0,"TOWNNAME":"北區","LI":"華興里","LIN":"3鄰","STREET":"南園街","SECT":" ","MAREA":" ","LANE":"１４巷","ALLEY":" ","HOUSE_NO":"５號","E_COORD97":170427.14999999999,"N_COORD97":2545455.5,"ADDRESS":"南園街１４巷５號","OBJECTID":411797},"geometry":{"x":170427.1500000013,"y":2545455.5000000019}},{"attributes":{"ID":411822,"DIS_CODE":0,"TOWNNAME":"北區","LI":"華興里","LIN":"3鄰","STREET":"南園街","SECT":" ","MAREA":" ","LANE":"１４巷","ALLEY":" ","HOUSE_NO":"６號","E_COORD97":170411.29999999999,"N_COORD97":2545459.8999999999,"ADDRESS":"南園街１４巷６號","OBJECTID":411798},"geometry":{"x":170411.29999999888,"y":2545459.9000000022}},{"attributes":{"ID":411823,"DIS_CODE":0,"TOWNNAME":"北區","LI":"華興里","LIN":"3鄰","STREET":"南園街","SECT":" ","MAREA":" ","LANE":"１４巷","ALLEY":" ","HOUSE_NO":"７號","E_COORD97":170425.31,"N_COORD97":2545452.21,"ADDRESS":"南園街１４巷７號","OBJECTID":411799},"geometry":{"x":170425.31000000052,"y":2545452.2100000028}},{"attributes":{"ID":411824,"DIS_CODE":0,"TOWNNAME":"北區","LI":"玉皇里","LIN":"13鄰","STREET":"公園路","SECT":" ","MAREA":" ","LANE":" ","ALLEY":" ","HOUSE_NO":"２０３號","E_COORD97":168773.35000000001,"N_COORD97":2544437.3700000001,"ADDRESS":"公園路２０３號","OBJECTID":411800},"geometry":{"x":168773.35000000149,"y":2544437.3700000029}}]}