{"displayFieldName":"TOWNNAME","fieldAliases":{"ID":"ID","DIS_CODE":"DIS_CODE","TOWNNAME":"TOWNNAME","LI":"LI","LIN":"LIN","STREET":"STREET","SECT":"SECT","MAREA":"MAREA","LANE":"LANE","ALLEY":"ALLEY","HOUSE_NO":"HOUSE_NO","E_COORD97":"E_COORD97","N_COORD97":"N_COORD97","ADDRESS":"ADDRESS","OBJECTID":"OBJECTID"},"geometryType":"esriGeometryPoint","spatialReference":{"wkid":102443,"latestWkid":3826},"fields":[{"name":"ID","type":"esriFieldTypeDouble","alias":"ID"},{"name":"DIS_CODE","type":"esriFieldTypeInteger","alias":"DIS_CODE"},{"name":"TOWNNAME","type":"esriFieldTypeString","alias":"TOWNNAME","length":8},{"name":"LI","type":"esriFieldTypeString","alias":"LI","length":8},{"name":"LIN","type":"esriFieldTypeString","alias":"LIN","length":12},{"name":"STREET","type":"esriFieldTypeString","alias":"STREET","length":20},{"name":"SECT","type":"esriFieldTypeString","alias":"SECT","length":8},{"name":"MAREA","type":"esriFieldTypeString","alias":"MAREA","length":12},{"name":"LANE","type":"esriFieldTypeString","alias":"LANE","length":10},{"name":"ALLEY","type":"esriFieldTypeString","alias":"ALLEY","length":10},{"name":"HOUSE_NO","type":"esriFieldTypeString","alias":"HOUSE_NO","length":20},{"name":"E_COORD97","type":"esriFieldTypeDouble","alias":"E_COORD97"},{"name":"N_COORD97","type":"esriFieldTypeDouble","alias":"N_COORD97"},{"name":"ADDRESS","type":"esriFieldTypeString","alias":"ADDRESS","length":50},{"name":"OBJECTID","type":"esriFieldTypeOID","alias":"OBJECTID"}],"features":[{"attributes":{"ID":92801,"DIS_CODE":0,"TOWNNAME":"安定區","LI":"安定里","LIN":"10鄰","STREET":" ","SECT":" ","MAREA":"安定","LANE":" ","ALLEY":" ","HOUSE_NO":"１０４之１號","E_COORD97":172111.92000000001,"N_COORD97":2557700.3199999998,"ADDRESS":"安定１０４之１號","OBJECTID":92801},"geometry":{"x":172111.91999999993,"y":2557700.3200000022}},{"attributes":{"ID":92802,"DIS_CODE":0,"TOWNNAME":"安定區","LI":"港口里","LIN":"10鄰","STREET":" ","SECT":" ","MAREA":"港口","LANE":" ","ALLEY":" ","HOUSE_NO":"３１１之４號","E_COORD97":171315.19,"N_COORD97":2554640.2999999998,"ADDRESS":"港口３１１之４號","OBJECTID":92802},"geometry":{"x":171315.19000000134,"y":2554640.3000000007}},{"attributes":{"ID":92803,"DIS_CODE":0,"TOWNNAME":"安定區","LI":"安定里","LIN":"10鄰","STREET":" ","SECT":" ","MAREA":"安定","LANE":" ","ALLEY":" ","HOUSE_NO":"９６號之１４","E_COORD97":172124.38,"N_COORD97":2557745.3199999998,"ADDRESS":"安定９６號之１４","OBJECTID":92803},"geometry":{"x":172124.37999999989,"y":2557745.3200000003}},{"attributes":{"ID":92804,"DIS_CODE":0,"TOWNNAME":"安定區","LI":"港口里","LIN":"10鄰","STREET":" ","SECT":" ","MAREA":"港口","LANE":" ","ALLEY":" ","HOUSE_NO":"３０４號","E_COORD97":171333.79000000001,"N_COORD97":2554719.25,"ADDRESS":"港口３０４號","OBJECTID":92804},"geometry":{"x":171333.78999999911,"y":2554719.2500000037}},{"attributes":{"ID":92805,"DIS_CODE":0,"TOWNNAME":"安定區","LI":"蘇林里","LIN":"10鄰","STREET":" ","SECT":" ","MAREA":"蘇厝","LANE":" ","ALLEY":" ","HOUSE_NO":"１１２號之４","E_COORD97":173797.88,"N_COORD97":2558860.2999999998,"ADDRESS":"蘇厝１１２號之４","OBJECTID":92805},"geometry":{"x":173797.87999999896,"y":2558860.3000000026}},{"attributes":{"ID":92806,"DIS_CODE":0,"TOWNNAME":"安定區","LI":"管寮里","LIN":"10鄰","STREET":" ","SECT":" ","MAREA":"管寮","LANE":" ","ALLEY":" ","HOUSE_NO":"９４號之１","E_COORD97":169886.98000000001,"N_COORD97":2556439.2999999998,"ADDRESS":"管寮９４號之１","OBJECTID":92806},"geometry":{"x":169886.97999999952,"y":2556439.3000000026}},{"attributes":{"ID":92807,"DIS_CODE":0,"TOWNNAME":"安定區","LI":"安定里","LIN":"10鄰","STREET":" ","SECT":" ","MAREA":"安定","LANE":" ","ALLEY":" ","HOUSE_NO":"１０２號","E_COORD97":172057.01999999999,"N_COORD97":2557717.3199999998,"ADDRESS":"安定１０２號","OBJECTID":92807},"geometry":{"x":172057.01999999955,"y":2557717.3200000022}},{"attributes":{"ID":92808,"DIS_CODE":0,"TOWNNAME":"安定區","LI":"安定里","LIN":"10鄰","STREET":" ","SECT":" ","MAREA":"安定","LANE":" ","ALLEY":" ","HOUSE_NO":"１０３號","E_COORD97":172087.01999999999,"N_COORD97":2557715.3199999998,"ADDRESS":"安定１０３號","OBJECTID":92808},"geometry":{"x":172087.02000000048,"y":2557715.3200000003}},{"attributes":{"ID":92809,"DIS_CODE":0,"TOWNNAME":"安定區","LI":"蘇林里","LIN":"10鄰","STREET":" ","SECT":" ","MAREA":"蘇厝","LANE":" ","ALLEY":" ","HOUSE_NO":"１１２號之１１","E_COORD97":173824.89999999999,"N_COORD97":2558783.2999999998,"ADDRESS":"蘇厝１１２號之１１","OBJECTID":92809},"geometry":{"x":173824.90000000037,"y":2558783.3000000007}},{"attributes":{"ID":92810,"DIS_CODE":0,"TOWNNAME":"安定區","LI":"蘇林里","LIN":"10鄰","STREET":" ","SECT":" ","MAREA":"蘇厝","LANE":" ","ALLEY":" ","HOUSE_NO":"１１２號之７","E_COORD97":173883.13,"N_COORD97":2558825.2999999998,"ADDRESS":"蘇厝１１２號之７","OBJECTID":92810},"geometry":{"x":173883.13000000082,"y":2558825.3000000045}},{"attributes":{"ID":92811,"DIS_CODE":0,"TOWNNAME":"安定區","LI":"港南里","LIN":"10鄰","STREET":" ","SECT":" ","MAREA":"港口","LANE":" ","ALLEY":" ","HOUSE_NO":"７１之１號","E_COORD97":171372.14000000001,"N_COORD97":2554298.2999999998,"ADDRESS":"港口７１之１號","OBJECTID":92811},"geometry":{"x":171372.1400000006,"y":2554298.3000000007}},{"attributes":{"ID":92812,"DIS_CODE":0,"TOWNNAME":"安定區","LI":"蘇林里","LIN":"10鄰","STREET":" ","SECT":" ","MAREA":"蘇厝","LANE":" ","ALLEY":" ","HOUSE_NO":"１１２之９號","E_COORD97":173843.51999999999,"N_COORD97":2558795.2999999998,"ADDRESS":"蘇厝１１２之９號","OBJECTID":92812},"geometry":{"x":173843.51999999955,"y":2558795.3000000026}},{"attributes":{"ID":92813,"DIS_CODE":0,"TOWNNAME":"安定區","LI":"安定里","LIN":"10鄰","STREET":" ","SECT":" ","MAREA":"安定","LANE":" ","ALLEY":" ","HOUSE_NO":"９６之２５號","E_COORD97":172302.42000000001,"N_COORD97":2557596.3199999998,"ADDRESS":"安定９６之２５號","OBJECTID":92813},"geometry":{"x":172302.41999999993,"y":2557596.3200000003}},{"attributes":{"ID":92814,"DIS_CODE":0,"TOWNNAME":"仁德區","LI":"上崙里","LIN":"10鄰","STREET":"德善路","SECT":" ","MAREA":" ","LANE":"３０５巷","ALLEY":"１３弄","HOUSE_NO":"１１７號","E_COORD97":174075.63,"N_COORD97":2538353.2200000002,"ADDRESS":"德善路３０５巷１３弄１１７號","OBJECTID":92814},"geometry":{"x":174075.62999999989,"y":2538353.2200000007}},{"attributes":{"ID":92815,"DIS_CODE":0,"TOWNNAME":"安定區","LI":"安定里","LIN":"10鄰","STREET":" ","SECT":" ","MAREA":"安定","LANE":" ","ALLEY":" ","HOUSE_NO":"１０４之２號","E_COORD97":172112.22,"N_COORD97":2557706.3199999998,"ADDRESS":"安定１０４之２號","OBJECTID":92815},"geometry":{"x":172112.2200000016,"y":2557706.3200000022}},{"attributes":{"ID":92816,"DIS_CODE":0,"TOWNNAME":"安定區","LI":"蘇林里","LIN":"10鄰","STREET":" ","SECT":" ","MAREA":"蘇厝","LANE":" ","ALLEY":" ","HOUSE_NO":"１１２之３２號","E_COORD97":173845.26999999999,"N_COORD97":2558844.2999999998,"ADDRESS":"蘇厝１１２之３２號","OBJECTID":92816},"geometry":{"x":173845.26999999955,"y":2558844.3000000007}},{"attributes":{"ID":92817,"DIS_CODE":0,"TOWNNAME":"安定區","LI":"六嘉里","LIN":"10鄰","STREET":" ","SECT":" ","MAREA":"六塊寮","LANE":" ","ALLEY":" ","HOUSE_NO":"８２號","E_COORD97":170241.82000000001,"N_COORD97":2553250.27,"ADDRESS":"六塊寮８２號","OBJECTID":92817},"geometry":{"x":170241.8200000003,"y":2553250.2699999996}},{"attributes":{"ID":92818,"DIS_CODE":0,"TOWNNAME":"安定區","LI":"新吉里","LIN":"10鄰","STREET":" ","SECT":" ","MAREA":"新吉","LANE":" ","ALLEY":" ","HOUSE_NO":"８８號之３","E_COORD97":169294.89999999999,"N_COORD97":2553975.2999999998,"ADDRESS":"新吉８８號之３","OBJECTID":92818},"geometry":{"x":169294.9000000013,"y":2553975.3000000026}},{"attributes":{"ID":92819,"DIS_CODE":0,"TOWNNAME":"仁德區","LI":"上崙里","LIN":"10鄰","STREET":"德善路","SECT":" ","MAREA":" ","LANE":"３０５巷","ALLEY":"１３弄","HOUSE_NO":"１２４號","E_COORD97":174039.07999999999,"N_COORD97":2538328.21,"ADDRESS":"德善路３０５巷１３弄１２４號","OBJECTID":92819},"geometry":{"x":174039.07999999914,"y":2538328.2100000028}},{"attributes":{"ID":92820,"DIS_CODE":0,"TOWNNAME":"安定區","LI":"港南里","LIN":"10鄰","STREET":" ","SECT":" ","MAREA":"港口","LANE":" ","ALLEY":" ","HOUSE_NO":"６９之２號","E_COORD97":171404.81,"N_COORD97":2554393.2999999998,"ADDRESS":"港口６９號之２","OBJECTID":92820},"geometry":{"x":171404.81000000052,"y":2554393.3000000007}},{"attributes":{"ID":92821,"DIS_CODE":0,"TOWNNAME":"安定區","LI":"保西里","LIN":"10鄰","STREET":" ","SECT":" ","MAREA":"安定","LANE":" ","ALLEY":" ","HOUSE_NO":"４１４號","E_COORD97":171708.42000000001,"N_COORD97":2557869.3100000001,"ADDRESS":"安定４１４號","OBJECTID":92821},"geometry":{"x":171708.41999999993,"y":2557869.3100000024}},{"attributes":{"ID":92822,"DIS_CODE":0,"TOWNNAME":"安定區","LI":"安加里","LIN":"10鄰","STREET":" ","SECT":" ","MAREA":"安定","LANE":" ","ALLEY":" ","HOUSE_NO":"２５８之６４號","E_COORD97":171565.94734399999,"N_COORD97":2556798.2991900002,"ADDRESS":"安定２５８之６４號","OBJECTID":92822},"geometry":{"x":171565.94734399952,"y":2556798.2991930004}},{"attributes":{"ID":92823,"DIS_CODE":0,"TOWNNAME":"安定區","LI":"港尾里","LIN":"10鄰","STREET":" ","SECT":" ","MAREA":"港子尾","LANE":" ","ALLEY":" ","HOUSE_NO":"５６之２１號","E_COORD97":171666.94,"N_COORD97":2555750.2999999998,"ADDRESS":"港子尾５６之２１號","OBJECTID":92823},"geometry":{"x":171666.94000000041,"y":2555750.3000000045}},{"attributes":{"ID":92824,"DIS_CODE":0,"TOWNNAME":"安定區","LI":"安加里","LIN":"10鄰","STREET":" ","SECT":" ","MAREA":"安定","LANE":" ","ALLEY":" ","HOUSE_NO":"２５８之３３號","E_COORD97":171706.67000000001,"N_COORD97":2556963.3199999998,"ADDRESS":"安定２５８之３３號","OBJECTID":92824},"geometry":{"x":171706.67000000086,"y":2556963.3199999984}},{"attributes":{"ID":92825,"DIS_CODE":0,"TOWNNAME":"仁德區","LI":"上崙里","LIN":"10鄰","STREET":"德善路","SECT":" ","MAREA":" ","LANE":"３０５巷","ALLEY":"１３弄","HOUSE_NO":"１５９號","E_COORD97":174117.76999999999,"N_COORD97":2538302.71,"ADDRESS":"德善路３０５巷１３弄１５９號","OBJECTID":92825},"geometry":{"x":174117.77000000048,"y":2538302.7100000009}},{"attributes":{"ID":92826,"DIS_CODE":0,"TOWNNAME":"仁德區","LI":"上崙里","LIN":"10鄰","STREET":"德善路","SECT":" ","MAREA":" ","LANE":"３０５巷","ALLEY":"１３弄","HOUSE_NO":"１３８號","E_COORD97":174069.51000000001,"N_COORD97":2538301.0699999998,"ADDRESS":"德善路３０５巷１３弄１３８號","OBJECTID":92826},"geometry":{"x":174069.50999999978,"y":2538301.070000004}},{"attributes":{"ID":92827,"DIS_CODE":0,"TOWNNAME":"北區","LI":"開元里","LIN":"15鄰","STREET":"北園街","SECT":" ","MAREA":" ","LANE":"８７巷","ALLEY":" ","HOUSE_NO":"１７３號","E_COORD97":170158.69,"N_COORD97":2546005.25,"ADDRESS":"北園街８７巷１７３號","OBJECTID":92827},"geometry":{"x":170158.69000000134,"y":2546005.25}},{"attributes":{"ID":92828,"DIS_CODE":0,"TOWNNAME":"玉井區","LI":"竹圍里","LIN":"15鄰","STREET":"仁愛街","SECT":" ","MAREA":" ","LANE":" ","ALLEY":" ","HOUSE_NO":"３５２號","E_COORD97":195384.23999999999,"N_COORD97":2558263.9300000002,"ADDRESS":"仁愛街３５２號","OBJECTID":92828},"geometry":{"x":195384.24000000115,"y":2558263.9300000034}},{"attributes":{"ID":92829,"DIS_CODE":0,"TOWNNAME":"安定區","LI":"港尾里","LIN":"10鄰","STREET":" ","SECT":" ","MAREA":"港子尾","LANE":" ","ALLEY":" ","HOUSE_NO":"５６號之５","E_COORD97":171688.78,"N_COORD97":2555669.2999999998,"ADDRESS":"港子尾５６號之５","OBJECTID":92829},"geometry":{"x":171688.78000000119,"y":2555669.3000000026}},{"attributes":{"ID":92830,"DIS_CODE":0,"TOWNNAME":"仁德區","LI":"上崙里","LIN":"10鄰","STREET":"德善路","SECT":" ","MAREA":" ","LANE":"３０５巷","ALLEY":"１３弄","HOUSE_NO":"１３２號","E_COORD97":174068.51000000001,"N_COORD97":2538321.02,"ADDRESS":"德善路３０５巷１３弄１３２號","OBJECTID":92830},"geometry":{"x":174068.51000000071,"y":2538321.0200000033}},{"attributes":{"ID":92831,"DIS_CODE":0,"TOWNNAME":"官田區","LI":"大崎里","LIN":"10鄰","STREET":" ","SECT":" ","MAREA":"莿子埔","LANE":" ","ALLEY":" ","HOUSE_NO":"１８號","E_COORD97":188114.85000000001,"N_COORD97":2564074.9399999999,"ADDRESS":"莿子埔１８號","OBJECTID":92831},"geometry":{"x":188114.84999999963,"y":2564074.9400000032}},{"attributes":{"ID":92832,"DIS_CODE":0,"TOWNNAME":"仁德區","LI":"上崙里","LIN":"10鄰","STREET":"德善路","SECT":" ","MAREA":" ","LANE":"３０５巷","ALLEY":"１３弄","HOUSE_NO":"１７０號","E_COORD97":174058.09,"N_COORD97":2538268.8300000001,"ADDRESS":"德善路３０５巷１３弄１７０號","OBJECTID":92832},"geometry":{"x":174058.09000000078,"y":2538268.8300000038}},{"attributes":{"ID":92833,"DIS_CODE":0,"TOWNNAME":"仁德區","LI":"上崙里","LIN":"10鄰","STREET":"德善路","SECT":" ","MAREA":" ","LANE":"３０５巷","ALLEY":"１３弄","HOUSE_NO":"１８４號","E_COORD97":174088.13,"N_COORD97":2538239.3900000001,"ADDRESS":"德善路３０５巷１３弄１８４號","OBJECTID":92833},"geometry":{"x":174088.13000000082,"y":2538239.3900000025}},{"attributes":{"ID":92834,"DIS_CODE":0,"TOWNNAME":"官田區","LI":"渡頭里","LIN":"10鄰","STREET":" ","SECT":" ","MAREA":"渡子頭","LANE":" ","ALLEY":" ","HOUSE_NO":"７１號","E_COORD97":181068.63,"N_COORD97":2563082.2599999998,"ADDRESS":"渡子頭７１號","OBJECTID":92834},"geometry":{"x":181068.63000000175,"y":2563082.2599999998}},{"attributes":{"ID":92835,"DIS_CODE":0,"TOWNNAME":"仁德區","LI":"上崙里","LIN":"10鄰","STREET":"德善路","SECT":" ","MAREA":" ","LANE":"３０５巷","ALLEY":"１３弄","HOUSE_NO":"１６５號","E_COORD97":174103.48999999999,"N_COORD97":2538298.71,"ADDRESS":"德善路３０５巷１３弄１６５號","OBJECTID":92835},"geometry":{"x":174103.49000000115,"y":2538298.7100000028}},{"attributes":{"ID":92836,"DIS_CODE":0,"TOWNNAME":"仁德區","LI":"上崙里","LIN":"10鄰","STREET":"德善路","SECT":" ","MAREA":" ","LANE":"３０５巷","ALLEY":"１３弄","HOUSE_NO":"２１２號","E_COORD97":174081.01999999999,"N_COORD97":2538219.3799999999,"ADDRESS":"德善路３０５巷１３弄２１２號","OBJECTID":92836},"geometry":{"x":174081.01999999955,"y":2538219.3799999971}},{"attributes":{"ID":92837,"DIS_CODE":0,"TOWNNAME":"安定區","LI":"新吉里","LIN":"10鄰","STREET":" ","SECT":" ","MAREA":"新吉","LANE":" ","ALLEY":" ","HOUSE_NO":"８８號之５","E_COORD97":169301.610697,"N_COORD97":2554020.24339,"ADDRESS":"新吉８８號之５","OBJECTID":92837},"geometry":{"x":169301.61069700029,"y":2554020.243385002}},{"attributes":{"ID":92838,"DIS_CODE":0,"TOWNNAME":"安定區","LI":"六嘉里","LIN":"10鄰","STREET":" ","SECT":" ","MAREA":"六塊寮","LANE":" ","ALLEY":" ","HOUSE_NO":"８１之１１號","E_COORD97":170246.47,"N_COORD97":2552868.2999999998,"ADDRESS":"六塊寮８１之１１號","OBJECTID":92838},"geometry":{"x":170246.47000000067,"y":2552868.2999999989}},{"attributes":{"ID":92839,"DIS_CODE":0,"TOWNNAME":"新市區","LI":"三舍里","LIN":"10鄰","STREET":" ","SECT":" ","MAREA":"三舍","LANE":" ","ALLEY":" ","HOUSE_NO":"２５２號","E_COORD97":177785.64999999999,"N_COORD97":2555528.75,"ADDRESS":"三舍２５２號","OBJECTID":92839},"geometry":{"x":177785.6500000013,"y":2555528.75}},{"attributes":{"ID":92840,"DIS_CODE":0,"TOWNNAME":"新市區","LI":"三舍里","LIN":"10鄰","STREET":" ","SECT":" ","MAREA":"三舍","LANE":" ","ALLEY":" ","HOUSE_NO":"２４０之５２號","E_COORD97":177783.67999999999,"N_COORD97":2555846.2999999998,"ADDRESS":"三舍２４０之５２號","OBJECTID":92840},"geometry":{"x":177783.6799999997,"y":2555846.3000000026}},{"attributes":{"ID":92841,"DIS_CODE":0,"TOWNNAME":"新市區","LI":"三舍里","LIN":"10鄰","STREET":" ","SECT":" ","MAREA":"三舍","LANE":" ","ALLEY":" ","HOUSE_NO":"２２８號","E_COORD97":177737.51000000001,"N_COORD97":2556040.5,"ADDRESS":"三舍２２８號","OBJECTID":92841},"geometry":{"x":177737.50999999978,"y":2556040.5000000019}},{"attributes":{"ID":92842,"DIS_CODE":0,"TOWNNAME":"新市區","LI":"三舍里","LIN":"10鄰","STREET":" ","SECT":" ","MAREA":"三舍","LANE":" ","ALLEY":" ","HOUSE_NO":"２４６號","E_COORD97":177777.95999999999,"N_COORD97":2555637.75,"ADDRESS":"三舍２４６號","OBJECTID":92842},"geometry":{"x":177777.96000000089,"y":2555637.7499999981}},{"attributes":{"ID":92843,"DIS_CODE":0,"TOWNNAME":"仁德區","LI":"上崙里","LIN":"10鄰","STREET":"德善路","SECT":" ","MAREA":" ","LANE":"３０５巷","ALLEY":"１３弄","HOUSE_NO":"６５號","E_COORD97":174066.70999999999,"N_COORD97":2538443.9500000002,"ADDRESS":"德善路３０５巷１３弄６５號","OBJECTID":92843},"geometry":{"x":174066.70999999996,"y":2538443.9500000011}},{"attributes":{"ID":92844,"DIS_CODE":0,"TOWNNAME":"仁德區","LI":"上崙里","LIN":"10鄰","STREET":"德善路","SECT":" ","MAREA":" ","LANE":"３０５巷","ALLEY":"１３弄","HOUSE_NO":"７６號","E_COORD97":174039.75,"N_COORD97":2538419.5299999998,"ADDRESS":"德善路３０５巷１３弄７６號","OBJECTID":92844},"geometry":{"x":174039.75000000186,"y":2538419.5300000012}},{"attributes":{"ID":92845,"DIS_CODE":0,"TOWNNAME":"仁德區","LI":"上崙里","LIN":"10鄰","STREET":"德善路","SECT":" ","MAREA":" ","LANE":"３０５巷","ALLEY":"１３弄","HOUSE_NO":"１３１號","E_COORD97":174105.26000000001,"N_COORD97":2538347.7200000002,"ADDRESS":"德善路３０５巷１３弄１３１號","OBJECTID":92845},"geometry":{"x":174105.25999999978,"y":2538347.7199999988}},{"attributes":{"ID":92846,"DIS_CODE":0,"TOWNNAME":"仁德區","LI":"上崙里","LIN":"10鄰","STREET":"德善路","SECT":" ","MAREA":" ","LANE":"３０５巷","ALLEY":"１３弄","HOUSE_NO":"８８號","E_COORD97":174027.92000000001,"N_COORD97":2538396.8500000001,"ADDRESS":"德善路３０５巷１３弄８８號","OBJECTID":92846},"geometry":{"x":174027.91999999993,"y":2538396.8500000034}},{"attributes":{"ID":92847,"DIS_CODE":0,"TOWNNAME":"仁德區","LI":"上崙里","LIN":"10鄰","STREET":"德善路","SECT":" ","MAREA":" ","LANE":"３０５巷","ALLEY":"１３弄","HOUSE_NO":"１４８號","E_COORD97":174053.57000000001,"N_COORD97":2538284.8199999998,"ADDRESS":"德善路３０５巷１３弄１４８號","OBJECTID":92847},"geometry":{"x":174053.57000000123,"y":2538284.8200000003}},{"attributes":{"ID":92848,"DIS_CODE":0,"TOWNNAME":"仁德區","LI":"上崙里","LIN":"10鄰","STREET":"德善路","SECT":" ","MAREA":" ","LANE":"３０５巷","ALLEY":"１３弄","HOUSE_NO":"１６７號","E_COORD97":174098.38,"N_COORD97":2538297.21,"ADDRESS":"德善路３０５巷１３弄１６７號","OBJECTID":92848},"geometry":{"x":174098.38000000082,"y":2538297.209999999}},{"attributes":{"ID":92849,"DIS_CODE":0,"TOWNNAME":"仁德區","LI":"上崙里","LIN":"10鄰","STREET":"德善路","SECT":" ","MAREA":" ","LANE":"３０５巷","ALLEY":"１３弄","HOUSE_NO":"１３５號","E_COORD97":174106.51999999999,"N_COORD97":2538332.4700000002,"ADDRESS":"德善路３０５巷１３弄１３５號","OBJECTID":92849},"geometry":{"x":174106.51999999955,"y":2538332.4699999988}},{"attributes":{"ID":92850,"DIS_CODE":0,"TOWNNAME":"仁德區","LI":"上崙里","LIN":"10鄰","STREET":"德善路","SECT":" ","MAREA":" ","LANE":"３０５巷","ALLEY":"１３弄","HOUSE_NO":"１１８號","E_COORD97":174051.97,"N_COORD97":2538331.96,"ADDRESS":"德善路３０５巷１３弄１１８號","OBJECTID":92850},"geometry":{"x":174051.97000000067,"y":2538331.9600000009}},{"attributes":{"ID":92851,"DIS_CODE":0,"TOWNNAME":"仁德區","LI":"上崙里","LIN":"10鄰","STREET":"德善路","SECT":" ","MAREA":" ","LANE":"３０５巷","ALLEY":"１３弄","HOUSE_NO":"１１５號","E_COORD97":174074.23000000001,"N_COORD97":2538358.2200000002,"ADDRESS":"德善路３０５巷１３弄１１５號","OBJECTID":92851},"geometry":{"x":174074.23000000231,"y":2538358.2200000044}},{"attributes":{"ID":92852,"DIS_CODE":0,"TOWNNAME":"仁德區","LI":"上崙里","LIN":"10鄰","STREET":"德善路","SECT":" ","MAREA":" ","LANE":"３０５巷","ALLEY":"１３弄","HOUSE_NO":"８６號","E_COORD97":174022.54000000001,"N_COORD97":2538395.3500000001,"ADDRESS":"德善路３０５巷１３弄８６號","OBJECTID":92852},"geometry":{"x":174022.5400000019,"y":2538395.3499999996}},{"attributes":{"ID":92853,"DIS_CODE":0,"TOWNNAME":"仁德區","LI":"上崙里","LIN":"10鄰","STREET":"德善路","SECT":" ","MAREA":" ","LANE":"３０５巷","ALLEY":"１３弄","HOUSE_NO":"６１號","E_COORD97":174074.35000000001,"N_COORD97":2538448.7000000002,"ADDRESS":"德善路３０５巷１３弄６１號","OBJECTID":92853},"geometry":{"x":174074.35000000056,"y":2538448.7000000011}},{"attributes":{"ID":92854,"DIS_CODE":0,"TOWNNAME":"仁德區","LI":"上崙里","LIN":"10鄰","STREET":"德善路","SECT":" ","MAREA":" ","LANE":"３０５巷","ALLEY":"１３弄","HOUSE_NO":"２０４號","E_COORD97":174093.23000000001,"N_COORD97":2538230.1400000001,"ADDRESS":"德善路３０５巷１３弄２０４號","OBJECTID":92854},"geometry":{"x":174093.23000000138,"y":2538230.1400000025}},{"attributes":{"ID":92855,"DIS_CODE":0,"TOWNNAME":"仁德區","LI":"上崙里","LIN":"10鄰","STREET":"德善路","SECT":" ","MAREA":" ","LANE":"３０５巷","ALLEY":"１３弄","HOUSE_NO":"１３４號","E_COORD97":174069.66,"N_COORD97":2538316.27,"ADDRESS":"德善路３０５巷１３弄１３４號","OBJECTID":92855},"geometry":{"x":174069.66000000108,"y":2538316.2700000014}},{"attributes":{"ID":92856,"DIS_CODE":0,"TOWNNAME":"仁德區","LI":"上崙里","LIN":"10鄰","STREET":"德善路","SECT":" ","MAREA":" ","LANE":"３０５巷","ALLEY":"１３弄","HOUSE_NO":"９７號","E_COORD97":174066.41,"N_COORD97":2538378.96,"ADDRESS":"德善路３０５巷１３弄９７號","OBJECTID":92856},"geometry":{"x":174066.41000000108,"y":2538378.9600000009}},{"attributes":{"ID":92857,"DIS_CODE":0,"TOWNNAME":"仁德區","LI":"上崙里","LIN":"10鄰","STREET":"德善路","SECT":" ","MAREA":" ","LANE":"３０５巷","ALLEY":"１３弄","HOUSE_NO":"１８２號","E_COORD97":174085.75,"N_COORD97":2538264.5800000001,"ADDRESS":"德善路３０５巷１３弄１８２號","OBJECTID":92857},"geometry":{"x":174085.75000000093,"y":2538264.5800000019}},{"attributes":{"ID":92858,"DIS_CODE":0,"TOWNNAME":"安平區","LI":"海頭里","LIN":"15鄰","STREET":"安北路","SECT":" ","MAREA":" ","LANE":"１４６巷","ALLEY":" ","HOUSE_NO":"１號之３","E_COORD97":164059.39999999999,"N_COORD97":2544888.3100000001,"ADDRESS":"安北路１４６巷１號之３","OBJECTID":92858},"geometry":{"x":164059.40000000224,"y":2544888.3100000024}},{"attributes":{"ID":92859,"DIS_CODE":0,"TOWNNAME":"安平區","LI":"港仔里","LIN":"8鄰","STREET":"安平路","SECT":" ","MAREA":" ","LANE":" ","ALLEY":" ","HOUSE_NO":"１０１號之１","E_COORD97":164319,"N_COORD97":2544479.1299999999,"ADDRESS":"安平路１０１號之１","OBJECTID":92859},"geometry":{"x":164319,"y":2544479.129999999}},{"attributes":{"ID":92860,"DIS_CODE":0,"TOWNNAME":"安平區","LI":"港仔里","LIN":"8鄰","STREET":"安平路","SECT":" ","MAREA":" ","LANE":" ","ALLEY":" ","HOUSE_NO":"１０３號","E_COORD97":164315.32000000001,"N_COORD97":2544480.4500000002,"ADDRESS":"安平路１０３號","OBJECTID":92860},"geometry":{"x":164315.3200000003,"y":2544480.4499999993}},{"attributes":{"ID":92861,"DIS_CODE":0,"TOWNNAME":"東山區","LI":"東原里","LIN":"15鄰","STREET":" ","SECT":" ","MAREA":"瓦厝子","LANE":" ","ALLEY":" ","HOUSE_NO":"１號之１３","E_COORD97":193601.38,"N_COORD97":2574257.7400000002,"ADDRESS":"瓦厝子１號之１３","OBJECTID":92861},"geometry":{"x":193601.38000000082,"y":2574257.7400000002}},{"attributes":{"ID":92862,"DIS_CODE":0,"TOWNNAME":"鹽水區","LI":"飯店里","LIN":"9鄰","STREET":" ","SECT":" ","MAREA":"竹圍","LANE":" ","ALLEY":" ","HOUSE_NO":"３０號","E_COORD97":168774.67999999999,"N_COORD97":2573381.2000000002,"ADDRESS":"竹圍３０號","OBJECTID":92862},"geometry":{"x":168774.68000000156,"y":2573381.1999999993}},{"attributes":{"ID":92863,"DIS_CODE":0,"TOWNNAME":"新市區","LI":"大社里","LIN":"10鄰","STREET":" ","SECT":" ","MAREA":"大社","LANE":" ","ALLEY":" ","HOUSE_NO":"３６９號之１","E_COORD97":179995.60999999999,"N_COORD97":2554718.2999999998,"ADDRESS":"大社３６９號之１","OBJECTID":92863},"geometry":{"x":179995.61000000034,"y":2554718.3000000007}},{"attributes":{"ID":92864,"DIS_CODE":0,"TOWNNAME":"新市區","LI":"豐華里","LIN":"10鄰","STREET":" ","SECT":" ","MAREA":"豐華","LANE":" ","ALLEY":" ","HOUSE_NO":"４７之１９號","E_COORD97":174123.38,"N_COORD97":2554476.5499999998,"ADDRESS":"豐華４７之１９號","OBJECTID":92864},"geometry":{"x":174123.38000000175,"y":2554476.5500000007}},{"attributes":{"ID":92865,"DIS_CODE":0,"TOWNNAME":"新市區","LI":"大營里","LIN":"10鄰","STREET":" ","SECT":" ","MAREA":"大營","LANE":" ","ALLEY":" ","HOUSE_NO":"２２８之１號","E_COORD97":179360.45000000001,"N_COORD97":2555707.7999999998,"ADDRESS":"大營２２８之１號","OBJECTID":92865},"geometry":{"x":179360.45000000112,"y":2555707.8000000026}},{"attributes":{"ID":92866,"DIS_CODE":0,"TOWNNAME":"白河區","LI":"仙草里","LIN":"10鄰","STREET":" ","SECT":" ","MAREA":"火山","LANE":" ","ALLEY":" ","HOUSE_NO":"２號","E_COORD97":196764.03,"N_COORD97":2580644.75,"ADDRESS":"火山２號","OBJECTID":92866},"geometry":{"x":196764.03000000119,"y":2580644.75}},{"attributes":{"ID":92867,"DIS_CODE":0,"TOWNNAME":"仁德區","LI":"上崙里","LIN":"10鄰","STREET":"德善路","SECT":" ","MAREA":" ","LANE":"３０５巷","ALLEY":"１３弄","HOUSE_NO":"１３９號","E_COORD97":174098.16,"N_COORD97":2538329.7200000002,"ADDRESS":"德善路３０５巷１３弄１３９號","OBJECTID":92867},"geometry":{"x":174098.16000000201,"y":2538329.7200000007}},{"attributes":{"ID":92868,"DIS_CODE":0,"TOWNNAME":"白河區","LI":"仙草里","LIN":"10鄰","STREET":" ","SECT":" ","MAREA":"火山","LANE":" ","ALLEY":" ","HOUSE_NO":"５號","E_COORD97":196712.54000000001,"N_COORD97":2580714.75,"ADDRESS":"火山５號","OBJECTID":92868},"geometry":{"x":196712.5400000019,"y":2580714.7500000019}},{"attributes":{"ID":92869,"DIS_CODE":0,"TOWNNAME":"白河區","LI":"仙草里","LIN":"10鄰","STREET":" ","SECT":" ","MAREA":"火山","LANE":" ","ALLEY":" ","HOUSE_NO":"９號","E_COORD97":196731.42999999999,"N_COORD97":2580733.8900000001,"ADDRESS":"火山９號","OBJECTID":92869},"geometry":{"x":196731.4299999997,"y":2580733.8900000025}},{"attributes":{"ID":92870,"DIS_CODE":0,"TOWNNAME":"白河區","LI":"甘宅里","LIN":"10鄰","STREET":" ","SECT":" ","MAREA":"甘宅","LANE":" ","ALLEY":" ","HOUSE_NO":"１０２號","E_COORD97":192010.60999999999,"N_COORD97":2586515.3500000001,"ADDRESS":"甘宅１０２號","OBJECTID":92870},"geometry":{"x":192010.61000000127,"y":2586515.3499999996}},{"attributes":{"ID":92871,"DIS_CODE":0,"TOWNNAME":"白河區","LI":"甘宅里","LIN":"10鄰","STREET":" ","SECT":" ","MAREA":"甘宅","LANE":" ","ALLEY":" ","HOUSE_NO":"１０３號","E_COORD97":192066.94,"N_COORD97":2586494.8199999998,"ADDRESS":"甘宅１０３號","OBJECTID":92871},"geometry":{"x":192066.94000000041,"y":2586494.8200000022}},{"attributes":{"ID":92872,"DIS_CODE":0,"TOWNNAME":"白河區","LI":"甘宅里","LIN":"10鄰","STREET":" ","SECT":" ","MAREA":"甘宅","LANE":" ","ALLEY":" ","HOUSE_NO":"１０４號","E_COORD97":192067.62,"N_COORD97":2586477.4900000002,"ADDRESS":"甘宅１０４號","OBJECTID":92872},"geometry":{"x":192067.62000000104,"y":2586477.4900000002}},{"attributes":{"ID":92873,"DIS_CODE":0,"TOWNNAME":"白河區","LI":"甘宅里","LIN":"10鄰","STREET":" ","SECT":" ","MAREA":"甘宅","LANE":" ","ALLEY":" ","HOUSE_NO":"１０５號","E_COORD97":192046.35999999999,"N_COORD97":2586458.6099999999,"ADDRESS":"甘宅１０５號","OBJECTID":92873},"geometry":{"x":192046.36000000127,"y":2586458.6099999994}},{"attributes":{"ID":92874,"DIS_CODE":0,"TOWNNAME":"白河區","LI":"甘宅里","LIN":"10鄰","STREET":" ","SECT":" ","MAREA":"甘宅","LANE":" ","ALLEY":" ","HOUSE_NO":"１０６號","E_COORD97":192037.66,"N_COORD97":2586443.1200000001,"ADDRESS":"甘宅１０６號","OBJECTID":92874},"geometry":{"x":192037.66000000015,"y":2586443.1200000029}},{"attributes":{"ID":92875,"DIS_CODE":0,"TOWNNAME":"白河區","LI":"甘宅里","LIN":"10鄰","STREET":" ","SECT":" ","MAREA":"甘宅","LANE":" ","ALLEY":" ","HOUSE_NO":"１０８之１號","E_COORD97":192113.23999999999,"N_COORD97":2586468.75,"ADDRESS":"甘宅１０８之１號","OBJECTID":92875},"geometry":{"x":192113.24000000022,"y":2586468.75}},{"attributes":{"ID":92876,"DIS_CODE":0,"TOWNNAME":"白河區","LI":"甘宅里","LIN":"10鄰","STREET":" ","SECT":" ","MAREA":"甘宅","LANE":" ","ALLEY":" ","HOUSE_NO":"１０９號","E_COORD97":192073.13,"N_COORD97":2586453.3100000001,"ADDRESS":"甘宅１０９號","OBJECTID":92876},"geometry":{"x":192073.12999999989,"y":2586453.3100000042}},{"attributes":{"ID":92877,"DIS_CODE":0,"TOWNNAME":"仁德區","LI":"仁義里","LIN":"10鄰","STREET":"仁義一街","SECT":" ","MAREA":" ","LANE":"７６巷","ALLEY":"２弄","HOUSE_NO":"１號","E_COORD97":173480.51999999999,"N_COORD97":2541163.02,"ADDRESS":"仁義一街７６巷２弄１號","OBJECTID":92877},"geometry":{"x":173480.51999999955,"y":2541163.0200000014}},{"attributes":{"ID":92878,"DIS_CODE":0,"TOWNNAME":"仁德區","LI":"仁義里","LIN":"10鄰","STREET":"仁義一街","SECT":" ","MAREA":" ","LANE":"７６巷","ALLEY":"１弄","HOUSE_NO":"４號","E_COORD97":173499.54000000001,"N_COORD97":2541157.9300000002,"ADDRESS":"仁義一街７６巷１弄４號","OBJECTID":92878},"geometry":{"x":173499.54000000004,"y":2541157.9299999997}},{"attributes":{"ID":92879,"DIS_CODE":0,"TOWNNAME":"仁德區","LI":"仁義里","LIN":"10鄰","STREET":"中山路","SECT":" ","MAREA":" ","LANE":"５３９巷","ALLEY":"２弄","HOUSE_NO":"６號","E_COORD97":173452.39999999999,"N_COORD97":2541261.1899999999,"ADDRESS":"中山路５３９巷２弄６號","OBJECTID":92879},"geometry":{"x":173452.39999999944,"y":2541261.1899999995}},{"attributes":{"ID":92880,"DIS_CODE":0,"TOWNNAME":"白河區","LI":"甘宅里","LIN":"10鄰","STREET":" ","SECT":" ","MAREA":"甘宅","LANE":" ","ALLEY":" ","HOUSE_NO":"１１０之１號","E_COORD97":192056.26000000001,"N_COORD97":2586412.6299999999,"ADDRESS":"甘宅１１０之１號","OBJECTID":92880},"geometry":{"x":192056.26000000071,"y":2586412.6300000008}},{"attributes":{"ID":92881,"DIS_CODE":0,"TOWNNAME":"白河區","LI":"甘宅里","LIN":"10鄰","STREET":" ","SECT":" ","MAREA":"甘宅","LANE":" ","ALLEY":" ","HOUSE_NO":"１１０號","E_COORD97":192036.01000000001,"N_COORD97":2586429.0699999998,"ADDRESS":"甘宅１１０號","OBJECTID":92881},"geometry":{"x":192036.01000000071,"y":2586429.0700000022}},{"attributes":{"ID":92882,"DIS_CODE":0,"TOWNNAME":"白河區","LI":"甘宅里","LIN":"10鄰","STREET":" ","SECT":" ","MAREA":"甘宅","LANE":" ","ALLEY":" ","HOUSE_NO":"１１２之１號","E_COORD97":192070.82999999999,"N_COORD97":2586339.7400000002,"ADDRESS":"甘宅１１２之１號","OBJECTID":92882},"geometry":{"x":192070.82999999914,"y":2586339.7400000021}},{"attributes":{"ID":92883,"DIS_CODE":0,"TOWNNAME":"白河區","LI":"甘宅里","LIN":"10鄰","STREET":" ","SECT":" ","MAREA":"甘宅","LANE":" ","ALLEY":" ","HOUSE_NO":"１１２號","E_COORD97":192064.69,"N_COORD97":2586361.48,"ADDRESS":"甘宅１１２號","OBJECTID":92883},"geometry":{"x":192064.69000000041,"y":2586361.4800000023}},{"attributes":{"ID":92884,"DIS_CODE":0,"TOWNNAME":"白河區","LI":"甘宅里","LIN":"10鄰","STREET":" ","SECT":" ","MAREA":"甘宅","LANE":" ","ALLEY":" ","HOUSE_NO":"１１３號","E_COORD97":192094.12,"N_COORD97":2586385.2599999998,"ADDRESS":"甘宅１１３號","OBJECTID":92884},"geometry":{"x":192094.12000000011,"y":2586385.2600000035}},{"attributes":{"ID":92885,"DIS_CODE":0,"TOWNNAME":"白河區","LI":"甘宅里","LIN":"10鄰","STREET":" ","SECT":" ","MAREA":"甘宅","LANE":" ","ALLEY":" ","HOUSE_NO":"１１４號","E_COORD97":192121.98999999999,"N_COORD97":2586387.0899999999,"ADDRESS":"甘宅１１４號","OBJECTID":92885},"geometry":{"x":192121.99000000022,"y":2586387.0900000017}},{"attributes":{"ID":92886,"DIS_CODE":0,"TOWNNAME":"白河區","LI":"甘宅里","LIN":"10鄰","STREET":" ","SECT":" ","MAREA":"甘宅","LANE":" ","ALLEY":" ","HOUSE_NO":"１１５號","E_COORD97":192201.10000000001,"N_COORD97":2586416.73,"ADDRESS":"甘宅１１５號","OBJECTID":92886},"geometry":{"x":192201.10000000056,"y":2586416.7300000023}},{"attributes":{"ID":92887,"DIS_CODE":0,"TOWNNAME":"安南區","LI":"國安里","LIN":"10鄰","STREET":"郡安路","SECT":"六段","MAREA":" ","LANE":"１１１巷","ALLEY":"４０弄","HOUSE_NO":"１號","E_COORD97":166519.53,"N_COORD97":2547197.1800000002,"ADDRESS":"郡安路六段１１１巷４０弄１號","OBJECTID":92887},"geometry":{"x":166519.53000000026,"y":2547197.1800000016}},{"attributes":{"ID":92888,"DIS_CODE":0,"TOWNNAME":"安南區","LI":"國安里","LIN":"10鄰","STREET":"郡安路","SECT":"六段","MAREA":" ","LANE":"１１１巷","ALLEY":"４０弄","HOUSE_NO":"２號","E_COORD97":166512.04999999999,"N_COORD97":2547233.8199999998,"ADDRESS":"郡安路六段１１１巷４０弄２號","OBJECTID":92888},"geometry":{"x":166512.04999999981,"y":2547233.8200000022}},{"attributes":{"ID":92889,"DIS_CODE":0,"TOWNNAME":"安南區","LI":"國安里","LIN":"10鄰","STREET":"郡安路","SECT":"六段","MAREA":" ","LANE":"１１１巷","ALLEY":"４０弄","HOUSE_NO":"３號","E_COORD97":166514.23000000001,"N_COORD97":2547196.1099999999,"ADDRESS":"郡安路六段１１１巷４０弄３號","OBJECTID":92889},"geometry":{"x":166514.23000000138,"y":2547196.1099999975}},{"attributes":{"ID":92890,"DIS_CODE":0,"TOWNNAME":"新營區","LI":"新北里","LIN":"15鄰","STREET":"南新街","SECT":" ","MAREA":" ","LANE":" ","ALLEY":" ","HOUSE_NO":"１９號","E_COORD97":179340.41,"N_COORD97":2578852.71,"ADDRESS":"南新街１９號","OBJECTID":92890},"geometry":{"x":179340.41000000108,"y":2578852.7100000009}},{"attributes":{"ID":92891,"DIS_CODE":0,"TOWNNAME":"新營區","LI":"中營里","LIN":"15鄰","STREET":"開元路","SECT":" ","MAREA":" ","LANE":" ","ALLEY":" ","HOUSE_NO":"９８號","E_COORD97":181579.64000000001,"N_COORD97":2579354.9500000002,"ADDRESS":"開元路９８號","OBJECTID":92891},"geometry":{"x":181579.63999999966,"y":2579354.950000003}},{"attributes":{"ID":92892,"DIS_CODE":0,"TOWNNAME":"新營區","LI":"王公里","LIN":"15鄰","STREET":"大勇街","SECT":" ","MAREA":" ","LANE":" ","ALLEY":" ","HOUSE_NO":"４２號","E_COORD97":180280.12,"N_COORD97":2579428.5600000001,"ADDRESS":"大勇街４２號","OBJECTID":92892},"geometry":{"x":180280.12000000011,"y":2579428.5600000005}},{"attributes":{"ID":92893,"DIS_CODE":0,"TOWNNAME":"新營區","LI":"嘉芳里","LIN":"15鄰","STREET":"復興路","SECT":" ","MAREA":" ","LANE":" ","ALLEY":" ","HOUSE_NO":"１１１４號","E_COORD97":176050.45000000001,"N_COORD97":2578865.4700000002,"ADDRESS":"復興路１１１４號","OBJECTID":92893},"geometry":{"x":176050.45000000019,"y":2578865.4700000025}},{"attributes":{"ID":92894,"DIS_CODE":0,"TOWNNAME":"新營區","LI":"南興里","LIN":"15鄰","STREET":"建業路","SECT":" ","MAREA":" ","LANE":" ","ALLEY":" ","HOUSE_NO":"１１６號","E_COORD97":179211.39000000001,"N_COORD97":2577492.2799999998,"ADDRESS":"建業路１１６號","OBJECTID":92894},"geometry":{"x":179211.38999999966,"y":2577492.2800000012}},{"attributes":{"ID":92895,"DIS_CODE":0,"TOWNNAME":"新營區","LI":"新北里","LIN":"15鄰","STREET":"南新街","SECT":" ","MAREA":" ","LANE":" ","ALLEY":" ","HOUSE_NO":"３７號","E_COORD97":179310.95000000001,"N_COORD97":2578875,"ADDRESS":"南新街３７號","OBJECTID":92895},"geometry":{"x":179310.95000000112,"y":2578875.0000000019}},{"attributes":{"ID":92896,"DIS_CODE":0,"TOWNNAME":"安南區","LI":"國安里","LIN":"10鄰","STREET":"郡安路","SECT":"六段","MAREA":" ","LANE":"１１１巷","ALLEY":"４０弄","HOUSE_NO":"５號","E_COORD97":166509.97,"N_COORD97":2547195.25,"ADDRESS":"郡安路六段１１１巷４０弄５號","OBJECTID":92896},"geometry":{"x":166509.97000000067,"y":2547195.25}},{"attributes":{"ID":92897,"DIS_CODE":0,"TOWNNAME":"後壁區","LI":"菁寮里","LIN":"10鄰","STREET":" ","SECT":" ","MAREA":"菁寮","LANE":" ","ALLEY":" ","HOUSE_NO":"１１８號","E_COORD97":181948.42999999999,"N_COORD97":2586433.1699999999,"ADDRESS":"菁寮１１８號","OBJECTID":92897},"geometry":{"x":181948.43000000063,"y":2586433.1700000037}},{"attributes":{"ID":92898,"DIS_CODE":0,"TOWNNAME":"安南區","LI":"國安里","LIN":"10鄰","STREET":"郡安路","SECT":"六段","MAREA":" ","LANE":"１１１巷","ALLEY":"４０弄","HOUSE_NO":"６號","E_COORD97":166505.95000000001,"N_COORD97":2547234.21,"ADDRESS":"郡安路六段１１１巷４０弄６號","OBJECTID":92898},"geometry":{"x":166505.95000000019,"y":2547234.209999999}},{"attributes":{"ID":92899,"DIS_CODE":0,"TOWNNAME":"安南區","LI":"國安里","LIN":"10鄰","STREET":"郡安路","SECT":"六段","MAREA":" ","LANE":"１１１巷","ALLEY":"４０弄","HOUSE_NO":"７號","E_COORD97":166505.70999999999,"N_COORD97":2547194.3799999999,"ADDRESS":"郡安路六段１１１巷４０弄７號","OBJECTID":92899},"geometry":{"x":166505.70999999996,"y":2547194.3800000008}},{"attributes":{"ID":92900,"DIS_CODE":0,"TOWNNAME":"官田區","LI":"渡頭里","LIN":"10鄰","STREET":" ","SECT":" ","MAREA":"渡子頭","LANE":" ","ALLEY":" ","HOUSE_NO":"６８號","E_COORD97":181050.89999999999,"N_COORD97":2563033.5899999999,"ADDRESS":"渡子頭６８號","OBJECTID":92900},"geometry":{"x":181050.9000000013,"y":2563033.5900000036}},{"attributes":{"ID":92901,"DIS_CODE":0,"TOWNNAME":"官田區","LI":"渡頭里","LIN":"10鄰","STREET":" ","SECT":" ","MAREA":"渡子頭","LANE":" ","ALLEY":" ","HOUSE_NO":"６９號之２","E_COORD97":181023.82000000001,"N_COORD97":2563058.9700000002,"ADDRESS":"渡子頭６９號之２","OBJECTID":92901},"geometry":{"x":181023.82000000216,"y":2563058.9700000044}},{"attributes":{"ID":92902,"DIS_CODE":0,"TOWNNAME":"官田區","LI":"渡頭里","LIN":"10鄰","STREET":" ","SECT":" ","MAREA":"渡子頭","LANE":" ","ALLEY":" ","HOUSE_NO":"６９號","E_COORD97":181032.64000000001,"N_COORD97":2563067.3199999998,"ADDRESS":"渡子頭６９號","OBJECTID":92902},"geometry":{"x":181032.63999999873,"y":2563067.3200000022}},{"attributes":{"ID":92903,"DIS_CODE":0,"TOWNNAME":"官田區","LI":"渡頭里","LIN":"10鄰","STREET":" ","SECT":" ","MAREA":"渡子頭","LANE":" ","ALLEY":" ","HOUSE_NO":"７２號之１","E_COORD97":181071,"N_COORD97":2563098.96,"ADDRESS":"渡子頭７２號之１","OBJECTID":92903},"geometry":{"x":181071,"y":2563098.9600000009}},{"attributes":{"ID":92904,"DIS_CODE":0,"TOWNNAME":"官田區","LI":"渡頭里","LIN":"10鄰","STREET":" ","SECT":" ","MAREA":"渡子頭","LANE":" ","ALLEY":" ","HOUSE_NO":"７２號之２","E_COORD97":181070.51000000001,"N_COORD97":2563104.04,"ADDRESS":"渡子頭７２號之２","OBJECTID":92904},"geometry":{"x":181070.50999999978,"y":2563104.0400000028}},{"attributes":{"ID":92905,"DIS_CODE":0,"TOWNNAME":"官田區","LI":"渡頭里","LIN":"10鄰","STREET":" ","SECT":" ","MAREA":"渡子頭","LANE":" ","ALLEY":" ","HOUSE_NO":"７２號之３","E_COORD97":181070.01999999999,"N_COORD97":2563109.1099999999,"ADDRESS":"渡子頭７２號之３","OBJECTID":92905},"geometry":{"x":181070.01999999955,"y":2563109.1099999994}},{"attributes":{"ID":92906,"DIS_CODE":0,"TOWNNAME":"安南區","LI":"國安里","LIN":"10鄰","STREET":"郡安路","SECT":"六段","MAREA":" ","LANE":"１１１巷","ALLEY":"４０弄","HOUSE_NO":"８號","E_COORD97":166502.01000000001,"N_COORD97":2547231.8399999999,"ADDRESS":"郡安路六段１１１巷４０弄８號","OBJECTID":92906},"geometry":{"x":166502.00999999978,"y":2547231.8399999999}},{"attributes":{"ID":92907,"DIS_CODE":0,"TOWNNAME":"官田區","LI":"渡頭里","LIN":"10鄰","STREET":" ","SECT":" ","MAREA":"渡子頭","LANE":" ","ALLEY":" ","HOUSE_NO":"７２號","E_COORD97":181071.56,"N_COORD97":2563094.0600000001,"ADDRESS":"渡子頭７２號","OBJECTID":92907},"geometry":{"x":181071.55999999959,"y":2563094.0600000005}},{"attributes":{"ID":92908,"DIS_CODE":0,"TOWNNAME":"官田區","LI":"渡頭里","LIN":"10鄰","STREET":" ","SECT":" ","MAREA":"渡子頭","LANE":" ","ALLEY":" ","HOUSE_NO":"７３號","E_COORD97":181052.37,"N_COORD97":2563101.9500000002,"ADDRESS":"渡子頭７３號","OBJECTID":92908},"geometry":{"x":181052.37000000104,"y":2563101.9500000011}},{"attributes":{"ID":92909,"DIS_CODE":0,"TOWNNAME":"官田區","LI":"渡頭里","LIN":"10鄰","STREET":" ","SECT":" ","MAREA":"渡子頭","LANE":" ","ALLEY":" ","HOUSE_NO":"７４號","E_COORD97":181037.04000000001,"N_COORD97":2563096.1499999999,"ADDRESS":"渡子頭７４號","OBJECTID":92909},"geometry":{"x":181037.04000000004,"y":2563096.1500000022}},{"attributes":{"ID":92910,"DIS_CODE":0,"TOWNNAME":"官田區","LI":"渡頭里","LIN":"10鄰","STREET":" ","SECT":" ","MAREA":"渡子頭","LANE":" ","ALLEY":" ","HOUSE_NO":"７５號之１","E_COORD97":180989.04999999999,"N_COORD97":2563075.1600000001,"ADDRESS":"渡子頭７５號之１","OBJECTID":92910},"geometry":{"x":180989.04999999981,"y":2563075.160000002}},{"attributes":{"ID":92911,"DIS_CODE":0,"TOWNNAME":"官田區","LI":"渡頭里","LIN":"10鄰","STREET":" ","SECT":" ","MAREA":"渡子頭","LANE":" ","ALLEY":" ","HOUSE_NO":"７５號之２","E_COORD97":180968.70999999999,"N_COORD97":2563091.1200000001,"ADDRESS":"渡子頭７５號之２","OBJECTID":92911},"geometry":{"x":180968.71000000089,"y":2563091.120000001}},{"attributes":{"ID":92912,"DIS_CODE":0,"TOWNNAME":"安南區","LI":"國安里","LIN":"10鄰","STREET":"郡安路","SECT":"六段","MAREA":" ","LANE":"１１１巷","ALLEY":"４０弄","HOUSE_NO":"９號","E_COORD97":166501.44,"N_COORD97":2547193.52,"ADDRESS":"郡安路六段１１１巷４０弄９號","OBJECTID":92912},"geometry":{"x":166501.44000000041,"y":2547193.5200000033}},{"attributes":{"ID":92913,"DIS_CODE":0,"TOWNNAME":"官田區","LI":"渡頭里","LIN":"10鄰","STREET":" ","SECT":" ","MAREA":"渡子頭","LANE":" ","ALLEY":" ","HOUSE_NO":"７５號","E_COORD97":181016.47,"N_COORD97":2563089.2400000002,"ADDRESS":"渡子頭７５號","OBJECTID":92913},"geometry":{"x":181016.46999999974,"y":2563089.2400000002}},{"attributes":{"ID":92914,"DIS_CODE":0,"TOWNNAME":"官田區","LI":"大崎里","LIN":"10鄰","STREET":" ","SECT":" ","MAREA":"莿子埔","LANE":" ","ALLEY":" ","HOUSE_NO":"１３號","E_COORD97":188116.07999999999,"N_COORD97":2564098.6299999999,"ADDRESS":"莿子埔１３號","OBJECTID":92914},"geometry":{"x":188116.08000000194,"y":2564098.629999999}},{"attributes":{"ID":92915,"DIS_CODE":0,"TOWNNAME":"安南區","LI":"國安里","LIN":"10鄰","STREET":"郡安路","SECT":"六段","MAREA":" ","LANE":"１１１巷","ALLEY":"４０弄","HOUSE_NO":"１０號","E_COORD97":166497.31,"N_COORD97":2547232.52,"ADDRESS":"郡安路六段１１１巷４０弄１０號","OBJECTID":92915},"geometry":{"x":166497.31000000052,"y":2547232.5200000014}},{"attributes":{"ID":92916,"DIS_CODE":0,"TOWNNAME":"安南區","LI":"國安里","LIN":"10鄰","STREET":"郡安路","SECT":"六段","MAREA":" ","LANE":"１１１巷","ALLEY":"４０弄","HOUSE_NO":"１１號","E_COORD97":166495.66,"N_COORD97":2547198.7599999998,"ADDRESS":"郡安路六段１１１巷４０弄１１號","OBJECTID":92916},"geometry":{"x":166495.66000000108,"y":2547198.7599999979}},{"attributes":{"ID":92917,"DIS_CODE":0,"TOWNNAME":"安南區","LI":"國安里","LIN":"10鄰","STREET":"郡安路","SECT":"六段","MAREA":" ","LANE":"１１１巷","ALLEY":"４０弄","HOUSE_NO":"１２號","E_COORD97":166493.48000000001,"N_COORD97":2547230.1499999999,"ADDRESS":"郡安路六段１１１巷４０弄１２號","OBJECTID":92917},"geometry":{"x":166493.48000000138,"y":2547230.1500000004}},{"attributes":{"ID":92918,"DIS_CODE":0,"TOWNNAME":"官田區","LI":"大崎里","LIN":"10鄰","STREET":" ","SECT":" ","MAREA":"莿子埔","LANE":" ","ALLEY":" ","HOUSE_NO":"１４號","E_COORD97":188055.42999999999,"N_COORD97":2564146.3599999999,"ADDRESS":"莿子埔１４號","OBJECTID":92918},"geometry":{"x":188055.4299999997,"y":2564146.3600000031}},{"attributes":{"ID":92919,"DIS_CODE":0,"TOWNNAME":"安南區","LI":"國安里","LIN":"10鄰","STREET":"郡安路","SECT":"六段","MAREA":" ","LANE":"１１１巷","ALLEY":"４０弄","HOUSE_NO":"１３號","E_COORD97":166492.92000000001,"N_COORD97":2547191.7599999998,"ADDRESS":"郡安路六段１１１巷４０弄１３號","OBJECTID":92919},"geometry":{"x":166492.91999999993,"y":2547191.7599999998}},{"attributes":{"ID":92920,"DIS_CODE":0,"TOWNNAME":"官田區","LI":"大崎里","LIN":"10鄰","STREET":" ","SECT":" ","MAREA":"莿子埔","LANE":" ","ALLEY":" ","HOUSE_NO":"１５號","E_COORD97":188085.26000000001,"N_COORD97":2564127.4100000001,"ADDRESS":"莿子埔１５號","OBJECTID":92920},"geometry":{"x":188085.25999999978,"y":2564127.410000002}},{"attributes":{"ID":92921,"DIS_CODE":0,"TOWNNAME":"安南區","LI":"國安里","LIN":"10鄰","STREET":"郡安路","SECT":"六段","MAREA":" ","LANE":"１１１巷","ALLEY":"４０弄","HOUSE_NO":"１５號","E_COORD97":166488.66,"N_COORD97":2547190.8700000001,"ADDRESS":"郡安路六段１１１巷４０弄１５號","OBJECTID":92921},"geometry":{"x":166488.66000000108,"y":2547190.8700000029}},{"attributes":{"ID":92922,"DIS_CODE":0,"TOWNNAME":"安南區","LI":"國安里","LIN":"10鄰","STREET":"郡安路","SECT":"六段","MAREA":" ","LANE":"１１１巷","ALLEY":"４０弄","HOUSE_NO":"１６號","E_COORD97":166489.20999999999,"N_COORD97":2547228.6000000001,"ADDRESS":"郡安路六段１１１巷４０弄１６號","OBJECTID":92922},"geometry":{"x":166489.20999999996,"y":2547228.6000000015}},{"attributes":{"ID":92923,"DIS_CODE":0,"TOWNNAME":"安南區","LI":"國安里","LIN":"10鄰","STREET":"郡安路","SECT":"六段","MAREA":" ","LANE":"１１１巷","ALLEY":"４０弄","HOUSE_NO":"１７號","E_COORD97":166484.41,"N_COORD97":2547189.98,"ADDRESS":"郡安路六段１１１巷４０弄１７號","OBJECTID":92923},"geometry":{"x":166484.41000000015,"y":2547189.9800000004}},{"attributes":{"ID":92924,"DIS_CODE":0,"TOWNNAME":"新營區","LI":"民榮里","LIN":"15鄰","STREET":"復興路","SECT":" ","MAREA":" ","LANE":" ","ALLEY":" ","HOUSE_NO":"２３７號","E_COORD97":178850.07999999999,"N_COORD97":2578070.9900000002,"ADDRESS":"復興路２３７號","OBJECTID":92924},"geometry":{"x":178850.07999999914,"y":2578070.9900000039}},{"attributes":{"ID":92925,"DIS_CODE":0,"TOWNNAME":"新營區","LI":"民榮里","LIN":"15鄰","STREET":"復興路","SECT":" ","MAREA":" ","LANE":" ","ALLEY":" ","HOUSE_NO":"２０９號","E_COORD97":178907.28,"N_COORD97":2578054.1000000001,"ADDRESS":"復興路２０９號","OBJECTID":92925},"geometry":{"x":178907.28000000119,"y":2578054.1000000015}},{"attributes":{"ID":92926,"DIS_CODE":0,"TOWNNAME":"新營區","LI":"民榮里","LIN":"15鄰","STREET":"復興路","SECT":" ","MAREA":" ","LANE":" ","ALLEY":" ","HOUSE_NO":"２６７號","E_COORD97":178759.17000000001,"N_COORD97":2578099.1099999999,"ADDRESS":"復興路２６７號","OBJECTID":92926},"geometry":{"x":178759.16999999993,"y":2578099.1099999994}},{"attributes":{"ID":92927,"DIS_CODE":0,"TOWNNAME":"新營區","LI":"民榮里","LIN":"15鄰","STREET":"復興路","SECT":" ","MAREA":" ","LANE":" ","ALLEY":" ","HOUSE_NO":"２７９號","E_COORD97":178731.59,"N_COORD97":2578105.8900000001,"ADDRESS":"復興路２７９號","OBJECTID":92927},"geometry":{"x":178731.59000000078,"y":2578105.8900000043}},{"attributes":{"ID":92928,"DIS_CODE":0,"TOWNNAME":"新營區","LI":"民榮里","LIN":"15鄰","STREET":"復興路","SECT":" ","MAREA":" ","LANE":" ","ALLEY":" ","HOUSE_NO":"２０１號","E_COORD97":178925.67000000001,"N_COORD97":2578048.48,"ADDRESS":"復興路２０１號","OBJECTID":92928},"geometry":{"x":178925.67000000179,"y":2578048.4800000023}},{"attributes":{"ID":92929,"DIS_CODE":0,"TOWNNAME":"官田區","LI":"大崎里","LIN":"10鄰","STREET":" ","SECT":" ","MAREA":"莿子埔","LANE":" ","ALLEY":" ","HOUSE_NO":"１７號","E_COORD97":188133.48000000001,"N_COORD97":2564077.5099999998,"ADDRESS":"莿子埔１７號","OBJECTID":92929},"geometry":{"x":188133.48000000045,"y":2564077.5099999998}},{"attributes":{"ID":92930,"DIS_CODE":0,"TOWNNAME":"安南區","LI":"國安里","LIN":"10鄰","STREET":"郡安路","SECT":"六段","MAREA":" ","LANE":"１１１巷","ALLEY":"４０弄","HOUSE_NO":"１８號","E_COORD97":166484.95000000001,"N_COORD97":2547228.4300000002,"ADDRESS":"郡安路六段１１１巷４０弄１８號","OBJECTID":92930},"geometry":{"x":166484.95000000112,"y":2547228.4300000034}},{"attributes":{"ID":92931,"DIS_CODE":0,"TOWNNAME":"安南區","LI":"國安里","LIN":"10鄰","STREET":"郡安路","SECT":"六段","MAREA":" ","LANE":"１１１巷","ALLEY":"４０弄","HOUSE_NO":"１９號","E_COORD97":166480.14999999999,"N_COORD97":2547189.0800000001,"ADDRESS":"郡安路六段１１１巷４０弄１９號","OBJECTID":92931},"geometry":{"x":166480.15000000224,"y":2547189.0800000001}},{"attributes":{"ID":92932,"DIS_CODE":0,"TOWNNAME":"安南區","LI":"國安里","LIN":"10鄰","STREET":"郡安路","SECT":"六段","MAREA":" ","LANE":"１１１巷","ALLEY":"４０弄","HOUSE_NO":"２０號","E_COORD97":166480.69,"N_COORD97":2547227.5600000001,"ADDRESS":"郡安路六段１１１巷４０弄２０號","OBJECTID":92932},"geometry":{"x":166480.69000000134,"y":2547227.5600000005}},{"attributes":{"ID":92933,"DIS_CODE":0,"TOWNNAME":"安南區","LI":"國安里","LIN":"10鄰","STREET":"郡安路","SECT":"六段","MAREA":" ","LANE":"１１１巷","ALLEY":"４０弄","HOUSE_NO":"２１號","E_COORD97":166475.89000000001,"N_COORD97":2547188.1899999999,"ADDRESS":"郡安路六段１１１巷４０弄２１號","OBJECTID":92933},"geometry":{"x":166475.88999999966,"y":2547188.1899999995}},{"attributes":{"ID":92934,"DIS_CODE":0,"TOWNNAME":"安定區","LI":"六嘉里","LIN":"10鄰","STREET":" ","SECT":" ","MAREA":"六塊寮","LANE":" ","ALLEY":" ","HOUSE_NO":"８５之７號","E_COORD97":170269.12,"N_COORD97":2553233.2999999998,"ADDRESS":"六塊寮８５之７號","OBJECTID":92934},"geometry":{"x":170269.12000000104,"y":2553233.3000000007}},{"attributes":{"ID":92935,"DIS_CODE":0,"TOWNNAME":"安定區","LI":"港尾里","LIN":"10鄰","STREET":" ","SECT":" ","MAREA":"港子尾","LANE":" ","ALLEY":" ","HOUSE_NO":"５６號","E_COORD97":171605.39000000001,"N_COORD97":2555783.2599999998,"ADDRESS":"港子尾５６號","OBJECTID":92935},"geometry":{"x":171605.38999999966,"y":2555783.2599999979}},{"attributes":{"ID":92936,"DIS_CODE":0,"TOWNNAME":"安南區","LI":"國安里","LIN":"10鄰","STREET":"郡安路","SECT":"六段","MAREA":" ","LANE":"１１１巷","ALLEY":"４０弄","HOUSE_NO":"２２號","E_COORD97":166476.66,"N_COORD97":2547229.1800000002,"ADDRESS":"郡安路六段１１１巷４０弄２２號","OBJECTID":92936},"geometry":{"x":166476.66000000108,"y":2547229.1799999997}},{"attributes":{"ID":92937,"DIS_CODE":0,"TOWNNAME":"安定區","LI":"中榮里","LIN":"10鄰","STREET":" ","SECT":" ","MAREA":"許中營","LANE":" ","ALLEY":" ","HOUSE_NO":"７８之５號","E_COORD97":172294.23999999999,"N_COORD97":2555177.2999999998,"ADDRESS":"許中營７８之５號","OBJECTID":92937},"geometry":{"x":172294.24000000115,"y":2555177.3000000045}},{"attributes":{"ID":92938,"DIS_CODE":0,"TOWNNAME":"安南區","LI":"國安里","LIN":"10鄰","STREET":"郡安路","SECT":"六段","MAREA":" ","LANE":"１１１巷","ALLEY":"４０弄","HOUSE_NO":"２３號","E_COORD97":166471.63,"N_COORD97":2547187.2999999998,"ADDRESS":"郡安路六段１１１巷４０弄２３號","OBJECTID":92938},"geometry":{"x":166471.63000000082,"y":2547187.3000000026}},{"attributes":{"ID":92939,"DIS_CODE":0,"TOWNNAME":"安定區","LI":"港尾里","LIN":"10鄰","STREET":" ","SECT":" ","MAREA":"港子尾","LANE":" ","ALLEY":" ","HOUSE_NO":"５６之１３號","E_COORD97":171608.44,"N_COORD97":2555746.2999999998,"ADDRESS":"港子尾５６之１３號","OBJECTID":92939},"geometry":{"x":171608.44000000134,"y":2555746.3000000007}},{"attributes":{"ID":92940,"DIS_CODE":0,"TOWNNAME":"安南區","LI":"國安里","LIN":"10鄰","STREET":"郡安路","SECT":"六段","MAREA":" ","LANE":"１１１巷","ALLEY":"４０弄","HOUSE_NO":"２５號","E_COORD97":166465.59,"N_COORD97":2547190.6000000001,"ADDRESS":"郡安路六段１１１巷４０弄２５號","OBJECTID":92940},"geometry":{"x":166465.59000000078,"y":2547190.6000000015}},{"attributes":{"ID":92941,"DIS_CODE":0,"TOWNNAME":"安南區","LI":"國安里","LIN":"10鄰","STREET":"郡安路","SECT":"六段","MAREA":" ","LANE":"１１１巷","ALLEY":"４０弄","HOUSE_NO":"２６號","E_COORD97":166472.56,"N_COORD97":2547225.71,"ADDRESS":"郡安路六段１１１巷４０弄２６號","OBJECTID":92941},"geometry":{"x":166472.55999999959,"y":2547225.7100000028}},{"attributes":{"ID":92942,"DIS_CODE":0,"TOWNNAME":"安定區","LI":"港尾里","LIN":"10鄰","STREET":" ","SECT":" ","MAREA":"港子尾","LANE":" ","ALLEY":" ","HOUSE_NO":"５６號之７","E_COORD97":171591.60000000001,"N_COORD97":2555770.2999999998,"ADDRESS":"港子尾５６號之７","OBJECTID":92942},"geometry":{"x":171591.59999999963,"y":2555770.3000000007}},{"attributes":{"ID":92943,"DIS_CODE":0,"TOWNNAME":"安南區","LI":"國安里","LIN":"10鄰","STREET":"郡安路","SECT":"六段","MAREA":" ","LANE":"１１１巷","ALLEY":"４０弄","HOUSE_NO":"２８號","E_COORD97":166468.45999999999,"N_COORD97":2547224.8599999999,"ADDRESS":"郡安路六段１１１巷４０弄２８號","OBJECTID":92943},"geometry":{"x":166468.45999999996,"y":2547224.8599999975}},{"attributes":{"ID":92944,"DIS_CODE":0,"TOWNNAME":"安定區","LI":"管寮里","LIN":"10鄰","STREET":" ","SECT":" ","MAREA":"管寮","LANE":" ","ALLEY":" ","HOUSE_NO":"９０號之１","E_COORD97":169862.28,"N_COORD97":2556336.2999999998,"ADDRESS":"管寮９０號之１","OBJECTID":92944},"geometry":{"x":169862.28000000026,"y":2556336.3000000007}},{"attributes":{"ID":92945,"DIS_CODE":0,"TOWNNAME":"東區","LI":"新東里","LIN":"10鄰","STREET":"衛國街","SECT":" ","MAREA":" ","LANE":"１０６巷","ALLEY":"４５弄","HOUSE_NO":"１２號","E_COORD97":170438.56,"N_COORD97":2542939.21,"ADDRESS":"衛國街１０６巷４５弄１２號","OBJECTID":92945},"geometry":{"x":170438.56000000052,"y":2542939.2100000028}},{"attributes":{"ID":92946,"DIS_CODE":0,"TOWNNAME":"安定區","LI":"蘇林里","LIN":"10鄰","STREET":" ","SECT":" ","MAREA":"蘇厝","LANE":" ","ALLEY":" ","HOUSE_NO":"１１１號之８","E_COORD97":173698.20000000001,"N_COORD97":2558894.2999999998,"ADDRESS":"蘇厝１１１號之８","OBJECTID":92946},"geometry":{"x":173698.20000000112,"y":2558894.3000000026}},{"attributes":{"ID":92947,"DIS_CODE":0,"TOWNNAME":"新營區","LI":"新東里","LIN":"15鄰","STREET":"東泰一街","SECT":" ","MAREA":" ","LANE":" ","ALLEY":" ","HOUSE_NO":"３８號","E_COORD97":181012,"N_COORD97":2579550.2799999998,"ADDRESS":"東泰一街３８號","OBJECTID":92947},"geometry":{"x":181012.00000000186,"y":2579550.2800000012}},{"attributes":{"ID":92948,"DIS_CODE":0,"TOWNNAME":"新營區","LI":"新東里","LIN":"15鄰","STREET":"東泰一街","SECT":" ","MAREA":" ","LANE":" ","ALLEY":" ","HOUSE_NO":"３６號","E_COORD97":181016.09,"N_COORD97":2579551.3700000001,"ADDRESS":"東泰一街３６號","OBJECTID":92948},"geometry":{"x":181016.08999999985,"y":2579551.3700000029}},{"attributes":{"ID":92949,"DIS_CODE":0,"TOWNNAME":"新市區","LI":"豐華里","LIN":"10鄰","STREET":" ","SECT":" ","MAREA":"豐華","LANE":" ","ALLEY":" ","HOUSE_NO":"４７之２３號","E_COORD97":174129.13,"N_COORD97":2554492.7999999998,"ADDRESS":"豐華４７之２３號","OBJECTID":92949},"geometry":{"x":174129.13000000082,"y":2554492.8000000026}},{"attributes":{"ID":92950,"DIS_CODE":0,"TOWNNAME":"新營區","LI":"民榮里","LIN":"15鄰","STREET":"復興路","SECT":" ","MAREA":" ","LANE":" ","ALLEY":" ","HOUSE_NO":"２５１之２號","E_COORD97":178805.59,"N_COORD97":2578084.5499999998,"ADDRESS":"復興路２５１之２號","OBJECTID":92950},"geometry":{"x":178805.58999999985,"y":2578084.5500000045}},{"attributes":{"ID":92951,"DIS_CODE":0,"TOWNNAME":"新營區","LI":"新北里","LIN":"15鄰","STREET":"南新街","SECT":" ","MAREA":" ","LANE":" ","ALLEY":" ","HOUSE_NO":"５５號","E_COORD97":179276.04000000001,"N_COORD97":2578862.9900000002,"ADDRESS":"南新街５５號","OBJECTID":92951},"geometry":{"x":179276.04000000097,"y":2578862.9900000002}},{"attributes":{"ID":92952,"DIS_CODE":0,"TOWNNAME":"新營區","LI":"民生里","LIN":"15鄰","STREET":"三民路","SECT":" ","MAREA":" ","LANE":" ","ALLEY":" ","HOUSE_NO":"１３５之１號","E_COORD97":179271.62,"N_COORD97":2578227.3999999999,"ADDRESS":"三民路１３５之１號","OBJECTID":92952},"geometry":{"x":179271.62000000011,"y":2578227.4000000041}},{"attributes":{"ID":92953,"DIS_CODE":0,"TOWNNAME":"新營區","LI":"民生里","LIN":"15鄰","STREET":"三民路","SECT":" ","MAREA":" ","LANE":" ","ALLEY":" ","HOUSE_NO":"１３５之４號","E_COORD97":179266.44,"N_COORD97":2578214.1400000001,"ADDRESS":"三民路１３５之４號","OBJECTID":92953},"geometry":{"x":179266.44000000041,"y":2578214.1400000025}},{"attributes":{"ID":92954,"DIS_CODE":0,"TOWNNAME":"新營區","LI":"新東里","LIN":"15鄰","STREET":"東泰一街","SECT":" ","MAREA":" ","LANE":" ","ALLEY":" ","HOUSE_NO":"８號","E_COORD97":181090.5,"N_COORD97":2579549.9100000001,"ADDRESS":"東泰一街８號","OBJECTID":92954},"geometry":{"x":181090.50000000093,"y":2579549.910000002}},{"attributes":{"ID":92955,"DIS_CODE":0,"TOWNNAME":"新營區","LI":"新東里","LIN":"15鄰","STREET":"東泰一街","SECT":" ","MAREA":" ","LANE":" ","ALLEY":" ","HOUSE_NO":"１２號","E_COORD97":181077.35999999999,"N_COORD97":2579548.8599999999,"ADDRESS":"東泰一街１２號","OBJECTID":92955},"geometry":{"x":181077.36000000034,"y":2579548.8600000031}},{"attributes":{"ID":92956,"DIS_CODE":0,"TOWNNAME":"新營區","LI":"民榮里","LIN":"15鄰","STREET":"復興路","SECT":" ","MAREA":" ","LANE":" ","ALLEY":" ","HOUSE_NO":"２８９號","E_COORD97":178688.54000000001,"N_COORD97":2578088.3700000001,"ADDRESS":"復興路２８９號","OBJECTID":92956},"geometry":{"x":178688.54000000004,"y":2578088.370000001}},{"attributes":{"ID":92957,"DIS_CODE":0,"TOWNNAME":"新營區","LI":"民榮里","LIN":"15鄰","STREET":"復興路","SECT":" ","MAREA":" ","LANE":" ","ALLEY":" ","HOUSE_NO":"２８３號","E_COORD97":178709.12,"N_COORD97":2578113.75,"ADDRESS":"復興路２８３號","OBJECTID":92957},"geometry":{"x":178709.11999999918,"y":2578113.7500000019}},{"attributes":{"ID":92958,"DIS_CODE":0,"TOWNNAME":"新營區","LI":"民榮里","LIN":"15鄰","STREET":"復興路","SECT":" ","MAREA":" ","LANE":" ","ALLEY":" ","HOUSE_NO":"２６９號","E_COORD97":178751.01000000001,"N_COORD97":2578101.3700000001,"ADDRESS":"復興路２６９號","OBJECTID":92958},"geometry":{"x":178751.01000000071,"y":2578101.370000001}},{"attributes":{"ID":92959,"DIS_CODE":0,"TOWNNAME":"新營區","LI":"新東里","LIN":"15鄰","STREET":"東泰一街","SECT":" ","MAREA":" ","LANE":" ","ALLEY":" ","HOUSE_NO":"１４號","E_COORD97":181071.25,"N_COORD97":2579555.54,"ADDRESS":"東泰一街１４號","OBJECTID":92959},"geometry":{"x":181071.25000000186,"y":2579555.540000001}},{"attributes":{"ID":92960,"DIS_CODE":0,"TOWNNAME":"東區","LI":"新東里","LIN":"10鄰","STREET":"衛國街","SECT":" ","MAREA":" ","LANE":"１０６巷","ALLEY":"４５弄","HOUSE_NO":"１號","E_COORD97":170418.92999999999,"N_COORD97":2542961.3700000001,"ADDRESS":"衛國街１０６巷４５弄１號","OBJECTID":92960},"geometry":{"x":170418.93000000156,"y":2542961.370000001}},{"attributes":{"ID":92961,"DIS_CODE":0,"TOWNNAME":"中西區","LI":"光賢里","LIN":" ","STREET":"溪河路","SECT":" ","MAREA":" ","LANE":" ","ALLEY":" ","HOUSE_NO":"３號","E_COORD97":166660.72,"N_COORD97":2544416.8300000001,"ADDRESS":"溪河路３號","OBJECTID":92961},"geometry":{"x":166660.72000000067,"y":2544416.8300000019}},{"attributes":{"ID":92962,"DIS_CODE":0,"TOWNNAME":"東區","LI":"大德里","LIN":"10鄰","STREET":"大同路","SECT":"二段","MAREA":" ","LANE":"６１巷","ALLEY":"１１６弄","HOUSE_NO":"１１號","E_COORD97":169445.19,"N_COORD97":2542217.5899999999,"ADDRESS":"大同路二段６１巷１１６弄１１號","OBJECTID":92962},"geometry":{"x":169445.19000000134,"y":2542217.5900000017}},{"attributes":{"ID":92963,"DIS_CODE":0,"TOWNNAME":"東區","LI":"大德里","LIN":"10鄰","STREET":"大同路","SECT":"二段","MAREA":" ","LANE":"６１巷","ALLEY":"１１６弄","HOUSE_NO":"１４號","E_COORD97":169449.09,"N_COORD97":2542226.8100000001,"ADDRESS":"大同路二段６１巷１１６弄１４號","OBJECTID":92963},"geometry":{"x":169449.09000000078,"y":2542226.8100000024}},{"attributes":{"ID":92964,"DIS_CODE":0,"TOWNNAME":"東區","LI":"大德里","LIN":"10鄰","STREET":"大同路","SECT":"二段","MAREA":" ","LANE":"６１巷","ALLEY":"１１６弄","HOUSE_NO":"１６號","E_COORD97":169460.38,"N_COORD97":2542231.9300000002,"ADDRESS":"大同路二段６１巷１１６弄１６號","OBJECTID":92964},"geometry":{"x":169460.38000000082,"y":2542231.9300000016}},{"attributes":{"ID":92965,"DIS_CODE":0,"TOWNNAME":"新營區","LI":"新東里","LIN":"15鄰","STREET":"東泰一街","SECT":" ","MAREA":" ","LANE":" ","ALLEY":" ","HOUSE_NO":"４０號","E_COORD97":181006.87,"N_COORD97":2579550.2999999998,"ADDRESS":"東泰一街４０號","OBJECTID":92965},"geometry":{"x":181006.87000000104,"y":2579550.3000000007}},{"attributes":{"ID":92966,"DIS_CODE":0,"TOWNNAME":"東區","LI":"大德里","LIN":"10鄰","STREET":"大同路","SECT":"二段","MAREA":" ","LANE":"６１巷","ALLEY":"１１６弄","HOUSE_NO":"１７號","E_COORD97":169464.67999999999,"N_COORD97":2542233.5699999998,"ADDRESS":"大同路二段６１巷１１６弄１７號","OBJECTID":92966},"geometry":{"x":169464.68000000063,"y":2542233.5700000003}},{"attributes":{"ID":92967,"DIS_CODE":0,"TOWNNAME":"東區","LI":"大德里","LIN":"10鄰","STREET":"大同路","SECT":"二段","MAREA":" ","LANE":"６１巷","ALLEY":"１１６弄","HOUSE_NO":"２號","E_COORD97":169467.84,"N_COORD97":2542224.7400000002,"ADDRESS":"大同路二段６１巷１１６弄２號","OBJECTID":92967},"geometry":{"x":169467.83999999985,"y":2542224.7400000002}},{"attributes":{"ID":92968,"DIS_CODE":0,"TOWNNAME":"東區","LI":"大德里","LIN":"10鄰","STREET":"大同路","SECT":"二段","MAREA":" ","LANE":"６１巷","ALLEY":"１１６弄","HOUSE_NO":"３號","E_COORD97":169467.63,"N_COORD97":2542224.5800000001,"ADDRESS":"大同路二段６１巷１１６弄３號","OBJECTID":92968},"geometry":{"x":169467.62999999989,"y":2542224.5800000019}},{"attributes":{"ID":92969,"DIS_CODE":0,"TOWNNAME":"東區","LI":"大德里","LIN":"10鄰","STREET":"大同路","SECT":"二段","MAREA":" ","LANE":"６１巷","ALLEY":"１１６弄","HOUSE_NO":"４號","E_COORD97":169463.85999999999,"N_COORD97":2542223.9399999999,"ADDRESS":"大同路二段６１巷１１６弄４號","OBJECTID":92969},"geometry":{"x":169463.8599999994,"y":2542223.9400000032}},{"attributes":{"ID":92970,"DIS_CODE":0,"TOWNNAME":"鹽水區","LI":"水秀里","LIN":"15鄰","STREET":" ","SECT":" ","MAREA":"土庫","LANE":" ","ALLEY":" ","HOUSE_NO":"７４之１０號","E_COORD97":175617.95999999999,"N_COORD97":2580199.0499999998,"ADDRESS":"土庫７４之１０號","OBJECTID":92970},"geometry":{"x":175617.95999999996,"y":2580199.0500000007}},{"attributes":{"ID":92971,"DIS_CODE":0,"TOWNNAME":"鹽水區","LI":"水秀里","LIN":"15鄰","STREET":" ","SECT":" ","MAREA":"土庫","LANE":" ","ALLEY":" ","HOUSE_NO":"７４號之１０","E_COORD97":175617.95999999999,"N_COORD97":2580199.0499999998,"ADDRESS":"土庫７４號之１０","OBJECTID":92971},"geometry":{"x":175617.95999999996,"y":2580199.0500000007}},{"attributes":{"ID":92972,"DIS_CODE":0,"TOWNNAME":"東區","LI":"大德里","LIN":"10鄰","STREET":"大同路","SECT":"二段","MAREA":" ","LANE":"６１巷","ALLEY":"１１６弄","HOUSE_NO":"５號","E_COORD97":169459.35000000001,"N_COORD97":2542221.8900000001,"ADDRESS":"大同路二段６１巷１１６弄５號","OBJECTID":92972},"geometry":{"x":169459.34999999963,"y":2542221.8900000043}},{"attributes":{"ID":92973,"DIS_CODE":0,"TOWNNAME":"東區","LI":"大德里","LIN":"10鄰","STREET":"大同路","SECT":"二段","MAREA":" ","LANE":"６１巷","ALLEY":"１１６弄","HOUSE_NO":"７號","E_COORD97":169456.89000000001,"N_COORD97":2542221.48,"ADDRESS":"大同路二段６１巷１１６弄７號","OBJECTID":92973},"geometry":{"x":169456.8900000006,"y":2542221.4800000023}},{"attributes":{"ID":92974,"DIS_CODE":0,"TOWNNAME":"鹽水區","LI":"水正里","LIN":"15鄰","STREET":"中正路","SECT":" ","MAREA":" ","LANE":" ","ALLEY":" ","HOUSE_NO":"１５６號","E_COORD97":175024,"N_COORD97":2579653.7200000002,"ADDRESS":"中正路１５６號","OBJECTID":92974},"geometry":{"x":175024,"y":2579653.7200000025}},{"attributes":{"ID":92975,"DIS_CODE":0,"TOWNNAME":"中西區","LI":"光賢里","LIN":" ","STREET":"溪河路","SECT":" ","MAREA":" ","LANE":" ","ALLEY":" ","HOUSE_NO":"１之１號","E_COORD97":166654.54000000001,"N_COORD97":2544429.4100000001,"ADDRESS":"溪河路１之１號","OBJECTID":92975},"geometry":{"x":166654.54000000004,"y":2544429.410000002}},{"attributes":{"ID":92976,"DIS_CODE":0,"TOWNNAME":"中西區","LI":"安海里","LIN":" ","STREET":"金華路","SECT":"三段","MAREA":" ","LANE":" ","ALLEY":" ","HOUSE_NO":"２５５號","E_COORD97":167325.12,"N_COORD97":2544018.5899999999,"ADDRESS":"金華路三段２５５號","OBJECTID":92976},"geometry":{"x":167325.12000000104,"y":2544018.5899999999}},{"attributes":{"ID":92977,"DIS_CODE":0,"TOWNNAME":"中西區","LI":"安海里","LIN":" ","STREET":"金華路","SECT":"三段","MAREA":" ","LANE":" ","ALLEY":" ","HOUSE_NO":"２０１號","E_COORD97":167301.64000000001,"N_COORD97":2543880.4500000002,"ADDRESS":"金華路三段２０１號","OBJECTID":92977},"geometry":{"x":167301.64000000153,"y":2543880.4499999993}},{"attributes":{"ID":92978,"DIS_CODE":0,"TOWNNAME":"東區","LI":"大德里","LIN":"10鄰","STREET":"大同路","SECT":"二段","MAREA":" ","LANE":"６１巷","ALLEY":"１１６弄","HOUSE_NO":"８號","E_COORD97":169454.42999999999,"N_COORD97":2542220.0499999998,"ADDRESS":"大同路二段６１巷１１６弄８號","OBJECTID":92978},"geometry":{"x":169454.43000000156,"y":2542220.0500000007}},{"attributes":{"ID":92979,"DIS_CODE":0,"TOWNNAME":"東區","LI":"大德里","LIN":"10鄰","STREET":"大同路","SECT":"二段","MAREA":" ","LANE":"６１巷","ALLEY":"１１６弄","HOUSE_NO":"９號","E_COORD97":169450.73000000001,"N_COORD97":2542219.4399999999,"ADDRESS":"大同路二段６１巷１１６弄９號","OBJECTID":92979},"geometry":{"x":169450.73000000045,"y":2542219.4399999995}},{"attributes":{"ID":92980,"DIS_CODE":0,"TOWNNAME":"東區","LI":"大德里","LIN":"10鄰","STREET":"大同路","SECT":"二段","MAREA":" ","LANE":"６１巷","ALLEY":"１１６弄","HOUSE_NO":"６號","E_COORD97":169458.70000000001,"N_COORD97":2542222.3300000001,"ADDRESS":"大同路二段６１巷１１６弄６號","OBJECTID":92980},"geometry":{"x":169458.70000000112,"y":2542222.3300000019}},{"attributes":{"ID":92981,"DIS_CODE":0,"TOWNNAME":"東區","LI":"大德里","LIN":"10鄰","STREET":"大同路","SECT":"二段","MAREA":" ","LANE":"６１巷","ALLEY":"１１６弄","HOUSE_NO":"１０號","E_COORD97":169448.89000000001,"N_COORD97":2542218.21,"ADDRESS":"大同路二段６１巷１１６弄１０號","OBJECTID":92981},"geometry":{"x":169448.88999999966,"y":2542218.2100000028}},{"attributes":{"ID":92982,"DIS_CODE":0,"TOWNNAME":"東區","LI":"大德里","LIN":"10鄰","STREET":"大同路","SECT":"二段","MAREA":" ","LANE":"６１巷","ALLEY":"１１６弄","HOUSE_NO":"１２號","E_COORD97":169443.95999999999,"N_COORD97":2542224.7599999998,"ADDRESS":"大同路二段６１巷１１６弄１２號","OBJECTID":92982},"geometry":{"x":169443.95999999996,"y":2542224.7599999998}},{"attributes":{"ID":92983,"DIS_CODE":0,"TOWNNAME":"中西區","LI":"安海里","LIN":" ","STREET":"民生路","SECT":"二段","MAREA":" ","LANE":" ","ALLEY":" ","HOUSE_NO":"１６７號","E_COORD97":167474.98000000001,"N_COORD97":2544030.5800000001,"ADDRESS":"民生路二段１６７號","OBJECTID":92983},"geometry":{"x":167474.98000000138,"y":2544030.5800000038}},{"attributes":{"ID":92984,"DIS_CODE":0,"TOWNNAME":"中西區","LI":"安海里","LIN":" ","STREET":"金華路","SECT":"三段","MAREA":" ","LANE":" ","ALLEY":" ","HOUSE_NO":"２４８號","E_COORD97":167357.48000000001,"N_COORD97":2543977.6200000001,"ADDRESS":"金華路三段２４８號","OBJECTID":92984},"geometry":{"x":167357.48000000045,"y":2543977.6200000029}},{"attributes":{"ID":92985,"DIS_CODE":0,"TOWNNAME":"中西區","LI":"協和里","LIN":" ","STREET":"中和街","SECT":" ","MAREA":" ","LANE":" ","ALLEY":" ","HOUSE_NO":"８８號","E_COORD97":167094.70999999999,"N_COORD97":2544601.04,"ADDRESS":"中和街８８號","OBJECTID":92985},"geometry":{"x":167094.71000000183,"y":2544601.040000001}},{"attributes":{"ID":92986,"DIS_CODE":0,"TOWNNAME":"中西區","LI":"協和里","LIN":" ","STREET":"西和路","SECT":" ","MAREA":" ","LANE":" ","ALLEY":" ","HOUSE_NO":"２４４號","E_COORD97":167185.94,"N_COORD97":2544779.8300000001,"ADDRESS":"西和路２４４號","OBJECTID":92986},"geometry":{"x":167185.94000000134,"y":2544779.8300000019}},{"attributes":{"ID":92987,"DIS_CODE":0,"TOWNNAME":"中西區","LI":"協和里","LIN":" ","STREET":"西和路","SECT":" ","MAREA":" ","LANE":" ","ALLEY":" ","HOUSE_NO":"２４６號","E_COORD97":167188.76000000001,"N_COORD97":2544782.48,"ADDRESS":"西和路２４６號","OBJECTID":92987},"geometry":{"x":167188.75999999978,"y":2544782.4800000023}},{"attributes":{"ID":92988,"DIS_CODE":0,"TOWNNAME":"中西區","LI":"協和里","LIN":" ","STREET":"西和路","SECT":" ","MAREA":" ","LANE":" ","ALLEY":" ","HOUSE_NO":"２５２號","E_COORD97":167200.41,"N_COORD97":2544790.9300000002,"ADDRESS":"西和路２５２號","OBJECTID":92988},"geometry":{"x":167200.41000000201,"y":2544790.9300000016}},{"attributes":{"ID":92989,"DIS_CODE":0,"TOWNNAME":"新市區","LI":"潭頂里","LIN":"10鄰","STREET":" ","SECT":" ","MAREA":"潭頂","LANE":" ","ALLEY":" ","HOUSE_NO":"３４５號","E_COORD97":180675,"N_COORD97":2552874.75,"ADDRESS":"潭頂３４５號","OBJECTID":92989},"geometry":{"x":180675.00000000093,"y":2552874.7500000037}},{"attributes":{"ID":92990,"DIS_CODE":0,"TOWNNAME":"東區","LI":"大德里","LIN":"10鄰","STREET":"大同路","SECT":"二段","MAREA":" ","LANE":"６１巷","ALLEY":"１１６弄","HOUSE_NO":"１３號","E_COORD97":169446.22,"N_COORD97":2542225.3799999999,"ADDRESS":"大同路二段６１巷１１６弄１３號","OBJECTID":92990},"geometry":{"x":169446.22000000067,"y":2542225.379999999}},{"attributes":{"ID":92991,"DIS_CODE":0,"TOWNNAME":"東區","LI":"大德里","LIN":"10鄰","STREET":"大同路","SECT":"二段","MAREA":" ","LANE":"６１巷","ALLEY":"１１６弄","HOUSE_NO":"１５號","E_COORD97":169454.84,"N_COORD97":2542229.0699999998,"ADDRESS":"大同路二段６１巷１１６弄１５號","OBJECTID":92991},"geometry":{"x":169454.83999999985,"y":2542229.0700000003}},{"attributes":{"ID":92992,"DIS_CODE":0,"TOWNNAME":"安南區","LI":"國安里","LIN":"10鄰","STREET":"郡安路","SECT":"六段","MAREA":" ","LANE":"１１１巷","ALLEY":"４２弄","HOUSE_NO":"１號","E_COORD97":166525.94,"N_COORD97":2547162.4500000002,"ADDRESS":"郡安路六段１１１巷４２弄１號","OBJECTID":92992},"geometry":{"x":166525.94000000134,"y":2547162.4499999993}},{"attributes":{"ID":92993,"DIS_CODE":0,"TOWNNAME":"安南區","LI":"國安里","LIN":"10鄰","STREET":"郡安路","SECT":"六段","MAREA":" ","LANE":"１１１巷","ALLEY":"４２弄","HOUSE_NO":"２號","E_COORD97":166523.19,"N_COORD97":2547183.3399999999,"ADDRESS":"郡安路六段１１１巷４２弄２號","OBJECTID":92993},"geometry":{"x":166523.19000000134,"y":2547183.3399999999}},{"attributes":{"ID":92994,"DIS_CODE":0,"TOWNNAME":"永康區","LI":"\u25A0洲里","LIN":"10鄰","STREET":"\u25A0行路","SECT":" ","MAREA":" ","LANE":"１００巷","ALLEY":"４０弄","HOUSE_NO":"５號","E_COORD97":171452.12,"N_COORD97":2549383.6099999999,"ADDRESS":"\u25A0行路１００巷４０弄５號","OBJECTID":92994},"geometry":{"x":171452.12000000197,"y":2549383.6100000013}},{"attributes":{"ID":92995,"DIS_CODE":0,"TOWNNAME":"永康區","LI":"\u25A0洲里","LIN":"10鄰","STREET":"\u25A0行路","SECT":" ","MAREA":" ","LANE":"１００巷","ALLEY":"４０弄","HOUSE_NO":"９號","E_COORD97":171458.13,"N_COORD97":2549389.3599999999,"ADDRESS":"\u25A0行路１００巷４０弄９號","OBJECTID":92995},"geometry":{"x":171458.12999999989,"y":2549389.3600000013}},{"attributes":{"ID":92996,"DIS_CODE":0,"TOWNNAME":"永康區","LI":"\u25A0洲里","LIN":"10鄰","STREET":"\u25A0行路","SECT":" ","MAREA":" ","LANE":"１００巷","ALLEY":"４０弄","HOUSE_NO":"１２號","E_COORD97":171475.07999999999,"N_COORD97":2549388.2400000002,"ADDRESS":"\u25A0行路１００巷４０弄１２號","OBJECTID":92996},"geometry":{"x":171475.08000000101,"y":2549388.2400000002}},{"attributes":{"ID":92997,"DIS_CODE":0,"TOWNNAME":"永康區","LI":"\u25A0洲里","LIN":"10鄰","STREET":"\u25A0行路","SECT":" ","MAREA":" ","LANE":"１４６巷","ALLEY":"２０弄","HOUSE_NO":"３號","E_COORD97":171373.98999999999,"N_COORD97":2549316.6099999999,"ADDRESS":"\u25A0行路１４６巷２０弄３號","OBJECTID":92997},"geometry":{"x":171373.99000000115,"y":2549316.6100000013}},{"attributes":{"ID":92998,"DIS_CODE":0,"TOWNNAME":"永康區","LI":"\u25A0洲里","LIN":"10鄰","STREET":"\u25A0行路","SECT":" ","MAREA":" ","LANE":"１００巷","ALLEY":"４０弄","HOUSE_NO":"３５號","E_COORD97":171471.76999999999,"N_COORD97":2549437.25,"ADDRESS":"\u25A0行路１００巷４０弄３５號","OBJECTID":92998},"geometry":{"x":171471.76999999955,"y":2549437.2500000037}},{"attributes":{"ID":92999,"DIS_CODE":0,"TOWNNAME":"永康區","LI":"\u25A0洲里","LIN":"10鄰","STREET":"\u25A0行路","SECT":" ","MAREA":" ","LANE":"１００巷","ALLEY":"６１弄","HOUSE_NO":"９號","E_COORD97":171368.73000000001,"N_COORD97":2549383.1400000001,"ADDRESS":"\u25A0行路１００巷６１弄９號","OBJECTID":92999},"geometry":{"x":171368.73000000231,"y":2549383.1400000006}},{"attributes":{"ID":93000,"DIS_CODE":0,"TOWNNAME":"永康區","LI":"\u25A0洲里","LIN":"10鄰","STREET":"\u25A0行路","SECT":" ","MAREA":" ","LANE":"１００巷","ALLEY":"４０弄","HOUSE_NO":"３７號","E_COORD97":171468.48000000001,"N_COORD97":2549439.75,"ADDRESS":"\u25A0行路１００巷４０弄３７號","OBJECTID":93000},"geometry":{"x":171468.48000000045,"y":2549439.75}}]}