{"displayFieldName":"TOWNNAME","fieldAliases":{"ID":"ID","DIS_CODE":"DIS_CODE","TOWNNAME":"TOWNNAME","LI":"LI","LIN":"LIN","STREET":"STREET","SECT":"SECT","MAREA":"MAREA","LANE":"LANE","ALLEY":"ALLEY","HOUSE_NO":"HOUSE_NO","E_COORD97":"E_COORD97","N_COORD97":"N_COORD97","ADDRESS":"ADDRESS","OBJECTID":"OBJECTID"},"geometryType":"esriGeometryPoint","spatialReference":{"wkid":102443,"latestWkid":3826},"fields":[{"name":"ID","type":"esriFieldTypeDouble","alias":"ID"},{"name":"DIS_CODE","type":"esriFieldTypeInteger","alias":"DIS_CODE"},{"name":"TOWNNAME","type":"esriFieldTypeString","alias":"TOWNNAME","length":8},{"name":"LI","type":"esriFieldTypeString","alias":"LI","length":8},{"name":"LIN","type":"esriFieldTypeString","alias":"LIN","length":12},{"name":"STREET","type":"esriFieldTypeString","alias":"STREET","length":20},{"name":"SECT","type":"esriFieldTypeString","alias":"SECT","length":8},{"name":"MAREA","type":"esriFieldTypeString","alias":"MAREA","length":12},{"name":"LANE","type":"esriFieldTypeString","alias":"LANE","length":10},{"name":"ALLEY","type":"esriFieldTypeString","alias":"ALLEY","length":10},{"name":"HOUSE_NO","type":"esriFieldTypeString","alias":"HOUSE_NO","length":20},{"name":"E_COORD97","type":"esriFieldTypeDouble","alias":"E_COORD97"},{"name":"N_COORD97","type":"esriFieldTypeDouble","alias":"N_COORD97"},{"name":"ADDRESS","type":"esriFieldTypeString","alias":"ADDRESS","length":50},{"name":"OBJECTID","type":"esriFieldTypeOID","alias":"OBJECTID"}],"features":[{"attributes":{"ID":189002,"DIS_CODE":0,"TOWNNAME":"北區","LI":"文成里","LIN":"5鄰","STREET":"文賢路","SECT":" ","MAREA":" ","LANE":"５７２巷","ALLEY":"５２弄","HOUSE_NO":"７號","E_COORD97":167539.06,"N_COORD97":2545463.3100000001,"ADDRESS":"文賢路５７２巷５２弄７號","OBJECTID":189001},"geometry":{"x":167539.05999999959,"y":2545463.3100000005}},{"attributes":{"ID":189003,"DIS_CODE":0,"TOWNNAME":"北區","LI":"重興里","LIN":"5鄰","STREET":"林森路","SECT":"三段","MAREA":" ","LANE":"８４巷","ALLEY":"２弄","HOUSE_NO":"７號","E_COORD97":170606.48000000001,"N_COORD97":2544817.7400000002,"ADDRESS":"林森路三段８４巷２弄７號","OBJECTID":189002},"geometry":{"x":170606.48000000138,"y":2544817.7400000021}},{"attributes":{"ID":189004,"DIS_CODE":0,"TOWNNAME":"新營區","LI":"新東里","LIN":"24鄰","STREET":"民治路","SECT":" ","MAREA":" ","LANE":" ","ALLEY":" ","HOUSE_NO":"６號","E_COORD97":180693.67000000001,"N_COORD97":2578911.6499999999,"ADDRESS":"民治路６號","OBJECTID":189003},"geometry":{"x":180693.66999999899,"y":2578911.6500000022}},{"attributes":{"ID":189005,"DIS_CODE":0,"TOWNNAME":"新營區","LI":"新東里","LIN":"24鄰","STREET":"民治路","SECT":" ","MAREA":" ","LANE":" ","ALLEY":" ","HOUSE_NO":"６之６號","E_COORD97":180666.51000000001,"N_COORD97":2578908.5099999998,"ADDRESS":"民治路６之６號","OBJECTID":189004},"geometry":{"x":180666.51000000071,"y":2578908.5100000016}},{"attributes":{"ID":189006,"DIS_CODE":0,"TOWNNAME":"新營區","LI":"新東里","LIN":"24鄰","STREET":"民治路","SECT":" ","MAREA":" ","LANE":" ","ALLEY":" ","HOUSE_NO":"６之５號","E_COORD97":180671.62,"N_COORD97":2578908.4900000002,"ADDRESS":"民治路６之５號","OBJECTID":189005},"geometry":{"x":180671.62000000011,"y":2578908.4900000021}},{"attributes":{"ID":189007,"DIS_CODE":0,"TOWNNAME":"新營區","LI":"三仙里","LIN":"24鄰","STREET":"育德一街","SECT":" ","MAREA":" ","LANE":" ","ALLEY":" ","HOUSE_NO":"６７號","E_COORD97":179589.12,"N_COORD97":2579100.7000000002,"ADDRESS":"育德一街６７號","OBJECTID":189006},"geometry":{"x":179589.12000000197,"y":2579100.6999999993}},{"attributes":{"ID":189008,"DIS_CODE":0,"TOWNNAME":"新營區","LI":"大宏里","LIN":"24鄰","STREET":"民治路","SECT":" ","MAREA":" ","LANE":" ","ALLEY":" ","HOUSE_NO":"３號之５","E_COORD97":180563.95999999999,"N_COORD97":2578880.2000000002,"ADDRESS":"民治路３號之５","OBJECTID":189007},"geometry":{"x":180563.95999999996,"y":2578880.2000000011}},{"attributes":{"ID":189009,"DIS_CODE":0,"TOWNNAME":"永康區","LI":"西勢里","LIN":"21鄰","STREET":"富強路","SECT":"一段","MAREA":" ","LANE":" ","ALLEY":" ","HOUSE_NO":"７８號","E_COORD97":175467.76000000001,"N_COORD97":2546122.5299999998,"ADDRESS":"富強路一段７８號","OBJECTID":189008},"geometry":{"x":175467.75999999978,"y":2546122.5300000012}},{"attributes":{"ID":189010,"DIS_CODE":0,"TOWNNAME":"北區","LI":"文成里","LIN":"5鄰","STREET":"文賢路","SECT":" ","MAREA":" ","LANE":"５７２巷","ALLEY":"５２弄","HOUSE_NO":"１７號","E_COORD97":167524.70000000001,"N_COORD97":2545451.6299999999,"ADDRESS":"文賢路５７２巷５２弄１７號","OBJECTID":189009},"geometry":{"x":167524.70000000112,"y":2545451.629999999}},{"attributes":{"ID":189011,"DIS_CODE":0,"TOWNNAME":"永康區","LI":"西灣里","LIN":"21鄰","STREET":"永大路","SECT":"二段","MAREA":" ","LANE":" ","ALLEY":" ","HOUSE_NO":"２２５號","E_COORD97":174350.01000000001,"N_COORD97":2545374.8999999999,"ADDRESS":"永大路二段２２５號","OBJECTID":189010},"geometry":{"x":174350.01000000071,"y":2545374.9000000041}},{"attributes":{"ID":189012,"DIS_CODE":0,"TOWNNAME":"永康區","LI":"南灣里","LIN":"21鄰","STREET":"大灣路","SECT":" ","MAREA":" ","LANE":" ","ALLEY":" ","HOUSE_NO":"７５８之２號","E_COORD97":174169.95000000001,"N_COORD97":2544539.48,"ADDRESS":"大灣路７５８之２號","OBJECTID":189011},"geometry":{"x":174169.95000000019,"y":2544539.4800000004}},{"attributes":{"ID":189013,"DIS_CODE":0,"TOWNNAME":"北區","LI":"文成里","LIN":"5鄰","STREET":"文賢路","SECT":" ","MAREA":" ","LANE":"５７２巷","ALLEY":"５２弄","HOUSE_NO":"１９號","E_COORD97":167529.28,"N_COORD97":2545451.6299999999,"ADDRESS":"文賢路５７２巷５２弄１９號","OBJECTID":189012},"geometry":{"x":167529.28000000119,"y":2545451.629999999}},{"attributes":{"ID":189014,"DIS_CODE":0,"TOWNNAME":"北區","LI":"文成里","LIN":"5鄰","STREET":"文賢路","SECT":" ","MAREA":" ","LANE":"５７２巷","ALLEY":"５２弄","HOUSE_NO":"２１號","E_COORD97":167533.98000000001,"N_COORD97":2545451.5,"ADDRESS":"文賢路５７２巷５２弄２１號","OBJECTID":189013},"geometry":{"x":167533.98000000045,"y":2545451.5000000037}},{"attributes":{"ID":189015,"DIS_CODE":0,"TOWNNAME":"北區","LI":"文成里","LIN":"5鄰","STREET":"文賢路","SECT":" ","MAREA":" ","LANE":"５７２巷","ALLEY":"５２弄","HOUSE_NO":"２３號","E_COORD97":167538.54999999999,"N_COORD97":2545451.5,"ADDRESS":"文賢路５７２巷５２弄２３號","OBJECTID":189014},"geometry":{"x":167538.55000000075,"y":2545451.5000000037}},{"attributes":{"ID":189016,"DIS_CODE":0,"TOWNNAME":"永康區","LI":"東橋里","LIN":"21鄰","STREET":"自強路","SECT":" ","MAREA":" ","LANE":" ","ALLEY":" ","HOUSE_NO":"１５２號","E_COORD97":173023.10999999999,"N_COORD97":2547401.4900000002,"ADDRESS":"自強路１５２號","OBJECTID":189015},"geometry":{"x":173023.11000000034,"y":2547401.4900000039}},{"attributes":{"ID":189017,"DIS_CODE":0,"TOWNNAME":"北區","LI":"文成里","LIN":"5鄰","STREET":"文賢路","SECT":" ","MAREA":" ","LANE":"５７２巷","ALLEY":"５２弄","HOUSE_NO":"２５號","E_COORD97":167543.37,"N_COORD97":2545451.3700000001,"ADDRESS":"文賢路５７２巷５２弄２５號","OBJECTID":189016},"geometry":{"x":167543.37000000104,"y":2545451.3700000029}},{"attributes":{"ID":189018,"DIS_CODE":0,"TOWNNAME":"北區","LI":"文成里","LIN":"5鄰","STREET":"文賢路","SECT":" ","MAREA":" ","LANE":"５７２巷","ALLEY":"５２弄","HOUSE_NO":"２７號","E_COORD97":167548.32999999999,"N_COORD97":2545451.5,"ADDRESS":"文賢路５７２巷５２弄２７號","OBJECTID":189017},"geometry":{"x":167548.33000000194,"y":2545451.5000000037}},{"attributes":{"ID":189019,"DIS_CODE":0,"TOWNNAME":"北區","LI":"文成里","LIN":"5鄰","STREET":"文賢路","SECT":" ","MAREA":" ","LANE":"５７２巷","ALLEY":"５２弄","HOUSE_NO":"２９號","E_COORD97":167553.28,"N_COORD97":2545451.6299999999,"ADDRESS":"文賢路５７２巷５２弄２９號","OBJECTID":189018},"geometry":{"x":167553.28000000026,"y":2545451.629999999}},{"attributes":{"ID":189020,"DIS_CODE":0,"TOWNNAME":"北區","LI":"文成里","LIN":"5鄰","STREET":"文賢路","SECT":" ","MAREA":" ","LANE":"５７２巷","ALLEY":"５２弄","HOUSE_NO":"３１號","E_COORD97":167558.35999999999,"N_COORD97":2545451.6299999999,"ADDRESS":"文賢路５７２巷５２弄３１號","OBJECTID":189019},"geometry":{"x":167558.36000000034,"y":2545451.629999999}},{"attributes":{"ID":189021,"DIS_CODE":0,"TOWNNAME":"柳營區","LI":"東昇里","LIN":"27鄰","STREET":" ","SECT":" ","MAREA":"柳營","LANE":" ","ALLEY":" ","HOUSE_NO":"５１２號之６９","E_COORD97":180629.09,"N_COORD97":2575232.9199999999,"ADDRESS":"柳營５１２號之６９","OBJECTID":189020},"geometry":{"x":180629.08999999985,"y":2575232.9199999981}},{"attributes":{"ID":189022,"DIS_CODE":0,"TOWNNAME":"北區","LI":"文成里","LIN":"5鄰","STREET":"文賢路","SECT":" ","MAREA":" ","LANE":"５７２巷","ALLEY":"５２弄","HOUSE_NO":"４９號","E_COORD97":167525.85000000001,"N_COORD97":2545419.5,"ADDRESS":"文賢路５７２巷５２弄４９號","OBJECTID":189021},"geometry":{"x":167525.85000000056,"y":2545419.5}},{"attributes":{"ID":189023,"DIS_CODE":0,"TOWNNAME":"北區","LI":"文成里","LIN":"5鄰","STREET":"文賢路","SECT":" ","MAREA":" ","LANE":"５７２巷","ALLEY":"５２弄","HOUSE_NO":"５１號","E_COORD97":167531.69,"N_COORD97":2545419.3700000001,"ADDRESS":"文賢路５７２巷５２弄５１號","OBJECTID":189022},"geometry":{"x":167531.69000000134,"y":2545419.370000001}},{"attributes":{"ID":189024,"DIS_CODE":0,"TOWNNAME":"北區","LI":"文成里","LIN":"5鄰","STREET":"文賢路","SECT":" ","MAREA":" ","LANE":"５７２巷","ALLEY":"５２弄","HOUSE_NO":"５３號","E_COORD97":167537.66,"N_COORD97":2545419.5,"ADDRESS":"文賢路５７２巷５２弄５３號","OBJECTID":189023},"geometry":{"x":167537.66000000201,"y":2545419.5}},{"attributes":{"ID":189025,"DIS_CODE":0,"TOWNNAME":"柳營區","LI":"東昇里","LIN":"27鄰","STREET":" ","SECT":" ","MAREA":"柳營","LANE":" ","ALLEY":" ","HOUSE_NO":"５１２之６號","E_COORD97":180603.25,"N_COORD97":2575257.1000000001,"ADDRESS":"柳營５１２之６號","OBJECTID":189024},"geometry":{"x":180603.25,"y":2575257.0999999996}},{"attributes":{"ID":189026,"DIS_CODE":0,"TOWNNAME":"北區","LI":"文成里","LIN":"5鄰","STREET":"文賢路","SECT":" ","MAREA":" ","LANE":"５７２巷","ALLEY":"５２弄","HOUSE_NO":"５５號","E_COORD97":167543.5,"N_COORD97":2545419.3700000001,"ADDRESS":"文賢路５７２巷５２弄５５號","OBJECTID":189025},"geometry":{"x":167543.5,"y":2545419.370000001}},{"attributes":{"ID":189027,"DIS_CODE":0,"TOWNNAME":"北區","LI":"文成里","LIN":"5鄰","STREET":"文賢路","SECT":" ","MAREA":" ","LANE":"５７２巷","ALLEY":"５２弄","HOUSE_NO":"５７號","E_COORD97":167549.34,"N_COORD97":2545419.3700000001,"ADDRESS":"文賢路５７２巷５２弄５７號","OBJECTID":189026},"geometry":{"x":167549.33999999985,"y":2545419.370000001}},{"attributes":{"ID":189028,"DIS_CODE":0,"TOWNNAME":"北區","LI":"文成里","LIN":"5鄰","STREET":"文賢路","SECT":" ","MAREA":" ","LANE":"５７２巷","ALLEY":"５２弄","HOUSE_NO":"５９號","E_COORD97":167555.31,"N_COORD97":2545419.5,"ADDRESS":"文賢路５７２巷５２弄５９號","OBJECTID":189027},"geometry":{"x":167555.31000000052,"y":2545419.5}},{"attributes":{"ID":189029,"DIS_CODE":0,"TOWNNAME":"北區","LI":"文成里","LIN":"5鄰","STREET":"文賢路","SECT":" ","MAREA":" ","LANE":"５７２巷","ALLEY":"５２弄","HOUSE_NO":"３３號","E_COORD97":167524.95999999999,"N_COORD97":2545432.2000000002,"ADDRESS":"文賢路５７２巷５２弄３３號","OBJECTID":189028},"geometry":{"x":167524.95999999996,"y":2545432.1999999993}},{"attributes":{"ID":189030,"DIS_CODE":0,"TOWNNAME":"柳營區","LI":"東昇里","LIN":"27鄰","STREET":" ","SECT":" ","MAREA":"柳營","LANE":" ","ALLEY":" ","HOUSE_NO":"５１２號之７０","E_COORD97":180629.20999999999,"N_COORD97":2575236.98,"ADDRESS":"柳營５１２號之７０","OBJECTID":189029},"geometry":{"x":180629.21000000183,"y":2575236.9800000023}},{"attributes":{"ID":189031,"DIS_CODE":0,"TOWNNAME":"北區","LI":"文成里","LIN":"5鄰","STREET":"文賢路","SECT":" ","MAREA":" ","LANE":"５７２巷","ALLEY":"５２弄","HOUSE_NO":"３５號","E_COORD97":167529.91,"N_COORD97":2545432.3199999998,"ADDRESS":"文賢路５７２巷５２弄３５號","OBJECTID":189030},"geometry":{"x":167529.91000000108,"y":2545432.3200000003}},{"attributes":{"ID":189032,"DIS_CODE":0,"TOWNNAME":"七股區","LI":"大潭里","LIN":"21鄰","STREET":" ","SECT":" ","MAREA":"頂潭","LANE":" ","ALLEY":" ","HOUSE_NO":"４７號","E_COORD97":160956.12,"N_COORD97":2565776.8799999999,"ADDRESS":"頂潭４７號","OBJECTID":189031},"geometry":{"x":160956.12000000104,"y":2565776.8800000027}},{"attributes":{"ID":189033,"DIS_CODE":0,"TOWNNAME":"北區","LI":"文成里","LIN":"5鄰","STREET":"文賢路","SECT":" ","MAREA":" ","LANE":"５７２巷","ALLEY":"５２弄","HOUSE_NO":"３７號","E_COORD97":167534.73999999999,"N_COORD97":2545432.3199999998,"ADDRESS":"文賢路５７２巷５２弄３７號","OBJECTID":189032},"geometry":{"x":167534.74000000022,"y":2545432.3200000003}},{"attributes":{"ID":189034,"DIS_CODE":0,"TOWNNAME":"北區","LI":"文成里","LIN":"5鄰","STREET":"文賢路","SECT":" ","MAREA":" ","LANE":"５７２巷","ALLEY":"５２弄","HOUSE_NO":"３９號","E_COORD97":167539.56,"N_COORD97":2545432.3199999998,"ADDRESS":"文賢路５７２巷５２弄３９號","OBJECTID":189033},"geometry":{"x":167539.56000000145,"y":2545432.3200000003}},{"attributes":{"ID":189035,"DIS_CODE":0,"TOWNNAME":"柳營區","LI":"東昇里","LIN":"27鄰","STREET":" ","SECT":" ","MAREA":"柳營","LANE":" ","ALLEY":" ","HOUSE_NO":"５１２號之７１","E_COORD97":180629.32000000001,"N_COORD97":2575241.04,"ADDRESS":"柳營５１２號之７１","OBJECTID":189034},"geometry":{"x":180629.32000000123,"y":2575241.0399999991}},{"attributes":{"ID":189036,"DIS_CODE":0,"TOWNNAME":"柳營區","LI":"東昇里","LIN":"27鄰","STREET":" ","SECT":" ","MAREA":"柳營","LANE":" ","ALLEY":" ","HOUSE_NO":"５１２號之７２","E_COORD97":180629.44,"N_COORD97":2575245.1000000001,"ADDRESS":"柳營５１２號之７２","OBJECTID":189035},"geometry":{"x":180629.44000000041,"y":2575245.1000000034}},{"attributes":{"ID":189037,"DIS_CODE":0,"TOWNNAME":"柳營區","LI":"東昇里","LIN":"27鄰","STREET":" ","SECT":" ","MAREA":"柳營","LANE":" ","ALLEY":" ","HOUSE_NO":"５１２號之７３","E_COORD97":180629.56,"N_COORD97":2575249.1499999999,"ADDRESS":"柳營５１２號之７３","OBJECTID":189036},"geometry":{"x":180629.55999999959,"y":2575249.1500000041}},{"attributes":{"ID":189038,"DIS_CODE":0,"TOWNNAME":"柳營區","LI":"東昇里","LIN":"27鄰","STREET":" ","SECT":" ","MAREA":"柳營","LANE":" ","ALLEY":" ","HOUSE_NO":"５１２之７４號","E_COORD97":180629.67999999999,"N_COORD97":2575253.21,"ADDRESS":"柳營５１２之７４號","OBJECTID":189037},"geometry":{"x":180629.68000000063,"y":2575253.2100000028}},{"attributes":{"ID":189039,"DIS_CODE":0,"TOWNNAME":"柳營區","LI":"東昇里","LIN":"27鄰","STREET":" ","SECT":" ","MAREA":"柳營","LANE":" ","ALLEY":" ","HOUSE_NO":"５１２號之７５","E_COORD97":180627.41,"N_COORD97":2575263.21,"ADDRESS":"柳營５１２號之７５","OBJECTID":189038},"geometry":{"x":180627.41000000015,"y":2575263.2100000028}},{"attributes":{"ID":189040,"DIS_CODE":0,"TOWNNAME":"白河區","LI":"外角里","LIN":"3鄰","STREET":" ","SECT":" ","MAREA":"外角","LANE":" ","ALLEY":" ","HOUSE_NO":"２５號","E_COORD97":190581.89999999999,"N_COORD97":2583209.1699999999,"ADDRESS":"外角２５號","OBJECTID":189039},"geometry":{"x":190581.90000000037,"y":2583209.1700000037}},{"attributes":{"ID":189041,"DIS_CODE":0,"TOWNNAME":"北區","LI":"文成里","LIN":"5鄰","STREET":"文賢路","SECT":" ","MAREA":" ","LANE":"５７２巷","ALLEY":"５２弄","HOUSE_NO":"４１號","E_COORD97":167544.51999999999,"N_COORD97":2545432.4500000002,"ADDRESS":"文賢路５７２巷５２弄４１號","OBJECTID":189040},"geometry":{"x":167544.51999999955,"y":2545432.4500000011}},{"attributes":{"ID":189042,"DIS_CODE":0,"TOWNNAME":"北區","LI":"文成里","LIN":"5鄰","STREET":"文賢路","SECT":" ","MAREA":" ","LANE":"５７２巷","ALLEY":"５２弄","HOUSE_NO":"４３號","E_COORD97":167548.95999999999,"N_COORD97":2545432.4500000002,"ADDRESS":"文賢路５７２巷５２弄４３號","OBJECTID":189041},"geometry":{"x":167548.96000000183,"y":2545432.4500000011}},{"attributes":{"ID":189043,"DIS_CODE":0,"TOWNNAME":"柳營區","LI":"東昇里","LIN":"27鄰","STREET":" ","SECT":" ","MAREA":"柳營","LANE":" ","ALLEY":" ","HOUSE_NO":"５１２號之７６","E_COORD97":180627.57000000001,"N_COORD97":2575267.3300000001,"ADDRESS":"柳營５１２號之７６","OBJECTID":189042},"geometry":{"x":180627.57000000123,"y":2575267.3300000001}},{"attributes":{"ID":189044,"DIS_CODE":0,"TOWNNAME":"柳營區","LI":"東昇里","LIN":"27鄰","STREET":" ","SECT":" ","MAREA":"柳營","LANE":" ","ALLEY":" ","HOUSE_NO":"５１２之７７號","E_COORD97":180627.73999999999,"N_COORD97":2575271.4399999999,"ADDRESS":"柳營５１２之７７號","OBJECTID":189043},"geometry":{"x":180627.74000000115,"y":2575271.4400000013}},{"attributes":{"ID":189045,"DIS_CODE":0,"TOWNNAME":"北區","LI":"文成里","LIN":"5鄰","STREET":"文賢路","SECT":" ","MAREA":" ","LANE":"５７２巷","ALLEY":"５２弄","HOUSE_NO":"４５號","E_COORD97":167553.41,"N_COORD97":2545432.3199999998,"ADDRESS":"文賢路５７２巷５２弄４５號","OBJECTID":189044},"geometry":{"x":167553.41000000108,"y":2545432.3200000003}},{"attributes":{"ID":189046,"DIS_CODE":0,"TOWNNAME":"柳營區","LI":"東昇里","LIN":"27鄰","STREET":" ","SECT":" ","MAREA":"柳營","LANE":" ","ALLEY":" ","HOUSE_NO":"５１２號之７８","E_COORD97":180627.89999999999,"N_COORD97":2575275.5499999998,"ADDRESS":"柳營５１２號之７８","OBJECTID":189045},"geometry":{"x":180627.90000000037,"y":2575275.5500000007}},{"attributes":{"ID":189047,"DIS_CODE":0,"TOWNNAME":"北區","LI":"文成里","LIN":"5鄰","STREET":"文賢路","SECT":" ","MAREA":" ","LANE":"５７２巷","ALLEY":"５２弄","HOUSE_NO":"４７號","E_COORD97":167557.98000000001,"N_COORD97":2545432.3199999998,"ADDRESS":"文賢路５７２巷５２弄４７號","OBJECTID":189046},"geometry":{"x":167557.98000000231,"y":2545432.3200000003}},{"attributes":{"ID":189048,"DIS_CODE":0,"TOWNNAME":"柳營區","LI":"東昇里","LIN":"27鄰","STREET":" ","SECT":" ","MAREA":"柳營","LANE":" ","ALLEY":" ","HOUSE_NO":"５１２號之７９","E_COORD97":180628.07000000001,"N_COORD97":2575279.6600000001,"ADDRESS":"柳營５１２號之７９","OBJECTID":189047},"geometry":{"x":180628.0700000003,"y":2575279.660000002}},{"attributes":{"ID":189049,"DIS_CODE":0,"TOWNNAME":"北區","LI":"振興里","LIN":"5鄰","STREET":"開元路","SECT":" ","MAREA":" ","LANE":"１４８巷","ALLEY":"２３弄","HOUSE_NO":"１６號","E_COORD97":170080.03,"N_COORD97":2545198.9900000002,"ADDRESS":"開元路１４８巷２３弄１６號","OBJECTID":189048},"geometry":{"x":170080.03000000119,"y":2545198.9900000021}},{"attributes":{"ID":189050,"DIS_CODE":0,"TOWNNAME":"北區","LI":"振興里","LIN":"5鄰","STREET":"開元路","SECT":" ","MAREA":" ","LANE":"１４８巷","ALLEY":"２３弄","HOUSE_NO":"１８號","E_COORD97":170084.5,"N_COORD97":2545195.9399999999,"ADDRESS":"開元路１４８巷２３弄１８號","OBJECTID":189049},"geometry":{"x":170084.5,"y":2545195.9399999995}},{"attributes":{"ID":189051,"DIS_CODE":0,"TOWNNAME":"東山區","LI":"東山里","LIN":"27鄰","STREET":" ","SECT":" ","MAREA":"東山","LANE":" ","ALLEY":" ","HOUSE_NO":"４９４號","E_COORD97":188766.79000000001,"N_COORD97":2580345.75,"ADDRESS":"東山４９４號","OBJECTID":189050},"geometry":{"x":188766.79000000004,"y":2580345.75}},{"attributes":{"ID":189052,"DIS_CODE":0,"TOWNNAME":"東山區","LI":"東山里","LIN":"27鄰","STREET":" ","SECT":" ","MAREA":"東山","LANE":" ","ALLEY":" ","HOUSE_NO":"４９５號","E_COORD97":188761.73000000001,"N_COORD97":2580346.52,"ADDRESS":"東山４９５號","OBJECTID":189051},"geometry":{"x":188761.73000000138,"y":2580346.5199999996}},{"attributes":{"ID":189053,"DIS_CODE":0,"TOWNNAME":"東山區","LI":"東山里","LIN":"27鄰","STREET":" ","SECT":" ","MAREA":"東山","LANE":" ","ALLEY":" ","HOUSE_NO":"４９６號","E_COORD97":188756.67000000001,"N_COORD97":2580347.29,"ADDRESS":"東山４９６號","OBJECTID":189052},"geometry":{"x":188756.67000000086,"y":2580347.290000001}},{"attributes":{"ID":189054,"DIS_CODE":0,"TOWNNAME":"東山區","LI":"東山里","LIN":"27鄰","STREET":" ","SECT":" ","MAREA":"東山","LANE":" ","ALLEY":" ","HOUSE_NO":"４９７號","E_COORD97":188751.62,"N_COORD97":2580348.0600000001,"ADDRESS":"東山４９７號","OBJECTID":189053},"geometry":{"x":188751.62000000197,"y":2580348.0600000005}},{"attributes":{"ID":189055,"DIS_CODE":0,"TOWNNAME":"東山區","LI":"東山里","LIN":"27鄰","STREET":" ","SECT":" ","MAREA":"東山","LANE":" ","ALLEY":" ","HOUSE_NO":"４９８號","E_COORD97":188746.56,"N_COORD97":2580348.8300000001,"ADDRESS":"東山４９８號","OBJECTID":189054},"geometry":{"x":188746.56000000052,"y":2580348.8300000001}},{"attributes":{"ID":189056,"DIS_CODE":0,"TOWNNAME":"東山區","LI":"東山里","LIN":"27鄰","STREET":" ","SECT":" ","MAREA":"東山","LANE":" ","ALLEY":" ","HOUSE_NO":"４９９號","E_COORD97":188741.5,"N_COORD97":2580349.5899999999,"ADDRESS":"東山４９９號","OBJECTID":189055},"geometry":{"x":188741.5,"y":2580349.5900000017}},{"attributes":{"ID":189057,"DIS_CODE":0,"TOWNNAME":"東山區","LI":"東山里","LIN":"27鄰","STREET":" ","SECT":" ","MAREA":"東山","LANE":" ","ALLEY":" ","HOUSE_NO":"５００號","E_COORD97":188736.45000000001,"N_COORD97":2580350.3599999999,"ADDRESS":"東山５００號","OBJECTID":189056},"geometry":{"x":188736.45000000112,"y":2580350.3600000013}},{"attributes":{"ID":189058,"DIS_CODE":0,"TOWNNAME":"東山區","LI":"東山里","LIN":"27鄰","STREET":" ","SECT":" ","MAREA":"東山","LANE":" ","ALLEY":" ","HOUSE_NO":"５０１號","E_COORD97":188725.38,"N_COORD97":2580352.3199999998,"ADDRESS":"東山５０１號","OBJECTID":189057},"geometry":{"x":188725.37999999989,"y":2580352.3200000003}},{"attributes":{"ID":189059,"DIS_CODE":0,"TOWNNAME":"東山區","LI":"東山里","LIN":"27鄰","STREET":" ","SECT":" ","MAREA":"東山","LANE":" ","ALLEY":" ","HOUSE_NO":"５０２號","E_COORD97":188719.56,"N_COORD97":2580353.29,"ADDRESS":"東山５０２號","OBJECTID":189058},"geometry":{"x":188719.56000000052,"y":2580353.290000001}},{"attributes":{"ID":189060,"DIS_CODE":0,"TOWNNAME":"東山區","LI":"東山里","LIN":"27鄰","STREET":" ","SECT":" ","MAREA":"東山","LANE":" ","ALLEY":" ","HOUSE_NO":"５０３號","E_COORD97":188713.73000000001,"N_COORD97":2580354.2599999998,"ADDRESS":"東山５０３號","OBJECTID":189059},"geometry":{"x":188713.72999999952,"y":2580354.2600000016}},{"attributes":{"ID":189061,"DIS_CODE":0,"TOWNNAME":"東山區","LI":"東山里","LIN":"27鄰","STREET":" ","SECT":" ","MAREA":"東山","LANE":" ","ALLEY":" ","HOUSE_NO":"５０４號","E_COORD97":188725.69,"N_COORD97":2580366.5,"ADDRESS":"東山５０４號","OBJECTID":189060},"geometry":{"x":188725.69000000041,"y":2580366.5000000019}},{"attributes":{"ID":189062,"DIS_CODE":0,"TOWNNAME":"東山區","LI":"東山里","LIN":"27鄰","STREET":" ","SECT":" ","MAREA":"東山","LANE":" ","ALLEY":" ","HOUSE_NO":"５０５號","E_COORD97":188716.66,"N_COORD97":2580367.8300000001,"ADDRESS":"東山５０５號","OBJECTID":189061},"geometry":{"x":188716.66000000015,"y":2580367.8300000019}},{"attributes":{"ID":189063,"DIS_CODE":0,"TOWNNAME":"東山區","LI":"東山里","LIN":"27鄰","STREET":" ","SECT":" ","MAREA":"東山","LANE":" ","ALLEY":" ","HOUSE_NO":"５０６號","E_COORD97":188707.62,"N_COORD97":2580369.1499999999,"ADDRESS":"東山５０６號","OBJECTID":189062},"geometry":{"x":188707.62000000104,"y":2580369.1500000022}},{"attributes":{"ID":189064,"DIS_CODE":0,"TOWNNAME":"新市區","LI":"大社里","LIN":"27鄰","STREET":" ","SECT":" ","MAREA":"大社","LANE":" ","ALLEY":" ","HOUSE_NO":"７２３之１號","E_COORD97":180023.35000000001,"N_COORD97":2554297.0499999998,"ADDRESS":"大社７２３之１號","OBJECTID":189063},"geometry":{"x":180023.35000000056,"y":2554297.0500000007}},{"attributes":{"ID":189065,"DIS_CODE":0,"TOWNNAME":"官田區","LI":"渡頭里","LIN":"27鄰","STREET":" ","SECT":" ","MAREA":"三塊厝","LANE":" ","ALLEY":" ","HOUSE_NO":"１１５號","E_COORD97":182548.48000000001,"N_COORD97":2562031.6000000001,"ADDRESS":"三塊厝１１５號","OBJECTID":189064},"geometry":{"x":182548.48000000231,"y":2562031.5999999996}},{"attributes":{"ID":189066,"DIS_CODE":0,"TOWNNAME":"官田區","LI":"渡頭里","LIN":"27鄰","STREET":" ","SECT":" ","MAREA":"三塊厝","LANE":" ","ALLEY":" ","HOUSE_NO":"２０號","E_COORD97":182571.60000000001,"N_COORD97":2562234.27,"ADDRESS":"三塊厝２０號","OBJECTID":189065},"geometry":{"x":182571.59999999963,"y":2562234.2699999996}},{"attributes":{"ID":189067,"DIS_CODE":0,"TOWNNAME":"官田區","LI":"渡頭里","LIN":"27鄰","STREET":" ","SECT":" ","MAREA":"三塊厝","LANE":" ","ALLEY":" ","HOUSE_NO":"２１號","E_COORD97":182589.91,"N_COORD97":2562227.7599999998,"ADDRESS":"三塊厝２１號","OBJECTID":189066},"geometry":{"x":182589.91000000108,"y":2562227.7599999998}},{"attributes":{"ID":189068,"DIS_CODE":0,"TOWNNAME":"官田區","LI":"渡頭里","LIN":"27鄰","STREET":" ","SECT":" ","MAREA":"三塊厝","LANE":" ","ALLEY":" ","HOUSE_NO":"２２號之１０","E_COORD97":182564.73999999999,"N_COORD97":2562160.6899999999,"ADDRESS":"三塊厝２２號之１０","OBJECTID":189067},"geometry":{"x":182564.74000000022,"y":2562160.6899999976}},{"attributes":{"ID":189069,"DIS_CODE":0,"TOWNNAME":"官田區","LI":"渡頭里","LIN":"27鄰","STREET":" ","SECT":" ","MAREA":"三塊厝","LANE":" ","ALLEY":" ","HOUSE_NO":"２２號之５","E_COORD97":182574.95999999999,"N_COORD97":2562202.1099999999,"ADDRESS":"三塊厝２２號之５","OBJECTID":189068},"geometry":{"x":182574.95999999996,"y":2562202.1100000031}},{"attributes":{"ID":189070,"DIS_CODE":0,"TOWNNAME":"官田區","LI":"渡頭里","LIN":"27鄰","STREET":" ","SECT":" ","MAREA":"三塊厝","LANE":" ","ALLEY":" ","HOUSE_NO":"２２號之６","E_COORD97":182577.19,"N_COORD97":2562193.4100000001,"ADDRESS":"三塊厝２２號之６","OBJECTID":189069},"geometry":{"x":182577.19000000041,"y":2562193.4100000001}},{"attributes":{"ID":189071,"DIS_CODE":0,"TOWNNAME":"官田區","LI":"渡頭里","LIN":"27鄰","STREET":" ","SECT":" ","MAREA":"三塊厝","LANE":" ","ALLEY":" ","HOUSE_NO":"２２號之７","E_COORD97":182578.98000000001,"N_COORD97":2562185.4700000002,"ADDRESS":"三塊厝２２號之７","OBJECTID":189070},"geometry":{"x":182578.98000000231,"y":2562185.4700000025}},{"attributes":{"ID":189072,"DIS_CODE":0,"TOWNNAME":"官田區","LI":"渡頭里","LIN":"27鄰","STREET":" ","SECT":" ","MAREA":"三塊厝","LANE":" ","ALLEY":" ","HOUSE_NO":"２２號之８","E_COORD97":182581.22,"N_COORD97":2562176.7799999998,"ADDRESS":"三塊厝２２號之８","OBJECTID":189071},"geometry":{"x":182581.21999999974,"y":2562176.7799999993}},{"attributes":{"ID":189073,"DIS_CODE":0,"TOWNNAME":"官田區","LI":"渡頭里","LIN":"27鄰","STREET":" ","SECT":" ","MAREA":"三塊厝","LANE":" ","ALLEY":" ","HOUSE_NO":"２２號之９","E_COORD97":182583.45000000001,"N_COORD97":2562168.0899999999,"ADDRESS":"三塊厝２２號之９","OBJECTID":189072},"geometry":{"x":182583.45000000019,"y":2562168.0899999999}},{"attributes":{"ID":189074,"DIS_CODE":0,"TOWNNAME":"官田區","LI":"渡頭里","LIN":"27鄰","STREET":" ","SECT":" ","MAREA":"三塊厝","LANE":" ","ALLEY":" ","HOUSE_NO":"２６號","E_COORD97":182610.10999999999,"N_COORD97":2562145.4300000002,"ADDRESS":"三塊厝２６號","OBJECTID":189073},"geometry":{"x":182610.1100000022,"y":2562145.4299999997}},{"attributes":{"ID":189075,"DIS_CODE":0,"TOWNNAME":"白河區","LI":"甘宅里","LIN":"3鄰","STREET":" ","SECT":" ","MAREA":"甘宅","LANE":" ","ALLEY":" ","HOUSE_NO":"３４號","E_COORD97":192801.64000000001,"N_COORD97":2586766.9700000002,"ADDRESS":"甘宅３４號","OBJECTID":189074},"geometry":{"x":192801.63999999966,"y":2586766.9700000007}},{"attributes":{"ID":189076,"DIS_CODE":0,"TOWNNAME":"新市區","LI":"大社里","LIN":"21鄰","STREET":" ","SECT":" ","MAREA":"大社","LANE":" ","ALLEY":" ","HOUSE_NO":"７９８號","E_COORD97":179841.85000000001,"N_COORD97":2554196.75,"ADDRESS":"大社７９８號","OBJECTID":189075},"geometry":{"x":179841.85000000056,"y":2554196.75}},{"attributes":{"ID":189077,"DIS_CODE":0,"TOWNNAME":"新市區","LI":"大營里","LIN":"21鄰","STREET":" ","SECT":" ","MAREA":"豐榮","LANE":" ","ALLEY":" ","HOUSE_NO":"８９號","E_COORD97":178836.54000000001,"N_COORD97":2554266.25,"ADDRESS":"豐榮８９號","OBJECTID":189076},"geometry":{"x":178836.54000000004,"y":2554266.2500000019}},{"attributes":{"ID":189078,"DIS_CODE":0,"TOWNNAME":"新市區","LI":"大營里","LIN":"21鄰","STREET":" ","SECT":" ","MAREA":"豐榮","LANE":" ","ALLEY":" ","HOUSE_NO":"１１６號","E_COORD97":178874.29000000001,"N_COORD97":2554300.75,"ADDRESS":"豐榮１１６號","OBJECTID":189077},"geometry":{"x":178874.29000000097,"y":2554300.75}},{"attributes":{"ID":189079,"DIS_CODE":0,"TOWNNAME":"新市區","LI":"大營里","LIN":"21鄰","STREET":" ","SECT":" ","MAREA":"豐榮","LANE":" ","ALLEY":" ","HOUSE_NO":"８３號","E_COORD97":178853.23999999999,"N_COORD97":2554281.5,"ADDRESS":"豐榮８３號","OBJECTID":189078},"geometry":{"x":178853.24000000115,"y":2554281.5000000019}},{"attributes":{"ID":189080,"DIS_CODE":0,"TOWNNAME":"新市區","LI":"大營里","LIN":"21鄰","STREET":" ","SECT":" ","MAREA":"豐榮","LANE":" ","ALLEY":" ","HOUSE_NO":"１４９號","E_COORD97":178909.09,"N_COORD97":2554259.75,"ADDRESS":"豐榮１４９號","OBJECTID":189079},"geometry":{"x":178909.08999999892,"y":2554259.7500000019}},{"attributes":{"ID":189081,"DIS_CODE":0,"TOWNNAME":"新市區","LI":"大營里","LIN":"21鄰","STREET":" ","SECT":" ","MAREA":"豐榮","LANE":" ","ALLEY":" ","HOUSE_NO":"９３號","E_COORD97":178826.29000000001,"N_COORD97":2554256,"ADDRESS":"豐榮９３號","OBJECTID":189080},"geometry":{"x":178826.29000000004,"y":2554256}},{"attributes":{"ID":189082,"DIS_CODE":0,"TOWNNAME":"北門區","LI":"北門里","LIN":"21鄰","STREET":" ","SECT":" ","MAREA":"舊埕","LANE":" ","ALLEY":" ","HOUSE_NO":"１４６號","E_COORD97":160482.42999999999,"N_COORD97":2574392.9199999999,"ADDRESS":"舊埕１４６號","OBJECTID":189081},"geometry":{"x":160482.43000000063,"y":2574392.9200000018}},{"attributes":{"ID":189083,"DIS_CODE":0,"TOWNNAME":"官田區","LI":"渡頭里","LIN":"27鄰","STREET":" ","SECT":" ","MAREA":"三塊厝","LANE":" ","ALLEY":" ","HOUSE_NO":"３１號","E_COORD97":182571.89999999999,"N_COORD97":2562098.9900000002,"ADDRESS":"三塊厝３１號","OBJECTID":189082},"geometry":{"x":182571.90000000037,"y":2562098.9900000021}},{"attributes":{"ID":189084,"DIS_CODE":0,"TOWNNAME":"官田區","LI":"渡頭里","LIN":"27鄰","STREET":" ","SECT":" ","MAREA":"三塊厝","LANE":" ","ALLEY":" ","HOUSE_NO":"３２號","E_COORD97":182571.94,"N_COORD97":2562086.5699999998,"ADDRESS":"三塊厝３２號","OBJECTID":189083},"geometry":{"x":182571.94000000041,"y":2562086.5700000003}},{"attributes":{"ID":189085,"DIS_CODE":0,"TOWNNAME":"官田區","LI":"渡頭里","LIN":"27鄰","STREET":" ","SECT":" ","MAREA":"三塊厝","LANE":" ","ALLEY":" ","HOUSE_NO":"３５號","E_COORD97":182571.35000000001,"N_COORD97":2562074.8700000001,"ADDRESS":"三塊厝３５號","OBJECTID":189084},"geometry":{"x":182571.34999999963,"y":2562074.8700000029}},{"attributes":{"ID":189086,"DIS_CODE":0,"TOWNNAME":"官田區","LI":"渡頭里","LIN":"27鄰","STREET":" ","SECT":" ","MAREA":"三塊厝","LANE":" ","ALLEY":" ","HOUSE_NO":"３６號","E_COORD97":182574.53,"N_COORD97":2562070.1899999999,"ADDRESS":"三塊厝３６號","OBJECTID":189085},"geometry":{"x":182574.53000000026,"y":2562070.1900000013}},{"attributes":{"ID":189087,"DIS_CODE":0,"TOWNNAME":"官田區","LI":"渡頭里","LIN":"27鄰","STREET":" ","SECT":" ","MAREA":"三塊厝","LANE":" ","ALLEY":" ","HOUSE_NO":"４０號","E_COORD97":182597.57000000001,"N_COORD97":2562053.4100000001,"ADDRESS":"三塊厝４０號","OBJECTID":189086},"geometry":{"x":182597.57000000123,"y":2562053.4100000001}},{"attributes":{"ID":189088,"DIS_CODE":0,"TOWNNAME":"官田區","LI":"渡頭里","LIN":"27鄰","STREET":" ","SECT":" ","MAREA":"三塊厝","LANE":" ","ALLEY":" ","HOUSE_NO":"４１號","E_COORD97":182577.19,"N_COORD97":2562041.7000000002,"ADDRESS":"三塊厝４１號","OBJECTID":189087},"geometry":{"x":182577.19000000041,"y":2562041.6999999974}},{"attributes":{"ID":189089,"DIS_CODE":0,"TOWNNAME":"官田區","LI":"渡頭里","LIN":"27鄰","STREET":" ","SECT":" ","MAREA":"三塊厝","LANE":" ","ALLEY":" ","HOUSE_NO":"４３號","E_COORD97":182583.38,"N_COORD97":2562027.5699999998,"ADDRESS":"三塊厝４３號","OBJECTID":189088},"geometry":{"x":182583.37999999989,"y":2562027.5700000022}},{"attributes":{"ID":189090,"DIS_CODE":0,"TOWNNAME":"官田區","LI":"渡頭里","LIN":"27鄰","STREET":" ","SECT":" ","MAREA":"三塊厝","LANE":" ","ALLEY":" ","HOUSE_NO":"５１號","E_COORD97":182545.75,"N_COORD97":2562083.1800000002,"ADDRESS":"三塊厝５１號","OBJECTID":189089},"geometry":{"x":182545.75,"y":2562083.1800000034}},{"attributes":{"ID":189091,"DIS_CODE":0,"TOWNNAME":"官田區","LI":"渡頭里","LIN":"27鄰","STREET":" ","SECT":" ","MAREA":"三塊厝","LANE":" ","ALLEY":" ","HOUSE_NO":"５２號","E_COORD97":182545.67999999999,"N_COORD97":2562087.5,"ADDRESS":"三塊厝５２號","OBJECTID":189090},"geometry":{"x":182545.6799999997,"y":2562087.5}},{"attributes":{"ID":189092,"DIS_CODE":0,"TOWNNAME":"官田區","LI":"渡頭里","LIN":"27鄰","STREET":" ","SECT":" ","MAREA":"三塊厝","LANE":" ","ALLEY":" ","HOUSE_NO":"５３號","E_COORD97":182545.42999999999,"N_COORD97":2562091.5800000001,"ADDRESS":"三塊厝５３號","OBJECTID":189091},"geometry":{"x":182545.43000000063,"y":2562091.5800000019}},{"attributes":{"ID":189093,"DIS_CODE":0,"TOWNNAME":"官田區","LI":"渡頭里","LIN":"27鄰","STREET":" ","SECT":" ","MAREA":"三塊厝","LANE":" ","ALLEY":" ","HOUSE_NO":"５４號","E_COORD97":182545.10999999999,"N_COORD97":2562095.8300000001,"ADDRESS":"三塊厝５４號","OBJECTID":189092},"geometry":{"x":182545.11000000034,"y":2562095.8300000001}},{"attributes":{"ID":189094,"DIS_CODE":0,"TOWNNAME":"官田區","LI":"渡頭里","LIN":"27鄰","STREET":" ","SECT":" ","MAREA":"三塊厝","LANE":" ","ALLEY":" ","HOUSE_NO":"５５號","E_COORD97":182544.88,"N_COORD97":2562099.46,"ADDRESS":"三塊厝５５號","OBJECTID":189093},"geometry":{"x":182544.87999999989,"y":2562099.4600000046}},{"attributes":{"ID":189095,"DIS_CODE":0,"TOWNNAME":"官田區","LI":"渡頭里","LIN":"27鄰","STREET":" ","SECT":" ","MAREA":"三塊厝","LANE":" ","ALLEY":" ","HOUSE_NO":"５６號","E_COORD97":182544.60000000001,"N_COORD97":2562105.21,"ADDRESS":"三塊厝５６號","OBJECTID":189094},"geometry":{"x":182544.59999999963,"y":2562105.2100000028}},{"attributes":{"ID":189096,"DIS_CODE":0,"TOWNNAME":"官田區","LI":"渡頭里","LIN":"27鄰","STREET":" ","SECT":" ","MAREA":"三塊厝","LANE":" ","ALLEY":" ","HOUSE_NO":"６５號之１２","E_COORD97":182499.41,"N_COORD97":2562434.0499999998,"ADDRESS":"三塊厝６５號之１２","OBJECTID":189095},"geometry":{"x":182499.41000000201,"y":2562434.0500000007}},{"attributes":{"ID":189097,"DIS_CODE":0,"TOWNNAME":"官田區","LI":"渡頭里","LIN":"27鄰","STREET":" ","SECT":" ","MAREA":"三塊厝","LANE":" ","ALLEY":" ","HOUSE_NO":"６５號之１７","E_COORD97":182498.98000000001,"N_COORD97":2562411.23,"ADDRESS":"三塊厝６５號之１７","OBJECTID":189096},"geometry":{"x":182498.98000000045,"y":2562411.2300000004}},{"attributes":{"ID":189098,"DIS_CODE":0,"TOWNNAME":"官田區","LI":"渡頭里","LIN":"27鄰","STREET":" ","SECT":" ","MAREA":"三塊厝","LANE":" ","ALLEY":" ","HOUSE_NO":"６８號之８","E_COORD97":182500.89999999999,"N_COORD97":2562256.8799999999,"ADDRESS":"三塊厝６８號之８","OBJECTID":189097},"geometry":{"x":182500.90000000037,"y":2562256.879999999}},{"attributes":{"ID":189099,"DIS_CODE":0,"TOWNNAME":"官田區","LI":"渡頭里","LIN":"27鄰","STREET":" ","SECT":" ","MAREA":"三塊厝","LANE":" ","ALLEY":" ","HOUSE_NO":"６８號","E_COORD97":182498.60000000001,"N_COORD97":2562273.8599999999,"ADDRESS":"三塊厝６８號","OBJECTID":189098},"geometry":{"x":182498.59999999963,"y":2562273.8599999994}},{"attributes":{"ID":189100,"DIS_CODE":0,"TOWNNAME":"官田區","LI":"渡頭里","LIN":"27鄰","STREET":" ","SECT":" ","MAREA":"三塊厝","LANE":" ","ALLEY":" ","HOUSE_NO":"７０號之１２","E_COORD97":182497.07999999999,"N_COORD97":2562200.1600000001,"ADDRESS":"三塊厝７０號之１２","OBJECTID":189099},"geometry":{"x":182497.08000000101,"y":2562200.160000002}},{"attributes":{"ID":189101,"DIS_CODE":0,"TOWNNAME":"官田區","LI":"渡頭里","LIN":"27鄰","STREET":" ","SECT":" ","MAREA":"三塊厝","LANE":" ","ALLEY":" ","HOUSE_NO":"６５號之１９","E_COORD97":182498.91,"N_COORD97":2562422.4900000002,"ADDRESS":"三塊厝６５號之１９","OBJECTID":189100},"geometry":{"x":182498.91000000015,"y":2562422.4900000002}},{"attributes":{"ID":189102,"DIS_CODE":0,"TOWNNAME":"官田區","LI":"渡頭里","LIN":"27鄰","STREET":" ","SECT":" ","MAREA":"三塊厝","LANE":" ","ALLEY":" ","HOUSE_NO":"６５號之２０","E_COORD97":182500.12,"N_COORD97":2562399.77,"ADDRESS":"三塊厝６５號之２０","OBJECTID":189101},"geometry":{"x":182500.12000000104,"y":2562399.7699999996}},{"attributes":{"ID":189103,"DIS_CODE":0,"TOWNNAME":"官田區","LI":"渡頭里","LIN":"27鄰","STREET":" ","SECT":" ","MAREA":"三塊厝","LANE":" ","ALLEY":" ","HOUSE_NO":"６５號之２７","E_COORD97":182252.98000000001,"N_COORD97":2562451.5499999998,"ADDRESS":"三塊厝６５號之２７","OBJECTID":189102},"geometry":{"x":182252.98000000045,"y":2562451.5500000045}},{"attributes":{"ID":189104,"DIS_CODE":0,"TOWNNAME":"官田區","LI":"渡頭里","LIN":"27鄰","STREET":" ","SECT":" ","MAREA":"三塊厝","LANE":" ","ALLEY":" ","HOUSE_NO":"６５號之２８","E_COORD97":182238.67999999999,"N_COORD97":2562450,"ADDRESS":"三塊厝６５號之２８","OBJECTID":189103},"geometry":{"x":182238.6799999997,"y":2562450}},{"attributes":{"ID":189105,"DIS_CODE":0,"TOWNNAME":"官田區","LI":"渡頭里","LIN":"27鄰","STREET":" ","SECT":" ","MAREA":"三塊厝","LANE":" ","ALLEY":" ","HOUSE_NO":"６６號之１３","E_COORD97":182509.39999999999,"N_COORD97":2562353.23,"ADDRESS":"三塊厝６６號之１３","OBJECTID":189104},"geometry":{"x":182509.40000000037,"y":2562353.2300000023}},{"attributes":{"ID":189106,"DIS_CODE":0,"TOWNNAME":"官田區","LI":"渡頭里","LIN":"27鄰","STREET":" ","SECT":" ","MAREA":"三塊厝","LANE":" ","ALLEY":" ","HOUSE_NO":"６６號之１６","E_COORD97":182484.95000000001,"N_COORD97":2562348.1600000001,"ADDRESS":"三塊厝６６號之１６","OBJECTID":189105},"geometry":{"x":182484.95000000019,"y":2562348.1599999983}},{"attributes":{"ID":189107,"DIS_CODE":0,"TOWNNAME":"北門區","LI":"北門里","LIN":"21鄰","STREET":" ","SECT":" ","MAREA":"舊埕","LANE":" ","ALLEY":" ","HOUSE_NO":"１３０號","E_COORD97":160458.76999999999,"N_COORD97":2574423.4500000002,"ADDRESS":"舊埕１３０號","OBJECTID":189106},"geometry":{"x":160458.76999999862,"y":2574423.4500000011}},{"attributes":{"ID":189108,"DIS_CODE":0,"TOWNNAME":"北門區","LI":"北門里","LIN":"21鄰","STREET":" ","SECT":" ","MAREA":"舊埕","LANE":" ","ALLEY":" ","HOUSE_NO":"１３１號","E_COORD97":160440.07999999999,"N_COORD97":2574417.1400000001,"ADDRESS":"舊埕１３１號","OBJECTID":189107},"geometry":{"x":160440.08000000007,"y":2574417.1400000006}},{"attributes":{"ID":189109,"DIS_CODE":0,"TOWNNAME":"北門區","LI":"北門里","LIN":"21鄰","STREET":" ","SECT":" ","MAREA":"舊埕","LANE":" ","ALLEY":" ","HOUSE_NO":"１３３號","E_COORD97":160442.37,"N_COORD97":2574413.6699999999,"ADDRESS":"舊埕１３３號","OBJECTID":189108},"geometry":{"x":160442.37000000104,"y":2574413.6699999999}},{"attributes":{"ID":189110,"DIS_CODE":0,"TOWNNAME":"北門區","LI":"北門里","LIN":"21鄰","STREET":" ","SECT":" ","MAREA":"舊埕","LANE":" ","ALLEY":" ","HOUSE_NO":"１３４號","E_COORD97":160463.14999999999,"N_COORD97":2574416.3599999999,"ADDRESS":"舊埕１３４號","OBJECTID":189109},"geometry":{"x":160463.15000000037,"y":2574416.3600000013}},{"attributes":{"ID":189111,"DIS_CODE":0,"TOWNNAME":"北門區","LI":"北門里","LIN":"21鄰","STREET":" ","SECT":" ","MAREA":"舊埕","LANE":" ","ALLEY":" ","HOUSE_NO":"１４３號","E_COORD97":160454.82000000001,"N_COORD97":2574391,"ADDRESS":"舊埕１４３號","OBJECTID":189110},"geometry":{"x":160454.82000000123,"y":2574391}},{"attributes":{"ID":189112,"DIS_CODE":0,"TOWNNAME":"官田區","LI":"渡頭里","LIN":"27鄰","STREET":" ","SECT":" ","MAREA":"三塊厝","LANE":" ","ALLEY":" ","HOUSE_NO":"６６號之１７","E_COORD97":182509.34,"N_COORD97":2562345.3799999999,"ADDRESS":"三塊厝６６號之１７","OBJECTID":189111},"geometry":{"x":182509.33999999985,"y":2562345.3799999971}},{"attributes":{"ID":189113,"DIS_CODE":0,"TOWNNAME":"北區","LI":"振興里","LIN":"5鄰","STREET":"開元路","SECT":" ","MAREA":" ","LANE":"１４８巷","ALLEY":"２３弄","HOUSE_NO":"２０號","E_COORD97":170088.32000000001,"N_COORD97":2545193.1099999999,"ADDRESS":"開元路１４８巷２３弄２０號","OBJECTID":189112},"geometry":{"x":170088.32000000123,"y":2545193.1100000013}},{"attributes":{"ID":189114,"DIS_CODE":0,"TOWNNAME":"北區","LI":"振興里","LIN":"5鄰","STREET":"開元路","SECT":" ","MAREA":" ","LANE":"１４８巷","ALLEY":"２３弄","HOUSE_NO":"２２號","E_COORD97":170093.01000000001,"N_COORD97":2545190.6000000001,"ADDRESS":"開元路１４８巷２３弄２２號","OBJECTID":189113},"geometry":{"x":170093.01000000164,"y":2545190.6000000015}},{"attributes":{"ID":189115,"DIS_CODE":0,"TOWNNAME":"北區","LI":"振興里","LIN":"5鄰","STREET":"開元路","SECT":" ","MAREA":" ","LANE":"１４８巷","ALLEY":"２３弄","HOUSE_NO":"２４號","E_COORD97":170097.04999999999,"N_COORD97":2545187.5499999998,"ADDRESS":"開元路１４８巷２３弄２４號","OBJECTID":189114},"geometry":{"x":170097.04999999981,"y":2545187.5500000045}},{"attributes":{"ID":189116,"DIS_CODE":0,"TOWNNAME":"北區","LI":"振興里","LIN":"5鄰","STREET":"開元路","SECT":" ","MAREA":" ","LANE":"１４８巷","ALLEY":"２３弄","HOUSE_NO":"２６號","E_COORD97":170090.60999999999,"N_COORD97":2545209.6699999999,"ADDRESS":"開元路１４８巷２３弄２６號","OBJECTID":189115},"geometry":{"x":170090.61000000034,"y":2545209.6700000037}},{"attributes":{"ID":189117,"DIS_CODE":0,"TOWNNAME":"北區","LI":"振興里","LIN":"5鄰","STREET":"開元路","SECT":" ","MAREA":" ","LANE":"１４８巷","ALLEY":"２３弄","HOUSE_NO":"２８號","E_COORD97":170093.88,"N_COORD97":2545206.9500000002,"ADDRESS":"開元路１４８巷２３弄２８號","OBJECTID":189116},"geometry":{"x":170093.87999999896,"y":2545206.950000003}},{"attributes":{"ID":189118,"DIS_CODE":0,"TOWNNAME":"北區","LI":"振興里","LIN":"5鄰","STREET":"開元路","SECT":" ","MAREA":" ","LANE":"１４８巷","ALLEY":"２３弄","HOUSE_NO":"３０號","E_COORD97":170097.26000000001,"N_COORD97":2545204.5499999998,"ADDRESS":"開元路１４８巷２３弄３０號","OBJECTID":189117},"geometry":{"x":170097.25999999978,"y":2545204.5500000045}},{"attributes":{"ID":189119,"DIS_CODE":0,"TOWNNAME":"北區","LI":"振興里","LIN":"5鄰","STREET":"開元路","SECT":" ","MAREA":" ","LANE":"１４８巷","ALLEY":"２３弄","HOUSE_NO":"３２號","E_COORD97":170100.64000000001,"N_COORD97":2545202.3700000001,"ADDRESS":"開元路１４８巷２３弄３２號","OBJECTID":189118},"geometry":{"x":170100.6400000006,"y":2545202.370000001}},{"attributes":{"ID":189120,"DIS_CODE":0,"TOWNNAME":"北區","LI":"振興里","LIN":"5鄰","STREET":"開元路","SECT":" ","MAREA":" ","LANE":"１４８巷","ALLEY":"２３弄","HOUSE_NO":"３４號","E_COORD97":170103.92000000001,"N_COORD97":2545200.0800000001,"ADDRESS":"開元路１４８巷２３弄３４號","OBJECTID":189119},"geometry":{"x":170103.92000000179,"y":2545200.0799999982}},{"attributes":{"ID":189121,"DIS_CODE":0,"TOWNNAME":"北區","LI":"振興里","LIN":"5鄰","STREET":"開元路","SECT":" ","MAREA":" ","LANE":"１４８巷","ALLEY":"２３弄","HOUSE_NO":"３６號","E_COORD97":170107.07999999999,"N_COORD97":2545197.25,"ADDRESS":"開元路１４８巷２３弄３６號","OBJECTID":189120},"geometry":{"x":170107.08000000101,"y":2545197.2500000019}},{"attributes":{"ID":189122,"DIS_CODE":0,"TOWNNAME":"北區","LI":"振興里","LIN":"5鄰","STREET":"開元路","SECT":" ","MAREA":" ","LANE":"１４８巷","ALLEY":"２３弄","HOUSE_NO":"４０號","E_COORD97":170097.70000000001,"N_COORD97":2545217.6299999999,"ADDRESS":"開元路１４８巷２３弄４０號","OBJECTID":189121},"geometry":{"x":170097.70000000112,"y":2545217.629999999}},{"attributes":{"ID":189123,"DIS_CODE":0,"TOWNNAME":"北區","LI":"振興里","LIN":"5鄰","STREET":"開元路","SECT":" ","MAREA":" ","LANE":"１４８巷","ALLEY":"２３弄","HOUSE_NO":"４２號","E_COORD97":170101.95000000001,"N_COORD97":2545214.5800000001,"ADDRESS":"開元路１４８巷２３弄４２號","OBJECTID":189122},"geometry":{"x":170101.95000000019,"y":2545214.5800000019}},{"attributes":{"ID":189124,"DIS_CODE":0,"TOWNNAME":"北區","LI":"振興里","LIN":"5鄰","STREET":"開元路","SECT":" ","MAREA":" ","LANE":"１４８巷","ALLEY":"２３弄","HOUSE_NO":"４４號","E_COORD97":170106.53,"N_COORD97":2545211.5299999998,"ADDRESS":"開元路１４８巷２３弄４４號","OBJECTID":189123},"geometry":{"x":170106.53000000026,"y":2545211.5300000012}},{"attributes":{"ID":189125,"DIS_CODE":0,"TOWNNAME":"北區","LI":"振興里","LIN":"5鄰","STREET":"開元路","SECT":" ","MAREA":" ","LANE":"１４８巷","ALLEY":"２３弄","HOUSE_NO":"４６號","E_COORD97":170110.79000000001,"N_COORD97":2545208.1499999999,"ADDRESS":"開元路１４８巷２３弄４６號","OBJECTID":189124},"geometry":{"x":170110.79000000097,"y":2545208.1500000022}},{"attributes":{"ID":189126,"DIS_CODE":0,"TOWNNAME":"北區","LI":"振興里","LIN":"5鄰","STREET":"開元路","SECT":" ","MAREA":" ","LANE":"１４８巷","ALLEY":"２３弄","HOUSE_NO":"４８號","E_COORD97":170115.26000000001,"N_COORD97":2545204.8799999999,"ADDRESS":"開元路１４８巷２３弄４８號","OBJECTID":189125},"geometry":{"x":170115.26000000071,"y":2545204.8800000008}},{"attributes":{"ID":189127,"DIS_CODE":0,"TOWNNAME":"北區","LI":"振興里","LIN":"5鄰","STREET":"開元路","SECT":" ","MAREA":" ","LANE":"１４８巷","ALLEY":"２３弄","HOUSE_NO":"５０號","E_COORD97":170106.42999999999,"N_COORD97":2545226.7000000002,"ADDRESS":"開元路１４８巷２３弄５０號","OBJECTID":189126},"geometry":{"x":170106.4299999997,"y":2545226.7000000011}},{"attributes":{"ID":189128,"DIS_CODE":0,"TOWNNAME":"北區","LI":"振興里","LIN":"5鄰","STREET":"開元路","SECT":" ","MAREA":" ","LANE":"１４８巷","ALLEY":"２３弄","HOUSE_NO":"５２號","E_COORD97":170110.35000000001,"N_COORD97":2545223.54,"ADDRESS":"開元路１４８巷２３弄５２號","OBJECTID":189127},"geometry":{"x":170110.34999999963,"y":2545223.540000001}},{"attributes":{"ID":189129,"DIS_CODE":0,"TOWNNAME":"新營區","LI":"三仙里","LIN":"24鄰","STREET":"育德一街","SECT":" ","MAREA":" ","LANE":" ","ALLEY":" ","HOUSE_NO":"５３之１號","E_COORD97":179463.73999999999,"N_COORD97":2578877.6600000001,"ADDRESS":"育德一街５３之１號","OBJECTID":189128},"geometry":{"x":179463.74000000022,"y":2578877.660000002}},{"attributes":{"ID":189130,"DIS_CODE":0,"TOWNNAME":"官田區","LI":"渡頭里","LIN":"27鄰","STREET":" ","SECT":" ","MAREA":"三塊厝","LANE":" ","ALLEY":" ","HOUSE_NO":"６６號之５","E_COORD97":182504.98000000001,"N_COORD97":2562373.9700000002,"ADDRESS":"三塊厝６６號之５","OBJECTID":189129},"geometry":{"x":182504.98000000138,"y":2562373.9700000044}},{"attributes":{"ID":189131,"DIS_CODE":0,"TOWNNAME":"官田區","LI":"渡頭里","LIN":"27鄰","STREET":" ","SECT":" ","MAREA":"三塊厝","LANE":" ","ALLEY":" ","HOUSE_NO":"６６號之７","E_COORD97":182506.37,"N_COORD97":2562369.3199999998,"ADDRESS":"三塊厝６６號之７","OBJECTID":189130},"geometry":{"x":182506.36999999918,"y":2562369.3200000022}},{"attributes":{"ID":189132,"DIS_CODE":0,"TOWNNAME":"官田區","LI":"渡頭里","LIN":"27鄰","STREET":" ","SECT":" ","MAREA":"三塊厝","LANE":" ","ALLEY":" ","HOUSE_NO":"６６號","E_COORD97":182505.76000000001,"N_COORD97":2562379.1299999999,"ADDRESS":"三塊厝６６號","OBJECTID":189131},"geometry":{"x":182505.76000000071,"y":2562379.1300000008}},{"attributes":{"ID":189133,"DIS_CODE":0,"TOWNNAME":"官田區","LI":"渡頭里","LIN":"27鄰","STREET":" ","SECT":" ","MAREA":"三塊厝","LANE":" ","ALLEY":" ","HOUSE_NO":"６７號之１０","E_COORD97":182506.97,"N_COORD97":2562290.0899999999,"ADDRESS":"三塊厝６７號之１０","OBJECTID":189132},"geometry":{"x":182506.96999999881,"y":2562290.0899999999}},{"attributes":{"ID":189134,"DIS_CODE":0,"TOWNNAME":"官田區","LI":"渡頭里","LIN":"27鄰","STREET":" ","SECT":" ","MAREA":"三塊厝","LANE":" ","ALLEY":" ","HOUSE_NO":"６７號之１１","E_COORD97":182508.42000000001,"N_COORD97":2562286.5600000001,"ADDRESS":"三塊厝６７號之１１","OBJECTID":189133},"geometry":{"x":182508.42000000086,"y":2562286.5600000024}},{"attributes":{"ID":189135,"DIS_CODE":0,"TOWNNAME":"北門區","LI":"北門里","LIN":"21鄰","STREET":" ","SECT":" ","MAREA":"舊埕","LANE":" ","ALLEY":" ","HOUSE_NO":"１４９號","E_COORD97":160461.62,"N_COORD97":2574380.3599999999,"ADDRESS":"舊埕１４９號","OBJECTID":189134},"geometry":{"x":160461.62000000011,"y":2574380.3599999994}},{"attributes":{"ID":189136,"DIS_CODE":0,"TOWNNAME":"北區","LI":"振興里","LIN":"5鄰","STREET":"開元路","SECT":" ","MAREA":" ","LANE":"１４８巷","ALLEY":"２３弄","HOUSE_NO":"５２號之１","E_COORD97":170114.79000000001,"N_COORD97":2545220.4900000002,"ADDRESS":"開元路１４８巷２３弄５２號之１","OBJECTID":189135},"geometry":{"x":170114.79000000004,"y":2545220.4900000002}},{"attributes":{"ID":189137,"DIS_CODE":0,"TOWNNAME":"北區","LI":"振興里","LIN":"5鄰","STREET":"開元路","SECT":" ","MAREA":" ","LANE":"１４８巷","ALLEY":"２３弄","HOUSE_NO":"５２號之２","E_COORD97":170119.13,"N_COORD97":2545217.6000000001,"ADDRESS":"開元路１４８巷２３弄５２號之２","OBJECTID":189136},"geometry":{"x":170119.12999999989,"y":2545217.6000000015}},{"attributes":{"ID":189138,"DIS_CODE":0,"TOWNNAME":"北區","LI":"振興里","LIN":"5鄰","STREET":"開元路","SECT":" ","MAREA":" ","LANE":"１４８巷","ALLEY":"２３弄","HOUSE_NO":"５２號之３","E_COORD97":170122.98000000001,"N_COORD97":2545214.3100000001,"ADDRESS":"開元路１４８巷２３弄５２號之３","OBJECTID":189137},"geometry":{"x":170122.98000000138,"y":2545214.3100000024}},{"attributes":{"ID":189139,"DIS_CODE":0,"TOWNNAME":"北區","LI":"振興里","LIN":"5鄰","STREET":"開元路","SECT":" ","MAREA":" ","LANE":"１４８巷","ALLEY":"２３弄","HOUSE_NO":"５４號","E_COORD97":170121.26000000001,"N_COORD97":2545228.3799999999,"ADDRESS":"開元路１４８巷２３弄５４號","OBJECTID":189138},"geometry":{"x":170121.25999999978,"y":2545228.3800000008}},{"attributes":{"ID":189140,"DIS_CODE":0,"TOWNNAME":"北區","LI":"振興里","LIN":"5鄰","STREET":"開元路","SECT":" ","MAREA":" ","LANE":"１４８巷","ALLEY":"２３弄","HOUSE_NO":"５６號","E_COORD97":170125.07999999999,"N_COORD97":2545226.0899999999,"ADDRESS":"開元路１４８巷２３弄５６號","OBJECTID":189139},"geometry":{"x":170125.08000000194,"y":2545226.0899999999}},{"attributes":{"ID":189141,"DIS_CODE":0,"TOWNNAME":"北區","LI":"振興里","LIN":"5鄰","STREET":"開元路","SECT":" ","MAREA":" ","LANE":"１４８巷","ALLEY":"２３弄","HOUSE_NO":"５８號","E_COORD97":170129.32999999999,"N_COORD97":2545223.9100000001,"ADDRESS":"開元路１４８巷２３弄５８號","OBJECTID":189140},"geometry":{"x":170129.33000000007,"y":2545223.9100000001}},{"attributes":{"ID":189142,"DIS_CODE":0,"TOWNNAME":"北區","LI":"振興里","LIN":"5鄰","STREET":"開元路","SECT":" ","MAREA":" ","LANE":"１４８巷","ALLEY":"２３弄","HOUSE_NO":"６０號","E_COORD97":170131.62,"N_COORD97":2545221.6200000001,"ADDRESS":"開元路１４８巷２３弄６０號","OBJECTID":189141},"geometry":{"x":170131.62000000197,"y":2545221.6200000029}},{"attributes":{"ID":189143,"DIS_CODE":0,"TOWNNAME":"北區","LI":"振興里","LIN":"5鄰","STREET":"開元路","SECT":" ","MAREA":" ","LANE":"１４８巷","ALLEY":"２３弄","HOUSE_NO":"６２號","E_COORD97":170120.70999999999,"N_COORD97":2545241.6800000002,"ADDRESS":"開元路１４８巷２３弄６２號","OBJECTID":189142},"geometry":{"x":170120.71000000183,"y":2545241.6799999997}},{"attributes":{"ID":189144,"DIS_CODE":0,"TOWNNAME":"北區","LI":"振興里","LIN":"5鄰","STREET":"開元路","SECT":" ","MAREA":" ","LANE":"１４８巷","ALLEY":"２３弄","HOUSE_NO":"６４號","E_COORD97":170124.53,"N_COORD97":2545238.52,"ADDRESS":"開元路１４８巷２３弄６４號","OBJECTID":189143},"geometry":{"x":170124.53000000119,"y":2545238.5200000014}},{"attributes":{"ID":189145,"DIS_CODE":0,"TOWNNAME":"北區","LI":"振興里","LIN":"5鄰","STREET":"開元路","SECT":" ","MAREA":" ","LANE":"１４８巷","ALLEY":"２３弄","HOUSE_NO":"６６號","E_COORD97":170129.44,"N_COORD97":2545235.6800000002,"ADDRESS":"開元路１４８巷２３弄６６號","OBJECTID":189144},"geometry":{"x":170129.44000000041,"y":2545235.6799999997}},{"attributes":{"ID":189146,"DIS_CODE":0,"TOWNNAME":"北區","LI":"振興里","LIN":"5鄰","STREET":"開元路","SECT":" ","MAREA":" ","LANE":"１４８巷","ALLEY":"２３弄","HOUSE_NO":"６８號","E_COORD97":170133.69,"N_COORD97":2545232.6299999999,"ADDRESS":"開元路１４８巷２３弄６８號","OBJECTID":189145},"geometry":{"x":170133.69000000134,"y":2545232.6300000027}},{"attributes":{"ID":189147,"DIS_CODE":0,"TOWNNAME":"北區","LI":"振興里","LIN":"5鄰","STREET":"開元路","SECT":" ","MAREA":" ","LANE":"１４８巷","ALLEY":"２３弄","HOUSE_NO":"７０號","E_COORD97":170137.62,"N_COORD97":2545230.02,"ADDRESS":"開元路１４８巷２３弄７０號","OBJECTID":189146},"geometry":{"x":170137.62000000011,"y":2545230.0199999996}},{"attributes":{"ID":189148,"DIS_CODE":0,"TOWNNAME":"北區","LI":"振興里","LIN":"5鄰","STREET":"開元路","SECT":" ","MAREA":" ","LANE":"１４８巷","ALLEY":"２３弄","HOUSE_NO":"１０號","E_COORD97":170042.70999999999,"N_COORD97":2545161.3199999998,"ADDRESS":"開元路１４８巷２３弄１０號","OBJECTID":189147},"geometry":{"x":170042.71000000183,"y":2545161.3199999984}},{"attributes":{"ID":189149,"DIS_CODE":0,"TOWNNAME":"北區","LI":"振興里","LIN":"5鄰","STREET":"開元路","SECT":" ","MAREA":" ","LANE":"１４８巷","ALLEY":"２３弄","HOUSE_NO":"１０號之１","E_COORD97":170046.09,"N_COORD97":2545158.6000000001,"ADDRESS":"開元路１４８巷２３弄１０號之１","OBJECTID":189148},"geometry":{"x":170046.08999999985,"y":2545158.5999999996}},{"attributes":{"ID":189150,"DIS_CODE":0,"TOWNNAME":"東區","LI":"大同里","LIN":"21鄰","STREET":"大同路","SECT":"一段","MAREA":" ","LANE":"１９７巷","ALLEY":" ","HOUSE_NO":"１號","E_COORD97":169149.09,"N_COORD97":2542744.0099999998,"ADDRESS":"大同路一段１９７巷１號","OBJECTID":189149},"geometry":{"x":169149.09000000078,"y":2542744.0100000016}},{"attributes":{"ID":189151,"DIS_CODE":0,"TOWNNAME":"新營區","LI":"三仙里","LIN":"24鄰","STREET":"育德一街","SECT":" ","MAREA":" ","LANE":" ","ALLEY":" ","HOUSE_NO":"４７號","E_COORD97":179478.84,"N_COORD97":2578908.5299999998,"ADDRESS":"育德一街４７號","OBJECTID":189150},"geometry":{"x":179478.84000000171,"y":2578908.5300000012}},{"attributes":{"ID":189152,"DIS_CODE":0,"TOWNNAME":"北區","LI":"振興里","LIN":"5鄰","STREET":"開元路","SECT":" ","MAREA":" ","LANE":"１４８巷","ALLEY":"２３弄","HOUSE_NO":"１０號之２","E_COORD97":170049.57999999999,"N_COORD97":2545156.3100000001,"ADDRESS":"開元路１４８巷２３弄１０號之２","OBJECTID":189151},"geometry":{"x":170049.58000000007,"y":2545156.3100000024}},{"attributes":{"ID":189153,"DIS_CODE":0,"TOWNNAME":"北區","LI":"振興里","LIN":"5鄰","STREET":"開元路","SECT":" ","MAREA":" ","LANE":"１４８巷","ALLEY":"２３弄","HOUSE_NO":"１０號之３","E_COORD97":170052.73999999999,"N_COORD97":2545154.2400000002,"ADDRESS":"開元路１４８巷２３弄１０號之３","OBJECTID":189152},"geometry":{"x":170052.74000000022,"y":2545154.2400000002}},{"attributes":{"ID":189154,"DIS_CODE":0,"TOWNNAME":"北區","LI":"振興里","LIN":"5鄰","STREET":"開元路","SECT":" ","MAREA":" ","LANE":"１４８巷","ALLEY":"２３弄","HOUSE_NO":"１０號之４","E_COORD97":170055.69,"N_COORD97":2545151.8399999999,"ADDRESS":"開元路１４８巷２３弄１０號之４","OBJECTID":189153},"geometry":{"x":170055.69000000134,"y":2545151.8400000017}},{"attributes":{"ID":189155,"DIS_CODE":0,"TOWNNAME":"北區","LI":"振興里","LIN":"5鄰","STREET":"開元路","SECT":" ","MAREA":" ","LANE":"１４８巷","ALLEY":"２３弄","HOUSE_NO":"１０號之５","E_COORD97":170059.07000000001,"N_COORD97":2545148.8999999999,"ADDRESS":"開元路１４８巷２３弄１０號之５","OBJECTID":189154},"geometry":{"x":170059.06999999937,"y":2545148.9000000022}},{"attributes":{"ID":189156,"DIS_CODE":0,"TOWNNAME":"北區","LI":"振興里","LIN":"5鄰","STREET":"開元路","SECT":" ","MAREA":" ","LANE":"１４８巷","ALLEY":"２３弄","HOUSE_NO":"１０號之７","E_COORD97":170054.48999999999,"N_COORD97":2545164.02,"ADDRESS":"開元路１４８巷２３弄１０號之７","OBJECTID":189155},"geometry":{"x":170054.48999999929,"y":2545164.0200000014}},{"attributes":{"ID":189157,"DIS_CODE":0,"TOWNNAME":"北區","LI":"振興里","LIN":"5鄰","STREET":"開元路","SECT":" ","MAREA":" ","LANE":"１４８巷","ALLEY":"２３弄","HOUSE_NO":"１０號之８","E_COORD97":170057.54000000001,"N_COORD97":2545169.25,"ADDRESS":"開元路１４８巷２３弄１０號之８","OBJECTID":189156},"geometry":{"x":170057.5400000019,"y":2545169.2500000019}},{"attributes":{"ID":189158,"DIS_CODE":0,"TOWNNAME":"下營區","LI":"仁里里","LIN":"21鄰","STREET":"中山路","SECT":"二段","MAREA":" ","LANE":"１２２巷","ALLEY":" ","HOUSE_NO":"３１號","E_COORD97":174350.07999999999,"N_COORD97":2569928.2200000002,"ADDRESS":"中山路二段１２２巷３１號","OBJECTID":189157},"geometry":{"x":174350.08000000101,"y":2569928.2200000007}},{"attributes":{"ID":189159,"DIS_CODE":0,"TOWNNAME":"新營區","LI":"大宏里","LIN":"24鄰","STREET":"民治路","SECT":" ","MAREA":" ","LANE":" ","ALLEY":" ","HOUSE_NO":"５之１號","E_COORD97":180540.51000000001,"N_COORD97":2578867.02,"ADDRESS":"民治路５之１號","OBJECTID":189158},"geometry":{"x":180540.51000000164,"y":2578867.0200000014}},{"attributes":{"ID":189160,"DIS_CODE":0,"TOWNNAME":"北門區","LI":"北門里","LIN":"21鄰","STREET":" ","SECT":" ","MAREA":"舊埕","LANE":" ","ALLEY":" ","HOUSE_NO":"１５３號","E_COORD97":160466.14999999999,"N_COORD97":2574373.2599999998,"ADDRESS":"舊埕１５３號","OBJECTID":189159},"geometry":{"x":160466.1500000013,"y":2574373.2600000016}},{"attributes":{"ID":189161,"DIS_CODE":0,"TOWNNAME":"下營區","LI":"仁里里","LIN":"21鄰","STREET":"仁中街","SECT":" ","MAREA":" ","LANE":" ","ALLEY":" ","HOUSE_NO":"１２０號","E_COORD97":174243.51000000001,"N_COORD97":2569862.2999999998,"ADDRESS":"仁中街１２０號","OBJECTID":189160},"geometry":{"x":174243.51000000071,"y":2569862.3000000026}},{"attributes":{"ID":189162,"DIS_CODE":0,"TOWNNAME":"下營區","LI":"仁里里","LIN":"21鄰","STREET":"仁中街","SECT":" ","MAREA":" ","LANE":" ","ALLEY":" ","HOUSE_NO":"７３號","E_COORD97":174297.78,"N_COORD97":2569818.6899999999,"ADDRESS":"仁中街７３號","OBJECTID":189161},"geometry":{"x":174297.78000000119,"y":2569818.6899999995}},{"attributes":{"ID":189163,"DIS_CODE":0,"TOWNNAME":"北區","LI":"振興里","LIN":"5鄰","STREET":"開元路","SECT":" ","MAREA":" ","LANE":"１４８巷","ALLEY":"２３弄","HOUSE_NO":"１２號之１","E_COORD97":170061.16,"N_COORD97":2545178.6899999999,"ADDRESS":"開元路１４８巷２３弄１２號之１","OBJECTID":189162},"geometry":{"x":170061.16000000015,"y":2545178.6900000032}},{"attributes":{"ID":189164,"DIS_CODE":0,"TOWNNAME":"北區","LI":"振興里","LIN":"5鄰","STREET":"開元路","SECT":" ","MAREA":" ","LANE":"１４８巷","ALLEY":"２３弄","HOUSE_NO":"１２號之２","E_COORD97":170064.98000000001,"N_COORD97":2545175.0899999999,"ADDRESS":"開元路１４８巷２３弄１２號之２","OBJECTID":189163},"geometry":{"x":170064.97999999952,"y":2545175.0899999999}},{"attributes":{"ID":189165,"DIS_CODE":0,"TOWNNAME":"北區","LI":"振興里","LIN":"5鄰","STREET":"開元路","SECT":" ","MAREA":" ","LANE":"１４８巷","ALLEY":"２３弄","HOUSE_NO":"１２號之３","E_COORD97":170069.67000000001,"N_COORD97":2545172.04,"ADDRESS":"開元路１４８巷２３弄１２號之３","OBJECTID":189164},"geometry":{"x":170069.66999999993,"y":2545172.0399999991}},{"attributes":{"ID":189166,"DIS_CODE":0,"TOWNNAME":"北區","LI":"振興里","LIN":"5鄰","STREET":"開元路","SECT":" ","MAREA":" ","LANE":"１４８巷","ALLEY":"２３弄","HOUSE_NO":"１２號之４","E_COORD97":170073.16,"N_COORD97":2545169.1000000001,"ADDRESS":"開元路１４８巷２３弄１２號之４","OBJECTID":189165},"geometry":{"x":170073.16000000015,"y":2545169.1000000034}},{"attributes":{"ID":189167,"DIS_CODE":0,"TOWNNAME":"北區","LI":"振興里","LIN":"5鄰","STREET":"開元路","SECT":" ","MAREA":" ","LANE":"１４８巷","ALLEY":"２３弄","HOUSE_NO":"１２號之９","E_COORD97":170088.64999999999,"N_COORD97":2545177.3799999999,"ADDRESS":"開元路１４８巷２３弄１２號之９","OBJECTID":189166},"geometry":{"x":170088.65000000037,"y":2545177.3800000008}},{"attributes":{"ID":189168,"DIS_CODE":0,"TOWNNAME":"北區","LI":"振興里","LIN":"5鄰","STREET":"開元路","SECT":" ","MAREA":" ","LANE":"１４８巷","ALLEY":"２３弄","HOUSE_NO":"１４號","E_COORD97":170072.62,"N_COORD97":2545190.3500000001,"ADDRESS":"開元路１４８巷２３弄１４號","OBJECTID":189167},"geometry":{"x":170072.62000000104,"y":2545190.3499999996}},{"attributes":{"ID":189169,"DIS_CODE":0,"TOWNNAME":"官田區","LI":"渡頭里","LIN":"27鄰","STREET":" ","SECT":" ","MAREA":"三塊厝","LANE":" ","ALLEY":" ","HOUSE_NO":"６７號之１２","E_COORD97":182508.20999999999,"N_COORD97":2562283.52,"ADDRESS":"三塊厝６７號之１２","OBJECTID":189168},"geometry":{"x":182508.21000000089,"y":2562283.5199999996}},{"attributes":{"ID":189170,"DIS_CODE":0,"TOWNNAME":"官田區","LI":"渡頭里","LIN":"27鄰","STREET":" ","SECT":" ","MAREA":"三塊厝","LANE":" ","ALLEY":" ","HOUSE_NO":"６７號之１３","E_COORD97":182508.10000000001,"N_COORD97":2562280.1400000001,"ADDRESS":"三塊厝６７號之１３","OBJECTID":189169},"geometry":{"x":182508.10000000056,"y":2562280.1400000006}},{"attributes":{"ID":189171,"DIS_CODE":0,"TOWNNAME":"北區","LI":"振興里","LIN":"5鄰","STREET":"開元路","SECT":" ","MAREA":" ","LANE":"１４８巷","ALLEY":"２３弄","HOUSE_NO":"２號","E_COORD97":170027.76999999999,"N_COORD97":2545144.4300000002,"ADDRESS":"開元路１４８巷２３弄２號","OBJECTID":189170},"geometry":{"x":170027.76999999955,"y":2545144.4300000016}},{"attributes":{"ID":189172,"DIS_CODE":0,"TOWNNAME":"北區","LI":"振興里","LIN":"5鄰","STREET":"開元路","SECT":" ","MAREA":" ","LANE":"１４８巷","ALLEY":"２３弄","HOUSE_NO":"４號","E_COORD97":170032.45999999999,"N_COORD97":2545142.25,"ADDRESS":"開元路１４８巷２３弄４號","OBJECTID":189171},"geometry":{"x":170032.46000000183,"y":2545142.2500000019}},{"attributes":{"ID":189173,"DIS_CODE":0,"TOWNNAME":"北區","LI":"振興里","LIN":"5鄰","STREET":"開元路","SECT":" ","MAREA":" ","LANE":"１４８巷","ALLEY":"２３弄","HOUSE_NO":"６號","E_COORD97":170038.01999999999,"N_COORD97":2545140.1800000002,"ADDRESS":"開元路１４８巷２３弄６號","OBJECTID":189172},"geometry":{"x":170038.01999999955,"y":2545140.1799999997}},{"attributes":{"ID":189174,"DIS_CODE":0,"TOWNNAME":"鹽水區","LI":"南港里","LIN":"10鄰","STREET":" ","SECT":" ","MAREA":"?頭港","LANE":" ","ALLEY":" ","HOUSE_NO":"２０５號","E_COORD97":173466.07999999999,"N_COORD97":2572684.3599999999,"ADDRESS":"?頭港２０５號","OBJECTID":189173},"geometry":{"x":173466.08000000007,"y":2572684.3600000013}},{"attributes":{"ID":189175,"DIS_CODE":0,"TOWNNAME":"北區","LI":"振興里","LIN":"5鄰","STREET":"開元路","SECT":" ","MAREA":" ","LANE":"１４８巷","ALLEY":"２３弄","HOUSE_NO":"８號","E_COORD97":170043.47,"N_COORD97":2545137.1299999999,"ADDRESS":"開元路１４８巷２３弄８號","OBJECTID":189174},"geometry":{"x":170043.46999999974,"y":2545137.129999999}},{"attributes":{"ID":189176,"DIS_CODE":0,"TOWNNAME":"北區","LI":"振興里","LIN":"5鄰","STREET":"開元路","SECT":" ","MAREA":" ","LANE":"１４８巷","ALLEY":"２３弄","HOUSE_NO":"８號之１","E_COORD97":170048.92999999999,"N_COORD97":2545133.6400000001,"ADDRESS":"開元路１４８巷２３弄８號之１","OBJECTID":189175},"geometry":{"x":170048.9299999997,"y":2545133.6400000025}},{"attributes":{"ID":189177,"DIS_CODE":0,"TOWNNAME":"北區","LI":"振興里","LIN":"5鄰","STREET":"開元路","SECT":" ","MAREA":" ","LANE":"１４８巷","ALLEY":"２３弄","HOUSE_NO":"８號之２","E_COORD97":170036.60000000001,"N_COORD97":2545153.04,"ADDRESS":"開元路１４８巷２３弄８號之２","OBJECTID":189176},"geometry":{"x":170036.60000000056,"y":2545153.040000001}},{"attributes":{"ID":189178,"DIS_CODE":0,"TOWNNAME":"北區","LI":"振興里","LIN":"5鄰","STREET":"開元路","SECT":" ","MAREA":" ","LANE":"１４８巷","ALLEY":"２３弄","HOUSE_NO":"８號之３","E_COORD97":170040.64000000001,"N_COORD97":2545151.0800000001,"ADDRESS":"開元路１４８巷２３弄８號之３","OBJECTID":189177},"geometry":{"x":170040.63999999966,"y":2545151.0800000019}},{"attributes":{"ID":189179,"DIS_CODE":0,"TOWNNAME":"北區","LI":"振興里","LIN":"5鄰","STREET":"開元路","SECT":" ","MAREA":" ","LANE":"１４８巷","ALLEY":"２３弄","HOUSE_NO":"８號之４","E_COORD97":170044.67000000001,"N_COORD97":2545147.9199999999,"ADDRESS":"開元路１４８巷２３弄８號之４","OBJECTID":189178},"geometry":{"x":170044.67000000179,"y":2545147.9200000018}},{"attributes":{"ID":189180,"DIS_CODE":0,"TOWNNAME":"北區","LI":"振興里","LIN":"5鄰","STREET":"開元路","SECT":" ","MAREA":" ","LANE":"１４８巷","ALLEY":"２３弄","HOUSE_NO":"８號之５","E_COORD97":170048.92999999999,"N_COORD97":2545145.1899999999,"ADDRESS":"開元路１４８巷２３弄８號之５","OBJECTID":189179},"geometry":{"x":170048.9299999997,"y":2545145.1900000013}},{"attributes":{"ID":189181,"DIS_CODE":0,"TOWNNAME":"官田區","LI":"渡頭里","LIN":"27鄰","STREET":" ","SECT":" ","MAREA":"三塊厝","LANE":" ","ALLEY":" ","HOUSE_NO":"６７號之１","E_COORD97":182510.89000000001,"N_COORD97":2562326.8199999998,"ADDRESS":"三塊厝６７號之１","OBJECTID":189180},"geometry":{"x":182510.89000000153,"y":2562326.8199999984}},{"attributes":{"ID":189182,"DIS_CODE":0,"TOWNNAME":"官田區","LI":"渡頭里","LIN":"27鄰","STREET":" ","SECT":" ","MAREA":"三塊厝","LANE":" ","ALLEY":" ","HOUSE_NO":"６７號之４０","E_COORD97":182474.28,"N_COORD97":2562290.5800000001,"ADDRESS":"三塊厝６７號之４０","OBJECTID":189181},"geometry":{"x":182474.28000000026,"y":2562290.5800000001}},{"attributes":{"ID":189183,"DIS_CODE":0,"TOWNNAME":"官田區","LI":"渡頭里","LIN":"27鄰","STREET":" ","SECT":" ","MAREA":"三塊厝","LANE":" ","ALLEY":" ","HOUSE_NO":"６７號之４","E_COORD97":182507.94,"N_COORD97":2562319.23,"ADDRESS":"三塊厝６７號之４","OBJECTID":189182},"geometry":{"x":182507.94000000227,"y":2562319.2300000023}},{"attributes":{"ID":189184,"DIS_CODE":0,"TOWNNAME":"官田區","LI":"渡頭里","LIN":"27鄰","STREET":" ","SECT":" ","MAREA":"三塊厝","LANE":" ","ALLEY":" ","HOUSE_NO":"６７號之５２","E_COORD97":182460.79999999999,"N_COORD97":2562302.29,"ADDRESS":"三塊厝６７號之５２","OBJECTID":189183},"geometry":{"x":182460.80000000168,"y":2562302.2900000028}},{"attributes":{"ID":189185,"DIS_CODE":0,"TOWNNAME":"北區","LI":"振興里","LIN":"5鄰","STREET":"開元路","SECT":" ","MAREA":" ","LANE":"１４８巷","ALLEY":"２３弄","HOUSE_NO":"８號之６","E_COORD97":170053.94,"N_COORD97":2545141.9199999999,"ADDRESS":"開元路１４８巷２３弄８號之６","OBJECTID":189184},"geometry":{"x":170053.94000000134,"y":2545141.9199999999}},{"attributes":{"ID":189186,"DIS_CODE":0,"TOWNNAME":"北區","LI":"六甲里","LIN":"5鄰","STREET":"公園路","SECT":" ","MAREA":" ","LANE":"５０９巷","ALLEY":"８弄","HOUSE_NO":"３６號","E_COORD97":169032.48000000001,"N_COORD97":2545640.73,"ADDRESS":"公園路５０９巷８弄３６號","OBJECTID":189185},"geometry":{"x":169032.48000000045,"y":2545640.7300000023}},{"attributes":{"ID":189187,"DIS_CODE":0,"TOWNNAME":"官田區","LI":"渡頭里","LIN":"27鄰","STREET":" ","SECT":" ","MAREA":"三塊厝","LANE":" ","ALLEY":" ","HOUSE_NO":"６７號之５３","E_COORD97":182460.89999999999,"N_COORD97":2562306.7000000002,"ADDRESS":"三塊厝６７號之５３","OBJECTID":189186},"geometry":{"x":182460.9000000013,"y":2562306.7000000011}},{"attributes":{"ID":189188,"DIS_CODE":0,"TOWNNAME":"官田區","LI":"渡頭里","LIN":"27鄰","STREET":" ","SECT":" ","MAREA":"三塊厝","LANE":" ","ALLEY":" ","HOUSE_NO":"６７號之５４","E_COORD97":182466.20999999999,"N_COORD97":2562310.6299999999,"ADDRESS":"三塊厝６７號之５４","OBJECTID":189187},"geometry":{"x":182466.20999999996,"y":2562310.6300000008}},{"attributes":{"ID":189189,"DIS_CODE":0,"TOWNNAME":"官田區","LI":"渡頭里","LIN":"27鄰","STREET":" ","SECT":" ","MAREA":"三塊厝","LANE":" ","ALLEY":" ","HOUSE_NO":"６７號之５５","E_COORD97":182466.03,"N_COORD97":2562314.77,"ADDRESS":"三塊厝６７號之５５","OBJECTID":189188},"geometry":{"x":182466.03000000026,"y":2562314.7699999996}},{"attributes":{"ID":189190,"DIS_CODE":0,"TOWNNAME":"官田區","LI":"渡頭里","LIN":"27鄰","STREET":" ","SECT":" ","MAREA":"三塊厝","LANE":" ","ALLEY":" ","HOUSE_NO":"６７號之５６","E_COORD97":182465.87,"N_COORD97":2562318.2799999998,"ADDRESS":"三塊厝６７號之５６","OBJECTID":189189},"geometry":{"x":182465.87000000197,"y":2562318.2799999993}},{"attributes":{"ID":189191,"DIS_CODE":0,"TOWNNAME":"官田區","LI":"渡頭里","LIN":"27鄰","STREET":" ","SECT":" ","MAREA":"三塊厝","LANE":" ","ALLEY":" ","HOUSE_NO":"７０號之４","E_COORD97":182499.07999999999,"N_COORD97":2562206.8999999999,"ADDRESS":"三塊厝７０號之４","OBJECTID":189190},"geometry":{"x":182499.08000000007,"y":2562206.9000000004}},{"attributes":{"ID":189192,"DIS_CODE":0,"TOWNNAME":"官田區","LI":"渡頭里","LIN":"27鄰","STREET":" ","SECT":" ","MAREA":"三塊厝","LANE":" ","ALLEY":" ","HOUSE_NO":"７０號","E_COORD97":182502.64999999999,"N_COORD97":2562215.4900000002,"ADDRESS":"三塊厝７０號","OBJECTID":189191},"geometry":{"x":182502.65000000037,"y":2562215.4900000021}},{"attributes":{"ID":189193,"DIS_CODE":0,"TOWNNAME":"官田區","LI":"渡頭里","LIN":"27鄰","STREET":" ","SECT":" ","MAREA":"三塊厝","LANE":" ","ALLEY":" ","HOUSE_NO":"７１號之３","E_COORD97":182382.67999999999,"N_COORD97":2562387.5,"ADDRESS":"三塊厝７１號之３","OBJECTID":189192},"geometry":{"x":182382.68000000063,"y":2562387.5000000019}},{"attributes":{"ID":189194,"DIS_CODE":0,"TOWNNAME":"永康區","LI":"西灣里","LIN":"21鄰","STREET":"永大路","SECT":"二段","MAREA":" ","LANE":" ","ALLEY":" ","HOUSE_NO":"２１１號","E_COORD97":174339.89000000001,"N_COORD97":2545326.5899999999,"ADDRESS":"永大路二段２１１號","OBJECTID":189193},"geometry":{"x":174339.88999999966,"y":2545326.5900000017}},{"attributes":{"ID":189195,"DIS_CODE":0,"TOWNNAME":"北區","LI":"重興里","LIN":"5鄰","STREET":"林森路","SECT":"三段","MAREA":" ","LANE":"８４巷","ALLEY":"２弄","HOUSE_NO":"１０號","E_COORD97":170592.04000000001,"N_COORD97":2544821.2999999998,"ADDRESS":"林森路三段８４巷２弄１０號","OBJECTID":189194},"geometry":{"x":170592.04000000097,"y":2544821.3000000026}},{"attributes":{"ID":189196,"DIS_CODE":0,"TOWNNAME":"永康區","LI":"尚頂里","LIN":"21鄰","STREET":"南台街","SECT":" ","MAREA":" ","LANE":" ","ALLEY":" ","HOUSE_NO":"１１號","E_COORD97":170426.04000000001,"N_COORD97":2546933.75,"ADDRESS":"南台街１１號","OBJECTID":189195},"geometry":{"x":170426.04000000097,"y":2546933.75}},{"attributes":{"ID":189197,"DIS_CODE":0,"TOWNNAME":"佳里區","LI":"安西里","LIN":"21鄰","STREET":"光華街","SECT":" ","MAREA":" ","LANE":" ","ALLEY":" ","HOUSE_NO":"７８號","E_COORD97":165266.76000000001,"N_COORD97":2562813.2999999998,"ADDRESS":"光華街７８號","OBJECTID":189196},"geometry":{"x":165266.76000000164,"y":2562813.3000000026}},{"attributes":{"ID":189198,"DIS_CODE":0,"TOWNNAME":"北區","LI":"重興里","LIN":"5鄰","STREET":"林森路","SECT":"三段","MAREA":" ","LANE":"８４巷","ALLEY":"２弄","HOUSE_NO":"１１號","E_COORD97":170586.95000000001,"N_COORD97":2544821.6400000001,"ADDRESS":"林森路三段８４巷２弄１１號","OBJECTID":189197},"geometry":{"x":170586.95000000019,"y":2544821.6400000025}},{"attributes":{"ID":189199,"DIS_CODE":0,"TOWNNAME":"佳里區","LI":"安西里","LIN":"21鄰","STREET":"光華街","SECT":" ","MAREA":" ","LANE":" ","ALLEY":" ","HOUSE_NO":"８０號","E_COORD97":165260.85000000001,"N_COORD97":2562813.7999999998,"ADDRESS":"光華街８０號","OBJECTID":189198},"geometry":{"x":165260.85000000149,"y":2562813.8000000026}},{"attributes":{"ID":189200,"DIS_CODE":0,"TOWNNAME":"北區","LI":"重興里","LIN":"5鄰","STREET":"林森路","SECT":"三段","MAREA":" ","LANE":"８４巷","ALLEY":"２弄","HOUSE_NO":"１２號","E_COORD97":170581.95000000001,"N_COORD97":2544821.9900000002,"ADDRESS":"林森路三段８４巷２弄１２號","OBJECTID":189199},"geometry":{"x":170581.94999999925,"y":2544821.9900000021}},{"attributes":{"ID":189201,"DIS_CODE":0,"TOWNNAME":"永康區","LI":"尚頂里","LIN":"21鄰","STREET":"南台街","SECT":" ","MAREA":" ","LANE":" ","ALLEY":" ","HOUSE_NO":"５號","E_COORD97":170468.35999999999,"N_COORD97":2546947.25,"ADDRESS":"南台街５號","OBJECTID":189200},"geometry":{"x":170468.36000000127,"y":2546947.25}}]}