{"displayFieldName":"TOWNNAME","fieldAliases":{"ID":"ID","DIS_CODE":"DIS_CODE","TOWNNAME":"TOWNNAME","LI":"LI","LIN":"LIN","STREET":"STREET","SECT":"SECT","MAREA":"MAREA","LANE":"LANE","ALLEY":"ALLEY","HOUSE_NO":"HOUSE_NO","E_COORD97":"E_COORD97","N_COORD97":"N_COORD97","ADDRESS":"ADDRESS","OBJECTID":"OBJECTID"},"geometryType":"esriGeometryPoint","spatialReference":{"wkid":102443,"latestWkid":3826},"fields":[{"name":"ID","type":"esriFieldTypeDouble","alias":"ID"},{"name":"DIS_CODE","type":"esriFieldTypeInteger","alias":"DIS_CODE"},{"name":"TOWNNAME","type":"esriFieldTypeString","alias":"TOWNNAME","length":8},{"name":"LI","type":"esriFieldTypeString","alias":"LI","length":8},{"name":"LIN","type":"esriFieldTypeString","alias":"LIN","length":12},{"name":"STREET","type":"esriFieldTypeString","alias":"STREET","length":20},{"name":"SECT","type":"esriFieldTypeString","alias":"SECT","length":8},{"name":"MAREA","type":"esriFieldTypeString","alias":"MAREA","length":12},{"name":"LANE","type":"esriFieldTypeString","alias":"LANE","length":10},{"name":"ALLEY","type":"esriFieldTypeString","alias":"ALLEY","length":10},{"name":"HOUSE_NO","type":"esriFieldTypeString","alias":"HOUSE_NO","length":20},{"name":"E_COORD97","type":"esriFieldTypeDouble","alias":"E_COORD97"},{"name":"N_COORD97","type":"esriFieldTypeDouble","alias":"N_COORD97"},{"name":"ADDRESS","type":"esriFieldTypeString","alias":"ADDRESS","length":50},{"name":"OBJECTID","type":"esriFieldTypeOID","alias":"OBJECTID"}],"features":[{"attributes":{"ID":565828,"DIS_CODE":0,"TOWNNAME":"東區","LI":"崇善里","LIN":"9鄰","STREET":"崇善五街","SECT":" ","MAREA":" ","LANE":" ","ALLEY":" ","HOUSE_NO":"１７號","E_COORD97":171078.97,"N_COORD97":2541598.46,"ADDRESS":"崇善五街１７號","OBJECTID":565801},"geometry":{"x":171078.96999999974,"y":2541598.4600000028}},{"attributes":{"ID":565829,"DIS_CODE":0,"TOWNNAME":"東區","LI":"崇善里","LIN":"9鄰","STREET":"崇善五街","SECT":" ","MAREA":" ","LANE":" ","ALLEY":" ","HOUSE_NO":"１９號","E_COORD97":171084.54000000001,"N_COORD97":2541601.4100000001,"ADDRESS":"崇善五街１９號","OBJECTID":565802},"geometry":{"x":171084.54000000004,"y":2541601.410000002}},{"attributes":{"ID":565830,"DIS_CODE":0,"TOWNNAME":"東區","LI":"崇善里","LIN":"9鄰","STREET":"崇善五街","SECT":" ","MAREA":" ","LANE":" ","ALLEY":" ","HOUSE_NO":"２１號","E_COORD97":171089.45000000001,"N_COORD97":2541604.6800000002,"ADDRESS":"崇善五街２１號","OBJECTID":565803},"geometry":{"x":171089.45000000112,"y":2541604.6799999997}},{"attributes":{"ID":565831,"DIS_CODE":0,"TOWNNAME":"東區","LI":"崇善里","LIN":"9鄰","STREET":"崇善五街","SECT":" ","MAREA":" ","LANE":" ","ALLEY":" ","HOUSE_NO":"２３號","E_COORD97":171093.87,"N_COORD97":2541606.6499999999,"ADDRESS":"崇善五街２３號","OBJECTID":565804},"geometry":{"x":171093.87000000011,"y":2541606.6500000022}},{"attributes":{"ID":565832,"DIS_CODE":0,"TOWNNAME":"東區","LI":"崇善里","LIN":"9鄰","STREET":"崇善五街","SECT":" ","MAREA":" ","LANE":" ","ALLEY":" ","HOUSE_NO":"２７號","E_COORD97":171102.22,"N_COORD97":2541611.23,"ADDRESS":"崇善五街２７號","OBJECTID":565805},"geometry":{"x":171102.22000000067,"y":2541611.2300000004}},{"attributes":{"ID":565833,"DIS_CODE":0,"TOWNNAME":"東區","LI":"崇善里","LIN":"9鄰","STREET":"崇善五街","SECT":" ","MAREA":" ","LANE":" ","ALLEY":" ","HOUSE_NO":"２９號","E_COORD97":171106.97,"N_COORD97":2541614.02,"ADDRESS":"崇善五街２９號","OBJECTID":565806},"geometry":{"x":171106.9700000016,"y":2541614.0200000014}},{"attributes":{"ID":565834,"DIS_CODE":0,"TOWNNAME":"東區","LI":"崇善里","LIN":"9鄰","STREET":"崇善五街","SECT":" ","MAREA":" ","LANE":" ","ALLEY":" ","HOUSE_NO":"３１號","E_COORD97":171112.04000000001,"N_COORD97":2541616.96,"ADDRESS":"崇善五街３１號","OBJECTID":565807},"geometry":{"x":171112.04000000097,"y":2541616.9600000009}},{"attributes":{"ID":565835,"DIS_CODE":0,"TOWNNAME":"東區","LI":"崇善里","LIN":"9鄰","STREET":"崇善五街","SECT":" ","MAREA":" ","LANE":" ","ALLEY":" ","HOUSE_NO":"３３號","E_COORD97":171117.94,"N_COORD97":2541620.0699999998,"ADDRESS":"崇善五街３３號","OBJECTID":565808},"geometry":{"x":171117.94000000227,"y":2541620.0699999984}},{"attributes":{"ID":565836,"DIS_CODE":0,"TOWNNAME":"東區","LI":"崇善里","LIN":"9鄰","STREET":"崇善五街","SECT":" ","MAREA":" ","LANE":" ","ALLEY":" ","HOUSE_NO":"３５號","E_COORD97":171123.17999999999,"N_COORD97":2541622.6899999999,"ADDRESS":"崇善五街３５號","OBJECTID":565809},"geometry":{"x":171123.18000000063,"y":2541622.6900000013}},{"attributes":{"ID":565837,"DIS_CODE":0,"TOWNNAME":"東區","LI":"崇善里","LIN":"9鄰","STREET":"崇善五街","SECT":" ","MAREA":" ","LANE":" ","ALLEY":" ","HOUSE_NO":"３７號","E_COORD97":171133.66,"N_COORD97":2541631.04,"ADDRESS":"崇善五街３７號","OBJECTID":565810},"geometry":{"x":171133.66000000108,"y":2541631.040000001}},{"attributes":{"ID":565838,"DIS_CODE":0,"TOWNNAME":"東區","LI":"崇善里","LIN":"9鄰","STREET":"崇善五街","SECT":" ","MAREA":" ","LANE":" ","ALLEY":" ","HOUSE_NO":"３９號","E_COORD97":171138.73000000001,"N_COORD97":2541633.3300000001,"ADDRESS":"崇善五街３９號","OBJECTID":565811},"geometry":{"x":171138.73000000138,"y":2541633.3300000019}},{"attributes":{"ID":565839,"DIS_CODE":0,"TOWNNAME":"東區","LI":"崇善里","LIN":"9鄰","STREET":"崇善五街","SECT":" ","MAREA":" ","LANE":" ","ALLEY":" ","HOUSE_NO":"４１號","E_COORD97":171144.29999999999,"N_COORD97":2541635.9500000002,"ADDRESS":"崇善五街４１號","OBJECTID":565812},"geometry":{"x":171144.30000000075,"y":2541635.9499999993}},{"attributes":{"ID":565840,"DIS_CODE":0,"TOWNNAME":"東區","LI":"崇善里","LIN":"9鄰","STREET":"崇善五街","SECT":" ","MAREA":" ","LANE":" ","ALLEY":" ","HOUSE_NO":"４３號","E_COORD97":171149.37,"N_COORD97":2541638.25,"ADDRESS":"崇善五街４３號","OBJECTID":565813},"geometry":{"x":171149.37000000104,"y":2541638.25}},{"attributes":{"ID":565841,"DIS_CODE":0,"TOWNNAME":"東區","LI":"崇善里","LIN":"9鄰","STREET":"崇善五街","SECT":" ","MAREA":" ","LANE":" ","ALLEY":" ","HOUSE_NO":"４５號","E_COORD97":171154.94,"N_COORD97":2541640.8700000001,"ADDRESS":"崇善五街４５號","OBJECTID":565814},"geometry":{"x":171154.94000000041,"y":2541640.8700000029}},{"attributes":{"ID":565842,"DIS_CODE":0,"TOWNNAME":"東區","LI":"崇善里","LIN":"9鄰","STREET":"崇善五街","SECT":" ","MAREA":" ","LANE":" ","ALLEY":" ","HOUSE_NO":"４７號","E_COORD97":171160.17999999999,"N_COORD97":2541643.4900000002,"ADDRESS":"崇善五街４７號","OBJECTID":565815},"geometry":{"x":171160.18000000063,"y":2541643.4900000002}},{"attributes":{"ID":565843,"DIS_CODE":0,"TOWNNAME":"東區","LI":"崇善里","LIN":"9鄰","STREET":"崇善五街","SECT":" ","MAREA":" ","LANE":" ","ALLEY":" ","HOUSE_NO":"４９號","E_COORD97":171166.07000000001,"N_COORD97":2541647.0899999999,"ADDRESS":"崇善五街４９號","OBJECTID":565816},"geometry":{"x":171166.06999999937,"y":2541647.0900000036}},{"attributes":{"ID":565844,"DIS_CODE":0,"TOWNNAME":"東區","LI":"崇善里","LIN":"9鄰","STREET":"崇善五街","SECT":" ","MAREA":" ","LANE":" ","ALLEY":" ","HOUSE_NO":"９號","E_COORD97":171058.34,"N_COORD97":2541588.1499999999,"ADDRESS":"崇善五街９號","OBJECTID":565817},"geometry":{"x":171058.33999999985,"y":2541588.1500000004}},{"attributes":{"ID":565845,"DIS_CODE":0,"TOWNNAME":"東區","LI":"崇善里","LIN":"9鄰","STREET":"崇善四街","SECT":" ","MAREA":" ","LANE":" ","ALLEY":" ","HOUSE_NO":"５６號","E_COORD97":171091.91,"N_COORD97":2541717.1600000001,"ADDRESS":"崇善四街５６號","OBJECTID":565818},"geometry":{"x":171091.91000000015,"y":2541717.1600000001}},{"attributes":{"ID":565846,"DIS_CODE":0,"TOWNNAME":"東區","LI":"崇善里","LIN":"9鄰","STREET":"崇善四街","SECT":" ","MAREA":" ","LANE":" ","ALLEY":" ","HOUSE_NO":"５８號","E_COORD97":171098.29000000001,"N_COORD97":2541719.4500000002,"ADDRESS":"崇善四街５８號","OBJECTID":565819},"geometry":{"x":171098.2900000019,"y":2541719.4500000011}},{"attributes":{"ID":565847,"DIS_CODE":0,"TOWNNAME":"東區","LI":"崇善里","LIN":"9鄰","STREET":"崇善四街","SECT":" ","MAREA":" ","LANE":" ","ALLEY":" ","HOUSE_NO":"６０號","E_COORD97":171103.20000000001,"N_COORD97":2541722.0699999998,"ADDRESS":"崇善四街６０號","OBJECTID":565820},"geometry":{"x":171103.20000000112,"y":2541722.070000004}},{"attributes":{"ID":565848,"DIS_CODE":0,"TOWNNAME":"東區","LI":"崇善里","LIN":"9鄰","STREET":"崇善四街","SECT":" ","MAREA":" ","LANE":" ","ALLEY":" ","HOUSE_NO":"６２號","E_COORD97":171109.10000000001,"N_COORD97":2541724.5299999998,"ADDRESS":"崇善四街６２號","OBJECTID":565821},"geometry":{"x":171109.09999999963,"y":2541724.5300000031}},{"attributes":{"ID":565849,"DIS_CODE":0,"TOWNNAME":"東區","LI":"崇善里","LIN":"9鄰","STREET":"崇善四街","SECT":" ","MAREA":" ","LANE":" ","ALLEY":" ","HOUSE_NO":"６６號","E_COORD97":171115.32000000001,"N_COORD97":2541726.8199999998,"ADDRESS":"崇善四街６６號","OBJECTID":565822},"geometry":{"x":171115.32000000216,"y":2541726.8200000003}},{"attributes":{"ID":565850,"DIS_CODE":0,"TOWNNAME":"東區","LI":"崇善里","LIN":"9鄰","STREET":"崇善四街","SECT":" ","MAREA":" ","LANE":" ","ALLEY":" ","HOUSE_NO":"６８號","E_COORD97":171120.89000000001,"N_COORD97":2541730.2599999998,"ADDRESS":"崇善四街６８號","OBJECTID":565823},"geometry":{"x":171120.89000000153,"y":2541730.2600000035}},{"attributes":{"ID":565851,"DIS_CODE":0,"TOWNNAME":"東區","LI":"南聖里","LIN":"9鄰","STREET":"裕和路","SECT":" ","MAREA":" ","LANE":" ","ALLEY":" ","HOUSE_NO":"９５號","E_COORD97":172132.35999999999,"N_COORD97":2543135.6600000001,"ADDRESS":"裕和路９５號","OBJECTID":565824},"geometry":{"x":172132.36000000127,"y":2543135.660000002}},{"attributes":{"ID":565852,"DIS_CODE":0,"TOWNNAME":"東區","LI":"南聖里","LIN":"9鄰","STREET":"裕和路","SECT":" ","MAREA":" ","LANE":" ","ALLEY":" ","HOUSE_NO":"９７號","E_COORD97":172139.5,"N_COORD97":2543136.3799999999,"ADDRESS":"裕和路９７號","OBJECTID":565825},"geometry":{"x":172139.50000000093,"y":2543136.3800000008}},{"attributes":{"ID":565853,"DIS_CODE":0,"TOWNNAME":"東區","LI":"南聖里","LIN":"9鄰","STREET":"裕和路","SECT":" ","MAREA":" ","LANE":" ","ALLEY":" ","HOUSE_NO":"９９號","E_COORD97":172145.39000000001,"N_COORD97":2543137.27,"ADDRESS":"裕和路９９號","OBJECTID":565826},"geometry":{"x":172145.3900000006,"y":2543137.2700000033}},{"attributes":{"ID":565854,"DIS_CODE":0,"TOWNNAME":"東區","LI":"成大里","LIN":"9鄰","STREET":"民族路","SECT":"一段","MAREA":" ","LANE":" ","ALLEY":" ","HOUSE_NO":"４２之１號","E_COORD97":169522.01999999999,"N_COORD97":2543918.5600000001,"ADDRESS":"民族路一段４２之１號","OBJECTID":565827},"geometry":{"x":169522.02000000048,"y":2543918.5600000005}},{"attributes":{"ID":565855,"DIS_CODE":0,"TOWNNAME":"東區","LI":"文聖里","LIN":"9鄰","STREET":"裕農三街","SECT":" ","MAREA":" ","LANE":" ","ALLEY":" ","HOUSE_NO":"１９１號","E_COORD97":172050.79999999999,"N_COORD97":2542701.1499999999,"ADDRESS":"裕農三街１９１號","OBJECTID":565828},"geometry":{"x":172050.80000000168,"y":2542701.1499999985}},{"attributes":{"ID":565856,"DIS_CODE":0,"TOWNNAME":"東區","LI":"文聖里","LIN":"9鄰","STREET":"裕農三街","SECT":" ","MAREA":" ","LANE":" ","ALLEY":" ","HOUSE_NO":"１９３號","E_COORD97":172051.38,"N_COORD97":2542697.0099999998,"ADDRESS":"裕農三街１９３號","OBJECTID":565829},"geometry":{"x":172051.37999999989,"y":2542697.0099999998}},{"attributes":{"ID":565857,"DIS_CODE":0,"TOWNNAME":"東區","LI":"崇善里","LIN":"9鄰","STREET":"仁和路","SECT":" ","MAREA":" ","LANE":" ","ALLEY":" ","HOUSE_NO":"７６之２號","E_COORD97":171111.54999999999,"N_COORD97":2541779.21,"ADDRESS":"仁和路７６之２號","OBJECTID":565830},"geometry":{"x":171111.55000000168,"y":2541779.2100000046}},{"attributes":{"ID":565858,"DIS_CODE":0,"TOWNNAME":"東區","LI":"崇善里","LIN":"9鄰","STREET":"仁和路","SECT":" ","MAREA":" ","LANE":" ","ALLEY":" ","HOUSE_NO":"７６之３號","E_COORD97":171112.85999999999,"N_COORD97":2541774.6299999999,"ADDRESS":"仁和路７６之３號","OBJECTID":565831},"geometry":{"x":171112.86000000034,"y":2541774.6300000027}},{"attributes":{"ID":565859,"DIS_CODE":0,"TOWNNAME":"安南區","LI":"安慶里","LIN":"25鄰","STREET":"北安二街","SECT":" ","MAREA":" ","LANE":" ","ALLEY":" ","HOUSE_NO":"９號","E_COORD97":168648.38,"N_COORD97":2548451.3799999999,"ADDRESS":"北安二街９號","OBJECTID":565832},"geometry":{"x":168648.38000000082,"y":2548451.379999999}},{"attributes":{"ID":565860,"DIS_CODE":0,"TOWNNAME":"東區","LI":"崇善里","LIN":"9鄰","STREET":"仁和路","SECT":" ","MAREA":" ","LANE":" ","ALLEY":" ","HOUSE_NO":"７６之５號","E_COORD97":171115.64999999999,"N_COORD97":2541767.75,"ADDRESS":"仁和路７６之５號","OBJECTID":565833},"geometry":{"x":171115.6500000013,"y":2541767.7499999981}},{"attributes":{"ID":565861,"DIS_CODE":0,"TOWNNAME":"東區","LI":"崇善里","LIN":"9鄰","STREET":"仁和路","SECT":" ","MAREA":" ","LANE":" ","ALLEY":" ","HOUSE_NO":"７６之６號","E_COORD97":171117.78,"N_COORD97":2541762.3500000001,"ADDRESS":"仁和路７６之６號","OBJECTID":565834},"geometry":{"x":171117.78000000119,"y":2541762.3499999996}},{"attributes":{"ID":565862,"DIS_CODE":0,"TOWNNAME":"東區","LI":"崇善里","LIN":"9鄰","STREET":"仁和路","SECT":" ","MAREA":" ","LANE":" ","ALLEY":" ","HOUSE_NO":"７６之７號","E_COORD97":171119.89999999999,"N_COORD97":2541756.9500000002,"ADDRESS":"仁和路７６之７號","OBJECTID":565835},"geometry":{"x":171119.90000000224,"y":2541756.9500000011}},{"attributes":{"ID":565863,"DIS_CODE":0,"TOWNNAME":"東區","LI":"崇善里","LIN":"9鄰","STREET":"仁和路","SECT":" ","MAREA":" ","LANE":" ","ALLEY":" ","HOUSE_NO":"７６之８號","E_COORD97":171121.70000000001,"N_COORD97":2541750.5600000001,"ADDRESS":"仁和路７６之８號","OBJECTID":565836},"geometry":{"x":171121.70000000112,"y":2541750.5600000024}},{"attributes":{"ID":565864,"DIS_CODE":0,"TOWNNAME":"東區","LI":"崇善里","LIN":"9鄰","STREET":"崇善四街","SECT":" ","MAREA":" ","LANE":" ","ALLEY":" ","HOUSE_NO":"１號","E_COORD97":170990.89000000001,"N_COORD97":2541695.5499999998,"ADDRESS":"崇善四街１號","OBJECTID":565837},"geometry":{"x":170990.8900000006,"y":2541695.5500000045}},{"attributes":{"ID":565865,"DIS_CODE":0,"TOWNNAME":"東區","LI":"崇善里","LIN":"9鄰","STREET":"崇善四街","SECT":" ","MAREA":" ","LANE":" ","ALLEY":" ","HOUSE_NO":"１１號","E_COORD97":171039.35000000001,"N_COORD97":2541715.6899999999,"ADDRESS":"崇善四街１１號","OBJECTID":565838},"geometry":{"x":171039.34999999963,"y":2541715.6899999995}},{"attributes":{"ID":565866,"DIS_CODE":0,"TOWNNAME":"東區","LI":"崇善里","LIN":"9鄰","STREET":"崇善四街","SECT":" ","MAREA":" ","LANE":" ","ALLEY":" ","HOUSE_NO":"１３號","E_COORD97":171048.19,"N_COORD97":2541719.9500000002,"ADDRESS":"崇善四街１３號","OBJECTID":565839},"geometry":{"x":171048.19000000041,"y":2541719.9500000011}},{"attributes":{"ID":565867,"DIS_CODE":0,"TOWNNAME":"東區","LI":"崇善里","LIN":"9鄰","STREET":"崇善四街","SECT":" ","MAREA":" ","LANE":" ","ALLEY":" ","HOUSE_NO":"１５號","E_COORD97":171058.01999999999,"N_COORD97":2541722.73,"ADDRESS":"崇善四街１５號","OBJECTID":565840},"geometry":{"x":171058.02000000048,"y":2541722.7300000023}},{"attributes":{"ID":565868,"DIS_CODE":0,"TOWNNAME":"東區","LI":"崇善里","LIN":"9鄰","STREET":"崇善四街","SECT":" ","MAREA":" ","LANE":" ","ALLEY":" ","HOUSE_NO":"１７號","E_COORD97":171067.51000000001,"N_COORD97":2541726.9900000002,"ADDRESS":"崇善四街１７號","OBJECTID":565841},"geometry":{"x":171067.50999999978,"y":2541726.9900000021}},{"attributes":{"ID":565869,"DIS_CODE":0,"TOWNNAME":"白河區","LI":"白河里","LIN":"9鄰","STREET":"中正路","SECT":" ","MAREA":" ","LANE":" ","ALLEY":" ","HOUSE_NO":"９號","E_COORD97":190301.60999999999,"N_COORD97":2583066.9700000002,"ADDRESS":"中正路９號","OBJECTID":565842},"geometry":{"x":190301.61000000127,"y":2583066.9700000025}},{"attributes":{"ID":565870,"DIS_CODE":0,"TOWNNAME":"東區","LI":"圍下里","LIN":"9鄰","STREET":"勝利路","SECT":" ","MAREA":" ","LANE":" ","ALLEY":" ","HOUSE_NO":"９９號","E_COORD97":169801.97,"N_COORD97":2543635.1800000002,"ADDRESS":"勝利路９９號","OBJECTID":565843},"geometry":{"x":169801.97000000067,"y":2543635.1799999997}},{"attributes":{"ID":565871,"DIS_CODE":0,"TOWNNAME":"東區","LI":"大學里","LIN":"9鄰","STREET":"東寧路","SECT":" ","MAREA":" ","LANE":" ","ALLEY":" ","HOUSE_NO":"１９號","E_COORD97":170047.01999999999,"N_COORD97":2543644.9500000002,"ADDRESS":"東寧路１９號","OBJECTID":565844},"geometry":{"x":170047.02000000142,"y":2543644.9500000011}},{"attributes":{"ID":565872,"DIS_CODE":0,"TOWNNAME":"東區","LI":"大學里","LIN":"9鄰","STREET":"東寧路","SECT":" ","MAREA":" ","LANE":" ","ALLEY":" ","HOUSE_NO":"３１號","E_COORD97":170133.44,"N_COORD97":2543663.1099999999,"ADDRESS":"東寧路３１號","OBJECTID":565845},"geometry":{"x":170133.44000000134,"y":2543663.1099999994}},{"attributes":{"ID":565873,"DIS_CODE":0,"TOWNNAME":"東區","LI":"大學里","LIN":"9鄰","STREET":"東寧路","SECT":" ","MAREA":" ","LANE":" ","ALLEY":" ","HOUSE_NO":"５１號","E_COORD97":170182.31,"N_COORD97":2543630.1299999999,"ADDRESS":"東寧路５１號","OBJECTID":565846},"geometry":{"x":170182.31000000145,"y":2543630.1300000008}},{"attributes":{"ID":565874,"DIS_CODE":0,"TOWNNAME":"東區","LI":"圍下里","LIN":"9鄰","STREET":"勝利路","SECT":" ","MAREA":" ","LANE":" ","ALLEY":" ","HOUSE_NO":"８７號","E_COORD97":169800.01999999999,"N_COORD97":2543605.4300000002,"ADDRESS":"勝利路８７號","OBJECTID":565847},"geometry":{"x":169800.02000000048,"y":2543605.4300000016}},{"attributes":{"ID":565875,"DIS_CODE":0,"TOWNNAME":"東區","LI":"大學里","LIN":"9鄰","STREET":"東寧路","SECT":" ","MAREA":" ","LANE":" ","ALLEY":" ","HOUSE_NO":"１７號","E_COORD97":170040.13,"N_COORD97":2543644.1899999999,"ADDRESS":"東寧路１７號","OBJECTID":565848},"geometry":{"x":170040.13000000082,"y":2543644.1900000013}},{"attributes":{"ID":565876,"DIS_CODE":0,"TOWNNAME":"東區","LI":"裕農里","LIN":"9鄰","STREET":"裕農路","SECT":" ","MAREA":" ","LANE":" ","ALLEY":" ","HOUSE_NO":"４９７號","E_COORD97":171308.16,"N_COORD97":2543211.8799999999,"ADDRESS":"裕農路４９７號","OBJECTID":565849},"geometry":{"x":171308.16000000108,"y":2543211.8800000008}},{"attributes":{"ID":565877,"DIS_CODE":0,"TOWNNAME":"東區","LI":"裕農里","LIN":"9鄰","STREET":"裕農路","SECT":" ","MAREA":" ","LANE":" ","ALLEY":" ","HOUSE_NO":"４９９號","E_COORD97":171316.42000000001,"N_COORD97":2543212.21,"ADDRESS":"裕農路４９９號","OBJECTID":565850},"geometry":{"x":171316.42000000086,"y":2543212.2100000009}},{"attributes":{"ID":565878,"DIS_CODE":0,"TOWNNAME":"東區","LI":"裕農里","LIN":"9鄰","STREET":"裕農路","SECT":" ","MAREA":" ","LANE":" ","ALLEY":" ","HOUSE_NO":"４６３號","E_COORD97":171258.10999999999,"N_COORD97":2543187.79,"ADDRESS":"裕農路４６３號","OBJECTID":565851},"geometry":{"x":171258.11000000127,"y":2543187.790000001}},{"attributes":{"ID":565879,"DIS_CODE":0,"TOWNNAME":"東區","LI":"中西里","LIN":"9鄰","STREET":"勝利路","SECT":" ","MAREA":" ","LANE":" ","ALLEY":" ","HOUSE_NO":"５４號","E_COORD97":169817.39999999999,"N_COORD97":2543557.8300000001,"ADDRESS":"勝利路５４號","OBJECTID":565852},"geometry":{"x":169817.40000000037,"y":2543557.8300000038}},{"attributes":{"ID":565880,"DIS_CODE":0,"TOWNNAME":"東區","LI":"中西里","LIN":"9鄰","STREET":"勝利路","SECT":" ","MAREA":" ","LANE":" ","ALLEY":" ","HOUSE_NO":"５４號之１","E_COORD97":169821.57999999999,"N_COORD97":2543564.9900000002,"ADDRESS":"勝利路５４號之１","OBJECTID":565853},"geometry":{"x":169821.58000000194,"y":2543564.9900000021}},{"attributes":{"ID":565881,"DIS_CODE":0,"TOWNNAME":"東區","LI":"大學里","LIN":"9鄰","STREET":"東寧路","SECT":" ","MAREA":" ","LANE":" ","ALLEY":" ","HOUSE_NO":"４７號","E_COORD97":170172.48999999999,"N_COORD97":2543627.2799999998,"ADDRESS":"東寧路４７號","OBJECTID":565854},"geometry":{"x":170172.49000000022,"y":2543627.2799999993}},{"attributes":{"ID":565882,"DIS_CODE":0,"TOWNNAME":"東區","LI":"大學里","LIN":"9鄰","STREET":"東寧路","SECT":" ","MAREA":" ","LANE":" ","ALLEY":" ","HOUSE_NO":"４９號","E_COORD97":170178.26999999999,"N_COORD97":2543628.0499999998,"ADDRESS":"東寧路４９號","OBJECTID":565855},"geometry":{"x":170178.26999999955,"y":2543628.0500000045}},{"attributes":{"ID":565883,"DIS_CODE":0,"TOWNNAME":"東區","LI":"裕農里","LIN":"9鄰","STREET":"裕農路","SECT":" ","MAREA":" ","LANE":" ","ALLEY":" ","HOUSE_NO":"４２７號","E_COORD97":171209.12,"N_COORD97":2543165.46,"ADDRESS":"裕農路４２７號","OBJECTID":565856},"geometry":{"x":171209.12000000011,"y":2543165.4600000028}},{"attributes":{"ID":565884,"DIS_CODE":0,"TOWNNAME":"麻豆區","LI":"保安里","LIN":"9鄰","STREET":"文昌路","SECT":" ","MAREA":" ","LANE":" ","ALLEY":" ","HOUSE_NO":"３號之１","E_COORD97":173399.45000000001,"N_COORD97":2564880.8199999998,"ADDRESS":"文昌路３號之１","OBJECTID":565857},"geometry":{"x":173399.45000000205,"y":2564880.8200000022}},{"attributes":{"ID":565885,"DIS_CODE":0,"TOWNNAME":"善化區","LI":"東關里","LIN":"9鄰","STREET":"大同路","SECT":" ","MAREA":" ","LANE":" ","ALLEY":" ","HOUSE_NO":"３９９號","E_COORD97":177328.60000000001,"N_COORD97":2559095.25,"ADDRESS":"大同路３９９號","OBJECTID":565858},"geometry":{"x":177328.59999999963,"y":2559095.25}},{"attributes":{"ID":565886,"DIS_CODE":0,"TOWNNAME":"善化區","LI":"南關里","LIN":"9鄰","STREET":"三民路","SECT":" ","MAREA":" ","LANE":" ","ALLEY":" ","HOUSE_NO":"４１號之１","E_COORD97":177026.87,"N_COORD97":2558933.52,"ADDRESS":"三民路４１號之１","OBJECTID":565859},"geometry":{"x":177026.87000000011,"y":2558933.5199999996}},{"attributes":{"ID":565887,"DIS_CODE":0,"TOWNNAME":"善化區","LI":"坐駕里","LIN":"9鄰","STREET":"青年路","SECT":" ","MAREA":" ","LANE":" ","ALLEY":" ","HOUSE_NO":"１００號之６","E_COORD97":177919.54000000001,"N_COORD97":2558721.02,"ADDRESS":"青年路１００號之６","OBJECTID":565860},"geometry":{"x":177919.54000000004,"y":2558721.0200000033}},{"attributes":{"ID":565888,"DIS_CODE":0,"TOWNNAME":"善化區","LI":"坐駕里","LIN":"9鄰","STREET":"青年路","SECT":" ","MAREA":" ","LANE":" ","ALLEY":" ","HOUSE_NO":"９４號","E_COORD97":177892.04999999999,"N_COORD97":2558651.75,"ADDRESS":"青年路９４號","OBJECTID":565861},"geometry":{"x":177892.04999999981,"y":2558651.75}},{"attributes":{"ID":565889,"DIS_CODE":0,"TOWNNAME":"善化區","LI":"東關里","LIN":"9鄰","STREET":"中山路","SECT":" ","MAREA":" ","LANE":" ","ALLEY":" ","HOUSE_NO":"４３９號","E_COORD97":177307.56,"N_COORD97":2559113.75,"ADDRESS":"中山路４３９號","OBJECTID":565862},"geometry":{"x":177307.56000000052,"y":2559113.7500000019}},{"attributes":{"ID":565890,"DIS_CODE":0,"TOWNNAME":"善化區","LI":"坐駕里","LIN":"9鄰","STREET":"青年路","SECT":" ","MAREA":" ","LANE":" ","ALLEY":" ","HOUSE_NO":"８８號","E_COORD97":177892.64000000001,"N_COORD97":2558628.5,"ADDRESS":"青年路８８號","OBJECTID":565863},"geometry":{"x":177892.63999999966,"y":2558628.5}},{"attributes":{"ID":565891,"DIS_CODE":0,"TOWNNAME":"善化區","LI":"西關里","LIN":"9鄰","STREET":"復興街","SECT":" ","MAREA":" ","LANE":" ","ALLEY":" ","HOUSE_NO":"３４之１號","E_COORD97":177026,"N_COORD97":2559063.27,"ADDRESS":"復興街３４之１號","OBJECTID":565864},"geometry":{"x":177026,"y":2559063.2700000014}},{"attributes":{"ID":565892,"DIS_CODE":0,"TOWNNAME":"善化區","LI":"文昌里","LIN":"9鄰","STREET":"大同路","SECT":" ","MAREA":" ","LANE":" ","ALLEY":" ","HOUSE_NO":"３５７號","E_COORD97":177340.78,"N_COORD97":2558960.25,"ADDRESS":"大同路３５７號","OBJECTID":565865},"geometry":{"x":177340.78000000119,"y":2558960.25}},{"attributes":{"ID":565893,"DIS_CODE":0,"TOWNNAME":"善化區","LI":"文正里","LIN":"9鄰","STREET":"文正路","SECT":" ","MAREA":" ","LANE":" ","ALLEY":" ","HOUSE_NO":"３５號","E_COORD97":176987.26000000001,"N_COORD97":2559295.5299999998,"ADDRESS":"文正路３５號","OBJECTID":565866},"geometry":{"x":176987.26000000164,"y":2559295.5299999993}},{"attributes":{"ID":565894,"DIS_CODE":0,"TOWNNAME":"善化區","LI":"文昌里","LIN":"9鄰","STREET":"平等路","SECT":" ","MAREA":" ","LANE":" ","ALLEY":" ","HOUSE_NO":"１３號","E_COORD97":177290.17000000001,"N_COORD97":2558931.75,"ADDRESS":"平等路１３號","OBJECTID":565867},"geometry":{"x":177290.17000000086,"y":2558931.75}},{"attributes":{"ID":565895,"DIS_CODE":0,"TOWNNAME":"善化區","LI":"文正里","LIN":"9鄰","STREET":"文正路","SECT":" ","MAREA":" ","LANE":" ","ALLEY":" ","HOUSE_NO":"３９號","E_COORD97":176997.42999999999,"N_COORD97":2559292.7799999998,"ADDRESS":"文正路３９號","OBJECTID":565868},"geometry":{"x":176997.4299999997,"y":2559292.7800000012}},{"attributes":{"ID":565896,"DIS_CODE":0,"TOWNNAME":"善化區","LI":"文昌里","LIN":"9鄰","STREET":"自由路","SECT":" ","MAREA":" ","LANE":" ","ALLEY":" ","HOUSE_NO":"５０號","E_COORD97":177295.67999999999,"N_COORD97":2558911,"ADDRESS":"自由路５０號","OBJECTID":565869},"geometry":{"x":177295.6799999997,"y":2558911}},{"attributes":{"ID":565897,"DIS_CODE":0,"TOWNNAME":"善化區","LI":"文昌里","LIN":"9鄰","STREET":"自由路","SECT":" ","MAREA":" ","LANE":" ","ALLEY":" ","HOUSE_NO":"３０號","E_COORD97":177323.63,"N_COORD97":2558943.5,"ADDRESS":"自由路３０號","OBJECTID":565870},"geometry":{"x":177323.62999999989,"y":2558943.5000000019}},{"attributes":{"ID":565898,"DIS_CODE":0,"TOWNNAME":"善化區","LI":"文昌里","LIN":"9鄰","STREET":"自由路","SECT":" ","MAREA":" ","LANE":" ","ALLEY":" ","HOUSE_NO":"３７號","E_COORD97":177327.82999999999,"N_COORD97":2558897,"ADDRESS":"自由路３７號","OBJECTID":565871},"geometry":{"x":177327.83000000194,"y":2558897}},{"attributes":{"ID":565899,"DIS_CODE":0,"TOWNNAME":"安南區","LI":"城北里","LIN":"9鄰","STREET":"城安東街","SECT":" ","MAREA":" ","LANE":" ","ALLEY":" ","HOUSE_NO":"５２號","E_COORD97":160807.56,"N_COORD97":2551670.9900000002,"ADDRESS":"城安東街５２號","OBJECTID":565872},"geometry":{"x":160807.55999999959,"y":2551670.9900000021}},{"attributes":{"ID":565900,"DIS_CODE":0,"TOWNNAME":"安南區","LI":"城北里","LIN":"9鄰","STREET":"城安東街","SECT":" ","MAREA":" ","LANE":" ","ALLEY":" ","HOUSE_NO":"５０號","E_COORD97":160808.48000000001,"N_COORD97":2551666.71,"ADDRESS":"城安東街５０號","OBJECTID":565873},"geometry":{"x":160808.48000000045,"y":2551666.7100000028}},{"attributes":{"ID":565901,"DIS_CODE":0,"TOWNNAME":"安南區","LI":"城北里","LIN":"9鄰","STREET":"城安東街","SECT":" ","MAREA":" ","LANE":" ","ALLEY":" ","HOUSE_NO":"４８號","E_COORD97":160808.17999999999,"N_COORD97":2551662.1200000001,"ADDRESS":"城安東街４８號","OBJECTID":565874},"geometry":{"x":160808.1799999997,"y":2551662.120000001}},{"attributes":{"ID":565902,"DIS_CODE":0,"TOWNNAME":"安南區","LI":"城北里","LIN":"9鄰","STREET":"城安東街","SECT":" ","MAREA":" ","LANE":" ","ALLEY":" ","HOUSE_NO":"４６號","E_COORD97":160808.48000000001,"N_COORD97":2551658.1400000001,"ADDRESS":"城安東街４６號","OBJECTID":565875},"geometry":{"x":160808.48000000045,"y":2551658.1400000006}},{"attributes":{"ID":565903,"DIS_CODE":0,"TOWNNAME":"安南區","LI":"城北里","LIN":"9鄰","STREET":"城安東街","SECT":" ","MAREA":" ","LANE":" ","ALLEY":" ","HOUSE_NO":"４２號","E_COORD97":160808.98000000001,"N_COORD97":2551654.6499999999,"ADDRESS":"城安東街４２號","OBJECTID":565876},"geometry":{"x":160808.98000000045,"y":2551654.6500000004}},{"attributes":{"ID":565904,"DIS_CODE":0,"TOWNNAME":"安南區","LI":"砂崙里","LIN":"9鄰","STREET":"青砂街","SECT":"一段","MAREA":" ","LANE":" ","ALLEY":" ","HOUSE_NO":"７８３號","E_COORD97":159826.48000000001,"N_COORD97":2552936.8799999999,"ADDRESS":"青砂街一段７８３號","OBJECTID":565877},"geometry":{"x":159826.48000000138,"y":2552936.879999999}},{"attributes":{"ID":565905,"DIS_CODE":0,"TOWNNAME":"安南區","LI":"城北里","LIN":"9鄰","STREET":"城安二街","SECT":" ","MAREA":" ","LANE":" ","ALLEY":" ","HOUSE_NO":"２３號","E_COORD97":160713.79000000001,"N_COORD97":2551775.0899999999,"ADDRESS":"城安二街２３號","OBJECTID":565878},"geometry":{"x":160713.79000000097,"y":2551775.0900000017}},{"attributes":{"ID":565906,"DIS_CODE":0,"TOWNNAME":"安南區","LI":"城北里","LIN":"9鄰","STREET":"城安二街","SECT":" ","MAREA":" ","LANE":" ","ALLEY":" ","HOUSE_NO":"２５號","E_COORD97":160709.38,"N_COORD97":2551773.8599999999,"ADDRESS":"城安二街２５號","OBJECTID":565879},"geometry":{"x":160709.38000000175,"y":2551773.8599999994}},{"attributes":{"ID":565907,"DIS_CODE":0,"TOWNNAME":"安南區","LI":"頂安里","LIN":"9鄰","STREET":"頂安街","SECT":" ","MAREA":" ","LANE":" ","ALLEY":" ","HOUSE_NO":"４９６號","E_COORD97":168778.69,"N_COORD97":2549356.54,"ADDRESS":"頂安街４９６號","OBJECTID":565880},"geometry":{"x":168778.69000000227,"y":2549356.540000001}},{"attributes":{"ID":565908,"DIS_CODE":0,"TOWNNAME":"安南區","LI":"城北里","LIN":"9鄰","STREET":"安中路","SECT":"六段","MAREA":" ","LANE":" ","ALLEY":" ","HOUSE_NO":"６１６號","E_COORD97":160772.32000000001,"N_COORD97":2551593.7999999998,"ADDRESS":"安中路六段６１６號","OBJECTID":565881},"geometry":{"x":160772.3200000003,"y":2551593.8000000045}},{"attributes":{"ID":565909,"DIS_CODE":0,"TOWNNAME":"安南區","LI":"淵東里","LIN":"9鄰","STREET":"本原街","SECT":"三段","MAREA":" ","LANE":" ","ALLEY":" ","HOUSE_NO":"３０９號","E_COORD97":165333.03,"N_COORD97":2550166.3199999998,"ADDRESS":"本原街三段３０９號","OBJECTID":565882},"geometry":{"x":165333.03000000026,"y":2550166.3200000022}},{"attributes":{"ID":565910,"DIS_CODE":0,"TOWNNAME":"安南區","LI":"淵東里","LIN":"9鄰","STREET":"本原街","SECT":"三段","MAREA":" ","LANE":" ","ALLEY":" ","HOUSE_NO":"２９５號","E_COORD97":165338.45000000001,"N_COORD97":2550189.8799999999,"ADDRESS":"本原街三段２９５號","OBJECTID":565883},"geometry":{"x":165338.45000000019,"y":2550189.879999999}},{"attributes":{"ID":565911,"DIS_CODE":0,"TOWNNAME":"安南區","LI":"城北里","LIN":"9鄰","STREET":"尊安街","SECT":" ","MAREA":" ","LANE":" ","ALLEY":" ","HOUSE_NO":"５０號","E_COORD97":160896.82000000001,"N_COORD97":2551566.48,"ADDRESS":"尊安街５０號","OBJECTID":565884},"geometry":{"x":160896.82000000216,"y":2551566.4800000023}},{"attributes":{"ID":565912,"DIS_CODE":0,"TOWNNAME":"白河區","LI":"外角里","LIN":"9鄰","STREET":"新興路","SECT":" ","MAREA":" ","LANE":" ","ALLEY":" ","HOUSE_NO":"３３９之１號","E_COORD97":190833.82000000001,"N_COORD97":2583390.5299999998,"ADDRESS":"新興路３３９之１號","OBJECTID":565885},"geometry":{"x":190833.82000000216,"y":2583390.5300000012}},{"attributes":{"ID":565913,"DIS_CODE":0,"TOWNNAME":"官田區","LI":"隆本里","LIN":"9鄰","STREET":"中華路","SECT":"二段","MAREA":" ","LANE":" ","ALLEY":" ","HOUSE_NO":"４３號","E_COORD97":179901.89999999999,"N_COORD97":2566660.8999999999,"ADDRESS":"中華路二段４３號","OBJECTID":565886},"geometry":{"x":179901.90000000037,"y":2566660.9000000022}},{"attributes":{"ID":565914,"DIS_CODE":0,"TOWNNAME":"官田區","LI":"隆本里","LIN":"9鄰","STREET":"中華路","SECT":"二段","MAREA":" ","LANE":" ","ALLEY":" ","HOUSE_NO":"４５號","E_COORD97":179901.04000000001,"N_COORD97":2566664.8599999999,"ADDRESS":"中華路二段４５號","OBJECTID":565887},"geometry":{"x":179901.04000000004,"y":2566664.8599999994}},{"attributes":{"ID":565915,"DIS_CODE":0,"TOWNNAME":"官田區","LI":"隆本里","LIN":"9鄰","STREET":"中華路","SECT":"二段","MAREA":" ","LANE":" ","ALLEY":" ","HOUSE_NO":"４７號","E_COORD97":179899.82000000001,"N_COORD97":2566668.6200000001,"ADDRESS":"中華路二段４７號","OBJECTID":565888},"geometry":{"x":179899.82000000216,"y":2566668.6199999992}},{"attributes":{"ID":565916,"DIS_CODE":0,"TOWNNAME":"官田區","LI":"隆本里","LIN":"9鄰","STREET":"中華路","SECT":"二段","MAREA":" ","LANE":" ","ALLEY":" ","HOUSE_NO":"５５號","E_COORD97":179900.17999999999,"N_COORD97":2566685.1299999999,"ADDRESS":"中華路二段５５號","OBJECTID":565889},"geometry":{"x":179900.18000000156,"y":2566685.1300000008}},{"attributes":{"ID":565917,"DIS_CODE":0,"TOWNNAME":"官田區","LI":"隆本里","LIN":"9鄰","STREET":"中華路","SECT":"二段","MAREA":" ","LANE":" ","ALLEY":" ","HOUSE_NO":"５７號","E_COORD97":179893.64000000001,"N_COORD97":2566693.5499999998,"ADDRESS":"中華路二段５７號","OBJECTID":565890},"geometry":{"x":179893.64000000153,"y":2566693.5500000026}},{"attributes":{"ID":565918,"DIS_CODE":0,"TOWNNAME":"官田區","LI":"隆本里","LIN":"9鄰","STREET":"中華路","SECT":"二段","MAREA":" ","LANE":" ","ALLEY":" ","HOUSE_NO":"５９號","E_COORD97":179883.97,"N_COORD97":2566710.6099999999,"ADDRESS":"中華路二段５９號","OBJECTID":565891},"geometry":{"x":179883.96999999974,"y":2566710.6099999994}},{"attributes":{"ID":565919,"DIS_CODE":0,"TOWNNAME":"官田區","LI":"隆本里","LIN":"9鄰","STREET":"中華路","SECT":"二段","MAREA":" ","LANE":" ","ALLEY":" ","HOUSE_NO":"６１號","E_COORD97":179876.91,"N_COORD97":2566724.0600000001,"ADDRESS":"中華路二段６１號","OBJECTID":565892},"geometry":{"x":179876.91000000201,"y":2566724.0600000024}},{"attributes":{"ID":565920,"DIS_CODE":0,"TOWNNAME":"官田區","LI":"隆本里","LIN":"9鄰","STREET":"中華路","SECT":"二段","MAREA":" ","LANE":" ","ALLEY":" ","HOUSE_NO":"６７號","E_COORD97":179869,"N_COORD97":2566742.1299999999,"ADDRESS":"中華路二段６７號","OBJECTID":565893},"geometry":{"x":179869,"y":2566742.1300000008}},{"attributes":{"ID":565921,"DIS_CODE":0,"TOWNNAME":"官田區","LI":"隆本里","LIN":"9鄰","STREET":"中華路","SECT":"二段","MAREA":" ","LANE":" ","ALLEY":" ","HOUSE_NO":"６９號","E_COORD97":179867.26000000001,"N_COORD97":2566745.25,"ADDRESS":"中華路二段６９號","OBJECTID":565894},"geometry":{"x":179867.25999999978,"y":2566745.2500000019}},{"attributes":{"ID":565922,"DIS_CODE":0,"TOWNNAME":"官田區","LI":"隆本里","LIN":"9鄰","STREET":"中華路","SECT":"二段","MAREA":" ","LANE":" ","ALLEY":" ","HOUSE_NO":"７１號","E_COORD97":179865.79999999999,"N_COORD97":2566748.9300000002,"ADDRESS":"中華路二段７１號","OBJECTID":565895},"geometry":{"x":179865.80000000075,"y":2566748.9299999997}},{"attributes":{"ID":565923,"DIS_CODE":0,"TOWNNAME":"官田區","LI":"隆本里","LIN":"9鄰","STREET":"中華路","SECT":"二段","MAREA":" ","LANE":" ","ALLEY":" ","HOUSE_NO":"７３號","E_COORD97":179864.06,"N_COORD97":2566752.73,"ADDRESS":"中華路二段７３號","OBJECTID":565896},"geometry":{"x":179864.06000000052,"y":2566752.7300000023}},{"attributes":{"ID":565924,"DIS_CODE":0,"TOWNNAME":"官田區","LI":"隆本里","LIN":"9鄰","STREET":"中華路","SECT":"二段","MAREA":" ","LANE":" ","ALLEY":" ","HOUSE_NO":"７５號","E_COORD97":179861.69,"N_COORD97":2566756.3300000001,"ADDRESS":"中華路二段７５號","OBJECTID":565897},"geometry":{"x":179861.68999999948,"y":2566756.3300000001}},{"attributes":{"ID":565925,"DIS_CODE":0,"TOWNNAME":"官田區","LI":"隆本里","LIN":"9鄰","STREET":"中華路","SECT":"二段","MAREA":" ","LANE":" ","ALLEY":" ","HOUSE_NO":"７７號","E_COORD97":179860.10000000001,"N_COORD97":2566759.6400000001,"ADDRESS":"中華路二段７７號","OBJECTID":565898},"geometry":{"x":179860.10000000056,"y":2566759.6399999987}},{"attributes":{"ID":565926,"DIS_CODE":0,"TOWNNAME":"官田區","LI":"隆本里","LIN":"9鄰","STREET":"中華路","SECT":"二段","MAREA":" ","LANE":" ","ALLEY":" ","HOUSE_NO":"７９號","E_COORD97":179857.79000000001,"N_COORD97":2566763.8700000001,"ADDRESS":"中華路二段７９號","OBJECTID":565899},"geometry":{"x":179857.79000000097,"y":2566763.870000001}},{"attributes":{"ID":565927,"DIS_CODE":0,"TOWNNAME":"官田區","LI":"隆本里","LIN":"9鄰","STREET":"中華路","SECT":"二段","MAREA":" ","LANE":" ","ALLEY":" ","HOUSE_NO":"８１號","E_COORD97":179856.07999999999,"N_COORD97":2566766.79,"ADDRESS":"中華路二段８１號","OBJECTID":565900},"geometry":{"x":179856.08000000101,"y":2566766.7899999991}},{"attributes":{"ID":565928,"DIS_CODE":0,"TOWNNAME":"仁德區","LI":"上崙里","LIN":"9鄰","STREET":"德善路","SECT":" ","MAREA":" ","LANE":" ","ALLEY":" ","HOUSE_NO":"３３７號","E_COORD97":173982.48999999999,"N_COORD97":2538460.27,"ADDRESS":"德善路３３７號","OBJECTID":565901},"geometry":{"x":173982.49000000115,"y":2538460.2699999996}},{"attributes":{"ID":565929,"DIS_CODE":0,"TOWNNAME":"官田區","LI":"隆田里","LIN":"9鄰","STREET":"仁愛街","SECT":" ","MAREA":" ","LANE":" ","ALLEY":" ","HOUSE_NO":"１０號","E_COORD97":179988.89000000001,"N_COORD97":2565870.1299999999,"ADDRESS":"仁愛街１０號","OBJECTID":565902},"geometry":{"x":179988.8900000006,"y":2565870.1300000027}},{"attributes":{"ID":565930,"DIS_CODE":0,"TOWNNAME":"官田區","LI":"隆田里","LIN":"9鄰","STREET":"仁愛街","SECT":" ","MAREA":" ","LANE":" ","ALLEY":" ","HOUSE_NO":"１８號","E_COORD97":180004.54000000001,"N_COORD97":2565878.4100000001,"ADDRESS":"仁愛街１８號","OBJECTID":565903},"geometry":{"x":180004.54000000004,"y":2565878.4100000001}},{"attributes":{"ID":565931,"DIS_CODE":0,"TOWNNAME":"官田區","LI":"隆田里","LIN":"9鄰","STREET":"仁愛街","SECT":" ","MAREA":" ","LANE":" ","ALLEY":" ","HOUSE_NO":"３６號","E_COORD97":180004.82999999999,"N_COORD97":2565921.8300000001,"ADDRESS":"仁愛街３６號","OBJECTID":565904},"geometry":{"x":180004.83000000101,"y":2565921.8300000019}},{"attributes":{"ID":565932,"DIS_CODE":0,"TOWNNAME":"仁德區","LI":"上崙里","LIN":"9鄰","STREET":"德善路","SECT":" ","MAREA":" ","LANE":" ","ALLEY":" ","HOUSE_NO":"２９１之５號","E_COORD97":173975.39000000001,"N_COORD97":2538606.79,"ADDRESS":"德善路２９１之５號","OBJECTID":565905},"geometry":{"x":173975.38999999966,"y":2538606.7900000028}},{"attributes":{"ID":565933,"DIS_CODE":0,"TOWNNAME":"仁德區","LI":"上崙里","LIN":"9鄰","STREET":"德善路","SECT":" ","MAREA":" ","LANE":" ","ALLEY":" ","HOUSE_NO":"２９７號","E_COORD97":173948.26999999999,"N_COORD97":2538575.02,"ADDRESS":"德善路２９７號","OBJECTID":565906},"geometry":{"x":173948.27000000048,"y":2538575.0199999996}},{"attributes":{"ID":565934,"DIS_CODE":0,"TOWNNAME":"仁德區","LI":"土庫里","LIN":"9鄰","STREET":"太子二街","SECT":" ","MAREA":" ","LANE":" ","ALLEY":" ","HOUSE_NO":"３８號","E_COORD97":174297.59,"N_COORD97":2543352.5,"ADDRESS":"太子二街３８號","OBJECTID":565907},"geometry":{"x":174297.58999999985,"y":2543352.5}},{"attributes":{"ID":565935,"DIS_CODE":0,"TOWNNAME":"仁德區","LI":"仁義里","LIN":"9鄰","STREET":"仁義三街","SECT":" ","MAREA":" ","LANE":" ","ALLEY":" ","HOUSE_NO":"９５號","E_COORD97":173583.34,"N_COORD97":2541138.02,"ADDRESS":"仁義三街９５號","OBJECTID":565908},"geometry":{"x":173583.34000000078,"y":2541138.0199999996}},{"attributes":{"ID":565936,"DIS_CODE":0,"TOWNNAME":"仁德區","LI":"上崙里","LIN":"9鄰","STREET":"德善路","SECT":" ","MAREA":" ","LANE":" ","ALLEY":" ","HOUSE_NO":"３３９號","E_COORD97":173983.88,"N_COORD97":2538456.02,"ADDRESS":"德善路３３９號","OBJECTID":565909},"geometry":{"x":173983.87999999989,"y":2538456.0199999996}},{"attributes":{"ID":565937,"DIS_CODE":0,"TOWNNAME":"仁德區","LI":"土庫里","LIN":"9鄰","STREET":"太子二街","SECT":" ","MAREA":" ","LANE":" ","ALLEY":" ","HOUSE_NO":"３０號","E_COORD97":174290.51999999999,"N_COORD97":2543392,"ADDRESS":"太子二街３０號","OBJECTID":565910},"geometry":{"x":174290.52000000048,"y":2543392}},{"attributes":{"ID":565938,"DIS_CODE":0,"TOWNNAME":"仁德區","LI":"仁義里","LIN":"9鄰","STREET":"仁義三街","SECT":" ","MAREA":" ","LANE":" ","ALLEY":" ","HOUSE_NO":"９９號","E_COORD97":173599,"N_COORD97":2541134.52,"ADDRESS":"仁義三街９９號","OBJECTID":565911},"geometry":{"x":173599.00000000186,"y":2541134.5199999996}},{"attributes":{"ID":565939,"DIS_CODE":0,"TOWNNAME":"仁德區","LI":"仁義里","LIN":"9鄰","STREET":"仁義三街","SECT":" ","MAREA":" ","LANE":" ","ALLEY":" ","HOUSE_NO":"１１９號","E_COORD97":173648.92000000001,"N_COORD97":2541135.02,"ADDRESS":"仁義三街１１９號","OBJECTID":565912},"geometry":{"x":173648.92000000086,"y":2541135.0200000033}},{"attributes":{"ID":565940,"DIS_CODE":0,"TOWNNAME":"仁德區","LI":"上崙里","LIN":"9鄰","STREET":"德善路","SECT":" ","MAREA":" ","LANE":" ","ALLEY":" ","HOUSE_NO":"３３１號","E_COORD97":173978.95000000001,"N_COORD97":2538473.02,"ADDRESS":"德善路３３１號","OBJECTID":565913},"geometry":{"x":173978.95000000019,"y":2538473.0199999996}},{"attributes":{"ID":565941,"DIS_CODE":0,"TOWNNAME":"仁德區","LI":"土庫里","LIN":"9鄰","STREET":"太子二街","SECT":" ","MAREA":" ","LANE":" ","ALLEY":" ","HOUSE_NO":"３４號","E_COORD97":174291.5,"N_COORD97":2543369.75,"ADDRESS":"太子二街３４號","OBJECTID":565914},"geometry":{"x":174291.5,"y":2543369.7500000019}},{"attributes":{"ID":565942,"DIS_CODE":0,"TOWNNAME":"仁德區","LI":"上崙里","LIN":"9鄰","STREET":"德善路","SECT":" ","MAREA":" ","LANE":" ","ALLEY":" ","HOUSE_NO":"３２７號","E_COORD97":173976.59,"N_COORD97":2538481.7599999998,"ADDRESS":"德善路３２７號","OBJECTID":565915},"geometry":{"x":173976.59000000078,"y":2538481.7599999998}},{"attributes":{"ID":565943,"DIS_CODE":0,"TOWNNAME":"仁德區","LI":"仁義里","LIN":"9鄰","STREET":"仁義三街","SECT":" ","MAREA":" ","LANE":" ","ALLEY":" ","HOUSE_NO":"１０９號","E_COORD97":173626.51000000001,"N_COORD97":2541136.27,"ADDRESS":"仁義三街１０９號","OBJECTID":565916},"geometry":{"x":173626.51000000071,"y":2541136.2699999996}},{"attributes":{"ID":565944,"DIS_CODE":0,"TOWNNAME":"仁德區","LI":"仁義里","LIN":"9鄰","STREET":"仁義三街","SECT":" ","MAREA":" ","LANE":" ","ALLEY":" ","HOUSE_NO":"１０５號","E_COORD97":173613.82999999999,"N_COORD97":2541134.52,"ADDRESS":"仁義三街１０５號","OBJECTID":565917},"geometry":{"x":173613.83000000194,"y":2541134.5199999996}},{"attributes":{"ID":565945,"DIS_CODE":0,"TOWNNAME":"仁德區","LI":"上崙里","LIN":"9鄰","STREET":"德善路","SECT":" ","MAREA":" ","LANE":" ","ALLEY":" ","HOUSE_NO":"３３３號","E_COORD97":173980.04000000001,"N_COORD97":2538468.77,"ADDRESS":"德善路３３３號","OBJECTID":565918},"geometry":{"x":173980.0400000019,"y":2538468.7700000033}},{"attributes":{"ID":565946,"DIS_CODE":0,"TOWNNAME":"仁德區","LI":"仁義里","LIN":"9鄰","STREET":"仁義三街","SECT":" ","MAREA":" ","LANE":" ","ALLEY":" ","HOUSE_NO":"９３號","E_COORD97":173578.35999999999,"N_COORD97":2541138.02,"ADDRESS":"仁義三街９３號","OBJECTID":565919},"geometry":{"x":173578.36000000127,"y":2541138.0199999996}},{"attributes":{"ID":565947,"DIS_CODE":0,"TOWNNAME":"仁德區","LI":"上崙里","LIN":"9鄰","STREET":"德善路","SECT":" ","MAREA":" ","LANE":" ","ALLEY":" ","HOUSE_NO":"２９５號","E_COORD97":173946.84,"N_COORD97":2538579.52,"ADDRESS":"德善路２９５號","OBJECTID":565920},"geometry":{"x":173946.83999999985,"y":2538579.5200000014}},{"attributes":{"ID":565948,"DIS_CODE":0,"TOWNNAME":"仁德區","LI":"上崙里","LIN":"9鄰","STREET":"德善路","SECT":" ","MAREA":" ","LANE":" ","ALLEY":" ","HOUSE_NO":"３４７號","E_COORD97":173988.92999999999,"N_COORD97":2538438.77,"ADDRESS":"德善路３４７號","OBJECTID":565921},"geometry":{"x":173988.93000000156,"y":2538438.7700000014}},{"attributes":{"ID":565949,"DIS_CODE":0,"TOWNNAME":"仁德區","LI":"上崙里","LIN":"9鄰","STREET":"德善路","SECT":" ","MAREA":" ","LANE":" ","ALLEY":" ","HOUSE_NO":"３０３之７號","E_COORD97":173961.97,"N_COORD97":2538539.7999999998,"ADDRESS":"德善路３０３之７號","OBJECTID":565922},"geometry":{"x":173961.97000000067,"y":2538539.8000000007}},{"attributes":{"ID":565950,"DIS_CODE":0,"TOWNNAME":"仁德區","LI":"二行里","LIN":"9鄰","STREET":"行大街","SECT":" ","MAREA":" ","LANE":" ","ALLEY":" ","HOUSE_NO":"１００之１號","E_COORD97":170154.45999999999,"N_COORD97":2535181.29,"ADDRESS":"行大街１００之１號","OBJECTID":565923},"geometry":{"x":170154.46000000183,"y":2535181.2899999991}},{"attributes":{"ID":565951,"DIS_CODE":0,"TOWNNAME":"仁德區","LI":"上崙里","LIN":"9鄰","STREET":"德善路","SECT":" ","MAREA":" ","LANE":" ","ALLEY":" ","HOUSE_NO":"３０３之１號","E_COORD97":173954.87,"N_COORD97":2538559.2999999998,"ADDRESS":"德善路３０３之１號","OBJECTID":565924},"geometry":{"x":173954.87000000104,"y":2538559.3000000026}},{"attributes":{"ID":565952,"DIS_CODE":0,"TOWNNAME":"仁德區","LI":"上崙里","LIN":"9鄰","STREET":"德善路","SECT":" ","MAREA":" ","LANE":" ","ALLEY":" ","HOUSE_NO":"２９１之２號","E_COORD97":173966.87,"N_COORD97":2538604.04,"ADDRESS":"德善路２９１之２號","OBJECTID":565925},"geometry":{"x":173966.87000000104,"y":2538604.0399999991}},{"attributes":{"ID":565953,"DIS_CODE":0,"TOWNNAME":"仁德區","LI":"大甲里","LIN":"9鄰","STREET":"行大一街","SECT":" ","MAREA":" ","LANE":" ","ALLEY":" ","HOUSE_NO":"３１７號","E_COORD97":169601.57000000001,"N_COORD97":2534994.7400000002,"ADDRESS":"行大一街３１７號","OBJECTID":565926},"geometry":{"x":169601.57000000216,"y":2534994.7400000021}},{"attributes":{"ID":565954,"DIS_CODE":0,"TOWNNAME":"仁德區","LI":"上崙里","LIN":"9鄰","STREET":"德善路","SECT":" ","MAREA":" ","LANE":" ","ALLEY":" ","HOUSE_NO":"２９１之１３號","E_COORD97":173973.42999999999,"N_COORD97":2538584.54,"ADDRESS":"德善路２９１之１３號","OBJECTID":565927},"geometry":{"x":173973.4299999997,"y":2538584.5399999991}},{"attributes":{"ID":565955,"DIS_CODE":0,"TOWNNAME":"仁德區","LI":"上崙里","LIN":"9鄰","STREET":"德善路","SECT":" ","MAREA":" ","LANE":" ","ALLEY":" ","HOUSE_NO":"２９１之６號","E_COORD97":173979.39999999999,"N_COORD97":2538608.04,"ADDRESS":"德善路２９１之６號","OBJECTID":565928},"geometry":{"x":173979.40000000037,"y":2538608.0399999991}},{"attributes":{"ID":565956,"DIS_CODE":0,"TOWNNAME":"仁德區","LI":"一甲里","LIN":"9鄰","STREET":"中正路","SECT":"三段","MAREA":" ","LANE":" ","ALLEY":" ","HOUSE_NO":"２５４號","E_COORD97":173639.54000000001,"N_COORD97":2542084.5299999998,"ADDRESS":"中正路三段２５４號","OBJECTID":565929},"geometry":{"x":173639.54000000097,"y":2542084.5300000012}},{"attributes":{"ID":565957,"DIS_CODE":0,"TOWNNAME":"仁德區","LI":"上崙里","LIN":"9鄰","STREET":"德善路","SECT":" ","MAREA":" ","LANE":" ","ALLEY":" ","HOUSE_NO":"３０３之６號","E_COORD97":173960.04000000001,"N_COORD97":2538542.7999999998,"ADDRESS":"德善路３０３之６號","OBJECTID":565930},"geometry":{"x":173960.04000000097,"y":2538542.8000000007}},{"attributes":{"ID":565958,"DIS_CODE":0,"TOWNNAME":"仁德區","LI":"上崙里","LIN":"9鄰","STREET":"德善路","SECT":" ","MAREA":" ","LANE":" ","ALLEY":" ","HOUSE_NO":"２９１之９號","E_COORD97":173988.17999999999,"N_COORD97":2538590.29,"ADDRESS":"德善路２９１之９號","OBJECTID":565931},"geometry":{"x":173988.1799999997,"y":2538590.290000001}},{"attributes":{"ID":565959,"DIS_CODE":0,"TOWNNAME":"仁德區","LI":"大甲里","LIN":"9鄰","STREET":"行大一街","SECT":" ","MAREA":" ","LANE":" ","ALLEY":" ","HOUSE_NO":"２８６號","E_COORD97":169626.73000000001,"N_COORD97":2535067.7400000002,"ADDRESS":"行大一街２８６號","OBJECTID":565932},"geometry":{"x":169626.73000000138,"y":2535067.7400000002}},{"attributes":{"ID":565960,"DIS_CODE":0,"TOWNNAME":"中西區","LI":"開山里","LIN":"9鄰","STREET":"府前路","SECT":"一段","MAREA":" ","LANE":" ","ALLEY":" ","HOUSE_NO":"６３號","E_COORD97":168976.01000000001,"N_COORD97":2543239.5899999999,"ADDRESS":"府前路一段６３號","OBJECTID":565933},"geometry":{"x":168976.01000000071,"y":2543239.5899999999}},{"attributes":{"ID":565961,"DIS_CODE":0,"TOWNNAME":"中西區","LI":"開山里","LIN":"9鄰","STREET":"府前路","SECT":"一段","MAREA":" ","LANE":" ","ALLEY":" ","HOUSE_NO":"５１號","E_COORD97":169037.76000000001,"N_COORD97":2543259.0699999998,"ADDRESS":"府前路一段５１號","OBJECTID":565934},"geometry":{"x":169037.75999999978,"y":2543259.0700000022}},{"attributes":{"ID":565962,"DIS_CODE":0,"TOWNNAME":"中西區","LI":"開山里","LIN":"9鄰","STREET":"府前路","SECT":"一段","MAREA":" ","LANE":" ","ALLEY":" ","HOUSE_NO":"５３號","E_COORD97":169033.38,"N_COORD97":2543263.4500000002,"ADDRESS":"府前路一段５３號","OBJECTID":565935},"geometry":{"x":169033.38000000082,"y":2543263.4499999993}},{"attributes":{"ID":565963,"DIS_CODE":0,"TOWNNAME":"中西區","LI":"開山里","LIN":"9鄰","STREET":"府前路","SECT":"一段","MAREA":" ","LANE":" ","ALLEY":" ","HOUSE_NO":"５５號","E_COORD97":169026.87,"N_COORD97":2543263.9500000002,"ADDRESS":"府前路一段５５號","OBJECTID":565936},"geometry":{"x":169026.87000000104,"y":2543263.9499999993}},{"attributes":{"ID":565964,"DIS_CODE":0,"TOWNNAME":"中西區","LI":"開山里","LIN":"9鄰","STREET":"府前路","SECT":"一段","MAREA":" ","LANE":" ","ALLEY":" ","HOUSE_NO":"５９號","E_COORD97":169020.35999999999,"N_COORD97":2543265.0800000001,"ADDRESS":"府前路一段５９號","OBJECTID":565937},"geometry":{"x":169020.36000000127,"y":2543265.0800000019}},{"attributes":{"ID":565965,"DIS_CODE":0,"TOWNNAME":"中西區","LI":"三民里","LIN":"9鄰","STREET":"中山路","SECT":" ","MAREA":" ","LANE":" ","ALLEY":" ","HOUSE_NO":"５５號","E_COORD97":168675.17000000001,"N_COORD97":2543818.73,"ADDRESS":"中山路５５號","OBJECTID":565938},"geometry":{"x":168675.17000000086,"y":2543818.7300000004}},{"attributes":{"ID":565966,"DIS_CODE":0,"TOWNNAME":"中西區","LI":"三民里","LIN":"9鄰","STREET":"中山路","SECT":" ","MAREA":" ","LANE":" ","ALLEY":" ","HOUSE_NO":"５７號","E_COORD97":168686.88,"N_COORD97":2543822.9300000002,"ADDRESS":"中山路５７號","OBJECTID":565939},"geometry":{"x":168686.87999999896,"y":2543822.9299999997}},{"attributes":{"ID":565967,"DIS_CODE":0,"TOWNNAME":"中西區","LI":"三民里","LIN":"9鄰","STREET":"中山路","SECT":" ","MAREA":" ","LANE":" ","ALLEY":" ","HOUSE_NO":"５９號","E_COORD97":168683,"N_COORD97":2543820.5099999998,"ADDRESS":"中山路５９號","OBJECTID":565940},"geometry":{"x":168683.00000000186,"y":2543820.5100000035}},{"attributes":{"ID":565968,"DIS_CODE":0,"TOWNNAME":"中西區","LI":"三民里","LIN":"9鄰","STREET":"中山路","SECT":" ","MAREA":" ","LANE":" ","ALLEY":" ","HOUSE_NO":"６１號","E_COORD97":168691.73000000001,"N_COORD97":2543824.96,"ADDRESS":"中山路６１號","OBJECTID":565941},"geometry":{"x":168691.73000000045,"y":2543824.9600000009}},{"attributes":{"ID":565969,"DIS_CODE":0,"TOWNNAME":"中西區","LI":"三民里","LIN":"9鄰","STREET":"中山路","SECT":" ","MAREA":" ","LANE":" ","ALLEY":" ","HOUSE_NO":"６３號","E_COORD97":168696.89000000001,"N_COORD97":2543826.9100000001,"ADDRESS":"中山路６３號","OBJECTID":565942},"geometry":{"x":168696.89000000153,"y":2543826.9100000001}},{"attributes":{"ID":565970,"DIS_CODE":0,"TOWNNAME":"中西區","LI":"三民里","LIN":"9鄰","STREET":"中山路","SECT":" ","MAREA":" ","LANE":" ","ALLEY":" ","HOUSE_NO":"６５號","E_COORD97":168701.70000000001,"N_COORD97":2543831.3599999999,"ADDRESS":"中山路６５號","OBJECTID":565943},"geometry":{"x":168701.70000000019,"y":2543831.3600000031}},{"attributes":{"ID":565971,"DIS_CODE":0,"TOWNNAME":"中西區","LI":"三民里","LIN":"9鄰","STREET":"中山路","SECT":" ","MAREA":" ","LANE":" ","ALLEY":" ","HOUSE_NO":"６７號","E_COORD97":168707.22,"N_COORD97":2543835.4500000002,"ADDRESS":"中山路６７號","OBJECTID":565944},"geometry":{"x":168707.22000000067,"y":2543835.4500000011}},{"attributes":{"ID":565972,"DIS_CODE":0,"TOWNNAME":"中西區","LI":"三民里","LIN":"9鄰","STREET":"中山路","SECT":" ","MAREA":" ","LANE":" ","ALLEY":" ","HOUSE_NO":"６９號","E_COORD97":168709.70999999999,"N_COORD97":2543836.8700000001,"ADDRESS":"中山路６９號","OBJECTID":565945},"geometry":{"x":168709.70999999996,"y":2543836.8700000029}},{"attributes":{"ID":565973,"DIS_CODE":0,"TOWNNAME":"中西區","LI":"三民里","LIN":"9鄰","STREET":"中山路","SECT":" ","MAREA":" ","LANE":" ","ALLEY":" ","HOUSE_NO":"７１號","E_COORD97":168712.56,"N_COORD97":2543840.0699999998,"ADDRESS":"中山路７１號","OBJECTID":565946},"geometry":{"x":168712.56000000145,"y":2543840.0700000003}},{"attributes":{"ID":565974,"DIS_CODE":0,"TOWNNAME":"中西區","LI":"三民里","LIN":"9鄰","STREET":"民權路","SECT":"二段","MAREA":" ","LANE":" ","ALLEY":" ","HOUSE_NO":"１０號","E_COORD97":168650.92000000001,"N_COORD97":2543830.1699999999,"ADDRESS":"民權路二段１０號","OBJECTID":565947},"geometry":{"x":168650.91999999993,"y":2543830.1700000018}},{"attributes":{"ID":565975,"DIS_CODE":0,"TOWNNAME":"中西區","LI":"三民里","LIN":"9鄰","STREET":"民權路","SECT":"二段","MAREA":" ","LANE":" ","ALLEY":" ","HOUSE_NO":"１２號","E_COORD97":168647.53,"N_COORD97":2543832.4900000002,"ADDRESS":"民權路二段１２號","OBJECTID":565948},"geometry":{"x":168647.53000000119,"y":2543832.4900000021}},{"attributes":{"ID":565976,"DIS_CODE":0,"TOWNNAME":"中西區","LI":"三民里","LIN":"9鄰","STREET":"民權路","SECT":"二段","MAREA":" ","LANE":" ","ALLEY":" ","HOUSE_NO":"１４號","E_COORD97":168644.32999999999,"N_COORD97":2543834.9700000002,"ADDRESS":"民權路二段１４號","OBJECTID":565949},"geometry":{"x":168644.33000000007,"y":2543834.9700000007}},{"attributes":{"ID":565977,"DIS_CODE":0,"TOWNNAME":"中西區","LI":"三民里","LIN":"9鄰","STREET":"民權路","SECT":"二段","MAREA":" ","LANE":" ","ALLEY":" ","HOUSE_NO":"１６號","E_COORD97":168640.59,"N_COORD97":2543836.9300000002,"ADDRESS":"民權路二段１６號","OBJECTID":565950},"geometry":{"x":168640.58999999985,"y":2543836.9299999997}},{"attributes":{"ID":565978,"DIS_CODE":0,"TOWNNAME":"中西區","LI":"三民里","LIN":"9鄰","STREET":"民權路","SECT":"二段","MAREA":" ","LANE":" ","ALLEY":" ","HOUSE_NO":"１８號","E_COORD97":168636.85000000001,"N_COORD97":2543838.8900000001,"ADDRESS":"民權路二段１８號","OBJECTID":565951},"geometry":{"x":168636.85000000056,"y":2543838.8899999987}},{"attributes":{"ID":565979,"DIS_CODE":0,"TOWNNAME":"中西區","LI":"三民里","LIN":"9鄰","STREET":"民權路","SECT":"二段","MAREA":" ","LANE":" ","ALLEY":" ","HOUSE_NO":"２０號","E_COORD97":168634,"N_COORD97":2543840.4900000002,"ADDRESS":"民權路二段２０號","OBJECTID":565952},"geometry":{"x":168634.00000000093,"y":2543840.4900000002}},{"attributes":{"ID":565980,"DIS_CODE":0,"TOWNNAME":"中西區","LI":"三民里","LIN":"9鄰","STREET":"民權路","SECT":"二段","MAREA":" ","LANE":" ","ALLEY":" ","HOUSE_NO":"２２號","E_COORD97":168630.44,"N_COORD97":2543842.0899999999,"ADDRESS":"民權路二段２２號","OBJECTID":565953},"geometry":{"x":168630.44000000041,"y":2543842.0900000017}},{"attributes":{"ID":565981,"DIS_CODE":0,"TOWNNAME":"中西區","LI":"三民里","LIN":"9鄰","STREET":"民權路","SECT":"二段","MAREA":" ","LANE":" ","ALLEY":" ","HOUSE_NO":"２４號","E_COORD97":168627.59,"N_COORD97":2543844.3999999999,"ADDRESS":"民權路二段２４號","OBJECTID":565954},"geometry":{"x":168627.58999999985,"y":2543844.4000000004}},{"attributes":{"ID":565982,"DIS_CODE":0,"TOWNNAME":"中西區","LI":"三民里","LIN":"9鄰","STREET":"民權路","SECT":"二段","MAREA":" ","LANE":" ","ALLEY":" ","HOUSE_NO":"２６號","E_COORD97":168624.57000000001,"N_COORD97":2543847.0600000001,"ADDRESS":"民權路二段２６號","OBJECTID":565955},"geometry":{"x":168624.5700000003,"y":2543847.0600000005}},{"attributes":{"ID":565983,"DIS_CODE":0,"TOWNNAME":"中西區","LI":"三民里","LIN":"9鄰","STREET":"民權路","SECT":"二段","MAREA":" ","LANE":" ","ALLEY":" ","HOUSE_NO":"２８號","E_COORD97":168619.57999999999,"N_COORD97":2543848.4900000002,"ADDRESS":"民權路二段２８號","OBJECTID":565956},"geometry":{"x":168619.57999999914,"y":2543848.4900000039}},{"attributes":{"ID":565984,"DIS_CODE":0,"TOWNNAME":"中西區","LI":"三民里","LIN":"9鄰","STREET":"民權路","SECT":"二段","MAREA":" ","LANE":" ","ALLEY":" ","HOUSE_NO":"２號","E_COORD97":168664.67000000001,"N_COORD97":2543819.27,"ADDRESS":"民權路二段２號","OBJECTID":565957},"geometry":{"x":168664.67000000179,"y":2543819.2700000014}},{"attributes":{"ID":565985,"DIS_CODE":0,"TOWNNAME":"中西區","LI":"三民里","LIN":"9鄰","STREET":"民權路","SECT":"二段","MAREA":" ","LANE":" ","ALLEY":" ","HOUSE_NO":"６號","E_COORD97":168656.48000000001,"N_COORD97":2543825.3500000001,"ADDRESS":"民權路二段６號","OBJECTID":565958},"geometry":{"x":168656.48000000231,"y":2543825.3500000015}},{"attributes":{"ID":565986,"DIS_CODE":0,"TOWNNAME":"中西區","LI":"三民里","LIN":"9鄰","STREET":"民權路","SECT":"二段","MAREA":" ","LANE":" ","ALLEY":" ","HOUSE_NO":"８號","E_COORD97":168654.29999999999,"N_COORD97":2543828.04,"ADDRESS":"民權路二段８號","OBJECTID":565959},"geometry":{"x":168654.30000000075,"y":2543828.040000001}},{"attributes":{"ID":565987,"DIS_CODE":0,"TOWNNAME":"東區","LI":"中西里","LIN":"9鄰","STREET":"勝利路","SECT":" ","MAREA":" ","LANE":" ","ALLEY":" ","HOUSE_NO":"６６號","E_COORD97":169848.76999999999,"N_COORD97":2543594.2400000002,"ADDRESS":"勝利路６６號","OBJECTID":565960},"geometry":{"x":169848.77000000048,"y":2543594.2400000002}},{"attributes":{"ID":565988,"DIS_CODE":0,"TOWNNAME":"東區","LI":"裕農里","LIN":"9鄰","STREET":"裕農路","SECT":" ","MAREA":" ","LANE":" ","ALLEY":" ","HOUSE_NO":"４３５號","E_COORD97":171225.04999999999,"N_COORD97":2543170.6099999999,"ADDRESS":"裕農路４３５號","OBJECTID":565961},"geometry":{"x":171225.04999999888,"y":2543170.6099999994}},{"attributes":{"ID":565989,"DIS_CODE":0,"TOWNNAME":"東區","LI":"裕農里","LIN":"9鄰","STREET":"裕農路","SECT":" ","MAREA":" ","LANE":" ","ALLEY":" ","HOUSE_NO":"４３７號","E_COORD97":171227.63,"N_COORD97":2543173.1899999999,"ADDRESS":"裕農路４３７號","OBJECTID":565962},"geometry":{"x":171227.62999999989,"y":2543173.1899999995}},{"attributes":{"ID":565990,"DIS_CODE":0,"TOWNNAME":"東區","LI":"中西里","LIN":"9鄰","STREET":"勝利路","SECT":" ","MAREA":" ","LANE":" ","ALLEY":" ","HOUSE_NO":"５８號","E_COORD97":169823.67000000001,"N_COORD97":2543585.29,"ADDRESS":"勝利路５８號","OBJECTID":565963},"geometry":{"x":169823.66999999993,"y":2543585.290000001}},{"attributes":{"ID":565991,"DIS_CODE":0,"TOWNNAME":"東區","LI":"中西里","LIN":"9鄰","STREET":"勝利路","SECT":" ","MAREA":" ","LANE":" ","ALLEY":" ","HOUSE_NO":"５６號之１","E_COORD97":169823.67000000001,"N_COORD97":2543579.02,"ADDRESS":"勝利路５６號之１","OBJECTID":565964},"geometry":{"x":169823.66999999993,"y":2543579.0199999996}},{"attributes":{"ID":565992,"DIS_CODE":0,"TOWNNAME":"東區","LI":"大學里","LIN":"9鄰","STREET":"東寧路","SECT":" ","MAREA":" ","LANE":" ","ALLEY":" ","HOUSE_NO":"４５號","E_COORD97":170167.28,"N_COORD97":2543627.7000000002,"ADDRESS":"東寧路４５號","OBJECTID":565965},"geometry":{"x":170167.28000000026,"y":2543627.6999999993}},{"attributes":{"ID":565993,"DIS_CODE":0,"TOWNNAME":"東區","LI":"大學里","LIN":"9鄰","STREET":"東寧路","SECT":" ","MAREA":" ","LANE":" ","ALLEY":" ","HOUSE_NO":"４３號之１","E_COORD97":170157.89000000001,"N_COORD97":2543628.3900000001,"ADDRESS":"東寧路４３號之１","OBJECTID":565966},"geometry":{"x":170157.88999999966,"y":2543628.3900000006}},{"attributes":{"ID":565994,"DIS_CODE":0,"TOWNNAME":"東區","LI":"大學里","LIN":"9鄰","STREET":"東寧路","SECT":" ","MAREA":" ","LANE":" ","ALLEY":" ","HOUSE_NO":"４３號","E_COORD97":170161.57999999999,"N_COORD97":2543629.4399999999,"ADDRESS":"東寧路４３號","OBJECTID":565967},"geometry":{"x":170161.58000000007,"y":2543629.4399999995}},{"attributes":{"ID":565995,"DIS_CODE":0,"TOWNNAME":"中西區","LI":"萬昌里","LIN":"9鄰","STREET":"民權路","SECT":"一段","MAREA":" ","LANE":" ","ALLEY":" ","HOUSE_NO":"１３７號","E_COORD97":168863.67999999999,"N_COORD97":2543482.7599999998,"ADDRESS":"民權路一段１３７號","OBJECTID":565968},"geometry":{"x":168863.6799999997,"y":2543482.7599999998}},{"attributes":{"ID":565996,"DIS_CODE":0,"TOWNNAME":"中西區","LI":"萬昌里","LIN":"9鄰","STREET":"民權路","SECT":"一段","MAREA":" ","LANE":" ","ALLEY":" ","HOUSE_NO":"１３９號","E_COORD97":168860.97,"N_COORD97":2543485.3300000001,"ADDRESS":"民權路一段１３９號","OBJECTID":565969},"geometry":{"x":168860.97000000067,"y":2543485.3300000001}},{"attributes":{"ID":565997,"DIS_CODE":0,"TOWNNAME":"中西區","LI":"萬昌里","LIN":"9鄰","STREET":"民權路","SECT":"一段","MAREA":" ","LANE":" ","ALLEY":" ","HOUSE_NO":"１４１號","E_COORD97":168857.44,"N_COORD97":2543488.3100000001,"ADDRESS":"民權路一段１４１號","OBJECTID":565970},"geometry":{"x":168857.44000000134,"y":2543488.3100000024}},{"attributes":{"ID":565998,"DIS_CODE":0,"TOWNNAME":"中西區","LI":"萬昌里","LIN":"9鄰","STREET":"民權路","SECT":"一段","MAREA":" ","LANE":" ","ALLEY":" ","HOUSE_NO":"１４３號","E_COORD97":168854.85999999999,"N_COORD97":2543491.1600000001,"ADDRESS":"民權路一段１４３號","OBJECTID":565971},"geometry":{"x":168854.86000000034,"y":2543491.1600000039}},{"attributes":{"ID":565999,"DIS_CODE":0,"TOWNNAME":"中西區","LI":"萬昌里","LIN":"9鄰","STREET":"民權路","SECT":"一段","MAREA":" ","LANE":" ","ALLEY":" ","HOUSE_NO":"１４５號","E_COORD97":168851.47,"N_COORD97":2543493.6000000001,"ADDRESS":"民權路一段１４５號","OBJECTID":565972},"geometry":{"x":168851.46999999974,"y":2543493.5999999996}},{"attributes":{"ID":566000,"DIS_CODE":0,"TOWNNAME":"中西區","LI":"萬昌里","LIN":"9鄰","STREET":"城隍街","SECT":" ","MAREA":" ","LANE":" ","ALLEY":" ","HOUSE_NO":"６９號","E_COORD97":168883.56,"N_COORD97":2543521.5600000001,"ADDRESS":"城隍街６９號","OBJECTID":565973},"geometry":{"x":168883.55999999959,"y":2543521.5600000005}},{"attributes":{"ID":566001,"DIS_CODE":0,"TOWNNAME":"中西區","LI":"萬昌里","LIN":"9鄰","STREET":"城隍街","SECT":" ","MAREA":" ","LANE":" ","ALLEY":" ","HOUSE_NO":"７１號","E_COORD97":168883.29999999999,"N_COORD97":2543527.04,"ADDRESS":"城隍街７１號","OBJECTID":565974},"geometry":{"x":168883.29999999981,"y":2543527.0399999991}},{"attributes":{"ID":566002,"DIS_CODE":0,"TOWNNAME":"中西區","LI":"萬昌里","LIN":"9鄰","STREET":"城隍街","SECT":" ","MAREA":" ","LANE":" ","ALLEY":" ","HOUSE_NO":"７３號","E_COORD97":168881.51000000001,"N_COORD97":2543533.5299999998,"ADDRESS":"城隍街７３號","OBJECTID":565975},"geometry":{"x":168881.51000000071,"y":2543533.5299999993}},{"attributes":{"ID":566003,"DIS_CODE":0,"TOWNNAME":"中西區","LI":"萬昌里","LIN":"9鄰","STREET":"城隍街","SECT":" ","MAREA":" ","LANE":" ","ALLEY":" ","HOUSE_NO":"５１號","E_COORD97":168830.64000000001,"N_COORD97":2543422.1000000001,"ADDRESS":"城隍街５１號","OBJECTID":565976},"geometry":{"x":168830.63999999873,"y":2543422.0999999996}},{"attributes":{"ID":566004,"DIS_CODE":0,"TOWNNAME":"中西區","LI":"萬昌里","LIN":"9鄰","STREET":"城隍街","SECT":" ","MAREA":" ","LANE":" ","ALLEY":" ","HOUSE_NO":"５３號","E_COORD97":168831.41,"N_COORD97":2543426.5899999999,"ADDRESS":"城隍街５３號","OBJECTID":565977},"geometry":{"x":168831.41000000108,"y":2543426.589999998}},{"attributes":{"ID":566005,"DIS_CODE":0,"TOWNNAME":"中西區","LI":"萬昌里","LIN":"9鄰","STREET":"城隍街","SECT":" ","MAREA":" ","LANE":" ","ALLEY":" ","HOUSE_NO":"５５號","E_COORD97":168834.04000000001,"N_COORD97":2543433.7200000002,"ADDRESS":"城隍街５５號","OBJECTID":565978},"geometry":{"x":168834.04000000097,"y":2543433.7200000044}},{"attributes":{"ID":566006,"DIS_CODE":0,"TOWNNAME":"中西區","LI":"萬昌里","LIN":"9鄰","STREET":"城隍街","SECT":" ","MAREA":" ","LANE":" ","ALLEY":" ","HOUSE_NO":"６１號","E_COORD97":168842.95999999999,"N_COORD97":2543443.7400000002,"ADDRESS":"城隍街６１號","OBJECTID":565979},"geometry":{"x":168842.96000000089,"y":2543443.7400000021}},{"attributes":{"ID":566007,"DIS_CODE":0,"TOWNNAME":"中西區","LI":"萬昌里","LIN":"9鄰","STREET":"城隍街","SECT":" ","MAREA":" ","LANE":" ","ALLEY":" ","HOUSE_NO":"６３號","E_COORD97":168844.89999999999,"N_COORD97":2543448.1499999999,"ADDRESS":"城隍街６３號","OBJECTID":565980},"geometry":{"x":168844.89999999944,"y":2543448.1500000022}},{"attributes":{"ID":566008,"DIS_CODE":0,"TOWNNAME":"中西區","LI":"萬昌里","LIN":"9鄰","STREET":"城隍街","SECT":" ","MAREA":" ","LANE":" ","ALLEY":" ","HOUSE_NO":"６５號","E_COORD97":168850.57000000001,"N_COORD97":2543450.1600000001,"ADDRESS":"城隍街６５號","OBJECTID":565981},"geometry":{"x":168850.57000000216,"y":2543450.1599999983}},{"attributes":{"ID":566009,"DIS_CODE":0,"TOWNNAME":"中西區","LI":"萬昌里","LIN":"9鄰","STREET":"城隍街","SECT":" ","MAREA":" ","LANE":" ","ALLEY":" ","HOUSE_NO":"６７號","E_COORD97":168835.20999999999,"N_COORD97":2543452.4399999999,"ADDRESS":"城隍街６７號","OBJECTID":565982},"geometry":{"x":168835.20999999996,"y":2543452.4400000013}},{"attributes":{"ID":566010,"DIS_CODE":0,"TOWNNAME":"中西區","LI":"仙草里","LIN":"9鄰","STREET":"府緯街","SECT":" ","MAREA":" ","LANE":" ","ALLEY":" ","HOUSE_NO":"４８號","E_COORD97":167851.14999999999,"N_COORD97":2542731.0099999998,"ADDRESS":"府緯街４８號","OBJECTID":565983},"geometry":{"x":167851.15000000037,"y":2542731.0099999998}},{"attributes":{"ID":566011,"DIS_CODE":0,"TOWNNAME":"中西區","LI":"仙草里","LIN":"9鄰","STREET":"府緯街","SECT":" ","MAREA":" ","LANE":" ","ALLEY":" ","HOUSE_NO":"５０號","E_COORD97":167845.60000000001,"N_COORD97":2542730.1400000001,"ADDRESS":"府緯街５０號","OBJECTID":565984},"geometry":{"x":167845.59999999963,"y":2542730.1400000025}},{"attributes":{"ID":566012,"DIS_CODE":0,"TOWNNAME":"中西區","LI":"仙草里","LIN":"9鄰","STREET":"府緯街","SECT":" ","MAREA":" ","LANE":" ","ALLEY":" ","HOUSE_NO":"５２號","E_COORD97":167840.56,"N_COORD97":2542730.1400000001,"ADDRESS":"府緯街５２號","OBJECTID":565985},"geometry":{"x":167840.55999999959,"y":2542730.1400000025}},{"attributes":{"ID":566013,"DIS_CODE":0,"TOWNNAME":"中西區","LI":"仙草里","LIN":"9鄰","STREET":"府緯街","SECT":" ","MAREA":" ","LANE":" ","ALLEY":" ","HOUSE_NO":"５６號","E_COORD97":167827.89000000001,"N_COORD97":2542730.4900000002,"ADDRESS":"府緯街５６號","OBJECTID":565986},"geometry":{"x":167827.8900000006,"y":2542730.4900000021}},{"attributes":{"ID":566014,"DIS_CODE":0,"TOWNNAME":"中西區","LI":"仙草里","LIN":"9鄰","STREET":"南寧街","SECT":" ","MAREA":" ","LANE":" ","ALLEY":" ","HOUSE_NO":"７３號","E_COORD97":167839.20999999999,"N_COORD97":2542842.1200000001,"ADDRESS":"南寧街７３號","OBJECTID":565987},"geometry":{"x":167839.21000000089,"y":2542842.1200000029}},{"attributes":{"ID":566015,"DIS_CODE":0,"TOWNNAME":"中西區","LI":"仙草里","LIN":"9鄰","STREET":"南寧街","SECT":" ","MAREA":" ","LANE":" ","ALLEY":" ","HOUSE_NO":"７５號","E_COORD97":167835.04000000001,"N_COORD97":2542845.4100000001,"ADDRESS":"南寧街７５號","OBJECTID":565988},"geometry":{"x":167835.0400000019,"y":2542845.4100000039}},{"attributes":{"ID":566016,"DIS_CODE":0,"TOWNNAME":"中西區","LI":"仙草里","LIN":"9鄰","STREET":"南寧街","SECT":" ","MAREA":" ","LANE":" ","ALLEY":" ","HOUSE_NO":"７７號","E_COORD97":167831.92000000001,"N_COORD97":2542843.6800000002,"ADDRESS":"南寧街７７號","OBJECTID":565989},"geometry":{"x":167831.91999999993,"y":2542843.6800000016}},{"attributes":{"ID":566017,"DIS_CODE":0,"TOWNNAME":"善化區","LI":"南關里","LIN":"5鄰","STREET":"文昌路","SECT":" ","MAREA":" ","LANE":" ","ALLEY":" ","HOUSE_NO":"７０號","E_COORD97":177082.22,"N_COORD97":2558654.2799999998,"ADDRESS":"文昌路７０號","OBJECTID":565990},"geometry":{"x":177082.21999999974,"y":2558654.2799999975}},{"attributes":{"ID":566018,"DIS_CODE":0,"TOWNNAME":"新化區","LI":"唪口里","LIN":"9鄰","STREET":"大德路","SECT":" ","MAREA":" ","LANE":" ","ALLEY":" ","HOUSE_NO":"１９６號","E_COORD97":177657.47,"N_COORD97":2549378.6899999999,"ADDRESS":"大德路１９６號","OBJECTID":565991},"geometry":{"x":177657.47000000067,"y":2549378.6899999995}},{"attributes":{"ID":566019,"DIS_CODE":0,"TOWNNAME":"安南區","LI":"城北里","LIN":"9鄰","STREET":"城北路","SECT":" ","MAREA":" ","LANE":" ","ALLEY":" ","HOUSE_NO":"１５號","E_COORD97":160851.62,"N_COORD97":2551505.2000000002,"ADDRESS":"城北路１５號","OBJECTID":565992},"geometry":{"x":160851.62000000011,"y":2551505.2000000011}},{"attributes":{"ID":566020,"DIS_CODE":0,"TOWNNAME":"安南區","LI":"城北里","LIN":"9鄰","STREET":"城北路","SECT":" ","MAREA":" ","LANE":" ","ALLEY":" ","HOUSE_NO":"２１號","E_COORD97":160855.14000000001,"N_COORD97":2551508.0899999999,"ADDRESS":"城北路２１號","OBJECTID":565993},"geometry":{"x":160855.1400000006,"y":2551508.0899999999}},{"attributes":{"ID":566021,"DIS_CODE":0,"TOWNNAME":"安南區","LI":"城北里","LIN":"9鄰","STREET":"城北路","SECT":" ","MAREA":" ","LANE":" ","ALLEY":" ","HOUSE_NO":"３號","E_COORD97":160832.44,"N_COORD97":2551494.6600000001,"ADDRESS":"城北路３號","OBJECTID":565994},"geometry":{"x":160832.44000000134,"y":2551494.6600000001}},{"attributes":{"ID":566022,"DIS_CODE":0,"TOWNNAME":"安南區","LI":"城北里","LIN":"9鄰","STREET":"城北路","SECT":" ","MAREA":" ","LANE":" ","ALLEY":" ","HOUSE_NO":"４５號","E_COORD97":160911.22,"N_COORD97":2551534.2400000002,"ADDRESS":"城北路４５號","OBJECTID":565995},"geometry":{"x":160911.21999999974,"y":2551534.2400000021}},{"attributes":{"ID":566023,"DIS_CODE":0,"TOWNNAME":"安南區","LI":"城北里","LIN":"9鄰","STREET":"城北路","SECT":" ","MAREA":" ","LANE":" ","ALLEY":" ","HOUSE_NO":"４７號","E_COORD97":160913.22,"N_COORD97":2551541.8900000001,"ADDRESS":"城北路４７號","OBJECTID":565996},"geometry":{"x":160913.21999999974,"y":2551541.8899999987}},{"attributes":{"ID":566024,"DIS_CODE":0,"TOWNNAME":"安南區","LI":"城北里","LIN":"9鄰","STREET":"城北路","SECT":" ","MAREA":" ","LANE":" ","ALLEY":" ","HOUSE_NO":"５號","E_COORD97":160835.45999999999,"N_COORD97":2551496.27,"ADDRESS":"城北路５號","OBJECTID":565997},"geometry":{"x":160835.45999999996,"y":2551496.2699999996}},{"attributes":{"ID":566025,"DIS_CODE":0,"TOWNNAME":"安南區","LI":"城北里","LIN":"9鄰","STREET":"城北路","SECT":" ","MAREA":" ","LANE":" ","ALLEY":" ","HOUSE_NO":"７１號","E_COORD97":160954.92999999999,"N_COORD97":2551565.1000000001,"ADDRESS":"城北路７１號","OBJECTID":565998},"geometry":{"x":160954.93000000063,"y":2551565.0999999996}},{"attributes":{"ID":566026,"DIS_CODE":0,"TOWNNAME":"安南區","LI":"城北里","LIN":"9鄰","STREET":"城北路","SECT":" ","MAREA":" ","LANE":" ","ALLEY":" ","HOUSE_NO":"７５號","E_COORD97":160961.59,"N_COORD97":2551570.4300000002,"ADDRESS":"城北路７５號","OBJECTID":565999},"geometry":{"x":160961.58999999985,"y":2551570.4299999997}},{"attributes":{"ID":566027,"DIS_CODE":0,"TOWNNAME":"安南區","LI":"城北里","LIN":"9鄰","STREET":"城北路","SECT":" ","MAREA":" ","LANE":" ","ALLEY":" ","HOUSE_NO":"７９號","E_COORD97":160966.76000000001,"N_COORD97":2551575.75,"ADDRESS":"城北路７９號","OBJECTID":566000},"geometry":{"x":160966.76000000071,"y":2551575.75}}]}