{"displayFieldName":"TOWNNAME","fieldAliases":{"ID":"ID","DIS_CODE":"DIS_CODE","TOWNNAME":"TOWNNAME","LI":"LI","LIN":"LIN","STREET":"STREET","SECT":"SECT","MAREA":"MAREA","LANE":"LANE","ALLEY":"ALLEY","HOUSE_NO":"HOUSE_NO","E_COORD97":"E_COORD97","N_COORD97":"N_COORD97","ADDRESS":"ADDRESS","OBJECTID":"OBJECTID"},"geometryType":"esriGeometryPoint","spatialReference":{"wkid":102443,"latestWkid":3826},"fields":[{"name":"ID","type":"esriFieldTypeDouble","alias":"ID"},{"name":"DIS_CODE","type":"esriFieldTypeInteger","alias":"DIS_CODE"},{"name":"TOWNNAME","type":"esriFieldTypeString","alias":"TOWNNAME","length":8},{"name":"LI","type":"esriFieldTypeString","alias":"LI","length":8},{"name":"LIN","type":"esriFieldTypeString","alias":"LIN","length":12},{"name":"STREET","type":"esriFieldTypeString","alias":"STREET","length":20},{"name":"SECT","type":"esriFieldTypeString","alias":"SECT","length":8},{"name":"MAREA","type":"esriFieldTypeString","alias":"MAREA","length":12},{"name":"LANE","type":"esriFieldTypeString","alias":"LANE","length":10},{"name":"ALLEY","type":"esriFieldTypeString","alias":"ALLEY","length":10},{"name":"HOUSE_NO","type":"esriFieldTypeString","alias":"HOUSE_NO","length":20},{"name":"E_COORD97","type":"esriFieldTypeDouble","alias":"E_COORD97"},{"name":"N_COORD97","type":"esriFieldTypeDouble","alias":"N_COORD97"},{"name":"ADDRESS","type":"esriFieldTypeString","alias":"ADDRESS","length":50},{"name":"OBJECTID","type":"esriFieldTypeOID","alias":"OBJECTID"}],"features":[{"attributes":{"ID":227805,"DIS_CODE":0,"TOWNNAME":"歸仁區","LI":"八甲里","LIN":"23鄰","STREET":"大仁街","SECT":" ","MAREA":" ","LANE":"３１１巷","ALLEY":" ","HOUSE_NO":"２０號","E_COORD97":178163.54000000001,"N_COORD97":2541352.25,"ADDRESS":"大仁街３１１巷２０號","OBJECTID":227801},"geometry":{"x":178163.54000000004,"y":2541352.2500000019}},{"attributes":{"ID":227806,"DIS_CODE":0,"TOWNNAME":"歸仁區","LI":"大廟里","LIN":"23鄰","STREET":"大廟一街","SECT":" ","MAREA":" ","LANE":"９０巷","ALLEY":" ","HOUSE_NO":"４３號","E_COORD97":175621.82000000001,"N_COORD97":2543972.25,"ADDRESS":"大廟一街９０巷４３號","OBJECTID":227802},"geometry":{"x":175621.82000000123,"y":2543972.2500000019}},{"attributes":{"ID":227807,"DIS_CODE":0,"TOWNNAME":"新營區","LI":"大宏里","LIN":"23鄰","STREET":"民治路","SECT":" ","MAREA":" ","LANE":" ","ALLEY":" ","HOUSE_NO":"１號之３７","E_COORD97":180638.37,"N_COORD97":2578814.5099999998,"ADDRESS":"民治路１號之３７","OBJECTID":227803},"geometry":{"x":180638.37000000197,"y":2578814.5099999998}},{"attributes":{"ID":227808,"DIS_CODE":0,"TOWNNAME":"新營區","LI":"大宏里","LIN":"23鄰","STREET":"民治路","SECT":" ","MAREA":" ","LANE":" ","ALLEY":" ","HOUSE_NO":"１號之４","E_COORD97":180623.07000000001,"N_COORD97":2578882.1400000001,"ADDRESS":"民治路１號之４","OBJECTID":227804},"geometry":{"x":180623.0700000003,"y":2578882.1400000006}},{"attributes":{"ID":227809,"DIS_CODE":0,"TOWNNAME":"新營區","LI":"王公里","LIN":"23鄰","STREET":"樂仁街","SECT":" ","MAREA":" ","LANE":" ","ALLEY":" ","HOUSE_NO":"３８號","E_COORD97":180532.48999999999,"N_COORD97":2579152.73,"ADDRESS":"樂仁街３８號","OBJECTID":227805},"geometry":{"x":180532.49000000209,"y":2579152.7300000004}},{"attributes":{"ID":227810,"DIS_CODE":0,"TOWNNAME":"新營區","LI":"民生里","LIN":"23鄰","STREET":"民生路","SECT":" ","MAREA":" ","LANE":" ","ALLEY":" ","HOUSE_NO":"８９之２號","E_COORD97":179147.76000000001,"N_COORD97":2578455.0099999998,"ADDRESS":"民生路８９之２號","OBJECTID":227806},"geometry":{"x":179147.76000000071,"y":2578455.0099999998}},{"attributes":{"ID":227811,"DIS_CODE":0,"TOWNNAME":"新營區","LI":"王公里","LIN":"23鄰","STREET":"樂仁街","SECT":" ","MAREA":" ","LANE":" ","ALLEY":" ","HOUSE_NO":"３７號","E_COORD97":180515.17999999999,"N_COORD97":2579169.4199999999,"ADDRESS":"樂仁街３７號","OBJECTID":227807},"geometry":{"x":180515.1799999997,"y":2579169.4200000037}},{"attributes":{"ID":227812,"DIS_CODE":0,"TOWNNAME":"新營區","LI":"大宏里","LIN":"23鄰","STREET":"民治路","SECT":" ","MAREA":" ","LANE":" ","ALLEY":" ","HOUSE_NO":"１號之３８","E_COORD97":180645.59,"N_COORD97":2578810.0499999998,"ADDRESS":"民治路１號之３８","OBJECTID":227808},"geometry":{"x":180645.59000000078,"y":2578810.0500000045}},{"attributes":{"ID":227813,"DIS_CODE":0,"TOWNNAME":"新營區","LI":"民生里","LIN":"23鄰","STREET":"民生路","SECT":" ","MAREA":" ","LANE":" ","ALLEY":" ","HOUSE_NO":"７１號","E_COORD97":179166.79000000001,"N_COORD97":2578473.6800000002,"ADDRESS":"民生路７１號","OBJECTID":227809},"geometry":{"x":179166.79000000004,"y":2578473.6800000016}},{"attributes":{"ID":227814,"DIS_CODE":0,"TOWNNAME":"新營區","LI":"大宏里","LIN":"23鄰","STREET":"民治路","SECT":" ","MAREA":" ","LANE":" ","ALLEY":" ","HOUSE_NO":"１號之１８","E_COORD97":180623.07999999999,"N_COORD97":2578809.0499999998,"ADDRESS":"民治路１號之１８","OBJECTID":227810},"geometry":{"x":180623.08000000007,"y":2578809.0500000007}},{"attributes":{"ID":227815,"DIS_CODE":0,"TOWNNAME":"歸仁區","LI":"八甲里","LIN":"23鄰","STREET":"大德路","SECT":" ","MAREA":" ","LANE":"１１４巷","ALLEY":" ","HOUSE_NO":"１８號","E_COORD97":178129.73999999999,"N_COORD97":2541364.25,"ADDRESS":"大德路１１４巷１８號","OBJECTID":227811},"geometry":{"x":178129.74000000022,"y":2541364.2499999981}},{"attributes":{"ID":227816,"DIS_CODE":0,"TOWNNAME":"安南區","LI":"海西里","LIN":"3鄰","STREET":"海中街","SECT":" ","MAREA":" ","LANE":"１６９巷","ALLEY":" ","HOUSE_NO":"１９號","E_COORD97":166317.79999999999,"N_COORD97":2549102.46,"ADDRESS":"海中街１６９巷１９號","OBJECTID":227812},"geometry":{"x":166317.80000000075,"y":2549102.4600000028}},{"attributes":{"ID":227817,"DIS_CODE":0,"TOWNNAME":"安南區","LI":"海西里","LIN":"3鄰","STREET":"海中街","SECT":" ","MAREA":" ","LANE":"１６９巷","ALLEY":" ","HOUSE_NO":"２３號","E_COORD97":166307.75,"N_COORD97":2549094.9300000002,"ADDRESS":"海中街１６９巷２３號","OBJECTID":227813},"geometry":{"x":166307.75,"y":2549094.9299999997}},{"attributes":{"ID":227818,"DIS_CODE":0,"TOWNNAME":"柳營區","LI":"光福里","LIN":"23鄰","STREET":" ","SECT":" ","MAREA":"柳營","LANE":" ","ALLEY":" ","HOUSE_NO":"２５６之１５號","E_COORD97":179647.44,"N_COORD97":2575403.75,"ADDRESS":"柳營２５６之１５號","OBJECTID":227814},"geometry":{"x":179647.44000000041,"y":2575403.7499999981}},{"attributes":{"ID":227819,"DIS_CODE":0,"TOWNNAME":"安南區","LI":"海西里","LIN":"3鄰","STREET":"海中街","SECT":" ","MAREA":" ","LANE":"１６９巷","ALLEY":" ","HOUSE_NO":"２５號","E_COORD97":166314.87,"N_COORD97":2549086.1499999999,"ADDRESS":"海中街１６９巷２５號","OBJECTID":227815},"geometry":{"x":166314.87000000011,"y":2549086.1500000022}},{"attributes":{"ID":227820,"DIS_CODE":0,"TOWNNAME":"新營區","LI":"民榮里","LIN":"34鄰","STREET":"復興路","SECT":" ","MAREA":" ","LANE":" ","ALLEY":" ","HOUSE_NO":"３０１號七樓之２","E_COORD97":178608.67000000001,"N_COORD97":2578135.3500000001,"ADDRESS":"復興路３０１號七樓之２","OBJECTID":227816},"geometry":{"x":178608.67000000179,"y":2578135.3500000034}},{"attributes":{"ID":227821,"DIS_CODE":0,"TOWNNAME":"歸仁區","LI":"八甲里","LIN":"20鄰","STREET":"大仁三街","SECT":" ","MAREA":" ","LANE":"２０巷","ALLEY":" ","HOUSE_NO":"６１號","E_COORD97":178627.96721599999,"N_COORD97":2541241.0455200002,"ADDRESS":"大仁三街２０巷６１號","OBJECTID":227817},"geometry":{"x":178627.96721599996,"y":2541241.0455210004}},{"attributes":{"ID":227822,"DIS_CODE":0,"TOWNNAME":"柳營區","LI":"光福里","LIN":"23鄰","STREET":" ","SECT":" ","MAREA":"柳營","LANE":" ","ALLEY":" ","HOUSE_NO":"２５６之１６號","E_COORD97":179646.54999999999,"N_COORD97":2575407.73,"ADDRESS":"柳營２５６之１６號","OBJECTID":227818},"geometry":{"x":179646.54999999981,"y":2575407.7299999986}},{"attributes":{"ID":227823,"DIS_CODE":0,"TOWNNAME":"柳營區","LI":"光福里","LIN":"23鄰","STREET":" ","SECT":" ","MAREA":"柳營","LANE":" ","ALLEY":" ","HOUSE_NO":"２５６之１７號","E_COORD97":179645.66,"N_COORD97":2575411.71,"ADDRESS":"柳營２５６之１７號","OBJECTID":227819},"geometry":{"x":179645.66000000015,"y":2575411.709999999}},{"attributes":{"ID":227824,"DIS_CODE":0,"TOWNNAME":"柳營區","LI":"光福里","LIN":"23鄰","STREET":" ","SECT":" ","MAREA":"柳營","LANE":" ","ALLEY":" ","HOUSE_NO":"２５６之１８號","E_COORD97":179644.76999999999,"N_COORD97":2575415.6899999999,"ADDRESS":"柳營２５６之１８號","OBJECTID":227820},"geometry":{"x":179644.76999999955,"y":2575415.6899999995}},{"attributes":{"ID":227825,"DIS_CODE":0,"TOWNNAME":"柳營區","LI":"光福里","LIN":"23鄰","STREET":" ","SECT":" ","MAREA":"柳營","LANE":" ","ALLEY":" ","HOUSE_NO":"２５６之１號","E_COORD97":179659.12,"N_COORD97":2575348.9900000002,"ADDRESS":"柳營２５６之１號","OBJECTID":227821},"geometry":{"x":179659.12000000104,"y":2575348.9900000021}},{"attributes":{"ID":227826,"DIS_CODE":0,"TOWNNAME":"柳營區","LI":"光福里","LIN":"23鄰","STREET":" ","SECT":" ","MAREA":"柳營","LANE":" ","ALLEY":" ","HOUSE_NO":"２５６之２號","E_COORD97":179658.29999999999,"N_COORD97":2575352.8599999999,"ADDRESS":"柳營２５６之２號","OBJECTID":227822},"geometry":{"x":179658.29999999981,"y":2575352.8600000013}},{"attributes":{"ID":227827,"DIS_CODE":0,"TOWNNAME":"東山區","LI":"科里里","LIN":"23鄰","STREET":" ","SECT":" ","MAREA":"下庄子","LANE":" ","ALLEY":" ","HOUSE_NO":"３９號","E_COORD97":189681.26000000001,"N_COORD97":2578384.0800000001,"ADDRESS":"下庄子３９號","OBJECTID":227823},"geometry":{"x":189681.26000000071,"y":2578384.0800000001}},{"attributes":{"ID":227828,"DIS_CODE":0,"TOWNNAME":"東山區","LI":"科里里","LIN":"23鄰","STREET":" ","SECT":" ","MAREA":"下庄子","LANE":" ","ALLEY":" ","HOUSE_NO":"３６號","E_COORD97":189623.35000000001,"N_COORD97":2578311.5699999998,"ADDRESS":"下庄子３６號","OBJECTID":227824},"geometry":{"x":189623.34999999963,"y":2578311.5700000022}},{"attributes":{"ID":227829,"DIS_CODE":0,"TOWNNAME":"東山區","LI":"科里里","LIN":"23鄰","STREET":" ","SECT":" ","MAREA":"下庄子","LANE":" ","ALLEY":" ","HOUSE_NO":"３７號之１","E_COORD97":189711.94,"N_COORD97":2578294.2000000002,"ADDRESS":"下庄子３７號之１","OBJECTID":227825},"geometry":{"x":189711.94000000041,"y":2578294.1999999993}},{"attributes":{"ID":227830,"DIS_CODE":0,"TOWNNAME":"東山區","LI":"科里里","LIN":"23鄰","STREET":" ","SECT":" ","MAREA":"下庄子","LANE":" ","ALLEY":" ","HOUSE_NO":"３７號之２","E_COORD97":189717.39000000001,"N_COORD97":2578248.79,"ADDRESS":"下庄子３７號之２","OBJECTID":227826},"geometry":{"x":189717.3900000006,"y":2578248.790000001}},{"attributes":{"ID":227831,"DIS_CODE":0,"TOWNNAME":"安南區","LI":"溪心里","LIN":"3鄰","STREET":"海佃路","SECT":"三段","MAREA":" ","LANE":"４８巷","ALLEY":" ","HOUSE_NO":"２２號","E_COORD97":166344.23999999999,"N_COORD97":2549871.3500000001,"ADDRESS":"海佃路三段４８巷２２號","OBJECTID":227827},"geometry":{"x":166344.24000000115,"y":2549871.3500000015}},{"attributes":{"ID":227832,"DIS_CODE":0,"TOWNNAME":"安南區","LI":"溪心里","LIN":"3鄰","STREET":"海佃路","SECT":"三段","MAREA":" ","LANE":"４８巷","ALLEY":" ","HOUSE_NO":"２４號","E_COORD97":166352.95000000001,"N_COORD97":2549867.1400000001,"ADDRESS":"海佃路三段４８巷２４號","OBJECTID":227828},"geometry":{"x":166352.95000000112,"y":2549867.1400000025}},{"attributes":{"ID":227833,"DIS_CODE":0,"TOWNNAME":"安南區","LI":"溪心里","LIN":"3鄰","STREET":"海佃路","SECT":"三段","MAREA":" ","LANE":"４８巷","ALLEY":" ","HOUSE_NO":"３２號","E_COORD97":166358.97,"N_COORD97":2549888.4700000002,"ADDRESS":"海佃路三段４８巷３２號","OBJECTID":227829},"geometry":{"x":166358.97000000067,"y":2549888.4700000025}},{"attributes":{"ID":227834,"DIS_CODE":0,"TOWNNAME":"安南區","LI":"溪心里","LIN":"3鄰","STREET":"海佃路","SECT":"三段","MAREA":" ","LANE":"４８巷","ALLEY":" ","HOUSE_NO":"３８號","E_COORD97":166365.57999999999,"N_COORD97":2549900.75,"ADDRESS":"海佃路三段４８巷３８號","OBJECTID":227830},"geometry":{"x":166365.58000000101,"y":2549900.75}},{"attributes":{"ID":227835,"DIS_CODE":0,"TOWNNAME":"安南區","LI":"佃西里","LIN":"3鄰","STREET":"公學路","SECT":"四段","MAREA":" ","LANE":"１２６巷","ALLEY":" ","HOUSE_NO":"７２號","E_COORD97":165399.01000000001,"N_COORD97":2551963.5899999999,"ADDRESS":"公學路四段１２６巷７２號","OBJECTID":227831},"geometry":{"x":165399.01000000164,"y":2551963.589999998}},{"attributes":{"ID":227836,"DIS_CODE":0,"TOWNNAME":"安南區","LI":"佃西里","LIN":"3鄰","STREET":"公學路","SECT":"四段","MAREA":" ","LANE":"１２６巷","ALLEY":" ","HOUSE_NO":"７４號","E_COORD97":165394.45999999999,"N_COORD97":2551948.71,"ADDRESS":"公學路四段１２６巷７４號","OBJECTID":227832},"geometry":{"x":165394.46000000183,"y":2551948.7100000028}},{"attributes":{"ID":227837,"DIS_CODE":0,"TOWNNAME":"安南區","LI":"佃西里","LIN":"3鄰","STREET":"公學路","SECT":"四段","MAREA":" ","LANE":"１２６巷","ALLEY":" ","HOUSE_NO":"７６號","E_COORD97":165389.48999999999,"N_COORD97":2551951.1899999999,"ADDRESS":"公學路四段１２６巷７６號","OBJECTID":227833},"geometry":{"x":165389.49000000209,"y":2551951.1899999995}},{"attributes":{"ID":227838,"DIS_CODE":0,"TOWNNAME":"安南區","LI":"佃西里","LIN":"3鄰","STREET":"公學路","SECT":"四段","MAREA":" ","LANE":"１２６巷","ALLEY":" ","HOUSE_NO":"８４號","E_COORD97":165377.12,"N_COORD97":2551953.6600000001,"ADDRESS":"公學路四段１２６巷８４號","OBJECTID":227834},"geometry":{"x":165377.12000000104,"y":2551953.6600000039}},{"attributes":{"ID":227839,"DIS_CODE":0,"TOWNNAME":"東山區","LI":"科里里","LIN":"23鄰","STREET":" ","SECT":" ","MAREA":"下庄子","LANE":" ","ALLEY":" ","HOUSE_NO":"４０號","E_COORD97":189670.92999999999,"N_COORD97":2578408.52,"ADDRESS":"下庄子４０號","OBJECTID":227835},"geometry":{"x":189670.9299999997,"y":2578408.5199999996}},{"attributes":{"ID":227840,"DIS_CODE":0,"TOWNNAME":"安南區","LI":"佃西里","LIN":"3鄰","STREET":"公學路","SECT":"四段","MAREA":" ","LANE":"１２６巷","ALLEY":" ","HOUSE_NO":"９３號","E_COORD97":165379,"N_COORD97":2551916.4700000002,"ADDRESS":"公學路四段１２６巷９３號","OBJECTID":227836},"geometry":{"x":165379.00000000186,"y":2551916.4700000007}},{"attributes":{"ID":227841,"DIS_CODE":0,"TOWNNAME":"東山區","LI":"科里里","LIN":"23鄰","STREET":" ","SECT":" ","MAREA":"下庄子","LANE":" ","ALLEY":" ","HOUSE_NO":"４１號之１","E_COORD97":189688.03,"N_COORD97":2578429.3700000001,"ADDRESS":"下庄子４１號之１","OBJECTID":227837},"geometry":{"x":189688.03000000212,"y":2578429.3700000029}},{"attributes":{"ID":227842,"DIS_CODE":0,"TOWNNAME":"安南區","LI":"佃西里","LIN":"3鄰","STREET":"公學路","SECT":"四段","MAREA":" ","LANE":"１２６巷","ALLEY":" ","HOUSE_NO":"９５號","E_COORD97":165371.54999999999,"N_COORD97":2551916.0600000001,"ADDRESS":"公學路四段１２６巷９５號","OBJECTID":227838},"geometry":{"x":165371.54999999888,"y":2551916.0600000005}},{"attributes":{"ID":227843,"DIS_CODE":0,"TOWNNAME":"東山區","LI":"科里里","LIN":"23鄰","STREET":" ","SECT":" ","MAREA":"下庄子","LANE":" ","ALLEY":" ","HOUSE_NO":"４２號之５","E_COORD97":189678.89999999999,"N_COORD97":2578447.7799999998,"ADDRESS":"下庄子４２號之５","OBJECTID":227839},"geometry":{"x":189678.90000000224,"y":2578447.7800000031}},{"attributes":{"ID":227844,"DIS_CODE":0,"TOWNNAME":"東山區","LI":"科里里","LIN":"23鄰","STREET":" ","SECT":" ","MAREA":"下庄子","LANE":" ","ALLEY":" ","HOUSE_NO":"４２號之６","E_COORD97":189680.42999999999,"N_COORD97":2578443.6000000001,"ADDRESS":"下庄子４２號之６","OBJECTID":227840},"geometry":{"x":189680.43000000063,"y":2578443.6000000015}},{"attributes":{"ID":227845,"DIS_CODE":0,"TOWNNAME":"東山區","LI":"科里里","LIN":"23鄰","STREET":" ","SECT":" ","MAREA":"下庄子","LANE":" ","ALLEY":" ","HOUSE_NO":"４２號之７","E_COORD97":189681.89999999999,"N_COORD97":2578439.0299999998,"ADDRESS":"下庄子４２號之７","OBJECTID":227841},"geometry":{"x":189681.90000000037,"y":2578439.0300000031}},{"attributes":{"ID":227846,"DIS_CODE":0,"TOWNNAME":"東山區","LI":"科里里","LIN":"23鄰","STREET":" ","SECT":" ","MAREA":"下庄子","LANE":" ","ALLEY":" ","HOUSE_NO":"４２號","E_COORD97":189679.34,"N_COORD97":2578453.3799999999,"ADDRESS":"下庄子４２號","OBJECTID":227842},"geometry":{"x":189679.34000000078,"y":2578453.3800000027}},{"attributes":{"ID":227847,"DIS_CODE":0,"TOWNNAME":"東山區","LI":"大客里","LIN":"23鄰","STREET":" ","SECT":" ","MAREA":"大庄","LANE":" ","ALLEY":" ","HOUSE_NO":"５１號之１２","E_COORD97":189696.35999999999,"N_COORD97":2579108.1000000001,"ADDRESS":"大庄５１號之１２","OBJECTID":227843},"geometry":{"x":189696.36000000127,"y":2579108.1000000015}},{"attributes":{"ID":227848,"DIS_CODE":0,"TOWNNAME":"安南區","LI":"國安里","LIN":"1鄰","STREET":"國安街","SECT":" ","MAREA":" ","LANE":" ","ALLEY":" ","HOUSE_NO":"１９２號","E_COORD97":166657.66,"N_COORD97":2546956.9500000002,"ADDRESS":"國安街１９２號","OBJECTID":227844},"geometry":{"x":166657.66000000015,"y":2546956.9500000011}},{"attributes":{"ID":227849,"DIS_CODE":0,"TOWNNAME":"東山區","LI":"大客里","LIN":"23鄰","STREET":" ","SECT":" ","MAREA":"大庄","LANE":" ","ALLEY":" ","HOUSE_NO":"５１號之１４","E_COORD97":189676.23999999999,"N_COORD97":2579072.2799999998,"ADDRESS":"大庄５１號之１４","OBJECTID":227845},"geometry":{"x":189676.24000000022,"y":2579072.2800000012}},{"attributes":{"ID":227850,"DIS_CODE":0,"TOWNNAME":"六甲區","LI":"甲東里","LIN":"23鄰","STREET":"裕農街","SECT":" ","MAREA":" ","LANE":"２巷","ALLEY":" ","HOUSE_NO":"１號","E_COORD97":183930.78,"N_COORD97":2569619.7000000002,"ADDRESS":"裕農街２巷１號","OBJECTID":227846},"geometry":{"x":183930.78000000026,"y":2569619.700000003}},{"attributes":{"ID":227851,"DIS_CODE":0,"TOWNNAME":"六甲區","LI":"甲東里","LIN":"23鄰","STREET":"裕農街","SECT":" ","MAREA":" ","LANE":"２巷","ALLEY":" ","HOUSE_NO":"３號","E_COORD97":183928.94,"N_COORD97":2569615.8100000001,"ADDRESS":"裕農街２巷３號","OBJECTID":227847},"geometry":{"x":183928.94000000134,"y":2569615.8100000005}},{"attributes":{"ID":227852,"DIS_CODE":0,"TOWNNAME":"關廟區","LI":"東勢里","LIN":"23鄰","STREET":"東安街","SECT":" ","MAREA":" ","LANE":"２２１巷","ALLEY":" ","HOUSE_NO":"１９號","E_COORD97":181584.92000000001,"N_COORD97":2539423.3199999998,"ADDRESS":"東安街２２１巷１９號","OBJECTID":227848},"geometry":{"x":181584.91999999993,"y":2539423.3200000022}},{"attributes":{"ID":227853,"DIS_CODE":0,"TOWNNAME":"安南區","LI":"佃西里","LIN":"3鄰","STREET":"公學路","SECT":"四段","MAREA":" ","LANE":"２３４巷","ALLEY":" ","HOUSE_NO":"２２號","E_COORD97":165414.20999999999,"N_COORD97":2551914.1200000001,"ADDRESS":"公學路四段２３４巷２２號","OBJECTID":227849},"geometry":{"x":165414.20999999996,"y":2551914.1200000048}},{"attributes":{"ID":227854,"DIS_CODE":0,"TOWNNAME":"安南區","LI":"佃西里","LIN":"3鄰","STREET":"公學路","SECT":"四段","MAREA":" ","LANE":"２３４巷","ALLEY":" ","HOUSE_NO":"２８號","E_COORD97":165396.10000000001,"N_COORD97":2551886.3599999999,"ADDRESS":"公學路四段２３４巷２８號","OBJECTID":227850},"geometry":{"x":165396.09999999963,"y":2551886.3599999994}},{"attributes":{"ID":227855,"DIS_CODE":0,"TOWNNAME":"安南區","LI":"佃西里","LIN":"3鄰","STREET":"公學路","SECT":"四段","MAREA":" ","LANE":"２３４巷","ALLEY":" ","HOUSE_NO":"３０號","E_COORD97":165395.56,"N_COORD97":2551883.3900000001,"ADDRESS":"公學路四段２３４巷３０號","OBJECTID":227851},"geometry":{"x":165395.56000000052,"y":2551883.3900000006}},{"attributes":{"ID":227856,"DIS_CODE":0,"TOWNNAME":"安南區","LI":"佃西里","LIN":"3鄰","STREET":"公學路","SECT":"四段","MAREA":" ","LANE":"２３４巷","ALLEY":" ","HOUSE_NO":"３２號","E_COORD97":165395.32000000001,"N_COORD97":2551873.7200000002,"ADDRESS":"公學路四段２３４巷３２號","OBJECTID":227852},"geometry":{"x":165395.3200000003,"y":2551873.7200000025}},{"attributes":{"ID":227857,"DIS_CODE":0,"TOWNNAME":"安南區","LI":"佃西里","LIN":"3鄰","STREET":"公學路","SECT":"四段","MAREA":" ","LANE":"２３４巷","ALLEY":" ","HOUSE_NO":"３４號","E_COORD97":165367.81,"N_COORD97":2551873.8900000001,"ADDRESS":"公學路四段２３４巷３４號","OBJECTID":227853},"geometry":{"x":165367.80999999866,"y":2551873.8900000006}},{"attributes":{"ID":227858,"DIS_CODE":0,"TOWNNAME":"安南區","LI":"溪心里","LIN":"3鄰","STREET":"海佃路","SECT":"三段","MAREA":" ","LANE":"４８巷","ALLEY":" ","HOUSE_NO":"５４號","E_COORD97":166386.39000000001,"N_COORD97":2549936.6299999999,"ADDRESS":"海佃路三段４８巷５４號","OBJECTID":227854},"geometry":{"x":166386.39000000153,"y":2549936.6300000008}},{"attributes":{"ID":227859,"DIS_CODE":0,"TOWNNAME":"新營區","LI":"民榮里","LIN":"34鄰","STREET":"復興路","SECT":" ","MAREA":" ","LANE":" ","ALLEY":" ","HOUSE_NO":"３０１號十七樓之６","E_COORD97":178609.89000000001,"N_COORD97":2578135.3500000001,"ADDRESS":"復興路３０１號十七樓之６","OBJECTID":227855},"geometry":{"x":178609.88999999966,"y":2578135.3500000034}},{"attributes":{"ID":227860,"DIS_CODE":0,"TOWNNAME":"新營區","LI":"民榮里","LIN":"34鄰","STREET":"復興路","SECT":" ","MAREA":" ","LANE":" ","ALLEY":" ","HOUSE_NO":"３０１號十九樓之２","E_COORD97":178609.92000000001,"N_COORD97":2578135.3500000001,"ADDRESS":"復興路３０１號十九樓之２","OBJECTID":227856},"geometry":{"x":178609.91999999993,"y":2578135.3500000034}},{"attributes":{"ID":227861,"DIS_CODE":0,"TOWNNAME":"安南區","LI":"國安里","LIN":"1鄰","STREET":"國安街","SECT":" ","MAREA":" ","LANE":" ","ALLEY":" ","HOUSE_NO":"１９４號","E_COORD97":166653.04000000001,"N_COORD97":2546956.27,"ADDRESS":"國安街１９４號","OBJECTID":227857},"geometry":{"x":166653.04000000004,"y":2546956.2700000014}},{"attributes":{"ID":227862,"DIS_CODE":0,"TOWNNAME":"安南區","LI":"新順里","LIN":"3鄰","STREET":"安和路","SECT":"二段","MAREA":" ","LANE":"３１８巷","ALLEY":" ","HOUSE_NO":"２８號","E_COORD97":169814.97,"N_COORD97":2549278.8900000001,"ADDRESS":"安和路二段３１８巷２８號","OBJECTID":227858},"geometry":{"x":169814.96999999974,"y":2549278.8900000025}},{"attributes":{"ID":227863,"DIS_CODE":0,"TOWNNAME":"安南區","LI":"新順里","LIN":"3鄰","STREET":"安和路","SECT":"二段","MAREA":" ","LANE":"３１８巷","ALLEY":" ","HOUSE_NO":"３４號","E_COORD97":169828.01000000001,"N_COORD97":2549279.6499999999,"ADDRESS":"安和路二段３１８巷３４號","OBJECTID":227859},"geometry":{"x":169828.00999999978,"y":2549279.6500000022}},{"attributes":{"ID":227864,"DIS_CODE":0,"TOWNNAME":"安南區","LI":"州南里","LIN":"3鄰","STREET":"安和路","SECT":"四段","MAREA":" ","LANE":"５３３巷","ALLEY":" ","HOUSE_NO":"１６４號","E_COORD97":169578.57999999999,"N_COORD97":2551233.5499999998,"ADDRESS":"安和路四段５３３巷１６４號","OBJECTID":227860},"geometry":{"x":169578.58000000007,"y":2551233.5500000026}},{"attributes":{"ID":227865,"DIS_CODE":0,"TOWNNAME":"安南區","LI":"州南里","LIN":"3鄰","STREET":"安和路","SECT":"四段","MAREA":" ","LANE":"５３３巷","ALLEY":" ","HOUSE_NO":"１６６號","E_COORD97":169574.54999999999,"N_COORD97":2551231.54,"ADDRESS":"安和路四段５３３巷１６６號","OBJECTID":227861},"geometry":{"x":169574.55000000075,"y":2551231.540000001}},{"attributes":{"ID":227866,"DIS_CODE":0,"TOWNNAME":"安南區","LI":"州南里","LIN":"3鄰","STREET":"安和路","SECT":"四段","MAREA":" ","LANE":"５３３巷","ALLEY":" ","HOUSE_NO":"１６２號","E_COORD97":169583.62,"N_COORD97":2551232.7999999998,"ADDRESS":"安和路四段５３３巷１６２號","OBJECTID":227862},"geometry":{"x":169583.62000000011,"y":2551232.8000000007}},{"attributes":{"ID":227867,"DIS_CODE":0,"TOWNNAME":"南區","LI":"喜東里","LIN":"3鄰","STREET":"明興路","SECT":" ","MAREA":" ","LANE":"３６０巷","ALLEY":" ","HOUSE_NO":"１０號","E_COORD97":166295.95999999999,"N_COORD97":2538955.7799999998,"ADDRESS":"明興路３６０巷１０號","OBJECTID":227863},"geometry":{"x":166295.95999999996,"y":2538955.7799999993}},{"attributes":{"ID":227868,"DIS_CODE":0,"TOWNNAME":"南區","LI":"喜東里","LIN":"3鄰","STREET":"明興路","SECT":" ","MAREA":" ","LANE":"３６０巷","ALLEY":" ","HOUSE_NO":"１號","E_COORD97":166306.26000000001,"N_COORD97":2538934.8999999999,"ADDRESS":"明興路３６０巷１號","OBJECTID":227864},"geometry":{"x":166306.26000000071,"y":2538934.9000000004}},{"attributes":{"ID":227869,"DIS_CODE":0,"TOWNNAME":"南區","LI":"喜東里","LIN":"3鄰","STREET":"明興路","SECT":" ","MAREA":" ","LANE":"３６０巷","ALLEY":" ","HOUSE_NO":"２號","E_COORD97":166311.63,"N_COORD97":2538952.7400000002,"ADDRESS":"明興路３６０巷２號","OBJECTID":227865},"geometry":{"x":166311.62999999989,"y":2538952.7400000002}},{"attributes":{"ID":227870,"DIS_CODE":0,"TOWNNAME":"永康區","LI":"神洲里","LIN":"3鄰","STREET":"忠孝路","SECT":" ","MAREA":" ","LANE":"３６巷","ALLEY":" ","HOUSE_NO":"２０號","E_COORD97":172163.62,"N_COORD97":2544670,"ADDRESS":"忠孝路３６巷２０號","OBJECTID":227866},"geometry":{"x":172163.62000000011,"y":2544670.0000000019}},{"attributes":{"ID":227871,"DIS_CODE":0,"TOWNNAME":"永康區","LI":"神洲里","LIN":"3鄰","STREET":"忠孝路","SECT":" ","MAREA":" ","LANE":"３２巷","ALLEY":" ","HOUSE_NO":"５號","E_COORD97":172110.04000000001,"N_COORD97":2544647.75,"ADDRESS":"忠孝路３２巷５號","OBJECTID":227867},"geometry":{"x":172110.04000000004,"y":2544647.7500000019}},{"attributes":{"ID":227872,"DIS_CODE":0,"TOWNNAME":"安南區","LI":"南興里","LIN":"3鄰","STREET":"安興街","SECT":" ","MAREA":" ","LANE":"３８１巷","ALLEY":" ","HOUSE_NO":"２０號","E_COORD97":163674.64999999999,"N_COORD97":2552298.8300000001,"ADDRESS":"安興街３８１巷２０號","OBJECTID":227868},"geometry":{"x":163674.65000000224,"y":2552298.8300000019}},{"attributes":{"ID":227873,"DIS_CODE":0,"TOWNNAME":"安南區","LI":"南興里","LIN":"3鄰","STREET":"安興街","SECT":" ","MAREA":" ","LANE":"３８１巷","ALLEY":" ","HOUSE_NO":"８號","E_COORD97":163674.64999999999,"N_COORD97":2552315.1200000001,"ADDRESS":"安興街３８１巷８號","OBJECTID":227869},"geometry":{"x":163674.65000000224,"y":2552315.1200000029}},{"attributes":{"ID":227874,"DIS_CODE":0,"TOWNNAME":"安南區","LI":"南興里","LIN":"3鄰","STREET":"安興街","SECT":" ","MAREA":" ","LANE":"４３５巷","ALLEY":" ","HOUSE_NO":"１１號","E_COORD97":163575.79999999999,"N_COORD97":2552283.6600000001,"ADDRESS":"安興街４３５巷１１號","OBJECTID":227870},"geometry":{"x":163575.79999999981,"y":2552283.660000002}},{"attributes":{"ID":227875,"DIS_CODE":0,"TOWNNAME":"安南區","LI":"國安里","LIN":"1鄰","STREET":"國安街","SECT":" ","MAREA":" ","LANE":" ","ALLEY":" ","HOUSE_NO":"１９６號","E_COORD97":166648.25,"N_COORD97":2546955.9300000002,"ADDRESS":"國安街１９６號","OBJECTID":227871},"geometry":{"x":166648.25,"y":2546955.9299999997}},{"attributes":{"ID":227876,"DIS_CODE":0,"TOWNNAME":"東山區","LI":"大客里","LIN":"23鄰","STREET":" ","SECT":" ","MAREA":"大庄","LANE":" ","ALLEY":" ","HOUSE_NO":"４６號之２","E_COORD97":189606.14999999999,"N_COORD97":2579138.6499999999,"ADDRESS":"大庄４６號之２","OBJECTID":227872},"geometry":{"x":189606.1500000013,"y":2579138.6500000022}},{"attributes":{"ID":227877,"DIS_CODE":0,"TOWNNAME":"東山區","LI":"大客里","LIN":"23鄰","STREET":" ","SECT":" ","MAREA":"大庄","LANE":" ","ALLEY":" ","HOUSE_NO":"４６號之３","E_COORD97":189529.01000000001,"N_COORD97":2579229,"ADDRESS":"大庄４６號之３","OBJECTID":227873},"geometry":{"x":189529.01000000071,"y":2579229}},{"attributes":{"ID":227878,"DIS_CODE":0,"TOWNNAME":"東山區","LI":"大客里","LIN":"23鄰","STREET":" ","SECT":" ","MAREA":"大庄","LANE":" ","ALLEY":" ","HOUSE_NO":"４６號之５","E_COORD97":189566.13,"N_COORD97":2579185.6200000001,"ADDRESS":"大庄４６號之５","OBJECTID":227874},"geometry":{"x":189566.12999999989,"y":2579185.620000001}},{"attributes":{"ID":227879,"DIS_CODE":0,"TOWNNAME":"東山區","LI":"大客里","LIN":"23鄰","STREET":" ","SECT":" ","MAREA":"大庄","LANE":" ","ALLEY":" ","HOUSE_NO":"４６號之６","E_COORD97":189554.73000000001,"N_COORD97":2579160.1499999999,"ADDRESS":"大庄４６號之６","OBJECTID":227875},"geometry":{"x":189554.73000000231,"y":2579160.1500000004}},{"attributes":{"ID":227880,"DIS_CODE":0,"TOWNNAME":"東山區","LI":"大客里","LIN":"23鄰","STREET":" ","SECT":" ","MAREA":"大庄","LANE":" ","ALLEY":" ","HOUSE_NO":"４６號之７","E_COORD97":189556.14999999999,"N_COORD97":2579252.3199999998,"ADDRESS":"大庄４６號之７","OBJECTID":227876},"geometry":{"x":189556.15000000037,"y":2579252.3200000022}},{"attributes":{"ID":227881,"DIS_CODE":0,"TOWNNAME":"東山區","LI":"大客里","LIN":"23鄰","STREET":" ","SECT":" ","MAREA":"大庄","LANE":" ","ALLEY":" ","HOUSE_NO":"４６號之８","E_COORD97":189559.41,"N_COORD97":2579247.3900000001,"ADDRESS":"大庄４６號之８","OBJECTID":227877},"geometry":{"x":189559.41000000015,"y":2579247.3900000006}},{"attributes":{"ID":227882,"DIS_CODE":0,"TOWNNAME":"東山區","LI":"大客里","LIN":"23鄰","STREET":" ","SECT":" ","MAREA":"大庄","LANE":" ","ALLEY":" ","HOUSE_NO":"４６號之９","E_COORD97":189566.23999999999,"N_COORD97":2579239.5299999998,"ADDRESS":"大庄４６號之９","OBJECTID":227878},"geometry":{"x":189566.24000000209,"y":2579239.5300000012}},{"attributes":{"ID":227883,"DIS_CODE":0,"TOWNNAME":"東山區","LI":"大客里","LIN":"23鄰","STREET":" ","SECT":" ","MAREA":"大庄","LANE":" ","ALLEY":" ","HOUSE_NO":"５１號之１０","E_COORD97":189703.41,"N_COORD97":2579095.6899999999,"ADDRESS":"大庄５１號之１０","OBJECTID":227879},"geometry":{"x":189703.41000000015,"y":2579095.6899999976}},{"attributes":{"ID":227884,"DIS_CODE":0,"TOWNNAME":"東山區","LI":"大客里","LIN":"23鄰","STREET":" ","SECT":" ","MAREA":"大庄","LANE":" ","ALLEY":" ","HOUSE_NO":"５１號之１５","E_COORD97":189608.92999999999,"N_COORD97":2579229.8199999998,"ADDRESS":"大庄５１號之１５","OBJECTID":227880},"geometry":{"x":189608.93000000063,"y":2579229.8200000003}},{"attributes":{"ID":227885,"DIS_CODE":0,"TOWNNAME":"東山區","LI":"大客里","LIN":"23鄰","STREET":" ","SECT":" ","MAREA":"大庄","LANE":" ","ALLEY":" ","HOUSE_NO":"５１號之１６","E_COORD97":189607.04999999999,"N_COORD97":2579233.0800000001,"ADDRESS":"大庄５１號之１６","OBJECTID":227881},"geometry":{"x":189607.04999999981,"y":2579233.0800000038}},{"attributes":{"ID":227886,"DIS_CODE":0,"TOWNNAME":"東山區","LI":"大客里","LIN":"23鄰","STREET":" ","SECT":" ","MAREA":"大庄","LANE":" ","ALLEY":" ","HOUSE_NO":"５１號之２０","E_COORD97":189597.48000000001,"N_COORD97":2579247.0800000001,"ADDRESS":"大庄５１號之２０","OBJECTID":227882},"geometry":{"x":189597.48000000138,"y":2579247.0800000019}},{"attributes":{"ID":227887,"DIS_CODE":0,"TOWNNAME":"東山區","LI":"大客里","LIN":"23鄰","STREET":" ","SECT":" ","MAREA":"大庄","LANE":" ","ALLEY":" ","HOUSE_NO":"５１號之２１","E_COORD97":189595.28,"N_COORD97":2579250.77,"ADDRESS":"大庄５１號之２１","OBJECTID":227883},"geometry":{"x":189595.28000000119,"y":2579250.7699999996}},{"attributes":{"ID":227888,"DIS_CODE":0,"TOWNNAME":"東山區","LI":"大客里","LIN":"23鄰","STREET":" ","SECT":" ","MAREA":"大庄","LANE":" ","ALLEY":" ","HOUSE_NO":"５１號之２２","E_COORD97":189592.88,"N_COORD97":2579254.2999999998,"ADDRESS":"大庄５１號之２２","OBJECTID":227884},"geometry":{"x":189592.87999999989,"y":2579254.3000000007}},{"attributes":{"ID":227889,"DIS_CODE":0,"TOWNNAME":"東山區","LI":"大客里","LIN":"23鄰","STREET":" ","SECT":" ","MAREA":"大庄","LANE":" ","ALLEY":" ","HOUSE_NO":"５１號之２３","E_COORD97":189590.44,"N_COORD97":2579257.8799999999,"ADDRESS":"大庄５１號之２３","OBJECTID":227885},"geometry":{"x":189590.44000000227,"y":2579257.8800000008}},{"attributes":{"ID":227890,"DIS_CODE":0,"TOWNNAME":"東山區","LI":"大客里","LIN":"23鄰","STREET":" ","SECT":" ","MAREA":"大庄","LANE":" ","ALLEY":" ","HOUSE_NO":"５１號之２４","E_COORD97":189588.17000000001,"N_COORD97":2579261.3700000001,"ADDRESS":"大庄５１號之２４","OBJECTID":227886},"geometry":{"x":189588.16999999993,"y":2579261.370000001}},{"attributes":{"ID":227891,"DIS_CODE":0,"TOWNNAME":"東山區","LI":"大客里","LIN":"23鄰","STREET":" ","SECT":" ","MAREA":"大庄","LANE":" ","ALLEY":" ","HOUSE_NO":"５１號之２５","E_COORD97":189707.09,"N_COORD97":2579147.8799999999,"ADDRESS":"大庄５１號之２５","OBJECTID":227887},"geometry":{"x":189707.08999999985,"y":2579147.879999999}},{"attributes":{"ID":227892,"DIS_CODE":0,"TOWNNAME":"東山區","LI":"大客里","LIN":"23鄰","STREET":" ","SECT":" ","MAREA":"大庄","LANE":" ","ALLEY":" ","HOUSE_NO":"５１號之２８","E_COORD97":189955.56,"N_COORD97":2579251.5099999998,"ADDRESS":"大庄５１號之２８","OBJECTID":227888},"geometry":{"x":189955.56000000052,"y":2579251.5100000016}},{"attributes":{"ID":227893,"DIS_CODE":0,"TOWNNAME":"東山區","LI":"大客里","LIN":"23鄰","STREET":" ","SECT":" ","MAREA":"大庄","LANE":" ","ALLEY":" ","HOUSE_NO":"５１號之２","E_COORD97":189754.95999999999,"N_COORD97":2579139.52,"ADDRESS":"大庄５１號之２","OBJECTID":227889},"geometry":{"x":189754.96000000089,"y":2579139.5199999996}},{"attributes":{"ID":227894,"DIS_CODE":0,"TOWNNAME":"東山區","LI":"大客里","LIN":"23鄰","STREET":" ","SECT":" ","MAREA":"大庄","LANE":" ","ALLEY":" ","HOUSE_NO":"５１號之３０","E_COORD97":190074.82999999999,"N_COORD97":2579214.3799999999,"ADDRESS":"大庄５１號之３０","OBJECTID":227890},"geometry":{"x":190074.83000000101,"y":2579214.3800000008}},{"attributes":{"ID":227895,"DIS_CODE":0,"TOWNNAME":"東山區","LI":"大客里","LIN":"23鄰","STREET":" ","SECT":" ","MAREA":"大庄","LANE":" ","ALLEY":" ","HOUSE_NO":"５１號之３１","E_COORD97":189732.13,"N_COORD97":2579112.5699999998,"ADDRESS":"大庄５１號之３１","OBJECTID":227891},"geometry":{"x":189732.12999999989,"y":2579112.5700000022}},{"attributes":{"ID":227896,"DIS_CODE":0,"TOWNNAME":"東山區","LI":"大客里","LIN":"23鄰","STREET":" ","SECT":" ","MAREA":"大庄","LANE":" ","ALLEY":" ","HOUSE_NO":"５１號之３２","E_COORD97":189734.44,"N_COORD97":2579048.3599999999,"ADDRESS":"大庄５１號之３２","OBJECTID":227892},"geometry":{"x":189734.43999999948,"y":2579048.3600000013}},{"attributes":{"ID":227897,"DIS_CODE":0,"TOWNNAME":"東山區","LI":"大客里","LIN":"23鄰","STREET":" ","SECT":" ","MAREA":"大庄","LANE":" ","ALLEY":" ","HOUSE_NO":"５１號之４","E_COORD97":189751.56,"N_COORD97":2579199.7200000002,"ADDRESS":"大庄５１號之４","OBJECTID":227893},"geometry":{"x":189751.56000000145,"y":2579199.7200000025}},{"attributes":{"ID":227898,"DIS_CODE":0,"TOWNNAME":"東山區","LI":"大客里","LIN":"23鄰","STREET":" ","SECT":" ","MAREA":"大庄","LANE":" ","ALLEY":" ","HOUSE_NO":"５１號之５","E_COORD97":189726.29999999999,"N_COORD97":2579203.1000000001,"ADDRESS":"大庄５１號之５","OBJECTID":227894},"geometry":{"x":189726.29999999888,"y":2579203.1000000015}},{"attributes":{"ID":227899,"DIS_CODE":0,"TOWNNAME":"東山區","LI":"大客里","LIN":"23鄰","STREET":" ","SECT":" ","MAREA":"大庄","LANE":" ","ALLEY":" ","HOUSE_NO":"５１號之６","E_COORD97":189769.69,"N_COORD97":2579220.6000000001,"ADDRESS":"大庄５１號之６","OBJECTID":227895},"geometry":{"x":189769.69000000041,"y":2579220.5999999996}},{"attributes":{"ID":227900,"DIS_CODE":0,"TOWNNAME":"東山區","LI":"大客里","LIN":"23鄰","STREET":" ","SECT":" ","MAREA":"大庄","LANE":" ","ALLEY":" ","HOUSE_NO":"５１號之７","E_COORD97":189800.69,"N_COORD97":2579209.6899999999,"ADDRESS":"大庄５１號之７","OBJECTID":227896},"geometry":{"x":189800.69000000227,"y":2579209.6899999995}},{"attributes":{"ID":227901,"DIS_CODE":0,"TOWNNAME":"東山區","LI":"大客里","LIN":"23鄰","STREET":" ","SECT":" ","MAREA":"大庄","LANE":" ","ALLEY":" ","HOUSE_NO":"５１號之８","E_COORD97":189737.64000000001,"N_COORD97":2579238.46,"ADDRESS":"大庄５１號之８","OBJECTID":227897},"geometry":{"x":189737.64000000153,"y":2579238.4600000028}},{"attributes":{"ID":227902,"DIS_CODE":0,"TOWNNAME":"東山區","LI":"大客里","LIN":"23鄰","STREET":" ","SECT":" ","MAREA":"大庄","LANE":" ","ALLEY":" ","HOUSE_NO":"５１號之９","E_COORD97":189842.28,"N_COORD97":2579245.1400000001,"ADDRESS":"大庄５１號之９","OBJECTID":227898},"geometry":{"x":189842.28000000212,"y":2579245.1400000006}},{"attributes":{"ID":227903,"DIS_CODE":0,"TOWNNAME":"新營區","LI":"南紙里","LIN":"23鄰","STREET":"南紙街","SECT":" ","MAREA":" ","LANE":"１１９巷","ALLEY":" ","HOUSE_NO":"１３號","E_COORD97":177884.10000000001,"N_COORD97":2577426.6800000002,"ADDRESS":"南紙街１１９巷１３號","OBJECTID":227899},"geometry":{"x":177884.10000000056,"y":2577426.6799999997}},{"attributes":{"ID":227904,"DIS_CODE":0,"TOWNNAME":"新營區","LI":"南紙里","LIN":"23鄰","STREET":"南紙街","SECT":" ","MAREA":" ","LANE":"１１９巷","ALLEY":" ","HOUSE_NO":"１７號","E_COORD97":177899.44,"N_COORD97":2577425.5,"ADDRESS":"南紙街１１９巷１７號","OBJECTID":227900},"geometry":{"x":177899.44000000134,"y":2577425.5}},{"attributes":{"ID":227905,"DIS_CODE":0,"TOWNNAME":"新營區","LI":"民榮里","LIN":"34鄰","STREET":"復興路","SECT":" ","MAREA":" ","LANE":" ","ALLEY":" ","HOUSE_NO":"３０１號十二樓之１","E_COORD97":178609.79000000001,"N_COORD97":2578135.3500000001,"ADDRESS":"復興路３０１號十二樓之１","OBJECTID":227901},"geometry":{"x":178609.7900000019,"y":2578135.3500000034}},{"attributes":{"ID":227906,"DIS_CODE":0,"TOWNNAME":"新營區","LI":"大宏里","LIN":"23鄰","STREET":"民治路","SECT":" ","MAREA":" ","LANE":" ","ALLEY":" ","HOUSE_NO":"１號之２７","E_COORD97":180619.01000000001,"N_COORD97":2578827.8999999999,"ADDRESS":"民治路１號之２７","OBJECTID":227902},"geometry":{"x":180619.01000000071,"y":2578827.9000000022}},{"attributes":{"ID":227907,"DIS_CODE":0,"TOWNNAME":"新營區","LI":"新北里","LIN":"23鄰","STREET":"民生路","SECT":" ","MAREA":" ","LANE":"３８６巷","ALLEY":" ","HOUSE_NO":"１９號","E_COORD97":178876.35000000001,"N_COORD97":2579342.21,"ADDRESS":"民生路３８６巷１９號","OBJECTID":227903},"geometry":{"x":178876.34999999963,"y":2579342.2100000028}},{"attributes":{"ID":227908,"DIS_CODE":0,"TOWNNAME":"東山區","LI":"東原里","LIN":"23鄰","STREET":" ","SECT":" ","MAREA":"前大埔","LANE":" ","ALLEY":" ","HOUSE_NO":"１號之１１","E_COORD97":193457.13,"N_COORD97":2574030.73,"ADDRESS":"前大埔１號之１１","OBJECTID":227904},"geometry":{"x":193457.13000000175,"y":2574030.7300000004}},{"attributes":{"ID":227909,"DIS_CODE":0,"TOWNNAME":"安南區","LI":"南興里","LIN":"3鄰","STREET":"安興街","SECT":" ","MAREA":" ","LANE":"４３５巷","ALLEY":" ","HOUSE_NO":"１５號","E_COORD97":163584.29999999999,"N_COORD97":2552274.27,"ADDRESS":"安興街４３５巷１５號","OBJECTID":227905},"geometry":{"x":163584.29999999981,"y":2552274.2700000033}},{"attributes":{"ID":227910,"DIS_CODE":0,"TOWNNAME":"安南區","LI":"南興里","LIN":"3鄰","STREET":"安興街","SECT":" ","MAREA":" ","LANE":"４３５巷","ALLEY":" ","HOUSE_NO":"９號","E_COORD97":163573.35999999999,"N_COORD97":2552293.6800000002,"ADDRESS":"安興街４３５巷９號","OBJECTID":227906},"geometry":{"x":163573.36000000127,"y":2552293.6799999997}},{"attributes":{"ID":227911,"DIS_CODE":0,"TOWNNAME":"東山區","LI":"東原里","LIN":"23鄰","STREET":" ","SECT":" ","MAREA":"前大埔","LANE":" ","ALLEY":" ","HOUSE_NO":"１號之１２","E_COORD97":193425.79000000001,"N_COORD97":2574074.77,"ADDRESS":"前大埔１號之１２","OBJECTID":227907},"geometry":{"x":193425.79000000097,"y":2574074.7700000014}},{"attributes":{"ID":227912,"DIS_CODE":0,"TOWNNAME":"安南區","LI":"城東里","LIN":"3鄰","STREET":"城北路","SECT":" ","MAREA":" ","LANE":"１７２巷","ALLEY":" ","HOUSE_NO":"２５號","E_COORD97":161048.60000000001,"N_COORD97":2551749.3900000001,"ADDRESS":"城北路１７２巷２５號","OBJECTID":227908},"geometry":{"x":161048.60000000056,"y":2551749.3900000025}},{"attributes":{"ID":227913,"DIS_CODE":0,"TOWNNAME":"東山區","LI":"東原里","LIN":"23鄰","STREET":" ","SECT":" ","MAREA":"前大埔","LANE":" ","ALLEY":" ","HOUSE_NO":"１號之１８","E_COORD97":193398.57000000001,"N_COORD97":2573923.2999999998,"ADDRESS":"前大埔１號之１８","OBJECTID":227909},"geometry":{"x":193398.57000000216,"y":2573923.3000000026}},{"attributes":{"ID":227914,"DIS_CODE":0,"TOWNNAME":"東山區","LI":"東原里","LIN":"23鄰","STREET":" ","SECT":" ","MAREA":"前大埔","LANE":" ","ALLEY":" ","HOUSE_NO":"１號之２１","E_COORD97":193456.26000000001,"N_COORD97":2573877,"ADDRESS":"前大埔１號之２１","OBJECTID":227910},"geometry":{"x":193456.26000000071,"y":2573877.0000000019}},{"attributes":{"ID":227915,"DIS_CODE":0,"TOWNNAME":"東山區","LI":"東原里","LIN":"23鄰","STREET":" ","SECT":" ","MAREA":"前大埔","LANE":" ","ALLEY":" ","HOUSE_NO":"１號之２２","E_COORD97":193460.10999999999,"N_COORD97":2573878.48,"ADDRESS":"前大埔１號之２２","OBJECTID":227911},"geometry":{"x":193460.11000000127,"y":2573878.4800000023}},{"attributes":{"ID":227916,"DIS_CODE":0,"TOWNNAME":"新營區","LI":"大宏里","LIN":"11鄰","STREET":"三民路","SECT":" ","MAREA":" ","LANE":"８巷","ALLEY":" ","HOUSE_NO":"４１號之６","E_COORD97":180561.42981,"N_COORD97":2578595.56598,"ADDRESS":"三民路８巷４１號之６","OBJECTID":227912},"geometry":{"x":180561.42981000058,"y":2578595.5659800041}},{"attributes":{"ID":227917,"DIS_CODE":0,"TOWNNAME":"安南區","LI":"城東里","LIN":"3鄰","STREET":"城北路","SECT":" ","MAREA":" ","LANE":"１９４巷","ALLEY":" ","HOUSE_NO":"１１號","E_COORD97":161026.78,"N_COORD97":2551807.1899999999,"ADDRESS":"城北路１９４巷１１號","OBJECTID":227913},"geometry":{"x":161026.78000000026,"y":2551807.1900000013}},{"attributes":{"ID":227918,"DIS_CODE":0,"TOWNNAME":"東山區","LI":"東原里","LIN":"23鄰","STREET":" ","SECT":" ","MAREA":"前大埔","LANE":" ","ALLEY":" ","HOUSE_NO":"１號之２３","E_COORD97":193463.95000000001,"N_COORD97":2573879.96,"ADDRESS":"前大埔１號之２３","OBJECTID":227914},"geometry":{"x":193463.95000000112,"y":2573879.9600000009}},{"attributes":{"ID":227919,"DIS_CODE":0,"TOWNNAME":"東山區","LI":"東原里","LIN":"23鄰","STREET":" ","SECT":" ","MAREA":"前大埔","LANE":" ","ALLEY":" ","HOUSE_NO":"１號之２４","E_COORD97":193467.79000000001,"N_COORD97":2573881.4399999999,"ADDRESS":"前大埔１號之２４","OBJECTID":227915},"geometry":{"x":193467.79000000004,"y":2573881.4400000013}},{"attributes":{"ID":227920,"DIS_CODE":0,"TOWNNAME":"仁德區","LI":"二行里","LIN":"3鄰","STREET":"中正西路","SECT":" ","MAREA":" ","LANE":"１２巷","ALLEY":" ","HOUSE_NO":"１１號","E_COORD97":170450.39000000001,"N_COORD97":2535505.4900000002,"ADDRESS":"中正西路１２巷１１號","OBJECTID":227916},"geometry":{"x":170450.3900000006,"y":2535505.4900000021}},{"attributes":{"ID":227921,"DIS_CODE":0,"TOWNNAME":"仁德區","LI":"二行里","LIN":"3鄰","STREET":"中正西路","SECT":" ","MAREA":" ","LANE":"１２巷","ALLEY":" ","HOUSE_NO":"２號","E_COORD97":170462.45000000001,"N_COORD97":2535475.5,"ADDRESS":"中正西路１２巷２號","OBJECTID":227917},"geometry":{"x":170462.45000000112,"y":2535475.5}},{"attributes":{"ID":227922,"DIS_CODE":0,"TOWNNAME":"仁德區","LI":"二行里","LIN":"3鄰","STREET":"二行一路","SECT":" ","MAREA":" ","LANE":"１５３巷","ALLEY":" ","HOUSE_NO":"２２號","E_COORD97":170460.14000000001,"N_COORD97":2535569,"ADDRESS":"二行一路１５３巷２２號","OBJECTID":227918},"geometry":{"x":170460.1400000006,"y":2535569.0000000019}},{"attributes":{"ID":227923,"DIS_CODE":0,"TOWNNAME":"仁德區","LI":"二行里","LIN":"3鄰","STREET":"中正西路","SECT":" ","MAREA":" ","LANE":"１２巷","ALLEY":" ","HOUSE_NO":"９號","E_COORD97":170447.82999999999,"N_COORD97":2535500.9900000002,"ADDRESS":"中正西路１２巷９號","OBJECTID":227919},"geometry":{"x":170447.83000000101,"y":2535500.9899999984}},{"attributes":{"ID":227924,"DIS_CODE":0,"TOWNNAME":"仁德區","LI":"二行里","LIN":"3鄰","STREET":"中正西路","SECT":" ","MAREA":" ","LANE":"１２巷","ALLEY":" ","HOUSE_NO":"１８號","E_COORD97":170463.88,"N_COORD97":2535504.9900000002,"ADDRESS":"中正西路１２巷１８號","OBJECTID":227920},"geometry":{"x":170463.88000000082,"y":2535504.9900000021}},{"attributes":{"ID":227925,"DIS_CODE":0,"TOWNNAME":"東山區","LI":"東原里","LIN":"23鄰","STREET":" ","SECT":" ","MAREA":"前大埔","LANE":" ","ALLEY":" ","HOUSE_NO":"１號之２５","E_COORD97":193415.39999999999,"N_COORD97":2573992.8199999998,"ADDRESS":"前大埔１號之２５","OBJECTID":227921},"geometry":{"x":193415.4000000013,"y":2573992.8200000003}},{"attributes":{"ID":227926,"DIS_CODE":0,"TOWNNAME":"東山區","LI":"東原里","LIN":"23鄰","STREET":" ","SECT":" ","MAREA":"前大埔","LANE":" ","ALLEY":" ","HOUSE_NO":"１號之２６","E_COORD97":193420.17000000001,"N_COORD97":2573994.6099999999,"ADDRESS":"前大埔１號之２６","OBJECTID":227922},"geometry":{"x":193420.17000000086,"y":2573994.6100000013}},{"attributes":{"ID":227927,"DIS_CODE":0,"TOWNNAME":"仁德區","LI":"上崙里","LIN":"3鄰","STREET":"德崙路","SECT":" ","MAREA":" ","LANE":"２３１巷","ALLEY":" ","HOUSE_NO":"５２號","E_COORD97":173766.64999999999,"N_COORD97":2538278.2599999998,"ADDRESS":"德崙路２３１巷５２號","OBJECTID":227923},"geometry":{"x":173766.6500000013,"y":2538278.2599999998}},{"attributes":{"ID":227928,"DIS_CODE":0,"TOWNNAME":"南區","LI":"廣州里","LIN":"3鄰","STREET":"健康路","SECT":"二段","MAREA":" ","LANE":"１５０巷","ALLEY":" ","HOUSE_NO":"２０號","E_COORD97":167383.79999999999,"N_COORD97":2542550,"ADDRESS":"健康路二段１５０巷２０號","OBJECTID":227924},"geometry":{"x":167383.80000000168,"y":2542550.0000000019}},{"attributes":{"ID":227929,"DIS_CODE":0,"TOWNNAME":"東區","LI":"崇文里","LIN":"34鄰","STREET":"生產路","SECT":" ","MAREA":" ","LANE":" ","ALLEY":" ","HOUSE_NO":"３３９號之３","E_COORD97":171118.01999999999,"N_COORD97":2540702.8999999999,"ADDRESS":"生產路３３９號之３","OBJECTID":227925},"geometry":{"x":171118.01999999955,"y":2540702.9000000041}},{"attributes":{"ID":227930,"DIS_CODE":0,"TOWNNAME":"北區","LI":"正覺里","LIN":"23鄰","STREET":"正覺街","SECT":" ","MAREA":" ","LANE":"１０２巷","ALLEY":" ","HOUSE_NO":"４２號","E_COORD97":169477.13,"N_COORD97":2546462.3100000001,"ADDRESS":"正覺街１０２巷４２號","OBJECTID":227926},"geometry":{"x":169477.13000000082,"y":2546462.3100000005}},{"attributes":{"ID":227931,"DIS_CODE":0,"TOWNNAME":"北區","LI":"正覺里","LIN":"23鄰","STREET":"正覺街","SECT":" ","MAREA":" ","LANE":"１０２巷","ALLEY":" ","HOUSE_NO":"４４號","E_COORD97":169482.12,"N_COORD97":2546460.71,"ADDRESS":"正覺街１０２巷４４號","OBJECTID":227927},"geometry":{"x":169482.12000000011,"y":2546460.7100000009}},{"attributes":{"ID":227932,"DIS_CODE":0,"TOWNNAME":"北區","LI":"正覺里","LIN":"23鄰","STREET":"正覺街","SECT":" ","MAREA":" ","LANE":"１０２巷","ALLEY":" ","HOUSE_NO":"４６號","E_COORD97":169485.66,"N_COORD97":2546459.4199999999,"ADDRESS":"正覺街１０２巷４６號","OBJECTID":227928},"geometry":{"x":169485.66000000108,"y":2546459.4200000018}},{"attributes":{"ID":227933,"DIS_CODE":0,"TOWNNAME":"北區","LI":"正覺里","LIN":"23鄰","STREET":"正覺街","SECT":" ","MAREA":" ","LANE":"１０２巷","ALLEY":" ","HOUSE_NO":"４８號","E_COORD97":169489.92999999999,"N_COORD97":2546458.4500000002,"ADDRESS":"正覺街１０２巷４８號","OBJECTID":227929},"geometry":{"x":169489.93000000156,"y":2546458.4500000011}},{"attributes":{"ID":227934,"DIS_CODE":0,"TOWNNAME":"北區","LI":"正覺里","LIN":"23鄰","STREET":"正覺街","SECT":" ","MAREA":" ","LANE":"１０２巷","ALLEY":" ","HOUSE_NO":"５０號","E_COORD97":169494.35999999999,"N_COORD97":2546457.1699999999,"ADDRESS":"正覺街１０２巷５０號","OBJECTID":227930},"geometry":{"x":169494.3599999994,"y":2546457.1699999981}},{"attributes":{"ID":227935,"DIS_CODE":0,"TOWNNAME":"北區","LI":"正覺里","LIN":"23鄰","STREET":"正覺街","SECT":" ","MAREA":" ","LANE":"１０２巷","ALLEY":" ","HOUSE_NO":"５１號","E_COORD97":169481.57000000001,"N_COORD97":2546475.9399999999,"ADDRESS":"正覺街１０２巷５１號","OBJECTID":227931},"geometry":{"x":169481.57000000123,"y":2546475.9400000013}},{"attributes":{"ID":227936,"DIS_CODE":0,"TOWNNAME":"北區","LI":"正覺里","LIN":"23鄰","STREET":"正覺街","SECT":" ","MAREA":" ","LANE":"１０２巷","ALLEY":" ","HOUSE_NO":"５２號","E_COORD97":169498.29999999999,"N_COORD97":2546456.4399999999,"ADDRESS":"正覺街１０２巷５２號","OBJECTID":227932},"geometry":{"x":169498.30000000075,"y":2546456.4400000013}},{"attributes":{"ID":227937,"DIS_CODE":0,"TOWNNAME":"北區","LI":"正覺里","LIN":"23鄰","STREET":"正覺街","SECT":" ","MAREA":" ","LANE":"１０２巷","ALLEY":" ","HOUSE_NO":"５３號","E_COORD97":169487.12,"N_COORD97":2546474.9700000002,"ADDRESS":"正覺街１０２巷５３號","OBJECTID":227933},"geometry":{"x":169487.12000000011,"y":2546474.9700000007}},{"attributes":{"ID":227938,"DIS_CODE":0,"TOWNNAME":"北區","LI":"正覺里","LIN":"23鄰","STREET":"正覺街","SECT":" ","MAREA":" ","LANE":"１０２巷","ALLEY":" ","HOUSE_NO":"５４號","E_COORD97":169502.73000000001,"N_COORD97":2546455.6299999999,"ADDRESS":"正覺街１０２巷５４號","OBJECTID":227934},"geometry":{"x":169502.73000000138,"y":2546455.629999999}},{"attributes":{"ID":227939,"DIS_CODE":0,"TOWNNAME":"南區","LI":"興農里","LIN":"3鄰","STREET":"灣裡路","SECT":" ","MAREA":" ","LANE":"２６３巷","ALLEY":" ","HOUSE_NO":"３６號","E_COORD97":166313.64000000001,"N_COORD97":2536387.9300000002,"ADDRESS":"灣裡路２６３巷３６號","OBJECTID":227935},"geometry":{"x":166313.6400000006,"y":2536387.9299999997}},{"attributes":{"ID":227940,"DIS_CODE":0,"TOWNNAME":"南區","LI":"興農里","LIN":"3鄰","STREET":"灣裡路","SECT":" ","MAREA":" ","LANE":"２６３巷","ALLEY":" ","HOUSE_NO":"３８號","E_COORD97":166316.79999999999,"N_COORD97":2536382.8399999999,"ADDRESS":"灣裡路２６３巷３８號","OBJECTID":227936},"geometry":{"x":166316.79999999981,"y":2536382.8399999999}},{"attributes":{"ID":227941,"DIS_CODE":0,"TOWNNAME":"南區","LI":"興農里","LIN":"3鄰","STREET":"灣裡路","SECT":" ","MAREA":" ","LANE":"２６３巷","ALLEY":" ","HOUSE_NO":"４０號","E_COORD97":166321.72,"N_COORD97":2536377.5699999998,"ADDRESS":"灣裡路２６３巷４０號","OBJECTID":227937},"geometry":{"x":166321.72000000067,"y":2536377.5700000003}},{"attributes":{"ID":227942,"DIS_CODE":0,"TOWNNAME":"南區","LI":"興農里","LIN":"3鄰","STREET":"灣裡路","SECT":" ","MAREA":" ","LANE":"２６３巷","ALLEY":" ","HOUSE_NO":"４０號之１","E_COORD97":166319.69,"N_COORD97":2536373.2400000002,"ADDRESS":"灣裡路２６３巷４０號之１","OBJECTID":227938},"geometry":{"x":166319.69000000134,"y":2536373.2400000002}},{"attributes":{"ID":227943,"DIS_CODE":0,"TOWNNAME":"南區","LI":"興農里","LIN":"3鄰","STREET":"灣裡路","SECT":" ","MAREA":" ","LANE":"２６３巷","ALLEY":" ","HOUSE_NO":"５９號","E_COORD97":166289.76000000001,"N_COORD97":2536426.7999999998,"ADDRESS":"灣裡路２６３巷５９號","OBJECTID":227939},"geometry":{"x":166289.76000000071,"y":2536426.8000000026}},{"attributes":{"ID":227944,"DIS_CODE":0,"TOWNNAME":"南區","LI":"興農里","LIN":"3鄰","STREET":"灣裡路","SECT":" ","MAREA":" ","LANE":"２６３巷","ALLEY":" ","HOUSE_NO":"６３號","E_COORD97":166303.94,"N_COORD97":2536427.0499999998,"ADDRESS":"灣裡路２６３巷６３號","OBJECTID":227940},"geometry":{"x":166303.94000000134,"y":2536427.0500000045}},{"attributes":{"ID":227945,"DIS_CODE":0,"TOWNNAME":"南區","LI":"興農里","LIN":"3鄰","STREET":"灣裡路","SECT":" ","MAREA":" ","LANE":"２６３巷","ALLEY":" ","HOUSE_NO":"６３號之１","E_COORD97":166308.06,"N_COORD97":2536427.6499999999,"ADDRESS":"灣裡路２６３巷６３號之１","OBJECTID":227941},"geometry":{"x":166308.05999999959,"y":2536427.6500000004}},{"attributes":{"ID":227946,"DIS_CODE":0,"TOWNNAME":"東區","LI":"崇文里","LIN":"34鄰","STREET":"生產路","SECT":" ","MAREA":" ","LANE":" ","ALLEY":" ","HOUSE_NO":"３３９號之４","E_COORD97":171121.70000000001,"N_COORD97":2540705.0899999999,"ADDRESS":"生產路３３９號之４","OBJECTID":227942},"geometry":{"x":171121.70000000112,"y":2540705.0900000017}},{"attributes":{"ID":227947,"DIS_CODE":0,"TOWNNAME":"東區","LI":"崇文里","LIN":"34鄰","STREET":"生產路","SECT":" ","MAREA":" ","LANE":" ","ALLEY":" ","HOUSE_NO":"３３９號之５","E_COORD97":171125.78,"N_COORD97":2540706.48,"ADDRESS":"生產路３３９號之５","OBJECTID":227943},"geometry":{"x":171125.78000000212,"y":2540706.4800000023}},{"attributes":{"ID":227948,"DIS_CODE":0,"TOWNNAME":"東區","LI":"崇文里","LIN":"34鄰","STREET":"生產路","SECT":" ","MAREA":" ","LANE":" ","ALLEY":" ","HOUSE_NO":"３３９號之６","E_COORD97":171129.66,"N_COORD97":2540708.4700000002,"ADDRESS":"生產路３３９號之６","OBJECTID":227944},"geometry":{"x":171129.65999999922,"y":2540708.4700000007}},{"attributes":{"ID":227949,"DIS_CODE":0,"TOWNNAME":"東區","LI":"崇文里","LIN":"34鄰","STREET":"生產路","SECT":" ","MAREA":" ","LANE":" ","ALLEY":" ","HOUSE_NO":"３５９號","E_COORD97":171167.34,"N_COORD97":2540727.9900000002,"ADDRESS":"生產路３５９號","OBJECTID":227945},"geometry":{"x":171167.34000000171,"y":2540727.9900000002}},{"attributes":{"ID":227950,"DIS_CODE":0,"TOWNNAME":"東山區","LI":"東原里","LIN":"23鄰","STREET":" ","SECT":" ","MAREA":"前大埔","LANE":" ","ALLEY":" ","HOUSE_NO":"１之８１號","E_COORD97":193427.29000000001,"N_COORD97":2574009.9300000002,"ADDRESS":"前大埔１之８１號","OBJECTID":227946},"geometry":{"x":193427.2900000019,"y":2574009.9300000016}},{"attributes":{"ID":227951,"DIS_CODE":0,"TOWNNAME":"東山區","LI":"東原里","LIN":"23鄰","STREET":" ","SECT":" ","MAREA":"前大埔","LANE":" ","ALLEY":" ","HOUSE_NO":"１號之９","E_COORD97":193470.32999999999,"N_COORD97":2574091.5,"ADDRESS":"前大埔１號之９","OBJECTID":227947},"geometry":{"x":193470.33000000007,"y":2574091.5000000019}},{"attributes":{"ID":227952,"DIS_CODE":0,"TOWNNAME":"東山區","LI":"東原里","LIN":"23鄰","STREET":" ","SECT":" ","MAREA":"前大埔","LANE":" ","ALLEY":" ","HOUSE_NO":"８號","E_COORD97":193417.82000000001,"N_COORD97":2573840.52,"ADDRESS":"前大埔８號","OBJECTID":227948},"geometry":{"x":193417.82000000123,"y":2573840.5199999996}},{"attributes":{"ID":227953,"DIS_CODE":0,"TOWNNAME":"東山區","LI":"東原里","LIN":"23鄰","STREET":" ","SECT":" ","MAREA":"前大埔","LANE":" ","ALLEY":" ","HOUSE_NO":"９號之１","E_COORD97":193322.45000000001,"N_COORD97":2573731.3100000001,"ADDRESS":"前大埔９號之１","OBJECTID":227949},"geometry":{"x":193322.45000000019,"y":2573731.3100000005}},{"attributes":{"ID":227954,"DIS_CODE":0,"TOWNNAME":"東區","LI":"崇文里","LIN":"34鄰","STREET":"生產路","SECT":" ","MAREA":" ","LANE":" ","ALLEY":" ","HOUSE_NO":"３６１號","E_COORD97":171171.62,"N_COORD97":2540729.6800000002,"ADDRESS":"生產路３６１號","OBJECTID":227950},"geometry":{"x":171171.62000000011,"y":2540729.6799999997}},{"attributes":{"ID":227955,"DIS_CODE":0,"TOWNNAME":"東區","LI":"崇文里","LIN":"34鄰","STREET":"生產路","SECT":" ","MAREA":" ","LANE":" ","ALLEY":" ","HOUSE_NO":"３６３號","E_COORD97":171175.70000000001,"N_COORD97":2540731.4700000002,"ADDRESS":"生產路３６３號","OBJECTID":227951},"geometry":{"x":171175.70000000112,"y":2540731.4700000007}},{"attributes":{"ID":227956,"DIS_CODE":0,"TOWNNAME":"東區","LI":"崇文里","LIN":"34鄰","STREET":"生產路","SECT":" ","MAREA":" ","LANE":" ","ALLEY":" ","HOUSE_NO":"３６５號","E_COORD97":171179.57999999999,"N_COORD97":2540733.5600000001,"ADDRESS":"生產路３６５號","OBJECTID":227952},"geometry":{"x":171179.58000000101,"y":2540733.5600000024}},{"attributes":{"ID":227957,"DIS_CODE":0,"TOWNNAME":"佳里區","LI":"建南里","LIN":"34鄰","STREET":"佳南路","SECT":" ","MAREA":" ","LANE":" ","ALLEY":" ","HOUSE_NO":"２４１號","E_COORD97":165938.23999999999,"N_COORD97":2560944.29,"ADDRESS":"佳南路２４１號","OBJECTID":227953},"geometry":{"x":165938.24000000022,"y":2560944.290000001}},{"attributes":{"ID":227958,"DIS_CODE":0,"TOWNNAME":"佳里區","LI":"建南里","LIN":"34鄰","STREET":"佳南路","SECT":" ","MAREA":" ","LANE":" ","ALLEY":" ","HOUSE_NO":"２９０號","E_COORD97":165986.25,"N_COORD97":2560987.8100000001,"ADDRESS":"佳南路２９０號","OBJECTID":227954},"geometry":{"x":165986.25000000093,"y":2560987.8100000005}},{"attributes":{"ID":227959,"DIS_CODE":0,"TOWNNAME":"新營區","LI":"王公里","LIN":"34鄰","STREET":"長榮路","SECT":"一段","MAREA":" ","LANE":" ","ALLEY":" ","HOUSE_NO":"５４５號","E_COORD97":180198.42000000001,"N_COORD97":2579852,"ADDRESS":"長榮路一段５４５號","OBJECTID":227955},"geometry":{"x":180198.41999999993,"y":2579852.0000000019}},{"attributes":{"ID":227960,"DIS_CODE":0,"TOWNNAME":"鹽水區","LI":"歡雅里","LIN":"23鄰","STREET":" ","SECT":" ","MAREA":"下寮","LANE":" ","ALLEY":" ","HOUSE_NO":"１１號","E_COORD97":172391.51999999999,"N_COORD97":2575228.1299999999,"ADDRESS":"下寮１１號","OBJECTID":227956},"geometry":{"x":172391.52000000048,"y":2575228.1300000008}},{"attributes":{"ID":227961,"DIS_CODE":0,"TOWNNAME":"鹽水區","LI":"歡雅里","LIN":"23鄰","STREET":" ","SECT":" ","MAREA":"下寮","LANE":" ","ALLEY":" ","HOUSE_NO":"１２之１號","E_COORD97":172277.39000000001,"N_COORD97":2575298.3999999999,"ADDRESS":"下寮１２之１號","OBJECTID":227957},"geometry":{"x":172277.3900000006,"y":2575298.4000000041}},{"attributes":{"ID":227962,"DIS_CODE":0,"TOWNNAME":"鹽水區","LI":"歡雅里","LIN":"23鄰","STREET":" ","SECT":" ","MAREA":"下寮","LANE":" ","ALLEY":" ","HOUSE_NO":"１２號之２","E_COORD97":172253.04999999999,"N_COORD97":2575339.5099999998,"ADDRESS":"下寮１２號之２","OBJECTID":227958},"geometry":{"x":172253.05000000075,"y":2575339.5099999998}},{"attributes":{"ID":227963,"DIS_CODE":0,"TOWNNAME":"鹽水區","LI":"歡雅里","LIN":"23鄰","STREET":" ","SECT":" ","MAREA":"下寮","LANE":" ","ALLEY":" ","HOUSE_NO":"１２號","E_COORD97":172347.25,"N_COORD97":2575242.29,"ADDRESS":"下寮１２號","OBJECTID":227959},"geometry":{"x":172347.25,"y":2575242.2899999991}},{"attributes":{"ID":227964,"DIS_CODE":0,"TOWNNAME":"鹽水區","LI":"歡雅里","LIN":"23鄰","STREET":" ","SECT":" ","MAREA":"下寮","LANE":" ","ALLEY":" ","HOUSE_NO":"２３號","E_COORD97":172409.38,"N_COORD97":2575121.3700000001,"ADDRESS":"下寮２３號","OBJECTID":227960},"geometry":{"x":172409.37999999989,"y":2575121.370000001}},{"attributes":{"ID":227965,"DIS_CODE":0,"TOWNNAME":"鹽水區","LI":"歡雅里","LIN":"23鄰","STREET":" ","SECT":" ","MAREA":"下寮","LANE":" ","ALLEY":" ","HOUSE_NO":"２４號","E_COORD97":172484.70999999999,"N_COORD97":2575179.98,"ADDRESS":"下寮２４號","OBJECTID":227961},"geometry":{"x":172484.70999999996,"y":2575179.9800000023}},{"attributes":{"ID":227966,"DIS_CODE":0,"TOWNNAME":"鹽水區","LI":"歡雅里","LIN":"23鄰","STREET":" ","SECT":" ","MAREA":"下寮","LANE":" ","ALLEY":" ","HOUSE_NO":"８號","E_COORD97":172421.48999999999,"N_COORD97":2575231.9900000002,"ADDRESS":"下寮８號","OBJECTID":227962},"geometry":{"x":172421.49000000115,"y":2575231.9900000002}},{"attributes":{"ID":227967,"DIS_CODE":0,"TOWNNAME":"鹽水區","LI":"歡雅里","LIN":"23鄰","STREET":" ","SECT":" ","MAREA":"下寮","LANE":" ","ALLEY":" ","HOUSE_NO":"９號","E_COORD97":172423.14000000001,"N_COORD97":2575208.3300000001,"ADDRESS":"下寮９號","OBJECTID":227963},"geometry":{"x":172423.1400000006,"y":2575208.3300000019}},{"attributes":{"ID":227968,"DIS_CODE":0,"TOWNNAME":"鹽水區","LI":"岸內里","LIN":"23鄰","STREET":"北門路","SECT":" ","MAREA":" ","LANE":"７巷","ALLEY":" ","HOUSE_NO":"７２號","E_COORD97":175354.70999999999,"N_COORD97":2580485.71,"ADDRESS":"北門路７巷７２號","OBJECTID":227964},"geometry":{"x":175354.70999999996,"y":2580485.7100000009}},{"attributes":{"ID":227969,"DIS_CODE":0,"TOWNNAME":"鹽水區","LI":"岸內里","LIN":"23鄰","STREET":"北門路","SECT":" ","MAREA":" ","LANE":"７巷","ALLEY":" ","HOUSE_NO":"７３號","E_COORD97":175333.04000000001,"N_COORD97":2580484.54,"ADDRESS":"北門路７巷７３號","OBJECTID":227965},"geometry":{"x":175333.04000000097,"y":2580484.540000001}},{"attributes":{"ID":227970,"DIS_CODE":0,"TOWNNAME":"鹽水區","LI":"岸內里","LIN":"23鄰","STREET":"北門路","SECT":" ","MAREA":" ","LANE":"７巷","ALLEY":" ","HOUSE_NO":"７４號","E_COORD97":175353.85999999999,"N_COORD97":2580489.5899999999,"ADDRESS":"北門路７巷７４號","OBJECTID":227966},"geometry":{"x":175353.86000000127,"y":2580489.5899999999}},{"attributes":{"ID":227971,"DIS_CODE":0,"TOWNNAME":"鹽水區","LI":"岸內里","LIN":"23鄰","STREET":"北門路","SECT":" ","MAREA":" ","LANE":"７巷","ALLEY":" ","HOUSE_NO":"７５號","E_COORD97":175332.29999999999,"N_COORD97":2580488.4500000002,"ADDRESS":"北門路７巷７５號","OBJECTID":227967},"geometry":{"x":175332.29999999981,"y":2580488.4500000011}},{"attributes":{"ID":227972,"DIS_CODE":0,"TOWNNAME":"鹽水區","LI":"岸內里","LIN":"23鄰","STREET":"北門路","SECT":" ","MAREA":" ","LANE":"７巷","ALLEY":" ","HOUSE_NO":"７７號","E_COORD97":175330.66,"N_COORD97":2580500.2000000002,"ADDRESS":"北門路７巷７７號","OBJECTID":227968},"geometry":{"x":175330.66000000108,"y":2580500.2000000011}},{"attributes":{"ID":227973,"DIS_CODE":0,"TOWNNAME":"鹽水區","LI":"岸內里","LIN":"23鄰","STREET":"北門路","SECT":" ","MAREA":" ","LANE":"７巷","ALLEY":" ","HOUSE_NO":"７９號","E_COORD97":175330.29000000001,"N_COORD97":2580504.25,"ADDRESS":"北門路７巷７９號","OBJECTID":227969},"geometry":{"x":175330.29000000097,"y":2580504.2500000019}},{"attributes":{"ID":227974,"DIS_CODE":0,"TOWNNAME":"南區","LI":"興農里","LIN":"3鄰","STREET":"灣裡路","SECT":" ","MAREA":" ","LANE":"２６３巷","ALLEY":" ","HOUSE_NO":"７１號之１","E_COORD97":166317.67000000001,"N_COORD97":2536409.02,"ADDRESS":"灣裡路２６３巷７１號之１","OBJECTID":227970},"geometry":{"x":166317.67000000086,"y":2536409.0200000033}},{"attributes":{"ID":227975,"DIS_CODE":0,"TOWNNAME":"南區","LI":"興農里","LIN":"3鄰","STREET":"灣裡路","SECT":" ","MAREA":" ","LANE":"２６３巷","ALLEY":" ","HOUSE_NO":"７５號","E_COORD97":166329.04999999999,"N_COORD97":2536389.7400000002,"ADDRESS":"灣裡路２６３巷７５號","OBJECTID":227971},"geometry":{"x":166329.04999999981,"y":2536389.7400000002}},{"attributes":{"ID":227976,"DIS_CODE":0,"TOWNNAME":"南區","LI":"興農里","LIN":"3鄰","STREET":"灣裡路","SECT":" ","MAREA":" ","LANE":"２６３巷","ALLEY":" ","HOUSE_NO":"７５號之１","E_COORD97":166325.54999999999,"N_COORD97":2536394.0699999998,"ADDRESS":"灣裡路２６３巷７５號之１","OBJECTID":227972},"geometry":{"x":166325.54999999981,"y":2536394.0700000003}},{"attributes":{"ID":227977,"DIS_CODE":0,"TOWNNAME":"南區","LI":"興農里","LIN":"3鄰","STREET":"灣裡路","SECT":" ","MAREA":" ","LANE":"２６３巷","ALLEY":" ","HOUSE_NO":"７７號","E_COORD97":166331.94,"N_COORD97":2536382.7400000002,"ADDRESS":"灣裡路２６３巷７７號","OBJECTID":227973},"geometry":{"x":166331.94000000041,"y":2536382.7400000002}},{"attributes":{"ID":227978,"DIS_CODE":0,"TOWNNAME":"白河區","LI":"白河里","LIN":"3鄰","STREET":"新起街","SECT":" ","MAREA":" ","LANE":"１５６巷","ALLEY":" ","HOUSE_NO":"１號","E_COORD97":190172.78,"N_COORD97":2582674.9700000002,"ADDRESS":"新起街１５６巷１號","OBJECTID":227974},"geometry":{"x":190172.77999999933,"y":2582674.9700000007}},{"attributes":{"ID":227979,"DIS_CODE":0,"TOWNNAME":"白河區","LI":"白河里","LIN":"3鄰","STREET":"新起街","SECT":" ","MAREA":" ","LANE":"１５６巷","ALLEY":" ","HOUSE_NO":"２號","E_COORD97":190177.23000000001,"N_COORD97":2582674.21,"ADDRESS":"新起街１５６巷２號","OBJECTID":227975},"geometry":{"x":190177.23000000138,"y":2582674.2100000046}},{"attributes":{"ID":227980,"DIS_CODE":0,"TOWNNAME":"白河區","LI":"白河里","LIN":"3鄰","STREET":"新起街","SECT":" ","MAREA":" ","LANE":"１５６巷","ALLEY":" ","HOUSE_NO":"３號","E_COORD97":190181.64999999999,"N_COORD97":2582673.5699999998,"ADDRESS":"新起街１５６巷３號","OBJECTID":227976},"geometry":{"x":190181.65000000037,"y":2582673.5700000003}},{"attributes":{"ID":227981,"DIS_CODE":0,"TOWNNAME":"新營區","LI":"王公里","LIN":"34鄰","STREET":"中正路","SECT":" ","MAREA":" ","LANE":" ","ALLEY":" ","HOUSE_NO":"２００之４０號","E_COORD97":180239.69,"N_COORD97":2579774.3500000001,"ADDRESS":"中正路２００之４０號","OBJECTID":227977},"geometry":{"x":180239.68999999948,"y":2579774.3500000015}},{"attributes":{"ID":227982,"DIS_CODE":0,"TOWNNAME":"新營區","LI":"王公里","LIN":"34鄰","STREET":"中正路","SECT":" ","MAREA":" ","LANE":" ","ALLEY":" ","HOUSE_NO":"２００之２４號","E_COORD97":180235.82000000001,"N_COORD97":2579820.8799999999,"ADDRESS":"中正路２００之２４號","OBJECTID":227978},"geometry":{"x":180235.82000000123,"y":2579820.8800000008}},{"attributes":{"ID":227983,"DIS_CODE":0,"TOWNNAME":"新營區","LI":"王公里","LIN":"34鄰","STREET":"中正路","SECT":" ","MAREA":" ","LANE":" ","ALLEY":" ","HOUSE_NO":"２００之３５號","E_COORD97":180258.20000000001,"N_COORD97":2579795.3100000001,"ADDRESS":"中正路２００之３５號","OBJECTID":227979},"geometry":{"x":180258.20000000205,"y":2579795.3100000024}},{"attributes":{"ID":227984,"DIS_CODE":0,"TOWNNAME":"歸仁區","LI":"辜厝里","LIN":"34鄰","STREET":"大吉街","SECT":" ","MAREA":" ","LANE":" ","ALLEY":" ","HOUSE_NO":"１２１號","E_COORD97":177210.94,"N_COORD97":2540527.6800000002,"ADDRESS":"大吉街１２１號","OBJECTID":227980},"geometry":{"x":177210.94000000134,"y":2540527.6800000016}},{"attributes":{"ID":227985,"DIS_CODE":0,"TOWNNAME":"歸仁區","LI":"辜厝里","LIN":"34鄰","STREET":"大吉二街","SECT":" ","MAREA":" ","LANE":" ","ALLEY":" ","HOUSE_NO":"１０號","E_COORD97":177233.54000000001,"N_COORD97":2540534.6800000002,"ADDRESS":"大吉二街１０號","OBJECTID":227981},"geometry":{"x":177233.54000000097,"y":2540534.6800000016}},{"attributes":{"ID":227986,"DIS_CODE":0,"TOWNNAME":"歸仁區","LI":"辜厝里","LIN":"34鄰","STREET":"大吉街","SECT":" ","MAREA":" ","LANE":" ","ALLEY":" ","HOUSE_NO":"１６５號","E_COORD97":177204.34,"N_COORD97":2540424.6800000002,"ADDRESS":"大吉街１６５號","OBJECTID":227982},"geometry":{"x":177204.34000000078,"y":2540424.6799999997}},{"attributes":{"ID":227987,"DIS_CODE":0,"TOWNNAME":"鹽水區","LI":"岸內里","LIN":"23鄰","STREET":"北門路","SECT":" ","MAREA":" ","LANE":"７巷","ALLEY":" ","HOUSE_NO":"８１號","E_COORD97":175329.54999999999,"N_COORD97":2580508.5499999998,"ADDRESS":"北門路７巷８１號","OBJECTID":227983},"geometry":{"x":175329.55000000075,"y":2580508.5500000045}},{"attributes":{"ID":227988,"DIS_CODE":0,"TOWNNAME":"鹽水區","LI":"岸內里","LIN":"23鄰","STREET":"北門路","SECT":" ","MAREA":" ","LANE":"７巷","ALLEY":" ","HOUSE_NO":"８５號","E_COORD97":175327.98000000001,"N_COORD97":2580516.2799999998,"ADDRESS":"北門路７巷８５號","OBJECTID":227984},"geometry":{"x":175327.98000000045,"y":2580516.2800000012}},{"attributes":{"ID":227989,"DIS_CODE":0,"TOWNNAME":"鹽水區","LI":"岸內里","LIN":"23鄰","STREET":"北門路","SECT":" ","MAREA":" ","LANE":"７巷","ALLEY":" ","HOUSE_NO":"８７號","E_COORD97":175327.56,"N_COORD97":2580519.98,"ADDRESS":"北門路７巷８７號","OBJECTID":227985},"geometry":{"x":175327.56000000052,"y":2580519.9800000023}},{"attributes":{"ID":227990,"DIS_CODE":0,"TOWNNAME":"鹽水區","LI":"岸內里","LIN":"23鄰","STREET":"北門路","SECT":" ","MAREA":" ","LANE":"７巷","ALLEY":" ","HOUSE_NO":"８９號","E_COORD97":175326.91,"N_COORD97":2580523.48,"ADDRESS":"北門路７巷８９號","OBJECTID":227986},"geometry":{"x":175326.91000000015,"y":2580523.4800000023}},{"attributes":{"ID":227991,"DIS_CODE":0,"TOWNNAME":"鹽水區","LI":"岸內里","LIN":"23鄰","STREET":"北門路","SECT":" ","MAREA":" ","LANE":"７巷","ALLEY":" ","HOUSE_NO":"９１號","E_COORD97":175325.97,"N_COORD97":2580527.7400000002,"ADDRESS":"北門路７巷９１號","OBJECTID":227987},"geometry":{"x":175325.96999999974,"y":2580527.7400000021}},{"attributes":{"ID":227992,"DIS_CODE":0,"TOWNNAME":"鹽水區","LI":"岸內里","LIN":"23鄰","STREET":"北門路","SECT":" ","MAREA":" ","LANE":"７巷","ALLEY":" ","HOUSE_NO":"９３號","E_COORD97":175325.39000000001,"N_COORD97":2580532.3399999999,"ADDRESS":"北門路７巷９３號","OBJECTID":227988},"geometry":{"x":175325.3900000006,"y":2580532.3399999999}},{"attributes":{"ID":227993,"DIS_CODE":0,"TOWNNAME":"鹽水區","LI":"岸內里","LIN":"23鄰","STREET":"北門路","SECT":" ","MAREA":" ","LANE":"７巷","ALLEY":" ","HOUSE_NO":"９５號","E_COORD97":175324.63,"N_COORD97":2580536.4500000002,"ADDRESS":"北門路７巷９５號","OBJECTID":227989},"geometry":{"x":175324.62999999989,"y":2580536.4500000011}},{"attributes":{"ID":227994,"DIS_CODE":0,"TOWNNAME":"鹽水區","LI":"岸內里","LIN":"23鄰","STREET":"北門路","SECT":" ","MAREA":" ","LANE":"７巷","ALLEY":" ","HOUSE_NO":"９７號","E_COORD97":175324.10999999999,"N_COORD97":2580540.52,"ADDRESS":"北門路７巷９７號","OBJECTID":227990},"geometry":{"x":175324.1099999994,"y":2580540.5199999996}},{"attributes":{"ID":227995,"DIS_CODE":0,"TOWNNAME":"鹽水區","LI":"岸內里","LIN":"23鄰","STREET":"北門路","SECT":" ","MAREA":" ","LANE":"７巷","ALLEY":" ","HOUSE_NO":"４５號","E_COORD97":175343.26999999999,"N_COORD97":2580429.0699999998,"ADDRESS":"北門路７巷４５號","OBJECTID":227991},"geometry":{"x":175343.27000000048,"y":2580429.0700000003}},{"attributes":{"ID":227996,"DIS_CODE":0,"TOWNNAME":"鹽水區","LI":"岸內里","LIN":"23鄰","STREET":"北門路","SECT":" ","MAREA":" ","LANE":"７巷","ALLEY":" ","HOUSE_NO":"４７號","E_COORD97":175342.54999999999,"N_COORD97":2580433.1499999999,"ADDRESS":"北門路７巷４７號","OBJECTID":227992},"geometry":{"x":175342.54999999981,"y":2580433.1500000041}},{"attributes":{"ID":227997,"DIS_CODE":0,"TOWNNAME":"鹽水區","LI":"岸內里","LIN":"23鄰","STREET":"北門路","SECT":" ","MAREA":" ","LANE":"７巷","ALLEY":" ","HOUSE_NO":"４９號","E_COORD97":175341.82999999999,"N_COORD97":2580437.23,"ADDRESS":"北門路７巷４９號","OBJECTID":227993},"geometry":{"x":175341.83000000101,"y":2580437.2300000023}},{"attributes":{"ID":227998,"DIS_CODE":0,"TOWNNAME":"鹽水區","LI":"岸內里","LIN":"23鄰","STREET":"北門路","SECT":" ","MAREA":" ","LANE":"７巷","ALLEY":" ","HOUSE_NO":"５１號","E_COORD97":175341.10999999999,"N_COORD97":2580441.2999999998,"ADDRESS":"北門路７巷５１號","OBJECTID":227994},"geometry":{"x":175341.1099999994,"y":2580441.3000000007}},{"attributes":{"ID":227999,"DIS_CODE":0,"TOWNNAME":"鹽水區","LI":"岸內里","LIN":"23鄰","STREET":"北門路","SECT":" ","MAREA":" ","LANE":"７巷","ALLEY":" ","HOUSE_NO":"５３號","E_COORD97":175340.39000000001,"N_COORD97":2580445.3799999999,"ADDRESS":"北門路７巷５３號","OBJECTID":227995},"geometry":{"x":175340.39000000153,"y":2580445.379999999}},{"attributes":{"ID":228000,"DIS_CODE":0,"TOWNNAME":"鹽水區","LI":"岸內里","LIN":"23鄰","STREET":"北門路","SECT":" ","MAREA":" ","LANE":"７巷","ALLEY":" ","HOUSE_NO":"５５號","E_COORD97":175339.67000000001,"N_COORD97":2580449.4500000002,"ADDRESS":"北門路７巷５５號","OBJECTID":227996},"geometry":{"x":175339.66999999993,"y":2580449.4499999993}},{"attributes":{"ID":228001,"DIS_CODE":0,"TOWNNAME":"歸仁區","LI":"南興里","LIN":"34鄰","STREET":"民生北街","SECT":" ","MAREA":" ","LANE":" ","ALLEY":" ","HOUSE_NO":"７２號","E_COORD97":176276.81,"N_COORD97":2541121.25,"ADDRESS":"民生北街７２號","OBJECTID":227997},"geometry":{"x":176276.81000000052,"y":2541121.2500000019}},{"attributes":{"ID":228002,"DIS_CODE":0,"TOWNNAME":"歸仁區","LI":"南保里","LIN":"34鄰","STREET":"民權八街","SECT":" ","MAREA":" ","LANE":" ","ALLEY":" ","HOUSE_NO":"８９號","E_COORD97":176721.51000000001,"N_COORD97":2541047.25,"ADDRESS":"民權八街８９號","OBJECTID":227998},"geometry":{"x":176721.51000000071,"y":2541047.2500000019}},{"attributes":{"ID":228003,"DIS_CODE":0,"TOWNNAME":"歸仁區","LI":"南興里","LIN":"34鄰","STREET":"文化九街","SECT":" ","MAREA":" ","LANE":" ","ALLEY":" ","HOUSE_NO":"２８號","E_COORD97":176350.34,"N_COORD97":2541110.3300000001,"ADDRESS":"文化九街２８號","OBJECTID":227999},"geometry":{"x":176350.33999999985,"y":2541110.3300000019}},{"attributes":{"ID":228004,"DIS_CODE":0,"TOWNNAME":"歸仁區","LI":"南興里","LIN":"34鄰","STREET":"文化九街","SECT":" ","MAREA":" ","LANE":" ","ALLEY":" ","HOUSE_NO":"２４號","E_COORD97":176349.44,"N_COORD97":2541118.3300000001,"ADDRESS":"文化九街２４號","OBJECTID":228000},"geometry":{"x":176349.44000000227,"y":2541118.3300000001}}]}