{"displayFieldName":"TOWNNAME","fieldAliases":{"ID":"ID","DIS_CODE":"DIS_CODE","TOWNNAME":"TOWNNAME","LI":"LI","LIN":"LIN","STREET":"STREET","SECT":"SECT","MAREA":"MAREA","LANE":"LANE","ALLEY":"ALLEY","HOUSE_NO":"HOUSE_NO","E_COORD97":"E_COORD97","N_COORD97":"N_COORD97","ADDRESS":"ADDRESS","OBJECTID":"OBJECTID"},"geometryType":"esriGeometryPoint","spatialReference":{"wkid":102443,"latestWkid":3826},"fields":[{"name":"ID","type":"esriFieldTypeDouble","alias":"ID"},{"name":"DIS_CODE","type":"esriFieldTypeInteger","alias":"DIS_CODE"},{"name":"TOWNNAME","type":"esriFieldTypeString","alias":"TOWNNAME","length":8},{"name":"LI","type":"esriFieldTypeString","alias":"LI","length":8},{"name":"LIN","type":"esriFieldTypeString","alias":"LIN","length":12},{"name":"STREET","type":"esriFieldTypeString","alias":"STREET","length":20},{"name":"SECT","type":"esriFieldTypeString","alias":"SECT","length":8},{"name":"MAREA","type":"esriFieldTypeString","alias":"MAREA","length":12},{"name":"LANE","type":"esriFieldTypeString","alias":"LANE","length":10},{"name":"ALLEY","type":"esriFieldTypeString","alias":"ALLEY","length":10},{"name":"HOUSE_NO","type":"esriFieldTypeString","alias":"HOUSE_NO","length":20},{"name":"E_COORD97","type":"esriFieldTypeDouble","alias":"E_COORD97"},{"name":"N_COORD97","type":"esriFieldTypeDouble","alias":"N_COORD97"},{"name":"ADDRESS","type":"esriFieldTypeString","alias":"ADDRESS","length":50},{"name":"OBJECTID","type":"esriFieldTypeOID","alias":"OBJECTID"}],"features":[{"attributes":{"ID":268206,"DIS_CODE":0,"TOWNNAME":"南區","LI":"文南里","LIN":"3鄰","STREET":"金華路","SECT":"二段","MAREA":" ","LANE":" ","ALLEY":" ","HOUSE_NO":"２８３號","E_COORD97":167110.47,"N_COORD97":2542765.8500000001,"ADDRESS":"金華路二段２８３號","OBJECTID":268201},"geometry":{"x":167110.47000000067,"y":2542765.8499999996}},{"attributes":{"ID":268207,"DIS_CODE":0,"TOWNNAME":"新營區","LI":"興業里","LIN":" ","STREET":"中興路","SECT":" ","MAREA":" ","LANE":"１３巷","ALLEY":" ","HOUSE_NO":"１０之３號","E_COORD97":180185.63,"N_COORD97":2577963.9100000001,"ADDRESS":"中興路１３巷１０之３號","OBJECTID":268202},"geometry":{"x":180185.63000000082,"y":2577963.910000002}},{"attributes":{"ID":268208,"DIS_CODE":0,"TOWNNAME":"中西區","LI":"郡王里","LIN":"17鄰","STREET":"南門路","SECT":" ","MAREA":" ","LANE":"９７巷","ALLEY":" ","HOUSE_NO":"２號二樓","E_COORD97":168472.54000000001,"N_COORD97":2543201.6400000001,"ADDRESS":"南門路９７巷２號二樓","OBJECTID":268203},"geometry":{"x":168472.5400000019,"y":2543201.6400000025}},{"attributes":{"ID":268209,"DIS_CODE":0,"TOWNNAME":"中西區","LI":"郡王里","LIN":"17鄰","STREET":"南門路","SECT":" ","MAREA":" ","LANE":"９７巷","ALLEY":" ","HOUSE_NO":"２號三樓","E_COORD97":168472.54000000001,"N_COORD97":2543201.6400000001,"ADDRESS":"南門路９７巷２號三樓","OBJECTID":268204},"geometry":{"x":168472.5400000019,"y":2543201.6400000025}},{"attributes":{"ID":268210,"DIS_CODE":0,"TOWNNAME":"中西區","LI":"郡王里","LIN":"17鄰","STREET":"南門路","SECT":" ","MAREA":" ","LANE":"９７巷","ALLEY":" ","HOUSE_NO":"２號之１二樓","E_COORD97":168483.48000000001,"N_COORD97":2543201.8100000001,"ADDRESS":"南門路９７巷２號之１二樓","OBJECTID":268205},"geometry":{"x":168483.48000000231,"y":2543201.8100000005}},{"attributes":{"ID":268211,"DIS_CODE":0,"TOWNNAME":"中西區","LI":"郡王里","LIN":"17鄰","STREET":"南門路","SECT":" ","MAREA":" ","LANE":"９７巷","ALLEY":" ","HOUSE_NO":"２號之１三樓","E_COORD97":168483.48000000001,"N_COORD97":2543201.8100000001,"ADDRESS":"南門路９７巷２號之１三樓","OBJECTID":268206},"geometry":{"x":168483.48000000231,"y":2543201.8100000005}},{"attributes":{"ID":268212,"DIS_CODE":0,"TOWNNAME":"永康區","LI":"西灣里","LIN":"22鄰","STREET":"大勇路","SECT":" ","MAREA":" ","LANE":"４８巷","ALLEY":" ","HOUSE_NO":"１２號","E_COORD97":174234.42000000001,"N_COORD97":2545363.5099999998,"ADDRESS":"大勇路４８巷１２號","OBJECTID":268207},"geometry":{"x":174234.41999999993,"y":2545363.5100000016}},{"attributes":{"ID":268213,"DIS_CODE":0,"TOWNNAME":"南區","LI":"大恩里","LIN":"3鄰","STREET":"國民路","SECT":" ","MAREA":" ","LANE":" ","ALLEY":" ","HOUSE_NO":"１３８號","E_COORD97":169251.53,"N_COORD97":2540909.27,"ADDRESS":"國民路１３８號","OBJECTID":268208},"geometry":{"x":169251.53000000119,"y":2540909.2699999996}},{"attributes":{"ID":268214,"DIS_CODE":0,"TOWNNAME":"南區","LI":"文南里","LIN":"3鄰","STREET":"金華路","SECT":"二段","MAREA":" ","LANE":" ","ALLEY":" ","HOUSE_NO":"２３５號","E_COORD97":167102.01999999999,"N_COORD97":2542640.4399999999,"ADDRESS":"金華路二段２３５號","OBJECTID":268209},"geometry":{"x":167102.01999999955,"y":2542640.4399999995}},{"attributes":{"ID":268215,"DIS_CODE":0,"TOWNNAME":"歸仁區","LI":"崙頂里","LIN":"3鄰","STREET":"崙頂一街","SECT":" ","MAREA":" ","LANE":" ","ALLEY":" ","HOUSE_NO":"１０３號","E_COORD97":178123.20000000001,"N_COORD97":2540007.6800000002,"ADDRESS":"崙頂一街１０３號","OBJECTID":268210},"geometry":{"x":178123.20000000019,"y":2540007.6799999997}},{"attributes":{"ID":268216,"DIS_CODE":0,"TOWNNAME":"歸仁區","LI":"媽廟里","LIN":"3鄰","STREET":"媽廟一街","SECT":" ","MAREA":" ","LANE":" ","ALLEY":" ","HOUSE_NO":"４０號","E_COORD97":177385.42999999999,"N_COORD97":2543561.7200000002,"ADDRESS":"媽廟一街４０號","OBJECTID":268211},"geometry":{"x":177385.4299999997,"y":2543561.7200000007}},{"attributes":{"ID":268217,"DIS_CODE":0,"TOWNNAME":"中西區","LI":"郡王里","LIN":"17鄰","STREET":"南門路","SECT":" ","MAREA":" ","LANE":"９７巷","ALLEY":" ","HOUSE_NO":"２號之１五樓","E_COORD97":168483.48000000001,"N_COORD97":2543201.8100000001,"ADDRESS":"南門路９７巷２號之１五樓","OBJECTID":268212},"geometry":{"x":168483.48000000231,"y":2543201.8100000005}},{"attributes":{"ID":268218,"DIS_CODE":0,"TOWNNAME":"中西區","LI":"郡王里","LIN":"17鄰","STREET":"南門路","SECT":" ","MAREA":" ","LANE":"９７巷","ALLEY":" ","HOUSE_NO":"２號之１四樓","E_COORD97":168483.48000000001,"N_COORD97":2543201.8100000001,"ADDRESS":"南門路９７巷２號之１四樓","OBJECTID":268213},"geometry":{"x":168483.48000000231,"y":2543201.8100000005}},{"attributes":{"ID":268219,"DIS_CODE":0,"TOWNNAME":"中西區","LI":"郡王里","LIN":"17鄰","STREET":"南門路","SECT":" ","MAREA":" ","LANE":"９７巷","ALLEY":" ","HOUSE_NO":"２號之２二樓","E_COORD97":168480.10999999999,"N_COORD97":2543227.8700000001,"ADDRESS":"南門路９７巷２號之２二樓","OBJECTID":268214},"geometry":{"x":168480.11000000034,"y":2543227.870000001}},{"attributes":{"ID":268220,"DIS_CODE":0,"TOWNNAME":"中西區","LI":"郡王里","LIN":"17鄰","STREET":"南門路","SECT":" ","MAREA":" ","LANE":"９７巷","ALLEY":" ","HOUSE_NO":"２號之２三樓","E_COORD97":168480.10999999999,"N_COORD97":2543227.8700000001,"ADDRESS":"南門路９７巷２號之２三樓","OBJECTID":268215},"geometry":{"x":168480.11000000034,"y":2543227.870000001}},{"attributes":{"ID":268221,"DIS_CODE":0,"TOWNNAME":"中西區","LI":"郡王里","LIN":"17鄰","STREET":"南門路","SECT":" ","MAREA":" ","LANE":"９７巷","ALLEY":" ","HOUSE_NO":"２號之２五樓","E_COORD97":168480.10999999999,"N_COORD97":2543227.8700000001,"ADDRESS":"南門路９７巷２號之２五樓","OBJECTID":268216},"geometry":{"x":168480.11000000034,"y":2543227.870000001}},{"attributes":{"ID":268222,"DIS_CODE":0,"TOWNNAME":"永康區","LI":"復華里","LIN":"17鄰","STREET":"國華街","SECT":" ","MAREA":" ","LANE":"１０２巷","ALLEY":" ","HOUSE_NO":"５１號十一樓之２","E_COORD97":172886.37,"N_COORD97":2546112.2799999998,"ADDRESS":"國華街１０２巷５１號十一樓之２","OBJECTID":268217},"geometry":{"x":172886.37000000197,"y":2546112.2799999993}},{"attributes":{"ID":268223,"DIS_CODE":0,"TOWNNAME":"玉井區","LI":"豐里里","LIN":"3鄰","STREET":" ","SECT":" ","MAREA":"豐里","LANE":" ","ALLEY":" ","HOUSE_NO":"３１號","E_COORD97":193203.67000000001,"N_COORD97":2558199.2400000002,"ADDRESS":"豐里３１號","OBJECTID":268218},"geometry":{"x":193203.66999999993,"y":2558199.2400000021}},{"attributes":{"ID":268224,"DIS_CODE":0,"TOWNNAME":"永康區","LI":"復華里","LIN":"17鄰","STREET":"國華街","SECT":" ","MAREA":" ","LANE":"１０２巷","ALLEY":" ","HOUSE_NO":"５１號二樓之２","E_COORD97":172885.12,"N_COORD97":2546112.2799999998,"ADDRESS":"國華街１０２巷５１號二樓之２","OBJECTID":268219},"geometry":{"x":172885.12000000104,"y":2546112.2799999993}},{"attributes":{"ID":268225,"DIS_CODE":0,"TOWNNAME":"歸仁區","LI":"南興里","LIN":"3鄰","STREET":"文化十二街","SECT":" ","MAREA":" ","LANE":" ","ALLEY":" ","HOUSE_NO":"６３號","E_COORD97":176458.29000000001,"N_COORD97":2541319.3300000001,"ADDRESS":"文化十二街６３號","OBJECTID":268220},"geometry":{"x":176458.29000000004,"y":2541319.3300000001}},{"attributes":{"ID":268226,"DIS_CODE":0,"TOWNNAME":"永康區","LI":"復華里","LIN":"17鄰","STREET":"國華街","SECT":" ","MAREA":" ","LANE":"１０２巷","ALLEY":" ","HOUSE_NO":"５１號六樓之１","E_COORD97":172884.98999999999,"N_COORD97":2546112.2799999998,"ADDRESS":"國華街１０２巷５１號六樓之１","OBJECTID":268221},"geometry":{"x":172884.99000000022,"y":2546112.2799999993}},{"attributes":{"ID":268227,"DIS_CODE":0,"TOWNNAME":"永康區","LI":"復興里","LIN":"17鄰","STREET":"復興路","SECT":" ","MAREA":" ","LANE":"３５６巷","ALLEY":" ","HOUSE_NO":"６７號","E_COORD97":172322.89000000001,"N_COORD97":2544482.7400000002,"ADDRESS":"復興路３５６巷６７號","OBJECTID":268222},"geometry":{"x":172322.89000000153,"y":2544482.7400000002}},{"attributes":{"ID":268228,"DIS_CODE":0,"TOWNNAME":"永康區","LI":"復國里","LIN":"17鄰","STREET":"國華街","SECT":" ","MAREA":" ","LANE":"３６巷","ALLEY":" ","HOUSE_NO":"３號","E_COORD97":172863.82000000001,"N_COORD97":2545660.9900000002,"ADDRESS":"國華街３６巷３號","OBJECTID":268223},"geometry":{"x":172863.82000000123,"y":2545660.9900000002}},{"attributes":{"ID":268229,"DIS_CODE":0,"TOWNNAME":"永康區","LI":"復國里","LIN":"17鄰","STREET":"國華街","SECT":" ","MAREA":" ","LANE":"１８巷","ALLEY":" ","HOUSE_NO":"１２號","E_COORD97":172870.67999999999,"N_COORD97":2545602.25,"ADDRESS":"國華街１８巷１２號","OBJECTID":268224},"geometry":{"x":172870.68000000063,"y":2545602.2499999981}},{"attributes":{"ID":268230,"DIS_CODE":0,"TOWNNAME":"永康區","LI":"崑山里","LIN":"17鄰","STREET":"大灣路","SECT":" ","MAREA":" ","LANE":"９４２巷","ALLEY":" ","HOUSE_NO":"４９號","E_COORD97":173628.73000000001,"N_COORD97":2544531.4900000002,"ADDRESS":"大灣路９４２巷４９號","OBJECTID":268225},"geometry":{"x":173628.73000000138,"y":2544531.4900000002}},{"attributes":{"ID":268231,"DIS_CODE":0,"TOWNNAME":"永康區","LI":"崑山里","LIN":"17鄰","STREET":"大灣路","SECT":" ","MAREA":" ","LANE":"９４２巷","ALLEY":" ","HOUSE_NO":"５９號","E_COORD97":173640.20000000001,"N_COORD97":2544556.25,"ADDRESS":"大灣路９４２巷５９號","OBJECTID":268226},"geometry":{"x":173640.20000000205,"y":2544556.2500000019}},{"attributes":{"ID":268232,"DIS_CODE":0,"TOWNNAME":"永康區","LI":"大橋里","LIN":"17鄰","STREET":"大橋一街","SECT":" ","MAREA":" ","LANE":"１０３巷","ALLEY":" ","HOUSE_NO":"４４號","E_COORD97":170966.54000000001,"N_COORD97":2546540,"ADDRESS":"大橋一街１０３巷４４號","OBJECTID":268227},"geometry":{"x":170966.54000000097,"y":2546540.0000000037}},{"attributes":{"ID":268233,"DIS_CODE":0,"TOWNNAME":"永康區","LI":"中興里","LIN":"17鄰","STREET":"中華路","SECT":" ","MAREA":" ","LANE":"２８６巷","ALLEY":" ","HOUSE_NO":"１５號","E_COORD97":171604.91,"N_COORD97":2545322.5,"ADDRESS":"中華路２８６巷１５號","OBJECTID":268228},"geometry":{"x":171604.91000000108,"y":2545322.4999999981}},{"attributes":{"ID":268234,"DIS_CODE":0,"TOWNNAME":"永康區","LI":"中興里","LIN":"17鄰","STREET":"中華路","SECT":" ","MAREA":" ","LANE":"２８６巷","ALLEY":" ","HOUSE_NO":"８號","E_COORD97":171597.20999999999,"N_COORD97":2545307.5899999999,"ADDRESS":"中華路２８６巷８號","OBJECTID":268229},"geometry":{"x":171597.21000000183,"y":2545307.5899999999}},{"attributes":{"ID":268235,"DIS_CODE":0,"TOWNNAME":"善化區","LI":"坐駕里","LIN":"17鄰","STREET":"興華路","SECT":" ","MAREA":" ","LANE":"３０７巷","ALLEY":" ","HOUSE_NO":"１３號","E_COORD97":177796.45999999999,"N_COORD97":2558427.5,"ADDRESS":"興華路３０７巷１３號","OBJECTID":268230},"geometry":{"x":177796.46000000183,"y":2558427.5000000019}},{"attributes":{"ID":268236,"DIS_CODE":0,"TOWNNAME":"新營區","LI":"埤寮里","LIN":"14鄰","STREET":"中正路","SECT":" ","MAREA":" ","LANE":"３８６巷","ALLEY":" ","HOUSE_NO":"１之１號","E_COORD97":180283.91,"N_COORD97":2580202.71,"ADDRESS":"中正路３８６巷１之１號","OBJECTID":268231},"geometry":{"x":180283.91000000201,"y":2580202.7100000046}},{"attributes":{"ID":268237,"DIS_CODE":0,"TOWNNAME":"新營區","LI":"埤寮里","LIN":"13鄰","STREET":"中正路","SECT":" ","MAREA":" ","LANE":"３３５巷","ALLEY":" ","HOUSE_NO":"２之２號","E_COORD97":180004.14999999999,"N_COORD97":2580071.1400000001,"ADDRESS":"中正路３３５巷２之２號","OBJECTID":268232},"geometry":{"x":180004.15000000037,"y":2580071.1400000025}},{"attributes":{"ID":268238,"DIS_CODE":0,"TOWNNAME":"新營區","LI":"民生里","LIN":"25鄰","STREET":"民生路","SECT":" ","MAREA":" ","LANE":"１３９巷","ALLEY":" ","HOUSE_NO":"２４號","E_COORD97":179166.38,"N_COORD97":2578594.3999999999,"ADDRESS":"民生路１３９巷２４號","OBJECTID":268233},"geometry":{"x":179166.37999999989,"y":2578594.4000000022}},{"attributes":{"ID":268239,"DIS_CODE":0,"TOWNNAME":"新營區","LI":"民生里","LIN":" ","STREET":"民生路","SECT":" ","MAREA":" ","LANE":"１６３巷","ALLEY":" ","HOUSE_NO":"１１０之５號","E_COORD97":179082.63,"N_COORD97":2578491.8700000001,"ADDRESS":"民生路１６３巷１１０之５號","OBJECTID":268234},"geometry":{"x":179082.63000000082,"y":2578491.870000001}},{"attributes":{"ID":268240,"DIS_CODE":0,"TOWNNAME":"新營區","LI":"民生里","LIN":"26鄰","STREET":"民生路","SECT":" ","MAREA":" ","LANE":"１３９巷","ALLEY":" ","HOUSE_NO":"５０號","E_COORD97":179103.85000000001,"N_COORD97":2578575.8700000001,"ADDRESS":"民生路１３９巷５０號","OBJECTID":268235},"geometry":{"x":179103.85000000149,"y":2578575.8700000029}},{"attributes":{"ID":268241,"DIS_CODE":0,"TOWNNAME":"新營區","LI":"新東里","LIN":"4鄰","STREET":"東大街","SECT":" ","MAREA":" ","LANE":"５２巷","ALLEY":" ","HOUSE_NO":"８號","E_COORD97":181069.16,"N_COORD97":2579139.1400000001,"ADDRESS":"東大街５２巷８號","OBJECTID":268236},"geometry":{"x":181069.16000000108,"y":2579139.1400000025}},{"attributes":{"ID":268242,"DIS_CODE":0,"TOWNNAME":"東區","LI":"德高里","LIN":"17鄰","STREET":"崇善路","SECT":" ","MAREA":" ","LANE":"１０８９巷","ALLEY":" ","HOUSE_NO":"２２號","E_COORD97":171606.38,"N_COORD97":2540550.3300000001,"ADDRESS":"崇善路１０８９巷２２號","OBJECTID":268237},"geometry":{"x":171606.38000000082,"y":2540550.3300000038}},{"attributes":{"ID":268243,"DIS_CODE":0,"TOWNNAME":"歸仁區","LI":"沙崙里","LIN":"3鄰","STREET":" ","SECT":" ","MAREA":"二甲","LANE":" ","ALLEY":" ","HOUSE_NO":"１２１號","E_COORD97":178460.42999999999,"N_COORD97":2539243.8900000001,"ADDRESS":"二甲１２１號","OBJECTID":268238},"geometry":{"x":178460.4299999997,"y":2539243.8900000006}},{"attributes":{"ID":268244,"DIS_CODE":0,"TOWNNAME":"歸仁區","LI":"沙崙里","LIN":"3鄰","STREET":" ","SECT":" ","MAREA":"二甲","LANE":" ","ALLEY":" ","HOUSE_NO":"１０５號","E_COORD97":178423.53,"N_COORD97":2539249.8900000001,"ADDRESS":"二甲１０５號","OBJECTID":268239},"geometry":{"x":178423.53000000212,"y":2539249.8900000025}},{"attributes":{"ID":268245,"DIS_CODE":0,"TOWNNAME":"東區","LI":"德高里","LIN":"17鄰","STREET":"崇善路","SECT":" ","MAREA":" ","LANE":"１０８９巷","ALLEY":" ","HOUSE_NO":"２４號","E_COORD97":171610.82000000001,"N_COORD97":2540551.8900000001,"ADDRESS":"崇善路１０８９巷２４號","OBJECTID":268240},"geometry":{"x":171610.82000000123,"y":2540551.8900000025}},{"attributes":{"ID":268246,"DIS_CODE":0,"TOWNNAME":"新市區","LI":"新和里","LIN":"17鄰","STREET":"銘傳街","SECT":" ","MAREA":" ","LANE":"１１巷","ALLEY":" ","HOUSE_NO":"６號","E_COORD97":177518.84,"N_COORD97":2552625.5,"ADDRESS":"銘傳街１１巷６號","OBJECTID":268241},"geometry":{"x":177518.83999999985,"y":2552625.4999999981}},{"attributes":{"ID":268247,"DIS_CODE":0,"TOWNNAME":"東區","LI":"德高里","LIN":"17鄰","STREET":"崇善路","SECT":" ","MAREA":" ","LANE":"１０８９巷","ALLEY":" ","HOUSE_NO":"２６號","E_COORD97":171614.95999999999,"N_COORD97":2540550.04,"ADDRESS":"崇善路１０８９巷２６號","OBJECTID":268242},"geometry":{"x":171614.95999999996,"y":2540550.0399999991}},{"attributes":{"ID":268248,"DIS_CODE":0,"TOWNNAME":"東區","LI":"德高里","LIN":"17鄰","STREET":"崇善路","SECT":" ","MAREA":" ","LANE":"１０８９巷","ALLEY":" ","HOUSE_NO":"２８號","E_COORD97":171618.54000000001,"N_COORD97":2540553.04,"ADDRESS":"崇善路１０８９巷２８號","OBJECTID":268243},"geometry":{"x":171618.54000000004,"y":2540553.0399999991}},{"attributes":{"ID":268249,"DIS_CODE":0,"TOWNNAME":"東區","LI":"德高里","LIN":"17鄰","STREET":"崇善路","SECT":" ","MAREA":" ","LANE":"１０８９巷","ALLEY":" ","HOUSE_NO":"３０號","E_COORD97":171622.69,"N_COORD97":2540551.8900000001,"ADDRESS":"崇善路１０８９巷３０號","OBJECTID":268244},"geometry":{"x":171622.69000000041,"y":2540551.8900000025}},{"attributes":{"ID":268250,"DIS_CODE":0,"TOWNNAME":"東區","LI":"德高里","LIN":"17鄰","STREET":"崇善路","SECT":" ","MAREA":" ","LANE":"１０８９巷","ALLEY":" ","HOUSE_NO":"３２號","E_COORD97":171626.26999999999,"N_COORD97":2540554.04,"ADDRESS":"崇善路１０８９巷３２號","OBJECTID":268245},"geometry":{"x":171626.26999999955,"y":2540554.0399999991}},{"attributes":{"ID":268251,"DIS_CODE":0,"TOWNNAME":"東區","LI":"德高里","LIN":"17鄰","STREET":"崇善路","SECT":" ","MAREA":" ","LANE":"１０８９巷","ALLEY":" ","HOUSE_NO":"３４號","E_COORD97":171630.53,"N_COORD97":2540554.8100000001,"ADDRESS":"崇善路１０８９巷３４號","OBJECTID":268246},"geometry":{"x":171630.53000000026,"y":2540554.8100000024}},{"attributes":{"ID":268252,"DIS_CODE":0,"TOWNNAME":"東區","LI":"德高里","LIN":"17鄰","STREET":"崇善路","SECT":" ","MAREA":" ","LANE":"１０８９巷","ALLEY":" ","HOUSE_NO":"３６號","E_COORD97":171634.37,"N_COORD97":2540555.1299999999,"ADDRESS":"崇善路１０８９巷３６號","OBJECTID":268247},"geometry":{"x":171634.37000000011,"y":2540555.1300000008}},{"attributes":{"ID":268253,"DIS_CODE":0,"TOWNNAME":"東區","LI":"德高里","LIN":"17鄰","STREET":"崇善路","SECT":" ","MAREA":" ","LANE":"１０８９巷","ALLEY":" ","HOUSE_NO":"４０號","E_COORD97":171642.35999999999,"N_COORD97":2540556.4100000001,"ADDRESS":"崇善路１０８９巷４０號","OBJECTID":268248},"geometry":{"x":171642.3600000022,"y":2540556.4099999983}},{"attributes":{"ID":268254,"DIS_CODE":0,"TOWNNAME":"東區","LI":"德高里","LIN":"17鄰","STREET":"崇善路","SECT":" ","MAREA":" ","LANE":"１０８９巷","ALLEY":" ","HOUSE_NO":"４８號","E_COORD97":171658.06,"N_COORD97":2540562.04,"ADDRESS":"崇善路１０８９巷４８號","OBJECTID":268249},"geometry":{"x":171658.05999999959,"y":2540562.040000001}},{"attributes":{"ID":268255,"DIS_CODE":0,"TOWNNAME":"東區","LI":"德高里","LIN":"17鄰","STREET":"崇善路","SECT":" ","MAREA":" ","LANE":"１０８９巷","ALLEY":" ","HOUSE_NO":"５０號","E_COORD97":171659.31,"N_COORD97":2540557.1800000002,"ADDRESS":"崇善路１０８９巷５０號","OBJECTID":268250},"geometry":{"x":171659.31000000052,"y":2540557.1799999997}},{"attributes":{"ID":268256,"DIS_CODE":0,"TOWNNAME":"東區","LI":"德高里","LIN":"17鄰","STREET":"崇善路","SECT":" ","MAREA":" ","LANE":"１０８９巷","ALLEY":" ","HOUSE_NO":"５２號","E_COORD97":171659.47,"N_COORD97":2540552.3300000001,"ADDRESS":"崇善路１０８９巷５２號","OBJECTID":268251},"geometry":{"x":171659.46999999881,"y":2540552.3300000001}},{"attributes":{"ID":268257,"DIS_CODE":0,"TOWNNAME":"新市區","LI":"新和里","LIN":"17鄰","STREET":"銘傳街","SECT":" ","MAREA":" ","LANE":"１２巷","ALLEY":" ","HOUSE_NO":"９號","E_COORD97":177532.04000000001,"N_COORD97":2552702,"ADDRESS":"銘傳街１２巷９號","OBJECTID":268252},"geometry":{"x":177532.04000000097,"y":2552702}},{"attributes":{"ID":268258,"DIS_CODE":0,"TOWNNAME":"六甲區","LI":"大丘里","LIN":"3鄰","STREET":" ","SECT":" ","MAREA":"嶺頂","LANE":" ","ALLEY":" ","HOUSE_NO":"１３號","E_COORD97":192664.57000000001,"N_COORD97":2569789.6400000001,"ADDRESS":"嶺頂１３號","OBJECTID":268253},"geometry":{"x":192664.57000000216,"y":2569789.6400000006}},{"attributes":{"ID":268259,"DIS_CODE":0,"TOWNNAME":"新市區","LI":"新和里","LIN":"17鄰","STREET":"銘傳街","SECT":" ","MAREA":" ","LANE":"１２巷","ALLEY":" ","HOUSE_NO":"２號","E_COORD97":177542.45000000001,"N_COORD97":2552678,"ADDRESS":"銘傳街１２巷２號","OBJECTID":268254},"geometry":{"x":177542.45000000205,"y":2552678.0000000019}},{"attributes":{"ID":268260,"DIS_CODE":0,"TOWNNAME":"仁德區","LI":"中生里","LIN":"5鄰","STREET":" ","SECT":" ","MAREA":"中洲","LANE":" ","ALLEY":" ","HOUSE_NO":"１２７之２號","E_COORD97":172869.06779299999,"N_COORD97":2534241.9012699998,"ADDRESS":"中洲１２７之２號","OBJECTID":268255},"geometry":{"x":172869.06779300049,"y":2534241.9012659993}},{"attributes":{"ID":268261,"DIS_CODE":0,"TOWNNAME":"新營區","LI":"民榮里","LIN":" ","STREET":"裕民路","SECT":" ","MAREA":" ","LANE":"５８巷","ALLEY":" ","HOUSE_NO":"４２之１號","E_COORD97":179021.12,"N_COORD97":2577853.1600000001,"ADDRESS":"裕民路５８巷４２之１號","OBJECTID":268256},"geometry":{"x":179021.12000000197,"y":2577853.160000002}},{"attributes":{"ID":268262,"DIS_CODE":0,"TOWNNAME":"永康區","LI":"中興里","LIN":"17鄰","STREET":"中華路","SECT":" ","MAREA":" ","LANE":"２８６巷","ALLEY":" ","HOUSE_NO":"２號","E_COORD97":171584.75,"N_COORD97":2545307.5899999999,"ADDRESS":"中華路２８６巷２號","OBJECTID":268257},"geometry":{"x":171584.75,"y":2545307.5899999999}},{"attributes":{"ID":268263,"DIS_CODE":0,"TOWNNAME":"永康區","LI":"大橋里","LIN":"17鄰","STREET":"大橋一街","SECT":" ","MAREA":" ","LANE":"１０３巷","ALLEY":" ","HOUSE_NO":"３２號","E_COORD97":170965.45999999999,"N_COORD97":2546528.5,"ADDRESS":"大橋一街１０３巷３２號","OBJECTID":268258},"geometry":{"x":170965.46000000089,"y":2546528.5}},{"attributes":{"ID":268264,"DIS_CODE":0,"TOWNNAME":"歸仁區","LI":"沙崙里","LIN":"3鄰","STREET":" ","SECT":" ","MAREA":"二甲","LANE":" ","ALLEY":" ","HOUSE_NO":"１０３號","E_COORD97":178423.63,"N_COORD97":2539265.8900000001,"ADDRESS":"二甲１０３號","OBJECTID":268259},"geometry":{"x":178423.62999999989,"y":2539265.8900000025}},{"attributes":{"ID":268265,"DIS_CODE":0,"TOWNNAME":"永康區","LI":"大橋里","LIN":"17鄰","STREET":"大橋一街","SECT":" ","MAREA":" ","LANE":"１０３巷","ALLEY":" ","HOUSE_NO":"２號","E_COORD97":170988.03,"N_COORD97":2546483.7400000002,"ADDRESS":"大橋一街１０３巷２號","OBJECTID":268260},"geometry":{"x":170988.03000000026,"y":2546483.7400000002}},{"attributes":{"ID":268266,"DIS_CODE":0,"TOWNNAME":"玉井區","LI":"豐里里","LIN":"3鄰","STREET":" ","SECT":" ","MAREA":"豐里","LANE":" ","ALLEY":" ","HOUSE_NO":"３３之３８號","E_COORD97":193111.20999999999,"N_COORD97":2558298.29,"ADDRESS":"豐里３３之３８號","OBJECTID":268261},"geometry":{"x":193111.21000000089,"y":2558298.2900000028}},{"attributes":{"ID":268267,"DIS_CODE":0,"TOWNNAME":"玉井區","LI":"豐里里","LIN":"3鄰","STREET":" ","SECT":" ","MAREA":"豐里","LANE":" ","ALLEY":" ","HOUSE_NO":"３０號","E_COORD97":193228.17000000001,"N_COORD97":2558199.2400000002,"ADDRESS":"豐里３０號","OBJECTID":268262},"geometry":{"x":193228.17000000086,"y":2558199.2400000021}},{"attributes":{"ID":268268,"DIS_CODE":0,"TOWNNAME":"玉井區","LI":"豐里里","LIN":"3鄰","STREET":" ","SECT":" ","MAREA":"豐里","LANE":" ","ALLEY":" ","HOUSE_NO":"２９號之３","E_COORD97":193160.69,"N_COORD97":2558262.2999999998,"ADDRESS":"豐里２９號之３","OBJECTID":268263},"geometry":{"x":193160.69000000134,"y":2558262.3000000007}},{"attributes":{"ID":268269,"DIS_CODE":0,"TOWNNAME":"永康區","LI":"五王里","LIN":"17鄰","STREET":"成功路","SECT":" ","MAREA":" ","LANE":"２０４巷","ALLEY":" ","HOUSE_NO":"２６號","E_COORD97":171456.28,"N_COORD97":2545726.7000000002,"ADDRESS":"成功路２０４巷２６號","OBJECTID":268264},"geometry":{"x":171456.28000000212,"y":2545726.6999999993}},{"attributes":{"ID":268270,"DIS_CODE":0,"TOWNNAME":"永康區","LI":"大橋里","LIN":"17鄰","STREET":"大橋一街","SECT":" ","MAREA":" ","LANE":"１０３巷","ALLEY":" ","HOUSE_NO":"８號","E_COORD97":170979.92999999999,"N_COORD97":2546495.2400000002,"ADDRESS":"大橋一街１０３巷８號","OBJECTID":268265},"geometry":{"x":170979.92999999877,"y":2546495.2400000021}},{"attributes":{"ID":268271,"DIS_CODE":0,"TOWNNAME":"玉井區","LI":"豐里里","LIN":"3鄰","STREET":" ","SECT":" ","MAREA":"豐里","LANE":" ","ALLEY":" ","HOUSE_NO":"３２號之１","E_COORD97":193157.09,"N_COORD97":2558207.29,"ADDRESS":"豐里３２號之１","OBJECTID":268266},"geometry":{"x":193157.08999999985,"y":2558207.290000001}},{"attributes":{"ID":268272,"DIS_CODE":0,"TOWNNAME":"永康區","LI":"五王里","LIN":"17鄰","STREET":"成功路","SECT":" ","MAREA":" ","LANE":"２０４巷","ALLEY":" ","HOUSE_NO":"２５號之１","E_COORD97":171468.63,"N_COORD97":2545753.9100000001,"ADDRESS":"成功路２０４巷２５號之１","OBJECTID":268267},"geometry":{"x":171468.62999999896,"y":2545753.9099999983}},{"attributes":{"ID":268273,"DIS_CODE":0,"TOWNNAME":"永康區","LI":"五王里","LIN":"17鄰","STREET":"成功路","SECT":" ","MAREA":" ","LANE":"２０４巷","ALLEY":" ","HOUSE_NO":"５７號","E_COORD97":171534.06,"N_COORD97":2545797.52,"ADDRESS":"成功路２０４巷５７號","OBJECTID":268268},"geometry":{"x":171534.06000000052,"y":2545797.5200000014}},{"attributes":{"ID":268274,"DIS_CODE":0,"TOWNNAME":"玉井區","LI":"豐里里","LIN":"3鄰","STREET":" ","SECT":" ","MAREA":"豐里","LANE":" ","ALLEY":" ","HOUSE_NO":"３３號之３６","E_COORD97":193083.66,"N_COORD97":2558328.2999999998,"ADDRESS":"豐里３３號之３６","OBJECTID":268269},"geometry":{"x":193083.66000000015,"y":2558328.3000000026}},{"attributes":{"ID":268275,"DIS_CODE":0,"TOWNNAME":"玉井區","LI":"豐里里","LIN":"3鄰","STREET":" ","SECT":" ","MAREA":"豐里","LANE":" ","ALLEY":" ","HOUSE_NO":"３３號","E_COORD97":193134.66,"N_COORD97":2558202.2400000002,"ADDRESS":"豐里３３號","OBJECTID":268270},"geometry":{"x":193134.66000000015,"y":2558202.2400000021}},{"attributes":{"ID":268276,"DIS_CODE":0,"TOWNNAME":"玉井區","LI":"豐里里","LIN":"3鄰","STREET":" ","SECT":" ","MAREA":"豐里","LANE":" ","ALLEY":" ","HOUSE_NO":"３３號之５","E_COORD97":193088.45000000001,"N_COORD97":2558232.2999999998,"ADDRESS":"豐里３３號之５","OBJECTID":268271},"geometry":{"x":193088.45000000019,"y":2558232.3000000045}},{"attributes":{"ID":268277,"DIS_CODE":0,"TOWNNAME":"玉井區","LI":"豐里里","LIN":"3鄰","STREET":" ","SECT":" ","MAREA":"豐里","LANE":" ","ALLEY":" ","HOUSE_NO":"３３號之２","E_COORD97":193113.53,"N_COORD97":2558213.2999999998,"ADDRESS":"豐里３３號之２","OBJECTID":268272},"geometry":{"x":193113.53000000026,"y":2558213.3000000026}},{"attributes":{"ID":268278,"DIS_CODE":0,"TOWNNAME":"玉井區","LI":"玉田里","LIN":"3鄰","STREET":"中正路","SECT":" ","MAREA":" ","LANE":" ","ALLEY":" ","HOUSE_NO":"２３８號","E_COORD97":195105.56,"N_COORD97":2558245.25,"ADDRESS":"中正路２３８號","OBJECTID":268273},"geometry":{"x":195105.56000000052,"y":2558245.2500000037}},{"attributes":{"ID":268279,"DIS_CODE":0,"TOWNNAME":"永康區","LI":"五王里","LIN":"17鄰","STREET":"成功路","SECT":" ","MAREA":" ","LANE":"２０４巷","ALLEY":" ","HOUSE_NO":"２９號","E_COORD97":171474.60999999999,"N_COORD97":2545760.3799999999,"ADDRESS":"成功路２０４巷２９號","OBJECTID":268274},"geometry":{"x":171474.61000000127,"y":2545760.3800000008}},{"attributes":{"ID":268280,"DIS_CODE":0,"TOWNNAME":"玉井區","LI":"玉田里","LIN":"3鄰","STREET":"中正路","SECT":" ","MAREA":" ","LANE":" ","ALLEY":" ","HOUSE_NO":"２４２號","E_COORD97":195112.35000000001,"N_COORD97":2558249.25,"ADDRESS":"中正路２４２號","OBJECTID":268275},"geometry":{"x":195112.34999999963,"y":2558249.2500000019}},{"attributes":{"ID":268281,"DIS_CODE":0,"TOWNNAME":"玉井區","LI":"玉井里","LIN":"3鄰","STREET":"憲政街","SECT":" ","MAREA":" ","LANE":" ","ALLEY":" ","HOUSE_NO":"６０號","E_COORD97":194556.62,"N_COORD97":2558058.9399999999,"ADDRESS":"憲政街６０號","OBJECTID":268276},"geometry":{"x":194556.62000000104,"y":2558058.9399999995}},{"attributes":{"ID":268282,"DIS_CODE":0,"TOWNNAME":"永康區","LI":"復國里","LIN":"17鄰","STREET":"國華街","SECT":" ","MAREA":" ","LANE":"３６巷","ALLEY":" ","HOUSE_NO":"２號","E_COORD97":172856.82000000001,"N_COORD97":2545645.9900000002,"ADDRESS":"國華街３６巷２號","OBJECTID":268277},"geometry":{"x":172856.82000000123,"y":2545645.9900000021}},{"attributes":{"ID":268283,"DIS_CODE":0,"TOWNNAME":"玉井區","LI":"玉井里","LIN":"3鄰","STREET":"憲政街","SECT":" ","MAREA":" ","LANE":" ","ALLEY":" ","HOUSE_NO":"５２號","E_COORD97":194586.62,"N_COORD97":2558071.9399999999,"ADDRESS":"憲政街５２號","OBJECTID":268278},"geometry":{"x":194586.62000000104,"y":2558071.9400000013}},{"attributes":{"ID":268284,"DIS_CODE":0,"TOWNNAME":"永康區","LI":"\u25A0行里","LIN":"17鄰","STREET":"正南五街","SECT":" ","MAREA":" ","LANE":"５２０巷","ALLEY":" ","HOUSE_NO":"７９號","E_COORD97":171781.76000000001,"N_COORD97":2548796.27,"ADDRESS":"正南五街５２０巷７９號","OBJECTID":268279},"geometry":{"x":171781.76000000071,"y":2548796.2700000014}},{"attributes":{"ID":268285,"DIS_CODE":0,"TOWNNAME":"永康區","LI":"崑山里","LIN":"17鄰","STREET":"大灣路","SECT":" ","MAREA":" ","LANE":"９４２巷","ALLEY":" ","HOUSE_NO":"３３號","E_COORD97":173617.29999999999,"N_COORD97":2544499.1899999999,"ADDRESS":"大灣路９４２巷３３號","OBJECTID":268280},"geometry":{"x":173617.30000000075,"y":2544499.1899999995}},{"attributes":{"ID":268286,"DIS_CODE":0,"TOWNNAME":"仁德區","LI":"中生里","LIN":"5鄰","STREET":" ","SECT":" ","MAREA":"中洲","LANE":" ","ALLEY":" ","HOUSE_NO":"１２７之５號","E_COORD97":172840.466174,"N_COORD97":2534258.62292,"ADDRESS":"中洲１２７之５號","OBJECTID":268281},"geometry":{"x":172840.46617400181,"y":2534258.6229240019}},{"attributes":{"ID":268287,"DIS_CODE":0,"TOWNNAME":"玉井區","LI":"玉田里","LIN":"3鄰","STREET":"中正路","SECT":" ","MAREA":" ","LANE":" ","ALLEY":" ","HOUSE_NO":"２３４號","E_COORD97":195098.14999999999,"N_COORD97":2558241.25,"ADDRESS":"中正路２３４號","OBJECTID":268282},"geometry":{"x":195098.15000000037,"y":2558241.25}},{"attributes":{"ID":268288,"DIS_CODE":0,"TOWNNAME":"安南區","LI":"鳳凰里","LIN":"17鄰","STREET":"安中路","SECT":"一段","MAREA":" ","LANE":"７０２巷","ALLEY":" ","HOUSE_NO":"８０號之１","E_COORD97":167837.67999999999,"N_COORD97":2549319.1600000001,"ADDRESS":"安中路一段７０２巷８０號之１","OBJECTID":268283},"geometry":{"x":167837.68000000063,"y":2549319.1600000039}},{"attributes":{"ID":268289,"DIS_CODE":0,"TOWNNAME":"玉井區","LI":"三和里","LIN":"3鄰","STREET":" ","SECT":" ","MAREA":"三和","LANE":" ","ALLEY":" ","HOUSE_NO":"３７號","E_COORD97":194687.84,"N_COORD97":2556888.25,"ADDRESS":"三和３７號","OBJECTID":268284},"geometry":{"x":194687.83999999985,"y":2556888.25}},{"attributes":{"ID":268290,"DIS_CODE":0,"TOWNNAME":"安南區","LI":"海南里","LIN":"17鄰","STREET":"國安街","SECT":" ","MAREA":" ","LANE":"２３３巷","ALLEY":" ","HOUSE_NO":"１１號","E_COORD97":166567.06,"N_COORD97":2546871.3500000001,"ADDRESS":"國安街２３３巷１１號","OBJECTID":268285},"geometry":{"x":166567.06000000052,"y":2546871.3499999996}},{"attributes":{"ID":268291,"DIS_CODE":0,"TOWNNAME":"安南區","LI":"海南里","LIN":"17鄰","STREET":"國安街","SECT":" ","MAREA":" ","LANE":"２３３巷","ALLEY":" ","HOUSE_NO":"１４號","E_COORD97":166551.48000000001,"N_COORD97":2546863.2400000002,"ADDRESS":"國安街２３３巷１４號","OBJECTID":268286},"geometry":{"x":166551.48000000138,"y":2546863.2400000002}},{"attributes":{"ID":268292,"DIS_CODE":0,"TOWNNAME":"東區","LI":"後甲里","LIN":"17鄰","STREET":"建東街","SECT":" ","MAREA":" ","LANE":"５４巷","ALLEY":" ","HOUSE_NO":"１０號","E_COORD97":171800.45999999999,"N_COORD97":2543449.8199999998,"ADDRESS":"建東街５４巷１０號","OBJECTID":268287},"geometry":{"x":171800.45999999903,"y":2543449.8200000022}},{"attributes":{"ID":268293,"DIS_CODE":0,"TOWNNAME":"東區","LI":"後甲里","LIN":"17鄰","STREET":"建東街","SECT":" ","MAREA":" ","LANE":"５４巷","ALLEY":" ","HOUSE_NO":"１２號","E_COORD97":171804.89000000001,"N_COORD97":2543453.6000000001,"ADDRESS":"建東街５４巷１２號","OBJECTID":268288},"geometry":{"x":171804.8900000006,"y":2543453.6000000034}},{"attributes":{"ID":268294,"DIS_CODE":0,"TOWNNAME":"南化區","LI":"東和里","LIN":"3鄰","STREET":" ","SECT":" ","MAREA":"東和","LANE":" ","ALLEY":" ","HOUSE_NO":"２０號","E_COORD97":195256.26999999999,"N_COORD97":2546426.75,"ADDRESS":"東和２０號","OBJECTID":268289},"geometry":{"x":195256.27000000048,"y":2546426.7500000019}},{"attributes":{"ID":268295,"DIS_CODE":0,"TOWNNAME":"東區","LI":"後甲里","LIN":"17鄰","STREET":"建東街","SECT":" ","MAREA":" ","LANE":"５４巷","ALLEY":" ","HOUSE_NO":"１５號","E_COORD97":171811.82999999999,"N_COORD97":2543465.6899999999,"ADDRESS":"建東街５４巷１５號","OBJECTID":268290},"geometry":{"x":171811.83000000194,"y":2543465.6899999995}},{"attributes":{"ID":268296,"DIS_CODE":0,"TOWNNAME":"東區","LI":"後甲里","LIN":"17鄰","STREET":"建東街","SECT":" ","MAREA":" ","LANE":"５４巷","ALLEY":" ","HOUSE_NO":"１６號","E_COORD97":171813.73000000001,"N_COORD97":2543449.1899999999,"ADDRESS":"建東街５４巷１６號","OBJECTID":268291},"geometry":{"x":171813.73000000045,"y":2543449.1899999976}},{"attributes":{"ID":268297,"DIS_CODE":0,"TOWNNAME":"仁德區","LI":"新田里","LIN":"17鄰","STREET":"民安路","SECT":"二段","MAREA":" ","LANE":"６３巷","ALLEY":" ","HOUSE_NO":"１８號","E_COORD97":173491.89999999999,"N_COORD97":2539243.5600000001,"ADDRESS":"民安路二段６３巷１８號","OBJECTID":268292},"geometry":{"x":173491.9000000013,"y":2539243.5600000005}},{"attributes":{"ID":268298,"DIS_CODE":0,"TOWNNAME":"玉井區","LI":"三和里","LIN":"3鄰","STREET":" ","SECT":" ","MAREA":"三和","LANE":" ","ALLEY":" ","HOUSE_NO":"４１號","E_COORD97":194647.64000000001,"N_COORD97":2556848.2400000002,"ADDRESS":"三和４１號","OBJECTID":268293},"geometry":{"x":194647.63999999966,"y":2556848.2400000002}},{"attributes":{"ID":268299,"DIS_CODE":0,"TOWNNAME":"玉井區","LI":"三和里","LIN":"3鄰","STREET":" ","SECT":" ","MAREA":"三和","LANE":" ","ALLEY":" ","HOUSE_NO":"４２之５號","E_COORD97":194432.54000000001,"N_COORD97":2556350.2999999998,"ADDRESS":"三和４２之５號","OBJECTID":268294},"geometry":{"x":194432.5400000019,"y":2556350.3000000045}},{"attributes":{"ID":268300,"DIS_CODE":0,"TOWNNAME":"玉井區","LI":"三和里","LIN":"3鄰","STREET":" ","SECT":" ","MAREA":"三和","LANE":" ","ALLEY":" ","HOUSE_NO":"４２號之４","E_COORD97":194555.09,"N_COORD97":2556579.2999999998,"ADDRESS":"三和４２號之４","OBJECTID":268295},"geometry":{"x":194555.08999999985,"y":2556579.3000000007}},{"attributes":{"ID":268301,"DIS_CODE":0,"TOWNNAME":"玉井區","LI":"三和里","LIN":"3鄰","STREET":" ","SECT":" ","MAREA":"三和","LANE":" ","ALLEY":" ","HOUSE_NO":"４０號","E_COORD97":194667.14000000001,"N_COORD97":2556860.2400000002,"ADDRESS":"三和４０號","OBJECTID":268296},"geometry":{"x":194667.14000000153,"y":2556860.2400000021}},{"attributes":{"ID":268302,"DIS_CODE":0,"TOWNNAME":"玉井區","LI":"三和里","LIN":"3鄰","STREET":" ","SECT":" ","MAREA":"三和","LANE":" ","ALLEY":" ","HOUSE_NO":"３３號","E_COORD97":194832.73000000001,"N_COORD97":2556576.25,"ADDRESS":"三和３３號","OBJECTID":268297},"geometry":{"x":194832.73000000045,"y":2556576.25}},{"attributes":{"ID":268303,"DIS_CODE":0,"TOWNNAME":"玉井區","LI":"三和里","LIN":"3鄰","STREET":" ","SECT":" ","MAREA":"三和","LANE":" ","ALLEY":" ","HOUSE_NO":"３３號之１","E_COORD97":194863.17999999999,"N_COORD97":2556603.2999999998,"ADDRESS":"三和３３號之１","OBJECTID":268298},"geometry":{"x":194863.1799999997,"y":2556603.3000000007}},{"attributes":{"ID":268304,"DIS_CODE":0,"TOWNNAME":"玉井區","LI":"三和里","LIN":"3鄰","STREET":" ","SECT":" ","MAREA":"三和","LANE":" ","ALLEY":" ","HOUSE_NO":"３９號","E_COORD97":194662.14000000001,"N_COORD97":2556895.25,"ADDRESS":"三和３９號","OBJECTID":268299},"geometry":{"x":194662.14000000153,"y":2556895.25}},{"attributes":{"ID":268305,"DIS_CODE":0,"TOWNNAME":"玉井區","LI":"三和里","LIN":"3鄰","STREET":" ","SECT":" ","MAREA":"三和","LANE":" ","ALLEY":" ","HOUSE_NO":"３８號","E_COORD97":194712.92999999999,"N_COORD97":2556870.25,"ADDRESS":"三和３８號","OBJECTID":268300},"geometry":{"x":194712.93000000063,"y":2556870.2500000019}},{"attributes":{"ID":268306,"DIS_CODE":0,"TOWNNAME":"玉井區","LI":"玉井里","LIN":"3鄰","STREET":"憲政街","SECT":" ","MAREA":" ","LANE":" ","ALLEY":" ","HOUSE_NO":"６２號","E_COORD97":194549.67000000001,"N_COORD97":2558054.8300000001,"ADDRESS":"憲政街６２號","OBJECTID":268301},"geometry":{"x":194549.66999999993,"y":2558054.8300000038}},{"attributes":{"ID":268307,"DIS_CODE":0,"TOWNNAME":"玉井區","LI":"三和里","LIN":"3鄰","STREET":" ","SECT":" ","MAREA":"三和","LANE":" ","ALLEY":" ","HOUSE_NO":"４２號","E_COORD97":194573.54000000001,"N_COORD97":2556729.2400000002,"ADDRESS":"三和４２號","OBJECTID":268302},"geometry":{"x":194573.54000000097,"y":2556729.2400000002}},{"attributes":{"ID":268308,"DIS_CODE":0,"TOWNNAME":"玉井區","LI":"三埔里","LIN":"3鄰","STREET":" ","SECT":" ","MAREA":"三埔","LANE":" ","ALLEY":" ","HOUSE_NO":"２８號","E_COORD97":197047.92999999999,"N_COORD97":2555485.2400000002,"ADDRESS":"三埔２８號","OBJECTID":268303},"geometry":{"x":197047.9299999997,"y":2555485.2400000002}},{"attributes":{"ID":268309,"DIS_CODE":0,"TOWNNAME":"仁德區","LI":"成功里","LIN":"17鄰","STREET":"全福路","SECT":" ","MAREA":" ","LANE":"８０巷","ALLEY":" ","HOUSE_NO":"２５號","E_COORD97":171029.89999999999,"N_COORD97":2539230.4900000002,"ADDRESS":"全福路８０巷２５號","OBJECTID":268304},"geometry":{"x":171029.90000000037,"y":2539230.4900000039}},{"attributes":{"ID":268310,"DIS_CODE":0,"TOWNNAME":"玉井區","LI":"三埔里","LIN":"3鄰","STREET":" ","SECT":" ","MAREA":"三埔","LANE":" ","ALLEY":" ","HOUSE_NO":"３５號","E_COORD97":196920.92999999999,"N_COORD97":2555409.2400000002,"ADDRESS":"三埔３５號","OBJECTID":268305},"geometry":{"x":196920.9299999997,"y":2555409.2400000021}},{"attributes":{"ID":268311,"DIS_CODE":0,"TOWNNAME":"玉井區","LI":"三埔里","LIN":"3鄰","STREET":" ","SECT":" ","MAREA":"三埔","LANE":" ","ALLEY":" ","HOUSE_NO":"３２號","E_COORD97":197079.84,"N_COORD97":2555412.2400000002,"ADDRESS":"三埔３２號","OBJECTID":268306},"geometry":{"x":197079.83999999892,"y":2555412.2400000021}},{"attributes":{"ID":268312,"DIS_CODE":0,"TOWNNAME":"玉井區","LI":"玉田里","LIN":"3鄰","STREET":"中正路","SECT":" ","MAREA":" ","LANE":" ","ALLEY":" ","HOUSE_NO":"２４６號","E_COORD97":195119.76000000001,"N_COORD97":2558252.25,"ADDRESS":"中正路２４６號","OBJECTID":268307},"geometry":{"x":195119.76000000071,"y":2558252.2500000019}},{"attributes":{"ID":268313,"DIS_CODE":0,"TOWNNAME":"仁德區","LI":"新田里","LIN":"17鄰","STREET":"民安路","SECT":"二段","MAREA":" ","LANE":"６３巷","ALLEY":" ","HOUSE_NO":"３６號","E_COORD97":173486.82999999999,"N_COORD97":2539269.8199999998,"ADDRESS":"民安路二段６３巷３６號","OBJECTID":268308},"geometry":{"x":173486.83000000101,"y":2539269.8200000022}},{"attributes":{"ID":268314,"DIS_CODE":0,"TOWNNAME":"玉井區","LI":"三埔里","LIN":"3鄰","STREET":" ","SECT":" ","MAREA":"三埔","LANE":" ","ALLEY":" ","HOUSE_NO":"３６號","E_COORD97":196926.92999999999,"N_COORD97":2555387.2400000002,"ADDRESS":"三埔３６號","OBJECTID":268309},"geometry":{"x":196926.93000000063,"y":2555387.2399999984}},{"attributes":{"ID":268315,"DIS_CODE":0,"TOWNNAME":"仁德區","LI":"保安里","LIN":"17鄰","STREET":"中正路","SECT":"一段","MAREA":" ","LANE":"７０巷","ALLEY":" ","HOUSE_NO":"８號","E_COORD97":170926.57000000001,"N_COORD97":2535489.77,"ADDRESS":"中正路一段７０巷８號","OBJECTID":268310},"geometry":{"x":170926.5700000003,"y":2535489.7700000014}},{"attributes":{"ID":268316,"DIS_CODE":0,"TOWNNAME":"玉井區","LI":"三埔里","LIN":"3鄰","STREET":" ","SECT":" ","MAREA":"三埔","LANE":" ","ALLEY":" ","HOUSE_NO":"３１號","E_COORD97":197045.73000000001,"N_COORD97":2555461.25,"ADDRESS":"三埔３１號","OBJECTID":268311},"geometry":{"x":197045.73000000231,"y":2555461.25}},{"attributes":{"ID":268317,"DIS_CODE":0,"TOWNNAME":"玉井區","LI":"三埔里","LIN":"3鄰","STREET":" ","SECT":" ","MAREA":"三埔","LANE":" ","ALLEY":" ","HOUSE_NO":"３３號","E_COORD97":197049.42999999999,"N_COORD97":2555449.25,"ADDRESS":"三埔３３號","OBJECTID":268312},"geometry":{"x":197049.43000000063,"y":2555449.2500000019}},{"attributes":{"ID":268318,"DIS_CODE":0,"TOWNNAME":"仁德區","LI":"保安里","LIN":"17鄰","STREET":"中正路","SECT":"一段","MAREA":" ","LANE":"７０巷","ALLEY":" ","HOUSE_NO":"１８號","E_COORD97":170937.48000000001,"N_COORD97":2535472.2799999998,"ADDRESS":"中正路一段７０巷１８號","OBJECTID":268313},"geometry":{"x":170937.48000000045,"y":2535472.2800000012}},{"attributes":{"ID":268319,"DIS_CODE":0,"TOWNNAME":"歸仁區","LI":"八甲里","LIN":"3鄰","STREET":"大光街","SECT":" ","MAREA":" ","LANE":" ","ALLEY":" ","HOUSE_NO":"７０號","E_COORD97":177983.87,"N_COORD97":2541727.6099999999,"ADDRESS":"大光街７０號","OBJECTID":268314},"geometry":{"x":177983.87000000104,"y":2541727.6100000031}},{"attributes":{"ID":268320,"DIS_CODE":0,"TOWNNAME":"玉井區","LI":"三埔里","LIN":"3鄰","STREET":" ","SECT":" ","MAREA":"三埔","LANE":" ","ALLEY":" ","HOUSE_NO":"３４號","E_COORD97":197029.84,"N_COORD97":2555450.25,"ADDRESS":"三埔３４號","OBJECTID":268315},"geometry":{"x":197029.84000000078,"y":2555450.25}},{"attributes":{"ID":268321,"DIS_CODE":0,"TOWNNAME":"玉井區","LI":"三埔里","LIN":"3鄰","STREET":" ","SECT":" ","MAREA":"三埔","LANE":" ","ALLEY":" ","HOUSE_NO":"３０號","E_COORD97":197023.14000000001,"N_COORD97":2555479.2400000002,"ADDRESS":"三埔３０號","OBJECTID":268316},"geometry":{"x":197023.13999999966,"y":2555479.2400000021}},{"attributes":{"ID":268322,"DIS_CODE":0,"TOWNNAME":"仁德區","LI":"中生里","LIN":"5鄰","STREET":" ","SECT":" ","MAREA":"中洲","LANE":" ","ALLEY":" ","HOUSE_NO":"１３２之３號","E_COORD97":172755.932497,"N_COORD97":2534205.2829499999,"ADDRESS":"中洲１３２之３號","OBJECTID":268317},"geometry":{"x":172755.93249700218,"y":2534205.2829530034}},{"attributes":{"ID":268323,"DIS_CODE":0,"TOWNNAME":"東山區","LI":"南溪里","LIN":"3鄰","STREET":" ","SECT":" ","MAREA":"二重溪","LANE":" ","ALLEY":" ","HOUSE_NO":"２６號","E_COORD97":188423.88,"N_COORD97":2574724.48,"ADDRESS":"二重溪２６號","OBJECTID":268318},"geometry":{"x":188423.87999999989,"y":2574724.4799999986}},{"attributes":{"ID":268324,"DIS_CODE":0,"TOWNNAME":"東山區","LI":"南溪里","LIN":"3鄰","STREET":" ","SECT":" ","MAREA":"二重溪","LANE":" ","ALLEY":" ","HOUSE_NO":"２７號","E_COORD97":188446.10000000001,"N_COORD97":2574713.6800000002,"ADDRESS":"二重溪２７號","OBJECTID":268319},"geometry":{"x":188446.10000000149,"y":2574713.6800000016}},{"attributes":{"ID":268325,"DIS_CODE":0,"TOWNNAME":"東山區","LI":"南溪里","LIN":"3鄰","STREET":" ","SECT":" ","MAREA":"二重溪","LANE":" ","ALLEY":" ","HOUSE_NO":"２８號","E_COORD97":188444.79000000001,"N_COORD97":2574696.7999999998,"ADDRESS":"二重溪２８號","OBJECTID":268320},"geometry":{"x":188444.79000000004,"y":2574696.8000000026}},{"attributes":{"ID":268326,"DIS_CODE":0,"TOWNNAME":"東山區","LI":"南溪里","LIN":"3鄰","STREET":" ","SECT":" ","MAREA":"二重溪","LANE":" ","ALLEY":" ","HOUSE_NO":"３０號之１","E_COORD97":188427.73000000001,"N_COORD97":2574695.5,"ADDRESS":"二重溪３０號之１","OBJECTID":268321},"geometry":{"x":188427.73000000138,"y":2574695.5}},{"attributes":{"ID":268327,"DIS_CODE":0,"TOWNNAME":"東山區","LI":"南溪里","LIN":"3鄰","STREET":" ","SECT":" ","MAREA":"二重溪","LANE":" ","ALLEY":" ","HOUSE_NO":"３０號","E_COORD97":188410.23999999999,"N_COORD97":2574691.6499999999,"ADDRESS":"二重溪３０號","OBJECTID":268322},"geometry":{"x":188410.24000000115,"y":2574691.6500000004}},{"attributes":{"ID":268328,"DIS_CODE":0,"TOWNNAME":"東山區","LI":"南溪里","LIN":"3鄰","STREET":" ","SECT":" ","MAREA":"二重溪","LANE":" ","ALLEY":" ","HOUSE_NO":"３１號","E_COORD97":188393.91,"N_COORD97":2574691.4700000002,"ADDRESS":"二重溪３１號","OBJECTID":268323},"geometry":{"x":188393.91000000108,"y":2574691.4700000025}},{"attributes":{"ID":268329,"DIS_CODE":0,"TOWNNAME":"東山區","LI":"南溪里","LIN":"3鄰","STREET":" ","SECT":" ","MAREA":"二重溪","LANE":" ","ALLEY":" ","HOUSE_NO":"３２號","E_COORD97":188377.28,"N_COORD97":2574686.8700000001,"ADDRESS":"二重溪３２號","OBJECTID":268324},"geometry":{"x":188377.28000000026,"y":2574686.8700000029}},{"attributes":{"ID":268330,"DIS_CODE":0,"TOWNNAME":"東山區","LI":"南溪里","LIN":"3鄰","STREET":" ","SECT":" ","MAREA":"二重溪","LANE":" ","ALLEY":" ","HOUSE_NO":"３３號","E_COORD97":188386.25,"N_COORD97":2574710.6899999999,"ADDRESS":"二重溪３３號","OBJECTID":268325},"geometry":{"x":188386.25000000093,"y":2574710.6899999995}},{"attributes":{"ID":268331,"DIS_CODE":0,"TOWNNAME":"東山區","LI":"南溪里","LIN":"3鄰","STREET":" ","SECT":" ","MAREA":"二重溪","LANE":" ","ALLEY":" ","HOUSE_NO":"３４號","E_COORD97":188371.09,"N_COORD97":2574708.8999999999,"ADDRESS":"二重溪３４號","OBJECTID":268326},"geometry":{"x":188371.08999999985,"y":2574708.9000000022}},{"attributes":{"ID":268332,"DIS_CODE":0,"TOWNNAME":"北區","LI":"公園里","LIN":"3鄰","STREET":"北門路","SECT":"二段","MAREA":" ","LANE":" ","ALLEY":" ","HOUSE_NO":"８５號","E_COORD97":169267.14000000001,"N_COORD97":2544410.6099999999,"ADDRESS":"北門路二段８５號","OBJECTID":268327},"geometry":{"x":169267.1400000006,"y":2544410.6100000013}},{"attributes":{"ID":268333,"DIS_CODE":0,"TOWNNAME":"北區","LI":"公園里","LIN":"3鄰","STREET":"北門路","SECT":"二段","MAREA":" ","LANE":" ","ALLEY":" ","HOUSE_NO":"８７號","E_COORD97":169267.95999999999,"N_COORD97":2544414.1800000002,"ADDRESS":"北門路二段８７號","OBJECTID":268328},"geometry":{"x":169267.96000000183,"y":2544414.1800000016}},{"attributes":{"ID":268334,"DIS_CODE":0,"TOWNNAME":"北區","LI":"公園里","LIN":"3鄰","STREET":"北門路","SECT":"二段","MAREA":" ","LANE":" ","ALLEY":" ","HOUSE_NO":"８９號","E_COORD97":169268.23999999999,"N_COORD97":2544417.3300000001,"ADDRESS":"北門路二段８９號","OBJECTID":268329},"geometry":{"x":169268.24000000115,"y":2544417.3300000001}},{"attributes":{"ID":268335,"DIS_CODE":0,"TOWNNAME":"北區","LI":"公園里","LIN":"3鄰","STREET":"北門路","SECT":"二段","MAREA":" ","LANE":" ","ALLEY":" ","HOUSE_NO":"９３號","E_COORD97":169270.16,"N_COORD97":2544423.9100000001,"ADDRESS":"北門路二段９３號","OBJECTID":268330},"geometry":{"x":169270.16000000201,"y":2544423.9100000001}},{"attributes":{"ID":268336,"DIS_CODE":0,"TOWNNAME":"北區","LI":"公園里","LIN":"3鄰","STREET":"北門路","SECT":"二段","MAREA":" ","LANE":" ","ALLEY":" ","HOUSE_NO":"９５號","E_COORD97":169270.42999999999,"N_COORD97":2544427.6099999999,"ADDRESS":"北門路二段９５號","OBJECTID":268331},"geometry":{"x":169270.4299999997,"y":2544427.6100000013}},{"attributes":{"ID":268337,"DIS_CODE":0,"TOWNNAME":"北區","LI":"公園里","LIN":"3鄰","STREET":"北門路","SECT":"二段","MAREA":" ","LANE":" ","ALLEY":" ","HOUSE_NO":"９７號","E_COORD97":169271.39000000001,"N_COORD97":2544431.0299999998,"ADDRESS":"北門路二段９７號","OBJECTID":268332},"geometry":{"x":169271.38999999873,"y":2544431.0300000012}},{"attributes":{"ID":268338,"DIS_CODE":0,"TOWNNAME":"北區","LI":"公園里","LIN":"3鄰","STREET":"北門路","SECT":"二段","MAREA":" ","LANE":" ","ALLEY":" ","HOUSE_NO":"９９號","E_COORD97":169272.22,"N_COORD97":2544434.73,"ADDRESS":"北門路二段９９號","OBJECTID":268333},"geometry":{"x":169272.21999999974,"y":2544434.7300000023}},{"attributes":{"ID":268339,"DIS_CODE":0,"TOWNNAME":"永康區","LI":"中興里","LIN":"17鄰","STREET":"中華路","SECT":" ","MAREA":" ","LANE":"２８６巷","ALLEY":" ","HOUSE_NO":"６號","E_COORD97":171593.17000000001,"N_COORD97":2545307.3399999999,"ADDRESS":"中華路２８６巷６號","OBJECTID":268334},"geometry":{"x":171593.16999999993,"y":2545307.3400000017}},{"attributes":{"ID":268340,"DIS_CODE":0,"TOWNNAME":"新營區","LI":"興業里","LIN":" ","STREET":"公誠街","SECT":" ","MAREA":" ","LANE":"９巷","ALLEY":" ","HOUSE_NO":"５之３號","E_COORD97":180322.75,"N_COORD97":2578019.7400000002,"ADDRESS":"公誠街９巷５之３號","OBJECTID":268335},"geometry":{"x":180322.75000000093,"y":2578019.7400000021}},{"attributes":{"ID":268341,"DIS_CODE":0,"TOWNNAME":"新營區","LI":"土庫里","LIN":"18鄰","STREET":"開元路","SECT":" ","MAREA":" ","LANE":"２８３巷","ALLEY":" ","HOUSE_NO":"２０號","E_COORD97":181844.01999999999,"N_COORD97":2579886.4100000001,"ADDRESS":"開元路２８３巷２０號","OBJECTID":268336},"geometry":{"x":181844.02000000048,"y":2579886.410000002}},{"attributes":{"ID":268342,"DIS_CODE":0,"TOWNNAME":"新營區","LI":"新東里","LIN":"20鄰","STREET":"東明街","SECT":" ","MAREA":" ","LANE":"２８巷","ALLEY":" ","HOUSE_NO":"１２號","E_COORD97":180841.23999999999,"N_COORD97":2579579.8700000001,"ADDRESS":"東明街２８巷１２號","OBJECTID":268337},"geometry":{"x":180841.24000000115,"y":2579579.870000001}},{"attributes":{"ID":268343,"DIS_CODE":0,"TOWNNAME":"永康區","LI":"中興里","LIN":"17鄰","STREET":"中華路","SECT":" ","MAREA":" ","LANE":"２８６巷","ALLEY":" ","HOUSE_NO":"９號","E_COORD97":171591.64000000001,"N_COORD97":2545322.5,"ADDRESS":"中華路２８６巷９號","OBJECTID":268338},"geometry":{"x":171591.63999999966,"y":2545322.4999999981}},{"attributes":{"ID":268344,"DIS_CODE":0,"TOWNNAME":"新營區","LI":"新東里","LIN":"11鄰","STREET":"東泰八街","SECT":" ","MAREA":" ","LANE":"２巷","ALLEY":" ","HOUSE_NO":"１號","E_COORD97":181154.72,"N_COORD97":2579738.98,"ADDRESS":"東泰八街２巷１號","OBJECTID":268339},"geometry":{"x":181154.72000000067,"y":2579738.9800000042}},{"attributes":{"ID":268345,"DIS_CODE":0,"TOWNNAME":"安南區","LI":"溪墘里","LIN":"17鄰","STREET":"海佃路","SECT":"一段","MAREA":" ","LANE":"３７２巷","ALLEY":" ","HOUSE_NO":"３５號","E_COORD97":167188.82999999999,"N_COORD97":2547629.3199999998,"ADDRESS":"海佃路一段３７２巷３５號","OBJECTID":268340},"geometry":{"x":167188.82999999914,"y":2547629.3200000003}},{"attributes":{"ID":268346,"DIS_CODE":0,"TOWNNAME":"安南區","LI":"溪墘里","LIN":"17鄰","STREET":"海佃路","SECT":"一段","MAREA":" ","LANE":"３７２巷","ALLEY":" ","HOUSE_NO":"３７號","E_COORD97":167193.51000000001,"N_COORD97":2547630.2599999998,"ADDRESS":"海佃路一段３７２巷３７號","OBJECTID":268341},"geometry":{"x":167193.50999999978,"y":2547630.2600000016}},{"attributes":{"ID":268347,"DIS_CODE":0,"TOWNNAME":"安南區","LI":"溪墘里","LIN":"17鄰","STREET":"海佃路","SECT":"一段","MAREA":" ","LANE":"３７２巷","ALLEY":" ","HOUSE_NO":"３９號","E_COORD97":167197.66,"N_COORD97":2547630.98,"ADDRESS":"海佃路一段３７２巷３９號","OBJECTID":268342},"geometry":{"x":167197.66000000108,"y":2547630.9800000004}},{"attributes":{"ID":268348,"DIS_CODE":0,"TOWNNAME":"安南區","LI":"溪墘里","LIN":"17鄰","STREET":"海佃路","SECT":"一段","MAREA":" ","LANE":"３７２巷","ALLEY":" ","HOUSE_NO":"４１號","E_COORD97":167202.85999999999,"N_COORD97":2547631.8100000001,"ADDRESS":"海佃路一段３７２巷４１號","OBJECTID":268343},"geometry":{"x":167202.86000000127,"y":2547631.8100000005}},{"attributes":{"ID":268349,"DIS_CODE":0,"TOWNNAME":"安南區","LI":"溪墘里","LIN":"17鄰","STREET":"海佃路","SECT":"一段","MAREA":" ","LANE":"３７２巷","ALLEY":" ","HOUSE_NO":"４３號","E_COORD97":167206.91,"N_COORD97":2547632.4399999999,"ADDRESS":"海佃路一段３７２巷４３號","OBJECTID":268344},"geometry":{"x":167206.91000000015,"y":2547632.4400000013}},{"attributes":{"ID":268350,"DIS_CODE":0,"TOWNNAME":"安南區","LI":"溪墘里","LIN":"17鄰","STREET":"海佃路","SECT":"一段","MAREA":" ","LANE":"３７２巷","ALLEY":" ","HOUSE_NO":"４５號","E_COORD97":167210.75,"N_COORD97":2547634.1000000001,"ADDRESS":"海佃路一段３７２巷４５號","OBJECTID":268345},"geometry":{"x":167210.75,"y":2547634.1000000034}},{"attributes":{"ID":268351,"DIS_CODE":0,"TOWNNAME":"安南區","LI":"溪墘里","LIN":"17鄰","STREET":"海佃路","SECT":"一段","MAREA":" ","LANE":"３７２巷","ALLEY":" ","HOUSE_NO":"１１號","E_COORD97":167132.73999999999,"N_COORD97":2547614.0299999998,"ADDRESS":"海佃路一段３７２巷１１號","OBJECTID":268346},"geometry":{"x":167132.74000000115,"y":2547614.0300000012}},{"attributes":{"ID":268352,"DIS_CODE":0,"TOWNNAME":"安南區","LI":"溪墘里","LIN":"17鄰","STREET":"海佃路","SECT":"一段","MAREA":" ","LANE":"３７２巷","ALLEY":" ","HOUSE_NO":"１３號","E_COORD97":167137.31,"N_COORD97":2547615.1699999999,"ADDRESS":"海佃路一段３７２巷１３號","OBJECTID":268347},"geometry":{"x":167137.30999999959,"y":2547615.1699999999}},{"attributes":{"ID":268353,"DIS_CODE":0,"TOWNNAME":"安南區","LI":"溪墘里","LIN":"17鄰","STREET":"海佃路","SECT":"一段","MAREA":" ","LANE":"３７２巷","ALLEY":" ","HOUSE_NO":"１５號","E_COORD97":167142.29999999999,"N_COORD97":2547616.4100000001,"ADDRESS":"海佃路一段３７２巷１５號","OBJECTID":268348},"geometry":{"x":167142.29999999981,"y":2547616.410000002}},{"attributes":{"ID":268354,"DIS_CODE":0,"TOWNNAME":"安南區","LI":"溪墘里","LIN":"17鄰","STREET":"海佃路","SECT":"一段","MAREA":" ","LANE":"３７２巷","ALLEY":" ","HOUSE_NO":"４７號","E_COORD97":167215.12,"N_COORD97":2547635.2400000002,"ADDRESS":"海佃路一段３７２巷４７號","OBJECTID":268349},"geometry":{"x":167215.12000000011,"y":2547635.2400000021}},{"attributes":{"ID":268355,"DIS_CODE":0,"TOWNNAME":"安南區","LI":"溪墘里","LIN":"17鄰","STREET":"海佃路","SECT":"一段","MAREA":" ","LANE":"３７２巷","ALLEY":" ","HOUSE_NO":"４９號","E_COORD97":167219.69,"N_COORD97":2547635.8599999999,"ADDRESS":"海佃路一段３７２巷４９號","OBJECTID":268350},"geometry":{"x":167219.69000000134,"y":2547635.8600000013}},{"attributes":{"ID":268356,"DIS_CODE":0,"TOWNNAME":"安南區","LI":"安富里","LIN":"17鄰","STREET":"安富街","SECT":" ","MAREA":" ","LANE":"２４５巷","ALLEY":" ","HOUSE_NO":"３５號","E_COORD97":167605.51999999999,"N_COORD97":2547362.4199999999,"ADDRESS":"安富街２４５巷３５號","OBJECTID":268351},"geometry":{"x":167605.51999999955,"y":2547362.4200000018}},{"attributes":{"ID":268357,"DIS_CODE":0,"TOWNNAME":"安南區","LI":"安富里","LIN":"17鄰","STREET":"安富街","SECT":" ","MAREA":" ","LANE":"２４５巷","ALLEY":" ","HOUSE_NO":"３７號","E_COORD97":167606.72,"N_COORD97":2547357.9199999999,"ADDRESS":"安富街２４５巷３７號","OBJECTID":268352},"geometry":{"x":167606.72000000067,"y":2547357.9200000018}},{"attributes":{"ID":268358,"DIS_CODE":0,"TOWNNAME":"東區","LI":"大福里","LIN":"18鄰","STREET":"立德八路","SECT":" ","MAREA":" ","LANE":" ","ALLEY":" ","HOUSE_NO":"６６號","E_COORD97":169578.56,"N_COORD97":2541934.6000000001,"ADDRESS":"立德八路６６號","OBJECTID":268353},"geometry":{"x":169578.55999999959,"y":2541934.6000000034}},{"attributes":{"ID":268359,"DIS_CODE":0,"TOWNNAME":"北區","LI":"公園里","LIN":"3鄰","STREET":"富北街","SECT":" ","MAREA":" ","LANE":" ","ALLEY":" ","HOUSE_NO":"７０號","E_COORD97":169205.01000000001,"N_COORD97":2544440.71,"ADDRESS":"富北街７０號","OBJECTID":268354},"geometry":{"x":169205.01000000071,"y":2544440.7100000046}},{"attributes":{"ID":268360,"DIS_CODE":0,"TOWNNAME":"北區","LI":"公園里","LIN":"3鄰","STREET":"富北街","SECT":" ","MAREA":" ","LANE":" ","ALLEY":" ","HOUSE_NO":"７２號","E_COORD97":169199.42999999999,"N_COORD97":2544440.8199999998,"ADDRESS":"富北街７２號","OBJECTID":268355},"geometry":{"x":169199.4299999997,"y":2544440.8200000022}},{"attributes":{"ID":268361,"DIS_CODE":0,"TOWNNAME":"北區","LI":"公園里","LIN":"3鄰","STREET":"富北街","SECT":" ","MAREA":" ","LANE":" ","ALLEY":" ","HOUSE_NO":"７４號","E_COORD97":169192.29999999999,"N_COORD97":2544441.7400000002,"ADDRESS":"富北街７４號","OBJECTID":268356},"geometry":{"x":169192.29999999981,"y":2544441.7400000002}},{"attributes":{"ID":268362,"DIS_CODE":0,"TOWNNAME":"北區","LI":"公園里","LIN":"3鄰","STREET":"富北街","SECT":" ","MAREA":" ","LANE":" ","ALLEY":" ","HOUSE_NO":"７６號","E_COORD97":169187.03,"N_COORD97":2544441.6400000001,"ADDRESS":"富北街７６號","OBJECTID":268357},"geometry":{"x":169187.03000000119,"y":2544441.6400000025}},{"attributes":{"ID":268363,"DIS_CODE":0,"TOWNNAME":"北區","LI":"公園里","LIN":"3鄰","STREET":"富北街","SECT":" ","MAREA":" ","LANE":" ","ALLEY":" ","HOUSE_NO":"８２號","E_COORD97":169205.48999999999,"N_COORD97":2544465.5800000001,"ADDRESS":"富北街８２號","OBJECTID":268358},"geometry":{"x":169205.49000000115,"y":2544465.5800000019}},{"attributes":{"ID":268364,"DIS_CODE":0,"TOWNNAME":"麻豆區","LI":"穀興里","LIN":"3鄰","STREET":"光復路","SECT":" ","MAREA":" ","LANE":" ","ALLEY":" ","HOUSE_NO":"５６號","E_COORD97":172940.26000000001,"N_COORD97":2564922.3599999999,"ADDRESS":"光復路５６號","OBJECTID":268359},"geometry":{"x":172940.25999999978,"y":2564922.3599999994}},{"attributes":{"ID":268365,"DIS_CODE":0,"TOWNNAME":"安南區","LI":"安富里","LIN":"17鄰","STREET":"安富街","SECT":" ","MAREA":" ","LANE":"２４５巷","ALLEY":" ","HOUSE_NO":"３９號","E_COORD97":167608.23000000001,"N_COORD97":2547353.1200000001,"ADDRESS":"安富街２４５巷３９號","OBJECTID":268360},"geometry":{"x":167608.23000000045,"y":2547353.120000001}},{"attributes":{"ID":268366,"DIS_CODE":0,"TOWNNAME":"安南區","LI":"安富里","LIN":"17鄰","STREET":"安富街","SECT":" ","MAREA":" ","LANE":"２４５巷","ALLEY":" ","HOUSE_NO":"４３號","E_COORD97":167608.82999999999,"N_COORD97":2547341.71,"ADDRESS":"安富街２４５巷４３號","OBJECTID":268361},"geometry":{"x":167608.83000000007,"y":2547341.7100000009}},{"attributes":{"ID":268367,"DIS_CODE":0,"TOWNNAME":"安南區","LI":"安富里","LIN":"17鄰","STREET":"安富街","SECT":" ","MAREA":" ","LANE":"２４５巷","ALLEY":" ","HOUSE_NO":"４５號","E_COORD97":167610.32999999999,"N_COORD97":2547337.3999999999,"ADDRESS":"安富街２４５巷４５號","OBJECTID":268362},"geometry":{"x":167610.33000000007,"y":2547337.4000000004}},{"attributes":{"ID":268368,"DIS_CODE":0,"TOWNNAME":"安南區","LI":"溪東里","LIN":"17鄰","STREET":"府安路","SECT":"五段","MAREA":" ","LANE":"１１巷","ALLEY":" ","HOUSE_NO":"６９號","E_COORD97":168422.64000000001,"N_COORD97":2547534.5800000001,"ADDRESS":"府安路五段１１巷６９號","OBJECTID":268363},"geometry":{"x":168422.6400000006,"y":2547534.5800000001}},{"attributes":{"ID":268369,"DIS_CODE":0,"TOWNNAME":"安南區","LI":"溪東里","LIN":"17鄰","STREET":"府安路","SECT":"五段","MAREA":" ","LANE":"１１巷","ALLEY":" ","HOUSE_NO":"６７號","E_COORD97":168421.89000000001,"N_COORD97":2547528.4500000002,"ADDRESS":"府安路五段１１巷６７號","OBJECTID":268364},"geometry":{"x":168421.88999999966,"y":2547528.4499999993}},{"attributes":{"ID":268370,"DIS_CODE":0,"TOWNNAME":"新營區","LI":"民生里","LIN":"5鄰","STREET":"中華路","SECT":" ","MAREA":" ","LANE":"７６巷","ALLEY":" ","HOUSE_NO":"１１號","E_COORD97":179416.45000000001,"N_COORD97":2578282.0099999998,"ADDRESS":"中華路７６巷１１號","OBJECTID":268365},"geometry":{"x":179416.45000000112,"y":2578282.0100000016}},{"attributes":{"ID":268371,"DIS_CODE":0,"TOWNNAME":"永康區","LI":"埔園里","LIN":"17鄰","STREET":"中山路","SECT":" ","MAREA":" ","LANE":"３８３巷","ALLEY":" ","HOUSE_NO":"３號之３","E_COORD97":173487.82999999999,"N_COORD97":2548494.2999999998,"ADDRESS":"中山路３８３巷３號之３","OBJECTID":268366},"geometry":{"x":173487.83000000007,"y":2548494.3000000007}},{"attributes":{"ID":268372,"DIS_CODE":0,"TOWNNAME":"永康區","LI":"埔園里","LIN":"17鄰","STREET":"中山路","SECT":" ","MAREA":" ","LANE":"３８３巷","ALLEY":" ","HOUSE_NO":"３號之１","E_COORD97":173485.14000000001,"N_COORD97":2548504.5499999998,"ADDRESS":"中山路３８３巷３號之１","OBJECTID":268367},"geometry":{"x":173485.13999999966,"y":2548504.5500000026}},{"attributes":{"ID":268373,"DIS_CODE":0,"TOWNNAME":"永康區","LI":"尚頂里","LIN":"17鄰","STREET":"中正南路","SECT":" ","MAREA":" ","LANE":"２１０巷","ALLEY":" ","HOUSE_NO":"７之３號","E_COORD97":170097.62,"N_COORD97":2547200.21,"ADDRESS":"中正南路２１０巷７之３號","OBJECTID":268368},"geometry":{"x":170097.62000000197,"y":2547200.2100000009}},{"attributes":{"ID":268374,"DIS_CODE":0,"TOWNNAME":"永康區","LI":"五王里","LIN":"17鄰","STREET":"成功路","SECT":" ","MAREA":" ","LANE":"２０４巷","ALLEY":" ","HOUSE_NO":"４６號","E_COORD97":171483.97,"N_COORD97":2545747.5,"ADDRESS":"成功路２０４巷４６號","OBJECTID":268369},"geometry":{"x":171483.97000000067,"y":2545747.5000000019}},{"attributes":{"ID":268375,"DIS_CODE":0,"TOWNNAME":"永康區","LI":"東橋里","LIN":"17鄰","STREET":"東橋二街","SECT":" ","MAREA":" ","LANE":"７１巷","ALLEY":" ","HOUSE_NO":"１５號","E_COORD97":171703.79999999999,"N_COORD97":2546551.7200000002,"ADDRESS":"東橋二街７１巷１５號","OBJECTID":268370},"geometry":{"x":171703.80000000075,"y":2546551.7200000007}},{"attributes":{"ID":268376,"DIS_CODE":0,"TOWNNAME":"永康區","LI":"東橋里","LIN":"17鄰","STREET":"東橋二街","SECT":" ","MAREA":" ","LANE":"７１巷","ALLEY":" ","HOUSE_NO":"１號","E_COORD97":171722.44,"N_COORD97":2546521.5,"ADDRESS":"東橋二街７１巷１號","OBJECTID":268371},"geometry":{"x":171722.44000000041,"y":2546521.5}},{"attributes":{"ID":268377,"DIS_CODE":0,"TOWNNAME":"永康區","LI":"東橋里","LIN":"17鄰","STREET":"東橋二街","SECT":" ","MAREA":" ","LANE":"７１巷","ALLEY":" ","HOUSE_NO":"３號","E_COORD97":171719.81,"N_COORD97":2546525.4399999999,"ADDRESS":"東橋二街７１巷３號","OBJECTID":268372},"geometry":{"x":171719.81000000145,"y":2546525.4399999995}},{"attributes":{"ID":268378,"DIS_CODE":0,"TOWNNAME":"永康區","LI":"東橋里","LIN":"17鄰","STREET":"東橋二街","SECT":" ","MAREA":" ","LANE":"７１巷","ALLEY":" ","HOUSE_NO":"５號","E_COORD97":171717.53,"N_COORD97":2546528.9500000002,"ADDRESS":"東橋二街７１巷５號","OBJECTID":268373},"geometry":{"x":171717.53000000119,"y":2546528.9499999993}},{"attributes":{"ID":268379,"DIS_CODE":0,"TOWNNAME":"永康區","LI":"東橋里","LIN":"17鄰","STREET":"東橋二街","SECT":" ","MAREA":" ","LANE":"７１巷","ALLEY":" ","HOUSE_NO":"７號","E_COORD97":171715.51999999999,"N_COORD97":2546532.7999999998,"ADDRESS":"東橋二街７１巷７號","OBJECTID":268374},"geometry":{"x":171715.52000000048,"y":2546532.8000000026}},{"attributes":{"ID":268380,"DIS_CODE":0,"TOWNNAME":"新營區","LI":"興安里","LIN":"8鄰","STREET":"新進路","SECT":" ","MAREA":" ","LANE":"２８１巷","ALLEY":" ","HOUSE_NO":"９號","E_COORD97":180004.07000000001,"N_COORD97":2577789.73,"ADDRESS":"新進路２８１巷９號","OBJECTID":268375},"geometry":{"x":180004.0700000003,"y":2577789.7300000004}},{"attributes":{"ID":268381,"DIS_CODE":0,"TOWNNAME":"中西區","LI":"西賢里","LIN":"17鄰","STREET":"西賢一街","SECT":" ","MAREA":" ","LANE":"７１巷","ALLEY":" ","HOUSE_NO":"３６號","E_COORD97":165591.29000000001,"N_COORD97":2544649.46,"ADDRESS":"西賢一街７１巷３６號","OBJECTID":268376},"geometry":{"x":165591.29000000097,"y":2544649.4600000046}},{"attributes":{"ID":268382,"DIS_CODE":0,"TOWNNAME":"中西區","LI":"西賢里","LIN":"17鄰","STREET":"西賢一街","SECT":" ","MAREA":" ","LANE":"７１巷","ALLEY":" ","HOUSE_NO":"６號","E_COORD97":165665.56,"N_COORD97":2544653.25,"ADDRESS":"西賢一街７１巷６號","OBJECTID":268377},"geometry":{"x":165665.55999999959,"y":2544653.2500000037}},{"attributes":{"ID":268383,"DIS_CODE":0,"TOWNNAME":"北區","LI":"正覺里","LIN":"3鄰","STREET":"西門路","SECT":"四段","MAREA":" ","LANE":" ","ALLEY":" ","HOUSE_NO":"３７４號","E_COORD97":169016.69,"N_COORD97":2546089.8999999999,"ADDRESS":"西門路四段３７４號","OBJECTID":268378},"geometry":{"x":169016.69000000134,"y":2546089.8999999985}},{"attributes":{"ID":268384,"DIS_CODE":0,"TOWNNAME":"中西區","LI":"西賢里","LIN":"17鄰","STREET":"西賢一街","SECT":" ","MAREA":" ","LANE":"７１巷","ALLEY":" ","HOUSE_NO":"８號","E_COORD97":165658.04000000001,"N_COORD97":2544653.25,"ADDRESS":"西賢一街７１巷８號","OBJECTID":268379},"geometry":{"x":165658.04000000004,"y":2544653.2500000037}},{"attributes":{"ID":268385,"DIS_CODE":0,"TOWNNAME":"安南區","LI":"梅花里","LIN":"17鄰","STREET":"同安路","SECT":" ","MAREA":" ","LANE":"３８２巷","ALLEY":" ","HOUSE_NO":"２１號","E_COORD97":167382.45999999999,"N_COORD97":2549332.8599999999,"ADDRESS":"同安路３８２巷２１號","OBJECTID":268380},"geometry":{"x":167382.45999999996,"y":2549332.8599999994}},{"attributes":{"ID":268386,"DIS_CODE":0,"TOWNNAME":"安南區","LI":"梅花里","LIN":"17鄰","STREET":"同安路","SECT":" ","MAREA":" ","LANE":"３８２巷","ALLEY":" ","HOUSE_NO":"２３號","E_COORD97":167386.28,"N_COORD97":2549331.7999999998,"ADDRESS":"同安路３８２巷２３號","OBJECTID":268381},"geometry":{"x":167386.28000000119,"y":2549331.8000000007}},{"attributes":{"ID":268387,"DIS_CODE":0,"TOWNNAME":"中西區","LI":"建國里","LIN":"17鄰","STREET":"民生路","SECT":"一段","MAREA":" ","LANE":"１５６巷","ALLEY":" ","HOUSE_NO":"７號","E_COORD97":168024.04000000001,"N_COORD97":2543894.1800000002,"ADDRESS":"民生路一段１５６巷７號","OBJECTID":268382},"geometry":{"x":168024.04000000097,"y":2543894.1800000016}},{"attributes":{"ID":268388,"DIS_CODE":0,"TOWNNAME":"歸仁區","LI":"七甲里","LIN":"4鄰","STREET":"中正北路","SECT":"二段","MAREA":" ","LANE":"４７０巷","ALLEY":" ","HOUSE_NO":"３５號","E_COORD97":177530.47,"N_COORD97":2543166.2599999998,"ADDRESS":"中正北路二段４７０巷３５號","OBJECTID":268383},"geometry":{"x":177530.47000000067,"y":2543166.2599999998}},{"attributes":{"ID":268389,"DIS_CODE":0,"TOWNNAME":"安南區","LI":"淵中里","LIN":"17鄰","STREET":"安中路","SECT":"三段","MAREA":" ","LANE":"２３３巷","ALLEY":" ","HOUSE_NO":"１號","E_COORD97":165800.10000000001,"N_COORD97":2549842.0800000001,"ADDRESS":"安中路三段２３３巷１號","OBJECTID":268384},"geometry":{"x":165800.10000000149,"y":2549842.0800000019}},{"attributes":{"ID":268390,"DIS_CODE":0,"TOWNNAME":"安南區","LI":"淵中里","LIN":"17鄰","STREET":"安中路","SECT":"三段","MAREA":" ","LANE":"２３３巷","ALLEY":" ","HOUSE_NO":"１７號","E_COORD97":165798.51999999999,"N_COORD97":2549809.7000000002,"ADDRESS":"安中路三段２３３巷１７號","OBJECTID":268385},"geometry":{"x":165798.51999999955,"y":2549809.700000003}},{"attributes":{"ID":268391,"DIS_CODE":0,"TOWNNAME":"永康區","LI":"\u25A0洲里","LIN":"3鄰","STREET":"\u25A0行路","SECT":" ","MAREA":" ","LANE":" ","ALLEY":" ","HOUSE_NO":"７４號","E_COORD97":171594.57000000001,"N_COORD97":2549237.98,"ADDRESS":"\u25A0行路７４號","OBJECTID":268386},"geometry":{"x":171594.5700000003,"y":2549237.9800000004}},{"attributes":{"ID":268392,"DIS_CODE":0,"TOWNNAME":"麻豆區","LI":"穀興里","LIN":"3鄰","STREET":"光復路","SECT":" ","MAREA":" ","LANE":" ","ALLEY":" ","HOUSE_NO":"５８號","E_COORD97":172935.82000000001,"N_COORD97":2564922.3100000001,"ADDRESS":"光復路５８號","OBJECTID":268387},"geometry":{"x":172935.81999999937,"y":2564922.3100000024}},{"attributes":{"ID":268393,"DIS_CODE":0,"TOWNNAME":"麻豆區","LI":"穀興里","LIN":"3鄰","STREET":"光復路","SECT":" ","MAREA":" ","LANE":" ","ALLEY":" ","HOUSE_NO":"６０號","E_COORD97":172932.51999999999,"N_COORD97":2564922.46,"ADDRESS":"光復路６０號","OBJECTID":268388},"geometry":{"x":172932.52000000048,"y":2564922.4600000009}},{"attributes":{"ID":268394,"DIS_CODE":0,"TOWNNAME":"麻豆區","LI":"穀興里","LIN":"3鄰","STREET":"光復路","SECT":" ","MAREA":" ","LANE":" ","ALLEY":" ","HOUSE_NO":"６２號","E_COORD97":172928.66,"N_COORD97":2564922.4100000001,"ADDRESS":"光復路６２號","OBJECTID":268389},"geometry":{"x":172928.66000000108,"y":2564922.4100000001}},{"attributes":{"ID":268395,"DIS_CODE":0,"TOWNNAME":"歸仁區","LI":"大廟里","LIN":"23鄰","STREET":"大廟一街","SECT":" ","MAREA":" ","LANE":"９０巷","ALLEY":" ","HOUSE_NO":"１５號","E_COORD97":175704.72,"N_COORD97":2543947.25,"ADDRESS":"大廟一街９０巷１５號","OBJECTID":268390},"geometry":{"x":175704.72000000067,"y":2543947.25}},{"attributes":{"ID":268396,"DIS_CODE":0,"TOWNNAME":"麻豆區","LI":"穀興里","LIN":"3鄰","STREET":"光復路","SECT":" ","MAREA":" ","LANE":" ","ALLEY":" ","HOUSE_NO":"６４號","E_COORD97":172924.32000000001,"N_COORD97":2564922.4500000002,"ADDRESS":"光復路６４號","OBJECTID":268391},"geometry":{"x":172924.32000000123,"y":2564922.4500000011}},{"attributes":{"ID":268397,"DIS_CODE":0,"TOWNNAME":"麻豆區","LI":"穀興里","LIN":"3鄰","STREET":"光復路","SECT":" ","MAREA":" ","LANE":" ","ALLEY":" ","HOUSE_NO":"６６號","E_COORD97":172918.76000000001,"N_COORD97":2564922,"ADDRESS":"光復路６６號","OBJECTID":268392},"geometry":{"x":172918.75999999885,"y":2564922}},{"attributes":{"ID":268398,"DIS_CODE":0,"TOWNNAME":"麻豆區","LI":"穀興里","LIN":"3鄰","STREET":"光復路","SECT":" ","MAREA":" ","LANE":" ","ALLEY":" ","HOUSE_NO":"６８號","E_COORD97":172914.31,"N_COORD97":2564922.4900000002,"ADDRESS":"光復路６８號","OBJECTID":268393},"geometry":{"x":172914.30999999959,"y":2564922.4900000002}},{"attributes":{"ID":268399,"DIS_CODE":0,"TOWNNAME":"安南區","LI":"理想里","LIN":"17鄰","STREET":"大安街","SECT":" ","MAREA":" ","LANE":"２４３巷","ALLEY":" ","HOUSE_NO":"４號","E_COORD97":167436.76000000001,"N_COORD97":2548431.7400000002,"ADDRESS":"大安街２４３巷４號","OBJECTID":268394},"geometry":{"x":167436.76000000071,"y":2548431.7400000021}},{"attributes":{"ID":268400,"DIS_CODE":0,"TOWNNAME":"麻豆區","LI":"穀興里","LIN":"3鄰","STREET":"光復路","SECT":" ","MAREA":" ","LANE":" ","ALLEY":" ","HOUSE_NO":"７０號","E_COORD97":172909.76999999999,"N_COORD97":2564922.5499999998,"ADDRESS":"光復路７０號","OBJECTID":268395},"geometry":{"x":172909.76999999955,"y":2564922.5500000007}},{"attributes":{"ID":268401,"DIS_CODE":0,"TOWNNAME":"六甲區","LI":"菁埔里","LIN":"3鄰","STREET":" ","SECT":" ","MAREA":"林鳳營","LANE":" ","ALLEY":" ","HOUSE_NO":"４５１號","E_COORD97":179212.81,"N_COORD97":2570970.52,"ADDRESS":"林鳳營４５１號","OBJECTID":268396},"geometry":{"x":179212.81000000052,"y":2570970.5200000033}},{"attributes":{"ID":268402,"DIS_CODE":0,"TOWNNAME":"六甲區","LI":"菁埔里","LIN":"3鄰","STREET":" ","SECT":" ","MAREA":"林鳳營","LANE":" ","ALLEY":" ","HOUSE_NO":"４６０號","E_COORD97":179030.73999999999,"N_COORD97":2570977.48,"ADDRESS":"林鳳營４６０號","OBJECTID":268397},"geometry":{"x":179030.74000000209,"y":2570977.4800000004}},{"attributes":{"ID":268403,"DIS_CODE":0,"TOWNNAME":"六甲區","LI":"菁埔里","LIN":"3鄰","STREET":" ","SECT":" ","MAREA":"林鳳營","LANE":" ","ALLEY":" ","HOUSE_NO":"４７８號","E_COORD97":179179.26000000001,"N_COORD97":2571280.5299999998,"ADDRESS":"林鳳營４７８號","OBJECTID":268398},"geometry":{"x":179179.26000000164,"y":2571280.5299999993}},{"attributes":{"ID":268404,"DIS_CODE":0,"TOWNNAME":"六甲區","LI":"菁埔里","LIN":"3鄰","STREET":" ","SECT":" ","MAREA":"林鳳營","LANE":" ","ALLEY":" ","HOUSE_NO":"４８０號","E_COORD97":179202.60000000001,"N_COORD97":2571282.8799999999,"ADDRESS":"林鳳營４８０號","OBJECTID":268399},"geometry":{"x":179202.60000000056,"y":2571282.8800000008}},{"attributes":{"ID":268405,"DIS_CODE":0,"TOWNNAME":"六甲區","LI":"菁埔里","LIN":"3鄰","STREET":" ","SECT":" ","MAREA":"林鳳營","LANE":" ","ALLEY":" ","HOUSE_NO":"４８２號","E_COORD97":179158.19,"N_COORD97":2571148.9399999999,"ADDRESS":"林鳳營４８２號","OBJECTID":268400},"geometry":{"x":179158.18999999948,"y":2571148.9399999995}}]}