{"displayFieldName":"TOWNNAME","fieldAliases":{"ID":"ID","DIS_CODE":"DIS_CODE","TOWNNAME":"TOWNNAME","LI":"LI","LIN":"LIN","STREET":"STREET","SECT":"SECT","MAREA":"MAREA","LANE":"LANE","ALLEY":"ALLEY","HOUSE_NO":"HOUSE_NO","E_COORD97":"E_COORD97","N_COORD97":"N_COORD97","ADDRESS":"ADDRESS","OBJECTID":"OBJECTID"},"geometryType":"esriGeometryPoint","spatialReference":{"wkid":102443,"latestWkid":3826},"fields":[{"name":"ID","type":"esriFieldTypeDouble","alias":"ID"},{"name":"DIS_CODE","type":"esriFieldTypeInteger","alias":"DIS_CODE"},{"name":"TOWNNAME","type":"esriFieldTypeString","alias":"TOWNNAME","length":8},{"name":"LI","type":"esriFieldTypeString","alias":"LI","length":8},{"name":"LIN","type":"esriFieldTypeString","alias":"LIN","length":12},{"name":"STREET","type":"esriFieldTypeString","alias":"STREET","length":20},{"name":"SECT","type":"esriFieldTypeString","alias":"SECT","length":8},{"name":"MAREA","type":"esriFieldTypeString","alias":"MAREA","length":12},{"name":"LANE","type":"esriFieldTypeString","alias":"LANE","length":10},{"name":"ALLEY","type":"esriFieldTypeString","alias":"ALLEY","length":10},{"name":"HOUSE_NO","type":"esriFieldTypeString","alias":"HOUSE_NO","length":20},{"name":"E_COORD97","type":"esriFieldTypeDouble","alias":"E_COORD97"},{"name":"N_COORD97","type":"esriFieldTypeDouble","alias":"N_COORD97"},{"name":"ADDRESS","type":"esriFieldTypeString","alias":"ADDRESS","length":50},{"name":"OBJECTID","type":"esriFieldTypeOID","alias":"OBJECTID"}],"features":[{"attributes":{"ID":122801,"DIS_CODE":0,"TOWNNAME":"新市區","LI":"三舍里","LIN":"4鄰","STREET":" ","SECT":" ","MAREA":"三舍","LANE":" ","ALLEY":" ","HOUSE_NO":"１０８之１０號","E_COORD97":178026.20000000001,"N_COORD97":2554591.0499999998,"ADDRESS":"三舍１０８之１０號","OBJECTID":122801},"geometry":{"x":178026.20000000112,"y":2554591.0500000007}},{"attributes":{"ID":122802,"DIS_CODE":0,"TOWNNAME":"新市區","LI":"大營里","LIN":"18鄰","STREET":" ","SECT":" ","MAREA":"豐榮","LANE":" ","ALLEY":" ","HOUSE_NO":"１６號","E_COORD97":178936.35000000001,"N_COORD97":2554444.5,"ADDRESS":"豐榮１６號","OBJECTID":122802},"geometry":{"x":178936.35000000056,"y":2554444.5000000019}},{"attributes":{"ID":122803,"DIS_CODE":0,"TOWNNAME":"新市區","LI":"大社里","LIN":"25鄰","STREET":" ","SECT":" ","MAREA":"大社","LANE":" ","ALLEY":" ","HOUSE_NO":"９１８號之２０","E_COORD97":179922.47,"N_COORD97":2554044.7999999998,"ADDRESS":"大社９１８號之２０","OBJECTID":122803},"geometry":{"x":179922.47000000067,"y":2554044.7999999989}},{"attributes":{"ID":122804,"DIS_CODE":0,"TOWNNAME":"新市區","LI":"大社里","LIN":"18鄰","STREET":" ","SECT":" ","MAREA":"大社","LANE":" ","ALLEY":" ","HOUSE_NO":"７６３號","E_COORD97":179999.09,"N_COORD97":2554191,"ADDRESS":"大社７６３號","OBJECTID":122804},"geometry":{"x":179999.08999999892,"y":2554191}},{"attributes":{"ID":122805,"DIS_CODE":0,"TOWNNAME":"新市區","LI":"大營里","LIN":"24鄰","STREET":" ","SECT":" ","MAREA":"大營","LANE":" ","ALLEY":" ","HOUSE_NO":"１３１之５０號","E_COORD97":179164.76000000001,"N_COORD97":2554681.0499999998,"ADDRESS":"大營１３１之５０號","OBJECTID":122805},"geometry":{"x":179164.76000000071,"y":2554681.0500000026}},{"attributes":{"ID":122806,"DIS_CODE":0,"TOWNNAME":"新市區","LI":"大營里","LIN":"24鄰","STREET":" ","SECT":" ","MAREA":"大營","LANE":" ","ALLEY":" ","HOUSE_NO":"１３１之２８號","E_COORD97":179244.42000000001,"N_COORD97":2554764.0499999998,"ADDRESS":"大營１３１之２８號","OBJECTID":122806},"geometry":{"x":179244.42000000179,"y":2554764.0500000007}},{"attributes":{"ID":122807,"DIS_CODE":0,"TOWNNAME":"新市區","LI":"大營里","LIN":"24鄰","STREET":" ","SECT":" ","MAREA":"大營","LANE":" ","ALLEY":" ","HOUSE_NO":"１３１之５１號","E_COORD97":179231.85000000001,"N_COORD97":2554771.7999999998,"ADDRESS":"大營１３１之５１號","OBJECTID":122807},"geometry":{"x":179231.84999999963,"y":2554771.8000000026}},{"attributes":{"ID":122808,"DIS_CODE":0,"TOWNNAME":"新市區","LI":"大營里","LIN":"18鄰","STREET":" ","SECT":" ","MAREA":"豐榮","LANE":" ","ALLEY":" ","HOUSE_NO":"８號","E_COORD97":178987.95000000001,"N_COORD97":2554445.75,"ADDRESS":"豐榮８號","OBJECTID":122808},"geometry":{"x":178987.95000000019,"y":2554445.7500000019}},{"attributes":{"ID":122809,"DIS_CODE":0,"TOWNNAME":"新市區","LI":"大營里","LIN":"18鄰","STREET":" ","SECT":" ","MAREA":"豐榮","LANE":" ","ALLEY":" ","HOUSE_NO":"１５號","E_COORD97":178963.85000000001,"N_COORD97":2554430,"ADDRESS":"豐榮１５號","OBJECTID":122809},"geometry":{"x":178963.85000000056,"y":2554430.0000000019}},{"attributes":{"ID":122810,"DIS_CODE":0,"TOWNNAME":"新市區","LI":"大社里","LIN":"20鄰","STREET":" ","SECT":" ","MAREA":"大社","LANE":" ","ALLEY":" ","HOUSE_NO":"７９０之７號","E_COORD97":179890.39999999999,"N_COORD97":2554218.2999999998,"ADDRESS":"大社７９０之７號","OBJECTID":122810},"geometry":{"x":179890.40000000037,"y":2554218.3000000026}},{"attributes":{"ID":122811,"DIS_CODE":0,"TOWNNAME":"新市區","LI":"大社里","LIN":"25鄰","STREET":" ","SECT":" ","MAREA":"大社","LANE":" ","ALLEY":" ","HOUSE_NO":"８９５號","E_COORD97":179882.35000000001,"N_COORD97":2554023.25,"ADDRESS":"大社８９５號","OBJECTID":122811},"geometry":{"x":179882.35000000056,"y":2554023.25}},{"attributes":{"ID":122812,"DIS_CODE":0,"TOWNNAME":"新市區","LI":"大營里","LIN":"13鄰","STREET":" ","SECT":" ","MAREA":"大營","LANE":" ","ALLEY":" ","HOUSE_NO":"２５０號","E_COORD97":179160.76999999999,"N_COORD97":2555554.75,"ADDRESS":"大營２５０號","OBJECTID":122812},"geometry":{"x":179160.77000000048,"y":2555554.7500000019}},{"attributes":{"ID":122813,"DIS_CODE":0,"TOWNNAME":"新市區","LI":"大社里","LIN":"13鄰","STREET":" ","SECT":" ","MAREA":"大社","LANE":" ","ALLEY":" ","HOUSE_NO":"４２８號","E_COORD97":179922.14999999999,"N_COORD97":2554853.5,"ADDRESS":"大社４２８號","OBJECTID":122813},"geometry":{"x":179922.1500000013,"y":2554853.5000000019}},{"attributes":{"ID":122814,"DIS_CODE":0,"TOWNNAME":"新市區","LI":"大社里","LIN":"25鄰","STREET":" ","SECT":" ","MAREA":"大社","LANE":" ","ALLEY":" ","HOUSE_NO":"９０１號","E_COORD97":179889.87,"N_COORD97":2554059.75,"ADDRESS":"大社９０１號","OBJECTID":122814},"geometry":{"x":179889.87000000104,"y":2554059.7500000019}},{"attributes":{"ID":122815,"DIS_CODE":0,"TOWNNAME":"新市區","LI":"大營里","LIN":"17鄰","STREET":" ","SECT":" ","MAREA":"大營","LANE":" ","ALLEY":" ","HOUSE_NO":"３２６號","E_COORD97":179149.23000000001,"N_COORD97":2555248,"ADDRESS":"大營３２６號","OBJECTID":122815},"geometry":{"x":179149.23000000045,"y":2555248.0000000019}},{"attributes":{"ID":122816,"DIS_CODE":0,"TOWNNAME":"仁德區","LI":"後壁里","LIN":"34鄰","STREET":"德洋二街","SECT":" ","MAREA":" ","LANE":"３９巷","ALLEY":"２９弄","HOUSE_NO":"９號","E_COORD97":172322.59,"N_COORD97":2539403.02,"ADDRESS":"德洋二街３９巷２９弄９號","OBJECTID":122816},"geometry":{"x":172322.58999999985,"y":2539403.0200000014}},{"attributes":{"ID":122817,"DIS_CODE":0,"TOWNNAME":"仁德區","LI":"太子里","LIN":"34鄰","STREET":"土庫路","SECT":" ","MAREA":" ","LANE":"３５巷","ALLEY":"１弄","HOUSE_NO":"１１號","E_COORD97":174239.89000000001,"N_COORD97":2543421.5,"ADDRESS":"土庫路３５巷１弄１１號","OBJECTID":122817},"geometry":{"x":174239.88999999966,"y":2543421.5000000019}},{"attributes":{"ID":122818,"DIS_CODE":0,"TOWNNAME":"仁德區","LI":"成功里","LIN":"30鄰","STREET":"成功一街","SECT":" ","MAREA":" ","LANE":"１巷","ALLEY":"１４弄","HOUSE_NO":"１８號","E_COORD97":170590.42999999999,"N_COORD97":2540186.0099999998,"ADDRESS":"成功一街１巷１４弄１８號","OBJECTID":122818},"geometry":{"x":170590.43000000063,"y":2540186.0100000035}},{"attributes":{"ID":122819,"DIS_CODE":0,"TOWNNAME":"仁德區","LI":"成功里","LIN":"9鄰","STREET":"成功二街","SECT":" ","MAREA":" ","LANE":"７巷","ALLEY":"１６弄","HOUSE_NO":"１０號","E_COORD97":170970.70999999999,"N_COORD97":2539952.2400000002,"ADDRESS":"成功二街７巷１６弄１０號","OBJECTID":122819},"geometry":{"x":170970.71000000089,"y":2539952.2400000021}},{"attributes":{"ID":122820,"DIS_CODE":0,"TOWNNAME":"新市區","LI":"大社里","LIN":"25鄰","STREET":" ","SECT":" ","MAREA":"大社","LANE":" ","ALLEY":" ","HOUSE_NO":"９０２號","E_COORD97":179877.51000000001,"N_COORD97":2554055,"ADDRESS":"大社９０２號","OBJECTID":122820},"geometry":{"x":179877.50999999885,"y":2554055}},{"attributes":{"ID":122821,"DIS_CODE":0,"TOWNNAME":"仁德區","LI":"成功里","LIN":"23鄰","STREET":"保華路","SECT":" ","MAREA":" ","LANE":"２６５巷","ALLEY":"２１弄","HOUSE_NO":"１３號","E_COORD97":170681.45999999999,"N_COORD97":2539922.2599999998,"ADDRESS":"保華路２６５巷２１弄１３號","OBJECTID":122821},"geometry":{"x":170681.45999999996,"y":2539922.2599999998}},{"attributes":{"ID":122822,"DIS_CODE":0,"TOWNNAME":"新市區","LI":"港墘里","LIN":"16鄰","STREET":"長安街","SECT":" ","MAREA":" ","LANE":"３６巷","ALLEY":"９弄","HOUSE_NO":"１１號","E_COORD97":178254.87,"N_COORD97":2552701.8199999998,"ADDRESS":"長安街３６巷９弄１１號","OBJECTID":122822},"geometry":{"x":178254.87000000197,"y":2552701.820000004}},{"attributes":{"ID":122823,"DIS_CODE":0,"TOWNNAME":"新營區","LI":"新北里","LIN":"31鄰","STREET":"新北六街","SECT":" ","MAREA":" ","LANE":" ","ALLEY":" ","HOUSE_NO":"５１號","E_COORD97":178757.32000000001,"N_COORD97":2579045.9900000002,"ADDRESS":"新北六街５１號","OBJECTID":122823},"geometry":{"x":178757.32000000216,"y":2579045.9900000002}},{"attributes":{"ID":122824,"DIS_CODE":0,"TOWNNAME":"新營區","LI":"民榮里","LIN":"31鄰","STREET":"太子路","SECT":" ","MAREA":" ","LANE":" ","ALLEY":" ","HOUSE_NO":"３７號","E_COORD97":178345.69,"N_COORD97":2578093.3399999999,"ADDRESS":"太子路３７號","OBJECTID":122824},"geometry":{"x":178345.69000000041,"y":2578093.3400000017}},{"attributes":{"ID":122825,"DIS_CODE":0,"TOWNNAME":"新市區","LI":"港墘里","LIN":"16鄰","STREET":"長安街","SECT":" ","MAREA":" ","LANE":"３６巷","ALLEY":"９弄","HOUSE_NO":"５號","E_COORD97":178265.45999999999,"N_COORD97":2552703.3199999998,"ADDRESS":"長安街３６巷９弄５號","OBJECTID":122825},"geometry":{"x":178265.45999999996,"y":2552703.3200000022}},{"attributes":{"ID":122826,"DIS_CODE":0,"TOWNNAME":"新市區","LI":"港墘里","LIN":"16鄰","STREET":"長安街","SECT":" ","MAREA":" ","LANE":"３６巷","ALLEY":"９弄","HOUSE_NO":"２０號","E_COORD97":178232.10000000001,"N_COORD97":2552712.5699999998,"ADDRESS":"長安街３６巷９弄２０號","OBJECTID":122826},"geometry":{"x":178232.09999999963,"y":2552712.5700000003}},{"attributes":{"ID":122827,"DIS_CODE":0,"TOWNNAME":"新營區","LI":"民榮里","LIN":"31鄰","STREET":"太子路","SECT":" ","MAREA":" ","LANE":" ","ALLEY":" ","HOUSE_NO":"４１號","E_COORD97":178337.48999999999,"N_COORD97":2578088.9500000002,"ADDRESS":"太子路４１號","OBJECTID":122827},"geometry":{"x":178337.49000000115,"y":2578088.9499999993}},{"attributes":{"ID":122828,"DIS_CODE":0,"TOWNNAME":"新市區","LI":"港墘里","LIN":"16鄰","STREET":"長安街","SECT":" ","MAREA":" ","LANE":"３６巷","ALLEY":"９弄","HOUSE_NO":"２２號","E_COORD97":178227.42999999999,"N_COORD97":2552711.8199999998,"ADDRESS":"長安街３６巷９弄２２號","OBJECTID":122828},"geometry":{"x":178227.43000000063,"y":2552711.820000004}},{"attributes":{"ID":122829,"DIS_CODE":0,"TOWNNAME":"新營區","LI":"民榮里","LIN":"31鄰","STREET":"太子路","SECT":" ","MAREA":" ","LANE":" ","ALLEY":" ","HOUSE_NO":"４５號","E_COORD97":178330.29999999999,"N_COORD97":2578084.5600000001,"ADDRESS":"太子路４５號","OBJECTID":122829},"geometry":{"x":178330.30000000075,"y":2578084.5600000024}},{"attributes":{"ID":122830,"DIS_CODE":0,"TOWNNAME":"新營區","LI":"民榮里","LIN":"31鄰","STREET":"太子路","SECT":" ","MAREA":" ","LANE":" ","ALLEY":" ","HOUSE_NO":"３９號","E_COORD97":178341.59,"N_COORD97":2578091.1499999999,"ADDRESS":"太子路３９號","OBJECTID":122830},"geometry":{"x":178341.59000000078,"y":2578091.1500000022}},{"attributes":{"ID":122831,"DIS_CODE":0,"TOWNNAME":"新營區","LI":"民榮里","LIN":"31鄰","STREET":"太子路","SECT":" ","MAREA":" ","LANE":" ","ALLEY":" ","HOUSE_NO":"３５號","E_COORD97":178350.82000000001,"N_COORD97":2578095.5299999998,"ADDRESS":"太子路３５號","OBJECTID":122831},"geometry":{"x":178350.82000000123,"y":2578095.5299999993}},{"attributes":{"ID":122832,"DIS_CODE":0,"TOWNNAME":"仁德區","LI":"上崙里","LIN":"5鄰","STREET":"德崙路","SECT":" ","MAREA":" ","LANE":" ","ALLEY":" ","HOUSE_NO":"３０７號","E_COORD97":173906.31,"N_COORD97":2538148.52,"ADDRESS":"德崙路３０７號","OBJECTID":122832},"geometry":{"x":173906.30999999959,"y":2538148.5200000014}},{"attributes":{"ID":122833,"DIS_CODE":0,"TOWNNAME":"仁德區","LI":"土庫里","LIN":"13鄰","STREET":"土庫路","SECT":" ","MAREA":" ","LANE":" ","ALLEY":" ","HOUSE_NO":"２０９號","E_COORD97":174301,"N_COORD97":2542908.5,"ADDRESS":"土庫路２０９號","OBJECTID":122833},"geometry":{"x":174301.00000000093,"y":2542908.5}},{"attributes":{"ID":122834,"DIS_CODE":0,"TOWNNAME":"仁德區","LI":"仁義里","LIN":"18鄰","STREET":"正義路","SECT":" ","MAREA":" ","LANE":" ","ALLEY":" ","HOUSE_NO":"２２９號","E_COORD97":173978.23999999999,"N_COORD97":2541399.0099999998,"ADDRESS":"正義路２２９號","OBJECTID":122834},"geometry":{"x":173978.24000000022,"y":2541399.0099999998}},{"attributes":{"ID":122835,"DIS_CODE":0,"TOWNNAME":"仁德區","LI":"仁義里","LIN":"32鄰","STREET":"中清二街","SECT":" ","MAREA":" ","LANE":" ","ALLEY":" ","HOUSE_NO":"２７號","E_COORD97":173556.92999999999,"N_COORD97":2541448.2999999998,"ADDRESS":"中清二街２７號","OBJECTID":122835},"geometry":{"x":173556.93000000063,"y":2541448.3000000007}},{"attributes":{"ID":122836,"DIS_CODE":0,"TOWNNAME":"仁德區","LI":"保安里","LIN":"20鄰","STREET":"保安路","SECT":"一段","MAREA":" ","LANE":" ","ALLEY":" ","HOUSE_NO":"１號","E_COORD97":170419.29000000001,"N_COORD97":2535995.5600000001,"ADDRESS":"保安路一段１號","OBJECTID":122836},"geometry":{"x":170419.29000000097,"y":2535995.5600000005}},{"attributes":{"ID":122837,"DIS_CODE":0,"TOWNNAME":"安南區","LI":"長安里","LIN":"16鄰","STREET":"長溪路","SECT":"三段","MAREA":" ","LANE":"３７３巷","ALLEY":"２１弄","HOUSE_NO":"３８９號","E_COORD97":167500.76999999999,"N_COORD97":2551243.27,"ADDRESS":"長溪路三段３７３巷２１弄３８９號","OBJECTID":122837},"geometry":{"x":167500.77000000142,"y":2551243.2699999977}},{"attributes":{"ID":122838,"DIS_CODE":0,"TOWNNAME":"仁德區","LI":"仁德里","LIN":"22鄰","STREET":"中山路","SECT":" ","MAREA":" ","LANE":"８７５巷","ALLEY":"６弄","HOUSE_NO":"１號","E_COORD97":172398.30908899999,"N_COORD97":2541549.6238699998,"ADDRESS":"中山路８７５巷６弄１號","OBJECTID":122838},"geometry":{"x":172398.30908900034,"y":2541549.6238729991}},{"attributes":{"ID":122839,"DIS_CODE":0,"TOWNNAME":"永康區","LI":"網寮里","LIN":"17鄰","STREET":"永興路","SECT":" ","MAREA":" ","LANE":"４２７巷","ALLEY":"２弄","HOUSE_NO":"２１號","E_COORD97":173252.10999999999,"N_COORD97":2546771.02,"ADDRESS":"永興路４２７巷２弄２１號","OBJECTID":122839},"geometry":{"x":173252.11000000034,"y":2546771.0200000014}},{"attributes":{"ID":122840,"DIS_CODE":0,"TOWNNAME":"永康區","LI":"網寮里","LIN":"17鄰","STREET":"永興路","SECT":" ","MAREA":" ","LANE":"４２７巷","ALLEY":"２弄","HOUSE_NO":"１５號","E_COORD97":173249.64000000001,"N_COORD97":2546785.27,"ADDRESS":"永興路４２７巷２弄１５號","OBJECTID":122840},"geometry":{"x":173249.63999999966,"y":2546785.2700000033}},{"attributes":{"ID":122841,"DIS_CODE":0,"TOWNNAME":"永康區","LI":"復興里","LIN":"23鄰","STREET":"復興路","SECT":" ","MAREA":" ","LANE":"２４６巷","ALLEY":"２７弄","HOUSE_NO":"７號","E_COORD97":172381.04000000001,"N_COORD97":2544468.7799999998,"ADDRESS":"復興路２４６巷２７弄７號","OBJECTID":122841},"geometry":{"x":172381.04000000004,"y":2544468.7799999993}},{"attributes":{"ID":122842,"DIS_CODE":0,"TOWNNAME":"永康區","LI":"復興里","LIN":"18鄰","STREET":"復興路","SECT":" ","MAREA":" ","LANE":"３５６巷","ALLEY":"７１弄","HOUSE_NO":"１２號","E_COORD97":172313.5,"N_COORD97":2544514.27,"ADDRESS":"復興路３５６巷７１弄１２號","OBJECTID":122842},"geometry":{"x":172313.5,"y":2544514.2700000014}},{"attributes":{"ID":122843,"DIS_CODE":0,"TOWNNAME":"永康區","LI":"網寮里","LIN":"15鄰","STREET":"永和街","SECT":" ","MAREA":" ","LANE":"２６０巷","ALLEY":"２６弄","HOUSE_NO":"２號","E_COORD97":173447.98000000001,"N_COORD97":2546641.5,"ADDRESS":"永和街２６０巷２６弄２號","OBJECTID":122843},"geometry":{"x":173447.98000000045,"y":2546641.5000000037}},{"attributes":{"ID":122844,"DIS_CODE":0,"TOWNNAME":"永康區","LI":"網寮里","LIN":"15鄰","STREET":"永和街","SECT":" ","MAREA":" ","LANE":"２６０巷","ALLEY":"１２弄","HOUSE_NO":"９號","E_COORD97":173458.32000000001,"N_COORD97":2546606.4900000002,"ADDRESS":"永和街２６０巷１２弄９號","OBJECTID":122844},"geometry":{"x":173458.32000000123,"y":2546606.4900000002}},{"attributes":{"ID":122845,"DIS_CODE":0,"TOWNNAME":"佳里區","LI":"安西里","LIN":"16鄰","STREET":"文化路","SECT":" ","MAREA":" ","LANE":"３００巷","ALLEY":"９弄","HOUSE_NO":"１號","E_COORD97":165475.07000000001,"N_COORD97":2562672.8799999999,"ADDRESS":"文化路３００巷９弄１號","OBJECTID":122845},"geometry":{"x":165475.0700000003,"y":2562672.879999999}},{"attributes":{"ID":122846,"DIS_CODE":0,"TOWNNAME":"佳里區","LI":"安西里","LIN":"16鄰","STREET":"文化路","SECT":" ","MAREA":" ","LANE":"３００巷","ALLEY":"９弄","HOUSE_NO":"３號","E_COORD97":165470.47,"N_COORD97":2562672.9100000001,"ADDRESS":"文化路３００巷９弄３號","OBJECTID":122846},"geometry":{"x":165470.4700000016,"y":2562672.910000002}},{"attributes":{"ID":122847,"DIS_CODE":0,"TOWNNAME":"佳里區","LI":"安西里","LIN":"16鄰","STREET":"文化路","SECT":" ","MAREA":" ","LANE":"３００巷","ALLEY":"９弄","HOUSE_NO":"５號","E_COORD97":165466.26999999999,"N_COORD97":2562673.0800000001,"ADDRESS":"文化路３００巷９弄５號","OBJECTID":122847},"geometry":{"x":165466.26999999955,"y":2562673.0800000001}},{"attributes":{"ID":122848,"DIS_CODE":0,"TOWNNAME":"佳里區","LI":"安西里","LIN":"16鄰","STREET":"文化路","SECT":" ","MAREA":" ","LANE":"３００巷","ALLEY":"９弄","HOUSE_NO":"７號","E_COORD97":165462.32999999999,"N_COORD97":2562673.2599999998,"ADDRESS":"文化路３００巷９弄７號","OBJECTID":122848},"geometry":{"x":165462.33000000101,"y":2562673.2600000016}},{"attributes":{"ID":122849,"DIS_CODE":0,"TOWNNAME":"仁德區","LI":"仁德里","LIN":"39鄰","STREET":"文華路","SECT":"三段","MAREA":" ","LANE":" ","ALLEY":" ","HOUSE_NO":"５８５號","E_COORD97":172509.76000000001,"N_COORD97":2541770.5800000001,"ADDRESS":"文華路三段５８５號","OBJECTID":122849},"geometry":{"x":172509.75999999978,"y":2541770.5800000019}},{"attributes":{"ID":122850,"DIS_CODE":0,"TOWNNAME":"新市區","LI":"大營里","LIN":"13鄰","STREET":" ","SECT":" ","MAREA":"大營","LANE":" ","ALLEY":" ","HOUSE_NO":"２５１號","E_COORD97":179142.92999999999,"N_COORD97":2555558,"ADDRESS":"大營２５１號","OBJECTID":122850},"geometry":{"x":179142.93000000063,"y":2555558}},{"attributes":{"ID":122851,"DIS_CODE":0,"TOWNNAME":"新市區","LI":"大社里","LIN":"13鄰","STREET":" ","SECT":" ","MAREA":"大社","LANE":" ","ALLEY":" ","HOUSE_NO":"４１３號","E_COORD97":179988.76000000001,"N_COORD97":2554792.5,"ADDRESS":"大社４１３號","OBJECTID":122851},"geometry":{"x":179988.75999999978,"y":2554792.5000000019}},{"attributes":{"ID":122852,"DIS_CODE":0,"TOWNNAME":"新市區","LI":"大營里","LIN":"24鄰","STREET":" ","SECT":" ","MAREA":"大營","LANE":" ","ALLEY":" ","HOUSE_NO":"１３１之４５號","E_COORD97":179181.06,"N_COORD97":2554697.7999999998,"ADDRESS":"大營１３１之４５號","OBJECTID":122852},"geometry":{"x":179181.06000000052,"y":2554697.8000000007}},{"attributes":{"ID":122853,"DIS_CODE":0,"TOWNNAME":"新市區","LI":"大營里","LIN":"18鄰","STREET":" ","SECT":" ","MAREA":"豐榮","LANE":" ","ALLEY":" ","HOUSE_NO":"２６之４號","E_COORD97":178878.45000000001,"N_COORD97":2554452.2999999998,"ADDRESS":"豐榮２６之４號","OBJECTID":122853},"geometry":{"x":178878.45000000112,"y":2554452.3000000026}},{"attributes":{"ID":122854,"DIS_CODE":0,"TOWNNAME":"新市區","LI":"大社里","LIN":"20鄰","STREET":" ","SECT":" ","MAREA":"大社","LANE":" ","ALLEY":" ","HOUSE_NO":"７９０之１號","E_COORD97":179897.14999999999,"N_COORD97":2554194.7999999998,"ADDRESS":"大社７９０之１號","OBJECTID":122854},"geometry":{"x":179897.15000000037,"y":2554194.8000000026}},{"attributes":{"ID":122855,"DIS_CODE":0,"TOWNNAME":"永康區","LI":"網寮里","LIN":"20鄰","STREET":"大灣路","SECT":" ","MAREA":" ","LANE":"９４２巷","ALLEY":"３７１弄","HOUSE_NO":"１８０號","E_COORD97":173265.12,"N_COORD97":2545465.5,"ADDRESS":"大灣路９４２巷３７１弄１８０號","OBJECTID":122855},"geometry":{"x":173265.12000000011,"y":2545465.5000000019}},{"attributes":{"ID":122856,"DIS_CODE":0,"TOWNNAME":"永康區","LI":"網寮里","LIN":"15鄰","STREET":"永和街","SECT":" ","MAREA":" ","LANE":"２６０巷","ALLEY":"１２弄","HOUSE_NO":"１３號","E_COORD97":173467.19,"N_COORD97":2546602.7400000002,"ADDRESS":"永和街２６０巷１２弄１３號","OBJECTID":122856},"geometry":{"x":173467.19000000041,"y":2546602.7399999984}},{"attributes":{"ID":122857,"DIS_CODE":0,"TOWNNAME":"永康區","LI":"正強里","LIN":"16鄰","STREET":"自強路","SECT":" ","MAREA":" ","LANE":"１８８巷","ALLEY":"２弄","HOUSE_NO":"６號","E_COORD97":173170.23999999999,"N_COORD97":2547471.21,"ADDRESS":"自強路１８８巷２弄６號","OBJECTID":122857},"geometry":{"x":173170.23999999929,"y":2547471.2100000009}},{"attributes":{"ID":122858,"DIS_CODE":0,"TOWNNAME":"永康區","LI":"正強里","LIN":"16鄰","STREET":"自強路","SECT":" ","MAREA":" ","LANE":"１８８巷","ALLEY":"２弄","HOUSE_NO":"１１號","E_COORD97":173153.64000000001,"N_COORD97":2547456.27,"ADDRESS":"自強路１８８巷２弄１１號","OBJECTID":122858},"geometry":{"x":173153.6400000006,"y":2547456.2700000033}},{"attributes":{"ID":122859,"DIS_CODE":0,"TOWNNAME":"永康區","LI":"五王里","LIN":"16鄰","STREET":"成功路","SECT":" ","MAREA":" ","LANE":"１７２巷","ALLEY":"７６弄","HOUSE_NO":"１０號","E_COORD97":171603.70999999999,"N_COORD97":2545778.2599999998,"ADDRESS":"成功路１７２巷７６弄１０號","OBJECTID":122859},"geometry":{"x":171603.70999999996,"y":2545778.2599999979}},{"attributes":{"ID":122860,"DIS_CODE":0,"TOWNNAME":"永康區","LI":"復興里","LIN":"25鄰","STREET":"復興路","SECT":" ","MAREA":" ","LANE":"４２３巷","ALLEY":"９５弄","HOUSE_NO":"１號","E_COORD97":172222.94,"N_COORD97":2544154.5299999998,"ADDRESS":"復興路４２３巷９５弄１號","OBJECTID":122860},"geometry":{"x":172222.94000000041,"y":2544154.5299999993}},{"attributes":{"ID":122861,"DIS_CODE":0,"TOWNNAME":"新營區","LI":"新北里","LIN":"31鄰","STREET":"新北六街","SECT":" ","MAREA":" ","LANE":" ","ALLEY":" ","HOUSE_NO":"５３號","E_COORD97":178762.44,"N_COORD97":2579045.9700000002,"ADDRESS":"新北六街５３號","OBJECTID":122861},"geometry":{"x":178762.44000000134,"y":2579045.9700000025}},{"attributes":{"ID":122862,"DIS_CODE":0,"TOWNNAME":"柳營區","LI":"重溪里","LIN":"1鄰","STREET":" ","SECT":" ","MAREA":"小腳腿","LANE":" ","ALLEY":" ","HOUSE_NO":"９號","E_COORD97":185222.72,"N_COORD97":2576294.8500000001,"ADDRESS":"小腳腿９號","OBJECTID":122862},"geometry":{"x":185222.7200000016,"y":2576294.8500000015}},{"attributes":{"ID":122863,"DIS_CODE":0,"TOWNNAME":"新市區","LI":"大社里","LIN":"13鄰","STREET":" ","SECT":" ","MAREA":"大社","LANE":" ","ALLEY":" ","HOUSE_NO":"４１１號","E_COORD97":180040.54000000001,"N_COORD97":2554775.5,"ADDRESS":"大社４１１號","OBJECTID":122863},"geometry":{"x":180040.5400000019,"y":2554775.5000000019}},{"attributes":{"ID":122864,"DIS_CODE":0,"TOWNNAME":"新市區","LI":"大營里","LIN":"24鄰","STREET":" ","SECT":" ","MAREA":"大營","LANE":" ","ALLEY":" ","HOUSE_NO":"１３１之５９號","E_COORD97":179191.37,"N_COORD97":2554726.5499999998,"ADDRESS":"大營１３１之５９號","OBJECTID":122864},"geometry":{"x":179191.37000000104,"y":2554726.5500000007}},{"attributes":{"ID":122865,"DIS_CODE":0,"TOWNNAME":"新市區","LI":"三舍里","LIN":"4鄰","STREET":" ","SECT":" ","MAREA":"三舍","LANE":" ","ALLEY":" ","HOUSE_NO":"１０８之６號","E_COORD97":178027.10000000001,"N_COORD97":2554573.0499999998,"ADDRESS":"三舍１０８之６號","OBJECTID":122865},"geometry":{"x":178027.09999999963,"y":2554573.0500000026}},{"attributes":{"ID":122866,"DIS_CODE":0,"TOWNNAME":"新市區","LI":"三舍里","LIN":"4鄰","STREET":" ","SECT":" ","MAREA":"三舍","LANE":" ","ALLEY":" ","HOUSE_NO":"９８之１號","E_COORD97":178094.60000000001,"N_COORD97":2554580.2999999998,"ADDRESS":"三舍９８之１號","OBJECTID":122866},"geometry":{"x":178094.59999999963,"y":2554580.3000000007}},{"attributes":{"ID":122867,"DIS_CODE":0,"TOWNNAME":"新市區","LI":"三舍里","LIN":"4鄰","STREET":" ","SECT":" ","MAREA":"三舍","LANE":" ","ALLEY":" ","HOUSE_NO":"９６號","E_COORD97":178066.39999999999,"N_COORD97":2554465.75,"ADDRESS":"三舍９６號","OBJECTID":122867},"geometry":{"x":178066.40000000037,"y":2554465.7500000019}},{"attributes":{"ID":122868,"DIS_CODE":0,"TOWNNAME":"永康區","LI":"網寮里","LIN":"7鄰","STREET":"永二街","SECT":" ","MAREA":" ","LANE":"２４４巷","ALLEY":"４弄","HOUSE_NO":"１８號","E_COORD97":173305.42999999999,"N_COORD97":2546326.6400000001,"ADDRESS":"永二街２４４巷４弄１８號","OBJECTID":122868},"geometry":{"x":173305.4299999997,"y":2546326.6400000025}},{"attributes":{"ID":122869,"DIS_CODE":0,"TOWNNAME":"永康區","LI":"新樹里","LIN":"6鄰","STREET":"西勢路","SECT":" ","MAREA":" ","LANE":"１７４巷","ALLEY":"７弄","HOUSE_NO":"１號","E_COORD97":175882.31,"N_COORD97":2546828.6499999999,"ADDRESS":"西勢路１７４巷７弄１號","OBJECTID":122869},"geometry":{"x":175882.31000000052,"y":2546828.6500000022}},{"attributes":{"ID":122870,"DIS_CODE":0,"TOWNNAME":"永康區","LI":"網寮里","LIN":"8鄰","STREET":"永二街","SECT":" ","MAREA":" ","LANE":"２４４巷","ALLEY":"４弄","HOUSE_NO":"９號","E_COORD97":173285.60999999999,"N_COORD97":2546353.6400000001,"ADDRESS":"永二街２４４巷４弄９號","OBJECTID":122870},"geometry":{"x":173285.61000000127,"y":2546353.6400000025}},{"attributes":{"ID":122871,"DIS_CODE":0,"TOWNNAME":"六甲區","LI":"六甲里","LIN":"31鄰","STREET":"中正路","SECT":" ","MAREA":" ","LANE":"１８９巷","ALLEY":" ","HOUSE_NO":"２６號","E_COORD97":183389.28,"N_COORD97":2569142.8100000001,"ADDRESS":"中正路１８９巷２６號","OBJECTID":122871},"geometry":{"x":183389.28000000119,"y":2569142.8100000024}},{"attributes":{"ID":122872,"DIS_CODE":0,"TOWNNAME":"新市區","LI":"大社里","LIN":"13鄰","STREET":" ","SECT":" ","MAREA":"大社","LANE":" ","ALLEY":" ","HOUSE_NO":"４１９號","E_COORD97":179951.23000000001,"N_COORD97":2554759.5,"ADDRESS":"大社４１９號","OBJECTID":122872},"geometry":{"x":179951.23000000045,"y":2554759.5000000019}},{"attributes":{"ID":122873,"DIS_CODE":0,"TOWNNAME":"新市區","LI":"三舍里","LIN":"4鄰","STREET":" ","SECT":" ","MAREA":"三舍","LANE":" ","ALLEY":" ","HOUSE_NO":"８９號","E_COORD97":178072.14999999999,"N_COORD97":2554414.75,"ADDRESS":"三舍８９號","OBJECTID":122873},"geometry":{"x":178072.1500000013,"y":2554414.7500000019}},{"attributes":{"ID":122874,"DIS_CODE":0,"TOWNNAME":"新市區","LI":"大社里","LIN":"5鄰","STREET":" ","SECT":" ","MAREA":"大社","LANE":" ","ALLEY":" ","HOUSE_NO":"１９０之１２號","E_COORD97":180207.38,"N_COORD97":2554334.2999999998,"ADDRESS":"大社１９０之１２號","OBJECTID":122874},"geometry":{"x":180207.37999999896,"y":2554334.3000000026}},{"attributes":{"ID":122875,"DIS_CODE":0,"TOWNNAME":"新市區","LI":"大社里","LIN":"20鄰","STREET":" ","SECT":" ","MAREA":"大社","LANE":" ","ALLEY":" ","HOUSE_NO":"７９０之４號","E_COORD97":179893.92999999999,"N_COORD97":2554206.2999999998,"ADDRESS":"大社７９０之４號","OBJECTID":122875},"geometry":{"x":179893.93000000063,"y":2554206.3000000007}},{"attributes":{"ID":122876,"DIS_CODE":0,"TOWNNAME":"新市區","LI":"大社里","LIN":"13鄰","STREET":" ","SECT":" ","MAREA":"大社","LANE":" ","ALLEY":" ","HOUSE_NO":"４３４號","E_COORD97":179929.51000000001,"N_COORD97":2554807.5,"ADDRESS":"大社４３４號","OBJECTID":122876},"geometry":{"x":179929.50999999978,"y":2554807.5}},{"attributes":{"ID":122877,"DIS_CODE":0,"TOWNNAME":"新市區","LI":"大營里","LIN":"24鄰","STREET":" ","SECT":" ","MAREA":"大營","LANE":" ","ALLEY":" ","HOUSE_NO":"１３１之３４號","E_COORD97":179213.06,"N_COORD97":2554731.0499999998,"ADDRESS":"大營１３１之３４號","OBJECTID":122877},"geometry":{"x":179213.06000000052,"y":2554731.0500000007}},{"attributes":{"ID":122878,"DIS_CODE":0,"TOWNNAME":"新市區","LI":"大營里","LIN":"24鄰","STREET":" ","SECT":" ","MAREA":"大營","LANE":" ","ALLEY":" ","HOUSE_NO":"１３１之１７號","E_COORD97":179206.48999999999,"N_COORD97":2554683.7999999998,"ADDRESS":"大營１３１之１７號","OBJECTID":122878},"geometry":{"x":179206.49000000022,"y":2554683.8000000026}},{"attributes":{"ID":122879,"DIS_CODE":0,"TOWNNAME":"東區","LI":"仁和里","LIN":"24鄰","STREET":"利東街","SECT":" ","MAREA":" ","LANE":" ","ALLEY":" ","HOUSE_NO":"３０號四樓之１","E_COORD97":171633.89000000001,"N_COORD97":2541106.0499999998,"ADDRESS":"利東街３０號四樓之１","OBJECTID":122879},"geometry":{"x":171633.88999999966,"y":2541106.0500000026}},{"attributes":{"ID":122880,"DIS_CODE":0,"TOWNNAME":"東區","LI":"仁和里","LIN":"24鄰","STREET":"利東街","SECT":" ","MAREA":" ","LANE":" ","ALLEY":" ","HOUSE_NO":"３０號四樓之２","E_COORD97":171633.89000000001,"N_COORD97":2541106.0499999998,"ADDRESS":"利東街３０號四樓之２","OBJECTID":122880},"geometry":{"x":171633.88999999966,"y":2541106.0500000026}},{"attributes":{"ID":122881,"DIS_CODE":0,"TOWNNAME":"東區","LI":"仁和里","LIN":"24鄰","STREET":"利東街","SECT":" ","MAREA":" ","LANE":" ","ALLEY":" ","HOUSE_NO":"３２號七樓之１","E_COORD97":171625.01999999999,"N_COORD97":2541123.98,"ADDRESS":"利東街３２號七樓之１","OBJECTID":122881},"geometry":{"x":171625.01999999862,"y":2541123.9800000023}},{"attributes":{"ID":122882,"DIS_CODE":0,"TOWNNAME":"東區","LI":"仁和里","LIN":"24鄰","STREET":"利東街","SECT":" ","MAREA":" ","LANE":" ","ALLEY":" ","HOUSE_NO":"３２號七樓之２","E_COORD97":171625.01999999999,"N_COORD97":2541123.98,"ADDRESS":"利東街３２號七樓之２","OBJECTID":122882},"geometry":{"x":171625.01999999862,"y":2541123.9800000023}},{"attributes":{"ID":122883,"DIS_CODE":0,"TOWNNAME":"東區","LI":"仁和里","LIN":"24鄰","STREET":"利東街","SECT":" ","MAREA":" ","LANE":" ","ALLEY":" ","HOUSE_NO":"３２號七樓之３","E_COORD97":171625.01999999999,"N_COORD97":2541123.98,"ADDRESS":"利東街３２號七樓之３","OBJECTID":122883},"geometry":{"x":171625.01999999862,"y":2541123.9800000023}},{"attributes":{"ID":122884,"DIS_CODE":0,"TOWNNAME":"東區","LI":"仁和里","LIN":"24鄰","STREET":"利東街","SECT":" ","MAREA":" ","LANE":" ","ALLEY":" ","HOUSE_NO":"３２號二樓","E_COORD97":171625.01999999999,"N_COORD97":2541123.98,"ADDRESS":"利東街３２號二樓","OBJECTID":122884},"geometry":{"x":171625.01999999862,"y":2541123.9800000023}},{"attributes":{"ID":122885,"DIS_CODE":0,"TOWNNAME":"東區","LI":"仁和里","LIN":"24鄰","STREET":"利東街","SECT":" ","MAREA":" ","LANE":" ","ALLEY":" ","HOUSE_NO":"３２號二樓之１","E_COORD97":171625.01999999999,"N_COORD97":2541123.98,"ADDRESS":"利東街３２號二樓之１","OBJECTID":122885},"geometry":{"x":171625.01999999862,"y":2541123.9800000023}},{"attributes":{"ID":122886,"DIS_CODE":0,"TOWNNAME":"永康區","LI":"復興里","LIN":"30鄰","STREET":"復興路","SECT":" ","MAREA":" ","LANE":"３５６巷","ALLEY":"８０弄","HOUSE_NO":"１４３號","E_COORD97":172558.76000000001,"N_COORD97":2544628.02,"ADDRESS":"復興路３５６巷８０弄１４３號","OBJECTID":122886},"geometry":{"x":172558.75999999978,"y":2544628.0200000014}},{"attributes":{"ID":122887,"DIS_CODE":0,"TOWNNAME":"新市區","LI":"大營里","LIN":"4鄰","STREET":" ","SECT":" ","MAREA":"大營","LANE":" ","ALLEY":" ","HOUSE_NO":"５５之７號","E_COORD97":179610.54000000001,"N_COORD97":2555545.2999999998,"ADDRESS":"大營５５之７號","OBJECTID":122887},"geometry":{"x":179610.54000000097,"y":2555545.3000000007}},{"attributes":{"ID":122888,"DIS_CODE":0,"TOWNNAME":"永康區","LI":"龍潭里","LIN":"36鄰","STREET":"中山北路","SECT":" ","MAREA":" ","LANE":"１６４巷","ALLEY":"１５８弄","HOUSE_NO":"２３號","E_COORD97":174650.85999999999,"N_COORD97":2547323.4900000002,"ADDRESS":"中山北路１６４巷１５８弄２３號","OBJECTID":122888},"geometry":{"x":174650.86000000034,"y":2547323.4900000039}},{"attributes":{"ID":122889,"DIS_CODE":0,"TOWNNAME":"新市區","LI":"三舍里","LIN":"4鄰","STREET":" ","SECT":" ","MAREA":"三舍","LANE":" ","ALLEY":" ","HOUSE_NO":"１０２之１２號","E_COORD97":178106.32000000001,"N_COORD97":2554685.5499999998,"ADDRESS":"三舍１０２之１２號","OBJECTID":122889},"geometry":{"x":178106.32000000216,"y":2554685.5500000026}},{"attributes":{"ID":122890,"DIS_CODE":0,"TOWNNAME":"新市區","LI":"三舍里","LIN":"5鄰","STREET":" ","SECT":" ","MAREA":"三舍","LANE":" ","ALLEY":" ","HOUSE_NO":"１２５號","E_COORD97":177854.98000000001,"N_COORD97":2554588,"ADDRESS":"三舍１２５號","OBJECTID":122890},"geometry":{"x":177854.98000000138,"y":2554588}},{"attributes":{"ID":122891,"DIS_CODE":0,"TOWNNAME":"永康區","LI":"網寮里","LIN":"20鄰","STREET":"永二街","SECT":" ","MAREA":" ","LANE":"２４５巷","ALLEY":"２６弄","HOUSE_NO":"３１號","E_COORD97":173232.26999999999,"N_COORD97":2546150.79,"ADDRESS":"永二街２４５巷２６弄３１號","OBJECTID":122891},"geometry":{"x":173232.27000000142,"y":2546150.790000001}},{"attributes":{"ID":122892,"DIS_CODE":0,"TOWNNAME":"永康區","LI":"網寮里","LIN":"20鄰","STREET":"永二街","SECT":" ","MAREA":" ","LANE":"２４５巷","ALLEY":"２５弄","HOUSE_NO":"７之２號","E_COORD97":173343.82000000001,"N_COORD97":2546162.7200000002,"ADDRESS":"永二街２４５巷２５弄７之２號","OBJECTID":122892},"geometry":{"x":173343.8200000003,"y":2546162.7200000044}},{"attributes":{"ID":122893,"DIS_CODE":0,"TOWNNAME":"永康區","LI":"龍潭里","LIN":"23鄰","STREET":"自強路","SECT":" ","MAREA":" ","LANE":"７５０巷","ALLEY":"６８弄","HOUSE_NO":"５５號","E_COORD97":174584.54999999999,"N_COORD97":2548362.6200000001,"ADDRESS":"自強路７５０巷６８弄５５號","OBJECTID":122893},"geometry":{"x":174584.54999999981,"y":2548362.620000001}},{"attributes":{"ID":122894,"DIS_CODE":0,"TOWNNAME":"新市區","LI":"三舍里","LIN":"5鄰","STREET":" ","SECT":" ","MAREA":"三舍","LANE":" ","ALLEY":" ","HOUSE_NO":"１１４號","E_COORD97":177993.29000000001,"N_COORD97":2554610.25,"ADDRESS":"三舍１１４號","OBJECTID":122894},"geometry":{"x":177993.29000000097,"y":2554610.25}},{"attributes":{"ID":122895,"DIS_CODE":0,"TOWNNAME":"永康區","LI":"龍潭里","LIN":"39鄰","STREET":"中山北路","SECT":" ","MAREA":" ","LANE":"１６４巷","ALLEY":"１３８弄","HOUSE_NO":"３號","E_COORD97":174617.62,"N_COORD97":2547400.0899999999,"ADDRESS":"中山北路１６４巷１３８弄３號","OBJECTID":122895},"geometry":{"x":174617.62000000104,"y":2547400.089999998}},{"attributes":{"ID":122896,"DIS_CODE":0,"TOWNNAME":"新市區","LI":"大社里","LIN":"20鄰","STREET":" ","SECT":" ","MAREA":"大社","LANE":" ","ALLEY":" ","HOUSE_NO":"７９７號","E_COORD97":179877.45999999999,"N_COORD97":2554188,"ADDRESS":"大社７９７號","OBJECTID":122896},"geometry":{"x":179877.45999999996,"y":2554188}},{"attributes":{"ID":122897,"DIS_CODE":0,"TOWNNAME":"永康區","LI":"復華里","LIN":"35鄰","STREET":"復華七街","SECT":" ","MAREA":" ","LANE":"３９巷","ALLEY":"４弄","HOUSE_NO":"１０號","E_COORD97":172638.14999999999,"N_COORD97":2546050.7799999998,"ADDRESS":"復華七街３９巷４弄１０號","OBJECTID":122897},"geometry":{"x":172638.15000000037,"y":2546050.7800000012}},{"attributes":{"ID":122898,"DIS_CODE":0,"TOWNNAME":"新市區","LI":"大社里","LIN":"13鄰","STREET":" ","SECT":" ","MAREA":"大社","LANE":" ","ALLEY":" ","HOUSE_NO":"４２６號","E_COORD97":179957.32000000001,"N_COORD97":2554834.25,"ADDRESS":"大社４２６號","OBJECTID":122898},"geometry":{"x":179957.31999999937,"y":2554834.2499999981}},{"attributes":{"ID":122899,"DIS_CODE":0,"TOWNNAME":"新市區","LI":"大營里","LIN":"24鄰","STREET":" ","SECT":" ","MAREA":"大營","LANE":" ","ALLEY":" ","HOUSE_NO":"１３１之５號","E_COORD97":179251.98000000001,"N_COORD97":2554733.2999999998,"ADDRESS":"大營１３１之５號","OBJECTID":122899},"geometry":{"x":179251.98000000138,"y":2554733.3000000045}},{"attributes":{"ID":122900,"DIS_CODE":0,"TOWNNAME":"新市區","LI":"大營里","LIN":"14鄰","STREET":" ","SECT":" ","MAREA":"大營","LANE":" ","ALLEY":" ","HOUSE_NO":"２６５之４號","E_COORD97":179269.17999999999,"N_COORD97":2555554.2999999998,"ADDRESS":"大營２６５之４號","OBJECTID":122900},"geometry":{"x":179269.1799999997,"y":2555554.3000000026}},{"attributes":{"ID":122901,"DIS_CODE":0,"TOWNNAME":"新市區","LI":"大社里","LIN":"14鄰","STREET":" ","SECT":" ","MAREA":"大社","LANE":" ","ALLEY":" ","HOUSE_NO":"５５６號","E_COORD97":179994.45999999999,"N_COORD97":2554583.5,"ADDRESS":"大社５５６號","OBJECTID":122901},"geometry":{"x":179994.45999999996,"y":2554583.5000000019}},{"attributes":{"ID":122902,"DIS_CODE":0,"TOWNNAME":"新市區","LI":"大營里","LIN":"4鄰","STREET":" ","SECT":" ","MAREA":"大營","LANE":" ","ALLEY":" ","HOUSE_NO":"５２之１號","E_COORD97":179668.45000000001,"N_COORD97":2555527.0499999998,"ADDRESS":"大營５２之１號","OBJECTID":122902},"geometry":{"x":179668.45000000112,"y":2555527.0500000007}},{"attributes":{"ID":122903,"DIS_CODE":0,"TOWNNAME":"新市區","LI":"三舍里","LIN":"4鄰","STREET":" ","SECT":" ","MAREA":"三舍","LANE":" ","ALLEY":" ","HOUSE_NO":"１０８之１６號","E_COORD97":178049.39999999999,"N_COORD97":2554585.7999999998,"ADDRESS":"三舍１０８之１６號","OBJECTID":122903},"geometry":{"x":178049.40000000037,"y":2554585.8000000007}},{"attributes":{"ID":122904,"DIS_CODE":0,"TOWNNAME":"新市區","LI":"大營里","LIN":"4鄰","STREET":" ","SECT":" ","MAREA":"大營","LANE":" ","ALLEY":" ","HOUSE_NO":"５５之８號","E_COORD97":179609.37,"N_COORD97":2555549.7999999998,"ADDRESS":"大營５５之８號","OBJECTID":122904},"geometry":{"x":179609.37000000197,"y":2555549.8000000007}},{"attributes":{"ID":122905,"DIS_CODE":0,"TOWNNAME":"新市區","LI":"大營里","LIN":"24鄰","STREET":" ","SECT":" ","MAREA":"大營","LANE":" ","ALLEY":" ","HOUSE_NO":"１３１之４０號","E_COORD97":179193.85000000001,"N_COORD97":2554711.2999999998,"ADDRESS":"大營１３１之４０號","OBJECTID":122905},"geometry":{"x":179193.85000000056,"y":2554711.3000000007}},{"attributes":{"ID":122906,"DIS_CODE":0,"TOWNNAME":"新市區","LI":"三舍里","LIN":"4鄰","STREET":" ","SECT":" ","MAREA":"三舍","LANE":" ","ALLEY":" ","HOUSE_NO":"１０３之８號","E_COORD97":178091.62,"N_COORD97":2554655.2999999998,"ADDRESS":"三舍１０３之８號","OBJECTID":122906},"geometry":{"x":178091.62000000011,"y":2554655.3000000045}},{"attributes":{"ID":122907,"DIS_CODE":0,"TOWNNAME":"新市區","LI":"三舍里","LIN":"4鄰","STREET":" ","SECT":" ","MAREA":"三舍","LANE":" ","ALLEY":" ","HOUSE_NO":"１０８之９號","E_COORD97":178025.89999999999,"N_COORD97":2554586.5499999998,"ADDRESS":"三舍１０８之９號","OBJECTID":122907},"geometry":{"x":178025.90000000037,"y":2554586.5500000026}},{"attributes":{"ID":122908,"DIS_CODE":0,"TOWNNAME":"新市區","LI":"大社里","LIN":"4鄰","STREET":" ","SECT":" ","MAREA":"大社","LANE":" ","ALLEY":" ","HOUSE_NO":"２１８號","E_COORD97":180139.17000000001,"N_COORD97":2554432.5,"ADDRESS":"大社２１８號","OBJECTID":122908},"geometry":{"x":180139.16999999993,"y":2554432.4999999981}},{"attributes":{"ID":122909,"DIS_CODE":0,"TOWNNAME":"安南區","LI":"佃東里","LIN":"16鄰","STREET":"海佃路","SECT":"四段","MAREA":" ","LANE":"３８８巷","ALLEY":"１３４弄","HOUSE_NO":"１８５號","E_COORD97":165996.25,"N_COORD97":2551672.21,"ADDRESS":"海佃路四段３８８巷１３４弄１８５號","OBJECTID":122909},"geometry":{"x":165996.25000000093,"y":2551672.209999999}},{"attributes":{"ID":122910,"DIS_CODE":0,"TOWNNAME":"安南區","LI":"佃東里","LIN":"16鄰","STREET":"海佃路","SECT":"四段","MAREA":" ","LANE":"３８８巷","ALLEY":"１３４弄","HOUSE_NO":"１１６號","E_COORD97":165871.75,"N_COORD97":2551689.1400000001,"ADDRESS":"海佃路四段３８８巷１３４弄１１６號","OBJECTID":122910},"geometry":{"x":165871.75,"y":2551689.1400000006}},{"attributes":{"ID":122911,"DIS_CODE":0,"TOWNNAME":"新市區","LI":"三舍里","LIN":"4鄰","STREET":" ","SECT":" ","MAREA":"三舍","LANE":" ","ALLEY":" ","HOUSE_NO":"１０４之２０號","E_COORD97":178108.04000000001,"N_COORD97":2554708.7999999998,"ADDRESS":"三舍１０４之２０號","OBJECTID":122911},"geometry":{"x":178108.04000000097,"y":2554708.8000000007}},{"attributes":{"ID":122912,"DIS_CODE":0,"TOWNNAME":"永康區","LI":"網寮里","LIN":"16鄰","STREET":"永二街","SECT":" ","MAREA":" ","LANE":"２４４巷","ALLEY":"６４弄","HOUSE_NO":"９號","E_COORD97":173279.69,"N_COORD97":2546749.6000000001,"ADDRESS":"永二街２４４巷６４弄９號","OBJECTID":122912},"geometry":{"x":173279.69000000134,"y":2546749.6000000015}},{"attributes":{"ID":122913,"DIS_CODE":0,"TOWNNAME":"新市區","LI":"三舍里","LIN":"5鄰","STREET":" ","SECT":" ","MAREA":"三舍","LANE":" ","ALLEY":" ","HOUSE_NO":"１３１號","E_COORD97":177901.79000000001,"N_COORD97":2554536.75,"ADDRESS":"三舍１３１號","OBJECTID":122913},"geometry":{"x":177901.79000000097,"y":2554536.7500000019}},{"attributes":{"ID":122914,"DIS_CODE":0,"TOWNNAME":"新市區","LI":"大營里","LIN":"18鄰","STREET":" ","SECT":" ","MAREA":"豐榮","LANE":" ","ALLEY":" ","HOUSE_NO":"１７之１號","E_COORD97":178948.64999999999,"N_COORD97":2554395.7999999998,"ADDRESS":"豐榮１７之１號","OBJECTID":122914},"geometry":{"x":178948.6500000013,"y":2554395.8000000026}},{"attributes":{"ID":122915,"DIS_CODE":0,"TOWNNAME":"新市區","LI":"大營里","LIN":"18鄰","STREET":" ","SECT":" ","MAREA":"豐榮","LANE":" ","ALLEY":" ","HOUSE_NO":"１０號","E_COORD97":178980.04000000001,"N_COORD97":2554444.75,"ADDRESS":"豐榮１０號","OBJECTID":122915},"geometry":{"x":178980.04000000097,"y":2554444.7500000037}},{"attributes":{"ID":122916,"DIS_CODE":0,"TOWNNAME":"新市區","LI":"大社里","LIN":"13鄰","STREET":" ","SECT":" ","MAREA":"大社","LANE":" ","ALLEY":" ","HOUSE_NO":"４３２號","E_COORD97":179932.14999999999,"N_COORD97":2554799.25,"ADDRESS":"大社４３２號","OBJECTID":122916},"geometry":{"x":179932.1500000013,"y":2554799.25}},{"attributes":{"ID":122917,"DIS_CODE":0,"TOWNNAME":"新市區","LI":"三舍里","LIN":"4鄰","STREET":" ","SECT":" ","MAREA":"三舍","LANE":" ","ALLEY":" ","HOUSE_NO":"１０８號","E_COORD97":178027.79000000001,"N_COORD97":2554556.25,"ADDRESS":"三舍１０８號","OBJECTID":122917},"geometry":{"x":178027.79000000004,"y":2554556.2499999981}},{"attributes":{"ID":122918,"DIS_CODE":0,"TOWNNAME":"玉井區","LI":"玉田里","LIN":"31鄰","STREET":"民生路","SECT":" ","MAREA":" ","LANE":" ","ALLEY":" ","HOUSE_NO":"２５５號","E_COORD97":195174.57999999999,"N_COORD97":2558216.29,"ADDRESS":"民生路２５５號","OBJECTID":122918},"geometry":{"x":195174.58000000007,"y":2558216.2899999991}},{"attributes":{"ID":122919,"DIS_CODE":0,"TOWNNAME":"玉井區","LI":"玉田里","LIN":"31鄰","STREET":"中山路","SECT":" ","MAREA":" ","LANE":" ","ALLEY":" ","HOUSE_NO":"２７３號","E_COORD97":195283.85000000001,"N_COORD97":2558199.2400000002,"ADDRESS":"中山路２７３號","OBJECTID":122919},"geometry":{"x":195283.84999999963,"y":2558199.2400000021}},{"attributes":{"ID":122920,"DIS_CODE":0,"TOWNNAME":"玉井區","LI":"玉田里","LIN":"31鄰","STREET":"中山路","SECT":" ","MAREA":" ","LANE":" ","ALLEY":" ","HOUSE_NO":"２３７號","E_COORD97":195282.75,"N_COORD97":2558123.25,"ADDRESS":"中山路２３７號","OBJECTID":122920},"geometry":{"x":195282.75000000093,"y":2558123.2500000037}},{"attributes":{"ID":122921,"DIS_CODE":0,"TOWNNAME":"玉井區","LI":"玉田里","LIN":"31鄰","STREET":"民族路","SECT":" ","MAREA":" ","LANE":" ","ALLEY":" ","HOUSE_NO":"１０５號","E_COORD97":195251.79000000001,"N_COORD97":2558101.2799999998,"ADDRESS":"民族路１０５號","OBJECTID":122921},"geometry":{"x":195251.79000000097,"y":2558101.2799999993}},{"attributes":{"ID":122922,"DIS_CODE":0,"TOWNNAME":"新市區","LI":"港墘里","LIN":"16鄰","STREET":"長安街","SECT":" ","MAREA":" ","LANE":"３６巷","ALLEY":"９弄","HOUSE_NO":"７號","E_COORD97":178261.42000000001,"N_COORD97":2552702.8199999998,"ADDRESS":"長安街３６巷９弄７號","OBJECTID":122922},"geometry":{"x":178261.42000000086,"y":2552702.8200000022}},{"attributes":{"ID":122923,"DIS_CODE":0,"TOWNNAME":"玉井區","LI":"玉田里","LIN":"31鄰","STREET":"中山路","SECT":" ","MAREA":" ","LANE":" ","ALLEY":" ","HOUSE_NO":"２７１號","E_COORD97":195283.95999999999,"N_COORD97":2558195.2400000002,"ADDRESS":"中山路２７１號","OBJECTID":122923},"geometry":{"x":195283.96000000183,"y":2558195.2400000021}},{"attributes":{"ID":122924,"DIS_CODE":0,"TOWNNAME":"新市區","LI":"港墘里","LIN":"16鄰","STREET":"長安街","SECT":" ","MAREA":" ","LANE":"３６巷","ALLEY":"９弄","HOUSE_NO":"３號","E_COORD97":178269.51000000001,"N_COORD97":2552703.8199999998,"ADDRESS":"長安街３６巷９弄３號","OBJECTID":122924},"geometry":{"x":178269.51000000071,"y":2552703.8200000003}},{"attributes":{"ID":122925,"DIS_CODE":0,"TOWNNAME":"新市區","LI":"港墘里","LIN":"16鄰","STREET":"長安街","SECT":" ","MAREA":" ","LANE":"３６巷","ALLEY":"９弄","HOUSE_NO":"１２號","E_COORD97":178253.12,"N_COORD97":2552715.0699999998,"ADDRESS":"長安街３６巷９弄１２號","OBJECTID":122925},"geometry":{"x":178253.11999999918,"y":2552715.0700000022}},{"attributes":{"ID":122926,"DIS_CODE":0,"TOWNNAME":"新市區","LI":"大社里","LIN":"5鄰","STREET":" ","SECT":" ","MAREA":"大社","LANE":" ","ALLEY":" ","HOUSE_NO":"２２１號","E_COORD97":180111.14999999999,"N_COORD97":2554404.75,"ADDRESS":"大社２２１號","OBJECTID":122926},"geometry":{"x":180111.15000000224,"y":2554404.7500000019}},{"attributes":{"ID":122927,"DIS_CODE":0,"TOWNNAME":"玉井區","LI":"玉田里","LIN":"31鄰","STREET":"中山路","SECT":" ","MAREA":" ","LANE":" ","ALLEY":" ","HOUSE_NO":"２３５號","E_COORD97":195282.85000000001,"N_COORD97":2558118.25,"ADDRESS":"中山路２３５號","OBJECTID":122927},"geometry":{"x":195282.85000000056,"y":2558118.25}},{"attributes":{"ID":122928,"DIS_CODE":0,"TOWNNAME":"新市區","LI":"大營里","LIN":"5鄰","STREET":" ","SECT":" ","MAREA":"大營","LANE":" ","ALLEY":" ","HOUSE_NO":"７８之２５號","E_COORD97":179632.48999999999,"N_COORD97":2555451.5499999998,"ADDRESS":"大營７８之２５號","OBJECTID":122928},"geometry":{"x":179632.49000000209,"y":2555451.5500000026}},{"attributes":{"ID":122929,"DIS_CODE":0,"TOWNNAME":"新市區","LI":"大營里","LIN":"18鄰","STREET":" ","SECT":" ","MAREA":"豐榮","LANE":" ","ALLEY":" ","HOUSE_NO":"１６之１號","E_COORD97":178930.54000000001,"N_COORD97":2554458.7999999998,"ADDRESS":"豐榮１６之１號","OBJECTID":122929},"geometry":{"x":178930.54000000097,"y":2554458.8000000045}},{"attributes":{"ID":122930,"DIS_CODE":0,"TOWNNAME":"新市區","LI":"大社里","LIN":"18鄰","STREET":" ","SECT":" ","MAREA":"大社","LANE":" ","ALLEY":" ","HOUSE_NO":"７６３之７號","E_COORD97":179975.60000000001,"N_COORD97":2554200.7999999998,"ADDRESS":"大社７６３之７號","OBJECTID":122930},"geometry":{"x":179975.60000000056,"y":2554200.8000000045}},{"attributes":{"ID":122931,"DIS_CODE":0,"TOWNNAME":"新市區","LI":"大營里","LIN":"24鄰","STREET":" ","SECT":" ","MAREA":"大營","LANE":" ","ALLEY":" ","HOUSE_NO":"１３１之５５號","E_COORD97":179204.60000000001,"N_COORD97":2554740.0499999998,"ADDRESS":"大營１３１之５５號","OBJECTID":122931},"geometry":{"x":179204.60000000056,"y":2554740.0500000007}},{"attributes":{"ID":122932,"DIS_CODE":0,"TOWNNAME":"新市區","LI":"大社里","LIN":"24鄰","STREET":" ","SECT":" ","MAREA":"大社","LANE":" ","ALLEY":" ","HOUSE_NO":"８７６號之２","E_COORD97":179546.28,"N_COORD97":2554074.2999999998,"ADDRESS":"大社８７６號之２","OBJECTID":122932},"geometry":{"x":179546.28000000119,"y":2554074.3000000007}},{"attributes":{"ID":122933,"DIS_CODE":0,"TOWNNAME":"新市區","LI":"大社里","LIN":"14鄰","STREET":" ","SECT":" ","MAREA":"大社","LANE":" ","ALLEY":" ","HOUSE_NO":"５３０之２９號","E_COORD97":179886.88,"N_COORD97":2554723.0499999998,"ADDRESS":"大社５３０之２９號","OBJECTID":122933},"geometry":{"x":179886.87999999989,"y":2554723.0500000007}},{"attributes":{"ID":122934,"DIS_CODE":0,"TOWNNAME":"新市區","LI":"大社里","LIN":"18鄰","STREET":" ","SECT":" ","MAREA":"大社","LANE":" ","ALLEY":" ","HOUSE_NO":"７５６號","E_COORD97":180043.60000000001,"N_COORD97":2554204.25,"ADDRESS":"大社７５６號","OBJECTID":122934},"geometry":{"x":180043.60000000056,"y":2554204.2500000019}},{"attributes":{"ID":122935,"DIS_CODE":0,"TOWNNAME":"新市區","LI":"大社里","LIN":"18鄰","STREET":" ","SECT":" ","MAREA":"大社","LANE":" ","ALLEY":" ","HOUSE_NO":"７６３之１號","E_COORD97":179981.57000000001,"N_COORD97":2554183.0499999998,"ADDRESS":"大社７６３之１號","OBJECTID":122935},"geometry":{"x":179981.57000000123,"y":2554183.0500000026}},{"attributes":{"ID":122936,"DIS_CODE":0,"TOWNNAME":"新市區","LI":"港墘里","LIN":"16鄰","STREET":"長安街","SECT":" ","MAREA":" ","LANE":"３６巷","ALLEY":"９弄","HOUSE_NO":"１號","E_COORD97":178273.62,"N_COORD97":2552704.3199999998,"ADDRESS":"長安街３６巷９弄１號","OBJECTID":122936},"geometry":{"x":178273.62000000197,"y":2552704.3200000003}},{"attributes":{"ID":122937,"DIS_CODE":0,"TOWNNAME":"新市區","LI":"大社里","LIN":"20鄰","STREET":" ","SECT":" ","MAREA":"大社","LANE":" ","ALLEY":" ","HOUSE_NO":"７８８號","E_COORD97":179888.45999999999,"N_COORD97":2554144,"ADDRESS":"大社７８８號","OBJECTID":122937},"geometry":{"x":179888.46000000089,"y":2554144}},{"attributes":{"ID":122938,"DIS_CODE":0,"TOWNNAME":"新市區","LI":"港墘里","LIN":"16鄰","STREET":"長安街","SECT":" ","MAREA":" ","LANE":"３６巷","ALLEY":"９弄","HOUSE_NO":"１５號","E_COORD97":178239.12,"N_COORD97":2552699.8199999998,"ADDRESS":"長安街３６巷９弄１５號","OBJECTID":122938},"geometry":{"x":178239.12000000011,"y":2552699.8200000022}},{"attributes":{"ID":122939,"DIS_CODE":0,"TOWNNAME":"玉井區","LI":"玉田里","LIN":"31鄰","STREET":"中山路","SECT":" ","MAREA":" ","LANE":" ","ALLEY":" ","HOUSE_NO":"２３９號","E_COORD97":195283.45999999999,"N_COORD97":2558126.25,"ADDRESS":"中山路２３９號","OBJECTID":122939},"geometry":{"x":195283.45999999996,"y":2558126.25}},{"attributes":{"ID":122940,"DIS_CODE":0,"TOWNNAME":"玉井區","LI":"玉田里","LIN":"31鄰","STREET":"中山路","SECT":" ","MAREA":" ","LANE":" ","ALLEY":" ","HOUSE_NO":"２７５號","E_COORD97":195284.14999999999,"N_COORD97":2558205.2400000002,"ADDRESS":"中山路２７５號","OBJECTID":122940},"geometry":{"x":195284.15000000037,"y":2558205.2400000021}},{"attributes":{"ID":122941,"DIS_CODE":0,"TOWNNAME":"新市區","LI":"大營里","LIN":"24鄰","STREET":" ","SECT":" ","MAREA":"大營","LANE":" ","ALLEY":" ","HOUSE_NO":"１３１之２１號","E_COORD97":179194.45000000001,"N_COORD97":2554671.04,"ADDRESS":"大營１３１之２１號","OBJECTID":122941},"geometry":{"x":179194.45000000019,"y":2554671.0399999991}},{"attributes":{"ID":122942,"DIS_CODE":0,"TOWNNAME":"新市區","LI":"港墘里","LIN":"16鄰","STREET":"長安街","SECT":" ","MAREA":" ","LANE":"３６巷","ALLEY":"９弄","HOUSE_NO":"２號","E_COORD97":178271.76000000001,"N_COORD97":2552717.8199999998,"ADDRESS":"長安街３６巷９弄２號","OBJECTID":122942},"geometry":{"x":178271.75999999978,"y":2552717.8200000003}},{"attributes":{"ID":122943,"DIS_CODE":0,"TOWNNAME":"新市區","LI":"大社里","LIN":"14鄰","STREET":" ","SECT":" ","MAREA":"大社","LANE":" ","ALLEY":" ","HOUSE_NO":"５５８號","E_COORD97":179996.39999999999,"N_COORD97":2554573.25,"ADDRESS":"大社５５８號","OBJECTID":122943},"geometry":{"x":179996.4000000013,"y":2554573.2499999981}},{"attributes":{"ID":122944,"DIS_CODE":0,"TOWNNAME":"新市區","LI":"大社里","LIN":"8鄰","STREET":" ","SECT":" ","MAREA":"大社","LANE":" ","ALLEY":" ","HOUSE_NO":"２８０號之２","E_COORD97":180402.67000000001,"N_COORD97":2554541.5499999998,"ADDRESS":"大社２８０號之２","OBJECTID":122944},"geometry":{"x":180402.67000000086,"y":2554541.5500000045}},{"attributes":{"ID":122945,"DIS_CODE":0,"TOWNNAME":"新市區","LI":"港墘里","LIN":"16鄰","STREET":"長安街","SECT":" ","MAREA":" ","LANE":"３６巷","ALLEY":"９弄","HOUSE_NO":"２７號","E_COORD97":178207.95999999999,"N_COORD97":2552694.8199999998,"ADDRESS":"長安街３６巷９弄２７號","OBJECTID":122945},"geometry":{"x":178207.95999999996,"y":2552694.8199999984}},{"attributes":{"ID":122946,"DIS_CODE":0,"TOWNNAME":"玉井區","LI":"玉田里","LIN":"31鄰","STREET":"中山路","SECT":" ","MAREA":" ","LANE":" ","ALLEY":" ","HOUSE_NO":"２７９號","E_COORD97":195283.85000000001,"N_COORD97":2558214.25,"ADDRESS":"中山路２７９號","OBJECTID":122946},"geometry":{"x":195283.84999999963,"y":2558214.25}},{"attributes":{"ID":122947,"DIS_CODE":0,"TOWNNAME":"新市區","LI":"大洲里","LIN":"8鄰","STREET":" ","SECT":" ","MAREA":"大洲","LANE":" ","ALLEY":" ","HOUSE_NO":"７９號之４","E_COORD97":174148.20000000001,"N_COORD97":2552212.5499999998,"ADDRESS":"大洲７９號之４","OBJECTID":122947},"geometry":{"x":174148.20000000019,"y":2552212.5500000045}},{"attributes":{"ID":122948,"DIS_CODE":0,"TOWNNAME":"新市區","LI":"潭頂里","LIN":"5鄰","STREET":" ","SECT":" ","MAREA":"潭頂","LANE":" ","ALLEY":" ","HOUSE_NO":"２１２號","E_COORD97":180843.12,"N_COORD97":2553026.5,"ADDRESS":"潭頂２１２號","OBJECTID":122948},"geometry":{"x":180843.12000000011,"y":2553026.5000000019}},{"attributes":{"ID":122949,"DIS_CODE":0,"TOWNNAME":"新市區","LI":"豐華里","LIN":"4鄰","STREET":" ","SECT":" ","MAREA":"豐華","LANE":" ","ALLEY":" ","HOUSE_NO":"３０號","E_COORD97":173740.54000000001,"N_COORD97":2554120.25,"ADDRESS":"豐華３０號","OBJECTID":122949},"geometry":{"x":173740.54000000004,"y":2554120.2500000019}},{"attributes":{"ID":122950,"DIS_CODE":0,"TOWNNAME":"新市區","LI":"豐華里","LIN":"4鄰","STREET":" ","SECT":" ","MAREA":"豐華","LANE":" ","ALLEY":" ","HOUSE_NO":"２６號","E_COORD97":173789.92999999999,"N_COORD97":2554142.25,"ADDRESS":"豐華２６號","OBJECTID":122950},"geometry":{"x":173789.9299999997,"y":2554142.25}},{"attributes":{"ID":122951,"DIS_CODE":0,"TOWNNAME":"新市區","LI":"潭頂里","LIN":"4鄰","STREET":" ","SECT":" ","MAREA":"潭頂","LANE":" ","ALLEY":" ","HOUSE_NO":"１９４之２號","E_COORD97":180861.76000000001,"N_COORD97":2552942.0499999998,"ADDRESS":"潭頂１９４之２號","OBJECTID":122951},"geometry":{"x":180861.75999999978,"y":2552942.0500000026}},{"attributes":{"ID":122952,"DIS_CODE":0,"TOWNNAME":"新市區","LI":"豐華里","LIN":"4鄰","STREET":" ","SECT":" ","MAREA":"豐華","LANE":" ","ALLEY":" ","HOUSE_NO":"２６之１號","E_COORD97":173789.17999999999,"N_COORD97":2554136.5499999998,"ADDRESS":"豐華２６之１號","OBJECTID":122952},"geometry":{"x":173789.18000000063,"y":2554136.5500000007}},{"attributes":{"ID":122953,"DIS_CODE":0,"TOWNNAME":"新市區","LI":"豐華里","LIN":"5鄰","STREET":" ","SECT":" ","MAREA":"豐華","LANE":" ","ALLEY":" ","HOUSE_NO":"３５號","E_COORD97":173776.14999999999,"N_COORD97":2554305.25,"ADDRESS":"豐華３５號","OBJECTID":122953},"geometry":{"x":173776.15000000037,"y":2554305.25}},{"attributes":{"ID":122954,"DIS_CODE":0,"TOWNNAME":"新市區","LI":"港墘里","LIN":"16鄰","STREET":"長安街","SECT":" ","MAREA":" ","LANE":"３６巷","ALLEY":"９弄","HOUSE_NO":"２４號","E_COORD97":178223.26999999999,"N_COORD97":2552711.3199999998,"ADDRESS":"長安街３６巷９弄２４號","OBJECTID":122954},"geometry":{"x":178223.27000000048,"y":2552711.3200000003}},{"attributes":{"ID":122955,"DIS_CODE":0,"TOWNNAME":"官田區","LI":"南\u25A0里","LIN":"4鄰","STREET":" ","SECT":" ","MAREA":"南\u25A0","LANE":" ","ALLEY":" ","HOUSE_NO":"５２號之１","E_COORD97":178995.10000000001,"N_COORD97":2567997.7999999998,"ADDRESS":"南\u25A0５２號之１","OBJECTID":122955},"geometry":{"x":178995.09999999963,"y":2567997.8000000026}},{"attributes":{"ID":122956,"DIS_CODE":0,"TOWNNAME":"永康區","LI":"網寮里","LIN":"20鄰","STREET":"大灣路","SECT":" ","MAREA":" ","LANE":"９４２巷","ALLEY":"４４９弄","HOUSE_NO":"２４７號","E_COORD97":173399.89999999999,"N_COORD97":2545553.6000000001,"ADDRESS":"大灣路９４２巷４４９弄２４７號","OBJECTID":122956},"geometry":{"x":173399.90000000224,"y":2545553.6000000015}},{"attributes":{"ID":122957,"DIS_CODE":0,"TOWNNAME":"永康區","LI":"復華里","LIN":"40鄰","STREET":"復華七街","SECT":" ","MAREA":" ","LANE":"３２巷","ALLEY":"２２弄","HOUSE_NO":"１２號","E_COORD97":172661.54000000001,"N_COORD97":2545922.0299999998,"ADDRESS":"復華七街３２巷２２弄１２號","OBJECTID":122957},"geometry":{"x":172661.54000000097,"y":2545922.0300000031}},{"attributes":{"ID":122958,"DIS_CODE":0,"TOWNNAME":"永康區","LI":"復華里","LIN":"35鄰","STREET":"復華七街","SECT":" ","MAREA":" ","LANE":"３９巷","ALLEY":"２弄","HOUSE_NO":"５號","E_COORD97":172645.85999999999,"N_COORD97":2546031.0699999998,"ADDRESS":"復華七街３９巷２弄５號","OBJECTID":122958},"geometry":{"x":172645.8600000022,"y":2546031.070000004}},{"attributes":{"ID":122959,"DIS_CODE":0,"TOWNNAME":"永康區","LI":"網寮里","LIN":"16鄰","STREET":"永二街","SECT":" ","MAREA":" ","LANE":"２４４巷","ALLEY":"６２弄","HOUSE_NO":"６號","E_COORD97":173284.82999999999,"N_COORD97":2546691.54,"ADDRESS":"永二街２４４巷６２弄６號","OBJECTID":122959},"geometry":{"x":173284.83000000194,"y":2546691.540000001}},{"attributes":{"ID":122960,"DIS_CODE":0,"TOWNNAME":"永康區","LI":"復華里","LIN":"26鄰","STREET":"復華八街","SECT":" ","MAREA":" ","LANE":"５１巷","ALLEY":"３７弄","HOUSE_NO":"８號","E_COORD97":172688.70000000001,"N_COORD97":2546400.2000000002,"ADDRESS":"復華八街５１巷３７弄８號","OBJECTID":122960},"geometry":{"x":172688.70000000019,"y":2546400.2000000011}},{"attributes":{"ID":122961,"DIS_CODE":0,"TOWNNAME":"永康區","LI":"網寮里","LIN":"17鄰","STREET":"永興路","SECT":" ","MAREA":" ","LANE":"４２７巷","ALLEY":"２３弄","HOUSE_NO":"９號","E_COORD97":173286.98000000001,"N_COORD97":2546792.1299999999,"ADDRESS":"永興路４２７巷２３弄９號","OBJECTID":122961},"geometry":{"x":173286.98000000045,"y":2546792.1300000027}},{"attributes":{"ID":122962,"DIS_CODE":0,"TOWNNAME":"永康區","LI":"復興里","LIN":"30鄰","STREET":"復興路","SECT":" ","MAREA":" ","LANE":"３５６巷","ALLEY":"８０弄","HOUSE_NO":"１８４號","E_COORD97":172539.82000000001,"N_COORD97":2544600.27,"ADDRESS":"復興路３５６巷８０弄１８４號","OBJECTID":122962},"geometry":{"x":172539.82000000123,"y":2544600.2699999996}},{"attributes":{"ID":122963,"DIS_CODE":0,"TOWNNAME":"永康區","LI":"復興里","LIN":"4鄰","STREET":"復興路","SECT":" ","MAREA":" ","LANE":"４２３巷","ALLEY":"８５弄","HOUSE_NO":"３號","E_COORD97":172233.64999999999,"N_COORD97":2544176.2799999998,"ADDRESS":"復興路４２３巷８５弄３號","OBJECTID":122963},"geometry":{"x":172233.65000000224,"y":2544176.2799999993}},{"attributes":{"ID":122964,"DIS_CODE":0,"TOWNNAME":"永康區","LI":"網寮里","LIN":"9鄰","STREET":"永二街","SECT":" ","MAREA":" ","LANE":"２４４巷","ALLEY":"８弄","HOUSE_NO":"３４號","E_COORD97":173351.42000000001,"N_COORD97":2546367.6200000001,"ADDRESS":"永二街２４４巷８弄３４號","OBJECTID":122964},"geometry":{"x":173351.41999999993,"y":2546367.6200000029}},{"attributes":{"ID":122965,"DIS_CODE":0,"TOWNNAME":"永康區","LI":"網寮里","LIN":"17鄰","STREET":"永興路","SECT":" ","MAREA":" ","LANE":"４２７巷","ALLEY":"２弄","HOUSE_NO":"２３之１１號","E_COORD97":173241.62,"N_COORD97":2546827.7999999998,"ADDRESS":"永興路４２７巷２弄２３之１１號","OBJECTID":122965},"geometry":{"x":173241.62000000011,"y":2546827.8000000026}},{"attributes":{"ID":122966,"DIS_CODE":0,"TOWNNAME":"官田區","LI":"南\u25A0里","LIN":"4鄰","STREET":" ","SECT":" ","MAREA":"南\u25A0","LANE":" ","ALLEY":" ","HOUSE_NO":"５２號之２","E_COORD97":178998.57999999999,"N_COORD97":2568000.21,"ADDRESS":"南\u25A0５２號之２","OBJECTID":122966},"geometry":{"x":178998.58000000007,"y":2568000.2100000009}},{"attributes":{"ID":122967,"DIS_CODE":0,"TOWNNAME":"下營區","LI":"新興里","LIN":"16鄰","STREET":"中華街","SECT":" ","MAREA":" ","LANE":"２０２巷","ALLEY":"３２０弄","HOUSE_NO":"２號","E_COORD97":175873.25,"N_COORD97":2570710.46,"ADDRESS":"中華街２０２巷３２０弄２號","OBJECTID":122967},"geometry":{"x":175873.25,"y":2570710.4600000009}},{"attributes":{"ID":122968,"DIS_CODE":0,"TOWNNAME":"官田區","LI":"湖山里","LIN":"6鄰","STREET":" ","SECT":" ","MAREA":"烏山頭","LANE":" ","ALLEY":" ","HOUSE_NO":"３０號之６","E_COORD97":183129.98999999999,"N_COORD97":2567716.7999999998,"ADDRESS":"烏山頭３０號之６","OBJECTID":122968},"geometry":{"x":183129.99000000115,"y":2567716.8000000007}},{"attributes":{"ID":122969,"DIS_CODE":0,"TOWNNAME":"下營區","LI":"新興里","LIN":"16鄰","STREET":"中華街","SECT":" ","MAREA":" ","LANE":"２０２巷","ALLEY":"３２０弄","HOUSE_NO":"６號","E_COORD97":175852.51000000001,"N_COORD97":2570692.2200000002,"ADDRESS":"中華街２０２巷３２０弄６號","OBJECTID":122969},"geometry":{"x":175852.50999999978,"y":2570692.2200000044}},{"attributes":{"ID":122970,"DIS_CODE":0,"TOWNNAME":"永康區","LI":"復興里","LIN":"4鄰","STREET":"復興路","SECT":" ","MAREA":" ","LANE":"４２３巷","ALLEY":"８５弄","HOUSE_NO":"１２號","E_COORD97":172256.73000000001,"N_COORD97":2544185.27,"ADDRESS":"復興路４２３巷８５弄１２號","OBJECTID":122970},"geometry":{"x":172256.73000000045,"y":2544185.2700000014}},{"attributes":{"ID":122971,"DIS_CODE":0,"TOWNNAME":"官田區","LI":"南\u25A0里","LIN":"4鄰","STREET":" ","SECT":" ","MAREA":"南\u25A0","LANE":" ","ALLEY":" ","HOUSE_NO":"５２號","E_COORD97":178972.82000000001,"N_COORD97":2568002.0800000001,"ADDRESS":"南\u25A0５２號","OBJECTID":122971},"geometry":{"x":178972.82000000123,"y":2568002.0800000019}},{"attributes":{"ID":122972,"DIS_CODE":0,"TOWNNAME":"官田區","LI":"南\u25A0里","LIN":"4鄰","STREET":" ","SECT":" ","MAREA":"南\u25A0","LANE":" ","ALLEY":" ","HOUSE_NO":"５３號","E_COORD97":178988.23999999999,"N_COORD97":2567985.8399999999,"ADDRESS":"南\u25A0５３號","OBJECTID":122972},"geometry":{"x":178988.24000000209,"y":2567985.8400000017}},{"attributes":{"ID":122973,"DIS_CODE":0,"TOWNNAME":"官田區","LI":"南\u25A0里","LIN":"4鄰","STREET":" ","SECT":" ","MAREA":"南\u25A0","LANE":" ","ALLEY":" ","HOUSE_NO":"５４號之１","E_COORD97":178960.85000000001,"N_COORD97":2567971.3100000001,"ADDRESS":"南\u25A0５４號之１","OBJECTID":122973},"geometry":{"x":178960.84999999963,"y":2567971.3100000005}},{"attributes":{"ID":122974,"DIS_CODE":0,"TOWNNAME":"官田區","LI":"南\u25A0里","LIN":"4鄰","STREET":" ","SECT":" ","MAREA":"南\u25A0","LANE":" ","ALLEY":" ","HOUSE_NO":"５４號","E_COORD97":178955.32000000001,"N_COORD97":2567991.7999999998,"ADDRESS":"南\u25A0５４號","OBJECTID":122974},"geometry":{"x":178955.3200000003,"y":2567991.8000000007}},{"attributes":{"ID":122975,"DIS_CODE":0,"TOWNNAME":"官田區","LI":"南\u25A0里","LIN":"4鄰","STREET":" ","SECT":" ","MAREA":"南\u25A0","LANE":" ","ALLEY":" ","HOUSE_NO":"５５號之１","E_COORD97":178941.64999999999,"N_COORD97":2567959.2999999998,"ADDRESS":"南\u25A0５５號之１","OBJECTID":122975},"geometry":{"x":178941.65000000224,"y":2567959.3000000045}},{"attributes":{"ID":122976,"DIS_CODE":0,"TOWNNAME":"官田區","LI":"南\u25A0里","LIN":"10鄰","STREET":" ","SECT":" ","MAREA":"南\u25A0","LANE":" ","ALLEY":" ","HOUSE_NO":"６００號","E_COORD97":179410.03,"N_COORD97":2567780.1899999999,"ADDRESS":"南\u25A0６００號","OBJECTID":122976},"geometry":{"x":179410.02999999933,"y":2567780.1900000013}},{"attributes":{"ID":122977,"DIS_CODE":0,"TOWNNAME":"官田區","LI":"南\u25A0里","LIN":"10鄰","STREET":" ","SECT":" ","MAREA":"南\u25A0","LANE":" ","ALLEY":" ","HOUSE_NO":"６０１號","E_COORD97":179468.31,"N_COORD97":2567769.6899999999,"ADDRESS":"南\u25A0６０１號","OBJECTID":122977},"geometry":{"x":179468.30999999959,"y":2567769.6900000013}},{"attributes":{"ID":122978,"DIS_CODE":0,"TOWNNAME":"官田區","LI":"南\u25A0里","LIN":"3鄰","STREET":" ","SECT":" ","MAREA":"南\u25A0","LANE":" ","ALLEY":" ","HOUSE_NO":"４５號之１","E_COORD97":178952.97,"N_COORD97":2568050.0299999998,"ADDRESS":"南\u25A0４５號之１","OBJECTID":122978},"geometry":{"x":178952.97000000067,"y":2568050.0299999993}},{"attributes":{"ID":122979,"DIS_CODE":0,"TOWNNAME":"官田區","LI":"南\u25A0里","LIN":"3鄰","STREET":" ","SECT":" ","MAREA":"南\u25A0","LANE":" ","ALLEY":" ","HOUSE_NO":"４５號","E_COORD97":178948.67000000001,"N_COORD97":2568074.46,"ADDRESS":"南\u25A0４５號","OBJECTID":122979},"geometry":{"x":178948.66999999993,"y":2568074.4600000028}},{"attributes":{"ID":122980,"DIS_CODE":0,"TOWNNAME":"官田區","LI":"南\u25A0里","LIN":"3鄰","STREET":" ","SECT":" ","MAREA":"南\u25A0","LANE":" ","ALLEY":" ","HOUSE_NO":"４７號之１","E_COORD97":178923.57999999999,"N_COORD97":2568055.2200000002,"ADDRESS":"南\u25A0４７號之１","OBJECTID":122980},"geometry":{"x":178923.58000000101,"y":2568055.2200000025}},{"attributes":{"ID":122981,"DIS_CODE":0,"TOWNNAME":"官田區","LI":"南\u25A0里","LIN":"3鄰","STREET":" ","SECT":" ","MAREA":"南\u25A0","LANE":" ","ALLEY":" ","HOUSE_NO":"４７號","E_COORD97":178940.45000000001,"N_COORD97":2568041.3199999998,"ADDRESS":"南\u25A0４７號","OBJECTID":122981},"geometry":{"x":178940.45000000019,"y":2568041.3200000022}},{"attributes":{"ID":122982,"DIS_CODE":0,"TOWNNAME":"永康區","LI":"勝利里","LIN":"32鄰","STREET":"勝利街","SECT":" ","MAREA":" ","LANE":"３０巷","ALLEY":"７弄","HOUSE_NO":"６２號","E_COORD97":171481.47,"N_COORD97":2544513.3199999998,"ADDRESS":"勝利街３０巷７弄６２號","OBJECTID":122982},"geometry":{"x":171481.46999999881,"y":2544513.3200000003}},{"attributes":{"ID":122983,"DIS_CODE":0,"TOWNNAME":"永康區","LI":"復華里","LIN":"13鄰","STREET":"國華街","SECT":" ","MAREA":" ","LANE":"９６巷","ALLEY":"１５弄","HOUSE_NO":"１２號","E_COORD97":172927.72,"N_COORD97":2545973.2400000002,"ADDRESS":"國華街９６巷１５弄１２號","OBJECTID":122983},"geometry":{"x":172927.72000000067,"y":2545973.2400000021}},{"attributes":{"ID":122984,"DIS_CODE":0,"TOWNNAME":"永康區","LI":"網寮里","LIN":"17鄰","STREET":"永興路","SECT":" ","MAREA":" ","LANE":"４２７巷","ALLEY":"２弄","HOUSE_NO":"４１號","E_COORD97":173217.75,"N_COORD97":2546792.0899999999,"ADDRESS":"永興路４２７巷２弄４１號","OBJECTID":122984},"geometry":{"x":173217.75000000093,"y":2546792.0899999999}},{"attributes":{"ID":122985,"DIS_CODE":0,"TOWNNAME":"永康區","LI":"尚頂里","LIN":"16鄰","STREET":"中正南路","SECT":" ","MAREA":" ","LANE":"２２０巷","ALLEY":"７弄","HOUSE_NO":"７號","E_COORD97":170212.81,"N_COORD97":2547343.2000000002,"ADDRESS":"中正南路２２０巷７弄７號","OBJECTID":122985},"geometry":{"x":170212.81000000145,"y":2547343.1999999993}},{"attributes":{"ID":122986,"DIS_CODE":0,"TOWNNAME":"永康區","LI":"尚頂里","LIN":"16鄰","STREET":"中正南路","SECT":" ","MAREA":" ","LANE":"２２０巷","ALLEY":"７弄","HOUSE_NO":"４號","E_COORD97":170190.54000000001,"N_COORD97":2547342.5,"ADDRESS":"中正南路２２０巷７弄４號","OBJECTID":122986},"geometry":{"x":170190.54000000004,"y":2547342.5}},{"attributes":{"ID":122987,"DIS_CODE":0,"TOWNNAME":"永康區","LI":"尚頂里","LIN":"16鄰","STREET":"中正南路","SECT":" ","MAREA":" ","LANE":"２２０巷","ALLEY":"７弄","HOUSE_NO":"１號","E_COORD97":170167.35999999999,"N_COORD97":2547340.1200000001,"ADDRESS":"中正南路２２０巷７弄１號","OBJECTID":122987},"geometry":{"x":170167.3599999994,"y":2547340.1199999992}},{"attributes":{"ID":122988,"DIS_CODE":0,"TOWNNAME":"永康區","LI":"正強里","LIN":"16鄰","STREET":"自強路","SECT":" ","MAREA":" ","LANE":"１８８巷","ALLEY":"２弄","HOUSE_NO":"３號","E_COORD97":173168.48999999999,"N_COORD97":2547458.77,"ADDRESS":"自強路１８８巷２弄３號","OBJECTID":122988},"geometry":{"x":173168.49000000022,"y":2547458.7699999996}},{"attributes":{"ID":122989,"DIS_CODE":0,"TOWNNAME":"永康區","LI":"正強里","LIN":"16鄰","STREET":"自強路","SECT":" ","MAREA":" ","LANE":"１８８巷","ALLEY":"１６弄","HOUSE_NO":"６號","E_COORD97":173198.16,"N_COORD97":2547428.4399999999,"ADDRESS":"自強路１８８巷１６弄６號","OBJECTID":122989},"geometry":{"x":173198.16000000108,"y":2547428.4400000013}},{"attributes":{"ID":122990,"DIS_CODE":0,"TOWNNAME":"永康區","LI":"網寮里","LIN":"17鄰","STREET":"永興路","SECT":" ","MAREA":" ","LANE":"４２７巷","ALLEY":"２弄","HOUSE_NO":"５１號","E_COORD97":173211.89000000001,"N_COORD97":2546820.6000000001,"ADDRESS":"永興路４２７巷２弄５１號","OBJECTID":122990},"geometry":{"x":173211.8900000006,"y":2546820.6000000015}},{"attributes":{"ID":122991,"DIS_CODE":0,"TOWNNAME":"安南區","LI":"新順里","LIN":"16鄰","STREET":"頂安街","SECT":" ","MAREA":" ","LANE":"６８巷","ALLEY":"２９弄","HOUSE_NO":"２號","E_COORD97":169559.64999999999,"N_COORD97":2549412.52,"ADDRESS":"頂安街６８巷２９弄２號","OBJECTID":122991},"geometry":{"x":169559.65000000037,"y":2549412.5200000014}},{"attributes":{"ID":122992,"DIS_CODE":0,"TOWNNAME":"安南區","LI":"新順里","LIN":"16鄰","STREET":"頂安街","SECT":" ","MAREA":" ","LANE":"６８巷","ALLEY":"２９弄","HOUSE_NO":"６號","E_COORD97":169552.88,"N_COORD97":2549414.0499999998,"ADDRESS":"頂安街６８巷２９弄６號","OBJECTID":122992},"geometry":{"x":169552.87999999989,"y":2549414.0500000007}},{"attributes":{"ID":122993,"DIS_CODE":0,"TOWNNAME":"安南區","LI":"新順里","LIN":"16鄰","STREET":"頂安街","SECT":" ","MAREA":" ","LANE":"６８巷","ALLEY":"２９弄","HOUSE_NO":"８號","E_COORD97":169546.5,"N_COORD97":2549414.9399999999,"ADDRESS":"頂安街６８巷２９弄８號","OBJECTID":122993},"geometry":{"x":169546.50000000093,"y":2549414.9400000032}},{"attributes":{"ID":122994,"DIS_CODE":0,"TOWNNAME":"安南區","LI":"新順里","LIN":"16鄰","STREET":"頂安街","SECT":" ","MAREA":" ","LANE":"６８巷","ALLEY":"２９弄","HOUSE_NO":"１０號","E_COORD97":169538.45999999999,"N_COORD97":2549417.6299999999,"ADDRESS":"頂安街６８巷２９弄１０號","OBJECTID":122994},"geometry":{"x":169538.45999999996,"y":2549417.6300000008}},{"attributes":{"ID":122995,"DIS_CODE":0,"TOWNNAME":"永康區","LI":"復華里","LIN":"11鄰","STREET":"復國二路","SECT":" ","MAREA":" ","LANE":"２４３巷","ALLEY":"２１弄","HOUSE_NO":"１號","E_COORD97":172970.38,"N_COORD97":2546096.27,"ADDRESS":"復國二路２４３巷２１弄１號","OBJECTID":122995},"geometry":{"x":172970.37999999989,"y":2546096.2699999996}},{"attributes":{"ID":122996,"DIS_CODE":0,"TOWNNAME":"安南區","LI":"長安里","LIN":"16鄰","STREET":"長溪路","SECT":"三段","MAREA":" ","LANE":"３７３巷","ALLEY":"２１弄","HOUSE_NO":"１７７之５號","E_COORD97":167488.48999999999,"N_COORD97":2551590.3199999998,"ADDRESS":"長溪路三段３７３巷２１弄１７７之５號","OBJECTID":122996},"geometry":{"x":167488.49000000115,"y":2551590.3200000022}},{"attributes":{"ID":122997,"DIS_CODE":0,"TOWNNAME":"永康區","LI":"復華里","LIN":"24鄰","STREET":"復華八街","SECT":" ","MAREA":" ","LANE":"４８巷","ALLEY":"１弄","HOUSE_NO":"５號","E_COORD97":172762.28,"N_COORD97":2546233.3900000001,"ADDRESS":"復華八街４８巷１弄５號","OBJECTID":122997},"geometry":{"x":172762.28000000119,"y":2546233.3900000025}},{"attributes":{"ID":122998,"DIS_CODE":0,"TOWNNAME":"永康區","LI":"勝利里","LIN":"1鄰","STREET":"勝利街","SECT":" ","MAREA":" ","LANE":"１巷","ALLEY":"１１弄","HOUSE_NO":"２５號","E_COORD97":171073.62,"N_COORD97":2544653.2599999998,"ADDRESS":"勝利街１巷１１弄２５號","OBJECTID":122998},"geometry":{"x":171073.62000000011,"y":2544653.2600000016}},{"attributes":{"ID":122999,"DIS_CODE":0,"TOWNNAME":"永康區","LI":"復國里","LIN":"30鄰","STREET":"復國一路","SECT":" ","MAREA":" ","LANE":"１７３巷","ALLEY":"６２弄","HOUSE_NO":"１０號","E_COORD97":172568.73999999999,"N_COORD97":2545260.0099999998,"ADDRESS":"復國一路１７３巷６２弄１０號","OBJECTID":122999},"geometry":{"x":172568.74000000115,"y":2545260.0099999998}},{"attributes":{"ID":123000,"DIS_CODE":0,"TOWNNAME":"安南區","LI":"淵西里","LIN":"16鄰","STREET":"安中路","SECT":"四段","MAREA":" ","LANE":"２９０巷","ALLEY":"８０弄","HOUSE_NO":"４１號","E_COORD97":164765.76000000001,"N_COORD97":2550212.7599999998,"ADDRESS":"安中路四段２９０巷８０弄４１號","OBJECTID":123000},"geometry":{"x":164765.76000000071,"y":2550212.7599999998}}]}