{"displayFieldName":"TOWNNAME","fieldAliases":{"ID":"ID","DIS_CODE":"DIS_CODE","TOWNNAME":"TOWNNAME","LI":"LI","LIN":"LIN","STREET":"STREET","SECT":"SECT","MAREA":"MAREA","LANE":"LANE","ALLEY":"ALLEY","HOUSE_NO":"HOUSE_NO","E_COORD97":"E_COORD97","N_COORD97":"N_COORD97","ADDRESS":"ADDRESS","OBJECTID":"OBJECTID"},"geometryType":"esriGeometryPoint","spatialReference":{"wkid":102443,"latestWkid":3826},"fields":[{"name":"ID","type":"esriFieldTypeDouble","alias":"ID"},{"name":"DIS_CODE","type":"esriFieldTypeInteger","alias":"DIS_CODE"},{"name":"TOWNNAME","type":"esriFieldTypeString","alias":"TOWNNAME","length":8},{"name":"LI","type":"esriFieldTypeString","alias":"LI","length":8},{"name":"LIN","type":"esriFieldTypeString","alias":"LIN","length":12},{"name":"STREET","type":"esriFieldTypeString","alias":"STREET","length":20},{"name":"SECT","type":"esriFieldTypeString","alias":"SECT","length":8},{"name":"MAREA","type":"esriFieldTypeString","alias":"MAREA","length":12},{"name":"LANE","type":"esriFieldTypeString","alias":"LANE","length":10},{"name":"ALLEY","type":"esriFieldTypeString","alias":"ALLEY","length":10},{"name":"HOUSE_NO","type":"esriFieldTypeString","alias":"HOUSE_NO","length":20},{"name":"E_COORD97","type":"esriFieldTypeDouble","alias":"E_COORD97"},{"name":"N_COORD97","type":"esriFieldTypeDouble","alias":"N_COORD97"},{"name":"ADDRESS","type":"esriFieldTypeString","alias":"ADDRESS","length":50},{"name":"OBJECTID","type":"esriFieldTypeOID","alias":"OBJECTID"}],"features":[{"attributes":{"ID":313409,"DIS_CODE":0,"TOWNNAME":"歸仁區","LI":"沙崙里","LIN":"3鄰","STREET":" ","SECT":" ","MAREA":"二甲","LANE":" ","ALLEY":" ","HOUSE_NO":"１０１號","E_COORD97":178449.48265300001,"N_COORD97":2539235.8662,"ADDRESS":"二甲１０１號","OBJECTID":313401},"geometry":{"x":178449.48265300039,"y":2539235.8662049994}},{"attributes":{"ID":313410,"DIS_CODE":0,"TOWNNAME":"北區","LI":"賢北里","LIN":"7鄰","STREET":"和緯路","SECT":"五段","MAREA":" ","LANE":"１３８巷","ALLEY":" ","HOUSE_NO":"２６號","E_COORD97":166243.48000000001,"N_COORD97":2545180.2400000002,"ADDRESS":"和緯路五段１３８巷２６號","OBJECTID":313402},"geometry":{"x":166243.48000000045,"y":2545180.2400000021}},{"attributes":{"ID":313411,"DIS_CODE":0,"TOWNNAME":"北區","LI":"賢北里","LIN":"7鄰","STREET":"賢北街","SECT":" ","MAREA":" ","LANE":"１５巷","ALLEY":" ","HOUSE_NO":"３號","E_COORD97":166317.29000000001,"N_COORD97":2545218.8199999998,"ADDRESS":"賢北街１５巷３號","OBJECTID":313403},"geometry":{"x":166317.29000000004,"y":2545218.8200000003}},{"attributes":{"ID":313412,"DIS_CODE":0,"TOWNNAME":"北區","LI":"賢北里","LIN":"7鄰","STREET":"和緯路","SECT":"五段","MAREA":" ","LANE":"１３８巷","ALLEY":" ","HOUSE_NO":"２８號","E_COORD97":166236.64999999999,"N_COORD97":2545178.3300000001,"ADDRESS":"和緯路五段１３８巷２８號","OBJECTID":313404},"geometry":{"x":166236.6500000013,"y":2545178.3300000038}},{"attributes":{"ID":313413,"DIS_CODE":0,"TOWNNAME":"北區","LI":"賢北里","LIN":"7鄰","STREET":"和緯路","SECT":"五段","MAREA":" ","LANE":"１３８巷","ALLEY":" ","HOUSE_NO":"２２號","E_COORD97":166249.67000000001,"N_COORD97":2545182.2999999998,"ADDRESS":"和緯路五段１３８巷２２號","OBJECTID":313405},"geometry":{"x":166249.67000000086,"y":2545182.2999999989}},{"attributes":{"ID":313414,"DIS_CODE":0,"TOWNNAME":"安平區","LI":"港仔里","LIN":"7鄰","STREET":"安平路","SECT":" ","MAREA":" ","LANE":"７２４巷","ALLEY":" ","HOUSE_NO":"１號","E_COORD97":164325.91,"N_COORD97":2544529.1200000001,"ADDRESS":"安平路７２４巷１號","OBJECTID":313406},"geometry":{"x":164325.91000000108,"y":2544529.120000001}},{"attributes":{"ID":313415,"DIS_CODE":0,"TOWNNAME":"安平區","LI":"港仔里","LIN":"7鄰","STREET":"安平路","SECT":" ","MAREA":" ","LANE":"７２４巷","ALLEY":" ","HOUSE_NO":"３號","E_COORD97":164330.85000000001,"N_COORD97":2544520.1200000001,"ADDRESS":"安平路７２４巷３號","OBJECTID":313407},"geometry":{"x":164330.85000000056,"y":2544520.1200000029}},{"attributes":{"ID":313416,"DIS_CODE":0,"TOWNNAME":"安平區","LI":"港仔里","LIN":"7鄰","STREET":"安平路","SECT":" ","MAREA":" ","LANE":"７２４巷","ALLEY":" ","HOUSE_NO":"５號","E_COORD97":164337.95999999999,"N_COORD97":2544518.6000000001,"ADDRESS":"安平路７２４巷５號","OBJECTID":313408},"geometry":{"x":164337.95999999996,"y":2544518.6000000015}},{"attributes":{"ID":313417,"DIS_CODE":0,"TOWNNAME":"安平區","LI":"海頭里","LIN":"7鄰","STREET":"延平街","SECT":" ","MAREA":" ","LANE":"１０４巷","ALLEY":" ","HOUSE_NO":"１５號","E_COORD97":164154.01000000001,"N_COORD97":2544650.5299999998,"ADDRESS":"延平街１０４巷１５號","OBJECTID":313409},"geometry":{"x":164154.00999999978,"y":2544650.5300000031}},{"attributes":{"ID":313418,"DIS_CODE":0,"TOWNNAME":"安平區","LI":"海頭里","LIN":"7鄰","STREET":"延平街","SECT":" ","MAREA":" ","LANE":"１０４巷","ALLEY":" ","HOUSE_NO":"１７號","E_COORD97":164157.12,"N_COORD97":2544657.1600000001,"ADDRESS":"延平街１０４巷１７號","OBJECTID":313410},"geometry":{"x":164157.12000000011,"y":2544657.1599999983}},{"attributes":{"ID":313419,"DIS_CODE":0,"TOWNNAME":"安平區","LI":"海頭里","LIN":"7鄰","STREET":"延平街","SECT":" ","MAREA":" ","LANE":"１０４巷","ALLEY":" ","HOUSE_NO":"２１號","E_COORD97":164157.53,"N_COORD97":2544662.3399999999,"ADDRESS":"延平街１０４巷２１號","OBJECTID":313411},"geometry":{"x":164157.53000000119,"y":2544662.339999998}},{"attributes":{"ID":313420,"DIS_CODE":0,"TOWNNAME":"安平區","LI":"海頭里","LIN":"7鄰","STREET":"延平街","SECT":" ","MAREA":" ","LANE":"１０４巷","ALLEY":" ","HOUSE_NO":"５號","E_COORD97":164143.92000000001,"N_COORD97":2544626.8900000001,"ADDRESS":"延平街１０４巷５號","OBJECTID":313412},"geometry":{"x":164143.92000000086,"y":2544626.8900000025}},{"attributes":{"ID":313421,"DIS_CODE":0,"TOWNNAME":"東山區","LI":"南勢里","LIN":"4鄰","STREET":" ","SECT":" ","MAREA":"大洋","LANE":" ","ALLEY":" ","HOUSE_NO":"３６號","E_COORD97":197964,"N_COORD97":2573644.8300000001,"ADDRESS":"大洋３６號","OBJECTID":313413},"geometry":{"x":197964.00000000186,"y":2573644.8300000019}},{"attributes":{"ID":313422,"DIS_CODE":0,"TOWNNAME":"安平區","LI":"海頭里","LIN":"7鄰","STREET":"延平街","SECT":" ","MAREA":" ","LANE":"１０４巷","ALLEY":" ","HOUSE_NO":"７號","E_COORD97":164147.03,"N_COORD97":2544630.79,"ADDRESS":"延平街１０４巷７號","OBJECTID":313414},"geometry":{"x":164147.03000000119,"y":2544630.7899999991}},{"attributes":{"ID":313423,"DIS_CODE":0,"TOWNNAME":"安平區","LI":"海頭里","LIN":"7鄰","STREET":"延平街","SECT":" ","MAREA":" ","LANE":"１０４巷","ALLEY":" ","HOUSE_NO":"９號","E_COORD97":164147.29999999999,"N_COORD97":2544640.1800000002,"ADDRESS":"延平街１０４巷９號","OBJECTID":313415},"geometry":{"x":164147.29999999981,"y":2544640.1800000016}},{"attributes":{"ID":313424,"DIS_CODE":0,"TOWNNAME":"安平區","LI":"海頭里","LIN":"7鄰","STREET":"延平街","SECT":" ","MAREA":" ","LANE":"１０４巷","ALLEY":" ","HOUSE_NO":"１號","E_COORD97":164143.01999999999,"N_COORD97":2544619.4300000002,"ADDRESS":"延平街１０４巷１號","OBJECTID":313416},"geometry":{"x":164143.02000000048,"y":2544619.4299999997}},{"attributes":{"ID":313425,"DIS_CODE":0,"TOWNNAME":"歸仁區","LI":"南興里","LIN":"8鄰","STREET":"文化十六街","SECT":" ","MAREA":" ","LANE":"４２巷","ALLEY":" ","HOUSE_NO":"３０號","E_COORD97":176097.73999999999,"N_COORD97":2541265.3300000001,"ADDRESS":"文化十六街４２巷３０號","OBJECTID":313417},"geometry":{"x":176097.74000000022,"y":2541265.3300000001}},{"attributes":{"ID":313426,"DIS_CODE":0,"TOWNNAME":"新營區","LI":"忠政里","LIN":"7鄰","STREET":"中正路","SECT":" ","MAREA":" ","LANE":"３５巷","ALLEY":" ","HOUSE_NO":"２６號","E_COORD97":179916.59,"N_COORD97":2579123.5099999998,"ADDRESS":"中正路３５巷２６號","OBJECTID":313418},"geometry":{"x":179916.59000000078,"y":2579123.5099999998}},{"attributes":{"ID":313427,"DIS_CODE":0,"TOWNNAME":"新營區","LI":"興業里","LIN":"7鄰","STREET":"公誠街","SECT":" ","MAREA":" ","LANE":"９巷","ALLEY":" ","HOUSE_NO":"６之４號","E_COORD97":180322.67000000001,"N_COORD97":2578003.1299999999,"ADDRESS":"公誠街９巷６之４號","OBJECTID":313419},"geometry":{"x":180322.67000000086,"y":2578003.129999999}},{"attributes":{"ID":313428,"DIS_CODE":0,"TOWNNAME":"新營區","LI":"南紙里","LIN":"7鄰","STREET":"南紙街","SECT":" ","MAREA":" ","LANE":"１１９巷","ALLEY":" ","HOUSE_NO":"１４號","E_COORD97":177854.38,"N_COORD97":2577415.75,"ADDRESS":"南紙街１１９巷１４號","OBJECTID":313420},"geometry":{"x":177854.37999999989,"y":2577415.7500000019}},{"attributes":{"ID":313429,"DIS_CODE":0,"TOWNNAME":"新營區","LI":"民榮里","LIN":"7鄰","STREET":"復興路","SECT":" ","MAREA":" ","LANE":"１３５巷","ALLEY":" ","HOUSE_NO":"２１號","E_COORD97":179343.84,"N_COORD97":2577840.4700000002,"ADDRESS":"復興路１３５巷２１號","OBJECTID":313421},"geometry":{"x":179343.84000000078,"y":2577840.4700000007}},{"attributes":{"ID":313430,"DIS_CODE":0,"TOWNNAME":"新營區","LI":"王公里","LIN":"7鄰","STREET":"民治路","SECT":" ","MAREA":" ","LANE":"２６巷","ALLEY":" ","HOUSE_NO":"１９號","E_COORD97":180197.01000000001,"N_COORD97":2578954.9700000002,"ADDRESS":"民治路２６巷１９號","OBJECTID":313422},"geometry":{"x":180197.01000000071,"y":2578954.9700000007}},{"attributes":{"ID":313431,"DIS_CODE":0,"TOWNNAME":"新營區","LI":"忠政里","LIN":"7鄰","STREET":"中正路","SECT":" ","MAREA":" ","LANE":"３５巷","ALLEY":" ","HOUSE_NO":"２１號","E_COORD97":180003.39999999999,"N_COORD97":2579094.3100000001,"ADDRESS":"中正路３５巷２１號","OBJECTID":313423},"geometry":{"x":180003.4000000013,"y":2579094.3100000024}},{"attributes":{"ID":313432,"DIS_CODE":0,"TOWNNAME":"新營區","LI":"忠政里","LIN":"7鄰","STREET":"中正路","SECT":" ","MAREA":" ","LANE":"３５巷","ALLEY":" ","HOUSE_NO":"２３號之１","E_COORD97":179982.01000000001,"N_COORD97":2579095.5800000001,"ADDRESS":"中正路３５巷２３號之１","OBJECTID":313424},"geometry":{"x":179982.00999999978,"y":2579095.5800000001}},{"attributes":{"ID":313433,"DIS_CODE":0,"TOWNNAME":"新營區","LI":"忠政里","LIN":"7鄰","STREET":"中正路","SECT":" ","MAREA":" ","LANE":"３５巷","ALLEY":" ","HOUSE_NO":"２３號之２","E_COORD97":179977.03,"N_COORD97":2579094.4900000002,"ADDRESS":"中正路３５巷２３號之２","OBJECTID":313425},"geometry":{"x":179977.03000000119,"y":2579094.4899999984}},{"attributes":{"ID":313434,"DIS_CODE":0,"TOWNNAME":"新營區","LI":"忠政里","LIN":"7鄰","STREET":"中正路","SECT":" ","MAREA":" ","LANE":"３５巷","ALLEY":" ","HOUSE_NO":"３６號","E_COORD97":179935.03,"N_COORD97":2579124.5299999998,"ADDRESS":"中正路３５巷３６號","OBJECTID":313426},"geometry":{"x":179935.03000000026,"y":2579124.5300000012}},{"attributes":{"ID":313435,"DIS_CODE":0,"TOWNNAME":"永康區","LI":"六合里","LIN":"17鄰","STREET":"中華路","SECT":" ","MAREA":" ","LANE":" ","ALLEY":" ","HOUSE_NO":"５０１號","E_COORD97":171230.62,"N_COORD97":2545808,"ADDRESS":"中華路５０１號","OBJECTID":313427},"geometry":{"x":171230.62000000104,"y":2545808.0000000019}},{"attributes":{"ID":313436,"DIS_CODE":0,"TOWNNAME":"新營區","LI":"忠政里","LIN":"7鄰","STREET":"中正路","SECT":" ","MAREA":" ","LANE":"３５巷","ALLEY":" ","HOUSE_NO":"３４號","E_COORD97":179942.17999999999,"N_COORD97":2579122.2799999998,"ADDRESS":"中正路３５巷３４號","OBJECTID":313428},"geometry":{"x":179942.1799999997,"y":2579122.2800000031}},{"attributes":{"ID":313437,"DIS_CODE":0,"TOWNNAME":"新營區","LI":"興業里","LIN":"7鄰","STREET":"公誠街","SECT":" ","MAREA":" ","LANE":"９巷","ALLEY":" ","HOUSE_NO":"１２之３號","E_COORD97":180348.45000000001,"N_COORD97":2578003.02,"ADDRESS":"公誠街９巷１２之３號","OBJECTID":313429},"geometry":{"x":180348.45000000112,"y":2578003.0200000014}},{"attributes":{"ID":313438,"DIS_CODE":0,"TOWNNAME":"新營區","LI":"民榮里","LIN":"7鄰","STREET":"和平路","SECT":" ","MAREA":" ","LANE":"３２巷","ALLEY":" ","HOUSE_NO":"８號","E_COORD97":179378.39000000001,"N_COORD97":2577841.4199999999,"ADDRESS":"和平路３２巷８號","OBJECTID":313430},"geometry":{"x":179378.3900000006,"y":2577841.4200000018}},{"attributes":{"ID":313439,"DIS_CODE":0,"TOWNNAME":"新營區","LI":"民榮里","LIN":"7鄰","STREET":"和平路","SECT":" ","MAREA":" ","LANE":"３２巷","ALLEY":" ","HOUSE_NO":"２號","E_COORD97":179393.60999999999,"N_COORD97":2577815.8799999999,"ADDRESS":"和平路３２巷２號","OBJECTID":313431},"geometry":{"x":179393.61000000034,"y":2577815.8800000027}},{"attributes":{"ID":313440,"DIS_CODE":0,"TOWNNAME":"新營區","LI":"南紙里","LIN":"7鄰","STREET":"建業路","SECT":" ","MAREA":" ","LANE":"２６９巷","ALLEY":" ","HOUSE_NO":"２６號","E_COORD97":177965.78,"N_COORD97":2577379.7799999998,"ADDRESS":"建業路２６９巷２６號","OBJECTID":313432},"geometry":{"x":177965.78000000212,"y":2577379.7800000031}},{"attributes":{"ID":313441,"DIS_CODE":0,"TOWNNAME":"新營區","LI":"民榮里","LIN":"7鄰","STREET":"和平路","SECT":" ","MAREA":" ","LANE":"３２巷","ALLEY":" ","HOUSE_NO":"１８號","E_COORD97":179349.98999999999,"N_COORD97":2577859.2799999998,"ADDRESS":"和平路３２巷１８號","OBJECTID":313433},"geometry":{"x":179349.99000000115,"y":2577859.2800000012}},{"attributes":{"ID":313442,"DIS_CODE":0,"TOWNNAME":"新營區","LI":"興業里","LIN":"7鄰","STREET":"公誠街","SECT":" ","MAREA":" ","LANE":"９巷","ALLEY":" ","HOUSE_NO":"１２號","E_COORD97":180345.95000000001,"N_COORD97":2578002.9700000002,"ADDRESS":"公誠街９巷１２號","OBJECTID":313434},"geometry":{"x":180345.95000000019,"y":2578002.9700000007}},{"attributes":{"ID":313443,"DIS_CODE":0,"TOWNNAME":"新營區","LI":"南紙里","LIN":"7鄰","STREET":"建業路","SECT":" ","MAREA":" ","LANE":"２６９巷","ALLEY":" ","HOUSE_NO":"２８號","E_COORD97":177965.76000000001,"N_COORD97":2577375.3500000001,"ADDRESS":"建業路２６９巷２８號","OBJECTID":313435},"geometry":{"x":177965.76000000071,"y":2577375.3499999996}},{"attributes":{"ID":313444,"DIS_CODE":0,"TOWNNAME":"新營區","LI":"民榮里","LIN":"7鄰","STREET":"復興路","SECT":" ","MAREA":" ","LANE":"１３５巷","ALLEY":" ","HOUSE_NO":"１５號","E_COORD97":179341.91,"N_COORD97":2577881.46,"ADDRESS":"復興路１３５巷１５號","OBJECTID":313436},"geometry":{"x":179341.91000000108,"y":2577881.4600000009}},{"attributes":{"ID":313445,"DIS_CODE":0,"TOWNNAME":"新營區","LI":"南紙里","LIN":"7鄰","STREET":"建業路","SECT":" ","MAREA":" ","LANE":"２６９巷","ALLEY":" ","HOUSE_NO":"２２號","E_COORD97":177967.47577600001,"N_COORD97":2577389.4219599999,"ADDRESS":"建業路２６９巷２２號","OBJECTID":313437},"geometry":{"x":177967.47577600088,"y":2577389.4219560008}},{"attributes":{"ID":313446,"DIS_CODE":0,"TOWNNAME":"歸仁區","LI":"南保里","LIN":"55鄰","STREET":"民權南路","SECT":" ","MAREA":" ","LANE":"１９６巷","ALLEY":" ","HOUSE_NO":"１０號","E_COORD97":176927.78,"N_COORD97":2540368.2599999998,"ADDRESS":"民權南路１９６巷１０號","OBJECTID":313438},"geometry":{"x":176927.78000000026,"y":2540368.2600000016}},{"attributes":{"ID":313447,"DIS_CODE":0,"TOWNNAME":"北區","LI":"安民里","LIN":"7鄰","STREET":"成功路","SECT":" ","MAREA":" ","LANE":"４１０巷","ALLEY":" ","HOUSE_NO":"３６號","E_COORD97":167767.62,"N_COORD97":2544649.98,"ADDRESS":"成功路４１０巷３６號","OBJECTID":313439},"geometry":{"x":167767.62000000104,"y":2544649.9800000023}},{"attributes":{"ID":313448,"DIS_CODE":0,"TOWNNAME":"北區","LI":"安民里","LIN":"7鄰","STREET":"成功路","SECT":" ","MAREA":" ","LANE":"４１０巷","ALLEY":" ","HOUSE_NO":"３８號","E_COORD97":167763.20000000001,"N_COORD97":2544651.8700000001,"ADDRESS":"成功路４１０巷３８號","OBJECTID":313440},"geometry":{"x":167763.20000000112,"y":2544651.870000001}},{"attributes":{"ID":313449,"DIS_CODE":0,"TOWNNAME":"北區","LI":"安民里","LIN":"7鄰","STREET":"成功路","SECT":" ","MAREA":" ","LANE":"４１０巷","ALLEY":" ","HOUSE_NO":"４０號","E_COORD97":167759.41,"N_COORD97":2544653.7599999998,"ADDRESS":"成功路４１０巷４０號","OBJECTID":313441},"geometry":{"x":167759.41000000015,"y":2544653.7600000016}},{"attributes":{"ID":313450,"DIS_CODE":0,"TOWNNAME":"北區","LI":"安民里","LIN":"7鄰","STREET":"成功路","SECT":" ","MAREA":" ","LANE":"４１０巷","ALLEY":" ","HOUSE_NO":"４２號","E_COORD97":167755.42000000001,"N_COORD97":2544655.02,"ADDRESS":"成功路４１０巷４２號","OBJECTID":313442},"geometry":{"x":167755.41999999993,"y":2544655.0200000014}},{"attributes":{"ID":313451,"DIS_CODE":0,"TOWNNAME":"鹽水區","LI":"中境里","LIN":"7鄰","STREET":"中山路","SECT":" ","MAREA":" ","LANE":"１８巷","ALLEY":" ","HOUSE_NO":"１號","E_COORD97":175010.92999999999,"N_COORD97":2579935.4300000002,"ADDRESS":"中山路１８巷１號","OBJECTID":313443},"geometry":{"x":175010.9299999997,"y":2579935.4300000034}},{"attributes":{"ID":313452,"DIS_CODE":0,"TOWNNAME":"鹽水區","LI":"水仙里","LIN":"7鄰","STREET":"中山路","SECT":" ","MAREA":" ","LANE":"３巷","ALLEY":" ","HOUSE_NO":"２１號","E_COORD97":175038.97,"N_COORD97":2579822.5499999998,"ADDRESS":"中山路３巷２１號","OBJECTID":313444},"geometry":{"x":175038.96999999974,"y":2579822.5500000007}},{"attributes":{"ID":313453,"DIS_CODE":0,"TOWNNAME":"鹽水區","LI":"水仙里","LIN":"7鄰","STREET":"中山路","SECT":" ","MAREA":" ","LANE":"３巷","ALLEY":" ","HOUSE_NO":"２２號","E_COORD97":175040.17999999999,"N_COORD97":2579826.71,"ADDRESS":"中山路３巷２２號","OBJECTID":313445},"geometry":{"x":175040.18000000063,"y":2579826.7100000028}},{"attributes":{"ID":313454,"DIS_CODE":0,"TOWNNAME":"鹽水區","LI":"水仙里","LIN":"7鄰","STREET":"中山路","SECT":" ","MAREA":" ","LANE":"３巷","ALLEY":" ","HOUSE_NO":"２３號","E_COORD97":175040.39000000001,"N_COORD97":2579831.5299999998,"ADDRESS":"中山路３巷２３號","OBJECTID":313446},"geometry":{"x":175040.3900000006,"y":2579831.5299999993}},{"attributes":{"ID":313455,"DIS_CODE":0,"TOWNNAME":"鹽水區","LI":"水仙里","LIN":"7鄰","STREET":"中山路","SECT":" ","MAREA":" ","LANE":"３巷","ALLEY":" ","HOUSE_NO":"２４號","E_COORD97":175041.70000000001,"N_COORD97":2579836.3399999999,"ADDRESS":"中山路３巷２４號","OBJECTID":313447},"geometry":{"x":175041.70000000019,"y":2579836.3399999999}},{"attributes":{"ID":313456,"DIS_CODE":0,"TOWNNAME":"鹽水區","LI":"水仙里","LIN":"7鄰","STREET":"中山路","SECT":" ","MAREA":" ","LANE":"３巷","ALLEY":" ","HOUSE_NO":"２５號","E_COORD97":175042.85000000001,"N_COORD97":2579840.9900000002,"ADDRESS":"中山路３巷２５號","OBJECTID":313448},"geometry":{"x":175042.85000000056,"y":2579840.9900000021}},{"attributes":{"ID":313457,"DIS_CODE":0,"TOWNNAME":"鹽水區","LI":"中境里","LIN":"7鄰","STREET":"中山路","SECT":" ","MAREA":" ","LANE":"４巷","ALLEY":" ","HOUSE_NO":"３號","E_COORD97":175074.17999999999,"N_COORD97":2579941.8900000001,"ADDRESS":"中山路４巷３號","OBJECTID":313449},"geometry":{"x":175074.18000000063,"y":2579941.8900000006}},{"attributes":{"ID":313458,"DIS_CODE":0,"TOWNNAME":"鹽水區","LI":"中境里","LIN":"7鄰","STREET":"中山路","SECT":" ","MAREA":" ","LANE":"４巷","ALLEY":" ","HOUSE_NO":"４號","E_COORD97":175063.39999999999,"N_COORD97":2579946.0699999998,"ADDRESS":"中山路４巷４號","OBJECTID":313450},"geometry":{"x":175063.4000000013,"y":2579946.0700000022}},{"attributes":{"ID":313459,"DIS_CODE":0,"TOWNNAME":"鹽水區","LI":"中境里","LIN":"7鄰","STREET":"中山路","SECT":" ","MAREA":" ","LANE":"４巷","ALLEY":" ","HOUSE_NO":"５號","E_COORD97":175063.92000000001,"N_COORD97":2579949.7599999998,"ADDRESS":"中山路４巷５號","OBJECTID":313451},"geometry":{"x":175063.91999999899,"y":2579949.7599999998}},{"attributes":{"ID":313460,"DIS_CODE":0,"TOWNNAME":"關廟區","LI":"山西里","LIN":"7鄰","STREET":"中山路","SECT":"二段","MAREA":" ","LANE":"２６２巷","ALLEY":" ","HOUSE_NO":"１０之８號","E_COORD97":179997.20999999999,"N_COORD97":2540775.2999999998,"ADDRESS":"中山路二段２６２巷１０之８號","OBJECTID":313452},"geometry":{"x":179997.21000000089,"y":2540775.3000000026}},{"attributes":{"ID":313461,"DIS_CODE":0,"TOWNNAME":"關廟區","LI":"北勢里","LIN":"7鄰","STREET":"成功路","SECT":" ","MAREA":" ","LANE":"６０巷","ALLEY":" ","HOUSE_NO":"３號","E_COORD97":181745.12,"N_COORD97":2540449.27,"ADDRESS":"成功路６０巷３號","OBJECTID":313453},"geometry":{"x":181745.12000000011,"y":2540449.2700000014}},{"attributes":{"ID":313462,"DIS_CODE":0,"TOWNNAME":"關廟區","LI":"北勢里","LIN":"7鄰","STREET":"成功路","SECT":" ","MAREA":" ","LANE":"８６巷","ALLEY":" ","HOUSE_NO":"５號","E_COORD97":181702.51999999999,"N_COORD97":2540457.27,"ADDRESS":"成功路８６巷５號","OBJECTID":313454},"geometry":{"x":181702.51999999955,"y":2540457.2699999996}},{"attributes":{"ID":313463,"DIS_CODE":0,"TOWNNAME":"關廟區","LI":"北勢里","LIN":"7鄰","STREET":"成功路","SECT":" ","MAREA":" ","LANE":"８６巷","ALLEY":" ","HOUSE_NO":"７號","E_COORD97":181698.32000000001,"N_COORD97":2540457.27,"ADDRESS":"成功路８６巷７號","OBJECTID":313455},"geometry":{"x":181698.32000000216,"y":2540457.2699999996}},{"attributes":{"ID":313464,"DIS_CODE":0,"TOWNNAME":"關廟區","LI":"北勢里","LIN":"7鄰","STREET":"成功路","SECT":" ","MAREA":" ","LANE":"１０６巷","ALLEY":" ","HOUSE_NO":"７號","E_COORD97":181687.67000000001,"N_COORD97":2540464.27,"ADDRESS":"成功路１０６巷７號","OBJECTID":313456},"geometry":{"x":181687.67000000086,"y":2540464.2699999996}},{"attributes":{"ID":313465,"DIS_CODE":0,"TOWNNAME":"關廟區","LI":"東勢里","LIN":"7鄰","STREET":"旺萊路","SECT":" ","MAREA":" ","LANE":"１６１巷","ALLEY":" ","HOUSE_NO":"８號","E_COORD97":181847.64000000001,"N_COORD97":2539412.2400000002,"ADDRESS":"旺萊路１６１巷８號","OBJECTID":313457},"geometry":{"x":181847.63999999966,"y":2539412.2400000021}},{"attributes":{"ID":313466,"DIS_CODE":0,"TOWNNAME":"關廟區","LI":"東勢里","LIN":"7鄰","STREET":"旺萊路","SECT":" ","MAREA":" ","LANE":"１３９巷","ALLEY":" ","HOUSE_NO":"２６號","E_COORD97":181745.69,"N_COORD97":2539333.25,"ADDRESS":"旺萊路１３９巷２６號","OBJECTID":313458},"geometry":{"x":181745.69000000134,"y":2539333.25}},{"attributes":{"ID":313467,"DIS_CODE":0,"TOWNNAME":"歸仁區","LI":"後市里","LIN":"39鄰","STREET":"文化街","SECT":"二段","MAREA":" ","LANE":"６３巷","ALLEY":" ","HOUSE_NO":"６號","E_COORD97":177309.69,"N_COORD97":2541117.7599999998,"ADDRESS":"文化街二段６３巷６號","OBJECTID":313459},"geometry":{"x":177309.69000000041,"y":2541117.7600000016}},{"attributes":{"ID":313468,"DIS_CODE":0,"TOWNNAME":"關廟區","LI":"關廟里","LIN":"7鄰","STREET":"民生街","SECT":" ","MAREA":" ","LANE":"１６７巷","ALLEY":" ","HOUSE_NO":"６號","E_COORD97":180837.39000000001,"N_COORD97":2539907.29,"ADDRESS":"民生街１６７巷６號","OBJECTID":313460},"geometry":{"x":180837.38999999966,"y":2539907.2899999991}},{"attributes":{"ID":313469,"DIS_CODE":0,"TOWNNAME":"關廟區","LI":"東勢里","LIN":"7鄰","STREET":"旺萊路","SECT":" ","MAREA":" ","LANE":"１６１巷","ALLEY":" ","HOUSE_NO":"１１號","E_COORD97":181840.09,"N_COORD97":2539423.25,"ADDRESS":"旺萊路１６１巷１１號","OBJECTID":313461},"geometry":{"x":181840.08999999892,"y":2539423.2500000019}},{"attributes":{"ID":313470,"DIS_CODE":0,"TOWNNAME":"關廟區","LI":"東勢里","LIN":"7鄰","STREET":"旺萊路","SECT":" ","MAREA":" ","LANE":"１３９巷","ALLEY":" ","HOUSE_NO":"８號","E_COORD97":181784.34,"N_COORD97":2539335.25,"ADDRESS":"旺萊路１３９巷８號","OBJECTID":313462},"geometry":{"x":181784.34000000171,"y":2539335.2500000019}},{"attributes":{"ID":313471,"DIS_CODE":0,"TOWNNAME":"關廟區","LI":"香洋里","LIN":"7鄰","STREET":"南雄路","SECT":"二段","MAREA":" ","LANE":"５１巷","ALLEY":" ","HOUSE_NO":"１號","E_COORD97":181096.39000000001,"N_COORD97":2540155.02,"ADDRESS":"南雄路二段５１巷１號","OBJECTID":313463},"geometry":{"x":181096.38999999966,"y":2540155.0199999977}},{"attributes":{"ID":313472,"DIS_CODE":0,"TOWNNAME":"關廟區","LI":"東勢里","LIN":"7鄰","STREET":"旺萊路","SECT":" ","MAREA":" ","LANE":"１３９巷","ALLEY":" ","HOUSE_NO":"２０號","E_COORD97":181758.39000000001,"N_COORD97":2539339.25,"ADDRESS":"旺萊路１３９巷２０號","OBJECTID":313464},"geometry":{"x":181758.39000000153,"y":2539339.25}},{"attributes":{"ID":313473,"DIS_CODE":0,"TOWNNAME":"關廟區","LI":"關廟里","LIN":"7鄰","STREET":"民生街","SECT":" ","MAREA":" ","LANE":"１６７巷","ALLEY":" ","HOUSE_NO":"２號","E_COORD97":180844.59,"N_COORD97":2539908.29,"ADDRESS":"民生街１６７巷２號","OBJECTID":313465},"geometry":{"x":180844.58999999985,"y":2539908.2899999991}},{"attributes":{"ID":313474,"DIS_CODE":0,"TOWNNAME":"北區","LI":"公園里","LIN":"1鄰","STREET":"北門路","SECT":"二段","MAREA":" ","LANE":"１５巷","ALLEY":" ","HOUSE_NO":"２１號","E_COORD97":169219.95999999999,"N_COORD97":2544338.3700000001,"ADDRESS":"北門路二段１５巷２１號","OBJECTID":313466},"geometry":{"x":169219.95999999996,"y":2544338.3700000048}},{"attributes":{"ID":313475,"DIS_CODE":0,"TOWNNAME":"北區","LI":"正風里","LIN":"3鄰","STREET":"公園路","SECT":" ","MAREA":" ","LANE":"９０４巷","ALLEY":" ","HOUSE_NO":"１０號","E_COORD97":169385.32999999999,"N_COORD97":2546106.52,"ADDRESS":"公園路９０４巷１０號","OBJECTID":313467},"geometry":{"x":169385.33000000007,"y":2546106.5200000014}},{"attributes":{"ID":313476,"DIS_CODE":0,"TOWNNAME":"北區","LI":"正風里","LIN":"3鄰","STREET":"公園路","SECT":" ","MAREA":" ","LANE":"９０４巷","ALLEY":" ","HOUSE_NO":"１１號","E_COORD97":169397.67000000001,"N_COORD97":2546112.5499999998,"ADDRESS":"公園路９０４巷１１號","OBJECTID":313468},"geometry":{"x":169397.67000000086,"y":2546112.5500000007}},{"attributes":{"ID":313477,"DIS_CODE":0,"TOWNNAME":"北區","LI":"正風里","LIN":"3鄰","STREET":"公園路","SECT":" ","MAREA":" ","LANE":"９０４巷","ALLEY":" ","HOUSE_NO":"１２號","E_COORD97":169389.48999999999,"N_COORD97":2546103.0699999998,"ADDRESS":"公園路９０４巷１２號","OBJECTID":313469},"geometry":{"x":169389.49000000022,"y":2546103.0700000022}},{"attributes":{"ID":313478,"DIS_CODE":0,"TOWNNAME":"北區","LI":"正風里","LIN":"3鄰","STREET":"公園路","SECT":" ","MAREA":" ","LANE":"９０４巷","ALLEY":" ","HOUSE_NO":"１３號","E_COORD97":169401.39000000001,"N_COORD97":2546110.3399999999,"ADDRESS":"公園路９０４巷１３號","OBJECTID":313470},"geometry":{"x":169401.38999999966,"y":2546110.3400000036}},{"attributes":{"ID":313479,"DIS_CODE":0,"TOWNNAME":"北區","LI":"正風里","LIN":"3鄰","STREET":"公園路","SECT":" ","MAREA":" ","LANE":"９０４巷","ALLEY":" ","HOUSE_NO":"１４號","E_COORD97":169395.34,"N_COORD97":2546098.23,"ADDRESS":"公園路９０４巷１４號","OBJECTID":313471},"geometry":{"x":169395.33999999985,"y":2546098.2300000042}},{"attributes":{"ID":313480,"DIS_CODE":0,"TOWNNAME":"關廟區","LI":"關廟里","LIN":"7鄰","STREET":"民生街","SECT":" ","MAREA":" ","LANE":"１８７巷","ALLEY":" ","HOUSE_NO":"１號","E_COORD97":180856.89000000001,"N_COORD97":2539943.29,"ADDRESS":"民生街１８７巷１號","OBJECTID":313472},"geometry":{"x":180856.8900000006,"y":2539943.290000001}},{"attributes":{"ID":313481,"DIS_CODE":0,"TOWNNAME":"關廟區","LI":"松腳里","LIN":"7鄰","STREET":"中山路","SECT":"一段","MAREA":" ","LANE":"８９巷","ALLEY":" ","HOUSE_NO":"３２號","E_COORD97":181896.95999999999,"N_COORD97":2539869.2799999998,"ADDRESS":"中山路一段８９巷３２號","OBJECTID":313473},"geometry":{"x":181896.95999999996,"y":2539869.2800000012}},{"attributes":{"ID":313482,"DIS_CODE":0,"TOWNNAME":"歸仁區","LI":"辜厝里","LIN":"32鄰","STREET":"中正南路","SECT":"一段","MAREA":" ","LANE":"２１８巷","ALLEY":" ","HOUSE_NO":"６號","E_COORD97":177312.87,"N_COORD97":2540359.6800000002,"ADDRESS":"中正南路一段２１８巷６號","OBJECTID":313474},"geometry":{"x":177312.87000000104,"y":2540359.6799999997}},{"attributes":{"ID":313483,"DIS_CODE":0,"TOWNNAME":"北區","LI":"大山里","LIN":"7鄰","STREET":"精忠街","SECT":" ","MAREA":" ","LANE":"１０３巷","ALLEY":" ","HOUSE_NO":"２４號","E_COORD97":169311.79999999999,"N_COORD97":2545450.02,"ADDRESS":"精忠街１０３巷２４號","OBJECTID":313475},"geometry":{"x":169311.80000000075,"y":2545450.0199999996}},{"attributes":{"ID":313484,"DIS_CODE":0,"TOWNNAME":"北區","LI":"大山里","LIN":"7鄰","STREET":"精忠街","SECT":" ","MAREA":" ","LANE":"１０３巷","ALLEY":" ","HOUSE_NO":"２６號","E_COORD97":169303.26000000001,"N_COORD97":2545448.3300000001,"ADDRESS":"精忠街１０３巷２６號","OBJECTID":313476},"geometry":{"x":169303.26000000071,"y":2545448.3300000001}},{"attributes":{"ID":313485,"DIS_CODE":0,"TOWNNAME":"北區","LI":"大山里","LIN":"7鄰","STREET":"精忠街","SECT":" ","MAREA":" ","LANE":"１０３巷","ALLEY":" ","HOUSE_NO":"２７號","E_COORD97":169305.06,"N_COORD97":2545432.8199999998,"ADDRESS":"精忠街１０３巷２７號","OBJECTID":313477},"geometry":{"x":169305.05999999959,"y":2545432.820000004}},{"attributes":{"ID":313486,"DIS_CODE":0,"TOWNNAME":"北區","LI":"大山里","LIN":"7鄰","STREET":"精忠街","SECT":" ","MAREA":" ","LANE":"１０３巷","ALLEY":" ","HOUSE_NO":"３３號","E_COORD97":169303.57999999999,"N_COORD97":2545410.9900000002,"ADDRESS":"精忠街１０３巷３３號","OBJECTID":313478},"geometry":{"x":169303.58000000101,"y":2545410.9899999984}},{"attributes":{"ID":313487,"DIS_CODE":0,"TOWNNAME":"北區","LI":"大山里","LIN":"7鄰","STREET":"精忠街","SECT":" ","MAREA":" ","LANE":"１０３巷","ALLEY":" ","HOUSE_NO":"３５號","E_COORD97":169302.88,"N_COORD97":2545406.9900000002,"ADDRESS":"精忠街１０３巷３５號","OBJECTID":313479},"geometry":{"x":169302.88000000082,"y":2545406.9900000002}},{"attributes":{"ID":313488,"DIS_CODE":0,"TOWNNAME":"永康區","LI":"東橋里","LIN":"17鄰","STREET":"東橋三路","SECT":" ","MAREA":" ","LANE":" ","ALLEY":" ","HOUSE_NO":"３２號","E_COORD97":171624.88,"N_COORD97":2546549.8300000001,"ADDRESS":"東橋三路３２號","OBJECTID":313480},"geometry":{"x":171624.88000000082,"y":2546549.8300000001}},{"attributes":{"ID":313489,"DIS_CODE":0,"TOWNNAME":"永康區","LI":"六合里","LIN":"17鄰","STREET":"中華路","SECT":" ","MAREA":" ","LANE":" ","ALLEY":" ","HOUSE_NO":"４８１號之５","E_COORD97":171252.57000000001,"N_COORD97":2545773.1699999999,"ADDRESS":"中華路４８１號之５","OBJECTID":313481},"geometry":{"x":171252.57000000216,"y":2545773.1700000018}},{"attributes":{"ID":313490,"DIS_CODE":0,"TOWNNAME":"永康區","LI":"六合里","LIN":"17鄰","STREET":"中華路","SECT":" ","MAREA":" ","LANE":" ","ALLEY":" ","HOUSE_NO":"４８１號之６","E_COORD97":171250.51999999999,"N_COORD97":2545776.6899999999,"ADDRESS":"中華路４８１號之６","OBJECTID":313482},"geometry":{"x":171250.52000000142,"y":2545776.6900000013}},{"attributes":{"ID":313491,"DIS_CODE":0,"TOWNNAME":"永康區","LI":"六合里","LIN":"17鄰","STREET":"中華路","SECT":" ","MAREA":" ","LANE":" ","ALLEY":" ","HOUSE_NO":"４８３號","E_COORD97":171246.26000000001,"N_COORD97":2545780.4900000002,"ADDRESS":"中華路４８３號","OBJECTID":313483},"geometry":{"x":171246.26000000071,"y":2545780.4900000002}},{"attributes":{"ID":313492,"DIS_CODE":0,"TOWNNAME":"永康區","LI":"六合里","LIN":"17鄰","STREET":"中華路","SECT":" ","MAREA":" ","LANE":" ","ALLEY":" ","HOUSE_NO":"４８７號","E_COORD97":171241.51000000001,"N_COORD97":2545786.2200000002,"ADDRESS":"中華路４８７號","OBJECTID":313484},"geometry":{"x":171241.50999999978,"y":2545786.2199999988}},{"attributes":{"ID":313493,"DIS_CODE":0,"TOWNNAME":"永康區","LI":"六合里","LIN":"17鄰","STREET":"中華路","SECT":" ","MAREA":" ","LANE":" ","ALLEY":" ","HOUSE_NO":"４８９號","E_COORD97":171239.31,"N_COORD97":2545789.7200000002,"ADDRESS":"中華路４８９號","OBJECTID":313485},"geometry":{"x":171239.30999999959,"y":2545789.7200000044}},{"attributes":{"ID":313494,"DIS_CODE":0,"TOWNNAME":"北區","LI":"正風里","LIN":"4鄰","STREET":"公園路","SECT":" ","MAREA":" ","LANE":"９１８巷","ALLEY":" ","HOUSE_NO":"３７號","E_COORD97":169509.53,"N_COORD97":2546193.2000000002,"ADDRESS":"公園路９１８巷３７號","OBJECTID":313486},"geometry":{"x":169509.53000000026,"y":2546193.2000000011}},{"attributes":{"ID":313495,"DIS_CODE":0,"TOWNNAME":"北區","LI":"正風里","LIN":"4鄰","STREET":"公園路","SECT":" ","MAREA":" ","LANE":"９３４巷","ALLEY":" ","HOUSE_NO":"３０號","E_COORD97":169476.79000000001,"N_COORD97":2546174.0299999998,"ADDRESS":"公園路９３４巷３０號","OBJECTID":313487},"geometry":{"x":169476.79000000097,"y":2546174.0300000012}},{"attributes":{"ID":313496,"DIS_CODE":0,"TOWNNAME":"北區","LI":"大山里","LIN":"7鄰","STREET":"精忠街","SECT":" ","MAREA":" ","LANE":"１０３巷","ALLEY":" ","HOUSE_NO":"３７號","E_COORD97":169301.04000000001,"N_COORD97":2545402.0699999998,"ADDRESS":"精忠街１０３巷３７號","OBJECTID":313488},"geometry":{"x":169301.04000000004,"y":2545402.0700000022}},{"attributes":{"ID":313497,"DIS_CODE":0,"TOWNNAME":"北區","LI":"大山里","LIN":"7鄰","STREET":"精忠街","SECT":" ","MAREA":" ","LANE":"１０３巷","ALLEY":" ","HOUSE_NO":"３９號","E_COORD97":169300.19,"N_COORD97":2545397.1499999999,"ADDRESS":"精忠街１０３巷３９號","OBJECTID":313489},"geometry":{"x":169300.19000000041,"y":2545397.1500000022}},{"attributes":{"ID":313498,"DIS_CODE":0,"TOWNNAME":"北區","LI":"大山里","LIN":"7鄰","STREET":"精忠街","SECT":" ","MAREA":" ","LANE":"１０３巷","ALLEY":" ","HOUSE_NO":"８號之６","E_COORD97":169309.23999999999,"N_COORD97":2545479.5299999998,"ADDRESS":"精忠街１０３巷８號之６","OBJECTID":313490},"geometry":{"x":169309.24000000115,"y":2545479.5299999993}},{"attributes":{"ID":313499,"DIS_CODE":0,"TOWNNAME":"北區","LI":"大山里","LIN":"7鄰","STREET":"精忠街","SECT":" ","MAREA":" ","LANE":"１０３巷","ALLEY":" ","HOUSE_NO":"８號之８","E_COORD97":169302.95000000001,"N_COORD97":2545479.9199999999,"ADDRESS":"精忠街１０３巷８號之８","OBJECTID":313491},"geometry":{"x":169302.95000000112,"y":2545479.9200000018}},{"attributes":{"ID":313500,"DIS_CODE":0,"TOWNNAME":"北區","LI":"大仁里","LIN":"7鄰","STREET":"北門路","SECT":"二段","MAREA":" ","LANE":"２３７巷","ALLEY":" ","HOUSE_NO":"１０號","E_COORD97":169475.60999999999,"N_COORD97":2545333.5299999998,"ADDRESS":"北門路二段２３７巷１０號","OBJECTID":313492},"geometry":{"x":169475.61000000034,"y":2545333.5300000012}},{"attributes":{"ID":313501,"DIS_CODE":0,"TOWNNAME":"北區","LI":"大仁里","LIN":"7鄰","STREET":"北門路","SECT":"二段","MAREA":" ","LANE":"２３７巷","ALLEY":" ","HOUSE_NO":"１２號","E_COORD97":169470.42999999999,"N_COORD97":2545333.1299999999,"ADDRESS":"北門路二段２３７巷１２號","OBJECTID":313493},"geometry":{"x":169470.43000000063,"y":2545333.129999999}},{"attributes":{"ID":313502,"DIS_CODE":0,"TOWNNAME":"北區","LI":"大仁里","LIN":"7鄰","STREET":"北門路","SECT":"二段","MAREA":" ","LANE":"２３７巷","ALLEY":" ","HOUSE_NO":"１４號","E_COORD97":169468.14000000001,"N_COORD97":2545346.1600000001,"ADDRESS":"北門路二段２３７巷１４號","OBJECTID":313494},"geometry":{"x":169468.14000000153,"y":2545346.160000002}},{"attributes":{"ID":313503,"DIS_CODE":0,"TOWNNAME":"北區","LI":"大仁里","LIN":"7鄰","STREET":"北門路","SECT":"二段","MAREA":" ","LANE":"２３７巷","ALLEY":" ","HOUSE_NO":"１６號","E_COORD97":169463.26000000001,"N_COORD97":2545351.23,"ADDRESS":"北門路二段２３７巷１６號","OBJECTID":313495},"geometry":{"x":169463.25999999978,"y":2545351.2300000004}},{"attributes":{"ID":313504,"DIS_CODE":0,"TOWNNAME":"北區","LI":"大仁里","LIN":"7鄰","STREET":"北門路","SECT":"二段","MAREA":" ","LANE":"２３７巷","ALLEY":" ","HOUSE_NO":"１８號","E_COORD97":169462.20000000001,"N_COORD97":2545354.48,"ADDRESS":"北門路二段２３７巷１８號","OBJECTID":313496},"geometry":{"x":169462.20000000112,"y":2545354.4800000023}},{"attributes":{"ID":313505,"DIS_CODE":0,"TOWNNAME":"北區","LI":"大仁里","LIN":"7鄰","STREET":"北門路","SECT":"二段","MAREA":" ","LANE":"２３７巷","ALLEY":" ","HOUSE_NO":"２０號","E_COORD97":169461.14000000001,"N_COORD97":2545357.7999999998,"ADDRESS":"北門路二段２３７巷２０號","OBJECTID":313497},"geometry":{"x":169461.13999999966,"y":2545357.8000000007}},{"attributes":{"ID":313506,"DIS_CODE":0,"TOWNNAME":"北區","LI":"大仁里","LIN":"7鄰","STREET":"北門路","SECT":"二段","MAREA":" ","LANE":"２３７巷","ALLEY":" ","HOUSE_NO":"２２號","E_COORD97":169459.81,"N_COORD97":2545362.04,"ADDRESS":"北門路二段２３７巷２２號","OBJECTID":313498},"geometry":{"x":169459.80999999959,"y":2545362.0399999972}},{"attributes":{"ID":313507,"DIS_CODE":0,"TOWNNAME":"北區","LI":"大仁里","LIN":"7鄰","STREET":"北門路","SECT":"二段","MAREA":" ","LANE":"２３７巷","ALLEY":" ","HOUSE_NO":"２４號","E_COORD97":169458.95000000001,"N_COORD97":2545365.75,"ADDRESS":"北門路二段２３７巷２４號","OBJECTID":313499},"geometry":{"x":169458.95000000112,"y":2545365.7500000019}},{"attributes":{"ID":313508,"DIS_CODE":0,"TOWNNAME":"北區","LI":"大仁里","LIN":"7鄰","STREET":"北門路","SECT":"二段","MAREA":" ","LANE":"２３７巷","ALLEY":" ","HOUSE_NO":"２６號","E_COORD97":169463.98000000001,"N_COORD97":2545331.5299999998,"ADDRESS":"北門路二段２３７巷２６號","OBJECTID":313500},"geometry":{"x":169463.98000000138,"y":2545331.5299999993}},{"attributes":{"ID":313509,"DIS_CODE":0,"TOWNNAME":"北區","LI":"大仁里","LIN":"7鄰","STREET":"北門路","SECT":"二段","MAREA":" ","LANE":"２３７巷","ALLEY":" ","HOUSE_NO":"２８號","E_COORD97":169459.60000000001,"N_COORD97":2545330.8700000001,"ADDRESS":"北門路二段２３７巷２８號","OBJECTID":313501},"geometry":{"x":169459.59999999963,"y":2545330.870000001}},{"attributes":{"ID":313510,"DIS_CODE":0,"TOWNNAME":"歸仁區","LI":"辜厝里","LIN":"32鄰","STREET":"中正南路","SECT":"一段","MAREA":" ","LANE":"２１６巷","ALLEY":" ","HOUSE_NO":"２３號","E_COORD97":177350.51000000001,"N_COORD97":2540441.9500000002,"ADDRESS":"中正南路一段２１６巷２３號","OBJECTID":313502},"geometry":{"x":177350.51000000071,"y":2540441.9499999993}},{"attributes":{"ID":313511,"DIS_CODE":0,"TOWNNAME":"北區","LI":"大仁里","LIN":"7鄰","STREET":"北門路","SECT":"二段","MAREA":" ","LANE":"２３７巷","ALLEY":" ","HOUSE_NO":"３０號","E_COORD97":169455.54999999999,"N_COORD97":2545329.7400000002,"ADDRESS":"北門路二段２３７巷３０號","OBJECTID":313503},"geometry":{"x":169455.55000000075,"y":2545329.7400000021}},{"attributes":{"ID":313512,"DIS_CODE":0,"TOWNNAME":"北區","LI":"大仁里","LIN":"7鄰","STREET":"北門路","SECT":"二段","MAREA":" ","LANE":"２３７巷","ALLEY":" ","HOUSE_NO":"３２號","E_COORD97":169452.04000000001,"N_COORD97":2545329.3399999999,"ADDRESS":"北門路二段２３７巷３２號","OBJECTID":313504},"geometry":{"x":169452.04000000004,"y":2545329.3399999999}},{"attributes":{"ID":313513,"DIS_CODE":0,"TOWNNAME":"歸仁區","LI":"沙崙里","LIN":"3鄰","STREET":" ","SECT":" ","MAREA":"二甲","LANE":" ","ALLEY":" ","HOUSE_NO":"１２５號","E_COORD97":178520.88197399999,"N_COORD97":2539234.38454,"ADDRESS":"二甲１２５號","OBJECTID":313505},"geometry":{"x":178520.88197399955,"y":2539234.3845390026}},{"attributes":{"ID":313514,"DIS_CODE":0,"TOWNNAME":"麻豆區","LI":"油車里","LIN":"7鄰","STREET":"新生北路","SECT":" ","MAREA":" ","LANE":"４２０巷","ALLEY":" ","HOUSE_NO":"１０號","E_COORD97":172672.66,"N_COORD97":2565504.7599999998,"ADDRESS":"新生北路４２０巷１０號","OBJECTID":313506},"geometry":{"x":172672.66000000108,"y":2565504.7600000016}},{"attributes":{"ID":313515,"DIS_CODE":0,"TOWNNAME":"麻豆區","LI":"油車里","LIN":"7鄰","STREET":"新生北路","SECT":" ","MAREA":" ","LANE":"４２０巷","ALLEY":" ","HOUSE_NO":"１１號","E_COORD97":172696.76000000001,"N_COORD97":2565500.7000000002,"ADDRESS":"新生北路４２０巷１１號","OBJECTID":313507},"geometry":{"x":172696.76000000164,"y":2565500.7000000011}},{"attributes":{"ID":313516,"DIS_CODE":0,"TOWNNAME":"麻豆區","LI":"油車里","LIN":"7鄰","STREET":"新生北路","SECT":" ","MAREA":" ","LANE":"４２０巷","ALLEY":" ","HOUSE_NO":"１２號","E_COORD97":172674.19,"N_COORD97":2565500.8700000001,"ADDRESS":"新生北路４２０巷１２號","OBJECTID":313508},"geometry":{"x":172674.19000000227,"y":2565500.8700000048}},{"attributes":{"ID":313517,"DIS_CODE":0,"TOWNNAME":"麻豆區","LI":"油車里","LIN":"7鄰","STREET":"新生北路","SECT":" ","MAREA":" ","LANE":"４２０巷","ALLEY":" ","HOUSE_NO":"１３號","E_COORD97":172698.32000000001,"N_COORD97":2565496.8900000001,"ADDRESS":"新生北路４２０巷１３號","OBJECTID":313509},"geometry":{"x":172698.3200000003,"y":2565496.8900000043}},{"attributes":{"ID":313518,"DIS_CODE":0,"TOWNNAME":"麻豆區","LI":"油車里","LIN":"7鄰","STREET":"新生北路","SECT":" ","MAREA":" ","LANE":"４２０巷","ALLEY":" ","HOUSE_NO":"１４號","E_COORD97":172675.76999999999,"N_COORD97":2565497.0099999998,"ADDRESS":"新生北路４２０巷１４號","OBJECTID":313510},"geometry":{"x":172675.76999999955,"y":2565497.0099999998}},{"attributes":{"ID":313519,"DIS_CODE":0,"TOWNNAME":"麻豆區","LI":"油車里","LIN":"7鄰","STREET":"新生北路","SECT":" ","MAREA":" ","LANE":"４２０巷","ALLEY":" ","HOUSE_NO":"１５號","E_COORD97":172699.88,"N_COORD97":2565493.0699999998,"ADDRESS":"新生北路４２０巷１５號","OBJECTID":313511},"geometry":{"x":172699.88000000082,"y":2565493.0700000022}},{"attributes":{"ID":313520,"DIS_CODE":0,"TOWNNAME":"麻豆區","LI":"油車里","LIN":"7鄰","STREET":"新生北路","SECT":" ","MAREA":" ","LANE":"４２０巷","ALLEY":" ","HOUSE_NO":"１６號","E_COORD97":172677.39000000001,"N_COORD97":2565493.1800000002,"ADDRESS":"新生北路４２０巷１６號","OBJECTID":313512},"geometry":{"x":172677.3900000006,"y":2565493.1799999997}},{"attributes":{"ID":313521,"DIS_CODE":0,"TOWNNAME":"麻豆區","LI":"油車里","LIN":"7鄰","STREET":"新生北路","SECT":" ","MAREA":" ","LANE":"４２０巷","ALLEY":" ","HOUSE_NO":"１７號","E_COORD97":172701.44,"N_COORD97":2565489.25,"ADDRESS":"新生北路４２０巷１７號","OBJECTID":313513},"geometry":{"x":172701.44000000227,"y":2565489.25}},{"attributes":{"ID":313522,"DIS_CODE":0,"TOWNNAME":"永康區","LI":"六合里","LIN":"17鄰","STREET":"中華路","SECT":" ","MAREA":" ","LANE":" ","ALLEY":" ","HOUSE_NO":"４９１號","E_COORD97":171237.60000000001,"N_COORD97":2545792.7200000002,"ADDRESS":"中華路４９１號","OBJECTID":313514},"geometry":{"x":171237.59999999963,"y":2545792.7200000007}},{"attributes":{"ID":313523,"DIS_CODE":0,"TOWNNAME":"永康區","LI":"六合里","LIN":"17鄰","STREET":"中華路","SECT":" ","MAREA":" ","LANE":" ","ALLEY":" ","HOUSE_NO":"４９５號","E_COORD97":171233.35999999999,"N_COORD97":2545800.2200000002,"ADDRESS":"中華路４９５號","OBJECTID":313515},"geometry":{"x":171233.36000000034,"y":2545800.2200000044}},{"attributes":{"ID":313524,"DIS_CODE":0,"TOWNNAME":"歸仁區","LI":"沙崙里","LIN":"1鄰","STREET":" ","SECT":" ","MAREA":"二甲","LANE":" ","ALLEY":" ","HOUSE_NO":"１２６號","E_COORD97":178511.34794000001,"N_COORD97":2539267.4045199999,"ADDRESS":"二甲１２６號","OBJECTID":313516},"geometry":{"x":178511.34794000071,"y":2539267.4045220017}},{"attributes":{"ID":313525,"DIS_CODE":0,"TOWNNAME":"麻豆區","LI":"油車里","LIN":"7鄰","STREET":"新生北路","SECT":" ","MAREA":" ","LANE":"４２０巷","ALLEY":" ","HOUSE_NO":"１８號","E_COORD97":172678.66,"N_COORD97":2565489.4900000002,"ADDRESS":"新生北路４２０巷１８號","OBJECTID":313517},"geometry":{"x":172678.66000000015,"y":2565489.4900000021}},{"attributes":{"ID":313526,"DIS_CODE":0,"TOWNNAME":"麻豆區","LI":"油車里","LIN":"7鄰","STREET":"新生北路","SECT":" ","MAREA":" ","LANE":"４２０巷","ALLEY":" ","HOUSE_NO":"２０號","E_COORD97":172680.31,"N_COORD97":2565485.5499999998,"ADDRESS":"新生北路４２０巷２０號","OBJECTID":313518},"geometry":{"x":172680.30999999959,"y":2565485.5499999989}},{"attributes":{"ID":313527,"DIS_CODE":0,"TOWNNAME":"麻豆區","LI":"油車里","LIN":"7鄰","STREET":"新生北路","SECT":" ","MAREA":" ","LANE":"４２０巷","ALLEY":" ","HOUSE_NO":"５號","E_COORD97":172692.07999999999,"N_COORD97":2565512.1600000001,"ADDRESS":"新生北路４２０巷５號","OBJECTID":313519},"geometry":{"x":172692.08000000101,"y":2565512.160000002}},{"attributes":{"ID":313528,"DIS_CODE":0,"TOWNNAME":"麻豆區","LI":"油車里","LIN":"7鄰","STREET":"新生北路","SECT":" ","MAREA":" ","LANE":"４２０巷","ALLEY":" ","HOUSE_NO":"７號","E_COORD97":172693.64000000001,"N_COORD97":2565508.3399999999,"ADDRESS":"新生北路４２０巷７號","OBJECTID":313520},"geometry":{"x":172693.63999999966,"y":2565508.3399999999}},{"attributes":{"ID":313529,"DIS_CODE":0,"TOWNNAME":"麻豆區","LI":"油車里","LIN":"7鄰","STREET":"新生北路","SECT":" ","MAREA":" ","LANE":"４２０巷","ALLEY":" ","HOUSE_NO":"８號","E_COORD97":172671.76000000001,"N_COORD97":2565508.3999999999,"ADDRESS":"新生北路４２０巷８號","OBJECTID":313521},"geometry":{"x":172671.76000000071,"y":2565508.4000000022}},{"attributes":{"ID":313530,"DIS_CODE":0,"TOWNNAME":"麻豆區","LI":"油車里","LIN":"7鄰","STREET":"新生北路","SECT":" ","MAREA":" ","LANE":"４２０巷","ALLEY":" ","HOUSE_NO":"９號","E_COORD97":172695.20000000001,"N_COORD97":2565504.52,"ADDRESS":"新生北路４２０巷９號","OBJECTID":313522},"geometry":{"x":172695.20000000019,"y":2565504.5199999996}},{"attributes":{"ID":313531,"DIS_CODE":0,"TOWNNAME":"麻豆區","LI":"新建里","LIN":"7鄰","STREET":"新生南路","SECT":" ","MAREA":" ","LANE":"２３巷","ALLEY":" ","HOUSE_NO":"１號","E_COORD97":172355.79000000001,"N_COORD97":2564866.0299999998,"ADDRESS":"新生南路２３巷１號","OBJECTID":313523},"geometry":{"x":172355.79000000004,"y":2564866.0299999993}},{"attributes":{"ID":313532,"DIS_CODE":0,"TOWNNAME":"麻豆區","LI":"新建里","LIN":"7鄰","STREET":"新生南路","SECT":" ","MAREA":" ","LANE":"２３巷","ALLEY":" ","HOUSE_NO":"３號","E_COORD97":172357.85999999999,"N_COORD97":2564877.7999999998,"ADDRESS":"新生南路２３巷３號","OBJECTID":313524},"geometry":{"x":172357.86000000127,"y":2564877.8000000026}},{"attributes":{"ID":313533,"DIS_CODE":0,"TOWNNAME":"麻豆區","LI":"興農里","LIN":"7鄰","STREET":"新生南路","SECT":" ","MAREA":" ","LANE":"２６２巷","ALLEY":" ","HOUSE_NO":"１０號","E_COORD97":172289.64999999999,"N_COORD97":2564339.4100000001,"ADDRESS":"新生南路２６２巷１０號","OBJECTID":313525},"geometry":{"x":172289.65000000224,"y":2564339.4100000001}},{"attributes":{"ID":313534,"DIS_CODE":0,"TOWNNAME":"麻豆區","LI":"興農里","LIN":"7鄰","STREET":"新生南路","SECT":" ","MAREA":" ","LANE":"２６２巷","ALLEY":" ","HOUSE_NO":"１１號","E_COORD97":172301.26000000001,"N_COORD97":2564311.79,"ADDRESS":"新生南路２６２巷１１號","OBJECTID":313526},"geometry":{"x":172301.25999999978,"y":2564311.7899999991}},{"attributes":{"ID":313535,"DIS_CODE":0,"TOWNNAME":"安平區","LI":"怡平里","LIN":"26鄰","STREET":"平通路","SECT":" ","MAREA":" ","LANE":"３６５巷","ALLEY":" ","HOUSE_NO":"３６號","E_COORD97":165650.85000000001,"N_COORD97":2543605.1699999999,"ADDRESS":"平通路３６５巷３６號","OBJECTID":313527},"geometry":{"x":165650.85000000149,"y":2543605.1699999999}},{"attributes":{"ID":313536,"DIS_CODE":0,"TOWNNAME":"六甲區","LI":"二甲里","LIN":"16鄰","STREET":"民權街","SECT":" ","MAREA":" ","LANE":"１６２巷","ALLEY":" ","HOUSE_NO":"２號","E_COORD97":183225.56,"N_COORD97":2569729.0499999998,"ADDRESS":"民權街１６２巷２號","OBJECTID":313528},"geometry":{"x":183225.56000000052,"y":2569729.0500000007}},{"attributes":{"ID":313537,"DIS_CODE":0,"TOWNNAME":"麻豆區","LI":"興農里","LIN":"7鄰","STREET":"新生南路","SECT":" ","MAREA":" ","LANE":"２６２巷","ALLEY":" ","HOUSE_NO":"１２號","E_COORD97":172283.60999999999,"N_COORD97":2564337.0899999999,"ADDRESS":"新生南路２６２巷１２號","OBJECTID":313529},"geometry":{"x":172283.61000000127,"y":2564337.0899999999}},{"attributes":{"ID":313538,"DIS_CODE":0,"TOWNNAME":"永康區","LI":"六合里","LIN":"17鄰","STREET":"中華路","SECT":" ","MAREA":" ","LANE":" ","ALLEY":" ","HOUSE_NO":"５０３號","E_COORD97":171220.95999999999,"N_COORD97":2545813.5,"ADDRESS":"中華路５０３號","OBJECTID":313530},"geometry":{"x":171220.96000000089,"y":2545813.5}},{"attributes":{"ID":313539,"DIS_CODE":0,"TOWNNAME":"安南區","LI":"頂安里","LIN":"3鄰","STREET":"怡安路","SECT":"一段","MAREA":" ","LANE":" ","ALLEY":" ","HOUSE_NO":"３５５號","E_COORD97":168739.87817000001,"N_COORD97":2549141.2418399998,"ADDRESS":"怡安路一段３５５號","OBJECTID":313531},"geometry":{"x":168739.87817000132,"y":2549141.2418410014}},{"attributes":{"ID":313540,"DIS_CODE":0,"TOWNNAME":"麻豆區","LI":"興農里","LIN":"7鄰","STREET":"新生南路","SECT":" ","MAREA":" ","LANE":"２６２巷","ALLEY":" ","HOUSE_NO":"１３號","E_COORD97":172301.07999999999,"N_COORD97":2564317.9199999999,"ADDRESS":"新生南路２６２巷１３號","OBJECTID":313532},"geometry":{"x":172301.08000000007,"y":2564317.9199999999}},{"attributes":{"ID":313541,"DIS_CODE":0,"TOWNNAME":"麻豆區","LI":"興農里","LIN":"7鄰","STREET":"新生南路","SECT":" ","MAREA":" ","LANE":"２６２巷","ALLEY":" ","HOUSE_NO":"１４號","E_COORD97":172277.85999999999,"N_COORD97":2564335.3399999999,"ADDRESS":"新生南路２６２巷１４號","OBJECTID":313533},"geometry":{"x":172277.8599999994,"y":2564335.3399999999}},{"attributes":{"ID":313542,"DIS_CODE":0,"TOWNNAME":"麻豆區","LI":"興農里","LIN":"7鄰","STREET":"新生南路","SECT":" ","MAREA":" ","LANE":"２６２巷","ALLEY":" ","HOUSE_NO":"６號","E_COORD97":172300.98999999999,"N_COORD97":2564343.5800000001,"ADDRESS":"新生南路２６２巷６號","OBJECTID":313534},"geometry":{"x":172300.99000000115,"y":2564343.5800000019}},{"attributes":{"ID":313543,"DIS_CODE":0,"TOWNNAME":"麻豆區","LI":"興農里","LIN":"7鄰","STREET":"新生南路","SECT":" ","MAREA":" ","LANE":"２６２巷","ALLEY":" ","HOUSE_NO":"７號","E_COORD97":172301.85999999999,"N_COORD97":2564299.8100000001,"ADDRESS":"新生南路２６２巷７號","OBJECTID":313535},"geometry":{"x":172301.86000000127,"y":2564299.8100000005}},{"attributes":{"ID":313544,"DIS_CODE":0,"TOWNNAME":"麻豆區","LI":"興農里","LIN":"7鄰","STREET":"新生南路","SECT":" ","MAREA":" ","LANE":"２６２巷","ALLEY":" ","HOUSE_NO":"８號","E_COORD97":172295.26999999999,"N_COORD97":2564341.4900000002,"ADDRESS":"新生南路２６２巷８號","OBJECTID":313536},"geometry":{"x":172295.27000000048,"y":2564341.4900000002}},{"attributes":{"ID":313545,"DIS_CODE":0,"TOWNNAME":"麻豆區","LI":"興農里","LIN":"7鄰","STREET":"新生南路","SECT":" ","MAREA":" ","LANE":"２６２巷","ALLEY":" ","HOUSE_NO":"９號","E_COORD97":172301.48000000001,"N_COORD97":2564305.4399999999,"ADDRESS":"新生南路２６２巷９號","OBJECTID":313537},"geometry":{"x":172301.48000000138,"y":2564305.4400000032}},{"attributes":{"ID":313546,"DIS_CODE":0,"TOWNNAME":"麻豆區","LI":"新建里","LIN":"7鄰","STREET":"新生南路","SECT":" ","MAREA":" ","LANE":"３３巷","ALLEY":" ","HOUSE_NO":"２３號","E_COORD97":172382.88,"N_COORD97":2564876.4199999999,"ADDRESS":"新生南路３３巷２３號","OBJECTID":313538},"geometry":{"x":172382.88000000082,"y":2564876.4200000018}},{"attributes":{"ID":313547,"DIS_CODE":0,"TOWNNAME":"麻豆區","LI":"新建里","LIN":"7鄰","STREET":"新生南路","SECT":" ","MAREA":" ","LANE":"３３巷","ALLEY":" ","HOUSE_NO":"２５號","E_COORD97":172386.87,"N_COORD97":2564876.3599999999,"ADDRESS":"新生南路３３巷２５號","OBJECTID":313539},"geometry":{"x":172386.87000000104,"y":2564876.3600000013}},{"attributes":{"ID":313548,"DIS_CODE":0,"TOWNNAME":"麻豆區","LI":"新建里","LIN":"7鄰","STREET":"新生南路","SECT":" ","MAREA":" ","LANE":"３３巷","ALLEY":" ","HOUSE_NO":"２７號","E_COORD97":172390.85999999999,"N_COORD97":2564876.2999999998,"ADDRESS":"新生南路３３巷２７號","OBJECTID":313540},"geometry":{"x":172390.86000000034,"y":2564876.3000000007}},{"attributes":{"ID":313549,"DIS_CODE":0,"TOWNNAME":"麻豆區","LI":"新建里","LIN":"7鄰","STREET":"新生南路","SECT":" ","MAREA":" ","LANE":"３３巷","ALLEY":" ","HOUSE_NO":"２９號","E_COORD97":172394.85000000001,"N_COORD97":2564876.2400000002,"ADDRESS":"新生南路３３巷２９號","OBJECTID":313541},"geometry":{"x":172394.85000000056,"y":2564876.2400000002}},{"attributes":{"ID":313550,"DIS_CODE":0,"TOWNNAME":"麻豆區","LI":"新建里","LIN":"7鄰","STREET":"新生南路","SECT":" ","MAREA":" ","LANE":"３３巷","ALLEY":" ","HOUSE_NO":"３１號","E_COORD97":172398.84,"N_COORD97":2564876.1699999999,"ADDRESS":"新生南路３３巷３１號","OBJECTID":313542},"geometry":{"x":172398.83999999985,"y":2564876.1699999999}},{"attributes":{"ID":313551,"DIS_CODE":0,"TOWNNAME":"麻豆區","LI":"新建里","LIN":"7鄰","STREET":"新生南路","SECT":" ","MAREA":" ","LANE":"３３巷","ALLEY":" ","HOUSE_NO":"３３號","E_COORD97":172402.82999999999,"N_COORD97":2564876.1099999999,"ADDRESS":"新生南路３３巷３３號","OBJECTID":313543},"geometry":{"x":172402.83000000007,"y":2564876.1099999994}},{"attributes":{"ID":313552,"DIS_CODE":0,"TOWNNAME":"麻豆區","LI":"新建里","LIN":"7鄰","STREET":"新生南路","SECT":" ","MAREA":" ","LANE":"３３巷","ALLEY":" ","HOUSE_NO":"３５號","E_COORD97":172409.23999999999,"N_COORD97":2564870.52,"ADDRESS":"新生南路３３巷３５號","OBJECTID":313544},"geometry":{"x":172409.24000000209,"y":2564870.5199999996}},{"attributes":{"ID":313553,"DIS_CODE":0,"TOWNNAME":"麻豆區","LI":"新建里","LIN":"7鄰","STREET":"新生南路","SECT":" ","MAREA":" ","LANE":"３３巷","ALLEY":" ","HOUSE_NO":"３７號","E_COORD97":172415.64000000001,"N_COORD97":2564870.4399999999,"ADDRESS":"新生南路３３巷３７號","OBJECTID":313545},"geometry":{"x":172415.63999999966,"y":2564870.4399999995}},{"attributes":{"ID":313554,"DIS_CODE":0,"TOWNNAME":"麻豆區","LI":"新建里","LIN":"7鄰","STREET":"新生南路","SECT":" ","MAREA":" ","LANE":"３３巷","ALLEY":" ","HOUSE_NO":"４１號","E_COORD97":172422.04999999999,"N_COORD97":2564870.3500000001,"ADDRESS":"新生南路３３巷４１號","OBJECTID":313546},"geometry":{"x":172422.05000000168,"y":2564870.3500000015}},{"attributes":{"ID":313555,"DIS_CODE":0,"TOWNNAME":"六甲區","LI":"王爺里","LIN":"1鄰","STREET":" ","SECT":" ","MAREA":"西港湖","LANE":" ","ALLEY":" ","HOUSE_NO":"１０號","E_COORD97":190006.79999999999,"N_COORD97":2570418.0899999999,"ADDRESS":"西港湖１０號","OBJECTID":313547},"geometry":{"x":190006.80000000075,"y":2570418.0900000017}},{"attributes":{"ID":313556,"DIS_CODE":0,"TOWNNAME":"六甲區","LI":"王爺里","LIN":"1鄰","STREET":" ","SECT":" ","MAREA":"西港湖","LANE":" ","ALLEY":" ","HOUSE_NO":"１６號","E_COORD97":189965.98000000001,"N_COORD97":2570428.5899999999,"ADDRESS":"西港湖１６號","OBJECTID":313548},"geometry":{"x":189965.98000000045,"y":2570428.5900000017}},{"attributes":{"ID":313557,"DIS_CODE":0,"TOWNNAME":"關廟區","LI":"田中里","LIN":"4鄰","STREET":"中大街","SECT":" ","MAREA":" ","LANE":" ","ALLEY":" ","HOUSE_NO":"８９號","E_COORD97":184197.52395,"N_COORD97":2533739.3521799999,"ADDRESS":"中大街８９號","OBJECTID":313549},"geometry":{"x":184197.52395000216,"y":2533739.3521840014}},{"attributes":{"ID":313558,"DIS_CODE":0,"TOWNNAME":"麻豆區","LI":"新建里","LIN":"7鄰","STREET":"新生南路","SECT":" ","MAREA":" ","LANE":"３３巷","ALLEY":" ","HOUSE_NO":"４３號","E_COORD97":172428.45000000001,"N_COORD97":2564870.27,"ADDRESS":"新生南路３３巷４３號","OBJECTID":313550},"geometry":{"x":172428.45000000112,"y":2564870.2700000014}},{"attributes":{"ID":313559,"DIS_CODE":0,"TOWNNAME":"六甲區","LI":"王爺里","LIN":"1鄰","STREET":" ","SECT":" ","MAREA":"西港湖","LANE":" ","ALLEY":" ","HOUSE_NO":"１號","E_COORD97":189707.38,"N_COORD97":2570349.6400000001,"ADDRESS":"西港湖１號","OBJECTID":313551},"geometry":{"x":189707.38000000175,"y":2570349.6400000006}},{"attributes":{"ID":313560,"DIS_CODE":0,"TOWNNAME":"六甲區","LI":"王爺里","LIN":"1鄰","STREET":" ","SECT":" ","MAREA":"西港湖","LANE":" ","ALLEY":" ","HOUSE_NO":"２號","E_COORD97":189748.42000000001,"N_COORD97":2570383.7000000002,"ADDRESS":"西港湖２號","OBJECTID":313552},"geometry":{"x":189748.42000000086,"y":2570383.7000000011}},{"attributes":{"ID":313561,"DIS_CODE":0,"TOWNNAME":"六甲區","LI":"王爺里","LIN":"1鄰","STREET":" ","SECT":" ","MAREA":"西港湖","LANE":" ","ALLEY":" ","HOUSE_NO":"３號","E_COORD97":189842.31,"N_COORD97":2570365.1699999999,"ADDRESS":"西港湖３號","OBJECTID":313553},"geometry":{"x":189842.30999999959,"y":2570365.1699999999}},{"attributes":{"ID":313562,"DIS_CODE":0,"TOWNNAME":"麻豆區","LI":"新建里","LIN":"7鄰","STREET":"新生南路","SECT":" ","MAREA":" ","LANE":"３３巷","ALLEY":" ","HOUSE_NO":"９號","E_COORD97":172350.59,"N_COORD97":2564850.6600000001,"ADDRESS":"新生南路３３巷９號","OBJECTID":313554},"geometry":{"x":172350.59000000171,"y":2564850.6600000039}},{"attributes":{"ID":313563,"DIS_CODE":0,"TOWNNAME":"歸仁區","LI":"六甲里","LIN":"42鄰","STREET":"民生十二街","SECT":" ","MAREA":" ","LANE":"５９巷","ALLEY":" ","HOUSE_NO":"２號","E_COORD97":175904.95000000001,"N_COORD97":2539451.7999999998,"ADDRESS":"民生十二街５９巷２號","OBJECTID":313555},"geometry":{"x":175904.95000000205,"y":2539451.8000000007}},{"attributes":{"ID":313564,"DIS_CODE":0,"TOWNNAME":"歸仁區","LI":"南保里","LIN":"7鄰","STREET":"文化街","SECT":"三段","MAREA":" ","LANE":"１８巷","ALLEY":" ","HOUSE_NO":"６號","E_COORD97":176968.29000000001,"N_COORD97":2541307.3300000001,"ADDRESS":"文化街三段１８巷６號","OBJECTID":313556},"geometry":{"x":176968.29000000004,"y":2541307.3300000019}},{"attributes":{"ID":313565,"DIS_CODE":0,"TOWNNAME":"歸仁區","LI":"六甲里","LIN":"39鄰","STREET":"六甲八街","SECT":" ","MAREA":" ","LANE":"１４９巷","ALLEY":" ","HOUSE_NO":"１３８號","E_COORD97":175268.60000000001,"N_COORD97":2539871.73,"ADDRESS":"六甲八街１４９巷１３８號","OBJECTID":313557},"geometry":{"x":175268.59999999963,"y":2539871.7300000004}},{"attributes":{"ID":313566,"DIS_CODE":0,"TOWNNAME":"歸仁區","LI":"許厝里","LIN":"7鄰","STREET":"仁愛八街","SECT":" ","MAREA":" ","LANE":"３３巷","ALLEY":" ","HOUSE_NO":"３號","E_COORD97":178176.95999999999,"N_COORD97":2540613.4199999999,"ADDRESS":"仁愛八街３３巷３號","OBJECTID":313558},"geometry":{"x":178176.96000000089,"y":2540613.4199999999}},{"attributes":{"ID":313567,"DIS_CODE":0,"TOWNNAME":"歸仁區","LI":"歸南里","LIN":"7鄰","STREET":"中正十六街","SECT":" ","MAREA":" ","LANE":"２巷","ALLEY":" ","HOUSE_NO":"２３號","E_COORD97":176552.16,"N_COORD97":2539854.9500000002,"ADDRESS":"中正十六街２巷２３號","OBJECTID":313559},"geometry":{"x":176552.16000000015,"y":2539854.9500000011}},{"attributes":{"ID":313568,"DIS_CODE":0,"TOWNNAME":"歸仁區","LI":"歸南里","LIN":"7鄰","STREET":"中正十六街","SECT":" ","MAREA":" ","LANE":"２巷","ALLEY":" ","HOUSE_NO":"２７號","E_COORD97":176556.35999999999,"N_COORD97":2539873.9500000002,"ADDRESS":"中正十六街２巷２７號","OBJECTID":313560},"geometry":{"x":176556.36000000034,"y":2539873.950000003}},{"attributes":{"ID":313569,"DIS_CODE":0,"TOWNNAME":"麻豆區","LI":"大埕里","LIN":"9鄰","STREET":" ","SECT":" ","MAREA":"大埕","LANE":" ","ALLEY":" ","HOUSE_NO":"５４號","E_COORD97":173067.03,"N_COORD97":2565423.23,"ADDRESS":"大埕５４號","OBJECTID":313561},"geometry":{"x":173067.03000000119,"y":2565423.2300000042}},{"attributes":{"ID":313570,"DIS_CODE":0,"TOWNNAME":"歸仁區","LI":"歸南里","LIN":"7鄰","STREET":"中正十六街","SECT":" ","MAREA":" ","LANE":"２巷","ALLEY":" ","HOUSE_NO":"３７號","E_COORD97":176564.76000000001,"N_COORD97":2539907.9500000002,"ADDRESS":"中正十六街２巷３７號","OBJECTID":313562},"geometry":{"x":176564.75999999978,"y":2539907.950000003}},{"attributes":{"ID":313571,"DIS_CODE":0,"TOWNNAME":"歸仁區","LI":"看東里","LIN":"7鄰","STREET":"成功路","SECT":"一段","MAREA":" ","LANE":"１５９巷","ALLEY":" ","HOUSE_NO":"１９號","E_COORD97":178550,"N_COORD97":2540093.4500000002,"ADDRESS":"成功路一段１５９巷１９號","OBJECTID":313563},"geometry":{"x":178550,"y":2540093.4499999993}},{"attributes":{"ID":313572,"DIS_CODE":0,"TOWNNAME":"歸仁區","LI":"崙頂里","LIN":"7鄰","STREET":"崙頂一街","SECT":" ","MAREA":" ","LANE":"３２巷","ALLEY":" ","HOUSE_NO":"１５號","E_COORD97":177951.16,"N_COORD97":2539941.1099999999,"ADDRESS":"崙頂一街３２巷１５號","OBJECTID":313564},"geometry":{"x":177951.15999999922,"y":2539941.1100000031}},{"attributes":{"ID":313573,"DIS_CODE":0,"TOWNNAME":"歸仁區","LI":"六甲里","LIN":"14鄰","STREET":"六甲路","SECT":" ","MAREA":" ","LANE":"２５７巷","ALLEY":" ","HOUSE_NO":"１０號","E_COORD97":175881.12,"N_COORD97":2539171.25,"ADDRESS":"六甲路２５７巷１０號","OBJECTID":313565},"geometry":{"x":175881.12000000011,"y":2539171.2500000019}},{"attributes":{"ID":313574,"DIS_CODE":0,"TOWNNAME":"歸仁區","LI":"武東里","LIN":"7鄰","STREET":"武東一街","SECT":" ","MAREA":" ","LANE":"４８巷","ALLEY":" ","HOUSE_NO":"２５號","E_COORD97":175585.48999999999,"N_COORD97":2535374.25,"ADDRESS":"武東一街４８巷２５號","OBJECTID":313566},"geometry":{"x":175585.49000000022,"y":2535374.2500000019}},{"attributes":{"ID":313575,"DIS_CODE":0,"TOWNNAME":"歸仁區","LI":"南保里","LIN":"7鄰","STREET":"文化街","SECT":"三段","MAREA":" ","LANE":"１８巷","ALLEY":" ","HOUSE_NO":"１２號","E_COORD97":176983.84,"N_COORD97":2541304.3300000001,"ADDRESS":"文化街三段１８巷１２號","OBJECTID":313567},"geometry":{"x":176983.84000000078,"y":2541304.3300000019}},{"attributes":{"ID":313576,"DIS_CODE":0,"TOWNNAME":"歸仁區","LI":"西埔里","LIN":"7鄰","STREET":"西埔一街","SECT":" ","MAREA":" ","LANE":"６５巷","ALLEY":" ","HOUSE_NO":"１號","E_COORD97":177109.22,"N_COORD97":2544336.25,"ADDRESS":"西埔一街６５巷１號","OBJECTID":313568},"geometry":{"x":177109.21999999974,"y":2544336.25}},{"attributes":{"ID":313577,"DIS_CODE":0,"TOWNNAME":"歸仁區","LI":"西埔里","LIN":"7鄰","STREET":"西埔一街","SECT":" ","MAREA":" ","LANE":"６５巷","ALLEY":" ","HOUSE_NO":"８號","E_COORD97":177061.12,"N_COORD97":2544351.25,"ADDRESS":"西埔一街６５巷８號","OBJECTID":313569},"geometry":{"x":177061.12000000011,"y":2544351.2499999981}},{"attributes":{"ID":313578,"DIS_CODE":0,"TOWNNAME":"歸仁區","LI":"武東里","LIN":"7鄰","STREET":"武東二街","SECT":" ","MAREA":" ","LANE":"４２巷","ALLEY":" ","HOUSE_NO":"１２７號","E_COORD97":175870.73999999999,"N_COORD97":2535360.25,"ADDRESS":"武東二街４２巷１２７號","OBJECTID":313570},"geometry":{"x":175870.74000000209,"y":2535360.2500000037}},{"attributes":{"ID":313579,"DIS_CODE":0,"TOWNNAME":"歸仁區","LI":"看西里","LIN":"7鄰","STREET":"信義南路","SECT":" ","MAREA":" ","LANE":"１８７巷","ALLEY":" ","HOUSE_NO":"１號","E_COORD97":178162.95999999999,"N_COORD97":2540241.4900000002,"ADDRESS":"信義南路１８７巷１號","OBJECTID":313571},"geometry":{"x":178162.96000000089,"y":2540241.4900000021}},{"attributes":{"ID":313580,"DIS_CODE":0,"TOWNNAME":"歸仁區","LI":"七甲里","LIN":"7鄰","STREET":"七甲三街","SECT":" ","MAREA":" ","LANE":"５２巷","ALLEY":" ","HOUSE_NO":"１號","E_COORD97":177552.48999999999,"N_COORD97":2542851.6600000001,"ADDRESS":"七甲三街５２巷１號","OBJECTID":313572},"geometry":{"x":177552.49000000209,"y":2542851.660000002}},{"attributes":{"ID":313581,"DIS_CODE":0,"TOWNNAME":"歸仁區","LI":"七甲里","LIN":"7鄰","STREET":"七甲一街","SECT":" ","MAREA":" ","LANE":"５５巷","ALLEY":" ","HOUSE_NO":"１６號","E_COORD97":177594.54000000001,"N_COORD97":2542574.6600000001,"ADDRESS":"七甲一街５５巷１６號","OBJECTID":313573},"geometry":{"x":177594.54000000097,"y":2542574.6600000001}},{"attributes":{"ID":313582,"DIS_CODE":0,"TOWNNAME":"六甲區","LI":"中社里","LIN":"20鄰","STREET":" ","SECT":" ","MAREA":"林鳳營","LANE":" ","ALLEY":" ","HOUSE_NO":"２４０之４８號","E_COORD97":180295.72,"N_COORD97":2571123.2000000002,"ADDRESS":"林鳳營２４０之４８號","OBJECTID":313574},"geometry":{"x":180295.71999999974,"y":2571123.1999999993}},{"attributes":{"ID":313583,"DIS_CODE":0,"TOWNNAME":"六甲區","LI":"中社里","LIN":"20鄰","STREET":" ","SECT":" ","MAREA":"林鳳營","LANE":" ","ALLEY":" ","HOUSE_NO":"２４０號之４８","E_COORD97":180295.72,"N_COORD97":2571123.2000000002,"ADDRESS":"林鳳營２４０號之４８","OBJECTID":313575},"geometry":{"x":180295.71999999974,"y":2571123.1999999993}},{"attributes":{"ID":313584,"DIS_CODE":0,"TOWNNAME":"六甲區","LI":"中社里","LIN":"20鄰","STREET":" ","SECT":" ","MAREA":"林鳳營","LANE":" ","ALLEY":" ","HOUSE_NO":"２４０號之４９","E_COORD97":180299.75,"N_COORD97":2571123.8399999999,"ADDRESS":"林鳳營２４０號之４９","OBJECTID":313576},"geometry":{"x":180299.75,"y":2571123.8399999999}},{"attributes":{"ID":313585,"DIS_CODE":0,"TOWNNAME":"六甲區","LI":"中社里","LIN":"20鄰","STREET":" ","SECT":" ","MAREA":"林鳳營","LANE":" ","ALLEY":" ","HOUSE_NO":"２４０號之５０","E_COORD97":180303.98000000001,"N_COORD97":2571124.5899999999,"ADDRESS":"林鳳營２４０號之５０","OBJECTID":313577},"geometry":{"x":180303.98000000231,"y":2571124.5899999999}},{"attributes":{"ID":313586,"DIS_CODE":0,"TOWNNAME":"六甲區","LI":"甲東里","LIN":"14鄰","STREET":"忠孝街","SECT":" ","MAREA":" ","LANE":"１４６巷","ALLEY":" ","HOUSE_NO":"７號","E_COORD97":184035.87,"N_COORD97":2569840.4700000002,"ADDRESS":"忠孝街１４６巷７號","OBJECTID":313578},"geometry":{"x":184035.87000000104,"y":2569840.4700000025}},{"attributes":{"ID":313587,"DIS_CODE":0,"TOWNNAME":"六甲區","LI":"甲東里","LIN":"18鄰","STREET":"忠孝街","SECT":" ","MAREA":" ","LANE":"１６８巷","ALLEY":" ","HOUSE_NO":"８號","E_COORD97":184063.26999999999,"N_COORD97":2569876.52,"ADDRESS":"忠孝街１６８巷８號","OBJECTID":313579},"geometry":{"x":184063.27000000048,"y":2569876.5200000014}},{"attributes":{"ID":313588,"DIS_CODE":0,"TOWNNAME":"六甲區","LI":"甲東里","LIN":"13鄰","STREET":"忠孝街","SECT":" ","MAREA":" ","LANE":"１６８巷","ALLEY":" ","HOUSE_NO":"３號","E_COORD97":184037.29999999999,"N_COORD97":2569908.4399999999,"ADDRESS":"忠孝街１６８巷３號","OBJECTID":313580},"geometry":{"x":184037.30000000168,"y":2569908.4399999995}},{"attributes":{"ID":313589,"DIS_CODE":0,"TOWNNAME":"六甲區","LI":"甲東里","LIN":"4鄰","STREET":"忠孝街","SECT":" ","MAREA":" ","LANE":"２１７巷","ALLEY":" ","HOUSE_NO":"１０號","E_COORD97":183979.66,"N_COORD97":2570089.5600000001,"ADDRESS":"忠孝街２１７巷１０號","OBJECTID":313581},"geometry":{"x":183979.66000000108,"y":2570089.5600000042}},{"attributes":{"ID":313590,"DIS_CODE":0,"TOWNNAME":"六甲區","LI":"甲東里","LIN":"4鄰","STREET":"忠孝街","SECT":" ","MAREA":" ","LANE":"２１７巷","ALLEY":" ","HOUSE_NO":"１４號","E_COORD97":183950.53,"N_COORD97":2570072.9300000002,"ADDRESS":"忠孝街２１７巷１４號","OBJECTID":313582},"geometry":{"x":183950.53000000119,"y":2570072.9300000034}},{"attributes":{"ID":313591,"DIS_CODE":0,"TOWNNAME":"六甲區","LI":"甲東里","LIN":"3鄰","STREET":"忠孝街","SECT":" ","MAREA":" ","LANE":"２１７巷","ALLEY":" ","HOUSE_NO":"１３號","E_COORD97":183958.92000000001,"N_COORD97":2570021.29,"ADDRESS":"忠孝街２１７巷１３號","OBJECTID":313583},"geometry":{"x":183958.92000000086,"y":2570021.2899999991}},{"attributes":{"ID":313592,"DIS_CODE":0,"TOWNNAME":"六甲區","LI":"甲東里","LIN":"3鄰","STREET":"忠孝街","SECT":" ","MAREA":" ","LANE":"２１７巷","ALLEY":" ","HOUSE_NO":"１６號","E_COORD97":183939.32000000001,"N_COORD97":2570051.5499999998,"ADDRESS":"忠孝街２１７巷１６號","OBJECTID":313584},"geometry":{"x":183939.31999999937,"y":2570051.5500000007}},{"attributes":{"ID":313593,"DIS_CODE":0,"TOWNNAME":"六甲區","LI":"二甲里","LIN":"24鄰","STREET":"信義街","SECT":" ","MAREA":" ","LANE":"３１８巷","ALLEY":" ","HOUSE_NO":"１０號","E_COORD97":183418.70999999999,"N_COORD97":2569950.8199999998,"ADDRESS":"信義街３１８巷１０號","OBJECTID":313585},"geometry":{"x":183418.70999999996,"y":2569950.8200000003}},{"attributes":{"ID":313594,"DIS_CODE":0,"TOWNNAME":"歸仁區","LI":"歸南里","LIN":"7鄰","STREET":"中正十六街","SECT":" ","MAREA":" ","LANE":"２巷","ALLEY":" ","HOUSE_NO":"２４號","E_COORD97":176577.51000000001,"N_COORD97":2539869.9500000002,"ADDRESS":"中正十六街２巷２４號","OBJECTID":313586},"geometry":{"x":176577.51000000071,"y":2539869.9499999993}},{"attributes":{"ID":313595,"DIS_CODE":0,"TOWNNAME":"歸仁區","LI":"七甲里","LIN":"7鄰","STREET":"七甲三街","SECT":" ","MAREA":" ","LANE":"５２巷","ALLEY":" ","HOUSE_NO":"２５號","E_COORD97":177577.04000000001,"N_COORD97":2542787.6600000001,"ADDRESS":"七甲三街５２巷２５號","OBJECTID":313587},"geometry":{"x":177577.04000000004,"y":2542787.6600000001}},{"attributes":{"ID":313596,"DIS_CODE":0,"TOWNNAME":"佳里區","LI":"忠仁里","LIN":"17鄰","STREET":"博愛街","SECT":" ","MAREA":" ","LANE":" ","ALLEY":" ","HOUSE_NO":"４９號","E_COORD97":166038.23000000001,"N_COORD97":2562007.71,"ADDRESS":"博愛街４９號","OBJECTID":313588},"geometry":{"x":166038.23000000045,"y":2562007.7100000028}},{"attributes":{"ID":313597,"DIS_CODE":0,"TOWNNAME":"佳里區","LI":"忠仁里","LIN":"17鄰","STREET":"博愛街","SECT":" ","MAREA":" ","LANE":" ","ALLEY":" ","HOUSE_NO":"５１號","E_COORD97":166034.09,"N_COORD97":2562006.9700000002,"ADDRESS":"博愛街５１號","OBJECTID":313589},"geometry":{"x":166034.08999999892,"y":2562006.9700000007}},{"attributes":{"ID":313598,"DIS_CODE":0,"TOWNNAME":"佳里區","LI":"忠仁里","LIN":"17鄰","STREET":"博愛街","SECT":" ","MAREA":" ","LANE":" ","ALLEY":" ","HOUSE_NO":"５３號","E_COORD97":166029.98000000001,"N_COORD97":2562006.4199999999,"ADDRESS":"博愛街５３號","OBJECTID":313590},"geometry":{"x":166029.98000000045,"y":2562006.4199999999}},{"attributes":{"ID":313599,"DIS_CODE":0,"TOWNNAME":"仁德區","LI":"一甲里","LIN":"17鄰","STREET":"正義三街","SECT":" ","MAREA":" ","LANE":" ","ALLEY":" ","HOUSE_NO":"３０５號","E_COORD97":174206.57000000001,"N_COORD97":2541462.02,"ADDRESS":"正義三街３０５號","OBJECTID":313591},"geometry":{"x":174206.5700000003,"y":2541462.0200000014}},{"attributes":{"ID":313600,"DIS_CODE":0,"TOWNNAME":"仁德區","LI":"新田里","LIN":"17鄰","STREET":"民安路","SECT":"二段","MAREA":" ","LANE":" ","ALLEY":" ","HOUSE_NO":"８５號","E_COORD97":173548.98000000001,"N_COORD97":2539201.5699999998,"ADDRESS":"民安路二段８５號","OBJECTID":313592},"geometry":{"x":173548.98000000138,"y":2539201.5700000003}},{"attributes":{"ID":313601,"DIS_CODE":0,"TOWNNAME":"新化區","LI":"太平里","LIN":"17鄰","STREET":"忠孝路","SECT":" ","MAREA":" ","LANE":" ","ALLEY":" ","HOUSE_NO":"１１６號之３","E_COORD97":178730.26999999999,"N_COORD97":2548663.2599999998,"ADDRESS":"忠孝路１１６號之３","OBJECTID":313593},"geometry":{"x":178730.27000000048,"y":2548663.2599999998}},{"attributes":{"ID":313602,"DIS_CODE":0,"TOWNNAME":"新化區","LI":"東榮里","LIN":"17鄰","STREET":"中興路","SECT":" ","MAREA":" ","LANE":" ","ALLEY":" ","HOUSE_NO":"６２３號","E_COORD97":179754.01000000001,"N_COORD97":2547993.25,"ADDRESS":"中興路６２３號","OBJECTID":313594},"geometry":{"x":179754.01000000071,"y":2547993.2500000019}},{"attributes":{"ID":313603,"DIS_CODE":0,"TOWNNAME":"新化區","LI":"太平里","LIN":"17鄰","STREET":"忠孝路","SECT":" ","MAREA":" ","LANE":" ","ALLEY":" ","HOUSE_NO":"１３６號之２","E_COORD97":178638.48000000001,"N_COORD97":2548688.2599999998,"ADDRESS":"忠孝路１３６號之２","OBJECTID":313595},"geometry":{"x":178638.48000000045,"y":2548688.2600000016}},{"attributes":{"ID":313604,"DIS_CODE":0,"TOWNNAME":"新化區","LI":"太平里","LIN":"17鄰","STREET":"太平街","SECT":" ","MAREA":" ","LANE":" ","ALLEY":" ","HOUSE_NO":"９５號之６","E_COORD97":178619.12,"N_COORD97":2548733.2599999998,"ADDRESS":"太平街９５號之６","OBJECTID":313596},"geometry":{"x":178619.12000000011,"y":2548733.2599999998}},{"attributes":{"ID":313605,"DIS_CODE":0,"TOWNNAME":"六甲區","LI":"中社里","LIN":"18鄰","STREET":" ","SECT":" ","MAREA":"林鳳營","LANE":" ","ALLEY":" ","HOUSE_NO":"１４０號","E_COORD97":180447.14000000001,"N_COORD97":2571319.6400000001,"ADDRESS":"林鳳營１４０號","OBJECTID":313597},"geometry":{"x":180447.13999999966,"y":2571319.6399999987}},{"attributes":{"ID":313606,"DIS_CODE":0,"TOWNNAME":"新營區","LI":"忠政里","LIN":"7鄰","STREET":"中正路","SECT":" ","MAREA":" ","LANE":"３７巷","ALLEY":" ","HOUSE_NO":"１５號","E_COORD97":180018.81,"N_COORD97":2579124.1299999999,"ADDRESS":"中正路３７巷１５號","OBJECTID":313598},"geometry":{"x":180018.80999999959,"y":2579124.1300000008}},{"attributes":{"ID":313607,"DIS_CODE":0,"TOWNNAME":"歸仁區","LI":"歸南里","LIN":"26鄰","STREET":"民生十街","SECT":" ","MAREA":" ","LANE":"１８巷","ALLEY":" ","HOUSE_NO":"１５號","E_COORD97":176088.44,"N_COORD97":2540259.29,"ADDRESS":"民生十街１８巷１５號","OBJECTID":313599},"geometry":{"x":176088.44000000134,"y":2540259.290000001}},{"attributes":{"ID":313608,"DIS_CODE":0,"TOWNNAME":"歸仁區","LI":"西埔里","LIN":"14鄰","STREET":"西埔二街","SECT":" ","MAREA":" ","LANE":"８７巷","ALLEY":" ","HOUSE_NO":"１號","E_COORD97":176736.54000000001,"N_COORD97":2544714.25,"ADDRESS":"西埔二街８７巷１號","OBJECTID":313600},"geometry":{"x":176736.5400000019,"y":2544714.2500000037}}]}