{"displayFieldName":"TOWNNAME","fieldAliases":{"ID":"ID","DIS_CODE":"DIS_CODE","TOWNNAME":"TOWNNAME","LI":"LI","LIN":"LIN","STREET":"STREET","SECT":"SECT","MAREA":"MAREA","LANE":"LANE","ALLEY":"ALLEY","HOUSE_NO":"HOUSE_NO","E_COORD97":"E_COORD97","N_COORD97":"N_COORD97","ADDRESS":"ADDRESS","OBJECTID":"OBJECTID"},"geometryType":"esriGeometryPoint","spatialReference":{"wkid":102443,"latestWkid":3826},"fields":[{"name":"ID","type":"esriFieldTypeDouble","alias":"ID"},{"name":"DIS_CODE","type":"esriFieldTypeInteger","alias":"DIS_CODE"},{"name":"TOWNNAME","type":"esriFieldTypeString","alias":"TOWNNAME","length":8},{"name":"LI","type":"esriFieldTypeString","alias":"LI","length":8},{"name":"LIN","type":"esriFieldTypeString","alias":"LIN","length":12},{"name":"STREET","type":"esriFieldTypeString","alias":"STREET","length":20},{"name":"SECT","type":"esriFieldTypeString","alias":"SECT","length":8},{"name":"MAREA","type":"esriFieldTypeString","alias":"MAREA","length":12},{"name":"LANE","type":"esriFieldTypeString","alias":"LANE","length":10},{"name":"ALLEY","type":"esriFieldTypeString","alias":"ALLEY","length":10},{"name":"HOUSE_NO","type":"esriFieldTypeString","alias":"HOUSE_NO","length":20},{"name":"E_COORD97","type":"esriFieldTypeDouble","alias":"E_COORD97"},{"name":"N_COORD97","type":"esriFieldTypeDouble","alias":"N_COORD97"},{"name":"ADDRESS","type":"esriFieldTypeString","alias":"ADDRESS","length":50},{"name":"OBJECTID","type":"esriFieldTypeOID","alias":"OBJECTID"}],"features":[{"attributes":{"ID":92401,"DIS_CODE":0,"TOWNNAME":"仁德區","LI":"上崙里","LIN":"10鄰","STREET":"德善路","SECT":" ","MAREA":" ","LANE":"３０５巷","ALLEY":"１３弄","HOUSE_NO":"２０６號","E_COORD97":174094.12,"N_COORD97":2538225.8900000001,"ADDRESS":"德善路３０５巷１３弄２０６號","OBJECTID":92401},"geometry":{"x":174094.12000000011,"y":2538225.8900000025}},{"attributes":{"ID":92402,"DIS_CODE":0,"TOWNNAME":"六甲區","LI":"大丘里","LIN":"15鄰","STREET":" ","SECT":" ","MAREA":"南勢坑","LANE":" ","ALLEY":" ","HOUSE_NO":"２３號","E_COORD97":192956.07999999999,"N_COORD97":2567273.75,"ADDRESS":"南勢坑２３號","OBJECTID":92402},"geometry":{"x":192956.08000000101,"y":2567273.7500000037}},{"attributes":{"ID":92403,"DIS_CODE":0,"TOWNNAME":"六甲區","LI":"大丘里","LIN":"15鄰","STREET":" ","SECT":" ","MAREA":"南勢坑","LANE":" ","ALLEY":" ","HOUSE_NO":"２４號","E_COORD97":192949.57999999999,"N_COORD97":2567291.6699999999,"ADDRESS":"南勢坑２４號","OBJECTID":92403},"geometry":{"x":192949.58000000101,"y":2567291.6700000018}},{"attributes":{"ID":92404,"DIS_CODE":0,"TOWNNAME":"六甲區","LI":"大丘里","LIN":"15鄰","STREET":" ","SECT":" ","MAREA":"南勢坑","LANE":" ","ALLEY":" ","HOUSE_NO":"２５號","E_COORD97":192928.5,"N_COORD97":2567259.6200000001,"ADDRESS":"南勢坑２５號","OBJECTID":92404},"geometry":{"x":192928.5,"y":2567259.6200000029}},{"attributes":{"ID":92405,"DIS_CODE":0,"TOWNNAME":"六甲區","LI":"大丘里","LIN":"15鄰","STREET":" ","SECT":" ","MAREA":"南勢坑","LANE":" ","ALLEY":" ","HOUSE_NO":"２７號","E_COORD97":192958.98999999999,"N_COORD97":2567454.1600000001,"ADDRESS":"南勢坑２７號","OBJECTID":92405},"geometry":{"x":192958.99000000115,"y":2567454.1600000039}},{"attributes":{"ID":92406,"DIS_CODE":0,"TOWNNAME":"仁德區","LI":"上崙里","LIN":"10鄰","STREET":"德善路","SECT":" ","MAREA":" ","LANE":"３０５巷","ALLEY":"１３弄","HOUSE_NO":"１１６號","E_COORD97":174065.06,"N_COORD97":2538332.5299999998,"ADDRESS":"德善路３０５巷１３弄１１６號","OBJECTID":92406},"geometry":{"x":174065.06000000052,"y":2538332.5300000012}},{"attributes":{"ID":92407,"DIS_CODE":0,"TOWNNAME":"仁德區","LI":"上崙里","LIN":"10鄰","STREET":"德善路","SECT":" ","MAREA":" ","LANE":"３０５巷","ALLEY":"１３弄","HOUSE_NO":"１９０號","E_COORD97":174075.5,"N_COORD97":2538237.3900000001,"ADDRESS":"德善路３０５巷１３弄１９０號","OBJECTID":92407},"geometry":{"x":174075.50000000093,"y":2538237.3900000006}},{"attributes":{"ID":92408,"DIS_CODE":0,"TOWNNAME":"仁德區","LI":"上崙里","LIN":"10鄰","STREET":"德善路","SECT":" ","MAREA":" ","LANE":"３０５巷","ALLEY":"１３弄","HOUSE_NO":"１０４號","E_COORD97":174053.69,"N_COORD97":2538372.54,"ADDRESS":"德善路３０５巷１３弄１０４號","OBJECTID":92408},"geometry":{"x":174053.69000000041,"y":2538372.540000001}},{"attributes":{"ID":92409,"DIS_CODE":0,"TOWNNAME":"六甲區","LI":"大丘里","LIN":"15鄰","STREET":" ","SECT":" ","MAREA":"南勢坑","LANE":" ","ALLEY":" ","HOUSE_NO":"２９之５號","E_COORD97":193301.57000000001,"N_COORD97":2567400.73,"ADDRESS":"南勢坑２９之５號","OBJECTID":92409},"geometry":{"x":193301.5700000003,"y":2567400.7300000023}},{"attributes":{"ID":92410,"DIS_CODE":0,"TOWNNAME":"善化區","LI":"東隆里","LIN":"10鄰","STREET":" ","SECT":" ","MAREA":"東勢寮","LANE":" ","ALLEY":" ","HOUSE_NO":"２８０號","E_COORD97":179922.01999999999,"N_COORD97":2561287.5099999998,"ADDRESS":"東勢寮２８０號","OBJECTID":92410},"geometry":{"x":179922.02000000048,"y":2561287.5099999979}},{"attributes":{"ID":92411,"DIS_CODE":0,"TOWNNAME":"善化區","LI":"東隆里","LIN":"10鄰","STREET":" ","SECT":" ","MAREA":"東勢寮","LANE":" ","ALLEY":" ","HOUSE_NO":"２７４號","E_COORD97":179891.39999999999,"N_COORD97":2561157.2599999998,"ADDRESS":"東勢寮２７４號","OBJECTID":92411},"geometry":{"x":179891.4000000013,"y":2561157.2600000035}},{"attributes":{"ID":92412,"DIS_CODE":0,"TOWNNAME":"善化區","LI":"東昌里","LIN":"10鄰","STREET":" ","SECT":" ","MAREA":"東勢寮","LANE":" ","ALLEY":" ","HOUSE_NO":"９４號之２","E_COORD97":180272.70000000001,"N_COORD97":2561816.77,"ADDRESS":"東勢寮９４號之２","OBJECTID":92412},"geometry":{"x":180272.70000000019,"y":2561816.7699999996}},{"attributes":{"ID":92413,"DIS_CODE":0,"TOWNNAME":"善化區","LI":"東隆里","LIN":"10鄰","STREET":" ","SECT":" ","MAREA":"東勢寮","LANE":" ","ALLEY":" ","HOUSE_NO":"２２６號之７","E_COORD97":179806.35000000001,"N_COORD97":2561467.52,"ADDRESS":"東勢寮２２６號之７","OBJECTID":92413},"geometry":{"x":179806.35000000056,"y":2561467.5200000014}},{"attributes":{"ID":92414,"DIS_CODE":0,"TOWNNAME":"善化區","LI":"溪美里","LIN":"10鄰","STREET":" ","SECT":" ","MAREA":"溪尾","LANE":" ","ALLEY":" ","HOUSE_NO":"９７之３號","E_COORD97":176712.48999999999,"N_COORD97":2561396.27,"ADDRESS":"溪尾９７之３號","OBJECTID":92414},"geometry":{"x":176712.49000000022,"y":2561396.2699999996}},{"attributes":{"ID":92415,"DIS_CODE":0,"TOWNNAME":"善化區","LI":"東隆里","LIN":"10鄰","STREET":" ","SECT":" ","MAREA":"東勢寮","LANE":" ","ALLEY":" ","HOUSE_NO":"２２１號","E_COORD97":179896.06,"N_COORD97":2561409.7599999998,"ADDRESS":"東勢寮２２１號","OBJECTID":92415},"geometry":{"x":179896.06000000052,"y":2561409.7600000016}},{"attributes":{"ID":92416,"DIS_CODE":0,"TOWNNAME":"仁德區","LI":"上崙里","LIN":"10鄰","STREET":"德善路","SECT":" ","MAREA":" ","LANE":"３０５巷","ALLEY":"１３弄","HOUSE_NO":"１３６號","E_COORD97":174074.45999999999,"N_COORD97":2538302.5699999998,"ADDRESS":"德善路３０５巷１３弄１３６號","OBJECTID":92416},"geometry":{"x":174074.46000000089,"y":2538302.5700000022}},{"attributes":{"ID":92417,"DIS_CODE":0,"TOWNNAME":"善化區","LI":"東昌里","LIN":"10鄰","STREET":" ","SECT":" ","MAREA":"東勢寮","LANE":" ","ALLEY":" ","HOUSE_NO":"９４號之５","E_COORD97":180282.79999999999,"N_COORD97":2561783.52,"ADDRESS":"東勢寮９４號之５","OBJECTID":92417},"geometry":{"x":180282.80000000075,"y":2561783.5200000014}},{"attributes":{"ID":92418,"DIS_CODE":0,"TOWNNAME":"善化區","LI":"溪美里","LIN":"10鄰","STREET":" ","SECT":" ","MAREA":"溪尾","LANE":" ","ALLEY":" ","HOUSE_NO":"９７之９號","E_COORD97":176741.22,"N_COORD97":2561406.02,"ADDRESS":"溪尾９７之９號","OBJECTID":92418},"geometry":{"x":176741.21999999974,"y":2561406.0200000033}},{"attributes":{"ID":92419,"DIS_CODE":0,"TOWNNAME":"善化區","LI":"東昌里","LIN":"10鄰","STREET":" ","SECT":" ","MAREA":"東勢寮","LANE":" ","ALLEY":" ","HOUSE_NO":"９５之２號","E_COORD97":180234.29999999999,"N_COORD97":2561814.52,"ADDRESS":"東勢寮９５之２號","OBJECTID":92419},"geometry":{"x":180234.29999999981,"y":2561814.5200000014}},{"attributes":{"ID":92420,"DIS_CODE":0,"TOWNNAME":"善化區","LI":"東昌里","LIN":"10鄰","STREET":" ","SECT":" ","MAREA":"東勢寮","LANE":" ","ALLEY":" ","HOUSE_NO":"９５之８號","E_COORD97":180247.94,"N_COORD97":2561790.52,"ADDRESS":"東勢寮９５之８號","OBJECTID":92420},"geometry":{"x":180247.94000000041,"y":2561790.5200000014}},{"attributes":{"ID":92421,"DIS_CODE":0,"TOWNNAME":"善化區","LI":"溪美里","LIN":"10鄰","STREET":" ","SECT":" ","MAREA":"溪尾","LANE":" ","ALLEY":" ","HOUSE_NO":"９４之３號","E_COORD97":176778.67999999999,"N_COORD97":2561417.27,"ADDRESS":"溪尾９４之３號","OBJECTID":92421},"geometry":{"x":176778.6799999997,"y":2561417.2699999996}},{"attributes":{"ID":92422,"DIS_CODE":0,"TOWNNAME":"善化區","LI":"溪美里","LIN":"10鄰","STREET":" ","SECT":" ","MAREA":"溪尾","LANE":" ","ALLEY":" ","HOUSE_NO":"９７號","E_COORD97":176716.16,"N_COORD97":2561373.77,"ADDRESS":"溪尾９７號","OBJECTID":92422},"geometry":{"x":176716.16000000108,"y":2561373.7700000033}},{"attributes":{"ID":92423,"DIS_CODE":0,"TOWNNAME":"善化區","LI":"溪美里","LIN":"10鄰","STREET":" ","SECT":" ","MAREA":"溪尾","LANE":" ","ALLEY":" ","HOUSE_NO":"９７之２號","E_COORD97":176707.01000000001,"N_COORD97":2561385.27,"ADDRESS":"溪尾９７之２號","OBJECTID":92423},"geometry":{"x":176707.00999999978,"y":2561385.2700000014}},{"attributes":{"ID":92424,"DIS_CODE":0,"TOWNNAME":"善化區","LI":"東隆里","LIN":"10鄰","STREET":" ","SECT":" ","MAREA":"東勢寮","LANE":" ","ALLEY":" ","HOUSE_NO":"２２６之５號","E_COORD97":179843.23000000001,"N_COORD97":2561474.7599999998,"ADDRESS":"東勢寮２２６之５號","OBJECTID":92424},"geometry":{"x":179843.23000000138,"y":2561474.7599999998}},{"attributes":{"ID":92425,"DIS_CODE":0,"TOWNNAME":"善化區","LI":"溪美里","LIN":"10鄰","STREET":" ","SECT":" ","MAREA":"溪尾","LANE":" ","ALLEY":" ","HOUSE_NO":"９３號","E_COORD97":176808.34,"N_COORD97":2561421.27,"ADDRESS":"溪尾９３號","OBJECTID":92425},"geometry":{"x":176808.33999999985,"y":2561421.2700000033}},{"attributes":{"ID":92426,"DIS_CODE":0,"TOWNNAME":"善化區","LI":"溪美里","LIN":"10鄰","STREET":" ","SECT":" ","MAREA":"溪尾","LANE":" ","ALLEY":" ","HOUSE_NO":"９１號之１","E_COORD97":176840.23000000001,"N_COORD97":2561394.02,"ADDRESS":"溪尾９１號之１","OBJECTID":92426},"geometry":{"x":176840.23000000045,"y":2561394.0200000014}},{"attributes":{"ID":92427,"DIS_CODE":0,"TOWNNAME":"善化區","LI":"東隆里","LIN":"10鄰","STREET":" ","SECT":" ","MAREA":"東勢寮","LANE":" ","ALLEY":" ","HOUSE_NO":"２２６號之６","E_COORD97":179850.20000000001,"N_COORD97":2561478.52,"ADDRESS":"東勢寮２２６號之６","OBJECTID":92427},"geometry":{"x":179850.20000000112,"y":2561478.5200000014}},{"attributes":{"ID":92428,"DIS_CODE":0,"TOWNNAME":"仁德區","LI":"上崙里","LIN":"10鄰","STREET":"德善路","SECT":" ","MAREA":" ","LANE":"３０５巷","ALLEY":"１３弄","HOUSE_NO":"９９號","E_COORD97":174067.76999999999,"N_COORD97":2538374.7200000002,"ADDRESS":"德善路３０５巷１３弄９９號","OBJECTID":92428},"geometry":{"x":174067.76999999862,"y":2538374.7200000007}},{"attributes":{"ID":92429,"DIS_CODE":0,"TOWNNAME":"仁德區","LI":"上崙里","LIN":"10鄰","STREET":"德善路","SECT":" ","MAREA":" ","LANE":"３０５巷","ALLEY":"１３弄","HOUSE_NO":"９８號","E_COORD97":174049.32999999999,"N_COORD97":2538385.7799999998,"ADDRESS":"德善路３０５巷１３弄９８號","OBJECTID":92429},"geometry":{"x":174049.33000000194,"y":2538385.7799999993}},{"attributes":{"ID":92430,"DIS_CODE":0,"TOWNNAME":"六甲區","LI":"中社里","LIN":"15鄰","STREET":" ","SECT":" ","MAREA":"港子頭","LANE":" ","ALLEY":" ","HOUSE_NO":"４６號","E_COORD97":180660.12,"N_COORD97":2571201.7200000002,"ADDRESS":"港子頭４６號","OBJECTID":92430},"geometry":{"x":180660.12000000011,"y":2571201.7200000025}},{"attributes":{"ID":92431,"DIS_CODE":0,"TOWNNAME":"仁德區","LI":"上崙里","LIN":"10鄰","STREET":"德善路","SECT":" ","MAREA":" ","LANE":"３０５巷","ALLEY":"１３弄","HOUSE_NO":"１７２號","E_COORD97":174061.34,"N_COORD97":2538257.3300000001,"ADDRESS":"德善路３０５巷１３弄１７２號","OBJECTID":92431},"geometry":{"x":174061.34000000078,"y":2538257.3300000001}},{"attributes":{"ID":92432,"DIS_CODE":0,"TOWNNAME":"仁德區","LI":"上崙里","LIN":"10鄰","STREET":"德善路","SECT":" ","MAREA":" ","LANE":"３０５巷","ALLEY":"１３弄","HOUSE_NO":"１１３號","E_COORD97":174072.67999999999,"N_COORD97":2538363.4700000002,"ADDRESS":"德善路３０５巷１３弄１１３號","OBJECTID":92432},"geometry":{"x":174072.68000000063,"y":2538363.4700000044}},{"attributes":{"ID":92433,"DIS_CODE":0,"TOWNNAME":"仁德區","LI":"上崙里","LIN":"10鄰","STREET":"德善路","SECT":" ","MAREA":" ","LANE":"３０５巷","ALLEY":"１３弄","HOUSE_NO":"１２９號","E_COORD97":174101.12,"N_COORD97":2538346.4700000002,"ADDRESS":"德善路３０５巷１３弄１２９號","OBJECTID":92433},"geometry":{"x":174101.12000000011,"y":2538346.4700000044}},{"attributes":{"ID":92434,"DIS_CODE":0,"TOWNNAME":"仁德區","LI":"上崙里","LIN":"10鄰","STREET":"德善路","SECT":" ","MAREA":" ","LANE":"３０５巷","ALLEY":"１３弄","HOUSE_NO":"６３號","E_COORD97":174070.85999999999,"N_COORD97":2538445.2000000002,"ADDRESS":"德善路３０５巷１３弄６３號","OBJECTID":92434},"geometry":{"x":174070.86000000034,"y":2538445.200000003}},{"attributes":{"ID":92435,"DIS_CODE":0,"TOWNNAME":"仁德區","LI":"上崙里","LIN":"10鄰","STREET":"德善路","SECT":" ","MAREA":" ","LANE":"３０５巷","ALLEY":"１３弄","HOUSE_NO":"９０號","E_COORD97":174044.63,"N_COORD97":2538401.5299999998,"ADDRESS":"德善路３０５巷１３弄９０號","OBJECTID":92435},"geometry":{"x":174044.62999999989,"y":2538401.5299999993}},{"attributes":{"ID":92436,"DIS_CODE":0,"TOWNNAME":"仁德區","LI":"上崙里","LIN":"10鄰","STREET":"德善路","SECT":" ","MAREA":" ","LANE":"３０５巷","ALLEY":"１３弄","HOUSE_NO":"１５８號","E_COORD97":174078.26999999999,"N_COORD97":2538291.8199999998,"ADDRESS":"德善路３０５巷１３弄１５８號","OBJECTID":92436},"geometry":{"x":174078.27000000048,"y":2538291.8200000003}},{"attributes":{"ID":92437,"DIS_CODE":0,"TOWNNAME":"仁德區","LI":"上崙里","LIN":"10鄰","STREET":"德善路","SECT":" ","MAREA":" ","LANE":"３０５巷","ALLEY":"１３弄","HOUSE_NO":"１７４號","E_COORD97":174066.64999999999,"N_COORD97":2538258.8300000001,"ADDRESS":"德善路３０５巷１３弄１７４號","OBJECTID":92437},"geometry":{"x":174066.6500000013,"y":2538258.8300000019}},{"attributes":{"ID":92438,"DIS_CODE":0,"TOWNNAME":"仁德區","LI":"上崙里","LIN":"10鄰","STREET":"德善路","SECT":" ","MAREA":" ","LANE":"３０５巷","ALLEY":"１３弄","HOUSE_NO":"１８８號","E_COORD97":174079.42999999999,"N_COORD97":2538238.3900000001,"ADDRESS":"德善路３０５巷１３弄１８８號","OBJECTID":92438},"geometry":{"x":174079.43000000063,"y":2538238.3900000043}},{"attributes":{"ID":92439,"DIS_CODE":0,"TOWNNAME":"仁德區","LI":"上崙里","LIN":"10鄰","STREET":"德善路","SECT":" ","MAREA":" ","LANE":"３０５巷","ALLEY":"１３弄","HOUSE_NO":"１７８號","E_COORD97":174076.34,"N_COORD97":2538261.5800000001,"ADDRESS":"德善路３０５巷１３弄１７８號","OBJECTID":92439},"geometry":{"x":174076.34000000078,"y":2538261.5800000019}},{"attributes":{"ID":92440,"DIS_CODE":0,"TOWNNAME":"仁德區","LI":"上崙里","LIN":"10鄰","STREET":"德善路","SECT":" ","MAREA":" ","LANE":"３０５巷","ALLEY":"１３弄","HOUSE_NO":"１１４號","E_COORD97":174063.45999999999,"N_COORD97":2538337.2799999998,"ADDRESS":"德善路３０５巷１３弄１１４號","OBJECTID":92440},"geometry":{"x":174063.45999999996,"y":2538337.2800000012}},{"attributes":{"ID":92441,"DIS_CODE":0,"TOWNNAME":"仁德區","LI":"上崙里","LIN":"10鄰","STREET":"德善路","SECT":" ","MAREA":" ","LANE":"３０５巷","ALLEY":"１３弄","HOUSE_NO":"１１１號","E_COORD97":174087.26000000001,"N_COORD97":2538366.7200000002,"ADDRESS":"德善路３０５巷１３弄１１１號","OBJECTID":92441},"geometry":{"x":174087.26000000071,"y":2538366.7200000007}},{"attributes":{"ID":92442,"DIS_CODE":0,"TOWNNAME":"仁德區","LI":"上崙里","LIN":"10鄰","STREET":"德善路","SECT":" ","MAREA":" ","LANE":"３０５巷","ALLEY":"１３弄","HOUSE_NO":"６６號","E_COORD97":174033.89999999999,"N_COORD97":2538439.79,"ADDRESS":"德善路３０５巷１３弄６６號","OBJECTID":92442},"geometry":{"x":174033.90000000224,"y":2538439.7899999991}},{"attributes":{"ID":92443,"DIS_CODE":0,"TOWNNAME":"六甲區","LI":"中社里","LIN":"15鄰","STREET":" ","SECT":" ","MAREA":"港子頭","LANE":" ","ALLEY":" ","HOUSE_NO":"４７號","E_COORD97":180589.69,"N_COORD97":2571242.3700000001,"ADDRESS":"港子頭４７號","OBJECTID":92443},"geometry":{"x":180589.69000000134,"y":2571242.3700000029}},{"attributes":{"ID":92444,"DIS_CODE":0,"TOWNNAME":"六甲區","LI":"中社里","LIN":"15鄰","STREET":" ","SECT":" ","MAREA":"港子頭","LANE":" ","ALLEY":" ","HOUSE_NO":"４８號之１","E_COORD97":180584.12,"N_COORD97":2571329.6499999999,"ADDRESS":"港子頭４８號之１","OBJECTID":92444},"geometry":{"x":180584.12000000197,"y":2571329.6500000041}},{"attributes":{"ID":92445,"DIS_CODE":0,"TOWNNAME":"六甲區","LI":"中社里","LIN":"15鄰","STREET":" ","SECT":" ","MAREA":"港子頭","LANE":" ","ALLEY":" ","HOUSE_NO":"６１號","E_COORD97":180576.32999999999,"N_COORD97":2571070.7999999998,"ADDRESS":"港子頭６１號","OBJECTID":92445},"geometry":{"x":180576.33000000101,"y":2571070.8000000007}},{"attributes":{"ID":92446,"DIS_CODE":0,"TOWNNAME":"善化區","LI":"東昌里","LIN":"10鄰","STREET":" ","SECT":" ","MAREA":"東勢寮","LANE":" ","ALLEY":" ","HOUSE_NO":"９４號之１","E_COORD97":180276.44,"N_COORD97":2561817.02,"ADDRESS":"東勢寮９４號之１","OBJECTID":92446},"geometry":{"x":180276.44000000041,"y":2561817.0200000014}},{"attributes":{"ID":92447,"DIS_CODE":0,"TOWNNAME":"善化區","LI":"東昌里","LIN":"10鄰","STREET":" ","SECT":" ","MAREA":"東勢寮","LANE":" ","ALLEY":" ","HOUSE_NO":"９４號之３","E_COORD97":180268.75,"N_COORD97":2561816.52,"ADDRESS":"東勢寮９４號之３","OBJECTID":92447},"geometry":{"x":180268.75,"y":2561816.5200000033}},{"attributes":{"ID":92448,"DIS_CODE":0,"TOWNNAME":"善化區","LI":"嘉北里","LIN":"10鄰","STREET":" ","SECT":" ","MAREA":"茄拔","LANE":" ","ALLEY":" ","HOUSE_NO":"２０２之３號","E_COORD97":180878.04999999999,"N_COORD97":2560064.27,"ADDRESS":"茄拔２０２之３號","OBJECTID":92448},"geometry":{"x":180878.05000000075,"y":2560064.2699999996}},{"attributes":{"ID":92449,"DIS_CODE":0,"TOWNNAME":"善化區","LI":"東隆里","LIN":"10鄰","STREET":" ","SECT":" ","MAREA":"東勢寮","LANE":" ","ALLEY":" ","HOUSE_NO":"２２２號","E_COORD97":179876.85000000001,"N_COORD97":2561417.7599999998,"ADDRESS":"東勢寮２２２號","OBJECTID":92449},"geometry":{"x":179876.85000000149,"y":2561417.7599999998}},{"attributes":{"ID":92450,"DIS_CODE":0,"TOWNNAME":"善化區","LI":"東隆里","LIN":"10鄰","STREET":" ","SECT":" ","MAREA":"東勢寮","LANE":" ","ALLEY":" ","HOUSE_NO":"２３１號","E_COORD97":179812.51000000001,"N_COORD97":2561419.5099999998,"ADDRESS":"東勢寮２３１號","OBJECTID":92450},"geometry":{"x":179812.50999999978,"y":2561419.5099999998}},{"attributes":{"ID":92451,"DIS_CODE":0,"TOWNNAME":"善化區","LI":"東隆里","LIN":"10鄰","STREET":" ","SECT":" ","MAREA":"東勢寮","LANE":" ","ALLEY":" ","HOUSE_NO":"２７１號","E_COORD97":179894.23999999999,"N_COORD97":2561113.7599999998,"ADDRESS":"東勢寮２７１號","OBJECTID":92451},"geometry":{"x":179894.24000000115,"y":2561113.7600000016}},{"attributes":{"ID":92452,"DIS_CODE":0,"TOWNNAME":"善化區","LI":"溪美里","LIN":"10鄰","STREET":" ","SECT":" ","MAREA":"溪尾","LANE":" ","ALLEY":" ","HOUSE_NO":"８９號之３","E_COORD97":176840.12,"N_COORD97":2561398.52,"ADDRESS":"溪尾８９號之３","OBJECTID":92452},"geometry":{"x":176840.12000000104,"y":2561398.5199999996}},{"attributes":{"ID":92453,"DIS_CODE":0,"TOWNNAME":"善化區","LI":"東昌里","LIN":"10鄰","STREET":" ","SECT":" ","MAREA":"東勢寮","LANE":" ","ALLEY":" ","HOUSE_NO":"９４號之８","E_COORD97":180270.95000000001,"N_COORD97":2561783.02,"ADDRESS":"東勢寮９４號之８","OBJECTID":92453},"geometry":{"x":180270.95000000019,"y":2561783.0200000014}},{"attributes":{"ID":92454,"DIS_CODE":0,"TOWNNAME":"善化區","LI":"東隆里","LIN":"10鄰","STREET":" ","SECT":" ","MAREA":"東勢寮","LANE":" ","ALLEY":" ","HOUSE_NO":"２７３號","E_COORD97":179901.04999999999,"N_COORD97":2561137.0099999998,"ADDRESS":"東勢寮２７３號","OBJECTID":92454},"geometry":{"x":179901.05000000168,"y":2561137.0099999998}},{"attributes":{"ID":92455,"DIS_CODE":0,"TOWNNAME":"善化區","LI":"溪美里","LIN":"10鄰","STREET":" ","SECT":" ","MAREA":"溪尾","LANE":" ","ALLEY":" ","HOUSE_NO":"９７之８號","E_COORD97":176736.73999999999,"N_COORD97":2561404.52,"ADDRESS":"溪尾９７之８號","OBJECTID":92455},"geometry":{"x":176736.74000000022,"y":2561404.5199999996}},{"attributes":{"ID":92456,"DIS_CODE":0,"TOWNNAME":"善化區","LI":"胡家里","LIN":"10鄰","STREET":" ","SECT":" ","MAREA":"胡厝寮","LANE":" ","ALLEY":" ","HOUSE_NO":"８６號之１","E_COORD97":175389.53,"N_COORD97":2560608.27,"ADDRESS":"胡厝寮８６號之１","OBJECTID":92456},"geometry":{"x":175389.53000000119,"y":2560608.2700000014}},{"attributes":{"ID":92457,"DIS_CODE":0,"TOWNNAME":"善化區","LI":"東昌里","LIN":"10鄰","STREET":" ","SECT":" ","MAREA":"東勢寮","LANE":" ","ALLEY":" ","HOUSE_NO":"９６號之３","E_COORD97":180202.95999999999,"N_COORD97":2561813.27,"ADDRESS":"東勢寮９６號之３","OBJECTID":92457},"geometry":{"x":180202.95999999996,"y":2561813.2699999996}},{"attributes":{"ID":92458,"DIS_CODE":0,"TOWNNAME":"麻豆區","LI":"北勢里","LIN":"10鄰","STREET":" ","SECT":" ","MAREA":"北勢寮","LANE":" ","ALLEY":" ","HOUSE_NO":"１０號之２８","E_COORD97":172415.20000000001,"N_COORD97":2566236.4900000002,"ADDRESS":"北勢寮１０號之２８","OBJECTID":92458},"geometry":{"x":172415.20000000112,"y":2566236.4900000021}},{"attributes":{"ID":92459,"DIS_CODE":0,"TOWNNAME":"麻豆區","LI":"北勢里","LIN":"10鄰","STREET":" ","SECT":" ","MAREA":"北勢寮","LANE":" ","ALLEY":" ","HOUSE_NO":"１０號之３０","E_COORD97":171724.84,"N_COORD97":2566350.1899999999,"ADDRESS":"北勢寮１０號之３０","OBJECTID":92459},"geometry":{"x":171724.83999999892,"y":2566350.1899999995}},{"attributes":{"ID":92460,"DIS_CODE":0,"TOWNNAME":"麻豆區","LI":"北勢里","LIN":"10鄰","STREET":" ","SECT":" ","MAREA":"北勢寮","LANE":" ","ALLEY":" ","HOUSE_NO":"１０號之３５","E_COORD97":171712.39000000001,"N_COORD97":2567165.8799999999,"ADDRESS":"北勢寮１０號之３５","OBJECTID":92460},"geometry":{"x":171712.38999999966,"y":2567165.879999999}},{"attributes":{"ID":92461,"DIS_CODE":0,"TOWNNAME":"麻豆區","LI":"北勢里","LIN":"10鄰","STREET":" ","SECT":" ","MAREA":"北勢寮","LANE":" ","ALLEY":" ","HOUSE_NO":"１０號之３","E_COORD97":172035.45000000001,"N_COORD97":2566866.7400000002,"ADDRESS":"北勢寮１０號之３","OBJECTID":92461},"geometry":{"x":172035.45000000112,"y":2566866.7400000002}},{"attributes":{"ID":92462,"DIS_CODE":0,"TOWNNAME":"麻豆區","LI":"北勢里","LIN":"10鄰","STREET":" ","SECT":" ","MAREA":"北勢寮","LANE":" ","ALLEY":" ","HOUSE_NO":"１０號之４５","E_COORD97":171663.85999999999,"N_COORD97":2567143.8100000001,"ADDRESS":"北勢寮１０號之４５","OBJECTID":92462},"geometry":{"x":171663.86000000034,"y":2567143.8100000005}},{"attributes":{"ID":92463,"DIS_CODE":0,"TOWNNAME":"仁德區","LI":"上崙里","LIN":"10鄰","STREET":"德善路","SECT":" ","MAREA":" ","LANE":"３０５巷","ALLEY":"１３弄","HOUSE_NO":"８２號","E_COORD97":174025.44,"N_COORD97":2538406.3500000001,"ADDRESS":"德善路３０５巷１３弄８２號","OBJECTID":92463},"geometry":{"x":174025.44000000134,"y":2538406.3499999996}},{"attributes":{"ID":92464,"DIS_CODE":0,"TOWNNAME":"麻豆區","LI":"北勢里","LIN":"10鄰","STREET":" ","SECT":" ","MAREA":"北勢寮","LANE":" ","ALLEY":" ","HOUSE_NO":"１０號之５","E_COORD97":172043.69,"N_COORD97":2567224.0600000001,"ADDRESS":"北勢寮１０號之５","OBJECTID":92464},"geometry":{"x":172043.69000000227,"y":2567224.0600000005}},{"attributes":{"ID":92465,"DIS_CODE":0,"TOWNNAME":"麻豆區","LI":"北勢里","LIN":"10鄰","STREET":" ","SECT":" ","MAREA":"北勢寮","LANE":" ","ALLEY":" ","HOUSE_NO":"１０號","E_COORD97":172087.5,"N_COORD97":2567179.4399999999,"ADDRESS":"北勢寮１０號","OBJECTID":92465},"geometry":{"x":172087.50000000093,"y":2567179.4399999995}},{"attributes":{"ID":92466,"DIS_CODE":0,"TOWNNAME":"麻豆區","LI":"北勢里","LIN":"10鄰","STREET":" ","SECT":" ","MAREA":"北勢寮","LANE":" ","ALLEY":" ","HOUSE_NO":"１１號之１","E_COORD97":172160.57999999999,"N_COORD97":2567011.8700000001,"ADDRESS":"北勢寮１１號之１","OBJECTID":92466},"geometry":{"x":172160.58000000007,"y":2567011.870000001}},{"attributes":{"ID":92467,"DIS_CODE":0,"TOWNNAME":"麻豆區","LI":"北勢里","LIN":"10鄰","STREET":" ","SECT":" ","MAREA":"北勢寮","LANE":" ","ALLEY":" ","HOUSE_NO":"１１號","E_COORD97":172159.87,"N_COORD97":2566979.4700000002,"ADDRESS":"北勢寮１１號","OBJECTID":92467},"geometry":{"x":172159.87000000011,"y":2566979.4700000025}},{"attributes":{"ID":92468,"DIS_CODE":0,"TOWNNAME":"麻豆區","LI":"北勢里","LIN":"10鄰","STREET":" ","SECT":" ","MAREA":"北勢寮","LANE":" ","ALLEY":" ","HOUSE_NO":"１２號之１","E_COORD97":172203.48999999999,"N_COORD97":2567004.3599999999,"ADDRESS":"北勢寮１２號之１","OBJECTID":92468},"geometry":{"x":172203.49000000022,"y":2567004.3599999975}},{"attributes":{"ID":92469,"DIS_CODE":0,"TOWNNAME":"仁德區","LI":"上崙里","LIN":"10鄰","STREET":"德善路","SECT":" ","MAREA":" ","LANE":"３０５巷","ALLEY":"１３弄","HOUSE_NO":"１８０號","E_COORD97":174081.01000000001,"N_COORD97":2538263.3300000001,"ADDRESS":"德善路３０５巷１３弄１８０號","OBJECTID":92469},"geometry":{"x":174081.00999999978,"y":2538263.3300000019}},{"attributes":{"ID":92470,"DIS_CODE":0,"TOWNNAME":"麻豆區","LI":"北勢里","LIN":"10鄰","STREET":" ","SECT":" ","MAREA":"北勢寮","LANE":" ","ALLEY":" ","HOUSE_NO":"１２號之２","E_COORD97":172196.20999999999,"N_COORD97":2567012.3599999999,"ADDRESS":"北勢寮１２號之２","OBJECTID":92470},"geometry":{"x":172196.21000000089,"y":2567012.3600000013}},{"attributes":{"ID":92471,"DIS_CODE":0,"TOWNNAME":"麻豆區","LI":"北勢里","LIN":"10鄰","STREET":" ","SECT":" ","MAREA":"北勢寮","LANE":" ","ALLEY":" ","HOUSE_NO":"１３號之１２","E_COORD97":172111.64000000001,"N_COORD97":2567078.02,"ADDRESS":"北勢寮１３號之１２","OBJECTID":92471},"geometry":{"x":172111.6400000006,"y":2567078.0199999977}},{"attributes":{"ID":92472,"DIS_CODE":0,"TOWNNAME":"麻豆區","LI":"北勢里","LIN":"10鄰","STREET":" ","SECT":" ","MAREA":"北勢寮","LANE":" ","ALLEY":" ","HOUSE_NO":"１３號之１８","E_COORD97":171952.72,"N_COORD97":2567247.6800000002,"ADDRESS":"北勢寮１３號之１８","OBJECTID":92472},"geometry":{"x":171952.71999999881,"y":2567247.6800000016}},{"attributes":{"ID":92473,"DIS_CODE":0,"TOWNNAME":"麻豆區","LI":"北勢里","LIN":"10鄰","STREET":" ","SECT":" ","MAREA":"北勢寮","LANE":" ","ALLEY":" ","HOUSE_NO":"１３號之１","E_COORD97":172223.28,"N_COORD97":2567057.9399999999,"ADDRESS":"北勢寮１３號之１","OBJECTID":92473},"geometry":{"x":172223.28000000119,"y":2567057.9399999995}},{"attributes":{"ID":92474,"DIS_CODE":0,"TOWNNAME":"麻豆區","LI":"北勢里","LIN":"10鄰","STREET":" ","SECT":" ","MAREA":"北勢寮","LANE":" ","ALLEY":" ","HOUSE_NO":"１３號之２０","E_COORD97":172270.48000000001,"N_COORD97":2567110.54,"ADDRESS":"北勢寮１３號之２０","OBJECTID":92474},"geometry":{"x":172270.48000000231,"y":2567110.5399999991}},{"attributes":{"ID":92475,"DIS_CODE":0,"TOWNNAME":"麻豆區","LI":"北勢里","LIN":"10鄰","STREET":" ","SECT":" ","MAREA":"北勢寮","LANE":" ","ALLEY":" ","HOUSE_NO":"１３號之２１","E_COORD97":172140.12,"N_COORD97":2567472.3100000001,"ADDRESS":"北勢寮１３號之２１","OBJECTID":92475},"geometry":{"x":172140.12000000011,"y":2567472.3100000005}},{"attributes":{"ID":92476,"DIS_CODE":0,"TOWNNAME":"麻豆區","LI":"北勢里","LIN":"10鄰","STREET":" ","SECT":" ","MAREA":"北勢寮","LANE":" ","ALLEY":" ","HOUSE_NO":"１３號之２３","E_COORD97":172221.39000000001,"N_COORD97":2567067.3599999999,"ADDRESS":"北勢寮１３號之２３","OBJECTID":92476},"geometry":{"x":172221.3900000006,"y":2567067.3599999994}},{"attributes":{"ID":92477,"DIS_CODE":0,"TOWNNAME":"仁德區","LI":"上崙里","LIN":"10鄰","STREET":"德善路","SECT":" ","MAREA":" ","LANE":"３０５巷","ALLEY":"１３弄","HOUSE_NO":"１２３號","E_COORD97":174079.47,"N_COORD97":2538338.2200000002,"ADDRESS":"德善路３０５巷１３弄１２３號","OBJECTID":92477},"geometry":{"x":174079.46999999974,"y":2538338.2200000025}},{"attributes":{"ID":92478,"DIS_CODE":0,"TOWNNAME":"麻豆區","LI":"北勢里","LIN":"10鄰","STREET":" ","SECT":" ","MAREA":"北勢寮","LANE":" ","ALLEY":" ","HOUSE_NO":"１３號之２","E_COORD97":172181.04000000001,"N_COORD97":2567089.3799999999,"ADDRESS":"北勢寮１３號之２","OBJECTID":92478},"geometry":{"x":172181.04000000004,"y":2567089.3800000008}},{"attributes":{"ID":92479,"DIS_CODE":0,"TOWNNAME":"麻豆區","LI":"北勢里","LIN":"10鄰","STREET":" ","SECT":" ","MAREA":"北勢寮","LANE":" ","ALLEY":" ","HOUSE_NO":"１３號之３","E_COORD97":172205.67999999999,"N_COORD97":2567110.04,"ADDRESS":"北勢寮１３號之３","OBJECTID":92479},"geometry":{"x":172205.68000000156,"y":2567110.0399999991}},{"attributes":{"ID":92480,"DIS_CODE":0,"TOWNNAME":"麻豆區","LI":"北勢里","LIN":"10鄰","STREET":" ","SECT":" ","MAREA":"北勢寮","LANE":" ","ALLEY":" ","HOUSE_NO":"１３號之４","E_COORD97":172213.92000000001,"N_COORD97":2567097.8700000001,"ADDRESS":"北勢寮１３號之４","OBJECTID":92480},"geometry":{"x":172213.91999999993,"y":2567097.8700000048}},{"attributes":{"ID":92481,"DIS_CODE":0,"TOWNNAME":"麻豆區","LI":"北勢里","LIN":"10鄰","STREET":" ","SECT":" ","MAREA":"北勢寮","LANE":" ","ALLEY":" ","HOUSE_NO":"１３號之６","E_COORD97":172224.92000000001,"N_COORD97":2567042.98,"ADDRESS":"北勢寮１３號之６","OBJECTID":92481},"geometry":{"x":172224.92000000086,"y":2567042.9800000023}},{"attributes":{"ID":92482,"DIS_CODE":0,"TOWNNAME":"麻豆區","LI":"北勢里","LIN":"10鄰","STREET":" ","SECT":" ","MAREA":"北勢寮","LANE":" ","ALLEY":" ","HOUSE_NO":"１３號之７","E_COORD97":172182.41,"N_COORD97":2567083.77,"ADDRESS":"北勢寮１３號之７","OBJECTID":92482},"geometry":{"x":172182.40999999922,"y":2567083.7700000014}},{"attributes":{"ID":92483,"DIS_CODE":0,"TOWNNAME":"麻豆區","LI":"北勢里","LIN":"10鄰","STREET":" ","SECT":" ","MAREA":"北勢寮","LANE":" ","ALLEY":" ","HOUSE_NO":"１３號","E_COORD97":172197.48999999999,"N_COORD97":2567037.1699999999,"ADDRESS":"北勢寮１３號","OBJECTID":92483},"geometry":{"x":172197.49000000115,"y":2567037.1700000037}},{"attributes":{"ID":92484,"DIS_CODE":0,"TOWNNAME":"麻豆區","LI":"北勢里","LIN":"10鄰","STREET":" ","SECT":" ","MAREA":"北勢寮","LANE":" ","ALLEY":" ","HOUSE_NO":"１４號之２","E_COORD97":172166.48000000001,"N_COORD97":2567074.9300000002,"ADDRESS":"北勢寮１４號之２","OBJECTID":92484},"geometry":{"x":172166.48000000045,"y":2567074.9299999997}},{"attributes":{"ID":92485,"DIS_CODE":0,"TOWNNAME":"麻豆區","LI":"北勢里","LIN":"10鄰","STREET":" ","SECT":" ","MAREA":"北勢寮","LANE":" ","ALLEY":" ","HOUSE_NO":"１４號","E_COORD97":172165.34,"N_COORD97":2567031.5699999998,"ADDRESS":"北勢寮１４號","OBJECTID":92485},"geometry":{"x":172165.33999999985,"y":2567031.5700000022}},{"attributes":{"ID":92486,"DIS_CODE":0,"TOWNNAME":"仁德區","LI":"上崙里","LIN":"10鄰","STREET":"德善路","SECT":" ","MAREA":" ","LANE":"３０５巷","ALLEY":"１３弄","HOUSE_NO":"２１０號","E_COORD97":174096.73000000001,"N_COORD97":2538217.8799999999,"ADDRESS":"德善路３０５巷１３弄２１０號","OBJECTID":92486},"geometry":{"x":174096.73000000138,"y":2538217.8800000008}},{"attributes":{"ID":92487,"DIS_CODE":0,"TOWNNAME":"仁德區","LI":"上崙里","LIN":"10鄰","STREET":"德善路","SECT":" ","MAREA":" ","LANE":"３０５巷","ALLEY":"１３弄","HOUSE_NO":"１５６號","E_COORD97":174073.51999999999,"N_COORD97":2538290.3199999998,"ADDRESS":"德善路３０５巷１３弄１５６號","OBJECTID":92487},"geometry":{"x":174073.52000000048,"y":2538290.3200000022}},{"attributes":{"ID":92488,"DIS_CODE":0,"TOWNNAME":"麻豆區","LI":"北勢里","LIN":"10鄰","STREET":" ","SECT":" ","MAREA":"北勢寮","LANE":" ","ALLEY":" ","HOUSE_NO":"１５號之１","E_COORD97":172360.45999999999,"N_COORD97":2567468.1200000001,"ADDRESS":"北勢寮１５號之１","OBJECTID":92488},"geometry":{"x":172360.46000000089,"y":2567468.120000001}},{"attributes":{"ID":92489,"DIS_CODE":0,"TOWNNAME":"麻豆區","LI":"北勢里","LIN":"10鄰","STREET":" ","SECT":" ","MAREA":"北勢寮","LANE":" ","ALLEY":" ","HOUSE_NO":"１５號之２０","E_COORD97":172380.95999999999,"N_COORD97":2567265.1400000001,"ADDRESS":"北勢寮１５號之２０","OBJECTID":92489},"geometry":{"x":172380.96000000089,"y":2567265.1400000043}},{"attributes":{"ID":92490,"DIS_CODE":0,"TOWNNAME":"仁德區","LI":"上崙里","LIN":"10鄰","STREET":"德善路","SECT":" ","MAREA":" ","LANE":"３０５巷","ALLEY":"１３弄","HOUSE_NO":"１８６號","E_COORD97":174083.20000000001,"N_COORD97":2538239.3900000001,"ADDRESS":"德善路３０５巷１３弄１８６號","OBJECTID":92490},"geometry":{"x":174083.20000000112,"y":2538239.3900000025}},{"attributes":{"ID":92491,"DIS_CODE":0,"TOWNNAME":"仁德區","LI":"上崙里","LIN":"10鄰","STREET":"德善路","SECT":" ","MAREA":" ","LANE":"３０５巷","ALLEY":"１３弄","HOUSE_NO":"９３號","E_COORD97":174064,"N_COORD97":2538387.21,"ADDRESS":"德善路３０５巷１３弄９３號","OBJECTID":92491},"geometry":{"x":174064.00000000093,"y":2538387.2100000028}},{"attributes":{"ID":92492,"DIS_CODE":0,"TOWNNAME":"麻豆區","LI":"北勢里","LIN":"10鄰","STREET":" ","SECT":" ","MAREA":"北勢寮","LANE":" ","ALLEY":" ","HOUSE_NO":"１５號之２","E_COORD97":172395.82000000001,"N_COORD97":2567497.1899999999,"ADDRESS":"北勢寮１５號之２","OBJECTID":92492},"geometry":{"x":172395.82000000123,"y":2567497.1899999976}},{"attributes":{"ID":92493,"DIS_CODE":0,"TOWNNAME":"麻豆區","LI":"北勢里","LIN":"10鄰","STREET":" ","SECT":" ","MAREA":"北勢寮","LANE":" ","ALLEY":" ","HOUSE_NO":"１５號之６","E_COORD97":172307.38,"N_COORD97":2567368.6600000001,"ADDRESS":"北勢寮１５號之６","OBJECTID":92493},"geometry":{"x":172307.37999999989,"y":2567368.6600000001}},{"attributes":{"ID":92494,"DIS_CODE":0,"TOWNNAME":"仁德區","LI":"上崙里","LIN":"10鄰","STREET":"德善路","SECT":" ","MAREA":" ","LANE":"３０５巷","ALLEY":"１３弄","HOUSE_NO":"１６８號","E_COORD97":174062.97,"N_COORD97":2538270.5800000001,"ADDRESS":"德善路３０５巷１３弄１６８號","OBJECTID":92494},"geometry":{"x":174062.96999999974,"y":2538270.5800000038}},{"attributes":{"ID":92495,"DIS_CODE":0,"TOWNNAME":"仁德區","LI":"上崙里","LIN":"10鄰","STREET":"德善路","SECT":" ","MAREA":" ","LANE":"３０５巷","ALLEY":"１３弄","HOUSE_NO":"６７號","E_COORD97":174062.76000000001,"N_COORD97":2538442.7000000002,"ADDRESS":"德善路３０５巷１３弄６７號","OBJECTID":92495},"geometry":{"x":174062.75999999978,"y":2538442.7000000011}},{"attributes":{"ID":92496,"DIS_CODE":0,"TOWNNAME":"仁德區","LI":"上崙里","LIN":"10鄰","STREET":"德善路","SECT":" ","MAREA":" ","LANE":"３０５巷","ALLEY":"１３弄","HOUSE_NO":"１６０號","E_COORD97":174082.73999999999,"N_COORD97":2538276.3199999998,"ADDRESS":"德善路３０５巷１３弄１６０號","OBJECTID":92496},"geometry":{"x":174082.74000000115,"y":2538276.3200000022}},{"attributes":{"ID":92497,"DIS_CODE":0,"TOWNNAME":"麻豆區","LI":"北勢里","LIN":"10鄰","STREET":" ","SECT":" ","MAREA":"北勢寮","LANE":" ","ALLEY":" ","HOUSE_NO":"１５號之７","E_COORD97":172283.95999999999,"N_COORD97":2567362.8900000001,"ADDRESS":"北勢寮１５號之７","OBJECTID":92497},"geometry":{"x":172283.96000000089,"y":2567362.8900000025}},{"attributes":{"ID":92498,"DIS_CODE":0,"TOWNNAME":"新市區","LI":"港墘里","LIN":"10鄰","STREET":" ","SECT":" ","MAREA":"崙頂","LANE":" ","ALLEY":" ","HOUSE_NO":"２３號","E_COORD97":178913.89999999999,"N_COORD97":2552602.5,"ADDRESS":"崙頂２３號","OBJECTID":92498},"geometry":{"x":178913.90000000037,"y":2552602.5000000019}},{"attributes":{"ID":92499,"DIS_CODE":0,"TOWNNAME":"新市區","LI":"潭頂里","LIN":"10鄰","STREET":" ","SECT":" ","MAREA":"潭頂","LANE":" ","ALLEY":" ","HOUSE_NO":"３５５之１號","E_COORD97":180659.23000000001,"N_COORD97":2552788.0499999998,"ADDRESS":"潭頂３５５之１號","OBJECTID":92499},"geometry":{"x":180659.23000000045,"y":2552788.0500000007}},{"attributes":{"ID":92500,"DIS_CODE":0,"TOWNNAME":"仁德區","LI":"上崙里","LIN":"10鄰","STREET":"德善路","SECT":" ","MAREA":" ","LANE":"３０５巷","ALLEY":"１３弄","HOUSE_NO":"７４號","E_COORD97":174038.45999999999,"N_COORD97":2538423.7799999998,"ADDRESS":"德善路３０５巷１３弄７４號","OBJECTID":92500},"geometry":{"x":174038.46000000089,"y":2538423.7799999993}},{"attributes":{"ID":92501,"DIS_CODE":0,"TOWNNAME":"新市區","LI":"豐華里","LIN":"10鄰","STREET":" ","SECT":" ","MAREA":"豐華","LANE":" ","ALLEY":" ","HOUSE_NO":"４７之１４號","E_COORD97":174116.09,"N_COORD97":2554456.7999999998,"ADDRESS":"豐華４７之１４號","OBJECTID":92501},"geometry":{"x":174116.08999999985,"y":2554456.8000000026}},{"attributes":{"ID":92502,"DIS_CODE":0,"TOWNNAME":"仁德區","LI":"上崙里","LIN":"10鄰","STREET":"德善路","SECT":" ","MAREA":" ","LANE":"３０５巷","ALLEY":"１３弄","HOUSE_NO":"１２６號","E_COORD97":174046.5,"N_COORD97":2538311.2000000002,"ADDRESS":"德善路３０５巷１３弄１２６號","OBJECTID":92502},"geometry":{"x":174046.50000000186,"y":2538311.1999999993}},{"attributes":{"ID":92503,"DIS_CODE":0,"TOWNNAME":"新市區","LI":"港墘里","LIN":"10鄰","STREET":" ","SECT":" ","MAREA":"崙頂","LANE":" ","ALLEY":" ","HOUSE_NO":"２７之１號","E_COORD97":178923.14999999999,"N_COORD97":2552551.0499999998,"ADDRESS":"崙頂２７之１號","OBJECTID":92503},"geometry":{"x":178923.1500000013,"y":2552551.0500000007}},{"attributes":{"ID":92504,"DIS_CODE":0,"TOWNNAME":"仁德區","LI":"上崙里","LIN":"10鄰","STREET":"德善路","SECT":" ","MAREA":" ","LANE":"３０５巷","ALLEY":"１３弄","HOUSE_NO":"１４９號","E_COORD97":174094.76999999999,"N_COORD97":2538307.71,"ADDRESS":"德善路３０５巷１３弄１４９號","OBJECTID":92504},"geometry":{"x":174094.76999999955,"y":2538307.7100000046}},{"attributes":{"ID":92505,"DIS_CODE":0,"TOWNNAME":"新市區","LI":"潭頂里","LIN":"10鄰","STREET":" ","SECT":" ","MAREA":"潭頂","LANE":" ","ALLEY":" ","HOUSE_NO":"３５８之１７號","E_COORD97":180584.22,"N_COORD97":2552814.2999999998,"ADDRESS":"潭頂３５８之１７號","OBJECTID":92505},"geometry":{"x":180584.21999999974,"y":2552814.3000000045}},{"attributes":{"ID":92506,"DIS_CODE":0,"TOWNNAME":"新營區","LI":"新東里","LIN":"15鄰","STREET":"東泰路","SECT":" ","MAREA":" ","LANE":" ","ALLEY":" ","HOUSE_NO":"３號","E_COORD97":181119.19,"N_COORD97":2579556.4199999999,"ADDRESS":"東泰路３號","OBJECTID":92506},"geometry":{"x":181119.19000000041,"y":2579556.4200000018}},{"attributes":{"ID":92507,"DIS_CODE":0,"TOWNNAME":"新營區","LI":"新東里","LIN":"15鄰","STREET":"東安街","SECT":" ","MAREA":" ","LANE":" ","ALLEY":" ","HOUSE_NO":"６８號","E_COORD97":180944.91,"N_COORD97":2579659.1200000001,"ADDRESS":"東安街６８號","OBJECTID":92507},"geometry":{"x":180944.91000000201,"y":2579659.120000001}},{"attributes":{"ID":92508,"DIS_CODE":0,"TOWNNAME":"新市區","LI":"港墘里","LIN":"10鄰","STREET":" ","SECT":" ","MAREA":"崙頂","LANE":" ","ALLEY":" ","HOUSE_NO":"２０之６號","E_COORD97":178941.04000000001,"N_COORD97":2552553.0499999998,"ADDRESS":"崙頂２０之６號","OBJECTID":92508},"geometry":{"x":178941.04000000097,"y":2552553.0500000026}},{"attributes":{"ID":92509,"DIS_CODE":0,"TOWNNAME":"新營區","LI":"王公里","LIN":"15鄰","STREET":"民族路","SECT":" ","MAREA":" ","LANE":" ","ALLEY":" ","HOUSE_NO":"１８９號","E_COORD97":180357.91,"N_COORD97":2579409.3700000001,"ADDRESS":"民族路１８９號","OBJECTID":92509},"geometry":{"x":180357.91000000015,"y":2579409.3700000029}},{"attributes":{"ID":92510,"DIS_CODE":0,"TOWNNAME":"新營區","LI":"新北里","LIN":"15鄰","STREET":"南新街","SECT":" ","MAREA":" ","LANE":" ","ALLEY":" ","HOUSE_NO":"５９號","E_COORD97":179266.82000000001,"N_COORD97":2578859.71,"ADDRESS":"南新街５９號","OBJECTID":92510},"geometry":{"x":179266.8200000003,"y":2578859.709999999}},{"attributes":{"ID":92511,"DIS_CODE":0,"TOWNNAME":"後壁區","LI":"頂安里","LIN":"1鄰","STREET":" ","SECT":" ","MAREA":"頂寮","LANE":" ","ALLEY":" ","HOUSE_NO":"９號","E_COORD97":184205.73999999999,"N_COORD97":2581616.2200000002,"ADDRESS":"頂寮９號","OBJECTID":92511},"geometry":{"x":184205.74000000022,"y":2581616.2200000044}},{"attributes":{"ID":92512,"DIS_CODE":0,"TOWNNAME":"新市區","LI":"港墘里","LIN":"10鄰","STREET":" ","SECT":" ","MAREA":"崙頂","LANE":" ","ALLEY":" ","HOUSE_NO":"２７之６號","E_COORD97":178911.62,"N_COORD97":2552579.0499999998,"ADDRESS":"崙頂２７之６號","OBJECTID":92512},"geometry":{"x":178911.62000000104,"y":2552579.0500000026}},{"attributes":{"ID":92513,"DIS_CODE":0,"TOWNNAME":"新市區","LI":"豐華里","LIN":"10鄰","STREET":" ","SECT":" ","MAREA":"豐華","LANE":" ","ALLEY":" ","HOUSE_NO":"４７之３２號","E_COORD97":174141.13,"N_COORD97":2554429.7999999998,"ADDRESS":"豐華４７之３２號","OBJECTID":92513},"geometry":{"x":174141.13000000082,"y":2554429.8000000007}},{"attributes":{"ID":92514,"DIS_CODE":0,"TOWNNAME":"安定區","LI":"安加里","LIN":"10鄰","STREET":" ","SECT":" ","MAREA":"安定","LANE":" ","ALLEY":" ","HOUSE_NO":"２５８之２２號","E_COORD97":171929.17000000001,"N_COORD97":2556730.3199999998,"ADDRESS":"安定２５８之２２號","OBJECTID":92514},"geometry":{"x":171929.16999999993,"y":2556730.3200000022}},{"attributes":{"ID":92515,"DIS_CODE":0,"TOWNNAME":"東區","LI":"德高里","LIN":"13鄰","STREET":"崇善路","SECT":" ","MAREA":" ","LANE":"９１３巷","ALLEY":"２弄","HOUSE_NO":"８號","E_COORD97":171444.73999999999,"N_COORD97":2540675.4100000001,"ADDRESS":"崇善路９１３巷２弄８號","OBJECTID":92515},"geometry":{"x":171444.74000000209,"y":2540675.4100000039}},{"attributes":{"ID":92516,"DIS_CODE":0,"TOWNNAME":"中西區","LI":"三民里","LIN":"10鄰","STREET":"中山路","SECT":" ","MAREA":" ","LANE":"７９巷","ALLEY":"２弄","HOUSE_NO":"１號","E_COORD97":168721.35999999999,"N_COORD97":2543854.52,"ADDRESS":"中山路７９巷２弄１號","OBJECTID":92516},"geometry":{"x":168721.3599999994,"y":2543854.5200000014}},{"attributes":{"ID":92517,"DIS_CODE":0,"TOWNNAME":"安定區","LI":"六嘉里","LIN":"10鄰","STREET":" ","SECT":" ","MAREA":"六塊寮","LANE":" ","ALLEY":" ","HOUSE_NO":"８５之８號","E_COORD97":170272.92000000001,"N_COORD97":2553234.2999999998,"ADDRESS":"六塊寮８５之８號","OBJECTID":92517},"geometry":{"x":170272.91999999993,"y":2553234.3000000007}},{"attributes":{"ID":92518,"DIS_CODE":0,"TOWNNAME":"安定區","LI":"六嘉里","LIN":"10鄰","STREET":" ","SECT":" ","MAREA":"六塊寮","LANE":" ","ALLEY":" ","HOUSE_NO":"８０號","E_COORD97":170274.10019999999,"N_COORD97":2553283.8752700002,"ADDRESS":"六塊寮８０號","OBJECTID":92518},"geometry":{"x":170274.10020000022,"y":2553283.8752690032}},{"attributes":{"ID":92519,"DIS_CODE":0,"TOWNNAME":"安定區","LI":"安加里","LIN":"10鄰","STREET":" ","SECT":" ","MAREA":"安定","LANE":" ","ALLEY":" ","HOUSE_NO":"２５８號之１１","E_COORD97":171807,"N_COORD97":2556663.3199999998,"ADDRESS":"安定２５８號之１１","OBJECTID":92519},"geometry":{"x":171806.99999999907,"y":2556663.3200000022}},{"attributes":{"ID":92520,"DIS_CODE":0,"TOWNNAME":"安定區","LI":"安加里","LIN":"10鄰","STREET":" ","SECT":" ","MAREA":"安定","LANE":" ","ALLEY":" ","HOUSE_NO":"２５８之１２號","E_COORD97":171664.87,"N_COORD97":2557051.3199999998,"ADDRESS":"安定２５８之１２號","OBJECTID":92520},"geometry":{"x":171664.87000000011,"y":2557051.3200000003}},{"attributes":{"ID":92521,"DIS_CODE":0,"TOWNNAME":"安定區","LI":"中榮里","LIN":"10鄰","STREET":" ","SECT":" ","MAREA":"許中營","LANE":" ","ALLEY":" ","HOUSE_NO":"７８之７號","E_COORD97":172269.14000000001,"N_COORD97":2555174.2999999998,"ADDRESS":"許中營７８之７號","OBJECTID":92521},"geometry":{"x":172269.1400000006,"y":2555174.3000000026}},{"attributes":{"ID":92522,"DIS_CODE":0,"TOWNNAME":"安定區","LI":"安加里","LIN":"10鄰","STREET":" ","SECT":" ","MAREA":"安定","LANE":" ","ALLEY":" ","HOUSE_NO":"２５８之５３號","E_COORD97":171650.07000000001,"N_COORD97":2556891.3199999998,"ADDRESS":"安定２５８之５３號","OBJECTID":92522},"geometry":{"x":171650.07000000123,"y":2556891.3200000003}},{"attributes":{"ID":92523,"DIS_CODE":0,"TOWNNAME":"安定區","LI":"六嘉里","LIN":"10鄰","STREET":" ","SECT":" ","MAREA":"六塊寮","LANE":" ","ALLEY":" ","HOUSE_NO":"８５之１２號","E_COORD97":170281.07000000001,"N_COORD97":2553254.2999999998,"ADDRESS":"六塊寮８５之１２號","OBJECTID":92523},"geometry":{"x":170281.0700000003,"y":2553254.3000000007}},{"attributes":{"ID":92524,"DIS_CODE":0,"TOWNNAME":"安定區","LI":"海寮里","LIN":"10鄰","STREET":" ","SECT":" ","MAREA":"海寮","LANE":" ","ALLEY":" ","HOUSE_NO":"９９之３號","E_COORD97":169219.09,"N_COORD97":2555295.2999999998,"ADDRESS":"海寮９９之３號","OBJECTID":92524},"geometry":{"x":169219.08999999985,"y":2555295.3000000007}},{"attributes":{"ID":92525,"DIS_CODE":0,"TOWNNAME":"安定區","LI":"大同里","LIN":"10鄰","STREET":" ","SECT":" ","MAREA":"大同","LANE":" ","ALLEY":" ","HOUSE_NO":"１１２號","E_COORD97":170335.92000000001,"N_COORD97":2553840.25,"ADDRESS":"大同１１２號","OBJECTID":92525},"geometry":{"x":170335.91999999993,"y":2553840.25}},{"attributes":{"ID":92526,"DIS_CODE":0,"TOWNNAME":"安定區","LI":"大同里","LIN":"10鄰","STREET":" ","SECT":" ","MAREA":"大同","LANE":" ","ALLEY":" ","HOUSE_NO":"１１５之１號","E_COORD97":170121.12,"N_COORD97":2554189.2999999998,"ADDRESS":"大同１１５之１號","OBJECTID":92526},"geometry":{"x":170121.12000000011,"y":2554189.3000000007}},{"attributes":{"ID":92527,"DIS_CODE":0,"TOWNNAME":"中西區","LI":"三民里","LIN":"10鄰","STREET":"中山路","SECT":" ","MAREA":" ","LANE":"７９巷","ALLEY":"２弄","HOUSE_NO":"３號","E_COORD97":168726.45999999999,"N_COORD97":2543866.52,"ADDRESS":"中山路７９巷２弄３號","OBJECTID":92527},"geometry":{"x":168726.45999999996,"y":2543866.5199999996}},{"attributes":{"ID":92528,"DIS_CODE":0,"TOWNNAME":"中西區","LI":"三民里","LIN":"10鄰","STREET":"中山路","SECT":" ","MAREA":" ","LANE":"７９巷","ALLEY":"２弄","HOUSE_NO":"３號之１","E_COORD97":168726.87,"N_COORD97":2543872.8500000001,"ADDRESS":"中山路７９巷２弄３號之１","OBJECTID":92528},"geometry":{"x":168726.87000000104,"y":2543872.8500000015}},{"attributes":{"ID":92529,"DIS_CODE":0,"TOWNNAME":"安定區","LI":"中榮里","LIN":"10鄰","STREET":" ","SECT":" ","MAREA":"許中營","LANE":" ","ALLEY":" ","HOUSE_NO":"８１之２號","E_COORD97":172307.54000000001,"N_COORD97":2555212.2999999998,"ADDRESS":"許中營８１之２號","OBJECTID":92529},"geometry":{"x":172307.54000000097,"y":2555212.3000000026}},{"attributes":{"ID":92530,"DIS_CODE":0,"TOWNNAME":"安定區","LI":"中榮里","LIN":"10鄰","STREET":" ","SECT":" ","MAREA":"許中營","LANE":" ","ALLEY":" ","HOUSE_NO":"８１號","E_COORD97":172240.44,"N_COORD97":2555218.25,"ADDRESS":"許中營８１號","OBJECTID":92530},"geometry":{"x":172240.44000000134,"y":2555218.2500000019}},{"attributes":{"ID":92531,"DIS_CODE":0,"TOWNNAME":"安定區","LI":"大同里","LIN":"10鄰","STREET":" ","SECT":" ","MAREA":"大同","LANE":" ","ALLEY":" ","HOUSE_NO":"１１６號","E_COORD97":170304.42000000001,"N_COORD97":2553854.25,"ADDRESS":"大同１１６號","OBJECTID":92531},"geometry":{"x":170304.42000000086,"y":2553854.25}},{"attributes":{"ID":92532,"DIS_CODE":0,"TOWNNAME":"中西區","LI":"三民里","LIN":"10鄰","STREET":"中山路","SECT":" ","MAREA":" ","LANE":"７９巷","ALLEY":"２弄","HOUSE_NO":"５號","E_COORD97":168732.78,"N_COORD97":2543880.5899999999,"ADDRESS":"中山路７９巷２弄５號","OBJECTID":92532},"geometry":{"x":168732.78000000119,"y":2543880.5899999999}},{"attributes":{"ID":92533,"DIS_CODE":0,"TOWNNAME":"中西區","LI":"三民里","LIN":"10鄰","STREET":"中山路","SECT":" ","MAREA":" ","LANE":"７９巷","ALLEY":"２弄","HOUSE_NO":"７號","E_COORD97":168735.23000000001,"N_COORD97":2543885.48,"ADDRESS":"中山路７９巷２弄７號","OBJECTID":92533},"geometry":{"x":168735.23000000045,"y":2543885.4800000004}},{"attributes":{"ID":92534,"DIS_CODE":0,"TOWNNAME":"中西區","LI":"三民里","LIN":"10鄰","STREET":"中山路","SECT":" ","MAREA":" ","LANE":"７９巷","ALLEY":"２弄","HOUSE_NO":"７號之１","E_COORD97":168731.56,"N_COORD97":2543886.8999999999,"ADDRESS":"中山路７９巷２弄７號之１","OBJECTID":92534},"geometry":{"x":168731.56000000052,"y":2543886.9000000022}},{"attributes":{"ID":92535,"DIS_CODE":0,"TOWNNAME":"中西區","LI":"三民里","LIN":"10鄰","STREET":"中山路","SECT":" ","MAREA":" ","LANE":"７９巷","ALLEY":"２弄","HOUSE_NO":"９號","E_COORD97":168729.92999999999,"N_COORD97":2543893.4199999999,"ADDRESS":"中山路７９巷２弄９號","OBJECTID":92535},"geometry":{"x":168729.9299999997,"y":2543893.4200000018}},{"attributes":{"ID":92536,"DIS_CODE":0,"TOWNNAME":"東區","LI":"東安里","LIN":"10鄰","STREET":"長榮路","SECT":"二段","MAREA":" ","LANE":"３２巷","ALLEY":"４６弄","HOUSE_NO":"１０９號","E_COORD97":170143.01000000001,"N_COORD97":2543143.3900000001,"ADDRESS":"長榮路二段３２巷４６弄１０９號","OBJECTID":92536},"geometry":{"x":170143.00999999978,"y":2543143.3900000006}},{"attributes":{"ID":92537,"DIS_CODE":0,"TOWNNAME":"東區","LI":"東安里","LIN":"10鄰","STREET":"長榮路","SECT":"二段","MAREA":" ","LANE":"３２巷","ALLEY":"４６弄","HOUSE_NO":"１１５號","E_COORD97":170123.76999999999,"N_COORD97":2543136.5,"ADDRESS":"長榮路二段３２巷４６弄１１５號","OBJECTID":92537},"geometry":{"x":170123.77000000048,"y":2543136.5000000019}},{"attributes":{"ID":92538,"DIS_CODE":0,"TOWNNAME":"東區","LI":"東安里","LIN":"10鄰","STREET":"長榮路","SECT":"二段","MAREA":" ","LANE":"３２巷","ALLEY":"４６弄","HOUSE_NO":"１１７號","E_COORD97":170124.76999999999,"N_COORD97":2543132.6899999999,"ADDRESS":"長榮路二段３２巷４６弄１１７號","OBJECTID":92538},"geometry":{"x":170124.76999999862,"y":2543132.6899999995}},{"attributes":{"ID":92539,"DIS_CODE":0,"TOWNNAME":"東區","LI":"東安里","LIN":"10鄰","STREET":"長榮路","SECT":"二段","MAREA":" ","LANE":"３２巷","ALLEY":"４６弄","HOUSE_NO":"１２５號","E_COORD97":170137.29000000001,"N_COORD97":2543118.04,"ADDRESS":"長榮路二段３２巷４６弄１２５號","OBJECTID":92539},"geometry":{"x":170137.29000000097,"y":2543118.0400000028}},{"attributes":{"ID":92540,"DIS_CODE":0,"TOWNNAME":"東區","LI":"東安里","LIN":"10鄰","STREET":"長榮路","SECT":"二段","MAREA":" ","LANE":"３２巷","ALLEY":"４６弄","HOUSE_NO":"１２７號","E_COORD97":170142.01999999999,"N_COORD97":2543119.5800000001,"ADDRESS":"長榮路二段３２巷４６弄１２７號","OBJECTID":92540},"geometry":{"x":170142.02000000048,"y":2543119.5800000019}},{"attributes":{"ID":92541,"DIS_CODE":0,"TOWNNAME":"新營區","LI":"埤寮里","LIN":"15鄰","STREET":"中正路","SECT":" ","MAREA":" ","LANE":"３００巷","ALLEY":" ","HOUSE_NO":"１４號","E_COORD97":180375.73000000001,"N_COORD97":2579985.1600000001,"ADDRESS":"中正路３００巷１４號","OBJECTID":92541},"geometry":{"x":180375.73000000138,"y":2579985.1600000039}},{"attributes":{"ID":92542,"DIS_CODE":0,"TOWNNAME":"安平區","LI":"海頭里","LIN":"8鄰","STREET":"國勝路","SECT":" ","MAREA":" ","LANE":" ","ALLEY":" ","HOUSE_NO":"７４號","E_COORD97":164014.81,"N_COORD97":2544606.3500000001,"ADDRESS":"國勝路７４號","OBJECTID":92542},"geometry":{"x":164014.80999999959,"y":2544606.3499999996}},{"attributes":{"ID":92543,"DIS_CODE":0,"TOWNNAME":"北區","LI":"安民里","LIN":"8鄰","STREET":"海安路","SECT":"三段","MAREA":" ","LANE":" ","ALLEY":" ","HOUSE_NO":"２５之１號","E_COORD97":167868.45000000001,"N_COORD97":2544653.7000000002,"ADDRESS":"海安路三段２５之１號","OBJECTID":92543},"geometry":{"x":167868.45000000112,"y":2544653.7000000011}},{"attributes":{"ID":92544,"DIS_CODE":0,"TOWNNAME":"東區","LI":"東安里","LIN":"10鄰","STREET":"長榮路","SECT":"二段","MAREA":" ","LANE":"３２巷","ALLEY":"４６弄","HOUSE_NO":"１２９號","E_COORD97":170145.64999999999,"N_COORD97":2543120.4900000002,"ADDRESS":"長榮路二段３２巷４６弄１２９號","OBJECTID":92544},"geometry":{"x":170145.6500000013,"y":2543120.4900000021}},{"attributes":{"ID":92545,"DIS_CODE":0,"TOWNNAME":"安定區","LI":"大同里","LIN":"10鄰","STREET":" ","SECT":" ","MAREA":"大同","LANE":" ","ALLEY":" ","HOUSE_NO":"１１１號","E_COORD97":170339.01999999999,"N_COORD97":2553855.25,"ADDRESS":"大同１１１號","OBJECTID":92545},"geometry":{"x":170339.02000000048,"y":2553855.2500000019}},{"attributes":{"ID":92546,"DIS_CODE":0,"TOWNNAME":"安定區","LI":"大同里","LIN":"10鄰","STREET":" ","SECT":" ","MAREA":"大同","LANE":" ","ALLEY":" ","HOUSE_NO":"１１４號","E_COORD97":170313.82000000001,"N_COORD97":2553832.25,"ADDRESS":"大同１１４號","OBJECTID":92546},"geometry":{"x":170313.82000000123,"y":2553832.2500000019}},{"attributes":{"ID":92547,"DIS_CODE":0,"TOWNNAME":"東區","LI":"東安里","LIN":"10鄰","STREET":"長榮路","SECT":"二段","MAREA":" ","LANE":"３２巷","ALLEY":"４６弄","HOUSE_NO":"１３９號","E_COORD97":170163.70999999999,"N_COORD97":2543126.48,"ADDRESS":"長榮路二段３２巷４６弄１３９號","OBJECTID":92547},"geometry":{"x":170163.71000000089,"y":2543126.4800000042}},{"attributes":{"ID":92548,"DIS_CODE":0,"TOWNNAME":"東區","LI":"東安里","LIN":"10鄰","STREET":"長榮路","SECT":"二段","MAREA":" ","LANE":"３２巷","ALLEY":"４６弄","HOUSE_NO":"１０１號","E_COORD97":170132.03,"N_COORD97":2543151.9199999999,"ADDRESS":"長榮路二段３２巷４６弄１０１號","OBJECTID":92548},"geometry":{"x":170132.03000000026,"y":2543151.9199999999}},{"attributes":{"ID":92549,"DIS_CODE":0,"TOWNNAME":"東區","LI":"東安里","LIN":"10鄰","STREET":"長榮路","SECT":"二段","MAREA":" ","LANE":"３２巷","ALLEY":"４６弄","HOUSE_NO":"１０３號","E_COORD97":170146.73999999999,"N_COORD97":2543150.9199999999,"ADDRESS":"長榮路二段３２巷４６弄１０３號","OBJECTID":92549},"geometry":{"x":170146.74000000115,"y":2543150.9200000018}},{"attributes":{"ID":92550,"DIS_CODE":0,"TOWNNAME":"東區","LI":"東安里","LIN":"10鄰","STREET":"長榮路","SECT":"二段","MAREA":" ","LANE":"３２巷","ALLEY":"４６弄","HOUSE_NO":"１０７號","E_COORD97":170153.09,"N_COORD97":2543145.8399999999,"ADDRESS":"長榮路二段３２巷４６弄１０７號","OBJECTID":92550},"geometry":{"x":170153.08999999985,"y":2543145.8399999999}},{"attributes":{"ID":92551,"DIS_CODE":0,"TOWNNAME":"東區","LI":"東安里","LIN":"10鄰","STREET":"長榮路","SECT":"二段","MAREA":" ","LANE":"３２巷","ALLEY":"４６弄","HOUSE_NO":"１１３號","E_COORD97":170135.29999999999,"N_COORD97":2543141.5800000001,"ADDRESS":"長榮路二段３２巷４６弄１１３號","OBJECTID":92551},"geometry":{"x":170135.30000000075,"y":2543141.5800000001}},{"attributes":{"ID":92552,"DIS_CODE":0,"TOWNNAME":"東區","LI":"東安里","LIN":"10鄰","STREET":"長榮路","SECT":"二段","MAREA":" ","LANE":"３２巷","ALLEY":"４６弄","HOUSE_NO":"１２１號","E_COORD97":170129.20999999999,"N_COORD97":2543115.6800000002,"ADDRESS":"長榮路二段３２巷４６弄１２１號","OBJECTID":92552},"geometry":{"x":170129.21000000183,"y":2543115.6800000016}},{"attributes":{"ID":92553,"DIS_CODE":0,"TOWNNAME":"東區","LI":"東安里","LIN":"10鄰","STREET":"長榮路","SECT":"二段","MAREA":" ","LANE":"３２巷","ALLEY":"４６弄","HOUSE_NO":"１２３號","E_COORD97":170133.84,"N_COORD97":2543117.1400000001,"ADDRESS":"長榮路二段３２巷４６弄１２３號","OBJECTID":92553},"geometry":{"x":170133.84000000078,"y":2543117.1400000006}},{"attributes":{"ID":92554,"DIS_CODE":0,"TOWNNAME":"東區","LI":"東安里","LIN":"10鄰","STREET":"長榮路","SECT":"二段","MAREA":" ","LANE":"３２巷","ALLEY":"４６弄","HOUSE_NO":"１３１號","E_COORD97":170148.10000000001,"N_COORD97":2543121.1299999999,"ADDRESS":"長榮路二段３２巷４６弄１３１號","OBJECTID":92554},"geometry":{"x":170148.10000000149,"y":2543121.1300000008}},{"attributes":{"ID":92555,"DIS_CODE":0,"TOWNNAME":"東區","LI":"東安里","LIN":"10鄰","STREET":"長榮路","SECT":"二段","MAREA":" ","LANE":"３２巷","ALLEY":"４６弄","HOUSE_NO":"１３３號","E_COORD97":170152.09,"N_COORD97":2543121.9399999999,"ADDRESS":"長榮路二段３２巷４６弄１３３號","OBJECTID":92555},"geometry":{"x":170152.09000000078,"y":2543121.9399999995}},{"attributes":{"ID":92556,"DIS_CODE":0,"TOWNNAME":"東區","LI":"東安里","LIN":"10鄰","STREET":"長榮路","SECT":"二段","MAREA":" ","LANE":"３２巷","ALLEY":"４６弄","HOUSE_NO":"１３５號","E_COORD97":170156.09,"N_COORD97":2543123.2999999998,"ADDRESS":"長榮路二段３２巷４６弄１３５號","OBJECTID":92556},"geometry":{"x":170156.08999999985,"y":2543123.3000000007}},{"attributes":{"ID":92557,"DIS_CODE":0,"TOWNNAME":"東區","LI":"東安里","LIN":"10鄰","STREET":"長榮路","SECT":"二段","MAREA":" ","LANE":"３２巷","ALLEY":"４６弄","HOUSE_NO":"１３７號","E_COORD97":170159.63,"N_COORD97":2543125.21,"ADDRESS":"長榮路二段３２巷４６弄１３７號","OBJECTID":92557},"geometry":{"x":170159.62999999989,"y":2543125.2100000046}},{"attributes":{"ID":92558,"DIS_CODE":0,"TOWNNAME":"東區","LI":"東安里","LIN":"10鄰","STREET":"長榮路","SECT":"二段","MAREA":" ","LANE":"３２巷","ALLEY":"４６弄","HOUSE_NO":"８３號","E_COORD97":170084.84,"N_COORD97":2543104.0899999999,"ADDRESS":"長榮路二段３２巷４６弄８３號","OBJECTID":92558},"geometry":{"x":170084.84000000078,"y":2543104.0899999999}},{"attributes":{"ID":92559,"DIS_CODE":0,"TOWNNAME":"安定區","LI":"六嘉里","LIN":"10鄰","STREET":" ","SECT":" ","MAREA":"六塊寮","LANE":" ","ALLEY":" ","HOUSE_NO":"８５之５號","E_COORD97":170260.32000000001,"N_COORD97":2553231.2999999998,"ADDRESS":"六塊寮８５之５號","OBJECTID":92559},"geometry":{"x":170260.3200000003,"y":2553231.3000000045}},{"attributes":{"ID":92560,"DIS_CODE":0,"TOWNNAME":"安定區","LI":"安加里","LIN":"10鄰","STREET":" ","SECT":" ","MAREA":"安定","LANE":" ","ALLEY":" ","HOUSE_NO":"２５８之２１號","E_COORD97":171983.17000000001,"N_COORD97":2556763.3199999998,"ADDRESS":"安定２５８之２１號","OBJECTID":92560},"geometry":{"x":171983.16999999993,"y":2556763.320000004}},{"attributes":{"ID":92561,"DIS_CODE":0,"TOWNNAME":"安定區","LI":"安定里","LIN":"10鄰","STREET":" ","SECT":" ","MAREA":"安定","LANE":" ","ALLEY":" ","HOUSE_NO":"９４之２號","E_COORD97":172068.122837,"N_COORD97":2557776.03425,"ADDRESS":"安定９４之２號","OBJECTID":92561},"geometry":{"x":172068.1228369996,"y":2557776.034252001}},{"attributes":{"ID":92562,"DIS_CODE":0,"TOWNNAME":"安定區","LI":"新吉里","LIN":"10鄰","STREET":" ","SECT":" ","MAREA":"新吉","LANE":" ","ALLEY":" ","HOUSE_NO":"８２號","E_COORD97":169210.07000000001,"N_COORD97":2553959.25,"ADDRESS":"新吉８２號","OBJECTID":92562},"geometry":{"x":169210.07000000123,"y":2553959.25}},{"attributes":{"ID":92563,"DIS_CODE":0,"TOWNNAME":"安定區","LI":"保西里","LIN":"10鄰","STREET":" ","SECT":" ","MAREA":"安定","LANE":" ","ALLEY":" ","HOUSE_NO":"４１０號之３","E_COORD97":171766.14999999999,"N_COORD97":2557871.3199999998,"ADDRESS":"安定４１０號之３","OBJECTID":92563},"geometry":{"x":171766.1500000013,"y":2557871.3200000003}},{"attributes":{"ID":92564,"DIS_CODE":0,"TOWNNAME":"安定區","LI":"新吉里","LIN":"10鄰","STREET":" ","SECT":" ","MAREA":"新吉","LANE":" ","ALLEY":" ","HOUSE_NO":"８５號","E_COORD97":169255.57000000001,"N_COORD97":2553976.25,"ADDRESS":"新吉８５號","OBJECTID":92564},"geometry":{"x":169255.56999999937,"y":2553976.25}},{"attributes":{"ID":92565,"DIS_CODE":0,"TOWNNAME":"安定區","LI":"港南里","LIN":"10鄰","STREET":" ","SECT":" ","MAREA":"港口","LANE":" ","ALLEY":" ","HOUSE_NO":"６９號之８","E_COORD97":171411.51999999999,"N_COORD97":2554383.2999999998,"ADDRESS":"港口６９號之８","OBJECTID":92565},"geometry":{"x":171411.52000000142,"y":2554383.3000000007}},{"attributes":{"ID":92566,"DIS_CODE":0,"TOWNNAME":"安定區","LI":"安定里","LIN":"10鄰","STREET":" ","SECT":" ","MAREA":"安定","LANE":" ","ALLEY":" ","HOUSE_NO":"９６號之８","E_COORD97":172121.85000000001,"N_COORD97":2557715.3199999998,"ADDRESS":"安定９６號之８","OBJECTID":92566},"geometry":{"x":172121.85000000056,"y":2557715.3200000003}},{"attributes":{"ID":92567,"DIS_CODE":0,"TOWNNAME":"安定區","LI":"安定里","LIN":"10鄰","STREET":" ","SECT":" ","MAREA":"安定","LANE":" ","ALLEY":" ","HOUSE_NO":"９６號之３","E_COORD97":172121,"N_COORD97":2557693.3199999998,"ADDRESS":"安定９６號之３","OBJECTID":92567},"geometry":{"x":172121.00000000093,"y":2557693.3200000022}},{"attributes":{"ID":92568,"DIS_CODE":0,"TOWNNAME":"安定區","LI":"港口里","LIN":"10鄰","STREET":" ","SECT":" ","MAREA":"港口","LANE":" ","ALLEY":" ","HOUSE_NO":"３０６之１號","E_COORD97":171355.89000000001,"N_COORD97":2554692.2999999998,"ADDRESS":"港口３０６之１號","OBJECTID":92568},"geometry":{"x":171355.88999999966,"y":2554692.2999999989}},{"attributes":{"ID":92569,"DIS_CODE":0,"TOWNNAME":"安定區","LI":"蘇林里","LIN":"10鄰","STREET":" ","SECT":" ","MAREA":"蘇厝","LANE":" ","ALLEY":" ","HOUSE_NO":"１１２之２５號","E_COORD97":173966.07000000001,"N_COORD97":2558991.2999999998,"ADDRESS":"蘇厝１１２之２５號","OBJECTID":92569},"geometry":{"x":173966.0700000003,"y":2558991.2999999989}},{"attributes":{"ID":92570,"DIS_CODE":0,"TOWNNAME":"安定區","LI":"蘇林里","LIN":"10鄰","STREET":" ","SECT":" ","MAREA":"蘇厝","LANE":" ","ALLEY":" ","HOUSE_NO":"１１２之１４號","E_COORD97":173824.07000000001,"N_COORD97":2558797.2999999998,"ADDRESS":"蘇厝１１２之１４號","OBJECTID":92570},"geometry":{"x":173824.0700000003,"y":2558797.3000000007}},{"attributes":{"ID":92571,"DIS_CODE":0,"TOWNNAME":"東區","LI":"東安里","LIN":"10鄰","STREET":"長榮路","SECT":"二段","MAREA":" ","LANE":"３２巷","ALLEY":"４６弄","HOUSE_NO":"９９號","E_COORD97":170117.87,"N_COORD97":2543112.5099999998,"ADDRESS":"長榮路二段３２巷４６弄９９號","OBJECTID":92571},"geometry":{"x":170117.86999999918,"y":2543112.5100000016}},{"attributes":{"ID":92572,"DIS_CODE":0,"TOWNNAME":"安定區","LI":"蘇林里","LIN":"10鄰","STREET":" ","SECT":" ","MAREA":"蘇厝","LANE":" ","ALLEY":" ","HOUSE_NO":"１１１號之１６","E_COORD97":173742.51000000001,"N_COORD97":2558882.2999999998,"ADDRESS":"蘇厝１１１號之１６","OBJECTID":92572},"geometry":{"x":173742.50999999978,"y":2558882.3000000007}},{"attributes":{"ID":92573,"DIS_CODE":0,"TOWNNAME":"安定區","LI":"保西里","LIN":"10鄰","STREET":" ","SECT":" ","MAREA":"安定","LANE":" ","ALLEY":" ","HOUSE_NO":"４１２之２號","E_COORD97":171688.72,"N_COORD97":2557881.3199999998,"ADDRESS":"安定４１２之２號","OBJECTID":92573},"geometry":{"x":171688.72000000067,"y":2557881.3200000003}},{"attributes":{"ID":92574,"DIS_CODE":0,"TOWNNAME":"柳營區","LI":"光福里","LIN":"15鄰","STREET":" ","SECT":" ","MAREA":"柳營","LANE":" ","ALLEY":" ","HOUSE_NO":"２６５之２２號","E_COORD97":179682.04000000001,"N_COORD97":2575364.0699999998,"ADDRESS":"柳營２６５之２２號","OBJECTID":92574},"geometry":{"x":179682.04000000004,"y":2575364.0700000003}},{"attributes":{"ID":92575,"DIS_CODE":0,"TOWNNAME":"柳營區","LI":"光福里","LIN":"15鄰","STREET":" ","SECT":" ","MAREA":"柳營","LANE":" ","ALLEY":" ","HOUSE_NO":"２６５號","E_COORD97":179695.53,"N_COORD97":2575352.3100000001,"ADDRESS":"柳營２６５號","OBJECTID":92575},"geometry":{"x":179695.53000000119,"y":2575352.3100000005}},{"attributes":{"ID":92576,"DIS_CODE":0,"TOWNNAME":"柳營區","LI":"光福里","LIN":"15鄰","STREET":" ","SECT":" ","MAREA":"柳營","LANE":" ","ALLEY":" ","HOUSE_NO":"２６６號","E_COORD97":179717.10999999999,"N_COORD97":2575356.77,"ADDRESS":"柳營２６６號","OBJECTID":92576},"geometry":{"x":179717.11000000127,"y":2575356.7700000014}},{"attributes":{"ID":92577,"DIS_CODE":0,"TOWNNAME":"柳營區","LI":"光福里","LIN":"15鄰","STREET":" ","SECT":" ","MAREA":"柳營","LANE":" ","ALLEY":" ","HOUSE_NO":"２６８號","E_COORD97":179737.92000000001,"N_COORD97":2575355.6200000001,"ADDRESS":"柳營２６８號","OBJECTID":92577},"geometry":{"x":179737.92000000086,"y":2575355.6200000029}},{"attributes":{"ID":92578,"DIS_CODE":0,"TOWNNAME":"柳營區","LI":"光福里","LIN":"15鄰","STREET":" ","SECT":" ","MAREA":"柳營","LANE":" ","ALLEY":" ","HOUSE_NO":"２６９號","E_COORD97":179738,"N_COORD97":2575364.3799999999,"ADDRESS":"柳營２６９號","OBJECTID":92578},"geometry":{"x":179738.00000000093,"y":2575364.3799999971}},{"attributes":{"ID":92579,"DIS_CODE":0,"TOWNNAME":"柳營區","LI":"光福里","LIN":"15鄰","STREET":" ","SECT":" ","MAREA":"柳營","LANE":" ","ALLEY":" ","HOUSE_NO":"２７０號","E_COORD97":179764.44,"N_COORD97":2575355.0099999998,"ADDRESS":"柳營２７０號","OBJECTID":92579},"geometry":{"x":179764.44000000041,"y":2575355.0100000016}},{"attributes":{"ID":92580,"DIS_CODE":0,"TOWNNAME":"柳營區","LI":"光福里","LIN":"15鄰","STREET":" ","SECT":" ","MAREA":"柳營","LANE":" ","ALLEY":" ","HOUSE_NO":"２７２之７號","E_COORD97":179788,"N_COORD97":2575333.9500000002,"ADDRESS":"柳營２７２之７號","OBJECTID":92580},"geometry":{"x":179788.00000000186,"y":2575333.950000003}},{"attributes":{"ID":92581,"DIS_CODE":0,"TOWNNAME":"永康區","LI":"西橋里","LIN":"10鄰","STREET":"中華西街","SECT":" ","MAREA":" ","LANE":"８５巷","ALLEY":"１２弄","HOUSE_NO":"１０號","E_COORD97":170671.70000000001,"N_COORD97":2546096,"ADDRESS":"中華西街８５巷１２弄１０號","OBJECTID":92581},"geometry":{"x":170671.70000000019,"y":2546096.0000000037}},{"attributes":{"ID":92582,"DIS_CODE":0,"TOWNNAME":"永康區","LI":"甲頂里","LIN":"10鄰","STREET":"中正南路","SECT":" ","MAREA":" ","LANE":"５２巷","ALLEY":"６４弄","HOUSE_NO":"７號","E_COORD97":169957.95999999999,"N_COORD97":2546749.5,"ADDRESS":"中正南路５２巷６４弄７號","OBJECTID":92582},"geometry":{"x":169957.96000000183,"y":2546749.5}},{"attributes":{"ID":92583,"DIS_CODE":0,"TOWNNAME":"永康區","LI":"西橋里","LIN":"10鄰","STREET":"中華西街","SECT":" ","MAREA":" ","LANE":"８５巷","ALLEY":"１２弄","HOUSE_NO":"６號","E_COORD97":170675.39999999999,"N_COORD97":2546083.2400000002,"ADDRESS":"中華西街８５巷１２弄６號","OBJECTID":92583},"geometry":{"x":170675.40000000037,"y":2546083.2400000002}},{"attributes":{"ID":92584,"DIS_CODE":0,"TOWNNAME":"安南區","LI":"砂崙里","LIN":"10鄰","STREET":"青砂街","SECT":"一段","MAREA":" ","LANE":"６３３巷","ALLEY":"２０弄","HOUSE_NO":"１０５號","E_COORD97":159815.81,"N_COORD97":2552777.0699999998,"ADDRESS":"青砂街一段６３３巷２０弄１０５號","OBJECTID":92584},"geometry":{"x":159815.80999999959,"y":2552777.0700000003}},{"attributes":{"ID":92585,"DIS_CODE":0,"TOWNNAME":"安南區","LI":"砂崙里","LIN":"10鄰","STREET":"青砂街","SECT":"一段","MAREA":" ","LANE":"６３３巷","ALLEY":"２０弄","HOUSE_NO":"１０９號","E_COORD97":159800.63,"N_COORD97":2552763.3599999999,"ADDRESS":"青砂街一段６３３巷２０弄１０９號","OBJECTID":92585},"geometry":{"x":159800.62999999989,"y":2552763.3599999994}},{"attributes":{"ID":92586,"DIS_CODE":0,"TOWNNAME":"安南區","LI":"安和里","LIN":"10鄰","STREET":"安和路","SECT":"一段","MAREA":" ","LANE":"５２巷","ALLEY":"２１弄","HOUSE_NO":"１０號","E_COORD97":169613.35000000001,"N_COORD97":2547556.4100000001,"ADDRESS":"安和路一段５２巷２１弄１０號","OBJECTID":92586},"geometry":{"x":169613.34999999963,"y":2547556.4100000001}},{"attributes":{"ID":92587,"DIS_CODE":0,"TOWNNAME":"安南區","LI":"安和里","LIN":"10鄰","STREET":"安和路","SECT":"一段","MAREA":" ","LANE":"５２巷","ALLEY":"２１弄","HOUSE_NO":"１１號","E_COORD97":169582.44,"N_COORD97":2547544.2599999998,"ADDRESS":"安和路一段５２巷２１弄１１號","OBJECTID":92587},"geometry":{"x":169582.44000000134,"y":2547544.2599999998}},{"attributes":{"ID":92588,"DIS_CODE":0,"TOWNNAME":"安南區","LI":"安和里","LIN":"10鄰","STREET":"安和路","SECT":"一段","MAREA":" ","LANE":"５２巷","ALLEY":"２１弄","HOUSE_NO":"１２號","E_COORD97":169617.92000000001,"N_COORD97":2547561.4700000002,"ADDRESS":"安和路一段５２巷２１弄１２號","OBJECTID":92588},"geometry":{"x":169617.92000000086,"y":2547561.4700000044}},{"attributes":{"ID":92589,"DIS_CODE":0,"TOWNNAME":"安南區","LI":"安和里","LIN":"10鄰","STREET":"安和路","SECT":"一段","MAREA":" ","LANE":"５２巷","ALLEY":"２１弄","HOUSE_NO":"１３號","E_COORD97":169580.92000000001,"N_COORD97":2547547.5499999998,"ADDRESS":"安和路一段５２巷２１弄１３號","OBJECTID":92589},"geometry":{"x":169580.92000000086,"y":2547547.5500000045}},{"attributes":{"ID":92590,"DIS_CODE":0,"TOWNNAME":"安南區","LI":"安和里","LIN":"10鄰","STREET":"安和路","SECT":"一段","MAREA":" ","LANE":"５２巷","ALLEY":"２１弄","HOUSE_NO":"１５號","E_COORD97":169579.39999999999,"N_COORD97":2547552.1099999999,"ADDRESS":"安和路一段５２巷２１弄１５號","OBJECTID":92590},"geometry":{"x":169579.4000000013,"y":2547552.1099999975}},{"attributes":{"ID":92591,"DIS_CODE":0,"TOWNNAME":"安南區","LI":"安和里","LIN":"10鄰","STREET":"安和路","SECT":"一段","MAREA":" ","LANE":"５２巷","ALLEY":"２１弄","HOUSE_NO":"１６號","E_COORD97":169626.53,"N_COORD97":2547569.3199999998,"ADDRESS":"安和路一段５２巷２１弄１６號","OBJECTID":92591},"geometry":{"x":169626.53000000026,"y":2547569.3200000022}},{"attributes":{"ID":92592,"DIS_CODE":0,"TOWNNAME":"安南區","LI":"安和里","LIN":"10鄰","STREET":"安和路","SECT":"一段","MAREA":" ","LANE":"５２巷","ALLEY":"２１弄","HOUSE_NO":"１７號","E_COORD97":169576.85999999999,"N_COORD97":2547555.6499999999,"ADDRESS":"安和路一段５２巷２１弄１７號","OBJECTID":92592},"geometry":{"x":169576.86000000034,"y":2547555.6500000004}},{"attributes":{"ID":92593,"DIS_CODE":0,"TOWNNAME":"安南區","LI":"安和里","LIN":"10鄰","STREET":"安和路","SECT":"一段","MAREA":" ","LANE":"５２巷","ALLEY":"２１弄","HOUSE_NO":"１８號","E_COORD97":169632.54999999999,"N_COORD97":2547571.4500000002,"ADDRESS":"安和路一段５２巷２１弄１８號","OBJECTID":92593},"geometry":{"x":169632.54999999981,"y":2547571.4500000011}},{"attributes":{"ID":92594,"DIS_CODE":0,"TOWNNAME":"安南區","LI":"安和里","LIN":"10鄰","STREET":"安和路","SECT":"一段","MAREA":" ","LANE":"５２巷","ALLEY":"２１弄","HOUSE_NO":"１號","E_COORD97":169588.01000000001,"N_COORD97":2547520.96,"ADDRESS":"安和路一段５２巷２１弄１號","OBJECTID":92594},"geometry":{"x":169588.01000000071,"y":2547520.9600000046}},{"attributes":{"ID":92595,"DIS_CODE":0,"TOWNNAME":"安南區","LI":"安和里","LIN":"10鄰","STREET":"安和路","SECT":"一段","MAREA":" ","LANE":"５２巷","ALLEY":"２１弄","HOUSE_NO":"２０號","E_COORD97":169636.54999999999,"N_COORD97":2547576.2400000002,"ADDRESS":"安和路一段５２巷２１弄２０號","OBJECTID":92595},"geometry":{"x":169636.54999999981,"y":2547576.2400000039}},{"attributes":{"ID":92596,"DIS_CODE":0,"TOWNNAME":"安南區","LI":"安和里","LIN":"10鄰","STREET":"安和路","SECT":"一段","MAREA":" ","LANE":"５２巷","ALLEY":"２１弄","HOUSE_NO":"２１號","E_COORD97":169574.07000000001,"N_COORD97":2547565.02,"ADDRESS":"安和路一段５２巷２１弄２１號","OBJECTID":92596},"geometry":{"x":169574.0700000003,"y":2547565.0199999996}},{"attributes":{"ID":92597,"DIS_CODE":0,"TOWNNAME":"安南區","LI":"安和里","LIN":"10鄰","STREET":"安和路","SECT":"一段","MAREA":" ","LANE":"５２巷","ALLEY":"２１弄","HOUSE_NO":"２２號","E_COORD97":169640.95000000001,"N_COORD97":2547579.04,"ADDRESS":"安和路一段５２巷２１弄２２號","OBJECTID":92597},"geometry":{"x":169640.95000000019,"y":2547579.0399999991}},{"attributes":{"ID":92598,"DIS_CODE":0,"TOWNNAME":"安南區","LI":"安和里","LIN":"10鄰","STREET":"安和路","SECT":"一段","MAREA":" ","LANE":"５２巷","ALLEY":"２１弄","HOUSE_NO":"２４號","E_COORD97":169646.34,"N_COORD97":2547581.4300000002,"ADDRESS":"安和路一段５２巷２１弄２４號","OBJECTID":92598},"geometry":{"x":169646.33999999985,"y":2547581.4300000016}},{"attributes":{"ID":92599,"DIS_CODE":0,"TOWNNAME":"安南區","LI":"安和里","LIN":"10鄰","STREET":"安和路","SECT":"一段","MAREA":" ","LANE":"５２巷","ALLEY":"２１弄","HOUSE_NO":"２５號","E_COORD97":169570.26999999999,"N_COORD97":2547573.3799999999,"ADDRESS":"安和路一段５２巷２１弄２５號","OBJECTID":92599},"geometry":{"x":169570.26999999955,"y":2547573.379999999}},{"attributes":{"ID":92600,"DIS_CODE":0,"TOWNNAME":"安南區","LI":"安和里","LIN":"10鄰","STREET":"安和路","SECT":"一段","MAREA":" ","LANE":"５２巷","ALLEY":"２１弄","HOUSE_NO":"２６號","E_COORD97":169625.76999999999,"N_COORD97":2547595.1400000001,"ADDRESS":"安和路一段５２巷２１弄２６號","OBJECTID":92600},"geometry":{"x":169625.76999999955,"y":2547595.1400000025}}]}