{"displayFieldName":"TOWNNAME","fieldAliases":{"ID":"ID","DIS_CODE":"DIS_CODE","TOWNNAME":"TOWNNAME","LI":"LI","LIN":"LIN","STREET":"STREET","SECT":"SECT","MAREA":"MAREA","LANE":"LANE","ALLEY":"ALLEY","HOUSE_NO":"HOUSE_NO","E_COORD97":"E_COORD97","N_COORD97":"N_COORD97","ADDRESS":"ADDRESS","OBJECTID":"OBJECTID"},"geometryType":"esriGeometryPoint","spatialReference":{"wkid":102443,"latestWkid":3826},"fields":[{"name":"ID","type":"esriFieldTypeDouble","alias":"ID"},{"name":"DIS_CODE","type":"esriFieldTypeInteger","alias":"DIS_CODE"},{"name":"TOWNNAME","type":"esriFieldTypeString","alias":"TOWNNAME","length":8},{"name":"LI","type":"esriFieldTypeString","alias":"LI","length":8},{"name":"LIN","type":"esriFieldTypeString","alias":"LIN","length":12},{"name":"STREET","type":"esriFieldTypeString","alias":"STREET","length":20},{"name":"SECT","type":"esriFieldTypeString","alias":"SECT","length":8},{"name":"MAREA","type":"esriFieldTypeString","alias":"MAREA","length":12},{"name":"LANE","type":"esriFieldTypeString","alias":"LANE","length":10},{"name":"ALLEY","type":"esriFieldTypeString","alias":"ALLEY","length":10},{"name":"HOUSE_NO","type":"esriFieldTypeString","alias":"HOUSE_NO","length":20},{"name":"E_COORD97","type":"esriFieldTypeDouble","alias":"E_COORD97"},{"name":"N_COORD97","type":"esriFieldTypeDouble","alias":"N_COORD97"},{"name":"ADDRESS","type":"esriFieldTypeString","alias":"ADDRESS","length":50},{"name":"OBJECTID","type":"esriFieldTypeOID","alias":"OBJECTID"}],"features":[{"attributes":{"ID":57801,"DIS_CODE":0,"TOWNNAME":"安南區","LI":"\u25A0田里","LIN":"1鄰","STREET":"\u25A0田路","SECT":" ","MAREA":" ","LANE":"３９５巷","ALLEY":"５弄","HOUSE_NO":"２７號","E_COORD97":161903.92999999999,"N_COORD97":2548069.9700000002,"ADDRESS":"\u25A0田路３９５巷５弄２７號","OBJECTID":57801},"geometry":{"x":161903.93000000156,"y":2548069.9700000044}},{"attributes":{"ID":57802,"DIS_CODE":0,"TOWNNAME":"安南區","LI":"\u25A0田里","LIN":"1鄰","STREET":"\u25A0田路","SECT":" ","MAREA":" ","LANE":"３９５巷","ALLEY":"５弄","HOUSE_NO":"２９號","E_COORD97":161908.82999999999,"N_COORD97":2548070.6299999999,"ADDRESS":"\u25A0田路３９５巷５弄２９號","OBJECTID":57802},"geometry":{"x":161908.83000000101,"y":2548070.6300000027}},{"attributes":{"ID":57803,"DIS_CODE":0,"TOWNNAME":"麻豆區","LI":"總榮里","LIN":"1鄰","STREET":" ","SECT":" ","MAREA":"總爺\u25A0","LANE":" ","ALLEY":" ","HOUSE_NO":"３號之１６","E_COORD97":174956.54000000001,"N_COORD97":2564754.4700000002,"ADDRESS":"總爺\u25A0３號之１６","OBJECTID":57803},"geometry":{"x":174956.5400000019,"y":2564754.4700000025}},{"attributes":{"ID":57804,"DIS_CODE":0,"TOWNNAME":"麻豆區","LI":"總榮里","LIN":"1鄰","STREET":" ","SECT":" ","MAREA":"總爺\u25A0","LANE":" ","ALLEY":" ","HOUSE_NO":"３號之１７","E_COORD97":174951.94,"N_COORD97":2564754.4199999999,"ADDRESS":"總爺\u25A0３號之１７","OBJECTID":57804},"geometry":{"x":174951.94000000041,"y":2564754.4200000018}},{"attributes":{"ID":57805,"DIS_CODE":0,"TOWNNAME":"麻豆區","LI":"總榮里","LIN":"1鄰","STREET":" ","SECT":" ","MAREA":"總爺\u25A0","LANE":" ","ALLEY":" ","HOUSE_NO":"３號之５","E_COORD97":174946.38,"N_COORD97":2564773.98,"ADDRESS":"總爺\u25A0３號之５","OBJECTID":57805},"geometry":{"x":174946.38000000082,"y":2564773.9800000042}},{"attributes":{"ID":57806,"DIS_CODE":0,"TOWNNAME":"麻豆區","LI":"總榮里","LIN":"1鄰","STREET":" ","SECT":" ","MAREA":"總爺\u25A0","LANE":" ","ALLEY":" ","HOUSE_NO":"８號之１","E_COORD97":175047.67999999999,"N_COORD97":2564687.8500000001,"ADDRESS":"總爺\u25A0８號之１","OBJECTID":57806},"geometry":{"x":175047.6799999997,"y":2564687.8499999996}},{"attributes":{"ID":57807,"DIS_CODE":0,"TOWNNAME":"安平區","LI":"海頭里","LIN":"18鄰","STREET":"古堡街","SECT":" ","MAREA":" ","LANE":" ","ALLEY":" ","HOUSE_NO":"１２０號之１７","E_COORD97":163785.14999999999,"N_COORD97":2544960.8500000001,"ADDRESS":"古堡街１２０號之１７","OBJECTID":57807},"geometry":{"x":163785.1500000013,"y":2544960.8500000034}},{"attributes":{"ID":57808,"DIS_CODE":0,"TOWNNAME":"安平區","LI":"海頭里","LIN":"18鄰","STREET":"古堡街","SECT":" ","MAREA":" ","LANE":" ","ALLEY":" ","HOUSE_NO":"１２０號之２","E_COORD97":163804.44,"N_COORD97":2544905.2200000002,"ADDRESS":"古堡街１２０號之２","OBJECTID":57808},"geometry":{"x":163804.44000000041,"y":2544905.2200000044}},{"attributes":{"ID":57809,"DIS_CODE":0,"TOWNNAME":"安南區","LI":"\u25A0田里","LIN":"1鄰","STREET":"\u25A0田路","SECT":" ","MAREA":" ","LANE":"３９５巷","ALLEY":"５弄","HOUSE_NO":"３１號","E_COORD97":161913.06,"N_COORD97":2548071.4300000002,"ADDRESS":"\u25A0田路３９５巷５弄３１號","OBJECTID":57809},"geometry":{"x":161913.05999999866,"y":2548071.4299999997}},{"attributes":{"ID":57810,"DIS_CODE":0,"TOWNNAME":"安南區","LI":"\u25A0田里","LIN":"1鄰","STREET":"\u25A0田路","SECT":" ","MAREA":" ","LANE":"３９５巷","ALLEY":"５弄","HOUSE_NO":"２號","E_COORD97":161848.37,"N_COORD97":2548032.7999999998,"ADDRESS":"\u25A0田路３９５巷５弄２號","OBJECTID":57810},"geometry":{"x":161848.37000000011,"y":2548032.8000000007}},{"attributes":{"ID":57811,"DIS_CODE":0,"TOWNNAME":"安南區","LI":"\u25A0田里","LIN":"1鄰","STREET":"\u25A0田路","SECT":" ","MAREA":" ","LANE":"３９５巷","ALLEY":"５弄","HOUSE_NO":"６號","E_COORD97":161852.87,"N_COORD97":2548033.46,"ADDRESS":"\u25A0田路３９５巷５弄６號","OBJECTID":57811},"geometry":{"x":161852.87000000104,"y":2548033.4600000028}},{"attributes":{"ID":57812,"DIS_CODE":0,"TOWNNAME":"安南區","LI":"\u25A0田里","LIN":"1鄰","STREET":"\u25A0田路","SECT":" ","MAREA":" ","LANE":"３９５巷","ALLEY":"５弄","HOUSE_NO":"８號","E_COORD97":161856.31,"N_COORD97":2548035.0499999998,"ADDRESS":"\u25A0田路３９５巷５弄８號","OBJECTID":57812},"geometry":{"x":161856.31000000052,"y":2548035.0500000007}},{"attributes":{"ID":57813,"DIS_CODE":0,"TOWNNAME":"安南區","LI":"\u25A0田里","LIN":"1鄰","STREET":"\u25A0田路","SECT":" ","MAREA":" ","LANE":"３９５巷","ALLEY":"５弄","HOUSE_NO":"１０號","E_COORD97":161861.73000000001,"N_COORD97":2548035.9700000002,"ADDRESS":"\u25A0田路３９５巷５弄１０號","OBJECTID":57813},"geometry":{"x":161861.73000000045,"y":2548035.9700000044}},{"attributes":{"ID":57814,"DIS_CODE":0,"TOWNNAME":"安南區","LI":"\u25A0田里","LIN":"1鄰","STREET":"\u25A0田路","SECT":" ","MAREA":" ","LANE":"３９５巷","ALLEY":"５弄","HOUSE_NO":"１２號","E_COORD97":161866.35999999999,"N_COORD97":2548037.4300000002,"ADDRESS":"\u25A0田路３９５巷５弄１２號","OBJECTID":57814},"geometry":{"x":161866.36000000127,"y":2548037.4299999997}},{"attributes":{"ID":57815,"DIS_CODE":0,"TOWNNAME":"安南區","LI":"\u25A0田里","LIN":"1鄰","STREET":"\u25A0田路","SECT":" ","MAREA":" ","LANE":"３９５巷","ALLEY":"５弄","HOUSE_NO":"１６號","E_COORD97":161870.85999999999,"N_COORD97":2548038.4900000002,"ADDRESS":"\u25A0田路３９５巷５弄１６號","OBJECTID":57815},"geometry":{"x":161870.86000000034,"y":2548038.4899999984}},{"attributes":{"ID":57816,"DIS_CODE":0,"TOWNNAME":"安南區","LI":"\u25A0田里","LIN":"1鄰","STREET":"\u25A0田路","SECT":" ","MAREA":" ","LANE":"３９５巷","ALLEY":"５弄","HOUSE_NO":"１８號","E_COORD97":161875.09,"N_COORD97":2548039.9399999999,"ADDRESS":"\u25A0田路３９５巷５弄１８號","OBJECTID":57816},"geometry":{"x":161875.08999999985,"y":2548039.9400000013}},{"attributes":{"ID":57817,"DIS_CODE":0,"TOWNNAME":"安南區","LI":"\u25A0田里","LIN":"1鄰","STREET":"\u25A0田路","SECT":" ","MAREA":" ","LANE":"３９５巷","ALLEY":"５弄","HOUSE_NO":"２０號","E_COORD97":161879.06,"N_COORD97":2548041.1299999999,"ADDRESS":"\u25A0田路３９５巷５弄２０號","OBJECTID":57817},"geometry":{"x":161879.05999999959,"y":2548041.1300000008}},{"attributes":{"ID":57818,"DIS_CODE":0,"TOWNNAME":"安南區","LI":"\u25A0田里","LIN":"1鄰","STREET":"\u25A0田路","SECT":" ","MAREA":" ","LANE":"３９５巷","ALLEY":"５弄","HOUSE_NO":"２２號","E_COORD97":161883.29999999999,"N_COORD97":2548042.1899999999,"ADDRESS":"\u25A0田路３９５巷５弄２２號","OBJECTID":57818},"geometry":{"x":161883.30000000075,"y":2548042.1899999995}},{"attributes":{"ID":57819,"DIS_CODE":0,"TOWNNAME":"安南區","LI":"\u25A0田里","LIN":"1鄰","STREET":"\u25A0田路","SECT":" ","MAREA":" ","LANE":"３９５巷","ALLEY":"５弄","HOUSE_NO":"２６號","E_COORD97":161888.06,"N_COORD97":2548042.8500000001,"ADDRESS":"\u25A0田路３９５巷５弄２６號","OBJECTID":57819},"geometry":{"x":161888.06000000052,"y":2548042.8500000015}},{"attributes":{"ID":57820,"DIS_CODE":0,"TOWNNAME":"安南區","LI":"\u25A0田里","LIN":"1鄰","STREET":"\u25A0田路","SECT":" ","MAREA":" ","LANE":"３９５巷","ALLEY":"５弄","HOUSE_NO":"２８號","E_COORD97":161891.76000000001,"N_COORD97":2548044.4399999999,"ADDRESS":"\u25A0田路３９５巷５弄２８號","OBJECTID":57820},"geometry":{"x":161891.76000000164,"y":2548044.4399999995}},{"attributes":{"ID":57821,"DIS_CODE":0,"TOWNNAME":"安南區","LI":"\u25A0田里","LIN":"1鄰","STREET":"\u25A0田路","SECT":" ","MAREA":" ","LANE":"３９５巷","ALLEY":"５弄","HOUSE_NO":"３０號","E_COORD97":161896.39000000001,"N_COORD97":2548045.1000000001,"ADDRESS":"\u25A0田路３９５巷５弄３０號","OBJECTID":57821},"geometry":{"x":161896.3900000006,"y":2548045.1000000015}},{"attributes":{"ID":57822,"DIS_CODE":0,"TOWNNAME":"安南區","LI":"\u25A0田里","LIN":"1鄰","STREET":"\u25A0田路","SECT":" ","MAREA":" ","LANE":"３９５巷","ALLEY":"５弄","HOUSE_NO":"３２號","E_COORD97":161901.95000000001,"N_COORD97":2548046.4199999999,"ADDRESS":"\u25A0田路３９５巷５弄３２號","OBJECTID":57822},"geometry":{"x":161901.95000000019,"y":2548046.4200000018}},{"attributes":{"ID":57823,"DIS_CODE":0,"TOWNNAME":"安南區","LI":"\u25A0田里","LIN":"1鄰","STREET":"\u25A0田路","SECT":" ","MAREA":" ","LANE":"３９５巷","ALLEY":"５弄","HOUSE_NO":"３６號","E_COORD97":161906.98000000001,"N_COORD97":2548047.3500000001,"ADDRESS":"\u25A0田路３９５巷５弄３６號","OBJECTID":57823},"geometry":{"x":161906.98000000045,"y":2548047.3500000015}},{"attributes":{"ID":57824,"DIS_CODE":0,"TOWNNAME":"安南區","LI":"\u25A0田里","LIN":"1鄰","STREET":"\u25A0田路","SECT":" ","MAREA":" ","LANE":"３９５巷","ALLEY":"５弄","HOUSE_NO":"３８號","E_COORD97":161912.39999999999,"N_COORD97":2548048.4100000001,"ADDRESS":"\u25A0田路３９５巷５弄３８號","OBJECTID":57824},"geometry":{"x":161912.4000000013,"y":2548048.4100000001}},{"attributes":{"ID":57825,"DIS_CODE":0,"TOWNNAME":"安南區","LI":"海南里","LIN":"7鄰","STREET":"府安路","SECT":"六段","MAREA":" ","LANE":"１０３巷","ALLEY":"１３弄","HOUSE_NO":"１５號","E_COORD97":166667.152799,"N_COORD97":2546486.3515499998,"ADDRESS":"府安路六段１０３巷１３弄１５號","OBJECTID":57825},"geometry":{"x":166667.15279900189,"y":2546486.3515499998}},{"attributes":{"ID":57826,"DIS_CODE":0,"TOWNNAME":"安南區","LI":"\u25A0田里","LIN":"1鄰","STREET":"\u25A0田路","SECT":" ","MAREA":" ","LANE":"３９５巷","ALLEY":"５弄","HOUSE_NO":"４０號","E_COORD97":161917.03,"N_COORD97":2548049.2000000002,"ADDRESS":"\u25A0田路３９５巷５弄４０號","OBJECTID":57826},"geometry":{"x":161917.03000000026,"y":2548049.1999999993}},{"attributes":{"ID":57827,"DIS_CODE":0,"TOWNNAME":"新營區","LI":"興安里","LIN":"8鄰","STREET":"新進路","SECT":" ","MAREA":" ","LANE":" ","ALLEY":" ","HOUSE_NO":"２５７號","E_COORD97":180017.04999999999,"N_COORD97":2577824.0099999998,"ADDRESS":"新進路２５７號","OBJECTID":57827},"geometry":{"x":180017.05000000075,"y":2577824.0100000016}},{"attributes":{"ID":57828,"DIS_CODE":0,"TOWNNAME":"新營區","LI":"大宏里","LIN":"8鄰","STREET":"文昌街","SECT":" ","MAREA":" ","LANE":" ","ALLEY":" ","HOUSE_NO":"３２號","E_COORD97":180366.13,"N_COORD97":2578359.4700000002,"ADDRESS":"文昌街３２號","OBJECTID":57828},"geometry":{"x":180366.12999999989,"y":2578359.4700000044}},{"attributes":{"ID":57829,"DIS_CODE":0,"TOWNNAME":"新營區","LI":"舊部里","LIN":"8鄰","STREET":" ","SECT":" ","MAREA":"舊部","LANE":" ","ALLEY":" ","HOUSE_NO":"３７號之３","E_COORD97":177115.75,"N_COORD97":2575471.4100000001,"ADDRESS":"舊部３７號之３","OBJECTID":57829},"geometry":{"x":177115.75,"y":2575471.410000002}},{"attributes":{"ID":57830,"DIS_CODE":0,"TOWNNAME":"新營區","LI":"民權里","LIN":"8鄰","STREET":"博愛街","SECT":" ","MAREA":" ","LANE":" ","ALLEY":" ","HOUSE_NO":"６７號","E_COORD97":179854.57999999999,"N_COORD97":2578135.96,"ADDRESS":"博愛街６７號","OBJECTID":57830},"geometry":{"x":179854.58000000007,"y":2578135.9600000046}},{"attributes":{"ID":57831,"DIS_CODE":0,"TOWNNAME":"新營區","LI":"舊部里","LIN":"8鄰","STREET":" ","SECT":" ","MAREA":"舊部","LANE":" ","ALLEY":" ","HOUSE_NO":"３６號之１","E_COORD97":177136.29000000001,"N_COORD97":2575506.75,"ADDRESS":"舊部３６號之１","OBJECTID":57831},"geometry":{"x":177136.29000000004,"y":2575506.7500000019}},{"attributes":{"ID":57832,"DIS_CODE":0,"TOWNNAME":"新營區","LI":"舊部里","LIN":"8鄰","STREET":" ","SECT":" ","MAREA":"舊部","LANE":" ","ALLEY":" ","HOUSE_NO":"１０６號","E_COORD97":176935.26999999999,"N_COORD97":2575605.1400000001,"ADDRESS":"舊部１０６號","OBJECTID":57832},"geometry":{"x":176935.27000000048,"y":2575605.1399999987}},{"attributes":{"ID":57833,"DIS_CODE":0,"TOWNNAME":"新營區","LI":"鐵線里","LIN":"8鄰","STREET":" ","SECT":" ","MAREA":"鐵線橋","LANE":" ","ALLEY":" ","HOUSE_NO":"９４號","E_COORD97":175973.97,"N_COORD97":2573886.7000000002,"ADDRESS":"鐵線橋９４號","OBJECTID":57833},"geometry":{"x":175973.97000000067,"y":2573886.6999999993}},{"attributes":{"ID":57834,"DIS_CODE":0,"TOWNNAME":"新營區","LI":"舊部里","LIN":"8鄰","STREET":" ","SECT":" ","MAREA":"舊部","LANE":" ","ALLEY":" ","HOUSE_NO":"３８之６號","E_COORD97":177073.51999999999,"N_COORD97":2575566.8599999999,"ADDRESS":"舊部３８之６號","OBJECTID":57834},"geometry":{"x":177073.52000000142,"y":2575566.8600000013}},{"attributes":{"ID":57835,"DIS_CODE":0,"TOWNNAME":"新營區","LI":"民權里","LIN":"8鄰","STREET":"博愛街","SECT":" ","MAREA":" ","LANE":" ","ALLEY":" ","HOUSE_NO":"６９號","E_COORD97":179848.44,"N_COORD97":2578135.9900000002,"ADDRESS":"博愛街６９號","OBJECTID":57835},"geometry":{"x":179848.44000000134,"y":2578135.9900000021}},{"attributes":{"ID":57836,"DIS_CODE":0,"TOWNNAME":"安南區","LI":"\u25A0田里","LIN":"1鄰","STREET":"大眾路","SECT":" ","MAREA":" ","LANE":"１０１巷","ALLEY":"１２７弄","HOUSE_NO":"８號","E_COORD97":162019.98999999999,"N_COORD97":2547448.2599999998,"ADDRESS":"大眾路１０１巷１２７弄８號","OBJECTID":57836},"geometry":{"x":162019.99000000115,"y":2547448.2599999998}},{"attributes":{"ID":57837,"DIS_CODE":0,"TOWNNAME":"安南區","LI":"梅花里","LIN":"1鄰","STREET":"北安路","SECT":"二段","MAREA":" ","LANE":"４３３巷","ALLEY":"１６０弄","HOUSE_NO":"１號","E_COORD97":168071.22,"N_COORD97":2548779.8199999998,"ADDRESS":"北安路二段４３３巷１６０弄１號","OBJECTID":57837},"geometry":{"x":168071.22000000067,"y":2548779.8200000022}},{"attributes":{"ID":57838,"DIS_CODE":0,"TOWNNAME":"新營區","LI":"鐵線里","LIN":"8鄰","STREET":" ","SECT":" ","MAREA":"鐵線橋","LANE":" ","ALLEY":" ","HOUSE_NO":"９１號","E_COORD97":175980.94,"N_COORD97":2573847.8999999999,"ADDRESS":"鐵線橋９１號","OBJECTID":57838},"geometry":{"x":175980.94000000041,"y":2573847.9000000022}},{"attributes":{"ID":57839,"DIS_CODE":0,"TOWNNAME":"新營區","LI":"角帶里","LIN":"8鄰","STREET":" ","SECT":" ","MAREA":"角帶圍","LANE":" ","ALLEY":" ","HOUSE_NO":"１０１號","E_COORD97":174929.29000000001,"N_COORD97":2575655.0299999998,"ADDRESS":"角帶圍１０１號","OBJECTID":57839},"geometry":{"x":174929.28999999911,"y":2575655.0299999993}},{"attributes":{"ID":57840,"DIS_CODE":0,"TOWNNAME":"新營區","LI":"護鎮里","LIN":"8鄰","STREET":" ","SECT":" ","MAREA":"後鎮","LANE":" ","ALLEY":" ","HOUSE_NO":"８５之５０號","E_COORD97":179300.98000000001,"N_COORD97":2580933.8799999999,"ADDRESS":"後鎮８５之５０號","OBJECTID":57840},"geometry":{"x":179300.98000000138,"y":2580933.879999999}},{"attributes":{"ID":57841,"DIS_CODE":0,"TOWNNAME":"新營區","LI":"角帶里","LIN":"8鄰","STREET":" ","SECT":" ","MAREA":"角帶圍","LANE":" ","ALLEY":" ","HOUSE_NO":"９４號","E_COORD97":174839.01999999999,"N_COORD97":2575657.7000000002,"ADDRESS":"角帶圍９４號","OBJECTID":57841},"geometry":{"x":174839.01999999955,"y":2575657.700000003}},{"attributes":{"ID":57842,"DIS_CODE":0,"TOWNNAME":"新營區","LI":"姑爺里","LIN":"8鄰","STREET":" ","SECT":" ","MAREA":"挖仔","LANE":" ","ALLEY":" ","HOUSE_NO":"１５號","E_COORD97":173839.75,"N_COORD97":2575505.5299999998,"ADDRESS":"挖仔１５號","OBJECTID":57842},"geometry":{"x":173839.75000000186,"y":2575505.5299999993}},{"attributes":{"ID":57843,"DIS_CODE":0,"TOWNNAME":"安南區","LI":"梅花里","LIN":"1鄰","STREET":"北安路","SECT":"二段","MAREA":" ","LANE":"４３３巷","ALLEY":"１６０弄","HOUSE_NO":"２號","E_COORD97":168075.17999999999,"N_COORD97":2548778.23,"ADDRESS":"北安路二段４３３巷１６０弄２號","OBJECTID":57843},"geometry":{"x":168075.18000000063,"y":2548778.2300000004}},{"attributes":{"ID":57844,"DIS_CODE":0,"TOWNNAME":"安南區","LI":"梅花里","LIN":"1鄰","STREET":"北安路","SECT":"二段","MAREA":" ","LANE":"４３３巷","ALLEY":"１６０弄","HOUSE_NO":"３號","E_COORD97":168073.32999999999,"N_COORD97":2548783.7799999998,"ADDRESS":"北安路二段４３３巷１６０弄３號","OBJECTID":57844},"geometry":{"x":168073.33000000007,"y":2548783.7799999993}},{"attributes":{"ID":57845,"DIS_CODE":0,"TOWNNAME":"安南區","LI":"梅花里","LIN":"1鄰","STREET":"北安路","SECT":"二段","MAREA":" ","LANE":"４３３巷","ALLEY":"１６０弄","HOUSE_NO":"６號","E_COORD97":168077.82999999999,"N_COORD97":2548782.9900000002,"ADDRESS":"北安路二段４３３巷１６０弄６號","OBJECTID":57845},"geometry":{"x":168077.83000000101,"y":2548782.9900000002}},{"attributes":{"ID":57846,"DIS_CODE":0,"TOWNNAME":"安南區","LI":"梅花里","LIN":"1鄰","STREET":"北安路","SECT":"二段","MAREA":" ","LANE":"４３３巷","ALLEY":"１６０弄","HOUSE_NO":"５號","E_COORD97":168075.45000000001,"N_COORD97":2548789.6099999999,"ADDRESS":"北安路二段４３３巷１６０弄５號","OBJECTID":57846},"geometry":{"x":168075.45000000112,"y":2548789.6100000031}},{"attributes":{"ID":57847,"DIS_CODE":0,"TOWNNAME":"安南區","LI":"梅花里","LIN":"1鄰","STREET":"北安路","SECT":"二段","MAREA":" ","LANE":"４３３巷","ALLEY":"１６０弄","HOUSE_NO":"８號","E_COORD97":168080.20999999999,"N_COORD97":2548789.6099999999,"ADDRESS":"北安路二段４３３巷１６０弄８號","OBJECTID":57847},"geometry":{"x":168080.21000000089,"y":2548789.6100000031}},{"attributes":{"ID":57848,"DIS_CODE":0,"TOWNNAME":"安南區","LI":"梅花里","LIN":"1鄰","STREET":"北安路","SECT":"二段","MAREA":" ","LANE":"４３３巷","ALLEY":"１６０弄","HOUSE_NO":"７號","E_COORD97":168076.23999999999,"N_COORD97":2548794.3700000001,"ADDRESS":"北安路二段４３３巷１６０弄７號","OBJECTID":57848},"geometry":{"x":168076.24000000209,"y":2548794.3700000029}},{"attributes":{"ID":57849,"DIS_CODE":0,"TOWNNAME":"安南區","LI":"梅花里","LIN":"1鄰","STREET":"北安路","SECT":"二段","MAREA":" ","LANE":"４３３巷","ALLEY":"１６０弄","HOUSE_NO":"１０號","E_COORD97":168081.53,"N_COORD97":2548795.6899999999,"ADDRESS":"北安路二段４３３巷１６０弄１０號","OBJECTID":57849},"geometry":{"x":168081.53000000119,"y":2548795.6899999995}},{"attributes":{"ID":57850,"DIS_CODE":0,"TOWNNAME":"安南區","LI":"梅花里","LIN":"1鄰","STREET":"北安路","SECT":"二段","MAREA":" ","LANE":"４３３巷","ALLEY":"１６０弄","HOUSE_NO":"９號","E_COORD97":168079.42000000001,"N_COORD97":2548802.5699999998,"ADDRESS":"北安路二段４３３巷１６０弄９號","OBJECTID":57850},"geometry":{"x":168079.41999999993,"y":2548802.5700000022}},{"attributes":{"ID":57851,"DIS_CODE":0,"TOWNNAME":"新營區","LI":"土庫里","LIN":"8鄰","STREET":" ","SECT":" ","MAREA":"土庫","LANE":" ","ALLEY":" ","HOUSE_NO":"７２號","E_COORD97":183120.12,"N_COORD97":2579827.4300000002,"ADDRESS":"土庫７２號","OBJECTID":57851},"geometry":{"x":183120.12000000197,"y":2579827.4300000016}},{"attributes":{"ID":57852,"DIS_CODE":0,"TOWNNAME":"新營區","LI":"五興里","LIN":"8鄰","STREET":" ","SECT":" ","MAREA":"五間厝","LANE":" ","ALLEY":" ","HOUSE_NO":"９３號","E_COORD97":175660.89000000001,"N_COORD97":2574911.5600000001,"ADDRESS":"五間厝９３號","OBJECTID":57852},"geometry":{"x":175660.8900000006,"y":2574911.5600000024}},{"attributes":{"ID":57853,"DIS_CODE":0,"TOWNNAME":"安南區","LI":"梅花里","LIN":"1鄰","STREET":"北安路","SECT":"二段","MAREA":" ","LANE":"４３３巷","ALLEY":"１６０弄","HOUSE_NO":"１２號","E_COORD97":168083.64999999999,"N_COORD97":2548801.5099999998,"ADDRESS":"北安路二段４３３巷１６０弄１２號","OBJECTID":57853},"geometry":{"x":168083.65000000037,"y":2548801.5100000016}},{"attributes":{"ID":57854,"DIS_CODE":0,"TOWNNAME":"安南區","LI":"\u25A0南里","LIN":"28鄰","STREET":"安昌街","SECT":" ","MAREA":" ","LANE":"３２２巷","ALLEY":"２弄","HOUSE_NO":"１０號","E_COORD97":170238.26000000001,"N_COORD97":2552836.6200000001,"ADDRESS":"安昌街３２２巷２弄１０號","OBJECTID":57854},"geometry":{"x":170238.25999999978,"y":2552836.6200000029}},{"attributes":{"ID":57855,"DIS_CODE":0,"TOWNNAME":"新營區","LI":"五興里","LIN":"8鄰","STREET":" ","SECT":" ","MAREA":"五間厝","LANE":" ","ALLEY":" ","HOUSE_NO":"９０之１１號","E_COORD97":175713.94,"N_COORD97":2574951.23,"ADDRESS":"五間厝９０之１１號","OBJECTID":57855},"geometry":{"x":175713.94000000134,"y":2574951.2300000023}},{"attributes":{"ID":57856,"DIS_CODE":0,"TOWNNAME":"麻豆區","LI":"謝安里","LIN":"1鄰","STREET":" ","SECT":" ","MAREA":"謝厝寮","LANE":" ","ALLEY":" ","HOUSE_NO":"１０號","E_COORD97":172240.04999999999,"N_COORD97":2561358.1699999999,"ADDRESS":"謝厝寮１０號","OBJECTID":57856},"geometry":{"x":172240.04999999981,"y":2561358.1700000037}},{"attributes":{"ID":57857,"DIS_CODE":0,"TOWNNAME":"麻豆區","LI":"中民里","LIN":"1鄰","STREET":" ","SECT":" ","MAREA":"謝厝寮","LANE":" ","ALLEY":" ","HOUSE_NO":"１１０號","E_COORD97":171811.54000000001,"N_COORD97":2560911.1299999999,"ADDRESS":"謝厝寮１１０號","OBJECTID":57857},"geometry":{"x":171811.54000000004,"y":2560911.1300000008}},{"attributes":{"ID":57858,"DIS_CODE":0,"TOWNNAME":"麻豆區","LI":"中民里","LIN":"1鄰","STREET":" ","SECT":" ","MAREA":"謝厝寮","LANE":" ","ALLEY":" ","HOUSE_NO":"１１１號","E_COORD97":171785.70999999999,"N_COORD97":2560915.1200000001,"ADDRESS":"謝厝寮１１１號","OBJECTID":57858},"geometry":{"x":171785.71000000089,"y":2560915.120000001}},{"attributes":{"ID":57859,"DIS_CODE":0,"TOWNNAME":"麻豆區","LI":"中民里","LIN":"1鄰","STREET":" ","SECT":" ","MAREA":"謝厝寮","LANE":" ","ALLEY":" ","HOUSE_NO":"１１２號","E_COORD97":171800.64999999999,"N_COORD97":2560954.7799999998,"ADDRESS":"謝厝寮１１２號","OBJECTID":57859},"geometry":{"x":171800.65000000037,"y":2560954.7800000012}},{"attributes":{"ID":57860,"DIS_CODE":0,"TOWNNAME":"麻豆區","LI":"中民里","LIN":"1鄰","STREET":" ","SECT":" ","MAREA":"謝厝寮","LANE":" ","ALLEY":" ","HOUSE_NO":"１３５號","E_COORD97":171779.64999999999,"N_COORD97":2561014.5699999998,"ADDRESS":"謝厝寮１３５號","OBJECTID":57860},"geometry":{"x":171779.6500000013,"y":2561014.5700000022}},{"attributes":{"ID":57861,"DIS_CODE":0,"TOWNNAME":"麻豆區","LI":"謝安里","LIN":"1鄰","STREET":" ","SECT":" ","MAREA":"謝厝寮","LANE":" ","ALLEY":" ","HOUSE_NO":"１號之１０","E_COORD97":172351.87,"N_COORD97":2561527.5699999998,"ADDRESS":"謝厝寮１號之１０","OBJECTID":57861},"geometry":{"x":172351.87000000011,"y":2561527.5700000003}},{"attributes":{"ID":57862,"DIS_CODE":0,"TOWNNAME":"麻豆區","LI":"謝安里","LIN":"1鄰","STREET":" ","SECT":" ","MAREA":"謝厝寮","LANE":" ","ALLEY":" ","HOUSE_NO":"１號之３","E_COORD97":172364.60000000001,"N_COORD97":2561540.0299999998,"ADDRESS":"謝厝寮１號之３","OBJECTID":57862},"geometry":{"x":172364.59999999963,"y":2561540.0299999993}},{"attributes":{"ID":57863,"DIS_CODE":0,"TOWNNAME":"麻豆區","LI":"謝安里","LIN":"1鄰","STREET":" ","SECT":" ","MAREA":"謝厝寮","LANE":" ","ALLEY":" ","HOUSE_NO":"１號之９","E_COORD97":172357.57000000001,"N_COORD97":2561526.4100000001,"ADDRESS":"謝厝寮１號之９","OBJECTID":57863},"geometry":{"x":172357.5700000003,"y":2561526.4100000039}},{"attributes":{"ID":57864,"DIS_CODE":0,"TOWNNAME":"麻豆區","LI":"謝安里","LIN":"1鄰","STREET":" ","SECT":" ","MAREA":"謝厝寮","LANE":" ","ALLEY":" ","HOUSE_NO":"２３８號","E_COORD97":172177.89999999999,"N_COORD97":2561425.2799999998,"ADDRESS":"謝厝寮２３８號","OBJECTID":57864},"geometry":{"x":172177.9000000013,"y":2561425.2800000012}},{"attributes":{"ID":57865,"DIS_CODE":0,"TOWNNAME":"麻豆區","LI":"謝安里","LIN":"1鄰","STREET":" ","SECT":" ","MAREA":"謝厝寮","LANE":" ","ALLEY":" ","HOUSE_NO":"２３９號之１","E_COORD97":172186.73000000001,"N_COORD97":2561432.6400000001,"ADDRESS":"謝厝寮２３９號之１","OBJECTID":57865},"geometry":{"x":172186.73000000045,"y":2561432.6400000006}},{"attributes":{"ID":57866,"DIS_CODE":0,"TOWNNAME":"麻豆區","LI":"謝安里","LIN":"1鄰","STREET":" ","SECT":" ","MAREA":"謝厝寮","LANE":" ","ALLEY":" ","HOUSE_NO":"２３９號之２","E_COORD97":172190.29000000001,"N_COORD97":2561435.5099999998,"ADDRESS":"謝厝寮２３９號之２","OBJECTID":57866},"geometry":{"x":172190.29000000097,"y":2561435.5099999998}},{"attributes":{"ID":57867,"DIS_CODE":0,"TOWNNAME":"安南區","LI":"梅花里","LIN":"1鄰","STREET":"北安路","SECT":"二段","MAREA":" ","LANE":"４３３巷","ALLEY":"１６０弄","HOUSE_NO":"１１號","E_COORD97":168082.32999999999,"N_COORD97":2548810.77,"ADDRESS":"北安路二段４３３巷１６０弄１１號","OBJECTID":57867},"geometry":{"x":168082.33000000194,"y":2548810.7700000014}},{"attributes":{"ID":57868,"DIS_CODE":0,"TOWNNAME":"安南區","LI":"梅花里","LIN":"1鄰","STREET":"北安路","SECT":"二段","MAREA":" ","LANE":"４３３巷","ALLEY":"１６０弄","HOUSE_NO":"１６號","E_COORD97":168087.09,"N_COORD97":2548809.1800000002,"ADDRESS":"北安路二段４３３巷１６０弄１６號","OBJECTID":57868},"geometry":{"x":168087.09000000171,"y":2548809.1799999997}},{"attributes":{"ID":57869,"DIS_CODE":0,"TOWNNAME":"安南區","LI":"梅花里","LIN":"1鄰","STREET":"安中路","SECT":"一段","MAREA":" ","LANE":"５５７巷","ALLEY":"１９弄","HOUSE_NO":"５０號","E_COORD97":168082.59,"N_COORD97":2548838.0099999998,"ADDRESS":"安中路一段５５７巷１９弄５０號","OBJECTID":57869},"geometry":{"x":168082.59000000078,"y":2548838.0099999979}},{"attributes":{"ID":57870,"DIS_CODE":0,"TOWNNAME":"安南區","LI":"梅花里","LIN":"1鄰","STREET":"安中路","SECT":"一段","MAREA":" ","LANE":"５５７巷","ALLEY":"１９弄","HOUSE_NO":"５２號","E_COORD97":168085.76999999999,"N_COORD97":2548837.5,"ADDRESS":"安中路一段５５７巷１９弄５２號","OBJECTID":57870},"geometry":{"x":168085.77000000048,"y":2548837.5}},{"attributes":{"ID":57871,"DIS_CODE":0,"TOWNNAME":"安南區","LI":"梅花里","LIN":"1鄰","STREET":"安中路","SECT":"一段","MAREA":" ","LANE":"５５７巷","ALLEY":"１９弄","HOUSE_NO":"５６號","E_COORD97":168087.89000000001,"N_COORD97":2548835.9100000001,"ADDRESS":"安中路一段５５７巷１９弄５６號","OBJECTID":57871},"geometry":{"x":168087.88999999966,"y":2548835.9100000039}},{"attributes":{"ID":57872,"DIS_CODE":0,"TOWNNAME":"安南區","LI":"梅花里","LIN":"1鄰","STREET":"安中路","SECT":"一段","MAREA":" ","LANE":"５５７巷","ALLEY":"１９弄","HOUSE_NO":"５８號","E_COORD97":168090.79999999999,"N_COORD97":2548834.3199999998,"ADDRESS":"安中路一段５５７巷１９弄５８號","OBJECTID":57872},"geometry":{"x":168090.80000000168,"y":2548834.3200000022}},{"attributes":{"ID":57873,"DIS_CODE":0,"TOWNNAME":"麻豆區","LI":"謝安里","LIN":"1鄰","STREET":" ","SECT":" ","MAREA":"謝厝寮","LANE":" ","ALLEY":" ","HOUSE_NO":"２３９號之３","E_COORD97":172193.63,"N_COORD97":2561438.8799999999,"ADDRESS":"謝厝寮２３９號之３","OBJECTID":57873},"geometry":{"x":172193.62999999989,"y":2561438.879999999}},{"attributes":{"ID":57874,"DIS_CODE":0,"TOWNNAME":"麻豆區","LI":"謝安里","LIN":"1鄰","STREET":" ","SECT":" ","MAREA":"謝厝寮","LANE":" ","ALLEY":" ","HOUSE_NO":"２３９號之４","E_COORD97":172197.23000000001,"N_COORD97":2561441.3300000001,"ADDRESS":"謝厝寮２３９號之４","OBJECTID":57874},"geometry":{"x":172197.23000000045,"y":2561441.3300000001}},{"attributes":{"ID":57875,"DIS_CODE":0,"TOWNNAME":"麻豆區","LI":"謝安里","LIN":"1鄰","STREET":" ","SECT":" ","MAREA":"謝厝寮","LANE":" ","ALLEY":" ","HOUSE_NO":"２３９號之５","E_COORD97":172201.76999999999,"N_COORD97":2561447.23,"ADDRESS":"謝厝寮２３９號之５","OBJECTID":57875},"geometry":{"x":172201.77000000048,"y":2561447.2300000023}},{"attributes":{"ID":57876,"DIS_CODE":0,"TOWNNAME":"麻豆區","LI":"謝安里","LIN":"1鄰","STREET":" ","SECT":" ","MAREA":"謝厝寮","LANE":" ","ALLEY":" ","HOUSE_NO":"２３９號","E_COORD97":172182.87,"N_COORD97":2561431.4199999999,"ADDRESS":"謝厝寮２３９號","OBJECTID":57876},"geometry":{"x":172182.87000000197,"y":2561431.4200000018}},{"attributes":{"ID":57877,"DIS_CODE":0,"TOWNNAME":"麻豆區","LI":"謝安里","LIN":"1鄰","STREET":" ","SECT":" ","MAREA":"謝厝寮","LANE":" ","ALLEY":" ","HOUSE_NO":"２４０號之１","E_COORD97":172225.19,"N_COORD97":2561498.3300000001,"ADDRESS":"謝厝寮２４０號之１","OBJECTID":57877},"geometry":{"x":172225.19000000134,"y":2561498.3300000001}},{"attributes":{"ID":57878,"DIS_CODE":0,"TOWNNAME":"安南區","LI":"梅花里","LIN":"1鄰","STREET":"安中路","SECT":"一段","MAREA":" ","LANE":"５５７巷","ALLEY":"１９弄","HOUSE_NO":"６０號","E_COORD97":168094.76000000001,"N_COORD97":2548831.6699999999,"ADDRESS":"安中路一段５５７巷１９弄６０號","OBJECTID":57878},"geometry":{"x":168094.76000000071,"y":2548831.6700000018}},{"attributes":{"ID":57879,"DIS_CODE":0,"TOWNNAME":"安南區","LI":"梅花里","LIN":"1鄰","STREET":"安中路","SECT":"一段","MAREA":" ","LANE":"５５７巷","ALLEY":"１９弄","HOUSE_NO":"６２號","E_COORD97":168096.88,"N_COORD97":2548830.6200000001,"ADDRESS":"安中路一段５５７巷１９弄６２號","OBJECTID":57879},"geometry":{"x":168096.87999999989,"y":2548830.620000001}},{"attributes":{"ID":57880,"DIS_CODE":0,"TOWNNAME":"麻豆區","LI":"謝安里","LIN":"1鄰","STREET":" ","SECT":" ","MAREA":"謝厝寮","LANE":" ","ALLEY":" ","HOUSE_NO":"２４０號之２","E_COORD97":172234.38,"N_COORD97":2561499.2799999998,"ADDRESS":"謝厝寮２４０號之２","OBJECTID":57880},"geometry":{"x":172234.37999999989,"y":2561499.2800000031}},{"attributes":{"ID":57881,"DIS_CODE":0,"TOWNNAME":"麻豆區","LI":"謝安里","LIN":"1鄰","STREET":" ","SECT":" ","MAREA":"謝厝寮","LANE":" ","ALLEY":" ","HOUSE_NO":"２４０號之３","E_COORD97":172239.87,"N_COORD97":2561500.1200000001,"ADDRESS":"謝厝寮２４０號之３","OBJECTID":57881},"geometry":{"x":172239.87000000011,"y":2561500.1200000029}},{"attributes":{"ID":57882,"DIS_CODE":0,"TOWNNAME":"麻豆區","LI":"謝安里","LIN":"1鄰","STREET":" ","SECT":" ","MAREA":"謝厝寮","LANE":" ","ALLEY":" ","HOUSE_NO":"２４０號","E_COORD97":172216.44,"N_COORD97":2561489.71,"ADDRESS":"謝厝寮２４０號","OBJECTID":57882},"geometry":{"x":172216.44000000227,"y":2561489.7100000009}},{"attributes":{"ID":57883,"DIS_CODE":0,"TOWNNAME":"麻豆區","LI":"謝安里","LIN":"1鄰","STREET":" ","SECT":" ","MAREA":"謝厝寮","LANE":" ","ALLEY":" ","HOUSE_NO":"２４１號之１","E_COORD97":172241.97,"N_COORD97":2561532.9199999999,"ADDRESS":"謝厝寮２４１號之１","OBJECTID":57883},"geometry":{"x":172241.96999999974,"y":2561532.9200000018}},{"attributes":{"ID":57884,"DIS_CODE":0,"TOWNNAME":"麻豆區","LI":"謝安里","LIN":"1鄰","STREET":" ","SECT":" ","MAREA":"謝厝寮","LANE":" ","ALLEY":" ","HOUSE_NO":"２４１號","E_COORD97":172247.67999999999,"N_COORD97":2561508.6800000002,"ADDRESS":"謝厝寮２４１號","OBJECTID":57884},"geometry":{"x":172247.6799999997,"y":2561508.6799999997}},{"attributes":{"ID":57885,"DIS_CODE":0,"TOWNNAME":"麻豆區","LI":"謝安里","LIN":"1鄰","STREET":" ","SECT":" ","MAREA":"謝厝寮","LANE":" ","ALLEY":" ","HOUSE_NO":"２４５號","E_COORD97":172290.62,"N_COORD97":2561519.7799999998,"ADDRESS":"謝厝寮２４５號","OBJECTID":57885},"geometry":{"x":172290.62000000011,"y":2561519.7800000012}},{"attributes":{"ID":57886,"DIS_CODE":0,"TOWNNAME":"麻豆區","LI":"謝安里","LIN":"1鄰","STREET":" ","SECT":" ","MAREA":"謝厝寮","LANE":" ","ALLEY":" ","HOUSE_NO":"３號之２","E_COORD97":172235.35999999999,"N_COORD97":2561427.27,"ADDRESS":"謝厝寮３號之２","OBJECTID":57886},"geometry":{"x":172235.36000000034,"y":2561427.2699999996}},{"attributes":{"ID":57887,"DIS_CODE":0,"TOWNNAME":"麻豆區","LI":"謝安里","LIN":"1鄰","STREET":" ","SECT":" ","MAREA":"謝厝寮","LANE":" ","ALLEY":" ","HOUSE_NO":"３號之３","E_COORD97":172220.35999999999,"N_COORD97":2561412.8999999999,"ADDRESS":"謝厝寮３號之３","OBJECTID":57887},"geometry":{"x":172220.3600000022,"y":2561412.9000000004}},{"attributes":{"ID":57888,"DIS_CODE":0,"TOWNNAME":"麻豆區","LI":"謝安里","LIN":"1鄰","STREET":" ","SECT":" ","MAREA":"謝厝寮","LANE":" ","ALLEY":" ","HOUSE_NO":"３號","E_COORD97":172230.23999999999,"N_COORD97":2561377.2200000002,"ADDRESS":"謝厝寮３號","OBJECTID":57888},"geometry":{"x":172230.24000000115,"y":2561377.2200000007}},{"attributes":{"ID":57889,"DIS_CODE":0,"TOWNNAME":"麻豆區","LI":"謝安里","LIN":"1鄰","STREET":" ","SECT":" ","MAREA":"謝厝寮","LANE":" ","ALLEY":" ","HOUSE_NO":"７號之１","E_COORD97":172148.92999999999,"N_COORD97":2561355,"ADDRESS":"謝厝寮７號之１","OBJECTID":57889},"geometry":{"x":172148.9299999997,"y":2561355}},{"attributes":{"ID":57890,"DIS_CODE":0,"TOWNNAME":"麻豆區","LI":"謝安里","LIN":"1鄰","STREET":" ","SECT":" ","MAREA":"謝厝寮","LANE":" ","ALLEY":" ","HOUSE_NO":"７號之２","E_COORD97":172129.70999999999,"N_COORD97":2561335.52,"ADDRESS":"謝厝寮７號之２","OBJECTID":57890},"geometry":{"x":172129.71000000089,"y":2561335.5200000014}},{"attributes":{"ID":57891,"DIS_CODE":0,"TOWNNAME":"麻豆區","LI":"謝安里","LIN":"1鄰","STREET":" ","SECT":" ","MAREA":"謝厝寮","LANE":" ","ALLEY":" ","HOUSE_NO":"７號之３","E_COORD97":172135.01999999999,"N_COORD97":2561336.4199999999,"ADDRESS":"謝厝寮７號之３","OBJECTID":57891},"geometry":{"x":172135.01999999955,"y":2561336.4200000018}},{"attributes":{"ID":57892,"DIS_CODE":0,"TOWNNAME":"麻豆區","LI":"中民里","LIN":"1鄰","STREET":" ","SECT":" ","MAREA":"謝厝寮","LANE":" ","ALLEY":" ","HOUSE_NO":"８２號之２","E_COORD97":171801.38,"N_COORD97":2560991.6600000001,"ADDRESS":"謝厝寮８２號之２","OBJECTID":57892},"geometry":{"x":171801.38000000082,"y":2560991.6600000001}},{"attributes":{"ID":57893,"DIS_CODE":0,"TOWNNAME":"麻豆區","LI":"中民里","LIN":"1鄰","STREET":" ","SECT":" ","MAREA":"謝厝寮","LANE":" ","ALLEY":" ","HOUSE_NO":"８２號之３","E_COORD97":171798.35999999999,"N_COORD97":2560987.3100000001,"ADDRESS":"謝厝寮８２號之３","OBJECTID":57893},"geometry":{"x":171798.3600000022,"y":2560987.3100000005}},{"attributes":{"ID":57894,"DIS_CODE":0,"TOWNNAME":"麻豆區","LI":"中民里","LIN":"1鄰","STREET":" ","SECT":" ","MAREA":"謝厝寮","LANE":" ","ALLEY":" ","HOUSE_NO":"８２號之５","E_COORD97":171790.98000000001,"N_COORD97":2560974.6899999999,"ADDRESS":"謝厝寮８２號之５","OBJECTID":57894},"geometry":{"x":171790.98000000138,"y":2560974.6900000013}},{"attributes":{"ID":57895,"DIS_CODE":0,"TOWNNAME":"麻豆區","LI":"中民里","LIN":"1鄰","STREET":" ","SECT":" ","MAREA":"謝厝寮","LANE":" ","ALLEY":" ","HOUSE_NO":"８２號","E_COORD97":171811.82999999999,"N_COORD97":2560998.6299999999,"ADDRESS":"謝厝寮８２號","OBJECTID":57895},"geometry":{"x":171811.83000000194,"y":2560998.6300000008}},{"attributes":{"ID":57896,"DIS_CODE":0,"TOWNNAME":"麻豆區","LI":"中民里","LIN":"1鄰","STREET":" ","SECT":" ","MAREA":"謝厝寮","LANE":" ","ALLEY":" ","HOUSE_NO":"８３號","E_COORD97":171825.70999999999,"N_COORD97":2560994.6499999999,"ADDRESS":"謝厝寮８３號","OBJECTID":57896},"geometry":{"x":171825.70999999996,"y":2560994.6500000004}},{"attributes":{"ID":57897,"DIS_CODE":0,"TOWNNAME":"麻豆區","LI":"中民里","LIN":"1鄰","STREET":" ","SECT":" ","MAREA":"謝厝寮","LANE":" ","ALLEY":" ","HOUSE_NO":"８５號之１","E_COORD97":171831.37,"N_COORD97":2560944.7999999998,"ADDRESS":"謝厝寮８５號之１","OBJECTID":57897},"geometry":{"x":171831.37000000011,"y":2560944.8000000026}},{"attributes":{"ID":57898,"DIS_CODE":0,"TOWNNAME":"麻豆區","LI":"中民里","LIN":"1鄰","STREET":" ","SECT":" ","MAREA":"謝厝寮","LANE":" ","ALLEY":" ","HOUSE_NO":"８５號","E_COORD97":171836.07000000001,"N_COORD97":2560973.98,"ADDRESS":"謝厝寮８５號","OBJECTID":57898},"geometry":{"x":171836.07000000123,"y":2560973.9800000023}},{"attributes":{"ID":57899,"DIS_CODE":0,"TOWNNAME":"麻豆區","LI":"港尾里","LIN":"1鄰","STREET":" ","SECT":" ","MAREA":"謝榜寮","LANE":" ","ALLEY":" ","HOUSE_NO":"２０號","E_COORD97":167943.95000000001,"N_COORD97":2566300.1600000001,"ADDRESS":"謝榜寮２０號","OBJECTID":57899},"geometry":{"x":167943.95000000019,"y":2566300.1600000001}},{"attributes":{"ID":57900,"DIS_CODE":0,"TOWNNAME":"麻豆區","LI":"港尾里","LIN":"1鄰","STREET":" ","SECT":" ","MAREA":"謝榜寮","LANE":" ","ALLEY":" ","HOUSE_NO":"３號","E_COORD97":168032.85999999999,"N_COORD97":2566334.6299999999,"ADDRESS":"謝榜寮３號","OBJECTID":57900},"geometry":{"x":168032.86000000034,"y":2566334.6300000008}},{"attributes":{"ID":57901,"DIS_CODE":0,"TOWNNAME":"麻豆區","LI":"港尾里","LIN":"1鄰","STREET":" ","SECT":" ","MAREA":"謝榜寮","LANE":" ","ALLEY":" ","HOUSE_NO":"６號之１","E_COORD97":168129.42000000001,"N_COORD97":2566321.3700000001,"ADDRESS":"謝榜寮６號之１","OBJECTID":57901},"geometry":{"x":168129.42000000086,"y":2566321.3700000048}},{"attributes":{"ID":57902,"DIS_CODE":0,"TOWNNAME":"麻豆區","LI":"港尾里","LIN":"1鄰","STREET":" ","SECT":" ","MAREA":"謝榜寮","LANE":" ","ALLEY":" ","HOUSE_NO":"６號","E_COORD97":168131.60000000001,"N_COORD97":2566305.3399999999,"ADDRESS":"謝榜寮６號","OBJECTID":57902},"geometry":{"x":168131.60000000056,"y":2566305.3399999999}},{"attributes":{"ID":57903,"DIS_CODE":0,"TOWNNAME":"麻豆區","LI":"港尾里","LIN":"1鄰","STREET":" ","SECT":" ","MAREA":"謝榜寮","LANE":" ","ALLEY":" ","HOUSE_NO":"７號之１","E_COORD97":168107.54000000001,"N_COORD97":2566265.8799999999,"ADDRESS":"謝榜寮７號之１","OBJECTID":57903},"geometry":{"x":168107.54000000004,"y":2566265.8800000008}},{"attributes":{"ID":57904,"DIS_CODE":0,"TOWNNAME":"安南區","LI":"梅花里","LIN":"1鄰","STREET":"安中路","SECT":"一段","MAREA":" ","LANE":"５５７巷","ALLEY":"１９弄","HOUSE_NO":"６６號","E_COORD97":168098.73000000001,"N_COORD97":2548829.0299999998,"ADDRESS":"安中路一段５５７巷１９弄６６號","OBJECTID":57904},"geometry":{"x":168098.73000000231,"y":2548829.0300000012}},{"attributes":{"ID":57905,"DIS_CODE":0,"TOWNNAME":"安南區","LI":"梅花里","LIN":"1鄰","STREET":"安中路","SECT":"一段","MAREA":" ","LANE":"５５７巷","ALLEY":"１９弄","HOUSE_NO":"６８號","E_COORD97":168101.10999999999,"N_COORD97":2548827.1800000002,"ADDRESS":"安中路一段５５７巷１９弄６８號","OBJECTID":57905},"geometry":{"x":168101.1100000022,"y":2548827.1800000016}},{"attributes":{"ID":57906,"DIS_CODE":0,"TOWNNAME":"安南區","LI":"梅花里","LIN":"1鄰","STREET":"北安路","SECT":"二段","MAREA":" ","LANE":"４３３巷","ALLEY":"８８弄","HOUSE_NO":"２５號","E_COORD97":168179.17000000001,"N_COORD97":2548773.4700000002,"ADDRESS":"北安路二段４３３巷８８弄２５號","OBJECTID":57906},"geometry":{"x":168179.16999999993,"y":2548773.4700000007}},{"attributes":{"ID":57907,"DIS_CODE":0,"TOWNNAME":"安南區","LI":"梅花里","LIN":"1鄰","STREET":"北安路","SECT":"二段","MAREA":" ","LANE":"４３３巷","ALLEY":"８８弄","HOUSE_NO":"２３號","E_COORD97":168178.10999999999,"N_COORD97":2548770.8199999998,"ADDRESS":"北安路二段４３３巷８８弄２３號","OBJECTID":57907},"geometry":{"x":168178.11000000127,"y":2548770.8200000003}},{"attributes":{"ID":57908,"DIS_CODE":0,"TOWNNAME":"安南區","LI":"梅花里","LIN":"1鄰","STREET":"北安路","SECT":"二段","MAREA":" ","LANE":"４３３巷","ALLEY":"８８弄","HOUSE_NO":"２１號","E_COORD97":168176.26000000001,"N_COORD97":2548768.4399999999,"ADDRESS":"北安路二段４３３巷８８弄２１號","OBJECTID":57908},"geometry":{"x":168176.26000000071,"y":2548768.4400000013}},{"attributes":{"ID":57909,"DIS_CODE":0,"TOWNNAME":"安南區","LI":"梅花里","LIN":"1鄰","STREET":"北安路","SECT":"二段","MAREA":" ","LANE":"４３３巷","ALLEY":"８８弄","HOUSE_NO":"１９號","E_COORD97":168174.92999999999,"N_COORD97":2548766.3199999998,"ADDRESS":"北安路二段４３３巷８８弄１９號","OBJECTID":57909},"geometry":{"x":168174.93000000063,"y":2548766.3200000022}},{"attributes":{"ID":57910,"DIS_CODE":0,"TOWNNAME":"安南區","LI":"梅花里","LIN":"1鄰","STREET":"北安路","SECT":"二段","MAREA":" ","LANE":"４３３巷","ALLEY":"８８弄","HOUSE_NO":"１７號","E_COORD97":168173.60999999999,"N_COORD97":2548763.9399999999,"ADDRESS":"北安路二段４３３巷８８弄１７號","OBJECTID":57910},"geometry":{"x":168173.61000000034,"y":2548763.9400000032}},{"attributes":{"ID":57911,"DIS_CODE":0,"TOWNNAME":"安南區","LI":"梅花里","LIN":"1鄰","STREET":"北安路","SECT":"二段","MAREA":" ","LANE":"４３３巷","ALLEY":"８８弄","HOUSE_NO":"１５號","E_COORD97":168172.82000000001,"N_COORD97":2548761.5600000001,"ADDRESS":"北安路二段４３３巷８８弄１５號","OBJECTID":57911},"geometry":{"x":168172.82000000123,"y":2548761.5600000024}},{"attributes":{"ID":57912,"DIS_CODE":0,"TOWNNAME":"安南區","LI":"梅花里","LIN":"1鄰","STREET":"安中路","SECT":"一段","MAREA":" ","LANE":"５５７巷","ALLEY":"１９弄","HOUSE_NO":"１７２號","E_COORD97":168175.20000000001,"N_COORD97":2548779.02,"ADDRESS":"安中路一段５５７巷１９弄１７２號","OBJECTID":57912},"geometry":{"x":168175.20000000112,"y":2548779.0199999996}},{"attributes":{"ID":57913,"DIS_CODE":0,"TOWNNAME":"安南區","LI":"梅花里","LIN":"1鄰","STREET":"安中路","SECT":"一段","MAREA":" ","LANE":"５５７巷","ALLEY":"１９弄","HOUSE_NO":"１７０號","E_COORD97":168172.17999999999,"N_COORD97":2548781.3999999999,"ADDRESS":"安中路一段５５７巷１９弄１７０號","OBJECTID":57913},"geometry":{"x":168172.1799999997,"y":2548781.4000000004}},{"attributes":{"ID":57914,"DIS_CODE":0,"TOWNNAME":"安南區","LI":"梅花里","LIN":"1鄰","STREET":"安中路","SECT":"一段","MAREA":" ","LANE":"５５７巷","ALLEY":"１９弄","HOUSE_NO":"１６８號","E_COORD97":168169.17000000001,"N_COORD97":2548783.1499999999,"ADDRESS":"安中路一段５５７巷１９弄１６８號","OBJECTID":57914},"geometry":{"x":168169.16999999993,"y":2548783.1500000004}},{"attributes":{"ID":57915,"DIS_CODE":0,"TOWNNAME":"安南區","LI":"淵東里","LIN":"1鄰","STREET":"本原街","SECT":"二段","MAREA":" ","LANE":"５１０巷","ALLEY":"３２弄","HOUSE_NO":"１號","E_COORD97":165818.44,"N_COORD97":2550647.4100000001,"ADDRESS":"本原街二段５１０巷３２弄１號","OBJECTID":57915},"geometry":{"x":165818.44000000041,"y":2550647.410000002}},{"attributes":{"ID":57916,"DIS_CODE":0,"TOWNNAME":"安南區","LI":"淵東里","LIN":"1鄰","STREET":"本原街","SECT":"二段","MAREA":" ","LANE":"５１０巷","ALLEY":"３２弄","HOUSE_NO":"２號","E_COORD97":165831.94,"N_COORD97":2550629.3100000001,"ADDRESS":"本原街二段５１０巷３２弄２號","OBJECTID":57916},"geometry":{"x":165831.94000000041,"y":2550629.3100000005}},{"attributes":{"ID":57917,"DIS_CODE":0,"TOWNNAME":"安南區","LI":"淵東里","LIN":"1鄰","STREET":"本原街","SECT":"二段","MAREA":" ","LANE":"５１０巷","ALLEY":"３２弄","HOUSE_NO":"３號","E_COORD97":165820.98000000001,"N_COORD97":2550650.7400000002,"ADDRESS":"本原街二段５１０巷３２弄３號","OBJECTID":57917},"geometry":{"x":165820.98000000138,"y":2550650.7400000002}},{"attributes":{"ID":57918,"DIS_CODE":0,"TOWNNAME":"安南區","LI":"淵東里","LIN":"1鄰","STREET":"本原街","SECT":"二段","MAREA":" ","LANE":"５１０巷","ALLEY":"３２弄","HOUSE_NO":"５號","E_COORD97":165824,"N_COORD97":2550654.71,"ADDRESS":"本原街二段５１０巷３２弄５號","OBJECTID":57918},"geometry":{"x":165824,"y":2550654.7100000009}},{"attributes":{"ID":57919,"DIS_CODE":0,"TOWNNAME":"安南區","LI":"淵東里","LIN":"1鄰","STREET":"本原街","SECT":"二段","MAREA":" ","LANE":"５１０巷","ALLEY":"３２弄","HOUSE_NO":"７號","E_COORD97":165826.85999999999,"N_COORD97":2550657.4100000001,"ADDRESS":"本原街二段５１０巷３２弄７號","OBJECTID":57919},"geometry":{"x":165826.86000000127,"y":2550657.410000002}},{"attributes":{"ID":57920,"DIS_CODE":0,"TOWNNAME":"安南區","LI":"淵東里","LIN":"1鄰","STREET":"本原街","SECT":"二段","MAREA":" ","LANE":"５１０巷","ALLEY":"３２弄","HOUSE_NO":"９號","E_COORD97":165829.23999999999,"N_COORD97":2550660.2599999998,"ADDRESS":"本原街二段５１０巷３２弄９號","OBJECTID":57920},"geometry":{"x":165829.24000000115,"y":2550660.2599999998}},{"attributes":{"ID":57921,"DIS_CODE":0,"TOWNNAME":"安南區","LI":"淵東里","LIN":"1鄰","STREET":"本原街","SECT":"二段","MAREA":" ","LANE":"５１０巷","ALLEY":"３２弄","HOUSE_NO":"６號","E_COORD97":165834.32000000001,"N_COORD97":2550631.6899999999,"ADDRESS":"本原街二段５１０巷３２弄６號","OBJECTID":57921},"geometry":{"x":165834.3200000003,"y":2550631.6900000013}},{"attributes":{"ID":57922,"DIS_CODE":0,"TOWNNAME":"安南區","LI":"淵東里","LIN":"1鄰","STREET":"本原街","SECT":"二段","MAREA":" ","LANE":"５１０巷","ALLEY":"３２弄","HOUSE_NO":"１１號","E_COORD97":165831.45999999999,"N_COORD97":2550662.6499999999,"ADDRESS":"本原街二段５１０巷３２弄１１號","OBJECTID":57922},"geometry":{"x":165831.45999999996,"y":2550662.6500000022}},{"attributes":{"ID":57923,"DIS_CODE":0,"TOWNNAME":"安南區","LI":"淵東里","LIN":"1鄰","STREET":"本原街","SECT":"二段","MAREA":" ","LANE":"５１０巷","ALLEY":"３２弄","HOUSE_NO":"１３號","E_COORD97":165834.64000000001,"N_COORD97":2550665.0299999998,"ADDRESS":"本原街二段５１０巷３２弄１３號","OBJECTID":57923},"geometry":{"x":165834.63999999966,"y":2550665.0300000031}},{"attributes":{"ID":57924,"DIS_CODE":0,"TOWNNAME":"安南區","LI":"淵東里","LIN":"1鄰","STREET":"本原街","SECT":"二段","MAREA":" ","LANE":"５１０巷","ALLEY":"３２弄","HOUSE_NO":"１５號","E_COORD97":165837.48999999999,"N_COORD97":2550667.4100000001,"ADDRESS":"本原街二段５１０巷３２弄１５號","OBJECTID":57924},"geometry":{"x":165837.49000000115,"y":2550667.410000002}},{"attributes":{"ID":57925,"DIS_CODE":0,"TOWNNAME":"安南區","LI":"淵東里","LIN":"1鄰","STREET":"本原街","SECT":"二段","MAREA":" ","LANE":"５１０巷","ALLEY":"３２弄","HOUSE_NO":"１７號","E_COORD97":165840.35000000001,"N_COORD97":2550669.9500000002,"ADDRESS":"本原街二段５１０巷３２弄１７號","OBJECTID":57925},"geometry":{"x":165840.34999999963,"y":2550669.9500000011}},{"attributes":{"ID":57926,"DIS_CODE":0,"TOWNNAME":"安南區","LI":"淵東里","LIN":"1鄰","STREET":"本原街","SECT":"二段","MAREA":" ","LANE":"５１０巷","ALLEY":"３２弄","HOUSE_NO":"１９號","E_COORD97":165844,"N_COORD97":2550672.3300000001,"ADDRESS":"本原街二段５１０巷３２弄１９號","OBJECTID":57926},"geometry":{"x":165844.00000000093,"y":2550672.3300000001}},{"attributes":{"ID":57927,"DIS_CODE":0,"TOWNNAME":"安南區","LI":"淵東里","LIN":"1鄰","STREET":"本原街","SECT":"二段","MAREA":" ","LANE":"５１０巷","ALLEY":"３２弄","HOUSE_NO":"２１號","E_COORD97":165847.97,"N_COORD97":2550676.1400000001,"ADDRESS":"本原街二段５１０巷３２弄２１號","OBJECTID":57927},"geometry":{"x":165847.96999999974,"y":2550676.1400000025}},{"attributes":{"ID":57928,"DIS_CODE":0,"TOWNNAME":"安南區","LI":"淵東里","LIN":"1鄰","STREET":"本原街","SECT":"二段","MAREA":" ","LANE":"５１０巷","ALLEY":"３２弄","HOUSE_NO":"８號","E_COORD97":165837.01999999999,"N_COORD97":2550634.3900000001,"ADDRESS":"本原街二段５１０巷３２弄８號","OBJECTID":57928},"geometry":{"x":165837.01999999955,"y":2550634.3900000025}},{"attributes":{"ID":57929,"DIS_CODE":0,"TOWNNAME":"安南區","LI":"淵東里","LIN":"1鄰","STREET":"本原街","SECT":"二段","MAREA":" ","LANE":"５１０巷","ALLEY":"３２弄","HOUSE_NO":"１０號","E_COORD97":165839.87,"N_COORD97":2550637.3999999999,"ADDRESS":"本原街二段５１０巷３２弄１０號","OBJECTID":57929},"geometry":{"x":165839.87000000104,"y":2550637.4000000022}},{"attributes":{"ID":57930,"DIS_CODE":0,"TOWNNAME":"安南區","LI":"淵東里","LIN":"1鄰","STREET":"本原街","SECT":"二段","MAREA":" ","LANE":"５１０巷","ALLEY":"３２弄","HOUSE_NO":"１２號","E_COORD97":165843.10000000001,"N_COORD97":2550639.6499999999,"ADDRESS":"本原街二段５１０巷３２弄１２號","OBJECTID":57930},"geometry":{"x":165843.10000000056,"y":2550639.6500000022}},{"attributes":{"ID":57931,"DIS_CODE":0,"TOWNNAME":"安南區","LI":"淵東里","LIN":"1鄰","STREET":"本原街","SECT":"二段","MAREA":" ","LANE":"５１０巷","ALLEY":"３２弄","HOUSE_NO":"１６號","E_COORD97":165846.44,"N_COORD97":2550642.9900000002,"ADDRESS":"本原街二段５１０巷３２弄１６號","OBJECTID":57931},"geometry":{"x":165846.44000000134,"y":2550642.9900000021}},{"attributes":{"ID":57932,"DIS_CODE":0,"TOWNNAME":"安南區","LI":"淵東里","LIN":"1鄰","STREET":"本原街","SECT":"二段","MAREA":" ","LANE":"５１０巷","ALLEY":"３２弄","HOUSE_NO":"１８號","E_COORD97":165850.72,"N_COORD97":2550648.0699999998,"ADDRESS":"本原街二段５１０巷３２弄１８號","OBJECTID":57932},"geometry":{"x":165850.72000000067,"y":2550648.0700000003}},{"attributes":{"ID":57933,"DIS_CODE":0,"TOWNNAME":"安南區","LI":"淵東里","LIN":"1鄰","STREET":"本原街","SECT":"二段","MAREA":" ","LANE":"５３２巷","ALLEY":"３２弄","HOUSE_NO":"１號","E_COORD97":165774.20000000001,"N_COORD97":2550610.4399999999,"ADDRESS":"本原街二段５３２巷３２弄１號","OBJECTID":57933},"geometry":{"x":165774.20000000019,"y":2550610.4399999995}},{"attributes":{"ID":57934,"DIS_CODE":0,"TOWNNAME":"麻豆區","LI":"港尾里","LIN":"1鄰","STREET":" ","SECT":" ","MAREA":"謝榜寮","LANE":" ","ALLEY":" ","HOUSE_NO":"７號之２","E_COORD97":168098.87,"N_COORD97":2566226.5899999999,"ADDRESS":"謝榜寮７號之２","OBJECTID":57934},"geometry":{"x":168098.87000000011,"y":2566226.5899999999}},{"attributes":{"ID":57935,"DIS_CODE":0,"TOWNNAME":"麻豆區","LI":"港尾里","LIN":"1鄰","STREET":" ","SECT":" ","MAREA":"謝榜寮","LANE":" ","ALLEY":" ","HOUSE_NO":"７號之３","E_COORD97":168095.72,"N_COORD97":2566215.6699999999,"ADDRESS":"謝榜寮７號之３","OBJECTID":57935},"geometry":{"x":168095.71999999974,"y":2566215.6699999999}},{"attributes":{"ID":57936,"DIS_CODE":0,"TOWNNAME":"麻豆區","LI":"港尾里","LIN":"1鄰","STREET":" ","SECT":" ","MAREA":"謝榜寮","LANE":" ","ALLEY":" ","HOUSE_NO":"７號之６","E_COORD97":168119.29999999999,"N_COORD97":2566205.1400000001,"ADDRESS":"謝榜寮７號之６","OBJECTID":57936},"geometry":{"x":168119.29999999981,"y":2566205.1400000025}},{"attributes":{"ID":57937,"DIS_CODE":0,"TOWNNAME":"麻豆區","LI":"港尾里","LIN":"1鄰","STREET":" ","SECT":" ","MAREA":"謝榜寮","LANE":" ","ALLEY":" ","HOUSE_NO":"７號之８","E_COORD97":168377.28,"N_COORD97":2566170.4500000002,"ADDRESS":"謝榜寮７號之８","OBJECTID":57937},"geometry":{"x":168377.28000000026,"y":2566170.4500000011}},{"attributes":{"ID":57938,"DIS_CODE":0,"TOWNNAME":"麻豆區","LI":"港尾里","LIN":"1鄰","STREET":" ","SECT":" ","MAREA":"謝榜寮","LANE":" ","ALLEY":" ","HOUSE_NO":"７號","E_COORD97":168102.19,"N_COORD97":2566296.1499999999,"ADDRESS":"謝榜寮７號","OBJECTID":57938},"geometry":{"x":168102.18999999948,"y":2566296.1500000022}},{"attributes":{"ID":57939,"DIS_CODE":0,"TOWNNAME":"麻豆區","LI":"港尾里","LIN":"1鄰","STREET":" ","SECT":" ","MAREA":"謝榜寮","LANE":" ","ALLEY":" ","HOUSE_NO":"８號","E_COORD97":168077.92000000001,"N_COORD97":2566307.1499999999,"ADDRESS":"謝榜寮８號","OBJECTID":57939},"geometry":{"x":168077.91999999993,"y":2566307.1500000004}},{"attributes":{"ID":57940,"DIS_CODE":0,"TOWNNAME":"麻豆區","LI":"港尾里","LIN":"1鄰","STREET":" ","SECT":" ","MAREA":"謝榜寮","LANE":" ","ALLEY":" ","HOUSE_NO":"９號","E_COORD97":168075.64000000001,"N_COORD97":2566291.0299999998,"ADDRESS":"謝榜寮９號","OBJECTID":57940},"geometry":{"x":168075.63999999966,"y":2566291.0299999993}},{"attributes":{"ID":57941,"DIS_CODE":0,"TOWNNAME":"安定區","LI":"海寮里","LIN":"1鄰","STREET":" ","SECT":" ","MAREA":"海寮","LANE":" ","ALLEY":" ","HOUSE_NO":"１６號","E_COORD97":169190.19,"N_COORD97":2555176.25,"ADDRESS":"海寮１６號","OBJECTID":57941},"geometry":{"x":169190.19000000041,"y":2555176.25}},{"attributes":{"ID":57942,"DIS_CODE":0,"TOWNNAME":"安定區","LI":"六嘉里","LIN":"1鄰","STREET":" ","SECT":" ","MAREA":"六塊寮","LANE":" ","ALLEY":" ","HOUSE_NO":"１號之１６","E_COORD97":170493.16,"N_COORD97":2553704.2999999998,"ADDRESS":"六塊寮１號之１６","OBJECTID":57942},"geometry":{"x":170493.16000000108,"y":2553704.3000000007}},{"attributes":{"ID":57943,"DIS_CODE":0,"TOWNNAME":"安定區","LI":"蘇林里","LIN":"1鄰","STREET":" ","SECT":" ","MAREA":"蘇厝","LANE":" ","ALLEY":" ","HOUSE_NO":"１之４３號","E_COORD97":174234.71796899999,"N_COORD97":2558606.5772899999,"ADDRESS":"蘇厝１之４３號","OBJECTID":57943},"geometry":{"x":174234.71796900034,"y":2558606.5772940014}},{"attributes":{"ID":57944,"DIS_CODE":0,"TOWNNAME":"安南區","LI":"淵東里","LIN":"1鄰","STREET":"本原街","SECT":"二段","MAREA":" ","LANE":"５３２巷","ALLEY":"３２弄","HOUSE_NO":"２號","E_COORD97":165785.79000000001,"N_COORD97":2550593.2999999998,"ADDRESS":"本原街二段５３２巷３２弄２號","OBJECTID":57944},"geometry":{"x":165785.79000000097,"y":2550593.2999999989}},{"attributes":{"ID":57945,"DIS_CODE":0,"TOWNNAME":"安南區","LI":"淵東里","LIN":"1鄰","STREET":"本原街","SECT":"二段","MAREA":" ","LANE":"５３２巷","ALLEY":"３２弄","HOUSE_NO":"３號","E_COORD97":165777.85000000001,"N_COORD97":2550613.6200000001,"ADDRESS":"本原街二段５３２巷３２弄３號","OBJECTID":57945},"geometry":{"x":165777.8499999987,"y":2550613.6200000029}},{"attributes":{"ID":57946,"DIS_CODE":0,"TOWNNAME":"安南區","LI":"淵東里","LIN":"1鄰","STREET":"本原街","SECT":"二段","MAREA":" ","LANE":"５３２巷","ALLEY":"３２弄","HOUSE_NO":"５號","E_COORD97":165780.07999999999,"N_COORD97":2550615.0499999998,"ADDRESS":"本原街二段５３２巷３２弄５號","OBJECTID":57946},"geometry":{"x":165780.08000000007,"y":2550615.0500000007}},{"attributes":{"ID":57947,"DIS_CODE":0,"TOWNNAME":"安南區","LI":"淵東里","LIN":"1鄰","STREET":"本原街","SECT":"二段","MAREA":" ","LANE":"５３２巷","ALLEY":"３２弄","HOUSE_NO":"７號","E_COORD97":165783.25,"N_COORD97":2550617.5899999999,"ADDRESS":"本原街二段５３２巷３２弄７號","OBJECTID":57947},"geometry":{"x":165783.25,"y":2550617.589999998}},{"attributes":{"ID":57948,"DIS_CODE":0,"TOWNNAME":"安南區","LI":"淵東里","LIN":"1鄰","STREET":"本原街","SECT":"二段","MAREA":" ","LANE":"５３２巷","ALLEY":"３２弄","HOUSE_NO":"９號","E_COORD97":165786.10999999999,"N_COORD97":2550620.29,"ADDRESS":"本原街二段５３２巷３２弄９號","OBJECTID":57948},"geometry":{"x":165786.11000000127,"y":2550620.290000001}},{"attributes":{"ID":57949,"DIS_CODE":0,"TOWNNAME":"安南區","LI":"淵東里","LIN":"1鄰","STREET":"本原街","SECT":"二段","MAREA":" ","LANE":"５３２巷","ALLEY":"３２弄","HOUSE_NO":"１１號","E_COORD97":165789.28,"N_COORD97":2550622.3500000001,"ADDRESS":"本原街二段５３２巷３２弄１１號","OBJECTID":57949},"geometry":{"x":165789.28000000212,"y":2550622.3499999978}},{"attributes":{"ID":57950,"DIS_CODE":0,"TOWNNAME":"安南區","LI":"淵東里","LIN":"1鄰","STREET":"本原街","SECT":"二段","MAREA":" ","LANE":"５３２巷","ALLEY":"３２弄","HOUSE_NO":"１３號","E_COORD97":165791.98000000001,"N_COORD97":2550625.52,"ADDRESS":"本原街二段５３２巷３２弄１３號","OBJECTID":57950},"geometry":{"x":165791.98000000138,"y":2550625.5200000014}},{"attributes":{"ID":57951,"DIS_CODE":0,"TOWNNAME":"安南區","LI":"淵東里","LIN":"1鄰","STREET":"本原街","SECT":"二段","MAREA":" ","LANE":"５３２巷","ALLEY":"３２弄","HOUSE_NO":"１５號","E_COORD97":165795.32000000001,"N_COORD97":2550628.0600000001,"ADDRESS":"本原街二段５３２巷３２弄１５號","OBJECTID":57951},"geometry":{"x":165795.3200000003,"y":2550628.0600000005}},{"attributes":{"ID":57952,"DIS_CODE":0,"TOWNNAME":"安南區","LI":"州北里","LIN":"11鄰","STREET":"安和路","SECT":"五段","MAREA":" ","LANE":"１７１巷","ALLEY":"９２弄","HOUSE_NO":"１５號之５樓","E_COORD97":169610.926037,"N_COORD97":2551793.87818,"ADDRESS":"安和路五段１７１巷９２弄１５號之５樓","OBJECTID":57952},"geometry":{"x":169610.92603700142,"y":2551793.8781809993}},{"attributes":{"ID":57953,"DIS_CODE":0,"TOWNNAME":"安南區","LI":"淵東里","LIN":"1鄰","STREET":"本原街","SECT":"二段","MAREA":" ","LANE":"５３２巷","ALLEY":"３２弄","HOUSE_NO":"１７號","E_COORD97":165799.29000000001,"N_COORD97":2550631.0800000001,"ADDRESS":"本原街二段５３２巷３２弄１７號","OBJECTID":57953},"geometry":{"x":165799.29000000097,"y":2550631.0800000001}},{"attributes":{"ID":57954,"DIS_CODE":0,"TOWNNAME":"安南區","LI":"淵東里","LIN":"1鄰","STREET":"本原街","SECT":"二段","MAREA":" ","LANE":"５３２巷","ALLEY":"３２弄","HOUSE_NO":"１９號","E_COORD97":165802.94,"N_COORD97":2550633.46,"ADDRESS":"本原街二段５３２巷３２弄１９號","OBJECTID":57954},"geometry":{"x":165802.94000000041,"y":2550633.4600000046}},{"attributes":{"ID":57955,"DIS_CODE":0,"TOWNNAME":"安南區","LI":"淵東里","LIN":"1鄰","STREET":"本原街","SECT":"二段","MAREA":" ","LANE":"５３２巷","ALLEY":"３２弄","HOUSE_NO":"２１號","E_COORD97":165807.70000000001,"N_COORD97":2550637.27,"ADDRESS":"本原街二段５３２巷３２弄２１號","OBJECTID":57955},"geometry":{"x":165807.70000000019,"y":2550637.2700000014}},{"attributes":{"ID":57956,"DIS_CODE":0,"TOWNNAME":"安定區","LI":"海寮里","LIN":"1鄰","STREET":" ","SECT":" ","MAREA":"海寮","LANE":" ","ALLEY":" ","HOUSE_NO":"１８號之６","E_COORD97":169295.92999999999,"N_COORD97":2555082.2999999998,"ADDRESS":"海寮１８號之６","OBJECTID":57956},"geometry":{"x":169295.9299999997,"y":2555082.3000000045}},{"attributes":{"ID":57957,"DIS_CODE":0,"TOWNNAME":"安定區","LI":"管寮里","LIN":"1鄰","STREET":" ","SECT":" ","MAREA":"管寮","LANE":" ","ALLEY":" ","HOUSE_NO":"７號之１","E_COORD97":169932.32999999999,"N_COORD97":2556061.2999999998,"ADDRESS":"管寮７號之１","OBJECTID":57957},"geometry":{"x":169932.33000000101,"y":2556061.3000000007}},{"attributes":{"ID":57958,"DIS_CODE":0,"TOWNNAME":"安定區","LI":"蘇林里","LIN":"1鄰","STREET":" ","SECT":" ","MAREA":"蘇厝","LANE":" ","ALLEY":" ","HOUSE_NO":"１之２６號","E_COORD97":173479.26999999999,"N_COORD97":2558251.2999999998,"ADDRESS":"蘇厝１之２６號","OBJECTID":57958},"geometry":{"x":173479.26999999955,"y":2558251.3000000007}},{"attributes":{"ID":57959,"DIS_CODE":0,"TOWNNAME":"安南區","LI":"淵東里","LIN":"1鄰","STREET":"本原街","SECT":"二段","MAREA":" ","LANE":"５３２巷","ALLEY":"３２弄","HOUSE_NO":"６號","E_COORD97":165789.28,"N_COORD97":2550595.6800000002,"ADDRESS":"本原街二段５３２巷３２弄６號","OBJECTID":57959},"geometry":{"x":165789.28000000212,"y":2550595.6799999997}},{"attributes":{"ID":57960,"DIS_CODE":0,"TOWNNAME":"安南區","LI":"淵東里","LIN":"1鄰","STREET":"本原街","SECT":"二段","MAREA":" ","LANE":"５３２巷","ALLEY":"３２弄","HOUSE_NO":"８號","E_COORD97":165791.35000000001,"N_COORD97":2550597.5800000001,"ADDRESS":"本原街二段５３２巷３２弄８號","OBJECTID":57960},"geometry":{"x":165791.34999999963,"y":2550597.5799999982}},{"attributes":{"ID":57961,"DIS_CODE":0,"TOWNNAME":"安南區","LI":"淵東里","LIN":"1鄰","STREET":"本原街","SECT":"二段","MAREA":" ","LANE":"５３２巷","ALLEY":"３２弄","HOUSE_NO":"１０號","E_COORD97":165793.73000000001,"N_COORD97":2550599.6499999999,"ADDRESS":"本原街二段５３２巷３２弄１０號","OBJECTID":57961},"geometry":{"x":165793.73000000138,"y":2550599.6500000004}},{"attributes":{"ID":57962,"DIS_CODE":0,"TOWNNAME":"安南區","LI":"淵東里","LIN":"1鄰","STREET":"本原街","SECT":"二段","MAREA":" ","LANE":"５３２巷","ALLEY":"３２弄","HOUSE_NO":"１２號","E_COORD97":165796.42999999999,"N_COORD97":2550601.8700000001,"ADDRESS":"本原街二段５３２巷３２弄１２號","OBJECTID":57962},"geometry":{"x":165796.43000000063,"y":2550601.8700000029}},{"attributes":{"ID":57963,"DIS_CODE":0,"TOWNNAME":"安南區","LI":"淵東里","LIN":"1鄰","STREET":"本原街","SECT":"二段","MAREA":" ","LANE":"５３２巷","ALLEY":"３２弄","HOUSE_NO":"１６號","E_COORD97":165799.44,"N_COORD97":2550603.9300000002,"ADDRESS":"本原街二段５３２巷３２弄１６號","OBJECTID":57963},"geometry":{"x":165799.44000000041,"y":2550603.9299999997}},{"attributes":{"ID":57964,"DIS_CODE":0,"TOWNNAME":"安南區","LI":"淵東里","LIN":"1鄰","STREET":"本原街","SECT":"二段","MAREA":" ","LANE":"５３２巷","ALLEY":"３２弄","HOUSE_NO":"１８號","E_COORD97":165802.78,"N_COORD97":2550606,"ADDRESS":"本原街二段５３２巷３２弄１８號","OBJECTID":57964},"geometry":{"x":165802.78000000212,"y":2550606.0000000019}},{"attributes":{"ID":57965,"DIS_CODE":0,"TOWNNAME":"安南區","LI":"淵東里","LIN":"1鄰","STREET":"本原街","SECT":"二段","MAREA":" ","LANE":"５３２巷","ALLEY":"３２弄","HOUSE_NO":"２０號","E_COORD97":165806.26999999999,"N_COORD97":2550608.8599999999,"ADDRESS":"本原街二段５３２巷３２弄２０號","OBJECTID":57965},"geometry":{"x":165806.27000000048,"y":2550608.8600000031}},{"attributes":{"ID":57966,"DIS_CODE":0,"TOWNNAME":"安定區","LI":"安加里","LIN":"1鄰","STREET":" ","SECT":" ","MAREA":"安定","LANE":" ","ALLEY":" ","HOUSE_NO":"１５８號之１","E_COORD97":172032.35000000001,"N_COORD97":2557591.3199999998,"ADDRESS":"安定１５８號之１","OBJECTID":57966},"geometry":{"x":172032.34999999963,"y":2557591.3200000022}},{"attributes":{"ID":57967,"DIS_CODE":0,"TOWNNAME":"安定區","LI":"安加里","LIN":"1鄰","STREET":" ","SECT":" ","MAREA":"安定","LANE":" ","ALLEY":" ","HOUSE_NO":"１５８號之５","E_COORD97":172052.51000000001,"N_COORD97":2557585.3199999998,"ADDRESS":"安定１５８號之５","OBJECTID":57967},"geometry":{"x":172052.50999999885,"y":2557585.3200000022}},{"attributes":{"ID":57968,"DIS_CODE":0,"TOWNNAME":"安定區","LI":"蘇林里","LIN":"1鄰","STREET":" ","SECT":" ","MAREA":"蘇厝","LANE":" ","ALLEY":" ","HOUSE_NO":"７之１４號","E_COORD97":173556.87,"N_COORD97":2558422.2999999998,"ADDRESS":"蘇厝７之１４號","OBJECTID":57968},"geometry":{"x":173556.87000000011,"y":2558422.3000000026}},{"attributes":{"ID":57969,"DIS_CODE":0,"TOWNNAME":"安南區","LI":"淵東里","LIN":"1鄰","STREET":"本原街","SECT":"二段","MAREA":" ","LANE":"５３２巷","ALLEY":"３２弄","HOUSE_NO":"２２號","E_COORD97":165809.13,"N_COORD97":2550612.0299999998,"ADDRESS":"本原街二段５３２巷３２弄２２號","OBJECTID":57969},"geometry":{"x":165809.13000000082,"y":2550612.0300000012}},{"attributes":{"ID":57970,"DIS_CODE":0,"TOWNNAME":"安南區","LI":"淵東里","LIN":"1鄰","STREET":"本原街","SECT":"二段","MAREA":" ","LANE":"５３２巷","ALLEY":"３２弄","HOUSE_NO":"２６號","E_COORD97":165813.26000000001,"N_COORD97":2550615.6800000002,"ADDRESS":"本原街二段５３２巷３２弄２６號","OBJECTID":57970},"geometry":{"x":165813.26000000071,"y":2550615.6799999997}},{"attributes":{"ID":57971,"DIS_CODE":0,"TOWNNAME":"安定區","LI":"中沙里","LIN":"1鄰","STREET":" ","SECT":" ","MAREA":"中崙","LANE":" ","ALLEY":" ","HOUSE_NO":"６７之２號","E_COORD97":169101.57827900001,"N_COORD97":2553268.2323599998,"ADDRESS":"中崙６７之２號","OBJECTID":57971},"geometry":{"x":169101.57827899978,"y":2553268.2323620021}},{"attributes":{"ID":57972,"DIS_CODE":0,"TOWNNAME":"安定區","LI":"中沙里","LIN":"1鄰","STREET":" ","SECT":" ","MAREA":"中崙","LANE":" ","ALLEY":" ","HOUSE_NO":"８１號","E_COORD97":168974.45999999999,"N_COORD97":2553290.25,"ADDRESS":"中崙８１號","OBJECTID":57972},"geometry":{"x":168974.45999999996,"y":2553290.25}},{"attributes":{"ID":57973,"DIS_CODE":0,"TOWNNAME":"安定區","LI":"安加里","LIN":"1鄰","STREET":" ","SECT":" ","MAREA":"安定","LANE":" ","ALLEY":" ","HOUSE_NO":"１５６之１３號","E_COORD97":172027.87,"N_COORD97":2557630.3199999998,"ADDRESS":"安定１５６之１３號","OBJECTID":57973},"geometry":{"x":172027.87000000011,"y":2557630.3200000003}},{"attributes":{"ID":57974,"DIS_CODE":0,"TOWNNAME":"安定區","LI":"南安里","LIN":"1鄰","STREET":" ","SECT":" ","MAREA":"油車","LANE":" ","ALLEY":" ","HOUSE_NO":"４之８號","E_COORD97":170916.69,"N_COORD97":2556010.2999999998,"ADDRESS":"油車４之８號","OBJECTID":57974},"geometry":{"x":170916.69000000134,"y":2556010.3000000007}},{"attributes":{"ID":57975,"DIS_CODE":0,"TOWNNAME":"安定區","LI":"南安里","LIN":"1鄰","STREET":" ","SECT":" ","MAREA":"油車","LANE":" ","ALLEY":" ","HOUSE_NO":"６號之８","E_COORD97":170824.57000000001,"N_COORD97":2555959.2999999998,"ADDRESS":"油車６號之８","OBJECTID":57975},"geometry":{"x":170824.57000000123,"y":2555959.3000000007}},{"attributes":{"ID":57976,"DIS_CODE":0,"TOWNNAME":"安定區","LI":"海寮里","LIN":"1鄰","STREET":" ","SECT":" ","MAREA":"海寮","LANE":" ","ALLEY":" ","HOUSE_NO":"４之１號","E_COORD97":168997.44,"N_COORD97":2555128.2999999998,"ADDRESS":"海寮４之１號","OBJECTID":57976},"geometry":{"x":168997.44000000227,"y":2555128.3000000007}},{"attributes":{"ID":57977,"DIS_CODE":0,"TOWNNAME":"安定區","LI":"安加里","LIN":"1鄰","STREET":" ","SECT":" ","MAREA":"安定","LANE":" ","ALLEY":" ","HOUSE_NO":"１５８號之４","E_COORD97":172046.98000000001,"N_COORD97":2557585.3199999998,"ADDRESS":"安定１５８號之４","OBJECTID":57977},"geometry":{"x":172046.98000000138,"y":2557585.3200000022}},{"attributes":{"ID":57978,"DIS_CODE":0,"TOWNNAME":"安南區","LI":"淵東里","LIN":"1鄰","STREET":"本原街","SECT":"二段","MAREA":" ","LANE":"５３２巷","ALLEY":"３２弄","HOUSE_NO":"２８號","E_COORD97":165816.59,"N_COORD97":2550619.6499999999,"ADDRESS":"本原街二段５３２巷３２弄２８號","OBJECTID":57978},"geometry":{"x":165816.58999999985,"y":2550619.6500000004}},{"attributes":{"ID":57979,"DIS_CODE":0,"TOWNNAME":"安南區","LI":"梅花里","LIN":"1鄰","STREET":"安中路","SECT":"一段","MAREA":" ","LANE":"５５７巷","ALLEY":"２２弄","HOUSE_NO":"２號","E_COORD97":167942.26000000001,"N_COORD97":2548951.0600000001,"ADDRESS":"安中路一段５５７巷２２弄２號","OBJECTID":57979},"geometry":{"x":167942.26000000071,"y":2548951.0600000024}},{"attributes":{"ID":57980,"DIS_CODE":0,"TOWNNAME":"安南區","LI":"梅花里","LIN":"1鄰","STREET":"安中路","SECT":"一段","MAREA":" ","LANE":"５５７巷","ALLEY":"２２弄","HOUSE_NO":"６號","E_COORD97":167938.60999999999,"N_COORD97":2548953.1200000001,"ADDRESS":"安中路一段５５７巷２２弄６號","OBJECTID":57980},"geometry":{"x":167938.61000000127,"y":2548953.120000001}},{"attributes":{"ID":57981,"DIS_CODE":0,"TOWNNAME":"安南區","LI":"梅花里","LIN":"1鄰","STREET":"安中路","SECT":"一段","MAREA":" ","LANE":"５５７巷","ALLEY":"２２弄","HOUSE_NO":"８號","E_COORD97":167943.20999999999,"N_COORD97":2548956.77,"ADDRESS":"安中路一段５５７巷２２弄８號","OBJECTID":57981},"geometry":{"x":167943.20999999996,"y":2548956.7699999996}},{"attributes":{"ID":57982,"DIS_CODE":0,"TOWNNAME":"南區","LI":"荔宅里","LIN":"8鄰","STREET":"大成路","SECT":"一段","MAREA":" ","LANE":" ","ALLEY":" ","HOUSE_NO":"１９２號","E_COORD97":167801.14000000001,"N_COORD97":2541762.8100000001,"ADDRESS":"大成路一段１９２號","OBJECTID":57982},"geometry":{"x":167801.13999999966,"y":2541762.8100000024}},{"attributes":{"ID":57983,"DIS_CODE":0,"TOWNNAME":"南區","LI":"鯤鯓里","LIN":"8鄰","STREET":"鯤鯓路","SECT":" ","MAREA":" ","LANE":" ","ALLEY":" ","HOUSE_NO":"１２６號","E_COORD97":164977.95999999999,"N_COORD97":2540026.9900000002,"ADDRESS":"鯤鯓路１２６號","OBJECTID":57983},"geometry":{"x":164977.96000000089,"y":2540026.9900000002}},{"attributes":{"ID":57984,"DIS_CODE":0,"TOWNNAME":"南區","LI":"鯤鯓里","LIN":"8鄰","STREET":"鯤鯓路","SECT":" ","MAREA":" ","LANE":" ","ALLEY":" ","HOUSE_NO":"１２６號之１","E_COORD97":164974.09,"N_COORD97":2540030.8599999999,"ADDRESS":"鯤鯓路１２６號之１","OBJECTID":57984},"geometry":{"x":164974.08999999985,"y":2540030.8600000031}},{"attributes":{"ID":57985,"DIS_CODE":0,"TOWNNAME":"南區","LI":"鯤鯓里","LIN":"8鄰","STREET":"鯤鯓路","SECT":" ","MAREA":" ","LANE":" ","ALLEY":" ","HOUSE_NO":"１２６號之２","E_COORD97":164972.07000000001,"N_COORD97":2540034.8399999999,"ADDRESS":"鯤鯓路１２６號之２","OBJECTID":57985},"geometry":{"x":164972.07000000216,"y":2540034.8400000036}},{"attributes":{"ID":57986,"DIS_CODE":0,"TOWNNAME":"南區","LI":"鯤鯓里","LIN":"8鄰","STREET":"鯤鯓路","SECT":" ","MAREA":" ","LANE":" ","ALLEY":" ","HOUSE_NO":"１２６號之３","E_COORD97":164968.67999999999,"N_COORD97":2540036.77,"ADDRESS":"鯤鯓路１２６號之３","OBJECTID":57986},"geometry":{"x":164968.6799999997,"y":2540036.7699999996}},{"attributes":{"ID":57987,"DIS_CODE":0,"TOWNNAME":"南區","LI":"鯤鯓里","LIN":"8鄰","STREET":"鯤鯓路","SECT":" ","MAREA":" ","LANE":" ","ALLEY":" ","HOUSE_NO":"１２６號之４","E_COORD97":164964.82000000001,"N_COORD97":2540038.7000000002,"ADDRESS":"鯤鯓路１２６號之４","OBJECTID":57987},"geometry":{"x":164964.8200000003,"y":2540038.7000000011}},{"attributes":{"ID":57988,"DIS_CODE":0,"TOWNNAME":"安南區","LI":"梅花里","LIN":"1鄰","STREET":"安中路","SECT":"一段","MAREA":" ","LANE":"５５７巷","ALLEY":"２２弄","HOUSE_NO":"１０號","E_COORD97":167947.34,"N_COORD97":2548964.0800000001,"ADDRESS":"安中路一段５５７巷２２弄１０號","OBJECTID":57988},"geometry":{"x":167947.33999999985,"y":2548964.0800000019}},{"attributes":{"ID":57989,"DIS_CODE":0,"TOWNNAME":"安南區","LI":"梅花里","LIN":"1鄰","STREET":"安中路","SECT":"一段","MAREA":" ","LANE":"５５７巷","ALLEY":"２２弄","HOUSE_NO":"１２號","E_COORD97":167950.67000000001,"N_COORD97":2548970.5800000001,"ADDRESS":"安中路一段５５７巷２２弄１２號","OBJECTID":57989},"geometry":{"x":167950.66999999993,"y":2548970.5800000038}},{"attributes":{"ID":57990,"DIS_CODE":0,"TOWNNAME":"安南區","LI":"梅花里","LIN":"1鄰","STREET":"安中路","SECT":"一段","MAREA":" ","LANE":"５５７巷","ALLEY":"２２弄","HOUSE_NO":"１６號","E_COORD97":167956.70000000001,"N_COORD97":2548979.4700000002,"ADDRESS":"安中路一段５５７巷２２弄１６號","OBJECTID":57990},"geometry":{"x":167956.70000000112,"y":2548979.4700000025}},{"attributes":{"ID":57991,"DIS_CODE":0,"TOWNNAME":"安南區","LI":"梅花里","LIN":"1鄰","STREET":"安中路","SECT":"一段","MAREA":" ","LANE":"５５７巷","ALLEY":"２２弄","HOUSE_NO":"１８號","E_COORD97":167948.29000000001,"N_COORD97":2548984.71,"ADDRESS":"安中路一段５５７巷２２弄１８號","OBJECTID":57991},"geometry":{"x":167948.29000000004,"y":2548984.7100000028}},{"attributes":{"ID":57992,"DIS_CODE":0,"TOWNNAME":"安南區","LI":"梅花里","LIN":"1鄰","STREET":"安中路","SECT":"一段","MAREA":" ","LANE":"５５７巷","ALLEY":"２２弄","HOUSE_NO":"２０號","E_COORD97":167945.12,"N_COORD97":2548976.9300000002,"ADDRESS":"安中路一段５５７巷２２弄２０號","OBJECTID":57992},"geometry":{"x":167945.12000000104,"y":2548976.9299999997}},{"attributes":{"ID":57993,"DIS_CODE":0,"TOWNNAME":"安南區","LI":"梅花里","LIN":"1鄰","STREET":"安中路","SECT":"一段","MAREA":" ","LANE":"５５７巷","ALLEY":"２２弄","HOUSE_NO":"２２號","E_COORD97":167941.62,"N_COORD97":2548972.3300000001,"ADDRESS":"安中路一段５５７巷２２弄２２號","OBJECTID":57993},"geometry":{"x":167941.62000000104,"y":2548972.3300000019}},{"attributes":{"ID":57994,"DIS_CODE":0,"TOWNNAME":"安南區","LI":"梅花里","LIN":"1鄰","STREET":"安中路","SECT":"一段","MAREA":" ","LANE":"５５７巷","ALLEY":"２２弄","HOUSE_NO":"２６號","E_COORD97":167939.23999999999,"N_COORD97":2548967.73,"ADDRESS":"安中路一段５５７巷２２弄２６號","OBJECTID":57994},"geometry":{"x":167939.24000000115,"y":2548967.7300000023}},{"attributes":{"ID":57995,"DIS_CODE":0,"TOWNNAME":"安南區","LI":"梅花里","LIN":"1鄰","STREET":"安中路","SECT":"一段","MAREA":" ","LANE":"５５７巷","ALLEY":"２２弄","HOUSE_NO":"２８號","E_COORD97":167934.95999999999,"N_COORD97":2548958.52,"ADDRESS":"安中路一段５５７巷２２弄２８號","OBJECTID":57995},"geometry":{"x":167934.95999999996,"y":2548958.5199999996}},{"attributes":{"ID":57996,"DIS_CODE":0,"TOWNNAME":"安南區","LI":"梅花里","LIN":"1鄰","STREET":"安中路","SECT":"一段","MAREA":" ","LANE":"５５７巷","ALLEY":"２２弄","HOUSE_NO":"３０號","E_COORD97":167931.62,"N_COORD97":2548960.7400000002,"ADDRESS":"安中路一段５５７巷２２弄３０號","OBJECTID":57996},"geometry":{"x":167931.62000000104,"y":2548960.7400000021}},{"attributes":{"ID":57997,"DIS_CODE":0,"TOWNNAME":"學甲區","LI":"新達里","LIN":"8鄰","STREET":"新生路","SECT":" ","MAREA":" ","LANE":" ","ALLEY":" ","HOUSE_NO":"７號","E_COORD97":166583.64999999999,"N_COORD97":2570496.4100000001,"ADDRESS":"新生路７號","OBJECTID":57997},"geometry":{"x":166583.65000000224,"y":2570496.4100000001}},{"attributes":{"ID":57998,"DIS_CODE":0,"TOWNNAME":"學甲區","LI":"三慶里","LIN":"8鄰","STREET":" ","SECT":" ","MAREA":"頂洲","LANE":" ","ALLEY":" ","HOUSE_NO":"１０３號","E_COORD97":168396.13,"N_COORD97":2576243.25,"ADDRESS":"頂洲１０３號","OBJECTID":57998},"geometry":{"x":168396.13000000082,"y":2576243.25}},{"attributes":{"ID":57999,"DIS_CODE":0,"TOWNNAME":"學甲區","LI":"三慶里","LIN":"8鄰","STREET":" ","SECT":" ","MAREA":"頂洲","LANE":" ","ALLEY":" ","HOUSE_NO":"１０４號","E_COORD97":168380.26999999999,"N_COORD97":2576273.75,"ADDRESS":"頂洲１０４號","OBJECTID":57999},"geometry":{"x":168380.26999999955,"y":2576273.75}},{"attributes":{"ID":58000,"DIS_CODE":0,"TOWNNAME":"學甲區","LI":"三慶里","LIN":"8鄰","STREET":" ","SECT":" ","MAREA":"頂洲","LANE":" ","ALLEY":" ","HOUSE_NO":"１０５號之１","E_COORD97":167737.60999999999,"N_COORD97":2576358.5,"ADDRESS":"頂洲１０５號之１","OBJECTID":58000},"geometry":{"x":167737.61000000034,"y":2576358.5000000037}}]}