{"displayFieldName":"TOWNNAME","fieldAliases":{"ID":"ID","DIS_CODE":"DIS_CODE","TOWNNAME":"TOWNNAME","LI":"LI","LIN":"LIN","STREET":"STREET","SECT":"SECT","MAREA":"MAREA","LANE":"LANE","ALLEY":"ALLEY","HOUSE_NO":"HOUSE_NO","E_COORD97":"E_COORD97","N_COORD97":"N_COORD97","ADDRESS":"ADDRESS","OBJECTID":"OBJECTID"},"geometryType":"esriGeometryPoint","spatialReference":{"wkid":102443,"latestWkid":3826},"fields":[{"name":"ID","type":"esriFieldTypeDouble","alias":"ID"},{"name":"DIS_CODE","type":"esriFieldTypeInteger","alias":"DIS_CODE"},{"name":"TOWNNAME","type":"esriFieldTypeString","alias":"TOWNNAME","length":8},{"name":"LI","type":"esriFieldTypeString","alias":"LI","length":8},{"name":"LIN","type":"esriFieldTypeString","alias":"LIN","length":12},{"name":"STREET","type":"esriFieldTypeString","alias":"STREET","length":20},{"name":"SECT","type":"esriFieldTypeString","alias":"SECT","length":8},{"name":"MAREA","type":"esriFieldTypeString","alias":"MAREA","length":12},{"name":"LANE","type":"esriFieldTypeString","alias":"LANE","length":10},{"name":"ALLEY","type":"esriFieldTypeString","alias":"ALLEY","length":10},{"name":"HOUSE_NO","type":"esriFieldTypeString","alias":"HOUSE_NO","length":20},{"name":"E_COORD97","type":"esriFieldTypeDouble","alias":"E_COORD97"},{"name":"N_COORD97","type":"esriFieldTypeDouble","alias":"N_COORD97"},{"name":"ADDRESS","type":"esriFieldTypeString","alias":"ADDRESS","length":50},{"name":"OBJECTID","type":"esriFieldTypeOID","alias":"OBJECTID"}],"features":[{"attributes":{"ID":278206,"DIS_CODE":0,"TOWNNAME":"東區","LI":"路東里","LIN":"2鄰","STREET":"大同路","SECT":"二段","MAREA":" ","LANE":" ","ALLEY":" ","HOUSE_NO":"７７號十四樓之１","E_COORD97":169340.45000000001,"N_COORD97":2542187.2000000002,"ADDRESS":"大同路二段７７號十四樓之１","OBJECTID":278201},"geometry":{"x":169340.45000000019,"y":2542187.1999999993}},{"attributes":{"ID":278207,"DIS_CODE":0,"TOWNNAME":"東區","LI":"路東里","LIN":"2鄰","STREET":"大同路","SECT":"二段","MAREA":" ","LANE":" ","ALLEY":" ","HOUSE_NO":"７７號十四樓之２","E_COORD97":169340.45000000001,"N_COORD97":2542187.2000000002,"ADDRESS":"大同路二段７７號十四樓之２","OBJECTID":278202},"geometry":{"x":169340.45000000019,"y":2542187.1999999993}},{"attributes":{"ID":278208,"DIS_CODE":0,"TOWNNAME":"北區","LI":"成功里","LIN":"5鄰","STREET":"北安路","SECT":"一段","MAREA":" ","LANE":"１７６巷","ALLEY":" ","HOUSE_NO":"１２號","E_COORD97":168965.98999999999,"N_COORD97":2546507.1699999999,"ADDRESS":"北安路一段１７６巷１２號","OBJECTID":278203},"geometry":{"x":168965.99000000022,"y":2546507.1699999999}},{"attributes":{"ID":278209,"DIS_CODE":0,"TOWNNAME":"北區","LI":"成功里","LIN":"5鄰","STREET":"北安路","SECT":"一段","MAREA":" ","LANE":"１７６巷","ALLEY":" ","HOUSE_NO":"１８號","E_COORD97":168959,"N_COORD97":2546511.2999999998,"ADDRESS":"北安路一段１７６巷１８號","OBJECTID":278204},"geometry":{"x":168959,"y":2546511.2999999989}},{"attributes":{"ID":278210,"DIS_CODE":0,"TOWNNAME":"北區","LI":"成功里","LIN":"5鄰","STREET":"北安路","SECT":"一段","MAREA":" ","LANE":"１７６巷","ALLEY":" ","HOUSE_NO":"２０號","E_COORD97":168955.19,"N_COORD97":2546513.52,"ADDRESS":"北安路一段１７６巷２０號","OBJECTID":278205},"geometry":{"x":168955.19000000134,"y":2546513.5200000014}},{"attributes":{"ID":278211,"DIS_CODE":0,"TOWNNAME":"北區","LI":"東興里","LIN":"5鄰","STREET":"小東路","SECT":" ","MAREA":" ","LANE":"２８７巷","ALLEY":" ","HOUSE_NO":"５２號","E_COORD97":170951.70000000001,"N_COORD97":2544550.7599999998,"ADDRESS":"小東路２８７巷５２號","OBJECTID":278206},"geometry":{"x":170951.70000000205,"y":2544550.7599999998}},{"attributes":{"ID":278212,"DIS_CODE":0,"TOWNNAME":"安南區","LI":"城中里","LIN":"5鄰","STREET":"城西街","SECT":"一段","MAREA":" ","LANE":"６１巷","ALLEY":" ","HOUSE_NO":"６７之１號","E_COORD97":160778.76999999999,"N_COORD97":2551244.8500000001,"ADDRESS":"城西街一段６１巷６７之１號","OBJECTID":278207},"geometry":{"x":160778.76999999955,"y":2551244.8499999996}},{"attributes":{"ID":278213,"DIS_CODE":0,"TOWNNAME":"仁德區","LI":"仁義里","LIN":"14鄰","STREET":"林頂街","SECT":" ","MAREA":" ","LANE":" ","ALLEY":" ","HOUSE_NO":"１３６號","E_COORD97":174687.01838299999,"N_COORD97":2541344.0658100001,"ADDRESS":"林頂街１３６號","OBJECTID":278208},"geometry":{"x":174687.01838300098,"y":2541344.065808}},{"attributes":{"ID":278214,"DIS_CODE":0,"TOWNNAME":"安南區","LI":"布袋里","LIN":"5鄰","STREET":"長和路","SECT":"四段","MAREA":" ","LANE":"２３１巷","ALLEY":" ","HOUSE_NO":"６號","E_COORD97":168703.04999999999,"N_COORD97":2551677.8799999999,"ADDRESS":"長和路四段２３１巷６號","OBJECTID":278209},"geometry":{"x":168703.05000000075,"y":2551677.879999999}},{"attributes":{"ID":278215,"DIS_CODE":0,"TOWNNAME":"安南區","LI":"布袋里","LIN":"5鄰","STREET":"長和路","SECT":"四段","MAREA":" ","LANE":"２５３巷","ALLEY":" ","HOUSE_NO":"３３６號","E_COORD97":168149.32999999999,"N_COORD97":2551631.3700000001,"ADDRESS":"長和路四段２５３巷３３６號","OBJECTID":278210},"geometry":{"x":168149.33000000007,"y":2551631.3700000029}},{"attributes":{"ID":278216,"DIS_CODE":0,"TOWNNAME":"安南區","LI":"安西里","LIN":"5鄰","STREET":"安通三街","SECT":" ","MAREA":" ","LANE":"９８巷","ALLEY":" ","HOUSE_NO":"５號","E_COORD97":168585.667873,"N_COORD97":2548063.6811099998,"ADDRESS":"安通三街９８巷５號","OBJECTID":278211},"geometry":{"x":168585.66787300166,"y":2548063.6811120007}},{"attributes":{"ID":278217,"DIS_CODE":0,"TOWNNAME":"安南區","LI":"安西里","LIN":"5鄰","STREET":"安通三街","SECT":" ","MAREA":" ","LANE":"９８巷","ALLEY":" ","HOUSE_NO":"７號","E_COORD97":168591.18054100001,"N_COORD97":2548063.6811099998,"ADDRESS":"安通三街９８巷７號","OBJECTID":278212},"geometry":{"x":168591.18054100219,"y":2548063.6811120007}},{"attributes":{"ID":278218,"DIS_CODE":0,"TOWNNAME":"安南區","LI":"安西里","LIN":"5鄰","STREET":"安通三街","SECT":" ","MAREA":" ","LANE":"９８巷","ALLEY":" ","HOUSE_NO":"９號","E_COORD97":168597.965363,"N_COORD97":2548063.6811099998,"ADDRESS":"安通三街９８巷９號","OBJECTID":278213},"geometry":{"x":168597.96536300052,"y":2548063.6811120007}},{"attributes":{"ID":278219,"DIS_CODE":0,"TOWNNAME":"安南區","LI":"安西里","LIN":"5鄰","STREET":"安通三街","SECT":" ","MAREA":" ","LANE":"９８巷","ALLEY":" ","HOUSE_NO":"２號","E_COORD97":168574.64253700001,"N_COORD97":2548045.0544599998,"ADDRESS":"安通三街９８巷２號","OBJECTID":278214},"geometry":{"x":168574.64253700059,"y":2548045.0544560011}},{"attributes":{"ID":278220,"DIS_CODE":0,"TOWNNAME":"安南區","LI":"安西里","LIN":"5鄰","STREET":"安通三街","SECT":" ","MAREA":" ","LANE":"９８巷","ALLEY":" ","HOUSE_NO":"６號","E_COORD97":168579.731153,"N_COORD97":2548046.1127900002,"ADDRESS":"安通三街９８巷６號","OBJECTID":278215},"geometry":{"x":168579.73115300015,"y":2548046.1127889995}},{"attributes":{"ID":278221,"DIS_CODE":0,"TOWNNAME":"安南區","LI":"安西里","LIN":"5鄰","STREET":"安通三街","SECT":" ","MAREA":" ","LANE":"９８巷","ALLEY":" ","HOUSE_NO":"８號","E_COORD97":168585.455847,"N_COORD97":2548046.95945,"ADDRESS":"安通三街９８巷８號","OBJECTID":278216},"geometry":{"x":168585.4558470007,"y":2548046.9594550021}},{"attributes":{"ID":278222,"DIS_CODE":0,"TOWNNAME":"歸仁區","LI":"南興里","LIN":"35鄰","STREET":"民生北街","SECT":" ","MAREA":" ","LANE":"５０巷","ALLEY":" ","HOUSE_NO":"５２號","E_COORD97":176398.94,"N_COORD97":2541063.29,"ADDRESS":"民生北街５０巷５２號","OBJECTID":278217},"geometry":{"x":176398.94000000134,"y":2541063.2899999991}},{"attributes":{"ID":278223,"DIS_CODE":0,"TOWNNAME":"玉井區","LI":"玉田里","LIN":"35鄰","STREET":"大成路","SECT":" ","MAREA":" ","LANE":"２４９巷","ALLEY":" ","HOUSE_NO":"９號","E_COORD97":195653.67000000001,"N_COORD97":2558142.27,"ADDRESS":"大成路２４９巷９號","OBJECTID":278218},"geometry":{"x":195653.66999999899,"y":2558142.2699999996}},{"attributes":{"ID":278224,"DIS_CODE":0,"TOWNNAME":"南區","LI":"大忠里","LIN":"35鄰","STREET":"中華南路","SECT":"一段","MAREA":" ","LANE":"１４２巷","ALLEY":" ","HOUSE_NO":"３８號","E_COORD97":169139.48999999999,"N_COORD97":2541371.1800000002,"ADDRESS":"中華南路一段１４２巷３８號","OBJECTID":278219},"geometry":{"x":169139.49000000115,"y":2541371.1799999978}},{"attributes":{"ID":278225,"DIS_CODE":0,"TOWNNAME":"歸仁區","LI":"南保里","LIN":"35鄰","STREET":"中山路","SECT":"三段","MAREA":" ","LANE":"１００巷","ALLEY":" ","HOUSE_NO":"６５號","E_COORD97":176754.81,"N_COORD97":2540974.2799999998,"ADDRESS":"中山路三段１００巷６５號","OBJECTID":278220},"geometry":{"x":176754.81000000052,"y":2540974.2800000012}},{"attributes":{"ID":278226,"DIS_CODE":0,"TOWNNAME":"歸仁區","LI":"許厝里","LIN":"35鄰","STREET":"公園路","SECT":" ","MAREA":" ","LANE":"１５６巷","ALLEY":" ","HOUSE_NO":"１４號","E_COORD97":177849.98000000001,"N_COORD97":2540506.8199999998,"ADDRESS":"公園路１５６巷１４號","OBJECTID":278221},"geometry":{"x":177849.98000000138,"y":2540506.820000004}},{"attributes":{"ID":278227,"DIS_CODE":0,"TOWNNAME":"東區","LI":"自強里","LIN":"26鄰","STREET":"中華東路","SECT":"二段","MAREA":" ","LANE":"２０３巷","ALLEY":" ","HOUSE_NO":"１１號","E_COORD97":171303.82999999999,"N_COORD97":2542682.52,"ADDRESS":"中華東路二段２０３巷１１號","OBJECTID":278222},"geometry":{"x":171303.83000000101,"y":2542682.5200000014}},{"attributes":{"ID":278228,"DIS_CODE":0,"TOWNNAME":"東區","LI":"崇文里","LIN":"15鄰","STREET":"崇德十九街","SECT":" ","MAREA":" ","LANE":" ","ALLEY":" ","HOUSE_NO":"２４號","E_COORD97":170881.54000000001,"N_COORD97":2540965.8100000001,"ADDRESS":"崇德十九街２４號","OBJECTID":278223},"geometry":{"x":170881.54000000097,"y":2540965.8100000024}},{"attributes":{"ID":278229,"DIS_CODE":0,"TOWNNAME":"東區","LI":"崇文里","LIN":"15鄰","STREET":"崇德十九街","SECT":" ","MAREA":" ","LANE":" ","ALLEY":" ","HOUSE_NO":"２６號","E_COORD97":170886.32000000001,"N_COORD97":2540965.6099999999,"ADDRESS":"崇德十九街２６號","OBJECTID":278224},"geometry":{"x":170886.3200000003,"y":2540965.6100000013}},{"attributes":{"ID":278230,"DIS_CODE":0,"TOWNNAME":"東區","LI":"崇文里","LIN":"15鄰","STREET":"崇德十九街","SECT":" ","MAREA":" ","LANE":" ","ALLEY":" ","HOUSE_NO":"２８號","E_COORD97":170890.39999999999,"N_COORD97":2540965.6099999999,"ADDRESS":"崇德十九街２８號","OBJECTID":278225},"geometry":{"x":170890.40000000037,"y":2540965.6100000013}},{"attributes":{"ID":278231,"DIS_CODE":0,"TOWNNAME":"東區","LI":"崇文里","LIN":"15鄰","STREET":"崇德十九街","SECT":" ","MAREA":" ","LANE":" ","ALLEY":" ","HOUSE_NO":"２號","E_COORD97":170835.32000000001,"N_COORD97":2540962.2200000002,"ADDRESS":"崇德十九街２號","OBJECTID":278226},"geometry":{"x":170835.3200000003,"y":2540962.2200000044}},{"attributes":{"ID":278232,"DIS_CODE":0,"TOWNNAME":"東區","LI":"崇文里","LIN":"15鄰","STREET":"崇德十九街","SECT":" ","MAREA":" ","LANE":" ","ALLEY":" ","HOUSE_NO":"２號之１","E_COORD97":170841.76999999999,"N_COORD97":2540962.4700000002,"ADDRESS":"崇德十九街２號之１","OBJECTID":278227},"geometry":{"x":170841.76999999955,"y":2540962.4700000007}},{"attributes":{"ID":278233,"DIS_CODE":0,"TOWNNAME":"東區","LI":"崇文里","LIN":"15鄰","STREET":"崇德十九街","SECT":" ","MAREA":" ","LANE":" ","ALLEY":" ","HOUSE_NO":"３２號","E_COORD97":170899.23999999999,"N_COORD97":2540955.7599999998,"ADDRESS":"崇德十九街３２號","OBJECTID":278228},"geometry":{"x":170899.24000000115,"y":2540955.7599999998}},{"attributes":{"ID":278234,"DIS_CODE":0,"TOWNNAME":"東區","LI":"崇文里","LIN":"15鄰","STREET":"崇德十九街","SECT":" ","MAREA":" ","LANE":" ","ALLEY":" ","HOUSE_NO":"３４號","E_COORD97":170903.42000000001,"N_COORD97":2540955.5600000001,"ADDRESS":"崇德十九街３４號","OBJECTID":278229},"geometry":{"x":170903.41999999993,"y":2540955.5600000005}},{"attributes":{"ID":278235,"DIS_CODE":0,"TOWNNAME":"東區","LI":"崇文里","LIN":"15鄰","STREET":"崇德十九街","SECT":" ","MAREA":" ","LANE":" ","ALLEY":" ","HOUSE_NO":"３６號","E_COORD97":170907.5,"N_COORD97":2540955.6600000001,"ADDRESS":"崇德十九街３６號","OBJECTID":278230},"geometry":{"x":170907.50000000093,"y":2540955.660000002}},{"attributes":{"ID":278236,"DIS_CODE":0,"TOWNNAME":"永康區","LI":"龍潭里","LIN":"35鄰","STREET":"龍安街","SECT":" ","MAREA":" ","LANE":"１８９巷","ALLEY":" ","HOUSE_NO":"１１號","E_COORD97":174614.73000000001,"N_COORD97":2548497.0699999998,"ADDRESS":"龍安街１８９巷１１號","OBJECTID":278231},"geometry":{"x":174614.73000000045,"y":2548497.0700000022}},{"attributes":{"ID":278237,"DIS_CODE":0,"TOWNNAME":"永康區","LI":"復華里","LIN":"35鄰","STREET":"復國一路","SECT":" ","MAREA":" ","LANE":"４７５巷","ALLEY":" ","HOUSE_NO":"１５號","E_COORD97":172576.04000000001,"N_COORD97":2546095.2400000002,"ADDRESS":"復國一路４７５巷１５號","OBJECTID":278232},"geometry":{"x":172576.04000000004,"y":2546095.2400000021}},{"attributes":{"ID":278238,"DIS_CODE":0,"TOWNNAME":"永康區","LI":"復華里","LIN":"35鄰","STREET":"復華七街","SECT":" ","MAREA":" ","LANE":"３９巷","ALLEY":" ","HOUSE_NO":"８號","E_COORD97":172605.76999999999,"N_COORD97":2546059.9500000002,"ADDRESS":"復華七街３９巷８號","OBJECTID":278233},"geometry":{"x":172605.77000000048,"y":2546059.9499999993}},{"attributes":{"ID":278239,"DIS_CODE":0,"TOWNNAME":"仁德區","LI":"太子里","LIN":"35鄰","STREET":"太子路","SECT":" ","MAREA":" ","LANE":"４５９巷","ALLEY":" ","HOUSE_NO":"９號","E_COORD97":174236.76000000001,"N_COORD97":2543462.25,"ADDRESS":"太子路４５９巷９號","OBJECTID":278234},"geometry":{"x":174236.76000000071,"y":2543462.25}},{"attributes":{"ID":278240,"DIS_CODE":0,"TOWNNAME":"仁德區","LI":"成功里","LIN":"35鄰","STREET":"成功一街","SECT":" ","MAREA":" ","LANE":"６７巷","ALLEY":" ","HOUSE_NO":"５號","E_COORD97":170565.04000000001,"N_COORD97":2540055.5099999998,"ADDRESS":"成功一街６７巷５號","OBJECTID":278235},"geometry":{"x":170565.04000000097,"y":2540055.5099999998}},{"attributes":{"ID":278241,"DIS_CODE":0,"TOWNNAME":"仁德區","LI":"成功里","LIN":"35鄰","STREET":"保華路","SECT":" ","MAREA":" ","LANE":"６４巷","ALLEY":" ","HOUSE_NO":"１３號","E_COORD97":170609.20000000001,"N_COORD97":2540047.2400000002,"ADDRESS":"保華路６４巷１３號","OBJECTID":278236},"geometry":{"x":170609.20000000205,"y":2540047.2400000021}},{"attributes":{"ID":278242,"DIS_CODE":0,"TOWNNAME":"永康區","LI":"復國里","LIN":"35鄰","STREET":"復國一路","SECT":" ","MAREA":" ","LANE":"８５巷","ALLEY":" ","HOUSE_NO":"８號","E_COORD97":172667.57000000001,"N_COORD97":2544972.0299999998,"ADDRESS":"復國一路８５巷８號","OBJECTID":278237},"geometry":{"x":172667.5700000003,"y":2544972.0299999993}},{"attributes":{"ID":278243,"DIS_CODE":0,"TOWNNAME":"永康區","LI":"復國里","LIN":"35鄰","STREET":"復國一路","SECT":" ","MAREA":" ","LANE":"６７巷","ALLEY":" ","HOUSE_NO":"１５號之５","E_COORD97":172475.69,"N_COORD97":2544953.04,"ADDRESS":"復國一路６７巷１５號之５","OBJECTID":278238},"geometry":{"x":172475.69000000041,"y":2544953.040000001}},{"attributes":{"ID":278244,"DIS_CODE":0,"TOWNNAME":"永康區","LI":"復國里","LIN":"35鄰","STREET":"復國一路","SECT":" ","MAREA":" ","LANE":"６７巷","ALLEY":" ","HOUSE_NO":"３號","E_COORD97":172675.64999999999,"N_COORD97":2544913.77,"ADDRESS":"復國一路６７巷３號","OBJECTID":278239},"geometry":{"x":172675.65000000037,"y":2544913.7700000033}},{"attributes":{"ID":278245,"DIS_CODE":0,"TOWNNAME":"永康區","LI":"復國里","LIN":"35鄰","STREET":"復國一路","SECT":" ","MAREA":" ","LANE":"６７巷","ALLEY":" ","HOUSE_NO":"１７號","E_COORD97":172541.84,"N_COORD97":2544951.77,"ADDRESS":"復國一路６７巷１７號","OBJECTID":278240},"geometry":{"x":172541.83999999985,"y":2544951.7700000014}},{"attributes":{"ID":278246,"DIS_CODE":0,"TOWNNAME":"永康區","LI":"復國里","LIN":"35鄰","STREET":"復國一路","SECT":" ","MAREA":" ","LANE":"６７巷","ALLEY":" ","HOUSE_NO":"７號","E_COORD97":172667.87,"N_COORD97":2544913.27,"ADDRESS":"復國一路６７巷７號","OBJECTID":278241},"geometry":{"x":172667.87000000104,"y":2544913.2699999996}},{"attributes":{"ID":278247,"DIS_CODE":0,"TOWNNAME":"永康區","LI":"復國里","LIN":"35鄰","STREET":"復國一路","SECT":" ","MAREA":" ","LANE":"８５巷","ALLEY":" ","HOUSE_NO":"６號","E_COORD97":172671.70999999999,"N_COORD97":2544971.7799999998,"ADDRESS":"復國一路８５巷６號","OBJECTID":278242},"geometry":{"x":172671.70999999996,"y":2544971.7800000012}},{"attributes":{"ID":278248,"DIS_CODE":0,"TOWNNAME":"永康區","LI":"復國里","LIN":"35鄰","STREET":"復國一路","SECT":" ","MAREA":" ","LANE":"６７巷","ALLEY":" ","HOUSE_NO":"１５號之６","E_COORD97":172476.95000000001,"N_COORD97":2545006.29,"ADDRESS":"復國一路６７巷１５號之６","OBJECTID":278243},"geometry":{"x":172476.95000000019,"y":2545006.2899999991}},{"attributes":{"ID":278249,"DIS_CODE":0,"TOWNNAME":"永康區","LI":"復國里","LIN":"35鄰","STREET":"復國一路","SECT":" ","MAREA":" ","LANE":"６７巷","ALLEY":" ","HOUSE_NO":"１０號","E_COORD97":172664.44,"N_COORD97":2544928.1299999999,"ADDRESS":"復國一路６７巷１０號","OBJECTID":278244},"geometry":{"x":172664.44000000134,"y":2544928.1300000008}},{"attributes":{"ID":278250,"DIS_CODE":0,"TOWNNAME":"永康區","LI":"復國里","LIN":"35鄰","STREET":"復國一路","SECT":" ","MAREA":" ","LANE":"６７巷","ALLEY":" ","HOUSE_NO":"２７號之１","E_COORD97":172466.01999999999,"N_COORD97":2545023.04,"ADDRESS":"復國一路６７巷２７號之１","OBJECTID":278245},"geometry":{"x":172466.02000000142,"y":2545023.0399999972}},{"attributes":{"ID":278251,"DIS_CODE":0,"TOWNNAME":"永康區","LI":"復國里","LIN":"35鄰","STREET":"復國一路","SECT":" ","MAREA":" ","LANE":"６７巷","ALLEY":" ","HOUSE_NO":"９號","E_COORD97":172663.79999999999,"N_COORD97":2544912.27,"ADDRESS":"復國一路６７巷９號","OBJECTID":278246},"geometry":{"x":172663.79999999981,"y":2544912.2699999996}},{"attributes":{"ID":278252,"DIS_CODE":0,"TOWNNAME":"永康區","LI":"復華里","LIN":"35鄰","STREET":"復華七街","SECT":" ","MAREA":" ","LANE":"３９巷","ALLEY":" ","HOUSE_NO":"１８號","E_COORD97":172589.70000000001,"N_COORD97":2546077.04,"ADDRESS":"復華七街３９巷１８號","OBJECTID":278247},"geometry":{"x":172589.70000000112,"y":2546077.0399999991}},{"attributes":{"ID":278253,"DIS_CODE":0,"TOWNNAME":"永康區","LI":"復國里","LIN":"35鄰","STREET":"復國一路","SECT":" ","MAREA":" ","LANE":"６７巷","ALLEY":" ","HOUSE_NO":"１４號","E_COORD97":172654.70999999999,"N_COORD97":2544927.3799999999,"ADDRESS":"復國一路６７巷１４號","OBJECTID":278248},"geometry":{"x":172654.70999999996,"y":2544927.3800000008}},{"attributes":{"ID":278254,"DIS_CODE":0,"TOWNNAME":"永康區","LI":"復國里","LIN":"35鄰","STREET":"復國一路","SECT":" ","MAREA":" ","LANE":"６７巷","ALLEY":" ","HOUSE_NO":"２７號","E_COORD97":172495.53,"N_COORD97":2545011.77,"ADDRESS":"復國一路６７巷２７號","OBJECTID":278249},"geometry":{"x":172495.53000000212,"y":2545011.7699999977}},{"attributes":{"ID":278255,"DIS_CODE":0,"TOWNNAME":"永康區","LI":"復國里","LIN":"35鄰","STREET":"復國一路","SECT":" ","MAREA":" ","LANE":"８５巷","ALLEY":" ","HOUSE_NO":"２號","E_COORD97":172679.66,"N_COORD97":2544971.0299999998,"ADDRESS":"復國一路８５巷２號","OBJECTID":278250},"geometry":{"x":172679.66000000108,"y":2544971.0299999993}},{"attributes":{"ID":278256,"DIS_CODE":0,"TOWNNAME":"永康區","LI":"復國里","LIN":"35鄰","STREET":"復國一路","SECT":" ","MAREA":" ","LANE":"６７巷","ALLEY":" ","HOUSE_NO":"５號","E_COORD97":172671.92000000001,"N_COORD97":2544913.52,"ADDRESS":"復國一路６７巷５號","OBJECTID":278251},"geometry":{"x":172671.91999999993,"y":2544913.5200000014}},{"attributes":{"ID":278257,"DIS_CODE":0,"TOWNNAME":"永康區","LI":"復國里","LIN":"35鄰","STREET":"復國一路","SECT":" ","MAREA":" ","LANE":"６７巷","ALLEY":" ","HOUSE_NO":"６號","E_COORD97":172671.39000000001,"N_COORD97":2544928.3799999999,"ADDRESS":"復國一路６７巷６號","OBJECTID":278252},"geometry":{"x":172671.38999999966,"y":2544928.379999999}},{"attributes":{"ID":278258,"DIS_CODE":0,"TOWNNAME":"永康區","LI":"復國里","LIN":"35鄰","STREET":"復國一路","SECT":" ","MAREA":" ","LANE":"８５巷","ALLEY":" ","HOUSE_NO":"４號","E_COORD97":172675.92999999999,"N_COORD97":2544971.5299999998,"ADDRESS":"復國一路８５巷４號","OBJECTID":278253},"geometry":{"x":172675.93000000063,"y":2544971.5299999993}},{"attributes":{"ID":278259,"DIS_CODE":0,"TOWNNAME":"永康區","LI":"復華里","LIN":"35鄰","STREET":"復國一路","SECT":" ","MAREA":" ","LANE":"４７５巷","ALLEY":" ","HOUSE_NO":"１１號","E_COORD97":172581.69,"N_COORD97":2546102.2400000002,"ADDRESS":"復國一路４７５巷１１號","OBJECTID":278254},"geometry":{"x":172581.69000000134,"y":2546102.2400000021}},{"attributes":{"ID":278260,"DIS_CODE":0,"TOWNNAME":"永康區","LI":"正強里","LIN":"35鄰","STREET":"正強街","SECT":" ","MAREA":" ","LANE":"３１５巷","ALLEY":" ","HOUSE_NO":"６號","E_COORD97":173223.03,"N_COORD97":2548308.5,"ADDRESS":"正強街３１５巷６號","OBJECTID":278255},"geometry":{"x":173223.03000000119,"y":2548308.5}},{"attributes":{"ID":278261,"DIS_CODE":0,"TOWNNAME":"永康區","LI":"埔園里","LIN":"35鄰","STREET":"永大路","SECT":"三段","MAREA":" ","LANE":"４５０巷","ALLEY":" ","HOUSE_NO":"１８號","E_COORD97":174187.17999999999,"N_COORD97":2548398.77,"ADDRESS":"永大路三段４５０巷１８號","OBJECTID":278256},"geometry":{"x":174187.17999999877,"y":2548398.7699999977}},{"attributes":{"ID":278262,"DIS_CODE":0,"TOWNNAME":"永康區","LI":"復國里","LIN":"35鄰","STREET":"復國一路","SECT":" ","MAREA":" ","LANE":"６７巷","ALLEY":" ","HOUSE_NO":"１５號","E_COORD97":172653.01000000001,"N_COORD97":2544912.02,"ADDRESS":"復國一路６７巷１５號","OBJECTID":278257},"geometry":{"x":172653.01000000071,"y":2544912.0200000033}},{"attributes":{"ID":278263,"DIS_CODE":0,"TOWNNAME":"永康區","LI":"復國里","LIN":"35鄰","STREET":"復國一路","SECT":" ","MAREA":" ","LANE":"１０３巷","ALLEY":" ","HOUSE_NO":"６號","E_COORD97":172676.57999999999,"N_COORD97":2545015.8199999998,"ADDRESS":"復國一路１０３巷６號","OBJECTID":278258},"geometry":{"x":172676.58000000101,"y":2545015.820000004}},{"attributes":{"ID":278264,"DIS_CODE":0,"TOWNNAME":"永康區","LI":"龍潭里","LIN":"35鄰","STREET":"龍安街","SECT":" ","MAREA":" ","LANE":"１８９巷","ALLEY":" ","HOUSE_NO":"２２號","E_COORD97":174631.19,"N_COORD97":2548546.9100000001,"ADDRESS":"龍安街１８９巷２２號","OBJECTID":278259},"geometry":{"x":174631.19000000134,"y":2548546.9100000001}},{"attributes":{"ID":278265,"DIS_CODE":0,"TOWNNAME":"永康區","LI":"復華里","LIN":"35鄰","STREET":"復華七街","SECT":" ","MAREA":" ","LANE":"３９巷","ALLEY":" ","HOUSE_NO":"１０號","E_COORD97":172603.37,"N_COORD97":2546063.1299999999,"ADDRESS":"復華七街３９巷１０號","OBJECTID":278260},"geometry":{"x":172603.37000000104,"y":2546063.1299999971}},{"attributes":{"ID":278266,"DIS_CODE":0,"TOWNNAME":"仁德區","LI":"成功里","LIN":"35鄰","STREET":"成功一街","SECT":" ","MAREA":" ","LANE":"６７巷","ALLEY":" ","HOUSE_NO":"８號","E_COORD97":170568.29000000001,"N_COORD97":2540050.0099999998,"ADDRESS":"成功一街６７巷８號","OBJECTID":278261},"geometry":{"x":170568.29000000097,"y":2540050.0099999998}},{"attributes":{"ID":278267,"DIS_CODE":0,"TOWNNAME":"仁德區","LI":"成功里","LIN":"35鄰","STREET":"成功一街","SECT":" ","MAREA":" ","LANE":"７９巷","ALLEY":" ","HOUSE_NO":"１號","E_COORD97":170559.48999999999,"N_COORD97":2540026.27,"ADDRESS":"成功一街７９巷１號","OBJECTID":278262},"geometry":{"x":170559.49000000022,"y":2540026.2700000014}},{"attributes":{"ID":278268,"DIS_CODE":0,"TOWNNAME":"東區","LI":"崇文里","LIN":"15鄰","STREET":"崇德十九街","SECT":" ","MAREA":" ","LANE":" ","ALLEY":" ","HOUSE_NO":"３８號","E_COORD97":170911.48000000001,"N_COORD97":2540955.5600000001,"ADDRESS":"崇德十九街３８號","OBJECTID":278263},"geometry":{"x":170911.48000000138,"y":2540955.5600000005}},{"attributes":{"ID":278269,"DIS_CODE":0,"TOWNNAME":"東區","LI":"崇文里","LIN":"15鄰","STREET":"崇德十九街","SECT":" ","MAREA":" ","LANE":" ","ALLEY":" ","HOUSE_NO":"４２號","E_COORD97":170919.73999999999,"N_COORD97":2540955.5600000001,"ADDRESS":"崇德十九街４２號","OBJECTID":278264},"geometry":{"x":170919.74000000115,"y":2540955.5600000005}},{"attributes":{"ID":278270,"DIS_CODE":0,"TOWNNAME":"仁德區","LI":"成功里","LIN":"35鄰","STREET":"成功一街","SECT":" ","MAREA":" ","LANE":"６７巷","ALLEY":" ","HOUSE_NO":"１３號","E_COORD97":170591.10000000001,"N_COORD97":2540055.5099999998,"ADDRESS":"成功一街６７巷１３號","OBJECTID":278265},"geometry":{"x":170591.10000000056,"y":2540055.5099999998}},{"attributes":{"ID":278271,"DIS_CODE":0,"TOWNNAME":"中西區","LI":"天后里","LIN":"24鄰","STREET":"郡緯街","SECT":" ","MAREA":" ","LANE":" ","ALLEY":" ","HOUSE_NO":"８號","E_COORD97":168198.79000000001,"N_COORD97":2544299.6200000001,"ADDRESS":"郡緯街８號","OBJECTID":278266},"geometry":{"x":168198.79000000004,"y":2544299.6200000029}},{"attributes":{"ID":278272,"DIS_CODE":0,"TOWNNAME":"東區","LI":"大學里","LIN":"2鄰","STREET":"長榮路","SECT":"三段","MAREA":" ","LANE":" ","ALLEY":" ","HOUSE_NO":"７８號八樓","E_COORD97":170230.70999999999,"N_COORD97":2543840.4100000001,"ADDRESS":"長榮路三段７８號八樓","OBJECTID":278267},"geometry":{"x":170230.70999999903,"y":2543840.4100000001}},{"attributes":{"ID":278273,"DIS_CODE":0,"TOWNNAME":"東區","LI":"自強里","LIN":"24鄰","STREET":"富農街","SECT":"一段","MAREA":" ","LANE":" ","ALLEY":" ","HOUSE_NO":"２２５號","E_COORD97":171583.23000000001,"N_COORD97":2542712.1800000002,"ADDRESS":"富農街一段２２５號","OBJECTID":278268},"geometry":{"x":171583.23000000045,"y":2542712.1800000016}},{"attributes":{"ID":278274,"DIS_CODE":0,"TOWNNAME":"東區","LI":"裕農里","LIN":"6鄰","STREET":"裕農路","SECT":" ","MAREA":" ","LANE":" ","ALLEY":" ","HOUSE_NO":"３７９號","E_COORD97":171098.85000000001,"N_COORD97":2543113.5499999998,"ADDRESS":"裕農路３７９號","OBJECTID":278269},"geometry":{"x":171098.84999999963,"y":2543113.5500000026}},{"attributes":{"ID":278275,"DIS_CODE":0,"TOWNNAME":"東區","LI":"裕聖里","LIN":"14鄰","STREET":"裕敬三街","SECT":" ","MAREA":" ","LANE":" ","ALLEY":" ","HOUSE_NO":"５６號","E_COORD97":172780.81,"N_COORD97":2542372.8199999998,"ADDRESS":"裕敬三街５６號","OBJECTID":278270},"geometry":{"x":172780.80999999959,"y":2542372.8200000022}},{"attributes":{"ID":278276,"DIS_CODE":0,"TOWNNAME":"東區","LI":"崇學里","LIN":"9鄰","STREET":"崇明十一街","SECT":" ","MAREA":" ","LANE":" ","ALLEY":" ","HOUSE_NO":"２８號之１","E_COORD97":170321.51000000001,"N_COORD97":2541828,"ADDRESS":"崇明十一街２８號之１","OBJECTID":278271},"geometry":{"x":170321.50999999978,"y":2541828.0000000019}},{"attributes":{"ID":278277,"DIS_CODE":0,"TOWNNAME":"仁德區","LI":"後壁里","LIN":"35鄰","STREET":"德洋二街","SECT":" ","MAREA":" ","LANE":"８巷","ALLEY":" ","HOUSE_NO":"１０號","E_COORD97":172423.39999999999,"N_COORD97":2539416.2599999998,"ADDRESS":"德洋二街８巷１０號","OBJECTID":278272},"geometry":{"x":172423.39999999944,"y":2539416.2600000016}},{"attributes":{"ID":278278,"DIS_CODE":0,"TOWNNAME":"永康區","LI":"永康里","LIN":"35鄰","STREET":"大同街","SECT":" ","MAREA":" ","LANE":"９２８巷","ALLEY":" ","HOUSE_NO":"１３號","E_COORD97":174476.5,"N_COORD97":2547012.9900000002,"ADDRESS":"大同街９２８巷１３號","OBJECTID":278273},"geometry":{"x":174476.5,"y":2547012.9900000021}},{"attributes":{"ID":278279,"DIS_CODE":0,"TOWNNAME":"永康區","LI":"永康里","LIN":"35鄰","STREET":"大同街","SECT":" ","MAREA":" ","LANE":"８０１巷","ALLEY":" ","HOUSE_NO":"１１號","E_COORD97":174402.25,"N_COORD97":2546976.9900000002,"ADDRESS":"大同街８０１巷１１號","OBJECTID":278274},"geometry":{"x":174402.25,"y":2546976.9900000002}},{"attributes":{"ID":278280,"DIS_CODE":0,"TOWNNAME":"永康區","LI":"永康里","LIN":"35鄰","STREET":"大同街","SECT":" ","MAREA":" ","LANE":"９２８巷","ALLEY":" ","HOUSE_NO":"８號","E_COORD97":174467.14999999999,"N_COORD97":2546994.4100000001,"ADDRESS":"大同街９２８巷８號","OBJECTID":278275},"geometry":{"x":174467.15000000037,"y":2546994.4100000001}},{"attributes":{"ID":278281,"DIS_CODE":0,"TOWNNAME":"永康區","LI":"埔園里","LIN":"35鄰","STREET":"八德街","SECT":" ","MAREA":" ","LANE":"５５巷","ALLEY":" ","HOUSE_NO":"１２號","E_COORD97":174196.44,"N_COORD97":2548475.79,"ADDRESS":"八德街５５巷１２號","OBJECTID":278276},"geometry":{"x":174196.44000000227,"y":2548475.7899999991}},{"attributes":{"ID":278282,"DIS_CODE":0,"TOWNNAME":"永康區","LI":"埔園里","LIN":"35鄰","STREET":"八德街","SECT":" ","MAREA":" ","LANE":"５５巷","ALLEY":" ","HOUSE_NO":"１６號","E_COORD97":174190.63,"N_COORD97":2548474.5600000001,"ADDRESS":"八德街５５巷１６號","OBJECTID":278277},"geometry":{"x":174190.62999999989,"y":2548474.5600000005}},{"attributes":{"ID":278283,"DIS_CODE":0,"TOWNNAME":"永康區","LI":"北灣里","LIN":"35鄰","STREET":"大灣路","SECT":" ","MAREA":" ","LANE":"４０巷","ALLEY":" ","HOUSE_NO":"７０號之１","E_COORD97":175065.29999999999,"N_COORD97":2546118.4199999999,"ADDRESS":"大灣路４０巷７０號之１","OBJECTID":278278},"geometry":{"x":175065.30000000075,"y":2546118.4199999999}},{"attributes":{"ID":278284,"DIS_CODE":0,"TOWNNAME":"永康區","LI":"成功里","LIN":"35鄰","STREET":"中華路","SECT":" ","MAREA":" ","LANE":"１５４巷","ALLEY":" ","HOUSE_NO":"１００號","E_COORD97":171854.04000000001,"N_COORD97":2544890.2200000002,"ADDRESS":"中華路１５４巷１００號","OBJECTID":278279},"geometry":{"x":171854.04000000004,"y":2544890.2200000007}},{"attributes":{"ID":278285,"DIS_CODE":0,"TOWNNAME":"永康區","LI":"正強里","LIN":"35鄰","STREET":"正強街","SECT":" ","MAREA":" ","LANE":"３１３巷","ALLEY":" ","HOUSE_NO":"２８號","E_COORD97":173193.54999999999,"N_COORD97":2548260.6400000001,"ADDRESS":"正強街３１３巷２８號","OBJECTID":278280},"geometry":{"x":173193.55000000075,"y":2548260.6400000006}},{"attributes":{"ID":278286,"DIS_CODE":0,"TOWNNAME":"永康區","LI":"勝利里","LIN":"35鄰","STREET":"勝利街","SECT":" ","MAREA":" ","LANE":"２巷","ALLEY":" ","HOUSE_NO":"１５號","E_COORD97":171090.73000000001,"N_COORD97":2544691.0099999998,"ADDRESS":"勝利街２巷１５號","OBJECTID":278281},"geometry":{"x":171090.73000000231,"y":2544691.0099999998}},{"attributes":{"ID":278287,"DIS_CODE":0,"TOWNNAME":"永康區","LI":"正強里","LIN":"35鄰","STREET":"正強街","SECT":" ","MAREA":" ","LANE":"３１５巷","ALLEY":" ","HOUSE_NO":"２０號","E_COORD97":173196.78,"N_COORD97":2548302.25,"ADDRESS":"正強街３１５巷２０號","OBJECTID":278282},"geometry":{"x":173196.78000000026,"y":2548302.2500000019}},{"attributes":{"ID":278288,"DIS_CODE":0,"TOWNNAME":"永康區","LI":"勝利里","LIN":"35鄰","STREET":"勝利街","SECT":" ","MAREA":" ","LANE":"２巷","ALLEY":" ","HOUSE_NO":"２６號","E_COORD97":171086.53,"N_COORD97":2544706.75,"ADDRESS":"勝利街２巷２６號","OBJECTID":278283},"geometry":{"x":171086.53000000026,"y":2544706.75}},{"attributes":{"ID":278289,"DIS_CODE":0,"TOWNNAME":"永康區","LI":"永康里","LIN":"35鄰","STREET":"大同街","SECT":" ","MAREA":" ","LANE":"９２８巷","ALLEY":" ","HOUSE_NO":"２８號","E_COORD97":174502.14000000001,"N_COORD97":2546974.1699999999,"ADDRESS":"大同街９２８巷２８號","OBJECTID":278284},"geometry":{"x":174502.13999999966,"y":2546974.1700000018}},{"attributes":{"ID":278290,"DIS_CODE":0,"TOWNNAME":"永康區","LI":"成功里","LIN":"35鄰","STREET":"中華路","SECT":" ","MAREA":" ","LANE":"１５４巷","ALLEY":" ","HOUSE_NO":"８９號","E_COORD97":171833.45999999999,"N_COORD97":2544905.4900000002,"ADDRESS":"中華路１５４巷８９號","OBJECTID":278285},"geometry":{"x":171833.46000000089,"y":2544905.4900000002}},{"attributes":{"ID":278291,"DIS_CODE":0,"TOWNNAME":"東區","LI":"裕聖里","LIN":"8鄰","STREET":"裕信六街","SECT":" ","MAREA":" ","LANE":" ","ALLEY":" ","HOUSE_NO":"１５０號","E_COORD97":172846.04000000001,"N_COORD97":2541877.2999999998,"ADDRESS":"裕信六街１５０號","OBJECTID":278286},"geometry":{"x":172846.0400000019,"y":2541877.3000000026}},{"attributes":{"ID":278292,"DIS_CODE":0,"TOWNNAME":"東區","LI":"裕聖里","LIN":"8鄰","STREET":"裕信六街","SECT":" ","MAREA":" ","LANE":" ","ALLEY":" ","HOUSE_NO":"１５２號","E_COORD97":172846.04000000001,"N_COORD97":2541872.2799999998,"ADDRESS":"裕信六街１５２號","OBJECTID":278287},"geometry":{"x":172846.0400000019,"y":2541872.2800000031}},{"attributes":{"ID":278293,"DIS_CODE":0,"TOWNNAME":"永康區","LI":"永康里","LIN":"35鄰","STREET":"大同街","SECT":" ","MAREA":" ","LANE":"９０６巷","ALLEY":" ","HOUSE_NO":"９號","E_COORD97":174484.87,"N_COORD97":2546971.6699999999,"ADDRESS":"大同街９０６巷９號","OBJECTID":278288},"geometry":{"x":174484.87000000197,"y":2546971.6699999999}},{"attributes":{"ID":278294,"DIS_CODE":0,"TOWNNAME":"永康區","LI":"成功里","LIN":"35鄰","STREET":"中華路","SECT":" ","MAREA":" ","LANE":"１５４巷","ALLEY":" ","HOUSE_NO":"１０５號","E_COORD97":171866.84,"N_COORD97":2544908.0299999998,"ADDRESS":"中華路１５４巷１０５號","OBJECTID":278289},"geometry":{"x":171866.83999999985,"y":2544908.0299999975}},{"attributes":{"ID":278295,"DIS_CODE":0,"TOWNNAME":"永康區","LI":"北灣里","LIN":"35鄰","STREET":"大灣路","SECT":" ","MAREA":" ","LANE":"４０巷","ALLEY":" ","HOUSE_NO":"６０號之１","E_COORD97":175086.59,"N_COORD97":2546098.1699999999,"ADDRESS":"大灣路４０巷６０號之１","OBJECTID":278290},"geometry":{"x":175086.59000000171,"y":2546098.1700000037}},{"attributes":{"ID":278296,"DIS_CODE":0,"TOWNNAME":"永康區","LI":"永康里","LIN":"35鄰","STREET":"大同街","SECT":" ","MAREA":" ","LANE":"８０１巷","ALLEY":" ","HOUSE_NO":"１０號","E_COORD97":174405.95999999999,"N_COORD97":2546990.7999999998,"ADDRESS":"大同街８０１巷１０號","OBJECTID":278291},"geometry":{"x":174405.95999999903,"y":2546990.8000000026}},{"attributes":{"ID":278297,"DIS_CODE":0,"TOWNNAME":"安南區","LI":"安富里","LIN":"35鄰","STREET":"海佃路","SECT":"一段","MAREA":" ","LANE":"１５８巷","ALLEY":" ","HOUSE_NO":"１２６號","E_COORD97":167634.23000000001,"N_COORD97":2547258.7999999998,"ADDRESS":"海佃路一段１５８巷１２６號","OBJECTID":278292},"geometry":{"x":167634.23000000231,"y":2547258.8000000026}},{"attributes":{"ID":278298,"DIS_CODE":0,"TOWNNAME":"安南區","LI":"安富里","LIN":"35鄰","STREET":"海佃路","SECT":"一段","MAREA":" ","LANE":"１５８巷","ALLEY":" ","HOUSE_NO":"１２８號","E_COORD97":167636.89999999999,"N_COORD97":2547260.7000000002,"ADDRESS":"海佃路一段１５８巷１２８號","OBJECTID":278293},"geometry":{"x":167636.9000000013,"y":2547260.7000000011}},{"attributes":{"ID":278299,"DIS_CODE":0,"TOWNNAME":"安南區","LI":"安富里","LIN":"35鄰","STREET":"海佃路","SECT":"一段","MAREA":" ","LANE":"１５８巷","ALLEY":" ","HOUSE_NO":"１３０號","E_COORD97":167641.47,"N_COORD97":2547258.4199999999,"ADDRESS":"海佃路一段１５８巷１３０號","OBJECTID":278294},"geometry":{"x":167641.46999999974,"y":2547258.4199999999}},{"attributes":{"ID":278300,"DIS_CODE":0,"TOWNNAME":"東區","LI":"裕聖里","LIN":"8鄰","STREET":"裕信六街","SECT":" ","MAREA":" ","LANE":" ","ALLEY":" ","HOUSE_NO":"１５６號","E_COORD97":172846.67000000001,"N_COORD97":2541866.6400000001,"ADDRESS":"裕信六街１５６號","OBJECTID":278295},"geometry":{"x":172846.67000000179,"y":2541866.6400000006}},{"attributes":{"ID":278301,"DIS_CODE":0,"TOWNNAME":"東區","LI":"裕聖里","LIN":"8鄰","STREET":"裕信六街","SECT":" ","MAREA":" ","LANE":" ","ALLEY":" ","HOUSE_NO":"１５８號","E_COORD97":172846.67000000001,"N_COORD97":2541862.5600000001,"ADDRESS":"裕信六街１５８號","OBJECTID":278296},"geometry":{"x":172846.67000000179,"y":2541862.5600000024}},{"attributes":{"ID":278302,"DIS_CODE":0,"TOWNNAME":"永康區","LI":"復華里","LIN":"2鄰","STREET":"復國二路","SECT":" ","MAREA":" ","LANE":" ","ALLEY":" ","HOUSE_NO":"２６４號四樓之１","E_COORD97":173040.78,"N_COORD97":2545975.9199999999,"ADDRESS":"復國二路２６４號四樓之１","OBJECTID":278297},"geometry":{"x":173040.78000000026,"y":2545975.9199999999}},{"attributes":{"ID":278303,"DIS_CODE":0,"TOWNNAME":"官田區","LI":"隆田里","LIN":"2鄰","STREET":"新生街","SECT":" ","MAREA":" ","LANE":" ","ALLEY":" ","HOUSE_NO":"１４號一樓","E_COORD97":180270.47,"N_COORD97":2565683.8199999998,"ADDRESS":"新生街１４號一樓","OBJECTID":278298},"geometry":{"x":180270.46999999974,"y":2565683.8200000022}},{"attributes":{"ID":278304,"DIS_CODE":0,"TOWNNAME":"官田區","LI":"隆田里","LIN":"2鄰","STREET":"新生街","SECT":" ","MAREA":" ","LANE":" ","ALLEY":" ","HOUSE_NO":"１４號二樓","E_COORD97":180270.47,"N_COORD97":2565683.8199999998,"ADDRESS":"新生街１４號二樓","OBJECTID":278299},"geometry":{"x":180270.46999999974,"y":2565683.8200000022}},{"attributes":{"ID":278305,"DIS_CODE":0,"TOWNNAME":"官田區","LI":"隆田里","LIN":"2鄰","STREET":"新生街","SECT":" ","MAREA":" ","LANE":" ","ALLEY":" ","HOUSE_NO":"１４號三樓","E_COORD97":180270.47,"N_COORD97":2565683.8199999998,"ADDRESS":"新生街１４號三樓","OBJECTID":278300},"geometry":{"x":180270.46999999974,"y":2565683.8200000022}},{"attributes":{"ID":278306,"DIS_CODE":0,"TOWNNAME":"官田區","LI":"隆田里","LIN":"2鄰","STREET":"新生街","SECT":" ","MAREA":" ","LANE":" ","ALLEY":" ","HOUSE_NO":"１４號四樓","E_COORD97":180270.47,"N_COORD97":2565683.8199999998,"ADDRESS":"新生街１４號四樓","OBJECTID":278301},"geometry":{"x":180270.46999999974,"y":2565683.8200000022}},{"attributes":{"ID":278307,"DIS_CODE":0,"TOWNNAME":"官田區","LI":"隆田里","LIN":"2鄰","STREET":"新生街","SECT":" ","MAREA":" ","LANE":" ","ALLEY":" ","HOUSE_NO":"１６號一樓","E_COORD97":180271.10000000001,"N_COORD97":2565677.2400000002,"ADDRESS":"新生街１６號一樓","OBJECTID":278302},"geometry":{"x":180271.09999999963,"y":2565677.2400000039}},{"attributes":{"ID":278308,"DIS_CODE":0,"TOWNNAME":"官田區","LI":"隆田里","LIN":"2鄰","STREET":"新生街","SECT":" ","MAREA":" ","LANE":" ","ALLEY":" ","HOUSE_NO":"１６號二樓","E_COORD97":180271.10000000001,"N_COORD97":2565677.2400000002,"ADDRESS":"新生街１６號二樓","OBJECTID":278303},"geometry":{"x":180271.09999999963,"y":2565677.2400000039}},{"attributes":{"ID":278309,"DIS_CODE":0,"TOWNNAME":"安南區","LI":"安富里","LIN":"35鄰","STREET":"海佃路","SECT":"一段","MAREA":" ","LANE":"１５８巷","ALLEY":" ","HOUSE_NO":"１３２號","E_COORD97":167646.42000000001,"N_COORD97":2547256.1299999999,"ADDRESS":"海佃路一段１５８巷１３２號","OBJECTID":278304},"geometry":{"x":167646.42000000086,"y":2547256.129999999}},{"attributes":{"ID":278310,"DIS_CODE":0,"TOWNNAME":"永康區","LI":"北灣里","LIN":"35鄰","STREET":"大灣路","SECT":" ","MAREA":" ","LANE":"４０巷","ALLEY":" ","HOUSE_NO":"６４號之２","E_COORD97":175081.42999999999,"N_COORD97":2546109.4199999999,"ADDRESS":"大灣路４０巷６４號之２","OBJECTID":278305},"geometry":{"x":175081.43000000063,"y":2546109.4199999999}},{"attributes":{"ID":278311,"DIS_CODE":0,"TOWNNAME":"永康區","LI":"復國里","LIN":"35鄰","STREET":"復國一路","SECT":" ","MAREA":" ","LANE":"８５巷","ALLEY":" ","HOUSE_NO":"３號","E_COORD97":172675.07000000001,"N_COORD97":2544961.0299999998,"ADDRESS":"復國一路８５巷３號","OBJECTID":278306},"geometry":{"x":172675.07000000123,"y":2544961.0299999993}},{"attributes":{"ID":278312,"DIS_CODE":0,"TOWNNAME":"永康區","LI":"永康里","LIN":"35鄰","STREET":"大同街","SECT":" ","MAREA":" ","LANE":"９２８巷","ALLEY":" ","HOUSE_NO":"５號","E_COORD97":174459.04000000001,"N_COORD97":2547008.2400000002,"ADDRESS":"大同街９２８巷５號","OBJECTID":278307},"geometry":{"x":174459.04000000004,"y":2547008.2400000002}},{"attributes":{"ID":278313,"DIS_CODE":0,"TOWNNAME":"永康區","LI":"成功里","LIN":"35鄰","STREET":"中華路","SECT":" ","MAREA":" ","LANE":"１５４巷","ALLEY":" ","HOUSE_NO":"９５號","E_COORD97":171844.28,"N_COORD97":2544917.5099999998,"ADDRESS":"中華路１５４巷９５號","OBJECTID":278308},"geometry":{"x":171844.28000000026,"y":2544917.5099999998}},{"attributes":{"ID":278314,"DIS_CODE":0,"TOWNNAME":"永康區","LI":"尚頂里","LIN":"35鄰","STREET":"國聖街","SECT":" ","MAREA":" ","LANE":"８６巷","ALLEY":" ","HOUSE_NO":"２３號","E_COORD97":170504.20000000001,"N_COORD97":2547919.2400000002,"ADDRESS":"國聖街８６巷２３號","OBJECTID":278309},"geometry":{"x":170504.20000000112,"y":2547919.2400000021}},{"attributes":{"ID":278315,"DIS_CODE":0,"TOWNNAME":"永康區","LI":"尚頂里","LIN":"35鄰","STREET":"國聖街","SECT":" ","MAREA":" ","LANE":"８６巷","ALLEY":" ","HOUSE_NO":"２６號","E_COORD97":170470.26999999999,"N_COORD97":2547909,"ADDRESS":"國聖街８６巷２６號","OBJECTID":278310},"geometry":{"x":170470.26999999955,"y":2547909}},{"attributes":{"ID":278316,"DIS_CODE":0,"TOWNNAME":"永康區","LI":"埔園里","LIN":"35鄰","STREET":"八德街","SECT":" ","MAREA":" ","LANE":"７３巷","ALLEY":" ","HOUSE_NO":"１１號","E_COORD97":174164.25,"N_COORD97":2548434.3999999999,"ADDRESS":"八德街７３巷１１號","OBJECTID":278311},"geometry":{"x":174164.25000000093,"y":2548434.4000000022}},{"attributes":{"ID":278317,"DIS_CODE":0,"TOWNNAME":"官田區","LI":"隆田里","LIN":"2鄰","STREET":"新生街","SECT":" ","MAREA":" ","LANE":" ","ALLEY":" ","HOUSE_NO":"１６號三樓","E_COORD97":180271.10000000001,"N_COORD97":2565677.2400000002,"ADDRESS":"新生街１６號三樓","OBJECTID":278312},"geometry":{"x":180271.09999999963,"y":2565677.2400000039}},{"attributes":{"ID":278318,"DIS_CODE":0,"TOWNNAME":"官田區","LI":"隆田里","LIN":"2鄰","STREET":"新生街","SECT":" ","MAREA":" ","LANE":" ","ALLEY":" ","HOUSE_NO":"１６號四樓","E_COORD97":180271.10000000001,"N_COORD97":2565677.2400000002,"ADDRESS":"新生街１６號四樓","OBJECTID":278313},"geometry":{"x":180271.09999999963,"y":2565677.2400000039}},{"attributes":{"ID":278319,"DIS_CODE":0,"TOWNNAME":"佳里區","LI":"安西里","LIN":"35鄰","STREET":"光華街","SECT":" ","MAREA":" ","LANE":"１３０巷","ALLEY":" ","HOUSE_NO":"１１號","E_COORD97":165046.54999999999,"N_COORD97":2562849.9199999999,"ADDRESS":"光華街１３０巷１１號","OBJECTID":278314},"geometry":{"x":165046.55000000075,"y":2562849.9199999999}},{"attributes":{"ID":278320,"DIS_CODE":0,"TOWNNAME":"佳里區","LI":"安西里","LIN":"35鄰","STREET":"光華街","SECT":" ","MAREA":" ","LANE":"１３０巷","ALLEY":" ","HOUSE_NO":"１３號","E_COORD97":165045.97,"N_COORD97":2562853.75,"ADDRESS":"光華街１３０巷１３號","OBJECTID":278315},"geometry":{"x":165045.96999999974,"y":2562853.7500000019}},{"attributes":{"ID":278321,"DIS_CODE":0,"TOWNNAME":"白河區","LI":"蓮潭里","LIN":" ","STREET":" ","SECT":" ","MAREA":"蓮潭","LANE":" ","ALLEY":" ","HOUSE_NO":"２號","E_COORD97":188761.95000000001,"N_COORD97":2588528.2799999998,"ADDRESS":"蓮潭２號","OBJECTID":278316},"geometry":{"x":188761.95000000112,"y":2588528.2800000012}},{"attributes":{"ID":278322,"DIS_CODE":0,"TOWNNAME":"佳里區","LI":"安西里","LIN":"35鄰","STREET":"光華街","SECT":" ","MAREA":" ","LANE":"１３０巷","ALLEY":" ","HOUSE_NO":"１５號","E_COORD97":165046.20999999999,"N_COORD97":2562857.6699999999,"ADDRESS":"光華街１３０巷１５號","OBJECTID":278317},"geometry":{"x":165046.20999999996,"y":2562857.6700000018}},{"attributes":{"ID":278323,"DIS_CODE":0,"TOWNNAME":"佳里區","LI":"安西里","LIN":"35鄰","STREET":"光華街","SECT":" ","MAREA":" ","LANE":"１３０巷","ALLEY":" ","HOUSE_NO":"１７號","E_COORD97":165046.51999999999,"N_COORD97":2562863.7000000002,"ADDRESS":"光華街１３０巷１７號","OBJECTID":278318},"geometry":{"x":165046.52000000048,"y":2562863.7000000011}},{"attributes":{"ID":278324,"DIS_CODE":0,"TOWNNAME":"佳里區","LI":"安西里","LIN":"35鄰","STREET":"光華街","SECT":" ","MAREA":" ","LANE":"１３０巷","ALLEY":" ","HOUSE_NO":"１９號","E_COORD97":165046.53,"N_COORD97":2562870.9399999999,"ADDRESS":"光華街１３０巷１９號","OBJECTID":278319},"geometry":{"x":165046.53000000026,"y":2562870.9399999995}},{"attributes":{"ID":278325,"DIS_CODE":0,"TOWNNAME":"東區","LI":"大同里","LIN":"35鄰","STREET":"府連路","SECT":" ","MAREA":" ","LANE":"１８２巷","ALLEY":" ","HOUSE_NO":"１５號","E_COORD97":169273.73000000001,"N_COORD97":2542778.5899999999,"ADDRESS":"府連路１８２巷１５號","OBJECTID":278320},"geometry":{"x":169273.73000000138,"y":2542778.5899999999}},{"attributes":{"ID":278326,"DIS_CODE":0,"TOWNNAME":"東區","LI":"大同里","LIN":"35鄰","STREET":"府連路","SECT":" ","MAREA":" ","LANE":"１８２巷","ALLEY":" ","HOUSE_NO":"１７號","E_COORD97":169281.47,"N_COORD97":2542769.5299999998,"ADDRESS":"府連路１８２巷１７號","OBJECTID":278321},"geometry":{"x":169281.47000000067,"y":2542769.5300000012}},{"attributes":{"ID":278327,"DIS_CODE":0,"TOWNNAME":"東區","LI":"大同里","LIN":"35鄰","STREET":"府連路","SECT":" ","MAREA":" ","LANE":"１８２巷","ALLEY":" ","HOUSE_NO":"１９號","E_COORD97":169288.16,"N_COORD97":2542766.5499999998,"ADDRESS":"府連路１８２巷１９號","OBJECTID":278322},"geometry":{"x":169288.16000000015,"y":2542766.5500000007}},{"attributes":{"ID":278328,"DIS_CODE":0,"TOWNNAME":"東區","LI":"大同里","LIN":"35鄰","STREET":"府連路","SECT":" ","MAREA":" ","LANE":"１８２巷","ALLEY":" ","HOUSE_NO":"２１號","E_COORD97":169293.95999999999,"N_COORD97":2542761.0499999998,"ADDRESS":"府連路１８２巷２１號","OBJECTID":278323},"geometry":{"x":169293.96000000089,"y":2542761.0500000026}},{"attributes":{"ID":278329,"DIS_CODE":0,"TOWNNAME":"東區","LI":"大同里","LIN":"35鄰","STREET":"府連路","SECT":" ","MAREA":" ","LANE":"１８２巷","ALLEY":" ","HOUSE_NO":"２３號","E_COORD97":169298.28,"N_COORD97":2542757.4900000002,"ADDRESS":"府連路１８２巷２３號","OBJECTID":278324},"geometry":{"x":169298.28000000212,"y":2542757.4900000021}},{"attributes":{"ID":278330,"DIS_CODE":0,"TOWNNAME":"東區","LI":"大同里","LIN":"35鄰","STREET":"府連路","SECT":" ","MAREA":" ","LANE":"１８２巷","ALLEY":" ","HOUSE_NO":"２７號","E_COORD97":169307.82999999999,"N_COORD97":2542753.0899999999,"ADDRESS":"府連路１８２巷２７號","OBJECTID":278325},"geometry":{"x":169307.82999999914,"y":2542753.0900000017}},{"attributes":{"ID":278331,"DIS_CODE":0,"TOWNNAME":"東區","LI":"大同里","LIN":"35鄰","STREET":"府連路","SECT":" ","MAREA":" ","LANE":"１８２巷","ALLEY":" ","HOUSE_NO":"２９號","E_COORD97":169316.79000000001,"N_COORD97":2542751.4900000002,"ADDRESS":"府連路１８２巷２９號","OBJECTID":278326},"geometry":{"x":169316.79000000097,"y":2542751.4900000002}},{"attributes":{"ID":278332,"DIS_CODE":0,"TOWNNAME":"東區","LI":"大同里","LIN":"35鄰","STREET":"府連路","SECT":" ","MAREA":" ","LANE":"１８２巷","ALLEY":" ","HOUSE_NO":"５號","E_COORD97":169258.85999999999,"N_COORD97":2542805.8799999999,"ADDRESS":"府連路１８２巷５號","OBJECTID":278327},"geometry":{"x":169258.8600000022,"y":2542805.879999999}},{"attributes":{"ID":278333,"DIS_CODE":0,"TOWNNAME":"東區","LI":"大同里","LIN":"35鄰","STREET":"府連路","SECT":" ","MAREA":" ","LANE":"１８２巷","ALLEY":" ","HOUSE_NO":"７號","E_COORD97":169261.54000000001,"N_COORD97":2542799.9399999999,"ADDRESS":"府連路１８２巷７號","OBJECTID":278328},"geometry":{"x":169261.54000000097,"y":2542799.9399999976}},{"attributes":{"ID":278334,"DIS_CODE":0,"TOWNNAME":"東區","LI":"大同里","LIN":"35鄰","STREET":"府連路","SECT":" ","MAREA":" ","LANE":"１８２巷","ALLEY":" ","HOUSE_NO":"９號","E_COORD97":169265.26000000001,"N_COORD97":2542792.6600000001,"ADDRESS":"府連路１８２巷９號","OBJECTID":278329},"geometry":{"x":169265.25999999978,"y":2542792.6600000039}},{"attributes":{"ID":278335,"DIS_CODE":0,"TOWNNAME":"永康區","LI":"尚頂里","LIN":"35鄰","STREET":"國聖街","SECT":" ","MAREA":" ","LANE":"８６巷","ALLEY":" ","HOUSE_NO":"１３號","E_COORD97":170455.98999999999,"N_COORD97":2547947.7000000002,"ADDRESS":"國聖街８６巷１３號","OBJECTID":278330},"geometry":{"x":170455.99000000022,"y":2547947.6999999993}},{"attributes":{"ID":278336,"DIS_CODE":0,"TOWNNAME":"永康區","LI":"埔園里","LIN":"35鄰","STREET":"八德街","SECT":" ","MAREA":" ","LANE":"２７巷","ALLEY":" ","HOUSE_NO":"１６號","E_COORD97":174270.26000000001,"N_COORD97":2548471.8399999999,"ADDRESS":"八德街２７巷１６號","OBJECTID":278331},"geometry":{"x":174270.26000000071,"y":2548471.8399999999}},{"attributes":{"ID":278337,"DIS_CODE":0,"TOWNNAME":"永康區","LI":"尚頂里","LIN":"35鄰","STREET":"國聖街","SECT":" ","MAREA":" ","LANE":"６５巷","ALLEY":" ","HOUSE_NO":"２０號","E_COORD97":170355.12,"N_COORD97":2547982.25,"ADDRESS":"國聖街６５巷２０號","OBJECTID":278332},"geometry":{"x":170355.12000000011,"y":2547982.2499999981}},{"attributes":{"ID":278338,"DIS_CODE":0,"TOWNNAME":"永康區","LI":"尚頂里","LIN":"35鄰","STREET":"國聖街","SECT":" ","MAREA":" ","LANE":"８６巷","ALLEY":" ","HOUSE_NO":"１９號","E_COORD97":170475.5,"N_COORD97":2547931.8199999998,"ADDRESS":"國聖街８６巷１９號","OBJECTID":278333},"geometry":{"x":170475.50000000093,"y":2547931.8200000022}},{"attributes":{"ID":278339,"DIS_CODE":0,"TOWNNAME":"永康區","LI":"埔園里","LIN":"35鄰","STREET":"八德街","SECT":" ","MAREA":" ","LANE":"２７巷","ALLEY":" ","HOUSE_NO":"８號","E_COORD97":174271.34,"N_COORD97":2548486.3500000001,"ADDRESS":"八德街２７巷８號","OBJECTID":278334},"geometry":{"x":174271.34000000078,"y":2548486.3499999978}},{"attributes":{"ID":278340,"DIS_CODE":0,"TOWNNAME":"永康區","LI":"尚頂里","LIN":"35鄰","STREET":"國聖街","SECT":" ","MAREA":" ","LANE":"８６巷","ALLEY":" ","HOUSE_NO":"２２號","E_COORD97":170464.03,"N_COORD97":2547912.75,"ADDRESS":"國聖街８６巷２２號","OBJECTID":278335},"geometry":{"x":170464.03000000026,"y":2547912.7500000019}},{"attributes":{"ID":278341,"DIS_CODE":0,"TOWNNAME":"永康區","LI":"尚頂里","LIN":"35鄰","STREET":"國聖街","SECT":" ","MAREA":" ","LANE":"８６巷","ALLEY":" ","HOUSE_NO":"３０號","E_COORD97":170482.07999999999,"N_COORD97":2547897.5099999998,"ADDRESS":"國聖街８６巷３０號","OBJECTID":278336},"geometry":{"x":170482.08000000007,"y":2547897.5099999998}},{"attributes":{"ID":278342,"DIS_CODE":0,"TOWNNAME":"永康區","LI":"尚頂里","LIN":"35鄰","STREET":"國聖街","SECT":" ","MAREA":" ","LANE":"８６巷","ALLEY":" ","HOUSE_NO":"３２號","E_COORD97":170486.34,"N_COORD97":2547889.0099999998,"ADDRESS":"國聖街８６巷３２號","OBJECTID":278337},"geometry":{"x":170486.34000000078,"y":2547889.0100000035}},{"attributes":{"ID":278343,"DIS_CODE":0,"TOWNNAME":"永康區","LI":"永康里","LIN":"35鄰","STREET":"大同街","SECT":" ","MAREA":" ","LANE":"８０１巷","ALLEY":" ","HOUSE_NO":"１８號","E_COORD97":174394.04999999999,"N_COORD97":2546987.5499999998,"ADDRESS":"大同街８０１巷１８號","OBJECTID":278338},"geometry":{"x":174394.05000000075,"y":2546987.5500000007}},{"attributes":{"ID":278344,"DIS_CODE":0,"TOWNNAME":"永康區","LI":"北灣里","LIN":"35鄰","STREET":"大灣路","SECT":" ","MAREA":" ","LANE":"４０巷","ALLEY":" ","HOUSE_NO":"８２號","E_COORD97":174996.32999999999,"N_COORD97":2546182.0299999998,"ADDRESS":"大灣路４０巷８２號","OBJECTID":278339},"geometry":{"x":174996.33000000007,"y":2546182.0299999993}},{"attributes":{"ID":278345,"DIS_CODE":0,"TOWNNAME":"永康區","LI":"北灣里","LIN":"35鄰","STREET":"大灣路","SECT":" ","MAREA":" ","LANE":"４０巷","ALLEY":" ","HOUSE_NO":"６２號之２","E_COORD97":175085.67999999999,"N_COORD97":2546105.4199999999,"ADDRESS":"大灣路４０巷６２號之２","OBJECTID":278340},"geometry":{"x":175085.67999999877,"y":2546105.4199999999}},{"attributes":{"ID":278346,"DIS_CODE":0,"TOWNNAME":"永康區","LI":"北灣里","LIN":"35鄰","STREET":"大灣路","SECT":" ","MAREA":" ","LANE":"４０巷","ALLEY":" ","HOUSE_NO":"６０號之２","E_COORD97":175090.01999999999,"N_COORD97":2546101.4199999999,"ADDRESS":"大灣路４０巷６０號之２","OBJECTID":278341},"geometry":{"x":175090.02000000142,"y":2546101.4199999999}},{"attributes":{"ID":278347,"DIS_CODE":0,"TOWNNAME":"永康區","LI":"北灣里","LIN":"35鄰","STREET":"大灣路","SECT":" ","MAREA":" ","LANE":"４０巷","ALLEY":" ","HOUSE_NO":"７０號之２","E_COORD97":175068.72,"N_COORD97":2546121.6699999999,"ADDRESS":"大灣路４０巷７０號之２","OBJECTID":278342},"geometry":{"x":175068.72000000067,"y":2546121.6700000037}},{"attributes":{"ID":278348,"DIS_CODE":0,"TOWNNAME":"永康區","LI":"北灣里","LIN":"35鄰","STREET":"大灣路","SECT":" ","MAREA":" ","LANE":"４０巷","ALLEY":" ","HOUSE_NO":"６８號之１","E_COORD97":175069.79999999999,"N_COORD97":2546114.1699999999,"ADDRESS":"大灣路４０巷６８號之１","OBJECTID":278343},"geometry":{"x":175069.80000000168,"y":2546114.1699999999}},{"attributes":{"ID":278349,"DIS_CODE":0,"TOWNNAME":"佳里區","LI":"安西里","LIN":"35鄰","STREET":"光華街","SECT":" ","MAREA":" ","LANE":"１５７巷","ALLEY":" ","HOUSE_NO":"１０號","E_COORD97":164994.85999999999,"N_COORD97":2562783.6099999999,"ADDRESS":"光華街１５７巷１０號","OBJECTID":278344},"geometry":{"x":164994.86000000034,"y":2562783.6099999994}},{"attributes":{"ID":278350,"DIS_CODE":0,"TOWNNAME":"佳里區","LI":"興化里","LIN":"2鄰","STREET":" ","SECT":" ","MAREA":"佳里興","LANE":" ","ALLEY":" ","HOUSE_NO":"４０１號","E_COORD97":165654.29999999999,"N_COORD97":2565744.8700000001,"ADDRESS":"佳里興４０１號","OBJECTID":278345},"geometry":{"x":165654.29999999981,"y":2565744.8700000048}},{"attributes":{"ID":278351,"DIS_CODE":0,"TOWNNAME":"佳里區","LI":"安西里","LIN":"35鄰","STREET":"光華街","SECT":" ","MAREA":" ","LANE":"１５７巷","ALLEY":" ","HOUSE_NO":"１１號","E_COORD97":165016.44,"N_COORD97":2562771.4900000002,"ADDRESS":"光華街１５７巷１１號","OBJECTID":278346},"geometry":{"x":165016.44000000041,"y":2562771.4900000021}},{"attributes":{"ID":278352,"DIS_CODE":0,"TOWNNAME":"佳里區","LI":"安西里","LIN":"35鄰","STREET":"光華街","SECT":" ","MAREA":" ","LANE":"１５７巷","ALLEY":" ","HOUSE_NO":"１２號","E_COORD97":164994.82000000001,"N_COORD97":2562779.3100000001,"ADDRESS":"光華街１５７巷１２號","OBJECTID":278347},"geometry":{"x":164994.82000000123,"y":2562779.3100000024}},{"attributes":{"ID":278353,"DIS_CODE":0,"TOWNNAME":"東區","LI":"復興里","LIN":"2鄰","STREET":"富農街","SECT":"一段","MAREA":" ","LANE":" ","ALLEY":" ","HOUSE_NO":"２９０號六樓之１","E_COORD97":171615.64999999999,"N_COORD97":2542724.6299999999,"ADDRESS":"富農街一段２９０號六樓之１","OBJECTID":278348},"geometry":{"x":171615.6500000013,"y":2542724.6300000008}},{"attributes":{"ID":278354,"DIS_CODE":0,"TOWNNAME":"佳里區","LI":"安西里","LIN":"35鄰","STREET":"光華街","SECT":" ","MAREA":" ","LANE":"１５７巷","ALLEY":" ","HOUSE_NO":"１３號","E_COORD97":165016.78,"N_COORD97":2562767.29,"ADDRESS":"光華街１５７巷１３號","OBJECTID":278349},"geometry":{"x":165016.78000000119,"y":2562767.290000001}},{"attributes":{"ID":278355,"DIS_CODE":0,"TOWNNAME":"佳里區","LI":"安西里","LIN":"35鄰","STREET":"光華街","SECT":" ","MAREA":" ","LANE":"１５７巷","ALLEY":" ","HOUSE_NO":"１４號","E_COORD97":164994.97,"N_COORD97":2562774.8799999999,"ADDRESS":"光華街１５７巷１４號","OBJECTID":278350},"geometry":{"x":164994.96999999974,"y":2562774.879999999}},{"attributes":{"ID":278356,"DIS_CODE":0,"TOWNNAME":"佳里區","LI":"安西里","LIN":"35鄰","STREET":"光華街","SECT":" ","MAREA":" ","LANE":"１５７巷","ALLEY":" ","HOUSE_NO":"１６號","E_COORD97":164994.95000000001,"N_COORD97":2562770.4399999999,"ADDRESS":"光華街１５７巷１６號","OBJECTID":278351},"geometry":{"x":164994.95000000112,"y":2562770.4400000013}},{"attributes":{"ID":278357,"DIS_CODE":0,"TOWNNAME":"佳里區","LI":"安西里","LIN":"35鄰","STREET":"光華街","SECT":" ","MAREA":" ","LANE":"１５７巷","ALLEY":" ","HOUSE_NO":"１８號","E_COORD97":164995.25,"N_COORD97":2562766.6099999999,"ADDRESS":"光華街１５７巷１８號","OBJECTID":278352},"geometry":{"x":164995.25,"y":2562766.6099999994}},{"attributes":{"ID":278358,"DIS_CODE":0,"TOWNNAME":"佳里區","LI":"安西里","LIN":"35鄰","STREET":"光華街","SECT":" ","MAREA":" ","LANE":"１５７巷","ALLEY":" ","HOUSE_NO":"１號","E_COORD97":165017.04999999999,"N_COORD97":2562791.9900000002,"ADDRESS":"光華街１５７巷１號","OBJECTID":278353},"geometry":{"x":165017.04999999981,"y":2562791.9900000021}},{"attributes":{"ID":278359,"DIS_CODE":0,"TOWNNAME":"佳里區","LI":"安西里","LIN":"35鄰","STREET":"光華街","SECT":" ","MAREA":" ","LANE":"１５７巷","ALLEY":" ","HOUSE_NO":"２０號","E_COORD97":164995.25,"N_COORD97":2562761.96,"ADDRESS":"光華街１５７巷２０號","OBJECTID":278354},"geometry":{"x":164995.25,"y":2562761.9600000028}},{"attributes":{"ID":278360,"DIS_CODE":0,"TOWNNAME":"佳里區","LI":"安西里","LIN":"35鄰","STREET":"光華街","SECT":" ","MAREA":" ","LANE":"１５７巷","ALLEY":" ","HOUSE_NO":"２２號","E_COORD97":164995.56,"N_COORD97":2562757.4500000002,"ADDRESS":"光華街１５７巷２２號","OBJECTID":278355},"geometry":{"x":164995.56000000052,"y":2562757.4499999993}},{"attributes":{"ID":278361,"DIS_CODE":0,"TOWNNAME":"安南區","LI":"安富里","LIN":"35鄰","STREET":"府安路","SECT":"五段","MAREA":" ","LANE":"１６２巷","ALLEY":" ","HOUSE_NO":"７５號","E_COORD97":167745.29999999999,"N_COORD97":2547194.8599999999,"ADDRESS":"府安路五段１６２巷７５號","OBJECTID":278356},"geometry":{"x":167745.30000000075,"y":2547194.8600000013}},{"attributes":{"ID":278362,"DIS_CODE":0,"TOWNNAME":"安南區","LI":"安富里","LIN":"35鄰","STREET":"府安路","SECT":"五段","MAREA":" ","LANE":"１６２巷","ALLEY":" ","HOUSE_NO":"７７號","E_COORD97":167744.34,"N_COORD97":2547203.1200000001,"ADDRESS":"府安路五段１６２巷７７號","OBJECTID":278357},"geometry":{"x":167744.33999999985,"y":2547203.120000001}},{"attributes":{"ID":278363,"DIS_CODE":0,"TOWNNAME":"安南區","LI":"安富里","LIN":"35鄰","STREET":"府安路","SECT":"五段","MAREA":" ","LANE":"１６２巷","ALLEY":" ","HOUSE_NO":"７９號","E_COORD97":167741.95999999999,"N_COORD97":2547211.0600000001,"ADDRESS":"府安路五段１６２巷７９號","OBJECTID":278358},"geometry":{"x":167741.95999999996,"y":2547211.0600000005}},{"attributes":{"ID":278364,"DIS_CODE":0,"TOWNNAME":"安南區","LI":"安富里","LIN":"35鄰","STREET":"府安路","SECT":"五段","MAREA":" ","LANE":"１６２巷","ALLEY":" ","HOUSE_NO":"８１號","E_COORD97":167740.22,"N_COORD97":2547219.6299999999,"ADDRESS":"府安路五段１６２巷８１號","OBJECTID":278359},"geometry":{"x":167740.2200000016,"y":2547219.6300000027}},{"attributes":{"ID":278365,"DIS_CODE":0,"TOWNNAME":"新化區","LI":"豐榮里","LIN":"13鄰","STREET":"健康路","SECT":" ","MAREA":" ","LANE":"１０１巷","ALLEY":" ","HOUSE_NO":"１６號","E_COORD97":178729.57000000001,"N_COORD97":2548167.8199999998,"ADDRESS":"健康路１０１巷１６號","OBJECTID":278360},"geometry":{"x":178729.5700000003,"y":2548167.8200000003}},{"attributes":{"ID":278366,"DIS_CODE":0,"TOWNNAME":"安南區","LI":"安富里","LIN":"35鄰","STREET":"府安路","SECT":"五段","MAREA":" ","LANE":"１６２巷","ALLEY":" ","HOUSE_NO":"８３號","E_COORD97":167738.47,"N_COORD97":2547228.2000000002,"ADDRESS":"府安路五段１６２巷８３號","OBJECTID":278361},"geometry":{"x":167738.46999999881,"y":2547228.1999999993}},{"attributes":{"ID":278367,"DIS_CODE":0,"TOWNNAME":"安南區","LI":"安富里","LIN":"35鄰","STREET":"府安路","SECT":"五段","MAREA":" ","LANE":"１６２巷","ALLEY":" ","HOUSE_NO":"８７號","E_COORD97":167734.98000000001,"N_COORD97":2547243.7599999998,"ADDRESS":"府安路五段１６２巷８７號","OBJECTID":278362},"geometry":{"x":167734.98000000138,"y":2547243.7600000016}},{"attributes":{"ID":278368,"DIS_CODE":0,"TOWNNAME":"安南區","LI":"安富里","LIN":"35鄰","STREET":"府安路","SECT":"五段","MAREA":" ","LANE":"１６２巷","ALLEY":" ","HOUSE_NO":"８９號","E_COORD97":167733.39000000001,"N_COORD97":2547249.79,"ADDRESS":"府安路五段１６２巷８９號","OBJECTID":278363},"geometry":{"x":167733.38999999966,"y":2547249.790000001}},{"attributes":{"ID":278369,"DIS_CODE":0,"TOWNNAME":"安南區","LI":"安富里","LIN":"35鄰","STREET":"府安路","SECT":"五段","MAREA":" ","LANE":"１６２巷","ALLEY":" ","HOUSE_NO":"９１號","E_COORD97":167732.75,"N_COORD97":2547255.8199999998,"ADDRESS":"府安路五段１６２巷９１號","OBJECTID":278364},"geometry":{"x":167732.75,"y":2547255.8200000003}},{"attributes":{"ID":278370,"DIS_CODE":0,"TOWNNAME":"永康區","LI":"勝利里","LIN":"35鄰","STREET":"勝利街","SECT":" ","MAREA":" ","LANE":"２巷","ALLEY":" ","HOUSE_NO":"１７號","E_COORD97":171086.44,"N_COORD97":2544691.2599999998,"ADDRESS":"勝利街２巷１７號","OBJECTID":278365},"geometry":{"x":171086.44000000134,"y":2544691.2600000016}},{"attributes":{"ID":278371,"DIS_CODE":0,"TOWNNAME":"永康區","LI":"北灣里","LIN":"35鄰","STREET":"大灣路","SECT":" ","MAREA":" ","LANE":"４０巷","ALLEY":" ","HOUSE_NO":"８０號","E_COORD97":175003.97,"N_COORD97":2546175.2799999998,"ADDRESS":"大灣路４０巷８０號","OBJECTID":278366},"geometry":{"x":175003.96999999974,"y":2546175.2800000012}},{"attributes":{"ID":278372,"DIS_CODE":0,"TOWNNAME":"永康區","LI":"北灣里","LIN":"35鄰","STREET":"大灣路","SECT":" ","MAREA":" ","LANE":"４０巷","ALLEY":" ","HOUSE_NO":"６４號之１","E_COORD97":175078.04999999999,"N_COORD97":2546106.1699999999,"ADDRESS":"大灣路４０巷６４號之１","OBJECTID":278367},"geometry":{"x":175078.04999999981,"y":2546106.1700000018}},{"attributes":{"ID":278373,"DIS_CODE":0,"TOWNNAME":"永康區","LI":"北灣里","LIN":"35鄰","STREET":"大灣路","SECT":" ","MAREA":" ","LANE":"４０巷","ALLEY":" ","HOUSE_NO":"７６號","E_COORD97":175039.17999999999,"N_COORD97":2546152.77,"ADDRESS":"大灣路４０巷７６號","OBJECTID":278368},"geometry":{"x":175039.1799999997,"y":2546152.7700000014}},{"attributes":{"ID":278374,"DIS_CODE":0,"TOWNNAME":"永康區","LI":"北灣里","LIN":"35鄰","STREET":"大灣路","SECT":" ","MAREA":" ","LANE":"４０巷","ALLEY":" ","HOUSE_NO":"８０之１號","E_COORD97":175003.82000000001,"N_COORD97":2546177.5800000001,"ADDRESS":"大灣路４０巷８０之１號","OBJECTID":278369},"geometry":{"x":175003.8200000003,"y":2546177.5800000019}},{"attributes":{"ID":278375,"DIS_CODE":0,"TOWNNAME":"永康區","LI":"網寮里","LIN":"20鄰","STREET":"文化路","SECT":" ","MAREA":" ","LANE":" ","ALLEY":" ","HOUSE_NO":"３３５號","E_COORD97":173399.37,"N_COORD97":2546166.8199999998,"ADDRESS":"文化路３３５號","OBJECTID":278370},"geometry":{"x":173399.37000000011,"y":2546166.8200000003}},{"attributes":{"ID":278376,"DIS_CODE":0,"TOWNNAME":"永康區","LI":"正強里","LIN":"35鄰","STREET":"正強街","SECT":" ","MAREA":" ","LANE":"３１１巷","ALLEY":" ","HOUSE_NO":"１６號","E_COORD97":173215.25,"N_COORD97":2548218.2799999998,"ADDRESS":"正強街３１１巷１６號","OBJECTID":278371},"geometry":{"x":173215.25,"y":2548218.2799999993}},{"attributes":{"ID":278377,"DIS_CODE":0,"TOWNNAME":"永康區","LI":"正強里","LIN":"35鄰","STREET":"正強街","SECT":" ","MAREA":" ","LANE":"３１１巷","ALLEY":" ","HOUSE_NO":"１０號","E_COORD97":173224.32000000001,"N_COORD97":2548220.2799999998,"ADDRESS":"正強街３１１巷１０號","OBJECTID":278372},"geometry":{"x":173224.32000000123,"y":2548220.2800000012}},{"attributes":{"ID":278378,"DIS_CODE":0,"TOWNNAME":"永康區","LI":"正強里","LIN":"35鄰","STREET":"正強街","SECT":" ","MAREA":" ","LANE":"３１３巷","ALLEY":" ","HOUSE_NO":"３０號","E_COORD97":173188.39999999999,"N_COORD97":2548260.8900000001,"ADDRESS":"正強街３１３巷３０號","OBJECTID":278373},"geometry":{"x":173188.4000000013,"y":2548260.8900000025}},{"attributes":{"ID":278379,"DIS_CODE":0,"TOWNNAME":"永康區","LI":"正強里","LIN":"35鄰","STREET":"正強街","SECT":" ","MAREA":" ","LANE":"３１１巷","ALLEY":" ","HOUSE_NO":"２號","E_COORD97":173236.35999999999,"N_COORD97":2548223.2799999998,"ADDRESS":"正強街３１１巷２號","OBJECTID":278374},"geometry":{"x":173236.36000000127,"y":2548223.2800000012}},{"attributes":{"ID":278380,"DIS_CODE":0,"TOWNNAME":"永康區","LI":"正強里","LIN":"35鄰","STREET":"正強街","SECT":" ","MAREA":" ","LANE":"３１１巷","ALLEY":" ","HOUSE_NO":"１２號","E_COORD97":173219.63,"N_COORD97":2548219.2799999998,"ADDRESS":"正強街３１１巷１２號","OBJECTID":278375},"geometry":{"x":173219.62999999989,"y":2548219.2800000012}},{"attributes":{"ID":278381,"DIS_CODE":0,"TOWNNAME":"永康區","LI":"正強里","LIN":"35鄰","STREET":"正強街","SECT":" ","MAREA":" ","LANE":"３１３巷","ALLEY":" ","HOUSE_NO":"１２號","E_COORD97":173219.79000000001,"N_COORD97":2548267.3900000001,"ADDRESS":"正強街３１３巷１２號","OBJECTID":278376},"geometry":{"x":173219.79000000097,"y":2548267.3900000025}},{"attributes":{"ID":278382,"DIS_CODE":0,"TOWNNAME":"永康區","LI":"永康里","LIN":"35鄰","STREET":"大同街","SECT":" ","MAREA":" ","LANE":"９２８巷","ALLEY":" ","HOUSE_NO":"１２號","E_COORD97":174476.45999999999,"N_COORD97":2546996.9100000001,"ADDRESS":"大同街９２８巷１２號","OBJECTID":278377},"geometry":{"x":174476.45999999996,"y":2546996.9100000001}},{"attributes":{"ID":278383,"DIS_CODE":0,"TOWNNAME":"北區","LI":"和順里","LIN":"1鄰","STREET":"民德路","SECT":" ","MAREA":" ","LANE":"９０巷","ALLEY":" ","HOUSE_NO":"２３號","E_COORD97":168052.45999999999,"N_COORD97":2545313.1400000001,"ADDRESS":"民德路９０巷２３號","OBJECTID":278378},"geometry":{"x":168052.46000000183,"y":2545313.1400000025}},{"attributes":{"ID":278384,"DIS_CODE":0,"TOWNNAME":"永康區","LI":"永康里","LIN":"35鄰","STREET":"大同街","SECT":" ","MAREA":" ","LANE":"９０６巷","ALLEY":" ","HOUSE_NO":"３號","E_COORD97":174472.14000000001,"N_COORD97":2546967.9199999999,"ADDRESS":"大同街９０６巷３號","OBJECTID":278379},"geometry":{"x":174472.13999999966,"y":2546967.9200000018}},{"attributes":{"ID":278385,"DIS_CODE":0,"TOWNNAME":"永康區","LI":"永康里","LIN":"35鄰","STREET":"大同街","SECT":" ","MAREA":" ","LANE":"９２８巷","ALLEY":" ","HOUSE_NO":"２２號","E_COORD97":174498.39000000001,"N_COORD97":2546985.1600000001,"ADDRESS":"大同街９２８巷２２號","OBJECTID":278380},"geometry":{"x":174498.3900000006,"y":2546985.1600000001}},{"attributes":{"ID":278386,"DIS_CODE":0,"TOWNNAME":"北區","LI":"和順里","LIN":"35鄰","STREET":"公園南路","SECT":" ","MAREA":" ","LANE":"３６２巷","ALLEY":" ","HOUSE_NO":"２２號九樓之１","E_COORD97":168293.48000000001,"N_COORD97":2544933.5499999998,"ADDRESS":"公園南路３６２巷２２號九樓之１","OBJECTID":278381},"geometry":{"x":168293.47999999952,"y":2544933.5500000045}},{"attributes":{"ID":278387,"DIS_CODE":0,"TOWNNAME":"北區","LI":"和順里","LIN":"35鄰","STREET":"公園南路","SECT":" ","MAREA":" ","LANE":"３６２巷","ALLEY":" ","HOUSE_NO":"２２號九樓之２","E_COORD97":168293.48000000001,"N_COORD97":2544933.5499999998,"ADDRESS":"公園南路３６２巷２２號九樓之２","OBJECTID":278382},"geometry":{"x":168293.47999999952,"y":2544933.5500000045}},{"attributes":{"ID":278388,"DIS_CODE":0,"TOWNNAME":"北區","LI":"和順里","LIN":"35鄰","STREET":"公園南路","SECT":" ","MAREA":" ","LANE":"３６２巷","ALLEY":" ","HOUSE_NO":"２２號九樓之３","E_COORD97":168293.48000000001,"N_COORD97":2544933.5499999998,"ADDRESS":"公園南路３６２巷２２號九樓之３","OBJECTID":278383},"geometry":{"x":168293.47999999952,"y":2544933.5500000045}},{"attributes":{"ID":278389,"DIS_CODE":0,"TOWNNAME":"安平區","LI":"華平里","LIN":"17鄰","STREET":"永華八街","SECT":" ","MAREA":" ","LANE":"１９３巷","ALLEY":" ","HOUSE_NO":"３０號之３","E_COORD97":165090.25,"N_COORD97":2543761.27,"ADDRESS":"永華八街１９３巷３０號之３","OBJECTID":278384},"geometry":{"x":165090.25,"y":2543761.2700000014}},{"attributes":{"ID":278390,"DIS_CODE":0,"TOWNNAME":"中西區","LI":"法華里","LIN":"2鄰","STREET":"府連路","SECT":" ","MAREA":" ","LANE":" ","ALLEY":" ","HOUSE_NO":"１０８號三樓之１","E_COORD97":169064.54999999999,"N_COORD97":2542687.6400000001,"ADDRESS":"府連路１０８號三樓之１","OBJECTID":278385},"geometry":{"x":169064.55000000075,"y":2542687.6400000006}},{"attributes":{"ID":278391,"DIS_CODE":0,"TOWNNAME":"永康區","LI":"埔園里","LIN":"35鄰","STREET":"八德街","SECT":" ","MAREA":" ","LANE":"５５巷","ALLEY":" ","HOUSE_NO":"１７號五樓之１","E_COORD97":174212.67000000001,"N_COORD97":2548454.27,"ADDRESS":"八德街５５巷１７號五樓之１","OBJECTID":278386},"geometry":{"x":174212.66999999993,"y":2548454.2700000014}},{"attributes":{"ID":278392,"DIS_CODE":0,"TOWNNAME":"永康區","LI":"復華里","LIN":"35鄰","STREET":"復華七街","SECT":" ","MAREA":" ","LANE":"３９巷","ALLEY":" ","HOUSE_NO":"２０號","E_COORD97":172586.29000000001,"N_COORD97":2546080.29,"ADDRESS":"復華七街３９巷２０號","OBJECTID":278387},"geometry":{"x":172586.29000000004,"y":2546080.290000001}},{"attributes":{"ID":278393,"DIS_CODE":0,"TOWNNAME":"安平區","LI":"億載里","LIN":"15鄰","STREET":"光州三街","SECT":" ","MAREA":" ","LANE":"４２巷","ALLEY":" ","HOUSE_NO":"８號","E_COORD97":164058.54999999999,"N_COORD97":2543130,"ADDRESS":"光州三街４２巷８號","OBJECTID":278388},"geometry":{"x":164058.55000000075,"y":2543130.0000000019}},{"attributes":{"ID":278394,"DIS_CODE":0,"TOWNNAME":"安平區","LI":"億載里","LIN":"15鄰","STREET":"光州三街","SECT":" ","MAREA":" ","LANE":"４２巷","ALLEY":" ","HOUSE_NO":"１０號","E_COORD97":164059.12,"N_COORD97":2543125.5899999999,"ADDRESS":"光州三街４２巷１０號","OBJECTID":278389},"geometry":{"x":164059.12000000011,"y":2543125.5900000017}},{"attributes":{"ID":278395,"DIS_CODE":0,"TOWNNAME":"安平區","LI":"億載里","LIN":"15鄰","STREET":"光州三街","SECT":" ","MAREA":" ","LANE":"４２巷","ALLEY":" ","HOUSE_NO":"１２號","E_COORD97":164057.51000000001,"N_COORD97":2543120.1600000001,"ADDRESS":"光州三街４２巷１２號","OBJECTID":278390},"geometry":{"x":164057.50999999978,"y":2543120.1600000001}},{"attributes":{"ID":278396,"DIS_CODE":0,"TOWNNAME":"新營區","LI":"南興里","LIN":"7鄰","STREET":"和平路","SECT":" ","MAREA":" ","LANE":"９５巷","ALLEY":" ","HOUSE_NO":"２２之１號","E_COORD97":179458.13,"N_COORD97":2577600.5,"ADDRESS":"和平路９５巷２２之１號","OBJECTID":278391},"geometry":{"x":179458.13000000175,"y":2577600.5000000019}},{"attributes":{"ID":278397,"DIS_CODE":0,"TOWNNAME":"永康區","LI":"五王里","LIN":"35鄰","STREET":"中華路","SECT":" ","MAREA":" ","LANE":"５７８巷","ALLEY":" ","HOUSE_NO":"７號","E_COORD97":171247.64999999999,"N_COORD97":2545937.25,"ADDRESS":"中華路５７８巷７號","OBJECTID":278392},"geometry":{"x":171247.6500000013,"y":2545937.25}},{"attributes":{"ID":278398,"DIS_CODE":0,"TOWNNAME":"仁德區","LI":"成功里","LIN":"35鄰","STREET":"成功一街","SECT":" ","MAREA":" ","LANE":"６７巷","ALLEY":" ","HOUSE_NO":"７號","E_COORD97":170571.81,"N_COORD97":2540055.5099999998,"ADDRESS":"成功一街６７巷７號","OBJECTID":278393},"geometry":{"x":170571.80999999959,"y":2540055.5099999998}},{"attributes":{"ID":278399,"DIS_CODE":0,"TOWNNAME":"新營區","LI":"大宏里","LIN":"7鄰","STREET":"同濟街","SECT":" ","MAREA":" ","LANE":" ","ALLEY":" ","HOUSE_NO":"８８號","E_COORD97":180476.302979,"N_COORD97":2578431.0086500002,"ADDRESS":"同濟街８８號","OBJECTID":278394},"geometry":{"x":180476.30297900084,"y":2578431.0086520016}},{"attributes":{"ID":278400,"DIS_CODE":0,"TOWNNAME":"中西區","LI":"民主里","LIN":"2鄰","STREET":"保安路","SECT":" ","MAREA":" ","LANE":" ","ALLEY":" ","HOUSE_NO":"１３２號八樓之２","E_COORD97":167425.98000000001,"N_COORD97":2543499.1400000001,"ADDRESS":"保安路１３２號八樓之２","OBJECTID":278395},"geometry":{"x":167425.98000000138,"y":2543499.1400000025}},{"attributes":{"ID":278401,"DIS_CODE":0,"TOWNNAME":"中西區","LI":"民主里","LIN":"2鄰","STREET":"保安路","SECT":" ","MAREA":" ","LANE":" ","ALLEY":" ","HOUSE_NO":"１３２號八樓之３","E_COORD97":167425.98000000001,"N_COORD97":2543499.1400000001,"ADDRESS":"保安路１３２號八樓之３","OBJECTID":278396},"geometry":{"x":167425.98000000138,"y":2543499.1400000025}},{"attributes":{"ID":278402,"DIS_CODE":0,"TOWNNAME":"仁德區","LI":"仁義里","LIN":"35鄰","STREET":"勝利路","SECT":" ","MAREA":" ","LANE":"５８巷","ALLEY":" ","HOUSE_NO":"１７號","E_COORD97":173543.38,"N_COORD97":2539824.7599999998,"ADDRESS":"勝利路５８巷１７號","OBJECTID":278397},"geometry":{"x":173543.37999999989,"y":2539824.7599999979}},{"attributes":{"ID":278403,"DIS_CODE":0,"TOWNNAME":"仁德區","LI":"成功里","LIN":"35鄰","STREET":"保華路","SECT":" ","MAREA":" ","LANE":"６４巷","ALLEY":" ","HOUSE_NO":"７號","E_COORD97":170608.95000000001,"N_COORD97":2540021.5,"ADDRESS":"保華路６４巷７號","OBJECTID":278398},"geometry":{"x":170608.95000000019,"y":2540021.5000000019}},{"attributes":{"ID":278404,"DIS_CODE":0,"TOWNNAME":"仁德區","LI":"後壁里","LIN":"35鄰","STREET":"德洋路","SECT":" ","MAREA":" ","LANE":"２０５巷","ALLEY":" ","HOUSE_NO":"２７號","E_COORD97":172412.70999999999,"N_COORD97":2539514.02,"ADDRESS":"德洋路２０５巷２７號","OBJECTID":278399},"geometry":{"x":172412.71000000089,"y":2539514.0199999996}},{"attributes":{"ID":278405,"DIS_CODE":0,"TOWNNAME":"仁德區","LI":"後壁里","LIN":"35鄰","STREET":"德洋路","SECT":" ","MAREA":" ","LANE":"２０５巷","ALLEY":" ","HOUSE_NO":"９號","E_COORD97":172459.20000000001,"N_COORD97":2539497.52,"ADDRESS":"德洋路２０５巷９號","OBJECTID":278400},"geometry":{"x":172459.20000000112,"y":2539497.5200000033}}]}