{"displayFieldName":"TOWNNAME","fieldAliases":{"ID":"ID","DIS_CODE":"DIS_CODE","TOWNNAME":"TOWNNAME","LI":"LI","LIN":"LIN","STREET":"STREET","SECT":"SECT","MAREA":"MAREA","LANE":"LANE","ALLEY":"ALLEY","HOUSE_NO":"HOUSE_NO","E_COORD97":"E_COORD97","N_COORD97":"N_COORD97","ADDRESS":"ADDRESS","OBJECTID":"OBJECTID"},"geometryType":"esriGeometryPoint","spatialReference":{"wkid":102443,"latestWkid":3826},"fields":[{"name":"ID","type":"esriFieldTypeDouble","alias":"ID"},{"name":"DIS_CODE","type":"esriFieldTypeInteger","alias":"DIS_CODE"},{"name":"TOWNNAME","type":"esriFieldTypeString","alias":"TOWNNAME","length":8},{"name":"LI","type":"esriFieldTypeString","alias":"LI","length":8},{"name":"LIN","type":"esriFieldTypeString","alias":"LIN","length":12},{"name":"STREET","type":"esriFieldTypeString","alias":"STREET","length":20},{"name":"SECT","type":"esriFieldTypeString","alias":"SECT","length":8},{"name":"MAREA","type":"esriFieldTypeString","alias":"MAREA","length":12},{"name":"LANE","type":"esriFieldTypeString","alias":"LANE","length":10},{"name":"ALLEY","type":"esriFieldTypeString","alias":"ALLEY","length":10},{"name":"HOUSE_NO","type":"esriFieldTypeString","alias":"HOUSE_NO","length":20},{"name":"E_COORD97","type":"esriFieldTypeDouble","alias":"E_COORD97"},{"name":"N_COORD97","type":"esriFieldTypeDouble","alias":"N_COORD97"},{"name":"ADDRESS","type":"esriFieldTypeString","alias":"ADDRESS","length":50},{"name":"OBJECTID","type":"esriFieldTypeOID","alias":"OBJECTID"}],"features":[{"attributes":{"ID":168402,"DIS_CODE":0,"TOWNNAME":"歸仁區","LI":"武東里","LIN":"12鄰","STREET":" ","SECT":" ","MAREA":"明德新村","LANE":" ","ALLEY":" ","HOUSE_NO":"８６號","E_COORD97":175266.39000000001,"N_COORD97":2536132.27,"ADDRESS":"明德新村８６號","OBJECTID":168401},"geometry":{"x":175266.3900000006,"y":2536132.2699999977}},{"attributes":{"ID":168403,"DIS_CODE":0,"TOWNNAME":"七股區","LI":"玉成里","LIN":"13鄰","STREET":" ","SECT":" ","MAREA":"玉成","LANE":" ","ALLEY":" ","HOUSE_NO":"１４８號","E_COORD97":161954.07000000001,"N_COORD97":2560254.6299999999,"ADDRESS":"玉成１４８號","OBJECTID":168402},"geometry":{"x":161954.0700000003,"y":2560254.629999999}},{"attributes":{"ID":168404,"DIS_CODE":0,"TOWNNAME":"七股區","LI":"玉成里","LIN":"13鄰","STREET":" ","SECT":" ","MAREA":"玉成","LANE":" ","ALLEY":" ","HOUSE_NO":"１４９號","E_COORD97":161957,"N_COORD97":2560257.27,"ADDRESS":"玉成１４９號","OBJECTID":168403},"geometry":{"x":161957.00000000093,"y":2560257.2699999996}},{"attributes":{"ID":168405,"DIS_CODE":0,"TOWNNAME":"七股區","LI":"玉成里","LIN":"13鄰","STREET":" ","SECT":" ","MAREA":"玉成","LANE":" ","ALLEY":" ","HOUSE_NO":"１５０號","E_COORD97":161959.92000000001,"N_COORD97":2560259.9100000001,"ADDRESS":"玉成１５０號","OBJECTID":168404},"geometry":{"x":161959.91999999993,"y":2560259.9100000001}},{"attributes":{"ID":168406,"DIS_CODE":0,"TOWNNAME":"仁德區","LI":"成功里","LIN":"13鄰","STREET":"全福路","SECT":" ","MAREA":" ","LANE":"３巷","ALLEY":"２弄","HOUSE_NO":"９號","E_COORD97":170857.17000000001,"N_COORD97":2539369.5,"ADDRESS":"全福路３巷２弄９號","OBJECTID":168405},"geometry":{"x":170857.17000000086,"y":2539369.5000000037}},{"attributes":{"ID":168407,"DIS_CODE":0,"TOWNNAME":"七股區","LI":"玉成里","LIN":"13鄰","STREET":" ","SECT":" ","MAREA":"玉成","LANE":" ","ALLEY":" ","HOUSE_NO":"１５１號","E_COORD97":161962.89000000001,"N_COORD97":2560262.4100000001,"ADDRESS":"玉成１５１號","OBJECTID":168406},"geometry":{"x":161962.88999999966,"y":2560262.410000002}},{"attributes":{"ID":168408,"DIS_CODE":0,"TOWNNAME":"七股區","LI":"玉成里","LIN":"13鄰","STREET":" ","SECT":" ","MAREA":"玉成","LANE":" ","ALLEY":" ","HOUSE_NO":"１５２號","E_COORD97":161965.85000000001,"N_COORD97":2560264.96,"ADDRESS":"玉成１５２號","OBJECTID":168407},"geometry":{"x":161965.85000000056,"y":2560264.9600000009}},{"attributes":{"ID":168409,"DIS_CODE":0,"TOWNNAME":"七股區","LI":"玉成里","LIN":"13鄰","STREET":" ","SECT":" ","MAREA":"玉成","LANE":" ","ALLEY":" ","HOUSE_NO":"１５３號","E_COORD97":161969.32000000001,"N_COORD97":2560267.5299999998,"ADDRESS":"玉成１５３號","OBJECTID":168408},"geometry":{"x":161969.3200000003,"y":2560267.5300000012}},{"attributes":{"ID":168410,"DIS_CODE":0,"TOWNNAME":"仁德區","LI":"保安里","LIN":"4鄰","STREET":"文賢路","SECT":"一段","MAREA":" ","LANE":"８６４巷","ALLEY":"１３弄","HOUSE_NO":"１號","E_COORD97":171553.39999999999,"N_COORD97":2536007.5699999998,"ADDRESS":"文賢路一段８６４巷１３弄１號","OBJECTID":168409},"geometry":{"x":171553.40000000037,"y":2536007.5700000003}},{"attributes":{"ID":168411,"DIS_CODE":0,"TOWNNAME":"歸仁區","LI":"武東里","LIN":"12鄰","STREET":" ","SECT":" ","MAREA":"明德新村","LANE":" ","ALLEY":" ","HOUSE_NO":"４６號","E_COORD97":175195.69,"N_COORD97":2536155.27,"ADDRESS":"明德新村４６號","OBJECTID":168410},"geometry":{"x":175195.69000000134,"y":2536155.2699999996}},{"attributes":{"ID":168412,"DIS_CODE":0,"TOWNNAME":"歸仁區","LI":"武東里","LIN":"12鄰","STREET":" ","SECT":" ","MAREA":"明德新村","LANE":" ","ALLEY":" ","HOUSE_NO":"１７號","E_COORD97":175130.29000000001,"N_COORD97":2536194.27,"ADDRESS":"明德新村１７號","OBJECTID":168411},"geometry":{"x":175130.29000000097,"y":2536194.2700000014}},{"attributes":{"ID":168413,"DIS_CODE":0,"TOWNNAME":"歸仁區","LI":"武東里","LIN":"12鄰","STREET":" ","SECT":" ","MAREA":"明德新村","LANE":" ","ALLEY":" ","HOUSE_NO":"１號","E_COORD97":175123.23999999999,"N_COORD97":2536266.27,"ADDRESS":"明德新村１號","OBJECTID":168412},"geometry":{"x":175123.24000000209,"y":2536266.2700000014}},{"attributes":{"ID":168414,"DIS_CODE":0,"TOWNNAME":"仁德區","LI":"成功里","LIN":"20鄰","STREET":"保生路","SECT":" ","MAREA":" ","LANE":"１２３巷","ALLEY":"６弄","HOUSE_NO":"１６號","E_COORD97":170581.60000000001,"N_COORD97":2539805.75,"ADDRESS":"保生路１２３巷６弄１６號","OBJECTID":168413},"geometry":{"x":170581.59999999963,"y":2539805.7500000019}},{"attributes":{"ID":168415,"DIS_CODE":0,"TOWNNAME":"歸仁區","LI":"武東里","LIN":"12鄰","STREET":" ","SECT":" ","MAREA":"明德新村","LANE":" ","ALLEY":" ","HOUSE_NO":"２６號","E_COORD97":175338.19,"N_COORD97":2536142.27,"ADDRESS":"明德新村２６號","OBJECTID":168414},"geometry":{"x":175338.19000000041,"y":2536142.2699999996}},{"attributes":{"ID":168416,"DIS_CODE":0,"TOWNNAME":"歸仁區","LI":"武東里","LIN":"12鄰","STREET":" ","SECT":" ","MAREA":"明德新村","LANE":" ","ALLEY":" ","HOUSE_NO":"３３號","E_COORD97":175295.19,"N_COORD97":2536146.27,"ADDRESS":"明德新村３３號","OBJECTID":168415},"geometry":{"x":175295.19000000134,"y":2536146.2700000033}},{"attributes":{"ID":168417,"DIS_CODE":0,"TOWNNAME":"歸仁區","LI":"武東里","LIN":"12鄰","STREET":" ","SECT":" ","MAREA":"明德新村","LANE":" ","ALLEY":" ","HOUSE_NO":"１０１號","E_COORD97":175156.94,"N_COORD97":2536144.27,"ADDRESS":"明德新村１０１號","OBJECTID":168416},"geometry":{"x":175156.94000000041,"y":2536144.2700000014}},{"attributes":{"ID":168418,"DIS_CODE":0,"TOWNNAME":"歸仁區","LI":"武東里","LIN":"12鄰","STREET":" ","SECT":" ","MAREA":"明德新村","LANE":" ","ALLEY":" ","HOUSE_NO":"１５號","E_COORD97":175146.69,"N_COORD97":2536193.27,"ADDRESS":"明德新村１５號","OBJECTID":168417},"geometry":{"x":175146.69000000041,"y":2536193.2699999996}},{"attributes":{"ID":168419,"DIS_CODE":0,"TOWNNAME":"歸仁區","LI":"武東里","LIN":"12鄰","STREET":" ","SECT":" ","MAREA":"明德新村","LANE":" ","ALLEY":" ","HOUSE_NO":"１２９號","E_COORD97":175269.64000000001,"N_COORD97":2536116.27,"ADDRESS":"明德新村１２９號","OBJECTID":168418},"geometry":{"x":175269.6400000006,"y":2536116.2700000014}},{"attributes":{"ID":168420,"DIS_CODE":0,"TOWNNAME":"歸仁區","LI":"南興里","LIN":"12鄰","STREET":"南興街","SECT":" ","MAREA":" ","LANE":" ","ALLEY":" ","HOUSE_NO":"９７號","E_COORD97":175875.54000000001,"N_COORD97":2541366.25,"ADDRESS":"南興街９７號","OBJECTID":168419},"geometry":{"x":175875.54000000097,"y":2541366.25}},{"attributes":{"ID":168421,"DIS_CODE":0,"TOWNNAME":"仁德區","LI":"保安里","LIN":"4鄰","STREET":"文賢路","SECT":"一段","MAREA":" ","LANE":"８６２巷","ALLEY":"６弄","HOUSE_NO":"９號","E_COORD97":171433.98000000001,"N_COORD97":2536113.0699999998,"ADDRESS":"文賢路一段８６２巷６弄９號","OBJECTID":168420},"geometry":{"x":171433.98000000045,"y":2536113.0700000003}},{"attributes":{"ID":168422,"DIS_CODE":0,"TOWNNAME":"玉井區","LI":"中正里","LIN":"12鄰","STREET":" ","SECT":" ","MAREA":"中正","LANE":" ","ALLEY":" ","HOUSE_NO":"１２８號之２","E_COORD97":195497.17000000001,"N_COORD97":2560675.29,"ADDRESS":"中正１２８號之２","OBJECTID":168421},"geometry":{"x":195497.16999999993,"y":2560675.290000001}},{"attributes":{"ID":168423,"DIS_CODE":0,"TOWNNAME":"玉井區","LI":"中正里","LIN":"12鄰","STREET":" ","SECT":" ","MAREA":"中正","LANE":" ","ALLEY":" ","HOUSE_NO":"１３２號","E_COORD97":195641.60000000001,"N_COORD97":2560707.25,"ADDRESS":"中正１３２號","OBJECTID":168422},"geometry":{"x":195641.59999999963,"y":2560707.2500000019}},{"attributes":{"ID":168424,"DIS_CODE":0,"TOWNNAME":"仁德區","LI":"成功里","LIN":"18鄰","STREET":"全福路","SECT":" ","MAREA":" ","LANE":"７５巷","ALLEY":"１４弄","HOUSE_NO":"１８號","E_COORD97":171091.95000000001,"N_COORD97":2539337.2400000002,"ADDRESS":"全福路７５巷１４弄１８號","OBJECTID":168423},"geometry":{"x":171091.95000000019,"y":2539337.2400000039}},{"attributes":{"ID":168425,"DIS_CODE":0,"TOWNNAME":"歸仁區","LI":"武東里","LIN":"12鄰","STREET":" ","SECT":" ","MAREA":"明德新村","LANE":" ","ALLEY":" ","HOUSE_NO":"１８９號","E_COORD97":175145.76000000001,"N_COORD97":2536107.25,"ADDRESS":"明德新村１８９號","OBJECTID":168424},"geometry":{"x":175145.75999999978,"y":2536107.2500000019}},{"attributes":{"ID":168426,"DIS_CODE":0,"TOWNNAME":"東山區","LI":"三榮里","LIN":"12鄰","STREET":" ","SECT":" ","MAREA":"下寮子","LANE":" ","ALLEY":" ","HOUSE_NO":"１號之２","E_COORD97":187416.37,"N_COORD97":2581042.79,"ADDRESS":"下寮子１號之２","OBJECTID":168425},"geometry":{"x":187416.37000000104,"y":2581042.7899999991}},{"attributes":{"ID":168427,"DIS_CODE":0,"TOWNNAME":"東山區","LI":"三榮里","LIN":"12鄰","STREET":" ","SECT":" ","MAREA":"下寮子","LANE":" ","ALLEY":" ","HOUSE_NO":"１號之３","E_COORD97":187386.10000000001,"N_COORD97":2581057.0899999999,"ADDRESS":"下寮子１號之３","OBJECTID":168426},"geometry":{"x":187386.09999999963,"y":2581057.0900000017}},{"attributes":{"ID":168428,"DIS_CODE":0,"TOWNNAME":"東山區","LI":"三榮里","LIN":"12鄰","STREET":" ","SECT":" ","MAREA":"下寮子","LANE":" ","ALLEY":" ","HOUSE_NO":"１號之４","E_COORD97":187318.16,"N_COORD97":2580976.8599999999,"ADDRESS":"下寮子１號之４","OBJECTID":168427},"geometry":{"x":187318.16000000015,"y":2580976.8600000013}},{"attributes":{"ID":168429,"DIS_CODE":0,"TOWNNAME":"仁德區","LI":"保安里","LIN":"4鄰","STREET":"文賢路","SECT":"一段","MAREA":" ","LANE":"８６２巷","ALLEY":"７弄","HOUSE_NO":"６號","E_COORD97":171519.23000000001,"N_COORD97":2536036.8199999998,"ADDRESS":"文賢路一段８６２巷７弄６號","OBJECTID":168428},"geometry":{"x":171519.23000000045,"y":2536036.8200000003}},{"attributes":{"ID":168430,"DIS_CODE":0,"TOWNNAME":"仁德區","LI":"太子里","LIN":"14鄰","STREET":"長興路","SECT":" ","MAREA":" ","LANE":"８７巷","ALLEY":"２１弄","HOUSE_NO":"８號","E_COORD97":174022.01000000001,"N_COORD97":2543776.5,"ADDRESS":"長興路８７巷２１弄８號","OBJECTID":168429},"geometry":{"x":174022.00999999978,"y":2543776.4999999981}},{"attributes":{"ID":168431,"DIS_CODE":0,"TOWNNAME":"仁德區","LI":"後壁里","LIN":"20鄰","STREET":"中正路","SECT":"二段","MAREA":" ","LANE":"１０６巷","ALLEY":"１５弄","HOUSE_NO":"４號","E_COORD97":173248.82000000001,"N_COORD97":2538515.71,"ADDRESS":"中正路二段１０６巷１５弄４號","OBJECTID":168430},"geometry":{"x":173248.8200000003,"y":2538515.7100000028}},{"attributes":{"ID":168432,"DIS_CODE":0,"TOWNNAME":"仁德區","LI":"保安里","LIN":"4鄰","STREET":"文賢路","SECT":"一段","MAREA":" ","LANE":"８３４巷","ALLEY":"１８弄","HOUSE_NO":"２號之１","E_COORD97":171442.5,"N_COORD97":2536192.0800000001,"ADDRESS":"文賢路一段８３４巷１８弄２號之１","OBJECTID":168431},"geometry":{"x":171442.5,"y":2536192.0800000038}},{"attributes":{"ID":168433,"DIS_CODE":0,"TOWNNAME":"後壁區","LI":"竹新里","LIN":"16鄰","STREET":" ","SECT":" ","MAREA":"新厝","LANE":" ","ALLEY":" ","HOUSE_NO":"７５號","E_COORD97":179474.5,"N_COORD97":2582080.3500000001,"ADDRESS":"新厝７５號","OBJECTID":168432},"geometry":{"x":179474.50000000186,"y":2582080.3499999996}},{"attributes":{"ID":168434,"DIS_CODE":0,"TOWNNAME":"仁德區","LI":"保安里","LIN":"4鄰","STREET":"文賢路","SECT":"一段","MAREA":" ","LANE":"８６２巷","ALLEY":"７弄","HOUSE_NO":"２號","E_COORD97":171518.82999999999,"N_COORD97":2536046.0699999998,"ADDRESS":"文賢路一段８６２巷７弄２號","OBJECTID":168433},"geometry":{"x":171518.83000000101,"y":2536046.0700000003}},{"attributes":{"ID":168435,"DIS_CODE":0,"TOWNNAME":"東山區","LI":"三榮里","LIN":"12鄰","STREET":" ","SECT":" ","MAREA":"下寮子","LANE":" ","ALLEY":" ","HOUSE_NO":"１號之５","E_COORD97":187482.89000000001,"N_COORD97":2580891.6299999999,"ADDRESS":"下寮子１號之５","OBJECTID":168434},"geometry":{"x":187482.89000000153,"y":2580891.629999999}},{"attributes":{"ID":168436,"DIS_CODE":0,"TOWNNAME":"仁德區","LI":"後壁里","LIN":"39鄰","STREET":"德糖路","SECT":" ","MAREA":" ","LANE":"４０７巷","ALLEY":" ","HOUSE_NO":"１５號","E_COORD97":173438.51000000001,"N_COORD97":2539049.2599999998,"ADDRESS":"德糖路４０７巷１５號","OBJECTID":168435},"geometry":{"x":173438.50999999978,"y":2539049.2600000016}},{"attributes":{"ID":168437,"DIS_CODE":0,"TOWNNAME":"仁德區","LI":"後壁里","LIN":"42鄰","STREET":"德崙路","SECT":" ","MAREA":" ","LANE":"４８巷","ALLEY":"１５弄","HOUSE_NO":"１５號","E_COORD97":173349.54000000001,"N_COORD97":2538488.5099999998,"ADDRESS":"德崙路４８巷１５弄１５號","OBJECTID":168436},"geometry":{"x":173349.5400000019,"y":2538488.5100000016}},{"attributes":{"ID":168438,"DIS_CODE":0,"TOWNNAME":"東山區","LI":"三榮里","LIN":"12鄰","STREET":" ","SECT":" ","MAREA":"下寮子","LANE":" ","ALLEY":" ","HOUSE_NO":"１號","E_COORD97":187381.75,"N_COORD97":2581095.77,"ADDRESS":"下寮子１號","OBJECTID":168437},"geometry":{"x":187381.75,"y":2581095.7700000033}},{"attributes":{"ID":168439,"DIS_CODE":0,"TOWNNAME":"歸仁區","LI":"看東里","LIN":"16鄰","STREET":"成功路","SECT":"一段","MAREA":" ","LANE":"２７巷","ALLEY":"６０弄","HOUSE_NO":"５９５號","E_COORD97":180102.94416300001,"N_COORD97":2539384.0184499999,"ADDRESS":"成功路一段２７巷６０弄５９５號","OBJECTID":168438},"geometry":{"x":180102.94416300114,"y":2539384.0184530001}},{"attributes":{"ID":168440,"DIS_CODE":0,"TOWNNAME":"東山區","LI":"三榮里","LIN":"12鄰","STREET":" ","SECT":" ","MAREA":"下寮子","LANE":" ","ALLEY":" ","HOUSE_NO":"２號之２","E_COORD97":187354.44,"N_COORD97":2581124.0299999998,"ADDRESS":"下寮子２號之２","OBJECTID":168439},"geometry":{"x":187354.43999999948,"y":2581124.0299999975}},{"attributes":{"ID":168441,"DIS_CODE":0,"TOWNNAME":"東山區","LI":"三榮里","LIN":"12鄰","STREET":" ","SECT":" ","MAREA":"下寮子","LANE":" ","ALLEY":" ","HOUSE_NO":"２號","E_COORD97":187368.64999999999,"N_COORD97":2581120.6400000001,"ADDRESS":"下寮子２號","OBJECTID":168440},"geometry":{"x":187368.6500000013,"y":2581120.6400000006}},{"attributes":{"ID":168442,"DIS_CODE":0,"TOWNNAME":"仁德區","LI":"後壁里","LIN":"18鄰","STREET":"德南路","SECT":" ","MAREA":" ","LANE":"２２巷","ALLEY":"９弄","HOUSE_NO":"１５號","E_COORD97":173327.87,"N_COORD97":2538726.2599999998,"ADDRESS":"德南路２２巷９弄１５號","OBJECTID":168441},"geometry":{"x":173327.87000000011,"y":2538726.2599999979}},{"attributes":{"ID":168443,"DIS_CODE":0,"TOWNNAME":"永康區","LI":"甲頂里","LIN":"15鄰","STREET":"正新街","SECT":" ","MAREA":" ","LANE":" ","ALLEY":" ","HOUSE_NO":"５１號","E_COORD97":170337.82999999999,"N_COORD97":2546687.8500000001,"ADDRESS":"正新街５１號","OBJECTID":168442},"geometry":{"x":170337.83000000007,"y":2546687.8500000015}},{"attributes":{"ID":168444,"DIS_CODE":0,"TOWNNAME":"七股區","LI":"玉成里","LIN":"13鄰","STREET":" ","SECT":" ","MAREA":"玉成","LANE":" ","ALLEY":" ","HOUSE_NO":"１５４號","E_COORD97":161972.66,"N_COORD97":2560269.79,"ADDRESS":"玉成１５４號","OBJECTID":168443},"geometry":{"x":161972.66000000108,"y":2560269.7899999991}},{"attributes":{"ID":168445,"DIS_CODE":0,"TOWNNAME":"七股區","LI":"玉成里","LIN":"13鄰","STREET":" ","SECT":" ","MAREA":"玉成","LANE":" ","ALLEY":" ","HOUSE_NO":"１５５號","E_COORD97":161974.64000000001,"N_COORD97":2560273.7400000002,"ADDRESS":"玉成１５５號","OBJECTID":168444},"geometry":{"x":161974.63999999966,"y":2560273.7400000021}},{"attributes":{"ID":168446,"DIS_CODE":0,"TOWNNAME":"七股區","LI":"玉成里","LIN":"13鄰","STREET":" ","SECT":" ","MAREA":"玉成","LANE":" ","ALLEY":" ","HOUSE_NO":"１５６號","E_COORD97":161963.89999999999,"N_COORD97":2560291.6600000001,"ADDRESS":"玉成１５６號","OBJECTID":168445},"geometry":{"x":161963.90000000037,"y":2560291.660000002}},{"attributes":{"ID":168447,"DIS_CODE":0,"TOWNNAME":"七股區","LI":"玉成里","LIN":"13鄰","STREET":" ","SECT":" ","MAREA":"玉成","LANE":" ","ALLEY":" ","HOUSE_NO":"１５７號","E_COORD97":161981.17999999999,"N_COORD97":2560279.1299999999,"ADDRESS":"玉成１５７號","OBJECTID":168446},"geometry":{"x":161981.1799999997,"y":2560279.1300000027}},{"attributes":{"ID":168448,"DIS_CODE":0,"TOWNNAME":"七股區","LI":"玉成里","LIN":"13鄰","STREET":" ","SECT":" ","MAREA":"玉成","LANE":" ","ALLEY":" ","HOUSE_NO":"１５８號","E_COORD97":161971.32000000001,"N_COORD97":2560296.3999999999,"ADDRESS":"玉成１５８號","OBJECTID":168447},"geometry":{"x":161971.31999999937,"y":2560296.4000000022}},{"attributes":{"ID":168449,"DIS_CODE":0,"TOWNNAME":"麻豆區","LI":"\u25A0江里","LIN":"12鄰","STREET":"民生路","SECT":" ","MAREA":" ","LANE":" ","ALLEY":" ","HOUSE_NO":"８４號","E_COORD97":173729.70000000001,"N_COORD97":2564363.8700000001,"ADDRESS":"民生路８４號","OBJECTID":168448},"geometry":{"x":173729.70000000019,"y":2564363.870000001}},{"attributes":{"ID":168450,"DIS_CODE":0,"TOWNNAME":"麻豆區","LI":"\u25A0江里","LIN":"12鄰","STREET":"民生路","SECT":" ","MAREA":" ","LANE":" ","ALLEY":" ","HOUSE_NO":"８６號","E_COORD97":173729.82000000001,"N_COORD97":2564359.2999999998,"ADDRESS":"民生路８６號","OBJECTID":168449},"geometry":{"x":173729.82000000123,"y":2564359.3000000026}},{"attributes":{"ID":168451,"DIS_CODE":0,"TOWNNAME":"麻豆區","LI":"\u25A0江里","LIN":"12鄰","STREET":"民生路","SECT":" ","MAREA":" ","LANE":" ","ALLEY":" ","HOUSE_NO":"８８號","E_COORD97":173729.73999999999,"N_COORD97":2564354.5299999998,"ADDRESS":"民生路８８號","OBJECTID":168450},"geometry":{"x":173729.74000000209,"y":2564354.5299999993}},{"attributes":{"ID":168452,"DIS_CODE":0,"TOWNNAME":"七股區","LI":"玉成里","LIN":"13鄰","STREET":" ","SECT":" ","MAREA":"玉成","LANE":" ","ALLEY":" ","HOUSE_NO":"１５９號","E_COORD97":161987.73000000001,"N_COORD97":2560284.0800000001,"ADDRESS":"玉成１５９號","OBJECTID":168451},"geometry":{"x":161987.73000000138,"y":2560284.0800000038}},{"attributes":{"ID":168453,"DIS_CODE":0,"TOWNNAME":"七股區","LI":"玉成里","LIN":"13鄰","STREET":" ","SECT":" ","MAREA":"玉成","LANE":" ","ALLEY":" ","HOUSE_NO":"１６１號","E_COORD97":161949.89999999999,"N_COORD97":2560303.2000000002,"ADDRESS":"玉成１６１號","OBJECTID":168452},"geometry":{"x":161949.90000000037,"y":2560303.2000000011}},{"attributes":{"ID":168454,"DIS_CODE":0,"TOWNNAME":"七股區","LI":"玉成里","LIN":"13鄰","STREET":" ","SECT":" ","MAREA":"玉成","LANE":" ","ALLEY":" ","HOUSE_NO":"１６２號","E_COORD97":161946.37,"N_COORD97":2560301.3300000001,"ADDRESS":"玉成１６２號","OBJECTID":168453},"geometry":{"x":161946.37000000011,"y":2560301.3300000001}},{"attributes":{"ID":168455,"DIS_CODE":0,"TOWNNAME":"七股區","LI":"玉成里","LIN":"13鄰","STREET":" ","SECT":" ","MAREA":"玉成","LANE":" ","ALLEY":" ","HOUSE_NO":"１６３號","E_COORD97":161943.01999999999,"N_COORD97":2560298.29,"ADDRESS":"玉成１６３號","OBJECTID":168454},"geometry":{"x":161943.02000000048,"y":2560298.2899999972}},{"attributes":{"ID":168456,"DIS_CODE":0,"TOWNNAME":"七股區","LI":"玉成里","LIN":"13鄰","STREET":" ","SECT":" ","MAREA":"玉成","LANE":" ","ALLEY":" ","HOUSE_NO":"１６４號","E_COORD97":161930.20999999999,"N_COORD97":2560290,"ADDRESS":"玉成１６４號","OBJECTID":168455},"geometry":{"x":161930.21000000089,"y":2560290}},{"attributes":{"ID":168457,"DIS_CODE":0,"TOWNNAME":"七股區","LI":"玉成里","LIN":"13鄰","STREET":" ","SECT":" ","MAREA":"玉成","LANE":" ","ALLEY":" ","HOUSE_NO":"１７０號之１","E_COORD97":161912.56,"N_COORD97":2560272.1200000001,"ADDRESS":"玉成１７０號之１","OBJECTID":168456},"geometry":{"x":161912.55999999959,"y":2560272.1200000029}},{"attributes":{"ID":168458,"DIS_CODE":0,"TOWNNAME":"七股區","LI":"玉成里","LIN":"13鄰","STREET":" ","SECT":" ","MAREA":"玉成","LANE":" ","ALLEY":" ","HOUSE_NO":"１７０號之２","E_COORD97":161909.85999999999,"N_COORD97":2560275.1600000001,"ADDRESS":"玉成１７０號之２","OBJECTID":168457},"geometry":{"x":161909.86000000034,"y":2560275.1600000001}},{"attributes":{"ID":168459,"DIS_CODE":0,"TOWNNAME":"七股區","LI":"玉成里","LIN":"13鄰","STREET":" ","SECT":" ","MAREA":"玉成","LANE":" ","ALLEY":" ","HOUSE_NO":"１７０號之３","E_COORD97":161907.16,"N_COORD97":2560278.1899999999,"ADDRESS":"玉成１７０號之３","OBJECTID":168458},"geometry":{"x":161907.16000000015,"y":2560278.1899999995}},{"attributes":{"ID":168460,"DIS_CODE":0,"TOWNNAME":"七股區","LI":"玉成里","LIN":"13鄰","STREET":" ","SECT":" ","MAREA":"玉成","LANE":" ","ALLEY":" ","HOUSE_NO":"１７０號之４","E_COORD97":161904.45999999999,"N_COORD97":2560281.23,"ADDRESS":"玉成１７０號之４","OBJECTID":168459},"geometry":{"x":161904.46000000089,"y":2560281.2300000023}},{"attributes":{"ID":168461,"DIS_CODE":0,"TOWNNAME":"七股區","LI":"玉成里","LIN":"13鄰","STREET":" ","SECT":" ","MAREA":"玉成","LANE":" ","ALLEY":" ","HOUSE_NO":"１７０號之５","E_COORD97":161901.76999999999,"N_COORD97":2560284.2599999998,"ADDRESS":"玉成１７０號之５","OBJECTID":168460},"geometry":{"x":161901.77000000048,"y":2560284.2599999998}},{"attributes":{"ID":168462,"DIS_CODE":0,"TOWNNAME":"七股區","LI":"玉成里","LIN":"13鄰","STREET":" ","SECT":" ","MAREA":"玉成","LANE":" ","ALLEY":" ","HOUSE_NO":"１７０號之６","E_COORD97":161899.07000000001,"N_COORD97":2560287.2999999998,"ADDRESS":"玉成１７０號之６","OBJECTID":168461},"geometry":{"x":161899.07000000123,"y":2560287.3000000026}},{"attributes":{"ID":168463,"DIS_CODE":0,"TOWNNAME":"七股區","LI":"玉成里","LIN":"13鄰","STREET":" ","SECT":" ","MAREA":"玉成","LANE":" ","ALLEY":" ","HOUSE_NO":"１７０號之７","E_COORD97":161896.37,"N_COORD97":2560290.3300000001,"ADDRESS":"玉成１７０號之７","OBJECTID":168462},"geometry":{"x":161896.37000000197,"y":2560290.3300000019}},{"attributes":{"ID":168464,"DIS_CODE":0,"TOWNNAME":"麻豆區","LI":"磚井里","LIN":"13鄰","STREET":" ","SECT":" ","MAREA":"磚子井","LANE":" ","ALLEY":" ","HOUSE_NO":"１２８號之２","E_COORD97":172831.19,"N_COORD97":2563185.0600000001,"ADDRESS":"磚子井１２８號之２","OBJECTID":168463},"geometry":{"x":172831.19000000041,"y":2563185.0600000024}},{"attributes":{"ID":168465,"DIS_CODE":0,"TOWNNAME":"麻豆區","LI":"磚井里","LIN":"13鄰","STREET":" ","SECT":" ","MAREA":"磚子井","LANE":" ","ALLEY":" ","HOUSE_NO":"１２８號","E_COORD97":172848.95999999999,"N_COORD97":2563199.3199999998,"ADDRESS":"磚子井１２８號","OBJECTID":168464},"geometry":{"x":172848.96000000089,"y":2563199.3200000022}},{"attributes":{"ID":168466,"DIS_CODE":0,"TOWNNAME":"仁德區","LI":"後壁里","LIN":"39鄰","STREET":"德糖路","SECT":" ","MAREA":" ","LANE":"４０７巷","ALLEY":" ","HOUSE_NO":"１１號","E_COORD97":173429.42000000001,"N_COORD97":2539058.02,"ADDRESS":"德糖路４０７巷１１號","OBJECTID":168465},"geometry":{"x":173429.41999999993,"y":2539058.0200000014}},{"attributes":{"ID":168467,"DIS_CODE":0,"TOWNNAME":"麻豆區","LI":"磚井里","LIN":"13鄰","STREET":" ","SECT":" ","MAREA":"磚子井","LANE":" ","ALLEY":" ","HOUSE_NO":"１３０號之３","E_COORD97":172831.45999999999,"N_COORD97":2563158.5099999998,"ADDRESS":"磚子井１３０號之３","OBJECTID":168466},"geometry":{"x":172831.46000000089,"y":2563158.5099999998}},{"attributes":{"ID":168468,"DIS_CODE":0,"TOWNNAME":"麻豆區","LI":"磚井里","LIN":"13鄰","STREET":" ","SECT":" ","MAREA":"磚子井","LANE":" ","ALLEY":" ","HOUSE_NO":"１３１號之４","E_COORD97":172820.45999999999,"N_COORD97":2563218.5699999998,"ADDRESS":"磚子井１３１號之４","OBJECTID":168467},"geometry":{"x":172820.45999999996,"y":2563218.5700000022}},{"attributes":{"ID":168469,"DIS_CODE":0,"TOWNNAME":"麻豆區","LI":"磚井里","LIN":"13鄰","STREET":" ","SECT":" ","MAREA":"磚子井","LANE":" ","ALLEY":" ","HOUSE_NO":"１３１號","E_COORD97":172817.76000000001,"N_COORD97":2563225.3199999998,"ADDRESS":"磚子井１３１號","OBJECTID":168468},"geometry":{"x":172817.76000000071,"y":2563225.3199999984}},{"attributes":{"ID":168470,"DIS_CODE":0,"TOWNNAME":"麻豆區","LI":"磚井里","LIN":"13鄰","STREET":" ","SECT":" ","MAREA":"磚子井","LANE":" ","ALLEY":" ","HOUSE_NO":"１３３號之１","E_COORD97":172820.20000000001,"N_COORD97":2563322.0800000001,"ADDRESS":"磚子井１３３號之１","OBJECTID":168469},"geometry":{"x":172820.20000000112,"y":2563322.0800000038}},{"attributes":{"ID":168471,"DIS_CODE":0,"TOWNNAME":"麻豆區","LI":"磚井里","LIN":"13鄰","STREET":" ","SECT":" ","MAREA":"磚子井","LANE":" ","ALLEY":" ","HOUSE_NO":"１３３號之２","E_COORD97":172820.42999999999,"N_COORD97":2563318.1400000001,"ADDRESS":"磚子井１３３號之２","OBJECTID":168470},"geometry":{"x":172820.4299999997,"y":2563318.1400000006}},{"attributes":{"ID":168472,"DIS_CODE":0,"TOWNNAME":"麻豆區","LI":"磚井里","LIN":"13鄰","STREET":" ","SECT":" ","MAREA":"磚子井","LANE":" ","ALLEY":" ","HOUSE_NO":"１３３號之３","E_COORD97":172820.66,"N_COORD97":2563314.2000000002,"ADDRESS":"磚子井１３３號之３","OBJECTID":168471},"geometry":{"x":172820.66000000108,"y":2563314.2000000011}},{"attributes":{"ID":168473,"DIS_CODE":0,"TOWNNAME":"麻豆區","LI":"磚井里","LIN":"13鄰","STREET":" ","SECT":" ","MAREA":"磚子井","LANE":" ","ALLEY":" ","HOUSE_NO":"１３３號之４","E_COORD97":172820.89000000001,"N_COORD97":2563310.2599999998,"ADDRESS":"磚子井１３３號之４","OBJECTID":168472},"geometry":{"x":172820.88999999966,"y":2563310.2600000035}},{"attributes":{"ID":168474,"DIS_CODE":0,"TOWNNAME":"麻豆區","LI":"磚井里","LIN":"13鄰","STREET":" ","SECT":" ","MAREA":"磚子井","LANE":" ","ALLEY":" ","HOUSE_NO":"１３３號之５","E_COORD97":172821.12,"N_COORD97":2563306.3300000001,"ADDRESS":"磚子井１３３號之５","OBJECTID":168473},"geometry":{"x":172821.12000000011,"y":2563306.3299999982}},{"attributes":{"ID":168475,"DIS_CODE":0,"TOWNNAME":"麻豆區","LI":"磚井里","LIN":"13鄰","STREET":" ","SECT":" ","MAREA":"磚子井","LANE":" ","ALLEY":" ","HOUSE_NO":"１３３號","E_COORD97":172824.60000000001,"N_COORD97":2563265.0899999999,"ADDRESS":"磚子井１３３號","OBJECTID":168474},"geometry":{"x":172824.59999999963,"y":2563265.0900000017}},{"attributes":{"ID":168476,"DIS_CODE":0,"TOWNNAME":"麻豆區","LI":"磚井里","LIN":"13鄰","STREET":" ","SECT":" ","MAREA":"磚子井","LANE":" ","ALLEY":" ","HOUSE_NO":"１３４號","E_COORD97":172865.62,"N_COORD97":2563240.4100000001,"ADDRESS":"磚子井１３４號","OBJECTID":168475},"geometry":{"x":172865.62000000011,"y":2563240.4100000001}},{"attributes":{"ID":168477,"DIS_CODE":0,"TOWNNAME":"麻豆區","LI":"磚井里","LIN":"13鄰","STREET":" ","SECT":" ","MAREA":"磚子井","LANE":" ","ALLEY":" ","HOUSE_NO":"１３５號之１","E_COORD97":172882.48999999999,"N_COORD97":2563331.6699999999,"ADDRESS":"磚子井１３５號之１","OBJECTID":168476},"geometry":{"x":172882.49000000115,"y":2563331.6700000018}},{"attributes":{"ID":168478,"DIS_CODE":0,"TOWNNAME":"麻豆區","LI":"磚井里","LIN":"13鄰","STREET":" ","SECT":" ","MAREA":"磚子井","LANE":" ","ALLEY":" ","HOUSE_NO":"１３５號之５","E_COORD97":172832.48000000001,"N_COORD97":2563317.9199999999,"ADDRESS":"磚子井１３５號之５","OBJECTID":168477},"geometry":{"x":172832.48000000045,"y":2563317.9199999999}},{"attributes":{"ID":168479,"DIS_CODE":0,"TOWNNAME":"仁德區","LI":"新田里","LIN":"4鄰","STREET":"勝利路","SECT":" ","MAREA":" ","LANE":"１５０巷","ALLEY":"２弄","HOUSE_NO":"７號","E_COORD97":174375.70000000001,"N_COORD97":2539518.2599999998,"ADDRESS":"勝利路１５０巷２弄７號","OBJECTID":168478},"geometry":{"x":174375.70000000019,"y":2539518.2599999998}},{"attributes":{"ID":168480,"DIS_CODE":0,"TOWNNAME":"仁德區","LI":"後壁里","LIN":"18鄰","STREET":"德南路","SECT":" ","MAREA":" ","LANE":"２２巷","ALLEY":"９弄","HOUSE_NO":"９號","E_COORD97":173314.14999999999,"N_COORD97":2538735.7599999998,"ADDRESS":"德南路２２巷９弄９號","OBJECTID":168479},"geometry":{"x":173314.1500000013,"y":2538735.7599999998}},{"attributes":{"ID":168481,"DIS_CODE":0,"TOWNNAME":"仁德區","LI":"成功里","LIN":"20鄰","STREET":"保生路","SECT":" ","MAREA":" ","LANE":"１２３巷","ALLEY":"６弄","HOUSE_NO":"２之１號","E_COORD97":170610.35000000001,"N_COORD97":2539799.7999999998,"ADDRESS":"保生路１２３巷６弄２之１號","OBJECTID":168480},"geometry":{"x":170610.34999999963,"y":2539799.8000000026}},{"attributes":{"ID":168482,"DIS_CODE":0,"TOWNNAME":"仁德區","LI":"後壁里","LIN":"43鄰","STREET":"德崙路","SECT":" ","MAREA":" ","LANE":"２１巷","ALLEY":"１０弄","HOUSE_NO":"８號","E_COORD97":173305.23000000001,"N_COORD97":2538638.8999999999,"ADDRESS":"德崙路２１巷１０弄８號","OBJECTID":168481},"geometry":{"x":173305.23000000138,"y":2538638.9000000022}},{"attributes":{"ID":168483,"DIS_CODE":0,"TOWNNAME":"仁德區","LI":"後壁里","LIN":"41鄰","STREET":"德善路","SECT":" ","MAREA":" ","LANE":"２７３巷","ALLEY":"７弄","HOUSE_NO":"４號","E_COORD97":173935.67000000001,"N_COORD97":2538702.02,"ADDRESS":"德善路２７３巷７弄４號","OBJECTID":168482},"geometry":{"x":173935.67000000086,"y":2538702.0200000014}},{"attributes":{"ID":168484,"DIS_CODE":0,"TOWNNAME":"仁德區","LI":"後壁里","LIN":"41鄰","STREET":"德善路","SECT":" ","MAREA":" ","LANE":"２７３巷","ALLEY":"６弄","HOUSE_NO":"２０號","E_COORD97":173938.35999999999,"N_COORD97":2538646.3100000001,"ADDRESS":"德善路２７３巷６弄２０號","OBJECTID":168483},"geometry":{"x":173938.36000000127,"y":2538646.3100000024}},{"attributes":{"ID":168485,"DIS_CODE":0,"TOWNNAME":"仁德區","LI":"後壁里","LIN":"39鄰","STREET":"德糖路","SECT":" ","MAREA":" ","LANE":"４０７巷","ALLEY":"１３弄","HOUSE_NO":"３號","E_COORD97":173445.53,"N_COORD97":2539073.77,"ADDRESS":"德糖路４０７巷１３弄３號","OBJECTID":168484},"geometry":{"x":173445.53000000119,"y":2539073.7699999996}},{"attributes":{"ID":168486,"DIS_CODE":0,"TOWNNAME":"仁德區","LI":"後壁里","LIN":"32鄰","STREET":"德洋路","SECT":" ","MAREA":" ","LANE":"２０５巷","ALLEY":"３０弄","HOUSE_NO":"１號","E_COORD97":172409.38,"N_COORD97":2539530.0099999998,"ADDRESS":"德洋路２０５巷３０弄１號","OBJECTID":168485},"geometry":{"x":172409.37999999989,"y":2539530.0099999998}},{"attributes":{"ID":168487,"DIS_CODE":0,"TOWNNAME":"仁德區","LI":"保安里","LIN":"4鄰","STREET":"文賢路","SECT":"一段","MAREA":" ","LANE":"８６２巷","ALLEY":"６弄","HOUSE_NO":"５號","E_COORD97":171436.35000000001,"N_COORD97":2536104.0699999998,"ADDRESS":"文賢路一段８６２巷６弄５號","OBJECTID":168486},"geometry":{"x":171436.3499999987,"y":2536104.070000004}},{"attributes":{"ID":168488,"DIS_CODE":0,"TOWNNAME":"仁德區","LI":"後壁里","LIN":"18鄰","STREET":"德南路","SECT":" ","MAREA":" ","LANE":"２２巷","ALLEY":"９弄","HOUSE_NO":"１９號","E_COORD97":173334.82000000001,"N_COORD97":2538721.0099999998,"ADDRESS":"德南路２２巷９弄１９號","OBJECTID":168487},"geometry":{"x":173334.82000000123,"y":2538721.0099999998}},{"attributes":{"ID":168489,"DIS_CODE":0,"TOWNNAME":"仁德區","LI":"後壁里","LIN":"32鄰","STREET":"德洋路","SECT":" ","MAREA":" ","LANE":"２０５巷","ALLEY":"１０弄","HOUSE_NO":"６號","E_COORD97":172489.79999999999,"N_COORD97":2539534.2599999998,"ADDRESS":"德洋路２０５巷１０弄６號","OBJECTID":168488},"geometry":{"x":172489.80000000168,"y":2539534.2600000016}},{"attributes":{"ID":168490,"DIS_CODE":0,"TOWNNAME":"仁德區","LI":"仁愛里","LIN":"18鄰","STREET":"保仁路","SECT":" ","MAREA":" ","LANE":"１２０巷","ALLEY":"１１６弄","HOUSE_NO":"１６號","E_COORD97":170200.01999999999,"N_COORD97":2540244.9399999999,"ADDRESS":"保仁路１２０巷１１６弄１６號","OBJECTID":168489},"geometry":{"x":170200.02000000048,"y":2540244.9400000013}},{"attributes":{"ID":168491,"DIS_CODE":0,"TOWNNAME":"仁德區","LI":"後壁里","LIN":"42鄰","STREET":"德崙路","SECT":" ","MAREA":" ","LANE":"４８巷","ALLEY":"１５弄","HOUSE_NO":"１７號","E_COORD97":173361.12,"N_COORD97":2538490.0099999998,"ADDRESS":"德崙路４８巷１５弄１７號","OBJECTID":168490},"geometry":{"x":173361.12000000104,"y":2538490.0099999998}},{"attributes":{"ID":168492,"DIS_CODE":0,"TOWNNAME":"仁德區","LI":"新田里","LIN":"4鄰","STREET":"勝利路","SECT":" ","MAREA":" ","LANE":"１５０巷","ALLEY":"３弄","HOUSE_NO":"４號","E_COORD97":174404.32000000001,"N_COORD97":2539510.77,"ADDRESS":"勝利路１５０巷３弄４號","OBJECTID":168491},"geometry":{"x":174404.32000000123,"y":2539510.7700000014}},{"attributes":{"ID":168493,"DIS_CODE":0,"TOWNNAME":"仁德區","LI":"後壁里","LIN":"41鄰","STREET":"德善路","SECT":" ","MAREA":" ","LANE":"２７３巷","ALLEY":"７弄","HOUSE_NO":"７號","E_COORD97":173922.37,"N_COORD97":2538694.1699999999,"ADDRESS":"德善路２７３巷７弄７號","OBJECTID":168492},"geometry":{"x":173922.37000000104,"y":2538694.1700000018}},{"attributes":{"ID":168494,"DIS_CODE":0,"TOWNNAME":"仁德區","LI":"後壁里","LIN":"41鄰","STREET":"德善路","SECT":" ","MAREA":" ","LANE":"２７３巷","ALLEY":"７弄","HOUSE_NO":"１號","E_COORD97":173932.59,"N_COORD97":2538687.4100000001,"ADDRESS":"德善路２７３巷７弄１號","OBJECTID":168493},"geometry":{"x":173932.59000000078,"y":2538687.4100000001}},{"attributes":{"ID":168495,"DIS_CODE":0,"TOWNNAME":"仁德區","LI":"後壁里","LIN":"41鄰","STREET":"德善路","SECT":" ","MAREA":" ","LANE":"２７３巷","ALLEY":"７弄","HOUSE_NO":"６號","E_COORD97":173932.14999999999,"N_COORD97":2538704.27,"ADDRESS":"德善路２７３巷７弄６號","OBJECTID":168494},"geometry":{"x":173932.14999999944,"y":2538704.2699999996}},{"attributes":{"ID":168496,"DIS_CODE":0,"TOWNNAME":"麻豆區","LI":"東角里","LIN":"12鄰","STREET":"同仁街","SECT":" ","MAREA":" ","LANE":" ","ALLEY":" ","HOUSE_NO":"１號","E_COORD97":173808,"N_COORD97":2564764.73,"ADDRESS":"同仁街１號","OBJECTID":168495},"geometry":{"x":173808.00000000093,"y":2564764.7300000004}},{"attributes":{"ID":168497,"DIS_CODE":0,"TOWNNAME":"仁德區","LI":"仁愛里","LIN":"18鄰","STREET":"保仁路","SECT":" ","MAREA":" ","LANE":"１２０巷","ALLEY":"１１８弄","HOUSE_NO":"３６號","E_COORD97":170222.75,"N_COORD97":2540278.9649999999,"ADDRESS":"保仁路１２０巷１１８弄３６號","OBJECTID":168496},"geometry":{"x":170222.75000000093,"y":2540278.9649999999}},{"attributes":{"ID":168498,"DIS_CODE":0,"TOWNNAME":"麻豆區","LI":"東角里","LIN":"12鄰","STREET":"同仁街","SECT":" ","MAREA":" ","LANE":" ","ALLEY":" ","HOUSE_NO":"２號之３","E_COORD97":173759.97,"N_COORD97":2564776.0499999998,"ADDRESS":"同仁街２號之３","OBJECTID":168497},"geometry":{"x":173759.9700000016,"y":2564776.0500000007}},{"attributes":{"ID":168499,"DIS_CODE":0,"TOWNNAME":"麻豆區","LI":"東角里","LIN":"12鄰","STREET":"同仁街","SECT":" ","MAREA":" ","LANE":" ","ALLEY":" ","HOUSE_NO":"２號之５","E_COORD97":173759.10999999999,"N_COORD97":2564786.7000000002,"ADDRESS":"同仁街２號之５","OBJECTID":168498},"geometry":{"x":173759.11000000034,"y":2564786.6999999993}},{"attributes":{"ID":168500,"DIS_CODE":0,"TOWNNAME":"麻豆區","LI":"東角里","LIN":"12鄰","STREET":"同仁街","SECT":" ","MAREA":" ","LANE":" ","ALLEY":" ","HOUSE_NO":"２號","E_COORD97":173767.29999999999,"N_COORD97":2564758.75,"ADDRESS":"同仁街２號","OBJECTID":168499},"geometry":{"x":173767.29999999981,"y":2564758.7500000019}},{"attributes":{"ID":168501,"DIS_CODE":0,"TOWNNAME":"六甲區","LI":"二甲里","LIN":"12鄰","STREET":"民權街","SECT":" ","MAREA":" ","LANE":" ","ALLEY":" ","HOUSE_NO":"２５０號","E_COORD97":183011.66,"N_COORD97":2569762.5499999998,"ADDRESS":"民權街２５０號","OBJECTID":168500},"geometry":{"x":183011.66000000108,"y":2569762.5500000026}},{"attributes":{"ID":168502,"DIS_CODE":0,"TOWNNAME":"六甲區","LI":"二甲里","LIN":"12鄰","STREET":"民權街","SECT":" ","MAREA":" ","LANE":" ","ALLEY":" ","HOUSE_NO":"２５２號","E_COORD97":183005.51000000001,"N_COORD97":2569764.3199999998,"ADDRESS":"民權街２５２號","OBJECTID":168501},"geometry":{"x":183005.51000000071,"y":2569764.3200000003}},{"attributes":{"ID":168503,"DIS_CODE":0,"TOWNNAME":"六甲區","LI":"二甲里","LIN":"12鄰","STREET":"民權街","SECT":" ","MAREA":" ","LANE":" ","ALLEY":" ","HOUSE_NO":"２５４號","E_COORD97":183001.37,"N_COORD97":2569765.5299999998,"ADDRESS":"民權街２５４號","OBJECTID":168502},"geometry":{"x":183001.36999999918,"y":2569765.5299999993}},{"attributes":{"ID":168504,"DIS_CODE":0,"TOWNNAME":"六甲區","LI":"二甲里","LIN":"12鄰","STREET":"民權街","SECT":" ","MAREA":" ","LANE":" ","ALLEY":" ","HOUSE_NO":"２６０號","E_COORD97":182990.10000000001,"N_COORD97":2569769.7000000002,"ADDRESS":"民權街２６０號","OBJECTID":168503},"geometry":{"x":182990.09999999963,"y":2569769.7000000011}},{"attributes":{"ID":168505,"DIS_CODE":0,"TOWNNAME":"六甲區","LI":"甲南里","LIN":"12鄰","STREET":"永安街","SECT":" ","MAREA":" ","LANE":" ","ALLEY":" ","HOUSE_NO":"１５號","E_COORD97":183896.82000000001,"N_COORD97":2569834.2999999998,"ADDRESS":"永安街１５號","OBJECTID":168504},"geometry":{"x":183896.8200000003,"y":2569834.3000000026}},{"attributes":{"ID":168506,"DIS_CODE":0,"TOWNNAME":"六甲區","LI":"中社里","LIN":"12鄰","STREET":" ","SECT":" ","MAREA":"港子頭","LANE":" ","ALLEY":" ","HOUSE_NO":"１２號","E_COORD97":180959.13,"N_COORD97":2571325.1800000002,"ADDRESS":"港子頭１２號","OBJECTID":168505},"geometry":{"x":180959.13000000082,"y":2571325.1799999978}},{"attributes":{"ID":168507,"DIS_CODE":0,"TOWNNAME":"麻豆區","LI":"磚井里","LIN":"13鄰","STREET":" ","SECT":" ","MAREA":"磚子井","LANE":" ","ALLEY":" ","HOUSE_NO":"１３６號之１","E_COORD97":172749.79999999999,"N_COORD97":2563277.7400000002,"ADDRESS":"磚子井１３６號之１","OBJECTID":168506},"geometry":{"x":172749.80000000075,"y":2563277.7400000021}},{"attributes":{"ID":168508,"DIS_CODE":0,"TOWNNAME":"麻豆區","LI":"磚井里","LIN":"13鄰","STREET":" ","SECT":" ","MAREA":"磚子井","LANE":" ","ALLEY":" ","HOUSE_NO":"１３６號之２","E_COORD97":172789.20999999999,"N_COORD97":2563309.8399999999,"ADDRESS":"磚子井１３６號之２","OBJECTID":168507},"geometry":{"x":172789.21000000089,"y":2563309.8400000036}},{"attributes":{"ID":168509,"DIS_CODE":0,"TOWNNAME":"麻豆區","LI":"磚井里","LIN":"13鄰","STREET":" ","SECT":" ","MAREA":"磚子井","LANE":" ","ALLEY":" ","HOUSE_NO":"１３６號","E_COORD97":172791.72,"N_COORD97":2563303.52,"ADDRESS":"磚子井１３６號","OBJECTID":168508},"geometry":{"x":172791.71999999974,"y":2563303.5199999996}},{"attributes":{"ID":168510,"DIS_CODE":0,"TOWNNAME":"麻豆區","LI":"磚井里","LIN":"13鄰","STREET":" ","SECT":" ","MAREA":"磚子井","LANE":" ","ALLEY":" ","HOUSE_NO":"１３７號之１","E_COORD97":172785.88,"N_COORD97":2563262.9100000001,"ADDRESS":"磚子井１３７號之１","OBJECTID":168509},"geometry":{"x":172785.88000000175,"y":2563262.910000002}},{"attributes":{"ID":168511,"DIS_CODE":0,"TOWNNAME":"麻豆區","LI":"磚井里","LIN":"13鄰","STREET":" ","SECT":" ","MAREA":"磚子井","LANE":" ","ALLEY":" ","HOUSE_NO":"１３７號之２","E_COORD97":172786.82000000001,"N_COORD97":2563259.6899999999,"ADDRESS":"磚子井１３７號之２","OBJECTID":168510},"geometry":{"x":172786.82000000216,"y":2563259.6900000013}},{"attributes":{"ID":168512,"DIS_CODE":0,"TOWNNAME":"麻豆區","LI":"磚井里","LIN":"13鄰","STREET":" ","SECT":" ","MAREA":"磚子井","LANE":" ","ALLEY":" ","HOUSE_NO":"１３７號之３","E_COORD97":172784.98000000001,"N_COORD97":2563268.2999999998,"ADDRESS":"磚子井１３７號之３","OBJECTID":168511},"geometry":{"x":172784.98000000138,"y":2563268.3000000026}},{"attributes":{"ID":168513,"DIS_CODE":0,"TOWNNAME":"麻豆區","LI":"磚井里","LIN":"13鄰","STREET":" ","SECT":" ","MAREA":"磚子井","LANE":" ","ALLEY":" ","HOUSE_NO":"１３７號之５","E_COORD97":172776.79999999999,"N_COORD97":2563214.6299999999,"ADDRESS":"磚子井１３７號之５","OBJECTID":168512},"geometry":{"x":172776.80000000075,"y":2563214.629999999}},{"attributes":{"ID":168514,"DIS_CODE":0,"TOWNNAME":"麻豆區","LI":"磚井里","LIN":"13鄰","STREET":" ","SECT":" ","MAREA":"磚子井","LANE":" ","ALLEY":" ","HOUSE_NO":"１３７號","E_COORD97":172789.23999999999,"N_COORD97":2563289.1899999999,"ADDRESS":"磚子井１３７號","OBJECTID":168513},"geometry":{"x":172789.24000000115,"y":2563289.1899999995}},{"attributes":{"ID":168515,"DIS_CODE":0,"TOWNNAME":"麻豆區","LI":"磚井里","LIN":"13鄰","STREET":" ","SECT":" ","MAREA":"磚子井","LANE":" ","ALLEY":" ","HOUSE_NO":"１３８號之１","E_COORD97":172782.98000000001,"N_COORD97":2563486,"ADDRESS":"磚子井１３８號之１","OBJECTID":168514},"geometry":{"x":172782.98000000138,"y":2563486.0000000019}},{"attributes":{"ID":168516,"DIS_CODE":0,"TOWNNAME":"六甲區","LI":"王爺里","LIN":"12鄰","STREET":" ","SECT":" ","MAREA":"東高蚋","LANE":" ","ALLEY":" ","HOUSE_NO":"１７號","E_COORD97":188497.13,"N_COORD97":2568473.02,"ADDRESS":"東高蚋１７號","OBJECTID":168515},"geometry":{"x":188497.13000000082,"y":2568473.0200000014}},{"attributes":{"ID":168517,"DIS_CODE":0,"TOWNNAME":"六甲區","LI":"王爺里","LIN":"12鄰","STREET":" ","SECT":" ","MAREA":"東高蚋","LANE":" ","ALLEY":" ","HOUSE_NO":"１８號之１","E_COORD97":188465.60999999999,"N_COORD97":2568460.04,"ADDRESS":"東高蚋１８號之１","OBJECTID":168516},"geometry":{"x":188465.61000000127,"y":2568460.0399999991}},{"attributes":{"ID":168518,"DIS_CODE":0,"TOWNNAME":"六甲區","LI":"王爺里","LIN":"12鄰","STREET":" ","SECT":" ","MAREA":"東高蚋","LANE":" ","ALLEY":" ","HOUSE_NO":"１８號","E_COORD97":188523.23000000001,"N_COORD97":2568261.6000000001,"ADDRESS":"東高蚋１８號","OBJECTID":168517},"geometry":{"x":188523.23000000045,"y":2568261.6000000015}},{"attributes":{"ID":168519,"DIS_CODE":0,"TOWNNAME":"六甲區","LI":"甲東里","LIN":"12鄰","STREET":"忠孝街","SECT":" ","MAREA":" ","LANE":" ","ALLEY":" ","HOUSE_NO":"１９６號","E_COORD97":184050.73000000001,"N_COORD97":2569990.7599999998,"ADDRESS":"忠孝街１９６號","OBJECTID":168518},"geometry":{"x":184050.73000000138,"y":2569990.7600000016}},{"attributes":{"ID":168520,"DIS_CODE":0,"TOWNNAME":"仁德區","LI":"仁德里","LIN":"1鄰","STREET":"中正路","SECT":"二段","MAREA":" ","LANE":"６７９巷","ALLEY":"１４弄","HOUSE_NO":"８號","E_COORD97":173429.92720999999,"N_COORD97":2540118.84479,"ADDRESS":"中正路二段６７９巷１４弄８號","OBJECTID":168519},"geometry":{"x":173429.92721000127,"y":2540118.8447900023}},{"attributes":{"ID":168521,"DIS_CODE":0,"TOWNNAME":"仁德區","LI":"新田里","LIN":"4鄰","STREET":"勝利路","SECT":" ","MAREA":" ","LANE":"１３２巷","ALLEY":"１２弄","HOUSE_NO":"１６號","E_COORD97":174322.78208999999,"N_COORD97":2539439.1097499998,"ADDRESS":"勝利路１３２巷１２弄１６號","OBJECTID":168520},"geometry":{"x":174322.78208999988,"y":2539439.1097490024}},{"attributes":{"ID":168522,"DIS_CODE":0,"TOWNNAME":"仁德區","LI":"後壁里","LIN":"39鄰","STREET":"德糖路","SECT":" ","MAREA":" ","LANE":"４０７巷","ALLEY":"１３弄","HOUSE_NO":"５號","E_COORD97":173450.16,"N_COORD97":2539077.77,"ADDRESS":"德糖路４０７巷１３弄５號","OBJECTID":168521},"geometry":{"x":173450.16000000015,"y":2539077.7699999996}},{"attributes":{"ID":168523,"DIS_CODE":0,"TOWNNAME":"仁德區","LI":"新田里","LIN":"4鄰","STREET":"勝利路","SECT":" ","MAREA":" ","LANE":"１５０巷","ALLEY":"３弄","HOUSE_NO":"１５號","E_COORD97":174436.10999999999,"N_COORD97":2539513.27,"ADDRESS":"勝利路１５０巷３弄１５號","OBJECTID":168522},"geometry":{"x":174436.11000000127,"y":2539513.2700000014}},{"attributes":{"ID":168524,"DIS_CODE":0,"TOWNNAME":"仁德區","LI":"後壁里","LIN":"39鄰","STREET":"德糖路","SECT":" ","MAREA":" ","LANE":"４０７巷","ALLEY":"１３弄","HOUSE_NO":"９號","E_COORD97":173458.41,"N_COORD97":2539087.02,"ADDRESS":"德糖路４０７巷１３弄９號","OBJECTID":168523},"geometry":{"x":173458.41000000015,"y":2539087.0199999977}},{"attributes":{"ID":168525,"DIS_CODE":0,"TOWNNAME":"仁德區","LI":"後壁里","LIN":"42鄰","STREET":"德崙路","SECT":" ","MAREA":" ","LANE":"４８巷","ALLEY":"１５弄","HOUSE_NO":"９號","E_COORD97":173336.20000000001,"N_COORD97":2538496.0099999998,"ADDRESS":"德崙路４８巷１５弄９號","OBJECTID":168524},"geometry":{"x":173336.20000000019,"y":2538496.0099999998}},{"attributes":{"ID":168526,"DIS_CODE":0,"TOWNNAME":"仁德區","LI":"後壁里","LIN":"41鄰","STREET":"德善路","SECT":" ","MAREA":" ","LANE":"２５１巷","ALLEY":"７弄","HOUSE_NO":"２３號","E_COORD97":173852.84,"N_COORD97":2538741.75,"ADDRESS":"德善路２５１巷７弄２３號","OBJECTID":168525},"geometry":{"x":173852.84000000078,"y":2538741.7500000019}},{"attributes":{"ID":168527,"DIS_CODE":0,"TOWNNAME":"仁德區","LI":"新田里","LIN":"4鄰","STREET":"勝利路","SECT":" ","MAREA":" ","LANE":"１５０巷","ALLEY":"３弄","HOUSE_NO":"１４號","E_COORD97":174430.28,"N_COORD97":2539507.27,"ADDRESS":"勝利路１５０巷３弄１４號","OBJECTID":168526},"geometry":{"x":174430.28000000119,"y":2539507.2700000014}},{"attributes":{"ID":168528,"DIS_CODE":0,"TOWNNAME":"六甲區","LI":"王爺里","LIN":"12鄰","STREET":" ","SECT":" ","MAREA":"東高蚋","LANE":" ","ALLEY":" ","HOUSE_NO":"１９號","E_COORD97":188427.03,"N_COORD97":2568475.4300000002,"ADDRESS":"東高蚋１９號","OBJECTID":168527},"geometry":{"x":188427.03000000119,"y":2568475.4299999997}},{"attributes":{"ID":168529,"DIS_CODE":0,"TOWNNAME":"六甲區","LI":"王爺里","LIN":"12鄰","STREET":" ","SECT":" ","MAREA":"東高蚋","LANE":" ","ALLEY":" ","HOUSE_NO":"５號","E_COORD97":188489.17000000001,"N_COORD97":2568501.77,"ADDRESS":"東高蚋５號","OBJECTID":168528},"geometry":{"x":188489.16999999993,"y":2568501.7700000014}},{"attributes":{"ID":168530,"DIS_CODE":0,"TOWNNAME":"六甲區","LI":"王爺里","LIN":"12鄰","STREET":" ","SECT":" ","MAREA":"東高蚋","LANE":" ","ALLEY":" ","HOUSE_NO":"６號","E_COORD97":188511.38,"N_COORD97":2568507.0299999998,"ADDRESS":"東高蚋６號","OBJECTID":168529},"geometry":{"x":188511.37999999989,"y":2568507.0299999993}},{"attributes":{"ID":168531,"DIS_CODE":0,"TOWNNAME":"六甲區","LI":"王爺里","LIN":"12鄰","STREET":" ","SECT":" ","MAREA":"東高蚋","LANE":" ","ALLEY":" ","HOUSE_NO":"７號","E_COORD97":188454.82999999999,"N_COORD97":2568503.0499999998,"ADDRESS":"東高蚋７號","OBJECTID":168530},"geometry":{"x":188454.83000000007,"y":2568503.0499999989}},{"attributes":{"ID":168532,"DIS_CODE":0,"TOWNNAME":"六甲區","LI":"王爺里","LIN":"12鄰","STREET":" ","SECT":" ","MAREA":"東高蚋","LANE":" ","ALLEY":" ","HOUSE_NO":"８號","E_COORD97":188456.19,"N_COORD97":2568483.7999999998,"ADDRESS":"東高蚋８號","OBJECTID":168531},"geometry":{"x":188456.19000000041,"y":2568483.8000000007}},{"attributes":{"ID":168533,"DIS_CODE":0,"TOWNNAME":"六甲區","LI":"王爺里","LIN":"12鄰","STREET":" ","SECT":" ","MAREA":"東高蚋","LANE":" ","ALLEY":" ","HOUSE_NO":"９號","E_COORD97":188477.84,"N_COORD97":2568483.7200000002,"ADDRESS":"東高蚋９號","OBJECTID":168532},"geometry":{"x":188477.83999999985,"y":2568483.7200000007}},{"attributes":{"ID":168534,"DIS_CODE":0,"TOWNNAME":"仁德區","LI":"三甲里","LIN":"1鄰","STREET":" ","SECT":" ","MAREA":"三甲子","LANE":" ","ALLEY":" ","HOUSE_NO":"６號","E_COORD97":171907.63,"N_COORD97":2537190,"ADDRESS":"三甲子６號","OBJECTID":168533},"geometry":{"x":171907.62999999989,"y":2537190.0000000019}},{"attributes":{"ID":168535,"DIS_CODE":0,"TOWNNAME":"六甲區","LI":"中社里","LIN":"12鄰","STREET":" ","SECT":" ","MAREA":"港子頭","LANE":" ","ALLEY":" ","HOUSE_NO":"１０號","E_COORD97":180954.29999999999,"N_COORD97":2571315.27,"ADDRESS":"港子頭１０號","OBJECTID":168534},"geometry":{"x":180954.30000000075,"y":2571315.2700000014}},{"attributes":{"ID":168536,"DIS_CODE":0,"TOWNNAME":"六甲區","LI":"中社里","LIN":"12鄰","STREET":" ","SECT":" ","MAREA":"港子頭","LANE":" ","ALLEY":" ","HOUSE_NO":"１３號","E_COORD97":181006.20000000001,"N_COORD97":2571324.29,"ADDRESS":"港子頭１３號","OBJECTID":168535},"geometry":{"x":181006.20000000112,"y":2571324.2900000028}},{"attributes":{"ID":168537,"DIS_CODE":0,"TOWNNAME":"六甲區","LI":"中社里","LIN":"12鄰","STREET":" ","SECT":" ","MAREA":"港子頭","LANE":" ","ALLEY":" ","HOUSE_NO":"１５號","E_COORD97":180989.85999999999,"N_COORD97":2571319.54,"ADDRESS":"港子頭１５號","OBJECTID":168536},"geometry":{"x":180989.86000000127,"y":2571319.540000001}},{"attributes":{"ID":168538,"DIS_CODE":0,"TOWNNAME":"仁德區","LI":"新田里","LIN":"4鄰","STREET":"勝利路","SECT":" ","MAREA":" ","LANE":"１５０巷","ALLEY":"３弄","HOUSE_NO":"９號","E_COORD97":174420.26999999999,"N_COORD97":2539518.7599999998,"ADDRESS":"勝利路１５０巷３弄９號","OBJECTID":168537},"geometry":{"x":174420.26999999955,"y":2539518.7599999998}},{"attributes":{"ID":168539,"DIS_CODE":0,"TOWNNAME":"仁德區","LI":"新田里","LIN":"4鄰","STREET":"勝利路","SECT":" ","MAREA":" ","LANE":"１３２巷","ALLEY":"１２弄","HOUSE_NO":"２６號","E_COORD97":174365.81542299999,"N_COORD97":2539429.23765,"ADDRESS":"勝利路１３２巷１２弄２６號","OBJECTID":168538},"geometry":{"x":174365.8154230006,"y":2539429.2376540042}},{"attributes":{"ID":168540,"DIS_CODE":0,"TOWNNAME":"仁德區","LI":"新田里","LIN":"4鄰","STREET":"勝利路","SECT":" ","MAREA":" ","LANE":"１３２巷","ALLEY":"１０弄","HOUSE_NO":"３９號","E_COORD97":174400.78,"N_COORD97":2539480.6600000001,"ADDRESS":"勝利路１３２巷１０弄３９號","OBJECTID":168539},"geometry":{"x":174400.78000000212,"y":2539480.660000002}},{"attributes":{"ID":168541,"DIS_CODE":0,"TOWNNAME":"仁德區","LI":"新田里","LIN":"4鄰","STREET":"勝利路","SECT":" ","MAREA":" ","LANE":"１３２巷","ALLEY":"１０弄","HOUSE_NO":"２８號","E_COORD97":174348.76999999999,"N_COORD97":2539474.4100000001,"ADDRESS":"勝利路１３２巷１０弄２８號","OBJECTID":168540},"geometry":{"x":174348.76999999955,"y":2539474.4100000001}},{"attributes":{"ID":168542,"DIS_CODE":0,"TOWNNAME":"仁德區","LI":"新田里","LIN":"4鄰","STREET":"勝利路","SECT":" ","MAREA":" ","LANE":"１３２巷","ALLEY":"１２弄","HOUSE_NO":"１４號","E_COORD97":174307.95796900001,"N_COORD97":2539439.8505799999,"ADDRESS":"勝利路１３２巷１２弄１４號","OBJECTID":168541},"geometry":{"x":174307.95796900056,"y":2539439.8505820036}},{"attributes":{"ID":168543,"DIS_CODE":0,"TOWNNAME":"仁德區","LI":"新田里","LIN":"4鄰","STREET":"勝利路","SECT":" ","MAREA":" ","LANE":"１３２巷","ALLEY":"１２弄","HOUSE_NO":"４０號","E_COORD97":174428.24512100001,"N_COORD97":2539416.8847599998,"ADDRESS":"勝利路１３２巷１２弄４０號","OBJECTID":168542},"geometry":{"x":174428.24512100033,"y":2539416.8847610019}},{"attributes":{"ID":168544,"DIS_CODE":0,"TOWNNAME":"仁德區","LI":"新田里","LIN":"4鄰","STREET":"勝利路","SECT":" ","MAREA":" ","LANE":"１３２巷","ALLEY":"１０弄","HOUSE_NO":"４６號","E_COORD97":174406.39000000001,"N_COORD97":2539465.1600000001,"ADDRESS":"勝利路１３２巷１０弄４６號","OBJECTID":168543},"geometry":{"x":174406.3900000006,"y":2539465.1600000001}},{"attributes":{"ID":168545,"DIS_CODE":0,"TOWNNAME":"仁德區","LI":"後壁里","LIN":"18鄰","STREET":"德南路","SECT":" ","MAREA":" ","LANE":"２２巷","ALLEY":"９弄","HOUSE_NO":"１７號","E_COORD97":173331.19,"N_COORD97":2538724.5099999998,"ADDRESS":"德南路２２巷９弄１７號","OBJECTID":168544},"geometry":{"x":173331.19000000041,"y":2538724.5099999979}},{"attributes":{"ID":168546,"DIS_CODE":0,"TOWNNAME":"仁德區","LI":"後壁里","LIN":"32鄰","STREET":"德洋路","SECT":" ","MAREA":" ","LANE":"２０５巷","ALLEY":"３０弄","HOUSE_NO":"２號","E_COORD97":172421.89000000001,"N_COORD97":2539529.2599999998,"ADDRESS":"德洋路２０５巷３０弄２號","OBJECTID":168545},"geometry":{"x":172421.8900000006,"y":2539529.2599999998}},{"attributes":{"ID":168547,"DIS_CODE":0,"TOWNNAME":"安南區","LI":"理想里","LIN":"4鄰","STREET":"海佃路","SECT":"二段","MAREA":" ","LANE":"３４２巷","ALLEY":"２１弄","HOUSE_NO":"１０號","E_COORD97":166958.75,"N_COORD97":2548591.6699999999,"ADDRESS":"海佃路二段３４２巷２１弄１０號","OBJECTID":168546},"geometry":{"x":166958.74999999907,"y":2548591.6699999999}},{"attributes":{"ID":168548,"DIS_CODE":0,"TOWNNAME":"安南區","LI":"理想里","LIN":"4鄰","STREET":"海佃路","SECT":"二段","MAREA":" ","LANE":"３４２巷","ALLEY":"２１弄","HOUSE_NO":"１１號","E_COORD97":166944.79999999999,"N_COORD97":2548609.4199999999,"ADDRESS":"海佃路二段３４２巷２１弄１１號","OBJECTID":168547},"geometry":{"x":166944.80000000168,"y":2548609.4200000018}},{"attributes":{"ID":168549,"DIS_CODE":0,"TOWNNAME":"安南區","LI":"理想里","LIN":"4鄰","STREET":"海佃路","SECT":"二段","MAREA":" ","LANE":"３４２巷","ALLEY":"２１弄","HOUSE_NO":"１２號","E_COORD97":166962.09,"N_COORD97":2548595.3799999999,"ADDRESS":"海佃路二段３４２巷２１弄１２號","OBJECTID":168548},"geometry":{"x":166962.09000000078,"y":2548595.3800000008}},{"attributes":{"ID":168550,"DIS_CODE":0,"TOWNNAME":"六甲區","LI":"中社里","LIN":"12鄰","STREET":" ","SECT":" ","MAREA":"港子頭","LANE":" ","ALLEY":" ","HOUSE_NO":"１６號","E_COORD97":181015.57999999999,"N_COORD97":2571320.1800000002,"ADDRESS":"港子頭１６號","OBJECTID":168549},"geometry":{"x":181015.58000000101,"y":2571320.1800000016}},{"attributes":{"ID":168551,"DIS_CODE":0,"TOWNNAME":"六甲區","LI":"中社里","LIN":"12鄰","STREET":" ","SECT":" ","MAREA":"港子頭","LANE":" ","ALLEY":" ","HOUSE_NO":"１７號","E_COORD97":181038.04999999999,"N_COORD97":2571501.4300000002,"ADDRESS":"港子頭１７號","OBJECTID":168550},"geometry":{"x":181038.04999999981,"y":2571501.4300000016}},{"attributes":{"ID":168552,"DIS_CODE":0,"TOWNNAME":"麻豆區","LI":"磚井里","LIN":"13鄰","STREET":" ","SECT":" ","MAREA":"磚子井","LANE":" ","ALLEY":" ","HOUSE_NO":"１３８號之２","E_COORD97":172794.95999999999,"N_COORD97":2563547.6699999999,"ADDRESS":"磚子井１３８號之２","OBJECTID":168551},"geometry":{"x":172794.95999999996,"y":2563547.6699999999}},{"attributes":{"ID":168553,"DIS_CODE":0,"TOWNNAME":"麻豆區","LI":"磚井里","LIN":"13鄰","STREET":" ","SECT":" ","MAREA":"磚子井","LANE":" ","ALLEY":" ","HOUSE_NO":"１３８號之３","E_COORD97":172794.89000000001,"N_COORD97":2563551.9100000001,"ADDRESS":"磚子井１３８號之３","OBJECTID":168552},"geometry":{"x":172794.8900000006,"y":2563551.9100000001}},{"attributes":{"ID":168554,"DIS_CODE":0,"TOWNNAME":"麻豆區","LI":"磚井里","LIN":"13鄰","STREET":" ","SECT":" ","MAREA":"磚子井","LANE":" ","ALLEY":" ","HOUSE_NO":"１３８號之６","E_COORD97":172730.42000000001,"N_COORD97":2563427.6400000001,"ADDRESS":"磚子井１３８號之６","OBJECTID":168553},"geometry":{"x":172730.42000000086,"y":2563427.6400000025}},{"attributes":{"ID":168555,"DIS_CODE":0,"TOWNNAME":"新營區","LI":"姑爺里","LIN":"11鄰","STREET":" ","SECT":" ","MAREA":"挖仔","LANE":" ","ALLEY":" ","HOUSE_NO":"４３號之１４","E_COORD97":173948.85000000001,"N_COORD97":2575485.1099999999,"ADDRESS":"挖仔４３之１４號","OBJECTID":168554},"geometry":{"x":173948.85000000149,"y":2575485.1099999994}},{"attributes":{"ID":168556,"DIS_CODE":0,"TOWNNAME":"麻豆區","LI":"磚井里","LIN":"13鄰","STREET":" ","SECT":" ","MAREA":"磚子井","LANE":" ","ALLEY":" ","HOUSE_NO":"１３８號之８","E_COORD97":172696.53,"N_COORD97":2563516.23,"ADDRESS":"磚子井１３８號之８","OBJECTID":168555},"geometry":{"x":172696.53000000026,"y":2563516.2300000004}},{"attributes":{"ID":168557,"DIS_CODE":0,"TOWNNAME":"安南區","LI":"理想里","LIN":"4鄰","STREET":"海佃路","SECT":"二段","MAREA":" ","LANE":"３４２巷","ALLEY":"２１弄","HOUSE_NO":"１４號","E_COORD97":166966.14999999999,"N_COORD97":2548597.27,"ADDRESS":"海佃路二段３４２巷２１弄１４號","OBJECTID":168556},"geometry":{"x":166966.15000000037,"y":2548597.2699999996}},{"attributes":{"ID":168558,"DIS_CODE":0,"TOWNNAME":"安南區","LI":"理想里","LIN":"4鄰","STREET":"海佃路","SECT":"二段","MAREA":" ","LANE":"３４２巷","ALLEY":"２１弄","HOUSE_NO":"１５號","E_COORD97":166952.37,"N_COORD97":2548614.2799999998,"ADDRESS":"海佃路二段３４２巷２１弄１５號","OBJECTID":168557},"geometry":{"x":166952.37000000011,"y":2548614.2799999993}},{"attributes":{"ID":168559,"DIS_CODE":0,"TOWNNAME":"安南區","LI":"理想里","LIN":"4鄰","STREET":"海佃路","SECT":"二段","MAREA":" ","LANE":"３４２巷","ALLEY":"２１弄","HOUSE_NO":"１６號","E_COORD97":166971.54999999999,"N_COORD97":2548599.4300000002,"ADDRESS":"海佃路二段３４２巷２１弄１６號","OBJECTID":168558},"geometry":{"x":166971.54999999981,"y":2548599.4300000016}},{"attributes":{"ID":168560,"DIS_CODE":0,"TOWNNAME":"安南區","LI":"理想里","LIN":"4鄰","STREET":"海佃路","SECT":"二段","MAREA":" ","LANE":"３４２巷","ALLEY":"２１弄","HOUSE_NO":"１７號","E_COORD97":166954.79999999999,"N_COORD97":2548617.52,"ADDRESS":"海佃路二段３４２巷２１弄１７號","OBJECTID":168559},"geometry":{"x":166954.79999999888,"y":2548617.5200000033}},{"attributes":{"ID":168561,"DIS_CODE":0,"TOWNNAME":"安南區","LI":"理想里","LIN":"3鄰","STREET":"大安街","SECT":" ","MAREA":" ","LANE":"６８０巷","ALLEY":"２弄","HOUSE_NO":"９號","E_COORD97":167189.20000000001,"N_COORD97":2548947.04,"ADDRESS":"大安街６８０巷２弄９號","OBJECTID":168560},"geometry":{"x":167189.20000000019,"y":2548947.040000001}},{"attributes":{"ID":168562,"DIS_CODE":0,"TOWNNAME":"安南區","LI":"理想里","LIN":"8鄰","STREET":"海佃路","SECT":"二段","MAREA":" ","LANE":"１５０巷","ALLEY":"９４弄","HOUSE_NO":"１０號","E_COORD97":167174.44,"N_COORD97":2548314.98,"ADDRESS":"海佃路二段１５０巷９４弄１０號","OBJECTID":168561},"geometry":{"x":167174.44000000041,"y":2548314.9800000023}},{"attributes":{"ID":168563,"DIS_CODE":0,"TOWNNAME":"安南區","LI":"州北里","LIN":"25鄰","STREET":"安和路","SECT":"五段","MAREA":" ","LANE":"１７１巷","ALLEY":"１７弄","HOUSE_NO":"３１號","E_COORD97":169831.07000000001,"N_COORD97":2551765.8599999999,"ADDRESS":"安和路五段１７１巷１７弄３１號","OBJECTID":168562},"geometry":{"x":169831.07000000123,"y":2551765.8600000013}},{"attributes":{"ID":168564,"DIS_CODE":0,"TOWNNAME":"安南區","LI":"理想里","LIN":"2鄰","STREET":"海佃路","SECT":"二段","MAREA":" ","LANE":"３４２巷","ALLEY":"２１弄","HOUSE_NO":"３１號","E_COORD97":166972.60000000001,"N_COORD97":2548671.9199999999,"ADDRESS":"海佃路二段３４２巷２１弄３１號","OBJECTID":168563},"geometry":{"x":166972.59999999963,"y":2548671.9199999999}},{"attributes":{"ID":168565,"DIS_CODE":0,"TOWNNAME":"安南區","LI":"淵中里","LIN":"19鄰","STREET":"安中路","SECT":"四段","MAREA":" ","LANE":"１９７巷","ALLEY":"２８弄","HOUSE_NO":"１１號","E_COORD97":164692.44,"N_COORD97":2550022.6600000001,"ADDRESS":"安中路四段１９７巷２８弄１１號","OBJECTID":168564},"geometry":{"x":164692.44000000041,"y":2550022.6600000001}},{"attributes":{"ID":168566,"DIS_CODE":0,"TOWNNAME":"安南區","LI":"淵中里","LIN":"19鄰","STREET":"安中路","SECT":"四段","MAREA":" ","LANE":"１９７巷","ALLEY":"２８弄","HOUSE_NO":"１３號","E_COORD97":164686.67000000001,"N_COORD97":2550024.5899999999,"ADDRESS":"安中路四段１９７巷２８弄１３號","OBJECTID":168565},"geometry":{"x":164686.67000000086,"y":2550024.5900000036}},{"attributes":{"ID":168567,"DIS_CODE":0,"TOWNNAME":"安南區","LI":"淵中里","LIN":"19鄰","STREET":"安中路","SECT":"四段","MAREA":" ","LANE":"１９７巷","ALLEY":"２８弄","HOUSE_NO":"１５號","E_COORD97":164681.82999999999,"N_COORD97":2550026.9199999999,"ADDRESS":"安中路四段１９７巷２８弄１５號","OBJECTID":168566},"geometry":{"x":164681.83000000194,"y":2550026.9200000018}},{"attributes":{"ID":168568,"DIS_CODE":0,"TOWNNAME":"安南區","LI":"淵中里","LIN":"19鄰","STREET":"安中路","SECT":"四段","MAREA":" ","LANE":"１９７巷","ALLEY":"２８弄","HOUSE_NO":"１７號","E_COORD97":164675.16,"N_COORD97":2550029.5800000001,"ADDRESS":"安中路四段１９７巷２８弄１７號","OBJECTID":168567},"geometry":{"x":164675.16000000108,"y":2550029.5800000019}},{"attributes":{"ID":168569,"DIS_CODE":0,"TOWNNAME":"安南區","LI":"淵中里","LIN":"19鄰","STREET":"安中路","SECT":"四段","MAREA":" ","LANE":"１９７巷","ALLEY":"２８弄","HOUSE_NO":"１９號","E_COORD97":164669.23999999999,"N_COORD97":2550032.6699999999,"ADDRESS":"安中路四段１９７巷２８弄１９號","OBJECTID":168568},"geometry":{"x":164669.24000000115,"y":2550032.6699999999}},{"attributes":{"ID":168570,"DIS_CODE":0,"TOWNNAME":"安南區","LI":"淵中里","LIN":"19鄰","STREET":"安中路","SECT":"四段","MAREA":" ","LANE":"１９７巷","ALLEY":"２８弄","HOUSE_NO":"１號","E_COORD97":164723.31,"N_COORD97":2550009.3100000001,"ADDRESS":"安中路四段１９７巷２８弄１號","OBJECTID":168569},"geometry":{"x":164723.30999999959,"y":2550009.3100000005}},{"attributes":{"ID":168571,"DIS_CODE":0,"TOWNNAME":"安南區","LI":"淵中里","LIN":"19鄰","STREET":"安中路","SECT":"四段","MAREA":" ","LANE":"１９７巷","ALLEY":"２８弄","HOUSE_NO":"２１號","E_COORD97":164663.82000000001,"N_COORD97":2550034.4199999999,"ADDRESS":"安中路四段１９７巷２８弄２１號","OBJECTID":168570},"geometry":{"x":164663.82000000123,"y":2550034.4199999999}},{"attributes":{"ID":168572,"DIS_CODE":0,"TOWNNAME":"安南區","LI":"淵中里","LIN":"19鄰","STREET":"安中路","SECT":"四段","MAREA":" ","LANE":"１９７巷","ALLEY":"２８弄","HOUSE_NO":"２３號","E_COORD97":164656.73000000001,"N_COORD97":2550037.3300000001,"ADDRESS":"安中路四段１９７巷２８弄２３號","OBJECTID":168571},"geometry":{"x":164656.73000000045,"y":2550037.3300000019}},{"attributes":{"ID":168573,"DIS_CODE":0,"TOWNNAME":"安南區","LI":"淵中里","LIN":"19鄰","STREET":"安中路","SECT":"四段","MAREA":" ","LANE":"１９７巷","ALLEY":"２８弄","HOUSE_NO":"３號","E_COORD97":164716.98000000001,"N_COORD97":2550012.3100000001,"ADDRESS":"安中路四段１９７巷２８弄３號","OBJECTID":168572},"geometry":{"x":164716.98000000138,"y":2550012.3100000005}},{"attributes":{"ID":168574,"DIS_CODE":0,"TOWNNAME":"安南區","LI":"淵中里","LIN":"19鄰","STREET":"安中路","SECT":"四段","MAREA":" ","LANE":"１９７巷","ALLEY":"２８弄","HOUSE_NO":"５號","E_COORD97":164710.54999999999,"N_COORD97":2550014.6400000001,"ADDRESS":"安中路四段１９７巷２８弄５號","OBJECTID":168573},"geometry":{"x":164710.55000000168,"y":2550014.6400000043}},{"attributes":{"ID":168575,"DIS_CODE":0,"TOWNNAME":"安南區","LI":"淵中里","LIN":"19鄰","STREET":"安中路","SECT":"四段","MAREA":" ","LANE":"１９７巷","ALLEY":"２８弄","HOUSE_NO":"７號","E_COORD97":164705.03,"N_COORD97":2550016.6600000001,"ADDRESS":"安中路四段１９７巷２８弄７號","OBJECTID":168574},"geometry":{"x":164705.03000000119,"y":2550016.6600000001}},{"attributes":{"ID":168576,"DIS_CODE":0,"TOWNNAME":"安南區","LI":"淵中里","LIN":"19鄰","STREET":"安中路","SECT":"四段","MAREA":" ","LANE":"１９７巷","ALLEY":"２８弄","HOUSE_NO":"９號","E_COORD97":164699.51999999999,"N_COORD97":2550019.6600000001,"ADDRESS":"安中路四段１９７巷２８弄９號","OBJECTID":168575},"geometry":{"x":164699.51999999955,"y":2550019.6600000001}},{"attributes":{"ID":168577,"DIS_CODE":0,"TOWNNAME":"永康區","LI":"中興里","LIN":"24鄰","STREET":"中華路","SECT":" ","MAREA":" ","LANE":"２１６巷","ALLEY":"１２弄","HOUSE_NO":"５號","E_COORD97":171800.44,"N_COORD97":2545113.1200000001,"ADDRESS":"中華路２１６巷１２弄５號","OBJECTID":168576},"geometry":{"x":171800.44000000041,"y":2545113.1200000048}},{"attributes":{"ID":168578,"DIS_CODE":0,"TOWNNAME":"安南區","LI":"理想里","LIN":"4鄰","STREET":"海佃路","SECT":"二段","MAREA":" ","LANE":"３４２巷","ALLEY":"２１弄","HOUSE_NO":"１３號","E_COORD97":166948.85999999999,"N_COORD97":2548612.3900000001,"ADDRESS":"海佃路二段３４２巷２１弄１３號","OBJECTID":168577},"geometry":{"x":166948.86000000127,"y":2548612.3900000006}},{"attributes":{"ID":168579,"DIS_CODE":0,"TOWNNAME":"安南區","LI":"州北里","LIN":"18鄰","STREET":"安昌街","SECT":" ","MAREA":" ","LANE":"８５巷","ALLEY":"９７弄","HOUSE_NO":"６號","E_COORD97":169885.12,"N_COORD97":2552420.0899999999,"ADDRESS":"安昌街８５巷９７弄６號","OBJECTID":168578},"geometry":{"x":169885.12000000011,"y":2552420.0899999999}},{"attributes":{"ID":168580,"DIS_CODE":0,"TOWNNAME":"安南區","LI":"原佃里","LIN":"4鄰","STREET":"本原街","SECT":"一段","MAREA":" ","LANE":"７６巷","ALLEY":"１１弄","HOUSE_NO":"１１號","E_COORD97":168029.42999999999,"N_COORD97":2550215.9700000002,"ADDRESS":"本原街一段７６巷１１弄１１號","OBJECTID":168579},"geometry":{"x":168029.43000000063,"y":2550215.9700000044}},{"attributes":{"ID":168581,"DIS_CODE":0,"TOWNNAME":"六甲區","LI":"甲東里","LIN":"12鄰","STREET":"裕農街","SECT":" ","MAREA":" ","LANE":" ","ALLEY":" ","HOUSE_NO":"２６４號","E_COORD97":184190.51999999999,"N_COORD97":2570018.9399999999,"ADDRESS":"裕農街２６４號","OBJECTID":168580},"geometry":{"x":184190.52000000048,"y":2570018.9400000013}},{"attributes":{"ID":168582,"DIS_CODE":0,"TOWNNAME":"六甲區","LI":"甲東里","LIN":"12鄰","STREET":"裕農街","SECT":" ","MAREA":" ","LANE":" ","ALLEY":" ","HOUSE_NO":"２６６號","E_COORD97":184175.51000000001,"N_COORD97":2570017.0800000001,"ADDRESS":"裕農街２６６號","OBJECTID":168581},"geometry":{"x":184175.51000000071,"y":2570017.0800000001}},{"attributes":{"ID":168583,"DIS_CODE":0,"TOWNNAME":"安南區","LI":"原佃里","LIN":"4鄰","STREET":"本原街","SECT":"一段","MAREA":" ","LANE":"７６巷","ALLEY":"１１弄","HOUSE_NO":"１３號","E_COORD97":168024.89999999999,"N_COORD97":2550215.6099999999,"ADDRESS":"本原街一段７６巷１１弄１３號","OBJECTID":168582},"geometry":{"x":168024.9000000013,"y":2550215.6099999994}},{"attributes":{"ID":168584,"DIS_CODE":0,"TOWNNAME":"安南區","LI":"原佃里","LIN":"4鄰","STREET":"本原街","SECT":"一段","MAREA":" ","LANE":"７６巷","ALLEY":"１１弄","HOUSE_NO":"１號","E_COORD97":168052.29000000001,"N_COORD97":2550218.6099999999,"ADDRESS":"本原街一段７６巷１１弄１號","OBJECTID":168583},"geometry":{"x":168052.29000000097,"y":2550218.6100000013}},{"attributes":{"ID":168585,"DIS_CODE":0,"TOWNNAME":"安南區","LI":"原佃里","LIN":"4鄰","STREET":"本原街","SECT":"一段","MAREA":" ","LANE":"７６巷","ALLEY":"１１弄","HOUSE_NO":"３號","E_COORD97":168047.34,"N_COORD97":2550217.9300000002,"ADDRESS":"本原街一段７６巷１１弄３號","OBJECTID":168584},"geometry":{"x":168047.33999999985,"y":2550217.9299999997}},{"attributes":{"ID":168586,"DIS_CODE":0,"TOWNNAME":"新營區","LI":"太南里","LIN":"12鄰","STREET":" ","SECT":" ","MAREA":"太子宮","LANE":" ","ALLEY":" ","HOUSE_NO":"２６４號","E_COORD97":176190.53,"N_COORD97":2576834.7799999998,"ADDRESS":"太子宮２６４號","OBJECTID":168585},"geometry":{"x":176190.53000000026,"y":2576834.7800000012}},{"attributes":{"ID":168587,"DIS_CODE":0,"TOWNNAME":"新營區","LI":"太南里","LIN":"12鄰","STREET":" ","SECT":" ","MAREA":"太子宮","LANE":" ","ALLEY":" ","HOUSE_NO":"２７１號","E_COORD97":176151.42000000001,"N_COORD97":2576786.25,"ADDRESS":"太子宮２７１號","OBJECTID":168586},"geometry":{"x":176151.42000000086,"y":2576786.25}},{"attributes":{"ID":168588,"DIS_CODE":0,"TOWNNAME":"新營區","LI":"太南里","LIN":"12鄰","STREET":" ","SECT":" ","MAREA":"太子宮","LANE":" ","ALLEY":" ","HOUSE_NO":"２６６號","E_COORD97":176211.01000000001,"N_COORD97":2576838,"ADDRESS":"太子宮２６６號","OBJECTID":168587},"geometry":{"x":176211.01000000164,"y":2576838.0000000019}},{"attributes":{"ID":168589,"DIS_CODE":0,"TOWNNAME":"北門區","LI":"鯤江里","LIN":"13鄰","STREET":" ","SECT":" ","MAREA":"新圍","LANE":" ","ALLEY":" ","HOUSE_NO":"４０之１號","E_COORD97":163192.42999999999,"N_COORD97":2576805.8599999999,"ADDRESS":"新圍４０之１號","OBJECTID":168588},"geometry":{"x":163192.43000000156,"y":2576805.8599999994}},{"attributes":{"ID":168590,"DIS_CODE":0,"TOWNNAME":"北門區","LI":"鯤江里","LIN":"13鄰","STREET":" ","SECT":" ","MAREA":"新圍","LANE":" ","ALLEY":" ","HOUSE_NO":"４０號","E_COORD97":163194,"N_COORD97":2576887.3199999998,"ADDRESS":"新圍４０號","OBJECTID":168589},"geometry":{"x":163194.00000000093,"y":2576887.3200000003}},{"attributes":{"ID":168591,"DIS_CODE":0,"TOWNNAME":"北門區","LI":"鯤江里","LIN":"13鄰","STREET":" ","SECT":" ","MAREA":"新圍","LANE":" ","ALLEY":" ","HOUSE_NO":"４１號","E_COORD97":163227.79999999999,"N_COORD97":2576813.6699999999,"ADDRESS":"新圍４１號","OBJECTID":168590},"geometry":{"x":163227.80000000075,"y":2576813.6699999999}},{"attributes":{"ID":168592,"DIS_CODE":0,"TOWNNAME":"安南區","LI":"原佃里","LIN":"4鄰","STREET":"本原街","SECT":"一段","MAREA":" ","LANE":"７６巷","ALLEY":"１１弄","HOUSE_NO":"５號","E_COORD97":168043.16,"N_COORD97":2550217.4199999999,"ADDRESS":"本原街一段７６巷１１弄５號","OBJECTID":168591},"geometry":{"x":168043.16000000108,"y":2550217.4199999999}},{"attributes":{"ID":168593,"DIS_CODE":0,"TOWNNAME":"安南區","LI":"原佃里","LIN":"4鄰","STREET":"本原街","SECT":"一段","MAREA":" ","LANE":"７６巷","ALLEY":"１１弄","HOUSE_NO":"７號","E_COORD97":168038.64000000001,"N_COORD97":2550216.9100000001,"ADDRESS":"本原街一段７６巷１１弄７號","OBJECTID":168592},"geometry":{"x":168038.63999999966,"y":2550216.910000002}},{"attributes":{"ID":168594,"DIS_CODE":0,"TOWNNAME":"北門區","LI":"鯤江里","LIN":"13鄰","STREET":" ","SECT":" ","MAREA":"新圍","LANE":" ","ALLEY":" ","HOUSE_NO":"４２號","E_COORD97":163244.47,"N_COORD97":2576807.02,"ADDRESS":"新圍４２號","OBJECTID":168593},"geometry":{"x":163244.46999999974,"y":2576807.0199999996}},{"attributes":{"ID":168595,"DIS_CODE":0,"TOWNNAME":"北門區","LI":"鯤江里","LIN":"13鄰","STREET":" ","SECT":" ","MAREA":"新圍","LANE":" ","ALLEY":" ","HOUSE_NO":"４３號之１","E_COORD97":163240.81,"N_COORD97":2576739.5699999998,"ADDRESS":"新圍４３號之１","OBJECTID":168594},"geometry":{"x":163240.81000000052,"y":2576739.5700000003}},{"attributes":{"ID":168596,"DIS_CODE":0,"TOWNNAME":"北門區","LI":"鯤江里","LIN":"13鄰","STREET":" ","SECT":" ","MAREA":"新圍","LANE":" ","ALLEY":" ","HOUSE_NO":"４３號","E_COORD97":163263.54999999999,"N_COORD97":2576776.3999999999,"ADDRESS":"新圍４３號","OBJECTID":168595},"geometry":{"x":163263.55000000075,"y":2576776.4000000041}},{"attributes":{"ID":168597,"DIS_CODE":0,"TOWNNAME":"北門區","LI":"鯤江里","LIN":"13鄰","STREET":" ","SECT":" ","MAREA":"新圍","LANE":" ","ALLEY":" ","HOUSE_NO":"４６之１號","E_COORD97":163214.23000000001,"N_COORD97":2576752.8100000001,"ADDRESS":"新圍４６之１號","OBJECTID":168596},"geometry":{"x":163214.23000000045,"y":2576752.8100000005}},{"attributes":{"ID":168598,"DIS_CODE":0,"TOWNNAME":"北門區","LI":"鯤江里","LIN":"13鄰","STREET":" ","SECT":" ","MAREA":"新圍","LANE":" ","ALLEY":" ","HOUSE_NO":"４６號","E_COORD97":163189.88,"N_COORD97":2576771.5299999998,"ADDRESS":"新圍４６號","OBJECTID":168597},"geometry":{"x":163189.88000000082,"y":2576771.5300000012}},{"attributes":{"ID":168599,"DIS_CODE":0,"TOWNNAME":"官田區","LI":"南\u25A0里","LIN":"13鄰","STREET":" ","SECT":" ","MAREA":"三結義","LANE":" ","ALLEY":" ","HOUSE_NO":"４０號之３","E_COORD97":179747.60999999999,"N_COORD97":2567108.23,"ADDRESS":"三結義４０號之３","OBJECTID":168598},"geometry":{"x":179747.61000000127,"y":2567108.2300000042}},{"attributes":{"ID":168600,"DIS_CODE":0,"TOWNNAME":"北門區","LI":"鯤江里","LIN":"13鄰","STREET":" ","SECT":" ","MAREA":"新圍","LANE":" ","ALLEY":" ","HOUSE_NO":"４８之５號","E_COORD97":163108.12,"N_COORD97":2576765.1099999999,"ADDRESS":"新圍４８之５號","OBJECTID":168599},"geometry":{"x":163108.12000000011,"y":2576765.1100000013}},{"attributes":{"ID":168601,"DIS_CODE":0,"TOWNNAME":"北門區","LI":"鯤江里","LIN":"13鄰","STREET":" ","SECT":" ","MAREA":"新圍","LANE":" ","ALLEY":" ","HOUSE_NO":"４８號之５","E_COORD97":163108.12,"N_COORD97":2576765.1099999999,"ADDRESS":"新圍４８號之５","OBJECTID":168600},"geometry":{"x":163108.12000000011,"y":2576765.1100000013}}]}