{"displayFieldName":"TOWNNAME","fieldAliases":{"ID":"ID","DIS_CODE":"DIS_CODE","TOWNNAME":"TOWNNAME","LI":"LI","LIN":"LIN","STREET":"STREET","SECT":"SECT","MAREA":"MAREA","LANE":"LANE","ALLEY":"ALLEY","HOUSE_NO":"HOUSE_NO","E_COORD97":"E_COORD97","N_COORD97":"N_COORD97","ADDRESS":"ADDRESS","OBJECTID":"OBJECTID"},"geometryType":"esriGeometryPoint","spatialReference":{"wkid":102443,"latestWkid":3826},"fields":[{"name":"ID","type":"esriFieldTypeDouble","alias":"ID"},{"name":"DIS_CODE","type":"esriFieldTypeInteger","alias":"DIS_CODE"},{"name":"TOWNNAME","type":"esriFieldTypeString","alias":"TOWNNAME","length":8},{"name":"LI","type":"esriFieldTypeString","alias":"LI","length":8},{"name":"LIN","type":"esriFieldTypeString","alias":"LIN","length":12},{"name":"STREET","type":"esriFieldTypeString","alias":"STREET","length":20},{"name":"SECT","type":"esriFieldTypeString","alias":"SECT","length":8},{"name":"MAREA","type":"esriFieldTypeString","alias":"MAREA","length":12},{"name":"LANE","type":"esriFieldTypeString","alias":"LANE","length":10},{"name":"ALLEY","type":"esriFieldTypeString","alias":"ALLEY","length":10},{"name":"HOUSE_NO","type":"esriFieldTypeString","alias":"HOUSE_NO","length":20},{"name":"E_COORD97","type":"esriFieldTypeDouble","alias":"E_COORD97"},{"name":"N_COORD97","type":"esriFieldTypeDouble","alias":"N_COORD97"},{"name":"ADDRESS","type":"esriFieldTypeString","alias":"ADDRESS","length":50},{"name":"OBJECTID","type":"esriFieldTypeOID","alias":"OBJECTID"}],"features":[{"attributes":{"ID":77001,"DIS_CODE":0,"TOWNNAME":"山上區","LI":"山上里","LIN":"6鄰","STREET":" ","SECT":" ","MAREA":"山上","LANE":" ","ALLEY":" ","HOUSE_NO":"１０３號","E_COORD97":184268.81,"N_COORD97":2555729.25,"ADDRESS":"山上１０３號","OBJECTID":77001},"geometry":{"x":184268.80999999959,"y":2555729.25}},{"attributes":{"ID":77002,"DIS_CODE":0,"TOWNNAME":"南區","LI":"日新里","LIN":"7鄰","STREET":"金華路","SECT":"一段","MAREA":" ","LANE":" ","ALLEY":" ","HOUSE_NO":"４７３號","E_COORD97":166995.47,"N_COORD97":2541558.8799999999,"ADDRESS":"金華路一段４７３號","OBJECTID":77002},"geometry":{"x":166995.46999999974,"y":2541558.879999999}},{"attributes":{"ID":77003,"DIS_CODE":0,"TOWNNAME":"南區","LI":"光明里","LIN":"7鄰","STREET":"利南街","SECT":" ","MAREA":" ","LANE":" ","ALLEY":" ","HOUSE_NO":"２２７號","E_COORD97":166715.64999999999,"N_COORD97":2541643.1899999999,"ADDRESS":"利南街２２７號","OBJECTID":77003},"geometry":{"x":166715.65000000037,"y":2541643.1900000013}},{"attributes":{"ID":77004,"DIS_CODE":0,"TOWNNAME":"永康區","LI":"大橋里","LIN":"19鄰","STREET":"大橋一街","SECT":" ","MAREA":" ","LANE":"１３９巷","ALLEY":"２２弄","HOUSE_NO":"４５號","E_COORD97":171024.76999999999,"N_COORD97":2546600.79,"ADDRESS":"大橋一街１３９巷２２弄４５號","OBJECTID":77004},"geometry":{"x":171024.76999999955,"y":2546600.7899999991}},{"attributes":{"ID":77005,"DIS_CODE":0,"TOWNNAME":"永康區","LI":"三合里","LIN":"19鄰","STREET":"南工街","SECT":" ","MAREA":" ","LANE":"２６７巷","ALLEY":"３７弄","HOUSE_NO":"１號","E_COORD97":171896.70999999999,"N_COORD97":2545847.75,"ADDRESS":"南工街２６７巷３７弄１號","OBJECTID":77005},"geometry":{"x":171896.70999999996,"y":2545847.7500000019}},{"attributes":{"ID":77006,"DIS_CODE":0,"TOWNNAME":"永康區","LI":"三合里","LIN":"19鄰","STREET":"南工街","SECT":" ","MAREA":" ","LANE":"２６７巷","ALLEY":"２７弄","HOUSE_NO":"１號","E_COORD97":171901.10000000001,"N_COORD97":2545877.1000000001,"ADDRESS":"南工街２６７巷２７弄１號","OBJECTID":77006},"geometry":{"x":171901.10000000056,"y":2545877.0999999996}},{"attributes":{"ID":77007,"DIS_CODE":0,"TOWNNAME":"永康區","LI":"大橋里","LIN":"19鄰","STREET":"大橋一街","SECT":" ","MAREA":" ","LANE":"１３９巷","ALLEY":"２２弄","HOUSE_NO":"４３號","E_COORD97":171028.97,"N_COORD97":2546596.29,"ADDRESS":"大橋一街１３９巷２２弄４３號","OBJECTID":77007},"geometry":{"x":171028.9700000016,"y":2546596.290000001}},{"attributes":{"ID":77008,"DIS_CODE":0,"TOWNNAME":"永康區","LI":"大橋里","LIN":"19鄰","STREET":"大橋一街","SECT":" ","MAREA":" ","LANE":"１３９巷","ALLEY":"２２弄","HOUSE_NO":"４７號","E_COORD97":171039.66,"N_COORD97":2546609.79,"ADDRESS":"大橋一街１３９巷２２弄４７號","OBJECTID":77008},"geometry":{"x":171039.66000000015,"y":2546609.790000001}},{"attributes":{"ID":77009,"DIS_CODE":0,"TOWNNAME":"永康區","LI":"勝利里","LIN":"19鄰","STREET":"勝利街","SECT":" ","MAREA":" ","LANE":"１９７巷","ALLEY":"３７弄","HOUSE_NO":"２號","E_COORD97":171236.73000000001,"N_COORD97":2545127.75,"ADDRESS":"勝利街１９７巷３７弄２號","OBJECTID":77009},"geometry":{"x":171236.73000000138,"y":2545127.7500000037}},{"attributes":{"ID":77010,"DIS_CODE":0,"TOWNNAME":"永康區","LI":"勝利里","LIN":"19鄰","STREET":"勝利街","SECT":" ","MAREA":" ","LANE":"１９７巷","ALLEY":"２５弄","HOUSE_NO":"３５號","E_COORD97":171294.07000000001,"N_COORD97":2545014.79,"ADDRESS":"勝利街１９７巷２５弄３５號","OBJECTID":77010},"geometry":{"x":171294.07000000123,"y":2545014.7900000028}},{"attributes":{"ID":77011,"DIS_CODE":0,"TOWNNAME":"永康區","LI":"勝利里","LIN":"19鄰","STREET":"勝利街","SECT":" ","MAREA":" ","LANE":"１９７巷","ALLEY":"２５弄","HOUSE_NO":"３４號","E_COORD97":171255.56,"N_COORD97":2545037.5299999998,"ADDRESS":"勝利街１９７巷２５弄３４號","OBJECTID":77011},"geometry":{"x":171255.56000000052,"y":2545037.5300000012}},{"attributes":{"ID":77012,"DIS_CODE":0,"TOWNNAME":"永康區","LI":"勝利里","LIN":"19鄰","STREET":"勝利街","SECT":" ","MAREA":" ","LANE":"１９７巷","ALLEY":"２５弄","HOUSE_NO":"１９號","E_COORD97":171279.16,"N_COORD97":2545052,"ADDRESS":"勝利街１９７巷２５弄１９號","OBJECTID":77012},"geometry":{"x":171279.16000000108,"y":2545052.0000000019}},{"attributes":{"ID":77013,"DIS_CODE":0,"TOWNNAME":"永康區","LI":"勝利里","LIN":"19鄰","STREET":"勝利街","SECT":" ","MAREA":" ","LANE":"１９７巷","ALLEY":"２５弄","HOUSE_NO":"２５號","E_COORD97":171277.73000000001,"N_COORD97":2545036,"ADDRESS":"勝利街１９７巷２５弄２５號","OBJECTID":77013},"geometry":{"x":171277.73000000138,"y":2545036.0000000019}},{"attributes":{"ID":77014,"DIS_CODE":0,"TOWNNAME":"永康區","LI":"崑山里","LIN":"19鄰","STREET":"大仁街","SECT":" ","MAREA":" ","LANE":"１１巷","ALLEY":"５弄","HOUSE_NO":"１２號","E_COORD97":173771.29000000001,"N_COORD97":2544480.8799999999,"ADDRESS":"大仁街１１巷５弄１２號","OBJECTID":77014},"geometry":{"x":173771.29000000004,"y":2544480.879999999}},{"attributes":{"ID":77015,"DIS_CODE":0,"TOWNNAME":"南區","LI":"建南里","LIN":"18鄰","STREET":"明興路","SECT":" ","MAREA":" ","LANE":"７７巷","ALLEY":"３０弄","HOUSE_NO":"２號","E_COORD97":166744.73000000001,"N_COORD97":2539933.7799999998,"ADDRESS":"明興路７７巷３０弄２號","OBJECTID":77015},"geometry":{"x":166744.73000000138,"y":2539933.7800000012}},{"attributes":{"ID":77016,"DIS_CODE":0,"TOWNNAME":"南區","LI":"建南里","LIN":"18鄰","STREET":"明興路","SECT":" ","MAREA":" ","LANE":"７７巷","ALLEY":"３０弄","HOUSE_NO":"３號","E_COORD97":166769.35000000001,"N_COORD97":2539928.8199999998,"ADDRESS":"明興路７７巷３０弄３號","OBJECTID":77016},"geometry":{"x":166769.34999999963,"y":2539928.8200000003}},{"attributes":{"ID":77017,"DIS_CODE":0,"TOWNNAME":"南區","LI":"建南里","LIN":"18鄰","STREET":"明興路","SECT":" ","MAREA":" ","LANE":"７７巷","ALLEY":"３０弄","HOUSE_NO":"５號","E_COORD97":166769.35000000001,"N_COORD97":2539924.6600000001,"ADDRESS":"明興路７７巷３０弄５號","OBJECTID":77017},"geometry":{"x":166769.34999999963,"y":2539924.660000002}},{"attributes":{"ID":77018,"DIS_CODE":0,"TOWNNAME":"南區","LI":"建南里","LIN":"18鄰","STREET":"明興路","SECT":" ","MAREA":" ","LANE":"７７巷","ALLEY":"３０弄","HOUSE_NO":"７號","E_COORD97":166768.95000000001,"N_COORD97":2539919.9100000001,"ADDRESS":"明興路７７巷３０弄７號","OBJECTID":77018},"geometry":{"x":166768.95000000019,"y":2539919.910000002}},{"attributes":{"ID":77019,"DIS_CODE":0,"TOWNNAME":"安南區","LI":"州北里","LIN":"19鄰","STREET":"安昌街","SECT":" ","MAREA":" ","LANE":"８５巷","ALLEY":"７５弄","HOUSE_NO":"１０號","E_COORD97":169881.10999999999,"N_COORD97":2552357.8700000001,"ADDRESS":"安昌街８５巷７５弄１０號","OBJECTID":77019},"geometry":{"x":169881.1100000022,"y":2552357.8700000029}},{"attributes":{"ID":77020,"DIS_CODE":0,"TOWNNAME":"安南區","LI":"州北里","LIN":"19鄰","STREET":"安昌街","SECT":" ","MAREA":" ","LANE":"８５巷","ALLEY":"７５弄","HOUSE_NO":"１２號","E_COORD97":169877.37,"N_COORD97":2552357.9900000002,"ADDRESS":"安昌街８５巷７５弄１２號","OBJECTID":77020},"geometry":{"x":169877.37000000197,"y":2552357.9900000039}},{"attributes":{"ID":77021,"DIS_CODE":0,"TOWNNAME":"鹽水區","LI":"岸內里","LIN":"7鄰","STREET":"和平路","SECT":" ","MAREA":" ","LANE":" ","ALLEY":" ","HOUSE_NO":"３４５號","E_COORD97":174916.57999999999,"N_COORD97":2580536.1600000001,"ADDRESS":"和平路３４５號","OBJECTID":77021},"geometry":{"x":174916.58000000007,"y":2580536.1600000001}},{"attributes":{"ID":77022,"DIS_CODE":0,"TOWNNAME":"鹽水區","LI":"岸內里","LIN":"7鄰","STREET":"和平路","SECT":" ","MAREA":" ","LANE":" ","ALLEY":" ","HOUSE_NO":"３６９號","E_COORD97":174846.26999999999,"N_COORD97":2580529.2999999998,"ADDRESS":"和平路３６９號","OBJECTID":77022},"geometry":{"x":174846.27000000048,"y":2580529.3000000007}},{"attributes":{"ID":77023,"DIS_CODE":0,"TOWNNAME":"山上區","LI":"山上里","LIN":"6鄰","STREET":" ","SECT":" ","MAREA":"山上","LANE":" ","ALLEY":" ","HOUSE_NO":"１２７號之５","E_COORD97":184311,"N_COORD97":2555783.2999999998,"ADDRESS":"山上１２７號之５","OBJECTID":77023},"geometry":{"x":184311.00000000093,"y":2555783.3000000007}},{"attributes":{"ID":77024,"DIS_CODE":0,"TOWNNAME":"山上區","LI":"山上里","LIN":"6鄰","STREET":" ","SECT":" ","MAREA":"山上","LANE":" ","ALLEY":" ","HOUSE_NO":"１２７號之８","E_COORD97":184317.60000000001,"N_COORD97":2555752.2999999998,"ADDRESS":"山上１２７號之８","OBJECTID":77024},"geometry":{"x":184317.59999999963,"y":2555752.3000000007}},{"attributes":{"ID":77025,"DIS_CODE":0,"TOWNNAME":"山上區","LI":"山上里","LIN":"6鄰","STREET":" ","SECT":" ","MAREA":"山上","LANE":" ","ALLEY":" ","HOUSE_NO":"１２９號","E_COORD97":184405.91,"N_COORD97":2555891.25,"ADDRESS":"山上１２９號","OBJECTID":77025},"geometry":{"x":184405.91000000015,"y":2555891.25}},{"attributes":{"ID":77026,"DIS_CODE":0,"TOWNNAME":"山上區","LI":"山上里","LIN":"6鄰","STREET":" ","SECT":" ","MAREA":"山上","LANE":" ","ALLEY":" ","HOUSE_NO":"１３０號","E_COORD97":184269.60999999999,"N_COORD97":2555868.25,"ADDRESS":"山上１３０號","OBJECTID":77026},"geometry":{"x":184269.6099999994,"y":2555868.25}},{"attributes":{"ID":77027,"DIS_CODE":0,"TOWNNAME":"山上區","LI":"山上里","LIN":"6鄰","STREET":" ","SECT":" ","MAREA":"山上","LANE":" ","ALLEY":" ","HOUSE_NO":"１０８號","E_COORD97":184259.51000000001,"N_COORD97":2555738.25,"ADDRESS":"山上１０８號","OBJECTID":77027},"geometry":{"x":184259.50999999978,"y":2555738.25}},{"attributes":{"ID":77028,"DIS_CODE":0,"TOWNNAME":"山上區","LI":"山上里","LIN":"6鄰","STREET":" ","SECT":" ","MAREA":"山上","LANE":" ","ALLEY":" ","HOUSE_NO":"１１３號","E_COORD97":184240.20999999999,"N_COORD97":2555751.25,"ADDRESS":"山上１１３號","OBJECTID":77028},"geometry":{"x":184240.21000000089,"y":2555751.2500000019}},{"attributes":{"ID":77029,"DIS_CODE":0,"TOWNNAME":"山上區","LI":"山上里","LIN":"6鄰","STREET":" ","SECT":" ","MAREA":"山上","LANE":" ","ALLEY":" ","HOUSE_NO":"１２８號","E_COORD97":184438.10999999999,"N_COORD97":2555897.25,"ADDRESS":"山上１２８號","OBJECTID":77029},"geometry":{"x":184438.11000000127,"y":2555897.2500000019}},{"attributes":{"ID":77030,"DIS_CODE":0,"TOWNNAME":"山上區","LI":"山上里","LIN":"6鄰","STREET":" ","SECT":" ","MAREA":"山上","LANE":" ","ALLEY":" ","HOUSE_NO":"１１２號","E_COORD97":184247.60999999999,"N_COORD97":2555735.25,"ADDRESS":"山上１１２號","OBJECTID":77030},"geometry":{"x":184247.6099999994,"y":2555735.25}},{"attributes":{"ID":77031,"DIS_CODE":0,"TOWNNAME":"山上區","LI":"山上里","LIN":"6鄰","STREET":" ","SECT":" ","MAREA":"山上","LANE":" ","ALLEY":" ","HOUSE_NO":"１３１號之２","E_COORD97":184370.48000000001,"N_COORD97":2555861.2999999998,"ADDRESS":"山上１３１號之２","OBJECTID":77031},"geometry":{"x":184370.48000000045,"y":2555861.3000000007}},{"attributes":{"ID":77032,"DIS_CODE":0,"TOWNNAME":"山上區","LI":"山上里","LIN":"6鄰","STREET":" ","SECT":" ","MAREA":"山上","LANE":" ","ALLEY":" ","HOUSE_NO":"１２７號之６","E_COORD97":184311.45000000001,"N_COORD97":2555777.2999999998,"ADDRESS":"山上１２７號之６","OBJECTID":77032},"geometry":{"x":184311.45000000205,"y":2555777.2999999989}},{"attributes":{"ID":77033,"DIS_CODE":0,"TOWNNAME":"山上區","LI":"山上里","LIN":"6鄰","STREET":" ","SECT":" ","MAREA":"山上","LANE":" ","ALLEY":" ","HOUSE_NO":"１０５號","E_COORD97":184283.91,"N_COORD97":2555745.25,"ADDRESS":"山上１０５號","OBJECTID":77033},"geometry":{"x":184283.91000000015,"y":2555745.25}},{"attributes":{"ID":77034,"DIS_CODE":0,"TOWNNAME":"山上區","LI":"山上里","LIN":"6鄰","STREET":" ","SECT":" ","MAREA":"山上","LANE":" ","ALLEY":" ","HOUSE_NO":"１２７之３號","E_COORD97":184306.81,"N_COORD97":2555801.2999999998,"ADDRESS":"山上１２７之３號","OBJECTID":77034},"geometry":{"x":184306.81000000052,"y":2555801.3000000045}},{"attributes":{"ID":77035,"DIS_CODE":0,"TOWNNAME":"新營區","LI":"埤寮里","LIN":" ","STREET":" ","SECT":" ","MAREA":"許丑","LANE":" ","ALLEY":" ","HOUSE_NO":"２２之２１號","E_COORD97":180005.64000000001,"N_COORD97":2580938.2799999998,"ADDRESS":"許丑２２之２１號","OBJECTID":77035},"geometry":{"x":180005.6400000006,"y":2580938.2799999993}},{"attributes":{"ID":77036,"DIS_CODE":0,"TOWNNAME":"山上區","LI":"山上里","LIN":"6鄰","STREET":" ","SECT":" ","MAREA":"山上","LANE":" ","ALLEY":" ","HOUSE_NO":"１０１號","E_COORD97":184300.70999999999,"N_COORD97":2555736.25,"ADDRESS":"山上１０１號","OBJECTID":77036},"geometry":{"x":184300.70999999996,"y":2555736.2500000037}},{"attributes":{"ID":77037,"DIS_CODE":0,"TOWNNAME":"山上區","LI":"山上里","LIN":"6鄰","STREET":" ","SECT":" ","MAREA":"山上","LANE":" ","ALLEY":" ","HOUSE_NO":"１２７號之７","E_COORD97":184316.63,"N_COORD97":2555763.2999999998,"ADDRESS":"山上１２７號之７","OBJECTID":77037},"geometry":{"x":184316.63000000175,"y":2555763.3000000007}},{"attributes":{"ID":77038,"DIS_CODE":0,"TOWNNAME":"山上區","LI":"新莊里","LIN":"6鄰","STREET":" ","SECT":" ","MAREA":"大庄","LANE":" ","ALLEY":" ","HOUSE_NO":"２之３號","E_COORD97":184008.91,"N_COORD97":2554970.2999999998,"ADDRESS":"大庄２之３號","OBJECTID":77038},"geometry":{"x":184008.91000000108,"y":2554970.2999999989}},{"attributes":{"ID":77039,"DIS_CODE":0,"TOWNNAME":"山上區","LI":"新莊里","LIN":"6鄰","STREET":" ","SECT":" ","MAREA":"大庄","LANE":" ","ALLEY":" ","HOUSE_NO":"１號之６","E_COORD97":184118.25,"N_COORD97":2555048.2999999998,"ADDRESS":"大庄１號之６","OBJECTID":77039},"geometry":{"x":184118.25000000093,"y":2555048.2999999989}},{"attributes":{"ID":77040,"DIS_CODE":0,"TOWNNAME":"山上區","LI":"新莊里","LIN":"6鄰","STREET":" ","SECT":" ","MAREA":"大庄","LANE":" ","ALLEY":" ","HOUSE_NO":"１之４８號","E_COORD97":184184.45999999999,"N_COORD97":2555012.2999999998,"ADDRESS":"大庄１之４８號","OBJECTID":77040},"geometry":{"x":184184.46000000089,"y":2555012.3000000026}},{"attributes":{"ID":77041,"DIS_CODE":0,"TOWNNAME":"山上區","LI":"新莊里","LIN":"6鄰","STREET":" ","SECT":" ","MAREA":"大庄","LANE":" ","ALLEY":" ","HOUSE_NO":"１號之２６","E_COORD97":184170.39999999999,"N_COORD97":2555045.2999999998,"ADDRESS":"大庄１號之２６","OBJECTID":77041},"geometry":{"x":184170.40000000037,"y":2555045.3000000045}},{"attributes":{"ID":77042,"DIS_CODE":0,"TOWNNAME":"山上區","LI":"新莊里","LIN":"6鄰","STREET":" ","SECT":" ","MAREA":"大庄","LANE":" ","ALLEY":" ","HOUSE_NO":"１之３１號","E_COORD97":184163.56,"N_COORD97":2555024.2999999998,"ADDRESS":"大庄１之３１號","OBJECTID":77042},"geometry":{"x":184163.55999999959,"y":2555024.3000000007}},{"attributes":{"ID":77043,"DIS_CODE":0,"TOWNNAME":"山上區","LI":"新莊里","LIN":"6鄰","STREET":" ","SECT":" ","MAREA":"大庄","LANE":" ","ALLEY":" ","HOUSE_NO":"１號之１１","E_COORD97":184148.09,"N_COORD97":2555073.2999999998,"ADDRESS":"大庄１號之１１","OBJECTID":77043},"geometry":{"x":184148.09000000078,"y":2555073.3000000026}},{"attributes":{"ID":77044,"DIS_CODE":0,"TOWNNAME":"山上區","LI":"新莊里","LIN":"6鄰","STREET":" ","SECT":" ","MAREA":"大庄","LANE":" ","ALLEY":" ","HOUSE_NO":"１之１０號","E_COORD97":184142.26000000001,"N_COORD97":2555068.2999999998,"ADDRESS":"大庄１之１０號","OBJECTID":77044},"geometry":{"x":184142.25999999978,"y":2555068.3000000007}},{"attributes":{"ID":77045,"DIS_CODE":0,"TOWNNAME":"山上區","LI":"新莊里","LIN":"6鄰","STREET":" ","SECT":" ","MAREA":"大庄","LANE":" ","ALLEY":" ","HOUSE_NO":"１號之２５","E_COORD97":184163.14999999999,"N_COORD97":2555041.2999999998,"ADDRESS":"大庄１號之２５","OBJECTID":77045},"geometry":{"x":184163.1500000013,"y":2555041.3000000007}},{"attributes":{"ID":77046,"DIS_CODE":0,"TOWNNAME":"山上區","LI":"新莊里","LIN":"6鄰","STREET":" ","SECT":" ","MAREA":"大庄","LANE":" ","ALLEY":" ","HOUSE_NO":"９之１１號","E_COORD97":183961.16,"N_COORD97":2554910.2999999998,"ADDRESS":"大庄９之１１號","OBJECTID":77046},"geometry":{"x":183961.16000000108,"y":2554910.3000000026}},{"attributes":{"ID":77047,"DIS_CODE":0,"TOWNNAME":"山上區","LI":"新莊里","LIN":"6鄰","STREET":" ","SECT":" ","MAREA":"大庄","LANE":" ","ALLEY":" ","HOUSE_NO":"１之３３號","E_COORD97":184154.85999999999,"N_COORD97":2555017.2999999998,"ADDRESS":"大庄１之３３號","OBJECTID":77047},"geometry":{"x":184154.86000000127,"y":2555017.3000000007}},{"attributes":{"ID":77048,"DIS_CODE":0,"TOWNNAME":"安南區","LI":"州北里","LIN":"19鄰","STREET":"安昌街","SECT":" ","MAREA":" ","LANE":"８５巷","ALLEY":"７５弄","HOUSE_NO":"１４號","E_COORD97":169873.17999999999,"N_COORD97":2552357.6499999999,"ADDRESS":"安昌街８５巷７５弄１４號","OBJECTID":77048},"geometry":{"x":169873.18000000156,"y":2552357.6500000022}},{"attributes":{"ID":77049,"DIS_CODE":0,"TOWNNAME":"安南區","LI":"州北里","LIN":"19鄰","STREET":"安昌街","SECT":" ","MAREA":" ","LANE":"８５巷","ALLEY":"７５弄","HOUSE_NO":"１６號","E_COORD97":169868.20000000001,"N_COORD97":2552357.6499999999,"ADDRESS":"安昌街８５巷７５弄１６號","OBJECTID":77049},"geometry":{"x":169868.20000000019,"y":2552357.6500000022}},{"attributes":{"ID":77050,"DIS_CODE":0,"TOWNNAME":"安南區","LI":"州北里","LIN":"19鄰","STREET":"安昌街","SECT":" ","MAREA":" ","LANE":"８５巷","ALLEY":"７５弄","HOUSE_NO":"２號","E_COORD97":169897.29999999999,"N_COORD97":2552357.8700000001,"ADDRESS":"安昌街８５巷７５弄２號","OBJECTID":77050},"geometry":{"x":169897.29999999981,"y":2552357.8700000029}},{"attributes":{"ID":77051,"DIS_CODE":0,"TOWNNAME":"安南區","LI":"州北里","LIN":"19鄰","STREET":"安昌街","SECT":" ","MAREA":" ","LANE":"８５巷","ALLEY":"７５弄","HOUSE_NO":"３號","E_COORD97":169887.89999999999,"N_COORD97":2552324.6299999999,"ADDRESS":"安昌街８５巷７５弄３號","OBJECTID":77051},"geometry":{"x":169887.9000000013,"y":2552324.629999999}},{"attributes":{"ID":77052,"DIS_CODE":0,"TOWNNAME":"安南區","LI":"州北里","LIN":"19鄰","STREET":"安昌街","SECT":" ","MAREA":" ","LANE":"８５巷","ALLEY":"７５弄","HOUSE_NO":"３號之１","E_COORD97":169888.44,"N_COORD97":2552318.52,"ADDRESS":"安昌街８５巷７５弄３號之１","OBJECTID":77052},"geometry":{"x":169888.44000000041,"y":2552318.5199999996}},{"attributes":{"ID":77053,"DIS_CODE":0,"TOWNNAME":"安南區","LI":"州北里","LIN":"19鄰","STREET":"安昌街","SECT":" ","MAREA":" ","LANE":"８５巷","ALLEY":"７５弄","HOUSE_NO":"３號之２","E_COORD97":169888.79999999999,"N_COORD97":2552311.6899999999,"ADDRESS":"安昌街８５巷７５弄３號之２","OBJECTID":77053},"geometry":{"x":169888.79999999981,"y":2552311.6899999976}},{"attributes":{"ID":77054,"DIS_CODE":0,"TOWNNAME":"安南區","LI":"州北里","LIN":"19鄰","STREET":"安昌街","SECT":" ","MAREA":" ","LANE":"８５巷","ALLEY":"７５弄","HOUSE_NO":"３號之３","E_COORD97":169888.98000000001,"N_COORD97":2552305.0499999998,"ADDRESS":"安昌街８５巷７５弄３號之３","OBJECTID":77054},"geometry":{"x":169888.98000000138,"y":2552305.0500000026}},{"attributes":{"ID":77055,"DIS_CODE":0,"TOWNNAME":"安南區","LI":"州北里","LIN":"19鄰","STREET":"安昌街","SECT":" ","MAREA":" ","LANE":"８５巷","ALLEY":"７５弄","HOUSE_NO":"３號之４","E_COORD97":169889.34,"N_COORD97":2552299.1200000001,"ADDRESS":"安昌街８５巷７５弄３號之４","OBJECTID":77055},"geometry":{"x":169889.34000000078,"y":2552299.120000001}},{"attributes":{"ID":77056,"DIS_CODE":0,"TOWNNAME":"安南區","LI":"州北里","LIN":"19鄰","STREET":"安昌街","SECT":" ","MAREA":" ","LANE":"８５巷","ALLEY":"７５弄","HOUSE_NO":"３號之５","E_COORD97":169889.70000000001,"N_COORD97":2552293.73,"ADDRESS":"安昌街８５巷７５弄３號之５","OBJECTID":77056},"geometry":{"x":169889.70000000019,"y":2552293.7300000023}},{"attributes":{"ID":77057,"DIS_CODE":0,"TOWNNAME":"安南區","LI":"州北里","LIN":"19鄰","STREET":"安昌街","SECT":" ","MAREA":" ","LANE":"８５巷","ALLEY":"７５弄","HOUSE_NO":"４號","E_COORD97":169892.88,"N_COORD97":2552358.21,"ADDRESS":"安昌街８５巷７５弄４號","OBJECTID":77057},"geometry":{"x":169892.88000000082,"y":2552358.2100000028}},{"attributes":{"ID":77058,"DIS_CODE":0,"TOWNNAME":"山上區","LI":"新莊里","LIN":"6鄰","STREET":" ","SECT":" ","MAREA":"大庄","LANE":" ","ALLEY":" ","HOUSE_NO":"１號之１","E_COORD97":184019.34,"N_COORD97":2555021.2999999998,"ADDRESS":"大庄１號之１","OBJECTID":77058},"geometry":{"x":184019.33999999985,"y":2555021.3000000045}},{"attributes":{"ID":77059,"DIS_CODE":0,"TOWNNAME":"山上區","LI":"新莊里","LIN":"6鄰","STREET":" ","SECT":" ","MAREA":"大庄","LANE":" ","ALLEY":" ","HOUSE_NO":"１號之２１","E_COORD97":184139.19,"N_COORD97":2555021.2999999998,"ADDRESS":"大庄１號之２１","OBJECTID":77059},"geometry":{"x":184139.19000000134,"y":2555021.3000000045}},{"attributes":{"ID":77060,"DIS_CODE":0,"TOWNNAME":"山上區","LI":"新莊里","LIN":"6鄰","STREET":" ","SECT":" ","MAREA":"大庄","LANE":" ","ALLEY":" ","HOUSE_NO":"１號之２７","E_COORD97":184182.87,"N_COORD97":2555039.2999999998,"ADDRESS":"大庄１號之２７","OBJECTID":77060},"geometry":{"x":184182.86999999918,"y":2555039.3000000026}},{"attributes":{"ID":77061,"DIS_CODE":0,"TOWNNAME":"山上區","LI":"新莊里","LIN":"6鄰","STREET":" ","SECT":" ","MAREA":"大庄","LANE":" ","ALLEY":" ","HOUSE_NO":"８之３號","E_COORD97":184064.91,"N_COORD97":2554848.2999999998,"ADDRESS":"大庄８之３號","OBJECTID":77061},"geometry":{"x":184064.91000000108,"y":2554848.2999999989}},{"attributes":{"ID":77062,"DIS_CODE":0,"TOWNNAME":"山上區","LI":"新莊里","LIN":"6鄰","STREET":" ","SECT":" ","MAREA":"大庄","LANE":" ","ALLEY":" ","HOUSE_NO":"６之６號","E_COORD97":183933.81,"N_COORD97":2554904.2999999998,"ADDRESS":"大庄６之６號","OBJECTID":77062},"geometry":{"x":183933.81000000052,"y":2554904.3000000026}},{"attributes":{"ID":77063,"DIS_CODE":0,"TOWNNAME":"山上區","LI":"新莊里","LIN":"6鄰","STREET":" ","SECT":" ","MAREA":"大庄","LANE":" ","ALLEY":" ","HOUSE_NO":"１之２０號","E_COORD97":184134.26000000001,"N_COORD97":2555017.2999999998,"ADDRESS":"大庄１之２０號","OBJECTID":77063},"geometry":{"x":184134.26000000164,"y":2555017.3000000007}},{"attributes":{"ID":77064,"DIS_CODE":0,"TOWNNAME":"鹽水區","LI":"岸內里","LIN":"7鄰","STREET":"和平路","SECT":" ","MAREA":" ","LANE":" ","ALLEY":" ","HOUSE_NO":"４１９號","E_COORD97":174733.44,"N_COORD97":2580525.6200000001,"ADDRESS":"和平路４１９號","OBJECTID":77064},"geometry":{"x":174733.44000000041,"y":2580525.6200000048}},{"attributes":{"ID":77065,"DIS_CODE":0,"TOWNNAME":"鹽水區","LI":"岸內里","LIN":"7鄰","STREET":"和平路","SECT":" ","MAREA":" ","LANE":" ","ALLEY":" ","HOUSE_NO":"４２１號","E_COORD97":174728.81,"N_COORD97":2580525.5600000001,"ADDRESS":"和平路４２１號","OBJECTID":77065},"geometry":{"x":174728.81000000145,"y":2580525.5600000024}},{"attributes":{"ID":77066,"DIS_CODE":0,"TOWNNAME":"鹽水區","LI":"岸內里","LIN":"7鄰","STREET":"和平路","SECT":" ","MAREA":" ","LANE":" ","ALLEY":" ","HOUSE_NO":"４２３號","E_COORD97":174724.17999999999,"N_COORD97":2580525.5,"ADDRESS":"和平路４２３號","OBJECTID":77066},"geometry":{"x":174724.1799999997,"y":2580525.5000000019}},{"attributes":{"ID":77067,"DIS_CODE":0,"TOWNNAME":"鹽水區","LI":"岸內里","LIN":"7鄰","STREET":"和平路","SECT":" ","MAREA":" ","LANE":" ","ALLEY":" ","HOUSE_NO":"４５１號","E_COORD97":174663.57999999999,"N_COORD97":2580522.1299999999,"ADDRESS":"和平路４５１號","OBJECTID":77067},"geometry":{"x":174663.58000000101,"y":2580522.129999999}},{"attributes":{"ID":77068,"DIS_CODE":0,"TOWNNAME":"安南區","LI":"州北里","LIN":"19鄰","STREET":"安昌街","SECT":" ","MAREA":" ","LANE":"８５巷","ALLEY":"７５弄","HOUSE_NO":"６號","E_COORD97":169889.26000000001,"N_COORD97":2552357.8700000001,"ADDRESS":"安昌街８５巷７５弄６號","OBJECTID":77068},"geometry":{"x":169889.25999999978,"y":2552357.8700000029}},{"attributes":{"ID":77069,"DIS_CODE":0,"TOWNNAME":"安南區","LI":"淵中里","LIN":"19鄰","STREET":"安中路","SECT":"四段","MAREA":" ","LANE":"１９７巷","ALLEY":"４８弄","HOUSE_NO":"１０號","E_COORD97":164700.26999999999,"N_COORD97":2549996.1299999999,"ADDRESS":"安中路四段１９７巷４８弄１０號","OBJECTID":77069},"geometry":{"x":164700.27000000142,"y":2549996.1300000027}},{"attributes":{"ID":77070,"DIS_CODE":0,"TOWNNAME":"安南區","LI":"淵中里","LIN":"19鄰","STREET":"安中路","SECT":"四段","MAREA":" ","LANE":"１９７巷","ALLEY":"４８弄","HOUSE_NO":"１１號","E_COORD97":164687.51999999999,"N_COORD97":2549978.1600000001,"ADDRESS":"安中路四段１９７巷４８弄１１號","OBJECTID":77070},"geometry":{"x":164687.52000000048,"y":2549978.160000002}},{"attributes":{"ID":77071,"DIS_CODE":0,"TOWNNAME":"東區","LI":"德高里","LIN":"19鄰","STREET":"仁和路","SECT":" ","MAREA":" ","LANE":"１９９巷","ALLEY":"９弄","HOUSE_NO":"２號","E_COORD97":171696.56,"N_COORD97":2540874.6400000001,"ADDRESS":"仁和路１９９巷９弄２號","OBJECTID":77071},"geometry":{"x":171696.56000000052,"y":2540874.6400000025}},{"attributes":{"ID":77072,"DIS_CODE":0,"TOWNNAME":"安南區","LI":"淵中里","LIN":"19鄰","STREET":"安中路","SECT":"四段","MAREA":" ","LANE":"１９７巷","ALLEY":"４８弄","HOUSE_NO":"１２號","E_COORD97":164696.92999999999,"N_COORD97":2549998.0499999998,"ADDRESS":"安中路四段１９７巷４８弄１２號","OBJECTID":77072},"geometry":{"x":164696.9299999997,"y":2549998.0500000007}},{"attributes":{"ID":77073,"DIS_CODE":0,"TOWNNAME":"安南區","LI":"淵中里","LIN":"19鄰","STREET":"安中路","SECT":"四段","MAREA":" ","LANE":"１９７巷","ALLEY":"４８弄","HOUSE_NO":"１３號","E_COORD97":164683.10000000001,"N_COORD97":2549979.4900000002,"ADDRESS":"安中路四段１９７巷４８弄１３號","OBJECTID":77073},"geometry":{"x":164683.10000000056,"y":2549979.4900000021}},{"attributes":{"ID":77074,"DIS_CODE":0,"TOWNNAME":"安南區","LI":"淵中里","LIN":"19鄰","STREET":"安中路","SECT":"四段","MAREA":" ","LANE":"１９７巷","ALLEY":"４８弄","HOUSE_NO":"１５號","E_COORD97":164679.92999999999,"N_COORD97":2549981.5800000001,"ADDRESS":"安中路四段１９７巷４８弄１５號","OBJECTID":77074},"geometry":{"x":164679.9299999997,"y":2549981.5800000019}},{"attributes":{"ID":77075,"DIS_CODE":0,"TOWNNAME":"安南區","LI":"淵中里","LIN":"19鄰","STREET":"安中路","SECT":"四段","MAREA":" ","LANE":"１９７巷","ALLEY":"４８弄","HOUSE_NO":"１６號","E_COORD97":164688.60000000001,"N_COORD97":2550001.6299999999,"ADDRESS":"安中路四段１９７巷４８弄１６號","OBJECTID":77075},"geometry":{"x":164688.60000000056,"y":2550001.629999999}},{"attributes":{"ID":77076,"DIS_CODE":0,"TOWNNAME":"安南區","LI":"淵中里","LIN":"19鄰","STREET":"安中路","SECT":"四段","MAREA":" ","LANE":"１９７巷","ALLEY":"４８弄","HOUSE_NO":"１７號","E_COORD97":164676.17000000001,"N_COORD97":2549983.6600000001,"ADDRESS":"安中路四段１９７巷４８弄１７號","OBJECTID":77076},"geometry":{"x":164676.17000000086,"y":2549983.6600000039}},{"attributes":{"ID":77077,"DIS_CODE":0,"TOWNNAME":"安南區","LI":"淵中里","LIN":"19鄰","STREET":"安中路","SECT":"四段","MAREA":" ","LANE":"１９７巷","ALLEY":"４８弄","HOUSE_NO":"１８號","E_COORD97":164684.73999999999,"N_COORD97":2550003.8199999998,"ADDRESS":"安中路四段１９７巷４８弄１８號","OBJECTID":77077},"geometry":{"x":164684.74000000115,"y":2550003.8200000022}},{"attributes":{"ID":77078,"DIS_CODE":0,"TOWNNAME":"安南區","LI":"淵中里","LIN":"19鄰","STREET":"安中路","SECT":"四段","MAREA":" ","LANE":"１９７巷","ALLEY":"４８弄","HOUSE_NO":"１９號","E_COORD97":164672.66,"N_COORD97":2549985.27,"ADDRESS":"安中路四段１９７巷４８弄１９號","OBJECTID":77078},"geometry":{"x":164672.66000000015,"y":2549985.2699999996}},{"attributes":{"ID":77079,"DIS_CODE":0,"TOWNNAME":"安南區","LI":"淵中里","LIN":"19鄰","STREET":"安中路","SECT":"四段","MAREA":" ","LANE":"１９７巷","ALLEY":"４８弄","HOUSE_NO":"１號","E_COORD97":164705.53,"N_COORD97":2549968.5800000001,"ADDRESS":"安中路四段１９７巷４８弄１號","OBJECTID":77079},"geometry":{"x":164705.53000000026,"y":2549968.5800000019}},{"attributes":{"ID":77080,"DIS_CODE":0,"TOWNNAME":"安南區","LI":"淵中里","LIN":"19鄰","STREET":"安中路","SECT":"四段","MAREA":" ","LANE":"１９７巷","ALLEY":"４８弄","HOUSE_NO":"２０號","E_COORD97":164681.07000000001,"N_COORD97":2550005.3999999999,"ADDRESS":"安中路四段１９７巷４８弄２０號","OBJECTID":77080},"geometry":{"x":164681.07000000123,"y":2550005.4000000004}},{"attributes":{"ID":77081,"DIS_CODE":0,"TOWNNAME":"安南區","LI":"淵中里","LIN":"19鄰","STREET":"安中路","SECT":"四段","MAREA":" ","LANE":"１９７巷","ALLEY":"４８弄","HOUSE_NO":"２１號","E_COORD97":164668.89999999999,"N_COORD97":2549987.27,"ADDRESS":"安中路四段１９７巷４８弄２１號","OBJECTID":77081},"geometry":{"x":164668.90000000037,"y":2549987.2700000014}},{"attributes":{"ID":77082,"DIS_CODE":0,"TOWNNAME":"安南區","LI":"淵中里","LIN":"19鄰","STREET":"安中路","SECT":"四段","MAREA":" ","LANE":"１９７巷","ALLEY":"４８弄","HOUSE_NO":"２２號","E_COORD97":164678.23000000001,"N_COORD97":2550006.9900000002,"ADDRESS":"安中路四段１９７巷４８弄２２號","OBJECTID":77082},"geometry":{"x":164678.23000000138,"y":2550006.9900000002}},{"attributes":{"ID":77083,"DIS_CODE":0,"TOWNNAME":"安南區","LI":"淵中里","LIN":"19鄰","STREET":"安中路","SECT":"四段","MAREA":" ","LANE":"１９７巷","ALLEY":"４８弄","HOUSE_NO":"２３號","E_COORD97":164664.32000000001,"N_COORD97":2549988.9300000002,"ADDRESS":"安中路四段１９７巷４８弄２３號","OBJECTID":77083},"geometry":{"x":164664.3200000003,"y":2549988.9300000016}},{"attributes":{"ID":77084,"DIS_CODE":0,"TOWNNAME":"安南區","LI":"淵中里","LIN":"19鄰","STREET":"安中路","SECT":"四段","MAREA":" ","LANE":"１９７巷","ALLEY":"４８弄","HOUSE_NO":"２４號","E_COORD97":164674.06,"N_COORD97":2550009.2400000002,"ADDRESS":"安中路四段１９７巷４８弄２４號","OBJECTID":77084},"geometry":{"x":164674.05999999959,"y":2550009.2400000002}},{"attributes":{"ID":77085,"DIS_CODE":0,"TOWNNAME":"安南區","LI":"淵中里","LIN":"19鄰","STREET":"安中路","SECT":"四段","MAREA":" ","LANE":"１９７巷","ALLEY":"４８弄","HOUSE_NO":"２６號","E_COORD97":164670.56,"N_COORD97":2550010.9900000002,"ADDRESS":"安中路四段１９７巷４８弄２６號","OBJECTID":77085},"geometry":{"x":164670.55999999959,"y":2550010.9900000002}},{"attributes":{"ID":77086,"DIS_CODE":0,"TOWNNAME":"安南區","LI":"淵中里","LIN":"19鄰","STREET":"安中路","SECT":"四段","MAREA":" ","LANE":"１９７巷","ALLEY":"４８弄","HOUSE_NO":"２８號","E_COORD97":164666.64000000001,"N_COORD97":2550013.1499999999,"ADDRESS":"安中路四段１９７巷４８弄２８號","OBJECTID":77086},"geometry":{"x":164666.63999999966,"y":2550013.1500000004}},{"attributes":{"ID":77087,"DIS_CODE":0,"TOWNNAME":"安南區","LI":"淵中里","LIN":"19鄰","STREET":"安中路","SECT":"四段","MAREA":" ","LANE":"１９７巷","ALLEY":"４８弄","HOUSE_NO":"２９號","E_COORD97":164653.45000000001,"N_COORD97":2549992.71,"ADDRESS":"安中路四段１９７巷４８弄２９號","OBJECTID":77087},"geometry":{"x":164653.45000000019,"y":2549992.7100000009}},{"attributes":{"ID":77088,"DIS_CODE":0,"TOWNNAME":"新營區","LI":"姑爺里","LIN":"7鄰","STREET":" ","SECT":" ","MAREA":"挖仔","LANE":" ","ALLEY":" ","HOUSE_NO":"２號","E_COORD97":173911.98000000001,"N_COORD97":2575655.77,"ADDRESS":"挖仔２號","OBJECTID":77088},"geometry":{"x":173911.98000000138,"y":2575655.7700000014}},{"attributes":{"ID":77089,"DIS_CODE":0,"TOWNNAME":"安南區","LI":"淵中里","LIN":"19鄰","STREET":"安中路","SECT":"四段","MAREA":" ","LANE":"１９７巷","ALLEY":"４８弄","HOUSE_NO":"２號","E_COORD97":164714.85999999999,"N_COORD97":2549989.1400000001,"ADDRESS":"安中路四段１９７巷４８弄２號","OBJECTID":77089},"geometry":{"x":164714.86000000127,"y":2549989.1400000025}},{"attributes":{"ID":77090,"DIS_CODE":0,"TOWNNAME":"安南區","LI":"淵中里","LIN":"19鄰","STREET":"安中路","SECT":"四段","MAREA":" ","LANE":"１９７巷","ALLEY":"４８弄","HOUSE_NO":"３０號","E_COORD97":164662.29999999999,"N_COORD97":2550014.48,"ADDRESS":"安中路四段１９７巷４８弄３０號","OBJECTID":77090},"geometry":{"x":164662.29999999981,"y":2550014.4800000004}},{"attributes":{"ID":77091,"DIS_CODE":0,"TOWNNAME":"安南區","LI":"淵中里","LIN":"19鄰","STREET":"安中路","SECT":"四段","MAREA":" ","LANE":"１９７巷","ALLEY":"４８弄","HOUSE_NO":"３１號","E_COORD97":164649.78,"N_COORD97":2549995.21,"ADDRESS":"安中路四段１９７巷４８弄３１號","OBJECTID":77091},"geometry":{"x":164649.78000000026,"y":2549995.2100000028}},{"attributes":{"ID":77092,"DIS_CODE":0,"TOWNNAME":"安南區","LI":"淵中里","LIN":"19鄰","STREET":"安中路","SECT":"四段","MAREA":" ","LANE":"１９７巷","ALLEY":"４８弄","HOUSE_NO":"３２號","E_COORD97":164658.97,"N_COORD97":2550016.3199999998,"ADDRESS":"安中路四段１９７巷４８弄３２號","OBJECTID":77092},"geometry":{"x":164658.97000000067,"y":2550016.3199999984}},{"attributes":{"ID":77093,"DIS_CODE":0,"TOWNNAME":"安南區","LI":"淵中里","LIN":"19鄰","STREET":"安中路","SECT":"四段","MAREA":" ","LANE":"１９７巷","ALLEY":"４８弄","HOUSE_NO":"３３號","E_COORD97":164645.35999999999,"N_COORD97":2549997.29,"ADDRESS":"安中路四段１９７巷４８弄３３號","OBJECTID":77093},"geometry":{"x":164645.36000000127,"y":2549997.2899999991}},{"attributes":{"ID":77094,"DIS_CODE":0,"TOWNNAME":"安南區","LI":"淵中里","LIN":"19鄰","STREET":"安中路","SECT":"四段","MAREA":" ","LANE":"１９７巷","ALLEY":"４８弄","HOUSE_NO":"３４號","E_COORD97":164655.29999999999,"N_COORD97":2550018.23,"ADDRESS":"安中路四段１９７巷４８弄３４號","OBJECTID":77094},"geometry":{"x":164655.30000000075,"y":2550018.2300000023}},{"attributes":{"ID":77095,"DIS_CODE":0,"TOWNNAME":"安南區","LI":"淵中里","LIN":"19鄰","STREET":"安中路","SECT":"四段","MAREA":" ","LANE":"１９７巷","ALLEY":"４８弄","HOUSE_NO":"３５號","E_COORD97":164642.78,"N_COORD97":2549998.6200000001,"ADDRESS":"安中路四段１９７巷４８弄３５號","OBJECTID":77095},"geometry":{"x":164642.78000000026,"y":2549998.6200000048}},{"attributes":{"ID":77096,"DIS_CODE":0,"TOWNNAME":"安南區","LI":"淵中里","LIN":"19鄰","STREET":"安中路","SECT":"四段","MAREA":" ","LANE":"１９７巷","ALLEY":"４８弄","HOUSE_NO":"３６號","E_COORD97":164651.38,"N_COORD97":2550020.0699999998,"ADDRESS":"安中路四段１９７巷４８弄３６號","OBJECTID":77096},"geometry":{"x":164651.38000000082,"y":2550020.0700000003}},{"attributes":{"ID":77097,"DIS_CODE":0,"TOWNNAME":"安南區","LI":"淵中里","LIN":"19鄰","STREET":"安中路","SECT":"四段","MAREA":" ","LANE":"１９７巷","ALLEY":"４８弄","HOUSE_NO":"３８號","E_COORD97":164648.04000000001,"N_COORD97":2550021.48,"ADDRESS":"安中路四段１９７巷４８弄３８號","OBJECTID":77097},"geometry":{"x":164648.0400000019,"y":2550021.4800000004}},{"attributes":{"ID":77098,"DIS_CODE":0,"TOWNNAME":"安南區","LI":"淵中里","LIN":"19鄰","STREET":"安中路","SECT":"四段","MAREA":" ","LANE":"１９７巷","ALLEY":"４８弄","HOUSE_NO":"３號","E_COORD97":164701.53,"N_COORD97":2549970.4100000001,"ADDRESS":"安中路四段１９７巷４８弄３號","OBJECTID":77098},"geometry":{"x":164701.53000000119,"y":2549970.4100000001}},{"attributes":{"ID":77099,"DIS_CODE":0,"TOWNNAME":"安南區","LI":"淵中里","LIN":"19鄰","STREET":"安中路","SECT":"四段","MAREA":" ","LANE":"１９７巷","ALLEY":"４８弄","HOUSE_NO":"４號","E_COORD97":164711.10999999999,"N_COORD97":2549991.1400000001,"ADDRESS":"安中路四段１９７巷４８弄４號","OBJECTID":77099},"geometry":{"x":164711.11000000127,"y":2549991.1400000043}},{"attributes":{"ID":77100,"DIS_CODE":0,"TOWNNAME":"安南區","LI":"淵中里","LIN":"19鄰","STREET":"安中路","SECT":"四段","MAREA":" ","LANE":"１９７巷","ALLEY":"４８弄","HOUSE_NO":"５號","E_COORD97":164697.60999999999,"N_COORD97":2549972.0800000001,"ADDRESS":"安中路四段１９７巷４８弄５號","OBJECTID":77100},"geometry":{"x":164697.61000000127,"y":2549972.0800000019}},{"attributes":{"ID":77101,"DIS_CODE":0,"TOWNNAME":"安南區","LI":"淵中里","LIN":"19鄰","STREET":"安中路","SECT":"四段","MAREA":" ","LANE":"１９７巷","ALLEY":"４８弄","HOUSE_NO":"６號","E_COORD97":164707.60999999999,"N_COORD97":2549993.2200000002,"ADDRESS":"安中路四段１９７巷４８弄６號","OBJECTID":77101},"geometry":{"x":164707.61000000127,"y":2549993.2200000007}},{"attributes":{"ID":77102,"DIS_CODE":0,"TOWNNAME":"安南區","LI":"淵中里","LIN":"19鄰","STREET":"安中路","SECT":"四段","MAREA":" ","LANE":"１９７巷","ALLEY":"４８弄","HOUSE_NO":"７號","E_COORD97":164694.60000000001,"N_COORD97":2549974.2400000002,"ADDRESS":"安中路四段１９７巷４８弄７號","OBJECTID":77102},"geometry":{"x":164694.5999999987,"y":2549974.2400000021}},{"attributes":{"ID":77103,"DIS_CODE":0,"TOWNNAME":"安南區","LI":"淵中里","LIN":"19鄰","STREET":"安中路","SECT":"四段","MAREA":" ","LANE":"１９７巷","ALLEY":"４８弄","HOUSE_NO":"８號","E_COORD97":164703.35999999999,"N_COORD97":2549994.8799999999,"ADDRESS":"安中路四段１９７巷４８弄８號","OBJECTID":77103},"geometry":{"x":164703.36000000034,"y":2549994.8800000008}},{"attributes":{"ID":77104,"DIS_CODE":0,"TOWNNAME":"安南區","LI":"淵中里","LIN":"19鄰","STREET":"安中路","SECT":"四段","MAREA":" ","LANE":"１９７巷","ALLEY":"４８弄","HOUSE_NO":"９號","E_COORD97":164690.69,"N_COORD97":2549976.0800000001,"ADDRESS":"安中路四段１９７巷４８弄９號","OBJECTID":77104},"geometry":{"x":164690.69000000134,"y":2549976.0800000001}},{"attributes":{"ID":77105,"DIS_CODE":0,"TOWNNAME":"安南區","LI":"淵中里","LIN":"19鄰","STREET":"安中路","SECT":"四段","MAREA":" ","LANE":"１９７巷","ALLEY":"４９弄","HOUSE_NO":"１０號","E_COORD97":164769.95999999999,"N_COORD97":2549941.79,"ADDRESS":"安中路四段１９７巷４９弄１０號","OBJECTID":77105},"geometry":{"x":164769.95999999996,"y":2549941.790000001}},{"attributes":{"ID":77106,"DIS_CODE":0,"TOWNNAME":"安南區","LI":"淵中里","LIN":"19鄰","STREET":"安中路","SECT":"四段","MAREA":" ","LANE":"１９７巷","ALLEY":"４９弄","HOUSE_NO":"１２號","E_COORD97":164774.63,"N_COORD97":2549939.79,"ADDRESS":"安中路四段１９７巷４９弄１２號","OBJECTID":77106},"geometry":{"x":164774.63000000082,"y":2549939.7899999991}},{"attributes":{"ID":77107,"DIS_CODE":0,"TOWNNAME":"安南區","LI":"淵中里","LIN":"19鄰","STREET":"安中路","SECT":"四段","MAREA":" ","LANE":"１９７巷","ALLEY":"４９弄","HOUSE_NO":"２號","E_COORD97":164753.78,"N_COORD97":2549948.29,"ADDRESS":"安中路四段１９７巷４９弄２號","OBJECTID":77107},"geometry":{"x":164753.78000000119,"y":2549948.290000001}},{"attributes":{"ID":77108,"DIS_CODE":0,"TOWNNAME":"安南區","LI":"淵中里","LIN":"19鄰","STREET":"安中路","SECT":"四段","MAREA":" ","LANE":"１９７巷","ALLEY":"４９弄","HOUSE_NO":"４號","E_COORD97":164757.35999999999,"N_COORD97":2549947.29,"ADDRESS":"安中路四段１９７巷４９弄４號","OBJECTID":77108},"geometry":{"x":164757.36000000034,"y":2549947.2899999991}},{"attributes":{"ID":77109,"DIS_CODE":0,"TOWNNAME":"安南區","LI":"淵中里","LIN":"19鄰","STREET":"安中路","SECT":"四段","MAREA":" ","LANE":"１９７巷","ALLEY":"４９弄","HOUSE_NO":"６號","E_COORD97":164761.53,"N_COORD97":2549945.29,"ADDRESS":"安中路四段１９７巷４９弄６號","OBJECTID":77109},"geometry":{"x":164761.53000000026,"y":2549945.290000001}},{"attributes":{"ID":77110,"DIS_CODE":0,"TOWNNAME":"安南區","LI":"淵中里","LIN":"19鄰","STREET":"安中路","SECT":"四段","MAREA":" ","LANE":"１９７巷","ALLEY":"４９弄","HOUSE_NO":"８號","E_COORD97":164765.29000000001,"N_COORD97":2549943.71,"ADDRESS":"安中路四段１９７巷４９弄８號","OBJECTID":77110},"geometry":{"x":164765.29000000097,"y":2549943.7100000028}},{"attributes":{"ID":77111,"DIS_CODE":0,"TOWNNAME":"永康區","LI":"大橋里","LIN":"19鄰","STREET":"大橋一街","SECT":" ","MAREA":" ","LANE":"１３９巷","ALLEY":"４４弄","HOUSE_NO":"３６號","E_COORD97":171036.17999999999,"N_COORD97":2546648.2999999998,"ADDRESS":"大橋一街１３９巷４４弄３６號","OBJECTID":77111},"geometry":{"x":171036.18000000063,"y":2546648.3000000026}},{"attributes":{"ID":77112,"DIS_CODE":0,"TOWNNAME":"山上區","LI":"南洲里","LIN":"6鄰","STREET":" ","SECT":" ","MAREA":"南洲","LANE":" ","ALLEY":" ","HOUSE_NO":"１６６號","E_COORD97":183881.34,"N_COORD97":2555695.25,"ADDRESS":"南洲１６６號","OBJECTID":77112},"geometry":{"x":183881.34000000078,"y":2555695.25}},{"attributes":{"ID":77113,"DIS_CODE":0,"TOWNNAME":"山上區","LI":"新莊里","LIN":"6鄰","STREET":" ","SECT":" ","MAREA":"大庄","LANE":" ","ALLEY":" ","HOUSE_NO":"３號","E_COORD97":183842.81,"N_COORD97":2554731.25,"ADDRESS":"大庄３號","OBJECTID":77113},"geometry":{"x":183842.81000000052,"y":2554731.25}},{"attributes":{"ID":77114,"DIS_CODE":0,"TOWNNAME":"永康區","LI":"三合里","LIN":"19鄰","STREET":"南工街","SECT":" ","MAREA":" ","LANE":"２６７巷","ALLEY":"３７弄","HOUSE_NO":"８號","E_COORD97":171915.82000000001,"N_COORD97":2545837.8500000001,"ADDRESS":"南工街２６７巷３７弄８號","OBJECTID":77114},"geometry":{"x":171915.82000000123,"y":2545837.8499999996}},{"attributes":{"ID":77115,"DIS_CODE":0,"TOWNNAME":"鹽水區","LI":"橋南里","LIN":"7鄰","STREET":"南門路","SECT":" ","MAREA":" ","LANE":" ","ALLEY":" ","HOUSE_NO":"１６９號","E_COORD97":175354.69,"N_COORD97":2579053.3399999999,"ADDRESS":"南門路１６９號","OBJECTID":77115},"geometry":{"x":175354.69000000134,"y":2579053.3399999999}},{"attributes":{"ID":77116,"DIS_CODE":0,"TOWNNAME":"永康區","LI":"大橋里","LIN":"19鄰","STREET":"大橋一街","SECT":" ","MAREA":" ","LANE":"１３９巷","ALLEY":"４４弄","HOUSE_NO":"２０號","E_COORD97":171018.32999999999,"N_COORD97":2546614.7999999998,"ADDRESS":"大橋一街１３９巷４４弄２０號","OBJECTID":77116},"geometry":{"x":171018.33000000194,"y":2546614.8000000026}},{"attributes":{"ID":77117,"DIS_CODE":0,"TOWNNAME":"永康區","LI":"大橋里","LIN":"19鄰","STREET":"大橋一街","SECT":" ","MAREA":" ","LANE":"１３９巷","ALLEY":"４４弄","HOUSE_NO":"３８號","E_COORD97":171041.47,"N_COORD97":2546649.2999999998,"ADDRESS":"大橋一街１３９巷４４弄３８號","OBJECTID":77117},"geometry":{"x":171041.47000000067,"y":2546649.3000000007}},{"attributes":{"ID":77118,"DIS_CODE":0,"TOWNNAME":"永康區","LI":"三合里","LIN":"19鄰","STREET":"南工街","SECT":" ","MAREA":" ","LANE":"２６７巷","ALLEY":"３７弄","HOUSE_NO":"５號","E_COORD97":171910.17000000001,"N_COORD97":2545845.5,"ADDRESS":"南工街２６７巷３７弄５號","OBJECTID":77118},"geometry":{"x":171910.16999999993,"y":2545845.5000000019}},{"attributes":{"ID":77119,"DIS_CODE":0,"TOWNNAME":"永康區","LI":"大灣里","LIN":"19鄰","STREET":"大灣路","SECT":" ","MAREA":" ","LANE":"３５６巷","ALLEY":"１３弄","HOUSE_NO":"７號","E_COORD97":174756.29000000001,"N_COORD97":2545089.5,"ADDRESS":"大灣路３５６巷１３弄７號","OBJECTID":77119},"geometry":{"x":174756.29000000004,"y":2545089.5000000019}},{"attributes":{"ID":77120,"DIS_CODE":0,"TOWNNAME":"永康區","LI":"大橋里","LIN":"19鄰","STREET":"大橋一街","SECT":" ","MAREA":" ","LANE":"１３９巷","ALLEY":"４４弄","HOUSE_NO":"２２號","E_COORD97":171016.17999999999,"N_COORD97":2546618.2999999998,"ADDRESS":"大橋一街１３９巷４４弄２２號","OBJECTID":77120},"geometry":{"x":171016.18000000063,"y":2546618.3000000026}},{"attributes":{"ID":77121,"DIS_CODE":0,"TOWNNAME":"新營區","LI":"新東里","LIN":"17鄰","STREET":"東興四街","SECT":" ","MAREA":" ","LANE":" ","ALLEY":" ","HOUSE_NO":"４２號","E_COORD97":180941.67000000001,"N_COORD97":2579166.3199999998,"ADDRESS":"東興四街４２號","OBJECTID":77121},"geometry":{"x":180941.67000000086,"y":2579166.3200000003}},{"attributes":{"ID":77122,"DIS_CODE":0,"TOWNNAME":"山上區","LI":"新莊里","LIN":"6鄰","STREET":" ","SECT":" ","MAREA":"大庄","LANE":" ","ALLEY":" ","HOUSE_NO":"１之４７號","E_COORD97":184179.76000000001,"N_COORD97":2555009.2999999998,"ADDRESS":"大庄１之４７號","OBJECTID":77122},"geometry":{"x":184179.75999999978,"y":2555009.3000000026}},{"attributes":{"ID":77123,"DIS_CODE":0,"TOWNNAME":"山上區","LI":"新莊里","LIN":"6鄰","STREET":" ","SECT":" ","MAREA":"大庄","LANE":" ","ALLEY":" ","HOUSE_NO":"２之８號","E_COORD97":184022.70999999999,"N_COORD97":2554982.2999999998,"ADDRESS":"大庄２之８號","OBJECTID":77123},"geometry":{"x":184022.70999999996,"y":2554982.3000000026}},{"attributes":{"ID":77124,"DIS_CODE":0,"TOWNNAME":"山上區","LI":"新莊里","LIN":"6鄰","STREET":" ","SECT":" ","MAREA":"大庄","LANE":" ","ALLEY":" ","HOUSE_NO":"１號之１５","E_COORD97":184132.25,"N_COORD97":2555043.2999999998,"ADDRESS":"大庄１號之１５","OBJECTID":77124},"geometry":{"x":184132.25,"y":2555043.3000000026}},{"attributes":{"ID":77125,"DIS_CODE":0,"TOWNNAME":"山上區","LI":"玉\u25A0里","LIN":"6鄰","STREET":" ","SECT":" ","MAREA":"中坑","LANE":" ","ALLEY":" ","HOUSE_NO":"１６號","E_COORD97":187621.37405799999,"N_COORD97":2554909.6956600002,"ADDRESS":"中坑１６號","OBJECTID":77125},"geometry":{"x":187621.37405799981,"y":2554909.695662003}},{"attributes":{"ID":77126,"DIS_CODE":0,"TOWNNAME":"山上區","LI":"新莊里","LIN":"6鄰","STREET":" ","SECT":" ","MAREA":"大庄","LANE":" ","ALLEY":" ","HOUSE_NO":"２號之９","E_COORD97":184025.82999999999,"N_COORD97":2554985.2999999998,"ADDRESS":"大庄２號之９","OBJECTID":77126},"geometry":{"x":184025.83000000101,"y":2554985.3000000026}},{"attributes":{"ID":77127,"DIS_CODE":0,"TOWNNAME":"山上區","LI":"新莊里","LIN":"6鄰","STREET":" ","SECT":" ","MAREA":"大庄","LANE":" ","ALLEY":" ","HOUSE_NO":"１之１３號","E_COORD97":184147.45999999999,"N_COORD97":2555055.2999999998,"ADDRESS":"大庄１之１３號","OBJECTID":77127},"geometry":{"x":184147.46000000089,"y":2555055.3000000045}},{"attributes":{"ID":77128,"DIS_CODE":0,"TOWNNAME":"新營區","LI":"埤寮里","LIN":"2鄰","STREET":" ","SECT":" ","MAREA":"許丑","LANE":" ","ALLEY":" ","HOUSE_NO":"２２號之９","E_COORD97":180011.48999999999,"N_COORD97":2580924.96,"ADDRESS":"許丑２２號之９","OBJECTID":77128},"geometry":{"x":180011.49000000022,"y":2580924.9600000009}},{"attributes":{"ID":77129,"DIS_CODE":0,"TOWNNAME":"山上區","LI":"新莊里","LIN":"6鄰","STREET":" ","SECT":" ","MAREA":"大庄","LANE":" ","ALLEY":" ","HOUSE_NO":"１之４２號","E_COORD97":184161.85999999999,"N_COORD97":2554995.2999999998,"ADDRESS":"大庄１之４２號","OBJECTID":77129},"geometry":{"x":184161.86000000127,"y":2554995.3000000026}},{"attributes":{"ID":77130,"DIS_CODE":0,"TOWNNAME":"山上區","LI":"新莊里","LIN":"6鄰","STREET":" ","SECT":" ","MAREA":"大庄","LANE":" ","ALLEY":" ","HOUSE_NO":"１之３０號","E_COORD97":184168.26000000001,"N_COORD97":2555027.2999999998,"ADDRESS":"大庄１之３０號","OBJECTID":77130},"geometry":{"x":184168.26000000071,"y":2555027.3000000007}},{"attributes":{"ID":77131,"DIS_CODE":0,"TOWNNAME":"永康區","LI":"三合里","LIN":"19鄰","STREET":"南工街","SECT":" ","MAREA":" ","LANE":"２６７巷","ALLEY":"４７弄","HOUSE_NO":"５號","E_COORD97":171905.45999999999,"N_COORD97":2545816.6099999999,"ADDRESS":"南工街２６７巷４７弄５號","OBJECTID":77131},"geometry":{"x":171905.45999999996,"y":2545816.6100000031}},{"attributes":{"ID":77132,"DIS_CODE":0,"TOWNNAME":"永康區","LI":"大橋里","LIN":"19鄰","STREET":"大橋一街","SECT":" ","MAREA":" ","LANE":"１３９巷","ALLEY":"２２弄","HOUSE_NO":"７１號","E_COORD97":171052.35999999999,"N_COORD97":2546628.0499999998,"ADDRESS":"大橋一街１３９巷２２弄７１號","OBJECTID":77132},"geometry":{"x":171052.3600000022,"y":2546628.0500000007}},{"attributes":{"ID":77133,"DIS_CODE":0,"TOWNNAME":"永康區","LI":"大橋里","LIN":"19鄰","STREET":"大橋一街","SECT":" ","MAREA":" ","LANE":"１３９巷","ALLEY":"２２弄","HOUSE_NO":"７７號","E_COORD97":171044.92000000001,"N_COORD97":2546639.5499999998,"ADDRESS":"大橋一街１３９巷２２弄７７號","OBJECTID":77133},"geometry":{"x":171044.92000000086,"y":2546639.5500000026}},{"attributes":{"ID":77134,"DIS_CODE":0,"TOWNNAME":"永康區","LI":"二王里","LIN":"19鄰","STREET":"中山南路","SECT":" ","MAREA":" ","LANE":"６４４巷","ALLEY":"２９弄","HOUSE_NO":"１０號","E_COORD97":172437.89999999999,"N_COORD97":2546575.23,"ADDRESS":"中山南路６４４巷２９弄１０號","OBJECTID":77134},"geometry":{"x":172437.9000000013,"y":2546575.2300000004}},{"attributes":{"ID":77135,"DIS_CODE":0,"TOWNNAME":"永康區","LI":"二王里","LIN":"19鄰","STREET":"中山南路","SECT":" ","MAREA":" ","LANE":"６４４巷","ALLEY":"２９弄","HOUSE_NO":"４號","E_COORD97":172417.69,"N_COORD97":2546574.48,"ADDRESS":"中山南路６４４巷２９弄４號","OBJECTID":77135},"geometry":{"x":172417.69000000041,"y":2546574.4800000042}},{"attributes":{"ID":77136,"DIS_CODE":0,"TOWNNAME":"永康區","LI":"三合里","LIN":"19鄰","STREET":"南工街","SECT":" ","MAREA":" ","LANE":"２６７巷","ALLEY":"２７弄","HOUSE_NO":"８號","E_COORD97":171920.06,"N_COORD97":2545867.25,"ADDRESS":"南工街２６７巷２７弄８號","OBJECTID":77136},"geometry":{"x":171920.06000000052,"y":2545867.2500000019}},{"attributes":{"ID":77137,"DIS_CODE":0,"TOWNNAME":"山上區","LI":"新莊里","LIN":"6鄰","STREET":" ","SECT":" ","MAREA":"大庄","LANE":" ","ALLEY":" ","HOUSE_NO":"１之１１９號","E_COORD97":184266.46465099999,"N_COORD97":2554948.7824800001,"ADDRESS":"大庄１之１１９號","OBJECTID":77137},"geometry":{"x":184266.46465100069,"y":2554948.7824830003}},{"attributes":{"ID":77138,"DIS_CODE":0,"TOWNNAME":"永康區","LI":"三合里","LIN":"19鄰","STREET":"南工街","SECT":" ","MAREA":" ","LANE":"２６７巷","ALLEY":"３７弄","HOUSE_NO":"７號","E_COORD97":171916.20999999999,"N_COORD97":2545844.5,"ADDRESS":"南工街２６７巷３７弄７號","OBJECTID":77138},"geometry":{"x":171916.21000000089,"y":2545844.5}},{"attributes":{"ID":77139,"DIS_CODE":0,"TOWNNAME":"永康區","LI":"崑山里","LIN":"19鄰","STREET":"大仁街","SECT":" ","MAREA":" ","LANE":"１１巷","ALLEY":"５弄","HOUSE_NO":"７號","E_COORD97":173785.10000000001,"N_COORD97":2544505.8900000001,"ADDRESS":"大仁街１１巷５弄７號","OBJECTID":77139},"geometry":{"x":173785.10000000056,"y":2544505.8900000006}},{"attributes":{"ID":77140,"DIS_CODE":0,"TOWNNAME":"善化區","LI":"六德里","LIN":"6鄰","STREET":" ","SECT":" ","MAREA":"六分寮","LANE":" ","ALLEY":" ","HOUSE_NO":"２５０號","E_COORD97":178806.67999999999,"N_COORD97":2561630.25,"ADDRESS":"六分寮２５０號","OBJECTID":77140},"geometry":{"x":178806.68000000156,"y":2561630.2500000019}},{"attributes":{"ID":77141,"DIS_CODE":0,"TOWNNAME":"善化區","LI":"東隆里","LIN":"6鄰","STREET":" ","SECT":" ","MAREA":"東勢寮","LANE":" ","ALLEY":" ","HOUSE_NO":"１７５之１７號","E_COORD97":180041.29999999999,"N_COORD97":2561870.52,"ADDRESS":"東勢寮１７５之１７號","OBJECTID":77141},"geometry":{"x":180041.29999999981,"y":2561870.5200000033}},{"attributes":{"ID":77142,"DIS_CODE":0,"TOWNNAME":"善化區","LI":"東隆里","LIN":"6鄰","STREET":" ","SECT":" ","MAREA":"東勢寮","LANE":" ","ALLEY":" ","HOUSE_NO":"１８４號","E_COORD97":180008.45000000001,"N_COORD97":2561830.5099999998,"ADDRESS":"東勢寮１８４號","OBJECTID":77142},"geometry":{"x":180008.45000000019,"y":2561830.5100000016}},{"attributes":{"ID":77143,"DIS_CODE":0,"TOWNNAME":"善化區","LI":"光文里","LIN":"6鄰","STREET":" ","SECT":" ","MAREA":"北子店","LANE":" ","ALLEY":" ","HOUSE_NO":"３０２號","E_COORD97":179111.47,"N_COORD97":2559486.5,"ADDRESS":"北子店３０２號","OBJECTID":77143},"geometry":{"x":179111.46999999881,"y":2559486.5}},{"attributes":{"ID":77144,"DIS_CODE":0,"TOWNNAME":"善化區","LI":"東隆里","LIN":"6鄰","STREET":" ","SECT":" ","MAREA":"東勢寮","LANE":" ","ALLEY":" ","HOUSE_NO":"１７５之２號","E_COORD97":180068.98000000001,"N_COORD97":2561853.02,"ADDRESS":"東勢寮１７５之２號","OBJECTID":77144},"geometry":{"x":180068.98000000138,"y":2561853.0199999996}},{"attributes":{"ID":77145,"DIS_CODE":0,"TOWNNAME":"善化區","LI":"東隆里","LIN":"6鄰","STREET":" ","SECT":" ","MAREA":"東勢寮","LANE":" ","ALLEY":" ","HOUSE_NO":"１７５之９號","E_COORD97":180070.69,"N_COORD97":2561882.52,"ADDRESS":"東勢寮１７５之９號","OBJECTID":77145},"geometry":{"x":180070.69000000134,"y":2561882.5199999996}},{"attributes":{"ID":77146,"DIS_CODE":0,"TOWNNAME":"鹽水區","LI":"岸內里","LIN":"8鄰","STREET":" ","SECT":" ","MAREA":"松子腳","LANE":" ","ALLEY":" ","HOUSE_NO":"１４號","E_COORD97":174907.95999999999,"N_COORD97":2580636.4199999999,"ADDRESS":"松子腳１４號","OBJECTID":77146},"geometry":{"x":174907.96000000183,"y":2580636.4199999999}},{"attributes":{"ID":77147,"DIS_CODE":0,"TOWNNAME":"善化區","LI":"光文里","LIN":"6鄰","STREET":" ","SECT":" ","MAREA":"北子店","LANE":" ","ALLEY":" ","HOUSE_NO":"３３８之１號","E_COORD97":179190.42000000001,"N_COORD97":2559468.52,"ADDRESS":"北子店３３８之１號","OBJECTID":77147},"geometry":{"x":179190.42000000086,"y":2559468.5199999996}},{"attributes":{"ID":77148,"DIS_CODE":0,"TOWNNAME":"善化區","LI":"東隆里","LIN":"6鄰","STREET":" ","SECT":" ","MAREA":"東勢寮","LANE":" ","ALLEY":" ","HOUSE_NO":"１７５之５號","E_COORD97":180069.67999999999,"N_COORD97":2561865.77,"ADDRESS":"東勢寮１７５之５號","OBJECTID":77148},"geometry":{"x":180069.68000000156,"y":2561865.7700000033}},{"attributes":{"ID":77149,"DIS_CODE":0,"TOWNNAME":"善化區","LI":"東隆里","LIN":"6鄰","STREET":" ","SECT":" ","MAREA":"東勢寮","LANE":" ","ALLEY":" ","HOUSE_NO":"１７５之１０號","E_COORD97":180071.59,"N_COORD97":2561886.77,"ADDRESS":"東勢寮１７５之１０號","OBJECTID":77149},"geometry":{"x":180071.58999999985,"y":2561886.7700000014}},{"attributes":{"ID":77150,"DIS_CODE":0,"TOWNNAME":"善化區","LI":"東隆里","LIN":"6鄰","STREET":" ","SECT":" ","MAREA":"東勢寮","LANE":" ","ALLEY":" ","HOUSE_NO":"１７５之１號","E_COORD97":180068.79000000001,"N_COORD97":2561848.52,"ADDRESS":"東勢寮１７５之１號","OBJECTID":77150},"geometry":{"x":180068.79000000004,"y":2561848.5200000014}},{"attributes":{"ID":77151,"DIS_CODE":0,"TOWNNAME":"善化區","LI":"東隆里","LIN":"6鄰","STREET":" ","SECT":" ","MAREA":"東勢寮","LANE":" ","ALLEY":" ","HOUSE_NO":"１８６之７號","E_COORD97":179984.54999999999,"N_COORD97":2561759.52,"ADDRESS":"東勢寮１８６之７號","OBJECTID":77151},"geometry":{"x":179984.55000000075,"y":2561759.5200000014}},{"attributes":{"ID":77152,"DIS_CODE":0,"TOWNNAME":"西港區","LI":"營西里","LIN":"6鄰","STREET":" ","SECT":" ","MAREA":"後營","LANE":" ","ALLEY":" ","HOUSE_NO":"５２號之１","E_COORD97":169602.98999999999,"N_COORD97":2560551.3700000001,"ADDRESS":"後營５２號之１","OBJECTID":77152},"geometry":{"x":169602.99000000022,"y":2560551.3700000029}},{"attributes":{"ID":77153,"DIS_CODE":0,"TOWNNAME":"善化區","LI":"胡厝里","LIN":"6鄰","STREET":" ","SECT":" ","MAREA":"胡厝寮","LANE":" ","ALLEY":" ","HOUSE_NO":"１９２號之１","E_COORD97":175223.39000000001,"N_COORD97":2560431.52,"ADDRESS":"胡厝寮１９２號之１","OBJECTID":77153},"geometry":{"x":175223.39000000153,"y":2560431.5199999996}},{"attributes":{"ID":77154,"DIS_CODE":0,"TOWNNAME":"善化區","LI":"溪美里","LIN":"6鄰","STREET":" ","SECT":" ","MAREA":"溪尾","LANE":" ","ALLEY":" ","HOUSE_NO":"５１之２號","E_COORD97":176859.79000000001,"N_COORD97":2561118.27,"ADDRESS":"溪尾５１之２號","OBJECTID":77154},"geometry":{"x":176859.79000000004,"y":2561118.2699999996}},{"attributes":{"ID":77155,"DIS_CODE":0,"TOWNNAME":"善化區","LI":"溪美里","LIN":"6鄰","STREET":" ","SECT":" ","MAREA":"溪尾","LANE":" ","ALLEY":" ","HOUSE_NO":"５１之６號","E_COORD97":176870.09,"N_COORD97":2561169.02,"ADDRESS":"溪尾５１之６號","OBJECTID":77155},"geometry":{"x":176870.09000000078,"y":2561169.0200000033}},{"attributes":{"ID":77156,"DIS_CODE":0,"TOWNNAME":"善化區","LI":"胡厝里","LIN":"6鄰","STREET":" ","SECT":" ","MAREA":"胡厝寮","LANE":" ","ALLEY":" ","HOUSE_NO":"１９６號","E_COORD97":175260.41,"N_COORD97":2560490.25,"ADDRESS":"胡厝寮１９６號","OBJECTID":77156},"geometry":{"x":175260.41000000015,"y":2560490.2500000019}},{"attributes":{"ID":77157,"DIS_CODE":0,"TOWNNAME":"善化區","LI":"光文里","LIN":"6鄰","STREET":" ","SECT":" ","MAREA":"北子店","LANE":" ","ALLEY":" ","HOUSE_NO":"２９８號","E_COORD97":179087.29999999999,"N_COORD97":2559486.75,"ADDRESS":"北子店２９８號","OBJECTID":77157},"geometry":{"x":179087.29999999888,"y":2559486.7500000019}},{"attributes":{"ID":77158,"DIS_CODE":0,"TOWNNAME":"新營區","LI":"太北里","LIN":"2鄰","STREET":" ","SECT":" ","MAREA":"太子宮","LANE":" ","ALLEY":" ","HOUSE_NO":"１５號之２７","E_COORD97":176134.28,"N_COORD97":2577171.7999999998,"ADDRESS":"太子宮１５號之２７","OBJECTID":77158},"geometry":{"x":176134.28000000026,"y":2577171.8000000026}},{"attributes":{"ID":77159,"DIS_CODE":0,"TOWNNAME":"新營區","LI":"護鎮里","LIN":"4鄰","STREET":" ","SECT":" ","MAREA":"後鎮","LANE":" ","ALLEY":" ","HOUSE_NO":"４３號之５","E_COORD97":179192.70000000001,"N_COORD97":2581219.0099999998,"ADDRESS":"後鎮４３之５號","OBJECTID":77159},"geometry":{"x":179192.70000000112,"y":2581219.0099999998}},{"attributes":{"ID":77160,"DIS_CODE":0,"TOWNNAME":"善化區","LI":"光文里","LIN":"6鄰","STREET":" ","SECT":" ","MAREA":"北子店","LANE":" ","ALLEY":" ","HOUSE_NO":"３１２號","E_COORD97":179134.81,"N_COORD97":2559482.25,"ADDRESS":"北子店３１２號","OBJECTID":77160},"geometry":{"x":179134.81000000052,"y":2559482.25}},{"attributes":{"ID":77161,"DIS_CODE":0,"TOWNNAME":"善化區","LI":"胡家里","LIN":"6鄰","STREET":" ","SECT":" ","MAREA":"胡厝寮","LANE":" ","ALLEY":" ","HOUSE_NO":"４８號","E_COORD97":175475.78,"N_COORD97":2560561.25,"ADDRESS":"胡厝寮４８號","OBJECTID":77161},"geometry":{"x":175475.78000000119,"y":2560561.2500000019}},{"attributes":{"ID":77162,"DIS_CODE":0,"TOWNNAME":"新化區","LI":"\u25A0拔里","LIN":"6鄰","STREET":" ","SECT":" ","MAREA":"\u25A0拔林","LANE":" ","ALLEY":" ","HOUSE_NO":"２６７號之３","E_COORD97":183530.72,"N_COORD97":2551936.2599999998,"ADDRESS":"\u25A0拔林２６７號之３","OBJECTID":77162},"geometry":{"x":183530.71999999974,"y":2551936.2600000016}},{"attributes":{"ID":77163,"DIS_CODE":0,"TOWNNAME":"新化區","LI":"北勢里","LIN":"6鄰","STREET":" ","SECT":" ","MAREA":"北勢","LANE":" ","ALLEY":" ","HOUSE_NO":"１１３號之２２","E_COORD97":177055.19,"N_COORD97":2549908.2599999998,"ADDRESS":"北勢１１３號之２２","OBJECTID":77163},"geometry":{"x":177055.19000000134,"y":2549908.2600000016}},{"attributes":{"ID":77164,"DIS_CODE":0,"TOWNNAME":"安南區","LI":"安富里","LIN":"19鄰","STREET":"安富街","SECT":" ","MAREA":" ","LANE":"１９９巷","ALLEY":"２弄","HOUSE_NO":"１１號","E_COORD97":167656.51999999999,"N_COORD97":2547416.5299999998,"ADDRESS":"安富街１９９巷２弄１１號","OBJECTID":77164},"geometry":{"x":167656.51999999955,"y":2547416.5299999993}},{"attributes":{"ID":77165,"DIS_CODE":0,"TOWNNAME":"新化區","LI":"北勢里","LIN":"6鄰","STREET":" ","SECT":" ","MAREA":"北勢","LANE":" ","ALLEY":" ","HOUSE_NO":"１００號之１８","E_COORD97":177312.39000000001,"N_COORD97":2549736.2599999998,"ADDRESS":"北勢１００號之１８","OBJECTID":77165},"geometry":{"x":177312.3900000006,"y":2549736.2600000016}},{"attributes":{"ID":77166,"DIS_CODE":0,"TOWNNAME":"麻豆區","LI":"北勢里","LIN":"6鄰","STREET":" ","SECT":" ","MAREA":"太子宅","LANE":" ","ALLEY":" ","HOUSE_NO":"２號之５","E_COORD97":173349.31,"N_COORD97":2565801.5499999998,"ADDRESS":"太子宅２號之５","OBJECTID":77166},"geometry":{"x":173349.31000000052,"y":2565801.5500000026}},{"attributes":{"ID":77167,"DIS_CODE":0,"TOWNNAME":"麻豆區","LI":"北勢里","LIN":"6鄰","STREET":" ","SECT":" ","MAREA":"太子宅","LANE":" ","ALLEY":" ","HOUSE_NO":"３號之１","E_COORD97":173170.85000000001,"N_COORD97":2565915.1000000001,"ADDRESS":"太子宅３號之１","OBJECTID":77167},"geometry":{"x":173170.85000000056,"y":2565915.1000000034}},{"attributes":{"ID":77168,"DIS_CODE":0,"TOWNNAME":"白河區","LI":"詔安里","LIN":"6鄰","STREET":" ","SECT":" ","MAREA":"詔安厝","LANE":" ","ALLEY":" ","HOUSE_NO":"７２之７號","E_COORD97":189948.97,"N_COORD97":2587917.1699999999,"ADDRESS":"詔安厝７２之７號","OBJECTID":77168},"geometry":{"x":189948.9700000016,"y":2587917.1699999999}},{"attributes":{"ID":77169,"DIS_CODE":0,"TOWNNAME":"安南區","LI":"安富里","LIN":"19鄰","STREET":"安富街","SECT":" ","MAREA":" ","LANE":"１９９巷","ALLEY":"２弄","HOUSE_NO":"１６號","E_COORD97":167630.14000000001,"N_COORD97":2547430.0899999999,"ADDRESS":"安富街１９９巷２弄１６號","OBJECTID":77169},"geometry":{"x":167630.13999999966,"y":2547430.0899999999}},{"attributes":{"ID":77170,"DIS_CODE":0,"TOWNNAME":"安南區","LI":"安富里","LIN":"19鄰","STREET":"安富街","SECT":" ","MAREA":" ","LANE":"１９９巷","ALLEY":"２弄","HOUSE_NO":"５號","E_COORD97":167676.23999999999,"N_COORD97":2547419.9700000002,"ADDRESS":"安富街１９９巷２弄５號","OBJECTID":77170},"geometry":{"x":167676.24000000209,"y":2547419.9700000025}},{"attributes":{"ID":77171,"DIS_CODE":0,"TOWNNAME":"白河區","LI":"詔安里","LIN":"6鄰","STREET":" ","SECT":" ","MAREA":"詔安厝","LANE":" ","ALLEY":" ","HOUSE_NO":"７２之９號","E_COORD97":189928.57999999999,"N_COORD97":2587840.6400000001,"ADDRESS":"詔安厝７２之９號","OBJECTID":77171},"geometry":{"x":189928.58000000101,"y":2587840.6400000006}},{"attributes":{"ID":77172,"DIS_CODE":0,"TOWNNAME":"白河區","LI":"詔安里","LIN":"6鄰","STREET":" ","SECT":" ","MAREA":"詔安厝","LANE":" ","ALLEY":" ","HOUSE_NO":"７２號","E_COORD97":189953.20000000001,"N_COORD97":2587949.3700000001,"ADDRESS":"詔安厝７２號","OBJECTID":77172},"geometry":{"x":189953.20000000112,"y":2587949.3700000029}},{"attributes":{"ID":77173,"DIS_CODE":0,"TOWNNAME":"白河區","LI":"詔安里","LIN":"6鄰","STREET":" ","SECT":" ","MAREA":"詔安厝","LANE":" ","ALLEY":" ","HOUSE_NO":"７３之１號","E_COORD97":189928.01999999999,"N_COORD97":2587935.3700000001,"ADDRESS":"詔安厝７３之１號","OBJECTID":77173},"geometry":{"x":189928.02000000142,"y":2587935.3700000029}},{"attributes":{"ID":77174,"DIS_CODE":0,"TOWNNAME":"白河區","LI":"詔安里","LIN":"6鄰","STREET":" ","SECT":" ","MAREA":"詔安厝","LANE":" ","ALLEY":" ","HOUSE_NO":"７３號","E_COORD97":189917.39999999999,"N_COORD97":2587950.71,"ADDRESS":"詔安厝７３號","OBJECTID":77174},"geometry":{"x":189917.40000000037,"y":2587950.7100000028}},{"attributes":{"ID":77175,"DIS_CODE":0,"TOWNNAME":"西港區","LI":"營西里","LIN":"6鄰","STREET":" ","SECT":" ","MAREA":"後營","LANE":" ","ALLEY":" ","HOUSE_NO":"４９號之１","E_COORD97":169749.5,"N_COORD97":2560274.1600000001,"ADDRESS":"後營４９號之１","OBJECTID":77175},"geometry":{"x":169749.50000000093,"y":2560274.160000002}},{"attributes":{"ID":77176,"DIS_CODE":0,"TOWNNAME":"西港區","LI":"營西里","LIN":"6鄰","STREET":" ","SECT":" ","MAREA":"後營","LANE":" ","ALLEY":" ","HOUSE_NO":"４９號之２","E_COORD97":169743.35000000001,"N_COORD97":2560276.3500000001,"ADDRESS":"後營４９號之２","OBJECTID":77176},"geometry":{"x":169743.35000000056,"y":2560276.3500000015}},{"attributes":{"ID":77177,"DIS_CODE":0,"TOWNNAME":"西港區","LI":"營西里","LIN":"6鄰","STREET":" ","SECT":" ","MAREA":"後營","LANE":" ","ALLEY":" ","HOUSE_NO":"４９號","E_COORD97":169720.35999999999,"N_COORD97":2560288.8399999999,"ADDRESS":"後營４９號","OBJECTID":77177},"geometry":{"x":169720.36000000127,"y":2560288.8400000036}},{"attributes":{"ID":77178,"DIS_CODE":0,"TOWNNAME":"安南區","LI":"安富里","LIN":"19鄰","STREET":"安富街","SECT":" ","MAREA":" ","LANE":"１９９巷","ALLEY":"２弄","HOUSE_NO":"７號","E_COORD97":167669.82000000001,"N_COORD97":2547418.8199999998,"ADDRESS":"安富街１９９巷２弄７號","OBJECTID":77178},"geometry":{"x":167669.82000000123,"y":2547418.8200000003}},{"attributes":{"ID":77179,"DIS_CODE":0,"TOWNNAME":"仁德區","LI":"仁愛里","LIN":"6鄰","STREET":" ","SECT":" ","MAREA":"仁愛","LANE":" ","ALLEY":" ","HOUSE_NO":"９９號","E_COORD97":170313.40406299999,"N_COORD97":2539805.8799999999,"ADDRESS":"仁愛９９號","OBJECTID":77179},"geometry":{"x":170313.40406300128,"y":2539805.879999999}},{"attributes":{"ID":77180,"DIS_CODE":0,"TOWNNAME":"安南區","LI":"安富里","LIN":"19鄰","STREET":"安富街","SECT":" ","MAREA":" ","LANE":"１９９巷","ALLEY":"３弄","HOUSE_NO":"１１號","E_COORD97":167740.92000000001,"N_COORD97":2547457.23,"ADDRESS":"安富街１９９巷３弄１１號","OBJECTID":77180},"geometry":{"x":167740.92000000179,"y":2547457.2300000004}},{"attributes":{"ID":77181,"DIS_CODE":0,"TOWNNAME":"安南區","LI":"安富里","LIN":"19鄰","STREET":"安富街","SECT":" ","MAREA":" ","LANE":"１９９巷","ALLEY":"３弄","HOUSE_NO":"１２號","E_COORD97":167744.82999999999,"N_COORD97":2547436.5,"ADDRESS":"安富街１９９巷３弄１２號","OBJECTID":77181},"geometry":{"x":167744.83000000007,"y":2547436.5000000019}},{"attributes":{"ID":77182,"DIS_CODE":0,"TOWNNAME":"安南區","LI":"安富里","LIN":"19鄰","STREET":"安富街","SECT":" ","MAREA":" ","LANE":"１９９巷","ALLEY":"３弄","HOUSE_NO":"１３號","E_COORD97":167747.34,"N_COORD97":2547457.9100000001,"ADDRESS":"安富街１９９巷３弄１３號","OBJECTID":77182},"geometry":{"x":167747.33999999985,"y":2547457.9100000001}},{"attributes":{"ID":77183,"DIS_CODE":0,"TOWNNAME":"安平區","LI":"漁光里","LIN":"7鄰","STREET":"漁光路","SECT":" ","MAREA":" ","LANE":" ","ALLEY":" ","HOUSE_NO":"１１６號","E_COORD97":163504.13,"N_COORD97":2542524.5800000001,"ADDRESS":"漁光路１１６號","OBJECTID":77183},"geometry":{"x":163504.12999999989,"y":2542524.5800000001}},{"attributes":{"ID":77184,"DIS_CODE":0,"TOWNNAME":"西港區","LI":"營西里","LIN":"6鄰","STREET":" ","SECT":" ","MAREA":"後營","LANE":" ","ALLEY":" ","HOUSE_NO":"５０號","E_COORD97":169759.10999999999,"N_COORD97":2560273.54,"ADDRESS":"後營５０號","OBJECTID":77184},"geometry":{"x":169759.11000000127,"y":2560273.540000001}},{"attributes":{"ID":77185,"DIS_CODE":0,"TOWNNAME":"西港區","LI":"營西里","LIN":"6鄰","STREET":" ","SECT":" ","MAREA":"後營","LANE":" ","ALLEY":" ","HOUSE_NO":"５１號之１","E_COORD97":169753.17999999999,"N_COORD97":2560310.9900000002,"ADDRESS":"後營５１號之１","OBJECTID":77185},"geometry":{"x":169753.18000000063,"y":2560310.9900000002}},{"attributes":{"ID":77186,"DIS_CODE":0,"TOWNNAME":"西港區","LI":"營西里","LIN":"6鄰","STREET":" ","SECT":" ","MAREA":"後營","LANE":" ","ALLEY":" ","HOUSE_NO":"５１號之２","E_COORD97":169752.17999999999,"N_COORD97":2560315.6899999999,"ADDRESS":"後營５１號之２","OBJECTID":77186},"geometry":{"x":169752.1799999997,"y":2560315.6899999995}},{"attributes":{"ID":77187,"DIS_CODE":0,"TOWNNAME":"西港區","LI":"營西里","LIN":"6鄰","STREET":" ","SECT":" ","MAREA":"後營","LANE":" ","ALLEY":" ","HOUSE_NO":"５１號","E_COORD97":169745.12,"N_COORD97":2560299.6400000001,"ADDRESS":"後營５１號","OBJECTID":77187},"geometry":{"x":169745.12000000197,"y":2560299.6400000006}},{"attributes":{"ID":77188,"DIS_CODE":0,"TOWNNAME":"新營區","LI":"埤寮里","LIN":"2鄰","STREET":" ","SECT":" ","MAREA":"許丑","LANE":" ","ALLEY":" ","HOUSE_NO":"２２號之１８","E_COORD97":180001.48999999999,"N_COORD97":2580925.0099999998,"ADDRESS":"許丑２２號之１８","OBJECTID":77188},"geometry":{"x":180001.49000000022,"y":2580925.0100000035}},{"attributes":{"ID":77189,"DIS_CODE":0,"TOWNNAME":"新營區","LI":"護鎮里","LIN":"4鄰","STREET":" ","SECT":" ","MAREA":"後鎮","LANE":" ","ALLEY":" ","HOUSE_NO":"４３號之２７","E_COORD97":179151.89999999999,"N_COORD97":2581193.73,"ADDRESS":"後鎮４３之２７號","OBJECTID":77189},"geometry":{"x":179151.9000000013,"y":2581193.7300000004}},{"attributes":{"ID":77190,"DIS_CODE":0,"TOWNNAME":"西港區","LI":"營西里","LIN":"6鄰","STREET":" ","SECT":" ","MAREA":"後營","LANE":" ","ALLEY":" ","HOUSE_NO":"５７號","E_COORD97":169690.44,"N_COORD97":2560328.7400000002,"ADDRESS":"後營５７號","OBJECTID":77190},"geometry":{"x":169690.44000000041,"y":2560328.7400000021}},{"attributes":{"ID":77191,"DIS_CODE":0,"TOWNNAME":"西港區","LI":"金砂里","LIN":"6鄰","STREET":" ","SECT":" ","MAREA":"砂凹子","LANE":" ","ALLEY":" ","HOUSE_NO":"２５號之１","E_COORD97":168702.81,"N_COORD97":2561818.71,"ADDRESS":"砂凹子２５號之１","OBJECTID":77191},"geometry":{"x":168702.81000000052,"y":2561818.7100000009}},{"attributes":{"ID":77192,"DIS_CODE":0,"TOWNNAME":"西港區","LI":"金砂里","LIN":"6鄰","STREET":" ","SECT":" ","MAREA":"砂凹子","LANE":" ","ALLEY":" ","HOUSE_NO":"２５號之２","E_COORD97":168701.73000000001,"N_COORD97":2561822.6400000001,"ADDRESS":"砂凹子２５號之２","OBJECTID":77192},"geometry":{"x":168701.73000000045,"y":2561822.6400000006}},{"attributes":{"ID":77193,"DIS_CODE":0,"TOWNNAME":"西港區","LI":"金砂里","LIN":"6鄰","STREET":" ","SECT":" ","MAREA":"砂凹子","LANE":" ","ALLEY":" ","HOUSE_NO":"２５號之３","E_COORD97":168700.64999999999,"N_COORD97":2561826.5699999998,"ADDRESS":"砂凹子２５號之３","OBJECTID":77193},"geometry":{"x":168700.65000000037,"y":2561826.5700000003}},{"attributes":{"ID":77194,"DIS_CODE":0,"TOWNNAME":"西港區","LI":"金砂里","LIN":"6鄰","STREET":" ","SECT":" ","MAREA":"砂凹子","LANE":" ","ALLEY":" ","HOUSE_NO":"２５號之４","E_COORD97":168699.57000000001,"N_COORD97":2561830.5,"ADDRESS":"砂凹子２５號之４","OBJECTID":77194},"geometry":{"x":168699.56999999937,"y":2561830.5000000037}},{"attributes":{"ID":77195,"DIS_CODE":0,"TOWNNAME":"西港區","LI":"金砂里","LIN":"6鄰","STREET":" ","SECT":" ","MAREA":"砂凹子","LANE":" ","ALLEY":" ","HOUSE_NO":"２５號之５","E_COORD97":168698.48999999999,"N_COORD97":2561834.4300000002,"ADDRESS":"砂凹子２５號之５","OBJECTID":77195},"geometry":{"x":168698.49000000209,"y":2561834.4300000016}},{"attributes":{"ID":77196,"DIS_CODE":0,"TOWNNAME":"西港區","LI":"金砂里","LIN":"6鄰","STREET":" ","SECT":" ","MAREA":"砂凹子","LANE":" ","ALLEY":" ","HOUSE_NO":"２５號","E_COORD97":168708.39999999999,"N_COORD97":2561814.2799999998,"ADDRESS":"砂凹子２５號","OBJECTID":77196},"geometry":{"x":168708.4000000013,"y":2561814.2800000031}},{"attributes":{"ID":77197,"DIS_CODE":0,"TOWNNAME":"西港區","LI":"金砂里","LIN":"6鄰","STREET":" ","SECT":" ","MAREA":"砂凹子","LANE":" ","ALLEY":" ","HOUSE_NO":"２６號之１","E_COORD97":168752.06,"N_COORD97":2561900.3500000001,"ADDRESS":"砂凹子２６號之１","OBJECTID":77197},"geometry":{"x":168752.06000000052,"y":2561900.3500000015}},{"attributes":{"ID":77198,"DIS_CODE":0,"TOWNNAME":"西港區","LI":"金砂里","LIN":"6鄰","STREET":" ","SECT":" ","MAREA":"砂凹子","LANE":" ","ALLEY":" ","HOUSE_NO":"２６之５號","E_COORD97":168719.78,"N_COORD97":2561908.1499999999,"ADDRESS":"砂凹子２６之５號","OBJECTID":77198},"geometry":{"x":168719.78000000026,"y":2561908.1500000022}},{"attributes":{"ID":77199,"DIS_CODE":0,"TOWNNAME":"西港區","LI":"金砂里","LIN":"6鄰","STREET":" ","SECT":" ","MAREA":"砂凹子","LANE":" ","ALLEY":" ","HOUSE_NO":"２６號之６","E_COORD97":168678.38,"N_COORD97":2561925.5,"ADDRESS":"砂凹子２６號之６","OBJECTID":77199},"geometry":{"x":168678.37999999896,"y":2561925.5000000037}},{"attributes":{"ID":77200,"DIS_CODE":0,"TOWNNAME":"安南區","LI":"安富里","LIN":"19鄰","STREET":"安富街","SECT":" ","MAREA":" ","LANE":"１９９巷","ALLEY":"３弄","HOUSE_NO":"１４號","E_COORD97":167750.57000000001,"N_COORD97":2547437.8799999999,"ADDRESS":"安富街１９９巷３弄１４號","OBJECTID":77200},"geometry":{"x":167750.57000000123,"y":2547437.8799999971}}]}