{"displayFieldName":"TOWNNAME","fieldAliases":{"ID":"ID","DIS_CODE":"DIS_CODE","TOWNNAME":"TOWNNAME","LI":"LI","LIN":"LIN","STREET":"STREET","SECT":"SECT","MAREA":"MAREA","LANE":"LANE","ALLEY":"ALLEY","HOUSE_NO":"HOUSE_NO","E_COORD97":"E_COORD97","N_COORD97":"N_COORD97","ADDRESS":"ADDRESS","OBJECTID":"OBJECTID"},"geometryType":"esriGeometryPoint","spatialReference":{"wkid":102443,"latestWkid":3826},"fields":[{"name":"ID","type":"esriFieldTypeDouble","alias":"ID"},{"name":"DIS_CODE","type":"esriFieldTypeInteger","alias":"DIS_CODE"},{"name":"TOWNNAME","type":"esriFieldTypeString","alias":"TOWNNAME","length":8},{"name":"LI","type":"esriFieldTypeString","alias":"LI","length":8},{"name":"LIN","type":"esriFieldTypeString","alias":"LIN","length":12},{"name":"STREET","type":"esriFieldTypeString","alias":"STREET","length":20},{"name":"SECT","type":"esriFieldTypeString","alias":"SECT","length":8},{"name":"MAREA","type":"esriFieldTypeString","alias":"MAREA","length":12},{"name":"LANE","type":"esriFieldTypeString","alias":"LANE","length":10},{"name":"ALLEY","type":"esriFieldTypeString","alias":"ALLEY","length":10},{"name":"HOUSE_NO","type":"esriFieldTypeString","alias":"HOUSE_NO","length":20},{"name":"E_COORD97","type":"esriFieldTypeDouble","alias":"E_COORD97"},{"name":"N_COORD97","type":"esriFieldTypeDouble","alias":"N_COORD97"},{"name":"ADDRESS","type":"esriFieldTypeString","alias":"ADDRESS","length":50},{"name":"OBJECTID","type":"esriFieldTypeOID","alias":"OBJECTID"}],"features":[{"attributes":{"ID":652028,"DIS_CODE":0,"TOWNNAME":"新營區","LI":"好平里","LIN":"4鄰","STREET":"長春街","SECT":" ","MAREA":" ","LANE":" ","ALLEY":" ","HOUSE_NO":"９３號","E_COORD97":179543.61708699999,"N_COORD97":2577818.46869,"ADDRESS":"長春街９３號","OBJECTID":652001},"geometry":{"x":179543.61708700005,"y":2577818.4686949998}},{"attributes":{"ID":652029,"DIS_CODE":0,"TOWNNAME":"新營區","LI":"永生里","LIN":"18鄰","STREET":"新進路","SECT":" ","MAREA":" ","LANE":" ","ALLEY":" ","HOUSE_NO":"３２６之２號","E_COORD97":179929.996889,"N_COORD97":2577815.0458200001,"ADDRESS":"新進路３２６之２號","OBJECTID":652002},"geometry":{"x":179929.99688899983,"y":2577815.0458160024}},{"attributes":{"ID":652030,"DIS_CODE":0,"TOWNNAME":"新營區","LI":"延平里","LIN":"4鄰","STREET":"長春街","SECT":" ","MAREA":" ","LANE":" ","ALLEY":" ","HOUSE_NO":"３９號","E_COORD97":179707.684717,"N_COORD97":2577879.7527600001,"ADDRESS":"長春街３９號","OBJECTID":652003},"geometry":{"x":179707.68471699953,"y":2577879.7527630031}},{"attributes":{"ID":652031,"DIS_CODE":0,"TOWNNAME":"新營區","LI":"永生里","LIN":"18鄰","STREET":"新進路","SECT":" ","MAREA":" ","LANE":" ","ALLEY":" ","HOUSE_NO":"３２６號","E_COORD97":179936.35335600001,"N_COORD97":2577816.5274800002,"ADDRESS":"新進路３２６號","OBJECTID":652004},"geometry":{"x":179936.35335600097,"y":2577816.5274810009}},{"attributes":{"ID":652032,"DIS_CODE":0,"TOWNNAME":"新營區","LI":"好平里","LIN":"4鄰","STREET":"長春街","SECT":" ","MAREA":" ","LANE":" ","ALLEY":" ","HOUSE_NO":"８５號","E_COORD97":179562.26582599999,"N_COORD97":2577821.8553599999,"ADDRESS":"長春街８５號","OBJECTID":652005},"geometry":{"x":179562.2658259999,"y":2577821.8553600013}},{"attributes":{"ID":652033,"DIS_CODE":0,"TOWNNAME":"六甲區","LI":"甲東里","LIN":"29鄰","STREET":"裕農街","SECT":" ","MAREA":" ","LANE":"２２巷","ALLEY":"３５弄","HOUSE_NO":"１０號","E_COORD97":184152.60099899999,"N_COORD97":2569585.2763899998,"ADDRESS":"裕農街２２巷３５弄１０號","OBJECTID":652006},"geometry":{"x":184152.60099900048,"y":2569585.2763899993}},{"attributes":{"ID":652034,"DIS_CODE":0,"TOWNNAME":"新營區","LI":"永生里","LIN":"18鄰","STREET":"新進路","SECT":" ","MAREA":" ","LANE":" ","ALLEY":" ","HOUSE_NO":"３３０號","E_COORD97":179914.741369,"N_COORD97":2577818.43248,"ADDRESS":"新進路３３０號","OBJECTID":652007},"geometry":{"x":179914.74136900064,"y":2577818.43248}},{"attributes":{"ID":652035,"DIS_CODE":0,"TOWNNAME":"新營區","LI":"延平里","LIN":"4鄰","STREET":"長春街","SECT":" ","MAREA":" ","LANE":" ","ALLEY":" ","HOUSE_NO":"４３號","E_COORD97":179701.962787,"N_COORD97":2577876.0485999999,"ADDRESS":"長春街４３號","OBJECTID":652008},"geometry":{"x":179701.96278700139,"y":2577876.0485990029}},{"attributes":{"ID":652036,"DIS_CODE":0,"TOWNNAME":"新營區","LI":"永生里","LIN":"18鄰","STREET":"新進路","SECT":" ","MAREA":" ","LANE":" ","ALLEY":" ","HOUSE_NO":"３３２號","E_COORD97":179913.25819399999,"N_COORD97":2577810.1774800001,"ADDRESS":"新進路３３２號","OBJECTID":652009},"geometry":{"x":179913.25819400046,"y":2577810.1774850022}},{"attributes":{"ID":652037,"DIS_CODE":0,"TOWNNAME":"新營區","LI":"好平里","LIN":"4鄰","STREET":"長春街","SECT":" ","MAREA":" ","LANE":" ","ALLEY":" ","HOUSE_NO":"８１號","E_COORD97":179569.89485499999,"N_COORD97":2577823.3370300001,"ADDRESS":"長春街８１號","OBJECTID":652010},"geometry":{"x":179569.89485500101,"y":2577823.3370260019}},{"attributes":{"ID":652038,"DIS_CODE":0,"TOWNNAME":"新營區","LI":"延平里","LIN":"4鄰","STREET":"長春街","SECT":" ","MAREA":" ","LANE":" ","ALLEY":" ","HOUSE_NO":"４５號","E_COORD97":179698.14816700001,"N_COORD97":2577873.7202699999,"ADDRESS":"長春街４５號","OBJECTID":652011},"geometry":{"x":179698.14816700108,"y":2577873.7202660013}},{"attributes":{"ID":652039,"DIS_CODE":0,"TOWNNAME":"安平區","LI":"海頭里","LIN":"9鄰","STREET":"\u25A0忠街","SECT":" ","MAREA":" ","LANE":" ","ALLEY":" ","HOUSE_NO":"４９號","E_COORD97":164136.18658899999,"N_COORD97":2544668.9771400001,"ADDRESS":"\u25A0忠街４９號","OBJECTID":652012},"geometry":{"x":164136.18658900075,"y":2544668.9771389998}},{"attributes":{"ID":652040,"DIS_CODE":0,"TOWNNAME":"新營區","LI":"好平里","LIN":"4鄰","STREET":"長春街","SECT":" ","MAREA":" ","LANE":" ","ALLEY":" ","HOUSE_NO":"９５號","E_COORD97":179538.74298499999,"N_COORD97":2577818.46869,"ADDRESS":"長春街９５號","OBJECTID":652013},"geometry":{"x":179538.74298500083,"y":2577818.4686949998}},{"attributes":{"ID":652041,"DIS_CODE":0,"TOWNNAME":"新營區","LI":"延平里","LIN":"4鄰","STREET":"長春街","SECT":" ","MAREA":" ","LANE":" ","ALLEY":" ","HOUSE_NO":"４９號","E_COORD97":179682.041994,"N_COORD97":2577862.18444,"ADDRESS":"長春街４９號","OBJECTID":652014},"geometry":{"x":179682.04199399985,"y":2577862.1844390035}},{"attributes":{"ID":652042,"DIS_CODE":0,"TOWNNAME":"安南區","LI":"溪心里","LIN":"7鄰","STREET":"本原街","SECT":"二段","MAREA":" ","LANE":" ","ALLEY":" ","HOUSE_NO":"２０２號","E_COORD97":166557.407034,"N_COORD97":2550721.4659799999,"ADDRESS":"本原街二段２０２號","OBJECTID":652015},"geometry":{"x":166557.40703400131,"y":2550721.4659780003}},{"attributes":{"ID":652043,"DIS_CODE":0,"TOWNNAME":"新營區","LI":"好平里","LIN":"4鄰","STREET":"長春街","SECT":" ","MAREA":" ","LANE":" ","ALLEY":" ","HOUSE_NO":"９７號","E_COORD97":179534.71655300001,"N_COORD97":2577817.1987000001,"ADDRESS":"長春街９７號","OBJECTID":652016},"geometry":{"x":179534.7165529998,"y":2577817.1986960005}},{"attributes":{"ID":652044,"DIS_CODE":0,"TOWNNAME":"安平區","LI":"海頭里","LIN":"3鄰","STREET":"\u25A0忠街","SECT":" ","MAREA":" ","LANE":"５２巷","ALLEY":" ","HOUSE_NO":"４號","E_COORD97":164179.83953900001,"N_COORD97":2544676.8088000002,"ADDRESS":"\u25A0忠街５２巷４號","OBJECTID":652017},"geometry":{"x":164179.8395390017,"y":2544676.8088009991}},{"attributes":{"ID":652045,"DIS_CODE":0,"TOWNNAME":"安平區","LI":"海頭里","LIN":"9鄰","STREET":"\u25A0忠街","SECT":" ","MAREA":" ","LANE":" ","ALLEY":" ","HOUSE_NO":"５３號","E_COORD97":164123.472137,"N_COORD97":2544669.4004700002,"ADDRESS":"\u25A0忠街５３號","OBJECTID":652018},"geometry":{"x":164123.47213700134,"y":2544669.4004720021}},{"attributes":{"ID":652046,"DIS_CODE":0,"TOWNNAME":"新營區","LI":"延平里","LIN":"4鄰","STREET":"長春街","SECT":" ","MAREA":" ","LANE":" ","ALLEY":" ","HOUSE_NO":"５１號","E_COORD97":179673.56505999999,"N_COORD97":2577857.4219399998,"ADDRESS":"長春街５１號","OBJECTID":652019},"geometry":{"x":179673.56505999994,"y":2577857.4219420012}},{"attributes":{"ID":652047,"DIS_CODE":0,"TOWNNAME":"新營區","LI":"延平里","LIN":"4鄰","STREET":"長春街","SECT":" ","MAREA":" ","LANE":" ","ALLEY":" ","HOUSE_NO":"５１之１號","E_COORD97":179670.59813299999,"N_COORD97":2577855.7286100001,"ADDRESS":"長春街５１之１號","OBJECTID":652020},"geometry":{"x":179670.59813299961,"y":2577855.7286100034}},{"attributes":{"ID":652048,"DIS_CODE":0,"TOWNNAME":"善化區","LI":"小新里","LIN":"20鄰","STREET":" ","SECT":" ","MAREA":"小新營","LANE":" ","ALLEY":" ","HOUSE_NO":"１６５號之１２","E_COORD97":180123.4155,"N_COORD97":2558163.0620599999,"ADDRESS":"小新營１６５號之１２","OBJECTID":652021},"geometry":{"x":180123.41550000012,"y":2558163.0620599985}},{"attributes":{"ID":652049,"DIS_CODE":0,"TOWNNAME":"安平區","LI":"海頭里","LIN":"9鄰","STREET":"\u25A0忠街","SECT":" ","MAREA":" ","LANE":" ","ALLEY":" ","HOUSE_NO":"５７號","E_COORD97":164118.17444900001,"N_COORD97":2544660.08714,"ADDRESS":"\u25A0忠街５７號","OBJECTID":652022},"geometry":{"x":164118.17444899864,"y":2544660.0871440005}},{"attributes":{"ID":652050,"DIS_CODE":0,"TOWNNAME":"安平區","LI":"海頭里","LIN":"9鄰","STREET":"\u25A0忠街","SECT":" ","MAREA":" ","LANE":" ","ALLEY":" ","HOUSE_NO":"５９號","E_COORD97":164116.05537399999,"N_COORD97":2544652.4671499999,"ADDRESS":"\u25A0忠街５９號","OBJECTID":652023},"geometry":{"x":164116.05537400022,"y":2544652.4671480022}},{"attributes":{"ID":652051,"DIS_CODE":0,"TOWNNAME":"新營區","LI":"延平里","LIN":"4鄰","STREET":"長春街","SECT":" ","MAREA":" ","LANE":" ","ALLEY":" ","HOUSE_NO":"５３之２號","E_COORD97":179660.21389000001,"N_COORD97":2577850.9661099999,"ADDRESS":"長春街５３之２號","OBJECTID":652024},"geometry":{"x":179660.21389000118,"y":2577850.9661120009}},{"attributes":{"ID":652052,"DIS_CODE":0,"TOWNNAME":"新營區","LI":"延平里","LIN":"4鄰","STREET":"長春街","SECT":" ","MAREA":" ","LANE":" ","ALLEY":" ","HOUSE_NO":"５３號之３","E_COORD97":179656.61119299999,"N_COORD97":2577848.8494500001,"ADDRESS":"長春街５３號之３","OBJECTID":652025},"geometry":{"x":179656.6111930022,"y":2577848.8494470008}},{"attributes":{"ID":652053,"DIS_CODE":0,"TOWNNAME":"安平區","LI":"海頭里","LIN":"9鄰","STREET":"\u25A0忠街","SECT":" ","MAREA":" ","LANE":" ","ALLEY":" ","HOUSE_NO":"６０號","E_COORD97":164127.07456499999,"N_COORD97":2544686.7571299998,"ADDRESS":"\u25A0忠街６０號","OBJECTID":652026},"geometry":{"x":164127.0745649999,"y":2544686.7571290005}},{"attributes":{"ID":652054,"DIS_CODE":0,"TOWNNAME":"北門區","LI":"保吉里","LIN":"14鄰","STREET":" ","SECT":" ","MAREA":"蚵寮","LANE":" ","ALLEY":" ","HOUSE_NO":"３６４號之３０","E_COORD97":159956.30449800001,"N_COORD97":2576398.7094399999,"ADDRESS":"蚵寮３６４號之３０","OBJECTID":652027},"geometry":{"x":159956.30449800007,"y":2576398.7094379999}},{"attributes":{"ID":652055,"DIS_CODE":0,"TOWNNAME":"安平區","LI":"海頭里","LIN":"9鄰","STREET":"\u25A0忠街","SECT":" ","MAREA":" ","LANE":" ","ALLEY":" ","HOUSE_NO":"７５號","E_COORD97":164071.554794,"N_COORD97":2544641.8838200001,"ADDRESS":"\u25A0忠街７５號","OBJECTID":652028},"geometry":{"x":164071.55479400046,"y":2544641.883820001}},{"attributes":{"ID":652056,"DIS_CODE":0,"TOWNNAME":"新營區","LI":"延平里","LIN":"4鄰","STREET":"長春街","SECT":" ","MAREA":" ","LANE":" ","ALLEY":" ","HOUSE_NO":"５３之５號","E_COORD97":179651.52503300001,"N_COORD97":2577845.9919500002,"ADDRESS":"長春街５３之５號","OBJECTID":652029},"geometry":{"x":179651.52503300086,"y":2577845.9919480029}},{"attributes":{"ID":652057,"DIS_CODE":0,"TOWNNAME":"新營區","LI":"永生里","LIN":"18鄰","STREET":"新進路","SECT":" ","MAREA":" ","LANE":" ","ALLEY":" ","HOUSE_NO":"２５號之２","E_COORD97":179916.64830900001,"N_COORD97":2577866.0574599998,"ADDRESS":"新進路２５號之２","OBJECTID":652030},"geometry":{"x":179916.6483090017,"y":2577866.0574550014}},{"attributes":{"ID":652058,"DIS_CODE":0,"TOWNNAME":"新營區","LI":"延平里","LIN":"4鄰","STREET":"新進路","SECT":"二段","MAREA":" ","LANE":" ","ALLEY":" ","HOUSE_NO":"４６號","E_COORD97":179666.14774300001,"N_COORD97":2577753.2820000001,"ADDRESS":"新進路二段４６號","OBJECTID":652031},"geometry":{"x":179666.14774299972,"y":2577753.281998001}},{"attributes":{"ID":652059,"DIS_CODE":0,"TOWNNAME":"新營區","LI":"延平里","LIN":"4鄰","STREET":"新進路","SECT":"二段","MAREA":" ","LANE":" ","ALLEY":" ","HOUSE_NO":"４８號","E_COORD97":179661.061583,"N_COORD97":2577753.7053299998,"ADDRESS":"新進路二段４８號","OBJECTID":652032},"geometry":{"x":179661.06158300117,"y":2577753.7053309996}},{"attributes":{"ID":652060,"DIS_CODE":0,"TOWNNAME":"新營區","LI":"好平里","LIN":"5鄰","STREET":"南昌街","SECT":" ","MAREA":" ","LANE":" ","ALLEY":" ","HOUSE_NO":"４４之７號","E_COORD97":179474.955823,"N_COORD97":2577680.6737700002,"ADDRESS":"南昌街４４之７號","OBJECTID":652033},"geometry":{"x":179474.95582300052,"y":2577680.6737700012}},{"attributes":{"ID":652061,"DIS_CODE":0,"TOWNNAME":"善化區","LI":"六德里","LIN":"8鄰","STREET":" ","SECT":" ","MAREA":"六分寮","LANE":" ","ALLEY":" ","HOUSE_NO":"２６８號","E_COORD97":178632.427795,"N_COORD97":2561567.4734499999,"ADDRESS":"六分寮２６８號","OBJECTID":652034},"geometry":{"x":178632.42779500224,"y":2561567.4734500013}},{"attributes":{"ID":652062,"DIS_CODE":0,"TOWNNAME":"新營區","LI":"好平里","LIN":"5鄰","STREET":"長春街","SECT":" ","MAREA":" ","LANE":"１１３巷","ALLEY":" ","HOUSE_NO":"１０號","E_COORD97":179497.63099400001,"N_COORD97":2577778.0403800001,"ADDRESS":"長春街１１３巷１０號","OBJECTID":652035},"geometry":{"x":179497.63099399954,"y":2577778.0403839983}},{"attributes":{"ID":652063,"DIS_CODE":0,"TOWNNAME":"中西區","LI":"五妃里","LIN":"15鄰","STREET":"樹林街","SECT":"二段","MAREA":" ","LANE":" ","ALLEY":" ","HOUSE_NO":"５７號","E_COORD97":168601.806205,"N_COORD97":2542893.5099499999,"ADDRESS":"樹林街二段５７號","OBJECTID":652036},"geometry":{"x":168601.8062049998,"y":2542893.5099509992}},{"attributes":{"ID":652064,"DIS_CODE":0,"TOWNNAME":"新營區","LI":"好平里","LIN":"5鄰","STREET":"長春街","SECT":" ","MAREA":" ","LANE":"１１３巷","ALLEY":" ","HOUSE_NO":"１２號","E_COORD97":179498.47866399999,"N_COORD97":2577764.2820600001,"ADDRESS":"長春街１１３巷１２號","OBJECTID":652037},"geometry":{"x":179498.47866399959,"y":2577764.2820580024}},{"attributes":{"ID":652065,"DIS_CODE":0,"TOWNNAME":"北門區","LI":"保吉里","LIN":"14鄰","STREET":" ","SECT":" ","MAREA":"蚵寮","LANE":" ","ALLEY":" ","HOUSE_NO":"３６４號之３３","E_COORD97":159768.39507500001,"N_COORD97":2576962.14861,"ADDRESS":"蚵寮３６４號之３３","OBJECTID":652038},"geometry":{"x":159768.39507499989,"y":2576962.1486109998}},{"attributes":{"ID":652066,"DIS_CODE":0,"TOWNNAME":"中西區","LI":"五妃里","LIN":"16鄰","STREET":"樹林街","SECT":"二段","MAREA":" ","LANE":" ","ALLEY":" ","HOUSE_NO":"５９號","E_COORD97":168600.111236,"N_COORD97":2542893.72162,"ADDRESS":"樹林街二段５９號","OBJECTID":652039},"geometry":{"x":168600.11123600136,"y":2542893.7216170002}},{"attributes":{"ID":652067,"DIS_CODE":0,"TOWNNAME":"善化區","LI":"六德里","LIN":"15鄰","STREET":" ","SECT":" ","MAREA":"六分寮","LANE":" ","ALLEY":" ","HOUSE_NO":"３２５號","E_COORD97":178463.109173,"N_COORD97":2561430.3135199999,"ADDRESS":"六分寮３２５號","OBJECTID":652040},"geometry":{"x":178463.10917299986,"y":2561430.3135240022}},{"attributes":{"ID":652068,"DIS_CODE":0,"TOWNNAME":"新營區","LI":"好平里","LIN":"5鄰","STREET":"長春街","SECT":" ","MAREA":" ","LANE":" ","ALLEY":" ","HOUSE_NO":"１１７號","E_COORD97":179497.20715900001,"N_COORD97":2577808.8378699999,"ADDRESS":"長春街１１７號","OBJECTID":652041},"geometry":{"x":179497.20715900045,"y":2577808.8378670011}},{"attributes":{"ID":652069,"DIS_CODE":0,"TOWNNAME":"新營區","LI":"好平里","LIN":"5鄰","STREET":"長春街","SECT":" ","MAREA":" ","LANE":" ","ALLEY":" ","HOUSE_NO":"１１９號","E_COORD97":179492.54497399999,"N_COORD97":2577810.5312000001,"ADDRESS":"長春街１１９號","OBJECTID":652042},"geometry":{"x":179492.54497399926,"y":2577810.5311999992}},{"attributes":{"ID":652070,"DIS_CODE":0,"TOWNNAME":"安平區","LI":"海頭里","LIN":"8鄰","STREET":"\u25A0忠街","SECT":" ","MAREA":" ","LANE":" ","ALLEY":" ","HOUSE_NO":"８１號","E_COORD97":164014.33976199999,"N_COORD97":2544632.99382,"ADDRESS":"\u25A0忠街８１號","OBJECTID":652043},"geometry":{"x":164014.33976200037,"y":2544632.9938250035}},{"attributes":{"ID":652071,"DIS_CODE":0,"TOWNNAME":"安南區","LI":"溪心里","LIN":"8鄰","STREET":"安中路","SECT":"二段","MAREA":" ","LANE":" ","ALLEY":" ","HOUSE_NO":"２９７之１０號","E_COORD97":166568.62888500001,"N_COORD97":2549674.3515400002,"ADDRESS":"安中路二段２９７之１０號","OBJECTID":652044},"geometry":{"x":166568.62888500094,"y":2549674.351543}},{"attributes":{"ID":652072,"DIS_CODE":0,"TOWNNAME":"新營區","LI":"好平里","LIN":"5鄰","STREET":"長春街","SECT":" ","MAREA":" ","LANE":" ","ALLEY":" ","HOUSE_NO":"１２５號","E_COORD97":179464.99570199999,"N_COORD97":2577805.6628700001,"ADDRESS":"長春街１２５號","OBJECTID":652045},"geometry":{"x":179464.99570200127,"y":2577805.6628690008}},{"attributes":{"ID":652073,"DIS_CODE":0,"TOWNNAME":"安平區","LI":"海頭里","LIN":"11鄰","STREET":"\u25A0忠街","SECT":" ","MAREA":" ","LANE":" ","ALLEY":" ","HOUSE_NO":"８８號","E_COORD97":164060.11178800001,"N_COORD97":2544702.4204500001,"ADDRESS":"\u25A0忠街８８號","OBJECTID":652046},"geometry":{"x":164060.11178800091,"y":2544702.4204540011}},{"attributes":{"ID":652074,"DIS_CODE":0,"TOWNNAME":"中西區","LI":"五妃里","LIN":"4鄰","STREET":"南門路","SECT":" ","MAREA":" ","LANE":"２３１巷","ALLEY":" ","HOUSE_NO":"１０號","E_COORD97":168484.24014000001,"N_COORD97":2542674.23232,"ADDRESS":"南門路２３１巷１０號","OBJECTID":652047},"geometry":{"x":168484.24014000129,"y":2542674.232315002}},{"attributes":{"ID":652075,"DIS_CODE":0,"TOWNNAME":"中西區","LI":"五妃里","LIN":"4鄰","STREET":"南門路","SECT":" ","MAREA":" ","LANE":"２３１巷","ALLEY":" ","HOUSE_NO":"１２號","E_COORD97":168486.994465,"N_COORD97":2542674.23232,"ADDRESS":"南門路２３１巷１２號","OBJECTID":652048},"geometry":{"x":168486.99446500093,"y":2542674.232315002}},{"attributes":{"ID":652076,"DIS_CODE":0,"TOWNNAME":"安平區","LI":"海頭里","LIN":"4鄰","STREET":"中興街","SECT":" ","MAREA":" ","LANE":"１８巷","ALLEY":" ","HOUSE_NO":"１３號","E_COORD97":164247.86185399999,"N_COORD97":2544730.7837700001,"ADDRESS":"中興街１８巷１３號","OBJECTID":652049},"geometry":{"x":164247.86185400095,"y":2544730.7837719992}},{"attributes":{"ID":652077,"DIS_CODE":0,"TOWNNAME":"左鎮區","LI":"榮和里","LIN":"14鄰","STREET":" ","SECT":" ","MAREA":"菜寮","LANE":" ","ALLEY":" ","HOUSE_NO":"１３６號","E_COORD97":186634.03173799999,"N_COORD97":2552347.0069300001,"ADDRESS":"菜寮１３６號","OBJECTID":652050},"geometry":{"x":186634.03173799999,"y":2552347.0069260001}},{"attributes":{"ID":652078,"DIS_CODE":0,"TOWNNAME":"新營區","LI":"好平里","LIN":"6鄰","STREET":"長春街","SECT":" ","MAREA":" ","LANE":" ","ALLEY":" ","HOUSE_NO":"１３９號","E_COORD97":179452.28065299999,"N_COORD97":2577799.9478699998,"ADDRESS":"長春街１３９號","OBJECTID":652051},"geometry":{"x":179452.28065300081,"y":2577799.9478720017}},{"attributes":{"ID":652079,"DIS_CODE":0,"TOWNNAME":"安平區","LI":"海頭里","LIN":"4鄰","STREET":"中興街","SECT":" ","MAREA":" ","LANE":"１８巷","ALLEY":" ","HOUSE_NO":"９號","E_COORD97":164241.92844300001,"N_COORD97":2544718.5071100001,"ADDRESS":"中興街１８巷９號","OBJECTID":652052},"geometry":{"x":164241.92844299972,"y":2544718.5071120001}},{"attributes":{"ID":652080,"DIS_CODE":0,"TOWNNAME":"安平區","LI":"海頭里","LIN":"10鄰","STREET":"中興街","SECT":" ","MAREA":" ","LANE":" ","ALLEY":" ","HOUSE_NO":"３１號","E_COORD97":164132.796069,"N_COORD97":2544724.0104399999,"ADDRESS":"中興街３１號","OBJECTID":652053},"geometry":{"x":164132.79606900178,"y":2544724.010443002}},{"attributes":{"ID":652081,"DIS_CODE":0,"TOWNNAME":"安平區","LI":"海頭里","LIN":"10鄰","STREET":"中興街","SECT":" ","MAREA":" ","LANE":"３７巷","ALLEY":" ","HOUSE_NO":"７號之１","E_COORD97":164050.152134,"N_COORD97":2544718.5071100001,"ADDRESS":"中興街３７巷７號之１","OBJECTID":652054},"geometry":{"x":164050.15213399939,"y":2544718.5071120001}},{"attributes":{"ID":652082,"DIS_CODE":0,"TOWNNAME":"北門區","LI":"保吉里","LIN":"14鄰","STREET":" ","SECT":" ","MAREA":"蚵寮","LANE":" ","ALLEY":" ","HOUSE_NO":"３６４號之８６","E_COORD97":160020.16004799999,"N_COORD97":2576463.53914,"ADDRESS":"蚵寮３６４號之８６","OBJECTID":652055},"geometry":{"x":160020.16004800145,"y":2576463.5391410012}},{"attributes":{"ID":652083,"DIS_CODE":0,"TOWNNAME":"安平區","LI":"海頭里","LIN":"12鄰","STREET":"中興街","SECT":" ","MAREA":" ","LANE":" ","ALLEY":" ","HOUSE_NO":"３８號","E_COORD97":164190.43491499999,"N_COORD97":2544709.1937799999,"ADDRESS":"中興街３８號","OBJECTID":652056},"geometry":{"x":164190.43491499964,"y":2544709.1937840022}},{"attributes":{"ID":652084,"DIS_CODE":0,"TOWNNAME":"安平區","LI":"海頭里","LIN":"12鄰","STREET":"中興街","SECT":" ","MAREA":" ","LANE":" ","ALLEY":" ","HOUSE_NO":"４０號","E_COORD97":164185.349135,"N_COORD97":2544711.3104500002,"ADDRESS":"中興街４０號","OBJECTID":652057},"geometry":{"x":164185.34913500119,"y":2544711.3104490004}},{"attributes":{"ID":652085,"DIS_CODE":0,"TOWNNAME":"新營區","LI":"好平里","LIN":"5鄰","STREET":"南昌街","SECT":" ","MAREA":" ","LANE":" ","ALLEY":" ","HOUSE_NO":"３８號","E_COORD97":179531.32587299999,"N_COORD97":2577675.17044,"ADDRESS":"南昌街３８號","OBJECTID":652058},"geometry":{"x":179531.32587300055,"y":2577675.1704389993}},{"attributes":{"ID":652086,"DIS_CODE":0,"TOWNNAME":"安平區","LI":"海頭里","LIN":"12鄰","STREET":"中興街","SECT":" ","MAREA":" ","LANE":" ","ALLEY":" ","HOUSE_NO":"４２號之２","E_COORD97":164185.77295000001,"N_COORD97":2544724.6454400001,"ADDRESS":"中興街４２號之２","OBJECTID":652059},"geometry":{"x":164185.77295000013,"y":2544724.6454400029}},{"attributes":{"ID":652087,"DIS_CODE":0,"TOWNNAME":"新營區","LI":"好平里","LIN":"5鄰","STREET":"南昌街","SECT":" ","MAREA":" ","LANE":"４０巷","ALLEY":" ","HOUSE_NO":"１３號","E_COORD97":179509.71028999999,"N_COORD97":2577699.19459,"ADDRESS":"南昌街４０巷１３號","OBJECTID":652060},"geometry":{"x":179509.71028999984,"y":2577699.194593003}},{"attributes":{"ID":652088,"DIS_CODE":0,"TOWNNAME":"安平區","LI":"海頭里","LIN":"12鄰","STREET":"中興街","SECT":" ","MAREA":" ","LANE":" ","ALLEY":" ","HOUSE_NO":"４４號","E_COORD97":164170.51560799999,"N_COORD97":2544718.2954500001,"ADDRESS":"中興街４４號","OBJECTID":652061},"geometry":{"x":164170.51560800057,"y":2544718.2954460029}},{"attributes":{"ID":652089,"DIS_CODE":0,"TOWNNAME":"新營區","LI":"好平里","LIN":"5鄰","STREET":"南昌街","SECT":" ","MAREA":" ","LANE":"４０巷","ALLEY":" ","HOUSE_NO":"８號","E_COORD97":179504.41235299999,"N_COORD97":2577688.0821000002,"ADDRESS":"南昌街４０巷８號","OBJECTID":652062},"geometry":{"x":179504.4123530006,"y":2577688.0820990019}},{"attributes":{"ID":652090,"DIS_CODE":0,"TOWNNAME":"新營區","LI":"好平里","LIN":"5鄰","STREET":"南昌街","SECT":" ","MAREA":" ","LANE":" ","ALLEY":" ","HOUSE_NO":"４２之１號","E_COORD97":179510.981795,"N_COORD97":2577660.9887799998,"ADDRESS":"南昌街４２之１號","OBJECTID":652063},"geometry":{"x":179510.98179500084,"y":2577660.9887799993}},{"attributes":{"ID":652091,"DIS_CODE":0,"TOWNNAME":"左鎮區","LI":"澄山里","LIN":"1鄰","STREET":" ","SECT":" ","MAREA":"澄山","LANE":" ","ALLEY":" ","HOUSE_NO":"１號","E_COORD97":188137.23279899999,"N_COORD97":2548571.4353800002,"ADDRESS":"澄山１號","OBJECTID":652064},"geometry":{"x":188137.23279900011,"y":2548571.4353820011}},{"attributes":{"ID":652092,"DIS_CODE":0,"TOWNNAME":"安南區","LI":"溪心里","LIN":"13鄰","STREET":"樂安一街","SECT":" ","MAREA":" ","LANE":" ","ALLEY":" ","HOUSE_NO":"３３號","E_COORD97":166121.48315499999,"N_COORD97":2549721.7231600001,"ADDRESS":"樂安一街３３號","OBJECTID":652065},"geometry":{"x":166121.48315500002,"y":2549721.7231589984}},{"attributes":{"ID":652093,"DIS_CODE":0,"TOWNNAME":"北區","LI":"大仁里","LIN":"4鄰","STREET":"和緯路","SECT":"一段","MAREA":" ","LANE":" ","ALLEY":" ","HOUSE_NO":"５１號","E_COORD97":169550.289968,"N_COORD97":2545539.4248500001,"ADDRESS":"和緯路一段５１號","OBJECTID":652066},"geometry":{"x":169550.28996799979,"y":2545539.4248540029}},{"attributes":{"ID":652094,"DIS_CODE":0,"TOWNNAME":"北區","LI":"大仁里","LIN":"4鄰","STREET":"和緯路","SECT":"一段","MAREA":" ","LANE":" ","ALLEY":" ","HOUSE_NO":"４９號","E_COORD97":169554.103126,"N_COORD97":2545537.5198599999,"ADDRESS":"和緯路一段４９號","OBJECTID":652067},"geometry":{"x":169554.10312600154,"y":2545537.5198550019}},{"attributes":{"ID":652095,"DIS_CODE":0,"TOWNNAME":"北區","LI":"大仁里","LIN":"4鄰","STREET":"和緯路","SECT":"一段","MAREA":" ","LANE":" ","ALLEY":" ","HOUSE_NO":"４７號","E_COORD97":169557.280757,"N_COORD97":2545536.0381900002,"ADDRESS":"和緯路一段４７號","OBJECTID":652068},"geometry":{"x":169557.28075699974,"y":2545536.0381890014}},{"attributes":{"ID":652096,"DIS_CODE":0,"TOWNNAME":"左鎮區","LI":"澄山里","LIN":"1鄰","STREET":" ","SECT":" ","MAREA":"澄山","LANE":" ","ALLEY":" ","HOUSE_NO":"１號之１","E_COORD97":188117.93849100001,"N_COORD97":2548577.7286800002,"ADDRESS":"澄山１號之１","OBJECTID":652069},"geometry":{"x":188117.93849099986,"y":2548577.7286830042}},{"attributes":{"ID":652097,"DIS_CODE":0,"TOWNNAME":"北區","LI":"大仁里","LIN":"4鄰","STREET":"和緯路","SECT":"一段","MAREA":" ","LANE":" ","ALLEY":" ","HOUSE_NO":"２９號","E_COORD97":169596.89522899999,"N_COORD97":2545523.7615299998,"ADDRESS":"和緯路一段２９號","OBJECTID":652070},"geometry":{"x":169596.8952290006,"y":2545523.7615290023}},{"attributes":{"ID":652098,"DIS_CODE":0,"TOWNNAME":"北區","LI":"大仁里","LIN":"4鄰","STREET":"和緯路","SECT":"一段","MAREA":" ","LANE":" ","ALLEY":" ","HOUSE_NO":"３１號","E_COORD97":169592.658387,"N_COORD97":2545525.0315299998,"ADDRESS":"和緯路一段３１號","OBJECTID":652071},"geometry":{"x":169592.65838700067,"y":2545525.0315290019}},{"attributes":{"ID":652099,"DIS_CODE":0,"TOWNNAME":"北區","LI":"大仁里","LIN":"4鄰","STREET":"和緯路","SECT":"一段","MAREA":" ","LANE":" ","ALLEY":" ","HOUSE_NO":"３３號","E_COORD97":169589.05707099999,"N_COORD97":2545526.5131999999,"ADDRESS":"和緯路一段３３號","OBJECTID":652072},"geometry":{"x":169589.05707100127,"y":2545526.5131950025}},{"attributes":{"ID":652100,"DIS_CODE":0,"TOWNNAME":"北區","LI":"大仁里","LIN":"4鄰","STREET":"和緯路","SECT":"一段","MAREA":" ","LANE":" ","ALLEY":" ","HOUSE_NO":"４５號","E_COORD97":169562.15312500001,"N_COORD97":2545534.9798599998,"ADDRESS":"和緯路一段４５號","OBJECTID":652073},"geometry":{"x":169562.15312500205,"y":2545534.9798570033}},{"attributes":{"ID":652101,"DIS_CODE":0,"TOWNNAME":"北區","LI":"大仁里","LIN":"4鄰","STREET":"和緯路","SECT":"一段","MAREA":" ","LANE":" ","ALLEY":" ","HOUSE_NO":"４３號","E_COORD97":169566.389967,"N_COORD97":2545534.13319,"ADDRESS":"和緯路一段４３號","OBJECTID":652074},"geometry":{"x":169566.38996700011,"y":2545534.1331900023}},{"attributes":{"ID":652102,"DIS_CODE":0,"TOWNNAME":"左鎮區","LI":"澄山里","LIN":"1鄰","STREET":" ","SECT":" ","MAREA":"澄山","LANE":" ","ALLEY":" ","HOUSE_NO":"１號之２","E_COORD97":188113.48929900001,"N_COORD97":2548580.4803499999,"ADDRESS":"澄山１號之２","OBJECTID":652075},"geometry":{"x":188113.48929900117,"y":2548580.4803480003}},{"attributes":{"ID":652103,"DIS_CODE":0,"TOWNNAME":"北區","LI":"大仁里","LIN":"4鄰","STREET":"和緯路","SECT":"一段","MAREA":" ","LANE":" ","ALLEY":" ","HOUSE_NO":"３５號","E_COORD97":169585.03207099999,"N_COORD97":2545528.4181900001,"ADDRESS":"和緯路一段３５號","OBJECTID":652076},"geometry":{"x":169585.03207099997,"y":2545528.4181940015}},{"attributes":{"ID":652104,"DIS_CODE":0,"TOWNNAME":"北門區","LI":"雙春里","LIN":"11鄰","STREET":" ","SECT":" ","MAREA":"雙","LANE":" ","ALLEY":" ","HOUSE_NO":"７３之２０號","E_COORD97":159001.82134900001,"N_COORD97":2577888.13142,"ADDRESS":"雙７３之２０號","OBJECTID":652077},"geometry":{"x":159001.82134899963,"y":2577888.1314200014}},{"attributes":{"ID":652105,"DIS_CODE":0,"TOWNNAME":"北區","LI":"大仁里","LIN":"4鄰","STREET":"和緯路","SECT":"一段","MAREA":" ","LANE":" ","ALLEY":" ","HOUSE_NO":"３７號","E_COORD97":169580.58338699999,"N_COORD97":2545530.1115299999,"ADDRESS":"和緯路一段３７號","OBJECTID":652078},"geometry":{"x":169580.58338700142,"y":2545530.1115260012}},{"attributes":{"ID":652106,"DIS_CODE":0,"TOWNNAME":"北區","LI":"大仁里","LIN":"4鄰","STREET":"和緯路","SECT":"一段","MAREA":" ","LANE":" ","ALLEY":" ","HOUSE_NO":"３９號","E_COORD97":169575.49917699999,"N_COORD97":2545531.5931899999,"ADDRESS":"和緯路一段３９號","OBJECTID":652079},"geometry":{"x":169575.49917699955,"y":2545531.5931920018}},{"attributes":{"ID":652107,"DIS_CODE":0,"TOWNNAME":"北區","LI":"大仁里","LIN":"4鄰","STREET":"和緯路","SECT":"一段","MAREA":" ","LANE":" ","ALLEY":" ","HOUSE_NO":"４１號","E_COORD97":169570.838651,"N_COORD97":2545533.0748600001,"ADDRESS":"和緯路一段４１號","OBJECTID":652080},"geometry":{"x":169570.83865100052,"y":2545533.0748580024}},{"attributes":{"ID":652108,"DIS_CODE":0,"TOWNNAME":"新營區","LI":"好平里","LIN":"5鄰","STREET":"南昌街","SECT":" ","MAREA":" ","LANE":" ","ALLEY":" ","HOUSE_NO":"４２號之３","E_COORD97":179506.31961100001,"N_COORD97":2577660.6712799999,"ADDRESS":"南昌街４２號之３","OBJECTID":652081},"geometry":{"x":179506.31961100176,"y":2577660.6712800022}},{"attributes":{"ID":652109,"DIS_CODE":0,"TOWNNAME":"新營區","LI":"好平里","LIN":"5鄰","STREET":"南昌街","SECT":" ","MAREA":" ","LANE":" ","ALLEY":" ","HOUSE_NO":"４２之５號","E_COORD97":179495.08798400001,"N_COORD97":2577660.2479500002,"ADDRESS":"南昌街４２之５號","OBJECTID":652082},"geometry":{"x":179495.0879840022,"y":2577660.247947}},{"attributes":{"ID":652110,"DIS_CODE":0,"TOWNNAME":"北門區","LI":"永隆里","LIN":"16鄰","STREET":" ","SECT":" ","MAREA":"海埔","LANE":" ","ALLEY":" ","HOUSE_NO":"１之２４５號","E_COORD97":157210.867818,"N_COORD97":2575933.48019,"ADDRESS":"海埔１之２４５號","OBJECTID":652083},"geometry":{"x":157210.8678179998,"y":2575933.4801910035}},{"attributes":{"ID":652111,"DIS_CODE":0,"TOWNNAME":"左鎮區","LI":"澄山里","LIN":"3鄰","STREET":" ","SECT":" ","MAREA":"澄山","LANE":" ","ALLEY":" ","HOUSE_NO":"２０號之１","E_COORD97":188271.049352,"N_COORD97":2548277.9339899998,"ADDRESS":"澄山２０號之１","OBJECTID":652084},"geometry":{"x":188271.04935200047,"y":2548277.9339940008}},{"attributes":{"ID":652112,"DIS_CODE":0,"TOWNNAME":"麻豆區","LI":"穀興里","LIN":"7鄰","STREET":"自強街","SECT":" ","MAREA":" ","LANE":" ","ALLEY":" ","HOUSE_NO":"４９號","E_COORD97":172666.82317799999,"N_COORD97":2565045.2294600001,"ADDRESS":"自強街４９號","OBJECTID":652085},"geometry":{"x":172666.82317799982,"y":2565045.2294630036}},{"attributes":{"ID":652113,"DIS_CODE":0,"TOWNNAME":"左鎮區","LI":"澄山里","LIN":"3鄰","STREET":" ","SECT":" ","MAREA":"澄山","LANE":" ","ALLEY":" ","HOUSE_NO":"２０號之２","E_COORD97":188272.108683,"N_COORD97":2548287.2473200001,"ADDRESS":"澄山２０號之２","OBJECTID":652086},"geometry":{"x":188272.10868300125,"y":2548287.2473230008}},{"attributes":{"ID":652114,"DIS_CODE":0,"TOWNNAME":"麻豆區","LI":"穀興里","LIN":"7鄰","STREET":"自強街","SECT":" ","MAREA":" ","LANE":" ","ALLEY":" ","HOUSE_NO":"５１號","E_COORD97":172661.95022699999,"N_COORD97":2565043.7478,"ADDRESS":"自強街５１號","OBJECTID":652087},"geometry":{"x":172661.95022700075,"y":2565043.7477970012}},{"attributes":{"ID":652115,"DIS_CODE":0,"TOWNNAME":"北門區","LI":"永隆里","LIN":"16鄰","STREET":" ","SECT":" ","MAREA":"海埔","LANE":" ","ALLEY":" ","HOUSE_NO":"１之３６５號","E_COORD97":157996.79673500001,"N_COORD97":2574966.8594999998,"ADDRESS":"海埔１之３６５號","OBJECTID":652088},"geometry":{"x":157996.79673500173,"y":2574966.8595039994}},{"attributes":{"ID":652116,"DIS_CODE":0,"TOWNNAME":"麻豆區","LI":"穀興里","LIN":"7鄰","STREET":"自強街","SECT":" ","MAREA":" ","LANE":" ","ALLEY":" ","HOUSE_NO":"５３號","E_COORD97":172656.65354100001,"N_COORD97":2565044.1711300001,"ADDRESS":"自強街５３號","OBJECTID":652089},"geometry":{"x":172656.65354100056,"y":2565044.1711299997}},{"attributes":{"ID":652117,"DIS_CODE":0,"TOWNNAME":"左鎮區","LI":"澄山里","LIN":"3鄰","STREET":" ","SECT":" ","MAREA":"澄山","LANE":" ","ALLEY":" ","HOUSE_NO":"２５號","E_COORD97":188254.523781,"N_COORD97":2548235.2831799998,"ADDRESS":"澄山２５號","OBJECTID":652090},"geometry":{"x":188254.52378099971,"y":2548235.2831840031}},{"attributes":{"ID":652118,"DIS_CODE":0,"TOWNNAME":"麻豆區","LI":"穀興里","LIN":"7鄰","STREET":"自強街","SECT":" ","MAREA":" ","LANE":" ","ALLEY":" ","HOUSE_NO":"５５號","E_COORD97":172652.62805999999,"N_COORD97":2565044.8061299999,"ADDRESS":"自強街５５號","OBJECTID":652091},"geometry":{"x":172652.62806000095,"y":2565044.8061299995}},{"attributes":{"ID":652119,"DIS_CODE":0,"TOWNNAME":"北門區","LI":"永隆里","LIN":"16鄰","STREET":" ","SECT":" ","MAREA":"海埔","LANE":" ","ALLEY":" ","HOUSE_NO":"１之３８９號","E_COORD97":158250.423198,"N_COORD97":2575598.7604100001,"ADDRESS":"海埔１之３８９號","OBJECTID":652092},"geometry":{"x":158250.42319800053,"y":2575598.7604060005}},{"attributes":{"ID":652120,"DIS_CODE":0,"TOWNNAME":"北門區","LI":"永隆里","LIN":"16鄰","STREET":" ","SECT":" ","MAREA":"海埔","LANE":" ","ALLEY":" ","HOUSE_NO":"１之４０３號","E_COORD97":158516.574425,"N_COORD97":2575689.4788500001,"ADDRESS":"海埔１之４０３號","OBJECTID":652093},"geometry":{"x":158516.5744250007,"y":2575689.478852002}},{"attributes":{"ID":652121,"DIS_CODE":0,"TOWNNAME":"安平區","LI":"海頭里","LIN":"12鄰","STREET":"中興街","SECT":" ","MAREA":" ","LANE":" ","ALLEY":" ","HOUSE_NO":"５０號","E_COORD97":164151.44393099999,"N_COORD97":2544733.2032300001,"ADDRESS":"中興街５０號","OBJECTID":652094},"geometry":{"x":164151.44393100031,"y":2544733.2032289989}},{"attributes":{"ID":652122,"DIS_CODE":0,"TOWNNAME":"安平區","LI":"海頭里","LIN":"12鄰","STREET":"中興街","SECT":" ","MAREA":" ","LANE":" ","ALLEY":" ","HOUSE_NO":"５２號","E_COORD97":164153.13919099999,"N_COORD97":2544736.3782299999,"ADDRESS":"中興街５２號","OBJECTID":652095},"geometry":{"x":164153.13919099979,"y":2544736.3782280013}},{"attributes":{"ID":652123,"DIS_CODE":0,"TOWNNAME":"左鎮區","LI":"澄山里","LIN":"4鄰","STREET":" ","SECT":" ","MAREA":"澄山","LANE":" ","ALLEY":" ","HOUSE_NO":"３６號","E_COORD97":188237.36261000001,"N_COORD97":2546792.9873000002,"ADDRESS":"澄山３６號","OBJECTID":652096},"geometry":{"x":188237.36261000019,"y":2546792.9872960001}},{"attributes":{"ID":652124,"DIS_CODE":0,"TOWNNAME":"安南區","LI":"溪心里","LIN":"3鄰","STREET":"安中路","SECT":"二段","MAREA":" ","LANE":"２９６巷","ALLEY":" ","HOUSE_NO":"１９９之１００號","E_COORD97":166657.80295700001,"N_COORD97":2549901.1567699998,"ADDRESS":"安中路二段２９６巷１９９之１００號","OBJECTID":652097},"geometry":{"x":166657.80295700021,"y":2549901.1567679979}},{"attributes":{"ID":652125,"DIS_CODE":0,"TOWNNAME":"麻豆區","LI":"穀興里","LIN":"7鄰","STREET":"自強街","SECT":" ","MAREA":" ","LANE":" ","ALLEY":" ","HOUSE_NO":"５７號","E_COORD97":172639.49228000001,"N_COORD97":2565046.2878,"ADDRESS":"自強街５７號","OBJECTID":652098},"geometry":{"x":172639.49228000082,"y":2565046.2877960019}},{"attributes":{"ID":652126,"DIS_CODE":0,"TOWNNAME":"麻豆區","LI":"穀興里","LIN":"7鄰","STREET":"自強街","SECT":" ","MAREA":" ","LANE":" ","ALLEY":" ","HOUSE_NO":"５９號","E_COORD97":172640.33975000001,"N_COORD97":2565036.9744699998,"ADDRESS":"自強街５９號","OBJECTID":652099},"geometry":{"x":172640.33975000028,"y":2565036.9744680002}},{"attributes":{"ID":652127,"DIS_CODE":0,"TOWNNAME":"麻豆區","LI":"穀興里","LIN":"7鄰","STREET":"自強街","SECT":" ","MAREA":" ","LANE":" ","ALLEY":" ","HOUSE_NO":"６１號","E_COORD97":172640.763485,"N_COORD97":2565028.7194699999,"ADDRESS":"自強街６１號","OBJECTID":652100},"geometry":{"x":172640.76348499954,"y":2565028.7194720004}},{"attributes":{"ID":652128,"DIS_CODE":0,"TOWNNAME":"北門區","LI":"雙春里","LIN":"11鄰","STREET":" ","SECT":" ","MAREA":"雙春","LANE":" ","ALLEY":" ","HOUSE_NO":"７３號之６","E_COORD97":159489.51003199999,"N_COORD97":2578436.44337,"ADDRESS":"雙春７３號之６","OBJECTID":652101},"geometry":{"x":159489.51003200188,"y":2578436.4433650021}},{"attributes":{"ID":652129,"DIS_CODE":0,"TOWNNAME":"麻豆區","LI":"穀興里","LIN":"7鄰","STREET":"自強街","SECT":" ","MAREA":" ","LANE":" ","ALLEY":" ","HOUSE_NO":"６３號","E_COORD97":172654.323,"N_COORD97":2565021.3111399999,"ADDRESS":"自強街６３號","OBJECTID":652102},"geometry":{"x":172654.32299999893,"y":2565021.3111429997}},{"attributes":{"ID":652130,"DIS_CODE":0,"TOWNNAME":"安平區","LI":"海頭里","LIN":"13鄰","STREET":"中興街","SECT":" ","MAREA":" ","LANE":" ","ALLEY":" ","HOUSE_NO":"５８號","E_COORD97":164137.45803400001,"N_COORD97":2544731.2982299998,"ADDRESS":"中興街５８號","OBJECTID":652103},"geometry":{"x":164137.45803400129,"y":2544731.2982300036}},{"attributes":{"ID":652131,"DIS_CODE":0,"TOWNNAME":"麻豆區","LI":"穀興里","LIN":"7鄰","STREET":"自強街","SECT":" ","MAREA":" ","LANE":" ","ALLEY":" ","HOUSE_NO":"６５號","E_COORD97":172652.839928,"N_COORD97":2565027.8728100001,"ADDRESS":"自強街６５號","OBJECTID":652104},"geometry":{"x":172652.83992800117,"y":2565027.8728059996}},{"attributes":{"ID":652132,"DIS_CODE":0,"TOWNNAME":"楠西區","LI":"鹿田里","LIN":"7鄰","STREET":" ","SECT":" ","MAREA":"油車","LANE":" ","ALLEY":" ","HOUSE_NO":"１號之２１","E_COORD97":197147,"N_COORD97":2560567,"ADDRESS":"油車１號之２１","OBJECTID":652105},"geometry":{"x":197147.00000000093,"y":2560567.0000000019}},{"attributes":{"ID":652133,"DIS_CODE":0,"TOWNNAME":"安平區","LI":"海頭里","LIN":"13鄰","STREET":"中興街","SECT":" ","MAREA":" ","LANE":" ","ALLEY":" ","HOUSE_NO":"６４號","E_COORD97":164124.743583,"N_COORD97":2544741.45823,"ADDRESS":"中興街６４號","OBJECTID":652106},"geometry":{"x":164124.7435830012,"y":2544741.4582250006}},{"attributes":{"ID":652134,"DIS_CODE":0,"TOWNNAME":"安平區","LI":"海頭里","LIN":"13鄰","STREET":"中興街","SECT":" ","MAREA":" ","LANE":" ","ALLEY":" ","HOUSE_NO":"６６號","E_COORD97":164125.59121300001,"N_COORD97":2544745.6915600002,"ADDRESS":"中興街６６號","OBJECTID":652107},"geometry":{"x":164125.59121300001,"y":2544745.6915559992}},{"attributes":{"ID":652135,"DIS_CODE":0,"TOWNNAME":"楠西區","LI":"鹿田里","LIN":"7鄰","STREET":" ","SECT":" ","MAREA":"油車","LANE":" ","ALLEY":" ","HOUSE_NO":"１號之２２","E_COORD97":197128,"N_COORD97":2560573,"ADDRESS":"油車１號之２２","OBJECTID":652108},"geometry":{"x":197128,"y":2560573.0000000019}},{"attributes":{"ID":652136,"DIS_CODE":0,"TOWNNAME":"北門區","LI":"雙春里","LIN":"11鄰","STREET":" ","SECT":" ","MAREA":"雙春","LANE":" ","ALLEY":" ","HOUSE_NO":"７３之５號","E_COORD97":159405.74708599999,"N_COORD97":2578157.56415,"ADDRESS":"雙春７３之５號","OBJECTID":652109},"geometry":{"x":159405.7470859997,"y":2578157.5641510002}},{"attributes":{"ID":652137,"DIS_CODE":0,"TOWNNAME":"安平區","LI":"海頭里","LIN":"5鄰","STREET":"中興街","SECT":" ","MAREA":" ","LANE":"６巷","ALLEY":" ","HOUSE_NO":"３號之１","E_COORD97":164318.63896000001,"N_COORD97":2544694.8915800001,"ADDRESS":"中興街６巷３號之１","OBJECTID":652110},"geometry":{"x":164318.63896000013,"y":2544694.8915800005}},{"attributes":{"ID":652138,"DIS_CODE":0,"TOWNNAME":"安平區","LI":"海頭里","LIN":"5鄰","STREET":"中興街","SECT":" ","MAREA":" ","LANE":"６巷","ALLEY":" ","HOUSE_NO":"３號之２","E_COORD97":164321.60566999999,"N_COORD97":2544703.1465699999,"ADDRESS":"中興街６巷３號之２","OBJECTID":652111},"geometry":{"x":164321.60567000136,"y":2544703.1465700027}},{"attributes":{"ID":652139,"DIS_CODE":0,"TOWNNAME":"安平區","LI":"海頭里","LIN":"5鄰","STREET":"中興街","SECT":" ","MAREA":" ","LANE":"６巷","ALLEY":" ","HOUSE_NO":"３號之３","E_COORD97":164322.87711,"N_COORD97":2544709.7082400001,"ADDRESS":"中興街６巷３號之３","OBJECTID":652112},"geometry":{"x":164322.8771100007,"y":2544709.7082400043}},{"attributes":{"ID":652140,"DIS_CODE":0,"TOWNNAME":"楠西區","LI":"鹿田里","LIN":"8鄰","STREET":" ","SECT":" ","MAREA":"油車","LANE":" ","ALLEY":" ","HOUSE_NO":"１９號","E_COORD97":197999,"N_COORD97":2562024,"ADDRESS":"油車１９號","OBJECTID":652113},"geometry":{"x":197999,"y":2562024.0000000037}},{"attributes":{"ID":652141,"DIS_CODE":0,"TOWNNAME":"安平區","LI":"海頭里","LIN":"6鄰","STREET":"中興街","SECT":" ","MAREA":" ","LANE":"６巷","ALLEY":" ","HOUSE_NO":"５號","E_COORD97":164323.51284000001,"N_COORD97":2544715.8465700001,"ADDRESS":"中興街６巷５號","OBJECTID":652114},"geometry":{"x":164323.51284000091,"y":2544715.8465719987}},{"attributes":{"ID":652142,"DIS_CODE":0,"TOWNNAME":"楠西區","LI":"鹿田里","LIN":"8鄰","STREET":" ","SECT":" ","MAREA":"油車","LANE":" ","ALLEY":" ","HOUSE_NO":"１８號之１","E_COORD97":198027,"N_COORD97":2562018,"ADDRESS":"油車１８號之１","OBJECTID":652115},"geometry":{"x":198027.00000000093,"y":2562018.0000000019}},{"attributes":{"ID":652143,"DIS_CODE":0,"TOWNNAME":"安平區","LI":"海頭里","LIN":"6鄰","STREET":"中興街","SECT":" ","MAREA":" ","LANE":"６巷","ALLEY":" ","HOUSE_NO":"１０號","E_COORD97":164338.13445899999,"N_COORD97":2544717.7515699998,"ADDRESS":"中興街６巷１０號","OBJECTID":652116},"geometry":{"x":164338.13445900008,"y":2544717.7515709996}},{"attributes":{"ID":652144,"DIS_CODE":0,"TOWNNAME":"安平區","LI":"海頭里","LIN":"6鄰","STREET":"中興街","SECT":" ","MAREA":" ","LANE":"６巷","ALLEY":" ","HOUSE_NO":"６號","E_COORD97":164333.896309,"N_COORD97":2544702.9349099998,"ADDRESS":"中興街６巷６號","OBJECTID":652117},"geometry":{"x":164333.89630900137,"y":2544702.9349119999}},{"attributes":{"ID":652145,"DIS_CODE":0,"TOWNNAME":"安平區","LI":"海頭里","LIN":"6鄰","STREET":"中興街","SECT":" ","MAREA":" ","LANE":"６巷","ALLEY":" ","HOUSE_NO":"６號之１","E_COORD97":164331.77723000001,"N_COORD97":2544698.0665799999,"ADDRESS":"中興街６巷６號之１","OBJECTID":652118},"geometry":{"x":164331.77723000105,"y":2544698.0665799994}},{"attributes":{"ID":652146,"DIS_CODE":0,"TOWNNAME":"楠西區","LI":"鹿田里","LIN":"8鄰","STREET":" ","SECT":" ","MAREA":"油車","LANE":" ","ALLEY":" ","HOUSE_NO":"２１號","E_COORD97":198036,"N_COORD97":2562050,"ADDRESS":"油車２１號","OBJECTID":652119},"geometry":{"x":198036,"y":2562050}},{"attributes":{"ID":652147,"DIS_CODE":0,"TOWNNAME":"北門區","LI":"雙春里","LIN":"11鄰","STREET":" ","SECT":" ","MAREA":"雙春","LANE":" ","ALLEY":" ","HOUSE_NO":"７３號之９","E_COORD97":160956.94446200001,"N_COORD97":2578262.7352200001,"ADDRESS":"雙春７３號之９","OBJECTID":652120},"geometry":{"x":160956.94446200226,"y":2578262.7352210023}},{"attributes":{"ID":652148,"DIS_CODE":0,"TOWNNAME":"楠西區","LI":"鹿田里","LIN":"8鄰","STREET":" ","SECT":" ","MAREA":"油車","LANE":" ","ALLEY":" ","HOUSE_NO":"２３號之１","E_COORD97":197994,"N_COORD97":2562051,"ADDRESS":"油車２３號之１","OBJECTID":652121},"geometry":{"x":197994,"y":2562051.0000000037}},{"attributes":{"ID":652149,"DIS_CODE":0,"TOWNNAME":"安平區","LI":"海頭里","LIN":"14鄰","STREET":"中興街","SECT":" ","MAREA":" ","LANE":" ","ALLEY":" ","HOUSE_NO":"７８號","E_COORD97":164106.30762800001,"N_COORD97":2544751.6182200001,"ADDRESS":"中興街７８號","OBJECTID":652122},"geometry":{"x":164106.30762800016,"y":2544751.6182189994}},{"attributes":{"ID":652150,"DIS_CODE":0,"TOWNNAME":"楠西區","LI":"鹿田里","LIN":"8鄰","STREET":" ","SECT":" ","MAREA":"油車","LANE":" ","ALLEY":" ","HOUSE_NO":"２３號之３","E_COORD97":197972,"N_COORD97":2562081,"ADDRESS":"油車２３號之３","OBJECTID":652123},"geometry":{"x":197972,"y":2562081}},{"attributes":{"ID":652151,"DIS_CODE":0,"TOWNNAME":"北門區","LI":"雙春里","LIN":"11鄰","STREET":" ","SECT":" ","MAREA":"雙春","LANE":" ","ALLEY":" ","HOUSE_NO":"７４之６０號","E_COORD97":161068.26809,"N_COORD97":2580079.4587400001,"ADDRESS":"雙春７４之６０號","OBJECTID":652124},"geometry":{"x":161068.26808999944,"y":2580079.4587400015}},{"attributes":{"ID":652152,"DIS_CODE":0,"TOWNNAME":"安平區","LI":"海頭里","LIN":"18鄰","STREET":"古堡街","SECT":" ","MAREA":" ","LANE":"１０２巷","ALLEY":" ","HOUSE_NO":"１３號","E_COORD97":163877.235594,"N_COORD97":2544949.9497799999,"ADDRESS":"古堡街１０２巷１３號","OBJECTID":652125},"geometry":{"x":163877.2355940016,"y":2544949.9497790039}},{"attributes":{"ID":652153,"DIS_CODE":0,"TOWNNAME":"安平區","LI":"海頭里","LIN":"18鄰","STREET":"古堡街","SECT":" ","MAREA":" ","LANE":"１０２巷","ALLEY":" ","HOUSE_NO":"１４號","E_COORD97":163876.81177900001,"N_COORD97":2544953.97144,"ADDRESS":"古堡街１０２巷１４號","OBJECTID":652126},"geometry":{"x":163876.81177899987,"y":2544953.9714429993}},{"attributes":{"ID":652154,"DIS_CODE":0,"TOWNNAME":"安平區","LI":"海頭里","LIN":"18鄰","STREET":"古堡街","SECT":" ","MAREA":" ","LANE":"１０２巷","ALLEY":" ","HOUSE_NO":"１５號","E_COORD97":163876.38796399999,"N_COORD97":2544958.2047799998,"ADDRESS":"古堡街１０２巷１５號","OBJECTID":652127},"geometry":{"x":163876.38796399999,"y":2544958.2047750019}},{"attributes":{"ID":652155,"DIS_CODE":0,"TOWNNAME":"安平區","LI":"海頭里","LIN":"18鄰","STREET":"古堡街","SECT":" ","MAREA":" ","LANE":"１０２巷","ALLEY":" ","HOUSE_NO":"１６號","E_COORD97":163876.176057,"N_COORD97":2544962.0147699998,"ADDRESS":"古堡街１０２巷１６號","OBJECTID":652128},"geometry":{"x":163876.17605700064,"y":2544962.0147720017}},{"attributes":{"ID":652156,"DIS_CODE":0,"TOWNNAME":"安平區","LI":"海頭里","LIN":"18鄰","STREET":"古堡街","SECT":" ","MAREA":" ","LANE":"１０２巷","ALLEY":" ","HOUSE_NO":"１７號","E_COORD97":163875.75224199999,"N_COORD97":2544965.4014400002,"ADDRESS":"古堡街１０２巷１７號","OBJECTID":652129},"geometry":{"x":163875.75224200077,"y":2544965.4014370013}},{"attributes":{"ID":652157,"DIS_CODE":0,"TOWNNAME":"安平區","LI":"海頭里","LIN":"11鄰","STREET":"古堡街","SECT":" ","MAREA":" ","LANE":" ","ALLEY":" ","HOUSE_NO":"５２號","E_COORD97":164039.98057300001,"N_COORD97":2544738.4948900002,"ADDRESS":"古堡街５２號","OBJECTID":652130},"geometry":{"x":164039.98057300039,"y":2544738.4948929995}},{"attributes":{"ID":652158,"DIS_CODE":0,"TOWNNAME":"北門區","LI":"雙春里","LIN":"11鄰","STREET":" ","SECT":" ","MAREA":"雙春","LANE":" ","ALLEY":" ","HOUSE_NO":"７４之６號","E_COORD97":159918.74645999999,"N_COORD97":2580173.02361,"ADDRESS":"雙春７４之６號","OBJECTID":652131},"geometry":{"x":159918.74646000098,"y":2580173.0236070026}},{"attributes":{"ID":652159,"DIS_CODE":0,"TOWNNAME":"北門區","LI":"雙春里","LIN":"11鄰","STREET":" ","SECT":" ","MAREA":"雙春","LANE":" ","ALLEY":" ","HOUSE_NO":"７４號","E_COORD97":159938.10363,"N_COORD97":2580068.0662500001,"ADDRESS":"雙春７４號","OBJECTID":652132},"geometry":{"x":159938.10363000166,"y":2580068.0662479997}},{"attributes":{"ID":652160,"DIS_CODE":0,"TOWNNAME":"安平區","LI":"海頭里","LIN":"8鄰","STREET":"古堡街","SECT":" ","MAREA":" ","LANE":"５３巷","ALLEY":" ","HOUSE_NO":"４號","E_COORD97":164027.90184400001,"N_COORD97":2544628.8516199999,"ADDRESS":"古堡街５３巷４號","OBJECTID":652133},"geometry":{"x":164027.90184400044,"y":2544628.8516190015}},{"attributes":{"ID":652161,"DIS_CODE":0,"TOWNNAME":"北門區","LI":"雙春里","LIN":"11鄰","STREET":" ","SECT":" ","MAREA":"雙春","LANE":" ","ALLEY":" ","HOUSE_NO":"７５之１０號","E_COORD97":162144.82109799999,"N_COORD97":2579614.5695500001,"ADDRESS":"雙春７５之１０號","OBJECTID":652134},"geometry":{"x":162144.82109799981,"y":2579614.5695470031}},{"attributes":{"ID":652162,"DIS_CODE":0,"TOWNNAME":"北門區","LI":"雙春里","LIN":"11鄰","STREET":" ","SECT":" ","MAREA":"雙春","LANE":" ","ALLEY":" ","HOUSE_NO":"７５號","E_COORD97":162092.18634399999,"N_COORD97":2579543.6941200001,"ADDRESS":"雙春７５號","OBJECTID":652135},"geometry":{"x":162092.18634400051,"y":2579543.6941230018}},{"attributes":{"ID":652163,"DIS_CODE":0,"TOWNNAME":"安平區","LI":"海頭里","LIN":"4鄰","STREET":"安北路","SECT":" ","MAREA":" ","LANE":" ","ALLEY":" ","HOUSE_NO":"１０５號之１","E_COORD97":164342.79642,"N_COORD97":2544767.2815399999,"ADDRESS":"安北路１０５號之１","OBJECTID":652136},"geometry":{"x":164342.79641999956,"y":2544767.2815399989}},{"attributes":{"ID":652164,"DIS_CODE":0,"TOWNNAME":"楠西區","LI":"鹿田里","LIN":"9鄰","STREET":" ","SECT":" ","MAREA":"油車","LANE":" ","ALLEY":" ","HOUSE_NO":"３９號","E_COORD97":198086,"N_COORD97":2562154,"ADDRESS":"油車３９號","OBJECTID":652137},"geometry":{"x":198086.00000000186,"y":2562154.0000000019}},{"attributes":{"ID":652165,"DIS_CODE":0,"TOWNNAME":"善化區","LI":"小新里","LIN":"20鄰","STREET":" ","SECT":" ","MAREA":"小新營","LANE":" ","ALLEY":" ","HOUSE_NO":"１６６號之１","E_COORD97":180079.99442999999,"N_COORD97":2558238.62702,"ADDRESS":"小新營１６６號之１","OBJECTID":652138},"geometry":{"x":180079.99443000089,"y":2558238.6270199995}},{"attributes":{"ID":652166,"DIS_CODE":0,"TOWNNAME":"楠西區","LI":"鹿田里","LIN":"8鄰","STREET":" ","SECT":" ","MAREA":"油車","LANE":" ","ALLEY":" ","HOUSE_NO":"３８號","E_COORD97":198092,"N_COORD97":2562156,"ADDRESS":"油車３８號","OBJECTID":652139},"geometry":{"x":198092,"y":2562156.0000000037}},{"attributes":{"ID":652167,"DIS_CODE":0,"TOWNNAME":"中西區","LI":"小西里","LIN":"16鄰","STREET":"永福路","SECT":"一段","MAREA":" ","LANE":" ","ALLEY":" ","HOUSE_NO":"１８５號四樓","E_COORD97":167979.58722700001,"N_COORD97":2543021.5736199999,"ADDRESS":"永福路一段１８５號四樓","OBJECTID":652140},"geometry":{"x":167979.58722699992,"y":2543021.5736190025}},{"attributes":{"ID":652168,"DIS_CODE":0,"TOWNNAME":"中西區","LI":"小西里","LIN":"16鄰","STREET":"永福路","SECT":"一段","MAREA":" ","LANE":" ","ALLEY":" ","HOUSE_NO":"１８５號二樓","E_COORD97":167979.58722700001,"N_COORD97":2543021.5736199999,"ADDRESS":"永福路一段１８５號二樓","OBJECTID":652141},"geometry":{"x":167979.58722699992,"y":2543021.5736190025}},{"attributes":{"ID":652169,"DIS_CODE":0,"TOWNNAME":"中西區","LI":"小西里","LIN":"16鄰","STREET":"永福路","SECT":"一段","MAREA":" ","LANE":" ","ALLEY":" ","HOUSE_NO":"１８５號三樓","E_COORD97":167979.58722700001,"N_COORD97":2543021.5736199999,"ADDRESS":"永福路一段１８５號三樓","OBJECTID":652142},"geometry":{"x":167979.58722699992,"y":2543021.5736190025}},{"attributes":{"ID":652170,"DIS_CODE":0,"TOWNNAME":"善化區","LI":"嘉北里","LIN":"1鄰","STREET":" ","SECT":" ","MAREA":"茄拔","LANE":" ","ALLEY":" ","HOUSE_NO":"６之２３號","E_COORD97":182451.991752,"N_COORD97":2560114.4040899999,"ADDRESS":"茄拔６之２３號","OBJECTID":652143},"geometry":{"x":182451.99175199959,"y":2560114.4040939994}},{"attributes":{"ID":652171,"DIS_CODE":0,"TOWNNAME":"楠西區","LI":"鹿田里","LIN":"9鄰","STREET":" ","SECT":" ","MAREA":"油車","LANE":" ","ALLEY":" ","HOUSE_NO":"３１號","E_COORD97":198028,"N_COORD97":2562151,"ADDRESS":"油車３１號","OBJECTID":652144},"geometry":{"x":198028,"y":2562151}},{"attributes":{"ID":652172,"DIS_CODE":0,"TOWNNAME":"楠西區","LI":"鹿田里","LIN":"9鄰","STREET":" ","SECT":" ","MAREA":"油車","LANE":" ","ALLEY":" ","HOUSE_NO":"３２號","E_COORD97":198037,"N_COORD97":2562156,"ADDRESS":"油車３２號","OBJECTID":652145},"geometry":{"x":198037.00000000093,"y":2562156.0000000037}},{"attributes":{"ID":652173,"DIS_CODE":0,"TOWNNAME":"楠西區","LI":"鹿田里","LIN":"9鄰","STREET":" ","SECT":" ","MAREA":"油車","LANE":" ","ALLEY":" ","HOUSE_NO":"３３號","E_COORD97":198061,"N_COORD97":2562145,"ADDRESS":"油車３３號","OBJECTID":652146},"geometry":{"x":198061.00000000093,"y":2562145}},{"attributes":{"ID":652174,"DIS_CODE":0,"TOWNNAME":"北區","LI":"大道里","LIN":"1鄰","STREET":"和緯路","SECT":"一段","MAREA":" ","LANE":" ","ALLEY":" ","HOUSE_NO":"６號","E_COORD97":169682.72448199999,"N_COORD97":2545519.7398600001,"ADDRESS":"和緯路一段６號","OBJECTID":652147},"geometry":{"x":169682.72448200081,"y":2545519.7398650013}},{"attributes":{"ID":652175,"DIS_CODE":0,"TOWNNAME":"鹽水區","LI":"後宅里","LIN":"4鄰","STREET":" ","SECT":" ","MAREA":"後寮","LANE":" ","ALLEY":" ","HOUSE_NO":"２５之１號","E_COORD97":173574.76111600001,"N_COORD97":2578453.8170799999,"ADDRESS":"後寮２５之１號","OBJECTID":652148},"geometry":{"x":173574.76111600082,"y":2578453.817079002}},{"attributes":{"ID":652176,"DIS_CODE":0,"TOWNNAME":"善化區","LI":"嘉北里","LIN":"1鄰","STREET":" ","SECT":" ","MAREA":"茄拔","LANE":" ","ALLEY":" ","HOUSE_NO":"２之１８號","E_COORD97":181548.05593500001,"N_COORD97":2560465.9822399998,"ADDRESS":"茄拔２之１８號","OBJECTID":652149},"geometry":{"x":181548.05593500193,"y":2560465.9822380003}},{"attributes":{"ID":652177,"DIS_CODE":0,"TOWNNAME":"佳里區","LI":"營頂里","LIN":"10鄰","STREET":" ","SECT":" ","MAREA":"營頂","LANE":" ","ALLEY":" ","HOUSE_NO":"１１０號之１１","E_COORD97":167581.49971500001,"N_COORD97":2567007.73471,"ADDRESS":"營頂１１０號之１１","OBJECTID":652150},"geometry":{"x":167581.49971500225,"y":2567007.7347050011}},{"attributes":{"ID":652178,"DIS_CODE":0,"TOWNNAME":"佳里區","LI":"營頂里","LIN":"10鄰","STREET":" ","SECT":" ","MAREA":"營頂","LANE":" ","ALLEY":" ","HOUSE_NO":"１１０號之１２","E_COORD97":167658.604009,"N_COORD97":2567052.8196800002,"ADDRESS":"營頂１１０號之１２","OBJECTID":652151},"geometry":{"x":167658.60400899872,"y":2567052.8196810018}},{"attributes":{"ID":652179,"DIS_CODE":0,"TOWNNAME":"中西區","LI":"小西里","LIN":"16鄰","STREET":"永福路","SECT":"一段","MAREA":" ","LANE":" ","ALLEY":" ","HOUSE_NO":"１８９號五樓","E_COORD97":167993.259643,"N_COORD97":2543129.34485,"ADDRESS":"永福路一段１８９號五樓","OBJECTID":652152},"geometry":{"x":167993.25964300055,"y":2543129.34485}},{"attributes":{"ID":652180,"DIS_CODE":0,"TOWNNAME":"中西區","LI":"小西里","LIN":"16鄰","STREET":"永福路","SECT":"一段","MAREA":" ","LANE":" ","ALLEY":" ","HOUSE_NO":"１８９號六樓","E_COORD97":167993.259643,"N_COORD97":2543129.34485,"ADDRESS":"永福路一段１８９號六樓","OBJECTID":652153},"geometry":{"x":167993.25964300055,"y":2543129.34485}},{"attributes":{"ID":652181,"DIS_CODE":0,"TOWNNAME":"中西區","LI":"小西里","LIN":"16鄰","STREET":"永福路","SECT":"一段","MAREA":" ","LANE":" ","ALLEY":" ","HOUSE_NO":"１８９號七樓","E_COORD97":167993.259643,"N_COORD97":2543129.34485,"ADDRESS":"永福路一段１８９號七樓","OBJECTID":652154},"geometry":{"x":167993.25964300055,"y":2543129.34485}},{"attributes":{"ID":652182,"DIS_CODE":0,"TOWNNAME":"中西區","LI":"小西里","LIN":"16鄰","STREET":"永福路","SECT":"一段","MAREA":" ","LANE":" ","ALLEY":" ","HOUSE_NO":"１８９號八樓","E_COORD97":167993.259643,"N_COORD97":2543129.34485,"ADDRESS":"永福路一段１８９號八樓","OBJECTID":652155},"geometry":{"x":167993.25964300055,"y":2543129.34485}},{"attributes":{"ID":652183,"DIS_CODE":0,"TOWNNAME":"中西區","LI":"小西里","LIN":"16鄰","STREET":"永福路","SECT":"一段","MAREA":" ","LANE":" ","ALLEY":" ","HOUSE_NO":"１８９號九樓","E_COORD97":167993.259643,"N_COORD97":2543129.34485,"ADDRESS":"永福路一段１８９號九樓","OBJECTID":652156},"geometry":{"x":167993.25964300055,"y":2543129.34485}},{"attributes":{"ID":652184,"DIS_CODE":0,"TOWNNAME":"中西區","LI":"小西里","LIN":"16鄰","STREET":"永福路","SECT":"一段","MAREA":" ","LANE":" ","ALLEY":" ","HOUSE_NO":"１８９號十樓","E_COORD97":167993.259643,"N_COORD97":2543129.34485,"ADDRESS":"永福路一段１８９號十樓","OBJECTID":652157},"geometry":{"x":167993.25964300055,"y":2543129.34485}},{"attributes":{"ID":652185,"DIS_CODE":0,"TOWNNAME":"中西區","LI":"小西里","LIN":"16鄰","STREET":"永福路","SECT":"一段","MAREA":" ","LANE":" ","ALLEY":" ","HOUSE_NO":"１８９號十一樓","E_COORD97":167993.259643,"N_COORD97":2543129.34485,"ADDRESS":"永福路一段１８９號十一樓","OBJECTID":652158},"geometry":{"x":167993.25964300055,"y":2543129.34485}},{"attributes":{"ID":652186,"DIS_CODE":0,"TOWNNAME":"中西區","LI":"小西里","LIN":"16鄰","STREET":"永福路","SECT":"一段","MAREA":" ","LANE":" ","ALLEY":" ","HOUSE_NO":"１８９號十二樓","E_COORD97":167993.259643,"N_COORD97":2543129.34485,"ADDRESS":"永福路一段１８９號十二樓","OBJECTID":652159},"geometry":{"x":167993.25964300055,"y":2543129.34485}},{"attributes":{"ID":652187,"DIS_CODE":0,"TOWNNAME":"中西區","LI":"小西里","LIN":"16鄰","STREET":"永福路","SECT":"一段","MAREA":" ","LANE":" ","ALLEY":" ","HOUSE_NO":"１８９號十三樓","E_COORD97":167993.259643,"N_COORD97":2543129.34485,"ADDRESS":"永福路一段１８９號十三樓","OBJECTID":652160},"geometry":{"x":167993.25964300055,"y":2543129.34485}},{"attributes":{"ID":652188,"DIS_CODE":0,"TOWNNAME":"中西區","LI":"小西里","LIN":"16鄰","STREET":"永福路","SECT":"一段","MAREA":" ","LANE":" ","ALLEY":" ","HOUSE_NO":"１８９號二樓","E_COORD97":167993.259643,"N_COORD97":2543129.34485,"ADDRESS":"永福路一段１８９號二樓","OBJECTID":652161},"geometry":{"x":167993.25964300055,"y":2543129.34485}},{"attributes":{"ID":652189,"DIS_CODE":0,"TOWNNAME":"中西區","LI":"小西里","LIN":"16鄰","STREET":"永福路","SECT":"一段","MAREA":" ","LANE":" ","ALLEY":" ","HOUSE_NO":"１８９號三樓","E_COORD97":167993.259643,"N_COORD97":2543129.34485,"ADDRESS":"永福路一段１８９號三樓","OBJECTID":652162},"geometry":{"x":167993.25964300055,"y":2543129.34485}},{"attributes":{"ID":652190,"DIS_CODE":0,"TOWNNAME":"中西區","LI":"小西里","LIN":"16鄰","STREET":"永福路","SECT":"一段","MAREA":" ","LANE":" ","ALLEY":" ","HOUSE_NO":"１８９號四樓","E_COORD97":167993.259643,"N_COORD97":2543129.34485,"ADDRESS":"永福路一段１８９號四樓","OBJECTID":652163},"geometry":{"x":167993.25964300055,"y":2543129.34485}},{"attributes":{"ID":652191,"DIS_CODE":0,"TOWNNAME":"中西區","LI":"小西里","LIN":"16鄰","STREET":"永福路","SECT":"一段","MAREA":" ","LANE":" ","ALLEY":" ","HOUSE_NO":"１９１號","E_COORD97":167996.59825700001,"N_COORD97":2543184.3451999999,"ADDRESS":"永福路一段１９１號","OBJECTID":652164},"geometry":{"x":167996.59825699963,"y":2543184.3451979998}},{"attributes":{"ID":652192,"DIS_CODE":0,"TOWNNAME":"楠西區","LI":"鹿田里","LIN":"9鄰","STREET":" ","SECT":" ","MAREA":"油車","LANE":" ","ALLEY":" ","HOUSE_NO":"４２號之２","E_COORD97":198115,"N_COORD97":2562208,"ADDRESS":"油車４２號之２","OBJECTID":652165},"geometry":{"x":198115.00000000093,"y":2562208.0000000019}},{"attributes":{"ID":652193,"DIS_CODE":0,"TOWNNAME":"楠西區","LI":"鹿田里","LIN":"9鄰","STREET":" ","SECT":" ","MAREA":"油車","LANE":" ","ALLEY":" ","HOUSE_NO":"４３號","E_COORD97":198122,"N_COORD97":2562201,"ADDRESS":"油車４３號","OBJECTID":652166},"geometry":{"x":198122.00000000093,"y":2562201.0000000019}},{"attributes":{"ID":652194,"DIS_CODE":0,"TOWNNAME":"安平區","LI":"海頭里","LIN":"15鄰","STREET":"安北路","SECT":" ","MAREA":" ","LANE":" ","ALLEY":" ","HOUSE_NO":"１２４號","E_COORD97":164140.00092399999,"N_COORD97":2544852.1598299998,"ADDRESS":"安北路１２４號","OBJECTID":652167},"geometry":{"x":164140.00092399959,"y":2544852.1598320007}},{"attributes":{"ID":652195,"DIS_CODE":0,"TOWNNAME":"安平區","LI":"海頭里","LIN":"14鄰","STREET":"安北路","SECT":" ","MAREA":" ","LANE":"１３１巷","ALLEY":" ","HOUSE_NO":"２２號之２","E_COORD97":164085.75259799999,"N_COORD97":2544801.7831899999,"ADDRESS":"安北路１３１巷２２號之２","OBJECTID":652168},"geometry":{"x":164085.75259799976,"y":2544801.7831919994}},{"attributes":{"ID":652196,"DIS_CODE":0,"TOWNNAME":"安平區","LI":"海頭里","LIN":"14鄰","STREET":"安北路","SECT":" ","MAREA":" ","LANE":"１３１巷","ALLEY":" ","HOUSE_NO":"２２號之３","E_COORD97":164085.75259799999,"N_COORD97":2544801.7831899999,"ADDRESS":"安北路１３１巷２２號之３","OBJECTID":652169},"geometry":{"x":164085.75259799976,"y":2544801.7831919994}},{"attributes":{"ID":652197,"DIS_CODE":0,"TOWNNAME":"安平區","LI":"海頭里","LIN":"14鄰","STREET":"安北路","SECT":" ","MAREA":" ","LANE":"１３１巷","ALLEY":" ","HOUSE_NO":"２２號之３二樓","E_COORD97":164085.75259799999,"N_COORD97":2544801.7831899999,"ADDRESS":"安北路１３１巷２２號之３二樓","OBJECTID":652170},"geometry":{"x":164085.75259799976,"y":2544801.7831919994}},{"attributes":{"ID":652198,"DIS_CODE":0,"TOWNNAME":"安平區","LI":"海頭里","LIN":"14鄰","STREET":"安北路","SECT":" ","MAREA":" ","LANE":"１３１巷","ALLEY":" ","HOUSE_NO":"２２號之４","E_COORD97":164085.75259799999,"N_COORD97":2544801.7831899999,"ADDRESS":"安北路１３１巷２２號之４","OBJECTID":652171},"geometry":{"x":164085.75259799976,"y":2544801.7831919994}},{"attributes":{"ID":652199,"DIS_CODE":0,"TOWNNAME":"安平區","LI":"海頭里","LIN":"14鄰","STREET":"安北路","SECT":" ","MAREA":" ","LANE":"１３１巷","ALLEY":" ","HOUSE_NO":"２２號之５","E_COORD97":164085.75259799999,"N_COORD97":2544801.7831899999,"ADDRESS":"安北路１３１巷２２號之５","OBJECTID":652172},"geometry":{"x":164085.75259799976,"y":2544801.7831919994}},{"attributes":{"ID":652200,"DIS_CODE":0,"TOWNNAME":"安平區","LI":"海頭里","LIN":"13鄰","STREET":"安北路","SECT":" ","MAREA":" ","LANE":" ","ALLEY":" ","HOUSE_NO":"１４１號之１","E_COORD97":164094.86462199999,"N_COORD97":2544835.8615100002,"ADDRESS":"安北路１４１號之１","OBJECTID":652173},"geometry":{"x":164094.8646220006,"y":2544835.8615070023}},{"attributes":{"ID":652201,"DIS_CODE":0,"TOWNNAME":"中西區","LI":"小西里","LIN":"16鄰","STREET":"永福路","SECT":"一段","MAREA":" ","LANE":" ","ALLEY":" ","HOUSE_NO":"１８７號","E_COORD97":167986.582417,"N_COORD97":2543071.7715500002,"ADDRESS":"永福路一段１８７號","OBJECTID":652174},"geometry":{"x":167986.58241700009,"y":2543071.7715479974}},{"attributes":{"ID":652202,"DIS_CODE":0,"TOWNNAME":"中西區","LI":"小西里","LIN":"16鄰","STREET":"和意路","SECT":" ","MAREA":" ","LANE":" ","ALLEY":" ","HOUSE_NO":"３號","E_COORD97":167949.817924,"N_COORD97":2543021.50074,"ADDRESS":"和意路３號","OBJECTID":652175},"geometry":{"x":167949.81792400125,"y":2543021.5007420015}},{"attributes":{"ID":652203,"DIS_CODE":0,"TOWNNAME":"中西區","LI":"小西里","LIN":"16鄰","STREET":"和意路","SECT":" ","MAREA":" ","LANE":" ","ALLEY":" ","HOUSE_NO":"５號","E_COORD97":167963.17237700001,"N_COORD97":2543106.5907000001,"ADDRESS":"和意路５號","OBJECTID":652176},"geometry":{"x":167963.1723769987,"y":2543106.5906959996}},{"attributes":{"ID":652204,"DIS_CODE":0,"TOWNNAME":"中西區","LI":"小西里","LIN":"16鄰","STREET":"和意路","SECT":" ","MAREA":" ","LANE":" ","ALLEY":" ","HOUSE_NO":"１號","E_COORD97":167876.47441600001,"N_COORD97":2543134.3190100002,"ADDRESS":"和意路１號","OBJECTID":652177},"geometry":{"x":167876.47441600077,"y":2543134.3190139998}},{"attributes":{"ID":652205,"DIS_CODE":0,"TOWNNAME":"中西區","LI":"小西里","LIN":"16鄰","STREET":"和意路","SECT":" ","MAREA":" ","LANE":" ","ALLEY":" ","HOUSE_NO":"１之１號","E_COORD97":167876.47441600001,"N_COORD97":2543134.3190100002,"ADDRESS":"和意路１之１號","OBJECTID":652178},"geometry":{"x":167876.47441600077,"y":2543134.3190139998}},{"attributes":{"ID":652206,"DIS_CODE":0,"TOWNNAME":"中西區","LI":"小西里","LIN":"16鄰","STREET":"西門路","SECT":"一段","MAREA":" ","LANE":" ","ALLEY":" ","HOUSE_NO":"６５８之１號","E_COORD97":167872.446883,"N_COORD97":2543061.5057199998,"ADDRESS":"西門路一段６５８之１號","OBJECTID":652179},"geometry":{"x":167872.44688300136,"y":2543061.5057200044}},{"attributes":{"ID":652207,"DIS_CODE":0,"TOWNNAME":"楠西區","LI":"鹿田里","LIN":"10鄰","STREET":" ","SECT":" ","MAREA":"油車","LANE":" ","ALLEY":" ","HOUSE_NO":"４６號之２","E_COORD97":198326,"N_COORD97":2562183,"ADDRESS":"油車４６號之２","OBJECTID":652180},"geometry":{"x":198326,"y":2562183.0000000037}},{"attributes":{"ID":652208,"DIS_CODE":0,"TOWNNAME":"中西區","LI":"小西里","LIN":"16鄰","STREET":"西門路","SECT":"一段","MAREA":" ","LANE":" ","ALLEY":" ","HOUSE_NO":"６５８之２號四樓","E_COORD97":167886.861214,"N_COORD97":2543053.46239,"ADDRESS":"西門路一段６５８之２號四樓","OBJECTID":652181},"geometry":{"x":167886.86121400073,"y":2543053.4623910021}},{"attributes":{"ID":652209,"DIS_CODE":0,"TOWNNAME":"中西區","LI":"小西里","LIN":"16鄰","STREET":"西門路","SECT":"一段","MAREA":" ","LANE":" ","ALLEY":" ","HOUSE_NO":"６５８之２號五樓","E_COORD97":167886.861214,"N_COORD97":2543053.46239,"ADDRESS":"西門路一段６５８之２號五樓","OBJECTID":652182},"geometry":{"x":167886.86121400073,"y":2543053.4623910021}},{"attributes":{"ID":652210,"DIS_CODE":0,"TOWNNAME":"中西區","LI":"小西里","LIN":"16鄰","STREET":"西門路","SECT":"一段","MAREA":" ","LANE":" ","ALLEY":" ","HOUSE_NO":"６５８之２號六樓","E_COORD97":167886.861214,"N_COORD97":2543053.46239,"ADDRESS":"西門路一段６５８之２號六樓","OBJECTID":652183},"geometry":{"x":167886.86121400073,"y":2543053.4623910021}},{"attributes":{"ID":652211,"DIS_CODE":0,"TOWNNAME":"北區","LI":"大山里","LIN":"10鄰","STREET":"精忠街","SECT":" ","MAREA":" ","LANE":" ","ALLEY":" ","HOUSE_NO":"１１４號之２","E_COORD97":169303.63305900001,"N_COORD97":2545548.94985,"ADDRESS":"精忠街１１４號之２","OBJECTID":652184},"geometry":{"x":169303.6330590006,"y":2545548.9498490002}},{"attributes":{"ID":652212,"DIS_CODE":0,"TOWNNAME":"鹽水區","LI":"後宅里","LIN":"7鄰","STREET":" ","SECT":" ","MAREA":"後寮","LANE":" ","ALLEY":" ","HOUSE_NO":"５６之９號","E_COORD97":173240.02160800001,"N_COORD97":2578729.0497400002,"ADDRESS":"後寮５６之９號","OBJECTID":652185},"geometry":{"x":173240.02160799969,"y":2578729.0497430023}},{"attributes":{"ID":652213,"DIS_CODE":0,"TOWNNAME":"安平區","LI":"海頭里","LIN":"7鄰","STREET":"延平街","SECT":" ","MAREA":" ","LANE":"１０４巷","ALLEY":" ","HOUSE_NO":"１１號","E_COORD97":164148.90104,"N_COORD97":2544643.4566100002,"ADDRESS":"延平街１０４巷１１號","OBJECTID":652186},"geometry":{"x":164148.90104000084,"y":2544643.4566110037}},{"attributes":{"ID":652214,"DIS_CODE":0,"TOWNNAME":"安平區","LI":"海頭里","LIN":"7鄰","STREET":"延平街","SECT":" ","MAREA":" ","LANE":"１０４巷","ALLEY":" ","HOUSE_NO":"３號","E_COORD97":164142.755722,"N_COORD97":2544622.7132899999,"ADDRESS":"延平街１０４巷３號","OBJECTID":652187},"geometry":{"x":164142.75572200119,"y":2544622.7132890038}},{"attributes":{"ID":652215,"DIS_CODE":0,"TOWNNAME":"中西區","LI":"天后里","LIN":"19鄰","STREET":"新美街","SECT":" ","MAREA":" ","LANE":" ","ALLEY":" ","HOUSE_NO":"１６７號","E_COORD97":168123.53180900001,"N_COORD97":2544292.77006,"ADDRESS":"新美街１６７號","OBJECTID":652188},"geometry":{"x":168123.5318090003,"y":2544292.7700550016}},{"attributes":{"ID":652216,"DIS_CODE":0,"TOWNNAME":"新營區","LI":"新北里","LIN":"30鄰","STREET":"新北四街","SECT":" ","MAREA":" ","LANE":" ","ALLEY":" ","HOUSE_NO":"１號","E_COORD97":178712.634735,"N_COORD97":2578901.8809199999,"ADDRESS":"新北四街１號","OBJECTID":652189},"geometry":{"x":178712.63473500125,"y":2578901.8809200022}},{"attributes":{"ID":652217,"DIS_CODE":0,"TOWNNAME":"安平區","LI":"海頭里","LIN":"7鄰","STREET":"延平街","SECT":" ","MAREA":" ","LANE":" ","ALLEY":" ","HOUSE_NO":"１１８之１號","E_COORD97":164112.452946,"N_COORD97":2544613.3999600001,"ADDRESS":"延平街１１８之１號","OBJECTID":652190},"geometry":{"x":164112.45294599887,"y":2544613.3999610022}},{"attributes":{"ID":652218,"DIS_CODE":0,"TOWNNAME":"中西區","LI":"光賢里","LIN":"21鄰","STREET":"武聖路","SECT":" ","MAREA":" ","LANE":"１９７巷","ALLEY":"３０弄","HOUSE_NO":"２７號","E_COORD97":166805.78639600001,"N_COORD97":2545185.36791,"ADDRESS":"武聖路１９７巷３０弄２７號","OBJECTID":652191},"geometry":{"x":166805.7863959996,"y":2545185.3679069988}},{"attributes":{"ID":652219,"DIS_CODE":0,"TOWNNAME":"善化區","LI":"小新里","LIN":"20鄰","STREET":" ","SECT":" ","MAREA":"小新營","LANE":" ","ALLEY":" ","HOUSE_NO":"３８８號","E_COORD97":180280.46523599999,"N_COORD97":2557090.6908100001,"ADDRESS":"小新營３８８號","OBJECTID":652192},"geometry":{"x":180280.46523599979,"y":2557090.6908059996}},{"attributes":{"ID":652220,"DIS_CODE":0,"TOWNNAME":"新營區","LI":"新北里","LIN":"24鄰","STREET":"長榮路","SECT":"二段","MAREA":" ","LANE":" ","ALLEY":" ","HOUSE_NO":"４９８號","E_COORD97":166237.65275099999,"N_COORD97":2580377.4153499999,"ADDRESS":"長榮路二段４９８號","OBJECTID":652193},"geometry":{"x":166237.65275099967,"y":2580377.415353002}},{"attributes":{"ID":652221,"DIS_CODE":0,"TOWNNAME":"新營區","LI":"新北里","LIN":"24鄰","STREET":"長榮路","SECT":"二段","MAREA":" ","LANE":" ","ALLEY":" ","HOUSE_NO":"４９８號","E_COORD97":178736.35393700001,"N_COORD97":2579489.2528400002,"ADDRESS":"長榮路二段４９８號","OBJECTID":652194},"geometry":{"x":178736.35393700004,"y":2579489.2528440021}},{"attributes":{"ID":652222,"DIS_CODE":0,"TOWNNAME":"中西區","LI":"五妃里","LIN":"4鄰","STREET":"南門路","SECT":" ","MAREA":" ","LANE":"２３１巷","ALLEY":" ","HOUSE_NO":"１５號","E_COORD97":168531.14051999999,"N_COORD97":2542645.6351000001,"ADDRESS":"南門路２３１巷１５號","OBJECTID":652195},"geometry":{"x":168531.1405199999,"y":2542645.6350990012}},{"attributes":{"ID":652223,"DIS_CODE":0,"TOWNNAME":"中西區","LI":"五妃里","LIN":"14鄰","STREET":"南門路","SECT":" ","MAREA":" ","LANE":"２０９巷","ALLEY":" ","HOUSE_NO":"５號","E_COORD97":168452.960078,"N_COORD97":2542846.50666,"ADDRESS":"南門路２０９巷５號","OBJECTID":652196},"geometry":{"x":168452.96007800009,"y":2542846.5066570044}},{"attributes":{"ID":652224,"DIS_CODE":0,"TOWNNAME":"中西區","LI":"五妃里","LIN":"14鄰","STREET":"南門路","SECT":" ","MAREA":" ","LANE":"２０９巷","ALLEY":" ","HOUSE_NO":"７號","E_COORD97":168455.07878899999,"N_COORD97":2542846.0833200002,"ADDRESS":"南門路２０９巷７號","OBJECTID":652197},"geometry":{"x":168455.07878900133,"y":2542846.0833240002}},{"attributes":{"ID":652225,"DIS_CODE":0,"TOWNNAME":"中西區","LI":"光賢里","LIN":"12鄰","STREET":"中華西路","SECT":"二段","MAREA":" ","LANE":" ","ALLEY":" ","HOUSE_NO":"５０６號","E_COORD97":166676.799332,"N_COORD97":2544691.3381699999,"ADDRESS":"中華西路二段５０６號","OBJECTID":652198},"geometry":{"x":166676.79933200032,"y":2544691.3381740022}},{"attributes":{"ID":652226,"DIS_CODE":0,"TOWNNAME":"中西區","LI":"光賢里","LIN":"12鄰","STREET":"中華西路","SECT":"二段","MAREA":" ","LANE":" ","ALLEY":" ","HOUSE_NO":"５０８號","E_COORD97":166677.223283,"N_COORD97":2544699.8048399999,"ADDRESS":"中華西路二段５０８號","OBJECTID":652199},"geometry":{"x":166677.22328300122,"y":2544699.8048359975}},{"attributes":{"ID":652227,"DIS_CODE":0,"TOWNNAME":"中西區","LI":"光賢里","LIN":"12鄰","STREET":"中華西路","SECT":"二段","MAREA":" ","LANE":" ","ALLEY":" ","HOUSE_NO":"５１０號","E_COORD97":166677.43525899999,"N_COORD97":2544707.4248299999,"ADDRESS":"中華西路二段５１０號","OBJECTID":652200},"geometry":{"x":166677.4352590004,"y":2544707.4248320013}}]}