{"displayFieldName":"TOWNNAME","fieldAliases":{"ID":"ID","DIS_CODE":"DIS_CODE","TOWNNAME":"TOWNNAME","LI":"LI","LIN":"LIN","STREET":"STREET","SECT":"SECT","MAREA":"MAREA","LANE":"LANE","ALLEY":"ALLEY","HOUSE_NO":"HOUSE_NO","E_COORD97":"E_COORD97","N_COORD97":"N_COORD97","ADDRESS":"ADDRESS","OBJECTID":"OBJECTID"},"geometryType":"esriGeometryPoint","spatialReference":{"wkid":102443,"latestWkid":3826},"fields":[{"name":"ID","type":"esriFieldTypeDouble","alias":"ID"},{"name":"DIS_CODE","type":"esriFieldTypeInteger","alias":"DIS_CODE"},{"name":"TOWNNAME","type":"esriFieldTypeString","alias":"TOWNNAME","length":8},{"name":"LI","type":"esriFieldTypeString","alias":"LI","length":8},{"name":"LIN","type":"esriFieldTypeString","alias":"LIN","length":12},{"name":"STREET","type":"esriFieldTypeString","alias":"STREET","length":20},{"name":"SECT","type":"esriFieldTypeString","alias":"SECT","length":8},{"name":"MAREA","type":"esriFieldTypeString","alias":"MAREA","length":12},{"name":"LANE","type":"esriFieldTypeString","alias":"LANE","length":10},{"name":"ALLEY","type":"esriFieldTypeString","alias":"ALLEY","length":10},{"name":"HOUSE_NO","type":"esriFieldTypeString","alias":"HOUSE_NO","length":20},{"name":"E_COORD97","type":"esriFieldTypeDouble","alias":"E_COORD97"},{"name":"N_COORD97","type":"esriFieldTypeDouble","alias":"N_COORD97"},{"name":"ADDRESS","type":"esriFieldTypeString","alias":"ADDRESS","length":50},{"name":"OBJECTID","type":"esriFieldTypeOID","alias":"OBJECTID"}],"features":[{"attributes":{"ID":202802,"DIS_CODE":0,"TOWNNAME":"安南區","LI":"州南里","LIN":"26鄰","STREET":"安和路","SECT":"四段","MAREA":" ","LANE":"５３８巷","ALLEY":"８７弄","HOUSE_NO":"６６號","E_COORD97":170111.95999999999,"N_COORD97":2551333.8999999999,"ADDRESS":"安和路四段５３８巷８７弄６６號","OBJECTID":202801},"geometry":{"x":170111.95999999996,"y":2551333.9000000004}},{"attributes":{"ID":202803,"DIS_CODE":0,"TOWNNAME":"安南區","LI":"州南里","LIN":"26鄰","STREET":"安和路","SECT":"四段","MAREA":" ","LANE":"５３８巷","ALLEY":"８７弄","HOUSE_NO":"６８號","E_COORD97":170109.73999999999,"N_COORD97":2551336.3599999999,"ADDRESS":"安和路四段５３８巷８７弄６８號","OBJECTID":202802},"geometry":{"x":170109.74000000022,"y":2551336.3599999994}},{"attributes":{"ID":202804,"DIS_CODE":0,"TOWNNAME":"安南區","LI":"州南里","LIN":"26鄰","STREET":"安和路","SECT":"四段","MAREA":" ","LANE":"５３８巷","ALLEY":"８７弄","HOUSE_NO":"７０號","E_COORD97":170106.79000000001,"N_COORD97":2551340.04,"ADDRESS":"安和路四段５３８巷８７弄７０號","OBJECTID":202803},"geometry":{"x":170106.79000000097,"y":2551340.040000001}},{"attributes":{"ID":202805,"DIS_CODE":0,"TOWNNAME":"安南區","LI":"州南里","LIN":"26鄰","STREET":"安和路","SECT":"四段","MAREA":" ","LANE":"５３８巷","ALLEY":"８７弄","HOUSE_NO":"７２號","E_COORD97":170104.34,"N_COORD97":2551342.7400000002,"ADDRESS":"安和路四段５３８巷８７弄７２號","OBJECTID":202804},"geometry":{"x":170104.34000000171,"y":2551342.7400000039}},{"attributes":{"ID":202806,"DIS_CODE":0,"TOWNNAME":"安南區","LI":"州南里","LIN":"26鄰","STREET":"安和路","SECT":"四段","MAREA":" ","LANE":"５３８巷","ALLEY":"８７弄","HOUSE_NO":"７４號","E_COORD97":170100.39999999999,"N_COORD97":2551346.6699999999,"ADDRESS":"安和路四段５３８巷８７弄７４號","OBJECTID":202805},"geometry":{"x":170100.40000000037,"y":2551346.6700000018}},{"attributes":{"ID":202807,"DIS_CODE":0,"TOWNNAME":"新市區","LI":"三舍里","LIN":"9鄰","STREET":" ","SECT":" ","MAREA":"三舍","LANE":" ","ALLEY":" ","HOUSE_NO":"１９１之２１號","E_COORD97":177432.20999999999,"N_COORD97":2555083.0499999998,"ADDRESS":"三舍１９１之２１號","OBJECTID":202806},"geometry":{"x":177432.21000000089,"y":2555083.0500000007}},{"attributes":{"ID":202808,"DIS_CODE":0,"TOWNNAME":"新市區","LI":"三舍里","LIN":"9鄰","STREET":" ","SECT":" ","MAREA":"三舍","LANE":" ","ALLEY":" ","HOUSE_NO":"２０１之２號","E_COORD97":177338.10000000001,"N_COORD97":2554958.5499999998,"ADDRESS":"三舍２０１之２號","OBJECTID":202807},"geometry":{"x":177338.10000000056,"y":2554958.5500000045}},{"attributes":{"ID":202809,"DIS_CODE":0,"TOWNNAME":"新市區","LI":"大營里","LIN":"9鄰","STREET":" ","SECT":" ","MAREA":"大營","LANE":" ","ALLEY":" ","HOUSE_NO":"１９４號","E_COORD97":179362.51000000001,"N_COORD97":2555628.5,"ADDRESS":"大營１９４號","OBJECTID":202808},"geometry":{"x":179362.51000000071,"y":2555628.5}},{"attributes":{"ID":202810,"DIS_CODE":0,"TOWNNAME":"新市區","LI":"大社里","LIN":"9鄰","STREET":" ","SECT":" ","MAREA":"大社","LANE":" ","ALLEY":" ","HOUSE_NO":"２９０號","E_COORD97":180388.64000000001,"N_COORD97":2554566.7999999998,"ADDRESS":"大社２９０號","OBJECTID":202809},"geometry":{"x":180388.64000000153,"y":2554566.8000000007}},{"attributes":{"ID":202811,"DIS_CODE":0,"TOWNNAME":"新市區","LI":"三舍里","LIN":"9鄰","STREET":" ","SECT":" ","MAREA":"三舍","LANE":" ","ALLEY":" ","HOUSE_NO":"２０１號","E_COORD97":177346.82000000001,"N_COORD97":2554924.5,"ADDRESS":"三舍２０１號","OBJECTID":202810},"geometry":{"x":177346.82000000216,"y":2554924.5000000037}},{"attributes":{"ID":202812,"DIS_CODE":0,"TOWNNAME":"麻豆區","LI":"油車里","LIN":"6鄰","STREET":" ","SECT":" ","MAREA":"油車","LANE":" ","ALLEY":" ","HOUSE_NO":"７號","E_COORD97":172658.57999999999,"N_COORD97":2565319.6699999999,"ADDRESS":"油車７號","OBJECTID":202811},"geometry":{"x":172658.58000000007,"y":2565319.6700000018}},{"attributes":{"ID":202813,"DIS_CODE":0,"TOWNNAME":"新市區","LI":"三舍里","LIN":"9鄰","STREET":" ","SECT":" ","MAREA":"三舍","LANE":" ","ALLEY":" ","HOUSE_NO":"２０１之７號","E_COORD97":177347.92000000001,"N_COORD97":2554979.7999999998,"ADDRESS":"三舍２０１之７號","OBJECTID":202812},"geometry":{"x":177347.92000000086,"y":2554979.8000000007}},{"attributes":{"ID":202814,"DIS_CODE":0,"TOWNNAME":"新市區","LI":"三舍里","LIN":"9鄰","STREET":" ","SECT":" ","MAREA":"三舍","LANE":" ","ALLEY":" ","HOUSE_NO":"２００之３號","E_COORD97":177367.37,"N_COORD97":2554937.2999999998,"ADDRESS":"三舍２００之３號","OBJECTID":202813},"geometry":{"x":177367.37000000104,"y":2554937.3000000026}},{"attributes":{"ID":202815,"DIS_CODE":0,"TOWNNAME":"官田區","LI":"社子里","LIN":"9鄰","STREET":" ","SECT":" ","MAREA":"社子","LANE":" ","ALLEY":" ","HOUSE_NO":"７２號","E_COORD97":184768.67000000001,"N_COORD97":2563814.6600000001,"ADDRESS":"社子７２號","OBJECTID":202814},"geometry":{"x":184768.66999999993,"y":2563814.6600000001}},{"attributes":{"ID":202816,"DIS_CODE":0,"TOWNNAME":"官田區","LI":"社子里","LIN":"9鄰","STREET":" ","SECT":" ","MAREA":"社子","LANE":" ","ALLEY":" ","HOUSE_NO":"７３號之１０","E_COORD97":184698.29999999999,"N_COORD97":2564095.3700000001,"ADDRESS":"社子７３號之１０","OBJECTID":202815},"geometry":{"x":184698.29999999981,"y":2564095.3700000029}},{"attributes":{"ID":202817,"DIS_CODE":0,"TOWNNAME":"官田區","LI":"社子里","LIN":"9鄰","STREET":" ","SECT":" ","MAREA":"社子","LANE":" ","ALLEY":" ","HOUSE_NO":"７３號之１２","E_COORD97":184699.53,"N_COORD97":2564131.2999999998,"ADDRESS":"社子７３號之１２","OBJECTID":202816},"geometry":{"x":184699.53000000119,"y":2564131.3000000045}},{"attributes":{"ID":202818,"DIS_CODE":0,"TOWNNAME":"西港區","LI":"竹林里","LIN":"3鄰","STREET":" ","SECT":" ","MAREA":"大竹林","LANE":" ","ALLEY":" ","HOUSE_NO":"１９號之２","E_COORD97":166531.59,"N_COORD97":2558043.6600000001,"ADDRESS":"大竹林１９號之２","OBJECTID":202817},"geometry":{"x":166531.59000000078,"y":2558043.660000002}},{"attributes":{"ID":202819,"DIS_CODE":0,"TOWNNAME":"西港區","LI":"竹林里","LIN":"3鄰","STREET":" ","SECT":" ","MAREA":"大竹林","LANE":" ","ALLEY":" ","HOUSE_NO":"１９號","E_COORD97":166538.06,"N_COORD97":2558024.98,"ADDRESS":"大竹林１９號","OBJECTID":202818},"geometry":{"x":166538.06000000052,"y":2558024.9800000023}},{"attributes":{"ID":202820,"DIS_CODE":0,"TOWNNAME":"西港區","LI":"竹林里","LIN":"3鄰","STREET":" ","SECT":" ","MAREA":"大竹林","LANE":" ","ALLEY":" ","HOUSE_NO":"２５號之１","E_COORD97":166414.76000000001,"N_COORD97":2558281.21,"ADDRESS":"大竹林２５號之１","OBJECTID":202819},"geometry":{"x":166414.76000000071,"y":2558281.2100000028}},{"attributes":{"ID":202821,"DIS_CODE":0,"TOWNNAME":"西港區","LI":"竹林里","LIN":"3鄰","STREET":" ","SECT":" ","MAREA":"大竹林","LANE":" ","ALLEY":" ","HOUSE_NO":"２５號之２","E_COORD97":166442.16,"N_COORD97":2558217.4900000002,"ADDRESS":"大竹林２５號之２","OBJECTID":202820},"geometry":{"x":166442.16000000015,"y":2558217.4900000021}},{"attributes":{"ID":202822,"DIS_CODE":0,"TOWNNAME":"西港區","LI":"竹林里","LIN":"3鄰","STREET":" ","SECT":" ","MAREA":"大竹林","LANE":" ","ALLEY":" ","HOUSE_NO":"２５號","E_COORD97":166444.60000000001,"N_COORD97":2558202.48,"ADDRESS":"大竹林２５號","OBJECTID":202821},"geometry":{"x":166444.60000000056,"y":2558202.4800000004}},{"attributes":{"ID":202823,"DIS_CODE":0,"TOWNNAME":"新化區","LI":"崙頂里","LIN":"3鄰","STREET":" ","SECT":" ","MAREA":"崙子頂","LANE":" ","ALLEY":" ","HOUSE_NO":"１０９號","E_COORD97":176807.23000000001,"N_COORD97":2546773.25,"ADDRESS":"崙子頂１０９號","OBJECTID":202822},"geometry":{"x":176807.23000000138,"y":2546773.2500000019}},{"attributes":{"ID":202824,"DIS_CODE":0,"TOWNNAME":"新化區","LI":"北勢里","LIN":"3鄰","STREET":" ","SECT":" ","MAREA":"北勢","LANE":" ","ALLEY":" ","HOUSE_NO":"６２號之７","E_COORD97":177386.67999999999,"N_COORD97":2549674.2599999998,"ADDRESS":"北勢６２號之７","OBJECTID":202823},"geometry":{"x":177386.68000000063,"y":2549674.2600000035}},{"attributes":{"ID":202825,"DIS_CODE":0,"TOWNNAME":"新化區","LI":"北勢里","LIN":"3鄰","STREET":" ","SECT":" ","MAREA":"北勢","LANE":" ","ALLEY":" ","HOUSE_NO":"６３號之３","E_COORD97":177413.17999999999,"N_COORD97":2549670.2599999998,"ADDRESS":"北勢６３號之３","OBJECTID":202824},"geometry":{"x":177413.17999999877,"y":2549670.2599999998}},{"attributes":{"ID":202826,"DIS_CODE":0,"TOWNNAME":"新化區","LI":"羊林里","LIN":"3鄰","STREET":" ","SECT":" ","MAREA":"\u25A0拔林","LANE":" ","ALLEY":" ","HOUSE_NO":"４４２號之１","E_COORD97":183688.75,"N_COORD97":2551795.2599999998,"ADDRESS":"\u25A0拔林４４２號之１","OBJECTID":202825},"geometry":{"x":183688.75000000186,"y":2551795.2599999998}},{"attributes":{"ID":202827,"DIS_CODE":0,"TOWNNAME":"新化區","LI":"北勢里","LIN":"3鄰","STREET":" ","SECT":" ","MAREA":"北勢","LANE":" ","ALLEY":" ","HOUSE_NO":"６５號","E_COORD97":177389.63,"N_COORD97":2549697.2599999998,"ADDRESS":"北勢６５號","OBJECTID":202826},"geometry":{"x":177389.62999999989,"y":2549697.2599999998}},{"attributes":{"ID":202828,"DIS_CODE":0,"TOWNNAME":"安定區","LI":"保西里","LIN":"3鄰","STREET":" ","SECT":" ","MAREA":"安定","LANE":" ","ALLEY":" ","HOUSE_NO":"３４７之１號","E_COORD97":171727.92000000001,"N_COORD97":2557654.3199999998,"ADDRESS":"安定３４７之１號","OBJECTID":202827},"geometry":{"x":171727.92000000179,"y":2557654.3200000003}},{"attributes":{"ID":202829,"DIS_CODE":0,"TOWNNAME":"安定區","LI":"保西里","LIN":"3鄰","STREET":" ","SECT":" ","MAREA":"安定","LANE":" ","ALLEY":" ","HOUSE_NO":"３４５號","E_COORD97":171728.16041400001,"N_COORD97":2557642.6652799998,"ADDRESS":"安定３４５號","OBJECTID":202828},"geometry":{"x":171728.16041400097,"y":2557642.665279001}},{"attributes":{"ID":202830,"DIS_CODE":0,"TOWNNAME":"安定區","LI":"港尾里","LIN":"3鄰","STREET":" ","SECT":" ","MAREA":"港子尾","LANE":" ","ALLEY":" ","HOUSE_NO":"１之３號","E_COORD97":171678.14000000001,"N_COORD97":2556471.2999999998,"ADDRESS":"港子尾１之３號","OBJECTID":202829},"geometry":{"x":171678.13999999966,"y":2556471.3000000007}},{"attributes":{"ID":202831,"DIS_CODE":0,"TOWNNAME":"安定區","LI":"蘇林里","LIN":"3鄰","STREET":" ","SECT":" ","MAREA":"蘇厝","LANE":" ","ALLEY":" ","HOUSE_NO":"３１號","E_COORD97":173466.47,"N_COORD97":2558652.25,"ADDRESS":"蘇厝３１號","OBJECTID":202830},"geometry":{"x":173466.46999999974,"y":2558652.2500000037}},{"attributes":{"ID":202832,"DIS_CODE":0,"TOWNNAME":"安定區","LI":"大同里","LIN":"3鄰","STREET":" ","SECT":" ","MAREA":"大同","LANE":" ","ALLEY":" ","HOUSE_NO":"２８號","E_COORD97":170465.37,"N_COORD97":2553909.25,"ADDRESS":"大同２８號","OBJECTID":202831},"geometry":{"x":170465.37000000011,"y":2553909.2500000019}},{"attributes":{"ID":202833,"DIS_CODE":0,"TOWNNAME":"安定區","LI":"海寮里","LIN":"3鄰","STREET":" ","SECT":" ","MAREA":"海寮","LANE":" ","ALLEY":" ","HOUSE_NO":"３０之７號","E_COORD97":169650.98999999999,"N_COORD97":2555216.2999999998,"ADDRESS":"海寮３０之７號","OBJECTID":202832},"geometry":{"x":169650.99000000022,"y":2555216.3000000026}},{"attributes":{"ID":202834,"DIS_CODE":0,"TOWNNAME":"安定區","LI":"海寮里","LIN":"3鄰","STREET":" ","SECT":" ","MAREA":"海寮","LANE":" ","ALLEY":" ","HOUSE_NO":"３８號","E_COORD97":169527.59,"N_COORD97":2555307.25,"ADDRESS":"海寮３８號","OBJECTID":202833},"geometry":{"x":169527.58999999985,"y":2555307.2500000019}},{"attributes":{"ID":202835,"DIS_CODE":0,"TOWNNAME":"安定區","LI":"南安里","LIN":"3鄰","STREET":" ","SECT":" ","MAREA":"油車","LANE":" ","ALLEY":" ","HOUSE_NO":"３２號","E_COORD97":170778.73999999999,"N_COORD97":2555811.25,"ADDRESS":"油車３２號","OBJECTID":202834},"geometry":{"x":170778.74000000115,"y":2555811.2500000019}},{"attributes":{"ID":202836,"DIS_CODE":0,"TOWNNAME":"安定區","LI":"中榮里","LIN":"3鄰","STREET":" ","SECT":" ","MAREA":"許中營","LANE":" ","ALLEY":" ","HOUSE_NO":"３５之１１號","E_COORD97":172402.48999999999,"N_COORD97":2554999.2999999998,"ADDRESS":"許中營３５之１１號","OBJECTID":202835},"geometry":{"x":172402.49000000209,"y":2554999.3000000026}},{"attributes":{"ID":202837,"DIS_CODE":0,"TOWNNAME":"安定區","LI":"海寮里","LIN":"3鄰","STREET":" ","SECT":" ","MAREA":"海寮","LANE":" ","ALLEY":" ","HOUSE_NO":"３７號","E_COORD97":169523.33343599999,"N_COORD97":2555307.3628400001,"ADDRESS":"海寮３７號","OBJECTID":202836},"geometry":{"x":169523.33343600016,"y":2555307.3628440015}},{"attributes":{"ID":202838,"DIS_CODE":0,"TOWNNAME":"安定區","LI":"港口里","LIN":"3鄰","STREET":" ","SECT":" ","MAREA":"港口","LANE":" ","ALLEY":" ","HOUSE_NO":"２５３號","E_COORD97":171542.052818,"N_COORD97":2554807.49981,"ADDRESS":"港口２５３號","OBJECTID":202837},"geometry":{"x":171542.05281800218,"y":2554807.4998050015}},{"attributes":{"ID":202839,"DIS_CODE":0,"TOWNNAME":"安定區","LI":"中榮里","LIN":"3鄰","STREET":" ","SECT":" ","MAREA":"許中營","LANE":" ","ALLEY":" ","HOUSE_NO":"３５號之１","E_COORD97":172428.98000000001,"N_COORD97":2555006.2999999998,"ADDRESS":"許中營３５號之１","OBJECTID":202838},"geometry":{"x":172428.98000000138,"y":2555006.3000000007}},{"attributes":{"ID":202840,"DIS_CODE":0,"TOWNNAME":"安定區","LI":"南安里","LIN":"3鄰","STREET":" ","SECT":" ","MAREA":"油車","LANE":" ","ALLEY":" ","HOUSE_NO":"３５號之２","E_COORD97":170794.41,"N_COORD97":2555739.2999999998,"ADDRESS":"油車３５號之２","OBJECTID":202839},"geometry":{"x":170794.41000000108,"y":2555739.3000000007}},{"attributes":{"ID":202841,"DIS_CODE":0,"TOWNNAME":"安定區","LI":"中榮里","LIN":"3鄰","STREET":" ","SECT":" ","MAREA":"許中營","LANE":" ","ALLEY":" ","HOUSE_NO":"３５之６號","E_COORD97":172410.44,"N_COORD97":2554980.2999999998,"ADDRESS":"許中營３５之６號","OBJECTID":202840},"geometry":{"x":172410.44000000134,"y":2554980.3000000007}},{"attributes":{"ID":202842,"DIS_CODE":0,"TOWNNAME":"安定區","LI":"南安里","LIN":"3鄰","STREET":" ","SECT":" ","MAREA":"油車","LANE":" ","ALLEY":" ","HOUSE_NO":"３３之１０號","E_COORD97":170873.29000000001,"N_COORD97":2555808.2999999998,"ADDRESS":"油車３３之１０號","OBJECTID":202841},"geometry":{"x":170873.29000000097,"y":2555808.3000000026}},{"attributes":{"ID":202843,"DIS_CODE":0,"TOWNNAME":"安定區","LI":"海寮里","LIN":"3鄰","STREET":" ","SECT":" ","MAREA":"海寮","LANE":" ","ALLEY":" ","HOUSE_NO":"３２號","E_COORD97":169474.79000000001,"N_COORD97":2555294.25,"ADDRESS":"海寮３２號","OBJECTID":202842},"geometry":{"x":169474.79000000097,"y":2555294.25}},{"attributes":{"ID":202844,"DIS_CODE":0,"TOWNNAME":"新營區","LI":"新南里","LIN":"26鄰","STREET":"復興路","SECT":" ","MAREA":" ","LANE":"６２０巷","ALLEY":"６１弄","HOUSE_NO":"３３號","E_COORD97":177924.29999999999,"N_COORD97":2578521.77,"ADDRESS":"復興路６２０巷６１弄３３號","OBJECTID":202843},"geometry":{"x":177924.29999999981,"y":2578521.7699999996}},{"attributes":{"ID":202845,"DIS_CODE":0,"TOWNNAME":"仁德區","LI":"太子里","LIN":"44鄰","STREET":"太子路","SECT":" ","MAREA":" ","LANE":"１０１巷","ALLEY":" ","HOUSE_NO":"１２之１號","E_COORD97":174906.21932,"N_COORD97":2543438.3861199999,"ADDRESS":"太子路１０１巷１２之１號","OBJECTID":202844},"geometry":{"x":174906.21932000108,"y":2543438.3861240037}},{"attributes":{"ID":202846,"DIS_CODE":0,"TOWNNAME":"安平區","LI":"建平里","LIN":"26鄰","STREET":"建平九街","SECT":" ","MAREA":" ","LANE":"６０巷","ALLEY":"１３弄","HOUSE_NO":"２９號","E_COORD97":165918.22,"N_COORD97":2543579.7400000002,"ADDRESS":"建平九街６０巷１３弄２９號","OBJECTID":202845},"geometry":{"x":165918.22000000067,"y":2543579.7400000021}},{"attributes":{"ID":202847,"DIS_CODE":0,"TOWNNAME":"官田區","LI":"南\u25A0里","LIN":"9鄰","STREET":" ","SECT":" ","MAREA":"南\u25A0","LANE":" ","ALLEY":" ","HOUSE_NO":"１２３號","E_COORD97":179421.29000000001,"N_COORD97":2569454.48,"ADDRESS":"南\u25A0１２３號","OBJECTID":202846},"geometry":{"x":179421.29000000004,"y":2569454.4800000004}},{"attributes":{"ID":202848,"DIS_CODE":0,"TOWNNAME":"新營區","LI":"南紙里","LIN":"26鄰","STREET":"建業路","SECT":" ","MAREA":" ","LANE":"２２７巷","ALLEY":"２２弄","HOUSE_NO":"２號","E_COORD97":178103.62,"N_COORD97":2577373.5600000001,"ADDRESS":"建業路２２７巷２２弄２號","OBJECTID":202847},"geometry":{"x":178103.62000000011,"y":2577373.5600000024}},{"attributes":{"ID":202849,"DIS_CODE":0,"TOWNNAME":"新營區","LI":"南紙里","LIN":"26鄰","STREET":"建業路","SECT":" ","MAREA":" ","LANE":"２２７巷","ALLEY":"２２弄","HOUSE_NO":"２３號","E_COORD97":178048.54000000001,"N_COORD97":2577359.4300000002,"ADDRESS":"建業路２２７巷２２弄２３號","OBJECTID":202848},"geometry":{"x":178048.5400000019,"y":2577359.4300000016}},{"attributes":{"ID":202850,"DIS_CODE":0,"TOWNNAME":"南區","LI":"田寮里","LIN":"26鄰","STREET":"大成路","SECT":"二段","MAREA":" ","LANE":"９２巷","ALLEY":"３弄","HOUSE_NO":"１２號","E_COORD97":167458.57000000001,"N_COORD97":2541772.9399999999,"ADDRESS":"大成路二段９２巷３弄１２號","OBJECTID":202849},"geometry":{"x":167458.5700000003,"y":2541772.9400000032}},{"attributes":{"ID":202851,"DIS_CODE":0,"TOWNNAME":"南區","LI":"田寮里","LIN":"26鄰","STREET":"大成路","SECT":"二段","MAREA":" ","LANE":"９２巷","ALLEY":"３弄","HOUSE_NO":"１４號","E_COORD97":167453.57000000001,"N_COORD97":2541774.3399999999,"ADDRESS":"大成路二段９２巷３弄１４號","OBJECTID":202850},"geometry":{"x":167453.56999999937,"y":2541774.3400000017}},{"attributes":{"ID":202852,"DIS_CODE":0,"TOWNNAME":"永康區","LI":"大橋里","LIN":"9鄰","STREET":"大橋五街","SECT":" ","MAREA":" ","LANE":" ","ALLEY":" ","HOUSE_NO":"１５２號","E_COORD97":171027.31,"N_COORD97":2547002.5499999998,"ADDRESS":"大橋五街１５２號","OBJECTID":202851},"geometry":{"x":171027.31000000052,"y":2547002.5500000026}},{"attributes":{"ID":202853,"DIS_CODE":0,"TOWNNAME":"南區","LI":"廣州里","LIN":"19鄰","STREET":"福吉四街","SECT":" ","MAREA":" ","LANE":" ","ALLEY":" ","HOUSE_NO":"７８號","E_COORD97":167182.25,"N_COORD97":2542738.25,"ADDRESS":"福吉四街７８號","OBJECTID":202852},"geometry":{"x":167182.25,"y":2542738.2500000019}},{"attributes":{"ID":202854,"DIS_CODE":0,"TOWNNAME":"南區","LI":"廣州里","LIN":"23鄰","STREET":"福吉五街","SECT":" ","MAREA":" ","LANE":" ","ALLEY":" ","HOUSE_NO":"１號","E_COORD97":167268.23000000001,"N_COORD97":2542502.48,"ADDRESS":"福吉五街１號","OBJECTID":202853},"geometry":{"x":167268.23000000138,"y":2542502.4800000042}},{"attributes":{"ID":202855,"DIS_CODE":0,"TOWNNAME":"南區","LI":"廣州里","LIN":"25鄰","STREET":"金華路","SECT":"二段","MAREA":" ","LANE":" ","ALLEY":" ","HOUSE_NO":"３０２號","E_COORD97":167135.09,"N_COORD97":2542617.8799999999,"ADDRESS":"金華路二段３０２號","OBJECTID":202854},"geometry":{"x":167135.09000000078,"y":2542617.8800000008}},{"attributes":{"ID":202856,"DIS_CODE":0,"TOWNNAME":"南區","LI":"廣州里","LIN":"25鄰","STREET":"金華路","SECT":"二段","MAREA":" ","LANE":" ","ALLEY":" ","HOUSE_NO":"３０４號","E_COORD97":167134.64999999999,"N_COORD97":2542622.7599999998,"ADDRESS":"金華路二段３０４號","OBJECTID":202855},"geometry":{"x":167134.65000000224,"y":2542622.7600000016}},{"attributes":{"ID":202857,"DIS_CODE":0,"TOWNNAME":"南區","LI":"廣州里","LIN":"25鄰","STREET":"金華路","SECT":"二段","MAREA":" ","LANE":" ","ALLEY":" ","HOUSE_NO":"３２０號","E_COORD97":167139.98000000001,"N_COORD97":2542662.29,"ADDRESS":"金華路二段３２０號","OBJECTID":202856},"geometry":{"x":167139.98000000138,"y":2542662.290000001}},{"attributes":{"ID":202858,"DIS_CODE":0,"TOWNNAME":"南區","LI":"廣州里","LIN":"27鄰","STREET":"夏林路","SECT":" ","MAREA":" ","LANE":" ","ALLEY":" ","HOUSE_NO":"１０號","E_COORD97":167438.79000000001,"N_COORD97":2542789.2599999998,"ADDRESS":"夏林路１０號","OBJECTID":202857},"geometry":{"x":167438.79000000097,"y":2542789.2600000016}},{"attributes":{"ID":202859,"DIS_CODE":0,"TOWNNAME":"南區","LI":"廣州里","LIN":"27鄰","STREET":"夏林路","SECT":" ","MAREA":" ","LANE":" ","ALLEY":" ","HOUSE_NO":"１２號","E_COORD97":167438.37,"N_COORD97":2542785.8900000001,"ADDRESS":"夏林路１２號","OBJECTID":202858},"geometry":{"x":167438.37000000104,"y":2542785.8900000025}},{"attributes":{"ID":202860,"DIS_CODE":0,"TOWNNAME":"官田區","LI":"社子里","LIN":"9鄰","STREET":" ","SECT":" ","MAREA":"社子","LANE":" ","ALLEY":" ","HOUSE_NO":"７３號之１","E_COORD97":184793.157966,"N_COORD97":2563889.1338200001,"ADDRESS":"社子７３號之１","OBJECTID":202859},"geometry":{"x":184793.15796600003,"y":2563889.1338170003}},{"attributes":{"ID":202861,"DIS_CODE":0,"TOWNNAME":"永康區","LI":"大橋里","LIN":"9鄰","STREET":"大橋三街","SECT":" ","MAREA":" ","LANE":" ","ALLEY":" ","HOUSE_NO":"２８９號","E_COORD97":171123.14999999999,"N_COORD97":2546972,"ADDRESS":"大橋三街２８９號","OBJECTID":202860},"geometry":{"x":171123.15000000037,"y":2546972.0000000019}},{"attributes":{"ID":202862,"DIS_CODE":0,"TOWNNAME":"南區","LI":"田寮里","LIN":"26鄰","STREET":"大成路","SECT":"二段","MAREA":" ","LANE":"９２巷","ALLEY":"３弄","HOUSE_NO":"１６號","E_COORD97":167445.37,"N_COORD97":2541777.9300000002,"ADDRESS":"大成路二段９２巷３弄１６號","OBJECTID":202861},"geometry":{"x":167445.37000000104,"y":2541777.9300000016}},{"attributes":{"ID":202863,"DIS_CODE":0,"TOWNNAME":"南區","LI":"廣州里","LIN":"27鄰","STREET":"夏林路","SECT":" ","MAREA":" ","LANE":" ","ALLEY":" ","HOUSE_NO":"１４號","E_COORD97":167439.20999999999,"N_COORD97":2542781.6699999999,"ADDRESS":"夏林路１４號","OBJECTID":202862},"geometry":{"x":167439.21000000089,"y":2542781.6699999999}},{"attributes":{"ID":202864,"DIS_CODE":0,"TOWNNAME":"南區","LI":"廣州里","LIN":"27鄰","STREET":"夏林路","SECT":" ","MAREA":" ","LANE":" ","ALLEY":" ","HOUSE_NO":"１６號","E_COORD97":167440.89999999999,"N_COORD97":2542777.46,"ADDRESS":"夏林路１６號","OBJECTID":202863},"geometry":{"x":167440.90000000037,"y":2542777.4600000009}},{"attributes":{"ID":202865,"DIS_CODE":0,"TOWNNAME":"南區","LI":"田寮里","LIN":"26鄰","STREET":"大成路","SECT":"二段","MAREA":" ","LANE":"９２巷","ALLEY":"３弄","HOUSE_NO":"１８號","E_COORD97":167439.97,"N_COORD97":2541779.1299999999,"ADDRESS":"大成路二段９２巷３弄１８號","OBJECTID":202864},"geometry":{"x":167439.96999999974,"y":2541779.1300000008}},{"attributes":{"ID":202866,"DIS_CODE":0,"TOWNNAME":"南區","LI":"廣州里","LIN":"27鄰","STREET":"夏林路","SECT":" ","MAREA":" ","LANE":" ","ALLEY":" ","HOUSE_NO":"１８號","E_COORD97":167440.04999999999,"N_COORD97":2542771.98,"ADDRESS":"夏林路１８號","OBJECTID":202865},"geometry":{"x":167440.05000000075,"y":2542771.9800000023}},{"attributes":{"ID":202867,"DIS_CODE":0,"TOWNNAME":"南區","LI":"廣州里","LIN":" ","STREET":"夏林路","SECT":" ","MAREA":" ","LANE":" ","ALLEY":" ","HOUSE_NO":"１之３３號","E_COORD97":167482.62,"N_COORD97":2542909.0299999998,"ADDRESS":"夏林路１之３３號","OBJECTID":202866},"geometry":{"x":167482.62000000104,"y":2542909.0300000012}},{"attributes":{"ID":202868,"DIS_CODE":0,"TOWNNAME":"南區","LI":"田寮里","LIN":"26鄰","STREET":"大成路","SECT":"二段","MAREA":" ","LANE":"９２巷","ALLEY":"３弄","HOUSE_NO":"２０號","E_COORD97":167432.97,"N_COORD97":2541781.1299999999,"ADDRESS":"大成路二段９２巷３弄２０號","OBJECTID":202867},"geometry":{"x":167432.96999999974,"y":2541781.1300000027}},{"attributes":{"ID":202869,"DIS_CODE":0,"TOWNNAME":"南區","LI":"田寮里","LIN":"26鄰","STREET":"大成路","SECT":"二段","MAREA":" ","LANE":"９２巷","ALLEY":"３弄","HOUSE_NO":"２１號","E_COORD97":167429.76999999999,"N_COORD97":2541765.5600000001,"ADDRESS":"大成路二段９２巷３弄２１號","OBJECTID":202868},"geometry":{"x":167429.77000000048,"y":2541765.5600000005}},{"attributes":{"ID":202870,"DIS_CODE":0,"TOWNNAME":"南區","LI":"田寮里","LIN":"26鄰","STREET":"大成路","SECT":"二段","MAREA":" ","LANE":"９２巷","ALLEY":"３弄","HOUSE_NO":"２２號","E_COORD97":167426.57000000001,"N_COORD97":2541782.9300000002,"ADDRESS":"大成路二段９２巷３弄２２號","OBJECTID":202869},"geometry":{"x":167426.57000000216,"y":2541782.9299999997}},{"attributes":{"ID":202871,"DIS_CODE":0,"TOWNNAME":"南區","LI":"田寮里","LIN":"26鄰","STREET":"大成路","SECT":"二段","MAREA":" ","LANE":"９２巷","ALLEY":"３弄","HOUSE_NO":"２３號","E_COORD97":167422.57000000001,"N_COORD97":2541767.9500000002,"ADDRESS":"大成路二段９２巷３弄２３號","OBJECTID":202870},"geometry":{"x":167422.5700000003,"y":2541767.9499999993}},{"attributes":{"ID":202872,"DIS_CODE":0,"TOWNNAME":"南區","LI":"田寮里","LIN":"26鄰","STREET":"大成路","SECT":"二段","MAREA":" ","LANE":"９２巷","ALLEY":"３弄","HOUSE_NO":"２４號","E_COORD97":167419.38,"N_COORD97":2541785.3199999998,"ADDRESS":"大成路二段９２巷３弄２４號","OBJECTID":202871},"geometry":{"x":167419.38000000082,"y":2541785.3200000022}},{"attributes":{"ID":202873,"DIS_CODE":0,"TOWNNAME":"南區","LI":"田寮里","LIN":"26鄰","STREET":"大成路","SECT":"二段","MAREA":" ","LANE":"９２巷","ALLEY":"３弄","HOUSE_NO":"２５號","E_COORD97":167415.78,"N_COORD97":2541769.75,"ADDRESS":"大成路二段９２巷３弄２５號","OBJECTID":202872},"geometry":{"x":167415.78000000119,"y":2541769.75}},{"attributes":{"ID":202874,"DIS_CODE":0,"TOWNNAME":"南區","LI":"田寮里","LIN":"26鄰","STREET":"大成路","SECT":"二段","MAREA":" ","LANE":"９２巷","ALLEY":"３弄","HOUSE_NO":"２６號","E_COORD97":167413.78,"N_COORD97":2541786.3199999998,"ADDRESS":"大成路二段９２巷３弄２６號","OBJECTID":202873},"geometry":{"x":167413.78000000119,"y":2541786.3200000022}},{"attributes":{"ID":202875,"DIS_CODE":0,"TOWNNAME":"南區","LI":"廣州里","LIN":" ","STREET":"夏林路","SECT":" ","MAREA":" ","LANE":" ","ALLEY":" ","HOUSE_NO":"１之２２號","E_COORD97":167485.38,"N_COORD97":2542956.2200000002,"ADDRESS":"夏林路１之２２號","OBJECTID":202874},"geometry":{"x":167485.38000000082,"y":2542956.2200000025}},{"attributes":{"ID":202876,"DIS_CODE":0,"TOWNNAME":"南區","LI":"興中里","LIN":" ","STREET":"南門路","SECT":" ","MAREA":" ","LANE":" ","ALLEY":" ","HOUSE_NO":"１２０號","E_COORD97":168331.35999999999,"N_COORD97":2542201.6499999999,"ADDRESS":"南門路１２０號","OBJECTID":202875},"geometry":{"x":168331.36000000034,"y":2542201.6500000004}},{"attributes":{"ID":202877,"DIS_CODE":0,"TOWNNAME":"官田區","LI":"南\u25A0里","LIN":"9鄰","STREET":" ","SECT":" ","MAREA":"南\u25A0","LANE":" ","ALLEY":" ","HOUSE_NO":"１２１號之１","E_COORD97":179178.07000000001,"N_COORD97":2569356.79,"ADDRESS":"南\u25A0１２１號之１","OBJECTID":202876},"geometry":{"x":179178.07000000123,"y":2569356.7899999991}},{"attributes":{"ID":202878,"DIS_CODE":0,"TOWNNAME":"官田區","LI":"南\u25A0里","LIN":"9鄰","STREET":" ","SECT":" ","MAREA":"南\u25A0","LANE":" ","ALLEY":" ","HOUSE_NO":"１１７號","E_COORD97":178461.62,"N_COORD97":2569175.8100000001,"ADDRESS":"南\u25A0１１７號","OBJECTID":202877},"geometry":{"x":178461.61999999918,"y":2569175.8100000042}},{"attributes":{"ID":202879,"DIS_CODE":0,"TOWNNAME":"南區","LI":"田寮里","LIN":"26鄰","STREET":"大成路","SECT":"二段","MAREA":" ","LANE":"９２巷","ALLEY":"３弄","HOUSE_NO":"２７號","E_COORD97":167408.57999999999,"N_COORD97":2541771.5499999998,"ADDRESS":"大成路二段９２巷３弄２７號","OBJECTID":202878},"geometry":{"x":167408.58000000007,"y":2541771.5500000026}},{"attributes":{"ID":202880,"DIS_CODE":0,"TOWNNAME":"官田區","LI":"湖山里","LIN":"9鄰","STREET":" ","SECT":" ","MAREA":"烏山頭","LANE":" ","ALLEY":" ","HOUSE_NO":"５０號之１","E_COORD97":183418.07999999999,"N_COORD97":2567670.0499999998,"ADDRESS":"烏山頭５０號之１","OBJECTID":202879},"geometry":{"x":183418.08000000007,"y":2567670.0500000026}},{"attributes":{"ID":202881,"DIS_CODE":0,"TOWNNAME":"官田區","LI":"湖山里","LIN":"9鄰","STREET":" ","SECT":" ","MAREA":"烏山頭","LANE":" ","ALLEY":" ","HOUSE_NO":"５０號之２","E_COORD97":183406.47,"N_COORD97":2567670.3900000001,"ADDRESS":"烏山頭５０號之２","OBJECTID":202880},"geometry":{"x":183406.46999999974,"y":2567670.3900000043}},{"attributes":{"ID":202882,"DIS_CODE":0,"TOWNNAME":"官田區","LI":"湖山里","LIN":"9鄰","STREET":" ","SECT":" ","MAREA":"烏山頭","LANE":" ","ALLEY":" ","HOUSE_NO":"５０號之３","E_COORD97":183404.29000000001,"N_COORD97":2567675.2400000002,"ADDRESS":"烏山頭５０號之３","OBJECTID":202881},"geometry":{"x":183404.29000000097,"y":2567675.2400000021}},{"attributes":{"ID":202883,"DIS_CODE":0,"TOWNNAME":"官田區","LI":"湖山里","LIN":"9鄰","STREET":" ","SECT":" ","MAREA":"烏山頭","LANE":" ","ALLEY":" ","HOUSE_NO":"５０號","E_COORD97":183395.92000000001,"N_COORD97":2567696.8599999999,"ADDRESS":"烏山頭５０號","OBJECTID":202882},"geometry":{"x":183395.92000000179,"y":2567696.8600000013}},{"attributes":{"ID":202884,"DIS_CODE":0,"TOWNNAME":"南區","LI":"田寮里","LIN":"26鄰","STREET":"大成路","SECT":"二段","MAREA":" ","LANE":"９２巷","ALLEY":"３弄","HOUSE_NO":"２８號","E_COORD97":167406.78,"N_COORD97":2541788.52,"ADDRESS":"大成路二段９２巷３弄２８號","OBJECTID":202883},"geometry":{"x":167406.78000000119,"y":2541788.5199999996}},{"attributes":{"ID":202885,"DIS_CODE":0,"TOWNNAME":"南區","LI":"田寮里","LIN":"26鄰","STREET":"大成路","SECT":"二段","MAREA":" ","LANE":"９２巷","ALLEY":"３弄","HOUSE_NO":"２９號","E_COORD97":167402.57999999999,"N_COORD97":2541773.7400000002,"ADDRESS":"大成路二段９２巷３弄２９號","OBJECTID":202884},"geometry":{"x":167402.58000000194,"y":2541773.7400000002}},{"attributes":{"ID":202886,"DIS_CODE":0,"TOWNNAME":"南區","LI":"田寮里","LIN":"26鄰","STREET":"大成路","SECT":"二段","MAREA":" ","LANE":"９２巷","ALLEY":"３弄","HOUSE_NO":"３０號","E_COORD97":167399.78,"N_COORD97":2541790.9100000001,"ADDRESS":"大成路二段９２巷３弄３０號","OBJECTID":202885},"geometry":{"x":167399.78000000212,"y":2541790.9100000039}},{"attributes":{"ID":202887,"DIS_CODE":0,"TOWNNAME":"官田區","LI":"湖山里","LIN":"9鄰","STREET":" ","SECT":" ","MAREA":"烏山頭","LANE":" ","ALLEY":" ","HOUSE_NO":"５２號","E_COORD97":183376.85999999999,"N_COORD97":2567725.1299999999,"ADDRESS":"烏山頭５２號","OBJECTID":202886},"geometry":{"x":183376.86000000127,"y":2567725.1300000008}},{"attributes":{"ID":202888,"DIS_CODE":0,"TOWNNAME":"官田區","LI":"湖山里","LIN":"9鄰","STREET":" ","SECT":" ","MAREA":"烏山頭","LANE":" ","ALLEY":" ","HOUSE_NO":"４９號之２","E_COORD97":183384.60999999999,"N_COORD97":2567670.48,"ADDRESS":"烏山頭４９號之２","OBJECTID":202887},"geometry":{"x":183384.61000000034,"y":2567670.4800000023}},{"attributes":{"ID":202889,"DIS_CODE":0,"TOWNNAME":"官田區","LI":"湖山里","LIN":"9鄰","STREET":" ","SECT":" ","MAREA":"烏山頭","LANE":" ","ALLEY":" ","HOUSE_NO":"４９號之３","E_COORD97":183388.5,"N_COORD97":2567670.7200000002,"ADDRESS":"烏山頭４９號之３","OBJECTID":202888},"geometry":{"x":183388.5,"y":2567670.7200000007}},{"attributes":{"ID":202890,"DIS_CODE":0,"TOWNNAME":"安南區","LI":"安富里","LIN":"9鄰","STREET":"安富街","SECT":" ","MAREA":" ","LANE":" ","ALLEY":" ","HOUSE_NO":"２８０號","E_COORD97":167460.14999999999,"N_COORD97":2547444.2000000002,"ADDRESS":"安富街２８０號","OBJECTID":202889},"geometry":{"x":167460.15000000224,"y":2547444.2000000011}},{"attributes":{"ID":202891,"DIS_CODE":0,"TOWNNAME":"安南區","LI":"安富里","LIN":"9鄰","STREET":"安富街","SECT":" ","MAREA":" ","LANE":" ","ALLEY":" ","HOUSE_NO":"２８４號","E_COORD97":167452.78,"N_COORD97":2547440.3100000001,"ADDRESS":"安富街２８４號","OBJECTID":202890},"geometry":{"x":167452.78000000119,"y":2547440.3100000042}},{"attributes":{"ID":202892,"DIS_CODE":0,"TOWNNAME":"安南區","LI":"安富里","LIN":"9鄰","STREET":"安富街","SECT":" ","MAREA":" ","LANE":" ","ALLEY":" ","HOUSE_NO":"２９０號","E_COORD97":167440.85999999999,"N_COORD97":2547439.23,"ADDRESS":"安富街２９０號","OBJECTID":202891},"geometry":{"x":167440.86000000034,"y":2547439.2300000004}},{"attributes":{"ID":202893,"DIS_CODE":0,"TOWNNAME":"南區","LI":"田寮里","LIN":"26鄰","STREET":"大成路","SECT":"二段","MAREA":" ","LANE":"９２巷","ALLEY":"３弄","HOUSE_NO":"３１號","E_COORD97":167395.38,"N_COORD97":2541774.7400000002,"ADDRESS":"大成路二段９２巷３弄３１號","OBJECTID":202892},"geometry":{"x":167395.38000000082,"y":2541774.7400000002}},{"attributes":{"ID":202894,"DIS_CODE":0,"TOWNNAME":"南區","LI":"田寮里","LIN":"26鄰","STREET":"大成路","SECT":"二段","MAREA":" ","LANE":"９２巷","ALLEY":"３弄","HOUSE_NO":"３２號","E_COORD97":167393.98000000001,"N_COORD97":2541792.9100000001,"ADDRESS":"大成路二段９２巷３弄３２號","OBJECTID":202893},"geometry":{"x":167393.98000000138,"y":2541792.9100000001}},{"attributes":{"ID":202895,"DIS_CODE":0,"TOWNNAME":"南區","LI":"田寮里","LIN":"26鄰","STREET":"大成路","SECT":"二段","MAREA":" ","LANE":"９２巷","ALLEY":"３弄","HOUSE_NO":"３３號","E_COORD97":167388.38,"N_COORD97":2541776.3399999999,"ADDRESS":"大成路二段９２巷３弄３３號","OBJECTID":202894},"geometry":{"x":167388.38000000175,"y":2541776.3399999999}},{"attributes":{"ID":202896,"DIS_CODE":0,"TOWNNAME":"南區","LI":"田寮里","LIN":"26鄰","STREET":"大成路","SECT":"二段","MAREA":" ","LANE":"９２巷","ALLEY":"３弄","HOUSE_NO":"３４號","E_COORD97":167386.98000000001,"N_COORD97":2541794.7000000002,"ADDRESS":"大成路二段９２巷３弄３４號","OBJECTID":202895},"geometry":{"x":167386.98000000138,"y":2541794.700000003}},{"attributes":{"ID":202897,"DIS_CODE":0,"TOWNNAME":"南區","LI":"田寮里","LIN":"26鄰","STREET":"大成路","SECT":"二段","MAREA":" ","LANE":"９２巷","ALLEY":"３弄","HOUSE_NO":"３５號","E_COORD97":167381.78,"N_COORD97":2541778.73,"ADDRESS":"大成路二段９２巷３弄３５號","OBJECTID":202896},"geometry":{"x":167381.78000000119,"y":2541778.7300000042}},{"attributes":{"ID":202898,"DIS_CODE":0,"TOWNNAME":"南區","LI":"田寮里","LIN":"26鄰","STREET":"大成路","SECT":"二段","MAREA":" ","LANE":"９２巷","ALLEY":"３弄","HOUSE_NO":"３６號","E_COORD97":167380.78,"N_COORD97":2541795.9100000001,"ADDRESS":"大成路二段９２巷３弄３６號","OBJECTID":202897},"geometry":{"x":167380.78000000026,"y":2541795.9100000001}},{"attributes":{"ID":202899,"DIS_CODE":0,"TOWNNAME":"南區","LI":"田寮里","LIN":"26鄰","STREET":"大成路","SECT":"二段","MAREA":" ","LANE":"９２巷","ALLEY":"３弄","HOUSE_NO":"３７號","E_COORD97":167375.38,"N_COORD97":2541780.1299999999,"ADDRESS":"大成路二段９２巷３弄３７號","OBJECTID":202898},"geometry":{"x":167375.38000000082,"y":2541780.129999999}},{"attributes":{"ID":202900,"DIS_CODE":0,"TOWNNAME":"南區","LI":"田寮里","LIN":"26鄰","STREET":"大成路","SECT":"二段","MAREA":" ","LANE":"９２巷","ALLEY":"３弄","HOUSE_NO":"３８號","E_COORD97":167373.57999999999,"N_COORD97":2541798.5,"ADDRESS":"大成路二段９２巷３弄３８號","OBJECTID":202899},"geometry":{"x":167373.58000000007,"y":2541798.5}},{"attributes":{"ID":202901,"DIS_CODE":0,"TOWNNAME":"南區","LI":"田寮里","LIN":"26鄰","STREET":"大成路","SECT":"二段","MAREA":" ","LANE":"９２巷","ALLEY":"３弄","HOUSE_NO":"３９號","E_COORD97":167368.98000000001,"N_COORD97":2541782.3300000001,"ADDRESS":"大成路二段９２巷３弄３９號","OBJECTID":202900},"geometry":{"x":167368.98000000045,"y":2541782.3300000019}},{"attributes":{"ID":202902,"DIS_CODE":0,"TOWNNAME":"南區","LI":"田寮里","LIN":"26鄰","STREET":"大成路","SECT":"二段","MAREA":" ","LANE":"９２巷","ALLEY":"３弄","HOUSE_NO":"４０號","E_COORD97":167368.17999999999,"N_COORD97":2541799.7000000002,"ADDRESS":"大成路二段９２巷３弄４０號","OBJECTID":202901},"geometry":{"x":167368.18000000063,"y":2541799.7000000011}},{"attributes":{"ID":202903,"DIS_CODE":0,"TOWNNAME":"南區","LI":"田寮里","LIN":"26鄰","STREET":"大成路","SECT":"二段","MAREA":" ","LANE":"９２巷","ALLEY":"３弄","HOUSE_NO":"４１號","E_COORD97":167362.57999999999,"N_COORD97":2541783.5299999998,"ADDRESS":"大成路二段９２巷３弄４１號","OBJECTID":202902},"geometry":{"x":167362.58000000101,"y":2541783.5300000012}},{"attributes":{"ID":202904,"DIS_CODE":0,"TOWNNAME":"南區","LI":"田寮里","LIN":"26鄰","STREET":"大成路","SECT":"二段","MAREA":" ","LANE":"９２巷","ALLEY":"３弄","HOUSE_NO":"４２號","E_COORD97":167360.57999999999,"N_COORD97":2541801.8999999999,"ADDRESS":"大成路二段９２巷３弄４２號","OBJECTID":202903},"geometry":{"x":167360.58000000101,"y":2541801.9000000022}},{"attributes":{"ID":202905,"DIS_CODE":0,"TOWNNAME":"南區","LI":"田寮里","LIN":"26鄰","STREET":"大成路","SECT":"二段","MAREA":" ","LANE":"９２巷","ALLEY":"３弄","HOUSE_NO":"４３號","E_COORD97":167355.98999999999,"N_COORD97":2541785.52,"ADDRESS":"大成路二段９２巷３弄４３號","OBJECTID":202904},"geometry":{"x":167355.99000000115,"y":2541785.5199999996}},{"attributes":{"ID":202906,"DIS_CODE":0,"TOWNNAME":"南區","LI":"田寮里","LIN":"26鄰","STREET":"大成路","SECT":"二段","MAREA":" ","LANE":"９２巷","ALLEY":"３弄","HOUSE_NO":"４４號","E_COORD97":167354.57999999999,"N_COORD97":2541804.0899999999,"ADDRESS":"大成路二段９２巷３弄４４號","OBJECTID":202905},"geometry":{"x":167354.58000000007,"y":2541804.0900000017}},{"attributes":{"ID":202907,"DIS_CODE":0,"TOWNNAME":"南區","LI":"田寮里","LIN":"26鄰","STREET":"大成路","SECT":"二段","MAREA":" ","LANE":"９２巷","ALLEY":"３弄","HOUSE_NO":"４５號","E_COORD97":167349.79000000001,"N_COORD97":2541787.7200000002,"ADDRESS":"大成路二段９２巷３弄４５號","OBJECTID":202906},"geometry":{"x":167349.79000000004,"y":2541787.7200000007}},{"attributes":{"ID":202908,"DIS_CODE":0,"TOWNNAME":"南區","LI":"田寮里","LIN":"26鄰","STREET":"大成路","SECT":"二段","MAREA":" ","LANE":"９２巷","ALLEY":"３弄","HOUSE_NO":"４６號","E_COORD97":167348.19,"N_COORD97":2541806.0899999999,"ADDRESS":"大成路二段９２巷３弄４６號","OBJECTID":202907},"geometry":{"x":167348.19000000134,"y":2541806.0900000036}},{"attributes":{"ID":202909,"DIS_CODE":0,"TOWNNAME":"南區","LI":"田寮里","LIN":"26鄰","STREET":"大成路","SECT":"二段","MAREA":" ","LANE":"９２巷","ALLEY":"３弄","HOUSE_NO":"４７號","E_COORD97":167342.39000000001,"N_COORD97":2541790.1099999999,"ADDRESS":"大成路二段９２巷３弄４７號","OBJECTID":202908},"geometry":{"x":167342.39000000153,"y":2541790.1100000013}},{"attributes":{"ID":202910,"DIS_CODE":0,"TOWNNAME":"南區","LI":"田寮里","LIN":"26鄰","STREET":"大成路","SECT":"二段","MAREA":" ","LANE":"９２巷","ALLEY":"３弄","HOUSE_NO":"４８號","E_COORD97":167341.39000000001,"N_COORD97":2541808.8799999999,"ADDRESS":"大成路二段９２巷３弄４８號","OBJECTID":202909},"geometry":{"x":167341.3900000006,"y":2541808.879999999}},{"attributes":{"ID":202911,"DIS_CODE":0,"TOWNNAME":"南區","LI":"田寮里","LIN":"26鄰","STREET":"大成路","SECT":"二段","MAREA":" ","LANE":"９２巷","ALLEY":"３弄","HOUSE_NO":"４９號","E_COORD97":167336.59,"N_COORD97":2541791.1099999999,"ADDRESS":"大成路二段９２巷３弄４９號","OBJECTID":202910},"geometry":{"x":167336.59000000078,"y":2541791.1099999994}},{"attributes":{"ID":202912,"DIS_CODE":0,"TOWNNAME":"玉井區","LI":"玉田里","LIN":"26鄰","STREET":"中山路","SECT":" ","MAREA":" ","LANE":"３巷","ALLEY":"２９弄","HOUSE_NO":"２５號","E_COORD97":194836.64999999999,"N_COORD97":2557765.2400000002,"ADDRESS":"中山路３巷２９弄２５號","OBJECTID":202911},"geometry":{"x":194836.65000000037,"y":2557765.2400000021}},{"attributes":{"ID":202913,"DIS_CODE":0,"TOWNNAME":"安南區","LI":"安富里","LIN":"9鄰","STREET":"安富街","SECT":" ","MAREA":" ","LANE":" ","ALLEY":" ","HOUSE_NO":"２９４號","E_COORD97":167432.84,"N_COORD97":2547439.0099999998,"ADDRESS":"安富街２９４號","OBJECTID":202912},"geometry":{"x":167432.84000000171,"y":2547439.0100000016}},{"attributes":{"ID":202914,"DIS_CODE":0,"TOWNNAME":"安南區","LI":"安富里","LIN":"9鄰","STREET":"安富街","SECT":" ","MAREA":" ","LANE":" ","ALLEY":" ","HOUSE_NO":"２９８號","E_COORD97":167425.69,"N_COORD97":2547435.1200000001,"ADDRESS":"安富街２９８號","OBJECTID":202913},"geometry":{"x":167425.69000000041,"y":2547435.1199999992}},{"attributes":{"ID":202915,"DIS_CODE":0,"TOWNNAME":"安南區","LI":"安富里","LIN":"9鄰","STREET":"安富街","SECT":" ","MAREA":" ","LANE":" ","ALLEY":" ","HOUSE_NO":"３００號","E_COORD97":167421.14000000001,"N_COORD97":2547436.4199999999,"ADDRESS":"安富街３００號","OBJECTID":202914},"geometry":{"x":167421.1400000006,"y":2547436.4200000018}},{"attributes":{"ID":202916,"DIS_CODE":0,"TOWNNAME":"安定區","LI":"港口里","LIN":"3鄰","STREET":" ","SECT":" ","MAREA":"港口","LANE":" ","ALLEY":" ","HOUSE_NO":"２５３之６４號","E_COORD97":171620.94,"N_COORD97":2554887.2999999998,"ADDRESS":"港口２５３之６４號","OBJECTID":202915},"geometry":{"x":171620.94000000041,"y":2554887.3000000026}},{"attributes":{"ID":202917,"DIS_CODE":0,"TOWNNAME":"安定區","LI":"中榮里","LIN":"3鄰","STREET":" ","SECT":" ","MAREA":"許中營","LANE":" ","ALLEY":" ","HOUSE_NO":"３５之１７號","E_COORD97":172424.09,"N_COORD97":2555017.2999999998,"ADDRESS":"許中營３５之１７號","OBJECTID":202916},"geometry":{"x":172424.09000000078,"y":2555017.3000000007}},{"attributes":{"ID":202918,"DIS_CODE":0,"TOWNNAME":"安定區","LI":"港口里","LIN":"3鄰","STREET":" ","SECT":" ","MAREA":"港口","LANE":" ","ALLEY":" ","HOUSE_NO":"２５３之６０號","E_COORD97":171636.54000000001,"N_COORD97":2554878.2999999998,"ADDRESS":"港口２５３之６０號","OBJECTID":202917},"geometry":{"x":171636.54000000004,"y":2554878.3000000007}},{"attributes":{"ID":202919,"DIS_CODE":0,"TOWNNAME":"安定區","LI":"港口里","LIN":"3鄰","STREET":" ","SECT":" ","MAREA":"港口","LANE":" ","ALLEY":" ","HOUSE_NO":"２５３號之５","E_COORD97":171593.04074999999,"N_COORD97":2554856.53663,"ADDRESS":"港口２５３號之５","OBJECTID":202918},"geometry":{"x":171593.04074999969,"y":2554856.5366329998}},{"attributes":{"ID":202920,"DIS_CODE":0,"TOWNNAME":"安定區","LI":"港口里","LIN":"3鄰","STREET":" ","SECT":" ","MAREA":"港口","LANE":" ","ALLEY":" ","HOUSE_NO":"２５３之５５號","E_COORD97":171655.94,"N_COORD97":2554867.2999999998,"ADDRESS":"港口２５３之５５號","OBJECTID":202919},"geometry":{"x":171655.94000000134,"y":2554867.3000000007}},{"attributes":{"ID":202921,"DIS_CODE":0,"TOWNNAME":"北區","LI":"正覺里","LIN":"26鄰","STREET":"公園路","SECT":" ","MAREA":" ","LANE":"７６９巷","ALLEY":"２０弄","HOUSE_NO":"１號","E_COORD97":169549.70000000001,"N_COORD97":2546541.0800000001,"ADDRESS":"公園路７６９巷２０弄１號","OBJECTID":202920},"geometry":{"x":169549.70000000205,"y":2546541.0800000019}},{"attributes":{"ID":202922,"DIS_CODE":0,"TOWNNAME":"北區","LI":"正覺里","LIN":"26鄰","STREET":"公園路","SECT":" ","MAREA":" ","LANE":"７６９巷","ALLEY":"２０弄","HOUSE_NO":"３號","E_COORD97":169545.66,"N_COORD97":2546543.2400000002,"ADDRESS":"公園路７６９巷２０弄３號","OBJECTID":202921},"geometry":{"x":169545.66000000015,"y":2546543.2400000021}},{"attributes":{"ID":202923,"DIS_CODE":0,"TOWNNAME":"北區","LI":"正覺里","LIN":"26鄰","STREET":"公園路","SECT":" ","MAREA":" ","LANE":"７６９巷","ALLEY":"２０弄","HOUSE_NO":"４１號","E_COORD97":169469.90599900001,"N_COORD97":2546555.4566899999,"ADDRESS":"公園路７６９巷２０弄４１號","OBJECTID":202922},"geometry":{"x":169469.90599900018,"y":2546555.4566920009}},{"attributes":{"ID":202924,"DIS_CODE":0,"TOWNNAME":"北區","LI":"正覺里","LIN":"26鄰","STREET":"公園路","SECT":" ","MAREA":" ","LANE":"７６９巷","ALLEY":"２０弄","HOUSE_NO":"４１號之１","E_COORD97":169479.224908,"N_COORD97":2546550.5883599999,"ADDRESS":"公園路７６９巷２０弄４１號之１","OBJECTID":202923},"geometry":{"x":169479.22490800079,"y":2546550.5883620027}},{"attributes":{"ID":202925,"DIS_CODE":0,"TOWNNAME":"北區","LI":"正覺里","LIN":"26鄰","STREET":"公園路","SECT":" ","MAREA":" ","LANE":"７６９巷","ALLEY":"２０弄","HOUSE_NO":"４３號","E_COORD97":169473.95999999999,"N_COORD97":2546549.8399999999,"ADDRESS":"公園路７６９巷２０弄４３號","OBJECTID":202924},"geometry":{"x":169473.95999999996,"y":2546549.8399999999}},{"attributes":{"ID":202926,"DIS_CODE":0,"TOWNNAME":"北區","LI":"正覺里","LIN":"26鄰","STREET":"公園路","SECT":" ","MAREA":" ","LANE":"７６９巷","ALLEY":"２０弄","HOUSE_NO":"４５號","E_COORD97":169473.20999999999,"N_COORD97":2546545.6200000001,"ADDRESS":"公園路７６９巷２０弄４５號","OBJECTID":202925},"geometry":{"x":169473.21000000089,"y":2546545.620000001}},{"attributes":{"ID":202927,"DIS_CODE":0,"TOWNNAME":"北區","LI":"正覺里","LIN":"26鄰","STREET":"公園路","SECT":" ","MAREA":" ","LANE":"７６９巷","ALLEY":"２０弄","HOUSE_NO":"４７號","E_COORD97":169463.23000000001,"N_COORD97":2546551.54,"ADDRESS":"公園路７６９巷２０弄４７號","OBJECTID":202926},"geometry":{"x":169463.23000000231,"y":2546551.5399999991}},{"attributes":{"ID":202928,"DIS_CODE":0,"TOWNNAME":"北區","LI":"正覺里","LIN":"26鄰","STREET":"公園路","SECT":" ","MAREA":" ","LANE":"７６９巷","ALLEY":"２０弄","HOUSE_NO":"４９號","E_COORD97":169459.57000000001,"N_COORD97":2546551.73,"ADDRESS":"公園路７６９巷２０弄４９號","OBJECTID":202927},"geometry":{"x":169459.57000000123,"y":2546551.7300000004}},{"attributes":{"ID":202929,"DIS_CODE":0,"TOWNNAME":"北區","LI":"正覺里","LIN":"26鄰","STREET":"公園路","SECT":" ","MAREA":" ","LANE":"７６９巷","ALLEY":"２０弄","HOUSE_NO":"５０號","E_COORD97":169465.38,"N_COORD97":2546570.3399999999,"ADDRESS":"公園路７６９巷２０弄５０號","OBJECTID":202928},"geometry":{"x":169465.38000000082,"y":2546570.3399999999}},{"attributes":{"ID":202930,"DIS_CODE":0,"TOWNNAME":"北區","LI":"正覺里","LIN":"26鄰","STREET":"公園路","SECT":" ","MAREA":" ","LANE":"７６９巷","ALLEY":"２０弄","HOUSE_NO":"５０號之１","E_COORD97":169469.99653199999,"N_COORD97":2546574.0124400002,"ADDRESS":"公園路７６９巷２０弄５０號之１","OBJECTID":202929},"geometry":{"x":169469.99653199967,"y":2546574.0124440007}},{"attributes":{"ID":202931,"DIS_CODE":0,"TOWNNAME":"北區","LI":"正覺里","LIN":"26鄰","STREET":"公園路","SECT":" ","MAREA":" ","LANE":"７６９巷","ALLEY":"２０弄","HOUSE_NO":"５１號","E_COORD97":169456.19,"N_COORD97":2546552.0099999998,"ADDRESS":"公園路７６９巷２０弄５１號","OBJECTID":202930},"geometry":{"x":169456.19000000041,"y":2546552.0099999998}},{"attributes":{"ID":202932,"DIS_CODE":0,"TOWNNAME":"北區","LI":"正覺里","LIN":"26鄰","STREET":"公園路","SECT":" ","MAREA":" ","LANE":"７６９巷","ALLEY":"２０弄","HOUSE_NO":"５２號","E_COORD97":169461.72,"N_COORD97":2546570.6200000001,"ADDRESS":"公園路７６９巷２０弄５２號","OBJECTID":202931},"geometry":{"x":169461.72000000067,"y":2546570.6200000048}},{"attributes":{"ID":202933,"DIS_CODE":0,"TOWNNAME":"北區","LI":"正覺里","LIN":"26鄰","STREET":"公園路","SECT":" ","MAREA":" ","LANE":"７６９巷","ALLEY":"２０弄","HOUSE_NO":"５３號","E_COORD97":169452.72,"N_COORD97":2546552.6699999999,"ADDRESS":"公園路７６９巷２０弄５３號","OBJECTID":202932},"geometry":{"x":169452.72000000067,"y":2546552.6700000018}},{"attributes":{"ID":202934,"DIS_CODE":0,"TOWNNAME":"北區","LI":"正覺里","LIN":"26鄰","STREET":"公園路","SECT":" ","MAREA":" ","LANE":"７６９巷","ALLEY":"２０弄","HOUSE_NO":"５４號","E_COORD97":169457.76999999999,"N_COORD97":2546571.6499999999,"ADDRESS":"公園路７６９巷２０弄５４號","OBJECTID":202933},"geometry":{"x":169457.77000000048,"y":2546571.6500000004}},{"attributes":{"ID":202935,"DIS_CODE":0,"TOWNNAME":"北區","LI":"正覺里","LIN":"26鄰","STREET":"公園路","SECT":" ","MAREA":" ","LANE":"７６９巷","ALLEY":"２０弄","HOUSE_NO":"５５號","E_COORD97":169448.67999999999,"N_COORD97":2546553.1400000001,"ADDRESS":"公園路７６９巷２０弄５５號","OBJECTID":202934},"geometry":{"x":169448.6799999997,"y":2546553.1400000043}},{"attributes":{"ID":202936,"DIS_CODE":0,"TOWNNAME":"北區","LI":"正覺里","LIN":"26鄰","STREET":"公園路","SECT":" ","MAREA":" ","LANE":"７６９巷","ALLEY":"２０弄","HOUSE_NO":"５６號","E_COORD97":169454.48999999999,"N_COORD97":2546572.2200000002,"ADDRESS":"公園路７６９巷２０弄５６號","OBJECTID":202935},"geometry":{"x":169454.49000000209,"y":2546572.2200000007}},{"attributes":{"ID":202937,"DIS_CODE":0,"TOWNNAME":"北區","LI":"正覺里","LIN":"26鄰","STREET":"公園路","SECT":" ","MAREA":" ","LANE":"７６９巷","ALLEY":"２０弄","HOUSE_NO":"５７號","E_COORD97":169445.20000000001,"N_COORD97":2546554.2599999998,"ADDRESS":"公園路７６９巷２０弄５７號","OBJECTID":202936},"geometry":{"x":169445.20000000112,"y":2546554.2599999998}},{"attributes":{"ID":202938,"DIS_CODE":0,"TOWNNAME":"北區","LI":"正覺里","LIN":"26鄰","STREET":"公園路","SECT":" ","MAREA":" ","LANE":"７６９巷","ALLEY":"２０弄","HOUSE_NO":"５８號","E_COORD97":169449.98000000001,"N_COORD97":2546572.5899999999,"ADDRESS":"公園路７６９巷２０弄５８號","OBJECTID":202937},"geometry":{"x":169449.98000000138,"y":2546572.5899999999}},{"attributes":{"ID":202939,"DIS_CODE":0,"TOWNNAME":"北區","LI":"正覺里","LIN":"26鄰","STREET":"公園路","SECT":" ","MAREA":" ","LANE":"７６９巷","ALLEY":"２０弄","HOUSE_NO":"５號","E_COORD97":169520.73999999999,"N_COORD97":2546542.3300000001,"ADDRESS":"公園路７６９巷２０弄５號","OBJECTID":202938},"geometry":{"x":169520.74000000115,"y":2546542.3300000019}},{"attributes":{"ID":202940,"DIS_CODE":0,"TOWNNAME":"北區","LI":"正覺里","LIN":"26鄰","STREET":"公園路","SECT":" ","MAREA":" ","LANE":"７６９巷","ALLEY":"２０弄","HOUSE_NO":"６０號","E_COORD97":169446.03,"N_COORD97":2546572.7799999998,"ADDRESS":"公園路７６９巷２０弄６０號","OBJECTID":202939},"geometry":{"x":169446.03000000119,"y":2546572.7800000012}},{"attributes":{"ID":202941,"DIS_CODE":0,"TOWNNAME":"北區","LI":"正覺里","LIN":"26鄰","STREET":"公園路","SECT":" ","MAREA":" ","LANE":"７６９巷","ALLEY":"２０弄","HOUSE_NO":"６２號","E_COORD97":169441.23999999999,"N_COORD97":2546573.4399999999,"ADDRESS":"公園路７６９巷２０弄６２號","OBJECTID":202940},"geometry":{"x":169441.24000000115,"y":2546573.4399999976}},{"attributes":{"ID":202942,"DIS_CODE":0,"TOWNNAME":"北區","LI":"正覺里","LIN":"26鄰","STREET":"公園路","SECT":" ","MAREA":" ","LANE":"７６９巷","ALLEY":"２０弄","HOUSE_NO":"８號","E_COORD97":169525.18406900001,"N_COORD97":2546563.5000200002,"ADDRESS":"公園路７６９巷２０弄８號","OBJECTID":202941},"geometry":{"x":169525.18406900112,"y":2546563.5000210013}},{"attributes":{"ID":202943,"DIS_CODE":0,"TOWNNAME":"北區","LI":"正覺里","LIN":"26鄰","STREET":"公園路","SECT":" ","MAREA":" ","LANE":"７６９巷","ALLEY":"２０弄","HOUSE_NO":"５０號之２","E_COORD97":169466.39543400001,"N_COORD97":2546574.2241099998,"ADDRESS":"公園路７６９巷２０弄５０之２號","OBJECTID":202942},"geometry":{"x":169466.3954339996,"y":2546574.2241110019}},{"attributes":{"ID":202944,"DIS_CODE":0,"TOWNNAME":"新營區","LI":"南紙里","LIN":"26鄰","STREET":"建業路","SECT":" ","MAREA":" ","LANE":"２２７巷","ALLEY":"２２弄","HOUSE_NO":"３５號","E_COORD97":178018.89999999999,"N_COORD97":2577360.6800000002,"ADDRESS":"建業路２２７巷２２弄３５號","OBJECTID":202943},"geometry":{"x":178018.90000000037,"y":2577360.6800000016}},{"attributes":{"ID":202945,"DIS_CODE":0,"TOWNNAME":"新營區","LI":"南紙里","LIN":"26鄰","STREET":"建業路","SECT":" ","MAREA":" ","LANE":"２２７巷","ALLEY":"２４弄","HOUSE_NO":"１７號","E_COORD97":178004.39999999999,"N_COORD97":2577341.9300000002,"ADDRESS":"建業路２２７巷２４弄１７號","OBJECTID":202944},"geometry":{"x":178004.4000000013,"y":2577341.9300000034}},{"attributes":{"ID":202946,"DIS_CODE":0,"TOWNNAME":"新營區","LI":"南紙里","LIN":"26鄰","STREET":"建業路","SECT":" ","MAREA":" ","LANE":"２２７巷","ALLEY":"２２弄","HOUSE_NO":"２９號","E_COORD97":178034.23000000001,"N_COORD97":2577360.6099999999,"ADDRESS":"建業路２２７巷２２弄２９號","OBJECTID":202945},"geometry":{"x":178034.23000000231,"y":2577360.6100000031}},{"attributes":{"ID":202947,"DIS_CODE":0,"TOWNNAME":"新營區","LI":"南紙里","LIN":"26鄰","STREET":"建業路","SECT":" ","MAREA":" ","LANE":"２２７巷","ALLEY":"２２弄","HOUSE_NO":"２７號","E_COORD97":178038.32000000001,"N_COORD97":2577360.5899999999,"ADDRESS":"建業路２２７巷２２弄２７號","OBJECTID":202946},"geometry":{"x":178038.3200000003,"y":2577360.5899999999}},{"attributes":{"ID":202948,"DIS_CODE":0,"TOWNNAME":"新營區","LI":"南紙里","LIN":"26鄰","STREET":"建業路","SECT":" ","MAREA":" ","LANE":"２２７巷","ALLEY":"２２弄","HOUSE_NO":"３７號","E_COORD97":178014.81,"N_COORD97":2577361.8100000001,"ADDRESS":"建業路２２７巷２２弄３７號","OBJECTID":202947},"geometry":{"x":178014.81000000052,"y":2577361.8100000024}},{"attributes":{"ID":202949,"DIS_CODE":0,"TOWNNAME":"後壁區","LI":"福安里","LIN":"9鄰","STREET":" ","SECT":" ","MAREA":"下寮","LANE":" ","ALLEY":" ","HOUSE_NO":"９５號","E_COORD97":184193.06,"N_COORD97":2580975.71,"ADDRESS":"下寮９５號","OBJECTID":202948},"geometry":{"x":184193.06000000145,"y":2580975.7100000046}},{"attributes":{"ID":202950,"DIS_CODE":0,"TOWNNAME":"仁德區","LI":"成功里","LIN":"9鄰","STREET":"保華路","SECT":" ","MAREA":" ","LANE":" ","ALLEY":" ","HOUSE_NO":"１７７號","E_COORD97":170984.87,"N_COORD97":2540021,"ADDRESS":"保華路１７７號","OBJECTID":202949},"geometry":{"x":170984.87000000104,"y":2540021.0000000019}},{"attributes":{"ID":202951,"DIS_CODE":0,"TOWNNAME":"新營區","LI":"南紙里","LIN":"26鄰","STREET":"建業路","SECT":" ","MAREA":" ","LANE":"２２７巷","ALLEY":"２２弄","HOUSE_NO":"２５號","E_COORD97":178044.45000000001,"N_COORD97":2577360.5600000001,"ADDRESS":"建業路２２７巷２２弄２５號","OBJECTID":202950},"geometry":{"x":178044.45000000112,"y":2577360.5600000005}},{"attributes":{"ID":202952,"DIS_CODE":0,"TOWNNAME":"新營區","LI":"南紙里","LIN":"26鄰","STREET":"建業路","SECT":" ","MAREA":" ","LANE":"２２７巷","ALLEY":"２２弄","HOUSE_NO":"１０號","E_COORD97":178085.38,"N_COORD97":2577375.8700000001,"ADDRESS":"建業路２２７巷２２弄１０號","OBJECTID":202951},"geometry":{"x":178085.38000000082,"y":2577375.870000001}},{"attributes":{"ID":202953,"DIS_CODE":0,"TOWNNAME":"新營區","LI":"南紙里","LIN":"26鄰","STREET":"建業路","SECT":" ","MAREA":" ","LANE":"２２７巷","ALLEY":"２２弄","HOUSE_NO":"３８號","E_COORD97":178015.92999999999,"N_COORD97":2577380.6400000001,"ADDRESS":"建業路２２７巷２２弄３８號","OBJECTID":202952},"geometry":{"x":178015.9299999997,"y":2577380.6400000006}},{"attributes":{"ID":202954,"DIS_CODE":0,"TOWNNAME":"後壁區","LI":"嘉苳里","LIN":"9鄰","STREET":" ","SECT":" ","MAREA":"下茄苳","LANE":" ","ALLEY":" ","HOUSE_NO":"１０２號之１","E_COORD97":184792,"N_COORD97":2583335.48,"ADDRESS":"下茄苳１０２號之１","OBJECTID":202953},"geometry":{"x":184792,"y":2583335.4800000004}},{"attributes":{"ID":202955,"DIS_CODE":0,"TOWNNAME":"後壁區","LI":"嘉苳里","LIN":"9鄰","STREET":" ","SECT":" ","MAREA":"下茄苳","LANE":" ","ALLEY":" ","HOUSE_NO":"１０２號之２","E_COORD97":184787.82999999999,"N_COORD97":2583335.1600000001,"ADDRESS":"下茄苳１０２號之２","OBJECTID":202954},"geometry":{"x":184787.83000000007,"y":2583335.160000002}},{"attributes":{"ID":202956,"DIS_CODE":0,"TOWNNAME":"後壁區","LI":"嘉苳里","LIN":"9鄰","STREET":" ","SECT":" ","MAREA":"下茄苳","LANE":" ","ALLEY":" ","HOUSE_NO":"１０２號之３","E_COORD97":184783.72,"N_COORD97":2583334.8199999998,"ADDRESS":"下茄苳１０２號之３","OBJECTID":202955},"geometry":{"x":184783.7200000016,"y":2583334.8200000022}},{"attributes":{"ID":202957,"DIS_CODE":0,"TOWNNAME":"仁德區","LI":"成功里","LIN":"9鄰","STREET":"保華路","SECT":" ","MAREA":" ","LANE":" ","ALLEY":" ","HOUSE_NO":"１８３號","E_COORD97":170973.10000000001,"N_COORD97":2540020.75,"ADDRESS":"保華路１８３號","OBJECTID":202956},"geometry":{"x":170973.09999999963,"y":2540020.75}},{"attributes":{"ID":202958,"DIS_CODE":0,"TOWNNAME":"後壁區","LI":"嘉苳里","LIN":"9鄰","STREET":" ","SECT":" ","MAREA":"下茄苳","LANE":" ","ALLEY":" ","HOUSE_NO":"１０２號之４","E_COORD97":184779.66,"N_COORD97":2583334.6600000001,"ADDRESS":"下茄苳１０２號之４","OBJECTID":202957},"geometry":{"x":184779.66000000108,"y":2583334.6600000039}},{"attributes":{"ID":202959,"DIS_CODE":0,"TOWNNAME":"後壁區","LI":"嘉苳里","LIN":"9鄰","STREET":" ","SECT":" ","MAREA":"下茄苳","LANE":" ","ALLEY":" ","HOUSE_NO":"１０３號","E_COORD97":184782,"N_COORD97":2583310.6200000001,"ADDRESS":"下茄苳１０３號","OBJECTID":202958},"geometry":{"x":184781.99999999907,"y":2583310.620000001}},{"attributes":{"ID":202960,"DIS_CODE":0,"TOWNNAME":"後壁區","LI":"嘉苳里","LIN":"9鄰","STREET":" ","SECT":" ","MAREA":"下茄苳","LANE":" ","ALLEY":" ","HOUSE_NO":"１０４號","E_COORD97":184782.98999999999,"N_COORD97":2583286.9700000002,"ADDRESS":"下茄苳１０４號","OBJECTID":202959},"geometry":{"x":184782.99000000115,"y":2583286.9700000025}},{"attributes":{"ID":202961,"DIS_CODE":0,"TOWNNAME":"後壁區","LI":"嘉苳里","LIN":"9鄰","STREET":" ","SECT":" ","MAREA":"下茄苳","LANE":" ","ALLEY":" ","HOUSE_NO":"１０５號之２","E_COORD97":184761.57999999999,"N_COORD97":2583302.1800000002,"ADDRESS":"下茄苳１０５號之２","OBJECTID":202960},"geometry":{"x":184761.58000000101,"y":2583302.1799999997}},{"attributes":{"ID":202962,"DIS_CODE":0,"TOWNNAME":"後壁區","LI":"嘉苳里","LIN":"9鄰","STREET":" ","SECT":" ","MAREA":"下茄苳","LANE":" ","ALLEY":" ","HOUSE_NO":"１０５號","E_COORD97":184762.60999999999,"N_COORD97":2583315.9100000001,"ADDRESS":"下茄苳１０５號","OBJECTID":202961},"geometry":{"x":184762.61000000034,"y":2583315.9099999983}},{"attributes":{"ID":202963,"DIS_CODE":0,"TOWNNAME":"後壁區","LI":"嘉苳里","LIN":"9鄰","STREET":" ","SECT":" ","MAREA":"下茄苳","LANE":" ","ALLEY":" ","HOUSE_NO":"１０６號之１","E_COORD97":184747.89999999999,"N_COORD97":2583281.0499999998,"ADDRESS":"下茄苳１０６號之１","OBJECTID":202962},"geometry":{"x":184747.9000000013,"y":2583281.0500000007}},{"attributes":{"ID":202964,"DIS_CODE":0,"TOWNNAME":"後壁區","LI":"嘉苳里","LIN":"9鄰","STREET":" ","SECT":" ","MAREA":"下茄苳","LANE":" ","ALLEY":" ","HOUSE_NO":"１０６號","E_COORD97":184751.20000000001,"N_COORD97":2583336.5800000001,"ADDRESS":"下茄苳１０６號","OBJECTID":202963},"geometry":{"x":184751.20000000112,"y":2583336.5800000019}},{"attributes":{"ID":202965,"DIS_CODE":0,"TOWNNAME":"後壁區","LI":"土溝里","LIN":"9鄰","STREET":" ","SECT":" ","MAREA":"土溝","LANE":" ","ALLEY":" ","HOUSE_NO":"８８號之２５","E_COORD97":187794.79999999999,"N_COORD97":2586335.02,"ADDRESS":"土溝８８號之２５","OBJECTID":202964},"geometry":{"x":187794.79999999981,"y":2586335.0199999996}},{"attributes":{"ID":202966,"DIS_CODE":0,"TOWNNAME":"後壁區","LI":"土溝里","LIN":"9鄰","STREET":" ","SECT":" ","MAREA":"土溝","LANE":" ","ALLEY":" ","HOUSE_NO":"８８號之３０","E_COORD97":187578.45000000001,"N_COORD97":2586510.73,"ADDRESS":"土溝８８號之３０","OBJECTID":202965},"geometry":{"x":187578.45000000112,"y":2586510.7300000004}},{"attributes":{"ID":202967,"DIS_CODE":0,"TOWNNAME":"後壁區","LI":"土溝里","LIN":"9鄰","STREET":" ","SECT":" ","MAREA":"土溝","LANE":" ","ALLEY":" ","HOUSE_NO":"８８號之３６","E_COORD97":187613.98999999999,"N_COORD97":2586459.8300000001,"ADDRESS":"土溝８８號之３６","OBJECTID":202966},"geometry":{"x":187613.99000000115,"y":2586459.8300000019}},{"attributes":{"ID":202968,"DIS_CODE":0,"TOWNNAME":"後壁區","LI":"土溝里","LIN":"9鄰","STREET":" ","SECT":" ","MAREA":"土溝","LANE":" ","ALLEY":" ","HOUSE_NO":"８８號之３９","E_COORD97":187539.73999999999,"N_COORD97":2586535.23,"ADDRESS":"土溝８８號之３９","OBJECTID":202967},"geometry":{"x":187539.74000000022,"y":2586535.2300000042}},{"attributes":{"ID":202969,"DIS_CODE":0,"TOWNNAME":"後壁區","LI":"土溝里","LIN":"9鄰","STREET":" ","SECT":" ","MAREA":"土溝","LANE":" ","ALLEY":" ","HOUSE_NO":"８８號之３","E_COORD97":187758.01000000001,"N_COORD97":2586197.75,"ADDRESS":"土溝８８號之３","OBJECTID":202968},"geometry":{"x":187758.00999999978,"y":2586197.75}},{"attributes":{"ID":202970,"DIS_CODE":0,"TOWNNAME":"新營區","LI":"南紙里","LIN":"26鄰","STREET":"建業路","SECT":" ","MAREA":" ","LANE":"２６９巷","ALLEY":"３６弄","HOUSE_NO":"２號","E_COORD97":177977.57999999999,"N_COORD97":2577328.77,"ADDRESS":"建業路２６９巷３６弄２號","OBJECTID":202969},"geometry":{"x":177977.58000000101,"y":2577328.7699999977}},{"attributes":{"ID":202971,"DIS_CODE":0,"TOWNNAME":"新營區","LI":"南紙里","LIN":"26鄰","STREET":"建業路","SECT":" ","MAREA":" ","LANE":"２２７巷","ALLEY":"２２弄","HOUSE_NO":"６號","E_COORD97":178093.32999999999,"N_COORD97":2577374.7200000002,"ADDRESS":"建業路２２７巷２２弄６號","OBJECTID":202970},"geometry":{"x":178093.33000000007,"y":2577374.7200000044}},{"attributes":{"ID":202972,"DIS_CODE":0,"TOWNNAME":"永康區","LI":"龍潭里","LIN":"38鄰","STREET":"國民路","SECT":" ","MAREA":" ","LANE":" ","ALLEY":" ","HOUSE_NO":"５７號","E_COORD97":174317.28,"N_COORD97":2547380.1099999999,"ADDRESS":"國民路５７號","OBJECTID":202971},"geometry":{"x":174317.28000000026,"y":2547380.1100000013}},{"attributes":{"ID":202973,"DIS_CODE":0,"TOWNNAME":"永康區","LI":"\u25A0洲里","LIN":"40鄰","STREET":"洲工街","SECT":" ","MAREA":" ","LANE":" ","ALLEY":" ","HOUSE_NO":"１５５號","E_COORD97":170698.16,"N_COORD97":2548626.5299999998,"ADDRESS":"洲工街１５５號","OBJECTID":202972},"geometry":{"x":170698.16000000108,"y":2548626.5299999993}},{"attributes":{"ID":202974,"DIS_CODE":0,"TOWNNAME":"新營區","LI":"南紙里","LIN":"26鄰","STREET":"建業路","SECT":" ","MAREA":" ","LANE":"２２７巷","ALLEY":"２２弄","HOUSE_NO":"２２號","E_COORD97":178055.79000000001,"N_COORD97":2577378.23,"ADDRESS":"建業路２２７巷２２弄２２號","OBJECTID":202973},"geometry":{"x":178055.79000000097,"y":2577378.2300000023}},{"attributes":{"ID":202975,"DIS_CODE":0,"TOWNNAME":"永康區","LI":"\u25A0行里","LIN":"40鄰","STREET":"永安一街","SECT":" ","MAREA":" ","LANE":" ","ALLEY":" ","HOUSE_NO":"９號","E_COORD97":172644.75,"N_COORD97":2549386.0600000001,"ADDRESS":"永安一街９號","OBJECTID":202974},"geometry":{"x":172644.75000000093,"y":2549386.0600000024}},{"attributes":{"ID":202976,"DIS_CODE":0,"TOWNNAME":"永康區","LI":"\u25A0行里","LIN":"42鄰","STREET":"永安二街","SECT":" ","MAREA":" ","LANE":" ","ALLEY":" ","HOUSE_NO":"１７號","E_COORD97":172452.04999999999,"N_COORD97":2549596.8300000001,"ADDRESS":"永安二街１７號","OBJECTID":202975},"geometry":{"x":172452.04999999981,"y":2549596.8300000019}},{"attributes":{"ID":202977,"DIS_CODE":0,"TOWNNAME":"北區","LI":"正覺里","LIN":"26鄰","STREET":"公園路","SECT":" ","MAREA":" ","LANE":"７６９巷","ALLEY":"４弄","HOUSE_NO":"２之１號","E_COORD97":169577.57000000001,"N_COORD97":2546569.7000000002,"ADDRESS":"公園路７６９巷４弄２之１號","OBJECTID":202976},"geometry":{"x":169577.5700000003,"y":2546569.7000000011}},{"attributes":{"ID":202978,"DIS_CODE":0,"TOWNNAME":"後壁區","LI":"長安里","LIN":"9鄰","STREET":" ","SECT":" ","MAREA":"中寮","LANE":" ","ALLEY":" ","HOUSE_NO":"１２６號之４","E_COORD97":184039.5,"N_COORD97":2581276.7599999998,"ADDRESS":"中寮１２６號之４","OBJECTID":202977},"geometry":{"x":184039.49999999907,"y":2581276.7600000016}},{"attributes":{"ID":202979,"DIS_CODE":0,"TOWNNAME":"新營區","LI":"南紙里","LIN":"26鄰","STREET":"建業路","SECT":" ","MAREA":" ","LANE":"２６９巷","ALLEY":"３６弄","HOUSE_NO":"９號","E_COORD97":177946.72,"N_COORD97":2577313.4100000001,"ADDRESS":"建業路２６９巷３６弄９號","OBJECTID":202978},"geometry":{"x":177946.71999999974,"y":2577313.410000002}},{"attributes":{"ID":202980,"DIS_CODE":0,"TOWNNAME":"後壁區","LI":"長安里","LIN":"9鄰","STREET":" ","SECT":" ","MAREA":"中寮","LANE":" ","ALLEY":" ","HOUSE_NO":"１２６號之５０","E_COORD97":183938.47,"N_COORD97":2581287.3300000001,"ADDRESS":"中寮１２６號之５０","OBJECTID":202979},"geometry":{"x":183938.47000000067,"y":2581287.3300000019}},{"attributes":{"ID":202981,"DIS_CODE":0,"TOWNNAME":"後壁區","LI":"長安里","LIN":"9鄰","STREET":" ","SECT":" ","MAREA":"中寮","LANE":" ","ALLEY":" ","HOUSE_NO":"１２６號之６","E_COORD97":184002.51999999999,"N_COORD97":2581269.75,"ADDRESS":"中寮１２６號之６","OBJECTID":202980},"geometry":{"x":184002.52000000048,"y":2581269.7500000019}},{"attributes":{"ID":202982,"DIS_CODE":0,"TOWNNAME":"後壁區","LI":"長安里","LIN":"9鄰","STREET":" ","SECT":" ","MAREA":"中寮","LANE":" ","ALLEY":" ","HOUSE_NO":"１２６號之７","E_COORD97":184003.89999999999,"N_COORD97":2581242.1299999999,"ADDRESS":"中寮１２６號之７","OBJECTID":202981},"geometry":{"x":184003.9000000013,"y":2581242.1300000008}},{"attributes":{"ID":202983,"DIS_CODE":0,"TOWNNAME":"後壁區","LI":"長安里","LIN":"9鄰","STREET":" ","SECT":" ","MAREA":"中寮","LANE":" ","ALLEY":" ","HOUSE_NO":"１２６號之８","E_COORD97":183981.25,"N_COORD97":2581265.5899999999,"ADDRESS":"中寮１２６號之８","OBJECTID":202982},"geometry":{"x":183981.25,"y":2581265.5899999999}},{"attributes":{"ID":202984,"DIS_CODE":0,"TOWNNAME":"後壁區","LI":"長安里","LIN":"9鄰","STREET":" ","SECT":" ","MAREA":"中寮","LANE":" ","ALLEY":" ","HOUSE_NO":"１４６號之１９","E_COORD97":184050.69,"N_COORD97":2581355.5299999998,"ADDRESS":"中寮１４６號之１９","OBJECTID":202983},"geometry":{"x":184050.69000000227,"y":2581355.5300000012}},{"attributes":{"ID":202985,"DIS_CODE":0,"TOWNNAME":"後壁區","LI":"長安里","LIN":"9鄰","STREET":" ","SECT":" ","MAREA":"中寮","LANE":" ","ALLEY":" ","HOUSE_NO":"１４６號之２０","E_COORD97":184045.29000000001,"N_COORD97":2581354.27,"ADDRESS":"中寮１４６號之２０","OBJECTID":202984},"geometry":{"x":184045.29000000097,"y":2581354.2700000014}},{"attributes":{"ID":202986,"DIS_CODE":0,"TOWNNAME":"後壁區","LI":"長安里","LIN":"9鄰","STREET":" ","SECT":" ","MAREA":"中寮","LANE":" ","ALLEY":" ","HOUSE_NO":"１４６號之２１","E_COORD97":184039.70999999999,"N_COORD97":2581353.1200000001,"ADDRESS":"中寮１４６號之２１","OBJECTID":202985},"geometry":{"x":184039.70999999903,"y":2581353.1200000029}},{"attributes":{"ID":202987,"DIS_CODE":0,"TOWNNAME":"後壁區","LI":"長安里","LIN":"9鄰","STREET":" ","SECT":" ","MAREA":"中寮","LANE":" ","ALLEY":" ","HOUSE_NO":"１４６號之２２","E_COORD97":184034.19,"N_COORD97":2581352.1400000001,"ADDRESS":"中寮１４６號之２２","OBJECTID":202986},"geometry":{"x":184034.19000000134,"y":2581352.1400000043}},{"attributes":{"ID":202988,"DIS_CODE":0,"TOWNNAME":"後壁區","LI":"長安里","LIN":"9鄰","STREET":" ","SECT":" ","MAREA":"中寮","LANE":" ","ALLEY":" ","HOUSE_NO":"１４６號之２３","E_COORD97":184030.07000000001,"N_COORD97":2581350.4100000001,"ADDRESS":"中寮１４６號之２３","OBJECTID":202987},"geometry":{"x":184030.07000000123,"y":2581350.410000002}},{"attributes":{"ID":202989,"DIS_CODE":0,"TOWNNAME":"新營區","LI":"南紙里","LIN":"26鄰","STREET":"建業路","SECT":" ","MAREA":" ","LANE":"２６９巷","ALLEY":"３４弄","HOUSE_NO":"９號","E_COORD97":177959.17000000001,"N_COORD97":2577349.8799999999,"ADDRESS":"建業路２６９巷３４弄９號","OBJECTID":202988},"geometry":{"x":177959.16999999993,"y":2577349.879999999}},{"attributes":{"ID":202990,"DIS_CODE":0,"TOWNNAME":"後壁區","LI":"長安里","LIN":"9鄰","STREET":" ","SECT":" ","MAREA":"中寮","LANE":" ","ALLEY":" ","HOUSE_NO":"１４６號之２４","E_COORD97":184060.45999999999,"N_COORD97":2581337.1200000001,"ADDRESS":"中寮１４６號之２４","OBJECTID":202989},"geometry":{"x":184060.46000000089,"y":2581337.1200000029}},{"attributes":{"ID":202991,"DIS_CODE":0,"TOWNNAME":"麻豆區","LI":"安正里","LIN":"1鄰","STREET":" ","SECT":" ","MAREA":"前班","LANE":" ","ALLEY":" ","HOUSE_NO":"３號","E_COORD97":171610.01000000001,"N_COORD97":2563346.1800000002,"ADDRESS":"前班３號","OBJECTID":202990},"geometry":{"x":171610.00999999978,"y":2563346.1799999997}},{"attributes":{"ID":202992,"DIS_CODE":0,"TOWNNAME":"新營區","LI":"南紙里","LIN":"26鄰","STREET":"建業路","SECT":" ","MAREA":" ","LANE":"２６９巷","ALLEY":"３６弄","HOUSE_NO":"６號","E_COORD97":177960.14000000001,"N_COORD97":2577329.96,"ADDRESS":"建業路２６９巷３６弄６號","OBJECTID":202991},"geometry":{"x":177960.1400000006,"y":2577329.9600000028}},{"attributes":{"ID":202993,"DIS_CODE":0,"TOWNNAME":"新營區","LI":"南紙里","LIN":"26鄰","STREET":"建業路","SECT":" ","MAREA":" ","LANE":"２６９巷","ALLEY":"３４弄","HOUSE_NO":"７號","E_COORD97":177963.32999999999,"N_COORD97":2577349.8599999999,"ADDRESS":"建業路２６９巷３４弄７號","OBJECTID":202992},"geometry":{"x":177963.33000000007,"y":2577349.8600000013}},{"attributes":{"ID":202994,"DIS_CODE":0,"TOWNNAME":"安定區","LI":"南安里","LIN":"3鄰","STREET":" ","SECT":" ","MAREA":"油車","LANE":" ","ALLEY":" ","HOUSE_NO":"３３之５號","E_COORD97":170844.44,"N_COORD97":2555790.2999999998,"ADDRESS":"油車３３之５號","OBJECTID":202993},"geometry":{"x":170844.44000000041,"y":2555790.3000000007}},{"attributes":{"ID":202995,"DIS_CODE":0,"TOWNNAME":"安定區","LI":"中榮里","LIN":"3鄰","STREET":" ","SECT":" ","MAREA":"許中營","LANE":" ","ALLEY":" ","HOUSE_NO":"３８號之３","E_COORD97":172529.28112100001,"N_COORD97":2555034.4339100001,"ADDRESS":"許中營３８號之３","OBJECTID":202994},"geometry":{"x":172529.28112099972,"y":2555034.4339140039}},{"attributes":{"ID":202996,"DIS_CODE":0,"TOWNNAME":"安定區","LI":"港口里","LIN":"3鄰","STREET":" ","SECT":" ","MAREA":"港口","LANE":" ","ALLEY":" ","HOUSE_NO":"２５３之４５號","E_COORD97":171618.14000000001,"N_COORD97":2554875.2999999998,"ADDRESS":"港口２５３之４５號","OBJECTID":202995},"geometry":{"x":171618.1400000006,"y":2554875.3000000007}},{"attributes":{"ID":202997,"DIS_CODE":0,"TOWNNAME":"安定區","LI":"新吉里","LIN":"3鄰","STREET":" ","SECT":" ","MAREA":"新吉","LANE":" ","ALLEY":" ","HOUSE_NO":"２５之１７號","E_COORD97":169484.12,"N_COORD97":2554116.2999999998,"ADDRESS":"新吉２５之１７號","OBJECTID":202996},"geometry":{"x":169484.12000000197,"y":2554116.3000000045}},{"attributes":{"ID":202998,"DIS_CODE":0,"TOWNNAME":"安定區","LI":"港口里","LIN":"3鄰","STREET":" ","SECT":" ","MAREA":"港口","LANE":" ","ALLEY":" ","HOUSE_NO":"２６３之１０號","E_COORD97":171543.64000000001,"N_COORD97":2554691.2999999998,"ADDRESS":"港口２６３之１０號","OBJECTID":202997},"geometry":{"x":171543.6400000006,"y":2554691.3000000007}},{"attributes":{"ID":202999,"DIS_CODE":0,"TOWNNAME":"新營區","LI":"南紙里","LIN":"26鄰","STREET":"建業路","SECT":" ","MAREA":" ","LANE":"２６９巷","ALLEY":"３６弄","HOUSE_NO":"５號","E_COORD97":177964.23999999999,"N_COORD97":2577329.9399999999,"ADDRESS":"建業路２６９巷３６弄５號","OBJECTID":202998},"geometry":{"x":177964.23999999929,"y":2577329.9399999995}},{"attributes":{"ID":203000,"DIS_CODE":0,"TOWNNAME":"安定區","LI":"大同里","LIN":"3鄰","STREET":" ","SECT":" ","MAREA":"大同","LANE":" ","ALLEY":" ","HOUSE_NO":"３４號","E_COORD97":170468.47,"N_COORD97":2553928.25,"ADDRESS":"大同３４號","OBJECTID":202999},"geometry":{"x":170468.47000000067,"y":2553928.25}},{"attributes":{"ID":203001,"DIS_CODE":0,"TOWNNAME":"新營區","LI":"南紙里","LIN":"26鄰","STREET":"建業路","SECT":" ","MAREA":" ","LANE":"２６９巷","ALLEY":"３４弄","HOUSE_NO":"１１號","E_COORD97":177955.34,"N_COORD97":2577351.0299999998,"ADDRESS":"建業路２６９巷３４弄１１號","OBJECTID":203000},"geometry":{"x":177955.34000000078,"y":2577351.0300000031}}]}