{"displayFieldName":"TOWNNAME","fieldAliases":{"ID":"ID","DIS_CODE":"DIS_CODE","TOWNNAME":"TOWNNAME","LI":"LI","LIN":"LIN","STREET":"STREET","SECT":"SECT","MAREA":"MAREA","LANE":"LANE","ALLEY":"ALLEY","HOUSE_NO":"HOUSE_NO","E_COORD97":"E_COORD97","N_COORD97":"N_COORD97","ADDRESS":"ADDRESS","OBJECTID":"OBJECTID"},"geometryType":"esriGeometryPoint","spatialReference":{"wkid":102443,"latestWkid":3826},"fields":[{"name":"ID","type":"esriFieldTypeDouble","alias":"ID"},{"name":"DIS_CODE","type":"esriFieldTypeInteger","alias":"DIS_CODE"},{"name":"TOWNNAME","type":"esriFieldTypeString","alias":"TOWNNAME","length":8},{"name":"LI","type":"esriFieldTypeString","alias":"LI","length":8},{"name":"LIN","type":"esriFieldTypeString","alias":"LIN","length":12},{"name":"STREET","type":"esriFieldTypeString","alias":"STREET","length":20},{"name":"SECT","type":"esriFieldTypeString","alias":"SECT","length":8},{"name":"MAREA","type":"esriFieldTypeString","alias":"MAREA","length":12},{"name":"LANE","type":"esriFieldTypeString","alias":"LANE","length":10},{"name":"ALLEY","type":"esriFieldTypeString","alias":"ALLEY","length":10},{"name":"HOUSE_NO","type":"esriFieldTypeString","alias":"HOUSE_NO","length":20},{"name":"E_COORD97","type":"esriFieldTypeDouble","alias":"E_COORD97"},{"name":"N_COORD97","type":"esriFieldTypeDouble","alias":"N_COORD97"},{"name":"ADDRESS","type":"esriFieldTypeString","alias":"ADDRESS","length":50},{"name":"OBJECTID","type":"esriFieldTypeOID","alias":"OBJECTID"}],"features":[{"attributes":{"ID":620628,"DIS_CODE":0,"TOWNNAME":"永康區","LI":"\u25A0行里","LIN":"48鄰","STREET":"新中街","SECT":" ","MAREA":" ","LANE":" ","ALLEY":" ","HOUSE_NO":"３１９號","E_COORD97":172491.01999999999,"N_COORD97":2548975.6200000001,"ADDRESS":"新中街３１９號","OBJECTID":620601},"geometry":{"x":172491.01999999955,"y":2548975.6200000029}},{"attributes":{"ID":620629,"DIS_CODE":0,"TOWNNAME":"永康區","LI":"\u25A0行里","LIN":"48鄰","STREET":"新中街","SECT":" ","MAREA":" ","LANE":" ","ALLEY":" ","HOUSE_NO":"３２１號","E_COORD97":172491.73000000001,"N_COORD97":2548979.8900000001,"ADDRESS":"新中街３２１號","OBJECTID":620602},"geometry":{"x":172491.73000000045,"y":2548979.8900000025}},{"attributes":{"ID":620630,"DIS_CODE":0,"TOWNNAME":"永康區","LI":"\u25A0行里","LIN":"48鄰","STREET":"新中街","SECT":" ","MAREA":" ","LANE":" ","ALLEY":" ","HOUSE_NO":"３２３號","E_COORD97":172492.45000000001,"N_COORD97":2548984.1499999999,"ADDRESS":"新中街３２３號","OBJECTID":620603},"geometry":{"x":172492.45000000205,"y":2548984.1500000022}},{"attributes":{"ID":620631,"DIS_CODE":0,"TOWNNAME":"永康區","LI":"\u25A0行里","LIN":"48鄰","STREET":"新中街","SECT":" ","MAREA":" ","LANE":" ","ALLEY":" ","HOUSE_NO":"３２５號","E_COORD97":172493.16,"N_COORD97":2548988.4199999999,"ADDRESS":"新中街３２５號","OBJECTID":620604},"geometry":{"x":172493.16000000108,"y":2548988.4200000037}},{"attributes":{"ID":620632,"DIS_CODE":0,"TOWNNAME":"永康區","LI":"\u25A0行里","LIN":"48鄰","STREET":"新中街","SECT":" ","MAREA":" ","LANE":" ","ALLEY":" ","HOUSE_NO":"３２７號","E_COORD97":172493.88,"N_COORD97":2548992.6899999999,"ADDRESS":"新中街３２７號","OBJECTID":620605},"geometry":{"x":172493.87999999989,"y":2548992.6900000032}},{"attributes":{"ID":620633,"DIS_CODE":0,"TOWNNAME":"永康區","LI":"\u25A0行里","LIN":"48鄰","STREET":"新中街","SECT":" ","MAREA":" ","LANE":" ","ALLEY":" ","HOUSE_NO":"３２９號","E_COORD97":172494.60000000001,"N_COORD97":2548996.9500000002,"ADDRESS":"新中街３２９號","OBJECTID":620606},"geometry":{"x":172494.60000000056,"y":2548996.9499999993}},{"attributes":{"ID":620634,"DIS_CODE":0,"TOWNNAME":"永康區","LI":"\u25A0行里","LIN":"48鄰","STREET":"新中街","SECT":" ","MAREA":" ","LANE":" ","ALLEY":" ","HOUSE_NO":"３３１號","E_COORD97":172495.31,"N_COORD97":2549001.2200000002,"ADDRESS":"新中街３３１號","OBJECTID":620607},"geometry":{"x":172495.31000000052,"y":2549001.2200000025}},{"attributes":{"ID":620635,"DIS_CODE":0,"TOWNNAME":"永康區","LI":"\u25A0行里","LIN":"48鄰","STREET":"新中街","SECT":" ","MAREA":" ","LANE":" ","ALLEY":" ","HOUSE_NO":"３３３號","E_COORD97":172496.03,"N_COORD97":2549005.5,"ADDRESS":"新中街３３３號","OBJECTID":620608},"geometry":{"x":172496.03000000119,"y":2549005.5000000019}},{"attributes":{"ID":620636,"DIS_CODE":0,"TOWNNAME":"永康區","LI":"\u25A0行里","LIN":"48鄰","STREET":"新中街","SECT":" ","MAREA":" ","LANE":" ","ALLEY":" ","HOUSE_NO":"３３５號","E_COORD97":172496.75,"N_COORD97":2549009.7799999998,"ADDRESS":"新中街３３５號","OBJECTID":620609},"geometry":{"x":172496.75,"y":2549009.7800000012}},{"attributes":{"ID":620637,"DIS_CODE":0,"TOWNNAME":"永康區","LI":"\u25A0行里","LIN":"48鄰","STREET":"新中街","SECT":" ","MAREA":" ","LANE":" ","ALLEY":" ","HOUSE_NO":"３３７號","E_COORD97":172498.73999999999,"N_COORD97":2549014.2200000002,"ADDRESS":"新中街３３７號","OBJECTID":620610},"geometry":{"x":172498.74000000022,"y":2549014.2200000044}},{"attributes":{"ID":620638,"DIS_CODE":0,"TOWNNAME":"永康區","LI":"\u25A0行里","LIN":"48鄰","STREET":"新中街","SECT":" ","MAREA":" ","LANE":" ","ALLEY":" ","HOUSE_NO":"３３９號","E_COORD97":172498.45000000001,"N_COORD97":2549018.9700000002,"ADDRESS":"新中街３３９號","OBJECTID":620611},"geometry":{"x":172498.45000000019,"y":2549018.9699999988}},{"attributes":{"ID":620639,"DIS_CODE":0,"TOWNNAME":"永康區","LI":"\u25A0行里","LIN":"48鄰","STREET":"新民街","SECT":" ","MAREA":" ","LANE":" ","ALLEY":" ","HOUSE_NO":"６號","E_COORD97":172476.39999999999,"N_COORD97":2548943.9399999999,"ADDRESS":"新民街６號","OBJECTID":620612},"geometry":{"x":172476.4000000013,"y":2548943.9400000013}},{"attributes":{"ID":620640,"DIS_CODE":0,"TOWNNAME":"永康區","LI":"\u25A0行里","LIN":"48鄰","STREET":"新民街","SECT":" ","MAREA":" ","LANE":" ","ALLEY":" ","HOUSE_NO":"８號","E_COORD97":172471.29000000001,"N_COORD97":2548944.7200000002,"ADDRESS":"新民街８號","OBJECTID":620613},"geometry":{"x":172471.28999999911,"y":2548944.7200000007}},{"attributes":{"ID":620641,"DIS_CODE":0,"TOWNNAME":"永康區","LI":"\u25A0行里","LIN":"48鄰","STREET":"新民街","SECT":" ","MAREA":" ","LANE":" ","ALLEY":" ","HOUSE_NO":"１０號","E_COORD97":172466.41,"N_COORD97":2548943.8399999999,"ADDRESS":"新民街１０號","OBJECTID":620614},"geometry":{"x":172466.41000000108,"y":2548943.8399999999}},{"attributes":{"ID":620642,"DIS_CODE":0,"TOWNNAME":"永康區","LI":"\u25A0行里","LIN":"48鄰","STREET":"新民街","SECT":" ","MAREA":" ","LANE":" ","ALLEY":" ","HOUSE_NO":"１２號","E_COORD97":172460.85000000001,"N_COORD97":2548942.4199999999,"ADDRESS":"新民街１２號","OBJECTID":620615},"geometry":{"x":172460.85000000056,"y":2548942.4200000018}},{"attributes":{"ID":620643,"DIS_CODE":0,"TOWNNAME":"歸仁區","LI":"後市里","LIN":"48鄰","STREET":"文化五街","SECT":" ","MAREA":" ","LANE":" ","ALLEY":" ","HOUSE_NO":"２７號","E_COORD97":177114.23999999999,"N_COORD97":2541123.7599999998,"ADDRESS":"文化五街２７號","OBJECTID":620616},"geometry":{"x":177114.24000000022,"y":2541123.7600000016}},{"attributes":{"ID":620644,"DIS_CODE":0,"TOWNNAME":"歸仁區","LI":"後市里","LIN":"48鄰","STREET":"文化街","SECT":"二段","MAREA":" ","LANE":" ","ALLEY":" ","HOUSE_NO":"１４３號","E_COORD97":177135.54000000001,"N_COORD97":2541203.7599999998,"ADDRESS":"文化街二段１４３號","OBJECTID":620617},"geometry":{"x":177135.54000000097,"y":2541203.7599999998}},{"attributes":{"ID":620645,"DIS_CODE":0,"TOWNNAME":"北區","LI":"成德里","LIN":"38鄰","STREET":"中華北路","SECT":"二段","MAREA":" ","LANE":" ","ALLEY":" ","HOUSE_NO":"１５１號","E_COORD97":168055.67000000001,"N_COORD97":2546785.23,"ADDRESS":"中華北路二段１５１號","OBJECTID":620618},"geometry":{"x":168055.66999999993,"y":2546785.2300000004}},{"attributes":{"ID":620646,"DIS_CODE":0,"TOWNNAME":"北區","LI":"成德里","LIN":"38鄰","STREET":"海安路","SECT":"三段","MAREA":" ","LANE":" ","ALLEY":" ","HOUSE_NO":"９７２號","E_COORD97":167993.81,"N_COORD97":2546661.5099999998,"ADDRESS":"海安路三段９７２號","OBJECTID":620619},"geometry":{"x":167993.81000000145,"y":2546661.5099999979}},{"attributes":{"ID":620647,"DIS_CODE":0,"TOWNNAME":"北區","LI":"成德里","LIN":"38鄰","STREET":"海安路","SECT":"三段","MAREA":" ","LANE":" ","ALLEY":" ","HOUSE_NO":"９７６號","E_COORD97":167991.89999999999,"N_COORD97":2546665.7999999998,"ADDRESS":"海安路三段９７６號","OBJECTID":620620},"geometry":{"x":167991.90000000037,"y":2546665.8000000026}},{"attributes":{"ID":620648,"DIS_CODE":0,"TOWNNAME":"北區","LI":"成德里","LIN":"38鄰","STREET":"海安路","SECT":"三段","MAREA":" ","LANE":" ","ALLEY":" ","HOUSE_NO":"９７０號","E_COORD97":167996.03,"N_COORD97":2546656.27,"ADDRESS":"海安路三段９７０號","OBJECTID":620621},"geometry":{"x":167996.03000000026,"y":2546656.2700000033}},{"attributes":{"ID":620649,"DIS_CODE":0,"TOWNNAME":"北區","LI":"成德里","LIN":"38鄰","STREET":"海安路","SECT":"三段","MAREA":" ","LANE":" ","ALLEY":" ","HOUSE_NO":"９６８號","E_COORD97":167997.14000000001,"N_COORD97":2546649.9199999999,"ADDRESS":"海安路三段９６８號","OBJECTID":620622},"geometry":{"x":167997.1400000006,"y":2546649.9200000018}},{"attributes":{"ID":620650,"DIS_CODE":0,"TOWNNAME":"北區","LI":"成德里","LIN":"38鄰","STREET":"中華北路","SECT":"二段","MAREA":" ","LANE":" ","ALLEY":" ","HOUSE_NO":"１４０號","E_COORD97":168016.14000000001,"N_COORD97":2546769.6699999999,"ADDRESS":"中華北路二段１４０號","OBJECTID":620623},"geometry":{"x":168016.1400000006,"y":2546769.6700000018}},{"attributes":{"ID":620651,"DIS_CODE":0,"TOWNNAME":"北區","LI":"成德里","LIN":"38鄰","STREET":"中華北路","SECT":"二段","MAREA":" ","LANE":" ","ALLEY":" ","HOUSE_NO":"１４１號","E_COORD97":168019.95000000001,"N_COORD97":2546771.73,"ADDRESS":"中華北路二段１４１號","OBJECTID":620624},"geometry":{"x":168019.95000000019,"y":2546771.7300000004}},{"attributes":{"ID":620652,"DIS_CODE":0,"TOWNNAME":"北區","LI":"成德里","LIN":"38鄰","STREET":"中華北路","SECT":"二段","MAREA":" ","LANE":" ","ALLEY":" ","HOUSE_NO":"１４２號","E_COORD97":168024.23999999999,"N_COORD97":2546773.7999999998,"ADDRESS":"中華北路二段１４２號","OBJECTID":620625},"geometry":{"x":168024.24000000115,"y":2546773.8000000026}},{"attributes":{"ID":620653,"DIS_CODE":0,"TOWNNAME":"北區","LI":"成德里","LIN":"38鄰","STREET":"中華北路","SECT":"二段","MAREA":" ","LANE":" ","ALLEY":" ","HOUSE_NO":"１４３號","E_COORD97":168028.37,"N_COORD97":2546775.54,"ADDRESS":"中華北路二段１４３號","OBJECTID":620626},"geometry":{"x":168028.37000000104,"y":2546775.5399999991}},{"attributes":{"ID":620654,"DIS_CODE":0,"TOWNNAME":"北區","LI":"成德里","LIN":"38鄰","STREET":"中華北路","SECT":"二段","MAREA":" ","LANE":" ","ALLEY":" ","HOUSE_NO":"１４５號","E_COORD97":168032.48999999999,"N_COORD97":2546777.29,"ADDRESS":"中華北路二段１４５號","OBJECTID":620627},"geometry":{"x":168032.49000000115,"y":2546777.2899999991}},{"attributes":{"ID":620655,"DIS_CODE":0,"TOWNNAME":"北區","LI":"成德里","LIN":"38鄰","STREET":"中華北路","SECT":"二段","MAREA":" ","LANE":" ","ALLEY":" ","HOUSE_NO":"１４６號","E_COORD97":168037.73000000001,"N_COORD97":2546779.1899999999,"ADDRESS":"中華北路二段１４６號","OBJECTID":620628},"geometry":{"x":168037.73000000231,"y":2546779.1900000013}},{"attributes":{"ID":620656,"DIS_CODE":0,"TOWNNAME":"北區","LI":"成德里","LIN":"38鄰","STREET":"中華北路","SECT":"二段","MAREA":" ","LANE":" ","ALLEY":" ","HOUSE_NO":"１４７號","E_COORD97":168041.38,"N_COORD97":2546780.6200000001,"ADDRESS":"中華北路二段１４７號","OBJECTID":620629},"geometry":{"x":168041.38000000082,"y":2546780.620000001}},{"attributes":{"ID":620657,"DIS_CODE":0,"TOWNNAME":"北區","LI":"成德里","LIN":"38鄰","STREET":"中華北路","SECT":"二段","MAREA":" ","LANE":" ","ALLEY":" ","HOUSE_NO":"１４８號","E_COORD97":168044.88,"N_COORD97":2546782.0499999998,"ADDRESS":"中華北路二段１４８號","OBJECTID":620630},"geometry":{"x":168044.88000000082,"y":2546782.0500000026}},{"attributes":{"ID":620658,"DIS_CODE":0,"TOWNNAME":"北區","LI":"成德里","LIN":"38鄰","STREET":"中華北路","SECT":"二段","MAREA":" ","LANE":" ","ALLEY":" ","HOUSE_NO":"１４９號","E_COORD97":168048.84,"N_COORD97":2546783.6400000001,"ADDRESS":"中華北路二段１４９號","OBJECTID":620631},"geometry":{"x":168048.84000000078,"y":2546783.6400000043}},{"attributes":{"ID":620659,"DIS_CODE":0,"TOWNNAME":"北區","LI":"成德里","LIN":"38鄰","STREET":"中華北路","SECT":"二段","MAREA":" ","LANE":" ","ALLEY":" ","HOUSE_NO":"１５０號","E_COORD97":168052.34,"N_COORD97":2546785.0699999998,"ADDRESS":"中華北路二段１５０號","OBJECTID":620632},"geometry":{"x":168052.33999999985,"y":2546785.0700000022}},{"attributes":{"ID":620660,"DIS_CODE":0,"TOWNNAME":"北區","LI":"成德里","LIN":"38鄰","STREET":"中華北路","SECT":"二段","MAREA":" ","LANE":" ","ALLEY":" ","HOUSE_NO":"１５５之５號","E_COORD97":168087.26000000001,"N_COORD97":2546796.3399999999,"ADDRESS":"中華北路二段１５５之５號","OBJECTID":620633},"geometry":{"x":168087.25999999978,"y":2546796.3400000017}},{"attributes":{"ID":620661,"DIS_CODE":0,"TOWNNAME":"北區","LI":"成德里","LIN":"38鄰","STREET":"中華北路","SECT":"二段","MAREA":" ","LANE":" ","ALLEY":" ","HOUSE_NO":"１５３號","E_COORD97":168064.56,"N_COORD97":2546787.1299999999,"ADDRESS":"中華北路二段１５３號","OBJECTID":620634},"geometry":{"x":168064.55999999959,"y":2546787.129999999}},{"attributes":{"ID":620662,"DIS_CODE":0,"TOWNNAME":"北區","LI":"成德里","LIN":"38鄰","STREET":"中華北路","SECT":"二段","MAREA":" ","LANE":" ","ALLEY":" ","HOUSE_NO":"１５５號","E_COORD97":168068.85000000001,"N_COORD97":2546789.2000000002,"ADDRESS":"中華北路二段１５５號","OBJECTID":620635},"geometry":{"x":168068.85000000056,"y":2546789.2000000011}},{"attributes":{"ID":620663,"DIS_CODE":0,"TOWNNAME":"北區","LI":"成德里","LIN":"38鄰","STREET":"中華北路","SECT":"二段","MAREA":" ","LANE":" ","ALLEY":" ","HOUSE_NO":"１５５之１號","E_COORD97":168074.72,"N_COORD97":2546790.4700000002,"ADDRESS":"中華北路二段１５５之１號","OBJECTID":620636},"geometry":{"x":168074.72000000067,"y":2546790.4700000007}},{"attributes":{"ID":620664,"DIS_CODE":0,"TOWNNAME":"北區","LI":"成德里","LIN":"38鄰","STREET":"中華北路","SECT":"二段","MAREA":" ","LANE":" ","ALLEY":" ","HOUSE_NO":"１５５之２號","E_COORD97":168079.17000000001,"N_COORD97":2546792.5299999998,"ADDRESS":"中華北路二段１５５之２號","OBJECTID":620637},"geometry":{"x":168079.16999999993,"y":2546792.5299999993}},{"attributes":{"ID":620665,"DIS_CODE":0,"TOWNNAME":"北區","LI":"成德里","LIN":"38鄰","STREET":"中華北路","SECT":"二段","MAREA":" ","LANE":" ","ALLEY":" ","HOUSE_NO":"１５５之３號","E_COORD97":168083.45000000001,"N_COORD97":2546794.9100000001,"ADDRESS":"中華北路二段１５５之３號","OBJECTID":620638},"geometry":{"x":168083.45000000112,"y":2546794.9100000039}},{"attributes":{"ID":620666,"DIS_CODE":0,"TOWNNAME":"東區","LI":"成大里","LIN":"26鄰","STREET":"育樂街","SECT":" ","MAREA":" ","LANE":" ","ALLEY":" ","HOUSE_NO":"６８號","E_COORD97":169592.14000000001,"N_COORD97":2544034.0800000001,"ADDRESS":"育樂街６８號","OBJECTID":620639},"geometry":{"x":169592.1400000006,"y":2544034.0800000038}},{"attributes":{"ID":620667,"DIS_CODE":0,"TOWNNAME":"東區","LI":"成大里","LIN":"26鄰","STREET":"育樂街","SECT":" ","MAREA":" ","LANE":" ","ALLEY":" ","HOUSE_NO":"７２號","E_COORD97":169564.57000000001,"N_COORD97":2544050.2999999998,"ADDRESS":"育樂街７２號","OBJECTID":620640},"geometry":{"x":169564.57000000123,"y":2544050.3000000045}},{"attributes":{"ID":620668,"DIS_CODE":0,"TOWNNAME":"東區","LI":"成大里","LIN":"26鄰","STREET":"育樂街","SECT":" ","MAREA":" ","LANE":" ","ALLEY":" ","HOUSE_NO":"７６號","E_COORD97":169563.29000000001,"N_COORD97":2544037.4900000002,"ADDRESS":"育樂街７６號","OBJECTID":620641},"geometry":{"x":169563.29000000004,"y":2544037.4900000002}},{"attributes":{"ID":620669,"DIS_CODE":0,"TOWNNAME":"東區","LI":"成大里","LIN":"26鄰","STREET":"育樂街","SECT":" ","MAREA":" ","LANE":" ","ALLEY":" ","HOUSE_NO":"７８號","E_COORD97":169548.75,"N_COORD97":2544040.27,"ADDRESS":"育樂街７８號","OBJECTID":620642},"geometry":{"x":169548.75,"y":2544040.2700000014}},{"attributes":{"ID":620670,"DIS_CODE":0,"TOWNNAME":"東區","LI":"成大里","LIN":"26鄰","STREET":"育樂街","SECT":" ","MAREA":" ","LANE":" ","ALLEY":" ","HOUSE_NO":"８０號","E_COORD97":169548.75,"N_COORD97":2544052.8599999999,"ADDRESS":"育樂街８０號","OBJECTID":620643},"geometry":{"x":169548.75,"y":2544052.8600000013}},{"attributes":{"ID":620671,"DIS_CODE":0,"TOWNNAME":"東區","LI":"成大里","LIN":"26鄰","STREET":"育樂街","SECT":" ","MAREA":" ","LANE":" ","ALLEY":" ","HOUSE_NO":"８２號","E_COORD97":169527.17000000001,"N_COORD97":2544053.9300000002,"ADDRESS":"育樂街８２號","OBJECTID":620644},"geometry":{"x":169527.16999999993,"y":2544053.9299999997}},{"attributes":{"ID":620672,"DIS_CODE":0,"TOWNNAME":"東區","LI":"成大里","LIN":"26鄰","STREET":"育樂街","SECT":" ","MAREA":" ","LANE":" ","ALLEY":" ","HOUSE_NO":"８６號","E_COORD97":169524.39000000001,"N_COORD97":2544042.6200000001,"ADDRESS":"育樂街８６號","OBJECTID":620645},"geometry":{"x":169524.3900000006,"y":2544042.6200000029}},{"attributes":{"ID":620673,"DIS_CODE":0,"TOWNNAME":"東區","LI":"成大里","LIN":"24鄰","STREET":"育樂街","SECT":" ","MAREA":" ","LANE":" ","ALLEY":" ","HOUSE_NO":"１１１號","E_COORD97":169509.79000000001,"N_COORD97":2543994.1000000001,"ADDRESS":"育樂街１１１號","OBJECTID":620646},"geometry":{"x":169509.78999999911,"y":2543994.1000000015}},{"attributes":{"ID":620674,"DIS_CODE":0,"TOWNNAME":"東區","LI":"成大里","LIN":"24鄰","STREET":"育樂街","SECT":" ","MAREA":" ","LANE":" ","ALLEY":" ","HOUSE_NO":"１１１號之１","E_COORD97":169509.28,"N_COORD97":2543988.8399999999,"ADDRESS":"育樂街１１１號之１","OBJECTID":620647},"geometry":{"x":169509.28000000119,"y":2543988.8400000017}},{"attributes":{"ID":620675,"DIS_CODE":0,"TOWNNAME":"東區","LI":"成大里","LIN":"24鄰","STREET":"育樂街","SECT":" ","MAREA":" ","LANE":" ","ALLEY":" ","HOUSE_NO":"１１１號之２","E_COORD97":169523.07000000001,"N_COORD97":2543988.4399999999,"ADDRESS":"育樂街１１１號之２","OBJECTID":620648},"geometry":{"x":169523.0700000003,"y":2543988.4400000013}},{"attributes":{"ID":620676,"DIS_CODE":0,"TOWNNAME":"東區","LI":"成大里","LIN":"24鄰","STREET":"育樂街","SECT":" ","MAREA":" ","LANE":" ","ALLEY":" ","HOUSE_NO":"１１３號","E_COORD97":169508.94,"N_COORD97":2543984.6099999999,"ADDRESS":"育樂街１１３號","OBJECTID":620649},"geometry":{"x":169508.94000000041,"y":2543984.6099999994}},{"attributes":{"ID":620677,"DIS_CODE":0,"TOWNNAME":"東區","LI":"成大里","LIN":"24鄰","STREET":"育樂街","SECT":" ","MAREA":" ","LANE":" ","ALLEY":" ","HOUSE_NO":"１１５號","E_COORD97":169521.35999999999,"N_COORD97":2543979.1299999999,"ADDRESS":"育樂街１１５號","OBJECTID":620650},"geometry":{"x":169521.36000000034,"y":2543979.1300000008}},{"attributes":{"ID":620678,"DIS_CODE":0,"TOWNNAME":"東區","LI":"成大里","LIN":"24鄰","STREET":"育樂街","SECT":" ","MAREA":" ","LANE":" ","ALLEY":" ","HOUSE_NO":"１１５號之１","E_COORD97":169508.76999999999,"N_COORD97":2543980.0299999998,"ADDRESS":"育樂街１１５號之１","OBJECTID":620651},"geometry":{"x":169508.76999999955,"y":2543980.0300000012}},{"attributes":{"ID":620679,"DIS_CODE":0,"TOWNNAME":"東區","LI":"成大里","LIN":"24鄰","STREET":"育樂街","SECT":" ","MAREA":" ","LANE":" ","ALLEY":" ","HOUSE_NO":"１２１號","E_COORD97":169507.70999999999,"N_COORD97":2543974.6699999999,"ADDRESS":"育樂街１２１號","OBJECTID":620652},"geometry":{"x":169507.71000000089,"y":2543974.6699999999}},{"attributes":{"ID":620680,"DIS_CODE":0,"TOWNNAME":"東區","LI":"成大里","LIN":"24鄰","STREET":"育樂街","SECT":" ","MAREA":" ","LANE":" ","ALLEY":" ","HOUSE_NO":"１２３號","E_COORD97":169507.54000000001,"N_COORD97":2543969.4199999999,"ADDRESS":"育樂街１２３號","OBJECTID":620653},"geometry":{"x":169507.54000000004,"y":2543969.4199999999}},{"attributes":{"ID":620681,"DIS_CODE":0,"TOWNNAME":"東區","LI":"成大里","LIN":"24鄰","STREET":"育樂街","SECT":" ","MAREA":" ","LANE":" ","ALLEY":" ","HOUSE_NO":"１２５號","E_COORD97":169506.85999999999,"N_COORD97":2543964.3399999999,"ADDRESS":"育樂街１２５號","OBJECTID":620654},"geometry":{"x":169506.86000000127,"y":2543964.3400000036}},{"attributes":{"ID":620682,"DIS_CODE":0,"TOWNNAME":"東區","LI":"成大里","LIN":"24鄰","STREET":"育樂街","SECT":" ","MAREA":" ","LANE":" ","ALLEY":" ","HOUSE_NO":"１２７號","E_COORD97":169506.35999999999,"N_COORD97":2543960.6099999999,"ADDRESS":"育樂街１２７號","OBJECTID":620655},"geometry":{"x":169506.3600000022,"y":2543960.6099999994}},{"attributes":{"ID":620683,"DIS_CODE":0,"TOWNNAME":"東區","LI":"成大里","LIN":"24鄰","STREET":"育樂街","SECT":" ","MAREA":" ","LANE":" ","ALLEY":" ","HOUSE_NO":"１２９號","E_COORD97":169506.69,"N_COORD97":2543957.2200000002,"ADDRESS":"育樂街１２９號","OBJECTID":620656},"geometry":{"x":169506.69000000134,"y":2543957.2200000025}},{"attributes":{"ID":620684,"DIS_CODE":0,"TOWNNAME":"東區","LI":"成大里","LIN":"24鄰","STREET":"育樂街","SECT":" ","MAREA":" ","LANE":" ","ALLEY":" ","HOUSE_NO":"１３１號","E_COORD97":169506.19,"N_COORD97":2543952.8100000001,"ADDRESS":"育樂街１３１號","OBJECTID":620657},"geometry":{"x":169506.19000000134,"y":2543952.8100000024}},{"attributes":{"ID":620685,"DIS_CODE":0,"TOWNNAME":"東區","LI":"虎尾里","LIN":"19鄰","STREET":"東成街","SECT":" ","MAREA":" ","LANE":" ","ALLEY":" ","HOUSE_NO":"８號","E_COORD97":171251.60000000001,"N_COORD97":2542233.0499999998,"ADDRESS":"東成街８號","OBJECTID":620658},"geometry":{"x":171251.5999999987,"y":2542233.0500000007}},{"attributes":{"ID":620686,"DIS_CODE":0,"TOWNNAME":"東區","LI":"成大里","LIN":"24鄰","STREET":"育樂街","SECT":" ","MAREA":" ","LANE":" ","ALLEY":" ","HOUSE_NO":"１３３號","E_COORD97":169505.51000000001,"N_COORD97":2543948.0699999998,"ADDRESS":"育樂街１３３號","OBJECTID":620659},"geometry":{"x":169505.51000000071,"y":2543948.0700000003}},{"attributes":{"ID":620687,"DIS_CODE":0,"TOWNNAME":"東區","LI":"成大里","LIN":"24鄰","STREET":"育樂街","SECT":" ","MAREA":" ","LANE":" ","ALLEY":" ","HOUSE_NO":"１３５號","E_COORD97":169505.17000000001,"N_COORD97":2543942.8100000001,"ADDRESS":"育樂街１３５號","OBJECTID":620660},"geometry":{"x":169505.16999999993,"y":2543942.8100000024}},{"attributes":{"ID":620688,"DIS_CODE":0,"TOWNNAME":"東區","LI":"成大里","LIN":"24鄰","STREET":"育樂街","SECT":" ","MAREA":" ","LANE":" ","ALLEY":" ","HOUSE_NO":"１３７號","E_COORD97":169505.17000000001,"N_COORD97":2543938.5800000001,"ADDRESS":"育樂街１３７號","OBJECTID":620661},"geometry":{"x":169505.16999999993,"y":2543938.5800000001}},{"attributes":{"ID":620689,"DIS_CODE":0,"TOWNNAME":"東區","LI":"成大里","LIN":"19鄰","STREET":"勝利路","SECT":" ","MAREA":" ","LANE":" ","ALLEY":" ","HOUSE_NO":"１０３號","E_COORD97":169818.09,"N_COORD97":2543841.3300000001,"ADDRESS":"勝利路１０３號","OBJECTID":620662},"geometry":{"x":169818.09000000078,"y":2543841.3300000001}},{"attributes":{"ID":620690,"DIS_CODE":0,"TOWNNAME":"東區","LI":"成大里","LIN":"19鄰","STREET":"勝利路","SECT":" ","MAREA":" ","LANE":" ","ALLEY":" ","HOUSE_NO":"１０３號之２","E_COORD97":169792.47,"N_COORD97":2543866.5099999998,"ADDRESS":"勝利路１０３號之２","OBJECTID":620663},"geometry":{"x":169792.46999999974,"y":2543866.5099999998}},{"attributes":{"ID":620691,"DIS_CODE":0,"TOWNNAME":"東區","LI":"成大里","LIN":"19鄰","STREET":"勝利路","SECT":" ","MAREA":" ","LANE":" ","ALLEY":" ","HOUSE_NO":"１０５號","E_COORD97":169818.47,"N_COORD97":2543848.2000000002,"ADDRESS":"勝利路１０５號","OBJECTID":620664},"geometry":{"x":169818.46999999881,"y":2543848.1999999993}},{"attributes":{"ID":620692,"DIS_CODE":0,"TOWNNAME":"東區","LI":"成大里","LIN":"19鄰","STREET":"勝利路","SECT":" ","MAREA":" ","LANE":" ","ALLEY":" ","HOUSE_NO":"１０７號","E_COORD97":169819.42000000001,"N_COORD97":2543854.3100000001,"ADDRESS":"勝利路１０７號","OBJECTID":620665},"geometry":{"x":169819.42000000086,"y":2543854.3100000024}},{"attributes":{"ID":620693,"DIS_CODE":0,"TOWNNAME":"東區","LI":"成大里","LIN":"19鄰","STREET":"勝利路","SECT":" ","MAREA":" ","LANE":" ","ALLEY":" ","HOUSE_NO":"１０９號","E_COORD97":169820.19,"N_COORD97":2543858.5099999998,"ADDRESS":"勝利路１０９號","OBJECTID":620666},"geometry":{"x":169820.19000000134,"y":2543858.5100000016}},{"attributes":{"ID":620694,"DIS_CODE":0,"TOWNNAME":"東區","LI":"成大里","LIN":"19鄰","STREET":"勝利路","SECT":" ","MAREA":" ","LANE":" ","ALLEY":" ","HOUSE_NO":"１１１號","E_COORD97":169820.38,"N_COORD97":2543863.0899999999,"ADDRESS":"勝利路１１１號","OBJECTID":620667},"geometry":{"x":169820.37999999989,"y":2543863.0899999999}},{"attributes":{"ID":620695,"DIS_CODE":0,"TOWNNAME":"東區","LI":"成大里","LIN":"19鄰","STREET":"勝利路","SECT":" ","MAREA":" ","LANE":" ","ALLEY":" ","HOUSE_NO":"１１１號之１","E_COORD97":169820.57000000001,"N_COORD97":2543867.48,"ADDRESS":"勝利路１１１號之１","OBJECTID":620668},"geometry":{"x":169820.57000000123,"y":2543867.4800000004}},{"attributes":{"ID":620696,"DIS_CODE":0,"TOWNNAME":"東區","LI":"成大里","LIN":"19鄰","STREET":"勝利路","SECT":" ","MAREA":" ","LANE":" ","ALLEY":" ","HOUSE_NO":"１１３號","E_COORD97":169820.38,"N_COORD97":2543871.8700000001,"ADDRESS":"勝利路１１３號","OBJECTID":620669},"geometry":{"x":169820.37999999989,"y":2543871.8700000029}},{"attributes":{"ID":620697,"DIS_CODE":0,"TOWNNAME":"東區","LI":"成大里","LIN":"19鄰","STREET":"勝利路","SECT":" ","MAREA":" ","LANE":" ","ALLEY":" ","HOUSE_NO":"１１５號","E_COORD97":169820.38,"N_COORD97":2543885.6099999999,"ADDRESS":"勝利路１１５號","OBJECTID":620670},"geometry":{"x":169820.37999999989,"y":2543885.6099999994}},{"attributes":{"ID":620698,"DIS_CODE":0,"TOWNNAME":"東區","LI":"成大里","LIN":"19鄰","STREET":"勝利路","SECT":" ","MAREA":" ","LANE":" ","ALLEY":" ","HOUSE_NO":"１１７號","E_COORD97":169821.53,"N_COORD97":2543897.79,"ADDRESS":"勝利路１１７號","OBJECTID":620671},"geometry":{"x":169821.53000000026,"y":2543897.7899999991}},{"attributes":{"ID":620699,"DIS_CODE":0,"TOWNNAME":"東區","LI":"成大里","LIN":"19鄰","STREET":"勝利路","SECT":" ","MAREA":" ","LANE":" ","ALLEY":" ","HOUSE_NO":"１１９號","E_COORD97":169823.82000000001,"N_COORD97":2543906.1899999999,"ADDRESS":"勝利路１１９號","OBJECTID":620672},"geometry":{"x":169823.82000000123,"y":2543906.1899999995}},{"attributes":{"ID":620700,"DIS_CODE":0,"TOWNNAME":"東區","LI":"成大里","LIN":"19鄰","STREET":"勝利路","SECT":" ","MAREA":" ","LANE":" ","ALLEY":" ","HOUSE_NO":"１２１號","E_COORD97":169824.39999999999,"N_COORD97":2543913.8300000001,"ADDRESS":"勝利路１２１號","OBJECTID":620673},"geometry":{"x":169824.40000000037,"y":2543913.8300000038}},{"attributes":{"ID":620701,"DIS_CODE":0,"TOWNNAME":"東區","LI":"成大里","LIN":"21鄰","STREET":"育樂街","SECT":" ","MAREA":" ","LANE":" ","ALLEY":" ","HOUSE_NO":"３５號之３７","E_COORD97":169769.53,"N_COORD97":2543906.3799999999,"ADDRESS":"育樂街３５號之３７","OBJECTID":620674},"geometry":{"x":169769.53000000212,"y":2543906.3800000008}},{"attributes":{"ID":620702,"DIS_CODE":0,"TOWNNAME":"東區","LI":"成大里","LIN":"21鄰","STREET":"育樂街","SECT":" ","MAREA":" ","LANE":" ","ALLEY":" ","HOUSE_NO":"３５號之３８","E_COORD97":169767.42999999999,"N_COORD97":2543915.5499999998,"ADDRESS":"育樂街３５號之３８","OBJECTID":620675},"geometry":{"x":169767.4299999997,"y":2543915.5500000007}},{"attributes":{"ID":620703,"DIS_CODE":0,"TOWNNAME":"東區","LI":"成大里","LIN":"21鄰","STREET":"育樂街","SECT":" ","MAREA":" ","LANE":" ","ALLEY":" ","HOUSE_NO":"３５號之３９","E_COORD97":169772.01999999999,"N_COORD97":2543915.5499999998,"ADDRESS":"育樂街３５號之３９","OBJECTID":620676},"geometry":{"x":169772.01999999955,"y":2543915.5500000007}},{"attributes":{"ID":620704,"DIS_CODE":0,"TOWNNAME":"東區","LI":"成大里","LIN":"21鄰","STREET":"育樂街","SECT":" ","MAREA":" ","LANE":" ","ALLEY":" ","HOUSE_NO":"３５號之４０","E_COORD97":169776.41,"N_COORD97":2543914.7799999998,"ADDRESS":"育樂街３５號之４０","OBJECTID":620677},"geometry":{"x":169776.41000000015,"y":2543914.7800000012}},{"attributes":{"ID":620705,"DIS_CODE":0,"TOWNNAME":"東區","LI":"成大里","LIN":"21鄰","STREET":"育樂街","SECT":" ","MAREA":" ","LANE":" ","ALLEY":" ","HOUSE_NO":"３５號之４１","E_COORD97":169749.45999999999,"N_COORD97":2543934.25,"ADDRESS":"育樂街３５號之４１","OBJECTID":620678},"geometry":{"x":169749.46000000183,"y":2543934.2499999981}},{"attributes":{"ID":620706,"DIS_CODE":0,"TOWNNAME":"東區","LI":"成大里","LIN":"21鄰","STREET":"育樂街","SECT":" ","MAREA":" ","LANE":" ","ALLEY":" ","HOUSE_NO":"３５號之４２","E_COORD97":169753.09,"N_COORD97":2543933.2999999998,"ADDRESS":"育樂街３５號之４２","OBJECTID":620679},"geometry":{"x":169753.08999999985,"y":2543933.3000000007}},{"attributes":{"ID":620707,"DIS_CODE":0,"TOWNNAME":"東區","LI":"成大里","LIN":"21鄰","STREET":"育樂街","SECT":" ","MAREA":" ","LANE":" ","ALLEY":" ","HOUSE_NO":"３５號之４３","E_COORD97":169757.67999999999,"N_COORD97":2543932.73,"ADDRESS":"育樂街３５號之４３","OBJECTID":620680},"geometry":{"x":169757.67999999877,"y":2543932.7300000023}},{"attributes":{"ID":620708,"DIS_CODE":0,"TOWNNAME":"東區","LI":"成大里","LIN":"21鄰","STREET":"育樂街","SECT":" ","MAREA":" ","LANE":" ","ALLEY":" ","HOUSE_NO":"３７號","E_COORD97":169715.64999999999,"N_COORD97":2543964.5600000001,"ADDRESS":"育樂街３７號","OBJECTID":620681},"geometry":{"x":169715.65000000037,"y":2543964.5600000024}},{"attributes":{"ID":620709,"DIS_CODE":0,"TOWNNAME":"東區","LI":"成大里","LIN":"25鄰","STREET":"育樂街","SECT":" ","MAREA":" ","LANE":" ","ALLEY":" ","HOUSE_NO":"１０５之１號","E_COORD97":169534.45000000001,"N_COORD97":2544018.3599999999,"ADDRESS":"育樂街１０５之１號","OBJECTID":620682},"geometry":{"x":169534.45000000205,"y":2544018.3600000013}},{"attributes":{"ID":620710,"DIS_CODE":0,"TOWNNAME":"東區","LI":"成大里","LIN":"25鄰","STREET":"育樂街","SECT":" ","MAREA":" ","LANE":" ","ALLEY":" ","HOUSE_NO":"１０５號","E_COORD97":169538.87,"N_COORD97":2544018,"ADDRESS":"育樂街１０５號","OBJECTID":620683},"geometry":{"x":169538.87000000104,"y":2544018.0000000019}},{"attributes":{"ID":620711,"DIS_CODE":0,"TOWNNAME":"東區","LI":"成大里","LIN":"25鄰","STREET":"育樂街","SECT":" ","MAREA":" ","LANE":" ","ALLEY":" ","HOUSE_NO":"７９號","E_COORD97":169616.5,"N_COORD97":2544007.8700000001,"ADDRESS":"育樂街７９號","OBJECTID":620684},"geometry":{"x":169616.5,"y":2544007.870000001}},{"attributes":{"ID":620712,"DIS_CODE":0,"TOWNNAME":"東區","LI":"成大里","LIN":"25鄰","STREET":"育樂街","SECT":" ","MAREA":" ","LANE":" ","ALLEY":" ","HOUSE_NO":"８１號","E_COORD97":169612.64999999999,"N_COORD97":2544009.1499999999,"ADDRESS":"育樂街８１號","OBJECTID":620685},"geometry":{"x":169612.65000000037,"y":2544009.1500000004}},{"attributes":{"ID":620713,"DIS_CODE":0,"TOWNNAME":"東區","LI":"成大里","LIN":"25鄰","STREET":"育樂街","SECT":" ","MAREA":" ","LANE":" ","ALLEY":" ","HOUSE_NO":"８３號","E_COORD97":169608.59,"N_COORD97":2544009.79,"ADDRESS":"育樂街８３號","OBJECTID":620686},"geometry":{"x":169608.58999999985,"y":2544009.7899999991}},{"attributes":{"ID":620714,"DIS_CODE":0,"TOWNNAME":"東區","LI":"成大里","LIN":"25鄰","STREET":"育樂街","SECT":" ","MAREA":" ","LANE":" ","ALLEY":" ","HOUSE_NO":"８５號","E_COORD97":169606.25,"N_COORD97":2544010.6200000001,"ADDRESS":"育樂街８５號","OBJECTID":620687},"geometry":{"x":169606.25,"y":2544010.620000001}},{"attributes":{"ID":620715,"DIS_CODE":0,"TOWNNAME":"東區","LI":"成大里","LIN":"25鄰","STREET":"育樂街","SECT":" ","MAREA":" ","LANE":" ","ALLEY":" ","HOUSE_NO":"８７號","E_COORD97":169603.47,"N_COORD97":2544009.52,"ADDRESS":"育樂街８７號","OBJECTID":620688},"geometry":{"x":169603.47000000067,"y":2544009.5199999996}},{"attributes":{"ID":620716,"DIS_CODE":0,"TOWNNAME":"東區","LI":"成大里","LIN":"25鄰","STREET":"育樂街","SECT":" ","MAREA":" ","LANE":" ","ALLEY":" ","HOUSE_NO":"８９號","E_COORD97":169598.38,"N_COORD97":2544010.8700000001,"ADDRESS":"育樂街８９號","OBJECTID":620689},"geometry":{"x":169598.37999999989,"y":2544010.8700000029}},{"attributes":{"ID":620717,"DIS_CODE":0,"TOWNNAME":"東區","LI":"成大里","LIN":"25鄰","STREET":"育樂街","SECT":" ","MAREA":" ","LANE":" ","ALLEY":" ","HOUSE_NO":"９１號","E_COORD97":169593,"N_COORD97":2544012.3500000001,"ADDRESS":"育樂街９１號","OBJECTID":620690},"geometry":{"x":169593,"y":2544012.3500000015}},{"attributes":{"ID":620718,"DIS_CODE":0,"TOWNNAME":"東區","LI":"成大里","LIN":"25鄰","STREET":"育樂街","SECT":" ","MAREA":" ","LANE":" ","ALLEY":" ","HOUSE_NO":"９３號","E_COORD97":169585.53,"N_COORD97":2544012.75,"ADDRESS":"育樂街９３號","OBJECTID":620691},"geometry":{"x":169585.53000000119,"y":2544012.7500000019}},{"attributes":{"ID":620719,"DIS_CODE":0,"TOWNNAME":"東區","LI":"成大里","LIN":"25鄰","STREET":"育樂街","SECT":" ","MAREA":" ","LANE":" ","ALLEY":" ","HOUSE_NO":"９５之１號","E_COORD97":169575.39999999999,"N_COORD97":2544014.21,"ADDRESS":"育樂街９５之１號","OBJECTID":620692},"geometry":{"x":169575.40000000037,"y":2544014.2100000028}},{"attributes":{"ID":620720,"DIS_CODE":0,"TOWNNAME":"東區","LI":"成大里","LIN":"25鄰","STREET":"育樂街","SECT":" ","MAREA":" ","LANE":" ","ALLEY":" ","HOUSE_NO":"９５號","E_COORD97":169580.44,"N_COORD97":2544013.3300000001,"ADDRESS":"育樂街９５號","OBJECTID":620693},"geometry":{"x":169580.44000000227,"y":2544013.3300000019}},{"attributes":{"ID":620721,"DIS_CODE":0,"TOWNNAME":"東區","LI":"成大里","LIN":"25鄰","STREET":"育樂街","SECT":" ","MAREA":" ","LANE":" ","ALLEY":" ","HOUSE_NO":"９７號","E_COORD97":169567.45999999999,"N_COORD97":2544014.6899999999,"ADDRESS":"育樂街９７號","OBJECTID":620694},"geometry":{"x":169567.45999999996,"y":2544014.6899999995}},{"attributes":{"ID":620722,"DIS_CODE":0,"TOWNNAME":"東區","LI":"成大里","LIN":"24鄰","STREET":"育樂街","SECT":" ","MAREA":" ","LANE":" ","ALLEY":" ","HOUSE_NO":"１０７號","E_COORD97":169530.14999999999,"N_COORD97":2544018.5,"ADDRESS":"育樂街１０７號","OBJECTID":620695},"geometry":{"x":169530.1500000013,"y":2544018.5000000019}},{"attributes":{"ID":620723,"DIS_CODE":0,"TOWNNAME":"東區","LI":"崇德里","LIN":"12鄰","STREET":"崇道路","SECT":" ","MAREA":" ","LANE":" ","ALLEY":" ","HOUSE_NO":"１３９號","E_COORD97":170961.14999999999,"N_COORD97":2541424.1099999999,"ADDRESS":"崇道路１３９號","OBJECTID":620696},"geometry":{"x":170961.1500000013,"y":2541424.1100000013}},{"attributes":{"ID":620724,"DIS_CODE":0,"TOWNNAME":"東區","LI":"大同里","LIN":"16鄰","STREET":"大同路","SECT":"一段","MAREA":" ","LANE":" ","ALLEY":" ","HOUSE_NO":"１６１號","E_COORD97":169142.72,"N_COORD97":2542846.6099999999,"ADDRESS":"大同路一段１６１號","OBJECTID":620697},"geometry":{"x":169142.72000000067,"y":2542846.6100000031}},{"attributes":{"ID":620725,"DIS_CODE":0,"TOWNNAME":"東區","LI":"大同里","LIN":"16鄰","STREET":"大同路","SECT":"一段","MAREA":" ","LANE":" ","ALLEY":" ","HOUSE_NO":"１６３號","E_COORD97":169142.51999999999,"N_COORD97":2542842.5499999998,"ADDRESS":"大同路一段１６３號","OBJECTID":620698},"geometry":{"x":169142.51999999955,"y":2542842.5500000026}},{"attributes":{"ID":620726,"DIS_CODE":0,"TOWNNAME":"東區","LI":"大同里","LIN":"16鄰","STREET":"大同路","SECT":"一段","MAREA":" ","LANE":" ","ALLEY":" ","HOUSE_NO":"１７３號","E_COORD97":169144.26999999999,"N_COORD97":2542799.6099999999,"ADDRESS":"大同路一段１７３號","OBJECTID":620699},"geometry":{"x":169144.26999999955,"y":2542799.6100000013}},{"attributes":{"ID":620727,"DIS_CODE":0,"TOWNNAME":"東區","LI":"大同里","LIN":"16鄰","STREET":"大同路","SECT":"一段","MAREA":" ","LANE":" ","ALLEY":" ","HOUSE_NO":"１７３號地下一層","E_COORD97":169144.26999999999,"N_COORD97":2542799.6099999999,"ADDRESS":"大同路一段１７３號地下一層","OBJECTID":620700},"geometry":{"x":169144.26999999955,"y":2542799.6100000013}},{"attributes":{"ID":620728,"DIS_CODE":0,"TOWNNAME":"東區","LI":"大同里","LIN":"16鄰","STREET":"大同路","SECT":"一段","MAREA":" ","LANE":" ","ALLEY":" ","HOUSE_NO":"１７３號地下二層","E_COORD97":169144.26999999999,"N_COORD97":2542799.6099999999,"ADDRESS":"大同路一段１７３號地下二層","OBJECTID":620701},"geometry":{"x":169144.26999999955,"y":2542799.6100000013}},{"attributes":{"ID":620729,"DIS_CODE":0,"TOWNNAME":"東區","LI":"大同里","LIN":"16鄰","STREET":"大同路","SECT":"一段","MAREA":" ","LANE":" ","ALLEY":" ","HOUSE_NO":"１６５號","E_COORD97":169141.82999999999,"N_COORD97":2542836.5499999998,"ADDRESS":"大同路一段１６５號","OBJECTID":620702},"geometry":{"x":169141.83000000194,"y":2542836.5500000007}},{"attributes":{"ID":620730,"DIS_CODE":0,"TOWNNAME":"東區","LI":"大同里","LIN":"16鄰","STREET":"府連路","SECT":" ","MAREA":" ","LANE":" ","ALLEY":" ","HOUSE_NO":"１４８號","E_COORD97":169161.25,"N_COORD97":2542811.8199999998,"ADDRESS":"府連路１４８號","OBJECTID":620703},"geometry":{"x":169161.25000000093,"y":2542811.8199999984}},{"attributes":{"ID":620731,"DIS_CODE":0,"TOWNNAME":"東區","LI":"大同里","LIN":"16鄰","STREET":"府連路","SECT":" ","MAREA":" ","LANE":" ","ALLEY":" ","HOUSE_NO":"１４９號","E_COORD97":169147.54999999999,"N_COORD97":2542832.4900000002,"ADDRESS":"府連路１４９號","OBJECTID":620704},"geometry":{"x":169147.55000000075,"y":2542832.4900000021}},{"attributes":{"ID":620732,"DIS_CODE":0,"TOWNNAME":"東區","LI":"大同里","LIN":"16鄰","STREET":"府連路","SECT":" ","MAREA":" ","LANE":" ","ALLEY":" ","HOUSE_NO":"１５１號","E_COORD97":169158.09,"N_COORD97":2542839.4700000002,"ADDRESS":"府連路１５１號","OBJECTID":620705},"geometry":{"x":169158.08999999985,"y":2542839.4700000025}},{"attributes":{"ID":620733,"DIS_CODE":0,"TOWNNAME":"東區","LI":"大同里","LIN":"16鄰","STREET":"府連路","SECT":" ","MAREA":" ","LANE":" ","ALLEY":" ","HOUSE_NO":"１５２號","E_COORD97":169171.01000000001,"N_COORD97":2542811.8199999998,"ADDRESS":"府連路１５２號","OBJECTID":620706},"geometry":{"x":169171.01000000071,"y":2542811.8199999984}},{"attributes":{"ID":620734,"DIS_CODE":0,"TOWNNAME":"東區","LI":"大同里","LIN":"16鄰","STREET":"府連路","SECT":" ","MAREA":" ","LANE":" ","ALLEY":" ","HOUSE_NO":"１５３號","E_COORD97":169165.45999999999,"N_COORD97":2542838.71,"ADDRESS":"府連路１５３號","OBJECTID":620707},"geometry":{"x":169165.45999999996,"y":2542838.7100000028}},{"attributes":{"ID":620735,"DIS_CODE":0,"TOWNNAME":"東區","LI":"大同里","LIN":"16鄰","STREET":"府連路","SECT":" ","MAREA":" ","LANE":" ","ALLEY":" ","HOUSE_NO":"１５０號","E_COORD97":169163.41,"N_COORD97":2542807.2599999998,"ADDRESS":"府連路１５０號","OBJECTID":620708},"geometry":{"x":169163.41000000201,"y":2542807.2599999998}},{"attributes":{"ID":620736,"DIS_CODE":0,"TOWNNAME":"東區","LI":"大同里","LIN":"17鄰","STREET":"府連路","SECT":" ","MAREA":" ","LANE":" ","ALLEY":" ","HOUSE_NO":"１９０號之１","E_COORD97":169271.10999999999,"N_COORD97":2542834.8399999999,"ADDRESS":"府連路１９０號之１","OBJECTID":620709},"geometry":{"x":169271.11000000127,"y":2542834.8399999999}},{"attributes":{"ID":620737,"DIS_CODE":0,"TOWNNAME":"東區","LI":"大同里","LIN":"17鄰","STREET":"府連路","SECT":" ","MAREA":" ","LANE":" ","ALLEY":" ","HOUSE_NO":"１９０號之２","E_COORD97":169276.67999999999,"N_COORD97":2542830.9100000001,"ADDRESS":"府連路１９０號之２","OBJECTID":620710},"geometry":{"x":169276.68000000063,"y":2542830.9100000001}},{"attributes":{"ID":620738,"DIS_CODE":0,"TOWNNAME":"東區","LI":"大同里","LIN":"17鄰","STREET":"府連路","SECT":" ","MAREA":" ","LANE":" ","ALLEY":" ","HOUSE_NO":"１９０號地下層","E_COORD97":169268.48999999999,"N_COORD97":2542827.48,"ADDRESS":"府連路１９０號地下層","OBJECTID":620711},"geometry":{"x":169268.49000000115,"y":2542827.4800000004}},{"attributes":{"ID":620739,"DIS_CODE":0,"TOWNNAME":"東區","LI":"大同里","LIN":"17鄰","STREET":"府連路","SECT":" ","MAREA":" ","LANE":" ","ALLEY":" ","HOUSE_NO":"１９０號地下層之１","E_COORD97":169268.48999999999,"N_COORD97":2542827.48,"ADDRESS":"府連路１９０號地下層之１","OBJECTID":620712},"geometry":{"x":169268.49000000115,"y":2542827.4800000004}},{"attributes":{"ID":620740,"DIS_CODE":0,"TOWNNAME":"東區","LI":"大同里","LIN":"17鄰","STREET":"府連路","SECT":" ","MAREA":" ","LANE":" ","ALLEY":" ","HOUSE_NO":"１９０號地下層之２","E_COORD97":169268.48999999999,"N_COORD97":2542827.48,"ADDRESS":"府連路１９０號地下層之２","OBJECTID":620713},"geometry":{"x":169268.49000000115,"y":2542827.4800000004}},{"attributes":{"ID":620741,"DIS_CODE":0,"TOWNNAME":"東區","LI":"大同里","LIN":"17鄰","STREET":"府連路","SECT":" ","MAREA":" ","LANE":" ","ALLEY":" ","HOUSE_NO":"１９０號地下層之３","E_COORD97":169268.48999999999,"N_COORD97":2542827.48,"ADDRESS":"府連路１９０號地下層之３","OBJECTID":620714},"geometry":{"x":169268.49000000115,"y":2542827.4800000004}},{"attributes":{"ID":620742,"DIS_CODE":0,"TOWNNAME":"東區","LI":"大同里","LIN":"17鄰","STREET":"府連路","SECT":" ","MAREA":" ","LANE":" ","ALLEY":" ","HOUSE_NO":"１９０號地下層之４","E_COORD97":169268.48999999999,"N_COORD97":2542827.48,"ADDRESS":"府連路１９０號地下層之４","OBJECTID":620715},"geometry":{"x":169268.49000000115,"y":2542827.4800000004}},{"attributes":{"ID":620743,"DIS_CODE":0,"TOWNNAME":"東區","LI":"大同里","LIN":"17鄰","STREET":"府連路","SECT":" ","MAREA":" ","LANE":" ","ALLEY":" ","HOUSE_NO":"１９０號地下層之５","E_COORD97":169268.48999999999,"N_COORD97":2542827.48,"ADDRESS":"府連路１９０號地下層之５","OBJECTID":620716},"geometry":{"x":169268.49000000115,"y":2542827.4800000004}},{"attributes":{"ID":620744,"DIS_CODE":0,"TOWNNAME":"東區","LI":"大同里","LIN":"17鄰","STREET":"府連路","SECT":" ","MAREA":" ","LANE":" ","ALLEY":" ","HOUSE_NO":"１９０號地下層之６","E_COORD97":169268.48999999999,"N_COORD97":2542827.48,"ADDRESS":"府連路１９０號地下層之６","OBJECTID":620717},"geometry":{"x":169268.49000000115,"y":2542827.4800000004}},{"attributes":{"ID":620745,"DIS_CODE":0,"TOWNNAME":"東區","LI":"大同里","LIN":"17鄰","STREET":"府連路","SECT":" ","MAREA":" ","LANE":" ","ALLEY":" ","HOUSE_NO":"１９２號","E_COORD97":169280.76999999999,"N_COORD97":2542833.2000000002,"ADDRESS":"府連路１９２號","OBJECTID":620718},"geometry":{"x":169280.77000000142,"y":2542833.2000000011}},{"attributes":{"ID":620746,"DIS_CODE":0,"TOWNNAME":"東區","LI":"大同里","LIN":"17鄰","STREET":"府連路","SECT":" ","MAREA":" ","LANE":" ","ALLEY":" ","HOUSE_NO":"１９６號","E_COORD97":169289.62,"N_COORD97":2542835.6600000001,"ADDRESS":"府連路１９６號","OBJECTID":620719},"geometry":{"x":169289.62000000104,"y":2542835.6600000001}},{"attributes":{"ID":620747,"DIS_CODE":0,"TOWNNAME":"東區","LI":"大同里","LIN":"17鄰","STREET":"府連路","SECT":" ","MAREA":" ","LANE":" ","ALLEY":" ","HOUSE_NO":"２０６號","E_COORD97":169313,"N_COORD97":2542839.9100000001,"ADDRESS":"府連路２０６號","OBJECTID":620720},"geometry":{"x":169313,"y":2542839.910000002}},{"attributes":{"ID":620748,"DIS_CODE":0,"TOWNNAME":"東區","LI":"大同里","LIN":"17鄰","STREET":"府連路","SECT":" ","MAREA":" ","LANE":" ","ALLEY":" ","HOUSE_NO":"２０８號","E_COORD97":169319.06,"N_COORD97":2542847.6099999999,"ADDRESS":"府連路２０８號","OBJECTID":620721},"geometry":{"x":169319.05999999959,"y":2542847.6100000013}},{"attributes":{"ID":620749,"DIS_CODE":0,"TOWNNAME":"東區","LI":"大同里","LIN":"17鄰","STREET":"府連路","SECT":" ","MAREA":" ","LANE":" ","ALLEY":" ","HOUSE_NO":"２１２號","E_COORD97":169325.28,"N_COORD97":2542848.2599999998,"ADDRESS":"府連路２１２號","OBJECTID":620722},"geometry":{"x":169325.28000000026,"y":2542848.2599999998}},{"attributes":{"ID":620750,"DIS_CODE":0,"TOWNNAME":"東區","LI":"大同里","LIN":"17鄰","STREET":"府連路","SECT":" ","MAREA":" ","LANE":" ","ALLEY":" ","HOUSE_NO":"２１４號","E_COORD97":169329.20999999999,"N_COORD97":2542850.2200000002,"ADDRESS":"府連路２１４號","OBJECTID":620723},"geometry":{"x":169329.21000000089,"y":2542850.2199999988}},{"attributes":{"ID":620751,"DIS_CODE":0,"TOWNNAME":"東區","LI":"大同里","LIN":"17鄰","STREET":"府連路","SECT":" ","MAREA":" ","LANE":" ","ALLEY":" ","HOUSE_NO":"２１６號","E_COORD97":169333.95999999999,"N_COORD97":2542850.3900000001,"ADDRESS":"府連路２１６號","OBJECTID":620724},"geometry":{"x":169333.95999999903,"y":2542850.3900000025}},{"attributes":{"ID":620752,"DIS_CODE":0,"TOWNNAME":"東區","LI":"大同里","LIN":"17鄰","STREET":"府連路","SECT":" ","MAREA":" ","LANE":" ","ALLEY":" ","HOUSE_NO":"２１８號","E_COORD97":169338.88,"N_COORD97":2542849.73,"ADDRESS":"府連路２１８號","OBJECTID":620725},"geometry":{"x":169338.87999999989,"y":2542849.7300000004}},{"attributes":{"ID":620753,"DIS_CODE":0,"TOWNNAME":"東區","LI":"大同里","LIN":"17鄰","STREET":"府連路","SECT":" ","MAREA":" ","LANE":" ","ALLEY":" ","HOUSE_NO":"２２０號","E_COORD97":169341.32999999999,"N_COORD97":2542854.3100000001,"ADDRESS":"府連路２２０號","OBJECTID":620726},"geometry":{"x":169341.33000000007,"y":2542854.3100000024}},{"attributes":{"ID":620754,"DIS_CODE":0,"TOWNNAME":"東區","LI":"大同里","LIN":"17鄰","STREET":"府連路","SECT":" ","MAREA":" ","LANE":" ","ALLEY":" ","HOUSE_NO":"２２２號","E_COORD97":169344.28,"N_COORD97":2542850.2200000002,"ADDRESS":"府連路２２２號","OBJECTID":620727},"geometry":{"x":169344.28000000119,"y":2542850.2199999988}},{"attributes":{"ID":620755,"DIS_CODE":0,"TOWNNAME":"東區","LI":"大同里","LIN":"17鄰","STREET":"府連路","SECT":" ","MAREA":" ","LANE":" ","ALLEY":" ","HOUSE_NO":"２２４號","E_COORD97":169346.89999999999,"N_COORD97":2542855.6200000001,"ADDRESS":"府連路２２４號","OBJECTID":620728},"geometry":{"x":169346.9000000013,"y":2542855.6200000029}},{"attributes":{"ID":620756,"DIS_CODE":0,"TOWNNAME":"東區","LI":"大同里","LIN":"15鄰","STREET":"府連路","SECT":" ","MAREA":" ","LANE":" ","ALLEY":" ","HOUSE_NO":"１７７號","E_COORD97":169247.16,"N_COORD97":2542865.9199999999,"ADDRESS":"府連路１７７號","OBJECTID":620729},"geometry":{"x":169247.16000000108,"y":2542865.9200000018}},{"attributes":{"ID":620757,"DIS_CODE":0,"TOWNNAME":"東區","LI":"大同里","LIN":"15鄰","STREET":"府連路","SECT":" ","MAREA":" ","LANE":" ","ALLEY":" ","HOUSE_NO":"１７９號","E_COORD97":169251.72,"N_COORD97":2542866.8300000001,"ADDRESS":"府連路１７９號","OBJECTID":620730},"geometry":{"x":169251.71999999974,"y":2542866.8300000019}},{"attributes":{"ID":620758,"DIS_CODE":0,"TOWNNAME":"東區","LI":"大同里","LIN":"15鄰","STREET":"府連路","SECT":" ","MAREA":" ","LANE":" ","ALLEY":" ","HOUSE_NO":"１８５號","E_COORD97":169273.45000000001,"N_COORD97":2542861.8399999999,"ADDRESS":"府連路１８５號","OBJECTID":620731},"geometry":{"x":169273.45000000205,"y":2542861.8399999999}},{"attributes":{"ID":620759,"DIS_CODE":0,"TOWNNAME":"東區","LI":"大同里","LIN":"15鄰","STREET":"府連路","SECT":" ","MAREA":" ","LANE":" ","ALLEY":" ","HOUSE_NO":"１９１號","E_COORD97":169282.79999999999,"N_COORD97":2542865.4199999999,"ADDRESS":"府連路１９１號","OBJECTID":620732},"geometry":{"x":169282.80000000075,"y":2542865.4200000037}},{"attributes":{"ID":620760,"DIS_CODE":0,"TOWNNAME":"東區","LI":"大同里","LIN":"15鄰","STREET":"府連路","SECT":" ","MAREA":" ","LANE":" ","ALLEY":" ","HOUSE_NO":"１９３號","E_COORD97":169286.67999999999,"N_COORD97":2542869.9900000002,"ADDRESS":"府連路１９３號","OBJECTID":620733},"geometry":{"x":169286.68000000063,"y":2542869.9900000021}},{"attributes":{"ID":620761,"DIS_CODE":0,"TOWNNAME":"東區","LI":"大同里","LIN":"15鄰","STREET":"府連路","SECT":" ","MAREA":" ","LANE":" ","ALLEY":" ","HOUSE_NO":"１９３號之１","E_COORD97":169290.66,"N_COORD97":2542871.7799999998,"ADDRESS":"府連路１９３號之１","OBJECTID":620734},"geometry":{"x":169290.66000000108,"y":2542871.7799999993}},{"attributes":{"ID":620762,"DIS_CODE":0,"TOWNNAME":"麻豆區","LI":"東角里","LIN":"2鄰","STREET":"文昌路","SECT":" ","MAREA":" ","LANE":" ","ALLEY":" ","HOUSE_NO":"６號五樓之１２","E_COORD97":173452.34,"N_COORD97":2564911.21,"ADDRESS":"文昌路６號五樓之１２","OBJECTID":620735},"geometry":{"x":173452.34000000171,"y":2564911.2100000009}},{"attributes":{"ID":620763,"DIS_CODE":0,"TOWNNAME":"六甲區","LI":"六甲里","LIN":"27鄰","STREET":"中山路","SECT":" ","MAREA":" ","LANE":" ","ALLEY":" ","HOUSE_NO":"４２之１號","E_COORD97":183530.29000000001,"N_COORD97":2570015.4199999999,"ADDRESS":"中山路４２之１號","OBJECTID":620736},"geometry":{"x":183530.29000000004,"y":2570015.4200000037}},{"attributes":{"ID":620764,"DIS_CODE":0,"TOWNNAME":"安平區","LI":"國平里","LIN":"10鄰","STREET":"建平一街","SECT":" ","MAREA":" ","LANE":" ","ALLEY":" ","HOUSE_NO":"２３２號","E_COORD97":165408.57000000001,"N_COORD97":2542815.3799999999,"ADDRESS":"建平一街２３２號","OBJECTID":620737},"geometry":{"x":165408.5700000003,"y":2542815.379999999}},{"attributes":{"ID":620765,"DIS_CODE":0,"TOWNNAME":"安平區","LI":"國平里","LIN":"10鄰","STREET":"建平一街","SECT":" ","MAREA":" ","LANE":" ","ALLEY":" ","HOUSE_NO":"２３６號","E_COORD97":165400.79000000001,"N_COORD97":2542816.8100000001,"ADDRESS":"建平一街２３６號","OBJECTID":620738},"geometry":{"x":165400.7900000019,"y":2542816.8100000024}},{"attributes":{"ID":620766,"DIS_CODE":0,"TOWNNAME":"東區","LI":"大福里","LIN":"25鄰","STREET":"榮譽街","SECT":" ","MAREA":" ","LANE":" ","ALLEY":" ","HOUSE_NO":"２號","E_COORD97":169484.67000000001,"N_COORD97":2541579.6000000001,"ADDRESS":"榮譽街２號","OBJECTID":620739},"geometry":{"x":169484.66999999993,"y":2541579.6000000015}},{"attributes":{"ID":620767,"DIS_CODE":0,"TOWNNAME":"東區","LI":"大福里","LIN":"24鄰","STREET":"中華東路","SECT":"三段","MAREA":" ","LANE":" ","ALLEY":" ","HOUSE_NO":"５２４號","E_COORD97":169690.23000000001,"N_COORD97":2541533.2999999998,"ADDRESS":"中華東路三段５２４號","OBJECTID":620740},"geometry":{"x":169690.23000000045,"y":2541533.3000000007}},{"attributes":{"ID":620768,"DIS_CODE":0,"TOWNNAME":"東區","LI":"大福里","LIN":"23鄰","STREET":"大同路","SECT":"二段","MAREA":" ","LANE":" ","ALLEY":" ","HOUSE_NO":"３３３號","E_COORD97":169480.82999999999,"N_COORD97":2541573.5,"ADDRESS":"大同路二段３３３號","OBJECTID":620741},"geometry":{"x":169480.83000000194,"y":2541573.5000000019}},{"attributes":{"ID":620769,"DIS_CODE":0,"TOWNNAME":"東區","LI":"大福里","LIN":"27鄰","STREET":"中華東路","SECT":"三段","MAREA":" ","LANE":" ","ALLEY":" ","HOUSE_NO":"５００號","E_COORD97":169719.07999999999,"N_COORD97":2541567.5600000001,"ADDRESS":"中華東路三段５００號","OBJECTID":620742},"geometry":{"x":169719.08000000007,"y":2541567.5600000024}},{"attributes":{"ID":620770,"DIS_CODE":0,"TOWNNAME":"東區","LI":"大福里","LIN":"27鄰","STREET":"中華東路","SECT":"三段","MAREA":" ","LANE":" ","ALLEY":" ","HOUSE_NO":"５０２號","E_COORD97":169721.37,"N_COORD97":2541557.9199999999,"ADDRESS":"中華東路三段５０２號","OBJECTID":620743},"geometry":{"x":169721.37000000197,"y":2541557.9200000018}},{"attributes":{"ID":620771,"DIS_CODE":0,"TOWNNAME":"東區","LI":"大福里","LIN":"27鄰","STREET":"中華東路","SECT":"三段","MAREA":" ","LANE":" ","ALLEY":" ","HOUSE_NO":"５０４號","E_COORD97":169726.19,"N_COORD97":2541546,"ADDRESS":"中華東路三段５０４號","OBJECTID":620744},"geometry":{"x":169726.19000000227,"y":2541546.0000000037}},{"attributes":{"ID":620772,"DIS_CODE":0,"TOWNNAME":"東區","LI":"大福里","LIN":"27鄰","STREET":"中華東路","SECT":"三段","MAREA":" ","LANE":" ","ALLEY":" ","HOUSE_NO":"５０６號","E_COORD97":169728.73000000001,"N_COORD97":2541535.1000000001,"ADDRESS":"中華東路三段５０６號","OBJECTID":620745},"geometry":{"x":169728.73000000045,"y":2541535.1000000015}},{"attributes":{"ID":620773,"DIS_CODE":0,"TOWNNAME":"東區","LI":"大福里","LIN":"27鄰","STREET":"中華東路","SECT":"三段","MAREA":" ","LANE":" ","ALLEY":" ","HOUSE_NO":"５０８號","E_COORD97":169731.51999999999,"N_COORD97":2541531.54,"ADDRESS":"中華東路三段５０８號","OBJECTID":620746},"geometry":{"x":169731.52000000142,"y":2541531.540000001}},{"attributes":{"ID":620774,"DIS_CODE":0,"TOWNNAME":"東區","LI":"大福里","LIN":"27鄰","STREET":"中華東路","SECT":"三段","MAREA":" ","LANE":" ","ALLEY":" ","HOUSE_NO":"５１０號","E_COORD97":169732.79000000001,"N_COORD97":2541527.4900000002,"ADDRESS":"中華東路三段５１０號","OBJECTID":620747},"geometry":{"x":169732.79000000097,"y":2541527.4900000021}},{"attributes":{"ID":620775,"DIS_CODE":0,"TOWNNAME":"東區","LI":"大福里","LIN":"27鄰","STREET":"中華東路","SECT":"三段","MAREA":" ","LANE":" ","ALLEY":" ","HOUSE_NO":"５１２號","E_COORD97":169734.57000000001,"N_COORD97":2541519.3700000001,"ADDRESS":"中華東路三段５１２號","OBJECTID":620748},"geometry":{"x":169734.57000000123,"y":2541519.370000001}},{"attributes":{"ID":620776,"DIS_CODE":0,"TOWNNAME":"東區","LI":"大福里","LIN":"27鄰","STREET":"中華東路","SECT":"三段","MAREA":" ","LANE":" ","ALLEY":" ","HOUSE_NO":"５１４號","E_COORD97":169724.92000000001,"N_COORD97":2541516.8300000001,"ADDRESS":"中華東路三段５１４號","OBJECTID":620749},"geometry":{"x":169724.92000000086,"y":2541516.8300000038}},{"attributes":{"ID":620777,"DIS_CODE":0,"TOWNNAME":"東區","LI":"大福里","LIN":"27鄰","STREET":"中華東路","SECT":"三段","MAREA":" ","LANE":" ","ALLEY":" ","HOUSE_NO":"５１６號","E_COORD97":169719.59,"N_COORD97":2541517.0899999999,"ADDRESS":"中華東路三段５１６號","OBJECTID":620750},"geometry":{"x":169719.59000000171,"y":2541517.0899999999}},{"attributes":{"ID":620778,"DIS_CODE":0,"TOWNNAME":"東區","LI":"大福里","LIN":"27鄰","STREET":"中華東路","SECT":"三段","MAREA":" ","LANE":" ","ALLEY":" ","HOUSE_NO":"５１８號","E_COORD97":169715.01999999999,"N_COORD97":2541515.5699999998,"ADDRESS":"中華東路三段５１８號","OBJECTID":620751},"geometry":{"x":169715.02000000048,"y":2541515.5700000022}},{"attributes":{"ID":620779,"DIS_CODE":0,"TOWNNAME":"東區","LI":"大福里","LIN":"24鄰","STREET":"中華東路","SECT":"三段","MAREA":" ","LANE":" ","ALLEY":" ","HOUSE_NO":"５２６號","E_COORD97":169699.88,"N_COORD97":2541520.8900000001,"ADDRESS":"中華東路三段５２６號","OBJECTID":620752},"geometry":{"x":169699.87999999989,"y":2541520.8900000025}},{"attributes":{"ID":620780,"DIS_CODE":0,"TOWNNAME":"東區","LI":"大福里","LIN":"24鄰","STREET":"中華東路","SECT":"三段","MAREA":" ","LANE":" ","ALLEY":" ","HOUSE_NO":"５２８號","E_COORD97":169702.67000000001,"N_COORD97":2541513.54,"ADDRESS":"中華東路三段５２８號","OBJECTID":620753},"geometry":{"x":169702.67000000086,"y":2541513.5399999991}},{"attributes":{"ID":620781,"DIS_CODE":0,"TOWNNAME":"東區","LI":"大福里","LIN":"24鄰","STREET":"中華東路","SECT":"三段","MAREA":" ","LANE":" ","ALLEY":" ","HOUSE_NO":"５３０號","E_COORD97":169692.76999999999,"N_COORD97":2541514.5499999998,"ADDRESS":"中華東路三段５３０號","OBJECTID":620754},"geometry":{"x":169692.77000000048,"y":2541514.5500000007}},{"attributes":{"ID":620782,"DIS_CODE":0,"TOWNNAME":"東區","LI":"大福里","LIN":"24鄰","STREET":"中華東路","SECT":"三段","MAREA":" ","LANE":" ","ALLEY":" ","HOUSE_NO":"５３０號地下層","E_COORD97":169692.76999999999,"N_COORD97":2541514.5499999998,"ADDRESS":"中華東路三段５３０號地下層","OBJECTID":620755},"geometry":{"x":169692.77000000048,"y":2541514.5500000007}},{"attributes":{"ID":620783,"DIS_CODE":0,"TOWNNAME":"東區","LI":"大福里","LIN":"25鄰","STREET":"榮譽街","SECT":" ","MAREA":" ","LANE":" ","ALLEY":" ","HOUSE_NO":"３０號","E_COORD97":169586.95000000001,"N_COORD97":2541609.1000000001,"ADDRESS":"榮譽街３０號","OBJECTID":620756},"geometry":{"x":169586.95000000205,"y":2541609.1000000034}},{"attributes":{"ID":620784,"DIS_CODE":0,"TOWNNAME":"東區","LI":"大福里","LIN":"26鄰","STREET":"榮譽街","SECT":" ","MAREA":" ","LANE":" ","ALLEY":" ","HOUSE_NO":"４８號之２","E_COORD97":169673.47,"N_COORD97":2541566.8900000001,"ADDRESS":"榮譽街４８號之２","OBJECTID":620757},"geometry":{"x":169673.47000000067,"y":2541566.8900000006}},{"attributes":{"ID":620785,"DIS_CODE":0,"TOWNNAME":"東區","LI":"大福里","LIN":"26鄰","STREET":"榮譽街","SECT":" ","MAREA":" ","LANE":" ","ALLEY":" ","HOUSE_NO":"５０號","E_COORD97":169668.25,"N_COORD97":2541633.3799999999,"ADDRESS":"榮譽街５０號","OBJECTID":620758},"geometry":{"x":169668.25000000093,"y":2541633.379999999}},{"attributes":{"ID":620786,"DIS_CODE":0,"TOWNNAME":"東區","LI":"大福里","LIN":"26鄰","STREET":"榮譽街","SECT":" ","MAREA":" ","LANE":" ","ALLEY":" ","HOUSE_NO":"５０號之１","E_COORD97":169677.42999999999,"N_COORD97":2541631.3700000001,"ADDRESS":"榮譽街５０號之１","OBJECTID":620759},"geometry":{"x":169677.4299999997,"y":2541631.370000001}},{"attributes":{"ID":620787,"DIS_CODE":0,"TOWNNAME":"東區","LI":"忠孝里","LIN":"5鄰","STREET":"崇明七街","SECT":" ","MAREA":" ","LANE":" ","ALLEY":" ","HOUSE_NO":"１５號","E_COORD97":169620.01999999999,"N_COORD97":2542161,"ADDRESS":"崇明七街１５號","OBJECTID":620760},"geometry":{"x":169620.02000000048,"y":2542161.0000000019}},{"attributes":{"ID":620788,"DIS_CODE":0,"TOWNNAME":"東區","LI":"忠孝里","LIN":"3鄰","STREET":"中華東路","SECT":"三段","MAREA":" ","LANE":" ","ALLEY":" ","HOUSE_NO":"３３２號","E_COORD97":170176.85000000001,"N_COORD97":2541743.96,"ADDRESS":"中華東路三段３３２號","OBJECTID":620761},"geometry":{"x":170176.8499999987,"y":2541743.9600000046}},{"attributes":{"ID":620789,"DIS_CODE":0,"TOWNNAME":"東區","LI":"忠孝里","LIN":"5鄰","STREET":"崇明七街","SECT":" ","MAREA":" ","LANE":" ","ALLEY":" ","HOUSE_NO":"１７號","E_COORD97":169625.94,"N_COORD97":2542163.1499999999,"ADDRESS":"崇明七街１７號","OBJECTID":620762},"geometry":{"x":169625.94000000041,"y":2542163.1500000022}},{"attributes":{"ID":620790,"DIS_CODE":0,"TOWNNAME":"東區","LI":"忠孝里","LIN":"5鄰","STREET":"崇明七街","SECT":" ","MAREA":" ","LANE":" ","ALLEY":" ","HOUSE_NO":"１號","E_COORD97":169606.01000000001,"N_COORD97":2542136.79,"ADDRESS":"崇明七街１號","OBJECTID":620763},"geometry":{"x":169606.00999999978,"y":2542136.790000001}},{"attributes":{"ID":620791,"DIS_CODE":0,"TOWNNAME":"東區","LI":"東智里","LIN":"18鄰","STREET":"崇德三十四街","SECT":" ","MAREA":" ","LANE":" ","ALLEY":" ","HOUSE_NO":"２號","E_COORD97":170808.57000000001,"N_COORD97":2540013.3300000001,"ADDRESS":"崇德三十四街２號","OBJECTID":620764},"geometry":{"x":170808.57000000216,"y":2540013.3300000001}},{"attributes":{"ID":620792,"DIS_CODE":0,"TOWNNAME":"東區","LI":"東智里","LIN":"18鄰","STREET":"崇德三十四街","SECT":" ","MAREA":" ","LANE":" ","ALLEY":" ","HOUSE_NO":"３號","E_COORD97":170813.38,"N_COORD97":2540013.6099999999,"ADDRESS":"崇德三十四街３號","OBJECTID":620765},"geometry":{"x":170813.38000000082,"y":2540013.6100000013}},{"attributes":{"ID":620793,"DIS_CODE":0,"TOWNNAME":"東區","LI":"東智里","LIN":"18鄰","STREET":"崇德三十四街","SECT":" ","MAREA":" ","LANE":" ","ALLEY":" ","HOUSE_NO":"５號","E_COORD97":170816.64000000001,"N_COORD97":2540014.3199999998,"ADDRESS":"崇德三十四街５號","OBJECTID":620766},"geometry":{"x":170816.6400000006,"y":2540014.3200000003}},{"attributes":{"ID":620794,"DIS_CODE":0,"TOWNNAME":"東區","LI":"東智里","LIN":"18鄰","STREET":"崇德三十四街","SECT":" ","MAREA":" ","LANE":" ","ALLEY":" ","HOUSE_NO":"６號","E_COORD97":170820.88,"N_COORD97":2540014.6000000001,"ADDRESS":"崇德三十四街６號","OBJECTID":620767},"geometry":{"x":170820.87999999989,"y":2540014.5999999996}},{"attributes":{"ID":620795,"DIS_CODE":0,"TOWNNAME":"東區","LI":"東明里","LIN":"33鄰","STREET":"怡東路","SECT":" ","MAREA":" ","LANE":" ","ALLEY":" ","HOUSE_NO":"３４號","E_COORD97":170855.89999999999,"N_COORD97":2543538.3799999999,"ADDRESS":"怡東路３４號","OBJECTID":620768},"geometry":{"x":170855.9000000013,"y":2543538.379999999}},{"attributes":{"ID":620796,"DIS_CODE":0,"TOWNNAME":"東區","LI":"東明里","LIN":"33鄰","STREET":"怡東路","SECT":" ","MAREA":" ","LANE":" ","ALLEY":" ","HOUSE_NO":"３６號","E_COORD97":170848.48000000001,"N_COORD97":2543539.79,"ADDRESS":"怡東路３６號","OBJECTID":620769},"geometry":{"x":170848.48000000138,"y":2543539.7900000028}},{"attributes":{"ID":620797,"DIS_CODE":0,"TOWNNAME":"東區","LI":"東明里","LIN":"33鄰","STREET":"怡東路","SECT":" ","MAREA":" ","LANE":" ","ALLEY":" ","HOUSE_NO":"３８號","E_COORD97":170842.66,"N_COORD97":2543541.2000000002,"ADDRESS":"怡東路３８號","OBJECTID":620770},"geometry":{"x":170842.66000000015,"y":2543541.2000000011}},{"attributes":{"ID":620798,"DIS_CODE":0,"TOWNNAME":"東區","LI":"東明里","LIN":"33鄰","STREET":"怡東路","SECT":" ","MAREA":" ","LANE":" ","ALLEY":" ","HOUSE_NO":"４０號","E_COORD97":170837.01000000001,"N_COORD97":2543544.2000000002,"ADDRESS":"怡東路４０號","OBJECTID":620771},"geometry":{"x":170837.00999999978,"y":2543544.200000003}},{"attributes":{"ID":620799,"DIS_CODE":0,"TOWNNAME":"東區","LI":"東明里","LIN":"33鄰","STREET":"怡東路","SECT":" ","MAREA":" ","LANE":" ","ALLEY":" ","HOUSE_NO":"４２號","E_COORD97":170838.23999999999,"N_COORD97":2543550.73,"ADDRESS":"怡東路４２號","OBJECTID":620772},"geometry":{"x":170838.24000000115,"y":2543550.7300000004}},{"attributes":{"ID":620800,"DIS_CODE":0,"TOWNNAME":"東區","LI":"東明里","LIN":"33鄰","STREET":"怡東路","SECT":" ","MAREA":" ","LANE":" ","ALLEY":" ","HOUSE_NO":"４４號","E_COORD97":170840.89000000001,"N_COORD97":2543559.5499999998,"ADDRESS":"怡東路４４號","OBJECTID":620773},"geometry":{"x":170840.88999999966,"y":2543559.5500000007}},{"attributes":{"ID":620801,"DIS_CODE":0,"TOWNNAME":"東區","LI":"東明里","LIN":"33鄰","STREET":"怡東路","SECT":" ","MAREA":" ","LANE":" ","ALLEY":" ","HOUSE_NO":"４６號","E_COORD97":170842.66,"N_COORD97":2543568.8900000001,"ADDRESS":"怡東路４６號","OBJECTID":620774},"geometry":{"x":170842.66000000015,"y":2543568.8900000025}},{"attributes":{"ID":620802,"DIS_CODE":0,"TOWNNAME":"東區","LI":"東明里","LIN":"33鄰","STREET":"怡東路","SECT":" ","MAREA":" ","LANE":" ","ALLEY":" ","HOUSE_NO":"４８號","E_COORD97":170845.06,"N_COORD97":2543575.9300000002,"ADDRESS":"怡東路４８號","OBJECTID":620775},"geometry":{"x":170845.06000000145,"y":2543575.9299999997}},{"attributes":{"ID":620803,"DIS_CODE":0,"TOWNNAME":"東區","LI":"東明里","LIN":"33鄰","STREET":"怡東路","SECT":" ","MAREA":" ","LANE":" ","ALLEY":" ","HOUSE_NO":"５０號","E_COORD97":170848.5,"N_COORD97":2543578.1499999999,"ADDRESS":"怡東路５０號","OBJECTID":620776},"geometry":{"x":170848.5,"y":2543578.1500000004}},{"attributes":{"ID":620804,"DIS_CODE":0,"TOWNNAME":"東區","LI":"東智里","LIN":"19鄰","STREET":"崇德路","SECT":" ","MAREA":" ","LANE":" ","ALLEY":" ","HOUSE_NO":"９０９號","E_COORD97":170796.29000000001,"N_COORD97":2540401.98,"ADDRESS":"崇德路９０９號","OBJECTID":620777},"geometry":{"x":170796.29000000004,"y":2540401.9800000023}},{"attributes":{"ID":620805,"DIS_CODE":0,"TOWNNAME":"東區","LI":"東智里","LIN":"19鄰","STREET":"崇德路","SECT":" ","MAREA":" ","LANE":" ","ALLEY":" ","HOUSE_NO":"９１１號","E_COORD97":170795.97,"N_COORD97":2540397.0899999999,"ADDRESS":"崇德路９１１號","OBJECTID":620778},"geometry":{"x":170795.96999999974,"y":2540397.0900000017}},{"attributes":{"ID":620806,"DIS_CODE":0,"TOWNNAME":"東區","LI":"東智里","LIN":"19鄰","STREET":"崇德路","SECT":" ","MAREA":" ","LANE":" ","ALLEY":" ","HOUSE_NO":"９１３號","E_COORD97":170795.97,"N_COORD97":2540393.1400000001,"ADDRESS":"崇德路９１３號","OBJECTID":620779},"geometry":{"x":170795.96999999974,"y":2540393.1400000025}},{"attributes":{"ID":620807,"DIS_CODE":0,"TOWNNAME":"東區","LI":"東智里","LIN":"19鄰","STREET":"崇德路","SECT":" ","MAREA":" ","LANE":" ","ALLEY":" ","HOUSE_NO":"９１５號","E_COORD97":170795.66,"N_COORD97":2540389.6699999999,"ADDRESS":"崇德路９１５號","OBJECTID":620780},"geometry":{"x":170795.66000000015,"y":2540389.6700000018}},{"attributes":{"ID":620808,"DIS_CODE":0,"TOWNNAME":"東區","LI":"東智里","LIN":"19鄰","STREET":"崇德路","SECT":" ","MAREA":" ","LANE":" ","ALLEY":" ","HOUSE_NO":"９１９號","E_COORD97":170796.60999999999,"N_COORD97":2540370.1899999999,"ADDRESS":"崇德路９１９號","OBJECTID":620781},"geometry":{"x":170796.61000000127,"y":2540370.1899999995}},{"attributes":{"ID":620809,"DIS_CODE":0,"TOWNNAME":"東區","LI":"東智里","LIN":"19鄰","STREET":"崇德路","SECT":" ","MAREA":" ","LANE":" ","ALLEY":" ","HOUSE_NO":"９２１號","E_COORD97":170796.45000000001,"N_COORD97":2540363.8799999999,"ADDRESS":"崇德路９２１號","OBJECTID":620782},"geometry":{"x":170796.45000000112,"y":2540363.8800000008}},{"attributes":{"ID":620810,"DIS_CODE":0,"TOWNNAME":"東區","LI":"東智里","LIN":"19鄰","STREET":"崇德路","SECT":" ","MAREA":" ","LANE":" ","ALLEY":" ","HOUSE_NO":"９２３號","E_COORD97":170796.13,"N_COORD97":2540358.8300000001,"ADDRESS":"崇德路９２３號","OBJECTID":620783},"geometry":{"x":170796.13000000082,"y":2540358.8300000001}},{"attributes":{"ID":620811,"DIS_CODE":0,"TOWNNAME":"東區","LI":"東智里","LIN":"19鄰","STREET":"崇德路","SECT":" ","MAREA":" ","LANE":" ","ALLEY":" ","HOUSE_NO":"９２５號","E_COORD97":170796.44,"N_COORD97":2540353.3799999999,"ADDRESS":"崇德路９２５號","OBJECTID":620784},"geometry":{"x":170796.44000000134,"y":2540353.3800000008}},{"attributes":{"ID":620812,"DIS_CODE":0,"TOWNNAME":"東區","LI":"東智里","LIN":"19鄰","STREET":"崇德路","SECT":" ","MAREA":" ","LANE":" ","ALLEY":" ","HOUSE_NO":"９２７號","E_COORD97":170795.95999999999,"N_COORD97":2540348.48,"ADDRESS":"崇德路９２７號","OBJECTID":620785},"geometry":{"x":170795.96000000089,"y":2540348.4800000004}},{"attributes":{"ID":620813,"DIS_CODE":0,"TOWNNAME":"東區","LI":"東智里","LIN":"19鄰","STREET":"崇德路","SECT":" ","MAREA":" ","LANE":" ","ALLEY":" ","HOUSE_NO":"９２９號","E_COORD97":170795.95999999999,"N_COORD97":2540343.4300000002,"ADDRESS":"崇德路９２９號","OBJECTID":620786},"geometry":{"x":170795.96000000089,"y":2540343.4300000016}},{"attributes":{"ID":620814,"DIS_CODE":0,"TOWNNAME":"東區","LI":"東智里","LIN":"19鄰","STREET":"崇德路","SECT":" ","MAREA":" ","LANE":" ","ALLEY":" ","HOUSE_NO":"９３１號","E_COORD97":170795.95999999999,"N_COORD97":2540338.54,"ADDRESS":"崇德路９３１號","OBJECTID":620787},"geometry":{"x":170795.96000000089,"y":2540338.540000001}},{"attributes":{"ID":620815,"DIS_CODE":0,"TOWNNAME":"東區","LI":"東智里","LIN":"19鄰","STREET":"崇德路","SECT":" ","MAREA":" ","LANE":" ","ALLEY":" ","HOUSE_NO":"９３３號","E_COORD97":170796.12,"N_COORD97":2540333.1699999999,"ADDRESS":"崇德路９３３號","OBJECTID":620788},"geometry":{"x":170796.12000000197,"y":2540333.1699999999}},{"attributes":{"ID":620816,"DIS_CODE":0,"TOWNNAME":"東區","LI":"東智里","LIN":"19鄰","STREET":"崇德路","SECT":" ","MAREA":" ","LANE":" ","ALLEY":" ","HOUSE_NO":"９３５號","E_COORD97":170797.23000000001,"N_COORD97":2540317.1400000001,"ADDRESS":"崇德路９３５號","OBJECTID":620789},"geometry":{"x":170797.23000000045,"y":2540317.1400000006}},{"attributes":{"ID":620817,"DIS_CODE":0,"TOWNNAME":"東區","LI":"東智里","LIN":"19鄰","STREET":"崇德路","SECT":" ","MAREA":" ","LANE":" ","ALLEY":" ","HOUSE_NO":"９３７號","E_COORD97":170796.59,"N_COORD97":2540310.5099999998,"ADDRESS":"崇德路９３７號","OBJECTID":620790},"geometry":{"x":170796.59000000078,"y":2540310.5099999998}},{"attributes":{"ID":620818,"DIS_CODE":0,"TOWNNAME":"東區","LI":"東智里","LIN":"17鄰","STREET":"崇德三十三街","SECT":" ","MAREA":" ","LANE":" ","ALLEY":" ","HOUSE_NO":"１１號","E_COORD97":170820.62,"N_COORD97":2540076.3999999999,"ADDRESS":"崇德三十三街１１號","OBJECTID":620791},"geometry":{"x":170820.62000000104,"y":2540076.4000000022}},{"attributes":{"ID":620819,"DIS_CODE":0,"TOWNNAME":"東區","LI":"東智里","LIN":"17鄰","STREET":"崇德三十三街","SECT":" ","MAREA":" ","LANE":" ","ALLEY":" ","HOUSE_NO":"１３號","E_COORD97":170820.48000000001,"N_COORD97":2540082.2000000002,"ADDRESS":"崇德三十三街１３號","OBJECTID":620792},"geometry":{"x":170820.48000000045,"y":2540082.1999999993}},{"attributes":{"ID":620820,"DIS_CODE":0,"TOWNNAME":"東區","LI":"東智里","LIN":"17鄰","STREET":"崇德三十三街","SECT":" ","MAREA":" ","LANE":" ","ALLEY":" ","HOUSE_NO":"１５號","E_COORD97":170820.62,"N_COORD97":2540085.8799999999,"ADDRESS":"崇德三十三街１５號","OBJECTID":620793},"geometry":{"x":170820.62000000104,"y":2540085.8800000008}},{"attributes":{"ID":620821,"DIS_CODE":0,"TOWNNAME":"東區","LI":"東智里","LIN":"17鄰","STREET":"崇德三十三街","SECT":" ","MAREA":" ","LANE":" ","ALLEY":" ","HOUSE_NO":"１７號","E_COORD97":170833.35999999999,"N_COORD97":2540080.6499999999,"ADDRESS":"崇德三十三街１７號","OBJECTID":620794},"geometry":{"x":170833.36000000034,"y":2540080.6500000041}},{"attributes":{"ID":620822,"DIS_CODE":0,"TOWNNAME":"東區","LI":"東智里","LIN":"17鄰","STREET":"崇德三十三街","SECT":" ","MAREA":" ","LANE":" ","ALLEY":" ","HOUSE_NO":"１９號","E_COORD97":170833.35999999999,"N_COORD97":2540075.7000000002,"ADDRESS":"崇德三十三街１９號","OBJECTID":620795},"geometry":{"x":170833.36000000034,"y":2540075.700000003}},{"attributes":{"ID":620823,"DIS_CODE":0,"TOWNNAME":"東區","LI":"東智里","LIN":"17鄰","STREET":"崇德三十三街","SECT":" ","MAREA":" ","LANE":" ","ALLEY":" ","HOUSE_NO":"１號","E_COORD97":170822.17999999999,"N_COORD97":2540055.1899999999,"ADDRESS":"崇德三十三街１號","OBJECTID":620796},"geometry":{"x":170822.1799999997,"y":2540055.1899999995}},{"attributes":{"ID":620824,"DIS_CODE":0,"TOWNNAME":"東區","LI":"東智里","LIN":"17鄰","STREET":"崇德三十三街","SECT":" ","MAREA":" ","LANE":" ","ALLEY":" ","HOUSE_NO":"２１號","E_COORD97":170833.35999999999,"N_COORD97":2540070.8900000001,"ADDRESS":"崇德三十三街２１號","OBJECTID":620797},"geometry":{"x":170833.36000000034,"y":2540070.8900000006}},{"attributes":{"ID":620825,"DIS_CODE":0,"TOWNNAME":"東區","LI":"東智里","LIN":"19鄰","STREET":"崇德路","SECT":" ","MAREA":" ","LANE":" ","ALLEY":" ","HOUSE_NO":"９３９號","E_COORD97":170796.28,"N_COORD97":2540303.4100000001,"ADDRESS":"崇德路９３９號","OBJECTID":620798},"geometry":{"x":170796.28000000026,"y":2540303.410000002}},{"attributes":{"ID":620826,"DIS_CODE":0,"TOWNNAME":"東區","LI":"東智里","LIN":"19鄰","STREET":"崇德路","SECT":" ","MAREA":" ","LANE":" ","ALLEY":" ","HOUSE_NO":"９４１號","E_COORD97":170796.44,"N_COORD97":2540297.7200000002,"ADDRESS":"崇德路９４１號","OBJECTID":620799},"geometry":{"x":170796.44000000134,"y":2540297.7200000025}},{"attributes":{"ID":620827,"DIS_CODE":0,"TOWNNAME":"東區","LI":"東智里","LIN":"18鄰","STREET":"崇德三十四街","SECT":" ","MAREA":" ","LANE":" ","ALLEY":" ","HOUSE_NO":"８號","E_COORD97":170829.66,"N_COORD97":2540016.1600000001,"ADDRESS":"崇德三十四街８號","OBJECTID":620800},"geometry":{"x":170829.65999999922,"y":2540016.1600000039}}]}