{"displayFieldName":"TOWNNAME","fieldAliases":{"ID":"ID","DIS_CODE":"DIS_CODE","TOWNNAME":"TOWNNAME","LI":"LI","LIN":"LIN","STREET":"STREET","SECT":"SECT","MAREA":"MAREA","LANE":"LANE","ALLEY":"ALLEY","HOUSE_NO":"HOUSE_NO","E_COORD97":"E_COORD97","N_COORD97":"N_COORD97","ADDRESS":"ADDRESS","OBJECTID":"OBJECTID"},"geometryType":"esriGeometryPoint","spatialReference":{"wkid":102443,"latestWkid":3826},"fields":[{"name":"ID","type":"esriFieldTypeDouble","alias":"ID"},{"name":"DIS_CODE","type":"esriFieldTypeInteger","alias":"DIS_CODE"},{"name":"TOWNNAME","type":"esriFieldTypeString","alias":"TOWNNAME","length":8},{"name":"LI","type":"esriFieldTypeString","alias":"LI","length":8},{"name":"LIN","type":"esriFieldTypeString","alias":"LIN","length":12},{"name":"STREET","type":"esriFieldTypeString","alias":"STREET","length":20},{"name":"SECT","type":"esriFieldTypeString","alias":"SECT","length":8},{"name":"MAREA","type":"esriFieldTypeString","alias":"MAREA","length":12},{"name":"LANE","type":"esriFieldTypeString","alias":"LANE","length":10},{"name":"ALLEY","type":"esriFieldTypeString","alias":"ALLEY","length":10},{"name":"HOUSE_NO","type":"esriFieldTypeString","alias":"HOUSE_NO","length":20},{"name":"E_COORD97","type":"esriFieldTypeDouble","alias":"E_COORD97"},{"name":"N_COORD97","type":"esriFieldTypeDouble","alias":"N_COORD97"},{"name":"ADDRESS","type":"esriFieldTypeString","alias":"ADDRESS","length":50},{"name":"OBJECTID","type":"esriFieldTypeOID","alias":"OBJECTID"}],"features":[{"attributes":{"ID":259805,"DIS_CODE":0,"TOWNNAME":"關廟區","LI":"龜洞里","LIN":"1鄰","STREET":"南雄南路","SECT":" ","MAREA":" ","LANE":"６２２巷","ALLEY":" ","HOUSE_NO":"６號","E_COORD97":183372.356497,"N_COORD97":2533708.90233,"ADDRESS":"南雄南路６２２巷６號","OBJECTID":259801},"geometry":{"x":183372.35649700183,"y":2533708.902325999}},{"attributes":{"ID":259806,"DIS_CODE":0,"TOWNNAME":"新市區","LI":"永就里","LIN":"5鄰","STREET":"中華路","SECT":" ","MAREA":" ","LANE":"１１３巷","ALLEY":" ","HOUSE_NO":"７號","E_COORD97":177929.11367799999,"N_COORD97":2551248.1710199998,"ADDRESS":"中華路１１３巷７號","OBJECTID":259802},"geometry":{"x":177929.11367800087,"y":2551248.171023}},{"attributes":{"ID":259807,"DIS_CODE":0,"TOWNNAME":"安南區","LI":"青草里","LIN":"7鄰","STREET":"青砂街","SECT":"二段","MAREA":" ","LANE":"８２５巷","ALLEY":" ","HOUSE_NO":"９０號","E_COORD97":158257.29459800001,"N_COORD97":2552715.8564900002,"ADDRESS":"青砂街二段８２５巷９０號","OBJECTID":259803},"geometry":{"x":158257.29459800106,"y":2552715.8564890008}},{"attributes":{"ID":259808,"DIS_CODE":0,"TOWNNAME":"新市區","LI":"永就里","LIN":"5鄰","STREET":"中華路","SECT":" ","MAREA":" ","LANE":"１１３巷","ALLEY":" ","HOUSE_NO":"９號","E_COORD97":177931.86796999999,"N_COORD97":2551249.2293600002,"ADDRESS":"中華路１１３巷９號","OBJECTID":259804},"geometry":{"x":177931.86797000095,"y":2551249.2293560021}},{"attributes":{"ID":259809,"DIS_CODE":0,"TOWNNAME":"新市區","LI":"永就里","LIN":"5鄰","STREET":"中華路","SECT":" ","MAREA":" ","LANE":"１１３巷","ALLEY":" ","HOUSE_NO":"１１號","E_COORD97":177934.83413100001,"N_COORD97":2551249.86436,"ADDRESS":"中華路１１３巷１１號","OBJECTID":259805},"geometry":{"x":177934.83413100056,"y":2551249.8643550016}},{"attributes":{"ID":259810,"DIS_CODE":0,"TOWNNAME":"新市區","LI":"永就里","LIN":"5鄰","STREET":"中華路","SECT":" ","MAREA":" ","LANE":"１１３巷","ALLEY":" ","HOUSE_NO":"１３號","E_COORD97":177937.800292,"N_COORD97":2551250.7110199998,"ADDRESS":"中華路１１３巷１３號","OBJECTID":259806},"geometry":{"x":177937.80029200017,"y":2551250.7110220026}},{"attributes":{"ID":259811,"DIS_CODE":0,"TOWNNAME":"新市區","LI":"永就里","LIN":"5鄰","STREET":"中華路","SECT":" ","MAREA":" ","LANE":"１１３巷","ALLEY":" ","HOUSE_NO":"１５號","E_COORD97":177940.76645200001,"N_COORD97":2551251.7693500002,"ADDRESS":"中華路１１３巷１５號","OBJECTID":259807},"geometry":{"x":177940.76645200048,"y":2551251.7693540026}},{"attributes":{"ID":259812,"DIS_CODE":0,"TOWNNAME":"新市區","LI":"永就里","LIN":"5鄰","STREET":"中華路","SECT":" ","MAREA":" ","LANE":"１１３巷","ALLEY":" ","HOUSE_NO":"１７號","E_COORD97":177943.732613,"N_COORD97":2551252.1926899999,"ADDRESS":"中華路１１３巷１７號","OBJECTID":259808},"geometry":{"x":177943.73261300009,"y":2551252.1926879995}},{"attributes":{"ID":259813,"DIS_CODE":0,"TOWNNAME":"新市區","LI":"永就里","LIN":"5鄰","STREET":"中華路","SECT":" ","MAREA":" ","LANE":"１１３巷","ALLEY":" ","HOUSE_NO":"２號","E_COORD97":177923.605094,"N_COORD97":2551234.2010300001,"ADDRESS":"中華路１１３巷２號","OBJECTID":259809},"geometry":{"x":177923.6050940007,"y":2551234.2010310013}},{"attributes":{"ID":259814,"DIS_CODE":0,"TOWNNAME":"鹽水區","LI":"橋南里","LIN":"1鄰","STREET":"橋南街","SECT":" ","MAREA":" ","LANE":"１１巷","ALLEY":" ","HOUSE_NO":"４號","E_COORD97":175177.02436000001,"N_COORD97":2579566.56012,"ADDRESS":"橋南街１１巷４號","OBJECTID":259810},"geometry":{"x":175177.02436000202,"y":2579566.5601240024}},{"attributes":{"ID":259815,"DIS_CODE":0,"TOWNNAME":"佳里區","LI":"鎮山里","LIN":"20鄰","STREET":"勝利路","SECT":" ","MAREA":" ","LANE":"２６５巷","ALLEY":" ","HOUSE_NO":"９號","E_COORD97":166132.13984399999,"N_COORD97":2560815.9707399998,"ADDRESS":"勝利路２６５巷９號","OBJECTID":259811},"geometry":{"x":166132.13984399941,"y":2560815.9707369991}},{"attributes":{"ID":259816,"DIS_CODE":0,"TOWNNAME":"佳里區","LI":"鎮山里","LIN":"20鄰","STREET":"勝利路","SECT":" ","MAREA":" ","LANE":"２６５巷","ALLEY":" ","HOUSE_NO":"７號","E_COORD97":166126.843158,"N_COORD97":2560814.3303200002,"ADDRESS":"勝利路２６５巷７號","OBJECTID":259812},"geometry":{"x":166126.84315800108,"y":2560814.3303210009}},{"attributes":{"ID":259817,"DIS_CODE":0,"TOWNNAME":"歸仁區","LI":"媽廟里","LIN":"23鄰","STREET":"保大路","SECT":"一段","MAREA":" ","LANE":"１５１巷","ALLEY":" ","HOUSE_NO":"６號","E_COORD97":177706.07999999999,"N_COORD97":2543993.7200000002,"ADDRESS":"保大路一段１５１巷６號","OBJECTID":259813},"geometry":{"x":177706.08000000101,"y":2543993.7200000025}},{"attributes":{"ID":259818,"DIS_CODE":0,"TOWNNAME":"下營區","LI":"新興里","LIN":"13鄰","STREET":"中山路","SECT":"一段","MAREA":" ","LANE":"１２５巷","ALLEY":" ","HOUSE_NO":"３６號","E_COORD97":174656.591052,"N_COORD97":2570645.8708000001,"ADDRESS":"中山路一段１２５巷３６號","OBJECTID":259814},"geometry":{"x":174656.59105200134,"y":2570645.8708000015}},{"attributes":{"ID":259819,"DIS_CODE":0,"TOWNNAME":"仁德區","LI":"仁愛里","LIN":"25鄰","STREET":"保仁路","SECT":" ","MAREA":" ","LANE":"２９５巷","ALLEY":" ","HOUSE_NO":"１號","E_COORD97":169828.43369000001,"N_COORD97":2540049.6568399998,"ADDRESS":"保仁路２９５巷１號","OBJECTID":259815},"geometry":{"x":169828.43369000126,"y":2540049.6568400003}},{"attributes":{"ID":259820,"DIS_CODE":0,"TOWNNAME":"永康區","LI":"光復里","LIN":"1鄰","STREET":"復國路","SECT":" ","MAREA":" ","LANE":"６１巷","ALLEY":" ","HOUSE_NO":"７６號","E_COORD97":172602.50465700001,"N_COORD97":2544487.4682399998,"ADDRESS":"復國路６１巷７６號","OBJECTID":259816},"geometry":{"x":172602.50465700217,"y":2544487.4682420008}},{"attributes":{"ID":259821,"DIS_CODE":0,"TOWNNAME":"永康區","LI":"光復里","LIN":"4鄰","STREET":"復國路","SECT":" ","MAREA":" ","LANE":"６１巷","ALLEY":" ","HOUSE_NO":"１０２號","E_COORD97":172570.92980700001,"N_COORD97":2544485.1399099999,"ADDRESS":"復國路６１巷１０２號","OBJECTID":259817},"geometry":{"x":172570.92980699986,"y":2544485.1399099994}},{"attributes":{"ID":259822,"DIS_CODE":0,"TOWNNAME":"歸仁區","LI":"媽廟里","LIN":"27鄰","STREET":"保大路","SECT":"一段","MAREA":" ","LANE":"１５２巷","ALLEY":" ","HOUSE_NO":"５２號","E_COORD97":177753.868495,"N_COORD97":2544375.7796,"ADDRESS":"保大路一段１５２巷５２號","OBJECTID":259818},"geometry":{"x":177753.86849500146,"y":2544375.7795990016}},{"attributes":{"ID":259823,"DIS_CODE":0,"TOWNNAME":"新市區","LI":"新和里","LIN":"1鄰","STREET":"中華路","SECT":" ","MAREA":" ","LANE":"１０巷","ALLEY":" ","HOUSE_NO":"２號","E_COORD97":177267.62451600001,"N_COORD97":2551962.5608199998,"ADDRESS":"中華路１０巷２號","OBJECTID":259819},"geometry":{"x":177267.62451600097,"y":2551962.5608219989}},{"attributes":{"ID":259824,"DIS_CODE":0,"TOWNNAME":"新市區","LI":"新和里","LIN":"1鄰","STREET":"中華路","SECT":" ","MAREA":" ","LANE":"１０巷","ALLEY":" ","HOUSE_NO":"８號","E_COORD97":177261.48053999999,"N_COORD97":2551948.1675,"ADDRESS":"中華路１０巷８號","OBJECTID":259820},"geometry":{"x":177261.4805399999,"y":2551948.1674959995}},{"attributes":{"ID":259825,"DIS_CODE":0,"TOWNNAME":"歸仁區","LI":"武東里","LIN":"14鄰","STREET":"明德路","SECT":" ","MAREA":" ","LANE":"５２巷","ALLEY":" ","HOUSE_NO":"３４號","E_COORD97":175504.019141,"N_COORD97":2536362.7617500001,"ADDRESS":"明德路５２巷３４號","OBJECTID":259821},"geometry":{"x":175504.01914099976,"y":2536362.7617509998}},{"attributes":{"ID":259826,"DIS_CODE":0,"TOWNNAME":"關廟區","LI":"關廟里","LIN":"1鄰","STREET":"武聖路","SECT":" ","MAREA":" ","LANE":"１９巷","ALLEY":" ","HOUSE_NO":"２５號","E_COORD97":180935.82070800001,"N_COORD97":2540114.6251300001,"ADDRESS":"武聖路１９巷２５號","OBJECTID":259822},"geometry":{"x":180935.8207080001,"y":2540114.6251290012}},{"attributes":{"ID":259827,"DIS_CODE":0,"TOWNNAME":"關廟區","LI":"松腳里","LIN":"2鄰","STREET":"松柏街","SECT":" ","MAREA":" ","LANE":"３８巷","ALLEY":" ","HOUSE_NO":"１８號","E_COORD97":181954.08945999999,"N_COORD97":2539748.6551100002,"ADDRESS":"松柏街３８巷１８號","OBJECTID":259823},"geometry":{"x":181954.0894600004,"y":2539748.6551130004}},{"attributes":{"ID":259828,"DIS_CODE":0,"TOWNNAME":"關廟區","LI":"松腳里","LIN":"2鄰","STREET":"松柏街","SECT":" ","MAREA":" ","LANE":"３８巷","ALLEY":" ","HOUSE_NO":"１２號","E_COORD97":181960.02174699999,"N_COORD97":2539744.6334500001,"ADDRESS":"松柏街３８巷１２號","OBJECTID":259824},"geometry":{"x":181960.02174699865,"y":2539744.6334479991}},{"attributes":{"ID":259829,"DIS_CODE":0,"TOWNNAME":"新市區","LI":"港墘里","LIN":"18鄰","STREET":"光華街","SECT":" ","MAREA":" ","LANE":"８４巷","ALLEY":" ","HOUSE_NO":"２號","E_COORD97":178033.702853,"N_COORD97":2552693.5082399999,"ADDRESS":"光華街８４巷２號","OBJECTID":259825},"geometry":{"x":178033.70285300072,"y":2552693.5082350019}},{"attributes":{"ID":259830,"DIS_CODE":0,"TOWNNAME":"關廟區","LI":"關廟里","LIN":"10鄰","STREET":"民生街","SECT":" ","MAREA":" ","LANE":"３７巷","ALLEY":" ","HOUSE_NO":"２３號","E_COORD97":180895.334657,"N_COORD97":2539543.82932,"ADDRESS":"民生街３７巷２３號","OBJECTID":259826},"geometry":{"x":180895.33465700131,"y":2539543.8293190021}},{"attributes":{"ID":259831,"DIS_CODE":0,"TOWNNAME":"歸仁區","LI":"辜厝里","LIN":"35鄰","STREET":"中正南路","SECT":"一段","MAREA":" ","LANE":"２１８巷","ALLEY":" ","HOUSE_NO":"３６號","E_COORD97":177250.34460800001,"N_COORD97":2540372.2928999998,"ADDRESS":"中正南路一段２１８巷３６號","OBJECTID":259827},"geometry":{"x":177250.34460799955,"y":2540372.2929010019}},{"attributes":{"ID":259832,"DIS_CODE":0,"TOWNNAME":"新營區","LI":"延平里","LIN":"7鄰","STREET":"復興路","SECT":" ","MAREA":" ","LANE":"２９巷","ALLEY":" ","HOUSE_NO":"２７之２號","E_COORD97":179686.06853700001,"N_COORD97":2577946.38962,"ADDRESS":"復興路２９巷２７之２號","OBJECTID":259828},"geometry":{"x":179686.06853700057,"y":2577946.3896240015}},{"attributes":{"ID":259833,"DIS_CODE":0,"TOWNNAME":"新營區","LI":"延平里","LIN":"7鄰","STREET":"復興路","SECT":" ","MAREA":" ","LANE":"２９巷","ALLEY":" ","HOUSE_NO":"２７之３號","E_COORD97":179684.53209299999,"N_COORD97":2577944.8021200001,"ADDRESS":"復興路２９巷２７之３號","OBJECTID":259829},"geometry":{"x":179684.5320930006,"y":2577944.8021249995}},{"attributes":{"ID":259834,"DIS_CODE":0,"TOWNNAME":"歸仁區","LI":"崙頂里","LIN":"24鄰","STREET":"崙頂街","SECT":" ","MAREA":" ","LANE":"９０巷","ALLEY":" ","HOUSE_NO":"１０號","E_COORD97":177821.116928,"N_COORD97":2539916.9310499998,"ADDRESS":"崙頂街９０巷１０號","OBJECTID":259830},"geometry":{"x":177821.11692800093,"y":2539916.9310529996}},{"attributes":{"ID":259835,"DIS_CODE":0,"TOWNNAME":"仁德區","LI":"上崙里","LIN":"20鄰","STREET":"上崙一街","SECT":" ","MAREA":" ","LANE":"５６巷","ALLEY":" ","HOUSE_NO":"２０號","E_COORD97":173774.715838,"N_COORD97":2538014.7370000002,"ADDRESS":"上崙一街５６巷２０號","OBJECTID":259831},"geometry":{"x":173774.71583799925,"y":2538014.7369989976}},{"attributes":{"ID":259836,"DIS_CODE":0,"TOWNNAME":"歸仁區","LI":"媽廟里","LIN":"2鄰","STREET":"和順路","SECT":"一段","MAREA":" ","LANE":"１１巷","ALLEY":" ","HOUSE_NO":"５１號","E_COORD97":177487.76293999999,"N_COORD97":2543589.6907700002,"ADDRESS":"和順路一段１１巷５１號","OBJECTID":259832},"geometry":{"x":177487.76293999981,"y":2543589.6907700039}},{"attributes":{"ID":259837,"DIS_CODE":0,"TOWNNAME":"佳里區","LI":"建南里","LIN":"15鄰","STREET":"光復路","SECT":" ","MAREA":" ","LANE":"８３巷","ALLEY":" ","HOUSE_NO":"１號","E_COORD97":165512.32125499999,"N_COORD97":2561941.1906599998,"ADDRESS":"光復路８３巷１號","OBJECTID":259833},"geometry":{"x":165512.32125500124,"y":2561941.190657001}},{"attributes":{"ID":259838,"DIS_CODE":0,"TOWNNAME":"佳里區","LI":"建南里","LIN":"15鄰","STREET":"光復路","SECT":" ","MAREA":" ","LANE":"８３巷","ALLEY":" ","HOUSE_NO":"２號","E_COORD97":165508.295774,"N_COORD97":2561940.5556600001,"ADDRESS":"光復路８３巷２號","OBJECTID":259834},"geometry":{"x":165508.29577399977,"y":2561940.5556570031}},{"attributes":{"ID":259839,"DIS_CODE":0,"TOWNNAME":"歸仁區","LI":"媽廟里","LIN":"1鄰","STREET":"媽廟一街","SECT":" ","MAREA":" ","LANE":"７２巷","ALLEY":" ","HOUSE_NO":"８號","E_COORD97":177290.56726499999,"N_COORD97":2543492.5358299999,"ADDRESS":"媽廟一街７２巷８號","OBJECTID":259835},"geometry":{"x":177290.56726500019,"y":2543492.5358249992}},{"attributes":{"ID":259840,"DIS_CODE":0,"TOWNNAME":"後壁區","LI":"後壁里","LIN":"12鄰","STREET":" ","SECT":" ","MAREA":"後壁","LANE":" ","ALLEY":" ","HOUSE_NO":"２００號","E_COORD97":185358.20999999999,"N_COORD97":2585035.9100000001,"ADDRESS":"後壁２００號","OBJECTID":259836},"geometry":{"x":185358.20999999996,"y":2585035.910000002}},{"attributes":{"ID":259841,"DIS_CODE":0,"TOWNNAME":"歸仁區","LI":"看西里","LIN":"18鄰","STREET":"成功五街","SECT":" ","MAREA":" ","LANE":"８８巷","ALLEY":" ","HOUSE_NO":"２６號","E_COORD97":178366.05978099999,"N_COORD97":2539847.8738899999,"ADDRESS":"成功五街８８巷２６號","OBJECTID":259837},"geometry":{"x":178366.05978100002,"y":2539847.873885002}},{"attributes":{"ID":259842,"DIS_CODE":0,"TOWNNAME":"歸仁區","LI":"看西里","LIN":"18鄰","STREET":"成功五街","SECT":" ","MAREA":" ","LANE":"８８巷","ALLEY":" ","HOUSE_NO":"２８號","E_COORD97":178357.214316,"N_COORD97":2539845.22805,"ADDRESS":"成功五街８８巷２８號","OBJECTID":259838},"geometry":{"x":178357.21431600023,"y":2539845.2280530017}},{"attributes":{"ID":259843,"DIS_CODE":0,"TOWNNAME":"歸仁區","LI":"媽廟里","LIN":"14鄰","STREET":"媽廟二街","SECT":" ","MAREA":" ","LANE":"１５巷","ALLEY":" ","HOUSE_NO":"２３號","E_COORD97":177631.25007499999,"N_COORD97":2543794.9014900001,"ADDRESS":"媽廟二街１５巷２３號","OBJECTID":259839},"geometry":{"x":177631.25007500127,"y":2543794.9014950041}},{"attributes":{"ID":259844,"DIS_CODE":0,"TOWNNAME":"歸仁區","LI":"媽廟里","LIN":"14鄰","STREET":"媽廟二街","SECT":" ","MAREA":" ","LANE":"１５巷","ALLEY":" ","HOUSE_NO":"３５號","E_COORD97":177665.36072999999,"N_COORD97":2543848.2414699998,"ADDRESS":"媽廟二街１５巷３５號","OBJECTID":259840},"geometry":{"x":177665.36073000077,"y":2543848.2414669972}},{"attributes":{"ID":259845,"DIS_CODE":0,"TOWNNAME":"歸仁區","LI":"辜厝里","LIN":"9鄰","STREET":"中正南路","SECT":"一段","MAREA":" ","LANE":"７６巷","ALLEY":" ","HOUSE_NO":"１號","E_COORD97":177548.608114,"N_COORD97":2540565.0321800001,"ADDRESS":"中正南路一段７６巷１號","OBJECTID":259841},"geometry":{"x":177548.60811400041,"y":2540565.0321769994}},{"attributes":{"ID":259846,"DIS_CODE":0,"TOWNNAME":"歸仁區","LI":"辜厝里","LIN":"9鄰","STREET":"中正南路","SECT":"一段","MAREA":" ","LANE":"７６巷","ALLEY":" ","HOUSE_NO":"３號","E_COORD97":177541.57059700001,"N_COORD97":2540566.3713799999,"ADDRESS":"中正南路一段７６巷３號","OBJECTID":259842},"geometry":{"x":177541.57059700135,"y":2540566.3713780027}},{"attributes":{"ID":259847,"DIS_CODE":0,"TOWNNAME":"歸仁區","LI":"辜厝里","LIN":"9鄰","STREET":"中正南路","SECT":"一段","MAREA":" ","LANE":"７６巷","ALLEY":" ","HOUSE_NO":"５號","E_COORD97":177535.87356000001,"N_COORD97":2540567.04098,"ADDRESS":"中正南路一段７６巷５號","OBJECTID":259843},"geometry":{"x":177535.87356000207,"y":2540567.0409779996}},{"attributes":{"ID":259848,"DIS_CODE":0,"TOWNNAME":"歸仁區","LI":"媽廟里","LIN":"15鄰","STREET":"媽廟二街","SECT":" ","MAREA":" ","LANE":"３１巷","ALLEY":" ","HOUSE_NO":"１７號","E_COORD97":177697.98831300001,"N_COORD97":2543790.35066,"ADDRESS":"媽廟二街３１巷１７號","OBJECTID":259844},"geometry":{"x":177697.98831300158,"y":2543790.3506650031}},{"attributes":{"ID":259849,"DIS_CODE":0,"TOWNNAME":"歸仁區","LI":"辜厝里","LIN":"4鄰","STREET":"民族南街","SECT":" ","MAREA":" ","LANE":"１８巷","ALLEY":" ","HOUSE_NO":"２１號","E_COORD97":177382.57370000001,"N_COORD97":2540735.21306,"ADDRESS":"民族南街１８巷２１號","OBJECTID":259845},"geometry":{"x":177382.57370000053,"y":2540735.2130630016}},{"attributes":{"ID":259850,"DIS_CODE":0,"TOWNNAME":"歸仁區","LI":"媽廟里","LIN":"16鄰","STREET":"媽廟二街","SECT":" ","MAREA":" ","LANE":"３１巷","ALLEY":" ","HOUSE_NO":"４０號","E_COORD97":177724.10119799999,"N_COORD97":2543820.0369699998,"ADDRESS":"媽廟二街３１巷４０號","OBJECTID":259846},"geometry":{"x":177724.10119800083,"y":2543820.0369739998}},{"attributes":{"ID":259851,"DIS_CODE":0,"TOWNNAME":"歸仁區","LI":"媽廟里","LIN":"19鄰","STREET":"媽廟二街","SECT":" ","MAREA":" ","LANE":"４５巷","ALLEY":" ","HOUSE_NO":"５１號","E_COORD97":177791.26316999999,"N_COORD97":2543873.8002800001,"ADDRESS":"媽廟二街４５巷５１號","OBJECTID":259847},"geometry":{"x":177791.2631700011,"y":2543873.8002780024}},{"attributes":{"ID":259852,"DIS_CODE":0,"TOWNNAME":"歸仁區","LI":"後市里","LIN":"33鄰","STREET":"文化街","SECT":"二段","MAREA":" ","LANE":"５３巷","ALLEY":" ","HOUSE_NO":"１１號","E_COORD97":177406.352659,"N_COORD97":2541055.0354399998,"ADDRESS":"文化街二段５３巷１１號","OBJECTID":259848},"geometry":{"x":177406.35265900102,"y":2541055.0354440007}},{"attributes":{"ID":259853,"DIS_CODE":0,"TOWNNAME":"安南區","LI":"新順里","LIN":"24鄰","STREET":"景安街","SECT":" ","MAREA":" ","LANE":"１１０巷","ALLEY":" ","HOUSE_NO":"２號","E_COORD97":169419.33467000001,"N_COORD97":2549203.0804599999,"ADDRESS":"景安街１１０巷２號","OBJECTID":259849},"geometry":{"x":169419.33467000071,"y":2549203.0804550014}},{"attributes":{"ID":259854,"DIS_CODE":0,"TOWNNAME":"歸仁區","LI":"後市里","LIN":"23鄰","STREET":"文化街","SECT":"二段","MAREA":" ","LANE":"５３巷","ALLEY":" ","HOUSE_NO":"１號","E_COORD97":177399.57290100001,"N_COORD97":2541104.6712500001,"ADDRESS":"文化街二段５３巷１號","OBJECTID":259850},"geometry":{"x":177399.57290100027,"y":2541104.6712510008}},{"attributes":{"ID":259855,"DIS_CODE":0,"TOWNNAME":"歸仁區","LI":"七甲里","LIN":"12鄰","STREET":"南丁路","SECT":" ","MAREA":" ","LANE":"２７１巷","ALLEY":" ","HOUSE_NO":"７２號","E_COORD97":175890.487383,"N_COORD97":2542362.9820400001,"ADDRESS":"南丁路２７１巷７２號","OBJECTID":259851},"geometry":{"x":175890.48738300148,"y":2542362.9820429999}},{"attributes":{"ID":259856,"DIS_CODE":0,"TOWNNAME":"歸仁區","LI":"七甲里","LIN":"12鄰","STREET":"南丁路","SECT":" ","MAREA":" ","LANE":"２７１巷","ALLEY":" ","HOUSE_NO":"１７５號","E_COORD97":175500.87466900001,"N_COORD97":2542393.8853600002,"ADDRESS":"南丁路２７１巷１７５號","OBJECTID":259852},"geometry":{"x":175500.87466899958,"y":2542393.8853590023}},{"attributes":{"ID":259857,"DIS_CODE":0,"TOWNNAME":"歸仁區","LI":"七甲里","LIN":"12鄰","STREET":"南丁路","SECT":" ","MAREA":" ","LANE":"１４６巷","ALLEY":" ","HOUSE_NO":"８１號","E_COORD97":176382.08851199999,"N_COORD97":2541975.2089200001,"ADDRESS":"南丁路１４６巷８１號","OBJECTID":259853},"geometry":{"x":176382.08851200063,"y":2541975.2089189999}},{"attributes":{"ID":259858,"DIS_CODE":0,"TOWNNAME":"永康區","LI":"永康里","LIN":"22鄰","STREET":"中山南路","SECT":" ","MAREA":" ","LANE":"５１７巷","ALLEY":" ","HOUSE_NO":"１８號","E_COORD97":173232.49336699999,"N_COORD97":2547099.1372199999,"ADDRESS":"中山南路５１７巷１８號","OBJECTID":259854},"geometry":{"x":173232.49336699955,"y":2547099.1372180022}},{"attributes":{"ID":259859,"DIS_CODE":0,"TOWNNAME":"永康區","LI":"永康里","LIN":"22鄰","STREET":"中山南路","SECT":" ","MAREA":" ","LANE":"５１７巷","ALLEY":" ","HOUSE_NO":"１５號","E_COORD97":173242.66513000001,"N_COORD97":2547101.5713800001,"ADDRESS":"中山南路５１７巷１５號","OBJECTID":259855},"geometry":{"x":173242.66512999963,"y":2547101.5713840015}},{"attributes":{"ID":259860,"DIS_CODE":0,"TOWNNAME":"永康區","LI":"永康里","LIN":"22鄰","STREET":"中山南路","SECT":" ","MAREA":" ","LANE":"５１７巷","ALLEY":" ","HOUSE_NO":"１４號","E_COORD97":173256.86321800001,"N_COORD97":2547106.0163799999,"ADDRESS":"中山南路５１７巷１４號","OBJECTID":259856},"geometry":{"x":173256.86321800109,"y":2547106.0163810011}},{"attributes":{"ID":259861,"DIS_CODE":0,"TOWNNAME":"永康區","LI":"永康里","LIN":"22鄰","STREET":"中山南路","SECT":" ","MAREA":" ","LANE":"５１７巷","ALLEY":" ","HOUSE_NO":"１３號","E_COORD97":173265.975423,"N_COORD97":2547107.4980500001,"ADDRESS":"中山南路５１７巷１３號","OBJECTID":259857},"geometry":{"x":173265.97542300075,"y":2547107.4980470017}},{"attributes":{"ID":259862,"DIS_CODE":0,"TOWNNAME":"永康區","LI":"永康里","LIN":"22鄰","STREET":"中山南路","SECT":" ","MAREA":" ","LANE":"５１７巷","ALLEY":" ","HOUSE_NO":"２４號","E_COORD97":173212.78557400001,"N_COORD97":2547121.8913699999,"ADDRESS":"中山南路５１７巷２４號","OBJECTID":259858},"geometry":{"x":173212.78557400033,"y":2547121.8913730029}},{"attributes":{"ID":259863,"DIS_CODE":0,"TOWNNAME":"永康區","LI":"永康里","LIN":"22鄰","STREET":"中山南路","SECT":" ","MAREA":" ","LANE":"５１７巷","ALLEY":" ","HOUSE_NO":"２５號","E_COORD97":173215.96424999999,"N_COORD97":2547122.10304,"ADDRESS":"中山南路５１７巷２５號","OBJECTID":259859},"geometry":{"x":173215.96425000113,"y":2547122.1030390002}},{"attributes":{"ID":259864,"DIS_CODE":0,"TOWNNAME":"歸仁區","LI":"七甲里","LIN":"13鄰","STREET":"南丁路","SECT":" ","MAREA":" ","LANE":"４３７巷","ALLEY":" ","HOUSE_NO":"１６３號","E_COORD97":175577.31297299999,"N_COORD97":2542778.9068200001,"ADDRESS":"南丁路４３７巷１６３號","OBJECTID":259860},"geometry":{"x":175577.31297300011,"y":2542778.9068180006}},{"attributes":{"ID":259865,"DIS_CODE":0,"TOWNNAME":"歸仁區","LI":"七甲里","LIN":"13鄰","STREET":"南丁路","SECT":" ","MAREA":" ","LANE":"４３７巷","ALLEY":" ","HOUSE_NO":"１９０號","E_COORD97":175366.65706500001,"N_COORD97":2542807.4818000002,"ADDRESS":"南丁路４３７巷１９０號","OBJECTID":259861},"geometry":{"x":175366.65706500132,"y":2542807.481803}},{"attributes":{"ID":259866,"DIS_CODE":0,"TOWNNAME":"歸仁區","LI":"七甲里","LIN":"15鄰","STREET":"南丁路","SECT":" ","MAREA":" ","LANE":"５９１巷","ALLEY":" ","HOUSE_NO":"１０號","E_COORD97":175953.99160400001,"N_COORD97":2543124.13497,"ADDRESS":"南丁路５９１巷１０號","OBJECTID":259862},"geometry":{"x":175953.99160400219,"y":2543124.1349650025}},{"attributes":{"ID":259867,"DIS_CODE":0,"TOWNNAME":"歸仁區","LI":"後市里","LIN":"20鄰","STREET":"民族北街","SECT":" ","MAREA":" ","LANE":"１２巷","ALLEY":" ","HOUSE_NO":"６號","E_COORD97":177468.74776500001,"N_COORD97":2540856.0687299999,"ADDRESS":"民族北街１２巷６號","OBJECTID":259863},"geometry":{"x":177468.74776500184,"y":2540856.0687339995}},{"attributes":{"ID":259868,"DIS_CODE":0,"TOWNNAME":"歸仁區","LI":"後市里","LIN":"41鄰","STREET":"國光街","SECT":" ","MAREA":" ","LANE":"６０巷","ALLEY":" ","HOUSE_NO":"５號","E_COORD97":177145.01434699999,"N_COORD97":2540890.4645500001,"ADDRESS":"國光街６０巷５號","OBJECTID":259864},"geometry":{"x":177145.01434700005,"y":2540890.4645490032}},{"attributes":{"ID":259869,"DIS_CODE":0,"TOWNNAME":"歸仁區","LI":"八甲里","LIN":"20鄰","STREET":"大仁三街","SECT":" ","MAREA":" ","LANE":"２０巷","ALLEY":" ","HOUSE_NO":"６１號","E_COORD97":178711.880301,"N_COORD97":2541042.9178399998,"ADDRESS":"大仁三街２０巷６１號","OBJECTID":259865},"geometry":{"x":178711.88030100148,"y":2541042.9178360011}},{"attributes":{"ID":259870,"DIS_CODE":0,"TOWNNAME":"佳里區","LI":"安西里","LIN":"38鄰","STREET":"育善街","SECT":" ","MAREA":" ","LANE":"２２１巷","ALLEY":" ","HOUSE_NO":"３號","E_COORD97":164936.73347400001,"N_COORD97":2562630.66952,"ADDRESS":"育善街２２１巷３號","OBJECTID":259866},"geometry":{"x":164936.73347400129,"y":2562630.6695220023}},{"attributes":{"ID":259871,"DIS_CODE":0,"TOWNNAME":"佳里區","LI":"安西里","LIN":"38鄰","STREET":"育善街","SECT":" ","MAREA":" ","LANE":"２２１巷","ALLEY":" ","HOUSE_NO":"５號","E_COORD97":164931.224858,"N_COORD97":2562630.8811900001,"ADDRESS":"育善街２２１巷５號","OBJECTID":259867},"geometry":{"x":164931.22485800087,"y":2562630.8811889999}},{"attributes":{"ID":259872,"DIS_CODE":0,"TOWNNAME":"佳里區","LI":"安西里","LIN":"38鄰","STREET":"育善街","SECT":" ","MAREA":" ","LANE":"２２１巷","ALLEY":" ","HOUSE_NO":"１號","E_COORD97":164941.60647999999,"N_COORD97":2562629.8228600002,"ADDRESS":"育善街２２１巷１號","OBJECTID":259868},"geometry":{"x":164941.60648000054,"y":2562629.8228560016}},{"attributes":{"ID":259873,"DIS_CODE":0,"TOWNNAME":"佳里區","LI":"安西里","LIN":"38鄰","STREET":"育善街","SECT":" ","MAREA":" ","LANE":"２２１巷","ALLEY":" ","HOUSE_NO":"７號","E_COORD97":164926.35185199999,"N_COORD97":2562631.0928500001,"ADDRESS":"育善街２２１巷７號","OBJECTID":259869},"geometry":{"x":164926.35185199976,"y":2562631.0928550009}},{"attributes":{"ID":259874,"DIS_CODE":0,"TOWNNAME":"佳里區","LI":"建南里","LIN":"15鄰","STREET":"光復路","SECT":" ","MAREA":" ","LANE":"８３巷","ALLEY":" ","HOUSE_NO":"４號","E_COORD97":165500.297402,"N_COORD97":2561941.29611,"ADDRESS":"光復路８３巷４號","OBJECTID":259870},"geometry":{"x":165500.29740200005,"y":2561941.2961130012}},{"attributes":{"ID":259875,"DIS_CODE":0,"TOWNNAME":"佳里區","LI":"建南里","LIN":"15鄰","STREET":"光復路","SECT":" ","MAREA":" ","LANE":"８３巷","ALLEY":" ","HOUSE_NO":"７號","E_COORD97":165507.28902699999,"N_COORD97":2561947.22278,"ADDRESS":"光復路８３巷７號","OBJECTID":259871},"geometry":{"x":165507.28902699985,"y":2561947.2227770016}},{"attributes":{"ID":259876,"DIS_CODE":0,"TOWNNAME":"佳里區","LI":"建南里","LIN":"15鄰","STREET":"光復路","SECT":" ","MAREA":" ","LANE":"８３巷","ALLEY":" ","HOUSE_NO":"８號","E_COORD97":165509.619569,"N_COORD97":2561946.7994400002,"ADDRESS":"光復路８３巷８號","OBJECTID":259872},"geometry":{"x":165509.61956899986,"y":2561946.799444003}},{"attributes":{"ID":259877,"DIS_CODE":0,"TOWNNAME":"佳里區","LI":"建南里","LIN":"16鄰","STREET":"建中街","SECT":" ","MAREA":" ","LANE":"１１７巷","ALLEY":" ","HOUSE_NO":"１７號","E_COORD97":165615.239126,"N_COORD97":2561986.46612,"ADDRESS":"建中街１１７巷１７號","OBJECTID":259873},"geometry":{"x":165615.23912599962,"y":2561986.4661200009}},{"attributes":{"ID":259878,"DIS_CODE":0,"TOWNNAME":"歸仁區","LI":"八甲里","LIN":"20鄰","STREET":"大仁三街","SECT":" ","MAREA":" ","LANE":"２０巷","ALLEY":" ","HOUSE_NO":"５０號","E_COORD97":178611.01782199999,"N_COORD97":2541221.8897000002,"ADDRESS":"大仁三街２０巷５０號","OBJECTID":259874},"geometry":{"x":178611.01782200113,"y":2541221.8896990027}},{"attributes":{"ID":259879,"DIS_CODE":0,"TOWNNAME":"歸仁區","LI":"八甲里","LIN":"9鄰","STREET":"中正北路","SECT":"一段","MAREA":" ","LANE":"３９５巷","ALLEY":" ","HOUSE_NO":"１６７號","E_COORD97":176943.211083,"N_COORD97":2541843.01718,"ADDRESS":"中正北路一段３９５巷１６７號","OBJECTID":259875},"geometry":{"x":176943.21108299959,"y":2541843.0171770006}},{"attributes":{"ID":259880,"DIS_CODE":0,"TOWNNAME":"安平區","LI":"漁光里","LIN":"2鄰","STREET":"漁光路","SECT":" ","MAREA":" ","LANE":"８９巷","ALLEY":" ","HOUSE_NO":"１５號之４","E_COORD97":164004.98999999999,"N_COORD97":2541782.27,"ADDRESS":"漁光路８９巷１５號之４","OBJECTID":259876},"geometry":{"x":164004.99000000115,"y":2541782.2700000014}},{"attributes":{"ID":259881,"DIS_CODE":0,"TOWNNAME":"關廟區","LI":"山西里","LIN":"7鄰","STREET":"中山路","SECT":"二段","MAREA":" ","LANE":"２６２巷","ALLEY":" ","HOUSE_NO":"１０之２號","E_COORD97":179914.90121400001,"N_COORD97":2540732.8205800001,"ADDRESS":"中山路二段２６２巷１０之２號","OBJECTID":259877},"geometry":{"x":179914.90121399984,"y":2540732.8205780014}},{"attributes":{"ID":259882,"DIS_CODE":0,"TOWNNAME":"中西區","LI":"水仙里","LIN":"16鄰","STREET":"西門路","SECT":"二段","MAREA":" ","LANE":" ","ALLEY":" ","HOUSE_NO":"３０９號","E_COORD97":167961.70999999999,"N_COORD97":2544176.4100000001,"ADDRESS":"西門路二段３０９號","OBJECTID":259878},"geometry":{"x":167961.71000000089,"y":2544176.4100000001}},{"attributes":{"ID":259883,"DIS_CODE":0,"TOWNNAME":"中西區","LI":"水仙里","LIN":"16鄰","STREET":"西門路","SECT":"二段","MAREA":" ","LANE":" ","ALLEY":" ","HOUSE_NO":"３１７號","E_COORD97":167954.60999999999,"N_COORD97":2544184.6099999999,"ADDRESS":"西門路二段３１７號","OBJECTID":259879},"geometry":{"x":167954.61000000034,"y":2544184.6099999994}},{"attributes":{"ID":259884,"DIS_CODE":0,"TOWNNAME":"歸仁區","LI":"七甲里","LIN":"15鄰","STREET":"南丁路","SECT":" ","MAREA":" ","LANE":"６２５巷","ALLEY":" ","HOUSE_NO":"１３４號","E_COORD97":175607.78455099999,"N_COORD97":2543213.3261699998,"ADDRESS":"南丁路６２５巷１３４號","OBJECTID":259880},"geometry":{"x":175607.78455100022,"y":2543213.3261710033}},{"attributes":{"ID":259885,"DIS_CODE":0,"TOWNNAME":"歸仁區","LI":"七甲里","LIN":"15鄰","STREET":"南丁路","SECT":" ","MAREA":" ","LANE":"６２５巷","ALLEY":" ","HOUSE_NO":"３０１號","E_COORD97":175527.42361599999,"N_COORD97":2543187.5028499998,"ADDRESS":"南丁路６２５巷３０１號","OBJECTID":259881},"geometry":{"x":175527.42361599952,"y":2543187.5028510001}},{"attributes":{"ID":259886,"DIS_CODE":0,"TOWNNAME":"歸仁區","LI":"七甲里","LIN":"15鄰","STREET":"南丁路","SECT":" ","MAREA":" ","LANE":"７０２巷","ALLEY":" ","HOUSE_NO":"５０號","E_COORD97":176210.27953100001,"N_COORD97":2543373.34608,"ADDRESS":"南丁路７０２巷５０號","OBJECTID":259882},"geometry":{"x":176210.27953100018,"y":2543373.3460840024}},{"attributes":{"ID":259887,"DIS_CODE":0,"TOWNNAME":"歸仁區","LI":"七甲里","LIN":"15鄰","STREET":"南丁路","SECT":" ","MAREA":" ","LANE":"７０２巷","ALLEY":" ","HOUSE_NO":"１０１號","E_COORD97":176385.949808,"N_COORD97":2543415.25606,"ADDRESS":"南丁路７０２巷１０１號","OBJECTID":259883},"geometry":{"x":176385.94980799872,"y":2543415.2560620047}},{"attributes":{"ID":259888,"DIS_CODE":0,"TOWNNAME":"永康區","LI":"永康里","LIN":"23鄰","STREET":"中山南路","SECT":" ","MAREA":" ","LANE":"５５７巷","ALLEY":" ","HOUSE_NO":"４號","E_COORD97":173443.12865999999,"N_COORD97":2547163.2672100002,"ADDRESS":"中山南路５５７巷４號","OBJECTID":259884},"geometry":{"x":173443.12865999993,"y":2547163.2672060039}},{"attributes":{"ID":259889,"DIS_CODE":0,"TOWNNAME":"永康區","LI":"永康里","LIN":"23鄰","STREET":"中山南路","SECT":" ","MAREA":" ","LANE":"５５７巷","ALLEY":" ","HOUSE_NO":"１４號","E_COORD97":173441.64527800001,"N_COORD97":2547198.4038499999,"ADDRESS":"中山南路５５７巷１４號","OBJECTID":259885},"geometry":{"x":173441.64527800027,"y":2547198.4038539995}},{"attributes":{"ID":259890,"DIS_CODE":0,"TOWNNAME":"歸仁區","LI":"八甲里","LIN":"24鄰","STREET":"大德路","SECT":" ","MAREA":" ","LANE":"１２０巷","ALLEY":" ","HOUSE_NO":"５號","E_COORD97":178086.87141399999,"N_COORD97":2541358.9357699999,"ADDRESS":"大德路１２０巷５號","OBJECTID":259886},"geometry":{"x":178086.87141400017,"y":2541358.9357719999}},{"attributes":{"ID":259891,"DIS_CODE":0,"TOWNNAME":"歸仁區","LI":"崙頂里","LIN":"21鄰","STREET":"大成路","SECT":" ","MAREA":" ","LANE":"２０６巷","ALLEY":" ","HOUSE_NO":"３７號","E_COORD97":177684.204727,"N_COORD97":2540062.1579700001,"ADDRESS":"大成路２０６巷３７號","OBJECTID":259887},"geometry":{"x":177684.20472699963,"y":2540062.1579710003}},{"attributes":{"ID":259892,"DIS_CODE":0,"TOWNNAME":"歸仁區","LI":"崙頂里","LIN":"21鄰","STREET":"大成路","SECT":" ","MAREA":" ","LANE":"２０６巷","ALLEY":" ","HOUSE_NO":"３９號","E_COORD97":177680.60198199999,"N_COORD97":2540058.5596400001,"ADDRESS":"大成路２０６巷３９號","OBJECTID":259888},"geometry":{"x":177680.60198200215,"y":2540058.5596400015}},{"attributes":{"ID":259893,"DIS_CODE":0,"TOWNNAME":"歸仁區","LI":"崙頂里","LIN":"21鄰","STREET":"大成路","SECT":" ","MAREA":" ","LANE":"２０６巷","ALLEY":" ","HOUSE_NO":"４１號","E_COORD97":177676.575385,"N_COORD97":2540056.2313100002,"ADDRESS":"大成路２０６巷４１號","OBJECTID":259889},"geometry":{"x":177676.57538499963,"y":2540056.2313080002}},{"attributes":{"ID":259894,"DIS_CODE":0,"TOWNNAME":"歸仁區","LI":"崙頂里","LIN":"21鄰","STREET":"大成路","SECT":" ","MAREA":" ","LANE":"２０６巷","ALLEY":" ","HOUSE_NO":"４３號","E_COORD97":177672.97263999999,"N_COORD97":2540053.6913100001,"ADDRESS":"大成路２０６巷４３號","OBJECTID":259890},"geometry":{"x":177672.97264000122,"y":2540053.6913089994}},{"attributes":{"ID":259895,"DIS_CODE":0,"TOWNNAME":"歸仁區","LI":"崙頂里","LIN":"21鄰","STREET":"大成路","SECT":" ","MAREA":" ","LANE":"２０６巷","ALLEY":" ","HOUSE_NO":"４５號","E_COORD97":177668.522191,"N_COORD97":2540050.93964,"ADDRESS":"大成路２０６巷４５號","OBJECTID":259891},"geometry":{"x":177668.5221910011,"y":2540050.9396439996}},{"attributes":{"ID":259896,"DIS_CODE":0,"TOWNNAME":"歸仁區","LI":"崙頂里","LIN":"21鄰","STREET":"大成路","SECT":" ","MAREA":" ","LANE":"２０６巷","ALLEY":" ","HOUSE_NO":"４７號","E_COORD97":177664.70752,"N_COORD97":2540049.0346499998,"ADDRESS":"大成路２０６巷４７號","OBJECTID":259892},"geometry":{"x":177664.70752000064,"y":2540049.0346450042}},{"attributes":{"ID":259897,"DIS_CODE":0,"TOWNNAME":"南區","LI":"彰南里","LIN":"18鄰","STREET":"新和一路","SECT":" ","MAREA":" ","LANE":"１巷","ALLEY":" ","HOUSE_NO":"５號之２","E_COORD97":166136.65728499999,"N_COORD97":2540825.1076600002,"ADDRESS":"新和一路１巷５號之２","OBJECTID":259893},"geometry":{"x":166136.6572850002,"y":2540825.107656002}},{"attributes":{"ID":259898,"DIS_CODE":0,"TOWNNAME":"歸仁區","LI":"七甲里","LIN":"15鄰","STREET":"南丁路","SECT":" ","MAREA":" ","LANE":"６２５巷","ALLEY":" ","HOUSE_NO":"１２２號","E_COORD97":175641.79000000001,"N_COORD97":2543214.25,"ADDRESS":"南丁路６２５巷１２２號","OBJECTID":259894},"geometry":{"x":175641.79000000097,"y":2543214.25}},{"attributes":{"ID":259899,"DIS_CODE":0,"TOWNNAME":"歸仁區","LI":"七甲里","LIN":"15鄰","STREET":"南丁路","SECT":" ","MAREA":" ","LANE":"６２５巷","ALLEY":" ","HOUSE_NO":"１２１號","E_COORD97":175636.48999999999,"N_COORD97":2543183.25,"ADDRESS":"南丁路６２５巷１２１號","OBJECTID":259895},"geometry":{"x":175636.49000000022,"y":2543183.2500000019}},{"attributes":{"ID":259900,"DIS_CODE":0,"TOWNNAME":"歸仁區","LI":"崙頂里","LIN":"21鄰","STREET":"大成路","SECT":" ","MAREA":" ","LANE":"２０６巷","ALLEY":" ","HOUSE_NO":"３８號","E_COORD97":177677.846942,"N_COORD97":2540071.89463,"ADDRESS":"大成路２０６巷３８號","OBJECTID":259896},"geometry":{"x":177677.84694200009,"y":2540071.8946329989}},{"attributes":{"ID":259901,"DIS_CODE":0,"TOWNNAME":"南區","LI":"彰南里","LIN":"18鄰","STREET":"新和一路","SECT":" ","MAREA":" ","LANE":"１巷","ALLEY":" ","HOUSE_NO":"８號之１","E_COORD97":166138.66913900001,"N_COORD97":2540772.7201899998,"ADDRESS":"新和一路１巷８號之１","OBJECTID":259897},"geometry":{"x":166138.66913900059,"y":2540772.7201850004}},{"attributes":{"ID":259902,"DIS_CODE":0,"TOWNNAME":"南區","LI":"彰南里","LIN":"18鄰","STREET":"新和一路","SECT":" ","MAREA":" ","LANE":"１巷","ALLEY":" ","HOUSE_NO":"８號之２","E_COORD97":166137.557325,"N_COORD97":2540772.6143499999,"ADDRESS":"新和一路１巷８號之２","OBJECTID":259898},"geometry":{"x":166137.55732499994,"y":2540772.6143509988}},{"attributes":{"ID":259903,"DIS_CODE":0,"TOWNNAME":"南區","LI":"彰南里","LIN":"18鄰","STREET":"新和一路","SECT":" ","MAREA":" ","LANE":"３巷","ALLEY":" ","HOUSE_NO":"６號之２","E_COORD97":166132.58063499999,"N_COORD97":2540670.5910700001,"ADDRESS":"新和一路３巷６號之２","OBJECTID":259899},"geometry":{"x":166132.58063499909,"y":2540670.5910730008}},{"attributes":{"ID":259904,"DIS_CODE":0,"TOWNNAME":"歸仁區","LI":"八甲里","LIN":"9鄰","STREET":"中正北路","SECT":"一段","MAREA":" ","LANE":"３９５巷","ALLEY":" ","HOUSE_NO":"１５０號","E_COORD97":177059.31442899999,"N_COORD97":2541881.9638200002,"ADDRESS":"中正北路一段３９５巷１５０號","OBJECTID":259900},"geometry":{"x":177059.31442900002,"y":2541881.9638229981}},{"attributes":{"ID":259905,"DIS_CODE":0,"TOWNNAME":"歸仁區","LI":"崙頂里","LIN":"21鄰","STREET":"大成路","SECT":" ","MAREA":" ","LANE":"１８２巷","ALLEY":" ","HOUSE_NO":"４８號","E_COORD97":177648.601131,"N_COORD97":2540132.7487699999,"ADDRESS":"大成路１８２巷４８號","OBJECTID":259901},"geometry":{"x":177648.60113099962,"y":2540132.7487660032}},{"attributes":{"ID":259906,"DIS_CODE":0,"TOWNNAME":"佳里區","LI":"佳化里","LIN":"22鄰","STREET":" ","SECT":" ","MAREA":"佳里興","LANE":" ","ALLEY":" ","HOUSE_NO":"１９６號之１０","E_COORD97":167152.70000000001,"N_COORD97":2565411.6099999999,"ADDRESS":"佳里興１９６號之１０","OBJECTID":259902},"geometry":{"x":167152.70000000205,"y":2565411.6099999994}},{"attributes":{"ID":259907,"DIS_CODE":0,"TOWNNAME":"歸仁區","LI":"七甲里","LIN":"15鄰","STREET":"南丁路","SECT":" ","MAREA":" ","LANE":"７０５巷","ALLEY":" ","HOUSE_NO":"１００號","E_COORD97":175895.93893400001,"N_COORD97":2543437.7590700001,"ADDRESS":"南丁路７０５巷１００號","OBJECTID":259903},"geometry":{"x":175895.93893400021,"y":2543437.7590740044}},{"attributes":{"ID":259908,"DIS_CODE":0,"TOWNNAME":"佳里區","LI":"佳化里","LIN":"22鄰","STREET":" ","SECT":" ","MAREA":"佳里興","LANE":" ","ALLEY":" ","HOUSE_NO":"１９６號之１１","E_COORD97":167187.91,"N_COORD97":2565393.5,"ADDRESS":"佳里興１９６號之１１","OBJECTID":259904},"geometry":{"x":167187.91000000015,"y":2565393.5}},{"attributes":{"ID":259909,"DIS_CODE":0,"TOWNNAME":"佳里區","LI":"佳化里","LIN":"22鄰","STREET":" ","SECT":" ","MAREA":"佳里興","LANE":" ","ALLEY":" ","HOUSE_NO":"１９６號之１３","E_COORD97":167154.62,"N_COORD97":2565434.8199999998,"ADDRESS":"佳里興１９６號之１３","OBJECTID":259905},"geometry":{"x":167154.62000000011,"y":2565434.8200000003}},{"attributes":{"ID":259910,"DIS_CODE":0,"TOWNNAME":"佳里區","LI":"佳化里","LIN":"22鄰","STREET":" ","SECT":" ","MAREA":"佳里興","LANE":" ","ALLEY":" ","HOUSE_NO":"１９６號之１４","E_COORD97":167206.01999999999,"N_COORD97":2565465.1899999999,"ADDRESS":"佳里興１９６號之１４","OBJECTID":259906},"geometry":{"x":167206.02000000048,"y":2565465.1899999995}},{"attributes":{"ID":259911,"DIS_CODE":0,"TOWNNAME":"佳里區","LI":"佳化里","LIN":"22鄰","STREET":" ","SECT":" ","MAREA":"佳里興","LANE":" ","ALLEY":" ","HOUSE_NO":"１９６號之１５","E_COORD97":167200.22,"N_COORD97":2565466.1499999999,"ADDRESS":"佳里興１９６號之１５","OBJECTID":259907},"geometry":{"x":167200.22000000067,"y":2565466.1500000004}},{"attributes":{"ID":259912,"DIS_CODE":0,"TOWNNAME":"佳里區","LI":"佳化里","LIN":"22鄰","STREET":" ","SECT":" ","MAREA":"佳里興","LANE":" ","ALLEY":" ","HOUSE_NO":"１９６號之１６","E_COORD97":167196.20999999999,"N_COORD97":2565467.3199999998,"ADDRESS":"佳里興１９６號之１６","OBJECTID":259908},"geometry":{"x":167196.20999999996,"y":2565467.3200000022}},{"attributes":{"ID":259913,"DIS_CODE":0,"TOWNNAME":"佳里區","LI":"佳化里","LIN":"22鄰","STREET":" ","SECT":" ","MAREA":"佳里興","LANE":" ","ALLEY":" ","HOUSE_NO":"１９６號之１７","E_COORD97":167191.63,"N_COORD97":2565468.0699999998,"ADDRESS":"佳里興１９６號之１７","OBJECTID":259909},"geometry":{"x":167191.62999999989,"y":2565468.0699999984}},{"attributes":{"ID":259914,"DIS_CODE":0,"TOWNNAME":"佳里區","LI":"佳化里","LIN":"22鄰","STREET":" ","SECT":" ","MAREA":"佳里興","LANE":" ","ALLEY":" ","HOUSE_NO":"１９６號之１８","E_COORD97":167187.26999999999,"N_COORD97":2565468.5800000001,"ADDRESS":"佳里興１９６號之１８","OBJECTID":259910},"geometry":{"x":167187.27000000048,"y":2565468.5800000019}},{"attributes":{"ID":259915,"DIS_CODE":0,"TOWNNAME":"佳里區","LI":"佳化里","LIN":"22鄰","STREET":" ","SECT":" ","MAREA":"佳里興","LANE":" ","ALLEY":" ","HOUSE_NO":"１９６號之５","E_COORD97":167148.06,"N_COORD97":2565345.3500000001,"ADDRESS":"佳里興１９６號之５","OBJECTID":259911},"geometry":{"x":167148.06000000052,"y":2565345.3499999996}},{"attributes":{"ID":259916,"DIS_CODE":0,"TOWNNAME":"佳里區","LI":"佳化里","LIN":"22鄰","STREET":" ","SECT":" ","MAREA":"佳里興","LANE":" ","ALLEY":" ","HOUSE_NO":"１９６號之６","E_COORD97":167145.72,"N_COORD97":2565357.9900000002,"ADDRESS":"佳里興１９６號之６","OBJECTID":259912},"geometry":{"x":167145.72000000067,"y":2565357.9900000021}},{"attributes":{"ID":259917,"DIS_CODE":0,"TOWNNAME":"下營區","LI":"仁里里","LIN":"22鄰","STREET":"仁里街","SECT":" ","MAREA":" ","LANE":" ","ALLEY":" ","HOUSE_NO":"１７２號","E_COORD97":174177.14999999999,"N_COORD97":2569777.3199999998,"ADDRESS":"仁里街１７２號","OBJECTID":259913},"geometry":{"x":174177.1500000013,"y":2569777.3200000022}},{"attributes":{"ID":259918,"DIS_CODE":0,"TOWNNAME":"佳里區","LI":"佳化里","LIN":"22鄰","STREET":" ","SECT":" ","MAREA":"佳里興","LANE":" ","ALLEY":" ","HOUSE_NO":"１９６號之７","E_COORD97":167182.34,"N_COORD97":2565347.04,"ADDRESS":"佳里興１９６號之７","OBJECTID":259914},"geometry":{"x":167182.34000000078,"y":2565347.0399999991}},{"attributes":{"ID":259919,"DIS_CODE":0,"TOWNNAME":"佳里區","LI":"佳化里","LIN":"22鄰","STREET":" ","SECT":" ","MAREA":"佳里興","LANE":" ","ALLEY":" ","HOUSE_NO":"１９６號之８","E_COORD97":167187.17999999999,"N_COORD97":2565380,"ADDRESS":"佳里興１９６號之８","OBJECTID":259915},"geometry":{"x":167187.1799999997,"y":2565379.9999999981}},{"attributes":{"ID":259920,"DIS_CODE":0,"TOWNNAME":"佳里區","LI":"佳化里","LIN":"22鄰","STREET":" ","SECT":" ","MAREA":"佳里興","LANE":" ","ALLEY":" ","HOUSE_NO":"１９６號之９","E_COORD97":167149.22,"N_COORD97":2565382.1400000001,"ADDRESS":"佳里興１９６號之９","OBJECTID":259916},"geometry":{"x":167149.22000000067,"y":2565382.1400000006}},{"attributes":{"ID":259921,"DIS_CODE":0,"TOWNNAME":"下營區","LI":"仁里里","LIN":"22鄰","STREET":"仁里街","SECT":" ","MAREA":" ","LANE":" ","ALLEY":" ","HOUSE_NO":"１２６號","E_COORD97":174222.54000000001,"N_COORD97":2569954.8700000001,"ADDRESS":"仁里街１２６號","OBJECTID":259917},"geometry":{"x":174222.5400000019,"y":2569954.870000001}},{"attributes":{"ID":259922,"DIS_CODE":0,"TOWNNAME":"下營區","LI":"仁里里","LIN":"22鄰","STREET":"仁里街","SECT":" ","MAREA":" ","LANE":" ","ALLEY":" ","HOUSE_NO":"１２８號","E_COORD97":174223.78,"N_COORD97":2569940.3100000001,"ADDRESS":"仁里街１２８號","OBJECTID":259918},"geometry":{"x":174223.78000000026,"y":2569940.3100000024}},{"attributes":{"ID":259923,"DIS_CODE":0,"TOWNNAME":"下營區","LI":"仁里里","LIN":"22鄰","STREET":"仁里街","SECT":" ","MAREA":" ","LANE":" ","ALLEY":" ","HOUSE_NO":"１３８號","E_COORD97":174210.34,"N_COORD97":2569912.0499999998,"ADDRESS":"仁里街１３８號","OBJECTID":259919},"geometry":{"x":174210.34000000078,"y":2569912.0500000007}},{"attributes":{"ID":259924,"DIS_CODE":0,"TOWNNAME":"下營區","LI":"仁里里","LIN":"22鄰","STREET":"仁里街","SECT":" ","MAREA":" ","LANE":" ","ALLEY":" ","HOUSE_NO":"１４６號","E_COORD97":174205.26000000001,"N_COORD97":2569882.8399999999,"ADDRESS":"仁里街１４６號","OBJECTID":259920},"geometry":{"x":174205.25999999978,"y":2569882.8399999999}},{"attributes":{"ID":259925,"DIS_CODE":0,"TOWNNAME":"下營區","LI":"仁里里","LIN":"22鄰","STREET":"仁里街","SECT":" ","MAREA":" ","LANE":" ","ALLEY":" ","HOUSE_NO":"１５０號","E_COORD97":174192.28,"N_COORD97":2569865.8300000001,"ADDRESS":"仁里街１５０號","OBJECTID":259921},"geometry":{"x":174192.28000000212,"y":2569865.8300000001}},{"attributes":{"ID":259926,"DIS_CODE":0,"TOWNNAME":"下營區","LI":"仁里里","LIN":"22鄰","STREET":"仁里街","SECT":" ","MAREA":" ","LANE":" ","ALLEY":" ","HOUSE_NO":"１６０號","E_COORD97":174195.51000000001,"N_COORD97":2569845.8300000001,"ADDRESS":"仁里街１６０號","OBJECTID":259922},"geometry":{"x":174195.51000000071,"y":2569845.8300000001}},{"attributes":{"ID":259927,"DIS_CODE":0,"TOWNNAME":"東區","LI":"龍山里","LIN":"4鄰","STREET":"東門路","SECT":"二段","MAREA":" ","LANE":" ","ALLEY":" ","HOUSE_NO":"２９６號","E_COORD97":170591.04000000001,"N_COORD97":2542697.4900000002,"ADDRESS":"東門路二段２９６號","OBJECTID":259923},"geometry":{"x":170591.04000000004,"y":2542697.4900000002}},{"attributes":{"ID":259928,"DIS_CODE":0,"TOWNNAME":"歸仁區","LI":"崙頂里","LIN":"19鄰","STREET":"大成路","SECT":" ","MAREA":" ","LANE":"１６１巷","ALLEY":" ","HOUSE_NO":"６號","E_COORD97":177778.93572400001,"N_COORD97":2540214.6637200001,"ADDRESS":"大成路１６１巷６號","OBJECTID":259924},"geometry":{"x":177778.93572399952,"y":2540214.663722001}},{"attributes":{"ID":259929,"DIS_CODE":0,"TOWNNAME":"歸仁區","LI":"崙頂里","LIN":"19鄰","STREET":"大成路","SECT":" ","MAREA":" ","LANE":"１６１巷","ALLEY":" ","HOUSE_NO":"８號","E_COORD97":177784.233878,"N_COORD97":2540216.78039,"ADDRESS":"大成路１６１巷８號","OBJECTID":259925},"geometry":{"x":177784.23387800064,"y":2540216.7803880032}},{"attributes":{"ID":259930,"DIS_CODE":0,"TOWNNAME":"歸仁區","LI":"七甲里","LIN":"11鄰","STREET":"南丁路","SECT":" ","MAREA":" ","LANE":"７３巷","ALLEY":" ","HOUSE_NO":"１５７號","E_COORD97":175584.672831,"N_COORD97":2541722.8366700001,"ADDRESS":"南丁路７３巷１５７號","OBJECTID":259926},"geometry":{"x":175584.67283099983,"y":2541722.8366670012}},{"attributes":{"ID":259931,"DIS_CODE":0,"TOWNNAME":"歸仁區","LI":"崙頂里","LIN":"19鄰","STREET":"大成路","SECT":" ","MAREA":" ","LANE":"１６１巷","ALLEY":" ","HOUSE_NO":"１０號","E_COORD97":177789.74395800001,"N_COORD97":2540218.8970499998,"ADDRESS":"大成路１６１巷１０號","OBJECTID":259927},"geometry":{"x":177789.74395800009,"y":2540218.8970529996}},{"attributes":{"ID":259932,"DIS_CODE":0,"TOWNNAME":"歸仁區","LI":"崙頂里","LIN":"19鄰","STREET":"大成路","SECT":" ","MAREA":" ","LANE":"１６１巷","ALLEY":" ","HOUSE_NO":"１２號","E_COORD97":177794.61825999999,"N_COORD97":2540220.1670499998,"ADDRESS":"大成路１６１巷１２號","OBJECTID":259928},"geometry":{"x":177794.61826000083,"y":2540220.1670519989}},{"attributes":{"ID":259933,"DIS_CODE":0,"TOWNNAME":"關廟區","LI":"田中里","LIN":"2鄰","STREET":"田大路","SECT":" ","MAREA":" ","LANE":"１６８巷","ALLEY":" ","HOUSE_NO":"３號","E_COORD97":184463.40082099999,"N_COORD97":2533689.7127100001,"ADDRESS":"田大路１６８巷３號","OBJECTID":259929},"geometry":{"x":184463.40082100127,"y":2533689.7127100006}},{"attributes":{"ID":259934,"DIS_CODE":0,"TOWNNAME":"關廟區","LI":"田中里","LIN":"2鄰","STREET":"田大路","SECT":" ","MAREA":" ","LANE":"１６８巷","ALLEY":" ","HOUSE_NO":"１８號","E_COORD97":184390.09302,"N_COORD97":2533687.7018800001,"ADDRESS":"田大路１６８巷１８號","OBJECTID":259930},"geometry":{"x":184390.09301999956,"y":2533687.7018780001}},{"attributes":{"ID":259935,"DIS_CODE":0,"TOWNNAME":"關廟區","LI":"松腳里","LIN":"2鄰","STREET":"旺萊路","SECT":" ","MAREA":" ","LANE":"３１１巷","ALLEY":" ","HOUSE_NO":"８號","E_COORD97":182067.961549,"N_COORD97":2539650.5774099999,"ADDRESS":"旺萊路３１１巷８號","OBJECTID":259931},"geometry":{"x":182067.96154899988,"y":2539650.5774080046}},{"attributes":{"ID":259936,"DIS_CODE":0,"TOWNNAME":"歸仁區","LI":"歸南里","LIN":"26鄰","STREET":"民生十街","SECT":" ","MAREA":" ","LANE":"５０巷","ALLEY":" ","HOUSE_NO":"１２６號","E_COORD97":175919.293817,"N_COORD97":2540370.6746499999,"ADDRESS":"民生十街５０巷１２６號","OBJECTID":259932},"geometry":{"x":175919.29381700233,"y":2540370.674653003}},{"attributes":{"ID":259937,"DIS_CODE":0,"TOWNNAME":"關廟區","LI":"松腳里","LIN":"6鄰","STREET":"四維街","SECT":" ","MAREA":" ","LANE":"１７２巷","ALLEY":" ","HOUSE_NO":"１０號","E_COORD97":181910.338762,"N_COORD97":2539785.8820400001,"ADDRESS":"四維街１７２巷１０號","OBJECTID":259933},"geometry":{"x":181910.33876200113,"y":2539785.8820430022}},{"attributes":{"ID":259938,"DIS_CODE":0,"TOWNNAME":"關廟區","LI":"松腳里","LIN":"6鄰","STREET":"四維街","SECT":" ","MAREA":" ","LANE":"１７２巷","ALLEY":" ","HOUSE_NO":"１８號","E_COORD97":181937.03405700001,"N_COORD97":2539781.2782999999,"ADDRESS":"四維街１７２巷１８號","OBJECTID":259934},"geometry":{"x":181937.03405699972,"y":2539781.2782949992}},{"attributes":{"ID":259939,"DIS_CODE":0,"TOWNNAME":"關廟區","LI":"松腳里","LIN":"6鄰","STREET":"四維街","SECT":" ","MAREA":" ","LANE":"１７２巷","ALLEY":" ","HOUSE_NO":"１６號","E_COORD97":181925.80508399999,"N_COORD97":2539782.5482999999,"ADDRESS":"四維街１７２巷１６號","OBJECTID":259935},"geometry":{"x":181925.80508400034,"y":2539782.5482950024}},{"attributes":{"ID":259940,"DIS_CODE":0,"TOWNNAME":"關廟區","LI":"松腳里","LIN":"7鄰","STREET":"四維街","SECT":" ","MAREA":" ","LANE":"１６１巷","ALLEY":" ","HOUSE_NO":"１號","E_COORD97":181837.88010499999,"N_COORD97":2539814.8803599998,"ADDRESS":"四維街１６１巷１號","OBJECTID":259936},"geometry":{"x":181837.88010500092,"y":2539814.8803610001}},{"attributes":{"ID":259941,"DIS_CODE":0,"TOWNNAME":"關廟區","LI":"松腳里","LIN":"7鄰","STREET":"四維街","SECT":" ","MAREA":" ","LANE":"１６１巷","ALLEY":" ","HOUSE_NO":"２號","E_COORD97":181842.32931999999,"N_COORD97":2539838.26951,"ADDRESS":"四維街１６１巷２號","OBJECTID":259937},"geometry":{"x":181842.32931999955,"y":2539838.2695150003}},{"attributes":{"ID":259942,"DIS_CODE":0,"TOWNNAME":"東區","LI":"龍山里","LIN":"4鄰","STREET":"東門路","SECT":"二段","MAREA":" ","LANE":" ","ALLEY":" ","HOUSE_NO":"２９８號","E_COORD97":170596.47,"N_COORD97":2542695.5600000001,"ADDRESS":"東門路二段２９８號","OBJECTID":259938},"geometry":{"x":170596.46999999974,"y":2542695.5600000042}},{"attributes":{"ID":259943,"DIS_CODE":0,"TOWNNAME":"東區","LI":"南聖里","LIN":"14鄰","STREET":"裕誠街","SECT":" ","MAREA":" ","LANE":" ","ALLEY":" ","HOUSE_NO":"１９３號","E_COORD97":172632.06,"N_COORD97":2543340.5600000001,"ADDRESS":"裕誠街１９３號","OBJECTID":259939},"geometry":{"x":172632.06000000052,"y":2543340.5600000024}},{"attributes":{"ID":259944,"DIS_CODE":0,"TOWNNAME":"東區","LI":"南聖里","LIN":"14鄰","STREET":"裕誠街","SECT":" ","MAREA":" ","LANE":" ","ALLEY":" ","HOUSE_NO":"１９１號","E_COORD97":172619.38,"N_COORD97":2543340.1899999999,"ADDRESS":"裕誠街１９１號","OBJECTID":259940},"geometry":{"x":172619.37999999989,"y":2543340.1899999995}},{"attributes":{"ID":259945,"DIS_CODE":0,"TOWNNAME":"東區","LI":"崇善里","LIN":"4鄰","STREET":"崇善路","SECT":" ","MAREA":" ","LANE":" ","ALLEY":" ","HOUSE_NO":"４８３號","E_COORD97":170953.89000000001,"N_COORD97":2541729.0699999998,"ADDRESS":"崇善路４８３號","OBJECTID":259941},"geometry":{"x":170953.8900000006,"y":2541729.070000004}},{"attributes":{"ID":259946,"DIS_CODE":0,"TOWNNAME":"東區","LI":"崇善里","LIN":"4鄰","STREET":"崇善路","SECT":" ","MAREA":" ","LANE":" ","ALLEY":" ","HOUSE_NO":"４８５號","E_COORD97":170954.87,"N_COORD97":2541726.6200000001,"ADDRESS":"崇善路４８５號","OBJECTID":259942},"geometry":{"x":170954.87000000011,"y":2541726.6200000029}},{"attributes":{"ID":259947,"DIS_CODE":0,"TOWNNAME":"東區","LI":"崇德里","LIN":"7鄰","STREET":"崇德路","SECT":" ","MAREA":" ","LANE":" ","ALLEY":" ","HOUSE_NO":"４７７號","E_COORD97":170719.69,"N_COORD97":2541685.7599999998,"ADDRESS":"崇德路４７７號","OBJECTID":259943},"geometry":{"x":170719.69000000227,"y":2541685.7599999998}},{"attributes":{"ID":259948,"DIS_CODE":0,"TOWNNAME":"歸仁區","LI":"八甲里","LIN":"14鄰","STREET":"大明街","SECT":" ","MAREA":" ","LANE":"１３９巷","ALLEY":" ","HOUSE_NO":"６號","E_COORD97":178199.055062,"N_COORD97":2541877.6249600002,"ADDRESS":"大明街１３９巷６號","OBJECTID":259944},"geometry":{"x":178199.05506200064,"y":2541877.6249600016}},{"attributes":{"ID":259949,"DIS_CODE":0,"TOWNNAME":"歸仁區","LI":"八甲里","LIN":"14鄰","STREET":"大明街","SECT":" ","MAREA":" ","LANE":"１３８巷","ALLEY":" ","HOUSE_NO":"３３號","E_COORD97":178290.79365400001,"N_COORD97":2541943.6649199999,"ADDRESS":"大明街１３８巷３３號","OBJECTID":259945},"geometry":{"x":178290.79365400132,"y":2541943.6649239995}},{"attributes":{"ID":259950,"DIS_CODE":0,"TOWNNAME":"歸仁區","LI":"八甲里","LIN":"14鄰","STREET":"大明街","SECT":" ","MAREA":" ","LANE":"１３８巷","ALLEY":" ","HOUSE_NO":"６５號","E_COORD97":178517.27992599999,"N_COORD97":2541961.8682499998,"ADDRESS":"大明街１３８巷６５號","OBJECTID":259946},"geometry":{"x":178517.27992600109,"y":2541961.8682480026}},{"attributes":{"ID":259951,"DIS_CODE":0,"TOWNNAME":"歸仁區","LI":"八甲里","LIN":"14鄰","STREET":"大明街","SECT":" ","MAREA":" ","LANE":"１３８巷","ALLEY":" ","HOUSE_NO":"５０號","E_COORD97":178452.660363,"N_COORD97":2541911.2799399998,"ADDRESS":"大明街１３８巷５０號","OBJECTID":259947},"geometry":{"x":178452.66036300082,"y":2541911.2799420003}},{"attributes":{"ID":259952,"DIS_CODE":0,"TOWNNAME":"歸仁區","LI":"八甲里","LIN":"14鄰","STREET":"大明街","SECT":" ","MAREA":" ","LANE":"１３８巷","ALLEY":" ","HOUSE_NO":"５２號","E_COORD97":178451.60102599999,"N_COORD97":2541919.7466000002,"ADDRESS":"大明街１３８巷５２號","OBJECTID":259948},"geometry":{"x":178451.60102600139,"y":2541919.7466039993}},{"attributes":{"ID":259953,"DIS_CODE":0,"TOWNNAME":"東區","LI":"富裕里","LIN":"12鄰","STREET":"裕豐街","SECT":" ","MAREA":" ","LANE":" ","ALLEY":" ","HOUSE_NO":"７４之１號","E_COORD97":170729.5,"N_COORD97":2542816.3399999999,"ADDRESS":"裕豐街７４之１號","OBJECTID":259949},"geometry":{"x":170729.50000000093,"y":2542816.3400000017}},{"attributes":{"ID":259954,"DIS_CODE":0,"TOWNNAME":"中西區","LI":"公正里","LIN":"2鄰","STREET":"北門路","SECT":"一段","MAREA":" ","LANE":"１２３巷","ALLEY":" ","HOUSE_NO":"１２號之１","E_COORD97":169137.03732999999,"N_COORD97":2543955.24884,"ADDRESS":"北門路一段１２３巷１２號之１","OBJECTID":259950},"geometry":{"x":169137.03733000159,"y":2543955.2488400023}},{"attributes":{"ID":259955,"DIS_CODE":0,"TOWNNAME":"下營區","LI":"仁里里","LIN":"22鄰","STREET":"仁里街","SECT":" ","MAREA":" ","LANE":" ","ALLEY":" ","HOUSE_NO":"１６８號","E_COORD97":174179.44,"N_COORD97":2569787.7999999998,"ADDRESS":"仁里街１６８號","OBJECTID":259951},"geometry":{"x":174179.43999999948,"y":2569787.8000000026}},{"attributes":{"ID":259956,"DIS_CODE":0,"TOWNNAME":"下營區","LI":"仁里里","LIN":"22鄰","STREET":"仁里街","SECT":" ","MAREA":" ","LANE":" ","ALLEY":" ","HOUSE_NO":"１７０號","E_COORD97":174178.20999999999,"N_COORD97":2569782.3100000001,"ADDRESS":"仁里街１７０號","OBJECTID":259952},"geometry":{"x":174178.20999999996,"y":2569782.3100000005}},{"attributes":{"ID":259957,"DIS_CODE":0,"TOWNNAME":"歸仁區","LI":"八甲里","LIN":"14鄰","STREET":"大明街","SECT":" ","MAREA":" ","LANE":"１３８巷","ALLEY":" ","HOUSE_NO":"７０號","E_COORD97":178503.08480899999,"N_COORD97":2541704.2700499999,"ADDRESS":"大明街１３８巷７０號","OBJECTID":259953},"geometry":{"x":178503.08480899874,"y":2541704.2700539995}},{"attributes":{"ID":259958,"DIS_CODE":0,"TOWNNAME":"將軍區","LI":"西和里","LIN":"22鄰","STREET":" ","SECT":" ","MAREA":"西湖","LANE":" ","ALLEY":" ","HOUSE_NO":"６６之１號","E_COORD97":163038.26000000001,"N_COORD97":2566247.77,"ADDRESS":"西湖６６之１號","OBJECTID":259954},"geometry":{"x":163038.26000000071,"y":2566247.7699999996}},{"attributes":{"ID":259959,"DIS_CODE":0,"TOWNNAME":"關廟區","LI":"北勢里","LIN":"12鄰","STREET":"仁愛路","SECT":" ","MAREA":" ","LANE":"８００巷","ALLEY":" ","HOUSE_NO":"５０１號","E_COORD97":182451.98996100001,"N_COORD97":2541076.2951400001,"ADDRESS":"仁愛路８００巷５０１號","OBJECTID":259955},"geometry":{"x":182451.98996100109,"y":2541076.2951410003}},{"attributes":{"ID":259960,"DIS_CODE":0,"TOWNNAME":"關廟區","LI":"北勢里","LIN":"1鄰","STREET":"中正路","SECT":" ","MAREA":" ","LANE":"９０８巷","ALLEY":" ","HOUSE_NO":"１８號","E_COORD97":181226.20300899999,"N_COORD97":2540328.95346,"ADDRESS":"中正路９０８巷１８號","OBJECTID":259956},"geometry":{"x":181226.20300900191,"y":2540328.9534610007}},{"attributes":{"ID":259961,"DIS_CODE":0,"TOWNNAME":"關廟區","LI":"北勢里","LIN":"5鄰","STREET":"中正路","SECT":" ","MAREA":" ","LANE":"７３８巷","ALLEY":" ","HOUSE_NO":"３７號","E_COORD97":181591.894528,"N_COORD97":2540382.9548900002,"ADDRESS":"中正路７３８巷３７號","OBJECTID":259957},"geometry":{"x":181591.89452800062,"y":2540382.9548900016}},{"attributes":{"ID":259962,"DIS_CODE":0,"TOWNNAME":"關廟區","LI":"北勢里","LIN":"5鄰","STREET":"中正路","SECT":" ","MAREA":" ","LANE":"７３８巷","ALLEY":" ","HOUSE_NO":"３３號","E_COORD97":181602.064396,"N_COORD97":2540379.3565600002,"ADDRESS":"中正路７３８巷３３號","OBJECTID":259958},"geometry":{"x":181602.06439600047,"y":2540379.3565590028}},{"attributes":{"ID":259963,"DIS_CODE":0,"TOWNNAME":"關廟區","LI":"五甲里","LIN":"5鄰","STREET":"五甲路","SECT":" ","MAREA":" ","LANE":"２１巷","ALLEY":" ","HOUSE_NO":"２號","E_COORD97":181268.60254399999,"N_COORD97":2539047.6738100001,"ADDRESS":"五甲路２１巷２號","OBJECTID":259959},"geometry":{"x":181268.60254400223,"y":2539047.6738099996}},{"attributes":{"ID":259964,"DIS_CODE":0,"TOWNNAME":"關廟區","LI":"五甲里","LIN":"5鄰","STREET":"五甲路","SECT":" ","MAREA":" ","LANE":"２１巷","ALLEY":" ","HOUSE_NO":"８號","E_COORD97":181266.695076,"N_COORD97":2539037.4079800001,"ADDRESS":"五甲路２１巷８號","OBJECTID":259960},"geometry":{"x":181266.69507600088,"y":2539037.4079820011}},{"attributes":{"ID":259965,"DIS_CODE":0,"TOWNNAME":"永康區","LI":"六合里","LIN":"5鄰","STREET":"新興街","SECT":" ","MAREA":" ","LANE":"３４巷","ALLEY":" ","HOUSE_NO":"２號之２","E_COORD97":171021.301519,"N_COORD97":2545763.8242199998,"ADDRESS":"新興街３４巷２號之２","OBJECTID":259961},"geometry":{"x":171021.3015190009,"y":2545763.8242180012}},{"attributes":{"ID":259966,"DIS_CODE":0,"TOWNNAME":"南區","LI":"田寮里","LIN":"9鄰","STREET":"夏林路","SECT":" ","MAREA":" ","LANE":"３３９巷","ALLEY":" ","HOUSE_NO":"２５號","E_COORD97":167542.287144,"N_COORD97":2541978.84424,"ADDRESS":"夏林路３３９巷２５號","OBJECTID":259962},"geometry":{"x":167542.28714399971,"y":2541978.8442440014}},{"attributes":{"ID":259967,"DIS_CODE":0,"TOWNNAME":"關廟區","LI":"北勢里","LIN":"10鄰","STREET":"成功路","SECT":" ","MAREA":" ","LANE":"１８０巷","ALLEY":" ","HOUSE_NO":"３２號","E_COORD97":181595.178548,"N_COORD97":2540515.22003,"ADDRESS":"成功路１８０巷３２號","OBJECTID":259963},"geometry":{"x":181595.17854800075,"y":2540515.2200270016}},{"attributes":{"ID":259968,"DIS_CODE":0,"TOWNNAME":"南區","LI":"田寮里","LIN":"9鄰","STREET":"夏林路","SECT":" ","MAREA":" ","LANE":"３３９巷","ALLEY":" ","HOUSE_NO":"２３號","E_COORD97":167542.657806,"N_COORD97":2541979.7967400001,"ADDRESS":"夏林路３３９巷２３號","OBJECTID":259964},"geometry":{"x":167542.65780599974,"y":2541979.7967440002}},{"attributes":{"ID":259969,"DIS_CODE":0,"TOWNNAME":"關廟區","LI":"北勢里","LIN":"10鄰","STREET":"成功路","SECT":" ","MAREA":" ","LANE":"１８０巷","ALLEY":" ","HOUSE_NO":"３０號","E_COORD97":181599.310057,"N_COORD97":2540514.4262799998,"ADDRESS":"成功路１８０巷３０號","OBJECTID":259965},"geometry":{"x":181599.31005699933,"y":2540514.4262770042}},{"attributes":{"ID":259970,"DIS_CODE":0,"TOWNNAME":"南區","LI":"田寮里","LIN":"9鄰","STREET":"夏林路","SECT":" ","MAREA":" ","LANE":"３３９巷","ALLEY":" ","HOUSE_NO":"２０號","E_COORD97":167537.04492700001,"N_COORD97":2541969.6632099999,"ADDRESS":"夏林路３３９巷２０號","OBJECTID":259966},"geometry":{"x":167537.04492700007,"y":2541969.6632070038}},{"attributes":{"ID":259971,"DIS_CODE":0,"TOWNNAME":"將軍區","LI":"西和里","LIN":"22鄰","STREET":" ","SECT":" ","MAREA":"西湖","LANE":" ","ALLEY":" ","HOUSE_NO":"６６號","E_COORD97":163039.64999999999,"N_COORD97":2566259.9199999999,"ADDRESS":"西湖６６號","OBJECTID":259967},"geometry":{"x":163039.6500000013,"y":2566259.9200000018}},{"attributes":{"ID":259972,"DIS_CODE":0,"TOWNNAME":"將軍區","LI":"西和里","LIN":"22鄰","STREET":" ","SECT":" ","MAREA":"西湖","LANE":" ","ALLEY":" ","HOUSE_NO":"６７號","E_COORD97":163071.13,"N_COORD97":2566284.3300000001,"ADDRESS":"西湖６７號","OBJECTID":259968},"geometry":{"x":163071.13000000082,"y":2566284.3300000019}},{"attributes":{"ID":259973,"DIS_CODE":0,"TOWNNAME":"將軍區","LI":"西和里","LIN":"22鄰","STREET":" ","SECT":" ","MAREA":"西湖","LANE":" ","ALLEY":" ","HOUSE_NO":"６８號","E_COORD97":163067.35000000001,"N_COORD97":2566300.6699999999,"ADDRESS":"西湖６８號","OBJECTID":259969},"geometry":{"x":163067.35000000149,"y":2566300.6699999999}},{"attributes":{"ID":259974,"DIS_CODE":0,"TOWNNAME":"南區","LI":"田寮里","LIN":"9鄰","STREET":"夏林路","SECT":" ","MAREA":" ","LANE":"３３９巷","ALLEY":" ","HOUSE_NO":"１８號","E_COORD97":167536.19769999999,"N_COORD97":2541968.3932099999,"ADDRESS":"夏林路３３９巷１８號","OBJECTID":259970},"geometry":{"x":167536.1977000013,"y":2541968.3932080027}},{"attributes":{"ID":259975,"DIS_CODE":0,"TOWNNAME":"關廟區","LI":"北勢里","LIN":"10鄰","STREET":"成功路","SECT":" ","MAREA":" ","LANE":"１８０巷","ALLEY":" ","HOUSE_NO":"６０號","E_COORD97":181598.88631199999,"N_COORD97":2540552.63209,"ADDRESS":"成功路１８０巷６０號","OBJECTID":259971},"geometry":{"x":181598.88631200138,"y":2540552.6320900023}},{"attributes":{"ID":259976,"DIS_CODE":0,"TOWNNAME":"南區","LI":"田寮里","LIN":"9鄰","STREET":"夏林路","SECT":" ","MAREA":" ","LANE":"３３９巷","ALLEY":" ","HOUSE_NO":"１６號","E_COORD97":167535.45637599999,"N_COORD97":2541966.9115399998,"ADDRESS":"夏林路３３９巷１６號","OBJECTID":259972},"geometry":{"x":167535.45637600124,"y":2541966.9115420021}},{"attributes":{"ID":259977,"DIS_CODE":0,"TOWNNAME":"永康區","LI":"正強里","LIN":"22鄰","STREET":"自強路","SECT":" ","MAREA":" ","LANE":" ","ALLEY":" ","HOUSE_NO":"３１３號","E_COORD97":173427.25,"N_COORD97":2547720.7400000002,"ADDRESS":"自強路３１３號","OBJECTID":259973},"geometry":{"x":173427.25,"y":2547720.7400000002}},{"attributes":{"ID":259978,"DIS_CODE":0,"TOWNNAME":"永康區","LI":"\u25A0洲里","LIN":"22鄰","STREET":"中正南路","SECT":" ","MAREA":" ","LANE":" ","ALLEY":" ","HOUSE_NO":"７２５號","E_COORD97":171579.35000000001,"N_COORD97":2548863.7599999998,"ADDRESS":"中正南路７２５號","OBJECTID":259974},"geometry":{"x":171579.35000000056,"y":2548863.7600000035}},{"attributes":{"ID":259979,"DIS_CODE":0,"TOWNNAME":"南區","LI":"田寮里","LIN":"9鄰","STREET":"夏林路","SECT":" ","MAREA":" ","LANE":"３３９巷","ALLEY":" ","HOUSE_NO":"１３號","E_COORD97":167539.798415,"N_COORD97":2541981.62237,"ADDRESS":"夏林路３３９巷１３號","OBJECTID":259975},"geometry":{"x":167539.79841499962,"y":2541981.6223680004}},{"attributes":{"ID":259980,"DIS_CODE":0,"TOWNNAME":"南區","LI":"田寮里","LIN":"9鄰","STREET":"夏林路","SECT":" ","MAREA":" ","LANE":"３３９巷","ALLEY":" ","HOUSE_NO":"１７號","E_COORD97":167541.28106199999,"N_COORD97":2541985.2206999999,"ADDRESS":"夏林路３３９巷１７號","OBJECTID":259976},"geometry":{"x":167541.28106200136,"y":2541985.220699003}},{"attributes":{"ID":259981,"DIS_CODE":0,"TOWNNAME":"將軍區","LI":"西和里","LIN":"22鄰","STREET":" ","SECT":" ","MAREA":"西湖","LANE":" ","ALLEY":" ","HOUSE_NO":"７１之９號","E_COORD97":162819.22,"N_COORD97":2566354.7999999998,"ADDRESS":"西湖７１之９號","OBJECTID":259977},"geometry":{"x":162819.2200000016,"y":2566354.8000000007}},{"attributes":{"ID":259982,"DIS_CODE":0,"TOWNNAME":"將軍區","LI":"西和里","LIN":"22鄰","STREET":" ","SECT":" ","MAREA":"西湖","LANE":" ","ALLEY":" ","HOUSE_NO":"７１號","E_COORD97":163001.17999999999,"N_COORD97":2566308.7999999998,"ADDRESS":"西湖７１號","OBJECTID":259978},"geometry":{"x":163001.18000000063,"y":2566308.8000000026}},{"attributes":{"ID":259983,"DIS_CODE":0,"TOWNNAME":"南區","LI":"田寮里","LIN":"9鄰","STREET":"夏林路","SECT":" ","MAREA":" ","LANE":"３３９巷","ALLEY":" ","HOUSE_NO":"８號","E_COORD97":167533.97372899999,"N_COORD97":2541973.0498700002,"ADDRESS":"夏林路３３９巷８號","OBJECTID":259979},"geometry":{"x":167533.97372900136,"y":2541973.0498719998}},{"attributes":{"ID":259984,"DIS_CODE":0,"TOWNNAME":"關廟區","LI":"松腳里","LIN":"12鄰","STREET":"東興路","SECT":" ","MAREA":" ","LANE":"２０５巷","ALLEY":" ","HOUSE_NO":"１６號","E_COORD97":181739.67955599999,"N_COORD97":2539604.2192199999,"ADDRESS":"東興路２０５巷１６號","OBJECTID":259980},"geometry":{"x":181739.67955600005,"y":2539604.2192240041}},{"attributes":{"ID":259985,"DIS_CODE":0,"TOWNNAME":"關廟區","LI":"北勢里","LIN":"12鄰","STREET":"成功路","SECT":" ","MAREA":" ","LANE":"２６２巷","ALLEY":" ","HOUSE_NO":"２號","E_COORD97":181484.26342,"N_COORD97":2540510.72211,"ADDRESS":"成功路２６２巷２號","OBJECTID":259981},"geometry":{"x":181484.26342000067,"y":2540510.7221130002}},{"attributes":{"ID":259986,"DIS_CODE":0,"TOWNNAME":"南區","LI":"田寮里","LIN":"9鄰","STREET":"夏林路","SECT":" ","MAREA":" ","LANE":"３３９巷","ALLEY":" ","HOUSE_NO":"１號","E_COORD97":167527.72542999999,"N_COORD97":2541982.0457000001,"ADDRESS":"夏林路３３９巷１號","OBJECTID":259982},"geometry":{"x":167527.72543000057,"y":2541982.0457010027}},{"attributes":{"ID":259987,"DIS_CODE":0,"TOWNNAME":"將軍區","LI":"西和里","LIN":"22鄰","STREET":" ","SECT":" ","MAREA":"西湖","LANE":" ","ALLEY":" ","HOUSE_NO":"７２之５號","E_COORD97":162872.62,"N_COORD97":2566261.5899999999,"ADDRESS":"西湖７２之５號","OBJECTID":259983},"geometry":{"x":162872.62000000011,"y":2566261.5900000017}},{"attributes":{"ID":259988,"DIS_CODE":0,"TOWNNAME":"南區","LI":"田寮里","LIN":"9鄰","STREET":"夏林路","SECT":" ","MAREA":" ","LANE":"３３９巷","ALLEY":" ","HOUSE_NO":"３號","E_COORD97":167529.20807699999,"N_COORD97":2541981.4106999999,"ADDRESS":"夏林路３３９巷３號","OBJECTID":259984},"geometry":{"x":167529.20807700045,"y":2541981.4107009992}},{"attributes":{"ID":259989,"DIS_CODE":0,"TOWNNAME":"南區","LI":"田寮里","LIN":"9鄰","STREET":"夏林路","SECT":" ","MAREA":" ","LANE":"３３９巷","ALLEY":" ","HOUSE_NO":"５號","E_COORD97":167530.37301400001,"N_COORD97":2541980.88154,"ADDRESS":"夏林路３３９巷５號","OBJECTID":259985},"geometry":{"x":167530.37301400118,"y":2541980.881535003}},{"attributes":{"ID":259990,"DIS_CODE":0,"TOWNNAME":"南區","LI":"田寮里","LIN":"9鄰","STREET":"夏林路","SECT":" ","MAREA":" ","LANE":"３３９巷","ALLEY":" ","HOUSE_NO":"７號","E_COORD97":167532.27927500001,"N_COORD97":2541980.2465300001,"ADDRESS":"夏林路３３９巷７號","OBJECTID":259986},"geometry":{"x":167532.27927500103,"y":2541980.2465349995}},{"attributes":{"ID":259991,"DIS_CODE":0,"TOWNNAME":"南區","LI":"田寮里","LIN":"9鄰","STREET":"夏林路","SECT":" ","MAREA":" ","LANE":"３３９巷","ALLEY":" ","HOUSE_NO":"９號","E_COORD97":167534.39734299999,"N_COORD97":2541979.3998699998,"ADDRESS":"夏林路３３９巷９號","OBJECTID":259987},"geometry":{"x":167534.39734300133,"y":2541979.3998690024}},{"attributes":{"ID":259992,"DIS_CODE":0,"TOWNNAME":"南區","LI":"田寮里","LIN":"7鄰","STREET":"夏林路","SECT":" ","MAREA":" ","LANE":"３８５巷","ALLEY":" ","HOUSE_NO":"１３號","E_COORD97":167526.394137,"N_COORD97":2541858.9175499999,"ADDRESS":"夏林路３８５巷１３號","OBJECTID":259988},"geometry":{"x":167526.39413699973,"y":2541858.9175480008}},{"attributes":{"ID":259993,"DIS_CODE":0,"TOWNNAME":"將軍區","LI":"西和里","LIN":"22鄰","STREET":" ","SECT":" ","MAREA":"西湖","LANE":" ","ALLEY":" ","HOUSE_NO":"７２之６號","E_COORD97":162913.70000000001,"N_COORD97":2566278.2599999998,"ADDRESS":"西湖７２之６號","OBJECTID":259989},"geometry":{"x":162913.70000000112,"y":2566278.2600000016}},{"attributes":{"ID":259994,"DIS_CODE":0,"TOWNNAME":"南區","LI":"田寮里","LIN":"7鄰","STREET":"夏林路","SECT":" ","MAREA":" ","LANE":"３８５巷","ALLEY":" ","HOUSE_NO":"３號","E_COORD97":167508.81688999999,"N_COORD97":2541867.0667099999,"ADDRESS":"夏林路３８５巷３號","OBJECTID":259990},"geometry":{"x":167508.8168900013,"y":2541867.066709999}},{"attributes":{"ID":259995,"DIS_CODE":0,"TOWNNAME":"將軍區","LI":"仁和里","LIN":"22鄰","STREET":" ","SECT":" ","MAREA":"和巷","LANE":" ","ALLEY":" ","HOUSE_NO":"１００號","E_COORD97":163837.17999999999,"N_COORD97":2569249.7599999998,"ADDRESS":"和巷１００號","OBJECTID":259991},"geometry":{"x":163837.18000000063,"y":2569249.7599999998}},{"attributes":{"ID":259996,"DIS_CODE":0,"TOWNNAME":"關廟區","LI":"五甲里","LIN":"5鄰","STREET":"五甲路","SECT":" ","MAREA":" ","LANE":"２１巷","ALLEY":" ","HOUSE_NO":"６號","E_COORD97":181260.72,"N_COORD97":2539044.25,"ADDRESS":"五甲路２１巷６號","OBJECTID":259992},"geometry":{"x":181260.71999999974,"y":2539044.25}},{"attributes":{"ID":259997,"DIS_CODE":0,"TOWNNAME":"南區","LI":"田寮里","LIN":"7鄰","STREET":"夏林路","SECT":" ","MAREA":" ","LANE":"３８５巷","ALLEY":" ","HOUSE_NO":"１１號","E_COORD97":167522.37043000001,"N_COORD97":2541861.0871299999,"ADDRESS":"夏林路３８５巷１１號","OBJECTID":259993},"geometry":{"x":167522.37043000106,"y":2541861.087129999}},{"attributes":{"ID":259998,"DIS_CODE":0,"TOWNNAME":"將軍區","LI":"仁和里","LIN":"22鄰","STREET":" ","SECT":" ","MAREA":"和巷","LANE":" ","ALLEY":" ","HOUSE_NO":"１０１號","E_COORD97":163815.32000000001,"N_COORD97":2569255.5,"ADDRESS":"和巷１０１號","OBJECTID":259994},"geometry":{"x":163815.3200000003,"y":2569255.5000000037}},{"attributes":{"ID":259999,"DIS_CODE":0,"TOWNNAME":"將軍區","LI":"仁和里","LIN":"22鄰","STREET":" ","SECT":" ","MAREA":"和巷","LANE":" ","ALLEY":" ","HOUSE_NO":"９５號","E_COORD97":163889.48999999999,"N_COORD97":2569248.1899999999,"ADDRESS":"和巷９５號","OBJECTID":259995},"geometry":{"x":163889.49000000115,"y":2569248.1900000013}},{"attributes":{"ID":260000,"DIS_CODE":0,"TOWNNAME":"永康區","LI":"崑山里","LIN":"22鄰","STREET":"國光二街","SECT":" ","MAREA":" ","LANE":" ","ALLEY":" ","HOUSE_NO":"２１號","E_COORD97":174021.69,"N_COORD97":2544670.21,"ADDRESS":"國光二街２１號","OBJECTID":259996},"geometry":{"x":174021.69000000041,"y":2544670.2100000009}},{"attributes":{"ID":260001,"DIS_CODE":0,"TOWNNAME":"南區","LI":"田寮里","LIN":"7鄰","STREET":"夏林路","SECT":" ","MAREA":" ","LANE":"３８５巷","ALLEY":" ","HOUSE_NO":"７號","E_COORD97":167514.21712799999,"N_COORD97":2541864.3679599999,"ADDRESS":"夏林路３８５巷７號","OBJECTID":259997},"geometry":{"x":167514.21712800115,"y":2541864.367961999}},{"attributes":{"ID":260002,"DIS_CODE":0,"TOWNNAME":"永康區","LI":"龍潭里","LIN":"22鄰","STREET":"龍潭街","SECT":" ","MAREA":" ","LANE":" ","ALLEY":" ","HOUSE_NO":"３４２號","E_COORD97":174776.17999999999,"N_COORD97":2548459.7400000002,"ADDRESS":"龍潭街３４２號","OBJECTID":259998},"geometry":{"x":174776.18000000063,"y":2548459.7400000002}},{"attributes":{"ID":260003,"DIS_CODE":0,"TOWNNAME":"南區","LI":"田寮里","LIN":"9鄰","STREET":"夏林路","SECT":" ","MAREA":" ","LANE":"３３９巷","ALLEY":" ","HOUSE_NO":"１５號","E_COORD97":167540.53973799999,"N_COORD97":2541983.7390299998,"ADDRESS":"夏林路３３９巷１５號","OBJECTID":259999},"geometry":{"x":167540.5397380013,"y":2541983.7390330005}},{"attributes":{"ID":260004,"DIS_CODE":0,"TOWNNAME":"中西區","LI":"赤嵌里","LIN":"6鄰","STREET":"廣慈街","SECT":" ","MAREA":" ","LANE":"３２巷","ALLEY":" ","HOUSE_NO":"１８號","E_COORD97":168690.57133499999,"N_COORD97":2544025.0285,"ADDRESS":"廣慈街３２巷１８號","OBJECTID":260000},"geometry":{"x":168690.57133499999,"y":2544025.0285020024}}]}