{"displayFieldName":"TOWNNAME","fieldAliases":{"ID":"ID","DIS_CODE":"DIS_CODE","TOWNNAME":"TOWNNAME","LI":"LI","LIN":"LIN","STREET":"STREET","SECT":"SECT","MAREA":"MAREA","LANE":"LANE","ALLEY":"ALLEY","HOUSE_NO":"HOUSE_NO","E_COORD97":"E_COORD97","N_COORD97":"N_COORD97","ADDRESS":"ADDRESS","OBJECTID":"OBJECTID"},"geometryType":"esriGeometryPoint","spatialReference":{"wkid":102443,"latestWkid":3826},"fields":[{"name":"ID","type":"esriFieldTypeDouble","alias":"ID"},{"name":"DIS_CODE","type":"esriFieldTypeInteger","alias":"DIS_CODE"},{"name":"TOWNNAME","type":"esriFieldTypeString","alias":"TOWNNAME","length":8},{"name":"LI","type":"esriFieldTypeString","alias":"LI","length":8},{"name":"LIN","type":"esriFieldTypeString","alias":"LIN","length":12},{"name":"STREET","type":"esriFieldTypeString","alias":"STREET","length":20},{"name":"SECT","type":"esriFieldTypeString","alias":"SECT","length":8},{"name":"MAREA","type":"esriFieldTypeString","alias":"MAREA","length":12},{"name":"LANE","type":"esriFieldTypeString","alias":"LANE","length":10},{"name":"ALLEY","type":"esriFieldTypeString","alias":"ALLEY","length":10},{"name":"HOUSE_NO","type":"esriFieldTypeString","alias":"HOUSE_NO","length":20},{"name":"E_COORD97","type":"esriFieldTypeDouble","alias":"E_COORD97"},{"name":"N_COORD97","type":"esriFieldTypeDouble","alias":"N_COORD97"},{"name":"ADDRESS","type":"esriFieldTypeString","alias":"ADDRESS","length":50},{"name":"OBJECTID","type":"esriFieldTypeOID","alias":"OBJECTID"}],"features":[{"attributes":{"ID":28401,"DIS_CODE":0,"TOWNNAME":"歸仁區","LI":"西埔里","LIN":"1鄰","STREET":"和順路","SECT":"一段","MAREA":" ","LANE":"１８８巷","ALLEY":"３８弄","HOUSE_NO":"３３號","E_COORD97":177063.426633,"N_COORD97":2543851.1976200002,"ADDRESS":"和順路一段１８８巷３８弄３３號","OBJECTID":28401},"geometry":{"x":177063.42663300037,"y":2543851.197617}},{"attributes":{"ID":28402,"DIS_CODE":0,"TOWNNAME":"北區","LI":"大港里","LIN":"17鄰","STREET":"中華北路","SECT":"一段","MAREA":" ","LANE":"３６２巷","ALLEY":"２弄","HOUSE_NO":"２號","E_COORD97":166661.82000000001,"N_COORD97":2546026.0299999998,"ADDRESS":"中華北路一段３６２巷２弄２號","OBJECTID":28402},"geometry":{"x":166661.8200000003,"y":2546026.0299999993}},{"attributes":{"ID":28403,"DIS_CODE":0,"TOWNNAME":"大內區","LI":"二溪里","LIN":"14鄰","STREET":" ","SECT":" ","MAREA":"其子瓦","LANE":" ","ALLEY":" ","HOUSE_NO":"３６號","E_COORD97":190474.22,"N_COORD97":2557978.25,"ADDRESS":"其子瓦３６號","OBJECTID":28403},"geometry":{"x":190474.21999999974,"y":2557978.2500000019}},{"attributes":{"ID":28404,"DIS_CODE":0,"TOWNNAME":"永康區","LI":"\u25A0洲里","LIN":"14鄰","STREET":"\u25A0洲一街","SECT":" ","MAREA":" ","LANE":" ","ALLEY":" ","HOUSE_NO":"６０號","E_COORD97":171583.66,"N_COORD97":2549044,"ADDRESS":"\u25A0洲一街６０號","OBJECTID":28404},"geometry":{"x":171583.66000000015,"y":2549044}},{"attributes":{"ID":28405,"DIS_CODE":0,"TOWNNAME":"大內區","LI":"石林里","LIN":"14鄰","STREET":" ","SECT":" ","MAREA":"石子瀨","LANE":" ","ALLEY":" ","HOUSE_NO":"２２１之２０１號","E_COORD97":185237.91,"N_COORD97":2557469.3799999999,"ADDRESS":"石子瀨２２１之２０１號","OBJECTID":28405},"geometry":{"x":185237.91000000108,"y":2557469.379999999}},{"attributes":{"ID":28406,"DIS_CODE":0,"TOWNNAME":"柳營區","LI":"太康里","LIN":"8鄰","STREET":" ","SECT":" ","MAREA":"太康","LANE":" ","ALLEY":" ","HOUSE_NO":"７８之７８號","E_COORD97":181795.23000000001,"N_COORD97":2575966,"ADDRESS":"太康７８之７８號","OBJECTID":28406},"geometry":{"x":181795.23000000045,"y":2575966.0000000019}},{"attributes":{"ID":28407,"DIS_CODE":0,"TOWNNAME":"柳營區","LI":"太康里","LIN":"8鄰","STREET":" ","SECT":" ","MAREA":"太康","LANE":" ","ALLEY":" ","HOUSE_NO":"７８之７９號","E_COORD97":181654.42000000001,"N_COORD97":2575692.3900000001,"ADDRESS":"太康７８之７９號","OBJECTID":28407},"geometry":{"x":181654.41999999993,"y":2575692.3900000025}},{"attributes":{"ID":28408,"DIS_CODE":0,"TOWNNAME":"柳營區","LI":"太康里","LIN":"8鄰","STREET":" ","SECT":" ","MAREA":"太康","LANE":" ","ALLEY":" ","HOUSE_NO":"７８號之７","E_COORD97":181558.23000000001,"N_COORD97":2576240.98,"ADDRESS":"太康７８號之７","OBJECTID":28408},"geometry":{"x":181558.23000000045,"y":2576240.9800000023}},{"attributes":{"ID":28409,"DIS_CODE":0,"TOWNNAME":"柳營區","LI":"太康里","LIN":"8鄰","STREET":" ","SECT":" ","MAREA":"太康","LANE":" ","ALLEY":" ","HOUSE_NO":"７８之８０號","E_COORD97":181366.01000000001,"N_COORD97":2575713.75,"ADDRESS":"太康７８之８０號","OBJECTID":28409},"geometry":{"x":181366.01000000164,"y":2575713.7500000019}},{"attributes":{"ID":28410,"DIS_CODE":0,"TOWNNAME":"柳營區","LI":"太康里","LIN":"8鄰","STREET":" ","SECT":" ","MAREA":"太康","LANE":" ","ALLEY":" ","HOUSE_NO":"７８之８１號","E_COORD97":181548.45999999999,"N_COORD97":2576224.3900000001,"ADDRESS":"太康７８之８１號","OBJECTID":28410},"geometry":{"x":181548.46000000089,"y":2576224.3900000025}},{"attributes":{"ID":28411,"DIS_CODE":0,"TOWNNAME":"柳營區","LI":"太康里","LIN":"8鄰","STREET":" ","SECT":" ","MAREA":"太康","LANE":" ","ALLEY":" ","HOUSE_NO":"７８之８２號","E_COORD97":181463.28,"N_COORD97":2575738.3999999999,"ADDRESS":"太康７８之８２號","OBJECTID":28411},"geometry":{"x":181463.28000000119,"y":2575738.4000000004}},{"attributes":{"ID":28412,"DIS_CODE":0,"TOWNNAME":"柳營區","LI":"太康里","LIN":"8鄰","STREET":" ","SECT":" ","MAREA":"太康","LANE":" ","ALLEY":" ","HOUSE_NO":"７８號之８","E_COORD97":181588.60999999999,"N_COORD97":2576311.0600000001,"ADDRESS":"太康７８號之８","OBJECTID":28412},"geometry":{"x":181588.61000000127,"y":2576311.0600000042}},{"attributes":{"ID":28413,"DIS_CODE":0,"TOWNNAME":"柳營區","LI":"太康里","LIN":"8鄰","STREET":" ","SECT":" ","MAREA":"太康","LANE":" ","ALLEY":" ","HOUSE_NO":"７８號","E_COORD97":181562.12,"N_COORD97":2576344.9399999999,"ADDRESS":"太康７８號","OBJECTID":28413},"geometry":{"x":181562.11999999918,"y":2576344.9400000013}},{"attributes":{"ID":28414,"DIS_CODE":0,"TOWNNAME":"柳營區","LI":"太康里","LIN":"8鄰","STREET":" ","SECT":" ","MAREA":"太康","LANE":" ","ALLEY":" ","HOUSE_NO":"７９號之１","E_COORD97":181545.32000000001,"N_COORD97":2576341.0699999998,"ADDRESS":"太康７９號之１","OBJECTID":28414},"geometry":{"x":181545.3200000003,"y":2576341.070000004}},{"attributes":{"ID":28415,"DIS_CODE":0,"TOWNNAME":"柳營區","LI":"太康里","LIN":"8鄰","STREET":" ","SECT":" ","MAREA":"太康","LANE":" ","ALLEY":" ","HOUSE_NO":"７９號之５","E_COORD97":181548.51999999999,"N_COORD97":2576318.2999999998,"ADDRESS":"太康７９號之５","OBJECTID":28415},"geometry":{"x":181548.51999999955,"y":2576318.3000000007}},{"attributes":{"ID":28416,"DIS_CODE":0,"TOWNNAME":"柳營區","LI":"太康里","LIN":"8鄰","STREET":" ","SECT":" ","MAREA":"太康","LANE":" ","ALLEY":" ","HOUSE_NO":"７９號","E_COORD97":181556.29999999999,"N_COORD97":2576359.8900000001,"ADDRESS":"太康７９號","OBJECTID":28416},"geometry":{"x":181556.30000000075,"y":2576359.8900000043}},{"attributes":{"ID":28417,"DIS_CODE":0,"TOWNNAME":"柳營區","LI":"太康里","LIN":"8鄰","STREET":" ","SECT":" ","MAREA":"太康","LANE":" ","ALLEY":" ","HOUSE_NO":"８０號","E_COORD97":181531.35000000001,"N_COORD97":2576412.4900000002,"ADDRESS":"太康８０號","OBJECTID":28417},"geometry":{"x":181531.35000000149,"y":2576412.4900000002}},{"attributes":{"ID":28418,"DIS_CODE":0,"TOWNNAME":"柳營區","LI":"太康里","LIN":"8鄰","STREET":" ","SECT":" ","MAREA":"太康","LANE":" ","ALLEY":" ","HOUSE_NO":"８１之１號","E_COORD97":181535.31,"N_COORD97":2576385.9500000002,"ADDRESS":"太康８１之１號","OBJECTID":28418},"geometry":{"x":181535.31000000052,"y":2576385.9500000011}},{"attributes":{"ID":28419,"DIS_CODE":0,"TOWNNAME":"柳營區","LI":"太康里","LIN":"8鄰","STREET":" ","SECT":" ","MAREA":"太康","LANE":" ","ALLEY":" ","HOUSE_NO":"８１號","E_COORD97":181546.5,"N_COORD97":2576401.21,"ADDRESS":"太康８１號","OBJECTID":28419},"geometry":{"x":181546.50000000093,"y":2576401.2100000009}},{"attributes":{"ID":28420,"DIS_CODE":0,"TOWNNAME":"柳營區","LI":"旭山里","LIN":"8鄰","STREET":" ","SECT":" ","MAREA":"尖山","LANE":" ","ALLEY":" ","HOUSE_NO":"３號之１","E_COORD97":188737.47,"N_COORD97":2570750.6099999999,"ADDRESS":"尖山３號之１","OBJECTID":28420},"geometry":{"x":188737.47000000067,"y":2570750.6100000013}},{"attributes":{"ID":28421,"DIS_CODE":0,"TOWNNAME":"北區","LI":"大港里","LIN":"17鄰","STREET":"中華北路","SECT":"一段","MAREA":" ","LANE":"３６２巷","ALLEY":"２弄","HOUSE_NO":"６號","E_COORD97":166659.41,"N_COORD97":2546022.6000000001,"ADDRESS":"中華北路一段３６２巷２弄６號","OBJECTID":28421},"geometry":{"x":166659.41000000015,"y":2546022.5999999996}},{"attributes":{"ID":28422,"DIS_CODE":0,"TOWNNAME":"北區","LI":"大港里","LIN":"17鄰","STREET":"中華北路","SECT":"一段","MAREA":" ","LANE":"３６２巷","ALLEY":"２弄","HOUSE_NO":"８號","E_COORD97":166656.87,"N_COORD97":2546019.4199999999,"ADDRESS":"中華北路一段３６２巷２弄８號","OBJECTID":28422},"geometry":{"x":166656.87000000104,"y":2546019.4200000018}},{"attributes":{"ID":28423,"DIS_CODE":0,"TOWNNAME":"北區","LI":"大港里","LIN":"17鄰","STREET":"中華北路","SECT":"一段","MAREA":" ","LANE":"３６２巷","ALLEY":"２弄","HOUSE_NO":"１０號","E_COORD97":166653.95000000001,"N_COORD97":2546016.25,"ADDRESS":"中華北路一段３６２巷２弄１０號","OBJECTID":28423},"geometry":{"x":166653.95000000019,"y":2546016.2500000037}},{"attributes":{"ID":28424,"DIS_CODE":0,"TOWNNAME":"北區","LI":"文元里","LIN":"17鄰","STREET":"文賢路","SECT":" ","MAREA":" ","LANE":"１０３０巷","ALLEY":"４９弄","HOUSE_NO":"１０號","E_COORD97":167562.89000000001,"N_COORD97":2546124.0800000001,"ADDRESS":"文賢路１０３０巷４９弄１０號","OBJECTID":28424},"geometry":{"x":167562.8900000006,"y":2546124.0800000019}},{"attributes":{"ID":28425,"DIS_CODE":0,"TOWNNAME":"北區","LI":"文元里","LIN":"17鄰","STREET":"文賢路","SECT":" ","MAREA":" ","LANE":"１０３０巷","ALLEY":"４９弄","HOUSE_NO":"１８號","E_COORD97":167565.25,"N_COORD97":2546140.8100000001,"ADDRESS":"文賢路１０３０巷４９弄１８號","OBJECTID":28425},"geometry":{"x":167565.25,"y":2546140.8100000005}},{"attributes":{"ID":28426,"DIS_CODE":0,"TOWNNAME":"北區","LI":"文元里","LIN":"17鄰","STREET":"文賢路","SECT":" ","MAREA":" ","LANE":"１０３０巷","ALLEY":"４９弄","HOUSE_NO":"４號","E_COORD97":167561.14000000001,"N_COORD97":2546111.2999999998,"ADDRESS":"文賢路１０３０巷４９弄４號","OBJECTID":28426},"geometry":{"x":167561.14000000153,"y":2546111.2999999989}},{"attributes":{"ID":28427,"DIS_CODE":0,"TOWNNAME":"歸仁區","LI":"大廟里","LIN":"14鄰","STREET":"大廟六街","SECT":" ","MAREA":" ","LANE":"１１０巷","ALLEY":"１弄","HOUSE_NO":"１號","E_COORD97":176202.92000000001,"N_COORD97":2544254.25,"ADDRESS":"大廟六街１１０巷１弄１號","OBJECTID":28427},"geometry":{"x":176202.91999999993,"y":2544254.2500000019}},{"attributes":{"ID":28428,"DIS_CODE":0,"TOWNNAME":"玉井區","LI":"望明里","LIN":"8鄰","STREET":" ","SECT":" ","MAREA":"望明","LANE":" ","ALLEY":" ","HOUSE_NO":"８９之８號","E_COORD97":193542.73000000001,"N_COORD97":2556488.2999999998,"ADDRESS":"望明８９之８號","OBJECTID":28428},"geometry":{"x":193542.73000000045,"y":2556488.3000000007}},{"attributes":{"ID":28429,"DIS_CODE":0,"TOWNNAME":"北區","LI":"文元里","LIN":"17鄰","STREET":"文賢路","SECT":" ","MAREA":" ","LANE":"１０３０巷","ALLEY":"２５弄","HOUSE_NO":"３號","E_COORD97":167473.22,"N_COORD97":2546101.46,"ADDRESS":"文賢路１０３０巷２５弄３號","OBJECTID":28429},"geometry":{"x":167473.22000000067,"y":2546101.4600000028}},{"attributes":{"ID":28430,"DIS_CODE":0,"TOWNNAME":"北區","LI":"文元里","LIN":"17鄰","STREET":"文賢路","SECT":" ","MAREA":" ","LANE":"１０３０巷","ALLEY":"２５弄","HOUSE_NO":"５號","E_COORD97":167473.22,"N_COORD97":2546106.2000000002,"ADDRESS":"文賢路１０３０巷２５弄５號","OBJECTID":28430},"geometry":{"x":167473.22000000067,"y":2546106.1999999993}},{"attributes":{"ID":28431,"DIS_CODE":0,"TOWNNAME":"北區","LI":"文元里","LIN":"17鄰","STREET":"文賢路","SECT":" ","MAREA":" ","LANE":"１０３０巷","ALLEY":"２５弄","HOUSE_NO":"７號","E_COORD97":167473.22,"N_COORD97":2546110.4199999999,"ADDRESS":"文賢路１０３０巷２５弄７號","OBJECTID":28431},"geometry":{"x":167473.22000000067,"y":2546110.4200000018}},{"attributes":{"ID":28432,"DIS_CODE":0,"TOWNNAME":"北區","LI":"文元里","LIN":"17鄰","STREET":"文賢路","SECT":" ","MAREA":" ","LANE":"１０３０巷","ALLEY":"２５弄","HOUSE_NO":"９號","E_COORD97":167473.22,"N_COORD97":2546115.1600000001,"ADDRESS":"文賢路１０３０巷２５弄９號","OBJECTID":28432},"geometry":{"x":167473.22000000067,"y":2546115.1600000039}},{"attributes":{"ID":28433,"DIS_CODE":0,"TOWNNAME":"北區","LI":"文元里","LIN":"17鄰","STREET":"文賢路","SECT":" ","MAREA":" ","LANE":"１０３０巷","ALLEY":"２５弄","HOUSE_NO":"３８號","E_COORD97":167485.76000000001,"N_COORD97":2546166.0299999998,"ADDRESS":"文賢路１０３０巷２５弄３８號","OBJECTID":28433},"geometry":{"x":167485.76000000164,"y":2546166.0300000031}},{"attributes":{"ID":28434,"DIS_CODE":0,"TOWNNAME":"北區","LI":"文元里","LIN":"17鄰","STREET":"文賢路","SECT":" ","MAREA":" ","LANE":"１０３０巷","ALLEY":"４９弄","HOUSE_NO":"３號","E_COORD97":167543.03,"N_COORD97":2546111.29,"ADDRESS":"文賢路１０３０巷４９弄３號","OBJECTID":28434},"geometry":{"x":167543.03000000026,"y":2546111.290000001}},{"attributes":{"ID":28435,"DIS_CODE":0,"TOWNNAME":"北區","LI":"文元里","LIN":"17鄰","STREET":"文賢路","SECT":" ","MAREA":" ","LANE":"１０３０巷","ALLEY":"２５弄","HOUSE_NO":"４０號","E_COORD97":167485.76000000001,"N_COORD97":2546170.8500000001,"ADDRESS":"文賢路１０３０巷２５弄４０號","OBJECTID":28435},"geometry":{"x":167485.76000000164,"y":2546170.8500000034}},{"attributes":{"ID":28436,"DIS_CODE":0,"TOWNNAME":"北區","LI":"文元里","LIN":"17鄰","STREET":"文賢路","SECT":" ","MAREA":" ","LANE":"１０３０巷","ALLEY":"２５弄","HOUSE_NO":"２１號","E_COORD97":167471.37,"N_COORD97":2546139.6600000001,"ADDRESS":"文賢路１０３０巷２５弄２１號","OBJECTID":28436},"geometry":{"x":167471.37000000011,"y":2546139.660000002}},{"attributes":{"ID":28437,"DIS_CODE":0,"TOWNNAME":"北區","LI":"文元里","LIN":"17鄰","STREET":"文賢路","SECT":" ","MAREA":" ","LANE":"１０３０巷","ALLEY":"２５弄","HOUSE_NO":"１１號","E_COORD97":167472.95999999999,"N_COORD97":2546119.3799999999,"ADDRESS":"文賢路１０３０巷２５弄１１號","OBJECTID":28437},"geometry":{"x":167472.96000000089,"y":2546119.3800000027}},{"attributes":{"ID":28438,"DIS_CODE":0,"TOWNNAME":"北區","LI":"文元里","LIN":"17鄰","STREET":"文賢路","SECT":" ","MAREA":" ","LANE":"１０３０巷","ALLEY":"２５弄","HOUSE_NO":"１３號","E_COORD97":167472.42999999999,"N_COORD97":2546123.3300000001,"ADDRESS":"文賢路１０３０巷２５弄１３號","OBJECTID":28438},"geometry":{"x":167472.4299999997,"y":2546123.3300000001}},{"attributes":{"ID":28439,"DIS_CODE":0,"TOWNNAME":"仁德區","LI":"仁義里","LIN":"14鄰","STREET":"林頂街","SECT":" ","MAREA":" ","LANE":" ","ALLEY":" ","HOUSE_NO":"２７５號","E_COORD97":174940.47,"N_COORD97":2541376,"ADDRESS":"林頂街２７５號","OBJECTID":28439},"geometry":{"x":174940.47000000067,"y":2541376}},{"attributes":{"ID":28440,"DIS_CODE":0,"TOWNNAME":"北區","LI":"文元里","LIN":"17鄰","STREET":"文賢路","SECT":" ","MAREA":" ","LANE":"１０３０巷","ALLEY":"２５弄","HOUSE_NO":"１４號","E_COORD97":167489.57000000001,"N_COORD97":2546117.5099999998,"ADDRESS":"文賢路１０３０巷２５弄１４號","OBJECTID":28440},"geometry":{"x":167489.57000000123,"y":2546117.5099999998}},{"attributes":{"ID":28441,"DIS_CODE":0,"TOWNNAME":"北區","LI":"文元里","LIN":"17鄰","STREET":"文賢路","SECT":" ","MAREA":" ","LANE":"１０３０巷","ALLEY":"２５弄","HOUSE_NO":"１５號","E_COORD97":167472.42999999999,"N_COORD97":2546127.02,"ADDRESS":"文賢路１０３０巷２５弄１５號","OBJECTID":28441},"geometry":{"x":167472.4299999997,"y":2546127.0200000014}},{"attributes":{"ID":28442,"DIS_CODE":0,"TOWNNAME":"永康區","LI":"大灣里","LIN":"14鄰","STREET":"民族路","SECT":" ","MAREA":" ","LANE":" ","ALLEY":" ","HOUSE_NO":"４１１號","E_COORD97":174780.09,"N_COORD97":2545348.6699999999,"ADDRESS":"民族路４１１號","OBJECTID":28442},"geometry":{"x":174780.09000000078,"y":2545348.6700000037}},{"attributes":{"ID":28443,"DIS_CODE":0,"TOWNNAME":"永康區","LI":"三合里","LIN":"14鄰","STREET":"南工街","SECT":" ","MAREA":" ","LANE":" ","ALLEY":" ","HOUSE_NO":"１８９號","E_COORD97":172018.87,"N_COORD97":2545849.2400000002,"ADDRESS":"南工街１８９號","OBJECTID":28443},"geometry":{"x":172018.87000000104,"y":2545849.2400000002}},{"attributes":{"ID":28444,"DIS_CODE":0,"TOWNNAME":"永康區","LI":"三民里","LIN":"14鄰","STREET":"中正北路","SECT":" ","MAREA":" ","LANE":" ","ALLEY":" ","HOUSE_NO":"９５２號","E_COORD97":175651.51000000001,"N_COORD97":2550661.75,"ADDRESS":"中正北路９５２號","OBJECTID":28444},"geometry":{"x":175651.51000000164,"y":2550661.7500000019}},{"attributes":{"ID":28445,"DIS_CODE":0,"TOWNNAME":"永康區","LI":"三合里","LIN":"14鄰","STREET":"南工街","SECT":" ","MAREA":" ","LANE":" ","ALLEY":" ","HOUSE_NO":"２０９號","E_COORD97":172021.94,"N_COORD97":2545890.5,"ADDRESS":"南工街２０９號","OBJECTID":28445},"geometry":{"x":172021.94000000134,"y":2545890.5000000019}},{"attributes":{"ID":28446,"DIS_CODE":0,"TOWNNAME":"北區","LI":"文元里","LIN":"17鄰","STREET":"文賢路","SECT":" ","MAREA":" ","LANE":"１０３０巷","ALLEY":"２５弄","HOUSE_NO":"１６號","E_COORD97":167489.44,"N_COORD97":2546121.96,"ADDRESS":"文賢路１０３０巷２５弄１６號","OBJECTID":28446},"geometry":{"x":167489.44000000134,"y":2546121.9600000028}},{"attributes":{"ID":28447,"DIS_CODE":0,"TOWNNAME":"北區","LI":"文元里","LIN":"17鄰","STREET":"文賢路","SECT":" ","MAREA":" ","LANE":"１０３０巷","ALLEY":"２５弄","HOUSE_NO":"１７號","E_COORD97":167472.42999999999,"N_COORD97":2546131.7599999998,"ADDRESS":"文賢路１０３０巷２５弄１７號","OBJECTID":28447},"geometry":{"x":167472.4299999997,"y":2546131.7600000016}},{"attributes":{"ID":28448,"DIS_CODE":0,"TOWNNAME":"北區","LI":"文元里","LIN":"17鄰","STREET":"文賢路","SECT":" ","MAREA":" ","LANE":"１０３０巷","ALLEY":"２５弄","HOUSE_NO":"１８號","E_COORD97":167489.19,"N_COORD97":2546125.77,"ADDRESS":"文賢路１０３０巷２５弄１８號","OBJECTID":28448},"geometry":{"x":167489.19000000134,"y":2546125.7699999996}},{"attributes":{"ID":28449,"DIS_CODE":0,"TOWNNAME":"北區","LI":"文元里","LIN":"17鄰","STREET":"文賢路","SECT":" ","MAREA":" ","LANE":"１０３０巷","ALLEY":"２５弄","HOUSE_NO":"１９號","E_COORD97":167471.37,"N_COORD97":2546135.1800000002,"ADDRESS":"文賢路１０３０巷２５弄１９號","OBJECTID":28449},"geometry":{"x":167471.37000000011,"y":2546135.1800000034}},{"attributes":{"ID":28450,"DIS_CODE":0,"TOWNNAME":"仁德區","LI":"中洲里","LIN":"14鄰","STREET":" ","SECT":" ","MAREA":"中洲","LANE":" ","ALLEY":" ","HOUSE_NO":"３５７號","E_COORD97":173360.70000000001,"N_COORD97":2534201.25,"ADDRESS":"中洲３５７號","OBJECTID":28450},"geometry":{"x":173360.70000000112,"y":2534201.2500000019}},{"attributes":{"ID":28451,"DIS_CODE":0,"TOWNNAME":"安定區","LI":"安加里","LIN":"14鄰","STREET":" ","SECT":" ","MAREA":"安定","LANE":" ","ALLEY":" ","HOUSE_NO":"３０３號","E_COORD97":171720.51999999999,"N_COORD97":2557534.3199999998,"ADDRESS":"安定３０３號","OBJECTID":28451},"geometry":{"x":171720.52000000048,"y":2557534.3200000022}},{"attributes":{"ID":28452,"DIS_CODE":0,"TOWNNAME":"柳營區","LI":"旭山里","LIN":"8鄰","STREET":" ","SECT":" ","MAREA":"尖山","LANE":" ","ALLEY":" ","HOUSE_NO":"３號之２","E_COORD97":188765.26999999999,"N_COORD97":2570746.3799999999,"ADDRESS":"尖山３號之２","OBJECTID":28452},"geometry":{"x":188765.27000000142,"y":2570746.379999999}},{"attributes":{"ID":28453,"DIS_CODE":0,"TOWNNAME":"柳營區","LI":"旭山里","LIN":"8鄰","STREET":" ","SECT":" ","MAREA":"尖山","LANE":" ","ALLEY":" ","HOUSE_NO":"５號之１","E_COORD97":188842.09,"N_COORD97":2570777.75,"ADDRESS":"尖山５號之１","OBJECTID":28453},"geometry":{"x":188842.09000000078,"y":2570777.75}},{"attributes":{"ID":28454,"DIS_CODE":0,"TOWNNAME":"柳營區","LI":"旭山里","LIN":"8鄰","STREET":" ","SECT":" ","MAREA":"尖山","LANE":" ","ALLEY":" ","HOUSE_NO":"５號","E_COORD97":188838.29999999999,"N_COORD97":2570768.27,"ADDRESS":"尖山５號","OBJECTID":28454},"geometry":{"x":188838.30000000075,"y":2570768.2699999996}},{"attributes":{"ID":28455,"DIS_CODE":0,"TOWNNAME":"柳營區","LI":"旭山里","LIN":"8鄰","STREET":" ","SECT":" ","MAREA":"尖山","LANE":" ","ALLEY":" ","HOUSE_NO":"７號","E_COORD97":188860.39000000001,"N_COORD97":2570773.2999999998,"ADDRESS":"尖山７號","OBJECTID":28455},"geometry":{"x":188860.38999999966,"y":2570773.3000000045}},{"attributes":{"ID":28456,"DIS_CODE":0,"TOWNNAME":"柳營區","LI":"旭山里","LIN":"8鄰","STREET":" ","SECT":" ","MAREA":"尖山","LANE":" ","ALLEY":" ","HOUSE_NO":"８號","E_COORD97":188574.32999999999,"N_COORD97":2570709.8100000001,"ADDRESS":"尖山８號","OBJECTID":28456},"geometry":{"x":188574.33000000101,"y":2570709.8100000024}},{"attributes":{"ID":28457,"DIS_CODE":0,"TOWNNAME":"柳營區","LI":"旭山里","LIN":"8鄰","STREET":" ","SECT":" ","MAREA":"尖山","LANE":" ","ALLEY":" ","HOUSE_NO":"９號之１","E_COORD97":188857.73999999999,"N_COORD97":2570713.8100000001,"ADDRESS":"尖山９號之１","OBJECTID":28457},"geometry":{"x":188857.74000000209,"y":2570713.8100000005}},{"attributes":{"ID":28458,"DIS_CODE":0,"TOWNNAME":"北區","LI":"文元里","LIN":"17鄰","STREET":"文賢路","SECT":" ","MAREA":" ","LANE":"１０３０巷","ALLEY":"２５弄","HOUSE_NO":"１號","E_COORD97":167472.95999999999,"N_COORD97":2546096.7200000002,"ADDRESS":"文賢路１０３０巷２５弄１號","OBJECTID":28458},"geometry":{"x":167472.96000000089,"y":2546096.7200000007}},{"attributes":{"ID":28459,"DIS_CODE":0,"TOWNNAME":"北區","LI":"文元里","LIN":"17鄰","STREET":"文賢路","SECT":" ","MAREA":" ","LANE":"１０３０巷","ALLEY":"２５弄","HOUSE_NO":"２０號","E_COORD97":167489.06,"N_COORD97":2546129.71,"ADDRESS":"文賢路１０３０巷２５弄２０號","OBJECTID":28459},"geometry":{"x":167489.06000000052,"y":2546129.7100000028}},{"attributes":{"ID":28460,"DIS_CODE":0,"TOWNNAME":"北區","LI":"文元里","LIN":"17鄰","STREET":"文賢路","SECT":" ","MAREA":" ","LANE":"１０３０巷","ALLEY":"２５弄","HOUSE_NO":"２２號","E_COORD97":167488.92999999999,"N_COORD97":2546133.6400000001,"ADDRESS":"文賢路１０３０巷２５弄２２號","OBJECTID":28460},"geometry":{"x":167488.9299999997,"y":2546133.6400000025}},{"attributes":{"ID":28461,"DIS_CODE":0,"TOWNNAME":"北區","LI":"文元里","LIN":"17鄰","STREET":"文賢路","SECT":" ","MAREA":" ","LANE":"１０３０巷","ALLEY":"２５弄","HOUSE_NO":"２３號","E_COORD97":167471.10999999999,"N_COORD97":2546143.6099999999,"ADDRESS":"文賢路１０３０巷２５弄２３號","OBJECTID":28461},"geometry":{"x":167471.11000000127,"y":2546143.6099999994}},{"attributes":{"ID":28462,"DIS_CODE":0,"TOWNNAME":"北區","LI":"文元里","LIN":"17鄰","STREET":"文賢路","SECT":" ","MAREA":" ","LANE":"１０３０巷","ALLEY":"２５弄","HOUSE_NO":"２４號","E_COORD97":167488.42000000001,"N_COORD97":2546138.0899999999,"ADDRESS":"文賢路１０３０巷２５弄２４號","OBJECTID":28462},"geometry":{"x":167488.42000000086,"y":2546138.0899999999}},{"attributes":{"ID":28463,"DIS_CODE":0,"TOWNNAME":"北區","LI":"文元里","LIN":"17鄰","STREET":"文賢路","SECT":" ","MAREA":" ","LANE":"１０３０巷","ALLEY":"２５弄","HOUSE_NO":"２５號","E_COORD97":167470.84,"N_COORD97":2546147.2999999998,"ADDRESS":"文賢路１０３０巷２５弄２５號","OBJECTID":28463},"geometry":{"x":167470.84000000078,"y":2546147.3000000007}},{"attributes":{"ID":28464,"DIS_CODE":0,"TOWNNAME":"歸仁區","LI":"大廟里","LIN":"13鄰","STREET":"大廟六街","SECT":" ","MAREA":" ","LANE":"１１０巷","ALLEY":"２０弄","HOUSE_NO":"２２號","E_COORD97":176181.51999999999,"N_COORD97":2544191.25,"ADDRESS":"大廟六街１１０巷２０弄２２號","OBJECTID":28464},"geometry":{"x":176181.51999999955,"y":2544191.25}},{"attributes":{"ID":28465,"DIS_CODE":0,"TOWNNAME":"北區","LI":"和順里","LIN":"17鄰","STREET":"臨安路","SECT":"二段","MAREA":" ","LANE":"２４９巷","ALLEY":"１５弄","HOUSE_NO":"１號","E_COORD97":168055.35000000001,"N_COORD97":2545004.5099999998,"ADDRESS":"臨安路二段２４９巷１５弄１號","OBJECTID":28465},"geometry":{"x":168055.35000000056,"y":2545004.5100000016}},{"attributes":{"ID":28466,"DIS_CODE":0,"TOWNNAME":"北區","LI":"和順里","LIN":"17鄰","STREET":"臨安路","SECT":"二段","MAREA":" ","LANE":"２４９巷","ALLEY":"１５弄","HOUSE_NO":"２號","E_COORD97":168043.94,"N_COORD97":2545032.4100000001,"ADDRESS":"臨安路二段２４９巷１５弄２號","OBJECTID":28466},"geometry":{"x":168043.94000000041,"y":2545032.410000002}},{"attributes":{"ID":28467,"DIS_CODE":0,"TOWNNAME":"北區","LI":"和順里","LIN":"17鄰","STREET":"臨安路","SECT":"二段","MAREA":" ","LANE":"２４９巷","ALLEY":"１５弄","HOUSE_NO":"３號","E_COORD97":168050.42999999999,"N_COORD97":2545003.3300000001,"ADDRESS":"臨安路二段２４９巷１５弄３號","OBJECTID":28467},"geometry":{"x":168050.4299999997,"y":2545003.3300000019}},{"attributes":{"ID":28468,"DIS_CODE":0,"TOWNNAME":"北區","LI":"和順里","LIN":"17鄰","STREET":"臨安路","SECT":"二段","MAREA":" ","LANE":"２４９巷","ALLEY":"１５弄","HOUSE_NO":"４號","E_COORD97":168040.01000000001,"N_COORD97":2545030.6400000001,"ADDRESS":"臨安路二段２４９巷１５弄４號","OBJECTID":28468},"geometry":{"x":168040.00999999885,"y":2545030.6399999987}},{"attributes":{"ID":28469,"DIS_CODE":0,"TOWNNAME":"北區","LI":"和順里","LIN":"17鄰","STREET":"臨安路","SECT":"二段","MAREA":" ","LANE":"２４９巷","ALLEY":"１５弄","HOUSE_NO":"５號","E_COORD97":168045.91,"N_COORD97":2545001.7599999998,"ADDRESS":"臨安路二段２４９巷１５弄５號","OBJECTID":28469},"geometry":{"x":168045.91000000015,"y":2545001.7599999998}},{"attributes":{"ID":28470,"DIS_CODE":0,"TOWNNAME":"北區","LI":"和順里","LIN":"17鄰","STREET":"臨安路","SECT":"二段","MAREA":" ","LANE":"２４９巷","ALLEY":"１５弄","HOUSE_NO":"６號","E_COORD97":168036.85999999999,"N_COORD97":2545026.9100000001,"ADDRESS":"臨安路二段２４９巷１５弄６號","OBJECTID":28470},"geometry":{"x":168036.86000000127,"y":2545026.9100000001}},{"attributes":{"ID":28471,"DIS_CODE":0,"TOWNNAME":"北區","LI":"和順里","LIN":"17鄰","STREET":"臨安路","SECT":"二段","MAREA":" ","LANE":"２４９巷","ALLEY":"１５弄","HOUSE_NO":"７號","E_COORD97":168041.38,"N_COORD97":2545000.3900000001,"ADDRESS":"臨安路二段２４９巷１５弄７號","OBJECTID":28471},"geometry":{"x":168041.38000000082,"y":2545000.3900000006}},{"attributes":{"ID":28472,"DIS_CODE":0,"TOWNNAME":"仁德區","LI":"上崙里","LIN":"14鄰","STREET":"德崙路","SECT":" ","MAREA":" ","LANE":" ","ALLEY":" ","HOUSE_NO":"４１０號","E_COORD97":174114.37,"N_COORD97":2538084.2599999998,"ADDRESS":"德崙路４１０號","OBJECTID":28472},"geometry":{"x":174114.37000000104,"y":2538084.2599999998}},{"attributes":{"ID":28473,"DIS_CODE":0,"TOWNNAME":"仁德區","LI":"仁義里","LIN":"14鄰","STREET":"林頂街","SECT":" ","MAREA":" ","LANE":" ","ALLEY":" ","HOUSE_NO":"２５３號","E_COORD97":174888.95999999999,"N_COORD97":2541378.5,"ADDRESS":"林頂街２５３號","OBJECTID":28473},"geometry":{"x":174888.95999999996,"y":2541378.5}},{"attributes":{"ID":28474,"DIS_CODE":0,"TOWNNAME":"仁德區","LI":"成功里","LIN":"14鄰","STREET":"全福路","SECT":" ","MAREA":" ","LANE":" ","ALLEY":" ","HOUSE_NO":"３３號","E_COORD97":170913.54000000001,"N_COORD97":2539325.4900000002,"ADDRESS":"全福路３３號","OBJECTID":28474},"geometry":{"x":170913.5400000019,"y":2539325.4900000039}},{"attributes":{"ID":28475,"DIS_CODE":0,"TOWNNAME":"仁德區","LI":"仁德里","LIN":"14鄰","STREET":"四維街","SECT":" ","MAREA":" ","LANE":" ","ALLEY":" ","HOUSE_NO":"１號","E_COORD97":173305.97,"N_COORD97":2541526.4900000002,"ADDRESS":"四維街１號","OBJECTID":28475},"geometry":{"x":173305.97000000067,"y":2541526.4900000021}},{"attributes":{"ID":28476,"DIS_CODE":0,"TOWNNAME":"柳營區","LI":"神農里","LIN":"8鄰","STREET":" ","SECT":" ","MAREA":"果毅後","LANE":" ","ALLEY":" ","HOUSE_NO":"２９９號之１","E_COORD97":185390.25,"N_COORD97":2572909.6299999999,"ADDRESS":"果毅後２９９號之１","OBJECTID":28476},"geometry":{"x":185390.25,"y":2572909.6300000008}},{"attributes":{"ID":28477,"DIS_CODE":0,"TOWNNAME":"北區","LI":"和順里","LIN":"17鄰","STREET":"臨安路","SECT":"二段","MAREA":" ","LANE":"２４９巷","ALLEY":"１５弄","HOUSE_NO":"９號","E_COORD97":168036.66,"N_COORD97":2544999.6000000001,"ADDRESS":"臨安路二段２４９巷１５弄９號","OBJECTID":28477},"geometry":{"x":168036.66000000108,"y":2544999.6000000034}},{"attributes":{"ID":28478,"DIS_CODE":0,"TOWNNAME":"北區","LI":"和順里","LIN":"17鄰","STREET":"臨安路","SECT":"二段","MAREA":" ","LANE":"２４９巷","ALLEY":"３３弄","HOUSE_NO":"１號","E_COORD97":168039.22,"N_COORD97":2545056.6699999999,"ADDRESS":"臨安路二段２４９巷３３弄１號","OBJECTID":28478},"geometry":{"x":168039.22000000067,"y":2545056.6699999999}},{"attributes":{"ID":28479,"DIS_CODE":0,"TOWNNAME":"北區","LI":"和順里","LIN":"17鄰","STREET":"臨安路","SECT":"二段","MAREA":" ","LANE":"２４９巷","ALLEY":"３３弄","HOUSE_NO":"３號","E_COORD97":168034.29999999999,"N_COORD97":2545056.4700000002,"ADDRESS":"臨安路二段２４９巷３３弄３號","OBJECTID":28479},"geometry":{"x":168034.29999999981,"y":2545056.4700000025}},{"attributes":{"ID":28480,"DIS_CODE":0,"TOWNNAME":"歸仁區","LI":"七甲里","LIN":"17鄰","STREET":"南潭三街","SECT":" ","MAREA":" ","LANE":"１６２巷","ALLEY":"１９弄","HOUSE_NO":"７號","E_COORD97":176463.53,"N_COORD97":2543050.0299999998,"ADDRESS":"南潭三街１６２巷１９弄７號","OBJECTID":28480},"geometry":{"x":176463.53000000026,"y":2543050.0299999975}},{"attributes":{"ID":28481,"DIS_CODE":0,"TOWNNAME":"歸仁區","LI":"七甲里","LIN":"17鄰","STREET":"南潭三街","SECT":" ","MAREA":" ","LANE":"１６２巷","ALLEY":"１９弄","HOUSE_NO":"９號","E_COORD97":176467.63,"N_COORD97":2543050.0299999998,"ADDRESS":"南潭三街１６２巷１９弄９號","OBJECTID":28481},"geometry":{"x":176467.62999999989,"y":2543050.0299999975}},{"attributes":{"ID":28482,"DIS_CODE":0,"TOWNNAME":"歸仁區","LI":"七甲里","LIN":"17鄰","STREET":"南潭三街","SECT":" ","MAREA":" ","LANE":"１６２巷","ALLEY":"１９弄","HOUSE_NO":"２４號","E_COORD97":176495.48000000001,"N_COORD97":2543039.0299999998,"ADDRESS":"南潭三街１６２巷１９弄２４號","OBJECTID":28482},"geometry":{"x":176495.48000000138,"y":2543039.0299999993}},{"attributes":{"ID":28483,"DIS_CODE":0,"TOWNNAME":"歸仁區","LI":"七甲里","LIN":"17鄰","STREET":"南潭三街","SECT":" ","MAREA":" ","LANE":"１６２巷","ALLEY":"１９弄","HOUSE_NO":"１９號","E_COORD97":176490.38,"N_COORD97":2543050.0299999998,"ADDRESS":"南潭三街１６２巷１９弄１９號","OBJECTID":28483},"geometry":{"x":176490.38000000082,"y":2543050.0299999975}},{"attributes":{"ID":28484,"DIS_CODE":0,"TOWNNAME":"歸仁區","LI":"七甲里","LIN":"17鄰","STREET":"南潭三街","SECT":" ","MAREA":" ","LANE":"１６２巷","ALLEY":"１９弄","HOUSE_NO":"１４號","E_COORD97":176473.88,"N_COORD97":2543038.0299999998,"ADDRESS":"南潭三街１６２巷１９弄１４號","OBJECTID":28484},"geometry":{"x":176473.87999999989,"y":2543038.0300000012}},{"attributes":{"ID":28485,"DIS_CODE":0,"TOWNNAME":"歸仁區","LI":"七甲里","LIN":"17鄰","STREET":"南潭三街","SECT":" ","MAREA":" ","LANE":"１６２巷","ALLEY":"１１弄","HOUSE_NO":"２６號","E_COORD97":176497.88,"N_COORD97":2543108.0299999998,"ADDRESS":"南潭三街１６２巷１１弄２６號","OBJECTID":28485},"geometry":{"x":176497.87999999989,"y":2543108.0300000031}},{"attributes":{"ID":28486,"DIS_CODE":0,"TOWNNAME":"歸仁區","LI":"七甲里","LIN":"17鄰","STREET":"南潭三街","SECT":" ","MAREA":" ","LANE":"１６２巷","ALLEY":"１９弄","HOUSE_NO":"３０號","E_COORD97":176507.78,"N_COORD97":2543039.0299999998,"ADDRESS":"南潭三街１６２巷１９弄３０號","OBJECTID":28486},"geometry":{"x":176507.78000000026,"y":2543039.0299999993}},{"attributes":{"ID":28487,"DIS_CODE":0,"TOWNNAME":"柳營區","LI":"神農里","LIN":"8鄰","STREET":" ","SECT":" ","MAREA":"果毅後","LANE":" ","ALLEY":" ","HOUSE_NO":"２９９之２號","E_COORD97":185416.41,"N_COORD97":2572915.4300000002,"ADDRESS":"果毅後２９９之２號","OBJECTID":28487},"geometry":{"x":185416.41000000015,"y":2572915.4300000016}},{"attributes":{"ID":28488,"DIS_CODE":0,"TOWNNAME":"柳營區","LI":"神農里","LIN":"8鄰","STREET":" ","SECT":" ","MAREA":"果毅後","LANE":" ","ALLEY":" ","HOUSE_NO":"２９９號之２","E_COORD97":185416.41,"N_COORD97":2572915.4300000002,"ADDRESS":"果毅後２９９號之２","OBJECTID":28488},"geometry":{"x":185416.41000000015,"y":2572915.4300000016}},{"attributes":{"ID":28489,"DIS_CODE":0,"TOWNNAME":"柳營區","LI":"神農里","LIN":"8鄰","STREET":" ","SECT":" ","MAREA":"果毅後","LANE":" ","ALLEY":" ","HOUSE_NO":"２９９號","E_COORD97":185406.38,"N_COORD97":2572899.5099999998,"ADDRESS":"果毅後２９９號","OBJECTID":28489},"geometry":{"x":185406.37999999989,"y":2572899.5099999998}},{"attributes":{"ID":28490,"DIS_CODE":0,"TOWNNAME":"歸仁區","LI":"七甲里","LIN":"17鄰","STREET":"南潭三街","SECT":" ","MAREA":" ","LANE":"１６２巷","ALLEY":"１９弄","HOUSE_NO":"２５號","E_COORD97":176502.67999999999,"N_COORD97":2543050.0299999998,"ADDRESS":"南潭三街１６２巷１９弄２５號","OBJECTID":28490},"geometry":{"x":176502.6799999997,"y":2543050.0299999975}},{"attributes":{"ID":28491,"DIS_CODE":0,"TOWNNAME":"歸仁區","LI":"七甲里","LIN":"17鄰","STREET":"南潭三街","SECT":" ","MAREA":" ","LANE":"１６２巷","ALLEY":"１１弄","HOUSE_NO":"２８號","E_COORD97":176501.98000000001,"N_COORD97":2543108.0299999998,"ADDRESS":"南潭三街１６２巷１１弄２８號","OBJECTID":28491},"geometry":{"x":176501.98000000138,"y":2543108.0300000031}},{"attributes":{"ID":28492,"DIS_CODE":0,"TOWNNAME":"歸仁區","LI":"七甲里","LIN":"17鄰","STREET":"南潭三街","SECT":" ","MAREA":" ","LANE":"１６２巷","ALLEY":"１９弄","HOUSE_NO":"１１號","E_COORD97":176472.98000000001,"N_COORD97":2543050.0299999998,"ADDRESS":"南潭三街１６２巷１９弄１１號","OBJECTID":28492},"geometry":{"x":176472.98000000231,"y":2543050.0299999975}},{"attributes":{"ID":28493,"DIS_CODE":0,"TOWNNAME":"歸仁區","LI":"七甲里","LIN":"17鄰","STREET":"南潭三街","SECT":" ","MAREA":" ","LANE":"１６２巷","ALLEY":"１９弄","HOUSE_NO":"２６號","E_COORD97":176499.57999999999,"N_COORD97":2543039.0299999998,"ADDRESS":"南潭三街１６２巷１９弄２６號","OBJECTID":28493},"geometry":{"x":176499.58000000101,"y":2543039.0299999993}},{"attributes":{"ID":28494,"DIS_CODE":0,"TOWNNAME":"歸仁區","LI":"七甲里","LIN":"17鄰","STREET":"南潭三街","SECT":" ","MAREA":" ","LANE":"１６２巷","ALLEY":"１１弄","HOUSE_NO":"３０號","E_COORD97":176506.07999999999,"N_COORD97":2543108.0299999998,"ADDRESS":"南潭三街１６２巷１１弄３０號","OBJECTID":28494},"geometry":{"x":176506.08000000101,"y":2543108.0300000031}},{"attributes":{"ID":28495,"DIS_CODE":0,"TOWNNAME":"歸仁區","LI":"大廟里","LIN":"17鄰","STREET":"保大路","SECT":"三段","MAREA":" ","LANE":"３６６巷","ALLEY":"７８弄","HOUSE_NO":"１號","E_COORD97":175665.82000000001,"N_COORD97":2545431.2799999998,"ADDRESS":"保大路三段３６６巷７８弄１號","OBJECTID":28495},"geometry":{"x":175665.82000000123,"y":2545431.2799999993}},{"attributes":{"ID":28496,"DIS_CODE":0,"TOWNNAME":"歸仁區","LI":"大廟里","LIN":"18鄰","STREET":"大廟五街","SECT":" ","MAREA":" ","LANE":"２７巷","ALLEY":"２弄","HOUSE_NO":"８號","E_COORD97":175917.38,"N_COORD97":2544235.0899999999,"ADDRESS":"大廟五街２７巷２弄８號","OBJECTID":28496},"geometry":{"x":175917.38000000082,"y":2544235.0900000017}},{"attributes":{"ID":28497,"DIS_CODE":0,"TOWNNAME":"歸仁區","LI":"七甲里","LIN":"17鄰","STREET":"南潭三街","SECT":" ","MAREA":" ","LANE":"１６２巷","ALLEY":"１１弄","HOUSE_NO":"２０號","E_COORD97":176485.57999999999,"N_COORD97":2543108.0299999998,"ADDRESS":"南潭三街１６２巷１１弄２０號","OBJECTID":28497},"geometry":{"x":176485.58000000101,"y":2543108.0300000031}},{"attributes":{"ID":28498,"DIS_CODE":0,"TOWNNAME":"歸仁區","LI":"七甲里","LIN":"17鄰","STREET":"南潭三街","SECT":" ","MAREA":" ","LANE":"１６２巷","ALLEY":"１９弄","HOUSE_NO":"６號","E_COORD97":176455.23000000001,"N_COORD97":2543038.0299999998,"ADDRESS":"南潭三街１６２巷１９弄６號","OBJECTID":28498},"geometry":{"x":176455.23000000045,"y":2543038.0300000012}},{"attributes":{"ID":28499,"DIS_CODE":0,"TOWNNAME":"南區","LI":"大忠里","LIN":"17鄰","STREET":"大同路","SECT":"二段","MAREA":" ","LANE":"６２０巷","ALLEY":"１２弄","HOUSE_NO":"１２號","E_COORD97":169494.44,"N_COORD97":2541119.7599999998,"ADDRESS":"大同路二段６２０巷１２弄１２號","OBJECTID":28499},"geometry":{"x":169494.44000000134,"y":2541119.7599999998}},{"attributes":{"ID":28500,"DIS_CODE":0,"TOWNNAME":"歸仁區","LI":"大廟里","LIN":"14鄰","STREET":"大廟六街","SECT":" ","MAREA":" ","LANE":"１１０巷","ALLEY":"５弄","HOUSE_NO":"６號","E_COORD97":176253.92000000001,"N_COORD97":2544212.25,"ADDRESS":"大廟六街１１０巷５弄６號","OBJECTID":28500},"geometry":{"x":176253.91999999899,"y":2544212.2499999981}},{"attributes":{"ID":28501,"DIS_CODE":0,"TOWNNAME":"南區","LI":"大忠里","LIN":"17鄰","STREET":"大同路","SECT":"二段","MAREA":" ","LANE":"６２０巷","ALLEY":"１２弄","HOUSE_NO":"１４號","E_COORD97":169492.81,"N_COORD97":2541129.73,"ADDRESS":"大同路二段６２０巷１２弄１４號","OBJECTID":28501},"geometry":{"x":169492.81000000052,"y":2541129.7300000004}},{"attributes":{"ID":28502,"DIS_CODE":0,"TOWNNAME":"柳營區","LI":"神農里","LIN":"8鄰","STREET":" ","SECT":" ","MAREA":"果毅後","LANE":" ","ALLEY":" ","HOUSE_NO":"３０９號","E_COORD97":185451.26000000001,"N_COORD97":2572915.5800000001,"ADDRESS":"果毅後３０９號","OBJECTID":28502},"geometry":{"x":185451.25999999885,"y":2572915.5800000001}},{"attributes":{"ID":28503,"DIS_CODE":0,"TOWNNAME":"南區","LI":"大忠里","LIN":"17鄰","STREET":"大同路","SECT":"二段","MAREA":" ","LANE":"６２０巷","ALLEY":"１２弄","HOUSE_NO":"１６號","E_COORD97":169492.78,"N_COORD97":2541140.2999999998,"ADDRESS":"大同路二段６２０巷１２弄１６號","OBJECTID":28503},"geometry":{"x":169492.78000000026,"y":2541140.3000000007}},{"attributes":{"ID":28504,"DIS_CODE":0,"TOWNNAME":"南區","LI":"大忠里","LIN":"17鄰","STREET":"大同路","SECT":"二段","MAREA":" ","LANE":"６２０巷","ALLEY":"１２弄","HOUSE_NO":"１８號","E_COORD97":169491.45000000001,"N_COORD97":2541150.6000000001,"ADDRESS":"大同路二段６２０巷１２弄１８號","OBJECTID":28504},"geometry":{"x":169491.45000000019,"y":2541150.5999999996}},{"attributes":{"ID":28505,"DIS_CODE":0,"TOWNNAME":"柳營區","LI":"神農里","LIN":"8鄰","STREET":" ","SECT":" ","MAREA":"果毅後","LANE":" ","ALLEY":" ","HOUSE_NO":"３０４號","E_COORD97":185458.48999999999,"N_COORD97":2572951.0299999998,"ADDRESS":"果毅後３０４號","OBJECTID":28505},"geometry":{"x":185458.49000000022,"y":2572951.0300000012}},{"attributes":{"ID":28506,"DIS_CODE":0,"TOWNNAME":"東區","LI":"東明里","LIN":"14鄰","STREET":"怡東路","SECT":" ","MAREA":" ","LANE":" ","ALLEY":" ","HOUSE_NO":"７７號","E_COORD97":170839.01000000001,"N_COORD97":2543663.0299999998,"ADDRESS":"怡東路７７號","OBJECTID":28506},"geometry":{"x":170839.01000000071,"y":2543663.0299999993}},{"attributes":{"ID":28507,"DIS_CODE":0,"TOWNNAME":"柳營區","LI":"神農里","LIN":"8鄰","STREET":" ","SECT":" ","MAREA":"果毅後","LANE":" ","ALLEY":" ","HOUSE_NO":"３０５號之１","E_COORD97":185422.76000000001,"N_COORD97":2572864.8900000001,"ADDRESS":"果毅後３０５號之１","OBJECTID":28507},"geometry":{"x":185422.76000000071,"y":2572864.8900000025}},{"attributes":{"ID":28508,"DIS_CODE":0,"TOWNNAME":"柳營區","LI":"神農里","LIN":"8鄰","STREET":" ","SECT":" ","MAREA":"果毅後","LANE":" ","ALLEY":" ","HOUSE_NO":"３０５號之２","E_COORD97":185419.07999999999,"N_COORD97":2572866.3399999999,"ADDRESS":"果毅後３０５號之２","OBJECTID":28508},"geometry":{"x":185419.08000000194,"y":2572866.3399999999}},{"attributes":{"ID":28509,"DIS_CODE":0,"TOWNNAME":"柳營區","LI":"神農里","LIN":"8鄰","STREET":" ","SECT":" ","MAREA":"果毅後","LANE":" ","ALLEY":" ","HOUSE_NO":"３０５號之３","E_COORD97":185415.39999999999,"N_COORD97":2572867.79,"ADDRESS":"果毅後３０５號之３","OBJECTID":28509},"geometry":{"x":185415.40000000224,"y":2572867.790000001}},{"attributes":{"ID":28510,"DIS_CODE":0,"TOWNNAME":"柳營區","LI":"神農里","LIN":"8鄰","STREET":" ","SECT":" ","MAREA":"果毅後","LANE":" ","ALLEY":" ","HOUSE_NO":"３０５號","E_COORD97":185441.98000000001,"N_COORD97":2572872.7200000002,"ADDRESS":"果毅後３０５號","OBJECTID":28510},"geometry":{"x":185441.98000000045,"y":2572872.7200000025}},{"attributes":{"ID":28511,"DIS_CODE":0,"TOWNNAME":"柳營區","LI":"神農里","LIN":"8鄰","STREET":" ","SECT":" ","MAREA":"果毅後","LANE":" ","ALLEY":" ","HOUSE_NO":"３０６號","E_COORD97":185452.42999999999,"N_COORD97":2572881.8799999999,"ADDRESS":"果毅後３０６號","OBJECTID":28511},"geometry":{"x":185452.43000000063,"y":2572881.879999999}},{"attributes":{"ID":28512,"DIS_CODE":0,"TOWNNAME":"柳營區","LI":"神農里","LIN":"8鄰","STREET":" ","SECT":" ","MAREA":"果毅後","LANE":" ","ALLEY":" ","HOUSE_NO":"３０８號","E_COORD97":185443.04999999999,"N_COORD97":2572902.8799999999,"ADDRESS":"果毅後３０８號","OBJECTID":28512},"geometry":{"x":185443.05000000075,"y":2572902.879999999}},{"attributes":{"ID":28513,"DIS_CODE":0,"TOWNNAME":"柳營區","LI":"神農里","LIN":"8鄰","STREET":" ","SECT":" ","MAREA":"果毅後","LANE":" ","ALLEY":" ","HOUSE_NO":"３０９號之２","E_COORD97":185402.16,"N_COORD97":2572928.2000000002,"ADDRESS":"果毅後３０９號之２","OBJECTID":28513},"geometry":{"x":185402.16000000108,"y":2572928.1999999974}},{"attributes":{"ID":28514,"DIS_CODE":0,"TOWNNAME":"南區","LI":"大忠里","LIN":"17鄰","STREET":"大同路","SECT":"二段","MAREA":" ","LANE":"６２０巷","ALLEY":"１２弄","HOUSE_NO":"１９號","E_COORD97":169464.45000000001,"N_COORD97":2541136.0099999998,"ADDRESS":"大同路二段６２０巷１２弄１９號","OBJECTID":28514},"geometry":{"x":169464.45000000019,"y":2541136.0100000016}},{"attributes":{"ID":28515,"DIS_CODE":0,"TOWNNAME":"南區","LI":"大忠里","LIN":"17鄰","STREET":"大同路","SECT":"二段","MAREA":" ","LANE":"６２０巷","ALLEY":"１２弄","HOUSE_NO":"２０號","E_COORD97":169490.13,"N_COORD97":2541164.0800000001,"ADDRESS":"大同路二段６２０巷１２弄２０號","OBJECTID":28515},"geometry":{"x":169490.12999999989,"y":2541164.0800000001}},{"attributes":{"ID":28516,"DIS_CODE":0,"TOWNNAME":"南區","LI":"大忠里","LIN":"17鄰","STREET":"大同路","SECT":"二段","MAREA":" ","LANE":"６２０巷","ALLEY":"１２弄","HOUSE_NO":"２１號","E_COORD97":169462.44,"N_COORD97":2541148.3100000001,"ADDRESS":"大同路二段６２０巷１２弄２１號","OBJECTID":28516},"geometry":{"x":169462.44000000134,"y":2541148.3100000024}},{"attributes":{"ID":28517,"DIS_CODE":0,"TOWNNAME":"南區","LI":"大忠里","LIN":"17鄰","STREET":"大同路","SECT":"二段","MAREA":" ","LANE":"６２０巷","ALLEY":"１２弄","HOUSE_NO":"２２號","E_COORD97":169489.32999999999,"N_COORD97":2541172,"ADDRESS":"大同路二段６２０巷１２弄２２號","OBJECTID":28517},"geometry":{"x":169489.33000000194,"y":2541172}},{"attributes":{"ID":28518,"DIS_CODE":0,"TOWNNAME":"南區","LI":"大忠里","LIN":"17鄰","STREET":"大同路","SECT":"二段","MAREA":" ","LANE":"６２０巷","ALLEY":"１２弄","HOUSE_NO":"２３號","E_COORD97":169460.39000000001,"N_COORD97":2541157.8300000001,"ADDRESS":"大同路二段６２０巷１２弄２３號","OBJECTID":28518},"geometry":{"x":169460.3900000006,"y":2541157.8300000019}},{"attributes":{"ID":28519,"DIS_CODE":0,"TOWNNAME":"南區","LI":"大忠里","LIN":"17鄰","STREET":"大同路","SECT":"二段","MAREA":" ","LANE":"６２０巷","ALLEY":"１２弄","HOUSE_NO":"２５號","E_COORD97":169458.69,"N_COORD97":2541168.02,"ADDRESS":"大同路二段６２０巷１２弄２５號","OBJECTID":28519},"geometry":{"x":169458.69000000134,"y":2541168.0199999996}},{"attributes":{"ID":28520,"DIS_CODE":0,"TOWNNAME":"歸仁區","LI":"大廟里","LIN":"22鄰","STREET":"大廟一街","SECT":" ","MAREA":" ","LANE":"３８巷","ALLEY":"２５弄","HOUSE_NO":"２１號","E_COORD97":175726.17000000001,"N_COORD97":2543998.25,"ADDRESS":"大廟一街３８巷２５弄２１號","OBJECTID":28520},"geometry":{"x":175726.16999999993,"y":2543998.25}},{"attributes":{"ID":28521,"DIS_CODE":0,"TOWNNAME":"歸仁區","LI":"七甲里","LIN":"14鄰","STREET":"南丁路","SECT":" ","MAREA":" ","LANE":"５９１巷","ALLEY":"３７弄","HOUSE_NO":"５號","E_COORD97":175932.54000000001,"N_COORD97":2543093.25,"ADDRESS":"南丁路５９１巷３７弄５號","OBJECTID":28521},"geometry":{"x":175932.54000000004,"y":2543093.25}},{"attributes":{"ID":28522,"DIS_CODE":0,"TOWNNAME":"南區","LI":"大恩里","LIN":"17鄰","STREET":"國民路","SECT":" ","MAREA":" ","LANE":"１６５巷","ALLEY":"２１弄","HOUSE_NO":"１１號","E_COORD97":169223.01000000001,"N_COORD97":2540812.5,"ADDRESS":"國民路１６５巷２１弄１１號","OBJECTID":28522},"geometry":{"x":169223.00999999978,"y":2540812.5}},{"attributes":{"ID":28523,"DIS_CODE":0,"TOWNNAME":"新營區","LI":"埤寮里","LIN":"4鄰","STREET":" ","SECT":" ","MAREA":"許丑","LANE":" ","ALLEY":" ","HOUSE_NO":"４８之１號","E_COORD97":179743.89999999999,"N_COORD97":2580998.2000000002,"ADDRESS":"許丑４８之１號","OBJECTID":28523},"geometry":{"x":179743.9000000013,"y":2580998.2000000011}},{"attributes":{"ID":28524,"DIS_CODE":0,"TOWNNAME":"南區","LI":"大恩里","LIN":"17鄰","STREET":"國民路","SECT":" ","MAREA":" ","LANE":"１６５巷","ALLEY":"２１弄","HOUSE_NO":"１３號","E_COORD97":169229.06,"N_COORD97":2540810.5499999998,"ADDRESS":"國民路１６５巷２１弄１３號","OBJECTID":28524},"geometry":{"x":169229.05999999959,"y":2540810.5500000045}},{"attributes":{"ID":28525,"DIS_CODE":0,"TOWNNAME":"南區","LI":"大恩里","LIN":"17鄰","STREET":"國民路","SECT":" ","MAREA":" ","LANE":"１６５巷","ALLEY":"２１弄","HOUSE_NO":"２３號","E_COORD97":169258.48000000001,"N_COORD97":2540802.3999999999,"ADDRESS":"國民路１６５巷２１弄２３號","OBJECTID":28525},"geometry":{"x":169258.48000000138,"y":2540802.4000000022}},{"attributes":{"ID":28526,"DIS_CODE":0,"TOWNNAME":"南區","LI":"大恩里","LIN":"17鄰","STREET":"國民路","SECT":" ","MAREA":" ","LANE":"１６５巷","ALLEY":"２１弄","HOUSE_NO":"３號","E_COORD97":169200.56,"N_COORD97":2540819.04,"ADDRESS":"國民路１６５巷２１弄３號","OBJECTID":28526},"geometry":{"x":169200.55999999959,"y":2540819.0400000028}},{"attributes":{"ID":28527,"DIS_CODE":0,"TOWNNAME":"南區","LI":"大恩里","LIN":"17鄰","STREET":"國民路","SECT":" ","MAREA":" ","LANE":"１６５巷","ALLEY":"２１弄","HOUSE_NO":"５號","E_COORD97":169206.04000000001,"N_COORD97":2540816.6800000002,"ADDRESS":"國民路１６５巷２１弄５號","OBJECTID":28527},"geometry":{"x":169206.04000000004,"y":2540816.6800000016}},{"attributes":{"ID":28528,"DIS_CODE":0,"TOWNNAME":"南區","LI":"大恩里","LIN":"17鄰","STREET":"國民路","SECT":" ","MAREA":" ","LANE":"１６５巷","ALLEY":"２１弄","HOUSE_NO":"７號","E_COORD97":169211.95000000001,"N_COORD97":2540815.1800000002,"ADDRESS":"國民路１６５巷２１弄７號","OBJECTID":28528},"geometry":{"x":169211.95000000019,"y":2540815.1799999978}},{"attributes":{"ID":28529,"DIS_CODE":0,"TOWNNAME":"安南區","LI":"淵西里","LIN":"14鄰","STREET":"安中路","SECT":"四段","MAREA":" ","LANE":"２９７巷","ALLEY":" ","HOUSE_NO":"１號","E_COORD97":164509.07000000001,"N_COORD97":2550179.7599999998,"ADDRESS":"安中路四段２９７巷１號","OBJECTID":28529},"geometry":{"x":164509.06999999937,"y":2550179.7600000016}},{"attributes":{"ID":28530,"DIS_CODE":0,"TOWNNAME":"安南區","LI":"淵西里","LIN":"14鄰","STREET":"安中路","SECT":"四段","MAREA":" ","LANE":" ","ALLEY":" ","HOUSE_NO":"２９９號","E_COORD97":164502.78,"N_COORD97":2550195.6899999999,"ADDRESS":"安中路四段２９９號","OBJECTID":28530},"geometry":{"x":164502.78000000119,"y":2550195.6899999995}},{"attributes":{"ID":28531,"DIS_CODE":0,"TOWNNAME":"安南區","LI":"淵西里","LIN":"14鄰","STREET":"安中路","SECT":"四段","MAREA":" ","LANE":" ","ALLEY":" ","HOUSE_NO":"２９９號之１","E_COORD97":164497.95000000001,"N_COORD97":2550197.1400000001,"ADDRESS":"安中路四段２９９號之１","OBJECTID":28531},"geometry":{"x":164497.95000000205,"y":2550197.1400000006}},{"attributes":{"ID":28532,"DIS_CODE":0,"TOWNNAME":"安南區","LI":"淵西里","LIN":"14鄰","STREET":"安中路","SECT":"四段","MAREA":" ","LANE":" ","ALLEY":" ","HOUSE_NO":"２９９號之２","E_COORD97":164494.57000000001,"N_COORD97":2550199.0699999998,"ADDRESS":"安中路四段２９９號之２","OBJECTID":28532},"geometry":{"x":164494.57000000123,"y":2550199.0700000022}},{"attributes":{"ID":28533,"DIS_CODE":0,"TOWNNAME":"安南區","LI":"淵西里","LIN":"14鄰","STREET":"安中路","SECT":"四段","MAREA":" ","LANE":" ","ALLEY":" ","HOUSE_NO":"２９９號之３","E_COORD97":164491.67000000001,"N_COORD97":2550200.52,"ADDRESS":"安中路四段２９９號之３","OBJECTID":28533},"geometry":{"x":164491.67000000086,"y":2550200.5199999996}},{"attributes":{"ID":28534,"DIS_CODE":0,"TOWNNAME":"安南區","LI":"淵西里","LIN":"14鄰","STREET":"安中路","SECT":"四段","MAREA":" ","LANE":" ","ALLEY":" ","HOUSE_NO":"２９９號之４","E_COORD97":164487.79999999999,"N_COORD97":2550201.96,"ADDRESS":"安中路四段２９９號之４","OBJECTID":28534},"geometry":{"x":164487.79999999981,"y":2550201.9600000009}},{"attributes":{"ID":28535,"DIS_CODE":0,"TOWNNAME":"安南區","LI":"淵西里","LIN":"14鄰","STREET":"安中路","SECT":"四段","MAREA":" ","LANE":" ","ALLEY":" ","HOUSE_NO":"３０１號","E_COORD97":164482.45000000001,"N_COORD97":2550206.5800000001,"ADDRESS":"安中路四段３０１號","OBJECTID":28535},"geometry":{"x":164482.45000000019,"y":2550206.5800000001}},{"attributes":{"ID":28536,"DIS_CODE":0,"TOWNNAME":"安南區","LI":"淵西里","LIN":"14鄰","STREET":"安中路","SECT":"四段","MAREA":" ","LANE":" ","ALLEY":" ","HOUSE_NO":"３０３號","E_COORD97":164477.67000000001,"N_COORD97":2550207.6099999999,"ADDRESS":"安中路四段３０３號","OBJECTID":28536},"geometry":{"x":164477.67000000179,"y":2550207.6100000013}},{"attributes":{"ID":28537,"DIS_CODE":0,"TOWNNAME":"安南區","LI":"淵西里","LIN":"14鄰","STREET":"安中路","SECT":"四段","MAREA":" ","LANE":" ","ALLEY":" ","HOUSE_NO":"３０５號","E_COORD97":164470.19,"N_COORD97":2550211.7599999998,"ADDRESS":"安中路四段３０５號","OBJECTID":28537},"geometry":{"x":164470.19000000134,"y":2550211.7599999998}},{"attributes":{"ID":28538,"DIS_CODE":0,"TOWNNAME":"柳營區","LI":"神農里","LIN":"8鄰","STREET":" ","SECT":" ","MAREA":"果毅後","LANE":" ","ALLEY":" ","HOUSE_NO":"３１０號之１","E_COORD97":185452.09,"N_COORD97":2572932,"ADDRESS":"果毅後３１０號之１","OBJECTID":28538},"geometry":{"x":185452.08999999985,"y":2572932.0000000019}},{"attributes":{"ID":28539,"DIS_CODE":0,"TOWNNAME":"柳營區","LI":"神農里","LIN":"8鄰","STREET":" ","SECT":" ","MAREA":"果毅後","LANE":" ","ALLEY":" ","HOUSE_NO":"３１０號","E_COORD97":185436.14000000001,"N_COORD97":2572925.0600000001,"ADDRESS":"果毅後３１０號","OBJECTID":28539},"geometry":{"x":185436.13999999966,"y":2572925.0600000024}},{"attributes":{"ID":28540,"DIS_CODE":0,"TOWNNAME":"柳營區","LI":"神農里","LIN":"8鄰","STREET":" ","SECT":" ","MAREA":"果毅後","LANE":" ","ALLEY":" ","HOUSE_NO":"３１１之１號","E_COORD97":185454.23999999999,"N_COORD97":2572919.02,"ADDRESS":"果毅後３１１之１號","OBJECTID":28540},"geometry":{"x":185454.24000000115,"y":2572919.0199999996}},{"attributes":{"ID":28541,"DIS_CODE":0,"TOWNNAME":"柳營區","LI":"神農里","LIN":"8鄰","STREET":" ","SECT":" ","MAREA":"果毅後","LANE":" ","ALLEY":" ","HOUSE_NO":"３１１號","E_COORD97":185461.39000000001,"N_COORD97":2572929.8300000001,"ADDRESS":"果毅後３１１號","OBJECTID":28541},"geometry":{"x":185461.3900000006,"y":2572929.8300000019}},{"attributes":{"ID":28542,"DIS_CODE":0,"TOWNNAME":"歸仁區","LI":"大廟里","LIN":"18鄰","STREET":"大廟五街","SECT":" ","MAREA":" ","LANE":"２７巷","ALLEY":"６弄","HOUSE_NO":"１４號","E_COORD97":175901.32999999999,"N_COORD97":2544257.0899999999,"ADDRESS":"大廟五街２７巷６弄１４號","OBJECTID":28542},"geometry":{"x":175901.33000000101,"y":2544257.0899999999}},{"attributes":{"ID":28543,"DIS_CODE":0,"TOWNNAME":"歸仁區","LI":"七甲里","LIN":"18鄰","STREET":"南潭三街","SECT":" ","MAREA":" ","LANE":"１６２巷","ALLEY":"８弄","HOUSE_NO":"１８號","E_COORD97":176400.42999999999,"N_COORD97":2543150.0299999998,"ADDRESS":"南潭三街１６２巷８弄１８號","OBJECTID":28543},"geometry":{"x":176400.4299999997,"y":2543150.0300000012}},{"attributes":{"ID":28544,"DIS_CODE":0,"TOWNNAME":"新營區","LI":"延平里","LIN":"17鄰","STREET":"長春街","SECT":" ","MAREA":" ","LANE":"１３４巷","ALLEY":"１６弄","HOUSE_NO":"６號","E_COORD97":179559.93283000001,"N_COORD97":2577872.0269300002,"ADDRESS":"長春街１３４巷１６弄６號","OBJECTID":28544},"geometry":{"x":179559.93283000123,"y":2577872.0269339979}},{"attributes":{"ID":28545,"DIS_CODE":0,"TOWNNAME":"新營區","LI":"新南里","LIN":"17鄰","STREET":"隋唐街","SECT":" ","MAREA":" ","LANE":"１１５巷","ALLEY":"７弄","HOUSE_NO":"２號","E_COORD97":178503.91,"N_COORD97":2578500.1200000001,"ADDRESS":"隋唐街１１５巷７弄２號","OBJECTID":28545},"geometry":{"x":178503.91000000201,"y":2578500.120000001}},{"attributes":{"ID":28546,"DIS_CODE":0,"TOWNNAME":"新營區","LI":"忠政里","LIN":"17鄰","STREET":"府西路","SECT":" ","MAREA":" ","LANE":"２５８巷","ALLEY":"１４弄","HOUSE_NO":"３號","E_COORD97":179843.53,"N_COORD97":2579720.77,"ADDRESS":"府西路２５８巷１４弄３號","OBJECTID":28546},"geometry":{"x":179843.53000000026,"y":2579720.7700000014}},{"attributes":{"ID":28547,"DIS_CODE":0,"TOWNNAME":"柳營區","LI":"神農里","LIN":"8鄰","STREET":" ","SECT":" ","MAREA":"果毅後","LANE":" ","ALLEY":" ","HOUSE_NO":"３１２之１號","E_COORD97":185478.48000000001,"N_COORD97":2572944.4399999999,"ADDRESS":"果毅後３１２之１號","OBJECTID":28547},"geometry":{"x":185478.48000000138,"y":2572944.4400000013}},{"attributes":{"ID":28548,"DIS_CODE":0,"TOWNNAME":"柳營區","LI":"神農里","LIN":"8鄰","STREET":" ","SECT":" ","MAREA":"果毅後","LANE":" ","ALLEY":" ","HOUSE_NO":"３１２之２號","E_COORD97":185478.31,"N_COORD97":2572952.7200000002,"ADDRESS":"果毅後３１２之２號","OBJECTID":28548},"geometry":{"x":185478.31000000052,"y":2572952.7200000007}},{"attributes":{"ID":28549,"DIS_CODE":0,"TOWNNAME":"新營區","LI":"新南里","LIN":"17鄰","STREET":"隋唐街","SECT":" ","MAREA":" ","LANE":"３１巷","ALLEY":"６弄","HOUSE_NO":"１８號","E_COORD97":178651.25,"N_COORD97":2578477.2599999998,"ADDRESS":"隋唐街３１巷６弄１８號","OBJECTID":28549},"geometry":{"x":178651.25000000093,"y":2578477.2599999998}},{"attributes":{"ID":28550,"DIS_CODE":0,"TOWNNAME":"柳營區","LI":"神農里","LIN":"8鄰","STREET":" ","SECT":" ","MAREA":"果毅後","LANE":" ","ALLEY":" ","HOUSE_NO":"３１２號","E_COORD97":185472.01000000001,"N_COORD97":2572934.8799999999,"ADDRESS":"果毅後３１２號","OBJECTID":28550},"geometry":{"x":185472.01000000071,"y":2572934.8800000008}},{"attributes":{"ID":28551,"DIS_CODE":0,"TOWNNAME":"新營區","LI":"新南里","LIN":"17鄰","STREET":"隋唐街","SECT":" ","MAREA":" ","LANE":"１１５巷","ALLEY":"７弄","HOUSE_NO":"２２號","E_COORD97":178550.13,"N_COORD97":2578489.9300000002,"ADDRESS":"隋唐街１１５巷７弄２２號","OBJECTID":28551},"geometry":{"x":178550.13000000082,"y":2578489.9299999997}},{"attributes":{"ID":28552,"DIS_CODE":0,"TOWNNAME":"新營區","LI":"新東里","LIN":"17鄰","STREET":"東興四街","SECT":" ","MAREA":" ","LANE":"３２巷","ALLEY":"１３弄","HOUSE_NO":"１８號","E_COORD97":180948.54000000001,"N_COORD97":2579121.98,"ADDRESS":"東興四街３２巷１３弄１８號","OBJECTID":28552},"geometry":{"x":180948.54000000004,"y":2579121.9800000042}},{"attributes":{"ID":28553,"DIS_CODE":0,"TOWNNAME":"新營區","LI":"新東里","LIN":"17鄰","STREET":"東興四街","SECT":" ","MAREA":" ","LANE":"３２巷","ALLEY":"１３弄","HOUSE_NO":"８號","E_COORD97":180925.88,"N_COORD97":2579122.0800000001,"ADDRESS":"東興四街３２巷１３弄８號","OBJECTID":28553},"geometry":{"x":180925.87999999989,"y":2579122.0800000019}},{"attributes":{"ID":28554,"DIS_CODE":0,"TOWNNAME":"新營區","LI":"新東里","LIN":"17鄰","STREET":"東興四街","SECT":" ","MAREA":" ","LANE":"３２巷","ALLEY":"１３弄","HOUSE_NO":"１１號","E_COORD97":180941.47,"N_COORD97":2579143.0699999998,"ADDRESS":"東興四街３２巷１３弄１１號","OBJECTID":28554},"geometry":{"x":180941.47000000067,"y":2579143.0700000022}},{"attributes":{"ID":28555,"DIS_CODE":0,"TOWNNAME":"新營區","LI":"新東里","LIN":"17鄰","STREET":"東興四街","SECT":" ","MAREA":" ","LANE":"３２巷","ALLEY":"３１弄","HOUSE_NO":"１１號","E_COORD97":180940.23000000001,"N_COORD97":2579095.4500000002,"ADDRESS":"東興四街３２巷３１弄１１號","OBJECTID":28555},"geometry":{"x":180940.23000000138,"y":2579095.4500000011}},{"attributes":{"ID":28556,"DIS_CODE":0,"TOWNNAME":"新營區","LI":"新南里","LIN":"17鄰","STREET":"隋唐街","SECT":" ","MAREA":" ","LANE":"３１巷","ALLEY":"６弄","HOUSE_NO":"１３號","E_COORD97":178664.39000000001,"N_COORD97":2578443.98,"ADDRESS":"隋唐街３１巷６弄１３號","OBJECTID":28556},"geometry":{"x":178664.38999999966,"y":2578443.9800000042}},{"attributes":{"ID":28557,"DIS_CODE":0,"TOWNNAME":"南區","LI":"大恩里","LIN":"17鄰","STREET":"國民路","SECT":" ","MAREA":" ","LANE":"１６５巷","ALLEY":"７弄","HOUSE_NO":"２號","E_COORD97":169202.70999999999,"N_COORD97":2540831.0600000001,"ADDRESS":"國民路１６５巷７弄２號","OBJECTID":28557},"geometry":{"x":169202.70999999996,"y":2540831.0600000024}},{"attributes":{"ID":28558,"DIS_CODE":0,"TOWNNAME":"南區","LI":"大恩里","LIN":"17鄰","STREET":"國民路","SECT":" ","MAREA":" ","LANE":"１６５巷","ALLEY":"７弄","HOUSE_NO":"４號","E_COORD97":169211.29999999999,"N_COORD97":2540828.1600000001,"ADDRESS":"國民路１６５巷７弄４號","OBJECTID":28558},"geometry":{"x":169211.30000000168,"y":2540828.1600000001}},{"attributes":{"ID":28559,"DIS_CODE":0,"TOWNNAME":"南區","LI":"大恩里","LIN":"17鄰","STREET":"國民路","SECT":" ","MAREA":" ","LANE":"１６５巷","ALLEY":"７弄","HOUSE_NO":"６號","E_COORD97":169219.35000000001,"N_COORD97":2540826.4500000002,"ADDRESS":"國民路１６５巷７弄６號","OBJECTID":28559},"geometry":{"x":169219.35000000056,"y":2540826.4499999974}},{"attributes":{"ID":28560,"DIS_CODE":0,"TOWNNAME":"歸仁區","LI":"大廟里","LIN":"14鄰","STREET":"大廟六街","SECT":" ","MAREA":" ","LANE":"１１０巷","ALLEY":"３弄","HOUSE_NO":"２號","E_COORD97":176233.42000000001,"N_COORD97":2544216.25,"ADDRESS":"大廟六街１１０巷３弄２號","OBJECTID":28560},"geometry":{"x":176233.41999999993,"y":2544216.2500000019}},{"attributes":{"ID":28561,"DIS_CODE":0,"TOWNNAME":"南區","LI":"大恩里","LIN":"17鄰","STREET":"國民路","SECT":" ","MAREA":" ","LANE":"１６５巷","ALLEY":"７弄","HOUSE_NO":"８號","E_COORD97":169228.37,"N_COORD97":2540824.6200000001,"ADDRESS":"國民路１６５巷７弄８號","OBJECTID":28561},"geometry":{"x":169228.37000000104,"y":2540824.6200000029}},{"attributes":{"ID":28562,"DIS_CODE":0,"TOWNNAME":"南區","LI":"新生里","LIN":"17鄰","STREET":"大同路","SECT":"二段","MAREA":" ","LANE":"１００巷","ALLEY":"２１弄","HOUSE_NO":"１８號","E_COORD97":169204.13,"N_COORD97":2542274.23,"ADDRESS":"大同路二段１００巷２１弄１８號","OBJECTID":28562},"geometry":{"x":169204.13000000082,"y":2542274.2300000023}},{"attributes":{"ID":28563,"DIS_CODE":0,"TOWNNAME":"南區","LI":"新生里","LIN":"17鄰","STREET":"大同路","SECT":"二段","MAREA":" ","LANE":"１００巷","ALLEY":"２１弄","HOUSE_NO":"２０號","E_COORD97":169205.85999999999,"N_COORD97":2542268.4199999999,"ADDRESS":"大同路二段１００巷２１弄２０號","OBJECTID":28563},"geometry":{"x":169205.86000000034,"y":2542268.4200000037}},{"attributes":{"ID":28564,"DIS_CODE":0,"TOWNNAME":"南區","LI":"新生里","LIN":"17鄰","STREET":"大同路","SECT":"二段","MAREA":" ","LANE":"１００巷","ALLEY":"２１弄","HOUSE_NO":"２２號","E_COORD97":169207.35000000001,"N_COORD97":2542263.1699999999,"ADDRESS":"大同路二段１００巷２１弄２２號","OBJECTID":28564},"geometry":{"x":169207.35000000149,"y":2542263.1699999981}},{"attributes":{"ID":28565,"DIS_CODE":0,"TOWNNAME":"玉井區","LI":"沙田里","LIN":"8鄰","STREET":" ","SECT":" ","MAREA":"沙田","LANE":" ","ALLEY":" ","HOUSE_NO":"８５號","E_COORD97":199535.66,"N_COORD97":2557039.2799999998,"ADDRESS":"沙田８５號","OBJECTID":28565},"geometry":{"x":199535.66000000015,"y":2557039.2799999993}},{"attributes":{"ID":28566,"DIS_CODE":0,"TOWNNAME":"安南區","LI":"淵西里","LIN":"14鄰","STREET":"安中路","SECT":"四段","MAREA":" ","LANE":" ","ALLEY":" ","HOUSE_NO":"３０７號","E_COORD97":164465.20999999999,"N_COORD97":2550214.25,"ADDRESS":"安中路四段３０７號","OBJECTID":28566},"geometry":{"x":164465.20999999996,"y":2550214.2500000019}},{"attributes":{"ID":28567,"DIS_CODE":0,"TOWNNAME":"安南區","LI":"淵西里","LIN":"14鄰","STREET":"安中路","SECT":"四段","MAREA":" ","LANE":" ","ALLEY":" ","HOUSE_NO":"３０７號之１","E_COORD97":164463.85999999999,"N_COORD97":2550215.3599999999,"ADDRESS":"安中路四段３０７號之１","OBJECTID":28567},"geometry":{"x":164463.86000000127,"y":2550215.3600000031}},{"attributes":{"ID":28568,"DIS_CODE":0,"TOWNNAME":"柳營區","LI":"神農里","LIN":"8鄰","STREET":" ","SECT":" ","MAREA":"果毅後","LANE":" ","ALLEY":" ","HOUSE_NO":"３１３號","E_COORD97":185440.22,"N_COORD97":2572971.8199999998,"ADDRESS":"果毅後３１３號","OBJECTID":28568},"geometry":{"x":185440.22000000067,"y":2572971.8200000003}},{"attributes":{"ID":28569,"DIS_CODE":0,"TOWNNAME":"玉井區","LI":"望明里","LIN":"8鄰","STREET":" ","SECT":" ","MAREA":"望明","LANE":" ","ALLEY":" ","HOUSE_NO":"８９之３０號","E_COORD97":193527.59,"N_COORD97":2556449.29,"ADDRESS":"望明８９之３０號","OBJECTID":28569},"geometry":{"x":193527.59000000078,"y":2556449.2899999991}},{"attributes":{"ID":28570,"DIS_CODE":0,"TOWNNAME":"玉井區","LI":"望明里","LIN":"8鄰","STREET":" ","SECT":" ","MAREA":"望明","LANE":" ","ALLEY":" ","HOUSE_NO":"８９號之１３","E_COORD97":193543.20999999999,"N_COORD97":2556457.2999999998,"ADDRESS":"望明８９號之１３","OBJECTID":28570},"geometry":{"x":193543.21000000089,"y":2556457.3000000007}},{"attributes":{"ID":28571,"DIS_CODE":0,"TOWNNAME":"善化區","LI":"牛庄里","LIN":"14鄰","STREET":" ","SECT":" ","MAREA":"牛庄","LANE":" ","ALLEY":" ","HOUSE_NO":"１４５號之５","E_COORD97":179879.45999999999,"N_COORD97":2559730.27,"ADDRESS":"牛庄１４５號之５","OBJECTID":28571},"geometry":{"x":179879.45999999996,"y":2559730.2700000014}},{"attributes":{"ID":28572,"DIS_CODE":0,"TOWNNAME":"善化區","LI":"牛庄里","LIN":"14鄰","STREET":" ","SECT":" ","MAREA":"牛庄","LANE":" ","ALLEY":" ","HOUSE_NO":"１４５號之７","E_COORD97":179869.73000000001,"N_COORD97":2559768.52,"ADDRESS":"牛庄１４５號之７","OBJECTID":28572},"geometry":{"x":179869.73000000045,"y":2559768.5200000033}},{"attributes":{"ID":28573,"DIS_CODE":0,"TOWNNAME":"善化區","LI":"小新里","LIN":"14鄰","STREET":" ","SECT":" ","MAREA":"小新營","LANE":" ","ALLEY":" ","HOUSE_NO":"１１９號之２","E_COORD97":179752.26999999999,"N_COORD97":2558185.27,"ADDRESS":"小新營１１９號之２","OBJECTID":28573},"geometry":{"x":179752.27000000048,"y":2558185.2699999996}},{"attributes":{"ID":28574,"DIS_CODE":0,"TOWNNAME":"善化區","LI":"牛庄里","LIN":"14鄰","STREET":" ","SECT":" ","MAREA":"牛庄","LANE":" ","ALLEY":" ","HOUSE_NO":"１４５號之４","E_COORD97":179903.476616,"N_COORD97":2559701.5455900002,"ADDRESS":"牛庄１４５號之４","OBJECTID":28574},"geometry":{"x":179903.47661600169,"y":2559701.5455850009}},{"attributes":{"ID":28575,"DIS_CODE":0,"TOWNNAME":"善化區","LI":"牛庄里","LIN":"14鄰","STREET":" ","SECT":" ","MAREA":"牛庄","LANE":" ","ALLEY":" ","HOUSE_NO":"１４７之１８號","E_COORD97":179973.12,"N_COORD97":2559755.27,"ADDRESS":"牛庄１４７之１８號","OBJECTID":28575},"geometry":{"x":179973.12000000011,"y":2559755.2699999996}},{"attributes":{"ID":28576,"DIS_CODE":0,"TOWNNAME":"善化區","LI":"牛庄里","LIN":"14鄰","STREET":" ","SECT":" ","MAREA":"牛庄","LANE":" ","ALLEY":" ","HOUSE_NO":"１４５號之９","E_COORD97":179868.72,"N_COORD97":2559799.27,"ADDRESS":"牛庄１４５號之９","OBJECTID":28576},"geometry":{"x":179868.71999999974,"y":2559799.2699999996}},{"attributes":{"ID":28577,"DIS_CODE":0,"TOWNNAME":"善化區","LI":"牛庄里","LIN":"14鄰","STREET":" ","SECT":" ","MAREA":"牛庄","LANE":" ","ALLEY":" ","HOUSE_NO":"１４７之８號","E_COORD97":179984.57000000001,"N_COORD97":2559708.27,"ADDRESS":"牛庄１４７之８號","OBJECTID":28577},"geometry":{"x":179984.57000000216,"y":2559708.2699999996}},{"attributes":{"ID":28578,"DIS_CODE":0,"TOWNNAME":"南區","LI":"新生里","LIN":"17鄰","STREET":"大同路","SECT":"二段","MAREA":" ","LANE":"１００巷","ALLEY":"２１弄","HOUSE_NO":"２２之１號","E_COORD97":169199.31,"N_COORD97":2542259.96,"ADDRESS":"大同路二段１００巷２１弄２２之１號","OBJECTID":28578},"geometry":{"x":169199.31000000052,"y":2542259.9600000028}},{"attributes":{"ID":28579,"DIS_CODE":0,"TOWNNAME":"善化區","LI":"牛庄里","LIN":"14鄰","STREET":" ","SECT":" ","MAREA":"牛庄","LANE":" ","ALLEY":" ","HOUSE_NO":"１４７之１０號","E_COORD97":179974.60000000001,"N_COORD97":2559729.02,"ADDRESS":"牛庄１４７之１０號","OBJECTID":28579},"geometry":{"x":179974.59999999963,"y":2559729.0200000014}},{"attributes":{"ID":28580,"DIS_CODE":0,"TOWNNAME":"善化區","LI":"牛庄里","LIN":"14鄰","STREET":" ","SECT":" ","MAREA":"牛庄","LANE":" ","ALLEY":" ","HOUSE_NO":"１４４號之２","E_COORD97":179912.16,"N_COORD97":2559793.52,"ADDRESS":"牛庄１４４號之２","OBJECTID":28580},"geometry":{"x":179912.16000000015,"y":2559793.5200000014}},{"attributes":{"ID":28581,"DIS_CODE":0,"TOWNNAME":"善化區","LI":"溪美里","LIN":"14鄰","STREET":" ","SECT":" ","MAREA":"溪尾","LANE":" ","ALLEY":" ","HOUSE_NO":"１２９號之１","E_COORD97":176923.75,"N_COORD97":2561372.77,"ADDRESS":"溪尾１２９號之１","OBJECTID":28581},"geometry":{"x":176923.75000000093,"y":2561372.7699999996}},{"attributes":{"ID":28582,"DIS_CODE":0,"TOWNNAME":"善化區","LI":"溪美里","LIN":"14鄰","STREET":" ","SECT":" ","MAREA":"溪尾","LANE":" ","ALLEY":" ","HOUSE_NO":"１２８號","E_COORD97":176890.92000000001,"N_COORD97":2561392.27,"ADDRESS":"溪尾１２８號","OBJECTID":28582},"geometry":{"x":176890.91999999993,"y":2561392.2700000014}},{"attributes":{"ID":28583,"DIS_CODE":0,"TOWNNAME":"北區","LI":"仁愛里","LIN":"17鄰","STREET":"東豐路","SECT":" ","MAREA":" ","LANE":"３０５巷","ALLEY":"２５弄","HOUSE_NO":"１１號","E_COORD97":170381.95999999999,"N_COORD97":2544859.2200000002,"ADDRESS":"東豐路３０５巷２５弄１１號","OBJECTID":28583},"geometry":{"x":170381.96000000089,"y":2544859.2200000007}},{"attributes":{"ID":28584,"DIS_CODE":0,"TOWNNAME":"北區","LI":"仁愛里","LIN":"17鄰","STREET":"東豐路","SECT":" ","MAREA":" ","LANE":"３０５巷","ALLEY":"２５弄","HOUSE_NO":"１３號","E_COORD97":170378.39000000001,"N_COORD97":2544859.8199999998,"ADDRESS":"東豐路３０５巷２５弄１３號","OBJECTID":28584},"geometry":{"x":170378.39000000153,"y":2544859.820000004}},{"attributes":{"ID":28585,"DIS_CODE":0,"TOWNNAME":"善化區","LI":"溪美里","LIN":"14鄰","STREET":" ","SECT":" ","MAREA":"溪尾","LANE":" ","ALLEY":" ","HOUSE_NO":"１３２號之９","E_COORD97":176945.32000000001,"N_COORD97":2561441.27,"ADDRESS":"溪尾１３２號之９","OBJECTID":28585},"geometry":{"x":176945.32000000123,"y":2561441.2699999996}},{"attributes":{"ID":28586,"DIS_CODE":0,"TOWNNAME":"北區","LI":"仁愛里","LIN":"17鄰","STREET":"東豐路","SECT":" ","MAREA":" ","LANE":"３０５巷","ALLEY":"２５弄","HOUSE_NO":"１５號","E_COORD97":170374.04000000001,"N_COORD97":2544860.9100000001,"ADDRESS":"東豐路３０５巷２５弄１５號","OBJECTID":28586},"geometry":{"x":170374.04000000004,"y":2544860.9100000001}},{"attributes":{"ID":28587,"DIS_CODE":0,"TOWNNAME":"六甲區","LI":"菁埔里","LIN":"8鄰","STREET":" ","SECT":" ","MAREA":"菁埔寮","LANE":" ","ALLEY":" ","HOUSE_NO":"３７號","E_COORD97":177542.95000000001,"N_COORD97":2569994.3500000001,"ADDRESS":"菁埔寮３７號","OBJECTID":28587},"geometry":{"x":177542.95000000112,"y":2569994.3499999996}},{"attributes":{"ID":28588,"DIS_CODE":0,"TOWNNAME":"北區","LI":"仁愛里","LIN":"17鄰","STREET":"東豐路","SECT":" ","MAREA":" ","LANE":"３０５巷","ALLEY":"２５弄","HOUSE_NO":"１７號","E_COORD97":170370.20000000001,"N_COORD97":2544861.5,"ADDRESS":"東豐路３０５巷２５弄１７號","OBJECTID":28588},"geometry":{"x":170370.20000000205,"y":2544861.4999999981}},{"attributes":{"ID":28589,"DIS_CODE":0,"TOWNNAME":"北區","LI":"仁愛里","LIN":"17鄰","STREET":"東豐路","SECT":" ","MAREA":" ","LANE":"３０５巷","ALLEY":"２５弄","HOUSE_NO":"１９號","E_COORD97":170366.57000000001,"N_COORD97":2544862.73,"ADDRESS":"東豐路３０５巷２５弄１９號","OBJECTID":28589},"geometry":{"x":170366.57000000123,"y":2544862.7300000004}},{"attributes":{"ID":28590,"DIS_CODE":0,"TOWNNAME":"北區","LI":"仁愛里","LIN":"17鄰","STREET":"東豐路","SECT":" ","MAREA":" ","LANE":"３０５巷","ALLEY":"２５弄","HOUSE_NO":"１號","E_COORD97":170401.95999999999,"N_COORD97":2544855.8999999999,"ADDRESS":"東豐路３０５巷２５弄１號","OBJECTID":28590},"geometry":{"x":170401.96000000183,"y":2544855.9000000041}},{"attributes":{"ID":28591,"DIS_CODE":0,"TOWNNAME":"北區","LI":"仁愛里","LIN":"17鄰","STREET":"東豐路","SECT":" ","MAREA":" ","LANE":"３０５巷","ALLEY":"２５弄","HOUSE_NO":"２１號","E_COORD97":170362.35000000001,"N_COORD97":2544864.0299999998,"ADDRESS":"東豐路３０５巷２５弄２１號","OBJECTID":28591},"geometry":{"x":170362.35000000056,"y":2544864.0300000031}},{"attributes":{"ID":28592,"DIS_CODE":0,"TOWNNAME":"麻豆區","LI":"中興里","LIN":"14鄰","STREET":"三民路","SECT":" ","MAREA":" ","LANE":" ","ALLEY":" ","HOUSE_NO":"４０號","E_COORD97":172722.92000000001,"N_COORD97":2564570.2799999998,"ADDRESS":"三民路４０號","OBJECTID":28592},"geometry":{"x":172722.92000000179,"y":2564570.2799999993}},{"attributes":{"ID":28593,"DIS_CODE":0,"TOWNNAME":"北區","LI":"仁愛里","LIN":"17鄰","STREET":"東豐路","SECT":" ","MAREA":" ","LANE":"３０５巷","ALLEY":"２５弄","HOUSE_NO":"２３號","E_COORD97":170358.19,"N_COORD97":2544864.4100000001,"ADDRESS":"東豐路３０５巷２５弄２３號","OBJECTID":28593},"geometry":{"x":170358.19000000041,"y":2544864.4100000001}},{"attributes":{"ID":28594,"DIS_CODE":0,"TOWNNAME":"善化區","LI":"溪美里","LIN":"14鄰","STREET":" ","SECT":" ","MAREA":"溪尾","LANE":" ","ALLEY":" ","HOUSE_NO":"１３０號之１","E_COORD97":176932.29999999999,"N_COORD97":2561378.52,"ADDRESS":"溪尾１３０號之１","OBJECTID":28594},"geometry":{"x":176932.29999999981,"y":2561378.5199999996}},{"attributes":{"ID":28595,"DIS_CODE":0,"TOWNNAME":"北區","LI":"仁愛里","LIN":"17鄰","STREET":"東豐路","SECT":" ","MAREA":" ","LANE":"３０５巷","ALLEY":"２５弄","HOUSE_NO":"２５號","E_COORD97":170353.57999999999,"N_COORD97":2544865.71,"ADDRESS":"東豐路３０５巷２５弄２５號","OBJECTID":28595},"geometry":{"x":170353.58000000007,"y":2544865.7100000028}},{"attributes":{"ID":28596,"DIS_CODE":0,"TOWNNAME":"北區","LI":"仁愛里","LIN":"17鄰","STREET":"東豐路","SECT":" ","MAREA":" ","LANE":"３０５巷","ALLEY":"２５弄","HOUSE_NO":"２７號","E_COORD97":170350.20999999999,"N_COORD97":2544866.3999999999,"ADDRESS":"東豐路３０５巷２５弄２７號","OBJECTID":28596},"geometry":{"x":170350.21000000089,"y":2544866.4000000041}},{"attributes":{"ID":28597,"DIS_CODE":0,"TOWNNAME":"玉井區","LI":"望明里","LIN":"8鄰","STREET":" ","SECT":" ","MAREA":"望明","LANE":" ","ALLEY":" ","HOUSE_NO":"８７號","E_COORD97":193773.23000000001,"N_COORD97":2556286.25,"ADDRESS":"望明８７號","OBJECTID":28597},"geometry":{"x":193773.23000000045,"y":2556286.2500000019}},{"attributes":{"ID":28598,"DIS_CODE":0,"TOWNNAME":"北區","LI":"仁愛里","LIN":"17鄰","STREET":"東豐路","SECT":" ","MAREA":" ","LANE":"３０５巷","ALLEY":"２５弄","HOUSE_NO":"２９號","E_COORD97":170345.81,"N_COORD97":2544867.4199999999,"ADDRESS":"東豐路３０５巷２５弄２９號","OBJECTID":28598},"geometry":{"x":170345.81000000052,"y":2544867.4199999999}},{"attributes":{"ID":28599,"DIS_CODE":0,"TOWNNAME":"北區","LI":"仁愛里","LIN":"17鄰","STREET":"東豐路","SECT":" ","MAREA":" ","LANE":"３０５巷","ALLEY":"２５弄","HOUSE_NO":"３號","E_COORD97":170397.91,"N_COORD97":2544855.77,"ADDRESS":"東豐路３０５巷２５弄３號","OBJECTID":28599},"geometry":{"x":170397.91000000108,"y":2544855.7699999977}},{"attributes":{"ID":28600,"DIS_CODE":0,"TOWNNAME":"善化區","LI":"溪美里","LIN":"14鄰","STREET":" ","SECT":" ","MAREA":"溪尾","LANE":" ","ALLEY":" ","HOUSE_NO":"１３２號之３３","E_COORD97":176961.54999999999,"N_COORD97":2561484.02,"ADDRESS":"溪尾１３２號之３３","OBJECTID":28600},"geometry":{"x":176961.54999999888,"y":2561484.0200000033}}]}