{"displayFieldName":"TOWNNAME","fieldAliases":{"ID":"ID","DIS_CODE":"DIS_CODE","TOWNNAME":"TOWNNAME","LI":"LI","LIN":"LIN","STREET":"STREET","SECT":"SECT","MAREA":"MAREA","LANE":"LANE","ALLEY":"ALLEY","HOUSE_NO":"HOUSE_NO","E_COORD97":"E_COORD97","N_COORD97":"N_COORD97","ADDRESS":"ADDRESS","OBJECTID":"OBJECTID"},"geometryType":"esriGeometryPoint","spatialReference":{"wkid":102443,"latestWkid":3826},"fields":[{"name":"ID","type":"esriFieldTypeDouble","alias":"ID"},{"name":"DIS_CODE","type":"esriFieldTypeInteger","alias":"DIS_CODE"},{"name":"TOWNNAME","type":"esriFieldTypeString","alias":"TOWNNAME","length":8},{"name":"LI","type":"esriFieldTypeString","alias":"LI","length":8},{"name":"LIN","type":"esriFieldTypeString","alias":"LIN","length":12},{"name":"STREET","type":"esriFieldTypeString","alias":"STREET","length":20},{"name":"SECT","type":"esriFieldTypeString","alias":"SECT","length":8},{"name":"MAREA","type":"esriFieldTypeString","alias":"MAREA","length":12},{"name":"LANE","type":"esriFieldTypeString","alias":"LANE","length":10},{"name":"ALLEY","type":"esriFieldTypeString","alias":"ALLEY","length":10},{"name":"HOUSE_NO","type":"esriFieldTypeString","alias":"HOUSE_NO","length":20},{"name":"E_COORD97","type":"esriFieldTypeDouble","alias":"E_COORD97"},{"name":"N_COORD97","type":"esriFieldTypeDouble","alias":"N_COORD97"},{"name":"ADDRESS","type":"esriFieldTypeString","alias":"ADDRESS","length":50},{"name":"OBJECTID","type":"esriFieldTypeOID","alias":"OBJECTID"}],"features":[{"attributes":{"ID":336210,"DIS_CODE":0,"TOWNNAME":"安平區","LI":"平安里","LIN":"7鄰","STREET":"安平路","SECT":" ","MAREA":" ","LANE":"４０６巷","ALLEY":" ","HOUSE_NO":"２號","E_COORD97":165414.17000000001,"N_COORD97":2544331.0499999998,"ADDRESS":"安平路４０６巷２號","OBJECTID":336201},"geometry":{"x":165414.16999999993,"y":2544331.0500000026}},{"attributes":{"ID":336211,"DIS_CODE":0,"TOWNNAME":"安平區","LI":"平安里","LIN":"7鄰","STREET":"安平路","SECT":" ","MAREA":" ","LANE":"４０６巷","ALLEY":" ","HOUSE_NO":"４號","E_COORD97":165414.48999999999,"N_COORD97":2544334.2200000002,"ADDRESS":"安平路４０６巷４號","OBJECTID":336202},"geometry":{"x":165414.49000000022,"y":2544334.2200000007}},{"attributes":{"ID":336212,"DIS_CODE":0,"TOWNNAME":"安平區","LI":"平安里","LIN":"7鄰","STREET":"安平路","SECT":" ","MAREA":" ","LANE":"４０６巷","ALLEY":" ","HOUSE_NO":"６號","E_COORD97":165414.79999999999,"N_COORD97":2544337.71,"ADDRESS":"安平路４０６巷６號","OBJECTID":336203},"geometry":{"x":165414.80000000075,"y":2544337.7100000009}},{"attributes":{"ID":336213,"DIS_CODE":0,"TOWNNAME":"安平區","LI":"平安里","LIN":"7鄰","STREET":"安平路","SECT":" ","MAREA":" ","LANE":"４０６巷","ALLEY":" ","HOUSE_NO":"１０號","E_COORD97":165415.91,"N_COORD97":2544345.1600000001,"ADDRESS":"安平路４０６巷１０號","OBJECTID":336204},"geometry":{"x":165415.91000000108,"y":2544345.1599999983}},{"attributes":{"ID":336214,"DIS_CODE":0,"TOWNNAME":"永康區","LI":"王行里","LIN":" ","STREET":"王行路","SECT":" ","MAREA":" ","LANE":" ","ALLEY":" ","HOUSE_NO":"２３０號","E_COORD97":175635.38,"N_COORD97":2548201.71,"ADDRESS":"王行路２３０號","OBJECTID":336205},"geometry":{"x":175635.37999999989,"y":2548201.7100000028}},{"attributes":{"ID":336215,"DIS_CODE":0,"TOWNNAME":"歸仁區","LI":"辜厝里","LIN":"36鄰","STREET":"中正南路","SECT":"一段","MAREA":" ","LANE":"２１８巷","ALLEY":" ","HOUSE_NO":"２５號六樓之３","E_COORD97":177261.95999999999,"N_COORD97":2540344.2599999998,"ADDRESS":"中正南路一段２１８巷２５號六樓之３","OBJECTID":336206},"geometry":{"x":177261.95999999996,"y":2540344.2600000016}},{"attributes":{"ID":336216,"DIS_CODE":0,"TOWNNAME":"歸仁區","LI":"辜厝里","LIN":"36鄰","STREET":"中正南路","SECT":"一段","MAREA":" ","LANE":"２１８巷","ALLEY":" ","HOUSE_NO":"２５號六樓之２","E_COORD97":177261.95999999999,"N_COORD97":2540344.2599999998,"ADDRESS":"中正南路一段２１８巷２５號六樓之２","OBJECTID":336207},"geometry":{"x":177261.95999999996,"y":2540344.2600000016}},{"attributes":{"ID":336217,"DIS_CODE":0,"TOWNNAME":"歸仁區","LI":"辜厝里","LIN":"36鄰","STREET":"中正南路","SECT":"一段","MAREA":" ","LANE":"２１８巷","ALLEY":" ","HOUSE_NO":"２５號五樓之３","E_COORD97":177261.95999999999,"N_COORD97":2540344.2599999998,"ADDRESS":"中正南路一段２１８巷２５號五樓之３","OBJECTID":336208},"geometry":{"x":177261.95999999996,"y":2540344.2600000016}},{"attributes":{"ID":336218,"DIS_CODE":0,"TOWNNAME":"歸仁區","LI":"辜厝里","LIN":"36鄰","STREET":"中正南路","SECT":"一段","MAREA":" ","LANE":"２１８巷","ALLEY":" ","HOUSE_NO":"２５號七樓之３","E_COORD97":177261.95999999999,"N_COORD97":2540344.2599999998,"ADDRESS":"中正南路一段２１８巷２５號七樓之３","OBJECTID":336209},"geometry":{"x":177261.95999999996,"y":2540344.2600000016}},{"attributes":{"ID":336219,"DIS_CODE":0,"TOWNNAME":"歸仁區","LI":"辜厝里","LIN":"36鄰","STREET":"中正南路","SECT":"一段","MAREA":" ","LANE":"２１８巷","ALLEY":" ","HOUSE_NO":"２５號三樓之２","E_COORD97":177261.95999999999,"N_COORD97":2540344.2599999998,"ADDRESS":"中正南路一段２１８巷２５號三樓之２","OBJECTID":336210},"geometry":{"x":177261.95999999996,"y":2540344.2600000016}},{"attributes":{"ID":336220,"DIS_CODE":0,"TOWNNAME":"歸仁區","LI":"辜厝里","LIN":"36鄰","STREET":"中正南路","SECT":"一段","MAREA":" ","LANE":"２１８巷","ALLEY":" ","HOUSE_NO":"２５號二樓之３","E_COORD97":177261.95999999999,"N_COORD97":2540344.2599999998,"ADDRESS":"中正南路一段２１８巷２５號二樓之３","OBJECTID":336211},"geometry":{"x":177261.95999999996,"y":2540344.2600000016}},{"attributes":{"ID":336221,"DIS_CODE":0,"TOWNNAME":"歸仁區","LI":"辜厝里","LIN":"36鄰","STREET":"中正南路","SECT":"一段","MAREA":" ","LANE":"２１８巷","ALLEY":" ","HOUSE_NO":"２５號二樓之２","E_COORD97":177261.95999999999,"N_COORD97":2540344.2599999998,"ADDRESS":"中正南路一段２１８巷２５號二樓之２","OBJECTID":336212},"geometry":{"x":177261.95999999996,"y":2540344.2600000016}},{"attributes":{"ID":336222,"DIS_CODE":0,"TOWNNAME":"歸仁區","LI":"辜厝里","LIN":"36鄰","STREET":"中正南路","SECT":"一段","MAREA":" ","LANE":"２１８巷","ALLEY":" ","HOUSE_NO":"２５號七樓之２","E_COORD97":177261.95999999999,"N_COORD97":2540344.2599999998,"ADDRESS":"中正南路一段２１８巷２５號七樓之２","OBJECTID":336213},"geometry":{"x":177261.95999999996,"y":2540344.2600000016}},{"attributes":{"ID":336223,"DIS_CODE":0,"TOWNNAME":"歸仁區","LI":"辜厝里","LIN":"36鄰","STREET":"中正南路","SECT":"一段","MAREA":" ","LANE":"２１８巷","ALLEY":" ","HOUSE_NO":"２５號一樓之２","E_COORD97":177261.95999999999,"N_COORD97":2540344.2599999998,"ADDRESS":"中正南路一段２１８巷２５號一樓之２","OBJECTID":336214},"geometry":{"x":177261.95999999996,"y":2540344.2600000016}},{"attributes":{"ID":336224,"DIS_CODE":0,"TOWNNAME":"永康區","LI":"崑山里","LIN":" ","STREET":"大仁街","SECT":" ","MAREA":" ","LANE":" ","ALLEY":" ","HOUSE_NO":"２２１之３號","E_COORD97":173941.67000000001,"N_COORD97":2545113.5699999998,"ADDRESS":"大仁街２２１之３號","OBJECTID":336215},"geometry":{"x":173941.66999999993,"y":2545113.5700000022}},{"attributes":{"ID":336225,"DIS_CODE":0,"TOWNNAME":"永康區","LI":"甲頂里","LIN":" ","STREET":"中華路","SECT":" ","MAREA":" ","LANE":" ","ALLEY":" ","HOUSE_NO":"１０４０號","E_COORD97":169469.38,"N_COORD97":2547074.9500000002,"ADDRESS":"中華路１０４０號","OBJECTID":336216},"geometry":{"x":169469.37999999989,"y":2547074.9499999974}},{"attributes":{"ID":336226,"DIS_CODE":0,"TOWNNAME":"永康區","LI":"崑山里","LIN":" ","STREET":"大仁街","SECT":" ","MAREA":" ","LANE":" ","ALLEY":" ","HOUSE_NO":"２０７之１號","E_COORD97":173929.78,"N_COORD97":2545078.48,"ADDRESS":"大仁街２０７之１號","OBJECTID":336217},"geometry":{"x":173929.78000000119,"y":2545078.4800000004}},{"attributes":{"ID":336227,"DIS_CODE":0,"TOWNNAME":"永康區","LI":"\u25A0洲里","LIN":"40鄰","STREET":"洲尾街","SECT":" ","MAREA":" ","LANE":" ","ALLEY":" ","HOUSE_NO":"１３１號","E_COORD97":170948.69,"N_COORD97":2548809.3100000001,"ADDRESS":"洲尾街１３１號","OBJECTID":336218},"geometry":{"x":170948.69000000134,"y":2548809.3100000005}},{"attributes":{"ID":336228,"DIS_CODE":0,"TOWNNAME":"永康區","LI":"\u25A0洲里","LIN":"24鄰","STREET":"正南二街","SECT":" ","MAREA":" ","LANE":" ","ALLEY":" ","HOUSE_NO":"５３號","E_COORD97":170771.82000000001,"N_COORD97":2548322.7400000002,"ADDRESS":"正南二街５３號","OBJECTID":336219},"geometry":{"x":170771.82000000123,"y":2548322.7400000021}},{"attributes":{"ID":336229,"DIS_CODE":0,"TOWNNAME":"永康區","LI":"大灣里","LIN":" ","STREET":"大灣路","SECT":" ","MAREA":" ","LANE":" ","ALLEY":" ","HOUSE_NO":"２３４之９號","E_COORD97":173395.39999999999,"N_COORD97":2545222.04,"ADDRESS":"大灣路２３４之９號","OBJECTID":336220},"geometry":{"x":173395.4000000013,"y":2545222.0399999991}},{"attributes":{"ID":336230,"DIS_CODE":0,"TOWNNAME":"永康區","LI":"甲頂里","LIN":" ","STREET":"中正南路","SECT":" ","MAREA":" ","LANE":" ","ALLEY":" ","HOUSE_NO":"１３１號","E_COORD97":169727.25,"N_COORD97":2547021.4700000002,"ADDRESS":"中正南路１３１號","OBJECTID":336221},"geometry":{"x":169727.25000000093,"y":2547021.4700000007}},{"attributes":{"ID":336231,"DIS_CODE":0,"TOWNNAME":"永康區","LI":"王行里","LIN":" ","STREET":"王行路","SECT":" ","MAREA":" ","LANE":" ","ALLEY":" ","HOUSE_NO":"１３號","E_COORD97":175582.59,"N_COORD97":2547864.5,"ADDRESS":"王行路１３號","OBJECTID":336222},"geometry":{"x":175582.58999999985,"y":2547864.5}},{"attributes":{"ID":336232,"DIS_CODE":0,"TOWNNAME":"永康區","LI":"大灣里","LIN":" ","STREET":"民族路","SECT":" ","MAREA":" ","LANE":" ","ALLEY":" ","HOUSE_NO":"３５８號","E_COORD97":174857.14999999999,"N_COORD97":2545333.3500000001,"ADDRESS":"民族路３５８號","OBJECTID":336223},"geometry":{"x":174857.15000000037,"y":2545333.3499999978}},{"attributes":{"ID":336233,"DIS_CODE":0,"TOWNNAME":"永康區","LI":"正強里","LIN":" ","STREET":"正強街","SECT":" ","MAREA":" ","LANE":" ","ALLEY":" ","HOUSE_NO":"１６８之６號","E_COORD97":173342.04000000001,"N_COORD97":2547482.5699999998,"ADDRESS":"正強街１６８之６號","OBJECTID":336224},"geometry":{"x":173342.04000000004,"y":2547482.5700000022}},{"attributes":{"ID":336234,"DIS_CODE":0,"TOWNNAME":"永康區","LI":"王行里","LIN":" ","STREET":"王行路","SECT":" ","MAREA":" ","LANE":" ","ALLEY":" ","HOUSE_NO":"１１０２之號","E_COORD97":175635.17999999999,"N_COORD97":2550233.29,"ADDRESS":"王行路１１０２之號","OBJECTID":336225},"geometry":{"x":175635.18000000063,"y":2550233.290000001}},{"attributes":{"ID":336235,"DIS_CODE":0,"TOWNNAME":"永康區","LI":"尚頂里","LIN":" ","STREET":"中正三街","SECT":" ","MAREA":" ","LANE":" ","ALLEY":" ","HOUSE_NO":"１０之２號","E_COORD97":172623.34,"N_COORD97":2548776.0600000001,"ADDRESS":"中正三街１０之２號","OBJECTID":336226},"geometry":{"x":172623.33999999892,"y":2548776.0600000005}},{"attributes":{"ID":336236,"DIS_CODE":0,"TOWNNAME":"東區","LI":"崇文里","LIN":"36鄰","STREET":"崇德二十一街","SECT":" ","MAREA":" ","LANE":"１３８巷","ALLEY":" ","HOUSE_NO":"２３號","E_COORD97":171223.45000000001,"N_COORD97":2540833.5499999998,"ADDRESS":"崇德二十一街１３８巷２３號","OBJECTID":336227},"geometry":{"x":171223.45000000112,"y":2540833.5500000007}},{"attributes":{"ID":336237,"DIS_CODE":0,"TOWNNAME":"東區","LI":"崇文里","LIN":"36鄰","STREET":"崇德二十一街","SECT":" ","MAREA":" ","LANE":"１３８巷","ALLEY":" ","HOUSE_NO":"２４號","E_COORD97":171215.45000000001,"N_COORD97":2540805.75,"ADDRESS":"崇德二十一街１３８巷２４號","OBJECTID":336228},"geometry":{"x":171215.45000000019,"y":2540805.7500000019}},{"attributes":{"ID":336238,"DIS_CODE":0,"TOWNNAME":"東區","LI":"崇文里","LIN":"36鄰","STREET":"崇德二十一街","SECT":" ","MAREA":" ","LANE":"１３８巷","ALLEY":" ","HOUSE_NO":"２５號","E_COORD97":171226.04000000001,"N_COORD97":2540830.0699999998,"ADDRESS":"崇德二十一街１３８巷２５號","OBJECTID":336229},"geometry":{"x":171226.04000000097,"y":2540830.0700000003}},{"attributes":{"ID":336239,"DIS_CODE":0,"TOWNNAME":"東區","LI":"崇文里","LIN":"36鄰","STREET":"崇德二十一街","SECT":" ","MAREA":" ","LANE":"１３８巷","ALLEY":" ","HOUSE_NO":"２６號","E_COORD97":171223.70999999999,"N_COORD97":2540802.7599999998,"ADDRESS":"崇德二十一街１３８巷２６號","OBJECTID":336230},"geometry":{"x":171223.70999999996,"y":2540802.7600000016}},{"attributes":{"ID":336240,"DIS_CODE":0,"TOWNNAME":"東區","LI":"崇文里","LIN":"36鄰","STREET":"崇德二十一街","SECT":" ","MAREA":" ","LANE":"１３８巷","ALLEY":" ","HOUSE_NO":"２８號","E_COORD97":171225.39999999999,"N_COORD97":2540799.5800000001,"ADDRESS":"崇德二十一街１３８巷２８號","OBJECTID":336231},"geometry":{"x":171225.4000000013,"y":2540799.5800000038}},{"attributes":{"ID":336241,"DIS_CODE":0,"TOWNNAME":"東區","LI":"崇文里","LIN":"36鄰","STREET":"崇德二十一街","SECT":" ","MAREA":" ","LANE":"１３８巷","ALLEY":" ","HOUSE_NO":"３號","E_COORD97":171188.10999999999,"N_COORD97":2540883.6200000001,"ADDRESS":"崇德二十一街１３８巷３號","OBJECTID":336232},"geometry":{"x":171188.11000000127,"y":2540883.620000001}},{"attributes":{"ID":336242,"DIS_CODE":0,"TOWNNAME":"永康區","LI":"復國里","LIN":"36鄰","STREET":"復國一路","SECT":" ","MAREA":" ","LANE":"３９巷","ALLEY":" ","HOUSE_NO":"１號","E_COORD97":172681.20000000001,"N_COORD97":2544839.77,"ADDRESS":"復國一路３９巷１號","OBJECTID":336233},"geometry":{"x":172681.20000000112,"y":2544839.7700000014}},{"attributes":{"ID":336243,"DIS_CODE":0,"TOWNNAME":"安平區","LI":"育平里","LIN":"32鄰","STREET":"健康三街","SECT":" ","MAREA":" ","LANE":"１７巷","ALLEY":" ","HOUSE_NO":"１０號","E_COORD97":164655.64999999999,"N_COORD97":2542923.9100000001,"ADDRESS":"健康三街１７巷１０號","OBJECTID":336234},"geometry":{"x":164655.65000000037,"y":2542923.910000002}},{"attributes":{"ID":336244,"DIS_CODE":0,"TOWNNAME":"安平區","LI":"育平里","LIN":"32鄰","STREET":"健康三街","SECT":" ","MAREA":" ","LANE":"１７巷","ALLEY":" ","HOUSE_NO":"１２號","E_COORD97":164650.57000000001,"N_COORD97":2542924.8599999999,"ADDRESS":"健康三街１７巷１２號","OBJECTID":336235},"geometry":{"x":164650.57000000123,"y":2542924.8599999994}},{"attributes":{"ID":336245,"DIS_CODE":0,"TOWNNAME":"安平區","LI":"育平里","LIN":"32鄰","STREET":"健康三街","SECT":" ","MAREA":" ","LANE":"１７巷","ALLEY":" ","HOUSE_NO":"１６號","E_COORD97":164645.81,"N_COORD97":2542925.9700000002,"ADDRESS":"健康三街１７巷１６號","OBJECTID":336236},"geometry":{"x":164645.81000000145,"y":2542925.9700000007}},{"attributes":{"ID":336246,"DIS_CODE":0,"TOWNNAME":"安南區","LI":"州南里","LIN":"1鄰","STREET":"安和路","SECT":"四段","MAREA":" ","LANE":"３４６巷","ALLEY":" ","HOUSE_NO":"５６號","E_COORD97":169993.19,"N_COORD97":2550845.7200000002,"ADDRESS":"安和路四段３４６巷５６號","OBJECTID":336237},"geometry":{"x":169993.19000000134,"y":2550845.7200000025}},{"attributes":{"ID":336247,"DIS_CODE":0,"TOWNNAME":"安平區","LI":"平通里","LIN":"1鄰","STREET":"育平九街","SECT":" ","MAREA":" ","LANE":"１９２巷","ALLEY":" ","HOUSE_NO":"９８號","E_COORD97":165030.47,"N_COORD97":2544121.4100000001,"ADDRESS":"育平九街１９２巷９８號","OBJECTID":336238},"geometry":{"x":165030.47000000067,"y":2544121.410000002}},{"attributes":{"ID":336248,"DIS_CODE":0,"TOWNNAME":"麻豆區","LI":"巷口里","LIN":"1鄰","STREET":"興南路","SECT":" ","MAREA":" ","LANE":"３８巷","ALLEY":" ","HOUSE_NO":"１號之１","E_COORD97":173149.39999999999,"N_COORD97":2564717.8999999999,"ADDRESS":"興南路３８巷１號之１","OBJECTID":336239},"geometry":{"x":173149.4000000013,"y":2564717.9000000022}},{"attributes":{"ID":336249,"DIS_CODE":0,"TOWNNAME":"麻豆區","LI":"巷口里","LIN":"1鄰","STREET":"興南路","SECT":" ","MAREA":" ","LANE":"３８巷","ALLEY":" ","HOUSE_NO":"１號之２","E_COORD97":173149.35999999999,"N_COORD97":2564720.2000000002,"ADDRESS":"興南路３８巷１號之２","OBJECTID":336240},"geometry":{"x":173149.3600000022,"y":2564720.1999999974}},{"attributes":{"ID":336250,"DIS_CODE":0,"TOWNNAME":"麻豆區","LI":"巷口里","LIN":"1鄰","STREET":"興南路","SECT":" ","MAREA":" ","LANE":"３８巷","ALLEY":" ","HOUSE_NO":"１號之３","E_COORD97":173149.32000000001,"N_COORD97":2564722.5,"ADDRESS":"興南路３８巷１號之３","OBJECTID":336241},"geometry":{"x":173149.3200000003,"y":2564722.5000000037}},{"attributes":{"ID":336251,"DIS_CODE":0,"TOWNNAME":"仁德區","LI":"土庫里","LIN":"8鄰","STREET":"土庫六街","SECT":" ","MAREA":" ","LANE":" ","ALLEY":" ","HOUSE_NO":"４０號","E_COORD97":174202.85000000001,"N_COORD97":2543271.4900000002,"ADDRESS":"土庫六街４０號","OBJECTID":336242},"geometry":{"x":174202.84999999963,"y":2543271.4900000002}},{"attributes":{"ID":336252,"DIS_CODE":0,"TOWNNAME":"仁德區","LI":"土庫里","LIN":"8鄰","STREET":"土庫六街","SECT":" ","MAREA":" ","LANE":" ","ALLEY":" ","HOUSE_NO":"９３號","E_COORD97":174082.76000000001,"N_COORD97":2543251.4900000002,"ADDRESS":"土庫六街９３號","OBJECTID":336243},"geometry":{"x":174082.75999999978,"y":2543251.4900000039}},{"attributes":{"ID":336253,"DIS_CODE":0,"TOWNNAME":"仁德區","LI":"土庫里","LIN":"8鄰","STREET":"土庫路","SECT":" ","MAREA":" ","LANE":" ","ALLEY":" ","HOUSE_NO":"１０號","E_COORD97":174198.95999999999,"N_COORD97":2543381.48,"ADDRESS":"土庫路１０號","OBJECTID":336244},"geometry":{"x":174198.95999999996,"y":2543381.4800000023}},{"attributes":{"ID":336254,"DIS_CODE":0,"TOWNNAME":"仁德區","LI":"土庫里","LIN":"8鄰","STREET":"土庫路","SECT":" ","MAREA":" ","LANE":" ","ALLEY":" ","HOUSE_NO":"５２號","E_COORD97":174232.37,"N_COORD97":2543246.9900000002,"ADDRESS":"土庫路５２號","OBJECTID":336245},"geometry":{"x":174232.37000000104,"y":2543246.9900000002}},{"attributes":{"ID":336255,"DIS_CODE":0,"TOWNNAME":"仁德區","LI":"土庫里","LIN":"8鄰","STREET":"土庫路","SECT":" ","MAREA":" ","LANE":" ","ALLEY":" ","HOUSE_NO":"２６號","E_COORD97":174196.95999999999,"N_COORD97":2543348,"ADDRESS":"土庫路２６號","OBJECTID":336246},"geometry":{"x":174196.95999999996,"y":2543348}},{"attributes":{"ID":336256,"DIS_CODE":0,"TOWNNAME":"仁德區","LI":"仁義里","LIN":"8鄰","STREET":"中山路","SECT":" ","MAREA":" ","LANE":" ","ALLEY":" ","HOUSE_NO":"４５９號","E_COORD97":173686.70999999999,"N_COORD97":2541268.5,"ADDRESS":"中山路４５９號","OBJECTID":336247},"geometry":{"x":173686.70999999996,"y":2541268.5000000019}},{"attributes":{"ID":336257,"DIS_CODE":0,"TOWNNAME":"仁德區","LI":"土庫里","LIN":"8鄰","STREET":"土庫路","SECT":" ","MAREA":" ","LANE":" ","ALLEY":" ","HOUSE_NO":"５０號","E_COORD97":174230.64999999999,"N_COORD97":2543251.2400000002,"ADDRESS":"土庫路５０號","OBJECTID":336248},"geometry":{"x":174230.65000000224,"y":2543251.2400000021}},{"attributes":{"ID":336258,"DIS_CODE":0,"TOWNNAME":"仁德區","LI":"土庫里","LIN":"8鄰","STREET":"土庫六街","SECT":" ","MAREA":" ","LANE":" ","ALLEY":" ","HOUSE_NO":"４２號","E_COORD97":174198.98000000001,"N_COORD97":2543270.4900000002,"ADDRESS":"土庫六街４２號","OBJECTID":336249},"geometry":{"x":174198.98000000045,"y":2543270.4900000002}},{"attributes":{"ID":336259,"DIS_CODE":0,"TOWNNAME":"仁德區","LI":"土庫里","LIN":"8鄰","STREET":"土庫路","SECT":" ","MAREA":" ","LANE":" ","ALLEY":" ","HOUSE_NO":"１２號","E_COORD97":174200.25,"N_COORD97":2543375.2400000002,"ADDRESS":"土庫路１２號","OBJECTID":336250},"geometry":{"x":174200.25,"y":2543375.2400000039}},{"attributes":{"ID":336260,"DIS_CODE":0,"TOWNNAME":"永康區","LI":"\u25A0洲里","LIN":"36鄰","STREET":"\u25A0洲二街","SECT":" ","MAREA":" ","LANE":"１７５巷","ALLEY":" ","HOUSE_NO":"２９號","E_COORD97":171660.57999999999,"N_COORD97":2549457.25,"ADDRESS":"\u25A0洲二街１７５巷２９號","OBJECTID":336251},"geometry":{"x":171660.58000000007,"y":2549457.2500000037}},{"attributes":{"ID":336261,"DIS_CODE":0,"TOWNNAME":"永康區","LI":"復國里","LIN":"36鄰","STREET":"復國一路","SECT":" ","MAREA":" ","LANE":"２１巷","ALLEY":" ","HOUSE_NO":"９號","E_COORD97":172665.67000000001,"N_COORD97":2544801.27,"ADDRESS":"復國一路２１巷９號","OBJECTID":336252},"geometry":{"x":172665.67000000086,"y":2544801.2699999996}},{"attributes":{"ID":336262,"DIS_CODE":0,"TOWNNAME":"新市區","LI":"大社里","LIN":"36鄰","STREET":" ","SECT":" ","MAREA":"大社","LANE":" ","ALLEY":" ","HOUSE_NO":"５９０之１號","E_COORD97":179392.26999999999,"N_COORD97":2554305.5499999998,"ADDRESS":"大社５９０之１號","OBJECTID":336253},"geometry":{"x":179392.26999999955,"y":2554305.5500000026}},{"attributes":{"ID":336263,"DIS_CODE":0,"TOWNNAME":"新市區","LI":"大社里","LIN":"36鄰","STREET":" ","SECT":" ","MAREA":"大社","LANE":" ","ALLEY":" ","HOUSE_NO":"５９０之２４號","E_COORD97":179350.85000000001,"N_COORD97":2554383.2999999998,"ADDRESS":"大社５９０之２４號","OBJECTID":336254},"geometry":{"x":179350.84999999963,"y":2554383.3000000007}},{"attributes":{"ID":336264,"DIS_CODE":0,"TOWNNAME":"新市區","LI":"大社里","LIN":"36鄰","STREET":" ","SECT":" ","MAREA":"大社","LANE":" ","ALLEY":" ","HOUSE_NO":"５９０號","E_COORD97":179397.57000000001,"N_COORD97":2554296,"ADDRESS":"大社５９０號","OBJECTID":336255},"geometry":{"x":179397.5700000003,"y":2554296}},{"attributes":{"ID":336265,"DIS_CODE":0,"TOWNNAME":"新市區","LI":"大社里","LIN":"36鄰","STREET":" ","SECT":" ","MAREA":"大社","LANE":" ","ALLEY":" ","HOUSE_NO":"５９０之１５號","E_COORD97":179373.42999999999,"N_COORD97":2554344.2999999998,"ADDRESS":"大社５９０之１５號","OBJECTID":336256},"geometry":{"x":179373.43000000063,"y":2554344.3000000026}},{"attributes":{"ID":336266,"DIS_CODE":0,"TOWNNAME":"新市區","LI":"大社里","LIN":"36鄰","STREET":" ","SECT":" ","MAREA":"大社","LANE":" ","ALLEY":" ","HOUSE_NO":"５９１之２號","E_COORD97":179383.73000000001,"N_COORD97":2554279.2999999998,"ADDRESS":"大社５９１之２號","OBJECTID":336257},"geometry":{"x":179383.73000000138,"y":2554279.3000000026}},{"attributes":{"ID":336267,"DIS_CODE":0,"TOWNNAME":"永康區","LI":"\u25A0行里","LIN":"36鄰","STREET":"三村一街","SECT":" ","MAREA":" ","LANE":"３０巷","ALLEY":" ","HOUSE_NO":"６號","E_COORD97":172263.76000000001,"N_COORD97":2549276.2799999998,"ADDRESS":"三村一街３０巷６號","OBJECTID":336258},"geometry":{"x":172263.75999999978,"y":2549276.2799999993}},{"attributes":{"ID":336268,"DIS_CODE":0,"TOWNNAME":"永康區","LI":"\u25A0行里","LIN":"36鄰","STREET":"三村一街","SECT":" ","MAREA":" ","LANE":"３０巷","ALLEY":" ","HOUSE_NO":"２７號","E_COORD97":172251.51000000001,"N_COORD97":2549331.23,"ADDRESS":"三村一街３０巷２７號","OBJECTID":336259},"geometry":{"x":172251.51000000071,"y":2549331.2300000004}},{"attributes":{"ID":336269,"DIS_CODE":0,"TOWNNAME":"永康區","LI":"復國里","LIN":"36鄰","STREET":"復國一路","SECT":" ","MAREA":" ","LANE":"３９巷","ALLEY":" ","HOUSE_NO":"１０號","E_COORD97":172666.01000000001,"N_COORD97":2544859.7799999998,"ADDRESS":"復國一路３９巷１０號","OBJECTID":336260},"geometry":{"x":172666.00999999978,"y":2544859.7800000012}},{"attributes":{"ID":336270,"DIS_CODE":0,"TOWNNAME":"永康區","LI":"復國里","LIN":"36鄰","STREET":"復國一路","SECT":" ","MAREA":" ","LANE":"３９巷","ALLEY":" ","HOUSE_NO":"６號","E_COORD97":172672.76000000001,"N_COORD97":2544860.7799999998,"ADDRESS":"復國一路３９巷６號","OBJECTID":336261},"geometry":{"x":172672.75999999978,"y":2544860.7799999993}},{"attributes":{"ID":336271,"DIS_CODE":0,"TOWNNAME":"麻豆區","LI":"巷口里","LIN":"1鄰","STREET":"興南路","SECT":" ","MAREA":" ","LANE":"３８巷","ALLEY":" ","HOUSE_NO":"１號","E_COORD97":173149.41,"N_COORD97":2564715.5699999998,"ADDRESS":"興南路３８巷１號","OBJECTID":336262},"geometry":{"x":173149.41000000108,"y":2564715.570000004}},{"attributes":{"ID":336272,"DIS_CODE":0,"TOWNNAME":"仁德區","LI":"仁義里","LIN":"8鄰","STREET":"中山路","SECT":" ","MAREA":" ","LANE":" ","ALLEY":" ","HOUSE_NO":"４６３號","E_COORD97":173678.16,"N_COORD97":2541269.25,"ADDRESS":"中山路４６３號","OBJECTID":336263},"geometry":{"x":173678.16000000108,"y":2541269.25}},{"attributes":{"ID":336273,"DIS_CODE":0,"TOWNNAME":"仁德區","LI":"土庫里","LIN":"8鄰","STREET":"土庫六街","SECT":" ","MAREA":" ","LANE":" ","ALLEY":" ","HOUSE_NO":"９７號","E_COORD97":174072.67000000001,"N_COORD97":2543250.7400000002,"ADDRESS":"土庫六街９７號","OBJECTID":336264},"geometry":{"x":174072.67000000086,"y":2543250.7400000021}},{"attributes":{"ID":336274,"DIS_CODE":0,"TOWNNAME":"仁德區","LI":"仁義里","LIN":"8鄰","STREET":"中山路","SECT":" ","MAREA":" ","LANE":" ","ALLEY":" ","HOUSE_NO":"４７５號","E_COORD97":173651.62,"N_COORD97":2541272.75,"ADDRESS":"中山路４７５號","OBJECTID":336265},"geometry":{"x":173651.62000000104,"y":2541272.7499999981}},{"attributes":{"ID":336275,"DIS_CODE":0,"TOWNNAME":"仁德區","LI":"土庫里","LIN":"8鄰","STREET":"土庫六街","SECT":" ","MAREA":" ","LANE":" ","ALLEY":" ","HOUSE_NO":"９５號","E_COORD97":174077.76999999999,"N_COORD97":2543251.2400000002,"ADDRESS":"土庫六街９５號","OBJECTID":336266},"geometry":{"x":174077.76999999955,"y":2543251.2400000021}},{"attributes":{"ID":336276,"DIS_CODE":0,"TOWNNAME":"仁德區","LI":"仁義里","LIN":"8鄰","STREET":"仁義一街","SECT":" ","MAREA":" ","LANE":" ","ALLEY":" ","HOUSE_NO":"１１７號","E_COORD97":173591.53,"N_COORD97":2541196.5099999998,"ADDRESS":"仁義一街１１７號","OBJECTID":336267},"geometry":{"x":173591.53000000026,"y":2541196.5100000035}},{"attributes":{"ID":336277,"DIS_CODE":0,"TOWNNAME":"玉井區","LI":"玉田里","LIN":"36鄰","STREET":"玉安街","SECT":" ","MAREA":" ","LANE":"３０巷","ALLEY":" ","HOUSE_NO":"１５號","E_COORD97":195108.26000000001,"N_COORD97":2558361.3199999998,"ADDRESS":"玉安街３０巷１５號","OBJECTID":336268},"geometry":{"x":195108.25999999978,"y":2558361.3200000022}},{"attributes":{"ID":336278,"DIS_CODE":0,"TOWNNAME":"玉井區","LI":"玉田里","LIN":"36鄰","STREET":"玉安街","SECT":" ","MAREA":" ","LANE":"３０巷","ALLEY":" ","HOUSE_NO":"１９號","E_COORD97":195116.17000000001,"N_COORD97":2558358.3199999998,"ADDRESS":"玉安街３０巷１９號","OBJECTID":336269},"geometry":{"x":195116.16999999993,"y":2558358.3200000022}},{"attributes":{"ID":336279,"DIS_CODE":0,"TOWNNAME":"麻豆區","LI":"巷口里","LIN":"1鄰","STREET":"興南路","SECT":" ","MAREA":" ","LANE":"３８巷","ALLEY":" ","HOUSE_NO":"２號之１","E_COORD97":173149.26000000001,"N_COORD97":2564705.7599999998,"ADDRESS":"興南路３８巷２號之１","OBJECTID":336270},"geometry":{"x":173149.25999999885,"y":2564705.7599999998}},{"attributes":{"ID":336280,"DIS_CODE":0,"TOWNNAME":"麻豆區","LI":"巷口里","LIN":"1鄰","STREET":"興南路","SECT":" ","MAREA":" ","LANE":"３８巷","ALLEY":" ","HOUSE_NO":"２號之２","E_COORD97":173149.01000000001,"N_COORD97":2564708.6099999999,"ADDRESS":"興南路３８巷２號之２","OBJECTID":336271},"geometry":{"x":173149.00999999978,"y":2564708.6100000013}},{"attributes":{"ID":336281,"DIS_CODE":0,"TOWNNAME":"麻豆區","LI":"巷口里","LIN":"1鄰","STREET":"興南路","SECT":" ","MAREA":" ","LANE":"３８巷","ALLEY":" ","HOUSE_NO":"２號之３","E_COORD97":173148.92999999999,"N_COORD97":2564711.1699999999,"ADDRESS":"興南路３８巷２號之３","OBJECTID":336272},"geometry":{"x":173148.93000000063,"y":2564711.1700000037}},{"attributes":{"ID":336282,"DIS_CODE":0,"TOWNNAME":"仁德區","LI":"土庫里","LIN":"8鄰","STREET":"土庫路","SECT":" ","MAREA":" ","LANE":" ","ALLEY":" ","HOUSE_NO":"３４號","E_COORD97":174215.70370899999,"N_COORD97":2543306.12469,"ADDRESS":"土庫路３４號","OBJECTID":336273},"geometry":{"x":174215.70370899979,"y":2543306.1246870011}},{"attributes":{"ID":336283,"DIS_CODE":0,"TOWNNAME":"仁德區","LI":"仁義里","LIN":"8鄰","STREET":"仁義一街","SECT":" ","MAREA":" ","LANE":" ","ALLEY":" ","HOUSE_NO":"１１５號","E_COORD97":173587.26000000001,"N_COORD97":2541197.0099999998,"ADDRESS":"仁義一街１１５號","OBJECTID":336274},"geometry":{"x":173587.26000000071,"y":2541197.0100000016}},{"attributes":{"ID":336284,"DIS_CODE":0,"TOWNNAME":"仁德區","LI":"太子里","LIN":"8鄰","STREET":"太子路","SECT":" ","MAREA":" ","LANE":" ","ALLEY":" ","HOUSE_NO":"１６６號","E_COORD97":174387.66,"N_COORD97":2543525.2599999998,"ADDRESS":"太子路１６６號","OBJECTID":336275},"geometry":{"x":174387.66000000015,"y":2543525.2600000016}},{"attributes":{"ID":336285,"DIS_CODE":0,"TOWNNAME":"麻豆區","LI":"巷口里","LIN":"1鄰","STREET":"興南路","SECT":" ","MAREA":" ","LANE":"３８巷","ALLEY":" ","HOUSE_NO":"２號","E_COORD97":173149.17000000001,"N_COORD97":2564703.3500000001,"ADDRESS":"興南路３８巷２號","OBJECTID":336276},"geometry":{"x":173149.17000000086,"y":2564703.3500000015}},{"attributes":{"ID":336286,"DIS_CODE":0,"TOWNNAME":"麻豆區","LI":"巷口里","LIN":"1鄰","STREET":"興南路","SECT":" ","MAREA":" ","LANE":"３８巷","ALLEY":" ","HOUSE_NO":"３號之１","E_COORD97":173148.26999999999,"N_COORD97":2564697.73,"ADDRESS":"興南路３８巷３號之１","OBJECTID":336277},"geometry":{"x":173148.26999999955,"y":2564697.7300000042}},{"attributes":{"ID":336287,"DIS_CODE":0,"TOWNNAME":"麻豆區","LI":"巷口里","LIN":"1鄰","STREET":"興南路","SECT":" ","MAREA":" ","LANE":"３８巷","ALLEY":" ","HOUSE_NO":"３號之２","E_COORD97":173148.35999999999,"N_COORD97":2564700.04,"ADDRESS":"興南路３８巷３號之２","OBJECTID":336278},"geometry":{"x":173148.36000000127,"y":2564700.0399999991}},{"attributes":{"ID":336288,"DIS_CODE":0,"TOWNNAME":"麻豆區","LI":"巷口里","LIN":"1鄰","STREET":"興南路","SECT":" ","MAREA":" ","LANE":"３８巷","ALLEY":" ","HOUSE_NO":"３號","E_COORD97":173148.26000000001,"N_COORD97":2564695.3399999999,"ADDRESS":"興南路３８巷３號","OBJECTID":336279},"geometry":{"x":173148.26000000071,"y":2564695.3399999999}},{"attributes":{"ID":336289,"DIS_CODE":0,"TOWNNAME":"麻豆區","LI":"巷口里","LIN":"1鄰","STREET":"興南路","SECT":" ","MAREA":" ","LANE":"３８巷","ALLEY":" ","HOUSE_NO":"４號之１","E_COORD97":173148.01000000001,"N_COORD97":2564688.27,"ADDRESS":"興南路３８巷４號之１","OBJECTID":336280},"geometry":{"x":173148.01000000071,"y":2564688.2699999996}},{"attributes":{"ID":336290,"DIS_CODE":0,"TOWNNAME":"麻豆區","LI":"巷口里","LIN":"1鄰","STREET":"興南路","SECT":" ","MAREA":" ","LANE":"３８巷","ALLEY":" ","HOUSE_NO":"４號之２","E_COORD97":173148.13,"N_COORD97":2564690.1400000001,"ADDRESS":"興南路３８巷４號之２","OBJECTID":336281},"geometry":{"x":173148.12999999989,"y":2564690.1400000006}},{"attributes":{"ID":336291,"DIS_CODE":0,"TOWNNAME":"麻豆區","LI":"巷口里","LIN":"1鄰","STREET":"興南路","SECT":" ","MAREA":" ","LANE":"３８巷","ALLEY":" ","HOUSE_NO":"４號之３","E_COORD97":173148.10999999999,"N_COORD97":2564692.1200000001,"ADDRESS":"興南路３８巷４號之３","OBJECTID":336282},"geometry":{"x":173148.11000000127,"y":2564692.1199999992}},{"attributes":{"ID":336292,"DIS_CODE":0,"TOWNNAME":"永康區","LI":"永康里","LIN":"1鄰","STREET":"永埔街","SECT":" ","MAREA":" ","LANE":"３３巷","ALLEY":" ","HOUSE_NO":"２３號","E_COORD97":173936.97,"N_COORD97":2547506.9900000002,"ADDRESS":"永埔街３３巷２３號","OBJECTID":336283},"geometry":{"x":173936.97000000067,"y":2547506.9900000021}},{"attributes":{"ID":336293,"DIS_CODE":0,"TOWNNAME":"永康區","LI":"永康里","LIN":"1鄰","STREET":"永埔街","SECT":" ","MAREA":" ","LANE":"３３巷","ALLEY":" ","HOUSE_NO":"２９號","E_COORD97":173925.54000000001,"N_COORD97":2547499.7400000002,"ADDRESS":"永埔街３３巷２９號","OBJECTID":336284},"geometry":{"x":173925.54000000004,"y":2547499.7400000002}},{"attributes":{"ID":336294,"DIS_CODE":0,"TOWNNAME":"永康區","LI":"永康里","LIN":"1鄰","STREET":"永埔街","SECT":" ","MAREA":" ","LANE":"３３巷","ALLEY":" ","HOUSE_NO":"３號","E_COORD97":173980.57000000001,"N_COORD97":2547523.6899999999,"ADDRESS":"永埔街３３巷３號","OBJECTID":336285},"geometry":{"x":173980.57000000123,"y":2547523.6899999995}},{"attributes":{"ID":336295,"DIS_CODE":0,"TOWNNAME":"永康區","LI":"永康里","LIN":"1鄰","STREET":"永埔街","SECT":" ","MAREA":" ","LANE":"３３巷","ALLEY":" ","HOUSE_NO":"２５號","E_COORD97":173933.14999999999,"N_COORD97":2547502.9900000002,"ADDRESS":"永埔街３３巷２５號","OBJECTID":336286},"geometry":{"x":173933.15000000037,"y":2547502.9900000039}},{"attributes":{"ID":336296,"DIS_CODE":0,"TOWNNAME":"永康區","LI":"北灣里","LIN":"1鄰","STREET":"大灣路","SECT":" ","MAREA":" ","LANE":"１１９巷","ALLEY":" ","HOUSE_NO":"８號","E_COORD97":175151.09,"N_COORD97":2545513.8300000001,"ADDRESS":"大灣路１１９巷８號","OBJECTID":336287},"geometry":{"x":175151.09000000078,"y":2545513.8300000038}},{"attributes":{"ID":336297,"DIS_CODE":0,"TOWNNAME":"永康區","LI":"永康里","LIN":"1鄰","STREET":"永埔街","SECT":" ","MAREA":" ","LANE":"１７巷","ALLEY":" ","HOUSE_NO":"６號","E_COORD97":173987.73000000001,"N_COORD97":2547497.4500000002,"ADDRESS":"永埔街１７巷６號","OBJECTID":336288},"geometry":{"x":173987.73000000231,"y":2547497.4499999993}},{"attributes":{"ID":336298,"DIS_CODE":0,"TOWNNAME":"永康區","LI":"永康里","LIN":"1鄰","STREET":"永埔街","SECT":" ","MAREA":" ","LANE":"３３巷","ALLEY":" ","HOUSE_NO":"５號","E_COORD97":173974.17000000001,"N_COORD97":2547520.9399999999,"ADDRESS":"永埔街３３巷５號","OBJECTID":336289},"geometry":{"x":173974.17000000086,"y":2547520.9400000013}},{"attributes":{"ID":336299,"DIS_CODE":0,"TOWNNAME":"歸仁區","LI":"七甲里","LIN":"1鄰","STREET":"中正北路","SECT":"二段","MAREA":" ","LANE":"７５巷","ALLEY":" ","HOUSE_NO":"７７號三樓之２","E_COORD97":177428.91,"N_COORD97":2542267.2599999998,"ADDRESS":"中正北路二段７５巷７７號三樓之２","OBJECTID":336290},"geometry":{"x":177428.91000000015,"y":2542267.2600000016}},{"attributes":{"ID":336300,"DIS_CODE":0,"TOWNNAME":"南區","LI":"新昌里","LIN":"1鄰","STREET":"大德街","SECT":" ","MAREA":" ","LANE":"１４１巷","ALLEY":" ","HOUSE_NO":"２７號二樓","E_COORD97":167570.07999999999,"N_COORD97":2542945.9300000002,"ADDRESS":"大德街１４１巷２７號二樓","OBJECTID":336291},"geometry":{"x":167570.08000000007,"y":2542945.9299999997}},{"attributes":{"ID":336301,"DIS_CODE":0,"TOWNNAME":"南區","LI":"新昌里","LIN":"1鄰","STREET":"大德街","SECT":" ","MAREA":" ","LANE":"１４１巷","ALLEY":" ","HOUSE_NO":"２７號三樓","E_COORD97":167570.07999999999,"N_COORD97":2542945.9300000002,"ADDRESS":"大德街１４１巷２７號三樓","OBJECTID":336292},"geometry":{"x":167570.08000000007,"y":2542945.9299999997}},{"attributes":{"ID":336302,"DIS_CODE":0,"TOWNNAME":"南區","LI":"新昌里","LIN":"1鄰","STREET":"大德街","SECT":" ","MAREA":" ","LANE":"１４１巷","ALLEY":" ","HOUSE_NO":"２７號五樓","E_COORD97":167570.07999999999,"N_COORD97":2542945.9300000002,"ADDRESS":"大德街１４１巷２７號五樓","OBJECTID":336293},"geometry":{"x":167570.08000000007,"y":2542945.9299999997}},{"attributes":{"ID":336303,"DIS_CODE":0,"TOWNNAME":"南區","LI":"新昌里","LIN":"1鄰","STREET":"大德街","SECT":" ","MAREA":" ","LANE":"１４１巷","ALLEY":" ","HOUSE_NO":"２７號四樓","E_COORD97":167570.07999999999,"N_COORD97":2542945.9300000002,"ADDRESS":"大德街１４１巷２７號四樓","OBJECTID":336294},"geometry":{"x":167570.08000000007,"y":2542945.9299999997}},{"attributes":{"ID":336304,"DIS_CODE":0,"TOWNNAME":"北區","LI":"仁愛里","LIN":"1鄰","STREET":"勝利路","SECT":" ","MAREA":" ","LANE":"１７８巷","ALLEY":" ","HOUSE_NO":"３號二樓","E_COORD97":169962.47,"N_COORD97":2544909.1800000002,"ADDRESS":"勝利路１７８巷３號二樓","OBJECTID":336295},"geometry":{"x":169962.46999999974,"y":2544909.1800000016}},{"attributes":{"ID":336305,"DIS_CODE":0,"TOWNNAME":"北區","LI":"仁愛里","LIN":"1鄰","STREET":"勝利路","SECT":" ","MAREA":" ","LANE":"１７８巷","ALLEY":" ","HOUSE_NO":"３號三樓","E_COORD97":169962.47,"N_COORD97":2544909.1800000002,"ADDRESS":"勝利路１７８巷３號三樓","OBJECTID":336296},"geometry":{"x":169962.46999999974,"y":2544909.1800000016}},{"attributes":{"ID":336306,"DIS_CODE":0,"TOWNNAME":"官田區","LI":"大崎里","LIN":"5鄰","STREET":" ","SECT":" ","MAREA":"大崎","LANE":" ","ALLEY":" ","HOUSE_NO":"４１號","E_COORD97":185751.20999999999,"N_COORD97":2565549,"ADDRESS":"大崎４１號","OBJECTID":336297},"geometry":{"x":185751.20999999996,"y":2565549}},{"attributes":{"ID":336307,"DIS_CODE":0,"TOWNNAME":"北區","LI":"振興里","LIN":"1鄰","STREET":"勝利路","SECT":" ","MAREA":" ","LANE":"２７６巷","ALLEY":" ","HOUSE_NO":"３號二樓之２","E_COORD97":169938.89999999999,"N_COORD97":2545170.3100000001,"ADDRESS":"勝利路２７６巷３號二樓之２","OBJECTID":336298},"geometry":{"x":169938.9000000013,"y":2545170.3100000024}},{"attributes":{"ID":336308,"DIS_CODE":0,"TOWNNAME":"北區","LI":"振興里","LIN":"1鄰","STREET":"勝利路","SECT":" ","MAREA":" ","LANE":"２７６巷","ALLEY":" ","HOUSE_NO":"３號三樓之１","E_COORD97":169938.89999999999,"N_COORD97":2545170.3100000001,"ADDRESS":"勝利路２７６巷３號三樓之１","OBJECTID":336299},"geometry":{"x":169938.9000000013,"y":2545170.3100000024}},{"attributes":{"ID":336309,"DIS_CODE":0,"TOWNNAME":"永康區","LI":"神洲里","LIN":"1鄰","STREET":"忠孝路","SECT":" ","MAREA":" ","LANE":"６巷","ALLEY":" ","HOUSE_NO":"３號","E_COORD97":172110.82000000001,"N_COORD97":2544583,"ADDRESS":"忠孝路６巷３號","OBJECTID":336300},"geometry":{"x":172110.82000000123,"y":2544583}},{"attributes":{"ID":336310,"DIS_CODE":0,"TOWNNAME":"北區","LI":"振興里","LIN":"1鄰","STREET":"勝利路","SECT":" ","MAREA":" ","LANE":"２７６巷","ALLEY":" ","HOUSE_NO":"３號三樓之２","E_COORD97":169938.89999999999,"N_COORD97":2545170.3100000001,"ADDRESS":"勝利路２７６巷３號三樓之２","OBJECTID":336301},"geometry":{"x":169938.9000000013,"y":2545170.3100000024}},{"attributes":{"ID":336311,"DIS_CODE":0,"TOWNNAME":"北區","LI":"振興里","LIN":"1鄰","STREET":"勝利路","SECT":" ","MAREA":" ","LANE":"２７６巷","ALLEY":" ","HOUSE_NO":"３號四樓之１","E_COORD97":169938.89999999999,"N_COORD97":2545170.3100000001,"ADDRESS":"勝利路２７６巷３號四樓之１","OBJECTID":336302},"geometry":{"x":169938.9000000013,"y":2545170.3100000024}},{"attributes":{"ID":336312,"DIS_CODE":0,"TOWNNAME":"北區","LI":"振興里","LIN":"1鄰","STREET":"勝利路","SECT":" ","MAREA":" ","LANE":"２７６巷","ALLEY":" ","HOUSE_NO":"３號四樓之２","E_COORD97":169938.89999999999,"N_COORD97":2545170.3100000001,"ADDRESS":"勝利路２７６巷３號四樓之２","OBJECTID":336303},"geometry":{"x":169938.9000000013,"y":2545170.3100000024}},{"attributes":{"ID":336313,"DIS_CODE":0,"TOWNNAME":"北區","LI":"振興里","LIN":"1鄰","STREET":"勝利路","SECT":" ","MAREA":" ","LANE":"２７６巷","ALLEY":" ","HOUSE_NO":"３號五樓之１","E_COORD97":169938.89999999999,"N_COORD97":2545170.3100000001,"ADDRESS":"勝利路２７６巷３號五樓之１","OBJECTID":336304},"geometry":{"x":169938.9000000013,"y":2545170.3100000024}},{"attributes":{"ID":336314,"DIS_CODE":0,"TOWNNAME":"北區","LI":"振興里","LIN":"1鄰","STREET":"勝利路","SECT":" ","MAREA":" ","LANE":"２７６巷","ALLEY":" ","HOUSE_NO":"３號五樓之２","E_COORD97":169938.89999999999,"N_COORD97":2545170.3100000001,"ADDRESS":"勝利路２７６巷３號五樓之２","OBJECTID":336305},"geometry":{"x":169938.9000000013,"y":2545170.3100000024}},{"attributes":{"ID":336315,"DIS_CODE":0,"TOWNNAME":"歸仁區","LI":"七甲里","LIN":"1鄰","STREET":"中正北路","SECT":"二段","MAREA":" ","LANE":"７５巷","ALLEY":" ","HOUSE_NO":"７５號一樓之１","E_COORD97":177449.48999999999,"N_COORD97":2542268.2599999998,"ADDRESS":"中正北路二段７５巷７５號一樓之１","OBJECTID":336306},"geometry":{"x":177449.49000000115,"y":2542268.2599999998}},{"attributes":{"ID":336316,"DIS_CODE":0,"TOWNNAME":"歸仁區","LI":"七甲里","LIN":"1鄰","STREET":"中正北路","SECT":"二段","MAREA":" ","LANE":"７５巷","ALLEY":" ","HOUSE_NO":"７５號四樓之２","E_COORD97":177449.51000000001,"N_COORD97":2542268.2599999998,"ADDRESS":"中正北路二段７５巷７５號四樓之２","OBJECTID":336307},"geometry":{"x":177449.50999999978,"y":2542268.2599999998}},{"attributes":{"ID":336317,"DIS_CODE":0,"TOWNNAME":"歸仁區","LI":"七甲里","LIN":"1鄰","STREET":"中正北路","SECT":"二段","MAREA":" ","LANE":"７５巷","ALLEY":" ","HOUSE_NO":"７７號四樓之２","E_COORD97":177428.91,"N_COORD97":2542267.2599999998,"ADDRESS":"中正北路二段７５巷７７號四樓之２","OBJECTID":336308},"geometry":{"x":177428.91000000015,"y":2542267.2600000016}},{"attributes":{"ID":336318,"DIS_CODE":0,"TOWNNAME":"南區","LI":"明興里","LIN":"10鄰","STREET":"金華路","SECT":"一段","MAREA":" ","LANE":"１０２巷","ALLEY":" ","HOUSE_NO":"１１號","E_COORD97":166982.39000000001,"N_COORD97":2540510.8999999999,"ADDRESS":"金華路一段１０２巷１１號","OBJECTID":336309},"geometry":{"x":166982.38999999966,"y":2540510.9000000022}},{"attributes":{"ID":336319,"DIS_CODE":0,"TOWNNAME":"安平區","LI":"金城里","LIN":"13鄰","STREET":"安北路","SECT":" ","MAREA":" ","LANE":"７２２巷","ALLEY":" ","HOUSE_NO":"９２號","E_COORD97":162506.59,"N_COORD97":2544352.71,"ADDRESS":"安北路７２２巷９２號","OBJECTID":336310},"geometry":{"x":162506.59000000171,"y":2544352.7100000046}},{"attributes":{"ID":336320,"DIS_CODE":0,"TOWNNAME":"新化區","LI":"觀音里","LIN":"1鄰","STREET":"中山路","SECT":" ","MAREA":" ","LANE":"２５８巷","ALLEY":" ","HOUSE_NO":"２號二樓之３","E_COORD97":179039.06,"N_COORD97":2548456.2599999998,"ADDRESS":"中山路２５８巷２號二樓之３","OBJECTID":336311},"geometry":{"x":179039.05999999959,"y":2548456.2599999998}},{"attributes":{"ID":336321,"DIS_CODE":0,"TOWNNAME":"新化區","LI":"觀音里","LIN":"1鄰","STREET":"中山路","SECT":" ","MAREA":" ","LANE":"２５８巷","ALLEY":" ","HOUSE_NO":"２號二樓之２","E_COORD97":179039.06,"N_COORD97":2548456.2599999998,"ADDRESS":"中山路２５８巷２號二樓之２","OBJECTID":336312},"geometry":{"x":179039.05999999959,"y":2548456.2599999998}},{"attributes":{"ID":336322,"DIS_CODE":0,"TOWNNAME":"新化區","LI":"觀音里","LIN":"1鄰","STREET":"中山路","SECT":" ","MAREA":" ","LANE":"２５８巷","ALLEY":" ","HOUSE_NO":"２號三樓","E_COORD97":179038.60999999999,"N_COORD97":2548456.25,"ADDRESS":"中山路２５８巷２號三樓","OBJECTID":336313},"geometry":{"x":179038.61000000127,"y":2548456.25}},{"attributes":{"ID":336323,"DIS_CODE":0,"TOWNNAME":"新化區","LI":"觀音里","LIN":"1鄰","STREET":"中山路","SECT":" ","MAREA":" ","LANE":"２５８巷","ALLEY":" ","HOUSE_NO":"２號二樓之１","E_COORD97":179039.04000000001,"N_COORD97":2548456.2599999998,"ADDRESS":"中山路２５８巷２號二樓之１","OBJECTID":336314},"geometry":{"x":179039.04000000097,"y":2548456.2599999998}},{"attributes":{"ID":336324,"DIS_CODE":0,"TOWNNAME":"永康區","LI":"\u25A0行里","LIN":"1鄰","STREET":"中正路","SECT":" ","MAREA":" ","LANE":"９７０巷","ALLEY":" ","HOUSE_NO":"２７號十樓之７","E_COORD97":172044.91,"N_COORD97":2549030.4199999999,"ADDRESS":"中正路９７０巷２７號十樓之７","OBJECTID":336315},"geometry":{"x":172044.91000000015,"y":2549030.4200000018}},{"attributes":{"ID":336325,"DIS_CODE":0,"TOWNNAME":"仁德區","LI":"仁德里","LIN":"8鄰","STREET":"仁德三街","SECT":" ","MAREA":" ","LANE":" ","ALLEY":" ","HOUSE_NO":"５２號","E_COORD97":173184.42000000001,"N_COORD97":2540986.7599999998,"ADDRESS":"仁德三街５２號","OBJECTID":336316},"geometry":{"x":173184.42000000086,"y":2540986.7599999998}},{"attributes":{"ID":336326,"DIS_CODE":0,"TOWNNAME":"北區","LI":"成德里","LIN":"36鄰","STREET":"育德路","SECT":" ","MAREA":" ","LANE":"６０５巷","ALLEY":" ","HOUSE_NO":"３號","E_COORD97":168700.82000000001,"N_COORD97":2546335.8199999998,"ADDRESS":"育德路６０５巷３號","OBJECTID":336317},"geometry":{"x":168700.8200000003,"y":2546335.8200000022}},{"attributes":{"ID":336327,"DIS_CODE":0,"TOWNNAME":"永康區","LI":"\u25A0行里","LIN":"1鄰","STREET":"中正路","SECT":" ","MAREA":" ","LANE":"９７０巷","ALLEY":" ","HOUSE_NO":"２７號四樓之６","E_COORD97":172044.91,"N_COORD97":2549030.4199999999,"ADDRESS":"中正路９７０巷２７號四樓之６","OBJECTID":336318},"geometry":{"x":172044.91000000015,"y":2549030.4200000018}},{"attributes":{"ID":336328,"DIS_CODE":0,"TOWNNAME":"永康區","LI":"\u25A0行里","LIN":"1鄰","STREET":"中正路","SECT":" ","MAREA":" ","LANE":"９７０巷","ALLEY":" ","HOUSE_NO":"２７號一樓之２","E_COORD97":172044.91,"N_COORD97":2549030.4199999999,"ADDRESS":"中正路９７０巷２７號一樓之２","OBJECTID":336319},"geometry":{"x":172044.91000000015,"y":2549030.4200000018}},{"attributes":{"ID":336329,"DIS_CODE":0,"TOWNNAME":"永康區","LI":"\u25A0行里","LIN":"1鄰","STREET":"中正路","SECT":" ","MAREA":" ","LANE":"９７０巷","ALLEY":" ","HOUSE_NO":"２７號四樓之１","E_COORD97":172044.91,"N_COORD97":2549030.4199999999,"ADDRESS":"中正路９７０巷２７號四樓之１","OBJECTID":336320},"geometry":{"x":172044.91000000015,"y":2549030.4200000018}},{"attributes":{"ID":336330,"DIS_CODE":0,"TOWNNAME":"永康區","LI":"\u25A0行里","LIN":"1鄰","STREET":"中正路","SECT":" ","MAREA":" ","LANE":"９７０巷","ALLEY":" ","HOUSE_NO":"２７號四樓之７","E_COORD97":172044.91,"N_COORD97":2549030.4199999999,"ADDRESS":"中正路９７０巷２７號四樓之７","OBJECTID":336321},"geometry":{"x":172044.91000000015,"y":2549030.4200000018}},{"attributes":{"ID":336331,"DIS_CODE":0,"TOWNNAME":"永康區","LI":"\u25A0行里","LIN":"1鄰","STREET":"中正路","SECT":" ","MAREA":" ","LANE":"９７０巷","ALLEY":" ","HOUSE_NO":"２７號九樓之１０","E_COORD97":172044.91,"N_COORD97":2549030.4199999999,"ADDRESS":"中正路９７０巷２７號九樓之１０","OBJECTID":336322},"geometry":{"x":172044.91000000015,"y":2549030.4200000018}},{"attributes":{"ID":336332,"DIS_CODE":0,"TOWNNAME":"永康區","LI":"\u25A0行里","LIN":"1鄰","STREET":"中正路","SECT":" ","MAREA":" ","LANE":"９７０巷","ALLEY":" ","HOUSE_NO":"２７號七樓之３","E_COORD97":172044.91,"N_COORD97":2549030.4199999999,"ADDRESS":"中正路９７０巷２７號七樓之３","OBJECTID":336323},"geometry":{"x":172044.91000000015,"y":2549030.4200000018}},{"attributes":{"ID":336333,"DIS_CODE":0,"TOWNNAME":"永康區","LI":"\u25A0行里","LIN":"1鄰","STREET":"中正路","SECT":" ","MAREA":" ","LANE":"９７０巷","ALLEY":" ","HOUSE_NO":"２７號七樓之８","E_COORD97":172044.91,"N_COORD97":2549030.4199999999,"ADDRESS":"中正路９７０巷２７號七樓之８","OBJECTID":336324},"geometry":{"x":172044.91000000015,"y":2549030.4200000018}},{"attributes":{"ID":336334,"DIS_CODE":0,"TOWNNAME":"永康區","LI":"\u25A0行里","LIN":"1鄰","STREET":"中正路","SECT":" ","MAREA":" ","LANE":"９７０巷","ALLEY":" ","HOUSE_NO":"２７號五樓之２","E_COORD97":172044.91,"N_COORD97":2549030.4199999999,"ADDRESS":"中正路９７０巷２７號五樓之２","OBJECTID":336325},"geometry":{"x":172044.91000000015,"y":2549030.4200000018}},{"attributes":{"ID":336335,"DIS_CODE":0,"TOWNNAME":"永康區","LI":"\u25A0行里","LIN":"1鄰","STREET":"中正路","SECT":" ","MAREA":" ","LANE":"９７０巷","ALLEY":" ","HOUSE_NO":"２７號三樓之３","E_COORD97":172044.91,"N_COORD97":2549030.4199999999,"ADDRESS":"中正路９７０巷２７號三樓之３","OBJECTID":336326},"geometry":{"x":172044.91000000015,"y":2549030.4200000018}},{"attributes":{"ID":336336,"DIS_CODE":0,"TOWNNAME":"仁德區","LI":"田厝里","LIN":"8鄰","STREET":"保安路","SECT":"二段","MAREA":" ","LANE":" ","ALLEY":" ","HOUSE_NO":"４８５號","E_COORD97":172453.14999999999,"N_COORD97":2537535.5699999998,"ADDRESS":"保安路二段４８５號","OBJECTID":336327},"geometry":{"x":172453.1500000013,"y":2537535.5700000022}},{"attributes":{"ID":336337,"DIS_CODE":0,"TOWNNAME":"南區","LI":"彰南里","LIN":"18鄰","STREET":"新和一路","SECT":" ","MAREA":" ","LANE":"３巷","ALLEY":" ","HOUSE_NO":"７號之２","E_COORD97":166159.899488,"N_COORD97":2540722.97854,"ADDRESS":"新和一路３巷７號之２","OBJECTID":336328},"geometry":{"x":166159.89948800206,"y":2540722.9785449971}},{"attributes":{"ID":336338,"DIS_CODE":0,"TOWNNAME":"永康區","LI":"\u25A0行里","LIN":"1鄰","STREET":"中正路","SECT":" ","MAREA":" ","LANE":"９７０巷","ALLEY":" ","HOUSE_NO":"２７號九樓之５","E_COORD97":172044.91,"N_COORD97":2549030.4199999999,"ADDRESS":"中正路９７０巷２７號九樓之５","OBJECTID":336329},"geometry":{"x":172044.91000000015,"y":2549030.4200000018}},{"attributes":{"ID":336339,"DIS_CODE":0,"TOWNNAME":"永康區","LI":"\u25A0行里","LIN":"1鄰","STREET":"中正路","SECT":" ","MAREA":" ","LANE":"９７０巷","ALLEY":" ","HOUSE_NO":"２７號三樓之８","E_COORD97":172044.91,"N_COORD97":2549030.4199999999,"ADDRESS":"中正路９７０巷２７號三樓之８","OBJECTID":336330},"geometry":{"x":172044.91000000015,"y":2549030.4200000018}},{"attributes":{"ID":336340,"DIS_CODE":0,"TOWNNAME":"永康區","LI":"\u25A0行里","LIN":"1鄰","STREET":"中正路","SECT":" ","MAREA":" ","LANE":"９７０巷","ALLEY":" ","HOUSE_NO":"２７號八樓之２","E_COORD97":172044.91,"N_COORD97":2549030.4199999999,"ADDRESS":"中正路９７０巷２７號八樓之２","OBJECTID":336331},"geometry":{"x":172044.91000000015,"y":2549030.4200000018}},{"attributes":{"ID":336341,"DIS_CODE":0,"TOWNNAME":"永康區","LI":"\u25A0行里","LIN":"1鄰","STREET":"中正路","SECT":" ","MAREA":" ","LANE":"９７０巷","ALLEY":" ","HOUSE_NO":"２７號九樓之９","E_COORD97":172044.91,"N_COORD97":2549030.4199999999,"ADDRESS":"中正路９７０巷２７號九樓之９","OBJECTID":336332},"geometry":{"x":172044.91000000015,"y":2549030.4200000018}},{"attributes":{"ID":336342,"DIS_CODE":0,"TOWNNAME":"永康區","LI":"\u25A0行里","LIN":"1鄰","STREET":"中正路","SECT":" ","MAREA":" ","LANE":"９７０巷","ALLEY":" ","HOUSE_NO":"２７號六樓之１０","E_COORD97":172044.91,"N_COORD97":2549030.4199999999,"ADDRESS":"中正路９７０巷２７號六樓之１０","OBJECTID":336333},"geometry":{"x":172044.91000000015,"y":2549030.4200000018}},{"attributes":{"ID":336343,"DIS_CODE":0,"TOWNNAME":"永康區","LI":"\u25A0行里","LIN":"1鄰","STREET":"中正路","SECT":" ","MAREA":" ","LANE":"９７０巷","ALLEY":" ","HOUSE_NO":"２７號六樓之２","E_COORD97":172044.91,"N_COORD97":2549030.4199999999,"ADDRESS":"中正路９７０巷２７號六樓之２","OBJECTID":336334},"geometry":{"x":172044.91000000015,"y":2549030.4200000018}},{"attributes":{"ID":336344,"DIS_CODE":0,"TOWNNAME":"永康區","LI":"\u25A0行里","LIN":"1鄰","STREET":"中正路","SECT":" ","MAREA":" ","LANE":"９７０巷","ALLEY":" ","HOUSE_NO":"２７號十樓之１","E_COORD97":172044.91,"N_COORD97":2549030.4199999999,"ADDRESS":"中正路９７０巷２７號十樓之１","OBJECTID":336335},"geometry":{"x":172044.91000000015,"y":2549030.4200000018}},{"attributes":{"ID":336345,"DIS_CODE":0,"TOWNNAME":"永康區","LI":"\u25A0行里","LIN":"1鄰","STREET":"中正路","SECT":" ","MAREA":" ","LANE":"９７０巷","ALLEY":" ","HOUSE_NO":"２７號二樓之３","E_COORD97":172044.91,"N_COORD97":2549030.4199999999,"ADDRESS":"中正路９７０巷２７號二樓之３","OBJECTID":336336},"geometry":{"x":172044.91000000015,"y":2549030.4200000018}},{"attributes":{"ID":336346,"DIS_CODE":0,"TOWNNAME":"永康區","LI":"\u25A0行里","LIN":"1鄰","STREET":"中正路","SECT":" ","MAREA":" ","LANE":"９７０巷","ALLEY":" ","HOUSE_NO":"２７號七樓之１０","E_COORD97":172044.91,"N_COORD97":2549030.4199999999,"ADDRESS":"中正路９７０巷２７號七樓之１０","OBJECTID":336337},"geometry":{"x":172044.91000000015,"y":2549030.4200000018}},{"attributes":{"ID":336347,"DIS_CODE":0,"TOWNNAME":"永康區","LI":"\u25A0行里","LIN":"1鄰","STREET":"中正路","SECT":" ","MAREA":" ","LANE":"９７０巷","ALLEY":" ","HOUSE_NO":"２７號十樓之６","E_COORD97":172044.91,"N_COORD97":2549030.4199999999,"ADDRESS":"中正路９７０巷２７號十樓之６","OBJECTID":336338},"geometry":{"x":172044.91000000015,"y":2549030.4200000018}},{"attributes":{"ID":336348,"DIS_CODE":0,"TOWNNAME":"永康區","LI":"\u25A0行里","LIN":"1鄰","STREET":"中正路","SECT":" ","MAREA":" ","LANE":"９７０巷","ALLEY":" ","HOUSE_NO":"２７號十一樓之５","E_COORD97":172044.91,"N_COORD97":2549030.4199999999,"ADDRESS":"中正路９７０巷２７號十一樓之５","OBJECTID":336339},"geometry":{"x":172044.91000000015,"y":2549030.4200000018}},{"attributes":{"ID":336349,"DIS_CODE":0,"TOWNNAME":"永康區","LI":"\u25A0行里","LIN":"1鄰","STREET":"中正路","SECT":" ","MAREA":" ","LANE":"９７０巷","ALLEY":" ","HOUSE_NO":"２７號四樓之８","E_COORD97":172044.91,"N_COORD97":2549030.4199999999,"ADDRESS":"中正路９７０巷２７號四樓之８","OBJECTID":336340},"geometry":{"x":172044.91000000015,"y":2549030.4200000018}},{"attributes":{"ID":336350,"DIS_CODE":0,"TOWNNAME":"永康區","LI":"\u25A0行里","LIN":"1鄰","STREET":"中正路","SECT":" ","MAREA":" ","LANE":"９７０巷","ALLEY":" ","HOUSE_NO":"２７號六樓之５","E_COORD97":172044.91,"N_COORD97":2549030.4199999999,"ADDRESS":"中正路９７０巷２７號六樓之５","OBJECTID":336341},"geometry":{"x":172044.91000000015,"y":2549030.4200000018}},{"attributes":{"ID":336351,"DIS_CODE":0,"TOWNNAME":"永康區","LI":"\u25A0行里","LIN":"1鄰","STREET":"中正路","SECT":" ","MAREA":" ","LANE":"９７０巷","ALLEY":" ","HOUSE_NO":"２７號七樓之７","E_COORD97":172044.91,"N_COORD97":2549030.4199999999,"ADDRESS":"中正路９７０巷２７號七樓之７","OBJECTID":336342},"geometry":{"x":172044.91000000015,"y":2549030.4200000018}},{"attributes":{"ID":336352,"DIS_CODE":0,"TOWNNAME":"永康區","LI":"\u25A0行里","LIN":"1鄰","STREET":"中正路","SECT":" ","MAREA":" ","LANE":"９７０巷","ALLEY":" ","HOUSE_NO":"２７號四樓之３","E_COORD97":172044.91,"N_COORD97":2549030.4199999999,"ADDRESS":"中正路９７０巷２７號四樓之３","OBJECTID":336343},"geometry":{"x":172044.91000000015,"y":2549030.4200000018}},{"attributes":{"ID":336353,"DIS_CODE":0,"TOWNNAME":"永康區","LI":"\u25A0行里","LIN":"1鄰","STREET":"中正路","SECT":" ","MAREA":" ","LANE":"９７０巷","ALLEY":" ","HOUSE_NO":"２７號七樓之１","E_COORD97":172044.91,"N_COORD97":2549030.4199999999,"ADDRESS":"中正路９７０巷２７號七樓之１","OBJECTID":336344},"geometry":{"x":172044.91000000015,"y":2549030.4200000018}},{"attributes":{"ID":336354,"DIS_CODE":0,"TOWNNAME":"永康區","LI":"\u25A0行里","LIN":"1鄰","STREET":"中正路","SECT":" ","MAREA":" ","LANE":"９７０巷","ALLEY":" ","HOUSE_NO":"２７號六樓之９","E_COORD97":172044.91,"N_COORD97":2549030.4199999999,"ADDRESS":"中正路９７０巷２７號六樓之９","OBJECTID":336345},"geometry":{"x":172044.91000000015,"y":2549030.4200000018}},{"attributes":{"ID":336355,"DIS_CODE":0,"TOWNNAME":"永康區","LI":"\u25A0行里","LIN":"1鄰","STREET":"中正路","SECT":" ","MAREA":" ","LANE":"９７０巷","ALLEY":" ","HOUSE_NO":"２７號七樓之６","E_COORD97":172044.91,"N_COORD97":2549030.4199999999,"ADDRESS":"中正路９７０巷２７號七樓之６","OBJECTID":336346},"geometry":{"x":172044.91000000015,"y":2549030.4200000018}},{"attributes":{"ID":336356,"DIS_CODE":0,"TOWNNAME":"永康區","LI":"\u25A0行里","LIN":"1鄰","STREET":"中正路","SECT":" ","MAREA":" ","LANE":"９７０巷","ALLEY":" ","HOUSE_NO":"２７號十一樓之７","E_COORD97":172044.91,"N_COORD97":2549030.4199999999,"ADDRESS":"中正路９７０巷２７號十一樓之７","OBJECTID":336347},"geometry":{"x":172044.91000000015,"y":2549030.4200000018}},{"attributes":{"ID":336357,"DIS_CODE":0,"TOWNNAME":"永康區","LI":"\u25A0行里","LIN":"1鄰","STREET":"中正路","SECT":" ","MAREA":" ","LANE":"９７０巷","ALLEY":" ","HOUSE_NO":"２７號五樓之１０","E_COORD97":172044.91,"N_COORD97":2549030.4199999999,"ADDRESS":"中正路９７０巷２７號五樓之１０","OBJECTID":336348},"geometry":{"x":172044.91000000015,"y":2549030.4200000018}},{"attributes":{"ID":336358,"DIS_CODE":0,"TOWNNAME":"永康區","LI":"\u25A0行里","LIN":"1鄰","STREET":"中正路","SECT":" ","MAREA":" ","LANE":"９７０巷","ALLEY":" ","HOUSE_NO":"２７號九樓之２","E_COORD97":172044.91,"N_COORD97":2549030.4199999999,"ADDRESS":"中正路９７０巷２７號九樓之２","OBJECTID":336349},"geometry":{"x":172044.91000000015,"y":2549030.4200000018}},{"attributes":{"ID":336359,"DIS_CODE":0,"TOWNNAME":"永康區","LI":"\u25A0行里","LIN":"1鄰","STREET":"中正路","SECT":" ","MAREA":" ","LANE":"９７０巷","ALLEY":" ","HOUSE_NO":"２７號五樓之８","E_COORD97":172044.91,"N_COORD97":2549030.4199999999,"ADDRESS":"中正路９７０巷２７號五樓之８","OBJECTID":336350},"geometry":{"x":172044.91000000015,"y":2549030.4200000018}},{"attributes":{"ID":336360,"DIS_CODE":0,"TOWNNAME":"永康區","LI":"\u25A0行里","LIN":"1鄰","STREET":"中正路","SECT":" ","MAREA":" ","LANE":"９７０巷","ALLEY":" ","HOUSE_NO":"２７號五樓之３","E_COORD97":172044.91,"N_COORD97":2549030.4199999999,"ADDRESS":"中正路９７０巷２７號五樓之３","OBJECTID":336351},"geometry":{"x":172044.91000000015,"y":2549030.4200000018}},{"attributes":{"ID":336361,"DIS_CODE":0,"TOWNNAME":"永康區","LI":"\u25A0行里","LIN":"1鄰","STREET":"中正路","SECT":" ","MAREA":" ","LANE":"９７０巷","ALLEY":" ","HOUSE_NO":"２７號十樓之１０","E_COORD97":172044.91,"N_COORD97":2549030.4199999999,"ADDRESS":"中正路９７０巷２７號十樓之１０","OBJECTID":336352},"geometry":{"x":172044.91000000015,"y":2549030.4200000018}},{"attributes":{"ID":336362,"DIS_CODE":0,"TOWNNAME":"永康區","LI":"\u25A0行里","LIN":"1鄰","STREET":"中正路","SECT":" ","MAREA":" ","LANE":"９７０巷","ALLEY":" ","HOUSE_NO":"２７號三樓之２","E_COORD97":172044.91,"N_COORD97":2549030.4199999999,"ADDRESS":"中正路９７０巷２７號三樓之２","OBJECTID":336353},"geometry":{"x":172044.91000000015,"y":2549030.4200000018}},{"attributes":{"ID":336363,"DIS_CODE":0,"TOWNNAME":"永康區","LI":"\u25A0行里","LIN":"1鄰","STREET":"中正路","SECT":" ","MAREA":" ","LANE":"９７０巷","ALLEY":" ","HOUSE_NO":"２７號十樓之８","E_COORD97":172044.91,"N_COORD97":2549030.4199999999,"ADDRESS":"中正路９７０巷２７號十樓之８","OBJECTID":336354},"geometry":{"x":172044.91000000015,"y":2549030.4200000018}},{"attributes":{"ID":336364,"DIS_CODE":0,"TOWNNAME":"東區","LI":"崇德里","LIN":"8鄰","STREET":"崇德路","SECT":" ","MAREA":" ","LANE":" ","ALLEY":" ","HOUSE_NO":"４９７號","E_COORD97":170766.57999999999,"N_COORD97":2541651.2000000002,"ADDRESS":"崇德路４９７號","OBJECTID":336355},"geometry":{"x":170766.58000000101,"y":2541651.1999999993}},{"attributes":{"ID":336365,"DIS_CODE":0,"TOWNNAME":"北區","LI":"大港里","LIN":"36鄰","STREET":"大興街","SECT":" ","MAREA":" ","LANE":"６５２巷","ALLEY":" ","HOUSE_NO":"１０號","E_COORD97":165735.60999999999,"N_COORD97":2545397.46,"ADDRESS":"大興街６５２巷１０號","OBJECTID":336356},"geometry":{"x":165735.61000000034,"y":2545397.4600000009}},{"attributes":{"ID":336366,"DIS_CODE":0,"TOWNNAME":"北區","LI":"大港里","LIN":"36鄰","STREET":"大興街","SECT":" ","MAREA":" ","LANE":"６５２巷","ALLEY":" ","HOUSE_NO":"１２號","E_COORD97":165734.35000000001,"N_COORD97":2545401.2999999998,"ADDRESS":"大興街６５２巷１２號","OBJECTID":336357},"geometry":{"x":165734.35000000056,"y":2545401.3000000007}},{"attributes":{"ID":336367,"DIS_CODE":0,"TOWNNAME":"北區","LI":"大港里","LIN":"36鄰","STREET":"大興街","SECT":" ","MAREA":" ","LANE":"６５２巷","ALLEY":" ","HOUSE_NO":"２號","E_COORD97":165741.76999999999,"N_COORD97":2545380.1200000001,"ADDRESS":"大興街６５２巷２號","OBJECTID":336358},"geometry":{"x":165741.77000000048,"y":2545380.120000001}},{"attributes":{"ID":336368,"DIS_CODE":0,"TOWNNAME":"北區","LI":"大港里","LIN":"36鄰","STREET":"大興街","SECT":" ","MAREA":" ","LANE":"６５２巷","ALLEY":" ","HOUSE_NO":"４號","E_COORD97":165740.67000000001,"N_COORD97":2545384.6699999999,"ADDRESS":"大興街６５２巷４號","OBJECTID":336359},"geometry":{"x":165740.67000000086,"y":2545384.6699999999}},{"attributes":{"ID":336369,"DIS_CODE":0,"TOWNNAME":"北區","LI":"大港里","LIN":"36鄰","STREET":"大興街","SECT":" ","MAREA":" ","LANE":"６５２巷","ALLEY":" ","HOUSE_NO":"６號","E_COORD97":165738.54999999999,"N_COORD97":2545389.2200000002,"ADDRESS":"大興街６５２巷６號","OBJECTID":336360},"geometry":{"x":165738.55000000075,"y":2545389.2200000007}},{"attributes":{"ID":336370,"DIS_CODE":0,"TOWNNAME":"北區","LI":"大港里","LIN":"36鄰","STREET":"大興街","SECT":" ","MAREA":" ","LANE":"６５２巷","ALLEY":" ","HOUSE_NO":"８號","E_COORD97":165737.01000000001,"N_COORD97":2545393.0600000001,"ADDRESS":"大興街６５２巷８號","OBJECTID":336361},"geometry":{"x":165737.01000000071,"y":2545393.0600000005}},{"attributes":{"ID":336371,"DIS_CODE":0,"TOWNNAME":"南區","LI":"光明里","LIN":"36鄰","STREET":"新建路","SECT":" ","MAREA":" ","LANE":"１３巷","ALLEY":" ","HOUSE_NO":"４號","E_COORD97":166505.09,"N_COORD97":2541578.9199999999,"ADDRESS":"新建路１３巷４號","OBJECTID":336362},"geometry":{"x":166505.08999999985,"y":2541578.9199999999}},{"attributes":{"ID":336372,"DIS_CODE":0,"TOWNNAME":"南區","LI":"光明里","LIN":"36鄰","STREET":"新建路","SECT":" ","MAREA":" ","LANE":"１３巷","ALLEY":" ","HOUSE_NO":"６號","E_COORD97":166514.56,"N_COORD97":2541578.5899999999,"ADDRESS":"新建路１３巷６號","OBJECTID":336363},"geometry":{"x":166514.56000000052,"y":2541578.5899999999}},{"attributes":{"ID":336373,"DIS_CODE":0,"TOWNNAME":"南區","LI":"光明里","LIN":"36鄰","STREET":"新建路","SECT":" ","MAREA":" ","LANE":"１３巷","ALLEY":" ","HOUSE_NO":"８號","E_COORD97":166522.89999999999,"N_COORD97":2541578.1000000001,"ADDRESS":"新建路１３巷８號","OBJECTID":336364},"geometry":{"x":166522.9000000013,"y":2541578.0999999996}},{"attributes":{"ID":336374,"DIS_CODE":0,"TOWNNAME":"永康區","LI":"\u25A0行里","LIN":"1鄰","STREET":"中正路","SECT":" ","MAREA":" ","LANE":"９７０巷","ALLEY":" ","HOUSE_NO":"２７號八樓之１０","E_COORD97":172044.91,"N_COORD97":2549030.4199999999,"ADDRESS":"中正路９７０巷２７號八樓之１０","OBJECTID":336365},"geometry":{"x":172044.91000000015,"y":2549030.4200000018}},{"attributes":{"ID":336375,"DIS_CODE":0,"TOWNNAME":"善化區","LI":"南關里","LIN":"8鄰","STREET":"三民路","SECT":" ","MAREA":" ","LANE":" ","ALLEY":" ","HOUSE_NO":"１１號","E_COORD97":177022.20000000001,"N_COORD97":2558856.7599999998,"ADDRESS":"三民路１１號","OBJECTID":336366},"geometry":{"x":177022.20000000112,"y":2558856.7600000016}},{"attributes":{"ID":336376,"DIS_CODE":0,"TOWNNAME":"善化區","LI":"東關里","LIN":"8鄰","STREET":"中山路","SECT":" ","MAREA":" ","LANE":" ","ALLEY":" ","HOUSE_NO":"４６３號","E_COORD97":177267.98999999999,"N_COORD97":2559117.5,"ADDRESS":"中山路４６３號","OBJECTID":336367},"geometry":{"x":177267.99000000115,"y":2559117.5}},{"attributes":{"ID":336377,"DIS_CODE":0,"TOWNNAME":"麻豆區","LI":"中興里","LIN":"8鄰","STREET":"三民路","SECT":" ","MAREA":" ","LANE":" ","ALLEY":" ","HOUSE_NO":"４９號","E_COORD97":172886.23999999999,"N_COORD97":2564437.8500000001,"ADDRESS":"三民路４９號","OBJECTID":336368},"geometry":{"x":172886.24000000115,"y":2564437.8499999996}},{"attributes":{"ID":336378,"DIS_CODE":0,"TOWNNAME":"麻豆區","LI":"中興里","LIN":"8鄰","STREET":"三民路","SECT":" ","MAREA":" ","LANE":" ","ALLEY":" ","HOUSE_NO":"５３號之１","E_COORD97":172828.70000000001,"N_COORD97":2564429.23,"ADDRESS":"三民路５３號之１","OBJECTID":336369},"geometry":{"x":172828.70000000112,"y":2564429.2300000004}},{"attributes":{"ID":336379,"DIS_CODE":0,"TOWNNAME":"麻豆區","LI":"中興里","LIN":"8鄰","STREET":"三民路","SECT":" ","MAREA":" ","LANE":" ","ALLEY":" ","HOUSE_NO":"５３號之２","E_COORD97":172826.98999999999,"N_COORD97":2564410.3100000001,"ADDRESS":"三民路５３號之２","OBJECTID":336370},"geometry":{"x":172826.99000000115,"y":2564410.3100000024}},{"attributes":{"ID":336380,"DIS_CODE":0,"TOWNNAME":"麻豆區","LI":"中興里","LIN":"8鄰","STREET":"三民路","SECT":" ","MAREA":" ","LANE":" ","ALLEY":" ","HOUSE_NO":"５３號之３","E_COORD97":172826.67999999999,"N_COORD97":2564404.3500000001,"ADDRESS":"三民路５３號之３","OBJECTID":336371},"geometry":{"x":172826.68000000063,"y":2564404.3500000034}},{"attributes":{"ID":336381,"DIS_CODE":0,"TOWNNAME":"麻豆區","LI":"中興里","LIN":"8鄰","STREET":"三民路","SECT":" ","MAREA":" ","LANE":" ","ALLEY":" ","HOUSE_NO":"５３號之４","E_COORD97":172826.79999999999,"N_COORD97":2564397.3799999999,"ADDRESS":"三民路５３號之４","OBJECTID":336372},"geometry":{"x":172826.79999999981,"y":2564397.3800000008}},{"attributes":{"ID":336382,"DIS_CODE":0,"TOWNNAME":"麻豆區","LI":"中興里","LIN":"8鄰","STREET":"三民路","SECT":" ","MAREA":" ","LANE":" ","ALLEY":" ","HOUSE_NO":"５３號之５","E_COORD97":172827.17000000001,"N_COORD97":2564391.52,"ADDRESS":"三民路５３號之５","OBJECTID":336373},"geometry":{"x":172827.17000000086,"y":2564391.5199999996}},{"attributes":{"ID":336383,"DIS_CODE":0,"TOWNNAME":"麻豆區","LI":"中興里","LIN":"8鄰","STREET":"三民路","SECT":" ","MAREA":" ","LANE":" ","ALLEY":" ","HOUSE_NO":"５３號之６","E_COORD97":172846.07000000001,"N_COORD97":2564393.7799999998,"ADDRESS":"三民路５３號之６","OBJECTID":336374},"geometry":{"x":172846.07000000216,"y":2564393.7799999993}},{"attributes":{"ID":336384,"DIS_CODE":0,"TOWNNAME":"歸仁區","LI":"許厝里","LIN":"36鄰","STREET":"和平南街","SECT":" ","MAREA":" ","LANE":"８９巷","ALLEY":" ","HOUSE_NO":"３號","E_COORD97":177837.42999999999,"N_COORD97":2540502.8199999998,"ADDRESS":"和平南街８９巷３號","OBJECTID":336375},"geometry":{"x":177837.43000000063,"y":2540502.8200000003}},{"attributes":{"ID":336385,"DIS_CODE":0,"TOWNNAME":"新營區","LI":"民榮里","LIN":"36鄰","STREET":"新進路","SECT":"二段","MAREA":" ","LANE":"４４５巷","ALLEY":" ","HOUSE_NO":"３６號","E_COORD97":178522.20000000001,"N_COORD97":2577998.3700000001,"ADDRESS":"新進路二段４４５巷３６號","OBJECTID":336376},"geometry":{"x":178522.19999999925,"y":2577998.3700000029}},{"attributes":{"ID":336386,"DIS_CODE":0,"TOWNNAME":"新營區","LI":"民榮里","LIN":"36鄰","STREET":"新進路","SECT":"二段","MAREA":" ","LANE":"４４５巷","ALLEY":" ","HOUSE_NO":"３０號","E_COORD97":178534.48999999999,"N_COORD97":2578001.6299999999,"ADDRESS":"新進路二段４４５巷３０號","OBJECTID":336377},"geometry":{"x":178534.49000000115,"y":2578001.6300000008}},{"attributes":{"ID":336387,"DIS_CODE":0,"TOWNNAME":"新營區","LI":"民榮里","LIN":"36鄰","STREET":"新進路","SECT":"二段","MAREA":" ","LANE":"４４５巷","ALLEY":" ","HOUSE_NO":"３２號","E_COORD97":178530.39000000001,"N_COORD97":2578000.54,"ADDRESS":"新進路二段４４５巷３２號","OBJECTID":336378},"geometry":{"x":178530.38999999966,"y":2578000.5399999991}},{"attributes":{"ID":336388,"DIS_CODE":0,"TOWNNAME":"新營區","LI":"民榮里","LIN":"36鄰","STREET":"新進路","SECT":"二段","MAREA":" ","LANE":"４４５巷","ALLEY":" ","HOUSE_NO":"２４號","E_COORD97":178546.76999999999,"N_COORD97":2578006,"ADDRESS":"新進路二段４４５巷２４號","OBJECTID":336379},"geometry":{"x":178546.77000000048,"y":2578006.0000000037}},{"attributes":{"ID":336389,"DIS_CODE":0,"TOWNNAME":"永康區","LI":"\u25A0行里","LIN":"1鄰","STREET":"中正路","SECT":" ","MAREA":" ","LANE":"９７０巷","ALLEY":" ","HOUSE_NO":"２７號二樓之２","E_COORD97":172044.91,"N_COORD97":2549030.4199999999,"ADDRESS":"中正路９７０巷２７號二樓之２","OBJECTID":336380},"geometry":{"x":172044.91000000015,"y":2549030.4200000018}},{"attributes":{"ID":336390,"DIS_CODE":0,"TOWNNAME":"永康區","LI":"\u25A0行里","LIN":"1鄰","STREET":"中正路","SECT":" ","MAREA":" ","LANE":"９７０巷","ALLEY":" ","HOUSE_NO":"２７號十樓之３","E_COORD97":172044.91,"N_COORD97":2549030.4199999999,"ADDRESS":"中正路９７０巷２７號十樓之３","OBJECTID":336381},"geometry":{"x":172044.91000000015,"y":2549030.4200000018}},{"attributes":{"ID":336391,"DIS_CODE":0,"TOWNNAME":"永康區","LI":"\u25A0行里","LIN":"1鄰","STREET":"中正路","SECT":" ","MAREA":" ","LANE":"９７０巷","ALLEY":" ","HOUSE_NO":"２７號八樓之９","E_COORD97":172044.91,"N_COORD97":2549030.4199999999,"ADDRESS":"中正路９７０巷２７號八樓之９","OBJECTID":336382},"geometry":{"x":172044.91000000015,"y":2549030.4200000018}},{"attributes":{"ID":336392,"DIS_CODE":0,"TOWNNAME":"永康區","LI":"\u25A0行里","LIN":"1鄰","STREET":"中正路","SECT":" ","MAREA":" ","LANE":"９７０巷","ALLEY":" ","HOUSE_NO":"２７號三樓之９","E_COORD97":172044.91,"N_COORD97":2549030.4199999999,"ADDRESS":"中正路９７０巷２７號三樓之９","OBJECTID":336383},"geometry":{"x":172044.91000000015,"y":2549030.4200000018}},{"attributes":{"ID":336393,"DIS_CODE":0,"TOWNNAME":"永康區","LI":"\u25A0行里","LIN":"1鄰","STREET":"中正路","SECT":" ","MAREA":" ","LANE":"９７０巷","ALLEY":" ","HOUSE_NO":"２７號四樓之２","E_COORD97":172044.91,"N_COORD97":2549030.4199999999,"ADDRESS":"中正路９７０巷２７號四樓之２","OBJECTID":336384},"geometry":{"x":172044.91000000015,"y":2549030.4200000018}},{"attributes":{"ID":336394,"DIS_CODE":0,"TOWNNAME":"永康區","LI":"\u25A0行里","LIN":"1鄰","STREET":"中正路","SECT":" ","MAREA":" ","LANE":"９７０巷","ALLEY":" ","HOUSE_NO":"２７號一樓之１","E_COORD97":172044.91,"N_COORD97":2549030.4199999999,"ADDRESS":"中正路９７０巷２７號一樓之１","OBJECTID":336385},"geometry":{"x":172044.91000000015,"y":2549030.4200000018}},{"attributes":{"ID":336395,"DIS_CODE":0,"TOWNNAME":"永康區","LI":"\u25A0行里","LIN":"1鄰","STREET":"中正路","SECT":" ","MAREA":" ","LANE":"９７０巷","ALLEY":" ","HOUSE_NO":"２７號二樓之５","E_COORD97":172044.91,"N_COORD97":2549030.4199999999,"ADDRESS":"中正路９７０巷２７號二樓之５","OBJECTID":336386},"geometry":{"x":172044.91000000015,"y":2549030.4200000018}},{"attributes":{"ID":336396,"DIS_CODE":0,"TOWNNAME":"永康區","LI":"\u25A0行里","LIN":"1鄰","STREET":"中正路","SECT":" ","MAREA":" ","LANE":"９７０巷","ALLEY":" ","HOUSE_NO":"２７號六樓之１","E_COORD97":172044.91,"N_COORD97":2549030.4199999999,"ADDRESS":"中正路９７０巷２７號六樓之１","OBJECTID":336387},"geometry":{"x":172044.91000000015,"y":2549030.4200000018}},{"attributes":{"ID":336397,"DIS_CODE":0,"TOWNNAME":"永康區","LI":"\u25A0行里","LIN":"1鄰","STREET":"中正路","SECT":" ","MAREA":" ","LANE":"９７０巷","ALLEY":" ","HOUSE_NO":"２７號六樓之６","E_COORD97":172044.91,"N_COORD97":2549030.4199999999,"ADDRESS":"中正路９７０巷２７號六樓之６","OBJECTID":336388},"geometry":{"x":172044.91000000015,"y":2549030.4200000018}},{"attributes":{"ID":336398,"DIS_CODE":0,"TOWNNAME":"永康區","LI":"\u25A0行里","LIN":"1鄰","STREET":"中正路","SECT":" ","MAREA":" ","LANE":"９７０巷","ALLEY":" ","HOUSE_NO":"２７號三樓之５","E_COORD97":172044.91,"N_COORD97":2549030.4199999999,"ADDRESS":"中正路９７０巷２７號三樓之５","OBJECTID":336389},"geometry":{"x":172044.91000000015,"y":2549030.4200000018}},{"attributes":{"ID":336399,"DIS_CODE":0,"TOWNNAME":"永康區","LI":"正強里","LIN":"36鄰","STREET":"正強街","SECT":" ","MAREA":" ","LANE":"３０７巷","ALLEY":" ","HOUSE_NO":"２８號","E_COORD97":173188.44,"N_COORD97":2548116.9399999999,"ADDRESS":"正強街３０７巷２８號","OBJECTID":336390},"geometry":{"x":173188.44000000134,"y":2548116.9400000013}},{"attributes":{"ID":336400,"DIS_CODE":0,"TOWNNAME":"永康區","LI":"\u25A0行里","LIN":"1鄰","STREET":"中正路","SECT":" ","MAREA":" ","LANE":"９７０巷","ALLEY":" ","HOUSE_NO":"２７號八樓之５","E_COORD97":172044.91,"N_COORD97":2549030.4199999999,"ADDRESS":"中正路９７０巷２７號八樓之５","OBJECTID":336391},"geometry":{"x":172044.91000000015,"y":2549030.4200000018}},{"attributes":{"ID":336401,"DIS_CODE":0,"TOWNNAME":"永康區","LI":"\u25A0行里","LIN":"1鄰","STREET":"中正路","SECT":" ","MAREA":" ","LANE":"９７０巷","ALLEY":" ","HOUSE_NO":"２７號七樓之５","E_COORD97":172044.91,"N_COORD97":2549030.4199999999,"ADDRESS":"中正路９７０巷２７號七樓之５","OBJECTID":336392},"geometry":{"x":172044.91000000015,"y":2549030.4200000018}},{"attributes":{"ID":336402,"DIS_CODE":0,"TOWNNAME":"麻豆區","LI":"中興里","LIN":"8鄰","STREET":"三民路","SECT":" ","MAREA":" ","LANE":" ","ALLEY":" ","HOUSE_NO":"５３號之７","E_COORD97":172845.79999999999,"N_COORD97":2564400.3700000001,"ADDRESS":"三民路５３號之７","OBJECTID":336393},"geometry":{"x":172845.80000000168,"y":2564400.3700000029}},{"attributes":{"ID":336403,"DIS_CODE":0,"TOWNNAME":"麻豆區","LI":"中興里","LIN":"8鄰","STREET":"三民路","SECT":" ","MAREA":" ","LANE":" ","ALLEY":" ","HOUSE_NO":"５３號之８","E_COORD97":172845.53,"N_COORD97":2564406.9500000002,"ADDRESS":"三民路５３號之８","OBJECTID":336394},"geometry":{"x":172845.53000000026,"y":2564406.950000003}},{"attributes":{"ID":336404,"DIS_CODE":0,"TOWNNAME":"麻豆區","LI":"中興里","LIN":"8鄰","STREET":"三民路","SECT":" ","MAREA":" ","LANE":" ","ALLEY":" ","HOUSE_NO":"５３號之９","E_COORD97":172845.26999999999,"N_COORD97":2564413.54,"ADDRESS":"三民路５３號之９","OBJECTID":336395},"geometry":{"x":172845.26999999955,"y":2564413.540000001}},{"attributes":{"ID":336405,"DIS_CODE":0,"TOWNNAME":"麻豆區","LI":"中興里","LIN":"8鄰","STREET":"三民路","SECT":" ","MAREA":" ","LANE":" ","ALLEY":" ","HOUSE_NO":"５７號之１","E_COORD97":172824.17000000001,"N_COORD97":2564372.1200000001,"ADDRESS":"三民路５７號之１","OBJECTID":336396},"geometry":{"x":172824.16999999993,"y":2564372.120000001}},{"attributes":{"ID":336406,"DIS_CODE":0,"TOWNNAME":"麻豆區","LI":"中興里","LIN":"8鄰","STREET":"三民路","SECT":" ","MAREA":" ","LANE":" ","ALLEY":" ","HOUSE_NO":"５７號之２","E_COORD97":172837.42000000001,"N_COORD97":2564367.5699999998,"ADDRESS":"三民路５７號之２","OBJECTID":336397},"geometry":{"x":172837.41999999993,"y":2564367.5700000022}},{"attributes":{"ID":336407,"DIS_CODE":0,"TOWNNAME":"麻豆區","LI":"中興里","LIN":"8鄰","STREET":"三民路","SECT":" ","MAREA":" ","LANE":" ","ALLEY":" ","HOUSE_NO":"５７號之３","E_COORD97":172837.44,"N_COORD97":2564372.1699999999,"ADDRESS":"三民路５７號之３","OBJECTID":336398},"geometry":{"x":172837.44000000134,"y":2564372.1700000037}},{"attributes":{"ID":336408,"DIS_CODE":0,"TOWNNAME":"永康區","LI":"埔園里","LIN":"36鄰","STREET":"龍中街","SECT":" ","MAREA":" ","LANE":"４８７巷","ALLEY":" ","HOUSE_NO":"１１號","E_COORD97":174358.47,"N_COORD97":2548357.5,"ADDRESS":"龍中街４８７巷１１號","OBJECTID":336399},"geometry":{"x":174358.47000000067,"y":2548357.5000000019}},{"attributes":{"ID":336409,"DIS_CODE":0,"TOWNNAME":"永康區","LI":"埔園里","LIN":"36鄰","STREET":"龍中街","SECT":" ","MAREA":" ","LANE":"４８７巷","ALLEY":" ","HOUSE_NO":"３３號","E_COORD97":174298.10000000001,"N_COORD97":2548320.0800000001,"ADDRESS":"龍中街４８７巷３３號","OBJECTID":336400},"geometry":{"x":174298.10000000056,"y":2548320.0800000019}}]}