{"displayFieldName":"TOWNNAME","fieldAliases":{"ID":"ID","DIS_CODE":"DIS_CODE","TOWNNAME":"TOWNNAME","LI":"LI","LIN":"LIN","STREET":"STREET","SECT":"SECT","MAREA":"MAREA","LANE":"LANE","ALLEY":"ALLEY","HOUSE_NO":"HOUSE_NO","E_COORD97":"E_COORD97","N_COORD97":"N_COORD97","ADDRESS":"ADDRESS","OBJECTID":"OBJECTID"},"geometryType":"esriGeometryPoint","spatialReference":{"wkid":102443,"latestWkid":3826},"fields":[{"name":"ID","type":"esriFieldTypeDouble","alias":"ID"},{"name":"DIS_CODE","type":"esriFieldTypeInteger","alias":"DIS_CODE"},{"name":"TOWNNAME","type":"esriFieldTypeString","alias":"TOWNNAME","length":8},{"name":"LI","type":"esriFieldTypeString","alias":"LI","length":8},{"name":"LIN","type":"esriFieldTypeString","alias":"LIN","length":12},{"name":"STREET","type":"esriFieldTypeString","alias":"STREET","length":20},{"name":"SECT","type":"esriFieldTypeString","alias":"SECT","length":8},{"name":"MAREA","type":"esriFieldTypeString","alias":"MAREA","length":12},{"name":"LANE","type":"esriFieldTypeString","alias":"LANE","length":10},{"name":"ALLEY","type":"esriFieldTypeString","alias":"ALLEY","length":10},{"name":"HOUSE_NO","type":"esriFieldTypeString","alias":"HOUSE_NO","length":20},{"name":"E_COORD97","type":"esriFieldTypeDouble","alias":"E_COORD97"},{"name":"N_COORD97","type":"esriFieldTypeDouble","alias":"N_COORD97"},{"name":"ADDRESS","type":"esriFieldTypeString","alias":"ADDRESS","length":50},{"name":"OBJECTID","type":"esriFieldTypeOID","alias":"OBJECTID"}],"features":[{"attributes":{"ID":604828,"DIS_CODE":0,"TOWNNAME":"東區","LI":"東智里","LIN":"13鄰","STREET":"崇德三十二街","SECT":" ","MAREA":" ","LANE":" ","ALLEY":" ","HOUSE_NO":"３９號","E_COORD97":170900.95999999999,"N_COORD97":2540095.2799999998,"ADDRESS":"崇德三十二街３９號","OBJECTID":604801},"geometry":{"x":170900.96000000089,"y":2540095.2799999993}},{"attributes":{"ID":604829,"DIS_CODE":0,"TOWNNAME":"東區","LI":"東智里","LIN":"13鄰","STREET":"崇德三十二街","SECT":" ","MAREA":" ","LANE":" ","ALLEY":" ","HOUSE_NO":"３７號","E_COORD97":170897.56,"N_COORD97":2540095.5600000001,"ADDRESS":"崇德三十二街３７號","OBJECTID":604802},"geometry":{"x":170897.55999999866,"y":2540095.5600000024}},{"attributes":{"ID":604830,"DIS_CODE":0,"TOWNNAME":"東區","LI":"東智里","LIN":"13鄰","STREET":"崇德三十二街","SECT":" ","MAREA":" ","LANE":" ","ALLEY":" ","HOUSE_NO":"３５號","E_COORD97":170893.03,"N_COORD97":2540096.4100000001,"ADDRESS":"崇德三十二街３５號","OBJECTID":604803},"geometry":{"x":170893.03000000026,"y":2540096.410000002}},{"attributes":{"ID":604831,"DIS_CODE":0,"TOWNNAME":"東區","LI":"東智里","LIN":"13鄰","STREET":"崇德三十二街","SECT":" ","MAREA":" ","LANE":" ","ALLEY":" ","HOUSE_NO":"３３號","E_COORD97":170887.37,"N_COORD97":2540097.1200000001,"ADDRESS":"崇德三十二街３３號","OBJECTID":604804},"geometry":{"x":170887.37000000011,"y":2540097.120000001}},{"attributes":{"ID":604832,"DIS_CODE":0,"TOWNNAME":"東區","LI":"東智里","LIN":"13鄰","STREET":"崇德三十二街","SECT":" ","MAREA":" ","LANE":" ","ALLEY":" ","HOUSE_NO":"８５號","E_COORD97":171018.63,"N_COORD97":2540098.4100000001,"ADDRESS":"崇德三十二街８５號","OBJECTID":604805},"geometry":{"x":171018.63000000082,"y":2540098.4100000001}},{"attributes":{"ID":604833,"DIS_CODE":0,"TOWNNAME":"南區","LI":"文華里","LIN":"1鄰","STREET":"健康二街","SECT":" ","MAREA":" ","LANE":" ","ALLEY":" ","HOUSE_NO":"７９號","E_COORD97":170276.66,"N_COORD97":2543475.0299999998,"ADDRESS":"健康二街７９號","OBJECTID":604806},"geometry":{"x":170276.66000000015,"y":2543475.0300000012}},{"attributes":{"ID":604834,"DIS_CODE":0,"TOWNNAME":"歸仁區","LI":"南保里","LIN":"58鄰","STREET":"中山路","SECT":"三段","MAREA":" ","LANE":" ","ALLEY":" ","HOUSE_NO":"１５號","E_COORD97":176929.95999999999,"N_COORD97":2540846.25,"ADDRESS":"中山路三段１５號","OBJECTID":604807},"geometry":{"x":176929.95999999996,"y":2540846.2500000019}},{"attributes":{"ID":604835,"DIS_CODE":0,"TOWNNAME":"安平區","LI":"億載里","LIN":"1鄰","STREET":"光州七街","SECT":" ","MAREA":" ","LANE":" ","ALLEY":" ","HOUSE_NO":"４０號","E_COORD97":164168.340512,"N_COORD97":2543760.5308400001,"ADDRESS":"光州七街４０號","OBJECTID":604808},"geometry":{"x":164168.34051200096,"y":2543760.5308370013}},{"attributes":{"ID":604836,"DIS_CODE":0,"TOWNNAME":"安平區","LI":"億載里","LIN":"1鄰","STREET":"平豐路","SECT":" ","MAREA":" ","LANE":" ","ALLEY":" ","HOUSE_NO":"４６５－１號","E_COORD97":164265.45000000001,"N_COORD97":2543855.0099999998,"ADDRESS":"平豐路４６５－１號","OBJECTID":604809},"geometry":{"x":164265.45000000019,"y":2543855.0100000016}},{"attributes":{"ID":604837,"DIS_CODE":0,"TOWNNAME":"歸仁區","LI":"南保里","LIN":"58鄰","STREET":"中山路","SECT":"三段","MAREA":" ","LANE":" ","ALLEY":" ","HOUSE_NO":"３７號","E_COORD97":176878.76000000001,"N_COORD97":2540853.25,"ADDRESS":"中山路三段３７號","OBJECTID":604810},"geometry":{"x":176878.76000000164,"y":2540853.2500000019}},{"attributes":{"ID":604838,"DIS_CODE":0,"TOWNNAME":"歸仁區","LI":"南保里","LIN":"58鄰","STREET":"中山路","SECT":"三段","MAREA":" ","LANE":" ","ALLEY":" ","HOUSE_NO":"３５號","E_COORD97":176889.70999999999,"N_COORD97":2540854.2799999998,"ADDRESS":"中山路三段３５號","OBJECTID":604811},"geometry":{"x":176889.71000000089,"y":2540854.2799999993}},{"attributes":{"ID":604839,"DIS_CODE":0,"TOWNNAME":"歸仁區","LI":"南保里","LIN":"58鄰","STREET":"中山路","SECT":"三段","MAREA":" ","LANE":" ","ALLEY":" ","HOUSE_NO":"１７號","E_COORD97":176934.81,"N_COORD97":2540848.2799999998,"ADDRESS":"中山路三段１７號","OBJECTID":604812},"geometry":{"x":176934.81000000052,"y":2540848.2800000031}},{"attributes":{"ID":604840,"DIS_CODE":0,"TOWNNAME":"歸仁區","LI":"南保里","LIN":"58鄰","STREET":"中山路","SECT":"三段","MAREA":" ","LANE":" ","ALLEY":" ","HOUSE_NO":"１５１號","E_COORD97":176621.94,"N_COORD97":2540888.2799999998,"ADDRESS":"中山路三段１５１號","OBJECTID":604813},"geometry":{"x":176621.94000000041,"y":2540888.2799999993}},{"attributes":{"ID":604841,"DIS_CODE":0,"TOWNNAME":"歸仁區","LI":"南保里","LIN":"58鄰","STREET":"中山路","SECT":"三段","MAREA":" ","LANE":" ","ALLEY":" ","HOUSE_NO":"３１號","E_COORD97":176900.91,"N_COORD97":2540843.2799999998,"ADDRESS":"中山路三段３１號","OBJECTID":604814},"geometry":{"x":176900.91000000108,"y":2540843.2799999993}},{"attributes":{"ID":604842,"DIS_CODE":0,"TOWNNAME":"東區","LI":"忠孝里","LIN":"14鄰","STREET":"榮譽街","SECT":" ","MAREA":" ","LANE":" ","ALLEY":" ","HOUSE_NO":"１２１號","E_COORD97":169865.29000000001,"N_COORD97":2541763.1200000001,"ADDRESS":"榮譽街１２１號","OBJECTID":604815},"geometry":{"x":169865.29000000004,"y":2541763.1200000048}},{"attributes":{"ID":604843,"DIS_CODE":0,"TOWNNAME":"東區","LI":"忠孝里","LIN":"14鄰","STREET":"榮譽街","SECT":" ","MAREA":" ","LANE":" ","ALLEY":" ","HOUSE_NO":"１２１之７號","E_COORD97":169892.89999999999,"N_COORD97":2541779.6299999999,"ADDRESS":"榮譽街１２１之７號","OBJECTID":604816},"geometry":{"x":169892.9000000013,"y":2541779.629999999}},{"attributes":{"ID":604844,"DIS_CODE":0,"TOWNNAME":"東區","LI":"忠孝里","LIN":"14鄰","STREET":"榮譽街","SECT":" ","MAREA":" ","LANE":" ","ALLEY":" ","HOUSE_NO":"１２１之１號","E_COORD97":169870.91,"N_COORD97":2541766.1000000001,"ADDRESS":"榮譽街１２１之１號","OBJECTID":604817},"geometry":{"x":169870.91000000108,"y":2541766.1000000015}},{"attributes":{"ID":604845,"DIS_CODE":0,"TOWNNAME":"東區","LI":"忠孝里","LIN":"14鄰","STREET":"榮譽街","SECT":" ","MAREA":" ","LANE":" ","ALLEY":" ","HOUSE_NO":"１２１之２號","E_COORD97":169875.31,"N_COORD97":2541768.3900000001,"ADDRESS":"榮譽街１２１之２號","OBJECTID":604818},"geometry":{"x":169875.30999999866,"y":2541768.3900000025}},{"attributes":{"ID":604846,"DIS_CODE":0,"TOWNNAME":"東區","LI":"忠孝里","LIN":"14鄰","STREET":"榮譽街","SECT":" ","MAREA":" ","LANE":" ","ALLEY":" ","HOUSE_NO":"１２１之３號","E_COORD97":169880.41,"N_COORD97":2541771.2000000002,"ADDRESS":"榮譽街１２１之３號","OBJECTID":604819},"geometry":{"x":169880.41000000201,"y":2541771.2000000011}},{"attributes":{"ID":604847,"DIS_CODE":0,"TOWNNAME":"東區","LI":"忠孝里","LIN":"14鄰","STREET":"榮譽街","SECT":" ","MAREA":" ","LANE":" ","ALLEY":" ","HOUSE_NO":"１２１之５號","E_COORD97":169885.34,"N_COORD97":2541774.0099999998,"ADDRESS":"榮譽街１２１之５號","OBJECTID":604820},"geometry":{"x":169885.33999999985,"y":2541774.0100000016}},{"attributes":{"ID":604848,"DIS_CODE":0,"TOWNNAME":"東區","LI":"忠孝里","LIN":"14鄰","STREET":"榮譽街","SECT":" ","MAREA":" ","LANE":" ","ALLEY":" ","HOUSE_NO":"１２１之６號","E_COORD97":169889.20000000001,"N_COORD97":2541776.1200000001,"ADDRESS":"榮譽街１２１之６號","OBJECTID":604821},"geometry":{"x":169889.20000000112,"y":2541776.120000001}},{"attributes":{"ID":604849,"DIS_CODE":0,"TOWNNAME":"歸仁區","LI":"南保里","LIN":"58鄰","STREET":"中山路","SECT":"三段","MAREA":" ","LANE":" ","ALLEY":" ","HOUSE_NO":"５號","E_COORD97":176957.06,"N_COORD97":2540846.2799999998,"ADDRESS":"中山路三段５號","OBJECTID":604822},"geometry":{"x":176957.06000000052,"y":2540846.2800000012}},{"attributes":{"ID":604850,"DIS_CODE":0,"TOWNNAME":"歸仁區","LI":"南保里","LIN":"58鄰","STREET":"中山路","SECT":"三段","MAREA":" ","LANE":" ","ALLEY":" ","HOUSE_NO":"７３號","E_COORD97":176800.51000000001,"N_COORD97":2540865.2799999998,"ADDRESS":"中山路三段７３號","OBJECTID":604823},"geometry":{"x":176800.50999999978,"y":2540865.2800000031}},{"attributes":{"ID":604851,"DIS_CODE":0,"TOWNNAME":"歸仁區","LI":"南保里","LIN":"58鄰","STREET":"中山路","SECT":"三段","MAREA":" ","LANE":" ","ALLEY":" ","HOUSE_NO":"１３１號","E_COORD97":176655.09,"N_COORD97":2540882.25,"ADDRESS":"中山路三段１３１號","OBJECTID":604824},"geometry":{"x":176655.09000000078,"y":2540882.25}},{"attributes":{"ID":604852,"DIS_CODE":0,"TOWNNAME":"歸仁區","LI":"南保里","LIN":"58鄰","STREET":"中山路","SECT":"三段","MAREA":" ","LANE":" ","ALLEY":" ","HOUSE_NO":"１１７號","E_COORD97":176685.89000000001,"N_COORD97":2540879.25,"ADDRESS":"中山路三段１１７號","OBJECTID":604825},"geometry":{"x":176685.88999999966,"y":2540879.25}},{"attributes":{"ID":604853,"DIS_CODE":0,"TOWNNAME":"歸仁區","LI":"南保里","LIN":"58鄰","STREET":"中山路","SECT":"三段","MAREA":" ","LANE":" ","ALLEY":" ","HOUSE_NO":"１２９號","E_COORD97":176668.04000000001,"N_COORD97":2540883.2799999998,"ADDRESS":"中山路三段１２９號","OBJECTID":604826},"geometry":{"x":176668.04000000004,"y":2540883.2800000012}},{"attributes":{"ID":604854,"DIS_CODE":0,"TOWNNAME":"歸仁區","LI":"南保里","LIN":"58鄰","STREET":"中山路","SECT":"三段","MAREA":" ","LANE":" ","ALLEY":" ","HOUSE_NO":"５５號","E_COORD97":176850.70999999999,"N_COORD97":2540859.2799999998,"ADDRESS":"中山路三段５５號","OBJECTID":604827},"geometry":{"x":176850.71000000089,"y":2540859.2800000012}},{"attributes":{"ID":604855,"DIS_CODE":0,"TOWNNAME":"歸仁區","LI":"南保里","LIN":"58鄰","STREET":"中山路","SECT":"三段","MAREA":" ","LANE":" ","ALLEY":" ","HOUSE_NO":"５３號","E_COORD97":176855.81,"N_COORD97":2540859.2799999998,"ADDRESS":"中山路三段５３號","OBJECTID":604828},"geometry":{"x":176855.80999999959,"y":2540859.2800000012}},{"attributes":{"ID":604856,"DIS_CODE":0,"TOWNNAME":"歸仁區","LI":"南保里","LIN":"58鄰","STREET":"中山路","SECT":"三段","MAREA":" ","LANE":" ","ALLEY":" ","HOUSE_NO":"４５號","E_COORD97":176873.31,"N_COORD97":2540855.2799999998,"ADDRESS":"中山路三段４５號","OBJECTID":604829},"geometry":{"x":176873.31000000145,"y":2540855.2800000031}},{"attributes":{"ID":604857,"DIS_CODE":0,"TOWNNAME":"東區","LI":"東光里","LIN":"35鄰","STREET":"莊敬路","SECT":" ","MAREA":" ","LANE":" ","ALLEY":" ","HOUSE_NO":"１７號","E_COORD97":171306.26999999999,"N_COORD97":2543754.3399999999,"ADDRESS":"莊敬路１７號","OBJECTID":604830},"geometry":{"x":171306.26999999955,"y":2543754.3400000017}},{"attributes":{"ID":604858,"DIS_CODE":0,"TOWNNAME":"歸仁區","LI":"南保里","LIN":"58鄰","STREET":"中山路","SECT":"三段","MAREA":" ","LANE":" ","ALLEY":" ","HOUSE_NO":"８５號","E_COORD97":176775.04999999999,"N_COORD97":2540870,"ADDRESS":"中山路三段８５號","OBJECTID":604831},"geometry":{"x":176775.04999999888,"y":2540870}},{"attributes":{"ID":604859,"DIS_CODE":0,"TOWNNAME":"歸仁區","LI":"南保里","LIN":"58鄰","STREET":"中山路","SECT":"三段","MAREA":" ","LANE":" ","ALLEY":" ","HOUSE_NO":"２９號","E_COORD97":176908.10999999999,"N_COORD97":2540844.2799999998,"ADDRESS":"中山路三段２９號","OBJECTID":604832},"geometry":{"x":176908.11000000127,"y":2540844.2799999993}},{"attributes":{"ID":604860,"DIS_CODE":0,"TOWNNAME":"歸仁區","LI":"南保里","LIN":"58鄰","STREET":"中山路","SECT":"三段","MAREA":" ","LANE":" ","ALLEY":" ","HOUSE_NO":"３９號","E_COORD97":176883.51000000001,"N_COORD97":2540854.2799999998,"ADDRESS":"中山路三段３９號","OBJECTID":604833},"geometry":{"x":176883.50999999978,"y":2540854.2799999993}},{"attributes":{"ID":604861,"DIS_CODE":0,"TOWNNAME":"歸仁區","LI":"南保里","LIN":"58鄰","STREET":"中山路","SECT":"三段","MAREA":" ","LANE":" ","ALLEY":" ","HOUSE_NO":"５１號","E_COORD97":176860.01000000001,"N_COORD97":2540859.2799999998,"ADDRESS":"中山路三段５１號","OBJECTID":604834},"geometry":{"x":176860.00999999978,"y":2540859.2800000012}},{"attributes":{"ID":604862,"DIS_CODE":0,"TOWNNAME":"歸仁區","LI":"南保里","LIN":"58鄰","STREET":"中山路","SECT":"三段","MAREA":" ","LANE":" ","ALLEY":" ","HOUSE_NO":"６９號","E_COORD97":176818.341487,"N_COORD97":2540862.7002300001,"ADDRESS":"中山路三段６９號","OBJECTID":604835},"geometry":{"x":176818.3414870007,"y":2540862.7002349999}},{"attributes":{"ID":604863,"DIS_CODE":0,"TOWNNAME":"歸仁區","LI":"南保里","LIN":"58鄰","STREET":"中山路","SECT":"三段","MAREA":" ","LANE":" ","ALLEY":" ","HOUSE_NO":"１２５號","E_COORD97":176667.39000000001,"N_COORD97":2540881.25,"ADDRESS":"中山路三段１２５號","OBJECTID":604836},"geometry":{"x":176667.38999999966,"y":2540881.2500000019}},{"attributes":{"ID":604864,"DIS_CODE":0,"TOWNNAME":"歸仁區","LI":"南保里","LIN":"58鄰","STREET":"中山路","SECT":"三段","MAREA":" ","LANE":" ","ALLEY":" ","HOUSE_NO":"６５號","E_COORD97":176825.547475,"N_COORD97":2540861.5889900001,"ADDRESS":"中山路三段６５號","OBJECTID":604837},"geometry":{"x":176825.54747499898,"y":2540861.5889860038}},{"attributes":{"ID":604865,"DIS_CODE":0,"TOWNNAME":"歸仁區","LI":"南保里","LIN":"58鄰","STREET":"中山路","SECT":"三段","MAREA":" ","LANE":" ","ALLEY":" ","HOUSE_NO":"７號","E_COORD97":176946.10999999999,"N_COORD97":2540843.25,"ADDRESS":"中山路三段７號","OBJECTID":604838},"geometry":{"x":176946.11000000034,"y":2540843.2500000019}},{"attributes":{"ID":604866,"DIS_CODE":0,"TOWNNAME":"歸仁區","LI":"南保里","LIN":"58鄰","STREET":"中山路","SECT":"三段","MAREA":" ","LANE":" ","ALLEY":" ","HOUSE_NO":"９９號","E_COORD97":176734.89999999999,"N_COORD97":2540869.4500000002,"ADDRESS":"中山路三段９９號","OBJECTID":604839},"geometry":{"x":176734.9000000013,"y":2540869.4499999993}},{"attributes":{"ID":604867,"DIS_CODE":0,"TOWNNAME":"歸仁區","LI":"南保里","LIN":"58鄰","STREET":"中山路","SECT":"三段","MAREA":" ","LANE":" ","ALLEY":" ","HOUSE_NO":"１２７號","E_COORD97":176663.29000000001,"N_COORD97":2540882.25,"ADDRESS":"中山路三段１２７號","OBJECTID":604840},"geometry":{"x":176663.29000000004,"y":2540882.25}},{"attributes":{"ID":604868,"DIS_CODE":0,"TOWNNAME":"歸仁區","LI":"南保里","LIN":"58鄰","STREET":"中山路","SECT":"三段","MAREA":" ","LANE":" ","ALLEY":" ","HOUSE_NO":"１０９號","E_COORD97":176694.09,"N_COORD97":2540876.25,"ADDRESS":"中山路三段１０９號","OBJECTID":604841},"geometry":{"x":176694.09000000078,"y":2540876.2500000037}},{"attributes":{"ID":604869,"DIS_CODE":0,"TOWNNAME":"歸仁區","LI":"南保里","LIN":"58鄰","STREET":"中山路","SECT":"三段","MAREA":" ","LANE":" ","ALLEY":" ","HOUSE_NO":"１０３號","E_COORD97":176721.85000000001,"N_COORD97":2540874.4500000002,"ADDRESS":"中山路三段１０３號","OBJECTID":604842},"geometry":{"x":176721.84999999963,"y":2540874.4500000011}},{"attributes":{"ID":604870,"DIS_CODE":0,"TOWNNAME":"歸仁區","LI":"南保里","LIN":"58鄰","STREET":"中山路","SECT":"三段","MAREA":" ","LANE":" ","ALLEY":" ","HOUSE_NO":"１１９號","E_COORD97":176681.79000000001,"N_COORD97":2540879.25,"ADDRESS":"中山路三段１１９號","OBJECTID":604843},"geometry":{"x":176681.79000000004,"y":2540879.25}},{"attributes":{"ID":604871,"DIS_CODE":0,"TOWNNAME":"歸仁區","LI":"南保里","LIN":"58鄰","STREET":"中山路","SECT":"三段","MAREA":" ","LANE":" ","ALLEY":" ","HOUSE_NO":"８３號","E_COORD97":176770.29999999999,"N_COORD97":2540868.9700000002,"ADDRESS":"中山路三段８３號","OBJECTID":604844},"geometry":{"x":176770.30000000075,"y":2540868.9700000044}},{"attributes":{"ID":604872,"DIS_CODE":0,"TOWNNAME":"歸仁區","LI":"南保里","LIN":"58鄰","STREET":"中山路","SECT":"三段","MAREA":" ","LANE":" ","ALLEY":" ","HOUSE_NO":"９７號","E_COORD97":176740.10000000001,"N_COORD97":2540871.4500000002,"ADDRESS":"中山路三段９７號","OBJECTID":604845},"geometry":{"x":176740.09999999963,"y":2540871.4500000011}},{"attributes":{"ID":604873,"DIS_CODE":0,"TOWNNAME":"歸仁區","LI":"南保里","LIN":"58鄰","STREET":"中山路","SECT":"三段","MAREA":" ","LANE":" ","ALLEY":" ","HOUSE_NO":"１０１號","E_COORD97":176729.04999999999,"N_COORD97":2540872.4500000002,"ADDRESS":"中山路三段１０１號","OBJECTID":604846},"geometry":{"x":176729.04999999981,"y":2540872.4499999993}},{"attributes":{"ID":604874,"DIS_CODE":0,"TOWNNAME":"歸仁區","LI":"南保里","LIN":"58鄰","STREET":"中山路","SECT":"三段","MAREA":" ","LANE":" ","ALLEY":" ","HOUSE_NO":"６７號","E_COORD97":176821.09671700001,"N_COORD97":2540862.64732,"ADDRESS":"中山路三段６７號","OBJECTID":604847},"geometry":{"x":176821.09671700094,"y":2540862.6473190021}},{"attributes":{"ID":604875,"DIS_CODE":0,"TOWNNAME":"歸仁區","LI":"南保里","LIN":"58鄰","STREET":"中山路","SECT":"三段","MAREA":" ","LANE":" ","ALLEY":" ","HOUSE_NO":"１１號","E_COORD97":176939.26000000001,"N_COORD97":2540843.25,"ADDRESS":"中山路三段１１號","OBJECTID":604848},"geometry":{"x":176939.25999999978,"y":2540843.2500000019}},{"attributes":{"ID":604876,"DIS_CODE":0,"TOWNNAME":"歸仁區","LI":"南保里","LIN":"58鄰","STREET":"中山路","SECT":"三段","MAREA":" ","LANE":" ","ALLEY":" ","HOUSE_NO":"８７號","E_COORD97":176756,"N_COORD97":2540870.9700000002,"ADDRESS":"中山路三段８７號","OBJECTID":604849},"geometry":{"x":176756.00000000093,"y":2540870.9700000007}},{"attributes":{"ID":604877,"DIS_CODE":0,"TOWNNAME":"歸仁區","LI":"南保里","LIN":"58鄰","STREET":"中山路","SECT":"三段","MAREA":" ","LANE":" ","ALLEY":" ","HOUSE_NO":"３號","E_COORD97":176956.41,"N_COORD97":2540844.25,"ADDRESS":"中山路三段３號","OBJECTID":604850},"geometry":{"x":176956.41000000108,"y":2540844.25}},{"attributes":{"ID":604878,"DIS_CODE":0,"TOWNNAME":"歸仁區","LI":"南保里","LIN":"58鄰","STREET":"中山路","SECT":"三段","MAREA":" ","LANE":" ","ALLEY":" ","HOUSE_NO":"２３號","E_COORD97":176909.45999999999,"N_COORD97":2540843.25,"ADDRESS":"中山路三段２３號","OBJECTID":604851},"geometry":{"x":176909.45999999996,"y":2540843.2500000019}},{"attributes":{"ID":604879,"DIS_CODE":0,"TOWNNAME":"歸仁區","LI":"南保里","LIN":"58鄰","STREET":"中山路","SECT":"三段","MAREA":" ","LANE":" ","ALLEY":" ","HOUSE_NO":"５７號","E_COORD97":176839.85999999999,"N_COORD97":2540859.25,"ADDRESS":"中山路三段５７號","OBJECTID":604852},"geometry":{"x":176839.8600000022,"y":2540859.2500000037}},{"attributes":{"ID":604880,"DIS_CODE":0,"TOWNNAME":"歸仁區","LI":"南保里","LIN":"58鄰","STREET":"中山路","SECT":"三段","MAREA":" ","LANE":" ","ALLEY":" ","HOUSE_NO":"１５５號","E_COORD97":176612.73999999999,"N_COORD97":2540890.2799999998,"ADDRESS":"中山路三段１５５號","OBJECTID":604853},"geometry":{"x":176612.74000000022,"y":2540890.2800000012}},{"attributes":{"ID":604881,"DIS_CODE":0,"TOWNNAME":"歸仁區","LI":"南保里","LIN":"58鄰","STREET":"中山路","SECT":"三段","MAREA":" ","LANE":" ","ALLEY":" ","HOUSE_NO":"１０７號","E_COORD97":176714.75,"N_COORD97":2540874.4500000002,"ADDRESS":"中山路三段１０７號","OBJECTID":604854},"geometry":{"x":176714.75000000186,"y":2540874.4500000011}},{"attributes":{"ID":604882,"DIS_CODE":0,"TOWNNAME":"歸仁區","LI":"南保里","LIN":"58鄰","STREET":"中山路","SECT":"三段","MAREA":" ","LANE":" ","ALLEY":" ","HOUSE_NO":"９１號","E_COORD97":176749.79999999999,"N_COORD97":2540872.9700000002,"ADDRESS":"中山路三段９１號","OBJECTID":604855},"geometry":{"x":176749.80000000168,"y":2540872.9700000025}},{"attributes":{"ID":604883,"DIS_CODE":0,"TOWNNAME":"歸仁區","LI":"南保里","LIN":"58鄰","STREET":"中山路","SECT":"三段","MAREA":" ","LANE":" ","ALLEY":" ","HOUSE_NO":"２１號","E_COORD97":176916.66,"N_COORD97":2540843.25,"ADDRESS":"中山路三段２１號","OBJECTID":604856},"geometry":{"x":176916.66000000015,"y":2540843.2500000019}},{"attributes":{"ID":604884,"DIS_CODE":0,"TOWNNAME":"歸仁區","LI":"南保里","LIN":"58鄰","STREET":"中山路","SECT":"三段","MAREA":" ","LANE":" ","ALLEY":" ","HOUSE_NO":"１２１號","E_COORD97":176676.69,"N_COORD97":2540879.25,"ADDRESS":"中山路三段１２１號","OBJECTID":604857},"geometry":{"x":176676.69000000134,"y":2540879.25}},{"attributes":{"ID":604885,"DIS_CODE":0,"TOWNNAME":"歸仁區","LI":"南保里","LIN":"58鄰","STREET":"中山路","SECT":"三段","MAREA":" ","LANE":" ","ALLEY":" ","HOUSE_NO":"７１號","E_COORD97":176811.16,"N_COORD97":2540861.25,"ADDRESS":"中山路三段７１號","OBJECTID":604858},"geometry":{"x":176811.16000000108,"y":2540861.25}},{"attributes":{"ID":604886,"DIS_CODE":0,"TOWNNAME":"歸仁區","LI":"南保里","LIN":"58鄰","STREET":"中山路","SECT":"三段","MAREA":" ","LANE":" ","ALLEY":" ","HOUSE_NO":"４９號","E_COORD97":176856.26000000001,"N_COORD97":2540858.25,"ADDRESS":"中山路三段４９號","OBJECTID":604859},"geometry":{"x":176856.25999999978,"y":2540858.25}},{"attributes":{"ID":604887,"DIS_CODE":0,"TOWNNAME":"歸仁區","LI":"南保里","LIN":"58鄰","STREET":"中山路","SECT":"三段","MAREA":" ","LANE":" ","ALLEY":" ","HOUSE_NO":"１９號","E_COORD97":176921.76000000001,"N_COORD97":2540849.25,"ADDRESS":"中山路三段１９號","OBJECTID":604860},"geometry":{"x":176921.76000000071,"y":2540849.2500000037}},{"attributes":{"ID":604888,"DIS_CODE":0,"TOWNNAME":"歸仁區","LI":"南保里","LIN":"58鄰","STREET":"中山路","SECT":"三段","MAREA":" ","LANE":" ","ALLEY":" ","HOUSE_NO":"１號","E_COORD97":176961.51000000001,"N_COORD97":2540842.25,"ADDRESS":"中山路三段１號","OBJECTID":604861},"geometry":{"x":176961.50999999978,"y":2540842.2500000037}},{"attributes":{"ID":604889,"DIS_CODE":0,"TOWNNAME":"歸仁區","LI":"南保里","LIN":"58鄰","STREET":"中山路","SECT":"三段","MAREA":" ","LANE":" ","ALLEY":" ","HOUSE_NO":"３３號","E_COORD97":176894.81,"N_COORD97":2540853.2799999998,"ADDRESS":"中山路三段３３號","OBJECTID":604862},"geometry":{"x":176894.80999999959,"y":2540853.2800000012}},{"attributes":{"ID":604890,"DIS_CODE":0,"TOWNNAME":"歸仁區","LI":"南保里","LIN":"58鄰","STREET":"中山路","SECT":"三段","MAREA":" ","LANE":" ","ALLEY":" ","HOUSE_NO":"１３號","E_COORD97":176942.91,"N_COORD97":2540844.2799999998,"ADDRESS":"中山路三段１３號","OBJECTID":604863},"geometry":{"x":176942.91000000108,"y":2540844.2799999993}},{"attributes":{"ID":604891,"DIS_CODE":0,"TOWNNAME":"中西區","LI":"銀同里","LIN":"16鄰","STREET":"開山路","SECT":" ","MAREA":" ","LANE":" ","ALLEY":" ","HOUSE_NO":"１號二樓","E_COORD97":168566.03,"N_COORD97":2543642.5099999998,"ADDRESS":"開山路１號二樓","OBJECTID":604864},"geometry":{"x":168566.03000000212,"y":2543642.5100000016}},{"attributes":{"ID":604892,"DIS_CODE":0,"TOWNNAME":"東區","LI":"崇學里","LIN":"16鄰","STREET":"崇明路","SECT":" ","MAREA":" ","LANE":" ","ALLEY":" ","HOUSE_NO":"２２１號地下\u2588層","E_COORD97":170061.57000000001,"N_COORD97":2542009.6499999999,"ADDRESS":"崇明路２２１號地下\u2588層","OBJECTID":604865},"geometry":{"x":170061.57000000123,"y":2542009.6500000041}},{"attributes":{"ID":604893,"DIS_CODE":0,"TOWNNAME":"北區","LI":"大豐里","LIN":"16鄰","STREET":"武聖路","SECT":" ","MAREA":" ","LANE":" ","ALLEY":" ","HOUSE_NO":"２３４號","E_COORD97":166751.14999999999,"N_COORD97":2545380.29,"ADDRESS":"武聖路２３４號","OBJECTID":604866},"geometry":{"x":166751.15000000037,"y":2545380.2899999991}},{"attributes":{"ID":604894,"DIS_CODE":0,"TOWNNAME":"南區","LI":"白雪里","LIN":"16鄰","STREET":"金華路","SECT":"一段","MAREA":" ","LANE":" ","ALLEY":" ","HOUSE_NO":"１２９號","E_COORD97":166900.70000000001,"N_COORD97":2540604.5099999998,"ADDRESS":"金華路一段１２９號","OBJECTID":604867},"geometry":{"x":166900.70000000112,"y":2540604.5100000016}},{"attributes":{"ID":604895,"DIS_CODE":0,"TOWNNAME":"東區","LI":"南聖里","LIN":"16鄰","STREET":"裕誠街","SECT":" ","MAREA":" ","LANE":" ","ALLEY":" ","HOUSE_NO":"３９８號","E_COORD97":172830.48000000001,"N_COORD97":2543358.8399999999,"ADDRESS":"裕誠街３９８號","OBJECTID":604868},"geometry":{"x":172830.48000000138,"y":2543358.8400000017}},{"attributes":{"ID":604896,"DIS_CODE":0,"TOWNNAME":"安南區","LI":"城南里","LIN":"16鄰","STREET":"青砂街","SECT":"一段","MAREA":" ","LANE":" ","ALLEY":" ","HOUSE_NO":"１６９之３７號","E_COORD97":160425.57999999999,"N_COORD97":2551939.6299999999,"ADDRESS":"青砂街一段１６９之３７號","OBJECTID":604869},"geometry":{"x":160425.58000000101,"y":2551939.6300000008}},{"attributes":{"ID":604897,"DIS_CODE":0,"TOWNNAME":"安南區","LI":"淵東里","LIN":"16鄰","STREET":"功安一街","SECT":" ","MAREA":" ","LANE":" ","ALLEY":" ","HOUSE_NO":"１７５號","E_COORD97":165671.81,"N_COORD97":2550070.6000000001,"ADDRESS":"功安一街１７５號","OBJECTID":604870},"geometry":{"x":165671.81000000052,"y":2550070.5999999996}},{"attributes":{"ID":604898,"DIS_CODE":0,"TOWNNAME":"安南區","LI":"淵東里","LIN":"16鄰","STREET":"功安一街","SECT":" ","MAREA":" ","LANE":" ","ALLEY":" ","HOUSE_NO":"１７５之１號","E_COORD97":165666.73000000001,"N_COORD97":2550069.6400000001,"ADDRESS":"功安一街１７５之１號","OBJECTID":604871},"geometry":{"x":165666.73000000138,"y":2550069.6400000025}},{"attributes":{"ID":604899,"DIS_CODE":0,"TOWNNAME":"安南區","LI":"淵東里","LIN":"16鄰","STREET":"功安一街","SECT":" ","MAREA":" ","LANE":" ","ALLEY":" ","HOUSE_NO":"１７７號","E_COORD97":165663.07000000001,"N_COORD97":2550068.5299999998,"ADDRESS":"功安一街１７７號","OBJECTID":604872},"geometry":{"x":165663.0700000003,"y":2550068.5300000031}},{"attributes":{"ID":604900,"DIS_CODE":0,"TOWNNAME":"中西區","LI":"光賢里","LIN":"16鄰","STREET":"武聖路","SECT":" ","MAREA":" ","LANE":" ","ALLEY":" ","HOUSE_NO":"１８５號","E_COORD97":166958.32000000001,"N_COORD97":2545218.6299999999,"ADDRESS":"武聖路１８５號","OBJECTID":604873},"geometry":{"x":166958.3200000003,"y":2545218.629999999}},{"attributes":{"ID":604901,"DIS_CODE":0,"TOWNNAME":"安平區","LI":"怡平里","LIN":"16鄰","STREET":"文平路","SECT":" ","MAREA":" ","LANE":" ","ALLEY":" ","HOUSE_NO":"１０２號","E_COORD97":165707.73999999999,"N_COORD97":2542913.9300000002,"ADDRESS":"文平路１０２號","OBJECTID":604874},"geometry":{"x":165707.74000000022,"y":2542913.9300000016}},{"attributes":{"ID":604902,"DIS_CODE":0,"TOWNNAME":"安平區","LI":"怡平里","LIN":"16鄰","STREET":"文平路","SECT":" ","MAREA":" ","LANE":" ","ALLEY":" ","HOUSE_NO":"１０６號","E_COORD97":165708.92999999999,"N_COORD97":2542919.6200000001,"ADDRESS":"文平路１０６號","OBJECTID":604875},"geometry":{"x":165708.9299999997,"y":2542919.6200000029}},{"attributes":{"ID":604903,"DIS_CODE":0,"TOWNNAME":"北區","LI":"大豐里","LIN":"16鄰","STREET":"和緯路","SECT":"四段","MAREA":" ","LANE":" ","ALLEY":" ","HOUSE_NO":"８號","E_COORD97":167345.64999999999,"N_COORD97":2545610.6200000001,"ADDRESS":"和緯路四段８號","OBJECTID":604876},"geometry":{"x":167345.65000000037,"y":2545610.620000001}},{"attributes":{"ID":604904,"DIS_CODE":0,"TOWNNAME":"北區","LI":"大豐里","LIN":"16鄰","STREET":"武聖路","SECT":" ","MAREA":" ","LANE":" ","ALLEY":" ","HOUSE_NO":"２４６之５號","E_COORD97":166714.23000000001,"N_COORD97":2545473.7400000002,"ADDRESS":"武聖路２４６之５號","OBJECTID":604877},"geometry":{"x":166714.23000000138,"y":2545473.7399999984}},{"attributes":{"ID":604905,"DIS_CODE":0,"TOWNNAME":"北區","LI":"大豐里","LIN":"16鄰","STREET":"武聖路","SECT":" ","MAREA":" ","LANE":" ","ALLEY":" ","HOUSE_NO":"２４６之２號","E_COORD97":166715.34,"N_COORD97":2545468.1800000002,"ADDRESS":"武聖路２４６之２號","OBJECTID":604878},"geometry":{"x":166715.33999999985,"y":2545468.1800000016}},{"attributes":{"ID":604906,"DIS_CODE":0,"TOWNNAME":"北區","LI":"和順里","LIN":"3鄰","STREET":"西門路","SECT":"三段","MAREA":" ","LANE":" ","ALLEY":" ","HOUSE_NO":"１０３號","E_COORD97":168341.04000000001,"N_COORD97":2544814.1600000001,"ADDRESS":"西門路三段１０３號","OBJECTID":604879},"geometry":{"x":168341.04000000097,"y":2544814.160000002}},{"attributes":{"ID":604907,"DIS_CODE":0,"TOWNNAME":"北區","LI":"和順里","LIN":"3鄰","STREET":"西門路","SECT":"三段","MAREA":" ","LANE":" ","ALLEY":" ","HOUSE_NO":"１０５號","E_COORD97":168344.13,"N_COORD97":2544816.2799999998,"ADDRESS":"西門路三段１０５號","OBJECTID":604880},"geometry":{"x":168344.12999999989,"y":2544816.2800000012}},{"attributes":{"ID":604908,"DIS_CODE":0,"TOWNNAME":"北區","LI":"和順里","LIN":"3鄰","STREET":"西門路","SECT":"三段","MAREA":" ","LANE":" ","ALLEY":" ","HOUSE_NO":"１０７號","E_COORD97":168348.67999999999,"N_COORD97":2544821.3100000001,"ADDRESS":"西門路三段１０７號","OBJECTID":604881},"geometry":{"x":168348.6799999997,"y":2544821.3100000005}},{"attributes":{"ID":604909,"DIS_CODE":0,"TOWNNAME":"北區","LI":"和順里","LIN":"3鄰","STREET":"西門路","SECT":"三段","MAREA":" ","LANE":" ","ALLEY":" ","HOUSE_NO":"４９號","E_COORD97":168269.10000000001,"N_COORD97":2544712.1000000001,"ADDRESS":"西門路三段４９號","OBJECTID":604882},"geometry":{"x":168269.09999999963,"y":2544712.1000000015}},{"attributes":{"ID":604910,"DIS_CODE":0,"TOWNNAME":"北區","LI":"和順里","LIN":"3鄰","STREET":"西門路","SECT":"三段","MAREA":" ","LANE":" ","ALLEY":" ","HOUSE_NO":"５１號","E_COORD97":168271.14000000001,"N_COORD97":2544715.5,"ADDRESS":"西門路三段５１號","OBJECTID":604883},"geometry":{"x":168271.13999999966,"y":2544715.5}},{"attributes":{"ID":604911,"DIS_CODE":0,"TOWNNAME":"北區","LI":"和順里","LIN":"3鄰","STREET":"西門路","SECT":"三段","MAREA":" ","LANE":" ","ALLEY":" ","HOUSE_NO":"５３號","E_COORD97":168273.32000000001,"N_COORD97":2544718.6299999999,"ADDRESS":"西門路三段５３號","OBJECTID":604884},"geometry":{"x":168273.32000000123,"y":2544718.6300000008}},{"attributes":{"ID":604912,"DIS_CODE":0,"TOWNNAME":"北區","LI":"和順里","LIN":"3鄰","STREET":"西門路","SECT":"三段","MAREA":" ","LANE":" ","ALLEY":" ","HOUSE_NO":"５７號","E_COORD97":168278.63,"N_COORD97":2544730.0499999998,"ADDRESS":"西門路三段５７號","OBJECTID":604885},"geometry":{"x":168278.63000000082,"y":2544730.0500000045}},{"attributes":{"ID":604913,"DIS_CODE":0,"TOWNNAME":"北區","LI":"和順里","LIN":"3鄰","STREET":"西門路","SECT":"三段","MAREA":" ","LANE":" ","ALLEY":" ","HOUSE_NO":"５９號","E_COORD97":168281.63,"N_COORD97":2544735.6299999999,"ADDRESS":"西門路三段５９號","OBJECTID":604886},"geometry":{"x":168281.62999999989,"y":2544735.6300000008}},{"attributes":{"ID":604914,"DIS_CODE":0,"TOWNNAME":"北區","LI":"和順里","LIN":"3鄰","STREET":"西門路","SECT":"三段","MAREA":" ","LANE":" ","ALLEY":" ","HOUSE_NO":"６９號","E_COORD97":168290.88,"N_COORD97":2544742.02,"ADDRESS":"西門路三段６９號","OBJECTID":604887},"geometry":{"x":168290.88000000082,"y":2544742.0199999996}},{"attributes":{"ID":604915,"DIS_CODE":0,"TOWNNAME":"北區","LI":"和順里","LIN":"3鄰","STREET":"西門路","SECT":"三段","MAREA":" ","LANE":" ","ALLEY":" ","HOUSE_NO":"７１號","E_COORD97":168292.38,"N_COORD97":2544745.6899999999,"ADDRESS":"西門路三段７１號","OBJECTID":604888},"geometry":{"x":168292.38000000082,"y":2544745.6900000013}},{"attributes":{"ID":604916,"DIS_CODE":0,"TOWNNAME":"北區","LI":"和順里","LIN":"3鄰","STREET":"西門路","SECT":"三段","MAREA":" ","LANE":" ","ALLEY":" ","HOUSE_NO":"７３號","E_COORD97":168291.54000000001,"N_COORD97":2544752.4199999999,"ADDRESS":"西門路三段７３號","OBJECTID":604889},"geometry":{"x":168291.54000000097,"y":2544752.4199999999}},{"attributes":{"ID":604917,"DIS_CODE":0,"TOWNNAME":"北區","LI":"和順里","LIN":"3鄰","STREET":"西門路","SECT":"三段","MAREA":" ","LANE":" ","ALLEY":" ","HOUSE_NO":"７５號","E_COORD97":168293.98999999999,"N_COORD97":2544756.7799999998,"ADDRESS":"西門路三段７５號","OBJECTID":604890},"geometry":{"x":168293.99000000115,"y":2544756.7799999993}},{"attributes":{"ID":604918,"DIS_CODE":0,"TOWNNAME":"北區","LI":"和順里","LIN":"3鄰","STREET":"西門路","SECT":"三段","MAREA":" ","LANE":" ","ALLEY":" ","HOUSE_NO":"７７號","E_COORD97":168297.79999999999,"N_COORD97":2544763.1699999999,"ADDRESS":"西門路三段７７號","OBJECTID":604891},"geometry":{"x":168297.80000000075,"y":2544763.1700000018}},{"attributes":{"ID":604919,"DIS_CODE":0,"TOWNNAME":"歸仁區","LI":"六甲里","LIN":"3鄰","STREET":"中正南路","SECT":"一段","MAREA":" ","LANE":" ","ALLEY":" ","HOUSE_NO":"６３３號","E_COORD97":176655.18531599999,"N_COORD97":2539856.8732799999,"ADDRESS":"中正南路一段６３３號","OBJECTID":604892},"geometry":{"x":176655.18531600107,"y":2539856.8732760008}},{"attributes":{"ID":604920,"DIS_CODE":0,"TOWNNAME":"歸仁區","LI":"大潭里","LIN":"3鄰","STREET":"大潭一街","SECT":" ","MAREA":" ","LANE":" ","ALLEY":" ","HOUSE_NO":"９５號","E_COORD97":175303.67000000001,"N_COORD97":2534542.25,"ADDRESS":"大潭一街９５號","OBJECTID":604893},"geometry":{"x":175303.67000000086,"y":2534542.25}},{"attributes":{"ID":604921,"DIS_CODE":0,"TOWNNAME":"歸仁區","LI":"七甲里","LIN":"3鄰","STREET":"中正北路","SECT":"二段","MAREA":" ","LANE":" ","ALLEY":" ","HOUSE_NO":"５１２號","E_COORD97":177470.82000000001,"N_COORD97":2543285.2599999998,"ADDRESS":"中正北路二段５１２號","OBJECTID":604894},"geometry":{"x":177470.82000000123,"y":2543285.2599999998}},{"attributes":{"ID":604922,"DIS_CODE":0,"TOWNNAME":"歸仁區","LI":"六甲里","LIN":"3鄰","STREET":"中正南路","SECT":"一段","MAREA":" ","LANE":" ","ALLEY":" ","HOUSE_NO":"６５５號","E_COORD97":176617.57884900001,"N_COORD97":2539829.2772499998,"ADDRESS":"中正南路一段６５５號","OBJECTID":604895},"geometry":{"x":176617.57884899992,"y":2539829.2772499993}},{"attributes":{"ID":604923,"DIS_CODE":0,"TOWNNAME":"歸仁區","LI":"南興里","LIN":"3鄰","STREET":"文化十二街","SECT":" ","MAREA":" ","LANE":" ","ALLEY":" ","HOUSE_NO":"６７號","E_COORD97":176458.29000000001,"N_COORD97":2541327.3300000001,"ADDRESS":"文化十二街６７號","OBJECTID":604896},"geometry":{"x":176458.29000000004,"y":2541327.3300000019}},{"attributes":{"ID":604924,"DIS_CODE":0,"TOWNNAME":"歸仁區","LI":"六甲里","LIN":"3鄰","STREET":"中正南路","SECT":"一段","MAREA":" ","LANE":" ","ALLEY":" ","HOUSE_NO":"６４５號","E_COORD97":176633.78670600001,"N_COORD97":2539840.8130800002,"ADDRESS":"中正南路一段６４５號","OBJECTID":604897},"geometry":{"x":176633.78670599964,"y":2539840.813076999}},{"attributes":{"ID":604925,"DIS_CODE":0,"TOWNNAME":"歸仁區","LI":"大廟里","LIN":"3鄰","STREET":"和順路","SECT":"二段","MAREA":" ","LANE":" ","ALLEY":" ","HOUSE_NO":"６２號","E_COORD97":176445.19,"N_COORD97":2543671.2799999998,"ADDRESS":"和順路二段６２號","OBJECTID":604898},"geometry":{"x":176445.19000000041,"y":2543671.2799999993}},{"attributes":{"ID":604926,"DIS_CODE":0,"TOWNNAME":"歸仁區","LI":"八甲里","LIN":"3鄰","STREET":"大明三街","SECT":" ","MAREA":" ","LANE":" ","ALLEY":" ","HOUSE_NO":"５４號","E_COORD97":178041.42000000001,"N_COORD97":2541690.6099999999,"ADDRESS":"大明三街５４號","OBJECTID":604899},"geometry":{"x":178041.42000000086,"y":2541690.6100000013}},{"attributes":{"ID":604927,"DIS_CODE":0,"TOWNNAME":"歸仁區","LI":"大廟里","LIN":"3鄰","STREET":"和順路","SECT":"二段","MAREA":" ","LANE":" ","ALLEY":" ","HOUSE_NO":"５８號","E_COORD97":176470.69,"N_COORD97":2543661.2799999998,"ADDRESS":"和順路二段５８號","OBJECTID":604900},"geometry":{"x":176470.69000000041,"y":2543661.2799999993}},{"attributes":{"ID":604928,"DIS_CODE":0,"TOWNNAME":"歸仁區","LI":"七甲里","LIN":"3鄰","STREET":"中正北路","SECT":"二段","MAREA":" ","LANE":" ","ALLEY":" ","HOUSE_NO":"５２０號","E_COORD97":177474.92000000001,"N_COORD97":2543300.2599999998,"ADDRESS":"中正北路二段５２０號","OBJECTID":604901},"geometry":{"x":177474.92000000086,"y":2543300.2600000035}},{"attributes":{"ID":604929,"DIS_CODE":0,"TOWNNAME":"歸仁區","LI":"七甲里","LIN":"3鄰","STREET":"中正北路","SECT":"二段","MAREA":" ","LANE":" ","ALLEY":" ","HOUSE_NO":"５０２號","E_COORD97":177477.72,"N_COORD97":2543243.2599999998,"ADDRESS":"中正北路二段５０２號","OBJECTID":604902},"geometry":{"x":177477.72000000067,"y":2543243.2600000016}},{"attributes":{"ID":604930,"DIS_CODE":0,"TOWNNAME":"歸仁區","LI":"西埔里","LIN":"3鄰","STREET":"保大路","SECT":"二段","MAREA":" ","LANE":" ","ALLEY":" ","HOUSE_NO":"９７號","E_COORD97":177066.78,"N_COORD97":2544103.25,"ADDRESS":"保大路二段９７號","OBJECTID":604903},"geometry":{"x":177066.78000000026,"y":2544103.25}},{"attributes":{"ID":604931,"DIS_CODE":0,"TOWNNAME":"歸仁區","LI":"西埔里","LIN":"3鄰","STREET":"保大路","SECT":"二段","MAREA":" ","LANE":" ","ALLEY":" ","HOUSE_NO":"１號","E_COORD97":177303.82999999999,"N_COORD97":2544082.7200000002,"ADDRESS":"保大路二段１號","OBJECTID":604904},"geometry":{"x":177303.83000000007,"y":2544082.7200000025}},{"attributes":{"ID":604932,"DIS_CODE":0,"TOWNNAME":"歸仁區","LI":"西埔里","LIN":"3鄰","STREET":"保大路","SECT":"二段","MAREA":" ","LANE":" ","ALLEY":" ","HOUSE_NO":"６１號","E_COORD97":177161.17999999999,"N_COORD97":2544110.25,"ADDRESS":"保大路二段６１號","OBJECTID":604905},"geometry":{"x":177161.18000000063,"y":2544110.25}},{"attributes":{"ID":604933,"DIS_CODE":0,"TOWNNAME":"歸仁區","LI":"七甲里","LIN":"3鄰","STREET":"中正北路","SECT":"二段","MAREA":" ","LANE":" ","ALLEY":" ","HOUSE_NO":"４９０號","E_COORD97":177480.72,"N_COORD97":2543219.2599999998,"ADDRESS":"中正北路二段４９０號","OBJECTID":604906},"geometry":{"x":177480.71999999881,"y":2543219.2600000016}},{"attributes":{"ID":604934,"DIS_CODE":0,"TOWNNAME":"歸仁區","LI":"八甲里","LIN":"3鄰","STREET":"大光街","SECT":" ","MAREA":" ","LANE":" ","ALLEY":" ","HOUSE_NO":"６２號","E_COORD97":177985.87,"N_COORD97":2541704.6099999999,"ADDRESS":"大光街６２號","OBJECTID":604907},"geometry":{"x":177985.87000000104,"y":2541704.6100000013}},{"attributes":{"ID":604935,"DIS_CODE":0,"TOWNNAME":"歸仁區","LI":"西埔里","LIN":"3鄰","STREET":"保大路","SECT":"二段","MAREA":" ","LANE":" ","ALLEY":" ","HOUSE_NO":"８３號","E_COORD97":177107.88,"N_COORD97":2544116.25,"ADDRESS":"保大路二段８３號","OBJECTID":604908},"geometry":{"x":177107.87999999989,"y":2544116.25}},{"attributes":{"ID":604936,"DIS_CODE":0,"TOWNNAME":"南區","LI":"永寧里","LIN":"3鄰","STREET":"明興路","SECT":" ","MAREA":" ","LANE":" ","ALLEY":" ","HOUSE_NO":"１０１６號","E_COORD97":166209.79999999999,"N_COORD97":2536866.8300000001,"ADDRESS":"明興路１０１６號","OBJECTID":604909},"geometry":{"x":166209.80000000075,"y":2536866.8300000001}},{"attributes":{"ID":604937,"DIS_CODE":0,"TOWNNAME":"南區","LI":"永寧里","LIN":"3鄰","STREET":"明興路","SECT":" ","MAREA":" ","LANE":" ","ALLEY":" ","HOUSE_NO":"１０１８號","E_COORD97":166212.82000000001,"N_COORD97":2536863.0699999998,"ADDRESS":"明興路１０１８號","OBJECTID":604910},"geometry":{"x":166212.82000000216,"y":2536863.0700000003}},{"attributes":{"ID":604938,"DIS_CODE":0,"TOWNNAME":"南區","LI":"永寧里","LIN":"3鄰","STREET":"明興路","SECT":" ","MAREA":" ","LANE":" ","ALLEY":" ","HOUSE_NO":"１０２０號","E_COORD97":166214.56,"N_COORD97":2536859.3199999998,"ADDRESS":"明興路１０２０號","OBJECTID":604911},"geometry":{"x":166214.56000000052,"y":2536859.3200000022}},{"attributes":{"ID":604939,"DIS_CODE":0,"TOWNNAME":"南區","LI":"永寧里","LIN":"3鄰","STREET":"明興路","SECT":" ","MAREA":" ","LANE":" ","ALLEY":" ","HOUSE_NO":"１０２２號","E_COORD97":166217.5,"N_COORD97":2536856.1099999999,"ADDRESS":"明興路１０２２號","OBJECTID":604912},"geometry":{"x":166217.5,"y":2536856.1100000013}},{"attributes":{"ID":604940,"DIS_CODE":0,"TOWNNAME":"南區","LI":"永寧里","LIN":"3鄰","STREET":"明興路","SECT":" ","MAREA":" ","LANE":" ","ALLEY":" ","HOUSE_NO":"１０２４號","E_COORD97":166221.35000000001,"N_COORD97":2536852.9100000001,"ADDRESS":"明興路１０２４號","OBJECTID":604913},"geometry":{"x":166221.34999999963,"y":2536852.9100000001}},{"attributes":{"ID":604941,"DIS_CODE":0,"TOWNNAME":"南區","LI":"永寧里","LIN":"3鄰","STREET":"明興路","SECT":" ","MAREA":" ","LANE":" ","ALLEY":" ","HOUSE_NO":"１０２６號","E_COORD97":166224.73999999999,"N_COORD97":2536849.6099999999,"ADDRESS":"明興路１０２６號","OBJECTID":604914},"geometry":{"x":166224.74000000022,"y":2536849.6100000013}},{"attributes":{"ID":604942,"DIS_CODE":0,"TOWNNAME":"南區","LI":"永寧里","LIN":"3鄰","STREET":"明興路","SECT":" ","MAREA":" ","LANE":" ","ALLEY":" ","HOUSE_NO":"１０２８號","E_COORD97":166226.20000000001,"N_COORD97":2536845.4500000002,"ADDRESS":"明興路１０２８號","OBJECTID":604915},"geometry":{"x":166226.20000000112,"y":2536845.4499999993}},{"attributes":{"ID":604943,"DIS_CODE":0,"TOWNNAME":"南區","LI":"永寧里","LIN":"3鄰","STREET":"明興路","SECT":" ","MAREA":" ","LANE":" ","ALLEY":" ","HOUSE_NO":"１０３０號","E_COORD97":166229.14000000001,"N_COORD97":2536842.2400000002,"ADDRESS":"明興路１０３０號","OBJECTID":604916},"geometry":{"x":166229.1400000006,"y":2536842.2400000039}},{"attributes":{"ID":604944,"DIS_CODE":0,"TOWNNAME":"南區","LI":"永寧里","LIN":"3鄰","STREET":"明興路","SECT":" ","MAREA":" ","LANE":" ","ALLEY":" ","HOUSE_NO":"１０３２號","E_COORD97":166232.34,"N_COORD97":2536839.04,"ADDRESS":"明興路１０３２號","OBJECTID":604917},"geometry":{"x":166232.33999999985,"y":2536839.0400000028}},{"attributes":{"ID":604945,"DIS_CODE":0,"TOWNNAME":"南區","LI":"永寧里","LIN":"3鄰","STREET":"明興路","SECT":" ","MAREA":" ","LANE":" ","ALLEY":" ","HOUSE_NO":"１０３４號","E_COORD97":166235.19,"N_COORD97":2536835.4700000002,"ADDRESS":"明興路１０３４號","OBJECTID":604918},"geometry":{"x":166235.19000000041,"y":2536835.4700000025}},{"attributes":{"ID":604946,"DIS_CODE":0,"TOWNNAME":"南區","LI":"永寧里","LIN":"3鄰","STREET":"明興路","SECT":" ","MAREA":" ","LANE":" ","ALLEY":" ","HOUSE_NO":"１０３６號","E_COORD97":166237.48000000001,"N_COORD97":2536832.04,"ADDRESS":"明興路１０３６號","OBJECTID":604919},"geometry":{"x":166237.48000000138,"y":2536832.0400000028}},{"attributes":{"ID":604947,"DIS_CODE":0,"TOWNNAME":"南區","LI":"永寧里","LIN":"3鄰","STREET":"明興路","SECT":" ","MAREA":" ","LANE":" ","ALLEY":" ","HOUSE_NO":"１０３８號","E_COORD97":166240.59,"N_COORD97":2536827.6400000001,"ADDRESS":"明興路１０３８號","OBJECTID":604920},"geometry":{"x":166240.58999999985,"y":2536827.6400000025}},{"attributes":{"ID":604948,"DIS_CODE":0,"TOWNNAME":"南區","LI":"永寧里","LIN":"3鄰","STREET":"明興路","SECT":" ","MAREA":" ","LANE":" ","ALLEY":" ","HOUSE_NO":"１０４０號","E_COORD97":166243.79999999999,"N_COORD97":2536824.5299999998,"ADDRESS":"明興路１０４０號","OBJECTID":604921},"geometry":{"x":166243.80000000075,"y":2536824.5299999993}},{"attributes":{"ID":604949,"DIS_CODE":0,"TOWNNAME":"南區","LI":"永寧里","LIN":"3鄰","STREET":"明興路","SECT":" ","MAREA":" ","LANE":" ","ALLEY":" ","HOUSE_NO":"１０４２號","E_COORD97":166247.01000000001,"N_COORD97":2536821.6899999999,"ADDRESS":"明興路１０４２號","OBJECTID":604922},"geometry":{"x":166247.01000000071,"y":2536821.6900000013}},{"attributes":{"ID":604950,"DIS_CODE":0,"TOWNNAME":"南區","LI":"永寧里","LIN":"3鄰","STREET":"明興路","SECT":" ","MAREA":" ","LANE":" ","ALLEY":" ","HOUSE_NO":"１０４４號","E_COORD97":166249.85000000001,"N_COORD97":2536818.5800000001,"ADDRESS":"明興路１０４４號","OBJECTID":604923},"geometry":{"x":166249.85000000056,"y":2536818.5800000001}},{"attributes":{"ID":604951,"DIS_CODE":0,"TOWNNAME":"南區","LI":"永寧里","LIN":"3鄰","STREET":"灣裡路","SECT":" ","MAREA":" ","LANE":" ","ALLEY":" ","HOUSE_NO":"１４６號","E_COORD97":166020.48999999999,"N_COORD97":2536724.0099999998,"ADDRESS":"灣裡路１４６號","OBJECTID":604924},"geometry":{"x":166020.49000000115,"y":2536724.0099999998}},{"attributes":{"ID":604952,"DIS_CODE":0,"TOWNNAME":"南區","LI":"永寧里","LIN":"3鄰","STREET":"灣裡路","SECT":" ","MAREA":" ","LANE":" ","ALLEY":" ","HOUSE_NO":"１５６號","E_COORD97":166021.72,"N_COORD97":2536675.9700000002,"ADDRESS":"灣裡路１５６號","OBJECTID":604925},"geometry":{"x":166021.72000000067,"y":2536675.9700000025}},{"attributes":{"ID":604953,"DIS_CODE":0,"TOWNNAME":"南區","LI":"永寧里","LIN":"3鄰","STREET":"灣裡路","SECT":" ","MAREA":" ","LANE":" ","ALLEY":" ","HOUSE_NO":"１５８號","E_COORD97":166021.37,"N_COORD97":2536672.75,"ADDRESS":"灣裡路１５８號","OBJECTID":604926},"geometry":{"x":166021.37000000104,"y":2536672.7500000019}},{"attributes":{"ID":604954,"DIS_CODE":0,"TOWNNAME":"南區","LI":"永寧里","LIN":"3鄰","STREET":"灣裡路","SECT":" ","MAREA":" ","LANE":" ","ALLEY":" ","HOUSE_NO":"１６０號","E_COORD97":166015.35999999999,"N_COORD97":2536667.79,"ADDRESS":"灣裡路１６０號","OBJECTID":604927},"geometry":{"x":166015.36000000034,"y":2536667.7900000028}},{"attributes":{"ID":604955,"DIS_CODE":0,"TOWNNAME":"南區","LI":"大林里","LIN":"3鄰","STREET":"大同路","SECT":"二段","MAREA":" ","LANE":" ","ALLEY":" ","HOUSE_NO":"４４８號","E_COORD97":169434.07999999999,"N_COORD97":2541589.25,"ADDRESS":"大同路二段４４８號","OBJECTID":604928},"geometry":{"x":169434.08000000101,"y":2541589.2500000019}},{"attributes":{"ID":604956,"DIS_CODE":0,"TOWNNAME":"南區","LI":"大林里","LIN":"3鄰","STREET":"大同路","SECT":"二段","MAREA":" ","LANE":" ","ALLEY":" ","HOUSE_NO":"４５０號","E_COORD97":169435.31,"N_COORD97":2541585.1499999999,"ADDRESS":"大同路二段４５０號","OBJECTID":604929},"geometry":{"x":169435.31000000052,"y":2541585.1500000004}},{"attributes":{"ID":604957,"DIS_CODE":0,"TOWNNAME":"南區","LI":"大林里","LIN":"3鄰","STREET":"大同路","SECT":"二段","MAREA":" ","LANE":" ","ALLEY":" ","HOUSE_NO":"４５６號","E_COORD97":169430.10000000001,"N_COORD97":2541573.52,"ADDRESS":"大同路二段４５６號","OBJECTID":604930},"geometry":{"x":169430.10000000056,"y":2541573.5200000014}},{"attributes":{"ID":604958,"DIS_CODE":0,"TOWNNAME":"南區","LI":"大林里","LIN":"3鄰","STREET":"大同路","SECT":"二段","MAREA":" ","LANE":" ","ALLEY":" ","HOUSE_NO":"４５６號之１","E_COORD97":169430.45000000001,"N_COORD97":2541569.5699999998,"ADDRESS":"大同路二段４５６號之１","OBJECTID":604931},"geometry":{"x":169430.45000000019,"y":2541569.570000004}},{"attributes":{"ID":604959,"DIS_CODE":0,"TOWNNAME":"南區","LI":"大林里","LIN":"3鄰","STREET":"大同路","SECT":"二段","MAREA":" ","LANE":" ","ALLEY":" ","HOUSE_NO":"４５８號","E_COORD97":169440.59,"N_COORD97":2541552.5899999999,"ADDRESS":"大同路二段４５８號","OBJECTID":604932},"geometry":{"x":169440.59000000078,"y":2541552.5900000017}},{"attributes":{"ID":604960,"DIS_CODE":0,"TOWNNAME":"南區","LI":"大林里","LIN":"3鄰","STREET":"大同路","SECT":"二段","MAREA":" ","LANE":" ","ALLEY":" ","HOUSE_NO":"４６０號","E_COORD97":169441.82000000001,"N_COORD97":2541549.9900000002,"ADDRESS":"大同路二段４６０號","OBJECTID":604933},"geometry":{"x":169441.8200000003,"y":2541549.9900000021}},{"attributes":{"ID":604961,"DIS_CODE":0,"TOWNNAME":"南區","LI":"大林里","LIN":"3鄰","STREET":"大同路","SECT":"二段","MAREA":" ","LANE":" ","ALLEY":" ","HOUSE_NO":"４６２號","E_COORD97":169443.60000000001,"N_COORD97":2541545.46,"ADDRESS":"大同路二段４６２號","OBJECTID":604934},"geometry":{"x":169443.60000000056,"y":2541545.4600000009}},{"attributes":{"ID":604962,"DIS_CODE":0,"TOWNNAME":"南區","LI":"大林里","LIN":"3鄰","STREET":"大同路","SECT":"二段","MAREA":" ","LANE":" ","ALLEY":" ","HOUSE_NO":"４６４號","E_COORD97":169444.28,"N_COORD97":2541542.3100000001,"ADDRESS":"大同路二段４６４號","OBJECTID":604935},"geometry":{"x":169444.28000000119,"y":2541542.3100000024}},{"attributes":{"ID":604963,"DIS_CODE":0,"TOWNNAME":"南區","LI":"大林里","LIN":"3鄰","STREET":"大同路","SECT":"二段","MAREA":" ","LANE":" ","ALLEY":" ","HOUSE_NO":"４６６號","E_COORD97":169449.76000000001,"N_COORD97":2541539.4399999999,"ADDRESS":"大同路二段４６６號","OBJECTID":604936},"geometry":{"x":169449.75999999978,"y":2541539.4400000013}},{"attributes":{"ID":604964,"DIS_CODE":0,"TOWNNAME":"南區","LI":"大林里","LIN":"3鄰","STREET":"大同路","SECT":"二段","MAREA":" ","LANE":" ","ALLEY":" ","HOUSE_NO":"４６８號","E_COORD97":169449.76000000001,"N_COORD97":2541534.3799999999,"ADDRESS":"大同路二段４６８號","OBJECTID":604937},"geometry":{"x":169449.75999999978,"y":2541534.379999999}},{"attributes":{"ID":604965,"DIS_CODE":0,"TOWNNAME":"南區","LI":"大林里","LIN":"3鄰","STREET":"大同路","SECT":"二段","MAREA":" ","LANE":" ","ALLEY":" ","HOUSE_NO":"４７０號","E_COORD97":169450.63,"N_COORD97":2541530.8199999998,"ADDRESS":"大同路二段４７０號","OBJECTID":604938},"geometry":{"x":169450.63000000082,"y":2541530.8200000022}},{"attributes":{"ID":604966,"DIS_CODE":0,"TOWNNAME":"南區","LI":"大林里","LIN":"3鄰","STREET":"大同路","SECT":"二段","MAREA":" ","LANE":" ","ALLEY":" ","HOUSE_NO":"４７２號","E_COORD97":169451.57999999999,"N_COORD97":2541527.8199999998,"ADDRESS":"大同路二段４７２號","OBJECTID":604939},"geometry":{"x":169451.58000000007,"y":2541527.8200000022}},{"attributes":{"ID":604967,"DIS_CODE":0,"TOWNNAME":"南區","LI":"大林里","LIN":"3鄰","STREET":"大同路","SECT":"二段","MAREA":" ","LANE":" ","ALLEY":" ","HOUSE_NO":"４７４號","E_COORD97":169452.41,"N_COORD97":2541523.8500000001,"ADDRESS":"大同路二段４７４號","OBJECTID":604940},"geometry":{"x":169452.41000000015,"y":2541523.8500000015}},{"attributes":{"ID":604968,"DIS_CODE":0,"TOWNNAME":"南區","LI":"大林里","LIN":"3鄰","STREET":"大同路","SECT":"二段","MAREA":" ","LANE":" ","ALLEY":" ","HOUSE_NO":"４７６號","E_COORD97":169453.64000000001,"N_COORD97":2541520.1600000001,"ADDRESS":"大同路二段４７６號","OBJECTID":604941},"geometry":{"x":169453.6400000006,"y":2541520.1600000001}},{"attributes":{"ID":604969,"DIS_CODE":0,"TOWNNAME":"南區","LI":"大林里","LIN":"3鄰","STREET":"大同路","SECT":"二段","MAREA":" ","LANE":" ","ALLEY":" ","HOUSE_NO":"４７８號","E_COORD97":169454.45999999999,"N_COORD97":2541516.3300000001,"ADDRESS":"大同路二段４７８號","OBJECTID":604942},"geometry":{"x":169454.46000000183,"y":2541516.3299999982}},{"attributes":{"ID":604970,"DIS_CODE":0,"TOWNNAME":"南區","LI":"大林里","LIN":"3鄰","STREET":"大同路","SECT":"二段","MAREA":" ","LANE":" ","ALLEY":" ","HOUSE_NO":"４８０號","E_COORD97":169454.45999999999,"N_COORD97":2541512.9100000001,"ADDRESS":"大同路二段４８０號","OBJECTID":604943},"geometry":{"x":169454.46000000183,"y":2541512.9100000039}},{"attributes":{"ID":604971,"DIS_CODE":0,"TOWNNAME":"楠西區","LI":"楠西里","LIN":"3鄰","STREET":"中興路","SECT":" ","MAREA":" ","LANE":" ","ALLEY":" ","HOUSE_NO":"７５號","E_COORD97":197193.51000000001,"N_COORD97":2564409.25,"ADDRESS":"中興路７５號","OBJECTID":604944},"geometry":{"x":197193.50999999978,"y":2564409.2500000019}},{"attributes":{"ID":604972,"DIS_CODE":0,"TOWNNAME":"楠西區","LI":"東勢里","LIN":"3鄰","STREET":"民生路","SECT":" ","MAREA":" ","LANE":" ","ALLEY":" ","HOUSE_NO":"１１０號","E_COORD97":197415.59,"N_COORD97":2564241.29,"ADDRESS":"民生路１１０號","OBJECTID":604945},"geometry":{"x":197415.59000000171,"y":2564241.2899999972}},{"attributes":{"ID":604973,"DIS_CODE":0,"TOWNNAME":"楠西區","LI":"東勢里","LIN":"3鄰","STREET":"民權路","SECT":" ","MAREA":" ","LANE":" ","ALLEY":" ","HOUSE_NO":"３９號","E_COORD97":197336.73999999999,"N_COORD97":2564270.29,"ADDRESS":"民權路３９號","OBJECTID":604946},"geometry":{"x":197336.74000000022,"y":2564270.290000001}},{"attributes":{"ID":604974,"DIS_CODE":0,"TOWNNAME":"楠西區","LI":"東勢里","LIN":"3鄰","STREET":"民權路","SECT":" ","MAREA":" ","LANE":" ","ALLEY":" ","HOUSE_NO":"６７號","E_COORD97":197401.54000000001,"N_COORD97":2564265.29,"ADDRESS":"民權路６７號","OBJECTID":604947},"geometry":{"x":197401.54000000097,"y":2564265.2900000028}},{"attributes":{"ID":604975,"DIS_CODE":0,"TOWNNAME":"東區","LI":"東光里","LIN":"35鄰","STREET":"莊敬路","SECT":" ","MAREA":" ","LANE":" ","ALLEY":" ","HOUSE_NO":"１９號","E_COORD97":171298.23999999999,"N_COORD97":2543754.5800000001,"ADDRESS":"莊敬路１９號","OBJECTID":604948},"geometry":{"x":171298.24000000022,"y":2543754.5800000001}},{"attributes":{"ID":604976,"DIS_CODE":0,"TOWNNAME":"楠西區","LI":"東勢里","LIN":"3鄰","STREET":"民權路","SECT":" ","MAREA":" ","LANE":" ","ALLEY":" ","HOUSE_NO":"２９號","E_COORD97":197316.64000000001,"N_COORD97":2564272.29,"ADDRESS":"民權路２９號","OBJECTID":604949},"geometry":{"x":197316.64000000153,"y":2564272.2900000028}},{"attributes":{"ID":604977,"DIS_CODE":0,"TOWNNAME":"楠西區","LI":"楠西里","LIN":"3鄰","STREET":"民族路","SECT":" ","MAREA":" ","LANE":" ","ALLEY":" ","HOUSE_NO":"１５３號","E_COORD97":197109.79000000001,"N_COORD97":2564399.29,"ADDRESS":"民族路１５３號","OBJECTID":604950},"geometry":{"x":197109.79000000097,"y":2564399.2899999991}},{"attributes":{"ID":604978,"DIS_CODE":0,"TOWNNAME":"楠西區","LI":"東勢里","LIN":"3鄰","STREET":"民權路","SECT":" ","MAREA":" ","LANE":" ","ALLEY":" ","HOUSE_NO":"５１號","E_COORD97":197367.23999999999,"N_COORD97":2564267.29,"ADDRESS":"民權路５１號","OBJECTID":604951},"geometry":{"x":197367.24000000022,"y":2564267.2899999991}},{"attributes":{"ID":604979,"DIS_CODE":0,"TOWNNAME":"楠西區","LI":"東勢里","LIN":"3鄰","STREET":"民權路","SECT":" ","MAREA":" ","LANE":" ","ALLEY":" ","HOUSE_NO":"３７號","E_COORD97":197333.14000000001,"N_COORD97":2564270.29,"ADDRESS":"民權路３７號","OBJECTID":604952},"geometry":{"x":197333.13999999966,"y":2564270.290000001}},{"attributes":{"ID":604980,"DIS_CODE":0,"TOWNNAME":"楠西區","LI":"楠西里","LIN":"3鄰","STREET":"民族路","SECT":" ","MAREA":" ","LANE":" ","ALLEY":" ","HOUSE_NO":"１４１號","E_COORD97":197083.89999999999,"N_COORD97":2564340.9300000002,"ADDRESS":"民族路１４１號","OBJECTID":604953},"geometry":{"x":197083.9000000013,"y":2564340.9300000016}},{"attributes":{"ID":604981,"DIS_CODE":0,"TOWNNAME":"楠西區","LI":"東勢里","LIN":"3鄰","STREET":"民權路","SECT":" ","MAREA":" ","LANE":" ","ALLEY":" ","HOUSE_NO":"４５號","E_COORD97":197354.44,"N_COORD97":2564269.29,"ADDRESS":"民權路４５號","OBJECTID":604954},"geometry":{"x":197354.44000000227,"y":2564269.290000001}},{"attributes":{"ID":604982,"DIS_CODE":0,"TOWNNAME":"楠西區","LI":"楠西里","LIN":"3鄰","STREET":"民族路","SECT":" ","MAREA":" ","LANE":" ","ALLEY":" ","HOUSE_NO":"１８３號","E_COORD97":197146.89000000001,"N_COORD97":2564421.29,"ADDRESS":"民族路１８３號","OBJECTID":604955},"geometry":{"x":197146.88999999966,"y":2564421.2900000028}},{"attributes":{"ID":604983,"DIS_CODE":0,"TOWNNAME":"楠西區","LI":"楠西里","LIN":"3鄰","STREET":"民族路","SECT":" ","MAREA":" ","LANE":" ","ALLEY":" ","HOUSE_NO":"１４９號","E_COORD97":197104.79000000001,"N_COORD97":2564394.29,"ADDRESS":"民族路１４９號","OBJECTID":604956},"geometry":{"x":197104.79000000097,"y":2564394.2900000028}},{"attributes":{"ID":604984,"DIS_CODE":0,"TOWNNAME":"楠西區","LI":"楠西里","LIN":"3鄰","STREET":"民族路","SECT":" ","MAREA":" ","LANE":" ","ALLEY":" ","HOUSE_NO":"１４７號","E_COORD97":197092.79000000001,"N_COORD97":2564377.29,"ADDRESS":"民族路１４７號","OBJECTID":604957},"geometry":{"x":197092.79000000097,"y":2564377.2900000028}},{"attributes":{"ID":604985,"DIS_CODE":0,"TOWNNAME":"楠西區","LI":"東勢里","LIN":"3鄰","STREET":"民權路","SECT":" ","MAREA":" ","LANE":" ","ALLEY":" ","HOUSE_NO":"６１號","E_COORD97":197388.64000000001,"N_COORD97":2564266.29,"ADDRESS":"民權路６１號","OBJECTID":604958},"geometry":{"x":197388.6400000006,"y":2564266.290000001}},{"attributes":{"ID":604986,"DIS_CODE":0,"TOWNNAME":"楠西區","LI":"楠西里","LIN":"3鄰","STREET":"民族路","SECT":" ","MAREA":" ","LANE":" ","ALLEY":" ","HOUSE_NO":"１５５號","E_COORD97":197096.29000000001,"N_COORD97":2564407.29,"ADDRESS":"民族路１５５號","OBJECTID":604959},"geometry":{"x":197096.29000000097,"y":2564407.2899999991}},{"attributes":{"ID":604987,"DIS_CODE":0,"TOWNNAME":"楠西區","LI":"東勢里","LIN":"3鄰","STREET":"民權路","SECT":" ","MAREA":" ","LANE":" ","ALLEY":" ","HOUSE_NO":"４７號","E_COORD97":197358.73999999999,"N_COORD97":2564268.29,"ADDRESS":"民權路４７號","OBJECTID":604960},"geometry":{"x":197358.74000000022,"y":2564268.2899999991}},{"attributes":{"ID":604988,"DIS_CODE":0,"TOWNNAME":"楠西區","LI":"東勢里","LIN":"3鄰","STREET":"民權路","SECT":" ","MAREA":" ","LANE":" ","ALLEY":" ","HOUSE_NO":"５６號","E_COORD97":197375.94,"N_COORD97":2564250.29,"ADDRESS":"民權路５６號","OBJECTID":604961},"geometry":{"x":197375.94000000041,"y":2564250.2899999991}},{"attributes":{"ID":604989,"DIS_CODE":0,"TOWNNAME":"楠西區","LI":"楠西里","LIN":"3鄰","STREET":"民族路","SECT":" ","MAREA":" ","LANE":" ","ALLEY":" ","HOUSE_NO":"１６０號","E_COORD97":197081.69,"N_COORD97":2564426.29,"ADDRESS":"民族路１６０號","OBJECTID":604962},"geometry":{"x":197081.69000000134,"y":2564426.290000001}},{"attributes":{"ID":604990,"DIS_CODE":0,"TOWNNAME":"楠西區","LI":"楠西里","LIN":"3鄰","STREET":"民族路","SECT":" ","MAREA":" ","LANE":" ","ALLEY":" ","HOUSE_NO":"１４３號","E_COORD97":197084.29999999999,"N_COORD97":2564345.9300000002,"ADDRESS":"民族路１４３號","OBJECTID":604963},"geometry":{"x":197084.30000000075,"y":2564345.9299999997}},{"attributes":{"ID":604991,"DIS_CODE":0,"TOWNNAME":"楠西區","LI":"東勢里","LIN":"3鄰","STREET":"民權路","SECT":" ","MAREA":" ","LANE":" ","ALLEY":" ","HOUSE_NO":"５０號","E_COORD97":197358.23999999999,"N_COORD97":2564250.29,"ADDRESS":"民權路５０號","OBJECTID":604964},"geometry":{"x":197358.24000000022,"y":2564250.2899999991}},{"attributes":{"ID":604992,"DIS_CODE":0,"TOWNNAME":"楠西區","LI":"東勢里","LIN":"3鄰","STREET":"民權路","SECT":" ","MAREA":" ","LANE":" ","ALLEY":" ","HOUSE_NO":"６０號","E_COORD97":197388.44,"N_COORD97":2564249.29,"ADDRESS":"民權路６０號","OBJECTID":604965},"geometry":{"x":197388.44000000227,"y":2564249.290000001}},{"attributes":{"ID":604993,"DIS_CODE":0,"TOWNNAME":"楠西區","LI":"東勢里","LIN":"3鄰","STREET":"民權路","SECT":" ","MAREA":" ","LANE":" ","ALLEY":" ","HOUSE_NO":"５８號","E_COORD97":197381.64000000001,"N_COORD97":2564250.29,"ADDRESS":"民權路５８號","OBJECTID":604966},"geometry":{"x":197381.6400000006,"y":2564250.2899999991}},{"attributes":{"ID":604994,"DIS_CODE":0,"TOWNNAME":"楠西區","LI":"東勢里","LIN":"3鄰","STREET":"民權路","SECT":" ","MAREA":" ","LANE":" ","ALLEY":" ","HOUSE_NO":"６３號","E_COORD97":197393.73999999999,"N_COORD97":2564266.29,"ADDRESS":"民權路６３號","OBJECTID":604967},"geometry":{"x":197393.74000000115,"y":2564266.290000001}},{"attributes":{"ID":604995,"DIS_CODE":0,"TOWNNAME":"楠西區","LI":"東勢里","LIN":"3鄰","STREET":"民權路","SECT":" ","MAREA":" ","LANE":" ","ALLEY":" ","HOUSE_NO":"５７號","E_COORD97":197380.84,"N_COORD97":2564266.29,"ADDRESS":"民權路５７號","OBJECTID":604968},"geometry":{"x":197380.83999999985,"y":2564266.290000001}},{"attributes":{"ID":604996,"DIS_CODE":0,"TOWNNAME":"楠西區","LI":"東勢里","LIN":"3鄰","STREET":"民權路","SECT":" ","MAREA":" ","LANE":" ","ALLEY":" ","HOUSE_NO":"３３號","E_COORD97":197325.73999999999,"N_COORD97":2564271.2799999998,"ADDRESS":"民權路３３號","OBJECTID":604969},"geometry":{"x":197325.74000000115,"y":2564271.2799999993}},{"attributes":{"ID":604997,"DIS_CODE":0,"TOWNNAME":"楠西區","LI":"東勢里","LIN":"3鄰","STREET":"民權路","SECT":" ","MAREA":" ","LANE":" ","ALLEY":" ","HOUSE_NO":"５２號之１","E_COORD97":197369.76999999999,"N_COORD97":2564250.2999999998,"ADDRESS":"民權路５２號之１","OBJECTID":604970},"geometry":{"x":197369.76999999955,"y":2564250.3000000026}},{"attributes":{"ID":604998,"DIS_CODE":0,"TOWNNAME":"楠西區","LI":"東勢里","LIN":"3鄰","STREET":"民權路","SECT":" ","MAREA":" ","LANE":" ","ALLEY":" ","HOUSE_NO":"５３號","E_COORD97":197371.64000000001,"N_COORD97":2564267.29,"ADDRESS":"民權路５３號","OBJECTID":604971},"geometry":{"x":197371.6400000006,"y":2564267.2899999991}},{"attributes":{"ID":604999,"DIS_CODE":0,"TOWNNAME":"楠西區","LI":"東勢里","LIN":"3鄰","STREET":"民權路","SECT":" ","MAREA":" ","LANE":" ","ALLEY":" ","HOUSE_NO":"３５號","E_COORD97":197329.64000000001,"N_COORD97":2564271.2799999998,"ADDRESS":"民權路３５號","OBJECTID":604972},"geometry":{"x":197329.63999999966,"y":2564271.2799999993}},{"attributes":{"ID":605000,"DIS_CODE":0,"TOWNNAME":"楠西區","LI":"楠西里","LIN":"3鄰","STREET":"民族路","SECT":" ","MAREA":" ","LANE":" ","ALLEY":" ","HOUSE_NO":"１３９號","E_COORD97":197083.60000000001,"N_COORD97":2564335.9300000002,"ADDRESS":"民族路１３９號","OBJECTID":604973},"geometry":{"x":197083.60000000056,"y":2564335.9299999978}},{"attributes":{"ID":605001,"DIS_CODE":0,"TOWNNAME":"南區","LI":"大恩里","LIN":"3鄰","STREET":"國民路","SECT":" ","MAREA":" ","LANE":" ","ALLEY":" ","HOUSE_NO":"１３４號","E_COORD97":169259.75,"N_COORD97":2540907.8599999999,"ADDRESS":"國民路１３４號","OBJECTID":604974},"geometry":{"x":169259.75000000093,"y":2540907.8599999994}},{"attributes":{"ID":605002,"DIS_CODE":0,"TOWNNAME":"南區","LI":"大恩里","LIN":"3鄰","STREET":"國民路","SECT":" ","MAREA":" ","LANE":" ","ALLEY":" ","HOUSE_NO":"１３６號","E_COORD97":169255.16,"N_COORD97":2540908.6699999999,"ADDRESS":"國民路１３６號","OBJECTID":604975},"geometry":{"x":169255.16000000108,"y":2540908.6700000018}},{"attributes":{"ID":605003,"DIS_CODE":0,"TOWNNAME":"新營區","LI":"民權里","LIN":"3鄰","STREET":"中華路","SECT":" ","MAREA":" ","LANE":" ","ALLEY":" ","HOUSE_NO":"９之３號","E_COORD97":179951.35000000001,"N_COORD97":2578227.48,"ADDRESS":"中華路９之３號","OBJECTID":604976},"geometry":{"x":179951.35000000149,"y":2578227.4800000023}},{"attributes":{"ID":605004,"DIS_CODE":0,"TOWNNAME":"新營區","LI":"好平里","LIN":"3鄰","STREET":"新進路","SECT":"二段","MAREA":" ","LANE":" ","ALLEY":" ","HOUSE_NO":"８４號","E_COORD97":179544.91,"N_COORD97":2577747.6099999999,"ADDRESS":"新進路二段８４號","OBJECTID":604977},"geometry":{"x":179544.91000000108,"y":2577747.6100000013}},{"attributes":{"ID":605005,"DIS_CODE":0,"TOWNNAME":"新營區","LI":"興業里","LIN":"3鄰","STREET":"新進路","SECT":" ","MAREA":" ","LANE":" ","ALLEY":" ","HOUSE_NO":"１０８號","E_COORD97":180487.51999999999,"N_COORD97":2578042.1699999999,"ADDRESS":"新進路１０８號","OBJECTID":604978},"geometry":{"x":180487.52000000142,"y":2578042.1700000037}},{"attributes":{"ID":605006,"DIS_CODE":0,"TOWNNAME":"新營區","LI":"民榮里","LIN":"3鄰","STREET":"新進路","SECT":"二段","MAREA":" ","LANE":" ","ALLEY":" ","HOUSE_NO":"４８８號","E_COORD97":178678.98000000001,"N_COORD97":2578010.8999999999,"ADDRESS":"新進路二段４８８號","OBJECTID":604979},"geometry":{"x":178678.98000000138,"y":2578010.9000000022}},{"attributes":{"ID":605007,"DIS_CODE":0,"TOWNNAME":"新營區","LI":"民榮里","LIN":"3鄰","STREET":"新進路","SECT":"二段","MAREA":" ","LANE":" ","ALLEY":" ","HOUSE_NO":"４７８號","E_COORD97":178686.04999999999,"N_COORD97":2577990.9300000002,"ADDRESS":"新進路二段４７８號","OBJECTID":604980},"geometry":{"x":178686.05000000075,"y":2577990.9299999997}},{"attributes":{"ID":605008,"DIS_CODE":0,"TOWNNAME":"新營區","LI":"興業里","LIN":"3鄰","STREET":"新進路","SECT":" ","MAREA":" ","LANE":" ","ALLEY":" ","HOUSE_NO":"１２２號","E_COORD97":180483.29999999999,"N_COORD97":2578014.5099999998,"ADDRESS":"新進路１２２號","OBJECTID":604981},"geometry":{"x":180483.30000000075,"y":2578014.5099999998}},{"attributes":{"ID":605009,"DIS_CODE":0,"TOWNNAME":"新營區","LI":"新南里","LIN":"3鄰","STREET":"新北街","SECT":" ","MAREA":" ","LANE":" ","ALLEY":" ","HOUSE_NO":"９５號","E_COORD97":178749.91,"N_COORD97":2578791.3100000001,"ADDRESS":"新北街９５號","OBJECTID":604982},"geometry":{"x":178749.91000000108,"y":2578791.3100000024}},{"attributes":{"ID":605010,"DIS_CODE":0,"TOWNNAME":"新營區","LI":"新東里","LIN":"3鄰","STREET":"東大街","SECT":" ","MAREA":" ","LANE":" ","ALLEY":" ","HOUSE_NO":"３８號","E_COORD97":181010.98000000001,"N_COORD97":2579113.9399999999,"ADDRESS":"東大街３８號","OBJECTID":604983},"geometry":{"x":181010.98000000231,"y":2579113.9399999995}},{"attributes":{"ID":605011,"DIS_CODE":0,"TOWNNAME":"新營區","LI":"新南里","LIN":"3鄰","STREET":"新北街","SECT":" ","MAREA":" ","LANE":" ","ALLEY":" ","HOUSE_NO":"９７之６號","E_COORD97":178737.91,"N_COORD97":2578755.9900000002,"ADDRESS":"新北街９７之６號","OBJECTID":604984},"geometry":{"x":178737.91000000201,"y":2578755.9900000021}},{"attributes":{"ID":605012,"DIS_CODE":0,"TOWNNAME":"新營區","LI":"南興里","LIN":"3鄰","STREET":"南昌街","SECT":" ","MAREA":" ","LANE":" ","ALLEY":" ","HOUSE_NO":"２１號","E_COORD97":179607.78,"N_COORD97":2577633.23,"ADDRESS":"南昌街２１號","OBJECTID":604985},"geometry":{"x":179607.78000000026,"y":2577633.2300000023}},{"attributes":{"ID":605013,"DIS_CODE":0,"TOWNNAME":"東區","LI":"德高里","LIN":"16鄰","STREET":"城東街","SECT":" ","MAREA":" ","LANE":" ","ALLEY":" ","HOUSE_NO":"２２之５號","E_COORD97":171552.23999999999,"N_COORD97":2540653.1699999999,"ADDRESS":"城東街２２之５號","OBJECTID":604986},"geometry":{"x":171552.24000000115,"y":2540653.1700000037}},{"attributes":{"ID":605014,"DIS_CODE":0,"TOWNNAME":"東區","LI":"德高里","LIN":"16鄰","STREET":"城東街","SECT":" ","MAREA":" ","LANE":" ","ALLEY":" ","HOUSE_NO":"２２之６號","E_COORD97":171554.79000000001,"N_COORD97":2540648.4300000002,"ADDRESS":"城東街２２之６號","OBJECTID":604987},"geometry":{"x":171554.79000000097,"y":2540648.4300000016}},{"attributes":{"ID":605015,"DIS_CODE":0,"TOWNNAME":"東區","LI":"德高里","LIN":"16鄰","STREET":"城東街","SECT":" ","MAREA":" ","LANE":" ","ALLEY":" ","HOUSE_NO":"２２之７號","E_COORD97":171556.60999999999,"N_COORD97":2540644.79,"ADDRESS":"城東街２２之７號","OBJECTID":604988},"geometry":{"x":171556.61000000127,"y":2540644.7900000028}},{"attributes":{"ID":605016,"DIS_CODE":0,"TOWNNAME":"東區","LI":"德高里","LIN":"16鄰","STREET":"城東街","SECT":" ","MAREA":" ","LANE":" ","ALLEY":" ","HOUSE_NO":"２２之８號","E_COORD97":171558.98000000001,"N_COORD97":2540640.4100000001,"ADDRESS":"城東街２２之８號","OBJECTID":604989},"geometry":{"x":171558.98000000138,"y":2540640.4100000001}},{"attributes":{"ID":605017,"DIS_CODE":0,"TOWNNAME":"東區","LI":"德高里","LIN":"16鄰","STREET":"城東街","SECT":" ","MAREA":" ","LANE":" ","ALLEY":" ","HOUSE_NO":"２２之９號","E_COORD97":171560.98999999999,"N_COORD97":2540635.6800000002,"ADDRESS":"城東街２２之９號","OBJECTID":604990},"geometry":{"x":171560.99000000022,"y":2540635.6800000034}},{"attributes":{"ID":605018,"DIS_CODE":0,"TOWNNAME":"東區","LI":"德高里","LIN":"16鄰","STREET":"城東街","SECT":" ","MAREA":" ","LANE":" ","ALLEY":" ","HOUSE_NO":"２２之１０號","E_COORD97":171562.63,"N_COORD97":2540631.8500000001,"ADDRESS":"城東街２２之１０號","OBJECTID":604991},"geometry":{"x":171562.63000000082,"y":2540631.8500000015}},{"attributes":{"ID":605019,"DIS_CODE":0,"TOWNNAME":"東區","LI":"仁和里","LIN":"7鄰","STREET":"仁和路","SECT":" ","MAREA":" ","LANE":" ","ALLEY":" ","HOUSE_NO":"１１５之１２號","E_COORD97":171419.35000000001,"N_COORD97":2541236.8399999999,"ADDRESS":"仁和路１１５之１２號","OBJECTID":604992},"geometry":{"x":171419.34999999963,"y":2541236.8399999999}},{"attributes":{"ID":605020,"DIS_CODE":0,"TOWNNAME":"東區","LI":"圍下里","LIN":"10鄰","STREET":"青年路","SECT":" ","MAREA":" ","LANE":" ","ALLEY":" ","HOUSE_NO":"３２５號","E_COORD97":169447.45000000001,"N_COORD97":2543552.9199999999,"ADDRESS":"青年路３２５號","OBJECTID":604993},"geometry":{"x":169447.45000000019,"y":2543552.9199999999}},{"attributes":{"ID":605021,"DIS_CODE":0,"TOWNNAME":"東區","LI":"龍山里","LIN":"21鄰","STREET":"富德街","SECT":" ","MAREA":" ","LANE":" ","ALLEY":" ","HOUSE_NO":"３２之１號","E_COORD97":170473.25,"N_COORD97":2542766.02,"ADDRESS":"富德街３２之１號","OBJECTID":604994},"geometry":{"x":170473.25000000093,"y":2542766.0200000033}},{"attributes":{"ID":605022,"DIS_CODE":0,"TOWNNAME":"東區","LI":"東明里","LIN":"23鄰","STREET":"東安路","SECT":" ","MAREA":" ","LANE":" ","ALLEY":" ","HOUSE_NO":"１６號","E_COORD97":170670.67000000001,"N_COORD97":2543507.9100000001,"ADDRESS":"東安路１６號","OBJECTID":604995},"geometry":{"x":170670.67000000086,"y":2543507.910000002}},{"attributes":{"ID":605023,"DIS_CODE":0,"TOWNNAME":"新營區","LI":"大宏里","LIN":"3鄰","STREET":"綠川北街","SECT":" ","MAREA":" ","LANE":" ","ALLEY":" ","HOUSE_NO":"１００號","E_COORD97":180347.42000000001,"N_COORD97":2578700.6499999999,"ADDRESS":"綠川北街１００號","OBJECTID":604996},"geometry":{"x":180347.41999999993,"y":2578700.6500000041}},{"attributes":{"ID":605024,"DIS_CODE":0,"TOWNNAME":"新營區","LI":"新南里","LIN":"3鄰","STREET":"新北街","SECT":" ","MAREA":" ","LANE":" ","ALLEY":" ","HOUSE_NO":"５９號","E_COORD97":178808.95999999999,"N_COORD97":2578725.6899999999,"ADDRESS":"新北街５９號","OBJECTID":604997},"geometry":{"x":178808.96000000089,"y":2578725.6899999995}},{"attributes":{"ID":605025,"DIS_CODE":0,"TOWNNAME":"新營區","LI":"新東里","LIN":"3鄰","STREET":"東大街","SECT":" ","MAREA":" ","LANE":" ","ALLEY":" ","HOUSE_NO":"１５號","E_COORD97":180992.37,"N_COORD97":2579088.5600000001,"ADDRESS":"東大街１５號","OBJECTID":604998},"geometry":{"x":180992.37000000011,"y":2579088.5600000024}},{"attributes":{"ID":605026,"DIS_CODE":0,"TOWNNAME":"新營區","LI":"延平里","LIN":"3鄰","STREET":"長春街","SECT":" ","MAREA":" ","LANE":" ","ALLEY":" ","HOUSE_NO":"２５號","E_COORD97":179742.905313,"N_COORD97":2577901.5544199999,"ADDRESS":"長春街２５號","OBJECTID":604999},"geometry":{"x":179742.90531300008,"y":2577901.5544179995}},{"attributes":{"ID":605027,"DIS_CODE":0,"TOWNNAME":"新營區","LI":"大宏里","LIN":"3鄰","STREET":"綠川北街","SECT":" ","MAREA":" ","LANE":" ","ALLEY":" ","HOUSE_NO":"１１５號","E_COORD97":180328.92999999999,"N_COORD97":2578685.2400000002,"ADDRESS":"綠川北街１１５號","OBJECTID":605000},"geometry":{"x":180328.93000000156,"y":2578685.2400000002}}]}