{"displayFieldName":"TOWNNAME","fieldAliases":{"ID":"ID","DIS_CODE":"DIS_CODE","TOWNNAME":"TOWNNAME","LI":"LI","LIN":"LIN","STREET":"STREET","SECT":"SECT","MAREA":"MAREA","LANE":"LANE","ALLEY":"ALLEY","HOUSE_NO":"HOUSE_NO","E_COORD97":"E_COORD97","N_COORD97":"N_COORD97","ADDRESS":"ADDRESS","OBJECTID":"OBJECTID"},"geometryType":"esriGeometryPoint","spatialReference":{"wkid":102443,"latestWkid":3826},"fields":[{"name":"ID","type":"esriFieldTypeDouble","alias":"ID"},{"name":"DIS_CODE","type":"esriFieldTypeInteger","alias":"DIS_CODE"},{"name":"TOWNNAME","type":"esriFieldTypeString","alias":"TOWNNAME","length":8},{"name":"LI","type":"esriFieldTypeString","alias":"LI","length":8},{"name":"LIN","type":"esriFieldTypeString","alias":"LIN","length":12},{"name":"STREET","type":"esriFieldTypeString","alias":"STREET","length":20},{"name":"SECT","type":"esriFieldTypeString","alias":"SECT","length":8},{"name":"MAREA","type":"esriFieldTypeString","alias":"MAREA","length":12},{"name":"LANE","type":"esriFieldTypeString","alias":"LANE","length":10},{"name":"ALLEY","type":"esriFieldTypeString","alias":"ALLEY","length":10},{"name":"HOUSE_NO","type":"esriFieldTypeString","alias":"HOUSE_NO","length":20},{"name":"E_COORD97","type":"esriFieldTypeDouble","alias":"E_COORD97"},{"name":"N_COORD97","type":"esriFieldTypeDouble","alias":"N_COORD97"},{"name":"ADDRESS","type":"esriFieldTypeString","alias":"ADDRESS","length":50},{"name":"OBJECTID","type":"esriFieldTypeOID","alias":"OBJECTID"}],"features":[{"attributes":{"ID":506828,"DIS_CODE":0,"TOWNNAME":"中西區","LI":"普濟里","LIN":"15鄰","STREET":"成功路","SECT":" ","MAREA":" ","LANE":" ","ALLEY":" ","HOUSE_NO":"３４３號二樓之３","E_COORD97":167963.47,"N_COORD97":2544516.0899999999,"ADDRESS":"成功路３４３號二樓之３","OBJECTID":506801},"geometry":{"x":167963.46999999974,"y":2544516.0900000017}},{"attributes":{"ID":506829,"DIS_CODE":0,"TOWNNAME":"中西區","LI":"普濟里","LIN":"15鄰","STREET":"成功路","SECT":" ","MAREA":" ","LANE":" ","ALLEY":" ","HOUSE_NO":"３４３號八樓之１","E_COORD97":167963.47,"N_COORD97":2544516.0899999999,"ADDRESS":"成功路３４３號八樓之１","OBJECTID":506802},"geometry":{"x":167963.46999999974,"y":2544516.0900000017}},{"attributes":{"ID":506830,"DIS_CODE":0,"TOWNNAME":"中西區","LI":"普濟里","LIN":"15鄰","STREET":"成功路","SECT":" ","MAREA":" ","LANE":" ","ALLEY":" ","HOUSE_NO":"３４３號八樓之２","E_COORD97":167963.47,"N_COORD97":2544516.0899999999,"ADDRESS":"成功路３４３號八樓之２","OBJECTID":506803},"geometry":{"x":167963.46999999974,"y":2544516.0900000017}},{"attributes":{"ID":506831,"DIS_CODE":0,"TOWNNAME":"中西區","LI":"普濟里","LIN":"15鄰","STREET":"成功路","SECT":" ","MAREA":" ","LANE":" ","ALLEY":" ","HOUSE_NO":"３４３號八樓之３","E_COORD97":167963.47,"N_COORD97":2544516.0899999999,"ADDRESS":"成功路３４３號八樓之３","OBJECTID":506804},"geometry":{"x":167963.46999999974,"y":2544516.0900000017}},{"attributes":{"ID":506832,"DIS_CODE":0,"TOWNNAME":"中西區","LI":"普濟里","LIN":"15鄰","STREET":"成功路","SECT":" ","MAREA":" ","LANE":" ","ALLEY":" ","HOUSE_NO":"３４３號八樓之４","E_COORD97":167963.47,"N_COORD97":2544516.0899999999,"ADDRESS":"成功路３４３號八樓之４","OBJECTID":506805},"geometry":{"x":167963.46999999974,"y":2544516.0900000017}},{"attributes":{"ID":506833,"DIS_CODE":0,"TOWNNAME":"中西區","LI":"普濟里","LIN":"15鄰","STREET":"成功路","SECT":" ","MAREA":" ","LANE":" ","ALLEY":" ","HOUSE_NO":"３４３號八樓之５","E_COORD97":167963.47,"N_COORD97":2544516.0899999999,"ADDRESS":"成功路３４３號八樓之５","OBJECTID":506806},"geometry":{"x":167963.46999999974,"y":2544516.0900000017}},{"attributes":{"ID":506834,"DIS_CODE":0,"TOWNNAME":"中西區","LI":"普濟里","LIN":"15鄰","STREET":"成功路","SECT":" ","MAREA":" ","LANE":" ","ALLEY":" ","HOUSE_NO":"３４３號十樓之１","E_COORD97":167963.47,"N_COORD97":2544516.0899999999,"ADDRESS":"成功路３４３號十樓之１","OBJECTID":506807},"geometry":{"x":167963.46999999974,"y":2544516.0900000017}},{"attributes":{"ID":506835,"DIS_CODE":0,"TOWNNAME":"中西區","LI":"普濟里","LIN":"15鄰","STREET":"成功路","SECT":" ","MAREA":" ","LANE":" ","ALLEY":" ","HOUSE_NO":"３４３號十樓之２","E_COORD97":167963.47,"N_COORD97":2544516.0899999999,"ADDRESS":"成功路３４３號十樓之２","OBJECTID":506808},"geometry":{"x":167963.46999999974,"y":2544516.0900000017}},{"attributes":{"ID":506836,"DIS_CODE":0,"TOWNNAME":"中西區","LI":"普濟里","LIN":"15鄰","STREET":"成功路","SECT":" ","MAREA":" ","LANE":" ","ALLEY":" ","HOUSE_NO":"３４３號十樓之３","E_COORD97":167963.47,"N_COORD97":2544516.0899999999,"ADDRESS":"成功路３４３號十樓之３","OBJECTID":506809},"geometry":{"x":167963.46999999974,"y":2544516.0900000017}},{"attributes":{"ID":506837,"DIS_CODE":0,"TOWNNAME":"中西區","LI":"普濟里","LIN":"15鄰","STREET":"成功路","SECT":" ","MAREA":" ","LANE":" ","ALLEY":" ","HOUSE_NO":"３４３號十樓之４","E_COORD97":167963.47,"N_COORD97":2544516.0899999999,"ADDRESS":"成功路３４３號十樓之４","OBJECTID":506810},"geometry":{"x":167963.46999999974,"y":2544516.0900000017}},{"attributes":{"ID":506838,"DIS_CODE":0,"TOWNNAME":"中西區","LI":"普濟里","LIN":"15鄰","STREET":"成功路","SECT":" ","MAREA":" ","LANE":" ","ALLEY":" ","HOUSE_NO":"３４３號三樓之１","E_COORD97":167963.47,"N_COORD97":2544516.0899999999,"ADDRESS":"成功路３４３號三樓之１","OBJECTID":506811},"geometry":{"x":167963.46999999974,"y":2544516.0900000017}},{"attributes":{"ID":506839,"DIS_CODE":0,"TOWNNAME":"中西區","LI":"普濟里","LIN":"15鄰","STREET":"成功路","SECT":" ","MAREA":" ","LANE":" ","ALLEY":" ","HOUSE_NO":"３４３號三樓之２","E_COORD97":167963.47,"N_COORD97":2544516.0899999999,"ADDRESS":"成功路３４３號三樓之２","OBJECTID":506812},"geometry":{"x":167963.46999999974,"y":2544516.0900000017}},{"attributes":{"ID":506840,"DIS_CODE":0,"TOWNNAME":"中西區","LI":"普濟里","LIN":"15鄰","STREET":"成功路","SECT":" ","MAREA":" ","LANE":" ","ALLEY":" ","HOUSE_NO":"３４３號三樓之３","E_COORD97":167963.47,"N_COORD97":2544516.0899999999,"ADDRESS":"成功路３４３號三樓之３","OBJECTID":506813},"geometry":{"x":167963.46999999974,"y":2544516.0900000017}},{"attributes":{"ID":506841,"DIS_CODE":0,"TOWNNAME":"中西區","LI":"普濟里","LIN":"15鄰","STREET":"成功路","SECT":" ","MAREA":" ","LANE":" ","ALLEY":" ","HOUSE_NO":"３４３號五樓之１","E_COORD97":167963.47,"N_COORD97":2544516.0899999999,"ADDRESS":"成功路３４３號五樓之１","OBJECTID":506814},"geometry":{"x":167963.46999999974,"y":2544516.0900000017}},{"attributes":{"ID":506842,"DIS_CODE":0,"TOWNNAME":"中西區","LI":"普濟里","LIN":"15鄰","STREET":"成功路","SECT":" ","MAREA":" ","LANE":" ","ALLEY":" ","HOUSE_NO":"３４３號五樓之２","E_COORD97":167963.47,"N_COORD97":2544516.0899999999,"ADDRESS":"成功路３４３號五樓之２","OBJECTID":506815},"geometry":{"x":167963.46999999974,"y":2544516.0900000017}},{"attributes":{"ID":506843,"DIS_CODE":0,"TOWNNAME":"中西區","LI":"普濟里","LIN":"15鄰","STREET":"成功路","SECT":" ","MAREA":" ","LANE":" ","ALLEY":" ","HOUSE_NO":"３４３號五樓之３","E_COORD97":167963.47,"N_COORD97":2544516.0899999999,"ADDRESS":"成功路３４３號五樓之３","OBJECTID":506816},"geometry":{"x":167963.46999999974,"y":2544516.0900000017}},{"attributes":{"ID":506844,"DIS_CODE":0,"TOWNNAME":"中西區","LI":"普濟里","LIN":"15鄰","STREET":"成功路","SECT":" ","MAREA":" ","LANE":" ","ALLEY":" ","HOUSE_NO":"３４３號五樓之４","E_COORD97":167963.47,"N_COORD97":2544516.0899999999,"ADDRESS":"成功路３４３號五樓之４","OBJECTID":506817},"geometry":{"x":167963.46999999974,"y":2544516.0900000017}},{"attributes":{"ID":506845,"DIS_CODE":0,"TOWNNAME":"中西區","LI":"普濟里","LIN":"15鄰","STREET":"成功路","SECT":" ","MAREA":" ","LANE":" ","ALLEY":" ","HOUSE_NO":"３４３號六樓之１","E_COORD97":167963.47,"N_COORD97":2544516.0899999999,"ADDRESS":"成功路３４３號六樓之１","OBJECTID":506818},"geometry":{"x":167963.46999999974,"y":2544516.0900000017}},{"attributes":{"ID":506846,"DIS_CODE":0,"TOWNNAME":"中西區","LI":"普濟里","LIN":"15鄰","STREET":"成功路","SECT":" ","MAREA":" ","LANE":" ","ALLEY":" ","HOUSE_NO":"３４３號六樓之２","E_COORD97":167963.47,"N_COORD97":2544516.0899999999,"ADDRESS":"成功路３４３號六樓之２","OBJECTID":506819},"geometry":{"x":167963.46999999974,"y":2544516.0900000017}},{"attributes":{"ID":506847,"DIS_CODE":0,"TOWNNAME":"中西區","LI":"普濟里","LIN":"15鄰","STREET":"成功路","SECT":" ","MAREA":" ","LANE":" ","ALLEY":" ","HOUSE_NO":"３４３號六樓之３","E_COORD97":167963.47,"N_COORD97":2544516.0899999999,"ADDRESS":"成功路３４３號六樓之３","OBJECTID":506820},"geometry":{"x":167963.46999999974,"y":2544516.0900000017}},{"attributes":{"ID":506848,"DIS_CODE":0,"TOWNNAME":"中西區","LI":"普濟里","LIN":"15鄰","STREET":"成功路","SECT":" ","MAREA":" ","LANE":" ","ALLEY":" ","HOUSE_NO":"３４３號六樓之４","E_COORD97":167963.47,"N_COORD97":2544516.0899999999,"ADDRESS":"成功路３４３號六樓之４","OBJECTID":506821},"geometry":{"x":167963.46999999974,"y":2544516.0900000017}},{"attributes":{"ID":506849,"DIS_CODE":0,"TOWNNAME":"中西區","LI":"普濟里","LIN":"15鄰","STREET":"成功路","SECT":" ","MAREA":" ","LANE":" ","ALLEY":" ","HOUSE_NO":"３４３號四樓之１","E_COORD97":167963.47,"N_COORD97":2544516.0899999999,"ADDRESS":"成功路３４３號四樓之１","OBJECTID":506822},"geometry":{"x":167963.46999999974,"y":2544516.0900000017}},{"attributes":{"ID":506850,"DIS_CODE":0,"TOWNNAME":"中西區","LI":"普濟里","LIN":"15鄰","STREET":"成功路","SECT":" ","MAREA":" ","LANE":" ","ALLEY":" ","HOUSE_NO":"３４３號四樓之２","E_COORD97":167963.47,"N_COORD97":2544516.0899999999,"ADDRESS":"成功路３４３號四樓之２","OBJECTID":506823},"geometry":{"x":167963.46999999974,"y":2544516.0900000017}},{"attributes":{"ID":506851,"DIS_CODE":0,"TOWNNAME":"中西區","LI":"普濟里","LIN":"15鄰","STREET":"成功路","SECT":" ","MAREA":" ","LANE":" ","ALLEY":" ","HOUSE_NO":"３４３號四樓之３","E_COORD97":167963.47,"N_COORD97":2544516.0899999999,"ADDRESS":"成功路３４３號四樓之３","OBJECTID":506824},"geometry":{"x":167963.46999999974,"y":2544516.0900000017}},{"attributes":{"ID":506852,"DIS_CODE":0,"TOWNNAME":"中西區","LI":"普濟里","LIN":"15鄰","STREET":"成功路","SECT":" ","MAREA":" ","LANE":" ","ALLEY":" ","HOUSE_NO":"３４３號四樓之６","E_COORD97":167963.47,"N_COORD97":2544516.0899999999,"ADDRESS":"成功路３４３號四樓之６","OBJECTID":506825},"geometry":{"x":167963.46999999974,"y":2544516.0900000017}},{"attributes":{"ID":506853,"DIS_CODE":0,"TOWNNAME":"中西區","LI":"普濟里","LIN":"15鄰","STREET":"成功路","SECT":" ","MAREA":" ","LANE":" ","ALLEY":" ","HOUSE_NO":"３４３號四樓之５","E_COORD97":167963.47,"N_COORD97":2544516.0899999999,"ADDRESS":"成功路３４３號四樓之５","OBJECTID":506826},"geometry":{"x":167963.46999999974,"y":2544516.0900000017}},{"attributes":{"ID":506854,"DIS_CODE":0,"TOWNNAME":"中西區","LI":"普濟里","LIN":"15鄰","STREET":"國華街","SECT":"三段","MAREA":" ","LANE":" ","ALLEY":" ","HOUSE_NO":"２７５號二樓","E_COORD97":167970.48000000001,"N_COORD97":2544491.9399999999,"ADDRESS":"國華街三段２７５號二樓","OBJECTID":506827},"geometry":{"x":167970.48000000138,"y":2544491.9400000032}},{"attributes":{"ID":506855,"DIS_CODE":0,"TOWNNAME":"中西區","LI":"普濟里","LIN":"15鄰","STREET":"國華街","SECT":"三段","MAREA":" ","LANE":" ","ALLEY":" ","HOUSE_NO":"２７５號三樓","E_COORD97":167970.48000000001,"N_COORD97":2544491.9399999999,"ADDRESS":"國華街三段２７５號三樓","OBJECTID":506828},"geometry":{"x":167970.48000000138,"y":2544491.9400000032}},{"attributes":{"ID":506856,"DIS_CODE":0,"TOWNNAME":"中西區","LI":"普濟里","LIN":"15鄰","STREET":"國華街","SECT":"三段","MAREA":" ","LANE":" ","ALLEY":" ","HOUSE_NO":"２７５號四樓","E_COORD97":167970.48000000001,"N_COORD97":2544491.9399999999,"ADDRESS":"國華街三段２７５號四樓","OBJECTID":506829},"geometry":{"x":167970.48000000138,"y":2544491.9400000032}},{"attributes":{"ID":506857,"DIS_CODE":0,"TOWNNAME":"中西區","LI":"普濟里","LIN":"15鄰","STREET":"國華街","SECT":"三段","MAREA":" ","LANE":" ","ALLEY":" ","HOUSE_NO":"２７０號二樓","E_COORD97":167983.34,"N_COORD97":2544482.4100000001,"ADDRESS":"國華街三段２７０號二樓","OBJECTID":506830},"geometry":{"x":167983.33999999985,"y":2544482.4100000001}},{"attributes":{"ID":506858,"DIS_CODE":0,"TOWNNAME":"中西區","LI":"普濟里","LIN":"15鄰","STREET":"國華街","SECT":"三段","MAREA":" ","LANE":" ","ALLEY":" ","HOUSE_NO":"２７０號三樓","E_COORD97":167983.34,"N_COORD97":2544482.4100000001,"ADDRESS":"國華街三段２７０號三樓","OBJECTID":506831},"geometry":{"x":167983.33999999985,"y":2544482.4100000001}},{"attributes":{"ID":506859,"DIS_CODE":0,"TOWNNAME":"中西區","LI":"普濟里","LIN":"15鄰","STREET":"國華街","SECT":"三段","MAREA":" ","LANE":" ","ALLEY":" ","HOUSE_NO":"２７０號五樓之１","E_COORD97":167983.34,"N_COORD97":2544482.4100000001,"ADDRESS":"國華街三段２７０號五樓之１","OBJECTID":506832},"geometry":{"x":167983.33999999985,"y":2544482.4100000001}},{"attributes":{"ID":506860,"DIS_CODE":0,"TOWNNAME":"中西區","LI":"普濟里","LIN":"15鄰","STREET":"國華街","SECT":"三段","MAREA":" ","LANE":" ","ALLEY":" ","HOUSE_NO":"２７０號五樓之２","E_COORD97":167983.34,"N_COORD97":2544482.4100000001,"ADDRESS":"國華街三段２７０號五樓之２","OBJECTID":506833},"geometry":{"x":167983.33999999985,"y":2544482.4100000001}},{"attributes":{"ID":506861,"DIS_CODE":0,"TOWNNAME":"中西區","LI":"普濟里","LIN":"15鄰","STREET":"國華街","SECT":"三段","MAREA":" ","LANE":" ","ALLEY":" ","HOUSE_NO":"２７０號四樓","E_COORD97":167983.34,"N_COORD97":2544482.4100000001,"ADDRESS":"國華街三段２７０號四樓","OBJECTID":506834},"geometry":{"x":167983.33999999985,"y":2544482.4100000001}},{"attributes":{"ID":506862,"DIS_CODE":0,"TOWNNAME":"永康區","LI":"埔園里","LIN":"15鄰","STREET":"龍埔街","SECT":" ","MAREA":" ","LANE":" ","ALLEY":" ","HOUSE_NO":"５５０號三樓之５","E_COORD97":173517.26999999999,"N_COORD97":2548397.0499999998,"ADDRESS":"龍埔街５５０號三樓之５","OBJECTID":506835},"geometry":{"x":173517.27000000048,"y":2548397.0500000007}},{"attributes":{"ID":506863,"DIS_CODE":0,"TOWNNAME":"永康區","LI":"埔園里","LIN":"15鄰","STREET":"龍埔街","SECT":" ","MAREA":" ","LANE":" ","ALLEY":" ","HOUSE_NO":"５５２號七樓之３","E_COORD97":173503.63,"N_COORD97":2548395.5499999998,"ADDRESS":"龍埔街５５２號七樓之３","OBJECTID":506836},"geometry":{"x":173503.63000000082,"y":2548395.5500000026}},{"attributes":{"ID":506864,"DIS_CODE":0,"TOWNNAME":"永康區","LI":"埔園里","LIN":"15鄰","STREET":"龍埔街","SECT":" ","MAREA":" ","LANE":" ","ALLEY":" ","HOUSE_NO":"５５２號三樓之２","E_COORD97":173503.67000000001,"N_COORD97":2548395.5499999998,"ADDRESS":"龍埔街５５２號三樓之２","OBJECTID":506837},"geometry":{"x":173503.66999999993,"y":2548395.5500000026}},{"attributes":{"ID":506865,"DIS_CODE":0,"TOWNNAME":"永康區","LI":"埔園里","LIN":"15鄰","STREET":"龍埔街","SECT":" ","MAREA":" ","LANE":" ","ALLEY":" ","HOUSE_NO":"５５２號二樓之１","E_COORD97":173503.53,"N_COORD97":2548395.5499999998,"ADDRESS":"龍埔街５５２號二樓之１","OBJECTID":506838},"geometry":{"x":173503.53000000026,"y":2548395.5500000026}},{"attributes":{"ID":506866,"DIS_CODE":0,"TOWNNAME":"永康區","LI":"埔園里","LIN":"15鄰","STREET":"龍埔街","SECT":" ","MAREA":" ","LANE":" ","ALLEY":" ","HOUSE_NO":"５５２號八樓之３","E_COORD97":173503.63,"N_COORD97":2548395.5499999998,"ADDRESS":"龍埔街５５２號八樓之３","OBJECTID":506839},"geometry":{"x":173503.63000000082,"y":2548395.5500000026}},{"attributes":{"ID":506867,"DIS_CODE":0,"TOWNNAME":"永康區","LI":"中華里","LIN":"15鄰","STREET":"華興街","SECT":" ","MAREA":" ","LANE":" ","ALLEY":" ","HOUSE_NO":"９７號三樓之２６","E_COORD97":171791.70000000001,"N_COORD97":2544563.1299999999,"ADDRESS":"華興街９７號三樓之２６","OBJECTID":506840},"geometry":{"x":171791.70000000019,"y":2544563.129999999}},{"attributes":{"ID":506868,"DIS_CODE":0,"TOWNNAME":"永康區","LI":"埔園里","LIN":"15鄰","STREET":"龍埔街","SECT":" ","MAREA":" ","LANE":" ","ALLEY":" ","HOUSE_NO":"５５２號七樓之２","E_COORD97":173503.67000000001,"N_COORD97":2548395.5499999998,"ADDRESS":"龍埔街５５２號七樓之２","OBJECTID":506841},"geometry":{"x":173503.66999999993,"y":2548395.5500000026}},{"attributes":{"ID":506869,"DIS_CODE":0,"TOWNNAME":"永康區","LI":"埔園里","LIN":"15鄰","STREET":"龍埔街","SECT":" ","MAREA":" ","LANE":" ","ALLEY":" ","HOUSE_NO":"５５２號八樓之５","E_COORD97":173503.69,"N_COORD97":2548395.5499999998,"ADDRESS":"龍埔街５５２號八樓之５","OBJECTID":506842},"geometry":{"x":173503.69000000134,"y":2548395.5500000026}},{"attributes":{"ID":506870,"DIS_CODE":0,"TOWNNAME":"永康區","LI":"埔園里","LIN":"15鄰","STREET":"龍埔街","SECT":" ","MAREA":" ","LANE":" ","ALLEY":" ","HOUSE_NO":"５５２號四樓之２","E_COORD97":173503.67000000001,"N_COORD97":2548395.5499999998,"ADDRESS":"龍埔街５５２號四樓之２","OBJECTID":506843},"geometry":{"x":173503.66999999993,"y":2548395.5500000026}},{"attributes":{"ID":506871,"DIS_CODE":0,"TOWNNAME":"永康區","LI":"中華里","LIN":"15鄰","STREET":"華興街","SECT":" ","MAREA":" ","LANE":" ","ALLEY":" ","HOUSE_NO":"９７號三樓之１４","E_COORD97":171791.62,"N_COORD97":2544563.1299999999,"ADDRESS":"華興街９７號三樓之１４","OBJECTID":506844},"geometry":{"x":171791.62000000104,"y":2544563.129999999}},{"attributes":{"ID":506872,"DIS_CODE":0,"TOWNNAME":"白河區","LI":"永安里","LIN":"15鄰","STREET":"國泰路","SECT":" ","MAREA":" ","LANE":" ","ALLEY":" ","HOUSE_NO":"３０７號一樓","E_COORD97":189916.37,"N_COORD97":2583382.21,"ADDRESS":"國泰路３０７號一樓","OBJECTID":506845},"geometry":{"x":189916.37000000104,"y":2583382.2100000009}},{"attributes":{"ID":506873,"DIS_CODE":0,"TOWNNAME":"白河區","LI":"永安里","LIN":"15鄰","STREET":"國泰路","SECT":" ","MAREA":" ","LANE":" ","ALLEY":" ","HOUSE_NO":"３０７號二樓之１","E_COORD97":189916.37,"N_COORD97":2583382.21,"ADDRESS":"國泰路３０７號二樓之１","OBJECTID":506846},"geometry":{"x":189916.37000000104,"y":2583382.2100000009}},{"attributes":{"ID":506874,"DIS_CODE":0,"TOWNNAME":"白河區","LI":"永安里","LIN":"15鄰","STREET":"國泰路","SECT":" ","MAREA":" ","LANE":" ","ALLEY":" ","HOUSE_NO":"３０７號二樓之２","E_COORD97":189916.37,"N_COORD97":2583382.21,"ADDRESS":"國泰路３０７號二樓之２","OBJECTID":506847},"geometry":{"x":189916.37000000104,"y":2583382.2100000009}},{"attributes":{"ID":506875,"DIS_CODE":0,"TOWNNAME":"永康區","LI":"埔園里","LIN":"15鄰","STREET":"龍埔街","SECT":" ","MAREA":" ","LANE":" ","ALLEY":" ","HOUSE_NO":"５５０號六樓之１","E_COORD97":173517.10999999999,"N_COORD97":2548397.0499999998,"ADDRESS":"龍埔街５５０號六樓之１","OBJECTID":506848},"geometry":{"x":173517.1100000022,"y":2548397.0500000007}},{"attributes":{"ID":506876,"DIS_CODE":0,"TOWNNAME":"永康區","LI":"中華里","LIN":"15鄰","STREET":"華興街","SECT":" ","MAREA":" ","LANE":" ","ALLEY":" ","HOUSE_NO":"９７號二樓之８","E_COORD97":171790.48999999999,"N_COORD97":2544563.1299999999,"ADDRESS":"華興街９７號二樓之８","OBJECTID":506849},"geometry":{"x":171790.49000000209,"y":2544563.129999999}},{"attributes":{"ID":506877,"DIS_CODE":0,"TOWNNAME":"永康區","LI":"埔園里","LIN":"15鄰","STREET":"龍埔街","SECT":" ","MAREA":" ","LANE":" ","ALLEY":" ","HOUSE_NO":"５５０號二樓之２","E_COORD97":173517.25,"N_COORD97":2548397.0499999998,"ADDRESS":"龍埔街５５０號二樓之２","OBJECTID":506850},"geometry":{"x":173517.25,"y":2548397.0500000007}},{"attributes":{"ID":506878,"DIS_CODE":0,"TOWNNAME":"永康區","LI":"埔園里","LIN":"15鄰","STREET":"龍埔街","SECT":" ","MAREA":" ","LANE":" ","ALLEY":" ","HOUSE_NO":"５５２號五樓之４","E_COORD97":173503.56,"N_COORD97":2548395.5499999998,"ADDRESS":"龍埔街５５２號五樓之４","OBJECTID":506851},"geometry":{"x":173503.56000000052,"y":2548395.5500000026}},{"attributes":{"ID":506879,"DIS_CODE":0,"TOWNNAME":"北區","LI":"成德里","LIN":"20鄰","STREET":"文成二路","SECT":" ","MAREA":" ","LANE":" ","ALLEY":" ","HOUSE_NO":"１９２號","E_COORD97":168523.06,"N_COORD97":2546184.2799999998,"ADDRESS":"文成二路１９２號","OBJECTID":506852},"geometry":{"x":168523.06000000052,"y":2546184.2799999993}},{"attributes":{"ID":506880,"DIS_CODE":0,"TOWNNAME":"北區","LI":"大和里","LIN":"17鄰","STREET":"中華北路","SECT":"一段","MAREA":" ","LANE":" ","ALLEY":" ","HOUSE_NO":"６２９號","E_COORD97":167234.04999999999,"N_COORD97":2546468.5099999998,"ADDRESS":"中華北路一段６２９號","OBJECTID":506853},"geometry":{"x":167234.04999999981,"y":2546468.5100000035}},{"attributes":{"ID":506881,"DIS_CODE":0,"TOWNNAME":"北區","LI":"大和里","LIN":"17鄰","STREET":"中華北路","SECT":"一段","MAREA":" ","LANE":" ","ALLEY":" ","HOUSE_NO":"６３０號","E_COORD97":167237.85999999999,"N_COORD97":2546470.6699999999,"ADDRESS":"中華北路一段６３０號","OBJECTID":506854},"geometry":{"x":167237.86000000034,"y":2546470.6699999981}},{"attributes":{"ID":506882,"DIS_CODE":0,"TOWNNAME":"北區","LI":"大和里","LIN":"17鄰","STREET":"中華北路","SECT":"一段","MAREA":" ","LANE":" ","ALLEY":" ","HOUSE_NO":"６３１號","E_COORD97":167242.56,"N_COORD97":2546472.71,"ADDRESS":"中華北路一段６３１號","OBJECTID":506855},"geometry":{"x":167242.55999999959,"y":2546472.7100000028}},{"attributes":{"ID":506883,"DIS_CODE":0,"TOWNNAME":"北區","LI":"和順里","LIN":"1鄰","STREET":"海安路","SECT":"三段","MAREA":" ","LANE":" ","ALLEY":" ","HOUSE_NO":"２６６號","E_COORD97":168011.60000000001,"N_COORD97":2545340.3300000001,"ADDRESS":"海安路三段２６６號","OBJECTID":506856},"geometry":{"x":168011.59999999963,"y":2545340.3300000001}},{"attributes":{"ID":506884,"DIS_CODE":0,"TOWNNAME":"永康區","LI":"中華里","LIN":"15鄰","STREET":"華興街","SECT":" ","MAREA":" ","LANE":" ","ALLEY":" ","HOUSE_NO":"９７號四樓之１３","E_COORD97":171791.69,"N_COORD97":2544563.1299999999,"ADDRESS":"華興街９７號四樓之１３","OBJECTID":506857},"geometry":{"x":171791.69000000134,"y":2544563.129999999}},{"attributes":{"ID":506885,"DIS_CODE":0,"TOWNNAME":"永康區","LI":"埔園里","LIN":"15鄰","STREET":"龍埔街","SECT":" ","MAREA":" ","LANE":" ","ALLEY":" ","HOUSE_NO":"５５０號八樓之２","E_COORD97":173517.25,"N_COORD97":2548397.0499999998,"ADDRESS":"龍埔街５５０號八樓之２","OBJECTID":506858},"geometry":{"x":173517.25,"y":2548397.0500000007}},{"attributes":{"ID":506886,"DIS_CODE":0,"TOWNNAME":"永康區","LI":"中華里","LIN":"15鄰","STREET":"華興街","SECT":" ","MAREA":" ","LANE":" ","ALLEY":" ","HOUSE_NO":"９７號四樓之１２","E_COORD97":171791.73000000001,"N_COORD97":2544563.1299999999,"ADDRESS":"華興街９７號四樓之１２","OBJECTID":506859},"geometry":{"x":171791.73000000045,"y":2544563.129999999}},{"attributes":{"ID":506887,"DIS_CODE":0,"TOWNNAME":"永康區","LI":"中華里","LIN":"15鄰","STREET":"華興街","SECT":" ","MAREA":" ","LANE":" ","ALLEY":" ","HOUSE_NO":"９７號四樓之１７","E_COORD97":171791.67000000001,"N_COORD97":2544563.1299999999,"ADDRESS":"華興街９７號四樓之１７","OBJECTID":506860},"geometry":{"x":171791.66999999993,"y":2544563.129999999}},{"attributes":{"ID":506888,"DIS_CODE":0,"TOWNNAME":"永康區","LI":"中華里","LIN":"15鄰","STREET":"華興街","SECT":" ","MAREA":" ","LANE":" ","ALLEY":" ","HOUSE_NO":"９７號三樓之９","E_COORD97":171790.42999999999,"N_COORD97":2544563.1299999999,"ADDRESS":"華興街９７號三樓之９","OBJECTID":506861},"geometry":{"x":171790.43000000156,"y":2544563.129999999}},{"attributes":{"ID":506889,"DIS_CODE":0,"TOWNNAME":"永康區","LI":"中華里","LIN":"15鄰","STREET":"華興街","SECT":" ","MAREA":" ","LANE":" ","ALLEY":" ","HOUSE_NO":"９７號四樓之２５","E_COORD97":171791.75,"N_COORD97":2544563.1299999999,"ADDRESS":"華興街９７號四樓之２５","OBJECTID":506862},"geometry":{"x":171791.74999999907,"y":2544563.129999999}},{"attributes":{"ID":506890,"DIS_CODE":0,"TOWNNAME":"永康區","LI":"中華里","LIN":"15鄰","STREET":"華興街","SECT":" ","MAREA":" ","LANE":" ","ALLEY":" ","HOUSE_NO":"９７號四樓之８","E_COORD97":171790.48999999999,"N_COORD97":2544563.1299999999,"ADDRESS":"華興街９７號四樓之８","OBJECTID":506863},"geometry":{"x":171790.49000000209,"y":2544563.129999999}},{"attributes":{"ID":506891,"DIS_CODE":0,"TOWNNAME":"永康區","LI":"中華里","LIN":"15鄰","STREET":"華興街","SECT":" ","MAREA":" ","LANE":" ","ALLEY":" ","HOUSE_NO":"９７號三樓之４","E_COORD97":171790.37,"N_COORD97":2544563.1299999999,"ADDRESS":"華興街９７號三樓之４","OBJECTID":506864},"geometry":{"x":171790.37000000011,"y":2544563.129999999}},{"attributes":{"ID":506892,"DIS_CODE":0,"TOWNNAME":"新化區","LI":"協興里","LIN":"15鄰","STREET":"大新路","SECT":" ","MAREA":" ","LANE":" ","ALLEY":" ","HOUSE_NO":"７９號六樓之３","E_COORD97":178083.13,"N_COORD97":2548712.2599999998,"ADDRESS":"大新路７９號六樓之３","OBJECTID":506865},"geometry":{"x":178083.12999999989,"y":2548712.2600000016}},{"attributes":{"ID":506893,"DIS_CODE":0,"TOWNNAME":"歸仁區","LI":"辜厝里","LIN":"15鄰","STREET":"中正南路","SECT":"一段","MAREA":" ","LANE":" ","ALLEY":" ","HOUSE_NO":"１１０號十一樓","E_COORD97":177511.39999999999,"N_COORD97":2540503.6899999999,"ADDRESS":"中正南路一段１１０號十一樓","OBJECTID":506866},"geometry":{"x":177511.4000000013,"y":2540503.6900000013}},{"attributes":{"ID":506894,"DIS_CODE":0,"TOWNNAME":"歸仁區","LI":"辜厝里","LIN":"15鄰","STREET":"中正南路","SECT":"一段","MAREA":" ","LANE":" ","ALLEY":" ","HOUSE_NO":"１１０號八樓之１","E_COORD97":177511.57999999999,"N_COORD97":2540503.7000000002,"ADDRESS":"中正南路一段１１０號八樓之１","OBJECTID":506867},"geometry":{"x":177511.58000000101,"y":2540503.7000000011}},{"attributes":{"ID":506895,"DIS_CODE":0,"TOWNNAME":"歸仁區","LI":"辜厝里","LIN":"15鄰","STREET":"中正南路","SECT":"一段","MAREA":" ","LANE":" ","ALLEY":" ","HOUSE_NO":"１１０號四樓","E_COORD97":177511.14999999999,"N_COORD97":2540503.6899999999,"ADDRESS":"中正南路一段１１０號四樓","OBJECTID":506868},"geometry":{"x":177511.1500000013,"y":2540503.6900000013}},{"attributes":{"ID":506896,"DIS_CODE":0,"TOWNNAME":"歸仁區","LI":"辜厝里","LIN":"15鄰","STREET":"中正南路","SECT":"一段","MAREA":" ","LANE":" ","ALLEY":" ","HOUSE_NO":"１１０號三樓","E_COORD97":177511.14999999999,"N_COORD97":2540503.6899999999,"ADDRESS":"中正南路一段１１０號三樓","OBJECTID":506869},"geometry":{"x":177511.1500000013,"y":2540503.6900000013}},{"attributes":{"ID":506897,"DIS_CODE":0,"TOWNNAME":"歸仁區","LI":"辜厝里","LIN":"15鄰","STREET":"中正南路","SECT":"一段","MAREA":" ","LANE":" ","ALLEY":" ","HOUSE_NO":"１１０號四樓之１","E_COORD97":177511.57999999999,"N_COORD97":2540503.7000000002,"ADDRESS":"中正南路一段１１０號四樓之１","OBJECTID":506870},"geometry":{"x":177511.58000000101,"y":2540503.7000000011}},{"attributes":{"ID":506898,"DIS_CODE":0,"TOWNNAME":"歸仁區","LI":"辜厝里","LIN":"15鄰","STREET":"中正南路","SECT":"一段","MAREA":" ","LANE":" ","ALLEY":" ","HOUSE_NO":"１１０號十樓之１","E_COORD97":177511.57999999999,"N_COORD97":2540503.7000000002,"ADDRESS":"中正南路一段１１０號十樓之１","OBJECTID":506871},"geometry":{"x":177511.58000000101,"y":2540503.7000000011}},{"attributes":{"ID":506899,"DIS_CODE":0,"TOWNNAME":"歸仁區","LI":"歸仁里","LIN":"15鄰","STREET":"信義北路","SECT":" ","MAREA":" ","LANE":" ","ALLEY":" ","HOUSE_NO":"９２號七樓","E_COORD97":177999.87,"N_COORD97":2541037.1099999999,"ADDRESS":"信義北路９２號七樓","OBJECTID":506872},"geometry":{"x":177999.87000000011,"y":2541037.1100000013}},{"attributes":{"ID":506900,"DIS_CODE":0,"TOWNNAME":"歸仁區","LI":"八甲里","LIN":"15鄰","STREET":"大仁七街","SECT":" ","MAREA":" ","LANE":" ","ALLEY":" ","HOUSE_NO":"６０號二樓之１７","E_COORD97":178121.72,"N_COORD97":2541730.6200000001,"ADDRESS":"大仁七街６０號二樓之１７","OBJECTID":506873},"geometry":{"x":178121.7200000016,"y":2541730.6200000029}},{"attributes":{"ID":506901,"DIS_CODE":0,"TOWNNAME":"歸仁區","LI":"八甲里","LIN":"15鄰","STREET":"大仁七街","SECT":" ","MAREA":" ","LANE":" ","ALLEY":" ","HOUSE_NO":"６０號三樓之１２","E_COORD97":178121.73000000001,"N_COORD97":2541730.6200000001,"ADDRESS":"大仁七街６０號三樓之１２","OBJECTID":506874},"geometry":{"x":178121.73000000045,"y":2541730.6200000029}},{"attributes":{"ID":506902,"DIS_CODE":0,"TOWNNAME":"歸仁區","LI":"八甲里","LIN":"15鄰","STREET":"大仁七街","SECT":" ","MAREA":" ","LANE":" ","ALLEY":" ","HOUSE_NO":"６０號六樓之１８","E_COORD97":178121.73000000001,"N_COORD97":2541730.6200000001,"ADDRESS":"大仁七街６０號六樓之１８","OBJECTID":506875},"geometry":{"x":178121.73000000045,"y":2541730.6200000029}},{"attributes":{"ID":506903,"DIS_CODE":0,"TOWNNAME":"歸仁區","LI":"八甲里","LIN":"15鄰","STREET":"大仁七街","SECT":" ","MAREA":" ","LANE":" ","ALLEY":" ","HOUSE_NO":"６０號三樓之１０","E_COORD97":178121.70999999999,"N_COORD97":2541730.6200000001,"ADDRESS":"大仁七街６０號三樓之１０","OBJECTID":506876},"geometry":{"x":178121.70999999996,"y":2541730.6200000029}},{"attributes":{"ID":506904,"DIS_CODE":0,"TOWNNAME":"歸仁區","LI":"八甲里","LIN":"15鄰","STREET":"大仁七街","SECT":" ","MAREA":" ","LANE":" ","ALLEY":" ","HOUSE_NO":"６０號六樓之１","E_COORD97":178121.45000000001,"N_COORD97":2541730.6200000001,"ADDRESS":"大仁七街６０號六樓之１","OBJECTID":506877},"geometry":{"x":178121.45000000019,"y":2541730.6200000029}},{"attributes":{"ID":506905,"DIS_CODE":0,"TOWNNAME":"歸仁區","LI":"八甲里","LIN":"15鄰","STREET":"大仁七街","SECT":" ","MAREA":" ","LANE":" ","ALLEY":" ","HOUSE_NO":"６０號五樓之１２","E_COORD97":178121.73000000001,"N_COORD97":2541730.6200000001,"ADDRESS":"大仁七街６０號五樓之１２","OBJECTID":506878},"geometry":{"x":178121.73000000045,"y":2541730.6200000029}},{"attributes":{"ID":506906,"DIS_CODE":0,"TOWNNAME":"歸仁區","LI":"八甲里","LIN":"15鄰","STREET":"大仁七街","SECT":" ","MAREA":" ","LANE":" ","ALLEY":" ","HOUSE_NO":"６０號六樓之３","E_COORD97":178121.47,"N_COORD97":2541730.6200000001,"ADDRESS":"大仁七街６０號六樓之３","OBJECTID":506879},"geometry":{"x":178121.46999999974,"y":2541730.6200000029}},{"attributes":{"ID":506907,"DIS_CODE":0,"TOWNNAME":"歸仁區","LI":"八甲里","LIN":"15鄰","STREET":"大仁七街","SECT":" ","MAREA":" ","LANE":" ","ALLEY":" ","HOUSE_NO":"６０號二樓之５","E_COORD97":178121.48000000001,"N_COORD97":2541730.6200000001,"ADDRESS":"大仁七街６０號二樓之５","OBJECTID":506880},"geometry":{"x":178121.48000000045,"y":2541730.6200000029}},{"attributes":{"ID":506908,"DIS_CODE":0,"TOWNNAME":"歸仁區","LI":"八甲里","LIN":"15鄰","STREET":"大仁七街","SECT":" ","MAREA":" ","LANE":" ","ALLEY":" ","HOUSE_NO":"６０號四樓之１０","E_COORD97":178121.70999999999,"N_COORD97":2541730.6200000001,"ADDRESS":"大仁七街６０號四樓之１０","OBJECTID":506881},"geometry":{"x":178121.70999999996,"y":2541730.6200000029}},{"attributes":{"ID":506909,"DIS_CODE":0,"TOWNNAME":"歸仁區","LI":"八甲里","LIN":"15鄰","STREET":"大仁七街","SECT":" ","MAREA":" ","LANE":" ","ALLEY":" ","HOUSE_NO":"６０號四樓之１９","E_COORD97":178121.72,"N_COORD97":2541730.6200000001,"ADDRESS":"大仁七街６０號四樓之１９","OBJECTID":506882},"geometry":{"x":178121.7200000016,"y":2541730.6200000029}},{"attributes":{"ID":506910,"DIS_CODE":0,"TOWNNAME":"歸仁區","LI":"八甲里","LIN":"15鄰","STREET":"大仁七街","SECT":" ","MAREA":" ","LANE":" ","ALLEY":" ","HOUSE_NO":"６０號四樓之１８","E_COORD97":178121.73000000001,"N_COORD97":2541730.6200000001,"ADDRESS":"大仁七街６０號四樓之１８","OBJECTID":506883},"geometry":{"x":178121.73000000045,"y":2541730.6200000029}},{"attributes":{"ID":506911,"DIS_CODE":0,"TOWNNAME":"歸仁區","LI":"八甲里","LIN":"15鄰","STREET":"大仁七街","SECT":" ","MAREA":" ","LANE":" ","ALLEY":" ","HOUSE_NO":"６０號三樓之１８","E_COORD97":178121.73000000001,"N_COORD97":2541730.6200000001,"ADDRESS":"大仁七街６０號三樓之１８","OBJECTID":506884},"geometry":{"x":178121.73000000045,"y":2541730.6200000029}},{"attributes":{"ID":506912,"DIS_CODE":0,"TOWNNAME":"學甲區","LI":"明宜里","LIN":"15鄰","STREET":"重信路","SECT":" ","MAREA":" ","LANE":" ","ALLEY":" ","HOUSE_NO":"１號二樓之２","E_COORD97":166124.82999999999,"N_COORD97":2570564.8900000001,"ADDRESS":"重信路１號二樓之２","OBJECTID":506885},"geometry":{"x":166124.83000000101,"y":2570564.8900000006}},{"attributes":{"ID":506913,"DIS_CODE":0,"TOWNNAME":"學甲區","LI":"明宜里","LIN":"15鄰","STREET":"重信路","SECT":" ","MAREA":" ","LANE":" ","ALLEY":" ","HOUSE_NO":"１號二樓之３","E_COORD97":166124.82999999999,"N_COORD97":2570564.8900000001,"ADDRESS":"重信路１號二樓之３","OBJECTID":506886},"geometry":{"x":166124.83000000101,"y":2570564.8900000006}},{"attributes":{"ID":506914,"DIS_CODE":0,"TOWNNAME":"學甲區","LI":"明宜里","LIN":"15鄰","STREET":"重信路","SECT":" ","MAREA":" ","LANE":" ","ALLEY":" ","HOUSE_NO":"１號二樓之４","E_COORD97":166124.82999999999,"N_COORD97":2570564.8900000001,"ADDRESS":"重信路１號二樓之４","OBJECTID":506887},"geometry":{"x":166124.83000000101,"y":2570564.8900000006}},{"attributes":{"ID":506915,"DIS_CODE":0,"TOWNNAME":"學甲區","LI":"明宜里","LIN":"15鄰","STREET":"重信路","SECT":" ","MAREA":" ","LANE":" ","ALLEY":" ","HOUSE_NO":"１號七樓之１","E_COORD97":166124.82999999999,"N_COORD97":2570564.8900000001,"ADDRESS":"重信路１號七樓之１","OBJECTID":506888},"geometry":{"x":166124.83000000101,"y":2570564.8900000006}},{"attributes":{"ID":506916,"DIS_CODE":0,"TOWNNAME":"學甲區","LI":"明宜里","LIN":"15鄰","STREET":"重信路","SECT":" ","MAREA":" ","LANE":" ","ALLEY":" ","HOUSE_NO":"１號七樓之１０","E_COORD97":166124.82999999999,"N_COORD97":2570564.8900000001,"ADDRESS":"重信路１號七樓之１０","OBJECTID":506889},"geometry":{"x":166124.83000000101,"y":2570564.8900000006}},{"attributes":{"ID":506917,"DIS_CODE":0,"TOWNNAME":"學甲區","LI":"明宜里","LIN":"15鄰","STREET":"重信路","SECT":" ","MAREA":" ","LANE":" ","ALLEY":" ","HOUSE_NO":"１號七樓之１１","E_COORD97":166124.82999999999,"N_COORD97":2570564.8900000001,"ADDRESS":"重信路１號七樓之１１","OBJECTID":506890},"geometry":{"x":166124.83000000101,"y":2570564.8900000006}},{"attributes":{"ID":506918,"DIS_CODE":0,"TOWNNAME":"學甲區","LI":"明宜里","LIN":"15鄰","STREET":"重信路","SECT":" ","MAREA":" ","LANE":" ","ALLEY":" ","HOUSE_NO":"１號七樓之１２","E_COORD97":166124.82999999999,"N_COORD97":2570564.8900000001,"ADDRESS":"重信路１號七樓之１２","OBJECTID":506891},"geometry":{"x":166124.83000000101,"y":2570564.8900000006}},{"attributes":{"ID":506919,"DIS_CODE":0,"TOWNNAME":"學甲區","LI":"明宜里","LIN":"15鄰","STREET":"重信路","SECT":" ","MAREA":" ","LANE":" ","ALLEY":" ","HOUSE_NO":"１號七樓之１３","E_COORD97":166124.82999999999,"N_COORD97":2570564.8900000001,"ADDRESS":"重信路１號七樓之１３","OBJECTID":506892},"geometry":{"x":166124.83000000101,"y":2570564.8900000006}},{"attributes":{"ID":506920,"DIS_CODE":0,"TOWNNAME":"學甲區","LI":"明宜里","LIN":"15鄰","STREET":"重信路","SECT":" ","MAREA":" ","LANE":" ","ALLEY":" ","HOUSE_NO":"１號七樓之２","E_COORD97":166124.82999999999,"N_COORD97":2570564.8900000001,"ADDRESS":"重信路１號七樓之２","OBJECTID":506893},"geometry":{"x":166124.83000000101,"y":2570564.8900000006}},{"attributes":{"ID":506921,"DIS_CODE":0,"TOWNNAME":"學甲區","LI":"明宜里","LIN":"15鄰","STREET":"重信路","SECT":" ","MAREA":" ","LANE":" ","ALLEY":" ","HOUSE_NO":"１號七樓之３","E_COORD97":166124.82999999999,"N_COORD97":2570564.8900000001,"ADDRESS":"重信路１號七樓之３","OBJECTID":506894},"geometry":{"x":166124.83000000101,"y":2570564.8900000006}},{"attributes":{"ID":506922,"DIS_CODE":0,"TOWNNAME":"學甲區","LI":"明宜里","LIN":"15鄰","STREET":"重信路","SECT":" ","MAREA":" ","LANE":" ","ALLEY":" ","HOUSE_NO":"１號七樓之４","E_COORD97":166124.82999999999,"N_COORD97":2570564.8900000001,"ADDRESS":"重信路１號七樓之４","OBJECTID":506895},"geometry":{"x":166124.83000000101,"y":2570564.8900000006}},{"attributes":{"ID":506923,"DIS_CODE":0,"TOWNNAME":"學甲區","LI":"明宜里","LIN":"15鄰","STREET":"重信路","SECT":" ","MAREA":" ","LANE":" ","ALLEY":" ","HOUSE_NO":"１號七樓之５","E_COORD97":166124.82999999999,"N_COORD97":2570564.8900000001,"ADDRESS":"重信路１號七樓之５","OBJECTID":506896},"geometry":{"x":166124.83000000101,"y":2570564.8900000006}},{"attributes":{"ID":506924,"DIS_CODE":0,"TOWNNAME":"學甲區","LI":"明宜里","LIN":"15鄰","STREET":"重信路","SECT":" ","MAREA":" ","LANE":" ","ALLEY":" ","HOUSE_NO":"１號七樓之６","E_COORD97":166124.82999999999,"N_COORD97":2570564.8900000001,"ADDRESS":"重信路１號七樓之６","OBJECTID":506897},"geometry":{"x":166124.83000000101,"y":2570564.8900000006}},{"attributes":{"ID":506925,"DIS_CODE":0,"TOWNNAME":"學甲區","LI":"明宜里","LIN":"15鄰","STREET":"重信路","SECT":" ","MAREA":" ","LANE":" ","ALLEY":" ","HOUSE_NO":"１號七樓之７","E_COORD97":166124.82999999999,"N_COORD97":2570564.8900000001,"ADDRESS":"重信路１號七樓之７","OBJECTID":506898},"geometry":{"x":166124.83000000101,"y":2570564.8900000006}},{"attributes":{"ID":506926,"DIS_CODE":0,"TOWNNAME":"學甲區","LI":"明宜里","LIN":"15鄰","STREET":"重信路","SECT":" ","MAREA":" ","LANE":" ","ALLEY":" ","HOUSE_NO":"１號七樓之８","E_COORD97":166124.82999999999,"N_COORD97":2570564.8900000001,"ADDRESS":"重信路１號七樓之８","OBJECTID":506899},"geometry":{"x":166124.83000000101,"y":2570564.8900000006}},{"attributes":{"ID":506927,"DIS_CODE":0,"TOWNNAME":"學甲區","LI":"明宜里","LIN":"15鄰","STREET":"重信路","SECT":" ","MAREA":" ","LANE":" ","ALLEY":" ","HOUSE_NO":"１號七樓之９","E_COORD97":166124.82999999999,"N_COORD97":2570564.8900000001,"ADDRESS":"重信路１號七樓之９","OBJECTID":506900},"geometry":{"x":166124.83000000101,"y":2570564.8900000006}},{"attributes":{"ID":506928,"DIS_CODE":0,"TOWNNAME":"學甲區","LI":"明宜里","LIN":"15鄰","STREET":"重信路","SECT":" ","MAREA":" ","LANE":" ","ALLEY":" ","HOUSE_NO":"１號九樓之１","E_COORD97":166124.82999999999,"N_COORD97":2570564.8900000001,"ADDRESS":"重信路１號九樓之１","OBJECTID":506901},"geometry":{"x":166124.83000000101,"y":2570564.8900000006}},{"attributes":{"ID":506929,"DIS_CODE":0,"TOWNNAME":"學甲區","LI":"明宜里","LIN":"15鄰","STREET":"重信路","SECT":" ","MAREA":" ","LANE":" ","ALLEY":" ","HOUSE_NO":"１號九樓之１０","E_COORD97":166124.82999999999,"N_COORD97":2570564.8900000001,"ADDRESS":"重信路１號九樓之１０","OBJECTID":506902},"geometry":{"x":166124.83000000101,"y":2570564.8900000006}},{"attributes":{"ID":506930,"DIS_CODE":0,"TOWNNAME":"學甲區","LI":"明宜里","LIN":"15鄰","STREET":"重信路","SECT":" ","MAREA":" ","LANE":" ","ALLEY":" ","HOUSE_NO":"１號九樓之１１","E_COORD97":166124.82999999999,"N_COORD97":2570564.8900000001,"ADDRESS":"重信路１號九樓之１１","OBJECTID":506903},"geometry":{"x":166124.83000000101,"y":2570564.8900000006}},{"attributes":{"ID":506931,"DIS_CODE":0,"TOWNNAME":"學甲區","LI":"明宜里","LIN":"15鄰","STREET":"重信路","SECT":" ","MAREA":" ","LANE":" ","ALLEY":" ","HOUSE_NO":"１號九樓之１２","E_COORD97":166124.82999999999,"N_COORD97":2570564.8900000001,"ADDRESS":"重信路１號九樓之１２","OBJECTID":506904},"geometry":{"x":166124.83000000101,"y":2570564.8900000006}},{"attributes":{"ID":506932,"DIS_CODE":0,"TOWNNAME":"學甲區","LI":"明宜里","LIN":"15鄰","STREET":"重信路","SECT":" ","MAREA":" ","LANE":" ","ALLEY":" ","HOUSE_NO":"１號九樓之１３","E_COORD97":166124.82999999999,"N_COORD97":2570564.8900000001,"ADDRESS":"重信路１號九樓之１３","OBJECTID":506905},"geometry":{"x":166124.83000000101,"y":2570564.8900000006}},{"attributes":{"ID":506933,"DIS_CODE":0,"TOWNNAME":"學甲區","LI":"明宜里","LIN":"15鄰","STREET":"重信路","SECT":" ","MAREA":" ","LANE":" ","ALLEY":" ","HOUSE_NO":"１號九樓之２","E_COORD97":166124.82999999999,"N_COORD97":2570564.8900000001,"ADDRESS":"重信路１號九樓之２","OBJECTID":506906},"geometry":{"x":166124.83000000101,"y":2570564.8900000006}},{"attributes":{"ID":506934,"DIS_CODE":0,"TOWNNAME":"學甲區","LI":"明宜里","LIN":"15鄰","STREET":"重信路","SECT":" ","MAREA":" ","LANE":" ","ALLEY":" ","HOUSE_NO":"１號九樓之３","E_COORD97":166124.82999999999,"N_COORD97":2570564.8900000001,"ADDRESS":"重信路１號九樓之３","OBJECTID":506907},"geometry":{"x":166124.83000000101,"y":2570564.8900000006}},{"attributes":{"ID":506935,"DIS_CODE":0,"TOWNNAME":"學甲區","LI":"明宜里","LIN":"15鄰","STREET":"重信路","SECT":" ","MAREA":" ","LANE":" ","ALLEY":" ","HOUSE_NO":"１號九樓之７","E_COORD97":166124.82999999999,"N_COORD97":2570564.8900000001,"ADDRESS":"重信路１號九樓之７","OBJECTID":506908},"geometry":{"x":166124.83000000101,"y":2570564.8900000006}},{"attributes":{"ID":506936,"DIS_CODE":0,"TOWNNAME":"學甲區","LI":"明宜里","LIN":"15鄰","STREET":"重信路","SECT":" ","MAREA":" ","LANE":" ","ALLEY":" ","HOUSE_NO":"１號九樓之８","E_COORD97":166124.82999999999,"N_COORD97":2570564.8900000001,"ADDRESS":"重信路１號九樓之８","OBJECTID":506909},"geometry":{"x":166124.83000000101,"y":2570564.8900000006}},{"attributes":{"ID":506937,"DIS_CODE":0,"TOWNNAME":"學甲區","LI":"明宜里","LIN":"15鄰","STREET":"重信路","SECT":" ","MAREA":" ","LANE":" ","ALLEY":" ","HOUSE_NO":"１號八樓之１０","E_COORD97":166124.82999999999,"N_COORD97":2570564.8900000001,"ADDRESS":"重信路１號八樓之１０","OBJECTID":506910},"geometry":{"x":166124.83000000101,"y":2570564.8900000006}},{"attributes":{"ID":506938,"DIS_CODE":0,"TOWNNAME":"學甲區","LI":"明宜里","LIN":"15鄰","STREET":"重信路","SECT":" ","MAREA":" ","LANE":" ","ALLEY":" ","HOUSE_NO":"１號八樓之１１","E_COORD97":166124.82999999999,"N_COORD97":2570564.8900000001,"ADDRESS":"重信路１號八樓之１１","OBJECTID":506911},"geometry":{"x":166124.83000000101,"y":2570564.8900000006}},{"attributes":{"ID":506939,"DIS_CODE":0,"TOWNNAME":"學甲區","LI":"明宜里","LIN":"15鄰","STREET":"重信路","SECT":" ","MAREA":" ","LANE":" ","ALLEY":" ","HOUSE_NO":"１號八樓之１２","E_COORD97":166124.82999999999,"N_COORD97":2570564.8900000001,"ADDRESS":"重信路１號八樓之１２","OBJECTID":506912},"geometry":{"x":166124.83000000101,"y":2570564.8900000006}},{"attributes":{"ID":506940,"DIS_CODE":0,"TOWNNAME":"學甲區","LI":"明宜里","LIN":"15鄰","STREET":"重信路","SECT":" ","MAREA":" ","LANE":" ","ALLEY":" ","HOUSE_NO":"１號八樓之１３","E_COORD97":166124.82999999999,"N_COORD97":2570564.8900000001,"ADDRESS":"重信路１號八樓之１３","OBJECTID":506913},"geometry":{"x":166124.83000000101,"y":2570564.8900000006}},{"attributes":{"ID":506941,"DIS_CODE":0,"TOWNNAME":"學甲區","LI":"明宜里","LIN":"15鄰","STREET":"重信路","SECT":" ","MAREA":" ","LANE":" ","ALLEY":" ","HOUSE_NO":"１號八樓之２","E_COORD97":166124.82999999999,"N_COORD97":2570564.8900000001,"ADDRESS":"重信路１號八樓之２","OBJECTID":506914},"geometry":{"x":166124.83000000101,"y":2570564.8900000006}},{"attributes":{"ID":506942,"DIS_CODE":0,"TOWNNAME":"學甲區","LI":"明宜里","LIN":"15鄰","STREET":"重信路","SECT":" ","MAREA":" ","LANE":" ","ALLEY":" ","HOUSE_NO":"１號十一樓之５","E_COORD97":166124.82999999999,"N_COORD97":2570564.8900000001,"ADDRESS":"重信路１號十一樓之５","OBJECTID":506915},"geometry":{"x":166124.83000000101,"y":2570564.8900000006}},{"attributes":{"ID":506943,"DIS_CODE":0,"TOWNNAME":"學甲區","LI":"明宜里","LIN":"15鄰","STREET":"重信路","SECT":" ","MAREA":" ","LANE":" ","ALLEY":" ","HOUSE_NO":"１號十一樓之６","E_COORD97":166124.82999999999,"N_COORD97":2570564.8900000001,"ADDRESS":"重信路１號十一樓之６","OBJECTID":506916},"geometry":{"x":166124.83000000101,"y":2570564.8900000006}},{"attributes":{"ID":506944,"DIS_CODE":0,"TOWNNAME":"學甲區","LI":"明宜里","LIN":"15鄰","STREET":"重信路","SECT":" ","MAREA":" ","LANE":" ","ALLEY":" ","HOUSE_NO":"１號十一樓之７","E_COORD97":166124.82999999999,"N_COORD97":2570564.8900000001,"ADDRESS":"重信路１號十一樓之７","OBJECTID":506917},"geometry":{"x":166124.83000000101,"y":2570564.8900000006}},{"attributes":{"ID":506945,"DIS_CODE":0,"TOWNNAME":"學甲區","LI":"明宜里","LIN":"15鄰","STREET":"重信路","SECT":" ","MAREA":" ","LANE":" ","ALLEY":" ","HOUSE_NO":"１號十一樓之８","E_COORD97":166124.82999999999,"N_COORD97":2570564.8900000001,"ADDRESS":"重信路１號十一樓之８","OBJECTID":506918},"geometry":{"x":166124.83000000101,"y":2570564.8900000006}},{"attributes":{"ID":506946,"DIS_CODE":0,"TOWNNAME":"學甲區","LI":"明宜里","LIN":"15鄰","STREET":"重信路","SECT":" ","MAREA":" ","LANE":" ","ALLEY":" ","HOUSE_NO":"１號十一樓之９","E_COORD97":166124.82999999999,"N_COORD97":2570564.8900000001,"ADDRESS":"重信路１號十一樓之９","OBJECTID":506919},"geometry":{"x":166124.83000000101,"y":2570564.8900000006}},{"attributes":{"ID":506947,"DIS_CODE":0,"TOWNNAME":"學甲區","LI":"明宜里","LIN":"15鄰","STREET":"重信路","SECT":" ","MAREA":" ","LANE":" ","ALLEY":" ","HOUSE_NO":"１號十二樓之１","E_COORD97":166124.82999999999,"N_COORD97":2570564.8900000001,"ADDRESS":"重信路１號十二樓之１","OBJECTID":506920},"geometry":{"x":166124.83000000101,"y":2570564.8900000006}},{"attributes":{"ID":506948,"DIS_CODE":0,"TOWNNAME":"學甲區","LI":"明宜里","LIN":"15鄰","STREET":"重信路","SECT":" ","MAREA":" ","LANE":" ","ALLEY":" ","HOUSE_NO":"１號十二樓之１０","E_COORD97":166124.82999999999,"N_COORD97":2570564.8900000001,"ADDRESS":"重信路１號十二樓之１０","OBJECTID":506921},"geometry":{"x":166124.83000000101,"y":2570564.8900000006}},{"attributes":{"ID":506949,"DIS_CODE":0,"TOWNNAME":"學甲區","LI":"明宜里","LIN":"15鄰","STREET":"重信路","SECT":" ","MAREA":" ","LANE":" ","ALLEY":" ","HOUSE_NO":"１號十二樓之２","E_COORD97":166124.82999999999,"N_COORD97":2570564.8900000001,"ADDRESS":"重信路１號十二樓之２","OBJECTID":506922},"geometry":{"x":166124.83000000101,"y":2570564.8900000006}},{"attributes":{"ID":506950,"DIS_CODE":0,"TOWNNAME":"學甲區","LI":"明宜里","LIN":"15鄰","STREET":"重信路","SECT":" ","MAREA":" ","LANE":" ","ALLEY":" ","HOUSE_NO":"１號十二樓之３","E_COORD97":166124.82999999999,"N_COORD97":2570564.8900000001,"ADDRESS":"重信路１號十二樓之３","OBJECTID":506923},"geometry":{"x":166124.83000000101,"y":2570564.8900000006}},{"attributes":{"ID":506951,"DIS_CODE":0,"TOWNNAME":"學甲區","LI":"明宜里","LIN":"15鄰","STREET":"重信路","SECT":" ","MAREA":" ","LANE":" ","ALLEY":" ","HOUSE_NO":"１號十二樓之４","E_COORD97":166124.82999999999,"N_COORD97":2570564.8900000001,"ADDRESS":"重信路１號十二樓之４","OBJECTID":506924},"geometry":{"x":166124.83000000101,"y":2570564.8900000006}},{"attributes":{"ID":506952,"DIS_CODE":0,"TOWNNAME":"學甲區","LI":"明宜里","LIN":"15鄰","STREET":"重信路","SECT":" ","MAREA":" ","LANE":" ","ALLEY":" ","HOUSE_NO":"１號十二樓之５","E_COORD97":166124.82999999999,"N_COORD97":2570564.8900000001,"ADDRESS":"重信路１號十二樓之５","OBJECTID":506925},"geometry":{"x":166124.83000000101,"y":2570564.8900000006}},{"attributes":{"ID":506953,"DIS_CODE":0,"TOWNNAME":"學甲區","LI":"明宜里","LIN":"15鄰","STREET":"重信路","SECT":" ","MAREA":" ","LANE":" ","ALLEY":" ","HOUSE_NO":"１號十二樓之６","E_COORD97":166124.82999999999,"N_COORD97":2570564.8900000001,"ADDRESS":"重信路１號十二樓之６","OBJECTID":506926},"geometry":{"x":166124.83000000101,"y":2570564.8900000006}},{"attributes":{"ID":506954,"DIS_CODE":0,"TOWNNAME":"南區","LI":"新昌里","LIN":"4鄰","STREET":"夏林路","SECT":" ","MAREA":" ","LANE":" ","ALLEY":" ","HOUSE_NO":"５號","E_COORD97":167486.64999999999,"N_COORD97":2542874.6499999999,"ADDRESS":"夏林路５號","OBJECTID":506927},"geometry":{"x":167486.65000000037,"y":2542874.6500000022}},{"attributes":{"ID":506955,"DIS_CODE":0,"TOWNNAME":"學甲區","LI":"明宜里","LIN":"15鄰","STREET":"重信路","SECT":" ","MAREA":" ","LANE":" ","ALLEY":" ","HOUSE_NO":"１號十二樓之７","E_COORD97":166124.82999999999,"N_COORD97":2570564.8900000001,"ADDRESS":"重信路１號十二樓之７","OBJECTID":506928},"geometry":{"x":166124.83000000101,"y":2570564.8900000006}},{"attributes":{"ID":506956,"DIS_CODE":0,"TOWNNAME":"學甲區","LI":"明宜里","LIN":"15鄰","STREET":"重信路","SECT":" ","MAREA":" ","LANE":" ","ALLEY":" ","HOUSE_NO":"１號十二樓之８","E_COORD97":166124.82999999999,"N_COORD97":2570564.8900000001,"ADDRESS":"重信路１號十二樓之８","OBJECTID":506929},"geometry":{"x":166124.83000000101,"y":2570564.8900000006}},{"attributes":{"ID":506957,"DIS_CODE":0,"TOWNNAME":"學甲區","LI":"明宜里","LIN":"15鄰","STREET":"重信路","SECT":" ","MAREA":" ","LANE":" ","ALLEY":" ","HOUSE_NO":"１號十二樓之９","E_COORD97":166124.82999999999,"N_COORD97":2570564.8900000001,"ADDRESS":"重信路１號十二樓之９","OBJECTID":506930},"geometry":{"x":166124.83000000101,"y":2570564.8900000006}},{"attributes":{"ID":506958,"DIS_CODE":0,"TOWNNAME":"學甲區","LI":"明宜里","LIN":"15鄰","STREET":"重信路","SECT":" ","MAREA":" ","LANE":" ","ALLEY":" ","HOUSE_NO":"１號十樓之１","E_COORD97":166124.82999999999,"N_COORD97":2570564.8900000001,"ADDRESS":"重信路１號十樓之１","OBJECTID":506931},"geometry":{"x":166124.83000000101,"y":2570564.8900000006}},{"attributes":{"ID":506959,"DIS_CODE":0,"TOWNNAME":"學甲區","LI":"明宜里","LIN":"15鄰","STREET":"重信路","SECT":" ","MAREA":" ","LANE":" ","ALLEY":" ","HOUSE_NO":"１號十樓之１０","E_COORD97":166124.82999999999,"N_COORD97":2570564.8900000001,"ADDRESS":"重信路１號十樓之１０","OBJECTID":506932},"geometry":{"x":166124.83000000101,"y":2570564.8900000006}},{"attributes":{"ID":506960,"DIS_CODE":0,"TOWNNAME":"學甲區","LI":"明宜里","LIN":"15鄰","STREET":"重信路","SECT":" ","MAREA":" ","LANE":" ","ALLEY":" ","HOUSE_NO":"１號十樓之１１","E_COORD97":166124.82999999999,"N_COORD97":2570564.8900000001,"ADDRESS":"重信路１號十樓之１１","OBJECTID":506933},"geometry":{"x":166124.83000000101,"y":2570564.8900000006}},{"attributes":{"ID":506961,"DIS_CODE":0,"TOWNNAME":"學甲區","LI":"明宜里","LIN":"15鄰","STREET":"重信路","SECT":" ","MAREA":" ","LANE":" ","ALLEY":" ","HOUSE_NO":"１號十樓之１２","E_COORD97":166124.82999999999,"N_COORD97":2570564.8900000001,"ADDRESS":"重信路１號十樓之１２","OBJECTID":506934},"geometry":{"x":166124.83000000101,"y":2570564.8900000006}},{"attributes":{"ID":506962,"DIS_CODE":0,"TOWNNAME":"學甲區","LI":"明宜里","LIN":"15鄰","STREET":"重信路","SECT":" ","MAREA":" ","LANE":" ","ALLEY":" ","HOUSE_NO":"１號十樓之１３","E_COORD97":166124.82999999999,"N_COORD97":2570564.8900000001,"ADDRESS":"重信路１號十樓之１３","OBJECTID":506935},"geometry":{"x":166124.83000000101,"y":2570564.8900000006}},{"attributes":{"ID":506963,"DIS_CODE":0,"TOWNNAME":"學甲區","LI":"明宜里","LIN":"15鄰","STREET":"重信路","SECT":" ","MAREA":" ","LANE":" ","ALLEY":" ","HOUSE_NO":"１號十樓之２","E_COORD97":166124.82999999999,"N_COORD97":2570564.8900000001,"ADDRESS":"重信路１號十樓之２","OBJECTID":506936},"geometry":{"x":166124.83000000101,"y":2570564.8900000006}},{"attributes":{"ID":506964,"DIS_CODE":0,"TOWNNAME":"學甲區","LI":"明宜里","LIN":"15鄰","STREET":"重信路","SECT":" ","MAREA":" ","LANE":" ","ALLEY":" ","HOUSE_NO":"１號十樓之３","E_COORD97":166124.82999999999,"N_COORD97":2570564.8900000001,"ADDRESS":"重信路１號十樓之３","OBJECTID":506937},"geometry":{"x":166124.83000000101,"y":2570564.8900000006}},{"attributes":{"ID":506965,"DIS_CODE":0,"TOWNNAME":"學甲區","LI":"明宜里","LIN":"15鄰","STREET":"重信路","SECT":" ","MAREA":" ","LANE":" ","ALLEY":" ","HOUSE_NO":"１號十樓之４","E_COORD97":166124.82999999999,"N_COORD97":2570564.8900000001,"ADDRESS":"重信路１號十樓之４","OBJECTID":506938},"geometry":{"x":166124.83000000101,"y":2570564.8900000006}},{"attributes":{"ID":506966,"DIS_CODE":0,"TOWNNAME":"學甲區","LI":"明宜里","LIN":"15鄰","STREET":"重信路","SECT":" ","MAREA":" ","LANE":" ","ALLEY":" ","HOUSE_NO":"１號五樓之１０","E_COORD97":166124.82999999999,"N_COORD97":2570564.8900000001,"ADDRESS":"重信路１號五樓之１０","OBJECTID":506939},"geometry":{"x":166124.83000000101,"y":2570564.8900000006}},{"attributes":{"ID":506967,"DIS_CODE":0,"TOWNNAME":"學甲區","LI":"明宜里","LIN":"15鄰","STREET":"重信路","SECT":" ","MAREA":" ","LANE":" ","ALLEY":" ","HOUSE_NO":"１號五樓之１１","E_COORD97":166124.82999999999,"N_COORD97":2570564.8900000001,"ADDRESS":"重信路１號五樓之１１","OBJECTID":506940},"geometry":{"x":166124.83000000101,"y":2570564.8900000006}},{"attributes":{"ID":506968,"DIS_CODE":0,"TOWNNAME":"學甲區","LI":"明宜里","LIN":"15鄰","STREET":"重信路","SECT":" ","MAREA":" ","LANE":" ","ALLEY":" ","HOUSE_NO":"１號五樓之１２","E_COORD97":166124.82999999999,"N_COORD97":2570564.8900000001,"ADDRESS":"重信路１號五樓之１２","OBJECTID":506941},"geometry":{"x":166124.83000000101,"y":2570564.8900000006}},{"attributes":{"ID":506969,"DIS_CODE":0,"TOWNNAME":"學甲區","LI":"明宜里","LIN":"15鄰","STREET":"重信路","SECT":" ","MAREA":" ","LANE":" ","ALLEY":" ","HOUSE_NO":"１號五樓之１３","E_COORD97":166124.82999999999,"N_COORD97":2570564.8900000001,"ADDRESS":"重信路１號五樓之１３","OBJECTID":506942},"geometry":{"x":166124.83000000101,"y":2570564.8900000006}},{"attributes":{"ID":506970,"DIS_CODE":0,"TOWNNAME":"學甲區","LI":"明宜里","LIN":"15鄰","STREET":"重信路","SECT":" ","MAREA":" ","LANE":" ","ALLEY":" ","HOUSE_NO":"１號五樓之１４","E_COORD97":166124.82999999999,"N_COORD97":2570564.8900000001,"ADDRESS":"重信路１號五樓之１４","OBJECTID":506943},"geometry":{"x":166124.83000000101,"y":2570564.8900000006}},{"attributes":{"ID":506971,"DIS_CODE":0,"TOWNNAME":"學甲區","LI":"明宜里","LIN":"15鄰","STREET":"重信路","SECT":" ","MAREA":" ","LANE":" ","ALLEY":" ","HOUSE_NO":"１號五樓之１５","E_COORD97":166124.82999999999,"N_COORD97":2570564.8900000001,"ADDRESS":"重信路１號五樓之１５","OBJECTID":506944},"geometry":{"x":166124.83000000101,"y":2570564.8900000006}},{"attributes":{"ID":506972,"DIS_CODE":0,"TOWNNAME":"學甲區","LI":"明宜里","LIN":"15鄰","STREET":"重信路","SECT":" ","MAREA":" ","LANE":" ","ALLEY":" ","HOUSE_NO":"１號五樓之２","E_COORD97":166124.82999999999,"N_COORD97":2570564.8900000001,"ADDRESS":"重信路１號五樓之２","OBJECTID":506945},"geometry":{"x":166124.83000000101,"y":2570564.8900000006}},{"attributes":{"ID":506973,"DIS_CODE":0,"TOWNNAME":"學甲區","LI":"明宜里","LIN":"15鄰","STREET":"重信路","SECT":" ","MAREA":" ","LANE":" ","ALLEY":" ","HOUSE_NO":"１號五樓之４","E_COORD97":166124.82999999999,"N_COORD97":2570564.8900000001,"ADDRESS":"重信路１號五樓之４","OBJECTID":506946},"geometry":{"x":166124.83000000101,"y":2570564.8900000006}},{"attributes":{"ID":506974,"DIS_CODE":0,"TOWNNAME":"學甲區","LI":"明宜里","LIN":"15鄰","STREET":"重信路","SECT":" ","MAREA":" ","LANE":" ","ALLEY":" ","HOUSE_NO":"１號五樓之５","E_COORD97":166124.82999999999,"N_COORD97":2570564.8900000001,"ADDRESS":"重信路１號五樓之５","OBJECTID":506947},"geometry":{"x":166124.83000000101,"y":2570564.8900000006}},{"attributes":{"ID":506975,"DIS_CODE":0,"TOWNNAME":"學甲區","LI":"明宜里","LIN":"15鄰","STREET":"重信路","SECT":" ","MAREA":" ","LANE":" ","ALLEY":" ","HOUSE_NO":"１號五樓之６","E_COORD97":166124.82999999999,"N_COORD97":2570564.8900000001,"ADDRESS":"重信路１號五樓之６","OBJECTID":506948},"geometry":{"x":166124.83000000101,"y":2570564.8900000006}},{"attributes":{"ID":506976,"DIS_CODE":0,"TOWNNAME":"學甲區","LI":"明宜里","LIN":"15鄰","STREET":"重信路","SECT":" ","MAREA":" ","LANE":" ","ALLEY":" ","HOUSE_NO":"１號五樓之７","E_COORD97":166124.82999999999,"N_COORD97":2570564.8900000001,"ADDRESS":"重信路１號五樓之７","OBJECTID":506949},"geometry":{"x":166124.83000000101,"y":2570564.8900000006}},{"attributes":{"ID":506977,"DIS_CODE":0,"TOWNNAME":"學甲區","LI":"明宜里","LIN":"15鄰","STREET":"重信路","SECT":" ","MAREA":" ","LANE":" ","ALLEY":" ","HOUSE_NO":"１號六樓之１０","E_COORD97":166124.82999999999,"N_COORD97":2570564.8900000001,"ADDRESS":"重信路１號六樓之１０","OBJECTID":506950},"geometry":{"x":166124.83000000101,"y":2570564.8900000006}},{"attributes":{"ID":506978,"DIS_CODE":0,"TOWNNAME":"學甲區","LI":"明宜里","LIN":"15鄰","STREET":"重信路","SECT":" ","MAREA":" ","LANE":" ","ALLEY":" ","HOUSE_NO":"１號六樓之１１","E_COORD97":166124.82999999999,"N_COORD97":2570564.8900000001,"ADDRESS":"重信路１號六樓之１１","OBJECTID":506951},"geometry":{"x":166124.83000000101,"y":2570564.8900000006}},{"attributes":{"ID":506979,"DIS_CODE":0,"TOWNNAME":"學甲區","LI":"明宜里","LIN":"15鄰","STREET":"重信路","SECT":" ","MAREA":" ","LANE":" ","ALLEY":" ","HOUSE_NO":"１號六樓之１２","E_COORD97":166124.82999999999,"N_COORD97":2570564.8900000001,"ADDRESS":"重信路１號六樓之１２","OBJECTID":506952},"geometry":{"x":166124.83000000101,"y":2570564.8900000006}},{"attributes":{"ID":506980,"DIS_CODE":0,"TOWNNAME":"學甲區","LI":"明宜里","LIN":"15鄰","STREET":"重信路","SECT":" ","MAREA":" ","LANE":" ","ALLEY":" ","HOUSE_NO":"１號六樓之１３","E_COORD97":166124.82999999999,"N_COORD97":2570564.8900000001,"ADDRESS":"重信路１號六樓之１３","OBJECTID":506953},"geometry":{"x":166124.83000000101,"y":2570564.8900000006}},{"attributes":{"ID":506981,"DIS_CODE":0,"TOWNNAME":"學甲區","LI":"明宜里","LIN":"15鄰","STREET":"重信路","SECT":" ","MAREA":" ","LANE":" ","ALLEY":" ","HOUSE_NO":"１號六樓之１４","E_COORD97":166124.82999999999,"N_COORD97":2570564.8900000001,"ADDRESS":"重信路１號六樓之１４","OBJECTID":506954},"geometry":{"x":166124.83000000101,"y":2570564.8900000006}},{"attributes":{"ID":506982,"DIS_CODE":0,"TOWNNAME":"學甲區","LI":"明宜里","LIN":"15鄰","STREET":"重信路","SECT":" ","MAREA":" ","LANE":" ","ALLEY":" ","HOUSE_NO":"１號六樓之１５","E_COORD97":166124.82999999999,"N_COORD97":2570564.8900000001,"ADDRESS":"重信路１號六樓之１５","OBJECTID":506955},"geometry":{"x":166124.83000000101,"y":2570564.8900000006}},{"attributes":{"ID":506983,"DIS_CODE":0,"TOWNNAME":"學甲區","LI":"明宜里","LIN":"15鄰","STREET":"重信路","SECT":" ","MAREA":" ","LANE":" ","ALLEY":" ","HOUSE_NO":"１號六樓之２","E_COORD97":166124.82999999999,"N_COORD97":2570564.8900000001,"ADDRESS":"重信路１號六樓之２","OBJECTID":506956},"geometry":{"x":166124.83000000101,"y":2570564.8900000006}},{"attributes":{"ID":506984,"DIS_CODE":0,"TOWNNAME":"學甲區","LI":"明宜里","LIN":"15鄰","STREET":"重信路","SECT":" ","MAREA":" ","LANE":" ","ALLEY":" ","HOUSE_NO":"１號六樓之３","E_COORD97":166124.82999999999,"N_COORD97":2570564.8900000001,"ADDRESS":"重信路１號六樓之３","OBJECTID":506957},"geometry":{"x":166124.83000000101,"y":2570564.8900000006}},{"attributes":{"ID":506985,"DIS_CODE":0,"TOWNNAME":"學甲區","LI":"明宜里","LIN":"15鄰","STREET":"重信路","SECT":" ","MAREA":" ","LANE":" ","ALLEY":" ","HOUSE_NO":"１號六樓之４","E_COORD97":166124.82999999999,"N_COORD97":2570564.8900000001,"ADDRESS":"重信路１號六樓之４","OBJECTID":506958},"geometry":{"x":166124.83000000101,"y":2570564.8900000006}},{"attributes":{"ID":506986,"DIS_CODE":0,"TOWNNAME":"學甲區","LI":"明宜里","LIN":"15鄰","STREET":"重信路","SECT":" ","MAREA":" ","LANE":" ","ALLEY":" ","HOUSE_NO":"１號六樓之５","E_COORD97":166124.82999999999,"N_COORD97":2570564.8900000001,"ADDRESS":"重信路１號六樓之５","OBJECTID":506959},"geometry":{"x":166124.83000000101,"y":2570564.8900000006}},{"attributes":{"ID":506987,"DIS_CODE":0,"TOWNNAME":"學甲區","LI":"明宜里","LIN":"15鄰","STREET":"重信路","SECT":" ","MAREA":" ","LANE":" ","ALLEY":" ","HOUSE_NO":"１號六樓之６","E_COORD97":166124.82999999999,"N_COORD97":2570564.8900000001,"ADDRESS":"重信路１號六樓之６","OBJECTID":506960},"geometry":{"x":166124.83000000101,"y":2570564.8900000006}},{"attributes":{"ID":506988,"DIS_CODE":0,"TOWNNAME":"學甲區","LI":"明宜里","LIN":"15鄰","STREET":"重信路","SECT":" ","MAREA":" ","LANE":" ","ALLEY":" ","HOUSE_NO":"１號六樓之７","E_COORD97":166124.82999999999,"N_COORD97":2570564.8900000001,"ADDRESS":"重信路１號六樓之７","OBJECTID":506961},"geometry":{"x":166124.83000000101,"y":2570564.8900000006}},{"attributes":{"ID":506989,"DIS_CODE":0,"TOWNNAME":"學甲區","LI":"明宜里","LIN":"15鄰","STREET":"重信路","SECT":" ","MAREA":" ","LANE":" ","ALLEY":" ","HOUSE_NO":"１號六樓之８","E_COORD97":166124.82999999999,"N_COORD97":2570564.8900000001,"ADDRESS":"重信路１號六樓之８","OBJECTID":506962},"geometry":{"x":166124.83000000101,"y":2570564.8900000006}},{"attributes":{"ID":506990,"DIS_CODE":0,"TOWNNAME":"學甲區","LI":"明宜里","LIN":"15鄰","STREET":"重信路","SECT":" ","MAREA":" ","LANE":" ","ALLEY":" ","HOUSE_NO":"１號六樓之９","E_COORD97":166124.82999999999,"N_COORD97":2570564.8900000001,"ADDRESS":"重信路１號六樓之９","OBJECTID":506963},"geometry":{"x":166124.83000000101,"y":2570564.8900000006}},{"attributes":{"ID":506991,"DIS_CODE":0,"TOWNNAME":"學甲區","LI":"明宜里","LIN":"15鄰","STREET":"重信路","SECT":" ","MAREA":" ","LANE":" ","ALLEY":" ","HOUSE_NO":"１號四樓之１","E_COORD97":166124.82999999999,"N_COORD97":2570564.8900000001,"ADDRESS":"重信路１號四樓之１","OBJECTID":506964},"geometry":{"x":166124.83000000101,"y":2570564.8900000006}},{"attributes":{"ID":506992,"DIS_CODE":0,"TOWNNAME":"學甲區","LI":"明宜里","LIN":"15鄰","STREET":"重信路","SECT":" ","MAREA":" ","LANE":" ","ALLEY":" ","HOUSE_NO":"１號四樓之１０","E_COORD97":166124.82999999999,"N_COORD97":2570564.8900000001,"ADDRESS":"重信路１號四樓之１０","OBJECTID":506965},"geometry":{"x":166124.83000000101,"y":2570564.8900000006}},{"attributes":{"ID":506993,"DIS_CODE":0,"TOWNNAME":"學甲區","LI":"明宜里","LIN":"15鄰","STREET":"重信路","SECT":" ","MAREA":" ","LANE":" ","ALLEY":" ","HOUSE_NO":"１號四樓之１１","E_COORD97":166124.82999999999,"N_COORD97":2570564.8900000001,"ADDRESS":"重信路１號四樓之１１","OBJECTID":506966},"geometry":{"x":166124.83000000101,"y":2570564.8900000006}},{"attributes":{"ID":506994,"DIS_CODE":0,"TOWNNAME":"學甲區","LI":"明宜里","LIN":"15鄰","STREET":"重信路","SECT":" ","MAREA":" ","LANE":" ","ALLEY":" ","HOUSE_NO":"１號四樓之１２","E_COORD97":166124.82999999999,"N_COORD97":2570564.8900000001,"ADDRESS":"重信路１號四樓之１２","OBJECTID":506967},"geometry":{"x":166124.83000000101,"y":2570564.8900000006}},{"attributes":{"ID":506995,"DIS_CODE":0,"TOWNNAME":"學甲區","LI":"明宜里","LIN":"15鄰","STREET":"重信路","SECT":" ","MAREA":" ","LANE":" ","ALLEY":" ","HOUSE_NO":"１號四樓之１３","E_COORD97":166124.82999999999,"N_COORD97":2570564.8900000001,"ADDRESS":"重信路１號四樓之１３","OBJECTID":506968},"geometry":{"x":166124.83000000101,"y":2570564.8900000006}},{"attributes":{"ID":506996,"DIS_CODE":0,"TOWNNAME":"學甲區","LI":"明宜里","LIN":"15鄰","STREET":"重信路","SECT":" ","MAREA":" ","LANE":" ","ALLEY":" ","HOUSE_NO":"１號四樓之１４","E_COORD97":166124.82999999999,"N_COORD97":2570564.8900000001,"ADDRESS":"重信路１號四樓之１４","OBJECTID":506969},"geometry":{"x":166124.83000000101,"y":2570564.8900000006}},{"attributes":{"ID":506997,"DIS_CODE":0,"TOWNNAME":"學甲區","LI":"明宜里","LIN":"15鄰","STREET":"重信路","SECT":" ","MAREA":" ","LANE":" ","ALLEY":" ","HOUSE_NO":"１號四樓之１５","E_COORD97":166124.82999999999,"N_COORD97":2570564.8900000001,"ADDRESS":"重信路１號四樓之１５","OBJECTID":506970},"geometry":{"x":166124.83000000101,"y":2570564.8900000006}},{"attributes":{"ID":506998,"DIS_CODE":0,"TOWNNAME":"學甲區","LI":"明宜里","LIN":"15鄰","STREET":"重信路","SECT":" ","MAREA":" ","LANE":" ","ALLEY":" ","HOUSE_NO":"１號四樓之２","E_COORD97":166124.82999999999,"N_COORD97":2570564.8900000001,"ADDRESS":"重信路１號四樓之２","OBJECTID":506971},"geometry":{"x":166124.83000000101,"y":2570564.8900000006}},{"attributes":{"ID":506999,"DIS_CODE":0,"TOWNNAME":"學甲區","LI":"明宜里","LIN":"15鄰","STREET":"重信路","SECT":" ","MAREA":" ","LANE":" ","ALLEY":" ","HOUSE_NO":"１號四樓之３","E_COORD97":166124.82999999999,"N_COORD97":2570564.8900000001,"ADDRESS":"重信路１號四樓之３","OBJECTID":506972},"geometry":{"x":166124.83000000101,"y":2570564.8900000006}},{"attributes":{"ID":507000,"DIS_CODE":0,"TOWNNAME":"學甲區","LI":"明宜里","LIN":"15鄰","STREET":"重信路","SECT":" ","MAREA":" ","LANE":" ","ALLEY":" ","HOUSE_NO":"１號四樓之４","E_COORD97":166124.82999999999,"N_COORD97":2570564.8900000001,"ADDRESS":"重信路１號四樓之４","OBJECTID":506973},"geometry":{"x":166124.83000000101,"y":2570564.8900000006}},{"attributes":{"ID":507001,"DIS_CODE":0,"TOWNNAME":"學甲區","LI":"明宜里","LIN":"15鄰","STREET":"重信路","SECT":" ","MAREA":" ","LANE":" ","ALLEY":" ","HOUSE_NO":"１號四樓之５","E_COORD97":166124.82999999999,"N_COORD97":2570564.8900000001,"ADDRESS":"重信路１號四樓之５","OBJECTID":506974},"geometry":{"x":166124.83000000101,"y":2570564.8900000006}},{"attributes":{"ID":507002,"DIS_CODE":0,"TOWNNAME":"歸仁區","LI":"八甲里","LIN":"15鄰","STREET":"大仁七街","SECT":" ","MAREA":" ","LANE":" ","ALLEY":" ","HOUSE_NO":"６０號五樓之１６","E_COORD97":178121.72,"N_COORD97":2541730.6200000001,"ADDRESS":"大仁七街６０號五樓之１６","OBJECTID":506975},"geometry":{"x":178121.7200000016,"y":2541730.6200000029}},{"attributes":{"ID":507003,"DIS_CODE":0,"TOWNNAME":"歸仁區","LI":"八甲里","LIN":"15鄰","STREET":"大仁七街","SECT":" ","MAREA":" ","LANE":" ","ALLEY":" ","HOUSE_NO":"６０號五樓之１","E_COORD97":178121.45000000001,"N_COORD97":2541730.6200000001,"ADDRESS":"大仁七街６０號五樓之１","OBJECTID":506976},"geometry":{"x":178121.45000000019,"y":2541730.6200000029}},{"attributes":{"ID":507004,"DIS_CODE":0,"TOWNNAME":"歸仁區","LI":"八甲里","LIN":"15鄰","STREET":"大仁七街","SECT":" ","MAREA":" ","LANE":" ","ALLEY":" ","HOUSE_NO":"６０號二樓之１４","E_COORD97":178121.70999999999,"N_COORD97":2541730.6200000001,"ADDRESS":"大仁七街６０號二樓之１４","OBJECTID":506977},"geometry":{"x":178121.70999999996,"y":2541730.6200000029}},{"attributes":{"ID":507005,"DIS_CODE":0,"TOWNNAME":"歸仁區","LI":"八甲里","LIN":"15鄰","STREET":"大仁七街","SECT":" ","MAREA":" ","LANE":" ","ALLEY":" ","HOUSE_NO":"６０號六樓之５","E_COORD97":178121.48000000001,"N_COORD97":2541730.6200000001,"ADDRESS":"大仁七街６０號六樓之５","OBJECTID":506978},"geometry":{"x":178121.48000000045,"y":2541730.6200000029}},{"attributes":{"ID":507006,"DIS_CODE":0,"TOWNNAME":"歸仁區","LI":"八甲里","LIN":"15鄰","STREET":"大仁七街","SECT":" ","MAREA":" ","LANE":" ","ALLEY":" ","HOUSE_NO":"６０號六樓之９","E_COORD97":178121.47,"N_COORD97":2541730.6200000001,"ADDRESS":"大仁七街６０號六樓之９","OBJECTID":506979},"geometry":{"x":178121.46999999974,"y":2541730.6200000029}},{"attributes":{"ID":507007,"DIS_CODE":0,"TOWNNAME":"歸仁區","LI":"八甲里","LIN":"15鄰","STREET":"大仁七街","SECT":" ","MAREA":" ","LANE":" ","ALLEY":" ","HOUSE_NO":"６０號二樓之１","E_COORD97":178121.45000000001,"N_COORD97":2541730.6200000001,"ADDRESS":"大仁七街６０號二樓之１","OBJECTID":506980},"geometry":{"x":178121.45000000019,"y":2541730.6200000029}},{"attributes":{"ID":507008,"DIS_CODE":0,"TOWNNAME":"歸仁區","LI":"八甲里","LIN":"15鄰","STREET":"大仁七街","SECT":" ","MAREA":" ","LANE":" ","ALLEY":" ","HOUSE_NO":"６０號二樓之１６","E_COORD97":178121.72,"N_COORD97":2541730.6200000001,"ADDRESS":"大仁七街６０號二樓之１６","OBJECTID":506981},"geometry":{"x":178121.7200000016,"y":2541730.6200000029}},{"attributes":{"ID":507009,"DIS_CODE":0,"TOWNNAME":"歸仁區","LI":"八甲里","LIN":"15鄰","STREET":"大仁七街","SECT":" ","MAREA":" ","LANE":" ","ALLEY":" ","HOUSE_NO":"６０號四樓之１１","E_COORD97":178121.70000000001,"N_COORD97":2541730.6200000001,"ADDRESS":"大仁七街６０號四樓之１１","OBJECTID":506982},"geometry":{"x":178121.70000000019,"y":2541730.6200000029}},{"attributes":{"ID":507010,"DIS_CODE":0,"TOWNNAME":"歸仁區","LI":"八甲里","LIN":"15鄰","STREET":"大仁七街","SECT":" ","MAREA":" ","LANE":" ","ALLEY":" ","HOUSE_NO":"６０號六樓之１７","E_COORD97":178121.72,"N_COORD97":2541730.6200000001,"ADDRESS":"大仁七街６０號六樓之１７","OBJECTID":506983},"geometry":{"x":178121.7200000016,"y":2541730.6200000029}},{"attributes":{"ID":507011,"DIS_CODE":0,"TOWNNAME":"歸仁區","LI":"八甲里","LIN":"15鄰","STREET":"大仁七街","SECT":" ","MAREA":" ","LANE":" ","ALLEY":" ","HOUSE_NO":"６０號二樓之１１","E_COORD97":178121.70000000001,"N_COORD97":2541730.6200000001,"ADDRESS":"大仁七街６０號二樓之１１","OBJECTID":506984},"geometry":{"x":178121.70000000019,"y":2541730.6200000029}},{"attributes":{"ID":507012,"DIS_CODE":0,"TOWNNAME":"歸仁區","LI":"八甲里","LIN":"15鄰","STREET":"大仁七街","SECT":" ","MAREA":" ","LANE":" ","ALLEY":" ","HOUSE_NO":"６０號二樓之１２","E_COORD97":178121.73000000001,"N_COORD97":2541730.6200000001,"ADDRESS":"大仁七街６０號二樓之１２","OBJECTID":506985},"geometry":{"x":178121.73000000045,"y":2541730.6200000029}},{"attributes":{"ID":507013,"DIS_CODE":0,"TOWNNAME":"歸仁區","LI":"八甲里","LIN":"15鄰","STREET":"大仁七街","SECT":" ","MAREA":" ","LANE":" ","ALLEY":" ","HOUSE_NO":"６０號二樓之１３","E_COORD97":178121.72,"N_COORD97":2541730.6200000001,"ADDRESS":"大仁七街６０號二樓之１３","OBJECTID":506986},"geometry":{"x":178121.7200000016,"y":2541730.6200000029}},{"attributes":{"ID":507014,"DIS_CODE":0,"TOWNNAME":"中西區","LI":"三合里","LIN":"15鄰","STREET":"文賢路","SECT":" ","MAREA":" ","LANE":" ","ALLEY":" ","HOUSE_NO":"９４號","E_COORD97":167436.48000000001,"N_COORD97":2544647.5699999998,"ADDRESS":"文賢路９４號","OBJECTID":506987},"geometry":{"x":167436.48000000138,"y":2544647.5700000003}},{"attributes":{"ID":507015,"DIS_CODE":0,"TOWNNAME":"歸仁區","LI":"八甲里","LIN":"15鄰","STREET":"大仁七街","SECT":" ","MAREA":" ","LANE":" ","ALLEY":" ","HOUSE_NO":"６０號四樓之３","E_COORD97":178121.47,"N_COORD97":2541730.6200000001,"ADDRESS":"大仁七街６０號四樓之３","OBJECTID":506988},"geometry":{"x":178121.46999999974,"y":2541730.6200000029}},{"attributes":{"ID":507016,"DIS_CODE":0,"TOWNNAME":"歸仁區","LI":"八甲里","LIN":"15鄰","STREET":"大仁七街","SECT":" ","MAREA":" ","LANE":" ","ALLEY":" ","HOUSE_NO":"６０號四樓之５","E_COORD97":178121.48000000001,"N_COORD97":2541730.6200000001,"ADDRESS":"大仁七街６０號四樓之５","OBJECTID":506989},"geometry":{"x":178121.48000000045,"y":2541730.6200000029}},{"attributes":{"ID":507017,"DIS_CODE":0,"TOWNNAME":"歸仁區","LI":"八甲里","LIN":"15鄰","STREET":"大仁七街","SECT":" ","MAREA":" ","LANE":" ","ALLEY":" ","HOUSE_NO":"６０號六樓之１３","E_COORD97":178121.72,"N_COORD97":2541730.6200000001,"ADDRESS":"大仁七街６０號六樓之１３","OBJECTID":506990},"geometry":{"x":178121.7200000016,"y":2541730.6200000029}},{"attributes":{"ID":507018,"DIS_CODE":0,"TOWNNAME":"歸仁區","LI":"八甲里","LIN":"15鄰","STREET":"大仁七街","SECT":" ","MAREA":" ","LANE":" ","ALLEY":" ","HOUSE_NO":"６０號五樓之１０","E_COORD97":178121.70999999999,"N_COORD97":2541730.6200000001,"ADDRESS":"大仁七街６０號五樓之１０","OBJECTID":506991},"geometry":{"x":178121.70999999996,"y":2541730.6200000029}},{"attributes":{"ID":507019,"DIS_CODE":0,"TOWNNAME":"歸仁區","LI":"八甲里","LIN":"15鄰","STREET":"大仁七街","SECT":" ","MAREA":" ","LANE":" ","ALLEY":" ","HOUSE_NO":"６０號三樓之１５","E_COORD97":178121.73000000001,"N_COORD97":2541730.6200000001,"ADDRESS":"大仁七街６０號三樓之１５","OBJECTID":506992},"geometry":{"x":178121.73000000045,"y":2541730.6200000029}},{"attributes":{"ID":507020,"DIS_CODE":0,"TOWNNAME":"歸仁區","LI":"八甲里","LIN":"15鄰","STREET":"大仁七街","SECT":" ","MAREA":" ","LANE":" ","ALLEY":" ","HOUSE_NO":"６０號五樓之１７","E_COORD97":178121.72,"N_COORD97":2541730.6200000001,"ADDRESS":"大仁七街６０號五樓之１７","OBJECTID":506993},"geometry":{"x":178121.7200000016,"y":2541730.6200000029}},{"attributes":{"ID":507021,"DIS_CODE":0,"TOWNNAME":"歸仁區","LI":"八甲里","LIN":"15鄰","STREET":"大仁七街","SECT":" ","MAREA":" ","LANE":" ","ALLEY":" ","HOUSE_NO":"６０號三樓之７","E_COORD97":178121.47,"N_COORD97":2541730.6200000001,"ADDRESS":"大仁七街６０號三樓之７","OBJECTID":506994},"geometry":{"x":178121.46999999974,"y":2541730.6200000029}},{"attributes":{"ID":507022,"DIS_CODE":0,"TOWNNAME":"歸仁區","LI":"八甲里","LIN":"15鄰","STREET":"大仁七街","SECT":" ","MAREA":" ","LANE":" ","ALLEY":" ","HOUSE_NO":"６０號五樓之１５","E_COORD97":178121.73000000001,"N_COORD97":2541730.6200000001,"ADDRESS":"大仁七街６０號五樓之１５","OBJECTID":506995},"geometry":{"x":178121.73000000045,"y":2541730.6200000029}},{"attributes":{"ID":507023,"DIS_CODE":0,"TOWNNAME":"歸仁區","LI":"八甲里","LIN":"15鄰","STREET":"大仁七街","SECT":" ","MAREA":" ","LANE":" ","ALLEY":" ","HOUSE_NO":"６０號六樓之６","E_COORD97":178121.47,"N_COORD97":2541730.6200000001,"ADDRESS":"大仁七街６０號六樓之６","OBJECTID":506996},"geometry":{"x":178121.46999999974,"y":2541730.6200000029}},{"attributes":{"ID":507024,"DIS_CODE":0,"TOWNNAME":"歸仁區","LI":"八甲里","LIN":"15鄰","STREET":"大仁七街","SECT":" ","MAREA":" ","LANE":" ","ALLEY":" ","HOUSE_NO":"６０號二樓之９","E_COORD97":178121.47,"N_COORD97":2541730.6200000001,"ADDRESS":"大仁七街６０號二樓之９","OBJECTID":506997},"geometry":{"x":178121.46999999974,"y":2541730.6200000029}},{"attributes":{"ID":507025,"DIS_CODE":0,"TOWNNAME":"歸仁區","LI":"八甲里","LIN":"15鄰","STREET":"大仁七街","SECT":" ","MAREA":" ","LANE":" ","ALLEY":" ","HOUSE_NO":"６０號六樓之１９","E_COORD97":178121.72,"N_COORD97":2541730.6200000001,"ADDRESS":"大仁七街６０號六樓之１９","OBJECTID":506998},"geometry":{"x":178121.7200000016,"y":2541730.6200000029}},{"attributes":{"ID":507026,"DIS_CODE":0,"TOWNNAME":"歸仁區","LI":"八甲里","LIN":"15鄰","STREET":"大仁七街","SECT":" ","MAREA":" ","LANE":" ","ALLEY":" ","HOUSE_NO":"６０號二樓之１５","E_COORD97":178121.73000000001,"N_COORD97":2541730.6200000001,"ADDRESS":"大仁七街６０號二樓之１５","OBJECTID":506999},"geometry":{"x":178121.73000000045,"y":2541730.6200000029}},{"attributes":{"ID":507027,"DIS_CODE":0,"TOWNNAME":"歸仁區","LI":"八甲里","LIN":"15鄰","STREET":"大仁七街","SECT":" ","MAREA":" ","LANE":" ","ALLEY":" ","HOUSE_NO":"６０號三樓之５","E_COORD97":178121.48000000001,"N_COORD97":2541730.6200000001,"ADDRESS":"大仁七街６０號三樓之５","OBJECTID":507000},"geometry":{"x":178121.48000000045,"y":2541730.6200000029}}]}