{"displayFieldName":"TOWNNAME","fieldAliases":{"ID":"ID","DIS_CODE":"DIS_CODE","TOWNNAME":"TOWNNAME","LI":"LI","LIN":"LIN","STREET":"STREET","SECT":"SECT","MAREA":"MAREA","LANE":"LANE","ALLEY":"ALLEY","HOUSE_NO":"HOUSE_NO","E_COORD97":"E_COORD97","N_COORD97":"N_COORD97","ADDRESS":"ADDRESS","OBJECTID":"OBJECTID"},"geometryType":"esriGeometryPoint","spatialReference":{"wkid":102443,"latestWkid":3826},"fields":[{"name":"ID","type":"esriFieldTypeDouble","alias":"ID"},{"name":"DIS_CODE","type":"esriFieldTypeInteger","alias":"DIS_CODE"},{"name":"TOWNNAME","type":"esriFieldTypeString","alias":"TOWNNAME","length":8},{"name":"LI","type":"esriFieldTypeString","alias":"LI","length":8},{"name":"LIN","type":"esriFieldTypeString","alias":"LIN","length":12},{"name":"STREET","type":"esriFieldTypeString","alias":"STREET","length":20},{"name":"SECT","type":"esriFieldTypeString","alias":"SECT","length":8},{"name":"MAREA","type":"esriFieldTypeString","alias":"MAREA","length":12},{"name":"LANE","type":"esriFieldTypeString","alias":"LANE","length":10},{"name":"ALLEY","type":"esriFieldTypeString","alias":"ALLEY","length":10},{"name":"HOUSE_NO","type":"esriFieldTypeString","alias":"HOUSE_NO","length":20},{"name":"E_COORD97","type":"esriFieldTypeDouble","alias":"E_COORD97"},{"name":"N_COORD97","type":"esriFieldTypeDouble","alias":"N_COORD97"},{"name":"ADDRESS","type":"esriFieldTypeString","alias":"ADDRESS","length":50},{"name":"OBJECTID","type":"esriFieldTypeOID","alias":"OBJECTID"}],"features":[{"attributes":{"ID":196002,"DIS_CODE":0,"TOWNNAME":"安南區","LI":"安富里","LIN":"18鄰","STREET":"安富街","SECT":" ","MAREA":" ","LANE":"１９９巷","ALLEY":"５弄","HOUSE_NO":"９號","E_COORD97":167731.07000000001,"N_COORD97":2547421.1600000001,"ADDRESS":"安富街１９９巷５弄９號","OBJECTID":196001},"geometry":{"x":167731.0700000003,"y":2547421.160000002}},{"attributes":{"ID":196003,"DIS_CODE":0,"TOWNNAME":"安南區","LI":"梅花里","LIN":"18鄰","STREET":"同安路","SECT":" ","MAREA":" ","LANE":"３８２巷","ALLEY":"１４弄","HOUSE_NO":"１號","E_COORD97":167360.14000000001,"N_COORD97":2549300.0299999998,"ADDRESS":"同安路３８２巷１４弄１號","OBJECTID":196002},"geometry":{"x":167360.1400000006,"y":2549300.0300000012}},{"attributes":{"ID":196004,"DIS_CODE":0,"TOWNNAME":"安南區","LI":"梅花里","LIN":"18鄰","STREET":"同安路","SECT":" ","MAREA":" ","LANE":"３８２巷","ALLEY":"１４弄","HOUSE_NO":"３號","E_COORD97":167358.23000000001,"N_COORD97":2549296.4199999999,"ADDRESS":"同安路３８２巷１４弄３號","OBJECTID":196003},"geometry":{"x":167358.23000000138,"y":2549296.4199999999}},{"attributes":{"ID":196005,"DIS_CODE":0,"TOWNNAME":"安南區","LI":"梅花里","LIN":"18鄰","STREET":"同安路","SECT":" ","MAREA":" ","LANE":"３８２巷","ALLEY":"１４弄","HOUSE_NO":"５號","E_COORD97":167355.89000000001,"N_COORD97":2549292.5899999999,"ADDRESS":"同安路３８２巷１４弄５號","OBJECTID":196004},"geometry":{"x":167355.89000000153,"y":2549292.5900000017}},{"attributes":{"ID":196006,"DIS_CODE":0,"TOWNNAME":"安南區","LI":"梅花里","LIN":"18鄰","STREET":"同安路","SECT":" ","MAREA":" ","LANE":"３８２巷","ALLEY":"１４弄","HOUSE_NO":"７號","E_COORD97":167352.70000000001,"N_COORD97":2549290.25,"ADDRESS":"同安路３８２巷１４弄７號","OBJECTID":196005},"geometry":{"x":167352.70000000205,"y":2549290.25}},{"attributes":{"ID":196007,"DIS_CODE":0,"TOWNNAME":"安南區","LI":"梅花里","LIN":"18鄰","STREET":"同安路","SECT":" ","MAREA":" ","LANE":"３８２巷","ALLEY":"１４弄","HOUSE_NO":"９號","E_COORD97":167367.14000000001,"N_COORD97":2549286.48,"ADDRESS":"同安路３８２巷１４弄９號","OBJECTID":196006},"geometry":{"x":167367.13999999966,"y":2549286.4799999986}},{"attributes":{"ID":196008,"DIS_CODE":0,"TOWNNAME":"西港區","LI":"慶安里","LIN":"3鄰","STREET":" ","SECT":" ","MAREA":"中州","LANE":" ","ALLEY":" ","HOUSE_NO":"２０號之２","E_COORD97":167291.35000000001,"N_COORD97":2559858.3300000001,"ADDRESS":"中州２０號之２","OBJECTID":196007},"geometry":{"x":167291.34999999963,"y":2559858.3299999982}},{"attributes":{"ID":196009,"DIS_CODE":0,"TOWNNAME":"安南區","LI":"梅花里","LIN":"18鄰","STREET":"同安路","SECT":" ","MAREA":" ","LANE":"３８２巷","ALLEY":"１４弄","HOUSE_NO":"１１號","E_COORD97":167370.75,"N_COORD97":2549285.2000000002,"ADDRESS":"同安路３８２巷１４弄１１號","OBJECTID":196008},"geometry":{"x":167370.75000000186,"y":2549285.2000000011}},{"attributes":{"ID":196010,"DIS_CODE":0,"TOWNNAME":"安南區","LI":"梅花里","LIN":"18鄰","STREET":"同安路","SECT":" ","MAREA":" ","LANE":"３８２巷","ALLEY":"１４弄","HOUSE_NO":"１３號","E_COORD97":167359.5,"N_COORD97":2549266.4399999999,"ADDRESS":"同安路３８２巷１４弄１３號","OBJECTID":196009},"geometry":{"x":167359.50000000093,"y":2549266.4400000013}},{"attributes":{"ID":196011,"DIS_CODE":0,"TOWNNAME":"安南區","LI":"梅花里","LIN":"18鄰","STREET":"同安路","SECT":" ","MAREA":" ","LANE":"３８２巷","ALLEY":"１４弄","HOUSE_NO":"１５號","E_COORD97":167355.25,"N_COORD97":2549268.5699999998,"ADDRESS":"同安路３８２巷１４弄１５號","OBJECTID":196010},"geometry":{"x":167355.25,"y":2549268.5700000003}},{"attributes":{"ID":196012,"DIS_CODE":0,"TOWNNAME":"安南區","LI":"梅花里","LIN":"18鄰","STREET":"同安路","SECT":" ","MAREA":" ","LANE":"３８２巷","ALLEY":"１４弄","HOUSE_NO":"１７號","E_COORD97":167352.48000000001,"N_COORD97":2549270.9100000001,"ADDRESS":"同安路３８２巷１４弄１７號","OBJECTID":196011},"geometry":{"x":167352.48000000045,"y":2549270.910000002}},{"attributes":{"ID":196013,"DIS_CODE":0,"TOWNNAME":"安南區","LI":"梅花里","LIN":"18鄰","STREET":"同安路","SECT":" ","MAREA":" ","LANE":"３８２巷","ALLEY":"１４弄","HOUSE_NO":"１９號","E_COORD97":167348.87,"N_COORD97":2549274.3100000001,"ADDRESS":"同安路３８２巷１４弄１９號","OBJECTID":196012},"geometry":{"x":167348.87000000104,"y":2549274.3100000042}},{"attributes":{"ID":196014,"DIS_CODE":0,"TOWNNAME":"安南區","LI":"梅花里","LIN":"18鄰","STREET":"同安路","SECT":" ","MAREA":" ","LANE":"３８２巷","ALLEY":"１４弄","HOUSE_NO":"２１號","E_COORD97":167343.12,"N_COORD97":2549282.6000000001,"ADDRESS":"同安路３８２巷１４弄２１號","OBJECTID":196013},"geometry":{"x":167343.12000000104,"y":2549282.6000000015}},{"attributes":{"ID":196015,"DIS_CODE":0,"TOWNNAME":"安南區","LI":"梅花里","LIN":"18鄰","STREET":"同安路","SECT":" ","MAREA":" ","LANE":"３８２巷","ALLEY":"１４弄","HOUSE_NO":"２３號","E_COORD97":167339.29000000001,"N_COORD97":2549276.4300000002,"ADDRESS":"同安路３８２巷１４弄２３號","OBJECTID":196014},"geometry":{"x":167339.29000000004,"y":2549276.4300000016}},{"attributes":{"ID":196016,"DIS_CODE":0,"TOWNNAME":"中西區","LI":"萬昌里","LIN":"18鄰","STREET":"青年路","SECT":" ","MAREA":" ","LANE":"１３２巷","ALLEY":"３１弄","HOUSE_NO":"１４號","E_COORD97":168971.45000000001,"N_COORD97":2543530.4100000001,"ADDRESS":"青年路１３２巷３１弄１４號","OBJECTID":196015},"geometry":{"x":168971.45000000019,"y":2543530.410000002}},{"attributes":{"ID":196017,"DIS_CODE":0,"TOWNNAME":"中西區","LI":"萬昌里","LIN":"18鄰","STREET":"青年路","SECT":" ","MAREA":" ","LANE":"１６４巷","ALLEY":"３０弄","HOUSE_NO":"１號","E_COORD97":169007.64000000001,"N_COORD97":2543504.8999999999,"ADDRESS":"青年路１６４巷３０弄１號","OBJECTID":196016},"geometry":{"x":169007.6400000006,"y":2543504.9000000004}},{"attributes":{"ID":196018,"DIS_CODE":0,"TOWNNAME":"中西區","LI":"萬昌里","LIN":"18鄰","STREET":"青年路","SECT":" ","MAREA":" ","LANE":"１６４巷","ALLEY":"３０弄","HOUSE_NO":"２號","E_COORD97":169003.20999999999,"N_COORD97":2543516.3199999998,"ADDRESS":"青年路１６４巷３０弄２號","OBJECTID":196017},"geometry":{"x":169003.20999999996,"y":2543516.3200000003}},{"attributes":{"ID":196019,"DIS_CODE":0,"TOWNNAME":"安定區","LI":"中沙里","LIN":"3鄰","STREET":" ","SECT":" ","MAREA":"中崙","LANE":" ","ALLEY":" ","HOUSE_NO":"１０８號","E_COORD97":169041.51000000001,"N_COORD97":2553189.25,"ADDRESS":"中崙１０８號","OBJECTID":196018},"geometry":{"x":169041.50999999978,"y":2553189.25}},{"attributes":{"ID":196020,"DIS_CODE":0,"TOWNNAME":"安定區","LI":"港口里","LIN":"3鄰","STREET":" ","SECT":" ","MAREA":"港口","LANE":" ","ALLEY":" ","HOUSE_NO":"２５３號之２６","E_COORD97":171691.88,"N_COORD97":2554886.2999999998,"ADDRESS":"港口２５３號之２６","OBJECTID":196019},"geometry":{"x":171691.87999999989,"y":2554886.3000000026}},{"attributes":{"ID":196021,"DIS_CODE":0,"TOWNNAME":"安定區","LI":"港口里","LIN":"3鄰","STREET":" ","SECT":" ","MAREA":"港口","LANE":" ","ALLEY":" ","HOUSE_NO":"２５３之１１號","E_COORD97":171706.84,"N_COORD97":2554937.2999999998,"ADDRESS":"港口２５３之１１號","OBJECTID":196020},"geometry":{"x":171706.84000000078,"y":2554937.3000000026}},{"attributes":{"ID":196022,"DIS_CODE":0,"TOWNNAME":"安定區","LI":"港口里","LIN":"3鄰","STREET":" ","SECT":" ","MAREA":"港口","LANE":" ","ALLEY":" ","HOUSE_NO":"２５３之６２號","E_COORD97":171628.44,"N_COORD97":2554882.2999999998,"ADDRESS":"港口２５３之６２號","OBJECTID":196021},"geometry":{"x":171628.44000000134,"y":2554882.3000000045}},{"attributes":{"ID":196023,"DIS_CODE":0,"TOWNNAME":"北區","LI":"大港里","LIN":"21鄰","STREET":"大和路","SECT":" ","MAREA":" ","LANE":" ","ALLEY":" ","HOUSE_NO":"２５３號","E_COORD97":166926.34,"N_COORD97":2546063.3100000001,"ADDRESS":"大和路２５３號","OBJECTID":196022},"geometry":{"x":166926.34000000078,"y":2546063.3100000005}},{"attributes":{"ID":196024,"DIS_CODE":0,"TOWNNAME":"中西區","LI":"萬昌里","LIN":"18鄰","STREET":"青年路","SECT":" ","MAREA":" ","LANE":"１６４巷","ALLEY":"３０弄","HOUSE_NO":"３號","E_COORD97":169003.67000000001,"N_COORD97":2543505.4900000002,"ADDRESS":"青年路１６４巷３０弄３號","OBJECTID":196023},"geometry":{"x":169003.67000000179,"y":2543505.4900000002}},{"attributes":{"ID":196025,"DIS_CODE":0,"TOWNNAME":"中西區","LI":"萬昌里","LIN":"18鄰","STREET":"青年路","SECT":" ","MAREA":" ","LANE":"１６４巷","ALLEY":"３０弄","HOUSE_NO":"４號","E_COORD97":168998.56,"N_COORD97":2543517.3599999999,"ADDRESS":"青年路１６４巷３０弄４號","OBJECTID":196024},"geometry":{"x":168998.55999999959,"y":2543517.3600000013}},{"attributes":{"ID":196026,"DIS_CODE":0,"TOWNNAME":"中西區","LI":"萬昌里","LIN":"18鄰","STREET":"青年路","SECT":" ","MAREA":" ","LANE":"１６４巷","ALLEY":"３０弄","HOUSE_NO":"５號","E_COORD97":168999.17000000001,"N_COORD97":2543506.0099999998,"ADDRESS":"青年路１６４巷３０弄５號","OBJECTID":196025},"geometry":{"x":168999.17000000086,"y":2543506.0100000016}},{"attributes":{"ID":196027,"DIS_CODE":0,"TOWNNAME":"中西區","LI":"萬昌里","LIN":"18鄰","STREET":"青年路","SECT":" ","MAREA":" ","LANE":"１６４巷","ALLEY":"３０弄","HOUSE_NO":"６號","E_COORD97":168994.37,"N_COORD97":2543517.71,"ADDRESS":"青年路１６４巷３０弄６號","OBJECTID":196026},"geometry":{"x":168994.37000000104,"y":2543517.7100000009}},{"attributes":{"ID":196028,"DIS_CODE":0,"TOWNNAME":"中西區","LI":"萬昌里","LIN":"18鄰","STREET":"青年路","SECT":" ","MAREA":" ","LANE":"１６４巷","ALLEY":"３０弄","HOUSE_NO":"７號","E_COORD97":168994.88,"N_COORD97":2543506.9500000002,"ADDRESS":"青年路１６４巷３０弄７號","OBJECTID":196027},"geometry":{"x":168994.87999999989,"y":2543506.9499999993}},{"attributes":{"ID":196029,"DIS_CODE":0,"TOWNNAME":"安南區","LI":"淵東里","LIN":"4鄰","STREET":"仁安一街","SECT":" ","MAREA":" ","LANE":" ","ALLEY":" ","HOUSE_NO":"５８號","E_COORD97":165716.26999999999,"N_COORD97":2550274.98,"ADDRESS":"仁安一街５８號","OBJECTID":196028},"geometry":{"x":165716.27000000048,"y":2550274.9800000023}},{"attributes":{"ID":196030,"DIS_CODE":0,"TOWNNAME":"中西區","LI":"萬昌里","LIN":"18鄰","STREET":"青年路","SECT":" ","MAREA":" ","LANE":"１６４巷","ALLEY":"３０弄","HOUSE_NO":"８號","E_COORD97":168990.69,"N_COORD97":2543518.02,"ADDRESS":"青年路１６４巷３０弄８號","OBJECTID":196029},"geometry":{"x":168990.69000000134,"y":2543518.0199999996}},{"attributes":{"ID":196031,"DIS_CODE":0,"TOWNNAME":"中西區","LI":"萬昌里","LIN":"18鄰","STREET":"青年路","SECT":" ","MAREA":" ","LANE":"１６４巷","ALLEY":"３６弄","HOUSE_NO":"１０號","E_COORD97":168975.44,"N_COORD97":2543499.96,"ADDRESS":"青年路１６４巷３６弄１０號","OBJECTID":196030},"geometry":{"x":168975.44000000134,"y":2543499.9600000046}},{"attributes":{"ID":196032,"DIS_CODE":0,"TOWNNAME":"中西區","LI":"萬昌里","LIN":"18鄰","STREET":"青年路","SECT":" ","MAREA":" ","LANE":"１６４巷","ALLEY":"３６弄","HOUSE_NO":"１１號","E_COORD97":168976.26000000001,"N_COORD97":2543489.21,"ADDRESS":"青年路１６４巷３６弄１１號","OBJECTID":196031},"geometry":{"x":168976.26000000071,"y":2543489.2100000028}},{"attributes":{"ID":196033,"DIS_CODE":0,"TOWNNAME":"中西區","LI":"萬昌里","LIN":"18鄰","STREET":"青年路","SECT":" ","MAREA":" ","LANE":"１６４巷","ALLEY":"３６弄","HOUSE_NO":"１２號","E_COORD97":168971.98000000001,"N_COORD97":2543500.48,"ADDRESS":"青年路１６４巷３６弄１２號","OBJECTID":196032},"geometry":{"x":168971.98000000138,"y":2543500.4800000023}},{"attributes":{"ID":196034,"DIS_CODE":0,"TOWNNAME":"中西區","LI":"萬昌里","LIN":"18鄰","STREET":"青年路","SECT":" ","MAREA":" ","LANE":"１６４巷","ALLEY":"３６弄","HOUSE_NO":"１３號","E_COORD97":168972.92000000001,"N_COORD97":2543489.73,"ADDRESS":"青年路１６４巷３６弄１３號","OBJECTID":196033},"geometry":{"x":168972.91999999993,"y":2543489.7300000004}},{"attributes":{"ID":196035,"DIS_CODE":0,"TOWNNAME":"安南區","LI":"淵東里","LIN":"4鄰","STREET":"仁安一街","SECT":" ","MAREA":" ","LANE":" ","ALLEY":" ","HOUSE_NO":"６０號","E_COORD97":165720.54999999999,"N_COORD97":2550276.71,"ADDRESS":"仁安一街６０號","OBJECTID":196034},"geometry":{"x":165720.54999999981,"y":2550276.7100000028}},{"attributes":{"ID":196036,"DIS_CODE":0,"TOWNNAME":"中西區","LI":"萬昌里","LIN":"18鄰","STREET":"青年路","SECT":" ","MAREA":" ","LANE":"１６４巷","ALLEY":"３６弄","HOUSE_NO":"１４號","E_COORD97":168969.26000000001,"N_COORD97":2543501.1099999999,"ADDRESS":"青年路１６４巷３６弄１４號","OBJECTID":196035},"geometry":{"x":168969.26000000071,"y":2543501.1100000013}},{"attributes":{"ID":196037,"DIS_CODE":0,"TOWNNAME":"中西區","LI":"萬昌里","LIN":"18鄰","STREET":"青年路","SECT":" ","MAREA":" ","LANE":"１６４巷","ALLEY":"３６弄","HOUSE_NO":"１５號","E_COORD97":168970.09,"N_COORD97":2543490.2599999998,"ADDRESS":"青年路１６４巷３６弄１５號","OBJECTID":196036},"geometry":{"x":168970.08999999985,"y":2543490.2600000016}},{"attributes":{"ID":196038,"DIS_CODE":0,"TOWNNAME":"中西區","LI":"萬昌里","LIN":"18鄰","STREET":"青年路","SECT":" ","MAREA":" ","LANE":"１６４巷","ALLEY":"３６弄","HOUSE_NO":"１６號","E_COORD97":168966.01999999999,"N_COORD97":2543501.5299999998,"ADDRESS":"青年路１６４巷３６弄１６號","OBJECTID":196037},"geometry":{"x":168966.02000000048,"y":2543501.5300000012}},{"attributes":{"ID":196039,"DIS_CODE":0,"TOWNNAME":"中西區","LI":"萬昌里","LIN":"18鄰","STREET":"青年路","SECT":" ","MAREA":" ","LANE":"１６４巷","ALLEY":"３６弄","HOUSE_NO":"１７號","E_COORD97":168966.54000000001,"N_COORD97":2543490.4700000002,"ADDRESS":"青年路１６４巷３６弄１７號","OBJECTID":196038},"geometry":{"x":168966.54000000097,"y":2543490.4700000025}},{"attributes":{"ID":196040,"DIS_CODE":0,"TOWNNAME":"中西區","LI":"萬昌里","LIN":"18鄰","STREET":"青年路","SECT":" ","MAREA":" ","LANE":"１６４巷","ALLEY":"２５弄","HOUSE_NO":"２號","E_COORD97":169025.37,"N_COORD97":2543532.1299999999,"ADDRESS":"青年路１６４巷２５弄２號","OBJECTID":196039},"geometry":{"x":169025.37000000104,"y":2543532.1300000008}},{"attributes":{"ID":196041,"DIS_CODE":0,"TOWNNAME":"中西區","LI":"萬昌里","LIN":"18鄰","STREET":"青年路","SECT":" ","MAREA":" ","LANE":"１６４巷","ALLEY":"２５弄","HOUSE_NO":"４號","E_COORD97":169034.95999999999,"N_COORD97":2543527.3700000001,"ADDRESS":"青年路１６４巷２５弄４號","OBJECTID":196040},"geometry":{"x":169034.95999999996,"y":2543527.370000001}},{"attributes":{"ID":196042,"DIS_CODE":0,"TOWNNAME":"中西區","LI":"萬昌里","LIN":"18鄰","STREET":"青年路","SECT":" ","MAREA":" ","LANE":"１６４巷","ALLEY":"２７弄","HOUSE_NO":"１０號","E_COORD97":169025.06,"N_COORD97":2543529.4100000001,"ADDRESS":"青年路１６４巷２７弄１０號","OBJECTID":196041},"geometry":{"x":169025.06000000052,"y":2543529.4100000001}},{"attributes":{"ID":196043,"DIS_CODE":0,"TOWNNAME":"中西區","LI":"萬昌里","LIN":"18鄰","STREET":"青年路","SECT":" ","MAREA":" ","LANE":"１６４巷","ALLEY":"２７弄","HOUSE_NO":"２號","E_COORD97":169024.64000000001,"N_COORD97":2543526.7000000002,"ADDRESS":"青年路１６４巷２７弄２號","OBJECTID":196042},"geometry":{"x":169024.6400000006,"y":2543526.6999999993}},{"attributes":{"ID":196044,"DIS_CODE":0,"TOWNNAME":"中西區","LI":"萬昌里","LIN":"18鄰","STREET":"青年路","SECT":" ","MAREA":" ","LANE":"１６４巷","ALLEY":"２７弄","HOUSE_NO":"４號","E_COORD97":169024.42999999999,"N_COORD97":2543524.71,"ADDRESS":"青年路１６４巷２７弄４號","OBJECTID":196043},"geometry":{"x":169024.43000000063,"y":2543524.7100000009}},{"attributes":{"ID":196045,"DIS_CODE":0,"TOWNNAME":"中西區","LI":"萬昌里","LIN":"18鄰","STREET":"青年路","SECT":" ","MAREA":" ","LANE":"１６４巷","ALLEY":"２７弄","HOUSE_NO":"８號","E_COORD97":169023.39000000001,"N_COORD97":2543519.7999999998,"ADDRESS":"青年路１６４巷２７弄８號","OBJECTID":196044},"geometry":{"x":169023.38999999966,"y":2543519.8000000007}},{"attributes":{"ID":196046,"DIS_CODE":0,"TOWNNAME":"中西區","LI":"萬昌里","LIN":"18鄰","STREET":"青年路","SECT":" ","MAREA":" ","LANE":"１６４巷","ALLEY":"３３弄","HOUSE_NO":"１０號","E_COORD97":168982.22,"N_COORD97":2543508.9300000002,"ADDRESS":"青年路１６４巷３３弄１０號","OBJECTID":196045},"geometry":{"x":168982.21999999974,"y":2543508.9299999978}},{"attributes":{"ID":196047,"DIS_CODE":0,"TOWNNAME":"安南區","LI":"淵東里","LIN":"4鄰","STREET":"仁安一街","SECT":" ","MAREA":" ","LANE":" ","ALLEY":" ","HOUSE_NO":"６２號","E_COORD97":165723.81,"N_COORD97":2550277.73,"ADDRESS":"仁安一街６２號","OBJECTID":196046},"geometry":{"x":165723.80999999866,"y":2550277.7300000004}},{"attributes":{"ID":196048,"DIS_CODE":0,"TOWNNAME":"新化區","LI":"全興里","LIN":"21鄰","STREET":" ","SECT":" ","MAREA":"竹子\u25A0","LANE":" ","ALLEY":" ","HOUSE_NO":"２４７號之４９８","E_COORD97":178400.19,"N_COORD97":2546631.2599999998,"ADDRESS":"竹子\u25A0２４７號之４９８","OBJECTID":196047},"geometry":{"x":178400.19000000041,"y":2546631.2599999998}},{"attributes":{"ID":196049,"DIS_CODE":0,"TOWNNAME":"中西區","LI":"萬昌里","LIN":"18鄰","STREET":"青年路","SECT":" ","MAREA":" ","LANE":"１６４巷","ALLEY":"３３弄","HOUSE_NO":"１２號","E_COORD97":168985.78,"N_COORD97":2543508.2000000002,"ADDRESS":"青年路１６４巷３３弄１２號","OBJECTID":196048},"geometry":{"x":168985.78000000026,"y":2543508.2000000011}},{"attributes":{"ID":196050,"DIS_CODE":0,"TOWNNAME":"中西區","LI":"萬昌里","LIN":"18鄰","STREET":"青年路","SECT":" ","MAREA":" ","LANE":"１６４巷","ALLEY":"３３弄","HOUSE_NO":"１４號","E_COORD97":168989.01999999999,"N_COORD97":2543507.9900000002,"ADDRESS":"青年路１６４巷３３弄１４號","OBJECTID":196049},"geometry":{"x":168989.01999999862,"y":2543507.9900000002}},{"attributes":{"ID":196051,"DIS_CODE":0,"TOWNNAME":"中西區","LI":"萬昌里","LIN":"18鄰","STREET":"青年路","SECT":" ","MAREA":" ","LANE":"１６４巷","ALLEY":"３３弄","HOUSE_NO":"１號","E_COORD97":168971.97,"N_COORD97":2543522.3100000001,"ADDRESS":"青年路１６４巷３３弄１號","OBJECTID":196050},"geometry":{"x":168971.96999999974,"y":2543522.3100000024}},{"attributes":{"ID":196052,"DIS_CODE":0,"TOWNNAME":"中西區","LI":"萬昌里","LIN":"18鄰","STREET":"青年路","SECT":" ","MAREA":" ","LANE":"１６４巷","ALLEY":"３３弄","HOUSE_NO":"２號","E_COORD97":168969.45999999999,"N_COORD97":2543511.23,"ADDRESS":"青年路１６４巷３３弄２號","OBJECTID":196051},"geometry":{"x":168969.45999999903,"y":2543511.2300000042}},{"attributes":{"ID":196053,"DIS_CODE":0,"TOWNNAME":"中西區","LI":"萬昌里","LIN":"18鄰","STREET":"青年路","SECT":" ","MAREA":" ","LANE":"１６４巷","ALLEY":"３３弄","HOUSE_NO":"３號","E_COORD97":168975.53,"N_COORD97":2543521.6800000002,"ADDRESS":"青年路１６４巷３３弄３號","OBJECTID":196052},"geometry":{"x":168975.53000000026,"y":2543521.6800000016}},{"attributes":{"ID":196054,"DIS_CODE":0,"TOWNNAME":"中西區","LI":"萬昌里","LIN":"18鄰","STREET":"青年路","SECT":" ","MAREA":" ","LANE":"１６４巷","ALLEY":"３３弄","HOUSE_NO":"４號","E_COORD97":168972.17999999999,"N_COORD97":2543510.8199999998,"ADDRESS":"青年路１６４巷３３弄４號","OBJECTID":196053},"geometry":{"x":168972.1799999997,"y":2543510.8200000022}},{"attributes":{"ID":196055,"DIS_CODE":0,"TOWNNAME":"中西區","LI":"萬昌里","LIN":"18鄰","STREET":"青年路","SECT":" ","MAREA":" ","LANE":"１６４巷","ALLEY":"３３弄","HOUSE_NO":"５號","E_COORD97":168977.92999999999,"N_COORD97":2543521.2599999998,"ADDRESS":"青年路１６４巷３３弄５號","OBJECTID":196054},"geometry":{"x":168977.93000000156,"y":2543521.2600000016}},{"attributes":{"ID":196056,"DIS_CODE":0,"TOWNNAME":"中西區","LI":"萬昌里","LIN":"18鄰","STREET":"青年路","SECT":" ","MAREA":" ","LANE":"１６４巷","ALLEY":"３３弄","HOUSE_NO":"６號","E_COORD97":168975.32000000001,"N_COORD97":2543510.3999999999,"ADDRESS":"青年路１６４巷３３弄６號","OBJECTID":196055},"geometry":{"x":168975.3200000003,"y":2543510.4000000022}},{"attributes":{"ID":196057,"DIS_CODE":0,"TOWNNAME":"北區","LI":"大港里","LIN":"21鄰","STREET":"大和路","SECT":" ","MAREA":" ","LANE":" ","ALLEY":" ","HOUSE_NO":"２３１號","E_COORD97":166943.14999999999,"N_COORD97":2546022.27,"ADDRESS":"大和路２３１號","OBJECTID":196056},"geometry":{"x":166943.1500000013,"y":2546022.2700000033}},{"attributes":{"ID":196058,"DIS_CODE":0,"TOWNNAME":"北區","LI":"大港里","LIN":"21鄰","STREET":"大和路","SECT":" ","MAREA":" ","LANE":" ","ALLEY":" ","HOUSE_NO":"２３３號","E_COORD97":166941.07000000001,"N_COORD97":2546026.6000000001,"ADDRESS":"大和路２３３號","OBJECTID":196057},"geometry":{"x":166941.0700000003,"y":2546026.5999999996}},{"attributes":{"ID":196059,"DIS_CODE":0,"TOWNNAME":"北區","LI":"大港里","LIN":"21鄰","STREET":"大和路","SECT":" ","MAREA":" ","LANE":" ","ALLEY":" ","HOUSE_NO":"２３５號","E_COORD97":166939.69,"N_COORD97":2546030.2400000002,"ADDRESS":"大和路２３５號","OBJECTID":196058},"geometry":{"x":166939.69000000134,"y":2546030.2400000021}},{"attributes":{"ID":196060,"DIS_CODE":0,"TOWNNAME":"北區","LI":"大港里","LIN":"21鄰","STREET":"大和路","SECT":" ","MAREA":" ","LANE":" ","ALLEY":" ","HOUSE_NO":"２３７號","E_COORD97":166937.95000000001,"N_COORD97":2546033.8799999999,"ADDRESS":"大和路２３７號","OBJECTID":196059},"geometry":{"x":166937.95000000112,"y":2546033.879999999}},{"attributes":{"ID":196061,"DIS_CODE":0,"TOWNNAME":"北區","LI":"大港里","LIN":"21鄰","STREET":"大和路","SECT":" ","MAREA":" ","LANE":" ","ALLEY":" ","HOUSE_NO":"２３９號","E_COORD97":166936.57000000001,"N_COORD97":2546037.1600000001,"ADDRESS":"大和路２３９號","OBJECTID":196060},"geometry":{"x":166936.56999999937,"y":2546037.1600000039}},{"attributes":{"ID":196062,"DIS_CODE":0,"TOWNNAME":"北區","LI":"大港里","LIN":"21鄰","STREET":"大和路","SECT":" ","MAREA":" ","LANE":" ","ALLEY":" ","HOUSE_NO":"２４１號","E_COORD97":166935.17999999999,"N_COORD97":2546040.9700000002,"ADDRESS":"大和路２４１號","OBJECTID":196061},"geometry":{"x":166935.17999999877,"y":2546040.9700000007}},{"attributes":{"ID":196063,"DIS_CODE":0,"TOWNNAME":"北區","LI":"大港里","LIN":"21鄰","STREET":"大和路","SECT":" ","MAREA":" ","LANE":" ","ALLEY":" ","HOUSE_NO":"２４３號","E_COORD97":166933.95999999999,"N_COORD97":2546044.6099999999,"ADDRESS":"大和路２４３號","OBJECTID":196062},"geometry":{"x":166933.96000000089,"y":2546044.6100000013}},{"attributes":{"ID":196064,"DIS_CODE":0,"TOWNNAME":"北區","LI":"大港里","LIN":"21鄰","STREET":"大和路","SECT":" ","MAREA":" ","LANE":" ","ALLEY":" ","HOUSE_NO":"２４５號","E_COORD97":166931.88,"N_COORD97":2546048.4199999999,"ADDRESS":"大和路２４５號","OBJECTID":196063},"geometry":{"x":166931.87999999989,"y":2546048.4199999999}},{"attributes":{"ID":196065,"DIS_CODE":0,"TOWNNAME":"北區","LI":"大港里","LIN":"21鄰","STREET":"大和路","SECT":" ","MAREA":" ","LANE":" ","ALLEY":" ","HOUSE_NO":"２４７號","E_COORD97":166930.84,"N_COORD97":2546052.0600000001,"ADDRESS":"大和路２４７號","OBJECTID":196064},"geometry":{"x":166930.83999999892,"y":2546052.0600000042}},{"attributes":{"ID":196066,"DIS_CODE":0,"TOWNNAME":"安定區","LI":"中榮里","LIN":"3鄰","STREET":" ","SECT":" ","MAREA":"許中營","LANE":" ","ALLEY":" ","HOUSE_NO":"３５之１６號","E_COORD97":172419.09,"N_COORD97":2555011.2999999998,"ADDRESS":"許中營３５之１６號","OBJECTID":196065},"geometry":{"x":172419.09000000078,"y":2555011.3000000045}},{"attributes":{"ID":196067,"DIS_CODE":0,"TOWNNAME":"安定區","LI":"六嘉里","LIN":"3鄰","STREET":" ","SECT":" ","MAREA":"六塊寮","LANE":" ","ALLEY":" ","HOUSE_NO":"２２號","E_COORD97":170069.82000000001,"N_COORD97":2553463.27,"ADDRESS":"六塊寮２２號","OBJECTID":196066},"geometry":{"x":170069.82000000123,"y":2553463.2699999996}},{"attributes":{"ID":196068,"DIS_CODE":0,"TOWNNAME":"安定區","LI":"港口里","LIN":"3鄰","STREET":" ","SECT":" ","MAREA":"港口","LANE":" ","ALLEY":" ","HOUSE_NO":"２５３號之１６","E_COORD97":171687.98000000001,"N_COORD97":2554947.2999999998,"ADDRESS":"港口２５３號之１６","OBJECTID":196067},"geometry":{"x":171687.98000000138,"y":2554947.3000000026}},{"attributes":{"ID":196069,"DIS_CODE":0,"TOWNNAME":"安定區","LI":"港口里","LIN":"3鄰","STREET":" ","SECT":" ","MAREA":"港口","LANE":" ","ALLEY":" ","HOUSE_NO":"２５３號之１３","E_COORD97":171704.97,"N_COORD97":2554928.2999999998,"ADDRESS":"港口２５３號之１３","OBJECTID":196068},"geometry":{"x":171704.96999999974,"y":2554928.3000000007}},{"attributes":{"ID":196070,"DIS_CODE":0,"TOWNNAME":"安定區","LI":"港口里","LIN":"3鄰","STREET":" ","SECT":" ","MAREA":"港口","LANE":" ","ALLEY":" ","HOUSE_NO":"２５２號之２","E_COORD97":171522.26000000001,"N_COORD97":2554767.2999999998,"ADDRESS":"港口２５２號之２","OBJECTID":196069},"geometry":{"x":171522.26000000071,"y":2554767.3000000045}},{"attributes":{"ID":196071,"DIS_CODE":0,"TOWNNAME":"新市區","LI":"大洲里","LIN":"3鄰","STREET":" ","SECT":" ","MAREA":"大洲","LANE":" ","ALLEY":" ","HOUSE_NO":"２１號","E_COORD97":174412.10000000001,"N_COORD97":2552445.5,"ADDRESS":"大洲２１號","OBJECTID":196070},"geometry":{"x":174412.10000000056,"y":2552445.5}},{"attributes":{"ID":196072,"DIS_CODE":0,"TOWNNAME":"安定區","LI":"港口里","LIN":"3鄰","STREET":" ","SECT":" ","MAREA":"港口","LANE":" ","ALLEY":" ","HOUSE_NO":"２５３號之３２","E_COORD97":171687.20999999999,"N_COORD97":2554861.2999999998,"ADDRESS":"港口２５３號之３２","OBJECTID":196071},"geometry":{"x":171687.21000000089,"y":2554861.3000000007}},{"attributes":{"ID":196073,"DIS_CODE":0,"TOWNNAME":"安定區","LI":"六嘉里","LIN":"3鄰","STREET":" ","SECT":" ","MAREA":"六塊寮","LANE":" ","ALLEY":" ","HOUSE_NO":"２１號之１","E_COORD97":170083.64999999999,"N_COORD97":2553440.2999999998,"ADDRESS":"六塊寮２１號之１","OBJECTID":196072},"geometry":{"x":170083.65000000037,"y":2553440.3000000007}},{"attributes":{"ID":196074,"DIS_CODE":0,"TOWNNAME":"安定區","LI":"港口里","LIN":"3鄰","STREET":" ","SECT":" ","MAREA":"港口","LANE":" ","ALLEY":" ","HOUSE_NO":"２５３之９號","E_COORD97":171707.09,"N_COORD97":2554945.2999999998,"ADDRESS":"港口２５３之９號","OBJECTID":196073},"geometry":{"x":171707.09000000078,"y":2554945.3000000007}},{"attributes":{"ID":196075,"DIS_CODE":0,"TOWNNAME":"安定區","LI":"六嘉里","LIN":"3鄰","STREET":" ","SECT":" ","MAREA":"六塊寮","LANE":" ","ALLEY":" ","HOUSE_NO":"２２號之１","E_COORD97":170064.64999999999,"N_COORD97":2553459.2999999998,"ADDRESS":"六塊寮２２號之１","OBJECTID":196074},"geometry":{"x":170064.6500000013,"y":2553459.3000000026}},{"attributes":{"ID":196076,"DIS_CODE":0,"TOWNNAME":"安定區","LI":"港口里","LIN":"3鄰","STREET":" ","SECT":" ","MAREA":"港口","LANE":" ","ALLEY":" ","HOUSE_NO":"２５３之２０號","E_COORD97":171669.34,"N_COORD97":2554936.2999999998,"ADDRESS":"港口２５３之２０號","OBJECTID":196075},"geometry":{"x":171669.34000000078,"y":2554936.3000000007}},{"attributes":{"ID":196077,"DIS_CODE":0,"TOWNNAME":"安定區","LI":"六嘉里","LIN":"3鄰","STREET":" ","SECT":" ","MAREA":"六塊寮","LANE":" ","ALLEY":" ","HOUSE_NO":"２２號之２","E_COORD97":170058.39000000001,"N_COORD97":2553454.2999999998,"ADDRESS":"六塊寮２２號之２","OBJECTID":196076},"geometry":{"x":170058.3900000006,"y":2553454.3000000007}},{"attributes":{"ID":196078,"DIS_CODE":0,"TOWNNAME":"安定區","LI":"中榮里","LIN":"3鄰","STREET":" ","SECT":" ","MAREA":"許中營","LANE":" ","ALLEY":" ","HOUSE_NO":"３５之１３號","E_COORD97":172410.59,"N_COORD97":2555004.2999999998,"ADDRESS":"許中營３５之１３號","OBJECTID":196077},"geometry":{"x":172410.59000000078,"y":2555004.2999999989}},{"attributes":{"ID":196079,"DIS_CODE":0,"TOWNNAME":"安定區","LI":"港口里","LIN":"3鄰","STREET":" ","SECT":" ","MAREA":"港口","LANE":" ","ALLEY":" ","HOUSE_NO":"２５２號之６","E_COORD97":171532.92999999999,"N_COORD97":2554750.2999999998,"ADDRESS":"港口２５２號之６","OBJECTID":196078},"geometry":{"x":171532.93000000063,"y":2554750.3000000045}},{"attributes":{"ID":196080,"DIS_CODE":0,"TOWNNAME":"安定區","LI":"港口里","LIN":"3鄰","STREET":" ","SECT":" ","MAREA":"港口","LANE":" ","ALLEY":" ","HOUSE_NO":"２５３之２５號","E_COORD97":171693.64000000001,"N_COORD97":2554891.2999999998,"ADDRESS":"港口２５３之２５號","OBJECTID":196079},"geometry":{"x":171693.63999999966,"y":2554891.3000000007}},{"attributes":{"ID":196081,"DIS_CODE":0,"TOWNNAME":"安定區","LI":"六嘉里","LIN":"3鄰","STREET":" ","SECT":" ","MAREA":"六塊寮","LANE":" ","ALLEY":" ","HOUSE_NO":"２４號之１","E_COORD97":170037.64999999999,"N_COORD97":2553598.2999999998,"ADDRESS":"六塊寮２４號之１","OBJECTID":196080},"geometry":{"x":170037.65000000037,"y":2553598.3000000026}},{"attributes":{"ID":196082,"DIS_CODE":0,"TOWNNAME":"安定區","LI":"港口里","LIN":"3鄰","STREET":" ","SECT":" ","MAREA":"港口","LANE":" ","ALLEY":" ","HOUSE_NO":"２５３之３４號","E_COORD97":171680.44,"N_COORD97":2554850.2999999998,"ADDRESS":"港口２５３之３４號","OBJECTID":196081},"geometry":{"x":171680.44000000041,"y":2554850.3000000007}},{"attributes":{"ID":196083,"DIS_CODE":0,"TOWNNAME":"安定區","LI":"中榮里","LIN":"3鄰","STREET":" ","SECT":" ","MAREA":"許中營","LANE":" ","ALLEY":" ","HOUSE_NO":"３５之１０號","E_COORD97":172398.48999999999,"N_COORD97":2554997.2999999998,"ADDRESS":"許中營３５之１０號","OBJECTID":196082},"geometry":{"x":172398.49000000022,"y":2554997.3000000007}},{"attributes":{"ID":196084,"DIS_CODE":0,"TOWNNAME":"安定區","LI":"港口里","LIN":"3鄰","STREET":" ","SECT":" ","MAREA":"港口","LANE":" ","ALLEY":" ","HOUSE_NO":"２５３之５９號","E_COORD97":171640.14000000001,"N_COORD97":2554875.2999999998,"ADDRESS":"港口２５３之５９號","OBJECTID":196083},"geometry":{"x":171640.1400000006,"y":2554875.3000000007}},{"attributes":{"ID":196085,"DIS_CODE":0,"TOWNNAME":"安定區","LI":"港口里","LIN":"3鄰","STREET":" ","SECT":" ","MAREA":"港口","LANE":" ","ALLEY":" ","HOUSE_NO":"２５３之３８號","E_COORD97":171660.23999999999,"N_COORD97":2554854.2999999998,"ADDRESS":"港口２５３之３８號","OBJECTID":196084},"geometry":{"x":171660.24000000115,"y":2554854.3000000007}},{"attributes":{"ID":196086,"DIS_CODE":0,"TOWNNAME":"安定區","LI":"港口里","LIN":"3鄰","STREET":" ","SECT":" ","MAREA":"港口","LANE":" ","ALLEY":" ","HOUSE_NO":"２５２之１號","E_COORD97":171521.39000000001,"N_COORD97":2554773.2999999998,"ADDRESS":"港口２５２之１號","OBJECTID":196085},"geometry":{"x":171521.3900000006,"y":2554773.3000000007}},{"attributes":{"ID":196087,"DIS_CODE":0,"TOWNNAME":"中西區","LI":"萬昌里","LIN":"18鄰","STREET":"青年路","SECT":" ","MAREA":" ","LANE":"１６４巷","ALLEY":"３３弄","HOUSE_NO":"７號","E_COORD97":168982.12,"N_COORD97":2543520.8500000001,"ADDRESS":"青年路１６４巷３３弄７號","OBJECTID":196086},"geometry":{"x":168982.11999999918,"y":2543520.8500000015}},{"attributes":{"ID":196088,"DIS_CODE":0,"TOWNNAME":"中西區","LI":"萬昌里","LIN":"18鄰","STREET":"青年路","SECT":" ","MAREA":" ","LANE":"１６４巷","ALLEY":"３３弄","HOUSE_NO":"８號","E_COORD97":168978.88,"N_COORD97":2543509.6699999999,"ADDRESS":"青年路１６４巷３３弄８號","OBJECTID":196087},"geometry":{"x":168978.88000000082,"y":2543509.6699999999}},{"attributes":{"ID":196089,"DIS_CODE":0,"TOWNNAME":"中西區","LI":"萬昌里","LIN":"18鄰","STREET":"青年路","SECT":" ","MAREA":" ","LANE":"１６４巷","ALLEY":"３９弄","HOUSE_NO":"１１號","E_COORD97":169032.64999999999,"N_COORD97":2543502.1499999999,"ADDRESS":"青年路１６４巷３９弄１１號","OBJECTID":196088},"geometry":{"x":169032.65000000037,"y":2543502.1500000022}},{"attributes":{"ID":196090,"DIS_CODE":0,"TOWNNAME":"中西區","LI":"萬昌里","LIN":"18鄰","STREET":"青年路","SECT":" ","MAREA":" ","LANE":"１６４巷","ALLEY":"３９弄","HOUSE_NO":"１號","E_COORD97":169031.82000000001,"N_COORD97":2543511.3500000001,"ADDRESS":"青年路１６４巷３９弄１號","OBJECTID":196089},"geometry":{"x":169031.81999999937,"y":2543511.3499999996}},{"attributes":{"ID":196091,"DIS_CODE":0,"TOWNNAME":"中西區","LI":"萬昌里","LIN":"18鄰","STREET":"青年路","SECT":" ","MAREA":" ","LANE":"１６４巷","ALLEY":"３９弄","HOUSE_NO":"２號","E_COORD97":169019.37,"N_COORD97":2543504.5600000001,"ADDRESS":"青年路１６４巷３９弄２號","OBJECTID":196090},"geometry":{"x":169019.37000000011,"y":2543504.5600000005}},{"attributes":{"ID":196092,"DIS_CODE":0,"TOWNNAME":"中西區","LI":"萬昌里","LIN":"18鄰","STREET":"青年路","SECT":" ","MAREA":" ","LANE":"１６４巷","ALLEY":"３９弄","HOUSE_NO":"３號","E_COORD97":169034.22,"N_COORD97":2543510.6200000001,"ADDRESS":"青年路１６４巷３９弄３號","OBJECTID":196091},"geometry":{"x":169034.22000000067,"y":2543510.6200000029}},{"attributes":{"ID":196093,"DIS_CODE":0,"TOWNNAME":"中西區","LI":"萬昌里","LIN":"18鄰","STREET":"青年路","SECT":" ","MAREA":" ","LANE":"１６４巷","ALLEY":"３９弄","HOUSE_NO":"４號","E_COORD97":169021.88,"N_COORD97":2543504.2400000002,"ADDRESS":"青年路１６４巷３９弄４號","OBJECTID":196092},"geometry":{"x":169021.87999999989,"y":2543504.2400000039}},{"attributes":{"ID":196094,"DIS_CODE":0,"TOWNNAME":"中西區","LI":"萬昌里","LIN":"18鄰","STREET":"青年路","SECT":" ","MAREA":" ","LANE":"１６４巷","ALLEY":"３９弄","HOUSE_NO":"５號","E_COORD97":169026.17000000001,"N_COORD97":2543503.2000000002,"ADDRESS":"青年路１６４巷３９弄５號","OBJECTID":196093},"geometry":{"x":169026.17000000086,"y":2543503.1999999974}},{"attributes":{"ID":196095,"DIS_CODE":0,"TOWNNAME":"中西區","LI":"萬昌里","LIN":"18鄰","STREET":"青年路","SECT":" ","MAREA":" ","LANE":"１６４巷","ALLEY":"３９弄","HOUSE_NO":"６號","E_COORD97":169023.66,"N_COORD97":2543503.6200000001,"ADDRESS":"青年路１６４巷３９弄６號","OBJECTID":196094},"geometry":{"x":169023.66000000015,"y":2543503.6200000029}},{"attributes":{"ID":196096,"DIS_CODE":0,"TOWNNAME":"中西區","LI":"萬昌里","LIN":"18鄰","STREET":"青年路","SECT":" ","MAREA":" ","LANE":"１６４巷","ALLEY":"３９弄","HOUSE_NO":"７號","E_COORD97":169028.47,"N_COORD97":2543502.7799999998,"ADDRESS":"青年路１６４巷３９弄７號","OBJECTID":196095},"geometry":{"x":169028.46999999974,"y":2543502.7800000031}},{"attributes":{"ID":196097,"DIS_CODE":0,"TOWNNAME":"中西區","LI":"萬昌里","LIN":"18鄰","STREET":"青年路","SECT":" ","MAREA":" ","LANE":"１６４巷","ALLEY":"３９弄","HOUSE_NO":"９號","E_COORD97":169030.45999999999,"N_COORD97":2543502.4700000002,"ADDRESS":"青年路１６４巷３９弄９號","OBJECTID":196096},"geometry":{"x":169030.45999999996,"y":2543502.4700000007}},{"attributes":{"ID":196098,"DIS_CODE":0,"TOWNNAME":"安定區","LI":"六嘉里","LIN":"3鄰","STREET":" ","SECT":" ","MAREA":"六塊寮","LANE":" ","ALLEY":" ","HOUSE_NO":"２２號之１０","E_COORD97":170045.45000000001,"N_COORD97":2553489.2999999998,"ADDRESS":"六塊寮２２號之１０","OBJECTID":196097},"geometry":{"x":170045.45000000112,"y":2553489.3000000026}},{"attributes":{"ID":196099,"DIS_CODE":0,"TOWNNAME":"安定區","LI":"港口里","LIN":"3鄰","STREET":" ","SECT":" ","MAREA":"港口","LANE":" ","ALLEY":" ","HOUSE_NO":"２５３之５６號","E_COORD97":171651.73999999999,"N_COORD97":2554868.2999999998,"ADDRESS":"港口２５３之５６號","OBJECTID":196098},"geometry":{"x":171651.74000000115,"y":2554868.3000000007}},{"attributes":{"ID":196100,"DIS_CODE":0,"TOWNNAME":"安定區","LI":"保西里","LIN":"3鄰","STREET":" ","SECT":" ","MAREA":"安定","LANE":" ","ALLEY":" ","HOUSE_NO":"３５０號","E_COORD97":171683.72,"N_COORD97":2557663.3199999998,"ADDRESS":"安定３５０號","OBJECTID":196099},"geometry":{"x":171683.72000000067,"y":2557663.3200000022}},{"attributes":{"ID":196101,"DIS_CODE":0,"TOWNNAME":"安定區","LI":"港口里","LIN":"3鄰","STREET":" ","SECT":" ","MAREA":"港口","LANE":" ","ALLEY":" ","HOUSE_NO":"２５３號之２９","E_COORD97":171689.45999999999,"N_COORD97":2554874.2999999998,"ADDRESS":"港口２５３號之２９","OBJECTID":196100},"geometry":{"x":171689.46000000089,"y":2554874.3000000007}},{"attributes":{"ID":196102,"DIS_CODE":0,"TOWNNAME":"中西區","LI":"萬昌里","LIN":"18鄰","STREET":"青年路","SECT":" ","MAREA":" ","LANE":"１６４巷","ALLEY":"４５弄","HOUSE_NO":"１１號","E_COORD97":169031.82000000001,"N_COORD97":2543489.6200000001,"ADDRESS":"青年路１６４巷４５弄１１號","OBJECTID":196101},"geometry":{"x":169031.81999999937,"y":2543489.6200000029}},{"attributes":{"ID":196103,"DIS_CODE":0,"TOWNNAME":"安定區","LI":"保西里","LIN":"3鄰","STREET":" ","SECT":" ","MAREA":"安定","LANE":" ","ALLEY":" ","HOUSE_NO":"３４７號","E_COORD97":171727.84270000001,"N_COORD97":2557650.9202700001,"ADDRESS":"安定３４７號","OBJECTID":196102},"geometry":{"x":171727.84269999992,"y":2557650.9202740006}},{"attributes":{"ID":196104,"DIS_CODE":0,"TOWNNAME":"安定區","LI":"港口里","LIN":"3鄰","STREET":" ","SECT":" ","MAREA":"港口","LANE":" ","ALLEY":" ","HOUSE_NO":"２５３之５７號","E_COORD97":171647.94,"N_COORD97":2554871.2999999998,"ADDRESS":"港口２５３之５７號","OBJECTID":196103},"geometry":{"x":171647.94000000041,"y":2554871.3000000007}},{"attributes":{"ID":196105,"DIS_CODE":0,"TOWNNAME":"安定區","LI":"安定里","LIN":"3鄰","STREET":" ","SECT":" ","MAREA":"安定","LANE":" ","ALLEY":" ","HOUSE_NO":"２之５號","E_COORD97":172744.12,"N_COORD97":2558056.3199999998,"ADDRESS":"安定２之５號","OBJECTID":196104},"geometry":{"x":172744.12000000104,"y":2558056.3200000022}},{"attributes":{"ID":196106,"DIS_CODE":0,"TOWNNAME":"安定區","LI":"港口里","LIN":"3鄰","STREET":" ","SECT":" ","MAREA":"港口","LANE":" ","ALLEY":" ","HOUSE_NO":"２５３之４７號","E_COORD97":171626.44,"N_COORD97":2554870.2999999998,"ADDRESS":"港口２５３之４７號","OBJECTID":196105},"geometry":{"x":171626.43999999948,"y":2554870.3000000026}},{"attributes":{"ID":196107,"DIS_CODE":0,"TOWNNAME":"安定區","LI":"港口里","LIN":"3鄰","STREET":" ","SECT":" ","MAREA":"港口","LANE":" ","ALLEY":" ","HOUSE_NO":"２５２號之１５","E_COORD97":171541.23000000001,"N_COORD97":2554777.2999999998,"ADDRESS":"港口２５２號之１５","OBJECTID":196106},"geometry":{"x":171541.23000000045,"y":2554777.3000000045}},{"attributes":{"ID":196108,"DIS_CODE":0,"TOWNNAME":"安定區","LI":"港口里","LIN":"3鄰","STREET":" ","SECT":" ","MAREA":"港口","LANE":" ","ALLEY":" ","HOUSE_NO":"２５３之１０號","E_COORD97":171707.64000000001,"N_COORD97":2554941.2999999998,"ADDRESS":"港口２５３之１０號","OBJECTID":196107},"geometry":{"x":171707.6400000006,"y":2554941.3000000026}},{"attributes":{"ID":196109,"DIS_CODE":0,"TOWNNAME":"安定區","LI":"保西里","LIN":"3鄰","STREET":" ","SECT":" ","MAREA":"安定","LANE":" ","ALLEY":" ","HOUSE_NO":"３２６之１號","E_COORD97":171663.72,"N_COORD97":2557643.3199999998,"ADDRESS":"安定３２６之１號","OBJECTID":196108},"geometry":{"x":171663.72000000067,"y":2557643.3200000003}},{"attributes":{"ID":196110,"DIS_CODE":0,"TOWNNAME":"安定區","LI":"港口里","LIN":"3鄰","STREET":" ","SECT":" ","MAREA":"港口","LANE":" ","ALLEY":" ","HOUSE_NO":"２５３之５１號","E_COORD97":171641.84,"N_COORD97":2554861.2999999998,"ADDRESS":"港口２５３之５１號","OBJECTID":196109},"geometry":{"x":171641.84000000171,"y":2554861.3000000007}},{"attributes":{"ID":196111,"DIS_CODE":0,"TOWNNAME":"安定區","LI":"港尾里","LIN":"3鄰","STREET":" ","SECT":" ","MAREA":"港子尾","LANE":" ","ALLEY":" ","HOUSE_NO":"１２號之６","E_COORD97":171634.32999999999,"N_COORD97":2556179.2999999998,"ADDRESS":"港子尾１２號之６","OBJECTID":196110},"geometry":{"x":171634.33000000101,"y":2556179.3000000007}},{"attributes":{"ID":196112,"DIS_CODE":0,"TOWNNAME":"安定區","LI":"六嘉里","LIN":"3鄰","STREET":" ","SECT":" ","MAREA":"六塊寮","LANE":" ","ALLEY":" ","HOUSE_NO":"２２號之１３","E_COORD97":170039.5,"N_COORD97":2553505.2999999998,"ADDRESS":"六塊寮２２號之１３","OBJECTID":196111},"geometry":{"x":170039.50000000093,"y":2553505.3000000007}},{"attributes":{"ID":196113,"DIS_CODE":0,"TOWNNAME":"安定區","LI":"港尾里","LIN":"3鄰","STREET":" ","SECT":" ","MAREA":"港子尾","LANE":" ","ALLEY":" ","HOUSE_NO":"３號","E_COORD97":171549.64000000001,"N_COORD97":2556235.2599999998,"ADDRESS":"港子尾３號","OBJECTID":196112},"geometry":{"x":171549.63999999966,"y":2556235.2600000016}},{"attributes":{"ID":196114,"DIS_CODE":0,"TOWNNAME":"關廟區","LI":"五甲里","LIN":"21鄰","STREET":"五權街","SECT":" ","MAREA":" ","LANE":" ","ALLEY":" ","HOUSE_NO":"１號","E_COORD97":181023.97,"N_COORD97":2539171.25,"ADDRESS":"五權街１號","OBJECTID":196113},"geometry":{"x":181023.97000000067,"y":2539171.2500000019}},{"attributes":{"ID":196115,"DIS_CODE":0,"TOWNNAME":"中西區","LI":"萬昌里","LIN":"18鄰","STREET":"青年路","SECT":" ","MAREA":" ","LANE":"１６４巷","ALLEY":"４５弄","HOUSE_NO":"１號","E_COORD97":169016.64999999999,"N_COORD97":2543493.48,"ADDRESS":"青年路１６４巷４５弄１號","OBJECTID":196114},"geometry":{"x":169016.6500000013,"y":2543493.4800000023}},{"attributes":{"ID":196116,"DIS_CODE":0,"TOWNNAME":"中西區","LI":"萬昌里","LIN":"18鄰","STREET":"青年路","SECT":" ","MAREA":" ","LANE":"１６４巷","ALLEY":"４５弄","HOUSE_NO":"３號","E_COORD97":169020.20999999999,"N_COORD97":2543492.1200000001,"ADDRESS":"青年路１６４巷４５弄３號","OBJECTID":196115},"geometry":{"x":169020.20999999996,"y":2543492.1200000048}},{"attributes":{"ID":196117,"DIS_CODE":0,"TOWNNAME":"安定區","LI":"保西里","LIN":"3鄰","STREET":" ","SECT":" ","MAREA":"安定","LANE":" ","ALLEY":" ","HOUSE_NO":"３２７號","E_COORD97":171660.82000000001,"N_COORD97":2557608.3199999998,"ADDRESS":"安定３２７號","OBJECTID":196116},"geometry":{"x":171660.8200000003,"y":2557608.3200000022}},{"attributes":{"ID":196118,"DIS_CODE":0,"TOWNNAME":"安定區","LI":"安定里","LIN":"3鄰","STREET":" ","SECT":" ","MAREA":"安定","LANE":" ","ALLEY":" ","HOUSE_NO":"１之１１號","E_COORD97":172816.07000000001,"N_COORD97":2558275.3199999998,"ADDRESS":"安定１之１１號","OBJECTID":196117},"geometry":{"x":172816.07000000123,"y":2558275.3199999984}},{"attributes":{"ID":196119,"DIS_CODE":0,"TOWNNAME":"安定區","LI":"港口里","LIN":"3鄰","STREET":" ","SECT":" ","MAREA":"港口","LANE":" ","ALLEY":" ","HOUSE_NO":"２５３之６１號","E_COORD97":171632.73999999999,"N_COORD97":2554880.2999999998,"ADDRESS":"港口２５３之６１號","OBJECTID":196118},"geometry":{"x":171632.74000000209,"y":2554880.3000000026}},{"attributes":{"ID":196120,"DIS_CODE":0,"TOWNNAME":"安定區","LI":"港口里","LIN":"3鄰","STREET":" ","SECT":" ","MAREA":"港口","LANE":" ","ALLEY":" ","HOUSE_NO":"２５３之３６號","E_COORD97":171679.23999999999,"N_COORD97":2554841.2999999998,"ADDRESS":"港口２５３之３６號","OBJECTID":196119},"geometry":{"x":171679.24000000115,"y":2554841.3000000007}},{"attributes":{"ID":196121,"DIS_CODE":0,"TOWNNAME":"安定區","LI":"海寮里","LIN":"3鄰","STREET":" ","SECT":" ","MAREA":"海寮","LANE":" ","ALLEY":" ","HOUSE_NO":"３６號","E_COORD97":169508.29000000001,"N_COORD97":2555321.25,"ADDRESS":"海寮３６號","OBJECTID":196120},"geometry":{"x":169508.2900000019,"y":2555321.25}},{"attributes":{"ID":196122,"DIS_CODE":0,"TOWNNAME":"中西區","LI":"萬昌里","LIN":"18鄰","STREET":"青年路","SECT":" ","MAREA":" ","LANE":"１６４巷","ALLEY":"４５弄","HOUSE_NO":"５號","E_COORD97":169022.51000000001,"N_COORD97":2543491.8100000001,"ADDRESS":"青年路１６４巷４５弄５號","OBJECTID":196121},"geometry":{"x":169022.50999999978,"y":2543491.8100000024}},{"attributes":{"ID":196123,"DIS_CODE":0,"TOWNNAME":"中西區","LI":"萬昌里","LIN":"18鄰","STREET":"青年路","SECT":" ","MAREA":" ","LANE":"１６４巷","ALLEY":"４５弄","HOUSE_NO":"７號","E_COORD97":169024.91,"N_COORD97":2543490.8700000001,"ADDRESS":"青年路１６４巷４５弄７號","OBJECTID":196122},"geometry":{"x":169024.91000000108,"y":2543490.8700000029}},{"attributes":{"ID":196124,"DIS_CODE":0,"TOWNNAME":"中西區","LI":"萬昌里","LIN":"18鄰","STREET":"青年路","SECT":" ","MAREA":" ","LANE":"１６４巷","ALLEY":"４５弄","HOUSE_NO":"９號","E_COORD97":169028.78,"N_COORD97":2543490.0299999998,"ADDRESS":"青年路１６４巷４５弄９號","OBJECTID":196123},"geometry":{"x":169028.78000000212,"y":2543490.0299999993}},{"attributes":{"ID":196125,"DIS_CODE":0,"TOWNNAME":"安南區","LI":"海東里","LIN":"18鄰","STREET":"海佃路","SECT":"二段","MAREA":" ","LANE":"３０７巷","ALLEY":"３３弄","HOUSE_NO":"７號","E_COORD97":166697.12,"N_COORD97":2548671.7000000002,"ADDRESS":"海佃路二段３０７巷３３弄７號","OBJECTID":196124},"geometry":{"x":166697.12000000197,"y":2548671.7000000011}},{"attributes":{"ID":196126,"DIS_CODE":0,"TOWNNAME":"安定區","LI":"六嘉里","LIN":"3鄰","STREET":" ","SECT":" ","MAREA":"六塊寮","LANE":" ","ALLEY":" ","HOUSE_NO":"２１號之３","E_COORD97":170076.35000000001,"N_COORD97":2553436.2999999998,"ADDRESS":"六塊寮２１號之３","OBJECTID":196125},"geometry":{"x":170076.34999999963,"y":2553436.3000000026}},{"attributes":{"ID":196127,"DIS_CODE":0,"TOWNNAME":"永康區","LI":"崑山里","LIN":"18鄰","STREET":"大灣路","SECT":" ","MAREA":" ","LANE":"９４２巷","ALLEY":"１６弄","HOUSE_NO":"１０號","E_COORD97":173671.12,"N_COORD97":2544471,"ADDRESS":"大灣路９４２巷１６弄１０號","OBJECTID":196126},"geometry":{"x":173671.12000000197,"y":2544471}},{"attributes":{"ID":196128,"DIS_CODE":0,"TOWNNAME":"永康區","LI":"烏竹里","LIN":"18鄰","STREET":"自強路","SECT":" ","MAREA":" ","LANE":"７７３巷","ALLEY":"５弄","HOUSE_NO":"１３號","E_COORD97":174437.07000000001,"N_COORD97":2548561.6200000001,"ADDRESS":"自強路７７３巷５弄１３號","OBJECTID":196127},"geometry":{"x":174437.0700000003,"y":2548561.6200000029}},{"attributes":{"ID":196129,"DIS_CODE":0,"TOWNNAME":"安定區","LI":"港尾里","LIN":"3鄰","STREET":" ","SECT":" ","MAREA":"港子尾","LANE":" ","ALLEY":" ","HOUSE_NO":"１２號之５","E_COORD97":171635.48000000001,"N_COORD97":2556175.2999999998,"ADDRESS":"港子尾１２號之５","OBJECTID":196128},"geometry":{"x":171635.48000000138,"y":2556175.3000000026}},{"attributes":{"ID":196130,"DIS_CODE":0,"TOWNNAME":"永康區","LI":"烏竹里","LIN":"18鄰","STREET":"自強路","SECT":" ","MAREA":" ","LANE":"７７３巷","ALLEY":"５弄","HOUSE_NO":"５號","E_COORD97":174453.76999999999,"N_COORD97":2548577.8799999999,"ADDRESS":"自強路７７３巷５弄５號","OBJECTID":196129},"geometry":{"x":174453.76999999955,"y":2548577.8800000008}},{"attributes":{"ID":196131,"DIS_CODE":0,"TOWNNAME":"永康區","LI":"崑山里","LIN":"18鄰","STREET":"大灣路","SECT":" ","MAREA":" ","LANE":"９４２巷","ALLEY":"１６弄","HOUSE_NO":"６號","E_COORD97":173659.16,"N_COORD97":2544469.75,"ADDRESS":"大灣路９４２巷１６弄６號","OBJECTID":196130},"geometry":{"x":173659.16000000108,"y":2544469.75}},{"attributes":{"ID":196132,"DIS_CODE":0,"TOWNNAME":"永康區","LI":"崑山里","LIN":"18鄰","STREET":"大灣路","SECT":" ","MAREA":" ","LANE":"９４２巷","ALLEY":"１６弄","HOUSE_NO":"９號","E_COORD97":173691.26999999999,"N_COORD97":2544488.9100000001,"ADDRESS":"大灣路９４２巷１６弄９號","OBJECTID":196131},"geometry":{"x":173691.26999999955,"y":2544488.9100000001}},{"attributes":{"ID":196133,"DIS_CODE":0,"TOWNNAME":"永康區","LI":"崑山里","LIN":"18鄰","STREET":"大灣路","SECT":" ","MAREA":" ","LANE":"９４２巷","ALLEY":"３４弄","HOUSE_NO":"１３號","E_COORD97":173690.17999999999,"N_COORD97":2544534.7400000002,"ADDRESS":"大灣路９４２巷３４弄１３號","OBJECTID":196132},"geometry":{"x":173690.1799999997,"y":2544534.7400000039}},{"attributes":{"ID":196134,"DIS_CODE":0,"TOWNNAME":"永康區","LI":"烏竹里","LIN":"18鄰","STREET":"自強路","SECT":" ","MAREA":" ","LANE":"７７３巷","ALLEY":"５弄","HOUSE_NO":"２５號","E_COORD97":174408.20000000001,"N_COORD97":2548541.8799999999,"ADDRESS":"自強路７７３巷５弄２５號","OBJECTID":196133},"geometry":{"x":174408.20000000112,"y":2548541.879999999}},{"attributes":{"ID":196135,"DIS_CODE":0,"TOWNNAME":"永康區","LI":"崑山里","LIN":"18鄰","STREET":"大灣路","SECT":" ","MAREA":" ","LANE":"９４２巷","ALLEY":"３４弄","HOUSE_NO":"１號","E_COORD97":173656.76999999999,"N_COORD97":2544546.5,"ADDRESS":"大灣路９４２巷３４弄１號","OBJECTID":196134},"geometry":{"x":173656.77000000048,"y":2544546.5000000037}},{"attributes":{"ID":196136,"DIS_CODE":0,"TOWNNAME":"永康區","LI":"烏竹里","LIN":"18鄰","STREET":"自強路","SECT":" ","MAREA":" ","LANE":"７７３巷","ALLEY":"５弄","HOUSE_NO":"１１號","E_COORD97":174441.41,"N_COORD97":2548566.6299999999,"ADDRESS":"自強路７７３巷５弄１１號","OBJECTID":196135},"geometry":{"x":174441.41000000015,"y":2548566.6300000008}},{"attributes":{"ID":196137,"DIS_CODE":0,"TOWNNAME":"安定區","LI":"保西里","LIN":"3鄰","STREET":" ","SECT":" ","MAREA":"安定","LANE":" ","ALLEY":" ","HOUSE_NO":"３４５之１號","E_COORD97":171728.00155700001,"N_COORD97":2557646.2636099998,"ADDRESS":"安定３４５之１號","OBJECTID":196136},"geometry":{"x":171728.00155699998,"y":2557646.2636099998}},{"attributes":{"ID":196138,"DIS_CODE":0,"TOWNNAME":"永康區","LI":"烏竹里","LIN":"18鄰","STREET":"自強路","SECT":" ","MAREA":" ","LANE":"７７３巷","ALLEY":"５弄","HOUSE_NO":"３４號","E_COORD97":174409.60999999999,"N_COORD97":2548585.25,"ADDRESS":"自強路７７３巷５弄３４號","OBJECTID":196137},"geometry":{"x":174409.61000000127,"y":2548585.25}},{"attributes":{"ID":196139,"DIS_CODE":0,"TOWNNAME":"關廟區","LI":"東勢里","LIN":"21鄰","STREET":"東昌街","SECT":" ","MAREA":" ","LANE":" ","ALLEY":" ","HOUSE_NO":"５７號","E_COORD97":181982.12,"N_COORD97":2539239.25,"ADDRESS":"東昌街５７號","OBJECTID":196138},"geometry":{"x":181982.12000000011,"y":2539239.2500000019}},{"attributes":{"ID":196140,"DIS_CODE":0,"TOWNNAME":"安定區","LI":"安定里","LIN":"3鄰","STREET":" ","SECT":" ","MAREA":"安定","LANE":" ","ALLEY":" ","HOUSE_NO":"２之６號","E_COORD97":172735.82000000001,"N_COORD97":2558052.3199999998,"ADDRESS":"安定２之６號","OBJECTID":196139},"geometry":{"x":172735.81999999937,"y":2558052.3200000022}},{"attributes":{"ID":196141,"DIS_CODE":0,"TOWNNAME":"安定區","LI":"六嘉里","LIN":"3鄰","STREET":" ","SECT":" ","MAREA":"六塊寮","LANE":" ","ALLEY":" ","HOUSE_NO":"２２號之１１","E_COORD97":170038.39999999999,"N_COORD97":2553484.2999999998,"ADDRESS":"六塊寮２２號之１１","OBJECTID":196140},"geometry":{"x":170038.40000000224,"y":2553484.3000000007}},{"attributes":{"ID":196142,"DIS_CODE":0,"TOWNNAME":"安定區","LI":"六嘉里","LIN":"3鄰","STREET":" ","SECT":" ","MAREA":"六塊寮","LANE":" ","ALLEY":" ","HOUSE_NO":"２２之４號","E_COORD97":170061.12,"N_COORD97":2553474.2999999998,"ADDRESS":"六塊寮２２之４號","OBJECTID":196141},"geometry":{"x":170061.12000000104,"y":2553474.3000000007}},{"attributes":{"ID":196143,"DIS_CODE":0,"TOWNNAME":"安定區","LI":"港口里","LIN":"3鄰","STREET":" ","SECT":" ","MAREA":"港口","LANE":" ","ALLEY":" ","HOUSE_NO":"２５２號之１０","E_COORD97":171544.82999999999,"N_COORD97":2554759.2999999998,"ADDRESS":"港口２５２號之１０","OBJECTID":196142},"geometry":{"x":171544.83000000007,"y":2554759.3000000007}},{"attributes":{"ID":196144,"DIS_CODE":0,"TOWNNAME":"安定區","LI":"六嘉里","LIN":"3鄰","STREET":" ","SECT":" ","MAREA":"六塊寮","LANE":" ","ALLEY":" ","HOUSE_NO":"２１號","E_COORD97":170084.92000000001,"N_COORD97":2553443.27,"ADDRESS":"六塊寮２１號","OBJECTID":196143},"geometry":{"x":170084.91999999993,"y":2553443.2699999996}},{"attributes":{"ID":196145,"DIS_CODE":0,"TOWNNAME":"安定區","LI":"港口里","LIN":"3鄰","STREET":" ","SECT":" ","MAREA":"港口","LANE":" ","ALLEY":" ","HOUSE_NO":"２５３之５３號","E_COORD97":171650.34,"N_COORD97":2554858.2999999998,"ADDRESS":"港口２５３之５３號","OBJECTID":196144},"geometry":{"x":171650.34000000171,"y":2554858.3000000007}},{"attributes":{"ID":196146,"DIS_CODE":0,"TOWNNAME":"安定區","LI":"港尾里","LIN":"3鄰","STREET":" ","SECT":" ","MAREA":"港子尾","LANE":" ","ALLEY":" ","HOUSE_NO":"１２之１號","E_COORD97":171642.39000000001,"N_COORD97":2556158.2999999998,"ADDRESS":"港子尾１２之１號","OBJECTID":196145},"geometry":{"x":171642.38999999966,"y":2556158.3000000026}},{"attributes":{"ID":196147,"DIS_CODE":0,"TOWNNAME":"新化區","LI":"全興里","LIN":"21鄰","STREET":" ","SECT":" ","MAREA":"竹子\u25A0","LANE":" ","ALLEY":" ","HOUSE_NO":"２４７號之５５７","E_COORD97":178523.57999999999,"N_COORD97":2546602.2599999998,"ADDRESS":"竹子\u25A0２４７號之５５７","OBJECTID":196146},"geometry":{"x":178523.58000000101,"y":2546602.2600000035}},{"attributes":{"ID":196148,"DIS_CODE":0,"TOWNNAME":"新化區","LI":"全興里","LIN":"21鄰","STREET":" ","SECT":" ","MAREA":"竹子\u25A0","LANE":" ","ALLEY":" ","HOUSE_NO":"２４７號之５７９","E_COORD97":178472.17999999999,"N_COORD97":2546603.2599999998,"ADDRESS":"竹子\u25A0２４７號之５７９","OBJECTID":196147},"geometry":{"x":178472.1799999997,"y":2546603.2600000016}},{"attributes":{"ID":196149,"DIS_CODE":0,"TOWNNAME":"新化區","LI":"全興里","LIN":"21鄰","STREET":" ","SECT":" ","MAREA":"竹子\u25A0","LANE":" ","ALLEY":" ","HOUSE_NO":"２４７號之４９２","E_COORD97":178413.89000000001,"N_COORD97":2546631.2599999998,"ADDRESS":"竹子\u25A0２４７號之４９２","OBJECTID":196148},"geometry":{"x":178413.8900000006,"y":2546631.2599999998}},{"attributes":{"ID":196150,"DIS_CODE":0,"TOWNNAME":"新化區","LI":"全興里","LIN":"21鄰","STREET":" ","SECT":" ","MAREA":"竹子\u25A0","LANE":" ","ALLEY":" ","HOUSE_NO":"２４７號之５８１","E_COORD97":178467.95999999999,"N_COORD97":2546603.2599999998,"ADDRESS":"竹子\u25A0２４７號之５８１","OBJECTID":196149},"geometry":{"x":178467.96000000089,"y":2546603.2600000016}},{"attributes":{"ID":196151,"DIS_CODE":0,"TOWNNAME":"新化區","LI":"全興里","LIN":"21鄰","STREET":" ","SECT":" ","MAREA":"竹子\u25A0","LANE":" ","ALLEY":" ","HOUSE_NO":"２４７號之５７５","E_COORD97":178481.79000000001,"N_COORD97":2546603.2599999998,"ADDRESS":"竹子\u25A0２４７號之５７５","OBJECTID":196150},"geometry":{"x":178481.79000000004,"y":2546603.2600000016}},{"attributes":{"ID":196152,"DIS_CODE":0,"TOWNNAME":"安定區","LI":"港口里","LIN":"3鄰","STREET":" ","SECT":" ","MAREA":"港口","LANE":" ","ALLEY":" ","HOUSE_NO":"２５３之７５號","E_COORD97":171664.04000000001,"N_COORD97":2554891.2999999998,"ADDRESS":"港口２５３之７５號","OBJECTID":196151},"geometry":{"x":171664.04000000004,"y":2554891.3000000007}},{"attributes":{"ID":196153,"DIS_CODE":0,"TOWNNAME":"安定區","LI":"六嘉里","LIN":"3鄰","STREET":" ","SECT":" ","MAREA":"六塊寮","LANE":" ","ALLEY":" ","HOUSE_NO":"２２之１６號","E_COORD97":170027.76999999999,"N_COORD97":2553496.2999999998,"ADDRESS":"六塊寮２２之１６號","OBJECTID":196152},"geometry":{"x":170027.76999999955,"y":2553496.3000000026}},{"attributes":{"ID":196154,"DIS_CODE":0,"TOWNNAME":"安定區","LI":"港尾里","LIN":"3鄰","STREET":" ","SECT":" ","MAREA":"港子尾","LANE":" ","ALLEY":" ","HOUSE_NO":"１５之１８號","E_COORD97":171687.44,"N_COORD97":2556136.2999999998,"ADDRESS":"港子尾１５之１８號","OBJECTID":196153},"geometry":{"x":171687.44000000041,"y":2556136.3000000007}},{"attributes":{"ID":196155,"DIS_CODE":0,"TOWNNAME":"安定區","LI":"港尾里","LIN":"3鄰","STREET":" ","SECT":" ","MAREA":"港子尾","LANE":" ","ALLEY":" ","HOUSE_NO":"１之１４號","E_COORD97":171615.29000000001,"N_COORD97":2556341.2999999998,"ADDRESS":"港子尾１之１４號","OBJECTID":196154},"geometry":{"x":171615.2900000019,"y":2556341.3000000026}},{"attributes":{"ID":196156,"DIS_CODE":0,"TOWNNAME":"永康區","LI":"勝利里","LIN":"18鄰","STREET":"中華一路","SECT":" ","MAREA":" ","LANE":"３５０巷","ALLEY":"２弄","HOUSE_NO":"５號","E_COORD97":171154.38,"N_COORD97":2545036.2400000002,"ADDRESS":"中華一路３５０巷２弄５號","OBJECTID":196155},"geometry":{"x":171154.37999999989,"y":2545036.2400000002}},{"attributes":{"ID":196157,"DIS_CODE":0,"TOWNNAME":"安定區","LI":"港口里","LIN":"3鄰","STREET":" ","SECT":" ","MAREA":"港口","LANE":" ","ALLEY":" ","HOUSE_NO":"２６２之２號","E_COORD97":171526.09,"N_COORD97":2554737.2999999998,"ADDRESS":"港口２６２之２號","OBJECTID":196156},"geometry":{"x":171526.08999999985,"y":2554737.3000000026}},{"attributes":{"ID":196158,"DIS_CODE":0,"TOWNNAME":"安定區","LI":"海寮里","LIN":"3鄰","STREET":" ","SECT":" ","MAREA":"海寮","LANE":" ","ALLEY":" ","HOUSE_NO":"３０號","E_COORD97":169505.79000000001,"N_COORD97":2555246.25,"ADDRESS":"海寮３０號","OBJECTID":196157},"geometry":{"x":169505.79000000004,"y":2555246.2500000019}},{"attributes":{"ID":196159,"DIS_CODE":0,"TOWNNAME":"安定區","LI":"港口里","LIN":"3鄰","STREET":" ","SECT":" ","MAREA":"港口","LANE":" ","ALLEY":" ","HOUSE_NO":"２５３之８３號","E_COORD97":171503.45049700001,"N_COORD97":2554840.8372900002,"ADDRESS":"港口２５３之８３號","OBJECTID":196158},"geometry":{"x":171503.45049699955,"y":2554840.8372869994}},{"attributes":{"ID":196160,"DIS_CODE":0,"TOWNNAME":"安定區","LI":"中榮里","LIN":"3鄰","STREET":" ","SECT":" ","MAREA":"許中營","LANE":" ","ALLEY":" ","HOUSE_NO":"３０之８號","E_COORD97":172458.23999999999,"N_COORD97":2554928.2999999998,"ADDRESS":"許中營３０之８號","OBJECTID":196159},"geometry":{"x":172458.23999999929,"y":2554928.3000000007}},{"attributes":{"ID":196161,"DIS_CODE":0,"TOWNNAME":"永康區","LI":"烏竹里","LIN":"18鄰","STREET":"自強路","SECT":" ","MAREA":" ","LANE":"７７３巷","ALLEY":"５弄","HOUSE_NO":"４８號","E_COORD97":174397.60999999999,"N_COORD97":2548552.7400000002,"ADDRESS":"自強路７７３巷５弄４８號","OBJECTID":196160},"geometry":{"x":174397.61000000127,"y":2548552.7400000021}},{"attributes":{"ID":196162,"DIS_CODE":0,"TOWNNAME":"永康區","LI":"崑山里","LIN":"18鄰","STREET":"大灣路","SECT":" ","MAREA":" ","LANE":"９４２巷","ALLEY":"３４弄","HOUSE_NO":"１９號","E_COORD97":173705.89000000001,"N_COORD97":2544527.9900000002,"ADDRESS":"大灣路９４２巷３４弄１９號","OBJECTID":196161},"geometry":{"x":173705.88999999966,"y":2544527.9900000021}},{"attributes":{"ID":196163,"DIS_CODE":0,"TOWNNAME":"安定區","LI":"港口里","LIN":"3鄰","STREET":" ","SECT":" ","MAREA":"港口","LANE":" ","ALLEY":" ","HOUSE_NO":"２５３之２４號","E_COORD97":171694.04000000001,"N_COORD97":2554896.2999999998,"ADDRESS":"港口２５３之２４號","OBJECTID":196162},"geometry":{"x":171694.04000000097,"y":2554896.3000000026}},{"attributes":{"ID":196164,"DIS_CODE":0,"TOWNNAME":"永康區","LI":"烏竹里","LIN":"18鄰","STREET":"自強路","SECT":" ","MAREA":" ","LANE":"７７３巷","ALLEY":"５弄","HOUSE_NO":"３６號","E_COORD97":174411.20999999999,"N_COORD97":2548581.25,"ADDRESS":"自強路７７３巷５弄３６號","OBJECTID":196163},"geometry":{"x":174411.21000000183,"y":2548581.25}},{"attributes":{"ID":196165,"DIS_CODE":0,"TOWNNAME":"新化區","LI":"知義里","LIN":"3鄰","STREET":" ","SECT":" ","MAREA":"知母義","LANE":" ","ALLEY":" ","HOUSE_NO":"１２７號之１５","E_COORD97":179670.92999999999,"N_COORD97":2547116.2599999998,"ADDRESS":"知母義１２７號之１５","OBJECTID":196164},"geometry":{"x":179670.9299999997,"y":2547116.2599999998}},{"attributes":{"ID":196166,"DIS_CODE":0,"TOWNNAME":"新化區","LI":"知義里","LIN":"3鄰","STREET":" ","SECT":" ","MAREA":"知母義","LANE":" ","ALLEY":" ","HOUSE_NO":"１２７號之５","E_COORD97":179699.78,"N_COORD97":2547122.2599999998,"ADDRESS":"知母義１２７號之５","OBJECTID":196165},"geometry":{"x":179699.78000000026,"y":2547122.2600000016}},{"attributes":{"ID":196167,"DIS_CODE":0,"TOWNNAME":"永康區","LI":"崑山里","LIN":"18鄰","STREET":"大灣路","SECT":" ","MAREA":" ","LANE":"９４２巷","ALLEY":"３４弄","HOUSE_NO":"２５號","E_COORD97":173726.17000000001,"N_COORD97":2544520.3399999999,"ADDRESS":"大灣路９４２巷３４弄２５號","OBJECTID":196166},"geometry":{"x":173726.16999999993,"y":2544520.3400000036}},{"attributes":{"ID":196168,"DIS_CODE":0,"TOWNNAME":"七股區","LI":"大埕里","LIN":"3鄰","STREET":" ","SECT":" ","MAREA":"大埕","LANE":" ","ALLEY":" ","HOUSE_NO":"９２號","E_COORD97":162898.67999999999,"N_COORD97":2561022.1600000001,"ADDRESS":"大埕９２號","OBJECTID":196167},"geometry":{"x":162898.6799999997,"y":2561022.1600000001}},{"attributes":{"ID":196169,"DIS_CODE":0,"TOWNNAME":"新化區","LI":"知義里","LIN":"3鄰","STREET":" ","SECT":" ","MAREA":"知母義","LANE":" ","ALLEY":" ","HOUSE_NO":"１２８號之３","E_COORD97":179781.07000000001,"N_COORD97":2547122.2599999998,"ADDRESS":"知母義１２８號之３","OBJECTID":196168},"geometry":{"x":179781.07000000216,"y":2547122.2600000016}},{"attributes":{"ID":196170,"DIS_CODE":0,"TOWNNAME":"新化區","LI":"知義里","LIN":"3鄰","STREET":" ","SECT":" ","MAREA":"知母義","LANE":" ","ALLEY":" ","HOUSE_NO":"１２５號之１","E_COORD97":179769.04999999999,"N_COORD97":2547164.2599999998,"ADDRESS":"知母義１２５號之１","OBJECTID":196169},"geometry":{"x":179769.05000000075,"y":2547164.2599999998}},{"attributes":{"ID":196171,"DIS_CODE":0,"TOWNNAME":"新化區","LI":"北勢里","LIN":"3鄰","STREET":" ","SECT":" ","MAREA":"北勢","LANE":" ","ALLEY":" ","HOUSE_NO":"６０號","E_COORD97":177420.32999999999,"N_COORD97":2549609.2599999998,"ADDRESS":"北勢６０號","OBJECTID":196170},"geometry":{"x":177420.33000000007,"y":2549609.2599999998}},{"attributes":{"ID":196172,"DIS_CODE":0,"TOWNNAME":"新化區","LI":"知義里","LIN":"3鄰","STREET":" ","SECT":" ","MAREA":"知母義","LANE":" ","ALLEY":" ","HOUSE_NO":"１２７號之３","E_COORD97":179736.76999999999,"N_COORD97":2547155.2599999998,"ADDRESS":"知母義１２７號之３","OBJECTID":196171},"geometry":{"x":179736.77000000048,"y":2547155.2600000016}},{"attributes":{"ID":196173,"DIS_CODE":0,"TOWNNAME":"新化區","LI":"北勢里","LIN":"3鄰","STREET":" ","SECT":" ","MAREA":"北勢","LANE":" ","ALLEY":" ","HOUSE_NO":"６５號之３","E_COORD97":177379.28,"N_COORD97":2549705.2599999998,"ADDRESS":"北勢６５號之３","OBJECTID":196172},"geometry":{"x":177379.28000000212,"y":2549705.2600000016}},{"attributes":{"ID":196174,"DIS_CODE":0,"TOWNNAME":"新化區","LI":"北勢里","LIN":"3鄰","STREET":" ","SECT":" ","MAREA":"北勢","LANE":" ","ALLEY":" ","HOUSE_NO":"６５號之４","E_COORD97":177375.87,"N_COORD97":2549708.2599999998,"ADDRESS":"北勢６５號之４","OBJECTID":196173},"geometry":{"x":177375.87000000104,"y":2549708.2600000016}},{"attributes":{"ID":196175,"DIS_CODE":0,"TOWNNAME":"仁德區","LI":"成功里","LIN":"18鄰","STREET":"全福路","SECT":" ","MAREA":" ","LANE":"７５巷","ALLEY":"１４弄","HOUSE_NO":"１６號","E_COORD97":171087.26000000001,"N_COORD97":2539337.7400000002,"ADDRESS":"全福路７５巷１４弄１６號","OBJECTID":196174},"geometry":{"x":171087.25999999978,"y":2539337.7400000021}},{"attributes":{"ID":196176,"DIS_CODE":0,"TOWNNAME":"永康區","LI":"西勢里","LIN":"18鄰","STREET":"富強路","SECT":"一段","MAREA":" ","LANE":"１３巷","ALLEY":"２弄","HOUSE_NO":"１１號","E_COORD97":175379.17999999999,"N_COORD97":2546088.9300000002,"ADDRESS":"富強路一段１３巷２弄１１號","OBJECTID":196175},"geometry":{"x":175379.18000000063,"y":2546088.9299999978}},{"attributes":{"ID":196177,"DIS_CODE":0,"TOWNNAME":"新化區","LI":"知義里","LIN":"3鄰","STREET":" ","SECT":" ","MAREA":"知母義","LANE":" ","ALLEY":" ","HOUSE_NO":"１２７號之１３","E_COORD97":179674.82000000001,"N_COORD97":2547118.2599999998,"ADDRESS":"知母義１２７號之１３","OBJECTID":196176},"geometry":{"x":179674.82000000123,"y":2547118.2600000016}},{"attributes":{"ID":196178,"DIS_CODE":0,"TOWNNAME":"仁德區","LI":"中生里","LIN":"3鄰","STREET":" ","SECT":" ","MAREA":"中洲","LANE":" ","ALLEY":" ","HOUSE_NO":"９３號之１５","E_COORD97":173035.82999999999,"N_COORD97":2534393.5499999998,"ADDRESS":"中洲９３號之１５","OBJECTID":196177},"geometry":{"x":173035.83000000101,"y":2534393.5500000026}},{"attributes":{"ID":196179,"DIS_CODE":0,"TOWNNAME":"佳里區","LI":"龍安里","LIN":"3鄰","STREET":" ","SECT":" ","MAREA":"塭子內","LANE":" ","ALLEY":" ","HOUSE_NO":"３３號之２","E_COORD97":164351.41,"N_COORD97":2558270.8799999999,"ADDRESS":"塭子內３３號之２","OBJECTID":196178},"geometry":{"x":164351.41000000108,"y":2558270.8800000008}},{"attributes":{"ID":196180,"DIS_CODE":0,"TOWNNAME":"佳里區","LI":"龍安里","LIN":"3鄰","STREET":" ","SECT":" ","MAREA":"塭子內","LANE":" ","ALLEY":" ","HOUSE_NO":"３３號之３","E_COORD97":164358.89999999999,"N_COORD97":2558221.3500000001,"ADDRESS":"塭子內３３號之３","OBJECTID":196179},"geometry":{"x":164358.90000000037,"y":2558221.3500000015}},{"attributes":{"ID":196181,"DIS_CODE":0,"TOWNNAME":"佳里區","LI":"龍安里","LIN":"3鄰","STREET":" ","SECT":" ","MAREA":"塭子內","LANE":" ","ALLEY":" ","HOUSE_NO":"３３號之５","E_COORD97":164328.20000000001,"N_COORD97":2558282.3999999999,"ADDRESS":"塭子內３３號之５","OBJECTID":196180},"geometry":{"x":164328.20000000019,"y":2558282.4000000022}},{"attributes":{"ID":196182,"DIS_CODE":0,"TOWNNAME":"佳里區","LI":"龍安里","LIN":"3鄰","STREET":" ","SECT":" ","MAREA":"塭子內","LANE":" ","ALLEY":" ","HOUSE_NO":"３３號之６","E_COORD97":164323.35999999999,"N_COORD97":2558284.5800000001,"ADDRESS":"塭子內３３號之６","OBJECTID":196181},"geometry":{"x":164323.36000000034,"y":2558284.5800000019}},{"attributes":{"ID":196183,"DIS_CODE":0,"TOWNNAME":"佳里區","LI":"龍安里","LIN":"3鄰","STREET":" ","SECT":" ","MAREA":"塭子內","LANE":" ","ALLEY":" ","HOUSE_NO":"３３號之７","E_COORD97":164319.17000000001,"N_COORD97":2558285.96,"ADDRESS":"塭子內３３號之７","OBJECTID":196182},"geometry":{"x":164319.16999999993,"y":2558285.9600000028}},{"attributes":{"ID":196184,"DIS_CODE":0,"TOWNNAME":"佳里區","LI":"龍安里","LIN":"3鄰","STREET":" ","SECT":" ","MAREA":"塭子內","LANE":" ","ALLEY":" ","HOUSE_NO":"３３號之８","E_COORD97":164315.62,"N_COORD97":2558291.3999999999,"ADDRESS":"塭子內３３號之８","OBJECTID":196183},"geometry":{"x":164315.62000000104,"y":2558291.4000000004}},{"attributes":{"ID":196185,"DIS_CODE":0,"TOWNNAME":"佳里區","LI":"龍安里","LIN":"3鄰","STREET":" ","SECT":" ","MAREA":"塭子內","LANE":" ","ALLEY":" ","HOUSE_NO":"３３號之９","E_COORD97":164311.12,"N_COORD97":2558292.6099999999,"ADDRESS":"塭子內３３號之９","OBJECTID":196184},"geometry":{"x":164311.12000000104,"y":2558292.6099999994}},{"attributes":{"ID":196186,"DIS_CODE":0,"TOWNNAME":"佳里區","LI":"龍安里","LIN":"3鄰","STREET":" ","SECT":" ","MAREA":"塭子內","LANE":" ","ALLEY":" ","HOUSE_NO":"３３號","E_COORD97":164351.56,"N_COORD97":2558296.6800000002,"ADDRESS":"塭子內３３號","OBJECTID":196185},"geometry":{"x":164351.56000000052,"y":2558296.6800000016}},{"attributes":{"ID":196187,"DIS_CODE":0,"TOWNNAME":"佳里區","LI":"龍安里","LIN":"3鄰","STREET":" ","SECT":" ","MAREA":"塭子內","LANE":" ","ALLEY":" ","HOUSE_NO":"３４號","E_COORD97":164384.39000000001,"N_COORD97":2558246.8599999999,"ADDRESS":"塭子內３４號","OBJECTID":196186},"geometry":{"x":164384.39000000153,"y":2558246.8599999994}},{"attributes":{"ID":196188,"DIS_CODE":0,"TOWNNAME":"佳里區","LI":"龍安里","LIN":"3鄰","STREET":" ","SECT":" ","MAREA":"塭子內","LANE":" ","ALLEY":" ","HOUSE_NO":"３５號之１","E_COORD97":164369.04000000001,"N_COORD97":2558220.3700000001,"ADDRESS":"塭子內３５號之１","OBJECTID":196187},"geometry":{"x":164369.04000000097,"y":2558220.370000001}},{"attributes":{"ID":196189,"DIS_CODE":0,"TOWNNAME":"佳里區","LI":"龍安里","LIN":"3鄰","STREET":" ","SECT":" ","MAREA":"塭子內","LANE":" ","ALLEY":" ","HOUSE_NO":"３５號之２２","E_COORD97":164308.87,"N_COORD97":2558112.1200000001,"ADDRESS":"塭子內３５號之２２","OBJECTID":196188},"geometry":{"x":164308.87000000104,"y":2558112.1200000029}},{"attributes":{"ID":196190,"DIS_CODE":0,"TOWNNAME":"佳里區","LI":"龍安里","LIN":"3鄰","STREET":" ","SECT":" ","MAREA":"塭子內","LANE":" ","ALLEY":" ","HOUSE_NO":"３５號之２７","E_COORD97":164284.35999999999,"N_COORD97":2558091.6200000001,"ADDRESS":"塭子內３５號之２７","OBJECTID":196189},"geometry":{"x":164284.36000000034,"y":2558091.6200000029}},{"attributes":{"ID":196191,"DIS_CODE":0,"TOWNNAME":"佳里區","LI":"龍安里","LIN":"3鄰","STREET":" ","SECT":" ","MAREA":"塭子內","LANE":" ","ALLEY":" ","HOUSE_NO":"３５號之２","E_COORD97":164367,"N_COORD97":2558216.3500000001,"ADDRESS":"塭子內３５號之２","OBJECTID":196190},"geometry":{"x":164367.00000000186,"y":2558216.3499999996}},{"attributes":{"ID":196192,"DIS_CODE":0,"TOWNNAME":"佳里區","LI":"龍安里","LIN":"3鄰","STREET":" ","SECT":" ","MAREA":"塭子內","LANE":" ","ALLEY":" ","HOUSE_NO":"３５號之３０","E_COORD97":164252.5,"N_COORD97":2558011.5899999999,"ADDRESS":"塭子內３５號之３０","OBJECTID":196191},"geometry":{"x":164252.5,"y":2558011.5899999999}},{"attributes":{"ID":196193,"DIS_CODE":0,"TOWNNAME":"佳里區","LI":"龍安里","LIN":"3鄰","STREET":" ","SECT":" ","MAREA":"塭子內","LANE":" ","ALLEY":" ","HOUSE_NO":"３５號之３１","E_COORD97":164267.42999999999,"N_COORD97":2558074.4300000002,"ADDRESS":"塭子內３５號之３１","OBJECTID":196192},"geometry":{"x":164267.43000000063,"y":2558074.4300000016}},{"attributes":{"ID":196194,"DIS_CODE":0,"TOWNNAME":"佳里區","LI":"龍安里","LIN":"3鄰","STREET":" ","SECT":" ","MAREA":"塭子內","LANE":" ","ALLEY":" ","HOUSE_NO":"３５號之３","E_COORD97":164364.59,"N_COORD97":2558212.3500000001,"ADDRESS":"塭子內３５號之３","OBJECTID":196193},"geometry":{"x":164364.59000000171,"y":2558212.3499999996}},{"attributes":{"ID":196195,"DIS_CODE":0,"TOWNNAME":"佳里區","LI":"龍安里","LIN":"3鄰","STREET":" ","SECT":" ","MAREA":"塭子內","LANE":" ","ALLEY":" ","HOUSE_NO":"３５號之４","E_COORD97":164361.88,"N_COORD97":2558207.8799999999,"ADDRESS":"塭子內３５號之４","OBJECTID":196194},"geometry":{"x":164361.87999999989,"y":2558207.879999999}},{"attributes":{"ID":196196,"DIS_CODE":0,"TOWNNAME":"佳里區","LI":"龍安里","LIN":"3鄰","STREET":" ","SECT":" ","MAREA":"塭子內","LANE":" ","ALLEY":" ","HOUSE_NO":"３５號之６","E_COORD97":164358.78,"N_COORD97":2558203.4900000002,"ADDRESS":"塭子內３５號之６","OBJECTID":196195},"geometry":{"x":164358.78000000119,"y":2558203.4900000021}},{"attributes":{"ID":196197,"DIS_CODE":0,"TOWNNAME":"佳里區","LI":"龍安里","LIN":"3鄰","STREET":" ","SECT":" ","MAREA":"塭子內","LANE":" ","ALLEY":" ","HOUSE_NO":"３５號之７","E_COORD97":164356.31,"N_COORD97":2558199.54,"ADDRESS":"塭子內３５號之７","OBJECTID":196196},"geometry":{"x":164356.31000000052,"y":2558199.540000001}},{"attributes":{"ID":196198,"DIS_CODE":0,"TOWNNAME":"佳里區","LI":"龍安里","LIN":"3鄰","STREET":" ","SECT":" ","MAREA":"塭子內","LANE":" ","ALLEY":" ","HOUSE_NO":"３５號之８","E_COORD97":164354.51999999999,"N_COORD97":2558195.48,"ADDRESS":"塭子內３５號之８","OBJECTID":196197},"geometry":{"x":164354.52000000142,"y":2558195.4800000004}},{"attributes":{"ID":196199,"DIS_CODE":0,"TOWNNAME":"佳里區","LI":"龍安里","LIN":"3鄰","STREET":" ","SECT":" ","MAREA":"塭子內","LANE":" ","ALLEY":" ","HOUSE_NO":"３５號之９","E_COORD97":164338.38,"N_COORD97":2558184.2000000002,"ADDRESS":"塭子內３５號之９","OBJECTID":196198},"geometry":{"x":164338.37999999989,"y":2558184.2000000011}},{"attributes":{"ID":196200,"DIS_CODE":0,"TOWNNAME":"佳里區","LI":"營頂里","LIN":"3鄰","STREET":" ","SECT":" ","MAREA":"營頂","LANE":" ","ALLEY":" ","HOUSE_NO":"３４號之２","E_COORD97":166790.01000000001,"N_COORD97":2566575.5299999998,"ADDRESS":"營頂３４號之２","OBJECTID":196199},"geometry":{"x":166790.00999999978,"y":2566575.5299999993}},{"attributes":{"ID":196201,"DIS_CODE":0,"TOWNNAME":"佳里區","LI":"營頂里","LIN":"3鄰","STREET":" ","SECT":" ","MAREA":"營頂","LANE":" ","ALLEY":" ","HOUSE_NO":"３４號","E_COORD97":166807.35999999999,"N_COORD97":2566572.96,"ADDRESS":"營頂３４號","OBJECTID":196200},"geometry":{"x":166807.36000000034,"y":2566572.9600000028}}]}