{"displayFieldName":"TOWNNAME","fieldAliases":{"ID":"ID","DIS_CODE":"DIS_CODE","TOWNNAME":"TOWNNAME","LI":"LI","LIN":"LIN","STREET":"STREET","SECT":"SECT","MAREA":"MAREA","LANE":"LANE","ALLEY":"ALLEY","HOUSE_NO":"HOUSE_NO","E_COORD97":"E_COORD97","N_COORD97":"N_COORD97","ADDRESS":"ADDRESS","OBJECTID":"OBJECTID"},"geometryType":"esriGeometryPoint","spatialReference":{"wkid":102443,"latestWkid":3826},"fields":[{"name":"ID","type":"esriFieldTypeDouble","alias":"ID"},{"name":"DIS_CODE","type":"esriFieldTypeInteger","alias":"DIS_CODE"},{"name":"TOWNNAME","type":"esriFieldTypeString","alias":"TOWNNAME","length":8},{"name":"LI","type":"esriFieldTypeString","alias":"LI","length":8},{"name":"LIN","type":"esriFieldTypeString","alias":"LIN","length":12},{"name":"STREET","type":"esriFieldTypeString","alias":"STREET","length":20},{"name":"SECT","type":"esriFieldTypeString","alias":"SECT","length":8},{"name":"MAREA","type":"esriFieldTypeString","alias":"MAREA","length":12},{"name":"LANE","type":"esriFieldTypeString","alias":"LANE","length":10},{"name":"ALLEY","type":"esriFieldTypeString","alias":"ALLEY","length":10},{"name":"HOUSE_NO","type":"esriFieldTypeString","alias":"HOUSE_NO","length":20},{"name":"E_COORD97","type":"esriFieldTypeDouble","alias":"E_COORD97"},{"name":"N_COORD97","type":"esriFieldTypeDouble","alias":"N_COORD97"},{"name":"ADDRESS","type":"esriFieldTypeString","alias":"ADDRESS","length":50},{"name":"OBJECTID","type":"esriFieldTypeOID","alias":"OBJECTID"}],"features":[{"attributes":{"ID":250805,"DIS_CODE":0,"TOWNNAME":"中西區","LI":"公正里","LIN":"14鄰","STREET":"衛民街","SECT":" ","MAREA":" ","LANE":"１０８巷","ALLEY":" ","HOUSE_NO":"３３號","E_COORD97":168861.76999999999,"N_COORD97":2543810.8700000001,"ADDRESS":"衛民街１０８巷３３號","OBJECTID":250801},"geometry":{"x":168861.76999999955,"y":2543810.8700000029}},{"attributes":{"ID":250806,"DIS_CODE":0,"TOWNNAME":"中西區","LI":"公正里","LIN":"14鄰","STREET":"衛民街","SECT":" ","MAREA":" ","LANE":"１０８巷","ALLEY":" ","HOUSE_NO":"３４號","E_COORD97":168863.48000000001,"N_COORD97":2543814.46,"ADDRESS":"衛民街１０８巷３４號","OBJECTID":250802},"geometry":{"x":168863.48000000138,"y":2543814.4600000009}},{"attributes":{"ID":250807,"DIS_CODE":0,"TOWNNAME":"中西區","LI":"公正里","LIN":"14鄰","STREET":"衛民街","SECT":" ","MAREA":" ","LANE":"１０８巷","ALLEY":" ","HOUSE_NO":"３５號","E_COORD97":168865.19,"N_COORD97":2543819.4199999999,"ADDRESS":"衛民街１０８巷３５號","OBJECTID":250803},"geometry":{"x":168865.19000000227,"y":2543819.4200000018}},{"attributes":{"ID":250808,"DIS_CODE":0,"TOWNNAME":"中西區","LI":"公正里","LIN":"14鄰","STREET":"衛民街","SECT":" ","MAREA":" ","LANE":"１０８巷","ALLEY":" ","HOUSE_NO":"３６號","E_COORD97":168865.35999999999,"N_COORD97":2543823.52,"ADDRESS":"衛民街１０８巷３６號","OBJECTID":250804},"geometry":{"x":168865.36000000034,"y":2543823.5200000033}},{"attributes":{"ID":250809,"DIS_CODE":0,"TOWNNAME":"中西區","LI":"公正里","LIN":"14鄰","STREET":"衛民街","SECT":" ","MAREA":" ","LANE":"１０８巷","ALLEY":" ","HOUSE_NO":"３７號","E_COORD97":168866.56,"N_COORD97":2543827.6200000001,"ADDRESS":"衛民街１０８巷３７號","OBJECTID":250805},"geometry":{"x":168866.55999999959,"y":2543827.620000001}},{"attributes":{"ID":250810,"DIS_CODE":0,"TOWNNAME":"中西區","LI":"公正里","LIN":"14鄰","STREET":"衛民街","SECT":" ","MAREA":" ","LANE":"１０８巷","ALLEY":" ","HOUSE_NO":"３８號","E_COORD97":168867.42000000001,"N_COORD97":2543831.8900000001,"ADDRESS":"衛民街１０８巷３８號","OBJECTID":250806},"geometry":{"x":168867.41999999993,"y":2543831.8900000006}},{"attributes":{"ID":250811,"DIS_CODE":0,"TOWNNAME":"中西區","LI":"公正里","LIN":"14鄰","STREET":"衛民街","SECT":" ","MAREA":" ","LANE":"１０８巷","ALLEY":" ","HOUSE_NO":"５號","E_COORD97":168878.37,"N_COORD97":2543824.3700000001,"ADDRESS":"衛民街１０８巷５號","OBJECTID":250807},"geometry":{"x":168878.37000000011,"y":2543824.3700000029}},{"attributes":{"ID":250812,"DIS_CODE":0,"TOWNNAME":"中西區","LI":"公正里","LIN":"14鄰","STREET":"衛民街","SECT":" ","MAREA":" ","LANE":"１０８巷","ALLEY":" ","HOUSE_NO":"６號","E_COORD97":168890.51999999999,"N_COORD97":2543825.7400000002,"ADDRESS":"衛民街１０８巷６號","OBJECTID":250808},"geometry":{"x":168890.51999999955,"y":2543825.7400000002}},{"attributes":{"ID":250813,"DIS_CODE":0,"TOWNNAME":"中西區","LI":"福安里","LIN":"14鄰","STREET":"永福路","SECT":"二段","MAREA":" ","LANE":"３５巷","ALLEY":" ","HOUSE_NO":"１１號","E_COORD97":167993.17000000001,"N_COORD97":2543468.54,"ADDRESS":"永福路二段３５巷１１號","OBJECTID":250809},"geometry":{"x":167993.16999999993,"y":2543468.540000001}},{"attributes":{"ID":250814,"DIS_CODE":0,"TOWNNAME":"中西區","LI":"福安里","LIN":"14鄰","STREET":"永福路","SECT":"二段","MAREA":" ","LANE":"３５巷","ALLEY":" ","HOUSE_NO":"１３號","E_COORD97":168005.89000000001,"N_COORD97":2543470.3300000001,"ADDRESS":"永福路二段３５巷１３號","OBJECTID":250810},"geometry":{"x":168005.8900000006,"y":2543470.3300000019}},{"attributes":{"ID":250815,"DIS_CODE":0,"TOWNNAME":"中西區","LI":"福安里","LIN":"14鄰","STREET":"永福路","SECT":"二段","MAREA":" ","LANE":"３５巷","ALLEY":" ","HOUSE_NO":"３４號","E_COORD97":167971.70999999999,"N_COORD97":2543470.7000000002,"ADDRESS":"永福路二段３５巷３４號","OBJECTID":250811},"geometry":{"x":167971.71000000089,"y":2543470.7000000011}},{"attributes":{"ID":250816,"DIS_CODE":0,"TOWNNAME":"安南區","LI":"海東里","LIN":"14鄰","STREET":"海佃路","SECT":"二段","MAREA":" ","LANE":"４１７巷","ALLEY":" ","HOUSE_NO":"２３號","E_COORD97":166661.32999999999,"N_COORD97":2548940.9500000002,"ADDRESS":"海佃路二段４１７巷２３號","OBJECTID":250812},"geometry":{"x":166661.33000000007,"y":2548940.9500000011}},{"attributes":{"ID":250817,"DIS_CODE":0,"TOWNNAME":"安南區","LI":"海東里","LIN":"14鄰","STREET":"海佃路","SECT":"二段","MAREA":" ","LANE":"４１７巷","ALLEY":" ","HOUSE_NO":"２５號","E_COORD97":166657.14000000001,"N_COORD97":2548938.98,"ADDRESS":"海佃路二段４１７巷２５號","OBJECTID":250813},"geometry":{"x":166657.13999999966,"y":2548938.9800000023}},{"attributes":{"ID":250818,"DIS_CODE":0,"TOWNNAME":"安南區","LI":"海南里","LIN":"14鄰","STREET":"府安路","SECT":"七段","MAREA":" ","LANE":"６６巷","ALLEY":" ","HOUSE_NO":"２號","E_COORD97":165922.70000000001,"N_COORD97":2545907.9100000001,"ADDRESS":"府安路七段６６巷２號","OBJECTID":250814},"geometry":{"x":165922.70000000112,"y":2545907.910000002}},{"attributes":{"ID":250819,"DIS_CODE":0,"TOWNNAME":"安南區","LI":"海南里","LIN":"14鄰","STREET":"府安路","SECT":"七段","MAREA":" ","LANE":"６６巷","ALLEY":" ","HOUSE_NO":"７號","E_COORD97":165892.60000000001,"N_COORD97":2545911.6099999999,"ADDRESS":"府安路七段６６巷７號","OBJECTID":250815},"geometry":{"x":165892.59999999963,"y":2545911.6100000013}},{"attributes":{"ID":250820,"DIS_CODE":0,"TOWNNAME":"安南區","LI":"海南里","LIN":"14鄰","STREET":"府安路","SECT":"七段","MAREA":" ","LANE":"６６巷","ALLEY":" ","HOUSE_NO":"８號","E_COORD97":165914.14000000001,"N_COORD97":2545926.4900000002,"ADDRESS":"府安路七段６６巷８號","OBJECTID":250816},"geometry":{"x":165914.1400000006,"y":2545926.4900000039}},{"attributes":{"ID":250821,"DIS_CODE":0,"TOWNNAME":"東區","LI":"大學里","LIN":"11鄰","STREET":"長榮路","SECT":"三段","MAREA":" ","LANE":"６６巷","ALLEY":" ","HOUSE_NO":"３７號之２三樓","E_COORD97":170323.28,"N_COORD97":2543797.98,"ADDRESS":"長榮路三段６６巷３７號之２三樓","OBJECTID":250817},"geometry":{"x":170323.28000000026,"y":2543797.9800000023}},{"attributes":{"ID":250822,"DIS_CODE":0,"TOWNNAME":"東區","LI":"大學里","LIN":"11鄰","STREET":"長榮路","SECT":"三段","MAREA":" ","LANE":"６６巷","ALLEY":" ","HOUSE_NO":"３３號之１三樓","E_COORD97":170332.29000000001,"N_COORD97":2543824.8999999999,"ADDRESS":"長榮路三段６６巷３３號之１三樓","OBJECTID":250818},"geometry":{"x":170332.29000000097,"y":2543824.9000000004}},{"attributes":{"ID":250823,"DIS_CODE":0,"TOWNNAME":"安南區","LI":"海南里","LIN":"14鄰","STREET":"府安路","SECT":"七段","MAREA":" ","LANE":"６６巷","ALLEY":" ","HOUSE_NO":"１３號","E_COORD97":165878.82000000001,"N_COORD97":2545932.7000000002,"ADDRESS":"府安路七段６６巷１３號","OBJECTID":250819},"geometry":{"x":165878.82000000216,"y":2545932.6999999993}},{"attributes":{"ID":250824,"DIS_CODE":0,"TOWNNAME":"安南區","LI":"海南里","LIN":"14鄰","STREET":"府安路","SECT":"七段","MAREA":" ","LANE":"６６巷","ALLEY":" ","HOUSE_NO":"１５號","E_COORD97":165873.89000000001,"N_COORD97":2545939.5800000001,"ADDRESS":"府安路七段６６巷１５號","OBJECTID":250820},"geometry":{"x":165873.88999999966,"y":2545939.5800000038}},{"attributes":{"ID":250825,"DIS_CODE":0,"TOWNNAME":"安平區","LI":"國平里","LIN":"14鄰","STREET":"健康路","SECT":"三段","MAREA":" ","LANE":" ","ALLEY":" ","HOUSE_NO":"１９８號","E_COORD97":165464.70000000001,"N_COORD97":2542704.3799999999,"ADDRESS":"健康路三段１９８號","OBJECTID":250821},"geometry":{"x":165464.70000000112,"y":2542704.379999999}},{"attributes":{"ID":250826,"DIS_CODE":0,"TOWNNAME":"安平區","LI":"國平里","LIN":"14鄰","STREET":"健康路","SECT":"三段","MAREA":" ","LANE":" ","ALLEY":" ","HOUSE_NO":"２００號","E_COORD97":165460.53,"N_COORD97":2542704.98,"ADDRESS":"健康路三段２００號","OBJECTID":250822},"geometry":{"x":165460.53000000119,"y":2542704.9800000004}},{"attributes":{"ID":250827,"DIS_CODE":0,"TOWNNAME":"安南區","LI":"溪北里","LIN":"18鄰","STREET":"惠安街","SECT":" ","MAREA":" ","LANE":"２４巷","ALLEY":" ","HOUSE_NO":"１０號","E_COORD97":169120.39000000001,"N_COORD97":2547489.3900000001,"ADDRESS":"惠安街２４巷１０號","OBJECTID":250823},"geometry":{"x":169120.38999999966,"y":2547489.3900000006}},{"attributes":{"ID":250828,"DIS_CODE":0,"TOWNNAME":"楠西區","LI":"灣丘里","LIN":"8鄰","STREET":" ","SECT":" ","MAREA":"灣丘","LANE":" ","ALLEY":" ","HOUSE_NO":"８８號之８","E_COORD97":201520.79583399999,"N_COORD97":2564358.19056,"ADDRESS":"灣丘８８號之８","OBJECTID":250824},"geometry":{"x":201520.79583400022,"y":2564358.1905649994}},{"attributes":{"ID":250829,"DIS_CODE":0,"TOWNNAME":"安南區","LI":"海南里","LIN":"14鄰","STREET":"府安路","SECT":"七段","MAREA":" ","LANE":"６６巷","ALLEY":" ","HOUSE_NO":"２５號","E_COORD97":165849.16,"N_COORD97":2545973.27,"ADDRESS":"府安路七段６６巷２５號","OBJECTID":250825},"geometry":{"x":165849.15999999922,"y":2545973.2699999996}},{"attributes":{"ID":250830,"DIS_CODE":0,"TOWNNAME":"安平區","LI":"國平里","LIN":"14鄰","STREET":"健康路","SECT":"三段","MAREA":" ","LANE":" ","ALLEY":" ","HOUSE_NO":"２０２號","E_COORD97":165455.76999999999,"N_COORD97":2542706.5699999998,"ADDRESS":"健康路三段２０２號","OBJECTID":250826},"geometry":{"x":165455.76999999955,"y":2542706.5700000022}},{"attributes":{"ID":250831,"DIS_CODE":0,"TOWNNAME":"後壁區","LI":"長安里","LIN":"13鄰","STREET":" ","SECT":" ","MAREA":"中寮","LANE":" ","ALLEY":" ","HOUSE_NO":"１７９號","E_COORD97":184184,"N_COORD97":2581568.3599999999,"ADDRESS":"中寮１７９號","OBJECTID":250827},"geometry":{"x":184184.00000000093,"y":2581568.3599999994}},{"attributes":{"ID":250832,"DIS_CODE":0,"TOWNNAME":"安南區","LI":"淵東里","LIN":"14鄰","STREET":"安中路","SECT":"三段","MAREA":" ","LANE":"４００巷","ALLEY":" ","HOUSE_NO":"１９４號","E_COORD97":165590.32000000001,"N_COORD97":2550309.5499999998,"ADDRESS":"安中路三段４００巷１９４號","OBJECTID":250828},"geometry":{"x":165590.3200000003,"y":2550309.5500000007}},{"attributes":{"ID":250833,"DIS_CODE":0,"TOWNNAME":"安南區","LI":"理想里","LIN":"14鄰","STREET":"大安街","SECT":" ","MAREA":" ","LANE":"７５巷","ALLEY":" ","HOUSE_NO":"５號","E_COORD97":167172.45000000001,"N_COORD97":2548051.8599999999,"ADDRESS":"大安街７５巷５號","OBJECTID":250829},"geometry":{"x":167172.45000000019,"y":2548051.8599999994}},{"attributes":{"ID":250834,"DIS_CODE":0,"TOWNNAME":"安南區","LI":"理想里","LIN":"14鄰","STREET":"大安街","SECT":" ","MAREA":" ","LANE":"８９巷","ALLEY":" ","HOUSE_NO":"１號","E_COORD97":167208.14999999999,"N_COORD97":2548071.5,"ADDRESS":"大安街８９巷１號","OBJECTID":250830},"geometry":{"x":167208.1500000013,"y":2548071.5}},{"attributes":{"ID":250835,"DIS_CODE":0,"TOWNNAME":"安南區","LI":"理想里","LIN":"14鄰","STREET":"大安街","SECT":" ","MAREA":" ","LANE":"８９巷","ALLEY":" ","HOUSE_NO":"４號","E_COORD97":167215.29000000001,"N_COORD97":2548091.3300000001,"ADDRESS":"大安街８９巷４號","OBJECTID":250831},"geometry":{"x":167215.29000000097,"y":2548091.3300000019}},{"attributes":{"ID":250836,"DIS_CODE":0,"TOWNNAME":"安南區","LI":"理想里","LIN":"14鄰","STREET":"大安街","SECT":" ","MAREA":" ","LANE":"８９巷","ALLEY":" ","HOUSE_NO":"６號","E_COORD97":167210.78,"N_COORD97":2548094.71,"ADDRESS":"大安街８９巷６號","OBJECTID":250832},"geometry":{"x":167210.78000000026,"y":2548094.7100000009}},{"attributes":{"ID":250837,"DIS_CODE":0,"TOWNNAME":"安南區","LI":"理想里","LIN":"14鄰","STREET":"大安街","SECT":" ","MAREA":" ","LANE":"８９巷","ALLEY":" ","HOUSE_NO":"１２號","E_COORD97":167198,"N_COORD97":2548101.8399999999,"ADDRESS":"大安街８９巷１２號","OBJECTID":250833},"geometry":{"x":167198.00000000186,"y":2548101.8400000017}},{"attributes":{"ID":250838,"DIS_CODE":0,"TOWNNAME":"安南區","LI":"理想里","LIN":"14鄰","STREET":"大安街","SECT":" ","MAREA":" ","LANE":"８９巷","ALLEY":" ","HOUSE_NO":"１６號","E_COORD97":167188.23000000001,"N_COORD97":2548108.6000000001,"ADDRESS":"大安街８９巷１６號","OBJECTID":250834},"geometry":{"x":167188.22999999952,"y":2548108.6000000034}},{"attributes":{"ID":250839,"DIS_CODE":0,"TOWNNAME":"永康區","LI":"龍潭里","LIN":"14鄰","STREET":"龍橋街","SECT":" ","MAREA":" ","LANE":"９３巷","ALLEY":" ","HOUSE_NO":"１８號","E_COORD97":174656.32999999999,"N_COORD97":2548444.77,"ADDRESS":"龍橋街９３巷１８號","OBJECTID":250835},"geometry":{"x":174656.33000000194,"y":2548444.7699999996}},{"attributes":{"ID":250840,"DIS_CODE":0,"TOWNNAME":"永康區","LI":"崑山里","LIN":"14鄰","STREET":"大灣路","SECT":" ","MAREA":" ","LANE":"９７０巷","ALLEY":" ","HOUSE_NO":"２０號","E_COORD97":173555.79999999999,"N_COORD97":2544460.71,"ADDRESS":"大灣路９７０巷２０號","OBJECTID":250836},"geometry":{"x":173555.79999999981,"y":2544460.7100000009}},{"attributes":{"ID":250841,"DIS_CODE":0,"TOWNNAME":"永康區","LI":"崑山里","LIN":"14鄰","STREET":"大灣路","SECT":" ","MAREA":" ","LANE":"９７０巷","ALLEY":" ","HOUSE_NO":"４０號","E_COORD97":173557.41,"N_COORD97":2544496.7000000002,"ADDRESS":"大灣路９７０巷４０號","OBJECTID":250837},"geometry":{"x":173557.41000000201,"y":2544496.700000003}},{"attributes":{"ID":250842,"DIS_CODE":0,"TOWNNAME":"永康區","LI":"崑山里","LIN":"14鄰","STREET":"大灣路","SECT":" ","MAREA":" ","LANE":"９７０巷","ALLEY":" ","HOUSE_NO":"１２號","E_COORD97":173555.29999999999,"N_COORD97":2544446.46,"ADDRESS":"大灣路９７０巷１２號","OBJECTID":250838},"geometry":{"x":173555.29999999981,"y":2544446.4600000028}},{"attributes":{"ID":250843,"DIS_CODE":0,"TOWNNAME":"永康區","LI":"崑山里","LIN":"14鄰","STREET":"大灣路","SECT":" ","MAREA":" ","LANE":"９７０巷","ALLEY":" ","HOUSE_NO":"１８號","E_COORD97":173555.79999999999,"N_COORD97":2544457.46,"ADDRESS":"大灣路９７０巷１８號","OBJECTID":250839},"geometry":{"x":173555.79999999981,"y":2544457.4600000028}},{"attributes":{"ID":250844,"DIS_CODE":0,"TOWNNAME":"永康區","LI":"崑山里","LIN":"14鄰","STREET":"大灣路","SECT":" ","MAREA":" ","LANE":"９７０巷","ALLEY":" ","HOUSE_NO":"２７號","E_COORD97":173544.19,"N_COORD97":2544484.48,"ADDRESS":"大灣路９７０巷２７號","OBJECTID":250840},"geometry":{"x":173544.19000000134,"y":2544484.4800000004}},{"attributes":{"ID":250845,"DIS_CODE":0,"TOWNNAME":"永康區","LI":"崑山里","LIN":"14鄰","STREET":"大灣路","SECT":" ","MAREA":" ","LANE":"９７０巷","ALLEY":" ","HOUSE_NO":"３０號","E_COORD97":173556.41,"N_COORD97":2544478.96,"ADDRESS":"大灣路９７０巷３０號","OBJECTID":250841},"geometry":{"x":173556.41000000108,"y":2544478.9600000009}},{"attributes":{"ID":250846,"DIS_CODE":0,"TOWNNAME":"永康區","LI":"崑山里","LIN":"14鄰","STREET":"大灣路","SECT":" ","MAREA":" ","LANE":"９７０巷","ALLEY":" ","HOUSE_NO":"２２號","E_COORD97":173556,"N_COORD97":2544464.21,"ADDRESS":"大灣路９７０巷２２號","OBJECTID":250842},"geometry":{"x":173556,"y":2544464.2100000009}},{"attributes":{"ID":250847,"DIS_CODE":0,"TOWNNAME":"永康區","LI":"崑山里","LIN":"14鄰","STREET":"大灣路","SECT":" ","MAREA":" ","LANE":"９７０巷","ALLEY":" ","HOUSE_NO":"３１號","E_COORD97":173544.70999999999,"N_COORD97":2544493.4700000002,"ADDRESS":"大灣路９７０巷３１號","OBJECTID":250843},"geometry":{"x":173544.70999999996,"y":2544493.4700000025}},{"attributes":{"ID":250848,"DIS_CODE":0,"TOWNNAME":"永康區","LI":"崑山里","LIN":"14鄰","STREET":"大灣路","SECT":" ","MAREA":" ","LANE":"９７０巷","ALLEY":" ","HOUSE_NO":"３８號","E_COORD97":173557.25,"N_COORD97":2544493.4500000002,"ADDRESS":"大灣路９７０巷３８號","OBJECTID":250844},"geometry":{"x":173557.25000000093,"y":2544493.4499999993}},{"attributes":{"ID":250849,"DIS_CODE":0,"TOWNNAME":"永康區","LI":"崑山里","LIN":"14鄰","STREET":"大灣路","SECT":" ","MAREA":" ","LANE":"９７０巷","ALLEY":" ","HOUSE_NO":"２８號","E_COORD97":173556.5,"N_COORD97":2544475.46,"ADDRESS":"大灣路９７０巷２８號","OBJECTID":250845},"geometry":{"x":173556.50000000186,"y":2544475.4600000009}},{"attributes":{"ID":250850,"DIS_CODE":0,"TOWNNAME":"安南區","LI":"新順里","LIN":"15鄰","STREET":"培安二街","SECT":" ","MAREA":" ","LANE":" ","ALLEY":" ","HOUSE_NO":"６０號","E_COORD97":169394.45000000001,"N_COORD97":2549763.0600000001,"ADDRESS":"培安二街６０號","OBJECTID":250846},"geometry":{"x":169394.45000000112,"y":2549763.0600000005}},{"attributes":{"ID":250851,"DIS_CODE":0,"TOWNNAME":"永康區","LI":"崑山里","LIN":"14鄰","STREET":"大灣路","SECT":" ","MAREA":" ","LANE":"９７０巷","ALLEY":" ","HOUSE_NO":"３９號","E_COORD97":173542.35000000001,"N_COORD97":2544511.9700000002,"ADDRESS":"大灣路９７０巷３９號","OBJECTID":250847},"geometry":{"x":173542.35000000056,"y":2544511.9700000007}},{"attributes":{"ID":250852,"DIS_CODE":0,"TOWNNAME":"永康區","LI":"崑山里","LIN":"14鄰","STREET":"大灣路","SECT":" ","MAREA":" ","LANE":"９７０巷","ALLEY":" ","HOUSE_NO":"４２號","E_COORD97":173557.66,"N_COORD97":2544500.2000000002,"ADDRESS":"大灣路９７０巷４２號","OBJECTID":250848},"geometry":{"x":173557.66000000108,"y":2544500.200000003}},{"attributes":{"ID":250853,"DIS_CODE":0,"TOWNNAME":"永康區","LI":"崑山里","LIN":"14鄰","STREET":"大灣路","SECT":" ","MAREA":" ","LANE":"９７０巷","ALLEY":" ","HOUSE_NO":"３５號","E_COORD97":173545.10999999999,"N_COORD97":2544502.4700000002,"ADDRESS":"大灣路９７０巷３５號","OBJECTID":250849},"geometry":{"x":173545.11000000127,"y":2544502.4700000007}},{"attributes":{"ID":250854,"DIS_CODE":0,"TOWNNAME":"永康區","LI":"崑山里","LIN":"14鄰","STREET":"大灣路","SECT":" ","MAREA":" ","LANE":"９７０巷","ALLEY":" ","HOUSE_NO":"１０號","E_COORD97":173554.91,"N_COORD97":2544442.71,"ADDRESS":"大灣路９７０巷１０號","OBJECTID":250850},"geometry":{"x":173554.91000000015,"y":2544442.7100000009}},{"attributes":{"ID":250855,"DIS_CODE":0,"TOWNNAME":"永康區","LI":"崑山里","LIN":"14鄰","STREET":"大灣路","SECT":" ","MAREA":" ","LANE":"９７０巷","ALLEY":" ","HOUSE_NO":"３２號","E_COORD97":173557.01000000001,"N_COORD97":2544482.46,"ADDRESS":"大灣路９７０巷３２號","OBJECTID":250851},"geometry":{"x":173557.01000000071,"y":2544482.4600000009}},{"attributes":{"ID":250856,"DIS_CODE":0,"TOWNNAME":"永康區","LI":"崑山里","LIN":"14鄰","STREET":"大灣路","SECT":" ","MAREA":" ","LANE":"９７０巷","ALLEY":" ","HOUSE_NO":"１４號","E_COORD97":173555.10999999999,"N_COORD97":2544450.21,"ADDRESS":"大灣路９７０巷１４號","OBJECTID":250852},"geometry":{"x":173555.11000000127,"y":2544450.2100000009}},{"attributes":{"ID":250857,"DIS_CODE":0,"TOWNNAME":"安南區","LI":"安順里","LIN":"14鄰","STREET":"總安街","SECT":"一段","MAREA":" ","LANE":"１４６巷","ALLEY":" ","HOUSE_NO":"１４８號","E_COORD97":169641.45999999999,"N_COORD97":2550490.54,"ADDRESS":"總安街一段１４６巷１４８號","OBJECTID":250853},"geometry":{"x":169641.46000000089,"y":2550490.5399999991}},{"attributes":{"ID":250858,"DIS_CODE":0,"TOWNNAME":"安南區","LI":"安順里","LIN":"14鄰","STREET":"總安街","SECT":"一段","MAREA":" ","LANE":"１４６巷","ALLEY":" ","HOUSE_NO":"１５０號","E_COORD97":169641.62,"N_COORD97":2550494.6699999999,"ADDRESS":"總安街一段１４６巷１５０號","OBJECTID":250854},"geometry":{"x":169641.62000000197,"y":2550494.6699999999}},{"attributes":{"ID":250859,"DIS_CODE":0,"TOWNNAME":"安南區","LI":"安順里","LIN":"14鄰","STREET":"總安街","SECT":"一段","MAREA":" ","LANE":"１４６巷","ALLEY":" ","HOUSE_NO":"１５２號","E_COORD97":169642.41,"N_COORD97":2550499.4300000002,"ADDRESS":"總安街一段１４６巷１５２號","OBJECTID":250855},"geometry":{"x":169642.41000000015,"y":2550499.4299999997}},{"attributes":{"ID":250860,"DIS_CODE":0,"TOWNNAME":"安南區","LI":"新順里","LIN":"14鄰","STREET":"安和路","SECT":"二段","MAREA":" ","LANE":"３１８巷","ALLEY":" ","HOUSE_NO":"１０７號","E_COORD97":170028.17000000001,"N_COORD97":2549282.27,"ADDRESS":"安和路二段３１８巷１０７號","OBJECTID":250856},"geometry":{"x":170028.17000000086,"y":2549282.2699999996}},{"attributes":{"ID":250861,"DIS_CODE":0,"TOWNNAME":"安南區","LI":"新順里","LIN":"14鄰","STREET":"安和路","SECT":"二段","MAREA":" ","LANE":"３１８巷","ALLEY":" ","HOUSE_NO":"１３７之１號","E_COORD97":170155.54999999999,"N_COORD97":2549305.0099999998,"ADDRESS":"安和路二段３１８巷１３７之１號","OBJECTID":250857},"geometry":{"x":170155.55000000168,"y":2549305.0099999998}},{"attributes":{"ID":250862,"DIS_CODE":0,"TOWNNAME":"南區","LI":"新興里","LIN":"14鄰","STREET":"夏林路","SECT":" ","MAREA":" ","LANE":"１８０巷","ALLEY":" ","HOUSE_NO":"８號","E_COORD97":167418.92999999999,"N_COORD97":2542341.5099999998,"ADDRESS":"夏林路１８０巷８號","OBJECTID":250858},"geometry":{"x":167418.93000000063,"y":2542341.5099999998}},{"attributes":{"ID":250863,"DIS_CODE":0,"TOWNNAME":"東區","LI":"仁和里","LIN":"14鄰","STREET":"東門路","SECT":"三段","MAREA":" ","LANE":"３３８巷","ALLEY":" ","HOUSE_NO":"１１７號","E_COORD97":171871.14000000001,"N_COORD97":2541071.3999999999,"ADDRESS":"東門路三段３３８巷１１７號","OBJECTID":250859},"geometry":{"x":171871.13999999966,"y":2541071.4000000004}},{"attributes":{"ID":250864,"DIS_CODE":0,"TOWNNAME":"東區","LI":"仁和里","LIN":"14鄰","STREET":"東門路","SECT":"三段","MAREA":" ","LANE":"３３８巷","ALLEY":" ","HOUSE_NO":"１１８號","E_COORD97":171867.26999999999,"N_COORD97":2541068.5,"ADDRESS":"東門路三段３３８巷１１８號","OBJECTID":250860},"geometry":{"x":171867.26999999955,"y":2541068.5000000019}},{"attributes":{"ID":250865,"DIS_CODE":0,"TOWNNAME":"東區","LI":"仁和里","LIN":"14鄰","STREET":"東門路","SECT":"三段","MAREA":" ","LANE":"３３８巷","ALLEY":" ","HOUSE_NO":"１１９號","E_COORD97":171863.01999999999,"N_COORD97":2541071.0099999998,"ADDRESS":"東門路三段３３８巷１１９號","OBJECTID":250861},"geometry":{"x":171863.02000000048,"y":2541071.0100000035}},{"attributes":{"ID":250866,"DIS_CODE":0,"TOWNNAME":"東區","LI":"仁和里","LIN":"14鄰","STREET":"東門路","SECT":"三段","MAREA":" ","LANE":"３３８巷","ALLEY":" ","HOUSE_NO":"１２０號","E_COORD97":171858.38,"N_COORD97":2541068.3100000001,"ADDRESS":"東門路三段３３８巷１２０號","OBJECTID":250862},"geometry":{"x":171858.37999999989,"y":2541068.3100000005}},{"attributes":{"ID":250867,"DIS_CODE":0,"TOWNNAME":"東區","LI":"仁和里","LIN":"14鄰","STREET":"東門路","SECT":"三段","MAREA":" ","LANE":"３３８巷","ALLEY":" ","HOUSE_NO":"１２１號","E_COORD97":171855.29000000001,"N_COORD97":2541070.6299999999,"ADDRESS":"東門路三段３３８巷１２１號","OBJECTID":250863},"geometry":{"x":171855.29000000004,"y":2541070.6300000008}},{"attributes":{"ID":250868,"DIS_CODE":0,"TOWNNAME":"東區","LI":"仁和里","LIN":"14鄰","STREET":"東門路","SECT":"三段","MAREA":" ","LANE":"３３８巷","ALLEY":" ","HOUSE_NO":"１２２號","E_COORD97":171854.13,"N_COORD97":2541046.4900000002,"ADDRESS":"東門路三段３３８巷１２２號","OBJECTID":250864},"geometry":{"x":171854.13000000082,"y":2541046.4900000002}},{"attributes":{"ID":250869,"DIS_CODE":0,"TOWNNAME":"東區","LI":"仁和里","LIN":"14鄰","STREET":"東門路","SECT":"三段","MAREA":" ","LANE":"３３８巷","ALLEY":" ","HOUSE_NO":"１２３號","E_COORD97":171858.57999999999,"N_COORD97":2541043.98,"ADDRESS":"東門路三段３３８巷１２３號","OBJECTID":250865},"geometry":{"x":171858.58000000007,"y":2541043.9800000004}},{"attributes":{"ID":250870,"DIS_CODE":0,"TOWNNAME":"後壁區","LI":"土溝里","LIN":"5鄰","STREET":" ","SECT":" ","MAREA":"土溝","LANE":" ","ALLEY":" ","HOUSE_NO":"４２號","E_COORD97":186881.73000000001,"N_COORD97":2585677.3999999999,"ADDRESS":"土溝４２號","OBJECTID":250866},"geometry":{"x":186881.73000000138,"y":2585677.4000000022}},{"attributes":{"ID":250871,"DIS_CODE":0,"TOWNNAME":"東區","LI":"仁和里","LIN":"14鄰","STREET":"東門路","SECT":"三段","MAREA":" ","LANE":"３３８巷","ALLEY":" ","HOUSE_NO":"１２５號","E_COORD97":171866.31,"N_COORD97":2541044.7599999998,"ADDRESS":"東門路三段３３８巷１２５號","OBJECTID":250867},"geometry":{"x":171866.31000000052,"y":2541044.7599999998}},{"attributes":{"ID":250872,"DIS_CODE":0,"TOWNNAME":"東區","LI":"仁和里","LIN":"14鄰","STREET":"東門路","SECT":"三段","MAREA":" ","LANE":"３３８巷","ALLEY":" ","HOUSE_NO":"１２６號","E_COORD97":171870.17000000001,"N_COORD97":2541046.4900000002,"ADDRESS":"東門路三段３３８巷１２６號","OBJECTID":250868},"geometry":{"x":171870.16999999899,"y":2541046.4900000002}},{"attributes":{"ID":250873,"DIS_CODE":0,"TOWNNAME":"東區","LI":"仁和里","LIN":"14鄰","STREET":"東門路","SECT":"三段","MAREA":" ","LANE":"３３８巷","ALLEY":" ","HOUSE_NO":"１２７號","E_COORD97":171874.04000000001,"N_COORD97":2541044.5600000001,"ADDRESS":"東門路三段３３８巷１２７號","OBJECTID":250869},"geometry":{"x":171874.04000000004,"y":2541044.5600000024}},{"attributes":{"ID":250874,"DIS_CODE":0,"TOWNNAME":"東區","LI":"仁和里","LIN":"14鄰","STREET":"東門路","SECT":"三段","MAREA":" ","LANE":"３３８巷","ALLEY":" ","HOUSE_NO":"１１５號","E_COORD97":171879.06,"N_COORD97":2541071.2000000002,"ADDRESS":"東門路三段３３８巷１１５號","OBJECTID":250870},"geometry":{"x":171879.05999999866,"y":2541071.1999999993}},{"attributes":{"ID":250875,"DIS_CODE":0,"TOWNNAME":"東區","LI":"仁和里","LIN":"14鄰","STREET":"東門路","SECT":"三段","MAREA":" ","LANE":"３３８巷","ALLEY":" ","HOUSE_NO":"１１６號","E_COORD97":171874.81,"N_COORD97":2541069.46,"ADDRESS":"東門路三段３３８巷１１６號","OBJECTID":250871},"geometry":{"x":171874.81000000052,"y":2541069.4600000028}},{"attributes":{"ID":250876,"DIS_CODE":0,"TOWNNAME":"仁德區","LI":"成功里","LIN":"14鄰","STREET":"全福路","SECT":" ","MAREA":" ","LANE":"８０巷","ALLEY":" ","HOUSE_NO":"４號","E_COORD97":171015.85000000001,"N_COORD97":2539292.25,"ADDRESS":"全福路８０巷４號","OBJECTID":250872},"geometry":{"x":171015.84999999963,"y":2539292.25}},{"attributes":{"ID":250877,"DIS_CODE":0,"TOWNNAME":"仁德區","LI":"後壁里","LIN":"14鄰","STREET":"德南路","SECT":" ","MAREA":" ","LANE":"１３７巷","ALLEY":" ","HOUSE_NO":"３９號","E_COORD97":173585.79000000001,"N_COORD97":2538705.5099999998,"ADDRESS":"德南路１３７巷３９號","OBJECTID":250873},"geometry":{"x":173585.79000000097,"y":2538705.5100000016}},{"attributes":{"ID":250878,"DIS_CODE":0,"TOWNNAME":"仁德區","LI":"太子里","LIN":"14鄰","STREET":"長興路","SECT":" ","MAREA":" ","LANE":"８７巷","ALLEY":" ","HOUSE_NO":"３８號","E_COORD97":174014.10000000001,"N_COORD97":2543801.5,"ADDRESS":"長興路８７巷３８號","OBJECTID":250874},"geometry":{"x":174014.09999999963,"y":2543801.5000000019}},{"attributes":{"ID":250879,"DIS_CODE":0,"TOWNNAME":"後壁區","LI":"長安里","LIN":"2鄰","STREET":" ","SECT":" ","MAREA":"中寮","LANE":" ","ALLEY":" ","HOUSE_NO":"１７號","E_COORD97":184506.39000000001,"N_COORD97":2581290.6000000001,"ADDRESS":"中寮１７號","OBJECTID":250875},"geometry":{"x":184506.3900000006,"y":2581290.6000000015}},{"attributes":{"ID":250880,"DIS_CODE":0,"TOWNNAME":"仁德區","LI":"成功里","LIN":"11鄰","STREET":"成功二街","SECT":" ","MAREA":" ","LANE":"３１巷","ALLEY":" ","HOUSE_NO":"２０號","E_COORD97":170982.62,"N_COORD97":2539841.5,"ADDRESS":"成功二街３１巷２０號","OBJECTID":250876},"geometry":{"x":170982.62000000197,"y":2539841.5000000019}},{"attributes":{"ID":250881,"DIS_CODE":0,"TOWNNAME":"永康區","LI":"新樹里","LIN":"11鄰","STREET":"富強路","SECT":"二段","MAREA":" ","LANE":"１２８巷","ALLEY":" ","HOUSE_NO":"１５號","E_COORD97":175708.59,"N_COORD97":2547113.79,"ADDRESS":"富強路二段１２８巷１５號","OBJECTID":250877},"geometry":{"x":175708.58999999892,"y":2547113.790000001}},{"attributes":{"ID":250882,"DIS_CODE":0,"TOWNNAME":"仁德區","LI":"太子里","LIN":"14鄰","STREET":"長興路","SECT":" ","MAREA":" ","LANE":"８７巷","ALLEY":" ","HOUSE_NO":"４２號","E_COORD97":174004.57000000001,"N_COORD97":2543798,"ADDRESS":"長興路８７巷４２號","OBJECTID":250878},"geometry":{"x":174004.57000000123,"y":2543798.0000000019}},{"attributes":{"ID":250883,"DIS_CODE":0,"TOWNNAME":"仁德區","LI":"後壁里","LIN":"14鄰","STREET":"德善路","SECT":" ","MAREA":" ","LANE":"１９８巷","ALLEY":" ","HOUSE_NO":"１２之６號","E_COORD97":173665.23999999999,"N_COORD97":2538686.4399999999,"ADDRESS":"德善路１９８巷１２之６號","OBJECTID":250879},"geometry":{"x":173665.23999999929,"y":2538686.4399999995}},{"attributes":{"ID":250884,"DIS_CODE":0,"TOWNNAME":"仁德區","LI":"太子里","LIN":"14鄰","STREET":"長興路","SECT":" ","MAREA":" ","LANE":"８７巷","ALLEY":" ","HOUSE_NO":"２３之１號","E_COORD97":174013.01999999999,"N_COORD97":2543773.54,"ADDRESS":"長興路８７巷２３之１號","OBJECTID":250880},"geometry":{"x":174013.01999999955,"y":2543773.540000001}},{"attributes":{"ID":250885,"DIS_CODE":0,"TOWNNAME":"仁德區","LI":"後壁里","LIN":"14鄰","STREET":"德南路","SECT":" ","MAREA":" ","LANE":"１３７巷","ALLEY":" ","HOUSE_NO":"３７號","E_COORD97":173582.45999999999,"N_COORD97":2538708.0099999998,"ADDRESS":"德南路１３７巷３７號","OBJECTID":250881},"geometry":{"x":173582.46000000089,"y":2538708.0100000035}},{"attributes":{"ID":250886,"DIS_CODE":0,"TOWNNAME":"仁德區","LI":"後壁里","LIN":"14鄰","STREET":"德善路","SECT":" ","MAREA":" ","LANE":"１９８巷","ALLEY":" ","HOUSE_NO":"２之７號","E_COORD97":173693.98000000001,"N_COORD97":2538736.29,"ADDRESS":"德善路１９８巷２之７號","OBJECTID":250882},"geometry":{"x":173693.98000000045,"y":2538736.290000001}},{"attributes":{"ID":250887,"DIS_CODE":0,"TOWNNAME":"仁德區","LI":"後壁里","LIN":"14鄰","STREET":"德善路","SECT":" ","MAREA":" ","LANE":"１９８巷","ALLEY":" ","HOUSE_NO":"１２之９號","E_COORD97":173662.39000000001,"N_COORD97":2538676.6899999999,"ADDRESS":"德善路１９８巷１２之９號","OBJECTID":250883},"geometry":{"x":173662.3900000006,"y":2538676.6900000013}},{"attributes":{"ID":250888,"DIS_CODE":0,"TOWNNAME":"仁德區","LI":"後壁里","LIN":"14鄰","STREET":"德善路","SECT":" ","MAREA":" ","LANE":"１９８巷","ALLEY":" ","HOUSE_NO":"１２之１號","E_COORD97":173679.56,"N_COORD97":2538674.9399999999,"ADDRESS":"德善路１９８巷１２之１號","OBJECTID":250884},"geometry":{"x":173679.56000000145,"y":2538674.9400000013}},{"attributes":{"ID":250889,"DIS_CODE":0,"TOWNNAME":"永康區","LI":"東橋里","LIN":"14鄰","STREET":"東橋三路","SECT":" ","MAREA":" ","LANE":"１５巷","ALLEY":" ","HOUSE_NO":"３號","E_COORD97":171630.91,"N_COORD97":2546498.6899999999,"ADDRESS":"東橋三路１５巷３號","OBJECTID":250885},"geometry":{"x":171630.91000000015,"y":2546498.6900000013}},{"attributes":{"ID":250890,"DIS_CODE":0,"TOWNNAME":"永康區","LI":"東橋里","LIN":"14鄰","STREET":"東橋三路","SECT":" ","MAREA":" ","LANE":"１５巷","ALLEY":" ","HOUSE_NO":"５號","E_COORD97":171626.44,"N_COORD97":2546495.9100000001,"ADDRESS":"東橋三路１５巷５號","OBJECTID":250886},"geometry":{"x":171626.43999999948,"y":2546495.9100000001}},{"attributes":{"ID":250891,"DIS_CODE":0,"TOWNNAME":"永康區","LI":"東橋里","LIN":"14鄰","STREET":"東橋三路","SECT":" ","MAREA":" ","LANE":"１５巷","ALLEY":" ","HOUSE_NO":"６號","E_COORD97":171627.01000000001,"N_COORD97":2546506.4500000002,"ADDRESS":"東橋三路１５巷６號","OBJECTID":250887},"geometry":{"x":171627.00999999885,"y":2546506.4500000011}},{"attributes":{"ID":250892,"DIS_CODE":0,"TOWNNAME":"永康區","LI":"東橋里","LIN":"14鄰","STREET":"東橋三路","SECT":" ","MAREA":" ","LANE":"１５巷","ALLEY":" ","HOUSE_NO":"７號","E_COORD97":171622.06,"N_COORD97":2546492.96,"ADDRESS":"東橋三路１５巷７號","OBJECTID":250888},"geometry":{"x":171622.06000000052,"y":2546492.9600000009}},{"attributes":{"ID":250893,"DIS_CODE":0,"TOWNNAME":"永康區","LI":"東橋里","LIN":"14鄰","STREET":"東橋三路","SECT":" ","MAREA":" ","LANE":"１５巷","ALLEY":" ","HOUSE_NO":"８號","E_COORD97":171622.82000000001,"N_COORD97":2546503.6499999999,"ADDRESS":"東橋三路１５巷８號","OBJECTID":250889},"geometry":{"x":171622.82000000123,"y":2546503.6500000022}},{"attributes":{"ID":250894,"DIS_CODE":0,"TOWNNAME":"永康區","LI":"東橋里","LIN":"14鄰","STREET":"東橋三路","SECT":" ","MAREA":" ","LANE":"１５巷","ALLEY":" ","HOUSE_NO":"９號","E_COORD97":171617.28,"N_COORD97":2546489.8599999999,"ADDRESS":"東橋三路１５巷９號","OBJECTID":250890},"geometry":{"x":171617.28000000212,"y":2546489.8600000013}},{"attributes":{"ID":250895,"DIS_CODE":0,"TOWNNAME":"永康區","LI":"東橋里","LIN":"14鄰","STREET":"東橋三路","SECT":" ","MAREA":" ","LANE":"５巷","ALLEY":" ","HOUSE_NO":"１０號","E_COORD97":171627.62,"N_COORD97":2546474.23,"ADDRESS":"東橋三路５巷１０號","OBJECTID":250891},"geometry":{"x":171627.62000000011,"y":2546474.2299999986}},{"attributes":{"ID":250896,"DIS_CODE":0,"TOWNNAME":"永康區","LI":"東橋里","LIN":"14鄰","STREET":"東橋三路","SECT":" ","MAREA":" ","LANE":"５巷","ALLEY":" ","HOUSE_NO":"１１號","E_COORD97":171625.76999999999,"N_COORD97":2546453.96,"ADDRESS":"東橋三路５巷１１號","OBJECTID":250892},"geometry":{"x":171625.77000000048,"y":2546453.9600000028}},{"attributes":{"ID":250897,"DIS_CODE":0,"TOWNNAME":"永康區","LI":"東橋里","LIN":"14鄰","STREET":"東橋三路","SECT":" ","MAREA":" ","LANE":"５巷","ALLEY":" ","HOUSE_NO":"１２號","E_COORD97":171623.09,"N_COORD97":2546471.3100000001,"ADDRESS":"東橋三路５巷１２號","OBJECTID":250893},"geometry":{"x":171623.08999999985,"y":2546471.3100000024}},{"attributes":{"ID":250898,"DIS_CODE":0,"TOWNNAME":"歸仁區","LI":"六甲里","LIN":"18鄰","STREET":"六甲三街","SECT":" ","MAREA":" ","LANE":"７巷","ALLEY":" ","HOUSE_NO":"１１號","E_COORD97":175607.22674400001,"N_COORD97":2539172.2340199999,"ADDRESS":"六甲三街７巷１１號","OBJECTID":250894},"geometry":{"x":175607.2267440008,"y":2539172.234023001}},{"attributes":{"ID":250899,"DIS_CODE":0,"TOWNNAME":"歸仁區","LI":"南興里","LIN":"4鄰","STREET":"文化十二街","SECT":" ","MAREA":" ","LANE":"３３巷","ALLEY":" ","HOUSE_NO":"７號","E_COORD97":176422.79000000001,"N_COORD97":2541308.3300000001,"ADDRESS":"文化十二街３３巷７號","OBJECTID":250895},"geometry":{"x":176422.78999999911,"y":2541308.3300000001}},{"attributes":{"ID":250900,"DIS_CODE":0,"TOWNNAME":"安平區","LI":"國平里","LIN":"14鄰","STREET":"健康路","SECT":"三段","MAREA":" ","LANE":" ","ALLEY":" ","HOUSE_NO":"２０４號","E_COORD97":165451.20000000001,"N_COORD97":2542706.96,"ADDRESS":"健康路三段２０４號","OBJECTID":250896},"geometry":{"x":165451.20000000112,"y":2542706.9600000028}},{"attributes":{"ID":250901,"DIS_CODE":0,"TOWNNAME":"安平區","LI":"國平里","LIN":"14鄰","STREET":"健康路","SECT":"三段","MAREA":" ","LANE":" ","ALLEY":" ","HOUSE_NO":"２０６號","E_COORD97":165447.62,"N_COORD97":2542707.9500000002,"ADDRESS":"健康路三段２０６號","OBJECTID":250897},"geometry":{"x":165447.61999999918,"y":2542707.9499999993}},{"attributes":{"ID":250902,"DIS_CODE":0,"TOWNNAME":"永康區","LI":"復國里","LIN":"11鄰","STREET":"復國一路","SECT":" ","MAREA":" ","LANE":"２８０巷","ALLEY":" ","HOUSE_NO":"４３號","E_COORD97":172853.07000000001,"N_COORD97":2545488.1299999999,"ADDRESS":"復國一路２８０巷４３號","OBJECTID":250898},"geometry":{"x":172853.07000000123,"y":2545488.1300000008}},{"attributes":{"ID":250903,"DIS_CODE":0,"TOWNNAME":"永康區","LI":"勝利里","LIN":"11鄰","STREET":"勝利街","SECT":" ","MAREA":" ","LANE":"７３巷","ALLEY":" ","HOUSE_NO":"８號","E_COORD97":171316.63,"N_COORD97":2544724.75,"ADDRESS":"勝利街７３巷８號","OBJECTID":250899},"geometry":{"x":171316.63000000082,"y":2544724.7500000019}},{"attributes":{"ID":250904,"DIS_CODE":0,"TOWNNAME":"歸仁區","LI":"南保里","LIN":"47鄰","STREET":"民權十街","SECT":" ","MAREA":" ","LANE":"１２３巷","ALLEY":" ","HOUSE_NO":"２號","E_COORD97":176751.73999999999,"N_COORD97":2540640.29,"ADDRESS":"民權十街１２３巷２號","OBJECTID":250900},"geometry":{"x":176751.74000000022,"y":2540640.2899999991}},{"attributes":{"ID":250905,"DIS_CODE":0,"TOWNNAME":"永康區","LI":"東橋里","LIN":"14鄰","STREET":"東橋三路","SECT":" ","MAREA":" ","LANE":"５巷","ALLEY":" ","HOUSE_NO":"１６號","E_COORD97":171618.67999999999,"N_COORD97":2546468.3999999999,"ADDRESS":"東橋三路５巷１６號","OBJECTID":250901},"geometry":{"x":171618.6799999997,"y":2546468.4000000004}},{"attributes":{"ID":250906,"DIS_CODE":0,"TOWNNAME":"永康區","LI":"東橋里","LIN":"14鄰","STREET":"東橋三路","SECT":" ","MAREA":" ","LANE":"５巷","ALLEY":" ","HOUSE_NO":"１號","E_COORD97":171646.64999999999,"N_COORD97":2546468.6299999999,"ADDRESS":"東橋三路５巷１號","OBJECTID":250902},"geometry":{"x":171646.65000000037,"y":2546468.629999999}},{"attributes":{"ID":250907,"DIS_CODE":0,"TOWNNAME":"永康區","LI":"東橋里","LIN":"14鄰","STREET":"東橋三路","SECT":" ","MAREA":" ","LANE":"５巷","ALLEY":" ","HOUSE_NO":"２號","E_COORD97":171639.67000000001,"N_COORD97":2546482.9300000002,"ADDRESS":"東橋三路５巷２號","OBJECTID":250903},"geometry":{"x":171639.66999999899,"y":2546482.9300000016}},{"attributes":{"ID":250908,"DIS_CODE":0,"TOWNNAME":"永康區","LI":"東橋里","LIN":"14鄰","STREET":"東橋三路","SECT":" ","MAREA":" ","LANE":"５巷","ALLEY":" ","HOUSE_NO":"３號","E_COORD97":171642.34,"N_COORD97":2546465.7000000002,"ADDRESS":"東橋三路５巷３號","OBJECTID":250904},"geometry":{"x":171642.34000000078,"y":2546465.6999999993}},{"attributes":{"ID":250909,"DIS_CODE":0,"TOWNNAME":"永康區","LI":"東橋里","LIN":"14鄰","STREET":"東橋三路","SECT":" ","MAREA":" ","LANE":"５巷","ALLEY":" ","HOUSE_NO":"５號","E_COORD97":171637.78,"N_COORD97":2546462.7400000002,"ADDRESS":"東橋三路５巷５號","OBJECTID":250905},"geometry":{"x":171637.78000000212,"y":2546462.7400000002}},{"attributes":{"ID":250910,"DIS_CODE":0,"TOWNNAME":"永康區","LI":"東橋里","LIN":"14鄰","STREET":"東橋三路","SECT":" ","MAREA":" ","LANE":"５巷","ALLEY":" ","HOUSE_NO":"６號","E_COORD97":171635.20000000001,"N_COORD97":2546480.0099999998,"ADDRESS":"東橋三路５巷６號","OBJECTID":250906},"geometry":{"x":171635.20000000112,"y":2546480.0100000016}},{"attributes":{"ID":250911,"DIS_CODE":0,"TOWNNAME":"永康區","LI":"東橋里","LIN":"14鄰","STREET":"東橋三路","SECT":" ","MAREA":" ","LANE":"５巷","ALLEY":" ","HOUSE_NO":"７號","E_COORD97":171633.64999999999,"N_COORD97":2546459.73,"ADDRESS":"東橋三路５巷７號","OBJECTID":250907},"geometry":{"x":171633.65000000224,"y":2546459.7300000004}},{"attributes":{"ID":250912,"DIS_CODE":0,"TOWNNAME":"永康區","LI":"東橋里","LIN":"14鄰","STREET":"東橋三路","SECT":" ","MAREA":" ","LANE":"５巷","ALLEY":" ","HOUSE_NO":"８號","E_COORD97":171630.72,"N_COORD97":2546476.96,"ADDRESS":"東橋三路５巷８號","OBJECTID":250908},"geometry":{"x":171630.7200000016,"y":2546476.9600000046}},{"attributes":{"ID":250913,"DIS_CODE":0,"TOWNNAME":"永康區","LI":"東橋里","LIN":"14鄰","STREET":"東橋三路","SECT":" ","MAREA":" ","LANE":"５巷","ALLEY":" ","HOUSE_NO":"９號","E_COORD97":171629.09,"N_COORD97":2546456.7400000002,"ADDRESS":"東橋三路５巷９號","OBJECTID":250909},"geometry":{"x":171629.09000000078,"y":2546456.7400000002}},{"attributes":{"ID":250914,"DIS_CODE":0,"TOWNNAME":"永康區","LI":"龍潭里","LIN":"14鄰","STREET":"龍埔街","SECT":" ","MAREA":" ","LANE":"１３６巷","ALLEY":" ","HOUSE_NO":"１０號","E_COORD97":174482.89000000001,"N_COORD97":2548298.5899999999,"ADDRESS":"龍埔街１３６巷１０號","OBJECTID":250910},"geometry":{"x":174482.8900000006,"y":2548298.589999998}},{"attributes":{"ID":250915,"DIS_CODE":0,"TOWNNAME":"永康區","LI":"龍潭里","LIN":"14鄰","STREET":"龍埔街","SECT":" ","MAREA":" ","LANE":"１３６巷","ALLEY":" ","HOUSE_NO":"１１號","E_COORD97":174467.17000000001,"N_COORD97":2548309.7799999998,"ADDRESS":"龍埔街１３６巷１１號","OBJECTID":250911},"geometry":{"x":174467.16999999993,"y":2548309.7799999993}},{"attributes":{"ID":250916,"DIS_CODE":0,"TOWNNAME":"永康區","LI":"龍潭里","LIN":"14鄰","STREET":"龍埔街","SECT":" ","MAREA":" ","LANE":"１３６巷","ALLEY":" ","HOUSE_NO":"１２號","E_COORD97":174483.57000000001,"N_COORD97":2548302.54,"ADDRESS":"龍埔街１３６巷１２號","OBJECTID":250912},"geometry":{"x":174483.56999999937,"y":2548302.540000001}},{"attributes":{"ID":250917,"DIS_CODE":0,"TOWNNAME":"永康區","LI":"龍潭里","LIN":"14鄰","STREET":"龍埔街","SECT":" ","MAREA":" ","LANE":"１３６巷","ALLEY":" ","HOUSE_NO":"１６號","E_COORD97":174484.09,"N_COORD97":2548307.1200000001,"ADDRESS":"龍埔街１３６巷１６號","OBJECTID":250913},"geometry":{"x":174484.08999999985,"y":2548307.1200000029}},{"attributes":{"ID":250918,"DIS_CODE":0,"TOWNNAME":"永康區","LI":"龍潭里","LIN":"14鄰","STREET":"龍埔街","SECT":" ","MAREA":" ","LANE":"１３６巷","ALLEY":" ","HOUSE_NO":"１號","E_COORD97":174464.59,"N_COORD97":2548286.8900000001,"ADDRESS":"龍埔街１３６巷１號","OBJECTID":250914},"geometry":{"x":174464.59000000078,"y":2548286.8900000006}},{"attributes":{"ID":250919,"DIS_CODE":0,"TOWNNAME":"永康區","LI":"龍潭里","LIN":"14鄰","STREET":"龍埔街","SECT":" ","MAREA":" ","LANE":"１３６巷","ALLEY":" ","HOUSE_NO":"２號","E_COORD97":174479.76999999999,"N_COORD97":2548284.71,"ADDRESS":"龍埔街１３６巷２號","OBJECTID":250915},"geometry":{"x":174479.77000000142,"y":2548284.7100000009}},{"attributes":{"ID":250920,"DIS_CODE":0,"TOWNNAME":"永康區","LI":"龍潭里","LIN":"14鄰","STREET":"龍埔街","SECT":" ","MAREA":" ","LANE":"１３６巷","ALLEY":" ","HOUSE_NO":"３號","E_COORD97":174465.06,"N_COORD97":2548291.21,"ADDRESS":"龍埔街１３６巷３號","OBJECTID":250916},"geometry":{"x":174465.06000000052,"y":2548291.2100000009}},{"attributes":{"ID":250921,"DIS_CODE":0,"TOWNNAME":"永康區","LI":"龍潭里","LIN":"14鄰","STREET":"龍埔街","SECT":" ","MAREA":" ","LANE":"１３６巷","ALLEY":" ","HOUSE_NO":"５號","E_COORD97":174465.57000000001,"N_COORD97":2548295.8599999999,"ADDRESS":"龍埔街１３６巷５號","OBJECTID":250917},"geometry":{"x":174465.57000000123,"y":2548295.8599999994}},{"attributes":{"ID":250922,"DIS_CODE":0,"TOWNNAME":"永康區","LI":"龍潭里","LIN":"14鄰","STREET":"龍埔街","SECT":" ","MAREA":" ","LANE":"１３６巷","ALLEY":" ","HOUSE_NO":"６號","E_COORD97":174480.59,"N_COORD97":2548289.2200000002,"ADDRESS":"龍埔街１３６巷６號","OBJECTID":250918},"geometry":{"x":174480.58999999985,"y":2548289.2200000025}},{"attributes":{"ID":250923,"DIS_CODE":0,"TOWNNAME":"永康區","LI":"龍潭里","LIN":"14鄰","STREET":"龍埔街","SECT":" ","MAREA":" ","LANE":"１３６巷","ALLEY":" ","HOUSE_NO":"７號","E_COORD97":174465.85000000001,"N_COORD97":2548300.25,"ADDRESS":"龍埔街１３６巷７號","OBJECTID":250919},"geometry":{"x":174465.85000000149,"y":2548300.25}},{"attributes":{"ID":250924,"DIS_CODE":0,"TOWNNAME":"永康區","LI":"龍潭里","LIN":"14鄰","STREET":"龍埔街","SECT":" ","MAREA":" ","LANE":"１３６巷","ALLEY":" ","HOUSE_NO":"８號","E_COORD97":174480.94,"N_COORD97":2548293.79,"ADDRESS":"龍埔街１３６巷８號","OBJECTID":250920},"geometry":{"x":174480.94000000041,"y":2548293.790000001}},{"attributes":{"ID":250925,"DIS_CODE":0,"TOWNNAME":"永康區","LI":"龍潭里","LIN":"14鄰","STREET":"龍埔街","SECT":" ","MAREA":" ","LANE":"１３６巷","ALLEY":" ","HOUSE_NO":"９號","E_COORD97":174466.17999999999,"N_COORD97":2548305.0899999999,"ADDRESS":"龍埔街１３６巷９號","OBJECTID":250921},"geometry":{"x":174466.1799999997,"y":2548305.0899999999}},{"attributes":{"ID":250926,"DIS_CODE":0,"TOWNNAME":"安平區","LI":"國平里","LIN":"14鄰","STREET":"健康路","SECT":"三段","MAREA":" ","LANE":" ","ALLEY":" ","HOUSE_NO":"２０８號","E_COORD97":165443.04999999999,"N_COORD97":2542708.5499999998,"ADDRESS":"健康路三段２０８號","OBJECTID":250922},"geometry":{"x":165443.05000000075,"y":2542708.5500000007}},{"attributes":{"ID":250927,"DIS_CODE":0,"TOWNNAME":"安平區","LI":"國平里","LIN":"14鄰","STREET":"健康路","SECT":"三段","MAREA":" ","LANE":" ","ALLEY":" ","HOUSE_NO":"２１０號","E_COORD97":165439.28,"N_COORD97":2542709.3399999999,"ADDRESS":"健康路三段２１０號","OBJECTID":250923},"geometry":{"x":165439.28000000026,"y":2542709.3399999999}},{"attributes":{"ID":250928,"DIS_CODE":0,"TOWNNAME":"善化區","LI":"胡厝里","LIN":"11鄰","STREET":" ","SECT":" ","MAREA":"百二甲","LANE":" ","ALLEY":" ","HOUSE_NO":"１２號","E_COORD97":175320.07000000001,"N_COORD97":2559899.6800000002,"ADDRESS":"百二甲１２號","OBJECTID":250924},"geometry":{"x":175320.07000000123,"y":2559899.6799999978}},{"attributes":{"ID":250929,"DIS_CODE":0,"TOWNNAME":"善化區","LI":"溪美里","LIN":"11鄰","STREET":" ","SECT":" ","MAREA":"溪尾","LANE":" ","ALLEY":" ","HOUSE_NO":"１０６號","E_COORD97":176782.16,"N_COORD97":2561467.77,"ADDRESS":"溪尾１０６號","OBJECTID":250925},"geometry":{"x":176782.16000000108,"y":2561467.7699999996}},{"attributes":{"ID":250930,"DIS_CODE":0,"TOWNNAME":"永康區","LI":"大橋里","LIN":"11鄰","STREET":"大橋三街","SECT":" ","MAREA":" ","LANE":"２６６巷","ALLEY":" ","HOUSE_NO":"８３號","E_COORD97":170966.01000000001,"N_COORD97":2546759,"ADDRESS":"大橋三街２６６巷８３號","OBJECTID":250926},"geometry":{"x":170966.01000000164,"y":2546759}},{"attributes":{"ID":250931,"DIS_CODE":0,"TOWNNAME":"善化區","LI":"胡厝里","LIN":"11鄰","STREET":" ","SECT":" ","MAREA":"百二甲","LANE":" ","ALLEY":" ","HOUSE_NO":"１７號","E_COORD97":175256.17999999999,"N_COORD97":2559902.5,"ADDRESS":"百二甲１７號","OBJECTID":250927},"geometry":{"x":175256.1799999997,"y":2559902.5000000019}},{"attributes":{"ID":250932,"DIS_CODE":0,"TOWNNAME":"善化區","LI":"東昌里","LIN":"11鄰","STREET":" ","SECT":" ","MAREA":"東勢寮","LANE":" ","ALLEY":" ","HOUSE_NO":"１０１之２８號","E_COORD97":180194.79999999999,"N_COORD97":2561564.02,"ADDRESS":"東勢寮１０１之２８號","OBJECTID":250928},"geometry":{"x":180194.80000000075,"y":2561564.0199999996}},{"attributes":{"ID":250933,"DIS_CODE":0,"TOWNNAME":"善化區","LI":"胡厝里","LIN":"11鄰","STREET":" ","SECT":" ","MAREA":"百二甲","LANE":" ","ALLEY":" ","HOUSE_NO":"１１號之１","E_COORD97":175354.62,"N_COORD97":2559849.27,"ADDRESS":"百二甲１１號之１","OBJECTID":250929},"geometry":{"x":175354.62000000104,"y":2559849.2700000014}},{"attributes":{"ID":250934,"DIS_CODE":0,"TOWNNAME":"善化區","LI":"東昌里","LIN":"11鄰","STREET":" ","SECT":" ","MAREA":"東勢寮","LANE":" ","ALLEY":" ","HOUSE_NO":"９７號之８","E_COORD97":180191.51000000001,"N_COORD97":2561779.77,"ADDRESS":"東勢寮９７號之８","OBJECTID":250930},"geometry":{"x":180191.51000000071,"y":2561779.7699999996}},{"attributes":{"ID":250935,"DIS_CODE":0,"TOWNNAME":"歸仁區","LI":"南保里","LIN":"31鄰","STREET":"民權八街","SECT":" ","MAREA":" ","LANE":"２３巷","ALLEY":" ","HOUSE_NO":"２號","E_COORD97":176922.19,"N_COORD97":2540948.29,"ADDRESS":"民權八街２３巷２號","OBJECTID":250931},"geometry":{"x":176922.19000000041,"y":2540948.2899999991}},{"attributes":{"ID":250936,"DIS_CODE":0,"TOWNNAME":"善化區","LI":"胡厝里","LIN":"11鄰","STREET":" ","SECT":" ","MAREA":"百二甲","LANE":" ","ALLEY":" ","HOUSE_NO":"１１號之８","E_COORD97":175391.62,"N_COORD97":2559713.77,"ADDRESS":"百二甲１１號之８","OBJECTID":250932},"geometry":{"x":175391.61999999918,"y":2559713.7700000014}},{"attributes":{"ID":250937,"DIS_CODE":0,"TOWNNAME":"歸仁區","LI":"六甲里","LIN":"11鄰","STREET":"中正南路","SECT":"一段","MAREA":" ","LANE":"１０６７巷","ALLEY":" ","HOUSE_NO":"１號","E_COORD97":176008.35000000001,"N_COORD97":2539073.2799999998,"ADDRESS":"中正南路一段１０６７巷１號","OBJECTID":250933},"geometry":{"x":176008.35000000149,"y":2539073.2800000012}},{"attributes":{"ID":250938,"DIS_CODE":0,"TOWNNAME":"歸仁區","LI":"南興里","LIN":"4鄰","STREET":"文化十二街","SECT":" ","MAREA":" ","LANE":"３３巷","ALLEY":" ","HOUSE_NO":"１號","E_COORD97":176421.69,"N_COORD97":2541294.3300000001,"ADDRESS":"文化十二街３３巷１號","OBJECTID":250934},"geometry":{"x":176421.69000000041,"y":2541294.3300000019}},{"attributes":{"ID":250939,"DIS_CODE":0,"TOWNNAME":"永康區","LI":"六合里","LIN":"14鄰","STREET":"六合路","SECT":" ","MAREA":" ","LANE":"４８巷","ALLEY":" ","HOUSE_NO":"１０號","E_COORD97":171189.07000000001,"N_COORD97":2545592.5,"ADDRESS":"六合路４８巷１０號","OBJECTID":250935},"geometry":{"x":171189.0700000003,"y":2545592.5}},{"attributes":{"ID":250940,"DIS_CODE":0,"TOWNNAME":"永康區","LI":"六合里","LIN":"14鄰","STREET":"六合路","SECT":" ","MAREA":" ","LANE":"４８巷","ALLEY":" ","HOUSE_NO":"１２號","E_COORD97":171192.75,"N_COORD97":2545592.5,"ADDRESS":"六合路４８巷１２號","OBJECTID":250936},"geometry":{"x":171192.75,"y":2545592.5}},{"attributes":{"ID":250941,"DIS_CODE":0,"TOWNNAME":"永康區","LI":"六合里","LIN":"14鄰","STREET":"六合路","SECT":" ","MAREA":" ","LANE":"４８巷","ALLEY":" ","HOUSE_NO":"１４號","E_COORD97":171196.73000000001,"N_COORD97":2545592.5,"ADDRESS":"六合路４８巷１４號","OBJECTID":250937},"geometry":{"x":171196.73000000045,"y":2545592.5}},{"attributes":{"ID":250942,"DIS_CODE":0,"TOWNNAME":"善化區","LI":"東昌里","LIN":"11鄰","STREET":" ","SECT":" ","MAREA":"東勢寮","LANE":" ","ALLEY":" ","HOUSE_NO":"９７之５號","E_COORD97":180177.42999999999,"N_COORD97":2561776.02,"ADDRESS":"東勢寮９７之５號","OBJECTID":250938},"geometry":{"x":180177.4299999997,"y":2561776.0200000014}},{"attributes":{"ID":250943,"DIS_CODE":0,"TOWNNAME":"善化區","LI":"溪美里","LIN":"11鄰","STREET":" ","SECT":" ","MAREA":"溪尾","LANE":" ","ALLEY":" ","HOUSE_NO":"１０７號","E_COORD97":176788.79999999999,"N_COORD97":2561485.02,"ADDRESS":"溪尾１０７號","OBJECTID":250939},"geometry":{"x":176788.80000000168,"y":2561485.0200000014}},{"attributes":{"ID":250944,"DIS_CODE":0,"TOWNNAME":"永康區","LI":"六合里","LIN":"14鄰","STREET":"六合路","SECT":" ","MAREA":" ","LANE":"４８巷","ALLEY":" ","HOUSE_NO":"１６號","E_COORD97":171200.59,"N_COORD97":2545592.25,"ADDRESS":"六合路４８巷１６號","OBJECTID":250940},"geometry":{"x":171200.58999999985,"y":2545592.2500000037}},{"attributes":{"ID":250945,"DIS_CODE":0,"TOWNNAME":"永康區","LI":"六合里","LIN":"14鄰","STREET":"六合路","SECT":" ","MAREA":" ","LANE":"４８巷","ALLEY":" ","HOUSE_NO":"１８號","E_COORD97":171209.48999999999,"N_COORD97":2545591.75,"ADDRESS":"六合路４８巷１８號","OBJECTID":250941},"geometry":{"x":171209.49000000115,"y":2545591.75}},{"attributes":{"ID":250946,"DIS_CODE":0,"TOWNNAME":"善化區","LI":"胡厝里","LIN":"11鄰","STREET":" ","SECT":" ","MAREA":"百二甲","LANE":" ","ALLEY":" ","HOUSE_NO":"１１號","E_COORD97":175344.13,"N_COORD97":2559885.5,"ADDRESS":"百二甲１１號","OBJECTID":250942},"geometry":{"x":175344.13000000082,"y":2559885.5000000019}},{"attributes":{"ID":250947,"DIS_CODE":0,"TOWNNAME":"永康區","LI":"六合里","LIN":"14鄰","STREET":"六合路","SECT":" ","MAREA":" ","LANE":"４８巷","ALLEY":" ","HOUSE_NO":"２０號","E_COORD97":171213.64999999999,"N_COORD97":2545590.75,"ADDRESS":"六合路４８巷２０號","OBJECTID":250943},"geometry":{"x":171213.6500000013,"y":2545590.75}},{"attributes":{"ID":250948,"DIS_CODE":0,"TOWNNAME":"安平區","LI":"國平里","LIN":"14鄰","STREET":"健康路","SECT":"三段","MAREA":" ","LANE":" ","ALLEY":" ","HOUSE_NO":"２１２號","E_COORD97":165435.31,"N_COORD97":2542709.7400000002,"ADDRESS":"健康路三段２１２號","OBJECTID":250944},"geometry":{"x":165435.30999999959,"y":2542709.7400000002}},{"attributes":{"ID":250949,"DIS_CODE":0,"TOWNNAME":"安南區","LI":"新順里","LIN":"15鄰","STREET":"培安二街","SECT":" ","MAREA":" ","LANE":" ","ALLEY":" ","HOUSE_NO":"６２號","E_COORD97":169392.76000000001,"N_COORD97":2549766.4199999999,"ADDRESS":"培安二街６２號","OBJECTID":250945},"geometry":{"x":169392.75999999885,"y":2549766.4199999999}},{"attributes":{"ID":250950,"DIS_CODE":0,"TOWNNAME":"善化區","LI":"胡厝里","LIN":"11鄰","STREET":" ","SECT":" ","MAREA":"百二甲","LANE":" ","ALLEY":" ","HOUSE_NO":"１８號之２","E_COORD97":175270.85999999999,"N_COORD97":2559847.27,"ADDRESS":"百二甲１８號之２","OBJECTID":250946},"geometry":{"x":175270.86000000034,"y":2559847.2699999996}},{"attributes":{"ID":250951,"DIS_CODE":0,"TOWNNAME":"善化區","LI":"東昌里","LIN":"11鄰","STREET":" ","SECT":" ","MAREA":"東勢寮","LANE":" ","ALLEY":" ","HOUSE_NO":"１０２號之５","E_COORD97":180106.12,"N_COORD97":2561847.02,"ADDRESS":"東勢寮１０２號之５","OBJECTID":250947},"geometry":{"x":180106.12000000197,"y":2561847.0200000033}},{"attributes":{"ID":250952,"DIS_CODE":0,"TOWNNAME":"楠西區","LI":"灣丘里","LIN":"8鄰","STREET":" ","SECT":" ","MAREA":"灣丘","LANE":" ","ALLEY":" ","HOUSE_NO":"９０號","E_COORD97":201511.68532700001,"N_COORD97":2564365.59889,"ADDRESS":"灣丘９０號","OBJECTID":250948},"geometry":{"x":201511.68532699998,"y":2564365.5988940019}},{"attributes":{"ID":250953,"DIS_CODE":0,"TOWNNAME":"善化區","LI":"嘉南里","LIN":"11鄰","STREET":" ","SECT":" ","MAREA":"茄拔","LANE":" ","ALLEY":" ","HOUSE_NO":"１４８之１號","E_COORD97":181091.92000000001,"N_COORD97":2559660.27,"ADDRESS":"茄拔１４８之１號","OBJECTID":250949},"geometry":{"x":181091.91999999993,"y":2559660.2699999996}},{"attributes":{"ID":250954,"DIS_CODE":0,"TOWNNAME":"善化區","LI":"小新里","LIN":"11鄰","STREET":" ","SECT":" ","MAREA":"小新營","LANE":" ","ALLEY":" ","HOUSE_NO":"９７號之１６","E_COORD97":179319.51000000001,"N_COORD97":2558048.8199999998,"ADDRESS":"小新營９７號之１６","OBJECTID":250950},"geometry":{"x":179319.50999999978,"y":2558048.8200000022}},{"attributes":{"ID":250955,"DIS_CODE":0,"TOWNNAME":"善化區","LI":"嘉南里","LIN":"11鄰","STREET":" ","SECT":" ","MAREA":"茄拔","LANE":" ","ALLEY":" ","HOUSE_NO":"１４５號","E_COORD97":181007.76000000001,"N_COORD97":2559691.2000000002,"ADDRESS":"茄拔１４５號","OBJECTID":250951},"geometry":{"x":181007.75999999978,"y":2559691.1999999993}},{"attributes":{"ID":250956,"DIS_CODE":0,"TOWNNAME":"永康區","LI":"六合里","LIN":"14鄰","STREET":"六合路","SECT":" ","MAREA":" ","LANE":"４８巷","ALLEY":" ","HOUSE_NO":"２２號","E_COORD97":171217.70000000001,"N_COORD97":2545589.75,"ADDRESS":"六合路４８巷２２號","OBJECTID":250952},"geometry":{"x":171217.70000000205,"y":2545589.7500000019}},{"attributes":{"ID":250957,"DIS_CODE":0,"TOWNNAME":"永康區","LI":"六合里","LIN":"14鄰","STREET":"六合路","SECT":" ","MAREA":" ","LANE":"４８巷","ALLEY":" ","HOUSE_NO":"２４號","E_COORD97":171221.85000000001,"N_COORD97":2545589,"ADDRESS":"六合路４８巷２４號","OBJECTID":250953},"geometry":{"x":171221.85000000056,"y":2545589}},{"attributes":{"ID":250958,"DIS_CODE":0,"TOWNNAME":"永康區","LI":"六合里","LIN":"14鄰","STREET":"六合路","SECT":" ","MAREA":" ","LANE":"４８巷","ALLEY":" ","HOUSE_NO":"２６號","E_COORD97":171225.29000000001,"N_COORD97":2545588,"ADDRESS":"六合路４８巷２６號","OBJECTID":250954},"geometry":{"x":171225.28999999911,"y":2545588.0000000019}},{"attributes":{"ID":250959,"DIS_CODE":0,"TOWNNAME":"永康區","LI":"六合里","LIN":"14鄰","STREET":"六合路","SECT":" ","MAREA":" ","LANE":"４８巷","ALLEY":" ","HOUSE_NO":"２８號","E_COORD97":171230.14999999999,"N_COORD97":2545587.5,"ADDRESS":"六合路４８巷２８號","OBJECTID":250955},"geometry":{"x":171230.15000000224,"y":2545587.5000000019}},{"attributes":{"ID":250960,"DIS_CODE":0,"TOWNNAME":"永康區","LI":"六合里","LIN":"14鄰","STREET":"六合路","SECT":" ","MAREA":" ","LANE":"４８巷","ALLEY":" ","HOUSE_NO":"２號","E_COORD97":171172.32000000001,"N_COORD97":2545592.75,"ADDRESS":"六合路４８巷２號","OBJECTID":250956},"geometry":{"x":171172.3200000003,"y":2545592.7500000019}},{"attributes":{"ID":250961,"DIS_CODE":0,"TOWNNAME":"永康區","LI":"六合里","LIN":"14鄰","STREET":"六合路","SECT":" ","MAREA":" ","LANE":"４８巷","ALLEY":" ","HOUSE_NO":"３０號","E_COORD97":171234.79999999999,"N_COORD97":2545586.5,"ADDRESS":"六合路４８巷３０號","OBJECTID":250957},"geometry":{"x":171234.79999999981,"y":2545586.5}},{"attributes":{"ID":250962,"DIS_CODE":0,"TOWNNAME":"善化區","LI":"東昌里","LIN":"11鄰","STREET":" ","SECT":" ","MAREA":"東勢寮","LANE":" ","ALLEY":" ","HOUSE_NO":"９７之１７號","E_COORD97":180150.03,"N_COORD97":2561792.3700000001,"ADDRESS":"東勢寮９７之１７號","OBJECTID":250958},"geometry":{"x":180150.03000000119,"y":2561792.3700000029}},{"attributes":{"ID":250963,"DIS_CODE":0,"TOWNNAME":"善化區","LI":"牛庄里","LIN":"11鄰","STREET":" ","SECT":" ","MAREA":"牛庄","LANE":" ","ALLEY":" ","HOUSE_NO":"１２５號之３","E_COORD97":179989.13,"N_COORD97":2560087.1099999999,"ADDRESS":"牛庄１２５號之３","OBJECTID":250959},"geometry":{"x":179989.13000000082,"y":2560087.1100000013}},{"attributes":{"ID":250964,"DIS_CODE":0,"TOWNNAME":"將軍區","LI":"鯤鯓里","LIN":"11鄰","STREET":" ","SECT":" ","MAREA":"鯤鯓","LANE":" ","ALLEY":" ","HOUSE_NO":"９２號","E_COORD97":156635.89999999999,"N_COORD97":2565555.2000000002,"ADDRESS":"鯤鯓９２號","OBJECTID":250960},"geometry":{"x":156635.90000000037,"y":2565555.2000000011}},{"attributes":{"ID":250965,"DIS_CODE":0,"TOWNNAME":"善化區","LI":"六德里","LIN":"11鄰","STREET":" ","SECT":" ","MAREA":"六分寮","LANE":" ","ALLEY":" ","HOUSE_NO":"２９４號之９","E_COORD97":178489.62027300001,"N_COORD97":2561660.7853700002,"ADDRESS":"六分寮２９４號之９","OBJECTID":250961},"geometry":{"x":178489.62027300149,"y":2561660.7853700016}},{"attributes":{"ID":250966,"DIS_CODE":0,"TOWNNAME":"永康區","LI":"六合里","LIN":"14鄰","STREET":"六合路","SECT":" ","MAREA":" ","LANE":"４８巷","ALLEY":" ","HOUSE_NO":"３２號","E_COORD97":171238.79999999999,"N_COORD97":2545585.5,"ADDRESS":"六合路４８巷３２號","OBJECTID":250962},"geometry":{"x":171238.80000000168,"y":2545585.5000000019}},{"attributes":{"ID":250967,"DIS_CODE":0,"TOWNNAME":"永康區","LI":"六合里","LIN":"14鄰","STREET":"六合路","SECT":" ","MAREA":" ","LANE":"４８巷","ALLEY":" ","HOUSE_NO":"３４號","E_COORD97":171243.39999999999,"N_COORD97":2545584.5,"ADDRESS":"六合路４８巷３４號","OBJECTID":250963},"geometry":{"x":171243.40000000037,"y":2545584.5000000019}},{"attributes":{"ID":250968,"DIS_CODE":0,"TOWNNAME":"永康區","LI":"六合里","LIN":"14鄰","STREET":"六合路","SECT":" ","MAREA":" ","LANE":"４８巷","ALLEY":" ","HOUSE_NO":"３６號","E_COORD97":171247.19,"N_COORD97":2545583.75,"ADDRESS":"六合路４８巷３６號","OBJECTID":250964},"geometry":{"x":171247.19000000134,"y":2545583.7500000019}},{"attributes":{"ID":250969,"DIS_CODE":0,"TOWNNAME":"永康區","LI":"六合里","LIN":"14鄰","STREET":"六合路","SECT":" ","MAREA":" ","LANE":"４８巷","ALLEY":" ","HOUSE_NO":"３８號","E_COORD97":171251.29000000001,"N_COORD97":2545582.75,"ADDRESS":"六合路４８巷３８號","OBJECTID":250965},"geometry":{"x":171251.29000000097,"y":2545582.7500000019}},{"attributes":{"ID":250970,"DIS_CODE":0,"TOWNNAME":"永康區","LI":"六合里","LIN":"14鄰","STREET":"六合路","SECT":" ","MAREA":" ","LANE":"４８巷","ALLEY":" ","HOUSE_NO":"４０號","E_COORD97":171255.29000000001,"N_COORD97":2545582,"ADDRESS":"六合路４８巷４０號","OBJECTID":250966},"geometry":{"x":171255.29000000004,"y":2545582.0000000019}},{"attributes":{"ID":250971,"DIS_CODE":0,"TOWNNAME":"善化區","LI":"溪美里","LIN":"11鄰","STREET":" ","SECT":" ","MAREA":"溪尾","LANE":" ","ALLEY":" ","HOUSE_NO":"１０１之５號","E_COORD97":176571.41,"N_COORD97":2561466.02,"ADDRESS":"溪尾１０１之５號","OBJECTID":250967},"geometry":{"x":176571.41000000201,"y":2561466.0199999996}},{"attributes":{"ID":250972,"DIS_CODE":0,"TOWNNAME":"善化區","LI":"溪美里","LIN":"11鄰","STREET":" ","SECT":" ","MAREA":"溪尾","LANE":" ","ALLEY":" ","HOUSE_NO":"１０１之６號","E_COORD97":176550.45999999999,"N_COORD97":2561460.6899999999,"ADDRESS":"溪尾１０１之６號","OBJECTID":250968},"geometry":{"x":176550.46000000183,"y":2561460.6900000013}},{"attributes":{"ID":250973,"DIS_CODE":0,"TOWNNAME":"善化區","LI":"小新里","LIN":"11鄰","STREET":"陽光三路","SECT":" ","MAREA":" ","LANE":"３２８巷","ALLEY":" ","HOUSE_NO":"２號","E_COORD97":179320.706275,"N_COORD97":2557475.97015,"ADDRESS":"陽光三路３２８巷２號","OBJECTID":250969},"geometry":{"x":179320.70627499931,"y":2557475.970152}},{"attributes":{"ID":250974,"DIS_CODE":0,"TOWNNAME":"善化區","LI":"小新里","LIN":"11鄰","STREET":"陽光三路","SECT":" ","MAREA":" ","LANE":"３２８巷","ALLEY":" ","HOUSE_NO":"１號","E_COORD97":179321.1299,"N_COORD97":2557481.6851499998,"ADDRESS":"陽光三路３２８巷１號","OBJECTID":250970},"geometry":{"x":179321.12990000099,"y":2557481.6851489991}},{"attributes":{"ID":250975,"DIS_CODE":0,"TOWNNAME":"永康區","LI":"六合里","LIN":"14鄰","STREET":"六合路","SECT":" ","MAREA":" ","LANE":"４８巷","ALLEY":" ","HOUSE_NO":"４２號","E_COORD97":171259.89999999999,"N_COORD97":2545581,"ADDRESS":"六合路４８巷４２號","OBJECTID":250971},"geometry":{"x":171259.90000000037,"y":2545581.0000000019}},{"attributes":{"ID":250976,"DIS_CODE":0,"TOWNNAME":"永康區","LI":"六合里","LIN":"14鄰","STREET":"六合路","SECT":" ","MAREA":" ","LANE":"４８巷","ALLEY":" ","HOUSE_NO":"４４號","E_COORD97":171264.04999999999,"N_COORD97":2545579.7400000002,"ADDRESS":"六合路４８巷４４號","OBJECTID":250972},"geometry":{"x":171264.05000000168,"y":2545579.7400000021}},{"attributes":{"ID":250977,"DIS_CODE":0,"TOWNNAME":"安平區","LI":"國平里","LIN":"14鄰","STREET":"健康路","SECT":"三段","MAREA":" ","LANE":" ","ALLEY":" ","HOUSE_NO":"２１４號","E_COORD97":165431.53,"N_COORD97":2542710.3399999999,"ADDRESS":"健康路三段２１４號","OBJECTID":250973},"geometry":{"x":165431.53000000212,"y":2542710.3400000017}},{"attributes":{"ID":250978,"DIS_CODE":0,"TOWNNAME":"安平區","LI":"國平里","LIN":"14鄰","STREET":"健康路","SECT":"三段","MAREA":" ","LANE":" ","ALLEY":" ","HOUSE_NO":"２１６號","E_COORD97":165426.76000000001,"N_COORD97":2542711.3300000001,"ADDRESS":"健康路三段２１６號","OBJECTID":250974},"geometry":{"x":165426.76000000071,"y":2542711.3300000019}},{"attributes":{"ID":250979,"DIS_CODE":0,"TOWNNAME":"安平區","LI":"國平里","LIN":"14鄰","STREET":"健康路","SECT":"三段","MAREA":" ","LANE":" ","ALLEY":" ","HOUSE_NO":"２１８號","E_COORD97":165421.39999999999,"N_COORD97":2542711.1299999999,"ADDRESS":"健康路三段２１８號","OBJECTID":250975},"geometry":{"x":165421.4000000013,"y":2542711.1300000008}},{"attributes":{"ID":250980,"DIS_CODE":0,"TOWNNAME":"新營區","LI":"興安里","LIN":"3鄰","STREET":"中興路","SECT":" ","MAREA":" ","LANE":"６８巷","ALLEY":" ","HOUSE_NO":"１２號","E_COORD97":179833.404488,"N_COORD97":2577415.4824299999,"ADDRESS":"中興路６８巷１２號","OBJECTID":250976},"geometry":{"x":179833.40448800102,"y":2577415.4824299999}},{"attributes":{"ID":250981,"DIS_CODE":0,"TOWNNAME":"永康區","LI":"六合里","LIN":"14鄰","STREET":"六合路","SECT":" ","MAREA":" ","LANE":"４８巷","ALLEY":" ","HOUSE_NO":"４６號","E_COORD97":171268.35000000001,"N_COORD97":2545578.75,"ADDRESS":"六合路４８巷４６號","OBJECTID":250977},"geometry":{"x":171268.34999999963,"y":2545578.7500000037}},{"attributes":{"ID":250982,"DIS_CODE":0,"TOWNNAME":"安平區","LI":"國平里","LIN":"14鄰","STREET":"健康路","SECT":"三段","MAREA":" ","LANE":" ","ALLEY":" ","HOUSE_NO":"２２０號","E_COORD97":165418.01999999999,"N_COORD97":2542712.7200000002,"ADDRESS":"健康路三段２２０號","OBJECTID":250978},"geometry":{"x":165418.02000000048,"y":2542712.7200000025}},{"attributes":{"ID":250983,"DIS_CODE":0,"TOWNNAME":"安平區","LI":"國平里","LIN":"14鄰","STREET":"健康路","SECT":"三段","MAREA":" ","LANE":" ","ALLEY":" ","HOUSE_NO":"２２２號","E_COORD97":165414.25,"N_COORD97":2542713.3100000001,"ADDRESS":"健康路三段２２２號","OBJECTID":250979},"geometry":{"x":165414.25,"y":2542713.3100000005}},{"attributes":{"ID":250984,"DIS_CODE":0,"TOWNNAME":"安平區","LI":"國平里","LIN":"14鄰","STREET":"健康路","SECT":"三段","MAREA":" ","LANE":" ","ALLEY":" ","HOUSE_NO":"２２４號","E_COORD97":165409.67999999999,"N_COORD97":2542714.2999999998,"ADDRESS":"健康路三段２２４號","OBJECTID":250980},"geometry":{"x":165409.68000000156,"y":2542714.3000000045}},{"attributes":{"ID":250985,"DIS_CODE":0,"TOWNNAME":"安平區","LI":"國平里","LIN":"14鄰","STREET":"健康路","SECT":"三段","MAREA":" ","LANE":" ","ALLEY":" ","HOUSE_NO":"２２６號","E_COORD97":165404.91,"N_COORD97":2542714.8999999999,"ADDRESS":"健康路三段２２６號","OBJECTID":250981},"geometry":{"x":165404.91000000015,"y":2542714.9000000022}},{"attributes":{"ID":250986,"DIS_CODE":0,"TOWNNAME":"安平區","LI":"國平里","LIN":"14鄰","STREET":"健康路","SECT":"三段","MAREA":" ","LANE":" ","ALLEY":" ","HOUSE_NO":"２２８號","E_COORD97":165401.73999999999,"N_COORD97":2542716.0899999999,"ADDRESS":"健康路三段２２８號","OBJECTID":250982},"geometry":{"x":165401.74000000115,"y":2542716.0900000017}},{"attributes":{"ID":250987,"DIS_CODE":0,"TOWNNAME":"安平區","LI":"國平里","LIN":"14鄰","STREET":"健康路","SECT":"三段","MAREA":" ","LANE":" ","ALLEY":" ","HOUSE_NO":"２３０號","E_COORD97":165397.37,"N_COORD97":2542717.0800000001,"ADDRESS":"健康路三段２３０號","OBJECTID":250983},"geometry":{"x":165397.37000000104,"y":2542717.0800000001}},{"attributes":{"ID":250988,"DIS_CODE":0,"TOWNNAME":"安平區","LI":"建平里","LIN":"14鄰","STREET":"建平十三街","SECT":" ","MAREA":" ","LANE":" ","ALLEY":" ","HOUSE_NO":"２號","E_COORD97":166291.79000000001,"N_COORD97":2544010.3500000001,"ADDRESS":"建平十三街２號","OBJECTID":250984},"geometry":{"x":166291.79000000004,"y":2544010.3499999996}},{"attributes":{"ID":250989,"DIS_CODE":0,"TOWNNAME":"安平區","LI":"建平里","LIN":"14鄰","STREET":"建平十三街","SECT":" ","MAREA":" ","LANE":" ","ALLEY":" ","HOUSE_NO":"２之１號","E_COORD97":166287.37,"N_COORD97":2544010.9399999999,"ADDRESS":"建平十三街２之１號","OBJECTID":250985},"geometry":{"x":166287.37000000104,"y":2544010.9400000013}},{"attributes":{"ID":250990,"DIS_CODE":0,"TOWNNAME":"安平區","LI":"建平里","LIN":"14鄰","STREET":"建平十三街","SECT":" ","MAREA":" ","LANE":" ","ALLEY":" ","HOUSE_NO":"６號","E_COORD97":166282.35000000001,"N_COORD97":2544011.54,"ADDRESS":"建平十三街６號","OBJECTID":250986},"geometry":{"x":166282.34999999963,"y":2544011.5399999991}},{"attributes":{"ID":250991,"DIS_CODE":0,"TOWNNAME":"安平區","LI":"建平里","LIN":"14鄰","STREET":"建平十三街","SECT":" ","MAREA":" ","LANE":" ","ALLEY":" ","HOUSE_NO":"１４號","E_COORD97":166261.67999999999,"N_COORD97":2544014.52,"ADDRESS":"建平十三街１４號","OBJECTID":250987},"geometry":{"x":166261.6799999997,"y":2544014.5200000014}},{"attributes":{"ID":250992,"DIS_CODE":0,"TOWNNAME":"安平區","LI":"建平里","LIN":"14鄰","STREET":"建平十三街","SECT":" ","MAREA":" ","LANE":" ","ALLEY":" ","HOUSE_NO":"１６號","E_COORD97":166257.14000000001,"N_COORD97":2544014.52,"ADDRESS":"建平十三街１６號","OBJECTID":250988},"geometry":{"x":166257.13999999966,"y":2544014.5200000014}},{"attributes":{"ID":250993,"DIS_CODE":0,"TOWNNAME":"安平區","LI":"建平里","LIN":"14鄰","STREET":"建平十三街","SECT":" ","MAREA":" ","LANE":" ","ALLEY":" ","HOUSE_NO":"１８號","E_COORD97":166252.48000000001,"N_COORD97":2544015,"ADDRESS":"建平十三街１８號","OBJECTID":250989},"geometry":{"x":166252.47999999952,"y":2544015.0000000019}},{"attributes":{"ID":250994,"DIS_CODE":0,"TOWNNAME":"安平區","LI":"怡平里","LIN":"14鄰","STREET":"華平路","SECT":" ","MAREA":" ","LANE":" ","ALLEY":" ","HOUSE_NO":"６３２號","E_COORD97":165510.88,"N_COORD97":2544013.1600000001,"ADDRESS":"華平路６３２號","OBJECTID":250990},"geometry":{"x":165510.88000000082,"y":2544013.1600000039}},{"attributes":{"ID":250995,"DIS_CODE":0,"TOWNNAME":"永康區","LI":"六合里","LIN":"14鄰","STREET":"六合路","SECT":" ","MAREA":" ","LANE":"４８巷","ALLEY":" ","HOUSE_NO":"４８號","E_COORD97":171272.29000000001,"N_COORD97":2545577.75,"ADDRESS":"六合路４８巷４８號","OBJECTID":250991},"geometry":{"x":171272.29000000004,"y":2545577.75}},{"attributes":{"ID":250996,"DIS_CODE":0,"TOWNNAME":"永康區","LI":"六合里","LIN":"14鄰","STREET":"六合路","SECT":" ","MAREA":" ","LANE":"４８巷","ALLEY":" ","HOUSE_NO":"４號","E_COORD97":171175.79000000001,"N_COORD97":2545592.5,"ADDRESS":"六合路４８巷４號","OBJECTID":250992},"geometry":{"x":171175.79000000004,"y":2545592.5}},{"attributes":{"ID":250997,"DIS_CODE":0,"TOWNNAME":"永康區","LI":"六合里","LIN":"14鄰","STREET":"六合路","SECT":" ","MAREA":" ","LANE":"４８巷","ALLEY":" ","HOUSE_NO":"５０號","E_COORD97":171276.85000000001,"N_COORD97":2545576.5,"ADDRESS":"六合路４８巷５０號","OBJECTID":250993},"geometry":{"x":171276.84999999963,"y":2545576.5}},{"attributes":{"ID":250998,"DIS_CODE":0,"TOWNNAME":"善化區","LI":"小新里","LIN":"11鄰","STREET":"蓮潭南街","SECT":" ","MAREA":" ","LANE":"６８巷","ALLEY":" ","HOUSE_NO":"５號","E_COORD97":179313.88266800001,"N_COORD97":2556909.3565699998,"ADDRESS":"蓮潭南街６８巷５號","OBJECTID":250994},"geometry":{"x":179313.88266800158,"y":2556909.3565730006}},{"attributes":{"ID":250999,"DIS_CODE":0,"TOWNNAME":"善化區","LI":"小新里","LIN":"11鄰","STREET":"蓮潭南街","SECT":" ","MAREA":" ","LANE":"６８巷","ALLEY":" ","HOUSE_NO":"３號","E_COORD97":179322.67290100001,"N_COORD97":2556909.25074,"ADDRESS":"蓮潭南街６８巷３號","OBJECTID":250995},"geometry":{"x":179322.6729009999,"y":2556909.2507390007}},{"attributes":{"ID":251000,"DIS_CODE":0,"TOWNNAME":"善化區","LI":"小新里","LIN":"11鄰","STREET":"蓮潭南街","SECT":" ","MAREA":" ","LANE":"６８巷","ALLEY":" ","HOUSE_NO":"７號","E_COORD97":179336.46391799999,"N_COORD97":2556936.3367099999,"ADDRESS":"蓮潭南街６８巷７號","OBJECTID":250996},"geometry":{"x":179336.46391799953,"y":2556936.3367059994}},{"attributes":{"ID":251001,"DIS_CODE":0,"TOWNNAME":"善化區","LI":"小新里","LIN":"11鄰","STREET":"蓮潭南街","SECT":" ","MAREA":" ","LANE":"６８巷","ALLEY":" ","HOUSE_NO":"１３號","E_COORD97":179336.78163799999,"N_COORD97":2556941.8400400002,"ADDRESS":"蓮潭南街６８巷１３號","OBJECTID":250997},"geometry":{"x":179336.78163800109,"y":2556941.8400360011}},{"attributes":{"ID":251002,"DIS_CODE":0,"TOWNNAME":"善化區","LI":"小新里","LIN":"11鄰","STREET":"蓮潭南街","SECT":" ","MAREA":" ","LANE":"６８巷","ALLEY":" ","HOUSE_NO":"１２號","E_COORD97":179343.45374200001,"N_COORD97":2556941.8400400002,"ADDRESS":"蓮潭南街６８巷１２號","OBJECTID":250998},"geometry":{"x":179343.45374200214,"y":2556941.8400360011}},{"attributes":{"ID":251003,"DIS_CODE":0,"TOWNNAME":"善化區","LI":"小新里","LIN":"11鄰","STREET":"蓮潭南街","SECT":" ","MAREA":" ","LANE":"６８巷","ALLEY":" ","HOUSE_NO":"６號","E_COORD97":179342.92421,"N_COORD97":2556936.54837,"ADDRESS":"蓮潭南街６８巷６號","OBJECTID":250999},"geometry":{"x":179342.92421000171,"y":2556936.5483730007}},{"attributes":{"ID":251004,"DIS_CODE":0,"TOWNNAME":"善化區","LI":"小新里","LIN":"11鄰","STREET":"蓮潭南街","SECT":" ","MAREA":" ","LANE":"６８巷","ALLEY":" ","HOUSE_NO":"８號","E_COORD97":179330.850878,"N_COORD97":2556936.54837,"ADDRESS":"蓮潭南街６８巷８號","OBJECTID":251000},"geometry":{"x":179330.85087800026,"y":2556936.5483730007}}]}