{"displayFieldName":"TOWNNAME","fieldAliases":{"ID":"ID","DIS_CODE":"DIS_CODE","TOWNNAME":"TOWNNAME","LI":"LI","LIN":"LIN","STREET":"STREET","SECT":"SECT","MAREA":"MAREA","LANE":"LANE","ALLEY":"ALLEY","HOUSE_NO":"HOUSE_NO","E_COORD97":"E_COORD97","N_COORD97":"N_COORD97","ADDRESS":"ADDRESS","OBJECTID":"OBJECTID"},"geometryType":"esriGeometryPoint","spatialReference":{"wkid":102443,"latestWkid":3826},"fields":[{"name":"ID","type":"esriFieldTypeDouble","alias":"ID"},{"name":"DIS_CODE","type":"esriFieldTypeInteger","alias":"DIS_CODE"},{"name":"TOWNNAME","type":"esriFieldTypeString","alias":"TOWNNAME","length":8},{"name":"LI","type":"esriFieldTypeString","alias":"LI","length":8},{"name":"LIN","type":"esriFieldTypeString","alias":"LIN","length":12},{"name":"STREET","type":"esriFieldTypeString","alias":"STREET","length":20},{"name":"SECT","type":"esriFieldTypeString","alias":"SECT","length":8},{"name":"MAREA","type":"esriFieldTypeString","alias":"MAREA","length":12},{"name":"LANE","type":"esriFieldTypeString","alias":"LANE","length":10},{"name":"ALLEY","type":"esriFieldTypeString","alias":"ALLEY","length":10},{"name":"HOUSE_NO","type":"esriFieldTypeString","alias":"HOUSE_NO","length":20},{"name":"E_COORD97","type":"esriFieldTypeDouble","alias":"E_COORD97"},{"name":"N_COORD97","type":"esriFieldTypeDouble","alias":"N_COORD97"},{"name":"ADDRESS","type":"esriFieldTypeString","alias":"ADDRESS","length":50},{"name":"OBJECTID","type":"esriFieldTypeOID","alias":"OBJECTID"}],"features":[{"attributes":{"ID":355010,"DIS_CODE":0,"TOWNNAME":"東區","LI":"中西里","LIN":"8鄰","STREET":"勝利路","SECT":" ","MAREA":" ","LANE":" ","ALLEY":" ","HOUSE_NO":"５０號八樓之１","E_COORD97":169830.25,"N_COORD97":2543536.9100000001,"ADDRESS":"勝利路５０號八樓之１","OBJECTID":355001},"geometry":{"x":169830.25,"y":2543536.9100000039}},{"attributes":{"ID":355011,"DIS_CODE":0,"TOWNNAME":"東區","LI":"中西里","LIN":"8鄰","STREET":"勝利路","SECT":" ","MAREA":" ","LANE":" ","ALLEY":" ","HOUSE_NO":"５０號八樓之２","E_COORD97":169830.25,"N_COORD97":2543536.9100000001,"ADDRESS":"勝利路５０號八樓之２","OBJECTID":355002},"geometry":{"x":169830.25,"y":2543536.9100000039}},{"attributes":{"ID":355012,"DIS_CODE":0,"TOWNNAME":"北區","LI":"長榮里","LIN":"13鄰","STREET":"長榮路","SECT":"五段","MAREA":" ","LANE":" ","ALLEY":" ","HOUSE_NO":"７號","E_COORD97":170104.62,"N_COORD97":2545373.9900000002,"ADDRESS":"長榮路五段７號","OBJECTID":355003},"geometry":{"x":170104.62000000104,"y":2545373.9900000039}},{"attributes":{"ID":355013,"DIS_CODE":0,"TOWNNAME":"東區","LI":"中西里","LIN":"8鄰","STREET":"勝利路","SECT":" ","MAREA":" ","LANE":" ","ALLEY":" ","HOUSE_NO":"５０號八樓之３","E_COORD97":169830.25,"N_COORD97":2543536.9100000001,"ADDRESS":"勝利路５０號八樓之３","OBJECTID":355004},"geometry":{"x":169830.25,"y":2543536.9100000039}},{"attributes":{"ID":355014,"DIS_CODE":0,"TOWNNAME":"北區","LI":"成德里","LIN":"20鄰","STREET":"文成一路","SECT":" ","MAREA":" ","LANE":"１５８巷","ALLEY":" ","HOUSE_NO":"１號","E_COORD97":168397.37,"N_COORD97":2546077.1200000001,"ADDRESS":"文成一路１５８巷１號","OBJECTID":355005},"geometry":{"x":168397.37000000197,"y":2546077.1200000029}},{"attributes":{"ID":355015,"DIS_CODE":0,"TOWNNAME":"北區","LI":"成德里","LIN":"20鄰","STREET":"文成一路","SECT":" ","MAREA":" ","LANE":"１５８巷","ALLEY":" ","HOUSE_NO":"２號","E_COORD97":168407.66,"N_COORD97":2546076.9300000002,"ADDRESS":"文成一路１５８巷２號","OBJECTID":355006},"geometry":{"x":168407.66000000108,"y":2546076.9300000016}},{"attributes":{"ID":355016,"DIS_CODE":0,"TOWNNAME":"北區","LI":"成德里","LIN":"20鄰","STREET":"文成一路","SECT":" ","MAREA":" ","LANE":"１５８巷","ALLEY":" ","HOUSE_NO":"３號","E_COORD97":168397.5,"N_COORD97":2546080.6099999999,"ADDRESS":"文成一路１５８巷３號","OBJECTID":355007},"geometry":{"x":168397.5,"y":2546080.6099999975}},{"attributes":{"ID":355017,"DIS_CODE":0,"TOWNNAME":"北區","LI":"成德里","LIN":"20鄰","STREET":"文成一路","SECT":" ","MAREA":" ","LANE":"１５８巷","ALLEY":" ","HOUSE_NO":"９號","E_COORD97":168397.88,"N_COORD97":2546092.1699999999,"ADDRESS":"文成一路１５８巷９號","OBJECTID":355008},"geometry":{"x":168397.88000000082,"y":2546092.1700000018}},{"attributes":{"ID":355018,"DIS_CODE":0,"TOWNNAME":"北區","LI":"成德里","LIN":"20鄰","STREET":"文成一路","SECT":" ","MAREA":" ","LANE":"１５８巷","ALLEY":" ","HOUSE_NO":"８號","E_COORD97":168407.79000000001,"N_COORD97":2546084.5499999998,"ADDRESS":"文成一路１５８巷８號","OBJECTID":355009},"geometry":{"x":168407.79000000004,"y":2546084.5500000007}},{"attributes":{"ID":355019,"DIS_CODE":0,"TOWNNAME":"北區","LI":"成德里","LIN":"20鄰","STREET":"文成一路","SECT":" ","MAREA":" ","LANE":"１５８巷","ALLEY":" ","HOUSE_NO":"１１號","E_COORD97":168398.01000000001,"N_COORD97":2546095.8500000001,"ADDRESS":"文成一路１５８巷１１號","OBJECTID":355010},"geometry":{"x":168398.01000000071,"y":2546095.8499999996}},{"attributes":{"ID":355020,"DIS_CODE":0,"TOWNNAME":"北區","LI":"成德里","LIN":"20鄰","STREET":"文成一路","SECT":" ","MAREA":" ","LANE":"１５８巷","ALLEY":" ","HOUSE_NO":"１３號","E_COORD97":168398.01000000001,"N_COORD97":2546099.79,"ADDRESS":"文成一路１５８巷１３號","OBJECTID":355011},"geometry":{"x":168398.01000000071,"y":2546099.7900000028}},{"attributes":{"ID":355021,"DIS_CODE":0,"TOWNNAME":"北區","LI":"成德里","LIN":"20鄰","STREET":"文成一路","SECT":" ","MAREA":" ","LANE":"１５８巷","ALLEY":" ","HOUSE_NO":"１５號","E_COORD97":168398.13,"N_COORD97":2546103.73,"ADDRESS":"文成一路１５８巷１５號","OBJECTID":355012},"geometry":{"x":168398.12999999989,"y":2546103.7300000004}},{"attributes":{"ID":355022,"DIS_CODE":0,"TOWNNAME":"北區","LI":"成德里","LIN":"20鄰","STREET":"文成一路","SECT":" ","MAREA":" ","LANE":"１５８巷","ALLEY":" ","HOUSE_NO":"１０號","E_COORD97":168407.79000000001,"N_COORD97":2546088.3599999999,"ADDRESS":"文成一路１５８巷１０號","OBJECTID":355013},"geometry":{"x":168407.79000000004,"y":2546088.3599999994}},{"attributes":{"ID":355023,"DIS_CODE":0,"TOWNNAME":"北區","LI":"成德里","LIN":"20鄰","STREET":"文成一路","SECT":" ","MAREA":" ","LANE":"１５８巷","ALLEY":" ","HOUSE_NO":"１２號","E_COORD97":168407.66,"N_COORD97":2546092.2999999998,"ADDRESS":"文成一路１５８巷１２號","OBJECTID":355014},"geometry":{"x":168407.66000000108,"y":2546092.3000000026}},{"attributes":{"ID":355024,"DIS_CODE":0,"TOWNNAME":"北區","LI":"成德里","LIN":"20鄰","STREET":"文成一路","SECT":" ","MAREA":" ","LANE":"１５８巷","ALLEY":" ","HOUSE_NO":"１６號","E_COORD97":168407.79000000001,"N_COORD97":2546096.23,"ADDRESS":"文成一路１５８巷１６號","OBJECTID":355015},"geometry":{"x":168407.79000000004,"y":2546096.2300000023}},{"attributes":{"ID":355025,"DIS_CODE":0,"TOWNNAME":"北區","LI":"成德里","LIN":"20鄰","STREET":"文成一路","SECT":" ","MAREA":" ","LANE":"１５８巷","ALLEY":" ","HOUSE_NO":"１８號","E_COORD97":168407.91,"N_COORD97":2546100.2999999998,"ADDRESS":"文成一路１５８巷１８號","OBJECTID":355016},"geometry":{"x":168407.91000000108,"y":2546100.3000000007}},{"attributes":{"ID":355026,"DIS_CODE":0,"TOWNNAME":"北區","LI":"成德里","LIN":"20鄰","STREET":"文成一路","SECT":" ","MAREA":" ","LANE":"１５８巷","ALLEY":" ","HOUSE_NO":"２０號","E_COORD97":168407.79000000001,"N_COORD97":2546104.2400000002,"ADDRESS":"文成一路１５８巷２０號","OBJECTID":355017},"geometry":{"x":168407.79000000004,"y":2546104.2400000002}},{"attributes":{"ID":355027,"DIS_CODE":0,"TOWNNAME":"北區","LI":"成德里","LIN":"20鄰","STREET":"文成二路","SECT":" ","MAREA":" ","LANE":"２１２巷","ALLEY":" ","HOUSE_NO":"１號","E_COORD97":168467.59,"N_COORD97":2546192.6400000001,"ADDRESS":"文成二路２１２巷１號","OBJECTID":355018},"geometry":{"x":168467.59000000078,"y":2546192.6400000006}},{"attributes":{"ID":355028,"DIS_CODE":0,"TOWNNAME":"北區","LI":"成德里","LIN":"20鄰","STREET":"文成二路","SECT":" ","MAREA":" ","LANE":"２１２巷","ALLEY":" ","HOUSE_NO":"３號","E_COORD97":168466.32000000001,"N_COORD97":2546197.8399999999,"ADDRESS":"文成二路２１２巷３號","OBJECTID":355019},"geometry":{"x":168466.32000000123,"y":2546197.8399999999}},{"attributes":{"ID":355029,"DIS_CODE":0,"TOWNNAME":"東區","LI":"中西里","LIN":"8鄰","STREET":"勝利路","SECT":" ","MAREA":" ","LANE":" ","ALLEY":" ","HOUSE_NO":"５０號八樓之４","E_COORD97":169830.25,"N_COORD97":2543536.9100000001,"ADDRESS":"勝利路５０號八樓之４","OBJECTID":355020},"geometry":{"x":169830.25,"y":2543536.9100000039}},{"attributes":{"ID":355030,"DIS_CODE":0,"TOWNNAME":"東區","LI":"中西里","LIN":"8鄰","STREET":"勝利路","SECT":" ","MAREA":" ","LANE":" ","ALLEY":" ","HOUSE_NO":"５０號八樓之５","E_COORD97":169830.25,"N_COORD97":2543536.9100000001,"ADDRESS":"勝利路５０號八樓之５","OBJECTID":355021},"geometry":{"x":169830.25,"y":2543536.9100000039}},{"attributes":{"ID":355031,"DIS_CODE":0,"TOWNNAME":"東區","LI":"中西里","LIN":"8鄰","STREET":"勝利路","SECT":" ","MAREA":" ","LANE":" ","ALLEY":" ","HOUSE_NO":"５０號八樓之６","E_COORD97":169830.25,"N_COORD97":2543536.9100000001,"ADDRESS":"勝利路５０號八樓之６","OBJECTID":355022},"geometry":{"x":169830.25,"y":2543536.9100000039}},{"attributes":{"ID":355032,"DIS_CODE":0,"TOWNNAME":"東區","LI":"中西里","LIN":"8鄰","STREET":"勝利路","SECT":" ","MAREA":" ","LANE":" ","ALLEY":" ","HOUSE_NO":"５０號八樓之７","E_COORD97":169830.25,"N_COORD97":2543536.9100000001,"ADDRESS":"勝利路５０號八樓之７","OBJECTID":355023},"geometry":{"x":169830.25,"y":2543536.9100000039}},{"attributes":{"ID":355033,"DIS_CODE":0,"TOWNNAME":"東區","LI":"中西里","LIN":"8鄰","STREET":"勝利路","SECT":" ","MAREA":" ","LANE":" ","ALLEY":" ","HOUSE_NO":"５０號八樓之８","E_COORD97":169830.25,"N_COORD97":2543536.9100000001,"ADDRESS":"勝利路５０號八樓之８","OBJECTID":355024},"geometry":{"x":169830.25,"y":2543536.9100000039}},{"attributes":{"ID":355034,"DIS_CODE":0,"TOWNNAME":"東區","LI":"中西里","LIN":"8鄰","STREET":"勝利路","SECT":" ","MAREA":" ","LANE":" ","ALLEY":" ","HOUSE_NO":"５０號八樓之９","E_COORD97":169830.25,"N_COORD97":2543536.9100000001,"ADDRESS":"勝利路５０號八樓之９","OBJECTID":355025},"geometry":{"x":169830.25,"y":2543536.9100000039}},{"attributes":{"ID":355035,"DIS_CODE":0,"TOWNNAME":"東區","LI":"中西里","LIN":"8鄰","STREET":"勝利路","SECT":" ","MAREA":" ","LANE":" ","ALLEY":" ","HOUSE_NO":"５０號八樓之１０","E_COORD97":169830.25,"N_COORD97":2543536.9100000001,"ADDRESS":"勝利路５０號八樓之１０","OBJECTID":355026},"geometry":{"x":169830.25,"y":2543536.9100000039}},{"attributes":{"ID":355036,"DIS_CODE":0,"TOWNNAME":"東區","LI":"中西里","LIN":"8鄰","STREET":"勝利路","SECT":" ","MAREA":" ","LANE":" ","ALLEY":" ","HOUSE_NO":"５０號八樓之１１","E_COORD97":169830.25,"N_COORD97":2543536.9100000001,"ADDRESS":"勝利路５０號八樓之１１","OBJECTID":355027},"geometry":{"x":169830.25,"y":2543536.9100000039}},{"attributes":{"ID":355037,"DIS_CODE":0,"TOWNNAME":"東區","LI":"中西里","LIN":"8鄰","STREET":"勝利路","SECT":" ","MAREA":" ","LANE":" ","ALLEY":" ","HOUSE_NO":"５０號八樓之１２","E_COORD97":169830.25,"N_COORD97":2543536.9100000001,"ADDRESS":"勝利路５０號八樓之１２","OBJECTID":355028},"geometry":{"x":169830.25,"y":2543536.9100000039}},{"attributes":{"ID":355038,"DIS_CODE":0,"TOWNNAME":"東區","LI":"中西里","LIN":"8鄰","STREET":"勝利路","SECT":" ","MAREA":" ","LANE":" ","ALLEY":" ","HOUSE_NO":"５０號八樓之１３","E_COORD97":169830.25,"N_COORD97":2543536.9100000001,"ADDRESS":"勝利路５０號八樓之１３","OBJECTID":355029},"geometry":{"x":169830.25,"y":2543536.9100000039}},{"attributes":{"ID":355039,"DIS_CODE":0,"TOWNNAME":"東區","LI":"中西里","LIN":"8鄰","STREET":"勝利路","SECT":" ","MAREA":" ","LANE":" ","ALLEY":" ","HOUSE_NO":"５０號八樓之１４","E_COORD97":169830.25,"N_COORD97":2543536.9100000001,"ADDRESS":"勝利路５０號八樓之１４","OBJECTID":355030},"geometry":{"x":169830.25,"y":2543536.9100000039}},{"attributes":{"ID":355040,"DIS_CODE":0,"TOWNNAME":"東區","LI":"中西里","LIN":"8鄰","STREET":"勝利路","SECT":" ","MAREA":" ","LANE":" ","ALLEY":" ","HOUSE_NO":"５０號八樓之１５","E_COORD97":169830.25,"N_COORD97":2543536.9100000001,"ADDRESS":"勝利路５０號八樓之１５","OBJECTID":355031},"geometry":{"x":169830.25,"y":2543536.9100000039}},{"attributes":{"ID":355041,"DIS_CODE":0,"TOWNNAME":"東區","LI":"中西里","LIN":"8鄰","STREET":"勝利路","SECT":" ","MAREA":" ","LANE":" ","ALLEY":" ","HOUSE_NO":"５０號八樓之１６","E_COORD97":169830.25,"N_COORD97":2543536.9100000001,"ADDRESS":"勝利路５０號八樓之１６","OBJECTID":355032},"geometry":{"x":169830.25,"y":2543536.9100000039}},{"attributes":{"ID":355042,"DIS_CODE":0,"TOWNNAME":"東區","LI":"中西里","LIN":"8鄰","STREET":"勝利路","SECT":" ","MAREA":" ","LANE":" ","ALLEY":" ","HOUSE_NO":"５０號八樓之１７","E_COORD97":169830.25,"N_COORD97":2543536.9100000001,"ADDRESS":"勝利路５０號八樓之１７","OBJECTID":355033},"geometry":{"x":169830.25,"y":2543536.9100000039}},{"attributes":{"ID":355043,"DIS_CODE":0,"TOWNNAME":"東區","LI":"崇善里","LIN":"8鄰","STREET":"崇善七街","SECT":" ","MAREA":" ","LANE":" ","ALLEY":" ","HOUSE_NO":"５２號三樓","E_COORD97":171171.78,"N_COORD97":2541486.4100000001,"ADDRESS":"崇善七街５２號三樓","OBJECTID":355034},"geometry":{"x":171171.78000000119,"y":2541486.410000002}},{"attributes":{"ID":355044,"DIS_CODE":0,"TOWNNAME":"北區","LI":"成德里","LIN":"20鄰","STREET":"文成二路","SECT":" ","MAREA":" ","LANE":"２１２巷","ALLEY":" ","HOUSE_NO":"１１號","E_COORD97":168453.10999999999,"N_COORD97":2546245.8500000001,"ADDRESS":"文成二路２１２巷１１號","OBJECTID":355035},"geometry":{"x":168453.11000000034,"y":2546245.8500000015}},{"attributes":{"ID":355045,"DIS_CODE":0,"TOWNNAME":"北區","LI":"成德里","LIN":"20鄰","STREET":"文成二路","SECT":" ","MAREA":" ","LANE":"２１２巷","ALLEY":" ","HOUSE_NO":"１３號","E_COORD97":168451.70999999999,"N_COORD97":2546250.7999999998,"ADDRESS":"文成二路２１２巷１３號","OBJECTID":355036},"geometry":{"x":168451.70999999996,"y":2546250.8000000026}},{"attributes":{"ID":355046,"DIS_CODE":0,"TOWNNAME":"北區","LI":"成德里","LIN":"20鄰","STREET":"文成二路","SECT":" ","MAREA":" ","LANE":"２１２巷","ALLEY":" ","HOUSE_NO":"１５號","E_COORD97":168450.57000000001,"N_COORD97":2546255.5,"ADDRESS":"文成二路２１２巷１５號","OBJECTID":355037},"geometry":{"x":168450.57000000216,"y":2546255.5000000019}},{"attributes":{"ID":355047,"DIS_CODE":0,"TOWNNAME":"北區","LI":"成德里","LIN":"20鄰","STREET":"文成二路","SECT":" ","MAREA":" ","LANE":"２１２巷","ALLEY":" ","HOUSE_NO":"１７號","E_COORD97":168449.54999999999,"N_COORD97":2546260.4500000002,"ADDRESS":"文成二路２１２巷１７號","OBJECTID":355038},"geometry":{"x":168449.54999999981,"y":2546260.4499999993}},{"attributes":{"ID":355048,"DIS_CODE":0,"TOWNNAME":"東區","LI":"中西里","LIN":"6鄰","STREET":"勝利路","SECT":" ","MAREA":" ","LANE":"１２巷","ALLEY":" ","HOUSE_NO":"６９號","E_COORD97":169932.04000000001,"N_COORD97":2543366.6499999999,"ADDRESS":"勝利路１２巷６９號","OBJECTID":355039},"geometry":{"x":169932.0400000019,"y":2543366.6500000022}},{"attributes":{"ID":355049,"DIS_CODE":0,"TOWNNAME":"東區","LI":"中西里","LIN":"6鄰","STREET":"勝利路","SECT":" ","MAREA":" ","LANE":"１２巷","ALLEY":" ","HOUSE_NO":"８３號","E_COORD97":169951.5,"N_COORD97":2543382.4100000001,"ADDRESS":"勝利路１２巷８３號","OBJECTID":355040},"geometry":{"x":169951.50000000093,"y":2543382.410000002}},{"attributes":{"ID":355050,"DIS_CODE":0,"TOWNNAME":"東區","LI":"大學里","LIN":"6鄰","STREET":"大學路","SECT":" ","MAREA":" ","LANE":"１２巷","ALLEY":" ","HOUSE_NO":"１０號","E_COORD97":170053.85999999999,"N_COORD97":2543949.0299999998,"ADDRESS":"大學路１２巷１０號","OBJECTID":355041},"geometry":{"x":170053.8600000022,"y":2543949.0300000012}},{"attributes":{"ID":355051,"DIS_CODE":0,"TOWNNAME":"東區","LI":"大學里","LIN":"6鄰","STREET":"大學路","SECT":" ","MAREA":" ","LANE":"１２巷","ALLEY":" ","HOUSE_NO":"１０號之１","E_COORD97":170053.53,"N_COORD97":2543941.6699999999,"ADDRESS":"大學路１２巷１０號之１","OBJECTID":355042},"geometry":{"x":170053.53000000026,"y":2543941.6700000037}},{"attributes":{"ID":355052,"DIS_CODE":0,"TOWNNAME":"東區","LI":"大智里","LIN":"6鄰","STREET":"長東街","SECT":" ","MAREA":" ","LANE":"７９巷","ALLEY":" ","HOUSE_NO":"３６號","E_COORD97":171111.84,"N_COORD97":2540409.1299999999,"ADDRESS":"長東街７９巷３６號","OBJECTID":355043},"geometry":{"x":171111.84000000078,"y":2540409.1300000008}},{"attributes":{"ID":355053,"DIS_CODE":0,"TOWNNAME":"東區","LI":"大智里","LIN":"6鄰","STREET":"長東街","SECT":" ","MAREA":" ","LANE":"７９巷","ALLEY":" ","HOUSE_NO":"３７號","E_COORD97":171114.91,"N_COORD97":2540426.7200000002,"ADDRESS":"長東街７９巷３７號","OBJECTID":355044},"geometry":{"x":171114.91000000108,"y":2540426.7200000025}},{"attributes":{"ID":355054,"DIS_CODE":0,"TOWNNAME":"東區","LI":"大智里","LIN":"6鄰","STREET":"長東街","SECT":" ","MAREA":" ","LANE":"７９巷","ALLEY":" ","HOUSE_NO":"５號","E_COORD97":171045.22,"N_COORD97":2540421.8399999999,"ADDRESS":"長東街７９巷５號","OBJECTID":355045},"geometry":{"x":171045.21999999974,"y":2540421.8400000017}},{"attributes":{"ID":355055,"DIS_CODE":0,"TOWNNAME":"東區","LI":"大智里","LIN":"6鄰","STREET":"長東街","SECT":" ","MAREA":" ","LANE":"７９巷","ALLEY":" ","HOUSE_NO":"６號","E_COORD97":171046.95000000001,"N_COORD97":2540403.73,"ADDRESS":"長東街７９巷６號","OBJECTID":355046},"geometry":{"x":171046.95000000112,"y":2540403.7300000023}},{"attributes":{"ID":355056,"DIS_CODE":0,"TOWNNAME":"東區","LI":"大智里","LIN":"6鄰","STREET":"長東街","SECT":" ","MAREA":" ","LANE":"７９巷","ALLEY":" ","HOUSE_NO":"７號","E_COORD97":171048.95999999999,"N_COORD97":2540423.79,"ADDRESS":"長東街７９巷７號","OBJECTID":355047},"geometry":{"x":171048.95999999996,"y":2540423.7899999991}},{"attributes":{"ID":355057,"DIS_CODE":0,"TOWNNAME":"東區","LI":"大智里","LIN":"6鄰","STREET":"長東街","SECT":" ","MAREA":" ","LANE":"７９巷","ALLEY":" ","HOUSE_NO":"８號","E_COORD97":171050.75,"N_COORD97":2540405.48,"ADDRESS":"長東街７９巷８號","OBJECTID":355048},"geometry":{"x":171050.75,"y":2540405.4800000023}},{"attributes":{"ID":355058,"DIS_CODE":0,"TOWNNAME":"東區","LI":"大智里","LIN":"6鄰","STREET":"長東街","SECT":" ","MAREA":" ","LANE":"７９巷","ALLEY":" ","HOUSE_NO":"９號","E_COORD97":171053.48999999999,"N_COORD97":2540422.2799999998,"ADDRESS":"長東街７９巷９號","OBJECTID":355049},"geometry":{"x":171053.49000000115,"y":2540422.2800000012}},{"attributes":{"ID":355059,"DIS_CODE":0,"TOWNNAME":"東區","LI":"東安里","LIN":"6鄰","STREET":"長榮路","SECT":"二段","MAREA":" ","LANE":"２４巷","ALLEY":" ","HOUSE_NO":"５９號","E_COORD97":170110,"N_COORD97":2543035.6400000001,"ADDRESS":"長榮路二段２４巷５９號","OBJECTID":355050},"geometry":{"x":170110,"y":2543035.6400000006}},{"attributes":{"ID":355060,"DIS_CODE":0,"TOWNNAME":"安南區","LI":"\u25A0南里","LIN":"6鄰","STREET":"安昌街","SECT":" ","MAREA":" ","LANE":"１７９巷","ALLEY":" ","HOUSE_NO":"２６號","E_COORD97":170015.70000000001,"N_COORD97":2552469.7000000002,"ADDRESS":"安昌街１７９巷２６號","OBJECTID":355051},"geometry":{"x":170015.69999999925,"y":2552469.6999999993}},{"attributes":{"ID":355061,"DIS_CODE":0,"TOWNNAME":"安南區","LI":"\u25A0南里","LIN":"6鄰","STREET":"安昌街","SECT":" ","MAREA":" ","LANE":"８５巷","ALLEY":" ","HOUSE_NO":"１５０號","E_COORD97":169940.85999999999,"N_COORD97":2552528.73,"ADDRESS":"安昌街８５巷１５０號","OBJECTID":355052},"geometry":{"x":169940.86000000127,"y":2552528.7300000004}},{"attributes":{"ID":355062,"DIS_CODE":0,"TOWNNAME":"安南區","LI":"\u25A0南里","LIN":"6鄰","STREET":"安昌街","SECT":" ","MAREA":" ","LANE":"８５巷","ALLEY":" ","HOUSE_NO":"１５２號","E_COORD97":169938.98999999999,"N_COORD97":2552539.5299999998,"ADDRESS":"安昌街８５巷１５２號","OBJECTID":355053},"geometry":{"x":169938.99000000022,"y":2552539.5299999993}},{"attributes":{"ID":355063,"DIS_CODE":0,"TOWNNAME":"安南區","LI":"\u25A0南里","LIN":"6鄰","STREET":"安昌街","SECT":" ","MAREA":" ","LANE":"８５巷","ALLEY":" ","HOUSE_NO":"１５６號","E_COORD97":169939.48999999999,"N_COORD97":2552548.4199999999,"ADDRESS":"安昌街８５巷１５６號","OBJECTID":355054},"geometry":{"x":169939.49000000115,"y":2552548.4200000018}},{"attributes":{"ID":355064,"DIS_CODE":0,"TOWNNAME":"東區","LI":"德光里","LIN":"7鄰","STREET":"崇明路","SECT":" ","MAREA":" ","LANE":"１５５巷","ALLEY":" ","HOUSE_NO":"１１號","E_COORD97":169957.06,"N_COORD97":2542200.7799999998,"ADDRESS":"崇明路１５５巷１１號","OBJECTID":355055},"geometry":{"x":169957.06000000052,"y":2542200.7799999975}},{"attributes":{"ID":355065,"DIS_CODE":0,"TOWNNAME":"安南區","LI":"\u25A0南里","LIN":"6鄰","STREET":"安昌街","SECT":" ","MAREA":" ","LANE":"８５巷","ALLEY":" ","HOUSE_NO":"１５８號","E_COORD97":169939.20000000001,"N_COORD97":2552558.27,"ADDRESS":"安昌街８５巷１５８號","OBJECTID":355056},"geometry":{"x":169939.20000000019,"y":2552558.2699999996}},{"attributes":{"ID":355066,"DIS_CODE":0,"TOWNNAME":"東區","LI":"崇善里","LIN":"8鄰","STREET":"崇善七街","SECT":" ","MAREA":" ","LANE":" ","ALLEY":" ","HOUSE_NO":"５２號三樓之１","E_COORD97":171171.78,"N_COORD97":2541486.4100000001,"ADDRESS":"崇善七街５２號三樓之１","OBJECTID":355057},"geometry":{"x":171171.78000000119,"y":2541486.410000002}},{"attributes":{"ID":355067,"DIS_CODE":0,"TOWNNAME":"東區","LI":"崇善里","LIN":"8鄰","STREET":"崇善七街","SECT":" ","MAREA":" ","LANE":" ","ALLEY":" ","HOUSE_NO":"５２號三樓之２","E_COORD97":171171.78,"N_COORD97":2541486.4100000001,"ADDRESS":"崇善七街５２號三樓之２","OBJECTID":355058},"geometry":{"x":171171.78000000119,"y":2541486.410000002}},{"attributes":{"ID":355068,"DIS_CODE":0,"TOWNNAME":"東區","LI":"崇善里","LIN":"8鄰","STREET":"崇善七街","SECT":" ","MAREA":" ","LANE":" ","ALLEY":" ","HOUSE_NO":"５２號五樓","E_COORD97":171171.78,"N_COORD97":2541486.4100000001,"ADDRESS":"崇善七街５２號五樓","OBJECTID":355059},"geometry":{"x":171171.78000000119,"y":2541486.410000002}},{"attributes":{"ID":355069,"DIS_CODE":0,"TOWNNAME":"東區","LI":"崇善里","LIN":"8鄰","STREET":"崇善七街","SECT":" ","MAREA":" ","LANE":" ","ALLEY":" ","HOUSE_NO":"５２號五樓之１","E_COORD97":171171.78,"N_COORD97":2541486.4100000001,"ADDRESS":"崇善七街５２號五樓之１","OBJECTID":355060},"geometry":{"x":171171.78000000119,"y":2541486.410000002}},{"attributes":{"ID":355070,"DIS_CODE":0,"TOWNNAME":"北區","LI":"六甲里","LIN":"20鄰","STREET":"西門路","SECT":"四段","MAREA":" ","LANE":"３３０巷","ALLEY":" ","HOUSE_NO":"１８號","E_COORD97":169034.69,"N_COORD97":2545984.0699999998,"ADDRESS":"西門路四段３３０巷１８號","OBJECTID":355061},"geometry":{"x":169034.69000000227,"y":2545984.0700000022}},{"attributes":{"ID":355071,"DIS_CODE":0,"TOWNNAME":"北區","LI":"六甲里","LIN":"20鄰","STREET":"西門路","SECT":"四段","MAREA":" ","LANE":"３３０巷","ALLEY":" ","HOUSE_NO":"２０號","E_COORD97":169039.09,"N_COORD97":2545983.5099999998,"ADDRESS":"西門路四段３３０巷２０號","OBJECTID":355062},"geometry":{"x":169039.08999999985,"y":2545983.5100000035}},{"attributes":{"ID":355072,"DIS_CODE":0,"TOWNNAME":"北區","LI":"六甲里","LIN":"20鄰","STREET":"西門路","SECT":"四段","MAREA":" ","LANE":"３３０巷","ALLEY":" ","HOUSE_NO":"２２號","E_COORD97":169043.20999999999,"N_COORD97":2545982.5099999998,"ADDRESS":"西門路四段３３０巷２２號","OBJECTID":355063},"geometry":{"x":169043.21000000089,"y":2545982.5099999998}},{"attributes":{"ID":355073,"DIS_CODE":0,"TOWNNAME":"北區","LI":"六甲里","LIN":"20鄰","STREET":"西門路","SECT":"四段","MAREA":" ","LANE":"３３０巷","ALLEY":" ","HOUSE_NO":"２４號","E_COORD97":169047.19,"N_COORD97":2545981.7999999998,"ADDRESS":"西門路四段３３０巷２４號","OBJECTID":355064},"geometry":{"x":169047.19000000134,"y":2545981.8000000007}},{"attributes":{"ID":355074,"DIS_CODE":0,"TOWNNAME":"北區","LI":"六甲里","LIN":"20鄰","STREET":"西門路","SECT":"四段","MAREA":" ","LANE":"３３０巷","ALLEY":" ","HOUSE_NO":"２６號","E_COORD97":169052.29999999999,"N_COORD97":2545980.9500000002,"ADDRESS":"西門路四段３３０巷２６號","OBJECTID":355065},"geometry":{"x":169052.30000000075,"y":2545980.9500000011}},{"attributes":{"ID":355075,"DIS_CODE":0,"TOWNNAME":"東區","LI":"德光里","LIN":"7鄰","STREET":"崇明路","SECT":" ","MAREA":" ","LANE":"１５５巷","ALLEY":" ","HOUSE_NO":"１３號","E_COORD97":169961.88,"N_COORD97":2542203.3500000001,"ADDRESS":"崇明路１５５巷１３號","OBJECTID":355066},"geometry":{"x":169961.88000000082,"y":2542203.3499999996}},{"attributes":{"ID":355076,"DIS_CODE":0,"TOWNNAME":"東區","LI":"德光里","LIN":"7鄰","STREET":"崇明路","SECT":" ","MAREA":" ","LANE":"１５５巷","ALLEY":" ","HOUSE_NO":"１５號","E_COORD97":169966.07000000001,"N_COORD97":2542206.2400000002,"ADDRESS":"崇明路１５５巷１５號","OBJECTID":355067},"geometry":{"x":169966.07000000216,"y":2542206.2400000021}},{"attributes":{"ID":355077,"DIS_CODE":0,"TOWNNAME":"東區","LI":"德光里","LIN":"7鄰","STREET":"崇明路","SECT":" ","MAREA":" ","LANE":"１５５巷","ALLEY":" ","HOUSE_NO":"１號","E_COORD97":169932.78,"N_COORD97":2542194.04,"ADDRESS":"崇明路１５５巷１號","OBJECTID":355068},"geometry":{"x":169932.78000000119,"y":2542194.0399999991}},{"attributes":{"ID":355078,"DIS_CODE":0,"TOWNNAME":"東區","LI":"德光里","LIN":"7鄰","STREET":"崇明路","SECT":" ","MAREA":" ","LANE":"１５５巷","ALLEY":" ","HOUSE_NO":"３號","E_COORD97":169937.92000000001,"N_COORD97":2542195.9700000002,"ADDRESS":"崇明路１５５巷３號","OBJECTID":355069},"geometry":{"x":169937.92000000086,"y":2542195.9700000025}},{"attributes":{"ID":355079,"DIS_CODE":0,"TOWNNAME":"白河區","LI":"外角里","LIN":"6鄰","STREET":"三民路","SECT":" ","MAREA":" ","LANE":"３５０巷","ALLEY":" ","HOUSE_NO":"１０號","E_COORD97":190505.48999999999,"N_COORD97":2583280.29,"ADDRESS":"三民路３５０巷１０號","OBJECTID":355070},"geometry":{"x":190505.49000000115,"y":2583280.2899999991}},{"attributes":{"ID":355080,"DIS_CODE":0,"TOWNNAME":"白河區","LI":"外角里","LIN":"6鄰","STREET":"三民路","SECT":" ","MAREA":" ","LANE":"３５０巷","ALLEY":" ","HOUSE_NO":"１６號","E_COORD97":190505.10999999999,"N_COORD97":2583290.3999999999,"ADDRESS":"三民路３５０巷１６號","OBJECTID":355071},"geometry":{"x":190505.11000000127,"y":2583290.4000000022}},{"attributes":{"ID":355081,"DIS_CODE":0,"TOWNNAME":"白河區","LI":"外角里","LIN":"6鄰","STREET":"三民路","SECT":" ","MAREA":" ","LANE":"３５０巷","ALLEY":" ","HOUSE_NO":"１８號","E_COORD97":190503.95999999999,"N_COORD97":2583293.75,"ADDRESS":"三民路３５０巷１８號","OBJECTID":355072},"geometry":{"x":190503.96000000089,"y":2583293.7500000019}},{"attributes":{"ID":355082,"DIS_CODE":0,"TOWNNAME":"白河區","LI":"外角里","LIN":"6鄰","STREET":"三民路","SECT":" ","MAREA":" ","LANE":"３５０巷","ALLEY":" ","HOUSE_NO":"６號","E_COORD97":190507.29000000001,"N_COORD97":2583272.6200000001,"ADDRESS":"三民路３５０巷６號","OBJECTID":355073},"geometry":{"x":190507.29000000097,"y":2583272.6200000029}},{"attributes":{"ID":355083,"DIS_CODE":0,"TOWNNAME":"白河區","LI":"外角里","LIN":"6鄰","STREET":"三民路","SECT":" ","MAREA":" ","LANE":"３５０巷","ALLEY":" ","HOUSE_NO":"８號","E_COORD97":190505.97,"N_COORD97":2583276.54,"ADDRESS":"三民路３５０巷８號","OBJECTID":355074},"geometry":{"x":190505.96999999974,"y":2583276.5399999991}},{"attributes":{"ID":355084,"DIS_CODE":0,"TOWNNAME":"東區","LI":"德光里","LIN":"7鄰","STREET":"崇明路","SECT":" ","MAREA":" ","LANE":"１８７巷","ALLEY":" ","HOUSE_NO":"１號","E_COORD97":169974.98000000001,"N_COORD97":2542134.9500000002,"ADDRESS":"崇明路１８７巷１號","OBJECTID":355075},"geometry":{"x":169974.98000000045,"y":2542134.9499999993}},{"attributes":{"ID":355085,"DIS_CODE":0,"TOWNNAME":"永康區","LI":"六合里","LIN":"6鄰","STREET":"六合路","SECT":" ","MAREA":" ","LANE":"７１巷","ALLEY":" ","HOUSE_NO":"６號","E_COORD97":171150.44,"N_COORD97":2545708.25,"ADDRESS":"六合路７１巷６號","OBJECTID":355076},"geometry":{"x":171150.44000000134,"y":2545708.2500000019}},{"attributes":{"ID":355086,"DIS_CODE":0,"TOWNNAME":"永康區","LI":"\u25A0洲里","LIN":"6鄰","STREET":"\u25A0洲二街","SECT":" ","MAREA":" ","LANE":"２２１巷","ALLEY":" ","HOUSE_NO":"１８號","E_COORD97":171816.54000000001,"N_COORD97":2549553.5,"ADDRESS":"\u25A0洲二街２２１巷１８號","OBJECTID":355077},"geometry":{"x":171816.54000000004,"y":2549553.5}},{"attributes":{"ID":355087,"DIS_CODE":0,"TOWNNAME":"永康區","LI":"\u25A0洲里","LIN":"6鄰","STREET":"\u25A0洲二街","SECT":" ","MAREA":" ","LANE":"２２１巷","ALLEY":" ","HOUSE_NO":"６號","E_COORD97":171835.82000000001,"N_COORD97":2549542.25,"ADDRESS":"\u25A0洲二街２２１巷６號","OBJECTID":355078},"geometry":{"x":171835.82000000216,"y":2549542.2500000037}},{"attributes":{"ID":355088,"DIS_CODE":0,"TOWNNAME":"安南區","LI":"學東里","LIN":"6鄰","STREET":"公學路","SECT":"七段","MAREA":" ","LANE":"１７９巷","ALLEY":" ","HOUSE_NO":"５號","E_COORD97":161584.04000000001,"N_COORD97":2553451.29,"ADDRESS":"公學路七段１７９巷５號","OBJECTID":355079},"geometry":{"x":161584.04000000004,"y":2553451.290000001}},{"attributes":{"ID":355089,"DIS_CODE":0,"TOWNNAME":"安南區","LI":"學東里","LIN":"6鄰","STREET":"公學路","SECT":"七段","MAREA":" ","LANE":"１７９巷","ALLEY":" ","HOUSE_NO":"７號","E_COORD97":161583.82000000001,"N_COORD97":2553446.6299999999,"ADDRESS":"公學路七段１７９巷７號","OBJECTID":355080},"geometry":{"x":161583.82000000123,"y":2553446.629999999}},{"attributes":{"ID":355090,"DIS_CODE":0,"TOWNNAME":"安南區","LI":"\u25A0南里","LIN":"6鄰","STREET":"安昌街","SECT":" ","MAREA":" ","LANE":"１７９巷","ALLEY":" ","HOUSE_NO":"１２號","E_COORD97":170062.32000000001,"N_COORD97":2552483.0899999999,"ADDRESS":"安昌街１７９巷１２號","OBJECTID":355081},"geometry":{"x":170062.3200000003,"y":2552483.0900000017}},{"attributes":{"ID":355091,"DIS_CODE":0,"TOWNNAME":"東區","LI":"崇善里","LIN":"8鄰","STREET":"崇善七街","SECT":" ","MAREA":" ","LANE":" ","ALLEY":" ","HOUSE_NO":"５２號五樓之２","E_COORD97":171171.78,"N_COORD97":2541486.4100000001,"ADDRESS":"崇善七街５２號五樓之２","OBJECTID":355082},"geometry":{"x":171171.78000000119,"y":2541486.410000002}},{"attributes":{"ID":355092,"DIS_CODE":0,"TOWNNAME":"東區","LI":"崇善里","LIN":"8鄰","STREET":"崇善七街","SECT":" ","MAREA":" ","LANE":" ","ALLEY":" ","HOUSE_NO":"５２號六樓","E_COORD97":171171.78,"N_COORD97":2541486.4100000001,"ADDRESS":"崇善七街５２號六樓","OBJECTID":355083},"geometry":{"x":171171.78000000119,"y":2541486.410000002}},{"attributes":{"ID":355093,"DIS_CODE":0,"TOWNNAME":"東區","LI":"崇善里","LIN":"8鄰","STREET":"崇善七街","SECT":" ","MAREA":" ","LANE":" ","ALLEY":" ","HOUSE_NO":"５２號六樓之２","E_COORD97":171171.78,"N_COORD97":2541486.4100000001,"ADDRESS":"崇善七街５２號六樓之２","OBJECTID":355084},"geometry":{"x":171171.78000000119,"y":2541486.410000002}},{"attributes":{"ID":355094,"DIS_CODE":0,"TOWNNAME":"東區","LI":"崇善里","LIN":"8鄰","STREET":"崇善七街","SECT":" ","MAREA":" ","LANE":" ","ALLEY":" ","HOUSE_NO":"５２號四樓之１","E_COORD97":171171.78,"N_COORD97":2541486.4100000001,"ADDRESS":"崇善七街５２號四樓之１","OBJECTID":355085},"geometry":{"x":171171.78000000119,"y":2541486.410000002}},{"attributes":{"ID":355095,"DIS_CODE":0,"TOWNNAME":"永康區","LI":"大橋里","LIN":"8鄰","STREET":"大橋三街","SECT":" ","MAREA":" ","LANE":" ","ALLEY":" ","HOUSE_NO":"２５３號之１五樓","E_COORD97":171009.07999999999,"N_COORD97":2546873.5,"ADDRESS":"大橋三街２５３號之１五樓","OBJECTID":355086},"geometry":{"x":171009.08000000007,"y":2546873.5000000019}},{"attributes":{"ID":355096,"DIS_CODE":0,"TOWNNAME":"安南區","LI":"\u25A0南里","LIN":"6鄰","STREET":"安昌街","SECT":" ","MAREA":" ","LANE":"１７９巷","ALLEY":" ","HOUSE_NO":"１６號","E_COORD97":170046.67999999999,"N_COORD97":2552481.6699999999,"ADDRESS":"安昌街１７９巷１６號","OBJECTID":355087},"geometry":{"x":170046.68000000063,"y":2552481.6699999999}},{"attributes":{"ID":355097,"DIS_CODE":0,"TOWNNAME":"安南區","LI":"\u25A0南里","LIN":"6鄰","STREET":"安昌街","SECT":" ","MAREA":" ","LANE":"１７９巷","ALLEY":" ","HOUSE_NO":"３６號","E_COORD97":170005.79999999999,"N_COORD97":2552462.23,"ADDRESS":"安昌街１７９巷３６號","OBJECTID":355088},"geometry":{"x":170005.79999999981,"y":2552462.2300000023}},{"attributes":{"ID":355098,"DIS_CODE":0,"TOWNNAME":"安南區","LI":"\u25A0南里","LIN":"6鄰","STREET":"安昌街","SECT":" ","MAREA":" ","LANE":"１７９巷","ALLEY":" ","HOUSE_NO":"５０號","E_COORD97":169969.29000000001,"N_COORD97":2552470.73,"ADDRESS":"安昌街１７９巷５０號","OBJECTID":355089},"geometry":{"x":169969.2900000019,"y":2552470.7300000004}},{"attributes":{"ID":355099,"DIS_CODE":0,"TOWNNAME":"安南區","LI":"\u25A0南里","LIN":"6鄰","STREET":"安昌街","SECT":" ","MAREA":" ","LANE":"１７９巷","ALLEY":" ","HOUSE_NO":"５０號之２","E_COORD97":169991.79999999999,"N_COORD97":2552462.6000000001,"ADDRESS":"安昌街１７９巷５０號之２","OBJECTID":355090},"geometry":{"x":169991.80000000075,"y":2552462.6000000015}},{"attributes":{"ID":355100,"DIS_CODE":0,"TOWNNAME":"安南區","LI":"\u25A0南里","LIN":"6鄰","STREET":"安昌街","SECT":" ","MAREA":" ","LANE":"１７９巷","ALLEY":" ","HOUSE_NO":"５２號","E_COORD97":169954.34,"N_COORD97":2552477.7200000002,"ADDRESS":"安昌街１７９巷５２號","OBJECTID":355091},"geometry":{"x":169954.34000000078,"y":2552477.7200000007}},{"attributes":{"ID":355101,"DIS_CODE":0,"TOWNNAME":"安南區","LI":"\u25A0南里","LIN":"6鄰","STREET":"安昌街","SECT":" ","MAREA":" ","LANE":"１７９巷","ALLEY":" ","HOUSE_NO":"５２號之１","E_COORD97":169938.64000000001,"N_COORD97":2552475.2599999998,"ADDRESS":"安昌街１７９巷５２號之１","OBJECTID":355092},"geometry":{"x":169938.63999999966,"y":2552475.2600000016}},{"attributes":{"ID":355102,"DIS_CODE":0,"TOWNNAME":"安南區","LI":"\u25A0南里","LIN":"6鄰","STREET":"安昌街","SECT":" ","MAREA":" ","LANE":"２１９巷","ALLEY":" ","HOUSE_NO":"３７號之１","E_COORD97":169977.28,"N_COORD97":2552500.1499999999,"ADDRESS":"安昌街２１９巷３７號之１","OBJECTID":355093},"geometry":{"x":169977.28000000026,"y":2552500.1500000022}},{"attributes":{"ID":355103,"DIS_CODE":0,"TOWNNAME":"安南區","LI":"\u25A0南里","LIN":"6鄰","STREET":"安昌街","SECT":" ","MAREA":" ","LANE":"２１９巷","ALLEY":" ","HOUSE_NO":"４１號","E_COORD97":169989.67000000001,"N_COORD97":2552497.1299999999,"ADDRESS":"安昌街２１９巷４１號","OBJECTID":355094},"geometry":{"x":169989.66999999993,"y":2552497.129999999}},{"attributes":{"ID":355104,"DIS_CODE":0,"TOWNNAME":"安南區","LI":"\u25A0南里","LIN":"6鄰","STREET":"安昌街","SECT":" ","MAREA":" ","LANE":"２１９巷","ALLEY":" ","HOUSE_NO":"５３號","E_COORD97":169962.97,"N_COORD97":2552496.8500000001,"ADDRESS":"安昌街２１９巷５３號","OBJECTID":355095},"geometry":{"x":169962.97000000067,"y":2552496.8499999996}},{"attributes":{"ID":355105,"DIS_CODE":0,"TOWNNAME":"安南區","LI":"安順里","LIN":"6鄰","STREET":"總安街","SECT":"一段","MAREA":" ","LANE":"１１０巷","ALLEY":" ","HOUSE_NO":"１２號","E_COORD97":169703.89000000001,"N_COORD97":2550199.8399999999,"ADDRESS":"總安街一段１１０巷１２號","OBJECTID":355096},"geometry":{"x":169703.89000000153,"y":2550199.8400000017}},{"attributes":{"ID":355106,"DIS_CODE":0,"TOWNNAME":"安南區","LI":"安順里","LIN":"6鄰","STREET":"總安街","SECT":"一段","MAREA":" ","LANE":"１１０巷","ALLEY":" ","HOUSE_NO":"１６號","E_COORD97":169704.67000000001,"N_COORD97":2550203.98,"ADDRESS":"總安街一段１１０巷１６號","OBJECTID":355097},"geometry":{"x":169704.67000000086,"y":2550203.9800000004}},{"attributes":{"ID":355107,"DIS_CODE":0,"TOWNNAME":"安南區","LI":"安順里","LIN":"6鄰","STREET":"總安街","SECT":"一段","MAREA":" ","LANE":"１１０巷","ALLEY":" ","HOUSE_NO":"１８號","E_COORD97":169706.22,"N_COORD97":2550207.8500000001,"ADDRESS":"總安街一段１１０巷１８號","OBJECTID":355098},"geometry":{"x":169706.21999999974,"y":2550207.8499999996}},{"attributes":{"ID":355108,"DIS_CODE":0,"TOWNNAME":"安南區","LI":"安順里","LIN":"6鄰","STREET":"總安街","SECT":"一段","MAREA":" ","LANE":"１１０巷","ALLEY":" ","HOUSE_NO":"２０號","E_COORD97":169707.51000000001,"N_COORD97":2550211.73,"ADDRESS":"總安街一段１１０巷２０號","OBJECTID":355099},"geometry":{"x":169707.50999999978,"y":2550211.7300000023}},{"attributes":{"ID":355109,"DIS_CODE":0,"TOWNNAME":"安南區","LI":"安順里","LIN":"6鄰","STREET":"總安街","SECT":"一段","MAREA":" ","LANE":"１１０巷","ALLEY":" ","HOUSE_NO":"２２號","E_COORD97":169709.32000000001,"N_COORD97":2550215.6000000001,"ADDRESS":"總安街一段１１０巷２２號","OBJECTID":355100},"geometry":{"x":169709.3200000003,"y":2550215.6000000015}},{"attributes":{"ID":355110,"DIS_CODE":0,"TOWNNAME":"安南區","LI":"安順里","LIN":"6鄰","STREET":"總安街","SECT":"一段","MAREA":" ","LANE":"１１０巷","ALLEY":" ","HOUSE_NO":"２６號","E_COORD97":169711.13,"N_COORD97":2550220.25,"ADDRESS":"總安街一段１１０巷２６號","OBJECTID":355101},"geometry":{"x":169711.13000000082,"y":2550220.2500000037}},{"attributes":{"ID":355111,"DIS_CODE":0,"TOWNNAME":"安南區","LI":"\u25A0南里","LIN":"6鄰","STREET":"安昌街","SECT":" ","MAREA":" ","LANE":"１７９巷","ALLEY":" ","HOUSE_NO":"２４號","E_COORD97":170027.37,"N_COORD97":2552475.2599999998,"ADDRESS":"安昌街１７９巷２４號","OBJECTID":355102},"geometry":{"x":170027.37000000011,"y":2552475.2600000016}},{"attributes":{"ID":355112,"DIS_CODE":0,"TOWNNAME":"安南區","LI":"大安里","LIN":"6鄰","STREET":"大安街","SECT":" ","MAREA":" ","LANE":"１３８巷","ALLEY":" ","HOUSE_NO":"４號","E_COORD97":167312.09,"N_COORD97":2548127.2799999998,"ADDRESS":"大安街１３８巷４號","OBJECTID":355103},"geometry":{"x":167312.08999999985,"y":2548127.2800000031}},{"attributes":{"ID":355113,"DIS_CODE":0,"TOWNNAME":"安南區","LI":"大安里","LIN":"6鄰","STREET":"大安街","SECT":" ","MAREA":" ","LANE":"１３８巷","ALLEY":" ","HOUSE_NO":"２９號","E_COORD97":167379.29999999999,"N_COORD97":2548117.04,"ADDRESS":"大安街１３８巷２９號","OBJECTID":355104},"geometry":{"x":167379.30000000075,"y":2548117.0399999991}},{"attributes":{"ID":355114,"DIS_CODE":0,"TOWNNAME":"安南區","LI":"安東里","LIN":"6鄰","STREET":"安和路","SECT":"一段","MAREA":" ","LANE":"２８８巷","ALLEY":" ","HOUSE_NO":"４２號","E_COORD97":169396.72,"N_COORD97":2548096.9399999999,"ADDRESS":"安和路一段２８８巷４２號","OBJECTID":355105},"geometry":{"x":169396.72000000067,"y":2548096.9400000013}},{"attributes":{"ID":355115,"DIS_CODE":0,"TOWNNAME":"善化區","LI":"東關里","LIN":"6鄰","STREET":"中山路","SECT":" ","MAREA":" ","LANE":"４６８巷","ALLEY":" ","HOUSE_NO":"６號","E_COORD97":177303.88,"N_COORD97":2559161.5,"ADDRESS":"中山路４６８巷６號","OBJECTID":355106},"geometry":{"x":177303.88000000082,"y":2559161.5}},{"attributes":{"ID":355116,"DIS_CODE":0,"TOWNNAME":"善化區","LI":"東關里","LIN":"6鄰","STREET":"中山路","SECT":" ","MAREA":" ","LANE":"４６８巷","ALLEY":" ","HOUSE_NO":"４號","E_COORD97":177297.84,"N_COORD97":2559146.5,"ADDRESS":"中山路４６８巷４號","OBJECTID":355107},"geometry":{"x":177297.84000000078,"y":2559146.5000000019}},{"attributes":{"ID":355117,"DIS_CODE":0,"TOWNNAME":"善化區","LI":"東關里","LIN":"6鄰","STREET":"中山路","SECT":" ","MAREA":" ","LANE":"４６８巷","ALLEY":" ","HOUSE_NO":"３號","E_COORD97":177293.23999999999,"N_COORD97":2559145,"ADDRESS":"中山路４６８巷３號","OBJECTID":355108},"geometry":{"x":177293.24000000115,"y":2559145}},{"attributes":{"ID":355118,"DIS_CODE":0,"TOWNNAME":"善化區","LI":"南關里","LIN":"6鄰","STREET":"文昌路","SECT":" ","MAREA":" ","LANE":"１０７巷","ALLEY":" ","HOUSE_NO":"１６２號","E_COORD97":177067,"N_COORD97":2557589.5299999998,"ADDRESS":"文昌路１０７巷１６２號","OBJECTID":355109},"geometry":{"x":177067,"y":2557589.5300000012}},{"attributes":{"ID":355119,"DIS_CODE":0,"TOWNNAME":"善化區","LI":"南關里","LIN":"6鄰","STREET":"文昌路","SECT":" ","MAREA":" ","LANE":"１０７巷","ALLEY":" ","HOUSE_NO":"１５０號","E_COORD97":177134.88,"N_COORD97":2558180.0299999998,"ADDRESS":"文昌路１０７巷１５０號","OBJECTID":355110},"geometry":{"x":177134.88000000082,"y":2558180.0299999993}},{"attributes":{"ID":355120,"DIS_CODE":0,"TOWNNAME":"善化區","LI":"南關里","LIN":"6鄰","STREET":"永安路","SECT":" ","MAREA":" ","LANE":"９１巷","ALLEY":" ","HOUSE_NO":"６號","E_COORD97":177119.54999999999,"N_COORD97":2558805.27,"ADDRESS":"永安路９１巷６號","OBJECTID":355111},"geometry":{"x":177119.55000000075,"y":2558805.2700000014}},{"attributes":{"ID":355121,"DIS_CODE":0,"TOWNNAME":"善化區","LI":"南關里","LIN":"6鄰","STREET":"永福路","SECT":" ","MAREA":" ","LANE":"１６２巷","ALLEY":" ","HOUSE_NO":"９號","E_COORD97":177161.84,"N_COORD97":2558822,"ADDRESS":"永福路１６２巷９號","OBJECTID":355112},"geometry":{"x":177161.84000000078,"y":2558822}},{"attributes":{"ID":355122,"DIS_CODE":0,"TOWNNAME":"善化區","LI":"南關里","LIN":"6鄰","STREET":"永福路","SECT":" ","MAREA":" ","LANE":"１６２巷","ALLEY":" ","HOUSE_NO":"５號","E_COORD97":177162.04999999999,"N_COORD97":2558797.5,"ADDRESS":"永福路１６２巷５號","OBJECTID":355113},"geometry":{"x":177162.05000000075,"y":2558797.5000000019}},{"attributes":{"ID":355123,"DIS_CODE":0,"TOWNNAME":"善化區","LI":"文正里","LIN":"6鄰","STREET":"文正路","SECT":" ","MAREA":" ","LANE":"７９巷","ALLEY":" ","HOUSE_NO":"９號","E_COORD97":177064.35000000001,"N_COORD97":2559353.2799999998,"ADDRESS":"文正路７９巷９號","OBJECTID":355114},"geometry":{"x":177064.34999999963,"y":2559353.2800000012}},{"attributes":{"ID":355124,"DIS_CODE":0,"TOWNNAME":"善化區","LI":"文正里","LIN":"6鄰","STREET":"文正路","SECT":" ","MAREA":" ","LANE":"７９巷","ALLEY":" ","HOUSE_NO":"１３號","E_COORD97":177038.53,"N_COORD97":2559330.7799999998,"ADDRESS":"文正路７９巷１３號","OBJECTID":355115},"geometry":{"x":177038.53000000212,"y":2559330.7800000012}},{"attributes":{"ID":355125,"DIS_CODE":0,"TOWNNAME":"永康區","LI":"蔦松里","LIN":"6鄰","STREET":"蔦松一街","SECT":" ","MAREA":" ","LANE":"７４巷","ALLEY":" ","HOUSE_NO":"３８號","E_COORD97":173936.63,"N_COORD97":2549552.75,"ADDRESS":"蔦松一街７４巷３８號","OBJECTID":355116},"geometry":{"x":173936.62999999989,"y":2549552.7500000019}},{"attributes":{"ID":355126,"DIS_CODE":0,"TOWNNAME":"永康區","LI":"蔦松里","LIN":"6鄰","STREET":"蔦松一街","SECT":" ","MAREA":" ","LANE":"７４巷","ALLEY":" ","HOUSE_NO":"５９號","E_COORD97":173966.97,"N_COORD97":2549539.5,"ADDRESS":"蔦松一街７４巷５９號","OBJECTID":355117},"geometry":{"x":173966.97000000067,"y":2549539.5}},{"attributes":{"ID":355127,"DIS_CODE":0,"TOWNNAME":"永康區","LI":"復華里","LIN":"33鄰","STREET":"忠孝路","SECT":" ","MAREA":" ","LANE":"３５２巷","ALLEY":" ","HOUSE_NO":"８號","E_COORD97":172446.29000000001,"N_COORD97":2546309,"ADDRESS":"忠孝路３５２巷８號","OBJECTID":355118},"geometry":{"x":172446.29000000097,"y":2546309}},{"attributes":{"ID":355128,"DIS_CODE":0,"TOWNNAME":"永康區","LI":"蔦松里","LIN":"6鄰","STREET":"蔦松一街","SECT":" ","MAREA":" ","LANE":"７４巷","ALLEY":" ","HOUSE_NO":"１９之５號","E_COORD97":173847.20000000001,"N_COORD97":2549520.7999999998,"ADDRESS":"蔦松一街７４巷１９之５號","OBJECTID":355119},"geometry":{"x":173847.20000000112,"y":2549520.8000000007}},{"attributes":{"ID":355129,"DIS_CODE":0,"TOWNNAME":"永康區","LI":"埔園里","LIN":"33鄰","STREET":"埔園街","SECT":" ","MAREA":" ","LANE":"１４７巷","ALLEY":" ","HOUSE_NO":"７號","E_COORD97":173865.26000000001,"N_COORD97":2548150.9900000002,"ADDRESS":"埔園街１４７巷７號","OBJECTID":355120},"geometry":{"x":173865.26000000071,"y":2548150.9900000021}},{"attributes":{"ID":355130,"DIS_CODE":0,"TOWNNAME":"永康區","LI":"蔦松里","LIN":"6鄰","STREET":"蔦松一街","SECT":" ","MAREA":" ","LANE":"７４巷","ALLEY":" ","HOUSE_NO":"１４號","E_COORD97":173892.51000000001,"N_COORD97":2549513.9500000002,"ADDRESS":"蔦松一街７４巷１４號","OBJECTID":355121},"geometry":{"x":173892.51000000071,"y":2549513.9500000011}},{"attributes":{"ID":355131,"DIS_CODE":0,"TOWNNAME":"永康區","LI":"\u25A0行里","LIN":"6鄰","STREET":"新行街","SECT":" ","MAREA":" ","LANE":"２１巷","ALLEY":" ","HOUSE_NO":"１４號","E_COORD97":172193.06,"N_COORD97":2548811.7200000002,"ADDRESS":"新行街２１巷１４號","OBJECTID":355122},"geometry":{"x":172193.06000000052,"y":2548811.7200000025}},{"attributes":{"ID":355132,"DIS_CODE":0,"TOWNNAME":"永康區","LI":"\u25A0行里","LIN":"6鄰","STREET":"新行街","SECT":" ","MAREA":" ","LANE":"２１巷","ALLEY":" ","HOUSE_NO":"２０號","E_COORD97":172183.41,"N_COORD97":2548818.4700000002,"ADDRESS":"新行街２１巷２０號","OBJECTID":355123},"geometry":{"x":172183.41000000015,"y":2548818.4700000007}},{"attributes":{"ID":355133,"DIS_CODE":0,"TOWNNAME":"永康區","LI":"\u25A0行里","LIN":"6鄰","STREET":"新行街","SECT":" ","MAREA":" ","LANE":"３３巷","ALLEY":" ","HOUSE_NO":"３５號","E_COORD97":172175.14999999999,"N_COORD97":2548840.52,"ADDRESS":"新行街３３巷３５號","OBJECTID":355124},"geometry":{"x":172175.1500000013,"y":2548840.5199999996}},{"attributes":{"ID":355134,"DIS_CODE":0,"TOWNNAME":"永康區","LI":"\u25A0行里","LIN":"6鄰","STREET":"新行街","SECT":" ","MAREA":" ","LANE":"２１巷","ALLEY":" ","HOUSE_NO":"１０號","E_COORD97":172200.14999999999,"N_COORD97":2548807.2200000002,"ADDRESS":"新行街２１巷１０號","OBJECTID":355125},"geometry":{"x":172200.1500000013,"y":2548807.2200000044}},{"attributes":{"ID":355135,"DIS_CODE":0,"TOWNNAME":"東區","LI":"龍山里","LIN":"6鄰","STREET":"東門路","SECT":"二段","MAREA":" ","LANE":"１５８巷","ALLEY":" ","HOUSE_NO":"１９號","E_COORD97":170121.14000000001,"N_COORD97":2542798.5600000001,"ADDRESS":"東門路二段１５８巷１９號","OBJECTID":355126},"geometry":{"x":170121.1400000006,"y":2542798.5600000024}},{"attributes":{"ID":355136,"DIS_CODE":0,"TOWNNAME":"東區","LI":"龍山里","LIN":"6鄰","STREET":"東門路","SECT":"二段","MAREA":" ","LANE":"１５８巷","ALLEY":" ","HOUSE_NO":"２５號","E_COORD97":170108.03,"N_COORD97":2542787.98,"ADDRESS":"東門路二段１５８巷２５號","OBJECTID":355127},"geometry":{"x":170108.03000000026,"y":2542787.9800000023}},{"attributes":{"ID":355137,"DIS_CODE":0,"TOWNNAME":"東區","LI":"龍山里","LIN":"6鄰","STREET":"東門路","SECT":"二段","MAREA":" ","LANE":"１５８巷","ALLEY":" ","HOUSE_NO":"４７號","E_COORD97":170073.25,"N_COORD97":2542753.8300000001,"ADDRESS":"東門路二段１５８巷４７號","OBJECTID":355128},"geometry":{"x":170073.25000000093,"y":2542753.8299999982}},{"attributes":{"ID":355138,"DIS_CODE":0,"TOWNNAME":"東區","LI":"龍山里","LIN":"6鄰","STREET":"東門路","SECT":"二段","MAREA":" ","LANE":"１５８巷","ALLEY":" ","HOUSE_NO":"５３號","E_COORD97":170052.82000000001,"N_COORD97":2542722.6000000001,"ADDRESS":"東門路二段１５８巷５３號","OBJECTID":355129},"geometry":{"x":170052.82000000123,"y":2542722.6000000015}},{"attributes":{"ID":355139,"DIS_CODE":0,"TOWNNAME":"東區","LI":"龍山里","LIN":"6鄰","STREET":"東門路","SECT":"二段","MAREA":" ","LANE":"１５８巷","ALLEY":" ","HOUSE_NO":"２１號","E_COORD97":170114.84,"N_COORD97":2542803.0899999999,"ADDRESS":"東門路二段１５８巷２１號","OBJECTID":355130},"geometry":{"x":170114.84000000078,"y":2542803.0900000036}},{"attributes":{"ID":355140,"DIS_CODE":0,"TOWNNAME":"永康區","LI":"蔦松里","LIN":"6鄰","STREET":"蔦松一街","SECT":" ","MAREA":" ","LANE":"７４巷","ALLEY":" ","HOUSE_NO":"２８號","E_COORD97":173935.63,"N_COORD97":2549532.25,"ADDRESS":"蔦松一街７４巷２８號","OBJECTID":355131},"geometry":{"x":173935.63000000082,"y":2549532.2500000019}},{"attributes":{"ID":355141,"DIS_CODE":0,"TOWNNAME":"東區","LI":"崇學里","LIN":"6鄰","STREET":"崇德四街","SECT":" ","MAREA":" ","LANE":"３巷","ALLEY":" ","HOUSE_NO":"４７號","E_COORD97":170404.16,"N_COORD97":2541961.9199999999,"ADDRESS":"崇德四街３巷４７號","OBJECTID":355132},"geometry":{"x":170404.15999999922,"y":2541961.9199999999}},{"attributes":{"ID":355142,"DIS_CODE":0,"TOWNNAME":"東區","LI":"崇學里","LIN":"6鄰","STREET":"崇德四街","SECT":" ","MAREA":" ","LANE":"３巷","ALLEY":" ","HOUSE_NO":"４８號","E_COORD97":170415.73000000001,"N_COORD97":2541984.7400000002,"ADDRESS":"崇德四街３巷４８號","OBJECTID":355133},"geometry":{"x":170415.73000000045,"y":2541984.7400000002}},{"attributes":{"ID":355143,"DIS_CODE":0,"TOWNNAME":"東區","LI":"崇學里","LIN":"6鄰","STREET":"崇德四街","SECT":" ","MAREA":" ","LANE":"３巷","ALLEY":" ","HOUSE_NO":"４９號","E_COORD97":170401.07999999999,"N_COORD97":2541964.71,"ADDRESS":"崇德四街３巷４９號","OBJECTID":355134},"geometry":{"x":170401.08000000007,"y":2541964.7100000009}},{"attributes":{"ID":355144,"DIS_CODE":0,"TOWNNAME":"白河區","LI":"永安里","LIN":"6鄰","STREET":"國泰路","SECT":" ","MAREA":" ","LANE":"１３７巷","ALLEY":" ","HOUSE_NO":"９號","E_COORD97":189886.66,"N_COORD97":2582964.8399999999,"ADDRESS":"國泰路１３７巷９號","OBJECTID":355135},"geometry":{"x":189886.66000000015,"y":2582964.8400000017}},{"attributes":{"ID":355145,"DIS_CODE":0,"TOWNNAME":"佳里區","LI":"六安里","LIN":"6鄰","STREET":"信義二街","SECT":" ","MAREA":" ","LANE":"１０２巷","ALLEY":" ","HOUSE_NO":"５號","E_COORD97":166099.75,"N_COORD97":2562861.4399999999,"ADDRESS":"信義二街１０２巷５號","OBJECTID":355136},"geometry":{"x":166099.75000000093,"y":2562861.4400000013}},{"attributes":{"ID":355146,"DIS_CODE":0,"TOWNNAME":"佳里區","LI":"六安里","LIN":"6鄰","STREET":"信義二街","SECT":" ","MAREA":" ","LANE":"１０２巷","ALLEY":" ","HOUSE_NO":"７號","E_COORD97":166103.10000000001,"N_COORD97":2562861.5899999999,"ADDRESS":"信義二街１０２巷７號","OBJECTID":355137},"geometry":{"x":166103.09999999963,"y":2562861.5900000017}},{"attributes":{"ID":355147,"DIS_CODE":0,"TOWNNAME":"安南區","LI":"海東里","LIN":"6鄰","STREET":"同安路","SECT":" ","MAREA":" ","LANE":"３４７巷","ALLEY":" ","HOUSE_NO":"３０號","E_COORD97":167193.10999999999,"N_COORD97":2549342.2599999998,"ADDRESS":"同安路３４７巷３０號","OBJECTID":355138},"geometry":{"x":167193.11000000127,"y":2549342.2600000016}},{"attributes":{"ID":355148,"DIS_CODE":0,"TOWNNAME":"安南區","LI":"海東里","LIN":"6鄰","STREET":"同安路","SECT":" ","MAREA":" ","LANE":"３４７巷","ALLEY":" ","HOUSE_NO":"３２號","E_COORD97":167190.16,"N_COORD97":2549344.6200000001,"ADDRESS":"同安路３４７巷３２號","OBJECTID":355139},"geometry":{"x":167190.16000000201,"y":2549344.6200000029}},{"attributes":{"ID":355149,"DIS_CODE":0,"TOWNNAME":"東區","LI":"崇德里","LIN":"20鄰","STREET":"崇明十四街","SECT":" ","MAREA":" ","LANE":"６０巷","ALLEY":" ","HOUSE_NO":"１２號六樓之４","E_COORD97":170670.23000000001,"N_COORD97":2541602.1800000002,"ADDRESS":"崇明十四街６０巷１２號六樓之４","OBJECTID":355140},"geometry":{"x":170670.23000000231,"y":2541602.1800000034}},{"attributes":{"ID":355150,"DIS_CODE":0,"TOWNNAME":"安南區","LI":"海東里","LIN":"6鄰","STREET":"同安路","SECT":" ","MAREA":" ","LANE":"３４７巷","ALLEY":" ","HOUSE_NO":"３６號","E_COORD97":167186.48000000001,"N_COORD97":2549346.7599999998,"ADDRESS":"同安路３４７巷３６號","OBJECTID":355141},"geometry":{"x":167186.48000000045,"y":2549346.7600000016}},{"attributes":{"ID":355151,"DIS_CODE":0,"TOWNNAME":"安南區","LI":"海東里","LIN":"6鄰","STREET":"同安路","SECT":" ","MAREA":" ","LANE":"３４７巷","ALLEY":" ","HOUSE_NO":"３８號","E_COORD97":167183.41,"N_COORD97":2549348.7599999998,"ADDRESS":"同安路３４７巷３８號","OBJECTID":355142},"geometry":{"x":167183.41000000201,"y":2549348.7600000035}},{"attributes":{"ID":355152,"DIS_CODE":0,"TOWNNAME":"安南區","LI":"海東里","LIN":"6鄰","STREET":"同安路","SECT":" ","MAREA":" ","LANE":"３４７巷","ALLEY":" ","HOUSE_NO":"４０號","E_COORD97":167179.76000000001,"N_COORD97":2549350.6099999999,"ADDRESS":"同安路３４７巷４０號","OBJECTID":355143},"geometry":{"x":167179.76000000071,"y":2549350.6100000013}},{"attributes":{"ID":355153,"DIS_CODE":0,"TOWNNAME":"安南區","LI":"海東里","LIN":"6鄰","STREET":"同安路","SECT":" ","MAREA":" ","LANE":"３４７巷","ALLEY":" ","HOUSE_NO":"４２號","E_COORD97":167176.10000000001,"N_COORD97":2549353.04,"ADDRESS":"同安路３４７巷４２號","OBJECTID":355144},"geometry":{"x":167176.09999999963,"y":2549353.040000001}},{"attributes":{"ID":355154,"DIS_CODE":0,"TOWNNAME":"安南區","LI":"海東里","LIN":"6鄰","STREET":"同安路","SECT":" ","MAREA":" ","LANE":"３４７巷","ALLEY":" ","HOUSE_NO":"４６號","E_COORD97":167173.57000000001,"N_COORD97":2549356.1000000001,"ADDRESS":"同安路３４７巷４６號","OBJECTID":355145},"geometry":{"x":167173.5700000003,"y":2549356.0999999978}},{"attributes":{"ID":355155,"DIS_CODE":0,"TOWNNAME":"安南區","LI":"海東里","LIN":"6鄰","STREET":"同安路","SECT":" ","MAREA":" ","LANE":"３４７巷","ALLEY":" ","HOUSE_NO":"４８號","E_COORD97":167185.45999999999,"N_COORD97":2549362.9300000002,"ADDRESS":"同安路３４７巷４８號","OBJECTID":355146},"geometry":{"x":167185.45999999996,"y":2549362.9299999997}},{"attributes":{"ID":355156,"DIS_CODE":0,"TOWNNAME":"安南區","LI":"海東里","LIN":"6鄰","STREET":"同安路","SECT":" ","MAREA":" ","LANE":"３４７巷","ALLEY":" ","HOUSE_NO":"５０號","E_COORD97":167188.17000000001,"N_COORD97":2549366.6800000002,"ADDRESS":"同安路３４７巷５０號","OBJECTID":355147},"geometry":{"x":167188.17000000179,"y":2549366.6800000016}},{"attributes":{"ID":355157,"DIS_CODE":0,"TOWNNAME":"安南區","LI":"海東里","LIN":"6鄰","STREET":"同安路","SECT":" ","MAREA":" ","LANE":"３４７巷","ALLEY":" ","HOUSE_NO":"５２號","E_COORD97":167190.48000000001,"N_COORD97":2549370.29,"ADDRESS":"同安路３４７巷５２號","OBJECTID":355148},"geometry":{"x":167190.48000000138,"y":2549370.2899999991}},{"attributes":{"ID":355158,"DIS_CODE":0,"TOWNNAME":"安南區","LI":"海東里","LIN":"6鄰","STREET":"同安路","SECT":" ","MAREA":" ","LANE":"３４７巷","ALLEY":" ","HOUSE_NO":"５６號","E_COORD97":167193.09,"N_COORD97":2549374.04,"ADDRESS":"同安路３４７巷５６號","OBJECTID":355149},"geometry":{"x":167193.08999999985,"y":2549374.040000001}},{"attributes":{"ID":355159,"DIS_CODE":0,"TOWNNAME":"安南區","LI":"海東里","LIN":"6鄰","STREET":"同安路","SECT":" ","MAREA":" ","LANE":"３４７巷","ALLEY":" ","HOUSE_NO":"５８號","E_COORD97":167205.44,"N_COORD97":2549357.8300000001,"ADDRESS":"同安路３４７巷５８號","OBJECTID":355150},"geometry":{"x":167205.44000000227,"y":2549357.8300000001}},{"attributes":{"ID":355160,"DIS_CODE":0,"TOWNNAME":"安南區","LI":"海東里","LIN":"6鄰","STREET":"同安路","SECT":" ","MAREA":" ","LANE":"３４７巷","ALLEY":" ","HOUSE_NO":"６０號","E_COORD97":167202.04999999999,"N_COORD97":2549359.9300000002,"ADDRESS":"同安路３４７巷６０號","OBJECTID":355151},"geometry":{"x":167202.04999999981,"y":2549359.9299999997}},{"attributes":{"ID":355161,"DIS_CODE":0,"TOWNNAME":"安南區","LI":"海東里","LIN":"6鄰","STREET":"同安路","SECT":" ","MAREA":" ","LANE":"３４７巷","ALLEY":" ","HOUSE_NO":"６２號","E_COORD97":167198.72,"N_COORD97":2549362.1699999999,"ADDRESS":"同安路３４７巷６２號","OBJECTID":355152},"geometry":{"x":167198.71999999974,"y":2549362.1699999999}},{"attributes":{"ID":355162,"DIS_CODE":0,"TOWNNAME":"永康區","LI":"蔦松里","LIN":"6鄰","STREET":"蔦松一街","SECT":" ","MAREA":" ","LANE":"７４巷","ALLEY":" ","HOUSE_NO":"２３號","E_COORD97":173898.17999999999,"N_COORD97":2549566.9900000002,"ADDRESS":"蔦松一街７４巷２３號","OBJECTID":355153},"geometry":{"x":173898.18000000063,"y":2549566.9900000002}},{"attributes":{"ID":355163,"DIS_CODE":0,"TOWNNAME":"永康區","LI":"中華里","LIN":"6鄰","STREET":"小東路","SECT":" ","MAREA":" ","LANE":"６８５巷","ALLEY":" ","HOUSE_NO":"２９號","E_COORD97":172026.98000000001,"N_COORD97":2544483.3599999999,"ADDRESS":"小東路６８５巷２９號","OBJECTID":355154},"geometry":{"x":172026.98000000138,"y":2544483.3600000013}},{"attributes":{"ID":355164,"DIS_CODE":0,"TOWNNAME":"永康區","LI":"中華里","LIN":"6鄰","STREET":"小東路","SECT":" ","MAREA":" ","LANE":"６８５巷","ALLEY":" ","HOUSE_NO":"３７號","E_COORD97":172026.39000000001,"N_COORD97":2544501.8900000001,"ADDRESS":"小東路６８５巷３７號","OBJECTID":355155},"geometry":{"x":172026.3900000006,"y":2544501.8900000025}},{"attributes":{"ID":355165,"DIS_CODE":0,"TOWNNAME":"永康區","LI":"中華里","LIN":"6鄰","STREET":"小東路","SECT":" ","MAREA":" ","LANE":"６８５巷","ALLEY":" ","HOUSE_NO":"４１號","E_COORD97":172026.25,"N_COORD97":2544509.48,"ADDRESS":"小東路６８５巷４１號","OBJECTID":355156},"geometry":{"x":172026.25000000093,"y":2544509.4799999986}},{"attributes":{"ID":355166,"DIS_CODE":0,"TOWNNAME":"永康區","LI":"\u25A0行里","LIN":"6鄰","STREET":"新行街","SECT":" ","MAREA":" ","LANE":"３３巷","ALLEY":" ","HOUSE_NO":"１６號","E_COORD97":172214.91,"N_COORD97":2548865.3799999999,"ADDRESS":"新行街３３巷１６號","OBJECTID":355157},"geometry":{"x":172214.91000000108,"y":2548865.3800000027}},{"attributes":{"ID":355167,"DIS_CODE":0,"TOWNNAME":"永康區","LI":"大橋里","LIN":"8鄰","STREET":"大橋三街","SECT":" ","MAREA":" ","LANE":" ","ALLEY":" ","HOUSE_NO":"２５３號之６三樓","E_COORD97":171012.56,"N_COORD97":2546895.75,"ADDRESS":"大橋三街２５３號之６三樓","OBJECTID":355158},"geometry":{"x":171012.55999999959,"y":2546895.7500000019}},{"attributes":{"ID":355168,"DIS_CODE":0,"TOWNNAME":"永康區","LI":"勝利里","LIN":"20鄰","STREET":"勝學路","SECT":" ","MAREA":" ","LANE":"２６９巷","ALLEY":" ","HOUSE_NO":"２號六樓之６","E_COORD97":171173.39000000001,"N_COORD97":2545316.0499999998,"ADDRESS":"勝學路２６９巷２號六樓之６","OBJECTID":355159},"geometry":{"x":171173.38999999873,"y":2545316.0500000007}},{"attributes":{"ID":355169,"DIS_CODE":0,"TOWNNAME":"新營區","LI":"忠政里","LIN":"33鄰","STREET":"中正路","SECT":" ","MAREA":" ","LANE":"３７巷","ALLEY":" ","HOUSE_NO":"２００號","E_COORD97":179841.29999999999,"N_COORD97":2579158.21,"ADDRESS":"中正路３７巷２００號","OBJECTID":355160},"geometry":{"x":179841.29999999981,"y":2579158.2100000046}},{"attributes":{"ID":355170,"DIS_CODE":0,"TOWNNAME":"新營區","LI":"忠政里","LIN":"33鄰","STREET":"中正路","SECT":" ","MAREA":" ","LANE":"３７巷","ALLEY":" ","HOUSE_NO":"２０６號","E_COORD97":179841.35000000001,"N_COORD97":2579169.2799999998,"ADDRESS":"中正路３７巷２０６號","OBJECTID":355161},"geometry":{"x":179841.35000000149,"y":2579169.2799999993}},{"attributes":{"ID":355171,"DIS_CODE":0,"TOWNNAME":"安南區","LI":"長安里","LIN":"8鄰","STREET":"長溪路","SECT":"三段","MAREA":" ","LANE":" ","ALLEY":" ","HOUSE_NO":"４５６號","E_COORD97":167621.95999999999,"N_COORD97":2552134.27,"ADDRESS":"長溪路三段４５６號","OBJECTID":355162},"geometry":{"x":167621.96000000183,"y":2552134.2699999996}},{"attributes":{"ID":355172,"DIS_CODE":0,"TOWNNAME":"新營區","LI":"王公里","LIN":"33鄰","STREET":"民族路","SECT":" ","MAREA":" ","LANE":"３０８巷","ALLEY":" ","HOUSE_NO":"４７號","E_COORD97":180538.51999999999,"N_COORD97":2579757.9700000002,"ADDRESS":"民族路３０８巷４７號","OBJECTID":355163},"geometry":{"x":180538.52000000142,"y":2579757.9700000025}},{"attributes":{"ID":355173,"DIS_CODE":0,"TOWNNAME":"新營區","LI":"王公里","LIN":"33鄰","STREET":"民族路","SECT":" ","MAREA":" ","LANE":"３０８巷","ALLEY":" ","HOUSE_NO":"４９號","E_COORD97":180542.98999999999,"N_COORD97":2579758.0899999999,"ADDRESS":"民族路３０８巷４９號","OBJECTID":355164},"geometry":{"x":180542.99000000115,"y":2579758.0900000036}},{"attributes":{"ID":355174,"DIS_CODE":0,"TOWNNAME":"新營區","LI":"王公里","LIN":"33鄰","STREET":"民族路","SECT":" ","MAREA":" ","LANE":"３０８巷","ALLEY":" ","HOUSE_NO":"５１號","E_COORD97":180547.85000000001,"N_COORD97":2579758.1400000001,"ADDRESS":"民族路３０８巷５１號","OBJECTID":355165},"geometry":{"x":180547.84999999963,"y":2579758.1400000006}},{"attributes":{"ID":355175,"DIS_CODE":0,"TOWNNAME":"新營區","LI":"王公里","LIN":"33鄰","STREET":"民族路","SECT":" ","MAREA":" ","LANE":"３０８巷","ALLEY":" ","HOUSE_NO":"５３號","E_COORD97":180548.22,"N_COORD97":2579778.6800000002,"ADDRESS":"民族路３０８巷５３號","OBJECTID":355166},"geometry":{"x":180548.22000000067,"y":2579778.6800000016}},{"attributes":{"ID":355176,"DIS_CODE":0,"TOWNNAME":"新營區","LI":"王公里","LIN":"33鄰","STREET":"民族路","SECT":" ","MAREA":" ","LANE":"３０８巷","ALLEY":" ","HOUSE_NO":"５５號","E_COORD97":180548.29000000001,"N_COORD97":2579784.8100000001,"ADDRESS":"民族路３０８巷５５號","OBJECTID":355167},"geometry":{"x":180548.29000000004,"y":2579784.8100000024}},{"attributes":{"ID":355177,"DIS_CODE":0,"TOWNNAME":"新營區","LI":"王公里","LIN":"33鄰","STREET":"民族路","SECT":" ","MAREA":" ","LANE":"３３０巷","ALLEY":" ","HOUSE_NO":"２３號","E_COORD97":180453.54000000001,"N_COORD97":2579816.1000000001,"ADDRESS":"民族路３３０巷２３號","OBJECTID":355168},"geometry":{"x":180453.54000000004,"y":2579816.1000000015}},{"attributes":{"ID":355178,"DIS_CODE":0,"TOWNNAME":"新營區","LI":"王公里","LIN":"33鄰","STREET":"民族路","SECT":" ","MAREA":" ","LANE":"３３０巷","ALLEY":" ","HOUSE_NO":"５７號","E_COORD97":180541.85000000001,"N_COORD97":2579820.04,"ADDRESS":"民族路３３０巷５７號","OBJECTID":355169},"geometry":{"x":180541.85000000056,"y":2579820.040000001}},{"attributes":{"ID":355179,"DIS_CODE":0,"TOWNNAME":"新營區","LI":"王公里","LIN":"33鄰","STREET":"民族路","SECT":" ","MAREA":" ","LANE":"３３０巷","ALLEY":" ","HOUSE_NO":"５９號","E_COORD97":180546.69,"N_COORD97":2579820.04,"ADDRESS":"民族路３３０巷５９號","OBJECTID":355170},"geometry":{"x":180546.69000000227,"y":2579820.040000001}},{"attributes":{"ID":355180,"DIS_CODE":0,"TOWNNAME":"新營區","LI":"王公里","LIN":"33鄰","STREET":"民族路","SECT":" ","MAREA":" ","LANE":"３３０巷","ALLEY":" ","HOUSE_NO":"６０號","E_COORD97":180528.38,"N_COORD97":2579804.2999999998,"ADDRESS":"民族路３３０巷６０號","OBJECTID":355171},"geometry":{"x":180528.38000000082,"y":2579804.3000000007}},{"attributes":{"ID":355181,"DIS_CODE":0,"TOWNNAME":"新營區","LI":"王公里","LIN":"33鄰","STREET":"民族路","SECT":" ","MAREA":" ","LANE":"３３０巷","ALLEY":" ","HOUSE_NO":"６２號","E_COORD97":180533.67000000001,"N_COORD97":2579804.4399999999,"ADDRESS":"民族路３３０巷６２號","OBJECTID":355172},"geometry":{"x":180533.66999999993,"y":2579804.4400000013}},{"attributes":{"ID":355182,"DIS_CODE":0,"TOWNNAME":"新營區","LI":"王公里","LIN":"33鄰","STREET":"民族路","SECT":" ","MAREA":" ","LANE":"３３０巷","ALLEY":" ","HOUSE_NO":"６６號","E_COORD97":180538.64999999999,"N_COORD97":2579804.5899999999,"ADDRESS":"民族路３３０巷６６號","OBJECTID":355173},"geometry":{"x":180538.6500000013,"y":2579804.5899999999}},{"attributes":{"ID":355183,"DIS_CODE":0,"TOWNNAME":"新營區","LI":"王公里","LIN":"33鄰","STREET":"民族路","SECT":" ","MAREA":" ","LANE":"３３０巷","ALLEY":" ","HOUSE_NO":"６８號","E_COORD97":180543.69,"N_COORD97":2579804.6400000001,"ADDRESS":"民族路３３０巷６８號","OBJECTID":355174},"geometry":{"x":180543.69000000134,"y":2579804.6400000006}},{"attributes":{"ID":355184,"DIS_CODE":0,"TOWNNAME":"新營區","LI":"王公里","LIN":"33鄰","STREET":"民族路","SECT":" ","MAREA":" ","LANE":"３３０巷","ALLEY":" ","HOUSE_NO":"７０號","E_COORD97":180549.14000000001,"N_COORD97":2579804.6899999999,"ADDRESS":"民族路３３０巷７０號","OBJECTID":355175},"geometry":{"x":180549.13999999966,"y":2579804.6900000032}},{"attributes":{"ID":355185,"DIS_CODE":0,"TOWNNAME":"新化區","LI":"東榮里","LIN":"33鄰","STREET":"信義路","SECT":" ","MAREA":" ","LANE":"２２０巷","ALLEY":" ","HOUSE_NO":"８號","E_COORD97":179160.82999999999,"N_COORD97":2548375.25,"ADDRESS":"信義路２２０巷８號","OBJECTID":355176},"geometry":{"x":179160.83000000101,"y":2548375.25}},{"attributes":{"ID":355186,"DIS_CODE":0,"TOWNNAME":"安平區","LI":"育平里","LIN":"33鄰","STREET":"建平七街","SECT":" ","MAREA":" ","LANE":"８１８巷","ALLEY":" ","HOUSE_NO":"６之１號","E_COORD97":164555.41,"N_COORD97":2543489,"ADDRESS":"建平七街８１８巷６之１號","OBJECTID":355177},"geometry":{"x":164555.41000000015,"y":2543489.0000000019}},{"attributes":{"ID":355187,"DIS_CODE":0,"TOWNNAME":"永康區","LI":"成功里","LIN":"33鄰","STREET":"忠孝路","SECT":" ","MAREA":" ","LANE":"２０７巷","ALLEY":" ","HOUSE_NO":"４４號","E_COORD97":171892.98999999999,"N_COORD97":2544917.2400000002,"ADDRESS":"忠孝路２０７巷４４號","OBJECTID":355178},"geometry":{"x":171892.99000000115,"y":2544917.2400000002}},{"attributes":{"ID":355188,"DIS_CODE":0,"TOWNNAME":"永康區","LI":"永康里","LIN":"33鄰","STREET":"永大路","SECT":"二段","MAREA":" ","LANE":"１３１０巷","ALLEY":" ","HOUSE_NO":"３３號","E_COORD97":174328.41,"N_COORD97":2546988.7999999998,"ADDRESS":"永大路二段１３１０巷３３號","OBJECTID":355179},"geometry":{"x":174328.41000000015,"y":2546988.8000000007}},{"attributes":{"ID":355189,"DIS_CODE":0,"TOWNNAME":"永康區","LI":"成功里","LIN":"33鄰","STREET":"忠孝路","SECT":" ","MAREA":" ","LANE":"２０７巷","ALLEY":" ","HOUSE_NO":"３８號","E_COORD97":171909.57999999999,"N_COORD97":2544921.4700000002,"ADDRESS":"忠孝路２０７巷３８號","OBJECTID":355180},"geometry":{"x":171909.58000000007,"y":2544921.4700000025}},{"attributes":{"ID":355190,"DIS_CODE":0,"TOWNNAME":"永康區","LI":"永康里","LIN":"33鄰","STREET":"永大路","SECT":"二段","MAREA":" ","LANE":"１３１０巷","ALLEY":" ","HOUSE_NO":"３５號","E_COORD97":174328.16,"N_COORD97":2546993.5499999998,"ADDRESS":"永大路二段１３１０巷３５號","OBJECTID":355181},"geometry":{"x":174328.16000000015,"y":2546993.5500000007}},{"attributes":{"ID":355191,"DIS_CODE":0,"TOWNNAME":"仁德區","LI":"後壁里","LIN":"33鄰","STREET":"德洋二街","SECT":" ","MAREA":" ","LANE":"３９巷","ALLEY":" ","HOUSE_NO":"４５號","E_COORD97":172258.25,"N_COORD97":2539426.9100000001,"ADDRESS":"德洋二街３９巷４５號","OBJECTID":355182},"geometry":{"x":172258.25000000093,"y":2539426.9100000001}},{"attributes":{"ID":355192,"DIS_CODE":0,"TOWNNAME":"仁德區","LI":"後壁里","LIN":"33鄰","STREET":"德洋二街","SECT":" ","MAREA":" ","LANE":"３９巷","ALLEY":" ","HOUSE_NO":"８１號","E_COORD97":172175.62,"N_COORD97":2539407.27,"ADDRESS":"德洋二街３９巷８１號","OBJECTID":355183},"geometry":{"x":172175.62000000011,"y":2539407.2699999996}},{"attributes":{"ID":355193,"DIS_CODE":0,"TOWNNAME":"麻豆區","LI":"南勢里","LIN":"20鄰","STREET":" ","SECT":" ","MAREA":"南勢","LANE":" ","ALLEY":" ","HOUSE_NO":"３８號之５３","E_COORD97":174481.64999999999,"N_COORD97":2564658.1800000002,"ADDRESS":"南勢３８號之５３","OBJECTID":355184},"geometry":{"x":174481.6500000013,"y":2564658.1800000016}},{"attributes":{"ID":355194,"DIS_CODE":0,"TOWNNAME":"永康區","LI":"復華里","LIN":"33鄰","STREET":"復華十街","SECT":" ","MAREA":" ","LANE":"２４巷","ALLEY":" ","HOUSE_NO":"３號","E_COORD97":172525.70000000001,"N_COORD97":2546120.6000000001,"ADDRESS":"復華十街２４巷３號","OBJECTID":355185},"geometry":{"x":172525.70000000019,"y":2546120.5999999996}},{"attributes":{"ID":355195,"DIS_CODE":0,"TOWNNAME":"永康區","LI":"二王里","LIN":"33鄰","STREET":"中山南路","SECT":" ","MAREA":" ","LANE":"４３６巷","ALLEY":" ","HOUSE_NO":"１１號","E_COORD97":172041.31,"N_COORD97":2546382.0899999999,"ADDRESS":"中山南路４３６巷１１號","OBJECTID":355186},"geometry":{"x":172041.30999999959,"y":2546382.0899999999}},{"attributes":{"ID":355196,"DIS_CODE":0,"TOWNNAME":"永康區","LI":"復華里","LIN":"33鄰","STREET":"忠孝路","SECT":" ","MAREA":" ","LANE":"３５２巷","ALLEY":" ","HOUSE_NO":"１６號","E_COORD97":172449.51999999999,"N_COORD97":2546285.2400000002,"ADDRESS":"忠孝路３５２巷１６號","OBJECTID":355187},"geometry":{"x":172449.52000000048,"y":2546285.2400000021}},{"attributes":{"ID":355197,"DIS_CODE":0,"TOWNNAME":"永康區","LI":"埔園里","LIN":"33鄰","STREET":"埔園街","SECT":" ","MAREA":" ","LANE":"１２９巷","ALLEY":" ","HOUSE_NO":"１０號","E_COORD97":173875.70999999999,"N_COORD97":2548131.7400000002,"ADDRESS":"埔園街１２９巷１０號","OBJECTID":355188},"geometry":{"x":173875.71000000089,"y":2548131.7399999984}},{"attributes":{"ID":355198,"DIS_CODE":0,"TOWNNAME":"永康區","LI":"南灣里","LIN":"33鄰","STREET":"南灣街","SECT":" ","MAREA":" ","LANE":"８７巷","ALLEY":" ","HOUSE_NO":"１０號","E_COORD97":174401.67999999999,"N_COORD97":2544903.7400000002,"ADDRESS":"南灣街８７巷１０號","OBJECTID":355189},"geometry":{"x":174401.68000000063,"y":2544903.7400000002}},{"attributes":{"ID":355199,"DIS_CODE":0,"TOWNNAME":"永康區","LI":"尚頂里","LIN":"33鄰","STREET":"中正南路","SECT":" ","MAREA":" ","LANE":"３４９巷","ALLEY":" ","HOUSE_NO":"６號","E_COORD97":170433.23000000001,"N_COORD97":2547829.4300000002,"ADDRESS":"中正南路３４９巷６號","OBJECTID":355190},"geometry":{"x":170433.23000000138,"y":2547829.4300000016}},{"attributes":{"ID":355200,"DIS_CODE":0,"TOWNNAME":"永康區","LI":"崑山里","LIN":"33鄰","STREET":"國光二街","SECT":" ","MAREA":" ","LANE":"７０巷","ALLEY":" ","HOUSE_NO":"２７號","E_COORD97":173901.73000000001,"N_COORD97":2544843.54,"ADDRESS":"國光二街７０巷２７號","OBJECTID":355191},"geometry":{"x":173901.73000000138,"y":2544843.5400000028}},{"attributes":{"ID":355201,"DIS_CODE":0,"TOWNNAME":"永康區","LI":"南灣里","LIN":"33鄰","STREET":"南灣街","SECT":" ","MAREA":" ","LANE":"８７巷","ALLEY":" ","HOUSE_NO":"１７號","E_COORD97":174412.82000000001,"N_COORD97":2544883.25,"ADDRESS":"南灣街８７巷１７號","OBJECTID":355192},"geometry":{"x":174412.82000000123,"y":2544883.25}},{"attributes":{"ID":355202,"DIS_CODE":0,"TOWNNAME":"永康區","LI":"東灣里","LIN":"33鄰","STREET":"大灣一街","SECT":" ","MAREA":" ","LANE":"３５８巷","ALLEY":" ","HOUSE_NO":"９號","E_COORD97":175135.67000000001,"N_COORD97":2544764.2999999998,"ADDRESS":"大灣一街３５８巷９號","OBJECTID":355193},"geometry":{"x":175135.67000000086,"y":2544764.3000000007}},{"attributes":{"ID":355203,"DIS_CODE":0,"TOWNNAME":"東區","LI":"崇善里","LIN":"20鄰","STREET":"崇善十一街","SECT":" ","MAREA":" ","LANE":"１２巷","ALLEY":" ","HOUSE_NO":"２２號四樓","E_COORD97":171183.67000000001,"N_COORD97":2541097.1299999999,"ADDRESS":"崇善十一街１２巷２２號四樓","OBJECTID":355194},"geometry":{"x":171183.66999999899,"y":2541097.1300000008}},{"attributes":{"ID":355204,"DIS_CODE":0,"TOWNNAME":"東區","LI":"崇善里","LIN":"20鄰","STREET":"崇善十一街","SECT":" ","MAREA":" ","LANE":"１２巷","ALLEY":" ","HOUSE_NO":"２２號五樓","E_COORD97":171183.67000000001,"N_COORD97":2541097.1299999999,"ADDRESS":"崇善十一街１２巷２２號五樓","OBJECTID":355195},"geometry":{"x":171183.66999999899,"y":2541097.1300000008}},{"attributes":{"ID":355205,"DIS_CODE":0,"TOWNNAME":"東區","LI":"崇善里","LIN":"20鄰","STREET":"崇善十一街","SECT":" ","MAREA":" ","LANE":"１２巷","ALLEY":" ","HOUSE_NO":"２４號二樓","E_COORD97":171195.01999999999,"N_COORD97":2541103.6400000001,"ADDRESS":"崇善十一街１２巷２４號二樓","OBJECTID":355196},"geometry":{"x":171195.02000000048,"y":2541103.6400000006}},{"attributes":{"ID":355206,"DIS_CODE":0,"TOWNNAME":"東區","LI":"崇善里","LIN":"20鄰","STREET":"崇善十一街","SECT":" ","MAREA":" ","LANE":"１２巷","ALLEY":" ","HOUSE_NO":"２４號三樓","E_COORD97":171195.01999999999,"N_COORD97":2541103.6400000001,"ADDRESS":"崇善十一街１２巷２４號三樓","OBJECTID":355197},"geometry":{"x":171195.02000000048,"y":2541103.6400000006}},{"attributes":{"ID":355207,"DIS_CODE":0,"TOWNNAME":"東區","LI":"崇善里","LIN":"20鄰","STREET":"崇善十一街","SECT":" ","MAREA":" ","LANE":"１２巷","ALLEY":" ","HOUSE_NO":"２４號四樓","E_COORD97":171195.01999999999,"N_COORD97":2541103.6400000001,"ADDRESS":"崇善十一街１２巷２４號四樓","OBJECTID":355198},"geometry":{"x":171195.02000000048,"y":2541103.6400000006}},{"attributes":{"ID":355208,"DIS_CODE":0,"TOWNNAME":"東區","LI":"崇善里","LIN":"20鄰","STREET":"崇善十一街","SECT":" ","MAREA":" ","LANE":"１２巷","ALLEY":" ","HOUSE_NO":"２４號五樓","E_COORD97":171195.01999999999,"N_COORD97":2541103.6400000001,"ADDRESS":"崇善十一街１２巷２４號五樓","OBJECTID":355199},"geometry":{"x":171195.02000000048,"y":2541103.6400000006}},{"attributes":{"ID":355209,"DIS_CODE":0,"TOWNNAME":"永康區","LI":"埔園里","LIN":"33鄰","STREET":"埔東街","SECT":" ","MAREA":" ","LANE":"３０巷","ALLEY":" ","HOUSE_NO":"１５號","E_COORD97":173911.91,"N_COORD97":2548125.4900000002,"ADDRESS":"埔東街３０巷１５號","OBJECTID":355200},"geometry":{"x":173911.91000000108,"y":2548125.4900000002}}]}