{"displayFieldName":"TOWNNAME","fieldAliases":{"ID":"ID","DIS_CODE":"DIS_CODE","TOWNNAME":"TOWNNAME","LI":"LI","LIN":"LIN","STREET":"STREET","SECT":"SECT","MAREA":"MAREA","LANE":"LANE","ALLEY":"ALLEY","HOUSE_NO":"HOUSE_NO","E_COORD97":"E_COORD97","N_COORD97":"N_COORD97","ADDRESS":"ADDRESS","OBJECTID":"OBJECTID"},"geometryType":"esriGeometryPoint","spatialReference":{"wkid":102443,"latestWkid":3826},"fields":[{"name":"ID","type":"esriFieldTypeDouble","alias":"ID"},{"name":"DIS_CODE","type":"esriFieldTypeInteger","alias":"DIS_CODE"},{"name":"TOWNNAME","type":"esriFieldTypeString","alias":"TOWNNAME","length":8},{"name":"LI","type":"esriFieldTypeString","alias":"LI","length":8},{"name":"LIN","type":"esriFieldTypeString","alias":"LIN","length":12},{"name":"STREET","type":"esriFieldTypeString","alias":"STREET","length":20},{"name":"SECT","type":"esriFieldTypeString","alias":"SECT","length":8},{"name":"MAREA","type":"esriFieldTypeString","alias":"MAREA","length":12},{"name":"LANE","type":"esriFieldTypeString","alias":"LANE","length":10},{"name":"ALLEY","type":"esriFieldTypeString","alias":"ALLEY","length":10},{"name":"HOUSE_NO","type":"esriFieldTypeString","alias":"HOUSE_NO","length":20},{"name":"E_COORD97","type":"esriFieldTypeDouble","alias":"E_COORD97"},{"name":"N_COORD97","type":"esriFieldTypeDouble","alias":"N_COORD97"},{"name":"ADDRESS","type":"esriFieldTypeString","alias":"ADDRESS","length":50},{"name":"OBJECTID","type":"esriFieldTypeOID","alias":"OBJECTID"}],"features":[{"attributes":{"ID":260805,"DIS_CODE":0,"TOWNNAME":"安南區","LI":"海西里","LIN":"8鄰","STREET":"海環街","SECT":" ","MAREA":" ","LANE":" ","ALLEY":" ","HOUSE_NO":"２６０之１２號","E_COORD97":166206.07696199999,"N_COORD97":2548693.7640300002,"ADDRESS":"海環街２６０之１２號","OBJECTID":260801},"geometry":{"x":166206.07696200162,"y":2548693.7640320007}},{"attributes":{"ID":260806,"DIS_CODE":0,"TOWNNAME":"新營區","LI":"大宏里","LIN":"8鄰","STREET":"文昌街","SECT":" ","MAREA":" ","LANE":" ","ALLEY":" ","HOUSE_NO":"２２號","E_COORD97":180427.802945,"N_COORD97":2578428.1776100001,"ADDRESS":"文昌街２２號","OBJECTID":260802},"geometry":{"x":180427.80294500198,"y":2578428.1776110027}},{"attributes":{"ID":260807,"DIS_CODE":0,"TOWNNAME":"安南區","LI":"州南里","LIN":"7鄰","STREET":"北安路","SECT":"四段","MAREA":" ","LANE":" ","ALLEY":" ","HOUSE_NO":"１７１之３０號","E_COORD97":169448.104808,"N_COORD97":2551392.87543,"ADDRESS":"北安路四段１７１之３０號","OBJECTID":260803},"geometry":{"x":169448.10480799992,"y":2551392.8754290026}},{"attributes":{"ID":260808,"DIS_CODE":0,"TOWNNAME":"關廟區","LI":"下湖里","LIN":"7鄰","STREET":"關新路","SECT":"一段","MAREA":" ","LANE":" ","ALLEY":" ","HOUSE_NO":"５１０號","E_COORD97":179244.804508,"N_COORD97":2543183.4672599998,"ADDRESS":"關新路一段５１０號","OBJECTID":260804},"geometry":{"x":179244.80450800061,"y":2543183.4672600012}},{"attributes":{"ID":260809,"DIS_CODE":0,"TOWNNAME":"歸仁區","LI":"歸仁里","LIN":"7鄰","STREET":"中山路","SECT":"一段","MAREA":" ","LANE":" ","ALLEY":" ","HOUSE_NO":"５１８號","E_COORD97":177817.747653,"N_COORD97":2540768.1211299999,"ADDRESS":"中山路一段５１８號","OBJECTID":260805},"geometry":{"x":177817.74765300099,"y":2540768.1211309992}},{"attributes":{"ID":260810,"DIS_CODE":0,"TOWNNAME":"關廟區","LI":"田中里","LIN":"7鄰","STREET":"中崙街","SECT":" ","MAREA":" ","LANE":" ","ALLEY":" ","HOUSE_NO":"１８號","E_COORD97":183360.14000000001,"N_COORD97":2533516.2999999998,"ADDRESS":"中崙街１８號","OBJECTID":260806},"geometry":{"x":183360.13999999873,"y":2533516.3000000045}},{"attributes":{"ID":260811,"DIS_CODE":0,"TOWNNAME":"關廟區","LI":"田中里","LIN":"7鄰","STREET":"南雄南路","SECT":" ","MAREA":" ","LANE":" ","ALLEY":" ","HOUSE_NO":"７００號","E_COORD97":183424.64000000001,"N_COORD97":2533506.2999999998,"ADDRESS":"南雄南路７００號","OBJECTID":260807},"geometry":{"x":183424.64000000153,"y":2533506.3000000045}},{"attributes":{"ID":260812,"DIS_CODE":0,"TOWNNAME":"關廟區","LI":"布袋里","LIN":"7鄰","STREET":"南雄南路","SECT":" ","MAREA":" ","LANE":" ","ALLEY":" ","HOUSE_NO":"３９１號","E_COORD97":183759.69,"N_COORD97":2534699.2999999998,"ADDRESS":"南雄南路３９１號","OBJECTID":260808},"geometry":{"x":183759.69000000134,"y":2534699.2999999989}},{"attributes":{"ID":260813,"DIS_CODE":0,"TOWNNAME":"關廟區","LI":"布袋里","LIN":"7鄰","STREET":"南雄南路","SECT":" ","MAREA":" ","LANE":" ","ALLEY":" ","HOUSE_NO":"４０３號","E_COORD97":183770.52321000001,"N_COORD97":2534669.8715499998,"ADDRESS":"南雄南路４０３號","OBJECTID":260809},"geometry":{"x":183770.52321000118,"y":2534669.8715499993}},{"attributes":{"ID":260814,"DIS_CODE":0,"TOWNNAME":"關廟區","LI":"下湖里","LIN":"7鄰","STREET":"關新路","SECT":"一段","MAREA":" ","LANE":" ","ALLEY":" ","HOUSE_NO":"４９７號","E_COORD97":179207.44,"N_COORD97":2543144.2999999998,"ADDRESS":"關新路一段４９７號","OBJECTID":260810},"geometry":{"x":179207.44000000227,"y":2543144.3000000007}},{"attributes":{"ID":260815,"DIS_CODE":0,"TOWNNAME":"關廟區","LI":"布袋里","LIN":"7鄰","STREET":"南雄南路","SECT":" ","MAREA":" ","LANE":" ","ALLEY":" ","HOUSE_NO":"４８２號","E_COORD97":183820.84,"N_COORD97":2534256.2999999998,"ADDRESS":"南雄南路４８２號","OBJECTID":260811},"geometry":{"x":183820.84000000078,"y":2534256.3000000026}},{"attributes":{"ID":260816,"DIS_CODE":0,"TOWNNAME":"關廟區","LI":"布袋里","LIN":"7鄰","STREET":"南雄南路","SECT":" ","MAREA":" ","LANE":" ","ALLEY":" ","HOUSE_NO":"４９２號","E_COORD97":183805.14000000001,"N_COORD97":2534242.2999999998,"ADDRESS":"南雄南路４９２號","OBJECTID":260812},"geometry":{"x":183805.1400000006,"y":2534242.3000000026}},{"attributes":{"ID":260817,"DIS_CODE":0,"TOWNNAME":"關廟區","LI":"龜洞里","LIN":"7鄰","STREET":"南雄南路","SECT":" ","MAREA":" ","LANE":" ","ALLEY":" ","HOUSE_NO":"７３３號","E_COORD97":183279.23999999999,"N_COORD97":2533399.2999999998,"ADDRESS":"南雄南路７３３號","OBJECTID":260813},"geometry":{"x":183279.24000000115,"y":2533399.3000000007}},{"attributes":{"ID":260818,"DIS_CODE":0,"TOWNNAME":"關廟區","LI":"龜洞里","LIN":"7鄰","STREET":"南雄南路","SECT":" ","MAREA":" ","LANE":" ","ALLEY":" ","HOUSE_NO":"７５７號","E_COORD97":183224.34,"N_COORD97":2533364.2999999998,"ADDRESS":"南雄南路７５７號","OBJECTID":260814},"geometry":{"x":183224.33999999985,"y":2533364.3000000026}},{"attributes":{"ID":260819,"DIS_CODE":0,"TOWNNAME":"關廟區","LI":"新光里","LIN":"7鄰","STREET":"北寮街","SECT":" ","MAREA":" ","LANE":" ","ALLEY":" ","HOUSE_NO":"９８號","E_COORD97":184235.47,"N_COORD97":2541907.2999999998,"ADDRESS":"北寮街９８號","OBJECTID":260815},"geometry":{"x":184235.46999999974,"y":2541907.3000000045}},{"attributes":{"ID":260820,"DIS_CODE":0,"TOWNNAME":"新營區","LI":"大宏里","LIN":"13鄰","STREET":"文昌街","SECT":" ","MAREA":" ","LANE":" ","ALLEY":" ","HOUSE_NO":"５６號之１","E_COORD97":180239.39999999999,"N_COORD97":2578300.3199999998,"ADDRESS":"文昌街５６號之１","OBJECTID":260816},"geometry":{"x":180239.40000000037,"y":2578300.3200000022}},{"attributes":{"ID":260821,"DIS_CODE":0,"TOWNNAME":"新營區","LI":"大宏里","LIN":"13鄰","STREET":"文昌街","SECT":" ","MAREA":" ","LANE":" ","ALLEY":" ","HOUSE_NO":"４４號之２","E_COORD97":180269.25,"N_COORD97":2578327.8700000001,"ADDRESS":"文昌街４４號之２","OBJECTID":260817},"geometry":{"x":180269.25,"y":2578327.8700000029}},{"attributes":{"ID":260822,"DIS_CODE":0,"TOWNNAME":"安南區","LI":"\u25A0南里","LIN":"7鄰","STREET":"安昌街","SECT":" ","MAREA":" ","LANE":" ","ALLEY":" ","HOUSE_NO":"８０之２號","E_COORD97":169941.79000000001,"N_COORD97":2552139.6000000001,"ADDRESS":"安昌街８０之２號","OBJECTID":260818},"geometry":{"x":169941.79000000004,"y":2552139.5999999978}},{"attributes":{"ID":260823,"DIS_CODE":0,"TOWNNAME":"永康區","LI":"二王里","LIN":"8鄰","STREET":"中山南路","SECT":" ","MAREA":" ","LANE":" ","ALLEY":" ","HOUSE_NO":"８９２號","E_COORD97":173002.39999999999,"N_COORD97":2546870.52,"ADDRESS":"中山南路８９２號","OBJECTID":260819},"geometry":{"x":173002.4000000013,"y":2546870.5199999996}},{"attributes":{"ID":260824,"DIS_CODE":0,"TOWNNAME":"安南區","LI":"安東里","LIN":"15鄰","STREET":"安通路","SECT":"三段","MAREA":" ","LANE":" ","ALLEY":" ","HOUSE_NO":"１２８號","E_COORD97":169477.86919999999,"N_COORD97":2547841.0198599999,"ADDRESS":"安通路三段１２８號","OBJECTID":260820},"geometry":{"x":169477.86919999961,"y":2547841.0198630001}},{"attributes":{"ID":260825,"DIS_CODE":0,"TOWNNAME":"安南區","LI":"安東里","LIN":"15鄰","STREET":"安通路","SECT":"三段","MAREA":" ","LANE":" ","ALLEY":" ","HOUSE_NO":"１３８號","E_COORD97":169446.629652,"N_COORD97":2547831.5013299999,"ADDRESS":"安通路三段１３８號","OBJECTID":260821},"geometry":{"x":169446.62965200096,"y":2547831.5013260003}},{"attributes":{"ID":260826,"DIS_CODE":0,"TOWNNAME":"安南區","LI":"海東里","LIN":"21鄰","STREET":"海東二街","SECT":" ","MAREA":" ","LANE":" ","ALLEY":" ","HOUSE_NO":"６２號","E_COORD97":166886.945989,"N_COORD97":2547919.4288300001,"ADDRESS":"海東二街６２號","OBJECTID":260822},"geometry":{"x":166886.94598899968,"y":2547919.4288290031}},{"attributes":{"ID":260827,"DIS_CODE":0,"TOWNNAME":"安南區","LI":"淵中里","LIN":"2鄰","STREET":"安中路","SECT":"三段","MAREA":" ","LANE":" ","ALLEY":" ","HOUSE_NO":"３９１號","E_COORD97":165386.77215599999,"N_COORD97":2550000.0286099999,"ADDRESS":"安中路三段３９１號","OBJECTID":260823},"geometry":{"x":165386.77215600014,"y":2550000.0286139995}},{"attributes":{"ID":260828,"DIS_CODE":0,"TOWNNAME":"將軍區","LI":"三吉里","LIN":"9鄰","STREET":"三吉","SECT":" ","MAREA":" ","LANE":" ","ALLEY":" ","HOUSE_NO":"８１之１號","E_COORD97":160777.03350600001,"N_COORD97":2567003.9083599998,"ADDRESS":"三吉８１之１號","OBJECTID":260824},"geometry":{"x":160777.03350600041,"y":2567003.9083620012}},{"attributes":{"ID":260829,"DIS_CODE":0,"TOWNNAME":"永康區","LI":"東橋里","LIN":"15鄰","STREET":"東橋二街","SECT":" ","MAREA":" ","LANE":" ","ALLEY":" ","HOUSE_NO":"１２６號","E_COORD97":171854.628238,"N_COORD97":2546542.7667100001,"ADDRESS":"東橋二街１２６號","OBJECTID":260825},"geometry":{"x":171854.62823799998,"y":2546542.7667079996}},{"attributes":{"ID":260830,"DIS_CODE":0,"TOWNNAME":"永康區","LI":"復國里","LIN":"15鄰","STREET":"復國二路","SECT":" ","MAREA":" ","LANE":" ","ALLEY":" ","HOUSE_NO":"１７３號之１","E_COORD97":172926.28,"N_COORD97":2545784.8599999999,"ADDRESS":"復國二路１７３號之１","OBJECTID":260826},"geometry":{"x":172926.28000000119,"y":2545784.8600000013}},{"attributes":{"ID":260831,"DIS_CODE":0,"TOWNNAME":"新營區","LI":"大宏里","LIN":"13鄰","STREET":"文昌街","SECT":" ","MAREA":" ","LANE":" ","ALLEY":" ","HOUSE_NO":"４８號之２","E_COORD97":180260.09,"N_COORD97":2578335.6699999999,"ADDRESS":"文昌街４８號之２","OBJECTID":260827},"geometry":{"x":180260.08999999985,"y":2578335.6699999999}},{"attributes":{"ID":260832,"DIS_CODE":0,"TOWNNAME":"新營區","LI":"王公里","LIN":"24鄰","STREET":"中正路","SECT":" ","MAREA":" ","LANE":" ","ALLEY":" ","HOUSE_NO":"１１０號之８","E_COORD97":180109.72,"N_COORD97":2579387.3500000001,"ADDRESS":"中正路１１０號之８","OBJECTID":260828},"geometry":{"x":180109.71999999974,"y":2579387.3500000015}},{"attributes":{"ID":260833,"DIS_CODE":0,"TOWNNAME":"新營區","LI":"大宏里","LIN":"18鄰","STREET":"民族路","SECT":" ","MAREA":" ","LANE":" ","ALLEY":" ","HOUSE_NO":"２０號之５","E_COORD97":180351.14000000001,"N_COORD97":2578558.9399999999,"ADDRESS":"民族路２０號之５","OBJECTID":260829},"geometry":{"x":180351.13999999873,"y":2578558.9400000013}},{"attributes":{"ID":260834,"DIS_CODE":0,"TOWNNAME":"歸仁區","LI":"後市里","LIN":"35鄰","STREET":"國光街","SECT":" ","MAREA":" ","LANE":" ","ALLEY":" ","HOUSE_NO":"１０１號","E_COORD97":177296.49955199999,"N_COORD97":2540981.2694999999,"ADDRESS":"國光街１０１號","OBJECTID":260830},"geometry":{"x":177296.49955200125,"y":2540981.2695000004}},{"attributes":{"ID":260835,"DIS_CODE":0,"TOWNNAME":"歸仁區","LI":"崙頂里","LIN":"15鄰","STREET":"崙頂街","SECT":" ","MAREA":" ","LANE":" ","ALLEY":" ","HOUSE_NO":"８３號","E_COORD97":177881.099931,"N_COORD97":2539891.3272899999,"ADDRESS":"崙頂街８３號","OBJECTID":260831},"geometry":{"x":177881.09993100073,"y":2539891.3272879999}},{"attributes":{"ID":260836,"DIS_CODE":0,"TOWNNAME":"安平區","LI":"文平里","LIN":"15鄰","STREET":"建平五街","SECT":" ","MAREA":" ","LANE":" ","ALLEY":" ","HOUSE_NO":"２５號之１","E_COORD97":166074.11610000001,"N_COORD97":2543108.32448,"ADDRESS":"建平五街２５號之１","OBJECTID":260832},"geometry":{"x":166074.11610000022,"y":2543108.3244800009}},{"attributes":{"ID":260837,"DIS_CODE":0,"TOWNNAME":"安平區","LI":"文平里","LIN":"15鄰","STREET":"建平五街","SECT":" ","MAREA":" ","LANE":" ","ALLEY":" ","HOUSE_NO":"２５號之２","E_COORD97":166074.11610000001,"N_COORD97":2543108.9594800002,"ADDRESS":"建平五街２５號之２","OBJECTID":260833},"geometry":{"x":166074.11610000022,"y":2543108.9594800007}},{"attributes":{"ID":260838,"DIS_CODE":0,"TOWNNAME":"安平區","LI":"文平里","LIN":"15鄰","STREET":"建平五街","SECT":" ","MAREA":" ","LANE":" ","ALLEY":" ","HOUSE_NO":"２５號之３","E_COORD97":166073.90419,"N_COORD97":2543108.32448,"ADDRESS":"建平五街２５號之３","OBJECTID":260834},"geometry":{"x":166073.90419000015,"y":2543108.3244800009}},{"attributes":{"ID":260839,"DIS_CODE":0,"TOWNNAME":"安平區","LI":"文平里","LIN":"15鄰","STREET":"建平五街","SECT":" ","MAREA":" ","LANE":" ","ALLEY":" ","HOUSE_NO":"２５號之４","E_COORD97":166073.90419,"N_COORD97":2543108.53614,"ADDRESS":"建平五街２５號之４","OBJECTID":260835},"geometry":{"x":166073.90419000015,"y":2543108.5361400023}},{"attributes":{"ID":260840,"DIS_CODE":0,"TOWNNAME":"安南區","LI":"安東里","LIN":"15鄰","STREET":"安和路","SECT":"一段","MAREA":" ","LANE":" ","ALLEY":" ","HOUSE_NO":"１６６之１號","E_COORD97":169409.870367,"N_COORD97":2547811.0288800001,"ADDRESS":"安和路一段１６６之１號","OBJECTID":260836},"geometry":{"x":169409.87036700081,"y":2547811.0288759992}},{"attributes":{"ID":260841,"DIS_CODE":0,"TOWNNAME":"新營區","LI":"王公里","LIN":"1","STREET":"民治路","SECT":" ","MAREA":" ","LANE":" ","ALLEY":" ","HOUSE_NO":"２４號之１２","E_COORD97":180195.39000000001,"N_COORD97":2578887.48,"ADDRESS":"民治路２４號之１２","OBJECTID":260837},"geometry":{"x":180195.39000000153,"y":2578887.4800000004}},{"attributes":{"ID":260842,"DIS_CODE":0,"TOWNNAME":"新營區","LI":"大宏里","LIN":"15鄰","STREET":"大同路","SECT":" ","MAREA":" ","LANE":" ","ALLEY":" ","HOUSE_NO":"４５號之２","E_COORD97":180695.23000000001,"N_COORD97":2578865.2000000002,"ADDRESS":"大同路４５號之２","OBJECTID":260838},"geometry":{"x":180695.23000000045,"y":2578865.200000003}},{"attributes":{"ID":260843,"DIS_CODE":0,"TOWNNAME":"仁德區","LI":"仁愛里","LIN":"28鄰","STREET":"機場路","SECT":" ","MAREA":" ","LANE":" ","ALLEY":" ","HOUSE_NO":"１２１０號","E_COORD97":169695.01999999999,"N_COORD97":2539120.4500000002,"ADDRESS":"機場路１２１０號","OBJECTID":260839},"geometry":{"x":169695.02000000048,"y":2539120.4499999993}},{"attributes":{"ID":260844,"DIS_CODE":0,"TOWNNAME":"仁德區","LI":"仁愛里","LIN":"28鄰","STREET":"機場路","SECT":" ","MAREA":" ","LANE":" ","ALLEY":" ","HOUSE_NO":"１２１８號","E_COORD97":169695.01999999999,"N_COORD97":2539134.6000000001,"ADDRESS":"機場路１２１８號","OBJECTID":260840},"geometry":{"x":169695.02000000048,"y":2539134.6000000015}},{"attributes":{"ID":260845,"DIS_CODE":0,"TOWNNAME":"中西區","LI":"公正里","LIN":"9鄰","STREET":"民族路","SECT":"二段","MAREA":" ","LANE":"５７巷","ALLEY":" ","HOUSE_NO":"１號","E_COORD97":169025.70000000001,"N_COORD97":2543834.8399999999,"ADDRESS":"民族路二段５７巷１號","OBJECTID":260841},"geometry":{"x":169025.69999999925,"y":2543834.8399999999}},{"attributes":{"ID":260846,"DIS_CODE":0,"TOWNNAME":"新營區","LI":"大宏里","LIN":" ","STREET":"三民路","SECT":" ","MAREA":" ","LANE":" ","ALLEY":" ","HOUSE_NO":"４１之８號","E_COORD97":180375.20999999999,"N_COORD97":2578455.8300000001,"ADDRESS":"三民路４１之８號","OBJECTID":260842},"geometry":{"x":180375.21000000089,"y":2578455.8300000019}},{"attributes":{"ID":260847,"DIS_CODE":0,"TOWNNAME":"安南區","LI":"海南里","LIN":"15鄰","STREET":"府安路","SECT":"七段","MAREA":" ","LANE":" ","ALLEY":" ","HOUSE_NO":"８５號","E_COORD97":165859.62,"N_COORD97":2545835.46,"ADDRESS":"府安路七段８５號","OBJECTID":260843},"geometry":{"x":165859.62000000197,"y":2545835.4600000009}},{"attributes":{"ID":260848,"DIS_CODE":0,"TOWNNAME":"安南區","LI":"海南里","LIN":"15鄰","STREET":"府安路","SECT":"七段","MAREA":" ","LANE":" ","ALLEY":" ","HOUSE_NO":"８６號","E_COORD97":165856.04000000001,"N_COORD97":2545832.4199999999,"ADDRESS":"府安路七段８６號","OBJECTID":260844},"geometry":{"x":165856.04000000004,"y":2545832.4200000018}},{"attributes":{"ID":260849,"DIS_CODE":0,"TOWNNAME":"安南區","LI":"海南里","LIN":"15鄰","STREET":"府安路","SECT":"七段","MAREA":" ","LANE":" ","ALLEY":" ","HOUSE_NO":"８８號","E_COORD97":165849.57999999999,"N_COORD97":2545827.71,"ADDRESS":"府安路七段８８號","OBJECTID":260845},"geometry":{"x":165849.58000000007,"y":2545827.7100000046}},{"attributes":{"ID":260850,"DIS_CODE":0,"TOWNNAME":"善化區","LI":"坐駕里","LIN":"15鄰","STREET":"大成路","SECT":" ","MAREA":" ","LANE":" ","ALLEY":" ","HOUSE_NO":"１９５號之１","E_COORD97":178322.37,"N_COORD97":2558825.77,"ADDRESS":"大成路１９５號之１","OBJECTID":260846},"geometry":{"x":178322.37000000011,"y":2558825.7700000014}},{"attributes":{"ID":260851,"DIS_CODE":0,"TOWNNAME":"善化區","LI":"文昌里","LIN":"15鄰","STREET":"大信路","SECT":" ","MAREA":" ","LANE":" ","ALLEY":" ","HOUSE_NO":"６９號","E_COORD97":177606.37,"N_COORD97":2558777.75,"ADDRESS":"大信路６９號","OBJECTID":260847},"geometry":{"x":177606.37000000104,"y":2558777.7500000037}},{"attributes":{"ID":260852,"DIS_CODE":0,"TOWNNAME":"善化區","LI":"光文里","LIN":"15鄰","STREET":"信義路","SECT":" ","MAREA":" ","LANE":" ","ALLEY":" ","HOUSE_NO":"１２０號","E_COORD97":178268.42999999999,"N_COORD97":2558909.25,"ADDRESS":"信義路１２０號","OBJECTID":260848},"geometry":{"x":178268.43000000063,"y":2558909.25}},{"attributes":{"ID":260853,"DIS_CODE":0,"TOWNNAME":"善化區","LI":"光文里","LIN":"15鄰","STREET":"民權路","SECT":" ","MAREA":" ","LANE":" ","ALLEY":" ","HOUSE_NO":"１３０號","E_COORD97":178342.20000000001,"N_COORD97":2559037.2599999998,"ADDRESS":"民權路１３０號","OBJECTID":260849},"geometry":{"x":178342.20000000019,"y":2559037.2599999998}},{"attributes":{"ID":260854,"DIS_CODE":0,"TOWNNAME":"善化區","LI":"文昌里","LIN":"15鄰","STREET":"永福路","SECT":" ","MAREA":" ","LANE":" ","ALLEY":" ","HOUSE_NO":"１５號","E_COORD97":177610.39999999999,"N_COORD97":2558896.75,"ADDRESS":"永福路１５號","OBJECTID":260850},"geometry":{"x":177610.40000000037,"y":2558896.7500000019}},{"attributes":{"ID":260855,"DIS_CODE":0,"TOWNNAME":"善化區","LI":"文昌里","LIN":"15鄰","STREET":"大信路","SECT":" ","MAREA":" ","LANE":" ","ALLEY":" ","HOUSE_NO":"６７號","E_COORD97":177596.67999999999,"N_COORD97":2558743.5,"ADDRESS":"大信路６７號","OBJECTID":260851},"geometry":{"x":177596.68000000063,"y":2558743.5000000019}},{"attributes":{"ID":260856,"DIS_CODE":0,"TOWNNAME":"仁德區","LI":"仁愛里","LIN":"28鄰","STREET":"機場路","SECT":" ","MAREA":" ","LANE":" ","ALLEY":" ","HOUSE_NO":"１２３６號","E_COORD97":169695.12,"N_COORD97":2539154.3500000001,"ADDRESS":"機場路１２３６號","OBJECTID":260852},"geometry":{"x":169695.12000000011,"y":2539154.3500000015}},{"attributes":{"ID":260857,"DIS_CODE":0,"TOWNNAME":"仁德區","LI":"仁義里","LIN":"1鄰","STREET":"義林五街","SECT":" ","MAREA":" ","LANE":" ","ALLEY":" ","HOUSE_NO":"１０１號","E_COORD97":174174.72010800001,"N_COORD97":2541028.2273900001,"ADDRESS":"義林五街１０１號","OBJECTID":260853},"geometry":{"x":174174.72010800056,"y":2541028.2273940034}},{"attributes":{"ID":260858,"DIS_CODE":0,"TOWNNAME":"下營區","LI":"仁里里","LIN":"1鄰","STREET":"中山路","SECT":"二段","MAREA":" ","LANE":" ","ALLEY":" ","HOUSE_NO":"２６２號","E_COORD97":174765.02663099999,"N_COORD97":2569391.4391399999,"ADDRESS":"中山路二段２６２號","OBJECTID":260854},"geometry":{"x":174765.02663099952,"y":2569391.4391440004}},{"attributes":{"ID":260859,"DIS_CODE":0,"TOWNNAME":"安南區","LI":"總頭里","LIN":"1鄰","STREET":"長溪路","SECT":"二段","MAREA":" ","LANE":" ","ALLEY":" ","HOUSE_NO":"４４２之１號","E_COORD97":168289.163249,"N_COORD97":2550306.1916,"ADDRESS":"長溪路二段４４２之１號","OBJECTID":260855},"geometry":{"x":168289.16324899998,"y":2550306.1915949974}},{"attributes":{"ID":260860,"DIS_CODE":0,"TOWNNAME":"南區","LI":"府南里","LIN":"10鄰","STREET":"永成路","SECT":"三段","MAREA":" ","LANE":" ","ALLEY":" ","HOUSE_NO":"２５５號","E_COORD97":167487.08501099999,"N_COORD97":2541034.68083,"ADDRESS":"永成路三段２５５號","OBJECTID":260856},"geometry":{"x":167487.08501100074,"y":2541034.6808340028}},{"attributes":{"ID":260861,"DIS_CODE":0,"TOWNNAME":"南區","LI":"府南里","LIN":"10鄰","STREET":"永成路","SECT":"三段","MAREA":" ","LANE":" ","ALLEY":" ","HOUSE_NO":"２５７號","E_COORD97":167486.661398,"N_COORD97":2541038.8083299999,"ADDRESS":"永成路三段２５７號","OBJECTID":260857},"geometry":{"x":167486.66139800008,"y":2541038.8083309997}},{"attributes":{"ID":260862,"DIS_CODE":0,"TOWNNAME":"南區","LI":"府南里","LIN":"10鄰","STREET":"永成路","SECT":"三段","MAREA":" ","LANE":" ","ALLEY":" ","HOUSE_NO":"２６１號","E_COORD97":167486.13188100001,"N_COORD97":2541045.2641599998,"ADDRESS":"永成路三段２６１號","OBJECTID":260858},"geometry":{"x":167486.13188100047,"y":2541045.264161}},{"attributes":{"ID":260863,"DIS_CODE":0,"TOWNNAME":"南區","LI":"府南里","LIN":"10鄰","STREET":"永成路","SECT":"三段","MAREA":" ","LANE":" ","ALLEY":" ","HOUSE_NO":"２５９號","E_COORD97":167486.555494,"N_COORD97":2541042.7241600002,"ADDRESS":"永成路三段２５９號","OBJECTID":260859},"geometry":{"x":167486.55549400114,"y":2541042.7241629995}},{"attributes":{"ID":260864,"DIS_CODE":0,"TOWNNAME":"安南區","LI":"海東里","LIN":"21鄰","STREET":"海東二街","SECT":" ","MAREA":" ","LANE":" ","ALLEY":" ","HOUSE_NO":"６８號","E_COORD97":166878.111011,"N_COORD97":2547918.9446899998,"ADDRESS":"海東二街６８號","OBJECTID":260860},"geometry":{"x":166878.11101100128,"y":2547918.9446860012}},{"attributes":{"ID":260865,"DIS_CODE":0,"TOWNNAME":"安平區","LI":"國平里","LIN":"22鄰","STREET":"建平七街","SECT":" ","MAREA":" ","LANE":" ","ALLEY":" ","HOUSE_NO":"６８８號","E_COORD97":164873.67000000001,"N_COORD97":2543427.3199999998,"ADDRESS":"建平七街６８８號","OBJECTID":260861},"geometry":{"x":164873.66999999993,"y":2543427.3200000022}},{"attributes":{"ID":260866,"DIS_CODE":0,"TOWNNAME":"安平區","LI":"國平里","LIN":"22鄰","STREET":"建平七街","SECT":" ","MAREA":" ","LANE":" ","ALLEY":" ","HOUSE_NO":"６９０號","E_COORD97":164869.06,"N_COORD97":2543427.7999999998,"ADDRESS":"建平七街６９０號","OBJECTID":260862},"geometry":{"x":164869.05999999959,"y":2543427.8000000026}},{"attributes":{"ID":260867,"DIS_CODE":0,"TOWNNAME":"安平區","LI":"國平里","LIN":"22鄰","STREET":"建平七街","SECT":" ","MAREA":" ","LANE":" ","ALLEY":" ","HOUSE_NO":"６９２號","E_COORD97":164865.03,"N_COORD97":2543428.5600000001,"ADDRESS":"建平七街６９２號","OBJECTID":260863},"geometry":{"x":164865.03000000026,"y":2543428.5600000024}},{"attributes":{"ID":260868,"DIS_CODE":0,"TOWNNAME":"安平區","LI":"國平里","LIN":"22鄰","STREET":"建平七街","SECT":" ","MAREA":" ","LANE":" ","ALLEY":" ","HOUSE_NO":"６９４號","E_COORD97":164860.03,"N_COORD97":2543429.04,"ADDRESS":"建平七街６９４號","OBJECTID":260864},"geometry":{"x":164860.03000000026,"y":2543429.0399999991}},{"attributes":{"ID":260869,"DIS_CODE":0,"TOWNNAME":"安平區","LI":"國平里","LIN":"22鄰","STREET":"建平七街","SECT":" ","MAREA":" ","LANE":" ","ALLEY":" ","HOUSE_NO":"６９６號","E_COORD97":164855.62,"N_COORD97":2543429.9100000001,"ADDRESS":"建平七街６９６號","OBJECTID":260865},"geometry":{"x":164855.62000000011,"y":2543429.910000002}},{"attributes":{"ID":260870,"DIS_CODE":0,"TOWNNAME":"麻豆區","LI":"油車里","LIN":"22鄰","STREET":"新生北路","SECT":" ","MAREA":" ","LANE":" ","ALLEY":" ","HOUSE_NO":"２６號","E_COORD97":172332.69,"N_COORD97":2565034.9900000002,"ADDRESS":"新生北路２６號","OBJECTID":260866},"geometry":{"x":172332.69000000041,"y":2565034.9900000039}},{"attributes":{"ID":260871,"DIS_CODE":0,"TOWNNAME":"麻豆區","LI":"油車里","LIN":"22鄰","STREET":"新生北路","SECT":" ","MAREA":" ","LANE":" ","ALLEY":" ","HOUSE_NO":"２８號","E_COORD97":172327.98999999999,"N_COORD97":2565044.98,"ADDRESS":"新生北路２８號","OBJECTID":260867},"geometry":{"x":172327.99000000115,"y":2565044.9799999986}},{"attributes":{"ID":260872,"DIS_CODE":0,"TOWNNAME":"南區","LI":"府南里","LIN":"10鄰","STREET":"永成路","SECT":"三段","MAREA":" ","LANE":" ","ALLEY":" ","HOUSE_NO":"２７７號","E_COORD97":167484.64923400001,"N_COORD97":2541068.12415,"ADDRESS":"永成路三段２７７號","OBJECTID":260868},"geometry":{"x":167484.64923400059,"y":2541068.1241490003}},{"attributes":{"ID":260873,"DIS_CODE":0,"TOWNNAME":"安南區","LI":"總頭里","LIN":"1鄰","STREET":"長溪路","SECT":"二段","MAREA":" ","LANE":" ","ALLEY":" ","HOUSE_NO":"４４２號","E_COORD97":168284.29029899999,"N_COORD97":2550300.7941000001,"ADDRESS":"長溪路二段４４２號","OBJECTID":260869},"geometry":{"x":168284.29029900022,"y":2550300.794098001}},{"attributes":{"ID":260874,"DIS_CODE":0,"TOWNNAME":"歸仁區","LI":"崙頂里","LIN":"14鄰","STREET":"崙頂街","SECT":" ","MAREA":" ","LANE":" ","ALLEY":" ","HOUSE_NO":"９７號","E_COORD97":177890.21275599999,"N_COORD97":2539858.7306400002,"ADDRESS":"崙頂街９７號","OBJECTID":260870},"geometry":{"x":177890.21275600232,"y":2539858.7306389995}},{"attributes":{"ID":260875,"DIS_CODE":0,"TOWNNAME":"歸仁區","LI":"南保里","LIN":"33鄰","STREET":"中山路","SECT":"三段","MAREA":" ","LANE":" ","ALLEY":" ","HOUSE_NO":"１２號","E_COORD97":176935.10632399999,"N_COORD97":2540875.38338,"ADDRESS":"中山路三段１２號","OBJECTID":260871},"geometry":{"x":176935.10632400122,"y":2540875.3833830003}},{"attributes":{"ID":260876,"DIS_CODE":0,"TOWNNAME":"新營區","LI":"永生里","LIN":"1鄰","STREET":"中興路","SECT":" ","MAREA":" ","LANE":" ","ALLEY":" ","HOUSE_NO":"２４號之１","E_COORD97":180126.69,"N_COORD97":2578032.8500000001,"ADDRESS":"中興路２４號之１","OBJECTID":260872},"geometry":{"x":180126.69000000134,"y":2578032.8499999996}},{"attributes":{"ID":260877,"DIS_CODE":0,"TOWNNAME":"關廟區","LI":"埤頭里","LIN":"11鄰","STREET":"關新路","SECT":"二段","MAREA":" ","LANE":" ","ALLEY":" ","HOUSE_NO":"９２號","E_COORD97":179106.43093,"N_COORD97":2544228.6593999998,"ADDRESS":"關新路二段９２號","OBJECTID":260873},"geometry":{"x":179106.4309299998,"y":2544228.6594000012}},{"attributes":{"ID":260878,"DIS_CODE":0,"TOWNNAME":"麻豆區","LI":"油車里","LIN":"22鄰","STREET":"新生北路","SECT":" ","MAREA":" ","LANE":" ","ALLEY":" ","HOUSE_NO":"３０號","E_COORD97":172347.75,"N_COORD97":2565069.6899999999,"ADDRESS":"新生北路３０號","OBJECTID":260874},"geometry":{"x":172347.74999999907,"y":2565069.6899999976}},{"attributes":{"ID":260879,"DIS_CODE":0,"TOWNNAME":"後壁區","LI":"後壁里","LIN":"12鄰","STREET":" ","SECT":" ","MAREA":"後壁","LANE":" ","ALLEY":" ","HOUSE_NO":"３２９號","E_COORD97":185906.48999999999,"N_COORD97":2584754.0800000001,"ADDRESS":"後壁３２９號","OBJECTID":260875},"geometry":{"x":185906.49000000115,"y":2584754.0800000019}},{"attributes":{"ID":260880,"DIS_CODE":0,"TOWNNAME":"麻豆區","LI":"油車里","LIN":"22鄰","STREET":"新生北路","SECT":" ","MAREA":" ","LANE":" ","ALLEY":" ","HOUSE_NO":"５６號","E_COORD97":172341.88,"N_COORD97":2565126.5800000001,"ADDRESS":"新生北路５６號","OBJECTID":260876},"geometry":{"x":172341.88000000175,"y":2565126.5800000019}},{"attributes":{"ID":260881,"DIS_CODE":0,"TOWNNAME":"中西區","LI":"五妃里","LIN":"4鄰","STREET":"南門路","SECT":" ","MAREA":" ","LANE":"２３７巷","ALLEY":" ","HOUSE_NO":"１號","E_COORD97":168418.61424299999,"N_COORD97":2542652.5894999998,"ADDRESS":"南門路２３７巷１號","OBJECTID":260877},"geometry":{"x":168418.61424300075,"y":2542652.5895020012}},{"attributes":{"ID":260882,"DIS_CODE":0,"TOWNNAME":"關廟區","LI":"下湖里","LIN":"1鄰","STREET":"關新路","SECT":"一段","MAREA":" ","LANE":" ","ALLEY":" ","HOUSE_NO":"１２５號","E_COORD97":179724.38529400001,"N_COORD97":2541987.5945899999,"ADDRESS":"關新路一段１２５號","OBJECTID":260878},"geometry":{"x":179724.38529400062,"y":2541987.5945870001}},{"attributes":{"ID":260883,"DIS_CODE":0,"TOWNNAME":"新營區","LI":"新北里","LIN":"1鄰","STREET":"三興街","SECT":" ","MAREA":" ","LANE":" ","ALLEY":" ","HOUSE_NO":"５７之５號","E_COORD97":179420.81,"N_COORD97":2578928.8100000001,"ADDRESS":"三興街５７之５號","OBJECTID":260879},"geometry":{"x":179420.80999999959,"y":2578928.8100000005}},{"attributes":{"ID":260884,"DIS_CODE":0,"TOWNNAME":"安南區","LI":"總頭里","LIN":"1鄰","STREET":"長溪路","SECT":"二段","MAREA":" ","LANE":" ","ALLEY":" ","HOUSE_NO":"４５６之１號","E_COORD97":168294.671802,"N_COORD97":2550346.8315699999,"ADDRESS":"長溪路二段４５６之１號","OBJECTID":260880},"geometry":{"x":168294.67180200107,"y":2550346.8315740004}},{"attributes":{"ID":260885,"DIS_CODE":0,"TOWNNAME":"安南區","LI":"總頭里","LIN":"1鄰","STREET":"長溪路","SECT":"二段","MAREA":" ","LANE":" ","ALLEY":" ","HOUSE_NO":"４５８號","E_COORD97":168278.993613,"N_COORD97":2550336.7774100001,"ADDRESS":"長溪路二段４５８號","OBJECTID":260881},"geometry":{"x":168278.99361300189,"y":2550336.7774120029}},{"attributes":{"ID":260886,"DIS_CODE":0,"TOWNNAME":"新營區","LI":"延平里","LIN":"1鄰","STREET":"延平路","SECT":" ","MAREA":" ","LANE":" ","ALLEY":" ","HOUSE_NO":"４６之８號","E_COORD97":179750.75,"N_COORD97":2577807.23,"ADDRESS":"延平路４６之８號","OBJECTID":260882},"geometry":{"x":179750.75000000186,"y":2577807.2300000004}},{"attributes":{"ID":260887,"DIS_CODE":0,"TOWNNAME":"關廟區","LI":"下湖里","LIN":"1鄰","STREET":"下湖二街","SECT":" ","MAREA":" ","LANE":" ","ALLEY":" ","HOUSE_NO":"１８號","E_COORD97":179393.89000000001,"N_COORD97":2542888.2999999998,"ADDRESS":"下湖二街１８號","OBJECTID":260883},"geometry":{"x":179393.8900000006,"y":2542888.3000000026}},{"attributes":{"ID":260888,"DIS_CODE":0,"TOWNNAME":"關廟區","LI":"龜洞里","LIN":"1鄰","STREET":"南雄南路","SECT":" ","MAREA":" ","LANE":" ","ALLEY":" ","HOUSE_NO":"６３８號","E_COORD97":183395.09,"N_COORD97":2533673.2999999998,"ADDRESS":"南雄南路６３８號","OBJECTID":260884},"geometry":{"x":183395.09000000078,"y":2533673.3000000026}},{"attributes":{"ID":260889,"DIS_CODE":0,"TOWNNAME":"關廟區","LI":"下湖里","LIN":"1鄰","STREET":"下湖二街","SECT":" ","MAREA":" ","LANE":" ","ALLEY":" ","HOUSE_NO":"４６號","E_COORD97":179425.04000000001,"N_COORD97":2542953.2999999998,"ADDRESS":"下湖二街４６號","OBJECTID":260885},"geometry":{"x":179425.0400000019,"y":2542953.3000000026}},{"attributes":{"ID":260890,"DIS_CODE":0,"TOWNNAME":"關廟區","LI":"下湖里","LIN":"1鄰","STREET":"下湖二街","SECT":" ","MAREA":" ","LANE":" ","ALLEY":" ","HOUSE_NO":"８號","E_COORD97":179383.48999999999,"N_COORD97":2542865.2999999998,"ADDRESS":"下湖二街８號","OBJECTID":260886},"geometry":{"x":179383.49000000115,"y":2542865.3000000007}},{"attributes":{"ID":260891,"DIS_CODE":0,"TOWNNAME":"關廟區","LI":"田中里","LIN":"1鄰","STREET":"田大路","SECT":" ","MAREA":" ","LANE":" ","ALLEY":" ","HOUSE_NO":"５３號","E_COORD97":184191.79000000001,"N_COORD97":2533856.2999999998,"ADDRESS":"田大路５３號","OBJECTID":260887},"geometry":{"x":184191.78999999911,"y":2533856.3000000026}},{"attributes":{"ID":260892,"DIS_CODE":0,"TOWNNAME":"關廟區","LI":"新光里","LIN":"1鄰","STREET":"新湖街","SECT":" ","MAREA":" ","LANE":" ","ALLEY":" ","HOUSE_NO":"２６６號","E_COORD97":183024.14000000001,"N_COORD97":2542459.2999999998,"ADDRESS":"新湖街２６６號","OBJECTID":260888},"geometry":{"x":183024.13999999966,"y":2542459.3000000007}},{"attributes":{"ID":260893,"DIS_CODE":0,"TOWNNAME":"關廟區","LI":"龜洞里","LIN":"1鄰","STREET":"南雄南路","SECT":" ","MAREA":" ","LANE":" ","ALLEY":" ","HOUSE_NO":"６２８號","E_COORD97":183389.29000000001,"N_COORD97":2533691.2999999998,"ADDRESS":"南雄南路６２８號","OBJECTID":260889},"geometry":{"x":183389.29000000004,"y":2533691.3000000007}},{"attributes":{"ID":260894,"DIS_CODE":0,"TOWNNAME":"關廟區","LI":"下湖里","LIN":"1鄰","STREET":"關新路","SECT":"一段","MAREA":" ","LANE":" ","ALLEY":" ","HOUSE_NO":"３４２號","E_COORD97":179395.79000000001,"N_COORD97":2542671.2999999998,"ADDRESS":"關新路一段３４２號","OBJECTID":260890},"geometry":{"x":179395.79000000004,"y":2542671.3000000026}},{"attributes":{"ID":260895,"DIS_CODE":0,"TOWNNAME":"麻豆區","LI":"油車里","LIN":"22鄰","STREET":"新生北路","SECT":" ","MAREA":" ","LANE":"８２巷","ALLEY":" ","HOUSE_NO":"１００號","E_COORD97":172393.88,"N_COORD97":2565035.5699999998,"ADDRESS":"新生北路８２巷１００號","OBJECTID":260891},"geometry":{"x":172393.87999999989,"y":2565035.5700000022}},{"attributes":{"ID":260896,"DIS_CODE":0,"TOWNNAME":"安南區","LI":"海東里","LIN":"21鄰","STREET":"海東二街","SECT":" ","MAREA":" ","LANE":" ","ALLEY":" ","HOUSE_NO":"７０號","E_COORD97":166873.451291,"N_COORD97":2547918.5213500001,"ADDRESS":"海東二街７０號","OBJECTID":260892},"geometry":{"x":166873.4512910014,"y":2547918.5213529989}},{"attributes":{"ID":260897,"DIS_CODE":0,"TOWNNAME":"歸仁區","LI":"後市里","LIN":"22鄰","STREET":"中正北路","SECT":"一段","MAREA":" ","LANE":" ","ALLEY":" ","HOUSE_NO":"５５號","E_COORD97":177672.57000000001,"N_COORD97":2540989.25,"ADDRESS":"中正北路一段５５號","OBJECTID":260893},"geometry":{"x":177672.57000000123,"y":2540989.2500000019}},{"attributes":{"ID":260898,"DIS_CODE":0,"TOWNNAME":"歸仁區","LI":"新厝里","LIN":"22鄰","STREET":"大成六街","SECT":" ","MAREA":" ","LANE":" ","ALLEY":" ","HOUSE_NO":"４５號","E_COORD97":177568.64000000001,"N_COORD97":2540261.1800000002,"ADDRESS":"大成六街４５號","OBJECTID":260894},"geometry":{"x":177568.63999999966,"y":2540261.1799999997}},{"attributes":{"ID":260899,"DIS_CODE":0,"TOWNNAME":"歸仁區","LI":"歸仁里","LIN":"22鄰","STREET":"文化二街","SECT":" ","MAREA":" ","LANE":" ","ALLEY":" ","HOUSE_NO":"１６號","E_COORD97":178007.25,"N_COORD97":2541197.2599999998,"ADDRESS":"文化二街１６號","OBJECTID":260895},"geometry":{"x":178007.25000000093,"y":2541197.2599999998}},{"attributes":{"ID":260900,"DIS_CODE":0,"TOWNNAME":"歸仁區","LI":"歸仁里","LIN":"22鄰","STREET":"文化二街","SECT":" ","MAREA":" ","LANE":" ","ALLEY":" ","HOUSE_NO":"１２號","E_COORD97":178012.25,"N_COORD97":2541188.2599999998,"ADDRESS":"文化二街１２號","OBJECTID":260896},"geometry":{"x":178012.25000000093,"y":2541188.2600000016}},{"attributes":{"ID":260901,"DIS_CODE":0,"TOWNNAME":"新營區","LI":"延平里","LIN":"1鄰","STREET":"延平路","SECT":" ","MAREA":" ","LANE":" ","ALLEY":" ","HOUSE_NO":"４６之１８３號","E_COORD97":179690.65578299999,"N_COORD97":2577769.8610299998,"ADDRESS":"延平路４６之１８３號","OBJECTID":260897},"geometry":{"x":179690.65578300133,"y":2577769.8610319998}},{"attributes":{"ID":260902,"DIS_CODE":0,"TOWNNAME":"麻豆區","LI":"中興里","LIN":"1鄰","STREET":"中華街","SECT":" ","MAREA":" ","LANE":" ","ALLEY":" ","HOUSE_NO":"３５號","E_COORD97":172946.19,"N_COORD97":2564674.3999999999,"ADDRESS":"中華街３５號","OBJECTID":260898},"geometry":{"x":172946.19000000134,"y":2564674.4000000022}},{"attributes":{"ID":260903,"DIS_CODE":0,"TOWNNAME":"歸仁區","LI":"後市里","LIN":"1鄰","STREET":"民權南路","SECT":" ","MAREA":" ","LANE":" ","ALLEY":" ","HOUSE_NO":"１５９號","E_COORD97":176976.579749,"N_COORD97":2540592.9672099999,"ADDRESS":"民權南路１５９號","OBJECTID":260899},"geometry":{"x":176976.57974899933,"y":2540592.9672100004}},{"attributes":{"ID":260904,"DIS_CODE":0,"TOWNNAME":"仁德區","LI":"仁義里","LIN":"1鄰","STREET":"中山路","SECT":" ","MAREA":" ","LANE":" ","ALLEY":" ","HOUSE_NO":"２６１號","E_COORD97":174248.46726100001,"N_COORD97":2541193.14787,"ADDRESS":"中山路２６１號","OBJECTID":260900},"geometry":{"x":174248.46726099961,"y":2541193.1478700005}},{"attributes":{"ID":260905,"DIS_CODE":0,"TOWNNAME":"關廟區","LI":"田中里","LIN":"1鄰","STREET":"田大路","SECT":" ","MAREA":" ","LANE":" ","ALLEY":" ","HOUSE_NO":"３７號","E_COORD97":184146.89000000001,"N_COORD97":2533887.2999999998,"ADDRESS":"田大路３７號","OBJECTID":260901},"geometry":{"x":184146.89000000153,"y":2533887.3000000026}},{"attributes":{"ID":260906,"DIS_CODE":0,"TOWNNAME":"歸仁區","LI":"媽廟里","LIN":"22鄰","STREET":"中正北路","SECT":"三段","MAREA":" ","LANE":" ","ALLEY":" ","HOUSE_NO":"１９２號","E_COORD97":177630.06,"N_COORD97":2543970.7200000002,"ADDRESS":"中正北路三段１９２號","OBJECTID":260902},"geometry":{"x":177630.06000000052,"y":2543970.7200000025}},{"attributes":{"ID":260907,"DIS_CODE":0,"TOWNNAME":"關廟區","LI":"田中里","LIN":"1鄰","STREET":"田大路","SECT":" ","MAREA":" ","LANE":" ","ALLEY":" ","HOUSE_NO":"３９號","E_COORD97":184150.39000000001,"N_COORD97":2533885.2999999998,"ADDRESS":"田大路３９號","OBJECTID":260903},"geometry":{"x":184150.3900000006,"y":2533885.3000000007}},{"attributes":{"ID":260908,"DIS_CODE":0,"TOWNNAME":"仁德區","LI":"仁和里","LIN":"1鄰","STREET":"二空路","SECT":" ","MAREA":" ","LANE":" ","ALLEY":" ","HOUSE_NO":"１３６號","E_COORD97":170354.23406700001,"N_COORD97":2540224.1907799998,"ADDRESS":"二空路１３６號","OBJECTID":260904},"geometry":{"x":170354.23406700138,"y":2540224.1907820031}},{"attributes":{"ID":260909,"DIS_CODE":0,"TOWNNAME":"歸仁區","LI":"歸仁里","LIN":"22鄰","STREET":"文化二街","SECT":" ","MAREA":" ","LANE":" ","ALLEY":" ","HOUSE_NO":"１８號","E_COORD97":178007.25,"N_COORD97":2541207.2599999998,"ADDRESS":"文化二街１８號","OBJECTID":260905},"geometry":{"x":178007.25000000093,"y":2541207.2599999998}},{"attributes":{"ID":260910,"DIS_CODE":0,"TOWNNAME":"歸仁區","LI":"歸仁里","LIN":"22鄰","STREET":"忠孝北路","SECT":" ","MAREA":" ","LANE":" ","ALLEY":" ","HOUSE_NO":"１９３號","E_COORD97":178103.42000000001,"N_COORD97":2541199.1099999999,"ADDRESS":"忠孝北路１９３號","OBJECTID":260906},"geometry":{"x":178103.41999999899,"y":2541199.1100000013}},{"attributes":{"ID":260911,"DIS_CODE":0,"TOWNNAME":"歸仁區","LI":"歸仁里","LIN":"22鄰","STREET":"文化二街","SECT":" ","MAREA":" ","LANE":" ","ALLEY":" ","HOUSE_NO":"１０號","E_COORD97":178012.25,"N_COORD97":2541183.2599999998,"ADDRESS":"文化二街１０號","OBJECTID":260907},"geometry":{"x":178012.25000000093,"y":2541183.2599999998}},{"attributes":{"ID":260912,"DIS_CODE":0,"TOWNNAME":"南區","LI":"文華里","LIN":"22鄰","STREET":"德南街","SECT":" ","MAREA":" ","LANE":" ","ALLEY":" ","HOUSE_NO":"６８號","E_COORD97":166737.95999999999,"N_COORD97":2543022.8500000001,"ADDRESS":"德南街６８號","OBJECTID":260908},"geometry":{"x":166737.95999999996,"y":2543022.8500000015}},{"attributes":{"ID":260913,"DIS_CODE":0,"TOWNNAME":"歸仁區","LI":"崙頂里","LIN":"22鄰","STREET":"崙頂二街","SECT":" ","MAREA":" ","LANE":"５０巷","ALLEY":" ","HOUSE_NO":"７９號","E_COORD97":177695.94,"N_COORD97":2540001.48,"ADDRESS":"崙頂二街５０巷７９號","OBJECTID":260909},"geometry":{"x":177695.94000000134,"y":2540001.4800000023}},{"attributes":{"ID":260914,"DIS_CODE":0,"TOWNNAME":"歸仁區","LI":"崙頂里","LIN":"22鄰","STREET":"崙頂二街","SECT":" ","MAREA":" ","LANE":"５０巷","ALLEY":" ","HOUSE_NO":"７５號","E_COORD97":177703.14000000001,"N_COORD97":2540006.48,"ADDRESS":"崙頂二街５０巷７５號","OBJECTID":260910},"geometry":{"x":177703.13999999966,"y":2540006.4800000004}},{"attributes":{"ID":260915,"DIS_CODE":0,"TOWNNAME":"仁德區","LI":"仁和里","LIN":"1鄰","STREET":"二空路","SECT":" ","MAREA":" ","LANE":" ","ALLEY":" ","HOUSE_NO":"１３８號","E_COORD97":170354.86986000001,"N_COORD97":2540232.1282799998,"ADDRESS":"二空路１３８號","OBJECTID":260911},"geometry":{"x":170354.86986000091,"y":2540232.1282780021}},{"attributes":{"ID":260916,"DIS_CODE":0,"TOWNNAME":"安平區","LI":"怡平里","LIN":"1鄰","STREET":"建平十七街","SECT":" ","MAREA":" ","LANE":" ","ALLEY":" ","HOUSE_NO":"１５７號七樓之１","E_COORD97":165787.04999999999,"N_COORD97":2544229.52,"ADDRESS":"建平十七街１５７號七樓之１","OBJECTID":260912},"geometry":{"x":165787.05000000168,"y":2544229.5199999996}},{"attributes":{"ID":260917,"DIS_CODE":0,"TOWNNAME":"歸仁區","LI":"新厝里","LIN":"22鄰","STREET":"大成六街","SECT":" ","MAREA":" ","LANE":" ","ALLEY":" ","HOUSE_NO":"４３號","E_COORD97":177565.54000000001,"N_COORD97":2540266.1800000002,"ADDRESS":"大成六街４３號","OBJECTID":260913},"geometry":{"x":177565.5400000019,"y":2540266.1800000034}},{"attributes":{"ID":260918,"DIS_CODE":0,"TOWNNAME":"歸仁區","LI":"新厝里","LIN":"22鄰","STREET":"大成六街","SECT":" ","MAREA":" ","LANE":" ","ALLEY":" ","HOUSE_NO":"３７號","E_COORD97":177581.04000000001,"N_COORD97":2540278.1800000002,"ADDRESS":"大成六街３７號","OBJECTID":260914},"geometry":{"x":177581.04000000097,"y":2540278.1799999997}},{"attributes":{"ID":260919,"DIS_CODE":0,"TOWNNAME":"歸仁區","LI":"辜厝里","LIN":"22鄰","STREET":"大順街","SECT":" ","MAREA":" ","LANE":" ","ALLEY":" ","HOUSE_NO":"２９號","E_COORD97":177426.57999999999,"N_COORD97":2540571.1499999999,"ADDRESS":"大順街２９號","OBJECTID":260915},"geometry":{"x":177426.58000000101,"y":2540571.1500000004}},{"attributes":{"ID":260920,"DIS_CODE":0,"TOWNNAME":"仁德區","LI":"仁愛里","LIN":"1鄰","STREET":"二空路","SECT":" ","MAREA":" ","LANE":" ","ALLEY":" ","HOUSE_NO":"２２１號","E_COORD97":170340.246617,"N_COORD97":2540223.34412,"ADDRESS":"二空路２２１號","OBJECTID":260916},"geometry":{"x":170340.24661700055,"y":2540223.3441160005}},{"attributes":{"ID":260921,"DIS_CODE":0,"TOWNNAME":"歸仁區","LI":"許厝里","LIN":"22鄰","STREET":"大仁街","SECT":" ","MAREA":" ","LANE":" ","ALLEY":" ","HOUSE_NO":"８２號","E_COORD97":178108.32000000001,"N_COORD97":2540938.1099999999,"ADDRESS":"大仁街８２號","OBJECTID":260917},"geometry":{"x":178108.32000000123,"y":2540938.1100000013}},{"attributes":{"ID":260922,"DIS_CODE":0,"TOWNNAME":"安南區","LI":"總頭里","LIN":"1鄰","STREET":"北安路","SECT":"三段","MAREA":" ","LANE":" ","ALLEY":" ","HOUSE_NO":"３０１號","E_COORD97":168825.32000000001,"N_COORD97":2549636.4399999999,"ADDRESS":"北安路三段３０１號","OBJECTID":260918},"geometry":{"x":168825.32000000123,"y":2549636.4400000013}},{"attributes":{"ID":260923,"DIS_CODE":0,"TOWNNAME":"安南區","LI":"東和里","LIN":"1鄰","STREET":"長和路","SECT":"一段","MAREA":" ","LANE":" ","ALLEY":" ","HOUSE_NO":"８６９號","E_COORD97":170790.57230100001,"N_COORD97":2551465.1148799998,"ADDRESS":"長和路一段８６９號","OBJECTID":260919},"geometry":{"x":170790.57230100036,"y":2551465.1148799993}},{"attributes":{"ID":260924,"DIS_CODE":0,"TOWNNAME":"下營區","LI":"新興里","LIN":"1鄰","STREET":"新北街","SECT":" ","MAREA":" ","LANE":" ","ALLEY":" ","HOUSE_NO":"１３１號","E_COORD97":175115.34,"N_COORD97":2571079.0299999998,"ADDRESS":"新北街１３１號","OBJECTID":260920},"geometry":{"x":175115.34000000171,"y":2571079.0300000012}},{"attributes":{"ID":260925,"DIS_CODE":0,"TOWNNAME":"關廟區","LI":"龜洞里","LIN":"1鄰","STREET":"南雄南路","SECT":" ","MAREA":" ","LANE":" ","ALLEY":" ","HOUSE_NO":"６６２號","E_COORD97":183404.89000000001,"N_COORD97":2533627.25,"ADDRESS":"南雄南路６６２號","OBJECTID":260921},"geometry":{"x":183404.8900000006,"y":2533627.25}},{"attributes":{"ID":260926,"DIS_CODE":0,"TOWNNAME":"安南區","LI":"理想里","LIN":"1鄰","STREET":"海佃路","SECT":"二段","MAREA":" ","LANE":" ","ALLEY":" ","HOUSE_NO":"３６２號之３","E_COORD97":166853.12,"N_COORD97":2548629.2799999998,"ADDRESS":"海佃路二段３６２號之３","OBJECTID":260922},"geometry":{"x":166853.12000000197,"y":2548629.2800000031}},{"attributes":{"ID":260927,"DIS_CODE":0,"TOWNNAME":"歸仁區","LI":"南保里","LIN":"22鄰","STREET":"民權六街","SECT":" ","MAREA":" ","LANE":"５２巷","ALLEY":" ","HOUSE_NO":"６號","E_COORD97":176873.89000000001,"N_COORD97":2541147.29,"ADDRESS":"民權六街５２巷６號","OBJECTID":260923},"geometry":{"x":176873.88999999966,"y":2541147.290000001}},{"attributes":{"ID":260928,"DIS_CODE":0,"TOWNNAME":"歸仁區","LI":"南保里","LIN":"22鄰","STREET":"文化街","SECT":"三段","MAREA":" ","LANE":"６１巷","ALLEY":" ","HOUSE_NO":"２３號","E_COORD97":176924.73999999999,"N_COORD97":2541157.3300000001,"ADDRESS":"文化街三段６１巷２３號","OBJECTID":260924},"geometry":{"x":176924.74000000022,"y":2541157.3300000038}},{"attributes":{"ID":260929,"DIS_CODE":0,"TOWNNAME":"歸仁區","LI":"看西里","LIN":"22鄰","STREET":"成功七街","SECT":" ","MAREA":" ","LANE":" ","ALLEY":" ","HOUSE_NO":"８０號","E_COORD97":178225.06,"N_COORD97":2539802.3599999999,"ADDRESS":"成功七街８０號","OBJECTID":260925},"geometry":{"x":178225.06000000052,"y":2539802.3599999994}},{"attributes":{"ID":260930,"DIS_CODE":0,"TOWNNAME":"歸仁區","LI":"看西里","LIN":"22鄰","STREET":"成功七街","SECT":" ","MAREA":" ","LANE":" ","ALLEY":" ","HOUSE_NO":"７３號","E_COORD97":178259.85999999999,"N_COORD97":2539797.3599999999,"ADDRESS":"成功七街７３號","OBJECTID":260926},"geometry":{"x":178259.86000000034,"y":2539797.3600000013}},{"attributes":{"ID":260931,"DIS_CODE":0,"TOWNNAME":"歸仁區","LI":"許厝里","LIN":"22鄰","STREET":"大仁街","SECT":" ","MAREA":" ","LANE":" ","ALLEY":" ","HOUSE_NO":"５８號","E_COORD97":178042.78,"N_COORD97":2540873.23,"ADDRESS":"大仁街５８號","OBJECTID":260927},"geometry":{"x":178042.78000000119,"y":2540873.2299999986}},{"attributes":{"ID":260932,"DIS_CODE":0,"TOWNNAME":"新營區","LI":"民權里","LIN":"22鄰","STREET":"三民路","SECT":" ","MAREA":" ","LANE":" ","ALLEY":" ","HOUSE_NO":"１３２號","E_COORD97":179716.17000000001,"N_COORD97":2578453.3500000001,"ADDRESS":"三民路１３２號","OBJECTID":260928},"geometry":{"x":179716.17000000086,"y":2578453.3499999996}},{"attributes":{"ID":260933,"DIS_CODE":0,"TOWNNAME":"歸仁區","LI":"看東里","LIN":"12鄰","STREET":"忠孝南路","SECT":" ","MAREA":" ","LANE":" ","ALLEY":" ","HOUSE_NO":"７１號","E_COORD97":178545.402654,"N_COORD97":2540458.9211800001,"ADDRESS":"忠孝南路７１號","OBJECTID":260929},"geometry":{"x":178545.40265399963,"y":2540458.9211769979}},{"attributes":{"ID":260934,"DIS_CODE":0,"TOWNNAME":"歸仁區","LI":"看西里","LIN":"3鄰","STREET":"仁愛南街","SECT":" ","MAREA":" ","LANE":" ","ALLEY":" ","HOUSE_NO":"１０９號","E_COORD97":178292.753654,"N_COORD97":2540374.73869,"ADDRESS":"仁愛南街１０９號","OBJECTID":260930},"geometry":{"x":178292.75365400128,"y":2540374.7386929989}},{"attributes":{"ID":260935,"DIS_CODE":0,"TOWNNAME":"新營區","LI":"民權里","LIN":"22鄰","STREET":"三民路","SECT":" ","MAREA":" ","LANE":" ","ALLEY":" ","HOUSE_NO":"１３２之３號","E_COORD97":179703.32000000001,"N_COORD97":2578451.2599999998,"ADDRESS":"三民路１３２之３號","OBJECTID":260931},"geometry":{"x":179703.32000000123,"y":2578451.2599999998}},{"attributes":{"ID":260936,"DIS_CODE":0,"TOWNNAME":"歸仁區","LI":"看西里","LIN":"3鄰","STREET":"仁愛南街","SECT":" ","MAREA":" ","LANE":" ","ALLEY":" ","HOUSE_NO":"１１１號","E_COORD97":178292.96552100001,"N_COORD97":2540369.6587,"ADDRESS":"仁愛南街１１１號","OBJECTID":260932},"geometry":{"x":178292.96552099939,"y":2540369.6586959995}},{"attributes":{"ID":260937,"DIS_CODE":0,"TOWNNAME":"新營區","LI":"民權里","LIN":"22鄰","STREET":"三民路","SECT":" ","MAREA":" ","LANE":" ","ALLEY":" ","HOUSE_NO":"１３２號之１","E_COORD97":179713.19,"N_COORD97":2578452.3199999998,"ADDRESS":"三民路１３２號之１","OBJECTID":260933},"geometry":{"x":179713.19000000134,"y":2578452.3200000022}},{"attributes":{"ID":260938,"DIS_CODE":0,"TOWNNAME":"歸仁區","LI":"看東里","LIN":"6鄰","STREET":"成功三街","SECT":" ","MAREA":" ","LANE":" ","ALLEY":" ","HOUSE_NO":"１１號","E_COORD97":178455.761073,"N_COORD97":2540074.95805,"ADDRESS":"成功三街１１號","OBJECTID":260934},"geometry":{"x":178455.76107300073,"y":2540074.9580510035}},{"attributes":{"ID":260939,"DIS_CODE":0,"TOWNNAME":"新營區","LI":"民權里","LIN":"22鄰","STREET":"仁愛街","SECT":" ","MAREA":" ","LANE":" ","ALLEY":" ","HOUSE_NO":"１０５號","E_COORD97":179750.09,"N_COORD97":2578488.6299999999,"ADDRESS":"仁愛街１０５號","OBJECTID":260935},"geometry":{"x":179750.09000000171,"y":2578488.6299999971}},{"attributes":{"ID":260940,"DIS_CODE":0,"TOWNNAME":"新營區","LI":"民權里","LIN":"22鄰","STREET":"仁愛街","SECT":" ","MAREA":" ","LANE":" ","ALLEY":" ","HOUSE_NO":"１０９號","E_COORD97":179749.10000000001,"N_COORD97":2578496.3799999999,"ADDRESS":"仁愛街１０９號","OBJECTID":260936},"geometry":{"x":179749.09999999963,"y":2578496.379999999}},{"attributes":{"ID":260941,"DIS_CODE":0,"TOWNNAME":"關廟區","LI":"布袋里","LIN":"2鄰","STREET":"長裕街","SECT":" ","MAREA":" ","LANE":" ","ALLEY":" ","HOUSE_NO":"１０６號","E_COORD97":182439.34,"N_COORD97":2535931.2999999998,"ADDRESS":"長裕街１０６號","OBJECTID":260937},"geometry":{"x":182439.34000000078,"y":2535931.3000000026}},{"attributes":{"ID":260942,"DIS_CODE":0,"TOWNNAME":"歸仁區","LI":"媽廟里","LIN":"6鄰","STREET":"中正北路","SECT":"三段","MAREA":" ","LANE":" ","ALLEY":" ","HOUSE_NO":"１９９號","E_COORD97":177591.45999999999,"N_COORD97":2543845.7200000002,"ADDRESS":"中正北路三段１９９號","OBJECTID":260938},"geometry":{"x":177591.46000000089,"y":2543845.7200000007}},{"attributes":{"ID":260943,"DIS_CODE":0,"TOWNNAME":"關廟區","LI":"田中里","LIN":"6鄰","STREET":"中大街","SECT":" ","MAREA":" ","LANE":" ","ALLEY":" ","HOUSE_NO":"１４９號","E_COORD97":183905.73999999999,"N_COORD97":2533016.25,"ADDRESS":"中大街１４９號","OBJECTID":260939},"geometry":{"x":183905.74000000022,"y":2533016.25}},{"attributes":{"ID":260944,"DIS_CODE":0,"TOWNNAME":"歸仁區","LI":"看東里","LIN":"6鄰","STREET":"成功一街","SECT":" ","MAREA":" ","LANE":" ","ALLEY":" ","HOUSE_NO":"９８號","E_COORD97":178525.72482999999,"N_COORD97":2540025.57938,"ADDRESS":"成功一街９８號","OBJECTID":260940},"geometry":{"x":178525.72482999973,"y":2540025.5793800019}},{"attributes":{"ID":260945,"DIS_CODE":0,"TOWNNAME":"新營區","LI":"民權里","LIN":"22鄰","STREET":"仁愛街","SECT":" ","MAREA":" ","LANE":" ","ALLEY":" ","HOUSE_NO":"１０７號","E_COORD97":179750.10999999999,"N_COORD97":2578491.9500000002,"ADDRESS":"仁愛街１０７號","OBJECTID":260941},"geometry":{"x":179750.11000000034,"y":2578491.9500000011}},{"attributes":{"ID":260946,"DIS_CODE":0,"TOWNNAME":"新營區","LI":"王公里","LIN":"22鄰","STREET":"大仁街","SECT":" ","MAREA":" ","LANE":" ","ALLEY":" ","HOUSE_NO":"７０之３號","E_COORD97":180436.73999999999,"N_COORD97":2579371.4100000001,"ADDRESS":"大仁街７０之３號","OBJECTID":260942},"geometry":{"x":180436.74000000115,"y":2579371.4100000001}},{"attributes":{"ID":260947,"DIS_CODE":0,"TOWNNAME":"新營區","LI":"三仙里","LIN":"22鄰","STREET":"育德街","SECT":" ","MAREA":" ","LANE":" ","ALLEY":" ","HOUSE_NO":"１０號","E_COORD97":179617.76000000001,"N_COORD97":2578886.8300000001,"ADDRESS":"育德街１０號","OBJECTID":260943},"geometry":{"x":179617.75999999978,"y":2578886.8300000019}},{"attributes":{"ID":260948,"DIS_CODE":0,"TOWNNAME":"新營區","LI":"三仙里","LIN":"22鄰","STREET":"育德街","SECT":" ","MAREA":" ","LANE":" ","ALLEY":" ","HOUSE_NO":"３６之１號","E_COORD97":179616.67999999999,"N_COORD97":2578974.3900000001,"ADDRESS":"育德街３６之１號","OBJECTID":260944},"geometry":{"x":179616.6799999997,"y":2578974.3900000025}},{"attributes":{"ID":260949,"DIS_CODE":0,"TOWNNAME":"關廟區","LI":"龜洞里","LIN":"6鄰","STREET":"南橋街","SECT":" ","MAREA":" ","LANE":" ","ALLEY":" ","HOUSE_NO":"１３號","E_COORD97":182265.54000000001,"N_COORD97":2532666.2999999998,"ADDRESS":"南橋街１３號","OBJECTID":260945},"geometry":{"x":182265.54000000004,"y":2532666.3000000026}},{"attributes":{"ID":260950,"DIS_CODE":0,"TOWNNAME":"關廟區","LI":"新光里","LIN":"6鄰","STREET":"北寮街","SECT":" ","MAREA":" ","LANE":" ","ALLEY":" ","HOUSE_NO":"７５號","E_COORD97":184184.76999999999,"N_COORD97":2541862.2999999998,"ADDRESS":"北寮街７５號","OBJECTID":260946},"geometry":{"x":184184.77000000142,"y":2541862.3000000007}},{"attributes":{"ID":260951,"DIS_CODE":0,"TOWNNAME":"關廟區","LI":"龜洞里","LIN":"6鄰","STREET":"南橋街","SECT":" ","MAREA":" ","LANE":" ","ALLEY":" ","HOUSE_NO":"１５號","E_COORD97":182259.73999999999,"N_COORD97":2532664.2999999998,"ADDRESS":"南橋街１５號","OBJECTID":260947},"geometry":{"x":182259.74000000022,"y":2532664.3000000007}},{"attributes":{"ID":260952,"DIS_CODE":0,"TOWNNAME":"關廟區","LI":"龜洞里","LIN":"6鄰","STREET":"南雄南路","SECT":" ","MAREA":" ","LANE":" ","ALLEY":" ","HOUSE_NO":"９３８號","E_COORD97":182305.04000000001,"N_COORD97":2532662.2999999998,"ADDRESS":"南雄南路９３８號","OBJECTID":260948},"geometry":{"x":182305.04000000004,"y":2532662.3000000026}},{"attributes":{"ID":260953,"DIS_CODE":0,"TOWNNAME":"安南區","LI":"淵中里","LIN":"6鄰","STREET":"本田路","SECT":"三段","MAREA":" ","LANE":" ","ALLEY":" ","HOUSE_NO":"４２３號","E_COORD97":164664.14152899999,"N_COORD97":2549713.4091699999,"ADDRESS":"本田路三段４２３號","OBJECTID":260949},"geometry":{"x":164664.14152900223,"y":2549713.4091650024}},{"attributes":{"ID":260954,"DIS_CODE":0,"TOWNNAME":"安南區","LI":"淵中里","LIN":"6鄰","STREET":"本田街","SECT":"三段","MAREA":" ","LANE":" ","ALLEY":" ","HOUSE_NO":"３９７之３２號","E_COORD97":164582.56302199999,"N_COORD97":2549714.04416,"ADDRESS":"本田街三段３９７之３２號","OBJECTID":260950},"geometry":{"x":164582.56302199978,"y":2549714.0441650022}},{"attributes":{"ID":260955,"DIS_CODE":0,"TOWNNAME":"安南區","LI":"淵中里","LIN":"6鄰","STREET":"本田路","SECT":"三段","MAREA":" ","LANE":" ","ALLEY":" ","HOUSE_NO":"２２１號","E_COORD97":164156.50072800001,"N_COORD97":2549333.8513500001,"ADDRESS":"本田路三段２２１號","OBJECTID":260951},"geometry":{"x":164156.50072799996,"y":2549333.8513490018}},{"attributes":{"ID":260956,"DIS_CODE":0,"TOWNNAME":"安南區","LI":"淵中里","LIN":"6鄰","STREET":"本田路","SECT":"三段","MAREA":" ","LANE":" ","ALLEY":" ","HOUSE_NO":"５４９號","E_COORD97":164712.74118899999,"N_COORD97":2549715.87653,"ADDRESS":"本田路三段５４９號","OBJECTID":260952},"geometry":{"x":164712.7411890002,"y":2549715.8765300009}},{"attributes":{"ID":260957,"DIS_CODE":0,"TOWNNAME":"中西區","LI":"公正里","LIN":"18鄰","STREET":"中山路","SECT":" ","MAREA":" ","LANE":" ","ALLEY":" ","HOUSE_NO":"８８號底一層","E_COORD97":168808.85000000001,"N_COORD97":2543856.7200000002,"ADDRESS":"中山路８８號底一層","OBJECTID":260953},"geometry":{"x":168808.8499999987,"y":2543856.7200000007}},{"attributes":{"ID":260958,"DIS_CODE":0,"TOWNNAME":"中西區","LI":"公正里","LIN":"18鄰","STREET":"中山路","SECT":" ","MAREA":" ","LANE":" ","ALLEY":" ","HOUSE_NO":"９０號","E_COORD97":168819.82999999999,"N_COORD97":2543877.0800000001,"ADDRESS":"中山路９０號","OBJECTID":260954},"geometry":{"x":168819.83000000194,"y":2543877.0800000001}},{"attributes":{"ID":260959,"DIS_CODE":0,"TOWNNAME":"安南區","LI":"淵中里","LIN":"6鄰","STREET":"本田路","SECT":"三段","MAREA":" ","LANE":" ","ALLEY":" ","HOUSE_NO":"６６７號","E_COORD97":164957.47670999999,"N_COORD97":2549892.3006000002,"ADDRESS":"本田路三段６６７號","OBJECTID":260955},"geometry":{"x":164957.47671000008,"y":2549892.3006020021}},{"attributes":{"ID":260960,"DIS_CODE":0,"TOWNNAME":"安南區","LI":"淵中里","LIN":"6鄰","STREET":"本田路","SECT":"三段","MAREA":" ","LANE":" ","ALLEY":" ","HOUSE_NO":"６５１號","E_COORD97":164948.153452,"N_COORD97":2549890.60727,"ADDRESS":"本田路三段６５１號","OBJECTID":260956},"geometry":{"x":164948.15345199965,"y":2549890.607269004}},{"attributes":{"ID":260961,"DIS_CODE":0,"TOWNNAME":"安南區","LI":"淵中里","LIN":"6鄰","STREET":"本田路","SECT":"三段","MAREA":" ","LANE":" ","ALLEY":" ","HOUSE_NO":"６７７號","E_COORD97":164962.77401600001,"N_COORD97":2549906.48226,"ADDRESS":"本田路三段６７７號","OBJECTID":260957},"geometry":{"x":164962.77401600033,"y":2549906.4822610002}},{"attributes":{"ID":260962,"DIS_CODE":0,"TOWNNAME":"安南區","LI":"淵中里","LIN":"6鄰","STREET":"本田路","SECT":"三段","MAREA":" ","LANE":" ","ALLEY":" ","HOUSE_NO":"６９１號","E_COORD97":164973.38836499999,"N_COORD97":2549928.8278700002,"ADDRESS":"本田路三段６９１號","OBJECTID":260958},"geometry":{"x":164973.38836499862,"y":2549928.8278700002}},{"attributes":{"ID":260963,"DIS_CODE":0,"TOWNNAME":"安南區","LI":"淵中里","LIN":"6鄰","STREET":"本田路","SECT":"三段","MAREA":" ","LANE":" ","ALLEY":" ","HOUSE_NO":"６９５號","E_COORD97":164979.957024,"N_COORD97":2549952.1111900001,"ADDRESS":"本田路三段６９５號","OBJECTID":260959},"geometry":{"x":164979.95702399965,"y":2549952.1111900005}},{"attributes":{"ID":260964,"DIS_CODE":0,"TOWNNAME":"安南區","LI":"淵中里","LIN":"6鄰","STREET":"本田路","SECT":"三段","MAREA":" ","LANE":" ","ALLEY":" ","HOUSE_NO":"７０５號","E_COORD97":165013.43599599999,"N_COORD97":2549958.2495200001,"ADDRESS":"本田路三段７０５號","OBJECTID":260960},"geometry":{"x":165013.43599599972,"y":2549958.2495200019}},{"attributes":{"ID":260965,"DIS_CODE":0,"TOWNNAME":"安南區","LI":"淵中里","LIN":"6鄰","STREET":"本田路","SECT":"三段","MAREA":" ","LANE":" ","ALLEY":" ","HOUSE_NO":"３６３號","E_COORD97":164531.16928900001,"N_COORD97":2549580.3090300001,"ADDRESS":"本田路三段３６３號","OBJECTID":260961},"geometry":{"x":164531.16928900126,"y":2549580.309032999}},{"attributes":{"ID":260966,"DIS_CODE":0,"TOWNNAME":"白河區","LI":"永安里","LIN":"6鄰","STREET":"五福街","SECT":" ","MAREA":" ","LANE":" ","ALLEY":" ","HOUSE_NO":"６３號","E_COORD97":189885.82753899999,"N_COORD97":2583045.2042,"ADDRESS":"五福街６３號","OBJECTID":260962},"geometry":{"x":189885.82753899973,"y":2583045.2041950021}},{"attributes":{"ID":260967,"DIS_CODE":0,"TOWNNAME":"白河區","LI":"永安里","LIN":"6鄰","STREET":"國泰路","SECT":" ","MAREA":" ","LANE":" ","ALLEY":" ","HOUSE_NO":"１７３號","E_COORD97":189925.181686,"N_COORD97":2583090.28902,"ADDRESS":"國泰路１７３號","OBJECTID":260963},"geometry":{"x":189925.1816860009,"y":2583090.28902}},{"attributes":{"ID":260968,"DIS_CODE":0,"TOWNNAME":"安南區","LI":"\u25A0田里","LIN":"3鄰","STREET":"\u25A0田五街","SECT":" ","MAREA":" ","LANE":" ","ALLEY":" ","HOUSE_NO":"５２號","E_COORD97":162555.79000000001,"N_COORD97":2548256.9900000002,"ADDRESS":"\u25A0田五街５２號","OBJECTID":260964},"geometry":{"x":162555.79000000004,"y":2548256.9900000021}},{"attributes":{"ID":260969,"DIS_CODE":0,"TOWNNAME":"安南區","LI":"\u25A0田里","LIN":"3鄰","STREET":"\u25A0田五街","SECT":" ","MAREA":" ","LANE":" ","ALLEY":" ","HOUSE_NO":"７６號","E_COORD97":162507.06,"N_COORD97":2548227.9399999999,"ADDRESS":"\u25A0田五街７６號","OBJECTID":260965},"geometry":{"x":162507.06000000052,"y":2548227.9399999976}},{"attributes":{"ID":260970,"DIS_CODE":0,"TOWNNAME":"安南區","LI":"\u25A0田里","LIN":"3鄰","STREET":"\u25A0田五街","SECT":" ","MAREA":" ","LANE":" ","ALLEY":" ","HOUSE_NO":"８０號","E_COORD97":162495.94,"N_COORD97":2548221.75,"ADDRESS":"\u25A0田五街８０號","OBJECTID":260966},"geometry":{"x":162495.94000000041,"y":2548221.75}},{"attributes":{"ID":260971,"DIS_CODE":0,"TOWNNAME":"安南區","LI":"\u25A0田里","LIN":"3鄰","STREET":"\u25A0田五街","SECT":" ","MAREA":" ","LANE":" ","ALLEY":" ","HOUSE_NO":"７８號","E_COORD97":162501.5,"N_COORD97":2548224.7599999998,"ADDRESS":"\u25A0田五街７８號","OBJECTID":260967},"geometry":{"x":162501.5,"y":2548224.7599999998}},{"attributes":{"ID":260972,"DIS_CODE":0,"TOWNNAME":"安南區","LI":"\u25A0田里","LIN":"3鄰","STREET":"\u25A0田五街","SECT":" ","MAREA":" ","LANE":" ","ALLEY":" ","HOUSE_NO":"８２號","E_COORD97":162491.17999999999,"N_COORD97":2548219.3700000001,"ADDRESS":"\u25A0田五街８２號","OBJECTID":260968},"geometry":{"x":162491.18000000063,"y":2548219.370000001}},{"attributes":{"ID":260973,"DIS_CODE":0,"TOWNNAME":"安南區","LI":"\u25A0田里","LIN":"3鄰","STREET":"\u25A0田五街","SECT":" ","MAREA":" ","LANE":" ","ALLEY":" ","HOUSE_NO":"８８號","E_COORD97":162479.75,"N_COORD97":2548213.8100000001,"ADDRESS":"\u25A0田五街８８號","OBJECTID":260969},"geometry":{"x":162479.75,"y":2548213.8100000024}},{"attributes":{"ID":260974,"DIS_CODE":0,"TOWNNAME":"安南區","LI":"\u25A0田里","LIN":"3鄰","STREET":"\u25A0田五街","SECT":" ","MAREA":" ","LANE":" ","ALLEY":" ","HOUSE_NO":"８６號","E_COORD97":162486.10000000001,"N_COORD97":2548216.9900000002,"ADDRESS":"\u25A0田五街８６號","OBJECTID":260970},"geometry":{"x":162486.10000000056,"y":2548216.9900000002}},{"attributes":{"ID":260975,"DIS_CODE":0,"TOWNNAME":"安南區","LI":"\u25A0田里","LIN":"3鄰","STREET":"\u25A0田五街","SECT":" ","MAREA":" ","LANE":" ","ALLEY":" ","HOUSE_NO":"９０號","E_COORD97":162473.56,"N_COORD97":2548210.48,"ADDRESS":"\u25A0田五街９０號","OBJECTID":260971},"geometry":{"x":162473.55999999959,"y":2548210.4800000004}},{"attributes":{"ID":260976,"DIS_CODE":0,"TOWNNAME":"安南區","LI":"\u25A0田里","LIN":"3鄰","STREET":"\u25A0田五街","SECT":" ","MAREA":" ","LANE":" ","ALLEY":" ","HOUSE_NO":"９６號","E_COORD97":162462.92000000001,"N_COORD97":2548206.0299999998,"ADDRESS":"\u25A0田五街９６號","OBJECTID":260972},"geometry":{"x":162462.91999999993,"y":2548206.0299999993}},{"attributes":{"ID":260977,"DIS_CODE":0,"TOWNNAME":"關廟區","LI":"東勢里","LIN":"22鄰","STREET":"東昌街","SECT":" ","MAREA":" ","LANE":" ","ALLEY":" ","HOUSE_NO":"８８號","E_COORD97":181909.22,"N_COORD97":2539203.25,"ADDRESS":"東昌街８８號","OBJECTID":260973},"geometry":{"x":181909.22000000067,"y":2539203.25}},{"attributes":{"ID":260978,"DIS_CODE":0,"TOWNNAME":"安南區","LI":"\u25A0田里","LIN":"3鄰","STREET":"\u25A0田五街","SECT":" ","MAREA":" ","LANE":" ","ALLEY":" ","HOUSE_NO":"９２號","E_COORD97":162467.53,"N_COORD97":2548208.4100000001,"ADDRESS":"\u25A0田五街９２號","OBJECTID":260974},"geometry":{"x":162467.53000000119,"y":2548208.4100000001}},{"attributes":{"ID":260979,"DIS_CODE":0,"TOWNNAME":"安南區","LI":"\u25A0田里","LIN":"3鄰","STREET":"\u25A0田五街","SECT":" ","MAREA":" ","LANE":" ","ALLEY":" ","HOUSE_NO":"９８號","E_COORD97":162457.20999999999,"N_COORD97":2548203.3300000001,"ADDRESS":"\u25A0田五街９８號","OBJECTID":260975},"geometry":{"x":162457.21000000089,"y":2548203.3300000019}},{"attributes":{"ID":260980,"DIS_CODE":0,"TOWNNAME":"安南區","LI":"\u25A0田里","LIN":"3鄰","STREET":"\u25A0田六街","SECT":" ","MAREA":" ","LANE":" ","ALLEY":" ","HOUSE_NO":"３２號","E_COORD97":162583.89000000001,"N_COORD97":2548225.0800000001,"ADDRESS":"\u25A0田六街３２號","OBJECTID":260976},"geometry":{"x":162583.88999999873,"y":2548225.0800000019}},{"attributes":{"ID":260981,"DIS_CODE":0,"TOWNNAME":"安南區","LI":"\u25A0田里","LIN":"3鄰","STREET":"\u25A0田六街","SECT":" ","MAREA":" ","LANE":" ","ALLEY":" ","HOUSE_NO":"３６號","E_COORD97":162573.10000000001,"N_COORD97":2548237.46,"ADDRESS":"\u25A0田六街３６號","OBJECTID":260977},"geometry":{"x":162573.10000000056,"y":2548237.4600000028}},{"attributes":{"ID":260982,"DIS_CODE":0,"TOWNNAME":"安南區","LI":"\u25A0田里","LIN":"3鄰","STREET":"\u25A0田六街","SECT":" ","MAREA":" ","LANE":" ","ALLEY":" ","HOUSE_NO":"３８號","E_COORD97":162556.89999999999,"N_COORD97":2548227.7799999998,"ADDRESS":"\u25A0田六街３８號","OBJECTID":260978},"geometry":{"x":162556.90000000037,"y":2548227.7799999993}},{"attributes":{"ID":260983,"DIS_CODE":0,"TOWNNAME":"安南區","LI":"溪墘里","LIN":"28鄰","STREET":"海佃路","SECT":"一段","MAREA":" ","LANE":" ","ALLEY":" ","HOUSE_NO":"１２號","E_COORD97":167238.344916,"N_COORD97":2546781.6213600002,"ADDRESS":"海佃路一段１２號","OBJECTID":260979},"geometry":{"x":167238.34491600096,"y":2546781.6213550027}},{"attributes":{"ID":260984,"DIS_CODE":0,"TOWNNAME":"安南區","LI":"海東里","LIN":"21鄰","STREET":"海東三街","SECT":" ","MAREA":" ","LANE":" ","ALLEY":" ","HOUSE_NO":"５７號","E_COORD97":166861.64860399999,"N_COORD97":2547948.7393899998,"ADDRESS":"海東三街５７號","OBJECTID":260980},"geometry":{"x":166861.64860400092,"y":2547948.7393850014}},{"attributes":{"ID":260985,"DIS_CODE":0,"TOWNNAME":"安南區","LI":"海東里","LIN":"21鄰","STREET":"海東三街","SECT":" ","MAREA":" ","LANE":" ","ALLEY":" ","HOUSE_NO":"５３號","E_COORD97":166870.75459699999,"N_COORD97":2547950.0093800002,"ADDRESS":"海東三街５３號","OBJECTID":260981},"geometry":{"x":166870.75459700171,"y":2547950.0093840007}},{"attributes":{"ID":260986,"DIS_CODE":0,"TOWNNAME":"安南區","LI":"海東里","LIN":"21鄰","STREET":"海東三街","SECT":" ","MAREA":" ","LANE":" ","ALLEY":" ","HOUSE_NO":"５１號","E_COORD97":166875.20170999999,"N_COORD97":2547950.0093800002,"ADDRESS":"海東三街５１號","OBJECTID":260982},"geometry":{"x":166875.20170999877,"y":2547950.0093840007}},{"attributes":{"ID":260987,"DIS_CODE":0,"TOWNNAME":"安南區","LI":"新順里","LIN":"10鄰","STREET":"安和路","SECT":"二段","MAREA":" ","LANE":" ","ALLEY":" ","HOUSE_NO":"３０６之２號","E_COORD97":169744.15704799999,"N_COORD97":2549270.1852299999,"ADDRESS":"安和路二段３０６之２號","OBJECTID":260983},"geometry":{"x":169744.15704800095,"y":2549270.1852280013}},{"attributes":{"ID":260988,"DIS_CODE":0,"TOWNNAME":"仁德區","LI":"太子里","LIN":"23鄰","STREET":"中正路","SECT":"三段","MAREA":" ","LANE":" ","ALLEY":" ","HOUSE_NO":"７１３之２號","E_COORD97":173726.35775600001,"N_COORD97":2543667.1976999999,"ADDRESS":"中正路三段７１３之２號","OBJECTID":260984},"geometry":{"x":173726.35775600001,"y":2543667.1976970024}},{"attributes":{"ID":260989,"DIS_CODE":0,"TOWNNAME":"北區","LI":"大道里","LIN":"22鄰","STREET":"旭日街","SECT":" ","MAREA":" ","LANE":" ","ALLEY":" ","HOUSE_NO":"８８號","E_COORD97":169410.32999999999,"N_COORD97":2545650.04,"ADDRESS":"旭日街８８號","OBJECTID":260985},"geometry":{"x":169410.33000000101,"y":2545650.0399999991}},{"attributes":{"ID":260990,"DIS_CODE":0,"TOWNNAME":"仁德區","LI":"太子里","LIN":"23鄰","STREET":"長興四街","SECT":" ","MAREA":" ","LANE":" ","ALLEY":" ","HOUSE_NO":"９８號","E_COORD97":173800.266183,"N_COORD97":2543554.0619299999,"ADDRESS":"長興四街９８號","OBJECTID":260986},"geometry":{"x":173800.26618300099,"y":2543554.0619249996}},{"attributes":{"ID":260991,"DIS_CODE":0,"TOWNNAME":"安南區","LI":"海東里","LIN":"21鄰","STREET":"海東二街","SECT":" ","MAREA":" ","LANE":" ","ALLEY":" ","HOUSE_NO":"５２號","E_COORD97":166904.798495,"N_COORD97":2547920.84968,"ADDRESS":"海東二街５２號","OBJECTID":260987},"geometry":{"x":166904.79849500116,"y":2547920.8496850021}},{"attributes":{"ID":260992,"DIS_CODE":0,"TOWNNAME":"安南區","LI":"海東里","LIN":"21鄰","STREET":"海東二街","SECT":" ","MAREA":" ","LANE":" ","ALLEY":" ","HOUSE_NO":"５０號","E_COORD97":166909.24640900001,"N_COORD97":2547921.2730200002,"ADDRESS":"海東二街５０號","OBJECTID":260988},"geometry":{"x":166909.24640899897,"y":2547921.2730180006}},{"attributes":{"ID":260993,"DIS_CODE":0,"TOWNNAME":"安南區","LI":"海東里","LIN":"21鄰","STREET":"海東三街","SECT":" ","MAREA":" ","LANE":" ","ALLEY":" ","HOUSE_NO":"２９號","E_COORD97":166926.09085899999,"N_COORD97":2547951.5590499998,"ADDRESS":"海東三街２９號","OBJECTID":260989},"geometry":{"x":166926.09085899964,"y":2547951.5590530019}},{"attributes":{"ID":260994,"DIS_CODE":0,"TOWNNAME":"安南區","LI":"海東里","LIN":"21鄰","STREET":"海東三街","SECT":" ","MAREA":" ","LANE":" ","ALLEY":" ","HOUSE_NO":"２７號","E_COORD97":166929.90267000001,"N_COORD97":2547951.5590499998,"ADDRESS":"海東三街２７號","OBJECTID":260990},"geometry":{"x":166929.90266999975,"y":2547951.5590530019}},{"attributes":{"ID":260995,"DIS_CODE":0,"TOWNNAME":"安平區","LI":"文平里","LIN":"23鄰","STREET":"建平一街","SECT":" ","MAREA":" ","LANE":" ","ALLEY":" ","HOUSE_NO":"５２之１號","E_COORD97":165944.85251600001,"N_COORD97":2542753.148,"ADDRESS":"建平一街５２之１號","OBJECTID":260991},"geometry":{"x":165944.85251600016,"y":2542753.1480050012}},{"attributes":{"ID":260996,"DIS_CODE":0,"TOWNNAME":"歸仁區","LI":"崙頂里","LIN":"30鄰","STREET":"成功路","SECT":"二段","MAREA":" ","LANE":" ","ALLEY":" ","HOUSE_NO":"２６９之１號","E_COORD97":177742.91617300001,"N_COORD97":2539577.4178999998,"ADDRESS":"成功路二段２６９之１號","OBJECTID":260992},"geometry":{"x":177742.91617300082,"y":2539577.4179030005}},{"attributes":{"ID":260997,"DIS_CODE":0,"TOWNNAME":"歸仁區","LI":"崙頂里","LIN":"30鄰","STREET":"成功路","SECT":"二段","MAREA":" ","LANE":" ","ALLEY":" ","HOUSE_NO":"２６９之２號","E_COORD97":177728.929046,"N_COORD97":2539570.5387400002,"ADDRESS":"成功路二段２６９之２號","OBJECTID":260993},"geometry":{"x":177728.92904600129,"y":2539570.5387400016}},{"attributes":{"ID":260998,"DIS_CODE":0,"TOWNNAME":"南區","LI":"府南里","LIN":"12鄰","STREET":"永成路","SECT":"三段","MAREA":" ","LANE":" ","ALLEY":" ","HOUSE_NO":"４０６號","E_COORD97":167510.96622199999,"N_COORD97":2541044.0470799999,"ADDRESS":"永成路三段４０６號","OBJECTID":260994},"geometry":{"x":167510.96622200124,"y":2541044.0470790025}},{"attributes":{"ID":260999,"DIS_CODE":0,"TOWNNAME":"安平區","LI":"文平里","LIN":"19鄰","STREET":"健康一街","SECT":" ","MAREA":" ","LANE":" ","ALLEY":" ","HOUSE_NO":"５５號","E_COORD97":165925.504273,"N_COORD97":2542783.4514899999,"ADDRESS":"健康一街５５號","OBJECTID":260995},"geometry":{"x":165925.50427299924,"y":2542783.4514899999}},{"attributes":{"ID":261000,"DIS_CODE":0,"TOWNNAME":"南區","LI":"府南里","LIN":"12鄰","STREET":"永成路","SECT":"三段","MAREA":" ","LANE":" ","ALLEY":" ","HOUSE_NO":"４００號","E_COORD97":167510.86031799999,"N_COORD97":2541033.8870799998,"ADDRESS":"永成路三段４００號","OBJECTID":260996},"geometry":{"x":167510.86031800043,"y":2541033.8870839998}},{"attributes":{"ID":261001,"DIS_CODE":0,"TOWNNAME":"安南區","LI":"淵中里","LIN":"16鄰","STREET":"本田路","SECT":"三段","MAREA":" ","LANE":" ","ALLEY":" ","HOUSE_NO":"２６０號","E_COORD97":164453.98754500001,"N_COORD97":2549466.68041,"ADDRESS":"本田路三段２６０號","OBJECTID":260997},"geometry":{"x":164453.98754500132,"y":2549466.6804109998}},{"attributes":{"ID":261002,"DIS_CODE":0,"TOWNNAME":"南區","LI":"建南里","LIN":"19鄰","STREET":"明興路","SECT":" ","MAREA":" ","LANE":" ","ALLEY":" ","HOUSE_NO":"２７３號","E_COORD97":166564.093892,"N_COORD97":2539646.2634700001,"ADDRESS":"明興路２７３號","OBJECTID":260998},"geometry":{"x":166564.09389199968,"y":2539646.2634699997}},{"attributes":{"ID":261003,"DIS_CODE":0,"TOWNNAME":"歸仁區","LI":"南保里","LIN":"19鄰","STREET":"文化街","SECT":"三段","MAREA":" ","LANE":" ","ALLEY":" ","HOUSE_NO":"１３號","E_COORD97":176984.89516799999,"N_COORD97":2541226.5381900002,"ADDRESS":"文化街三段１３號","OBJECTID":260999},"geometry":{"x":176984.8951679999,"y":2541226.5381930042}},{"attributes":{"ID":261004,"DIS_CODE":0,"TOWNNAME":"歸仁區","LI":"南保里","LIN":"19鄰","STREET":"文化街","SECT":"三段","MAREA":" ","LANE":" ","ALLEY":" ","HOUSE_NO":"１１號","E_COORD97":176989.76811899999,"N_COORD97":2541225.2681900002,"ADDRESS":"文化街三段１１號","OBJECTID":261000},"geometry":{"x":176989.7681189999,"y":2541225.2681939993}}]}