{"displayFieldName":"TOWNNAME","fieldAliases":{"ID":"ID","DIS_CODE":"DIS_CODE","TOWNNAME":"TOWNNAME","LI":"LI","LIN":"LIN","STREET":"STREET","SECT":"SECT","MAREA":"MAREA","LANE":"LANE","ALLEY":"ALLEY","HOUSE_NO":"HOUSE_NO","E_COORD97":"E_COORD97","N_COORD97":"N_COORD97","ADDRESS":"ADDRESS","OBJECTID":"OBJECTID"},"geometryType":"esriGeometryPoint","spatialReference":{"wkid":102443,"latestWkid":3826},"fields":[{"name":"ID","type":"esriFieldTypeDouble","alias":"ID"},{"name":"DIS_CODE","type":"esriFieldTypeInteger","alias":"DIS_CODE"},{"name":"TOWNNAME","type":"esriFieldTypeString","alias":"TOWNNAME","length":8},{"name":"LI","type":"esriFieldTypeString","alias":"LI","length":8},{"name":"LIN","type":"esriFieldTypeString","alias":"LIN","length":12},{"name":"STREET","type":"esriFieldTypeString","alias":"STREET","length":20},{"name":"SECT","type":"esriFieldTypeString","alias":"SECT","length":8},{"name":"MAREA","type":"esriFieldTypeString","alias":"MAREA","length":12},{"name":"LANE","type":"esriFieldTypeString","alias":"LANE","length":10},{"name":"ALLEY","type":"esriFieldTypeString","alias":"ALLEY","length":10},{"name":"HOUSE_NO","type":"esriFieldTypeString","alias":"HOUSE_NO","length":20},{"name":"E_COORD97","type":"esriFieldTypeDouble","alias":"E_COORD97"},{"name":"N_COORD97","type":"esriFieldTypeDouble","alias":"N_COORD97"},{"name":"ADDRESS","type":"esriFieldTypeString","alias":"ADDRESS","length":50},{"name":"OBJECTID","type":"esriFieldTypeOID","alias":"OBJECTID"}],"features":[{"attributes":{"ID":60801,"DIS_CODE":0,"TOWNNAME":"關廟區","LI":"埤頭里","LIN":"1鄰","STREET":"關新路","SECT":"一段","MAREA":" ","LANE":" ","ALLEY":" ","HOUSE_NO":"６５７號","E_COORD97":179091.01999999999,"N_COORD97":2543528.2999999998,"ADDRESS":"關新路一段６５７號","OBJECTID":60801},"geometry":{"x":179091.02000000048,"y":2543528.3000000026}},{"attributes":{"ID":60802,"DIS_CODE":0,"TOWNNAME":"仁德區","LI":"後壁里","LIN":"35鄰","STREET":"德洋路","SECT":" ","MAREA":" ","LANE":"２０５巷","ALLEY":"１７弄","HOUSE_NO":"２號","E_COORD97":172434.34,"N_COORD97":2539494.27,"ADDRESS":"德洋路２０５巷１７弄２號","OBJECTID":60802},"geometry":{"x":172434.34000000078,"y":2539494.2699999996}},{"attributes":{"ID":60803,"DIS_CODE":0,"TOWNNAME":"下營區","LI":"仁里里","LIN":"8鄰","STREET":"公園路","SECT":" ","MAREA":" ","LANE":" ","ALLEY":" ","HOUSE_NO":"２２０號","E_COORD97":173948.39999999999,"N_COORD97":2570283.3799999999,"ADDRESS":"公園路２２０號","OBJECTID":60803},"geometry":{"x":173948.40000000037,"y":2570283.3800000008}},{"attributes":{"ID":60804,"DIS_CODE":0,"TOWNNAME":"歸仁區","LI":"辜厝里","LIN":"35鄰","STREET":"大吉二街","SECT":" ","MAREA":" ","LANE":"２６巷","ALLEY":"６８弄","HOUSE_NO":"１１號","E_COORD97":177229.34,"N_COORD97":2540402.6800000002,"ADDRESS":"大吉二街２６巷６８弄１１號","OBJECTID":60804},"geometry":{"x":177229.34000000171,"y":2540402.6800000016}},{"attributes":{"ID":60805,"DIS_CODE":0,"TOWNNAME":"歸仁區","LI":"辜厝里","LIN":"35鄰","STREET":"大吉二街","SECT":" ","MAREA":" ","LANE":"２６巷","ALLEY":"６８弄","HOUSE_NO":"５號","E_COORD97":177240.39000000001,"N_COORD97":2540407.6800000002,"ADDRESS":"大吉二街２６巷６８弄５號","OBJECTID":60805},"geometry":{"x":177240.38999999966,"y":2540407.6799999997}},{"attributes":{"ID":60806,"DIS_CODE":0,"TOWNNAME":"新營區","LI":"民榮里","LIN":"35鄰","STREET":"新進路","SECT":"二段","MAREA":" ","LANE":"４４５巷","ALLEY":"１１弄","HOUSE_NO":"１７號","E_COORD97":178622.25,"N_COORD97":2577977.9399999999,"ADDRESS":"新進路二段４４５巷１１弄１７號","OBJECTID":60806},"geometry":{"x":178622.25000000093,"y":2577977.9399999995}},{"attributes":{"ID":60807,"DIS_CODE":0,"TOWNNAME":"新營區","LI":"民榮里","LIN":"35鄰","STREET":"新進路","SECT":"二段","MAREA":" ","LANE":"４４５巷","ALLEY":"１１弄","HOUSE_NO":"２４號","E_COORD97":178578.54999999999,"N_COORD97":2578021.3500000001,"ADDRESS":"新進路二段４４５巷１１弄２４號","OBJECTID":60807},"geometry":{"x":178578.54999999981,"y":2578021.3500000015}},{"attributes":{"ID":60808,"DIS_CODE":0,"TOWNNAME":"歸仁區","LI":"六甲里","LIN":"35鄰","STREET":"六甲六街","SECT":" ","MAREA":" ","LANE":"１１巷","ALLEY":"３弄","HOUSE_NO":"１５號","E_COORD97":175572.74699499999,"N_COORD97":2539344.70994,"ADDRESS":"六甲六街１１巷３弄１５號","OBJECTID":60808},"geometry":{"x":175572.74699500017,"y":2539344.709942}},{"attributes":{"ID":60809,"DIS_CODE":0,"TOWNNAME":"新營區","LI":"民榮里","LIN":"35鄰","STREET":"新進路","SECT":"二段","MAREA":" ","LANE":"４４５巷","ALLEY":"１１弄","HOUSE_NO":"１０號","E_COORD97":178600.81,"N_COORD97":2577984.6899999999,"ADDRESS":"新進路二段４４５巷１１弄１０號","OBJECTID":60809},"geometry":{"x":178600.81000000052,"y":2577984.6900000013}},{"attributes":{"ID":60810,"DIS_CODE":0,"TOWNNAME":"新營區","LI":"民榮里","LIN":"35鄰","STREET":"新進路","SECT":"二段","MAREA":" ","LANE":"４４５巷","ALLEY":"１１弄","HOUSE_NO":"２０號","E_COORD97":178563.06,"N_COORD97":2577990.4100000001,"ADDRESS":"新進路二段４４５巷１１弄２０號","OBJECTID":60810},"geometry":{"x":178563.05999999959,"y":2577990.410000002}},{"attributes":{"ID":60811,"DIS_CODE":0,"TOWNNAME":"永康區","LI":"北灣里","LIN":"35鄰","STREET":"大灣路","SECT":" ","MAREA":" ","LANE":"４０巷","ALLEY":"５８弄","HOUSE_NO":"２８號之１","E_COORD97":175126.20000000001,"N_COORD97":2546177.0099999998,"ADDRESS":"大灣路４０巷５８弄２８號之１","OBJECTID":60811},"geometry":{"x":175126.20000000019,"y":2546177.0100000035}},{"attributes":{"ID":60812,"DIS_CODE":0,"TOWNNAME":"下營區","LI":"賀建里","LIN":"8鄰","STREET":" ","SECT":" ","MAREA":"火燒珠","LANE":" ","ALLEY":" ","HOUSE_NO":"７號之２","E_COORD97":176630.63,"N_COORD97":2572756.1400000001,"ADDRESS":"火燒珠７號之２","OBJECTID":60812},"geometry":{"x":176630.63000000175,"y":2572756.1400000006}},{"attributes":{"ID":60813,"DIS_CODE":0,"TOWNNAME":"下營區","LI":"賀建里","LIN":"8鄰","STREET":" ","SECT":" ","MAREA":"火燒珠","LANE":" ","ALLEY":" ","HOUSE_NO":"７號之５","E_COORD97":176621.32999999999,"N_COORD97":2572747.1800000002,"ADDRESS":"火燒珠７號之５","OBJECTID":60813},"geometry":{"x":176621.33000000101,"y":2572747.1800000016}},{"attributes":{"ID":60814,"DIS_CODE":0,"TOWNNAME":"下營區","LI":"賀建里","LIN":"8鄰","STREET":" ","SECT":" ","MAREA":"火燒珠","LANE":" ","ALLEY":" ","HOUSE_NO":"７號之６","E_COORD97":176622.48000000001,"N_COORD97":2572739.27,"ADDRESS":"火燒珠７號之６","OBJECTID":60814},"geometry":{"x":176622.48000000138,"y":2572739.2700000014}},{"attributes":{"ID":60815,"DIS_CODE":0,"TOWNNAME":"下營區","LI":"賀建里","LIN":"8鄰","STREET":" ","SECT":" ","MAREA":"火燒珠","LANE":" ","ALLEY":" ","HOUSE_NO":"７號","E_COORD97":176656.75,"N_COORD97":2572773.73,"ADDRESS":"火燒珠７號","OBJECTID":60815},"geometry":{"x":176656.75,"y":2572773.7300000042}},{"attributes":{"ID":60816,"DIS_CODE":0,"TOWNNAME":"下營區","LI":"西連里","LIN":"8鄰","STREET":" ","SECT":" ","MAREA":"西寮","LANE":" ","ALLEY":" ","HOUSE_NO":"３１號之１","E_COORD97":174693.87,"N_COORD97":2567348.5099999998,"ADDRESS":"西寮３１號之１","OBJECTID":60816},"geometry":{"x":174693.87000000104,"y":2567348.5099999998}},{"attributes":{"ID":60817,"DIS_CODE":0,"TOWNNAME":"下營區","LI":"西連里","LIN":"8鄰","STREET":" ","SECT":" ","MAREA":"西寮","LANE":" ","ALLEY":" ","HOUSE_NO":"３１號","E_COORD97":174699.63,"N_COORD97":2567378.6299999999,"ADDRESS":"西寮３１號","OBJECTID":60817},"geometry":{"x":174699.62999999989,"y":2567378.6300000027}},{"attributes":{"ID":60818,"DIS_CODE":0,"TOWNNAME":"下營區","LI":"西連里","LIN":"8鄰","STREET":" ","SECT":" ","MAREA":"西寮","LANE":" ","ALLEY":" ","HOUSE_NO":"３２號","E_COORD97":174689.78,"N_COORD97":2567333.3300000001,"ADDRESS":"西寮３２號","OBJECTID":60818},"geometry":{"x":174689.78000000119,"y":2567333.3300000001}},{"attributes":{"ID":60819,"DIS_CODE":0,"TOWNNAME":"下營區","LI":"西連里","LIN":"8鄰","STREET":" ","SECT":" ","MAREA":"西寮","LANE":" ","ALLEY":" ","HOUSE_NO":"３３號","E_COORD97":174671.66,"N_COORD97":2567343.79,"ADDRESS":"西寮３３號","OBJECTID":60819},"geometry":{"x":174671.66000000108,"y":2567343.7900000028}},{"attributes":{"ID":60820,"DIS_CODE":0,"TOWNNAME":"下營區","LI":"西連里","LIN":"8鄰","STREET":" ","SECT":" ","MAREA":"西寮","LANE":" ","ALLEY":" ","HOUSE_NO":"３５號","E_COORD97":174653.31,"N_COORD97":2567365.1299999999,"ADDRESS":"西寮３５號","OBJECTID":60820},"geometry":{"x":174653.31000000052,"y":2567365.1300000027}},{"attributes":{"ID":60821,"DIS_CODE":0,"TOWNNAME":"下營區","LI":"西連里","LIN":"8鄰","STREET":" ","SECT":" ","MAREA":"西寮","LANE":" ","ALLEY":" ","HOUSE_NO":"３６號","E_COORD97":174630.79000000001,"N_COORD97":2567396.8999999999,"ADDRESS":"西寮３６號","OBJECTID":60821},"geometry":{"x":174630.79000000004,"y":2567396.9000000004}},{"attributes":{"ID":60822,"DIS_CODE":0,"TOWNNAME":"歸仁區","LI":"沙崙里","LIN":"1鄰","STREET":" ","SECT":" ","MAREA":"二甲","LANE":" ","ALLEY":" ","HOUSE_NO":"１４７號","E_COORD97":178535.89000000001,"N_COORD97":2539318.71,"ADDRESS":"二甲１４７號","OBJECTID":60822},"geometry":{"x":178535.8900000006,"y":2539318.7100000028}},{"attributes":{"ID":60823,"DIS_CODE":0,"TOWNNAME":"下營區","LI":"茅港里","LIN":"8鄰","STREET":" ","SECT":" ","MAREA":"茅港尾","LANE":" ","ALLEY":" ","HOUSE_NO":"２５８號","E_COORD97":176518.64000000001,"N_COORD97":2568257.1200000001,"ADDRESS":"茅港尾２５８號","OBJECTID":60823},"geometry":{"x":176518.6400000006,"y":2568257.1200000029}},{"attributes":{"ID":60824,"DIS_CODE":0,"TOWNNAME":"下營區","LI":"茅港里","LIN":"8鄰","STREET":" ","SECT":" ","MAREA":"茅港尾","LANE":" ","ALLEY":" ","HOUSE_NO":"２５９號之１","E_COORD97":176489.91,"N_COORD97":2568266.3599999999,"ADDRESS":"茅港尾２５９號之１","OBJECTID":60824},"geometry":{"x":176489.90999999922,"y":2568266.3600000013}},{"attributes":{"ID":60825,"DIS_CODE":0,"TOWNNAME":"下營區","LI":"茅港里","LIN":"8鄰","STREET":" ","SECT":" ","MAREA":"茅港尾","LANE":" ","ALLEY":" ","HOUSE_NO":"２５９號之２","E_COORD97":176472.70999999999,"N_COORD97":2568261.3799999999,"ADDRESS":"茅港尾２５９號之２","OBJECTID":60825},"geometry":{"x":176472.71000000089,"y":2568261.379999999}},{"attributes":{"ID":60826,"DIS_CODE":0,"TOWNNAME":"下營區","LI":"茅港里","LIN":"8鄰","STREET":" ","SECT":" ","MAREA":"茅港尾","LANE":" ","ALLEY":" ","HOUSE_NO":"２５９號","E_COORD97":176498.64999999999,"N_COORD97":2568266.2599999998,"ADDRESS":"茅港尾２５９號","OBJECTID":60826},"geometry":{"x":176498.64999999944,"y":2568266.2599999998}},{"attributes":{"ID":60827,"DIS_CODE":0,"TOWNNAME":"將軍區","LI":"仁和里","LIN":"8鄰","STREET":" ","SECT":" ","MAREA":"仁巷","LANE":" ","ALLEY":" ","HOUSE_NO":"７８號","E_COORD97":163987.92999999999,"N_COORD97":2569198.9900000002,"ADDRESS":"仁巷７８號","OBJECTID":60827},"geometry":{"x":163987.93000000063,"y":2569198.9900000021}},{"attributes":{"ID":60828,"DIS_CODE":0,"TOWNNAME":"將軍區","LI":"仁和里","LIN":"8鄰","STREET":" ","SECT":" ","MAREA":"仁巷","LANE":" ","ALLEY":" ","HOUSE_NO":"８１號","E_COORD97":163952.56,"N_COORD97":2569208.2599999998,"ADDRESS":"仁巷８１號","OBJECTID":60828},"geometry":{"x":163952.56000000145,"y":2569208.2599999998}},{"attributes":{"ID":60829,"DIS_CODE":0,"TOWNNAME":"將軍區","LI":"仁和里","LIN":"8鄰","STREET":" ","SECT":" ","MAREA":"仁巷","LANE":" ","ALLEY":" ","HOUSE_NO":"８２號","E_COORD97":163945.70999999999,"N_COORD97":2569196.3999999999,"ADDRESS":"仁巷８２號","OBJECTID":60829},"geometry":{"x":163945.71000000089,"y":2569196.4000000022}},{"attributes":{"ID":60830,"DIS_CODE":0,"TOWNNAME":"將軍區","LI":"仁和里","LIN":"8鄰","STREET":" ","SECT":" ","MAREA":"仁巷","LANE":" ","ALLEY":" ","HOUSE_NO":"８３號","E_COORD97":163937.98000000001,"N_COORD97":2569210,"ADDRESS":"仁巷８３號","OBJECTID":60830},"geometry":{"x":163937.98000000045,"y":2569210}},{"attributes":{"ID":60831,"DIS_CODE":0,"TOWNNAME":"將軍區","LI":"仁和里","LIN":"8鄰","STREET":" ","SECT":" ","MAREA":"仁巷","LANE":" ","ALLEY":" ","HOUSE_NO":"８４號","E_COORD97":163924.54999999999,"N_COORD97":2569209.1000000001,"ADDRESS":"仁巷８４號","OBJECTID":60831},"geometry":{"x":163924.55000000075,"y":2569209.0999999996}},{"attributes":{"ID":60832,"DIS_CODE":0,"TOWNNAME":"關廟區","LI":"埤頭里","LIN":"1鄰","STREET":"關新路","SECT":"一段","MAREA":" ","LANE":"８１３巷","ALLEY":" ","HOUSE_NO":"７１號","E_COORD97":179083.32000000001,"N_COORD97":2543738.2999999998,"ADDRESS":"關新路一段８１３巷７１號","OBJECTID":60832},"geometry":{"x":179083.32000000123,"y":2543738.3000000045}},{"attributes":{"ID":60833,"DIS_CODE":0,"TOWNNAME":"關廟區","LI":"埤頭里","LIN":"1鄰","STREET":"關新路","SECT":"一段","MAREA":" ","LANE":" ","ALLEY":" ","HOUSE_NO":"７３５號","E_COORD97":179125.67000000001,"N_COORD97":2543674.2999999998,"ADDRESS":"關新路一段７３５號","OBJECTID":60833},"geometry":{"x":179125.67000000179,"y":2543674.3000000026}},{"attributes":{"ID":60834,"DIS_CODE":0,"TOWNNAME":"關廟區","LI":"埤頭里","LIN":"1鄰","STREET":"關新路","SECT":"一段","MAREA":" ","LANE":" ","ALLEY":" ","HOUSE_NO":"７２９號","E_COORD97":179126.55833599999,"N_COORD97":2543663.3507300001,"ADDRESS":"關新路一段７２９號","OBJECTID":60834},"geometry":{"x":179126.55833599996,"y":2543663.3507330026}},{"attributes":{"ID":60835,"DIS_CODE":0,"TOWNNAME":"關廟區","LI":"埤頭里","LIN":"1鄰","STREET":"關新路","SECT":"一段","MAREA":" ","LANE":" ","ALLEY":" ","HOUSE_NO":"７２１號","E_COORD97":179128.62,"N_COORD97":2543647.2999999998,"ADDRESS":"關新路一段７２１號","OBJECTID":60835},"geometry":{"x":179128.62000000104,"y":2543647.3000000026}},{"attributes":{"ID":60836,"DIS_CODE":0,"TOWNNAME":"將軍區","LI":"仁和里","LIN":"8鄰","STREET":" ","SECT":" ","MAREA":"仁巷","LANE":" ","ALLEY":" ","HOUSE_NO":"８５之１號","E_COORD97":163905.56,"N_COORD97":2569210.0800000001,"ADDRESS":"仁巷８５之１號","OBJECTID":60836},"geometry":{"x":163905.56000000052,"y":2569210.0800000001}},{"attributes":{"ID":60837,"DIS_CODE":0,"TOWNNAME":"將軍區","LI":"仁和里","LIN":"8鄰","STREET":" ","SECT":" ","MAREA":"仁巷","LANE":" ","ALLEY":" ","HOUSE_NO":"８５號","E_COORD97":163910.54999999999,"N_COORD97":2569216.3700000001,"ADDRESS":"仁巷８５號","OBJECTID":60837},"geometry":{"x":163910.55000000075,"y":2569216.370000001}},{"attributes":{"ID":60838,"DIS_CODE":0,"TOWNNAME":"將軍區","LI":"仁和里","LIN":"8鄰","STREET":" ","SECT":" ","MAREA":"仁巷","LANE":" ","ALLEY":" ","HOUSE_NO":"８７號","E_COORD97":163919.23999999999,"N_COORD97":2569174.25,"ADDRESS":"仁巷８７號","OBJECTID":60838},"geometry":{"x":163919.24000000022,"y":2569174.25}},{"attributes":{"ID":60839,"DIS_CODE":0,"TOWNNAME":"將軍區","LI":"平沙里","LIN":"8鄰","STREET":" ","SECT":" ","MAREA":"平沙","LANE":" ","ALLEY":" ","HOUSE_NO":"７１之１３號","E_COORD97":157163.04000000001,"N_COORD97":2568545.3399999999,"ADDRESS":"平沙７１之１３號","OBJECTID":60839},"geometry":{"x":157163.04000000004,"y":2568545.3400000017}},{"attributes":{"ID":60840,"DIS_CODE":0,"TOWNNAME":"將軍區","LI":"平沙里","LIN":"8鄰","STREET":" ","SECT":" ","MAREA":"平沙","LANE":" ","ALLEY":" ","HOUSE_NO":"７１之１４號","E_COORD97":157163.44,"N_COORD97":2568552.1299999999,"ADDRESS":"平沙７１之１４號","OBJECTID":60840},"geometry":{"x":157163.44000000134,"y":2568552.1300000008}},{"attributes":{"ID":60841,"DIS_CODE":0,"TOWNNAME":"將軍區","LI":"平沙里","LIN":"8鄰","STREET":" ","SECT":" ","MAREA":"平沙","LANE":" ","ALLEY":" ","HOUSE_NO":"７１之２號","E_COORD97":157201.79999999999,"N_COORD97":2568505.8599999999,"ADDRESS":"平沙７１之２號","OBJECTID":60841},"geometry":{"x":157201.79999999981,"y":2568505.8599999994}},{"attributes":{"ID":60842,"DIS_CODE":0,"TOWNNAME":"將軍區","LI":"平沙里","LIN":"8鄰","STREET":" ","SECT":" ","MAREA":"平沙","LANE":" ","ALLEY":" ","HOUSE_NO":"７１之３號","E_COORD97":157162.82000000001,"N_COORD97":2568504.2400000002,"ADDRESS":"平沙７１之３號","OBJECTID":60842},"geometry":{"x":157162.82000000123,"y":2568504.2400000002}},{"attributes":{"ID":60843,"DIS_CODE":0,"TOWNNAME":"將軍區","LI":"西華里","LIN":"8鄰","STREET":" ","SECT":" ","MAREA":"西華","LANE":" ","ALLEY":" ","HOUSE_NO":"９８之１號","E_COORD97":163412.32999999999,"N_COORD97":2566349.8700000001,"ADDRESS":"西華９８之１號","OBJECTID":60843},"geometry":{"x":163412.33000000101,"y":2566349.8700000029}},{"attributes":{"ID":60844,"DIS_CODE":0,"TOWNNAME":"將軍區","LI":"西華里","LIN":"8鄰","STREET":" ","SECT":" ","MAREA":"西華","LANE":" ","ALLEY":" ","HOUSE_NO":"９８之２號","E_COORD97":163416.26000000001,"N_COORD97":2566349.9100000001,"ADDRESS":"西華９８之２號","OBJECTID":60844},"geometry":{"x":163416.26000000071,"y":2566349.9100000001}},{"attributes":{"ID":60845,"DIS_CODE":0,"TOWNNAME":"將軍區","LI":"西華里","LIN":"8鄰","STREET":" ","SECT":" ","MAREA":"西華","LANE":" ","ALLEY":" ","HOUSE_NO":"９８號","E_COORD97":163408.17000000001,"N_COORD97":2566349.7999999998,"ADDRESS":"西華９８號","OBJECTID":60845},"geometry":{"x":163408.17000000086,"y":2566349.8000000026}},{"attributes":{"ID":60846,"DIS_CODE":0,"TOWNNAME":"將軍區","LI":"西華里","LIN":"8鄰","STREET":" ","SECT":" ","MAREA":"西華","LANE":" ","ALLEY":" ","HOUSE_NO":"９９之１號","E_COORD97":163396.06,"N_COORD97":2566347.4300000002,"ADDRESS":"西華９９之１號","OBJECTID":60846},"geometry":{"x":163396.05999999959,"y":2566347.4300000016}},{"attributes":{"ID":60847,"DIS_CODE":0,"TOWNNAME":"將軍區","LI":"西華里","LIN":"8鄰","STREET":" ","SECT":" ","MAREA":"西華","LANE":" ","ALLEY":" ","HOUSE_NO":"９９之６號","E_COORD97":163383.66,"N_COORD97":2566365.5,"ADDRESS":"西華９９之６號","OBJECTID":60847},"geometry":{"x":163383.66000000015,"y":2566365.5}},{"attributes":{"ID":60848,"DIS_CODE":0,"TOWNNAME":"將軍區","LI":"西華里","LIN":"8鄰","STREET":" ","SECT":" ","MAREA":"西華","LANE":" ","ALLEY":" ","HOUSE_NO":"９９之７號","E_COORD97":163382.73999999999,"N_COORD97":2566370.4900000002,"ADDRESS":"西華９９之７號","OBJECTID":60848},"geometry":{"x":163382.74000000115,"y":2566370.4900000039}},{"attributes":{"ID":60849,"DIS_CODE":0,"TOWNNAME":"將軍區","LI":"西華里","LIN":"8鄰","STREET":" ","SECT":" ","MAREA":"西華","LANE":" ","ALLEY":" ","HOUSE_NO":"９９之８號","E_COORD97":163381.57999999999,"N_COORD97":2566375.2400000002,"ADDRESS":"西華９９之８號","OBJECTID":60849},"geometry":{"x":163381.58000000194,"y":2566375.2400000002}},{"attributes":{"ID":60850,"DIS_CODE":0,"TOWNNAME":"永康區","LI":"北灣里","LIN":"35鄰","STREET":"大灣路","SECT":" ","MAREA":" ","LANE":"４０巷","ALLEY":"５８弄","HOUSE_NO":"５號之１","E_COORD97":175090.45000000001,"N_COORD97":2546116.6699999999,"ADDRESS":"大灣路４０巷５８弄５號之１","OBJECTID":60850},"geometry":{"x":175090.45000000019,"y":2546116.6699999999}},{"attributes":{"ID":60851,"DIS_CODE":0,"TOWNNAME":"永康區","LI":"北灣里","LIN":"35鄰","STREET":"大灣路","SECT":" ","MAREA":" ","LANE":"４０巷","ALLEY":"５８弄","HOUSE_NO":"３７號之２","E_COORD97":175127.97,"N_COORD97":2546135.3700000001,"ADDRESS":"大灣路４０巷５８弄３７號之２","OBJECTID":60851},"geometry":{"x":175127.9700000016,"y":2546135.3700000029}},{"attributes":{"ID":60852,"DIS_CODE":0,"TOWNNAME":"永康區","LI":"北灣里","LIN":"35鄰","STREET":"大灣路","SECT":" ","MAREA":" ","LANE":"４０巷","ALLEY":"５８弄","HOUSE_NO":"２２號之２","E_COORD97":175141.60000000001,"N_COORD97":2546173.27,"ADDRESS":"大灣路４０巷５８弄２２號之２","OBJECTID":60852},"geometry":{"x":175141.59999999963,"y":2546173.2699999996}},{"attributes":{"ID":60853,"DIS_CODE":0,"TOWNNAME":"將軍區","LI":"西華里","LIN":"8鄰","STREET":" ","SECT":" ","MAREA":"西華","LANE":" ","ALLEY":" ","HOUSE_NO":"９９之９號","E_COORD97":163380.59,"N_COORD97":2566379.8700000001,"ADDRESS":"西華９９之９號","OBJECTID":60853},"geometry":{"x":163380.58999999985,"y":2566379.8700000029}},{"attributes":{"ID":60854,"DIS_CODE":0,"TOWNNAME":"將軍區","LI":"西華里","LIN":"8鄰","STREET":" ","SECT":" ","MAREA":"西華","LANE":" ","ALLEY":" ","HOUSE_NO":"９９號","E_COORD97":163390.47,"N_COORD97":2566360.2000000002,"ADDRESS":"西華９９號","OBJECTID":60854},"geometry":{"x":163390.4700000016,"y":2566360.1999999993}},{"attributes":{"ID":60855,"DIS_CODE":0,"TOWNNAME":"永康區","LI":"北灣里","LIN":"35鄰","STREET":"大灣路","SECT":" ","MAREA":" ","LANE":"４０巷","ALLEY":"５８弄","HOUSE_NO":"３０號之１","E_COORD97":175122.45000000001,"N_COORD97":2546180.5099999998,"ADDRESS":"大灣路４０巷５８弄３０號之１","OBJECTID":60855},"geometry":{"x":175122.45000000112,"y":2546180.5100000016}},{"attributes":{"ID":60856,"DIS_CODE":0,"TOWNNAME":"永康區","LI":"北灣里","LIN":"35鄰","STREET":"大灣路","SECT":" ","MAREA":" ","LANE":"４０巷","ALLEY":"５８弄","HOUSE_NO":"２９號之１","E_COORD97":175108.79000000001,"N_COORD97":2546133.9199999999,"ADDRESS":"大灣路４０巷５８弄２９號之１","OBJECTID":60856},"geometry":{"x":175108.79000000004,"y":2546133.9200000018}},{"attributes":{"ID":60857,"DIS_CODE":0,"TOWNNAME":"永康區","LI":"北灣里","LIN":"35鄰","STREET":"大灣路","SECT":" ","MAREA":" ","LANE":"４０巷","ALLEY":"５８弄","HOUSE_NO":"３９號之２","E_COORD97":175123.75,"N_COORD97":2546139.3700000001,"ADDRESS":"大灣路４０巷５８弄３９號之２","OBJECTID":60857},"geometry":{"x":175123.75,"y":2546139.3700000029}},{"attributes":{"ID":60858,"DIS_CODE":0,"TOWNNAME":"永康區","LI":"北灣里","LIN":"35鄰","STREET":"大灣路","SECT":" ","MAREA":" ","LANE":"４０巷","ALLEY":"５８弄","HOUSE_NO":"１１號之２","E_COORD97":175076.17999999999,"N_COORD97":2546125.4199999999,"ADDRESS":"大灣路４０巷５８弄１１號之２","OBJECTID":60858},"geometry":{"x":175076.18000000063,"y":2546125.4199999999}},{"attributes":{"ID":60859,"DIS_CODE":0,"TOWNNAME":"永康區","LI":"北灣里","LIN":"35鄰","STREET":"大灣路","SECT":" ","MAREA":" ","LANE":"４０巷","ALLEY":"５８弄","HOUSE_NO":"５１號之２","E_COORD97":175126.32999999999,"N_COORD97":2546143.1200000001,"ADDRESS":"大灣路４０巷５８弄５１號之２","OBJECTID":60859},"geometry":{"x":175126.33000000101,"y":2546143.120000001}},{"attributes":{"ID":60860,"DIS_CODE":0,"TOWNNAME":"永康區","LI":"正強里","LIN":"8鄰","STREET":"正義街","SECT":" ","MAREA":" ","LANE":"８９巷","ALLEY":" ","HOUSE_NO":"９號","E_COORD97":173461.57000000001,"N_COORD97":2547532.2599999998,"ADDRESS":"正義街８９巷９號","OBJECTID":60860},"geometry":{"x":173461.57000000216,"y":2547532.2600000016}},{"attributes":{"ID":60861,"DIS_CODE":0,"TOWNNAME":"關廟區","LI":"新光里","LIN":"1鄰","STREET":"新湖街","SECT":" ","MAREA":" ","LANE":" ","ALLEY":" ","HOUSE_NO":"２３５號","E_COORD97":183190.34,"N_COORD97":2542429.2999999998,"ADDRESS":"新湖街２３５號","OBJECTID":60861},"geometry":{"x":183190.34000000078,"y":2542429.2999999989}},{"attributes":{"ID":60862,"DIS_CODE":0,"TOWNNAME":"永康區","LI":"正強里","LIN":"8鄰","STREET":"正義街","SECT":" ","MAREA":" ","LANE":" ","ALLEY":" ","HOUSE_NO":"５５號","E_COORD97":173549.07999999999,"N_COORD97":2547628.2000000002,"ADDRESS":"正義街５５號","OBJECTID":60862},"geometry":{"x":173549.08000000007,"y":2547628.1999999993}},{"attributes":{"ID":60863,"DIS_CODE":0,"TOWNNAME":"永康區","LI":"永康里","LIN":"8鄰","STREET":"永康街","SECT":" ","MAREA":" ","LANE":" ","ALLEY":" ","HOUSE_NO":"１９號","E_COORD97":173793.13,"N_COORD97":2547280.7000000002,"ADDRESS":"永康街１９號","OBJECTID":60863},"geometry":{"x":173793.13000000082,"y":2547280.7000000011}},{"attributes":{"ID":60864,"DIS_CODE":0,"TOWNNAME":"永康區","LI":"正強里","LIN":"8鄰","STREET":"永正路","SECT":" ","MAREA":" ","LANE":" ","ALLEY":" ","HOUSE_NO":"７１號","E_COORD97":173530.04000000001,"N_COORD97":2547459.5,"ADDRESS":"永正路７１號","OBJECTID":60864},"geometry":{"x":173530.04000000004,"y":2547459.5000000019}},{"attributes":{"ID":60865,"DIS_CODE":0,"TOWNNAME":"永康區","LI":"正強里","LIN":"8鄰","STREET":"正義街","SECT":" ","MAREA":" ","LANE":" ","ALLEY":" ","HOUSE_NO":"５７號","E_COORD97":173545.17000000001,"N_COORD97":2547625.2000000002,"ADDRESS":"正義街５７號","OBJECTID":60865},"geometry":{"x":173545.17000000179,"y":2547625.1999999993}},{"attributes":{"ID":60866,"DIS_CODE":0,"TOWNNAME":"永康區","LI":"北灣里","LIN":"35鄰","STREET":"大灣路","SECT":" ","MAREA":" ","LANE":"４０巷","ALLEY":"５８弄","HOUSE_NO":"３５號之２","E_COORD97":175093.04999999999,"N_COORD97":2546143.1699999999,"ADDRESS":"大灣路４０巷５８弄３５號之２","OBJECTID":60866},"geometry":{"x":175093.04999999981,"y":2546143.1700000018}},{"attributes":{"ID":60867,"DIS_CODE":0,"TOWNNAME":"關廟區","LI":"埤頭里","LIN":"1鄰","STREET":"關新路","SECT":"一段","MAREA":" ","LANE":" ","ALLEY":" ","HOUSE_NO":"７５５號","E_COORD97":179118.62,"N_COORD97":2543714.2999999998,"ADDRESS":"關新路一段７５５號","OBJECTID":60867},"geometry":{"x":179118.62000000011,"y":2543714.2999999989}},{"attributes":{"ID":60868,"DIS_CODE":0,"TOWNNAME":"關廟區","LI":"埤頭里","LIN":"1鄰","STREET":"關新路","SECT":"一段","MAREA":" ","LANE":"６６５巷","ALLEY":" ","HOUSE_NO":"１２８號","E_COORD97":178955.12,"N_COORD97":2543546.2999999998,"ADDRESS":"關新路一段６６５巷１２８號","OBJECTID":60868},"geometry":{"x":178955.12000000197,"y":2543546.3000000026}},{"attributes":{"ID":60869,"DIS_CODE":0,"TOWNNAME":"永康區","LI":"北灣里","LIN":"35鄰","STREET":"大灣路","SECT":" ","MAREA":" ","LANE":"４０巷","ALLEY":"５８弄","HOUSE_NO":"４３號之１","E_COORD97":175111.92999999999,"N_COORD97":2546144.3700000001,"ADDRESS":"大灣路４０巷５８弄４３號之１","OBJECTID":60869},"geometry":{"x":175111.93000000063,"y":2546144.370000001}},{"attributes":{"ID":60870,"DIS_CODE":0,"TOWNNAME":"永康區","LI":"北灣里","LIN":"35鄰","STREET":"大灣路","SECT":" ","MAREA":" ","LANE":"４０巷","ALLEY":"５８弄","HOUSE_NO":"１６號之２","E_COORD97":175151.91,"N_COORD97":2546164.02,"ADDRESS":"大灣路４０巷５８弄１６號之２","OBJECTID":60870},"geometry":{"x":175151.91000000015,"y":2546164.0200000014}},{"attributes":{"ID":60871,"DIS_CODE":0,"TOWNNAME":"永康區","LI":"北灣里","LIN":"35鄰","STREET":"大灣路","SECT":" ","MAREA":" ","LANE":"４０巷","ALLEY":"５８弄","HOUSE_NO":"３１號之２","E_COORD97":175101.5,"N_COORD97":2546134.9199999999,"ADDRESS":"大灣路４０巷５８弄３１號之２","OBJECTID":60871},"geometry":{"x":175101.50000000093,"y":2546134.9200000018}},{"attributes":{"ID":60872,"DIS_CODE":0,"TOWNNAME":"永康區","LI":"北灣里","LIN":"35鄰","STREET":"大灣路","SECT":" ","MAREA":" ","LANE":"４０巷","ALLEY":"５８弄","HOUSE_NO":"７號之２","E_COORD97":175083.38,"N_COORD97":2546117.1699999999,"ADDRESS":"大灣路４０巷５８弄７號之２","OBJECTID":60872},"geometry":{"x":175083.38000000082,"y":2546117.1699999999}},{"attributes":{"ID":60873,"DIS_CODE":0,"TOWNNAME":"歸仁區","LI":"六甲里","LIN":"35鄰","STREET":"六甲六街","SECT":" ","MAREA":" ","LANE":"１１巷","ALLEY":"３弄","HOUSE_NO":"１７號","E_COORD97":175568.08591200001,"N_COORD97":2539346.4032700001,"ADDRESS":"六甲六街１１巷３弄１７號","OBJECTID":60873},"geometry":{"x":175568.08591200132,"y":2539346.4032740034}},{"attributes":{"ID":60874,"DIS_CODE":0,"TOWNNAME":"將軍區","LI":"忠興里","LIN":"8鄰","STREET":" ","SECT":" ","MAREA":"忠興","LANE":" ","ALLEY":" ","HOUSE_NO":"８６之１號","E_COORD97":163641.29000000001,"N_COORD97":2566835.02,"ADDRESS":"忠興８６之１號","OBJECTID":60874},"geometry":{"x":163641.29000000097,"y":2566835.0200000014}},{"attributes":{"ID":60875,"DIS_CODE":0,"TOWNNAME":"將軍區","LI":"忠興里","LIN":"8鄰","STREET":" ","SECT":" ","MAREA":"忠興","LANE":" ","ALLEY":" ","HOUSE_NO":"８６之２號","E_COORD97":163643.19,"N_COORD97":2566829.46,"ADDRESS":"忠興８６之２號","OBJECTID":60875},"geometry":{"x":163643.19000000041,"y":2566829.4600000028}},{"attributes":{"ID":60876,"DIS_CODE":0,"TOWNNAME":"永康區","LI":"北灣里","LIN":"35鄰","STREET":"大灣路","SECT":" ","MAREA":" ","LANE":"４０巷","ALLEY":"５８弄","HOUSE_NO":"５５號之１","E_COORD97":175121.26999999999,"N_COORD97":2546154.3599999999,"ADDRESS":"大灣路４０巷５８弄５５號之１","OBJECTID":60876},"geometry":{"x":175121.27000000048,"y":2546154.3600000013}},{"attributes":{"ID":60877,"DIS_CODE":0,"TOWNNAME":"永康區","LI":"北灣里","LIN":"35鄰","STREET":"大灣路","SECT":" ","MAREA":" ","LANE":"４０巷","ALLEY":"５８弄","HOUSE_NO":"１３號之２","E_COORD97":175111.07000000001,"N_COORD97":2546119.6699999999,"ADDRESS":"大灣路４０巷５８弄１３號之２","OBJECTID":60877},"geometry":{"x":175111.07000000123,"y":2546119.6700000018}},{"attributes":{"ID":60878,"DIS_CODE":0,"TOWNNAME":"永康區","LI":"北灣里","LIN":"35鄰","STREET":"大灣路","SECT":" ","MAREA":" ","LANE":"４０巷","ALLEY":"５８弄","HOUSE_NO":"４７號之１","E_COORD97":175103.76999999999,"N_COORD97":2546152.3599999999,"ADDRESS":"大灣路４０巷５８弄４７號之１","OBJECTID":60878},"geometry":{"x":175103.77000000142,"y":2546152.3599999994}},{"attributes":{"ID":60879,"DIS_CODE":0,"TOWNNAME":"永康區","LI":"北灣里","LIN":"35鄰","STREET":"大灣路","SECT":" ","MAREA":" ","LANE":"４０巷","ALLEY":"５８弄","HOUSE_NO":"１號之１","E_COORD97":175098.91,"N_COORD97":2546108.4199999999,"ADDRESS":"大灣路４０巷５８弄１號之１","OBJECTID":60879},"geometry":{"x":175098.91000000108,"y":2546108.4199999999}},{"attributes":{"ID":60880,"DIS_CODE":0,"TOWNNAME":"永康區","LI":"北灣里","LIN":"35鄰","STREET":"大灣路","SECT":" ","MAREA":" ","LANE":"４０巷","ALLEY":"５８弄","HOUSE_NO":"２６號之１","E_COORD97":175129.59,"N_COORD97":2546174.0099999998,"ADDRESS":"大灣路４０巷５８弄２６號之１","OBJECTID":60880},"geometry":{"x":175129.59000000078,"y":2546174.0100000016}},{"attributes":{"ID":60881,"DIS_CODE":0,"TOWNNAME":"永康區","LI":"北灣里","LIN":"35鄰","STREET":"大灣路","SECT":" ","MAREA":" ","LANE":"４０巷","ALLEY":"５８弄","HOUSE_NO":"１５號之２","E_COORD97":175106.76999999999,"N_COORD97":2546123.6699999999,"ADDRESS":"大灣路４０巷５８弄１５號之２","OBJECTID":60881},"geometry":{"x":175106.76999999955,"y":2546123.6699999999}},{"attributes":{"ID":60882,"DIS_CODE":0,"TOWNNAME":"將軍區","LI":"忠興里","LIN":"8鄰","STREET":" ","SECT":" ","MAREA":"忠興","LANE":" ","ALLEY":" ","HOUSE_NO":"８６之６號","E_COORD97":163646.53,"N_COORD97":2566817.0800000001,"ADDRESS":"忠興８６之６號","OBJECTID":60882},"geometry":{"x":163646.53000000212,"y":2566817.0799999982}},{"attributes":{"ID":60883,"DIS_CODE":0,"TOWNNAME":"將軍區","LI":"忠興里","LIN":"8鄰","STREET":" ","SECT":" ","MAREA":"忠興","LANE":" ","ALLEY":" ","HOUSE_NO":"８６號","E_COORD97":163641.69,"N_COORD97":2566850.9700000002,"ADDRESS":"忠興８６號","OBJECTID":60883},"geometry":{"x":163641.69000000041,"y":2566850.9700000007}},{"attributes":{"ID":60884,"DIS_CODE":0,"TOWNNAME":"將軍區","LI":"忠興里","LIN":"8鄰","STREET":" ","SECT":" ","MAREA":"忠興","LANE":" ","ALLEY":" ","HOUSE_NO":"８７之１號","E_COORD97":163631.26957900001,"N_COORD97":2566798.5944400001,"ADDRESS":"忠興８７之１號","OBJECTID":60884},"geometry":{"x":163631.26957899984,"y":2566798.5944430027}},{"attributes":{"ID":60885,"DIS_CODE":0,"TOWNNAME":"將軍區","LI":"忠興里","LIN":"8鄰","STREET":" ","SECT":" ","MAREA":"忠興","LANE":" ","ALLEY":" ","HOUSE_NO":"９０之２號","E_COORD97":163585.95999999999,"N_COORD97":2566819.2000000002,"ADDRESS":"忠興９０之２號","OBJECTID":60885},"geometry":{"x":163585.96000000089,"y":2566819.200000003}},{"attributes":{"ID":60886,"DIS_CODE":0,"TOWNNAME":"將軍區","LI":"忠興里","LIN":"8鄰","STREET":" ","SECT":" ","MAREA":"忠興","LANE":" ","ALLEY":" ","HOUSE_NO":"９３之１號","E_COORD97":163572.79000000001,"N_COORD97":2566847.0800000001,"ADDRESS":"忠興９３之１號","OBJECTID":60886},"geometry":{"x":163572.79000000004,"y":2566847.0800000001}},{"attributes":{"ID":60887,"DIS_CODE":0,"TOWNNAME":"將軍區","LI":"忠興里","LIN":"8鄰","STREET":" ","SECT":" ","MAREA":"忠興","LANE":" ","ALLEY":" ","HOUSE_NO":"９３號","E_COORD97":163609.12,"N_COORD97":2566882.6600000001,"ADDRESS":"忠興９３號","OBJECTID":60887},"geometry":{"x":163609.12000000104,"y":2566882.660000002}},{"attributes":{"ID":60888,"DIS_CODE":0,"TOWNNAME":"將軍區","LI":"忠興里","LIN":"8鄰","STREET":" ","SECT":" ","MAREA":"忠興","LANE":" ","ALLEY":" ","HOUSE_NO":"９４之１號","E_COORD97":163563.48000000001,"N_COORD97":2566877.3799999999,"ADDRESS":"忠興９４之１號","OBJECTID":60888},"geometry":{"x":163563.48000000045,"y":2566877.379999999}},{"attributes":{"ID":60889,"DIS_CODE":0,"TOWNNAME":"將軍區","LI":"忠興里","LIN":"8鄰","STREET":" ","SECT":" ","MAREA":"忠興","LANE":" ","ALLEY":" ","HOUSE_NO":"９４之２號","E_COORD97":163543.04000000001,"N_COORD97":2566868.1200000001,"ADDRESS":"忠興９４之２號","OBJECTID":60889},"geometry":{"x":163543.04000000097,"y":2566868.120000001}},{"attributes":{"ID":60890,"DIS_CODE":0,"TOWNNAME":"將軍區","LI":"忠興里","LIN":"8鄰","STREET":" ","SECT":" ","MAREA":"忠興","LANE":" ","ALLEY":" ","HOUSE_NO":"９４號","E_COORD97":163586.22,"N_COORD97":2566874.1200000001,"ADDRESS":"忠興９４號","OBJECTID":60890},"geometry":{"x":163586.21999999974,"y":2566874.120000001}},{"attributes":{"ID":60891,"DIS_CODE":0,"TOWNNAME":"白河區","LI":"仙草里","LIN":"8鄰","STREET":" ","SECT":" ","MAREA":"岩前","LANE":" ","ALLEY":" ","HOUSE_NO":"１２號","E_COORD97":195899.59,"N_COORD97":2582133.1899999999,"ADDRESS":"岩前１２號","OBJECTID":60891},"geometry":{"x":195899.58999999985,"y":2582133.1899999995}},{"attributes":{"ID":60892,"DIS_CODE":0,"TOWNNAME":"白河區","LI":"仙草里","LIN":"8鄰","STREET":" ","SECT":" ","MAREA":"岩前","LANE":" ","ALLEY":" ","HOUSE_NO":"１０號","E_COORD97":195916.88,"N_COORD97":2582149.8199999998,"ADDRESS":"岩前１０號","OBJECTID":60892},"geometry":{"x":195916.88000000175,"y":2582149.8200000003}},{"attributes":{"ID":60893,"DIS_CODE":0,"TOWNNAME":"白河區","LI":"仙草里","LIN":"8鄰","STREET":" ","SECT":" ","MAREA":"岩前","LANE":" ","ALLEY":" ","HOUSE_NO":"１１之１號","E_COORD97":195887.73999999999,"N_COORD97":2582120.4900000002,"ADDRESS":"岩前１１之１號","OBJECTID":60893},"geometry":{"x":195887.74000000115,"y":2582120.4900000021}},{"attributes":{"ID":60894,"DIS_CODE":0,"TOWNNAME":"白河區","LI":"仙草里","LIN":"8鄰","STREET":" ","SECT":" ","MAREA":"岩前","LANE":" ","ALLEY":" ","HOUSE_NO":"１１號","E_COORD97":195864,"N_COORD97":2582119.6600000001,"ADDRESS":"岩前１１號","OBJECTID":60894},"geometry":{"x":195864.00000000093,"y":2582119.6600000001}},{"attributes":{"ID":60895,"DIS_CODE":0,"TOWNNAME":"白河區","LI":"仙草里","LIN":"8鄰","STREET":" ","SECT":" ","MAREA":"岩前","LANE":" ","ALLEY":" ","HOUSE_NO":"１２之１號","E_COORD97":195895.88,"N_COORD97":2582147.52,"ADDRESS":"岩前１２之１號","OBJECTID":60895},"geometry":{"x":195895.87999999989,"y":2582147.5199999996}},{"attributes":{"ID":60896,"DIS_CODE":0,"TOWNNAME":"白河區","LI":"仙草里","LIN":"8鄰","STREET":" ","SECT":" ","MAREA":"岩前","LANE":" ","ALLEY":" ","HOUSE_NO":"１３之２號","E_COORD97":195930.82999999999,"N_COORD97":2582189.2599999998,"ADDRESS":"岩前１３之２號","OBJECTID":60896},"geometry":{"x":195930.83000000194,"y":2582189.2600000016}},{"attributes":{"ID":60897,"DIS_CODE":0,"TOWNNAME":"白河區","LI":"仙草里","LIN":"8鄰","STREET":" ","SECT":" ","MAREA":"岩前","LANE":" ","ALLEY":" ","HOUSE_NO":"１３號","E_COORD97":195892.51999999999,"N_COORD97":2582161.7799999998,"ADDRESS":"岩前１３號","OBJECTID":60897},"geometry":{"x":195892.52000000048,"y":2582161.7799999993}},{"attributes":{"ID":60898,"DIS_CODE":0,"TOWNNAME":"白河區","LI":"仙草里","LIN":"8鄰","STREET":" ","SECT":" ","MAREA":"岩前","LANE":" ","ALLEY":" ","HOUSE_NO":"１４之２號","E_COORD97":195861.44,"N_COORD97":2582198.4300000002,"ADDRESS":"岩前１４之２號","OBJECTID":60898},"geometry":{"x":195861.44000000134,"y":2582198.4299999997}},{"attributes":{"ID":60899,"DIS_CODE":0,"TOWNNAME":"白河區","LI":"仙草里","LIN":"8鄰","STREET":" ","SECT":" ","MAREA":"岩前","LANE":" ","ALLEY":" ","HOUSE_NO":"１４之３號","E_COORD97":195836.51999999999,"N_COORD97":2582292.5899999999,"ADDRESS":"岩前１４之３號","OBJECTID":60899},"geometry":{"x":195836.52000000048,"y":2582292.5899999999}},{"attributes":{"ID":60900,"DIS_CODE":0,"TOWNNAME":"白河區","LI":"仙草里","LIN":"8鄰","STREET":" ","SECT":" ","MAREA":"岩前","LANE":" ","ALLEY":" ","HOUSE_NO":"１４號","E_COORD97":195896.64999999999,"N_COORD97":2582172.96,"ADDRESS":"岩前１４號","OBJECTID":60900},"geometry":{"x":195896.65000000037,"y":2582172.9600000009}},{"attributes":{"ID":60901,"DIS_CODE":0,"TOWNNAME":"白河區","LI":"仙草里","LIN":"8鄰","STREET":" ","SECT":" ","MAREA":"岩前","LANE":" ","ALLEY":" ","HOUSE_NO":"１５之２號","E_COORD97":195844.16,"N_COORD97":2582152.3900000001,"ADDRESS":"岩前１５之２號","OBJECTID":60901},"geometry":{"x":195844.16000000108,"y":2582152.3900000006}},{"attributes":{"ID":60902,"DIS_CODE":0,"TOWNNAME":"白河區","LI":"仙草里","LIN":"8鄰","STREET":" ","SECT":" ","MAREA":"岩前","LANE":" ","ALLEY":" ","HOUSE_NO":"１５號","E_COORD97":195864.47,"N_COORD97":2582129.8199999998,"ADDRESS":"岩前１５號","OBJECTID":60902},"geometry":{"x":195864.46999999974,"y":2582129.8200000003}},{"attributes":{"ID":60903,"DIS_CODE":0,"TOWNNAME":"白河區","LI":"仙草里","LIN":"8鄰","STREET":" ","SECT":" ","MAREA":"岩前","LANE":" ","ALLEY":" ","HOUSE_NO":"１６之１號","E_COORD97":195833.92999999999,"N_COORD97":2582134.7000000002,"ADDRESS":"岩前１６之１號","OBJECTID":60903},"geometry":{"x":195833.93000000063,"y":2582134.7000000011}},{"attributes":{"ID":60904,"DIS_CODE":0,"TOWNNAME":"白河區","LI":"仙草里","LIN":"8鄰","STREET":" ","SECT":" ","MAREA":"岩前","LANE":" ","ALLEY":" ","HOUSE_NO":"１６號","E_COORD97":195840.89000000001,"N_COORD97":2582141.9900000002,"ADDRESS":"岩前１６號","OBJECTID":60904},"geometry":{"x":195840.8900000006,"y":2582141.9900000002}},{"attributes":{"ID":60905,"DIS_CODE":0,"TOWNNAME":"白河區","LI":"仙草里","LIN":"8鄰","STREET":" ","SECT":" ","MAREA":"岩前","LANE":" ","ALLEY":" ","HOUSE_NO":"１７號","E_COORD97":195829.32999999999,"N_COORD97":2582122.0099999998,"ADDRESS":"岩前１７號","OBJECTID":60905},"geometry":{"x":195829.33000000101,"y":2582122.0100000016}},{"attributes":{"ID":60906,"DIS_CODE":0,"TOWNNAME":"白河區","LI":"仙草里","LIN":"8鄰","STREET":" ","SECT":" ","MAREA":"岩前","LANE":" ","ALLEY":" ","HOUSE_NO":"１之１號","E_COORD97":196292.57000000001,"N_COORD97":2582074.3300000001,"ADDRESS":"岩前１之１號","OBJECTID":60906},"geometry":{"x":196292.57000000123,"y":2582074.3300000001}},{"attributes":{"ID":60907,"DIS_CODE":0,"TOWNNAME":"白河區","LI":"仙草里","LIN":"8鄰","STREET":" ","SECT":" ","MAREA":"岩前","LANE":" ","ALLEY":" ","HOUSE_NO":"１之３號","E_COORD97":196255.29999999999,"N_COORD97":2582090.8100000001,"ADDRESS":"岩前１之３號","OBJECTID":60907},"geometry":{"x":196255.30000000075,"y":2582090.8100000024}},{"attributes":{"ID":60908,"DIS_CODE":0,"TOWNNAME":"白河區","LI":"仙草里","LIN":"8鄰","STREET":" ","SECT":" ","MAREA":"岩前","LANE":" ","ALLEY":" ","HOUSE_NO":"１之５號","E_COORD97":196206.70000000001,"N_COORD97":2582111.46,"ADDRESS":"岩前１之５號","OBJECTID":60908},"geometry":{"x":196206.70000000112,"y":2582111.4600000009}},{"attributes":{"ID":60909,"DIS_CODE":0,"TOWNNAME":"白河區","LI":"仙草里","LIN":"8鄰","STREET":" ","SECT":" ","MAREA":"岩前","LANE":" ","ALLEY":" ","HOUSE_NO":"１之６號","E_COORD97":196201.12,"N_COORD97":2582112.5600000001,"ADDRESS":"岩前１之６號","OBJECTID":60909},"geometry":{"x":196201.12000000011,"y":2582112.5600000024}},{"attributes":{"ID":60910,"DIS_CODE":0,"TOWNNAME":"白河區","LI":"草店里","LIN":"8鄰","STREET":" ","SECT":" ","MAREA":"草店","LANE":" ","ALLEY":" ","HOUSE_NO":"８６之２號","E_COORD97":191633.5,"N_COORD97":2587286.6099999999,"ADDRESS":"草店８６之２號","OBJECTID":60910},"geometry":{"x":191633.5,"y":2587286.6099999994}},{"attributes":{"ID":60911,"DIS_CODE":0,"TOWNNAME":"白河區","LI":"草店里","LIN":"8鄰","STREET":" ","SECT":" ","MAREA":"草店","LANE":" ","ALLEY":" ","HOUSE_NO":"８６號","E_COORD97":191634.19,"N_COORD97":2587259.9399999999,"ADDRESS":"草店８６號","OBJECTID":60911},"geometry":{"x":191634.19000000041,"y":2587259.9399999995}},{"attributes":{"ID":60912,"DIS_CODE":0,"TOWNNAME":"白河區","LI":"草店里","LIN":"8鄰","STREET":" ","SECT":" ","MAREA":"草店","LANE":" ","ALLEY":" ","HOUSE_NO":"８７號","E_COORD97":191641.57999999999,"N_COORD97":2587209.4199999999,"ADDRESS":"草店８７號","OBJECTID":60912},"geometry":{"x":191641.58000000007,"y":2587209.4200000018}},{"attributes":{"ID":60913,"DIS_CODE":0,"TOWNNAME":"白河區","LI":"草店里","LIN":"8鄰","STREET":" ","SECT":" ","MAREA":"草店","LANE":" ","ALLEY":" ","HOUSE_NO":"８８號","E_COORD97":191638.57999999999,"N_COORD97":2587201.3700000001,"ADDRESS":"草店８８號","OBJECTID":60913},"geometry":{"x":191638.57999999914,"y":2587201.370000001}},{"attributes":{"ID":60914,"DIS_CODE":0,"TOWNNAME":"白河區","LI":"草店里","LIN":"8鄰","STREET":" ","SECT":" ","MAREA":"草店","LANE":" ","ALLEY":" ","HOUSE_NO":"９０號","E_COORD97":191620.28,"N_COORD97":2587199.3599999999,"ADDRESS":"草店９０號","OBJECTID":60914},"geometry":{"x":191620.28000000026,"y":2587199.3599999994}},{"attributes":{"ID":60915,"DIS_CODE":0,"TOWNNAME":"白河區","LI":"草店里","LIN":"8鄰","STREET":" ","SECT":" ","MAREA":"草店","LANE":" ","ALLEY":" ","HOUSE_NO":"９１之１號","E_COORD97":191593.10999999999,"N_COORD97":2587180.3199999998,"ADDRESS":"草店９１之１號","OBJECTID":60915},"geometry":{"x":191593.11000000127,"y":2587180.3200000003}},{"attributes":{"ID":60916,"DIS_CODE":0,"TOWNNAME":"白河區","LI":"草店里","LIN":"8鄰","STREET":" ","SECT":" ","MAREA":"草店","LANE":" ","ALLEY":" ","HOUSE_NO":"９１號","E_COORD97":191603.95000000001,"N_COORD97":2587207.5600000001,"ADDRESS":"草店９１號","OBJECTID":60916},"geometry":{"x":191603.94999999925,"y":2587207.5600000042}},{"attributes":{"ID":60917,"DIS_CODE":0,"TOWNNAME":"白河區","LI":"草店里","LIN":"8鄰","STREET":" ","SECT":" ","MAREA":"草店","LANE":" ","ALLEY":" ","HOUSE_NO":"９２號","E_COORD97":191610.95999999999,"N_COORD97":2587169.3500000001,"ADDRESS":"草店９２號","OBJECTID":60917},"geometry":{"x":191610.96000000089,"y":2587169.3499999996}},{"attributes":{"ID":60918,"DIS_CODE":0,"TOWNNAME":"白河區","LI":"草店里","LIN":"8鄰","STREET":" ","SECT":" ","MAREA":"草店","LANE":" ","ALLEY":" ","HOUSE_NO":"９３之１號","E_COORD97":191593.17000000001,"N_COORD97":2587153.7799999998,"ADDRESS":"草店９３之１號","OBJECTID":60918},"geometry":{"x":191593.16999999993,"y":2587153.7799999975}},{"attributes":{"ID":60919,"DIS_CODE":0,"TOWNNAME":"白河區","LI":"草店里","LIN":"8鄰","STREET":" ","SECT":" ","MAREA":"草店","LANE":" ","ALLEY":" ","HOUSE_NO":"９３之２號","E_COORD97":191553.04000000001,"N_COORD97":2587157.6499999999,"ADDRESS":"草店９３之２號","OBJECTID":60919},"geometry":{"x":191553.04000000097,"y":2587157.6500000022}},{"attributes":{"ID":60920,"DIS_CODE":0,"TOWNNAME":"白河區","LI":"草店里","LIN":"8鄰","STREET":" ","SECT":" ","MAREA":"草店","LANE":" ","ALLEY":" ","HOUSE_NO":"９３之３號","E_COORD97":191544.14000000001,"N_COORD97":2587191.4900000002,"ADDRESS":"草店９３之３號","OBJECTID":60920},"geometry":{"x":191544.13999999966,"y":2587191.4900000021}},{"attributes":{"ID":60921,"DIS_CODE":0,"TOWNNAME":"白河區","LI":"草店里","LIN":"8鄰","STREET":" ","SECT":" ","MAREA":"草店","LANE":" ","ALLEY":" ","HOUSE_NO":"９３號","E_COORD97":191625.37,"N_COORD97":2587162.7999999998,"ADDRESS":"草店９３號","OBJECTID":60921},"geometry":{"x":191625.37000000104,"y":2587162.8000000026}},{"attributes":{"ID":60922,"DIS_CODE":0,"TOWNNAME":"白河區","LI":"草店里","LIN":"8鄰","STREET":" ","SECT":" ","MAREA":"草店","LANE":" ","ALLEY":" ","HOUSE_NO":"９５號","E_COORD97":191599.16,"N_COORD97":2587127.8999999999,"ADDRESS":"草店９５號","OBJECTID":60922},"geometry":{"x":191599.16000000201,"y":2587127.9000000022}},{"attributes":{"ID":60923,"DIS_CODE":0,"TOWNNAME":"白河區","LI":"草店里","LIN":"8鄰","STREET":" ","SECT":" ","MAREA":"草店","LANE":" ","ALLEY":" ","HOUSE_NO":"９６之１號","E_COORD97":191603.98999999999,"N_COORD97":2587106.8300000001,"ADDRESS":"草店９６之１號","OBJECTID":60923},"geometry":{"x":191603.99000000115,"y":2587106.8299999982}},{"attributes":{"ID":60924,"DIS_CODE":0,"TOWNNAME":"白河區","LI":"草店里","LIN":"8鄰","STREET":" ","SECT":" ","MAREA":"草店","LANE":" ","ALLEY":" ","HOUSE_NO":"９６之２號","E_COORD97":191579.42999999999,"N_COORD97":2586985.7000000002,"ADDRESS":"草店９６之２號","OBJECTID":60924},"geometry":{"x":191579.4299999997,"y":2586985.7000000011}},{"attributes":{"ID":60925,"DIS_CODE":0,"TOWNNAME":"安定區","LI":"新吉里","LIN":"8鄰","STREET":" ","SECT":" ","MAREA":"新吉","LANE":" ","ALLEY":" ","HOUSE_NO":"７１號之１０","E_COORD97":169167,"N_COORD97":2554010.2999999998,"ADDRESS":"新吉７１號之１０","OBJECTID":60925},"geometry":{"x":169167,"y":2554010.3000000007}},{"attributes":{"ID":60926,"DIS_CODE":0,"TOWNNAME":"南化區","LI":"北寮里","LIN":"1鄰","STREET":" ","SECT":" ","MAREA":"北寮","LANE":" ","ALLEY":" ","HOUSE_NO":"１之５２號","E_COORD97":198289.79000000001,"N_COORD97":2552685.7999999998,"ADDRESS":"北寮１之５２號","OBJECTID":60926},"geometry":{"x":198289.79000000097,"y":2552685.8000000026}},{"attributes":{"ID":60927,"DIS_CODE":0,"TOWNNAME":"南化區","LI":"北寮里","LIN":"1鄰","STREET":" ","SECT":" ","MAREA":"北寮","LANE":" ","ALLEY":" ","HOUSE_NO":"１之１４號","E_COORD97":197976.79000000001,"N_COORD97":2552921.7999999998,"ADDRESS":"北寮１之１４號","OBJECTID":60927},"geometry":{"x":197976.79000000004,"y":2552921.8000000007}},{"attributes":{"ID":60928,"DIS_CODE":0,"TOWNNAME":"南化區","LI":"北寮里","LIN":"1鄰","STREET":" ","SECT":" ","MAREA":"北寮","LANE":" ","ALLEY":" ","HOUSE_NO":"１之７號","E_COORD97":197932.94,"N_COORD97":2552952.7999999998,"ADDRESS":"北寮１之７號","OBJECTID":60928},"geometry":{"x":197932.94000000134,"y":2552952.8000000007}},{"attributes":{"ID":60929,"DIS_CODE":0,"TOWNNAME":"六甲區","LI":"甲東里","LIN":" ","STREET":"曾文街","SECT":" ","MAREA":" ","LANE":" ","ALLEY":" ","HOUSE_NO":"６２號","E_COORD97":184148.48000000001,"N_COORD97":2570232.1499999999,"ADDRESS":"曾文街６２號","OBJECTID":60929},"geometry":{"x":184148.48000000045,"y":2570232.1500000022}},{"attributes":{"ID":60930,"DIS_CODE":0,"TOWNNAME":"六甲區","LI":"二甲里","LIN":" ","STREET":"進化街","SECT":" ","MAREA":" ","LANE":" ","ALLEY":" ","HOUSE_NO":"５１號","E_COORD97":183027.92999999999,"N_COORD97":2569386.3500000001,"ADDRESS":"進化街５１號","OBJECTID":60930},"geometry":{"x":183027.93000000063,"y":2569386.3500000015}},{"attributes":{"ID":60931,"DIS_CODE":0,"TOWNNAME":"白河區","LI":"詔安里","LIN":"8鄰","STREET":" ","SECT":" ","MAREA":"詔安厝","LANE":" ","ALLEY":" ","HOUSE_NO":"１００之１號","E_COORD97":189834.73000000001,"N_COORD97":2587821.3700000001,"ADDRESS":"詔安厝１００之１號","OBJECTID":60931},"geometry":{"x":189834.73000000138,"y":2587821.3700000029}},{"attributes":{"ID":60932,"DIS_CODE":0,"TOWNNAME":"永康區","LI":"北灣里","LIN":"35鄰","STREET":"大灣路","SECT":" ","MAREA":" ","LANE":"４０巷","ALLEY":"８６弄","HOUSE_NO":"８號","E_COORD97":175011.60999999999,"N_COORD97":2546194.8300000001,"ADDRESS":"大灣路４０巷８６弄８號","OBJECTID":60932},"geometry":{"x":175011.61000000034,"y":2546194.8300000001}},{"attributes":{"ID":60933,"DIS_CODE":0,"TOWNNAME":"永康區","LI":"北灣里","LIN":"35鄰","STREET":"大灣路","SECT":" ","MAREA":" ","LANE":"４０巷","ALLEY":"５８弄","HOUSE_NO":"３號之２","E_COORD97":175091.69,"N_COORD97":2546108.9199999999,"ADDRESS":"大灣路４０巷５８弄３號之２","OBJECTID":60933},"geometry":{"x":175091.69000000134,"y":2546108.9199999999}},{"attributes":{"ID":60934,"DIS_CODE":0,"TOWNNAME":"永康區","LI":"北灣里","LIN":"35鄰","STREET":"大灣路","SECT":" ","MAREA":" ","LANE":"４０巷","ALLEY":"５８弄","HOUSE_NO":"１２號之２","E_COORD97":175158.70999999999,"N_COORD97":2546157.77,"ADDRESS":"大灣路４０巷５８弄１２號之２","OBJECTID":60934},"geometry":{"x":175158.71000000183,"y":2546157.7700000033}},{"attributes":{"ID":60935,"DIS_CODE":0,"TOWNNAME":"玉井區","LI":"三埔里","LIN":"8鄰","STREET":" ","SECT":" ","MAREA":"三埔","LANE":" ","ALLEY":" ","HOUSE_NO":"８７號","E_COORD97":198501.14000000001,"N_COORD97":2554787.2400000002,"ADDRESS":"三埔８７號","OBJECTID":60935},"geometry":{"x":198501.13999999966,"y":2554787.2400000039}},{"attributes":{"ID":60936,"DIS_CODE":0,"TOWNNAME":"關廟區","LI":"埤頭里","LIN":"1鄰","STREET":"關新路","SECT":"一段","MAREA":" ","LANE":" ","ALLEY":" ","HOUSE_NO":"７４５號","E_COORD97":179123.37,"N_COORD97":2543693.2999999998,"ADDRESS":"關新路一段７４５號","OBJECTID":60936},"geometry":{"x":179123.37000000104,"y":2543693.3000000007}},{"attributes":{"ID":60937,"DIS_CODE":0,"TOWNNAME":"關廟區","LI":"埤頭里","LIN":"1鄰","STREET":"關新路","SECT":"一段","MAREA":" ","LANE":" ","ALLEY":" ","HOUSE_NO":"７４１號","E_COORD97":179124.47,"N_COORD97":2543686.2999999998,"ADDRESS":"關新路一段７４１號","OBJECTID":60937},"geometry":{"x":179124.46999999974,"y":2543686.3000000007}},{"attributes":{"ID":60938,"DIS_CODE":0,"TOWNNAME":"永康區","LI":"北灣里","LIN":"35鄰","STREET":"大灣路","SECT":" ","MAREA":" ","LANE":"４０巷","ALLEY":"５８弄","HOUSE_NO":"５９號之１","E_COORD97":175113.35999999999,"N_COORD97":2546162.3599999999,"ADDRESS":"大灣路４０巷５８弄５９號之１","OBJECTID":60938},"geometry":{"x":175113.36000000034,"y":2546162.3599999994}},{"attributes":{"ID":60939,"DIS_CODE":0,"TOWNNAME":"永康區","LI":"北灣里","LIN":"35鄰","STREET":"大灣路","SECT":" ","MAREA":" ","LANE":"４０巷","ALLEY":"５８弄","HOUSE_NO":"５３號之１","E_COORD97":175125.59,"N_COORD97":2546150.3599999999,"ADDRESS":"大灣路４０巷５８弄５３號之１","OBJECTID":60939},"geometry":{"x":175125.59000000171,"y":2546150.3600000031}},{"attributes":{"ID":60940,"DIS_CODE":0,"TOWNNAME":"永康區","LI":"北灣里","LIN":"35鄰","STREET":"大灣路","SECT":" ","MAREA":" ","LANE":"４０巷","ALLEY":"５８弄","HOUSE_NO":"２７號之１","E_COORD97":175112.79000000001,"N_COORD97":2546129.9199999999,"ADDRESS":"大灣路４０巷５８弄２７號之１","OBJECTID":60940},"geometry":{"x":175112.79000000097,"y":2546129.9199999981}},{"attributes":{"ID":60941,"DIS_CODE":0,"TOWNNAME":"永康區","LI":"北灣里","LIN":"35鄰","STREET":"大灣路","SECT":" ","MAREA":" ","LANE":"４０巷","ALLEY":"５８弄","HOUSE_NO":"４５號之１","E_COORD97":175107.89000000001,"N_COORD97":2546148.3599999999,"ADDRESS":"大灣路４０巷５８弄４５號之１","OBJECTID":60941},"geometry":{"x":175107.88999999966,"y":2546148.3600000013}},{"attributes":{"ID":60942,"DIS_CODE":0,"TOWNNAME":"永康區","LI":"北灣里","LIN":"35鄰","STREET":"大灣路","SECT":" ","MAREA":" ","LANE":"４０巷","ALLEY":"５８弄","HOUSE_NO":"２１號之２","E_COORD97":175094.16,"N_COORD97":2546135.9199999999,"ADDRESS":"大灣路４０巷５８弄２１號之２","OBJECTID":60942},"geometry":{"x":175094.16000000015,"y":2546135.9199999999}},{"attributes":{"ID":60943,"DIS_CODE":0,"TOWNNAME":"白河區","LI":"詔安里","LIN":"8鄰","STREET":" ","SECT":" ","MAREA":"詔安厝","LANE":" ","ALLEY":" ","HOUSE_NO":"１００號","E_COORD97":189843.62,"N_COORD97":2587812.8500000001,"ADDRESS":"詔安厝１００號","OBJECTID":60943},"geometry":{"x":189843.62000000104,"y":2587812.8500000015}},{"attributes":{"ID":60944,"DIS_CODE":0,"TOWNNAME":"白河區","LI":"詔安里","LIN":"8鄰","STREET":" ","SECT":" ","MAREA":"詔安厝","LANE":" ","ALLEY":" ","HOUSE_NO":"１０１之１號","E_COORD97":189699.12,"N_COORD97":2587742.6099999999,"ADDRESS":"詔安厝１０１之１號","OBJECTID":60944},"geometry":{"x":189699.12000000197,"y":2587742.6100000013}},{"attributes":{"ID":60945,"DIS_CODE":0,"TOWNNAME":"白河區","LI":"詔安里","LIN":"8鄰","STREET":" ","SECT":" ","MAREA":"詔安厝","LANE":" ","ALLEY":" ","HOUSE_NO":"１０１之２號","E_COORD97":189636.03,"N_COORD97":2587692.04,"ADDRESS":"詔安厝１０１之２號","OBJECTID":60945},"geometry":{"x":189636.03000000119,"y":2587692.040000001}},{"attributes":{"ID":60946,"DIS_CODE":0,"TOWNNAME":"白河區","LI":"詔安里","LIN":"8鄰","STREET":" ","SECT":" ","MAREA":"詔安厝","LANE":" ","ALLEY":" ","HOUSE_NO":"１０１號","E_COORD97":189737.75,"N_COORD97":2587740.6499999999,"ADDRESS":"詔安厝１０１號","OBJECTID":60946},"geometry":{"x":189737.75000000093,"y":2587740.6500000022}},{"attributes":{"ID":60947,"DIS_CODE":0,"TOWNNAME":"白河區","LI":"永安里","LIN":"8鄰","STREET":"富民路","SECT":" ","MAREA":" ","LANE":" ","ALLEY":" ","HOUSE_NO":"３５８號","E_COORD97":189613.76000000001,"N_COORD97":2582866.6200000001,"ADDRESS":"富民路３５８號","OBJECTID":60947},"geometry":{"x":189613.76000000071,"y":2582866.620000001}},{"attributes":{"ID":60948,"DIS_CODE":0,"TOWNNAME":"白河區","LI":"永安里","LIN":"8鄰","STREET":"富民路","SECT":" ","MAREA":" ","LANE":" ","ALLEY":" ","HOUSE_NO":"３６０號","E_COORD97":189612.88,"N_COORD97":2582870.3399999999,"ADDRESS":"富民路３６０號","OBJECTID":60948},"geometry":{"x":189612.88000000082,"y":2582870.3400000017}},{"attributes":{"ID":60949,"DIS_CODE":0,"TOWNNAME":"白河區","LI":"永安里","LIN":"8鄰","STREET":"富民路","SECT":" ","MAREA":" ","LANE":" ","ALLEY":" ","HOUSE_NO":"３６２號","E_COORD97":189612.12,"N_COORD97":2582874.1499999999,"ADDRESS":"富民路３６２號","OBJECTID":60949},"geometry":{"x":189612.12000000011,"y":2582874.1500000041}},{"attributes":{"ID":60950,"DIS_CODE":0,"TOWNNAME":"白河區","LI":"永安里","LIN":"8鄰","STREET":"富民路","SECT":" ","MAREA":" ","LANE":" ","ALLEY":" ","HOUSE_NO":"３６４號","E_COORD97":189611.56,"N_COORD97":2582878.5699999998,"ADDRESS":"富民路３６４號","OBJECTID":60950},"geometry":{"x":189611.56000000052,"y":2582878.5700000022}},{"attributes":{"ID":60951,"DIS_CODE":0,"TOWNNAME":"新營區","LI":"新北里","LIN":"17鄰","STREET":"南新街","SECT":" ","MAREA":" ","LANE":" ","ALLEY":" ","HOUSE_NO":"９５號","E_COORD97":179200.37,"N_COORD97":2578877.7400000002,"ADDRESS":"南新街９５號","OBJECTID":60951},"geometry":{"x":179200.37000000011,"y":2578877.7400000002}},{"attributes":{"ID":60952,"DIS_CODE":0,"TOWNNAME":"新營區","LI":"民榮里","LIN":"17鄰","STREET":"富強街","SECT":" ","MAREA":" ","LANE":" ","ALLEY":" ","HOUSE_NO":"３６號","E_COORD97":178985.66,"N_COORD97":2577803.4399999999,"ADDRESS":"富強街３６號","OBJECTID":60952},"geometry":{"x":178985.66000000108,"y":2577803.4400000013}},{"attributes":{"ID":60953,"DIS_CODE":0,"TOWNNAME":"仁德區","LI":"中生里","LIN":"1鄰","STREET":" ","SECT":" ","MAREA":"中洲","LANE":" ","ALLEY":" ","HOUSE_NO":"７６之１２１號","E_COORD97":171780.751476,"N_COORD97":2535120.5008700001,"ADDRESS":"中洲７６之１２１號","OBJECTID":60953},"geometry":{"x":171780.75147600006,"y":2535120.5008690003}},{"attributes":{"ID":60954,"DIS_CODE":0,"TOWNNAME":"麻豆區","LI":"謝安里","LIN":"8鄰","STREET":" ","SECT":" ","MAREA":"謝厝寮","LANE":" ","ALLEY":" ","HOUSE_NO":"２０７號之３","E_COORD97":171771.06,"N_COORD97":2561133.5800000001,"ADDRESS":"謝厝寮２０７號之３","OBJECTID":60954},"geometry":{"x":171771.06000000052,"y":2561133.5800000001}},{"attributes":{"ID":60955,"DIS_CODE":0,"TOWNNAME":"佳里區","LI":"三協里","LIN":"1鄰","STREET":" ","SECT":" ","MAREA":"菜寮","LANE":" ","ALLEY":" ","HOUSE_NO":"３號之２","E_COORD97":167796.85000000001,"N_COORD97":2563716.52,"ADDRESS":"菜寮３號之２","OBJECTID":60955},"geometry":{"x":167796.85000000149,"y":2563716.5200000014}},{"attributes":{"ID":60956,"DIS_CODE":0,"TOWNNAME":"麻豆區","LI":"謝安里","LIN":"8鄰","STREET":" ","SECT":" ","MAREA":"謝厝寮","LANE":" ","ALLEY":" ","HOUSE_NO":"２０８號之１","E_COORD97":171786.98999999999,"N_COORD97":2561121.2400000002,"ADDRESS":"謝厝寮２０８號之１","OBJECTID":60956},"geometry":{"x":171786.98999999929,"y":2561121.2400000021}},{"attributes":{"ID":60957,"DIS_CODE":0,"TOWNNAME":"麻豆區","LI":"謝安里","LIN":"8鄰","STREET":" ","SECT":" ","MAREA":"謝厝寮","LANE":" ","ALLEY":" ","HOUSE_NO":"２０８號","E_COORD97":171784.25,"N_COORD97":2561129.1400000001,"ADDRESS":"謝厝寮２０８號","OBJECTID":60957},"geometry":{"x":171784.25,"y":2561129.1400000025}},{"attributes":{"ID":60958,"DIS_CODE":0,"TOWNNAME":"安定區","LI":"安定里","LIN":"8鄰","STREET":" ","SECT":" ","MAREA":"安定","LANE":" ","ALLEY":" ","HOUSE_NO":"５８號之５５","E_COORD97":171922.60999999999,"N_COORD97":2557986.3199999998,"ADDRESS":"安定５８號之５５","OBJECTID":60958},"geometry":{"x":171922.61000000127,"y":2557986.3200000003}},{"attributes":{"ID":60959,"DIS_CODE":0,"TOWNNAME":"安定區","LI":"新吉里","LIN":"8鄰","STREET":" ","SECT":" ","MAREA":"新吉","LANE":" ","ALLEY":" ","HOUSE_NO":"７１號之８","E_COORD97":169167.04999999999,"N_COORD97":2554001.2999999998,"ADDRESS":"新吉７１號之８","OBJECTID":60959},"geometry":{"x":169167.04999999888,"y":2554001.3000000026}},{"attributes":{"ID":60960,"DIS_CODE":0,"TOWNNAME":"麻豆區","LI":"總榮里","LIN":"8鄰","STREET":" ","SECT":" ","MAREA":"總爺\u25A0","LANE":" ","ALLEY":" ","HOUSE_NO":"７３號之１","E_COORD97":175059.47,"N_COORD97":2564507.0600000001,"ADDRESS":"總爺\u25A0７３號之１","OBJECTID":60960},"geometry":{"x":175059.46999999974,"y":2564507.0600000024}},{"attributes":{"ID":60961,"DIS_CODE":0,"TOWNNAME":"麻豆區","LI":"中民里","LIN":"8鄰","STREET":" ","SECT":" ","MAREA":"謝厝寮","LANE":" ","ALLEY":" ","HOUSE_NO":"１６０號之１","E_COORD97":171713.17000000001,"N_COORD97":2561126.2999999998,"ADDRESS":"謝厝寮１６０號之１","OBJECTID":60961},"geometry":{"x":171713.17000000086,"y":2561126.3000000007}},{"attributes":{"ID":60962,"DIS_CODE":0,"TOWNNAME":"麻豆區","LI":"中民里","LIN":"8鄰","STREET":" ","SECT":" ","MAREA":"謝厝寮","LANE":" ","ALLEY":" ","HOUSE_NO":"１６０號之２","E_COORD97":171716.10000000001,"N_COORD97":2561129.1499999999,"ADDRESS":"謝厝寮１６０號之２","OBJECTID":60962},"geometry":{"x":171716.0999999987,"y":2561129.1500000022}},{"attributes":{"ID":60963,"DIS_CODE":0,"TOWNNAME":"麻豆區","LI":"中民里","LIN":"8鄰","STREET":" ","SECT":" ","MAREA":"謝厝寮","LANE":" ","ALLEY":" ","HOUSE_NO":"１６０號之３","E_COORD97":171719.04000000001,"N_COORD97":2561132,"ADDRESS":"謝厝寮１６０號之３","OBJECTID":60963},"geometry":{"x":171719.04000000097,"y":2561132.0000000037}},{"attributes":{"ID":60964,"DIS_CODE":0,"TOWNNAME":"麻豆區","LI":"中民里","LIN":"8鄰","STREET":" ","SECT":" ","MAREA":"謝厝寮","LANE":" ","ALLEY":" ","HOUSE_NO":"１６０號之４","E_COORD97":171721.97,"N_COORD97":2561134.8399999999,"ADDRESS":"謝厝寮１６０號之４","OBJECTID":60964},"geometry":{"x":171721.96999999974,"y":2561134.8399999999}},{"attributes":{"ID":60965,"DIS_CODE":0,"TOWNNAME":"麻豆區","LI":"中民里","LIN":"8鄰","STREET":" ","SECT":" ","MAREA":"謝厝寮","LANE":" ","ALLEY":" ","HOUSE_NO":"１６０號之５","E_COORD97":171724.91,"N_COORD97":2561137.6899999999,"ADDRESS":"謝厝寮１６０號之５","OBJECTID":60965},"geometry":{"x":171724.91000000201,"y":2561137.6900000013}},{"attributes":{"ID":60966,"DIS_CODE":0,"TOWNNAME":"麻豆區","LI":"中民里","LIN":"8鄰","STREET":" ","SECT":" ","MAREA":"謝厝寮","LANE":" ","ALLEY":" ","HOUSE_NO":"１６０號之６","E_COORD97":171727.84,"N_COORD97":2561140.5299999998,"ADDRESS":"謝厝寮１６０號之６","OBJECTID":60966},"geometry":{"x":171727.83999999985,"y":2561140.5299999993}},{"attributes":{"ID":60967,"DIS_CODE":0,"TOWNNAME":"麻豆區","LI":"中民里","LIN":"8鄰","STREET":" ","SECT":" ","MAREA":"謝厝寮","LANE":" ","ALLEY":" ","HOUSE_NO":"１６２號之１","E_COORD97":171719.60000000001,"N_COORD97":2561180.2799999998,"ADDRESS":"謝厝寮１６２號之１","OBJECTID":60967},"geometry":{"x":171719.60000000149,"y":2561180.2800000031}},{"attributes":{"ID":60968,"DIS_CODE":0,"TOWNNAME":"永康區","LI":"北灣里","LIN":"35鄰","STREET":"大灣路","SECT":" ","MAREA":" ","LANE":"４０巷","ALLEY":"５８弄","HOUSE_NO":"１９號之１","E_COORD97":175094.98999999999,"N_COORD97":2546127.6699999999,"ADDRESS":"大灣路４０巷５８弄１９號之１","OBJECTID":60968},"geometry":{"x":175094.99000000115,"y":2546127.6699999999}},{"attributes":{"ID":60969,"DIS_CODE":0,"TOWNNAME":"永康區","LI":"北灣里","LIN":"35鄰","STREET":"大灣路","SECT":" ","MAREA":" ","LANE":"４０巷","ALLEY":"５８弄","HOUSE_NO":"２１號之１","E_COORD97":175090.70999999999,"N_COORD97":2546132.4199999999,"ADDRESS":"大灣路４０巷５８弄２１號之１","OBJECTID":60969},"geometry":{"x":175090.70999999996,"y":2546132.4199999999}},{"attributes":{"ID":60970,"DIS_CODE":0,"TOWNNAME":"永康區","LI":"北灣里","LIN":"35鄰","STREET":"大灣路","SECT":" ","MAREA":" ","LANE":"４０巷","ALLEY":"５８弄","HOUSE_NO":"７號之１","E_COORD97":175086.39999999999,"N_COORD97":2546120.6699999999,"ADDRESS":"大灣路４０巷５８弄７號之１","OBJECTID":60970},"geometry":{"x":175086.40000000037,"y":2546120.6699999999}},{"attributes":{"ID":60971,"DIS_CODE":0,"TOWNNAME":"將軍區","LI":"苓和里","LIN":"6鄰","STREET":" ","SECT":" ","MAREA":"苓和","LANE":" ","ALLEY":" ","HOUSE_NO":"５９號","E_COORD97":164550.01000000001,"N_COORD97":2568933.5699999998,"ADDRESS":"苓和５９號","OBJECTID":60971},"geometry":{"x":164550.01000000071,"y":2568933.5700000022}},{"attributes":{"ID":60972,"DIS_CODE":0,"TOWNNAME":"麻豆區","LI":"中民里","LIN":"8鄰","STREET":" ","SECT":" ","MAREA":"謝厝寮","LANE":" ","ALLEY":" ","HOUSE_NO":"１６３號之３","E_COORD97":171700.67000000001,"N_COORD97":2561202.27,"ADDRESS":"謝厝寮１６３號之３","OBJECTID":60972},"geometry":{"x":171700.66999999899,"y":2561202.2700000014}},{"attributes":{"ID":60973,"DIS_CODE":0,"TOWNNAME":"麻豆區","LI":"中民里","LIN":"8鄰","STREET":" ","SECT":" ","MAREA":"謝厝寮","LANE":" ","ALLEY":" ","HOUSE_NO":"１６３號之４","E_COORD97":171698.09,"N_COORD97":2561205.52,"ADDRESS":"謝厝寮１６３號之４","OBJECTID":60973},"geometry":{"x":171698.09000000078,"y":2561205.5199999996}},{"attributes":{"ID":60974,"DIS_CODE":0,"TOWNNAME":"麻豆區","LI":"中民里","LIN":"8鄰","STREET":" ","SECT":" ","MAREA":"謝厝寮","LANE":" ","ALLEY":" ","HOUSE_NO":"１６３號之５","E_COORD97":171691.76000000001,"N_COORD97":2561213.04,"ADDRESS":"謝厝寮１６３號之５","OBJECTID":60974},"geometry":{"x":171691.76000000071,"y":2561213.040000001}},{"attributes":{"ID":60975,"DIS_CODE":0,"TOWNNAME":"麻豆區","LI":"中民里","LIN":"8鄰","STREET":" ","SECT":" ","MAREA":"謝厝寮","LANE":" ","ALLEY":" ","HOUSE_NO":"１６３號之７","E_COORD97":171688.26000000001,"N_COORD97":2561220.1099999999,"ADDRESS":"謝厝寮１６３號之７","OBJECTID":60975},"geometry":{"x":171688.26000000164,"y":2561220.1100000013}},{"attributes":{"ID":60976,"DIS_CODE":0,"TOWNNAME":"南化區","LI":"北寮里","LIN":"1鄰","STREET":" ","SECT":" ","MAREA":"北寮","LANE":" ","ALLEY":" ","HOUSE_NO":"１之１９號","E_COORD97":198007.79000000001,"N_COORD97":2552901.7999999998,"ADDRESS":"北寮１之１９號","OBJECTID":60976},"geometry":{"x":198007.7900000019,"y":2552901.8000000007}},{"attributes":{"ID":60977,"DIS_CODE":0,"TOWNNAME":"南化區","LI":"小崙里","LIN":"1鄰","STREET":" ","SECT":" ","MAREA":"小崙","LANE":" ","ALLEY":" ","HOUSE_NO":"１之３２號","E_COORD97":196866.07000000001,"N_COORD97":2549505.7999999998,"ADDRESS":"小崙１之３２號","OBJECTID":60977},"geometry":{"x":196866.07000000123,"y":2549505.8000000026}},{"attributes":{"ID":60978,"DIS_CODE":0,"TOWNNAME":"永康區","LI":"\u25A0洲里","LIN":"35鄰","STREET":"洲尾街","SECT":" ","MAREA":" ","LANE":"１９１巷","ALLEY":"４弄","HOUSE_NO":"１號","E_COORD97":170858.31,"N_COORD97":2548989,"ADDRESS":"洲尾街１９１巷４弄１號","OBJECTID":60978},"geometry":{"x":170858.30999999959,"y":2548989.0000000019}},{"attributes":{"ID":60979,"DIS_CODE":0,"TOWNNAME":"永康區","LI":"埔園里","LIN":"35鄰","STREET":"永大路","SECT":"三段","MAREA":" ","LANE":"４５０巷","ALLEY":"２弄","HOUSE_NO":"１８號","E_COORD97":174146.38,"N_COORD97":2548365.2400000002,"ADDRESS":"永大路三段４５０巷２弄１８號","OBJECTID":60979},"geometry":{"x":174146.37999999989,"y":2548365.2400000002}},{"attributes":{"ID":60980,"DIS_CODE":0,"TOWNNAME":"永康區","LI":"埔園里","LIN":"35鄰","STREET":"永大路","SECT":"三段","MAREA":" ","LANE":"４５０巷","ALLEY":"２弄","HOUSE_NO":"１１號","E_COORD97":174177.01999999999,"N_COORD97":2548361.75,"ADDRESS":"永大路三段４５０巷２弄１１號","OBJECTID":60980},"geometry":{"x":174177.02000000048,"y":2548361.75}},{"attributes":{"ID":60981,"DIS_CODE":0,"TOWNNAME":"永康區","LI":"東灣里","LIN":"35鄰","STREET":"民族路","SECT":" ","MAREA":" ","LANE":"２７３巷","ALLEY":"２３弄","HOUSE_NO":"１７號","E_COORD97":175116.04999999999,"N_COORD97":2544925.1099999999,"ADDRESS":"民族路２７３巷２３弄１７號","OBJECTID":60981},"geometry":{"x":175116.05000000075,"y":2544925.1100000013}},{"attributes":{"ID":60982,"DIS_CODE":0,"TOWNNAME":"永康區","LI":"復華里","LIN":"35鄰","STREET":"復華七街","SECT":" ","MAREA":" ","LANE":"３９巷","ALLEY":"４弄","HOUSE_NO":"１６號","E_COORD97":172649.75,"N_COORD97":2546060.0299999998,"ADDRESS":"復華七街３９巷４弄１６號","OBJECTID":60982},"geometry":{"x":172649.75000000186,"y":2546060.0299999993}},{"attributes":{"ID":60983,"DIS_CODE":0,"TOWNNAME":"永康區","LI":"\u25A0洲里","LIN":"35鄰","STREET":"洲尾街","SECT":" ","MAREA":" ","LANE":"１９１巷","ALLEY":"４弄","HOUSE_NO":"５號","E_COORD97":170860.31,"N_COORD97":2549006.7599999998,"ADDRESS":"洲尾街１９１巷４弄５號","OBJECTID":60983},"geometry":{"x":170860.31000000145,"y":2549006.7600000016}},{"attributes":{"ID":60984,"DIS_CODE":0,"TOWNNAME":"永康區","LI":"復華里","LIN":"35鄰","STREET":"復華七街","SECT":" ","MAREA":" ","LANE":"３９巷","ALLEY":"４弄","HOUSE_NO":"２號","E_COORD97":172625.23999999999,"N_COORD97":2546040.79,"ADDRESS":"復華七街３９巷４弄２號","OBJECTID":60984},"geometry":{"x":172625.24000000115,"y":2546040.7899999991}},{"attributes":{"ID":60985,"DIS_CODE":0,"TOWNNAME":"歸仁區","LI":"辜厝里","LIN":"35鄰","STREET":"大吉二街","SECT":" ","MAREA":" ","LANE":"２６巷","ALLEY":"６８弄","HOUSE_NO":"９號","E_COORD97":177233.19,"N_COORD97":2540404.6800000002,"ADDRESS":"大吉二街２６巷６８弄９號","OBJECTID":60985},"geometry":{"x":177233.19000000134,"y":2540404.6799999997}},{"attributes":{"ID":60986,"DIS_CODE":0,"TOWNNAME":"歸仁區","LI":"辜厝里","LIN":"35鄰","STREET":"大吉二街","SECT":" ","MAREA":" ","LANE":"２６巷","ALLEY":"６８弄","HOUSE_NO":"７號","E_COORD97":177237.29000000001,"N_COORD97":2540406.6800000002,"ADDRESS":"大吉二街２６巷６８弄７號","OBJECTID":60986},"geometry":{"x":177237.29000000097,"y":2540406.6800000016}},{"attributes":{"ID":60987,"DIS_CODE":0,"TOWNNAME":"永康區","LI":"埔園里","LIN":"38鄰","STREET":"龍國街","SECT":" ","MAREA":" ","LANE":"１２８巷","ALLEY":"１９弄","HOUSE_NO":"２７號","E_COORD97":174283.41,"N_COORD97":2548024.4900000002,"ADDRESS":"龍國街１２８巷１９弄２７號","OBJECTID":60987},"geometry":{"x":174283.41000000108,"y":2548024.4900000002}},{"attributes":{"ID":60988,"DIS_CODE":0,"TOWNNAME":"永康區","LI":"北灣里","LIN":"35鄰","STREET":"大灣路","SECT":" ","MAREA":" ","LANE":"４０巷","ALLEY":"５８弄","HOUSE_NO":"２４號之２","E_COORD97":175138.26000000001,"N_COORD97":2546176.27,"ADDRESS":"大灣路４０巷５８弄２４號之２","OBJECTID":60988},"geometry":{"x":175138.26000000071,"y":2546176.2700000014}},{"attributes":{"ID":60989,"DIS_CODE":0,"TOWNNAME":"柳營區","LI":"太康里","LIN":"8鄰","STREET":" ","SECT":" ","MAREA":"太康","LANE":" ","ALLEY":" ","HOUSE_NO":"７３號","E_COORD97":181553.03,"N_COORD97":2576464.23,"ADDRESS":"太康７３號","OBJECTID":60989},"geometry":{"x":181553.03000000119,"y":2576464.2300000004}},{"attributes":{"ID":60990,"DIS_CODE":0,"TOWNNAME":"歸仁區","LI":"六甲里","LIN":"35鄰","STREET":"六甲六街","SECT":" ","MAREA":" ","LANE":"１１巷","ALLEY":"３弄","HOUSE_NO":"１８號","E_COORD97":175574.79000000001,"N_COORD97":2539361.6699999999,"ADDRESS":"六甲六街１１巷３弄１８號","OBJECTID":60990},"geometry":{"x":175574.79000000004,"y":2539361.6700000018}},{"attributes":{"ID":60991,"DIS_CODE":0,"TOWNNAME":"歸仁區","LI":"六甲里","LIN":"35鄰","STREET":"六甲六街","SECT":" ","MAREA":" ","LANE":"１１巷","ALLEY":"３弄","HOUSE_NO":"１３號","E_COORD97":175576.56060900001,"N_COORD97":2539344.8157799998,"ADDRESS":"六甲六街１１巷３弄１３號","OBJECTID":60991},"geometry":{"x":175576.56060900073,"y":2539344.8157750014}},{"attributes":{"ID":60992,"DIS_CODE":0,"TOWNNAME":"歸仁區","LI":"六甲里","LIN":"35鄰","STREET":"六甲六街","SECT":" ","MAREA":" ","LANE":"１１巷","ALLEY":"３弄","HOUSE_NO":"６號","E_COORD97":175598.14000000001,"N_COORD97":2539359.6699999999,"ADDRESS":"六甲六街１１巷３弄６號","OBJECTID":60992},"geometry":{"x":175598.1400000006,"y":2539359.6699999999}},{"attributes":{"ID":60993,"DIS_CODE":0,"TOWNNAME":"安南區","LI":"新順里","LIN":"15鄰","STREET":"培安四街","SECT":" ","MAREA":" ","LANE":" ","ALLEY":" ","HOUSE_NO":"６６號","E_COORD97":169449.70999999999,"N_COORD97":2549838.8599999999,"ADDRESS":"培安四街６６號","OBJECTID":60993},"geometry":{"x":169449.71000000089,"y":2549838.8599999975}},{"attributes":{"ID":60994,"DIS_CODE":0,"TOWNNAME":"安南區","LI":"新順里","LIN":"15鄰","STREET":"培安四街","SECT":" ","MAREA":" ","LANE":" ","ALLEY":" ","HOUSE_NO":"７２號","E_COORD97":169457.45000000001,"N_COORD97":2549828.4500000002,"ADDRESS":"培安四街７２號","OBJECTID":60994},"geometry":{"x":169457.45000000019,"y":2549828.4500000011}},{"attributes":{"ID":60995,"DIS_CODE":0,"TOWNNAME":"安南區","LI":"新順里","LIN":"15鄰","STREET":"培安四街","SECT":" ","MAREA":" ","LANE":" ","ALLEY":" ","HOUSE_NO":"７６號","E_COORD97":169459.87,"N_COORD97":2549825.02,"ADDRESS":"培安四街７６號","OBJECTID":60995},"geometry":{"x":169459.87000000011,"y":2549825.0200000014}},{"attributes":{"ID":60996,"DIS_CODE":0,"TOWNNAME":"永康區","LI":"大灣里","LIN":"15鄰","STREET":"大民街","SECT":" ","MAREA":" ","LANE":" ","ALLEY":" ","HOUSE_NO":"２之１號","E_COORD97":174785.45999999999,"N_COORD97":2545215.7400000002,"ADDRESS":"大民街２之１號","OBJECTID":60996},"geometry":{"x":174785.45999999996,"y":2545215.7400000002}},{"attributes":{"ID":60997,"DIS_CODE":0,"TOWNNAME":"永康區","LI":"埔園里","LIN":"15鄰","STREET":"龍埔街","SECT":" ","MAREA":" ","LANE":" ","ALLEY":" ","HOUSE_NO":"５２６號","E_COORD97":173584.89000000001,"N_COORD97":2548382.1000000001,"ADDRESS":"龍埔街５２６號","OBJECTID":60997},"geometry":{"x":173584.8900000006,"y":2548382.0999999996}},{"attributes":{"ID":60998,"DIS_CODE":0,"TOWNNAME":"永康區","LI":"龍潭里","LIN":"15鄰","STREET":"龍橋街","SECT":" ","MAREA":" ","LANE":" ","ALLEY":" ","HOUSE_NO":"１４號","E_COORD97":174880.20000000001,"N_COORD97":2548312.6600000001,"ADDRESS":"龍橋街１４號","OBJECTID":60998},"geometry":{"x":174880.20000000019,"y":2548312.660000002}},{"attributes":{"ID":60999,"DIS_CODE":0,"TOWNNAME":"永康區","LI":"埔園里","LIN":"15鄰","STREET":"中山路","SECT":" ","MAREA":" ","LANE":" ","ALLEY":" ","HOUSE_NO":"３４１號","E_COORD97":173587.81,"N_COORD97":2548429.7400000002,"ADDRESS":"中山路３４１號","OBJECTID":60999},"geometry":{"x":173587.80999999866,"y":2548429.7400000002}},{"attributes":{"ID":61000,"DIS_CODE":0,"TOWNNAME":"永康區","LI":"埔園里","LIN":"15鄰","STREET":"中山路","SECT":" ","MAREA":" ","LANE":" ","ALLEY":" ","HOUSE_NO":"３３９號","E_COORD97":173588.79000000001,"N_COORD97":2548425.2400000002,"ADDRESS":"中山路３３９號","OBJECTID":61000},"geometry":{"x":173588.79000000097,"y":2548425.2400000021}}]}