{"displayFieldName":"TOWNNAME","fieldAliases":{"ID":"ID","DIS_CODE":"DIS_CODE","TOWNNAME":"TOWNNAME","LI":"LI","LIN":"LIN","STREET":"STREET","SECT":"SECT","MAREA":"MAREA","LANE":"LANE","ALLEY":"ALLEY","HOUSE_NO":"HOUSE_NO","E_COORD97":"E_COORD97","N_COORD97":"N_COORD97","ADDRESS":"ADDRESS","OBJECTID":"OBJECTID"},"geometryType":"esriGeometryPoint","spatialReference":{"wkid":102443,"latestWkid":3826},"fields":[{"name":"ID","type":"esriFieldTypeDouble","alias":"ID"},{"name":"DIS_CODE","type":"esriFieldTypeInteger","alias":"DIS_CODE"},{"name":"TOWNNAME","type":"esriFieldTypeString","alias":"TOWNNAME","length":8},{"name":"LI","type":"esriFieldTypeString","alias":"LI","length":8},{"name":"LIN","type":"esriFieldTypeString","alias":"LIN","length":12},{"name":"STREET","type":"esriFieldTypeString","alias":"STREET","length":20},{"name":"SECT","type":"esriFieldTypeString","alias":"SECT","length":8},{"name":"MAREA","type":"esriFieldTypeString","alias":"MAREA","length":12},{"name":"LANE","type":"esriFieldTypeString","alias":"LANE","length":10},{"name":"ALLEY","type":"esriFieldTypeString","alias":"ALLEY","length":10},{"name":"HOUSE_NO","type":"esriFieldTypeString","alias":"HOUSE_NO","length":20},{"name":"E_COORD97","type":"esriFieldTypeDouble","alias":"E_COORD97"},{"name":"N_COORD97","type":"esriFieldTypeDouble","alias":"N_COORD97"},{"name":"ADDRESS","type":"esriFieldTypeString","alias":"ADDRESS","length":50},{"name":"OBJECTID","type":"esriFieldTypeOID","alias":"OBJECTID"}],"features":[{"attributes":{"ID":334610,"DIS_CODE":0,"TOWNNAME":"歸仁區","LI":"武東里","LIN":"1鄰","STREET":"中正南路","SECT":"二段","MAREA":" ","LANE":"２７５巷","ALLEY":" ","HOUSE_NO":"２７號","E_COORD97":175484.35999999999,"N_COORD97":2535135.2799999998,"ADDRESS":"中正南路二段２７５巷２７號","OBJECTID":334601},"geometry":{"x":175484.36000000127,"y":2535135.2799999975}},{"attributes":{"ID":334611,"DIS_CODE":0,"TOWNNAME":"歸仁區","LI":"七甲里","LIN":"1鄰","STREET":"中正北路","SECT":"一段","MAREA":" ","LANE":"５２５巷","ALLEY":" ","HOUSE_NO":"１５０號","E_COORD97":177007.63,"N_COORD97":2542083.02,"ADDRESS":"中正北路一段５２５巷１５０號","OBJECTID":334602},"geometry":{"x":177007.63000000082,"y":2542083.0199999996}},{"attributes":{"ID":334612,"DIS_CODE":0,"TOWNNAME":"歸仁區","LI":"武東里","LIN":"1鄰","STREET":"中正南路","SECT":"二段","MAREA":" ","LANE":"２７５巷","ALLEY":" ","HOUSE_NO":"３５號","E_COORD97":175518.16,"N_COORD97":2535136.2799999998,"ADDRESS":"中正南路二段２７５巷３５號","OBJECTID":334603},"geometry":{"x":175518.16000000015,"y":2535136.2800000012}},{"attributes":{"ID":334613,"DIS_CODE":0,"TOWNNAME":"歸仁區","LI":"七甲里","LIN":"1鄰","STREET":"七甲五街","SECT":" ","MAREA":" ","LANE":"９１巷","ALLEY":" ","HOUSE_NO":"９６號","E_COORD97":177076.75,"N_COORD97":2542591.9300000002,"ADDRESS":"七甲五街９１巷９６號","OBJECTID":334604},"geometry":{"x":177076.75,"y":2542591.9300000016}},{"attributes":{"ID":334614,"DIS_CODE":0,"TOWNNAME":"善化區","LI":"光文里","LIN":"17鄰","STREET":"民權路","SECT":" ","MAREA":" ","LANE":" ","ALLEY":" ","HOUSE_NO":"２０７號","E_COORD97":178170.34,"N_COORD97":2558989.5,"ADDRESS":"民權路２０７號","OBJECTID":334605},"geometry":{"x":178170.34000000078,"y":2558989.5000000037}},{"attributes":{"ID":334615,"DIS_CODE":0,"TOWNNAME":"善化區","LI":"光文里","LIN":"17鄰","STREET":"民權路","SECT":" ","MAREA":" ","LANE":" ","ALLEY":" ","HOUSE_NO":"２１１號","E_COORD97":178159.54000000001,"N_COORD97":2558987.7599999998,"ADDRESS":"民權路２１１號","OBJECTID":334606},"geometry":{"x":178159.54000000097,"y":2558987.7600000016}},{"attributes":{"ID":334616,"DIS_CODE":0,"TOWNNAME":"善化區","LI":"坐駕里","LIN":"17鄰","STREET":"興華路","SECT":" ","MAREA":" ","LANE":" ","ALLEY":" ","HOUSE_NO":"２５８號","E_COORD97":177970.62,"N_COORD97":2558554,"ADDRESS":"興華路２５８號","OBJECTID":334607},"geometry":{"x":177970.62000000104,"y":2558554}},{"attributes":{"ID":334617,"DIS_CODE":0,"TOWNNAME":"善化區","LI":"坐駕里","LIN":"17鄰","STREET":"興華路","SECT":" ","MAREA":" ","LANE":" ","ALLEY":" ","HOUSE_NO":"２５８號之２","E_COORD97":177962.5,"N_COORD97":2558553.27,"ADDRESS":"興華路２５８號之２","OBJECTID":334608},"geometry":{"x":177962.50000000093,"y":2558553.2700000033}},{"attributes":{"ID":334618,"DIS_CODE":0,"TOWNNAME":"中西區","LI":"三民里","LIN":"17鄰","STREET":"公園路","SECT":" ","MAREA":" ","LANE":" ","ALLEY":" ","HOUSE_NO":"６７號","E_COORD97":168546.73999999999,"N_COORD97":2543965.4300000002,"ADDRESS":"公園路６７號","OBJECTID":334609},"geometry":{"x":168546.74000000022,"y":2543965.4299999997}},{"attributes":{"ID":334619,"DIS_CODE":0,"TOWNNAME":"中西區","LI":"三民里","LIN":"17鄰","STREET":"公園路","SECT":" ","MAREA":" ","LANE":" ","ALLEY":" ","HOUSE_NO":"７３號","E_COORD97":168550.06,"N_COORD97":2543980.7999999998,"ADDRESS":"公園路７３號","OBJECTID":334610},"geometry":{"x":168550.06000000052,"y":2543980.8000000007}},{"attributes":{"ID":334620,"DIS_CODE":0,"TOWNNAME":"南區","LI":"郡南里","LIN":"8鄰","STREET":"永成路","SECT":"三段","MAREA":" ","LANE":" ","ALLEY":" ","HOUSE_NO":"１７１號","E_COORD97":167481.45735800001,"N_COORD97":2540826.59803,"ADDRESS":"永成路三段１７１號","OBJECTID":334611},"geometry":{"x":167481.45735799894,"y":2540826.5980319995}},{"attributes":{"ID":334621,"DIS_CODE":0,"TOWNNAME":"南區","LI":"郡南里","LIN":"8鄰","STREET":"永成路","SECT":"三段","MAREA":" ","LANE":" ","ALLEY":" ","HOUSE_NO":"１７３號","E_COORD97":167480.61026099999,"N_COORD97":2540832.3130299998,"ADDRESS":"永成路三段１７３號","OBJECTID":334612},"geometry":{"x":167480.61026099976,"y":2540832.3130290024}},{"attributes":{"ID":334622,"DIS_CODE":0,"TOWNNAME":"南區","LI":"郡南里","LIN":"10鄰","STREET":"永成路","SECT":"三段","MAREA":" ","LANE":" ","ALLEY":" ","HOUSE_NO":"１２３號","E_COORD97":167482.62211500001,"N_COORD97":2540701.02685,"ADDRESS":"永成路三段１２３號","OBJECTID":334613},"geometry":{"x":167482.62211499922,"y":2540701.0268500019}},{"attributes":{"ID":334623,"DIS_CODE":0,"TOWNNAME":"南區","LI":"郡南里","LIN":"10鄰","STREET":"永成路","SECT":"三段","MAREA":" ","LANE":" ","ALLEY":" ","HOUSE_NO":"１２５號","E_COORD97":167482.19856700001,"N_COORD97":2540707.3768500001,"ADDRESS":"永成路三段１２５號","OBJECTID":334614},"geometry":{"x":167482.19856700022,"y":2540707.3768470008}},{"attributes":{"ID":334624,"DIS_CODE":0,"TOWNNAME":"歸仁區","LI":"武東里","LIN":"1鄰","STREET":"中正南路","SECT":"二段","MAREA":" ","LANE":"２５３巷","ALLEY":" ","HOUSE_NO":"２０號","E_COORD97":175450.85999999999,"N_COORD97":2535209.2799999998,"ADDRESS":"中正南路二段２５３巷２０號","OBJECTID":334615},"geometry":{"x":175450.86000000034,"y":2535209.2799999993}},{"attributes":{"ID":334625,"DIS_CODE":0,"TOWNNAME":"歸仁區","LI":"大廟里","LIN":"1鄰","STREET":"大廟二街","SECT":" ","MAREA":" ","LANE":"４５巷","ALLEY":" ","HOUSE_NO":"１９之１號","E_COORD97":176010.35999999999,"N_COORD97":2544006.9300000002,"ADDRESS":"大廟二街４５巷１９之１號","OBJECTID":334616},"geometry":{"x":176010.36000000034,"y":2544006.9299999997}},{"attributes":{"ID":334626,"DIS_CODE":0,"TOWNNAME":"南區","LI":"大成里","LIN":"1鄰","STREET":"健康路","SECT":"一段","MAREA":" ","LANE":"３４７巷","ALLEY":" ","HOUSE_NO":"３號","E_COORD97":168024.07999999999,"N_COORD97":2542408.0299999998,"ADDRESS":"健康路一段３４７巷３號","OBJECTID":334617},"geometry":{"x":168024.08000000007,"y":2542408.0299999993}},{"attributes":{"ID":334627,"DIS_CODE":0,"TOWNNAME":"南區","LI":"大成里","LIN":"1鄰","STREET":"健康路","SECT":"一段","MAREA":" ","LANE":"３４７巷","ALLEY":" ","HOUSE_NO":"５號","E_COORD97":168023.63,"N_COORD97":2542403.27,"ADDRESS":"健康路一段３４７巷５號","OBJECTID":334618},"geometry":{"x":168023.62999999989,"y":2542403.2699999996}},{"attributes":{"ID":334628,"DIS_CODE":0,"TOWNNAME":"南區","LI":"大成里","LIN":"1鄰","STREET":"健康路","SECT":"一段","MAREA":" ","LANE":"３４７巷","ALLEY":" ","HOUSE_NO":"７號","E_COORD97":168023.78,"N_COORD97":2542399.1099999999,"ADDRESS":"健康路一段３４７巷７號","OBJECTID":334619},"geometry":{"x":168023.78000000119,"y":2542399.1100000031}},{"attributes":{"ID":334629,"DIS_CODE":0,"TOWNNAME":"南區","LI":"大成里","LIN":"1鄰","STREET":"健康路","SECT":"一段","MAREA":" ","LANE":"３４７巷","ALLEY":" ","HOUSE_NO":"９號","E_COORD97":168023.92999999999,"N_COORD97":2542394.3599999999,"ADDRESS":"健康路一段３４７巷９號","OBJECTID":334620},"geometry":{"x":168023.93000000063,"y":2542394.3600000013}},{"attributes":{"ID":334630,"DIS_CODE":0,"TOWNNAME":"南區","LI":"大成里","LIN":"1鄰","STREET":"健康路","SECT":"一段","MAREA":" ","LANE":"３９１巷","ALLEY":" ","HOUSE_NO":"１２號","E_COORD97":167907.97,"N_COORD97":2542398.96,"ADDRESS":"健康路一段３９１巷１２號","OBJECTID":334621},"geometry":{"x":167907.96999999881,"y":2542398.9600000028}},{"attributes":{"ID":334631,"DIS_CODE":0,"TOWNNAME":"南區","LI":"大成里","LIN":"1鄰","STREET":"健康路","SECT":"一段","MAREA":" ","LANE":"３９１巷","ALLEY":" ","HOUSE_NO":"２號","E_COORD97":167905.03,"N_COORD97":2542419.2799999998,"ADDRESS":"健康路一段３９１巷２號","OBJECTID":334622},"geometry":{"x":167905.03000000119,"y":2542419.2800000012}},{"attributes":{"ID":334632,"DIS_CODE":0,"TOWNNAME":"南區","LI":"大成里","LIN":"1鄰","STREET":"健康路","SECT":"一段","MAREA":" ","LANE":"３９１巷","ALLEY":" ","HOUSE_NO":"３號","E_COORD97":167928.95999999999,"N_COORD97":2542410.23,"ADDRESS":"健康路一段３９１巷３號","OBJECTID":334623},"geometry":{"x":167928.96000000089,"y":2542410.2300000023}},{"attributes":{"ID":334633,"DIS_CODE":0,"TOWNNAME":"南區","LI":"大成里","LIN":"1鄰","STREET":"健康路","SECT":"一段","MAREA":" ","LANE":"３９１巷","ALLEY":" ","HOUSE_NO":"４號","E_COORD97":167905.73999999999,"N_COORD97":2542414.8700000001,"ADDRESS":"健康路一段３９１巷４號","OBJECTID":334624},"geometry":{"x":167905.74000000115,"y":2542414.870000001}},{"attributes":{"ID":334634,"DIS_CODE":0,"TOWNNAME":"南區","LI":"大成里","LIN":"1鄰","STREET":"健康路","SECT":"一段","MAREA":" ","LANE":"３９１巷","ALLEY":" ","HOUSE_NO":"６號","E_COORD97":167906.32999999999,"N_COORD97":2542411.2999999998,"ADDRESS":"健康路一段３９１巷６號","OBJECTID":334625},"geometry":{"x":167906.33000000101,"y":2542411.3000000007}},{"attributes":{"ID":334635,"DIS_CODE":0,"TOWNNAME":"南區","LI":"大成里","LIN":"1鄰","STREET":"健康路","SECT":"一段","MAREA":" ","LANE":"３９１巷","ALLEY":" ","HOUSE_NO":"７號","E_COORD97":167941.17999999999,"N_COORD97":2542416.0899999999,"ADDRESS":"健康路一段３９１巷７號","OBJECTID":334626},"geometry":{"x":167941.18000000063,"y":2542416.0899999999}},{"attributes":{"ID":334636,"DIS_CODE":0,"TOWNNAME":"南區","LI":"大成里","LIN":"1鄰","STREET":"健康路","SECT":"一段","MAREA":" ","LANE":"３９１巷","ALLEY":" ","HOUSE_NO":"８號","E_COORD97":167906.63,"N_COORD97":2542407.1400000001,"ADDRESS":"健康路一段３９１巷８號","OBJECTID":334627},"geometry":{"x":167906.62999999989,"y":2542407.1400000025}},{"attributes":{"ID":334637,"DIS_CODE":0,"TOWNNAME":"南區","LI":"大成里","LIN":"1鄰","STREET":"健康路","SECT":"一段","MAREA":" ","LANE":"３９１巷","ALLEY":" ","HOUSE_NO":"９號","E_COORD97":167949.67999999999,"N_COORD97":2542415.23,"ADDRESS":"健康路一段３９１巷９號","OBJECTID":334628},"geometry":{"x":167949.68000000063,"y":2542415.2300000004}},{"attributes":{"ID":334638,"DIS_CODE":0,"TOWNNAME":"新營區","LI":"興業里","LIN":"1鄰","STREET":"公誠街","SECT":" ","MAREA":" ","LANE":"１７巷","ALLEY":" ","HOUSE_NO":"１０之２號","E_COORD97":180334.79000000001,"N_COORD97":2577925.5600000001,"ADDRESS":"公誠街１７巷１０之２號","OBJECTID":334629},"geometry":{"x":180334.79000000004,"y":2577925.5600000024}},{"attributes":{"ID":334639,"DIS_CODE":0,"TOWNNAME":"安平區","LI":"平通里","LIN":"1鄰","STREET":"國平路","SECT":" ","MAREA":" ","LANE":"５９１巷","ALLEY":" ","HOUSE_NO":"６號","E_COORD97":165042.26000000001,"N_COORD97":2544139.7799999998,"ADDRESS":"國平路５９１巷６號","OBJECTID":334630},"geometry":{"x":165042.25999999978,"y":2544139.7799999993}},{"attributes":{"ID":334640,"DIS_CODE":0,"TOWNNAME":"中西區","LI":"三民里","LIN":"17鄰","STREET":"公園路","SECT":" ","MAREA":" ","LANE":" ","ALLEY":" ","HOUSE_NO":"７５號","E_COORD97":168551.54999999999,"N_COORD97":2543983.5899999999,"ADDRESS":"公園路７５號","OBJECTID":334631},"geometry":{"x":168551.54999999981,"y":2543983.5900000017}},{"attributes":{"ID":334641,"DIS_CODE":0,"TOWNNAME":"中西區","LI":"三民里","LIN":"17鄰","STREET":"公園路","SECT":" ","MAREA":" ","LANE":" ","ALLEY":" ","HOUSE_NO":"７７號","E_COORD97":168550.06,"N_COORD97":2543985.25,"ADDRESS":"公園路７７號","OBJECTID":334632},"geometry":{"x":168550.06000000052,"y":2543985.2500000037}},{"attributes":{"ID":334642,"DIS_CODE":0,"TOWNNAME":"山上區","LI":"明和里","LIN":"23鄰","STREET":" ","SECT":" ","MAREA":"北勢洲","LANE":" ","ALLEY":" ","HOUSE_NO":"９７號之２","E_COORD97":182203.75887300001,"N_COORD97":2556581.1251400001,"ADDRESS":"北勢洲９７號之２","OBJECTID":334633},"geometry":{"x":182203.75887300074,"y":2556581.125140002}},{"attributes":{"ID":334643,"DIS_CODE":0,"TOWNNAME":"將軍區","LI":"廣山里","LIN":"5鄰","STREET":" ","SECT":" ","MAREA":"廣山","LANE":" ","ALLEY":" ","HOUSE_NO":"４２之２號","E_COORD97":159772.21590099999,"N_COORD97":2568855.6130499998,"ADDRESS":"廣山４２之２號","OBJECTID":334634},"geometry":{"x":159772.21590100136,"y":2568855.6130499989}},{"attributes":{"ID":334644,"DIS_CODE":0,"TOWNNAME":"中西區","LI":"三民里","LIN":"17鄰","STREET":"公園路","SECT":" ","MAREA":" ","LANE":" ","ALLEY":" ","HOUSE_NO":"７９號","E_COORD97":168550.29999999999,"N_COORD97":2543988.8399999999,"ADDRESS":"公園路７９號","OBJECTID":334635},"geometry":{"x":168550.30000000075,"y":2543988.8400000017}},{"attributes":{"ID":334645,"DIS_CODE":0,"TOWNNAME":"將軍區","LI":"廣山里","LIN":"5鄰","STREET":" ","SECT":" ","MAREA":"廣山","LANE":" ","ALLEY":" ","HOUSE_NO":"４３號","E_COORD97":159762.04566199999,"N_COORD97":2568844.81806,"ADDRESS":"廣山４３號","OBJECTID":334636},"geometry":{"x":159762.04566200078,"y":2568844.8180560004}},{"attributes":{"ID":334646,"DIS_CODE":0,"TOWNNAME":"鹽水區","LI":"水正里","LIN":"20鄰","STREET":" ","SECT":" ","MAREA":"過港","LANE":" ","ALLEY":" ","HOUSE_NO":"１９號之１","E_COORD97":175168.63,"N_COORD97":2579819.8300000001,"ADDRESS":"過港１９號之１","OBJECTID":334637},"geometry":{"x":175168.62999999989,"y":2579819.8300000001}},{"attributes":{"ID":334647,"DIS_CODE":0,"TOWNNAME":"鹽水區","LI":"水正里","LIN":"20鄰","STREET":" ","SECT":" ","MAREA":"過港","LANE":" ","ALLEY":" ","HOUSE_NO":"１９號","E_COORD97":175169.56,"N_COORD97":2579813.3100000001,"ADDRESS":"過港１９號","OBJECTID":334638},"geometry":{"x":175169.56000000145,"y":2579813.3100000005}},{"attributes":{"ID":334648,"DIS_CODE":0,"TOWNNAME":"鹽水區","LI":"水正里","LIN":"20鄰","STREET":" ","SECT":" ","MAREA":"過港","LANE":" ","ALLEY":" ","HOUSE_NO":"２０號","E_COORD97":175170.98000000001,"N_COORD97":2579804.5699999998,"ADDRESS":"過港２０號","OBJECTID":334639},"geometry":{"x":175170.98000000231,"y":2579804.5700000003}},{"attributes":{"ID":334649,"DIS_CODE":0,"TOWNNAME":"南區","LI":"郡南里","LIN":"11鄰","STREET":"永成路","SECT":"三段","MAREA":" ","LANE":"１０３巷","ALLEY":" ","HOUSE_NO":"６號","E_COORD97":167462.71535300001,"N_COORD97":2540664.0381200002,"ADDRESS":"永成路三段１０３巷６號","OBJECTID":334640},"geometry":{"x":167462.71535299998,"y":2540664.0381199997}},{"attributes":{"ID":334650,"DIS_CODE":0,"TOWNNAME":"南區","LI":"郡南里","LIN":"11鄰","STREET":"永成路","SECT":"三段","MAREA":" ","LANE":"１０３巷","ALLEY":" ","HOUSE_NO":"８號","E_COORD97":167457.20922799999,"N_COORD97":2540664.4614499998,"ADDRESS":"永成路三段１０３巷８號","OBJECTID":334641},"geometry":{"x":167457.20922800153,"y":2540664.4614530038}},{"attributes":{"ID":334651,"DIS_CODE":0,"TOWNNAME":"南區","LI":"郡南里","LIN":"11鄰","STREET":"永成路","SECT":"三段","MAREA":" ","LANE":"１０８巷","ALLEY":" ","HOUSE_NO":"１０號","E_COORD97":167452.02076300001,"N_COORD97":2540665.0964500001,"ADDRESS":"永成路三段１０８巷１０號","OBJECTID":334642},"geometry":{"x":167452.02076300047,"y":2540665.0964530036}},{"attributes":{"ID":334652,"DIS_CODE":0,"TOWNNAME":"南區","LI":"郡南里","LIN":"11鄰","STREET":"永成路","SECT":"三段","MAREA":" ","LANE":"１０３巷","ALLEY":" ","HOUSE_NO":"１８號","E_COORD97":167436.87891,"N_COORD97":2540664.35562,"ADDRESS":"永成路三段１０３巷１８號","OBJECTID":334643},"geometry":{"x":167436.87891000137,"y":2540664.3556200024}},{"attributes":{"ID":334653,"DIS_CODE":0,"TOWNNAME":"南區","LI":"郡南里","LIN":"11鄰","STREET":"永成路","SECT":"三段","MAREA":" ","LANE":"１０３巷","ALLEY":" ","HOUSE_NO":"２０號","E_COORD97":167432.431663,"N_COORD97":2540665.3610399999,"ADDRESS":"永成路三段１０３巷２０號","OBJECTID":334644},"geometry":{"x":167432.43166300002,"y":2540665.3610359989}},{"attributes":{"ID":334654,"DIS_CODE":0,"TOWNNAME":"南區","LI":"郡南里","LIN":"11鄰","STREET":"永成路","SECT":"三段","MAREA":" ","LANE":"１０３巷","ALLEY":" ","HOUSE_NO":"２６號","E_COORD97":167424.38424799999,"N_COORD97":2540664.0910399999,"ADDRESS":"永成路三段１０３巷２６號","OBJECTID":334645},"geometry":{"x":167424.38424799964,"y":2540664.0910370033}},{"attributes":{"ID":334655,"DIS_CODE":0,"TOWNNAME":"南區","LI":"郡南里","LIN":"11鄰","STREET":"永成路","SECT":"三段","MAREA":" ","LANE":"１０３巷","ALLEY":" ","HOUSE_NO":"３２號","E_COORD97":167411.783692,"N_COORD97":2540663.6677000001,"ADDRESS":"永成路三段１０３巷３２號","OBJECTID":334646},"geometry":{"x":167411.78369200137,"y":2540663.6677040048}},{"attributes":{"ID":334656,"DIS_CODE":0,"TOWNNAME":"南區","LI":"郡南里","LIN":"11鄰","STREET":"永成路","SECT":"三段","MAREA":" ","LANE":"１０３巷","ALLEY":" ","HOUSE_NO":"３６號","E_COORD97":167402.67740700001,"N_COORD97":2540664.1968700001,"ADDRESS":"永成路三段１０３巷３６號","OBJECTID":334647},"geometry":{"x":167402.67740700208,"y":2540664.1968699992}},{"attributes":{"ID":334657,"DIS_CODE":0,"TOWNNAME":"南區","LI":"郡南里","LIN":"11鄰","STREET":"永成路","SECT":"三段","MAREA":" ","LANE":"１０３巷","ALLEY":" ","HOUSE_NO":"３８號","E_COORD97":167398.230152,"N_COORD97":2540665.2552,"ADDRESS":"永成路三段１０３巷３８號","OBJECTID":334648},"geometry":{"x":167398.23015199974,"y":2540665.2552030012}},{"attributes":{"ID":334658,"DIS_CODE":0,"TOWNNAME":"南區","LI":"郡南里","LIN":"11鄰","STREET":"永成路","SECT":"三段","MAREA":" ","LANE":"１０３巷","ALLEY":" ","HOUSE_NO":"４０號","E_COORD97":167393.25346199999,"N_COORD97":2540666.31354,"ADDRESS":"永成路三段１０３巷４０號","OBJECTID":334649},"geometry":{"x":167393.25346199982,"y":2540666.3135359995}},{"attributes":{"ID":334659,"DIS_CODE":0,"TOWNNAME":"南區","LI":"郡南里","LIN":"11鄰","STREET":"永成路","SECT":"三段","MAREA":" ","LANE":"１０３巷","ALLEY":" ","HOUSE_NO":"５２號","E_COORD97":167374.51145699999,"N_COORD97":2540664.6731199999,"ADDRESS":"永成路三段１０３巷５２號","OBJECTID":334650},"geometry":{"x":167374.51145699993,"y":2540664.6731199995}},{"attributes":{"ID":334660,"DIS_CODE":0,"TOWNNAME":"南區","LI":"郡南里","LIN":"11鄰","STREET":"永成路","SECT":"三段","MAREA":" ","LANE":"１０３巷","ALLEY":" ","HOUSE_NO":"４８號","E_COORD97":167381.81766299999,"N_COORD97":2540665.5726999999,"ADDRESS":"永成路三段１０３巷４８號","OBJECTID":334651},"geometry":{"x":167381.81766300183,"y":2540665.5727030002}},{"attributes":{"ID":334661,"DIS_CODE":0,"TOWNNAME":"南區","LI":"郡南里","LIN":"11鄰","STREET":"永成路","SECT":"三段","MAREA":" ","LANE":" ","ALLEY":" ","HOUSE_NO":"１１５號","E_COORD97":167482.62211500001,"N_COORD97":2540686.3160299999,"ADDRESS":"永成路三段１１５號","OBJECTID":334652},"geometry":{"x":167482.62211499922,"y":2540686.3160250038}},{"attributes":{"ID":334662,"DIS_CODE":0,"TOWNNAME":"佳里區","LI":"鎮山里","LIN":"23鄰","STREET":"仁愛路","SECT":" ","MAREA":" ","LANE":" ","ALLEY":" ","HOUSE_NO":"１５５號之１","E_COORD97":166364.19796600001,"N_COORD97":2561363.19564,"ADDRESS":"仁愛路１５５號之１","OBJECTID":334653},"geometry":{"x":166364.197966001,"y":2561363.1956440043}},{"attributes":{"ID":334663,"DIS_CODE":0,"TOWNNAME":"南區","LI":"郡南里","LIN":"11鄰","STREET":"永成路","SECT":"三段","MAREA":" ","LANE":" ","ALLEY":" ","HOUSE_NO":"１１３號","E_COORD97":167483.045663,"N_COORD97":2540682.2943600002,"ADDRESS":"永成路三段１１３號","OBJECTID":334654},"geometry":{"x":167483.04566300102,"y":2540682.2943600025}},{"attributes":{"ID":334664,"DIS_CODE":0,"TOWNNAME":"南區","LI":"郡南里","LIN":"11鄰","STREET":"永成路","SECT":"三段","MAREA":" ","LANE":" ","ALLEY":" ","HOUSE_NO":"１１１號","E_COORD97":167482.62211500001,"N_COORD97":2540678.2727000001,"ADDRESS":"永成路三段１１１號","OBJECTID":334655},"geometry":{"x":167482.62211499922,"y":2540678.2726960015}},{"attributes":{"ID":334665,"DIS_CODE":0,"TOWNNAME":"南區","LI":"郡南里","LIN":"11鄰","STREET":"永成路","SECT":"三段","MAREA":" ","LANE":" ","ALLEY":" ","HOUSE_NO":"１０９號","E_COORD97":167482.19856700001,"N_COORD97":2540674.5685299998,"ADDRESS":"永成路三段１０９號","OBJECTID":334656},"geometry":{"x":167482.19856700022,"y":2540674.5685309991}},{"attributes":{"ID":334666,"DIS_CODE":0,"TOWNNAME":"南區","LI":"郡南里","LIN":"11鄰","STREET":"永成路","SECT":"三段","MAREA":" ","LANE":" ","ALLEY":" ","HOUSE_NO":"１０７號","E_COORD97":167481.98679299999,"N_COORD97":2540670.8114499999,"ADDRESS":"永成路三段１０７號","OBJECTID":334657},"geometry":{"x":167481.98679300025,"y":2540670.8114500027}},{"attributes":{"ID":334667,"DIS_CODE":0,"TOWNNAME":"南區","LI":"郡南里","LIN":"11鄰","STREET":"永成路","SECT":"三段","MAREA":" ","LANE":" ","ALLEY":" ","HOUSE_NO":"１０５號","E_COORD97":167481.98679299999,"N_COORD97":2540667.3189500002,"ADDRESS":"永成路三段１０５號","OBJECTID":334658},"geometry":{"x":167481.98679300025,"y":2540667.3189519998}},{"attributes":{"ID":334668,"DIS_CODE":0,"TOWNNAME":"下營區","LI":"新興里","LIN":"16鄰","STREET":"寮前二街","SECT":" ","MAREA":" ","LANE":" ","ALLEY":" ","HOUSE_NO":"４０號","E_COORD97":175273.07709400001,"N_COORD97":2570488.4055900001,"ADDRESS":"寮前二街４０號","OBJECTID":334659},"geometry":{"x":175273.07709399983,"y":2570488.4055930022}},{"attributes":{"ID":334669,"DIS_CODE":0,"TOWNNAME":"南區","LI":"大忠里","LIN":"20鄰","STREET":"中華南路","SECT":"一段","MAREA":" ","LANE":"１２５巷","ALLEY":" ","HOUSE_NO":"３４號","E_COORD97":169204.72,"N_COORD97":2541127.9300000002,"ADDRESS":"中華南路一段１２５巷３４號","OBJECTID":334660},"geometry":{"x":169204.71999999974,"y":2541127.9299999997}},{"attributes":{"ID":334670,"DIS_CODE":0,"TOWNNAME":"安平區","LI":"平通里","LIN":"1鄰","STREET":"國平路","SECT":" ","MAREA":" ","LANE":"５９１巷","ALLEY":" ","HOUSE_NO":"８號","E_COORD97":165037.42000000001,"N_COORD97":2544140.5099999998,"ADDRESS":"國平路５９１巷８號","OBJECTID":334661},"geometry":{"x":165037.42000000086,"y":2544140.5100000016}},{"attributes":{"ID":334671,"DIS_CODE":0,"TOWNNAME":"南區","LI":"省躬里","LIN":"1鄰","STREET":"灣裡路","SECT":" ","MAREA":" ","LANE":"１３６巷","ALLEY":" ","HOUSE_NO":"１１號","E_COORD97":165988.45000000001,"N_COORD97":2536744.1200000001,"ADDRESS":"灣裡路１３６巷１１號","OBJECTID":334662},"geometry":{"x":165988.45000000112,"y":2536744.120000001}},{"attributes":{"ID":334672,"DIS_CODE":0,"TOWNNAME":"南區","LI":"省躬里","LIN":"1鄰","STREET":"灣裡路","SECT":" ","MAREA":" ","LANE":"１３６巷","ALLEY":" ","HOUSE_NO":"１３號","E_COORD97":165983.54000000001,"N_COORD97":2536743.04,"ADDRESS":"灣裡路１３６巷１３號","OBJECTID":334663},"geometry":{"x":165983.54000000004,"y":2536743.0399999991}},{"attributes":{"ID":334673,"DIS_CODE":0,"TOWNNAME":"南區","LI":"省躬里","LIN":"1鄰","STREET":"灣裡路","SECT":" ","MAREA":" ","LANE":"１３６巷","ALLEY":" ","HOUSE_NO":"１５號","E_COORD97":165971.29000000001,"N_COORD97":2536739.23,"ADDRESS":"灣裡路１３６巷１５號","OBJECTID":334664},"geometry":{"x":165971.29000000004,"y":2536739.2300000004}},{"attributes":{"ID":334674,"DIS_CODE":0,"TOWNNAME":"中西區","LI":"三民里","LIN":"17鄰","STREET":"公園路","SECT":" ","MAREA":" ","LANE":" ","ALLEY":" ","HOUSE_NO":"８１號","E_COORD97":168555.03,"N_COORD97":2543996.1800000002,"ADDRESS":"公園路８１號","OBJECTID":334665},"geometry":{"x":168555.03000000026,"y":2543996.1800000016}},{"attributes":{"ID":334675,"DIS_CODE":0,"TOWNNAME":"中西區","LI":"三民里","LIN":"17鄰","STREET":"公園路","SECT":" ","MAREA":" ","LANE":" ","ALLEY":" ","HOUSE_NO":"８３號","E_COORD97":168552.95999999999,"N_COORD97":2544005.1699999999,"ADDRESS":"公園路８３號","OBJECTID":334666},"geometry":{"x":168552.96000000089,"y":2544005.1699999999}},{"attributes":{"ID":334676,"DIS_CODE":0,"TOWNNAME":"中西區","LI":"三民里","LIN":"17鄰","STREET":"公園路","SECT":" ","MAREA":" ","LANE":" ","ALLEY":" ","HOUSE_NO":"８５號","E_COORD97":168554.62,"N_COORD97":2544011.79,"ADDRESS":"公園路８５號","OBJECTID":334667},"geometry":{"x":168554.62000000011,"y":2544011.790000001}},{"attributes":{"ID":334677,"DIS_CODE":0,"TOWNNAME":"中西區","LI":"三民里","LIN":"17鄰","STREET":"民族路","SECT":"二段","MAREA":" ","LANE":" ","ALLEY":" ","HOUSE_NO":"２０５號","E_COORD97":168553.91,"N_COORD97":2544022.2000000002,"ADDRESS":"民族路二段２０５號","OBJECTID":334668},"geometry":{"x":168553.91000000108,"y":2544022.200000003}},{"attributes":{"ID":334678,"DIS_CODE":0,"TOWNNAME":"中西區","LI":"三民里","LIN":"17鄰","STREET":"民族路","SECT":"二段","MAREA":" ","LANE":" ","ALLEY":" ","HOUSE_NO":"２０５號之１","E_COORD97":168558.17000000001,"N_COORD97":2544023.3799999999,"ADDRESS":"民族路二段２０５號之１","OBJECTID":334669},"geometry":{"x":168558.17000000086,"y":2544023.379999999}},{"attributes":{"ID":334679,"DIS_CODE":0,"TOWNNAME":"中西區","LI":"三民里","LIN":"17鄰","STREET":"民族路","SECT":"二段","MAREA":" ","LANE":" ","ALLEY":" ","HOUSE_NO":"２０５號之２","E_COORD97":168550.82999999999,"N_COORD97":2544024.5600000001,"ADDRESS":"民族路二段２０５號之２","OBJECTID":334670},"geometry":{"x":168550.83000000101,"y":2544024.5600000042}},{"attributes":{"ID":334680,"DIS_CODE":0,"TOWNNAME":"下營區","LI":"新興里","LIN":"15鄰","STREET":"寮前一街","SECT":" ","MAREA":" ","LANE":"５８巷","ALLEY":" ","HOUSE_NO":"３號","E_COORD97":175354.184699,"N_COORD97":2570488.56434,"ADDRESS":"寮前一街５８巷３號","OBJECTID":334671},"geometry":{"x":175354.18469900079,"y":2570488.5643429998}},{"attributes":{"ID":334681,"DIS_CODE":0,"TOWNNAME":"南區","LI":"郡南里","LIN":"11鄰","STREET":"永成路","SECT":"三段","MAREA":" ","LANE":"１０３巷","ALLEY":" ","HOUSE_NO":"４２號","E_COORD97":167387.747336,"N_COORD97":2540665.94312,"ADDRESS":"永成路三段１０３巷４２號","OBJECTID":334672},"geometry":{"x":167387.74733600114,"y":2540665.9431190006}},{"attributes":{"ID":334682,"DIS_CODE":0,"TOWNNAME":"南區","LI":"郡南里","LIN":"11鄰","STREET":"永成路","SECT":"三段","MAREA":" ","LANE":"１０３巷","ALLEY":" ","HOUSE_NO":"２８號","E_COORD97":167419.93699300001,"N_COORD97":2540664.1968700001,"ADDRESS":"永成路三段１０３巷２８號","OBJECTID":334673},"geometry":{"x":167419.9369930001,"y":2540664.1968699992}},{"attributes":{"ID":334683,"DIS_CODE":0,"TOWNNAME":"安南區","LI":"東和里","LIN":"4鄰","STREET":"長和路","SECT":"一段","MAREA":" ","LANE":"８２３巷","ALLEY":" ","HOUSE_NO":"１４２號","E_COORD97":170846.096441,"N_COORD97":2551024.4993199999,"ADDRESS":"長和路一段８２３巷１４２號","OBJECTID":334674},"geometry":{"x":170846.09644100163,"y":2551024.4993210025}},{"attributes":{"ID":334684,"DIS_CODE":0,"TOWNNAME":"安南區","LI":"東和里","LIN":"4鄰","STREET":"長和路","SECT":"一段","MAREA":" ","LANE":"８２３巷","ALLEY":" ","HOUSE_NO":"１５１號","E_COORD97":170873.20753700001,"N_COORD97":2550948.0877,"ADDRESS":"長和路一段８２３巷１５１號","OBJECTID":334675},"geometry":{"x":170873.207537001,"y":2550948.0876960047}},{"attributes":{"ID":334685,"DIS_CODE":0,"TOWNNAME":"南區","LI":"郡南里","LIN":"11鄰","STREET":"永成路","SECT":"三段","MAREA":" ","LANE":"１０３巷","ALLEY":" ","HOUSE_NO":"１號","E_COORD97":167472.56284699999,"N_COORD97":2540644.7235500002,"ADDRESS":"永成路三段１０３巷１號","OBJECTID":334676},"geometry":{"x":167472.56284700055,"y":2540644.7235469986}},{"attributes":{"ID":334686,"DIS_CODE":0,"TOWNNAME":"下營區","LI":"新興里","LIN":"16鄰","STREET":"裕農街","SECT":" ","MAREA":" ","LANE":" ","ALLEY":" ","HOUSE_NO":"１２５號","E_COORD97":175557.721876,"N_COORD97":2570313.7277700002,"ADDRESS":"裕農街１２５號","OBJECTID":334677},"geometry":{"x":175557.72187600192,"y":2570313.7277710009}},{"attributes":{"ID":334687,"DIS_CODE":0,"TOWNNAME":"安南區","LI":"顯宮里","LIN":"3鄰","STREET":"顯宮一街","SECT":" ","MAREA":" ","LANE":" ","ALLEY":" ","HOUSE_NO":"３１號","E_COORD97":160794.14549,"N_COORD97":2549009.7821999998,"ADDRESS":"顯宮一街３１號","OBJECTID":334678},"geometry":{"x":160794.14549000002,"y":2549009.7821950018}},{"attributes":{"ID":334688,"DIS_CODE":0,"TOWNNAME":"安南區","LI":"顯宮里","LIN":"3鄰","STREET":"顯宮一街","SECT":" ","MAREA":" ","LANE":" ","ALLEY":" ","HOUSE_NO":"３３號","E_COORD97":160794.99242200001,"N_COORD97":2549030.7371800002,"ADDRESS":"顯宮一街３３號","OBJECTID":334679},"geometry":{"x":160794.99242200051,"y":2549030.7371830046}},{"attributes":{"ID":334689,"DIS_CODE":0,"TOWNNAME":"下營區","LI":"宅內里","LIN":"2鄰","STREET":"博愛街","SECT":" ","MAREA":" ","LANE":" ","ALLEY":" ","HOUSE_NO":"５０號","E_COORD97":173928.323256,"N_COORD97":2570640.21538,"ADDRESS":"博愛街５０號","OBJECTID":334680},"geometry":{"x":173928.32325600181,"y":2570640.2153810002}},{"attributes":{"ID":334690,"DIS_CODE":0,"TOWNNAME":"永康區","LI":"六合里","LIN":"2鄰","STREET":"新興街","SECT":" ","MAREA":" ","LANE":"３５巷","ALLEY":" ","HOUSE_NO":"３號","E_COORD97":170927.60261999999,"N_COORD97":2545795.6806299998,"ADDRESS":"新興街３５巷３號","OBJECTID":334681},"geometry":{"x":170927.60262000095,"y":2545795.6806300003}},{"attributes":{"ID":334691,"DIS_CODE":0,"TOWNNAME":"安南區","LI":"顯宮里","LIN":"3鄰","STREET":"媽祖宮二街","SECT":" ","MAREA":" ","LANE":" ","ALLEY":" ","HOUSE_NO":"６號","E_COORD97":160783.876437,"N_COORD97":2548990.7322,"ADDRESS":"媽祖宮二街６號","OBJECTID":334682},"geometry":{"x":160783.87643699907,"y":2548990.7322050016}},{"attributes":{"ID":334692,"DIS_CODE":0,"TOWNNAME":"中西區","LI":"三民里","LIN":"17鄰","STREET":"民族路","SECT":"二段","MAREA":" ","LANE":" ","ALLEY":" ","HOUSE_NO":"２０７號","E_COORD97":168545.06,"N_COORD97":2544028.1099999999,"ADDRESS":"民族路二段２０７號","OBJECTID":334683},"geometry":{"x":168545.06000000052,"y":2544028.1099999994}},{"attributes":{"ID":334693,"DIS_CODE":0,"TOWNNAME":"中西區","LI":"三民里","LIN":"17鄰","STREET":"民族路","SECT":"二段","MAREA":" ","LANE":" ","ALLEY":" ","HOUSE_NO":"２０９號","E_COORD97":168539.85000000001,"N_COORD97":2544026.9300000002,"ADDRESS":"民族路二段２０９號","OBJECTID":334684},"geometry":{"x":168539.85000000056,"y":2544026.9299999997}},{"attributes":{"ID":334694,"DIS_CODE":0,"TOWNNAME":"中西區","LI":"三民里","LIN":"17鄰","STREET":"民族路","SECT":"二段","MAREA":" ","LANE":" ","ALLEY":" ","HOUSE_NO":"２１１號","E_COORD97":168537.48000000001,"N_COORD97":2544030.4700000002,"ADDRESS":"民族路二段２１１號","OBJECTID":334685},"geometry":{"x":168537.48000000045,"y":2544030.4700000007}},{"attributes":{"ID":334695,"DIS_CODE":0,"TOWNNAME":"中西區","LI":"永福里","LIN":"17鄰","STREET":"永福路","SECT":"二段","MAREA":" ","LANE":" ","ALLEY":" ","HOUSE_NO":"２０４號","E_COORD97":168223.51000000001,"N_COORD97":2544087.5099999998,"ADDRESS":"永福路二段２０４號","OBJECTID":334686},"geometry":{"x":168223.51000000071,"y":2544087.5099999998}},{"attributes":{"ID":334696,"DIS_CODE":0,"TOWNNAME":"南區","LI":"大忠里","LIN":"20鄰","STREET":"中華南路","SECT":"一段","MAREA":" ","LANE":"１２５巷","ALLEY":" ","HOUSE_NO":"３６號","E_COORD97":169206.06,"N_COORD97":2541122.8500000001,"ADDRESS":"中華南路一段１２５巷３６號","OBJECTID":334687},"geometry":{"x":169206.06000000052,"y":2541122.8500000034}},{"attributes":{"ID":334697,"DIS_CODE":0,"TOWNNAME":"南區","LI":"大忠里","LIN":"20鄰","STREET":"中華南路","SECT":"一段","MAREA":" ","LANE":"１２５巷","ALLEY":" ","HOUSE_NO":"３８號","E_COORD97":169206.32999999999,"N_COORD97":2541118.0499999998,"ADDRESS":"中華南路一段１２５巷３８號","OBJECTID":334688},"geometry":{"x":169206.33000000194,"y":2541118.0500000007}},{"attributes":{"ID":334698,"DIS_CODE":0,"TOWNNAME":"南區","LI":"大忠里","LIN":"20鄰","STREET":"中華南路","SECT":"一段","MAREA":" ","LANE":"１２５巷","ALLEY":" ","HOUSE_NO":"４０號","E_COORD97":169206.87,"N_COORD97":2541113.5099999998,"ADDRESS":"中華南路一段１２５巷４０號","OBJECTID":334689},"geometry":{"x":169206.87000000011,"y":2541113.5099999998}},{"attributes":{"ID":334699,"DIS_CODE":0,"TOWNNAME":"中西區","LI":"永福里","LIN":"17鄰","STREET":"永福路","SECT":"二段","MAREA":" ","LANE":" ","ALLEY":" ","HOUSE_NO":"２０６號","E_COORD97":168224.85000000001,"N_COORD97":2544091.5699999998,"ADDRESS":"永福路二段２０６號","OBJECTID":334690},"geometry":{"x":168224.85000000056,"y":2544091.5700000003}},{"attributes":{"ID":334700,"DIS_CODE":0,"TOWNNAME":"南區","LI":"大忠里","LIN":"20鄰","STREET":"中華南路","SECT":"一段","MAREA":" ","LANE":"１２５巷","ALLEY":" ","HOUSE_NO":"４２號","E_COORD97":169209.01000000001,"N_COORD97":2541107.8999999999,"ADDRESS":"中華南路一段１２５巷４２號","OBJECTID":334691},"geometry":{"x":169209.00999999978,"y":2541107.9000000004}},{"attributes":{"ID":334701,"DIS_CODE":0,"TOWNNAME":"安南區","LI":"東和里","LIN":"4鄰","STREET":"長和路","SECT":"一段","MAREA":" ","LANE":"８２３巷","ALLEY":" ","HOUSE_NO":"１１２號","E_COORD97":170830.84645000001,"N_COORD97":2551145.3609199999,"ADDRESS":"長和路一段８２３巷１１２號","OBJECTID":334692},"geometry":{"x":170830.84645000007,"y":2551145.3609220013}},{"attributes":{"ID":334702,"DIS_CODE":0,"TOWNNAME":"南區","LI":"省躬里","LIN":"1鄰","STREET":"灣裡路","SECT":" ","MAREA":" ","LANE":"１３６巷","ALLEY":" ","HOUSE_NO":"１５號之１","E_COORD97":165958.76000000001,"N_COORD97":2536734.0600000001,"ADDRESS":"灣裡路１３６巷１５號之１","OBJECTID":334693},"geometry":{"x":165958.76000000071,"y":2536734.0600000005}},{"attributes":{"ID":334703,"DIS_CODE":0,"TOWNNAME":"南區","LI":"大恩里","LIN":"1鄰","STREET":"國民路","SECT":" ","MAREA":" ","LANE":"６０巷","ALLEY":" ","HOUSE_NO":"１２號","E_COORD97":169434.82999999999,"N_COORD97":2540943.0699999998,"ADDRESS":"國民路６０巷１２號","OBJECTID":334694},"geometry":{"x":169434.83000000007,"y":2540943.0700000022}},{"attributes":{"ID":334704,"DIS_CODE":0,"TOWNNAME":"南區","LI":"大恩里","LIN":"1鄰","STREET":"國民路","SECT":" ","MAREA":" ","LANE":"６０巷","ALLEY":" ","HOUSE_NO":"１３號","E_COORD97":169415.17999999999,"N_COORD97":2540958.52,"ADDRESS":"國民路６０巷１３號","OBJECTID":334695},"geometry":{"x":169415.1799999997,"y":2540958.5199999977}},{"attributes":{"ID":334705,"DIS_CODE":0,"TOWNNAME":"山上區","LI":"明和里","LIN":"19鄰","STREET":" ","SECT":" ","MAREA":"明和","LANE":" ","ALLEY":" ","HOUSE_NO":"５２號之７","E_COORD97":183276.11415499999,"N_COORD97":2555952.6864200002,"ADDRESS":"明和５２號之７","OBJECTID":334696},"geometry":{"x":183276.11415500008,"y":2555952.6864200011}},{"attributes":{"ID":334706,"DIS_CODE":0,"TOWNNAME":"下營區","LI":"大埤里","LIN":"9鄰","STREET":" ","SECT":" ","MAREA":"大埤寮","LANE":" ","ALLEY":" ","HOUSE_NO":"７９號之１","E_COORD97":173064.06230699999,"N_COORD97":2569517.4322799998,"ADDRESS":"大埤寮７９號之１","OBJECTID":334697},"geometry":{"x":173064.06230700109,"y":2569517.4322800022}},{"attributes":{"ID":334707,"DIS_CODE":0,"TOWNNAME":"楠西區","LI":"灣丘里","LIN":"1鄰","STREET":" ","SECT":" ","MAREA":"灣丘","LANE":" ","ALLEY":" ","HOUSE_NO":"６號之１","E_COORD97":198958.70616100001,"N_COORD97":2563887.0354900002,"ADDRESS":"灣丘６號之１","OBJECTID":334698},"geometry":{"x":198958.7061609989,"y":2563887.0354890041}},{"attributes":{"ID":334708,"DIS_CODE":0,"TOWNNAME":"楠西區","LI":"灣丘里","LIN":"1鄰","STREET":" ","SECT":" ","MAREA":"灣丘","LANE":" ","ALLEY":" ","HOUSE_NO":"１０號之１","E_COORD97":199014.85230999999,"N_COORD97":2563901.1113100001,"ADDRESS":"灣丘１０號之１","OBJECTID":334699},"geometry":{"x":199014.85230999999,"y":2563901.1113150008}},{"attributes":{"ID":334709,"DIS_CODE":0,"TOWNNAME":"楠西區","LI":"灣丘里","LIN":"2鄰","STREET":" ","SECT":" ","MAREA":"灣丘","LANE":" ","ALLEY":" ","HOUSE_NO":"１４號","E_COORD97":199382.66255000001,"N_COORD97":2563975.51211,"ADDRESS":"灣丘１４號","OBJECTID":334700},"geometry":{"x":199382.66255000141,"y":2563975.5121080037}},{"attributes":{"ID":334710,"DIS_CODE":0,"TOWNNAME":"楠西區","LI":"灣丘里","LIN":"2鄰","STREET":" ","SECT":" ","MAREA":"灣丘","LANE":" ","ALLEY":" ","HOUSE_NO":"２０號之６","E_COORD97":199523.55760199999,"N_COORD97":2563929.26297,"ADDRESS":"灣丘２０號之６","OBJECTID":334701},"geometry":{"x":199523.55760200042,"y":2563929.2629659977}},{"attributes":{"ID":334711,"DIS_CODE":0,"TOWNNAME":"下營區","LI":"大埤里","LIN":"9鄰","STREET":" ","SECT":" ","MAREA":"大埤寮","LANE":" ","ALLEY":" ","HOUSE_NO":"７９號之６","E_COORD97":173074.86615799999,"N_COORD97":2569478.1681300001,"ADDRESS":"大埤寮７９號之６","OBJECTID":334702},"geometry":{"x":173074.86615800019,"y":2569478.168134002}},{"attributes":{"ID":334712,"DIS_CODE":0,"TOWNNAME":"永康區","LI":"六合里","LIN":"2鄰","STREET":"新興街","SECT":" ","MAREA":" ","LANE":"３５巷","ALLEY":" ","HOUSE_NO":"５號","E_COORD97":170941.00316399999,"N_COORD97":2545809.01578,"ADDRESS":"新興街３５巷５號","OBJECTID":334703},"geometry":{"x":170941.00316400081,"y":2545809.01578}},{"attributes":{"ID":334713,"DIS_CODE":0,"TOWNNAME":"永康區","LI":"六合里","LIN":"2鄰","STREET":"新興街","SECT":" ","MAREA":" ","LANE":"３５巷","ALLEY":" ","HOUSE_NO":"５號","E_COORD97":170940.79129699999,"N_COORD97":2545810.0741099999,"ADDRESS":"新興街３５巷５號","OBJECTID":334704},"geometry":{"x":170940.7912969999,"y":2545810.074113002}},{"attributes":{"ID":334714,"DIS_CODE":0,"TOWNNAME":"永康區","LI":"勝利里","LIN":"15鄰","STREET":"勝利街","SECT":" ","MAREA":" ","LANE":"１０７巷","ALLEY":" ","HOUSE_NO":"１號","E_COORD97":171339.10204600001,"N_COORD97":2544888.58378,"ADDRESS":"勝利街１０７巷１號","OBJECTID":334705},"geometry":{"x":171339.10204599984,"y":2544888.5837770011}},{"attributes":{"ID":334715,"DIS_CODE":0,"TOWNNAME":"下營區","LI":"新興里","LIN":"11鄰","STREET":"大同街","SECT":" ","MAREA":" ","LANE":"２２巷","ALLEY":" ","HOUSE_NO":"９號","E_COORD97":174669.30550300001,"N_COORD97":2570733.3802100001,"ADDRESS":"大同街２２巷９號","OBJECTID":334706},"geometry":{"x":174669.30550299957,"y":2570733.3802109994}},{"attributes":{"ID":334716,"DIS_CODE":0,"TOWNNAME":"六甲區","LI":"甲東里","LIN":"13鄰","STREET":"忠孝街","SECT":" ","MAREA":" ","LANE":"１８２巷","ALLEY":" ","HOUSE_NO":"１１號","E_COORD97":184063.147283,"N_COORD97":2569936.17857,"ADDRESS":"忠孝街１８２巷１１號","OBJECTID":334707},"geometry":{"x":184063.14728299994,"y":2569936.1785750035}},{"attributes":{"ID":334717,"DIS_CODE":0,"TOWNNAME":"安南區","LI":"顯宮里","LIN":"3鄰","STREET":"北汕尾三路","SECT":" ","MAREA":" ","LANE":" ","ALLEY":" ","HOUSE_NO":"１７６號","E_COORD97":161623.05561000001,"N_COORD97":2550127.0164200002,"ADDRESS":"北汕尾三路１７６號","OBJECTID":334708},"geometry":{"x":161623.05561000109,"y":2550127.0164200012}},{"attributes":{"ID":334718,"DIS_CODE":0,"TOWNNAME":"安南區","LI":"顯宮里","LIN":"3鄰","STREET":"北汕尾三路","SECT":" ","MAREA":" ","LANE":" ","ALLEY":" ","HOUSE_NO":"１７６之１　號","E_COORD97":161638.73131999999,"N_COORD97":2550131.9905900001,"ADDRESS":"北汕尾三路１７６之１　號","OBJECTID":334709},"geometry":{"x":161638.73131999932,"y":2550131.9905900043}},{"attributes":{"ID":334719,"DIS_CODE":0,"TOWNNAME":"安南區","LI":"顯宮里","LIN":"3鄰","STREET":"北汕尾三路","SECT":" ","MAREA":" ","LANE":" ","ALLEY":" ","HOUSE_NO":"４２８號","E_COORD97":161915.662633,"N_COORD97":2550654.12078,"ADDRESS":"北汕尾三路４２８號","OBJECTID":334710},"geometry":{"x":161915.66263299994,"y":2550654.1207759995}},{"attributes":{"ID":334720,"DIS_CODE":0,"TOWNNAME":"白河區","LI":"關嶺里","LIN":"13鄰","STREET":" ","SECT":" ","MAREA":"水火洞","LANE":" ","ALLEY":" ","HOUSE_NO":"５號","E_COORD97":196878.38553500001,"N_COORD97":2579953.9378900002,"ADDRESS":"水火洞５號","OBJECTID":334711},"geometry":{"x":196878.38553500082,"y":2579953.9378879983}},{"attributes":{"ID":334721,"DIS_CODE":0,"TOWNNAME":"歸仁區","LI":"南興里","LIN":"20鄰","STREET":"文化街","SECT":"三段","MAREA":" ","LANE":"５９２巷","ALLEY":" ","HOUSE_NO":"５０號","E_COORD97":175634.87,"N_COORD97":2541267.2599999998,"ADDRESS":"文化街三段５９２巷５０號","OBJECTID":334712},"geometry":{"x":175634.87000000104,"y":2541267.2600000016}},{"attributes":{"ID":334722,"DIS_CODE":0,"TOWNNAME":"歸仁區","LI":"南興里","LIN":"20鄰","STREET":"文化街","SECT":"三段","MAREA":" ","LANE":"５９２巷","ALLEY":" ","HOUSE_NO":"５８號","E_COORD97":175658.47,"N_COORD97":2541271.2599999998,"ADDRESS":"文化街三段５９２巷５８號","OBJECTID":334713},"geometry":{"x":175658.4700000016,"y":2541271.2599999998}},{"attributes":{"ID":334723,"DIS_CODE":0,"TOWNNAME":"東區","LI":"裕聖里","LIN":"1鄰","STREET":"裕忠一街","SECT":" ","MAREA":" ","LANE":" ","ALLEY":" ","HOUSE_NO":"１３號","E_COORD97":172298.31,"N_COORD97":2542420.0800000001,"ADDRESS":"裕忠一街１３號","OBJECTID":334714},"geometry":{"x":172298.31000000052,"y":2542420.0800000038}},{"attributes":{"ID":334724,"DIS_CODE":0,"TOWNNAME":"東區","LI":"裕聖里","LIN":"1鄰","STREET":"裕忠一街","SECT":" ","MAREA":" ","LANE":" ","ALLEY":" ","HOUSE_NO":"１５號","E_COORD97":172301.97,"N_COORD97":2542423.3500000001,"ADDRESS":"裕忠一街１５號","OBJECTID":334715},"geometry":{"x":172301.9700000016,"y":2542423.3499999996}},{"attributes":{"ID":334725,"DIS_CODE":0,"TOWNNAME":"南區","LI":"大恩里","LIN":"1鄰","STREET":"國民路","SECT":" ","MAREA":" ","LANE":"６０巷","ALLEY":" ","HOUSE_NO":"１５號","E_COORD97":169414.73000000001,"N_COORD97":2540965.5800000001,"ADDRESS":"國民路６０巷１５號","OBJECTID":334716},"geometry":{"x":169414.73000000138,"y":2540965.5800000038}},{"attributes":{"ID":334726,"DIS_CODE":0,"TOWNNAME":"南區","LI":"大恩里","LIN":"1鄰","STREET":"國民路","SECT":" ","MAREA":" ","LANE":"６０巷","ALLEY":" ","HOUSE_NO":"１７號","E_COORD97":169416.94,"N_COORD97":2540976.8999999999,"ADDRESS":"國民路６０巷１７號","OBJECTID":334717},"geometry":{"x":169416.94000000041,"y":2540976.9000000004}},{"attributes":{"ID":334727,"DIS_CODE":0,"TOWNNAME":"南區","LI":"大恩里","LIN":"1鄰","STREET":"國民路","SECT":" ","MAREA":" ","LANE":"６０巷","ALLEY":" ","HOUSE_NO":"１９號","E_COORD97":169417.16,"N_COORD97":2540982.0699999998,"ADDRESS":"國民路６０巷１９號","OBJECTID":334718},"geometry":{"x":169417.16000000015,"y":2540982.0700000003}},{"attributes":{"ID":334728,"DIS_CODE":0,"TOWNNAME":"安南區","LI":"顯宮里","LIN":"3鄰","STREET":"媽祖宮二街","SECT":" ","MAREA":" ","LANE":" ","ALLEY":" ","HOUSE_NO":"１０號","E_COORD97":160766.93779299999,"N_COORD97":2548993.1663700002,"ADDRESS":"媽祖宮二街１０號","OBJECTID":334719},"geometry":{"x":160766.9377930006,"y":2548993.1663700007}},{"attributes":{"ID":334729,"DIS_CODE":0,"TOWNNAME":"安南區","LI":"顯宮里","LIN":"3鄰","STREET":"北汕尾三路","SECT":" ","MAREA":" ","LANE":" ","ALLEY":" ","HOUSE_NO":"４２２號","E_COORD97":161905.28771400001,"N_COORD97":2550635.4941199999,"ADDRESS":"北汕尾三路４２２號","OBJECTID":334720},"geometry":{"x":161905.28771400079,"y":2550635.4941190016}},{"attributes":{"ID":334730,"DIS_CODE":0,"TOWNNAME":"南區","LI":"大林里","LIN":"1鄰","STREET":"大林路","SECT":" ","MAREA":" ","LANE":"５５巷","ALLEY":" ","HOUSE_NO":"３號","E_COORD97":169275.03,"N_COORD97":2541791.3399999999,"ADDRESS":"大林路５５巷３號","OBJECTID":334721},"geometry":{"x":169275.03000000119,"y":2541791.3400000017}},{"attributes":{"ID":334731,"DIS_CODE":0,"TOWNNAME":"北區","LI":"文元里","LIN":"1鄰","STREET":"北成路","SECT":" ","MAREA":" ","LANE":"４８１巷","ALLEY":" ","HOUSE_NO":"３號","E_COORD97":167851.35000000001,"N_COORD97":2546520.9399999999,"ADDRESS":"北成路４８１巷３號","OBJECTID":334722},"geometry":{"x":167851.35000000056,"y":2546520.9400000013}},{"attributes":{"ID":334732,"DIS_CODE":0,"TOWNNAME":"北區","LI":"文元里","LIN":"1鄰","STREET":"北成路","SECT":" ","MAREA":" ","LANE":"４８１巷","ALLEY":" ","HOUSE_NO":"５號","E_COORD97":167857.07000000001,"N_COORD97":2546521.8300000001,"ADDRESS":"北成路４８１巷５號","OBJECTID":334723},"geometry":{"x":167857.06999999937,"y":2546521.8300000019}},{"attributes":{"ID":334733,"DIS_CODE":0,"TOWNNAME":"北區","LI":"文元里","LIN":"1鄰","STREET":"北成路","SECT":" ","MAREA":" ","LANE":"４８１巷","ALLEY":" ","HOUSE_NO":"７號","E_COORD97":167863.54000000001,"N_COORD97":2546522.7200000002,"ADDRESS":"北成路４８１巷７號","OBJECTID":334724},"geometry":{"x":167863.54000000004,"y":2546522.7200000025}},{"attributes":{"ID":334734,"DIS_CODE":0,"TOWNNAME":"北區","LI":"安民里","LIN":"1鄰","STREET":"海安路","SECT":"三段","MAREA":" ","LANE":"１４巷","ALLEY":" ","HOUSE_NO":"２號","E_COORD97":167918.89999999999,"N_COORD97":2544618.7200000002,"ADDRESS":"海安路三段１４巷２號","OBJECTID":334725},"geometry":{"x":167918.90000000037,"y":2544618.7200000007}},{"attributes":{"ID":334735,"DIS_CODE":0,"TOWNNAME":"北區","LI":"安民里","LIN":"1鄰","STREET":"海安路","SECT":"三段","MAREA":" ","LANE":"１４巷","ALLEY":" ","HOUSE_NO":"３號","E_COORD97":167927.35999999999,"N_COORD97":2544618.7200000002,"ADDRESS":"海安路三段１４巷３號","OBJECTID":334726},"geometry":{"x":167927.36000000034,"y":2544618.7200000007}},{"attributes":{"ID":334736,"DIS_CODE":0,"TOWNNAME":"北區","LI":"安民里","LIN":"1鄰","STREET":"海安路","SECT":"三段","MAREA":" ","LANE":"１４巷","ALLEY":" ","HOUSE_NO":"５號","E_COORD97":167932.51999999999,"N_COORD97":2544618.29,"ADDRESS":"海安路三段１４巷５號","OBJECTID":334727},"geometry":{"x":167932.51999999955,"y":2544618.2900000028}},{"attributes":{"ID":334737,"DIS_CODE":0,"TOWNNAME":"北區","LI":"安民里","LIN":"1鄰","STREET":"國華街","SECT":"四段","MAREA":" ","LANE":"５巷","ALLEY":" ","HOUSE_NO":"１０號","E_COORD97":167933.29999999999,"N_COORD97":2544578.48,"ADDRESS":"國華街四段５巷１０號","OBJECTID":334728},"geometry":{"x":167933.30000000075,"y":2544578.4800000023}},{"attributes":{"ID":334738,"DIS_CODE":0,"TOWNNAME":"新營區","LI":"新南里","LIN":"1鄰","STREET":"民治路","SECT":" ","MAREA":" ","LANE":"２３０巷","ALLEY":" ","HOUSE_NO":"７２號","E_COORD97":178652.29000000001,"N_COORD97":2578685.46,"ADDRESS":"民治路２３０巷７２號","OBJECTID":334729},"geometry":{"x":178652.29000000097,"y":2578685.4600000046}},{"attributes":{"ID":334739,"DIS_CODE":0,"TOWNNAME":"東區","LI":"裕聖里","LIN":"1鄰","STREET":"裕忠一街","SECT":" ","MAREA":" ","LANE":" ","ALLEY":" ","HOUSE_NO":"１７號","E_COORD97":172306.79000000001,"N_COORD97":2542421.04,"ADDRESS":"裕忠一街１７號","OBJECTID":334730},"geometry":{"x":172306.79000000004,"y":2542421.040000001}},{"attributes":{"ID":334740,"DIS_CODE":0,"TOWNNAME":"麻豆區","LI":"大埕里","LIN":"8鄰","STREET":" ","SECT":" ","MAREA":"大埕","LANE":" ","ALLEY":" ","HOUSE_NO":"１５號之２８","E_COORD97":173169.19076999999,"N_COORD97":2565373.8496500002,"ADDRESS":"大埕１５號之２８","OBJECTID":334731},"geometry":{"x":173169.19076999929,"y":2565373.8496499993}},{"attributes":{"ID":334741,"DIS_CODE":0,"TOWNNAME":"新營區","LI":"王公里","LIN":"33鄰","STREET":"民族路","SECT":" ","MAREA":" ","LANE":"３３０巷","ALLEY":" ","HOUSE_NO":"６１號","E_COORD97":180553.47855999999,"N_COORD97":2579820.5947799999,"ADDRESS":"民族路３３０巷６１號","OBJECTID":334732},"geometry":{"x":180553.47855999973,"y":2579820.5947820004}},{"attributes":{"ID":334742,"DIS_CODE":0,"TOWNNAME":"仁德區","LI":"仁愛里","LIN":"28鄰","STREET":"機場路","SECT":" ","MAREA":" ","LANE":" ","ALLEY":" ","HOUSE_NO":"１２４８號","E_COORD97":169695.12,"N_COORD97":2539177.8250000002,"ADDRESS":"機場路１２４８號","OBJECTID":334733},"geometry":{"x":169695.12000000011,"y":2539177.8249999993}},{"attributes":{"ID":334743,"DIS_CODE":0,"TOWNNAME":"下營區","LI":"新興里","LIN":"8鄰","STREET":"和平街","SECT":" ","MAREA":" ","LANE":" ","ALLEY":" ","HOUSE_NO":"１２號","E_COORD97":174731.16777599999,"N_COORD97":2570630.3133100001,"ADDRESS":"和平街１２號","OBJECTID":334734},"geometry":{"x":174731.16777600069,"y":2570630.3133080024}},{"attributes":{"ID":334744,"DIS_CODE":0,"TOWNNAME":"北區","LI":"大豐里","LIN":"20鄰","STREET":"大興街","SECT":" ","MAREA":" ","LANE":"２３３巷","ALLEY":" ","HOUSE_NO":"３６號","E_COORD97":166850.79000000001,"N_COORD97":2545588.3999999999,"ADDRESS":"大興街２３３巷３６號","OBJECTID":334735},"geometry":{"x":166850.79000000097,"y":2545588.4000000041}},{"attributes":{"ID":334745,"DIS_CODE":0,"TOWNNAME":"北區","LI":"大豐里","LIN":"20鄰","STREET":"大興街","SECT":" ","MAREA":" ","LANE":"２３３巷","ALLEY":" ","HOUSE_NO":"３８號","E_COORD97":166851.76000000001,"N_COORD97":2545567.73,"ADDRESS":"大興街２３３巷３８號","OBJECTID":334736},"geometry":{"x":166851.76000000164,"y":2545567.7300000004}},{"attributes":{"ID":334746,"DIS_CODE":0,"TOWNNAME":"安平區","LI":"文平里","LIN":"1鄰","STREET":"建平七街","SECT":" ","MAREA":" ","LANE":"２６巷","ALLEY":" ","HOUSE_NO":"４４號","E_COORD97":166538.25,"N_COORD97":2543229.1499999999,"ADDRESS":"建平七街２６巷４４號","OBJECTID":334737},"geometry":{"x":166538.25,"y":2543229.1500000004}},{"attributes":{"ID":334747,"DIS_CODE":0,"TOWNNAME":"安平區","LI":"文平里","LIN":"1鄰","STREET":"建平七街","SECT":" ","MAREA":" ","LANE":"２６巷","ALLEY":" ","HOUSE_NO":"１１號","E_COORD97":166471.14999999999,"N_COORD97":2543266.3799999999,"ADDRESS":"建平七街２６巷１１號","OBJECTID":334738},"geometry":{"x":166471.15000000037,"y":2543266.379999999}},{"attributes":{"ID":334748,"DIS_CODE":0,"TOWNNAME":"安平區","LI":"文平里","LIN":"1鄰","STREET":"建平七街","SECT":" ","MAREA":" ","LANE":"２６巷","ALLEY":" ","HOUSE_NO":"１３號","E_COORD97":166475.98000000001,"N_COORD97":2543265.2000000002,"ADDRESS":"建平七街２６巷１３號","OBJECTID":334739},"geometry":{"x":166475.98000000045,"y":2543265.1999999993}},{"attributes":{"ID":334749,"DIS_CODE":0,"TOWNNAME":"安平區","LI":"文平里","LIN":"1鄰","STREET":"建平七街","SECT":" ","MAREA":" ","LANE":"２６巷","ALLEY":" ","HOUSE_NO":"１５號","E_COORD97":166480.81,"N_COORD97":2543264.73,"ADDRESS":"建平七街２６巷１５號","OBJECTID":334740},"geometry":{"x":166480.81000000052,"y":2543264.7300000023}},{"attributes":{"ID":334750,"DIS_CODE":0,"TOWNNAME":"安平區","LI":"文平里","LIN":"1鄰","STREET":"建平七街","SECT":" ","MAREA":" ","LANE":"２６巷","ALLEY":" ","HOUSE_NO":"１７號","E_COORD97":166485.51999999999,"N_COORD97":2543263.8999999999,"ADDRESS":"建平七街２６巷１７號","OBJECTID":334741},"geometry":{"x":166485.52000000048,"y":2543263.9000000022}},{"attributes":{"ID":334751,"DIS_CODE":0,"TOWNNAME":"安平區","LI":"文平里","LIN":"1鄰","STREET":"建平七街","SECT":" ","MAREA":" ","LANE":"２６巷","ALLEY":" ","HOUSE_NO":"１９號","E_COORD97":166489.88,"N_COORD97":2543262.8399999999,"ADDRESS":"建平七街２６巷１９號","OBJECTID":334742},"geometry":{"x":166489.87999999896,"y":2543262.8400000017}},{"attributes":{"ID":334752,"DIS_CODE":0,"TOWNNAME":"安平區","LI":"文平里","LIN":"1鄰","STREET":"建平七街","SECT":" ","MAREA":" ","LANE":"２６巷","ALLEY":" ","HOUSE_NO":"２８號","E_COORD97":166505.28,"N_COORD97":2543234.8900000001,"ADDRESS":"建平七街２６巷２８號","OBJECTID":334743},"geometry":{"x":166505.28000000119,"y":2543234.8900000006}},{"attributes":{"ID":334753,"DIS_CODE":0,"TOWNNAME":"安平區","LI":"文平里","LIN":"1鄰","STREET":"建平七街","SECT":" ","MAREA":" ","LANE":"２６巷","ALLEY":" ","HOUSE_NO":"３０號","E_COORD97":166509.97,"N_COORD97":2543234.21,"ADDRESS":"建平七街２６巷３０號","OBJECTID":334744},"geometry":{"x":166509.97000000067,"y":2543234.2100000028}},{"attributes":{"ID":334754,"DIS_CODE":0,"TOWNNAME":"安平區","LI":"文平里","LIN":"1鄰","STREET":"建平七街","SECT":" ","MAREA":" ","LANE":"２６巷","ALLEY":" ","HOUSE_NO":"３２號","E_COORD97":166514.09,"N_COORD97":2543233.1499999999,"ADDRESS":"建平七街２６巷３２號","OBJECTID":334745},"geometry":{"x":166514.09000000171,"y":2543233.1500000004}},{"attributes":{"ID":334755,"DIS_CODE":0,"TOWNNAME":"安平區","LI":"文平里","LIN":"1鄰","STREET":"建平七街","SECT":" ","MAREA":" ","LANE":"２６巷","ALLEY":" ","HOUSE_NO":"３４號","E_COORD97":166517.75,"N_COORD97":2543232.7999999998,"ADDRESS":"建平七街２６巷３４號","OBJECTID":334746},"geometry":{"x":166517.75,"y":2543232.7999999989}},{"attributes":{"ID":334756,"DIS_CODE":0,"TOWNNAME":"安平區","LI":"文平里","LIN":"1鄰","STREET":"建平七街","SECT":" ","MAREA":" ","LANE":"２６巷","ALLEY":" ","HOUSE_NO":"３６號","E_COORD97":166521.87,"N_COORD97":2543231.8599999999,"ADDRESS":"建平七街２６巷３６號","OBJECTID":334747},"geometry":{"x":166521.87000000011,"y":2543231.8600000013}},{"attributes":{"ID":334757,"DIS_CODE":0,"TOWNNAME":"安平區","LI":"文平里","LIN":"1鄰","STREET":"建平七街","SECT":" ","MAREA":" ","LANE":"２６巷","ALLEY":" ","HOUSE_NO":"３８號","E_COORD97":166526.10999999999,"N_COORD97":2543231.5,"ADDRESS":"建平七街２６巷３８號","OBJECTID":334748},"geometry":{"x":166526.1099999994,"y":2543231.5000000019}},{"attributes":{"ID":334758,"DIS_CODE":0,"TOWNNAME":"安平區","LI":"文平里","LIN":"1鄰","STREET":"建平七街","SECT":" ","MAREA":" ","LANE":"２６巷","ALLEY":" ","HOUSE_NO":"４０號","E_COORD97":166530.35000000001,"N_COORD97":2543230.6800000002,"ADDRESS":"建平七街２６巷４０號","OBJECTID":334749},"geometry":{"x":166530.34999999963,"y":2543230.6800000016}},{"attributes":{"ID":334759,"DIS_CODE":0,"TOWNNAME":"安平區","LI":"文平里","LIN":"1鄰","STREET":"建平七街","SECT":" ","MAREA":" ","LANE":"２６巷","ALLEY":" ","HOUSE_NO":"４２號","E_COORD97":166534.23999999999,"N_COORD97":2543230.0899999999,"ADDRESS":"建平七街２６巷４２號","OBJECTID":334750},"geometry":{"x":166534.24000000115,"y":2543230.0900000036}},{"attributes":{"ID":334760,"DIS_CODE":0,"TOWNNAME":"安平區","LI":"文平里","LIN":"1鄰","STREET":"建平七街","SECT":" ","MAREA":" ","LANE":"２６巷","ALLEY":" ","HOUSE_NO":"４６號","E_COORD97":166545.29000000001,"N_COORD97":2543228.9100000001,"ADDRESS":"建平七街２６巷４６號","OBJECTID":334751},"geometry":{"x":166545.29000000097,"y":2543228.910000002}},{"attributes":{"ID":334761,"DIS_CODE":0,"TOWNNAME":"安平區","LI":"文平里","LIN":"1鄰","STREET":"建平七街","SECT":" ","MAREA":" ","LANE":"２６巷","ALLEY":" ","HOUSE_NO":"４６號地下層","E_COORD97":166545.29000000001,"N_COORD97":2543228.9100000001,"ADDRESS":"建平七街２６巷４６號地下層","OBJECTID":334752},"geometry":{"x":166545.29000000097,"y":2543228.910000002}},{"attributes":{"ID":334762,"DIS_CODE":0,"TOWNNAME":"安平區","LI":"文平里","LIN":"1鄰","STREET":"建平七街","SECT":" ","MAREA":" ","LANE":"２６巷","ALLEY":" ","HOUSE_NO":"５之５號","E_COORD97":166456.17999999999,"N_COORD97":2543268.73,"ADDRESS":"建平七街２６巷５之５號","OBJECTID":334753},"geometry":{"x":166456.18000000063,"y":2543268.7300000023}},{"attributes":{"ID":334763,"DIS_CODE":0,"TOWNNAME":"新營區","LI":"護鎮里","LIN":"1鄰","STREET":"中正路","SECT":" ","MAREA":" ","LANE":"４３９巷","ALLEY":" ","HOUSE_NO":"２１號","E_COORD97":179732.81,"N_COORD97":2580268.3799999999,"ADDRESS":"中正路４３９巷２１號","OBJECTID":334754},"geometry":{"x":179732.80999999959,"y":2580268.3800000008}},{"attributes":{"ID":334764,"DIS_CODE":0,"TOWNNAME":"新營區","LI":"興業里","LIN":"1鄰","STREET":"公誠街","SECT":" ","MAREA":" ","LANE":"１７巷","ALLEY":" ","HOUSE_NO":"１６號之３","E_COORD97":180358.09,"N_COORD97":2577935.4100000001,"ADDRESS":"公誠街１７巷１６號之３","OBJECTID":334755},"geometry":{"x":180358.08999999985,"y":2577935.4099999983}},{"attributes":{"ID":334765,"DIS_CODE":0,"TOWNNAME":"新營區","LI":"興業里","LIN":"1鄰","STREET":"公誠街","SECT":" ","MAREA":" ","LANE":"１７巷","ALLEY":" ","HOUSE_NO":"１２號","E_COORD97":180337.44,"N_COORD97":2577933.23,"ADDRESS":"公誠街１７巷１２號","OBJECTID":334756},"geometry":{"x":180337.44000000041,"y":2577933.2300000004}},{"attributes":{"ID":334766,"DIS_CODE":0,"TOWNNAME":"南區","LI":"喜東里","LIN":"1鄰","STREET":"明興路","SECT":" ","MAREA":" ","LANE":"３２１巷","ALLEY":" ","HOUSE_NO":"２３號","E_COORD97":166545.17999999999,"N_COORD97":2538923.2400000002,"ADDRESS":"明興路３２１巷２３號","OBJECTID":334757},"geometry":{"x":166545.1799999997,"y":2538923.2400000002}},{"attributes":{"ID":334767,"DIS_CODE":0,"TOWNNAME":"南區","LI":"明德里","LIN":"1鄰","STREET":"大成路","SECT":"一段","MAREA":" ","LANE":"１６８巷","ALLEY":" ","HOUSE_NO":"１８號","E_COORD97":167881.60000000001,"N_COORD97":2541790.6699999999,"ADDRESS":"大成路一段１６８巷１８號","OBJECTID":334758},"geometry":{"x":167881.5999999987,"y":2541790.6699999999}},{"attributes":{"ID":334768,"DIS_CODE":0,"TOWNNAME":"歸仁區","LI":"許厝里","LIN":"1鄰","STREET":"中山路","SECT":"一段","MAREA":" ","LANE":"３７１巷","ALLEY":" ","HOUSE_NO":"２號","E_COORD97":178321.34,"N_COORD97":2540656.0099999998,"ADDRESS":"中山路一段３７１巷２號","OBJECTID":334759},"geometry":{"x":178321.34000000078,"y":2540656.0099999998}},{"attributes":{"ID":334769,"DIS_CODE":0,"TOWNNAME":"中西區","LI":"永福里","LIN":"17鄰","STREET":"永福路","SECT":"二段","MAREA":" ","LANE":" ","ALLEY":" ","HOUSE_NO":"２０８號","E_COORD97":168227.75,"N_COORD97":2544098.1400000001,"ADDRESS":"永福路二段２０８號","OBJECTID":334760},"geometry":{"x":168227.75,"y":2544098.1400000006}},{"attributes":{"ID":334770,"DIS_CODE":0,"TOWNNAME":"中西區","LI":"永福里","LIN":"17鄰","STREET":"永福路","SECT":"二段","MAREA":" ","LANE":" ","ALLEY":" ","HOUSE_NO":"２１６號","E_COORD97":168233,"N_COORD97":2544114.2200000002,"ADDRESS":"永福路二段２１６號","OBJECTID":334761},"geometry":{"x":168233,"y":2544114.2200000007}},{"attributes":{"ID":334771,"DIS_CODE":0,"TOWNNAME":"中西區","LI":"永福里","LIN":"17鄰","STREET":"永福路","SECT":"二段","MAREA":" ","LANE":" ","ALLEY":" ","HOUSE_NO":"２１８號","E_COORD97":168234.67000000001,"N_COORD97":2544118.3399999999,"ADDRESS":"永福路二段２１８號","OBJECTID":334762},"geometry":{"x":168234.67000000086,"y":2544118.3400000017}},{"attributes":{"ID":334772,"DIS_CODE":0,"TOWNNAME":"中西區","LI":"永福里","LIN":"17鄰","STREET":"永福路","SECT":"二段","MAREA":" ","LANE":" ","ALLEY":" ","HOUSE_NO":"２２０號","E_COORD97":168235.89999999999,"N_COORD97":2544120.5699999998,"ADDRESS":"永福路二段２２０號","OBJECTID":334763},"geometry":{"x":168235.90000000037,"y":2544120.5700000022}},{"attributes":{"ID":334773,"DIS_CODE":0,"TOWNNAME":"關廟區","LI":"龜洞里","LIN":"3鄰","STREET":"中崙街","SECT":" ","MAREA":" ","LANE":"１１巷","ALLEY":" ","HOUSE_NO":"２６號","E_COORD97":183285.36012200001,"N_COORD97":2533521.6075499998,"ADDRESS":"中崙街１１巷２６號","OBJECTID":334764},"geometry":{"x":183285.36012200173,"y":2533521.6075529996}},{"attributes":{"ID":334774,"DIS_CODE":0,"TOWNNAME":"永康區","LI":"新樹里","LIN":"4鄰","STREET":"富強路","SECT":"二段","MAREA":" ","LANE":"３９８巷","ALLEY":" ","HOUSE_NO":"１９３號之１１","E_COORD97":176094.204234,"N_COORD97":2547659.9350000001,"ADDRESS":"富強路二段３９８巷１９３號之１１","OBJECTID":334765},"geometry":{"x":176094.20423400216,"y":2547659.9350019991}},{"attributes":{"ID":334775,"DIS_CODE":0,"TOWNNAME":"永康區","LI":"新樹里","LIN":"4鄰","STREET":"富強路","SECT":"二段","MAREA":" ","LANE":"３９８巷","ALLEY":" ","HOUSE_NO":"１９３號之１２","E_COORD97":176096.17000000001,"N_COORD97":2547682.8599999999,"ADDRESS":"富強路二段３９８巷１９３號之１２","OBJECTID":334766},"geometry":{"x":176096.16999999993,"y":2547682.8600000031}},{"attributes":{"ID":334776,"DIS_CODE":0,"TOWNNAME":"永康區","LI":"新樹里","LIN":"4鄰","STREET":"富強路","SECT":"二段","MAREA":" ","LANE":"３９８巷","ALLEY":" ","HOUSE_NO":"１９３號之１４","E_COORD97":176095.57000000001,"N_COORD97":2547725.3500000001,"ADDRESS":"富強路二段３９８巷１９３號之１４","OBJECTID":334767},"geometry":{"x":176095.5700000003,"y":2547725.3500000015}},{"attributes":{"ID":334777,"DIS_CODE":0,"TOWNNAME":"新營區","LI":"王公里","LIN":"33鄰","STREET":"民族路","SECT":" ","MAREA":" ","LANE":"３３０巷","ALLEY":" ","HOUSE_NO":"４２號","E_COORD97":180486.22419000001,"N_COORD97":2579791.8312599999,"ADDRESS":"民族路３３０巷４２號","OBJECTID":334768},"geometry":{"x":180486.22419000044,"y":2579791.8312640004}},{"attributes":{"ID":334778,"DIS_CODE":0,"TOWNNAME":"新營區","LI":"王公里","LIN":"33鄰","STREET":"民族路","SECT":" ","MAREA":" ","LANE":"３３０巷","ALLEY":" ","HOUSE_NO":"５２號","E_COORD97":180503.598532,"N_COORD97":2579793.1012599999,"ADDRESS":"民族路３３０巷５２號","OBJECTID":334769},"geometry":{"x":180503.59853200149,"y":2579793.1012639999}},{"attributes":{"ID":334779,"DIS_CODE":0,"TOWNNAME":"新營區","LI":"王公里","LIN":"33鄰","STREET":"民族路","SECT":" ","MAREA":" ","LANE":"３３０巷","ALLEY":" ","HOUSE_NO":"５６號","E_COORD97":180508.683705,"N_COORD97":2579792.2546000001,"ADDRESS":"民族路３３０巷５６號","OBJECTID":334770},"geometry":{"x":180508.68370500114,"y":2579792.2545970045}},{"attributes":{"ID":334780,"DIS_CODE":0,"TOWNNAME":"新營區","LI":"王公里","LIN":"33鄰","STREET":"民族路","SECT":" ","MAREA":" ","LANE":"３３０巷","ALLEY":" ","HOUSE_NO":"５８號","E_COORD97":180513.768878,"N_COORD97":2579792.6779299998,"ADDRESS":"民族路３３０巷５８號","OBJECTID":334771},"geometry":{"x":180513.76887800079,"y":2579792.677930003}},{"attributes":{"ID":334781,"DIS_CODE":0,"TOWNNAME":"仁德區","LI":"仁愛里","LIN":"27鄰","STREET":"大同路","SECT":"三段","MAREA":" ","LANE":" ","ALLEY":" ","HOUSE_NO":"５２５號","E_COORD97":169882.982854,"N_COORD97":2539043.0540999998,"ADDRESS":"大同路三段５２５號","OBJECTID":334772},"geometry":{"x":169882.98285400122,"y":2539043.0540989991}},{"attributes":{"ID":334782,"DIS_CODE":0,"TOWNNAME":"仁德區","LI":"仁愛里","LIN":"27鄰","STREET":"大同路","SECT":"三段","MAREA":" ","LANE":" ","ALLEY":" ","HOUSE_NO":"５３９號","E_COORD97":169905.22760499999,"N_COORD97":2539021.6757800002,"ADDRESS":"大同路三段５３９號","OBJECTID":334773},"geometry":{"x":169905.22760500107,"y":2539021.6757770013}},{"attributes":{"ID":334783,"DIS_CODE":0,"TOWNNAME":"中西區","LI":"協和里","LIN":"9鄰","STREET":"文賢路","SECT":" ","MAREA":" ","LANE":" ","ALLEY":" ","HOUSE_NO":"１８４號","E_COORD97":167380.83649700001,"N_COORD97":2544836.50502,"ADDRESS":"文賢路１８４號","OBJECTID":334774},"geometry":{"x":167380.83649700135,"y":2544836.5050180014}},{"attributes":{"ID":334784,"DIS_CODE":0,"TOWNNAME":"楠西區","LI":"灣丘里","LIN":"3鄰","STREET":" ","SECT":" ","MAREA":"灣丘","LANE":" ","ALLEY":" ","HOUSE_NO":"２７號之１","E_COORD97":199714.78044500001,"N_COORD97":2564037.2357000001,"ADDRESS":"灣丘２７號之１","OBJECTID":334775},"geometry":{"x":199714.78044500016,"y":2564037.2356989998}},{"attributes":{"ID":334785,"DIS_CODE":0,"TOWNNAME":"中西區","LI":"協和里","LIN":"16鄰","STREET":"永和街","SECT":" ","MAREA":" ","LANE":" ","ALLEY":" ","HOUSE_NO":"１９１號","E_COORD97":167245.867876,"N_COORD97":2544813.2217000001,"ADDRESS":"永和街１９１號","OBJECTID":334776},"geometry":{"x":167245.8678760007,"y":2544813.221698001}},{"attributes":{"ID":334786,"DIS_CODE":0,"TOWNNAME":"中西區","LI":"協和里","LIN":"7鄰","STREET":"臨安路","SECT":"一段","MAREA":" ","LANE":" ","ALLEY":" ","HOUSE_NO":"１７３號","E_COORD97":167194.38063199999,"N_COORD97":2544585.6801499999,"ADDRESS":"臨安路一段１７３號","OBJECTID":334777},"geometry":{"x":167194.38063200004,"y":2544585.6801539995}},{"attributes":{"ID":334787,"DIS_CODE":0,"TOWNNAME":"中西區","LI":"協和里","LIN":"7鄰","STREET":"臨安路","SECT":"一段","MAREA":" ","LANE":" ","ALLEY":" ","HOUSE_NO":"１８９號","E_COORD97":167225.103473,"N_COORD97":2544613.6201399998,"ADDRESS":"臨安路一段１８９號","OBJECTID":334778},"geometry":{"x":167225.10347300209,"y":2544613.6201389991}},{"attributes":{"ID":334788,"DIS_CODE":0,"TOWNNAME":"中西區","LI":"協和里","LIN":"13鄰","STREET":"西和路","SECT":" ","MAREA":" ","LANE":" ","ALLEY":" ","HOUSE_NO":"１７２號","E_COORD97":167041.61395100001,"N_COORD97":2544683.4701,"ADDRESS":"西和路１７２號","OBJECTID":334779},"geometry":{"x":167041.61395100038,"y":2544683.4701010007}},{"attributes":{"ID":334789,"DIS_CODE":0,"TOWNNAME":"仁德區","LI":"仁愛里","LIN":"28鄰","STREET":"機場路","SECT":" ","MAREA":" ","LANE":" ","ALLEY":" ","HOUSE_NO":"１１３０號","E_COORD97":169694.00839199999,"N_COORD97":2539000.29746,"ADDRESS":"機場路１１３０號","OBJECTID":334780},"geometry":{"x":169694.00839200057,"y":2539000.2974550016}},{"attributes":{"ID":334790,"DIS_CODE":0,"TOWNNAME":"仁德區","LI":"仁愛里","LIN":"28鄰","STREET":"機場路","SECT":" ","MAREA":" ","LANE":" ","ALLEY":" ","HOUSE_NO":"１０５０之１號","E_COORD97":169700.36403500001,"N_COORD97":2538963.25581,"ADDRESS":"機場路１０５０之１號","OBJECTID":334781},"geometry":{"x":169700.36403499916,"y":2538963.2558080014}},{"attributes":{"ID":334791,"DIS_CODE":0,"TOWNNAME":"歸仁區","LI":"歸仁里","LIN":"1鄰","STREET":"文化街","SECT":"一段","MAREA":" ","LANE":"１１６巷","ALLEY":" ","HOUSE_NO":"１０號","E_COORD97":177769.37,"N_COORD97":2541176.2599999998,"ADDRESS":"文化街一段１１６巷１０號","OBJECTID":334782},"geometry":{"x":177769.37000000011,"y":2541176.2599999998}},{"attributes":{"ID":334792,"DIS_CODE":0,"TOWNNAME":"北區","LI":"公園里","LIN":"1鄰","STREET":"北門路","SECT":"二段","MAREA":" ","LANE":"１５巷","ALLEY":" ","HOUSE_NO":"１１號","E_COORD97":169214.88,"N_COORD97":2544309.8700000001,"ADDRESS":"北門路二段１５巷１１號","OBJECTID":334783},"geometry":{"x":169214.88000000082,"y":2544309.870000001}},{"attributes":{"ID":334793,"DIS_CODE":0,"TOWNNAME":"北區","LI":"公園里","LIN":"1鄰","STREET":"北門路","SECT":"二段","MAREA":" ","LANE":"１５巷","ALLEY":" ","HOUSE_NO":"１３號","E_COORD97":169214,"N_COORD97":2544313.8999999999,"ADDRESS":"北門路二段１５巷１３號","OBJECTID":334784},"geometry":{"x":169214.00000000093,"y":2544313.9000000022}},{"attributes":{"ID":334794,"DIS_CODE":0,"TOWNNAME":"北區","LI":"公園里","LIN":"1鄰","STREET":"北門路","SECT":"二段","MAREA":" ","LANE":"１５巷","ALLEY":" ","HOUSE_NO":"１５號","E_COORD97":169213.64000000001,"N_COORD97":2544316.7999999998,"ADDRESS":"北門路二段１５巷１５號","OBJECTID":334785},"geometry":{"x":169213.63999999966,"y":2544316.8000000007}},{"attributes":{"ID":334795,"DIS_CODE":0,"TOWNNAME":"北區","LI":"公園里","LIN":"1鄰","STREET":"北門路","SECT":"二段","MAREA":" ","LANE":"１５巷","ALLEY":" ","HOUSE_NO":"３號","E_COORD97":169200.31,"N_COORD97":2544302.1499999999,"ADDRESS":"北門路二段１５巷３號","OBJECTID":334786},"geometry":{"x":169200.30999999959,"y":2544302.1500000022}},{"attributes":{"ID":334796,"DIS_CODE":0,"TOWNNAME":"北區","LI":"公園里","LIN":"1鄰","STREET":"北門路","SECT":"二段","MAREA":" ","LANE":"１５巷","ALLEY":" ","HOUSE_NO":"５號","E_COORD97":169218.73999999999,"N_COORD97":2544298.1200000001,"ADDRESS":"北門路二段１５巷５號","OBJECTID":334787},"geometry":{"x":169218.73999999929,"y":2544298.120000001}},{"attributes":{"ID":334797,"DIS_CODE":0,"TOWNNAME":"北區","LI":"公園里","LIN":"1鄰","STREET":"北門路","SECT":"二段","MAREA":" ","LANE":"１５巷","ALLEY":" ","HOUSE_NO":"７號","E_COORD97":169217.69,"N_COORD97":2544301.9700000002,"ADDRESS":"北門路二段１５巷７號","OBJECTID":334788},"geometry":{"x":169217.69000000227,"y":2544301.9700000007}},{"attributes":{"ID":334798,"DIS_CODE":0,"TOWNNAME":"北區","LI":"公園里","LIN":"1鄰","STREET":"北門路","SECT":"二段","MAREA":" ","LANE":"１５巷","ALLEY":" ","HOUSE_NO":"９號","E_COORD97":169215.92999999999,"N_COORD97":2544306.5299999998,"ADDRESS":"北門路二段１５巷９號","OBJECTID":334789},"geometry":{"x":169215.93000000063,"y":2544306.5299999993}},{"attributes":{"ID":334799,"DIS_CODE":0,"TOWNNAME":"安平區","LI":"港仔里","LIN":"1鄰","STREET":"安平路","SECT":" ","MAREA":" ","LANE":"３３巷","ALLEY":" ","HOUSE_NO":"２號之１","E_COORD97":164634.67999999999,"N_COORD97":2544417.8900000001,"ADDRESS":"安平路３３巷２號之１","OBJECTID":334790},"geometry":{"x":164634.6799999997,"y":2544417.8900000006}},{"attributes":{"ID":334800,"DIS_CODE":0,"TOWNNAME":"安平區","LI":"港仔里","LIN":"1鄰","STREET":"安平路","SECT":" ","MAREA":" ","LANE":"３３巷","ALLEY":" ","HOUSE_NO":"２號之２","E_COORD97":164634.87,"N_COORD97":2544413.3799999999,"ADDRESS":"安平路３３巷２號之２","OBJECTID":334791},"geometry":{"x":164634.87000000104,"y":2544413.379999999}},{"attributes":{"ID":334801,"DIS_CODE":0,"TOWNNAME":"安平區","LI":"港仔里","LIN":"1鄰","STREET":"安平路","SECT":" ","MAREA":" ","LANE":"３３巷","ALLEY":" ","HOUSE_NO":"５號","E_COORD97":164650.26999999999,"N_COORD97":2544402.48,"ADDRESS":"安平路３３巷５號","OBJECTID":334792},"geometry":{"x":164650.26999999955,"y":2544402.4800000023}},{"attributes":{"ID":334802,"DIS_CODE":0,"TOWNNAME":"安平區","LI":"港仔里","LIN":"1鄰","STREET":"安平路","SECT":" ","MAREA":" ","LANE":"５１巷","ALLEY":" ","HOUSE_NO":"４號","E_COORD97":164539.51999999999,"N_COORD97":2544420.9500000002,"ADDRESS":"安平路５１巷４號","OBJECTID":334793},"geometry":{"x":164539.52000000048,"y":2544420.9500000011}},{"attributes":{"ID":334803,"DIS_CODE":0,"TOWNNAME":"新營區","LI":"興業里","LIN":"1鄰","STREET":"公誠街","SECT":" ","MAREA":" ","LANE":"１７巷","ALLEY":" ","HOUSE_NO":"１６之１號","E_COORD97":180356.32999999999,"N_COORD97":2577938.7400000002,"ADDRESS":"公誠街１７巷１６之１號","OBJECTID":334794},"geometry":{"x":180356.33000000007,"y":2577938.7400000002}},{"attributes":{"ID":334804,"DIS_CODE":0,"TOWNNAME":"中西區","LI":"萬昌里","LIN":"23鄰","STREET":"青年路","SECT":" ","MAREA":" ","LANE":"２２６巷","ALLEY":" ","HOUSE_NO":"４３號之１","E_COORD97":169138.81867000001,"N_COORD97":2543476.5474100001,"ADDRESS":"青年路２２６巷４３號之１","OBJECTID":334795},"geometry":{"x":169138.81867000181,"y":2543476.547410002}},{"attributes":{"ID":334805,"DIS_CODE":0,"TOWNNAME":"善化區","LI":"坐駕里","LIN":"20鄰","STREET":" ","SECT":" ","MAREA":"坐駕","LANE":" ","ALLEY":" ","HOUSE_NO":"７２號","E_COORD97":178269.85000000001,"N_COORD97":2558335.75,"ADDRESS":"坐駕７２號","OBJECTID":334796},"geometry":{"x":178269.85000000149,"y":2558335.75}},{"attributes":{"ID":334806,"DIS_CODE":0,"TOWNNAME":"新營區","LI":"太北里","LIN":"20鄰","STREET":" ","SECT":" ","MAREA":"太子宮","LANE":" ","ALLEY":" ","HOUSE_NO":"１４１號","E_COORD97":175842.91,"N_COORD97":2576887.4700000002,"ADDRESS":"太子宮１４１號","OBJECTID":334797},"geometry":{"x":175842.91000000108,"y":2576887.4700000007}},{"attributes":{"ID":334807,"DIS_CODE":0,"TOWNNAME":"新營區","LI":"太北里","LIN":"20鄰","STREET":" ","SECT":" ","MAREA":"太子宮","LANE":" ","ALLEY":" ","HOUSE_NO":"１４２之６０號","E_COORD97":175616.45000000001,"N_COORD97":2577083.5800000001,"ADDRESS":"太子宮１４２之６０號","OBJECTID":334798},"geometry":{"x":175616.45000000019,"y":2577083.5800000038}},{"attributes":{"ID":334808,"DIS_CODE":0,"TOWNNAME":"新營區","LI":"太北里","LIN":"20鄰","STREET":" ","SECT":" ","MAREA":"太子宮","LANE":" ","ALLEY":" ","HOUSE_NO":"１４２之９０號","E_COORD97":175425.60999999999,"N_COORD97":2576969.3700000001,"ADDRESS":"太子宮１４２之９０號","OBJECTID":334799},"geometry":{"x":175425.61000000034,"y":2576969.370000001}},{"attributes":{"ID":334809,"DIS_CODE":0,"TOWNNAME":"善化區","LI":"坐駕里","LIN":"20鄰","STREET":" ","SECT":" ","MAREA":"坐駕","LANE":" ","ALLEY":" ","HOUSE_NO":"１１３號","E_COORD97":178334.95999999999,"N_COORD97":2558331.75,"ADDRESS":"坐駕１１３號","OBJECTID":334800},"geometry":{"x":178334.95999999996,"y":2558331.75}}]}