{"displayFieldName":"TOWNNAME","fieldAliases":{"ID":"ID","DIS_CODE":"DIS_CODE","TOWNNAME":"TOWNNAME","LI":"LI","LIN":"LIN","STREET":"STREET","SECT":"SECT","MAREA":"MAREA","LANE":"LANE","ALLEY":"ALLEY","HOUSE_NO":"HOUSE_NO","E_COORD97":"E_COORD97","N_COORD97":"N_COORD97","ADDRESS":"ADDRESS","OBJECTID":"OBJECTID"},"geometryType":"esriGeometryPoint","spatialReference":{"wkid":102443,"latestWkid":3826},"fields":[{"name":"ID","type":"esriFieldTypeDouble","alias":"ID"},{"name":"DIS_CODE","type":"esriFieldTypeInteger","alias":"DIS_CODE"},{"name":"TOWNNAME","type":"esriFieldTypeString","alias":"TOWNNAME","length":8},{"name":"LI","type":"esriFieldTypeString","alias":"LI","length":8},{"name":"LIN","type":"esriFieldTypeString","alias":"LIN","length":12},{"name":"STREET","type":"esriFieldTypeString","alias":"STREET","length":20},{"name":"SECT","type":"esriFieldTypeString","alias":"SECT","length":8},{"name":"MAREA","type":"esriFieldTypeString","alias":"MAREA","length":12},{"name":"LANE","type":"esriFieldTypeString","alias":"LANE","length":10},{"name":"ALLEY","type":"esriFieldTypeString","alias":"ALLEY","length":10},{"name":"HOUSE_NO","type":"esriFieldTypeString","alias":"HOUSE_NO","length":20},{"name":"E_COORD97","type":"esriFieldTypeDouble","alias":"E_COORD97"},{"name":"N_COORD97","type":"esriFieldTypeDouble","alias":"N_COORD97"},{"name":"ADDRESS","type":"esriFieldTypeString","alias":"ADDRESS","length":50},{"name":"OBJECTID","type":"esriFieldTypeOID","alias":"OBJECTID"}],"features":[{"attributes":{"ID":525228,"DIS_CODE":0,"TOWNNAME":"北區","LI":"五福里","LIN":"6鄰","STREET":"北華街","SECT":" ","MAREA":" ","LANE":" ","ALLEY":" ","HOUSE_NO":"３３５號","E_COORD97":168314.37,"N_COORD97":2544677.6699999999,"ADDRESS":"北華街３３５號","OBJECTID":525201},"geometry":{"x":168314.37000000197,"y":2544677.6700000018}},{"attributes":{"ID":525229,"DIS_CODE":0,"TOWNNAME":"北區","LI":"五福里","LIN":"6鄰","STREET":"北華街","SECT":" ","MAREA":" ","LANE":" ","ALLEY":" ","HOUSE_NO":"３３７號","E_COORD97":168309.04999999999,"N_COORD97":2544680.6699999999,"ADDRESS":"北華街３３７號","OBJECTID":525202},"geometry":{"x":168309.04999999981,"y":2544680.6700000037}},{"attributes":{"ID":525230,"DIS_CODE":0,"TOWNNAME":"北區","LI":"五福里","LIN":"6鄰","STREET":"北華街","SECT":" ","MAREA":" ","LANE":" ","ALLEY":" ","HOUSE_NO":"３３７號之１","E_COORD97":168303.60000000001,"N_COORD97":2544682.71,"ADDRESS":"北華街３３７號之１","OBJECTID":525203},"geometry":{"x":168303.59999999963,"y":2544682.7100000028}},{"attributes":{"ID":525231,"DIS_CODE":0,"TOWNNAME":"北區","LI":"五福里","LIN":"6鄰","STREET":"北華街","SECT":" ","MAREA":" ","LANE":" ","ALLEY":" ","HOUSE_NO":"３３９號","E_COORD97":168291.48999999999,"N_COORD97":2544689.4199999999,"ADDRESS":"北華街３３９號","OBJECTID":525204},"geometry":{"x":168291.48999999929,"y":2544689.4200000037}},{"attributes":{"ID":525232,"DIS_CODE":0,"TOWNNAME":"北區","LI":"五福里","LIN":"6鄰","STREET":"西門路","SECT":"三段","MAREA":" ","LANE":" ","ALLEY":" ","HOUSE_NO":"１０２號","E_COORD97":168293.19,"N_COORD97":2544674.27,"ADDRESS":"西門路三段１０２號","OBJECTID":525205},"geometry":{"x":168293.19000000041,"y":2544674.2700000014}},{"attributes":{"ID":525233,"DIS_CODE":0,"TOWNNAME":"北區","LI":"五福里","LIN":"6鄰","STREET":"西門路","SECT":"三段","MAREA":" ","LANE":" ","ALLEY":" ","HOUSE_NO":"１０４號","E_COORD97":168289.23000000001,"N_COORD97":2544676.3100000001,"ADDRESS":"西門路三段１０４號","OBJECTID":525206},"geometry":{"x":168289.23000000138,"y":2544676.3100000005}},{"attributes":{"ID":525234,"DIS_CODE":0,"TOWNNAME":"北區","LI":"五福里","LIN":"6鄰","STREET":"西門路","SECT":"三段","MAREA":" ","LANE":" ","ALLEY":" ","HOUSE_NO":"１１２號","E_COORD97":168281.32999999999,"N_COORD97":2544680.8100000001,"ADDRESS":"西門路三段１１２號","OBJECTID":525207},"geometry":{"x":168281.33000000101,"y":2544680.8100000024}},{"attributes":{"ID":525235,"DIS_CODE":0,"TOWNNAME":"北區","LI":"五福里","LIN":"6鄰","STREET":"西門路","SECT":"三段","MAREA":" ","LANE":" ","ALLEY":" ","HOUSE_NO":"１１２號之１","E_COORD97":168283.78,"N_COORD97":2544684.8900000001,"ADDRESS":"西門路三段１１２號之１","OBJECTID":525208},"geometry":{"x":168283.78000000026,"y":2544684.8900000025}},{"attributes":{"ID":525236,"DIS_CODE":0,"TOWNNAME":"北區","LI":"五福里","LIN":"6鄰","STREET":"西門路","SECT":"三段","MAREA":" ","LANE":" ","ALLEY":" ","HOUSE_NO":"８６號","E_COORD97":168256.64999999999,"N_COORD97":2544645.0800000001,"ADDRESS":"西門路三段８６號","OBJECTID":525209},"geometry":{"x":168256.64999999944,"y":2544645.0800000019}},{"attributes":{"ID":525237,"DIS_CODE":0,"TOWNNAME":"北區","LI":"五福里","LIN":"6鄰","STREET":"西門路","SECT":"三段","MAREA":" ","LANE":" ","ALLEY":" ","HOUSE_NO":"８８號","E_COORD97":168258.97,"N_COORD97":2544647.3900000001,"ADDRESS":"西門路三段８８號","OBJECTID":525210},"geometry":{"x":168258.9700000016,"y":2544647.3900000025}},{"attributes":{"ID":525238,"DIS_CODE":0,"TOWNNAME":"北區","LI":"五福里","LIN":"6鄰","STREET":"西門路","SECT":"三段","MAREA":" ","LANE":" ","ALLEY":" ","HOUSE_NO":"９０號","E_COORD97":168260.88,"N_COORD97":2544649.98,"ADDRESS":"西門路三段９０號","OBJECTID":525211},"geometry":{"x":168260.87999999989,"y":2544649.9800000023}},{"attributes":{"ID":525239,"DIS_CODE":0,"TOWNNAME":"北區","LI":"五福里","LIN":"6鄰","STREET":"西門路","SECT":"三段","MAREA":" ","LANE":" ","ALLEY":" ","HOUSE_NO":"１００號","E_COORD97":168287.45999999999,"N_COORD97":2544655.8799999999,"ADDRESS":"西門路三段１００號","OBJECTID":525212},"geometry":{"x":168287.45999999996,"y":2544655.8800000008}},{"attributes":{"ID":525240,"DIS_CODE":0,"TOWNNAME":"北區","LI":"成功里","LIN":"6鄰","STREET":"北安路","SECT":"一段","MAREA":" ","LANE":" ","ALLEY":" ","HOUSE_NO":"１８８號","E_COORD97":168874.01999999999,"N_COORD97":2546493.2400000002,"ADDRESS":"北安路一段１８８號","OBJECTID":525213},"geometry":{"x":168874.02000000048,"y":2546493.2400000002}},{"attributes":{"ID":525241,"DIS_CODE":0,"TOWNNAME":"北區","LI":"成功里","LIN":"6鄰","STREET":"北安路","SECT":"一段","MAREA":" ","LANE":" ","ALLEY":" ","HOUSE_NO":"１９０號","E_COORD97":168869.57999999999,"N_COORD97":2546496.5800000001,"ADDRESS":"北安路一段１９０號","OBJECTID":525214},"geometry":{"x":168869.58000000101,"y":2546496.5800000019}},{"attributes":{"ID":525242,"DIS_CODE":0,"TOWNNAME":"北區","LI":"成功里","LIN":"6鄰","STREET":"北安路","SECT":"一段","MAREA":" ","LANE":" ","ALLEY":" ","HOUSE_NO":"１９２號","E_COORD97":168864.17999999999,"N_COORD97":2546500.6299999999,"ADDRESS":"北安路一段１９２號","OBJECTID":525215},"geometry":{"x":168864.1799999997,"y":2546500.6300000027}},{"attributes":{"ID":525243,"DIS_CODE":0,"TOWNNAME":"北區","LI":"成功里","LIN":"6鄰","STREET":"北安路","SECT":"一段","MAREA":" ","LANE":" ","ALLEY":" ","HOUSE_NO":"１９６號","E_COORD97":168859.73999999999,"N_COORD97":2546504.1200000001,"ADDRESS":"北安路一段１９６號","OBJECTID":525216},"geometry":{"x":168859.74000000115,"y":2546504.1200000029}},{"attributes":{"ID":525244,"DIS_CODE":0,"TOWNNAME":"北區","LI":"成功里","LIN":"6鄰","STREET":"北安路","SECT":"一段","MAREA":" ","LANE":" ","ALLEY":" ","HOUSE_NO":"１９８號","E_COORD97":168854.5,"N_COORD97":2546509.04,"ADDRESS":"北安路一段１９８號","OBJECTID":525217},"geometry":{"x":168854.50000000093,"y":2546509.040000001}},{"attributes":{"ID":525245,"DIS_CODE":0,"TOWNNAME":"北區","LI":"成功里","LIN":"6鄰","STREET":"北安路","SECT":"一段","MAREA":" ","LANE":" ","ALLEY":" ","HOUSE_NO":"２００號","E_COORD97":168849.42000000001,"N_COORD97":2546513.0099999998,"ADDRESS":"北安路一段２００號","OBJECTID":525218},"geometry":{"x":168849.42000000179,"y":2546513.0100000016}},{"attributes":{"ID":525246,"DIS_CODE":0,"TOWNNAME":"北區","LI":"成功里","LIN":"6鄰","STREET":"北安路","SECT":"一段","MAREA":" ","LANE":" ","ALLEY":" ","HOUSE_NO":"２０２號","E_COORD97":168842.59,"N_COORD97":2546518.0899999999,"ADDRESS":"北安路一段２０２號","OBJECTID":525219},"geometry":{"x":168842.58999999985,"y":2546518.0899999999}},{"attributes":{"ID":525247,"DIS_CODE":0,"TOWNNAME":"北區","LI":"成功里","LIN":"6鄰","STREET":"北安路","SECT":"一段","MAREA":" ","LANE":" ","ALLEY":" ","HOUSE_NO":"２０６號","E_COORD97":168838.14999999999,"N_COORD97":2546521.4199999999,"ADDRESS":"北安路一段２０６號","OBJECTID":525220},"geometry":{"x":168838.15000000224,"y":2546521.4200000018}},{"attributes":{"ID":525248,"DIS_CODE":0,"TOWNNAME":"北區","LI":"成功里","LIN":"6鄰","STREET":"北安路","SECT":"一段","MAREA":" ","LANE":" ","ALLEY":" ","HOUSE_NO":"２０８號","E_COORD97":168834.34,"N_COORD97":2546525.0699999998,"ADDRESS":"北安路一段２０８號","OBJECTID":525221},"geometry":{"x":168834.33999999985,"y":2546525.0700000003}},{"attributes":{"ID":525249,"DIS_CODE":0,"TOWNNAME":"北區","LI":"成功里","LIN":"6鄰","STREET":"北安路","SECT":"一段","MAREA":" ","LANE":" ","ALLEY":" ","HOUSE_NO":"２１０號","E_COORD97":168829.26000000001,"N_COORD97":2546528.8799999999,"ADDRESS":"北安路一段２１０號","OBJECTID":525222},"geometry":{"x":168829.25999999978,"y":2546528.879999999}},{"attributes":{"ID":525250,"DIS_CODE":0,"TOWNNAME":"北區","LI":"文成里","LIN":"6鄰","STREET":"文賢路","SECT":" ","MAREA":" ","LANE":" ","ALLEY":" ","HOUSE_NO":"５４８號","E_COORD97":167363.14000000001,"N_COORD97":2545364.5600000001,"ADDRESS":"文賢路５４８號","OBJECTID":525223},"geometry":{"x":167363.1400000006,"y":2545364.5600000024}},{"attributes":{"ID":525251,"DIS_CODE":0,"TOWNNAME":"北區","LI":"文成里","LIN":"6鄰","STREET":"文賢路","SECT":" ","MAREA":" ","LANE":" ","ALLEY":" ","HOUSE_NO":"５５０號","E_COORD97":167363.14000000001,"N_COORD97":2545369.5099999998,"ADDRESS":"文賢路５５０號","OBJECTID":525224},"geometry":{"x":167363.1400000006,"y":2545369.5099999998}},{"attributes":{"ID":525252,"DIS_CODE":0,"TOWNNAME":"北區","LI":"文成里","LIN":"6鄰","STREET":"文賢路","SECT":" ","MAREA":" ","LANE":" ","ALLEY":" ","HOUSE_NO":"５５２號","E_COORD97":167363.32999999999,"N_COORD97":2545374.0800000001,"ADDRESS":"文賢路５５２號","OBJECTID":525225},"geometry":{"x":167363.33000000007,"y":2545374.0800000019}},{"attributes":{"ID":525253,"DIS_CODE":0,"TOWNNAME":"北區","LI":"文成里","LIN":"6鄰","STREET":"文賢路","SECT":" ","MAREA":" ","LANE":" ","ALLEY":" ","HOUSE_NO":"５５４號","E_COORD97":167363.51999999999,"N_COORD97":2545379.2200000002,"ADDRESS":"文賢路５５４號","OBJECTID":525226},"geometry":{"x":167363.52000000142,"y":2545379.2200000007}},{"attributes":{"ID":525254,"DIS_CODE":0,"TOWNNAME":"北區","LI":"文成里","LIN":"6鄰","STREET":"文賢路","SECT":" ","MAREA":" ","LANE":" ","ALLEY":" ","HOUSE_NO":"５５６號","E_COORD97":167364.10000000001,"N_COORD97":2545384.5600000001,"ADDRESS":"文賢路５５６號","OBJECTID":525227},"geometry":{"x":167364.09999999963,"y":2545384.5600000024}},{"attributes":{"ID":525255,"DIS_CODE":0,"TOWNNAME":"北區","LI":"文成里","LIN":"6鄰","STREET":"文賢路","SECT":" ","MAREA":" ","LANE":" ","ALLEY":" ","HOUSE_NO":"５５８號","E_COORD97":167363.91,"N_COORD97":2545389.3199999998,"ADDRESS":"文賢路５５８號","OBJECTID":525228},"geometry":{"x":167363.91000000108,"y":2545389.3200000022}},{"attributes":{"ID":525256,"DIS_CODE":0,"TOWNNAME":"北區","LI":"文成里","LIN":"6鄰","STREET":"文賢路","SECT":" ","MAREA":" ","LANE":" ","ALLEY":" ","HOUSE_NO":"５６６號","E_COORD97":167365.82000000001,"N_COORD97":2545404.0099999998,"ADDRESS":"文賢路５６６號","OBJECTID":525229},"geometry":{"x":167365.82000000123,"y":2545404.0100000035}},{"attributes":{"ID":525257,"DIS_CODE":0,"TOWNNAME":"北區","LI":"文成里","LIN":"6鄰","STREET":"文賢路","SECT":" ","MAREA":" ","LANE":" ","ALLEY":" ","HOUSE_NO":"５６８號","E_COORD97":167366.57999999999,"N_COORD97":2545408.77,"ADDRESS":"文賢路５６８號","OBJECTID":525230},"geometry":{"x":167366.58000000007,"y":2545408.7700000033}},{"attributes":{"ID":525258,"DIS_CODE":0,"TOWNNAME":"北區","LI":"文成里","LIN":"6鄰","STREET":"文賢路","SECT":" ","MAREA":" ","LANE":" ","ALLEY":" ","HOUSE_NO":"５７０號","E_COORD97":167367.16,"N_COORD97":2545413.1499999999,"ADDRESS":"文賢路５７０號","OBJECTID":525231},"geometry":{"x":167367.16000000108,"y":2545413.1500000004}},{"attributes":{"ID":525259,"DIS_CODE":0,"TOWNNAME":"南區","LI":"郡南里","LIN":"6鄰","STREET":"德興路","SECT":" ","MAREA":" ","LANE":" ","ALLEY":" ","HOUSE_NO":"１０９號","E_COORD97":167219.42999999999,"N_COORD97":2540554.1299999999,"ADDRESS":"德興路１０９號","OBJECTID":525232},"geometry":{"x":167219.4299999997,"y":2540554.1300000027}},{"attributes":{"ID":525260,"DIS_CODE":0,"TOWNNAME":"北區","LI":"三德里","LIN":"6鄰","STREET":"裕民街","SECT":" ","MAREA":" ","LANE":" ","ALLEY":" ","HOUSE_NO":"３８號","E_COORD97":168464.5,"N_COORD97":2544451.8500000001,"ADDRESS":"裕民街３８號","OBJECTID":525233},"geometry":{"x":168464.50000000093,"y":2544451.8499999978}},{"attributes":{"ID":525261,"DIS_CODE":0,"TOWNNAME":"北區","LI":"三德里","LIN":"6鄰","STREET":"裕民街","SECT":" ","MAREA":" ","LANE":" ","ALLEY":" ","HOUSE_NO":"４０號","E_COORD97":168465.06,"N_COORD97":2544453.4100000001,"ADDRESS":"裕民街４０號","OBJECTID":525234},"geometry":{"x":168465.06000000145,"y":2544453.410000002}},{"attributes":{"ID":525262,"DIS_CODE":0,"TOWNNAME":"北區","LI":"三德里","LIN":"6鄰","STREET":"裕民街","SECT":" ","MAREA":" ","LANE":" ","ALLEY":" ","HOUSE_NO":"４４號","E_COORD97":168466.28,"N_COORD97":2544455.7000000002,"ADDRESS":"裕民街４４號","OBJECTID":525235},"geometry":{"x":168466.28000000119,"y":2544455.6999999993}},{"attributes":{"ID":525263,"DIS_CODE":0,"TOWNNAME":"北區","LI":"三德里","LIN":"6鄰","STREET":"裕民街","SECT":" ","MAREA":" ","LANE":" ","ALLEY":" ","HOUSE_NO":"４６號","E_COORD97":168468.45999999999,"N_COORD97":2544457.46,"ADDRESS":"裕民街４６號","OBJECTID":525236},"geometry":{"x":168468.46000000089,"y":2544457.4600000028}},{"attributes":{"ID":525264,"DIS_CODE":0,"TOWNNAME":"永康區","LI":"大橋里","LIN":"6鄰","STREET":"大橋五街","SECT":" ","MAREA":" ","LANE":" ","ALLEY":" ","HOUSE_NO":"７０號六樓","E_COORD97":170893.81,"N_COORD97":2546918.0899999999,"ADDRESS":"大橋五街７０號六樓","OBJECTID":525237},"geometry":{"x":170893.80999999959,"y":2546918.0899999999}},{"attributes":{"ID":525265,"DIS_CODE":0,"TOWNNAME":"永康區","LI":"大橋里","LIN":"6鄰","STREET":"大橋五街","SECT":" ","MAREA":" ","LANE":" ","ALLEY":" ","HOUSE_NO":"７２號四樓","E_COORD97":170899.22,"N_COORD97":2546905.8399999999,"ADDRESS":"大橋五街７２號四樓","OBJECTID":525238},"geometry":{"x":170899.22000000067,"y":2546905.8399999999}},{"attributes":{"ID":525266,"DIS_CODE":0,"TOWNNAME":"永康區","LI":"大橋里","LIN":"6鄰","STREET":"大橋五街","SECT":" ","MAREA":" ","LANE":" ","ALLEY":" ","HOUSE_NO":"７０號三樓之１","E_COORD97":170895.94,"N_COORD97":2546918.1299999999,"ADDRESS":"大橋五街７０號三樓之１","OBJECTID":525239},"geometry":{"x":170895.94000000227,"y":2546918.1300000008}},{"attributes":{"ID":525267,"DIS_CODE":0,"TOWNNAME":"永康區","LI":"大橋里","LIN":"6鄰","STREET":"大橋五街","SECT":" ","MAREA":" ","LANE":" ","ALLEY":" ","HOUSE_NO":"７０號三樓之２","E_COORD97":170896.07999999999,"N_COORD97":2546918.1299999999,"ADDRESS":"大橋五街７０號三樓之２","OBJECTID":525240},"geometry":{"x":170896.08000000007,"y":2546918.1300000008}},{"attributes":{"ID":525268,"DIS_CODE":0,"TOWNNAME":"永康區","LI":"大橋里","LIN":"6鄰","STREET":"大橋五街","SECT":" ","MAREA":" ","LANE":" ","ALLEY":" ","HOUSE_NO":"７０號五樓之１","E_COORD97":170895.94,"N_COORD97":2546918.1299999999,"ADDRESS":"大橋五街７０號五樓之１","OBJECTID":525241},"geometry":{"x":170895.94000000227,"y":2546918.1300000008}},{"attributes":{"ID":525269,"DIS_CODE":0,"TOWNNAME":"東區","LI":"龍山里","LIN":"6鄰","STREET":"林森路","SECT":"一段","MAREA":" ","LANE":" ","ALLEY":" ","HOUSE_NO":"３７７號三樓","E_COORD97":170159.37,"N_COORD97":2542824.73,"ADDRESS":"林森路一段３７７號三樓","OBJECTID":525242},"geometry":{"x":170159.37000000104,"y":2542824.7300000004}},{"attributes":{"ID":525270,"DIS_CODE":0,"TOWNNAME":"東區","LI":"龍山里","LIN":"6鄰","STREET":"林森路","SECT":"一段","MAREA":" ","LANE":" ","ALLEY":" ","HOUSE_NO":"３７７號三樓之１","E_COORD97":170159.37,"N_COORD97":2542824.73,"ADDRESS":"林森路一段３７７號三樓之１","OBJECTID":525243},"geometry":{"x":170159.37000000104,"y":2542824.7300000004}},{"attributes":{"ID":525271,"DIS_CODE":0,"TOWNNAME":"東區","LI":"龍山里","LIN":"6鄰","STREET":"林森路","SECT":"一段","MAREA":" ","LANE":" ","ALLEY":" ","HOUSE_NO":"３７７號三樓之２","E_COORD97":170159.37,"N_COORD97":2542824.73,"ADDRESS":"林森路一段３７７號三樓之２","OBJECTID":525244},"geometry":{"x":170159.37000000104,"y":2542824.7300000004}},{"attributes":{"ID":525272,"DIS_CODE":0,"TOWNNAME":"東區","LI":"龍山里","LIN":"6鄰","STREET":"林森路","SECT":"一段","MAREA":" ","LANE":" ","ALLEY":" ","HOUSE_NO":"３７７號三樓之３","E_COORD97":170159.37,"N_COORD97":2542824.73,"ADDRESS":"林森路一段３７７號三樓之３","OBJECTID":525245},"geometry":{"x":170159.37000000104,"y":2542824.7300000004}},{"attributes":{"ID":525273,"DIS_CODE":0,"TOWNNAME":"東區","LI":"龍山里","LIN":"6鄰","STREET":"林森路","SECT":"一段","MAREA":" ","LANE":" ","ALLEY":" ","HOUSE_NO":"３７７號四樓","E_COORD97":170159.37,"N_COORD97":2542824.73,"ADDRESS":"林森路一段３７７號四樓","OBJECTID":525246},"geometry":{"x":170159.37000000104,"y":2542824.7300000004}},{"attributes":{"ID":525274,"DIS_CODE":0,"TOWNNAME":"東區","LI":"龍山里","LIN":"6鄰","STREET":"林森路","SECT":"一段","MAREA":" ","LANE":" ","ALLEY":" ","HOUSE_NO":"３７７號四樓之１","E_COORD97":170159.37,"N_COORD97":2542824.73,"ADDRESS":"林森路一段３７７號四樓之１","OBJECTID":525247},"geometry":{"x":170159.37000000104,"y":2542824.7300000004}},{"attributes":{"ID":525275,"DIS_CODE":0,"TOWNNAME":"東區","LI":"龍山里","LIN":"6鄰","STREET":"林森路","SECT":"一段","MAREA":" ","LANE":" ","ALLEY":" ","HOUSE_NO":"３７７號四樓之２","E_COORD97":170159.37,"N_COORD97":2542824.73,"ADDRESS":"林森路一段３７７號四樓之２","OBJECTID":525248},"geometry":{"x":170159.37000000104,"y":2542824.7300000004}},{"attributes":{"ID":525276,"DIS_CODE":0,"TOWNNAME":"東區","LI":"龍山里","LIN":"6鄰","STREET":"林森路","SECT":"一段","MAREA":" ","LANE":" ","ALLEY":" ","HOUSE_NO":"３７７號四樓之３","E_COORD97":170159.37,"N_COORD97":2542824.73,"ADDRESS":"林森路一段３７７號四樓之３","OBJECTID":525249},"geometry":{"x":170159.37000000104,"y":2542824.7300000004}},{"attributes":{"ID":525277,"DIS_CODE":0,"TOWNNAME":"東區","LI":"龍山里","LIN":"6鄰","STREET":"林森路","SECT":"一段","MAREA":" ","LANE":" ","ALLEY":" ","HOUSE_NO":"３７７號五樓","E_COORD97":170159.37,"N_COORD97":2542824.73,"ADDRESS":"林森路一段３７７號五樓","OBJECTID":525250},"geometry":{"x":170159.37000000104,"y":2542824.7300000004}},{"attributes":{"ID":525278,"DIS_CODE":0,"TOWNNAME":"東區","LI":"龍山里","LIN":"6鄰","STREET":"林森路","SECT":"一段","MAREA":" ","LANE":" ","ALLEY":" ","HOUSE_NO":"３７７號五樓之１","E_COORD97":170159.37,"N_COORD97":2542824.73,"ADDRESS":"林森路一段３７７號五樓之１","OBJECTID":525251},"geometry":{"x":170159.37000000104,"y":2542824.7300000004}},{"attributes":{"ID":525279,"DIS_CODE":0,"TOWNNAME":"東區","LI":"龍山里","LIN":"6鄰","STREET":"林森路","SECT":"一段","MAREA":" ","LANE":" ","ALLEY":" ","HOUSE_NO":"３７７號五樓之２","E_COORD97":170159.37,"N_COORD97":2542824.73,"ADDRESS":"林森路一段３７７號五樓之２","OBJECTID":525252},"geometry":{"x":170159.37000000104,"y":2542824.7300000004}},{"attributes":{"ID":525280,"DIS_CODE":0,"TOWNNAME":"東區","LI":"龍山里","LIN":"6鄰","STREET":"林森路","SECT":"一段","MAREA":" ","LANE":" ","ALLEY":" ","HOUSE_NO":"３７７號五樓之３","E_COORD97":170159.37,"N_COORD97":2542824.73,"ADDRESS":"林森路一段３７７號五樓之３","OBJECTID":525253},"geometry":{"x":170159.37000000104,"y":2542824.7300000004}},{"attributes":{"ID":525281,"DIS_CODE":0,"TOWNNAME":"東區","LI":"龍山里","LIN":"6鄰","STREET":"林森路","SECT":"一段","MAREA":" ","LANE":" ","ALLEY":" ","HOUSE_NO":"３７７號六樓","E_COORD97":170159.37,"N_COORD97":2542824.73,"ADDRESS":"林森路一段３７７號六樓","OBJECTID":525254},"geometry":{"x":170159.37000000104,"y":2542824.7300000004}},{"attributes":{"ID":525282,"DIS_CODE":0,"TOWNNAME":"東區","LI":"龍山里","LIN":"6鄰","STREET":"林森路","SECT":"一段","MAREA":" ","LANE":" ","ALLEY":" ","HOUSE_NO":"３７７號六樓之１","E_COORD97":170159.37,"N_COORD97":2542824.73,"ADDRESS":"林森路一段３７７號六樓之１","OBJECTID":525255},"geometry":{"x":170159.37000000104,"y":2542824.7300000004}},{"attributes":{"ID":525283,"DIS_CODE":0,"TOWNNAME":"東區","LI":"龍山里","LIN":"6鄰","STREET":"林森路","SECT":"一段","MAREA":" ","LANE":" ","ALLEY":" ","HOUSE_NO":"３７７號六樓之２","E_COORD97":170159.37,"N_COORD97":2542824.73,"ADDRESS":"林森路一段３７７號六樓之２","OBJECTID":525256},"geometry":{"x":170159.37000000104,"y":2542824.7300000004}},{"attributes":{"ID":525284,"DIS_CODE":0,"TOWNNAME":"東區","LI":"龍山里","LIN":"6鄰","STREET":"林森路","SECT":"一段","MAREA":" ","LANE":" ","ALLEY":" ","HOUSE_NO":"３７７號六樓之３","E_COORD97":170159.37,"N_COORD97":2542824.73,"ADDRESS":"林森路一段３７７號六樓之３","OBJECTID":525257},"geometry":{"x":170159.37000000104,"y":2542824.7300000004}},{"attributes":{"ID":525285,"DIS_CODE":0,"TOWNNAME":"東區","LI":"龍山里","LIN":"6鄰","STREET":"林森路","SECT":"一段","MAREA":" ","LANE":" ","ALLEY":" ","HOUSE_NO":"３７７號七樓","E_COORD97":170159.37,"N_COORD97":2542824.73,"ADDRESS":"林森路一段３７７號七樓","OBJECTID":525258},"geometry":{"x":170159.37000000104,"y":2542824.7300000004}},{"attributes":{"ID":525286,"DIS_CODE":0,"TOWNNAME":"東區","LI":"龍山里","LIN":"6鄰","STREET":"林森路","SECT":"一段","MAREA":" ","LANE":" ","ALLEY":" ","HOUSE_NO":"３７７號七樓之１","E_COORD97":170159.37,"N_COORD97":2542824.73,"ADDRESS":"林森路一段３７７號七樓之１","OBJECTID":525259},"geometry":{"x":170159.37000000104,"y":2542824.7300000004}},{"attributes":{"ID":525287,"DIS_CODE":0,"TOWNNAME":"東區","LI":"龍山里","LIN":"6鄰","STREET":"林森路","SECT":"一段","MAREA":" ","LANE":" ","ALLEY":" ","HOUSE_NO":"３７７號七樓之２","E_COORD97":170159.37,"N_COORD97":2542824.73,"ADDRESS":"林森路一段３７７號七樓之２","OBJECTID":525260},"geometry":{"x":170159.37000000104,"y":2542824.7300000004}},{"attributes":{"ID":525288,"DIS_CODE":0,"TOWNNAME":"東區","LI":"龍山里","LIN":"6鄰","STREET":"林森路","SECT":"一段","MAREA":" ","LANE":" ","ALLEY":" ","HOUSE_NO":"３７７號七樓之３","E_COORD97":170159.37,"N_COORD97":2542824.73,"ADDRESS":"林森路一段３７７號七樓之３","OBJECTID":525261},"geometry":{"x":170159.37000000104,"y":2542824.7300000004}},{"attributes":{"ID":525289,"DIS_CODE":0,"TOWNNAME":"東區","LI":"龍山里","LIN":"6鄰","STREET":"林森路","SECT":"一段","MAREA":" ","LANE":" ","ALLEY":" ","HOUSE_NO":"３７７號八樓","E_COORD97":170159.37,"N_COORD97":2542824.73,"ADDRESS":"林森路一段３７７號八樓","OBJECTID":525262},"geometry":{"x":170159.37000000104,"y":2542824.7300000004}},{"attributes":{"ID":525290,"DIS_CODE":0,"TOWNNAME":"東區","LI":"龍山里","LIN":"6鄰","STREET":"林森路","SECT":"一段","MAREA":" ","LANE":" ","ALLEY":" ","HOUSE_NO":"３７７號八樓之１","E_COORD97":170159.37,"N_COORD97":2542824.73,"ADDRESS":"林森路一段３７７號八樓之１","OBJECTID":525263},"geometry":{"x":170159.37000000104,"y":2542824.7300000004}},{"attributes":{"ID":525291,"DIS_CODE":0,"TOWNNAME":"東區","LI":"龍山里","LIN":"6鄰","STREET":"林森路","SECT":"一段","MAREA":" ","LANE":" ","ALLEY":" ","HOUSE_NO":"３７７號八樓之２","E_COORD97":170159.37,"N_COORD97":2542824.73,"ADDRESS":"林森路一段３７７號八樓之２","OBJECTID":525264},"geometry":{"x":170159.37000000104,"y":2542824.7300000004}},{"attributes":{"ID":525292,"DIS_CODE":0,"TOWNNAME":"東區","LI":"龍山里","LIN":"6鄰","STREET":"林森路","SECT":"一段","MAREA":" ","LANE":" ","ALLEY":" ","HOUSE_NO":"３７７號八樓之３","E_COORD97":170159.37,"N_COORD97":2542824.73,"ADDRESS":"林森路一段３７７號八樓之３","OBJECTID":525265},"geometry":{"x":170159.37000000104,"y":2542824.7300000004}},{"attributes":{"ID":525293,"DIS_CODE":0,"TOWNNAME":"東區","LI":"龍山里","LIN":"6鄰","STREET":"林森路","SECT":"一段","MAREA":" ","LANE":" ","ALLEY":" ","HOUSE_NO":"３７７號九樓","E_COORD97":170159.37,"N_COORD97":2542824.73,"ADDRESS":"林森路一段３７７號九樓","OBJECTID":525266},"geometry":{"x":170159.37000000104,"y":2542824.7300000004}},{"attributes":{"ID":525294,"DIS_CODE":0,"TOWNNAME":"東區","LI":"龍山里","LIN":"6鄰","STREET":"林森路","SECT":"一段","MAREA":" ","LANE":" ","ALLEY":" ","HOUSE_NO":"３７７號九樓之１","E_COORD97":170159.37,"N_COORD97":2542824.73,"ADDRESS":"林森路一段３７７號九樓之１","OBJECTID":525267},"geometry":{"x":170159.37000000104,"y":2542824.7300000004}},{"attributes":{"ID":525295,"DIS_CODE":0,"TOWNNAME":"東區","LI":"龍山里","LIN":"6鄰","STREET":"林森路","SECT":"一段","MAREA":" ","LANE":" ","ALLEY":" ","HOUSE_NO":"３７７號九樓之２","E_COORD97":170159.37,"N_COORD97":2542824.73,"ADDRESS":"林森路一段３７７號九樓之２","OBJECTID":525268},"geometry":{"x":170159.37000000104,"y":2542824.7300000004}},{"attributes":{"ID":525296,"DIS_CODE":0,"TOWNNAME":"東區","LI":"龍山里","LIN":"6鄰","STREET":"林森路","SECT":"一段","MAREA":" ","LANE":" ","ALLEY":" ","HOUSE_NO":"３７７號九樓之３","E_COORD97":170159.37,"N_COORD97":2542824.73,"ADDRESS":"林森路一段３７７號九樓之３","OBJECTID":525269},"geometry":{"x":170159.37000000104,"y":2542824.7300000004}},{"attributes":{"ID":525297,"DIS_CODE":0,"TOWNNAME":"東區","LI":"龍山里","LIN":"6鄰","STREET":"林森路","SECT":"一段","MAREA":" ","LANE":" ","ALLEY":" ","HOUSE_NO":"３７７號十樓","E_COORD97":170159.37,"N_COORD97":2542824.73,"ADDRESS":"林森路一段３７７號十樓","OBJECTID":525270},"geometry":{"x":170159.37000000104,"y":2542824.7300000004}},{"attributes":{"ID":525298,"DIS_CODE":0,"TOWNNAME":"東區","LI":"龍山里","LIN":"6鄰","STREET":"林森路","SECT":"一段","MAREA":" ","LANE":" ","ALLEY":" ","HOUSE_NO":"３７７號十樓之１","E_COORD97":170159.37,"N_COORD97":2542824.73,"ADDRESS":"林森路一段３７７號十樓之１","OBJECTID":525271},"geometry":{"x":170159.37000000104,"y":2542824.7300000004}},{"attributes":{"ID":525299,"DIS_CODE":0,"TOWNNAME":"東區","LI":"龍山里","LIN":"6鄰","STREET":"林森路","SECT":"一段","MAREA":" ","LANE":" ","ALLEY":" ","HOUSE_NO":"３７７號十樓之２","E_COORD97":170159.37,"N_COORD97":2542824.73,"ADDRESS":"林森路一段３７７號十樓之２","OBJECTID":525272},"geometry":{"x":170159.37000000104,"y":2542824.7300000004}},{"attributes":{"ID":525300,"DIS_CODE":0,"TOWNNAME":"東區","LI":"龍山里","LIN":"6鄰","STREET":"林森路","SECT":"一段","MAREA":" ","LANE":" ","ALLEY":" ","HOUSE_NO":"３７７號十樓之３","E_COORD97":170159.37,"N_COORD97":2542824.73,"ADDRESS":"林森路一段３７７號十樓之３","OBJECTID":525273},"geometry":{"x":170159.37000000104,"y":2542824.7300000004}},{"attributes":{"ID":525301,"DIS_CODE":0,"TOWNNAME":"東區","LI":"龍山里","LIN":"6鄰","STREET":"林森路","SECT":"一段","MAREA":" ","LANE":" ","ALLEY":" ","HOUSE_NO":"３７７號十一樓","E_COORD97":170159.37,"N_COORD97":2542824.73,"ADDRESS":"林森路一段３７７號十一樓","OBJECTID":525274},"geometry":{"x":170159.37000000104,"y":2542824.7300000004}},{"attributes":{"ID":525302,"DIS_CODE":0,"TOWNNAME":"東區","LI":"龍山里","LIN":"6鄰","STREET":"林森路","SECT":"一段","MAREA":" ","LANE":" ","ALLEY":" ","HOUSE_NO":"３７７號十一樓之１","E_COORD97":170159.37,"N_COORD97":2542824.73,"ADDRESS":"林森路一段３７７號十一樓之１","OBJECTID":525275},"geometry":{"x":170159.37000000104,"y":2542824.7300000004}},{"attributes":{"ID":525303,"DIS_CODE":0,"TOWNNAME":"東區","LI":"龍山里","LIN":"6鄰","STREET":"林森路","SECT":"一段","MAREA":" ","LANE":" ","ALLEY":" ","HOUSE_NO":"３７７號十一樓之２","E_COORD97":170159.37,"N_COORD97":2542824.73,"ADDRESS":"林森路一段３７７號十一樓之２","OBJECTID":525276},"geometry":{"x":170159.37000000104,"y":2542824.7300000004}},{"attributes":{"ID":525304,"DIS_CODE":0,"TOWNNAME":"東區","LI":"龍山里","LIN":"6鄰","STREET":"林森路","SECT":"一段","MAREA":" ","LANE":" ","ALLEY":" ","HOUSE_NO":"３７７號十一樓之３","E_COORD97":170159.37,"N_COORD97":2542824.73,"ADDRESS":"林森路一段３７７號十一樓之３","OBJECTID":525277},"geometry":{"x":170159.37000000104,"y":2542824.7300000004}},{"attributes":{"ID":525305,"DIS_CODE":0,"TOWNNAME":"中西區","LI":"民生里","LIN":"18鄰","STREET":"南華街","SECT":" ","MAREA":" ","LANE":" ","ALLEY":" ","HOUSE_NO":"８６號","E_COORD97":167132.41,"N_COORD97":2543514.8399999999,"ADDRESS":"南華街８６號","OBJECTID":525278},"geometry":{"x":167132.40999999922,"y":2543514.8400000017}},{"attributes":{"ID":525306,"DIS_CODE":0,"TOWNNAME":"東區","LI":"龍山里","LIN":"6鄰","STREET":"林森路","SECT":"一段","MAREA":" ","LANE":" ","ALLEY":" ","HOUSE_NO":"３７７號二樓","E_COORD97":170159.37,"N_COORD97":2542824.73,"ADDRESS":"林森路一段３７７號二樓","OBJECTID":525279},"geometry":{"x":170159.37000000104,"y":2542824.7300000004}},{"attributes":{"ID":525307,"DIS_CODE":0,"TOWNNAME":"東區","LI":"龍山里","LIN":"6鄰","STREET":"林森路","SECT":"一段","MAREA":" ","LANE":" ","ALLEY":" ","HOUSE_NO":"３７９號二樓","E_COORD97":170160.79000000001,"N_COORD97":2542844.29,"ADDRESS":"林森路一段３７９號二樓","OBJECTID":525280},"geometry":{"x":170160.7900000019,"y":2542844.2899999991}},{"attributes":{"ID":525308,"DIS_CODE":0,"TOWNNAME":"東區","LI":"東智里","LIN":"6鄰","STREET":"德東街","SECT":" ","MAREA":" ","LANE":" ","ALLEY":" ","HOUSE_NO":"７號四樓","E_COORD97":170819.17999999999,"N_COORD97":2540252.48,"ADDRESS":"德東街７號四樓","OBJECTID":525281},"geometry":{"x":170819.18000000063,"y":2540252.4800000023}},{"attributes":{"ID":525309,"DIS_CODE":0,"TOWNNAME":"東區","LI":"東智里","LIN":"6鄰","STREET":"德東街","SECT":" ","MAREA":" ","LANE":" ","ALLEY":" ","HOUSE_NO":"９號二樓","E_COORD97":170820.60000000001,"N_COORD97":2540254.2200000002,"ADDRESS":"德東街９號二樓","OBJECTID":525282},"geometry":{"x":170820.59999999963,"y":2540254.2200000025}},{"attributes":{"ID":525310,"DIS_CODE":0,"TOWNNAME":"東區","LI":"東智里","LIN":"6鄰","STREET":"德東街","SECT":" ","MAREA":" ","LANE":" ","ALLEY":" ","HOUSE_NO":"９號三樓","E_COORD97":170820.60000000001,"N_COORD97":2540254.2200000002,"ADDRESS":"德東街９號三樓","OBJECTID":525283},"geometry":{"x":170820.59999999963,"y":2540254.2200000025}},{"attributes":{"ID":525311,"DIS_CODE":0,"TOWNNAME":"東區","LI":"東智里","LIN":"6鄰","STREET":"德東街","SECT":" ","MAREA":" ","LANE":" ","ALLEY":" ","HOUSE_NO":"９號四樓","E_COORD97":170820.60000000001,"N_COORD97":2540254.2200000002,"ADDRESS":"德東街９號四樓","OBJECTID":525284},"geometry":{"x":170820.59999999963,"y":2540254.2200000025}},{"attributes":{"ID":525312,"DIS_CODE":0,"TOWNNAME":"永康區","LI":"大橋里","LIN":"6鄰","STREET":"大橋五街","SECT":" ","MAREA":" ","LANE":" ","ALLEY":" ","HOUSE_NO":"７０號四樓之１","E_COORD97":170895.94,"N_COORD97":2546918.1299999999,"ADDRESS":"大橋五街７０號四樓之１","OBJECTID":525285},"geometry":{"x":170895.94000000227,"y":2546918.1300000008}},{"attributes":{"ID":525313,"DIS_CODE":0,"TOWNNAME":"永康區","LI":"大橋里","LIN":"6鄰","STREET":"大橋五街","SECT":" ","MAREA":" ","LANE":" ","ALLEY":" ","HOUSE_NO":"７０號四樓之２","E_COORD97":170896.07999999999,"N_COORD97":2546918.1299999999,"ADDRESS":"大橋五街７０號四樓之２","OBJECTID":525286},"geometry":{"x":170896.08000000007,"y":2546918.1300000008}},{"attributes":{"ID":525314,"DIS_CODE":0,"TOWNNAME":"永康區","LI":"大橋里","LIN":"6鄰","STREET":"大橋五街","SECT":" ","MAREA":" ","LANE":" ","ALLEY":" ","HOUSE_NO":"７６號二樓","E_COORD97":170904.60999999999,"N_COORD97":2546911.5899999999,"ADDRESS":"大橋五街７６號二樓","OBJECTID":525287},"geometry":{"x":170904.61000000034,"y":2546911.5899999999}},{"attributes":{"ID":525315,"DIS_CODE":0,"TOWNNAME":"永康區","LI":"大橋里","LIN":"6鄰","STREET":"大橋五街","SECT":" ","MAREA":" ","LANE":" ","ALLEY":" ","HOUSE_NO":"７２號三樓","E_COORD97":170899.22,"N_COORD97":2546905.8399999999,"ADDRESS":"大橋五街７２號三樓","OBJECTID":525288},"geometry":{"x":170899.22000000067,"y":2546905.8399999999}},{"attributes":{"ID":525316,"DIS_CODE":0,"TOWNNAME":"永康區","LI":"大橋里","LIN":"6鄰","STREET":"大橋五街","SECT":" ","MAREA":" ","LANE":" ","ALLEY":" ","HOUSE_NO":"７２號六樓","E_COORD97":170899.22,"N_COORD97":2546905.8399999999,"ADDRESS":"大橋五街７２號六樓","OBJECTID":525289},"geometry":{"x":170899.22000000067,"y":2546905.8399999999}},{"attributes":{"ID":525317,"DIS_CODE":0,"TOWNNAME":"中西區","LI":"民生里","LIN":"18鄰","STREET":"大仁街","SECT":" ","MAREA":" ","LANE":" ","ALLEY":" ","HOUSE_NO":"１１４號","E_COORD97":167152.92000000001,"N_COORD97":2543491.6200000001,"ADDRESS":"大仁街１１４號","OBJECTID":525290},"geometry":{"x":167152.92000000086,"y":2543491.620000001}},{"attributes":{"ID":525318,"DIS_CODE":0,"TOWNNAME":"中西區","LI":"民生里","LIN":"18鄰","STREET":"大仁街","SECT":" ","MAREA":" ","LANE":" ","ALLEY":" ","HOUSE_NO":"１１６號","E_COORD97":167149.73000000001,"N_COORD97":2543492.2999999998,"ADDRESS":"大仁街１１６號","OBJECTID":525291},"geometry":{"x":167149.73000000138,"y":2543492.3000000026}},{"attributes":{"ID":525319,"DIS_CODE":0,"TOWNNAME":"中西區","LI":"民生里","LIN":"18鄰","STREET":"大仁街","SECT":" ","MAREA":" ","LANE":" ","ALLEY":" ","HOUSE_NO":"１１８號","E_COORD97":167146.54000000001,"N_COORD97":2543492.9900000002,"ADDRESS":"大仁街１１８號","OBJECTID":525292},"geometry":{"x":167146.54000000004,"y":2543492.9900000021}},{"attributes":{"ID":525320,"DIS_CODE":0,"TOWNNAME":"中西區","LI":"民生里","LIN":"18鄰","STREET":"大仁街","SECT":" ","MAREA":" ","LANE":" ","ALLEY":" ","HOUSE_NO":"１２０號","E_COORD97":167142.20999999999,"N_COORD97":2543494.1200000001,"ADDRESS":"大仁街１２０號","OBJECTID":525293},"geometry":{"x":167142.21000000183,"y":2543494.120000001}},{"attributes":{"ID":525321,"DIS_CODE":0,"TOWNNAME":"中西區","LI":"民生里","LIN":"18鄰","STREET":"保安路","SECT":" ","MAREA":" ","LANE":" ","ALLEY":" ","HOUSE_NO":"１８７號","E_COORD97":167169.10000000001,"N_COORD97":2543525.54,"ADDRESS":"保安路１８７號","OBJECTID":525294},"geometry":{"x":167169.09999999963,"y":2543525.540000001}},{"attributes":{"ID":525322,"DIS_CODE":0,"TOWNNAME":"中西區","LI":"民生里","LIN":"18鄰","STREET":"保安路","SECT":" ","MAREA":" ","LANE":" ","ALLEY":" ","HOUSE_NO":"１８９號","E_COORD97":167163.17999999999,"N_COORD97":2543526.4500000002,"ADDRESS":"保安路１８９號","OBJECTID":525295},"geometry":{"x":167163.18000000063,"y":2543526.4500000011}},{"attributes":{"ID":525323,"DIS_CODE":0,"TOWNNAME":"中西區","LI":"民生里","LIN":"18鄰","STREET":"保安路","SECT":" ","MAREA":" ","LANE":" ","ALLEY":" ","HOUSE_NO":"１９１號","E_COORD97":167152.69,"N_COORD97":2543526.2200000002,"ADDRESS":"保安路１９１號","OBJECTID":525296},"geometry":{"x":167152.69000000041,"y":2543526.2200000025}},{"attributes":{"ID":525324,"DIS_CODE":0,"TOWNNAME":"中西區","LI":"民生里","LIN":"18鄰","STREET":"保安路","SECT":" ","MAREA":" ","LANE":" ","ALLEY":" ","HOUSE_NO":"１９３號","E_COORD97":167147.13,"N_COORD97":2543524.75,"ADDRESS":"保安路１９３號","OBJECTID":525297},"geometry":{"x":167147.12999999989,"y":2543524.7500000019}},{"attributes":{"ID":525325,"DIS_CODE":0,"TOWNNAME":"中西區","LI":"民生里","LIN":"18鄰","STREET":"保安路","SECT":" ","MAREA":" ","LANE":" ","ALLEY":" ","HOUSE_NO":"１９５號","E_COORD97":167143.51999999999,"N_COORD97":2543525.4399999999,"ADDRESS":"保安路１９５號","OBJECTID":525298},"geometry":{"x":167143.52000000048,"y":2543525.4399999995}},{"attributes":{"ID":525326,"DIS_CODE":0,"TOWNNAME":"中西區","LI":"民生里","LIN":"18鄰","STREET":"南華街","SECT":" ","MAREA":" ","LANE":" ","ALLEY":" ","HOUSE_NO":"８０號","E_COORD97":167128.07999999999,"N_COORD97":2543496.8599999999,"ADDRESS":"南華街８０號","OBJECTID":525299},"geometry":{"x":167128.08000000101,"y":2543496.8600000013}},{"attributes":{"ID":525327,"DIS_CODE":0,"TOWNNAME":"中西區","LI":"民生里","LIN":"18鄰","STREET":"南華街","SECT":" ","MAREA":" ","LANE":" ","ALLEY":" ","HOUSE_NO":"８２號","E_COORD97":167130.35999999999,"N_COORD97":2543506.6400000001,"ADDRESS":"南華街８２號","OBJECTID":525300},"geometry":{"x":167130.36000000127,"y":2543506.6400000025}},{"attributes":{"ID":525328,"DIS_CODE":0,"TOWNNAME":"中西區","LI":"民生里","LIN":"18鄰","STREET":"南華街","SECT":" ","MAREA":" ","LANE":" ","ALLEY":" ","HOUSE_NO":"８４號","E_COORD97":167131.26999999999,"N_COORD97":2543510.7400000002,"ADDRESS":"南華街８４號","OBJECTID":525301},"geometry":{"x":167131.27000000142,"y":2543510.7399999984}},{"attributes":{"ID":525329,"DIS_CODE":0,"TOWNNAME":"中西區","LI":"元安里","LIN":"13鄰","STREET":"大德街","SECT":" ","MAREA":" ","LANE":" ","ALLEY":" ","HOUSE_NO":"２之１號","E_COORD97":167580.38,"N_COORD97":2543412.6899999999,"ADDRESS":"大德街２之１號","OBJECTID":525302},"geometry":{"x":167580.38000000082,"y":2543412.6900000013}},{"attributes":{"ID":525330,"DIS_CODE":0,"TOWNNAME":"中西區","LI":"元安里","LIN":"13鄰","STREET":"大德街","SECT":" ","MAREA":" ","LANE":" ","ALLEY":" ","HOUSE_NO":"２之２號","E_COORD97":167577.76000000001,"N_COORD97":2543413.5800000001,"ADDRESS":"大德街２之２號","OBJECTID":525303},"geometry":{"x":167577.76000000071,"y":2543413.5800000038}},{"attributes":{"ID":525331,"DIS_CODE":0,"TOWNNAME":"中西區","LI":"元安里","LIN":"13鄰","STREET":"大德街","SECT":" ","MAREA":" ","LANE":" ","ALLEY":" ","HOUSE_NO":"２之３號","E_COORD97":167574.25,"N_COORD97":2543414.1200000001,"ADDRESS":"大德街２之３號","OBJECTID":525304},"geometry":{"x":167574.25000000186,"y":2543414.1199999992}},{"attributes":{"ID":525332,"DIS_CODE":0,"TOWNNAME":"中西區","LI":"元安里","LIN":"13鄰","STREET":"大德街","SECT":" ","MAREA":" ","LANE":" ","ALLEY":" ","HOUSE_NO":"２之４號","E_COORD97":167570.38,"N_COORD97":2543418.6699999999,"ADDRESS":"大德街２之４號","OBJECTID":525305},"geometry":{"x":167570.38000000082,"y":2543418.6699999999}},{"attributes":{"ID":525333,"DIS_CODE":0,"TOWNNAME":"中西區","LI":"元安里","LIN":"13鄰","STREET":"大德街","SECT":" ","MAREA":" ","LANE":" ","ALLEY":" ","HOUSE_NO":"２之５號","E_COORD97":167568.13,"N_COORD97":2543418.8199999998,"ADDRESS":"大德街２之５號","OBJECTID":525306},"geometry":{"x":167568.13000000175,"y":2543418.820000004}},{"attributes":{"ID":525334,"DIS_CODE":0,"TOWNNAME":"中西區","LI":"元安里","LIN":"13鄰","STREET":"大德街","SECT":" ","MAREA":" ","LANE":" ","ALLEY":" ","HOUSE_NO":"２之６號","E_COORD97":167566.35000000001,"N_COORD97":2543418.8199999998,"ADDRESS":"大德街２之６號","OBJECTID":525307},"geometry":{"x":167566.35000000149,"y":2543418.820000004}},{"attributes":{"ID":525335,"DIS_CODE":0,"TOWNNAME":"東區","LI":"裕農里","LIN":"6鄰","STREET":"裕農路","SECT":" ","MAREA":" ","LANE":" ","ALLEY":" ","HOUSE_NO":"３７５號二樓之１１","E_COORD97":171070.95000000001,"N_COORD97":2543109.4100000001,"ADDRESS":"裕農路３７５號二樓之１１","OBJECTID":525308},"geometry":{"x":171070.95000000112,"y":2543109.4099999983}},{"attributes":{"ID":525336,"DIS_CODE":0,"TOWNNAME":"東區","LI":"裕農里","LIN":"6鄰","STREET":"裕農路","SECT":" ","MAREA":" ","LANE":" ","ALLEY":" ","HOUSE_NO":"３７５號二樓之１２","E_COORD97":171070.95000000001,"N_COORD97":2543109.4100000001,"ADDRESS":"裕農路３７５號二樓之１２","OBJECTID":525309},"geometry":{"x":171070.95000000112,"y":2543109.4099999983}},{"attributes":{"ID":525337,"DIS_CODE":0,"TOWNNAME":"永康區","LI":"建國里","LIN":"6鄰","STREET":"復國路","SECT":" ","MAREA":" ","LANE":" ","ALLEY":" ","HOUSE_NO":"７２號二樓之１","E_COORD97":172762.79999999999,"N_COORD97":2544601.9700000002,"ADDRESS":"復國路７２號二樓之１","OBJECTID":525310},"geometry":{"x":172762.80000000075,"y":2544601.9700000025}},{"attributes":{"ID":525338,"DIS_CODE":0,"TOWNNAME":"永康區","LI":"建國里","LIN":"6鄰","STREET":"復國路","SECT":" ","MAREA":" ","LANE":" ","ALLEY":" ","HOUSE_NO":"７２號二樓之２","E_COORD97":172762.79999999999,"N_COORD97":2544601.9700000002,"ADDRESS":"復國路７２號二樓之２","OBJECTID":525311},"geometry":{"x":172762.80000000075,"y":2544601.9700000025}},{"attributes":{"ID":525339,"DIS_CODE":0,"TOWNNAME":"永康區","LI":"建國里","LIN":"6鄰","STREET":"復國路","SECT":" ","MAREA":" ","LANE":" ","ALLEY":" ","HOUSE_NO":"７２號二樓之３","E_COORD97":172762.79999999999,"N_COORD97":2544601.9700000002,"ADDRESS":"復國路７２號二樓之３","OBJECTID":525312},"geometry":{"x":172762.80000000075,"y":2544601.9700000025}},{"attributes":{"ID":525340,"DIS_CODE":0,"TOWNNAME":"永康區","LI":"建國里","LIN":"6鄰","STREET":"復國路","SECT":" ","MAREA":" ","LANE":" ","ALLEY":" ","HOUSE_NO":"７２號二樓之５","E_COORD97":172762.79999999999,"N_COORD97":2544601.9700000002,"ADDRESS":"復國路７２號二樓之５","OBJECTID":525313},"geometry":{"x":172762.80000000075,"y":2544601.9700000025}},{"attributes":{"ID":525341,"DIS_CODE":0,"TOWNNAME":"永康區","LI":"建國里","LIN":"6鄰","STREET":"復國路","SECT":" ","MAREA":" ","LANE":" ","ALLEY":" ","HOUSE_NO":"７２號三樓之１","E_COORD97":172762.79999999999,"N_COORD97":2544601.9700000002,"ADDRESS":"復國路７２號三樓之１","OBJECTID":525314},"geometry":{"x":172762.80000000075,"y":2544601.9700000025}},{"attributes":{"ID":525342,"DIS_CODE":0,"TOWNNAME":"永康區","LI":"建國里","LIN":"6鄰","STREET":"復國路","SECT":" ","MAREA":" ","LANE":" ","ALLEY":" ","HOUSE_NO":"７２號三樓之２","E_COORD97":172762.79999999999,"N_COORD97":2544601.9700000002,"ADDRESS":"復國路７２號三樓之２","OBJECTID":525315},"geometry":{"x":172762.80000000075,"y":2544601.9700000025}},{"attributes":{"ID":525343,"DIS_CODE":0,"TOWNNAME":"永康區","LI":"建國里","LIN":"6鄰","STREET":"復國路","SECT":" ","MAREA":" ","LANE":" ","ALLEY":" ","HOUSE_NO":"７２號三樓之３","E_COORD97":172762.79999999999,"N_COORD97":2544601.9700000002,"ADDRESS":"復國路７２號三樓之３","OBJECTID":525316},"geometry":{"x":172762.80000000075,"y":2544601.9700000025}},{"attributes":{"ID":525344,"DIS_CODE":0,"TOWNNAME":"永康區","LI":"建國里","LIN":"6鄰","STREET":"復國路","SECT":" ","MAREA":" ","LANE":" ","ALLEY":" ","HOUSE_NO":"７２號三樓之５","E_COORD97":172762.79999999999,"N_COORD97":2544601.9700000002,"ADDRESS":"復國路７２號三樓之５","OBJECTID":525317},"geometry":{"x":172762.80000000075,"y":2544601.9700000025}},{"attributes":{"ID":525345,"DIS_CODE":0,"TOWNNAME":"永康區","LI":"建國里","LIN":"6鄰","STREET":"復國路","SECT":" ","MAREA":" ","LANE":" ","ALLEY":" ","HOUSE_NO":"７２號四樓之１","E_COORD97":172762.79999999999,"N_COORD97":2544601.9700000002,"ADDRESS":"復國路７２號四樓之１","OBJECTID":525318},"geometry":{"x":172762.80000000075,"y":2544601.9700000025}},{"attributes":{"ID":525346,"DIS_CODE":0,"TOWNNAME":"永康區","LI":"建國里","LIN":"6鄰","STREET":"復國路","SECT":" ","MAREA":" ","LANE":" ","ALLEY":" ","HOUSE_NO":"７２號四樓之２","E_COORD97":172762.79999999999,"N_COORD97":2544601.9700000002,"ADDRESS":"復國路７２號四樓之２","OBJECTID":525319},"geometry":{"x":172762.80000000075,"y":2544601.9700000025}},{"attributes":{"ID":525347,"DIS_CODE":0,"TOWNNAME":"永康區","LI":"建國里","LIN":"6鄰","STREET":"復國路","SECT":" ","MAREA":" ","LANE":" ","ALLEY":" ","HOUSE_NO":"７２號四樓之３","E_COORD97":172762.79999999999,"N_COORD97":2544601.9700000002,"ADDRESS":"復國路７２號四樓之３","OBJECTID":525320},"geometry":{"x":172762.80000000075,"y":2544601.9700000025}},{"attributes":{"ID":525348,"DIS_CODE":0,"TOWNNAME":"永康區","LI":"建國里","LIN":"6鄰","STREET":"復國路","SECT":" ","MAREA":" ","LANE":" ","ALLEY":" ","HOUSE_NO":"７２號四樓之５","E_COORD97":172762.79999999999,"N_COORD97":2544601.9700000002,"ADDRESS":"復國路７２號四樓之５","OBJECTID":525321},"geometry":{"x":172762.80000000075,"y":2544601.9700000025}},{"attributes":{"ID":525349,"DIS_CODE":0,"TOWNNAME":"永康區","LI":"建國里","LIN":"6鄰","STREET":"復國路","SECT":" ","MAREA":" ","LANE":" ","ALLEY":" ","HOUSE_NO":"７２號五樓之１","E_COORD97":172762.79999999999,"N_COORD97":2544601.9700000002,"ADDRESS":"復國路７２號五樓之１","OBJECTID":525322},"geometry":{"x":172762.80000000075,"y":2544601.9700000025}},{"attributes":{"ID":525350,"DIS_CODE":0,"TOWNNAME":"永康區","LI":"建國里","LIN":"6鄰","STREET":"復國路","SECT":" ","MAREA":" ","LANE":" ","ALLEY":" ","HOUSE_NO":"７２號五樓之２","E_COORD97":172762.79999999999,"N_COORD97":2544601.9700000002,"ADDRESS":"復國路７２號五樓之２","OBJECTID":525323},"geometry":{"x":172762.80000000075,"y":2544601.9700000025}},{"attributes":{"ID":525351,"DIS_CODE":0,"TOWNNAME":"永康區","LI":"建國里","LIN":"6鄰","STREET":"復國路","SECT":" ","MAREA":" ","LANE":" ","ALLEY":" ","HOUSE_NO":"７２號五樓之３","E_COORD97":172762.79999999999,"N_COORD97":2544601.9700000002,"ADDRESS":"復國路７２號五樓之３","OBJECTID":525324},"geometry":{"x":172762.80000000075,"y":2544601.9700000025}},{"attributes":{"ID":525352,"DIS_CODE":0,"TOWNNAME":"永康區","LI":"建國里","LIN":"6鄰","STREET":"復國路","SECT":" ","MAREA":" ","LANE":" ","ALLEY":" ","HOUSE_NO":"７２號五樓之５","E_COORD97":172762.79999999999,"N_COORD97":2544601.9700000002,"ADDRESS":"復國路７２號五樓之５","OBJECTID":525325},"geometry":{"x":172762.80000000075,"y":2544601.9700000025}},{"attributes":{"ID":525353,"DIS_CODE":0,"TOWNNAME":"永康區","LI":"建國里","LIN":"6鄰","STREET":"復國路","SECT":" ","MAREA":" ","LANE":" ","ALLEY":" ","HOUSE_NO":"７２號六樓之１","E_COORD97":172762.79999999999,"N_COORD97":2544601.9700000002,"ADDRESS":"復國路７２號六樓之１","OBJECTID":525326},"geometry":{"x":172762.80000000075,"y":2544601.9700000025}},{"attributes":{"ID":525354,"DIS_CODE":0,"TOWNNAME":"永康區","LI":"建國里","LIN":"6鄰","STREET":"復國路","SECT":" ","MAREA":" ","LANE":" ","ALLEY":" ","HOUSE_NO":"７２號六樓之２","E_COORD97":172762.79999999999,"N_COORD97":2544601.9700000002,"ADDRESS":"復國路７２號六樓之２","OBJECTID":525327},"geometry":{"x":172762.80000000075,"y":2544601.9700000025}},{"attributes":{"ID":525355,"DIS_CODE":0,"TOWNNAME":"永康區","LI":"建國里","LIN":"6鄰","STREET":"復國路","SECT":" ","MAREA":" ","LANE":" ","ALLEY":" ","HOUSE_NO":"７２號六樓之３","E_COORD97":172762.79999999999,"N_COORD97":2544601.9700000002,"ADDRESS":"復國路７２號六樓之３","OBJECTID":525328},"geometry":{"x":172762.80000000075,"y":2544601.9700000025}},{"attributes":{"ID":525356,"DIS_CODE":0,"TOWNNAME":"永康區","LI":"建國里","LIN":"6鄰","STREET":"復國路","SECT":" ","MAREA":" ","LANE":" ","ALLEY":" ","HOUSE_NO":"７２號六樓之５","E_COORD97":172762.79999999999,"N_COORD97":2544601.9700000002,"ADDRESS":"復國路７２號六樓之５","OBJECTID":525329},"geometry":{"x":172762.80000000075,"y":2544601.9700000025}},{"attributes":{"ID":525357,"DIS_CODE":0,"TOWNNAME":"永康區","LI":"建國里","LIN":"6鄰","STREET":"復國路","SECT":" ","MAREA":" ","LANE":" ","ALLEY":" ","HOUSE_NO":"７２號七樓之１","E_COORD97":172762.79999999999,"N_COORD97":2544601.9700000002,"ADDRESS":"復國路７２號七樓之１","OBJECTID":525330},"geometry":{"x":172762.80000000075,"y":2544601.9700000025}},{"attributes":{"ID":525358,"DIS_CODE":0,"TOWNNAME":"永康區","LI":"建國里","LIN":"6鄰","STREET":"復國路","SECT":" ","MAREA":" ","LANE":" ","ALLEY":" ","HOUSE_NO":"７２號七樓之２","E_COORD97":172762.79999999999,"N_COORD97":2544601.9700000002,"ADDRESS":"復國路７２號七樓之２","OBJECTID":525331},"geometry":{"x":172762.80000000075,"y":2544601.9700000025}},{"attributes":{"ID":525359,"DIS_CODE":0,"TOWNNAME":"永康區","LI":"建國里","LIN":"6鄰","STREET":"復國路","SECT":" ","MAREA":" ","LANE":" ","ALLEY":" ","HOUSE_NO":"７２號七樓之３","E_COORD97":172762.79999999999,"N_COORD97":2544601.9700000002,"ADDRESS":"復國路７２號七樓之３","OBJECTID":525332},"geometry":{"x":172762.80000000075,"y":2544601.9700000025}},{"attributes":{"ID":525360,"DIS_CODE":0,"TOWNNAME":"永康區","LI":"建國里","LIN":"6鄰","STREET":"復國路","SECT":" ","MAREA":" ","LANE":" ","ALLEY":" ","HOUSE_NO":"７２號七樓之５","E_COORD97":172762.79999999999,"N_COORD97":2544601.9700000002,"ADDRESS":"復國路７２號七樓之５","OBJECTID":525333},"geometry":{"x":172762.80000000075,"y":2544601.9700000025}},{"attributes":{"ID":525361,"DIS_CODE":0,"TOWNNAME":"永康區","LI":"建國里","LIN":"6鄰","STREET":"復國路","SECT":" ","MAREA":" ","LANE":" ","ALLEY":" ","HOUSE_NO":"７２號八樓之１","E_COORD97":172762.79999999999,"N_COORD97":2544601.9700000002,"ADDRESS":"復國路７２號八樓之１","OBJECTID":525334},"geometry":{"x":172762.80000000075,"y":2544601.9700000025}},{"attributes":{"ID":525362,"DIS_CODE":0,"TOWNNAME":"永康區","LI":"建國里","LIN":"6鄰","STREET":"復國路","SECT":" ","MAREA":" ","LANE":" ","ALLEY":" ","HOUSE_NO":"７２號八樓之２","E_COORD97":172762.79999999999,"N_COORD97":2544601.9700000002,"ADDRESS":"復國路７２號八樓之２","OBJECTID":525335},"geometry":{"x":172762.80000000075,"y":2544601.9700000025}},{"attributes":{"ID":525363,"DIS_CODE":0,"TOWNNAME":"永康區","LI":"建國里","LIN":"6鄰","STREET":"復國路","SECT":" ","MAREA":" ","LANE":" ","ALLEY":" ","HOUSE_NO":"７２號八樓之３","E_COORD97":172762.79999999999,"N_COORD97":2544601.9700000002,"ADDRESS":"復國路７２號八樓之３","OBJECTID":525336},"geometry":{"x":172762.80000000075,"y":2544601.9700000025}},{"attributes":{"ID":525364,"DIS_CODE":0,"TOWNNAME":"永康區","LI":"建國里","LIN":"6鄰","STREET":"復國路","SECT":" ","MAREA":" ","LANE":" ","ALLEY":" ","HOUSE_NO":"７２號八樓之５","E_COORD97":172762.79999999999,"N_COORD97":2544601.9700000002,"ADDRESS":"復國路７２號八樓之５","OBJECTID":525337},"geometry":{"x":172762.80000000075,"y":2544601.9700000025}},{"attributes":{"ID":525365,"DIS_CODE":0,"TOWNNAME":"永康區","LI":"建國里","LIN":"6鄰","STREET":"復國路","SECT":" ","MAREA":" ","LANE":" ","ALLEY":" ","HOUSE_NO":"７２號九樓之１","E_COORD97":172762.79999999999,"N_COORD97":2544601.9700000002,"ADDRESS":"復國路７２號九樓之１","OBJECTID":525338},"geometry":{"x":172762.80000000075,"y":2544601.9700000025}},{"attributes":{"ID":525366,"DIS_CODE":0,"TOWNNAME":"永康區","LI":"建國里","LIN":"6鄰","STREET":"復國路","SECT":" ","MAREA":" ","LANE":" ","ALLEY":" ","HOUSE_NO":"７２號九樓之２","E_COORD97":172762.79999999999,"N_COORD97":2544601.9700000002,"ADDRESS":"復國路７２號九樓之２","OBJECTID":525339},"geometry":{"x":172762.80000000075,"y":2544601.9700000025}},{"attributes":{"ID":525367,"DIS_CODE":0,"TOWNNAME":"永康區","LI":"建國里","LIN":"6鄰","STREET":"復國路","SECT":" ","MAREA":" ","LANE":" ","ALLEY":" ","HOUSE_NO":"７２號九樓之３","E_COORD97":172762.79999999999,"N_COORD97":2544601.9700000002,"ADDRESS":"復國路７２號九樓之３","OBJECTID":525340},"geometry":{"x":172762.80000000075,"y":2544601.9700000025}},{"attributes":{"ID":525368,"DIS_CODE":0,"TOWNNAME":"永康區","LI":"建國里","LIN":"6鄰","STREET":"復國路","SECT":" ","MAREA":" ","LANE":" ","ALLEY":" ","HOUSE_NO":"７２號九樓之５","E_COORD97":172762.79999999999,"N_COORD97":2544601.9700000002,"ADDRESS":"復國路７２號九樓之５","OBJECTID":525341},"geometry":{"x":172762.80000000075,"y":2544601.9700000025}},{"attributes":{"ID":525369,"DIS_CODE":0,"TOWNNAME":"永康區","LI":"建國里","LIN":"6鄰","STREET":"復國路","SECT":" ","MAREA":" ","LANE":" ","ALLEY":" ","HOUSE_NO":"７２號十樓之１","E_COORD97":172762.79999999999,"N_COORD97":2544601.9700000002,"ADDRESS":"復國路７２號十樓之１","OBJECTID":525342},"geometry":{"x":172762.80000000075,"y":2544601.9700000025}},{"attributes":{"ID":525370,"DIS_CODE":0,"TOWNNAME":"永康區","LI":"建國里","LIN":"6鄰","STREET":"復國路","SECT":" ","MAREA":" ","LANE":" ","ALLEY":" ","HOUSE_NO":"７２號十樓之２","E_COORD97":172762.79999999999,"N_COORD97":2544601.9700000002,"ADDRESS":"復國路７２號十樓之２","OBJECTID":525343},"geometry":{"x":172762.80000000075,"y":2544601.9700000025}},{"attributes":{"ID":525371,"DIS_CODE":0,"TOWNNAME":"永康區","LI":"建國里","LIN":"6鄰","STREET":"復國路","SECT":" ","MAREA":" ","LANE":" ","ALLEY":" ","HOUSE_NO":"７２號十樓之３","E_COORD97":172762.79999999999,"N_COORD97":2544601.9700000002,"ADDRESS":"復國路７２號十樓之３","OBJECTID":525344},"geometry":{"x":172762.80000000075,"y":2544601.9700000025}},{"attributes":{"ID":525372,"DIS_CODE":0,"TOWNNAME":"永康區","LI":"建國里","LIN":"6鄰","STREET":"復國路","SECT":" ","MAREA":" ","LANE":" ","ALLEY":" ","HOUSE_NO":"７２號十樓之５","E_COORD97":172762.79999999999,"N_COORD97":2544601.9700000002,"ADDRESS":"復國路７２號十樓之５","OBJECTID":525345},"geometry":{"x":172762.80000000075,"y":2544601.9700000025}},{"attributes":{"ID":525373,"DIS_CODE":0,"TOWNNAME":"永康區","LI":"建國里","LIN":"6鄰","STREET":"復國路","SECT":" ","MAREA":" ","LANE":" ","ALLEY":" ","HOUSE_NO":"７２號十一樓之１","E_COORD97":172762.79999999999,"N_COORD97":2544601.9700000002,"ADDRESS":"復國路７２號十一樓之１","OBJECTID":525346},"geometry":{"x":172762.80000000075,"y":2544601.9700000025}},{"attributes":{"ID":525374,"DIS_CODE":0,"TOWNNAME":"永康區","LI":"建國里","LIN":"6鄰","STREET":"復國路","SECT":" ","MAREA":" ","LANE":" ","ALLEY":" ","HOUSE_NO":"７２號十一樓之２","E_COORD97":172762.79999999999,"N_COORD97":2544601.9700000002,"ADDRESS":"復國路７２號十一樓之２","OBJECTID":525347},"geometry":{"x":172762.80000000075,"y":2544601.9700000025}},{"attributes":{"ID":525375,"DIS_CODE":0,"TOWNNAME":"永康區","LI":"建國里","LIN":"6鄰","STREET":"復國路","SECT":" ","MAREA":" ","LANE":" ","ALLEY":" ","HOUSE_NO":"７２號十一樓之３","E_COORD97":172762.79999999999,"N_COORD97":2544601.9700000002,"ADDRESS":"復國路７２號十一樓之３","OBJECTID":525348},"geometry":{"x":172762.80000000075,"y":2544601.9700000025}},{"attributes":{"ID":525376,"DIS_CODE":0,"TOWNNAME":"永康區","LI":"建國里","LIN":"6鄰","STREET":"復國路","SECT":" ","MAREA":" ","LANE":" ","ALLEY":" ","HOUSE_NO":"７２號十一樓之５","E_COORD97":172762.79999999999,"N_COORD97":2544601.9700000002,"ADDRESS":"復國路７２號十一樓之５","OBJECTID":525349},"geometry":{"x":172762.80000000075,"y":2544601.9700000025}},{"attributes":{"ID":525377,"DIS_CODE":0,"TOWNNAME":"永康區","LI":"建國里","LIN":"6鄰","STREET":"復國路","SECT":" ","MAREA":" ","LANE":" ","ALLEY":" ","HOUSE_NO":"７２號十二樓之１","E_COORD97":172762.79999999999,"N_COORD97":2544601.9700000002,"ADDRESS":"復國路７２號十二樓之１","OBJECTID":525350},"geometry":{"x":172762.80000000075,"y":2544601.9700000025}},{"attributes":{"ID":525378,"DIS_CODE":0,"TOWNNAME":"永康區","LI":"建國里","LIN":"6鄰","STREET":"復國路","SECT":" ","MAREA":" ","LANE":" ","ALLEY":" ","HOUSE_NO":"７２號十二樓之２","E_COORD97":172762.79999999999,"N_COORD97":2544601.9700000002,"ADDRESS":"復國路７２號十二樓之２","OBJECTID":525351},"geometry":{"x":172762.80000000075,"y":2544601.9700000025}},{"attributes":{"ID":525379,"DIS_CODE":0,"TOWNNAME":"永康區","LI":"建國里","LIN":"6鄰","STREET":"復國路","SECT":" ","MAREA":" ","LANE":" ","ALLEY":" ","HOUSE_NO":"７２號十二樓之３","E_COORD97":172762.79999999999,"N_COORD97":2544601.9700000002,"ADDRESS":"復國路７２號十二樓之３","OBJECTID":525352},"geometry":{"x":172762.80000000075,"y":2544601.9700000025}},{"attributes":{"ID":525380,"DIS_CODE":0,"TOWNNAME":"永康區","LI":"建國里","LIN":"6鄰","STREET":"復國路","SECT":" ","MAREA":" ","LANE":" ","ALLEY":" ","HOUSE_NO":"７２號十二樓之５","E_COORD97":172762.79999999999,"N_COORD97":2544601.9700000002,"ADDRESS":"復國路７２號十二樓之５","OBJECTID":525353},"geometry":{"x":172762.80000000075,"y":2544601.9700000025}},{"attributes":{"ID":525381,"DIS_CODE":0,"TOWNNAME":"永康區","LI":"建國里","LIN":"6鄰","STREET":"復國路","SECT":" ","MAREA":" ","LANE":" ","ALLEY":" ","HOUSE_NO":"７２號十三樓之１","E_COORD97":172762.79999999999,"N_COORD97":2544601.9700000002,"ADDRESS":"復國路７２號十三樓之１","OBJECTID":525354},"geometry":{"x":172762.80000000075,"y":2544601.9700000025}},{"attributes":{"ID":525382,"DIS_CODE":0,"TOWNNAME":"永康區","LI":"建國里","LIN":"6鄰","STREET":"復國路","SECT":" ","MAREA":" ","LANE":" ","ALLEY":" ","HOUSE_NO":"７２號十三樓之２","E_COORD97":172762.79999999999,"N_COORD97":2544601.9700000002,"ADDRESS":"復國路７２號十三樓之２","OBJECTID":525355},"geometry":{"x":172762.80000000075,"y":2544601.9700000025}},{"attributes":{"ID":525383,"DIS_CODE":0,"TOWNNAME":"永康區","LI":"建國里","LIN":"6鄰","STREET":"復國路","SECT":" ","MAREA":" ","LANE":" ","ALLEY":" ","HOUSE_NO":"７２號十三樓之３","E_COORD97":172762.79999999999,"N_COORD97":2544601.9700000002,"ADDRESS":"復國路７２號十三樓之３","OBJECTID":525356},"geometry":{"x":172762.80000000075,"y":2544601.9700000025}},{"attributes":{"ID":525384,"DIS_CODE":0,"TOWNNAME":"永康區","LI":"建國里","LIN":"6鄰","STREET":"復國路","SECT":" ","MAREA":" ","LANE":" ","ALLEY":" ","HOUSE_NO":"７２號十三樓之５","E_COORD97":172762.79999999999,"N_COORD97":2544601.9700000002,"ADDRESS":"復國路７２號十三樓之５","OBJECTID":525357},"geometry":{"x":172762.80000000075,"y":2544601.9700000025}},{"attributes":{"ID":525385,"DIS_CODE":0,"TOWNNAME":"永康區","LI":"建國里","LIN":"6鄰","STREET":"復國路","SECT":" ","MAREA":" ","LANE":" ","ALLEY":" ","HOUSE_NO":"７２號十四樓之２","E_COORD97":172762.79999999999,"N_COORD97":2544601.9700000002,"ADDRESS":"復國路７２號十四樓之２","OBJECTID":525358},"geometry":{"x":172762.80000000075,"y":2544601.9700000025}},{"attributes":{"ID":525386,"DIS_CODE":0,"TOWNNAME":"永康區","LI":"建國里","LIN":"6鄰","STREET":"復國路","SECT":" ","MAREA":" ","LANE":" ","ALLEY":" ","HOUSE_NO":"７２號十四樓之３","E_COORD97":172762.79999999999,"N_COORD97":2544601.9700000002,"ADDRESS":"復國路７２號十四樓之３","OBJECTID":525359},"geometry":{"x":172762.80000000075,"y":2544601.9700000025}},{"attributes":{"ID":525387,"DIS_CODE":0,"TOWNNAME":"永康區","LI":"建國里","LIN":"6鄰","STREET":"復國路","SECT":" ","MAREA":" ","LANE":" ","ALLEY":" ","HOUSE_NO":"７２號十四樓之５","E_COORD97":172762.79999999999,"N_COORD97":2544601.9700000002,"ADDRESS":"復國路７２號十四樓之５","OBJECTID":525360},"geometry":{"x":172762.80000000075,"y":2544601.9700000025}},{"attributes":{"ID":525388,"DIS_CODE":0,"TOWNNAME":"北區","LI":"公園里","LIN":"6鄰","STREET":"成功路","SECT":" ","MAREA":" ","LANE":" ","ALLEY":" ","HOUSE_NO":"２號七樓之８","E_COORD97":169158.57999999999,"N_COORD97":2544255.9300000002,"ADDRESS":"成功路２號七樓之８","OBJECTID":525361},"geometry":{"x":169158.58000000007,"y":2544255.9300000016}},{"attributes":{"ID":525389,"DIS_CODE":0,"TOWNNAME":"永康區","LI":"東灣里","LIN":"6鄰","STREET":"大灣三街","SECT":" ","MAREA":" ","LANE":" ","ALLEY":" ","HOUSE_NO":"１０２號二樓","E_COORD97":174750.78,"N_COORD97":2545019.3999999999,"ADDRESS":"大灣三街１０２號二樓","OBJECTID":525362},"geometry":{"x":174750.78000000119,"y":2545019.4000000022}},{"attributes":{"ID":525390,"DIS_CODE":0,"TOWNNAME":"新市區","LI":"港墘里","LIN":"6鄰","STREET":"國際路","SECT":" ","MAREA":" ","LANE":" ","ALLEY":" ","HOUSE_NO":"１５號一樓之１","E_COORD97":177997.35000000001,"N_COORD97":2553195.9199999999,"ADDRESS":"國際路１５號一樓之１","OBJECTID":525363},"geometry":{"x":177997.35000000056,"y":2553195.9200000037}},{"attributes":{"ID":525391,"DIS_CODE":0,"TOWNNAME":"新市區","LI":"港墘里","LIN":"6鄰","STREET":"國際路","SECT":" ","MAREA":" ","LANE":" ","ALLEY":" ","HOUSE_NO":"１５號一樓之２","E_COORD97":177997.35000000001,"N_COORD97":2553195.9199999999,"ADDRESS":"國際路１５號一樓之２","OBJECTID":525364},"geometry":{"x":177997.35000000056,"y":2553195.9200000037}},{"attributes":{"ID":525392,"DIS_CODE":0,"TOWNNAME":"新市區","LI":"港墘里","LIN":"6鄰","STREET":"國際路","SECT":" ","MAREA":" ","LANE":" ","ALLEY":" ","HOUSE_NO":"１５號一樓之３","E_COORD97":177997.35000000001,"N_COORD97":2553195.9199999999,"ADDRESS":"國際路１５號一樓之３","OBJECTID":525365},"geometry":{"x":177997.35000000056,"y":2553195.9200000037}},{"attributes":{"ID":525393,"DIS_CODE":0,"TOWNNAME":"新市區","LI":"港墘里","LIN":"6鄰","STREET":"國際路","SECT":" ","MAREA":" ","LANE":" ","ALLEY":" ","HOUSE_NO":"１５號一樓之５","E_COORD97":177997.35000000001,"N_COORD97":2553195.9199999999,"ADDRESS":"國際路１５號一樓之５","OBJECTID":525366},"geometry":{"x":177997.35000000056,"y":2553195.9200000037}},{"attributes":{"ID":525394,"DIS_CODE":0,"TOWNNAME":"永康區","LI":"永康里","LIN":"1鄰","STREET":"埔聖街","SECT":" ","MAREA":" ","LANE":" ","ALLEY":" ","HOUSE_NO":"７６號","E_COORD97":173950.79000000001,"N_COORD97":2547564.25,"ADDRESS":"埔聖街７６號","OBJECTID":525367},"geometry":{"x":173950.79000000004,"y":2547564.25}},{"attributes":{"ID":525395,"DIS_CODE":0,"TOWNNAME":"新市區","LI":"港墘里","LIN":"6鄰","STREET":"國際路","SECT":" ","MAREA":" ","LANE":" ","ALLEY":" ","HOUSE_NO":"１５號二樓之１","E_COORD97":177997.35000000001,"N_COORD97":2553195.9199999999,"ADDRESS":"國際路１５號二樓之１","OBJECTID":525368},"geometry":{"x":177997.35000000056,"y":2553195.9200000037}},{"attributes":{"ID":525396,"DIS_CODE":0,"TOWNNAME":"新市區","LI":"港墘里","LIN":"6鄰","STREET":"國際路","SECT":" ","MAREA":" ","LANE":" ","ALLEY":" ","HOUSE_NO":"１５號二樓之２","E_COORD97":177997.35000000001,"N_COORD97":2553195.9199999999,"ADDRESS":"國際路１５號二樓之２","OBJECTID":525369},"geometry":{"x":177997.35000000056,"y":2553195.9200000037}},{"attributes":{"ID":525397,"DIS_CODE":0,"TOWNNAME":"新市區","LI":"港墘里","LIN":"6鄰","STREET":"國際路","SECT":" ","MAREA":" ","LANE":" ","ALLEY":" ","HOUSE_NO":"１５號二樓之３","E_COORD97":177997.35000000001,"N_COORD97":2553195.9199999999,"ADDRESS":"國際路１５號二樓之３","OBJECTID":525370},"geometry":{"x":177997.35000000056,"y":2553195.9200000037}},{"attributes":{"ID":525398,"DIS_CODE":0,"TOWNNAME":"新市區","LI":"港墘里","LIN":"6鄰","STREET":"國際路","SECT":" ","MAREA":" ","LANE":" ","ALLEY":" ","HOUSE_NO":"１５號二樓之５","E_COORD97":177997.35000000001,"N_COORD97":2553195.9199999999,"ADDRESS":"國際路１５號二樓之５","OBJECTID":525371},"geometry":{"x":177997.35000000056,"y":2553195.9200000037}},{"attributes":{"ID":525399,"DIS_CODE":0,"TOWNNAME":"新市區","LI":"港墘里","LIN":"6鄰","STREET":"國際路","SECT":" ","MAREA":" ","LANE":" ","ALLEY":" ","HOUSE_NO":"１５號三樓之１","E_COORD97":177997.35000000001,"N_COORD97":2553195.9199999999,"ADDRESS":"國際路１５號三樓之１","OBJECTID":525372},"geometry":{"x":177997.35000000056,"y":2553195.9200000037}},{"attributes":{"ID":525400,"DIS_CODE":0,"TOWNNAME":"新市區","LI":"港墘里","LIN":"6鄰","STREET":"國際路","SECT":" ","MAREA":" ","LANE":" ","ALLEY":" ","HOUSE_NO":"１５號三樓之２","E_COORD97":177997.35000000001,"N_COORD97":2553195.9199999999,"ADDRESS":"國際路１５號三樓之２","OBJECTID":525373},"geometry":{"x":177997.35000000056,"y":2553195.9200000037}},{"attributes":{"ID":525401,"DIS_CODE":0,"TOWNNAME":"新市區","LI":"港墘里","LIN":"6鄰","STREET":"國際路","SECT":" ","MAREA":" ","LANE":" ","ALLEY":" ","HOUSE_NO":"１５號三樓之３","E_COORD97":177997.35000000001,"N_COORD97":2553195.9199999999,"ADDRESS":"國際路１５號三樓之３","OBJECTID":525374},"geometry":{"x":177997.35000000056,"y":2553195.9200000037}},{"attributes":{"ID":525402,"DIS_CODE":0,"TOWNNAME":"新市區","LI":"港墘里","LIN":"6鄰","STREET":"國際路","SECT":" ","MAREA":" ","LANE":" ","ALLEY":" ","HOUSE_NO":"１５號三樓之５","E_COORD97":177997.35000000001,"N_COORD97":2553195.9199999999,"ADDRESS":"國際路１５號三樓之５","OBJECTID":525375},"geometry":{"x":177997.35000000056,"y":2553195.9200000037}},{"attributes":{"ID":525403,"DIS_CODE":0,"TOWNNAME":"新市區","LI":"港墘里","LIN":"6鄰","STREET":"國際路","SECT":" ","MAREA":" ","LANE":" ","ALLEY":" ","HOUSE_NO":"１５號四樓之１","E_COORD97":177997.35000000001,"N_COORD97":2553195.9199999999,"ADDRESS":"國際路１５號四樓之１","OBJECTID":525376},"geometry":{"x":177997.35000000056,"y":2553195.9200000037}},{"attributes":{"ID":525404,"DIS_CODE":0,"TOWNNAME":"新市區","LI":"港墘里","LIN":"6鄰","STREET":"國際路","SECT":" ","MAREA":" ","LANE":" ","ALLEY":" ","HOUSE_NO":"１５號四樓之２","E_COORD97":177997.35000000001,"N_COORD97":2553195.9199999999,"ADDRESS":"國際路１５號四樓之２","OBJECTID":525377},"geometry":{"x":177997.35000000056,"y":2553195.9200000037}},{"attributes":{"ID":525405,"DIS_CODE":0,"TOWNNAME":"新市區","LI":"港墘里","LIN":"6鄰","STREET":"國際路","SECT":" ","MAREA":" ","LANE":" ","ALLEY":" ","HOUSE_NO":"１５號四樓之３","E_COORD97":177997.35000000001,"N_COORD97":2553195.9199999999,"ADDRESS":"國際路１５號四樓之３","OBJECTID":525378},"geometry":{"x":177997.35000000056,"y":2553195.9200000037}},{"attributes":{"ID":525406,"DIS_CODE":0,"TOWNNAME":"新市區","LI":"港墘里","LIN":"6鄰","STREET":"國際路","SECT":" ","MAREA":" ","LANE":" ","ALLEY":" ","HOUSE_NO":"１５號四樓之５","E_COORD97":177997.35000000001,"N_COORD97":2553195.9199999999,"ADDRESS":"國際路１５號四樓之５","OBJECTID":525379},"geometry":{"x":177997.35000000056,"y":2553195.9200000037}},{"attributes":{"ID":525407,"DIS_CODE":0,"TOWNNAME":"新市區","LI":"港墘里","LIN":"6鄰","STREET":"國際路","SECT":" ","MAREA":" ","LANE":" ","ALLEY":" ","HOUSE_NO":"１５號五樓之１","E_COORD97":177997.35000000001,"N_COORD97":2553195.9199999999,"ADDRESS":"國際路１５號五樓之１","OBJECTID":525380},"geometry":{"x":177997.35000000056,"y":2553195.9200000037}},{"attributes":{"ID":525408,"DIS_CODE":0,"TOWNNAME":"新市區","LI":"港墘里","LIN":"6鄰","STREET":"國際路","SECT":" ","MAREA":" ","LANE":" ","ALLEY":" ","HOUSE_NO":"１５號五樓之２","E_COORD97":177997.35000000001,"N_COORD97":2553195.9199999999,"ADDRESS":"國際路１５號五樓之２","OBJECTID":525381},"geometry":{"x":177997.35000000056,"y":2553195.9200000037}},{"attributes":{"ID":525409,"DIS_CODE":0,"TOWNNAME":"新市區","LI":"港墘里","LIN":"6鄰","STREET":"國際路","SECT":" ","MAREA":" ","LANE":" ","ALLEY":" ","HOUSE_NO":"１５號五樓之３","E_COORD97":177997.35000000001,"N_COORD97":2553195.9199999999,"ADDRESS":"國際路１５號五樓之３","OBJECTID":525382},"geometry":{"x":177997.35000000056,"y":2553195.9200000037}},{"attributes":{"ID":525410,"DIS_CODE":0,"TOWNNAME":"新市區","LI":"港墘里","LIN":"6鄰","STREET":"國際路","SECT":" ","MAREA":" ","LANE":" ","ALLEY":" ","HOUSE_NO":"１５號五樓之５","E_COORD97":177997.35000000001,"N_COORD97":2553195.9199999999,"ADDRESS":"國際路１５號五樓之５","OBJECTID":525383},"geometry":{"x":177997.35000000056,"y":2553195.9200000037}},{"attributes":{"ID":525411,"DIS_CODE":0,"TOWNNAME":"新市區","LI":"港墘里","LIN":"6鄰","STREET":"國際路","SECT":" ","MAREA":" ","LANE":" ","ALLEY":" ","HOUSE_NO":"１９號二樓","E_COORD97":177993.5,"N_COORD97":2553108.9900000002,"ADDRESS":"國際路１９號二樓","OBJECTID":525384},"geometry":{"x":177993.50000000093,"y":2553108.9900000021}},{"attributes":{"ID":525412,"DIS_CODE":0,"TOWNNAME":"永康區","LI":"安康里","LIN":"18鄰","STREET":"中華西街","SECT":" ","MAREA":" ","LANE":" ","ALLEY":" ","HOUSE_NO":"６８號","E_COORD97":170770.25,"N_COORD97":2546041.2400000002,"ADDRESS":"中華西街６８號","OBJECTID":525385},"geometry":{"x":170770.25000000093,"y":2546041.2400000021}},{"attributes":{"ID":525413,"DIS_CODE":0,"TOWNNAME":"新市區","LI":"港墘里","LIN":"6鄰","STREET":"國際路","SECT":" ","MAREA":" ","LANE":" ","ALLEY":" ","HOUSE_NO":"１３號一樓之２","E_COORD97":178055.37,"N_COORD97":2553170.1899999999,"ADDRESS":"國際路１３號一樓之２","OBJECTID":525386},"geometry":{"x":178055.37000000104,"y":2553170.1900000013}},{"attributes":{"ID":525414,"DIS_CODE":0,"TOWNNAME":"新市區","LI":"港墘里","LIN":"6鄰","STREET":"國際路","SECT":" ","MAREA":" ","LANE":" ","ALLEY":" ","HOUSE_NO":"１３號一樓之３","E_COORD97":178055.37,"N_COORD97":2553170.1899999999,"ADDRESS":"國際路１３號一樓之３","OBJECTID":525387},"geometry":{"x":178055.37000000104,"y":2553170.1900000013}},{"attributes":{"ID":525415,"DIS_CODE":0,"TOWNNAME":"新市區","LI":"港墘里","LIN":"6鄰","STREET":"國際路","SECT":" ","MAREA":" ","LANE":" ","ALLEY":" ","HOUSE_NO":"１３號一樓之５","E_COORD97":178055.37,"N_COORD97":2553170.1899999999,"ADDRESS":"國際路１３號一樓之５","OBJECTID":525388},"geometry":{"x":178055.37000000104,"y":2553170.1900000013}},{"attributes":{"ID":525416,"DIS_CODE":0,"TOWNNAME":"新市區","LI":"港墘里","LIN":"6鄰","STREET":"國際路","SECT":" ","MAREA":" ","LANE":" ","ALLEY":" ","HOUSE_NO":"１３號一樓之６","E_COORD97":178055.37,"N_COORD97":2553170.1899999999,"ADDRESS":"國際路１３號一樓之６","OBJECTID":525389},"geometry":{"x":178055.37000000104,"y":2553170.1900000013}},{"attributes":{"ID":525417,"DIS_CODE":0,"TOWNNAME":"新市區","LI":"港墘里","LIN":"6鄰","STREET":"國際路","SECT":" ","MAREA":" ","LANE":" ","ALLEY":" ","HOUSE_NO":"１３號一樓之７","E_COORD97":178055.37,"N_COORD97":2553170.1899999999,"ADDRESS":"國際路１３號一樓之７","OBJECTID":525390},"geometry":{"x":178055.37000000104,"y":2553170.1900000013}},{"attributes":{"ID":525418,"DIS_CODE":0,"TOWNNAME":"新市區","LI":"港墘里","LIN":"6鄰","STREET":"國際路","SECT":" ","MAREA":" ","LANE":" ","ALLEY":" ","HOUSE_NO":"１３號一樓之８","E_COORD97":178055.37,"N_COORD97":2553170.1899999999,"ADDRESS":"國際路１３號一樓之８","OBJECTID":525391},"geometry":{"x":178055.37000000104,"y":2553170.1900000013}},{"attributes":{"ID":525419,"DIS_CODE":0,"TOWNNAME":"新市區","LI":"港墘里","LIN":"6鄰","STREET":"國際路","SECT":" ","MAREA":" ","LANE":" ","ALLEY":" ","HOUSE_NO":"１３號一樓之１０","E_COORD97":178055.37,"N_COORD97":2553170.1899999999,"ADDRESS":"國際路１３號一樓之１０","OBJECTID":525392},"geometry":{"x":178055.37000000104,"y":2553170.1900000013}},{"attributes":{"ID":525420,"DIS_CODE":0,"TOWNNAME":"新市區","LI":"港墘里","LIN":"6鄰","STREET":"國際路","SECT":" ","MAREA":" ","LANE":" ","ALLEY":" ","HOUSE_NO":"１３號一樓之１２","E_COORD97":178055.37,"N_COORD97":2553170.1899999999,"ADDRESS":"國際路１３號一樓之１２","OBJECTID":525393},"geometry":{"x":178055.37000000104,"y":2553170.1900000013}},{"attributes":{"ID":525421,"DIS_CODE":0,"TOWNNAME":"新市區","LI":"港墘里","LIN":"6鄰","STREET":"國際路","SECT":" ","MAREA":" ","LANE":" ","ALLEY":" ","HOUSE_NO":"１３號一樓之１６","E_COORD97":178055.37,"N_COORD97":2553170.1899999999,"ADDRESS":"國際路１３號一樓之１６","OBJECTID":525394},"geometry":{"x":178055.37000000104,"y":2553170.1900000013}},{"attributes":{"ID":525422,"DIS_CODE":0,"TOWNNAME":"新市區","LI":"港墘里","LIN":"6鄰","STREET":"國際路","SECT":" ","MAREA":" ","LANE":" ","ALLEY":" ","HOUSE_NO":"１３號五樓之１","E_COORD97":178055.37,"N_COORD97":2553170.1899999999,"ADDRESS":"國際路１３號五樓之１","OBJECTID":525395},"geometry":{"x":178055.37000000104,"y":2553170.1900000013}},{"attributes":{"ID":525423,"DIS_CODE":0,"TOWNNAME":"新市區","LI":"港墘里","LIN":"6鄰","STREET":"國際路","SECT":" ","MAREA":" ","LANE":" ","ALLEY":" ","HOUSE_NO":"１３號五樓之２","E_COORD97":178055.37,"N_COORD97":2553170.1899999999,"ADDRESS":"國際路１３號五樓之２","OBJECTID":525396},"geometry":{"x":178055.37000000104,"y":2553170.1900000013}},{"attributes":{"ID":525424,"DIS_CODE":0,"TOWNNAME":"新市區","LI":"港墘里","LIN":"6鄰","STREET":"國際路","SECT":" ","MAREA":" ","LANE":" ","ALLEY":" ","HOUSE_NO":"１３號五樓之３","E_COORD97":178055.37,"N_COORD97":2553170.1899999999,"ADDRESS":"國際路１３號五樓之３","OBJECTID":525397},"geometry":{"x":178055.37000000104,"y":2553170.1900000013}},{"attributes":{"ID":525425,"DIS_CODE":0,"TOWNNAME":"新市區","LI":"港墘里","LIN":"6鄰","STREET":"國際路","SECT":" ","MAREA":" ","LANE":" ","ALLEY":" ","HOUSE_NO":"１３號五樓之５","E_COORD97":178055.37,"N_COORD97":2553170.1899999999,"ADDRESS":"國際路１３號五樓之５","OBJECTID":525398},"geometry":{"x":178055.37000000104,"y":2553170.1900000013}},{"attributes":{"ID":525426,"DIS_CODE":0,"TOWNNAME":"永康區","LI":"西灣里","LIN":"29鄰","STREET":"大勇路","SECT":" ","MAREA":" ","LANE":" ","ALLEY":" ","HOUSE_NO":"１５２號之３","E_COORD97":174320.17999999999,"N_COORD97":2545815.04,"ADDRESS":"大勇路１５２號之３","OBJECTID":525399},"geometry":{"x":174320.18000000063,"y":2545815.0399999991}},{"attributes":{"ID":525427,"DIS_CODE":0,"TOWNNAME":"新市區","LI":"港墘里","LIN":"6鄰","STREET":"國際路","SECT":" ","MAREA":" ","LANE":" ","ALLEY":" ","HOUSE_NO":"１３號五樓之６","E_COORD97":178055.37,"N_COORD97":2553170.1899999999,"ADDRESS":"國際路１３號五樓之６","OBJECTID":525400},"geometry":{"x":178055.37000000104,"y":2553170.1900000013}}]}