{"displayFieldName":"TOWNNAME","fieldAliases":{"ID":"ID","DIS_CODE":"DIS_CODE","TOWNNAME":"TOWNNAME","LI":"LI","LIN":"LIN","STREET":"STREET","SECT":"SECT","MAREA":"MAREA","LANE":"LANE","ALLEY":"ALLEY","HOUSE_NO":"HOUSE_NO","E_COORD97":"E_COORD97","N_COORD97":"N_COORD97","ADDRESS":"ADDRESS","OBJECTID":"OBJECTID"},"geometryType":"esriGeometryPoint","spatialReference":{"wkid":102443,"latestWkid":3826},"fields":[{"name":"ID","type":"esriFieldTypeDouble","alias":"ID"},{"name":"DIS_CODE","type":"esriFieldTypeInteger","alias":"DIS_CODE"},{"name":"TOWNNAME","type":"esriFieldTypeString","alias":"TOWNNAME","length":8},{"name":"LI","type":"esriFieldTypeString","alias":"LI","length":8},{"name":"LIN","type":"esriFieldTypeString","alias":"LIN","length":12},{"name":"STREET","type":"esriFieldTypeString","alias":"STREET","length":20},{"name":"SECT","type":"esriFieldTypeString","alias":"SECT","length":8},{"name":"MAREA","type":"esriFieldTypeString","alias":"MAREA","length":12},{"name":"LANE","type":"esriFieldTypeString","alias":"LANE","length":10},{"name":"ALLEY","type":"esriFieldTypeString","alias":"ALLEY","length":10},{"name":"HOUSE_NO","type":"esriFieldTypeString","alias":"HOUSE_NO","length":20},{"name":"E_COORD97","type":"esriFieldTypeDouble","alias":"E_COORD97"},{"name":"N_COORD97","type":"esriFieldTypeDouble","alias":"N_COORD97"},{"name":"ADDRESS","type":"esriFieldTypeString","alias":"ADDRESS","length":50},{"name":"OBJECTID","type":"esriFieldTypeOID","alias":"OBJECTID"}],"features":[{"attributes":{"ID":619828,"DIS_CODE":0,"TOWNNAME":"中西區","LI":"文賢里","LIN":"2鄰","STREET":"文和街","SECT":" ","MAREA":" ","LANE":" ","ALLEY":" ","HOUSE_NO":"９２號","E_COORD97":167150.67999999999,"N_COORD97":2544858.75,"ADDRESS":"文和街９２號","OBJECTID":619801},"geometry":{"x":167150.68000000156,"y":2544858.75}},{"attributes":{"ID":619829,"DIS_CODE":0,"TOWNNAME":"中西區","LI":"文賢里","LIN":"2鄰","STREET":"文和街","SECT":" ","MAREA":" ","LANE":" ","ALLEY":" ","HOUSE_NO":"９４號","E_COORD97":167145.60000000001,"N_COORD97":2544854.9700000002,"ADDRESS":"文和街９４號","OBJECTID":619802},"geometry":{"x":167145.59999999963,"y":2544854.9700000007}},{"attributes":{"ID":619830,"DIS_CODE":0,"TOWNNAME":"中西區","LI":"文賢里","LIN":"2鄰","STREET":"文和街","SECT":" ","MAREA":" ","LANE":" ","ALLEY":" ","HOUSE_NO":"９６號","E_COORD97":167142.98000000001,"N_COORD97":2544851.4900000002,"ADDRESS":"文和街９６號","OBJECTID":619803},"geometry":{"x":167142.98000000138,"y":2544851.4900000002}},{"attributes":{"ID":619831,"DIS_CODE":0,"TOWNNAME":"中西區","LI":"文賢里","LIN":"2鄰","STREET":"文和街","SECT":" ","MAREA":" ","LANE":" ","ALLEY":" ","HOUSE_NO":"９６號之１","E_COORD97":167141.09,"N_COORD97":2544848.2999999998,"ADDRESS":"文和街９６號之１","OBJECTID":619804},"geometry":{"x":167141.08999999892,"y":2544848.3000000026}},{"attributes":{"ID":619832,"DIS_CODE":0,"TOWNNAME":"中西區","LI":"文賢里","LIN":"2鄰","STREET":"文和街","SECT":" ","MAREA":" ","LANE":" ","ALLEY":" ","HOUSE_NO":"９８號","E_COORD97":167137.03,"N_COORD97":2544845.6899999999,"ADDRESS":"文和街９８號","OBJECTID":619805},"geometry":{"x":167137.03000000212,"y":2544845.6899999995}},{"attributes":{"ID":619833,"DIS_CODE":0,"TOWNNAME":"中西區","LI":"大涼里","LIN":"2鄰","STREET":"金華路","SECT":"三段","MAREA":" ","LANE":" ","ALLEY":" ","HOUSE_NO":"１６９號","E_COORD97":167266.28,"N_COORD97":2543748.8700000001,"ADDRESS":"金華路三段１６９號","OBJECTID":619806},"geometry":{"x":167266.28000000119,"y":2543748.8700000029}},{"attributes":{"ID":619834,"DIS_CODE":0,"TOWNNAME":"中西區","LI":"普濟里","LIN":"2鄰","STREET":"西門路","SECT":"二段","MAREA":" ","LANE":" ","ALLEY":" ","HOUSE_NO":"３３７號","E_COORD97":167919.03,"N_COORD97":2544287.0299999998,"ADDRESS":"西門路二段３３７號","OBJECTID":619807},"geometry":{"x":167919.03000000119,"y":2544287.0299999993}},{"attributes":{"ID":619835,"DIS_CODE":0,"TOWNNAME":"中西區","LI":"普濟里","LIN":"2鄰","STREET":"西門路","SECT":"二段","MAREA":" ","LANE":" ","ALLEY":" ","HOUSE_NO":"３３９號","E_COORD97":167923.07000000001,"N_COORD97":2544285.0899999999,"ADDRESS":"西門路二段３３９號","OBJECTID":619808},"geometry":{"x":167923.0700000003,"y":2544285.0900000017}},{"attributes":{"ID":619836,"DIS_CODE":0,"TOWNNAME":"中西區","LI":"普濟里","LIN":"2鄰","STREET":"國華街","SECT":"三段","MAREA":" ","LANE":" ","ALLEY":" ","HOUSE_NO":"２０２號","E_COORD97":167908.91,"N_COORD97":2544289.1000000001,"ADDRESS":"國華街三段２０２號","OBJECTID":619809},"geometry":{"x":167908.91000000201,"y":2544289.1000000015}},{"attributes":{"ID":619837,"DIS_CODE":0,"TOWNNAME":"中西區","LI":"普濟里","LIN":"2鄰","STREET":"國華街","SECT":"三段","MAREA":" ","LANE":" ","ALLEY":" ","HOUSE_NO":"２０６號","E_COORD97":167910.95999999999,"N_COORD97":2544293.73,"ADDRESS":"國華街三段２０６號","OBJECTID":619810},"geometry":{"x":167910.95999999996,"y":2544293.7300000004}},{"attributes":{"ID":619838,"DIS_CODE":0,"TOWNNAME":"中西區","LI":"普濟里","LIN":"2鄰","STREET":"國華街","SECT":"三段","MAREA":" ","LANE":" ","ALLEY":" ","HOUSE_NO":"２０８號","E_COORD97":167911.48000000001,"N_COORD97":2544298.8700000001,"ADDRESS":"國華街三段２０８號","OBJECTID":619811},"geometry":{"x":167911.48000000045,"y":2544298.8700000029}},{"attributes":{"ID":619839,"DIS_CODE":0,"TOWNNAME":"中西區","LI":"普濟里","LIN":"2鄰","STREET":"國華街","SECT":"三段","MAREA":" ","LANE":" ","ALLEY":" ","HOUSE_NO":"２１０號","E_COORD97":167914.04999999999,"N_COORD97":2544304.0099999998,"ADDRESS":"國華街三段２１０號","OBJECTID":619812},"geometry":{"x":167914.04999999981,"y":2544304.0099999998}},{"attributes":{"ID":619840,"DIS_CODE":0,"TOWNNAME":"中西區","LI":"普濟里","LIN":"2鄰","STREET":"國華街","SECT":"三段","MAREA":" ","LANE":" ","ALLEY":" ","HOUSE_NO":"２１２號","E_COORD97":167915.76999999999,"N_COORD97":2544307.0899999999,"ADDRESS":"國華街三段２１２號","OBJECTID":619813},"geometry":{"x":167915.76999999955,"y":2544307.0899999999}},{"attributes":{"ID":619841,"DIS_CODE":0,"TOWNNAME":"中西區","LI":"普濟里","LIN":"2鄰","STREET":"國華街","SECT":"三段","MAREA":" ","LANE":" ","ALLEY":" ","HOUSE_NO":"２１６號","E_COORD97":167917.31,"N_COORD97":2544312.0600000001,"ADDRESS":"國華街三段２１６號","OBJECTID":619814},"geometry":{"x":167917.30999999959,"y":2544312.0600000005}},{"attributes":{"ID":619842,"DIS_CODE":0,"TOWNNAME":"中西區","LI":"普濟里","LIN":"2鄰","STREET":"國華街","SECT":"三段","MAREA":" ","LANE":" ","ALLEY":" ","HOUSE_NO":"２１８號","E_COORD97":167918.67999999999,"N_COORD97":2544316.52,"ADDRESS":"國華街三段２１８號","OBJECTID":619815},"geometry":{"x":167918.68000000063,"y":2544316.5200000014}},{"attributes":{"ID":619843,"DIS_CODE":0,"TOWNNAME":"中西區","LI":"普濟里","LIN":"2鄰","STREET":"國華街","SECT":"三段","MAREA":" ","LANE":" ","ALLEY":" ","HOUSE_NO":"２２０號","E_COORD97":167922.63,"N_COORD97":2544319.4300000002,"ADDRESS":"國華街三段２２０號","OBJECTID":619816},"geometry":{"x":167922.63000000082,"y":2544319.4300000034}},{"attributes":{"ID":619844,"DIS_CODE":0,"TOWNNAME":"中西區","LI":"普濟里","LIN":"2鄰","STREET":"國華街","SECT":"三段","MAREA":" ","LANE":" ","ALLEY":" ","HOUSE_NO":"２２２號","E_COORD97":167924.69,"N_COORD97":2544325.1400000001,"ADDRESS":"國華街三段２２２號","OBJECTID":619817},"geometry":{"x":167924.69000000134,"y":2544325.1400000006}},{"attributes":{"ID":619845,"DIS_CODE":0,"TOWNNAME":"中西區","LI":"普濟里","LIN":"2鄰","STREET":"慈聖街","SECT":" ","MAREA":" ","LANE":" ","ALLEY":" ","HOUSE_NO":"２８號","E_COORD97":167927.75,"N_COORD97":2544328.1899999999,"ADDRESS":"慈聖街２８號","OBJECTID":619818},"geometry":{"x":167927.75,"y":2544328.1900000013}},{"attributes":{"ID":619846,"DIS_CODE":0,"TOWNNAME":"中西區","LI":"普濟里","LIN":"2鄰","STREET":"慈聖街","SECT":" ","MAREA":" ","LANE":" ","ALLEY":" ","HOUSE_NO":"３０號","E_COORD97":167932.75,"N_COORD97":2544331.48,"ADDRESS":"慈聖街３０號","OBJECTID":619819},"geometry":{"x":167932.75,"y":2544331.4800000023}},{"attributes":{"ID":619847,"DIS_CODE":0,"TOWNNAME":"中西區","LI":"普濟里","LIN":"2鄰","STREET":"慈聖街","SECT":" ","MAREA":" ","LANE":" ","ALLEY":" ","HOUSE_NO":"３２號","E_COORD97":167936.14999999999,"N_COORD97":2544335.1899999999,"ADDRESS":"慈聖街３２號","OBJECTID":619820},"geometry":{"x":167936.15000000037,"y":2544335.1900000013}},{"attributes":{"ID":619848,"DIS_CODE":0,"TOWNNAME":"中西區","LI":"普濟里","LIN":"2鄰","STREET":"慈聖街","SECT":" ","MAREA":" ","LANE":" ","ALLEY":" ","HOUSE_NO":"３４號","E_COORD97":167939.98000000001,"N_COORD97":2544337.8399999999,"ADDRESS":"慈聖街３４號","OBJECTID":619821},"geometry":{"x":167939.98000000138,"y":2544337.8400000017}},{"attributes":{"ID":619849,"DIS_CODE":0,"TOWNNAME":"中西區","LI":"普濟里","LIN":"2鄰","STREET":"慈聖街","SECT":" ","MAREA":" ","LANE":" ","ALLEY":" ","HOUSE_NO":"３６號","E_COORD97":167943.23999999999,"N_COORD97":2544340.3100000001,"ADDRESS":"慈聖街３６號","OBJECTID":619822},"geometry":{"x":167943.24000000022,"y":2544340.3100000005}},{"attributes":{"ID":619850,"DIS_CODE":0,"TOWNNAME":"中西區","LI":"普濟里","LIN":"2鄰","STREET":"慈聖街","SECT":" ","MAREA":" ","LANE":" ","ALLEY":" ","HOUSE_NO":"３８號","E_COORD97":167947.73000000001,"N_COORD97":2544343.1000000001,"ADDRESS":"慈聖街３８號","OBJECTID":619823},"geometry":{"x":167947.73000000231,"y":2544343.1000000015}},{"attributes":{"ID":619851,"DIS_CODE":0,"TOWNNAME":"中西區","LI":"普濟里","LIN":"2鄰","STREET":"慈聖街","SECT":" ","MAREA":" ","LANE":" ","ALLEY":" ","HOUSE_NO":"４０號","E_COORD97":167951.12,"N_COORD97":2544345.8900000001,"ADDRESS":"慈聖街４０號","OBJECTID":619824},"geometry":{"x":167951.12000000011,"y":2544345.8900000025}},{"attributes":{"ID":619852,"DIS_CODE":0,"TOWNNAME":"中西區","LI":"藥王里","LIN":"2鄰","STREET":"民族路","SECT":"三段","MAREA":" ","LANE":" ","ALLEY":" ","HOUSE_NO":"１８３號","E_COORD97":167455.22,"N_COORD97":2544412.6400000001,"ADDRESS":"民族路三段１８３號","OBJECTID":619825},"geometry":{"x":167455.21999999974,"y":2544412.6400000006}},{"attributes":{"ID":619853,"DIS_CODE":0,"TOWNNAME":"中西區","LI":"藥王里","LIN":"2鄰","STREET":"民族路","SECT":"三段","MAREA":" ","LANE":" ","ALLEY":" ","HOUSE_NO":"１８５號","E_COORD97":167452.07999999999,"N_COORD97":2544414.8199999998,"ADDRESS":"民族路三段１８５號","OBJECTID":619826},"geometry":{"x":167452.08000000101,"y":2544414.8200000003}},{"attributes":{"ID":619854,"DIS_CODE":0,"TOWNNAME":"中西區","LI":"藥王里","LIN":"2鄰","STREET":"民族路","SECT":"三段","MAREA":" ","LANE":" ","ALLEY":" ","HOUSE_NO":"１８７號","E_COORD97":167448.45000000001,"N_COORD97":2544415.2999999998,"ADDRESS":"民族路三段１８７號","OBJECTID":619827},"geometry":{"x":167448.45000000112,"y":2544415.3000000007}},{"attributes":{"ID":619855,"DIS_CODE":0,"TOWNNAME":"中西區","LI":"藥王里","LIN":"2鄰","STREET":"民族路","SECT":"三段","MAREA":" ","LANE":" ","ALLEY":" ","HOUSE_NO":"１８９號","E_COORD97":167445.06,"N_COORD97":2544416.75,"ADDRESS":"民族路三段１８９號","OBJECTID":619828},"geometry":{"x":167445.06000000052,"y":2544416.7500000019}},{"attributes":{"ID":619856,"DIS_CODE":0,"TOWNNAME":"中西區","LI":"藥王里","LIN":"2鄰","STREET":"民族路","SECT":"三段","MAREA":" ","LANE":" ","ALLEY":" ","HOUSE_NO":"１９１號","E_COORD97":167441.91,"N_COORD97":2544417.7200000002,"ADDRESS":"民族路三段１９１號","OBJECTID":619829},"geometry":{"x":167441.91000000108,"y":2544417.7200000025}},{"attributes":{"ID":619857,"DIS_CODE":0,"TOWNNAME":"中西區","LI":"藥王里","LIN":"2鄰","STREET":"民族路","SECT":"三段","MAREA":" ","LANE":" ","ALLEY":" ","HOUSE_NO":"１９３號","E_COORD97":167438.28,"N_COORD97":2544419.4100000001,"ADDRESS":"民族路三段１９３號","OBJECTID":619830},"geometry":{"x":167438.28000000026,"y":2544419.410000002}},{"attributes":{"ID":619858,"DIS_CODE":0,"TOWNNAME":"中西區","LI":"藥王里","LIN":"2鄰","STREET":"民族路","SECT":"三段","MAREA":" ","LANE":" ","ALLEY":" ","HOUSE_NO":"１９５號","E_COORD97":167434.89000000001,"N_COORD97":2544420.6200000001,"ADDRESS":"民族路三段１９５號","OBJECTID":619831},"geometry":{"x":167434.88999999966,"y":2544420.620000001}},{"attributes":{"ID":619859,"DIS_CODE":0,"TOWNNAME":"中西區","LI":"藥王里","LIN":"2鄰","STREET":"民族路","SECT":"三段","MAREA":" ","LANE":" ","ALLEY":" ","HOUSE_NO":"１９７號","E_COORD97":167431.75,"N_COORD97":2544420.8700000001,"ADDRESS":"民族路三段１９７號","OBJECTID":619832},"geometry":{"x":167431.74999999907,"y":2544420.8700000029}},{"attributes":{"ID":619860,"DIS_CODE":0,"TOWNNAME":"中西區","LI":"藥王里","LIN":"2鄰","STREET":"民族路","SECT":"三段","MAREA":" ","LANE":" ","ALLEY":" ","HOUSE_NO":"１９９號","E_COORD97":167428.84,"N_COORD97":2544422.5600000001,"ADDRESS":"民族路三段１９９號","OBJECTID":619833},"geometry":{"x":167428.83999999985,"y":2544422.5600000024}},{"attributes":{"ID":619861,"DIS_CODE":0,"TOWNNAME":"中西區","LI":"藥王里","LIN":"2鄰","STREET":"民族路","SECT":"三段","MAREA":" ","LANE":" ","ALLEY":" ","HOUSE_NO":"２０１號","E_COORD97":167424.48999999999,"N_COORD97":2544424.4900000002,"ADDRESS":"民族路三段２０１號","OBJECTID":619834},"geometry":{"x":167424.49000000115,"y":2544424.4900000039}},{"attributes":{"ID":619862,"DIS_CODE":0,"TOWNNAME":"中西區","LI":"藥王里","LIN":"2鄰","STREET":"民族路","SECT":"三段","MAREA":" ","LANE":" ","ALLEY":" ","HOUSE_NO":"２０３號","E_COORD97":167419.89000000001,"N_COORD97":2544425.7000000002,"ADDRESS":"民族路三段２０３號","OBJECTID":619835},"geometry":{"x":167419.88999999966,"y":2544425.700000003}},{"attributes":{"ID":619863,"DIS_CODE":0,"TOWNNAME":"東區","LI":"忠孝里","LIN":"5鄰","STREET":"崇明七街","SECT":" ","MAREA":" ","LANE":" ","ALLEY":" ","HOUSE_NO":"５號","E_COORD97":169615.53,"N_COORD97":2542139.8300000001,"ADDRESS":"崇明七街５號","OBJECTID":619836},"geometry":{"x":169615.53000000119,"y":2542139.8300000001}},{"attributes":{"ID":619864,"DIS_CODE":0,"TOWNNAME":"中西區","LI":"藥王里","LIN":"2鄰","STREET":"民族路","SECT":"三段","MAREA":" ","LANE":" ","ALLEY":" ","HOUSE_NO":"２０５號","E_COORD97":167416.26000000001,"N_COORD97":2544427.3999999999,"ADDRESS":"民族路三段２０５號","OBJECTID":619837},"geometry":{"x":167416.26000000164,"y":2544427.4000000004}},{"attributes":{"ID":619865,"DIS_CODE":0,"TOWNNAME":"中西區","LI":"藥王里","LIN":"2鄰","STREET":"民族路","SECT":"三段","MAREA":" ","LANE":" ","ALLEY":" ","HOUSE_NO":"２０７號","E_COORD97":167410.92999999999,"N_COORD97":2544429.5699999998,"ADDRESS":"民族路三段２０７號","OBJECTID":619838},"geometry":{"x":167410.9299999997,"y":2544429.5700000003}},{"attributes":{"ID":619866,"DIS_CODE":0,"TOWNNAME":"中西區","LI":"藥王里","LIN":"2鄰","STREET":"民族路","SECT":"三段","MAREA":" ","LANE":" ","ALLEY":" ","HOUSE_NO":"２０９號","E_COORD97":167407.54000000001,"N_COORD97":2544431.5099999998,"ADDRESS":"民族路三段２０９號","OBJECTID":619839},"geometry":{"x":167407.54000000004,"y":2544431.5100000016}},{"attributes":{"ID":619867,"DIS_CODE":0,"TOWNNAME":"中西區","LI":"藥王里","LIN":"2鄰","STREET":"民族路","SECT":"三段","MAREA":" ","LANE":" ","ALLEY":" ","HOUSE_NO":"２１１號","E_COORD97":167402.22,"N_COORD97":2544433.2000000002,"ADDRESS":"民族路三段２１１號","OBJECTID":619840},"geometry":{"x":167402.21999999974,"y":2544433.2000000011}},{"attributes":{"ID":619868,"DIS_CODE":0,"TOWNNAME":"中西區","LI":"藥王里","LIN":"2鄰","STREET":"民族路","SECT":"三段","MAREA":" ","LANE":" ","ALLEY":" ","HOUSE_NO":"２１３號","E_COORD97":167397.62,"N_COORD97":2544434.1699999999,"ADDRESS":"民族路三段２１３號","OBJECTID":619841},"geometry":{"x":167397.62000000104,"y":2544434.1700000018}},{"attributes":{"ID":619869,"DIS_CODE":0,"TOWNNAME":"中西區","LI":"藥王里","LIN":"2鄰","STREET":"民族路","SECT":"三段","MAREA":" ","LANE":" ","ALLEY":" ","HOUSE_NO":"２１５號","E_COORD97":167393.01999999999,"N_COORD97":2544435.8599999999,"ADDRESS":"民族路三段２１５號","OBJECTID":619842},"geometry":{"x":167393.02000000048,"y":2544435.8600000013}},{"attributes":{"ID":619870,"DIS_CODE":0,"TOWNNAME":"中西區","LI":"藥王里","LIN":"2鄰","STREET":"民族路","SECT":"三段","MAREA":" ","LANE":" ","ALLEY":" ","HOUSE_NO":"２１７號","E_COORD97":167387.94,"N_COORD97":2544436.8300000001,"ADDRESS":"民族路三段２１７號","OBJECTID":619843},"geometry":{"x":167387.94000000041,"y":2544436.8300000019}},{"attributes":{"ID":619871,"DIS_CODE":0,"TOWNNAME":"中西區","LI":"藥王里","LIN":"2鄰","STREET":"民族路","SECT":"三段","MAREA":" ","LANE":" ","ALLEY":" ","HOUSE_NO":"２１９號","E_COORD97":167384.31,"N_COORD97":2544439.73,"ADDRESS":"民族路三段２１９號","OBJECTID":619844},"geometry":{"x":167384.31000000052,"y":2544439.7300000004}},{"attributes":{"ID":619872,"DIS_CODE":0,"TOWNNAME":"中西區","LI":"藥王里","LIN":"2鄰","STREET":"民族路","SECT":"三段","MAREA":" ","LANE":" ","ALLEY":" ","HOUSE_NO":"２２１號","E_COORD97":167378.98999999999,"N_COORD97":2544439.9700000002,"ADDRESS":"民族路三段２２１號","OBJECTID":619845},"geometry":{"x":167378.99000000022,"y":2544439.9700000025}},{"attributes":{"ID":619873,"DIS_CODE":0,"TOWNNAME":"中西區","LI":"藥王里","LIN":"2鄰","STREET":"民族路","SECT":"三段","MAREA":" ","LANE":" ","ALLEY":" ","HOUSE_NO":"２２３號","E_COORD97":167371.48000000001,"N_COORD97":2544444.8100000001,"ADDRESS":"民族路三段２２３號","OBJECTID":619846},"geometry":{"x":167371.48000000231,"y":2544444.8100000005}},{"attributes":{"ID":619874,"DIS_CODE":0,"TOWNNAME":"中西區","LI":"藥王里","LIN":"2鄰","STREET":"民族路","SECT":"三段","MAREA":" ","LANE":" ","ALLEY":" ","HOUSE_NO":"２２５號","E_COORD97":167359.87,"N_COORD97":2544443.1200000001,"ADDRESS":"民族路三段２２５號","OBJECTID":619847},"geometry":{"x":167359.87000000197,"y":2544443.1200000029}},{"attributes":{"ID":619875,"DIS_CODE":0,"TOWNNAME":"中西區","LI":"藥王里","LIN":"2鄰","STREET":"金華路","SECT":"四段","MAREA":" ","LANE":" ","ALLEY":" ","HOUSE_NO":"６９號","E_COORD97":167462,"N_COORD97":2544391.1200000001,"ADDRESS":"金華路四段６９號","OBJECTID":619848},"geometry":{"x":167462,"y":2544391.1200000029}},{"attributes":{"ID":619876,"DIS_CODE":0,"TOWNNAME":"中西區","LI":"藥王里","LIN":"2鄰","STREET":"金華路","SECT":"四段","MAREA":" ","LANE":" ","ALLEY":" ","HOUSE_NO":"７１號","E_COORD97":167464.17999999999,"N_COORD97":2544395.4700000002,"ADDRESS":"金華路四段７１號","OBJECTID":619849},"geometry":{"x":167464.18000000156,"y":2544395.4700000025}},{"attributes":{"ID":619877,"DIS_CODE":0,"TOWNNAME":"中西區","LI":"藥王里","LIN":"2鄰","STREET":"金華路","SECT":"四段","MAREA":" ","LANE":" ","ALLEY":" ","HOUSE_NO":"７３號","E_COORD97":167466.35000000001,"N_COORD97":2544399.5800000001,"ADDRESS":"金華路四段７３號","OBJECTID":619850},"geometry":{"x":167466.35000000149,"y":2544399.5800000001}},{"attributes":{"ID":619878,"DIS_CODE":0,"TOWNNAME":"中西區","LI":"藥王里","LIN":"2鄰","STREET":"大福街","SECT":" ","MAREA":" ","LANE":" ","ALLEY":" ","HOUSE_NO":"５１號","E_COORD97":167340.75,"N_COORD97":2544435.0299999998,"ADDRESS":"大福街５１號","OBJECTID":619851},"geometry":{"x":167340.75000000093,"y":2544435.0300000012}},{"attributes":{"ID":619879,"DIS_CODE":0,"TOWNNAME":"中西區","LI":"藥王里","LIN":"2鄰","STREET":"民族路","SECT":"三段","MAREA":" ","LANE":" ","ALLEY":" ","HOUSE_NO":"２２９號","E_COORD97":167348.01000000001,"N_COORD97":2544453.1699999999,"ADDRESS":"民族路三段２２９號","OBJECTID":619852},"geometry":{"x":167348.00999999978,"y":2544453.1699999999}},{"attributes":{"ID":619880,"DIS_CODE":0,"TOWNNAME":"中西區","LI":"藥王里","LIN":"2鄰","STREET":"民族路","SECT":"三段","MAREA":" ","LANE":" ","ALLEY":" ","HOUSE_NO":"２３１號","E_COORD97":167342.92999999999,"N_COORD97":2544454.1400000001,"ADDRESS":"民族路三段２３１號","OBJECTID":619853},"geometry":{"x":167342.93000000063,"y":2544454.1400000006}},{"attributes":{"ID":619881,"DIS_CODE":0,"TOWNNAME":"中西區","LI":"藥王里","LIN":"2鄰","STREET":"民族路","SECT":"三段","MAREA":" ","LANE":" ","ALLEY":" ","HOUSE_NO":"２３３號","E_COORD97":167338.32999999999,"N_COORD97":2544455.5899999999,"ADDRESS":"民族路三段２３３號","OBJECTID":619854},"geometry":{"x":167338.33000000101,"y":2544455.5900000017}},{"attributes":{"ID":619882,"DIS_CODE":0,"TOWNNAME":"中西區","LI":"藥王里","LIN":"2鄰","STREET":"民族路","SECT":"三段","MAREA":" ","LANE":" ","ALLEY":" ","HOUSE_NO":"２３５號","E_COORD97":167333.97,"N_COORD97":2544458.0099999998,"ADDRESS":"民族路三段２３５號","OBJECTID":619855},"geometry":{"x":167333.97000000067,"y":2544458.0100000035}},{"attributes":{"ID":619883,"DIS_CODE":0,"TOWNNAME":"中西區","LI":"藥王里","LIN":"2鄰","STREET":"民族路","SECT":"三段","MAREA":" ","LANE":" ","ALLEY":" ","HOUSE_NO":"２３７號","E_COORD97":167329.60999999999,"N_COORD97":2544460.4300000002,"ADDRESS":"民族路三段２３７號","OBJECTID":619856},"geometry":{"x":167329.6099999994,"y":2544460.4299999997}},{"attributes":{"ID":619884,"DIS_CODE":0,"TOWNNAME":"中西區","LI":"藥王里","LIN":"2鄰","STREET":"民族路","SECT":"三段","MAREA":" ","LANE":" ","ALLEY":" ","HOUSE_NO":"２３９號","E_COORD97":167325.5,"N_COORD97":2544462.3599999999,"ADDRESS":"民族路三段２３９號","OBJECTID":619857},"geometry":{"x":167325.50000000093,"y":2544462.3600000013}},{"attributes":{"ID":619885,"DIS_CODE":0,"TOWNNAME":"中西區","LI":"藥王里","LIN":"2鄰","STREET":"民族路","SECT":"三段","MAREA":" ","LANE":" ","ALLEY":" ","HOUSE_NO":"２４１號","E_COORD97":167320.42000000001,"N_COORD97":2544463.0899999999,"ADDRESS":"民族路三段２４１號","OBJECTID":619858},"geometry":{"x":167320.42000000179,"y":2544463.0899999999}},{"attributes":{"ID":619886,"DIS_CODE":0,"TOWNNAME":"中西區","LI":"藥王里","LIN":"2鄰","STREET":"民族路","SECT":"三段","MAREA":" ","LANE":" ","ALLEY":" ","HOUSE_NO":"２４３號","E_COORD97":167316.06,"N_COORD97":2544463.8100000001,"ADDRESS":"民族路三段２４３號","OBJECTID":619859},"geometry":{"x":167316.06000000052,"y":2544463.8100000024}},{"attributes":{"ID":619887,"DIS_CODE":0,"TOWNNAME":"中西區","LI":"藥王里","LIN":"2鄰","STREET":"民族路","SECT":"三段","MAREA":" ","LANE":" ","ALLEY":" ","HOUSE_NO":"２４５號","E_COORD97":167311.70999999999,"N_COORD97":2544465.75,"ADDRESS":"民族路三段２４５號","OBJECTID":619860},"geometry":{"x":167311.71000000183,"y":2544465.75}},{"attributes":{"ID":619888,"DIS_CODE":0,"TOWNNAME":"中西區","LI":"藥王里","LIN":"2鄰","STREET":"民族路","SECT":"三段","MAREA":" ","LANE":" ","ALLEY":" ","HOUSE_NO":"２４７號","E_COORD97":167307.35000000001,"N_COORD97":2544468.6499999999,"ADDRESS":"民族路三段２４７號","OBJECTID":619861},"geometry":{"x":167307.35000000056,"y":2544468.6500000022}},{"attributes":{"ID":619889,"DIS_CODE":0,"TOWNNAME":"中西區","LI":"藥王里","LIN":"2鄰","STREET":"民族路","SECT":"三段","MAREA":" ","LANE":" ","ALLEY":" ","HOUSE_NO":"２４９號","E_COORD97":167301.78,"N_COORD97":2544470.1000000001,"ADDRESS":"民族路三段２４９號","OBJECTID":619862},"geometry":{"x":167301.78000000119,"y":2544470.0999999996}},{"attributes":{"ID":619890,"DIS_CODE":0,"TOWNNAME":"中西區","LI":"藥王里","LIN":"2鄰","STREET":"民族路","SECT":"三段","MAREA":" ","LANE":" ","ALLEY":" ","HOUSE_NO":"２５１號","E_COORD97":167297.17999999999,"N_COORD97":2544471.3100000001,"ADDRESS":"民族路三段２５１號","OBJECTID":619863},"geometry":{"x":167297.18000000063,"y":2544471.3100000024}},{"attributes":{"ID":619891,"DIS_CODE":0,"TOWNNAME":"中西區","LI":"藥王里","LIN":"2鄰","STREET":"大福街","SECT":" ","MAREA":" ","LANE":" ","ALLEY":" ","HOUSE_NO":"３８號","E_COORD97":167350.19,"N_COORD97":2544410.3300000001,"ADDRESS":"大福街３８號","OBJECTID":619864},"geometry":{"x":167350.19000000134,"y":2544410.3300000001}},{"attributes":{"ID":619892,"DIS_CODE":0,"TOWNNAME":"中西區","LI":"西賢里","LIN":"2鄰","STREET":"西賢街","SECT":" ","MAREA":" ","LANE":" ","ALLEY":" ","HOUSE_NO":"８０號","E_COORD97":165831.14000000001,"N_COORD97":2544667.7400000002,"ADDRESS":"西賢街８０號","OBJECTID":619865},"geometry":{"x":165831.13999999966,"y":2544667.7400000021}},{"attributes":{"ID":619893,"DIS_CODE":0,"TOWNNAME":"中西區","LI":"西賢里","LIN":"2鄰","STREET":"西賢街","SECT":" ","MAREA":" ","LANE":" ","ALLEY":" ","HOUSE_NO":"８２號","E_COORD97":165837.95999999999,"N_COORD97":2544668.4700000002,"ADDRESS":"西賢街８２號","OBJECTID":619866},"geometry":{"x":165837.95999999996,"y":2544668.4700000007}},{"attributes":{"ID":619894,"DIS_CODE":0,"TOWNNAME":"中西區","LI":"西賢里","LIN":"2鄰","STREET":"西賢街","SECT":" ","MAREA":" ","LANE":" ","ALLEY":" ","HOUSE_NO":"８６號","E_COORD97":165842.82000000001,"N_COORD97":2544668.23,"ADDRESS":"西賢街８６號","OBJECTID":619867},"geometry":{"x":165842.8200000003,"y":2544668.2300000023}},{"attributes":{"ID":619895,"DIS_CODE":0,"TOWNNAME":"中西區","LI":"西賢里","LIN":"2鄰","STREET":"西賢街","SECT":" ","MAREA":" ","LANE":" ","ALLEY":" ","HOUSE_NO":"８８號","E_COORD97":165848.66,"N_COORD97":2544668.23,"ADDRESS":"西賢街８８號","OBJECTID":619868},"geometry":{"x":165848.66000000015,"y":2544668.2300000023}},{"attributes":{"ID":619896,"DIS_CODE":0,"TOWNNAME":"中西區","LI":"西賢里","LIN":"2鄰","STREET":"西賢街","SECT":" ","MAREA":" ","LANE":" ","ALLEY":" ","HOUSE_NO":"９０號","E_COORD97":165849.63,"N_COORD97":2544691.0600000001,"ADDRESS":"西賢街９０號","OBJECTID":619869},"geometry":{"x":165849.63000000082,"y":2544691.0600000005}},{"attributes":{"ID":619897,"DIS_CODE":0,"TOWNNAME":"中西區","LI":"西賢里","LIN":"2鄰","STREET":"西賢街","SECT":" ","MAREA":" ","LANE":" ","ALLEY":" ","HOUSE_NO":"９２號","E_COORD97":165843.54999999999,"N_COORD97":2544690.3300000001,"ADDRESS":"西賢街９２號","OBJECTID":619870},"geometry":{"x":165843.55000000075,"y":2544690.3300000019}},{"attributes":{"ID":619898,"DIS_CODE":0,"TOWNNAME":"中西區","LI":"西賢里","LIN":"2鄰","STREET":"西賢街","SECT":" ","MAREA":" ","LANE":" ","ALLEY":" ","HOUSE_NO":"９６號","E_COORD97":165837.23000000001,"N_COORD97":2544690.8199999998,"ADDRESS":"西賢街９６號","OBJECTID":619871},"geometry":{"x":165837.23000000231,"y":2544690.8200000022}},{"attributes":{"ID":619899,"DIS_CODE":0,"TOWNNAME":"中西區","LI":"西賢里","LIN":"2鄰","STREET":"湖美街","SECT":" ","MAREA":" ","LANE":" ","ALLEY":" ","HOUSE_NO":"９３號","E_COORD97":165925.03,"N_COORD97":2544683.8199999998,"ADDRESS":"湖美街９３號","OBJECTID":619872},"geometry":{"x":165925.03000000119,"y":2544683.8200000022}},{"attributes":{"ID":619900,"DIS_CODE":0,"TOWNNAME":"中西區","LI":"西賢里","LIN":"2鄰","STREET":"湖美街","SECT":" ","MAREA":" ","LANE":" ","ALLEY":" ","HOUSE_NO":"９５號","E_COORD97":165924.26999999999,"N_COORD97":2544688.8900000001,"ADDRESS":"湖美街９５號","OBJECTID":619873},"geometry":{"x":165924.27000000142,"y":2544688.8900000006}},{"attributes":{"ID":619901,"DIS_CODE":0,"TOWNNAME":"中西區","LI":"西賢里","LIN":"2鄰","STREET":"湖美街","SECT":" ","MAREA":" ","LANE":" ","ALLEY":" ","HOUSE_NO":"９７號","E_COORD97":165924.84,"N_COORD97":2544693.7799999998,"ADDRESS":"湖美街９７號","OBJECTID":619874},"geometry":{"x":165924.84000000078,"y":2544693.7800000012}},{"attributes":{"ID":619902,"DIS_CODE":0,"TOWNNAME":"中西區","LI":"西賢里","LIN":"2鄰","STREET":"湖美街","SECT":" ","MAREA":" ","LANE":" ","ALLEY":" ","HOUSE_NO":"９９號","E_COORD97":165922.95999999999,"N_COORD97":2544698.48,"ADDRESS":"湖美街９９號","OBJECTID":619875},"geometry":{"x":165922.95999999996,"y":2544698.4800000004}},{"attributes":{"ID":619903,"DIS_CODE":0,"TOWNNAME":"中西區","LI":"藥王里","LIN":"2鄰","STREET":"大福街","SECT":" ","MAREA":" ","LANE":" ","ALLEY":" ","HOUSE_NO":"４２號","E_COORD97":167354.78,"N_COORD97":2544419.7599999998,"ADDRESS":"大福街４２號","OBJECTID":619876},"geometry":{"x":167354.78000000026,"y":2544419.7600000016}},{"attributes":{"ID":619904,"DIS_CODE":0,"TOWNNAME":"新市區","LI":"新和里","LIN":"2鄰","STREET":"中山路","SECT":" ","MAREA":" ","LANE":" ","ALLEY":" ","HOUSE_NO":"２２６號","E_COORD97":177474.63,"N_COORD97":2552066.5,"ADDRESS":"中山路２２６號","OBJECTID":619877},"geometry":{"x":177474.62999999989,"y":2552066.5000000019}},{"attributes":{"ID":619905,"DIS_CODE":0,"TOWNNAME":"新市區","LI":"新市里","LIN":"2鄰","STREET":"光華街","SECT":" ","MAREA":" ","LANE":" ","ALLEY":" ","HOUSE_NO":"１７１號","E_COORD97":177808.10000000001,"N_COORD97":2553069,"ADDRESS":"光華街１７１號","OBJECTID":619878},"geometry":{"x":177808.09999999963,"y":2553069}},{"attributes":{"ID":619906,"DIS_CODE":0,"TOWNNAME":"新市區","LI":"港墘里","LIN":"2鄰","STREET":"中山路","SECT":" ","MAREA":" ","LANE":" ","ALLEY":" ","HOUSE_NO":"３０號","E_COORD97":178616.39999999999,"N_COORD97":2553447.5,"ADDRESS":"中山路３０號","OBJECTID":619879},"geometry":{"x":178616.4000000013,"y":2553447.5000000019}},{"attributes":{"ID":619907,"DIS_CODE":0,"TOWNNAME":"白河區","LI":"白河里","LIN":"2鄰","STREET":"康樂路","SECT":" ","MAREA":" ","LANE":" ","ALLEY":" ","HOUSE_NO":"３９號","E_COORD97":190177.19,"N_COORD97":2582957.7999999998,"ADDRESS":"康樂路３９號","OBJECTID":619880},"geometry":{"x":190177.19000000134,"y":2582957.8000000007}},{"attributes":{"ID":619908,"DIS_CODE":0,"TOWNNAME":"新市區","LI":"港墘里","LIN":"2鄰","STREET":"中山路","SECT":" ","MAREA":" ","LANE":" ","ALLEY":" ","HOUSE_NO":"７２號","E_COORD97":178587.60000000001,"N_COORD97":2553364,"ADDRESS":"中山路７２號","OBJECTID":619881},"geometry":{"x":178587.60000000056,"y":2553364}},{"attributes":{"ID":619909,"DIS_CODE":0,"TOWNNAME":"新市區","LI":"新和里","LIN":"2鄰","STREET":"中山路","SECT":" ","MAREA":" ","LANE":" ","ALLEY":" ","HOUSE_NO":"２８８號","E_COORD97":177267.98000000001,"N_COORD97":2551920.75,"ADDRESS":"中山路２８８號","OBJECTID":619882},"geometry":{"x":177267.98000000231,"y":2551920.75}},{"attributes":{"ID":619910,"DIS_CODE":0,"TOWNNAME":"新市區","LI":"新和里","LIN":"2鄰","STREET":"中山路","SECT":" ","MAREA":" ","LANE":" ","ALLEY":" ","HOUSE_NO":"２４６號","E_COORD97":177427.67999999999,"N_COORD97":2552039,"ADDRESS":"中山路２４６號","OBJECTID":619883},"geometry":{"x":177427.6799999997,"y":2552039.0000000037}},{"attributes":{"ID":619911,"DIS_CODE":0,"TOWNNAME":"新市區","LI":"新和里","LIN":"2鄰","STREET":"中山路","SECT":" ","MAREA":" ","LANE":" ","ALLEY":" ","HOUSE_NO":"２５６號","E_COORD97":177411.34,"N_COORD97":2552027.75,"ADDRESS":"中山路２５６號","OBJECTID":619884},"geometry":{"x":177411.34000000078,"y":2552027.7500000019}},{"attributes":{"ID":619912,"DIS_CODE":0,"TOWNNAME":"新市區","LI":"港墘里","LIN":"2鄰","STREET":"中山路","SECT":" ","MAREA":" ","LANE":" ","ALLEY":" ","HOUSE_NO":"１５號","E_COORD97":178785.39999999999,"N_COORD97":2553717.75,"ADDRESS":"中山路１５號","OBJECTID":619885},"geometry":{"x":178785.40000000037,"y":2553717.75}},{"attributes":{"ID":619913,"DIS_CODE":0,"TOWNNAME":"新市區","LI":"港墘里","LIN":"2鄰","STREET":"中山路","SECT":" ","MAREA":" ","LANE":" ","ALLEY":" ","HOUSE_NO":"６７號","E_COORD97":178562.04000000001,"N_COORD97":2553127.25,"ADDRESS":"中山路６７號","OBJECTID":619886},"geometry":{"x":178562.04000000004,"y":2553127.2500000019}},{"attributes":{"ID":619914,"DIS_CODE":0,"TOWNNAME":"新市區","LI":"港墘里","LIN":"2鄰","STREET":"中山路","SECT":" ","MAREA":" ","LANE":" ","ALLEY":" ","HOUSE_NO":"５６號","E_COORD97":178597.60000000001,"N_COORD97":2553395.4900000002,"ADDRESS":"中山路５６號","OBJECTID":619887},"geometry":{"x":178597.60000000056,"y":2553395.4900000039}},{"attributes":{"ID":619915,"DIS_CODE":0,"TOWNNAME":"新市區","LI":"港墘里","LIN":"2鄰","STREET":"中山路","SECT":" ","MAREA":" ","LANE":" ","ALLEY":" ","HOUSE_NO":"５５號","E_COORD97":178670.57000000001,"N_COORD97":2553385.25,"ADDRESS":"中山路５５號","OBJECTID":619888},"geometry":{"x":178670.5700000003,"y":2553385.25}},{"attributes":{"ID":619916,"DIS_CODE":0,"TOWNNAME":"新市區","LI":"港墘里","LIN":"2鄰","STREET":"中山路","SECT":" ","MAREA":" ","LANE":" ","ALLEY":" ","HOUSE_NO":"１５之３號","E_COORD97":178745.26000000001,"N_COORD97":2553593.7999999998,"ADDRESS":"中山路１５之３號","OBJECTID":619889},"geometry":{"x":178745.26000000164,"y":2553593.7999999989}},{"attributes":{"ID":619917,"DIS_CODE":0,"TOWNNAME":"新市區","LI":"港墘里","LIN":"2鄰","STREET":"中山路","SECT":" ","MAREA":" ","LANE":" ","ALLEY":" ","HOUSE_NO":"２６號","E_COORD97":178619.04000000001,"N_COORD97":2553455,"ADDRESS":"中山路２６號","OBJECTID":619890},"geometry":{"x":178619.04000000004,"y":2553455}},{"attributes":{"ID":619918,"DIS_CODE":0,"TOWNNAME":"新市區","LI":"港墘里","LIN":"2鄰","STREET":"中山路","SECT":" ","MAREA":" ","LANE":" ","ALLEY":" ","HOUSE_NO":"６６號","E_COORD97":178594.45000000001,"N_COORD97":2553375.25,"ADDRESS":"中山路６６號","OBJECTID":619891},"geometry":{"x":178594.45000000019,"y":2553375.25}},{"attributes":{"ID":619919,"DIS_CODE":0,"TOWNNAME":"新市區","LI":"港墘里","LIN":"2鄰","STREET":"中山路","SECT":" ","MAREA":" ","LANE":" ","ALLEY":" ","HOUSE_NO":"１７號","E_COORD97":178753.62,"N_COORD97":2553532.0899999999,"ADDRESS":"中山路１７號","OBJECTID":619892},"geometry":{"x":178753.62000000104,"y":2553532.0899999999}},{"attributes":{"ID":619920,"DIS_CODE":0,"TOWNNAME":"新市區","LI":"港墘里","LIN":"2鄰","STREET":"中山路","SECT":" ","MAREA":" ","LANE":" ","ALLEY":" ","HOUSE_NO":"５８號","E_COORD97":178596.09,"N_COORD97":2553391.25,"ADDRESS":"中山路５８號","OBJECTID":619893},"geometry":{"x":178596.09000000078,"y":2553391.2500000019}},{"attributes":{"ID":619921,"DIS_CODE":0,"TOWNNAME":"新市區","LI":"港墘里","LIN":"2鄰","STREET":"中山路","SECT":" ","MAREA":" ","LANE":" ","ALLEY":" ","HOUSE_NO":"６４號","E_COORD97":178592.64999999999,"N_COORD97":2553380.5,"ADDRESS":"中山路６４號","OBJECTID":619894},"geometry":{"x":178592.6500000013,"y":2553380.5}},{"attributes":{"ID":619922,"DIS_CODE":0,"TOWNNAME":"新市區","LI":"港墘里","LIN":"2鄰","STREET":"中山路","SECT":" ","MAREA":" ","LANE":" ","ALLEY":" ","HOUSE_NO":"３４號","E_COORD97":178613.98999999999,"N_COORD97":2553439.75,"ADDRESS":"中山路３４號","OBJECTID":619895},"geometry":{"x":178613.99000000115,"y":2553439.75}},{"attributes":{"ID":619923,"DIS_CODE":0,"TOWNNAME":"新市區","LI":"港墘里","LIN":"2鄰","STREET":"中山路","SECT":" ","MAREA":" ","LANE":" ","ALLEY":" ","HOUSE_NO":"２８號","E_COORD97":178617.73999999999,"N_COORD97":2553451.25,"ADDRESS":"中山路２８號","OBJECTID":619896},"geometry":{"x":178617.74000000115,"y":2553451.2500000037}},{"attributes":{"ID":619924,"DIS_CODE":0,"TOWNNAME":"新市區","LI":"港墘里","LIN":"2鄰","STREET":"中山路","SECT":" ","MAREA":" ","LANE":" ","ALLEY":" ","HOUSE_NO":"５２號","E_COORD97":178600.35000000001,"N_COORD97":2553403,"ADDRESS":"中山路５２號","OBJECTID":619897},"geometry":{"x":178600.35000000149,"y":2553403.0000000019}},{"attributes":{"ID":619925,"DIS_CODE":0,"TOWNNAME":"新市區","LI":"港墘里","LIN":"2鄰","STREET":"中山路","SECT":" ","MAREA":" ","LANE":" ","ALLEY":" ","HOUSE_NO":"７０號","E_COORD97":178591.79000000001,"N_COORD97":2553368,"ADDRESS":"中山路７０號","OBJECTID":619898},"geometry":{"x":178591.79000000097,"y":2553368.0000000037}},{"attributes":{"ID":619926,"DIS_CODE":0,"TOWNNAME":"新市區","LI":"港墘里","LIN":"2鄰","STREET":"中山路","SECT":" ","MAREA":" ","LANE":" ","ALLEY":" ","HOUSE_NO":"６１號","E_COORD97":178660.01999999999,"N_COORD97":2553361.25,"ADDRESS":"中山路６１號","OBJECTID":619899},"geometry":{"x":178660.01999999862,"y":2553361.2500000019}},{"attributes":{"ID":619927,"DIS_CODE":0,"TOWNNAME":"新市區","LI":"港墘里","LIN":"2鄰","STREET":"中山路","SECT":" ","MAREA":" ","LANE":" ","ALLEY":" ","HOUSE_NO":"１６號","E_COORD97":178681.45000000001,"N_COORD97":2553655,"ADDRESS":"中山路１６號","OBJECTID":619900},"geometry":{"x":178681.45000000019,"y":2553655}},{"attributes":{"ID":619928,"DIS_CODE":0,"TOWNNAME":"東區","LI":"莊敬里","LIN":"2鄰","STREET":"東興路","SECT":" ","MAREA":" ","LANE":" ","ALLEY":" ","HOUSE_NO":"３９０號","E_COORD97":171032.20000000001,"N_COORD97":2544304.9100000001,"ADDRESS":"東興路３９０號","OBJECTID":619901},"geometry":{"x":171032.20000000019,"y":2544304.9100000001}},{"attributes":{"ID":619929,"DIS_CODE":0,"TOWNNAME":"東區","LI":"莊敬里","LIN":"2鄰","STREET":"東興路","SECT":" ","MAREA":" ","LANE":" ","ALLEY":" ","HOUSE_NO":"３９６號","E_COORD97":171030.39999999999,"N_COORD97":2544315.9900000002,"ADDRESS":"東興路３９６號","OBJECTID":619902},"geometry":{"x":171030.4000000013,"y":2544315.9900000039}},{"attributes":{"ID":619930,"DIS_CODE":0,"TOWNNAME":"東區","LI":"莊敬里","LIN":"2鄰","STREET":"東興路","SECT":" ","MAREA":" ","LANE":" ","ALLEY":" ","HOUSE_NO":"３９４號","E_COORD97":171031.03,"N_COORD97":2544312.2000000002,"ADDRESS":"東興路３９４號","OBJECTID":619903},"geometry":{"x":171031.03000000119,"y":2544312.1999999993}},{"attributes":{"ID":619931,"DIS_CODE":0,"TOWNNAME":"東區","LI":"莊敬里","LIN":"2鄰","STREET":"東興路","SECT":" ","MAREA":" ","LANE":" ","ALLEY":" ","HOUSE_NO":"３９２號","E_COORD97":171031.75,"N_COORD97":2544308.8700000001,"ADDRESS":"東興路３９２號","OBJECTID":619904},"geometry":{"x":171031.75,"y":2544308.8700000029}},{"attributes":{"ID":619932,"DIS_CODE":0,"TOWNNAME":"東區","LI":"東智里","LIN":"2鄰","STREET":"長東街","SECT":" ","MAREA":" ","LANE":" ","ALLEY":" ","HOUSE_NO":"１００號","E_COORD97":171007.89000000001,"N_COORD97":2540353.27,"ADDRESS":"長東街１００號","OBJECTID":619905},"geometry":{"x":171007.8900000006,"y":2540353.2699999996}},{"attributes":{"ID":619933,"DIS_CODE":0,"TOWNNAME":"東區","LI":"東智里","LIN":"2鄰","STREET":"長東街","SECT":" ","MAREA":" ","LANE":" ","ALLEY":" ","HOUSE_NO":"１００號之１","E_COORD97":170993.20000000001,"N_COORD97":2540350.4500000002,"ADDRESS":"長東街１００號之１","OBJECTID":619906},"geometry":{"x":170993.20000000019,"y":2540350.4499999993}},{"attributes":{"ID":619934,"DIS_CODE":0,"TOWNNAME":"東區","LI":"東智里","LIN":"2鄰","STREET":"長東街","SECT":" ","MAREA":" ","LANE":" ","ALLEY":" ","HOUSE_NO":"１００號之２","E_COORD97":170981.34,"N_COORD97":2540349.75,"ADDRESS":"長東街１００號之２","OBJECTID":619907},"geometry":{"x":170981.34000000078,"y":2540349.75}},{"attributes":{"ID":619935,"DIS_CODE":0,"TOWNNAME":"東區","LI":"東智里","LIN":"2鄰","STREET":"長東街","SECT":" ","MAREA":" ","LANE":" ","ALLEY":" ","HOUSE_NO":"１００號之３","E_COORD97":170971.73999999999,"N_COORD97":2540349.1800000002,"ADDRESS":"長東街１００號之３","OBJECTID":619908},"geometry":{"x":170971.74000000209,"y":2540349.1800000016}},{"attributes":{"ID":619936,"DIS_CODE":0,"TOWNNAME":"東區","LI":"東智里","LIN":"2鄰","STREET":"長東街","SECT":" ","MAREA":" ","LANE":" ","ALLEY":" ","HOUSE_NO":"１００號之４","E_COORD97":170962.14000000001,"N_COORD97":2540349.04,"ADDRESS":"長東街１００號之４","OBJECTID":619909},"geometry":{"x":170962.1400000006,"y":2540349.040000001}},{"attributes":{"ID":619937,"DIS_CODE":0,"TOWNNAME":"東區","LI":"東智里","LIN":"2鄰","STREET":"長東街","SECT":" ","MAREA":" ","LANE":" ","ALLEY":" ","HOUSE_NO":"１００號之５","E_COORD97":170957.48000000001,"N_COORD97":2540345.1000000001,"ADDRESS":"長東街１００號之５","OBJECTID":619910},"geometry":{"x":170957.48000000138,"y":2540345.1000000015}},{"attributes":{"ID":619938,"DIS_CODE":0,"TOWNNAME":"東區","LI":"東智里","LIN":"2鄰","STREET":"長東街","SECT":" ","MAREA":" ","LANE":" ","ALLEY":" ","HOUSE_NO":"１００號之６","E_COORD97":170958.32999999999,"N_COORD97":2540338.3300000001,"ADDRESS":"長東街１００號之６","OBJECTID":619911},"geometry":{"x":170958.33000000007,"y":2540338.3300000019}},{"attributes":{"ID":619939,"DIS_CODE":0,"TOWNNAME":"東區","LI":"東聖里","LIN":"2鄰","STREET":"富農街","SECT":"二段","MAREA":" ","LANE":" ","ALLEY":" ","HOUSE_NO":"１１５號","E_COORD97":171617.56,"N_COORD97":2543168.8500000001,"ADDRESS":"富農街二段１１５號","OBJECTID":619912},"geometry":{"x":171617.55999999959,"y":2543168.8499999996}},{"attributes":{"ID":619940,"DIS_CODE":0,"TOWNNAME":"東區","LI":"東聖里","LIN":"2鄰","STREET":"富農街","SECT":"二段","MAREA":" ","LANE":" ","ALLEY":" ","HOUSE_NO":"１１９號","E_COORD97":171617.28,"N_COORD97":2543179.21,"ADDRESS":"富農街二段１１９號","OBJECTID":619913},"geometry":{"x":171617.28000000212,"y":2543179.2100000009}},{"attributes":{"ID":619941,"DIS_CODE":0,"TOWNNAME":"東區","LI":"東聖里","LIN":"2鄰","STREET":"富農街","SECT":"二段","MAREA":" ","LANE":" ","ALLEY":" ","HOUSE_NO":"１２１號","E_COORD97":171618.80959799999,"N_COORD97":2543190.8031700002,"ADDRESS":"富農街二段１２１號","OBJECTID":619914},"geometry":{"x":171618.80959799979,"y":2543190.8031719998}},{"attributes":{"ID":619942,"DIS_CODE":0,"TOWNNAME":"東區","LI":"東聖里","LIN":"2鄰","STREET":"富農街","SECT":"二段","MAREA":" ","LANE":" ","ALLEY":" ","HOUSE_NO":"１２３號","E_COORD97":171620.08084099999,"N_COORD97":2543195.24817,"ADDRESS":"富農街二段１２３號","OBJECTID":619915},"geometry":{"x":171620.08084100205,"y":2543195.2481699996}},{"attributes":{"ID":619943,"DIS_CODE":0,"TOWNNAME":"東區","LI":"東聖里","LIN":"2鄰","STREET":"富農街","SECT":"二段","MAREA":" ","LANE":" ","ALLEY":" ","HOUSE_NO":"１２５號","E_COORD97":171621.41,"N_COORD97":2543199.96,"ADDRESS":"富農街二段１２５號","OBJECTID":619916},"geometry":{"x":171621.41000000201,"y":2543199.9600000009}},{"attributes":{"ID":619944,"DIS_CODE":0,"TOWNNAME":"新市區","LI":"新和里","LIN":"2鄰","STREET":"中山路","SECT":" ","MAREA":" ","LANE":" ","ALLEY":" ","HOUSE_NO":"２７６號","E_COORD97":177293.66,"N_COORD97":2551941,"ADDRESS":"中山路２７６號","OBJECTID":619917},"geometry":{"x":177293.66000000108,"y":2551941.0000000037}},{"attributes":{"ID":619945,"DIS_CODE":0,"TOWNNAME":"新市區","LI":"新和里","LIN":"2鄰","STREET":"中山路","SECT":" ","MAREA":" ","LANE":" ","ALLEY":" ","HOUSE_NO":"３２６號","E_COORD97":177168.85000000001,"N_COORD97":2551871.75,"ADDRESS":"中山路３２６號","OBJECTID":619918},"geometry":{"x":177168.84999999963,"y":2551871.7500000019}},{"attributes":{"ID":619946,"DIS_CODE":0,"TOWNNAME":"新市區","LI":"新和里","LIN":"2鄰","STREET":"中山路","SECT":" ","MAREA":" ","LANE":" ","ALLEY":" ","HOUSE_NO":"２９０號","E_COORD97":177260.29000000001,"N_COORD97":2551917.5,"ADDRESS":"中山路２９０號","OBJECTID":619919},"geometry":{"x":177260.2900000019,"y":2551917.5000000019}},{"attributes":{"ID":619947,"DIS_CODE":0,"TOWNNAME":"新市區","LI":"新和里","LIN":"2鄰","STREET":"中山路","SECT":" ","MAREA":" ","LANE":" ","ALLEY":" ","HOUSE_NO":"３３６號","E_COORD97":177043.04000000001,"N_COORD97":2551798.25,"ADDRESS":"中山路３３６號","OBJECTID":619920},"geometry":{"x":177043.04000000004,"y":2551798.2500000019}},{"attributes":{"ID":619948,"DIS_CODE":0,"TOWNNAME":"新市區","LI":"新和里","LIN":"2鄰","STREET":"中山路","SECT":" ","MAREA":" ","LANE":" ","ALLEY":" ","HOUSE_NO":"３３４號","E_COORD97":177063.57000000001,"N_COORD97":2551811,"ADDRESS":"中山路３３４號","OBJECTID":619921},"geometry":{"x":177063.5700000003,"y":2551811}},{"attributes":{"ID":619949,"DIS_CODE":0,"TOWNNAME":"新市區","LI":"新和里","LIN":"2鄰","STREET":"中山路","SECT":" ","MAREA":" ","LANE":" ","ALLEY":" ","HOUSE_NO":"２８６號","E_COORD97":177271.26999999999,"N_COORD97":2551923.25,"ADDRESS":"中山路２８６號","OBJECTID":619922},"geometry":{"x":177271.26999999955,"y":2551923.2500000019}},{"attributes":{"ID":619950,"DIS_CODE":0,"TOWNNAME":"新市區","LI":"新和里","LIN":"2鄰","STREET":"中山路","SECT":" ","MAREA":" ","LANE":" ","ALLEY":" ","HOUSE_NO":"２７８號","E_COORD97":177290.51999999999,"N_COORD97":2551938.5,"ADDRESS":"中山路２７８號","OBJECTID":619923},"geometry":{"x":177290.52000000142,"y":2551938.5000000019}},{"attributes":{"ID":619951,"DIS_CODE":0,"TOWNNAME":"新市區","LI":"新和里","LIN":"2鄰","STREET":"中山路","SECT":" ","MAREA":" ","LANE":" ","ALLEY":" ","HOUSE_NO":"３２６之８號","E_COORD97":177101.76000000001,"N_COORD97":2551787.0499999998,"ADDRESS":"中山路３２６之８號","OBJECTID":619924},"geometry":{"x":177101.75999999978,"y":2551787.0500000007}},{"attributes":{"ID":619952,"DIS_CODE":0,"TOWNNAME":"新市區","LI":"新和里","LIN":"2鄰","STREET":"中山路","SECT":" ","MAREA":" ","LANE":" ","ALLEY":" ","HOUSE_NO":"２８４號","E_COORD97":177275.70999999999,"N_COORD97":2551927,"ADDRESS":"中山路２８４號","OBJECTID":619925},"geometry":{"x":177275.70999999996,"y":2551926.9999999981}},{"attributes":{"ID":619953,"DIS_CODE":0,"TOWNNAME":"新市區","LI":"新和里","LIN":"2鄰","STREET":"中山路","SECT":" ","MAREA":" ","LANE":" ","ALLEY":" ","HOUSE_NO":"２８２號","E_COORD97":177280.98000000001,"N_COORD97":2551931,"ADDRESS":"中山路２８２號","OBJECTID":619926},"geometry":{"x":177280.98000000045,"y":2551931.0000000019}},{"attributes":{"ID":619954,"DIS_CODE":0,"TOWNNAME":"新市區","LI":"新和里","LIN":"2鄰","STREET":"中山路","SECT":" ","MAREA":" ","LANE":" ","ALLEY":" ","HOUSE_NO":"３２６之７號","E_COORD97":177113.76000000001,"N_COORD97":2551798.0499999998,"ADDRESS":"中山路３２６之７號","OBJECTID":619927},"geometry":{"x":177113.75999999978,"y":2551798.0500000007}},{"attributes":{"ID":619955,"DIS_CODE":0,"TOWNNAME":"新市區","LI":"新和里","LIN":"2鄰","STREET":"中山路","SECT":" ","MAREA":" ","LANE":" ","ALLEY":" ","HOUSE_NO":"２７０號","E_COORD97":177371.59,"N_COORD97":2551998.5,"ADDRESS":"中山路２７０號","OBJECTID":619928},"geometry":{"x":177371.59000000171,"y":2551998.5000000037}},{"attributes":{"ID":619956,"DIS_CODE":0,"TOWNNAME":"永康區","LI":"大灣里","LIN":"2鄰","STREET":"大安街","SECT":" ","MAREA":" ","LANE":" ","ALLEY":" ","HOUSE_NO":"３４８號","E_COORD97":174674.76999999999,"N_COORD97":2545634.5099999998,"ADDRESS":"大安街３４８號","OBJECTID":619929},"geometry":{"x":174674.77000000142,"y":2545634.5100000035}},{"attributes":{"ID":619957,"DIS_CODE":0,"TOWNNAME":"永康區","LI":"大灣里","LIN":"2鄰","STREET":"大安街","SECT":" ","MAREA":" ","LANE":" ","ALLEY":" ","HOUSE_NO":"３５２號","E_COORD97":174664.64999999999,"N_COORD97":2545652.79,"ADDRESS":"大安街３５２號","OBJECTID":619930},"geometry":{"x":174664.65000000224,"y":2545652.790000001}},{"attributes":{"ID":619958,"DIS_CODE":0,"TOWNNAME":"永康區","LI":"崑山里","LIN":"2鄰","STREET":"大灣路","SECT":" ","MAREA":" ","LANE":" ","ALLEY":" ","HOUSE_NO":"８６５號","E_COORD97":173669.31,"N_COORD97":2544407.9199999999,"ADDRESS":"大灣路８６５號","OBJECTID":619931},"geometry":{"x":173669.31000000145,"y":2544407.9200000037}},{"attributes":{"ID":619959,"DIS_CODE":0,"TOWNNAME":"永康區","LI":"崑山里","LIN":"2鄰","STREET":"大灣路","SECT":" ","MAREA":" ","LANE":" ","ALLEY":" ","HOUSE_NO":"８７３號","E_COORD97":173654.01999999999,"N_COORD97":2544404.6699999999,"ADDRESS":"大灣路８７３號","OBJECTID":619932},"geometry":{"x":173654.01999999955,"y":2544404.6699999999}},{"attributes":{"ID":619960,"DIS_CODE":0,"TOWNNAME":"永康區","LI":"蔦松里","LIN":"2鄰","STREET":"中正北路","SECT":" ","MAREA":" ","LANE":" ","ALLEY":" ","HOUSE_NO":"５０９號","E_COORD97":173805.20000000001,"N_COORD97":2549161.2400000002,"ADDRESS":"中正北路５０９號","OBJECTID":619933},"geometry":{"x":173805.20000000112,"y":2549161.2400000002}},{"attributes":{"ID":619961,"DIS_CODE":0,"TOWNNAME":"中西區","LI":"民主里","LIN":"2鄰","STREET":"保安路","SECT":" ","MAREA":" ","LANE":" ","ALLEY":" ","HOUSE_NO":"１３８號","E_COORD97":167409.67999999999,"N_COORD97":2543496.27,"ADDRESS":"保安路１３８號","OBJECTID":619934},"geometry":{"x":167409.6799999997,"y":2543496.2699999977}},{"attributes":{"ID":619962,"DIS_CODE":0,"TOWNNAME":"中西區","LI":"民主里","LIN":"2鄰","STREET":"保安路","SECT":" ","MAREA":" ","LANE":" ","ALLEY":" ","HOUSE_NO":"１４０號","E_COORD97":167405,"N_COORD97":2543496.9300000002,"ADDRESS":"保安路１４０號","OBJECTID":619935},"geometry":{"x":167405.00000000093,"y":2543496.9300000016}},{"attributes":{"ID":619963,"DIS_CODE":0,"TOWNNAME":"中西區","LI":"民主里","LIN":"2鄰","STREET":"保安路","SECT":" ","MAREA":" ","LANE":" ","ALLEY":" ","HOUSE_NO":"１４２號","E_COORD97":167400.39999999999,"N_COORD97":2543497.6699999999,"ADDRESS":"保安路１４２號","OBJECTID":619936},"geometry":{"x":167400.40000000037,"y":2543497.6700000037}},{"attributes":{"ID":619964,"DIS_CODE":0,"TOWNNAME":"中西區","LI":"民主里","LIN":"2鄰","STREET":"保安路","SECT":" ","MAREA":" ","LANE":" ","ALLEY":" ","HOUSE_NO":"１４４號","E_COORD97":167396.79000000001,"N_COORD97":2543498.4100000001,"ADDRESS":"保安路１４４號","OBJECTID":619937},"geometry":{"x":167396.79000000097,"y":2543498.4100000001}},{"attributes":{"ID":619965,"DIS_CODE":0,"TOWNNAME":"中西區","LI":"民主里","LIN":"2鄰","STREET":"保安路","SECT":" ","MAREA":" ","LANE":" ","ALLEY":" ","HOUSE_NO":"１４６號","E_COORD97":167392.20000000001,"N_COORD97":2543498.8999999999,"ADDRESS":"保安路１４６號","OBJECTID":619938},"geometry":{"x":167392.20000000112,"y":2543498.9000000004}},{"attributes":{"ID":619966,"DIS_CODE":0,"TOWNNAME":"中西區","LI":"民主里","LIN":"2鄰","STREET":"府前路","SECT":"二段","MAREA":" ","LANE":" ","ALLEY":" ","HOUSE_NO":"１１９號","E_COORD97":167415.54000000001,"N_COORD97":2543521.3100000001,"ADDRESS":"府前路二段１１９號","OBJECTID":619939},"geometry":{"x":167415.54000000004,"y":2543521.3100000024}},{"attributes":{"ID":619967,"DIS_CODE":0,"TOWNNAME":"中西區","LI":"民主里","LIN":"2鄰","STREET":"府前路","SECT":"二段","MAREA":" ","LANE":" ","ALLEY":" ","HOUSE_NO":"１２１號","E_COORD97":167411.66,"N_COORD97":2543522.0600000001,"ADDRESS":"府前路二段１２１號","OBJECTID":619940},"geometry":{"x":167411.66000000015,"y":2543522.0600000005}},{"attributes":{"ID":619968,"DIS_CODE":0,"TOWNNAME":"中西區","LI":"民主里","LIN":"2鄰","STREET":"府前路","SECT":"二段","MAREA":" ","LANE":" ","ALLEY":" ","HOUSE_NO":"１２３號","E_COORD97":167407.63,"N_COORD97":2543521.7599999998,"ADDRESS":"府前路二段１２３號","OBJECTID":619941},"geometry":{"x":167407.63000000082,"y":2543521.7600000016}},{"attributes":{"ID":619969,"DIS_CODE":0,"TOWNNAME":"中西區","LI":"民主里","LIN":"2鄰","STREET":"府前路","SECT":"二段","MAREA":" ","LANE":" ","ALLEY":" ","HOUSE_NO":"１２５號","E_COORD97":167403.37,"N_COORD97":2543522.73,"ADDRESS":"府前路二段１２５號","OBJECTID":619942},"geometry":{"x":167403.37000000011,"y":2543522.7300000023}},{"attributes":{"ID":619970,"DIS_CODE":0,"TOWNNAME":"中西區","LI":"民主里","LIN":"2鄰","STREET":"府前路","SECT":"二段","MAREA":" ","LANE":" ","ALLEY":" ","HOUSE_NO":"１２７號","E_COORD97":167398.44,"N_COORD97":2543523.1000000001,"ADDRESS":"府前路二段１２７號","OBJECTID":619943},"geometry":{"x":167398.44000000041,"y":2543523.0999999996}},{"attributes":{"ID":619971,"DIS_CODE":0,"TOWNNAME":"中西區","LI":"民主里","LIN":"2鄰","STREET":"府前路","SECT":"二段","MAREA":" ","LANE":" ","ALLEY":" ","HOUSE_NO":"１２９號","E_COORD97":167393.59,"N_COORD97":2543524.6699999999,"ADDRESS":"府前路二段１２９號","OBJECTID":619944},"geometry":{"x":167393.58999999985,"y":2543524.6700000037}},{"attributes":{"ID":619972,"DIS_CODE":0,"TOWNNAME":"白河區","LI":"白河里","LIN":"2鄰","STREET":"中山路","SECT":" ","MAREA":" ","LANE":" ","ALLEY":" ","HOUSE_NO":"２２號","E_COORD97":190135.38,"N_COORD97":2582945.6800000002,"ADDRESS":"中山路２２號","OBJECTID":619945},"geometry":{"x":190135.37999999989,"y":2582945.6800000016}},{"attributes":{"ID":619973,"DIS_CODE":0,"TOWNNAME":"白河區","LI":"白河里","LIN":"2鄰","STREET":"中山路","SECT":" ","MAREA":" ","LANE":" ","ALLEY":" ","HOUSE_NO":"２４號","E_COORD97":190137.53,"N_COORD97":2582949.2599999998,"ADDRESS":"中山路２４號","OBJECTID":619946},"geometry":{"x":190137.53000000119,"y":2582949.2599999998}},{"attributes":{"ID":619974,"DIS_CODE":0,"TOWNNAME":"白河區","LI":"白河里","LIN":"2鄰","STREET":"中山路","SECT":" ","MAREA":" ","LANE":" ","ALLEY":" ","HOUSE_NO":"２６號","E_COORD97":190140.04999999999,"N_COORD97":2582952.8199999998,"ADDRESS":"中山路２６號","OBJECTID":619947},"geometry":{"x":190140.05000000168,"y":2582952.8200000003}},{"attributes":{"ID":619975,"DIS_CODE":0,"TOWNNAME":"白河區","LI":"白河里","LIN":"2鄰","STREET":"中山路","SECT":" ","MAREA":" ","LANE":" ","ALLEY":" ","HOUSE_NO":"２８號","E_COORD97":190142.44,"N_COORD97":2582955.8500000001,"ADDRESS":"中山路２８號","OBJECTID":619948},"geometry":{"x":190142.44000000041,"y":2582955.8499999996}},{"attributes":{"ID":619976,"DIS_CODE":0,"TOWNNAME":"白河區","LI":"白河里","LIN":"2鄰","STREET":"中山路","SECT":" ","MAREA":" ","LANE":" ","ALLEY":" ","HOUSE_NO":"３０號","E_COORD97":190145.28,"N_COORD97":2582959.9199999999,"ADDRESS":"中山路３０號","OBJECTID":619949},"geometry":{"x":190145.28000000026,"y":2582959.9200000037}},{"attributes":{"ID":619977,"DIS_CODE":0,"TOWNNAME":"白河區","LI":"白河里","LIN":"2鄰","STREET":"中山路","SECT":" ","MAREA":" ","LANE":" ","ALLEY":" ","HOUSE_NO":"３２之１號","E_COORD97":190151.04999999999,"N_COORD97":2582969.8900000001,"ADDRESS":"中山路３２之１號","OBJECTID":619950},"geometry":{"x":190151.05000000075,"y":2582969.8900000006}},{"attributes":{"ID":619978,"DIS_CODE":0,"TOWNNAME":"白河區","LI":"白河里","LIN":"2鄰","STREET":"中山路","SECT":" ","MAREA":" ","LANE":" ","ALLEY":" ","HOUSE_NO":"３２之２號","E_COORD97":190159.64999999999,"N_COORD97":2582982.2400000002,"ADDRESS":"中山路３２之２號","OBJECTID":619951},"geometry":{"x":190159.65000000037,"y":2582982.2400000021}},{"attributes":{"ID":619979,"DIS_CODE":0,"TOWNNAME":"白河區","LI":"白河里","LIN":"2鄰","STREET":"中山路","SECT":" ","MAREA":" ","LANE":" ","ALLEY":" ","HOUSE_NO":"３２號","E_COORD97":190147.92999999999,"N_COORD97":2582964.8199999998,"ADDRESS":"中山路３２號","OBJECTID":619952},"geometry":{"x":190147.93000000063,"y":2582964.8200000022}},{"attributes":{"ID":619980,"DIS_CODE":0,"TOWNNAME":"仁德區","LI":"保安里","LIN":"2鄰","STREET":"文賢路","SECT":"一段","MAREA":" ","LANE":" ","ALLEY":" ","HOUSE_NO":"５０８之５１號","E_COORD97":170952.23999999999,"N_COORD97":2536962.3199999998,"ADDRESS":"文賢路一段５０８之５１號","OBJECTID":619953},"geometry":{"x":170952.24000000022,"y":2536962.3200000003}},{"attributes":{"ID":619981,"DIS_CODE":0,"TOWNNAME":"仁德區","LI":"田厝里","LIN":"2鄰","STREET":"保安路","SECT":"二段","MAREA":" ","LANE":" ","ALLEY":" ","HOUSE_NO":"５３０號","E_COORD97":172552.56,"N_COORD97":2537541.5699999998,"ADDRESS":"保安路二段５３０號","OBJECTID":619954},"geometry":{"x":172552.56000000052,"y":2537541.570000004}},{"attributes":{"ID":619982,"DIS_CODE":0,"TOWNNAME":"仁德區","LI":"保安里","LIN":"2鄰","STREET":"文賢路","SECT":"一段","MAREA":" ","LANE":" ","ALLEY":" ","HOUSE_NO":"５５５號","E_COORD97":171133.60000000001,"N_COORD97":2536971.5699999998,"ADDRESS":"文賢路一段５５５號","OBJECTID":619955},"geometry":{"x":171133.60000000056,"y":2536971.5700000003}},{"attributes":{"ID":619983,"DIS_CODE":0,"TOWNNAME":"中西區","LI":"民生里","LIN":"9鄰","STREET":"武英街","SECT":" ","MAREA":" ","LANE":" ","ALLEY":" ","HOUSE_NO":"５２號","E_COORD97":167098.26000000001,"N_COORD97":2543340.5499999998,"ADDRESS":"武英街５２號","OBJECTID":619956},"geometry":{"x":167098.26000000071,"y":2543340.5500000026}},{"attributes":{"ID":619984,"DIS_CODE":0,"TOWNNAME":"中西區","LI":"民主里","LIN":"6鄰","STREET":"大智街","SECT":" ","MAREA":" ","LANE":" ","ALLEY":" ","HOUSE_NO":"５５號","E_COORD97":167317.35000000001,"N_COORD97":2543534.3300000001,"ADDRESS":"大智街５５號","OBJECTID":619957},"geometry":{"x":167317.35000000056,"y":2543534.3300000019}},{"attributes":{"ID":619985,"DIS_CODE":0,"TOWNNAME":"中西區","LI":"民生里","LIN":"9鄰","STREET":"武英街","SECT":" ","MAREA":" ","LANE":" ","ALLEY":" ","HOUSE_NO":"５４號","E_COORD97":167093.92999999999,"N_COORD97":2543341.6899999999,"ADDRESS":"武英街５４號","OBJECTID":619958},"geometry":{"x":167093.9299999997,"y":2543341.6900000013}},{"attributes":{"ID":619986,"DIS_CODE":0,"TOWNNAME":"中西區","LI":"中正里","LIN":"13鄰","STREET":"正德街","SECT":" ","MAREA":" ","LANE":" ","ALLEY":" ","HOUSE_NO":"３９號","E_COORD97":167523.97,"N_COORD97":2543903.2799999998,"ADDRESS":"正德街３９號","OBJECTID":619959},"geometry":{"x":167523.97000000067,"y":2543903.2800000012}},{"attributes":{"ID":619987,"DIS_CODE":0,"TOWNNAME":"中西區","LI":"中正里","LIN":"13鄰","STREET":"康樂街","SECT":" ","MAREA":" ","LANE":" ","ALLEY":" ","HOUSE_NO":"１４２號","E_COORD97":167475.01999999999,"N_COORD97":2543907.1099999999,"ADDRESS":"康樂街１４２號","OBJECTID":619960},"geometry":{"x":167475.01999999955,"y":2543907.1099999994}},{"attributes":{"ID":619988,"DIS_CODE":0,"TOWNNAME":"中西區","LI":"中正里","LIN":"13鄰","STREET":"康樂街","SECT":" ","MAREA":" ","LANE":" ","ALLEY":" ","HOUSE_NO":"１４６號","E_COORD97":167475.57000000001,"N_COORD97":2543917.5699999998,"ADDRESS":"康樂街１４６號","OBJECTID":619961},"geometry":{"x":167475.5700000003,"y":2543917.5700000003}},{"attributes":{"ID":619989,"DIS_CODE":0,"TOWNNAME":"中西區","LI":"中正里","LIN":"13鄰","STREET":"康樂街","SECT":" ","MAREA":" ","LANE":" ","ALLEY":" ","HOUSE_NO":"１４８號","E_COORD97":167479.63,"N_COORD97":2543925.4100000001,"ADDRESS":"康樂街１４８號","OBJECTID":619962},"geometry":{"x":167479.62999999989,"y":2543925.4100000001}},{"attributes":{"ID":619990,"DIS_CODE":0,"TOWNNAME":"中西區","LI":"中正里","LIN":"12鄰","STREET":"康樂街","SECT":" ","MAREA":" ","LANE":" ","ALLEY":" ","HOUSE_NO":"１５８號","E_COORD97":167502.42000000001,"N_COORD97":2544002.77,"ADDRESS":"康樂街１５８號","OBJECTID":619963},"geometry":{"x":167502.42000000086,"y":2544002.7700000014}},{"attributes":{"ID":619991,"DIS_CODE":0,"TOWNNAME":"中西區","LI":"中正里","LIN":"12鄰","STREET":"康樂街","SECT":" ","MAREA":" ","LANE":" ","ALLEY":" ","HOUSE_NO":"１５０號","E_COORD97":167482.62,"N_COORD97":2543946.1400000001,"ADDRESS":"康樂街１５０號","OBJECTID":619964},"geometry":{"x":167482.62000000104,"y":2543946.1400000043}},{"attributes":{"ID":619992,"DIS_CODE":0,"TOWNNAME":"中西區","LI":"中正里","LIN":"12鄰","STREET":"康樂街","SECT":" ","MAREA":" ","LANE":" ","ALLEY":" ","HOUSE_NO":"１５２號","E_COORD97":167487.60000000001,"N_COORD97":2543959.6899999999,"ADDRESS":"康樂街１５２號","OBJECTID":619965},"geometry":{"x":167487.59999999963,"y":2543959.6899999995}},{"attributes":{"ID":619993,"DIS_CODE":0,"TOWNNAME":"中西區","LI":"中正里","LIN":"12鄰","STREET":"康樂街","SECT":" ","MAREA":" ","LANE":" ","ALLEY":" ","HOUSE_NO":"１５２號之１","E_COORD97":167488.42999999999,"N_COORD97":2543965.3100000001,"ADDRESS":"康樂街１５２號之１","OBJECTID":619966},"geometry":{"x":167488.43000000063,"y":2543965.3100000042}},{"attributes":{"ID":619994,"DIS_CODE":0,"TOWNNAME":"中西區","LI":"大涼里","LIN":"2鄰","STREET":"金華路","SECT":"三段","MAREA":" ","LANE":" ","ALLEY":" ","HOUSE_NO":"１７５號","E_COORD97":167278.60000000001,"N_COORD97":2543790.4700000002,"ADDRESS":"金華路三段１７５號","OBJECTID":619967},"geometry":{"x":167278.60000000056,"y":2543790.4700000007}},{"attributes":{"ID":619995,"DIS_CODE":0,"TOWNNAME":"東區","LI":"後甲里","LIN":"2鄰","STREET":"建東街","SECT":" ","MAREA":" ","LANE":" ","ALLEY":" ","HOUSE_NO":"８號","E_COORD97":171802.20999999999,"N_COORD97":2543291.5800000001,"ADDRESS":"建東街８號","OBJECTID":619968},"geometry":{"x":171802.21000000183,"y":2543291.5800000038}},{"attributes":{"ID":619996,"DIS_CODE":0,"TOWNNAME":"東區","LI":"後甲里","LIN":"2鄰","STREET":"建東街","SECT":" ","MAREA":" ","LANE":" ","ALLEY":" ","HOUSE_NO":"２號","E_COORD97":171803.53,"N_COORD97":2543278.6099999999,"ADDRESS":"建東街２號","OBJECTID":619969},"geometry":{"x":171803.53000000026,"y":2543278.6100000013}},{"attributes":{"ID":619997,"DIS_CODE":0,"TOWNNAME":"仁德區","LI":"後壁里","LIN":"2鄰","STREET":"德安路","SECT":" ","MAREA":" ","LANE":" ","ALLEY":" ","HOUSE_NO":"３０號","E_COORD97":173373.23999999999,"N_COORD97":2539220.3100000001,"ADDRESS":"德安路３０號","OBJECTID":619970},"geometry":{"x":173373.24000000022,"y":2539220.3100000005}},{"attributes":{"ID":619998,"DIS_CODE":0,"TOWNNAME":"中西區","LI":"中正里","LIN":"13鄰","STREET":"康樂街","SECT":" ","MAREA":" ","LANE":" ","ALLEY":" ","HOUSE_NO":"１２２號","E_COORD97":167462.47,"N_COORD97":2543863.5699999998,"ADDRESS":"康樂街１２２號","OBJECTID":619971},"geometry":{"x":167462.47000000067,"y":2543863.5700000003}},{"attributes":{"ID":619999,"DIS_CODE":0,"TOWNNAME":"中西區","LI":"中正里","LIN":"9鄰","STREET":"中正路","SECT":" ","MAREA":" ","LANE":" ","ALLEY":" ","HOUSE_NO":"３１４號","E_COORD97":167502.92999999999,"N_COORD97":2543794.6600000001,"ADDRESS":"中正路３１４號","OBJECTID":619972},"geometry":{"x":167502.9299999997,"y":2543794.6600000001}},{"attributes":{"ID":620000,"DIS_CODE":0,"TOWNNAME":"中西區","LI":"中正里","LIN":"9鄰","STREET":"中正路","SECT":" ","MAREA":" ","LANE":" ","ALLEY":" ","HOUSE_NO":"３１６號","E_COORD97":167498.35999999999,"N_COORD97":2543797.02,"ADDRESS":"中正路３１６號","OBJECTID":619973},"geometry":{"x":167498.36000000127,"y":2543797.0200000014}},{"attributes":{"ID":620001,"DIS_CODE":0,"TOWNNAME":"中西區","LI":"中正里","LIN":"9鄰","STREET":"中正路","SECT":" ","MAREA":" ","LANE":" ","ALLEY":" ","HOUSE_NO":"３１８號","E_COORD97":167493.31,"N_COORD97":2543798.3100000001,"ADDRESS":"中正路３１８號","OBJECTID":619974},"geometry":{"x":167493.30999999959,"y":2543798.3100000005}},{"attributes":{"ID":620002,"DIS_CODE":0,"TOWNNAME":"中西區","LI":"中正里","LIN":"9鄰","STREET":"中正路","SECT":" ","MAREA":" ","LANE":" ","ALLEY":" ","HOUSE_NO":"３２０號","E_COORD97":167489.56,"N_COORD97":2543800.4500000002,"ADDRESS":"中正路３２０號","OBJECTID":619975},"geometry":{"x":167489.55999999959,"y":2543800.4500000011}},{"attributes":{"ID":620003,"DIS_CODE":0,"TOWNNAME":"中西區","LI":"民主里","LIN":"3鄰","STREET":"康樂街","SECT":" ","MAREA":" ","LANE":" ","ALLEY":" ","HOUSE_NO":"７０號之１","E_COORD97":167407.79000000001,"N_COORD97":2543584.7799999998,"ADDRESS":"康樂街７０號之１","OBJECTID":619976},"geometry":{"x":167407.7900000019,"y":2543584.7800000012}},{"attributes":{"ID":620004,"DIS_CODE":0,"TOWNNAME":"中西區","LI":"民主里","LIN":"3鄰","STREET":"康樂街","SECT":" ","MAREA":" ","LANE":" ","ALLEY":" ","HOUSE_NO":"７０號之２","E_COORD97":167408.54000000001,"N_COORD97":2543588.29,"ADDRESS":"康樂街７０號之２","OBJECTID":619977},"geometry":{"x":167408.54000000097,"y":2543588.290000001}},{"attributes":{"ID":620005,"DIS_CODE":0,"TOWNNAME":"仁德區","LI":"保安里","LIN":"2鄰","STREET":"保安路","SECT":"一段","MAREA":" ","LANE":" ","ALLEY":" ","HOUSE_NO":"１１５號","E_COORD97":171100,"N_COORD97":2536841.3100000001,"ADDRESS":"保安路一段１１５號","OBJECTID":619978},"geometry":{"x":171100,"y":2536841.3100000005}},{"attributes":{"ID":620006,"DIS_CODE":0,"TOWNNAME":"安南區","LI":"\u25A0南里","LIN":"2鄰","STREET":"安昌街","SECT":" ","MAREA":" ","LANE":" ","ALLEY":" ","HOUSE_NO":"１３３號","E_COORD97":170034.07999999999,"N_COORD97":2552354.6499999999,"ADDRESS":"安昌街１３３號","OBJECTID":619979},"geometry":{"x":170034.08000000101,"y":2552354.6500000022}},{"attributes":{"ID":620007,"DIS_CODE":0,"TOWNNAME":"中西區","LI":"民主里","LIN":"7鄰","STREET":"保安路","SECT":" ","MAREA":" ","LANE":" ","ALLEY":" ","HOUSE_NO":"１９４號","E_COORD97":167185.82999999999,"N_COORD97":2543548.0499999998,"ADDRESS":"保安路１９４號","OBJECTID":619980},"geometry":{"x":167185.83000000101,"y":2543548.0500000026}},{"attributes":{"ID":620008,"DIS_CODE":0,"TOWNNAME":"中西區","LI":"民主里","LIN":"7鄰","STREET":"保安路","SECT":" ","MAREA":" ","LANE":" ","ALLEY":" ","HOUSE_NO":"１９６號","E_COORD97":167180.60999999999,"N_COORD97":2543548.3599999999,"ADDRESS":"保安路１９６號","OBJECTID":619981},"geometry":{"x":167180.6100000022,"y":2543548.3599999994}},{"attributes":{"ID":620009,"DIS_CODE":0,"TOWNNAME":"中西區","LI":"民主里","LIN":"7鄰","STREET":"保安路","SECT":" ","MAREA":" ","LANE":" ","ALLEY":" ","HOUSE_NO":"１９８號","E_COORD97":167176.51999999999,"N_COORD97":2543549.2799999998,"ADDRESS":"保安路１９８號","OBJECTID":619982},"geometry":{"x":167176.51999999955,"y":2543549.2799999993}},{"attributes":{"ID":620010,"DIS_CODE":0,"TOWNNAME":"中西區","LI":"民主里","LIN":"7鄰","STREET":"保安路","SECT":" ","MAREA":" ","LANE":" ","ALLEY":" ","HOUSE_NO":"２００號","E_COORD97":167172.84,"N_COORD97":2543550.5,"ADDRESS":"保安路２００號","OBJECTID":619983},"geometry":{"x":167172.83999999985,"y":2543550.5000000019}},{"attributes":{"ID":620011,"DIS_CODE":0,"TOWNNAME":"中西區","LI":"民主里","LIN":"7鄰","STREET":"保安路","SECT":" ","MAREA":" ","LANE":" ","ALLEY":" ","HOUSE_NO":"２０２號","E_COORD97":167169.35999999999,"N_COORD97":2543550.8100000001,"ADDRESS":"保安路２０２號","OBJECTID":619984},"geometry":{"x":167169.36000000127,"y":2543550.8100000005}},{"attributes":{"ID":620012,"DIS_CODE":0,"TOWNNAME":"中西區","LI":"民主里","LIN":"7鄰","STREET":"保安路","SECT":" ","MAREA":" ","LANE":" ","ALLEY":" ","HOUSE_NO":"２０４號","E_COORD97":167165.98999999999,"N_COORD97":2543552.5499999998,"ADDRESS":"保安路２０４號","OBJECTID":619985},"geometry":{"x":167165.99000000209,"y":2543552.5500000007}},{"attributes":{"ID":620013,"DIS_CODE":0,"TOWNNAME":"中西區","LI":"民主里","LIN":"7鄰","STREET":"保安路","SECT":" ","MAREA":" ","LANE":" ","ALLEY":" ","HOUSE_NO":"２０６號","E_COORD97":167162.51000000001,"N_COORD97":2543553.0600000001,"ADDRESS":"保安路２０６號","OBJECTID":619986},"geometry":{"x":167162.51000000071,"y":2543553.0600000042}},{"attributes":{"ID":620014,"DIS_CODE":0,"TOWNNAME":"中西區","LI":"民主里","LIN":"7鄰","STREET":"保安路","SECT":" ","MAREA":" ","LANE":" ","ALLEY":" ","HOUSE_NO":"２０８號","E_COORD97":167158.51999999999,"N_COORD97":2543554.1800000002,"ADDRESS":"保安路２０８號","OBJECTID":619987},"geometry":{"x":167158.52000000048,"y":2543554.1799999997}},{"attributes":{"ID":620015,"DIS_CODE":0,"TOWNNAME":"中西區","LI":"民主里","LIN":"7鄰","STREET":"保安路","SECT":" ","MAREA":" ","LANE":" ","ALLEY":" ","HOUSE_NO":"２１０號","E_COORD97":167154.26999999999,"N_COORD97":2543554.1299999999,"ADDRESS":"保安路２１０號","OBJECTID":619988},"geometry":{"x":167154.26999999955,"y":2543554.1299999971}},{"attributes":{"ID":620016,"DIS_CODE":0,"TOWNNAME":"中西區","LI":"民主里","LIN":"7鄰","STREET":"保安路","SECT":" ","MAREA":" ","LANE":" ","ALLEY":" ","HOUSE_NO":"２１４號","E_COORD97":167119.32999999999,"N_COORD97":2543557.8999999999,"ADDRESS":"保安路２１４號","OBJECTID":619989},"geometry":{"x":167119.32999999914,"y":2543557.9000000022}},{"attributes":{"ID":620017,"DIS_CODE":0,"TOWNNAME":"中西區","LI":"民主里","LIN":"7鄰","STREET":"南華街","SECT":" ","MAREA":" ","LANE":" ","ALLEY":" ","HOUSE_NO":"１０１號","E_COORD97":167125.35999999999,"N_COORD97":2543577.25,"ADDRESS":"南華街１０１號","OBJECTID":619990},"geometry":{"x":167125.36000000127,"y":2543577.25}},{"attributes":{"ID":620018,"DIS_CODE":0,"TOWNNAME":"中西區","LI":"民主里","LIN":"8鄰","STREET":"大智街","SECT":" ","MAREA":" ","LANE":" ","ALLEY":" ","HOUSE_NO":"２５號","E_COORD97":167351.57000000001,"N_COORD97":2543614.4100000001,"ADDRESS":"大智街２５號","OBJECTID":619991},"geometry":{"x":167351.5700000003,"y":2543614.4100000001}},{"attributes":{"ID":620019,"DIS_CODE":0,"TOWNNAME":"中西區","LI":"民主里","LIN":"8鄰","STREET":"大智街","SECT":" ","MAREA":" ","LANE":" ","ALLEY":" ","HOUSE_NO":"２５號之１","E_COORD97":167345.39999999999,"N_COORD97":2543616.23,"ADDRESS":"大智街２５號之１","OBJECTID":619992},"geometry":{"x":167345.4000000013,"y":2543616.2300000042}},{"attributes":{"ID":620020,"DIS_CODE":0,"TOWNNAME":"中西區","LI":"民主里","LIN":"8鄰","STREET":"大智街","SECT":" ","MAREA":" ","LANE":" ","ALLEY":" ","HOUSE_NO":"２５號之２","E_COORD97":167338.88,"N_COORD97":2543619.1600000001,"ADDRESS":"大智街２５號之２","OBJECTID":619993},"geometry":{"x":167338.87999999989,"y":2543619.1600000001}},{"attributes":{"ID":620021,"DIS_CODE":0,"TOWNNAME":"中西區","LI":"民主里","LIN":"8鄰","STREET":"大智街","SECT":" ","MAREA":" ","LANE":" ","ALLEY":" ","HOUSE_NO":"２５號之３","E_COORD97":167338.35999999999,"N_COORD97":2543615.2599999998,"ADDRESS":"大智街２５號之３","OBJECTID":619994},"geometry":{"x":167338.36000000127,"y":2543615.2599999979}},{"attributes":{"ID":620022,"DIS_CODE":0,"TOWNNAME":"中西區","LI":"民主里","LIN":"8鄰","STREET":"大智街","SECT":" ","MAREA":" ","LANE":" ","ALLEY":" ","HOUSE_NO":"２５號之４","E_COORD97":167337.67999999999,"N_COORD97":2543611.4399999999,"ADDRESS":"大智街２５號之４","OBJECTID":619995},"geometry":{"x":167337.68000000063,"y":2543611.4400000013}},{"attributes":{"ID":620023,"DIS_CODE":0,"TOWNNAME":"中西區","LI":"民主里","LIN":"8鄰","STREET":"大智街","SECT":" ","MAREA":" ","LANE":" ","ALLEY":" ","HOUSE_NO":"２５號之５","E_COORD97":167337.07999999999,"N_COORD97":2543607.3900000001,"ADDRESS":"大智街２５號之５","OBJECTID":619996},"geometry":{"x":167337.08000000101,"y":2543607.3900000006}},{"attributes":{"ID":620024,"DIS_CODE":0,"TOWNNAME":"中西區","LI":"民主里","LIN":"8鄰","STREET":"大智街","SECT":" ","MAREA":" ","LANE":" ","ALLEY":" ","HOUSE_NO":"２５號之６","E_COORD97":167336.56,"N_COORD97":2543603.6400000001,"ADDRESS":"大智街２５號之６","OBJECTID":619997},"geometry":{"x":167336.56000000052,"y":2543603.6400000043}},{"attributes":{"ID":620025,"DIS_CODE":0,"TOWNNAME":"中西區","LI":"民主里","LIN":"8鄰","STREET":"大智街","SECT":" ","MAREA":" ","LANE":" ","ALLEY":" ","HOUSE_NO":"２５號之７","E_COORD97":167335.64999999999,"N_COORD97":2543599.4900000002,"ADDRESS":"大智街２５號之７","OBJECTID":619998},"geometry":{"x":167335.65000000037,"y":2543599.4900000002}},{"attributes":{"ID":620026,"DIS_CODE":0,"TOWNNAME":"中西區","LI":"民主里","LIN":"8鄰","STREET":"府前路","SECT":"二段","MAREA":" ","LANE":" ","ALLEY":" ","HOUSE_NO":"１６０號","E_COORD97":167374.45000000001,"N_COORD97":2543558.7999999998,"ADDRESS":"府前路二段１６０號","OBJECTID":619999},"geometry":{"x":167374.45000000019,"y":2543558.8000000026}},{"attributes":{"ID":620027,"DIS_CODE":0,"TOWNNAME":"中西區","LI":"民主里","LIN":"8鄰","STREET":"府前路","SECT":"二段","MAREA":" ","LANE":" ","ALLEY":" ","HOUSE_NO":"１６６號","E_COORD97":167368.97,"N_COORD97":2543558.6499999999,"ADDRESS":"府前路二段１６６號","OBJECTID":620000},"geometry":{"x":167368.9700000016,"y":2543558.6500000004}}]}