{"displayFieldName":"TOWNNAME","fieldAliases":{"ID":"ID","DIS_CODE":"DIS_CODE","TOWNNAME":"TOWNNAME","LI":"LI","LIN":"LIN","STREET":"STREET","SECT":"SECT","MAREA":"MAREA","LANE":"LANE","ALLEY":"ALLEY","HOUSE_NO":"HOUSE_NO","E_COORD97":"E_COORD97","N_COORD97":"N_COORD97","ADDRESS":"ADDRESS","OBJECTID":"OBJECTID"},"geometryType":"esriGeometryPoint","spatialReference":{"wkid":102443,"latestWkid":3826},"fields":[{"name":"ID","type":"esriFieldTypeDouble","alias":"ID"},{"name":"DIS_CODE","type":"esriFieldTypeInteger","alias":"DIS_CODE"},{"name":"TOWNNAME","type":"esriFieldTypeString","alias":"TOWNNAME","length":8},{"name":"LI","type":"esriFieldTypeString","alias":"LI","length":8},{"name":"LIN","type":"esriFieldTypeString","alias":"LIN","length":12},{"name":"STREET","type":"esriFieldTypeString","alias":"STREET","length":20},{"name":"SECT","type":"esriFieldTypeString","alias":"SECT","length":8},{"name":"MAREA","type":"esriFieldTypeString","alias":"MAREA","length":12},{"name":"LANE","type":"esriFieldTypeString","alias":"LANE","length":10},{"name":"ALLEY","type":"esriFieldTypeString","alias":"ALLEY","length":10},{"name":"HOUSE_NO","type":"esriFieldTypeString","alias":"HOUSE_NO","length":20},{"name":"E_COORD97","type":"esriFieldTypeDouble","alias":"E_COORD97"},{"name":"N_COORD97","type":"esriFieldTypeDouble","alias":"N_COORD97"},{"name":"ADDRESS","type":"esriFieldTypeString","alias":"ADDRESS","length":50},{"name":"OBJECTID","type":"esriFieldTypeOID","alias":"OBJECTID"}],"features":[{"attributes":{"ID":431226,"DIS_CODE":0,"TOWNNAME":"永康區","LI":"東灣里","LIN":"18鄰","STREET":"大灣三街","SECT":" ","MAREA":" ","LANE":"５７巷","ALLEY":" ","HOUSE_NO":"１１號三樓之２","E_COORD97":174967.79000000001,"N_COORD97":2544887.0499999998,"ADDRESS":"大灣三街５７巷１１號三樓之２","OBJECTID":431201},"geometry":{"x":174967.79000000004,"y":2544887.0500000026}},{"attributes":{"ID":431227,"DIS_CODE":0,"TOWNNAME":"永康區","LI":"西灣里","LIN":"24鄰","STREET":"國光八街","SECT":" ","MAREA":" ","LANE":"１１巷","ALLEY":" ","HOUSE_NO":"１號六樓","E_COORD97":174420.84,"N_COORD97":2545732.5,"ADDRESS":"國光八街１１巷１號六樓","OBJECTID":431202},"geometry":{"x":174420.84000000078,"y":2545732.5}},{"attributes":{"ID":431228,"DIS_CODE":0,"TOWNNAME":"永康區","LI":"西灣里","LIN":"25鄰","STREET":"國光七街","SECT":" ","MAREA":" ","LANE":"２０巷","ALLEY":" ","HOUSE_NO":"１號四樓之２","E_COORD97":174313.45999999999,"N_COORD97":2545560.9300000002,"ADDRESS":"國光七街２０巷１號四樓之２","OBJECTID":431203},"geometry":{"x":174313.46000000089,"y":2545560.9300000016}},{"attributes":{"ID":431229,"DIS_CODE":0,"TOWNNAME":"永康區","LI":"西灣里","LIN":"25鄰","STREET":"國光七街","SECT":" ","MAREA":" ","LANE":"２０巷","ALLEY":" ","HOUSE_NO":"１號六樓之３","E_COORD97":174313.42999999999,"N_COORD97":2545560.9300000002,"ADDRESS":"國光七街２０巷１號六樓之３","OBJECTID":431204},"geometry":{"x":174313.43000000063,"y":2545560.9300000016}},{"attributes":{"ID":431230,"DIS_CODE":0,"TOWNNAME":"永康區","LI":"西灣里","LIN":"25鄰","STREET":"國光七街","SECT":" ","MAREA":" ","LANE":"２０巷","ALLEY":" ","HOUSE_NO":"１號三樓之１","E_COORD97":174313.32999999999,"N_COORD97":2545560.9300000002,"ADDRESS":"國光七街２０巷１號三樓之１","OBJECTID":431205},"geometry":{"x":174313.33000000007,"y":2545560.9300000016}},{"attributes":{"ID":431231,"DIS_CODE":0,"TOWNNAME":"永康區","LI":"尚頂里","LIN":"26鄰","STREET":"南台街","SECT":" ","MAREA":" ","LANE":"１０巷","ALLEY":" ","HOUSE_NO":"３號四樓之６","E_COORD97":170464.10000000001,"N_COORD97":2546989.4300000002,"ADDRESS":"南台街１０巷３號四樓之６","OBJECTID":431206},"geometry":{"x":170464.10000000056,"y":2546989.4299999997}},{"attributes":{"ID":431232,"DIS_CODE":0,"TOWNNAME":"永康區","LI":"尚頂里","LIN":"26鄰","STREET":"南台街","SECT":" ","MAREA":" ","LANE":"１０巷","ALLEY":" ","HOUSE_NO":"３號三樓之１","E_COORD97":170463.98999999999,"N_COORD97":2546989.4300000002,"ADDRESS":"南台街１０巷３號三樓之１","OBJECTID":431207},"geometry":{"x":170463.99000000022,"y":2546989.4299999997}},{"attributes":{"ID":431233,"DIS_CODE":0,"TOWNNAME":"永康區","LI":"尚頂里","LIN":"26鄰","STREET":"南台街","SECT":" ","MAREA":" ","LANE":"１０巷","ALLEY":" ","HOUSE_NO":"３號二樓之２","E_COORD97":170464.13,"N_COORD97":2546989.4300000002,"ADDRESS":"南台街１０巷３號二樓之２","OBJECTID":431208},"geometry":{"x":170464.13000000082,"y":2546989.4299999997}},{"attributes":{"ID":431234,"DIS_CODE":0,"TOWNNAME":"永康區","LI":"西灣里","LIN":"25鄰","STREET":"國光七街","SECT":" ","MAREA":" ","LANE":"２０巷","ALLEY":" ","HOUSE_NO":"１號三樓之２","E_COORD97":174313.45999999999,"N_COORD97":2545560.9300000002,"ADDRESS":"國光七街２０巷１號三樓之２","OBJECTID":431209},"geometry":{"x":174313.46000000089,"y":2545560.9300000016}},{"attributes":{"ID":431235,"DIS_CODE":0,"TOWNNAME":"永康區","LI":"西灣里","LIN":"25鄰","STREET":"國光七街","SECT":" ","MAREA":" ","LANE":"２０巷","ALLEY":" ","HOUSE_NO":"１號七樓之３","E_COORD97":174313.42999999999,"N_COORD97":2545560.9300000002,"ADDRESS":"國光七街２０巷１號七樓之３","OBJECTID":431210},"geometry":{"x":174313.43000000063,"y":2545560.9300000016}},{"attributes":{"ID":431236,"DIS_CODE":0,"TOWNNAME":"永康區","LI":"西灣里","LIN":"25鄰","STREET":"國光七街","SECT":" ","MAREA":" ","LANE":"２０巷","ALLEY":" ","HOUSE_NO":"１號六樓之２","E_COORD97":174313.45999999999,"N_COORD97":2545560.9300000002,"ADDRESS":"國光七街２０巷１號六樓之２","OBJECTID":431211},"geometry":{"x":174313.46000000089,"y":2545560.9300000016}},{"attributes":{"ID":431237,"DIS_CODE":0,"TOWNNAME":"永康區","LI":"西灣里","LIN":"39鄰","STREET":"永華路","SECT":" ","MAREA":" ","LANE":"２１２巷","ALLEY":" ","HOUSE_NO":"１２號三樓","E_COORD97":174157.16,"N_COORD97":2545457.3500000001,"ADDRESS":"永華路２１２巷１２號三樓","OBJECTID":431212},"geometry":{"x":174157.16000000015,"y":2545457.3499999996}},{"attributes":{"ID":431238,"DIS_CODE":0,"TOWNNAME":"永康區","LI":"正強里","LIN":"32鄰","STREET":"四維街","SECT":" ","MAREA":" ","LANE":"５１巷","ALLEY":" ","HOUSE_NO":"５號三樓之１","E_COORD97":173382.45999999999,"N_COORD97":2548047.1899999999,"ADDRESS":"四維街５１巷５號三樓之１","OBJECTID":431213},"geometry":{"x":173382.46000000089,"y":2548047.1900000013}},{"attributes":{"ID":431239,"DIS_CODE":0,"TOWNNAME":"永康區","LI":"北灣里","LIN":"37鄰","STREET":"大同街","SECT":" ","MAREA":" ","LANE":"３８０巷","ALLEY":" ","HOUSE_NO":"８號三樓之１","E_COORD97":174772.06,"N_COORD97":2546080.75,"ADDRESS":"大同街３８０巷８號三樓之１","OBJECTID":431214},"geometry":{"x":174772.05999999959,"y":2546080.7500000037}},{"attributes":{"ID":431240,"DIS_CODE":0,"TOWNNAME":"永康區","LI":"安康里","LIN":"23鄰","STREET":"中華西街","SECT":" ","MAREA":" ","LANE":"１２２巷","ALLEY":" ","HOUSE_NO":"３３號七樓","E_COORD97":170837.79000000001,"N_COORD97":2546218.7599999998,"ADDRESS":"中華西街１２２巷３３號七樓","OBJECTID":431215},"geometry":{"x":170837.79000000097,"y":2546218.7599999998}},{"attributes":{"ID":431241,"DIS_CODE":0,"TOWNNAME":"永康區","LI":"北灣里","LIN":"3鄰","STREET":"文賢街","SECT":" ","MAREA":" ","LANE":"１３６巷","ALLEY":" ","HOUSE_NO":"８號十樓之１","E_COORD97":175428.37,"N_COORD97":2545540.3799999999,"ADDRESS":"文賢街１３６巷８號十樓之１","OBJECTID":431216},"geometry":{"x":175428.37000000011,"y":2545540.3800000008}},{"attributes":{"ID":431242,"DIS_CODE":0,"TOWNNAME":"東區","LI":"崇成里","LIN":"6鄰","STREET":"崇德十二街","SECT":" ","MAREA":" ","LANE":"７６巷","ALLEY":" ","HOUSE_NO":"３９號二樓","E_COORD97":171043.37,"N_COORD97":2541258.79,"ADDRESS":"崇德十二街７６巷３９號二樓","OBJECTID":431217},"geometry":{"x":171043.37000000011,"y":2541258.790000001}},{"attributes":{"ID":431243,"DIS_CODE":0,"TOWNNAME":"東區","LI":"崇成里","LIN":"6鄰","STREET":"崇德十二街","SECT":" ","MAREA":" ","LANE":"７６巷","ALLEY":" ","HOUSE_NO":"３９號四樓","E_COORD97":171043.37,"N_COORD97":2541258.79,"ADDRESS":"崇德十二街７６巷３９號四樓","OBJECTID":431218},"geometry":{"x":171043.37000000011,"y":2541258.790000001}},{"attributes":{"ID":431244,"DIS_CODE":0,"TOWNNAME":"官田區","LI":"隆田里","LIN":"12鄰","STREET":"大同街","SECT":" ","MAREA":" ","LANE":"１４巷","ALLEY":" ","HOUSE_NO":"１號一樓","E_COORD97":180181.92000000001,"N_COORD97":2565940.2599999998,"ADDRESS":"大同街１４巷１號一樓","OBJECTID":431219},"geometry":{"x":180181.92000000179,"y":2565940.2599999998}},{"attributes":{"ID":431245,"DIS_CODE":0,"TOWNNAME":"官田區","LI":"隆田里","LIN":"12鄰","STREET":"大同街","SECT":" ","MAREA":" ","LANE":"１４巷","ALLEY":" ","HOUSE_NO":"１號二樓","E_COORD97":180181.92000000001,"N_COORD97":2565940.2599999998,"ADDRESS":"大同街１４巷１號二樓","OBJECTID":431220},"geometry":{"x":180181.92000000179,"y":2565940.2599999998}},{"attributes":{"ID":431246,"DIS_CODE":0,"TOWNNAME":"官田區","LI":"隆田里","LIN":"12鄰","STREET":"大同街","SECT":" ","MAREA":" ","LANE":"１４巷","ALLEY":" ","HOUSE_NO":"１號三樓","E_COORD97":180181.92000000001,"N_COORD97":2565940.2599999998,"ADDRESS":"大同街１４巷１號三樓","OBJECTID":431221},"geometry":{"x":180181.92000000179,"y":2565940.2599999998}},{"attributes":{"ID":431247,"DIS_CODE":0,"TOWNNAME":"官田區","LI":"隆田里","LIN":"12鄰","STREET":"大同街","SECT":" ","MAREA":" ","LANE":"１４巷","ALLEY":" ","HOUSE_NO":"１號四樓","E_COORD97":180181.92000000001,"N_COORD97":2565940.2599999998,"ADDRESS":"大同街１４巷１號四樓","OBJECTID":431222},"geometry":{"x":180181.92000000179,"y":2565940.2599999998}},{"attributes":{"ID":431248,"DIS_CODE":0,"TOWNNAME":"官田區","LI":"隆田里","LIN":"12鄰","STREET":"大同街","SECT":" ","MAREA":" ","LANE":"１４巷","ALLEY":" ","HOUSE_NO":"２２號一樓","E_COORD97":180160.91,"N_COORD97":2565985.7400000002,"ADDRESS":"大同街１４巷２２號一樓","OBJECTID":431223},"geometry":{"x":180160.91000000108,"y":2565985.7400000039}},{"attributes":{"ID":431249,"DIS_CODE":0,"TOWNNAME":"官田區","LI":"隆田里","LIN":"12鄰","STREET":"大同街","SECT":" ","MAREA":" ","LANE":"１４巷","ALLEY":" ","HOUSE_NO":"２２號二樓","E_COORD97":180160.91,"N_COORD97":2565985.7400000002,"ADDRESS":"大同街１４巷２２號二樓","OBJECTID":431224},"geometry":{"x":180160.91000000108,"y":2565985.7400000039}},{"attributes":{"ID":431250,"DIS_CODE":0,"TOWNNAME":"官田區","LI":"隆田里","LIN":"12鄰","STREET":"大同街","SECT":" ","MAREA":" ","LANE":"１４巷","ALLEY":" ","HOUSE_NO":"２２號三樓","E_COORD97":180160.91,"N_COORD97":2565985.7400000002,"ADDRESS":"大同街１４巷２２號三樓","OBJECTID":431225},"geometry":{"x":180160.91000000108,"y":2565985.7400000039}},{"attributes":{"ID":431251,"DIS_CODE":0,"TOWNNAME":"官田區","LI":"隆田里","LIN":"12鄰","STREET":"大同街","SECT":" ","MAREA":" ","LANE":"１４巷","ALLEY":" ","HOUSE_NO":"２３號一樓","E_COORD97":180179.67999999999,"N_COORD97":2565989.7200000002,"ADDRESS":"大同街１４巷２３號一樓","OBJECTID":431226},"geometry":{"x":180179.67999999877,"y":2565989.7200000044}},{"attributes":{"ID":431252,"DIS_CODE":0,"TOWNNAME":"官田區","LI":"隆田里","LIN":"12鄰","STREET":"大同街","SECT":" ","MAREA":" ","LANE":"１４巷","ALLEY":" ","HOUSE_NO":"２３號二樓","E_COORD97":180179.67999999999,"N_COORD97":2565989.7200000002,"ADDRESS":"大同街１４巷２３號二樓","OBJECTID":431227},"geometry":{"x":180179.67999999877,"y":2565989.7200000044}},{"attributes":{"ID":431253,"DIS_CODE":0,"TOWNNAME":"官田區","LI":"隆田里","LIN":"12鄰","STREET":"大同街","SECT":" ","MAREA":" ","LANE":"１４巷","ALLEY":" ","HOUSE_NO":"２３號三樓","E_COORD97":180179.67999999999,"N_COORD97":2565989.7200000002,"ADDRESS":"大同街１４巷２３號三樓","OBJECTID":431228},"geometry":{"x":180179.67999999877,"y":2565989.7200000044}},{"attributes":{"ID":431254,"DIS_CODE":0,"TOWNNAME":"官田區","LI":"隆田里","LIN":"12鄰","STREET":"大同街","SECT":" ","MAREA":" ","LANE":"１４巷","ALLEY":" ","HOUSE_NO":"２３號四樓","E_COORD97":180179.67999999999,"N_COORD97":2565989.7200000002,"ADDRESS":"大同街１４巷２３號四樓","OBJECTID":431229},"geometry":{"x":180179.67999999877,"y":2565989.7200000044}},{"attributes":{"ID":431255,"DIS_CODE":0,"TOWNNAME":"官田區","LI":"隆田里","LIN":"12鄰","STREET":"大同街","SECT":" ","MAREA":" ","LANE":"１４巷","ALLEY":" ","HOUSE_NO":"２４號一樓","E_COORD97":180161.13,"N_COORD97":2565991.1800000002,"ADDRESS":"大同街１４巷２４號一樓","OBJECTID":431230},"geometry":{"x":180161.12999999989,"y":2565991.1799999997}},{"attributes":{"ID":431256,"DIS_CODE":0,"TOWNNAME":"官田區","LI":"隆田里","LIN":"12鄰","STREET":"大同街","SECT":" ","MAREA":" ","LANE":"１４巷","ALLEY":" ","HOUSE_NO":"２４號二樓","E_COORD97":180161.13,"N_COORD97":2565991.1800000002,"ADDRESS":"大同街１４巷２４號二樓","OBJECTID":431231},"geometry":{"x":180161.12999999989,"y":2565991.1799999997}},{"attributes":{"ID":431257,"DIS_CODE":0,"TOWNNAME":"官田區","LI":"隆田里","LIN":"12鄰","STREET":"大同街","SECT":" ","MAREA":" ","LANE":"１４巷","ALLEY":" ","HOUSE_NO":"２４號三樓","E_COORD97":180161.13,"N_COORD97":2565991.1800000002,"ADDRESS":"大同街１４巷２４號三樓","OBJECTID":431232},"geometry":{"x":180161.12999999989,"y":2565991.1799999997}},{"attributes":{"ID":431258,"DIS_CODE":0,"TOWNNAME":"永康區","LI":"正強里","LIN":"32鄰","STREET":"四維街","SECT":" ","MAREA":" ","LANE":"５１巷","ALLEY":" ","HOUSE_NO":"５號三樓之３","E_COORD97":173382.56,"N_COORD97":2548047.1899999999,"ADDRESS":"四維街５１巷５號三樓之３","OBJECTID":431233},"geometry":{"x":173382.55999999959,"y":2548047.1900000013}},{"attributes":{"ID":431259,"DIS_CODE":0,"TOWNNAME":"永康區","LI":"正強里","LIN":"32鄰","STREET":"四維街","SECT":" ","MAREA":" ","LANE":"５１巷","ALLEY":" ","HOUSE_NO":"５號五樓之４","E_COORD97":173382.48000000001,"N_COORD97":2548047.1899999999,"ADDRESS":"四維街５１巷５號五樓之４","OBJECTID":431234},"geometry":{"x":173382.48000000231,"y":2548047.1900000013}},{"attributes":{"ID":431260,"DIS_CODE":0,"TOWNNAME":"永康區","LI":"正強里","LIN":"32鄰","STREET":"四維街","SECT":" ","MAREA":" ","LANE":"５１巷","ALLEY":" ","HOUSE_NO":"５號五樓之３","E_COORD97":173382.56,"N_COORD97":2548047.1899999999,"ADDRESS":"四維街５１巷５號五樓之３","OBJECTID":431235},"geometry":{"x":173382.55999999959,"y":2548047.1900000013}},{"attributes":{"ID":431261,"DIS_CODE":0,"TOWNNAME":"永康區","LI":"正強里","LIN":"32鄰","STREET":"四維街","SECT":" ","MAREA":" ","LANE":"５１巷","ALLEY":" ","HOUSE_NO":"５號二樓之１","E_COORD97":173382.45999999999,"N_COORD97":2548047.1899999999,"ADDRESS":"四維街５１巷５號二樓之１","OBJECTID":431236},"geometry":{"x":173382.46000000089,"y":2548047.1900000013}},{"attributes":{"ID":431262,"DIS_CODE":0,"TOWNNAME":"永康區","LI":"正強里","LIN":"32鄰","STREET":"四維街","SECT":" ","MAREA":" ","LANE":"５１巷","ALLEY":" ","HOUSE_NO":"５號七樓之１","E_COORD97":173382.45999999999,"N_COORD97":2548047.1899999999,"ADDRESS":"四維街５１巷５號七樓之１","OBJECTID":431237},"geometry":{"x":173382.46000000089,"y":2548047.1900000013}},{"attributes":{"ID":431263,"DIS_CODE":0,"TOWNNAME":"永康區","LI":"正強里","LIN":"32鄰","STREET":"四維街","SECT":" ","MAREA":" ","LANE":"５１巷","ALLEY":" ","HOUSE_NO":"５號四樓之３","E_COORD97":173382.56,"N_COORD97":2548047.1899999999,"ADDRESS":"四維街５１巷５號四樓之３","OBJECTID":431238},"geometry":{"x":173382.55999999959,"y":2548047.1900000013}},{"attributes":{"ID":431264,"DIS_CODE":0,"TOWNNAME":"安南區","LI":"安西里","LIN":"8鄰","STREET":"安和路","SECT":"一段","MAREA":" ","LANE":"３２１巷","ALLEY":" ","HOUSE_NO":"５號三樓","E_COORD97":169224.29000000001,"N_COORD97":2548135.3300000001,"ADDRESS":"安和路一段３２１巷５號三樓","OBJECTID":431239},"geometry":{"x":169224.29000000004,"y":2548135.3300000019}},{"attributes":{"ID":431265,"DIS_CODE":0,"TOWNNAME":"安南區","LI":"安西里","LIN":"8鄰","STREET":"安和路","SECT":"一段","MAREA":" ","LANE":"３２１巷","ALLEY":" ","HOUSE_NO":"５號二樓","E_COORD97":169224.29000000001,"N_COORD97":2548135.3300000001,"ADDRESS":"安和路一段３２１巷５號二樓","OBJECTID":431240},"geometry":{"x":169224.29000000004,"y":2548135.3300000019}},{"attributes":{"ID":431266,"DIS_CODE":0,"TOWNNAME":"中西區","LI":"保安里","LIN":"4鄰","STREET":"保安路","SECT":" ","MAREA":" ","LANE":"５７巷","ALLEY":" ","HOUSE_NO":"２號","E_COORD97":167600.89999999999,"N_COORD97":2543423.7200000002,"ADDRESS":"保安路５７巷２號","OBJECTID":431241},"geometry":{"x":167600.9000000013,"y":2543423.7200000025}},{"attributes":{"ID":431267,"DIS_CODE":0,"TOWNNAME":"東區","LI":"崇文里","LIN":"8鄰","STREET":"崇德十七街","SECT":" ","MAREA":" ","LANE":"１２６巷","ALLEY":" ","HOUSE_NO":"１９號二樓","E_COORD97":171116.64000000001,"N_COORD97":2541046.2200000002,"ADDRESS":"崇德十七街１２６巷１９號二樓","OBJECTID":431242},"geometry":{"x":171116.6400000006,"y":2541046.2200000007}},{"attributes":{"ID":431268,"DIS_CODE":0,"TOWNNAME":"東區","LI":"崇文里","LIN":"8鄰","STREET":"崇德十七街","SECT":" ","MAREA":" ","LANE":"１２６巷","ALLEY":" ","HOUSE_NO":"１９號三樓","E_COORD97":171116.64000000001,"N_COORD97":2541046.2200000002,"ADDRESS":"崇德十七街１２６巷１９號三樓","OBJECTID":431243},"geometry":{"x":171116.6400000006,"y":2541046.2200000007}},{"attributes":{"ID":431269,"DIS_CODE":0,"TOWNNAME":"東區","LI":"崇文里","LIN":"8鄰","STREET":"崇德十七街","SECT":" ","MAREA":" ","LANE":"１２６巷","ALLEY":" ","HOUSE_NO":"１９號五樓","E_COORD97":171116.64000000001,"N_COORD97":2541046.2200000002,"ADDRESS":"崇德十七街１２６巷１９號五樓","OBJECTID":431244},"geometry":{"x":171116.6400000006,"y":2541046.2200000007}},{"attributes":{"ID":431270,"DIS_CODE":0,"TOWNNAME":"中西區","LI":"三合里","LIN":"8鄰","STREET":"忠孝街","SECT":" ","MAREA":" ","LANE":"９７巷","ALLEY":" ","HOUSE_NO":"４號","E_COORD97":167733.63,"N_COORD97":2544580.46,"ADDRESS":"忠孝街９７巷４號","OBJECTID":431245},"geometry":{"x":167733.62999999989,"y":2544580.4600000009}},{"attributes":{"ID":431271,"DIS_CODE":0,"TOWNNAME":"東區","LI":"崇文里","LIN":"8鄰","STREET":"崇德十七街","SECT":" ","MAREA":" ","LANE":"１２６巷","ALLEY":" ","HOUSE_NO":"１９號四樓","E_COORD97":171116.64000000001,"N_COORD97":2541046.2200000002,"ADDRESS":"崇德十七街１２６巷１９號四樓","OBJECTID":431246},"geometry":{"x":171116.6400000006,"y":2541046.2200000007}},{"attributes":{"ID":431272,"DIS_CODE":0,"TOWNNAME":"東區","LI":"崇明里","LIN":"4鄰","STREET":"大同路","SECT":"二段","MAREA":" ","LANE":"４０３巷","ALLEY":" ","HOUSE_NO":"５８號二樓","E_COORD97":169666.98000000001,"N_COORD97":2541390.3199999998,"ADDRESS":"大同路二段４０３巷５８號二樓","OBJECTID":431247},"geometry":{"x":169666.98000000138,"y":2541390.3200000003}},{"attributes":{"ID":431273,"DIS_CODE":0,"TOWNNAME":"東區","LI":"崇明里","LIN":"4鄰","STREET":"大同路","SECT":"二段","MAREA":" ","LANE":"４０３巷","ALLEY":" ","HOUSE_NO":"５８號三樓","E_COORD97":169666.98000000001,"N_COORD97":2541390.3199999998,"ADDRESS":"大同路二段４０３巷５８號三樓","OBJECTID":431248},"geometry":{"x":169666.98000000138,"y":2541390.3200000003}},{"attributes":{"ID":431274,"DIS_CODE":0,"TOWNNAME":"東區","LI":"崇明里","LIN":"4鄰","STREET":"大同路","SECT":"二段","MAREA":" ","LANE":"４０３巷","ALLEY":" ","HOUSE_NO":"５８號五樓","E_COORD97":169666.98000000001,"N_COORD97":2541390.3199999998,"ADDRESS":"大同路二段４０３巷５８號五樓","OBJECTID":431249},"geometry":{"x":169666.98000000138,"y":2541390.3200000003}},{"attributes":{"ID":431275,"DIS_CODE":0,"TOWNNAME":"東區","LI":"崇明里","LIN":"4鄰","STREET":"大同路","SECT":"二段","MAREA":" ","LANE":"４０３巷","ALLEY":" ","HOUSE_NO":"５８號四樓","E_COORD97":169666.98000000001,"N_COORD97":2541390.3199999998,"ADDRESS":"大同路二段４０３巷５８號四樓","OBJECTID":431250},"geometry":{"x":169666.98000000138,"y":2541390.3200000003}},{"attributes":{"ID":431276,"DIS_CODE":0,"TOWNNAME":"東區","LI":"崇明里","LIN":"4鄰","STREET":"大同路","SECT":"二段","MAREA":" ","LANE":"４０３巷","ALLEY":" ","HOUSE_NO":"６０號二樓","E_COORD97":169669.57999999999,"N_COORD97":2541392.0499999998,"ADDRESS":"大同路二段４０３巷６０號二樓","OBJECTID":431251},"geometry":{"x":169669.58000000101,"y":2541392.0500000026}},{"attributes":{"ID":431277,"DIS_CODE":0,"TOWNNAME":"東區","LI":"崇明里","LIN":"4鄰","STREET":"大同路","SECT":"二段","MAREA":" ","LANE":"４０３巷","ALLEY":" ","HOUSE_NO":"６０號三樓","E_COORD97":169669.57999999999,"N_COORD97":2541392.0499999998,"ADDRESS":"大同路二段４０３巷６０號三樓","OBJECTID":431252},"geometry":{"x":169669.58000000101,"y":2541392.0500000026}},{"attributes":{"ID":431278,"DIS_CODE":0,"TOWNNAME":"東區","LI":"崇明里","LIN":"4鄰","STREET":"大同路","SECT":"二段","MAREA":" ","LANE":"４０３巷","ALLEY":" ","HOUSE_NO":"６０號五樓","E_COORD97":169669.57999999999,"N_COORD97":2541392.0499999998,"ADDRESS":"大同路二段４０３巷６０號五樓","OBJECTID":431253},"geometry":{"x":169669.58000000101,"y":2541392.0500000026}},{"attributes":{"ID":431279,"DIS_CODE":0,"TOWNNAME":"東區","LI":"崇明里","LIN":"4鄰","STREET":"大同路","SECT":"二段","MAREA":" ","LANE":"４０３巷","ALLEY":" ","HOUSE_NO":"６０號四樓","E_COORD97":169669.57999999999,"N_COORD97":2541392.0499999998,"ADDRESS":"大同路二段４０３巷６０號四樓","OBJECTID":431254},"geometry":{"x":169669.58000000101,"y":2541392.0500000026}},{"attributes":{"ID":431280,"DIS_CODE":0,"TOWNNAME":"東區","LI":"崇明里","LIN":"4鄰","STREET":"大同路","SECT":"二段","MAREA":" ","LANE":"４０３巷","ALLEY":" ","HOUSE_NO":"６２號二樓","E_COORD97":169671.48999999999,"N_COORD97":2541393.7799999998,"ADDRESS":"大同路二段４０３巷６２號二樓","OBJECTID":431255},"geometry":{"x":169671.49000000209,"y":2541393.7799999993}},{"attributes":{"ID":431281,"DIS_CODE":0,"TOWNNAME":"中西區","LI":"大涼里","LIN":"15鄰","STREET":"府前一街","SECT":" ","MAREA":" ","LANE":"９巷","ALLEY":" ","HOUSE_NO":"１０號之１三樓","E_COORD97":166783.95000000001,"N_COORD97":2543737.5099999998,"ADDRESS":"府前一街９巷１０號之１三樓","OBJECTID":431256},"geometry":{"x":166783.95000000019,"y":2543737.5099999998}},{"attributes":{"ID":431282,"DIS_CODE":0,"TOWNNAME":"中西區","LI":"大涼里","LIN":"15鄰","STREET":"府前一街","SECT":" ","MAREA":" ","LANE":"９巷","ALLEY":" ","HOUSE_NO":"１０號之２０二樓","E_COORD97":166760.54999999999,"N_COORD97":2543744.3300000001,"ADDRESS":"府前一街９巷１０號之２０二樓","OBJECTID":431257},"geometry":{"x":166760.55000000075,"y":2543744.3300000038}},{"attributes":{"ID":431283,"DIS_CODE":0,"TOWNNAME":"中西區","LI":"大涼里","LIN":"15鄰","STREET":"府前一街","SECT":" ","MAREA":" ","LANE":"９巷","ALLEY":" ","HOUSE_NO":"１０號之２０三樓","E_COORD97":166760.54999999999,"N_COORD97":2543744.3300000001,"ADDRESS":"府前一街９巷１０號之２０三樓","OBJECTID":431258},"geometry":{"x":166760.55000000075,"y":2543744.3300000038}},{"attributes":{"ID":431284,"DIS_CODE":0,"TOWNNAME":"中西區","LI":"大涼里","LIN":"15鄰","STREET":"府前一街","SECT":" ","MAREA":" ","LANE":"９巷","ALLEY":" ","HOUSE_NO":"１０號之２０五樓","E_COORD97":166760.54999999999,"N_COORD97":2543744.3300000001,"ADDRESS":"府前一街９巷１０號之２０五樓","OBJECTID":431259},"geometry":{"x":166760.55000000075,"y":2543744.3300000038}},{"attributes":{"ID":431285,"DIS_CODE":0,"TOWNNAME":"中西區","LI":"大涼里","LIN":"15鄰","STREET":"府前一街","SECT":" ","MAREA":" ","LANE":"９巷","ALLEY":" ","HOUSE_NO":"１０號之２０四樓","E_COORD97":166760.54999999999,"N_COORD97":2543744.3300000001,"ADDRESS":"府前一街９巷１０號之２０四樓","OBJECTID":431260},"geometry":{"x":166760.55000000075,"y":2543744.3300000038}},{"attributes":{"ID":431286,"DIS_CODE":0,"TOWNNAME":"中西區","LI":"大涼里","LIN":"15鄰","STREET":"府前一街","SECT":" ","MAREA":" ","LANE":"９巷","ALLEY":" ","HOUSE_NO":"１０號之２三樓","E_COORD97":166779.19,"N_COORD97":2543741.1699999999,"ADDRESS":"府前一街９巷１０號之２三樓","OBJECTID":431261},"geometry":{"x":166779.19000000041,"y":2543741.1699999999}},{"attributes":{"ID":431287,"DIS_CODE":0,"TOWNNAME":"中西區","LI":"大涼里","LIN":"15鄰","STREET":"府前一街","SECT":" ","MAREA":" ","LANE":"９巷","ALLEY":" ","HOUSE_NO":"１０號之３二樓","E_COORD97":166772.87,"N_COORD97":2543741.7999999998,"ADDRESS":"府前一街９巷１０號之３二樓","OBJECTID":431262},"geometry":{"x":166772.87000000011,"y":2543741.8000000045}},{"attributes":{"ID":431288,"DIS_CODE":0,"TOWNNAME":"中西區","LI":"大涼里","LIN":"15鄰","STREET":"府前一街","SECT":" ","MAREA":" ","LANE":"９巷","ALLEY":" ","HOUSE_NO":"１０號之３三樓","E_COORD97":166772.87,"N_COORD97":2543741.7999999998,"ADDRESS":"府前一街９巷１０號之３三樓","OBJECTID":431263},"geometry":{"x":166772.87000000011,"y":2543741.8000000045}},{"attributes":{"ID":431289,"DIS_CODE":0,"TOWNNAME":"中西區","LI":"大涼里","LIN":"15鄰","STREET":"府前一街","SECT":" ","MAREA":" ","LANE":"９巷","ALLEY":" ","HOUSE_NO":"１０號之３五樓","E_COORD97":166772.87,"N_COORD97":2543741.7999999998,"ADDRESS":"府前一街９巷１０號之３五樓","OBJECTID":431264},"geometry":{"x":166772.87000000011,"y":2543741.8000000045}},{"attributes":{"ID":431290,"DIS_CODE":0,"TOWNNAME":"中西區","LI":"大涼里","LIN":"15鄰","STREET":"府前一街","SECT":" ","MAREA":" ","LANE":"９巷","ALLEY":" ","HOUSE_NO":"１０號之３四樓","E_COORD97":166772.87,"N_COORD97":2543741.7999999998,"ADDRESS":"府前一街９巷１０號之３四樓","OBJECTID":431265},"geometry":{"x":166772.87000000011,"y":2543741.8000000045}},{"attributes":{"ID":431291,"DIS_CODE":0,"TOWNNAME":"永康區","LI":"正強里","LIN":"32鄰","STREET":"四維街","SECT":" ","MAREA":" ","LANE":"５１巷","ALLEY":" ","HOUSE_NO":"５號六樓之２","E_COORD97":173382.59,"N_COORD97":2548047.1899999999,"ADDRESS":"四維街５１巷５號六樓之２","OBJECTID":431266},"geometry":{"x":173382.58999999985,"y":2548047.1900000013}},{"attributes":{"ID":431292,"DIS_CODE":0,"TOWNNAME":"永康區","LI":"正強里","LIN":"32鄰","STREET":"四維街","SECT":" ","MAREA":" ","LANE":"５１巷","ALLEY":" ","HOUSE_NO":"５號五樓之２","E_COORD97":173382.59,"N_COORD97":2548047.1899999999,"ADDRESS":"四維街５１巷５號五樓之２","OBJECTID":431267},"geometry":{"x":173382.58999999985,"y":2548047.1900000013}},{"attributes":{"ID":431293,"DIS_CODE":0,"TOWNNAME":"永康區","LI":"復國里","LIN":"25鄰","STREET":"復華三街","SECT":" ","MAREA":" ","LANE":"９０巷","ALLEY":" ","HOUSE_NO":"１８號十一樓之２","E_COORD97":172640.92999999999,"N_COORD97":2545614.2999999998,"ADDRESS":"復華三街９０巷１８號十一樓之２","OBJECTID":431268},"geometry":{"x":172640.9299999997,"y":2545614.3000000026}},{"attributes":{"ID":431294,"DIS_CODE":0,"TOWNNAME":"永康區","LI":"東灣里","LIN":"18鄰","STREET":"大灣三街","SECT":" ","MAREA":" ","LANE":"５７巷","ALLEY":" ","HOUSE_NO":"１１號四樓之１","E_COORD97":174967.64999999999,"N_COORD97":2544887.0499999998,"ADDRESS":"大灣三街５７巷１１號四樓之１","OBJECTID":431269},"geometry":{"x":174967.65000000037,"y":2544887.0500000026}},{"attributes":{"ID":431295,"DIS_CODE":0,"TOWNNAME":"永康區","LI":"網寮里","LIN":"13鄰","STREET":"永勝街","SECT":" ","MAREA":" ","LANE":"１６９巷","ALLEY":" ","HOUSE_NO":"６號六樓之１","E_COORD97":173303.95999999999,"N_COORD97":2546537.0800000001,"ADDRESS":"永勝街１６９巷６號六樓之１","OBJECTID":431270},"geometry":{"x":173303.95999999996,"y":2546537.0800000019}},{"attributes":{"ID":431296,"DIS_CODE":0,"TOWNNAME":"永康區","LI":"三合里","LIN":"24鄰","STREET":"南工街","SECT":" ","MAREA":" ","LANE":"２６７巷","ALLEY":" ","HOUSE_NO":"５０號四樓之２","E_COORD97":171844.34,"N_COORD97":2545845.04,"ADDRESS":"南工街２６７巷５０號四樓之２","OBJECTID":431271},"geometry":{"x":171844.34000000078,"y":2545845.040000001}},{"attributes":{"ID":431297,"DIS_CODE":0,"TOWNNAME":"永康區","LI":"正強里","LIN":"5鄰","STREET":"中正路","SECT":" ","MAREA":" ","LANE":"５５巷","ALLEY":" ","HOUSE_NO":"２號八樓之２","E_COORD97":173591.54000000001,"N_COORD97":2547793.7400000002,"ADDRESS":"中正路５５巷２號八樓之２","OBJECTID":431272},"geometry":{"x":173591.54000000004,"y":2547793.7400000021}},{"attributes":{"ID":431298,"DIS_CODE":0,"TOWNNAME":"永康區","LI":"尚頂里","LIN":"20鄰","STREET":"中華路","SECT":" ","MAREA":" ","LANE":"９１２巷","ALLEY":" ","HOUSE_NO":"４５號三樓之１","E_COORD97":170540.14000000001,"N_COORD97":2546763.96,"ADDRESS":"中華路９１２巷４５號三樓之１","OBJECTID":431273},"geometry":{"x":170540.1400000006,"y":2546763.9600000009}},{"attributes":{"ID":431299,"DIS_CODE":0,"TOWNNAME":"永康區","LI":"復國里","LIN":"25鄰","STREET":"復華三街","SECT":" ","MAREA":" ","LANE":"９０巷","ALLEY":" ","HOUSE_NO":"１６號十七樓之３","E_COORD97":172657.44,"N_COORD97":2545612.7999999998,"ADDRESS":"復華三街９０巷１６號十七樓之３","OBJECTID":431274},"geometry":{"x":172657.44000000134,"y":2545612.8000000007}},{"attributes":{"ID":431300,"DIS_CODE":0,"TOWNNAME":"永康區","LI":"復國里","LIN":"25鄰","STREET":"復華三街","SECT":" ","MAREA":" ","LANE":"９０巷","ALLEY":" ","HOUSE_NO":"１６號十六樓之２","E_COORD97":172657.48000000001,"N_COORD97":2545612.7999999998,"ADDRESS":"復華三街９０巷１６號十六樓之２","OBJECTID":431275},"geometry":{"x":172657.48000000138,"y":2545612.8000000007}},{"attributes":{"ID":431301,"DIS_CODE":0,"TOWNNAME":"永康區","LI":"龍潭里","LIN":"43鄰","STREET":"國民路","SECT":" ","MAREA":" ","LANE":"２３１巷","ALLEY":" ","HOUSE_NO":"４１號三樓","E_COORD97":174609.20000000001,"N_COORD97":2547032.6299999999,"ADDRESS":"國民路２３１巷４１號三樓","OBJECTID":431276},"geometry":{"x":174609.20000000019,"y":2547032.629999999}},{"attributes":{"ID":431302,"DIS_CODE":0,"TOWNNAME":"永康區","LI":"三合里","LIN":"24鄰","STREET":"南工街","SECT":" ","MAREA":" ","LANE":"３１１巷","ALLEY":" ","HOUSE_NO":"７９號七樓之２","E_COORD97":171800.26000000001,"N_COORD97":2545806.7999999998,"ADDRESS":"南工街３１１巷７９號七樓之２","OBJECTID":431277},"geometry":{"x":171800.26000000071,"y":2545806.8000000026}},{"attributes":{"ID":431303,"DIS_CODE":0,"TOWNNAME":"永康區","LI":"復國里","LIN":"24鄰","STREET":"復華三街","SECT":" ","MAREA":" ","LANE":"９０巷","ALLEY":" ","HOUSE_NO":"１４號十二樓之２","E_COORD97":172649.14000000001,"N_COORD97":2545581.7999999998,"ADDRESS":"復華三街９０巷１４號十二樓之２","OBJECTID":431278},"geometry":{"x":172649.1400000006,"y":2545581.8000000007}},{"attributes":{"ID":431304,"DIS_CODE":0,"TOWNNAME":"永康區","LI":"復華里","LIN":"18鄰","STREET":"國華街","SECT":" ","MAREA":" ","LANE":"１０２巷","ALLEY":" ","HOUSE_NO":"６１號八樓之１","E_COORD97":172855.75,"N_COORD97":2546125.0099999998,"ADDRESS":"國華街１０２巷６１號八樓之１","OBJECTID":431279},"geometry":{"x":172855.75,"y":2546125.0099999998}},{"attributes":{"ID":431305,"DIS_CODE":0,"TOWNNAME":"永康區","LI":"復華里","LIN":"26鄰","STREET":"復華八街","SECT":" ","MAREA":" ","LANE":"４７巷","ALLEY":" ","HOUSE_NO":"３６號六樓之５","E_COORD97":172690.42999999999,"N_COORD97":2546385.6800000002,"ADDRESS":"復華八街４７巷３６號六樓之５","OBJECTID":431280},"geometry":{"x":172690.43000000156,"y":2546385.6800000034}},{"attributes":{"ID":431306,"DIS_CODE":0,"TOWNNAME":"永康區","LI":"復華里","LIN":"26鄰","STREET":"復華八街","SECT":" ","MAREA":" ","LANE":"４７巷","ALLEY":" ","HOUSE_NO":"３４號六樓之５","E_COORD97":172703.17999999999,"N_COORD97":2546385.9500000002,"ADDRESS":"復華八街４７巷３４號六樓之５","OBJECTID":431281},"geometry":{"x":172703.1799999997,"y":2546385.9499999993}},{"attributes":{"ID":431307,"DIS_CODE":0,"TOWNNAME":"永康區","LI":"龍潭里","LIN":"42鄰","STREET":"永平街","SECT":" ","MAREA":" ","LANE":"７５９巷","ALLEY":" ","HOUSE_NO":"２８號二樓","E_COORD97":174591.48000000001,"N_COORD97":2547087.25,"ADDRESS":"永平街７５９巷２８號二樓","OBJECTID":431282},"geometry":{"x":174591.48000000138,"y":2547087.2499999981}},{"attributes":{"ID":431308,"DIS_CODE":0,"TOWNNAME":"永康區","LI":"網寮里","LIN":"13鄰","STREET":"永勝街","SECT":" ","MAREA":" ","LANE":"１６９巷","ALLEY":" ","HOUSE_NO":"２號四樓之６","E_COORD97":173315.29999999999,"N_COORD97":2546526.3700000001,"ADDRESS":"永勝街１６９巷２號四樓之６","OBJECTID":431283},"geometry":{"x":173315.30000000168,"y":2546526.3700000029}},{"attributes":{"ID":431309,"DIS_CODE":0,"TOWNNAME":"永康區","LI":"復國里","LIN":"24鄰","STREET":"復華三街","SECT":" ","MAREA":" ","LANE":"９０巷","ALLEY":" ","HOUSE_NO":"１４號十七樓之２","E_COORD97":172649.14000000001,"N_COORD97":2545581.7999999998,"ADDRESS":"復華三街９０巷１４號十七樓之２","OBJECTID":431284},"geometry":{"x":172649.1400000006,"y":2545581.8000000007}},{"attributes":{"ID":431310,"DIS_CODE":0,"TOWNNAME":"永康區","LI":"勝利里","LIN":"34鄰","STREET":"勝利街","SECT":" ","MAREA":" ","LANE":"１巷","ALLEY":" ","HOUSE_NO":"４６號五樓之３","E_COORD97":170989.37,"N_COORD97":2544676.5499999998,"ADDRESS":"勝利街１巷４６號五樓之３","OBJECTID":431285},"geometry":{"x":170989.37000000197,"y":2544676.5500000026}},{"attributes":{"ID":431311,"DIS_CODE":0,"TOWNNAME":"永康區","LI":"龍潭里","LIN":"42鄰","STREET":"永平街","SECT":" ","MAREA":" ","LANE":"７５９巷","ALLEY":" ","HOUSE_NO":"３０號五樓","E_COORD97":174591.76999999999,"N_COORD97":2547078.75,"ADDRESS":"永平街７５９巷３０號五樓","OBJECTID":431286},"geometry":{"x":174591.77000000142,"y":2547078.7500000019}},{"attributes":{"ID":431312,"DIS_CODE":0,"TOWNNAME":"永康區","LI":"復國里","LIN":"24鄰","STREET":"復華三街","SECT":" ","MAREA":" ","LANE":"９０巷","ALLEY":" ","HOUSE_NO":"１２號十六樓之１","E_COORD97":172643.89999999999,"N_COORD97":2545582.2999999998,"ADDRESS":"復華三街９０巷１２號十六樓之１","OBJECTID":431287},"geometry":{"x":172643.90000000224,"y":2545582.3000000007}},{"attributes":{"ID":431313,"DIS_CODE":0,"TOWNNAME":"永康區","LI":"勝利里","LIN":"34鄰","STREET":"勝利街","SECT":" ","MAREA":" ","LANE":"１巷","ALLEY":" ","HOUSE_NO":"４７號十二樓之１","E_COORD97":170990.51999999999,"N_COORD97":2544676.5499999998,"ADDRESS":"勝利街１巷４７號十二樓之１","OBJECTID":431288},"geometry":{"x":170990.51999999955,"y":2544676.5500000026}},{"attributes":{"ID":431314,"DIS_CODE":0,"TOWNNAME":"永康區","LI":"\u25A0行里","LIN":"20鄰","STREET":"正南五街","SECT":" ","MAREA":" ","LANE":"２８９巷","ALLEY":" ","HOUSE_NO":"１１０號四樓","E_COORD97":171828.17999999999,"N_COORD97":2548322.3599999999,"ADDRESS":"正南五街２８９巷１１０號四樓","OBJECTID":431289},"geometry":{"x":171828.18000000063,"y":2548322.3599999994}},{"attributes":{"ID":431315,"DIS_CODE":0,"TOWNNAME":"永康區","LI":"網寮里","LIN":"26鄰","STREET":"永大一路","SECT":" ","MAREA":" ","LANE":"１０８巷","ALLEY":" ","HOUSE_NO":"２３號六樓之１","E_COORD97":174019.62,"N_COORD97":2546467.1699999999,"ADDRESS":"永大一路１０８巷２３號六樓之１","OBJECTID":431290},"geometry":{"x":174019.62000000011,"y":2546467.1699999999}},{"attributes":{"ID":431316,"DIS_CODE":0,"TOWNNAME":"永康區","LI":"西灣里","LIN":"39鄰","STREET":"永華路","SECT":" ","MAREA":" ","LANE":"２１２巷","ALLEY":" ","HOUSE_NO":"１８號八樓","E_COORD97":174147.98000000001,"N_COORD97":2545431.25,"ADDRESS":"永華路２１２巷１８號八樓","OBJECTID":431291},"geometry":{"x":174147.98000000045,"y":2545431.2500000019}},{"attributes":{"ID":431317,"DIS_CODE":0,"TOWNNAME":"永康區","LI":"勝利里","LIN":"39鄰","STREET":"勝華街","SECT":" ","MAREA":" ","LANE":"３７巷","ALLEY":" ","HOUSE_NO":"５６號十樓之６","E_COORD97":171422.62,"N_COORD97":2545110.29,"ADDRESS":"勝華街３７巷５６號十樓之６","OBJECTID":431292},"geometry":{"x":171422.62000000011,"y":2545110.290000001}},{"attributes":{"ID":431318,"DIS_CODE":0,"TOWNNAME":"永康區","LI":"勝利里","LIN":"34鄰","STREET":"勝利街","SECT":" ","MAREA":" ","LANE":"１巷","ALLEY":" ","HOUSE_NO":"４７號九樓之２","E_COORD97":170989.41,"N_COORD97":2544676.5499999998,"ADDRESS":"勝利街１巷４７號九樓之２","OBJECTID":431293},"geometry":{"x":170989.41000000108,"y":2544676.5500000026}},{"attributes":{"ID":431319,"DIS_CODE":0,"TOWNNAME":"永康區","LI":"復華里","LIN":"18鄰","STREET":"國華街","SECT":" ","MAREA":" ","LANE":"１０２巷","ALLEY":" ","HOUSE_NO":"６１號六樓之１","E_COORD97":172855.75,"N_COORD97":2546125.0099999998,"ADDRESS":"國華街１０２巷６１號六樓之１","OBJECTID":431294},"geometry":{"x":172855.75,"y":2546125.0099999998}},{"attributes":{"ID":431320,"DIS_CODE":0,"TOWNNAME":"永康區","LI":"復華里","LIN":"18鄰","STREET":"國華街","SECT":" ","MAREA":" ","LANE":"１０２巷","ALLEY":" ","HOUSE_NO":"５３號五樓之１","E_COORD97":172864.04999999999,"N_COORD97":2546091.7599999998,"ADDRESS":"國華街１０２巷５３號五樓之１","OBJECTID":431295},"geometry":{"x":172864.04999999981,"y":2546091.7600000016}},{"attributes":{"ID":431321,"DIS_CODE":0,"TOWNNAME":"永康區","LI":"\u25A0行里","LIN":"20鄰","STREET":"正南五街","SECT":" ","MAREA":" ","LANE":"２８９巷","ALLEY":" ","HOUSE_NO":"８８號七樓","E_COORD97":171809.26000000001,"N_COORD97":2548315.1200000001,"ADDRESS":"正南五街２８９巷８８號七樓","OBJECTID":431296},"geometry":{"x":171809.26000000071,"y":2548315.120000001}},{"attributes":{"ID":431322,"DIS_CODE":0,"TOWNNAME":"永康區","LI":"\u25A0行里","LIN":"20鄰","STREET":"正南五街","SECT":" ","MAREA":" ","LANE":"２８９巷","ALLEY":" ","HOUSE_NO":"５５號四樓","E_COORD97":171785.26000000001,"N_COORD97":2548368.1099999999,"ADDRESS":"正南五街２８９巷５５號四樓","OBJECTID":431297},"geometry":{"x":171785.26000000071,"y":2548368.1099999994}},{"attributes":{"ID":431323,"DIS_CODE":0,"TOWNNAME":"永康區","LI":"\u25A0行里","LIN":"20鄰","STREET":"正南五街","SECT":" ","MAREA":" ","LANE":"２８９巷","ALLEY":" ","HOUSE_NO":"９８號二樓","E_COORD97":171821.76999999999,"N_COORD97":2548310.6200000001,"ADDRESS":"正南五街２８９巷９８號二樓","OBJECTID":431298},"geometry":{"x":171821.77000000142,"y":2548310.6200000029}},{"attributes":{"ID":431324,"DIS_CODE":0,"TOWNNAME":"永康區","LI":"復華里","LIN":"26鄰","STREET":"復華八街","SECT":" ","MAREA":" ","LANE":"４７巷","ALLEY":" ","HOUSE_NO":"３６號九樓之６","E_COORD97":172690.38,"N_COORD97":2546385.6800000002,"ADDRESS":"復華八街４７巷３６號九樓之６","OBJECTID":431299},"geometry":{"x":172690.37999999989,"y":2546385.6800000034}},{"attributes":{"ID":431325,"DIS_CODE":0,"TOWNNAME":"永康區","LI":"龍潭里","LIN":"32鄰","STREET":"龍國街","SECT":" ","MAREA":" ","LANE":"２４０巷","ALLEY":" ","HOUSE_NO":"１８號二樓","E_COORD97":174475.35000000001,"N_COORD97":2547976.3700000001,"ADDRESS":"龍國街２４０巷１８號二樓","OBJECTID":431300},"geometry":{"x":174475.34999999963,"y":2547976.3700000029}},{"attributes":{"ID":431326,"DIS_CODE":0,"TOWNNAME":"永康區","LI":"勝利里","LIN":"39鄰","STREET":"勝華街","SECT":" ","MAREA":" ","LANE":"３７巷","ALLEY":" ","HOUSE_NO":"５６號九樓之８","E_COORD97":171422.66,"N_COORD97":2545110.29,"ADDRESS":"勝華街３７巷５６號九樓之８","OBJECTID":431301},"geometry":{"x":171422.66000000015,"y":2545110.290000001}},{"attributes":{"ID":431327,"DIS_CODE":0,"TOWNNAME":"永康區","LI":"復華里","LIN":"5鄰","STREET":"國華街","SECT":" ","MAREA":" ","LANE":"１０２巷","ALLEY":" ","HOUSE_NO":"８６號十一樓之２","E_COORD97":172978.48999999999,"N_COORD97":2546138.5299999998,"ADDRESS":"國華街１０２巷８６號十一樓之２","OBJECTID":431302},"geometry":{"x":172978.49000000022,"y":2546138.5299999993}},{"attributes":{"ID":431328,"DIS_CODE":0,"TOWNNAME":"永康區","LI":"復華里","LIN":"18鄰","STREET":"國華街","SECT":" ","MAREA":" ","LANE":"１０２巷","ALLEY":" ","HOUSE_NO":"５９號六樓之３","E_COORD97":172842.51000000001,"N_COORD97":2546109.02,"ADDRESS":"國華街１０２巷５９號六樓之３","OBJECTID":431303},"geometry":{"x":172842.51000000164,"y":2546109.0200000014}},{"attributes":{"ID":431329,"DIS_CODE":0,"TOWNNAME":"永康區","LI":"崑山里","LIN":"20鄰","STREET":"崑山街","SECT":" ","MAREA":" ","LANE":"２１巷","ALLEY":" ","HOUSE_NO":"１９號二樓之１","E_COORD97":173867.75,"N_COORD97":2544557.3599999999,"ADDRESS":"崑山街２１巷１９號二樓之１","OBJECTID":431304},"geometry":{"x":173867.75,"y":2544557.3600000013}},{"attributes":{"ID":431330,"DIS_CODE":0,"TOWNNAME":"永康區","LI":"復華里","LIN":"26鄰","STREET":"復華八街","SECT":" ","MAREA":" ","LANE":"４７巷","ALLEY":" ","HOUSE_NO":"３４號五樓之３","E_COORD97":172703.12,"N_COORD97":2546385.9500000002,"ADDRESS":"復華八街４７巷３４號五樓之３","OBJECTID":431305},"geometry":{"x":172703.12000000197,"y":2546385.9499999993}},{"attributes":{"ID":431331,"DIS_CODE":0,"TOWNNAME":"永康區","LI":"龍潭里","LIN":"32鄰","STREET":"龍國街","SECT":" ","MAREA":" ","LANE":"２４０巷","ALLEY":" ","HOUSE_NO":"２２號四樓","E_COORD97":174477.35999999999,"N_COORD97":2547959.8700000001,"ADDRESS":"龍國街２４０巷２２號四樓","OBJECTID":431306},"geometry":{"x":174477.36000000127,"y":2547959.8700000029}},{"attributes":{"ID":431332,"DIS_CODE":0,"TOWNNAME":"永康區","LI":"復國里","LIN":"24鄰","STREET":"復華三街","SECT":" ","MAREA":" ","LANE":"９０巷","ALLEY":" ","HOUSE_NO":"１４號十五樓之３","E_COORD97":172649.10000000001,"N_COORD97":2545581.7999999998,"ADDRESS":"復華三街９０巷１４號十五樓之３","OBJECTID":431307},"geometry":{"x":172649.10000000056,"y":2545581.8000000007}},{"attributes":{"ID":431333,"DIS_CODE":0,"TOWNNAME":"永康區","LI":"復華里","LIN":"18鄰","STREET":"國華街","SECT":" ","MAREA":" ","LANE":"１０２巷","ALLEY":" ","HOUSE_NO":"５９號十一樓","E_COORD97":172841.51999999999,"N_COORD97":2546108.98,"ADDRESS":"國華街１０２巷５９號十一樓","OBJECTID":431308},"geometry":{"x":172841.51999999955,"y":2546108.9800000004}},{"attributes":{"ID":431334,"DIS_CODE":0,"TOWNNAME":"永康區","LI":"復華里","LIN":"26鄰","STREET":"復華八街","SECT":" ","MAREA":" ","LANE":"４７巷","ALLEY":" ","HOUSE_NO":"３６號五樓之３","E_COORD97":172690.37,"N_COORD97":2546385.6800000002,"ADDRESS":"復華八街４７巷３６號五樓之３","OBJECTID":431309},"geometry":{"x":172690.37000000104,"y":2546385.6800000034}},{"attributes":{"ID":431335,"DIS_CODE":0,"TOWNNAME":"永康區","LI":"復國里","LIN":"25鄰","STREET":"復華三街","SECT":" ","MAREA":" ","LANE":"９０巷","ALLEY":" ","HOUSE_NO":"１６號十四樓之５","E_COORD97":172657.5,"N_COORD97":2545612.7999999998,"ADDRESS":"復華三街９０巷１６號十四樓之５","OBJECTID":431310},"geometry":{"x":172657.5,"y":2545612.8000000007}},{"attributes":{"ID":431336,"DIS_CODE":0,"TOWNNAME":"永康區","LI":"復國里","LIN":"25鄰","STREET":"復華三街","SECT":" ","MAREA":" ","LANE":"９０巷","ALLEY":" ","HOUSE_NO":"１８號十七樓之２","E_COORD97":172640.92999999999,"N_COORD97":2545614.2999999998,"ADDRESS":"復華三街９０巷１８號十七樓之２","OBJECTID":431311},"geometry":{"x":172640.9299999997,"y":2545614.3000000026}},{"attributes":{"ID":431337,"DIS_CODE":0,"TOWNNAME":"永康區","LI":"龍潭里","LIN":"43鄰","STREET":"國民路","SECT":" ","MAREA":" ","LANE":"２３１巷","ALLEY":" ","HOUSE_NO":"３９號四樓","E_COORD97":174609.20000000001,"N_COORD97":2547032.6299999999,"ADDRESS":"國民路２３１巷３９號四樓","OBJECTID":431312},"geometry":{"x":174609.20000000019,"y":2547032.629999999}},{"attributes":{"ID":431338,"DIS_CODE":0,"TOWNNAME":"永康區","LI":"神洲里","LIN":"13鄰","STREET":"忠孝路","SECT":" ","MAREA":" ","LANE":"７６巷","ALLEY":" ","HOUSE_NO":"５３號二樓","E_COORD97":172273.26000000001,"N_COORD97":2544991.3599999999,"ADDRESS":"忠孝路７６巷５３號二樓","OBJECTID":431313},"geometry":{"x":172273.26000000071,"y":2544991.3600000013}},{"attributes":{"ID":431339,"DIS_CODE":0,"TOWNNAME":"永康區","LI":"網寮里","LIN":"13鄰","STREET":"永勝街","SECT":" ","MAREA":" ","LANE":"１６９巷","ALLEY":" ","HOUSE_NO":"２號八樓之１","E_COORD97":173315.20000000001,"N_COORD97":2546526.3700000001,"ADDRESS":"永勝街１６９巷２號八樓之１","OBJECTID":431314},"geometry":{"x":173315.20000000112,"y":2546526.3700000029}},{"attributes":{"ID":431340,"DIS_CODE":0,"TOWNNAME":"永康區","LI":"\u25A0行里","LIN":"20鄰","STREET":"正南五街","SECT":" ","MAREA":" ","LANE":"２８９巷","ALLEY":" ","HOUSE_NO":"９２號六樓","E_COORD97":171812.85000000001,"N_COORD97":2548309.8700000001,"ADDRESS":"正南五街２８９巷９２號六樓","OBJECTID":431315},"geometry":{"x":171812.85000000149,"y":2548309.8700000029}},{"attributes":{"ID":431341,"DIS_CODE":0,"TOWNNAME":"永康區","LI":"復華里","LIN":"26鄰","STREET":"復華八街","SECT":" ","MAREA":" ","LANE":"４７巷","ALLEY":" ","HOUSE_NO":"３６號九樓之３","E_COORD97":172690.37,"N_COORD97":2546385.6800000002,"ADDRESS":"復華八街４７巷３６號九樓之３","OBJECTID":431316},"geometry":{"x":172690.37000000104,"y":2546385.6800000034}},{"attributes":{"ID":431342,"DIS_CODE":0,"TOWNNAME":"永康區","LI":"勝利里","LIN":"39鄰","STREET":"勝華街","SECT":" ","MAREA":" ","LANE":"３７巷","ALLEY":" ","HOUSE_NO":"５６號三樓之７","E_COORD97":171422.59,"N_COORD97":2545110.29,"ADDRESS":"勝華街３７巷５６號三樓之７","OBJECTID":431317},"geometry":{"x":171422.58999999985,"y":2545110.290000001}},{"attributes":{"ID":431343,"DIS_CODE":0,"TOWNNAME":"永康區","LI":"勝利里","LIN":"39鄰","STREET":"勝華街","SECT":" ","MAREA":" ","LANE":"３７巷","ALLEY":" ","HOUSE_NO":"５６號七樓之９","E_COORD97":171422.60000000001,"N_COORD97":2545110.29,"ADDRESS":"勝華街３７巷５６號七樓之９","OBJECTID":431318},"geometry":{"x":171422.59999999963,"y":2545110.290000001}},{"attributes":{"ID":431344,"DIS_CODE":0,"TOWNNAME":"永康區","LI":"復華里","LIN":"18鄰","STREET":"國華街","SECT":" ","MAREA":" ","LANE":"１０２巷","ALLEY":" ","HOUSE_NO":"５５號四樓之１","E_COORD97":172858.10000000001,"N_COORD97":2546097.77,"ADDRESS":"國華街１０２巷５５號四樓之１","OBJECTID":431319},"geometry":{"x":172858.09999999963,"y":2546097.7700000014}},{"attributes":{"ID":431345,"DIS_CODE":0,"TOWNNAME":"永康區","LI":"網寮里","LIN":"20鄰","STREET":"文化路","SECT":" ","MAREA":" ","LANE":"３２３巷","ALLEY":" ","HOUSE_NO":"１號八樓之１","E_COORD97":173432.44,"N_COORD97":2546130.1099999999,"ADDRESS":"文化路３２３巷１號八樓之１","OBJECTID":431320},"geometry":{"x":173432.44000000134,"y":2546130.1099999994}},{"attributes":{"ID":431346,"DIS_CODE":0,"TOWNNAME":"永康區","LI":"龍潭里","LIN":"32鄰","STREET":"龍國街","SECT":" ","MAREA":" ","LANE":"２４０巷","ALLEY":" ","HOUSE_NO":"２０號二樓","E_COORD97":174476.70000000001,"N_COORD97":2547966.8700000001,"ADDRESS":"龍國街２４０巷２０號二樓","OBJECTID":431321},"geometry":{"x":174476.70000000112,"y":2547966.8700000029}},{"attributes":{"ID":431347,"DIS_CODE":0,"TOWNNAME":"永康區","LI":"復華里","LIN":"18鄰","STREET":"國華街","SECT":" ","MAREA":" ","LANE":"１０２巷","ALLEY":" ","HOUSE_NO":"５９號二樓","E_COORD97":172840.26999999999,"N_COORD97":2546108.98,"ADDRESS":"國華街１０２巷５９號二樓","OBJECTID":431322},"geometry":{"x":172840.26999999955,"y":2546108.9800000004}},{"attributes":{"ID":431348,"DIS_CODE":0,"TOWNNAME":"永康區","LI":"勝利里","LIN":"20鄰","STREET":"勝學路","SECT":" ","MAREA":" ","LANE":"２６９巷","ALLEY":" ","HOUSE_NO":"６號三樓之５","E_COORD97":171164.44,"N_COORD97":2545316.29,"ADDRESS":"勝學路２６９巷６號三樓之５","OBJECTID":431323},"geometry":{"x":171164.44000000134,"y":2545316.2899999972}},{"attributes":{"ID":431349,"DIS_CODE":0,"TOWNNAME":"永康區","LI":"勝利里","LIN":"20鄰","STREET":"勝學路","SECT":" ","MAREA":" ","LANE":"２６９巷","ALLEY":" ","HOUSE_NO":"２號三樓之８","E_COORD97":171173.42999999999,"N_COORD97":2545316.0499999998,"ADDRESS":"勝學路２６９巷２號三樓之８","OBJECTID":431324},"geometry":{"x":171173.43000000063,"y":2545316.0500000007}},{"attributes":{"ID":431350,"DIS_CODE":0,"TOWNNAME":"永康區","LI":"網寮里","LIN":"20鄰","STREET":"文化路","SECT":" ","MAREA":" ","LANE":"３２３巷","ALLEY":" ","HOUSE_NO":"７號五樓之２","E_COORD97":173450.39000000001,"N_COORD97":2546115.3599999999,"ADDRESS":"文化路３２３巷７號五樓之２","OBJECTID":431325},"geometry":{"x":173450.3900000006,"y":2546115.3599999994}},{"attributes":{"ID":431351,"DIS_CODE":0,"TOWNNAME":"永康區","LI":"勝利里","LIN":"40鄰","STREET":"中華一路","SECT":" ","MAREA":" ","LANE":"１８２巷","ALLEY":" ","HOUSE_NO":"４號六樓之２","E_COORD97":171533.60000000001,"N_COORD97":2545051.54,"ADDRESS":"中華一路１８２巷４號六樓之２","OBJECTID":431326},"geometry":{"x":171533.60000000056,"y":2545051.540000001}},{"attributes":{"ID":431352,"DIS_CODE":0,"TOWNNAME":"永康區","LI":"復國里","LIN":"24鄰","STREET":"復華三街","SECT":" ","MAREA":" ","LANE":"９０巷","ALLEY":" ","HOUSE_NO":"１２號十四樓之３","E_COORD97":172643.98999999999,"N_COORD97":2545582.2999999998,"ADDRESS":"復華三街９０巷１２號十四樓之３","OBJECTID":431327},"geometry":{"x":172643.99000000022,"y":2545582.3000000007}},{"attributes":{"ID":431353,"DIS_CODE":0,"TOWNNAME":"永康區","LI":"埔園里","LIN":"24鄰","STREET":"中正路","SECT":" ","MAREA":" ","LANE":"１４８巷","ALLEY":" ","HOUSE_NO":"２號之５三樓","E_COORD97":173555.14999999999,"N_COORD97":2547909.3900000001,"ADDRESS":"中正路１４８巷２號之５三樓","OBJECTID":431328},"geometry":{"x":173555.15000000037,"y":2547909.3900000006}},{"attributes":{"ID":431354,"DIS_CODE":0,"TOWNNAME":"永康區","LI":"網寮里","LIN":"26鄰","STREET":"永大一路","SECT":" ","MAREA":" ","LANE":"１０８巷","ALLEY":" ","HOUSE_NO":"２１號四樓之１","E_COORD97":174022.63,"N_COORD97":2546453.4300000002,"ADDRESS":"永大一路１０８巷２１號四樓之１","OBJECTID":431329},"geometry":{"x":174022.62999999989,"y":2546453.4300000016}},{"attributes":{"ID":431355,"DIS_CODE":0,"TOWNNAME":"永康區","LI":"網寮里","LIN":"26鄰","STREET":"永大一路","SECT":" ","MAREA":" ","LANE":"１０８巷","ALLEY":" ","HOUSE_NO":"２１號五樓之２","E_COORD97":174022.76000000001,"N_COORD97":2546453.4300000002,"ADDRESS":"永大一路１０８巷２１號五樓之２","OBJECTID":431330},"geometry":{"x":174022.76000000071,"y":2546453.4300000016}},{"attributes":{"ID":431356,"DIS_CODE":0,"TOWNNAME":"安南區","LI":"布袋里","LIN":"1鄰","STREET":"工明南一路","SECT":" ","MAREA":" ","LANE":" ","ALLEY":" ","HOUSE_NO":"６２號","E_COORD97":168756.37,"N_COORD97":2551139.6800000002,"ADDRESS":"工明南一路６２號","OBJECTID":431331},"geometry":{"x":168756.37000000011,"y":2551139.6800000016}},{"attributes":{"ID":431357,"DIS_CODE":0,"TOWNNAME":"佳里區","LI":"鎮山里","LIN":"14鄰","STREET":"安南路","SECT":" ","MAREA":" ","LANE":"２巷","ALLEY":" ","HOUSE_NO":"１９號","E_COORD97":165947.16,"N_COORD97":2561424.9199999999,"ADDRESS":"安南路２巷１９號","OBJECTID":431332},"geometry":{"x":165947.16000000015,"y":2561424.9200000018}},{"attributes":{"ID":431358,"DIS_CODE":0,"TOWNNAME":"永康區","LI":"復國里","LIN":"25鄰","STREET":"復華三街","SECT":" ","MAREA":" ","LANE":"９０巷","ALLEY":" ","HOUSE_NO":"１８號十五樓之５","E_COORD97":172640.95000000001,"N_COORD97":2545614.2999999998,"ADDRESS":"復華三街９０巷１８號十五樓之５","OBJECTID":431333},"geometry":{"x":172640.95000000019,"y":2545614.3000000026}},{"attributes":{"ID":431359,"DIS_CODE":0,"TOWNNAME":"永康區","LI":"復國里","LIN":"24鄰","STREET":"復華三街","SECT":" ","MAREA":" ","LANE":"９０巷","ALLEY":" ","HOUSE_NO":"１２號五樓之５","E_COORD97":172642.79999999999,"N_COORD97":2545582.2999999998,"ADDRESS":"復華三街９０巷１２號五樓之５","OBJECTID":431334},"geometry":{"x":172642.80000000075,"y":2545582.3000000007}},{"attributes":{"ID":431360,"DIS_CODE":0,"TOWNNAME":"中西區","LI":"保安里","LIN":"7鄰","STREET":"海安路","SECT":" ","MAREA":" ","LANE":"４８巷","ALLEY":" ","HOUSE_NO":"５號","E_COORD97":167558.45999999999,"N_COORD97":2543561.52,"ADDRESS":"海安路４８巷５號","OBJECTID":431335},"geometry":{"x":167558.45999999996,"y":2543561.5199999996}},{"attributes":{"ID":431361,"DIS_CODE":0,"TOWNNAME":"永康區","LI":"勝利里","LIN":"34鄰","STREET":"勝利街","SECT":" ","MAREA":" ","LANE":"１巷","ALLEY":" ","HOUSE_NO":"４４號七樓之１","E_COORD97":170974.25,"N_COORD97":2544680.54,"ADDRESS":"勝利街１巷４４號七樓之１","OBJECTID":431336},"geometry":{"x":170974.25,"y":2544680.5399999972}},{"attributes":{"ID":431362,"DIS_CODE":0,"TOWNNAME":"永康區","LI":"復國里","LIN":"25鄰","STREET":"復華三街","SECT":" ","MAREA":" ","LANE":"９０巷","ALLEY":" ","HOUSE_NO":"１８號十三樓之４","E_COORD97":172640.82000000001,"N_COORD97":2545614.2999999998,"ADDRESS":"復華三街９０巷１８號十三樓之４","OBJECTID":431337},"geometry":{"x":172640.8200000003,"y":2545614.3000000026}},{"attributes":{"ID":431363,"DIS_CODE":0,"TOWNNAME":"永康區","LI":"復國里","LIN":"24鄰","STREET":"復華三街","SECT":" ","MAREA":" ","LANE":"９０巷","ALLEY":" ","HOUSE_NO":"１２號五樓之１","E_COORD97":172642.64999999999,"N_COORD97":2545582.2999999998,"ADDRESS":"復華三街９０巷１２號五樓之１","OBJECTID":431338},"geometry":{"x":172642.6500000013,"y":2545582.3000000007}},{"attributes":{"ID":431364,"DIS_CODE":0,"TOWNNAME":"永康區","LI":"埔園里","LIN":"24鄰","STREET":"中正路","SECT":" ","MAREA":" ","LANE":"１４８巷","ALLEY":" ","HOUSE_NO":"２號之８四樓","E_COORD97":173548.85999999999,"N_COORD97":2547931.8900000001,"ADDRESS":"中正路１４８巷２號之８四樓","OBJECTID":431339},"geometry":{"x":173548.86000000034,"y":2547931.8900000025}},{"attributes":{"ID":431365,"DIS_CODE":0,"TOWNNAME":"永康區","LI":"龍潭里","LIN":"34鄰","STREET":"龍埔街","SECT":" ","MAREA":" ","LANE":"１３９巷","ALLEY":" ","HOUSE_NO":"８號八樓之２","E_COORD97":174534.19,"N_COORD97":2548201.3199999998,"ADDRESS":"龍埔街１３９巷８號八樓之２","OBJECTID":431340},"geometry":{"x":174534.19000000134,"y":2548201.3200000003}},{"attributes":{"ID":431366,"DIS_CODE":0,"TOWNNAME":"永康區","LI":"中華里","LIN":"17鄰","STREET":"中華路","SECT":" ","MAREA":" ","LANE":"１０巷","ALLEY":" ","HOUSE_NO":"１６號之２２六樓","E_COORD97":171659.54000000001,"N_COORD97":2544438.0099999998,"ADDRESS":"中華路１０巷１６號之２２六樓","OBJECTID":431341},"geometry":{"x":171659.54000000097,"y":2544438.0100000016}},{"attributes":{"ID":431367,"DIS_CODE":0,"TOWNNAME":"永康區","LI":"中華里","LIN":"15鄰","STREET":"忠義街","SECT":" ","MAREA":" ","LANE":"６０巷","ALLEY":" ","HOUSE_NO":"３號六樓之１０","E_COORD97":171786.42999999999,"N_COORD97":2544541.1200000001,"ADDRESS":"忠義街６０巷３號六樓之１０","OBJECTID":431342},"geometry":{"x":171786.4299999997,"y":2544541.1200000029}},{"attributes":{"ID":431368,"DIS_CODE":0,"TOWNNAME":"永康區","LI":"埔園里","LIN":"5鄰","STREET":"中山路","SECT":" ","MAREA":" ","LANE":"１５８巷","ALLEY":" ","HOUSE_NO":"３６號四樓之２","E_COORD97":173920.48999999999,"N_COORD97":2547830.04,"ADDRESS":"中山路１５８巷３６號四樓之２","OBJECTID":431343},"geometry":{"x":173920.49000000022,"y":2547830.0399999991}},{"attributes":{"ID":431369,"DIS_CODE":0,"TOWNNAME":"永康區","LI":"復華里","LIN":"38鄰","STREET":"復華七街","SECT":" ","MAREA":" ","LANE":"３２巷","ALLEY":" ","HOUSE_NO":"４５號八樓之２","E_COORD97":172722.70000000001,"N_COORD97":2545891.2999999998,"ADDRESS":"復華七街３２巷４５號八樓之２","OBJECTID":431344},"geometry":{"x":172722.70000000019,"y":2545891.3000000045}},{"attributes":{"ID":431370,"DIS_CODE":0,"TOWNNAME":"永康區","LI":"勝利里","LIN":"20鄰","STREET":"勝學路","SECT":" ","MAREA":" ","LANE":"２６９巷","ALLEY":" ","HOUSE_NO":"２號四樓之８","E_COORD97":171173.42999999999,"N_COORD97":2545316.0499999998,"ADDRESS":"勝學路２６９巷２號四樓之８","OBJECTID":431345},"geometry":{"x":171173.43000000063,"y":2545316.0500000007}},{"attributes":{"ID":431371,"DIS_CODE":0,"TOWNNAME":"永康區","LI":"復國里","LIN":"24鄰","STREET":"復華三街","SECT":" ","MAREA":" ","LANE":"９０巷","ALLEY":" ","HOUSE_NO":"１２號七樓之２","E_COORD97":172642.78,"N_COORD97":2545582.2999999998,"ADDRESS":"復華三街９０巷１２號七樓之２","OBJECTID":431346},"geometry":{"x":172642.77999999933,"y":2545582.3000000007}},{"attributes":{"ID":431372,"DIS_CODE":0,"TOWNNAME":"永康區","LI":"復國里","LIN":"24鄰","STREET":"復華三街","SECT":" ","MAREA":" ","LANE":"９０巷","ALLEY":" ","HOUSE_NO":"１２號八樓之３","E_COORD97":172642.73999999999,"N_COORD97":2545582.2999999998,"ADDRESS":"復華三街９０巷１２號八樓之３","OBJECTID":431347},"geometry":{"x":172642.74000000022,"y":2545582.3000000007}},{"attributes":{"ID":431373,"DIS_CODE":0,"TOWNNAME":"永康區","LI":"勝利里","LIN":"39鄰","STREET":"勝華街","SECT":" ","MAREA":" ","LANE":"３７巷","ALLEY":" ","HOUSE_NO":"５６號三樓之２","E_COORD97":171422.64999999999,"N_COORD97":2545110.29,"ADDRESS":"勝華街３７巷５６號三樓之２","OBJECTID":431348},"geometry":{"x":171422.65000000037,"y":2545110.290000001}},{"attributes":{"ID":431374,"DIS_CODE":0,"TOWNNAME":"永康區","LI":"勝利里","LIN":"39鄰","STREET":"勝華街","SECT":" ","MAREA":" ","LANE":"３７巷","ALLEY":" ","HOUSE_NO":"５６號十樓之３","E_COORD97":171422.60999999999,"N_COORD97":2545110.29,"ADDRESS":"勝華街３７巷５６號十樓之３","OBJECTID":431349},"geometry":{"x":171422.61000000127,"y":2545110.290000001}},{"attributes":{"ID":431375,"DIS_CODE":0,"TOWNNAME":"永康區","LI":"網寮里","LIN":"5鄰","STREET":"永勝街","SECT":" ","MAREA":" ","LANE":"１０６巷","ALLEY":" ","HOUSE_NO":"１７號四樓之３","E_COORD97":173587.35999999999,"N_COORD97":2546361.21,"ADDRESS":"永勝街１０６巷１７號四樓之３","OBJECTID":431350},"geometry":{"x":173587.36000000127,"y":2546361.2100000028}},{"attributes":{"ID":431376,"DIS_CODE":0,"TOWNNAME":"永康區","LI":"復華里","LIN":"18鄰","STREET":"國華街","SECT":" ","MAREA":" ","LANE":"１０２巷","ALLEY":" ","HOUSE_NO":"５３號九樓之１","E_COORD97":172864.04999999999,"N_COORD97":2546091.7599999998,"ADDRESS":"國華街１０２巷５３號九樓之１","OBJECTID":431351},"geometry":{"x":172864.04999999981,"y":2546091.7600000016}},{"attributes":{"ID":431377,"DIS_CODE":0,"TOWNNAME":"永康區","LI":"復華里","LIN":"18鄰","STREET":"國華街","SECT":" ","MAREA":" ","LANE":"１０２巷","ALLEY":" ","HOUSE_NO":"５５號十樓之１","E_COORD97":172858.10000000001,"N_COORD97":2546097.77,"ADDRESS":"國華街１０２巷５５號十樓之１","OBJECTID":431352},"geometry":{"x":172858.09999999963,"y":2546097.7700000014}},{"attributes":{"ID":431378,"DIS_CODE":0,"TOWNNAME":"永康區","LI":"復國里","LIN":"25鄰","STREET":"復華三街","SECT":" ","MAREA":" ","LANE":"９０巷","ALLEY":" ","HOUSE_NO":"１８號五樓之２","E_COORD97":172639.67999999999,"N_COORD97":2545614.2999999998,"ADDRESS":"復華三街９０巷１８號五樓之２","OBJECTID":431353},"geometry":{"x":172639.68000000156,"y":2545614.3000000026}},{"attributes":{"ID":431379,"DIS_CODE":0,"TOWNNAME":"永康區","LI":"復華里","LIN":"38鄰","STREET":"復華七街","SECT":" ","MAREA":" ","LANE":"３２巷","ALLEY":" ","HOUSE_NO":"２３號七樓之１","E_COORD97":172707.62,"N_COORD97":2545918.7999999998,"ADDRESS":"復華七街３２巷２３號七樓之１","OBJECTID":431354},"geometry":{"x":172707.62000000011,"y":2545918.8000000026}},{"attributes":{"ID":431380,"DIS_CODE":0,"TOWNNAME":"永康區","LI":"網寮里","LIN":"20鄰","STREET":"永二街","SECT":" ","MAREA":" ","LANE":"２４５巷","ALLEY":" ","HOUSE_NO":"２７號之２二樓","E_COORD97":173329.41,"N_COORD97":2546137.1200000001,"ADDRESS":"永二街２４５巷２７號之２二樓","OBJECTID":431355},"geometry":{"x":173329.41000000015,"y":2546137.1200000029}},{"attributes":{"ID":431381,"DIS_CODE":0,"TOWNNAME":"永康區","LI":"復國里","LIN":"25鄰","STREET":"復華三街","SECT":" ","MAREA":" ","LANE":"９０巷","ALLEY":" ","HOUSE_NO":"１８號十五樓之３","E_COORD97":172640.89000000001,"N_COORD97":2545614.2999999998,"ADDRESS":"復華三街９０巷１８號十五樓之３","OBJECTID":431356},"geometry":{"x":172640.88999999966,"y":2545614.3000000026}},{"attributes":{"ID":431382,"DIS_CODE":0,"TOWNNAME":"永康區","LI":"龍潭里","LIN":"42鄰","STREET":"永平街","SECT":" ","MAREA":" ","LANE":"７５９巷","ALLEY":" ","HOUSE_NO":"１０號三樓","E_COORD97":174615.48999999999,"N_COORD97":2547073.21,"ADDRESS":"永平街７５９巷１０號三樓","OBJECTID":431357},"geometry":{"x":174615.49000000022,"y":2547073.2100000028}},{"attributes":{"ID":431383,"DIS_CODE":0,"TOWNNAME":"永康區","LI":"復華里","LIN":"38鄰","STREET":"復華七街","SECT":" ","MAREA":" ","LANE":"３２巷","ALLEY":" ","HOUSE_NO":"４１號十一樓之１","E_COORD97":172739.01000000001,"N_COORD97":2545897.0499999998,"ADDRESS":"復華七街３２巷４１號十一樓之１","OBJECTID":431358},"geometry":{"x":172739.00999999978,"y":2545897.0500000026}},{"attributes":{"ID":431384,"DIS_CODE":0,"TOWNNAME":"佳里區","LI":"忠仁里","LIN":"8鄰","STREET":"建中街","SECT":" ","MAREA":" ","LANE":"４１巷","ALLEY":" ","HOUSE_NO":"４號","E_COORD97":165928.89999999999,"N_COORD97":2562063.3999999999,"ADDRESS":"建中街４１巷４號","OBJECTID":431359},"geometry":{"x":165928.90000000037,"y":2562063.4000000022}},{"attributes":{"ID":431385,"DIS_CODE":0,"TOWNNAME":"永康區","LI":"\u25A0行里","LIN":"20鄰","STREET":"正南五街","SECT":" ","MAREA":" ","LANE":"２８９巷","ALLEY":" ","HOUSE_NO":"１０８號五樓","E_COORD97":171829.32999999999,"N_COORD97":2548314.3700000001,"ADDRESS":"正南五街２８９巷１０８號五樓","OBJECTID":431360},"geometry":{"x":171829.33000000101,"y":2548314.370000001}},{"attributes":{"ID":431386,"DIS_CODE":0,"TOWNNAME":"歸仁區","LI":"辜厝里","LIN":"40鄰","STREET":"中正南路","SECT":"一段","MAREA":" ","LANE":" ","ALLEY":" ","HOUSE_NO":"２２２之１號","E_COORD97":177310.25,"N_COORD97":2540335.4500000002,"ADDRESS":"中正南路一段２２２之１號","OBJECTID":431361},"geometry":{"x":177310.25000000093,"y":2540335.4500000011}},{"attributes":{"ID":431387,"DIS_CODE":0,"TOWNNAME":"永康區","LI":"\u25A0行里","LIN":"20鄰","STREET":"正南五街","SECT":" ","MAREA":" ","LANE":"２８９巷","ALLEY":" ","HOUSE_NO":"１０６號五樓","E_COORD97":171825.89999999999,"N_COORD97":2548320.3500000001,"ADDRESS":"正南五街２８９巷１０６號五樓","OBJECTID":431362},"geometry":{"x":171825.9000000013,"y":2548320.3500000034}},{"attributes":{"ID":431388,"DIS_CODE":0,"TOWNNAME":"永康區","LI":"復國里","LIN":"25鄰","STREET":"復華三街","SECT":" ","MAREA":" ","LANE":"９０巷","ALLEY":" ","HOUSE_NO":"１８號九樓之５","E_COORD97":172639.70000000001,"N_COORD97":2545614.2999999998,"ADDRESS":"復華三街９０巷１８號九樓之５","OBJECTID":431363},"geometry":{"x":172639.70000000019,"y":2545614.3000000026}},{"attributes":{"ID":431389,"DIS_CODE":0,"TOWNNAME":"永康區","LI":"東灣里","LIN":"18鄰","STREET":"大灣三街","SECT":" ","MAREA":" ","LANE":"５７巷","ALLEY":" ","HOUSE_NO":"１３號四樓之２","E_COORD97":174970.60000000001,"N_COORD97":2544885.0499999998,"ADDRESS":"大灣三街５７巷１３號四樓之２","OBJECTID":431364},"geometry":{"x":174970.59999999963,"y":2544885.0500000007}},{"attributes":{"ID":431390,"DIS_CODE":0,"TOWNNAME":"永康區","LI":"\u25A0行里","LIN":"20鄰","STREET":"正南五街","SECT":" ","MAREA":" ","LANE":"２８９巷","ALLEY":" ","HOUSE_NO":"８１號五樓","E_COORD97":171806.5,"N_COORD97":2548350.3599999999,"ADDRESS":"正南五街２８９巷８１號五樓","OBJECTID":431365},"geometry":{"x":171806.5,"y":2548350.3599999994}},{"attributes":{"ID":431391,"DIS_CODE":0,"TOWNNAME":"永康區","LI":"勝利里","LIN":"39鄰","STREET":"勝華街","SECT":" ","MAREA":" ","LANE":"３７巷","ALLEY":" ","HOUSE_NO":"５６號三樓之１０","E_COORD97":171423.81,"N_COORD97":2545110.29,"ADDRESS":"勝華街３７巷５６號三樓之１０","OBJECTID":431366},"geometry":{"x":171423.81000000052,"y":2545110.290000001}},{"attributes":{"ID":431392,"DIS_CODE":0,"TOWNNAME":"永康區","LI":"復華里","LIN":"18鄰","STREET":"國華街","SECT":" ","MAREA":" ","LANE":"１０２巷","ALLEY":" ","HOUSE_NO":"６１號二樓","E_COORD97":172853.62,"N_COORD97":2546124.98,"ADDRESS":"國華街１０２巷６１號二樓","OBJECTID":431367},"geometry":{"x":172853.62000000011,"y":2546124.9800000023}},{"attributes":{"ID":431393,"DIS_CODE":0,"TOWNNAME":"永康區","LI":"勝利里","LIN":"20鄰","STREET":"勝學路","SECT":" ","MAREA":" ","LANE":"２６９巷","ALLEY":" ","HOUSE_NO":"２號三樓之９","E_COORD97":171173.37,"N_COORD97":2545316.0499999998,"ADDRESS":"勝學路２６９巷２號三樓之９","OBJECTID":431368},"geometry":{"x":171173.37000000011,"y":2545316.0500000007}},{"attributes":{"ID":431394,"DIS_CODE":0,"TOWNNAME":"永康區","LI":"復華里","LIN":"26鄰","STREET":"復華八街","SECT":" ","MAREA":" ","LANE":"４７巷","ALLEY":" ","HOUSE_NO":"３４號七樓之５","E_COORD97":172703.17999999999,"N_COORD97":2546385.9500000002,"ADDRESS":"復華八街４７巷３４號七樓之５","OBJECTID":431369},"geometry":{"x":172703.1799999997,"y":2546385.9499999993}},{"attributes":{"ID":431395,"DIS_CODE":0,"TOWNNAME":"永康區","LI":"復國里","LIN":"25鄰","STREET":"復華三街","SECT":" ","MAREA":" ","LANE":"９０巷","ALLEY":" ","HOUSE_NO":"１８號六樓之４","E_COORD97":172639.57000000001,"N_COORD97":2545614.2999999998,"ADDRESS":"復華三街９０巷１８號六樓之４","OBJECTID":431370},"geometry":{"x":172639.57000000123,"y":2545614.3000000026}},{"attributes":{"ID":431396,"DIS_CODE":0,"TOWNNAME":"永康區","LI":"三合里","LIN":"24鄰","STREET":"南工街","SECT":" ","MAREA":" ","LANE":"２６７巷","ALLEY":" ","HOUSE_NO":"４６號八樓之１","E_COORD97":171855.23999999999,"N_COORD97":2545843.79,"ADDRESS":"南工街２６７巷４６號八樓之１","OBJECTID":431371},"geometry":{"x":171855.24000000115,"y":2545843.7899999991}},{"attributes":{"ID":431397,"DIS_CODE":0,"TOWNNAME":"永康區","LI":"復華里","LIN":"38鄰","STREET":"復華七街","SECT":" ","MAREA":" ","LANE":"３２巷","ALLEY":" ","HOUSE_NO":"４５號四樓之２","E_COORD97":172722.70000000001,"N_COORD97":2545891.2999999998,"ADDRESS":"復華七街３２巷４５號四樓之２","OBJECTID":431372},"geometry":{"x":172722.70000000019,"y":2545891.3000000045}},{"attributes":{"ID":431398,"DIS_CODE":0,"TOWNNAME":"東區","LI":"崇德里","LIN":"13鄰","STREET":"崇明十三街","SECT":" ","MAREA":" ","LANE":"１１巷","ALLEY":" ","HOUSE_NO":"２７號三樓","E_COORD97":170446.60000000001,"N_COORD97":2541648.7999999998,"ADDRESS":"崇明十三街１１巷２７號三樓","OBJECTID":431373},"geometry":{"x":170446.60000000149,"y":2541648.8000000007}},{"attributes":{"ID":431399,"DIS_CODE":0,"TOWNNAME":"東區","LI":"崇德里","LIN":"13鄰","STREET":"崇明十三街","SECT":" ","MAREA":" ","LANE":"１１巷","ALLEY":" ","HOUSE_NO":"２７號五樓","E_COORD97":170446.60000000001,"N_COORD97":2541648.7999999998,"ADDRESS":"崇明十三街１１巷２７號五樓","OBJECTID":431374},"geometry":{"x":170446.60000000149,"y":2541648.8000000007}},{"attributes":{"ID":431400,"DIS_CODE":0,"TOWNNAME":"東區","LI":"崇德里","LIN":"13鄰","STREET":"崇明十三街","SECT":" ","MAREA":" ","LANE":"１１巷","ALLEY":" ","HOUSE_NO":"２７號四樓","E_COORD97":170446.60000000001,"N_COORD97":2541648.7999999998,"ADDRESS":"崇明十三街１１巷２７號四樓","OBJECTID":431375},"geometry":{"x":170446.60000000149,"y":2541648.8000000007}},{"attributes":{"ID":431401,"DIS_CODE":0,"TOWNNAME":"東區","LI":"崇德里","LIN":"13鄰","STREET":"崇明十三街","SECT":" ","MAREA":" ","LANE":"１１巷","ALLEY":" ","HOUSE_NO":"２９號二樓","E_COORD97":170451.42000000001,"N_COORD97":2541645.4399999999,"ADDRESS":"崇明十三街１１巷２９號二樓","OBJECTID":431376},"geometry":{"x":170451.42000000179,"y":2541645.4400000013}},{"attributes":{"ID":431402,"DIS_CODE":0,"TOWNNAME":"東區","LI":"崇德里","LIN":"13鄰","STREET":"崇明十三街","SECT":" ","MAREA":" ","LANE":"１１巷","ALLEY":" ","HOUSE_NO":"２９號三樓","E_COORD97":170451.42000000001,"N_COORD97":2541645.4399999999,"ADDRESS":"崇明十三街１１巷２９號三樓","OBJECTID":431377},"geometry":{"x":170451.42000000179,"y":2541645.4400000013}},{"attributes":{"ID":431403,"DIS_CODE":0,"TOWNNAME":"東區","LI":"崇德里","LIN":"13鄰","STREET":"崇明十三街","SECT":" ","MAREA":" ","LANE":"１１巷","ALLEY":" ","HOUSE_NO":"２９號五樓","E_COORD97":170451.42000000001,"N_COORD97":2541645.4399999999,"ADDRESS":"崇明十三街１１巷２９號五樓","OBJECTID":431378},"geometry":{"x":170451.42000000179,"y":2541645.4400000013}},{"attributes":{"ID":431404,"DIS_CODE":0,"TOWNNAME":"東區","LI":"崇德里","LIN":"13鄰","STREET":"崇明十三街","SECT":" ","MAREA":" ","LANE":"１１巷","ALLEY":" ","HOUSE_NO":"２９號四樓","E_COORD97":170451.42000000001,"N_COORD97":2541645.4399999999,"ADDRESS":"崇明十三街１１巷２９號四樓","OBJECTID":431379},"geometry":{"x":170451.42000000179,"y":2541645.4400000013}},{"attributes":{"ID":431405,"DIS_CODE":0,"TOWNNAME":"東區","LI":"崇德里","LIN":"13鄰","STREET":"崇明十三街","SECT":" ","MAREA":" ","LANE":"１１巷","ALLEY":" ","HOUSE_NO":"７號七樓","E_COORD97":170448.23000000001,"N_COORD97":2541603.8100000001,"ADDRESS":"崇明十三街１１巷７號七樓","OBJECTID":431380},"geometry":{"x":170448.23000000231,"y":2541603.8100000005}},{"attributes":{"ID":431406,"DIS_CODE":0,"TOWNNAME":"東區","LI":"崇德里","LIN":"13鄰","STREET":"崇明十三街","SECT":" ","MAREA":" ","LANE":"１１巷","ALLEY":" ","HOUSE_NO":"７號二樓","E_COORD97":170448.23000000001,"N_COORD97":2541603.8100000001,"ADDRESS":"崇明十三街１１巷７號二樓","OBJECTID":431381},"geometry":{"x":170448.23000000231,"y":2541603.8100000005}},{"attributes":{"ID":431407,"DIS_CODE":0,"TOWNNAME":"東區","LI":"崇德里","LIN":"13鄰","STREET":"崇明十三街","SECT":" ","MAREA":" ","LANE":"１１巷","ALLEY":" ","HOUSE_NO":"７號三樓","E_COORD97":170448.23000000001,"N_COORD97":2541603.8100000001,"ADDRESS":"崇明十三街１１巷７號三樓","OBJECTID":431382},"geometry":{"x":170448.23000000231,"y":2541603.8100000005}},{"attributes":{"ID":431408,"DIS_CODE":0,"TOWNNAME":"東區","LI":"崇德里","LIN":"13鄰","STREET":"崇明十三街","SECT":" ","MAREA":" ","LANE":"１１巷","ALLEY":" ","HOUSE_NO":"７號五樓","E_COORD97":170448.23000000001,"N_COORD97":2541603.8100000001,"ADDRESS":"崇明十三街１１巷７號五樓","OBJECTID":431383},"geometry":{"x":170448.23000000231,"y":2541603.8100000005}},{"attributes":{"ID":431409,"DIS_CODE":0,"TOWNNAME":"東區","LI":"崇德里","LIN":"13鄰","STREET":"崇明十三街","SECT":" ","MAREA":" ","LANE":"１１巷","ALLEY":" ","HOUSE_NO":"７號六樓","E_COORD97":170448.23000000001,"N_COORD97":2541603.8100000001,"ADDRESS":"崇明十三街１１巷７號六樓","OBJECTID":431384},"geometry":{"x":170448.23000000231,"y":2541603.8100000005}},{"attributes":{"ID":431410,"DIS_CODE":0,"TOWNNAME":"東區","LI":"崇德里","LIN":"13鄰","STREET":"崇明十三街","SECT":" ","MAREA":" ","LANE":"１１巷","ALLEY":" ","HOUSE_NO":"７號四樓","E_COORD97":170448.23000000001,"N_COORD97":2541603.8100000001,"ADDRESS":"崇明十三街１１巷７號四樓","OBJECTID":431385},"geometry":{"x":170448.23000000231,"y":2541603.8100000005}},{"attributes":{"ID":431411,"DIS_CODE":0,"TOWNNAME":"東區","LI":"崇德里","LIN":"13鄰","STREET":"崇明十三街","SECT":" ","MAREA":" ","LANE":"１１巷","ALLEY":" ","HOUSE_NO":"９號七樓","E_COORD97":170445.64999999999,"N_COORD97":2541607.3799999999,"ADDRESS":"崇明十三街１１巷９號七樓","OBJECTID":431386},"geometry":{"x":170445.6500000013,"y":2541607.3800000008}},{"attributes":{"ID":431412,"DIS_CODE":0,"TOWNNAME":"東區","LI":"崇德里","LIN":"13鄰","STREET":"崇明十三街","SECT":" ","MAREA":" ","LANE":"１１巷","ALLEY":" ","HOUSE_NO":"９號二樓","E_COORD97":170445.64999999999,"N_COORD97":2541607.3799999999,"ADDRESS":"崇明十三街１１巷９號二樓","OBJECTID":431387},"geometry":{"x":170445.6500000013,"y":2541607.3800000008}},{"attributes":{"ID":431413,"DIS_CODE":0,"TOWNNAME":"東區","LI":"崇德里","LIN":"13鄰","STREET":"崇明十三街","SECT":" ","MAREA":" ","LANE":"１１巷","ALLEY":" ","HOUSE_NO":"９號三樓","E_COORD97":170445.64999999999,"N_COORD97":2541607.3799999999,"ADDRESS":"崇明十三街１１巷９號三樓","OBJECTID":431388},"geometry":{"x":170445.6500000013,"y":2541607.3800000008}},{"attributes":{"ID":431414,"DIS_CODE":0,"TOWNNAME":"東區","LI":"崇信里","LIN":"1鄰","STREET":"東門路","SECT":"二段","MAREA":" ","LANE":"３９０巷","ALLEY":" ","HOUSE_NO":"１０號二樓","E_COORD97":170792.31,"N_COORD97":2542504.2599999998,"ADDRESS":"東門路二段３９０巷１０號二樓","OBJECTID":431389},"geometry":{"x":170792.30999999959,"y":2542504.2600000016}},{"attributes":{"ID":431415,"DIS_CODE":0,"TOWNNAME":"東區","LI":"崇信里","LIN":"1鄰","STREET":"東門路","SECT":"二段","MAREA":" ","LANE":"３９０巷","ALLEY":" ","HOUSE_NO":"１０號三樓","E_COORD97":170792.31,"N_COORD97":2542504.2599999998,"ADDRESS":"東門路二段３９０巷１０號三樓","OBJECTID":431390},"geometry":{"x":170792.30999999959,"y":2542504.2600000016}},{"attributes":{"ID":431416,"DIS_CODE":0,"TOWNNAME":"東區","LI":"崇信里","LIN":"1鄰","STREET":"東門路","SECT":"二段","MAREA":" ","LANE":"３９０巷","ALLEY":" ","HOUSE_NO":"１０號五樓","E_COORD97":170792.31,"N_COORD97":2542504.2599999998,"ADDRESS":"東門路二段３９０巷１０號五樓","OBJECTID":431391},"geometry":{"x":170792.30999999959,"y":2542504.2600000016}},{"attributes":{"ID":431417,"DIS_CODE":0,"TOWNNAME":"東區","LI":"崇信里","LIN":"1鄰","STREET":"東門路","SECT":"二段","MAREA":" ","LANE":"３９０巷","ALLEY":" ","HOUSE_NO":"１０號四樓","E_COORD97":170792.31,"N_COORD97":2542504.2599999998,"ADDRESS":"東門路二段３９０巷１０號四樓","OBJECTID":431392},"geometry":{"x":170792.30999999959,"y":2542504.2600000016}},{"attributes":{"ID":431418,"DIS_CODE":0,"TOWNNAME":"東區","LI":"崇信里","LIN":"1鄰","STREET":"東門路","SECT":"二段","MAREA":" ","LANE":"３９０巷","ALLEY":" ","HOUSE_NO":"１２號二樓","E_COORD97":170789.10999999999,"N_COORD97":2542500.3399999999,"ADDRESS":"東門路二段３９０巷１２號二樓","OBJECTID":431393},"geometry":{"x":170789.11000000034,"y":2542500.3400000017}},{"attributes":{"ID":431419,"DIS_CODE":0,"TOWNNAME":"東區","LI":"崇信里","LIN":"1鄰","STREET":"東門路","SECT":"二段","MAREA":" ","LANE":"３９０巷","ALLEY":" ","HOUSE_NO":"１２號三樓","E_COORD97":170789.10999999999,"N_COORD97":2542500.3399999999,"ADDRESS":"東門路二段３９０巷１２號三樓","OBJECTID":431394},"geometry":{"x":170789.11000000034,"y":2542500.3400000017}},{"attributes":{"ID":431420,"DIS_CODE":0,"TOWNNAME":"東區","LI":"崇信里","LIN":"1鄰","STREET":"東門路","SECT":"二段","MAREA":" ","LANE":"３９０巷","ALLEY":" ","HOUSE_NO":"１２號五樓","E_COORD97":170789.10999999999,"N_COORD97":2542500.3399999999,"ADDRESS":"東門路二段３９０巷１２號五樓","OBJECTID":431395},"geometry":{"x":170789.11000000034,"y":2542500.3400000017}},{"attributes":{"ID":431421,"DIS_CODE":0,"TOWNNAME":"東區","LI":"崇信里","LIN":"26鄰","STREET":"崇學路","SECT":" ","MAREA":" ","LANE":"２３０巷","ALLEY":" ","HOUSE_NO":"１０６號二樓","E_COORD97":170603.67000000001,"N_COORD97":2542287.1600000001,"ADDRESS":"崇學路２３０巷１０６號二樓","OBJECTID":431396},"geometry":{"x":170603.66999999993,"y":2542287.1600000001}},{"attributes":{"ID":431422,"DIS_CODE":0,"TOWNNAME":"東區","LI":"崇信里","LIN":"26鄰","STREET":"崇學路","SECT":" ","MAREA":" ","LANE":"２３０巷","ALLEY":" ","HOUSE_NO":"１０６號三樓","E_COORD97":170603.67000000001,"N_COORD97":2542287.1600000001,"ADDRESS":"崇學路２３０巷１０６號三樓","OBJECTID":431397},"geometry":{"x":170603.66999999993,"y":2542287.1600000001}},{"attributes":{"ID":431423,"DIS_CODE":0,"TOWNNAME":"東區","LI":"崇信里","LIN":"26鄰","STREET":"崇學路","SECT":" ","MAREA":" ","LANE":"２３０巷","ALLEY":" ","HOUSE_NO":"１０６號五樓","E_COORD97":170603.67000000001,"N_COORD97":2542287.1600000001,"ADDRESS":"崇學路２３０巷１０６號五樓","OBJECTID":431398},"geometry":{"x":170603.66999999993,"y":2542287.1600000001}},{"attributes":{"ID":431424,"DIS_CODE":0,"TOWNNAME":"東區","LI":"崇信里","LIN":"26鄰","STREET":"崇學路","SECT":" ","MAREA":" ","LANE":"２３０巷","ALLEY":" ","HOUSE_NO":"１０６號六樓","E_COORD97":170603.67000000001,"N_COORD97":2542287.1600000001,"ADDRESS":"崇學路２３０巷１０６號六樓","OBJECTID":431399},"geometry":{"x":170603.66999999993,"y":2542287.1600000001}},{"attributes":{"ID":431425,"DIS_CODE":0,"TOWNNAME":"東區","LI":"崇信里","LIN":"26鄰","STREET":"崇學路","SECT":" ","MAREA":" ","LANE":"２３０巷","ALLEY":" ","HOUSE_NO":"１０６號四樓","E_COORD97":170603.67000000001,"N_COORD97":2542287.1600000001,"ADDRESS":"崇學路２３０巷１０６號四樓","OBJECTID":431400},"geometry":{"x":170603.66999999993,"y":2542287.1600000001}}]}