{"displayFieldName":"TOWNNAME","fieldAliases":{"ID":"ID","DIS_CODE":"DIS_CODE","TOWNNAME":"TOWNNAME","LI":"LI","LIN":"LIN","STREET":"STREET","SECT":"SECT","MAREA":"MAREA","LANE":"LANE","ALLEY":"ALLEY","HOUSE_NO":"HOUSE_NO","E_COORD97":"E_COORD97","N_COORD97":"N_COORD97","ADDRESS":"ADDRESS","OBJECTID":"OBJECTID"},"geometryType":"esriGeometryPoint","spatialReference":{"wkid":102443,"latestWkid":3826},"fields":[{"name":"ID","type":"esriFieldTypeDouble","alias":"ID"},{"name":"DIS_CODE","type":"esriFieldTypeInteger","alias":"DIS_CODE"},{"name":"TOWNNAME","type":"esriFieldTypeString","alias":"TOWNNAME","length":8},{"name":"LI","type":"esriFieldTypeString","alias":"LI","length":8},{"name":"LIN","type":"esriFieldTypeString","alias":"LIN","length":12},{"name":"STREET","type":"esriFieldTypeString","alias":"STREET","length":20},{"name":"SECT","type":"esriFieldTypeString","alias":"SECT","length":8},{"name":"MAREA","type":"esriFieldTypeString","alias":"MAREA","length":12},{"name":"LANE","type":"esriFieldTypeString","alias":"LANE","length":10},{"name":"ALLEY","type":"esriFieldTypeString","alias":"ALLEY","length":10},{"name":"HOUSE_NO","type":"esriFieldTypeString","alias":"HOUSE_NO","length":20},{"name":"E_COORD97","type":"esriFieldTypeDouble","alias":"E_COORD97"},{"name":"N_COORD97","type":"esriFieldTypeDouble","alias":"N_COORD97"},{"name":"ADDRESS","type":"esriFieldTypeString","alias":"ADDRESS","length":50},{"name":"OBJECTID","type":"esriFieldTypeOID","alias":"OBJECTID"}],"features":[{"attributes":{"ID":208802,"DIS_CODE":0,"TOWNNAME":"新化區","LI":"東榮里","LIN":"25鄰","STREET":"光明路","SECT":" ","MAREA":" ","LANE":" ","ALLEY":" ","HOUSE_NO":"８１號","E_COORD97":179216.57000000001,"N_COORD97":2548042.25,"ADDRESS":"光明路８１號","OBJECTID":208801},"geometry":{"x":179216.57000000216,"y":2548042.25}},{"attributes":{"ID":208803,"DIS_CODE":0,"TOWNNAME":"新化區","LI":"東榮里","LIN":"25鄰","STREET":"光明路","SECT":" ","MAREA":" ","LANE":" ","ALLEY":" ","HOUSE_NO":"７７號","E_COORD97":179224.76999999999,"N_COORD97":2548042.25,"ADDRESS":"光明路７７號","OBJECTID":208802},"geometry":{"x":179224.77000000142,"y":2548042.25}},{"attributes":{"ID":208804,"DIS_CODE":0,"TOWNNAME":"官田區","LI":"隆田里","LIN":"24鄰","STREET":"中山路","SECT":"二段","MAREA":" ","LANE":" ","ALLEY":" ","HOUSE_NO":"５號","E_COORD97":179114.17999999999,"N_COORD97":2565923.8300000001,"ADDRESS":"中山路二段５號","OBJECTID":208803},"geometry":{"x":179114.18000000063,"y":2565923.8300000038}},{"attributes":{"ID":208805,"DIS_CODE":0,"TOWNNAME":"官田區","LI":"隆本里","LIN":"30鄰","STREET":"中山路","SECT":"二段","MAREA":" ","LANE":" ","ALLEY":" ","HOUSE_NO":"６２號","E_COORD97":179026.17000000001,"N_COORD97":2566026.5800000001,"ADDRESS":"中山路二段６２號","OBJECTID":208804},"geometry":{"x":179026.17000000086,"y":2566026.5800000001}},{"attributes":{"ID":208806,"DIS_CODE":0,"TOWNNAME":"官田區","LI":"隆田里","LIN":"24鄰","STREET":"中山路","SECT":"二段","MAREA":" ","LANE":" ","ALLEY":" ","HOUSE_NO":"７號","E_COORD97":179108.48000000001,"N_COORD97":2565922.1800000002,"ADDRESS":"中山路二段７號","OBJECTID":208805},"geometry":{"x":179108.48000000045,"y":2565922.1800000016}},{"attributes":{"ID":208807,"DIS_CODE":0,"TOWNNAME":"官田區","LI":"隆田里","LIN":"24鄰","STREET":"中山路","SECT":"二段","MAREA":" ","LANE":" ","ALLEY":" ","HOUSE_NO":"９號","E_COORD97":179104.32999999999,"N_COORD97":2565923.8300000001,"ADDRESS":"中山路二段９號","OBJECTID":208806},"geometry":{"x":179104.32999999914,"y":2565923.8300000038}},{"attributes":{"ID":208808,"DIS_CODE":0,"TOWNNAME":"官田區","LI":"隆田里","LIN":"19鄰","STREET":"中華路","SECT":"一段","MAREA":" ","LANE":" ","ALLEY":" ","HOUSE_NO":"１１２號","E_COORD97":180672.98000000001,"N_COORD97":2565948.04,"ADDRESS":"中華路一段１１２號","OBJECTID":208807},"geometry":{"x":180672.98000000045,"y":2565948.0399999991}},{"attributes":{"ID":208809,"DIS_CODE":0,"TOWNNAME":"官田區","LI":"隆田里","LIN":"19鄰","STREET":"中華路","SECT":"一段","MAREA":" ","LANE":" ","ALLEY":" ","HOUSE_NO":"１４２號","E_COORD97":180507.85999999999,"N_COORD97":2566078.5499999998,"ADDRESS":"中華路一段１４２號","OBJECTID":208808},"geometry":{"x":180507.86000000034,"y":2566078.5500000007}},{"attributes":{"ID":208810,"DIS_CODE":0,"TOWNNAME":"官田區","LI":"隆田里","LIN":"19鄰","STREET":"中華路","SECT":"一段","MAREA":" ","LANE":" ","ALLEY":" ","HOUSE_NO":"１４４號","E_COORD97":180500.13,"N_COORD97":2566079.98,"ADDRESS":"中華路一段１４４號","OBJECTID":208809},"geometry":{"x":180500.12999999989,"y":2566079.9800000023}},{"attributes":{"ID":208811,"DIS_CODE":0,"TOWNNAME":"官田區","LI":"隆本里","LIN":"4鄰","STREET":"中華路","SECT":"二段","MAREA":" ","LANE":" ","ALLEY":" ","HOUSE_NO":"１００號","E_COORD97":180078.64999999999,"N_COORD97":2566513.2799999998,"ADDRESS":"中華路二段１００號","OBJECTID":208810},"geometry":{"x":180078.65000000037,"y":2566513.2800000031}},{"attributes":{"ID":208812,"DIS_CODE":0,"TOWNNAME":"官田區","LI":"隆本里","LIN":"4鄰","STREET":"中華路","SECT":"二段","MAREA":" ","LANE":" ","ALLEY":" ","HOUSE_NO":"１０２號","E_COORD97":180075.67999999999,"N_COORD97":2566521.2599999998,"ADDRESS":"中華路二段１０２號","OBJECTID":208811},"geometry":{"x":180075.6799999997,"y":2566521.2600000016}},{"attributes":{"ID":208813,"DIS_CODE":0,"TOWNNAME":"官田區","LI":"社子里","LIN":"2鄰","STREET":" ","SECT":" ","MAREA":"社子","LANE":" ","ALLEY":" ","HOUSE_NO":"１號","E_COORD97":184252.19,"N_COORD97":2564585.3999999999,"ADDRESS":"社子１號","OBJECTID":208812},"geometry":{"x":184252.19000000041,"y":2564585.4000000022}},{"attributes":{"ID":208814,"DIS_CODE":0,"TOWNNAME":"東區","LI":"圍下里","LIN":"19鄰","STREET":"慶東街","SECT":" ","MAREA":" ","LANE":" ","ALLEY":" ","HOUSE_NO":"１５１號","E_COORD97":169661.41,"N_COORD97":2543458.75,"ADDRESS":"慶東街１５１號","OBJECTID":208813},"geometry":{"x":169661.41000000015,"y":2543458.75}},{"attributes":{"ID":208815,"DIS_CODE":0,"TOWNNAME":"東區","LI":"大同里","LIN":"32鄰","STREET":"大同路","SECT":"一段","MAREA":" ","LANE":"１７５巷","ALLEY":"１３４弄","HOUSE_NO":"３號","E_COORD97":169382.45000000001,"N_COORD97":2542613.3900000001,"ADDRESS":"大同路一段１７５巷１３４弄３號","OBJECTID":208814},"geometry":{"x":169382.45000000112,"y":2542613.3900000025}},{"attributes":{"ID":208816,"DIS_CODE":0,"TOWNNAME":"東區","LI":"大同里","LIN":"32鄰","STREET":"大同路","SECT":"一段","MAREA":" ","LANE":"１７５巷","ALLEY":"１３４弄","HOUSE_NO":"４號","E_COORD97":169377.81,"N_COORD97":2542609.6200000001,"ADDRESS":"大同路一段１７５巷１３４弄４號","OBJECTID":208815},"geometry":{"x":169377.81000000052,"y":2542609.620000001}},{"attributes":{"ID":208817,"DIS_CODE":0,"TOWNNAME":"東區","LI":"大同里","LIN":"32鄰","STREET":"大同路","SECT":"一段","MAREA":" ","LANE":"１７５巷","ALLEY":"１３４弄","HOUSE_NO":"５號","E_COORD97":169372.01000000001,"N_COORD97":2542607.0099999998,"ADDRESS":"大同路一段１７５巷１３４弄５號","OBJECTID":208816},"geometry":{"x":169372.00999999978,"y":2542607.0100000035}},{"attributes":{"ID":208818,"DIS_CODE":0,"TOWNNAME":"東區","LI":"大同里","LIN":"32鄰","STREET":"大同路","SECT":"一段","MAREA":" ","LANE":"１７５巷","ALLEY":"１３４弄","HOUSE_NO":"６號","E_COORD97":169363.45000000001,"N_COORD97":2542600.3500000001,"ADDRESS":"大同路一段１７５巷１３４弄６號","OBJECTID":208817},"geometry":{"x":169363.45000000112,"y":2542600.3499999996}},{"attributes":{"ID":208819,"DIS_CODE":0,"TOWNNAME":"東區","LI":"大同里","LIN":"32鄰","STREET":"大同路","SECT":"一段","MAREA":" ","LANE":"１７５巷","ALLEY":"１３４弄","HOUSE_NO":"７號","E_COORD97":169357.79999999999,"N_COORD97":2542597.8799999999,"ADDRESS":"大同路一段１７５巷１３４弄７號","OBJECTID":208818},"geometry":{"x":169357.80000000075,"y":2542597.8800000008}},{"attributes":{"ID":208820,"DIS_CODE":0,"TOWNNAME":"東區","LI":"大同里","LIN":"32鄰","STREET":"大同路","SECT":"一段","MAREA":" ","LANE":"１７５巷","ALLEY":"１３４弄","HOUSE_NO":"８號","E_COORD97":169353.16,"N_COORD97":2542595.27,"ADDRESS":"大同路一段１７５巷１３４弄８號","OBJECTID":208819},"geometry":{"x":169353.15999999922,"y":2542595.2700000014}},{"attributes":{"ID":208821,"DIS_CODE":0,"TOWNNAME":"東區","LI":"大同里","LIN":"32鄰","STREET":"大同路","SECT":"一段","MAREA":" ","LANE":"１７５巷","ALLEY":"１３４弄","HOUSE_NO":"９號","E_COORD97":169347.47,"N_COORD97":2542590.8599999999,"ADDRESS":"大同路一段１７５巷１３４弄９號","OBJECTID":208820},"geometry":{"x":169347.47000000067,"y":2542590.8600000013}},{"attributes":{"ID":208822,"DIS_CODE":0,"TOWNNAME":"永康區","LI":"建國里","LIN":"32鄰","STREET":"復興路","SECT":" ","MAREA":" ","LANE":"１巷","ALLEY":"３０弄","HOUSE_NO":"１０４號","E_COORD97":173040.59,"N_COORD97":2543822.8199999998,"ADDRESS":"復興路１巷３０弄１０４號","OBJECTID":208821},"geometry":{"x":173040.59000000078,"y":2543822.8200000022}},{"attributes":{"ID":208823,"DIS_CODE":0,"TOWNNAME":"永康區","LI":"西灣里","LIN":"32鄰","STREET":"國光八街","SECT":" ","MAREA":" ","LANE":"６０巷","ALLEY":"３弄","HOUSE_NO":"２０號","E_COORD97":174222.06,"N_COORD97":2545822.1400000001,"ADDRESS":"國光八街６０巷３弄２０號","OBJECTID":208822},"geometry":{"x":174222.06000000052,"y":2545822.1400000025}},{"attributes":{"ID":208824,"DIS_CODE":0,"TOWNNAME":"東區","LI":"圍下里","LIN":"19鄰","STREET":"慶東街","SECT":" ","MAREA":" ","LANE":" ","ALLEY":" ","HOUSE_NO":"１４１號","E_COORD97":169659.82000000001,"N_COORD97":2543432.25,"ADDRESS":"慶東街１４１號","OBJECTID":208823},"geometry":{"x":169659.82000000123,"y":2543432.25}},{"attributes":{"ID":208825,"DIS_CODE":0,"TOWNNAME":"東區","LI":"圍下里","LIN":"19鄰","STREET":"慶東街","SECT":" ","MAREA":" ","LANE":" ","ALLEY":" ","HOUSE_NO":"１４３號","E_COORD97":169659.69,"N_COORD97":2543437.8900000001,"ADDRESS":"慶東街１４３號","OBJECTID":208824},"geometry":{"x":169659.69000000041,"y":2543437.8900000006}},{"attributes":{"ID":208826,"DIS_CODE":0,"TOWNNAME":"東區","LI":"圍下里","LIN":"19鄰","STREET":"慶東街","SECT":" ","MAREA":" ","LANE":" ","ALLEY":" ","HOUSE_NO":"１４５號","E_COORD97":169660.35000000001,"N_COORD97":2543441.8300000001,"ADDRESS":"慶東街１４５號","OBJECTID":208825},"geometry":{"x":169660.35000000056,"y":2543441.8300000001}},{"attributes":{"ID":208827,"DIS_CODE":0,"TOWNNAME":"官田區","LI":"隆本里","LIN":"4鄰","STREET":"中華路","SECT":"二段","MAREA":" ","LANE":" ","ALLEY":" ","HOUSE_NO":"１０６號","E_COORD97":180075.67999999999,"N_COORD97":2566523.6499999999,"ADDRESS":"中華路二段１０６號","OBJECTID":208826},"geometry":{"x":180075.6799999997,"y":2566523.6500000022}},{"attributes":{"ID":208828,"DIS_CODE":0,"TOWNNAME":"官田區","LI":"隆田里","LIN":"19鄰","STREET":"中華路","SECT":"一段","MAREA":" ","LANE":" ","ALLEY":" ","HOUSE_NO":"２號","E_COORD97":180963.75,"N_COORD97":2565587.9300000002,"ADDRESS":"中華路一段２號","OBJECTID":208827},"geometry":{"x":180963.75,"y":2565587.9300000016}},{"attributes":{"ID":208829,"DIS_CODE":0,"TOWNNAME":"白河區","LI":"白河里","LIN":"3鄰","STREET":"新起街","SECT":" ","MAREA":" ","LANE":" ","ALLEY":" ","HOUSE_NO":"１號","E_COORD97":190256.07999999999,"N_COORD97":2582908.8900000001,"ADDRESS":"新起街１號","OBJECTID":208828},"geometry":{"x":190256.08000000101,"y":2582908.8900000006}},{"attributes":{"ID":208830,"DIS_CODE":0,"TOWNNAME":"白河區","LI":"外角里","LIN":"4鄰","STREET":"開明街","SECT":" ","MAREA":" ","LANE":" ","ALLEY":" ","HOUSE_NO":"１５３號","E_COORD97":190582.03,"N_COORD97":2583187.27,"ADDRESS":"開明街１５３號","OBJECTID":208829},"geometry":{"x":190582.03000000119,"y":2583187.2699999996}},{"attributes":{"ID":208831,"DIS_CODE":0,"TOWNNAME":"白河區","LI":"外角里","LIN":"4鄰","STREET":"開明街","SECT":" ","MAREA":" ","LANE":" ","ALLEY":" ","HOUSE_NO":"１５５號","E_COORD97":190575.85000000001,"N_COORD97":2583185.9199999999,"ADDRESS":"開明街１５５號","OBJECTID":208830},"geometry":{"x":190575.85000000056,"y":2583185.9199999999}},{"attributes":{"ID":208832,"DIS_CODE":0,"TOWNNAME":"永康區","LI":"西灣里","LIN":"32鄰","STREET":"公園路","SECT":" ","MAREA":" ","LANE":"９３巷","ALLEY":"１２弄","HOUSE_NO":"２１號","E_COORD97":174213.54999999999,"N_COORD97":2545852.7999999998,"ADDRESS":"公園路９３巷１２弄２１號","OBJECTID":208831},"geometry":{"x":174213.54999999981,"y":2545852.8000000007}},{"attributes":{"ID":208833,"DIS_CODE":0,"TOWNNAME":"永康區","LI":"西灣里","LIN":"32鄰","STREET":"公園路","SECT":" ","MAREA":" ","LANE":"９３巷","ALLEY":"１２弄","HOUSE_NO":"１３號","E_COORD97":174228.92000000001,"N_COORD97":2545856.7999999998,"ADDRESS":"公園路９３巷１２弄１３號","OBJECTID":208832},"geometry":{"x":174228.92000000086,"y":2545856.8000000007}},{"attributes":{"ID":208834,"DIS_CODE":0,"TOWNNAME":"永康區","LI":"西灣里","LIN":"32鄰","STREET":"國光八街","SECT":" ","MAREA":" ","LANE":"６０巷","ALLEY":"３弄","HOUSE_NO":"１６號","E_COORD97":174230.34,"N_COORD97":2545823.6400000001,"ADDRESS":"國光八街６０巷３弄１６號","OBJECTID":208833},"geometry":{"x":174230.33999999892,"y":2545823.6400000006}},{"attributes":{"ID":208835,"DIS_CODE":0,"TOWNNAME":"永康區","LI":"建國里","LIN":"32鄰","STREET":"復興路","SECT":" ","MAREA":" ","LANE":"１巷","ALLEY":"３０弄","HOUSE_NO":"１１號","E_COORD97":173093.70999999999,"N_COORD97":2544085.9900000002,"ADDRESS":"復興路１巷３０弄１１號","OBJECTID":208834},"geometry":{"x":173093.70999999996,"y":2544085.9900000021}},{"attributes":{"ID":208836,"DIS_CODE":0,"TOWNNAME":"永康區","LI":"建國里","LIN":"32鄰","STREET":"復興路","SECT":" ","MAREA":" ","LANE":"１巷","ALLEY":"３０弄","HOUSE_NO":"３號","E_COORD97":173134.97,"N_COORD97":2544085.9900000002,"ADDRESS":"復興路１巷３０弄３號","OBJECTID":208835},"geometry":{"x":173134.97000000067,"y":2544085.9900000021}},{"attributes":{"ID":208837,"DIS_CODE":0,"TOWNNAME":"永康區","LI":"建國里","LIN":"32鄰","STREET":"復興路","SECT":" ","MAREA":" ","LANE":"１巷","ALLEY":"３０弄","HOUSE_NO":"１５５號","E_COORD97":173082,"N_COORD97":2543672.5499999998,"ADDRESS":"復興路１巷３０弄１５５號","OBJECTID":208836},"geometry":{"x":173082.00000000186,"y":2543672.5500000026}},{"attributes":{"ID":208838,"DIS_CODE":0,"TOWNNAME":"永康區","LI":"建國里","LIN":"32鄰","STREET":"復興路","SECT":" ","MAREA":" ","LANE":"１巷","ALLEY":"３０弄","HOUSE_NO":"７２號","E_COORD97":173058.84,"N_COORD97":2543933.1800000002,"ADDRESS":"復興路１巷３０弄７２號","OBJECTID":208837},"geometry":{"x":173058.83999999985,"y":2543933.1799999997}},{"attributes":{"ID":208839,"DIS_CODE":0,"TOWNNAME":"永康區","LI":"建國里","LIN":"32鄰","STREET":"復興路","SECT":" ","MAREA":" ","LANE":"１巷","ALLEY":"３０弄","HOUSE_NO":"１２號","E_COORD97":173057.12,"N_COORD97":2544068.0299999998,"ADDRESS":"復興路１巷３０弄１２號","OBJECTID":208838},"geometry":{"x":173057.12000000011,"y":2544068.0300000012}},{"attributes":{"ID":208840,"DIS_CODE":0,"TOWNNAME":"佳里區","LI":"安西里","LIN":"32鄰","STREET":"光華街","SECT":" ","MAREA":" ","LANE":"１３０巷","ALLEY":"１６弄","HOUSE_NO":"２號","E_COORD97":165066.5,"N_COORD97":2562869.6299999999,"ADDRESS":"光華街１３０巷１６弄２號","OBJECTID":208839},"geometry":{"x":165066.5,"y":2562869.6300000027}},{"attributes":{"ID":208841,"DIS_CODE":0,"TOWNNAME":"佳里區","LI":"安西里","LIN":"32鄰","STREET":"光華街","SECT":" ","MAREA":" ","LANE":"１３０巷","ALLEY":"１６弄","HOUSE_NO":"６號","E_COORD97":165087.09,"N_COORD97":2562869.6899999999,"ADDRESS":"光華街１３０巷１６弄６號","OBJECTID":208840},"geometry":{"x":165087.09000000078,"y":2562869.6900000032}},{"attributes":{"ID":208842,"DIS_CODE":0,"TOWNNAME":"白河區","LI":"外角里","LIN":"4鄰","STREET":"開明街","SECT":" ","MAREA":" ","LANE":" ","ALLEY":" ","HOUSE_NO":"１５９號","E_COORD97":190564.19,"N_COORD97":2583182.7799999998,"ADDRESS":"開明街１５９號","OBJECTID":208841},"geometry":{"x":190564.19000000134,"y":2583182.7799999993}},{"attributes":{"ID":208843,"DIS_CODE":0,"TOWNNAME":"官田區","LI":"社子里","LIN":"2鄰","STREET":" ","SECT":" ","MAREA":"社子","LANE":" ","ALLEY":" ","HOUSE_NO":"２號","E_COORD97":184269.01000000001,"N_COORD97":2564589.8700000001,"ADDRESS":"社子２號","OBJECTID":208842},"geometry":{"x":184269.00999999978,"y":2564589.8700000029}},{"attributes":{"ID":208844,"DIS_CODE":0,"TOWNNAME":"大內區","LI":"頭社里","LIN":"2鄰","STREET":" ","SECT":" ","MAREA":"頭社","LANE":" ","ALLEY":" ","HOUSE_NO":"２８號之９","E_COORD97":187055.35999999999,"N_COORD97":2560508.2999999998,"ADDRESS":"頭社２８號之９","OBJECTID":208843},"geometry":{"x":187055.36000000127,"y":2560508.3000000026}},{"attributes":{"ID":208845,"DIS_CODE":0,"TOWNNAME":"新化區","LI":"崙頂里","LIN":"2鄰","STREET":" ","SECT":" ","MAREA":"崙子頂","LANE":" ","ALLEY":" ","HOUSE_NO":"８５號之８","E_COORD97":176886.44,"N_COORD97":2546650.2599999998,"ADDRESS":"崙子頂８５號之８","OBJECTID":208844},"geometry":{"x":176886.44000000041,"y":2546650.2600000016}},{"attributes":{"ID":208846,"DIS_CODE":0,"TOWNNAME":"安定區","LI":"中榮里","LIN":"9鄰","STREET":" ","SECT":" ","MAREA":"許中營","LANE":" ","ALLEY":" ","HOUSE_NO":"７６之１８號","E_COORD97":172591.78708400001,"N_COORD97":2555094.02563,"ADDRESS":"許中營７６之１８號","OBJECTID":208845},"geometry":{"x":172591.78708400019,"y":2555094.025626}},{"attributes":{"ID":208847,"DIS_CODE":0,"TOWNNAME":"安定區","LI":"新吉里","LIN":"9鄰","STREET":" ","SECT":" ","MAREA":"新吉","LANE":" ","ALLEY":" ","HOUSE_NO":"７３之１８號","E_COORD97":169220.62,"N_COORD97":2554062.2999999998,"ADDRESS":"新吉７３之１８號","OBJECTID":208846},"geometry":{"x":169220.62000000011,"y":2554062.3000000026}},{"attributes":{"ID":208848,"DIS_CODE":0,"TOWNNAME":"永康區","LI":"建國里","LIN":"32鄰","STREET":"復興路","SECT":" ","MAREA":" ","LANE":"１巷","ALLEY":"４１弄","HOUSE_NO":"１４號","E_COORD97":173108.07000000001,"N_COORD97":2544026.1099999999,"ADDRESS":"復興路１巷４１弄１４號","OBJECTID":208847},"geometry":{"x":173108.0700000003,"y":2544026.1099999975}},{"attributes":{"ID":208849,"DIS_CODE":0,"TOWNNAME":"安定區","LI":"安加里","LIN":"9鄰","STREET":" ","SECT":" ","MAREA":"安定","LANE":" ","ALLEY":" ","HOUSE_NO":"２５６之７號","E_COORD97":171762.01999999999,"N_COORD97":2557260.3199999998,"ADDRESS":"安定２５６之７號","OBJECTID":208848},"geometry":{"x":171762.01999999955,"y":2557260.3200000003}},{"attributes":{"ID":208850,"DIS_CODE":0,"TOWNNAME":"安定區","LI":"安加里","LIN":"9鄰","STREET":" ","SECT":" ","MAREA":"安定","LANE":" ","ALLEY":" ","HOUSE_NO":"２５０之２號","E_COORD97":171748.22,"N_COORD97":2557394.3199999998,"ADDRESS":"安定２５０之２號","OBJECTID":208849},"geometry":{"x":171748.22000000067,"y":2557394.3200000022}},{"attributes":{"ID":208851,"DIS_CODE":0,"TOWNNAME":"安定區","LI":"新吉里","LIN":"9鄰","STREET":" ","SECT":" ","MAREA":"新吉","LANE":" ","ALLEY":" ","HOUSE_NO":"７３之１６號","E_COORD97":169212.22,"N_COORD97":2554063.2999999998,"ADDRESS":"新吉７３之１６號","OBJECTID":208850},"geometry":{"x":169212.22000000067,"y":2554063.3000000026}},{"attributes":{"ID":208852,"DIS_CODE":0,"TOWNNAME":"安定區","LI":"管寮里","LIN":"9鄰","STREET":" ","SECT":" ","MAREA":"管寮","LANE":" ","ALLEY":" ","HOUSE_NO":"８６號","E_COORD97":169830.94,"N_COORD97":2556422.25,"ADDRESS":"管寮８６號","OBJECTID":208851},"geometry":{"x":169830.94000000041,"y":2556422.2500000019}},{"attributes":{"ID":208853,"DIS_CODE":0,"TOWNNAME":"安定區","LI":"管寮里","LIN":"9鄰","STREET":" ","SECT":" ","MAREA":"管寮","LANE":" ","ALLEY":" ","HOUSE_NO":"８１之１號","E_COORD97":169824.54000000001,"N_COORD97":2556449.2999999998,"ADDRESS":"管寮８１之１號","OBJECTID":208852},"geometry":{"x":169824.54000000004,"y":2556449.3000000026}},{"attributes":{"ID":208854,"DIS_CODE":0,"TOWNNAME":"安定區","LI":"蘇厝里","LIN":"9鄰","STREET":" ","SECT":" ","MAREA":"蘇厝","LANE":" ","ALLEY":" ","HOUSE_NO":"３６４之５號","E_COORD97":172983.22,"N_COORD97":2558906.2999999998,"ADDRESS":"蘇厝３６４之５號","OBJECTID":208853},"geometry":{"x":172983.21999999974,"y":2558906.3000000007}},{"attributes":{"ID":208855,"DIS_CODE":0,"TOWNNAME":"安定區","LI":"蘇厝里","LIN":"9鄰","STREET":" ","SECT":" ","MAREA":"蘇厝","LANE":" ","ALLEY":" ","HOUSE_NO":"３６４之２號","E_COORD97":172983.01999999999,"N_COORD97":2558910.2999999998,"ADDRESS":"蘇厝３６４之２號","OBJECTID":208854},"geometry":{"x":172983.02000000142,"y":2558910.3000000045}},{"attributes":{"ID":208856,"DIS_CODE":0,"TOWNNAME":"安定區","LI":"蘇厝里","LIN":"9鄰","STREET":" ","SECT":" ","MAREA":"蘇厝","LANE":" ","ALLEY":" ","HOUSE_NO":"３６０之２號","E_COORD97":172893.62,"N_COORD97":2558828.2999999998,"ADDRESS":"蘇厝３６０之２號","OBJECTID":208855},"geometry":{"x":172893.62000000104,"y":2558828.3000000007}},{"attributes":{"ID":208857,"DIS_CODE":0,"TOWNNAME":"安定區","LI":"蘇林里","LIN":"9鄰","STREET":" ","SECT":" ","MAREA":"蘇厝","LANE":" ","ALLEY":" ","HOUSE_NO":"１０２號","E_COORD97":173537.12,"N_COORD97":2558893.25,"ADDRESS":"蘇厝１０２號","OBJECTID":208856},"geometry":{"x":173537.11999999918,"y":2558893.2500000019}},{"attributes":{"ID":208858,"DIS_CODE":0,"TOWNNAME":"永康區","LI":"尚頂里","LIN":"32鄰","STREET":"中正南路","SECT":" ","MAREA":" ","LANE":"２３５巷","ALLEY":"６弄","HOUSE_NO":"４號","E_COORD97":170082.73999999999,"N_COORD97":2547428.23,"ADDRESS":"中正南路２３５巷６弄４號","OBJECTID":208857},"geometry":{"x":170082.74000000022,"y":2547428.2300000023}},{"attributes":{"ID":208859,"DIS_CODE":0,"TOWNNAME":"永康區","LI":"尚頂里","LIN":"32鄰","STREET":"中正南路","SECT":" ","MAREA":" ","LANE":"２３５巷","ALLEY":"６弄","HOUSE_NO":"１７號","E_COORD97":170101.44,"N_COORD97":2547477,"ADDRESS":"中正南路２３５巷６弄１７號","OBJECTID":208858},"geometry":{"x":170101.44000000134,"y":2547477.0000000019}},{"attributes":{"ID":208860,"DIS_CODE":0,"TOWNNAME":"安定區","LI":"蘇林里","LIN":"9鄰","STREET":" ","SECT":" ","MAREA":"蘇厝","LANE":" ","ALLEY":" ","HOUSE_NO":"１００之１號","E_COORD97":173543.01999999999,"N_COORD97":2558830.2999999998,"ADDRESS":"蘇厝１００之１號","OBJECTID":208859},"geometry":{"x":173543.02000000048,"y":2558830.3000000026}},{"attributes":{"ID":208861,"DIS_CODE":0,"TOWNNAME":"新市區","LI":"三舍里","LIN":"9鄰","STREET":" ","SECT":" ","MAREA":"三舍","LANE":" ","ALLEY":" ","HOUSE_NO":"１９１號","E_COORD97":177456.79000000001,"N_COORD97":2554986.5,"ADDRESS":"三舍１９１號","OBJECTID":208860},"geometry":{"x":177456.79000000004,"y":2554986.5000000019}},{"attributes":{"ID":208862,"DIS_CODE":0,"TOWNNAME":"仁德區","LI":"後壁里","LIN":"24鄰","STREET":"中正路","SECT":"二段","MAREA":" ","LANE":" ","ALLEY":" ","HOUSE_NO":"２２１號","E_COORD97":173219.01000000001,"N_COORD97":2538876.2799999998,"ADDRESS":"中正路二段２２１號","OBJECTID":208861},"geometry":{"x":173219.01000000164,"y":2538876.2800000012}},{"attributes":{"ID":208863,"DIS_CODE":0,"TOWNNAME":"安定區","LI":"安加里","LIN":"9鄰","STREET":" ","SECT":" ","MAREA":"安定","LANE":" ","ALLEY":" ","HOUSE_NO":"２５６之６６號","E_COORD97":171874.5,"N_COORD97":2557292.6899999999,"ADDRESS":"安定２５６之６６號","OBJECTID":208862},"geometry":{"x":171874.5,"y":2557292.6900000013}},{"attributes":{"ID":208864,"DIS_CODE":0,"TOWNNAME":"安定區","LI":"安加里","LIN":"9鄰","STREET":" ","SECT":" ","MAREA":"安定","LANE":" ","ALLEY":" ","HOUSE_NO":"２５６之６７號","E_COORD97":171872.29000000001,"N_COORD97":2557298.5699999998,"ADDRESS":"安定２５６之６７號","OBJECTID":208863},"geometry":{"x":171872.29000000004,"y":2557298.5700000022}},{"attributes":{"ID":208865,"DIS_CODE":0,"TOWNNAME":"安定區","LI":"安加里","LIN":"9鄰","STREET":" ","SECT":" ","MAREA":"安定","LANE":" ","ALLEY":" ","HOUSE_NO":"２５６之７５號","E_COORD97":171821.735212,"N_COORD97":2557278.3355,"ADDRESS":"安定２５６之７５號","OBJECTID":208864},"geometry":{"x":171821.73521200195,"y":2557278.335497003}},{"attributes":{"ID":208866,"DIS_CODE":0,"TOWNNAME":"安定區","LI":"安加里","LIN":"9鄰","STREET":" ","SECT":" ","MAREA":"安定","LANE":" ","ALLEY":" ","HOUSE_NO":"２５６之７６號","E_COORD97":171819.77564400001,"N_COORD97":2557288.3367400002,"ADDRESS":"安定２５６之７６號","OBJECTID":208865},"geometry":{"x":171819.77564399876,"y":2557288.3367420025}},{"attributes":{"ID":208867,"DIS_CODE":0,"TOWNNAME":"安定區","LI":"安加里","LIN":"9鄰","STREET":" ","SECT":" ","MAREA":"安定","LANE":" ","ALLEY":" ","HOUSE_NO":"２５６之７７號","E_COORD97":171809.63355200001,"N_COORD97":2557288.8394499999,"ADDRESS":"安定２５６之７７號","OBJECTID":208866},"geometry":{"x":171809.63355199993,"y":2557288.8394499999}},{"attributes":{"ID":208868,"DIS_CODE":0,"TOWNNAME":"新市區","LI":"豐華里","LIN":"9鄰","STREET":"南科三路","SECT":" ","MAREA":" ","LANE":" ","ALLEY":" ","HOUSE_NO":"１號","E_COORD97":176720.41,"N_COORD97":2555389,"ADDRESS":"南科三路１號","OBJECTID":208867},"geometry":{"x":176720.40999999922,"y":2555389.0000000037}},{"attributes":{"ID":208869,"DIS_CODE":0,"TOWNNAME":"安定區","LI":"安加里","LIN":"9鄰","STREET":" ","SECT":" ","MAREA":"安定","LANE":" ","ALLEY":" ","HOUSE_NO":"２５６之７８號","E_COORD97":171804.628707,"N_COORD97":2557288.1250700001,"ADDRESS":"安定２５６之７８號","OBJECTID":208868},"geometry":{"x":171804.62870700005,"y":2557288.1250750013}},{"attributes":{"ID":208870,"DIS_CODE":0,"TOWNNAME":"新市區","LI":"豐華里","LIN":"9鄰","STREET":"南科三路","SECT":" ","MAREA":" ","LANE":" ","ALLEY":" ","HOUSE_NO":"５號","E_COORD97":176679.19,"N_COORD97":2555374.75,"ADDRESS":"南科三路５號","OBJECTID":208869},"geometry":{"x":176679.19000000041,"y":2555374.7500000019}},{"attributes":{"ID":208871,"DIS_CODE":0,"TOWNNAME":"安定區","LI":"安加里","LIN":"9鄰","STREET":" ","SECT":" ","MAREA":"安定","LANE":" ","ALLEY":" ","HOUSE_NO":"２５６之７９號","E_COORD97":171799.88866999999,"N_COORD97":2557287.3048700001,"ADDRESS":"安定２５６之７９號","OBJECTID":208870},"geometry":{"x":171799.88867000025,"y":2557287.3048670013}},{"attributes":{"ID":208872,"DIS_CODE":0,"TOWNNAME":"永康區","LI":"建國里","LIN":"32鄰","STREET":"復興路","SECT":" ","MAREA":" ","LANE":"１巷","ALLEY":"３０弄","HOUSE_NO":"９７號之１","E_COORD97":173150.57000000001,"N_COORD97":2543832.8900000001,"ADDRESS":"復興路１巷３０弄９７號之１","OBJECTID":208871},"geometry":{"x":173150.5700000003,"y":2543832.8900000025}},{"attributes":{"ID":208873,"DIS_CODE":0,"TOWNNAME":"新市區","LI":"豐華里","LIN":"9鄰","STREET":"環西路","SECT":"一段","MAREA":" ","LANE":" ","ALLEY":" ","HOUSE_NO":"６號","E_COORD97":176540.19,"N_COORD97":2554739.5,"ADDRESS":"環西路一段６號","OBJECTID":208872},"geometry":{"x":176540.19000000041,"y":2554739.5000000019}},{"attributes":{"ID":208874,"DIS_CODE":0,"TOWNNAME":"永康區","LI":"西灣里","LIN":"32鄰","STREET":"公園路","SECT":" ","MAREA":" ","LANE":"９３巷","ALLEY":"１２弄","HOUSE_NO":"１７號","E_COORD97":174221.23999999999,"N_COORD97":2545855.0499999998,"ADDRESS":"公園路９３巷１２弄１７號","OBJECTID":208873},"geometry":{"x":174221.23999999929,"y":2545855.0500000007}},{"attributes":{"ID":208875,"DIS_CODE":0,"TOWNNAME":"永康區","LI":"建國里","LIN":"32鄰","STREET":"復興路","SECT":" ","MAREA":" ","LANE":"１巷","ALLEY":"４１弄","HOUSE_NO":"１８號","E_COORD97":173094.45999999999,"N_COORD97":2544026.4100000001,"ADDRESS":"復興路１巷４１弄１８號","OBJECTID":208874},"geometry":{"x":173094.46000000089,"y":2544026.410000002}},{"attributes":{"ID":208876,"DIS_CODE":0,"TOWNNAME":"永康區","LI":"尚頂里","LIN":"32鄰","STREET":"中正南路","SECT":" ","MAREA":" ","LANE":"２３５巷","ALLEY":"６弄","HOUSE_NO":"９號","E_COORD97":170072.95000000001,"N_COORD97":2547439.6099999999,"ADDRESS":"中正南路２３５巷６弄９號","OBJECTID":208875},"geometry":{"x":170072.95000000019,"y":2547439.6099999994}},{"attributes":{"ID":208877,"DIS_CODE":0,"TOWNNAME":"新市區","LI":"豐華里","LIN":"9鄰","STREET":"南科三路","SECT":" ","MAREA":" ","LANE":" ","ALLEY":" ","HOUSE_NO":"１１號","E_COORD97":176616.73999999999,"N_COORD97":2555363.25,"ADDRESS":"南科三路１１號","OBJECTID":208876},"geometry":{"x":176616.74000000209,"y":2555363.2500000037}},{"attributes":{"ID":208878,"DIS_CODE":0,"TOWNNAME":"安定區","LI":"安加里","LIN":"9鄰","STREET":" ","SECT":" ","MAREA":"安定","LANE":" ","ALLEY":" ","HOUSE_NO":"２５６之８０號","E_COORD97":171817.28646199999,"N_COORD97":2557266.42925,"ADDRESS":"安定２５６之８０號","OBJECTID":208877},"geometry":{"x":171817.28646199964,"y":2557266.4292539991}},{"attributes":{"ID":208879,"DIS_CODE":0,"TOWNNAME":"安南區","LI":"安西里","LIN":"9鄰","STREET":"安和路","SECT":"一段","MAREA":" ","LANE":" ","ALLEY":" ","HOUSE_NO":"２８７號","E_COORD97":169278.57000000001,"N_COORD97":2548081.1499999999,"ADDRESS":"安和路一段２８７號","OBJECTID":208878},"geometry":{"x":169278.5700000003,"y":2548081.1500000004}},{"attributes":{"ID":208880,"DIS_CODE":0,"TOWNNAME":"新化區","LI":"崙頂里","LIN":"2鄰","STREET":" ","SECT":" ","MAREA":"崙子頂","LANE":" ","ALLEY":" ","HOUSE_NO":"７９號","E_COORD97":176865.57999999999,"N_COORD97":2546798.25,"ADDRESS":"崙子頂７９號","OBJECTID":208879},"geometry":{"x":176865.58000000101,"y":2546798.25}},{"attributes":{"ID":208881,"DIS_CODE":0,"TOWNNAME":"新化區","LI":"崙頂里","LIN":"2鄰","STREET":" ","SECT":" ","MAREA":"崙子頂","LANE":" ","ALLEY":" ","HOUSE_NO":"８４號之３","E_COORD97":176893.13,"N_COORD97":2546696.2599999998,"ADDRESS":"崙子頂８４號之３","OBJECTID":208880},"geometry":{"x":176893.12999999989,"y":2546696.2599999998}},{"attributes":{"ID":208882,"DIS_CODE":0,"TOWNNAME":"新化區","LI":"崙頂里","LIN":"2鄰","STREET":" ","SECT":" ","MAREA":"崙子頂","LANE":" ","ALLEY":" ","HOUSE_NO":"８４號之２","E_COORD97":176879.03,"N_COORD97":2546696.2599999998,"ADDRESS":"崙子頂８４號之２","OBJECTID":208881},"geometry":{"x":176879.03000000026,"y":2546696.2599999998}},{"attributes":{"ID":208883,"DIS_CODE":0,"TOWNNAME":"新化區","LI":"全興里","LIN":"2鄰","STREET":" ","SECT":" ","MAREA":"竹子\u25A0","LANE":" ","ALLEY":" ","HOUSE_NO":"２００號之４３","E_COORD97":178118.63,"N_COORD97":2547559.2599999998,"ADDRESS":"竹子\u25A0２００號之４３","OBJECTID":208882},"geometry":{"x":178118.62999999989,"y":2547559.2600000016}},{"attributes":{"ID":208884,"DIS_CODE":0,"TOWNNAME":"新化區","LI":"崙頂里","LIN":"2鄰","STREET":" ","SECT":" ","MAREA":"崙子頂","LANE":" ","ALLEY":" ","HOUSE_NO":"９１號","E_COORD97":176843.78,"N_COORD97":2546694.25,"ADDRESS":"崙子頂９１號","OBJECTID":208883},"geometry":{"x":176843.78000000119,"y":2546694.2500000037}},{"attributes":{"ID":208885,"DIS_CODE":0,"TOWNNAME":"新化區","LI":"崙頂里","LIN":"2鄰","STREET":" ","SECT":" ","MAREA":"崙子頂","LANE":" ","ALLEY":" ","HOUSE_NO":"７６號","E_COORD97":176885.07999999999,"N_COORD97":2546768.25,"ADDRESS":"崙子頂７６號","OBJECTID":208884},"geometry":{"x":176885.08000000007,"y":2546768.25}},{"attributes":{"ID":208886,"DIS_CODE":0,"TOWNNAME":"新化區","LI":"知義里","LIN":"2鄰","STREET":" ","SECT":" ","MAREA":"知母義","LANE":" ","ALLEY":" ","HOUSE_NO":"６５號","E_COORD97":179853.26999999999,"N_COORD97":2547037.25,"ADDRESS":"知母義６５號","OBJECTID":208885},"geometry":{"x":179853.26999999955,"y":2547037.2500000019}},{"attributes":{"ID":208887,"DIS_CODE":0,"TOWNNAME":"新化區","LI":"崙頂里","LIN":"2鄰","STREET":" ","SECT":" ","MAREA":"崙子頂","LANE":" ","ALLEY":" ","HOUSE_NO":"８８號之４","E_COORD97":176867.70999999999,"N_COORD97":2546622.2599999998,"ADDRESS":"崙子頂８８號之４","OBJECTID":208886},"geometry":{"x":176867.71000000089,"y":2546622.2599999998}},{"attributes":{"ID":208888,"DIS_CODE":0,"TOWNNAME":"新化區","LI":"北勢里","LIN":"2鄰","STREET":" ","SECT":" ","MAREA":"北勢","LANE":" ","ALLEY":" ","HOUSE_NO":"３１號之２","E_COORD97":177905.54999999999,"N_COORD97":2549700.75,"ADDRESS":"北勢３１號之２","OBJECTID":208887},"geometry":{"x":177905.54999999981,"y":2549700.75}},{"attributes":{"ID":208889,"DIS_CODE":0,"TOWNNAME":"新化區","LI":"全興里","LIN":"2鄰","STREET":" ","SECT":" ","MAREA":"竹子\u25A0","LANE":" ","ALLEY":" ","HOUSE_NO":"１９６號之１０","E_COORD97":177769.5,"N_COORD97":2547790.2400000002,"ADDRESS":"竹子\u25A0１９６號之１０","OBJECTID":208888},"geometry":{"x":177769.50000000093,"y":2547790.2400000021}},{"attributes":{"ID":208890,"DIS_CODE":0,"TOWNNAME":"新化區","LI":"全興里","LIN":"2鄰","STREET":" ","SECT":" ","MAREA":"竹子\u25A0","LANE":" ","ALLEY":" ","HOUSE_NO":"２００號之３５","E_COORD97":177980.98000000001,"N_COORD97":2547673.7799999998,"ADDRESS":"竹子\u25A0２００號之３５","OBJECTID":208889},"geometry":{"x":177980.98000000045,"y":2547673.7800000012}},{"attributes":{"ID":208891,"DIS_CODE":0,"TOWNNAME":"新化區","LI":"崙頂里","LIN":"2鄰","STREET":" ","SECT":" ","MAREA":"崙子頂","LANE":" ","ALLEY":" ","HOUSE_NO":"８８號之１","E_COORD97":176850.31,"N_COORD97":2546640.5299999998,"ADDRESS":"崙子頂８８號之１","OBJECTID":208890},"geometry":{"x":176850.30999999959,"y":2546640.5299999975}},{"attributes":{"ID":208892,"DIS_CODE":0,"TOWNNAME":"永康區","LI":"尚頂里","LIN":"32鄰","STREET":"中正南路","SECT":" ","MAREA":" ","LANE":"２３５巷","ALLEY":"６弄","HOUSE_NO":"７號","E_COORD97":170064.67000000001,"N_COORD97":2547430.1099999999,"ADDRESS":"中正南路２３５巷６弄７號","OBJECTID":208891},"geometry":{"x":170064.66999999993,"y":2547430.1100000031}},{"attributes":{"ID":208893,"DIS_CODE":0,"TOWNNAME":"安南區","LI":"安西里","LIN":"9鄰","STREET":"安和路","SECT":"一段","MAREA":" ","LANE":" ","ALLEY":" ","HOUSE_NO":"２９５號","E_COORD97":169272.57000000001,"N_COORD97":2548107.5699999998,"ADDRESS":"安和路一段２９５號","OBJECTID":208892},"geometry":{"x":169272.57000000216,"y":2548107.5700000022}},{"attributes":{"ID":208894,"DIS_CODE":0,"TOWNNAME":"永康區","LI":"建國里","LIN":"32鄰","STREET":"復興路","SECT":" ","MAREA":" ","LANE":"１巷","ALLEY":"３０弄","HOUSE_NO":"１３號","E_COORD97":173082.67000000001,"N_COORD97":2544085.9900000002,"ADDRESS":"復興路１巷３０弄１３號","OBJECTID":208893},"geometry":{"x":173082.67000000086,"y":2544085.9900000021}},{"attributes":{"ID":208895,"DIS_CODE":0,"TOWNNAME":"安南區","LI":"安西里","LIN":"9鄰","STREET":"安和路","SECT":"一段","MAREA":" ","LANE":" ","ALLEY":" ","HOUSE_NO":"２９７號","E_COORD97":169271.18469600001,"N_COORD97":2548115.1899799998,"ADDRESS":"安和路一段２９７號","OBJECTID":208894},"geometry":{"x":169271.18469600007,"y":2548115.1899839994}},{"attributes":{"ID":208896,"DIS_CODE":0,"TOWNNAME":"永康區","LI":"尚頂里","LIN":"32鄰","STREET":"中正南路","SECT":" ","MAREA":" ","LANE":"２３５巷","ALLEY":"６弄","HOUSE_NO":"２號","E_COORD97":170063.07999999999,"N_COORD97":2547411.1200000001,"ADDRESS":"中正南路２３５巷６弄２號","OBJECTID":208895},"geometry":{"x":170063.08000000101,"y":2547411.120000001}},{"attributes":{"ID":208897,"DIS_CODE":0,"TOWNNAME":"永康區","LI":"建國里","LIN":"32鄰","STREET":"復興路","SECT":" ","MAREA":" ","LANE":"１巷","ALLEY":"３０弄","HOUSE_NO":"２５號","E_COORD97":173082.85999999999,"N_COORD97":2544019.1800000002,"ADDRESS":"復興路１巷３０弄２５號","OBJECTID":208896},"geometry":{"x":173082.86000000034,"y":2544019.1799999978}},{"attributes":{"ID":208898,"DIS_CODE":0,"TOWNNAME":"永康區","LI":"西灣里","LIN":"32鄰","STREET":"公園路","SECT":" ","MAREA":" ","LANE":"９３巷","ALLEY":"１２弄","HOUSE_NO":"１號","E_COORD97":174252.78,"N_COORD97":2545862.7999999998,"ADDRESS":"公園路９３巷１２弄１號","OBJECTID":208897},"geometry":{"x":174252.78000000026,"y":2545862.8000000007}},{"attributes":{"ID":208899,"DIS_CODE":0,"TOWNNAME":"永康區","LI":"建國里","LIN":"32鄰","STREET":"復興路","SECT":" ","MAREA":" ","LANE":"１巷","ALLEY":"３０弄","HOUSE_NO":"１３５號","E_COORD97":173100.47,"N_COORD97":2543731.7400000002,"ADDRESS":"復興路１巷３０弄１３５號","OBJECTID":208898},"geometry":{"x":173100.4700000016,"y":2543731.7400000021}},{"attributes":{"ID":208900,"DIS_CODE":0,"TOWNNAME":"佳里區","LI":"安西里","LIN":"32鄰","STREET":"光華街","SECT":" ","MAREA":" ","LANE":"１３０巷","ALLEY":"３４弄","HOUSE_NO":"１號","E_COORD97":165084.5,"N_COORD97":2562908.2999999998,"ADDRESS":"光華街１３０巷３４弄１號","OBJECTID":208899},"geometry":{"x":165084.50000000093,"y":2562908.3000000026}},{"attributes":{"ID":208901,"DIS_CODE":0,"TOWNNAME":"佳里區","LI":"安西里","LIN":"32鄰","STREET":"光華街","SECT":" ","MAREA":" ","LANE":"１３０巷","ALLEY":"３４弄","HOUSE_NO":"２號","E_COORD97":165096.95000000001,"N_COORD97":2562906.8900000001,"ADDRESS":"光華街１３０巷３４弄２號","OBJECTID":208900},"geometry":{"x":165096.95000000112,"y":2562906.8900000043}},{"attributes":{"ID":208902,"DIS_CODE":0,"TOWNNAME":"佳里區","LI":"安西里","LIN":"32鄰","STREET":"光華街","SECT":" ","MAREA":" ","LANE":"１３０巷","ALLEY":"３４弄","HOUSE_NO":"３號之１","E_COORD97":165097.12,"N_COORD97":2562914.6699999999,"ADDRESS":"光華街１３０巷３４弄３號之１","OBJECTID":208901},"geometry":{"x":165097.12000000104,"y":2562914.6700000018}},{"attributes":{"ID":208903,"DIS_CODE":0,"TOWNNAME":"佳里區","LI":"安西里","LIN":"32鄰","STREET":"光華街","SECT":" ","MAREA":" ","LANE":"１３０巷","ALLEY":"３４弄","HOUSE_NO":"３號","E_COORD97":165097.04000000001,"N_COORD97":2562910.5299999998,"ADDRESS":"光華街１３０巷３４弄３號","OBJECTID":208902},"geometry":{"x":165097.04000000004,"y":2562910.5299999993}},{"attributes":{"ID":208904,"DIS_CODE":0,"TOWNNAME":"新化區","LI":"礁坑里","LIN":"2鄰","STREET":" ","SECT":" ","MAREA":"九層嶺","LANE":" ","ALLEY":" ","HOUSE_NO":"４９號","E_COORD97":185452.39358800001,"N_COORD97":2548493.2138299998,"ADDRESS":"九層嶺４９號","OBJECTID":208903},"geometry":{"x":185452.39358800091,"y":2548493.2138290014}},{"attributes":{"ID":208905,"DIS_CODE":0,"TOWNNAME":"新化區","LI":"礁坑里","LIN":"2鄰","STREET":" ","SECT":" ","MAREA":"九層嶺","LANE":" ","ALLEY":" ","HOUSE_NO":"５１號之２","E_COORD97":185496.25014300001,"N_COORD97":2548531.3138100002,"ADDRESS":"九層嶺５１號之２","OBJECTID":208904},"geometry":{"x":185496.25014299992,"y":2548531.313809}},{"attributes":{"ID":208906,"DIS_CODE":0,"TOWNNAME":"新化區","LI":"山\u25A0里","LIN":"2鄰","STREET":" ","SECT":" ","MAREA":"頂山\u25A0","LANE":" ","ALLEY":" ","HOUSE_NO":"５３號之９０","E_COORD97":178650.64000000001,"N_COORD97":2546308.3300000001,"ADDRESS":"頂山\u25A0５３號之９０","OBJECTID":208905},"geometry":{"x":178650.63999999966,"y":2546308.3300000019}},{"attributes":{"ID":208907,"DIS_CODE":0,"TOWNNAME":"佳里區","LI":"安西里","LIN":"32鄰","STREET":"光華街","SECT":" ","MAREA":" ","LANE":"１３０巷","ALLEY":"３４弄","HOUSE_NO":"５號","E_COORD97":165096.94,"N_COORD97":2562919.1299999999,"ADDRESS":"光華街１３０巷３４弄５號","OBJECTID":208906},"geometry":{"x":165096.94000000134,"y":2562919.129999999}},{"attributes":{"ID":208908,"DIS_CODE":0,"TOWNNAME":"善化區","LI":"什乃里","LIN":"2鄰","STREET":" ","SECT":" ","MAREA":"什乃","LANE":" ","ALLEY":" ","HOUSE_NO":"２１號","E_COORD97":176178.70999999999,"N_COORD97":2560677,"ADDRESS":"什乃２１號","OBJECTID":208907},"geometry":{"x":176178.70999999996,"y":2560677}},{"attributes":{"ID":208909,"DIS_CODE":0,"TOWNNAME":"佳里區","LI":"安西里","LIN":"32鄰","STREET":"光華街","SECT":" ","MAREA":" ","LANE":"１３０巷","ALLEY":"３４弄","HOUSE_NO":"６號","E_COORD97":165082.73999999999,"N_COORD97":2562918.0600000001,"ADDRESS":"光華街１３０巷３４弄６號","OBJECTID":208908},"geometry":{"x":165082.74000000115,"y":2562918.0600000005}},{"attributes":{"ID":208910,"DIS_CODE":0,"TOWNNAME":"安南區","LI":"\u25A0南里","LIN":"32鄰","STREET":"安昌街","SECT":" ","MAREA":" ","LANE":"１７４巷","ALLEY":"３９弄","HOUSE_NO":"１５號","E_COORD97":170171.42000000001,"N_COORD97":2552356.2799999998,"ADDRESS":"安昌街１７４巷３９弄１５號","OBJECTID":208909},"geometry":{"x":170171.41999999993,"y":2552356.2800000012}},{"attributes":{"ID":208911,"DIS_CODE":0,"TOWNNAME":"新化區","LI":"山\u25A0里","LIN":"2鄰","STREET":" ","SECT":" ","MAREA":"頂山\u25A0","LANE":" ","ALLEY":" ","HOUSE_NO":"５３號之８１","E_COORD97":178841.06,"N_COORD97":2546568.1299999999,"ADDRESS":"頂山\u25A0５３號之８１","OBJECTID":208910},"geometry":{"x":178841.05999999959,"y":2546568.129999999}},{"attributes":{"ID":208912,"DIS_CODE":0,"TOWNNAME":"安南區","LI":"安和里","LIN":"9鄰","STREET":"安和路","SECT":"一段","MAREA":" ","LANE":" ","ALLEY":" ","HOUSE_NO":"２０號","E_COORD97":169577.95999999999,"N_COORD97":2547415.0499999998,"ADDRESS":"安和路一段２０號","OBJECTID":208911},"geometry":{"x":169577.95999999996,"y":2547415.0500000045}},{"attributes":{"ID":208913,"DIS_CODE":0,"TOWNNAME":"安南區","LI":"安和里","LIN":"9鄰","STREET":"安和路","SECT":"一段","MAREA":" ","LANE":" ","ALLEY":" ","HOUSE_NO":"４６號","E_COORD97":169573.04999999999,"N_COORD97":2547471.9100000001,"ADDRESS":"安和路一段４６號","OBJECTID":208912},"geometry":{"x":169573.05000000075,"y":2547471.9100000001}},{"attributes":{"ID":208914,"DIS_CODE":0,"TOWNNAME":"將軍區","LI":"長沙里","LIN":"9鄰","STREET":" ","SECT":" ","MAREA":"長沙","LANE":" ","ALLEY":" ","HOUSE_NO":"７３之１號","E_COORD97":157241.85000000001,"N_COORD97":2568673,"ADDRESS":"長沙７３之１號","OBJECTID":208913},"geometry":{"x":157241.84999999963,"y":2568673.0000000019}},{"attributes":{"ID":208915,"DIS_CODE":0,"TOWNNAME":"安南區","LI":"\u25A0南里","LIN":"32鄰","STREET":"安昌街","SECT":" ","MAREA":" ","LANE":"１７４巷","ALLEY":"３９弄","HOUSE_NO":"１７號","E_COORD97":170172.81,"N_COORD97":2552356.2799999998,"ADDRESS":"安昌街１７４巷３９弄１７號","OBJECTID":208914},"geometry":{"x":170172.81000000052,"y":2552356.2800000012}},{"attributes":{"ID":208916,"DIS_CODE":0,"TOWNNAME":"安南區","LI":"\u25A0南里","LIN":"32鄰","STREET":"安昌街","SECT":" ","MAREA":" ","LANE":"１７４巷","ALLEY":"３９弄","HOUSE_NO":"１９之１１號","E_COORD97":170170.01999999999,"N_COORD97":2552386.6299999999,"ADDRESS":"安昌街１７４巷３９弄１９之１１號","OBJECTID":208915},"geometry":{"x":170170.01999999955,"y":2552386.6300000008}},{"attributes":{"ID":208917,"DIS_CODE":0,"TOWNNAME":"安南區","LI":"\u25A0南里","LIN":"32鄰","STREET":"安昌街","SECT":" ","MAREA":" ","LANE":"１７４巷","ALLEY":"３９弄","HOUSE_NO":"１９之１號","E_COORD97":170171.42000000001,"N_COORD97":2552360.4700000002,"ADDRESS":"安昌街１７４巷３９弄１９之１號","OBJECTID":208916},"geometry":{"x":170171.41999999993,"y":2552360.4700000007}},{"attributes":{"ID":208918,"DIS_CODE":0,"TOWNNAME":"善化區","LI":"小新里","LIN":"2鄰","STREET":" ","SECT":" ","MAREA":"小新營","LANE":" ","ALLEY":" ","HOUSE_NO":"１１號之１","E_COORD97":179897.01000000001,"N_COORD97":2558369.77,"ADDRESS":"小新營１１號之１","OBJECTID":208917},"geometry":{"x":179897.01000000071,"y":2558369.7699999977}},{"attributes":{"ID":208919,"DIS_CODE":0,"TOWNNAME":"善化區","LI":"牛庄里","LIN":"2鄰","STREET":" ","SECT":" ","MAREA":"牛庄","LANE":" ","ALLEY":" ","HOUSE_NO":"２７之４２號","E_COORD97":180623.17999999999,"N_COORD97":2559812.02,"ADDRESS":"牛庄２７之４２號","OBJECTID":208918},"geometry":{"x":180623.1799999997,"y":2559812.0199999996}},{"attributes":{"ID":208920,"DIS_CODE":0,"TOWNNAME":"善化區","LI":"小新里","LIN":"2鄰","STREET":" ","SECT":" ","MAREA":"小新營","LANE":" ","ALLEY":" ","HOUSE_NO":"１０之９號","E_COORD97":179864.35999999999,"N_COORD97":2558466.27,"ADDRESS":"小新營１０之９號","OBJECTID":208919},"geometry":{"x":179864.36000000127,"y":2558466.2700000014}},{"attributes":{"ID":208921,"DIS_CODE":0,"TOWNNAME":"善化區","LI":"牛庄里","LIN":"2鄰","STREET":" ","SECT":" ","MAREA":"牛庄","LANE":" ","ALLEY":" ","HOUSE_NO":"２７號之３２","E_COORD97":180552.47,"N_COORD97":2559817.02,"ADDRESS":"牛庄２７號之３２","OBJECTID":208920},"geometry":{"x":180552.4700000016,"y":2559817.0200000014}},{"attributes":{"ID":208922,"DIS_CODE":0,"TOWNNAME":"善化區","LI":"牛庄里","LIN":"2鄰","STREET":" ","SECT":" ","MAREA":"牛庄","LANE":" ","ALLEY":" ","HOUSE_NO":"２６之１６號","E_COORD97":180374.98000000001,"N_COORD97":2559760.77,"ADDRESS":"牛庄２６之１６號","OBJECTID":208921},"geometry":{"x":180374.98000000045,"y":2559760.7700000014}},{"attributes":{"ID":208923,"DIS_CODE":0,"TOWNNAME":"善化區","LI":"小新里","LIN":"2鄰","STREET":" ","SECT":" ","MAREA":"小新營","LANE":" ","ALLEY":" ","HOUSE_NO":"１０號之１０","E_COORD97":179860.85999999999,"N_COORD97":2558467.52,"ADDRESS":"小新營１０號之１０","OBJECTID":208922},"geometry":{"x":179860.86000000127,"y":2558467.5200000014}},{"attributes":{"ID":208924,"DIS_CODE":0,"TOWNNAME":"善化區","LI":"六德里","LIN":"2鄰","STREET":" ","SECT":" ","MAREA":"六分寮","LANE":" ","ALLEY":" ","HOUSE_NO":"２１０號","E_COORD97":178726.39999999999,"N_COORD97":2561766.5,"ADDRESS":"六分寮２１０號","OBJECTID":208923},"geometry":{"x":178726.4000000013,"y":2561766.5000000019}},{"attributes":{"ID":208925,"DIS_CODE":0,"TOWNNAME":"善化區","LI":"小新里","LIN":"2鄰","STREET":" ","SECT":" ","MAREA":"小新營","LANE":" ","ALLEY":" ","HOUSE_NO":"１０號之１９","E_COORD97":179846.60000000001,"N_COORD97":2558452.02,"ADDRESS":"小新營１０號之１９","OBJECTID":208924},"geometry":{"x":179846.60000000056,"y":2558452.0199999996}},{"attributes":{"ID":208926,"DIS_CODE":0,"TOWNNAME":"善化區","LI":"六德里","LIN":"2鄰","STREET":" ","SECT":" ","MAREA":"六分寮","LANE":" ","ALLEY":" ","HOUSE_NO":"２０７之１號","E_COORD97":178610.76999999999,"N_COORD97":2561860.27,"ADDRESS":"六分寮２０７之１號","OBJECTID":208925},"geometry":{"x":178610.76999999955,"y":2561860.2700000014}},{"attributes":{"ID":208927,"DIS_CODE":0,"TOWNNAME":"善化區","LI":"六德里","LIN":"2鄰","STREET":" ","SECT":" ","MAREA":"六分寮","LANE":" ","ALLEY":" ","HOUSE_NO":"２１３號","E_COORD97":178693.14999999999,"N_COORD97":2561738.75,"ADDRESS":"六分寮２１３號","OBJECTID":208926},"geometry":{"x":178693.1500000013,"y":2561738.7500000019}},{"attributes":{"ID":208928,"DIS_CODE":0,"TOWNNAME":"麻豆區","LI":"北勢里","LIN":"2鄰","STREET":" ","SECT":" ","MAREA":"加輦邦","LANE":" ","ALLEY":" ","HOUSE_NO":"１５號之１","E_COORD97":173314.48999999999,"N_COORD97":2566229.4900000002,"ADDRESS":"加輦邦１５號之１","OBJECTID":208927},"geometry":{"x":173314.49000000209,"y":2566229.4900000021}},{"attributes":{"ID":208929,"DIS_CODE":0,"TOWNNAME":"善化區","LI":"小新里","LIN":"2鄰","STREET":" ","SECT":" ","MAREA":"小新營","LANE":" ","ALLEY":" ","HOUSE_NO":"１０之５號","E_COORD97":179898.62,"N_COORD97":2558461.27,"ADDRESS":"小新營１０之５號","OBJECTID":208928},"geometry":{"x":179898.62000000011,"y":2558461.2699999996}},{"attributes":{"ID":208930,"DIS_CODE":0,"TOWNNAME":"善化區","LI":"六德里","LIN":"2鄰","STREET":" ","SECT":" ","MAREA":"六分寮","LANE":" ","ALLEY":" ","HOUSE_NO":"２０７號之６","E_COORD97":178545.64999999999,"N_COORD97":2561880.77,"ADDRESS":"六分寮２０７號之６","OBJECTID":208929},"geometry":{"x":178545.6500000013,"y":2561880.7699999996}},{"attributes":{"ID":208931,"DIS_CODE":0,"TOWNNAME":"善化區","LI":"小新里","LIN":"2鄰","STREET":" ","SECT":" ","MAREA":"小新營","LANE":" ","ALLEY":" ","HOUSE_NO":"１３之５０號","E_COORD97":179830.37,"N_COORD97":2558585.27,"ADDRESS":"小新營１３之５０號","OBJECTID":208930},"geometry":{"x":179830.37000000104,"y":2558585.2700000014}},{"attributes":{"ID":208932,"DIS_CODE":0,"TOWNNAME":"安南區","LI":"安和里","LIN":"9鄰","STREET":"安和路","SECT":"一段","MAREA":" ","LANE":" ","ALLEY":" ","HOUSE_NO":"４８號","E_COORD97":169572.62,"N_COORD97":2547476.6400000001,"ADDRESS":"安和路一段４８號","OBJECTID":208931},"geometry":{"x":169572.62000000104,"y":2547476.6400000025}},{"attributes":{"ID":208933,"DIS_CODE":0,"TOWNNAME":"安南區","LI":"安慶里","LIN":"32鄰","STREET":"怡安路","SECT":"一段","MAREA":" ","LANE":"３１６巷","ALLEY":"２１弄","HOUSE_NO":"１號","E_COORD97":168904.89999999999,"N_COORD97":2549169.48,"ADDRESS":"怡安路一段３１６巷２１弄１號","OBJECTID":208932},"geometry":{"x":168904.9000000013,"y":2549169.4800000023}},{"attributes":{"ID":208934,"DIS_CODE":0,"TOWNNAME":"安南區","LI":"安慶里","LIN":"32鄰","STREET":"怡安路","SECT":"一段","MAREA":" ","LANE":"３１６巷","ALLEY":"２１弄","HOUSE_NO":"５號","E_COORD97":168903.72,"N_COORD97":2549190.1400000001,"ADDRESS":"怡安路一段３１６巷２１弄５號","OBJECTID":208933},"geometry":{"x":168903.72000000067,"y":2549190.1400000006}},{"attributes":{"ID":208935,"DIS_CODE":0,"TOWNNAME":"安南區","LI":"安慶里","LIN":"32鄰","STREET":"怡安路","SECT":"一段","MAREA":" ","LANE":"３１６巷","ALLEY":"２１弄","HOUSE_NO":"２號","E_COORD97":168916.42000000001,"N_COORD97":2549191.8300000001,"ADDRESS":"怡安路一段３１６巷２１弄２號","OBJECTID":208934},"geometry":{"x":168916.42000000086,"y":2549191.8300000001}},{"attributes":{"ID":208936,"DIS_CODE":0,"TOWNNAME":"安南區","LI":"安慶里","LIN":"32鄰","STREET":"怡安路","SECT":"一段","MAREA":" ","LANE":"３１６巷","ALLEY":"２１弄","HOUSE_NO":"６號","E_COORD97":168915.91,"N_COORD97":2549197.0800000001,"ADDRESS":"怡安路一段３１６巷２１弄６號","OBJECTID":208935},"geometry":{"x":168915.91000000201,"y":2549197.0800000001}},{"attributes":{"ID":208937,"DIS_CODE":0,"TOWNNAME":"安南區","LI":"\u25A0南里","LIN":"32鄰","STREET":"安昌街","SECT":" ","MAREA":" ","LANE":"１７４巷","ALLEY":"３９弄","HOUSE_NO":"１９之１０號","E_COORD97":170170.01999999999,"N_COORD97":2552384.1699999999,"ADDRESS":"安昌街１７４巷３９弄１９之１０號","OBJECTID":208936},"geometry":{"x":170170.01999999955,"y":2552384.1700000018}},{"attributes":{"ID":208938,"DIS_CODE":0,"TOWNNAME":"安南區","LI":"\u25A0南里","LIN":"32鄰","STREET":"安昌街","SECT":" ","MAREA":" ","LANE":"１７４巷","ALLEY":"３９弄","HOUSE_NO":"１９之２號","E_COORD97":170171.57999999999,"N_COORD97":2552362.2999999998,"ADDRESS":"安昌街１７４巷３９弄１９之２號","OBJECTID":208937},"geometry":{"x":170171.58000000101,"y":2552362.3000000007}},{"attributes":{"ID":208939,"DIS_CODE":0,"TOWNNAME":"安南區","LI":"\u25A0南里","LIN":"32鄰","STREET":"安昌街","SECT":" ","MAREA":" ","LANE":"１７４巷","ALLEY":"３９弄","HOUSE_NO":"１９之３號","E_COORD97":170171.89000000001,"N_COORD97":2552364.8399999999,"ADDRESS":"安昌街１７４巷３９弄１９之３號","OBJECTID":208938},"geometry":{"x":170171.8900000006,"y":2552364.8399999999}},{"attributes":{"ID":208940,"DIS_CODE":0,"TOWNNAME":"安南區","LI":"\u25A0南里","LIN":"32鄰","STREET":"安昌街","SECT":" ","MAREA":" ","LANE":"１７４巷","ALLEY":"３９弄","HOUSE_NO":"１９之９號","E_COORD97":170169.98999999999,"N_COORD97":2552381.6600000001,"ADDRESS":"安昌街１７４巷３９弄１９之９號","OBJECTID":208939},"geometry":{"x":170169.99000000209,"y":2552381.660000002}},{"attributes":{"ID":208941,"DIS_CODE":0,"TOWNNAME":"安南區","LI":"安和里","LIN":"9鄰","STREET":"安和路","SECT":"一段","MAREA":" ","LANE":" ","ALLEY":" ","HOUSE_NO":"５８號","E_COORD97":169566.70000000001,"N_COORD97":2547501.0600000001,"ADDRESS":"安和路一段５８號","OBJECTID":208940},"geometry":{"x":169566.70000000205,"y":2547501.0600000024}},{"attributes":{"ID":208942,"DIS_CODE":0,"TOWNNAME":"善化區","LI":"什乃里","LIN":"2鄰","STREET":" ","SECT":" ","MAREA":"什乃","LANE":" ","ALLEY":" ","HOUSE_NO":"１８號之２１","E_COORD97":176195.67999999999,"N_COORD97":2560787.27,"ADDRESS":"什乃１８號之２１","OBJECTID":208941},"geometry":{"x":176195.6799999997,"y":2560787.2700000033}},{"attributes":{"ID":208943,"DIS_CODE":0,"TOWNNAME":"安南區","LI":"\u25A0南里","LIN":"32鄰","STREET":"安昌街","SECT":" ","MAREA":" ","LANE":"１７４巷","ALLEY":"３９弄","HOUSE_NO":"１９之６號","E_COORD97":170169.67000000001,"N_COORD97":2552372.2999999998,"ADDRESS":"安昌街１７４巷３９弄１９之６號","OBJECTID":208942},"geometry":{"x":170169.66999999993,"y":2552372.3000000007}},{"attributes":{"ID":208944,"DIS_CODE":0,"TOWNNAME":"將軍區","LI":"長沙里","LIN":"9鄰","STREET":" ","SECT":" ","MAREA":"長沙","LANE":" ","ALLEY":" ","HOUSE_NO":"７３之２號","E_COORD97":157240.29000000001,"N_COORD97":2568681.0699999998,"ADDRESS":"長沙７３之２號","OBJECTID":208943},"geometry":{"x":157240.29000000097,"y":2568681.0700000003}},{"attributes":{"ID":208945,"DIS_CODE":0,"TOWNNAME":"安南區","LI":"\u25A0南里","LIN":"32鄰","STREET":"安昌街","SECT":" ","MAREA":" ","LANE":"１７４巷","ALLEY":"３９弄","HOUSE_NO":"１９之５號","E_COORD97":170169.67000000001,"N_COORD97":2552368.7999999998,"ADDRESS":"安昌街１７４巷３９弄１９之５號","OBJECTID":208944},"geometry":{"x":170169.66999999993,"y":2552368.8000000007}},{"attributes":{"ID":208946,"DIS_CODE":0,"TOWNNAME":"永康區","LI":"正強里","LIN":"32鄰","STREET":"四維街","SECT":" ","MAREA":" ","LANE":"２９巷","ALLEY":"２６弄","HOUSE_NO":"２號","E_COORD97":173334.79000000001,"N_COORD97":2547994.75,"ADDRESS":"四維街２９巷２６弄２號","OBJECTID":208945},"geometry":{"x":173334.79000000097,"y":2547994.75}},{"attributes":{"ID":208947,"DIS_CODE":0,"TOWNNAME":"永康區","LI":"正強里","LIN":"32鄰","STREET":"四維街","SECT":" ","MAREA":" ","LANE":"２９巷","ALLEY":"２６弄","HOUSE_NO":"６號","E_COORD97":173332.13,"N_COORD97":2548002.5,"ADDRESS":"四維街２９巷２６弄６號","OBJECTID":208946},"geometry":{"x":173332.13000000082,"y":2548002.5000000019}},{"attributes":{"ID":208948,"DIS_CODE":0,"TOWNNAME":"永康區","LI":"正強里","LIN":"32鄰","STREET":"四維街","SECT":" ","MAREA":" ","LANE":"２９巷","ALLEY":"２６弄","HOUSE_NO":"１４號","E_COORD97":173328.62,"N_COORD97":2548018.9900000002,"ADDRESS":"四維街２９巷２６弄１４號","OBJECTID":208947},"geometry":{"x":173328.61999999918,"y":2548018.9900000021}},{"attributes":{"ID":208949,"DIS_CODE":0,"TOWNNAME":"北區","LI":"文元里","LIN":"14鄰","STREET":"文賢路","SECT":" ","MAREA":" ","LANE":"１０３０巷","ALLEY":"３弄","HOUSE_NO":"２６號","E_COORD97":167409.92000000001,"N_COORD97":2546137.75,"ADDRESS":"文賢路１０３０巷３弄２６號","OBJECTID":208948},"geometry":{"x":167409.91999999993,"y":2546137.75}},{"attributes":{"ID":208950,"DIS_CODE":0,"TOWNNAME":"善化區","LI":"六德里","LIN":"2鄰","STREET":" ","SECT":" ","MAREA":"六分寮","LANE":" ","ALLEY":" ","HOUSE_NO":"２１２號","E_COORD97":178700.45999999999,"N_COORD97":2561752.75,"ADDRESS":"六分寮２１２號","OBJECTID":208949},"geometry":{"x":178700.46000000089,"y":2561752.75}},{"attributes":{"ID":208951,"DIS_CODE":0,"TOWNNAME":"善化區","LI":"光文里","LIN":"2鄰","STREET":" ","SECT":" ","MAREA":"北子店","LANE":" ","ALLEY":" ","HOUSE_NO":"１０８號","E_COORD97":179562.79999999999,"N_COORD97":2559648.75,"ADDRESS":"北子店１０８號","OBJECTID":208950},"geometry":{"x":179562.80000000075,"y":2559648.7500000037}},{"attributes":{"ID":208952,"DIS_CODE":0,"TOWNNAME":"永康區","LI":"永康里","LIN":"32鄰","STREET":"永大路","SECT":"二段","MAREA":" ","LANE":"１５２６巷","ALLEY":"２弄","HOUSE_NO":"２號十一樓之７","E_COORD97":174283.95000000001,"N_COORD97":2547262.98,"ADDRESS":"永大路二段１５２６巷２弄２號十一樓之７","OBJECTID":208951},"geometry":{"x":174283.95000000019,"y":2547262.9800000023}},{"attributes":{"ID":208953,"DIS_CODE":0,"TOWNNAME":"永康區","LI":"永康里","LIN":"32鄰","STREET":"永大路","SECT":"二段","MAREA":" ","LANE":"１５２６巷","ALLEY":"２弄","HOUSE_NO":"２號十二樓之９","E_COORD97":174283.95000000001,"N_COORD97":2547262.98,"ADDRESS":"永大路二段１５２６巷２弄２號十二樓之９","OBJECTID":208952},"geometry":{"x":174283.95000000019,"y":2547262.9800000023}},{"attributes":{"ID":208954,"DIS_CODE":0,"TOWNNAME":"永康區","LI":"永康里","LIN":"32鄰","STREET":"永大路","SECT":"二段","MAREA":" ","LANE":"１５２６巷","ALLEY":"２弄","HOUSE_NO":"２號九樓之７","E_COORD97":174282.70000000001,"N_COORD97":2547262.98,"ADDRESS":"永大路二段１５２６巷２弄２號九樓之７","OBJECTID":208953},"geometry":{"x":174282.70000000205,"y":2547262.9800000023}},{"attributes":{"ID":208955,"DIS_CODE":0,"TOWNNAME":"永康區","LI":"永康里","LIN":"32鄰","STREET":"永大路","SECT":"二段","MAREA":" ","LANE":"１５２６巷","ALLEY":"２弄","HOUSE_NO":"２號十樓之８","E_COORD97":174282.70000000001,"N_COORD97":2547262.98,"ADDRESS":"永大路二段１５２６巷２弄２號十樓之８","OBJECTID":208954},"geometry":{"x":174282.70000000205,"y":2547262.9800000023}},{"attributes":{"ID":208956,"DIS_CODE":0,"TOWNNAME":"永康區","LI":"永康里","LIN":"32鄰","STREET":"永大路","SECT":"二段","MAREA":" ","LANE":"１５２６巷","ALLEY":"２弄","HOUSE_NO":"２號十一樓之２","E_COORD97":174284.10999999999,"N_COORD97":2547262.98,"ADDRESS":"永大路二段１５２６巷２弄２號十一樓之２","OBJECTID":208955},"geometry":{"x":174284.11000000127,"y":2547262.9800000023}},{"attributes":{"ID":208957,"DIS_CODE":0,"TOWNNAME":"永康區","LI":"永康里","LIN":"32鄰","STREET":"永大路","SECT":"二段","MAREA":" ","LANE":"１５２６巷","ALLEY":"２弄","HOUSE_NO":"２號八樓之８","E_COORD97":174282.70000000001,"N_COORD97":2547262.98,"ADDRESS":"永大路二段１５２６巷２弄２號八樓之８","OBJECTID":208956},"geometry":{"x":174282.70000000205,"y":2547262.9800000023}},{"attributes":{"ID":208958,"DIS_CODE":0,"TOWNNAME":"永康區","LI":"永康里","LIN":"32鄰","STREET":"永大路","SECT":"二段","MAREA":" ","LANE":"１５２６巷","ALLEY":"２弄","HOUSE_NO":"２號十四樓之２","E_COORD97":174284.10999999999,"N_COORD97":2547262.98,"ADDRESS":"永大路二段１５２６巷２弄２號十四樓之２","OBJECTID":208957},"geometry":{"x":174284.11000000127,"y":2547262.9800000023}},{"attributes":{"ID":208959,"DIS_CODE":0,"TOWNNAME":"永康區","LI":"永康里","LIN":"32鄰","STREET":"永大路","SECT":"二段","MAREA":" ","LANE":"１５２６巷","ALLEY":"２弄","HOUSE_NO":"２號十二樓之３","E_COORD97":174283.95000000001,"N_COORD97":2547262.98,"ADDRESS":"永大路二段１５２６巷２弄２號十二樓之３","OBJECTID":208958},"geometry":{"x":174283.95000000019,"y":2547262.9800000023}},{"attributes":{"ID":208960,"DIS_CODE":0,"TOWNNAME":"永康區","LI":"永康里","LIN":"32鄰","STREET":"永大路","SECT":"二段","MAREA":" ","LANE":"１５２６巷","ALLEY":"２弄","HOUSE_NO":"２號九樓之５","E_COORD97":174282.88,"N_COORD97":2547262.98,"ADDRESS":"永大路二段１５２６巷２弄２號九樓之５","OBJECTID":208959},"geometry":{"x":174282.88000000175,"y":2547262.9800000023}},{"attributes":{"ID":208961,"DIS_CODE":0,"TOWNNAME":"永康區","LI":"永康里","LIN":"32鄰","STREET":"永大路","SECT":"二段","MAREA":" ","LANE":"１５２６巷","ALLEY":"２弄","HOUSE_NO":"２號十樓之３","E_COORD97":174282.82999999999,"N_COORD97":2547262.98,"ADDRESS":"永大路二段１５２６巷２弄２號十樓之３","OBJECTID":208960},"geometry":{"x":174282.83000000007,"y":2547262.9800000023}},{"attributes":{"ID":208962,"DIS_CODE":0,"TOWNNAME":"永康區","LI":"永康里","LIN":"32鄰","STREET":"永大路","SECT":"二段","MAREA":" ","LANE":"１５２６巷","ALLEY":"２弄","HOUSE_NO":"３號五樓之１","E_COORD97":174315.92000000001,"N_COORD97":2547285.5600000001,"ADDRESS":"永大路二段１５２６巷２弄３號五樓之１","OBJECTID":208961},"geometry":{"x":174315.91999999993,"y":2547285.5600000005}},{"attributes":{"ID":208963,"DIS_CODE":0,"TOWNNAME":"永康區","LI":"永康里","LIN":"32鄰","STREET":"永大路","SECT":"二段","MAREA":" ","LANE":"１５２６巷","ALLEY":"２弄","HOUSE_NO":"２號十二樓之５","E_COORD97":174283.95000000001,"N_COORD97":2547262.98,"ADDRESS":"永大路二段１５２６巷２弄２號十二樓之５","OBJECTID":208962},"geometry":{"x":174283.95000000019,"y":2547262.9800000023}},{"attributes":{"ID":208964,"DIS_CODE":0,"TOWNNAME":"安南區","LI":"溪墘里","LIN":"9鄰","STREET":"海佃路","SECT":"一段","MAREA":" ","LANE":"２７０巷","ALLEY":" ","HOUSE_NO":"４號","E_COORD97":167160.57999999999,"N_COORD97":2547394.7400000002,"ADDRESS":"海佃路一段２７０巷４號","OBJECTID":208963},"geometry":{"x":167160.58000000101,"y":2547394.7400000002}},{"attributes":{"ID":208965,"DIS_CODE":0,"TOWNNAME":"仁德區","LI":"後壁里","LIN":"24鄰","STREET":"中正路","SECT":"二段","MAREA":" ","LANE":" ","ALLEY":" ","HOUSE_NO":"２１９號","E_COORD97":173218.72,"N_COORD97":2538872.2799999998,"ADDRESS":"中正路二段２１９號","OBJECTID":208964},"geometry":{"x":173218.71999999974,"y":2538872.2800000012}},{"attributes":{"ID":208966,"DIS_CODE":0,"TOWNNAME":"善化區","LI":"六分里","LIN":"2鄰","STREET":" ","SECT":" ","MAREA":"六分寮","LANE":" ","ALLEY":" ","HOUSE_NO":"６號之５","E_COORD97":178250.66,"N_COORD97":2561164.02,"ADDRESS":"六分寮６號之５","OBJECTID":208965},"geometry":{"x":178250.66000000015,"y":2561164.0199999996}},{"attributes":{"ID":208967,"DIS_CODE":0,"TOWNNAME":"善化區","LI":"六分里","LIN":"2鄰","STREET":" ","SECT":" ","MAREA":"六分寮","LANE":" ","ALLEY":" ","HOUSE_NO":"６號之３","E_COORD97":178256.26000000001,"N_COORD97":2561164.7599999998,"ADDRESS":"六分寮６號之３","OBJECTID":208966},"geometry":{"x":178256.25999999978,"y":2561164.7600000016}},{"attributes":{"ID":208968,"DIS_CODE":0,"TOWNNAME":"善化區","LI":"什乃里","LIN":"2鄰","STREET":" ","SECT":" ","MAREA":"什乃","LANE":" ","ALLEY":" ","HOUSE_NO":"１８號之１","E_COORD97":176238.79999999999,"N_COORD97":2560640.02,"ADDRESS":"什乃１８號之１","OBJECTID":208967},"geometry":{"x":176238.79999999981,"y":2560640.0200000033}},{"attributes":{"ID":208969,"DIS_CODE":0,"TOWNNAME":"善化區","LI":"牛庄里","LIN":"2鄰","STREET":" ","SECT":" ","MAREA":"牛庄","LANE":" ","ALLEY":" ","HOUSE_NO":"２６之１２號","E_COORD97":180356.42999999999,"N_COORD97":2559758.52,"ADDRESS":"牛庄２６之１２號","OBJECTID":208968},"geometry":{"x":180356.43000000063,"y":2559758.5200000033}},{"attributes":{"ID":208970,"DIS_CODE":0,"TOWNNAME":"善化區","LI":"小新里","LIN":"2鄰","STREET":" ","SECT":" ","MAREA":"小新營","LANE":" ","ALLEY":" ","HOUSE_NO":"１３之４７號","E_COORD97":179826.09,"N_COORD97":2558570.02,"ADDRESS":"小新營１３之４７號","OBJECTID":208969},"geometry":{"x":179826.08999999985,"y":2558570.0200000014}},{"attributes":{"ID":208971,"DIS_CODE":0,"TOWNNAME":"善化區","LI":"牛庄里","LIN":"2鄰","STREET":" ","SECT":" ","MAREA":"牛庄","LANE":" ","ALLEY":" ","HOUSE_NO":"２４號之１","E_COORD97":180289.07999999999,"N_COORD97":2559864.27,"ADDRESS":"牛庄２４號之１","OBJECTID":208970},"geometry":{"x":180289.08000000007,"y":2559864.2699999996}},{"attributes":{"ID":208972,"DIS_CODE":0,"TOWNNAME":"善化區","LI":"小新里","LIN":"2鄰","STREET":" ","SECT":" ","MAREA":"小新營","LANE":" ","ALLEY":" ","HOUSE_NO":"９號","E_COORD97":179929.72,"N_COORD97":2558406.5,"ADDRESS":"小新營９號","OBJECTID":208971},"geometry":{"x":179929.71999999974,"y":2558406.5000000037}},{"attributes":{"ID":208973,"DIS_CODE":0,"TOWNNAME":"永康區","LI":"永康里","LIN":"32鄰","STREET":"永大路","SECT":"二段","MAREA":" ","LANE":"１５２６巷","ALLEY":"２弄","HOUSE_NO":"２號十四樓之３","E_COORD97":174283.95000000001,"N_COORD97":2547262.98,"ADDRESS":"永大路二段１５２６巷２弄２號十四樓之３","OBJECTID":208972},"geometry":{"x":174283.95000000019,"y":2547262.9800000023}},{"attributes":{"ID":208974,"DIS_CODE":0,"TOWNNAME":"將軍區","LI":"長沙里","LIN":"9鄰","STREET":" ","SECT":" ","MAREA":"長沙","LANE":" ","ALLEY":" ","HOUSE_NO":"７２號","E_COORD97":157232.92999999999,"N_COORD97":2568651.4100000001,"ADDRESS":"長沙７２號","OBJECTID":208973},"geometry":{"x":157232.9299999997,"y":2568651.4100000001}},{"attributes":{"ID":208975,"DIS_CODE":0,"TOWNNAME":"永康區","LI":"永康里","LIN":"32鄰","STREET":"永大路","SECT":"二段","MAREA":" ","LANE":"１５２６巷","ALLEY":"２弄","HOUSE_NO":"２號十一樓之８","E_COORD97":174283.95000000001,"N_COORD97":2547262.98,"ADDRESS":"永大路二段１５２６巷２弄２號十一樓之８","OBJECTID":208974},"geometry":{"x":174283.95000000019,"y":2547262.9800000023}},{"attributes":{"ID":208976,"DIS_CODE":0,"TOWNNAME":"將軍區","LI":"長沙里","LIN":"9鄰","STREET":" ","SECT":" ","MAREA":"長沙","LANE":" ","ALLEY":" ","HOUSE_NO":"７８號","E_COORD97":157268.07999999999,"N_COORD97":2568717.2799999998,"ADDRESS":"長沙７８號","OBJECTID":208975},"geometry":{"x":157268.08000000007,"y":2568717.2800000031}},{"attributes":{"ID":208977,"DIS_CODE":0,"TOWNNAME":"將軍區","LI":"長沙里","LIN":"9鄰","STREET":" ","SECT":" ","MAREA":"長沙","LANE":" ","ALLEY":" ","HOUSE_NO":"８０號","E_COORD97":157270.09,"N_COORD97":2568734.7599999998,"ADDRESS":"長沙８０號","OBJECTID":208976},"geometry":{"x":157270.09000000171,"y":2568734.7600000035}},{"attributes":{"ID":208978,"DIS_CODE":0,"TOWNNAME":"將軍區","LI":"長沙里","LIN":"9鄰","STREET":" ","SECT":" ","MAREA":"長沙","LANE":" ","ALLEY":" ","HOUSE_NO":"８１號","E_COORD97":157246.5,"N_COORD97":2568726.1299999999,"ADDRESS":"長沙８１號","OBJECTID":208977},"geometry":{"x":157246.5,"y":2568726.1300000008}},{"attributes":{"ID":208979,"DIS_CODE":0,"TOWNNAME":"永康區","LI":"永康里","LIN":"32鄰","STREET":"永大路","SECT":"二段","MAREA":" ","LANE":"１５２６巷","ALLEY":"２弄","HOUSE_NO":"２號十三樓之６","E_COORD97":174283.95000000001,"N_COORD97":2547262.98,"ADDRESS":"永大路二段１５２６巷２弄２號十三樓之６","OBJECTID":208978},"geometry":{"x":174283.95000000019,"y":2547262.9800000023}},{"attributes":{"ID":208980,"DIS_CODE":0,"TOWNNAME":"永康區","LI":"永康里","LIN":"32鄰","STREET":"永大路","SECT":"二段","MAREA":" ","LANE":"１５２６巷","ALLEY":"２弄","HOUSE_NO":"２號七樓之８","E_COORD97":174282.70000000001,"N_COORD97":2547262.98,"ADDRESS":"永大路二段１５２６巷２弄２號七樓之８","OBJECTID":208979},"geometry":{"x":174282.70000000205,"y":2547262.9800000023}},{"attributes":{"ID":208981,"DIS_CODE":0,"TOWNNAME":"永康區","LI":"南灣里","LIN":"32鄰","STREET":"大灣一街","SECT":" ","MAREA":" ","LANE":"３７巷","ALLEY":"７弄","HOUSE_NO":"１２號六樓之３","E_COORD97":174283.35999999999,"N_COORD97":2544862.8900000001,"ADDRESS":"大灣一街３７巷７弄１２號六樓之３","OBJECTID":208980},"geometry":{"x":174283.3600000022,"y":2544862.8899999987}},{"attributes":{"ID":208982,"DIS_CODE":0,"TOWNNAME":"永康區","LI":"南灣里","LIN":"32鄰","STREET":"大灣一街","SECT":" ","MAREA":" ","LANE":"３７巷","ALLEY":"７弄","HOUSE_NO":"１２號七樓之２","E_COORD97":174283.39999999999,"N_COORD97":2544862.8900000001,"ADDRESS":"大灣一街３７巷７弄１２號七樓之２","OBJECTID":208981},"geometry":{"x":174283.4000000013,"y":2544862.8899999987}},{"attributes":{"ID":208983,"DIS_CODE":0,"TOWNNAME":"永康區","LI":"南灣里","LIN":"32鄰","STREET":"大灣一街","SECT":" ","MAREA":" ","LANE":"３７巷","ALLEY":"７弄","HOUSE_NO":"１２號七樓之３","E_COORD97":174283.35999999999,"N_COORD97":2544862.8900000001,"ADDRESS":"大灣一街３７巷７弄１２號七樓之３","OBJECTID":208982},"geometry":{"x":174283.3600000022,"y":2544862.8899999987}},{"attributes":{"ID":208984,"DIS_CODE":0,"TOWNNAME":"東區","LI":"大智里","LIN":"6鄰","STREET":"長東街","SECT":" ","MAREA":" ","LANE":"７９巷","ALLEY":" ","HOUSE_NO":"１號","E_COORD97":171036.69,"N_COORD97":2540421.04,"ADDRESS":"長東街７９巷１號","OBJECTID":208983},"geometry":{"x":171036.69000000227,"y":2540421.0399999991}},{"attributes":{"ID":208985,"DIS_CODE":0,"TOWNNAME":"仁德區","LI":"後壁里","LIN":"24鄰","STREET":"中正路","SECT":"二段","MAREA":" ","LANE":" ","ALLEY":" ","HOUSE_NO":"２２３號","E_COORD97":173219.51999999999,"N_COORD97":2538880.5299999998,"ADDRESS":"中正路二段２２３號","OBJECTID":208984},"geometry":{"x":173219.51999999955,"y":2538880.5300000012}},{"attributes":{"ID":208986,"DIS_CODE":0,"TOWNNAME":"仁德區","LI":"後壁里","LIN":"24鄰","STREET":"中正路","SECT":"二段","MAREA":" ","LANE":" ","ALLEY":" ","HOUSE_NO":"２２３號之３","E_COORD97":173220.01999999999,"N_COORD97":2538897.4199999999,"ADDRESS":"中正路二段２２３號之３","OBJECTID":208985},"geometry":{"x":173220.01999999955,"y":2538897.4199999999}},{"attributes":{"ID":208987,"DIS_CODE":0,"TOWNNAME":"仁德區","LI":"後壁里","LIN":"24鄰","STREET":"中正路","SECT":"二段","MAREA":" ","LANE":" ","ALLEY":" ","HOUSE_NO":"２２３之７號","E_COORD97":173222.98999999999,"N_COORD97":2538923.4199999999,"ADDRESS":"中正路二段２２３之７號","OBJECTID":208986},"geometry":{"x":173222.99000000209,"y":2538923.4200000018}},{"attributes":{"ID":208988,"DIS_CODE":0,"TOWNNAME":"仁德區","LI":"後壁里","LIN":"24鄰","STREET":"德洋路","SECT":" ","MAREA":" ","LANE":" ","ALLEY":" ","HOUSE_NO":"１號","E_COORD97":173208.25,"N_COORD97":2538972.7799999998,"ADDRESS":"德洋路１號","OBJECTID":208987},"geometry":{"x":173208.25,"y":2538972.7799999993}},{"attributes":{"ID":208989,"DIS_CODE":0,"TOWNNAME":"東區","LI":"大智里","LIN":"24鄰","STREET":"文東街","SECT":" ","MAREA":" ","LANE":" ","ALLEY":" ","HOUSE_NO":"１０２號","E_COORD97":171464.47,"N_COORD97":2540162.6000000001,"ADDRESS":"文東街１０２號","OBJECTID":208988},"geometry":{"x":171464.46999999881,"y":2540162.6000000015}},{"attributes":{"ID":208990,"DIS_CODE":0,"TOWNNAME":"安南區","LI":"海東里","LIN":"24鄰","STREET":"同安路","SECT":" ","MAREA":" ","LANE":" ","ALLEY":" ","HOUSE_NO":"２１３號","E_COORD97":167167.44,"N_COORD97":2549172.7200000002,"ADDRESS":"同安路２１３號","OBJECTID":208989},"geometry":{"x":167167.44000000041,"y":2549172.7200000007}},{"attributes":{"ID":208991,"DIS_CODE":0,"TOWNNAME":"安南區","LI":"海東里","LIN":"24鄰","STREET":"同安路","SECT":" ","MAREA":" ","LANE":" ","ALLEY":" ","HOUSE_NO":"２１７號","E_COORD97":167171.39000000001,"N_COORD97":2549179.5,"ADDRESS":"同安路２１７號","OBJECTID":208990},"geometry":{"x":167171.3900000006,"y":2549179.5}},{"attributes":{"ID":208992,"DIS_CODE":0,"TOWNNAME":"永康區","LI":"南灣里","LIN":"32鄰","STREET":"大灣一街","SECT":" ","MAREA":" ","LANE":"３７巷","ALLEY":"７弄","HOUSE_NO":"１２號六樓之２","E_COORD97":174283.39999999999,"N_COORD97":2544862.8900000001,"ADDRESS":"大灣一街３７巷７弄１２號六樓之２","OBJECTID":208991},"geometry":{"x":174283.4000000013,"y":2544862.8899999987}},{"attributes":{"ID":208993,"DIS_CODE":0,"TOWNNAME":"永康區","LI":"南灣里","LIN":"32鄰","STREET":"大灣一街","SECT":" ","MAREA":" ","LANE":"３７巷","ALLEY":"７弄","HOUSE_NO":"１２號三樓之３","E_COORD97":174283.35999999999,"N_COORD97":2544862.8900000001,"ADDRESS":"大灣一街３７巷７弄１２號三樓之３","OBJECTID":208992},"geometry":{"x":174283.3600000022,"y":2544862.8899999987}},{"attributes":{"ID":208994,"DIS_CODE":0,"TOWNNAME":"永康區","LI":"永康里","LIN":"32鄰","STREET":"永大路","SECT":"二段","MAREA":" ","LANE":"１５２６巷","ALLEY":"２弄","HOUSE_NO":"２號十一樓之５","E_COORD97":174283.95000000001,"N_COORD97":2547262.98,"ADDRESS":"永大路二段１５２６巷２弄２號十一樓之５","OBJECTID":208993},"geometry":{"x":174283.95000000019,"y":2547262.9800000023}},{"attributes":{"ID":208995,"DIS_CODE":0,"TOWNNAME":"永康區","LI":"永康里","LIN":"32鄰","STREET":"永大路","SECT":"二段","MAREA":" ","LANE":"１５２６巷","ALLEY":"２弄","HOUSE_NO":"２號七樓之７","E_COORD97":174282.70000000001,"N_COORD97":2547262.98,"ADDRESS":"永大路二段１５２６巷２弄２號七樓之７","OBJECTID":208994},"geometry":{"x":174282.70000000205,"y":2547262.9800000023}},{"attributes":{"ID":208996,"DIS_CODE":0,"TOWNNAME":"仁德區","LI":"成功里","LIN":"32鄰","STREET":"成功一街","SECT":" ","MAREA":" ","LANE":"３５巷","ALLEY":"１弄","HOUSE_NO":"１２號","E_COORD97":170594.82000000001,"N_COORD97":2540155.5099999998,"ADDRESS":"成功一街３５巷１弄１２號","OBJECTID":208995},"geometry":{"x":170594.82000000216,"y":2540155.5100000035}},{"attributes":{"ID":208997,"DIS_CODE":0,"TOWNNAME":"仁德區","LI":"後壁里","LIN":"32鄰","STREET":"德洋路","SECT":" ","MAREA":" ","LANE":"２２７巷","ALLEY":"２弄","HOUSE_NO":"１７號","E_COORD97":172490.57000000001,"N_COORD97":2539579.52,"ADDRESS":"德洋路２２７巷２弄１７號","OBJECTID":208996},"geometry":{"x":172490.57000000123,"y":2539579.5200000014}},{"attributes":{"ID":208998,"DIS_CODE":0,"TOWNNAME":"六甲區","LI":"中社里","LIN":"9鄰","STREET":" ","SECT":" ","MAREA":"中社","LANE":" ","ALLEY":" ","HOUSE_NO":"３２１號","E_COORD97":180990.54999999999,"N_COORD97":2570802.1499999999,"ADDRESS":"中社３２１號","OBJECTID":208997},"geometry":{"x":180990.54999999981,"y":2570802.1500000022}},{"attributes":{"ID":208999,"DIS_CODE":0,"TOWNNAME":"白河區","LI":"白河里","LIN":"5鄰","STREET":"新起街","SECT":" ","MAREA":" ","LANE":" ","ALLEY":" ","HOUSE_NO":"５號","E_COORD97":190272.64999999999,"N_COORD97":2582920.6200000001,"ADDRESS":"新起街５號","OBJECTID":208998},"geometry":{"x":190272.6500000013,"y":2582920.6200000029}},{"attributes":{"ID":209000,"DIS_CODE":0,"TOWNNAME":"仁德區","LI":"後壁里","LIN":"32鄰","STREET":"德洋路","SECT":" ","MAREA":" ","LANE":"２２７巷","ALLEY":"２弄","HOUSE_NO":"２０號","E_COORD97":172494.73000000001,"N_COORD97":2539590.02,"ADDRESS":"德洋路２２７巷２弄２０號","OBJECTID":208999},"geometry":{"x":172494.73000000138,"y":2539590.0200000014}},{"attributes":{"ID":209001,"DIS_CODE":0,"TOWNNAME":"仁德區","LI":"成功里","LIN":"32鄰","STREET":"成功一街","SECT":" ","MAREA":" ","LANE":"３５巷","ALLEY":"７弄","HOUSE_NO":"６號","E_COORD97":170611.19,"N_COORD97":2540159.0099999998,"ADDRESS":"成功一街３５巷７弄６號","OBJECTID":209000},"geometry":{"x":170611.19000000227,"y":2540159.0100000035}}]}