{"displayFieldName":"TOWNNAME","fieldAliases":{"ID":"ID","DIS_CODE":"DIS_CODE","TOWNNAME":"TOWNNAME","LI":"LI","LIN":"LIN","STREET":"STREET","SECT":"SECT","MAREA":"MAREA","LANE":"LANE","ALLEY":"ALLEY","HOUSE_NO":"HOUSE_NO","E_COORD97":"E_COORD97","N_COORD97":"N_COORD97","ADDRESS":"ADDRESS","OBJECTID":"OBJECTID"},"geometryType":"esriGeometryPoint","spatialReference":{"wkid":102443,"latestWkid":3826},"fields":[{"name":"ID","type":"esriFieldTypeDouble","alias":"ID"},{"name":"DIS_CODE","type":"esriFieldTypeInteger","alias":"DIS_CODE"},{"name":"TOWNNAME","type":"esriFieldTypeString","alias":"TOWNNAME","length":8},{"name":"LI","type":"esriFieldTypeString","alias":"LI","length":8},{"name":"LIN","type":"esriFieldTypeString","alias":"LIN","length":12},{"name":"STREET","type":"esriFieldTypeString","alias":"STREET","length":20},{"name":"SECT","type":"esriFieldTypeString","alias":"SECT","length":8},{"name":"MAREA","type":"esriFieldTypeString","alias":"MAREA","length":12},{"name":"LANE","type":"esriFieldTypeString","alias":"LANE","length":10},{"name":"ALLEY","type":"esriFieldTypeString","alias":"ALLEY","length":10},{"name":"HOUSE_NO","type":"esriFieldTypeString","alias":"HOUSE_NO","length":20},{"name":"E_COORD97","type":"esriFieldTypeDouble","alias":"E_COORD97"},{"name":"N_COORD97","type":"esriFieldTypeDouble","alias":"N_COORD97"},{"name":"ADDRESS","type":"esriFieldTypeString","alias":"ADDRESS","length":50},{"name":"OBJECTID","type":"esriFieldTypeOID","alias":"OBJECTID"}],"features":[{"attributes":{"ID":440826,"DIS_CODE":0,"TOWNNAME":"永康區","LI":"\u25A0洲里","LIN":"24鄰","STREET":"正南二街","SECT":" ","MAREA":" ","LANE":"８６巷","ALLEY":" ","HOUSE_NO":"１６號","E_COORD97":170790.51000000001,"N_COORD97":2548479.25,"ADDRESS":"正南二街８６巷１６號","OBJECTID":440801},"geometry":{"x":170790.51000000071,"y":2548479.25}},{"attributes":{"ID":440827,"DIS_CODE":0,"TOWNNAME":"永康區","LI":"復興里","LIN":" ","STREET":"復興路","SECT":" ","MAREA":" ","LANE":"４２９巷","ALLEY":" ","HOUSE_NO":"４２７之５號","E_COORD97":172129.56,"N_COORD97":2543914.21,"ADDRESS":"復興路４２９巷４２７之５號","OBJECTID":440802},"geometry":{"x":172129.55999999959,"y":2543914.2100000009}},{"attributes":{"ID":440828,"DIS_CODE":0,"TOWNNAME":"永康區","LI":"尚頂里","LIN":" ","STREET":"國聖街","SECT":" ","MAREA":" ","LANE":"４３巷","ALLEY":" ","HOUSE_NO":"７２號","E_COORD97":170219.26999999999,"N_COORD97":2547609.23,"ADDRESS":"國聖街４３巷７２號","OBJECTID":440803},"geometry":{"x":170219.26999999955,"y":2547609.2300000004}},{"attributes":{"ID":440829,"DIS_CODE":0,"TOWNNAME":"永康區","LI":"大橋里","LIN":" ","STREET":"大橋一街","SECT":" ","MAREA":" ","LANE":"１９７巷","ALLEY":" ","HOUSE_NO":"２９８號","E_COORD97":171196.79000000001,"N_COORD97":2546554.75,"ADDRESS":"大橋一街１９７巷２９８號","OBJECTID":440804},"geometry":{"x":171196.79000000097,"y":2546554.75}},{"attributes":{"ID":440830,"DIS_CODE":0,"TOWNNAME":"永康區","LI":"南灣里","LIN":" ","STREET":"南興路","SECT":" ","MAREA":" ","LANE":"４８巷","ALLEY":" ","HOUSE_NO":"１１之５號","E_COORD97":174552.56,"N_COORD97":2544289.5,"ADDRESS":"南興路４８巷１１之５號","OBJECTID":440805},"geometry":{"x":174552.56000000145,"y":2544289.5000000019}},{"attributes":{"ID":440831,"DIS_CODE":0,"TOWNNAME":"永康區","LI":"尚頂里","LIN":" ","STREET":"國聖街","SECT":" ","MAREA":" ","LANE":"４３巷","ALLEY":" ","HOUSE_NO":"４４號","E_COORD97":170278.64000000001,"N_COORD97":2547702.48,"ADDRESS":"國聖街４３巷４４號","OBJECTID":440806},"geometry":{"x":170278.6400000006,"y":2547702.4800000004}},{"attributes":{"ID":440832,"DIS_CODE":0,"TOWNNAME":"永康區","LI":"六合里","LIN":" ","STREET":"六合路","SECT":" ","MAREA":" ","LANE":"５８巷","ALLEY":" ","HOUSE_NO":"２號","E_COORD97":171215.73000000001,"N_COORD97":2545642.4900000002,"ADDRESS":"六合路５８巷２號","OBJECTID":440807},"geometry":{"x":171215.73000000045,"y":2545642.4900000021}},{"attributes":{"ID":440833,"DIS_CODE":0,"TOWNNAME":"永康區","LI":"三合里","LIN":" ","STREET":"南工街","SECT":" ","MAREA":" ","LANE":"１５８巷","ALLEY":" ","HOUSE_NO":"１０號","E_COORD97":171984.45000000001,"N_COORD97":2545849.9100000001,"ADDRESS":"南工街１５８巷１０號","OBJECTID":440808},"geometry":{"x":171984.45000000112,"y":2545849.910000002}},{"attributes":{"ID":440834,"DIS_CODE":0,"TOWNNAME":"永康區","LI":"大灣里","LIN":" ","STREET":"大灣六街","SECT":" ","MAREA":" ","LANE":"５９巷","ALLEY":" ","HOUSE_NO":"３２號","E_COORD97":175089.41,"N_COORD97":2545303.98,"ADDRESS":"大灣六街５９巷３２號","OBJECTID":440809},"geometry":{"x":175089.41000000015,"y":2545303.9800000023}},{"attributes":{"ID":440835,"DIS_CODE":0,"TOWNNAME":"永康區","LI":"西橋里","LIN":" ","STREET":"中華西街","SECT":" ","MAREA":" ","LANE":"１巷","ALLEY":" ","HOUSE_NO":"２２號","E_COORD97":170763.01999999999,"N_COORD97":2545880.7400000002,"ADDRESS":"中華西街１巷２２號","OBJECTID":440810},"geometry":{"x":170763.02000000048,"y":2545880.7400000039}},{"attributes":{"ID":440836,"DIS_CODE":0,"TOWNNAME":"永康區","LI":"南灣里","LIN":" ","STREET":"大灣路","SECT":" ","MAREA":" ","LANE":"６５２巷","ALLEY":" ","HOUSE_NO":"３號","E_COORD97":174457.17000000001,"N_COORD97":2544625.6899999999,"ADDRESS":"大灣路６５２巷３號","OBJECTID":440811},"geometry":{"x":174457.17000000179,"y":2544625.6899999976}},{"attributes":{"ID":440837,"DIS_CODE":0,"TOWNNAME":"永康區","LI":"尚頂里","LIN":" ","STREET":"南台街","SECT":" ","MAREA":" ","LANE":"１３巷","ALLEY":" ","HOUSE_NO":"１１號","E_COORD97":170426.78,"N_COORD97":2546885.7400000002,"ADDRESS":"南台街１３巷１１號","OBJECTID":440812},"geometry":{"x":170426.78000000026,"y":2546885.7400000021}},{"attributes":{"ID":440838,"DIS_CODE":0,"TOWNNAME":"永康區","LI":"正強里","LIN":" ","STREET":"中正路","SECT":" ","MAREA":" ","LANE":"１２７巷","ALLEY":" ","HOUSE_NO":"５２號","E_COORD97":173399.31,"N_COORD97":2547726.3999999999,"ADDRESS":"中正路１２７巷５２號","OBJECTID":440813},"geometry":{"x":173399.30999999959,"y":2547726.4000000004}},{"attributes":{"ID":440839,"DIS_CODE":0,"TOWNNAME":"永康區","LI":"大橋里","LIN":"13鄰","STREET":"大橋二街","SECT":" ","MAREA":" ","LANE":"２３９巷","ALLEY":" ","HOUSE_NO":"４號","E_COORD97":171111.92999999999,"N_COORD97":2546831.25,"ADDRESS":"大橋二街２３９巷４號","OBJECTID":440814},"geometry":{"x":171111.9299999997,"y":2546831.2500000019}},{"attributes":{"ID":440840,"DIS_CODE":0,"TOWNNAME":"永康區","LI":"南灣里","LIN":" ","STREET":"立興街","SECT":" ","MAREA":" ","LANE":"７４巷","ALLEY":" ","HOUSE_NO":"２８號","E_COORD97":174521.22,"N_COORD97":2544862.25,"ADDRESS":"立興街７４巷２８號","OBJECTID":440815},"geometry":{"x":174521.22000000067,"y":2544862.25}},{"attributes":{"ID":440841,"DIS_CODE":0,"TOWNNAME":"永康區","LI":"尚頂里","LIN":" ","STREET":"中正二街","SECT":" ","MAREA":" ","LANE":"１６９巷","ALLEY":" ","HOUSE_NO":"７２之５號","E_COORD97":171244.25,"N_COORD97":2547811.8900000001,"ADDRESS":"中正二街１６９巷７２之５號","OBJECTID":440816},"geometry":{"x":171244.25000000186,"y":2547811.8900000006}},{"attributes":{"ID":440842,"DIS_CODE":0,"TOWNNAME":"永康區","LI":"尚頂里","LIN":" ","STREET":"中正二街","SECT":" ","MAREA":" ","LANE":"１６９巷","ALLEY":" ","HOUSE_NO":"７２之２號","E_COORD97":171226.41,"N_COORD97":2547800.3999999999,"ADDRESS":"中正二街１６９巷７２之２號","OBJECTID":440817},"geometry":{"x":171226.41000000201,"y":2547800.4000000022}},{"attributes":{"ID":440843,"DIS_CODE":0,"TOWNNAME":"永康區","LI":"\u25A0洲里","LIN":"36鄰","STREET":"\u25A0洲二街","SECT":" ","MAREA":" ","LANE":"１７５巷","ALLEY":" ","HOUSE_NO":"２５號","E_COORD97":171666.57000000001,"N_COORD97":2549451.75,"ADDRESS":"\u25A0洲二街１７５巷２５號","OBJECTID":440818},"geometry":{"x":171666.57000000123,"y":2549451.7500000019}},{"attributes":{"ID":440844,"DIS_CODE":0,"TOWNNAME":"永康區","LI":"\u25A0洲里","LIN":"5鄰","STREET":"仁愛街","SECT":" ","MAREA":" ","LANE":"１０３巷","ALLEY":" ","HOUSE_NO":"９０號","E_COORD97":171874.84,"N_COORD97":2549579.77,"ADDRESS":"仁愛街１０３巷９０號","OBJECTID":440819},"geometry":{"x":171874.84000000078,"y":2549579.7700000014}},{"attributes":{"ID":440845,"DIS_CODE":0,"TOWNNAME":"永康區","LI":"\u25A0洲里","LIN":"5鄰","STREET":"仁愛街","SECT":" ","MAREA":" ","LANE":"１０３巷","ALLEY":" ","HOUSE_NO":"２３號","E_COORD97":171952.13,"N_COORD97":2549508.77,"ADDRESS":"仁愛街１０３巷２３號","OBJECTID":440820},"geometry":{"x":171952.13000000082,"y":2549508.7700000014}},{"attributes":{"ID":440846,"DIS_CODE":0,"TOWNNAME":"永康區","LI":"大橋里","LIN":"13鄰","STREET":"大橋二街","SECT":" ","MAREA":" ","LANE":"２３９巷","ALLEY":" ","HOUSE_NO":"８號","E_COORD97":171125.42999999999,"N_COORD97":2546839.75,"ADDRESS":"大橋二街２３９巷８號","OBJECTID":440821},"geometry":{"x":171125.4299999997,"y":2546839.7499999981}},{"attributes":{"ID":440847,"DIS_CODE":0,"TOWNNAME":"永康區","LI":"\u25A0洲里","LIN":"40鄰","STREET":"正南六街","SECT":" ","MAREA":" ","LANE":"１０５巷","ALLEY":" ","HOUSE_NO":"１８號","E_COORD97":170775,"N_COORD97":2548598.5,"ADDRESS":"正南六街１０５巷１８號","OBJECTID":440822},"geometry":{"x":170775.00000000093,"y":2548598.5000000019}},{"attributes":{"ID":440848,"DIS_CODE":0,"TOWNNAME":"永康區","LI":"復興里","LIN":" ","STREET":"復興路","SECT":" ","MAREA":" ","LANE":"４２９巷","ALLEY":" ","HOUSE_NO":"４２７之７號","E_COORD97":172124.64999999999,"N_COORD97":2543909.96,"ADDRESS":"復興路４２９巷４２７之７號","OBJECTID":440823},"geometry":{"x":172124.65000000037,"y":2543909.959999999}},{"attributes":{"ID":440849,"DIS_CODE":0,"TOWNNAME":"永康區","LI":"西勢里","LIN":" ","STREET":"富強路","SECT":"一段","MAREA":" ","LANE":"３２１巷","ALLEY":" ","HOUSE_NO":"６０號","E_COORD97":175587.38,"N_COORD97":2546757.96,"ADDRESS":"富強路一段３２１巷６０號","OBJECTID":440824},"geometry":{"x":175587.37999999989,"y":2546757.959999999}},{"attributes":{"ID":440850,"DIS_CODE":0,"TOWNNAME":"永康區","LI":"安康里","LIN":" ","STREET":"中山南路","SECT":" ","MAREA":" ","LANE":"１０４巷","ALLEY":" ","HOUSE_NO":"２０之１號","E_COORD97":171009.63,"N_COORD97":2545899.0499999998,"ADDRESS":"中山南路１０４巷２０之１號","OBJECTID":440825},"geometry":{"x":171009.63000000082,"y":2545899.0500000007}},{"attributes":{"ID":440851,"DIS_CODE":0,"TOWNNAME":"永康區","LI":"安康里","LIN":" ","STREET":"中華路","SECT":" ","MAREA":" ","LANE":"７２７巷","ALLEY":" ","HOUSE_NO":"５７之２號","E_COORD97":170823.26999999999,"N_COORD97":2546378.9900000002,"ADDRESS":"中華路７２７巷５７之２號","OBJECTID":440826},"geometry":{"x":170823.27000000142,"y":2546378.9900000021}},{"attributes":{"ID":440852,"DIS_CODE":0,"TOWNNAME":"永康區","LI":"南灣里","LIN":" ","STREET":"立興街","SECT":" ","MAREA":" ","LANE":"５７巷","ALLEY":" ","HOUSE_NO":"１４號","E_COORD97":174614.85999999999,"N_COORD97":2544789.27,"ADDRESS":"立興街５７巷１４號","OBJECTID":440827},"geometry":{"x":174614.86000000034,"y":2544789.2700000014}},{"attributes":{"ID":440853,"DIS_CODE":0,"TOWNNAME":"永康區","LI":"大橋里","LIN":" ","STREET":"大橋三街","SECT":" ","MAREA":" ","LANE":"２６６巷","ALLEY":" ","HOUSE_NO":"１１９號","E_COORD97":170907.75,"N_COORD97":2546725.75,"ADDRESS":"大橋三街２６６巷１１９號","OBJECTID":440828},"geometry":{"x":170907.75000000093,"y":2546725.7500000019}},{"attributes":{"ID":440854,"DIS_CODE":0,"TOWNNAME":"永康區","LI":"南灣里","LIN":" ","STREET":"南興路","SECT":" ","MAREA":" ","LANE":"２巷","ALLEY":" ","HOUSE_NO":"５之１號","E_COORD97":174276.87,"N_COORD97":2543926.3399999999,"ADDRESS":"南興路２巷５之１號","OBJECTID":440829},"geometry":{"x":174276.87000000104,"y":2543926.3399999999}},{"attributes":{"ID":440855,"DIS_CODE":0,"TOWNNAME":"永康區","LI":"\u25A0洲里","LIN":"36鄰","STREET":"\u25A0洲二街","SECT":" ","MAREA":" ","LANE":"１７５巷","ALLEY":" ","HOUSE_NO":"４６號","E_COORD97":171666.92999999999,"N_COORD97":2549480.9900000002,"ADDRESS":"\u25A0洲二街１７５巷４６號","OBJECTID":440830},"geometry":{"x":171666.93000000063,"y":2549480.9900000021}},{"attributes":{"ID":440856,"DIS_CODE":0,"TOWNNAME":"永康區","LI":"\u25A0洲里","LIN":"5鄰","STREET":"仁愛街","SECT":" ","MAREA":" ","LANE":"１０３巷","ALLEY":" ","HOUSE_NO":"９６號","E_COORD97":171862.47,"N_COORD97":2549578.02,"ADDRESS":"仁愛街１０３巷９６號","OBJECTID":440831},"geometry":{"x":171862.46999999974,"y":2549578.0200000014}},{"attributes":{"ID":440857,"DIS_CODE":0,"TOWNNAME":"永康區","LI":"西勢里","LIN":" ","STREET":"富強路","SECT":"一段","MAREA":" ","LANE":"１９４巷","ALLEY":" ","HOUSE_NO":"２１５之６號","E_COORD97":175695.64999999999,"N_COORD97":2545890.7999999998,"ADDRESS":"富強路一段１９４巷２１５之６號","OBJECTID":440832},"geometry":{"x":175695.6500000013,"y":2545890.8000000007}},{"attributes":{"ID":440858,"DIS_CODE":0,"TOWNNAME":"永康區","LI":"勝利里","LIN":"38鄰","STREET":"勝利街","SECT":" ","MAREA":" ","LANE":"１９７巷","ALLEY":" ","HOUSE_NO":"６號","E_COORD97":171331.14000000001,"N_COORD97":2545145.75,"ADDRESS":"勝利街１９７巷６號","OBJECTID":440833},"geometry":{"x":171331.14000000153,"y":2545145.7500000019}},{"attributes":{"ID":440859,"DIS_CODE":0,"TOWNNAME":"永康區","LI":"尚頂里","LIN":" ","STREET":"國聖街","SECT":" ","MAREA":" ","LANE":"４３巷","ALLEY":" ","HOUSE_NO":"８９號","E_COORD97":170200.54000000001,"N_COORD97":2547549.4900000002,"ADDRESS":"國聖街４３巷８９號","OBJECTID":440834},"geometry":{"x":170200.54000000097,"y":2547549.4900000002}},{"attributes":{"ID":440860,"DIS_CODE":0,"TOWNNAME":"永康區","LI":"尚頂里","LIN":" ","STREET":"國聖街","SECT":" ","MAREA":" ","LANE":"６５０巷","ALLEY":" ","HOUSE_NO":"２０號","E_COORD97":170363.73999999999,"N_COORD97":2547996.25,"ADDRESS":"國聖街６５０巷２０號","OBJECTID":440835},"geometry":{"x":170363.74000000115,"y":2547996.2500000037}},{"attributes":{"ID":440861,"DIS_CODE":0,"TOWNNAME":"永康區","LI":"南灣里","LIN":" ","STREET":"南興路","SECT":" ","MAREA":" ","LANE":"４８巷","ALLEY":" ","HOUSE_NO":"１１之４號","E_COORD97":174557.26000000001,"N_COORD97":2544273.1699999999,"ADDRESS":"南興路４８巷１１之４號","OBJECTID":440836},"geometry":{"x":174557.25999999978,"y":2544273.1699999999}},{"attributes":{"ID":440862,"DIS_CODE":0,"TOWNNAME":"永康區","LI":"三合里","LIN":" ","STREET":"南工街","SECT":" ","MAREA":" ","LANE":"１５８巷","ALLEY":" ","HOUSE_NO":"８號","E_COORD97":171987.31,"N_COORD97":2545849.4100000001,"ADDRESS":"南工街１５８巷８號","OBJECTID":440837},"geometry":{"x":171987.30999999959,"y":2545849.410000002}},{"attributes":{"ID":440863,"DIS_CODE":0,"TOWNNAME":"永康區","LI":"永康里","LIN":" ","STREET":"中山南路","SECT":" ","MAREA":" ","LANE":"６２１巷","ALLEY":" ","HOUSE_NO":"４９號","E_COORD97":173519.64999999999,"N_COORD97":2547353.25,"ADDRESS":"中山南路６２１巷４９號","OBJECTID":440838},"geometry":{"x":173519.65000000037,"y":2547353.2500000019}},{"attributes":{"ID":440864,"DIS_CODE":0,"TOWNNAME":"永康區","LI":"龍潭里","LIN":" ","STREET":"龍潭街","SECT":" ","MAREA":" ","LANE":"７５巷","ALLEY":" ","HOUSE_NO":"１５號","E_COORD97":174758.45999999999,"N_COORD97":2548044.2999999998,"ADDRESS":"龍潭街７５巷１５號","OBJECTID":440839},"geometry":{"x":174758.45999999996,"y":2548044.3000000026}},{"attributes":{"ID":440865,"DIS_CODE":0,"TOWNNAME":"永康區","LI":"東橋里","LIN":" ","STREET":"中山南路","SECT":" ","MAREA":" ","LANE":"３６５巷","ALLEY":" ","HOUSE_NO":"４之２３號","E_COORD97":172794.23000000001,"N_COORD97":2547063.6400000001,"ADDRESS":"中山南路３６５巷４之２３號","OBJECTID":440840},"geometry":{"x":172794.22999999952,"y":2547063.6400000006}},{"attributes":{"ID":440866,"DIS_CODE":0,"TOWNNAME":"永康區","LI":"成功里","LIN":" ","STREET":"忠孝路","SECT":" ","MAREA":" ","LANE":"１９６巷","ALLEY":" ","HOUSE_NO":"１３號","E_COORD97":172417.82999999999,"N_COORD97":2545038.2400000002,"ADDRESS":"忠孝路１９６巷１３號","OBJECTID":440841},"geometry":{"x":172417.83000000007,"y":2545038.2400000021}},{"attributes":{"ID":440867,"DIS_CODE":0,"TOWNNAME":"永康區","LI":"蔦松里","LIN":" ","STREET":"蔦松三街","SECT":" ","MAREA":" ","LANE":"１４７巷","ALLEY":" ","HOUSE_NO":"１１７號","E_COORD97":173864.12,"N_COORD97":2549906.9900000002,"ADDRESS":"蔦松三街１４７巷１１７號","OBJECTID":440842},"geometry":{"x":173864.12000000011,"y":2549906.9900000039}},{"attributes":{"ID":440868,"DIS_CODE":0,"TOWNNAME":"永康區","LI":"尚頂里","LIN":" ","STREET":"南台街","SECT":" ","MAREA":" ","LANE":"１０巷","ALLEY":" ","HOUSE_NO":"１０之３號","E_COORD97":170479.54000000001,"N_COORD97":2546992.5499999998,"ADDRESS":"南台街１０巷１０之３號","OBJECTID":440843},"geometry":{"x":170479.5400000019,"y":2546992.5500000026}},{"attributes":{"ID":440869,"DIS_CODE":0,"TOWNNAME":"永康區","LI":"埔園里","LIN":" ","STREET":"中山路","SECT":" ","MAREA":" ","LANE":"５３６巷","ALLEY":" ","HOUSE_NO":"３號","E_COORD97":173538.14000000001,"N_COORD97":2548772.9900000002,"ADDRESS":"中山路５３６巷３號","OBJECTID":440844},"geometry":{"x":173538.13999999966,"y":2548772.9900000002}},{"attributes":{"ID":440870,"DIS_CODE":0,"TOWNNAME":"永康區","LI":"三合里","LIN":" ","STREET":"南工街","SECT":" ","MAREA":" ","LANE":"２４７巷","ALLEY":" ","HOUSE_NO":"３７號","E_COORD97":171961.04000000001,"N_COORD97":2545769.9900000002,"ADDRESS":"南工街２４７巷３７號","OBJECTID":440845},"geometry":{"x":171961.03999999911,"y":2545769.9900000002}},{"attributes":{"ID":440871,"DIS_CODE":0,"TOWNNAME":"永康區","LI":"崑山里","LIN":"32鄰","STREET":"崑山街","SECT":" ","MAREA":" ","LANE":"１３６巷","ALLEY":" ","HOUSE_NO":"２３號","E_COORD97":174088.82000000001,"N_COORD97":2544834.8599999999,"ADDRESS":"崑山街１３６巷２３號","OBJECTID":440846},"geometry":{"x":174088.82000000123,"y":2544834.8600000031}},{"attributes":{"ID":440872,"DIS_CODE":0,"TOWNNAME":"永康區","LI":"\u25A0洲里","LIN":"4鄰","STREET":"\u25A0洲二街","SECT":" ","MAREA":" ","LANE":"１１１巷","ALLEY":" ","HOUSE_NO":"１２號","E_COORD97":171596.76999999999,"N_COORD97":2549339.75,"ADDRESS":"\u25A0洲二街１１１巷１２號","OBJECTID":440847},"geometry":{"x":171596.77000000048,"y":2549339.7500000019}},{"attributes":{"ID":440873,"DIS_CODE":0,"TOWNNAME":"永康區","LI":"尚頂里","LIN":" ","STREET":"南台街","SECT":" ","MAREA":" ","LANE":"８９巷","ALLEY":" ","HOUSE_NO":"２０號","E_COORD97":170184,"N_COORD97":2546969.1800000002,"ADDRESS":"南台街８９巷２０號","OBJECTID":440848},"geometry":{"x":170184,"y":2546969.1800000034}},{"attributes":{"ID":440874,"DIS_CODE":0,"TOWNNAME":"永康區","LI":"六合里","LIN":" ","STREET":"六合路","SECT":" ","MAREA":" ","LANE":"４７巷","ALLEY":" ","HOUSE_NO":"１７號","E_COORD97":171088.79000000001,"N_COORD97":2545569.9900000002,"ADDRESS":"六合路４７巷１７號","OBJECTID":440849},"geometry":{"x":171088.79000000097,"y":2545569.9900000002}},{"attributes":{"ID":440875,"DIS_CODE":0,"TOWNNAME":"永康區","LI":"尚頂里","LIN":" ","STREET":"國聖街","SECT":" ","MAREA":" ","LANE":"４３巷","ALLEY":" ","HOUSE_NO":"８５號","E_COORD97":170216.84,"N_COORD97":2547574.9900000002,"ADDRESS":"國聖街４３巷８５號","OBJECTID":440850},"geometry":{"x":170216.84000000078,"y":2547574.9900000021}},{"attributes":{"ID":440876,"DIS_CODE":0,"TOWNNAME":"永康區","LI":"尚頂里","LIN":" ","STREET":"國聖街","SECT":" ","MAREA":" ","LANE":"４３巷","ALLEY":" ","HOUSE_NO":"３８號","E_COORD97":170296.17999999999,"N_COORD97":2547726.48,"ADDRESS":"國聖街４３巷３８號","OBJECTID":440851},"geometry":{"x":170296.1799999997,"y":2547726.4800000004}},{"attributes":{"ID":440877,"DIS_CODE":0,"TOWNNAME":"永康區","LI":"\u25A0洲里","LIN":"25鄰","STREET":"國聖街","SECT":" ","MAREA":" ","LANE":"１６７巷","ALLEY":" ","HOUSE_NO":"２９號","E_COORD97":170564.89000000001,"N_COORD97":2548304.75,"ADDRESS":"國聖街１６７巷２９號","OBJECTID":440852},"geometry":{"x":170564.89000000153,"y":2548304.7500000037}},{"attributes":{"ID":440878,"DIS_CODE":0,"TOWNNAME":"永康區","LI":"南灣里","LIN":" ","STREET":"南興路","SECT":" ","MAREA":" ","LANE":"３巷","ALLEY":" ","HOUSE_NO":"７之５號","E_COORD97":173843.85000000001,"N_COORD97":2543838.6299999999,"ADDRESS":"南興路３巷７之５號","OBJECTID":440853},"geometry":{"x":173843.85000000056,"y":2543838.629999999}},{"attributes":{"ID":440879,"DIS_CODE":0,"TOWNNAME":"永康區","LI":"尚頂里","LIN":" ","STREET":"國聖街","SECT":" ","MAREA":" ","LANE":"４３巷","ALLEY":" ","HOUSE_NO":"８３號","E_COORD97":170221.84,"N_COORD97":2547582.9900000002,"ADDRESS":"國聖街４３巷８３號","OBJECTID":440854},"geometry":{"x":170221.84000000078,"y":2547582.9900000002}},{"attributes":{"ID":440880,"DIS_CODE":0,"TOWNNAME":"永康區","LI":"尚頂里","LIN":" ","STREET":"國聖街","SECT":" ","MAREA":" ","LANE":"４３巷","ALLEY":" ","HOUSE_NO":"６５號","E_COORD97":170261.23999999999,"N_COORD97":2547642.73,"ADDRESS":"國聖街４３巷６５號","OBJECTID":440855},"geometry":{"x":170261.24000000022,"y":2547642.7300000004}},{"attributes":{"ID":440881,"DIS_CODE":0,"TOWNNAME":"永康區","LI":"\u25A0洲里","LIN":"4鄰","STREET":"\u25A0洲二街","SECT":" ","MAREA":" ","LANE":"１１１巷","ALLEY":" ","HOUSE_NO":"２２號","E_COORD97":171580.12,"N_COORD97":2549348,"ADDRESS":"\u25A0洲二街１１１巷２２號","OBJECTID":440856},"geometry":{"x":171580.12000000011,"y":2549348.0000000019}},{"attributes":{"ID":440882,"DIS_CODE":0,"TOWNNAME":"大內區","LI":"曲溪里","LIN":"8鄰","STREET":" ","SECT":" ","MAREA":"二重溪","LANE":" ","ALLEY":" ","HOUSE_NO":"７２之８號","E_COORD97":187240.48708600001,"N_COORD97":2557947.7487499998,"ADDRESS":"二重溪７２之８號","OBJECTID":440857},"geometry":{"x":187240.48708600085,"y":2557947.7487480026}},{"attributes":{"ID":440883,"DIS_CODE":0,"TOWNNAME":"永康區","LI":"蔦松里","LIN":" ","STREET":"蔦松一街","SECT":" ","MAREA":" ","LANE":"３５巷","ALLEY":" ","HOUSE_NO":"１９號","E_COORD97":173967.23999999999,"N_COORD97":2549296.9900000002,"ADDRESS":"蔦松一街３５巷１９號","OBJECTID":440858},"geometry":{"x":173967.24000000115,"y":2549296.9900000021}},{"attributes":{"ID":440884,"DIS_CODE":0,"TOWNNAME":"永康區","LI":"永康里","LIN":" ","STREET":"中山南路","SECT":" ","MAREA":" ","LANE":"６２１巷","ALLEY":" ","HOUSE_NO":"２２號","E_COORD97":173554.20999999999,"N_COORD97":2547315.4900000002,"ADDRESS":"中山南路６２１巷２２號","OBJECTID":440859},"geometry":{"x":173554.21000000089,"y":2547315.4900000002}},{"attributes":{"ID":440885,"DIS_CODE":0,"TOWNNAME":"永康區","LI":"\u25A0洲里","LIN":"4鄰","STREET":"\u25A0洲二街","SECT":" ","MAREA":" ","LANE":"１３３巷","ALLEY":" ","HOUSE_NO":"６號","E_COORD97":171639.20000000001,"N_COORD97":2549364.2400000002,"ADDRESS":"\u25A0洲二街１３３巷６號","OBJECTID":440860},"geometry":{"x":171639.20000000019,"y":2549364.2400000021}},{"attributes":{"ID":440886,"DIS_CODE":0,"TOWNNAME":"永康區","LI":"蔦松里","LIN":" ","STREET":"蔦松一街","SECT":" ","MAREA":" ","LANE":"７４巷","ALLEY":" ","HOUSE_NO":"２７號","E_COORD97":173906.07999999999,"N_COORD97":2549568.9900000002,"ADDRESS":"蔦松一街７４巷２７號","OBJECTID":440861},"geometry":{"x":173906.08000000101,"y":2549568.9900000021}},{"attributes":{"ID":440887,"DIS_CODE":0,"TOWNNAME":"永康區","LI":"南灣里","LIN":" ","STREET":"南興路","SECT":" ","MAREA":" ","LANE":"４８巷","ALLEY":" ","HOUSE_NO":"１１之３號","E_COORD97":174562.09,"N_COORD97":2544259.5699999998,"ADDRESS":"南興路４８巷１１之３號","OBJECTID":440862},"geometry":{"x":174562.08999999985,"y":2544259.5700000022}},{"attributes":{"ID":440888,"DIS_CODE":0,"TOWNNAME":"永康區","LI":"甲頂里","LIN":" ","STREET":"大武街","SECT":" ","MAREA":" ","LANE":"９１２巷","ALLEY":" ","HOUSE_NO":"６８號","E_COORD97":170435.5,"N_COORD97":2546786.9900000002,"ADDRESS":"大武街９１２巷６８號","OBJECTID":440863},"geometry":{"x":170435.5,"y":2546786.9900000002}},{"attributes":{"ID":440889,"DIS_CODE":0,"TOWNNAME":"永康區","LI":"南灣里","LIN":" ","STREET":"南興路","SECT":" ","MAREA":" ","LANE":"１１２巷","ALLEY":" ","HOUSE_NO":"９之３號","E_COORD97":174338.54000000001,"N_COORD97":2544508.9900000002,"ADDRESS":"南興路１１２巷９之３號","OBJECTID":440864},"geometry":{"x":174338.54000000097,"y":2544508.9900000002}},{"attributes":{"ID":440890,"DIS_CODE":0,"TOWNNAME":"永康區","LI":"西勢里","LIN":" ","STREET":"富強路","SECT":"一段","MAREA":" ","LANE":"９８巷","ALLEY":" ","HOUSE_NO":"１８號","E_COORD97":175511.81,"N_COORD97":2546143.2799999998,"ADDRESS":"富強路一段９８巷１８號","OBJECTID":440865},"geometry":{"x":175511.80999999959,"y":2546143.2799999993}},{"attributes":{"ID":440891,"DIS_CODE":0,"TOWNNAME":"永康區","LI":"尚頂里","LIN":" ","STREET":"南台街","SECT":" ","MAREA":" ","LANE":"１０巷","ALLEY":" ","HOUSE_NO":"１０之２號","E_COORD97":170480.64999999999,"N_COORD97":2546988.5499999998,"ADDRESS":"南台街１０巷１０之２號","OBJECTID":440866},"geometry":{"x":170480.65000000037,"y":2546988.5500000026}},{"attributes":{"ID":440892,"DIS_CODE":0,"TOWNNAME":"永康區","LI":"南灣里","LIN":" ","STREET":"南興路","SECT":" ","MAREA":" ","LANE":"３巷","ALLEY":" ","HOUSE_NO":"７之７號","E_COORD97":173885.25,"N_COORD97":2543822.8500000001,"ADDRESS":"南興路３巷７之７號","OBJECTID":440867},"geometry":{"x":173885.25,"y":2543822.8500000015}},{"attributes":{"ID":440893,"DIS_CODE":0,"TOWNNAME":"永康區","LI":"西橋里","LIN":" ","STREET":"大橋三街","SECT":" ","MAREA":" ","LANE":"１０巷","ALLEY":" ","HOUSE_NO":"１６之６號","E_COORD97":170525.14999999999,"N_COORD97":2546308.2999999998,"ADDRESS":"大橋三街１０巷１６之６號","OBJECTID":440868},"geometry":{"x":170525.1500000013,"y":2546308.3000000045}},{"attributes":{"ID":440894,"DIS_CODE":0,"TOWNNAME":"永康區","LI":"復興里","LIN":" ","STREET":"復興路","SECT":" ","MAREA":" ","LANE":"４２９巷","ALLEY":" ","HOUSE_NO":"４２７之１號","E_COORD97":172153.45999999999,"N_COORD97":2543914.96,"ADDRESS":"復興路４２９巷４２７之１號","OBJECTID":440869},"geometry":{"x":172153.46000000089,"y":2543914.9600000028}},{"attributes":{"ID":440895,"DIS_CODE":0,"TOWNNAME":"永康區","LI":"復興里","LIN":" ","STREET":"復興路","SECT":" ","MAREA":" ","LANE":"４２９巷","ALLEY":" ","HOUSE_NO":"４２７之２號","E_COORD97":172146.85999999999,"N_COORD97":2543914.96,"ADDRESS":"復興路４２９巷４２７之２號","OBJECTID":440870},"geometry":{"x":172146.86000000034,"y":2543914.9600000028}},{"attributes":{"ID":440896,"DIS_CODE":0,"TOWNNAME":"永康區","LI":"甲頂里","LIN":" ","STREET":"中央路","SECT":" ","MAREA":" ","LANE":"２３巷","ALLEY":" ","HOUSE_NO":"１１之１號","E_COORD97":169578.59,"N_COORD97":2546976.02,"ADDRESS":"中央路２３巷１１之１號","OBJECTID":440871},"geometry":{"x":169578.58999999985,"y":2546976.0199999996}},{"attributes":{"ID":440897,"DIS_CODE":0,"TOWNNAME":"永康區","LI":"\u25A0洲里","LIN":"36鄰","STREET":"\u25A0洲二街","SECT":" ","MAREA":" ","LANE":"１７５巷","ALLEY":" ","HOUSE_NO":"２０號","E_COORD97":171695.92000000001,"N_COORD97":2549451.75,"ADDRESS":"\u25A0洲二街１７５巷２０號","OBJECTID":440872},"geometry":{"x":171695.92000000086,"y":2549451.7500000019}},{"attributes":{"ID":440898,"DIS_CODE":0,"TOWNNAME":"永康區","LI":"\u25A0洲里","LIN":"5鄰","STREET":"仁愛街","SECT":" ","MAREA":" ","LANE":"１０３巷","ALLEY":" ","HOUSE_NO":"６６號","E_COORD97":171916.23000000001,"N_COORD97":2549551.6099999999,"ADDRESS":"仁愛街１０３巷６６號","OBJECTID":440873},"geometry":{"x":171916.23000000231,"y":2549551.6099999994}},{"attributes":{"ID":440899,"DIS_CODE":0,"TOWNNAME":"永康區","LI":"六合里","LIN":" ","STREET":"六合路","SECT":" ","MAREA":" ","LANE":"４４巷","ALLEY":" ","HOUSE_NO":"３９號","E_COORD97":171262.85999999999,"N_COORD97":2545556.2400000002,"ADDRESS":"六合路４４巷３９號","OBJECTID":440874},"geometry":{"x":171262.86000000127,"y":2545556.2400000021}},{"attributes":{"ID":440900,"DIS_CODE":0,"TOWNNAME":"永康區","LI":"尚頂里","LIN":" ","STREET":"國聖街","SECT":" ","MAREA":" ","LANE":"４３巷","ALLEY":" ","HOUSE_NO":"４９號","E_COORD97":170291.91,"N_COORD97":2547688.9900000002,"ADDRESS":"國聖街４３巷４９號","OBJECTID":440875},"geometry":{"x":170291.91000000015,"y":2547688.9900000002}},{"attributes":{"ID":440901,"DIS_CODE":0,"TOWNNAME":"永康區","LI":"\u25A0洲里","LIN":"4鄰","STREET":"\u25A0洲二街","SECT":" ","MAREA":" ","LANE":"１３３巷","ALLEY":" ","HOUSE_NO":"１３號","E_COORD97":171610.44,"N_COORD97":2549363.5299999998,"ADDRESS":"\u25A0洲二街１３３巷１３號","OBJECTID":440876},"geometry":{"x":171610.44000000134,"y":2549363.5300000012}},{"attributes":{"ID":440902,"DIS_CODE":0,"TOWNNAME":"永康區","LI":"東橋里","LIN":" ","STREET":"大橋一街","SECT":" ","MAREA":" ","LANE":"３３０巷","ALLEY":" ","HOUSE_NO":"３２８號","E_COORD97":171337.60999999999,"N_COORD97":2546667.2799999998,"ADDRESS":"大橋一街３３０巷３２８號","OBJECTID":440877},"geometry":{"x":171337.61000000127,"y":2546667.2800000012}},{"attributes":{"ID":440903,"DIS_CODE":0,"TOWNNAME":"永康區","LI":"三合里","LIN":" ","STREET":"南工街","SECT":" ","MAREA":" ","LANE":"１５８巷","ALLEY":" ","HOUSE_NO":"１３號","E_COORD97":171989.85000000001,"N_COORD97":2545836.5600000001,"ADDRESS":"南工街１５８巷１３號","OBJECTID":440878},"geometry":{"x":171989.85000000056,"y":2545836.5600000005}},{"attributes":{"ID":440904,"DIS_CODE":0,"TOWNNAME":"永康區","LI":"尚頂里","LIN":" ","STREET":"國聖街","SECT":" ","MAREA":" ","LANE":"４３巷","ALLEY":" ","HOUSE_NO":"５９號","E_COORD97":170273.01000000001,"N_COORD97":2547659.2400000002,"ADDRESS":"國聖街４３巷５９號","OBJECTID":440879},"geometry":{"x":170273.01000000071,"y":2547659.2400000002}},{"attributes":{"ID":440905,"DIS_CODE":0,"TOWNNAME":"永康區","LI":"尚頂里","LIN":" ","STREET":"國聖街","SECT":" ","MAREA":" ","LANE":"４３巷","ALLEY":" ","HOUSE_NO":"１２號","E_COORD97":170328.23999999999,"N_COORD97":2547824.48,"ADDRESS":"國聖街４３巷１２號","OBJECTID":440880},"geometry":{"x":170328.24000000115,"y":2547824.4800000004}},{"attributes":{"ID":440906,"DIS_CODE":0,"TOWNNAME":"永康區","LI":"勝利里","LIN":" ","STREET":"勝利街","SECT":" ","MAREA":" ","LANE":"１１３巷","ALLEY":" ","HOUSE_NO":"５號","E_COORD97":171332.89999999999,"N_COORD97":2544916.5,"ADDRESS":"勝利街１１３巷５號","OBJECTID":440881},"geometry":{"x":171332.90000000037,"y":2544916.5000000019}},{"attributes":{"ID":440907,"DIS_CODE":0,"TOWNNAME":"永康區","LI":"安康里","LIN":" ","STREET":"中華西街","SECT":" ","MAREA":" ","LANE":"１９６巷","ALLEY":" ","HOUSE_NO":"３１號","E_COORD97":170713.92999999999,"N_COORD97":2546389.8199999998,"ADDRESS":"中華西街１９６巷３１號","OBJECTID":440882},"geometry":{"x":170713.93000000156,"y":2546389.8200000022}},{"attributes":{"ID":440908,"DIS_CODE":0,"TOWNNAME":"永康區","LI":"安康里","LIN":" ","STREET":"中華西街","SECT":" ","MAREA":" ","LANE":"１９６巷","ALLEY":" ","HOUSE_NO":"３３號","E_COORD97":170713.92999999999,"N_COORD97":2546389.8199999998,"ADDRESS":"中華西街１９６巷３３號","OBJECTID":440883},"geometry":{"x":170713.93000000156,"y":2546389.8200000022}},{"attributes":{"ID":440909,"DIS_CODE":0,"TOWNNAME":"永康區","LI":"尚頂里","LIN":" ","STREET":"中正二街","SECT":" ","MAREA":" ","LANE":"１６９巷","ALLEY":" ","HOUSE_NO":"７２之１號","E_COORD97":171220.98000000001,"N_COORD97":2547796.6499999999,"ADDRESS":"中正二街１６９巷７２之１號","OBJECTID":440884},"geometry":{"x":171220.98000000045,"y":2547796.6500000004}},{"attributes":{"ID":440910,"DIS_CODE":0,"TOWNNAME":"永康區","LI":"六合里","LIN":" ","STREET":"六合路","SECT":" ","MAREA":" ","LANE":"４４巷","ALLEY":" ","HOUSE_NO":"３號","E_COORD97":171184.85999999999,"N_COORD97":2545574.4900000002,"ADDRESS":"六合路４４巷３號","OBJECTID":440885},"geometry":{"x":171184.86000000127,"y":2545574.4900000021}},{"attributes":{"ID":440911,"DIS_CODE":0,"TOWNNAME":"永康區","LI":"三合里","LIN":" ","STREET":"南工街","SECT":" ","MAREA":" ","LANE":"１５８巷","ALLEY":" ","HOUSE_NO":"１４號","E_COORD97":171976.45000000001,"N_COORD97":2545850.9100000001,"ADDRESS":"南工街１５８巷１４號","OBJECTID":440886},"geometry":{"x":171976.45000000019,"y":2545850.9100000001}},{"attributes":{"ID":440912,"DIS_CODE":0,"TOWNNAME":"永康區","LI":"南灣里","LIN":" ","STREET":"南興路","SECT":" ","MAREA":" ","LANE":"１１２巷","ALLEY":" ","HOUSE_NO":"６號之１","E_COORD97":174375.10999999999,"N_COORD97":2544436.8999999999,"ADDRESS":"南興路１１２巷６號之１","OBJECTID":440887},"geometry":{"x":174375.11000000127,"y":2544436.9000000022}},{"attributes":{"ID":440913,"DIS_CODE":0,"TOWNNAME":"永康區","LI":"尚頂里","LIN":" ","STREET":"正南一街","SECT":" ","MAREA":" ","LANE":"１１８巷","ALLEY":" ","HOUSE_NO":"１２０號","E_COORD97":170900.07999999999,"N_COORD97":2547288.5899999999,"ADDRESS":"正南一街１１８巷１２０號","OBJECTID":440888},"geometry":{"x":170900.08000000101,"y":2547288.5900000036}},{"attributes":{"ID":440914,"DIS_CODE":0,"TOWNNAME":"永康區","LI":"西勢里","LIN":" ","STREET":"富強路","SECT":"一段","MAREA":" ","LANE":"１９４巷","ALLEY":" ","HOUSE_NO":"２１５之８號","E_COORD97":175697.35000000001,"N_COORD97":2545915.7999999998,"ADDRESS":"富強路一段１９４巷２１５之８號","OBJECTID":440889},"geometry":{"x":175697.34999999963,"y":2545915.8000000026}},{"attributes":{"ID":440915,"DIS_CODE":0,"TOWNNAME":"永康區","LI":"\u25A0洲里","LIN":"5鄰","STREET":"仁愛街","SECT":" ","MAREA":" ","LANE":"１０３巷","ALLEY":" ","HOUSE_NO":"１６號","E_COORD97":171999.92000000001,"N_COORD97":2549504.5299999998,"ADDRESS":"仁愛街１０３巷１６號","OBJECTID":440890},"geometry":{"x":171999.92000000086,"y":2549504.5299999993}},{"attributes":{"ID":440916,"DIS_CODE":0,"TOWNNAME":"永康區","LI":"\u25A0洲里","LIN":"4鄰","STREET":"\u25A0洲二街","SECT":" ","MAREA":" ","LANE":"１３３巷","ALLEY":" ","HOUSE_NO":"３號","E_COORD97":171623.48000000001,"N_COORD97":2549348.04,"ADDRESS":"\u25A0洲二街１３３巷３號","OBJECTID":440891},"geometry":{"x":171623.48000000138,"y":2549348.0399999991}},{"attributes":{"ID":440917,"DIS_CODE":0,"TOWNNAME":"永康區","LI":"\u25A0洲里","LIN":"4鄰","STREET":"\u25A0洲二街","SECT":" ","MAREA":" ","LANE":"１３３巷","ALLEY":" ","HOUSE_NO":"５號","E_COORD97":171620.84,"N_COORD97":2549351.79,"ADDRESS":"\u25A0洲二街１３３巷５號","OBJECTID":440892},"geometry":{"x":171620.83999999985,"y":2549351.790000001}},{"attributes":{"ID":440918,"DIS_CODE":0,"TOWNNAME":"永康區","LI":"勝利里","LIN":" ","STREET":"勝利街","SECT":" ","MAREA":" ","LANE":"２２巷","ALLEY":" ","HOUSE_NO":"６號","E_COORD97":171270.81,"N_COORD97":2544597.1099999999,"ADDRESS":"勝利街２２巷６號","OBJECTID":440893},"geometry":{"x":171270.81000000052,"y":2544597.1100000013}},{"attributes":{"ID":440919,"DIS_CODE":0,"TOWNNAME":"永康區","LI":"崑山里","LIN":" ","STREET":"大灣路","SECT":" ","MAREA":" ","LANE":"１０９０巷","ALLEY":" ","HOUSE_NO":"６號","E_COORD97":173313.89000000001,"N_COORD97":2544405.3199999998,"ADDRESS":"大灣路１０９０巷６號","OBJECTID":440894},"geometry":{"x":173313.88999999966,"y":2544405.3199999984}},{"attributes":{"ID":440920,"DIS_CODE":0,"TOWNNAME":"永康區","LI":"\u25A0洲里","LIN":"5鄰","STREET":"仁愛街","SECT":" ","MAREA":" ","LANE":"１０３巷","ALLEY":" ","HOUSE_NO":"６２號","E_COORD97":171919.45000000001,"N_COORD97":2549547.0299999998,"ADDRESS":"仁愛街１０３巷６２號","OBJECTID":440895},"geometry":{"x":171919.44999999925,"y":2549547.0300000012}},{"attributes":{"ID":440921,"DIS_CODE":0,"TOWNNAME":"永康區","LI":"甲頂里","LIN":" ","STREET":"中央路","SECT":" ","MAREA":" ","LANE":"２３巷","ALLEY":" ","HOUSE_NO":"５６號","E_COORD97":169424.98000000001,"N_COORD97":2546945.1800000002,"ADDRESS":"中央路２３巷５６號","OBJECTID":440896},"geometry":{"x":169424.98000000138,"y":2546945.1800000034}},{"attributes":{"ID":440922,"DIS_CODE":0,"TOWNNAME":"永康區","LI":"南灣里","LIN":" ","STREET":"南興路","SECT":" ","MAREA":" ","LANE":"９２巷","ALLEY":" ","HOUSE_NO":"２號","E_COORD97":174316.23000000001,"N_COORD97":2544297.3500000001,"ADDRESS":"南興路９２巷２號","OBJECTID":440897},"geometry":{"x":174316.23000000045,"y":2544297.3500000015}},{"attributes":{"ID":440923,"DIS_CODE":0,"TOWNNAME":"永康區","LI":"東橋里","LIN":" ","STREET":"中山南路","SECT":" ","MAREA":" ","LANE":"３１９巷","ALLEY":" ","HOUSE_NO":"３２５號","E_COORD97":171851.39000000001,"N_COORD97":2546400.7000000002,"ADDRESS":"中山南路３１９巷３２５號","OBJECTID":440898},"geometry":{"x":171851.38999999966,"y":2546400.6999999993}},{"attributes":{"ID":440924,"DIS_CODE":0,"TOWNNAME":"永康區","LI":"南灣里","LIN":" ","STREET":"南興路","SECT":" ","MAREA":" ","LANE":"９２巷","ALLEY":" ","HOUSE_NO":"３之１號","E_COORD97":174327.64999999999,"N_COORD97":2544322.29,"ADDRESS":"南興路９２巷３之１號","OBJECTID":440899},"geometry":{"x":174327.6500000013,"y":2544322.2899999991}},{"attributes":{"ID":440925,"DIS_CODE":0,"TOWNNAME":"永康區","LI":"尚頂里","LIN":" ","STREET":"南台街","SECT":" ","MAREA":" ","LANE":"５４巷","ALLEY":" ","HOUSE_NO":"５５號","E_COORD97":170281.35999999999,"N_COORD97":2547148.4700000002,"ADDRESS":"南台街５４巷５５號","OBJECTID":440900},"geometry":{"x":170281.36000000127,"y":2547148.4700000025}},{"attributes":{"ID":440926,"DIS_CODE":0,"TOWNNAME":"永康區","LI":"\u25A0洲里","LIN":"25鄰","STREET":"洲工街","SECT":" ","MAREA":" ","LANE":"９巷","ALLEY":" ","HOUSE_NO":"１號","E_COORD97":170616.14999999999,"N_COORD97":2548032.7400000002,"ADDRESS":"洲工街９巷１號","OBJECTID":440901},"geometry":{"x":170616.15000000037,"y":2548032.7400000002}},{"attributes":{"ID":440927,"DIS_CODE":0,"TOWNNAME":"永康區","LI":"三合里","LIN":" ","STREET":"南工街","SECT":" ","MAREA":" ","LANE":"１５８巷","ALLEY":" ","HOUSE_NO":"３號","E_COORD97":172008.42999999999,"N_COORD97":2545833.5600000001,"ADDRESS":"南工街１５８巷３號","OBJECTID":440902},"geometry":{"x":172008.4299999997,"y":2545833.5600000005}},{"attributes":{"ID":440928,"DIS_CODE":0,"TOWNNAME":"永康區","LI":"尚頂里","LIN":" ","STREET":"國聖街","SECT":" ","MAREA":" ","LANE":"４３巷","ALLEY":" ","HOUSE_NO":"６８號","E_COORD97":170225.45000000001,"N_COORD97":2547618.98,"ADDRESS":"國聖街４３巷６８號","OBJECTID":440903},"geometry":{"x":170225.45000000019,"y":2547618.9800000023}},{"attributes":{"ID":440929,"DIS_CODE":0,"TOWNNAME":"永康區","LI":"復華里","LIN":" ","STREET":"復華二街","SECT":" ","MAREA":" ","LANE":"１巷","ALLEY":" ","HOUSE_NO":"１４號","E_COORD97":172673.92000000001,"N_COORD97":2545309.71,"ADDRESS":"復華二街１巷１４號","OBJECTID":440904},"geometry":{"x":172673.92000000179,"y":2545309.7100000028}},{"attributes":{"ID":440930,"DIS_CODE":0,"TOWNNAME":"永康區","LI":"埔園里","LIN":" ","STREET":"中山路","SECT":" ","MAREA":" ","LANE":"５３６巷","ALLEY":" ","HOUSE_NO":"５號","E_COORD97":173550.09,"N_COORD97":2548774.9900000002,"ADDRESS":"中山路５３６巷５號","OBJECTID":440905},"geometry":{"x":173550.08999999985,"y":2548774.9900000021}},{"attributes":{"ID":440931,"DIS_CODE":0,"TOWNNAME":"永康區","LI":"復華里","LIN":" ","STREET":"復國一路","SECT":" ","MAREA":" ","LANE":"６７巷","ALLEY":" ","HOUSE_NO":"４號","E_COORD97":172675.07000000001,"N_COORD97":2544928.52,"ADDRESS":"復國一路６７巷４號","OBJECTID":440906},"geometry":{"x":172675.07000000123,"y":2544928.5199999996}},{"attributes":{"ID":440932,"DIS_CODE":0,"TOWNNAME":"永康區","LI":"\u25A0洲里","LIN":"36鄰","STREET":"\u25A0洲二街","SECT":" ","MAREA":" ","LANE":"１７５巷","ALLEY":" ","HOUSE_NO":"５１號","E_COORD97":171619.10999999999,"N_COORD97":2549495.8399999999,"ADDRESS":"\u25A0洲二街１７５巷５１號","OBJECTID":440907},"geometry":{"x":171619.11000000127,"y":2549495.8399999999}},{"attributes":{"ID":440933,"DIS_CODE":0,"TOWNNAME":"永康區","LI":"六合里","LIN":"5鄰","STREET":"六合路","SECT":" ","MAREA":" ","LANE":"８５巷","ALLEY":" ","HOUSE_NO":"６號","E_COORD97":171126.95999999999,"N_COORD97":2545778.9900000002,"ADDRESS":"六合路８５巷６號","OBJECTID":440908},"geometry":{"x":171126.95999999996,"y":2545778.9900000021}},{"attributes":{"ID":440934,"DIS_CODE":0,"TOWNNAME":"永康區","LI":"勝利里","LIN":"26鄰","STREET":"勝利街","SECT":" ","MAREA":" ","LANE":"７４巷","ALLEY":" ","HOUSE_NO":"１９號","E_COORD97":171417.97,"N_COORD97":2544706.75,"ADDRESS":"勝利街７４巷１９號","OBJECTID":440909},"geometry":{"x":171417.97000000067,"y":2544706.75}},{"attributes":{"ID":440935,"DIS_CODE":0,"TOWNNAME":"永康區","LI":"\u25A0洲里","LIN":"25鄰","STREET":"中正南路","SECT":" ","MAREA":" ","LANE":"４５３巷","ALLEY":" ","HOUSE_NO":"１０號","E_COORD97":170801.39999999999,"N_COORD97":2548149.2400000002,"ADDRESS":"中正南路４５３巷１０號","OBJECTID":440910},"geometry":{"x":170801.4000000013,"y":2548149.2400000021}},{"attributes":{"ID":440936,"DIS_CODE":0,"TOWNNAME":"永康區","LI":"\u25A0洲里","LIN":"4鄰","STREET":"\u25A0洲二街","SECT":" ","MAREA":" ","LANE":"１５３巷","ALLEY":" ","HOUSE_NO":"２號","E_COORD97":171676.04999999999,"N_COORD97":2549396.4100000001,"ADDRESS":"\u25A0洲二街１５３巷２號","OBJECTID":440911},"geometry":{"x":171676.05000000168,"y":2549396.410000002}},{"attributes":{"ID":440937,"DIS_CODE":0,"TOWNNAME":"永康區","LI":"六合里","LIN":" ","STREET":"六合路","SECT":" ","MAREA":" ","LANE":"５８巷","ALLEY":" ","HOUSE_NO":"３號","E_COORD97":171191.64000000001,"N_COORD97":2545660.9900000002,"ADDRESS":"六合路５８巷３號","OBJECTID":440912},"geometry":{"x":171191.63999999966,"y":2545660.9900000002}},{"attributes":{"ID":440938,"DIS_CODE":0,"TOWNNAME":"永康區","LI":"西勢里","LIN":" ","STREET":"西勢路","SECT":" ","MAREA":" ","LANE":"６５巷","ALLEY":" ","HOUSE_NO":"１０號","E_COORD97":176157.04000000001,"N_COORD97":2546708.9500000002,"ADDRESS":"西勢路６５巷１０號","OBJECTID":440913},"geometry":{"x":176157.04000000097,"y":2546708.950000003}},{"attributes":{"ID":440939,"DIS_CODE":0,"TOWNNAME":"永康區","LI":"六合里","LIN":" ","STREET":"六合路","SECT":" ","MAREA":" ","LANE":"５４巷","ALLEY":" ","HOUSE_NO":"５號","E_COORD97":171185.73000000001,"N_COORD97":2545637.9900000002,"ADDRESS":"六合路５４巷５號","OBJECTID":440914},"geometry":{"x":171185.73000000138,"y":2545637.9900000002}},{"attributes":{"ID":440940,"DIS_CODE":0,"TOWNNAME":"永康區","LI":"尚頂里","LIN":" ","STREET":"南台街","SECT":" ","MAREA":" ","LANE":"８９巷","ALLEY":" ","HOUSE_NO":"１５之２號","E_COORD97":170211.07999999999,"N_COORD97":2546947.7999999998,"ADDRESS":"南台街８９巷１５之２號","OBJECTID":440915},"geometry":{"x":170211.08000000007,"y":2546947.8000000007}},{"attributes":{"ID":440941,"DIS_CODE":0,"TOWNNAME":"永康區","LI":"六合里","LIN":" ","STREET":"六合路","SECT":" ","MAREA":" ","LANE":"６８巷","ALLEY":" ","HOUSE_NO":"４２號","E_COORD97":171277.73000000001,"N_COORD97":2545695.1200000001,"ADDRESS":"六合路６８巷４２號","OBJECTID":440916},"geometry":{"x":171277.73000000138,"y":2545695.120000001}},{"attributes":{"ID":440942,"DIS_CODE":0,"TOWNNAME":"永康區","LI":"蔦松里","LIN":" ","STREET":"蔦松二街","SECT":" ","MAREA":" ","LANE":"３５巷","ALLEY":" ","HOUSE_NO":"１８號","E_COORD97":173966.67999999999,"N_COORD97":2549291.9900000002,"ADDRESS":"蔦松二街３５巷１８號","OBJECTID":440917},"geometry":{"x":173966.6799999997,"y":2549291.9900000002}},{"attributes":{"ID":440943,"DIS_CODE":0,"TOWNNAME":"永康區","LI":"尚頂里","LIN":" ","STREET":"南台街","SECT":" ","MAREA":" ","LANE":"８９巷","ALLEY":" ","HOUSE_NO":"１７之１號","E_COORD97":170194.88,"N_COORD97":2546919.79,"ADDRESS":"南台街８９巷１７之１號","OBJECTID":440918},"geometry":{"x":170194.87999999989,"y":2546919.7899999991}},{"attributes":{"ID":440944,"DIS_CODE":0,"TOWNNAME":"永康區","LI":"\u25A0洲里","LIN":"25鄰","STREET":"中正南路","SECT":" ","MAREA":" ","LANE":"４５３巷","ALLEY":" ","HOUSE_NO":"２號","E_COORD97":170834.51999999999,"N_COORD97":2548109.9100000001,"ADDRESS":"中正南路４５３巷２號","OBJECTID":440919},"geometry":{"x":170834.51999999955,"y":2548109.9100000001}},{"attributes":{"ID":440945,"DIS_CODE":0,"TOWNNAME":"永康區","LI":"\u25A0洲里","LIN":"25鄰","STREET":"國聖街","SECT":" ","MAREA":" ","LANE":"１６７巷","ALLEY":" ","HOUSE_NO":"２６號","E_COORD97":170610.03,"N_COORD97":2548304.75,"ADDRESS":"國聖街１６７巷２６號","OBJECTID":440920},"geometry":{"x":170610.03000000026,"y":2548304.7500000037}},{"attributes":{"ID":440946,"DIS_CODE":0,"TOWNNAME":"永康區","LI":"\u25A0洲里","LIN":"4鄰","STREET":"\u25A0洲二街","SECT":" ","MAREA":" ","LANE":"１１１巷","ALLEY":" ","HOUSE_NO":"１６號","E_COORD97":171594.42999999999,"N_COORD97":2549342.5,"ADDRESS":"\u25A0洲二街１１１巷１６號","OBJECTID":440921},"geometry":{"x":171594.43000000063,"y":2549342.5}},{"attributes":{"ID":440947,"DIS_CODE":0,"TOWNNAME":"永康區","LI":"三合里","LIN":" ","STREET":"南工街","SECT":" ","MAREA":" ","LANE":"１５８巷","ALLEY":" ","HOUSE_NO":"１７號","E_COORD97":171982,"N_COORD97":2545837.8100000001,"ADDRESS":"南工街１５８巷１７號","OBJECTID":440922},"geometry":{"x":171982.00000000093,"y":2545837.8100000024}},{"attributes":{"ID":440948,"DIS_CODE":0,"TOWNNAME":"永康區","LI":"安康里","LIN":" ","STREET":"中華路","SECT":" ","MAREA":" ","LANE":"７２５巷","ALLEY":" ","HOUSE_NO":"５７之５號","E_COORD97":170831.75,"N_COORD97":2546383.25,"ADDRESS":"中華路７２５巷５７之５號","OBJECTID":440923},"geometry":{"x":170831.75,"y":2546383.2500000019}},{"attributes":{"ID":440949,"DIS_CODE":0,"TOWNNAME":"永康區","LI":"永康里","LIN":" ","STREET":"永信路","SECT":" ","MAREA":" ","LANE":"５８巷","ALLEY":" ","HOUSE_NO":"６２之９號","E_COORD97":174176.66,"N_COORD97":2546481.71,"ADDRESS":"永信路５８巷６２之９號","OBJECTID":440924},"geometry":{"x":174176.66000000108,"y":2546481.7100000046}},{"attributes":{"ID":440950,"DIS_CODE":0,"TOWNNAME":"永康區","LI":"尚頂里","LIN":" ","STREET":"國聖街","SECT":" ","MAREA":" ","LANE":"４３巷","ALLEY":" ","HOUSE_NO":"２１之１號","E_COORD97":170352.42000000001,"N_COORD97":2547819.04,"ADDRESS":"國聖街４３巷２１之１號","OBJECTID":440925},"geometry":{"x":170352.41999999993,"y":2547819.0399999991}},{"attributes":{"ID":440951,"DIS_CODE":0,"TOWNNAME":"永康區","LI":"永康里","LIN":" ","STREET":"中山南路","SECT":" ","MAREA":" ","LANE":"１０５４巷","ALLEY":" ","HOUSE_NO":"３號","E_COORD97":173748.84,"N_COORD97":2547286.4900000002,"ADDRESS":"中山南路１０５４巷３號","OBJECTID":440926},"geometry":{"x":173748.83999999985,"y":2547286.4900000021}},{"attributes":{"ID":440952,"DIS_CODE":0,"TOWNNAME":"永康區","LI":"蔦松里","LIN":" ","STREET":"正北三路","SECT":" ","MAREA":" ","LANE":"９１巷","ALLEY":" ","HOUSE_NO":"３號","E_COORD97":174440.67999999999,"N_COORD97":2549910.7400000002,"ADDRESS":"正北三路９１巷３號","OBJECTID":440927},"geometry":{"x":174440.68000000063,"y":2549910.7400000002}},{"attributes":{"ID":440953,"DIS_CODE":0,"TOWNNAME":"永康區","LI":"埔園里","LIN":" ","STREET":"中山路","SECT":" ","MAREA":" ","LANE":"５３６巷","ALLEY":" ","HOUSE_NO":"１號","E_COORD97":173541.76999999999,"N_COORD97":2548767.4900000002,"ADDRESS":"中山路５３６巷１號","OBJECTID":440928},"geometry":{"x":173541.76999999955,"y":2548767.4899999984}},{"attributes":{"ID":440954,"DIS_CODE":0,"TOWNNAME":"永康區","LI":"復華里","LIN":" ","STREET":"復華十街","SECT":" ","MAREA":" ","LANE":"２３巷","ALLEY":" ","HOUSE_NO":"２５號","E_COORD97":172559.35000000001,"N_COORD97":2546167.7400000002,"ADDRESS":"復華十街２３巷２５號","OBJECTID":440929},"geometry":{"x":172559.35000000056,"y":2546167.7400000002}},{"attributes":{"ID":440955,"DIS_CODE":0,"TOWNNAME":"永康區","LI":"勝利里","LIN":"26鄰","STREET":"勝利街","SECT":" ","MAREA":" ","LANE":"７４巷","ALLEY":" ","HOUSE_NO":"１７號","E_COORD97":171410.85999999999,"N_COORD97":2544707.5,"ADDRESS":"勝利街７４巷１７號","OBJECTID":440930},"geometry":{"x":171410.86000000127,"y":2544707.5}},{"attributes":{"ID":440956,"DIS_CODE":0,"TOWNNAME":"永康區","LI":"\u25A0洲里","LIN":"34鄰","STREET":"洲尾街","SECT":" ","MAREA":" ","LANE":"１９１巷","ALLEY":" ","HOUSE_NO":"１５號","E_COORD97":170792.70000000001,"N_COORD97":2548992.25,"ADDRESS":"洲尾街１９１巷１５號","OBJECTID":440931},"geometry":{"x":170792.70000000112,"y":2548992.25}},{"attributes":{"ID":440957,"DIS_CODE":0,"TOWNNAME":"永康區","LI":"新樹里","LIN":" ","STREET":"富強路","SECT":"二段","MAREA":" ","LANE":"３９８巷","ALLEY":" ","HOUSE_NO":"１４６之３號","E_COORD97":176117.81,"N_COORD97":2547619.3799999999,"ADDRESS":"富強路二段３９８巷１４６之３號","OBJECTID":440932},"geometry":{"x":176117.81000000052,"y":2547619.3800000008}},{"attributes":{"ID":440958,"DIS_CODE":0,"TOWNNAME":"永康區","LI":"龍潭里","LIN":" ","STREET":"龍橋街","SECT":" ","MAREA":" ","LANE":"６５巷","ALLEY":" ","HOUSE_NO":"１４號","E_COORD97":174735.64999999999,"N_COORD97":2548367.98,"ADDRESS":"龍橋街６５巷１４號","OBJECTID":440933},"geometry":{"x":174735.64999999944,"y":2548367.9800000042}},{"attributes":{"ID":440959,"DIS_CODE":0,"TOWNNAME":"永康區","LI":"甲頂里","LIN":" ","STREET":"中正南路","SECT":" ","MAREA":" ","LANE":"１６８巷","ALLEY":" ","HOUSE_NO":"１９號","E_COORD97":169943.01000000001,"N_COORD97":2546900.6800000002,"ADDRESS":"中正南路１６８巷１９號","OBJECTID":440934},"geometry":{"x":169943.00999999978,"y":2546900.6799999997}},{"attributes":{"ID":440960,"DIS_CODE":0,"TOWNNAME":"永康區","LI":"\u25A0洲里","LIN":"38鄰","STREET":"\u25A0行路","SECT":" ","MAREA":" ","LANE":"１８８巷","ALLEY":" ","HOUSE_NO":"１３號","E_COORD97":171300.60000000001,"N_COORD97":2549242.3599999999,"ADDRESS":"\u25A0行路１８８巷１３號","OBJECTID":440935},"geometry":{"x":171300.59999999963,"y":2549242.3600000031}},{"attributes":{"ID":440961,"DIS_CODE":0,"TOWNNAME":"永康區","LI":"\u25A0洲里","LIN":"25鄰","STREET":"國聖街","SECT":" ","MAREA":" ","LANE":"１６７巷","ALLEY":" ","HOUSE_NO":"１６號","E_COORD97":170639.03,"N_COORD97":2548290,"ADDRESS":"國聖街１６７巷１６號","OBJECTID":440936},"geometry":{"x":170639.03000000026,"y":2548290.0000000019}},{"attributes":{"ID":440962,"DIS_CODE":0,"TOWNNAME":"永康區","LI":"\u25A0洲里","LIN":"4鄰","STREET":"\u25A0洲二街","SECT":" ","MAREA":" ","LANE":"１５３巷","ALLEY":" ","HOUSE_NO":"１０號","E_COORD97":171668.34,"N_COORD97":2549405.4100000001,"ADDRESS":"\u25A0洲二街１５３巷１０號","OBJECTID":440937},"geometry":{"x":171668.33999999985,"y":2549405.4100000039}},{"attributes":{"ID":440963,"DIS_CODE":0,"TOWNNAME":"永康區","LI":"\u25A0洲里","LIN":"38鄰","STREET":"\u25A0行路","SECT":" ","MAREA":" ","LANE":"１７４巷","ALLEY":" ","HOUSE_NO":"１１號","E_COORD97":171383.73999999999,"N_COORD97":2549269.3799999999,"ADDRESS":"\u25A0行路１７４巷１１號","OBJECTID":440938},"geometry":{"x":171383.74000000209,"y":2549269.3800000008}},{"attributes":{"ID":440964,"DIS_CODE":0,"TOWNNAME":"永康區","LI":"\u25A0洲里","LIN":"4鄰","STREET":"\u25A0洲二街","SECT":" ","MAREA":" ","LANE":"１５３巷","ALLEY":" ","HOUSE_NO":"３８號","E_COORD97":171637.29000000001,"N_COORD97":2549436.9199999999,"ADDRESS":"\u25A0洲二街１５３巷３８號","OBJECTID":440939},"geometry":{"x":171637.2900000019,"y":2549436.9200000018}},{"attributes":{"ID":440965,"DIS_CODE":0,"TOWNNAME":"關廟區","LI":"松腳里","LIN":"14鄰","STREET":"東興路","SECT":" ","MAREA":" ","LANE":"２２９巷","ALLEY":" ","HOUSE_NO":"８號","E_COORD97":181807.76999999999,"N_COORD97":2539592.25,"ADDRESS":"東興路２２９巷８號","OBJECTID":440940},"geometry":{"x":181807.76999999955,"y":2539592.2500000019}},{"attributes":{"ID":440966,"DIS_CODE":0,"TOWNNAME":"永康區","LI":"東橋里","LIN":" ","STREET":"中山南路","SECT":" ","MAREA":" ","LANE":"３１９巷","ALLEY":" ","HOUSE_NO":"２號","E_COORD97":171808.09,"N_COORD97":2546442.5600000001,"ADDRESS":"中山南路３１９巷２號","OBJECTID":440941},"geometry":{"x":171808.09000000171,"y":2546442.5600000024}},{"attributes":{"ID":440967,"DIS_CODE":0,"TOWNNAME":"永康區","LI":"西橋里","LIN":" ","STREET":"大橋二街","SECT":" ","MAREA":" ","LANE":"５１巷","ALLEY":" ","HOUSE_NO":"１０４號","E_COORD97":170555.07000000001,"N_COORD97":2546596.7400000002,"ADDRESS":"大橋二街５１巷１０４號","OBJECTID":440942},"geometry":{"x":170555.0700000003,"y":2546596.7400000021}},{"attributes":{"ID":440968,"DIS_CODE":0,"TOWNNAME":"永康區","LI":"龍潭里","LIN":" ","STREET":"龍國街","SECT":" ","MAREA":" ","LANE":"６５巷","ALLEY":" ","HOUSE_NO":"２８之３號","E_COORD97":174692.29999999999,"N_COORD97":2548047.8100000001,"ADDRESS":"龍國街６５巷２８之３號","OBJECTID":440943},"geometry":{"x":174692.30000000075,"y":2548047.8100000024}},{"attributes":{"ID":440969,"DIS_CODE":0,"TOWNNAME":"永康區","LI":"東灣里","LIN":" ","STREET":"南灣街","SECT":" ","MAREA":" ","LANE":"６０巷","ALLEY":" ","HOUSE_NO":"１３號","E_COORD97":174546.97,"N_COORD97":2544956.1000000001,"ADDRESS":"南灣街６０巷１３號","OBJECTID":440944},"geometry":{"x":174546.97000000067,"y":2544956.1000000015}},{"attributes":{"ID":440970,"DIS_CODE":0,"TOWNNAME":"永康區","LI":"甲頂里","LIN":" ","STREET":"中正南路","SECT":" ","MAREA":" ","LANE":"５２巷","ALLEY":" ","HOUSE_NO":"１５號","E_COORD97":169754.48999999999,"N_COORD97":2546780.02,"ADDRESS":"中正南路５２巷１５號","OBJECTID":440945},"geometry":{"x":169754.49000000209,"y":2546780.0200000033}},{"attributes":{"ID":440971,"DIS_CODE":0,"TOWNNAME":"永康區","LI":"\u25A0洲里","LIN":"38鄰","STREET":"\u25A0行路","SECT":" ","MAREA":" ","LANE":"２０４巷","ALLEY":" ","HOUSE_NO":"１９號","E_COORD97":171242.25,"N_COORD97":2549229.98,"ADDRESS":"\u25A0行路２０４巷１９號","OBJECTID":440946},"geometry":{"x":171242.25,"y":2549229.9800000023}},{"attributes":{"ID":440972,"DIS_CODE":0,"TOWNNAME":"永康區","LI":"\u25A0行里","LIN":" ","STREET":"中正路","SECT":" ","MAREA":" ","LANE":"３３７巷","ALLEY":" ","HOUSE_NO":"３６號","E_COORD97":172399.16,"N_COORD97":2548175.5,"ADDRESS":"中正路３３７巷３６號","OBJECTID":440947},"geometry":{"x":172399.16000000015,"y":2548175.5000000019}},{"attributes":{"ID":440973,"DIS_CODE":0,"TOWNNAME":"永康區","LI":"中華里","LIN":"25鄰","STREET":"忠義街","SECT":" ","MAREA":" ","LANE":"７１巷","ALLEY":" ","HOUSE_NO":"１２號","E_COORD97":171672.35000000001,"N_COORD97":2544625.8599999999,"ADDRESS":"忠義街７１巷１２號","OBJECTID":440948},"geometry":{"x":171672.35000000056,"y":2544625.8600000013}},{"attributes":{"ID":440974,"DIS_CODE":0,"TOWNNAME":"永康區","LI":"西橋里","LIN":" ","STREET":"大橋二街","SECT":" ","MAREA":" ","LANE":"５１巷","ALLEY":" ","HOUSE_NO":"２４號","E_COORD97":170632.31,"N_COORD97":2546509.75,"ADDRESS":"大橋二街５１巷２４號","OBJECTID":440949},"geometry":{"x":170632.31000000052,"y":2546509.75}},{"attributes":{"ID":440975,"DIS_CODE":0,"TOWNNAME":"永康區","LI":"東橋里","LIN":" ","STREET":"中山南路","SECT":" ","MAREA":" ","LANE":"３６５巷","ALLEY":" ","HOUSE_NO":"１８之２號","E_COORD97":172568.42999999999,"N_COORD97":2547444.7999999998,"ADDRESS":"中山南路３６５巷１８之２號","OBJECTID":440950},"geometry":{"x":172568.43000000156,"y":2547444.8000000026}},{"attributes":{"ID":440976,"DIS_CODE":0,"TOWNNAME":"永康區","LI":"復華里","LIN":" ","STREET":"復華七街","SECT":" ","MAREA":" ","LANE":"３２巷","ALLEY":" ","HOUSE_NO":"２之１號","E_COORD97":172659.53,"N_COORD97":2545973.3399999999,"ADDRESS":"復華七街３２巷２之１號","OBJECTID":440951},"geometry":{"x":172659.53000000026,"y":2545973.3399999999}},{"attributes":{"ID":440977,"DIS_CODE":0,"TOWNNAME":"永康區","LI":"尚頂里","LIN":" ","STREET":"國聖街","SECT":" ","MAREA":" ","LANE":"４３巷","ALLEY":" ","HOUSE_NO":"７９號","E_COORD97":170231.01000000001,"N_COORD97":2547596.98,"ADDRESS":"國聖街４３巷７９號","OBJECTID":440952},"geometry":{"x":170231.01000000071,"y":2547596.9800000004}},{"attributes":{"ID":440978,"DIS_CODE":0,"TOWNNAME":"永康區","LI":"大橋里","LIN":" ","STREET":"大橋一街","SECT":" ","MAREA":" ","LANE":"１３７巷","ALLEY":" ","HOUSE_NO":"２５號","E_COORD97":171008.31,"N_COORD97":2546540,"ADDRESS":"大橋一街１３７巷２５號","OBJECTID":440953},"geometry":{"x":171008.31000000052,"y":2546540.0000000037}},{"attributes":{"ID":440979,"DIS_CODE":0,"TOWNNAME":"永康區","LI":"\u25A0洲里","LIN":"38鄰","STREET":"\u25A0行路","SECT":" ","MAREA":" ","LANE":"１７４巷","ALLEY":" ","HOUSE_NO":"７號","E_COORD97":171373.57999999999,"N_COORD97":2549259.1499999999,"ADDRESS":"\u25A0行路１７４巷７號","OBJECTID":440954},"geometry":{"x":171373.58000000007,"y":2549259.1500000022}},{"attributes":{"ID":440980,"DIS_CODE":0,"TOWNNAME":"永康區","LI":"中華里","LIN":"25鄰","STREET":"忠義街","SECT":" ","MAREA":" ","LANE":"７１巷","ALLEY":" ","HOUSE_NO":"１５號","E_COORD97":171664.20999999999,"N_COORD97":2544612.96,"ADDRESS":"忠義街７１巷１５號","OBJECTID":440955},"geometry":{"x":171664.20999999996,"y":2544612.9600000028}},{"attributes":{"ID":440981,"DIS_CODE":0,"TOWNNAME":"永康區","LI":"西灣里","LIN":" ","STREET":"大安街","SECT":" ","MAREA":" ","LANE":"２９３巷","ALLEY":" ","HOUSE_NO":"５５之１號","E_COORD97":174529.54000000001,"N_COORD97":2545598.0699999998,"ADDRESS":"大安街２９３巷５５之１號","OBJECTID":440956},"geometry":{"x":174529.54000000097,"y":2545598.0700000022}},{"attributes":{"ID":440982,"DIS_CODE":0,"TOWNNAME":"永康區","LI":"復華里","LIN":" ","STREET":"復國二路","SECT":" ","MAREA":" ","LANE":"３３８巷","ALLEY":" ","HOUSE_NO":"２６號","E_COORD97":173079.28,"N_COORD97":2546108.9399999999,"ADDRESS":"復國二路３３８巷２６號","OBJECTID":440957},"geometry":{"x":173079.28000000119,"y":2546108.9399999976}},{"attributes":{"ID":440983,"DIS_CODE":0,"TOWNNAME":"永康區","LI":"三合里","LIN":" ","STREET":"南工街","SECT":" ","MAREA":" ","LANE":"１５８巷","ALLEY":" ","HOUSE_NO":"２１號","E_COORD97":171974.04999999999,"N_COORD97":2545839.0600000001,"ADDRESS":"南工街１５８巷２１號","OBJECTID":440958},"geometry":{"x":171974.04999999981,"y":2545839.0600000024}},{"attributes":{"ID":440984,"DIS_CODE":0,"TOWNNAME":"永康區","LI":"尚頂里","LIN":" ","STREET":"國聖街","SECT":" ","MAREA":" ","LANE":"４３巷","ALLEY":" ","HOUSE_NO":"２０號","E_COORD97":170322.04999999999,"N_COORD97":2547797.2400000002,"ADDRESS":"國聖街４３巷２０號","OBJECTID":440959},"geometry":{"x":170322.05000000075,"y":2547797.2400000021}},{"attributes":{"ID":440985,"DIS_CODE":0,"TOWNNAME":"永康區","LI":"甲頂里","LIN":" ","STREET":"大武街","SECT":" ","MAREA":" ","LANE":"７１巷","ALLEY":" ","HOUSE_NO":"３５號","E_COORD97":170367.29999999999,"N_COORD97":2546839.75,"ADDRESS":"大武街７１巷３５號","OBJECTID":440960},"geometry":{"x":170367.30000000168,"y":2546839.7499999981}},{"attributes":{"ID":440986,"DIS_CODE":0,"TOWNNAME":"永康區","LI":"\u25A0洲里","LIN":"25鄰","STREET":"中正南路","SECT":" ","MAREA":" ","LANE":"４５３巷","ALLEY":" ","HOUSE_NO":"１２號","E_COORD97":170791.64999999999,"N_COORD97":2548156.9900000002,"ADDRESS":"中正南路４５３巷１２號","OBJECTID":440961},"geometry":{"x":170791.6500000013,"y":2548156.9900000002}},{"attributes":{"ID":440987,"DIS_CODE":0,"TOWNNAME":"永康區","LI":"\u25A0洲里","LIN":"4鄰","STREET":"\u25A0洲二街","SECT":" ","MAREA":" ","LANE":"１３３巷","ALLEY":" ","HOUSE_NO":"１７號","E_COORD97":171604.42999999999,"N_COORD97":2549368.7799999998,"ADDRESS":"\u25A0洲二街１３３巷１７號","OBJECTID":440962},"geometry":{"x":171604.43000000063,"y":2549368.7800000012}},{"attributes":{"ID":440988,"DIS_CODE":0,"TOWNNAME":"安南區","LI":"學東里","LIN":"4鄰","STREET":"公學路","SECT":"六段","MAREA":" ","LANE":"４６９巷","ALLEY":" ","HOUSE_NO":"１０號","E_COORD97":162672.57999999999,"N_COORD97":2553168.3500000001,"ADDRESS":"公學路六段４６９巷１０號","OBJECTID":440963},"geometry":{"x":162672.58000000007,"y":2553168.3499999996}},{"attributes":{"ID":440989,"DIS_CODE":0,"TOWNNAME":"安南區","LI":"學東里","LIN":"4鄰","STREET":"公學路","SECT":"六段","MAREA":" ","LANE":"４６９巷","ALLEY":" ","HOUSE_NO":"１２號","E_COORD97":162672.89000000001,"N_COORD97":2553161.25,"ADDRESS":"公學路六段４６９巷１２號","OBJECTID":440964},"geometry":{"x":162672.8900000006,"y":2553161.2500000019}},{"attributes":{"ID":440990,"DIS_CODE":0,"TOWNNAME":"安南區","LI":"學東里","LIN":"4鄰","STREET":"公學路","SECT":"六段","MAREA":" ","LANE":"４６９巷","ALLEY":" ","HOUSE_NO":"１４號","E_COORD97":162672.81,"N_COORD97":2553156.5499999998,"ADDRESS":"公學路六段４６９巷１４號","OBJECTID":440965},"geometry":{"x":162672.81000000052,"y":2553156.5500000026}},{"attributes":{"ID":440991,"DIS_CODE":0,"TOWNNAME":"安南區","LI":"學東里","LIN":"4鄰","STREET":"公學路","SECT":"六段","MAREA":" ","LANE":"４６９巷","ALLEY":" ","HOUSE_NO":"１６號","E_COORD97":162670.19,"N_COORD97":2553150.3799999999,"ADDRESS":"公學路六段４６９巷１６號","OBJECTID":440966},"geometry":{"x":162670.19000000041,"y":2553150.379999999}},{"attributes":{"ID":440992,"DIS_CODE":0,"TOWNNAME":"永康區","LI":"甲頂里","LIN":" ","STREET":"中央路","SECT":" ","MAREA":" ","LANE":"２３巷","ALLEY":" ","HOUSE_NO":"２３號","E_COORD97":169535.79000000001,"N_COORD97":2546964.8199999998,"ADDRESS":"中央路２３巷２３號","OBJECTID":440967},"geometry":{"x":169535.79000000097,"y":2546964.8200000003}},{"attributes":{"ID":440993,"DIS_CODE":0,"TOWNNAME":"安南區","LI":"\u25A0南里","LIN":"4鄰","STREET":"安昌街","SECT":" ","MAREA":" ","LANE":"１９６巷","ALLEY":" ","HOUSE_NO":"１０號","E_COORD97":170159.20000000001,"N_COORD97":2552518.1299999999,"ADDRESS":"安昌街１９６巷１０號","OBJECTID":440968},"geometry":{"x":170159.20000000019,"y":2552518.129999999}},{"attributes":{"ID":440994,"DIS_CODE":0,"TOWNNAME":"安南區","LI":"\u25A0南里","LIN":"7鄰","STREET":"安昌街","SECT":" ","MAREA":" ","LANE":"１０３巷","ALLEY":" ","HOUSE_NO":"５號","E_COORD97":169937.95000000001,"N_COORD97":2552208.02,"ADDRESS":"安昌街１０３巷５號","OBJECTID":440969},"geometry":{"x":169937.95000000205,"y":2552208.0200000033}},{"attributes":{"ID":440995,"DIS_CODE":0,"TOWNNAME":"安南區","LI":"城東里","LIN":"4鄰","STREET":"城北路","SECT":" ","MAREA":" ","LANE":"２３４巷","ALLEY":" ","HOUSE_NO":"６８號","E_COORD97":161143.72,"N_COORD97":2551835.98,"ADDRESS":"城北路２３４巷６８號","OBJECTID":440970},"geometry":{"x":161143.71999999974,"y":2551835.9800000004}},{"attributes":{"ID":440996,"DIS_CODE":0,"TOWNNAME":"東區","LI":"崇文里","LIN":"40鄰","STREET":"生產路","SECT":" ","MAREA":" ","LANE":" ","ALLEY":" ","HOUSE_NO":"２６９號九樓","E_COORD97":170885.10999999999,"N_COORD97":2540617.8100000001,"ADDRESS":"生產路２６９號九樓","OBJECTID":440971},"geometry":{"x":170885.11000000127,"y":2540617.8100000005}},{"attributes":{"ID":440997,"DIS_CODE":0,"TOWNNAME":"安南區","LI":"城東里","LIN":"4鄰","STREET":"城北路","SECT":" ","MAREA":" ","LANE":"２３４巷","ALLEY":" ","HOUSE_NO":"６６號","E_COORD97":161139.48000000001,"N_COORD97":2551837.52,"ADDRESS":"城北路２３４巷６６號","OBJECTID":440972},"geometry":{"x":161139.48000000045,"y":2551837.5199999996}},{"attributes":{"ID":440998,"DIS_CODE":0,"TOWNNAME":"安南區","LI":"城東里","LIN":"4鄰","STREET":"城北路","SECT":" ","MAREA":" ","LANE":"２３４巷","ALLEY":" ","HOUSE_NO":"６２號","E_COORD97":161135.57999999999,"N_COORD97":2551839.9900000002,"ADDRESS":"城北路２３４巷６２號","OBJECTID":440973},"geometry":{"x":161135.58000000101,"y":2551839.9900000021}},{"attributes":{"ID":440999,"DIS_CODE":0,"TOWNNAME":"安南區","LI":"\u25A0南里","LIN":"5鄰","STREET":"安昌街","SECT":" ","MAREA":" ","LANE":"１３１巷","ALLEY":" ","HOUSE_NO":"２４號","E_COORD97":169977.04000000001,"N_COORD97":2552354.98,"ADDRESS":"安昌街１３１巷２４號","OBJECTID":440974},"geometry":{"x":169977.04000000004,"y":2552354.9800000042}},{"attributes":{"ID":441000,"DIS_CODE":0,"TOWNNAME":"安南區","LI":"\u25A0南里","LIN":"9鄰","STREET":"安昌街","SECT":" ","MAREA":" ","LANE":"２２２巷","ALLEY":" ","HOUSE_NO":"５９之２號","E_COORD97":170220.91,"N_COORD97":2552590.6899999999,"ADDRESS":"安昌街２２２巷５９之２號","OBJECTID":440975},"geometry":{"x":170220.91000000015,"y":2552590.6900000013}},{"attributes":{"ID":441001,"DIS_CODE":0,"TOWNNAME":"安南區","LI":"\u25A0南里","LIN":"12鄰","STREET":"安昌街","SECT":" ","MAREA":" ","LANE":"２２２巷","ALLEY":" ","HOUSE_NO":"７９號","E_COORD97":170231.60999999999,"N_COORD97":2552648.0800000001,"ADDRESS":"安昌街２２２巷７９號","OBJECTID":440976},"geometry":{"x":170231.61000000034,"y":2552648.0800000001}},{"attributes":{"ID":441002,"DIS_CODE":0,"TOWNNAME":"永康區","LI":"\u25A0行里","LIN":" ","STREET":"中正六街","SECT":" ","MAREA":" ","LANE":"２６６巷","ALLEY":" ","HOUSE_NO":"２２號","E_COORD97":171931.82000000001,"N_COORD97":2548868.1699999999,"ADDRESS":"中正六街２６６巷２２號","OBJECTID":440977},"geometry":{"x":171931.8200000003,"y":2548868.1700000018}},{"attributes":{"ID":441003,"DIS_CODE":0,"TOWNNAME":"安南區","LI":"\u25A0南里","LIN":"13鄰","STREET":"安昌街","SECT":" ","MAREA":" ","LANE":"１０６巷","ALLEY":" ","HOUSE_NO":"４號","E_COORD97":169979.95999999999,"N_COORD97":2552208.3399999999,"ADDRESS":"安昌街１０６巷４號","OBJECTID":440978},"geometry":{"x":169979.96000000183,"y":2552208.3399999999}},{"attributes":{"ID":441004,"DIS_CODE":0,"TOWNNAME":"安南區","LI":"大安里","LIN":" ","STREET":"大安街","SECT":" ","MAREA":" ","LANE":"９６巷","ALLEY":" ","HOUSE_NO":"１１８號","E_COORD97":167274.07999999999,"N_COORD97":2548105.4700000002,"ADDRESS":"大安街９６巷１１８號","OBJECTID":440979},"geometry":{"x":167274.08000000101,"y":2548105.4700000025}},{"attributes":{"ID":441005,"DIS_CODE":0,"TOWNNAME":"安南區","LI":"大安里","LIN":" ","STREET":"大安街","SECT":" ","MAREA":" ","LANE":"９６巷","ALLEY":" ","HOUSE_NO":"１２２號","E_COORD97":167279.07000000001,"N_COORD97":2548113.3199999998,"ADDRESS":"大安街９６巷１２２號","OBJECTID":440980},"geometry":{"x":167279.07000000216,"y":2548113.3200000003}},{"attributes":{"ID":441006,"DIS_CODE":0,"TOWNNAME":"安南區","LI":"大安里","LIN":"8鄰","STREET":"大安街","SECT":" ","MAREA":" ","LANE":"１８０巷","ALLEY":" ","HOUSE_NO":"７號","E_COORD97":167396.79999999999,"N_COORD97":2548232.6200000001,"ADDRESS":"大安街１８０巷７號","OBJECTID":440981},"geometry":{"x":167396.79999999981,"y":2548232.6200000029}},{"attributes":{"ID":441007,"DIS_CODE":0,"TOWNNAME":"安南區","LI":"大安里","LIN":"8鄰","STREET":"大安街","SECT":" ","MAREA":" ","LANE":"１９４巷","ALLEY":" ","HOUSE_NO":"３號","E_COORD97":167409.09,"N_COORD97":2548274.6800000002,"ADDRESS":"大安街１９４巷３號","OBJECTID":440982},"geometry":{"x":167409.09000000171,"y":2548274.6800000016}},{"attributes":{"ID":441008,"DIS_CODE":0,"TOWNNAME":"安南區","LI":"大安里","LIN":"8鄰","STREET":"大安街","SECT":" ","MAREA":" ","LANE":"１９４巷","ALLEY":" ","HOUSE_NO":"７號","E_COORD97":167416.95999999999,"N_COORD97":2548269.5099999998,"ADDRESS":"大安街１９４巷７號","OBJECTID":440983},"geometry":{"x":167416.96000000089,"y":2548269.5100000016}},{"attributes":{"ID":441009,"DIS_CODE":0,"TOWNNAME":"安南區","LI":"大安里","LIN":" ","STREET":"義安街","SECT":" ","MAREA":" ","LANE":"９０巷","ALLEY":" ","HOUSE_NO":"２１號","E_COORD97":167478.20999999999,"N_COORD97":2548000.6000000001,"ADDRESS":"義安街９０巷２１號","OBJECTID":440984},"geometry":{"x":167478.21000000089,"y":2548000.6000000015}},{"attributes":{"ID":441010,"DIS_CODE":0,"TOWNNAME":"安南區","LI":"大安里","LIN":" ","STREET":"義安街","SECT":" ","MAREA":" ","LANE":"９０巷","ALLEY":" ","HOUSE_NO":"２５號","E_COORD97":167484.67000000001,"N_COORD97":2547995.8700000001,"ADDRESS":"義安街９０巷２５號","OBJECTID":440985},"geometry":{"x":167484.66999999993,"y":2547995.870000001}},{"attributes":{"ID":441011,"DIS_CODE":0,"TOWNNAME":"安南區","LI":"大安里","LIN":" ","STREET":"義安街","SECT":" ","MAREA":" ","LANE":"１２８巷","ALLEY":" ","HOUSE_NO":"３２號","E_COORD97":167558.44,"N_COORD97":2548129.77,"ADDRESS":"義安街１２８巷３２號","OBJECTID":440986},"geometry":{"x":167558.44000000134,"y":2548129.7699999996}},{"attributes":{"ID":441012,"DIS_CODE":0,"TOWNNAME":"安南區","LI":"大安里","LIN":"18鄰","STREET":"義安街","SECT":" ","MAREA":" ","LANE":"１９８巷","ALLEY":" ","HOUSE_NO":"４號","E_COORD97":167620.48000000001,"N_COORD97":2548286.73,"ADDRESS":"義安街１９８巷４號","OBJECTID":440987},"geometry":{"x":167620.47999999952,"y":2548286.7300000004}},{"attributes":{"ID":441013,"DIS_CODE":0,"TOWNNAME":"安南區","LI":"大安里","LIN":"18鄰","STREET":"義安街","SECT":" ","MAREA":" ","LANE":"１９８巷","ALLEY":" ","HOUSE_NO":"５號","E_COORD97":167637.81,"N_COORD97":2548306.4700000002,"ADDRESS":"義安街１９８巷５號","OBJECTID":440988},"geometry":{"x":167637.81000000145,"y":2548306.4700000007}},{"attributes":{"ID":441014,"DIS_CODE":0,"TOWNNAME":"安南區","LI":"大安里","LIN":"18鄰","STREET":"義安街","SECT":" ","MAREA":" ","LANE":"１９８巷","ALLEY":" ","HOUSE_NO":"２５號","E_COORD97":167670.29999999999,"N_COORD97":2548282.5699999998,"ADDRESS":"義安街１９８巷２５號","OBJECTID":440989},"geometry":{"x":167670.30000000168,"y":2548282.570000004}},{"attributes":{"ID":441015,"DIS_CODE":0,"TOWNNAME":"安南區","LI":"大安里","LIN":"14鄰","STREET":"義安街","SECT":" ","MAREA":" ","LANE":"８６巷","ALLEY":" ","HOUSE_NO":"３１號","E_COORD97":167517.70000000001,"N_COORD97":2548026.1800000002,"ADDRESS":"義安街８６巷３１號","OBJECTID":440990},"geometry":{"x":167517.70000000112,"y":2548026.1799999997}},{"attributes":{"ID":441016,"DIS_CODE":0,"TOWNNAME":"安南區","LI":"大安里","LIN":"14鄰","STREET":"義安街","SECT":" ","MAREA":" ","LANE":"８６巷","ALLEY":" ","HOUSE_NO":"３２號","E_COORD97":167502.73999999999,"N_COORD97":2548002.6099999999,"ADDRESS":"義安街８６巷３２號","OBJECTID":440991},"geometry":{"x":167502.74000000022,"y":2548002.6099999994}},{"attributes":{"ID":441017,"DIS_CODE":0,"TOWNNAME":"安南區","LI":"大安里","LIN":"17鄰","STREET":"義安街","SECT":" ","MAREA":" ","LANE":"１５６巷","ALLEY":" ","HOUSE_NO":"６號","E_COORD97":167569.19,"N_COORD97":2548194.8500000001,"ADDRESS":"義安街１５６巷６號","OBJECTID":440992},"geometry":{"x":167569.19000000041,"y":2548194.8499999978}},{"attributes":{"ID":441018,"DIS_CODE":0,"TOWNNAME":"安南區","LI":"公\u25A0里","LIN":"4鄰","STREET":"安興街","SECT":" ","MAREA":" ","LANE":"１０５巷","ALLEY":" ","HOUSE_NO":"１９號","E_COORD97":164249.97,"N_COORD97":2552140.1200000001,"ADDRESS":"安興街１０５巷１９號","OBJECTID":440993},"geometry":{"x":164249.9700000016,"y":2552140.120000001}},{"attributes":{"ID":441019,"DIS_CODE":0,"TOWNNAME":"安南區","LI":"公\u25A0里","LIN":"5鄰","STREET":"安興街","SECT":" ","MAREA":" ","LANE":"１４９巷","ALLEY":" ","HOUSE_NO":"９號","E_COORD97":164148.14000000001,"N_COORD97":2552071.8999999999,"ADDRESS":"安興街１４９巷９號","OBJECTID":440994},"geometry":{"x":164148.13999999966,"y":2552071.9000000022}},{"attributes":{"ID":441020,"DIS_CODE":0,"TOWNNAME":"安南區","LI":"公\u25A0里","LIN":"8鄰","STREET":"安興街","SECT":" ","MAREA":" ","LANE":"１８１巷","ALLEY":" ","HOUSE_NO":"１０１號","E_COORD97":163905.91,"N_COORD97":2551885.04,"ADDRESS":"安興街１８１巷１０１號","OBJECTID":440995},"geometry":{"x":163905.91000000015,"y":2551885.0399999991}},{"attributes":{"ID":441021,"DIS_CODE":0,"TOWNNAME":"安南區","LI":"公\u25A0里","LIN":"7鄰","STREET":"安興街","SECT":" ","MAREA":" ","LANE":"１５６巷","ALLEY":" ","HOUSE_NO":"９號","E_COORD97":164081.39999999999,"N_COORD97":2552142.6499999999,"ADDRESS":"安興街１５６巷９號","OBJECTID":440996},"geometry":{"x":164081.39999999944,"y":2552142.6500000004}},{"attributes":{"ID":441022,"DIS_CODE":0,"TOWNNAME":"安南區","LI":"公\u25A0里","LIN":"1鄰","STREET":"安興街","SECT":" ","MAREA":" ","LANE":"４２巷","ALLEY":" ","HOUSE_NO":"１６號","E_COORD97":164317.66,"N_COORD97":2552300.7000000002,"ADDRESS":"安興街４２巷１６號","OBJECTID":440997},"geometry":{"x":164317.66000000108,"y":2552300.6999999993}},{"attributes":{"ID":441023,"DIS_CODE":0,"TOWNNAME":"安南區","LI":"公\u25A0里","LIN":"6鄰","STREET":"公學路","SECT":"五段","MAREA":" ","LANE":"３６３巷","ALLEY":" ","HOUSE_NO":"１０號","E_COORD97":164352.13,"N_COORD97":2552398,"ADDRESS":"公學路五段３６３巷１０號","OBJECTID":440998},"geometry":{"x":164352.12999999989,"y":2552398}},{"attributes":{"ID":441024,"DIS_CODE":0,"TOWNNAME":"安南區","LI":"公\u25A0里","LIN":"6鄰","STREET":"公學路","SECT":"五段","MAREA":" ","LANE":"３６３巷","ALLEY":" ","HOUSE_NO":"６號","E_COORD97":164377.91,"N_COORD97":2552383.8100000001,"ADDRESS":"公學路五段３６３巷６號","OBJECTID":440999},"geometry":{"x":164377.91000000201,"y":2552383.8100000024}},{"attributes":{"ID":441025,"DIS_CODE":0,"TOWNNAME":"安南區","LI":"公\u25A0里","LIN":"3鄰","STREET":"安興街","SECT":" ","MAREA":" ","LANE":"４３巷","ALLEY":" ","HOUSE_NO":"２６號","E_COORD97":164309.39999999999,"N_COORD97":2552231.0699999998,"ADDRESS":"安興街４３巷２６號","OBJECTID":441000},"geometry":{"x":164309.4000000013,"y":2552231.0700000003}}]}