{"displayFieldName":"TOWNNAME","fieldAliases":{"ID":"ID","DIS_CODE":"DIS_CODE","TOWNNAME":"TOWNNAME","LI":"LI","LIN":"LIN","STREET":"STREET","SECT":"SECT","MAREA":"MAREA","LANE":"LANE","ALLEY":"ALLEY","HOUSE_NO":"HOUSE_NO","E_COORD97":"E_COORD97","N_COORD97":"N_COORD97","ADDRESS":"ADDRESS","OBJECTID":"OBJECTID"},"geometryType":"esriGeometryPoint","spatialReference":{"wkid":102443,"latestWkid":3826},"fields":[{"name":"ID","type":"esriFieldTypeDouble","alias":"ID"},{"name":"DIS_CODE","type":"esriFieldTypeInteger","alias":"DIS_CODE"},{"name":"TOWNNAME","type":"esriFieldTypeString","alias":"TOWNNAME","length":8},{"name":"LI","type":"esriFieldTypeString","alias":"LI","length":8},{"name":"LIN","type":"esriFieldTypeString","alias":"LIN","length":12},{"name":"STREET","type":"esriFieldTypeString","alias":"STREET","length":20},{"name":"SECT","type":"esriFieldTypeString","alias":"SECT","length":8},{"name":"MAREA","type":"esriFieldTypeString","alias":"MAREA","length":12},{"name":"LANE","type":"esriFieldTypeString","alias":"LANE","length":10},{"name":"ALLEY","type":"esriFieldTypeString","alias":"ALLEY","length":10},{"name":"HOUSE_NO","type":"esriFieldTypeString","alias":"HOUSE_NO","length":20},{"name":"E_COORD97","type":"esriFieldTypeDouble","alias":"E_COORD97"},{"name":"N_COORD97","type":"esriFieldTypeDouble","alias":"N_COORD97"},{"name":"ADDRESS","type":"esriFieldTypeString","alias":"ADDRESS","length":50},{"name":"OBJECTID","type":"esriFieldTypeOID","alias":"OBJECTID"}],"features":[{"attributes":{"ID":490026,"DIS_CODE":0,"TOWNNAME":"安南區","LI":"理想里","LIN":"13鄰","STREET":"大安街","SECT":" ","MAREA":" ","LANE":" ","ALLEY":" ","HOUSE_NO":"３９號","E_COORD97":167142.81,"N_COORD97":2547984.8100000001,"ADDRESS":"大安街３９號","OBJECTID":490001},"geometry":{"x":167142.81000000145,"y":2547984.8100000005}},{"attributes":{"ID":490027,"DIS_CODE":0,"TOWNNAME":"安南區","LI":"理想里","LIN":"13鄰","STREET":"大安街","SECT":" ","MAREA":" ","LANE":" ","ALLEY":" ","HOUSE_NO":"４１號","E_COORD97":167147.85999999999,"N_COORD97":2547986.2200000002,"ADDRESS":"大安街４１號","OBJECTID":490002},"geometry":{"x":167147.86000000034,"y":2547986.2200000007}},{"attributes":{"ID":490028,"DIS_CODE":0,"TOWNNAME":"安南區","LI":"理想里","LIN":"13鄰","STREET":"大安街","SECT":" ","MAREA":" ","LANE":" ","ALLEY":" ","HOUSE_NO":"４３號","E_COORD97":167153.10000000001,"N_COORD97":2547985.6200000001,"ADDRESS":"大安街４３號","OBJECTID":490003},"geometry":{"x":167153.10000000056,"y":2547985.6200000029}},{"attributes":{"ID":490029,"DIS_CODE":0,"TOWNNAME":"安南區","LI":"理想里","LIN":"13鄰","STREET":"大安街","SECT":" ","MAREA":" ","LANE":" ","ALLEY":" ","HOUSE_NO":"４７號","E_COORD97":167162.98000000001,"N_COORD97":2547987.4300000002,"ADDRESS":"大安街４７號","OBJECTID":490004},"geometry":{"x":167162.98000000231,"y":2547987.4299999997}},{"attributes":{"ID":490030,"DIS_CODE":0,"TOWNNAME":"安南區","LI":"理想里","LIN":"13鄰","STREET":"大安街","SECT":" ","MAREA":" ","LANE":" ","ALLEY":" ","HOUSE_NO":"５３號","E_COORD97":167175.82000000001,"N_COORD97":2547997.5800000001,"ADDRESS":"大安街５３號","OBJECTID":490005},"geometry":{"x":167175.82000000216,"y":2547997.5800000038}},{"attributes":{"ID":490031,"DIS_CODE":0,"TOWNNAME":"安南區","LI":"理想里","LIN":"13鄰","STREET":"大安街","SECT":" ","MAREA":" ","LANE":" ","ALLEY":" ","HOUSE_NO":"５５號","E_COORD97":167178.84,"N_COORD97":2548002.2999999998,"ADDRESS":"大安街５５號","OBJECTID":490006},"geometry":{"x":167178.84000000078,"y":2548002.3000000007}},{"attributes":{"ID":490032,"DIS_CODE":0,"TOWNNAME":"安南區","LI":"理想里","LIN":"13鄰","STREET":"大安街","SECT":" ","MAREA":" ","LANE":" ","ALLEY":" ","HOUSE_NO":"５號","E_COORD97":167058.72,"N_COORD97":2547972.1200000001,"ADDRESS":"大安街５號","OBJECTID":490007},"geometry":{"x":167058.71999999881,"y":2547972.1200000029}},{"attributes":{"ID":490033,"DIS_CODE":0,"TOWNNAME":"安南區","LI":"理想里","LIN":"13鄰","STREET":"大安街","SECT":" ","MAREA":" ","LANE":" ","ALLEY":" ","HOUSE_NO":"６１號","E_COORD97":167188.98000000001,"N_COORD97":2548018.4399999999,"ADDRESS":"大安街６１號","OBJECTID":490008},"geometry":{"x":167188.98000000138,"y":2548018.4400000013}},{"attributes":{"ID":490034,"DIS_CODE":0,"TOWNNAME":"安南區","LI":"理想里","LIN":"13鄰","STREET":"大安街","SECT":" ","MAREA":" ","LANE":" ","ALLEY":" ","HOUSE_NO":"６５號","E_COORD97":167197.25,"N_COORD97":2548024.0699999998,"ADDRESS":"大安街６５號","OBJECTID":490009},"geometry":{"x":167197.25,"y":2548024.0700000003}},{"attributes":{"ID":490035,"DIS_CODE":0,"TOWNNAME":"安南區","LI":"理想里","LIN":"13鄰","STREET":"大安街","SECT":" ","MAREA":" ","LANE":" ","ALLEY":" ","HOUSE_NO":"６９號","E_COORD97":167198.94,"N_COORD97":2548033.46,"ADDRESS":"大安街６９號","OBJECTID":490010},"geometry":{"x":167198.94000000134,"y":2548033.4600000028}},{"attributes":{"ID":490036,"DIS_CODE":0,"TOWNNAME":"安南區","LI":"理想里","LIN":"13鄰","STREET":"大安街","SECT":" ","MAREA":" ","LANE":" ","ALLEY":" ","HOUSE_NO":"７１號","E_COORD97":167201.95000000001,"N_COORD97":2548037.02,"ADDRESS":"大安街７１號","OBJECTID":490011},"geometry":{"x":167201.95000000112,"y":2548037.0199999996}},{"attributes":{"ID":490037,"DIS_CODE":0,"TOWNNAME":"安南區","LI":"理想里","LIN":"13鄰","STREET":"大安街","SECT":" ","MAREA":" ","LANE":" ","ALLEY":" ","HOUSE_NO":"７３號","E_COORD97":167203.07000000001,"N_COORD97":2548041.8999999999,"ADDRESS":"大安街７３號","OBJECTID":490012},"geometry":{"x":167203.07000000123,"y":2548041.9000000004}},{"attributes":{"ID":490038,"DIS_CODE":0,"TOWNNAME":"安南區","LI":"理想里","LIN":"13鄰","STREET":"大安街","SECT":" ","MAREA":" ","LANE":" ","ALLEY":" ","HOUSE_NO":"７號","E_COORD97":167063.56,"N_COORD97":2547973.3300000001,"ADDRESS":"大安街７號","OBJECTID":490013},"geometry":{"x":167063.56000000052,"y":2547973.3300000019}},{"attributes":{"ID":490039,"DIS_CODE":0,"TOWNNAME":"安南區","LI":"理想里","LIN":"13鄰","STREET":"大安街","SECT":" ","MAREA":" ","LANE":" ","ALLEY":" ","HOUSE_NO":"９號","E_COORD97":167069.01000000001,"N_COORD97":2547973.5299999998,"ADDRESS":"大安街９號","OBJECTID":490014},"geometry":{"x":167069.01000000071,"y":2547973.5300000012}},{"attributes":{"ID":490040,"DIS_CODE":0,"TOWNNAME":"安南區","LI":"理想里","LIN":"13鄰","STREET":"海佃路","SECT":"二段","MAREA":" ","LANE":" ","ALLEY":" ","HOUSE_NO":"１０８號","E_COORD97":167015.89999999999,"N_COORD97":2548052.9500000002,"ADDRESS":"海佃路二段１０８號","OBJECTID":490015},"geometry":{"x":167015.90000000224,"y":2548052.9500000011}},{"attributes":{"ID":490041,"DIS_CODE":0,"TOWNNAME":"安南區","LI":"理想里","LIN":"13鄰","STREET":"海佃路","SECT":"二段","MAREA":" ","LANE":" ","ALLEY":" ","HOUSE_NO":"１１２號","E_COORD97":167015.04999999999,"N_COORD97":2548061.7999999998,"ADDRESS":"海佃路二段１１２號","OBJECTID":490016},"geometry":{"x":167015.05000000075,"y":2548061.8000000026}},{"attributes":{"ID":490042,"DIS_CODE":0,"TOWNNAME":"安南區","LI":"理想里","LIN":"13鄰","STREET":"海佃路","SECT":"二段","MAREA":" ","LANE":" ","ALLEY":" ","HOUSE_NO":"１１６號","E_COORD97":167016.01999999999,"N_COORD97":2548072.1000000001,"ADDRESS":"海佃路二段１１６號","OBJECTID":490017},"geometry":{"x":167016.02000000142,"y":2548072.1000000015}},{"attributes":{"ID":490043,"DIS_CODE":0,"TOWNNAME":"安南區","LI":"海東里","LIN":"13鄰","STREET":"海佃路","SECT":"二段","MAREA":" ","LANE":" ","ALLEY":" ","HOUSE_NO":"４０９號","E_COORD97":166725.23000000001,"N_COORD97":2548981.3799999999,"ADDRESS":"海佃路二段４０９號","OBJECTID":490018},"geometry":{"x":166725.23000000045,"y":2548981.3800000008}},{"attributes":{"ID":490044,"DIS_CODE":0,"TOWNNAME":"安南區","LI":"安慶里","LIN":"13鄰","STREET":"怡安路","SECT":"一段","MAREA":" ","LANE":" ","ALLEY":" ","HOUSE_NO":"４９號","E_COORD97":169447.34,"N_COORD97":2548956.04,"ADDRESS":"怡安路一段４９號","OBJECTID":490019},"geometry":{"x":169447.34000000078,"y":2548956.0400000028}},{"attributes":{"ID":490045,"DIS_CODE":0,"TOWNNAME":"安南區","LI":"州北里","LIN":"13鄰","STREET":"安和路","SECT":"五段","MAREA":" ","LANE":" ","ALLEY":" ","HOUSE_NO":"１２０號","E_COORD97":169923.95999999999,"N_COORD97":2551745.0499999998,"ADDRESS":"安和路五段１２０號","OBJECTID":490020},"geometry":{"x":169923.96000000183,"y":2551745.0500000026}},{"attributes":{"ID":490046,"DIS_CODE":0,"TOWNNAME":"安南區","LI":"州北里","LIN":"13鄰","STREET":"安和路","SECT":"五段","MAREA":" ","LANE":" ","ALLEY":" ","HOUSE_NO":"１２２號","E_COORD97":169921.44,"N_COORD97":2551750.5899999999,"ADDRESS":"安和路五段１２２號","OBJECTID":490021},"geometry":{"x":169921.44000000134,"y":2551750.5900000017}},{"attributes":{"ID":490047,"DIS_CODE":0,"TOWNNAME":"安南區","LI":"州北里","LIN":"13鄰","STREET":"安和路","SECT":"五段","MAREA":" ","LANE":" ","ALLEY":" ","HOUSE_NO":"１２４號","E_COORD97":169919.54999999999,"N_COORD97":2551756.02,"ADDRESS":"安和路五段１２４號","OBJECTID":490022},"geometry":{"x":169919.54999999981,"y":2551756.0199999996}},{"attributes":{"ID":490048,"DIS_CODE":0,"TOWNNAME":"安南區","LI":"州北里","LIN":"13鄰","STREET":"安和路","SECT":"五段","MAREA":" ","LANE":" ","ALLEY":" ","HOUSE_NO":"１２６號","E_COORD97":169918.57999999999,"N_COORD97":2551759.6600000001,"ADDRESS":"安和路五段１２６號","OBJECTID":490023},"geometry":{"x":169918.58000000101,"y":2551759.6600000001}},{"attributes":{"ID":490049,"DIS_CODE":0,"TOWNNAME":"中西區","LI":"西賢里","LIN":"13鄰","STREET":"西賢街","SECT":" ","MAREA":" ","LANE":" ","ALLEY":" ","HOUSE_NO":"１７９號","E_COORD97":165790.89999999999,"N_COORD97":2544907.9399999999,"ADDRESS":"西賢街１７９號","OBJECTID":490024},"geometry":{"x":165790.9000000013,"y":2544907.9399999995}},{"attributes":{"ID":490050,"DIS_CODE":0,"TOWNNAME":"永康區","LI":"中興里","LIN":"13鄰","STREET":"中興街","SECT":" ","MAREA":" ","LANE":" ","ALLEY":" ","HOUSE_NO":"６８號","E_COORD97":172087.94,"N_COORD97":2545285.9900000002,"ADDRESS":"中興街６８號","OBJECTID":490025},"geometry":{"x":172087.94000000134,"y":2545285.9900000039}},{"attributes":{"ID":490051,"DIS_CODE":0,"TOWNNAME":"永康區","LI":"中興里","LIN":"13鄰","STREET":"中興街","SECT":" ","MAREA":" ","LANE":" ","ALLEY":" ","HOUSE_NO":"４８號","E_COORD97":172090.35000000001,"N_COORD97":2545233.1800000002,"ADDRESS":"中興街４８號","OBJECTID":490026},"geometry":{"x":172090.34999999963,"y":2545233.1800000034}},{"attributes":{"ID":490052,"DIS_CODE":0,"TOWNNAME":"安平區","LI":"建平里","LIN":"21鄰","STREET":"平通路","SECT":" ","MAREA":" ","LANE":" ","ALLEY":" ","HOUSE_NO":"７２號","E_COORD97":166064.42000000001,"N_COORD97":2543679.0600000001,"ADDRESS":"平通路７２號","OBJECTID":490027},"geometry":{"x":166064.42000000086,"y":2543679.0600000024}},{"attributes":{"ID":490053,"DIS_CODE":0,"TOWNNAME":"永康區","LI":"大橋里","LIN":"13鄰","STREET":"大橋三街","SECT":" ","MAREA":" ","LANE":" ","ALLEY":" ","HOUSE_NO":"２７４號","E_COORD97":171093.04000000001,"N_COORD97":2546912.7999999998,"ADDRESS":"大橋三街２７４號","OBJECTID":490028},"geometry":{"x":171093.04000000004,"y":2546912.8000000026}},{"attributes":{"ID":490054,"DIS_CODE":0,"TOWNNAME":"永康區","LI":"三合里","LIN":"13鄰","STREET":"南工街","SECT":" ","MAREA":" ","LANE":" ","ALLEY":" ","HOUSE_NO":"１７５號","E_COORD97":172031.75,"N_COORD97":2545832.3199999998,"ADDRESS":"南工街１７５號","OBJECTID":490029},"geometry":{"x":172031.75,"y":2545832.3200000003}},{"attributes":{"ID":490055,"DIS_CODE":0,"TOWNNAME":"中西區","LI":"西賢里","LIN":"13鄰","STREET":"西賢街","SECT":" ","MAREA":" ","LANE":" ","ALLEY":" ","HOUSE_NO":"１７３號","E_COORD97":165808.39999999999,"N_COORD97":2544906.6499999999,"ADDRESS":"西賢街１７３號","OBJECTID":490030},"geometry":{"x":165808.40000000037,"y":2544906.6500000022}},{"attributes":{"ID":490056,"DIS_CODE":0,"TOWNNAME":"中西區","LI":"西賢里","LIN":"13鄰","STREET":"西賢街","SECT":" ","MAREA":" ","LANE":" ","ALLEY":" ","HOUSE_NO":"１７５號","E_COORD97":165802.14000000001,"N_COORD97":2544907.5099999998,"ADDRESS":"西賢街１７５號","OBJECTID":490031},"geometry":{"x":165802.1400000006,"y":2544907.5099999998}},{"attributes":{"ID":490057,"DIS_CODE":0,"TOWNNAME":"中西區","LI":"西賢里","LIN":"13鄰","STREET":"西賢街","SECT":" ","MAREA":" ","LANE":" ","ALLEY":" ","HOUSE_NO":"１７７號","E_COORD97":165796.29999999999,"N_COORD97":2544906.6499999999,"ADDRESS":"西賢街１７７號","OBJECTID":490032},"geometry":{"x":165796.29999999981,"y":2544906.6500000022}},{"attributes":{"ID":490058,"DIS_CODE":0,"TOWNNAME":"中西區","LI":"西賢里","LIN":"13鄰","STREET":"西賢街","SECT":" ","MAREA":" ","LANE":" ","ALLEY":" ","HOUSE_NO":"１８１號","E_COORD97":165791.98000000001,"N_COORD97":2544924.9900000002,"ADDRESS":"西賢街１８１號","OBJECTID":490033},"geometry":{"x":165791.98000000138,"y":2544924.9900000002}},{"attributes":{"ID":490059,"DIS_CODE":0,"TOWNNAME":"中西區","LI":"西賢里","LIN":"13鄰","STREET":"西賢街","SECT":" ","MAREA":" ","LANE":" ","ALLEY":" ","HOUSE_NO":"１８３號","E_COORD97":165796.73999999999,"N_COORD97":2544925.6400000001,"ADDRESS":"西賢街１８３號","OBJECTID":490034},"geometry":{"x":165796.74000000115,"y":2544925.6400000043}},{"attributes":{"ID":490060,"DIS_CODE":0,"TOWNNAME":"新營區","LI":"太北里","LIN":"10鄰","STREET":" ","SECT":" ","MAREA":"太子宮","LANE":" ","ALLEY":" ","HOUSE_NO":"８６號之６","E_COORD97":176176.51537499999,"N_COORD97":2577069.8160100002,"ADDRESS":"太子宮８６號之６","OBJECTID":490035},"geometry":{"x":176176.51537500042,"y":2577069.8160070013}},{"attributes":{"ID":490061,"DIS_CODE":0,"TOWNNAME":"中西區","LI":"西賢里","LIN":"13鄰","STREET":"西賢街","SECT":" ","MAREA":" ","LANE":" ","ALLEY":" ","HOUSE_NO":"１８５號","E_COORD97":165803,"N_COORD97":2544927.1499999999,"ADDRESS":"西賢街１８５號","OBJECTID":490036},"geometry":{"x":165803.00000000093,"y":2544927.1500000022}},{"attributes":{"ID":490062,"DIS_CODE":0,"TOWNNAME":"中西區","LI":"西賢里","LIN":"13鄰","STREET":"西賢街","SECT":" ","MAREA":" ","LANE":" ","ALLEY":" ","HOUSE_NO":"１８７號","E_COORD97":165807.54000000001,"N_COORD97":2544924.5600000001,"ADDRESS":"西賢街１８７號","OBJECTID":490037},"geometry":{"x":165807.5400000019,"y":2544924.5600000005}},{"attributes":{"ID":490063,"DIS_CODE":0,"TOWNNAME":"中西區","LI":"藥王里","LIN":"13鄰","STREET":"中和街","SECT":" ","MAREA":" ","LANE":" ","ALLEY":" ","HOUSE_NO":"２４號","E_COORD97":167002.87,"N_COORD97":2544509.29,"ADDRESS":"中和街２４號","OBJECTID":490038},"geometry":{"x":167002.87000000104,"y":2544509.2899999972}},{"attributes":{"ID":490064,"DIS_CODE":0,"TOWNNAME":"中西區","LI":"藥王里","LIN":"13鄰","STREET":"中和街","SECT":" ","MAREA":" ","LANE":" ","ALLEY":" ","HOUSE_NO":"２６號","E_COORD97":167006.07000000001,"N_COORD97":2544511.8500000001,"ADDRESS":"中和街２６號","OBJECTID":490039},"geometry":{"x":167006.06999999937,"y":2544511.8499999996}},{"attributes":{"ID":490065,"DIS_CODE":0,"TOWNNAME":"中西區","LI":"藥王里","LIN":"13鄰","STREET":"中和街","SECT":" ","MAREA":" ","LANE":" ","ALLEY":" ","HOUSE_NO":"２８號","E_COORD97":167008.42000000001,"N_COORD97":2544517.1899999999,"ADDRESS":"中和街２８號","OBJECTID":490040},"geometry":{"x":167008.42000000179,"y":2544517.1899999976}},{"attributes":{"ID":490066,"DIS_CODE":0,"TOWNNAME":"中西區","LI":"藥王里","LIN":"13鄰","STREET":"中和街","SECT":" ","MAREA":" ","LANE":" ","ALLEY":" ","HOUSE_NO":"３０號","E_COORD97":167012.26000000001,"N_COORD97":2544520.3900000001,"ADDRESS":"中和街３０號","OBJECTID":490041},"geometry":{"x":167012.25999999978,"y":2544520.3899999987}},{"attributes":{"ID":490067,"DIS_CODE":0,"TOWNNAME":"中西區","LI":"藥王里","LIN":"13鄰","STREET":"中和街","SECT":" ","MAREA":" ","LANE":" ","ALLEY":" ","HOUSE_NO":"３２號","E_COORD97":167016.32000000001,"N_COORD97":2544522.3100000001,"ADDRESS":"中和街３２號","OBJECTID":490042},"geometry":{"x":167016.32000000216,"y":2544522.3100000024}},{"attributes":{"ID":490068,"DIS_CODE":0,"TOWNNAME":"中西區","LI":"藥王里","LIN":"13鄰","STREET":"中和街","SECT":" ","MAREA":" ","LANE":" ","ALLEY":" ","HOUSE_NO":"３６號","E_COORD97":167019.53,"N_COORD97":2544527.6499999999,"ADDRESS":"中和街３６號","OBJECTID":490043},"geometry":{"x":167019.53000000026,"y":2544527.6500000004}},{"attributes":{"ID":490069,"DIS_CODE":0,"TOWNNAME":"中西區","LI":"藥王里","LIN":"13鄰","STREET":"中和街","SECT":" ","MAREA":" ","LANE":" ","ALLEY":" ","HOUSE_NO":"３８號","E_COORD97":167028.07000000001,"N_COORD97":2544532.3500000001,"ADDRESS":"中和街３８號","OBJECTID":490044},"geometry":{"x":167028.06999999937,"y":2544532.3499999996}},{"attributes":{"ID":490070,"DIS_CODE":0,"TOWNNAME":"中西區","LI":"藥王里","LIN":"13鄰","STREET":"中和街","SECT":" ","MAREA":" ","LANE":" ","ALLEY":" ","HOUSE_NO":"４０號","E_COORD97":167033.20000000001,"N_COORD97":2544538.1099999999,"ADDRESS":"中和街４０號","OBJECTID":490045},"geometry":{"x":167033.20000000019,"y":2544538.1100000031}},{"attributes":{"ID":490071,"DIS_CODE":0,"TOWNNAME":"中西區","LI":"藥王里","LIN":"13鄰","STREET":"中和街","SECT":" ","MAREA":" ","LANE":" ","ALLEY":" ","HOUSE_NO":"４４號","E_COORD97":167036.19,"N_COORD97":2544540.6699999999,"ADDRESS":"中和街４４號","OBJECTID":490046},"geometry":{"x":167036.19000000134,"y":2544540.6699999999}},{"attributes":{"ID":490072,"DIS_CODE":0,"TOWNNAME":"中西區","LI":"藥王里","LIN":"13鄰","STREET":"中和街","SECT":" ","MAREA":" ","LANE":" ","ALLEY":" ","HOUSE_NO":"４６號","E_COORD97":167038.97,"N_COORD97":2544544.5099999998,"ADDRESS":"中和街４６號","OBJECTID":490047},"geometry":{"x":167038.97000000067,"y":2544544.5099999998}},{"attributes":{"ID":490073,"DIS_CODE":0,"TOWNNAME":"中西區","LI":"藥王里","LIN":"13鄰","STREET":"中和街","SECT":" ","MAREA":" ","LANE":" ","ALLEY":" ","HOUSE_NO":"４８號","E_COORD97":167042.60000000001,"N_COORD97":2544546.2200000002,"ADDRESS":"中和街４８號","OBJECTID":490048},"geometry":{"x":167042.60000000149,"y":2544546.2200000025}},{"attributes":{"ID":490074,"DIS_CODE":0,"TOWNNAME":"中西區","LI":"藥王里","LIN":"13鄰","STREET":"協和街","SECT":" ","MAREA":" ","LANE":" ","ALLEY":" ","HOUSE_NO":"３５號","E_COORD97":167015.26000000001,"N_COORD97":2544495.3399999999,"ADDRESS":"協和街３５號","OBJECTID":490049},"geometry":{"x":167015.26000000071,"y":2544495.3399999999}},{"attributes":{"ID":490075,"DIS_CODE":0,"TOWNNAME":"中西區","LI":"藥王里","LIN":"13鄰","STREET":"協和街","SECT":" ","MAREA":" ","LANE":" ","ALLEY":" ","HOUSE_NO":"４４號","E_COORD97":167046.44,"N_COORD97":2544486.7999999998,"ADDRESS":"協和街４４號","OBJECTID":490050},"geometry":{"x":167046.44000000134,"y":2544486.8000000007}},{"attributes":{"ID":490076,"DIS_CODE":0,"TOWNNAME":"中西區","LI":"藥王里","LIN":"13鄰","STREET":"協和街","SECT":" ","MAREA":" ","LANE":" ","ALLEY":" ","HOUSE_NO":"４６號","E_COORD97":167050.29000000001,"N_COORD97":2544488.9399999999,"ADDRESS":"協和街４６號","OBJECTID":490051},"geometry":{"x":167050.2900000019,"y":2544488.9400000013}},{"attributes":{"ID":490077,"DIS_CODE":0,"TOWNNAME":"中西區","LI":"藥王里","LIN":"13鄰","STREET":"協和街","SECT":" ","MAREA":" ","LANE":" ","ALLEY":" ","HOUSE_NO":"４８號","E_COORD97":167054.35000000001,"N_COORD97":2544492.9900000002,"ADDRESS":"協和街４８號","OBJECTID":490052},"geometry":{"x":167054.35000000149,"y":2544492.9900000021}},{"attributes":{"ID":490078,"DIS_CODE":0,"TOWNNAME":"中西區","LI":"藥王里","LIN":"13鄰","STREET":"協和街","SECT":" ","MAREA":" ","LANE":" ","ALLEY":" ","HOUSE_NO":"４９號","E_COORD97":167039.60999999999,"N_COORD97":2544516.0499999998,"ADDRESS":"協和街４９號","OBJECTID":490053},"geometry":{"x":167039.61000000034,"y":2544516.0499999989}},{"attributes":{"ID":490079,"DIS_CODE":0,"TOWNNAME":"中西區","LI":"藥王里","LIN":"13鄰","STREET":"協和街","SECT":" ","MAREA":" ","LANE":" ","ALLEY":" ","HOUSE_NO":"５０號","E_COORD97":167057.12,"N_COORD97":2544495.77,"ADDRESS":"協和街５０號","OBJECTID":490054},"geometry":{"x":167057.12000000104,"y":2544495.7699999996}},{"attributes":{"ID":490080,"DIS_CODE":0,"TOWNNAME":"中西區","LI":"藥王里","LIN":"13鄰","STREET":"協和街","SECT":" ","MAREA":" ","LANE":" ","ALLEY":" ","HOUSE_NO":"５１號","E_COORD97":167043.88,"N_COORD97":2544517.7599999998,"ADDRESS":"協和街５１號","OBJECTID":490055},"geometry":{"x":167043.87999999989,"y":2544517.7600000016}},{"attributes":{"ID":490081,"DIS_CODE":0,"TOWNNAME":"中西區","LI":"藥王里","LIN":"13鄰","STREET":"協和街","SECT":" ","MAREA":" ","LANE":" ","ALLEY":" ","HOUSE_NO":"５２號","E_COORD97":167059.89999999999,"N_COORD97":2544499.3999999999,"ADDRESS":"協和街５２號","OBJECTID":490056},"geometry":{"x":167059.90000000224,"y":2544499.4000000004}},{"attributes":{"ID":490082,"DIS_CODE":0,"TOWNNAME":"中西區","LI":"藥王里","LIN":"13鄰","STREET":"協和街","SECT":" ","MAREA":" ","LANE":" ","ALLEY":" ","HOUSE_NO":"５４號","E_COORD97":167063.32000000001,"N_COORD97":2544503.2400000002,"ADDRESS":"協和街５４號","OBJECTID":490057},"geometry":{"x":167063.3200000003,"y":2544503.2400000002}},{"attributes":{"ID":490083,"DIS_CODE":0,"TOWNNAME":"中西區","LI":"藥王里","LIN":"13鄰","STREET":"協和街","SECT":" ","MAREA":" ","LANE":" ","ALLEY":" ","HOUSE_NO":"５６號","E_COORD97":167066.95000000001,"N_COORD97":2544505.3700000001,"ADDRESS":"協和街５６號","OBJECTID":490058},"geometry":{"x":167066.95000000112,"y":2544505.3700000029}},{"attributes":{"ID":490084,"DIS_CODE":0,"TOWNNAME":"中西區","LI":"藥王里","LIN":"13鄰","STREET":"臨安路","SECT":"一段","MAREA":" ","LANE":" ","ALLEY":" ","HOUSE_NO":"１０７號","E_COORD97":167065.03,"N_COORD97":2544472.9300000002,"ADDRESS":"臨安路一段１０７號","OBJECTID":490059},"geometry":{"x":167065.03000000026,"y":2544472.9300000016}},{"attributes":{"ID":490085,"DIS_CODE":0,"TOWNNAME":"中西區","LI":"藥王里","LIN":"13鄰","STREET":"臨安路","SECT":"一段","MAREA":" ","LANE":" ","ALLEY":" ","HOUSE_NO":"１０９號","E_COORD97":167068.87,"N_COORD97":2544475.7000000002,"ADDRESS":"臨安路一段１０９號","OBJECTID":490060},"geometry":{"x":167068.87000000104,"y":2544475.6999999993}},{"attributes":{"ID":490086,"DIS_CODE":0,"TOWNNAME":"中西區","LI":"藥王里","LIN":"13鄰","STREET":"臨安路","SECT":"一段","MAREA":" ","LANE":" ","ALLEY":" ","HOUSE_NO":"１１１號","E_COORD97":167071.64999999999,"N_COORD97":2544478.6899999999,"ADDRESS":"臨安路一段１１１號","OBJECTID":490061},"geometry":{"x":167071.65000000037,"y":2544478.6899999995}},{"attributes":{"ID":490087,"DIS_CODE":0,"TOWNNAME":"中西區","LI":"藥王里","LIN":"13鄰","STREET":"臨安路","SECT":"一段","MAREA":" ","LANE":" ","ALLEY":" ","HOUSE_NO":"１１５號","E_COORD97":167080.41,"N_COORD97":2544484.4500000002,"ADDRESS":"臨安路一段１１５號","OBJECTID":490062},"geometry":{"x":167080.41000000108,"y":2544484.4499999993}},{"attributes":{"ID":490088,"DIS_CODE":0,"TOWNNAME":"中西區","LI":"藥王里","LIN":"13鄰","STREET":"臨安路","SECT":"一段","MAREA":" ","LANE":" ","ALLEY":" ","HOUSE_NO":"１１７號","E_COORD97":167082.12,"N_COORD97":2544488.5099999998,"ADDRESS":"臨安路一段１１７號","OBJECTID":490063},"geometry":{"x":167082.12000000104,"y":2544488.5100000035}},{"attributes":{"ID":490089,"DIS_CODE":0,"TOWNNAME":"中西區","LI":"藥王里","LIN":"13鄰","STREET":"臨安路","SECT":"一段","MAREA":" ","LANE":" ","ALLEY":" ","HOUSE_NO":"１１９號","E_COORD97":167084.89000000001,"N_COORD97":2544491.0699999998,"ADDRESS":"臨安路一段１１９號","OBJECTID":490064},"geometry":{"x":167084.8900000006,"y":2544491.0700000003}},{"attributes":{"ID":490090,"DIS_CODE":0,"TOWNNAME":"中西區","LI":"藥王里","LIN":"13鄰","STREET":"臨安路","SECT":"一段","MAREA":" ","LANE":" ","ALLEY":" ","HOUSE_NO":"１２１號","E_COORD97":167089.17000000001,"N_COORD97":2544493.4199999999,"ADDRESS":"臨安路一段１２１號","OBJECTID":490065},"geometry":{"x":167089.16999999993,"y":2544493.4200000018}},{"attributes":{"ID":490091,"DIS_CODE":0,"TOWNNAME":"中西區","LI":"藥王里","LIN":"13鄰","STREET":"臨安路","SECT":"一段","MAREA":" ","LANE":" ","ALLEY":" ","HOUSE_NO":"８９號","E_COORD97":167036.39999999999,"N_COORD97":2544442.0299999998,"ADDRESS":"臨安路一段８９號","OBJECTID":490066},"geometry":{"x":167036.4000000013,"y":2544442.0300000012}},{"attributes":{"ID":490092,"DIS_CODE":0,"TOWNNAME":"永康區","LI":"復國里","LIN":"13鄰","STREET":"復國二路","SECT":" ","MAREA":" ","LANE":" ","ALLEY":" ","HOUSE_NO":"１０７號","E_COORD97":172865.39999999999,"N_COORD97":2545516.2200000002,"ADDRESS":"復國二路１０７號","OBJECTID":490067},"geometry":{"x":172865.40000000037,"y":2545516.2200000025}},{"attributes":{"ID":490093,"DIS_CODE":0,"TOWNNAME":"永康區","LI":"復國里","LIN":"13鄰","STREET":"復國二路","SECT":" ","MAREA":" ","LANE":" ","ALLEY":" ","HOUSE_NO":"１０５號","E_COORD97":172864.57999999999,"N_COORD97":2545512.2200000002,"ADDRESS":"復國二路１０５號","OBJECTID":490068},"geometry":{"x":172864.58000000101,"y":2545512.2200000025}},{"attributes":{"ID":490094,"DIS_CODE":0,"TOWNNAME":"永康區","LI":"崑山里","LIN":"13鄰","STREET":"大灣路","SECT":" ","MAREA":" ","LANE":" ","ALLEY":" ","HOUSE_NO":"９８６號","E_COORD97":173514.60999999999,"N_COORD97":2544404.3700000001,"ADDRESS":"大灣路９８６號","OBJECTID":490069},"geometry":{"x":173514.61000000127,"y":2544404.370000001}},{"attributes":{"ID":490095,"DIS_CODE":0,"TOWNNAME":"永康區","LI":"永康里","LIN":"13鄰","STREET":"永平街","SECT":" ","MAREA":" ","LANE":" ","ALLEY":" ","HOUSE_NO":"１２５號","E_COORD97":173931.82999999999,"N_COORD97":2546978.7799999998,"ADDRESS":"永平街１２５號","OBJECTID":490070},"geometry":{"x":173931.83000000007,"y":2546978.7800000012}},{"attributes":{"ID":490096,"DIS_CODE":0,"TOWNNAME":"永康區","LI":"永康里","LIN":"13鄰","STREET":"永平街","SECT":" ","MAREA":" ","LANE":" ","ALLEY":" ","HOUSE_NO":"１２７號","E_COORD97":173934.76000000001,"N_COORD97":2546977.2799999998,"ADDRESS":"永平街１２７號","OBJECTID":490071},"geometry":{"x":173934.76000000071,"y":2546977.2799999993}},{"attributes":{"ID":490097,"DIS_CODE":0,"TOWNNAME":"永康區","LI":"永康里","LIN":"13鄰","STREET":"永平街","SECT":" ","MAREA":" ","LANE":" ","ALLEY":" ","HOUSE_NO":"１２９號","E_COORD97":173938.04999999999,"N_COORD97":2546975.73,"ADDRESS":"永平街１２９號","OBJECTID":490072},"geometry":{"x":173938.05000000075,"y":2546975.7300000004}},{"attributes":{"ID":490098,"DIS_CODE":0,"TOWNNAME":"永康區","LI":"永康里","LIN":"13鄰","STREET":"永平街","SECT":" ","MAREA":" ","LANE":" ","ALLEY":" ","HOUSE_NO":"１２９號","E_COORD97":173941.64000000001,"N_COORD97":2546973.79,"ADDRESS":"永平街１２９號","OBJECTID":490073},"geometry":{"x":173941.63999999873,"y":2546973.7899999991}},{"attributes":{"ID":490099,"DIS_CODE":0,"TOWNNAME":"永康區","LI":"永康里","LIN":"13鄰","STREET":"永平街","SECT":" ","MAREA":" ","LANE":" ","ALLEY":" ","HOUSE_NO":"１３３號","E_COORD97":173945.03,"N_COORD97":2546971.7599999998,"ADDRESS":"永平街１３３號","OBJECTID":490074},"geometry":{"x":173945.03000000119,"y":2546971.7600000035}},{"attributes":{"ID":490100,"DIS_CODE":0,"TOWNNAME":"永康區","LI":"永康里","LIN":"13鄰","STREET":"永平街","SECT":" ","MAREA":" ","LANE":" ","ALLEY":" ","HOUSE_NO":"１３５號","E_COORD97":173948.51999999999,"N_COORD97":2546970.21,"ADDRESS":"永平街１３５號","OBJECTID":490075},"geometry":{"x":173948.51999999955,"y":2546970.2100000046}},{"attributes":{"ID":490101,"DIS_CODE":0,"TOWNNAME":"永康區","LI":"永康里","LIN":"13鄰","STREET":"永平街","SECT":" ","MAREA":" ","LANE":" ","ALLEY":" ","HOUSE_NO":"１３７號","E_COORD97":173952.01000000001,"N_COORD97":2546968.6600000001,"ADDRESS":"永平街１３７號","OBJECTID":490076},"geometry":{"x":173952.01000000071,"y":2546968.6600000001}},{"attributes":{"ID":490102,"DIS_CODE":0,"TOWNNAME":"永康區","LI":"永康里","LIN":"13鄰","STREET":"永平街","SECT":" ","MAREA":" ","LANE":" ","ALLEY":" ","HOUSE_NO":"１３９號","E_COORD97":173955.29999999999,"N_COORD97":2546966.5299999998,"ADDRESS":"永平街１３９號","OBJECTID":490077},"geometry":{"x":173955.29999999981,"y":2546966.5300000012}},{"attributes":{"ID":490103,"DIS_CODE":0,"TOWNNAME":"永康區","LI":"永康里","LIN":"13鄰","STREET":"永平街","SECT":" ","MAREA":" ","LANE":" ","ALLEY":" ","HOUSE_NO":"１４１號","E_COORD97":173958.39999999999,"N_COORD97":2546964.6899999999,"ADDRESS":"永平街１４１號","OBJECTID":490078},"geometry":{"x":173958.4000000013,"y":2546964.6899999995}},{"attributes":{"ID":490104,"DIS_CODE":0,"TOWNNAME":"永康區","LI":"永康里","LIN":"13鄰","STREET":"永平街","SECT":" ","MAREA":" ","LANE":" ","ALLEY":" ","HOUSE_NO":"１４３號","E_COORD97":173961.79000000001,"N_COORD97":2546963.0499999998,"ADDRESS":"永平街１４３號","OBJECTID":490079},"geometry":{"x":173961.79000000097,"y":2546963.0500000007}},{"attributes":{"ID":490105,"DIS_CODE":0,"TOWNNAME":"中西區","LI":"保安里","LIN":"13鄰","STREET":"友愛街","SECT":" ","MAREA":" ","LANE":" ","ALLEY":" ","HOUSE_NO":"２０８號","E_COORD97":167622.17999999999,"N_COORD97":2543642.0899999999,"ADDRESS":"友愛街２０８號","OBJECTID":490080},"geometry":{"x":167622.18000000063,"y":2543642.0899999999}},{"attributes":{"ID":490106,"DIS_CODE":0,"TOWNNAME":"中西區","LI":"保安里","LIN":"13鄰","STREET":"友愛街","SECT":" ","MAREA":" ","LANE":" ","ALLEY":" ","HOUSE_NO":"２１０號","E_COORD97":167618,"N_COORD97":2543642.8199999998,"ADDRESS":"友愛街２１０號","OBJECTID":490081},"geometry":{"x":167618,"y":2543642.820000004}},{"attributes":{"ID":490107,"DIS_CODE":0,"TOWNNAME":"中西區","LI":"保安里","LIN":"13鄰","STREET":"友愛街","SECT":" ","MAREA":" ","LANE":" ","ALLEY":" ","HOUSE_NO":"２１２號","E_COORD97":167613.32999999999,"N_COORD97":2543644.54,"ADDRESS":"友愛街２１２號","OBJECTID":490082},"geometry":{"x":167613.33000000101,"y":2543644.540000001}},{"attributes":{"ID":490108,"DIS_CODE":0,"TOWNNAME":"中西區","LI":"保安里","LIN":"13鄰","STREET":"友愛街","SECT":" ","MAREA":" ","LANE":" ","ALLEY":" ","HOUSE_NO":"２１４號","E_COORD97":167608.64999999999,"N_COORD97":2543644.79,"ADDRESS":"友愛街２１４號","OBJECTID":490083},"geometry":{"x":167608.65000000037,"y":2543644.7899999972}},{"attributes":{"ID":490109,"DIS_CODE":0,"TOWNNAME":"中西區","LI":"保安里","LIN":"13鄰","STREET":"友愛街","SECT":" ","MAREA":" ","LANE":" ","ALLEY":" ","HOUSE_NO":"２１６號","E_COORD97":167604.72,"N_COORD97":2543645.77,"ADDRESS":"友愛街２１６號","OBJECTID":490084},"geometry":{"x":167604.7200000016,"y":2543645.7700000033}},{"attributes":{"ID":490110,"DIS_CODE":0,"TOWNNAME":"中西區","LI":"保安里","LIN":"13鄰","STREET":"友愛街","SECT":" ","MAREA":" ","LANE":" ","ALLEY":" ","HOUSE_NO":"２１８號","E_COORD97":167600.29999999999,"N_COORD97":2543647.25,"ADDRESS":"友愛街２１８號","OBJECTID":490085},"geometry":{"x":167600.29999999981,"y":2543647.2500000019}},{"attributes":{"ID":490111,"DIS_CODE":0,"TOWNNAME":"中西區","LI":"保安里","LIN":"13鄰","STREET":"友愛街","SECT":" ","MAREA":" ","LANE":" ","ALLEY":" ","HOUSE_NO":"２２０號","E_COORD97":167596.85000000001,"N_COORD97":2543648.4700000002,"ADDRESS":"友愛街２２０號","OBJECTID":490086},"geometry":{"x":167596.85000000149,"y":2543648.4700000007}},{"attributes":{"ID":490112,"DIS_CODE":0,"TOWNNAME":"中西區","LI":"保安里","LIN":"13鄰","STREET":"友愛街","SECT":" ","MAREA":" ","LANE":" ","ALLEY":" ","HOUSE_NO":"２２２號","E_COORD97":167592.17999999999,"N_COORD97":2543648.7200000002,"ADDRESS":"友愛街２２２號","OBJECTID":490087},"geometry":{"x":167592.1799999997,"y":2543648.7200000025}},{"attributes":{"ID":490113,"DIS_CODE":0,"TOWNNAME":"中西區","LI":"保安里","LIN":"13鄰","STREET":"友愛街","SECT":" ","MAREA":" ","LANE":" ","ALLEY":" ","HOUSE_NO":"２２４號","E_COORD97":167588.73999999999,"N_COORD97":2543650.4399999999,"ADDRESS":"友愛街２２４號","OBJECTID":490088},"geometry":{"x":167588.74000000115,"y":2543650.4399999995}},{"attributes":{"ID":490114,"DIS_CODE":0,"TOWNNAME":"中西區","LI":"保安里","LIN":"13鄰","STREET":"友愛街","SECT":" ","MAREA":" ","LANE":" ","ALLEY":" ","HOUSE_NO":"２２６號","E_COORD97":167586.53,"N_COORD97":2543650.6800000002,"ADDRESS":"友愛街２２６號","OBJECTID":490089},"geometry":{"x":167586.53000000119,"y":2543650.6800000016}},{"attributes":{"ID":490115,"DIS_CODE":0,"TOWNNAME":"中西區","LI":"保安里","LIN":"13鄰","STREET":"友愛街","SECT":" ","MAREA":" ","LANE":" ","ALLEY":" ","HOUSE_NO":"２２８號","E_COORD97":167584.32000000001,"N_COORD97":2543651.1800000002,"ADDRESS":"友愛街２２８號","OBJECTID":490090},"geometry":{"x":167584.32000000216,"y":2543651.1800000016}},{"attributes":{"ID":490116,"DIS_CODE":0,"TOWNNAME":"中西區","LI":"保安里","LIN":"13鄰","STREET":"友愛街","SECT":" ","MAREA":" ","LANE":" ","ALLEY":" ","HOUSE_NO":"２３０號","E_COORD97":167582.10000000001,"N_COORD97":2543651.6699999999,"ADDRESS":"友愛街２３０號","OBJECTID":490091},"geometry":{"x":167582.10000000056,"y":2543651.6700000018}},{"attributes":{"ID":490117,"DIS_CODE":0,"TOWNNAME":"中西區","LI":"保安里","LIN":"13鄰","STREET":"友愛街","SECT":" ","MAREA":" ","LANE":" ","ALLEY":" ","HOUSE_NO":"２３２號","E_COORD97":167579.14999999999,"N_COORD97":2543653.1400000001,"ADDRESS":"友愛街２３２號","OBJECTID":490092},"geometry":{"x":167579.1500000013,"y":2543653.1400000006}},{"attributes":{"ID":490118,"DIS_CODE":0,"TOWNNAME":"中西區","LI":"保安里","LIN":"13鄰","STREET":"友愛街","SECT":" ","MAREA":" ","LANE":" ","ALLEY":" ","HOUSE_NO":"２３４號","E_COORD97":167576.45000000001,"N_COORD97":2543655.1099999999,"ADDRESS":"友愛街２３４號","OBJECTID":490093},"geometry":{"x":167576.45000000205,"y":2543655.1099999994}},{"attributes":{"ID":490119,"DIS_CODE":0,"TOWNNAME":"東區","LI":"德高里","LIN":"13鄰","STREET":"崇善路","SECT":" ","MAREA":" ","LANE":" ","ALLEY":" ","HOUSE_NO":"９２９號","E_COORD97":171466.54000000001,"N_COORD97":2540632.0299999998,"ADDRESS":"崇善路９２９號","OBJECTID":490094},"geometry":{"x":171466.54000000097,"y":2540632.0299999993}},{"attributes":{"ID":490120,"DIS_CODE":0,"TOWNNAME":"安平區","LI":"華平里","LIN":"31鄰","STREET":"永華八街","SECT":" ","MAREA":" ","LANE":" ","ALLEY":" ","HOUSE_NO":"２１３號","E_COORD97":165164.69,"N_COORD97":2543840.77,"ADDRESS":"永華八街２１３號","OBJECTID":490095},"geometry":{"x":165164.69000000134,"y":2543840.7699999996}},{"attributes":{"ID":490121,"DIS_CODE":0,"TOWNNAME":"安平區","LI":"金城里","LIN":"5鄰","STREET":"湖內二街","SECT":" ","MAREA":" ","LANE":" ","ALLEY":" ","HOUSE_NO":"１９號","E_COORD97":163783.26000000001,"N_COORD97":2544276.25,"ADDRESS":"湖內二街１９號","OBJECTID":490096},"geometry":{"x":163783.25999999978,"y":2544276.25}},{"attributes":{"ID":490122,"DIS_CODE":0,"TOWNNAME":"安平區","LI":"怡平里","LIN":"20鄰","STREET":"怡平路","SECT":" ","MAREA":" ","LANE":" ","ALLEY":" ","HOUSE_NO":"３３２號","E_COORD97":165775.44,"N_COORD97":2543793.79,"ADDRESS":"怡平路３３２號","OBJECTID":490097},"geometry":{"x":165775.44000000134,"y":2543793.7899999991}},{"attributes":{"ID":490123,"DIS_CODE":0,"TOWNNAME":"安平區","LI":"金城里","LIN":"4鄰","STREET":"運河路","SECT":" ","MAREA":" ","LANE":" ","ALLEY":" ","HOUSE_NO":"１６２號","E_COORD97":163513.01000000001,"N_COORD97":2544146.1400000001,"ADDRESS":"運河路１６２號","OBJECTID":490098},"geometry":{"x":163513.01000000071,"y":2544146.1400000043}},{"attributes":{"ID":490124,"DIS_CODE":0,"TOWNNAME":"東區","LI":"崇德里","LIN":"13鄰","STREET":"中華東路","SECT":"三段","MAREA":" ","LANE":" ","ALLEY":" ","HOUSE_NO":"２９１號","E_COORD97":170394.70000000001,"N_COORD97":2541649.73,"ADDRESS":"中華東路三段２９１號","OBJECTID":490099},"geometry":{"x":170394.70000000019,"y":2541649.7299999986}},{"attributes":{"ID":490125,"DIS_CODE":0,"TOWNNAME":"東區","LI":"德高里","LIN":"13鄰","STREET":"德高街","SECT":" ","MAREA":" ","LANE":" ","ALLEY":" ","HOUSE_NO":"１１０號","E_COORD97":171520.87,"N_COORD97":2540775.0800000001,"ADDRESS":"德高街１１０號","OBJECTID":490100},"geometry":{"x":171520.87000000011,"y":2540775.0800000001}},{"attributes":{"ID":490126,"DIS_CODE":0,"TOWNNAME":"東區","LI":"德高里","LIN":"13鄰","STREET":"德高街","SECT":" ","MAREA":" ","LANE":" ","ALLEY":" ","HOUSE_NO":"１１２號","E_COORD97":171515.82000000001,"N_COORD97":2540766.9500000002,"ADDRESS":"德高街１１２號","OBJECTID":490101},"geometry":{"x":171515.82000000123,"y":2540766.9500000011}},{"attributes":{"ID":490127,"DIS_CODE":0,"TOWNNAME":"東區","LI":"德高里","LIN":"13鄰","STREET":"德高街","SECT":" ","MAREA":" ","LANE":" ","ALLEY":" ","HOUSE_NO":"１１４號","E_COORD97":171521.98000000001,"N_COORD97":2540764.9900000002,"ADDRESS":"德高街１１４號","OBJECTID":490102},"geometry":{"x":171521.98000000138,"y":2540764.9900000002}},{"attributes":{"ID":490128,"DIS_CODE":0,"TOWNNAME":"東區","LI":"德高里","LIN":"13鄰","STREET":"德高街","SECT":" ","MAREA":" ","LANE":" ","ALLEY":" ","HOUSE_NO":"１１６號","E_COORD97":171524.20999999999,"N_COORD97":2540761.0600000001,"ADDRESS":"德高街１１６號","OBJECTID":490103},"geometry":{"x":171524.21000000183,"y":2540761.0600000024}},{"attributes":{"ID":490129,"DIS_CODE":0,"TOWNNAME":"東區","LI":"德高里","LIN":"13鄰","STREET":"德高街","SECT":" ","MAREA":" ","LANE":" ","ALLEY":" ","HOUSE_NO":"１１８號","E_COORD97":171525.51999999999,"N_COORD97":2540757.1299999999,"ADDRESS":"德高街１１８號","OBJECTID":490104},"geometry":{"x":171525.52000000048,"y":2540757.1299999971}},{"attributes":{"ID":490130,"DIS_CODE":0,"TOWNNAME":"東區","LI":"德高里","LIN":"13鄰","STREET":"德高街","SECT":" ","MAREA":" ","LANE":" ","ALLEY":" ","HOUSE_NO":"１２０號","E_COORD97":171527.60999999999,"N_COORD97":2540753.8599999999,"ADDRESS":"德高街１２０號","OBJECTID":490105},"geometry":{"x":171527.61000000127,"y":2540753.8600000013}},{"attributes":{"ID":490131,"DIS_CODE":0,"TOWNNAME":"東區","LI":"德高里","LIN":"13鄰","STREET":"德高街","SECT":" ","MAREA":" ","LANE":" ","ALLEY":" ","HOUSE_NO":"１２２號","E_COORD97":171529.97,"N_COORD97":2540749.1400000001,"ADDRESS":"德高街１２２號","OBJECTID":490106},"geometry":{"x":171529.96999999974,"y":2540749.1400000025}},{"attributes":{"ID":490132,"DIS_CODE":0,"TOWNNAME":"新營區","LI":"太北里","LIN":"10鄰","STREET":" ","SECT":" ","MAREA":"太子宮","LANE":" ","ALLEY":" ","HOUSE_NO":"８６號之７","E_COORD97":176169.77515100001,"N_COORD97":2577066.9585099998,"ADDRESS":"太子宮８６號之７","OBJECTID":490107},"geometry":{"x":176169.77515100129,"y":2577066.9585079998}},{"attributes":{"ID":490133,"DIS_CODE":0,"TOWNNAME":"東區","LI":"德高里","LIN":"13鄰","STREET":"德高街","SECT":" ","MAREA":" ","LANE":" ","ALLEY":" ","HOUSE_NO":"１２４號","E_COORD97":171534.03,"N_COORD97":2540744.6899999999,"ADDRESS":"德高街１２４號","OBJECTID":490108},"geometry":{"x":171534.03000000026,"y":2540744.6900000013}},{"attributes":{"ID":490134,"DIS_CODE":0,"TOWNNAME":"安平區","LI":"億載里","LIN":"5鄰","STREET":"永華十一街","SECT":" ","MAREA":" ","LANE":" ","ALLEY":" ","HOUSE_NO":"１１９號","E_COORD97":164074.07000000001,"N_COORD97":2543705.0699999998,"ADDRESS":"永華十一街１１９號","OBJECTID":490109},"geometry":{"x":164074.07000000123,"y":2543705.0700000003}},{"attributes":{"ID":490135,"DIS_CODE":0,"TOWNNAME":"安平區","LI":"怡平里","LIN":"20鄰","STREET":"怡平路","SECT":" ","MAREA":" ","LANE":" ","ALLEY":" ","HOUSE_NO":"３９２號","E_COORD97":165556.94,"N_COORD97":2543914.46,"ADDRESS":"怡平路３９２號","OBJECTID":490110},"geometry":{"x":165556.94000000041,"y":2543914.4600000028}},{"attributes":{"ID":490136,"DIS_CODE":0,"TOWNNAME":"東區","LI":"德高里","LIN":"13鄰","STREET":"德高街","SECT":" ","MAREA":" ","LANE":" ","ALLEY":" ","HOUSE_NO":"１２６號","E_COORD97":171532.45999999999,"N_COORD97":2540740.3700000001,"ADDRESS":"德高街１２６號","OBJECTID":490111},"geometry":{"x":171532.45999999996,"y":2540740.370000001}},{"attributes":{"ID":490137,"DIS_CODE":0,"TOWNNAME":"東區","LI":"德高里","LIN":"13鄰","STREET":"德高街","SECT":" ","MAREA":" ","LANE":" ","ALLEY":" ","HOUSE_NO":"１２８號","E_COORD97":171533.25,"N_COORD97":2540735.8900000001,"ADDRESS":"德高街１２８號","OBJECTID":490112},"geometry":{"x":171533.25000000093,"y":2540735.8900000006}},{"attributes":{"ID":490138,"DIS_CODE":0,"TOWNNAME":"東區","LI":"德高里","LIN":"13鄰","STREET":"德高街","SECT":" ","MAREA":" ","LANE":" ","ALLEY":" ","HOUSE_NO":"１３０號","E_COORD97":171532.32999999999,"N_COORD97":2540732.23,"ADDRESS":"德高街１３０號","OBJECTID":490113},"geometry":{"x":171532.33000000101,"y":2540732.2300000023}},{"attributes":{"ID":490139,"DIS_CODE":0,"TOWNNAME":"中西區","LI":"水仙里","LIN":"13鄰","STREET":"國華街","SECT":"三段","MAREA":" ","LANE":" ","ALLEY":" ","HOUSE_NO":"１２６號","E_COORD97":167845.63,"N_COORD97":2544127.9399999999,"ADDRESS":"國華街三段１２６號","OBJECTID":490114},"geometry":{"x":167845.62999999989,"y":2544127.9399999995}},{"attributes":{"ID":490140,"DIS_CODE":0,"TOWNNAME":"中西區","LI":"水仙里","LIN":"13鄰","STREET":"國華街","SECT":"三段","MAREA":" ","LANE":" ","ALLEY":" ","HOUSE_NO":"１３２號","E_COORD97":167849.53,"N_COORD97":2544137.6800000002,"ADDRESS":"國華街三段１３２號","OBJECTID":490115},"geometry":{"x":167849.53000000119,"y":2544137.6799999997}},{"attributes":{"ID":490141,"DIS_CODE":0,"TOWNNAME":"中西區","LI":"水仙里","LIN":"13鄰","STREET":"國華街","SECT":"三段","MAREA":" ","LANE":" ","ALLEY":" ","HOUSE_NO":"１３４號","E_COORD97":167851.06,"N_COORD97":2544141.02,"ADDRESS":"國華街三段１３４號","OBJECTID":490116},"geometry":{"x":167851.05999999959,"y":2544141.0199999996}},{"attributes":{"ID":490142,"DIS_CODE":0,"TOWNNAME":"中西區","LI":"水仙里","LIN":"13鄰","STREET":"國華街","SECT":"三段","MAREA":" ","LANE":" ","ALLEY":" ","HOUSE_NO":"１３６號","E_COORD97":167852.45999999999,"N_COORD97":2544144.77,"ADDRESS":"國華街三段１３６號","OBJECTID":490117},"geometry":{"x":167852.46000000183,"y":2544144.7700000014}},{"attributes":{"ID":490143,"DIS_CODE":0,"TOWNNAME":"中西區","LI":"水仙里","LIN":"13鄰","STREET":"國華街","SECT":"三段","MAREA":" ","LANE":" ","ALLEY":" ","HOUSE_NO":"１３８號","E_COORD97":167854.82000000001,"N_COORD97":2544147,"ADDRESS":"國華街三段１３８號","OBJECTID":490118},"geometry":{"x":167854.8200000003,"y":2544147.0000000019}},{"attributes":{"ID":490144,"DIS_CODE":0,"TOWNNAME":"中西區","LI":"水仙里","LIN":"13鄰","STREET":"國華街","SECT":"三段","MAREA":" ","LANE":" ","ALLEY":" ","HOUSE_NO":"１４０號","E_COORD97":167855.51999999999,"N_COORD97":2544151.5899999999,"ADDRESS":"國華街三段１４０號","OBJECTID":490119},"geometry":{"x":167855.52000000048,"y":2544151.5899999999}},{"attributes":{"ID":490145,"DIS_CODE":0,"TOWNNAME":"中西區","LI":"水仙里","LIN":"13鄰","STREET":"國華街","SECT":"三段","MAREA":" ","LANE":" ","ALLEY":" ","HOUSE_NO":"１４６號","E_COORD97":167855.79999999999,"N_COORD97":2544154.5099999998,"ADDRESS":"國華街三段１４６號","OBJECTID":490120},"geometry":{"x":167855.80000000075,"y":2544154.5099999998}},{"attributes":{"ID":490146,"DIS_CODE":0,"TOWNNAME":"中西區","LI":"水仙里","LIN":"13鄰","STREET":"國華街","SECT":"三段","MAREA":" ","LANE":" ","ALLEY":" ","HOUSE_NO":"１４８號","E_COORD97":167858.44,"N_COORD97":2544157.1499999999,"ADDRESS":"國華街三段１４８號","OBJECTID":490121},"geometry":{"x":167858.44000000134,"y":2544157.1500000022}},{"attributes":{"ID":490147,"DIS_CODE":0,"TOWNNAME":"中西區","LI":"水仙里","LIN":"13鄰","STREET":"國華街","SECT":"三段","MAREA":" ","LANE":" ","ALLEY":" ","HOUSE_NO":"１５０號","E_COORD97":167859.97,"N_COORD97":2544161.0499999998,"ADDRESS":"國華街三段１５０號","OBJECTID":490122},"geometry":{"x":167859.96999999974,"y":2544161.0500000026}},{"attributes":{"ID":490148,"DIS_CODE":0,"TOWNNAME":"中西區","LI":"水仙里","LIN":"13鄰","STREET":"西門路","SECT":"二段","MAREA":" ","LANE":" ","ALLEY":" ","HOUSE_NO":"２８５號","E_COORD97":167942.91,"N_COORD97":2544114.96,"ADDRESS":"西門路二段２８５號","OBJECTID":490123},"geometry":{"x":167942.91000000201,"y":2544114.9600000028}},{"attributes":{"ID":490149,"DIS_CODE":0,"TOWNNAME":"中西區","LI":"水仙里","LIN":"13鄰","STREET":"西門路","SECT":"二段","MAREA":" ","LANE":" ","ALLEY":" ","HOUSE_NO":"２８７號","E_COORD97":167941.94,"N_COORD97":2544119.1299999999,"ADDRESS":"西門路二段２８７號","OBJECTID":490124},"geometry":{"x":167941.94000000134,"y":2544119.129999999}},{"attributes":{"ID":490150,"DIS_CODE":0,"TOWNNAME":"中西區","LI":"水仙里","LIN":"13鄰","STREET":"西門路","SECT":"二段","MAREA":" ","LANE":" ","ALLEY":" ","HOUSE_NO":"２８９號","E_COORD97":167943.75,"N_COORD97":2544123.5800000001,"ADDRESS":"西門路二段２８９號","OBJECTID":490125},"geometry":{"x":167943.75000000186,"y":2544123.5800000019}},{"attributes":{"ID":490151,"DIS_CODE":0,"TOWNNAME":"中西區","LI":"水仙里","LIN":"13鄰","STREET":"西門路","SECT":"二段","MAREA":" ","LANE":" ","ALLEY":" ","HOUSE_NO":"２９１號","E_COORD97":167944.45000000001,"N_COORD97":2544127.75,"ADDRESS":"西門路二段２９１號","OBJECTID":490126},"geometry":{"x":167944.45000000112,"y":2544127.7500000037}},{"attributes":{"ID":490152,"DIS_CODE":0,"TOWNNAME":"中西區","LI":"水仙里","LIN":"13鄰","STREET":"西門路","SECT":"二段","MAREA":" ","LANE":" ","ALLEY":" ","HOUSE_NO":"２９３號","E_COORD97":167946.53,"N_COORD97":2544132.48,"ADDRESS":"西門路二段２９３號","OBJECTID":490127},"geometry":{"x":167946.53000000026,"y":2544132.4800000004}},{"attributes":{"ID":490153,"DIS_CODE":0,"TOWNNAME":"中西區","LI":"水仙里","LIN":"13鄰","STREET":"西門路","SECT":"二段","MAREA":" ","LANE":" ","ALLEY":" ","HOUSE_NO":"２９５號","E_COORD97":167949.17999999999,"N_COORD97":2544135.3999999999,"ADDRESS":"西門路二段２９５號","OBJECTID":490128},"geometry":{"x":167949.18000000063,"y":2544135.4000000022}},{"attributes":{"ID":490154,"DIS_CODE":0,"TOWNNAME":"中西區","LI":"水仙里","LIN":"13鄰","STREET":"西門路","SECT":"二段","MAREA":" ","LANE":" ","ALLEY":" ","HOUSE_NO":"２９７號","E_COORD97":167949.73999999999,"N_COORD97":2544139.9900000002,"ADDRESS":"西門路二段２９７號","OBJECTID":490129},"geometry":{"x":167949.74000000115,"y":2544139.9900000039}},{"attributes":{"ID":490155,"DIS_CODE":0,"TOWNNAME":"中西區","LI":"水仙里","LIN":"13鄰","STREET":"西門路","SECT":"二段","MAREA":" ","LANE":" ","ALLEY":" ","HOUSE_NO":"２９９號","E_COORD97":167950.29000000001,"N_COORD97":2544143.4700000002,"ADDRESS":"西門路二段２９９號","OBJECTID":490130},"geometry":{"x":167950.2900000019,"y":2544143.4700000007}},{"attributes":{"ID":490156,"DIS_CODE":0,"TOWNNAME":"中西區","LI":"水仙里","LIN":"13鄰","STREET":"西門路","SECT":"二段","MAREA":" ","LANE":" ","ALLEY":" ","HOUSE_NO":"３０１號","E_COORD97":167951.54999999999,"N_COORD97":2544147.0899999999,"ADDRESS":"西門路二段３０１號","OBJECTID":490131},"geometry":{"x":167951.54999999981,"y":2544147.0900000017}},{"attributes":{"ID":490157,"DIS_CODE":0,"TOWNNAME":"中西區","LI":"水仙里","LIN":"13鄰","STREET":"西門路","SECT":"二段","MAREA":" ","LANE":" ","ALLEY":" ","HOUSE_NO":"３０３號","E_COORD97":167953.07999999999,"N_COORD97":2544150.4300000002,"ADDRESS":"西門路二段３０３號","OBJECTID":490132},"geometry":{"x":167953.08000000007,"y":2544150.4300000016}},{"attributes":{"ID":490158,"DIS_CODE":0,"TOWNNAME":"中西區","LI":"水仙里","LIN":"13鄰","STREET":"西門路","SECT":"二段","MAREA":" ","LANE":" ","ALLEY":" ","HOUSE_NO":"３０５號","E_COORD97":167953.91,"N_COORD97":2544155.71,"ADDRESS":"西門路二段３０５號","OBJECTID":490133},"geometry":{"x":167953.91000000015,"y":2544155.7100000009}},{"attributes":{"ID":490159,"DIS_CODE":0,"TOWNNAME":"安南區","LI":"城東里","LIN":"13鄰","STREET":"城安路","SECT":" ","MAREA":" ","LANE":" ","ALLEY":" ","HOUSE_NO":"６５號","E_COORD97":160699.17185499999,"N_COORD97":2551909.7590299998,"ADDRESS":"城安路６５號","OBJECTID":490134},"geometry":{"x":160699.17185499985,"y":2551909.7590320017}},{"attributes":{"ID":490160,"DIS_CODE":0,"TOWNNAME":"安南區","LI":"城東里","LIN":"13鄰","STREET":"城安路","SECT":" ","MAREA":" ","LANE":" ","ALLEY":" ","HOUSE_NO":"６７號","E_COORD97":160693.24332899999,"N_COORD97":2551913.99236,"ADDRESS":"城安路６７號","OBJECTID":490135},"geometry":{"x":160693.24332899973,"y":2551913.9923630003}},{"attributes":{"ID":490161,"DIS_CODE":0,"TOWNNAME":"安南區","LI":"城東里","LIN":"13鄰","STREET":"城安路","SECT":" ","MAREA":" ","LANE":" ","ALLEY":" ","HOUSE_NO":"６９號","E_COORD97":160689.85560099999,"N_COORD97":2551908.2773699998,"ADDRESS":"城安路６９號","OBJECTID":490136},"geometry":{"x":160689.8556010006,"y":2551908.2773660012}},{"attributes":{"ID":490162,"DIS_CODE":0,"TOWNNAME":"安南區","LI":"城東里","LIN":"13鄰","STREET":"城安路","SECT":" ","MAREA":" ","LANE":" ","ALLEY":" ","HOUSE_NO":"７１號","E_COORD97":160684.13880799999,"N_COORD97":2551912.2990299999,"ADDRESS":"城安路７１號","OBJECTID":490137},"geometry":{"x":160684.13880800083,"y":2551912.2990310006}},{"attributes":{"ID":490163,"DIS_CODE":0,"TOWNNAME":"中西區","LI":"銀同里","LIN":"13鄰","STREET":"開山路","SECT":" ","MAREA":" ","LANE":" ","ALLEY":" ","HOUSE_NO":"１１號","E_COORD97":168576.17000000001,"N_COORD97":2543603.3100000001,"ADDRESS":"開山路１１號","OBJECTID":490138},"geometry":{"x":168576.16999999993,"y":2543603.3100000024}},{"attributes":{"ID":490164,"DIS_CODE":0,"TOWNNAME":"安南區","LI":"溪心里","LIN":"13鄰","STREET":"樂安二街","SECT":" ","MAREA":" ","LANE":" ","ALLEY":" ","HOUSE_NO":"４２號","E_COORD97":166024.20999999999,"N_COORD97":2549701.5099999998,"ADDRESS":"樂安二街４２號","OBJECTID":490139},"geometry":{"x":166024.20999999996,"y":2549701.5099999998}},{"attributes":{"ID":490165,"DIS_CODE":0,"TOWNNAME":"中西區","LI":"建國里","LIN":"13鄰","STREET":"民生路","SECT":"一段","MAREA":" ","LANE":" ","ALLEY":" ","HOUSE_NO":"１１６號","E_COORD97":168100.10999999999,"N_COORD97":2543843.2999999998,"ADDRESS":"民生路一段１１６號","OBJECTID":490140},"geometry":{"x":168100.11000000127,"y":2543843.3000000045}},{"attributes":{"ID":490166,"DIS_CODE":0,"TOWNNAME":"中西區","LI":"建國里","LIN":"13鄰","STREET":"民生路","SECT":"一段","MAREA":" ","LANE":" ","ALLEY":" ","HOUSE_NO":"１１８號","E_COORD97":168096.70999999999,"N_COORD97":2543844.2799999998,"ADDRESS":"民生路一段１１８號","OBJECTID":490141},"geometry":{"x":168096.71000000089,"y":2543844.2799999993}},{"attributes":{"ID":490167,"DIS_CODE":0,"TOWNNAME":"中西區","LI":"建國里","LIN":"13鄰","STREET":"民生路","SECT":"一段","MAREA":" ","LANE":" ","ALLEY":" ","HOUSE_NO":"１２０號","E_COORD97":168092.51999999999,"N_COORD97":2543845.1299999999,"ADDRESS":"民生路一段１２０號","OBJECTID":490142},"geometry":{"x":168092.52000000048,"y":2543845.129999999}},{"attributes":{"ID":490168,"DIS_CODE":0,"TOWNNAME":"中西區","LI":"建國里","LIN":"13鄰","STREET":"民生路","SECT":"一段","MAREA":" ","LANE":" ","ALLEY":" ","HOUSE_NO":"１２２號","E_COORD97":168088.07000000001,"N_COORD97":2543847.8799999999,"ADDRESS":"民生路一段１２２號","OBJECTID":490143},"geometry":{"x":168088.07000000123,"y":2543847.8800000027}},{"attributes":{"ID":490169,"DIS_CODE":0,"TOWNNAME":"中西區","LI":"建國里","LIN":"13鄰","STREET":"民生路","SECT":"一段","MAREA":" ","LANE":" ","ALLEY":" ","HOUSE_NO":"１２４號","E_COORD97":168084.54000000001,"N_COORD97":2543849.25,"ADDRESS":"民生路一段１２４號","OBJECTID":490144},"geometry":{"x":168084.54000000097,"y":2543849.25}},{"attributes":{"ID":490170,"DIS_CODE":0,"TOWNNAME":"中西區","LI":"建國里","LIN":"13鄰","STREET":"民生路","SECT":"一段","MAREA":" ","LANE":" ","ALLEY":" ","HOUSE_NO":"１２６號","E_COORD97":168080.69,"N_COORD97":2543849.6499999999,"ADDRESS":"民生路一段１２６號","OBJECTID":490145},"geometry":{"x":168080.69000000134,"y":2543849.6500000004}},{"attributes":{"ID":490171,"DIS_CODE":0,"TOWNNAME":"中西區","LI":"建國里","LIN":"13鄰","STREET":"民生路","SECT":"一段","MAREA":" ","LANE":" ","ALLEY":" ","HOUSE_NO":"１２８號","E_COORD97":168077.07000000001,"N_COORD97":2543850.9399999999,"ADDRESS":"民生路一段１２８號","OBJECTID":490146},"geometry":{"x":168077.0700000003,"y":2543850.9399999976}},{"attributes":{"ID":490172,"DIS_CODE":0,"TOWNNAME":"中西區","LI":"建國里","LIN":"13鄰","STREET":"永福路","SECT":"二段","MAREA":" ","LANE":" ","ALLEY":" ","HOUSE_NO":"１２５號","E_COORD97":168104.54999999999,"N_COORD97":2543844.2200000002,"ADDRESS":"永福路二段１２５號","OBJECTID":490147},"geometry":{"x":168104.55000000075,"y":2543844.2200000025}},{"attributes":{"ID":490173,"DIS_CODE":0,"TOWNNAME":"中西區","LI":"建國里","LIN":"13鄰","STREET":"永福路","SECT":"二段","MAREA":" ","LANE":" ","ALLEY":" ","HOUSE_NO":"１２７號","E_COORD97":168104.64999999999,"N_COORD97":2543849.79,"ADDRESS":"永福路二段１２７號","OBJECTID":490148},"geometry":{"x":168104.6500000013,"y":2543849.790000001}},{"attributes":{"ID":490174,"DIS_CODE":0,"TOWNNAME":"中西區","LI":"建國里","LIN":"13鄰","STREET":"永福路","SECT":"二段","MAREA":" ","LANE":" ","ALLEY":" ","HOUSE_NO":"１２９號","E_COORD97":168105.14999999999,"N_COORD97":2543853.4900000002,"ADDRESS":"永福路二段１２９號","OBJECTID":490149},"geometry":{"x":168105.15000000037,"y":2543853.4900000002}},{"attributes":{"ID":490175,"DIS_CODE":0,"TOWNNAME":"中西區","LI":"建國里","LIN":"13鄰","STREET":"永福路","SECT":"二段","MAREA":" ","LANE":" ","ALLEY":" ","HOUSE_NO":"１３１號","E_COORD97":168105.66,"N_COORD97":2543857.5299999998,"ADDRESS":"永福路二段１３１號","OBJECTID":490150},"geometry":{"x":168105.66000000201,"y":2543857.5300000012}},{"attributes":{"ID":490176,"DIS_CODE":0,"TOWNNAME":"中西區","LI":"建國里","LIN":"13鄰","STREET":"永福路","SECT":"二段","MAREA":" ","LANE":" ","ALLEY":" ","HOUSE_NO":"１３３號","E_COORD97":168112.39999999999,"N_COORD97":2543872.3599999999,"ADDRESS":"永福路二段１３３號","OBJECTID":490151},"geometry":{"x":168112.40000000037,"y":2543872.3600000013}},{"attributes":{"ID":490177,"DIS_CODE":0,"TOWNNAME":"中西區","LI":"建國里","LIN":"13鄰","STREET":"永福路","SECT":"二段","MAREA":" ","LANE":" ","ALLEY":" ","HOUSE_NO":"１５５號","E_COORD97":168121.85000000001,"N_COORD97":2543901.4399999999,"ADDRESS":"永福路二段１５５號","OBJECTID":490152},"geometry":{"x":168121.84999999963,"y":2543901.4399999995}},{"attributes":{"ID":490178,"DIS_CODE":0,"TOWNNAME":"中西區","LI":"建國里","LIN":"13鄰","STREET":"永福路","SECT":"二段","MAREA":" ","LANE":" ","ALLEY":" ","HOUSE_NO":"１５７號","E_COORD97":168122.35999999999,"N_COORD97":2543904.98,"ADDRESS":"永福路二段１５７號","OBJECTID":490153},"geometry":{"x":168122.36000000034,"y":2543904.9800000004}},{"attributes":{"ID":490179,"DIS_CODE":0,"TOWNNAME":"中西區","LI":"建國里","LIN":"13鄰","STREET":"永福路","SECT":"二段","MAREA":" ","LANE":" ","ALLEY":" ","HOUSE_NO":"１５９號","E_COORD97":168123.70999999999,"N_COORD97":2543909.5299999998,"ADDRESS":"永福路二段１５９號","OBJECTID":490154},"geometry":{"x":168123.71000000183,"y":2543909.5300000012}},{"attributes":{"ID":490180,"DIS_CODE":0,"TOWNNAME":"中西區","LI":"永福里","LIN":"13鄰","STREET":"忠義路","SECT":"二段","MAREA":" ","LANE":" ","ALLEY":" ","HOUSE_NO":"１１５號","E_COORD97":168314.91,"N_COORD97":2543866.8199999998,"ADDRESS":"忠義路二段１１５號","OBJECTID":490155},"geometry":{"x":168314.91000000108,"y":2543866.8200000022}},{"attributes":{"ID":490181,"DIS_CODE":0,"TOWNNAME":"中西區","LI":"永福里","LIN":"13鄰","STREET":"忠義路","SECT":"二段","MAREA":" ","LANE":" ","ALLEY":" ","HOUSE_NO":"１１７號","E_COORD97":168316.07999999999,"N_COORD97":2543870.3199999998,"ADDRESS":"忠義路二段１１７號","OBJECTID":490156},"geometry":{"x":168316.08000000007,"y":2543870.3200000022}},{"attributes":{"ID":490182,"DIS_CODE":0,"TOWNNAME":"中西區","LI":"永福里","LIN":"13鄰","STREET":"忠義路","SECT":"二段","MAREA":" ","LANE":" ","ALLEY":" ","HOUSE_NO":"１１９號","E_COORD97":168317.13,"N_COORD97":2543874.6400000001,"ADDRESS":"忠義路二段１１９號","OBJECTID":490157},"geometry":{"x":168317.12999999989,"y":2543874.6400000043}},{"attributes":{"ID":490183,"DIS_CODE":0,"TOWNNAME":"中西區","LI":"永福里","LIN":"13鄰","STREET":"忠義路","SECT":"二段","MAREA":" ","LANE":" ","ALLEY":" ","HOUSE_NO":"１２１號","E_COORD97":168317.82999999999,"N_COORD97":2543879.3100000001,"ADDRESS":"忠義路二段１２１號","OBJECTID":490158},"geometry":{"x":168317.82999999914,"y":2543879.3100000005}},{"attributes":{"ID":490184,"DIS_CODE":0,"TOWNNAME":"中西區","LI":"永福里","LIN":"13鄰","STREET":"忠義路","SECT":"二段","MAREA":" ","LANE":" ","ALLEY":" ","HOUSE_NO":"１２３號","E_COORD97":168320.06,"N_COORD97":2543883.3999999999,"ADDRESS":"忠義路二段１２３號","OBJECTID":490159},"geometry":{"x":168320.06000000052,"y":2543883.4000000022}},{"attributes":{"ID":490185,"DIS_CODE":0,"TOWNNAME":"中西區","LI":"永福里","LIN":"13鄰","STREET":"忠義路","SECT":"二段","MAREA":" ","LANE":" ","ALLEY":" ","HOUSE_NO":"１２５號","E_COORD97":168317.72,"N_COORD97":2543891.2200000002,"ADDRESS":"忠義路二段１２５號","OBJECTID":490160},"geometry":{"x":168317.71999999974,"y":2543891.2200000044}},{"attributes":{"ID":490186,"DIS_CODE":0,"TOWNNAME":"中西區","LI":"永福里","LIN":"13鄰","STREET":"忠義路","SECT":"二段","MAREA":" ","LANE":" ","ALLEY":" ","HOUSE_NO":"１２７號","E_COORD97":168324.63,"N_COORD97":2543897.8300000001,"ADDRESS":"忠義路二段１２７號","OBJECTID":490161},"geometry":{"x":168324.63000000082,"y":2543897.8300000019}},{"attributes":{"ID":490187,"DIS_CODE":0,"TOWNNAME":"中西區","LI":"萬昌里","LIN":"13鄰","STREET":"民權路","SECT":"一段","MAREA":" ","LANE":" ","ALLEY":" ","HOUSE_NO":"６６號","E_COORD97":169031.5,"N_COORD97":2543386.1699999999,"ADDRESS":"民權路一段６６號","OBJECTID":490162},"geometry":{"x":169031.5,"y":2543386.1700000018}},{"attributes":{"ID":490188,"DIS_CODE":0,"TOWNNAME":"中西區","LI":"萬昌里","LIN":"13鄰","STREET":"民權路","SECT":"一段","MAREA":" ","LANE":" ","ALLEY":" ","HOUSE_NO":"７２號","E_COORD97":169013.19,"N_COORD97":2543396.25,"ADDRESS":"民權路一段７２號","OBJECTID":490163},"geometry":{"x":169013.19000000134,"y":2543396.2500000019}},{"attributes":{"ID":490189,"DIS_CODE":0,"TOWNNAME":"中西區","LI":"萬昌里","LIN":"13鄰","STREET":"民權路","SECT":"一段","MAREA":" ","LANE":" ","ALLEY":" ","HOUSE_NO":"７４號","E_COORD97":169008.95000000001,"N_COORD97":2543397.9700000002,"ADDRESS":"民權路一段７４號","OBJECTID":490164},"geometry":{"x":169008.95000000205,"y":2543397.9700000044}},{"attributes":{"ID":490190,"DIS_CODE":0,"TOWNNAME":"中西區","LI":"萬昌里","LIN":"13鄰","STREET":"萬昌街","SECT":" ","MAREA":" ","LANE":" ","ALLEY":" ","HOUSE_NO":"２９號","E_COORD97":169016.23999999999,"N_COORD97":2543393.8599999999,"ADDRESS":"萬昌街２９號","OBJECTID":490165},"geometry":{"x":169016.24000000115,"y":2543393.8600000031}},{"attributes":{"ID":490191,"DIS_CODE":0,"TOWNNAME":"中西區","LI":"萬昌里","LIN":"13鄰","STREET":"萬昌街","SECT":" ","MAREA":" ","LANE":" ","ALLEY":" ","HOUSE_NO":"３１號","E_COORD97":169020.35000000001,"N_COORD97":2543410.6699999999,"ADDRESS":"萬昌街３１號","OBJECTID":490166},"geometry":{"x":169020.34999999963,"y":2543410.6700000018}},{"attributes":{"ID":490192,"DIS_CODE":0,"TOWNNAME":"中西區","LI":"萬昌里","LIN":"13鄰","STREET":"萬昌街","SECT":" ","MAREA":" ","LANE":" ","ALLEY":" ","HOUSE_NO":"３３號","E_COORD97":169020.88,"N_COORD97":2543423.2400000002,"ADDRESS":"萬昌街３３號","OBJECTID":490167},"geometry":{"x":169020.88000000175,"y":2543423.2400000021}},{"attributes":{"ID":490193,"DIS_CODE":0,"TOWNNAME":"中西區","LI":"萬昌里","LIN":"13鄰","STREET":"萬昌街","SECT":" ","MAREA":" ","LANE":" ","ALLEY":" ","HOUSE_NO":"３５號","E_COORD97":169020.73999999999,"N_COORD97":2543425.8900000001,"ADDRESS":"萬昌街３５號","OBJECTID":490168},"geometry":{"x":169020.74000000115,"y":2543425.8900000025}},{"attributes":{"ID":490194,"DIS_CODE":0,"TOWNNAME":"中西區","LI":"萬昌里","LIN":"13鄰","STREET":"萬昌街","SECT":" ","MAREA":" ","LANE":" ","ALLEY":" ","HOUSE_NO":"３６號","E_COORD97":169038.39999999999,"N_COORD97":2543415.1699999999,"ADDRESS":"萬昌街３６號","OBJECTID":490169},"geometry":{"x":169038.4000000013,"y":2543415.1699999999}},{"attributes":{"ID":490195,"DIS_CODE":0,"TOWNNAME":"中西區","LI":"萬昌里","LIN":"13鄰","STREET":"萬昌街","SECT":" ","MAREA":" ","LANE":" ","ALLEY":" ","HOUSE_NO":"３７號","E_COORD97":169021.94,"N_COORD97":2543428.7999999998,"ADDRESS":"萬昌街３７號","OBJECTID":490170},"geometry":{"x":169021.94000000041,"y":2543428.8000000007}},{"attributes":{"ID":490196,"DIS_CODE":0,"TOWNNAME":"中西區","LI":"萬昌里","LIN":"13鄰","STREET":"萬昌街","SECT":" ","MAREA":" ","LANE":" ","ALLEY":" ","HOUSE_NO":"３８號","E_COORD97":169039.87,"N_COORD97":2543419.1299999999,"ADDRESS":"萬昌街３８號","OBJECTID":490171},"geometry":{"x":169039.87000000197,"y":2543419.1300000008}},{"attributes":{"ID":490197,"DIS_CODE":0,"TOWNNAME":"中西區","LI":"萬昌里","LIN":"13鄰","STREET":"萬昌街","SECT":" ","MAREA":" ","LANE":" ","ALLEY":" ","HOUSE_NO":"３９號","E_COORD97":169023.26000000001,"N_COORD97":2543432.1000000001,"ADDRESS":"萬昌街３９號","OBJECTID":490172},"geometry":{"x":169023.26000000164,"y":2543432.0999999996}},{"attributes":{"ID":490198,"DIS_CODE":0,"TOWNNAME":"中西區","LI":"萬昌里","LIN":"13鄰","STREET":"萬昌街","SECT":" ","MAREA":" ","LANE":" ","ALLEY":" ","HOUSE_NO":"４１號","E_COORD97":169027.76999999999,"N_COORD97":2543437.8599999999,"ADDRESS":"萬昌街４１號","OBJECTID":490173},"geometry":{"x":169027.76999999955,"y":2543437.8599999975}},{"attributes":{"ID":490199,"DIS_CODE":0,"TOWNNAME":"中西區","LI":"萬昌里","LIN":"13鄰","STREET":"萬昌街","SECT":" ","MAREA":" ","LANE":" ","ALLEY":" ","HOUSE_NO":"４３號","E_COORD97":169028.56,"N_COORD97":2543440.1099999999,"ADDRESS":"萬昌街４３號","OBJECTID":490174},"geometry":{"x":169028.56000000052,"y":2543440.1100000013}},{"attributes":{"ID":490200,"DIS_CODE":0,"TOWNNAME":"中西區","LI":"萬昌里","LIN":"13鄰","STREET":"萬昌街","SECT":" ","MAREA":" ","LANE":" ","ALLEY":" ","HOUSE_NO":"４５號","E_COORD97":169028.56,"N_COORD97":2543441.7000000002,"ADDRESS":"萬昌街４５號","OBJECTID":490175},"geometry":{"x":169028.56000000052,"y":2543441.6999999993}},{"attributes":{"ID":490201,"DIS_CODE":0,"TOWNNAME":"中西區","LI":"萬昌里","LIN":"13鄰","STREET":"萬昌街","SECT":" ","MAREA":" ","LANE":" ","ALLEY":" ","HOUSE_NO":"４７號","E_COORD97":169028.95999999999,"N_COORD97":2543443.8100000001,"ADDRESS":"萬昌街４７號","OBJECTID":490176},"geometry":{"x":169028.96000000183,"y":2543443.8100000024}},{"attributes":{"ID":490202,"DIS_CODE":0,"TOWNNAME":"中西區","LI":"萬昌里","LIN":"13鄰","STREET":"萬昌街","SECT":" ","MAREA":" ","LANE":" ","ALLEY":" ","HOUSE_NO":"４９號","E_COORD97":169028.95999999999,"N_COORD97":2543445.3999999999,"ADDRESS":"萬昌街４９號","OBJECTID":490177},"geometry":{"x":169028.96000000183,"y":2543445.3999999985}},{"attributes":{"ID":490203,"DIS_CODE":0,"TOWNNAME":"中西區","LI":"萬昌里","LIN":"13鄰","STREET":"民權路","SECT":"一段","MAREA":" ","LANE":" ","ALLEY":" ","HOUSE_NO":"７６號","E_COORD97":169007.35999999999,"N_COORD97":2543402.3300000001,"ADDRESS":"民權路一段７６號","OBJECTID":490178},"geometry":{"x":169007.36000000034,"y":2543402.3300000019}},{"attributes":{"ID":490204,"DIS_CODE":0,"TOWNNAME":"中西區","LI":"萬昌里","LIN":"13鄰","STREET":"民權路","SECT":"一段","MAREA":" ","LANE":" ","ALLEY":" ","HOUSE_NO":"７８號","E_COORD97":169004.31,"N_COORD97":2543404.5800000001,"ADDRESS":"民權路一段７８號","OBJECTID":490179},"geometry":{"x":169004.31000000052,"y":2543404.5800000019}},{"attributes":{"ID":490205,"DIS_CODE":0,"TOWNNAME":"中西區","LI":"萬昌里","LIN":"13鄰","STREET":"民權路","SECT":"一段","MAREA":" ","LANE":" ","ALLEY":" ","HOUSE_NO":"８０號","E_COORD97":169000.60000000001,"N_COORD97":2543407.7599999998,"ADDRESS":"民權路一段８０號","OBJECTID":490180},"geometry":{"x":169000.60000000149,"y":2543407.7599999998}},{"attributes":{"ID":490206,"DIS_CODE":0,"TOWNNAME":"中西區","LI":"萬昌里","LIN":"13鄰","STREET":"民權路","SECT":"一段","MAREA":" ","LANE":" ","ALLEY":" ","HOUSE_NO":"８２號","E_COORD97":168998.35000000001,"N_COORD97":2543411.0699999998,"ADDRESS":"民權路一段８２號","OBJECTID":490181},"geometry":{"x":168998.34999999963,"y":2543411.0700000022}},{"attributes":{"ID":490207,"DIS_CODE":0,"TOWNNAME":"中西區","LI":"萬昌里","LIN":"13鄰","STREET":"民權路","SECT":"一段","MAREA":" ","LANE":" ","ALLEY":" ","HOUSE_NO":"８４號","E_COORD97":168994.64000000001,"N_COORD97":2543414.3700000001,"ADDRESS":"民權路一段８４號","OBJECTID":490182},"geometry":{"x":168994.63999999966,"y":2543414.370000001}},{"attributes":{"ID":490208,"DIS_CODE":0,"TOWNNAME":"中西區","LI":"萬昌里","LIN":"13鄰","STREET":"民權路","SECT":"一段","MAREA":" ","LANE":" ","ALLEY":" ","HOUSE_NO":"８６號","E_COORD97":168991.45999999999,"N_COORD97":2543417.4199999999,"ADDRESS":"民權路一段８６號","OBJECTID":490183},"geometry":{"x":168991.45999999996,"y":2543417.4199999999}},{"attributes":{"ID":490209,"DIS_CODE":0,"TOWNNAME":"中西區","LI":"萬昌里","LIN":"13鄰","STREET":"民權路","SECT":"一段","MAREA":" ","LANE":" ","ALLEY":" ","HOUSE_NO":"８８號","E_COORD97":168984.97,"N_COORD97":2543418.54,"ADDRESS":"民權路一段８８號","OBJECTID":490184},"geometry":{"x":168984.97000000067,"y":2543418.5399999991}},{"attributes":{"ID":490210,"DIS_CODE":0,"TOWNNAME":"中西區","LI":"銀同里","LIN":"13鄰","STREET":"友愛東街","SECT":" ","MAREA":" ","LANE":" ","ALLEY":" ","HOUSE_NO":"５３號","E_COORD97":168642.23000000001,"N_COORD97":2543518.1000000001,"ADDRESS":"友愛東街５３號","OBJECTID":490185},"geometry":{"x":168642.23000000045,"y":2543518.1000000034}},{"attributes":{"ID":490211,"DIS_CODE":0,"TOWNNAME":"中西區","LI":"銀同里","LIN":"13鄰","STREET":"開山路","SECT":" ","MAREA":" ","LANE":" ","ALLEY":" ","HOUSE_NO":"１３號","E_COORD97":168587.31,"N_COORD97":2543584.6699999999,"ADDRESS":"開山路１３號","OBJECTID":490186},"geometry":{"x":168587.31000000052,"y":2543584.6699999999}},{"attributes":{"ID":490212,"DIS_CODE":0,"TOWNNAME":"中西區","LI":"銀同里","LIN":"13鄰","STREET":"開山路","SECT":" ","MAREA":" ","LANE":" ","ALLEY":" ","HOUSE_NO":"１３號之１","E_COORD97":168587.76000000001,"N_COORD97":2543588.6699999999,"ADDRESS":"開山路１３號之１","OBJECTID":490187},"geometry":{"x":168587.76000000164,"y":2543588.6699999999}},{"attributes":{"ID":490213,"DIS_CODE":0,"TOWNNAME":"中西區","LI":"銀同里","LIN":"13鄰","STREET":"開山路","SECT":" ","MAREA":" ","LANE":" ","ALLEY":" ","HOUSE_NO":"１５號","E_COORD97":168588.95000000001,"N_COORD97":2543579.9300000002,"ADDRESS":"開山路１５號","OBJECTID":490188},"geometry":{"x":168588.95000000112,"y":2543579.9299999997}},{"attributes":{"ID":490214,"DIS_CODE":0,"TOWNNAME":"中西區","LI":"銀同里","LIN":"13鄰","STREET":"開山路","SECT":" ","MAREA":" ","LANE":" ","ALLEY":" ","HOUSE_NO":"１９號","E_COORD97":168597.48999999999,"N_COORD97":2543567.9900000002,"ADDRESS":"開山路１９號","OBJECTID":490189},"geometry":{"x":168597.49000000115,"y":2543567.9900000021}},{"attributes":{"ID":490215,"DIS_CODE":0,"TOWNNAME":"中西區","LI":"銀同里","LIN":"13鄰","STREET":"開山路","SECT":" ","MAREA":" ","LANE":" ","ALLEY":" ","HOUSE_NO":"２１號","E_COORD97":168598.88,"N_COORD97":2543564.2599999998,"ADDRESS":"開山路２１號","OBJECTID":490190},"geometry":{"x":168598.88000000175,"y":2543564.2599999998}},{"attributes":{"ID":490216,"DIS_CODE":0,"TOWNNAME":"中西區","LI":"銀同里","LIN":"13鄰","STREET":"開山路","SECT":" ","MAREA":" ","LANE":" ","ALLEY":" ","HOUSE_NO":"２３號","E_COORD97":168601.79000000001,"N_COORD97":2543560.9300000002,"ADDRESS":"開山路２３號","OBJECTID":490191},"geometry":{"x":168601.79000000097,"y":2543560.9300000016}},{"attributes":{"ID":490217,"DIS_CODE":0,"TOWNNAME":"中西區","LI":"銀同里","LIN":"13鄰","STREET":"開山路","SECT":" ","MAREA":" ","LANE":" ","ALLEY":" ","HOUSE_NO":"２５號","E_COORD97":168602.35000000001,"N_COORD97":2543558.2999999998,"ADDRESS":"開山路２５號","OBJECTID":490192},"geometry":{"x":168602.35000000056,"y":2543558.2999999989}},{"attributes":{"ID":490218,"DIS_CODE":0,"TOWNNAME":"中西區","LI":"銀同里","LIN":"13鄰","STREET":"開山路","SECT":" ","MAREA":" ","LANE":" ","ALLEY":" ","HOUSE_NO":"２７號","E_COORD97":168603.73000000001,"N_COORD97":2543554.0099999998,"ADDRESS":"開山路２７號","OBJECTID":490193},"geometry":{"x":168603.72999999952,"y":2543554.0100000016}},{"attributes":{"ID":490219,"DIS_CODE":0,"TOWNNAME":"中西區","LI":"銀同里","LIN":"13鄰","STREET":"友愛東街","SECT":" ","MAREA":" ","LANE":" ","ALLEY":" ","HOUSE_NO":"３３號","E_COORD97":168666.32999999999,"N_COORD97":2543539.2400000002,"ADDRESS":"友愛東街３３號","OBJECTID":490194},"geometry":{"x":168666.33000000007,"y":2543539.2400000021}},{"attributes":{"ID":490220,"DIS_CODE":0,"TOWNNAME":"中西區","LI":"銀同里","LIN":"13鄰","STREET":"友愛東街","SECT":" ","MAREA":" ","LANE":" ","ALLEY":" ","HOUSE_NO":"３５號","E_COORD97":168663.70000000001,"N_COORD97":2543537.54,"ADDRESS":"友愛東街３５號","OBJECTID":490195},"geometry":{"x":168663.70000000112,"y":2543537.5399999991}},{"attributes":{"ID":490221,"DIS_CODE":0,"TOWNNAME":"安南區","LI":"海東里","LIN":"13鄰","STREET":"海佃路","SECT":"二段","MAREA":" ","LANE":" ","ALLEY":" ","HOUSE_NO":"３９５號","E_COORD97":166732.14999999999,"N_COORD97":2548948.9900000002,"ADDRESS":"海佃路二段３９５號","OBJECTID":490196},"geometry":{"x":166732.15000000037,"y":2548948.9900000021}},{"attributes":{"ID":490222,"DIS_CODE":0,"TOWNNAME":"安南區","LI":"海東里","LIN":"13鄰","STREET":"海佃路","SECT":"二段","MAREA":" ","LANE":" ","ALLEY":" ","HOUSE_NO":"４０１號","E_COORD97":166726.29000000001,"N_COORD97":2548961.3399999999,"ADDRESS":"海佃路二段４０１號","OBJECTID":490197},"geometry":{"x":166726.28999999911,"y":2548961.339999998}},{"attributes":{"ID":490223,"DIS_CODE":0,"TOWNNAME":"安南區","LI":"海南里","LIN":"13鄰","STREET":"府安路","SECT":"七段","MAREA":" ","LANE":" ","ALLEY":" ","HOUSE_NO":"４９號","E_COORD97":165985.13,"N_COORD97":2545934.2999999998,"ADDRESS":"府安路七段４９號","OBJECTID":490198},"geometry":{"x":165985.13000000082,"y":2545934.3000000007}},{"attributes":{"ID":490224,"DIS_CODE":0,"TOWNNAME":"安南區","LI":"理想里","LIN":"13鄰","STREET":"海佃路","SECT":"二段","MAREA":" ","LANE":" ","ALLEY":" ","HOUSE_NO":"１１４號","E_COORD97":167016.34,"N_COORD97":2548068.2400000002,"ADDRESS":"海佃路二段１１４號","OBJECTID":490199},"geometry":{"x":167016.34000000078,"y":2548068.2400000021}},{"attributes":{"ID":490225,"DIS_CODE":0,"TOWNNAME":"安南區","LI":"理想里","LIN":"13鄰","STREET":"大安街","SECT":" ","MAREA":" ","LANE":" ","ALLEY":" ","HOUSE_NO":"３５號","E_COORD97":167133.34,"N_COORD97":2547983.7999999998,"ADDRESS":"大安街３５號","OBJECTID":490200},"geometry":{"x":167133.34000000078,"y":2547983.8000000026}}]}