{"displayFieldName":"TOWNNAME","fieldAliases":{"ID":"ID","DIS_CODE":"DIS_CODE","TOWNNAME":"TOWNNAME","LI":"LI","LIN":"LIN","STREET":"STREET","SECT":"SECT","MAREA":"MAREA","LANE":"LANE","ALLEY":"ALLEY","HOUSE_NO":"HOUSE_NO","E_COORD97":"E_COORD97","N_COORD97":"N_COORD97","ADDRESS":"ADDRESS","OBJECTID":"OBJECTID"},"geometryType":"esriGeometryPoint","spatialReference":{"wkid":102443,"latestWkid":3826},"fields":[{"name":"ID","type":"esriFieldTypeDouble","alias":"ID"},{"name":"DIS_CODE","type":"esriFieldTypeInteger","alias":"DIS_CODE"},{"name":"TOWNNAME","type":"esriFieldTypeString","alias":"TOWNNAME","length":8},{"name":"LI","type":"esriFieldTypeString","alias":"LI","length":8},{"name":"LIN","type":"esriFieldTypeString","alias":"LIN","length":12},{"name":"STREET","type":"esriFieldTypeString","alias":"STREET","length":20},{"name":"SECT","type":"esriFieldTypeString","alias":"SECT","length":8},{"name":"MAREA","type":"esriFieldTypeString","alias":"MAREA","length":12},{"name":"LANE","type":"esriFieldTypeString","alias":"LANE","length":10},{"name":"ALLEY","type":"esriFieldTypeString","alias":"ALLEY","length":10},{"name":"HOUSE_NO","type":"esriFieldTypeString","alias":"HOUSE_NO","length":20},{"name":"E_COORD97","type":"esriFieldTypeDouble","alias":"E_COORD97"},{"name":"N_COORD97","type":"esriFieldTypeDouble","alias":"N_COORD97"},{"name":"ADDRESS","type":"esriFieldTypeString","alias":"ADDRESS","length":50},{"name":"OBJECTID","type":"esriFieldTypeOID","alias":"OBJECTID"}],"features":[{"attributes":{"ID":522828,"DIS_CODE":0,"TOWNNAME":"新市區","LI":"港墘里","LIN":"6鄰","STREET":"民族路","SECT":" ","MAREA":" ","LANE":" ","ALLEY":" ","HOUSE_NO":"１８２之３號","E_COORD97":178023.98000000001,"N_COORD97":2553356.7999999998,"ADDRESS":"民族路１８２之３號","OBJECTID":522801},"geometry":{"x":178023.98000000231,"y":2553356.8000000045}},{"attributes":{"ID":522829,"DIS_CODE":0,"TOWNNAME":"新市區","LI":"永就里","LIN":"6鄰","STREET":"中華路","SECT":" ","MAREA":" ","LANE":" ","ALLEY":" ","HOUSE_NO":"１９０號","E_COORD97":177807.64999999999,"N_COORD97":2551331.75,"ADDRESS":"中華路１９０號","OBJECTID":522802},"geometry":{"x":177807.6500000013,"y":2551331.75}},{"attributes":{"ID":522830,"DIS_CODE":0,"TOWNNAME":"新市區","LI":"永就里","LIN":"6鄰","STREET":"中華路","SECT":" ","MAREA":" ","LANE":" ","ALLEY":" ","HOUSE_NO":"８９號","E_COORD97":177820.16,"N_COORD97":2551508.5,"ADDRESS":"中華路８９號","OBJECTID":522803},"geometry":{"x":177820.16000000015,"y":2551508.5000000019}},{"attributes":{"ID":522831,"DIS_CODE":0,"TOWNNAME":"新市區","LI":"新市里","LIN":"6鄰","STREET":"中興街","SECT":" ","MAREA":" ","LANE":" ","ALLEY":" ","HOUSE_NO":"９９號","E_COORD97":177570.07000000001,"N_COORD97":2553098,"ADDRESS":"中興街９９號","OBJECTID":522804},"geometry":{"x":177570.0700000003,"y":2553098.0000000019}},{"attributes":{"ID":522832,"DIS_CODE":0,"TOWNNAME":"新市區","LI":"永就里","LIN":"6鄰","STREET":"中華路","SECT":" ","MAREA":" ","LANE":" ","ALLEY":" ","HOUSE_NO":"１９６號","E_COORD97":177815.48000000001,"N_COORD97":2551317.5,"ADDRESS":"中華路１９６號","OBJECTID":522805},"geometry":{"x":177815.48000000231,"y":2551317.5000000019}},{"attributes":{"ID":522833,"DIS_CODE":0,"TOWNNAME":"新市區","LI":"港墘里","LIN":"6鄰","STREET":"國際路","SECT":" ","MAREA":" ","LANE":" ","ALLEY":" ","HOUSE_NO":"１８號","E_COORD97":178045.84,"N_COORD97":2553263.5,"ADDRESS":"國際路１８號","OBJECTID":522806},"geometry":{"x":178045.83999999985,"y":2553263.5000000019}},{"attributes":{"ID":522834,"DIS_CODE":0,"TOWNNAME":"新市區","LI":"新市里","LIN":"6鄰","STREET":"中興街","SECT":" ","MAREA":" ","LANE":" ","ALLEY":" ","HOUSE_NO":"７７號","E_COORD97":177615.34,"N_COORD97":2553099.75,"ADDRESS":"中興街７７號","OBJECTID":522807},"geometry":{"x":177615.33999999985,"y":2553099.7500000019}},{"attributes":{"ID":522835,"DIS_CODE":0,"TOWNNAME":"新市區","LI":"新市里","LIN":"6鄰","STREET":"中興街","SECT":" ","MAREA":" ","LANE":" ","ALLEY":" ","HOUSE_NO":"６１號","E_COORD97":177649.29000000001,"N_COORD97":2553104.75,"ADDRESS":"中興街６１號","OBJECTID":522808},"geometry":{"x":177649.29000000097,"y":2553104.75}},{"attributes":{"ID":522836,"DIS_CODE":0,"TOWNNAME":"新市區","LI":"新市里","LIN":"6鄰","STREET":"中興街","SECT":" ","MAREA":" ","LANE":" ","ALLEY":" ","HOUSE_NO":"５９號","E_COORD97":177653.14999999999,"N_COORD97":2553105.25,"ADDRESS":"中興街５９號","OBJECTID":522809},"geometry":{"x":177653.15000000224,"y":2553105.2500000037}},{"attributes":{"ID":522837,"DIS_CODE":0,"TOWNNAME":"新市區","LI":"永就里","LIN":"6鄰","STREET":"中華路","SECT":" ","MAREA":" ","LANE":" ","ALLEY":" ","HOUSE_NO":"２５６號","E_COORD97":177900.95000000001,"N_COORD97":2551130.25,"ADDRESS":"中華路２５６號","OBJECTID":522810},"geometry":{"x":177900.95000000112,"y":2551130.2500000019}},{"attributes":{"ID":522838,"DIS_CODE":0,"TOWNNAME":"新市區","LI":"港墘里","LIN":"6鄰","STREET":"民族路","SECT":" ","MAREA":" ","LANE":" ","ALLEY":" ","HOUSE_NO":"１４１號","E_COORD97":178199.70999999999,"N_COORD97":2553478.79,"ADDRESS":"民族路１４１號","OBJECTID":522811},"geometry":{"x":178199.70999999996,"y":2553478.790000001}},{"attributes":{"ID":522839,"DIS_CODE":0,"TOWNNAME":"新市區","LI":"永就里","LIN":"6鄰","STREET":"中華路","SECT":" ","MAREA":" ","LANE":" ","ALLEY":" ","HOUSE_NO":"１８８號","E_COORD97":177805.73999999999,"N_COORD97":2551335.75,"ADDRESS":"中華路１８８號","OBJECTID":522812},"geometry":{"x":177805.74000000115,"y":2551335.7500000037}},{"attributes":{"ID":522840,"DIS_CODE":0,"TOWNNAME":"新市區","LI":"永就里","LIN":"6鄰","STREET":"中華路","SECT":" ","MAREA":" ","LANE":" ","ALLEY":" ","HOUSE_NO":"１８６號","E_COORD97":177803.98999999999,"N_COORD97":2551339.25,"ADDRESS":"中華路１８６號","OBJECTID":522813},"geometry":{"x":177803.99000000115,"y":2551339.2500000037}},{"attributes":{"ID":522841,"DIS_CODE":0,"TOWNNAME":"新市區","LI":"港墘里","LIN":"6鄰","STREET":"民族路","SECT":" ","MAREA":" ","LANE":" ","ALLEY":" ","HOUSE_NO":"１８２號","E_COORD97":178027.26999999999,"N_COORD97":2553391.79,"ADDRESS":"民族路１８２號","OBJECTID":522814},"geometry":{"x":178027.26999999955,"y":2553391.7899999991}},{"attributes":{"ID":522842,"DIS_CODE":0,"TOWNNAME":"新市區","LI":"新市里","LIN":"6鄰","STREET":"中興街","SECT":" ","MAREA":" ","LANE":" ","ALLEY":" ","HOUSE_NO":"９１號","E_COORD97":177588.14999999999,"N_COORD97":2553099,"ADDRESS":"中興街９１號","OBJECTID":522815},"geometry":{"x":177588.15000000037,"y":2553099}},{"attributes":{"ID":522843,"DIS_CODE":0,"TOWNNAME":"新市區","LI":"永就里","LIN":"6鄰","STREET":"中華路","SECT":" ","MAREA":" ","LANE":" ","ALLEY":" ","HOUSE_NO":"６９之３號","E_COORD97":177814.89999999999,"N_COORD97":2551587.5499999998,"ADDRESS":"中華路６９之３號","OBJECTID":522816},"geometry":{"x":177814.9000000013,"y":2551587.5500000007}},{"attributes":{"ID":522844,"DIS_CODE":0,"TOWNNAME":"新市區","LI":"新市里","LIN":"6鄰","STREET":"中興街","SECT":" ","MAREA":" ","LANE":" ","ALLEY":" ","HOUSE_NO":"６５號","E_COORD97":177641.04000000001,"N_COORD97":2553103.5,"ADDRESS":"中興街６５號","OBJECTID":522817},"geometry":{"x":177641.04000000004,"y":2553103.4999999981}},{"attributes":{"ID":522845,"DIS_CODE":0,"TOWNNAME":"新市區","LI":"港墘里","LIN":"6鄰","STREET":"民族路","SECT":" ","MAREA":" ","LANE":" ","ALLEY":" ","HOUSE_NO":"１３９號","E_COORD97":178232.07000000001,"N_COORD97":2553488.54,"ADDRESS":"民族路１３９號","OBJECTID":522818},"geometry":{"x":178232.07000000123,"y":2553488.5399999991}},{"attributes":{"ID":522846,"DIS_CODE":0,"TOWNNAME":"新市區","LI":"港墘里","LIN":"6鄰","STREET":"民族路","SECT":" ","MAREA":" ","LANE":" ","ALLEY":" ","HOUSE_NO":"１５６號","E_COORD97":178122.26999999999,"N_COORD97":2553451.79,"ADDRESS":"民族路１５６號","OBJECTID":522819},"geometry":{"x":178122.26999999955,"y":2553451.7899999991}},{"attributes":{"ID":522847,"DIS_CODE":0,"TOWNNAME":"新市區","LI":"新市里","LIN":"6鄰","STREET":"中興街","SECT":" ","MAREA":" ","LANE":" ","ALLEY":" ","HOUSE_NO":"８５號","E_COORD97":177598.73999999999,"N_COORD97":2553099.25,"ADDRESS":"中興街８５號","OBJECTID":522820},"geometry":{"x":177598.74000000115,"y":2553099.2500000019}},{"attributes":{"ID":522848,"DIS_CODE":0,"TOWNNAME":"新市區","LI":"新市里","LIN":"6鄰","STREET":"中興街","SECT":" ","MAREA":" ","LANE":" ","ALLEY":" ","HOUSE_NO":"８３號","E_COORD97":177602.70000000001,"N_COORD97":2553099.25,"ADDRESS":"中興街８３號","OBJECTID":522821},"geometry":{"x":177602.70000000019,"y":2553099.2500000019}},{"attributes":{"ID":522849,"DIS_CODE":0,"TOWNNAME":"新市區","LI":"新市里","LIN":"6鄰","STREET":"中興街","SECT":" ","MAREA":" ","LANE":" ","ALLEY":" ","HOUSE_NO":"９３號","E_COORD97":177583.98999999999,"N_COORD97":2553099,"ADDRESS":"中興街９３號","OBJECTID":522822},"geometry":{"x":177583.99000000022,"y":2553099}},{"attributes":{"ID":522850,"DIS_CODE":0,"TOWNNAME":"新市區","LI":"新市里","LIN":"6鄰","STREET":"中興街","SECT":" ","MAREA":" ","LANE":" ","ALLEY":" ","HOUSE_NO":"７１號","E_COORD97":177629.35000000001,"N_COORD97":2553101.5,"ADDRESS":"中興街７１號","OBJECTID":522823},"geometry":{"x":177629.35000000056,"y":2553101.5000000019}},{"attributes":{"ID":522851,"DIS_CODE":0,"TOWNNAME":"新市區","LI":"新市里","LIN":"6鄰","STREET":"中興街","SECT":" ","MAREA":" ","LANE":" ","ALLEY":" ","HOUSE_NO":"８１號","E_COORD97":177606.79000000001,"N_COORD97":2553099.25,"ADDRESS":"中興街８１號","OBJECTID":522824},"geometry":{"x":177606.79000000097,"y":2553099.2500000019}},{"attributes":{"ID":522852,"DIS_CODE":0,"TOWNNAME":"新市區","LI":"新市里","LIN":"6鄰","STREET":"中興街","SECT":" ","MAREA":" ","LANE":" ","ALLEY":" ","HOUSE_NO":"５７號","E_COORD97":177656.73999999999,"N_COORD97":2553104.25,"ADDRESS":"中興街５７號","OBJECTID":522825},"geometry":{"x":177656.74000000022,"y":2553104.25}},{"attributes":{"ID":522853,"DIS_CODE":0,"TOWNNAME":"新市區","LI":"永就里","LIN":"6鄰","STREET":"中華路","SECT":" ","MAREA":" ","LANE":" ","ALLEY":" ","HOUSE_NO":"１７６號","E_COORD97":177742.14999999999,"N_COORD97":2551470.5,"ADDRESS":"中華路１７６號","OBJECTID":522826},"geometry":{"x":177742.1500000013,"y":2551470.5000000019}},{"attributes":{"ID":522854,"DIS_CODE":0,"TOWNNAME":"新市區","LI":"永就里","LIN":"6鄰","STREET":"中華路","SECT":" ","MAREA":" ","LANE":" ","ALLEY":" ","HOUSE_NO":"７３號","E_COORD97":177743.64999999999,"N_COORD97":2551546,"ADDRESS":"中華路７３號","OBJECTID":522827},"geometry":{"x":177743.6500000013,"y":2551546}},{"attributes":{"ID":522855,"DIS_CODE":0,"TOWNNAME":"新市區","LI":"永就里","LIN":"6鄰","STREET":"中華路","SECT":" ","MAREA":" ","LANE":" ","ALLEY":" ","HOUSE_NO":"１８０之６號","E_COORD97":177779.04000000001,"N_COORD97":2551401.2999999998,"ADDRESS":"中華路１８０之６號","OBJECTID":522828},"geometry":{"x":177779.0400000019,"y":2551401.3000000026}},{"attributes":{"ID":522856,"DIS_CODE":0,"TOWNNAME":"新市區","LI":"永就里","LIN":"6鄰","STREET":"中華路","SECT":" ","MAREA":" ","LANE":" ","ALLEY":" ","HOUSE_NO":"６３號","E_COORD97":177733.76000000001,"N_COORD97":2551569.5,"ADDRESS":"中華路６３號","OBJECTID":522829},"geometry":{"x":177733.76000000071,"y":2551569.5000000019}},{"attributes":{"ID":522857,"DIS_CODE":0,"TOWNNAME":"新市區","LI":"港墘里","LIN":"6鄰","STREET":"三民街","SECT":" ","MAREA":" ","LANE":" ","ALLEY":" ","HOUSE_NO":"１３９號","E_COORD97":178242.59,"N_COORD97":2553510.54,"ADDRESS":"三民街１３９號","OBJECTID":522830},"geometry":{"x":178242.58999999985,"y":2553510.540000001}},{"attributes":{"ID":522858,"DIS_CODE":0,"TOWNNAME":"新市區","LI":"永就里","LIN":"6鄰","STREET":"中華路","SECT":" ","MAREA":" ","LANE":" ","ALLEY":" ","HOUSE_NO":"１５６號","E_COORD97":177720.35000000001,"N_COORD97":2551521.5,"ADDRESS":"中華路１５６號","OBJECTID":522831},"geometry":{"x":177720.34999999963,"y":2551521.5000000019}},{"attributes":{"ID":522859,"DIS_CODE":0,"TOWNNAME":"新市區","LI":"新市里","LIN":"6鄰","STREET":"中興街","SECT":" ","MAREA":" ","LANE":" ","ALLEY":" ","HOUSE_NO":"７９號","E_COORD97":177611.04000000001,"N_COORD97":2553099.5,"ADDRESS":"中興街７９號","OBJECTID":522832},"geometry":{"x":177611.04000000004,"y":2553099.5}},{"attributes":{"ID":522860,"DIS_CODE":0,"TOWNNAME":"新市區","LI":"新市里","LIN":"6鄰","STREET":"中興街","SECT":" ","MAREA":" ","LANE":" ","ALLEY":" ","HOUSE_NO":"１１７號","E_COORD97":177527.82000000001,"N_COORD97":2553097,"ADDRESS":"中興街１１７號","OBJECTID":522833},"geometry":{"x":177527.8200000003,"y":2553097.0000000037}},{"attributes":{"ID":522861,"DIS_CODE":0,"TOWNNAME":"新市區","LI":"港墘里","LIN":"6鄰","STREET":"國際路","SECT":" ","MAREA":" ","LANE":" ","ALLEY":" ","HOUSE_NO":"１０號","E_COORD97":178260.75,"N_COORD97":2553184.25,"ADDRESS":"國際路１０號","OBJECTID":522834},"geometry":{"x":178260.75000000186,"y":2553184.2500000019}},{"attributes":{"ID":522862,"DIS_CODE":0,"TOWNNAME":"新市區","LI":"新市里","LIN":"6鄰","STREET":"中興街","SECT":" ","MAREA":" ","LANE":" ","ALLEY":" ","HOUSE_NO":"１１３號","E_COORD97":177537.16,"N_COORD97":2553097,"ADDRESS":"中興街１１３號","OBJECTID":522835},"geometry":{"x":177537.16000000015,"y":2553097.0000000037}},{"attributes":{"ID":522863,"DIS_CODE":0,"TOWNNAME":"新市區","LI":"港墘里","LIN":"6鄰","STREET":"民族路","SECT":" ","MAREA":" ","LANE":" ","ALLEY":" ","HOUSE_NO":"１４９號","E_COORD97":178169.82000000001,"N_COORD97":2553460.79,"ADDRESS":"民族路１４９號","OBJECTID":522836},"geometry":{"x":178169.82000000123,"y":2553460.790000001}},{"attributes":{"ID":522864,"DIS_CODE":0,"TOWNNAME":"新市區","LI":"港墘里","LIN":"6鄰","STREET":"民族路","SECT":" ","MAREA":" ","LANE":" ","ALLEY":" ","HOUSE_NO":"１７８之１號","E_COORD97":178085.17999999999,"N_COORD97":2553412.2999999998,"ADDRESS":"民族路１７８之１號","OBJECTID":522837},"geometry":{"x":178085.18000000063,"y":2553412.3000000026}},{"attributes":{"ID":522865,"DIS_CODE":0,"TOWNNAME":"新市區","LI":"永就里","LIN":"6鄰","STREET":"中華路","SECT":" ","MAREA":" ","LANE":" ","ALLEY":" ","HOUSE_NO":"１８０號","E_COORD97":177757.10000000001,"N_COORD97":2551440.5,"ADDRESS":"中華路１８０號","OBJECTID":522838},"geometry":{"x":177757.09999999963,"y":2551440.5000000019}},{"attributes":{"ID":522866,"DIS_CODE":0,"TOWNNAME":"新市區","LI":"港墘里","LIN":"6鄰","STREET":"民族路","SECT":" ","MAREA":" ","LANE":" ","ALLEY":" ","HOUSE_NO":"１４４號","E_COORD97":178141.13,"N_COORD97":2553469.04,"ADDRESS":"民族路１４４號","OBJECTID":522839},"geometry":{"x":178141.13000000175,"y":2553469.040000001}},{"attributes":{"ID":522867,"DIS_CODE":0,"TOWNNAME":"新市區","LI":"永就里","LIN":"6鄰","STREET":"中華路","SECT":" ","MAREA":" ","LANE":" ","ALLEY":" ","HOUSE_NO":"４３號","E_COORD97":177573.32000000001,"N_COORD97":2551724.5,"ADDRESS":"中華路４３號","OBJECTID":522840},"geometry":{"x":177573.3200000003,"y":2551724.5000000019}},{"attributes":{"ID":522868,"DIS_CODE":0,"TOWNNAME":"新市區","LI":"永就里","LIN":"6鄰","STREET":"中華路","SECT":" ","MAREA":" ","LANE":" ","ALLEY":" ","HOUSE_NO":"６９之２號","E_COORD97":177791.39999999999,"N_COORD97":2551580.0499999998,"ADDRESS":"中華路６９之２號","OBJECTID":522841},"geometry":{"x":177791.40000000037,"y":2551580.0500000026}},{"attributes":{"ID":522869,"DIS_CODE":0,"TOWNNAME":"新市區","LI":"新市里","LIN":"6鄰","STREET":"中興街","SECT":" ","MAREA":" ","LANE":" ","ALLEY":" ","HOUSE_NO":"１１１號","E_COORD97":177541.91,"N_COORD97":2553097,"ADDRESS":"中興街１１１號","OBJECTID":522842},"geometry":{"x":177541.91000000015,"y":2553097.0000000037}},{"attributes":{"ID":522870,"DIS_CODE":0,"TOWNNAME":"新市區","LI":"永就里","LIN":"6鄰","STREET":"中華路","SECT":" ","MAREA":" ","LANE":" ","ALLEY":" ","HOUSE_NO":"５７號","E_COORD97":177724.89999999999,"N_COORD97":2551581,"ADDRESS":"中華路５７號","OBJECTID":522843},"geometry":{"x":177724.9000000013,"y":2551581}},{"attributes":{"ID":522871,"DIS_CODE":0,"TOWNNAME":"新市區","LI":"永就里","LIN":"6鄰","STREET":"中華路","SECT":" ","MAREA":" ","LANE":" ","ALLEY":" ","HOUSE_NO":"１５８號","E_COORD97":177722.04000000001,"N_COORD97":2551517.5,"ADDRESS":"中華路１５８號","OBJECTID":522844},"geometry":{"x":177722.04000000097,"y":2551517.5000000019}},{"attributes":{"ID":522872,"DIS_CODE":0,"TOWNNAME":"新市區","LI":"永就里","LIN":"6鄰","STREET":"中華路","SECT":" ","MAREA":" ","LANE":" ","ALLEY":" ","HOUSE_NO":"２０６號","E_COORD97":177823.29000000001,"N_COORD97":2551296.25,"ADDRESS":"中華路２０６號","OBJECTID":522845},"geometry":{"x":177823.29000000097,"y":2551296.2500000019}},{"attributes":{"ID":522873,"DIS_CODE":0,"TOWNNAME":"新市區","LI":"永就里","LIN":"6鄰","STREET":"中華路","SECT":" ","MAREA":" ","LANE":" ","ALLEY":" ","HOUSE_NO":"１８２之１號","E_COORD97":177781.54000000001,"N_COORD97":2551397.2999999998,"ADDRESS":"中華路１８２之１號","OBJECTID":522846},"geometry":{"x":177781.54000000097,"y":2551397.3000000045}},{"attributes":{"ID":522874,"DIS_CODE":0,"TOWNNAME":"安南區","LI":"安慶里","LIN":"6鄰","STREET":"怡安路","SECT":"一段","MAREA":" ","LANE":" ","ALLEY":" ","HOUSE_NO":"３０８號之５","E_COORD97":168882.64999999999,"N_COORD97":2549132.54,"ADDRESS":"怡安路一段３０８號之５","OBJECTID":522847},"geometry":{"x":168882.6500000013,"y":2549132.5400000028}},{"attributes":{"ID":522875,"DIS_CODE":0,"TOWNNAME":"安南區","LI":"城南里","LIN":"6鄰","STREET":"城西街","SECT":"一段","MAREA":" ","LANE":" ","ALLEY":" ","HOUSE_NO":"１８８之１號","E_COORD97":160500.45000000001,"N_COORD97":2551294.5499999998,"ADDRESS":"城西街一段１８８之１號","OBJECTID":522848},"geometry":{"x":160500.45000000019,"y":2551294.5500000026}},{"attributes":{"ID":522876,"DIS_CODE":0,"TOWNNAME":"佳里區","LI":"鎮山里","LIN":"6鄰","STREET":"中興街","SECT":" ","MAREA":" ","LANE":" ","ALLEY":" ","HOUSE_NO":"４０８號","E_COORD97":166152.17999999999,"N_COORD97":2561747.96,"ADDRESS":"中興街４０８號","OBJECTID":522849},"geometry":{"x":166152.18000000156,"y":2561747.9600000028}},{"attributes":{"ID":522877,"DIS_CODE":0,"TOWNNAME":"佳里區","LI":"鎮山里","LIN":"6鄰","STREET":"中興街","SECT":" ","MAREA":" ","LANE":" ","ALLEY":" ","HOUSE_NO":"４４０號","E_COORD97":166145.79999999999,"N_COORD97":2561786.4300000002,"ADDRESS":"中興街４４０號","OBJECTID":522850},"geometry":{"x":166145.79999999981,"y":2561786.4299999978}},{"attributes":{"ID":522878,"DIS_CODE":0,"TOWNNAME":"佳里區","LI":"鎮山里","LIN":"6鄰","STREET":"中興街","SECT":" ","MAREA":" ","LANE":" ","ALLEY":" ","HOUSE_NO":"４４８號","E_COORD97":166179.45000000001,"N_COORD97":2561784.71,"ADDRESS":"中興街４４８號","OBJECTID":522851},"geometry":{"x":166179.45000000019,"y":2561784.7100000009}},{"attributes":{"ID":522879,"DIS_CODE":0,"TOWNNAME":"佳里區","LI":"六安里","LIN":"6鄰","STREET":"六安街","SECT":" ","MAREA":" ","LANE":" ","ALLEY":" ","HOUSE_NO":"４１號","E_COORD97":166135.97,"N_COORD97":2562888.2000000002,"ADDRESS":"六安街４１號","OBJECTID":522852},"geometry":{"x":166135.96999999974,"y":2562888.1999999993}},{"attributes":{"ID":522880,"DIS_CODE":0,"TOWNNAME":"佳里區","LI":"六安里","LIN":"6鄰","STREET":"六安街","SECT":" ","MAREA":" ","LANE":" ","ALLEY":" ","HOUSE_NO":"４３號","E_COORD97":166153.29999999999,"N_COORD97":2562890.7200000002,"ADDRESS":"六安街４３號","OBJECTID":522853},"geometry":{"x":166153.30000000075,"y":2562890.7199999988}},{"attributes":{"ID":522881,"DIS_CODE":0,"TOWNNAME":"佳里區","LI":"鎮山里","LIN":"6鄰","STREET":"平等街","SECT":" ","MAREA":" ","LANE":" ","ALLEY":" ","HOUSE_NO":"１１號","E_COORD97":166151.72,"N_COORD97":2561923.0299999998,"ADDRESS":"平等街１１號","OBJECTID":522854},"geometry":{"x":166151.71999999974,"y":2561923.0299999993}},{"attributes":{"ID":522882,"DIS_CODE":0,"TOWNNAME":"佳里區","LI":"忠仁里","LIN":"6鄰","STREET":"平等街","SECT":" ","MAREA":" ","LANE":" ","ALLEY":" ","HOUSE_NO":"１５６號","E_COORD97":165801.75,"N_COORD97":2561897.5099999998,"ADDRESS":"平等街１５６號","OBJECTID":522855},"geometry":{"x":165801.75000000093,"y":2561897.5099999998}},{"attributes":{"ID":522883,"DIS_CODE":0,"TOWNNAME":"永康區","LI":"永康里","LIN":"6鄰","STREET":"中山南路","SECT":" ","MAREA":" ","LANE":" ","ALLEY":" ","HOUSE_NO":"６４７號","E_COORD97":173808.62,"N_COORD97":2547354.3700000001,"ADDRESS":"中山南路６４７號","OBJECTID":522856},"geometry":{"x":173808.62000000104,"y":2547354.370000001}},{"attributes":{"ID":522884,"DIS_CODE":0,"TOWNNAME":"永康區","LI":"復興里","LIN":"6鄰","STREET":"復興路","SECT":" ","MAREA":" ","LANE":" ","ALLEY":" ","HOUSE_NO":"３８５號","E_COORD97":172134.72,"N_COORD97":2544311,"ADDRESS":"復興路３８５號","OBJECTID":522857},"geometry":{"x":172134.72000000067,"y":2544311}},{"attributes":{"ID":522885,"DIS_CODE":0,"TOWNNAME":"永康區","LI":"龍潭里","LIN":"6鄰","STREET":"龍潭街","SECT":" ","MAREA":" ","LANE":" ","ALLEY":" ","HOUSE_NO":"２００號","E_COORD97":174903.20999999999,"N_COORD97":2548226.8700000001,"ADDRESS":"龍潭街２００號","OBJECTID":522858},"geometry":{"x":174903.21000000089,"y":2548226.8700000048}},{"attributes":{"ID":522886,"DIS_CODE":0,"TOWNNAME":"永康區","LI":"永康里","LIN":"6鄰","STREET":"中山南路","SECT":" ","MAREA":" ","LANE":" ","ALLEY":" ","HOUSE_NO":"１０９６號","E_COORD97":173819.16,"N_COORD97":2547330.2400000002,"ADDRESS":"中山南路１０９６號","OBJECTID":522859},"geometry":{"x":173819.16000000108,"y":2547330.2400000002}},{"attributes":{"ID":522887,"DIS_CODE":0,"TOWNNAME":"佳里區","LI":"安西里","LIN":"6鄰","STREET":"光復路","SECT":" ","MAREA":" ","LANE":" ","ALLEY":" ","HOUSE_NO":"２５０號","E_COORD97":165518.53,"N_COORD97":2562497.1800000002,"ADDRESS":"光復路２５０號","OBJECTID":522860},"geometry":{"x":165518.53000000119,"y":2562497.1800000016}},{"attributes":{"ID":522888,"DIS_CODE":0,"TOWNNAME":"佳里區","LI":"安西里","LIN":"6鄰","STREET":"光復路","SECT":" ","MAREA":" ","LANE":" ","ALLEY":" ","HOUSE_NO":"２５２號","E_COORD97":165518.57999999999,"N_COORD97":2562501.9100000001,"ADDRESS":"光復路２５２號","OBJECTID":522861},"geometry":{"x":165518.58000000007,"y":2562501.9100000001}},{"attributes":{"ID":522889,"DIS_CODE":0,"TOWNNAME":"佳里區","LI":"安西里","LIN":"6鄰","STREET":"光復路","SECT":" ","MAREA":" ","LANE":" ","ALLEY":" ","HOUSE_NO":"２５４號","E_COORD97":165518.60000000001,"N_COORD97":2562506.3100000001,"ADDRESS":"光復路２５４號","OBJECTID":522862},"geometry":{"x":165518.60000000149,"y":2562506.3100000005}},{"attributes":{"ID":522890,"DIS_CODE":0,"TOWNNAME":"佳里區","LI":"安西里","LIN":"6鄰","STREET":"光復路","SECT":" ","MAREA":" ","LANE":" ","ALLEY":" ","HOUSE_NO":"２５６號","E_COORD97":165519.09,"N_COORD97":2562511.0600000001,"ADDRESS":"光復路２５６號","OBJECTID":522863},"geometry":{"x":165519.09000000078,"y":2562511.0600000005}},{"attributes":{"ID":522891,"DIS_CODE":0,"TOWNNAME":"佳里區","LI":"安西里","LIN":"6鄰","STREET":"光復路","SECT":" ","MAREA":" ","LANE":" ","ALLEY":" ","HOUSE_NO":"２５８號","E_COORD97":165519.10999999999,"N_COORD97":2562516.02,"ADDRESS":"光復路２５８號","OBJECTID":522864},"geometry":{"x":165519.11000000034,"y":2562516.0200000014}},{"attributes":{"ID":522892,"DIS_CODE":0,"TOWNNAME":"佳里區","LI":"安西里","LIN":"6鄰","STREET":"光復路","SECT":" ","MAREA":" ","LANE":" ","ALLEY":" ","HOUSE_NO":"２６２號","E_COORD97":165518.92999999999,"N_COORD97":2562524.3199999998,"ADDRESS":"光復路２６２號","OBJECTID":522865},"geometry":{"x":165518.93000000063,"y":2562524.3200000022}},{"attributes":{"ID":522893,"DIS_CODE":0,"TOWNNAME":"佳里區","LI":"安西里","LIN":"6鄰","STREET":"光復路","SECT":" ","MAREA":" ","LANE":" ","ALLEY":" ","HOUSE_NO":"２６４號","E_COORD97":165518.91,"N_COORD97":2562528.6800000002,"ADDRESS":"光復路２６４號","OBJECTID":522866},"geometry":{"x":165518.91000000108,"y":2562528.6800000016}},{"attributes":{"ID":522894,"DIS_CODE":0,"TOWNNAME":"佳里區","LI":"安西里","LIN":"6鄰","STREET":"光復路","SECT":" ","MAREA":" ","LANE":" ","ALLEY":" ","HOUSE_NO":"２６６號","E_COORD97":165519.07000000001,"N_COORD97":2562533.3700000001,"ADDRESS":"光復路２６６號","OBJECTID":522867},"geometry":{"x":165519.0700000003,"y":2562533.370000001}},{"attributes":{"ID":522895,"DIS_CODE":0,"TOWNNAME":"佳里區","LI":"安西里","LIN":"6鄰","STREET":"光復路","SECT":" ","MAREA":" ","LANE":" ","ALLEY":" ","HOUSE_NO":"２６８號","E_COORD97":165519.04999999999,"N_COORD97":2562537.9700000002,"ADDRESS":"光復路２６８號","OBJECTID":522868},"geometry":{"x":165519.05000000168,"y":2562537.9700000025}},{"attributes":{"ID":522896,"DIS_CODE":0,"TOWNNAME":"佳里區","LI":"安西里","LIN":"6鄰","STREET":"光復路","SECT":" ","MAREA":" ","LANE":" ","ALLEY":" ","HOUSE_NO":"２７０號","E_COORD97":165518.98999999999,"N_COORD97":2562542.4199999999,"ADDRESS":"光復路２７０號","OBJECTID":522869},"geometry":{"x":165518.99000000115,"y":2562542.4199999999}},{"attributes":{"ID":522897,"DIS_CODE":0,"TOWNNAME":"佳里區","LI":"安西里","LIN":"6鄰","STREET":"光復路","SECT":" ","MAREA":" ","LANE":" ","ALLEY":" ","HOUSE_NO":"２７２號","E_COORD97":165519.31,"N_COORD97":2562546.9700000002,"ADDRESS":"光復路２７２號","OBJECTID":522870},"geometry":{"x":165519.31000000052,"y":2562546.9700000044}},{"attributes":{"ID":522898,"DIS_CODE":0,"TOWNNAME":"佳里區","LI":"安西里","LIN":"6鄰","STREET":"光復路","SECT":" ","MAREA":" ","LANE":" ","ALLEY":" ","HOUSE_NO":"２７４號","E_COORD97":165518.92000000001,"N_COORD97":2562551.6699999999,"ADDRESS":"光復路２７４號","OBJECTID":522871},"geometry":{"x":165518.92000000086,"y":2562551.6700000037}},{"attributes":{"ID":522899,"DIS_CODE":0,"TOWNNAME":"佳里區","LI":"安西里","LIN":"6鄰","STREET":"光復路","SECT":" ","MAREA":" ","LANE":" ","ALLEY":" ","HOUSE_NO":"２７６號","E_COORD97":165519.35999999999,"N_COORD97":2562556.04,"ADDRESS":"光復路２７６號","OBJECTID":522872},"geometry":{"x":165519.3600000022,"y":2562556.040000001}},{"attributes":{"ID":522900,"DIS_CODE":0,"TOWNNAME":"佳里區","LI":"安西里","LIN":"6鄰","STREET":"光復路","SECT":" ","MAREA":" ","LANE":" ","ALLEY":" ","HOUSE_NO":"２７８號","E_COORD97":165517.73999999999,"N_COORD97":2562563.6899999999,"ADDRESS":"光復路２７８號","OBJECTID":522873},"geometry":{"x":165517.74000000022,"y":2562563.6899999995}},{"attributes":{"ID":522901,"DIS_CODE":0,"TOWNNAME":"新市區","LI":"新市里","LIN":" ","STREET":"復興路","SECT":" ","MAREA":" ","LANE":" ","ALLEY":" ","HOUSE_NO":"５號","E_COORD97":177805.26999999999,"N_COORD97":2553306.8100000001,"ADDRESS":"復興路５號","OBJECTID":522874},"geometry":{"x":177805.26999999955,"y":2553306.8100000024}},{"attributes":{"ID":522902,"DIS_CODE":0,"TOWNNAME":"東區","LI":"德光里","LIN":"17鄰","STREET":"崇善路","SECT":" ","MAREA":" ","LANE":" ","ALLEY":" ","HOUSE_NO":"４８號","E_COORD97":170236.09,"N_COORD97":2542426.3100000001,"ADDRESS":"崇善路４８號","OBJECTID":522875},"geometry":{"x":170236.08999999985,"y":2542426.3100000024}},{"attributes":{"ID":522903,"DIS_CODE":0,"TOWNNAME":"東區","LI":"德光里","LIN":"5鄰","STREET":"崇明六街","SECT":" ","MAREA":" ","LANE":" ","ALLEY":" ","HOUSE_NO":"７７號","E_COORD97":169853.79999999999,"N_COORD97":2542275.7000000002,"ADDRESS":"崇明六街７７號","OBJECTID":522876},"geometry":{"x":169853.80000000168,"y":2542275.6999999993}},{"attributes":{"ID":522904,"DIS_CODE":0,"TOWNNAME":"東區","LI":"德光里","LIN":"17鄰","STREET":"崇善路","SECT":" ","MAREA":" ","LANE":" ","ALLEY":" ","HOUSE_NO":"５０號","E_COORD97":170239.51000000001,"N_COORD97":2542423.3199999998,"ADDRESS":"崇善路５０號","OBJECTID":522877},"geometry":{"x":170239.51000000071,"y":2542423.3200000022}},{"attributes":{"ID":522905,"DIS_CODE":0,"TOWNNAME":"安南區","LI":"佃東里","LIN":"6鄰","STREET":"安吉路","SECT":"三段","MAREA":" ","LANE":" ","ALLEY":" ","HOUSE_NO":"５３１號","E_COORD97":167385.32999999999,"N_COORD97":2553181.5600000001,"ADDRESS":"安吉路三段５３１號","OBJECTID":522878},"geometry":{"x":167385.33000000007,"y":2553181.5599999987}},{"attributes":{"ID":522906,"DIS_CODE":0,"TOWNNAME":"安南區","LI":"佃東里","LIN":"6鄰","STREET":"安吉路","SECT":"三段","MAREA":" ","LANE":" ","ALLEY":" ","HOUSE_NO":"５３５號","E_COORD97":167416.39000000001,"N_COORD97":2553248.23,"ADDRESS":"安吉路三段５３５號","OBJECTID":522879},"geometry":{"x":167416.38999999966,"y":2553248.2299999986}},{"attributes":{"ID":522907,"DIS_CODE":0,"TOWNNAME":"新市區","LI":"永就里","LIN":"6鄰","STREET":"中華路","SECT":" ","MAREA":" ","LANE":" ","ALLEY":" ","HOUSE_NO":"１８０之５號","E_COORD97":177777.35000000001,"N_COORD97":2551405.2999999998,"ADDRESS":"中華路１８０之５號","OBJECTID":522880},"geometry":{"x":177777.34999999963,"y":2551405.3000000026}},{"attributes":{"ID":522908,"DIS_CODE":0,"TOWNNAME":"新市區","LI":"永就里","LIN":"6鄰","STREET":"中華路","SECT":" ","MAREA":" ","LANE":" ","ALLEY":" ","HOUSE_NO":"１８２之３號","E_COORD97":177788.10000000001,"N_COORD97":2551377.2999999998,"ADDRESS":"中華路１８２之３號","OBJECTID":522881},"geometry":{"x":177788.09999999963,"y":2551377.3000000026}},{"attributes":{"ID":522909,"DIS_CODE":0,"TOWNNAME":"新市區","LI":"新市里","LIN":"6鄰","STREET":"中興街","SECT":" ","MAREA":" ","LANE":" ","ALLEY":" ","HOUSE_NO":"７５號","E_COORD97":177619.70000000001,"N_COORD97":2553100,"ADDRESS":"中興街７５號","OBJECTID":522882},"geometry":{"x":177619.70000000019,"y":2553100}},{"attributes":{"ID":522910,"DIS_CODE":0,"TOWNNAME":"新市區","LI":"永就里","LIN":"6鄰","STREET":"中華路","SECT":" ","MAREA":" ","LANE":" ","ALLEY":" ","HOUSE_NO":"１３４號","E_COORD97":177704.20000000001,"N_COORD97":2551558.5,"ADDRESS":"中華路１３４號","OBJECTID":522883},"geometry":{"x":177704.20000000112,"y":2551558.5000000019}},{"attributes":{"ID":522911,"DIS_CODE":0,"TOWNNAME":"新市區","LI":"新市里","LIN":"6鄰","STREET":"中興街","SECT":" ","MAREA":" ","LANE":" ","ALLEY":" ","HOUSE_NO":"６９號","E_COORD97":177633.48999999999,"N_COORD97":2553102,"ADDRESS":"中興街６９號","OBJECTID":522884},"geometry":{"x":177633.49000000022,"y":2553102}},{"attributes":{"ID":522912,"DIS_CODE":0,"TOWNNAME":"新市區","LI":"新市里","LIN":"6鄰","STREET":"中興街","SECT":" ","MAREA":" ","LANE":" ","ALLEY":" ","HOUSE_NO":"１０５號","E_COORD97":177556.12,"N_COORD97":2553097.5,"ADDRESS":"中興街１０５號","OBJECTID":522885},"geometry":{"x":177556.12000000011,"y":2553097.5000000019}},{"attributes":{"ID":522913,"DIS_CODE":0,"TOWNNAME":"新市區","LI":"新市里","LIN":"6鄰","STREET":"中興街","SECT":" ","MAREA":" ","LANE":" ","ALLEY":" ","HOUSE_NO":"８７號","E_COORD97":177596.14999999999,"N_COORD97":2553097.25,"ADDRESS":"中興街８７號","OBJECTID":522886},"geometry":{"x":177596.1500000013,"y":2553097.25}},{"attributes":{"ID":522914,"DIS_CODE":0,"TOWNNAME":"新市區","LI":"永就里","LIN":"6鄰","STREET":"中華路","SECT":" ","MAREA":" ","LANE":" ","ALLEY":" ","HOUSE_NO":"２２２號","E_COORD97":177849.79000000001,"N_COORD97":2551229,"ADDRESS":"中華路２２２號","OBJECTID":522887},"geometry":{"x":177849.79000000004,"y":2551229.0000000037}},{"attributes":{"ID":522915,"DIS_CODE":0,"TOWNNAME":"新市區","LI":"永就里","LIN":"6鄰","STREET":"中華路","SECT":" ","MAREA":" ","LANE":" ","ALLEY":" ","HOUSE_NO":"７５號","E_COORD97":177745.63,"N_COORD97":2551541.75,"ADDRESS":"中華路７５號","OBJECTID":522888},"geometry":{"x":177745.62999999989,"y":2551541.75}},{"attributes":{"ID":522916,"DIS_CODE":0,"TOWNNAME":"新市區","LI":"港墘里","LIN":"6鄰","STREET":"國際路","SECT":" ","MAREA":" ","LANE":" ","ALLEY":" ","HOUSE_NO":"５之１號","E_COORD97":178364.81,"N_COORD97":2553114.2999999998,"ADDRESS":"國際路５之１號","OBJECTID":522889},"geometry":{"x":178364.80999999959,"y":2553114.3000000026}},{"attributes":{"ID":522917,"DIS_CODE":0,"TOWNNAME":"中西區","LI":"民主里","LIN":"6鄰","STREET":"府前路","SECT":"二段","MAREA":" ","LANE":" ","ALLEY":" ","HOUSE_NO":"１６１號","E_COORD97":167322.66,"N_COORD97":2543539.4500000002,"ADDRESS":"府前路二段１６１號","OBJECTID":522890},"geometry":{"x":167322.66000000108,"y":2543539.4500000011}},{"attributes":{"ID":522918,"DIS_CODE":0,"TOWNNAME":"中西區","LI":"民主里","LIN":"6鄰","STREET":"府前路","SECT":"二段","MAREA":" ","LANE":" ","ALLEY":" ","HOUSE_NO":"１６３號","E_COORD97":167318.16,"N_COORD97":2543539.98,"ADDRESS":"府前路二段１６３號","OBJECTID":522891},"geometry":{"x":167318.16000000108,"y":2543539.9800000042}},{"attributes":{"ID":522919,"DIS_CODE":0,"TOWNNAME":"中西區","LI":"民主里","LIN":"6鄰","STREET":"保安路","SECT":" ","MAREA":" ","LANE":" ","ALLEY":" ","HOUSE_NO":"１４８號","E_COORD97":167359.59,"N_COORD97":2543506,"ADDRESS":"保安路１４８號","OBJECTID":522892},"geometry":{"x":167359.58999999985,"y":2543506.0000000019}},{"attributes":{"ID":522920,"DIS_CODE":0,"TOWNNAME":"中西區","LI":"民主里","LIN":"6鄰","STREET":"保安路","SECT":" ","MAREA":" ","LANE":" ","ALLEY":" ","HOUSE_NO":"１５０號","E_COORD97":167355.35999999999,"N_COORD97":2543506.2599999998,"ADDRESS":"保安路１５０號","OBJECTID":522893},"geometry":{"x":167355.36000000127,"y":2543506.2599999998}},{"attributes":{"ID":522921,"DIS_CODE":0,"TOWNNAME":"中西區","LI":"民主里","LIN":"6鄰","STREET":"保安路","SECT":" ","MAREA":" ","LANE":" ","ALLEY":" ","HOUSE_NO":"１５２號","E_COORD97":167351.51999999999,"N_COORD97":2543510.0899999999,"ADDRESS":"保安路１５２號","OBJECTID":522894},"geometry":{"x":167351.52000000142,"y":2543510.0899999999}},{"attributes":{"ID":522922,"DIS_CODE":0,"TOWNNAME":"中西區","LI":"民主里","LIN":"6鄰","STREET":"保安路","SECT":" ","MAREA":" ","LANE":" ","ALLEY":" ","HOUSE_NO":"１５４號","E_COORD97":167345.42999999999,"N_COORD97":2543510.8900000001,"ADDRESS":"保安路１５４號","OBJECTID":522895},"geometry":{"x":167345.42999999877,"y":2543510.8900000025}},{"attributes":{"ID":522923,"DIS_CODE":0,"TOWNNAME":"中西區","LI":"民主里","LIN":"6鄰","STREET":"保安路","SECT":" ","MAREA":" ","LANE":" ","ALLEY":" ","HOUSE_NO":"１５６號","E_COORD97":167339.75,"N_COORD97":2543511.02,"ADDRESS":"保安路１５６號","OBJECTID":522896},"geometry":{"x":167339.75,"y":2543511.0199999996}},{"attributes":{"ID":522924,"DIS_CODE":0,"TOWNNAME":"中西區","LI":"民主里","LIN":"6鄰","STREET":"保安路","SECT":" ","MAREA":" ","LANE":" ","ALLEY":" ","HOUSE_NO":"１５８號","E_COORD97":167335.64000000001,"N_COORD97":2543511.9399999999,"ADDRESS":"保安路１５８號","OBJECTID":522897},"geometry":{"x":167335.64000000153,"y":2543511.9399999976}},{"attributes":{"ID":522925,"DIS_CODE":0,"TOWNNAME":"中西區","LI":"民主里","LIN":"6鄰","STREET":"保安路","SECT":" ","MAREA":" ","LANE":" ","ALLEY":" ","HOUSE_NO":"１６２號","E_COORD97":167324.26999999999,"N_COORD97":2543513,"ADDRESS":"保安路１６２號","OBJECTID":522898},"geometry":{"x":167324.26999999955,"y":2543513.0000000019}},{"attributes":{"ID":522926,"DIS_CODE":0,"TOWNNAME":"中西區","LI":"民主里","LIN":"6鄰","STREET":"保安路","SECT":" ","MAREA":" ","LANE":" ","ALLEY":" ","HOUSE_NO":"１６４號","E_COORD97":167321.22,"N_COORD97":2543513.6600000001,"ADDRESS":"保安路１６４號","OBJECTID":522899},"geometry":{"x":167321.21999999974,"y":2543513.6600000001}},{"attributes":{"ID":522927,"DIS_CODE":0,"TOWNNAME":"中西區","LI":"民主里","LIN":"6鄰","STREET":"保安路","SECT":" ","MAREA":" ","LANE":" ","ALLEY":" ","HOUSE_NO":"１６６號","E_COORD97":167315.92999999999,"N_COORD97":2543512.8700000001,"ADDRESS":"保安路１６６號","OBJECTID":522900},"geometry":{"x":167315.9299999997,"y":2543512.870000001}},{"attributes":{"ID":522928,"DIS_CODE":0,"TOWNNAME":"中西區","LI":"民主里","LIN":"6鄰","STREET":"康樂街","SECT":" ","MAREA":" ","LANE":" ","ALLEY":" ","HOUSE_NO":"２５號","E_COORD97":167363.76999999999,"N_COORD97":2543503.6899999999,"ADDRESS":"康樂街２５號","OBJECTID":522901},"geometry":{"x":167363.77000000048,"y":2543503.6900000032}},{"attributes":{"ID":522929,"DIS_CODE":0,"TOWNNAME":"中西區","LI":"民主里","LIN":"6鄰","STREET":"康樂街","SECT":" ","MAREA":" ","LANE":" ","ALLEY":" ","HOUSE_NO":"２７號","E_COORD97":167362.78,"N_COORD97":2543510.0299999998,"ADDRESS":"康樂街２７號","OBJECTID":522902},"geometry":{"x":167362.78000000119,"y":2543510.0299999993}},{"attributes":{"ID":522930,"DIS_CODE":0,"TOWNNAME":"中西區","LI":"民主里","LIN":"6鄰","STREET":"康樂街","SECT":" ","MAREA":" ","LANE":" ","ALLEY":" ","HOUSE_NO":"２９號","E_COORD97":167363.22,"N_COORD97":2543514.29,"ADDRESS":"康樂街２９號","OBJECTID":522903},"geometry":{"x":167363.21999999974,"y":2543514.290000001}},{"attributes":{"ID":522931,"DIS_CODE":0,"TOWNNAME":"中西區","LI":"民主里","LIN":"6鄰","STREET":"康樂街","SECT":" ","MAREA":" ","LANE":" ","ALLEY":" ","HOUSE_NO":"３１號","E_COORD97":167364.53,"N_COORD97":2543517.8900000001,"ADDRESS":"康樂街３１號","OBJECTID":522904},"geometry":{"x":167364.53000000119,"y":2543517.8900000025}},{"attributes":{"ID":522932,"DIS_CODE":0,"TOWNNAME":"中西區","LI":"安海里","LIN":"6鄰","STREET":"康樂街","SECT":" ","MAREA":" ","LANE":" ","ALLEY":" ","HOUSE_NO":"１９３號","E_COORD97":167445.56,"N_COORD97":2543898.1000000001,"ADDRESS":"康樂街１９３號","OBJECTID":522905},"geometry":{"x":167445.55999999959,"y":2543898.1000000015}},{"attributes":{"ID":522933,"DIS_CODE":0,"TOWNNAME":"中西區","LI":"安海里","LIN":"6鄰","STREET":"康樂街","SECT":" ","MAREA":" ","LANE":" ","ALLEY":" ","HOUSE_NO":"１９５號","E_COORD97":167446.45000000001,"N_COORD97":2543903.8100000001,"ADDRESS":"康樂街１９５號","OBJECTID":522906},"geometry":{"x":167446.45000000112,"y":2543903.8099999987}},{"attributes":{"ID":522934,"DIS_CODE":0,"TOWNNAME":"中西區","LI":"安海里","LIN":"6鄰","STREET":"康樂街","SECT":" ","MAREA":" ","LANE":" ","ALLEY":" ","HOUSE_NO":"１９７號","E_COORD97":167448.06,"N_COORD97":2543909.5299999998,"ADDRESS":"康樂街１９７號","OBJECTID":522907},"geometry":{"x":167448.06000000145,"y":2543909.5300000012}},{"attributes":{"ID":522935,"DIS_CODE":0,"TOWNNAME":"中西區","LI":"安海里","LIN":"6鄰","STREET":"康樂街","SECT":" ","MAREA":" ","LANE":" ","ALLEY":" ","HOUSE_NO":"２２３號","E_COORD97":167448.76999999999,"N_COORD97":2543937.0099999998,"ADDRESS":"康樂街２２３號","OBJECTID":522908},"geometry":{"x":167448.77000000048,"y":2543937.0100000016}},{"attributes":{"ID":522936,"DIS_CODE":0,"TOWNNAME":"中西區","LI":"三合里","LIN":"6鄰","STREET":"信義街","SECT":" ","MAREA":" ","LANE":" ","ALLEY":" ","HOUSE_NO":"２１號","E_COORD97":167589.10999999999,"N_COORD97":2544463.0600000001,"ADDRESS":"信義街２１號","OBJECTID":522909},"geometry":{"x":167589.1100000022,"y":2544463.0600000024}},{"attributes":{"ID":522937,"DIS_CODE":0,"TOWNNAME":"中西區","LI":"三合里","LIN":"6鄰","STREET":"信義街","SECT":" ","MAREA":" ","LANE":" ","ALLEY":" ","HOUSE_NO":"２３號","E_COORD97":167586.04000000001,"N_COORD97":2544464.5099999998,"ADDRESS":"信義街２３號","OBJECTID":522910},"geometry":{"x":167586.04000000097,"y":2544464.5099999979}},{"attributes":{"ID":522938,"DIS_CODE":0,"TOWNNAME":"中西區","LI":"三合里","LIN":"6鄰","STREET":"信義街","SECT":" ","MAREA":" ","LANE":" ","ALLEY":" ","HOUSE_NO":"２５號","E_COORD97":167584.26999999999,"N_COORD97":2544465.6400000001,"ADDRESS":"信義街２５號","OBJECTID":522911},"geometry":{"x":167584.27000000048,"y":2544465.6400000025}},{"attributes":{"ID":522939,"DIS_CODE":0,"TOWNNAME":"中西區","LI":"三合里","LIN":"6鄰","STREET":"信義街","SECT":" ","MAREA":" ","LANE":" ","ALLEY":" ","HOUSE_NO":"２７號","E_COORD97":167582.32999999999,"N_COORD97":2544467.8900000001,"ADDRESS":"信義街２７號","OBJECTID":522912},"geometry":{"x":167582.33000000194,"y":2544467.8900000025}},{"attributes":{"ID":522940,"DIS_CODE":0,"TOWNNAME":"中西區","LI":"三合里","LIN":"6鄰","STREET":"信義街","SECT":" ","MAREA":" ","LANE":" ","ALLEY":" ","HOUSE_NO":"２９號","E_COORD97":167578.79000000001,"N_COORD97":2544469.8300000001,"ADDRESS":"信義街２９號","OBJECTID":522913},"geometry":{"x":167578.79000000004,"y":2544469.8300000038}},{"attributes":{"ID":522941,"DIS_CODE":0,"TOWNNAME":"中西區","LI":"三合里","LIN":"6鄰","STREET":"信義街","SECT":" ","MAREA":" ","LANE":" ","ALLEY":" ","HOUSE_NO":"３１號","E_COORD97":167557.98000000001,"N_COORD97":2544482.0699999998,"ADDRESS":"信義街３１號","OBJECTID":522914},"geometry":{"x":167557.98000000231,"y":2544482.0700000022}},{"attributes":{"ID":522942,"DIS_CODE":0,"TOWNNAME":"中西區","LI":"三合里","LIN":"6鄰","STREET":"信義街","SECT":" ","MAREA":" ","LANE":" ","ALLEY":" ","HOUSE_NO":"１１號","E_COORD97":167618.14000000001,"N_COORD97":2544448.23,"ADDRESS":"信義街１１號","OBJECTID":522915},"geometry":{"x":167618.13999999966,"y":2544448.2300000023}},{"attributes":{"ID":522943,"DIS_CODE":0,"TOWNNAME":"中西區","LI":"三合里","LIN":"6鄰","STREET":"信義街","SECT":" ","MAREA":" ","LANE":" ","ALLEY":" ","HOUSE_NO":"１３號","E_COORD97":167614.75,"N_COORD97":2544452.4199999999,"ADDRESS":"信義街１３號","OBJECTID":522916},"geometry":{"x":167614.75,"y":2544452.4200000018}},{"attributes":{"ID":522944,"DIS_CODE":0,"TOWNNAME":"中西區","LI":"三合里","LIN":"6鄰","STREET":"信義街","SECT":" ","MAREA":" ","LANE":" ","ALLEY":" ","HOUSE_NO":"１５號","E_COORD97":167610.23999999999,"N_COORD97":2544453.0699999998,"ADDRESS":"信義街１５號","OBJECTID":522917},"geometry":{"x":167610.24000000209,"y":2544453.0700000003}},{"attributes":{"ID":522945,"DIS_CODE":0,"TOWNNAME":"中西區","LI":"三合里","LIN":"6鄰","STREET":"信義街","SECT":" ","MAREA":" ","LANE":" ","ALLEY":" ","HOUSE_NO":"１７號","E_COORD97":167605.56,"N_COORD97":2544453.8700000001,"ADDRESS":"信義街１７號","OBJECTID":522918},"geometry":{"x":167605.56000000145,"y":2544453.8700000029}},{"attributes":{"ID":522946,"DIS_CODE":0,"TOWNNAME":"中西區","LI":"三合里","LIN":"6鄰","STREET":"信義街","SECT":" ","MAREA":" ","LANE":" ","ALLEY":" ","HOUSE_NO":"１９號","E_COORD97":167603.14000000001,"N_COORD97":2544455.3199999998,"ADDRESS":"信義街１９號","OBJECTID":522919},"geometry":{"x":167603.13999999966,"y":2544455.3200000003}},{"attributes":{"ID":522947,"DIS_CODE":0,"TOWNNAME":"中西區","LI":"三合里","LIN":"6鄰","STREET":"信義街","SECT":" ","MAREA":" ","LANE":" ","ALLEY":" ","HOUSE_NO":"１號","E_COORD97":167635.32000000001,"N_COORD97":2544438.8399999999,"ADDRESS":"信義街１號","OBJECTID":522920},"geometry":{"x":167635.32000000123,"y":2544438.8400000036}},{"attributes":{"ID":522948,"DIS_CODE":0,"TOWNNAME":"中西區","LI":"三合里","LIN":"6鄰","STREET":"信義街","SECT":" ","MAREA":" ","LANE":" ","ALLEY":" ","HOUSE_NO":"３號","E_COORD97":167632.92000000001,"N_COORD97":2544440.3900000001,"ADDRESS":"信義街３號","OBJECTID":522921},"geometry":{"x":167632.92000000086,"y":2544440.3900000025}},{"attributes":{"ID":522949,"DIS_CODE":0,"TOWNNAME":"中西區","LI":"三合里","LIN":"6鄰","STREET":"信義街","SECT":" ","MAREA":" ","LANE":" ","ALLEY":" ","HOUSE_NO":"５號","E_COORD97":167629.17999999999,"N_COORD97":2544441.8999999999,"ADDRESS":"信義街５號","OBJECTID":522922},"geometry":{"x":167629.18000000063,"y":2544441.9000000004}},{"attributes":{"ID":522950,"DIS_CODE":0,"TOWNNAME":"中西區","LI":"三合里","LIN":"6鄰","STREET":"信義街","SECT":" ","MAREA":" ","LANE":" ","ALLEY":" ","HOUSE_NO":"７號","E_COORD97":167625.29999999999,"N_COORD97":2544444.0299999998,"ADDRESS":"信義街７號","OBJECTID":522923},"geometry":{"x":167625.30000000075,"y":2544444.0300000012}},{"attributes":{"ID":522951,"DIS_CODE":0,"TOWNNAME":"中西區","LI":"三合里","LIN":"6鄰","STREET":"信義街","SECT":" ","MAREA":" ","LANE":" ","ALLEY":" ","HOUSE_NO":"９號","E_COORD97":167621.04000000001,"N_COORD97":2544445.6499999999,"ADDRESS":"信義街９號","OBJECTID":522924},"geometry":{"x":167621.04000000004,"y":2544445.6500000022}},{"attributes":{"ID":522952,"DIS_CODE":0,"TOWNNAME":"麻豆區","LI":"保安里","LIN":"6鄰","STREET":"興中路","SECT":" ","MAREA":" ","LANE":" ","ALLEY":" ","HOUSE_NO":"１０１號","E_COORD97":173288.29999999999,"N_COORD97":2564830.9100000001,"ADDRESS":"興中路１０１號","OBJECTID":522925},"geometry":{"x":173288.30000000168,"y":2564830.9100000001}},{"attributes":{"ID":522953,"DIS_CODE":0,"TOWNNAME":"東區","LI":"裕聖里","LIN":"6鄰","STREET":"裕孝一街","SECT":" ","MAREA":" ","LANE":" ","ALLEY":" ","HOUSE_NO":"３１號","E_COORD97":172521.51000000001,"N_COORD97":2542203.8599999999,"ADDRESS":"裕孝一街３１號","OBJECTID":522926},"geometry":{"x":172521.50999999978,"y":2542203.8600000031}},{"attributes":{"ID":522954,"DIS_CODE":0,"TOWNNAME":"東區","LI":"裕聖里","LIN":"6鄰","STREET":"裕孝二街","SECT":" ","MAREA":" ","LANE":" ","ALLEY":" ","HOUSE_NO":"２２號","E_COORD97":172488,"N_COORD97":2542121.4900000002,"ADDRESS":"裕孝二街２２號","OBJECTID":522927},"geometry":{"x":172488,"y":2542121.4900000002}},{"attributes":{"ID":522955,"DIS_CODE":0,"TOWNNAME":"東區","LI":"德光里","LIN":"5鄰","STREET":"崇德路","SECT":" ","MAREA":" ","LANE":" ","ALLEY":" ","HOUSE_NO":"９０號","E_COORD97":169857.79999999999,"N_COORD97":2542313.6400000001,"ADDRESS":"崇德路９０號","OBJECTID":522928},"geometry":{"x":169857.80000000075,"y":2542313.6400000006}},{"attributes":{"ID":522956,"DIS_CODE":0,"TOWNNAME":"東區","LI":"龍山里","LIN":"4鄰","STREET":"崇仁街","SECT":" ","MAREA":" ","LANE":" ","ALLEY":" ","HOUSE_NO":"１３７號","E_COORD97":170583.47,"N_COORD97":2542573.9199999999,"ADDRESS":"崇仁街１３７號","OBJECTID":522929},"geometry":{"x":170583.47000000067,"y":2542573.9200000018}},{"attributes":{"ID":522957,"DIS_CODE":0,"TOWNNAME":"東區","LI":"龍山里","LIN":"4鄰","STREET":"崇仁街","SECT":" ","MAREA":" ","LANE":" ","ALLEY":" ","HOUSE_NO":"１３９號","E_COORD97":170588.38,"N_COORD97":2542570.1499999999,"ADDRESS":"崇仁街１３９號","OBJECTID":522930},"geometry":{"x":170588.37999999989,"y":2542570.1500000022}},{"attributes":{"ID":522958,"DIS_CODE":0,"TOWNNAME":"南區","LI":"文華里","LIN":"18鄰","STREET":"德南街","SECT":" ","MAREA":" ","LANE":" ","ALLEY":" ","HOUSE_NO":"２５號","E_COORD97":166876.17999999999,"N_COORD97":2543128.0299999998,"ADDRESS":"德南街２５號","OBJECTID":522931},"geometry":{"x":166876.18000000063,"y":2543128.0299999975}},{"attributes":{"ID":522959,"DIS_CODE":0,"TOWNNAME":"東區","LI":"德光里","LIN":"17鄰","STREET":"崇善路","SECT":" ","MAREA":" ","LANE":" ","ALLEY":" ","HOUSE_NO":"５６號","E_COORD97":170249.60000000001,"N_COORD97":2542416.2200000002,"ADDRESS":"崇善路５６號","OBJECTID":522932},"geometry":{"x":170249.59999999963,"y":2542416.2199999988}},{"attributes":{"ID":522960,"DIS_CODE":0,"TOWNNAME":"下營區","LI":"後街里","LIN":"6鄰","STREET":"中正北路","SECT":" ","MAREA":" ","LANE":" ","ALLEY":" ","HOUSE_NO":"１０７號","E_COORD97":174416.45999999999,"N_COORD97":2570784.02,"ADDRESS":"中正北路１０７號","OBJECTID":522933},"geometry":{"x":174416.46000000089,"y":2570784.0200000033}},{"attributes":{"ID":522961,"DIS_CODE":0,"TOWNNAME":"下營區","LI":"後街里","LIN":"6鄰","STREET":"中正北路","SECT":" ","MAREA":" ","LANE":" ","ALLEY":" ","HOUSE_NO":"１０９號","E_COORD97":174414.81,"N_COORD97":2570788.6099999999,"ADDRESS":"中正北路１０９號","OBJECTID":522934},"geometry":{"x":174414.80999999959,"y":2570788.6099999994}},{"attributes":{"ID":522962,"DIS_CODE":0,"TOWNNAME":"下營區","LI":"後街里","LIN":"6鄰","STREET":"中正北路","SECT":" ","MAREA":" ","LANE":" ","ALLEY":" ","HOUSE_NO":"２２２號","E_COORD97":174394.76999999999,"N_COORD97":2570905.6200000001,"ADDRESS":"中正北路２２２號","OBJECTID":522935},"geometry":{"x":174394.76999999955,"y":2570905.620000001}},{"attributes":{"ID":522963,"DIS_CODE":0,"TOWNNAME":"下營區","LI":"營前里","LIN":"6鄰","STREET":"中正南路","SECT":" ","MAREA":" ","LANE":" ","ALLEY":" ","HOUSE_NO":"８２號","E_COORD97":174607.79999999999,"N_COORD97":2570282.7200000002,"ADDRESS":"中正南路８２號","OBJECTID":522936},"geometry":{"x":174607.80000000075,"y":2570282.7200000025}},{"attributes":{"ID":522964,"DIS_CODE":0,"TOWNNAME":"下營區","LI":"營前里","LIN":"6鄰","STREET":"中正南路","SECT":" ","MAREA":" ","LANE":" ","ALLEY":" ","HOUSE_NO":"８６號","E_COORD97":174595.82000000001,"N_COORD97":2570280.3900000001,"ADDRESS":"中正南路８６號","OBJECTID":522937},"geometry":{"x":174595.82000000123,"y":2570280.3900000006}},{"attributes":{"ID":522965,"DIS_CODE":0,"TOWNNAME":"下營區","LI":"營前里","LIN":"6鄰","STREET":"中正南路","SECT":" ","MAREA":" ","LANE":" ","ALLEY":" ","HOUSE_NO":"８８號","E_COORD97":174606.14000000001,"N_COORD97":2570270.54,"ADDRESS":"中正南路８８號","OBJECTID":522938},"geometry":{"x":174606.13999999873,"y":2570270.5399999991}},{"attributes":{"ID":522966,"DIS_CODE":0,"TOWNNAME":"下營區","LI":"營前里","LIN":"6鄰","STREET":"中正南路","SECT":" ","MAREA":" ","LANE":" ","ALLEY":" ","HOUSE_NO":"９０號","E_COORD97":174610.89000000001,"N_COORD97":2570257.96,"ADDRESS":"中正南路９０號","OBJECTID":522939},"geometry":{"x":174610.88999999966,"y":2570257.9600000028}},{"attributes":{"ID":522967,"DIS_CODE":0,"TOWNNAME":"下營區","LI":"營前里","LIN":"6鄰","STREET":"中正南路","SECT":" ","MAREA":" ","LANE":" ","ALLEY":" ","HOUSE_NO":"９２號","E_COORD97":174611.53,"N_COORD97":2570255.5099999998,"ADDRESS":"中正南路９２號","OBJECTID":522940},"geometry":{"x":174611.53000000119,"y":2570255.5100000035}},{"attributes":{"ID":522968,"DIS_CODE":0,"TOWNNAME":"下營區","LI":"新興里","LIN":"6鄰","STREET":"中華街","SECT":" ","MAREA":" ","LANE":" ","ALLEY":" ","HOUSE_NO":"１７６號","E_COORD97":175119,"N_COORD97":2570643.8599999999,"ADDRESS":"中華街１７６號","OBJECTID":522941},"geometry":{"x":175119,"y":2570643.8600000013}},{"attributes":{"ID":522969,"DIS_CODE":0,"TOWNNAME":"下營區","LI":"新興里","LIN":"6鄰","STREET":"中華街","SECT":" ","MAREA":" ","LANE":" ","ALLEY":" ","HOUSE_NO":"１７８號","E_COORD97":175119.44,"N_COORD97":2570648.29,"ADDRESS":"中華街１７８號","OBJECTID":522942},"geometry":{"x":175119.44000000134,"y":2570648.2899999991}},{"attributes":{"ID":522970,"DIS_CODE":0,"TOWNNAME":"下營區","LI":"新興里","LIN":"6鄰","STREET":"中華街","SECT":" ","MAREA":" ","LANE":" ","ALLEY":" ","HOUSE_NO":"１８０號","E_COORD97":175119.59,"N_COORD97":2570652.75,"ADDRESS":"中華街１８０號","OBJECTID":522943},"geometry":{"x":175119.58999999985,"y":2570652.75}},{"attributes":{"ID":522971,"DIS_CODE":0,"TOWNNAME":"下營區","LI":"新興里","LIN":"6鄰","STREET":"中華街","SECT":" ","MAREA":" ","LANE":" ","ALLEY":" ","HOUSE_NO":"１８２號","E_COORD97":175120.25,"N_COORD97":2570657.0899999999,"ADDRESS":"中華街１８２號","OBJECTID":522944},"geometry":{"x":175120.25000000093,"y":2570657.0899999999}},{"attributes":{"ID":522972,"DIS_CODE":0,"TOWNNAME":"下營區","LI":"新興里","LIN":"6鄰","STREET":"中華街","SECT":" ","MAREA":" ","LANE":" ","ALLEY":" ","HOUSE_NO":"１８８號","E_COORD97":175120.92000000001,"N_COORD97":2570666.1800000002,"ADDRESS":"中華街１８８號","OBJECTID":522945},"geometry":{"x":175120.91999999993,"y":2570666.1799999997}},{"attributes":{"ID":522973,"DIS_CODE":0,"TOWNNAME":"下營區","LI":"新興里","LIN":"6鄰","STREET":"中華街","SECT":" ","MAREA":" ","LANE":" ","ALLEY":" ","HOUSE_NO":"１９０號","E_COORD97":175121.73999999999,"N_COORD97":2570670.7400000002,"ADDRESS":"中華街１９０號","OBJECTID":522946},"geometry":{"x":175121.74000000115,"y":2570670.7400000002}},{"attributes":{"ID":522974,"DIS_CODE":0,"TOWNNAME":"下營區","LI":"新興里","LIN":"6鄰","STREET":"中華街","SECT":" ","MAREA":" ","LANE":" ","ALLEY":" ","HOUSE_NO":"１９２號","E_COORD97":175122.06,"N_COORD97":2570674.9300000002,"ADDRESS":"中華街１９２號","OBJECTID":522947},"geometry":{"x":175122.06000000145,"y":2570674.9299999997}},{"attributes":{"ID":522975,"DIS_CODE":0,"TOWNNAME":"下營區","LI":"新興里","LIN":"6鄰","STREET":"中華街","SECT":" ","MAREA":" ","LANE":" ","ALLEY":" ","HOUSE_NO":"１９６號","E_COORD97":175122.73000000001,"N_COORD97":2570679.3599999999,"ADDRESS":"中華街１９６號","OBJECTID":522948},"geometry":{"x":175122.73000000045,"y":2570679.3599999994}},{"attributes":{"ID":522976,"DIS_CODE":0,"TOWNNAME":"下營區","LI":"新興里","LIN":"6鄰","STREET":"中華街","SECT":" ","MAREA":" ","LANE":" ","ALLEY":" ","HOUSE_NO":"１９８號","E_COORD97":175127.75,"N_COORD97":2570685.8900000001,"ADDRESS":"中華街１９８號","OBJECTID":522949},"geometry":{"x":175127.75,"y":2570685.8900000006}},{"attributes":{"ID":522977,"DIS_CODE":0,"TOWNNAME":"東區","LI":"德光里","LIN":"5鄰","STREET":"崇德路","SECT":" ","MAREA":" ","LANE":" ","ALLEY":" ","HOUSE_NO":"９２號","E_COORD97":169861.25,"N_COORD97":2542311.0600000001,"ADDRESS":"崇德路９２號","OBJECTID":522950},"geometry":{"x":169861.25000000093,"y":2542311.0600000005}},{"attributes":{"ID":522978,"DIS_CODE":0,"TOWNNAME":"東區","LI":"龍山里","LIN":"5鄰","STREET":"崇仁街","SECT":" ","MAREA":" ","LANE":" ","ALLEY":" ","HOUSE_NO":"８２號","E_COORD97":170457.70999999999,"N_COORD97":2542618.7200000002,"ADDRESS":"崇仁街８２號","OBJECTID":522951},"geometry":{"x":170457.70999999996,"y":2542618.7200000007}},{"attributes":{"ID":522979,"DIS_CODE":0,"TOWNNAME":"南區","LI":"文華里","LIN":"18鄰","STREET":"德南街","SECT":" ","MAREA":" ","LANE":" ","ALLEY":" ","HOUSE_NO":"２７號","E_COORD97":166872.76999999999,"N_COORD97":2543124.6299999999,"ADDRESS":"德南街２７號","OBJECTID":522952},"geometry":{"x":166872.76999999955,"y":2543124.6300000008}},{"attributes":{"ID":522980,"DIS_CODE":0,"TOWNNAME":"東區","LI":"龍山里","LIN":"14鄰","STREET":"崇仁街","SECT":" ","MAREA":" ","LANE":" ","ALLEY":" ","HOUSE_NO":"１２１號","E_COORD97":170540.85999999999,"N_COORD97":2542611.3399999999,"ADDRESS":"崇仁街１２１號","OBJECTID":522953},"geometry":{"x":170540.86000000127,"y":2542611.3400000036}},{"attributes":{"ID":522981,"DIS_CODE":0,"TOWNNAME":"東區","LI":"龍山里","LIN":"14鄰","STREET":"崇仁街","SECT":" ","MAREA":" ","LANE":" ","ALLEY":" ","HOUSE_NO":"１２５號","E_COORD97":170555.69,"N_COORD97":2542602.2799999998,"ADDRESS":"崇仁街１２５號","OBJECTID":522954},"geometry":{"x":170555.69000000134,"y":2542602.2800000012}},{"attributes":{"ID":522982,"DIS_CODE":0,"TOWNNAME":"東區","LI":"龍山里","LIN":"14鄰","STREET":"崇仁街","SECT":" ","MAREA":" ","LANE":" ","ALLEY":" ","HOUSE_NO":"１２７號","E_COORD97":170558.07000000001,"N_COORD97":2542600.3700000001,"ADDRESS":"崇仁街１２７號","OBJECTID":522955},"geometry":{"x":170558.07000000123,"y":2542600.3700000029}},{"attributes":{"ID":522983,"DIS_CODE":0,"TOWNNAME":"東區","LI":"龍山里","LIN":"14鄰","STREET":"崇仁街","SECT":" ","MAREA":" ","LANE":" ","ALLEY":" ","HOUSE_NO":"１２７號之１","E_COORD97":170563.69,"N_COORD97":2542596.02,"ADDRESS":"崇仁街１２７號之１","OBJECTID":522956},"geometry":{"x":170563.69000000227,"y":2542596.0199999977}},{"attributes":{"ID":522984,"DIS_CODE":0,"TOWNNAME":"東區","LI":"龍山里","LIN":"14鄰","STREET":"崇仁街","SECT":" ","MAREA":" ","LANE":" ","ALLEY":" ","HOUSE_NO":"１３３號","E_COORD97":170568.35000000001,"N_COORD97":2542589.79,"ADDRESS":"崇仁街１３３號","OBJECTID":522957},"geometry":{"x":170568.34999999963,"y":2542589.7899999991}},{"attributes":{"ID":522985,"DIS_CODE":0,"TOWNNAME":"東區","LI":"龍山里","LIN":"14鄰","STREET":"崇仁街","SECT":" ","MAREA":" ","LANE":" ","ALLEY":" ","HOUSE_NO":"１３５號","E_COORD97":170574.39999999999,"N_COORD97":2542588.9500000002,"ADDRESS":"崇仁街１３５號","OBJECTID":522958},"geometry":{"x":170574.4000000013,"y":2542588.9499999993}},{"attributes":{"ID":522986,"DIS_CODE":0,"TOWNNAME":"東區","LI":"龍山里","LIN":"6鄰","STREET":"東門路","SECT":"二段","MAREA":" ","LANE":" ","ALLEY":" ","HOUSE_NO":"１６０號","E_COORD97":170200.60999999999,"N_COORD97":2542906.4399999999,"ADDRESS":"東門路二段１６０號","OBJECTID":522959},"geometry":{"x":170200.61000000034,"y":2542906.4400000013}},{"attributes":{"ID":522987,"DIS_CODE":0,"TOWNNAME":"東區","LI":"龍山里","LIN":"6鄰","STREET":"林森路","SECT":"一段","MAREA":" ","LANE":" ","ALLEY":" ","HOUSE_NO":"３９５號","E_COORD97":170196.82999999999,"N_COORD97":2542891.3300000001,"ADDRESS":"林森路一段３９５號","OBJECTID":522960},"geometry":{"x":170196.83000000101,"y":2542891.3300000019}},{"attributes":{"ID":522988,"DIS_CODE":0,"TOWNNAME":"南區","LI":"文華里","LIN":"18鄰","STREET":"德南街","SECT":" ","MAREA":" ","LANE":" ","ALLEY":" ","HOUSE_NO":"２９號","E_COORD97":166866.22,"N_COORD97":2543119.0800000001,"ADDRESS":"德南街２９號","OBJECTID":522961},"geometry":{"x":166866.22000000067,"y":2543119.0800000019}},{"attributes":{"ID":522989,"DIS_CODE":0,"TOWNNAME":"東區","LI":"德光里","LIN":"17鄰","STREET":"崇善路","SECT":" ","MAREA":" ","LANE":" ","ALLEY":" ","HOUSE_NO":"５８號","E_COORD97":170252.88,"N_COORD97":2542414.1299999999,"ADDRESS":"崇善路５８號","OBJECTID":522962},"geometry":{"x":170252.87999999989,"y":2542414.129999999}},{"attributes":{"ID":522990,"DIS_CODE":0,"TOWNNAME":"東區","LI":"德光里","LIN":"5鄰","STREET":"崇德路","SECT":" ","MAREA":" ","LANE":" ","ALLEY":" ","HOUSE_NO":"９４號","E_COORD97":169864.48000000001,"N_COORD97":2542308.4700000002,"ADDRESS":"崇德路９４號","OBJECTID":522963},"geometry":{"x":169864.48000000045,"y":2542308.4700000007}},{"attributes":{"ID":522991,"DIS_CODE":0,"TOWNNAME":"東區","LI":"德光里","LIN":"5鄰","STREET":"崇明七街","SECT":" ","MAREA":" ","LANE":" ","ALLEY":" ","HOUSE_NO":"１３３號","E_COORD97":169918.76999999999,"N_COORD97":2542241.1400000001,"ADDRESS":"崇明七街１３３號","OBJECTID":522964},"geometry":{"x":169918.77000000048,"y":2542241.1400000025}},{"attributes":{"ID":522992,"DIS_CODE":0,"TOWNNAME":"東區","LI":"德光里","LIN":"5鄰","STREET":"崇明七街","SECT":" ","MAREA":" ","LANE":" ","ALLEY":" ","HOUSE_NO":"１３５號","E_COORD97":169924.42999999999,"N_COORD97":2542243.0800000001,"ADDRESS":"崇明七街１３５號","OBJECTID":522965},"geometry":{"x":169924.43000000063,"y":2542243.0800000001}},{"attributes":{"ID":522993,"DIS_CODE":0,"TOWNNAME":"東區","LI":"德光里","LIN":"5鄰","STREET":"崇明五街","SECT":" ","MAREA":" ","LANE":" ","ALLEY":" ","HOUSE_NO":"５４號","E_COORD97":169794.54000000001,"N_COORD97":2542290.23,"ADDRESS":"崇明五街５４號","OBJECTID":522966},"geometry":{"x":169794.54000000004,"y":2542290.2300000004}},{"attributes":{"ID":522994,"DIS_CODE":0,"TOWNNAME":"東區","LI":"德光里","LIN":"5鄰","STREET":"崇明五街","SECT":" ","MAREA":" ","LANE":" ","ALLEY":" ","HOUSE_NO":"５６號","E_COORD97":169800.10000000001,"N_COORD97":2542292,"ADDRESS":"崇明五街５６號","OBJECTID":522967},"geometry":{"x":169800.09999999963,"y":2542292.0000000037}},{"attributes":{"ID":522995,"DIS_CODE":0,"TOWNNAME":"東區","LI":"德光里","LIN":"5鄰","STREET":"崇明五街","SECT":" ","MAREA":" ","LANE":" ","ALLEY":" ","HOUSE_NO":"５８號","E_COORD97":169806.23999999999,"N_COORD97":2542293.4100000001,"ADDRESS":"崇明五街５８號","OBJECTID":522968},"geometry":{"x":169806.24000000022,"y":2542293.410000002}},{"attributes":{"ID":522996,"DIS_CODE":0,"TOWNNAME":"東區","LI":"德光里","LIN":"5鄰","STREET":"崇明五街","SECT":" ","MAREA":" ","LANE":" ","ALLEY":" ","HOUSE_NO":"６０號","E_COORD97":169811.44,"N_COORD97":2542294.9500000002,"ADDRESS":"崇明五街６０號","OBJECTID":522969},"geometry":{"x":169811.44000000134,"y":2542294.950000003}},{"attributes":{"ID":522997,"DIS_CODE":0,"TOWNNAME":"東區","LI":"德光里","LIN":"5鄰","STREET":"崇明五街","SECT":" ","MAREA":" ","LANE":" ","ALLEY":" ","HOUSE_NO":"６２號","E_COORD97":169822.07000000001,"N_COORD97":2542300.3799999999,"ADDRESS":"崇明五街６２號","OBJECTID":522970},"geometry":{"x":169822.07000000123,"y":2542300.379999999}},{"attributes":{"ID":522998,"DIS_CODE":0,"TOWNNAME":"東區","LI":"德光里","LIN":"5鄰","STREET":"崇明五街","SECT":" ","MAREA":" ","LANE":" ","ALLEY":" ","HOUSE_NO":"６４號","E_COORD97":169829.89999999999,"N_COORD97":2542302.75,"ADDRESS":"崇明五街６４號","OBJECTID":522971},"geometry":{"x":169829.90000000224,"y":2542302.75}},{"attributes":{"ID":522999,"DIS_CODE":0,"TOWNNAME":"東區","LI":"德光里","LIN":"5鄰","STREET":"崇明五街","SECT":" ","MAREA":" ","LANE":" ","ALLEY":" ","HOUSE_NO":"６６號","E_COORD97":169833.64000000001,"N_COORD97":2542286.0699999998,"ADDRESS":"崇明五街６６號","OBJECTID":522972},"geometry":{"x":169833.63999999966,"y":2542286.0700000022}},{"attributes":{"ID":523000,"DIS_CODE":0,"TOWNNAME":"東區","LI":"德光里","LIN":"5鄰","STREET":"崇明五街","SECT":" ","MAREA":" ","LANE":" ","ALLEY":" ","HOUSE_NO":"６８號","E_COORD97":169834.95000000001,"N_COORD97":2542282.3700000001,"ADDRESS":"崇明五街６８號","OBJECTID":522973},"geometry":{"x":169834.95000000112,"y":2542282.370000001}},{"attributes":{"ID":523001,"DIS_CODE":0,"TOWNNAME":"白河區","LI":"外角里","LIN":"6鄰","STREET":"光明街","SECT":" ","MAREA":" ","LANE":" ","ALLEY":" ","HOUSE_NO":"６號","E_COORD97":190556.20999999999,"N_COORD97":2583292.0299999998,"ADDRESS":"光明街６號","OBJECTID":522974},"geometry":{"x":190556.21000000183,"y":2583292.0300000012}},{"attributes":{"ID":523002,"DIS_CODE":0,"TOWNNAME":"東區","LI":"龍山里","LIN":"6鄰","STREET":"林森路","SECT":"一段","MAREA":" ","LANE":" ","ALLEY":" ","HOUSE_NO":"３９５號地下一層","E_COORD97":170196.82999999999,"N_COORD97":2542891.3300000001,"ADDRESS":"林森路一段３９５號地下一層","OBJECTID":522975},"geometry":{"x":170196.83000000101,"y":2542891.3300000019}},{"attributes":{"ID":523003,"DIS_CODE":0,"TOWNNAME":"東區","LI":"德光里","LIN":"5鄰","STREET":"崇明路","SECT":" ","MAREA":" ","LANE":" ","ALLEY":" ","HOUSE_NO":"１０１號","E_COORD97":169778.20000000001,"N_COORD97":2542277.6200000001,"ADDRESS":"崇明路１０１號","OBJECTID":522976},"geometry":{"x":169778.20000000019,"y":2542277.620000001}},{"attributes":{"ID":523004,"DIS_CODE":0,"TOWNNAME":"東區","LI":"德光里","LIN":"5鄰","STREET":"崇明路","SECT":" ","MAREA":" ","LANE":" ","ALLEY":" ","HOUSE_NO":"１０３號","E_COORD97":169781.44,"N_COORD97":2542273.2000000002,"ADDRESS":"崇明路１０３號","OBJECTID":522977},"geometry":{"x":169781.44000000041,"y":2542273.2000000011}},{"attributes":{"ID":523005,"DIS_CODE":0,"TOWNNAME":"東區","LI":"德光里","LIN":"5鄰","STREET":"崇明路","SECT":" ","MAREA":" ","LANE":" ","ALLEY":" ","HOUSE_NO":"１０５號","E_COORD97":169782.45999999999,"N_COORD97":2542269.29,"ADDRESS":"崇明路１０５號","OBJECTID":522978},"geometry":{"x":169782.45999999996,"y":2542269.290000001}},{"attributes":{"ID":523006,"DIS_CODE":0,"TOWNNAME":"東區","LI":"德光里","LIN":"5鄰","STREET":"崇明路","SECT":" ","MAREA":" ","LANE":" ","ALLEY":" ","HOUSE_NO":"１０７號","E_COORD97":169785.85999999999,"N_COORD97":2542265.7200000002,"ADDRESS":"崇明路１０７號","OBJECTID":522979},"geometry":{"x":169785.86000000034,"y":2542265.7200000007}},{"attributes":{"ID":523007,"DIS_CODE":0,"TOWNNAME":"東區","LI":"德光里","LIN":"5鄰","STREET":"崇明路","SECT":" ","MAREA":" ","LANE":" ","ALLEY":" ","HOUSE_NO":"１０９號","E_COORD97":169787.22,"N_COORD97":2542261.48,"ADDRESS":"崇明路１０９號","OBJECTID":522980},"geometry":{"x":169787.21999999974,"y":2542261.4800000004}},{"attributes":{"ID":523008,"DIS_CODE":0,"TOWNNAME":"東區","LI":"德光里","LIN":"5鄰","STREET":"崇明路","SECT":" ","MAREA":" ","LANE":" ","ALLEY":" ","HOUSE_NO":"１１１號","E_COORD97":169790.45000000001,"N_COORD97":2542257.7400000002,"ADDRESS":"崇明路１１１號","OBJECTID":522981},"geometry":{"x":169790.45000000205,"y":2542257.7400000021}},{"attributes":{"ID":523009,"DIS_CODE":0,"TOWNNAME":"東區","LI":"德光里","LIN":"5鄰","STREET":"崇明路","SECT":" ","MAREA":" ","LANE":" ","ALLEY":" ","HOUSE_NO":"１１３號","E_COORD97":169791.98000000001,"N_COORD97":2542254,"ADDRESS":"崇明路１１３號","OBJECTID":522982},"geometry":{"x":169791.98000000045,"y":2542254}},{"attributes":{"ID":523010,"DIS_CODE":0,"TOWNNAME":"東區","LI":"德光里","LIN":"5鄰","STREET":"崇明路","SECT":" ","MAREA":" ","LANE":" ","ALLEY":" ","HOUSE_NO":"１１５號","E_COORD97":169794.37,"N_COORD97":2542250.6000000001,"ADDRESS":"崇明路１１５號","OBJECTID":522983},"geometry":{"x":169794.37000000104,"y":2542250.6000000015}},{"attributes":{"ID":523011,"DIS_CODE":0,"TOWNNAME":"東區","LI":"德光里","LIN":"20鄰","STREET":"崇明路","SECT":" ","MAREA":" ","LANE":" ","ALLEY":" ","HOUSE_NO":"１１７號","E_COORD97":169803.67999999999,"N_COORD97":2542233.52,"ADDRESS":"崇明路１１７號","OBJECTID":522984},"geometry":{"x":169803.68000000156,"y":2542233.5200000033}},{"attributes":{"ID":523012,"DIS_CODE":0,"TOWNNAME":"東區","LI":"德光里","LIN":"17鄰","STREET":"崇善路","SECT":" ","MAREA":" ","LANE":" ","ALLEY":" ","HOUSE_NO":"６２號","E_COORD97":170256.82000000001,"N_COORD97":2542411.3199999998,"ADDRESS":"崇善路６２號","OBJECTID":522985},"geometry":{"x":170256.8200000003,"y":2542411.3200000003}},{"attributes":{"ID":523013,"DIS_CODE":0,"TOWNNAME":"安南區","LI":"學東里","LIN":"6鄰","STREET":"公學路","SECT":"七段","MAREA":" ","LANE":" ","ALLEY":" ","HOUSE_NO":"１７７之５１號","E_COORD97":161461.42999999999,"N_COORD97":2553522.4500000002,"ADDRESS":"公學路七段１７７之５１號","OBJECTID":522986},"geometry":{"x":161461.42999999877,"y":2553522.4499999993}},{"attributes":{"ID":523014,"DIS_CODE":0,"TOWNNAME":"安南區","LI":"公\u25A0里","LIN":"6鄰","STREET":"安中路","SECT":"五段","MAREA":" ","LANE":" ","ALLEY":" ","HOUSE_NO":"２０２號","E_COORD97":163114.92000000001,"N_COORD97":2550884.1299999999,"ADDRESS":"安中路五段２０２號","OBJECTID":522987},"geometry":{"x":163114.92000000086,"y":2550884.1299999971}},{"attributes":{"ID":523015,"DIS_CODE":0,"TOWNNAME":"安南區","LI":"城西里","LIN":"6鄰","STREET":"城西街","SECT":"三段","MAREA":" ","LANE":" ","ALLEY":" ","HOUSE_NO":"４７３號","E_COORD97":157228.75,"N_COORD97":2550853.4199999999,"ADDRESS":"城西街三段４７３號","OBJECTID":522988},"geometry":{"x":157228.75000000093,"y":2550853.4200000018}},{"attributes":{"ID":523016,"DIS_CODE":0,"TOWNNAME":"安南區","LI":"城西里","LIN":"6鄰","STREET":"城西街","SECT":"三段","MAREA":" ","LANE":" ","ALLEY":" ","HOUSE_NO":"４７５號","E_COORD97":157223.98999999999,"N_COORD97":2550853.2599999998,"ADDRESS":"城西街三段４７５號","OBJECTID":522989},"geometry":{"x":157223.99000000115,"y":2550853.2599999998}},{"attributes":{"ID":523017,"DIS_CODE":0,"TOWNNAME":"安南區","LI":"\u25A0田里","LIN":"6鄰","STREET":"\u25A0田五街","SECT":" ","MAREA":" ","LANE":" ","ALLEY":" ","HOUSE_NO":"１６號","E_COORD97":162605.79000000001,"N_COORD97":2548291.9500000002,"ADDRESS":"\u25A0田五街１６號","OBJECTID":522990},"geometry":{"x":162605.79000000097,"y":2548291.9499999993}},{"attributes":{"ID":523018,"DIS_CODE":0,"TOWNNAME":"東區","LI":"德光里","LIN":"20鄰","STREET":"崇明路","SECT":" ","MAREA":" ","LANE":" ","ALLEY":" ","HOUSE_NO":"１１７號地下一層","E_COORD97":169803.67999999999,"N_COORD97":2542233.52,"ADDRESS":"崇明路１１７號地下一層","OBJECTID":522991},"geometry":{"x":169803.68000000156,"y":2542233.5200000033}},{"attributes":{"ID":523019,"DIS_CODE":0,"TOWNNAME":"東區","LI":"德光里","LIN":"20鄰","STREET":"崇明路","SECT":" ","MAREA":" ","LANE":" ","ALLEY":" ","HOUSE_NO":"１１９號","E_COORD97":169822,"N_COORD97":2542225.5299999998,"ADDRESS":"崇明路１１９號","OBJECTID":522992},"geometry":{"x":169822.00000000186,"y":2542225.5299999993}},{"attributes":{"ID":523020,"DIS_CODE":0,"TOWNNAME":"東區","LI":"德光里","LIN":"20鄰","STREET":"崇明路","SECT":" ","MAREA":" ","LANE":" ","ALLEY":" ","HOUSE_NO":"１２１號","E_COORD97":169806.94,"N_COORD97":2542228.52,"ADDRESS":"崇明路１２１號","OBJECTID":522993},"geometry":{"x":169806.94000000041,"y":2542228.5199999996}},{"attributes":{"ID":523021,"DIS_CODE":0,"TOWNNAME":"東區","LI":"德光里","LIN":"20鄰","STREET":"崇明路","SECT":" ","MAREA":" ","LANE":" ","ALLEY":" ","HOUSE_NO":"１２３號","E_COORD97":169809.73999999999,"N_COORD97":2542222.2400000002,"ADDRESS":"崇明路１２３號","OBJECTID":522994},"geometry":{"x":169809.74000000022,"y":2542222.2400000002}},{"attributes":{"ID":523022,"DIS_CODE":0,"TOWNNAME":"東區","LI":"德光里","LIN":"20鄰","STREET":"崇明路","SECT":" ","MAREA":" ","LANE":" ","ALLEY":" ","HOUSE_NO":"１２５號","E_COORD97":169815.45999999999,"N_COORD97":2542218.6800000002,"ADDRESS":"崇明路１２５號","OBJECTID":522995},"geometry":{"x":169815.46000000183,"y":2542218.6799999997}},{"attributes":{"ID":523023,"DIS_CODE":0,"TOWNNAME":"東區","LI":"德光里","LIN":"20鄰","STREET":"崇明路","SECT":" ","MAREA":" ","LANE":" ","ALLEY":" ","HOUSE_NO":"１２７號","E_COORD97":169821.17000000001,"N_COORD97":2542212.52,"ADDRESS":"崇明路１２７號","OBJECTID":522996},"geometry":{"x":169821.17000000086,"y":2542212.5199999996}},{"attributes":{"ID":523024,"DIS_CODE":0,"TOWNNAME":"東區","LI":"德光里","LIN":"20鄰","STREET":"崇明路","SECT":" ","MAREA":" ","LANE":" ","ALLEY":" ","HOUSE_NO":"１２９號","E_COORD97":169822.32999999999,"N_COORD97":2542209.1299999999,"ADDRESS":"崇明路１２９號","OBJECTID":522997},"geometry":{"x":169822.33000000101,"y":2542209.1300000008}},{"attributes":{"ID":523025,"DIS_CODE":0,"TOWNNAME":"東區","LI":"德光里","LIN":"20鄰","STREET":"崇明路","SECT":" ","MAREA":" ","LANE":" ","ALLEY":" ","HOUSE_NO":"１３１號","E_COORD97":169834.14999999999,"N_COORD97":2542213.7400000002,"ADDRESS":"崇明路１３１號","OBJECTID":522998},"geometry":{"x":169834.15000000037,"y":2542213.7400000021}},{"attributes":{"ID":523026,"DIS_CODE":0,"TOWNNAME":"東區","LI":"德光里","LIN":"20鄰","STREET":"崇明路","SECT":" ","MAREA":" ","LANE":" ","ALLEY":" ","HOUSE_NO":"１３３號","E_COORD97":169837.32999999999,"N_COORD97":2542215.3300000001,"ADDRESS":"崇明路１３３號","OBJECTID":522999},"geometry":{"x":169837.33000000101,"y":2542215.3300000019}},{"attributes":{"ID":523027,"DIS_CODE":0,"TOWNNAME":"安南區","LI":"\u25A0田里","LIN":"6鄰","STREET":"\u25A0田五街","SECT":" ","MAREA":" ","LANE":" ","ALLEY":" ","HOUSE_NO":"１７號","E_COORD97":162603.51000000001,"N_COORD97":2548256.3799999999,"ADDRESS":"\u25A0田五街１７號","OBJECTID":523000},"geometry":{"x":162603.50999999885,"y":2548256.3800000008}}]}