{"displayFieldName":"TOWNNAME","fieldAliases":{"ID":"ID","DIS_CODE":"DIS_CODE","TOWNNAME":"TOWNNAME","LI":"LI","LIN":"LIN","STREET":"STREET","SECT":"SECT","MAREA":"MAREA","LANE":"LANE","ALLEY":"ALLEY","HOUSE_NO":"HOUSE_NO","E_COORD97":"E_COORD97","N_COORD97":"N_COORD97","ADDRESS":"ADDRESS","OBJECTID":"OBJECTID"},"geometryType":"esriGeometryPoint","spatialReference":{"wkid":102443,"latestWkid":3826},"fields":[{"name":"ID","type":"esriFieldTypeDouble","alias":"ID"},{"name":"DIS_CODE","type":"esriFieldTypeInteger","alias":"DIS_CODE"},{"name":"TOWNNAME","type":"esriFieldTypeString","alias":"TOWNNAME","length":8},{"name":"LI","type":"esriFieldTypeString","alias":"LI","length":8},{"name":"LIN","type":"esriFieldTypeString","alias":"LIN","length":12},{"name":"STREET","type":"esriFieldTypeString","alias":"STREET","length":20},{"name":"SECT","type":"esriFieldTypeString","alias":"SECT","length":8},{"name":"MAREA","type":"esriFieldTypeString","alias":"MAREA","length":12},{"name":"LANE","type":"esriFieldTypeString","alias":"LANE","length":10},{"name":"ALLEY","type":"esriFieldTypeString","alias":"ALLEY","length":10},{"name":"HOUSE_NO","type":"esriFieldTypeString","alias":"HOUSE_NO","length":20},{"name":"E_COORD97","type":"esriFieldTypeDouble","alias":"E_COORD97"},{"name":"N_COORD97","type":"esriFieldTypeDouble","alias":"N_COORD97"},{"name":"ADDRESS","type":"esriFieldTypeString","alias":"ADDRESS","length":50},{"name":"OBJECTID","type":"esriFieldTypeOID","alias":"OBJECTID"}],"features":[{"attributes":{"ID":463626,"DIS_CODE":0,"TOWNNAME":"麻豆區","LI":"穀興里","LIN":"5鄰","STREET":"大同街","SECT":" ","MAREA":" ","LANE":" ","ALLEY":" ","HOUSE_NO":"１號之９","E_COORD97":172853.64000000001,"N_COORD97":2565015.0099999998,"ADDRESS":"大同街１號之９","OBJECTID":463601},"geometry":{"x":172853.6400000006,"y":2565015.0100000016}},{"attributes":{"ID":463627,"DIS_CODE":0,"TOWNNAME":"麻豆區","LI":"穀興里","LIN":"5鄰","STREET":"大同街","SECT":" ","MAREA":" ","LANE":" ","ALLEY":" ","HOUSE_NO":"３號之１０","E_COORD97":172824.72,"N_COORD97":2565061.5699999998,"ADDRESS":"大同街３號之１０","OBJECTID":463602},"geometry":{"x":172824.72000000067,"y":2565061.570000004}},{"attributes":{"ID":463628,"DIS_CODE":0,"TOWNNAME":"麻豆區","LI":"穀興里","LIN":"5鄰","STREET":"大同街","SECT":" ","MAREA":" ","LANE":" ","ALLEY":" ","HOUSE_NO":"３號之１１","E_COORD97":172809.10000000001,"N_COORD97":2565096.1000000001,"ADDRESS":"大同街３號之１１","OBJECTID":463603},"geometry":{"x":172809.09999999963,"y":2565096.0999999996}},{"attributes":{"ID":463629,"DIS_CODE":0,"TOWNNAME":"麻豆區","LI":"穀興里","LIN":"5鄰","STREET":"大同街","SECT":" ","MAREA":" ","LANE":" ","ALLEY":" ","HOUSE_NO":"３號之１","E_COORD97":172844.57000000001,"N_COORD97":2565026.5800000001,"ADDRESS":"大同街３號之１","OBJECTID":463604},"geometry":{"x":172844.57000000123,"y":2565026.5800000001}},{"attributes":{"ID":463630,"DIS_CODE":0,"TOWNNAME":"麻豆區","LI":"穀興里","LIN":"5鄰","STREET":"大同街","SECT":" ","MAREA":" ","LANE":" ","ALLEY":" ","HOUSE_NO":"３號之２","E_COORD97":172845.95000000001,"N_COORD97":2565032.2000000002,"ADDRESS":"大同街３號之２","OBJECTID":463605},"geometry":{"x":172845.95000000019,"y":2565032.200000003}},{"attributes":{"ID":463631,"DIS_CODE":0,"TOWNNAME":"麻豆區","LI":"穀興里","LIN":"5鄰","STREET":"大同街","SECT":" ","MAREA":" ","LANE":" ","ALLEY":" ","HOUSE_NO":"３號之３","E_COORD97":172843.04999999999,"N_COORD97":2565036.8100000001,"ADDRESS":"大同街３號之３","OBJECTID":463606},"geometry":{"x":172843.05000000075,"y":2565036.8100000024}},{"attributes":{"ID":463632,"DIS_CODE":0,"TOWNNAME":"麻豆區","LI":"穀興里","LIN":"5鄰","STREET":"大同街","SECT":" ","MAREA":" ","LANE":" ","ALLEY":" ","HOUSE_NO":"３號之４","E_COORD97":172840.63,"N_COORD97":2565040.02,"ADDRESS":"大同街３號之４","OBJECTID":463607},"geometry":{"x":172840.63000000082,"y":2565040.0199999996}},{"attributes":{"ID":463633,"DIS_CODE":0,"TOWNNAME":"麻豆區","LI":"穀興里","LIN":"5鄰","STREET":"大同街","SECT":" ","MAREA":" ","LANE":" ","ALLEY":" ","HOUSE_NO":"３號之５","E_COORD97":172838.48999999999,"N_COORD97":2565043.5800000001,"ADDRESS":"大同街３號之５","OBJECTID":463608},"geometry":{"x":172838.49000000115,"y":2565043.5800000001}},{"attributes":{"ID":463634,"DIS_CODE":0,"TOWNNAME":"麻豆區","LI":"穀興里","LIN":"5鄰","STREET":"大同街","SECT":" ","MAREA":" ","LANE":" ","ALLEY":" ","HOUSE_NO":"３號之６","E_COORD97":172835.53,"N_COORD97":2565047.8599999999,"ADDRESS":"大同街３號之６","OBJECTID":463609},"geometry":{"x":172835.53000000026,"y":2565047.8599999994}},{"attributes":{"ID":463635,"DIS_CODE":0,"TOWNNAME":"麻豆區","LI":"穀興里","LIN":"5鄰","STREET":"大同街","SECT":" ","MAREA":" ","LANE":" ","ALLEY":" ","HOUSE_NO":"３號之７","E_COORD97":172833.42999999999,"N_COORD97":2565051.2000000002,"ADDRESS":"大同街３號之７","OBJECTID":463610},"geometry":{"x":172833.43000000063,"y":2565051.1999999993}},{"attributes":{"ID":463636,"DIS_CODE":0,"TOWNNAME":"麻豆區","LI":"穀興里","LIN":"5鄰","STREET":"大同街","SECT":" ","MAREA":" ","LANE":" ","ALLEY":" ","HOUSE_NO":"３號之８","E_COORD97":172830.57000000001,"N_COORD97":2565055.2799999998,"ADDRESS":"大同街３號之８","OBJECTID":463611},"geometry":{"x":172830.5700000003,"y":2565055.2799999975}},{"attributes":{"ID":463637,"DIS_CODE":0,"TOWNNAME":"麻豆區","LI":"穀興里","LIN":"5鄰","STREET":"大同街","SECT":" ","MAREA":" ","LANE":" ","ALLEY":" ","HOUSE_NO":"３號之９","E_COORD97":172828,"N_COORD97":2565058.7400000002,"ADDRESS":"大同街３號之９","OBJECTID":463612},"geometry":{"x":172828.00000000093,"y":2565058.7400000002}},{"attributes":{"ID":463638,"DIS_CODE":0,"TOWNNAME":"安南區","LI":"溪頂里","LIN":"5鄰","STREET":"府安路","SECT":"四段","MAREA":" ","LANE":" ","ALLEY":" ","HOUSE_NO":"１３３號","E_COORD97":168921.91,"N_COORD97":2547266.02,"ADDRESS":"府安路四段１３３號","OBJECTID":463613},"geometry":{"x":168921.91000000015,"y":2547266.0200000014}},{"attributes":{"ID":463639,"DIS_CODE":0,"TOWNNAME":"安南區","LI":"溪頂里","LIN":"5鄰","STREET":"府安路","SECT":"四段","MAREA":" ","LANE":" ","ALLEY":" ","HOUSE_NO":"１３４號","E_COORD97":168916.92000000001,"N_COORD97":2547266.1299999999,"ADDRESS":"府安路四段１３４號","OBJECTID":463614},"geometry":{"x":168916.91999999993,"y":2547266.129999999}},{"attributes":{"ID":463640,"DIS_CODE":0,"TOWNNAME":"安南區","LI":"溪頂里","LIN":"5鄰","STREET":"府安路","SECT":"四段","MAREA":" ","LANE":" ","ALLEY":" ","HOUSE_NO":"１３５號","E_COORD97":168912.70000000001,"N_COORD97":2547265.5899999999,"ADDRESS":"府安路四段１３５號","OBJECTID":463615},"geometry":{"x":168912.70000000112,"y":2547265.5900000017}},{"attributes":{"ID":463641,"DIS_CODE":0,"TOWNNAME":"安南區","LI":"溪頂里","LIN":"5鄰","STREET":"府安路","SECT":"四段","MAREA":" ","LANE":" ","ALLEY":" ","HOUSE_NO":"１３６號","E_COORD97":168905.76000000001,"N_COORD97":2547265.1499999999,"ADDRESS":"府安路四段１３６號","OBJECTID":463616},"geometry":{"x":168905.75999999978,"y":2547265.1500000022}},{"attributes":{"ID":463642,"DIS_CODE":0,"TOWNNAME":"安南區","LI":"溪頂里","LIN":"5鄰","STREET":"府安路","SECT":"四段","MAREA":" ","LANE":" ","ALLEY":" ","HOUSE_NO":"１３８號","E_COORD97":168899.14999999999,"N_COORD97":2547265.54,"ADDRESS":"府安路四段１３８號","OBJECTID":463617},"geometry":{"x":168899.14999999944,"y":2547265.540000001}},{"attributes":{"ID":463643,"DIS_CODE":0,"TOWNNAME":"善化區","LI":"西關里","LIN":"5鄰","STREET":"三民路","SECT":" ","MAREA":" ","LANE":" ","ALLEY":" ","HOUSE_NO":"７４號之１","E_COORD97":177125.37,"N_COORD97":2559122.02,"ADDRESS":"三民路７４號之１","OBJECTID":463618},"geometry":{"x":177125.37000000011,"y":2559122.0200000014}},{"attributes":{"ID":463644,"DIS_CODE":0,"TOWNNAME":"善化區","LI":"坐駕里","LIN":"5鄰","STREET":"中正路","SECT":" ","MAREA":" ","LANE":" ","ALLEY":" ","HOUSE_NO":"４１０號","E_COORD97":177709.14000000001,"N_COORD97":2558843.75,"ADDRESS":"中正路４１０號","OBJECTID":463619},"geometry":{"x":177709.1400000006,"y":2558843.75}},{"attributes":{"ID":463645,"DIS_CODE":0,"TOWNNAME":"善化區","LI":"西關里","LIN":"5鄰","STREET":"三民路","SECT":" ","MAREA":" ","LANE":" ","ALLEY":" ","HOUSE_NO":"７２號","E_COORD97":177123.29000000001,"N_COORD97":2559112.0099999998,"ADDRESS":"三民路７２號","OBJECTID":463620},"geometry":{"x":177123.29000000097,"y":2559112.0100000016}},{"attributes":{"ID":463646,"DIS_CODE":0,"TOWNNAME":"善化區","LI":"坐駕里","LIN":"5鄰","STREET":"中正路","SECT":" ","MAREA":" ","LANE":" ","ALLEY":" ","HOUSE_NO":"３９６號","E_COORD97":177702.51999999999,"N_COORD97":2558812.25,"ADDRESS":"中正路３９６號","OBJECTID":463621},"geometry":{"x":177702.52000000048,"y":2558812.2500000019}},{"attributes":{"ID":463647,"DIS_CODE":0,"TOWNNAME":"善化區","LI":"西關里","LIN":"5鄰","STREET":"中山路","SECT":" ","MAREA":" ","LANE":" ","ALLEY":" ","HOUSE_NO":"５０５號","E_COORD97":177156.53,"N_COORD97":2559133.5,"ADDRESS":"中山路５０５號","OBJECTID":463622},"geometry":{"x":177156.53000000026,"y":2559133.5}},{"attributes":{"ID":463648,"DIS_CODE":0,"TOWNNAME":"善化區","LI":"北關里","LIN":"5鄰","STREET":"中山路","SECT":" ","MAREA":" ","LANE":" ","ALLEY":" ","HOUSE_NO":"５０８號","E_COORD97":177173.72,"N_COORD97":2559171.25,"ADDRESS":"中山路５０８號","OBJECTID":463623},"geometry":{"x":177173.71999999974,"y":2559171.2500000019}},{"attributes":{"ID":463649,"DIS_CODE":0,"TOWNNAME":"善化區","LI":"北關里","LIN":"5鄰","STREET":"中山路","SECT":" ","MAREA":" ","LANE":" ","ALLEY":" ","HOUSE_NO":"５１４號","E_COORD97":177160.26000000001,"N_COORD97":2559154.5,"ADDRESS":"中山路５１４號","OBJECTID":463624},"geometry":{"x":177160.26000000164,"y":2559154.5}},{"attributes":{"ID":463650,"DIS_CODE":0,"TOWNNAME":"善化區","LI":"坐駕里","LIN":"5鄰","STREET":"民生路","SECT":" ","MAREA":" ","LANE":" ","ALLEY":" ","HOUSE_NO":"４１７號","E_COORD97":177863.16,"N_COORD97":2558859.0099999998,"ADDRESS":"民生路４１７號","OBJECTID":463625},"geometry":{"x":177863.16000000201,"y":2558859.0099999998}},{"attributes":{"ID":463651,"DIS_CODE":0,"TOWNNAME":"善化區","LI":"坐駕里","LIN":"5鄰","STREET":"民生路","SECT":" ","MAREA":" ","LANE":" ","ALLEY":" ","HOUSE_NO":"４１９號","E_COORD97":177856.03,"N_COORD97":2558857.7599999998,"ADDRESS":"民生路４１９號","OBJECTID":463626},"geometry":{"x":177856.03000000119,"y":2558857.7599999998}},{"attributes":{"ID":463652,"DIS_CODE":0,"TOWNNAME":"善化區","LI":"北關里","LIN":"5鄰","STREET":"三民路","SECT":" ","MAREA":" ","LANE":" ","ALLEY":" ","HOUSE_NO":"７８號","E_COORD97":177136.32999999999,"N_COORD97":2559164.7599999998,"ADDRESS":"三民路７８號","OBJECTID":463627},"geometry":{"x":177136.33000000194,"y":2559164.7600000016}},{"attributes":{"ID":463653,"DIS_CODE":0,"TOWNNAME":"善化區","LI":"東關里","LIN":"5鄰","STREET":"中山路","SECT":" ","MAREA":" ","LANE":" ","ALLEY":" ","HOUSE_NO":"４４６號","E_COORD97":177339.01000000001,"N_COORD97":2559129.75,"ADDRESS":"中山路４４６號","OBJECTID":463628},"geometry":{"x":177339.01000000071,"y":2559129.75}},{"attributes":{"ID":463654,"DIS_CODE":0,"TOWNNAME":"永康區","LI":"復興里","LIN":"5鄰","STREET":"復興路","SECT":" ","MAREA":" ","LANE":" ","ALLEY":" ","HOUSE_NO":"４１３號","E_COORD97":172094.67999999999,"N_COORD97":2544290.3500000001,"ADDRESS":"復興路４１３號","OBJECTID":463629},"geometry":{"x":172094.6799999997,"y":2544290.3500000015}},{"attributes":{"ID":463655,"DIS_CODE":0,"TOWNNAME":"永康區","LI":"復興里","LIN":"5鄰","STREET":"復興路","SECT":" ","MAREA":" ","LANE":" ","ALLEY":" ","HOUSE_NO":"４１９號","E_COORD97":172095.88,"N_COORD97":2544273.1099999999,"ADDRESS":"復興路４１９號","OBJECTID":463630},"geometry":{"x":172095.87999999896,"y":2544273.1099999994}},{"attributes":{"ID":463656,"DIS_CODE":0,"TOWNNAME":"永康區","LI":"新樹里","LIN":"5鄰","STREET":"西勢路","SECT":" ","MAREA":" ","LANE":" ","ALLEY":" ","HOUSE_NO":"２０８號","E_COORD97":175788.63,"N_COORD97":2546775.4100000001,"ADDRESS":"西勢路２０８號","OBJECTID":463631},"geometry":{"x":175788.63000000082,"y":2546775.410000002}},{"attributes":{"ID":463657,"DIS_CODE":0,"TOWNNAME":"善化區","LI":"南關里","LIN":"5鄰","STREET":"文昌路","SECT":" ","MAREA":" ","LANE":" ","ALLEY":" ","HOUSE_NO":"６０號","E_COORD97":177101.42000000001,"N_COORD97":2558672.2799999998,"ADDRESS":"文昌路６０號","OBJECTID":463632},"geometry":{"x":177101.41999999993,"y":2558672.2800000012}},{"attributes":{"ID":463658,"DIS_CODE":0,"TOWNNAME":"善化區","LI":"南關里","LIN":"5鄰","STREET":"三民路","SECT":" ","MAREA":" ","LANE":" ","ALLEY":" ","HOUSE_NO":"４號之１１","E_COORD97":177031.37,"N_COORD97":2558697.77,"ADDRESS":"三民路４號之１１","OBJECTID":463633},"geometry":{"x":177031.37000000104,"y":2558697.7699999996}},{"attributes":{"ID":463659,"DIS_CODE":0,"TOWNNAME":"善化區","LI":"東關里","LIN":"5鄰","STREET":"中山路","SECT":" ","MAREA":" ","LANE":" ","ALLEY":" ","HOUSE_NO":"４３６號","E_COORD97":177360.07999999999,"N_COORD97":2559126,"ADDRESS":"中山路４３６號","OBJECTID":463634},"geometry":{"x":177360.08000000194,"y":2559126.0000000019}},{"attributes":{"ID":463660,"DIS_CODE":0,"TOWNNAME":"善化區","LI":"南關里","LIN":"5鄰","STREET":"永安路","SECT":" ","MAREA":" ","LANE":" ","ALLEY":" ","HOUSE_NO":"９９號","E_COORD97":177074.26000000001,"N_COORD97":2558795.02,"ADDRESS":"永安路９９號","OBJECTID":463635},"geometry":{"x":177074.26000000071,"y":2558795.0199999996}},{"attributes":{"ID":463661,"DIS_CODE":0,"TOWNNAME":"善化區","LI":"東關里","LIN":"5鄰","STREET":"中山路","SECT":" ","MAREA":" ","LANE":" ","ALLEY":" ","HOUSE_NO":"４４２號","E_COORD97":177348.01000000001,"N_COORD97":2559128,"ADDRESS":"中山路４４２號","OBJECTID":463636},"geometry":{"x":177348.00999999978,"y":2559128}},{"attributes":{"ID":463662,"DIS_CODE":0,"TOWNNAME":"善化區","LI":"坐駕里","LIN":"5鄰","STREET":"青年路","SECT":" ","MAREA":" ","LANE":" ","ALLEY":" ","HOUSE_NO":"１１５號","E_COORD97":177840.38,"N_COORD97":2558839.75,"ADDRESS":"青年路１１５號","OBJECTID":463637},"geometry":{"x":177840.37999999989,"y":2558839.7500000019}},{"attributes":{"ID":463663,"DIS_CODE":0,"TOWNNAME":"善化區","LI":"東關里","LIN":"5鄰","STREET":"中山路","SECT":" ","MAREA":" ","LANE":" ","ALLEY":" ","HOUSE_NO":"４３４號","E_COORD97":177363.92000000001,"N_COORD97":2559125.5,"ADDRESS":"中山路４３４號","OBJECTID":463638},"geometry":{"x":177363.91999999993,"y":2559125.5000000019}},{"attributes":{"ID":463664,"DIS_CODE":0,"TOWNNAME":"善化區","LI":"東關里","LIN":"5鄰","STREET":"中山路","SECT":" ","MAREA":" ","LANE":" ","ALLEY":" ","HOUSE_NO":"４２８號","E_COORD97":177377.28,"N_COORD97":2559123.5,"ADDRESS":"中山路４２８號","OBJECTID":463639},"geometry":{"x":177377.28000000026,"y":2559123.5}},{"attributes":{"ID":463665,"DIS_CODE":0,"TOWNNAME":"善化區","LI":"南關里","LIN":"5鄰","STREET":"三民路","SECT":" ","MAREA":" ","LANE":" ","ALLEY":" ","HOUSE_NO":"６號之５","E_COORD97":177074.87,"N_COORD97":2558838.02,"ADDRESS":"三民路６號之５","OBJECTID":463640},"geometry":{"x":177074.87000000011,"y":2558838.0199999996}},{"attributes":{"ID":463666,"DIS_CODE":0,"TOWNNAME":"善化區","LI":"南關里","LIN":"5鄰","STREET":"永福路","SECT":" ","MAREA":" ","LANE":" ","ALLEY":" ","HOUSE_NO":"１８９號","E_COORD97":177121.35999999999,"N_COORD97":2558726.25,"ADDRESS":"永福路１８９號","OBJECTID":463641},"geometry":{"x":177121.36000000127,"y":2558726.25}},{"attributes":{"ID":463667,"DIS_CODE":0,"TOWNNAME":"善化區","LI":"南關里","LIN":"5鄰","STREET":"三民路","SECT":" ","MAREA":" ","LANE":" ","ALLEY":" ","HOUSE_NO":"１４號之１６","E_COORD97":177013.89000000001,"N_COORD97":2558644.02,"ADDRESS":"三民路１４號之１６","OBJECTID":463642},"geometry":{"x":177013.8900000006,"y":2558644.0200000014}},{"attributes":{"ID":463668,"DIS_CODE":0,"TOWNNAME":"善化區","LI":"東關里","LIN":"5鄰","STREET":"中山路","SECT":" ","MAREA":" ","LANE":" ","ALLEY":" ","HOUSE_NO":"４２４號","E_COORD97":177387.92000000001,"N_COORD97":2559122.25,"ADDRESS":"中山路４２４號","OBJECTID":463643},"geometry":{"x":177387.91999999993,"y":2559122.25}},{"attributes":{"ID":463669,"DIS_CODE":0,"TOWNNAME":"善化區","LI":"南關里","LIN":"5鄰","STREET":"三民路","SECT":" ","MAREA":" ","LANE":" ","ALLEY":" ","HOUSE_NO":"１２號之１","E_COORD97":177096.41,"N_COORD97":2558843.52,"ADDRESS":"三民路１２號之１","OBJECTID":463644},"geometry":{"x":177096.41000000015,"y":2558843.5200000014}},{"attributes":{"ID":463670,"DIS_CODE":0,"TOWNNAME":"善化區","LI":"東關里","LIN":"5鄰","STREET":"中山路","SECT":" ","MAREA":" ","LANE":" ","ALLEY":" ","HOUSE_NO":"４４４號","E_COORD97":177343.70999999999,"N_COORD97":2559129.5,"ADDRESS":"中山路４４４號","OBJECTID":463645},"geometry":{"x":177343.70999999903,"y":2559129.5000000019}},{"attributes":{"ID":463671,"DIS_CODE":0,"TOWNNAME":"善化區","LI":"南關里","LIN":"5鄰","STREET":"三民路","SECT":" ","MAREA":" ","LANE":" ","ALLEY":" ","HOUSE_NO":"６號之４","E_COORD97":177074.20999999999,"N_COORD97":2558834.02,"ADDRESS":"三民路６號之４","OBJECTID":463646},"geometry":{"x":177074.20999999903,"y":2558834.0200000014}},{"attributes":{"ID":463672,"DIS_CODE":0,"TOWNNAME":"善化區","LI":"東關里","LIN":"5鄰","STREET":"中山路","SECT":" ","MAREA":" ","LANE":" ","ALLEY":" ","HOUSE_NO":"４２０號","E_COORD97":177395.53,"N_COORD97":2559121.75,"ADDRESS":"中山路４２０號","OBJECTID":463647},"geometry":{"x":177395.53000000026,"y":2559121.75}},{"attributes":{"ID":463673,"DIS_CODE":0,"TOWNNAME":"善化區","LI":"南關里","LIN":"5鄰","STREET":"三民路","SECT":" ","MAREA":" ","LANE":" ","ALLEY":" ","HOUSE_NO":"６號之１","E_COORD97":177071.47,"N_COORD97":2558821.77,"ADDRESS":"三民路６號之１","OBJECTID":463648},"geometry":{"x":177071.46999999974,"y":2558821.7700000014}},{"attributes":{"ID":463674,"DIS_CODE":0,"TOWNNAME":"善化區","LI":"東關里","LIN":"5鄰","STREET":"中山路","SECT":" ","MAREA":" ","LANE":" ","ALLEY":" ","HOUSE_NO":"４３８號","E_COORD97":177355.72,"N_COORD97":2559126.75,"ADDRESS":"中山路４３８號","OBJECTID":463649},"geometry":{"x":177355.72000000067,"y":2559126.7500000037}},{"attributes":{"ID":463675,"DIS_CODE":0,"TOWNNAME":"善化區","LI":"南關里","LIN":"5鄰","STREET":"文昌路","SECT":" ","MAREA":" ","LANE":" ","ALLEY":" ","HOUSE_NO":"６４號","E_COORD97":177092.01000000001,"N_COORD97":2558663.2799999998,"ADDRESS":"文昌路６４號","OBJECTID":463650},"geometry":{"x":177092.00999999978,"y":2558663.2799999993}},{"attributes":{"ID":463676,"DIS_CODE":0,"TOWNNAME":"善化區","LI":"南關里","LIN":"5鄰","STREET":"三民路","SECT":" ","MAREA":" ","LANE":" ","ALLEY":" ","HOUSE_NO":"４號之６","E_COORD97":177049.64999999999,"N_COORD97":2558667.7599999998,"ADDRESS":"三民路４號之６","OBJECTID":463651},"geometry":{"x":177049.65000000224,"y":2558667.7599999998}},{"attributes":{"ID":463677,"DIS_CODE":0,"TOWNNAME":"善化區","LI":"南關里","LIN":"5鄰","STREET":"自由路","SECT":" ","MAREA":" ","LANE":" ","ALLEY":" ","HOUSE_NO":"１０７號","E_COORD97":177104.44,"N_COORD97":2558864.75,"ADDRESS":"自由路１０７號","OBJECTID":463652},"geometry":{"x":177104.44000000134,"y":2558864.75}},{"attributes":{"ID":463678,"DIS_CODE":0,"TOWNNAME":"善化區","LI":"南關里","LIN":"5鄰","STREET":"永安路","SECT":" ","MAREA":" ","LANE":" ","ALLEY":" ","HOUSE_NO":"９７號","E_COORD97":177075.60999999999,"N_COORD97":2558791.27,"ADDRESS":"永安路９７號","OBJECTID":463653},"geometry":{"x":177075.61000000127,"y":2558791.2700000014}},{"attributes":{"ID":463679,"DIS_CODE":0,"TOWNNAME":"善化區","LI":"南關里","LIN":"5鄰","STREET":"三民路","SECT":" ","MAREA":" ","LANE":" ","ALLEY":" ","HOUSE_NO":"４號之４","E_COORD97":177054.56,"N_COORD97":2558683.27,"ADDRESS":"三民路４號之４","OBJECTID":463654},"geometry":{"x":177054.56000000145,"y":2558683.2700000014}},{"attributes":{"ID":463680,"DIS_CODE":0,"TOWNNAME":"善化區","LI":"南關里","LIN":"5鄰","STREET":"永福路","SECT":" ","MAREA":" ","LANE":" ","ALLEY":" ","HOUSE_NO":"１８７號","E_COORD97":177125.48000000001,"N_COORD97":2558727.75,"ADDRESS":"永福路１８７號","OBJECTID":463655},"geometry":{"x":177125.48000000231,"y":2558727.7500000019}},{"attributes":{"ID":463681,"DIS_CODE":0,"TOWNNAME":"善化區","LI":"南關里","LIN":"5鄰","STREET":"三民路","SECT":" ","MAREA":" ","LANE":" ","ALLEY":" ","HOUSE_NO":"８號之２","E_COORD97":177099.25,"N_COORD97":2558834.27,"ADDRESS":"三民路８號之２","OBJECTID":463656},"geometry":{"x":177099.25,"y":2558834.2699999977}},{"attributes":{"ID":463682,"DIS_CODE":0,"TOWNNAME":"善化區","LI":"南關里","LIN":"5鄰","STREET":"三民路","SECT":" ","MAREA":" ","LANE":" ","ALLEY":" ","HOUSE_NO":"１２號","E_COORD97":177105.14000000001,"N_COORD97":2558842.7599999998,"ADDRESS":"三民路１２號","OBJECTID":463657},"geometry":{"x":177105.1400000006,"y":2558842.7600000016}},{"attributes":{"ID":463683,"DIS_CODE":0,"TOWNNAME":"善化區","LI":"南關里","LIN":"5鄰","STREET":"三民路","SECT":" ","MAREA":" ","LANE":" ","ALLEY":" ","HOUSE_NO":"４號之２","E_COORD97":177043.89999999999,"N_COORD97":2558732.27,"ADDRESS":"三民路４號之２","OBJECTID":463658},"geometry":{"x":177043.90000000037,"y":2558732.2699999996}},{"attributes":{"ID":463684,"DIS_CODE":0,"TOWNNAME":"善化區","LI":"南關里","LIN":"5鄰","STREET":"三民路","SECT":" ","MAREA":" ","LANE":" ","ALLEY":" ","HOUSE_NO":"４之８號","E_COORD97":177035.97,"N_COORD97":2558705.27,"ADDRESS":"三民路４之８號","OBJECTID":463659},"geometry":{"x":177035.96999999974,"y":2558705.2699999996}},{"attributes":{"ID":463685,"DIS_CODE":0,"TOWNNAME":"善化區","LI":"南關里","LIN":"5鄰","STREET":"三民路","SECT":" ","MAREA":" ","LANE":" ","ALLEY":" ","HOUSE_NO":"４之７號","E_COORD97":177037.10000000001,"N_COORD97":2558709.77,"ADDRESS":"三民路４之７號","OBJECTID":463660},"geometry":{"x":177037.09999999963,"y":2558709.7700000014}},{"attributes":{"ID":463686,"DIS_CODE":0,"TOWNNAME":"善化區","LI":"南關里","LIN":"5鄰","STREET":"三民路","SECT":" ","MAREA":" ","LANE":" ","ALLEY":" ","HOUSE_NO":"１４號（已半毀）","E_COORD97":177074.89000000001,"N_COORD97":2558857.7599999998,"ADDRESS":"三民路１４號（已半毀）","OBJECTID":463661},"geometry":{"x":177074.8900000006,"y":2558857.7599999998}},{"attributes":{"ID":463687,"DIS_CODE":0,"TOWNNAME":"善化區","LI":"南關里","LIN":"5鄰","STREET":"自由路","SECT":" ","MAREA":" ","LANE":" ","ALLEY":" ","HOUSE_NO":"１０３號","E_COORD97":177123.85000000001,"N_COORD97":2558860,"ADDRESS":"自由路１０３號","OBJECTID":463662},"geometry":{"x":177123.85000000149,"y":2558860}},{"attributes":{"ID":463688,"DIS_CODE":0,"TOWNNAME":"善化區","LI":"東關里","LIN":"5鄰","STREET":"中山路","SECT":" ","MAREA":" ","LANE":" ","ALLEY":" ","HOUSE_NO":"４２２號","E_COORD97":177391.82999999999,"N_COORD97":2559121.5,"ADDRESS":"中山路４２２號","OBJECTID":463663},"geometry":{"x":177391.83000000007,"y":2559121.5000000037}},{"attributes":{"ID":463689,"DIS_CODE":0,"TOWNNAME":"善化區","LI":"坐駕里","LIN":"5鄰","STREET":"青年路","SECT":" ","MAREA":" ","LANE":" ","ALLEY":" ","HOUSE_NO":"１１３號","E_COORD97":177841.26999999999,"N_COORD97":2558833,"ADDRESS":"青年路１１３號","OBJECTID":463664},"geometry":{"x":177841.26999999862,"y":2558833}},{"attributes":{"ID":463690,"DIS_CODE":0,"TOWNNAME":"善化區","LI":"坐駕里","LIN":"5鄰","STREET":"青年路","SECT":" ","MAREA":" ","LANE":" ","ALLEY":" ","HOUSE_NO":"１１７號","E_COORD97":177837.42000000001,"N_COORD97":2558848.75,"ADDRESS":"青年路１１７號","OBJECTID":463665},"geometry":{"x":177837.42000000179,"y":2558848.7500000037}},{"attributes":{"ID":463691,"DIS_CODE":0,"TOWNNAME":"善化區","LI":"東關里","LIN":"5鄰","STREET":"中山路","SECT":" ","MAREA":" ","LANE":" ","ALLEY":" ","HOUSE_NO":"４５０號","E_COORD97":177341.35999999999,"N_COORD97":2559155,"ADDRESS":"中山路４５０號","OBJECTID":463666},"geometry":{"x":177341.36000000034,"y":2559155}},{"attributes":{"ID":463692,"DIS_CODE":0,"TOWNNAME":"善化區","LI":"東關里","LIN":"5鄰","STREET":"中山路","SECT":" ","MAREA":" ","LANE":" ","ALLEY":" ","HOUSE_NO":"４３２號","E_COORD97":177368.53,"N_COORD97":2559124.75,"ADDRESS":"中山路４３２號","OBJECTID":463667},"geometry":{"x":177368.53000000026,"y":2559124.7500000019}},{"attributes":{"ID":463693,"DIS_CODE":0,"TOWNNAME":"安南區","LI":"幸福里","LIN":"5鄰","STREET":"國安街","SECT":" ","MAREA":" ","LANE":" ","ALLEY":" ","HOUSE_NO":"１２７號","E_COORD97":166820.79999999999,"N_COORD97":2546959.8700000001,"ADDRESS":"國安街１２７號","OBJECTID":463668},"geometry":{"x":166820.79999999981,"y":2546959.8700000029}},{"attributes":{"ID":463694,"DIS_CODE":0,"TOWNNAME":"安南區","LI":"幸福里","LIN":"5鄰","STREET":"國安街","SECT":" ","MAREA":" ","LANE":" ","ALLEY":" ","HOUSE_NO":"１３１號","E_COORD97":166810.82999999999,"N_COORD97":2546958.5299999998,"ADDRESS":"國安街１３１號","OBJECTID":463669},"geometry":{"x":166810.82999999914,"y":2546958.5299999993}},{"attributes":{"ID":463695,"DIS_CODE":0,"TOWNNAME":"安南區","LI":"幸福里","LIN":"5鄰","STREET":"國安街","SECT":" ","MAREA":" ","LANE":" ","ALLEY":" ","HOUSE_NO":"１３３號","E_COORD97":166805.85000000001,"N_COORD97":2546957.6800000002,"ADDRESS":"國安街１３３號","OBJECTID":463670},"geometry":{"x":166805.85000000056,"y":2546957.6799999997}},{"attributes":{"ID":463696,"DIS_CODE":0,"TOWNNAME":"安南區","LI":"幸福里","LIN":"5鄰","STREET":"國安街","SECT":" ","MAREA":" ","LANE":" ","ALLEY":" ","HOUSE_NO":"１３５號","E_COORD97":166800.13,"N_COORD97":2546957.0699999998,"ADDRESS":"國安街１３５號","OBJECTID":463671},"geometry":{"x":166800.12999999896,"y":2546957.0700000022}},{"attributes":{"ID":463697,"DIS_CODE":0,"TOWNNAME":"安南區","LI":"幸福里","LIN":"5鄰","STREET":"國安街","SECT":" ","MAREA":" ","LANE":" ","ALLEY":" ","HOUSE_NO":"１３７號","E_COORD97":166794.66,"N_COORD97":2546956.3399999999,"ADDRESS":"國安街１３７號","OBJECTID":463672},"geometry":{"x":166794.66000000015,"y":2546956.3399999999}},{"attributes":{"ID":463698,"DIS_CODE":0,"TOWNNAME":"永康區","LI":"三合里","LIN":"5鄰","STREET":"南工街","SECT":" ","MAREA":" ","LANE":" ","ALLEY":" ","HOUSE_NO":"８６號","E_COORD97":172104.26000000001,"N_COORD97":2545695.8700000001,"ADDRESS":"南工街８６號","OBJECTID":463673},"geometry":{"x":172104.26000000071,"y":2545695.8700000029}},{"attributes":{"ID":463699,"DIS_CODE":0,"TOWNNAME":"永康區","LI":"三合里","LIN":"5鄰","STREET":"南工街","SECT":" ","MAREA":" ","LANE":" ","ALLEY":" ","HOUSE_NO":"７８號","E_COORD97":172104.87,"N_COORD97":2545677.5800000001,"ADDRESS":"南工街７８號","OBJECTID":463674},"geometry":{"x":172104.87000000197,"y":2545677.5800000001}},{"attributes":{"ID":463700,"DIS_CODE":0,"TOWNNAME":"永康區","LI":"二王里","LIN":"5鄰","STREET":"永二街","SECT":" ","MAREA":" ","LANE":" ","ALLEY":" ","HOUSE_NO":"３５２號","E_COORD97":172944.20999999999,"N_COORD97":2546643,"ADDRESS":"永二街３５２號","OBJECTID":463675},"geometry":{"x":172944.20999999996,"y":2546643.0000000019}},{"attributes":{"ID":463701,"DIS_CODE":0,"TOWNNAME":"永康區","LI":"永康里","LIN":"5鄰","STREET":"永中街","SECT":" ","MAREA":" ","LANE":" ","ALLEY":" ","HOUSE_NO":"９５號","E_COORD97":173954.78,"N_COORD97":2547284.4900000002,"ADDRESS":"永中街９５號","OBJECTID":463676},"geometry":{"x":173954.78000000026,"y":2547284.4900000002}},{"attributes":{"ID":463702,"DIS_CODE":0,"TOWNNAME":"安南區","LI":"安慶里","LIN":"5鄰","STREET":"怡安路","SECT":"一段","MAREA":" ","LANE":" ","ALLEY":" ","HOUSE_NO":"２８６號","E_COORD97":168976.98000000001,"N_COORD97":2549113.7799999998,"ADDRESS":"怡安路一段２８６號","OBJECTID":463677},"geometry":{"x":168976.98000000138,"y":2549113.7799999975}},{"attributes":{"ID":463703,"DIS_CODE":0,"TOWNNAME":"安南區","LI":"幸福里","LIN":"5鄰","STREET":"國安街","SECT":" ","MAREA":" ","LANE":" ","ALLEY":" ","HOUSE_NO":"１２９號","E_COORD97":166816.17999999999,"N_COORD97":2546959.5,"ADDRESS":"國安街１２９號","OBJECTID":463678},"geometry":{"x":166816.1799999997,"y":2546959.5}},{"attributes":{"ID":463704,"DIS_CODE":0,"TOWNNAME":"安南區","LI":"城南里","LIN":"5鄰","STREET":"城西街","SECT":"一段","MAREA":" ","LANE":" ","ALLEY":" ","HOUSE_NO":"２１２號","E_COORD97":160430.34,"N_COORD97":2551251.8599999999,"ADDRESS":"城西街一段２１２號","OBJECTID":463679},"geometry":{"x":160430.34000000078,"y":2551251.8599999994}},{"attributes":{"ID":463705,"DIS_CODE":0,"TOWNNAME":"安南區","LI":"淵東里","LIN":"5鄰","STREET":"本原街","SECT":"三段","MAREA":" ","LANE":" ","ALLEY":" ","HOUSE_NO":"１４８號","E_COORD97":165539.39999999999,"N_COORD97":2550370.8900000001,"ADDRESS":"本原街三段１４８號","OBJECTID":463680},"geometry":{"x":165539.40000000224,"y":2550370.8900000006}},{"attributes":{"ID":463706,"DIS_CODE":0,"TOWNNAME":"安南區","LI":"城東里","LIN":"5鄰","STREET":"城北路","SECT":" ","MAREA":" ","LANE":" ","ALLEY":" ","HOUSE_NO":"１５８號","E_COORD97":161017.62,"N_COORD97":2551707.4199999999,"ADDRESS":"城北路１５８號","OBJECTID":463681},"geometry":{"x":161017.62000000011,"y":2551707.4200000037}},{"attributes":{"ID":463707,"DIS_CODE":0,"TOWNNAME":"安南區","LI":"安慶里","LIN":"5鄰","STREET":"怡安路","SECT":"一段","MAREA":" ","LANE":" ","ALLEY":" ","HOUSE_NO":"２３０號","E_COORD97":169125.70000000001,"N_COORD97":2549072.29,"ADDRESS":"怡安路一段２３０號","OBJECTID":463682},"geometry":{"x":169125.70000000019,"y":2549072.2899999991}},{"attributes":{"ID":463708,"DIS_CODE":0,"TOWNNAME":"安南區","LI":"安慶里","LIN":"5鄰","STREET":"怡安路","SECT":"一段","MAREA":" ","LANE":" ","ALLEY":" ","HOUSE_NO":"２８５號","E_COORD97":168979.25,"N_COORD97":2549076.4300000002,"ADDRESS":"怡安路一段２８５號","OBJECTID":463683},"geometry":{"x":168979.25,"y":2549076.4300000016}},{"attributes":{"ID":463709,"DIS_CODE":0,"TOWNNAME":"安南區","LI":"安慶里","LIN":"5鄰","STREET":"怡安路","SECT":"一段","MAREA":" ","LANE":" ","ALLEY":" ","HOUSE_NO":"２８７號","E_COORD97":168974.53,"N_COORD97":2549076.2799999998,"ADDRESS":"怡安路一段２８７號","OBJECTID":463684},"geometry":{"x":168974.53000000212,"y":2549076.2799999993}},{"attributes":{"ID":463710,"DIS_CODE":0,"TOWNNAME":"安南區","LI":"南興里","LIN":"5鄰","STREET":"安興街","SECT":" ","MAREA":" ","LANE":" ","ALLEY":" ","HOUSE_NO":"３５４號","E_COORD97":163798.91,"N_COORD97":2552346.23,"ADDRESS":"安興街３５４號","OBJECTID":463685},"geometry":{"x":163798.91000000108,"y":2552346.2300000004}},{"attributes":{"ID":463711,"DIS_CODE":0,"TOWNNAME":"安南區","LI":"南興里","LIN":"5鄰","STREET":"安興街","SECT":" ","MAREA":" ","LANE":" ","ALLEY":" ","HOUSE_NO":"３５６號","E_COORD97":163795.73000000001,"N_COORD97":2552343.3700000001,"ADDRESS":"安興街３５６號","OBJECTID":463686},"geometry":{"x":163795.73000000045,"y":2552343.3700000029}},{"attributes":{"ID":463712,"DIS_CODE":0,"TOWNNAME":"安南區","LI":"南興里","LIN":"5鄰","STREET":"安興街","SECT":" ","MAREA":" ","LANE":" ","ALLEY":" ","HOUSE_NO":"３５８號","E_COORD97":163791.98999999999,"N_COORD97":2552341.8700000001,"ADDRESS":"安興街３５８號","OBJECTID":463687},"geometry":{"x":163791.99000000022,"y":2552341.870000001}},{"attributes":{"ID":463713,"DIS_CODE":0,"TOWNNAME":"安南區","LI":"南興里","LIN":"5鄰","STREET":"安興街","SECT":" ","MAREA":" ","LANE":" ","ALLEY":" ","HOUSE_NO":"３６０號","E_COORD97":163787.94,"N_COORD97":2552340.3799999999,"ADDRESS":"安興街３６０號","OBJECTID":463688},"geometry":{"x":163787.94000000227,"y":2552340.3799999971}},{"attributes":{"ID":463714,"DIS_CODE":0,"TOWNNAME":"安南區","LI":"城南里","LIN":"5鄰","STREET":"城西街","SECT":"一段","MAREA":" ","LANE":" ","ALLEY":" ","HOUSE_NO":"２２６號之２","E_COORD97":160381.42999999999,"N_COORD97":2551234.2999999998,"ADDRESS":"城西街一段２２６號之２","OBJECTID":463689},"geometry":{"x":160381.4299999997,"y":2551234.3000000045}},{"attributes":{"ID":463715,"DIS_CODE":0,"TOWNNAME":"安南區","LI":"安慶里","LIN":"5鄰","STREET":"怡安路","SECT":"一段","MAREA":" ","LANE":" ","ALLEY":" ","HOUSE_NO":"２５２號","E_COORD97":169083.45999999999,"N_COORD97":2549089.04,"ADDRESS":"怡安路一段２５２號","OBJECTID":463690},"geometry":{"x":169083.46000000089,"y":2549089.040000001}},{"attributes":{"ID":463716,"DIS_CODE":0,"TOWNNAME":"安南區","LI":"安慶里","LIN":"5鄰","STREET":"怡安路","SECT":"一段","MAREA":" ","LANE":" ","ALLEY":" ","HOUSE_NO":"２５４號","E_COORD97":169078.59,"N_COORD97":2549089.7000000002,"ADDRESS":"怡安路一段２５４號","OBJECTID":463691},"geometry":{"x":169078.58999999985,"y":2549089.6999999993}},{"attributes":{"ID":463717,"DIS_CODE":0,"TOWNNAME":"安南區","LI":"安慶里","LIN":"5鄰","STREET":"怡安路","SECT":"一段","MAREA":" ","LANE":" ","ALLEY":" ","HOUSE_NO":"２５６號","E_COORD97":169074.10999999999,"N_COORD97":2549090.9399999999,"ADDRESS":"怡安路一段２５６號","OBJECTID":463692},"geometry":{"x":169074.1100000022,"y":2549090.9400000013}},{"attributes":{"ID":463718,"DIS_CODE":0,"TOWNNAME":"安南區","LI":"安慶里","LIN":"5鄰","STREET":"怡安路","SECT":"一段","MAREA":" ","LANE":" ","ALLEY":" ","HOUSE_NO":"２５８號","E_COORD97":169069.91,"N_COORD97":2549090.8500000001,"ADDRESS":"怡安路一段２５８號","OBJECTID":463693},"geometry":{"x":169069.91000000015,"y":2549090.8500000015}},{"attributes":{"ID":463719,"DIS_CODE":0,"TOWNNAME":"安南區","LI":"安慶里","LIN":"5鄰","STREET":"怡安路","SECT":"一段","MAREA":" ","LANE":" ","ALLEY":" ","HOUSE_NO":"２６０號","E_COORD97":169065.04000000001,"N_COORD97":2549091.3199999998,"ADDRESS":"怡安路一段２６０號","OBJECTID":463694},"geometry":{"x":169065.04000000004,"y":2549091.3200000022}},{"attributes":{"ID":463720,"DIS_CODE":0,"TOWNNAME":"安南區","LI":"安慶里","LIN":"5鄰","STREET":"怡安路","SECT":"一段","MAREA":" ","LANE":" ","ALLEY":" ","HOUSE_NO":"２６０號之１","E_COORD97":169060.45999999999,"N_COORD97":2549092.3399999999,"ADDRESS":"怡安路一段２６０號之１","OBJECTID":463695},"geometry":{"x":169060.45999999996,"y":2549092.3399999999}},{"attributes":{"ID":463721,"DIS_CODE":0,"TOWNNAME":"安南區","LI":"青草里","LIN":"5鄰","STREET":"青砂街","SECT":"二段","MAREA":" ","LANE":" ","ALLEY":" ","HOUSE_NO":"４４２號之１","E_COORD97":158847.44,"N_COORD97":2552951.6000000001,"ADDRESS":"青砂街二段４４２號之１","OBJECTID":463696},"geometry":{"x":158847.44000000041,"y":2552951.6000000015}},{"attributes":{"ID":463722,"DIS_CODE":0,"TOWNNAME":"安南區","LI":"安慶里","LIN":"5鄰","STREET":"怡安路","SECT":"一段","MAREA":" ","LANE":" ","ALLEY":" ","HOUSE_NO":"２０８號","E_COORD97":169174.20999999999,"N_COORD97":2549063.1499999999,"ADDRESS":"怡安路一段２０８號","OBJECTID":463697},"geometry":{"x":169174.20999999996,"y":2549063.1500000022}},{"attributes":{"ID":463723,"DIS_CODE":0,"TOWNNAME":"東區","LI":"崇德里","LIN":"5鄰","STREET":"中華東路","SECT":"三段","MAREA":" ","LANE":" ","ALLEY":" ","HOUSE_NO":"１４３號","E_COORD97":170719.63,"N_COORD97":2542034.5899999999,"ADDRESS":"中華東路三段１４３號","OBJECTID":463698},"geometry":{"x":170719.63000000082,"y":2542034.5900000017}},{"attributes":{"ID":463724,"DIS_CODE":0,"TOWNNAME":"東區","LI":"崇德里","LIN":"5鄰","STREET":"中華東路","SECT":"三段","MAREA":" ","LANE":" ","ALLEY":" ","HOUSE_NO":"１４７號","E_COORD97":170711.20999999999,"N_COORD97":2542025.1499999999,"ADDRESS":"中華東路三段１４７號","OBJECTID":463699},"geometry":{"x":170711.21000000089,"y":2542025.1500000004}},{"attributes":{"ID":463725,"DIS_CODE":0,"TOWNNAME":"東區","LI":"崇德里","LIN":"5鄰","STREET":"中華東路","SECT":"三段","MAREA":" ","LANE":" ","ALLEY":" ","HOUSE_NO":"１７３號","E_COORD97":170656.29999999999,"N_COORD97":2541921.3900000001,"ADDRESS":"中華東路三段１７３號","OBJECTID":463700},"geometry":{"x":170656.30000000075,"y":2541921.3900000025}},{"attributes":{"ID":463726,"DIS_CODE":0,"TOWNNAME":"麻豆區","LI":"新建里","LIN":"5鄰","STREET":"中山路","SECT":" ","MAREA":" ","LANE":" ","ALLEY":" ","HOUSE_NO":"１５５號之１","E_COORD97":172609.95000000001,"N_COORD97":2564799.3599999999,"ADDRESS":"中山路１５５號之１","OBJECTID":463701},"geometry":{"x":172609.95000000112,"y":2564799.3599999994}},{"attributes":{"ID":463727,"DIS_CODE":0,"TOWNNAME":"麻豆區","LI":"新建里","LIN":"5鄰","STREET":"中山路","SECT":" ","MAREA":" ","LANE":" ","ALLEY":" ","HOUSE_NO":"１５５號之２","E_COORD97":172603.57999999999,"N_COORD97":2564798.4100000001,"ADDRESS":"中山路１５５號之２","OBJECTID":463702},"geometry":{"x":172603.58000000101,"y":2564798.410000002}},{"attributes":{"ID":463728,"DIS_CODE":0,"TOWNNAME":"麻豆區","LI":"新建里","LIN":"5鄰","STREET":"中山路","SECT":" ","MAREA":" ","LANE":" ","ALLEY":" ","HOUSE_NO":"１５５號之３","E_COORD97":172597.20999999999,"N_COORD97":2564797.46,"ADDRESS":"中山路１５５號之３","OBJECTID":463703},"geometry":{"x":172597.20999999903,"y":2564797.4600000009}},{"attributes":{"ID":463729,"DIS_CODE":0,"TOWNNAME":"麻豆區","LI":"新建里","LIN":"5鄰","STREET":"中山路","SECT":" ","MAREA":" ","LANE":" ","ALLEY":" ","HOUSE_NO":"１５５號之４","E_COORD97":172590.84,"N_COORD97":2564796.5099999998,"ADDRESS":"中山路１５５號之４","OBJECTID":463704},"geometry":{"x":172590.83999999985,"y":2564796.5099999998}},{"attributes":{"ID":463730,"DIS_CODE":0,"TOWNNAME":"麻豆區","LI":"新建里","LIN":"5鄰","STREET":"中山路","SECT":" ","MAREA":" ","LANE":" ","ALLEY":" ","HOUSE_NO":"１５５號之５","E_COORD97":172584.47,"N_COORD97":2564795.5600000001,"ADDRESS":"中山路１５５號之５","OBJECTID":463705},"geometry":{"x":172584.46999999974,"y":2564795.5600000005}},{"attributes":{"ID":463731,"DIS_CODE":0,"TOWNNAME":"麻豆區","LI":"新建里","LIN":"5鄰","STREET":"中山路","SECT":" ","MAREA":" ","LANE":" ","ALLEY":" ","HOUSE_NO":"１５５號之６","E_COORD97":172578.09,"N_COORD97":2564794.6099999999,"ADDRESS":"中山路１５５號之６","OBJECTID":463706},"geometry":{"x":172578.09000000078,"y":2564794.6099999994}},{"attributes":{"ID":463732,"DIS_CODE":0,"TOWNNAME":"麻豆區","LI":"新建里","LIN":"5鄰","STREET":"中山路","SECT":" ","MAREA":" ","LANE":" ","ALLEY":" ","HOUSE_NO":"１５５號之７","E_COORD97":172573.35000000001,"N_COORD97":2564808.0600000001,"ADDRESS":"中山路１５５號之７","OBJECTID":463707},"geometry":{"x":172573.34999999963,"y":2564808.0600000024}},{"attributes":{"ID":463733,"DIS_CODE":0,"TOWNNAME":"麻豆區","LI":"新建里","LIN":"5鄰","STREET":"中山路","SECT":" ","MAREA":" ","LANE":" ","ALLEY":" ","HOUSE_NO":"１５５號","E_COORD97":172626.12,"N_COORD97":2564805.4399999999,"ADDRESS":"中山路１５５號","OBJECTID":463708},"geometry":{"x":172626.12000000011,"y":2564805.4399999995}},{"attributes":{"ID":463734,"DIS_CODE":0,"TOWNNAME":"麻豆區","LI":"新建里","LIN":"5鄰","STREET":"中山路","SECT":" ","MAREA":" ","LANE":" ","ALLEY":" ","HOUSE_NO":"１５７號之１","E_COORD97":172602.85999999999,"N_COORD97":2564812.8999999999,"ADDRESS":"中山路１５７號之１","OBJECTID":463709},"geometry":{"x":172602.86000000034,"y":2564812.9000000022}},{"attributes":{"ID":463735,"DIS_CODE":0,"TOWNNAME":"麻豆區","LI":"新建里","LIN":"5鄰","STREET":"中山路","SECT":" ","MAREA":" ","LANE":" ","ALLEY":" ","HOUSE_NO":"１５７號之２","E_COORD97":172597.23999999999,"N_COORD97":2564812.9900000002,"ADDRESS":"中山路１５７號之２","OBJECTID":463710},"geometry":{"x":172597.23999999929,"y":2564812.9900000002}},{"attributes":{"ID":463736,"DIS_CODE":0,"TOWNNAME":"麻豆區","LI":"新建里","LIN":"5鄰","STREET":"中山路","SECT":" ","MAREA":" ","LANE":" ","ALLEY":" ","HOUSE_NO":"１６５號之２","E_COORD97":172531.39000000001,"N_COORD97":2564847.96,"ADDRESS":"中山路１６５號之２","OBJECTID":463711},"geometry":{"x":172531.39000000153,"y":2564847.9600000009}},{"attributes":{"ID":463737,"DIS_CODE":0,"TOWNNAME":"麻豆區","LI":"中興里","LIN":"5鄰","STREET":"中興街","SECT":" ","MAREA":" ","LANE":" ","ALLEY":" ","HOUSE_NO":"３３號","E_COORD97":172912.57999999999,"N_COORD97":2564572.3500000001,"ADDRESS":"中興街３３號","OBJECTID":463712},"geometry":{"x":172912.58000000101,"y":2564572.3499999996}},{"attributes":{"ID":463738,"DIS_CODE":0,"TOWNNAME":"麻豆區","LI":"中興里","LIN":"5鄰","STREET":"中興街","SECT":" ","MAREA":" ","LANE":" ","ALLEY":" ","HOUSE_NO":"３５號","E_COORD97":172913.31,"N_COORD97":2564567.1200000001,"ADDRESS":"中興街３５號","OBJECTID":463713},"geometry":{"x":172913.31000000145,"y":2564567.1200000029}},{"attributes":{"ID":463739,"DIS_CODE":0,"TOWNNAME":"麻豆區","LI":"新建里","LIN":"5鄰","STREET":"仁愛路","SECT":" ","MAREA":" ","LANE":" ","ALLEY":" ","HOUSE_NO":"２８號之２","E_COORD97":172588.38,"N_COORD97":2564760.4100000001,"ADDRESS":"仁愛路２８號之２","OBJECTID":463714},"geometry":{"x":172588.38000000082,"y":2564760.4099999983}},{"attributes":{"ID":463740,"DIS_CODE":0,"TOWNNAME":"麻豆區","LI":"新建里","LIN":"5鄰","STREET":"仁愛路","SECT":" ","MAREA":" ","LANE":" ","ALLEY":" ","HOUSE_NO":"２８號","E_COORD97":172604.17000000001,"N_COORD97":2564760.4100000001,"ADDRESS":"仁愛路２８號","OBJECTID":463715},"geometry":{"x":172604.16999999993,"y":2564760.4099999983}},{"attributes":{"ID":463741,"DIS_CODE":0,"TOWNNAME":"麻豆區","LI":"大埕里","LIN":"5鄰","STREET":"文昌路","SECT":" ","MAREA":" ","LANE":" ","ALLEY":" ","HOUSE_NO":"２３號之１０","E_COORD97":173442.20000000001,"N_COORD97":2565072.5299999998,"ADDRESS":"文昌路２３號之１０","OBJECTID":463716},"geometry":{"x":173442.20000000112,"y":2565072.5299999993}},{"attributes":{"ID":463742,"DIS_CODE":0,"TOWNNAME":"仁德區","LI":"仁德里","LIN":"5鄰","STREET":"仁德四街","SECT":" ","MAREA":" ","LANE":" ","ALLEY":" ","HOUSE_NO":"９號","E_COORD97":173335.98000000001,"N_COORD97":2540842.27,"ADDRESS":"仁德四街９號","OBJECTID":463717},"geometry":{"x":173335.98000000045,"y":2540842.2700000014}},{"attributes":{"ID":463743,"DIS_CODE":0,"TOWNNAME":"麻豆區","LI":"大埕里","LIN":"5鄰","STREET":"文昌路","SECT":" ","MAREA":" ","LANE":" ","ALLEY":" ","HOUSE_NO":"２３號之１１","E_COORD97":173446.82000000001,"N_COORD97":2565069.48,"ADDRESS":"文昌路２３號之１１","OBJECTID":463718},"geometry":{"x":173446.82000000123,"y":2565069.4800000023}},{"attributes":{"ID":463744,"DIS_CODE":0,"TOWNNAME":"麻豆區","LI":"大埕里","LIN":"5鄰","STREET":"文昌路","SECT":" ","MAREA":" ","LANE":" ","ALLEY":" ","HOUSE_NO":"２３號之１２","E_COORD97":173451.51999999999,"N_COORD97":2565066.0099999998,"ADDRESS":"文昌路２３號之１２","OBJECTID":463719},"geometry":{"x":173451.52000000048,"y":2565066.0100000016}},{"attributes":{"ID":463745,"DIS_CODE":0,"TOWNNAME":"麻豆區","LI":"大埕里","LIN":"5鄰","STREET":"文昌路","SECT":" ","MAREA":" ","LANE":" ","ALLEY":" ","HOUSE_NO":"２３號之１３","E_COORD97":173458.98999999999,"N_COORD97":2565060.02,"ADDRESS":"文昌路２３號之１３","OBJECTID":463720},"geometry":{"x":173458.99000000115,"y":2565060.0199999996}},{"attributes":{"ID":463746,"DIS_CODE":0,"TOWNNAME":"麻豆區","LI":"大埕里","LIN":"5鄰","STREET":"文昌路","SECT":" ","MAREA":" ","LANE":" ","ALLEY":" ","HOUSE_NO":"２３號之１４","E_COORD97":173462.07000000001,"N_COORD97":2565057.8100000001,"ADDRESS":"文昌路２３號之１４","OBJECTID":463721},"geometry":{"x":173462.07000000123,"y":2565057.8100000024}},{"attributes":{"ID":463747,"DIS_CODE":0,"TOWNNAME":"麻豆區","LI":"大埕里","LIN":"5鄰","STREET":"文昌路","SECT":" ","MAREA":" ","LANE":" ","ALLEY":" ","HOUSE_NO":"２３號之１５","E_COORD97":173465.42999999999,"N_COORD97":2565055.8700000001,"ADDRESS":"文昌路２３號之１５","OBJECTID":463722},"geometry":{"x":173465.43000000063,"y":2565055.870000001}},{"attributes":{"ID":463748,"DIS_CODE":0,"TOWNNAME":"麻豆區","LI":"大埕里","LIN":"5鄰","STREET":"文昌路","SECT":" ","MAREA":" ","LANE":" ","ALLEY":" ","HOUSE_NO":"２３號之１６","E_COORD97":173469.14999999999,"N_COORD97":2565053.8799999999,"ADDRESS":"文昌路２３號之１６","OBJECTID":463723},"geometry":{"x":173469.15000000037,"y":2565053.879999999}},{"attributes":{"ID":463749,"DIS_CODE":0,"TOWNNAME":"麻豆區","LI":"大埕里","LIN":"5鄰","STREET":"文昌路","SECT":" ","MAREA":" ","LANE":" ","ALLEY":" ","HOUSE_NO":"２３號之２","E_COORD97":173439.14000000001,"N_COORD97":2565074.9300000002,"ADDRESS":"文昌路２３號之２","OBJECTID":463724},"geometry":{"x":173439.13999999966,"y":2565074.9299999997}},{"attributes":{"ID":463750,"DIS_CODE":0,"TOWNNAME":"麻豆區","LI":"大埕里","LIN":"5鄰","STREET":"文昌路","SECT":" ","MAREA":" ","LANE":" ","ALLEY":" ","HOUSE_NO":"２３號之３","E_COORD97":173429.69,"N_COORD97":2565078.2000000002,"ADDRESS":"文昌路２３號之３","OBJECTID":463725},"geometry":{"x":173429.69000000041,"y":2565078.1999999993}},{"attributes":{"ID":463751,"DIS_CODE":0,"TOWNNAME":"麻豆區","LI":"大埕里","LIN":"5鄰","STREET":"文昌路","SECT":" ","MAREA":" ","LANE":" ","ALLEY":" ","HOUSE_NO":"２３號之４","E_COORD97":173450.79000000001,"N_COORD97":2565045.1299999999,"ADDRESS":"文昌路２３號之４","OBJECTID":463726},"geometry":{"x":173450.79000000004,"y":2565045.129999999}},{"attributes":{"ID":463752,"DIS_CODE":0,"TOWNNAME":"麻豆區","LI":"大埕里","LIN":"5鄰","STREET":"文昌路","SECT":" ","MAREA":" ","LANE":" ","ALLEY":" ","HOUSE_NO":"２３號之５","E_COORD97":173425.70000000001,"N_COORD97":2565075.79,"ADDRESS":"文昌路２３號之５","OBJECTID":463727},"geometry":{"x":173425.70000000019,"y":2565075.7900000028}},{"attributes":{"ID":463753,"DIS_CODE":0,"TOWNNAME":"麻豆區","LI":"大埕里","LIN":"5鄰","STREET":"文昌路","SECT":" ","MAREA":" ","LANE":" ","ALLEY":" ","HOUSE_NO":"２３號之６","E_COORD97":173421.39000000001,"N_COORD97":2565073.79,"ADDRESS":"文昌路２３號之６","OBJECTID":463728},"geometry":{"x":173421.39000000153,"y":2565073.790000001}},{"attributes":{"ID":463754,"DIS_CODE":0,"TOWNNAME":"麻豆區","LI":"大埕里","LIN":"5鄰","STREET":"文昌路","SECT":" ","MAREA":" ","LANE":" ","ALLEY":" ","HOUSE_NO":"２３號之９","E_COORD97":173410.62,"N_COORD97":2565058.1099999999,"ADDRESS":"文昌路２３號之９","OBJECTID":463729},"geometry":{"x":173410.62000000104,"y":2565058.1100000013}},{"attributes":{"ID":463755,"DIS_CODE":0,"TOWNNAME":"麻豆區","LI":"大埕里","LIN":"5鄰","STREET":"文昌路","SECT":" ","MAREA":" ","LANE":" ","ALLEY":" ","HOUSE_NO":"２５號之１０","E_COORD97":173469.48000000001,"N_COORD97":2565073.73,"ADDRESS":"文昌路２５號之１０","OBJECTID":463730},"geometry":{"x":173469.48000000138,"y":2565073.7300000004}},{"attributes":{"ID":463756,"DIS_CODE":0,"TOWNNAME":"麻豆區","LI":"大埕里","LIN":"5鄰","STREET":"文昌路","SECT":" ","MAREA":" ","LANE":" ","ALLEY":" ","HOUSE_NO":"２５號之１１","E_COORD97":173465.67000000001,"N_COORD97":2565076.2999999998,"ADDRESS":"文昌路２５號之１１","OBJECTID":463731},"geometry":{"x":173465.67000000086,"y":2565076.3000000007}},{"attributes":{"ID":463757,"DIS_CODE":0,"TOWNNAME":"麻豆區","LI":"大埕里","LIN":"5鄰","STREET":"文昌路","SECT":" ","MAREA":" ","LANE":" ","ALLEY":" ","HOUSE_NO":"２５號之１２","E_COORD97":173461.72,"N_COORD97":2565078.5,"ADDRESS":"文昌路２５號之１２","OBJECTID":463732},"geometry":{"x":173461.72000000067,"y":2565078.5000000037}},{"attributes":{"ID":463758,"DIS_CODE":0,"TOWNNAME":"麻豆區","LI":"大埕里","LIN":"5鄰","STREET":"文昌路","SECT":" ","MAREA":" ","LANE":" ","ALLEY":" ","HOUSE_NO":"２５號之１３","E_COORD97":173456.97,"N_COORD97":2565080.6699999999,"ADDRESS":"文昌路２５號之１３","OBJECTID":463733},"geometry":{"x":173456.97000000067,"y":2565080.6700000037}},{"attributes":{"ID":463759,"DIS_CODE":0,"TOWNNAME":"麻豆區","LI":"大埕里","LIN":"5鄰","STREET":"文昌路","SECT":" ","MAREA":" ","LANE":" ","ALLEY":" ","HOUSE_NO":"２５號之１４","E_COORD97":173474.66,"N_COORD97":2565087.52,"ADDRESS":"文昌路２５號之１４","OBJECTID":463734},"geometry":{"x":173474.66000000108,"y":2565087.5199999996}},{"attributes":{"ID":463760,"DIS_CODE":0,"TOWNNAME":"麻豆區","LI":"大埕里","LIN":"5鄰","STREET":"文昌路","SECT":" ","MAREA":" ","LANE":" ","ALLEY":" ","HOUSE_NO":"２５號之１５","E_COORD97":173481.29999999999,"N_COORD97":2565084.7799999998,"ADDRESS":"文昌路２５號之１５","OBJECTID":463735},"geometry":{"x":173481.29999999888,"y":2565084.7799999993}},{"attributes":{"ID":463761,"DIS_CODE":0,"TOWNNAME":"麻豆區","LI":"大埕里","LIN":"5鄰","STREET":"文昌路","SECT":" ","MAREA":" ","LANE":" ","ALLEY":" ","HOUSE_NO":"２５號之１","E_COORD97":173503.14000000001,"N_COORD97":2565093.9399999999,"ADDRESS":"文昌路２５號之１","OBJECTID":463736},"geometry":{"x":173503.1400000006,"y":2565093.9399999995}},{"attributes":{"ID":463762,"DIS_CODE":0,"TOWNNAME":"麻豆區","LI":"大埕里","LIN":"5鄰","STREET":"文昌路","SECT":" ","MAREA":" ","LANE":" ","ALLEY":" ","HOUSE_NO":"２５號之２","E_COORD97":173498.06,"N_COORD97":2565090.21,"ADDRESS":"文昌路２５號之２","OBJECTID":463737},"geometry":{"x":173498.06000000145,"y":2565090.2100000009}},{"attributes":{"ID":463763,"DIS_CODE":0,"TOWNNAME":"麻豆區","LI":"大埕里","LIN":"5鄰","STREET":"文昌路","SECT":" ","MAREA":" ","LANE":" ","ALLEY":" ","HOUSE_NO":"２５號之３","E_COORD97":173496.48000000001,"N_COORD97":2565086.6000000001,"ADDRESS":"文昌路２５號之３","OBJECTID":463738},"geometry":{"x":173496.48000000138,"y":2565086.5999999996}},{"attributes":{"ID":463764,"DIS_CODE":0,"TOWNNAME":"麻豆區","LI":"大埕里","LIN":"5鄰","STREET":"文昌路","SECT":" ","MAREA":" ","LANE":" ","ALLEY":" ","HOUSE_NO":"２５號之４","E_COORD97":173494.54999999999,"N_COORD97":2565083.3900000001,"ADDRESS":"文昌路２５號之４","OBJECTID":463739},"geometry":{"x":173494.54999999981,"y":2565083.3900000043}},{"attributes":{"ID":463765,"DIS_CODE":0,"TOWNNAME":"麻豆區","LI":"大埕里","LIN":"5鄰","STREET":"文昌路","SECT":" ","MAREA":" ","LANE":" ","ALLEY":" ","HOUSE_NO":"２５號之５","E_COORD97":173492.39999999999,"N_COORD97":2565079.75,"ADDRESS":"文昌路２５號之５","OBJECTID":463740},"geometry":{"x":173492.40000000037,"y":2565079.75}},{"attributes":{"ID":463766,"DIS_CODE":0,"TOWNNAME":"麻豆區","LI":"大埕里","LIN":"5鄰","STREET":"文昌路","SECT":" ","MAREA":" ","LANE":" ","ALLEY":" ","HOUSE_NO":"２５號之６","E_COORD97":173490.39000000001,"N_COORD97":2565076.3199999998,"ADDRESS":"文昌路２５號之６","OBJECTID":463741},"geometry":{"x":173490.38999999966,"y":2565076.3200000003}},{"attributes":{"ID":463767,"DIS_CODE":0,"TOWNNAME":"麻豆區","LI":"大埕里","LIN":"5鄰","STREET":"文昌路","SECT":" ","MAREA":" ","LANE":" ","ALLEY":" ","HOUSE_NO":"２５號之７","E_COORD97":173488.73999999999,"N_COORD97":2565072.5899999999,"ADDRESS":"文昌路２５號之７","OBJECTID":463742},"geometry":{"x":173488.74000000022,"y":2565072.5900000017}},{"attributes":{"ID":463768,"DIS_CODE":0,"TOWNNAME":"麻豆區","LI":"大埕里","LIN":"5鄰","STREET":"文昌路","SECT":" ","MAREA":" ","LANE":" ","ALLEY":" ","HOUSE_NO":"２５號之８","E_COORD97":173486.85000000001,"N_COORD97":2565068.9900000002,"ADDRESS":"文昌路２５號之８","OBJECTID":463743},"geometry":{"x":173486.84999999963,"y":2565068.9900000021}},{"attributes":{"ID":463769,"DIS_CODE":0,"TOWNNAME":"麻豆區","LI":"大埕里","LIN":"5鄰","STREET":"文昌路","SECT":" ","MAREA":" ","LANE":" ","ALLEY":" ","HOUSE_NO":"２５號之９","E_COORD97":173484.53,"N_COORD97":2565065.3500000001,"ADDRESS":"文昌路２５號之９","OBJECTID":463744},"geometry":{"x":173484.53000000119,"y":2565065.3499999978}},{"attributes":{"ID":463770,"DIS_CODE":0,"TOWNNAME":"中西區","LI":"五妃里","LIN":"5鄰","STREET":"慶中街","SECT":" ","MAREA":" ","LANE":" ","ALLEY":" ","HOUSE_NO":"６６號","E_COORD97":168550.98000000001,"N_COORD97":2542607.8700000001,"ADDRESS":"慶中街６６號","OBJECTID":463745},"geometry":{"x":168550.98000000045,"y":2542607.870000001}},{"attributes":{"ID":463771,"DIS_CODE":0,"TOWNNAME":"新市區","LI":"新和里","LIN":"5鄰","STREET":"昆明街","SECT":" ","MAREA":" ","LANE":" ","ALLEY":" ","HOUSE_NO":"２８號","E_COORD97":177325.54000000001,"N_COORD97":2552361,"ADDRESS":"昆明街２８號","OBJECTID":463746},"geometry":{"x":177325.54000000097,"y":2552360.9999999981}},{"attributes":{"ID":463772,"DIS_CODE":0,"TOWNNAME":"中西區","LI":"五妃里","LIN":"5鄰","STREET":"慶中街","SECT":" ","MAREA":" ","LANE":" ","ALLEY":" ","HOUSE_NO":"６８號","E_COORD97":168553.79000000001,"N_COORD97":2542616.79,"ADDRESS":"慶中街６８號","OBJECTID":463747},"geometry":{"x":168553.7900000019,"y":2542616.7899999991}},{"attributes":{"ID":463773,"DIS_CODE":0,"TOWNNAME":"中西區","LI":"建國里","LIN":"5鄰","STREET":"西門路","SECT":"二段","MAREA":" ","LANE":" ","ALLEY":" ","HOUSE_NO":"１２０號","E_COORD97":167887.09,"N_COORD97":2543798.5699999998,"ADDRESS":"西門路二段１２０號","OBJECTID":463748},"geometry":{"x":167887.09000000171,"y":2543798.5700000022}},{"attributes":{"ID":463774,"DIS_CODE":0,"TOWNNAME":"中西區","LI":"郡王里","LIN":"5鄰","STREET":"大埔街","SECT":" ","MAREA":" ","LANE":" ","ALLEY":" ","HOUSE_NO":"７１號","E_COORD97":168810.78,"N_COORD97":2543053.6699999999,"ADDRESS":"大埔街７１號","OBJECTID":463749},"geometry":{"x":168810.78000000119,"y":2543053.6700000018}},{"attributes":{"ID":463775,"DIS_CODE":0,"TOWNNAME":"中西區","LI":"郡王里","LIN":"5鄰","STREET":"大埔街","SECT":" ","MAREA":" ","LANE":" ","ALLEY":" ","HOUSE_NO":"７３號","E_COORD97":168798.64000000001,"N_COORD97":2543042.04,"ADDRESS":"大埔街７３號","OBJECTID":463750},"geometry":{"x":168798.64000000153,"y":2543042.0399999991}},{"attributes":{"ID":463776,"DIS_CODE":0,"TOWNNAME":"中西區","LI":"永華里","LIN":"5鄰","STREET":"府中街","SECT":" ","MAREA":" ","LANE":" ","ALLEY":" ","HOUSE_NO":"１３７號","E_COORD97":168511.64999999999,"N_COORD97":2543399.3399999999,"ADDRESS":"府中街１３７號","OBJECTID":463751},"geometry":{"x":168511.6500000013,"y":2543399.3400000017}},{"attributes":{"ID":463777,"DIS_CODE":0,"TOWNNAME":"仁德區","LI":"保安里","LIN":"5鄰","STREET":"中正路","SECT":"一段","MAREA":" ","LANE":" ","ALLEY":" ","HOUSE_NO":"１９６號","E_COORD97":171577.59,"N_COORD97":2535765.0299999998,"ADDRESS":"中正路一段１９６號","OBJECTID":463752},"geometry":{"x":171577.59000000171,"y":2535765.0300000012}},{"attributes":{"ID":463778,"DIS_CODE":0,"TOWNNAME":"仁德區","LI":"仁德里","LIN":"5鄰","STREET":"中正路","SECT":"二段","MAREA":" ","LANE":" ","ALLEY":" ","HOUSE_NO":"１０８１號","E_COORD97":173380.31,"N_COORD97":2540852.4700000002,"ADDRESS":"中正路二段１０８１號","OBJECTID":463753},"geometry":{"x":173380.30999999959,"y":2540852.4700000025}},{"attributes":{"ID":463779,"DIS_CODE":0,"TOWNNAME":"仁德區","LI":"保安里","LIN":"5鄰","STREET":"中正路","SECT":"一段","MAREA":" ","LANE":" ","ALLEY":" ","HOUSE_NO":"１９２號","E_COORD97":171571.98000000001,"N_COORD97":2535758.7799999998,"ADDRESS":"中正路一段１９２號","OBJECTID":463754},"geometry":{"x":171571.97999999952,"y":2535758.7799999993}},{"attributes":{"ID":463780,"DIS_CODE":0,"TOWNNAME":"仁德區","LI":"仁德里","LIN":"5鄰","STREET":"中正路","SECT":"二段","MAREA":" ","LANE":" ","ALLEY":" ","HOUSE_NO":"１０５３號","E_COORD97":173395.51999999999,"N_COORD97":2540790.96,"ADDRESS":"中正路二段１０５３號","OBJECTID":463755},"geometry":{"x":173395.52000000048,"y":2540790.9600000046}},{"attributes":{"ID":463781,"DIS_CODE":0,"TOWNNAME":"仁德區","LI":"仁德里","LIN":"5鄰","STREET":"中正路","SECT":"二段","MAREA":" ","LANE":" ","ALLEY":" ","HOUSE_NO":"１０４１號","E_COORD97":173401.73999999999,"N_COORD97":2540761.46,"ADDRESS":"中正路二段１０４１號","OBJECTID":463756},"geometry":{"x":173401.74000000022,"y":2540761.4600000028}},{"attributes":{"ID":463782,"DIS_CODE":0,"TOWNNAME":"仁德區","LI":"仁德里","LIN":"5鄰","STREET":"中正路","SECT":"二段","MAREA":" ","LANE":" ","ALLEY":" ","HOUSE_NO":"１０７１號","E_COORD97":173386.53,"N_COORD97":2540827.2200000002,"ADDRESS":"中正路二段１０７１號","OBJECTID":463757},"geometry":{"x":173386.53000000026,"y":2540827.2200000025}},{"attributes":{"ID":463783,"DIS_CODE":0,"TOWNNAME":"仁德區","LI":"仁德里","LIN":"5鄰","STREET":"中正路","SECT":"二段","MAREA":" ","LANE":" ","ALLEY":" ","HOUSE_NO":"１０７５號","E_COORD97":173383.64000000001,"N_COORD97":2540838.4700000002,"ADDRESS":"中正路二段１０７５號","OBJECTID":463758},"geometry":{"x":173383.63999999966,"y":2540838.4700000044}},{"attributes":{"ID":463784,"DIS_CODE":0,"TOWNNAME":"仁德區","LI":"保安里","LIN":"5鄰","STREET":"中正路","SECT":"一段","MAREA":" ","LANE":" ","ALLEY":" ","HOUSE_NO":"２０８號","E_COORD97":171595.23999999999,"N_COORD97":2535786.0299999998,"ADDRESS":"中正路一段２０８號","OBJECTID":463759},"geometry":{"x":171595.24000000022,"y":2535786.0300000012}},{"attributes":{"ID":463785,"DIS_CODE":0,"TOWNNAME":"仁德區","LI":"仁德里","LIN":"5鄰","STREET":"仁德四街","SECT":" ","MAREA":" ","LANE":" ","ALLEY":" ","HOUSE_NO":"１１之３號","E_COORD97":173302.309717,"N_COORD97":2540826.8717299998,"ADDRESS":"仁德四街１１之３號","OBJECTID":463760},"geometry":{"x":173302.30971699953,"y":2540826.8717260025}},{"attributes":{"ID":463786,"DIS_CODE":0,"TOWNNAME":"仁德區","LI":"仁德里","LIN":"5鄰","STREET":"仁德四街","SECT":" ","MAREA":" ","LANE":" ","ALLEY":" ","HOUSE_NO":"３號","E_COORD97":173352.57999999999,"N_COORD97":2540846.02,"ADDRESS":"仁德四街３號","OBJECTID":463761},"geometry":{"x":173352.57999999914,"y":2540846.0199999996}},{"attributes":{"ID":463787,"DIS_CODE":0,"TOWNNAME":"仁德區","LI":"仁德里","LIN":"5鄰","STREET":"中正路","SECT":"二段","MAREA":" ","LANE":" ","ALLEY":" ","HOUSE_NO":"１０５５號","E_COORD97":173394.48999999999,"N_COORD97":2540795.71,"ADDRESS":"中正路二段１０５５號","OBJECTID":463762},"geometry":{"x":173394.49000000115,"y":2540795.7100000009}},{"attributes":{"ID":463788,"DIS_CODE":0,"TOWNNAME":"仁德區","LI":"後壁里","LIN":"5鄰","STREET":"德善路","SECT":" ","MAREA":" ","LANE":" ","ALLEY":" ","HOUSE_NO":"１３１號","E_COORD97":173463.92999999999,"N_COORD97":2538853.27,"ADDRESS":"德善路１３１號","OBJECTID":463763},"geometry":{"x":173463.93000000063,"y":2538853.2700000014}},{"attributes":{"ID":463789,"DIS_CODE":0,"TOWNNAME":"仁德區","LI":"後壁里","LIN":"5鄰","STREET":"德善路","SECT":" ","MAREA":" ","LANE":" ","ALLEY":" ","HOUSE_NO":"１２９號","E_COORD97":173455.01999999999,"N_COORD97":2538847.27,"ADDRESS":"德善路１２９號","OBJECTID":463764},"geometry":{"x":173455.02000000048,"y":2538847.2699999996}},{"attributes":{"ID":463790,"DIS_CODE":0,"TOWNNAME":"仁德區","LI":"保安里","LIN":"5鄰","STREET":"中正路","SECT":"一段","MAREA":" ","LANE":" ","ALLEY":" ","HOUSE_NO":"２０２號","E_COORD97":171586.66,"N_COORD97":2535776.5299999998,"ADDRESS":"中正路一段２０２號","OBJECTID":463765},"geometry":{"x":171586.66000000015,"y":2535776.5299999993}},{"attributes":{"ID":463791,"DIS_CODE":0,"TOWNNAME":"仁德區","LI":"仁德里","LIN":"5鄰","STREET":"中正路","SECT":"二段","MAREA":" ","LANE":" ","ALLEY":" ","HOUSE_NO":"１０７７號","E_COORD97":173382.28,"N_COORD97":2540844.2200000002,"ADDRESS":"中正路二段１０７７號","OBJECTID":463766},"geometry":{"x":173382.28000000119,"y":2540844.2200000025}},{"attributes":{"ID":463792,"DIS_CODE":0,"TOWNNAME":"仁德區","LI":"仁德里","LIN":"5鄰","STREET":"中正路","SECT":"二段","MAREA":" ","LANE":" ","ALLEY":" ","HOUSE_NO":"１０６３號","E_COORD97":173390.54000000001,"N_COORD97":2540810.7200000002,"ADDRESS":"中正路二段１０６３號","OBJECTID":463767},"geometry":{"x":173390.54000000097,"y":2540810.7200000025}},{"attributes":{"ID":463793,"DIS_CODE":0,"TOWNNAME":"仁德區","LI":"保安里","LIN":"5鄰","STREET":"中正路","SECT":"一段","MAREA":" ","LANE":" ","ALLEY":" ","HOUSE_NO":"２０４號","E_COORD97":171589.59,"N_COORD97":2535779.7799999998,"ADDRESS":"中正路一段２０４號","OBJECTID":463768},"geometry":{"x":171589.59000000078,"y":2535779.7800000031}},{"attributes":{"ID":463794,"DIS_CODE":0,"TOWNNAME":"仁德區","LI":"仁德里","LIN":"5鄰","STREET":"仁德四街","SECT":" ","MAREA":" ","LANE":" ","ALLEY":" ","HOUSE_NO":"５６號","E_COORD97":173151.07999999999,"N_COORD97":2540836.02,"ADDRESS":"仁德四街５６號","OBJECTID":463769},"geometry":{"x":173151.08000000101,"y":2540836.0199999996}},{"attributes":{"ID":463795,"DIS_CODE":0,"TOWNNAME":"仁德區","LI":"新田里","LIN":"5鄰","STREET":"勝利二街","SECT":" ","MAREA":" ","LANE":" ","ALLEY":" ","HOUSE_NO":"２１號","E_COORD97":174876.88,"N_COORD97":2539348.5,"ADDRESS":"勝利二街２１號","OBJECTID":463770},"geometry":{"x":174876.88000000082,"y":2539348.5}},{"attributes":{"ID":463796,"DIS_CODE":0,"TOWNNAME":"仁德區","LI":"後壁里","LIN":"5鄰","STREET":"德善路","SECT":" ","MAREA":" ","LANE":" ","ALLEY":" ","HOUSE_NO":"１０３之２號","E_COORD97":173435.07000000001,"N_COORD97":2538890.2999999998,"ADDRESS":"德善路１０３之２號","OBJECTID":463771},"geometry":{"x":173435.07000000123,"y":2538890.3000000026}},{"attributes":{"ID":463797,"DIS_CODE":0,"TOWNNAME":"新市區","LI":"新和里","LIN":"5鄰","STREET":"昆明街","SECT":" ","MAREA":" ","LANE":" ","ALLEY":" ","HOUSE_NO":"３０號","E_COORD97":177321.48999999999,"N_COORD97":2552359.7400000002,"ADDRESS":"昆明街３０號","OBJECTID":463772},"geometry":{"x":177321.49000000022,"y":2552359.7400000039}},{"attributes":{"ID":463798,"DIS_CODE":0,"TOWNNAME":"新市區","LI":"新和里","LIN":"5鄰","STREET":"昆明街","SECT":" ","MAREA":" ","LANE":" ","ALLEY":" ","HOUSE_NO":"１８號","E_COORD97":177350.85000000001,"N_COORD97":2552369.75,"ADDRESS":"昆明街１８號","OBJECTID":463773},"geometry":{"x":177350.84999999963,"y":2552369.7500000037}},{"attributes":{"ID":463799,"DIS_CODE":0,"TOWNNAME":"新市區","LI":"新和里","LIN":"5鄰","STREET":"昆明街","SECT":" ","MAREA":" ","LANE":" ","ALLEY":" ","HOUSE_NO":"２之７號","E_COORD97":177389.70000000001,"N_COORD97":2552377.7999999998,"ADDRESS":"昆明街２之７號","OBJECTID":463774},"geometry":{"x":177389.70000000019,"y":2552377.8000000026}},{"attributes":{"ID":463800,"DIS_CODE":0,"TOWNNAME":"永康區","LI":"正強里","LIN":"5鄰","STREET":"中正路","SECT":" ","MAREA":" ","LANE":" ","ALLEY":" ","HOUSE_NO":"５７號之２","E_COORD97":173587.41,"N_COORD97":2547799.73,"ADDRESS":"中正路５７號之２","OBJECTID":463775},"geometry":{"x":173587.41000000015,"y":2547799.7300000004}},{"attributes":{"ID":463801,"DIS_CODE":0,"TOWNNAME":"永康區","LI":"正強里","LIN":"5鄰","STREET":"中正路","SECT":" ","MAREA":" ","LANE":" ","ALLEY":" ","HOUSE_NO":"５７號之４","E_COORD97":173574.67999999999,"N_COORD97":2547809.3100000001,"ADDRESS":"中正路５７號之４","OBJECTID":463776},"geometry":{"x":173574.6799999997,"y":2547809.3100000005}},{"attributes":{"ID":463802,"DIS_CODE":0,"TOWNNAME":"新市區","LI":"新和里","LIN":"5鄰","STREET":"昆明街","SECT":" ","MAREA":" ","LANE":" ","ALLEY":" ","HOUSE_NO":"４２號","E_COORD97":177283.89999999999,"N_COORD97":2552350.5,"ADDRESS":"昆明街４２號","OBJECTID":463777},"geometry":{"x":177283.9000000013,"y":2552350.5}},{"attributes":{"ID":463803,"DIS_CODE":0,"TOWNNAME":"新市區","LI":"新和里","LIN":"5鄰","STREET":"昆明街","SECT":" ","MAREA":" ","LANE":" ","ALLEY":" ","HOUSE_NO":"２０號","E_COORD97":177340.60000000001,"N_COORD97":2552367.25,"ADDRESS":"昆明街２０號","OBJECTID":463778},"geometry":{"x":177340.59999999963,"y":2552367.2500000019}},{"attributes":{"ID":463804,"DIS_CODE":0,"TOWNNAME":"新市區","LI":"新和里","LIN":"5鄰","STREET":"昆明街","SECT":" ","MAREA":" ","LANE":" ","ALLEY":" ","HOUSE_NO":"５８號","E_COORD97":177249.62,"N_COORD97":2552341,"ADDRESS":"昆明街５８號","OBJECTID":463779},"geometry":{"x":177249.62000000197,"y":2552341.0000000037}},{"attributes":{"ID":463805,"DIS_CODE":0,"TOWNNAME":"新市區","LI":"新和里","LIN":"5鄰","STREET":"昆明街","SECT":" ","MAREA":" ","LANE":" ","ALLEY":" ","HOUSE_NO":"２４號","E_COORD97":177333.39999999999,"N_COORD97":2552362.75,"ADDRESS":"昆明街２４號","OBJECTID":463780},"geometry":{"x":177333.4000000013,"y":2552362.7500000037}},{"attributes":{"ID":463806,"DIS_CODE":0,"TOWNNAME":"新市區","LI":"新和里","LIN":"5鄰","STREET":"昆明街","SECT":" ","MAREA":" ","LANE":" ","ALLEY":" ","HOUSE_NO":"４號","E_COORD97":177378.10000000001,"N_COORD97":2552375.25,"ADDRESS":"昆明街４號","OBJECTID":463781},"geometry":{"x":177378.10000000149,"y":2552375.25}},{"attributes":{"ID":463807,"DIS_CODE":0,"TOWNNAME":"新市區","LI":"新和里","LIN":"5鄰","STREET":"昆明街","SECT":" ","MAREA":" ","LANE":" ","ALLEY":" ","HOUSE_NO":"１２號","E_COORD97":177363.20000000001,"N_COORD97":2552371,"ADDRESS":"昆明街１２號","OBJECTID":463782},"geometry":{"x":177363.20000000112,"y":2552371}},{"attributes":{"ID":463808,"DIS_CODE":0,"TOWNNAME":"新市區","LI":"港墘里","LIN":"5鄰","STREET":"民族路","SECT":" ","MAREA":" ","LANE":" ","ALLEY":" ","HOUSE_NO":"１１８號","E_COORD97":178217.10000000001,"N_COORD97":2553568.8799999999,"ADDRESS":"民族路１１８號","OBJECTID":463783},"geometry":{"x":178217.09999999963,"y":2553568.8800000008}},{"attributes":{"ID":463809,"DIS_CODE":0,"TOWNNAME":"東區","LI":"崇善里","LIN":"5鄰","STREET":"崇善五街","SECT":" ","MAREA":" ","LANE":" ","ALLEY":" ","HOUSE_NO":"２之１號","E_COORD97":171023.07000000001,"N_COORD97":2541543.7200000002,"ADDRESS":"崇善五街２之１號","OBJECTID":463784},"geometry":{"x":171023.0700000003,"y":2541543.7200000007}},{"attributes":{"ID":463810,"DIS_CODE":0,"TOWNNAME":"中西區","LI":"民權里","LIN":"5鄰","STREET":"和平街","SECT":" ","MAREA":" ","LANE":" ","ALLEY":" ","HOUSE_NO":"１２２號","E_COORD97":167445.62,"N_COORD97":2544159.27,"ADDRESS":"和平街１２２號","OBJECTID":463785},"geometry":{"x":167445.62000000011,"y":2544159.2699999996}},{"attributes":{"ID":463811,"DIS_CODE":0,"TOWNNAME":"中西區","LI":"民權里","LIN":"5鄰","STREET":"和平街","SECT":" ","MAREA":" ","LANE":" ","ALLEY":" ","HOUSE_NO":"１２４號","E_COORD97":167441.17999999999,"N_COORD97":2544154.6899999999,"ADDRESS":"和平街１２４號","OBJECTID":463786},"geometry":{"x":167441.18000000063,"y":2544154.6900000032}},{"attributes":{"ID":463812,"DIS_CODE":0,"TOWNNAME":"中西區","LI":"民權里","LIN":"5鄰","STREET":"和平街","SECT":" ","MAREA":" ","LANE":" ","ALLEY":" ","HOUSE_NO":"１２６號","E_COORD97":167441.60000000001,"N_COORD97":2544151.8700000001,"ADDRESS":"和平街１２６號","OBJECTID":463787},"geometry":{"x":167441.60000000056,"y":2544151.8700000048}},{"attributes":{"ID":463813,"DIS_CODE":0,"TOWNNAME":"中西區","LI":"民權里","LIN":"5鄰","STREET":"和平街","SECT":" ","MAREA":" ","LANE":" ","ALLEY":" ","HOUSE_NO":"１３０號","E_COORD97":167442.51999999999,"N_COORD97":2544147.9300000002,"ADDRESS":"和平街１３０號","OBJECTID":463788},"geometry":{"x":167442.51999999955,"y":2544147.9300000016}},{"attributes":{"ID":463814,"DIS_CODE":0,"TOWNNAME":"中西區","LI":"民權里","LIN":"5鄰","STREET":"和平街","SECT":" ","MAREA":" ","LANE":" ","ALLEY":" ","HOUSE_NO":"１３２號","E_COORD97":167450.76000000001,"N_COORD97":2544143.4700000002,"ADDRESS":"和平街１３２號","OBJECTID":463789},"geometry":{"x":167450.76000000071,"y":2544143.4700000007}},{"attributes":{"ID":463815,"DIS_CODE":0,"TOWNNAME":"中西區","LI":"民權里","LIN":"5鄰","STREET":"和平街","SECT":" ","MAREA":" ","LANE":" ","ALLEY":" ","HOUSE_NO":"１３４號","E_COORD97":167447.66,"N_COORD97":2544142.27,"ADDRESS":"和平街１３４號","OBJECTID":463790},"geometry":{"x":167447.66000000015,"y":2544142.2700000014}},{"attributes":{"ID":463816,"DIS_CODE":0,"TOWNNAME":"中西區","LI":"民權里","LIN":"5鄰","STREET":"和平街","SECT":" ","MAREA":" ","LANE":" ","ALLEY":" ","HOUSE_NO":"１３６號","E_COORD97":167442.57999999999,"N_COORD97":2544140.5099999998,"ADDRESS":"和平街１３６號","OBJECTID":463791},"geometry":{"x":167442.58000000007,"y":2544140.5100000016}},{"attributes":{"ID":463817,"DIS_CODE":0,"TOWNNAME":"中西區","LI":"民權里","LIN":"5鄰","STREET":"和平街","SECT":" ","MAREA":" ","LANE":" ","ALLEY":" ","HOUSE_NO":"１３８號","E_COORD97":167439.97,"N_COORD97":2544138.46,"ADDRESS":"和平街１３８號","OBJECTID":463792},"geometry":{"x":167439.96999999974,"y":2544138.4600000028}},{"attributes":{"ID":463818,"DIS_CODE":0,"TOWNNAME":"中西區","LI":"民權里","LIN":"5鄰","STREET":"和平街","SECT":" ","MAREA":" ","LANE":" ","ALLEY":" ","HOUSE_NO":"１４０號","E_COORD97":167434.57000000001,"N_COORD97":2544137.1899999999,"ADDRESS":"和平街１４０號","OBJECTID":463793},"geometry":{"x":167434.5700000003,"y":2544137.1899999995}},{"attributes":{"ID":463819,"DIS_CODE":0,"TOWNNAME":"中西區","LI":"民權里","LIN":"5鄰","STREET":"和平街","SECT":" ","MAREA":" ","LANE":" ","ALLEY":" ","HOUSE_NO":"１４２號","E_COORD97":167431.20999999999,"N_COORD97":2544134.6400000001,"ADDRESS":"和平街１４２號","OBJECTID":463794},"geometry":{"x":167431.20999999996,"y":2544134.6400000006}},{"attributes":{"ID":463820,"DIS_CODE":0,"TOWNNAME":"中西區","LI":"民權里","LIN":"5鄰","STREET":"和平街","SECT":" ","MAREA":" ","LANE":" ","ALLEY":" ","HOUSE_NO":"１４４號","E_COORD97":167425.28,"N_COORD97":2544133.9399999999,"ADDRESS":"和平街１４４號","OBJECTID":463795},"geometry":{"x":167425.28000000119,"y":2544133.9400000013}},{"attributes":{"ID":463821,"DIS_CODE":0,"TOWNNAME":"中西區","LI":"民權里","LIN":"5鄰","STREET":"和平街","SECT":" ","MAREA":" ","LANE":" ","ALLEY":" ","HOUSE_NO":"１４６號","E_COORD97":167422.17999999999,"N_COORD97":2544131.3300000001,"ADDRESS":"和平街１４６號","OBJECTID":463796},"geometry":{"x":167422.18000000063,"y":2544131.3300000019}},{"attributes":{"ID":463822,"DIS_CODE":0,"TOWNNAME":"中西區","LI":"民權里","LIN":"5鄰","STREET":"和平街","SECT":" ","MAREA":" ","LANE":" ","ALLEY":" ","HOUSE_NO":"１４８號","E_COORD97":167419.07000000001,"N_COORD97":2544129.5,"ADDRESS":"和平街１４８號","OBJECTID":463797},"geometry":{"x":167419.0700000003,"y":2544129.5000000037}},{"attributes":{"ID":463823,"DIS_CODE":0,"TOWNNAME":"中西區","LI":"民權里","LIN":"5鄰","STREET":"金華路","SECT":"四段","MAREA":" ","LANE":" ","ALLEY":" ","HOUSE_NO":"１０號","E_COORD97":167388.54000000001,"N_COORD97":2544120.8500000001,"ADDRESS":"金華路四段１０號","OBJECTID":463798},"geometry":{"x":167388.54000000004,"y":2544120.8500000015}},{"attributes":{"ID":463824,"DIS_CODE":0,"TOWNNAME":"中西區","LI":"民權里","LIN":"5鄰","STREET":"金華路","SECT":"四段","MAREA":" ","LANE":" ","ALLEY":" ","HOUSE_NO":"１２號","E_COORD97":167389.81,"N_COORD97":2544124.3799999999,"ADDRESS":"金華路四段１２號","OBJECTID":463799},"geometry":{"x":167389.80999999959,"y":2544124.379999999}},{"attributes":{"ID":463825,"DIS_CODE":0,"TOWNNAME":"中西區","LI":"民權里","LIN":"5鄰","STREET":"金華路","SECT":"四段","MAREA":" ","LANE":" ","ALLEY":" ","HOUSE_NO":"２號","E_COORD97":167382.12,"N_COORD97":2544104.9199999999,"ADDRESS":"金華路四段２號","OBJECTID":463800},"geometry":{"x":167382.12000000104,"y":2544104.9199999999}}]}