{"displayFieldName":"TOWNNAME","fieldAliases":{"ID":"ID","DIS_CODE":"DIS_CODE","TOWNNAME":"TOWNNAME","LI":"LI","LIN":"LIN","STREET":"STREET","SECT":"SECT","MAREA":"MAREA","LANE":"LANE","ALLEY":"ALLEY","HOUSE_NO":"HOUSE_NO","E_COORD97":"E_COORD97","N_COORD97":"N_COORD97","ADDRESS":"ADDRESS","OBJECTID":"OBJECTID"},"geometryType":"esriGeometryPoint","spatialReference":{"wkid":102443,"latestWkid":3826},"fields":[{"name":"ID","type":"esriFieldTypeDouble","alias":"ID"},{"name":"DIS_CODE","type":"esriFieldTypeInteger","alias":"DIS_CODE"},{"name":"TOWNNAME","type":"esriFieldTypeString","alias":"TOWNNAME","length":8},{"name":"LI","type":"esriFieldTypeString","alias":"LI","length":8},{"name":"LIN","type":"esriFieldTypeString","alias":"LIN","length":12},{"name":"STREET","type":"esriFieldTypeString","alias":"STREET","length":20},{"name":"SECT","type":"esriFieldTypeString","alias":"SECT","length":8},{"name":"MAREA","type":"esriFieldTypeString","alias":"MAREA","length":12},{"name":"LANE","type":"esriFieldTypeString","alias":"LANE","length":10},{"name":"ALLEY","type":"esriFieldTypeString","alias":"ALLEY","length":10},{"name":"HOUSE_NO","type":"esriFieldTypeString","alias":"HOUSE_NO","length":20},{"name":"E_COORD97","type":"esriFieldTypeDouble","alias":"E_COORD97"},{"name":"N_COORD97","type":"esriFieldTypeDouble","alias":"N_COORD97"},{"name":"ADDRESS","type":"esriFieldTypeString","alias":"ADDRESS","length":50},{"name":"OBJECTID","type":"esriFieldTypeOID","alias":"OBJECTID"}],"features":[{"attributes":{"ID":387025,"DIS_CODE":0,"TOWNNAME":"西港區","LI":"慶安里","LIN":"28鄰","STREET":"慶安路","SECT":" ","MAREA":" ","LANE":"９７巷","ALLEY":" ","HOUSE_NO":"３２號","E_COORD97":168104.45000000001,"N_COORD97":2557793.7000000002,"ADDRESS":"慶安路９７巷３２號","OBJECTID":387001},"geometry":{"x":168104.45000000112,"y":2557793.700000003}},{"attributes":{"ID":387026,"DIS_CODE":0,"TOWNNAME":"西港區","LI":"慶安里","LIN":"28鄰","STREET":"慶安路","SECT":" ","MAREA":" ","LANE":"９７巷","ALLEY":" ","HOUSE_NO":"３３號","E_COORD97":168124.98999999999,"N_COORD97":2557790.3999999999,"ADDRESS":"慶安路９７巷３３號","OBJECTID":387002},"geometry":{"x":168124.99000000022,"y":2557790.4000000041}},{"attributes":{"ID":387027,"DIS_CODE":0,"TOWNNAME":"西港區","LI":"慶安里","LIN":"28鄰","STREET":"慶安路","SECT":" ","MAREA":" ","LANE":"９７巷","ALLEY":" ","HOUSE_NO":"３６號","E_COORD97":168103.51000000001,"N_COORD97":2557784.7599999998,"ADDRESS":"慶安路９７巷３６號","OBJECTID":387003},"geometry":{"x":168103.51000000071,"y":2557784.7600000016}},{"attributes":{"ID":387028,"DIS_CODE":0,"TOWNNAME":"西港區","LI":"慶安里","LIN":"28鄰","STREET":"慶安路","SECT":" ","MAREA":" ","LANE":"９７巷","ALLEY":" ","HOUSE_NO":"４號","E_COORD97":168116.09,"N_COORD97":2557860.3900000001,"ADDRESS":"慶安路９７巷４號","OBJECTID":387004},"geometry":{"x":168116.09000000078,"y":2557860.3900000006}},{"attributes":{"ID":387029,"DIS_CODE":0,"TOWNNAME":"西港區","LI":"慶安里","LIN":"28鄰","STREET":"慶安路","SECT":" ","MAREA":" ","LANE":"９７巷","ALLEY":" ","HOUSE_NO":"５號","E_COORD97":168136.25,"N_COORD97":2557857.8100000001,"ADDRESS":"慶安路９７巷５號","OBJECTID":387005},"geometry":{"x":168136.25,"y":2557857.8100000005}},{"attributes":{"ID":387030,"DIS_CODE":0,"TOWNNAME":"西港區","LI":"慶安里","LIN":"28鄰","STREET":"慶安路","SECT":" ","MAREA":" ","LANE":"９７巷","ALLEY":" ","HOUSE_NO":"６號","E_COORD97":168114.91,"N_COORD97":2557855.6800000002,"ADDRESS":"慶安路９７巷６號","OBJECTID":387006},"geometry":{"x":168114.91000000015,"y":2557855.6800000034}},{"attributes":{"ID":387031,"DIS_CODE":0,"TOWNNAME":"西港區","LI":"慶安里","LIN":"28鄰","STREET":"慶安路","SECT":" ","MAREA":" ","LANE":"９７巷","ALLEY":" ","HOUSE_NO":"２１號","E_COORD97":168129.75,"N_COORD97":2557818.6800000002,"ADDRESS":"慶安路９７巷２１號","OBJECTID":387007},"geometry":{"x":168129.75,"y":2557818.6800000016}},{"attributes":{"ID":387032,"DIS_CODE":0,"TOWNNAME":"西港區","LI":"慶安里","LIN":"28鄰","STREET":"慶安路","SECT":" ","MAREA":" ","LANE":"９７巷","ALLEY":" ","HOUSE_NO":"２２號","E_COORD97":168108.92999999999,"N_COORD97":2557819.48,"ADDRESS":"慶安路９７巷２２號","OBJECTID":387008},"geometry":{"x":168108.93000000063,"y":2557819.4800000004}},{"attributes":{"ID":387033,"DIS_CODE":0,"TOWNNAME":"西港區","LI":"慶安里","LIN":"28鄰","STREET":"慶安路","SECT":" ","MAREA":" ","LANE":"９７巷","ALLEY":" ","HOUSE_NO":"２３號","E_COORD97":168129.48000000001,"N_COORD97":2557814.3999999999,"ADDRESS":"慶安路９７巷２３號","OBJECTID":387009},"geometry":{"x":168129.48000000138,"y":2557814.4000000022}},{"attributes":{"ID":387034,"DIS_CODE":0,"TOWNNAME":"南區","LI":"文南里","LIN":"28鄰","STREET":"中華西路","SECT":"一段","MAREA":" ","LANE":"１０９巷","ALLEY":" ","HOUSE_NO":"５２號","E_COORD97":166283.79000000001,"N_COORD97":2542462.8799999999,"ADDRESS":"中華西路一段１０９巷５２號","OBJECTID":387010},"geometry":{"x":166283.79000000004,"y":2542462.879999999}},{"attributes":{"ID":387035,"DIS_CODE":0,"TOWNNAME":"南區","LI":"文南里","LIN":"28鄰","STREET":"中華西路","SECT":"一段","MAREA":" ","LANE":"１０９巷","ALLEY":" ","HOUSE_NO":"６２號","E_COORD97":166261.56,"N_COORD97":2542466.3700000001,"ADDRESS":"中華西路一段１０９巷６２號","OBJECTID":387011},"geometry":{"x":166261.56000000052,"y":2542466.370000001}},{"attributes":{"ID":387036,"DIS_CODE":0,"TOWNNAME":"南區","LI":"文南里","LIN":"28鄰","STREET":"中華西路","SECT":"一段","MAREA":" ","LANE":"１０９巷","ALLEY":" ","HOUSE_NO":"６６號","E_COORD97":166255.53,"N_COORD97":2542467.3999999999,"ADDRESS":"中華西路一段１０９巷６６號","OBJECTID":387012},"geometry":{"x":166255.53000000212,"y":2542467.4000000022}},{"attributes":{"ID":387037,"DIS_CODE":0,"TOWNNAME":"南區","LI":"文南里","LIN":"28鄰","STREET":"中華西路","SECT":"一段","MAREA":" ","LANE":"１３７巷","ALLEY":" ","HOUSE_NO":"５７號","E_COORD97":166306.32999999999,"N_COORD97":2542482.4900000002,"ADDRESS":"中華西路一段１３７巷５７號","OBJECTID":387013},"geometry":{"x":166306.33000000101,"y":2542482.4900000021}},{"attributes":{"ID":387038,"DIS_CODE":0,"TOWNNAME":"南區","LI":"文南里","LIN":"28鄰","STREET":"中華西路","SECT":"一段","MAREA":" ","LANE":"１３７巷","ALLEY":" ","HOUSE_NO":"５９號","E_COORD97":166300.45000000001,"N_COORD97":2542483.2799999998,"ADDRESS":"中華西路一段１３７巷５９號","OBJECTID":387014},"geometry":{"x":166300.45000000112,"y":2542483.2800000012}},{"attributes":{"ID":387039,"DIS_CODE":0,"TOWNNAME":"南區","LI":"文南里","LIN":"28鄰","STREET":"中華西路","SECT":"一段","MAREA":" ","LANE":"１３７巷","ALLEY":" ","HOUSE_NO":"６１號","E_COORD97":166295.06,"N_COORD97":2542484.4700000002,"ADDRESS":"中華西路一段１３７巷６１號","OBJECTID":387015},"geometry":{"x":166295.05999999959,"y":2542484.4700000007}},{"attributes":{"ID":387040,"DIS_CODE":0,"TOWNNAME":"南區","LI":"文南里","LIN":"28鄰","STREET":"中華西路","SECT":"一段","MAREA":" ","LANE":"１３７巷","ALLEY":" ","HOUSE_NO":"６３號","E_COORD97":166288.54999999999,"N_COORD97":2542484.79,"ADDRESS":"中華西路一段１３７巷６３號","OBJECTID":387016},"geometry":{"x":166288.54999999981,"y":2542484.7899999991}},{"attributes":{"ID":387041,"DIS_CODE":0,"TOWNNAME":"南區","LI":"文南里","LIN":"28鄰","STREET":"中華西路","SECT":"一段","MAREA":" ","LANE":"１３７巷","ALLEY":" ","HOUSE_NO":"６５號","E_COORD97":166282.35999999999,"N_COORD97":2542485.4199999999,"ADDRESS":"中華西路一段１３７巷６５號","OBJECTID":387017},"geometry":{"x":166282.36000000127,"y":2542485.4200000037}},{"attributes":{"ID":387042,"DIS_CODE":0,"TOWNNAME":"南區","LI":"文南里","LIN":"28鄰","STREET":"中華西路","SECT":"一段","MAREA":" ","LANE":"１３７巷","ALLEY":" ","HOUSE_NO":"７７號","E_COORD97":166250.60999999999,"N_COORD97":2542490.4199999999,"ADDRESS":"中華西路一段１３７巷７７號","OBJECTID":387018},"geometry":{"x":166250.61000000127,"y":2542490.4200000018}},{"attributes":{"ID":387043,"DIS_CODE":0,"TOWNNAME":"南區","LI":"文南里","LIN":"28鄰","STREET":"中華西路","SECT":"一段","MAREA":" ","LANE":"１３７巷","ALLEY":" ","HOUSE_NO":"７５號","E_COORD97":166255.69,"N_COORD97":2542489.4700000002,"ADDRESS":"中華西路一段１３７巷７５號","OBJECTID":387019},"geometry":{"x":166255.69000000041,"y":2542489.4700000044}},{"attributes":{"ID":387044,"DIS_CODE":0,"TOWNNAME":"南區","LI":"文南里","LIN":"28鄰","STREET":"中華西路","SECT":"一段","MAREA":" ","LANE":"１３７巷","ALLEY":" ","HOUSE_NO":"７３號","E_COORD97":166260.76999999999,"N_COORD97":2542488.8399999999,"ADDRESS":"中華西路一段１３７巷７３號","OBJECTID":387020},"geometry":{"x":166260.76999999955,"y":2542488.8399999999}},{"attributes":{"ID":387045,"DIS_CODE":0,"TOWNNAME":"南區","LI":"文南里","LIN":"28鄰","STREET":"中華西路","SECT":"一段","MAREA":" ","LANE":"１３７巷","ALLEY":" ","HOUSE_NO":"７１號","E_COORD97":166265.69,"N_COORD97":2542487.8799999999,"ADDRESS":"中華西路一段１３７巷７１號","OBJECTID":387021},"geometry":{"x":166265.69000000041,"y":2542487.8799999971}},{"attributes":{"ID":387046,"DIS_CODE":0,"TOWNNAME":"南區","LI":"文南里","LIN":"28鄰","STREET":"中華西路","SECT":"一段","MAREA":" ","LANE":"１３７巷","ALLEY":" ","HOUSE_NO":"６７號","E_COORD97":166276.48000000001,"N_COORD97":2542486.0600000001,"ADDRESS":"中華西路一段１３７巷６７號","OBJECTID":387022},"geometry":{"x":166276.48000000138,"y":2542486.0600000024}},{"attributes":{"ID":387047,"DIS_CODE":0,"TOWNNAME":"善化區","LI":"光文里","LIN":"28鄰","STREET":"中山路","SECT":" ","MAREA":" ","LANE":"２４０巷","ALLEY":" ","HOUSE_NO":"４５號","E_COORD97":177782.28,"N_COORD97":2559199.25,"ADDRESS":"中山路２４０巷４５號","OBJECTID":387023},"geometry":{"x":177782.28000000026,"y":2559199.2500000019}},{"attributes":{"ID":387048,"DIS_CODE":0,"TOWNNAME":"善化區","LI":"光文里","LIN":"28鄰","STREET":"中山路","SECT":" ","MAREA":" ","LANE":"２４０巷","ALLEY":" ","HOUSE_NO":"２６號","E_COORD97":177807.70999999999,"N_COORD97":2559172.25,"ADDRESS":"中山路２４０巷２６號","OBJECTID":387024},"geometry":{"x":177807.70999999996,"y":2559172.2500000019}},{"attributes":{"ID":387049,"DIS_CODE":0,"TOWNNAME":"仁德區","LI":"上崙里","LIN":"28鄰","STREET":"上崙街","SECT":" ","MAREA":" ","LANE":"４５９巷","ALLEY":" ","HOUSE_NO":"４５號","E_COORD97":173027.48000000001,"N_COORD97":2537568.9900000002,"ADDRESS":"上崙街４５９巷４５號","OBJECTID":387025},"geometry":{"x":173027.48000000045,"y":2537568.9900000002}},{"attributes":{"ID":387050,"DIS_CODE":0,"TOWNNAME":"仁德區","LI":"上崙里","LIN":"28鄰","STREET":"上崙街","SECT":" ","MAREA":" ","LANE":"４５９巷","ALLEY":" ","HOUSE_NO":"２７號","E_COORD97":172973.54000000001,"N_COORD97":2537556.9900000002,"ADDRESS":"上崙街４５９巷２７號","OBJECTID":387026},"geometry":{"x":172973.54000000097,"y":2537556.9900000021}},{"attributes":{"ID":387051,"DIS_CODE":0,"TOWNNAME":"仁德區","LI":"上崙里","LIN":"28鄰","STREET":"上崙街","SECT":" ","MAREA":" ","LANE":"４５９巷","ALLEY":" ","HOUSE_NO":"８５號","E_COORD97":173120.14999999999,"N_COORD97":2537464.2400000002,"ADDRESS":"上崙街４５９巷８５號","OBJECTID":387027},"geometry":{"x":173120.14999999944,"y":2537464.2400000002}},{"attributes":{"ID":387052,"DIS_CODE":0,"TOWNNAME":"仁德區","LI":"上崙里","LIN":"28鄰","STREET":"上崙街","SECT":" ","MAREA":" ","LANE":"４５９巷","ALLEY":" ","HOUSE_NO":"１７號","E_COORD97":172954.73999999999,"N_COORD97":2537571.2400000002,"ADDRESS":"上崙街４５９巷１７號","OBJECTID":387028},"geometry":{"x":172954.74000000022,"y":2537571.2400000021}},{"attributes":{"ID":387053,"DIS_CODE":0,"TOWNNAME":"仁德區","LI":"上崙里","LIN":"28鄰","STREET":"上崙街","SECT":" ","MAREA":" ","LANE":"４５９巷","ALLEY":" ","HOUSE_NO":"３１號","E_COORD97":172981.34,"N_COORD97":2537557.2400000002,"ADDRESS":"上崙街４５９巷３１號","OBJECTID":387029},"geometry":{"x":172981.34000000078,"y":2537557.2399999984}},{"attributes":{"ID":387054,"DIS_CODE":0,"TOWNNAME":"仁德區","LI":"上崙里","LIN":"28鄰","STREET":"上崙街","SECT":" ","MAREA":" ","LANE":"４５９巷","ALLEY":" ","HOUSE_NO":"３３號","E_COORD97":172985.70000000001,"N_COORD97":2537557.4900000002,"ADDRESS":"上崙街４５９巷３３號","OBJECTID":387030},"geometry":{"x":172985.69999999925,"y":2537557.4900000002}},{"attributes":{"ID":387055,"DIS_CODE":0,"TOWNNAME":"永康區","LI":"\u25A0洲里","LIN":"28鄰","STREET":"洲尾街","SECT":" ","MAREA":" ","LANE":"１５４巷","ALLEY":" ","HOUSE_NO":"８號","E_COORD97":171094.85999999999,"N_COORD97":2549106.8100000001,"ADDRESS":"洲尾街１５４巷８號","OBJECTID":387031},"geometry":{"x":171094.8600000022,"y":2549106.8100000005}},{"attributes":{"ID":387056,"DIS_CODE":0,"TOWNNAME":"仁德區","LI":"仁愛里","LIN":"28鄰","STREET":"大同路","SECT":"三段","MAREA":" ","LANE":"３５８巷","ALLEY":" ","HOUSE_NO":"４６號","E_COORD97":169717.60999999999,"N_COORD97":2539442.27,"ADDRESS":"大同路三段３５８巷４６號","OBJECTID":387032},"geometry":{"x":169717.61000000034,"y":2539442.2700000014}},{"attributes":{"ID":387057,"DIS_CODE":0,"TOWNNAME":"仁德區","LI":"上崙里","LIN":"28鄰","STREET":"上崙街","SECT":" ","MAREA":" ","LANE":"４５９巷","ALLEY":" ","HOUSE_NO":"２９號","E_COORD97":172977.34,"N_COORD97":2537557.2400000002,"ADDRESS":"上崙街４５９巷２９號","OBJECTID":387033},"geometry":{"x":172977.33999999985,"y":2537557.2399999984}},{"attributes":{"ID":387058,"DIS_CODE":0,"TOWNNAME":"仁德區","LI":"仁愛里","LIN":"28鄰","STREET":"大同路","SECT":"三段","MAREA":" ","LANE":"３５８巷","ALLEY":" ","HOUSE_NO":"３２號","E_COORD97":169717.57000000001,"N_COORD97":2539466.7799999998,"ADDRESS":"大同路三段３５８巷３２號","OBJECTID":387034},"geometry":{"x":169717.57000000123,"y":2539466.7799999993}},{"attributes":{"ID":387059,"DIS_CODE":0,"TOWNNAME":"東區","LI":"後甲里","LIN":"28鄰","STREET":"裕農路","SECT":" ","MAREA":" ","LANE":"９７９巷","ALLEY":" ","HOUSE_NO":"１號","E_COORD97":172775.59,"N_COORD97":2543451.3500000001,"ADDRESS":"裕農路９７９巷１號","OBJECTID":387035},"geometry":{"x":172775.58999999985,"y":2543451.3499999996}},{"attributes":{"ID":387060,"DIS_CODE":0,"TOWNNAME":"東區","LI":"後甲里","LIN":"28鄰","STREET":"裕農路","SECT":" ","MAREA":" ","LANE":"９７９巷","ALLEY":" ","HOUSE_NO":"３號","E_COORD97":172775.73000000001,"N_COORD97":2543457.02,"ADDRESS":"裕農路９７９巷３號","OBJECTID":387036},"geometry":{"x":172775.73000000231,"y":2543457.0199999996}},{"attributes":{"ID":387061,"DIS_CODE":0,"TOWNNAME":"東區","LI":"後甲里","LIN":"28鄰","STREET":"裕農路","SECT":" ","MAREA":" ","LANE":"９７９巷","ALLEY":" ","HOUSE_NO":"５號","E_COORD97":172775.73000000001,"N_COORD97":2543462.1499999999,"ADDRESS":"裕農路９７９巷５號","OBJECTID":387037},"geometry":{"x":172775.73000000231,"y":2543462.1500000022}},{"attributes":{"ID":387062,"DIS_CODE":0,"TOWNNAME":"善化區","LI":"光文里","LIN":"28鄰","STREET":"中山路","SECT":" ","MAREA":" ","LANE":"２４０巷","ALLEY":" ","HOUSE_NO":"２４號（半毀）","E_COORD97":177832.39000000001,"N_COORD97":2559119.5,"ADDRESS":"中山路２４０巷２４號（半毀）","OBJECTID":387038},"geometry":{"x":177832.3900000006,"y":2559119.5000000019}},{"attributes":{"ID":387063,"DIS_CODE":0,"TOWNNAME":"善化區","LI":"光文里","LIN":"28鄰","STREET":"中山路","SECT":" ","MAREA":" ","LANE":"２４０巷","ALLEY":" ","HOUSE_NO":"１５號","E_COORD97":177957.48000000001,"N_COORD97":2559204.5,"ADDRESS":"中山路２４０巷１５號","OBJECTID":387039},"geometry":{"x":177957.48000000045,"y":2559204.5000000019}},{"attributes":{"ID":387064,"DIS_CODE":0,"TOWNNAME":"東區","LI":"崇誨里","LIN":"28鄰","STREET":"裕豐街","SECT":" ","MAREA":" ","LANE":"１８５巷","ALLEY":" ","HOUSE_NO":"３０號","E_COORD97":170699.48999999999,"N_COORD97":2543196.9399999999,"ADDRESS":"裕豐街１８５巷３０號","OBJECTID":387040},"geometry":{"x":170699.49000000115,"y":2543196.9400000032}},{"attributes":{"ID":387065,"DIS_CODE":0,"TOWNNAME":"永康區","LI":"龍潭里","LIN":"28鄰","STREET":"中山北路","SECT":" ","MAREA":" ","LANE":"３８５巷","ALLEY":" ","HOUSE_NO":"１８號之３","E_COORD97":174880.98000000001,"N_COORD97":2547778.7000000002,"ADDRESS":"中山北路３８５巷１８號之３","OBJECTID":387041},"geometry":{"x":174880.97999999952,"y":2547778.700000003}},{"attributes":{"ID":387066,"DIS_CODE":0,"TOWNNAME":"永康區","LI":"龍潭里","LIN":"28鄰","STREET":"中山北路","SECT":" ","MAREA":" ","LANE":"３８５巷","ALLEY":" ","HOUSE_NO":"３２號之１","E_COORD97":174947.07000000001,"N_COORD97":2547784.98,"ADDRESS":"中山北路３８５巷３２號之１","OBJECTID":387042},"geometry":{"x":174947.07000000123,"y":2547784.9800000042}},{"attributes":{"ID":387067,"DIS_CODE":0,"TOWNNAME":"永康區","LI":"龍潭里","LIN":"28鄰","STREET":"中山北路","SECT":" ","MAREA":" ","LANE":"３８５巷","ALLEY":" ","HOUSE_NO":"２８號之２","E_COORD97":174935.51999999999,"N_COORD97":2547782.1200000001,"ADDRESS":"中山北路３８５巷２８號之２","OBJECTID":387043},"geometry":{"x":174935.51999999955,"y":2547782.1200000029}},{"attributes":{"ID":387068,"DIS_CODE":0,"TOWNNAME":"永康區","LI":"龍潭里","LIN":"28鄰","STREET":"中山北路","SECT":" ","MAREA":" ","LANE":"３８５巷","ALLEY":" ","HOUSE_NO":"２０號之２","E_COORD97":174888.60000000001,"N_COORD97":2547779.7000000002,"ADDRESS":"中山北路３８５巷２０號之２","OBJECTID":387044},"geometry":{"x":174888.60000000056,"y":2547779.7000000011}},{"attributes":{"ID":387069,"DIS_CODE":0,"TOWNNAME":"永康區","LI":"龍潭里","LIN":"28鄰","STREET":"中山北路","SECT":" ","MAREA":" ","LANE":"３８５巷","ALLEY":" ","HOUSE_NO":"３４號","E_COORD97":174951.53,"N_COORD97":2547786.5099999998,"ADDRESS":"中山北路３８５巷３４號","OBJECTID":387045},"geometry":{"x":174951.53000000026,"y":2547786.5099999998}},{"attributes":{"ID":387070,"DIS_CODE":0,"TOWNNAME":"永康區","LI":"龍潭里","LIN":"28鄰","STREET":"中山北路","SECT":" ","MAREA":" ","LANE":"３８５巷","ALLEY":" ","HOUSE_NO":"３２之３號","E_COORD97":174947.42999999999,"N_COORD97":2547784.98,"ADDRESS":"中山北路３８５巷３２之３號","OBJECTID":387046},"geometry":{"x":174947.43000000063,"y":2547784.9800000042}},{"attributes":{"ID":387071,"DIS_CODE":0,"TOWNNAME":"永康區","LI":"龍潭里","LIN":"28鄰","STREET":"中山北路","SECT":" ","MAREA":" ","LANE":"３８５巷","ALLEY":" ","HOUSE_NO":"３０號之３","E_COORD97":174941.03,"N_COORD97":2547782.8700000001,"ADDRESS":"中山北路３８５巷３０號之３","OBJECTID":387047},"geometry":{"x":174941.03000000026,"y":2547782.8700000048}},{"attributes":{"ID":387072,"DIS_CODE":0,"TOWNNAME":"永康區","LI":"龍潭里","LIN":"28鄰","STREET":"中山北路","SECT":" ","MAREA":" ","LANE":"３８５巷","ALLEY":" ","HOUSE_NO":"３５號","E_COORD97":174928.12,"N_COORD97":2547816.54,"ADDRESS":"中山北路３８５巷３５號","OBJECTID":387048},"geometry":{"x":174928.12000000011,"y":2547816.5399999991}},{"attributes":{"ID":387073,"DIS_CODE":0,"TOWNNAME":"永康區","LI":"龍潭里","LIN":"28鄰","STREET":"中山北路","SECT":" ","MAREA":" ","LANE":"３８５巷","ALLEY":" ","HOUSE_NO":"３０號之１","E_COORD97":174940.94,"N_COORD97":2547782.8700000001,"ADDRESS":"中山北路３８５巷３０號之１","OBJECTID":387049},"geometry":{"x":174940.94000000134,"y":2547782.8700000048}},{"attributes":{"ID":387074,"DIS_CODE":0,"TOWNNAME":"永康區","LI":"龍潭里","LIN":"28鄰","STREET":"中山北路","SECT":" ","MAREA":" ","LANE":"３８５巷","ALLEY":" ","HOUSE_NO":"１４號","E_COORD97":174874.95000000001,"N_COORD97":2547758.9199999999,"ADDRESS":"中山北路３８５巷１４號","OBJECTID":387050},"geometry":{"x":174874.95000000112,"y":2547758.9200000018}},{"attributes":{"ID":387075,"DIS_CODE":0,"TOWNNAME":"永康區","LI":"龍潭里","LIN":"28鄰","STREET":"中山北路","SECT":" ","MAREA":" ","LANE":"３８５巷","ALLEY":" ","HOUSE_NO":"２８號之３","E_COORD97":174935.48000000001,"N_COORD97":2547782.1200000001,"ADDRESS":"中山北路３８５巷２８號之３","OBJECTID":387051},"geometry":{"x":174935.48000000138,"y":2547782.1200000029}},{"attributes":{"ID":387076,"DIS_CODE":0,"TOWNNAME":"永康區","LI":"龍潭里","LIN":"28鄰","STREET":"中山北路","SECT":" ","MAREA":" ","LANE":"３８５巷","ALLEY":" ","HOUSE_NO":"１８號之２","E_COORD97":174881.01999999999,"N_COORD97":2547778.7000000002,"ADDRESS":"中山北路３８５巷１８號之２","OBJECTID":387052},"geometry":{"x":174881.01999999955,"y":2547778.700000003}},{"attributes":{"ID":387077,"DIS_CODE":0,"TOWNNAME":"永康區","LI":"龍潭里","LIN":"28鄰","STREET":"中山北路","SECT":" ","MAREA":" ","LANE":"３８５巷","ALLEY":" ","HOUSE_NO":"２８號之１","E_COORD97":174935.39000000001,"N_COORD97":2547782.1200000001,"ADDRESS":"中山北路３８５巷２８號之１","OBJECTID":387053},"geometry":{"x":174935.3900000006,"y":2547782.1200000029}},{"attributes":{"ID":387078,"DIS_CODE":0,"TOWNNAME":"永康區","LI":"龍潭里","LIN":"28鄰","STREET":"中山北路","SECT":" ","MAREA":" ","LANE":"３８５巷","ALLEY":" ","HOUSE_NO":"２６號之３","E_COORD97":174927.19,"N_COORD97":2547782.3700000001,"ADDRESS":"中山北路３８５巷２６號之３","OBJECTID":387054},"geometry":{"x":174927.19000000227,"y":2547782.370000001}},{"attributes":{"ID":387079,"DIS_CODE":0,"TOWNNAME":"永康區","LI":"復興里","LIN":"28鄰","STREET":"興國街","SECT":" ","MAREA":" ","LANE":"１８２巷","ALLEY":" ","HOUSE_NO":"３號","E_COORD97":172367.57000000001,"N_COORD97":2544926.9900000002,"ADDRESS":"興國街１８２巷３號","OBJECTID":387055},"geometry":{"x":172367.5700000003,"y":2544926.9900000021}},{"attributes":{"ID":387080,"DIS_CODE":0,"TOWNNAME":"永康區","LI":"復興里","LIN":"28鄰","STREET":"興國街","SECT":" ","MAREA":" ","LANE":"１８２巷","ALLEY":" ","HOUSE_NO":"１５號","E_COORD97":172378.67999999999,"N_COORD97":2544956.25,"ADDRESS":"興國街１８２巷１５號","OBJECTID":387056},"geometry":{"x":172378.68000000063,"y":2544956.2500000019}},{"attributes":{"ID":387081,"DIS_CODE":0,"TOWNNAME":"永康區","LI":"復興里","LIN":"28鄰","STREET":"興國街","SECT":" ","MAREA":" ","LANE":"１６０巷","ALLEY":" ","HOUSE_NO":"３號","E_COORD97":172361.87,"N_COORD97":2544870.25,"ADDRESS":"興國街１６０巷３號","OBJECTID":387057},"geometry":{"x":172361.87000000011,"y":2544870.2500000037}},{"attributes":{"ID":387082,"DIS_CODE":0,"TOWNNAME":"仁德區","LI":"上崙里","LIN":"28鄰","STREET":"上崙街","SECT":" ","MAREA":" ","LANE":"４５９巷","ALLEY":" ","HOUSE_NO":"１９號","E_COORD97":172955.60000000001,"N_COORD97":2537566.4900000002,"ADDRESS":"上崙街４５９巷１９號","OBJECTID":387058},"geometry":{"x":172955.60000000056,"y":2537566.4900000021}},{"attributes":{"ID":387083,"DIS_CODE":0,"TOWNNAME":"仁德區","LI":"太子里","LIN":"28鄰","STREET":"太子五街","SECT":" ","MAREA":" ","LANE":"２２巷","ALLEY":" ","HOUSE_NO":"１號","E_COORD97":173035.62,"N_COORD97":2543188.25,"ADDRESS":"太子五街２２巷１號","OBJECTID":387059},"geometry":{"x":173035.62000000104,"y":2543188.2499999981}},{"attributes":{"ID":387084,"DIS_CODE":0,"TOWNNAME":"永康區","LI":"\u25A0行里","LIN":"28鄰","STREET":"中正三街","SECT":" ","MAREA":" ","LANE":"４５５巷","ALLEY":" ","HOUSE_NO":"２０號","E_COORD97":173097.37,"N_COORD97":2548561.2400000002,"ADDRESS":"中正三街４５５巷２０號","OBJECTID":387060},"geometry":{"x":173097.37000000011,"y":2548561.2400000002}},{"attributes":{"ID":387085,"DIS_CODE":0,"TOWNNAME":"永康區","LI":"\u25A0行里","LIN":"28鄰","STREET":"中正三街","SECT":" ","MAREA":" ","LANE":"４５５巷","ALLEY":" ","HOUSE_NO":"１６號","E_COORD97":173081.32000000001,"N_COORD97":2548561.9900000002,"ADDRESS":"中正三街４５５巷１６號","OBJECTID":387061},"geometry":{"x":173081.3200000003,"y":2548561.9900000021}},{"attributes":{"ID":387086,"DIS_CODE":0,"TOWNNAME":"永康區","LI":"\u25A0洲里","LIN":"28鄰","STREET":"洲尾街","SECT":" ","MAREA":" ","LANE":"１５２巷","ALLEY":" ","HOUSE_NO":"２１號","E_COORD97":171091.57000000001,"N_COORD97":2549067.29,"ADDRESS":"洲尾街１５２巷２１號","OBJECTID":387062},"geometry":{"x":171091.57000000216,"y":2549067.290000001}},{"attributes":{"ID":387087,"DIS_CODE":0,"TOWNNAME":"永康區","LI":"\u25A0洲里","LIN":"28鄰","STREET":"洲尾街","SECT":" ","MAREA":" ","LANE":"１５２巷","ALLEY":" ","HOUSE_NO":"３３號","E_COORD97":171110.92000000001,"N_COORD97":2549080.04,"ADDRESS":"洲尾街１５２巷３３號","OBJECTID":387063},"geometry":{"x":171110.92000000179,"y":2549080.0399999991}},{"attributes":{"ID":387088,"DIS_CODE":0,"TOWNNAME":"永康區","LI":"\u25A0洲里","LIN":"28鄰","STREET":"洲尾街","SECT":" ","MAREA":" ","LANE":"１５２巷","ALLEY":" ","HOUSE_NO":"１７號","E_COORD97":171085.10000000001,"N_COORD97":2549063.29,"ADDRESS":"洲尾街１５２巷１７號","OBJECTID":387064},"geometry":{"x":171085.09999999963,"y":2549063.290000001}},{"attributes":{"ID":387089,"DIS_CODE":0,"TOWNNAME":"永康區","LI":"\u25A0洲里","LIN":"28鄰","STREET":"洲尾街","SECT":" ","MAREA":" ","LANE":"１５２巷","ALLEY":" ","HOUSE_NO":"３１號","E_COORD97":171107.70999999999,"N_COORD97":2549077.79,"ADDRESS":"洲尾街１５２巷３１號","OBJECTID":387065},"geometry":{"x":171107.71000000089,"y":2549077.790000001}},{"attributes":{"ID":387090,"DIS_CODE":0,"TOWNNAME":"永康區","LI":"\u25A0洲里","LIN":"28鄰","STREET":"洲尾街","SECT":" ","MAREA":" ","LANE":"１５２巷","ALLEY":" ","HOUSE_NO":"１９號","E_COORD97":171088.26000000001,"N_COORD97":2549065.04,"ADDRESS":"洲尾街１５２巷１９號","OBJECTID":387066},"geometry":{"x":171088.26000000071,"y":2549065.040000001}},{"attributes":{"ID":387091,"DIS_CODE":0,"TOWNNAME":"永康區","LI":"\u25A0洲里","LIN":"28鄰","STREET":"洲尾街","SECT":" ","MAREA":" ","LANE":"１５２巷","ALLEY":" ","HOUSE_NO":"１３號","E_COORD97":171070.82999999999,"N_COORD97":2549079.1400000001,"ADDRESS":"洲尾街１５２巷１３號","OBJECTID":387067},"geometry":{"x":171070.82999999914,"y":2549079.1400000043}},{"attributes":{"ID":387092,"DIS_CODE":0,"TOWNNAME":"永康區","LI":"\u25A0洲里","LIN":"28鄰","STREET":"洲尾街","SECT":" ","MAREA":" ","LANE":"１５４巷","ALLEY":" ","HOUSE_NO":"６號","E_COORD97":171087.81,"N_COORD97":2549105.6200000001,"ADDRESS":"洲尾街１５４巷６號","OBJECTID":387068},"geometry":{"x":171087.81000000052,"y":2549105.620000001}},{"attributes":{"ID":387093,"DIS_CODE":0,"TOWNNAME":"永康區","LI":"\u25A0洲里","LIN":"28鄰","STREET":"洲尾街","SECT":" ","MAREA":" ","LANE":"１５２巷","ALLEY":" ","HOUSE_NO":"３７號","E_COORD97":171117.72,"N_COORD97":2549085.04,"ADDRESS":"洲尾街１５２巷３７號","OBJECTID":387069},"geometry":{"x":171117.72000000067,"y":2549085.0400000028}},{"attributes":{"ID":387094,"DIS_CODE":0,"TOWNNAME":"永康區","LI":"\u25A0洲里","LIN":"28鄰","STREET":"洲尾街","SECT":" ","MAREA":" ","LANE":"１５２巷","ALLEY":" ","HOUSE_NO":"５４號","E_COORD97":171130.56,"N_COORD97":2549078.4300000002,"ADDRESS":"洲尾街１５２巷５４號","OBJECTID":387070},"geometry":{"x":171130.56000000052,"y":2549078.4299999997}},{"attributes":{"ID":387095,"DIS_CODE":0,"TOWNNAME":"安南區","LI":"\u25A0南里","LIN":"28鄰","STREET":"安昌街","SECT":" ","MAREA":" ","LANE":"３００巷","ALLEY":" ","HOUSE_NO":"３１號","E_COORD97":170231.22,"N_COORD97":2552779.6000000001,"ADDRESS":"安昌街３００巷３１號","OBJECTID":387071},"geometry":{"x":170231.22000000067,"y":2552779.5999999996}},{"attributes":{"ID":387096,"DIS_CODE":0,"TOWNNAME":"安南區","LI":"\u25A0南里","LIN":"28鄰","STREET":"安昌街","SECT":" ","MAREA":" ","LANE":"３１０巷","ALLEY":" ","HOUSE_NO":"１９號","E_COORD97":170231.73000000001,"N_COORD97":2552805.3999999999,"ADDRESS":"安昌街３１０巷１９號","OBJECTID":387072},"geometry":{"x":170231.73000000138,"y":2552805.4000000004}},{"attributes":{"ID":387097,"DIS_CODE":0,"TOWNNAME":"善化區","LI":"光文里","LIN":"28鄰","STREET":"中山路","SECT":" ","MAREA":" ","LANE":"２４０巷","ALLEY":" ","HOUSE_NO":"２７號","E_COORD97":177807.38,"N_COORD97":2559176.75,"ADDRESS":"中山路２４０巷２７號","OBJECTID":387073},"geometry":{"x":177807.38000000082,"y":2559176.75}},{"attributes":{"ID":387098,"DIS_CODE":0,"TOWNNAME":"善化區","LI":"光文里","LIN":"28鄰","STREET":"中山路","SECT":" ","MAREA":" ","LANE":"２４０巷","ALLEY":" ","HOUSE_NO":"５１號","E_COORD97":177784.26000000001,"N_COORD97":2559240.25,"ADDRESS":"中山路２４０巷５１號","OBJECTID":387074},"geometry":{"x":177784.26000000071,"y":2559240.2500000019}},{"attributes":{"ID":387099,"DIS_CODE":0,"TOWNNAME":"善化區","LI":"光文里","LIN":"28鄰","STREET":"中山路","SECT":" ","MAREA":" ","LANE":"２４０巷","ALLEY":" ","HOUSE_NO":"５２號","E_COORD97":177772.70000000001,"N_COORD97":2559210.5,"ADDRESS":"中山路２４０巷５２號","OBJECTID":387075},"geometry":{"x":177772.70000000019,"y":2559210.5000000019}},{"attributes":{"ID":387100,"DIS_CODE":0,"TOWNNAME":"善化區","LI":"光文里","LIN":"28鄰","STREET":"中山路","SECT":" ","MAREA":" ","LANE":"２４０巷","ALLEY":" ","HOUSE_NO":"４２號","E_COORD97":177782.42999999999,"N_COORD97":2559179.25,"ADDRESS":"中山路２４０巷４２號","OBJECTID":387076},"geometry":{"x":177782.4299999997,"y":2559179.25}},{"attributes":{"ID":387101,"DIS_CODE":0,"TOWNNAME":"善化區","LI":"光文里","LIN":"28鄰","STREET":"中山路","SECT":" ","MAREA":" ","LANE":"２４０巷","ALLEY":" ","HOUSE_NO":"３４號","E_COORD97":177809.26000000001,"N_COORD97":2559212.75,"ADDRESS":"中山路２４０巷３４號","OBJECTID":387077},"geometry":{"x":177809.25999999978,"y":2559212.7500000019}},{"attributes":{"ID":387102,"DIS_CODE":0,"TOWNNAME":"善化區","LI":"光文里","LIN":"28鄰","STREET":"中山路","SECT":" ","MAREA":" ","LANE":"２４０巷","ALLEY":" ","HOUSE_NO":"３３號","E_COORD97":177809.20000000001,"N_COORD97":2559208.25,"ADDRESS":"中山路２４０巷３３號","OBJECTID":387078},"geometry":{"x":177809.20000000112,"y":2559208.2500000037}},{"attributes":{"ID":387103,"DIS_CODE":0,"TOWNNAME":"善化區","LI":"光文里","LIN":"28鄰","STREET":"中山路","SECT":" ","MAREA":" ","LANE":"２４０巷","ALLEY":" ","HOUSE_NO":"３５號","E_COORD97":177809.39000000001,"N_COORD97":2559216.75,"ADDRESS":"中山路２４０巷３５號","OBJECTID":387079},"geometry":{"x":177809.38999999966,"y":2559216.75}},{"attributes":{"ID":387104,"DIS_CODE":0,"TOWNNAME":"善化區","LI":"光文里","LIN":"28鄰","STREET":"中山路","SECT":" ","MAREA":" ","LANE":"３０２巷","ALLEY":" ","HOUSE_NO":"３號","E_COORD97":177770.78,"N_COORD97":2559178.5,"ADDRESS":"中山路３０２巷３號","OBJECTID":387080},"geometry":{"x":177770.77999999933,"y":2559178.5}},{"attributes":{"ID":387105,"DIS_CODE":0,"TOWNNAME":"善化區","LI":"光文里","LIN":"28鄰","STREET":"中山路","SECT":" ","MAREA":" ","LANE":"２４０巷","ALLEY":" ","HOUSE_NO":"５４號","E_COORD97":177772.85999999999,"N_COORD97":2559222.75,"ADDRESS":"中山路２４０巷５４號","OBJECTID":387081},"geometry":{"x":177772.86000000127,"y":2559222.7500000019}},{"attributes":{"ID":387106,"DIS_CODE":0,"TOWNNAME":"善化區","LI":"光文里","LIN":"28鄰","STREET":"中山路","SECT":" ","MAREA":" ","LANE":"２４０巷","ALLEY":" ","HOUSE_NO":"４７號","E_COORD97":177783.14999999999,"N_COORD97":2559217,"ADDRESS":"中山路２４０巷４７號","OBJECTID":387082},"geometry":{"x":177783.15000000037,"y":2559217.0000000019}},{"attributes":{"ID":387107,"DIS_CODE":0,"TOWNNAME":"永康區","LI":"復國里","LIN":"28鄰","STREET":"復國一路","SECT":" ","MAREA":" ","LANE":"２３７巷","ALLEY":" ","HOUSE_NO":"１９號","E_COORD97":172665.29000000001,"N_COORD97":2545409.8900000001,"ADDRESS":"復國一路２３７巷１９號","OBJECTID":387083},"geometry":{"x":172665.29000000097,"y":2545409.8900000025}},{"attributes":{"ID":387108,"DIS_CODE":0,"TOWNNAME":"永康區","LI":"龍潭里","LIN":"28鄰","STREET":"中山北路","SECT":" ","MAREA":" ","LANE":"３８５巷","ALLEY":" ","HOUSE_NO":"７號","E_COORD97":174864.38,"N_COORD97":2547756.1600000001,"ADDRESS":"中山北路３８５巷７號","OBJECTID":387084},"geometry":{"x":174864.38000000082,"y":2547756.1600000039}},{"attributes":{"ID":387109,"DIS_CODE":0,"TOWNNAME":"永康區","LI":"龍潭里","LIN":"28鄰","STREET":"中山北路","SECT":" ","MAREA":" ","LANE":"３８５巷","ALLEY":" ","HOUSE_NO":"１２號","E_COORD97":174875.70000000001,"N_COORD97":2547754.6699999999,"ADDRESS":"中山北路３８５巷１２號","OBJECTID":387085},"geometry":{"x":174875.70000000019,"y":2547754.6699999999}},{"attributes":{"ID":387110,"DIS_CODE":0,"TOWNNAME":"永康區","LI":"崑山里","LIN":"28鄰","STREET":"大灣路","SECT":" ","MAREA":" ","LANE":"９４２巷","ALLEY":" ","HOUSE_NO":"２５５號","E_COORD97":173777.70999999999,"N_COORD97":2544951.7400000002,"ADDRESS":"大灣路９４２巷２５５號","OBJECTID":387086},"geometry":{"x":173777.71000000089,"y":2544951.7400000039}},{"attributes":{"ID":387111,"DIS_CODE":0,"TOWNNAME":"永康區","LI":"崑山里","LIN":"28鄰","STREET":"大灣路","SECT":" ","MAREA":" ","LANE":"９４２巷","ALLEY":" ","HOUSE_NO":"１７１號","E_COORD97":173720.10000000001,"N_COORD97":2544791.75,"ADDRESS":"大灣路９４２巷１７１號","OBJECTID":387087},"geometry":{"x":173720.10000000056,"y":2544791.75}},{"attributes":{"ID":387112,"DIS_CODE":0,"TOWNNAME":"永康區","LI":"崑山里","LIN":"28鄰","STREET":"大灣路","SECT":" ","MAREA":" ","LANE":"９４２巷","ALLEY":" ","HOUSE_NO":"２６１號","E_COORD97":173781.76000000001,"N_COORD97":2544963.75,"ADDRESS":"大灣路９４２巷２６１號","OBJECTID":387088},"geometry":{"x":173781.76000000164,"y":2544963.75}},{"attributes":{"ID":387113,"DIS_CODE":0,"TOWNNAME":"永康區","LI":"崑山里","LIN":"28鄰","STREET":"大灣路","SECT":" ","MAREA":" ","LANE":"９４２巷","ALLEY":" ","HOUSE_NO":"２６９號","E_COORD97":173787.35000000001,"N_COORD97":2544979.75,"ADDRESS":"大灣路９４２巷２６９號","OBJECTID":387089},"geometry":{"x":173787.34999999963,"y":2544979.7500000019}},{"attributes":{"ID":387114,"DIS_CODE":0,"TOWNNAME":"東區","LI":"崇信里","LIN":"28鄰","STREET":"崇善一街","SECT":" ","MAREA":" ","LANE":"３巷","ALLEY":" ","HOUSE_NO":"９號","E_COORD97":170661.89999999999,"N_COORD97":2542149.7999999998,"ADDRESS":"崇善一街３巷９號","OBJECTID":387090},"geometry":{"x":170661.90000000037,"y":2542149.8000000026}},{"attributes":{"ID":387115,"DIS_CODE":0,"TOWNNAME":"永康區","LI":"復國里","LIN":"28鄰","STREET":"復國一路","SECT":" ","MAREA":" ","LANE":"２３７巷","ALLEY":" ","HOUSE_NO":"７號","E_COORD97":172695.70999999999,"N_COORD97":2545412.5299999998,"ADDRESS":"復國一路２３７巷７號","OBJECTID":387091},"geometry":{"x":172695.71000000183,"y":2545412.5299999993}},{"attributes":{"ID":387116,"DIS_CODE":0,"TOWNNAME":"永康區","LI":"\u25A0洲里","LIN":"28鄰","STREET":"洲尾街","SECT":" ","MAREA":" ","LANE":"１５２巷","ALLEY":" ","HOUSE_NO":"７號","E_COORD97":171066.69,"N_COORD97":2549090.8900000001,"ADDRESS":"洲尾街１５２巷７號","OBJECTID":387092},"geometry":{"x":171066.69000000041,"y":2549090.8900000043}},{"attributes":{"ID":387117,"DIS_CODE":0,"TOWNNAME":"永康區","LI":"永康里","LIN":"28鄰","STREET":"永平街","SECT":" ","MAREA":" ","LANE":"４６９巷","ALLEY":" ","HOUSE_NO":"２０號","E_COORD97":174162.73999999999,"N_COORD97":2546890.8500000001,"ADDRESS":"永平街４６９巷２０號","OBJECTID":387093},"geometry":{"x":174162.74000000115,"y":2546890.8500000015}},{"attributes":{"ID":387118,"DIS_CODE":0,"TOWNNAME":"永康區","LI":"甲頂里","LIN":"28鄰","STREET":"中央路","SECT":" ","MAREA":" ","LANE":"２３巷","ALLEY":" ","HOUSE_NO":"５３號","E_COORD97":169426.39000000001,"N_COORD97":2546921.79,"ADDRESS":"中央路２３巷５３號","OBJECTID":387094},"geometry":{"x":169426.3900000006,"y":2546921.790000001}},{"attributes":{"ID":387119,"DIS_CODE":0,"TOWNNAME":"新營區","LI":"新東里","LIN":"28鄰","STREET":"東光街","SECT":" ","MAREA":" ","LANE":"８８巷","ALLEY":" ","HOUSE_NO":"１０號","E_COORD97":180632.01000000001,"N_COORD97":2579674.98,"ADDRESS":"東光街８８巷１０號","OBJECTID":387095},"geometry":{"x":180632.01000000164,"y":2579674.9800000023}},{"attributes":{"ID":387120,"DIS_CODE":0,"TOWNNAME":"北區","LI":"大港里","LIN":"28鄰","STREET":"大興街","SECT":" ","MAREA":" ","LANE":"３７６巷","ALLEY":" ","HOUSE_NO":"３號","E_COORD97":166265.41,"N_COORD97":2545578.1600000001,"ADDRESS":"大興街３７６巷３號","OBJECTID":387096},"geometry":{"x":166265.41000000108,"y":2545578.1600000001}},{"attributes":{"ID":387121,"DIS_CODE":0,"TOWNNAME":"北區","LI":"重興里","LIN":"28鄰","STREET":"東豐路","SECT":" ","MAREA":" ","LANE":"４５１巷","ALLEY":" ","HOUSE_NO":"１５１號","E_COORD97":170771.54999999999,"N_COORD97":2544862.77,"ADDRESS":"東豐路４５１巷１５１號","OBJECTID":387097},"geometry":{"x":170771.55000000075,"y":2544862.7700000033}},{"attributes":{"ID":387122,"DIS_CODE":0,"TOWNNAME":"北區","LI":"重興里","LIN":"28鄰","STREET":"東豐路","SECT":" ","MAREA":" ","LANE":"４５１巷","ALLEY":" ","HOUSE_NO":"１５３號","E_COORD97":170740.23999999999,"N_COORD97":2544851.0299999998,"ADDRESS":"東豐路４５１巷１５３號","OBJECTID":387098},"geometry":{"x":170740.24000000115,"y":2544851.0300000012}},{"attributes":{"ID":387123,"DIS_CODE":0,"TOWNNAME":"北區","LI":"重興里","LIN":"28鄰","STREET":"東豐路","SECT":" ","MAREA":" ","LANE":"４５１巷","ALLEY":" ","HOUSE_NO":"１５５號","E_COORD97":170745.82000000001,"N_COORD97":2544858.9100000001,"ADDRESS":"東豐路４５１巷１５５號","OBJECTID":387099},"geometry":{"x":170745.82000000216,"y":2544858.9099999983}},{"attributes":{"ID":387124,"DIS_CODE":0,"TOWNNAME":"北區","LI":"重興里","LIN":"28鄰","STREET":"東豐路","SECT":" ","MAREA":" ","LANE":"４５１巷","ALLEY":" ","HOUSE_NO":"１５７號","E_COORD97":170750.66,"N_COORD97":2544866.6899999999,"ADDRESS":"東豐路４５１巷１５７號","OBJECTID":387100},"geometry":{"x":170750.66000000108,"y":2544866.6900000032}},{"attributes":{"ID":387125,"DIS_CODE":0,"TOWNNAME":"永康區","LI":"\u25A0洲里","LIN":"13鄰","STREET":"\u25A0洲一街","SECT":" ","MAREA":" ","LANE":" ","ALLEY":" ","HOUSE_NO":"７６號","E_COORD97":171600.39999999999,"N_COORD97":2549061.2400000002,"ADDRESS":"\u25A0洲一街７６號","OBJECTID":387101},"geometry":{"x":171600.4000000013,"y":2549061.2400000021}},{"attributes":{"ID":387126,"DIS_CODE":0,"TOWNNAME":"北區","LI":"重興里","LIN":"28鄰","STREET":"東豐路","SECT":" ","MAREA":" ","LANE":"４５１巷","ALLEY":" ","HOUSE_NO":"１５９號","E_COORD97":170755.17999999999,"N_COORD97":2544874.1499999999,"ADDRESS":"東豐路４５１巷１５９號","OBJECTID":387102},"geometry":{"x":170755.18000000063,"y":2544874.1500000004}},{"attributes":{"ID":387127,"DIS_CODE":0,"TOWNNAME":"北區","LI":"重興里","LIN":"28鄰","STREET":"東豐路","SECT":" ","MAREA":" ","LANE":"４５１巷","ALLEY":" ","HOUSE_NO":"１６１號","E_COORD97":170728.76999999999,"N_COORD97":2544856.8100000001,"ADDRESS":"東豐路４５１巷１６１號","OBJECTID":387103},"geometry":{"x":170728.77000000048,"y":2544856.8100000042}},{"attributes":{"ID":387128,"DIS_CODE":0,"TOWNNAME":"北區","LI":"重興里","LIN":"28鄰","STREET":"東豐路","SECT":" ","MAREA":" ","LANE":"４５１巷","ALLEY":" ","HOUSE_NO":"１６３號","E_COORD97":170732.87,"N_COORD97":2544864.48,"ADDRESS":"東豐路４５１巷１６３號","OBJECTID":387104},"geometry":{"x":170732.87000000011,"y":2544864.4800000004}},{"attributes":{"ID":387129,"DIS_CODE":0,"TOWNNAME":"北區","LI":"重興里","LIN":"28鄰","STREET":"東豐路","SECT":" ","MAREA":" ","LANE":"４５１巷","ALLEY":" ","HOUSE_NO":"１６５號","E_COORD97":170737.70999999999,"N_COORD97":2544872.6800000002,"ADDRESS":"東豐路４５１巷１６５號","OBJECTID":387105},"geometry":{"x":170737.71000000183,"y":2544872.6799999997}},{"attributes":{"ID":387130,"DIS_CODE":0,"TOWNNAME":"北區","LI":"重興里","LIN":"28鄰","STREET":"東豐路","SECT":" ","MAREA":" ","LANE":"４５１巷","ALLEY":" ","HOUSE_NO":"１６７號","E_COORD97":170742.45000000001,"N_COORD97":2544880.5600000001,"ADDRESS":"東豐路４５１巷１６７號","OBJECTID":387106},"geometry":{"x":170742.45000000019,"y":2544880.5600000005}},{"attributes":{"ID":387131,"DIS_CODE":0,"TOWNNAME":"北區","LI":"重興里","LIN":"28鄰","STREET":"東豐路","SECT":" ","MAREA":" ","LANE":"４５１巷","ALLEY":" ","HOUSE_NO":"１６９號","E_COORD97":170718.56,"N_COORD97":2544890.9900000002,"ADDRESS":"東豐路４５１巷１６９號","OBJECTID":387107},"geometry":{"x":170718.56000000052,"y":2544890.9900000002}},{"attributes":{"ID":387132,"DIS_CODE":0,"TOWNNAME":"北區","LI":"和順里","LIN":"28鄰","STREET":"臨安路","SECT":"二段","MAREA":" ","LANE":"１９５巷","ALLEY":" ","HOUSE_NO":"８６號","E_COORD97":167917.12,"N_COORD97":2545210.0800000001,"ADDRESS":"臨安路二段１９５巷８６號","OBJECTID":387108},"geometry":{"x":167917.12000000011,"y":2545210.0800000001}},{"attributes":{"ID":387133,"DIS_CODE":0,"TOWNNAME":"北區","LI":"和順里","LIN":"28鄰","STREET":"臨安路","SECT":"二段","MAREA":" ","LANE":"１９５巷","ALLEY":" ","HOUSE_NO":"８８號","E_COORD97":167916.94,"N_COORD97":2545214.8100000001,"ADDRESS":"臨安路二段１９５巷８８號","OBJECTID":387109},"geometry":{"x":167916.94000000041,"y":2545214.8100000005}},{"attributes":{"ID":387134,"DIS_CODE":0,"TOWNNAME":"新營區","LI":"忠政里","LIN":"28鄰","STREET":"中正路","SECT":" ","MAREA":" ","LANE":"３９巷","ALLEY":" ","HOUSE_NO":"７４之１９號","E_COORD97":179861.88,"N_COORD97":2579312.1099999999,"ADDRESS":"中正路３９巷７４之１９號","OBJECTID":387110},"geometry":{"x":179861.88000000082,"y":2579312.1099999994}},{"attributes":{"ID":387135,"DIS_CODE":0,"TOWNNAME":"新營區","LI":"民榮里","LIN":"28鄰","STREET":"復興路","SECT":" ","MAREA":" ","LANE":"５１１巷","ALLEY":" ","HOUSE_NO":"３９號","E_COORD97":178080.10000000001,"N_COORD97":2578165.5099999998,"ADDRESS":"復興路５１１巷３９號","OBJECTID":387111},"geometry":{"x":178080.10000000056,"y":2578165.5100000016}},{"attributes":{"ID":387136,"DIS_CODE":0,"TOWNNAME":"新營區","LI":"新東里","LIN":"28鄰","STREET":"東光街","SECT":" ","MAREA":" ","LANE":"５１巷","ALLEY":" ","HOUSE_NO":"５號","E_COORD97":180593.81,"N_COORD97":2579644.1400000001,"ADDRESS":"東光街５１巷５號","OBJECTID":387112},"geometry":{"x":180593.80999999959,"y":2579644.1400000025}},{"attributes":{"ID":387137,"DIS_CODE":0,"TOWNNAME":"新營區","LI":"南興里","LIN":"28鄰","STREET":"建業路","SECT":" ","MAREA":" ","LANE":"１１１巷","ALLEY":" ","HOUSE_NO":"１２號","E_COORD97":178490.67999999999,"N_COORD97":2577421.5299999998,"ADDRESS":"建業路１１１巷１２號","OBJECTID":387113},"geometry":{"x":178490.6799999997,"y":2577421.5299999993}},{"attributes":{"ID":387138,"DIS_CODE":0,"TOWNNAME":"北區","LI":"和順里","LIN":"28鄰","STREET":"海安路","SECT":"三段","MAREA":" ","LANE":"２１９巷","ALLEY":" ","HOUSE_NO":"３７號之１","E_COORD97":167845.89999999999,"N_COORD97":2545233.0299999998,"ADDRESS":"海安路三段２１９巷３７號之１","OBJECTID":387114},"geometry":{"x":167845.90000000037,"y":2545233.0299999993}},{"attributes":{"ID":387139,"DIS_CODE":0,"TOWNNAME":"歸仁區","LI":"六甲里","LIN":"28鄰","STREET":"六甲路","SECT":" ","MAREA":" ","LANE":"２５４巷","ALLEY":" ","HOUSE_NO":"１０號","E_COORD97":175880.51999999999,"N_COORD97":2539249.25,"ADDRESS":"六甲路２５４巷１０號","OBJECTID":387115},"geometry":{"x":175880.52000000048,"y":2539249.2500000019}},{"attributes":{"ID":387140,"DIS_CODE":0,"TOWNNAME":"安平區","LI":"平通里","LIN":"28鄰","STREET":"育平七街","SECT":" ","MAREA":" ","LANE":"８０巷","ALLEY":" ","HOUSE_NO":"２４號","E_COORD97":164407.12,"N_COORD97":2543831.1600000001,"ADDRESS":"育平七街８０巷２４號","OBJECTID":387116},"geometry":{"x":164407.12000000104,"y":2543831.160000002}},{"attributes":{"ID":387141,"DIS_CODE":0,"TOWNNAME":"安平區","LI":"平通里","LIN":"28鄰","STREET":"育平七街","SECT":" ","MAREA":" ","LANE":"８０巷","ALLEY":" ","HOUSE_NO":"２５號","E_COORD97":164378.47,"N_COORD97":2543837.5099999998,"ADDRESS":"育平七街８０巷２５號","OBJECTID":387117},"geometry":{"x":164378.46999999974,"y":2543837.5100000035}},{"attributes":{"ID":387142,"DIS_CODE":0,"TOWNNAME":"安平區","LI":"平通里","LIN":"28鄰","STREET":"育平七街","SECT":" ","MAREA":" ","LANE":"８０巷","ALLEY":" ","HOUSE_NO":"２６號","E_COORD97":164407.06,"N_COORD97":2543834.3399999999,"ADDRESS":"育平七街８０巷２６號","OBJECTID":387118},"geometry":{"x":164407.06000000052,"y":2543834.3399999999}},{"attributes":{"ID":387143,"DIS_CODE":0,"TOWNNAME":"安平區","LI":"平通里","LIN":"28鄰","STREET":"育平七街","SECT":" ","MAREA":" ","LANE":"８０巷","ALLEY":" ","HOUSE_NO":"２７號","E_COORD97":164378.87,"N_COORD97":2543840.9300000002,"ADDRESS":"育平七街８０巷２７號","OBJECTID":387119},"geometry":{"x":164378.87000000104,"y":2543840.9299999997}},{"attributes":{"ID":387144,"DIS_CODE":0,"TOWNNAME":"安平區","LI":"平通里","LIN":"28鄰","STREET":"育平七街","SECT":" ","MAREA":" ","LANE":"８０巷","ALLEY":" ","HOUSE_NO":"２８號","E_COORD97":164407.06,"N_COORD97":2543839.3500000001,"ADDRESS":"育平七街８０巷２８號","OBJECTID":387120},"geometry":{"x":164407.06000000052,"y":2543839.3500000015}},{"attributes":{"ID":387145,"DIS_CODE":0,"TOWNNAME":"安平區","LI":"平通里","LIN":"28鄰","STREET":"育平七街","SECT":" ","MAREA":" ","LANE":"８０巷","ALLEY":" ","HOUSE_NO":"２號","E_COORD97":164406.79999999999,"N_COORD97":2543791.4199999999,"ADDRESS":"育平七街８０巷２號","OBJECTID":387121},"geometry":{"x":164406.79999999981,"y":2543791.4200000018}},{"attributes":{"ID":387146,"DIS_CODE":0,"TOWNNAME":"南區","LI":"金華里","LIN":"28鄰","STREET":"健康路","SECT":"二段","MAREA":" ","LANE":"４０１巷","ALLEY":" ","HOUSE_NO":"１６號","E_COORD97":166564.56,"N_COORD97":2542446.3599999999,"ADDRESS":"健康路二段４０１巷１６號","OBJECTID":387122},"geometry":{"x":166564.55999999959,"y":2542446.3599999994}},{"attributes":{"ID":387147,"DIS_CODE":0,"TOWNNAME":"南區","LI":"金華里","LIN":"28鄰","STREET":"健康路","SECT":"二段","MAREA":" ","LANE":"４０１巷","ALLEY":" ","HOUSE_NO":"１８號","E_COORD97":166562.19,"N_COORD97":2542439.9399999999,"ADDRESS":"健康路二段４０１巷１８號","OBJECTID":387123},"geometry":{"x":166562.19000000041,"y":2542439.9399999995}},{"attributes":{"ID":387148,"DIS_CODE":0,"TOWNNAME":"南區","LI":"金華里","LIN":"28鄰","STREET":"健康路","SECT":"二段","MAREA":" ","LANE":"４０１巷","ALLEY":" ","HOUSE_NO":"２０號","E_COORD97":166559.03,"N_COORD97":2542431.4399999999,"ADDRESS":"健康路二段４０１巷２０號","OBJECTID":387124},"geometry":{"x":166559.03000000119,"y":2542431.4400000013}},{"attributes":{"ID":387149,"DIS_CODE":0,"TOWNNAME":"南區","LI":"金華里","LIN":"28鄰","STREET":"健康路","SECT":"二段","MAREA":" ","LANE":"４０１巷","ALLEY":" ","HOUSE_NO":"２２號","E_COORD97":166558.13,"N_COORD97":2542425.02,"ADDRESS":"健康路二段４０１巷２２號","OBJECTID":387125},"geometry":{"x":166558.13000000082,"y":2542425.0200000014}},{"attributes":{"ID":387150,"DIS_CODE":0,"TOWNNAME":"南區","LI":"金華里","LIN":"28鄰","STREET":"健康路","SECT":"二段","MAREA":" ","LANE":"４０１巷","ALLEY":" ","HOUSE_NO":"２４號","E_COORD97":166555.98000000001,"N_COORD97":2542417.3599999999,"ADDRESS":"健康路二段４０１巷２４號","OBJECTID":387126},"geometry":{"x":166555.98000000231,"y":2542417.3599999975}},{"attributes":{"ID":387151,"DIS_CODE":0,"TOWNNAME":"南區","LI":"金華里","LIN":"28鄰","STREET":"健康路","SECT":"二段","MAREA":" ","LANE":"４０１巷","ALLEY":" ","HOUSE_NO":"２６號","E_COORD97":166551.25,"N_COORD97":2542412.3999999999,"ADDRESS":"健康路二段４０１巷２６號","OBJECTID":387127},"geometry":{"x":166551.25,"y":2542412.4000000022}},{"attributes":{"ID":387152,"DIS_CODE":0,"TOWNNAME":"南區","LI":"金華里","LIN":"28鄰","STREET":"健康路","SECT":"二段","MAREA":" ","LANE":"４０１巷","ALLEY":" ","HOUSE_NO":"２號","E_COORD97":166579.10999999999,"N_COORD97":2542497.3999999999,"ADDRESS":"健康路二段４０１巷２號","OBJECTID":387128},"geometry":{"x":166579.11000000127,"y":2542497.4000000022}},{"attributes":{"ID":387153,"DIS_CODE":0,"TOWNNAME":"南區","LI":"金華里","LIN":"28鄰","STREET":"健康路","SECT":"二段","MAREA":" ","LANE":"４０１巷","ALLEY":" ","HOUSE_NO":"４號","E_COORD97":166577.20000000001,"N_COORD97":2542490.23,"ADDRESS":"健康路二段４０１巷４號","OBJECTID":387129},"geometry":{"x":166577.20000000019,"y":2542490.2300000004}},{"attributes":{"ID":387154,"DIS_CODE":0,"TOWNNAME":"南區","LI":"金華里","LIN":"28鄰","STREET":"健康路","SECT":"二段","MAREA":" ","LANE":"４０１巷","ALLEY":" ","HOUSE_NO":"６號","E_COORD97":166576,"N_COORD97":2542484.7400000002,"ADDRESS":"健康路二段４０１巷６號","OBJECTID":387130},"geometry":{"x":166576.00000000093,"y":2542484.7400000021}},{"attributes":{"ID":387155,"DIS_CODE":0,"TOWNNAME":"南區","LI":"金華里","LIN":"28鄰","STREET":"健康路","SECT":"二段","MAREA":" ","LANE":"４０１巷","ALLEY":" ","HOUSE_NO":"８號","E_COORD97":166573.37,"N_COORD97":2542474.71,"ADDRESS":"健康路二段４０１巷８號","OBJECTID":387131},"geometry":{"x":166573.37000000197,"y":2542474.7100000028}},{"attributes":{"ID":387156,"DIS_CODE":0,"TOWNNAME":"新營區","LI":"民榮里","LIN":"28鄰","STREET":"復興路","SECT":" ","MAREA":" ","LANE":"５１１巷","ALLEY":" ","HOUSE_NO":"１９號","E_COORD97":178128.34,"N_COORD97":2578219.5499999998,"ADDRESS":"復興路５１１巷１９號","OBJECTID":387132},"geometry":{"x":178128.34000000078,"y":2578219.5500000007}},{"attributes":{"ID":387157,"DIS_CODE":0,"TOWNNAME":"新營區","LI":"民榮里","LIN":"28鄰","STREET":"復興路","SECT":" ","MAREA":" ","LANE":"５１１巷","ALLEY":" ","HOUSE_NO":"１５號","E_COORD97":178133.48000000001,"N_COORD97":2578223.9500000002,"ADDRESS":"復興路５１１巷１５號","OBJECTID":387133},"geometry":{"x":178133.48000000045,"y":2578223.9500000011}},{"attributes":{"ID":387158,"DIS_CODE":0,"TOWNNAME":"新營區","LI":"民榮里","LIN":"28鄰","STREET":"復興路","SECT":" ","MAREA":" ","LANE":"５１１巷","ALLEY":" ","HOUSE_NO":"２９號","E_COORD97":178093.44,"N_COORD97":2578179.8399999999,"ADDRESS":"復興路５１１巷２９號","OBJECTID":387134},"geometry":{"x":178093.44000000041,"y":2578179.8400000036}},{"attributes":{"ID":387159,"DIS_CODE":0,"TOWNNAME":"新營區","LI":"大宏里","LIN":"28鄰","STREET":"新東街","SECT":" ","MAREA":" ","LANE":"３４巷","ALLEY":" ","HOUSE_NO":"１之１號","E_COORD97":180814.69,"N_COORD97":2578666.3999999999,"ADDRESS":"新東街３４巷１之１號","OBJECTID":387135},"geometry":{"x":180814.69000000134,"y":2578666.4000000022}},{"attributes":{"ID":387160,"DIS_CODE":0,"TOWNNAME":"新營區","LI":"大宏里","LIN":"28鄰","STREET":"新東街","SECT":" ","MAREA":" ","LANE":"３４巷","ALLEY":" ","HOUSE_NO":"１１號","E_COORD97":180820.48000000001,"N_COORD97":2578639.7400000002,"ADDRESS":"新東街３４巷１１號","OBJECTID":387136},"geometry":{"x":180820.48000000045,"y":2578639.7400000021}},{"attributes":{"ID":387161,"DIS_CODE":0,"TOWNNAME":"新營區","LI":"民榮里","LIN":"28鄰","STREET":"復興路","SECT":" ","MAREA":" ","LANE":"５１１巷","ALLEY":" ","HOUSE_NO":"２４號","E_COORD97":178107.97,"N_COORD97":2578221.8599999999,"ADDRESS":"復興路５１１巷２４號","OBJECTID":387137},"geometry":{"x":178107.96999999881,"y":2578221.8599999994}},{"attributes":{"ID":387162,"DIS_CODE":0,"TOWNNAME":"新營區","LI":"南興里","LIN":"28鄰","STREET":"建業路","SECT":" ","MAREA":" ","LANE":"１３７巷","ALLEY":" ","HOUSE_NO":"２３號","E_COORD97":178438.57000000001,"N_COORD97":2577417.3500000001,"ADDRESS":"建業路１３７巷２３號","OBJECTID":387138},"geometry":{"x":178438.57000000216,"y":2577417.3500000015}},{"attributes":{"ID":387163,"DIS_CODE":0,"TOWNNAME":"新營區","LI":"民榮里","LIN":"28鄰","STREET":"復興路","SECT":" ","MAREA":" ","LANE":"５１１巷","ALLEY":" ","HOUSE_NO":"４９號","E_COORD97":178106.60000000001,"N_COORD97":2578148.77,"ADDRESS":"復興路５１１巷４９號","OBJECTID":387139},"geometry":{"x":178106.59999999963,"y":2578148.7699999996}},{"attributes":{"ID":387164,"DIS_CODE":0,"TOWNNAME":"新營區","LI":"民榮里","LIN":"28鄰","STREET":"復興路","SECT":" ","MAREA":" ","LANE":"５１１巷","ALLEY":" ","HOUSE_NO":"４１號","E_COORD97":178123,"N_COORD97":2578156.4399999999,"ADDRESS":"復興路５１１巷４１號","OBJECTID":387140},"geometry":{"x":178123,"y":2578156.4400000013}},{"attributes":{"ID":387165,"DIS_CODE":0,"TOWNNAME":"新營區","LI":"民榮里","LIN":"28鄰","STREET":"復興路","SECT":" ","MAREA":" ","LANE":"５１１巷","ALLEY":" ","HOUSE_NO":"３４號","E_COORD97":178093.60000000001,"N_COORD97":2578208.6400000001,"ADDRESS":"復興路５１１巷３４號","OBJECTID":387141},"geometry":{"x":178093.60000000149,"y":2578208.6400000006}},{"attributes":{"ID":387166,"DIS_CODE":0,"TOWNNAME":"安平區","LI":"育平里","LIN":"28鄰","STREET":"健康三街","SECT":" ","MAREA":" ","LANE":"１８７巷","ALLEY":" ","HOUSE_NO":"１０號","E_COORD97":164684.45999999999,"N_COORD97":2543274.79,"ADDRESS":"健康三街１８７巷１０號","OBJECTID":387142},"geometry":{"x":164684.46000000089,"y":2543274.7899999991}},{"attributes":{"ID":387167,"DIS_CODE":0,"TOWNNAME":"安平區","LI":"育平里","LIN":"28鄰","STREET":"健康三街","SECT":" ","MAREA":" ","LANE":"１８７巷","ALLEY":" ","HOUSE_NO":"１２號","E_COORD97":164668.54000000001,"N_COORD97":2543277.1699999999,"ADDRESS":"健康三街１８７巷１２號","OBJECTID":387143},"geometry":{"x":164668.5400000019,"y":2543277.1700000037}},{"attributes":{"ID":387168,"DIS_CODE":0,"TOWNNAME":"安平區","LI":"育平里","LIN":"28鄰","STREET":"健康三街","SECT":" ","MAREA":" ","LANE":"１８７巷","ALLEY":" ","HOUSE_NO":"１４號","E_COORD97":164656.28,"N_COORD97":2543278.3100000001,"ADDRESS":"健康三街１８７巷１４號","OBJECTID":387144},"geometry":{"x":164656.28000000026,"y":2543278.3100000024}},{"attributes":{"ID":387169,"DIS_CODE":0,"TOWNNAME":"安平區","LI":"育平里","LIN":"28鄰","STREET":"健康三街","SECT":" ","MAREA":" ","LANE":"１８７巷","ALLEY":" ","HOUSE_NO":"１６號","E_COORD97":164640.01000000001,"N_COORD97":2543280.3599999999,"ADDRESS":"健康三街１８７巷１６號","OBJECTID":387145},"geometry":{"x":164640.01000000071,"y":2543280.3600000013}},{"attributes":{"ID":387170,"DIS_CODE":0,"TOWNNAME":"安平區","LI":"育平里","LIN":"28鄰","STREET":"健康三街","SECT":" ","MAREA":" ","LANE":"１８７巷","ALLEY":" ","HOUSE_NO":"２號","E_COORD97":164727.12,"N_COORD97":2543269.6699999999,"ADDRESS":"健康三街１８７巷２號","OBJECTID":387146},"geometry":{"x":164727.12000000011,"y":2543269.6699999999}},{"attributes":{"ID":387171,"DIS_CODE":0,"TOWNNAME":"安平區","LI":"育平里","LIN":"28鄰","STREET":"健康三街","SECT":" ","MAREA":" ","LANE":"１８７巷","ALLEY":" ","HOUSE_NO":"６號","E_COORD97":164712.22,"N_COORD97":2543272.5099999998,"ADDRESS":"健康三街１８７巷６號","OBJECTID":387147},"geometry":{"x":164712.21999999974,"y":2543272.5100000016}},{"attributes":{"ID":387172,"DIS_CODE":0,"TOWNNAME":"安平區","LI":"育平里","LIN":"28鄰","STREET":"健康三街","SECT":" ","MAREA":" ","LANE":"１８７巷","ALLEY":" ","HOUSE_NO":"８號","E_COORD97":164698,"N_COORD97":2543273.4199999999,"ADDRESS":"健康三街１８７巷８號","OBJECTID":387148},"geometry":{"x":164698.00000000093,"y":2543273.4200000018}},{"attributes":{"ID":387173,"DIS_CODE":0,"TOWNNAME":"歸仁區","LI":"南保里","LIN":"28鄰","STREET":"民權北路","SECT":" ","MAREA":" ","LANE":"６１巷","ALLEY":" ","HOUSE_NO":"５２號","E_COORD97":176858.34,"N_COORD97":2541051.29,"ADDRESS":"民權北路６１巷５２號","OBJECTID":387149},"geometry":{"x":176858.34000000078,"y":2541051.2900000028}},{"attributes":{"ID":387174,"DIS_CODE":0,"TOWNNAME":"歸仁區","LI":"歸仁里","LIN":"28鄰","STREET":"中山路","SECT":"一段","MAREA":" ","LANE":"２巷","ALLEY":" ","HOUSE_NO":"３９號","E_COORD97":179740.91,"N_COORD97":2540642.2799999998,"ADDRESS":"中山路一段２巷３９號","OBJECTID":387150},"geometry":{"x":179740.91000000015,"y":2540642.2800000012}},{"attributes":{"ID":387175,"DIS_CODE":0,"TOWNNAME":"歸仁區","LI":"歸仁里","LIN":"28鄰","STREET":"中山路","SECT":"一段","MAREA":" ","LANE":"３０巷","ALLEY":" ","HOUSE_NO":"１５號","E_COORD97":179581.57999999999,"N_COORD97":2540400.5699999998,"ADDRESS":"中山路一段３０巷１５號","OBJECTID":387151},"geometry":{"x":179581.58000000101,"y":2540400.5700000022}},{"attributes":{"ID":387176,"DIS_CODE":0,"TOWNNAME":"歸仁區","LI":"辜厝里","LIN":"28鄰","STREET":"大順街","SECT":" ","MAREA":" ","LANE":"６９巷","ALLEY":" ","HOUSE_NO":"８號","E_COORD97":177281.19,"N_COORD97":2540566.6800000002,"ADDRESS":"大順街６９巷８號","OBJECTID":387152},"geometry":{"x":177281.19000000041,"y":2540566.6799999997}},{"attributes":{"ID":387177,"DIS_CODE":0,"TOWNNAME":"南區","LI":"文南里","LIN":"28鄰","STREET":"中華西路","SECT":"一段","MAREA":" ","LANE":"１０９巷","ALLEY":" ","HOUSE_NO":"７６號","E_COORD97":166208.06,"N_COORD97":2542476.5299999998,"ADDRESS":"中華西路一段１０９巷７６號","OBJECTID":387153},"geometry":{"x":166208.05999999959,"y":2542476.5299999993}},{"attributes":{"ID":387178,"DIS_CODE":0,"TOWNNAME":"南區","LI":"文南里","LIN":"28鄰","STREET":"中華西路","SECT":"一段","MAREA":" ","LANE":"１０９巷","ALLEY":" ","HOUSE_NO":"７８號","E_COORD97":166207.26999999999,"N_COORD97":2542486.0600000001,"ADDRESS":"中華西路一段１０９巷７８號","OBJECTID":387154},"geometry":{"x":166207.27000000142,"y":2542486.0600000024}},{"attributes":{"ID":387179,"DIS_CODE":0,"TOWNNAME":"永康區","LI":"龍潭里","LIN":"33鄰","STREET":"龍國街","SECT":" ","MAREA":" ","LANE":"３２０巷","ALLEY":" ","HOUSE_NO":"８號","E_COORD97":174618.97,"N_COORD97":2548001.4500000002,"ADDRESS":"龍國街３２０巷８號","OBJECTID":387155},"geometry":{"x":174618.96999999974,"y":2548001.4500000011}},{"attributes":{"ID":387180,"DIS_CODE":0,"TOWNNAME":"南區","LI":"文南里","LIN":"28鄰","STREET":"中華西路","SECT":"一段","MAREA":" ","LANE":"１０９巷","ALLEY":" ","HOUSE_NO":"８６號","E_COORD97":166188.72,"N_COORD97":2542495.0899999999,"ADDRESS":"中華西路一段１０９巷８６號","OBJECTID":387156},"geometry":{"x":166188.71999999974,"y":2542495.0900000017}},{"attributes":{"ID":387181,"DIS_CODE":0,"TOWNNAME":"南區","LI":"文南里","LIN":"28鄰","STREET":"中華西路","SECT":"一段","MAREA":" ","LANE":"１０９巷","ALLEY":" ","HOUSE_NO":"８８號","E_COORD97":166187.91,"N_COORD97":2542490.1099999999,"ADDRESS":"中華西路一段１０９巷８８號","OBJECTID":387157},"geometry":{"x":166187.91000000015,"y":2542490.1099999994}},{"attributes":{"ID":387182,"DIS_CODE":0,"TOWNNAME":"南區","LI":"文南里","LIN":"28鄰","STREET":"中華西路","SECT":"一段","MAREA":" ","LANE":"１０９巷","ALLEY":" ","HOUSE_NO":"９０號","E_COORD97":166187.38,"N_COORD97":2542484.9500000002,"ADDRESS":"中華西路一段１０９巷９０號","OBJECTID":387158},"geometry":{"x":166187.38000000082,"y":2542484.9500000011}},{"attributes":{"ID":387183,"DIS_CODE":0,"TOWNNAME":"新市區","LI":"港墘里","LIN":"28鄰","STREET":"華美街","SECT":" ","MAREA":" ","LANE":"６１巷","ALLEY":" ","HOUSE_NO":"９號","E_COORD97":178116.95000000001,"N_COORD97":2553015.0499999998,"ADDRESS":"華美街６１巷９號","OBJECTID":387159},"geometry":{"x":178116.95000000019,"y":2553015.0500000007}},{"attributes":{"ID":387184,"DIS_CODE":0,"TOWNNAME":"南區","LI":"文南里","LIN":"28鄰","STREET":"中華西路","SECT":"一段","MAREA":" ","LANE":"１０９巷","ALLEY":" ","HOUSE_NO":"９２號","E_COORD97":166187.29000000001,"N_COORD97":2542478.3700000001,"ADDRESS":"中華西路一段１０９巷９２號","OBJECTID":387160},"geometry":{"x":166187.2900000019,"y":2542478.3700000029}},{"attributes":{"ID":387185,"DIS_CODE":0,"TOWNNAME":"南區","LI":"文南里","LIN":"28鄰","STREET":"中華西路","SECT":"一段","MAREA":" ","LANE":"１３７巷","ALLEY":" ","HOUSE_NO":"１０１號","E_COORD97":166172.37,"N_COORD97":2542500.4399999999,"ADDRESS":"中華西路一段１３７巷１０１號","OBJECTID":387161},"geometry":{"x":166172.37000000104,"y":2542500.4399999995}},{"attributes":{"ID":387186,"DIS_CODE":0,"TOWNNAME":"南區","LI":"文南里","LIN":"28鄰","STREET":"中華西路","SECT":"一段","MAREA":" ","LANE":"１３７巷","ALLEY":" ","HOUSE_NO":"１０７號","E_COORD97":166159.39000000001,"N_COORD97":2542493.5699999998,"ADDRESS":"中華西路一段１３７巷１０７號","OBJECTID":387162},"geometry":{"x":166159.3900000006,"y":2542493.5700000003}},{"attributes":{"ID":387187,"DIS_CODE":0,"TOWNNAME":"南區","LI":"文南里","LIN":"28鄰","STREET":"中華西路","SECT":"一段","MAREA":" ","LANE":"１３７巷","ALLEY":" ","HOUSE_NO":"１０９號","E_COORD97":166155.5,"N_COORD97":2542491.1499999999,"ADDRESS":"中華西路一段１３７巷１０９號","OBJECTID":387163},"geometry":{"x":166155.50000000093,"y":2542491.1500000041}},{"attributes":{"ID":387188,"DIS_CODE":0,"TOWNNAME":"南區","LI":"文南里","LIN":"28鄰","STREET":"中華西路","SECT":"一段","MAREA":" ","LANE":"１３７巷","ALLEY":" ","HOUSE_NO":"１１１號","E_COORD97":166151.20000000001,"N_COORD97":2542488.48,"ADDRESS":"中華西路一段１３７巷１１１號","OBJECTID":387164},"geometry":{"x":166151.20000000112,"y":2542488.4800000004}},{"attributes":{"ID":387189,"DIS_CODE":0,"TOWNNAME":"南區","LI":"文南里","LIN":"28鄰","STREET":"中華西路","SECT":"一段","MAREA":" ","LANE":"１３７巷","ALLEY":" ","HOUSE_NO":"１１３號","E_COORD97":166146.81,"N_COORD97":2542485.5600000001,"ADDRESS":"中華西路一段１３７巷１１３號","OBJECTID":387165},"geometry":{"x":166146.81000000052,"y":2542485.5600000024}},{"attributes":{"ID":387190,"DIS_CODE":0,"TOWNNAME":"安南區","LI":"理想里","LIN":"13鄰","STREET":"大安街","SECT":" ","MAREA":" ","LANE":" ","ALLEY":" ","HOUSE_NO":"１號","E_COORD97":167049.84,"N_COORD97":2547969.6899999999,"ADDRESS":"大安街１號","OBJECTID":387166},"geometry":{"x":167049.84000000078,"y":2547969.6900000013}},{"attributes":{"ID":387191,"DIS_CODE":0,"TOWNNAME":"歸仁區","LI":"南興里","LIN":"28鄰","STREET":"文化街","SECT":"三段","MAREA":" ","LANE":"７７６巷","ALLEY":" ","HOUSE_NO":"３７號","E_COORD97":175327.57000000001,"N_COORD97":2541306.7599999998,"ADDRESS":"文化街三段７７６巷３７號","OBJECTID":387167},"geometry":{"x":175327.5700000003,"y":2541306.7600000035}},{"attributes":{"ID":387192,"DIS_CODE":0,"TOWNNAME":"佳里區","LI":"六安里","LIN":"28鄰","STREET":"進學路","SECT":" ","MAREA":" ","LANE":"２５０巷","ALLEY":" ","HOUSE_NO":"１１號","E_COORD97":165595.66,"N_COORD97":2562790.5299999998,"ADDRESS":"進學路２５０巷１１號","OBJECTID":387168},"geometry":{"x":165595.66000000108,"y":2562790.5300000012}},{"attributes":{"ID":387193,"DIS_CODE":0,"TOWNNAME":"佳里區","LI":"六安里","LIN":"28鄰","STREET":"進學路","SECT":" ","MAREA":" ","LANE":"２５０巷","ALLEY":" ","HOUSE_NO":"１２號","E_COORD97":165571.44,"N_COORD97":2562788.54,"ADDRESS":"進學路２５０巷１２號","OBJECTID":387169},"geometry":{"x":165571.44000000227,"y":2562788.5399999972}},{"attributes":{"ID":387194,"DIS_CODE":0,"TOWNNAME":"佳里區","LI":"六安里","LIN":"28鄰","STREET":"進學路","SECT":" ","MAREA":" ","LANE":"２５０巷","ALLEY":" ","HOUSE_NO":"１３號","E_COORD97":165560.56,"N_COORD97":2562789.2400000002,"ADDRESS":"進學路２５０巷１３號","OBJECTID":387170},"geometry":{"x":165560.55999999959,"y":2562789.2400000021}},{"attributes":{"ID":387195,"DIS_CODE":0,"TOWNNAME":"佳里區","LI":"六安里","LIN":"28鄰","STREET":"進學路","SECT":" ","MAREA":" ","LANE":"２５０巷","ALLEY":" ","HOUSE_NO":"１４號","E_COORD97":165559.19,"N_COORD97":2562773.3900000001,"ADDRESS":"進學路２５０巷１４號","OBJECTID":387171},"geometry":{"x":165559.19000000041,"y":2562773.3900000006}},{"attributes":{"ID":387196,"DIS_CODE":0,"TOWNNAME":"佳里區","LI":"六安里","LIN":"28鄰","STREET":"進學路","SECT":" ","MAREA":" ","LANE":"２５０巷","ALLEY":" ","HOUSE_NO":"１５號","E_COORD97":165569.85000000001,"N_COORD97":2562772.2999999998,"ADDRESS":"進學路２５０巷１５號","OBJECTID":387172},"geometry":{"x":165569.85000000056,"y":2562772.3000000026}},{"attributes":{"ID":387197,"DIS_CODE":0,"TOWNNAME":"佳里區","LI":"六安里","LIN":"28鄰","STREET":"進學路","SECT":" ","MAREA":" ","LANE":"２５０巷","ALLEY":" ","HOUSE_NO":"１６號","E_COORD97":165597.01999999999,"N_COORD97":2562766.0899999999,"ADDRESS":"進學路２５０巷１６號","OBJECTID":387173},"geometry":{"x":165597.02000000142,"y":2562766.0900000017}},{"attributes":{"ID":387198,"DIS_CODE":0,"TOWNNAME":"佳里區","LI":"六安里","LIN":"28鄰","STREET":"進學路","SECT":" ","MAREA":" ","LANE":"２５０巷","ALLEY":" ","HOUSE_NO":"１７號","E_COORD97":165607.94,"N_COORD97":2562767.8399999999,"ADDRESS":"進學路２５０巷１７號","OBJECTID":387174},"geometry":{"x":165607.94000000041,"y":2562767.8400000017}},{"attributes":{"ID":387199,"DIS_CODE":0,"TOWNNAME":"佳里區","LI":"六安里","LIN":"28鄰","STREET":"進學路","SECT":" ","MAREA":" ","LANE":"２５０巷","ALLEY":" ","HOUSE_NO":"１號","E_COORD97":165624.67999999999,"N_COORD97":2562772.1099999999,"ADDRESS":"進學路２５０巷１號","OBJECTID":387175},"geometry":{"x":165624.6799999997,"y":2562772.1100000013}},{"attributes":{"ID":387200,"DIS_CODE":0,"TOWNNAME":"佳里區","LI":"六安里","LIN":"28鄰","STREET":"進學路","SECT":" ","MAREA":" ","LANE":"２５０巷","ALLEY":" ","HOUSE_NO":"２號","E_COORD97":165633.51999999999,"N_COORD97":2562773.6699999999,"ADDRESS":"進學路２５０巷２號","OBJECTID":387176},"geometry":{"x":165633.51999999955,"y":2562773.6699999999}},{"attributes":{"ID":387201,"DIS_CODE":0,"TOWNNAME":"佳里區","LI":"六安里","LIN":"28鄰","STREET":"進學路","SECT":" ","MAREA":" ","LANE":"２５０巷","ALLEY":" ","HOUSE_NO":"５號","E_COORD97":165656.20999999999,"N_COORD97":2562799.0499999998,"ADDRESS":"進學路２５０巷５號","OBJECTID":387177},"geometry":{"x":165656.21000000089,"y":2562799.0500000007}},{"attributes":{"ID":387202,"DIS_CODE":0,"TOWNNAME":"佳里區","LI":"六安里","LIN":"28鄰","STREET":"進學路","SECT":" ","MAREA":" ","LANE":"２５０巷","ALLEY":" ","HOUSE_NO":"６號","E_COORD97":165648.70999999999,"N_COORD97":2562797.7400000002,"ADDRESS":"進學路２５０巷６號","OBJECTID":387178},"geometry":{"x":165648.71000000183,"y":2562797.7400000002}},{"attributes":{"ID":387203,"DIS_CODE":0,"TOWNNAME":"佳里區","LI":"六安里","LIN":"28鄰","STREET":"進學路","SECT":" ","MAREA":" ","LANE":"２５０巷","ALLEY":" ","HOUSE_NO":"８號","E_COORD97":165631.66,"N_COORD97":2562796.3700000001,"ADDRESS":"進學路２５０巷８號","OBJECTID":387179},"geometry":{"x":165631.66000000015,"y":2562796.3700000029}},{"attributes":{"ID":387204,"DIS_CODE":0,"TOWNNAME":"東區","LI":"忠孝里","LIN":"28鄰","STREET":"中華東路","SECT":"三段","MAREA":" ","LANE":"４５２巷","ALLEY":" ","HOUSE_NO":"５號","E_COORD97":169899.60999999999,"N_COORD97":2541564.46,"ADDRESS":"中華東路三段４５２巷５號","OBJECTID":387180},"geometry":{"x":169899.6100000022,"y":2541564.4600000028}},{"attributes":{"ID":387205,"DIS_CODE":0,"TOWNNAME":"東區","LI":"忠孝里","LIN":"28鄰","STREET":"中華東路","SECT":"三段","MAREA":" ","LANE":"４５２巷","ALLEY":" ","HOUSE_NO":"７號","E_COORD97":169898.73999999999,"N_COORD97":2541568.5099999998,"ADDRESS":"中華東路三段４５２巷７號","OBJECTID":387181},"geometry":{"x":169898.74000000209,"y":2541568.5099999998}},{"attributes":{"ID":387206,"DIS_CODE":0,"TOWNNAME":"東區","LI":"忠孝里","LIN":"28鄰","STREET":"中華東路","SECT":"三段","MAREA":" ","LANE":"４５２巷","ALLEY":" ","HOUSE_NO":"９號","E_COORD97":169898.16,"N_COORD97":2541571.9900000002,"ADDRESS":"中華東路三段４５２巷９號","OBJECTID":387182},"geometry":{"x":169898.16000000108,"y":2541571.9900000002}},{"attributes":{"ID":387207,"DIS_CODE":0,"TOWNNAME":"東區","LI":"忠孝里","LIN":"28鄰","STREET":"中華東路","SECT":"三段","MAREA":" ","LANE":"４５２巷","ALLEY":" ","HOUSE_NO":"１１號","E_COORD97":169897.01000000001,"N_COORD97":2541575.8100000001,"ADDRESS":"中華東路三段４５２巷１１號","OBJECTID":387183},"geometry":{"x":169897.01000000071,"y":2541575.8100000024}},{"attributes":{"ID":387208,"DIS_CODE":0,"TOWNNAME":"永康區","LI":"埔園里","LIN":"28鄰","STREET":"埔園街","SECT":" ","MAREA":" ","LANE":"２４２巷","ALLEY":" ","HOUSE_NO":"５號","E_COORD97":173680.67999999999,"N_COORD97":2548281,"ADDRESS":"埔園街２４２巷５號","OBJECTID":387184},"geometry":{"x":173680.68000000063,"y":2548281}},{"attributes":{"ID":387209,"DIS_CODE":0,"TOWNNAME":"永康區","LI":"埔園里","LIN":"28鄰","STREET":"龍埔街","SECT":" ","MAREA":" ","LANE":"３７９巷","ALLEY":" ","HOUSE_NO":"２號","E_COORD97":173725.23999999999,"N_COORD97":2548331.7400000002,"ADDRESS":"龍埔街３７９巷２號","OBJECTID":387185},"geometry":{"x":173725.24000000115,"y":2548331.7400000002}},{"attributes":{"ID":387210,"DIS_CODE":0,"TOWNNAME":"永康區","LI":"東灣里","LIN":"28鄰","STREET":"民族路","SECT":" ","MAREA":" ","LANE":"１４５巷","ALLEY":" ","HOUSE_NO":"３１號","E_COORD97":175246.57000000001,"N_COORD97":2544758.3199999998,"ADDRESS":"民族路１４５巷３１號","OBJECTID":387186},"geometry":{"x":175246.57000000216,"y":2544758.320000004}},{"attributes":{"ID":387211,"DIS_CODE":0,"TOWNNAME":"永康區","LI":"東灣里","LIN":"28鄰","STREET":"民族路","SECT":" ","MAREA":" ","LANE":"１４５巷","ALLEY":" ","HOUSE_NO":"１１號","E_COORD97":175289.23000000001,"N_COORD97":2544782.8700000001,"ADDRESS":"民族路１４５巷１１號","OBJECTID":387187},"geometry":{"x":175289.23000000045,"y":2544782.8700000029}},{"attributes":{"ID":387212,"DIS_CODE":0,"TOWNNAME":"仁德區","LI":"後壁里","LIN":"28鄰","STREET":"德洋路","SECT":" ","MAREA":" ","LANE":"３９巷","ALLEY":" ","HOUSE_NO":"２０號","E_COORD97":173088.85999999999,"N_COORD97":2538973.77,"ADDRESS":"德洋路３９巷２０號","OBJECTID":387188},"geometry":{"x":173088.86000000127,"y":2538973.7700000033}},{"attributes":{"ID":387213,"DIS_CODE":0,"TOWNNAME":"仁德區","LI":"上崙里","LIN":"28鄰","STREET":"中正路","SECT":"一段","MAREA":" ","LANE":"６５６巷","ALLEY":" ","HOUSE_NO":"１號","E_COORD97":172901.72,"N_COORD97":2537503.7799999998,"ADDRESS":"中正路一段６５６巷１號","OBJECTID":387189},"geometry":{"x":172901.71999999974,"y":2537503.7799999993}},{"attributes":{"ID":387214,"DIS_CODE":0,"TOWNNAME":"安南區","LI":"溪頂里","LIN":"28鄰","STREET":"郡安路","SECT":"四段","MAREA":" ","LANE":"２７８巷","ALLEY":" ","HOUSE_NO":"２９號","E_COORD97":168592.73000000001,"N_COORD97":2547552.3100000001,"ADDRESS":"郡安路四段２７８巷２９號","OBJECTID":387190},"geometry":{"x":168592.73000000138,"y":2547552.3100000042}},{"attributes":{"ID":387215,"DIS_CODE":0,"TOWNNAME":"安南區","LI":"溪頂里","LIN":"28鄰","STREET":"郡安路","SECT":"四段","MAREA":" ","LANE":"２７８巷","ALLEY":" ","HOUSE_NO":"３１號","E_COORD97":168593.31,"N_COORD97":2547547.0600000001,"ADDRESS":"郡安路四段２７８巷３１號","OBJECTID":387191},"geometry":{"x":168593.30999999959,"y":2547547.0600000042}},{"attributes":{"ID":387216,"DIS_CODE":0,"TOWNNAME":"安南區","LI":"溪頂里","LIN":"28鄰","STREET":"郡安路","SECT":"四段","MAREA":" ","LANE":"２７８巷","ALLEY":" ","HOUSE_NO":"３３號","E_COORD97":168594.67000000001,"N_COORD97":2547541.8100000001,"ADDRESS":"郡安路四段２７８巷３３號","OBJECTID":387192},"geometry":{"x":168594.66999999993,"y":2547541.8100000042}},{"attributes":{"ID":387217,"DIS_CODE":0,"TOWNNAME":"安南區","LI":"溪頂里","LIN":"28鄰","STREET":"郡安路","SECT":"四段","MAREA":" ","LANE":"２７８巷","ALLEY":" ","HOUSE_NO":"３５號","E_COORD97":168594.87,"N_COORD97":2547536.7599999998,"ADDRESS":"郡安路四段２７８巷３５號","OBJECTID":387193},"geometry":{"x":168594.87000000104,"y":2547536.7599999998}},{"attributes":{"ID":387218,"DIS_CODE":0,"TOWNNAME":"安南區","LI":"溪頂里","LIN":"28鄰","STREET":"郡安路","SECT":"四段","MAREA":" ","LANE":"２７８巷","ALLEY":" ","HOUSE_NO":"３７號","E_COORD97":168595.64000000001,"N_COORD97":2547531.8999999999,"ADDRESS":"郡安路四段２７８巷３７號","OBJECTID":387194},"geometry":{"x":168595.6400000006,"y":2547531.9000000022}},{"attributes":{"ID":387219,"DIS_CODE":0,"TOWNNAME":"永康區","LI":"東灣里","LIN":"28鄰","STREET":"民族路","SECT":" ","MAREA":" ","LANE":"１４５巷","ALLEY":" ","HOUSE_NO":"２７號","E_COORD97":175257.85000000001,"N_COORD97":2544764.1200000001,"ADDRESS":"民族路１４５巷２７號","OBJECTID":387195},"geometry":{"x":175257.85000000056,"y":2544764.1200000029}},{"attributes":{"ID":387220,"DIS_CODE":0,"TOWNNAME":"永康區","LI":"西灣里","LIN":"28鄰","STREET":"公園路","SECT":" ","MAREA":" ","LANE":"７巷","ALLEY":" ","HOUSE_NO":"４０號","E_COORD97":174451.17000000001,"N_COORD97":2545883.3900000001,"ADDRESS":"公園路７巷４０號","OBJECTID":387196},"geometry":{"x":174451.17000000086,"y":2545883.3899999987}},{"attributes":{"ID":387221,"DIS_CODE":0,"TOWNNAME":"南區","LI":"文南里","LIN":"28鄰","STREET":"中華西路","SECT":"一段","MAREA":" ","LANE":"１３７巷","ALLEY":" ","HOUSE_NO":"５５號","E_COORD97":166312.20000000001,"N_COORD97":2542481.3700000001,"ADDRESS":"中華西路一段１３７巷５５號","OBJECTID":387197},"geometry":{"x":166312.20000000112,"y":2542481.3700000029}},{"attributes":{"ID":387222,"DIS_CODE":0,"TOWNNAME":"永康區","LI":"復興里","LIN":"28鄰","STREET":"興國街","SECT":" ","MAREA":" ","LANE":"１６０巷","ALLEY":" ","HOUSE_NO":"７號","E_COORD97":172382.37,"N_COORD97":2544870,"ADDRESS":"興國街１６０巷７號","OBJECTID":387198},"geometry":{"x":172382.37000000011,"y":2544870.0000000019}},{"attributes":{"ID":387223,"DIS_CODE":0,"TOWNNAME":"永康區","LI":"復國里","LIN":"28鄰","STREET":"復華二街","SECT":" ","MAREA":" ","LANE":"１２巷","ALLEY":" ","HOUSE_NO":"８號","E_COORD97":172652.16,"N_COORD97":2545384.5299999998,"ADDRESS":"復華二街１２巷８號","OBJECTID":387199},"geometry":{"x":172652.16000000201,"y":2545384.5300000012}},{"attributes":{"ID":387224,"DIS_CODE":0,"TOWNNAME":"永康區","LI":"龍潭里","LIN":"28鄰","STREET":"中山北路","SECT":" ","MAREA":" ","LANE":"３８５巷","ALLEY":" ","HOUSE_NO":"１７號","E_COORD97":174861.44,"N_COORD97":2547778.4100000001,"ADDRESS":"中山北路３８５巷１７號","OBJECTID":387200},"geometry":{"x":174861.44000000134,"y":2547778.4100000039}}]}