{"displayFieldName":"TOWNNAME","fieldAliases":{"ID":"ID","DIS_CODE":"DIS_CODE","TOWNNAME":"TOWNNAME","LI":"LI","LIN":"LIN","STREET":"STREET","SECT":"SECT","MAREA":"MAREA","LANE":"LANE","ALLEY":"ALLEY","HOUSE_NO":"HOUSE_NO","E_COORD97":"E_COORD97","N_COORD97":"N_COORD97","ADDRESS":"ADDRESS","OBJECTID":"OBJECTID"},"geometryType":"esriGeometryPoint","spatialReference":{"wkid":102443,"latestWkid":3826},"fields":[{"name":"ID","type":"esriFieldTypeDouble","alias":"ID"},{"name":"DIS_CODE","type":"esriFieldTypeInteger","alias":"DIS_CODE"},{"name":"TOWNNAME","type":"esriFieldTypeString","alias":"TOWNNAME","length":8},{"name":"LI","type":"esriFieldTypeString","alias":"LI","length":8},{"name":"LIN","type":"esriFieldTypeString","alias":"LIN","length":12},{"name":"STREET","type":"esriFieldTypeString","alias":"STREET","length":20},{"name":"SECT","type":"esriFieldTypeString","alias":"SECT","length":8},{"name":"MAREA","type":"esriFieldTypeString","alias":"MAREA","length":12},{"name":"LANE","type":"esriFieldTypeString","alias":"LANE","length":10},{"name":"ALLEY","type":"esriFieldTypeString","alias":"ALLEY","length":10},{"name":"HOUSE_NO","type":"esriFieldTypeString","alias":"HOUSE_NO","length":20},{"name":"E_COORD97","type":"esriFieldTypeDouble","alias":"E_COORD97"},{"name":"N_COORD97","type":"esriFieldTypeDouble","alias":"N_COORD97"},{"name":"ADDRESS","type":"esriFieldTypeString","alias":"ADDRESS","length":50},{"name":"OBJECTID","type":"esriFieldTypeOID","alias":"OBJECTID"}],"features":[{"attributes":{"ID":78601,"DIS_CODE":0,"TOWNNAME":"安平區","LI":"建平里","LIN":"19鄰","STREET":"怡平路","SECT":" ","MAREA":" ","LANE":"１４０巷","ALLEY":"１７弄","HOUSE_NO":"３號八樓之１２","E_COORD97":165856.32999999999,"N_COORD97":2543806.5699999998,"ADDRESS":"怡平路１４０巷１７弄３號八樓之１２","OBJECTID":78601},"geometry":{"x":165856.33000000007,"y":2543806.5700000003}},{"attributes":{"ID":78602,"DIS_CODE":0,"TOWNNAME":"麻豆區","LI":"油車里","LIN":"6鄰","STREET":" ","SECT":" ","MAREA":"油車","LANE":" ","ALLEY":" ","HOUSE_NO":"７號之３３","E_COORD97":172697.14999999999,"N_COORD97":2565345.96,"ADDRESS":"油車７號之３３","OBJECTID":78602},"geometry":{"x":172697.1500000013,"y":2565345.9600000009}},{"attributes":{"ID":78603,"DIS_CODE":0,"TOWNNAME":"麻豆區","LI":"油車里","LIN":"6鄰","STREET":" ","SECT":" ","MAREA":"油車","LANE":" ","ALLEY":" ","HOUSE_NO":"７號之３４","E_COORD97":172700.89000000001,"N_COORD97":2565346.4500000002,"ADDRESS":"油車７號之３４","OBJECTID":78603},"geometry":{"x":172700.89000000153,"y":2565346.4500000011}},{"attributes":{"ID":78604,"DIS_CODE":0,"TOWNNAME":"安平區","LI":"建平里","LIN":"19鄰","STREET":"怡平路","SECT":" ","MAREA":" ","LANE":"１４０巷","ALLEY":"１７弄","HOUSE_NO":"３號八樓之１３","E_COORD97":165856.32999999999,"N_COORD97":2543806.5699999998,"ADDRESS":"怡平路１４０巷１７弄３號八樓之１３","OBJECTID":78604},"geometry":{"x":165856.33000000007,"y":2543806.5700000003}},{"attributes":{"ID":78605,"DIS_CODE":0,"TOWNNAME":"安平區","LI":"建平里","LIN":"19鄰","STREET":"怡平路","SECT":" ","MAREA":" ","LANE":"１４０巷","ALLEY":"１７弄","HOUSE_NO":"３號八樓之１４","E_COORD97":165856.32999999999,"N_COORD97":2543806.5699999998,"ADDRESS":"怡平路１４０巷１７弄３號八樓之１４","OBJECTID":78605},"geometry":{"x":165856.33000000007,"y":2543806.5700000003}},{"attributes":{"ID":78606,"DIS_CODE":0,"TOWNNAME":"安平區","LI":"建平里","LIN":"19鄰","STREET":"怡平路","SECT":" ","MAREA":" ","LANE":"１４０巷","ALLEY":"１７弄","HOUSE_NO":"３號八樓之１５","E_COORD97":165856.32999999999,"N_COORD97":2543806.5699999998,"ADDRESS":"怡平路１４０巷１７弄３號八樓之１５","OBJECTID":78606},"geometry":{"x":165856.33000000007,"y":2543806.5700000003}},{"attributes":{"ID":78607,"DIS_CODE":0,"TOWNNAME":"安平區","LI":"建平里","LIN":"19鄰","STREET":"怡平路","SECT":" ","MAREA":" ","LANE":"１４０巷","ALLEY":"１７弄","HOUSE_NO":"３號八樓之１６","E_COORD97":165856.32999999999,"N_COORD97":2543806.5699999998,"ADDRESS":"怡平路１４０巷１７弄３號八樓之１６","OBJECTID":78607},"geometry":{"x":165856.33000000007,"y":2543806.5700000003}},{"attributes":{"ID":78608,"DIS_CODE":0,"TOWNNAME":"安平區","LI":"建平里","LIN":"19鄰","STREET":"怡平路","SECT":" ","MAREA":" ","LANE":"１４０巷","ALLEY":"１７弄","HOUSE_NO":"３號八樓之１７","E_COORD97":165856.32999999999,"N_COORD97":2543806.5699999998,"ADDRESS":"怡平路１４０巷１７弄３號八樓之１７","OBJECTID":78608},"geometry":{"x":165856.33000000007,"y":2543806.5700000003}},{"attributes":{"ID":78609,"DIS_CODE":0,"TOWNNAME":"北區","LI":"成功里","LIN":"19鄰","STREET":"北成路","SECT":" ","MAREA":" ","LANE":"１２８巷","ALLEY":"４５弄","HOUSE_NO":"８號九樓","E_COORD97":168945.01000000001,"N_COORD97":2546846.1400000001,"ADDRESS":"北成路１２８巷４５弄８號九樓","OBJECTID":78609},"geometry":{"x":168945.00999999978,"y":2546846.1400000025}},{"attributes":{"ID":78610,"DIS_CODE":0,"TOWNNAME":"安平區","LI":"建平里","LIN":"19鄰","STREET":"怡平路","SECT":" ","MAREA":" ","LANE":"１４０巷","ALLEY":"１７弄","HOUSE_NO":"３號八樓之１８","E_COORD97":165856.32999999999,"N_COORD97":2543806.5699999998,"ADDRESS":"怡平路１４０巷１７弄３號八樓之１８","OBJECTID":78610},"geometry":{"x":165856.33000000007,"y":2543806.5700000003}},{"attributes":{"ID":78611,"DIS_CODE":0,"TOWNNAME":"北區","LI":"成功里","LIN":"19鄰","STREET":"北成路","SECT":" ","MAREA":" ","LANE":"１２８巷","ALLEY":"４５弄","HOUSE_NO":"２號八樓","E_COORD97":168954.97,"N_COORD97":2546835.6099999999,"ADDRESS":"北成路１２８巷４５弄２號八樓","OBJECTID":78611},"geometry":{"x":168954.96999999974,"y":2546835.6099999994}},{"attributes":{"ID":78612,"DIS_CODE":0,"TOWNNAME":"東區","LI":"自強里","LIN":" ","STREET":"中華東路","SECT":"二段","MAREA":" ","LANE":"２０３巷","ALLEY":"９弄","HOUSE_NO":"３號","E_COORD97":171318.92000000001,"N_COORD97":2542697.3999999999,"ADDRESS":"中華東路二段２０３巷９弄３號","OBJECTID":78612},"geometry":{"x":171318.91999999993,"y":2542697.4000000022}},{"attributes":{"ID":78613,"DIS_CODE":0,"TOWNNAME":"東區","LI":"忠孝里","LIN":"25鄰","STREET":"崇明三街","SECT":" ","MAREA":" ","LANE":"３８巷","ALLEY":"７弄","HOUSE_NO":"９號","E_COORD97":169614.97,"N_COORD97":2542313.5899999999,"ADDRESS":"崇明三街３８巷７弄９號","OBJECTID":78613},"geometry":{"x":169614.96999999974,"y":2542313.5899999999}},{"attributes":{"ID":78614,"DIS_CODE":0,"TOWNNAME":"北區","LI":"成功里","LIN":"19鄰","STREET":"北成路","SECT":" ","MAREA":" ","LANE":"１２８巷","ALLEY":"４５弄","HOUSE_NO":"１２號六樓","E_COORD97":168931.23999999999,"N_COORD97":2546854.9100000001,"ADDRESS":"北成路１２８巷４５弄１２號六樓","OBJECTID":78614},"geometry":{"x":168931.24000000115,"y":2546854.9100000001}},{"attributes":{"ID":78615,"DIS_CODE":0,"TOWNNAME":"北區","LI":"成功里","LIN":"19鄰","STREET":"北成路","SECT":" ","MAREA":" ","LANE":"１２８巷","ALLEY":"４５弄","HOUSE_NO":"１２號四樓","E_COORD97":168931.23999999999,"N_COORD97":2546854.9100000001,"ADDRESS":"北成路１２８巷４５弄１２號四樓","OBJECTID":78615},"geometry":{"x":168931.24000000115,"y":2546854.9100000001}},{"attributes":{"ID":78616,"DIS_CODE":0,"TOWNNAME":"安南區","LI":"公親里","LIN":"7鄰","STREET":"公學路","SECT":"一段","MAREA":" ","LANE":" ","ALLEY":" ","HOUSE_NO":"１１３號之１４","E_COORD97":168289.78,"N_COORD97":2552991.9700000002,"ADDRESS":"公學路一段１１３號之１４","OBJECTID":78616},"geometry":{"x":168289.78000000212,"y":2552991.9700000007}},{"attributes":{"ID":78617,"DIS_CODE":0,"TOWNNAME":"安南區","LI":"公親里","LIN":"7鄰","STREET":"公學路","SECT":"一段","MAREA":" ","LANE":" ","ALLEY":" ","HOUSE_NO":"１１３號之１５","E_COORD97":168289.78,"N_COORD97":2552996.5099999998,"ADDRESS":"公學路一段１１３號之１５","OBJECTID":78617},"geometry":{"x":168289.78000000212,"y":2552996.5100000016}},{"attributes":{"ID":78618,"DIS_CODE":0,"TOWNNAME":"安南區","LI":"公親里","LIN":"7鄰","STREET":"公學路","SECT":"一段","MAREA":" ","LANE":" ","ALLEY":" ","HOUSE_NO":"１１３號之１６","E_COORD97":168290.42999999999,"N_COORD97":2553000.3900000001,"ADDRESS":"公學路一段１１３號之１６","OBJECTID":78618},"geometry":{"x":168290.43000000063,"y":2553000.3900000025}},{"attributes":{"ID":78619,"DIS_CODE":0,"TOWNNAME":"安南區","LI":"公親里","LIN":"7鄰","STREET":"公學路","SECT":"一段","MAREA":" ","LANE":" ","ALLEY":" ","HOUSE_NO":"１１３號之１７","E_COORD97":168289.78,"N_COORD97":2553005.5699999998,"ADDRESS":"公學路一段１１３號之１７","OBJECTID":78619},"geometry":{"x":168289.78000000212,"y":2553005.5700000022}},{"attributes":{"ID":78620,"DIS_CODE":0,"TOWNNAME":"麻豆區","LI":"油車里","LIN":"6鄰","STREET":" ","SECT":" ","MAREA":"油車","LANE":" ","ALLEY":" ","HOUSE_NO":"７號之３","E_COORD97":172657.28,"N_COORD97":2565341.9100000001,"ADDRESS":"油車７號之３","OBJECTID":78620},"geometry":{"x":172657.28000000119,"y":2565341.910000002}},{"attributes":{"ID":78621,"DIS_CODE":0,"TOWNNAME":"麻豆區","LI":"油車里","LIN":"6鄰","STREET":" ","SECT":" ","MAREA":"油車","LANE":" ","ALLEY":" ","HOUSE_NO":"７號之４","E_COORD97":172656.73999999999,"N_COORD97":2565346.1099999999,"ADDRESS":"油車７號之４","OBJECTID":78621},"geometry":{"x":172656.74000000209,"y":2565346.1100000013}},{"attributes":{"ID":78622,"DIS_CODE":0,"TOWNNAME":"北區","LI":"成功里","LIN":"19鄰","STREET":"北成路","SECT":" ","MAREA":" ","LANE":"１２８巷","ALLEY":"４５弄","HOUSE_NO":"１４號七樓","E_COORD97":168923.63,"N_COORD97":2546858.7200000002,"ADDRESS":"北成路１２８巷４５弄１４號七樓","OBJECTID":78622},"geometry":{"x":168923.62999999989,"y":2546858.7200000025}},{"attributes":{"ID":78623,"DIS_CODE":0,"TOWNNAME":"北區","LI":"成功里","LIN":"19鄰","STREET":"北成路","SECT":" ","MAREA":" ","LANE":"１２８巷","ALLEY":"４５弄","HOUSE_NO":"１４號九樓","E_COORD97":168923.63,"N_COORD97":2546858.7200000002,"ADDRESS":"北成路１２８巷４５弄１４號九樓","OBJECTID":78623},"geometry":{"x":168923.62999999989,"y":2546858.7200000025}},{"attributes":{"ID":78624,"DIS_CODE":0,"TOWNNAME":"北區","LI":"成功里","LIN":"19鄰","STREET":"北成路","SECT":" ","MAREA":" ","LANE":"１２８巷","ALLEY":"４５弄","HOUSE_NO":"１４號二樓","E_COORD97":168923.63,"N_COORD97":2546858.7200000002,"ADDRESS":"北成路１２８巷４５弄１４號二樓","OBJECTID":78624},"geometry":{"x":168923.62999999989,"y":2546858.7200000025}},{"attributes":{"ID":78625,"DIS_CODE":0,"TOWNNAME":"北區","LI":"成功里","LIN":"19鄰","STREET":"北成路","SECT":" ","MAREA":" ","LANE":"１２８巷","ALLEY":"４５弄","HOUSE_NO":"１４號八樓","E_COORD97":168923.63,"N_COORD97":2546858.7200000002,"ADDRESS":"北成路１２８巷４５弄１４號八樓","OBJECTID":78625},"geometry":{"x":168923.62999999989,"y":2546858.7200000025}},{"attributes":{"ID":78626,"DIS_CODE":0,"TOWNNAME":"新化區","LI":"唪口里","LIN":"7鄰","STREET":" ","SECT":" ","MAREA":"唪口","LANE":" ","ALLEY":" ","HOUSE_NO":"１３號之１","E_COORD97":177971.63,"N_COORD97":2548867.2599999998,"ADDRESS":"唪口１３號之１","OBJECTID":78626},"geometry":{"x":177971.63000000175,"y":2548867.2600000035}},{"attributes":{"ID":78627,"DIS_CODE":0,"TOWNNAME":"北區","LI":"成功里","LIN":"19鄰","STREET":"北成路","SECT":" ","MAREA":" ","LANE":"１２８巷","ALLEY":"４５弄","HOUSE_NO":"１４號三樓","E_COORD97":168923.63,"N_COORD97":2546858.7200000002,"ADDRESS":"北成路１２８巷４５弄１４號三樓","OBJECTID":78627},"geometry":{"x":168923.62999999989,"y":2546858.7200000025}},{"attributes":{"ID":78628,"DIS_CODE":0,"TOWNNAME":"北區","LI":"成功里","LIN":"19鄰","STREET":"北成路","SECT":" ","MAREA":" ","LANE":"１２８巷","ALLEY":"４５弄","HOUSE_NO":"１４號五樓","E_COORD97":168923.63,"N_COORD97":2546858.7200000002,"ADDRESS":"北成路１２８巷４５弄１４號五樓","OBJECTID":78628},"geometry":{"x":168923.62999999989,"y":2546858.7200000025}},{"attributes":{"ID":78629,"DIS_CODE":0,"TOWNNAME":"北區","LI":"成功里","LIN":"19鄰","STREET":"北成路","SECT":" ","MAREA":" ","LANE":"１２８巷","ALLEY":"４５弄","HOUSE_NO":"１４號六樓","E_COORD97":168923.63,"N_COORD97":2546858.7200000002,"ADDRESS":"北成路１２８巷４５弄１４號六樓","OBJECTID":78629},"geometry":{"x":168923.62999999989,"y":2546858.7200000025}},{"attributes":{"ID":78630,"DIS_CODE":0,"TOWNNAME":"北區","LI":"成功里","LIN":"19鄰","STREET":"北成路","SECT":" ","MAREA":" ","LANE":"１２８巷","ALLEY":"４５弄","HOUSE_NO":"１４號四樓","E_COORD97":168923.63,"N_COORD97":2546858.7200000002,"ADDRESS":"北成路１２８巷４５弄１４號四樓","OBJECTID":78630},"geometry":{"x":168923.62999999989,"y":2546858.7200000025}},{"attributes":{"ID":78631,"DIS_CODE":0,"TOWNNAME":"北區","LI":"成功里","LIN":"19鄰","STREET":"北成路","SECT":" ","MAREA":" ","LANE":"１２８巷","ALLEY":"４５弄","HOUSE_NO":"２號七樓","E_COORD97":168954.97,"N_COORD97":2546835.6099999999,"ADDRESS":"北成路１２８巷４５弄２號七樓","OBJECTID":78631},"geometry":{"x":168954.96999999974,"y":2546835.6099999994}},{"attributes":{"ID":78632,"DIS_CODE":0,"TOWNNAME":"南區","LI":"文南里","LIN":"20鄰","STREET":"仁南一街","SECT":" ","MAREA":" ","LANE":" ","ALLEY":" ","HOUSE_NO":"３３號","E_COORD97":166481.01999999999,"N_COORD97":2542621.9100000001,"ADDRESS":"仁南一街３３號","OBJECTID":78632},"geometry":{"x":166481.02000000048,"y":2542621.910000002}},{"attributes":{"ID":78633,"DIS_CODE":0,"TOWNNAME":"北區","LI":"成功里","LIN":"19鄰","STREET":"北成路","SECT":" ","MAREA":" ","LANE":"１２８巷","ALLEY":"４５弄","HOUSE_NO":"２號九樓","E_COORD97":168954.97,"N_COORD97":2546835.6099999999,"ADDRESS":"北成路１２８巷４５弄２號九樓","OBJECTID":78633},"geometry":{"x":168954.96999999974,"y":2546835.6099999994}},{"attributes":{"ID":78634,"DIS_CODE":0,"TOWNNAME":"北區","LI":"成功里","LIN":"19鄰","STREET":"北成路","SECT":" ","MAREA":" ","LANE":"１２８巷","ALLEY":"４５弄","HOUSE_NO":"２號三樓","E_COORD97":168954.97,"N_COORD97":2546835.6099999999,"ADDRESS":"北成路１２８巷４５弄２號三樓","OBJECTID":78634},"geometry":{"x":168954.96999999974,"y":2546835.6099999994}},{"attributes":{"ID":78635,"DIS_CODE":0,"TOWNNAME":"北區","LI":"成功里","LIN":"19鄰","STREET":"北成路","SECT":" ","MAREA":" ","LANE":"１２８巷","ALLEY":"４５弄","HOUSE_NO":"２號五樓","E_COORD97":168954.97,"N_COORD97":2546835.6099999999,"ADDRESS":"北成路１２８巷４５弄２號五樓","OBJECTID":78635},"geometry":{"x":168954.96999999974,"y":2546835.6099999994}},{"attributes":{"ID":78636,"DIS_CODE":0,"TOWNNAME":"北區","LI":"成功里","LIN":"19鄰","STREET":"北成路","SECT":" ","MAREA":" ","LANE":"１２８巷","ALLEY":"４５弄","HOUSE_NO":"２號六樓","E_COORD97":168954.97,"N_COORD97":2546835.6099999999,"ADDRESS":"北成路１２８巷４５弄２號六樓","OBJECTID":78636},"geometry":{"x":168954.96999999974,"y":2546835.6099999994}},{"attributes":{"ID":78637,"DIS_CODE":0,"TOWNNAME":"北區","LI":"成功里","LIN":"19鄰","STREET":"北成路","SECT":" ","MAREA":" ","LANE":"１２８巷","ALLEY":"４５弄","HOUSE_NO":"２號四樓","E_COORD97":168954.97,"N_COORD97":2546835.6099999999,"ADDRESS":"北成路１２８巷４５弄２號四樓","OBJECTID":78637},"geometry":{"x":168954.96999999974,"y":2546835.6099999994}},{"attributes":{"ID":78638,"DIS_CODE":0,"TOWNNAME":"北區","LI":"成功里","LIN":"19鄰","STREET":"北成路","SECT":" ","MAREA":" ","LANE":"１２８巷","ALLEY":"４５弄","HOUSE_NO":"６號七樓","E_COORD97":168951.73999999999,"N_COORD97":2546843.7999999998,"ADDRESS":"北成路１２８巷４５弄６號七樓","OBJECTID":78638},"geometry":{"x":168951.74000000115,"y":2546843.8000000045}},{"attributes":{"ID":78639,"DIS_CODE":0,"TOWNNAME":"北區","LI":"成功里","LIN":"19鄰","STREET":"北成路","SECT":" ","MAREA":" ","LANE":"１２８巷","ALLEY":"４５弄","HOUSE_NO":"６號九樓","E_COORD97":168951.73999999999,"N_COORD97":2546843.7999999998,"ADDRESS":"北成路１２８巷４５弄６號九樓","OBJECTID":78639},"geometry":{"x":168951.74000000115,"y":2546843.8000000045}},{"attributes":{"ID":78640,"DIS_CODE":0,"TOWNNAME":"北區","LI":"成功里","LIN":"19鄰","STREET":"北成路","SECT":" ","MAREA":" ","LANE":"１２８巷","ALLEY":"４５弄","HOUSE_NO":"６號二樓","E_COORD97":168951.73999999999,"N_COORD97":2546843.7999999998,"ADDRESS":"北成路１２８巷４５弄６號二樓","OBJECTID":78640},"geometry":{"x":168951.74000000115,"y":2546843.8000000045}},{"attributes":{"ID":78641,"DIS_CODE":0,"TOWNNAME":"北區","LI":"成功里","LIN":"19鄰","STREET":"北成路","SECT":" ","MAREA":" ","LANE":"１２８巷","ALLEY":"４５弄","HOUSE_NO":"６號八樓","E_COORD97":168951.73999999999,"N_COORD97":2546843.7999999998,"ADDRESS":"北成路１２８巷４５弄６號八樓","OBJECTID":78641},"geometry":{"x":168951.74000000115,"y":2546843.8000000045}},{"attributes":{"ID":78642,"DIS_CODE":0,"TOWNNAME":"北區","LI":"成功里","LIN":"19鄰","STREET":"北成路","SECT":" ","MAREA":" ","LANE":"１２８巷","ALLEY":"４５弄","HOUSE_NO":"６號三樓","E_COORD97":168951.73999999999,"N_COORD97":2546843.7999999998,"ADDRESS":"北成路１２８巷４５弄６號三樓","OBJECTID":78642},"geometry":{"x":168951.74000000115,"y":2546843.8000000045}},{"attributes":{"ID":78643,"DIS_CODE":0,"TOWNNAME":"北區","LI":"成功里","LIN":"19鄰","STREET":"北成路","SECT":" ","MAREA":" ","LANE":"１２８巷","ALLEY":"４５弄","HOUSE_NO":"６號五樓","E_COORD97":168951.73999999999,"N_COORD97":2546843.7999999998,"ADDRESS":"北成路１２８巷４５弄６號五樓","OBJECTID":78643},"geometry":{"x":168951.74000000115,"y":2546843.8000000045}},{"attributes":{"ID":78644,"DIS_CODE":0,"TOWNNAME":"北區","LI":"成功里","LIN":"19鄰","STREET":"北成路","SECT":" ","MAREA":" ","LANE":"１２８巷","ALLEY":"４５弄","HOUSE_NO":"６號六樓","E_COORD97":168951.73999999999,"N_COORD97":2546843.7999999998,"ADDRESS":"北成路１２８巷４５弄６號六樓","OBJECTID":78644},"geometry":{"x":168951.74000000115,"y":2546843.8000000045}},{"attributes":{"ID":78645,"DIS_CODE":0,"TOWNNAME":"北區","LI":"成功里","LIN":"19鄰","STREET":"北成路","SECT":" ","MAREA":" ","LANE":"１２８巷","ALLEY":"４５弄","HOUSE_NO":"６號四樓","E_COORD97":168951.73999999999,"N_COORD97":2546843.7999999998,"ADDRESS":"北成路１２８巷４５弄６號四樓","OBJECTID":78645},"geometry":{"x":168951.74000000115,"y":2546843.8000000045}},{"attributes":{"ID":78646,"DIS_CODE":0,"TOWNNAME":"南區","LI":"文南里","LIN":"20鄰","STREET":"仁南一街","SECT":" ","MAREA":" ","LANE":" ","ALLEY":" ","HOUSE_NO":"３５號","E_COORD97":166485.57999999999,"N_COORD97":2542622.5600000001,"ADDRESS":"仁南一街３５號","OBJECTID":78646},"geometry":{"x":166485.58000000101,"y":2542622.5600000005}},{"attributes":{"ID":78647,"DIS_CODE":0,"TOWNNAME":"北區","LI":"成功里","LIN":"19鄰","STREET":"北成路","SECT":" ","MAREA":" ","LANE":"１２８巷","ALLEY":"４５弄","HOUSE_NO":"８號七樓","E_COORD97":168945.01000000001,"N_COORD97":2546846.1400000001,"ADDRESS":"北成路１２８巷４５弄８號七樓","OBJECTID":78647},"geometry":{"x":168945.00999999978,"y":2546846.1400000025}},{"attributes":{"ID":78648,"DIS_CODE":0,"TOWNNAME":"北區","LI":"成功里","LIN":"19鄰","STREET":"北成路","SECT":" ","MAREA":" ","LANE":"１２８巷","ALLEY":"４５弄","HOUSE_NO":"８號二樓","E_COORD97":168945.01000000001,"N_COORD97":2546846.1400000001,"ADDRESS":"北成路１２８巷４５弄８號二樓","OBJECTID":78648},"geometry":{"x":168945.00999999978,"y":2546846.1400000025}},{"attributes":{"ID":78649,"DIS_CODE":0,"TOWNNAME":"南區","LI":"再興里","LIN":"7鄰","STREET":"新慶街","SECT":" ","MAREA":" ","LANE":" ","ALLEY":" ","HOUSE_NO":"２５號","E_COORD97":167259.10999999999,"N_COORD97":2542322.0600000001,"ADDRESS":"新慶街２５號","OBJECTID":78649},"geometry":{"x":167259.11000000127,"y":2542322.0600000005}},{"attributes":{"ID":78650,"DIS_CODE":0,"TOWNNAME":"南區","LI":"文南里","LIN":"20鄰","STREET":"健康路","SECT":"二段","MAREA":" ","LANE":" ","ALLEY":" ","HOUSE_NO":"４６０號","E_COORD97":166467.32999999999,"N_COORD97":2542583.0899999999,"ADDRESS":"健康路二段４６０號","OBJECTID":78650},"geometry":{"x":166467.33000000101,"y":2542583.0900000017}},{"attributes":{"ID":78651,"DIS_CODE":0,"TOWNNAME":"南區","LI":"文南里","LIN":"20鄰","STREET":"健康路","SECT":"二段","MAREA":" ","LANE":" ","ALLEY":" ","HOUSE_NO":"５５０號","E_COORD97":166297.64999999999,"N_COORD97":2542613.8799999999,"ADDRESS":"健康路二段５５０號","OBJECTID":78651},"geometry":{"x":166297.6500000013,"y":2542613.8800000008}},{"attributes":{"ID":78652,"DIS_CODE":0,"TOWNNAME":"麻豆區","LI":"油車里","LIN":"6鄰","STREET":" ","SECT":" ","MAREA":"油車","LANE":" ","ALLEY":" ","HOUSE_NO":"７號之５","E_COORD97":172656.26999999999,"N_COORD97":2565350.5499999998,"ADDRESS":"油車７號之５","OBJECTID":78652},"geometry":{"x":172656.27000000048,"y":2565350.5500000026}},{"attributes":{"ID":78653,"DIS_CODE":0,"TOWNNAME":"北區","LI":"成功里","LIN":"19鄰","STREET":"北成路","SECT":" ","MAREA":" ","LANE":"１２８巷","ALLEY":"４５弄","HOUSE_NO":"８號八樓","E_COORD97":168945.01000000001,"N_COORD97":2546846.1400000001,"ADDRESS":"北成路１２８巷４５弄８號八樓","OBJECTID":78653},"geometry":{"x":168945.00999999978,"y":2546846.1400000025}},{"attributes":{"ID":78654,"DIS_CODE":0,"TOWNNAME":"北區","LI":"成功里","LIN":"19鄰","STREET":"北成路","SECT":" ","MAREA":" ","LANE":"１２８巷","ALLEY":"４５弄","HOUSE_NO":"８號三樓","E_COORD97":168945.01000000001,"N_COORD97":2546846.1400000001,"ADDRESS":"北成路１２８巷４５弄８號三樓","OBJECTID":78654},"geometry":{"x":168945.00999999978,"y":2546846.1400000025}},{"attributes":{"ID":78655,"DIS_CODE":0,"TOWNNAME":"北區","LI":"成功里","LIN":"19鄰","STREET":"北成路","SECT":" ","MAREA":" ","LANE":"１２８巷","ALLEY":"４５弄","HOUSE_NO":"８號五樓","E_COORD97":168945.01000000001,"N_COORD97":2546846.1400000001,"ADDRESS":"北成路１２８巷４５弄８號五樓","OBJECTID":78655},"geometry":{"x":168945.00999999978,"y":2546846.1400000025}},{"attributes":{"ID":78656,"DIS_CODE":0,"TOWNNAME":"北區","LI":"成功里","LIN":"19鄰","STREET":"北成路","SECT":" ","MAREA":" ","LANE":"１２８巷","ALLEY":"４５弄","HOUSE_NO":"８號六樓","E_COORD97":168945.01000000001,"N_COORD97":2546846.1400000001,"ADDRESS":"北成路１２８巷４５弄８號六樓","OBJECTID":78656},"geometry":{"x":168945.00999999978,"y":2546846.1400000025}},{"attributes":{"ID":78657,"DIS_CODE":0,"TOWNNAME":"北區","LI":"成功里","LIN":"19鄰","STREET":"北成路","SECT":" ","MAREA":" ","LANE":"１２８巷","ALLEY":"４５弄","HOUSE_NO":"８號四樓","E_COORD97":168945.01000000001,"N_COORD97":2546846.1400000001,"ADDRESS":"北成路１２８巷４５弄８號四樓","OBJECTID":78657},"geometry":{"x":168945.00999999978,"y":2546846.1400000025}},{"attributes":{"ID":78658,"DIS_CODE":0,"TOWNNAME":"東區","LI":"忠孝里","LIN":"31鄰","STREET":"中華東路","SECT":"三段","MAREA":" ","LANE":"４５２巷","ALLEY":"８弄","HOUSE_NO":"１０號","E_COORD97":169943.25,"N_COORD97":2541609.23,"ADDRESS":"中華東路三段４５２巷８弄１０號","OBJECTID":78658},"geometry":{"x":169943.25,"y":2541609.2300000042}},{"attributes":{"ID":78659,"DIS_CODE":0,"TOWNNAME":"新化區","LI":"全興里","LIN":"7鄰","STREET":" ","SECT":" ","MAREA":"竹子\u25A0","LANE":" ","ALLEY":" ","HOUSE_NO":"８９號","E_COORD97":177582.57999999999,"N_COORD97":2547822.25,"ADDRESS":"竹子\u25A0８９號","OBJECTID":78659},"geometry":{"x":177582.58000000101,"y":2547822.25}},{"attributes":{"ID":78660,"DIS_CODE":0,"TOWNNAME":"新化區","LI":"全興里","LIN":"7鄰","STREET":" ","SECT":" ","MAREA":"竹子\u25A0","LANE":" ","ALLEY":" ","HOUSE_NO":"９８號之１０","E_COORD97":177406.67000000001,"N_COORD97":2547864.2599999998,"ADDRESS":"竹子\u25A0９８號之１０","OBJECTID":78660},"geometry":{"x":177406.66999999899,"y":2547864.2600000016}},{"attributes":{"ID":78661,"DIS_CODE":0,"TOWNNAME":"新化區","LI":"全興里","LIN":"7鄰","STREET":" ","SECT":" ","MAREA":"竹子\u25A0","LANE":" ","ALLEY":" ","HOUSE_NO":"９８號之１１","E_COORD97":177419.95999999999,"N_COORD97":2547877.2599999998,"ADDRESS":"竹子\u25A0９８號之１１","OBJECTID":78661},"geometry":{"x":177419.95999999996,"y":2547877.2600000035}},{"attributes":{"ID":78662,"DIS_CODE":0,"TOWNNAME":"新化區","LI":"豐榮里","LIN":"7鄰","STREET":" ","SECT":" ","MAREA":"洋子","LANE":" ","ALLEY":" ","HOUSE_NO":"１５３號","E_COORD97":177852.48000000001,"N_COORD97":2548076.2400000002,"ADDRESS":"洋子１５３號","OBJECTID":78662},"geometry":{"x":177852.48000000045,"y":2548076.2400000002}},{"attributes":{"ID":78663,"DIS_CODE":0,"TOWNNAME":"新化區","LI":"全興里","LIN":"7鄰","STREET":" ","SECT":" ","MAREA":"竹子\u25A0","LANE":" ","ALLEY":" ","HOUSE_NO":"８５號","E_COORD97":177505.98000000001,"N_COORD97":2547793.25,"ADDRESS":"竹子\u25A0８５號","OBJECTID":78663},"geometry":{"x":177505.98000000138,"y":2547793.2500000019}},{"attributes":{"ID":78664,"DIS_CODE":0,"TOWNNAME":"新化區","LI":"全興里","LIN":"7鄰","STREET":" ","SECT":" ","MAREA":"竹子\u25A0","LANE":" ","ALLEY":" ","HOUSE_NO":"９７號","E_COORD97":177491.88,"N_COORD97":2547836.25,"ADDRESS":"竹子\u25A0９７號","OBJECTID":78664},"geometry":{"x":177491.88000000175,"y":2547836.25}},{"attributes":{"ID":78665,"DIS_CODE":0,"TOWNNAME":"東區","LI":"忠孝里","LIN":"31鄰","STREET":"中華東路","SECT":"三段","MAREA":" ","LANE":"４５２巷","ALLEY":"８弄","HOUSE_NO":"２８號","E_COORD97":169982.75,"N_COORD97":2541615.4300000002,"ADDRESS":"中華東路三段４５２巷８弄２８號","OBJECTID":78665},"geometry":{"x":169982.75,"y":2541615.4300000016}},{"attributes":{"ID":78666,"DIS_CODE":0,"TOWNNAME":"永康區","LI":"北灣里","LIN":"19鄰","STREET":"文賢街","SECT":" ","MAREA":" ","LANE":"４２２巷","ALLEY":"３０弄","HOUSE_NO":"５號","E_COORD97":174697.53,"N_COORD97":2545920.9199999999,"ADDRESS":"文賢街４２２巷３０弄５號","OBJECTID":78666},"geometry":{"x":174697.53000000212,"y":2545920.9200000018}},{"attributes":{"ID":78667,"DIS_CODE":0,"TOWNNAME":"永康區","LI":"正強里","LIN":"19鄰","STREET":"中山南路","SECT":" ","MAREA":" ","LANE":"４７１巷","ALLEY":"３９弄","HOUSE_NO":"４號","E_COORD97":173176.57999999999,"N_COORD97":2547192.2400000002,"ADDRESS":"中山南路４７１巷３９弄４號","OBJECTID":78667},"geometry":{"x":173176.58000000101,"y":2547192.2400000002}},{"attributes":{"ID":78668,"DIS_CODE":0,"TOWNNAME":"麻豆區","LI":"油車里","LIN":"6鄰","STREET":" ","SECT":" ","MAREA":"油車","LANE":" ","ALLEY":" ","HOUSE_NO":"７號之６","E_COORD97":172656.07000000001,"N_COORD97":2565354.8300000001,"ADDRESS":"油車７號之６","OBJECTID":78668},"geometry":{"x":172656.0700000003,"y":2565354.8300000019}},{"attributes":{"ID":78669,"DIS_CODE":0,"TOWNNAME":"麻豆區","LI":"油車里","LIN":"6鄰","STREET":" ","SECT":" ","MAREA":"油車","LANE":" ","ALLEY":" ","HOUSE_NO":"７號之７","E_COORD97":172655.35000000001,"N_COORD97":2565358.3999999999,"ADDRESS":"油車７號之７","OBJECTID":78669},"geometry":{"x":172655.35000000149,"y":2565358.4000000022}},{"attributes":{"ID":78670,"DIS_CODE":0,"TOWNNAME":"安南區","LI":"州南里","LIN":"19鄰","STREET":"安和路","SECT":"四段","MAREA":" ","LANE":"２７４巷","ALLEY":"５３弄","HOUSE_NO":"１６號","E_COORD97":170037.37,"N_COORD97":2550803.7599999998,"ADDRESS":"安和路四段２７４巷５３弄１６號","OBJECTID":78670},"geometry":{"x":170037.37000000104,"y":2550803.7600000016}},{"attributes":{"ID":78671,"DIS_CODE":0,"TOWNNAME":"安南區","LI":"州南里","LIN":"19鄰","STREET":"安和路","SECT":"四段","MAREA":" ","LANE":"２７４巷","ALLEY":"５３弄","HOUSE_NO":"２３號","E_COORD97":170021.07000000001,"N_COORD97":2550856.7999999998,"ADDRESS":"安和路四段２７４巷５３弄２３號","OBJECTID":78671},"geometry":{"x":170021.0700000003,"y":2550856.8000000007}},{"attributes":{"ID":78672,"DIS_CODE":0,"TOWNNAME":"安南區","LI":"海東里","LIN":"19鄰","STREET":"海佃路","SECT":"二段","MAREA":" ","LANE":"２６５巷","ALLEY":"５８弄","HOUSE_NO":"４號","E_COORD97":166621.67999999999,"N_COORD97":2548594.4900000002,"ADDRESS":"海佃路二段２６５巷５８弄４號","OBJECTID":78672},"geometry":{"x":166621.68000000156,"y":2548594.4900000002}},{"attributes":{"ID":78673,"DIS_CODE":0,"TOWNNAME":"永康區","LI":"神洲里","LIN":"19鄰","STREET":"忠孝路","SECT":" ","MAREA":" ","LANE":"７６巷","ALLEY":"６３弄","HOUSE_NO":"１６號","E_COORD97":172220.82000000001,"N_COORD97":2545049.9399999999,"ADDRESS":"忠孝路７６巷６３弄１６號","OBJECTID":78673},"geometry":{"x":172220.82000000123,"y":2545049.9399999995}},{"attributes":{"ID":78674,"DIS_CODE":0,"TOWNNAME":"永康區","LI":"勝利里","LIN":"19鄰","STREET":"勝利街","SECT":" ","MAREA":" ","LANE":"１９７巷","ALLEY":"２５弄","HOUSE_NO":"２６號","E_COORD97":171256.66,"N_COORD97":2545054.5299999998,"ADDRESS":"勝利街１９７巷２５弄２６號","OBJECTID":78674},"geometry":{"x":171256.66000000015,"y":2545054.5300000012}},{"attributes":{"ID":78675,"DIS_CODE":0,"TOWNNAME":"歸仁區","LI":"六甲里","LIN":"14鄰","STREET":"六甲一街","SECT":" ","MAREA":" ","LANE":" ","ALLEY":" ","HOUSE_NO":"２３號","E_COORD97":175851.57000000001,"N_COORD97":2539147.25,"ADDRESS":"六甲一街２３號","OBJECTID":78675},"geometry":{"x":175851.56999999937,"y":2539147.2500000037}},{"attributes":{"ID":78676,"DIS_CODE":0,"TOWNNAME":"南區","LI":"再興里","LIN":"7鄰","STREET":"新慶街","SECT":" ","MAREA":" ","LANE":" ","ALLEY":" ","HOUSE_NO":"５９號","E_COORD97":167181.31,"N_COORD97":2542326.8399999999,"ADDRESS":"新慶街５９號","OBJECTID":78676},"geometry":{"x":167181.30999999959,"y":2542326.8400000036}},{"attributes":{"ID":78677,"DIS_CODE":0,"TOWNNAME":"南區","LI":"再興里","LIN":"7鄰","STREET":"新慶街","SECT":" ","MAREA":" ","LANE":" ","ALLEY":" ","HOUSE_NO":"６１號","E_COORD97":167174.85000000001,"N_COORD97":2542326.6899999999,"ADDRESS":"新慶街６１號","OBJECTID":78677},"geometry":{"x":167174.85000000149,"y":2542326.6899999995}},{"attributes":{"ID":78678,"DIS_CODE":0,"TOWNNAME":"新化區","LI":"協興里","LIN":"7鄰","STREET":"大新路","SECT":" ","MAREA":" ","LANE":" ","ALLEY":" ","HOUSE_NO":"３４號","E_COORD97":178187.98000000001,"N_COORD97":2548621.25,"ADDRESS":"大新路３４號","OBJECTID":78678},"geometry":{"x":178187.98000000045,"y":2548621.2500000019}},{"attributes":{"ID":78679,"DIS_CODE":0,"TOWNNAME":"新化區","LI":"協興里","LIN":"7鄰","STREET":"大新路","SECT":" ","MAREA":" ","LANE":" ","ALLEY":" ","HOUSE_NO":"１０號","E_COORD97":178245.98000000001,"N_COORD97":2548578.25,"ADDRESS":"大新路１０號","OBJECTID":78679},"geometry":{"x":178245.98000000231,"y":2548578.25}},{"attributes":{"ID":78680,"DIS_CODE":0,"TOWNNAME":"新化區","LI":"協興里","LIN":"7鄰","STREET":"大新路","SECT":" ","MAREA":" ","LANE":" ","ALLEY":" ","HOUSE_NO":"１２號","E_COORD97":178221.17999999999,"N_COORD97":2548585.25,"ADDRESS":"大新路１２號","OBJECTID":78680},"geometry":{"x":178221.1799999997,"y":2548585.25}},{"attributes":{"ID":78681,"DIS_CODE":0,"TOWNNAME":"新化區","LI":"全興里","LIN":"7鄰","STREET":" ","SECT":" ","MAREA":"竹子\u25A0","LANE":" ","ALLEY":" ","HOUSE_NO":"９６號","E_COORD97":177499.07999999999,"N_COORD97":2547804.25,"ADDRESS":"竹子\u25A0９６號","OBJECTID":78681},"geometry":{"x":177499.08000000194,"y":2547804.2500000019}},{"attributes":{"ID":78682,"DIS_CODE":0,"TOWNNAME":"新化區","LI":"全興里","LIN":"7鄰","STREET":" ","SECT":" ","MAREA":"竹子\u25A0","LANE":" ","ALLEY":" ","HOUSE_NO":"９８號之１６","E_COORD97":177409.38,"N_COORD97":2547938.2599999998,"ADDRESS":"竹子\u25A0９８號之１６","OBJECTID":78682},"geometry":{"x":177409.38000000082,"y":2547938.2600000035}},{"attributes":{"ID":78683,"DIS_CODE":0,"TOWNNAME":"永康區","LI":"勝利里","LIN":"19鄰","STREET":"勝利街","SECT":" ","MAREA":" ","LANE":"１９７巷","ALLEY":"２５弄","HOUSE_NO":"１５號","E_COORD97":171279.73000000001,"N_COORD97":2545064.5099999998,"ADDRESS":"勝利街１９７巷２５弄１５號","OBJECTID":78683},"geometry":{"x":171279.73000000045,"y":2545064.5099999998}},{"attributes":{"ID":78684,"DIS_CODE":0,"TOWNNAME":"安南區","LI":"淵中里","LIN":"19鄰","STREET":"安中路","SECT":"四段","MAREA":" ","LANE":"１９７巷","ALLEY":"４９弄","HOUSE_NO":"２８號","E_COORD97":164802.78,"N_COORD97":2549927.1499999999,"ADDRESS":"安中路四段１９７巷４９弄２８號","OBJECTID":78684},"geometry":{"x":164802.78000000212,"y":2549927.1500000022}},{"attributes":{"ID":78685,"DIS_CODE":0,"TOWNNAME":"安南區","LI":"淵中里","LIN":"19鄰","STREET":"安中路","SECT":"四段","MAREA":" ","LANE":"１９７巷","ALLEY":"４９弄","HOUSE_NO":"３０號","E_COORD97":164806.53,"N_COORD97":2549926.2400000002,"ADDRESS":"安中路四段１９７巷４９弄３０號","OBJECTID":78685},"geometry":{"x":164806.53000000119,"y":2549926.2400000021}},{"attributes":{"ID":78686,"DIS_CODE":0,"TOWNNAME":"新化區","LI":"崙頂里","LIN":"7鄰","STREET":" ","SECT":" ","MAREA":"崙子頂","LANE":" ","ALLEY":" ","HOUSE_NO":"２８５號之１","E_COORD97":176706.35999999999,"N_COORD97":2547126.2599999998,"ADDRESS":"崙子頂２８５號之１","OBJECTID":78686},"geometry":{"x":176706.36000000127,"y":2547126.2599999998}},{"attributes":{"ID":78687,"DIS_CODE":0,"TOWNNAME":"安南區","LI":"淵中里","LIN":"19鄰","STREET":"安中路","SECT":"四段","MAREA":" ","LANE":"１９７巷","ALLEY":"４９弄","HOUSE_NO":"３２號","E_COORD97":164810.62,"N_COORD97":2549925.2400000002,"ADDRESS":"安中路四段１９７巷４９弄３２號","OBJECTID":78687},"geometry":{"x":164810.62000000104,"y":2549925.2399999984}},{"attributes":{"ID":78688,"DIS_CODE":0,"TOWNNAME":"安南區","LI":"淵中里","LIN":"19鄰","STREET":"安中路","SECT":"四段","MAREA":" ","LANE":"１９７巷","ALLEY":"４９弄","HOUSE_NO":"３６號","E_COORD97":164814.87,"N_COORD97":2549923.8199999998,"ADDRESS":"安中路四段１９７巷４９弄３６號","OBJECTID":78688},"geometry":{"x":164814.87000000011,"y":2549923.8200000003}},{"attributes":{"ID":78689,"DIS_CODE":0,"TOWNNAME":"新化區","LI":"全興里","LIN":"7鄰","STREET":" ","SECT":" ","MAREA":"竹子\u25A0","LANE":" ","ALLEY":" ","HOUSE_NO":"８４號之１","E_COORD97":177543.10999999999,"N_COORD97":2547753.2599999998,"ADDRESS":"竹子\u25A0８４號之１","OBJECTID":78689},"geometry":{"x":177543.1099999994,"y":2547753.2600000016}},{"attributes":{"ID":78690,"DIS_CODE":0,"TOWNNAME":"新化區","LI":"全興里","LIN":"7鄰","STREET":" ","SECT":" ","MAREA":"竹子\u25A0","LANE":" ","ALLEY":" ","HOUSE_NO":"９８號之１７","E_COORD97":177384.98000000001,"N_COORD97":2547966.2599999998,"ADDRESS":"竹子\u25A0９８號之１７","OBJECTID":78690},"geometry":{"x":177384.98000000231,"y":2547966.2600000016}},{"attributes":{"ID":78691,"DIS_CODE":0,"TOWNNAME":"安南區","LI":"淵中里","LIN":"19鄰","STREET":"安中路","SECT":"四段","MAREA":" ","LANE":"１９７巷","ALLEY":"４９弄","HOUSE_NO":"３８號","E_COORD97":164819.13,"N_COORD97":2549922.1499999999,"ADDRESS":"安中路四段１９７巷４９弄３８號","OBJECTID":78691},"geometry":{"x":164819.13000000082,"y":2549922.1500000004}},{"attributes":{"ID":78692,"DIS_CODE":0,"TOWNNAME":"安南區","LI":"淵中里","LIN":"19鄰","STREET":"安中路","SECT":"四段","MAREA":" ","LANE":"１９７巷","ALLEY":"４９弄","HOUSE_NO":"４０號","E_COORD97":164823.13,"N_COORD97":2549921.0699999998,"ADDRESS":"安中路四段１９７巷４９弄４０號","OBJECTID":78692},"geometry":{"x":164823.12999999989,"y":2549921.0700000022}},{"attributes":{"ID":78693,"DIS_CODE":0,"TOWNNAME":"安南區","LI":"淵中里","LIN":"19鄰","STREET":"安中路","SECT":"四段","MAREA":" ","LANE":"１９７巷","ALLEY":"４９弄","HOUSE_NO":"４２號","E_COORD97":164827.89999999999,"N_COORD97":2549919.98,"ADDRESS":"安中路四段１９７巷４９弄４２號","OBJECTID":78693},"geometry":{"x":164827.9000000013,"y":2549919.9800000004}},{"attributes":{"ID":78694,"DIS_CODE":0,"TOWNNAME":"新化區","LI":"唪口里","LIN":"7鄰","STREET":" ","SECT":" ","MAREA":"唪口","LANE":" ","ALLEY":" ","HOUSE_NO":"１０７號之１","E_COORD97":178018.48000000001,"N_COORD97":2548943.2599999998,"ADDRESS":"唪口１０７號之１","OBJECTID":78694},"geometry":{"x":178018.48000000045,"y":2548943.2600000016}},{"attributes":{"ID":78695,"DIS_CODE":0,"TOWNNAME":"新化區","LI":"全興里","LIN":"7鄰","STREET":" ","SECT":" ","MAREA":"竹子\u25A0","LANE":" ","ALLEY":" ","HOUSE_NO":"９８號之１８","E_COORD97":177402.29000000001,"N_COORD97":2547988.2599999998,"ADDRESS":"竹子\u25A0９８號之１８","OBJECTID":78695},"geometry":{"x":177402.29000000004,"y":2547988.2599999998}},{"attributes":{"ID":78696,"DIS_CODE":0,"TOWNNAME":"新化區","LI":"崙頂里","LIN":"7鄰","STREET":" ","SECT":" ","MAREA":"崙子頂","LANE":" ","ALLEY":" ","HOUSE_NO":"２９６號之３","E_COORD97":176840.38,"N_COORD97":2547067.2599999998,"ADDRESS":"崙子頂２９６號之３","OBJECTID":78696},"geometry":{"x":176840.37999999989,"y":2547067.2600000016}},{"attributes":{"ID":78697,"DIS_CODE":0,"TOWNNAME":"安南區","LI":"淵中里","LIN":"19鄰","STREET":"安中路","SECT":"四段","MAREA":" ","LANE":"１９７巷","ALLEY":"４９弄","HOUSE_NO":"４６號","E_COORD97":164831.48999999999,"N_COORD97":2549918.0600000001,"ADDRESS":"安中路四段１９７巷４９弄４６號","OBJECTID":78697},"geometry":{"x":164831.49000000022,"y":2549918.0600000024}},{"attributes":{"ID":78698,"DIS_CODE":0,"TOWNNAME":"佳里區","LI":"六安里","LIN":"19鄰","STREET":"延平路","SECT":" ","MAREA":" ","LANE":"５７７巷","ALLEY":"１弄","HOUSE_NO":"１０號","E_COORD97":165891.22,"N_COORD97":2563496.8799999999,"ADDRESS":"延平路５７７巷１弄１０號","OBJECTID":78698},"geometry":{"x":165891.22000000067,"y":2563496.879999999}},{"attributes":{"ID":78699,"DIS_CODE":0,"TOWNNAME":"新化區","LI":"山\u25A0里","LIN":"7鄰","STREET":" ","SECT":" ","MAREA":"頂山\u25A0","LANE":" ","ALLEY":" ","HOUSE_NO":"１４４號之２","E_COORD97":179715.88,"N_COORD97":2546749.2599999998,"ADDRESS":"頂山\u25A0１４４號之２","OBJECTID":78699},"geometry":{"x":179715.88000000175,"y":2546749.2600000016}},{"attributes":{"ID":78700,"DIS_CODE":0,"TOWNNAME":"新化區","LI":"山\u25A0里","LIN":"7鄰","STREET":" ","SECT":" ","MAREA":"頂山\u25A0","LANE":" ","ALLEY":" ","HOUSE_NO":"１１號","E_COORD97":179699.17999999999,"N_COORD97":2546813.25,"ADDRESS":"頂山\u25A0１１號","OBJECTID":78700},"geometry":{"x":179699.18000000063,"y":2546813.2500000019}},{"attributes":{"ID":78701,"DIS_CODE":0,"TOWNNAME":"新化區","LI":"山\u25A0里","LIN":"7鄰","STREET":" ","SECT":" ","MAREA":"頂山\u25A0","LANE":" ","ALLEY":" ","HOUSE_NO":"１５１號","E_COORD97":179740.82999999999,"N_COORD97":2546792.25,"ADDRESS":"頂山\u25A0１５１號","OBJECTID":78701},"geometry":{"x":179740.83000000101,"y":2546792.2499999981}},{"attributes":{"ID":78702,"DIS_CODE":0,"TOWNNAME":"新化區","LI":"唪口里","LIN":"7鄰","STREET":" ","SECT":" ","MAREA":"唪口","LANE":" ","ALLEY":" ","HOUSE_NO":"１０９號之１","E_COORD97":178006.88,"N_COORD97":2548975.25,"ADDRESS":"唪口１０９號之１","OBJECTID":78702},"geometry":{"x":178006.87999999989,"y":2548975.25}},{"attributes":{"ID":78703,"DIS_CODE":0,"TOWNNAME":"新化區","LI":"豐榮里","LIN":"7鄰","STREET":" ","SECT":" ","MAREA":"洋子","LANE":" ","ALLEY":" ","HOUSE_NO":"１５２號之２","E_COORD97":177800.23000000001,"N_COORD97":2548043.2599999998,"ADDRESS":"洋子１５２號之２","OBJECTID":78703},"geometry":{"x":177800.23000000231,"y":2548043.2600000035}},{"attributes":{"ID":78704,"DIS_CODE":0,"TOWNNAME":"新化區","LI":"崙頂里","LIN":"7鄰","STREET":" ","SECT":" ","MAREA":"崙子頂","LANE":" ","ALLEY":" ","HOUSE_NO":"２９２號之１","E_COORD97":176786.85999999999,"N_COORD97":2547139.2599999998,"ADDRESS":"崙子頂２９２號之１","OBJECTID":78704},"geometry":{"x":176786.86000000034,"y":2547139.2600000016}},{"attributes":{"ID":78705,"DIS_CODE":0,"TOWNNAME":"新化區","LI":"唪口里","LIN":"7鄰","STREET":" ","SECT":" ","MAREA":"唪口","LANE":" ","ALLEY":" ","HOUSE_NO":"１１０號","E_COORD97":177969.25,"N_COORD97":2548975.2400000002,"ADDRESS":"唪口１１０號","OBJECTID":78705},"geometry":{"x":177969.25000000186,"y":2548975.2400000002}},{"attributes":{"ID":78706,"DIS_CODE":0,"TOWNNAME":"新化區","LI":"豐榮里","LIN":"7鄰","STREET":" ","SECT":" ","MAREA":"洋子","LANE":" ","ALLEY":" ","HOUSE_NO":"１５８號之３","E_COORD97":177926.82999999999,"N_COORD97":2548128.2599999998,"ADDRESS":"洋子１５８號之３","OBJECTID":78706},"geometry":{"x":177926.83000000101,"y":2548128.2600000035}},{"attributes":{"ID":78707,"DIS_CODE":0,"TOWNNAME":"佳里區","LI":"六安里","LIN":"19鄰","STREET":"延平路","SECT":" ","MAREA":" ","LANE":"５７７巷","ALLEY":"１弄","HOUSE_NO":"１１號","E_COORD97":165882.44,"N_COORD97":2563481.4700000002,"ADDRESS":"延平路５７７巷１弄１１號","OBJECTID":78707},"geometry":{"x":165882.44000000041,"y":2563481.4700000007}},{"attributes":{"ID":78708,"DIS_CODE":0,"TOWNNAME":"新化區","LI":"崙頂里","LIN":"7鄰","STREET":" ","SECT":" ","MAREA":"崙子頂","LANE":" ","ALLEY":" ","HOUSE_NO":"２８７號之３","E_COORD97":176726.98000000001,"N_COORD97":2547224.2599999998,"ADDRESS":"崙子頂２８７號之３","OBJECTID":78708},"geometry":{"x":176726.98000000045,"y":2547224.2600000016}},{"attributes":{"ID":78709,"DIS_CODE":0,"TOWNNAME":"佳里區","LI":"六安里","LIN":"19鄰","STREET":"延平路","SECT":" ","MAREA":" ","LANE":"５７７巷","ALLEY":"１弄","HOUSE_NO":"１２號","E_COORD97":165885.16,"N_COORD97":2563497.6899999999,"ADDRESS":"延平路５７７巷１弄１２號","OBJECTID":78709},"geometry":{"x":165885.16000000108,"y":2563497.6900000013}},{"attributes":{"ID":78710,"DIS_CODE":0,"TOWNNAME":"佳里區","LI":"六安里","LIN":"19鄰","STREET":"延平路","SECT":" ","MAREA":" ","LANE":"５７７巷","ALLEY":"１弄","HOUSE_NO":"１３號","E_COORD97":165875.85000000001,"N_COORD97":2563482.3300000001,"ADDRESS":"延平路５７７巷１弄１３號","OBJECTID":78710},"geometry":{"x":165875.84999999963,"y":2563482.3300000001}},{"attributes":{"ID":78711,"DIS_CODE":0,"TOWNNAME":"佳里區","LI":"六安里","LIN":"19鄰","STREET":"延平路","SECT":" ","MAREA":" ","LANE":"５７７巷","ALLEY":"１弄","HOUSE_NO":"１４號","E_COORD97":165878.57999999999,"N_COORD97":2563498.7200000002,"ADDRESS":"延平路５７７巷１弄１４號","OBJECTID":78711},"geometry":{"x":165878.58000000194,"y":2563498.7200000025}},{"attributes":{"ID":78712,"DIS_CODE":0,"TOWNNAME":"新化區","LI":"大坑里","LIN":"7鄰","STREET":" ","SECT":" ","MAREA":"大坑尾","LANE":" ","ALLEY":" ","HOUSE_NO":"１６７號","E_COORD97":187007.23000000001,"N_COORD97":2545943.25,"ADDRESS":"大坑尾１６７號","OBJECTID":78712},"geometry":{"x":187007.23000000138,"y":2545943.25}},{"attributes":{"ID":78713,"DIS_CODE":0,"TOWNNAME":"新化區","LI":"大坑里","LIN":"7鄰","STREET":" ","SECT":" ","MAREA":"大坑尾","LANE":" ","ALLEY":" ","HOUSE_NO":"１５４號","E_COORD97":187088.32999999999,"N_COORD97":2545602.25,"ADDRESS":"大坑尾１５４號","OBJECTID":78713},"geometry":{"x":187088.33000000007,"y":2545602.2499999981}},{"attributes":{"ID":78714,"DIS_CODE":0,"TOWNNAME":"佳里區","LI":"六安里","LIN":"19鄰","STREET":"延平路","SECT":" ","MAREA":" ","LANE":"５７７巷","ALLEY":"１弄","HOUSE_NO":"１７號","E_COORD97":165863.67999999999,"N_COORD97":2563484.2799999998,"ADDRESS":"延平路５７７巷１弄１７號","OBJECTID":78714},"geometry":{"x":165863.6799999997,"y":2563484.2799999993}},{"attributes":{"ID":78715,"DIS_CODE":0,"TOWNNAME":"佳里區","LI":"六安里","LIN":"19鄰","STREET":"延平路","SECT":" ","MAREA":" ","LANE":"５７７巷","ALLEY":"１弄","HOUSE_NO":"１８號","E_COORD97":165865.32000000001,"N_COORD97":2563500.9399999999,"ADDRESS":"延平路５７７巷１弄１８號","OBJECTID":78715},"geometry":{"x":165865.32000000216,"y":2563500.9399999995}},{"attributes":{"ID":78716,"DIS_CODE":0,"TOWNNAME":"佳里區","LI":"六安里","LIN":"19鄰","STREET":"延平路","SECT":" ","MAREA":" ","LANE":"５７７巷","ALLEY":"１弄","HOUSE_NO":"１９號","E_COORD97":165857.73000000001,"N_COORD97":2563485.3799999999,"ADDRESS":"延平路５７７巷１弄１９號","OBJECTID":78716},"geometry":{"x":165857.73000000231,"y":2563485.3800000008}},{"attributes":{"ID":78717,"DIS_CODE":0,"TOWNNAME":"佳里區","LI":"六安里","LIN":"19鄰","STREET":"延平路","SECT":" ","MAREA":" ","LANE":"５７７巷","ALLEY":"１弄","HOUSE_NO":"１號","E_COORD97":165913.22,"N_COORD97":2563476.73,"ADDRESS":"延平路５７７巷１弄１號","OBJECTID":78717},"geometry":{"x":165913.22000000067,"y":2563476.7300000004}},{"attributes":{"ID":78718,"DIS_CODE":0,"TOWNNAME":"歸仁區","LI":"七甲里","LIN":"13鄰","STREET":"南潭一街","SECT":" ","MAREA":" ","LANE":" ","ALLEY":" ","HOUSE_NO":"２２號","E_COORD97":175950.48999999999,"N_COORD97":2543009.25,"ADDRESS":"南潭一街２２號","OBJECTID":78718},"geometry":{"x":175950.49000000209,"y":2543009.2500000019}},{"attributes":{"ID":78719,"DIS_CODE":0,"TOWNNAME":"新化區","LI":"武安里","LIN":"7鄰","STREET":"大同街","SECT":" ","MAREA":" ","LANE":" ","ALLEY":" ","HOUSE_NO":"３３號","E_COORD97":179013.78,"N_COORD97":2548129.25,"ADDRESS":"大同街３３號","OBJECTID":78719},"geometry":{"x":179013.78000000119,"y":2548129.2500000019}},{"attributes":{"ID":78720,"DIS_CODE":0,"TOWNNAME":"新化區","LI":"武安里","LIN":"7鄰","STREET":"大同街","SECT":" ","MAREA":" ","LANE":" ","ALLEY":" ","HOUSE_NO":"１１號","E_COORD97":179026.28,"N_COORD97":2548061.25,"ADDRESS":"大同街１１號","OBJECTID":78720},"geometry":{"x":179026.28000000026,"y":2548061.2500000019}},{"attributes":{"ID":78721,"DIS_CODE":0,"TOWNNAME":"新化區","LI":"武安里","LIN":"7鄰","STREET":"大同街","SECT":" ","MAREA":" ","LANE":" ","ALLEY":" ","HOUSE_NO":"２１號","E_COORD97":179009.38,"N_COORD97":2548089.25,"ADDRESS":"大同街２１號","OBJECTID":78721},"geometry":{"x":179009.38000000082,"y":2548089.2500000019}},{"attributes":{"ID":78722,"DIS_CODE":0,"TOWNNAME":"新化區","LI":"武安里","LIN":"7鄰","STREET":"大同街","SECT":" ","MAREA":" ","LANE":" ","ALLEY":" ","HOUSE_NO":"２５號","E_COORD97":179020.57999999999,"N_COORD97":2548106.25,"ADDRESS":"大同街２５號","OBJECTID":78722},"geometry":{"x":179020.58000000007,"y":2548106.2500000019}},{"attributes":{"ID":78723,"DIS_CODE":0,"TOWNNAME":"新化區","LI":"武安里","LIN":"7鄰","STREET":"大同街","SECT":" ","MAREA":" ","LANE":" ","ALLEY":" ","HOUSE_NO":"１１號之１","E_COORD97":179019.10999999999,"N_COORD97":2548028.2599999998,"ADDRESS":"大同街１１號之１","OBJECTID":78723},"geometry":{"x":179019.11000000034,"y":2548028.2599999998}},{"attributes":{"ID":78724,"DIS_CODE":0,"TOWNNAME":"麻豆區","LI":"油車里","LIN":"6鄰","STREET":" ","SECT":" ","MAREA":"油車","LANE":" ","ALLEY":" ","HOUSE_NO":"７號之８","E_COORD97":172654.48000000001,"N_COORD97":2565363.1899999999,"ADDRESS":"油車７號之８","OBJECTID":78724},"geometry":{"x":172654.48000000045,"y":2565363.1899999995}},{"attributes":{"ID":78725,"DIS_CODE":0,"TOWNNAME":"麻豆區","LI":"油車里","LIN":"6鄰","STREET":" ","SECT":" ","MAREA":"油車","LANE":" ","ALLEY":" ","HOUSE_NO":"７號之９","E_COORD97":172654.06,"N_COORD97":2565366.9199999999,"ADDRESS":"油車７號之９","OBJECTID":78725},"geometry":{"x":172654.06000000052,"y":2565366.9199999981}},{"attributes":{"ID":78726,"DIS_CODE":0,"TOWNNAME":"麻豆區","LI":"油車里","LIN":"6鄰","STREET":" ","SECT":" ","MAREA":"油車","LANE":" ","ALLEY":" ","HOUSE_NO":"８號之１３","E_COORD97":172677.63,"N_COORD97":2565320.5099999998,"ADDRESS":"油車８號之１３","OBJECTID":78726},"geometry":{"x":172677.63000000082,"y":2565320.5100000016}},{"attributes":{"ID":78727,"DIS_CODE":0,"TOWNNAME":"佳里區","LI":"六安里","LIN":"19鄰","STREET":"延平路","SECT":" ","MAREA":" ","LANE":"５７７巷","ALLEY":"１弄","HOUSE_NO":"２０號","E_COORD97":165858.82000000001,"N_COORD97":2563502.1800000002,"ADDRESS":"延平路５７７巷１弄２０號","OBJECTID":78727},"geometry":{"x":165858.82000000123,"y":2563502.1799999997}},{"attributes":{"ID":78728,"DIS_CODE":0,"TOWNNAME":"佳里區","LI":"六安里","LIN":"19鄰","STREET":"延平路","SECT":" ","MAREA":" ","LANE":"５７７巷","ALLEY":"１弄","HOUSE_NO":"２１號","E_COORD97":165850.85999999999,"N_COORD97":2563486.4300000002,"ADDRESS":"延平路５７７巷１弄２１號","OBJECTID":78728},"geometry":{"x":165850.86000000034,"y":2563486.4300000016}},{"attributes":{"ID":78729,"DIS_CODE":0,"TOWNNAME":"佳里區","LI":"六安里","LIN":"19鄰","STREET":"延平路","SECT":" ","MAREA":" ","LANE":"５７７巷","ALLEY":"１弄","HOUSE_NO":"２２號","E_COORD97":165852.94,"N_COORD97":2563503.2400000002,"ADDRESS":"延平路５７７巷１弄２２號","OBJECTID":78729},"geometry":{"x":165852.94000000134,"y":2563503.2400000002}},{"attributes":{"ID":78730,"DIS_CODE":0,"TOWNNAME":"佳里區","LI":"六安里","LIN":"19鄰","STREET":"延平路","SECT":" ","MAREA":" ","LANE":"５７７巷","ALLEY":"１弄","HOUSE_NO":"２３號","E_COORD97":165844.70000000001,"N_COORD97":2563487.3399999999,"ADDRESS":"延平路５７７巷１弄２３號","OBJECTID":78730},"geometry":{"x":165844.70000000112,"y":2563487.3400000017}},{"attributes":{"ID":78731,"DIS_CODE":0,"TOWNNAME":"佳里區","LI":"六安里","LIN":"19鄰","STREET":"延平路","SECT":" ","MAREA":" ","LANE":"５７７巷","ALLEY":"１弄","HOUSE_NO":"２４號","E_COORD97":165846.04999999999,"N_COORD97":2563504.8900000001,"ADDRESS":"延平路５７７巷１弄２４號","OBJECTID":78731},"geometry":{"x":165846.04999999981,"y":2563504.8900000025}},{"attributes":{"ID":78732,"DIS_CODE":0,"TOWNNAME":"佳里區","LI":"六安里","LIN":"19鄰","STREET":"延平路","SECT":" ","MAREA":" ","LANE":"５７７巷","ALLEY":"１弄","HOUSE_NO":"２５號","E_COORD97":165838.31,"N_COORD97":2563488.4500000002,"ADDRESS":"延平路５７７巷１弄２５號","OBJECTID":78732},"geometry":{"x":165838.31000000052,"y":2563488.4500000011}},{"attributes":{"ID":78733,"DIS_CODE":0,"TOWNNAME":"佳里區","LI":"六安里","LIN":"19鄰","STREET":"延平路","SECT":" ","MAREA":" ","LANE":"５７７巷","ALLEY":"１弄","HOUSE_NO":"２６號","E_COORD97":165839.63,"N_COORD97":2563506.0699999998,"ADDRESS":"延平路５７７巷１弄２６號","OBJECTID":78733},"geometry":{"x":165839.63000000082,"y":2563506.0700000022}},{"attributes":{"ID":78734,"DIS_CODE":0,"TOWNNAME":"佳里區","LI":"六安里","LIN":"19鄰","STREET":"延平路","SECT":" ","MAREA":" ","LANE":"５７７巷","ALLEY":"１弄","HOUSE_NO":"２７號","E_COORD97":165832.59,"N_COORD97":2563489.5099999998,"ADDRESS":"延平路５７７巷１弄２７號","OBJECTID":78734},"geometry":{"x":165832.59000000171,"y":2563489.5100000016}},{"attributes":{"ID":78735,"DIS_CODE":0,"TOWNNAME":"佳里區","LI":"六安里","LIN":"19鄰","STREET":"延平路","SECT":" ","MAREA":" ","LANE":"５７７巷","ALLEY":"１弄","HOUSE_NO":"２８號","E_COORD97":165833.54999999999,"N_COORD97":2563507.2200000002,"ADDRESS":"延平路５７７巷１弄２８號","OBJECTID":78735},"geometry":{"x":165833.55000000075,"y":2563507.2200000007}},{"attributes":{"ID":78736,"DIS_CODE":0,"TOWNNAME":"佳里區","LI":"六安里","LIN":"19鄰","STREET":"延平路","SECT":" ","MAREA":" ","LANE":"５７７巷","ALLEY":"１弄","HOUSE_NO":"２９號","E_COORD97":165826.09,"N_COORD97":2563490.4700000002,"ADDRESS":"延平路５７７巷１弄２９號","OBJECTID":78736},"geometry":{"x":165826.09000000078,"y":2563490.4700000025}},{"attributes":{"ID":78737,"DIS_CODE":0,"TOWNNAME":"佳里區","LI":"六安里","LIN":"19鄰","STREET":"延平路","SECT":" ","MAREA":" ","LANE":"５７７巷","ALLEY":"１弄","HOUSE_NO":"２號","E_COORD97":165917.14000000001,"N_COORD97":2563493.1099999999,"ADDRESS":"延平路５７７巷１弄２號","OBJECTID":78737},"geometry":{"x":165917.1400000006,"y":2563493.1099999994}},{"attributes":{"ID":78738,"DIS_CODE":0,"TOWNNAME":"佳里區","LI":"六安里","LIN":"19鄰","STREET":"延平路","SECT":" ","MAREA":" ","LANE":"５７７巷","ALLEY":"１弄","HOUSE_NO":"３０號","E_COORD97":165826.91,"N_COORD97":2563508.2999999998,"ADDRESS":"延平路５７７巷１弄３０號","OBJECTID":78738},"geometry":{"x":165826.91000000015,"y":2563508.3000000026}},{"attributes":{"ID":78739,"DIS_CODE":0,"TOWNNAME":"佳里區","LI":"六安里","LIN":"19鄰","STREET":"延平路","SECT":" ","MAREA":" ","LANE":"５７７巷","ALLEY":"１弄","HOUSE_NO":"３１號","E_COORD97":165820.07000000001,"N_COORD97":2563491.1400000001,"ADDRESS":"延平路５７７巷１弄３１號","OBJECTID":78739},"geometry":{"x":165820.07000000123,"y":2563491.1400000006}},{"attributes":{"ID":78740,"DIS_CODE":0,"TOWNNAME":"佳里區","LI":"六安里","LIN":"19鄰","STREET":"延平路","SECT":" ","MAREA":" ","LANE":"５７７巷","ALLEY":"１弄","HOUSE_NO":"３２號","E_COORD97":165820.48000000001,"N_COORD97":2563509.2999999998,"ADDRESS":"延平路５７７巷１弄３２號","OBJECTID":78740},"geometry":{"x":165820.48000000138,"y":2563509.3000000007}},{"attributes":{"ID":78741,"DIS_CODE":0,"TOWNNAME":"佳里區","LI":"六安里","LIN":"19鄰","STREET":"延平路","SECT":" ","MAREA":" ","LANE":"５７７巷","ALLEY":"１弄","HOUSE_NO":"３５號","E_COORD97":165807.88,"N_COORD97":2563492.5600000001,"ADDRESS":"延平路５７７巷１弄３５號","OBJECTID":78741},"geometry":{"x":165807.87999999989,"y":2563492.5600000024}},{"attributes":{"ID":78742,"DIS_CODE":0,"TOWNNAME":"佳里區","LI":"六安里","LIN":"19鄰","STREET":"延平路","SECT":" ","MAREA":" ","LANE":"５７７巷","ALLEY":"１弄","HOUSE_NO":"３６號","E_COORD97":165807.67999999999,"N_COORD97":2563511.54,"ADDRESS":"延平路５７７巷１弄３６號","OBJECTID":78742},"geometry":{"x":165807.6799999997,"y":2563511.540000001}},{"attributes":{"ID":78743,"DIS_CODE":0,"TOWNNAME":"歸仁區","LI":"大廟里","LIN":"17鄰","STREET":"保吉路","SECT":" ","MAREA":" ","LANE":" ","ALLEY":" ","HOUSE_NO":"１１０號","E_COORD97":175910.57000000001,"N_COORD97":2545079.25,"ADDRESS":"保吉路１１０號","OBJECTID":78743},"geometry":{"x":175910.5700000003,"y":2545079.25}},{"attributes":{"ID":78744,"DIS_CODE":0,"TOWNNAME":"南區","LI":"再興里","LIN":"7鄰","STREET":"新慶街","SECT":" ","MAREA":" ","LANE":" ","ALLEY":" ","HOUSE_NO":"１號","E_COORD97":167311.06,"N_COORD97":2542322.9100000001,"ADDRESS":"新慶街１號","OBJECTID":78744},"geometry":{"x":167311.06000000052,"y":2542322.9100000039}},{"attributes":{"ID":78745,"DIS_CODE":0,"TOWNNAME":"南區","LI":"再興里","LIN":"7鄰","STREET":"新慶街","SECT":" ","MAREA":" ","LANE":" ","ALLEY":" ","HOUSE_NO":"３號","E_COORD97":167307.14000000001,"N_COORD97":2542322.5899999999,"ADDRESS":"新慶街３號","OBJECTID":78745},"geometry":{"x":167307.1400000006,"y":2542322.5900000017}},{"attributes":{"ID":78746,"DIS_CODE":0,"TOWNNAME":"麻豆區","LI":"油車里","LIN":"6鄰","STREET":" ","SECT":" ","MAREA":"油車","LANE":" ","ALLEY":" ","HOUSE_NO":"８號之１４","E_COORD97":172677.16,"N_COORD97":2565325.3100000001,"ADDRESS":"油車８號之１４","OBJECTID":78746},"geometry":{"x":172677.16000000015,"y":2565325.3100000024}},{"attributes":{"ID":78747,"DIS_CODE":0,"TOWNNAME":"麻豆區","LI":"油車里","LIN":"6鄰","STREET":" ","SECT":" ","MAREA":"油車","LANE":" ","ALLEY":" ","HOUSE_NO":"８號之１５","E_COORD97":172695.75,"N_COORD97":2565306.73,"ADDRESS":"油車８號之１５","OBJECTID":78747},"geometry":{"x":172695.75000000093,"y":2565306.7300000004}},{"attributes":{"ID":78748,"DIS_CODE":0,"TOWNNAME":"麻豆區","LI":"油車里","LIN":"6鄰","STREET":" ","SECT":" ","MAREA":"油車","LANE":" ","ALLEY":" ","HOUSE_NO":"８號之１６","E_COORD97":172695.01999999999,"N_COORD97":2565312.8999999999,"ADDRESS":"油車８號之１６","OBJECTID":78748},"geometry":{"x":172695.02000000048,"y":2565312.9000000004}},{"attributes":{"ID":78749,"DIS_CODE":0,"TOWNNAME":"麻豆區","LI":"油車里","LIN":"6鄰","STREET":" ","SECT":" ","MAREA":"油車","LANE":" ","ALLEY":" ","HOUSE_NO":"８號之１７","E_COORD97":172694.47,"N_COORD97":2565318.0299999998,"ADDRESS":"油車８號之１７","OBJECTID":78749},"geometry":{"x":172694.46999999974,"y":2565318.0299999993}},{"attributes":{"ID":78750,"DIS_CODE":0,"TOWNNAME":"麻豆區","LI":"油車里","LIN":"6鄰","STREET":" ","SECT":" ","MAREA":"油車","LANE":" ","ALLEY":" ","HOUSE_NO":"８號之１８","E_COORD97":172693.54999999999,"N_COORD97":2565322.9399999999,"ADDRESS":"油車８號之１８","OBJECTID":78750},"geometry":{"x":172693.55000000075,"y":2565322.9400000013}},{"attributes":{"ID":78751,"DIS_CODE":0,"TOWNNAME":"麻豆區","LI":"油車里","LIN":"6鄰","STREET":" ","SECT":" ","MAREA":"油車","LANE":" ","ALLEY":" ","HOUSE_NO":"８號之１９","E_COORD97":172693.06,"N_COORD97":2565327.8599999999,"ADDRESS":"油車８號之１９","OBJECTID":78751},"geometry":{"x":172693.06000000052,"y":2565327.8600000013}},{"attributes":{"ID":78752,"DIS_CODE":0,"TOWNNAME":"麻豆區","LI":"油車里","LIN":"6鄰","STREET":" ","SECT":" ","MAREA":"油車","LANE":" ","ALLEY":" ","HOUSE_NO":"８號之１","E_COORD97":172721.82999999999,"N_COORD97":2565307.8900000001,"ADDRESS":"油車８號之１","OBJECTID":78752},"geometry":{"x":172721.83000000007,"y":2565307.8900000025}},{"attributes":{"ID":78753,"DIS_CODE":0,"TOWNNAME":"南區","LI":"再興里","LIN":"7鄰","STREET":"新慶街","SECT":" ","MAREA":" ","LANE":" ","ALLEY":" ","HOUSE_NO":"５號","E_COORD97":167302.06,"N_COORD97":2542322.6899999999,"ADDRESS":"新慶街５號","OBJECTID":78753},"geometry":{"x":167302.05999999866,"y":2542322.6899999995}},{"attributes":{"ID":78754,"DIS_CODE":0,"TOWNNAME":"麻豆區","LI":"油車里","LIN":"6鄰","STREET":" ","SECT":" ","MAREA":"油車","LANE":" ","ALLEY":" ","HOUSE_NO":"８號之２０","E_COORD97":172751.73999999999,"N_COORD97":2565292.3999999999,"ADDRESS":"油車８號之２０","OBJECTID":78754},"geometry":{"x":172751.74000000209,"y":2565292.4000000004}},{"attributes":{"ID":78755,"DIS_CODE":0,"TOWNNAME":"麻豆區","LI":"油車里","LIN":"6鄰","STREET":" ","SECT":" ","MAREA":"油車","LANE":" ","ALLEY":" ","HOUSE_NO":"８號之２１","E_COORD97":172756.48000000001,"N_COORD97":2565291.1000000001,"ADDRESS":"油車８號之２１","OBJECTID":78755},"geometry":{"x":172756.48000000045,"y":2565291.1000000034}},{"attributes":{"ID":78756,"DIS_CODE":0,"TOWNNAME":"南區","LI":"再興里","LIN":"7鄰","STREET":"新慶街","SECT":" ","MAREA":" ","LANE":" ","ALLEY":" ","HOUSE_NO":"７號","E_COORD97":167297.51000000001,"N_COORD97":2542323.0099999998,"ADDRESS":"新慶街７號","OBJECTID":78756},"geometry":{"x":167297.50999999885,"y":2542323.0100000016}},{"attributes":{"ID":78757,"DIS_CODE":0,"TOWNNAME":"南區","LI":"再興里","LIN":"7鄰","STREET":"新慶街","SECT":" ","MAREA":" ","LANE":" ","ALLEY":" ","HOUSE_NO":"９號","E_COORD97":167292.95999999999,"N_COORD97":2542322.9100000001,"ADDRESS":"新慶街９號","OBJECTID":78757},"geometry":{"x":167292.95999999903,"y":2542322.9100000039}},{"attributes":{"ID":78758,"DIS_CODE":0,"TOWNNAME":"南區","LI":"再興里","LIN":"7鄰","STREET":"新慶街","SECT":" ","MAREA":" ","LANE":" ","ALLEY":" ","HOUSE_NO":"２１號","E_COORD97":167267.35999999999,"N_COORD97":2542322.27,"ADDRESS":"新慶街２１號","OBJECTID":78758},"geometry":{"x":167267.36000000127,"y":2542322.2699999996}},{"attributes":{"ID":78759,"DIS_CODE":0,"TOWNNAME":"麻豆區","LI":"油車里","LIN":"6鄰","STREET":" ","SECT":" ","MAREA":"油車","LANE":" ","ALLEY":" ","HOUSE_NO":"８號之２２","E_COORD97":172761.35000000001,"N_COORD97":2565290.1200000001,"ADDRESS":"油車８號之２２","OBJECTID":78759},"geometry":{"x":172761.34999999963,"y":2565290.1200000029}},{"attributes":{"ID":78760,"DIS_CODE":0,"TOWNNAME":"麻豆區","LI":"油車里","LIN":"6鄰","STREET":" ","SECT":" ","MAREA":"油車","LANE":" ","ALLEY":" ","HOUSE_NO":"８號之２３","E_COORD97":172765.79000000001,"N_COORD97":2565289.2400000002,"ADDRESS":"油車８號之２３","OBJECTID":78760},"geometry":{"x":172765.79000000004,"y":2565289.2400000002}},{"attributes":{"ID":78761,"DIS_CODE":0,"TOWNNAME":"佳里區","LI":"六安里","LIN":"19鄰","STREET":"延平路","SECT":" ","MAREA":" ","LANE":"５７７巷","ALLEY":"１弄","HOUSE_NO":"３７號","E_COORD97":165800.01000000001,"N_COORD97":2563493.8999999999,"ADDRESS":"延平路５７７巷１弄３７號","OBJECTID":78761},"geometry":{"x":165800.00999999978,"y":2563493.9000000022}},{"attributes":{"ID":78762,"DIS_CODE":0,"TOWNNAME":"佳里區","LI":"六安里","LIN":"19鄰","STREET":"延平路","SECT":" ","MAREA":" ","LANE":"５７７巷","ALLEY":"１弄","HOUSE_NO":"３８號","E_COORD97":165802.04999999999,"N_COORD97":2563512.3199999998,"ADDRESS":"延平路５７７巷１弄３８號","OBJECTID":78762},"geometry":{"x":165802.04999999981,"y":2563512.3200000003}},{"attributes":{"ID":78763,"DIS_CODE":0,"TOWNNAME":"佳里區","LI":"六安里","LIN":"19鄰","STREET":"延平路","SECT":" ","MAREA":" ","LANE":"５７７巷","ALLEY":"１弄","HOUSE_NO":"３９號","E_COORD97":165791.97,"N_COORD97":2563494.8399999999,"ADDRESS":"延平路５７７巷１弄３９號","OBJECTID":78763},"geometry":{"x":165791.96999999974,"y":2563494.8399999999}},{"attributes":{"ID":78764,"DIS_CODE":0,"TOWNNAME":"佳里區","LI":"六安里","LIN":"19鄰","STREET":"延平路","SECT":" ","MAREA":" ","LANE":"５７７巷","ALLEY":"１弄","HOUSE_NO":"３號","E_COORD97":165907.32999999999,"N_COORD97":2563477.6099999999,"ADDRESS":"延平路５７７巷１弄３號","OBJECTID":78764},"geometry":{"x":165907.33000000194,"y":2563477.6100000013}},{"attributes":{"ID":78765,"DIS_CODE":0,"TOWNNAME":"東區","LI":"富裕里","LIN":"19鄰","STREET":"東門路","SECT":"二段","MAREA":" ","LANE":"３０１巷","ALLEY":"５３弄","HOUSE_NO":"３１號","E_COORD97":170845.14000000001,"N_COORD97":2542794.1000000001,"ADDRESS":"東門路二段３０１巷５３弄３１號","OBJECTID":78765},"geometry":{"x":170845.1400000006,"y":2542794.1000000015}},{"attributes":{"ID":78766,"DIS_CODE":0,"TOWNNAME":"東區","LI":"富裕里","LIN":"19鄰","STREET":"東門路","SECT":"二段","MAREA":" ","LANE":"３０１巷","ALLEY":"５３弄","HOUSE_NO":"３２號","E_COORD97":170869.10000000001,"N_COORD97":2542817.79,"ADDRESS":"東門路二段３０１巷５３弄３２號","OBJECTID":78766},"geometry":{"x":170869.10000000056,"y":2542817.7900000028}},{"attributes":{"ID":78767,"DIS_CODE":0,"TOWNNAME":"東區","LI":"富裕里","LIN":"19鄰","STREET":"東門路","SECT":"二段","MAREA":" ","LANE":"３０１巷","ALLEY":"５３弄","HOUSE_NO":"３３號","E_COORD97":170835.72,"N_COORD97":2542786.7999999998,"ADDRESS":"東門路二段３０１巷５３弄３３號","OBJECTID":78767},"geometry":{"x":170835.7200000016,"y":2542786.8000000026}},{"attributes":{"ID":78768,"DIS_CODE":0,"TOWNNAME":"東區","LI":"富裕里","LIN":"19鄰","STREET":"東門路","SECT":"二段","MAREA":" ","LANE":"３０１巷","ALLEY":"５３弄","HOUSE_NO":"３４號","E_COORD97":170869.5,"N_COORD97":2542823.4199999999,"ADDRESS":"東門路二段３０１巷５３弄３４號","OBJECTID":78768},"geometry":{"x":170869.5,"y":2542823.4199999999}},{"attributes":{"ID":78769,"DIS_CODE":0,"TOWNNAME":"麻豆區","LI":"油車里","LIN":"6鄰","STREET":" ","SECT":" ","MAREA":"油車","LANE":" ","ALLEY":" ","HOUSE_NO":"８號之２４","E_COORD97":172770.48999999999,"N_COORD97":2565288.5,"ADDRESS":"油車８號之２４","OBJECTID":78769},"geometry":{"x":172770.49000000115,"y":2565288.4999999981}},{"attributes":{"ID":78770,"DIS_CODE":0,"TOWNNAME":"新營區","LI":"新東里","LIN":"19鄰","STREET":"東學路","SECT":" ","MAREA":" ","LANE":"８０巷","ALLEY":"８弄","HOUSE_NO":"３號","E_COORD97":180878.5,"N_COORD97":2579266.2799999998,"ADDRESS":"東學路８０巷８弄３號","OBJECTID":78770},"geometry":{"x":180878.50000000093,"y":2579266.2800000012}},{"attributes":{"ID":78771,"DIS_CODE":0,"TOWNNAME":"東區","LI":"富裕里","LIN":"19鄰","STREET":"東門路","SECT":"二段","MAREA":" ","LANE":"３０１巷","ALLEY":"５３弄","HOUSE_NO":"３５號","E_COORD97":170830.79999999999,"N_COORD97":2542786.5299999998,"ADDRESS":"東門路二段３０１巷５３弄３５號","OBJECTID":78771},"geometry":{"x":170830.80000000075,"y":2542786.5300000012}},{"attributes":{"ID":78772,"DIS_CODE":0,"TOWNNAME":"東區","LI":"富裕里","LIN":"19鄰","STREET":"東門路","SECT":"二段","MAREA":" ","LANE":"３０１巷","ALLEY":"５３弄","HOUSE_NO":"３６號","E_COORD97":170868.42999999999,"N_COORD97":2542828.25,"ADDRESS":"東門路二段３０１巷５３弄３６號","OBJECTID":78772},"geometry":{"x":170868.43000000063,"y":2542828.25}},{"attributes":{"ID":78773,"DIS_CODE":0,"TOWNNAME":"麻豆區","LI":"油車里","LIN":"6鄰","STREET":" ","SECT":" ","MAREA":"油車","LANE":" ","ALLEY":" ","HOUSE_NO":"８號之４０","E_COORD97":172711.97,"N_COORD97":2565360.6499999999,"ADDRESS":"油車８號之４０","OBJECTID":78773},"geometry":{"x":172711.96999999974,"y":2565360.6500000022}},{"attributes":{"ID":78774,"DIS_CODE":0,"TOWNNAME":"東區","LI":"富裕里","LIN":"19鄰","STREET":"東門路","SECT":"二段","MAREA":" ","LANE":"３０１巷","ALLEY":"５３弄","HOUSE_NO":"３７號","E_COORD97":170825.64999999999,"N_COORD97":2542786.3599999999,"ADDRESS":"東門路二段３０１巷５３弄３７號","OBJECTID":78774},"geometry":{"x":170825.6500000013,"y":2542786.3599999994}},{"attributes":{"ID":78775,"DIS_CODE":0,"TOWNNAME":"東區","LI":"富裕里","LIN":"19鄰","STREET":"東門路","SECT":"二段","MAREA":" ","LANE":"３０１巷","ALLEY":"５３弄","HOUSE_NO":"３９號","E_COORD97":170822.82999999999,"N_COORD97":2542807.8500000001,"ADDRESS":"東門路二段３０１巷５３弄３９號","OBJECTID":78775},"geometry":{"x":170822.83000000007,"y":2542807.8500000034}},{"attributes":{"ID":78776,"DIS_CODE":0,"TOWNNAME":"麻豆區","LI":"油車里","LIN":"6鄰","STREET":" ","SECT":" ","MAREA":"油車","LANE":" ","ALLEY":" ","HOUSE_NO":"８號之２５","E_COORD97":172750.98000000001,"N_COORD97":2565307.7200000002,"ADDRESS":"油車８號之２５","OBJECTID":78776},"geometry":{"x":172750.98000000138,"y":2565307.7200000007}},{"attributes":{"ID":78777,"DIS_CODE":0,"TOWNNAME":"麻豆區","LI":"油車里","LIN":"6鄰","STREET":" ","SECT":" ","MAREA":"油車","LANE":" ","ALLEY":" ","HOUSE_NO":"８號之２６","E_COORD97":172750.25,"N_COORD97":2565314.1899999999,"ADDRESS":"油車８號之２６","OBJECTID":78777},"geometry":{"x":172750.25000000093,"y":2565314.1900000032}},{"attributes":{"ID":78778,"DIS_CODE":0,"TOWNNAME":"麻豆區","LI":"油車里","LIN":"6鄰","STREET":" ","SECT":" ","MAREA":"油車","LANE":" ","ALLEY":" ","HOUSE_NO":"８號之２７","E_COORD97":172749.29999999999,"N_COORD97":2565321.1200000001,"ADDRESS":"油車８號之２７","OBJECTID":78778},"geometry":{"x":172749.30000000075,"y":2565321.1200000029}},{"attributes":{"ID":78779,"DIS_CODE":0,"TOWNNAME":"東區","LI":"富裕里","LIN":"19鄰","STREET":"東門路","SECT":"二段","MAREA":" ","LANE":"３０１巷","ALLEY":"５３弄","HOUSE_NO":"４１號","E_COORD97":170826.92999999999,"N_COORD97":2542807.8500000001,"ADDRESS":"東門路二段３０１巷５３弄４１號","OBJECTID":78779},"geometry":{"x":170826.9299999997,"y":2542807.8500000034}},{"attributes":{"ID":78780,"DIS_CODE":0,"TOWNNAME":"南區","LI":"同安里","LIN":"7鄰","STREET":"興南街","SECT":" ","MAREA":" ","LANE":"２巷","ALLEY":" ","HOUSE_NO":"１０號","E_COORD97":166320.94,"N_COORD97":2536199.5600000001,"ADDRESS":"興南街２巷１０號","OBJECTID":78780},"geometry":{"x":166320.94000000134,"y":2536199.5600000042}},{"attributes":{"ID":78781,"DIS_CODE":0,"TOWNNAME":"南區","LI":"再興里","LIN":"7鄰","STREET":"新慶街","SECT":" ","MAREA":" ","LANE":" ","ALLEY":" ","HOUSE_NO":"４１號","E_COORD97":167221.98999999999,"N_COORD97":2542324.2000000002,"ADDRESS":"新慶街４１號","OBJECTID":78781},"geometry":{"x":167221.99000000209,"y":2542324.2000000011}},{"attributes":{"ID":78782,"DIS_CODE":0,"TOWNNAME":"南區","LI":"再興里","LIN":"7鄰","STREET":"新慶街","SECT":" ","MAREA":" ","LANE":" ","ALLEY":" ","HOUSE_NO":"４３號","E_COORD97":167217.59,"N_COORD97":2542324.79,"ADDRESS":"新慶街４３號","OBJECTID":78782},"geometry":{"x":167217.59000000171,"y":2542324.7899999991}},{"attributes":{"ID":78783,"DIS_CODE":0,"TOWNNAME":"南區","LI":"再興里","LIN":"7鄰","STREET":"新慶街","SECT":" ","MAREA":" ","LANE":" ","ALLEY":" ","HOUSE_NO":"４５號","E_COORD97":167213.62,"N_COORD97":2542325.23,"ADDRESS":"新慶街４５號","OBJECTID":78783},"geometry":{"x":167213.62000000011,"y":2542325.2300000023}},{"attributes":{"ID":78784,"DIS_CODE":0,"TOWNNAME":"南區","LI":"再興里","LIN":"7鄰","STREET":"新慶街","SECT":" ","MAREA":" ","LANE":" ","ALLEY":" ","HOUSE_NO":"４７號","E_COORD97":167209.79999999999,"N_COORD97":2542325.3700000001,"ADDRESS":"新慶街４７號","OBJECTID":78784},"geometry":{"x":167209.80000000075,"y":2542325.3700000029}},{"attributes":{"ID":78785,"DIS_CODE":0,"TOWNNAME":"南區","LI":"再興里","LIN":"7鄰","STREET":"新慶街","SECT":" ","MAREA":" ","LANE":" ","ALLEY":" ","HOUSE_NO":"４９號","E_COORD97":167205.10000000001,"N_COORD97":2542325.8100000001,"ADDRESS":"新慶街４９號","OBJECTID":78785},"geometry":{"x":167205.09999999963,"y":2542325.8100000024}},{"attributes":{"ID":78786,"DIS_CODE":0,"TOWNNAME":"安南區","LI":"\u25A0田里","LIN":"7鄰","STREET":"科技一路","SECT":" ","MAREA":" ","LANE":" ","ALLEY":" ","HOUSE_NO":"１號","E_COORD97":163254.20999999999,"N_COORD97":2549346.3199999998,"ADDRESS":"科技一路１號","OBJECTID":78786},"geometry":{"x":163254.21000000089,"y":2549346.3200000022}},{"attributes":{"ID":78787,"DIS_CODE":0,"TOWNNAME":"南區","LI":"新興里","LIN":"15鄰","STREET":"三官路","SECT":" ","MAREA":" ","LANE":" ","ALLEY":" ","HOUSE_NO":"５號之１","E_COORD97":167356.38,"N_COORD97":2542418.7999999998,"ADDRESS":"三官路５號之１","OBJECTID":78787},"geometry":{"x":167356.38000000082,"y":2542418.8000000007}},{"attributes":{"ID":78788,"DIS_CODE":0,"TOWNNAME":"南區","LI":"新興里","LIN":"15鄰","STREET":"健康路","SECT":"二段","MAREA":" ","LANE":" ","ALLEY":" ","HOUSE_NO":"１０３號","E_COORD97":167434.48999999999,"N_COORD97":2542440.6200000001,"ADDRESS":"健康路二段１０３號","OBJECTID":78788},"geometry":{"x":167434.49000000115,"y":2542440.620000001}},{"attributes":{"ID":78789,"DIS_CODE":0,"TOWNNAME":"南區","LI":"新興里","LIN":"15鄰","STREET":"健康路","SECT":"二段","MAREA":" ","LANE":" ","ALLEY":" ","HOUSE_NO":"１０５號","E_COORD97":167430.26000000001,"N_COORD97":2542440.9500000002,"ADDRESS":"健康路二段１０５號","OBJECTID":78789},"geometry":{"x":167430.26000000071,"y":2542440.9500000011}},{"attributes":{"ID":78790,"DIS_CODE":0,"TOWNNAME":"南區","LI":"新興里","LIN":"15鄰","STREET":"健康路","SECT":"二段","MAREA":" ","LANE":" ","ALLEY":" ","HOUSE_NO":"１０７號","E_COORD97":167425.38,"N_COORD97":2542440.8399999999,"ADDRESS":"健康路二段１０７號","OBJECTID":78790},"geometry":{"x":167425.37999999989,"y":2542440.8399999999}},{"attributes":{"ID":78791,"DIS_CODE":0,"TOWNNAME":"南區","LI":"新興里","LIN":"15鄰","STREET":"健康路","SECT":"二段","MAREA":" ","LANE":" ","ALLEY":" ","HOUSE_NO":"１０９號","E_COORD97":167420.82000000001,"N_COORD97":2542441.0600000001,"ADDRESS":"健康路二段１０９號","OBJECTID":78791},"geometry":{"x":167420.8200000003,"y":2542441.0600000042}},{"attributes":{"ID":78792,"DIS_CODE":0,"TOWNNAME":"南區","LI":"新興里","LIN":"15鄰","STREET":"健康路","SECT":"二段","MAREA":" ","LANE":" ","ALLEY":" ","HOUSE_NO":"１１１號","E_COORD97":167415.48000000001,"N_COORD97":2542442.1699999999,"ADDRESS":"健康路二段１１１號","OBJECTID":78792},"geometry":{"x":167415.48000000231,"y":2542442.1699999999}},{"attributes":{"ID":78793,"DIS_CODE":0,"TOWNNAME":"麻豆區","LI":"油車里","LIN":"6鄰","STREET":" ","SECT":" ","MAREA":"油車","LANE":" ","ALLEY":" ","HOUSE_NO":"８號之２８","E_COORD97":172748.09,"N_COORD97":2565328.2000000002,"ADDRESS":"油車８號之２８","OBJECTID":78793},"geometry":{"x":172748.08999999985,"y":2565328.2000000011}},{"attributes":{"ID":78794,"DIS_CODE":0,"TOWNNAME":"東區","LI":"富裕里","LIN":"19鄰","STREET":"東門路","SECT":"二段","MAREA":" ","LANE":"３０１巷","ALLEY":"５３弄","HOUSE_NO":"４３號","E_COORD97":170831.23999999999,"N_COORD97":2542808.1499999999,"ADDRESS":"東門路二段３０１巷５３弄４３號","OBJECTID":78794},"geometry":{"x":170831.24000000115,"y":2542808.1500000022}},{"attributes":{"ID":78795,"DIS_CODE":0,"TOWNNAME":"安南區","LI":"安慶里","LIN":"19鄰","STREET":"安中路","SECT":"一段","MAREA":" ","LANE":"１８９巷","ALLEY":"６３弄","HOUSE_NO":"７號","E_COORD97":168806.51999999999,"N_COORD97":2548327.4100000001,"ADDRESS":"安中路一段１８９巷６３弄７號","OBJECTID":78795},"geometry":{"x":168806.52000000048,"y":2548327.4100000039}},{"attributes":{"ID":78796,"DIS_CODE":0,"TOWNNAME":"安南區","LI":"安慶里","LIN":"19鄰","STREET":"安中路","SECT":"一段","MAREA":" ","LANE":"１８９巷","ALLEY":"６３弄","HOUSE_NO":"１７號","E_COORD97":168825.59,"N_COORD97":2548330.2400000002,"ADDRESS":"安中路一段１８９巷６３弄１７號","OBJECTID":78796},"geometry":{"x":168825.58999999985,"y":2548330.2400000021}},{"attributes":{"ID":78797,"DIS_CODE":0,"TOWNNAME":"南區","LI":"竹溪里","LIN":"7鄰","STREET":"健康路","SECT":"一段","MAREA":" ","LANE":" ","ALLEY":" ","HOUSE_NO":"１４７號","E_COORD97":168860.85999999999,"N_COORD97":2542409.4100000001,"ADDRESS":"健康路一段１４７號","OBJECTID":78797},"geometry":{"x":168860.86000000127,"y":2542409.410000002}},{"attributes":{"ID":78798,"DIS_CODE":0,"TOWNNAME":"麻豆區","LI":"油車里","LIN":"6鄰","STREET":" ","SECT":" ","MAREA":"油車","LANE":" ","ALLEY":" ","HOUSE_NO":"８號之２９","E_COORD97":172746.98000000001,"N_COORD97":2565335.1299999999,"ADDRESS":"油車８號之２９","OBJECTID":78798},"geometry":{"x":172746.98000000231,"y":2565335.1300000008}},{"attributes":{"ID":78799,"DIS_CODE":0,"TOWNNAME":"麻豆區","LI":"油車里","LIN":"6鄰","STREET":" ","SECT":" ","MAREA":"油車","LANE":" ","ALLEY":" ","HOUSE_NO":"８號之２","E_COORD97":172779.17000000001,"N_COORD97":2565285.96,"ADDRESS":"油車８號之２","OBJECTID":78799},"geometry":{"x":172779.17000000086,"y":2565285.9600000009}},{"attributes":{"ID":78800,"DIS_CODE":0,"TOWNNAME":"麻豆區","LI":"油車里","LIN":"6鄰","STREET":" ","SECT":" ","MAREA":"油車","LANE":" ","ALLEY":" ","HOUSE_NO":"８號之３０","E_COORD97":172746.09,"N_COORD97":2565342.5899999999,"ADDRESS":"油車８號之３０","OBJECTID":78800},"geometry":{"x":172746.09000000078,"y":2565342.5900000017}}]}