{"displayFieldName":"TOWNNAME","fieldAliases":{"ID":"ID","DIS_CODE":"DIS_CODE","TOWNNAME":"TOWNNAME","LI":"LI","LIN":"LIN","STREET":"STREET","SECT":"SECT","MAREA":"MAREA","LANE":"LANE","ALLEY":"ALLEY","HOUSE_NO":"HOUSE_NO","E_COORD97":"E_COORD97","N_COORD97":"N_COORD97","ADDRESS":"ADDRESS","OBJECTID":"OBJECTID"},"geometryType":"esriGeometryPoint","spatialReference":{"wkid":102443,"latestWkid":3826},"fields":[{"name":"ID","type":"esriFieldTypeDouble","alias":"ID"},{"name":"DIS_CODE","type":"esriFieldTypeInteger","alias":"DIS_CODE"},{"name":"TOWNNAME","type":"esriFieldTypeString","alias":"TOWNNAME","length":8},{"name":"LI","type":"esriFieldTypeString","alias":"LI","length":8},{"name":"LIN","type":"esriFieldTypeString","alias":"LIN","length":12},{"name":"STREET","type":"esriFieldTypeString","alias":"STREET","length":20},{"name":"SECT","type":"esriFieldTypeString","alias":"SECT","length":8},{"name":"MAREA","type":"esriFieldTypeString","alias":"MAREA","length":12},{"name":"LANE","type":"esriFieldTypeString","alias":"LANE","length":10},{"name":"ALLEY","type":"esriFieldTypeString","alias":"ALLEY","length":10},{"name":"HOUSE_NO","type":"esriFieldTypeString","alias":"HOUSE_NO","length":20},{"name":"E_COORD97","type":"esriFieldTypeDouble","alias":"E_COORD97"},{"name":"N_COORD97","type":"esriFieldTypeDouble","alias":"N_COORD97"},{"name":"ADDRESS","type":"esriFieldTypeString","alias":"ADDRESS","length":50},{"name":"OBJECTID","type":"esriFieldTypeOID","alias":"OBJECTID"}],"features":[{"attributes":{"ID":426426,"DIS_CODE":0,"TOWNNAME":"南區","LI":"明亮里","LIN":"4鄰","STREET":"新都路","SECT":" ","MAREA":" ","LANE":"５２０巷","ALLEY":" ","HOUSE_NO":"２９號六樓","E_COORD97":167083.01000000001,"N_COORD97":2540954.9199999999,"ADDRESS":"新都路５２０巷２９號六樓","OBJECTID":426401},"geometry":{"x":167083.01000000071,"y":2540954.9199999999}},{"attributes":{"ID":426427,"DIS_CODE":0,"TOWNNAME":"永康區","LI":"二王里","LIN":"43鄰","STREET":"中山南路","SECT":" ","MAREA":" ","LANE":"３１６巷","ALLEY":" ","HOUSE_NO":"７８號","E_COORD97":172158.66,"N_COORD97":2546129.8199999998,"ADDRESS":"中山南路３１６巷７８號","OBJECTID":426402},"geometry":{"x":172158.65999999922,"y":2546129.8200000003}},{"attributes":{"ID":426428,"DIS_CODE":0,"TOWNNAME":"南區","LI":"明亮里","LIN":"4鄰","STREET":"新都路","SECT":" ","MAREA":" ","LANE":"５２０巷","ALLEY":" ","HOUSE_NO":"２９號七樓","E_COORD97":167083.01000000001,"N_COORD97":2540954.9199999999,"ADDRESS":"新都路５２０巷２９號七樓","OBJECTID":426403},"geometry":{"x":167083.01000000071,"y":2540954.9199999999}},{"attributes":{"ID":426429,"DIS_CODE":0,"TOWNNAME":"南區","LI":"明亮里","LIN":"4鄰","STREET":"新都路","SECT":" ","MAREA":" ","LANE":"５２０巷","ALLEY":" ","HOUSE_NO":"３１號二樓","E_COORD97":167080.97,"N_COORD97":2540942.1499999999,"ADDRESS":"新都路５２０巷３１號二樓","OBJECTID":426404},"geometry":{"x":167080.9700000016,"y":2540942.1500000022}},{"attributes":{"ID":426430,"DIS_CODE":0,"TOWNNAME":"南區","LI":"明亮里","LIN":"4鄰","STREET":"新都路","SECT":" ","MAREA":" ","LANE":"５２０巷","ALLEY":" ","HOUSE_NO":"３１號三樓","E_COORD97":167080.97,"N_COORD97":2540942.1499999999,"ADDRESS":"新都路５２０巷３１號三樓","OBJECTID":426405},"geometry":{"x":167080.9700000016,"y":2540942.1500000022}},{"attributes":{"ID":426431,"DIS_CODE":0,"TOWNNAME":"南區","LI":"明亮里","LIN":"4鄰","STREET":"新都路","SECT":" ","MAREA":" ","LANE":"５２０巷","ALLEY":" ","HOUSE_NO":"３１號四樓","E_COORD97":167080.97,"N_COORD97":2540942.1499999999,"ADDRESS":"新都路５２０巷３１號四樓","OBJECTID":426406},"geometry":{"x":167080.9700000016,"y":2540942.1500000022}},{"attributes":{"ID":426432,"DIS_CODE":0,"TOWNNAME":"南區","LI":"明亮里","LIN":"4鄰","STREET":"新都路","SECT":" ","MAREA":" ","LANE":"５２０巷","ALLEY":" ","HOUSE_NO":"３５號二樓","E_COORD97":167062.94,"N_COORD97":2540958.1200000001,"ADDRESS":"新都路５２０巷３５號二樓","OBJECTID":426407},"geometry":{"x":167062.94000000041,"y":2540958.120000001}},{"attributes":{"ID":426433,"DIS_CODE":0,"TOWNNAME":"南區","LI":"明亮里","LIN":"4鄰","STREET":"新都路","SECT":" ","MAREA":" ","LANE":"５２０巷","ALLEY":" ","HOUSE_NO":"３５號三樓","E_COORD97":167062.94,"N_COORD97":2540958.1200000001,"ADDRESS":"新都路５２０巷３５號三樓","OBJECTID":426408},"geometry":{"x":167062.94000000041,"y":2540958.120000001}},{"attributes":{"ID":426434,"DIS_CODE":0,"TOWNNAME":"南區","LI":"明亮里","LIN":"4鄰","STREET":"新都路","SECT":" ","MAREA":" ","LANE":"５２０巷","ALLEY":" ","HOUSE_NO":"３５號四樓","E_COORD97":167062.94,"N_COORD97":2540958.1200000001,"ADDRESS":"新都路５２０巷３５號四樓","OBJECTID":426409},"geometry":{"x":167062.94000000041,"y":2540958.120000001}},{"attributes":{"ID":426435,"DIS_CODE":0,"TOWNNAME":"南區","LI":"明亮里","LIN":"4鄰","STREET":"新都路","SECT":" ","MAREA":" ","LANE":"５２０巷","ALLEY":" ","HOUSE_NO":"３５號五樓","E_COORD97":167062.94,"N_COORD97":2540958.1200000001,"ADDRESS":"新都路５２０巷３５號五樓","OBJECTID":426410},"geometry":{"x":167062.94000000041,"y":2540958.120000001}},{"attributes":{"ID":426436,"DIS_CODE":0,"TOWNNAME":"南區","LI":"明亮里","LIN":"4鄰","STREET":"新都路","SECT":" ","MAREA":" ","LANE":"５２０巷","ALLEY":" ","HOUSE_NO":"３５號六樓","E_COORD97":167062.94,"N_COORD97":2540958.1200000001,"ADDRESS":"新都路５２０巷３５號六樓","OBJECTID":426411},"geometry":{"x":167062.94000000041,"y":2540958.120000001}},{"attributes":{"ID":426437,"DIS_CODE":0,"TOWNNAME":"南區","LI":"明亮里","LIN":"4鄰","STREET":"新都路","SECT":" ","MAREA":" ","LANE":"５２０巷","ALLEY":" ","HOUSE_NO":"３５號七樓","E_COORD97":167062.94,"N_COORD97":2540958.1200000001,"ADDRESS":"新都路５２０巷３５號七樓","OBJECTID":426412},"geometry":{"x":167062.94000000041,"y":2540958.120000001}},{"attributes":{"ID":426438,"DIS_CODE":0,"TOWNNAME":"南區","LI":"明亮里","LIN":"4鄰","STREET":"新都路","SECT":" ","MAREA":" ","LANE":"５２０巷","ALLEY":" ","HOUSE_NO":"３７號二樓","E_COORD97":167060.91,"N_COORD97":2540967.7000000002,"ADDRESS":"新都路５２０巷３７號二樓","OBJECTID":426413},"geometry":{"x":167060.91000000015,"y":2540967.7000000011}},{"attributes":{"ID":426439,"DIS_CODE":0,"TOWNNAME":"南區","LI":"明亮里","LIN":"4鄰","STREET":"新都路","SECT":" ","MAREA":" ","LANE":"５２０巷","ALLEY":" ","HOUSE_NO":"３７號三樓","E_COORD97":167060.91,"N_COORD97":2540967.7000000002,"ADDRESS":"新都路５２０巷３７號三樓","OBJECTID":426414},"geometry":{"x":167060.91000000015,"y":2540967.7000000011}},{"attributes":{"ID":426440,"DIS_CODE":0,"TOWNNAME":"南區","LI":"明亮里","LIN":"4鄰","STREET":"新都路","SECT":" ","MAREA":" ","LANE":"５２０巷","ALLEY":" ","HOUSE_NO":"３７號四樓","E_COORD97":167060.91,"N_COORD97":2540967.7000000002,"ADDRESS":"新都路５２０巷３７號四樓","OBJECTID":426415},"geometry":{"x":167060.91000000015,"y":2540967.7000000011}},{"attributes":{"ID":426441,"DIS_CODE":0,"TOWNNAME":"南區","LI":"明亮里","LIN":"4鄰","STREET":"新都路","SECT":" ","MAREA":" ","LANE":"５２０巷","ALLEY":" ","HOUSE_NO":"３７號五樓","E_COORD97":167060.91,"N_COORD97":2540967.7000000002,"ADDRESS":"新都路５２０巷３７號五樓","OBJECTID":426416},"geometry":{"x":167060.91000000015,"y":2540967.7000000011}},{"attributes":{"ID":426442,"DIS_CODE":0,"TOWNNAME":"南區","LI":"明亮里","LIN":"4鄰","STREET":"新都路","SECT":" ","MAREA":" ","LANE":"５２０巷","ALLEY":" ","HOUSE_NO":"３７號六樓","E_COORD97":167060.91,"N_COORD97":2540967.7000000002,"ADDRESS":"新都路５２０巷３７號六樓","OBJECTID":426417},"geometry":{"x":167060.91000000015,"y":2540967.7000000011}},{"attributes":{"ID":426443,"DIS_CODE":0,"TOWNNAME":"南區","LI":"明亮里","LIN":"4鄰","STREET":"新都路","SECT":" ","MAREA":" ","LANE":"５２０巷","ALLEY":" ","HOUSE_NO":"３７號七樓","E_COORD97":167060.91,"N_COORD97":2540967.7000000002,"ADDRESS":"新都路５２０巷３７號七樓","OBJECTID":426418},"geometry":{"x":167060.91000000015,"y":2540967.7000000011}},{"attributes":{"ID":426444,"DIS_CODE":0,"TOWNNAME":"南區","LI":"明亮里","LIN":"4鄰","STREET":"新都路","SECT":" ","MAREA":" ","LANE":"５２０巷","ALLEY":" ","HOUSE_NO":"３９號三樓","E_COORD97":167069.92000000001,"N_COORD97":2540964.7999999998,"ADDRESS":"新都路５２０巷３９號三樓","OBJECTID":426419},"geometry":{"x":167069.92000000086,"y":2540964.8000000045}},{"attributes":{"ID":426445,"DIS_CODE":0,"TOWNNAME":"南區","LI":"明亮里","LIN":"4鄰","STREET":"新都路","SECT":" ","MAREA":" ","LANE":"５２０巷","ALLEY":" ","HOUSE_NO":"３９號四樓","E_COORD97":167069.92000000001,"N_COORD97":2540964.7999999998,"ADDRESS":"新都路５２０巷３９號四樓","OBJECTID":426420},"geometry":{"x":167069.92000000086,"y":2540964.8000000045}},{"attributes":{"ID":426446,"DIS_CODE":0,"TOWNNAME":"南區","LI":"明亮里","LIN":"4鄰","STREET":"新都路","SECT":" ","MAREA":" ","LANE":"５２０巷","ALLEY":" ","HOUSE_NO":"３９號五樓","E_COORD97":167069.92000000001,"N_COORD97":2540964.7999999998,"ADDRESS":"新都路５２０巷３９號五樓","OBJECTID":426421},"geometry":{"x":167069.92000000086,"y":2540964.8000000045}},{"attributes":{"ID":426447,"DIS_CODE":0,"TOWNNAME":"南區","LI":"明亮里","LIN":"4鄰","STREET":"新都路","SECT":" ","MAREA":" ","LANE":"５２０巷","ALLEY":" ","HOUSE_NO":"３９號六樓","E_COORD97":167069.92000000001,"N_COORD97":2540964.7999999998,"ADDRESS":"新都路５２０巷３９號六樓","OBJECTID":426422},"geometry":{"x":167069.92000000086,"y":2540964.8000000045}},{"attributes":{"ID":426448,"DIS_CODE":0,"TOWNNAME":"南區","LI":"明亮里","LIN":"4鄰","STREET":"新都路","SECT":" ","MAREA":" ","LANE":"５２０巷","ALLEY":" ","HOUSE_NO":"３９號七樓","E_COORD97":167069.92000000001,"N_COORD97":2540964.7999999998,"ADDRESS":"新都路５２０巷３９號七樓","OBJECTID":426423},"geometry":{"x":167069.92000000086,"y":2540964.8000000045}},{"attributes":{"ID":426449,"DIS_CODE":0,"TOWNNAME":"南區","LI":"開南里","LIN":"4鄰","STREET":"中華西路","SECT":"一段","MAREA":" ","LANE":"３６巷","ALLEY":" ","HOUSE_NO":"５號四樓","E_COORD97":166351.39000000001,"N_COORD97":2540963.0299999998,"ADDRESS":"中華西路一段３６巷５號四樓","OBJECTID":426424},"geometry":{"x":166351.3900000006,"y":2540963.0300000012}},{"attributes":{"ID":426450,"DIS_CODE":0,"TOWNNAME":"南區","LI":"開南里","LIN":"4鄰","STREET":"中華西路","SECT":"一段","MAREA":" ","LANE":"３６巷","ALLEY":" ","HOUSE_NO":"７號二樓","E_COORD97":166355.79999999999,"N_COORD97":2540962.8799999999,"ADDRESS":"中華西路一段３６巷７號二樓","OBJECTID":426425},"geometry":{"x":166355.79999999981,"y":2540962.8800000008}},{"attributes":{"ID":426451,"DIS_CODE":0,"TOWNNAME":"南區","LI":"開南里","LIN":"4鄰","STREET":"中華西路","SECT":"一段","MAREA":" ","LANE":"３６巷","ALLEY":" ","HOUSE_NO":"７號三樓","E_COORD97":166355.79999999999,"N_COORD97":2540962.8799999999,"ADDRESS":"中華西路一段３６巷７號三樓","OBJECTID":426426},"geometry":{"x":166355.79999999981,"y":2540962.8800000008}},{"attributes":{"ID":426452,"DIS_CODE":0,"TOWNNAME":"南區","LI":"開南里","LIN":"4鄰","STREET":"中華西路","SECT":"一段","MAREA":" ","LANE":"３６巷","ALLEY":" ","HOUSE_NO":"７號五樓","E_COORD97":166355.79999999999,"N_COORD97":2540962.8799999999,"ADDRESS":"中華西路一段３６巷７號五樓","OBJECTID":426427},"geometry":{"x":166355.79999999981,"y":2540962.8800000008}},{"attributes":{"ID":426453,"DIS_CODE":0,"TOWNNAME":"南區","LI":"開南里","LIN":"4鄰","STREET":"中華西路","SECT":"一段","MAREA":" ","LANE":"３６巷","ALLEY":" ","HOUSE_NO":"７號四樓","E_COORD97":166355.79999999999,"N_COORD97":2540962.8799999999,"ADDRESS":"中華西路一段３６巷７號四樓","OBJECTID":426428},"geometry":{"x":166355.79999999981,"y":2540962.8800000008}},{"attributes":{"ID":426454,"DIS_CODE":0,"TOWNNAME":"南區","LI":"彰南里","LIN":"4鄰","STREET":"中華西路","SECT":"一段","MAREA":" ","LANE":"５２巷","ALLEY":" ","HOUSE_NO":"４號二樓","E_COORD97":166340.06,"N_COORD97":2541188.7200000002,"ADDRESS":"中華西路一段５２巷４號二樓","OBJECTID":426429},"geometry":{"x":166340.06000000052,"y":2541188.7200000007}},{"attributes":{"ID":426455,"DIS_CODE":0,"TOWNNAME":"南區","LI":"彰南里","LIN":"4鄰","STREET":"中華西路","SECT":"一段","MAREA":" ","LANE":"５２巷","ALLEY":" ","HOUSE_NO":"４號三樓","E_COORD97":166340.06,"N_COORD97":2541188.7200000002,"ADDRESS":"中華西路一段５２巷４號三樓","OBJECTID":426430},"geometry":{"x":166340.06000000052,"y":2541188.7200000007}},{"attributes":{"ID":426456,"DIS_CODE":0,"TOWNNAME":"南區","LI":"彰南里","LIN":"4鄰","STREET":"中華西路","SECT":"一段","MAREA":" ","LANE":"５２巷","ALLEY":" ","HOUSE_NO":"４號五樓","E_COORD97":166340.06,"N_COORD97":2541188.7200000002,"ADDRESS":"中華西路一段５２巷４號五樓","OBJECTID":426431},"geometry":{"x":166340.06000000052,"y":2541188.7200000007}},{"attributes":{"ID":426457,"DIS_CODE":0,"TOWNNAME":"南區","LI":"彰南里","LIN":"4鄰","STREET":"中華西路","SECT":"一段","MAREA":" ","LANE":"５２巷","ALLEY":" ","HOUSE_NO":"４號四樓","E_COORD97":166340.06,"N_COORD97":2541188.7200000002,"ADDRESS":"中華西路一段５２巷４號四樓","OBJECTID":426432},"geometry":{"x":166340.06000000052,"y":2541188.7200000007}},{"attributes":{"ID":426458,"DIS_CODE":0,"TOWNNAME":"南區","LI":"彰南里","LIN":"4鄰","STREET":"中華西路","SECT":"一段","MAREA":" ","LANE":"５２巷","ALLEY":" ","HOUSE_NO":"５號二樓","E_COORD97":166367,"N_COORD97":2541214.1299999999,"ADDRESS":"中華西路一段５２巷５號二樓","OBJECTID":426433},"geometry":{"x":166367,"y":2541214.129999999}},{"attributes":{"ID":426459,"DIS_CODE":0,"TOWNNAME":"南區","LI":"彰南里","LIN":"4鄰","STREET":"中華西路","SECT":"一段","MAREA":" ","LANE":"５２巷","ALLEY":" ","HOUSE_NO":"５號三樓","E_COORD97":166367,"N_COORD97":2541214.1299999999,"ADDRESS":"中華西路一段５２巷５號三樓","OBJECTID":426434},"geometry":{"x":166367,"y":2541214.129999999}},{"attributes":{"ID":426460,"DIS_CODE":0,"TOWNNAME":"中西區","LI":"公正里","LIN":"4鄰","STREET":"北門路","SECT":"一段","MAREA":" ","LANE":"１２３巷","ALLEY":" ","HOUSE_NO":"４８號六樓之１","E_COORD97":169090.31,"N_COORD97":2543941.73,"ADDRESS":"北門路一段１２３巷４８號六樓之１","OBJECTID":426435},"geometry":{"x":169090.30999999959,"y":2543941.7300000042}},{"attributes":{"ID":426461,"DIS_CODE":0,"TOWNNAME":"中西區","LI":"公正里","LIN":"4鄰","STREET":"北門路","SECT":"一段","MAREA":" ","LANE":"１２３巷","ALLEY":" ","HOUSE_NO":"４８號六樓之２","E_COORD97":169081.57999999999,"N_COORD97":2543941.1600000001,"ADDRESS":"北門路一段１２３巷４８號六樓之２","OBJECTID":426436},"geometry":{"x":169081.58000000101,"y":2543941.1600000001}},{"attributes":{"ID":426462,"DIS_CODE":0,"TOWNNAME":"中西區","LI":"公正里","LIN":"4鄰","STREET":"北門路","SECT":"一段","MAREA":" ","LANE":"１２３巷","ALLEY":" ","HOUSE_NO":"４８號四樓之１","E_COORD97":169090.31,"N_COORD97":2543941.73,"ADDRESS":"北門路一段１２３巷４８號四樓之１","OBJECTID":426437},"geometry":{"x":169090.30999999959,"y":2543941.7300000042}},{"attributes":{"ID":426463,"DIS_CODE":0,"TOWNNAME":"中西區","LI":"公正里","LIN":"4鄰","STREET":"北門路","SECT":"一段","MAREA":" ","LANE":"１２３巷","ALLEY":" ","HOUSE_NO":"４８號四樓之２","E_COORD97":169081.57999999999,"N_COORD97":2543941.1600000001,"ADDRESS":"北門路一段１２３巷４８號四樓之２","OBJECTID":426438},"geometry":{"x":169081.58000000101,"y":2543941.1600000001}},{"attributes":{"ID":426464,"DIS_CODE":0,"TOWNNAME":"中西區","LI":"公正里","LIN":"4鄰","STREET":"北門路","SECT":"一段","MAREA":" ","LANE":"１２３巷","ALLEY":" ","HOUSE_NO":"５０號一樓之１","E_COORD97":169089.17000000001,"N_COORD97":2543953.6600000001,"ADDRESS":"北門路一段１２３巷５０號一樓之１","OBJECTID":426439},"geometry":{"x":169089.17000000086,"y":2543953.660000002}},{"attributes":{"ID":426465,"DIS_CODE":0,"TOWNNAME":"中西區","LI":"公正里","LIN":"4鄰","STREET":"北門路","SECT":"一段","MAREA":" ","LANE":"１２３巷","ALLEY":" ","HOUSE_NO":"５０號一樓之２","E_COORD97":169081.76999999999,"N_COORD97":2543953.2799999998,"ADDRESS":"北門路一段１２３巷５０號一樓之２","OBJECTID":426440},"geometry":{"x":169081.76999999955,"y":2543953.2799999993}},{"attributes":{"ID":426466,"DIS_CODE":0,"TOWNNAME":"中西區","LI":"公正里","LIN":"4鄰","STREET":"北門路","SECT":"一段","MAREA":" ","LANE":"１２３巷","ALLEY":" ","HOUSE_NO":"５０號二樓之１","E_COORD97":169089.17000000001,"N_COORD97":2543953.6600000001,"ADDRESS":"北門路一段１２３巷５０號二樓之１","OBJECTID":426441},"geometry":{"x":169089.17000000086,"y":2543953.660000002}},{"attributes":{"ID":426467,"DIS_CODE":0,"TOWNNAME":"永康區","LI":"大橋里","LIN":"26鄰","STREET":"大橋一街","SECT":" ","MAREA":" ","LANE":"２４７巷","ALLEY":" ","HOUSE_NO":"７２號","E_COORD97":171204.70000000001,"N_COORD97":2546824.25,"ADDRESS":"大橋一街２４７巷７２號","OBJECTID":426442},"geometry":{"x":171204.70000000112,"y":2546824.2500000019}},{"attributes":{"ID":426468,"DIS_CODE":0,"TOWNNAME":"永康區","LI":"五王里","LIN":"39鄰","STREET":"中華路","SECT":" ","MAREA":" ","LANE":"５７８巷","ALLEY":" ","HOUSE_NO":"１７號之１１６","E_COORD97":171334.92000000001,"N_COORD97":2545989.54,"ADDRESS":"中華路５７８巷１７號之１１６","OBJECTID":426443},"geometry":{"x":171334.92000000086,"y":2545989.5400000028}},{"attributes":{"ID":426469,"DIS_CODE":0,"TOWNNAME":"永康區","LI":"大橋里","LIN":"13鄰","STREET":"大橋二街","SECT":" ","MAREA":" ","LANE":"２３９巷","ALLEY":" ","HOUSE_NO":"３０號","E_COORD97":171074.10000000001,"N_COORD97":2546886.7400000002,"ADDRESS":"大橋二街２３９巷３０號","OBJECTID":426444},"geometry":{"x":171074.10000000056,"y":2546886.7400000002}},{"attributes":{"ID":426470,"DIS_CODE":0,"TOWNNAME":"永康區","LI":"二王里","LIN":"13鄰","STREET":"永二街","SECT":" ","MAREA":" ","LANE":"４４９巷","ALLEY":" ","HOUSE_NO":"７號","E_COORD97":172675.20999999999,"N_COORD97":2546652.1899999999,"ADDRESS":"永二街４４９巷７號","OBJECTID":426445},"geometry":{"x":172675.21000000183,"y":2546652.1899999995}},{"attributes":{"ID":426471,"DIS_CODE":0,"TOWNNAME":"中西區","LI":"公正里","LIN":"4鄰","STREET":"北門路","SECT":"一段","MAREA":" ","LANE":"１２３巷","ALLEY":" ","HOUSE_NO":"５０號二樓之２","E_COORD97":169081.76999999999,"N_COORD97":2543953.2799999998,"ADDRESS":"北門路一段１２３巷５０號二樓之２","OBJECTID":426446},"geometry":{"x":169081.76999999955,"y":2543953.2799999993}},{"attributes":{"ID":426472,"DIS_CODE":0,"TOWNNAME":"中西區","LI":"公正里","LIN":"4鄰","STREET":"北門路","SECT":"一段","MAREA":" ","LANE":"１２３巷","ALLEY":" ","HOUSE_NO":"５０號三樓之１","E_COORD97":169089.17000000001,"N_COORD97":2543953.6600000001,"ADDRESS":"北門路一段１２３巷５０號三樓之１","OBJECTID":426447},"geometry":{"x":169089.17000000086,"y":2543953.660000002}},{"attributes":{"ID":426473,"DIS_CODE":0,"TOWNNAME":"中西區","LI":"公正里","LIN":"4鄰","STREET":"北門路","SECT":"一段","MAREA":" ","LANE":"１２３巷","ALLEY":" ","HOUSE_NO":"５０號三樓之２","E_COORD97":169081.76999999999,"N_COORD97":2543953.2799999998,"ADDRESS":"北門路一段１２３巷５０號三樓之２","OBJECTID":426448},"geometry":{"x":169081.76999999955,"y":2543953.2799999993}},{"attributes":{"ID":426474,"DIS_CODE":0,"TOWNNAME":"中西區","LI":"公正里","LIN":"4鄰","STREET":"北門路","SECT":"一段","MAREA":" ","LANE":"１２３巷","ALLEY":" ","HOUSE_NO":"５０號五樓之１","E_COORD97":169089.17000000001,"N_COORD97":2543953.6600000001,"ADDRESS":"北門路一段１２３巷５０號五樓之１","OBJECTID":426449},"geometry":{"x":169089.17000000086,"y":2543953.660000002}},{"attributes":{"ID":426475,"DIS_CODE":0,"TOWNNAME":"中西區","LI":"公正里","LIN":"4鄰","STREET":"北門路","SECT":"一段","MAREA":" ","LANE":"１２３巷","ALLEY":" ","HOUSE_NO":"５０號五樓之２","E_COORD97":169081.76999999999,"N_COORD97":2543953.2799999998,"ADDRESS":"北門路一段１２３巷５０號五樓之２","OBJECTID":426450},"geometry":{"x":169081.76999999955,"y":2543953.2799999993}},{"attributes":{"ID":426476,"DIS_CODE":0,"TOWNNAME":"中西區","LI":"公正里","LIN":"4鄰","STREET":"北門路","SECT":"一段","MAREA":" ","LANE":"１２３巷","ALLEY":" ","HOUSE_NO":"５０號六樓之１","E_COORD97":169089.17000000001,"N_COORD97":2543953.6600000001,"ADDRESS":"北門路一段１２３巷５０號六樓之１","OBJECTID":426451},"geometry":{"x":169089.17000000086,"y":2543953.660000002}},{"attributes":{"ID":426477,"DIS_CODE":0,"TOWNNAME":"中西區","LI":"公正里","LIN":"4鄰","STREET":"北門路","SECT":"一段","MAREA":" ","LANE":"１２３巷","ALLEY":" ","HOUSE_NO":"５０號六樓之２","E_COORD97":169081.76999999999,"N_COORD97":2543953.2799999998,"ADDRESS":"北門路一段１２３巷５０號六樓之２","OBJECTID":426452},"geometry":{"x":169081.76999999955,"y":2543953.2799999993}},{"attributes":{"ID":426478,"DIS_CODE":0,"TOWNNAME":"中西區","LI":"公正里","LIN":"4鄰","STREET":"北門路","SECT":"一段","MAREA":" ","LANE":"１２３巷","ALLEY":" ","HOUSE_NO":"５０號四樓之１","E_COORD97":169089.17000000001,"N_COORD97":2543953.6600000001,"ADDRESS":"北門路一段１２３巷５０號四樓之１","OBJECTID":426453},"geometry":{"x":169089.17000000086,"y":2543953.660000002}},{"attributes":{"ID":426479,"DIS_CODE":0,"TOWNNAME":"中西區","LI":"公正里","LIN":"4鄰","STREET":"北門路","SECT":"一段","MAREA":" ","LANE":"１２３巷","ALLEY":" ","HOUSE_NO":"５０號四樓之２","E_COORD97":169081.76999999999,"N_COORD97":2543953.2799999998,"ADDRESS":"北門路一段１２３巷５０號四樓之２","OBJECTID":426454},"geometry":{"x":169081.76999999955,"y":2543953.2799999993}},{"attributes":{"ID":426480,"DIS_CODE":0,"TOWNNAME":"中西區","LI":"公正里","LIN":"4鄰","STREET":"北門路","SECT":"一段","MAREA":" ","LANE":"１２３巷","ALLEY":" ","HOUSE_NO":"６０號二樓之１","E_COORD97":169046.95000000001,"N_COORD97":2543936.27,"ADDRESS":"北門路一段１２３巷６０號二樓之１","OBJECTID":426455},"geometry":{"x":169046.95000000112,"y":2543936.2699999996}},{"attributes":{"ID":426481,"DIS_CODE":0,"TOWNNAME":"中西區","LI":"公正里","LIN":"4鄰","STREET":"北門路","SECT":"一段","MAREA":" ","LANE":"１２３巷","ALLEY":" ","HOUSE_NO":"６０號二樓之２","E_COORD97":169046.95000000001,"N_COORD97":2543936.27,"ADDRESS":"北門路一段１２３巷６０號二樓之２","OBJECTID":426456},"geometry":{"x":169046.95000000112,"y":2543936.2699999996}},{"attributes":{"ID":426482,"DIS_CODE":0,"TOWNNAME":"中西區","LI":"公正里","LIN":"4鄰","STREET":"北門路","SECT":"一段","MAREA":" ","LANE":"１２３巷","ALLEY":" ","HOUSE_NO":"６０號三樓之１","E_COORD97":169046.95000000001,"N_COORD97":2543936.27,"ADDRESS":"北門路一段１２３巷６０號三樓之１","OBJECTID":426457},"geometry":{"x":169046.95000000112,"y":2543936.2699999996}},{"attributes":{"ID":426483,"DIS_CODE":0,"TOWNNAME":"善化區","LI":"東關里","LIN":"4鄰","STREET":"裕德路","SECT":" ","MAREA":" ","LANE":"５８巷","ALLEY":" ","HOUSE_NO":"２６號","E_COORD97":177477.01000000001,"N_COORD97":2559194.4199999999,"ADDRESS":"裕德路５８巷２６號","OBJECTID":426458},"geometry":{"x":177477.00999999978,"y":2559194.4200000018}},{"attributes":{"ID":426484,"DIS_CODE":0,"TOWNNAME":"中西區","LI":"公正里","LIN":"4鄰","STREET":"北門路","SECT":"一段","MAREA":" ","LANE":"１２３巷","ALLEY":" ","HOUSE_NO":"６０號三樓之２","E_COORD97":169046.95000000001,"N_COORD97":2543936.27,"ADDRESS":"北門路一段１２３巷６０號三樓之２","OBJECTID":426459},"geometry":{"x":169046.95000000112,"y":2543936.2699999996}},{"attributes":{"ID":426485,"DIS_CODE":0,"TOWNNAME":"中西區","LI":"公正里","LIN":"4鄰","STREET":"北門路","SECT":"一段","MAREA":" ","LANE":"１２３巷","ALLEY":" ","HOUSE_NO":"６０號五樓之１","E_COORD97":169046.95000000001,"N_COORD97":2543936.27,"ADDRESS":"北門路一段１２３巷６０號五樓之１","OBJECTID":426460},"geometry":{"x":169046.95000000112,"y":2543936.2699999996}},{"attributes":{"ID":426486,"DIS_CODE":0,"TOWNNAME":"中西區","LI":"公正里","LIN":"4鄰","STREET":"北門路","SECT":"一段","MAREA":" ","LANE":"１２３巷","ALLEY":" ","HOUSE_NO":"６０號五樓之２","E_COORD97":169046.95000000001,"N_COORD97":2543936.27,"ADDRESS":"北門路一段１２３巷６０號五樓之２","OBJECTID":426461},"geometry":{"x":169046.95000000112,"y":2543936.2699999996}},{"attributes":{"ID":426487,"DIS_CODE":0,"TOWNNAME":"中西區","LI":"公正里","LIN":"4鄰","STREET":"北門路","SECT":"一段","MAREA":" ","LANE":"１２３巷","ALLEY":" ","HOUSE_NO":"６０號四樓之１","E_COORD97":169046.95000000001,"N_COORD97":2543936.27,"ADDRESS":"北門路一段１２３巷６０號四樓之１","OBJECTID":426462},"geometry":{"x":169046.95000000112,"y":2543936.2699999996}},{"attributes":{"ID":426488,"DIS_CODE":0,"TOWNNAME":"中西區","LI":"公正里","LIN":"4鄰","STREET":"北門路","SECT":"一段","MAREA":" ","LANE":"１２３巷","ALLEY":" ","HOUSE_NO":"６０號四樓之２","E_COORD97":169046.95000000001,"N_COORD97":2543936.27,"ADDRESS":"北門路一段１２３巷６０號四樓之２","OBJECTID":426463},"geometry":{"x":169046.95000000112,"y":2543936.2699999996}},{"attributes":{"ID":426489,"DIS_CODE":0,"TOWNNAME":"永康區","LI":"復興里","LIN":"4鄰","STREET":"復興路","SECT":" ","MAREA":" ","LANE":"４２３巷","ALLEY":" ","HOUSE_NO":"７７號","E_COORD97":172221.45999999999,"N_COORD97":2544239.8300000001,"ADDRESS":"復興路４２３巷７７號","OBJECTID":426464},"geometry":{"x":172221.46000000089,"y":2544239.8300000019}},{"attributes":{"ID":426490,"DIS_CODE":0,"TOWNNAME":"永康區","LI":"復興里","LIN":"4鄰","STREET":"復興路","SECT":" ","MAREA":" ","LANE":"４２３巷","ALLEY":" ","HOUSE_NO":"６９號","E_COORD97":172238.20999999999,"N_COORD97":2544268.7799999998,"ADDRESS":"復興路４２３巷６９號","OBJECTID":426465},"geometry":{"x":172238.21000000089,"y":2544268.7799999993}},{"attributes":{"ID":426491,"DIS_CODE":0,"TOWNNAME":"永康區","LI":"復興里","LIN":"4鄰","STREET":"復興路","SECT":" ","MAREA":" ","LANE":"４２３巷","ALLEY":" ","HOUSE_NO":"４１號","E_COORD97":172171.57000000001,"N_COORD97":2544274.5299999998,"ADDRESS":"復興路４２３巷４１號","OBJECTID":426466},"geometry":{"x":172171.57000000123,"y":2544274.5300000012}},{"attributes":{"ID":426492,"DIS_CODE":0,"TOWNNAME":"永康區","LI":"新樹里","LIN":"4鄰","STREET":"富強路","SECT":"二段","MAREA":" ","LANE":"３９８巷","ALLEY":" ","HOUSE_NO":"１８９號","E_COORD97":175983.10999999999,"N_COORD97":2547734.27,"ADDRESS":"富強路二段３９８巷１８９號","OBJECTID":426467},"geometry":{"x":175983.11000000034,"y":2547734.2699999977}},{"attributes":{"ID":426493,"DIS_CODE":0,"TOWNNAME":"永康區","LI":"新樹里","LIN":"4鄰","STREET":"富強路","SECT":"二段","MAREA":" ","LANE":"３９８巷","ALLEY":" ","HOUSE_NO":"１９７號","E_COORD97":176175.42999999999,"N_COORD97":2547681.77,"ADDRESS":"富強路二段３９８巷１９７號","OBJECTID":426468},"geometry":{"x":176175.4299999997,"y":2547681.7700000014}},{"attributes":{"ID":426494,"DIS_CODE":0,"TOWNNAME":"永康區","LI":"復興里","LIN":"4鄰","STREET":"復興路","SECT":" ","MAREA":" ","LANE":"４２３巷","ALLEY":" ","HOUSE_NO":"８３號","E_COORD97":172219.78,"N_COORD97":2544222.0699999998,"ADDRESS":"復興路４２３巷８３號","OBJECTID":426469},"geometry":{"x":172219.78000000119,"y":2544222.0700000022}},{"attributes":{"ID":426495,"DIS_CODE":0,"TOWNNAME":"永康區","LI":"復興里","LIN":"4鄰","STREET":"復興路","SECT":" ","MAREA":" ","LANE":"４２３巷","ALLEY":" ","HOUSE_NO":"９６號","E_COORD97":172223.81,"N_COORD97":2543978.52,"ADDRESS":"復興路４２３巷９６號","OBJECTID":426470},"geometry":{"x":172223.81000000052,"y":2543978.5199999996}},{"attributes":{"ID":426496,"DIS_CODE":0,"TOWNNAME":"永康區","LI":"崑山里","LIN":"4鄰","STREET":"永大路","SECT":"一段","MAREA":" ","LANE":"２８７巷","ALLEY":" ","HOUSE_NO":"１１１號","E_COORD97":173741.64999999999,"N_COORD97":2544311.8500000001,"ADDRESS":"永大路一段２８７巷１１１號","OBJECTID":426471},"geometry":{"x":173741.65000000037,"y":2544311.8499999996}},{"attributes":{"ID":426497,"DIS_CODE":0,"TOWNNAME":"永康區","LI":"埔園里","LIN":"34鄰","STREET":"八德街","SECT":" ","MAREA":" ","LANE":"２６巷","ALLEY":" ","HOUSE_NO":"７號","E_COORD97":174299.69,"N_COORD97":2548572.2599999998,"ADDRESS":"八德街２６巷７號","OBJECTID":426472},"geometry":{"x":174299.69000000041,"y":2548572.2600000035}},{"attributes":{"ID":426498,"DIS_CODE":0,"TOWNNAME":"永康區","LI":"三合里","LIN":"4鄰","STREET":"中華二路","SECT":" ","MAREA":" ","LANE":"８８巷","ALLEY":" ","HOUSE_NO":"１３號","E_COORD97":172073.84,"N_COORD97":2545494.5600000001,"ADDRESS":"中華二路８８巷１３號","OBJECTID":426473},"geometry":{"x":172073.83999999985,"y":2545494.5600000005}},{"attributes":{"ID":426499,"DIS_CODE":0,"TOWNNAME":"永康區","LI":"三合里","LIN":"4鄰","STREET":"中華二路","SECT":" ","MAREA":" ","LANE":"８８巷","ALLEY":" ","HOUSE_NO":"１９號","E_COORD97":172073.28,"N_COORD97":2545513.3100000001,"ADDRESS":"中華二路８８巷１９號","OBJECTID":426474},"geometry":{"x":172073.28000000212,"y":2545513.3100000005}},{"attributes":{"ID":426500,"DIS_CODE":0,"TOWNNAME":"永康區","LI":"大灣里","LIN":"4鄰","STREET":"大同街","SECT":" ","MAREA":" ","LANE":"２１８巷","ALLEY":" ","HOUSE_NO":"１６號","E_COORD97":174873.23000000001,"N_COORD97":2545653.7799999998,"ADDRESS":"大同街２１８巷１６號","OBJECTID":426475},"geometry":{"x":174873.23000000138,"y":2545653.7800000012}},{"attributes":{"ID":426501,"DIS_CODE":0,"TOWNNAME":"永康區","LI":"三合里","LIN":"4鄰","STREET":"中華二路","SECT":" ","MAREA":" ","LANE":"８８巷","ALLEY":" ","HOUSE_NO":"９號","E_COORD97":172073.23000000001,"N_COORD97":2545482.5600000001,"ADDRESS":"中華二路８８巷９號","OBJECTID":426476},"geometry":{"x":172073.23000000045,"y":2545482.5600000024}},{"attributes":{"ID":426502,"DIS_CODE":0,"TOWNNAME":"永康區","LI":"三民里","LIN":"4鄰","STREET":"三民街","SECT":" ","MAREA":" ","LANE":"１１２巷","ALLEY":" ","HOUSE_NO":"１８號","E_COORD97":172918.28,"N_COORD97":2550352.8300000001,"ADDRESS":"三民街１１２巷１８號","OBJECTID":426477},"geometry":{"x":172918.28000000119,"y":2550352.8300000019}},{"attributes":{"ID":426503,"DIS_CODE":0,"TOWNNAME":"永康區","LI":"三合里","LIN":"4鄰","STREET":"中華二路","SECT":" ","MAREA":" ","LANE":"８８巷","ALLEY":" ","HOUSE_NO":"３號","E_COORD97":172073.84,"N_COORD97":2545464.5499999998,"ADDRESS":"中華二路８８巷３號","OBJECTID":426478},"geometry":{"x":172073.83999999985,"y":2545464.5500000007}},{"attributes":{"ID":426504,"DIS_CODE":0,"TOWNNAME":"永康區","LI":"三合里","LIN":"4鄰","STREET":"中華二路","SECT":" ","MAREA":" ","LANE":"８８巷","ALLEY":" ","HOUSE_NO":"４１號","E_COORD97":172070.20000000001,"N_COORD97":2545585.5600000001,"ADDRESS":"中華二路８８巷４１號","OBJECTID":426479},"geometry":{"x":172070.20000000019,"y":2545585.5600000024}},{"attributes":{"ID":426505,"DIS_CODE":0,"TOWNNAME":"永康區","LI":"三合里","LIN":"4鄰","STREET":"中華二路","SECT":" ","MAREA":" ","LANE":"８８巷","ALLEY":" ","HOUSE_NO":"１５號","E_COORD97":172073.51000000001,"N_COORD97":2545500.3100000001,"ADDRESS":"中華二路８８巷１５號","OBJECTID":426480},"geometry":{"x":172073.51000000071,"y":2545500.3100000005}},{"attributes":{"ID":426506,"DIS_CODE":0,"TOWNNAME":"永康區","LI":"三合里","LIN":"4鄰","STREET":"中華二路","SECT":" ","MAREA":" ","LANE":"８８巷","ALLEY":" ","HOUSE_NO":"１７號","E_COORD97":172073.62,"N_COORD97":2545505.0600000001,"ADDRESS":"中華二路８８巷１７號","OBJECTID":426481},"geometry":{"x":172073.62000000011,"y":2545505.0600000005}},{"attributes":{"ID":426507,"DIS_CODE":0,"TOWNNAME":"永康區","LI":"大灣里","LIN":"4鄰","STREET":"大民街","SECT":" ","MAREA":" ","LANE":"１５７巷","ALLEY":" ","HOUSE_NO":"３號","E_COORD97":174892.31,"N_COORD97":2545700.0299999998,"ADDRESS":"大民街１５７巷３號","OBJECTID":426482},"geometry":{"x":174892.31000000052,"y":2545700.0299999993}},{"attributes":{"ID":426508,"DIS_CODE":0,"TOWNNAME":"善化區","LI":"東關里","LIN":"4鄰","STREET":"裕德路","SECT":" ","MAREA":" ","LANE":"５８巷","ALLEY":" ","HOUSE_NO":"１７號","E_COORD97":177474.51999999999,"N_COORD97":2559212.71,"ADDRESS":"裕德路５８巷１７號","OBJECTID":426483},"geometry":{"x":177474.51999999955,"y":2559212.7100000046}},{"attributes":{"ID":426509,"DIS_CODE":0,"TOWNNAME":"善化區","LI":"東關里","LIN":"4鄰","STREET":"裕德路","SECT":" ","MAREA":" ","LANE":"５８巷","ALLEY":" ","HOUSE_NO":"１８號","E_COORD97":177456.04000000001,"N_COORD97":2559199.2599999998,"ADDRESS":"裕德路５８巷１８號","OBJECTID":426484},"geometry":{"x":177456.04000000097,"y":2559199.2600000016}},{"attributes":{"ID":426510,"DIS_CODE":0,"TOWNNAME":"善化區","LI":"東關里","LIN":"4鄰","STREET":"裕德路","SECT":" ","MAREA":" ","LANE":"５８巷","ALLEY":" ","HOUSE_NO":"１９號","E_COORD97":177481.67000000001,"N_COORD97":2559211.3300000001,"ADDRESS":"裕德路５８巷１９號","OBJECTID":426485},"geometry":{"x":177481.67000000086,"y":2559211.3300000019}},{"attributes":{"ID":426511,"DIS_CODE":0,"TOWNNAME":"善化區","LI":"東關里","LIN":"4鄰","STREET":"裕德路","SECT":" ","MAREA":" ","LANE":"５８巷","ALLEY":" ","HOUSE_NO":"２０號","E_COORD97":177462.88,"N_COORD97":2559197.9300000002,"ADDRESS":"裕德路５８巷２０號","OBJECTID":426486},"geometry":{"x":177462.87999999896,"y":2559197.9300000016}},{"attributes":{"ID":426512,"DIS_CODE":0,"TOWNNAME":"善化區","LI":"東關里","LIN":"4鄰","STREET":"裕德路","SECT":" ","MAREA":" ","LANE":"５８巷","ALLEY":" ","HOUSE_NO":"２１號","E_COORD97":177488.87,"N_COORD97":2559209.9300000002,"ADDRESS":"裕德路５８巷２１號","OBJECTID":426487},"geometry":{"x":177488.87000000104,"y":2559209.9300000034}},{"attributes":{"ID":426513,"DIS_CODE":0,"TOWNNAME":"善化區","LI":"東關里","LIN":"4鄰","STREET":"裕德路","SECT":" ","MAREA":" ","LANE":"５８巷","ALLEY":" ","HOUSE_NO":"２２號","E_COORD97":177469.72,"N_COORD97":2559196.6099999999,"ADDRESS":"裕德路５８巷２２號","OBJECTID":426488},"geometry":{"x":177469.72000000067,"y":2559196.6099999994}},{"attributes":{"ID":426514,"DIS_CODE":0,"TOWNNAME":"善化區","LI":"東關里","LIN":"4鄰","STREET":"裕德路","SECT":" ","MAREA":" ","LANE":"５８巷","ALLEY":" ","HOUSE_NO":"２３號","E_COORD97":177494.79999999999,"N_COORD97":2559208.79,"ADDRESS":"裕德路５８巷２３號","OBJECTID":426489},"geometry":{"x":177494.79999999981,"y":2559208.7899999991}},{"attributes":{"ID":426515,"DIS_CODE":0,"TOWNNAME":"善化區","LI":"東關里","LIN":"4鄰","STREET":"裕德路","SECT":" ","MAREA":" ","LANE":"５８巷","ALLEY":" ","HOUSE_NO":"２５號","E_COORD97":177501.87,"N_COORD97":2559207.4199999999,"ADDRESS":"裕德路５８巷２５號","OBJECTID":426490},"geometry":{"x":177501.87000000011,"y":2559207.4200000018}},{"attributes":{"ID":426516,"DIS_CODE":0,"TOWNNAME":"善化區","LI":"東關里","LIN":"4鄰","STREET":"裕德路","SECT":" ","MAREA":" ","LANE":"５８巷","ALLEY":" ","HOUSE_NO":"２７號","E_COORD97":177509.26999999999,"N_COORD97":2559207.8100000001,"ADDRESS":"裕德路５８巷２７號","OBJECTID":426491},"geometry":{"x":177509.27000000048,"y":2559207.8100000005}},{"attributes":{"ID":426517,"DIS_CODE":0,"TOWNNAME":"永康區","LI":"大橋里","LIN":"13鄰","STREET":"大橋二街","SECT":" ","MAREA":" ","LANE":"２３９巷","ALLEY":" ","HOUSE_NO":"１４號","E_COORD97":171106.89000000001,"N_COORD97":2546841.4500000002,"ADDRESS":"大橋二街２３９巷１４號","OBJECTID":426492},"geometry":{"x":171106.88999999966,"y":2546841.450000003}},{"attributes":{"ID":426518,"DIS_CODE":0,"TOWNNAME":"善化區","LI":"東關里","LIN":"4鄰","STREET":"裕德路","SECT":" ","MAREA":" ","LANE":"５８巷","ALLEY":" ","HOUSE_NO":"２８號","E_COORD97":177484.76000000001,"N_COORD97":2559193.7000000002,"ADDRESS":"裕德路５８巷２８號","OBJECTID":426493},"geometry":{"x":177484.76000000071,"y":2559193.6999999993}},{"attributes":{"ID":426519,"DIS_CODE":0,"TOWNNAME":"永康區","LI":"三民里","LIN":"4鄰","STREET":"三民街","SECT":" ","MAREA":" ","LANE":"１１２巷","ALLEY":" ","HOUSE_NO":"２２號","E_COORD97":172910.97,"N_COORD97":2550373.2999999998,"ADDRESS":"三民街１１２巷２２號","OBJECTID":426494},"geometry":{"x":172910.97000000067,"y":2550373.3000000045}},{"attributes":{"ID":426520,"DIS_CODE":0,"TOWNNAME":"善化區","LI":"東關里","LIN":"4鄰","STREET":"裕德路","SECT":" ","MAREA":" ","LANE":"５８巷","ALLEY":" ","HOUSE_NO":"２９號","E_COORD97":177516.34,"N_COORD97":2559206.4500000002,"ADDRESS":"裕德路５８巷２９號","OBJECTID":426495},"geometry":{"x":177516.34000000078,"y":2559206.4500000011}},{"attributes":{"ID":426521,"DIS_CODE":0,"TOWNNAME":"善化區","LI":"東關里","LIN":"4鄰","STREET":"裕德路","SECT":" ","MAREA":" ","LANE":"５８巷","ALLEY":" ","HOUSE_NO":"３０號","E_COORD97":177491.89999999999,"N_COORD97":2559192.3199999998,"ADDRESS":"裕德路５８巷３０號","OBJECTID":426496},"geometry":{"x":177491.90000000037,"y":2559192.3200000022}},{"attributes":{"ID":426522,"DIS_CODE":0,"TOWNNAME":"善化區","LI":"東關里","LIN":"4鄰","STREET":"裕德路","SECT":" ","MAREA":" ","LANE":"５８巷","ALLEY":" ","HOUSE_NO":"３１號","E_COORD97":177523.41,"N_COORD97":2559205.0800000001,"ADDRESS":"裕德路５８巷３１號","OBJECTID":426497},"geometry":{"x":177523.41000000015,"y":2559205.0800000001}},{"attributes":{"ID":426523,"DIS_CODE":0,"TOWNNAME":"善化區","LI":"東關里","LIN":"4鄰","STREET":"裕德路","SECT":" ","MAREA":" ","LANE":"５８巷","ALLEY":" ","HOUSE_NO":"３２號","E_COORD97":177498.97,"N_COORD97":2559190.9500000002,"ADDRESS":"裕德路５８巷３２號","OBJECTID":426498},"geometry":{"x":177498.96999999974,"y":2559190.9499999993}},{"attributes":{"ID":426524,"DIS_CODE":0,"TOWNNAME":"善化區","LI":"東關里","LIN":"4鄰","STREET":"裕德路","SECT":" ","MAREA":" ","LANE":"５８巷","ALLEY":" ","HOUSE_NO":"３３號","E_COORD97":177530.47,"N_COORD97":2559203.71,"ADDRESS":"裕德路５８巷３３號","OBJECTID":426499},"geometry":{"x":177530.47000000067,"y":2559203.7100000028}},{"attributes":{"ID":426525,"DIS_CODE":0,"TOWNNAME":"善化區","LI":"東關里","LIN":"4鄰","STREET":"裕德路","SECT":" ","MAREA":" ","LANE":"５８巷","ALLEY":" ","HOUSE_NO":"３５號","E_COORD97":177537.54000000001,"N_COORD97":2559202.3399999999,"ADDRESS":"裕德路５８巷３５號","OBJECTID":426500},"geometry":{"x":177537.54000000004,"y":2559202.3399999999}},{"attributes":{"ID":426526,"DIS_CODE":0,"TOWNNAME":"中西區","LI":"三合里","LIN":"4鄰","STREET":"忠孝街","SECT":" ","MAREA":" ","LANE":"９０巷","ALLEY":" ","HOUSE_NO":"１號","E_COORD97":167719.38,"N_COORD97":2544494.98,"ADDRESS":"忠孝街９０巷１號","OBJECTID":426501},"geometry":{"x":167719.38000000082,"y":2544494.9800000004}},{"attributes":{"ID":426527,"DIS_CODE":0,"TOWNNAME":"善化區","LI":"東關里","LIN":"4鄰","STREET":"裕德路","SECT":" ","MAREA":" ","LANE":"５８巷","ALLEY":" ","HOUSE_NO":"３６號","E_COORD97":177505.67000000001,"N_COORD97":2559190.7400000002,"ADDRESS":"裕德路５８巷３６號","OBJECTID":426502},"geometry":{"x":177505.67000000086,"y":2559190.7400000002}},{"attributes":{"ID":426528,"DIS_CODE":0,"TOWNNAME":"善化區","LI":"東關里","LIN":"4鄰","STREET":"裕德路","SECT":" ","MAREA":" ","LANE":"５８巷","ALLEY":" ","HOUSE_NO":"３７號","E_COORD97":177546.10000000001,"N_COORD97":2559200.6899999999,"ADDRESS":"裕德路５８巷３７號","OBJECTID":426503},"geometry":{"x":177546.10000000056,"y":2559200.6899999995}},{"attributes":{"ID":426529,"DIS_CODE":0,"TOWNNAME":"善化區","LI":"東關里","LIN":"4鄰","STREET":"裕德路","SECT":" ","MAREA":" ","LANE":"５８巷","ALLEY":" ","HOUSE_NO":"３８號","E_COORD97":177511.39000000001,"N_COORD97":2559184.9399999999,"ADDRESS":"裕德路５８巷３８號","OBJECTID":426504},"geometry":{"x":177511.38999999966,"y":2559184.9399999995}},{"attributes":{"ID":426530,"DIS_CODE":0,"TOWNNAME":"永康區","LI":"勝利里","LIN":"40鄰","STREET":"中華一路","SECT":" ","MAREA":" ","LANE":" ","ALLEY":" ","HOUSE_NO":"１９８號","E_COORD97":171470.54000000001,"N_COORD97":2544980.75,"ADDRESS":"中華一路１９８號","OBJECTID":426505},"geometry":{"x":171470.54000000004,"y":2544980.75}},{"attributes":{"ID":426531,"DIS_CODE":0,"TOWNNAME":"善化區","LI":"東關里","LIN":"4鄰","STREET":"裕德路","SECT":" ","MAREA":" ","LANE":"５８巷","ALLEY":" ","HOUSE_NO":"３９號","E_COORD97":177552.69,"N_COORD97":2559199.4199999999,"ADDRESS":"裕德路５８巷３９號","OBJECTID":426506},"geometry":{"x":177552.69000000041,"y":2559199.4199999999}},{"attributes":{"ID":426532,"DIS_CODE":0,"TOWNNAME":"善化區","LI":"東關里","LIN":"4鄰","STREET":"裕德路","SECT":" ","MAREA":" ","LANE":"５８巷","ALLEY":" ","HOUSE_NO":"４０號","E_COORD97":177519.19,"N_COORD97":2559184.8199999998,"ADDRESS":"裕德路５８巷４０號","OBJECTID":426507},"geometry":{"x":177519.19000000134,"y":2559184.8200000022}},{"attributes":{"ID":426533,"DIS_CODE":0,"TOWNNAME":"善化區","LI":"東關里","LIN":"4鄰","STREET":"裕德路","SECT":" ","MAREA":" ","LANE":"５８巷","ALLEY":" ","HOUSE_NO":"４２號","E_COORD97":177526.64000000001,"N_COORD97":2559184.4300000002,"ADDRESS":"裕德路５８巷４２號","OBJECTID":426508},"geometry":{"x":177526.63999999966,"y":2559184.4300000016}},{"attributes":{"ID":426534,"DIS_CODE":0,"TOWNNAME":"善化區","LI":"東關里","LIN":"4鄰","STREET":"裕德路","SECT":" ","MAREA":" ","LANE":"５８巷","ALLEY":" ","HOUSE_NO":"４６號","E_COORD97":177541.51000000001,"N_COORD97":2559185.02,"ADDRESS":"裕德路５８巷４６號","OBJECTID":426509},"geometry":{"x":177541.50999999885,"y":2559185.0199999996}},{"attributes":{"ID":426535,"DIS_CODE":0,"TOWNNAME":"善化區","LI":"東關里","LIN":"4鄰","STREET":"裕德路","SECT":" ","MAREA":" ","LANE":"６０巷","ALLEY":" ","HOUSE_NO":"１號","E_COORD97":177427.427432,"N_COORD97":2559249.24981,"ADDRESS":"裕德路６０巷１號","OBJECTID":426510},"geometry":{"x":177427.42743200064,"y":2559249.2498110048}},{"attributes":{"ID":426536,"DIS_CODE":0,"TOWNNAME":"善化區","LI":"東關里","LIN":"4鄰","STREET":"裕德路","SECT":" ","MAREA":" ","LANE":"６０巷","ALLEY":" ","HOUSE_NO":"２號","E_COORD97":177418.97,"N_COORD97":2559234.6800000002,"ADDRESS":"裕德路６０巷２號","OBJECTID":426511},"geometry":{"x":177418.96999999974,"y":2559234.6799999997}},{"attributes":{"ID":426537,"DIS_CODE":0,"TOWNNAME":"善化區","LI":"東關里","LIN":"4鄰","STREET":"裕德路","SECT":" ","MAREA":" ","LANE":"６０巷","ALLEY":" ","HOUSE_NO":"３號","E_COORD97":177434.35999999999,"N_COORD97":2559249.5600000001,"ADDRESS":"裕德路６０巷３號","OBJECTID":426512},"geometry":{"x":177434.36000000034,"y":2559249.5600000005}},{"attributes":{"ID":426538,"DIS_CODE":0,"TOWNNAME":"善化區","LI":"東關里","LIN":"4鄰","STREET":"裕德路","SECT":" ","MAREA":" ","LANE":"６０巷","ALLEY":" ","HOUSE_NO":"５號","E_COORD97":177442.20000000001,"N_COORD97":2559248.0499999998,"ADDRESS":"裕德路６０巷５號","OBJECTID":426513},"geometry":{"x":177442.20000000019,"y":2559248.0500000026}},{"attributes":{"ID":426539,"DIS_CODE":0,"TOWNNAME":"善化區","LI":"東關里","LIN":"4鄰","STREET":"裕德路","SECT":" ","MAREA":" ","LANE":"６０巷","ALLEY":" ","HOUSE_NO":"６號","E_COORD97":177429.28,"N_COORD97":2559232.3799999999,"ADDRESS":"裕德路６０巷６號","OBJECTID":426514},"geometry":{"x":177429.28000000026,"y":2559232.379999999}},{"attributes":{"ID":426540,"DIS_CODE":0,"TOWNNAME":"善化區","LI":"東關里","LIN":"4鄰","STREET":"裕德路","SECT":" ","MAREA":" ","LANE":"６０巷","ALLEY":" ","HOUSE_NO":"７號","E_COORD97":177449.26000000001,"N_COORD97":2559246.6800000002,"ADDRESS":"裕德路６０巷７號","OBJECTID":426515},"geometry":{"x":177449.25999999978,"y":2559246.6800000016}},{"attributes":{"ID":426541,"DIS_CODE":0,"TOWNNAME":"善化區","LI":"東關里","LIN":"4鄰","STREET":"裕德路","SECT":" ","MAREA":" ","LANE":"６０巷","ALLEY":" ","HOUSE_NO":"８號","E_COORD97":177437.29000000001,"N_COORD97":2559230.8300000001,"ADDRESS":"裕德路６０巷８號","OBJECTID":426516},"geometry":{"x":177437.29000000097,"y":2559230.8300000001}},{"attributes":{"ID":426542,"DIS_CODE":0,"TOWNNAME":"善化區","LI":"東關里","LIN":"4鄰","STREET":"裕德路","SECT":" ","MAREA":" ","LANE":"６０巷","ALLEY":" ","HOUSE_NO":"９號","E_COORD97":177456.32999999999,"N_COORD97":2559245.3100000001,"ADDRESS":"裕德路６０巷９號","OBJECTID":426517},"geometry":{"x":177456.33000000007,"y":2559245.3099999987}},{"attributes":{"ID":426543,"DIS_CODE":0,"TOWNNAME":"善化區","LI":"東關里","LIN":"4鄰","STREET":"裕德路","SECT":" ","MAREA":" ","LANE":"６０巷","ALLEY":" ","HOUSE_NO":"１０號","E_COORD97":177444.35999999999,"N_COORD97":2559229.46,"ADDRESS":"裕德路６０巷１０號","OBJECTID":426518},"geometry":{"x":177444.36000000034,"y":2559229.4600000028}},{"attributes":{"ID":426544,"DIS_CODE":0,"TOWNNAME":"善化區","LI":"東關里","LIN":"4鄰","STREET":"裕德路","SECT":" ","MAREA":" ","LANE":"６０巷","ALLEY":" ","HOUSE_NO":"１１號","E_COORD97":177463.07999999999,"N_COORD97":2559244.7400000002,"ADDRESS":"裕德路６０巷１１號","OBJECTID":426519},"geometry":{"x":177463.08000000007,"y":2559244.7400000002}},{"attributes":{"ID":426545,"DIS_CODE":0,"TOWNNAME":"善化區","LI":"東關里","LIN":"4鄰","STREET":"裕德路","SECT":" ","MAREA":" ","LANE":"６０巷","ALLEY":" ","HOUSE_NO":"１２號","E_COORD97":177451.42000000001,"N_COORD97":2559228.0899999999,"ADDRESS":"裕德路６０巷１２號","OBJECTID":426520},"geometry":{"x":177451.42000000086,"y":2559228.0899999999}},{"attributes":{"ID":426546,"DIS_CODE":0,"TOWNNAME":"善化區","LI":"東關里","LIN":"4鄰","STREET":"裕德路","SECT":" ","MAREA":" ","LANE":"６０巷","ALLEY":" ","HOUSE_NO":"１３號","E_COORD97":177470.47,"N_COORD97":2559242.5800000001,"ADDRESS":"裕德路６０巷１３號","OBJECTID":426521},"geometry":{"x":177470.46999999974,"y":2559242.5800000001}},{"attributes":{"ID":426547,"DIS_CODE":0,"TOWNNAME":"善化區","LI":"東關里","LIN":"4鄰","STREET":"裕德路","SECT":" ","MAREA":" ","LANE":"６０巷","ALLEY":" ","HOUSE_NO":"１５號","E_COORD97":177477.54000000001,"N_COORD97":2559241.21,"ADDRESS":"裕德路６０巷１５號","OBJECTID":426522},"geometry":{"x":177477.54000000097,"y":2559241.2100000028}},{"attributes":{"ID":426548,"DIS_CODE":0,"TOWNNAME":"善化區","LI":"東關里","LIN":"4鄰","STREET":"裕德路","SECT":" ","MAREA":" ","LANE":"６０巷","ALLEY":" ","HOUSE_NO":"１６號","E_COORD97":177458.48999999999,"N_COORD97":2559226.73,"ADDRESS":"裕德路６０巷１６號","OBJECTID":426523},"geometry":{"x":177458.49000000022,"y":2559226.7300000023}},{"attributes":{"ID":426549,"DIS_CODE":0,"TOWNNAME":"善化區","LI":"東關里","LIN":"4鄰","STREET":"裕德路","SECT":" ","MAREA":" ","LANE":"６０巷","ALLEY":" ","HOUSE_NO":"１７號","E_COORD97":177484.67999999999,"N_COORD97":2559239.8300000001,"ADDRESS":"裕德路６０巷１７號","OBJECTID":426524},"geometry":{"x":177484.68000000063,"y":2559239.8300000001}},{"attributes":{"ID":426550,"DIS_CODE":0,"TOWNNAME":"善化區","LI":"東關里","LIN":"4鄰","STREET":"裕德路","SECT":" ","MAREA":" ","LANE":"６０巷","ALLEY":" ","HOUSE_NO":"１８號","E_COORD97":177465.56,"N_COORD97":2559225.3599999999,"ADDRESS":"裕德路６０巷１８號","OBJECTID":426525},"geometry":{"x":177465.56000000052,"y":2559225.3599999994}},{"attributes":{"ID":426551,"DIS_CODE":0,"TOWNNAME":"安南區","LI":"原佃里","LIN":"4鄰","STREET":"本原街","SECT":"一段","MAREA":" ","LANE":"９４巷","ALLEY":" ","HOUSE_NO":"２４號","E_COORD97":168006.04000000001,"N_COORD97":2550245.02,"ADDRESS":"本原街一段９４巷２４號","OBJECTID":426526},"geometry":{"x":168006.04000000004,"y":2550245.0200000033}},{"attributes":{"ID":426552,"DIS_CODE":0,"TOWNNAME":"安南區","LI":"原佃里","LIN":"4鄰","STREET":"本原街","SECT":"一段","MAREA":" ","LANE":"９４巷","ALLEY":" ","HOUSE_NO":"３號","E_COORD97":167981.23999999999,"N_COORD97":2550187.7999999998,"ADDRESS":"本原街一段９４巷３號","OBJECTID":426527},"geometry":{"x":167981.23999999929,"y":2550187.8000000026}},{"attributes":{"ID":426553,"DIS_CODE":0,"TOWNNAME":"安南區","LI":"原佃里","LIN":"4鄰","STREET":"本原街","SECT":"一段","MAREA":" ","LANE":"９４巷","ALLEY":" ","HOUSE_NO":"５號","E_COORD97":167980.92000000001,"N_COORD97":2550192.1800000002,"ADDRESS":"本原街一段９４巷５號","OBJECTID":426528},"geometry":{"x":167980.91999999993,"y":2550192.1799999997}},{"attributes":{"ID":426554,"DIS_CODE":0,"TOWNNAME":"安南區","LI":"溪東里","LIN":"4鄰","STREET":"府安路","SECT":"五段","MAREA":" ","LANE":"９８巷","ALLEY":" ","HOUSE_NO":"３０號","E_COORD97":168064.01999999999,"N_COORD97":2547228.71,"ADDRESS":"府安路五段９８巷３０號","OBJECTID":426529},"geometry":{"x":168064.02000000048,"y":2547228.7100000028}},{"attributes":{"ID":426555,"DIS_CODE":0,"TOWNNAME":"安南區","LI":"溪東里","LIN":"4鄰","STREET":"府安路","SECT":"五段","MAREA":" ","LANE":"９８巷","ALLEY":" ","HOUSE_NO":"３２號","E_COORD97":168062.89999999999,"N_COORD97":2547233.98,"ADDRESS":"府安路五段９８巷３２號","OBJECTID":426530},"geometry":{"x":168062.90000000037,"y":2547233.9800000004}},{"attributes":{"ID":426556,"DIS_CODE":0,"TOWNNAME":"安南區","LI":"溪東里","LIN":"4鄰","STREET":"府安路","SECT":"五段","MAREA":" ","LANE":"９８巷","ALLEY":" ","HOUSE_NO":"３４號","E_COORD97":168061.62,"N_COORD97":2547240.0600000001,"ADDRESS":"府安路五段９８巷３４號","OBJECTID":426531},"geometry":{"x":168061.61999999918,"y":2547240.0600000024}},{"attributes":{"ID":426557,"DIS_CODE":0,"TOWNNAME":"安南區","LI":"溪東里","LIN":"4鄰","STREET":"府安路","SECT":"五段","MAREA":" ","LANE":"９８巷","ALLEY":" ","HOUSE_NO":"３８號","E_COORD97":168059.22,"N_COORD97":2547251.5,"ADDRESS":"府安路五段９８巷３８號","OBJECTID":426532},"geometry":{"x":168059.22000000067,"y":2547251.5}},{"attributes":{"ID":426558,"DIS_CODE":0,"TOWNNAME":"安南區","LI":"溪東里","LIN":"4鄰","STREET":"府安路","SECT":"五段","MAREA":" ","LANE":"９８巷","ALLEY":" ","HOUSE_NO":"３號","E_COORD97":168048.39000000001,"N_COORD97":2547149.5800000001,"ADDRESS":"府安路五段９８巷３號","OBJECTID":426533},"geometry":{"x":168048.3900000006,"y":2547149.5800000038}},{"attributes":{"ID":426559,"DIS_CODE":0,"TOWNNAME":"安南區","LI":"溪東里","LIN":"4鄰","STREET":"府安路","SECT":"五段","MAREA":" ","LANE":"９８巷","ALLEY":" ","HOUSE_NO":"４０號","E_COORD97":168058.57999999999,"N_COORD97":2547256.2999999998,"ADDRESS":"府安路五段９８巷４０號","OBJECTID":426534},"geometry":{"x":168058.58000000194,"y":2547256.3000000007}},{"attributes":{"ID":426560,"DIS_CODE":0,"TOWNNAME":"永康區","LI":"中興里","LIN":"18鄰","STREET":"中華二路","SECT":" ","MAREA":" ","LANE":"２１５巷","ALLEY":" ","HOUSE_NO":"２０號","E_COORD97":171768.01999999999,"N_COORD97":2545367.7400000002,"ADDRESS":"中華二路２１５巷２０號","OBJECTID":426535},"geometry":{"x":171768.02000000048,"y":2545367.7400000002}},{"attributes":{"ID":426561,"DIS_CODE":0,"TOWNNAME":"中西區","LI":"西賢里","LIN":"4鄰","STREET":"湖美街","SECT":" ","MAREA":" ","LANE":"１７７巷","ALLEY":" ","HOUSE_NO":"１６號","E_COORD97":165885.01000000001,"N_COORD97":2544853.8500000001,"ADDRESS":"湖美街１７７巷１６號","OBJECTID":426536},"geometry":{"x":165885.00999999978,"y":2544853.8499999996}},{"attributes":{"ID":426562,"DIS_CODE":0,"TOWNNAME":"中西區","LI":"西賢里","LIN":"4鄰","STREET":"湖美街","SECT":" ","MAREA":" ","LANE":"１７７巷","ALLEY":" ","HOUSE_NO":"１８號","E_COORD97":165880.67999999999,"N_COORD97":2544853.98,"ADDRESS":"湖美街１７７巷１８號","OBJECTID":426537},"geometry":{"x":165880.6799999997,"y":2544853.9800000004}},{"attributes":{"ID":426563,"DIS_CODE":0,"TOWNNAME":"中西區","LI":"西賢里","LIN":"4鄰","STREET":"湖美街","SECT":" ","MAREA":" ","LANE":"１７７巷","ALLEY":" ","HOUSE_NO":"２０號","E_COORD97":165874.51000000001,"N_COORD97":2544854.3700000001,"ADDRESS":"湖美街１７７巷２０號","OBJECTID":426538},"geometry":{"x":165874.50999999978,"y":2544854.3700000029}},{"attributes":{"ID":426564,"DIS_CODE":0,"TOWNNAME":"中西區","LI":"西賢里","LIN":"4鄰","STREET":"湖美街","SECT":" ","MAREA":" ","LANE":"１７７巷","ALLEY":" ","HOUSE_NO":"２２號","E_COORD97":165868.47,"N_COORD97":2544854.1099999999,"ADDRESS":"湖美街１７７巷２２號","OBJECTID":426539},"geometry":{"x":165868.46999999974,"y":2544854.1100000013}},{"attributes":{"ID":426565,"DIS_CODE":0,"TOWNNAME":"中西區","LI":"西賢里","LIN":"4鄰","STREET":"湖美街","SECT":" ","MAREA":" ","LANE":"１７７巷","ALLEY":" ","HOUSE_NO":"３２號","E_COORD97":165863.88,"N_COORD97":2544854.1099999999,"ADDRESS":"湖美街１７７巷３２號","OBJECTID":426540},"geometry":{"x":165863.87999999989,"y":2544854.1100000013}},{"attributes":{"ID":426566,"DIS_CODE":0,"TOWNNAME":"中西區","LI":"西賢里","LIN":"4鄰","STREET":"湖美街","SECT":" ","MAREA":" ","LANE":"１７７巷","ALLEY":" ","HOUSE_NO":"３６號","E_COORD97":165859.54999999999,"N_COORD97":2544854.1099999999,"ADDRESS":"湖美街１７７巷３６號","OBJECTID":426541},"geometry":{"x":165859.54999999981,"y":2544854.1100000013}},{"attributes":{"ID":426567,"DIS_CODE":0,"TOWNNAME":"中西區","LI":"西賢里","LIN":"4鄰","STREET":"湖美街","SECT":" ","MAREA":" ","LANE":"１７７巷","ALLEY":" ","HOUSE_NO":"３８號","E_COORD97":165854.56,"N_COORD97":2544853.7200000002,"ADDRESS":"湖美街１７７巷３８號","OBJECTID":426542},"geometry":{"x":165854.56000000145,"y":2544853.7200000007}},{"attributes":{"ID":426568,"DIS_CODE":0,"TOWNNAME":"中西區","LI":"西賢里","LIN":"4鄰","STREET":"湖美街","SECT":" ","MAREA":" ","LANE":"１７７巷","ALLEY":" ","HOUSE_NO":"４０號","E_COORD97":165850.35999999999,"N_COORD97":2544852.9300000002,"ADDRESS":"湖美街１７７巷４０號","OBJECTID":426543},"geometry":{"x":165850.36000000127,"y":2544852.9300000016}},{"attributes":{"ID":426569,"DIS_CODE":0,"TOWNNAME":"中西區","LI":"西賢里","LIN":"4鄰","STREET":"湖美街","SECT":" ","MAREA":" ","LANE":"１７７巷","ALLEY":" ","HOUSE_NO":"４２號","E_COORD97":165843.75,"N_COORD97":2544851.1000000001,"ADDRESS":"湖美街１７７巷４２號","OBJECTID":426544},"geometry":{"x":165843.75000000093,"y":2544851.1000000015}},{"attributes":{"ID":426570,"DIS_CODE":0,"TOWNNAME":"中西區","LI":"西賢里","LIN":"4鄰","STREET":"湖美街","SECT":" ","MAREA":" ","LANE":"１７７巷","ALLEY":" ","HOUSE_NO":"４６號","E_COORD97":165838.37,"N_COORD97":2544851.3599999999,"ADDRESS":"湖美街１７７巷４６號","OBJECTID":426545},"geometry":{"x":165838.37000000104,"y":2544851.3599999994}},{"attributes":{"ID":426571,"DIS_CODE":0,"TOWNNAME":"中西區","LI":"西賢里","LIN":"4鄰","STREET":"湖美街","SECT":" ","MAREA":" ","LANE":"１７７巷","ALLEY":" ","HOUSE_NO":"４８號","E_COORD97":165832.73000000001,"N_COORD97":2544851.23,"ADDRESS":"湖美街１７７巷４８號","OBJECTID":426546},"geometry":{"x":165832.73000000138,"y":2544851.2300000023}},{"attributes":{"ID":426572,"DIS_CODE":0,"TOWNNAME":"中西區","LI":"西賢里","LIN":"4鄰","STREET":"湖美街","SECT":" ","MAREA":" ","LANE":"１７７巷","ALLEY":" ","HOUSE_NO":"５０號","E_COORD97":165825.64000000001,"N_COORD97":2544851.3599999999,"ADDRESS":"湖美街１７７巷５０號","OBJECTID":426547},"geometry":{"x":165825.6400000006,"y":2544851.3599999994}},{"attributes":{"ID":426573,"DIS_CODE":0,"TOWNNAME":"中西區","LI":"藥王里","LIN":"4鄰","STREET":"大福街","SECT":" ","MAREA":" ","LANE":"２７巷","ALLEY":" ","HOUSE_NO":"１１號","E_COORD97":167273.70999999999,"N_COORD97":2544395.5800000001,"ADDRESS":"大福街２７巷１１號","OBJECTID":426548},"geometry":{"x":167273.70999999996,"y":2544395.5800000001}},{"attributes":{"ID":426574,"DIS_CODE":0,"TOWNNAME":"中西區","LI":"藥王里","LIN":"4鄰","STREET":"大福街","SECT":" ","MAREA":" ","LANE":"２７巷","ALLEY":" ","HOUSE_NO":"１３號","E_COORD97":167269.35000000001,"N_COORD97":2544397.27,"ADDRESS":"大福街２７巷１３號","OBJECTID":426549},"geometry":{"x":167269.34999999963,"y":2544397.2699999996}},{"attributes":{"ID":426575,"DIS_CODE":0,"TOWNNAME":"中西區","LI":"藥王里","LIN":"4鄰","STREET":"大福街","SECT":" ","MAREA":" ","LANE":"２７巷","ALLEY":" ","HOUSE_NO":"１５號","E_COORD97":167264.03,"N_COORD97":2544398.7200000002,"ADDRESS":"大福街２７巷１５號","OBJECTID":426550},"geometry":{"x":167264.03000000212,"y":2544398.7200000007}},{"attributes":{"ID":426576,"DIS_CODE":0,"TOWNNAME":"中西區","LI":"藥王里","LIN":"4鄰","STREET":"大福街","SECT":" ","MAREA":" ","LANE":"２７巷","ALLEY":" ","HOUSE_NO":"２１號","E_COORD97":167254.10000000001,"N_COORD97":2544402.1099999999,"ADDRESS":"大福街２７巷２１號","OBJECTID":426551},"geometry":{"x":167254.09999999963,"y":2544402.1099999994}},{"attributes":{"ID":426577,"DIS_CODE":0,"TOWNNAME":"永康區","LI":"大灣里","LIN":"5鄰","STREET":"大民街","SECT":" ","MAREA":" ","LANE":"１２９巷","ALLEY":" ","HOUSE_NO":"５號","E_COORD97":174905.82999999999,"N_COORD97":2545615.96,"ADDRESS":"大民街１２９巷５號","OBJECTID":426552},"geometry":{"x":174905.83000000101,"y":2545615.9600000028}},{"attributes":{"ID":426578,"DIS_CODE":0,"TOWNNAME":"永康區","LI":"五王里","LIN":"39鄰","STREET":"中華路","SECT":" ","MAREA":" ","LANE":"５７８巷","ALLEY":" ","HOUSE_NO":"１７號之１２３","E_COORD97":171334.92000000001,"N_COORD97":2545989.54,"ADDRESS":"中華路５７８巷１７號之１２３","OBJECTID":426553},"geometry":{"x":171334.92000000086,"y":2545989.5400000028}},{"attributes":{"ID":426579,"DIS_CODE":0,"TOWNNAME":"中西區","LI":"藥王里","LIN":"4鄰","STREET":"大福街","SECT":" ","MAREA":" ","LANE":"２７巷","ALLEY":" ","HOUSE_NO":"５號","E_COORD97":167287.5,"N_COORD97":2544390.7400000002,"ADDRESS":"大福街２７巷５號","OBJECTID":426554},"geometry":{"x":167287.5,"y":2544390.7400000002}},{"attributes":{"ID":426580,"DIS_CODE":0,"TOWNNAME":"中西區","LI":"藥王里","LIN":"4鄰","STREET":"大福街","SECT":" ","MAREA":" ","LANE":"２７巷","ALLEY":" ","HOUSE_NO":"７號","E_COORD97":167281.94,"N_COORD97":2544392.4300000002,"ADDRESS":"大福街２７巷７號","OBJECTID":426555},"geometry":{"x":167281.94000000134,"y":2544392.4299999997}},{"attributes":{"ID":426581,"DIS_CODE":0,"TOWNNAME":"中西區","LI":"藥王里","LIN":"4鄰","STREET":"大福街","SECT":" ","MAREA":" ","LANE":"２７巷","ALLEY":" ","HOUSE_NO":"９號","E_COORD97":167277.82000000001,"N_COORD97":2544393.8799999999,"ADDRESS":"大福街２７巷９號","OBJECTID":426556},"geometry":{"x":167277.82000000123,"y":2544393.8800000008}},{"attributes":{"ID":426582,"DIS_CODE":0,"TOWNNAME":"永康區","LI":"中興里","LIN":"18鄰","STREET":"中華路","SECT":" ","MAREA":" ","LANE":"２８６巷","ALLEY":" ","HOUSE_NO":"５２號之１","E_COORD97":171711.54999999999,"N_COORD97":2545316.8100000001,"ADDRESS":"中華路２８６巷５２號之１","OBJECTID":426557},"geometry":{"x":171711.54999999888,"y":2545316.8100000005}},{"attributes":{"ID":426583,"DIS_CODE":0,"TOWNNAME":"永康區","LI":"中興里","LIN":"18鄰","STREET":"中華路","SECT":" ","MAREA":" ","LANE":"２８６巷","ALLEY":" ","HOUSE_NO":"２２號","E_COORD97":171639.62,"N_COORD97":2545309.75,"ADDRESS":"中華路２８６巷２２號","OBJECTID":426558},"geometry":{"x":171639.62000000011,"y":2545309.75}},{"attributes":{"ID":426584,"DIS_CODE":0,"TOWNNAME":"永康區","LI":"中興里","LIN":"18鄰","STREET":"中華路","SECT":" ","MAREA":" ","LANE":"２８６巷","ALLEY":" ","HOUSE_NO":"６８號","E_COORD97":171721.10000000001,"N_COORD97":2545282.75,"ADDRESS":"中華路２８６巷６８號","OBJECTID":426559},"geometry":{"x":171721.09999999963,"y":2545282.75}},{"attributes":{"ID":426585,"DIS_CODE":0,"TOWNNAME":"永康區","LI":"中興里","LIN":"5鄰","STREET":"中華路","SECT":" ","MAREA":" ","LANE":"２１４巷","ALLEY":" ","HOUSE_NO":"１７號","E_COORD97":171747.29999999999,"N_COORD97":2545064.9199999999,"ADDRESS":"中華路２１４巷１７號","OBJECTID":426560},"geometry":{"x":171747.30000000168,"y":2545064.9199999999}},{"attributes":{"ID":426586,"DIS_CODE":0,"TOWNNAME":"永康區","LI":"五王里","LIN":"20鄰","STREET":"中華路","SECT":" ","MAREA":" ","LANE":"４６８巷","ALLEY":" ","HOUSE_NO":"４號","E_COORD97":171357.70999999999,"N_COORD97":2545709.75,"ADDRESS":"中華路４６８巷４號","OBJECTID":426561},"geometry":{"x":171357.70999999996,"y":2545709.75}},{"attributes":{"ID":426587,"DIS_CODE":0,"TOWNNAME":"永康區","LI":"大灣里","LIN":"13鄰","STREET":"大灣路","SECT":" ","MAREA":" ","LANE":"２１５巷","ALLEY":" ","HOUSE_NO":"１６號","E_COORD97":175016.69,"N_COORD97":2545305,"ADDRESS":"大灣路２１５巷１６號","OBJECTID":426562},"geometry":{"x":175016.69000000041,"y":2545305}},{"attributes":{"ID":426588,"DIS_CODE":0,"TOWNNAME":"永康區","LI":"五王里","LIN":"20鄰","STREET":"中華路","SECT":" ","MAREA":" ","LANE":"４６８巷","ALLEY":" ","HOUSE_NO":"１號","E_COORD97":171349.34,"N_COORD97":2545727,"ADDRESS":"中華路４６８巷１號","OBJECTID":426563},"geometry":{"x":171349.34000000078,"y":2545727.0000000019}},{"attributes":{"ID":426589,"DIS_CODE":0,"TOWNNAME":"永康區","LI":"大灣里","LIN":"13鄰","STREET":"大灣路","SECT":" ","MAREA":" ","LANE":"２１５巷","ALLEY":" ","HOUSE_NO":"３０號","E_COORD97":175092.16,"N_COORD97":2545295.02,"ADDRESS":"大灣路２１５巷３０號","OBJECTID":426564},"geometry":{"x":175092.16000000108,"y":2545295.0200000033}},{"attributes":{"ID":426590,"DIS_CODE":0,"TOWNNAME":"永康區","LI":"大灣里","LIN":"4鄰","STREET":"大民街","SECT":" ","MAREA":" ","LANE":"１５７巷","ALLEY":" ","HOUSE_NO":"１號","E_COORD97":174913.32999999999,"N_COORD97":2545682.6600000001,"ADDRESS":"大民街１５７巷１號","OBJECTID":426565},"geometry":{"x":174913.33000000007,"y":2545682.660000002}},{"attributes":{"ID":426591,"DIS_CODE":0,"TOWNNAME":"東區","LI":"文聖里","LIN":"4鄰","STREET":"裕農一街","SECT":" ","MAREA":" ","LANE":"１８０巷","ALLEY":" ","HOUSE_NO":"５２號","E_COORD97":171826.39000000001,"N_COORD97":2542679.9399999999,"ADDRESS":"裕農一街１８０巷５２號","OBJECTID":426566},"geometry":{"x":171826.3900000006,"y":2542679.9399999995}},{"attributes":{"ID":426592,"DIS_CODE":0,"TOWNNAME":"東區","LI":"文聖里","LIN":"4鄰","STREET":"裕農一街","SECT":" ","MAREA":" ","LANE":"１８０巷","ALLEY":" ","HOUSE_NO":"５０號","E_COORD97":171830.22,"N_COORD97":2542683.3500000001,"ADDRESS":"裕農一街１８０巷５０號","OBJECTID":426567},"geometry":{"x":171830.21999999974,"y":2542683.3500000015}},{"attributes":{"ID":426593,"DIS_CODE":0,"TOWNNAME":"東區","LI":"文聖里","LIN":"4鄰","STREET":"裕農一街","SECT":" ","MAREA":" ","LANE":"１８０巷","ALLEY":" ","HOUSE_NO":"４８號","E_COORD97":171833.89999999999,"N_COORD97":2542677.48,"ADDRESS":"裕農一街１８０巷４８號","OBJECTID":426568},"geometry":{"x":171833.9000000013,"y":2542677.4800000004}},{"attributes":{"ID":426594,"DIS_CODE":0,"TOWNNAME":"東區","LI":"文聖里","LIN":"4鄰","STREET":"裕農一街","SECT":" ","MAREA":" ","LANE":"１８０巷","ALLEY":" ","HOUSE_NO":"１５號","E_COORD97":171834.17000000001,"N_COORD97":2542649.29,"ADDRESS":"裕農一街１８０巷１５號","OBJECTID":426569},"geometry":{"x":171834.16999999993,"y":2542649.290000001}},{"attributes":{"ID":426595,"DIS_CODE":0,"TOWNNAME":"東區","LI":"文聖里","LIN":"4鄰","STREET":"裕農一街","SECT":" ","MAREA":" ","LANE":"１８０巷","ALLEY":" ","HOUSE_NO":"１７號","E_COORD97":171829.95999999999,"N_COORD97":2542645.6800000002,"ADDRESS":"裕農一街１８０巷１７號","OBJECTID":426570},"geometry":{"x":171829.96000000089,"y":2542645.6799999997}},{"attributes":{"ID":426596,"DIS_CODE":0,"TOWNNAME":"東區","LI":"文聖里","LIN":"4鄰","STREET":"裕農一街","SECT":" ","MAREA":" ","LANE":"１８０巷","ALLEY":" ","HOUSE_NO":"１９號","E_COORD97":171826.20000000001,"N_COORD97":2542648.9900000002,"ADDRESS":"裕農一街１８０巷１９號","OBJECTID":426571},"geometry":{"x":171826.19999999925,"y":2542648.9900000021}},{"attributes":{"ID":426597,"DIS_CODE":0,"TOWNNAME":"東區","LI":"文聖里","LIN":"4鄰","STREET":"裕農一街","SECT":" ","MAREA":" ","LANE":"１８０巷","ALLEY":" ","HOUSE_NO":"２１號","E_COORD97":171822.13,"N_COORD97":2542645.23,"ADDRESS":"裕農一街１８０巷２１號","OBJECTID":426572},"geometry":{"x":171822.13000000082,"y":2542645.2300000004}},{"attributes":{"ID":426598,"DIS_CODE":0,"TOWNNAME":"永康區","LI":"中興里","LIN":"18鄰","STREET":"中華路","SECT":" ","MAREA":" ","LANE":"２８６巷","ALLEY":" ","HOUSE_NO":"４７號","E_COORD97":171670.67999999999,"N_COORD97":2545349.2400000002,"ADDRESS":"中華路２８６巷４７號","OBJECTID":426573},"geometry":{"x":171670.68000000063,"y":2545349.2400000021}},{"attributes":{"ID":426599,"DIS_CODE":0,"TOWNNAME":"永康區","LI":"五王里","LIN":"32鄰","STREET":"中華路","SECT":" ","MAREA":" ","LANE":"５７８巷","ALLEY":" ","HOUSE_NO":"２號之１","E_COORD97":171232.89999999999,"N_COORD97":2545914.2999999998,"ADDRESS":"中華路５７８巷２號之１","OBJECTID":426574},"geometry":{"x":171232.90000000037,"y":2545914.3000000007}},{"attributes":{"ID":426600,"DIS_CODE":0,"TOWNNAME":"永康區","LI":"大灣里","LIN":"13鄰","STREET":"大灣路","SECT":" ","MAREA":" ","LANE":"２１５巷","ALLEY":" ","HOUSE_NO":"１２號","E_COORD97":175008.73999999999,"N_COORD97":2545304.5,"ADDRESS":"大灣路２１５巷１２號","OBJECTID":426575},"geometry":{"x":175008.74000000115,"y":2545304.5}},{"attributes":{"ID":426601,"DIS_CODE":0,"TOWNNAME":"永康區","LI":"六合里","LIN":"4鄰","STREET":"新興街","SECT":" ","MAREA":" ","LANE":"３７巷","ALLEY":" ","HOUSE_NO":"１８號","E_COORD97":171026.95999999999,"N_COORD97":2545812.5800000001,"ADDRESS":"新興街３７巷１８號","OBJECTID":426576},"geometry":{"x":171026.95999999996,"y":2545812.5800000001}},{"attributes":{"ID":426602,"DIS_CODE":0,"TOWNNAME":"永康區","LI":"六合里","LIN":"4鄰","STREET":"新興街","SECT":" ","MAREA":" ","LANE":"３７巷","ALLEY":" ","HOUSE_NO":"１９號","E_COORD97":171021.20000000001,"N_COORD97":2545819.8500000001,"ADDRESS":"新興街３７巷１９號","OBJECTID":426577},"geometry":{"x":171021.20000000205,"y":2545819.8500000015}},{"attributes":{"ID":426603,"DIS_CODE":0,"TOWNNAME":"永康區","LI":"六合里","LIN":"4鄰","STREET":"新興街","SECT":" ","MAREA":" ","LANE":"３７巷","ALLEY":" ","HOUSE_NO":"１號","E_COORD97":170991.26000000001,"N_COORD97":2545795.1099999999,"ADDRESS":"新興街３７巷１號","OBJECTID":426578},"geometry":{"x":170991.25999999978,"y":2545795.1099999994}},{"attributes":{"ID":426604,"DIS_CODE":0,"TOWNNAME":"永康區","LI":"六合里","LIN":"4鄰","STREET":"新興街","SECT":" ","MAREA":" ","LANE":"３７巷","ALLEY":" ","HOUSE_NO":"２０號","E_COORD97":171031.48999999999,"N_COORD97":2545815.1600000001,"ADDRESS":"新興街３７巷２０號","OBJECTID":426579},"geometry":{"x":171031.49000000115,"y":2545815.1600000001}},{"attributes":{"ID":426605,"DIS_CODE":0,"TOWNNAME":"永康區","LI":"六合里","LIN":"4鄰","STREET":"新興街","SECT":" ","MAREA":" ","LANE":"３７巷","ALLEY":" ","HOUSE_NO":"２１號","E_COORD97":171026.10999999999,"N_COORD97":2545822.48,"ADDRESS":"新興街３７巷２１號","OBJECTID":426580},"geometry":{"x":171026.11000000034,"y":2545822.4800000023}},{"attributes":{"ID":426606,"DIS_CODE":0,"TOWNNAME":"永康區","LI":"六合里","LIN":"4鄰","STREET":"新興街","SECT":" ","MAREA":" ","LANE":"３７巷","ALLEY":" ","HOUSE_NO":"２２號","E_COORD97":171036.5,"N_COORD97":2545817.3900000001,"ADDRESS":"新興街３７巷２２號","OBJECTID":426581},"geometry":{"x":171036.50000000093,"y":2545817.3900000025}},{"attributes":{"ID":426607,"DIS_CODE":0,"TOWNNAME":"永康區","LI":"六合里","LIN":"4鄰","STREET":"新興街","SECT":" ","MAREA":" ","LANE":"３７巷","ALLEY":" ","HOUSE_NO":"２３號","E_COORD97":171030.97,"N_COORD97":2545824.5499999998,"ADDRESS":"新興街３７巷２３號","OBJECTID":426582},"geometry":{"x":171030.97000000067,"y":2545824.5500000007}},{"attributes":{"ID":426608,"DIS_CODE":0,"TOWNNAME":"永康區","LI":"六合里","LIN":"4鄰","STREET":"新興街","SECT":" ","MAREA":" ","LANE":"３７巷","ALLEY":" ","HOUSE_NO":"２５號","E_COORD97":171036.17999999999,"N_COORD97":2545827.7400000002,"ADDRESS":"新興街３７巷２５號","OBJECTID":426583},"geometry":{"x":171036.18000000063,"y":2545827.7400000021}},{"attributes":{"ID":426609,"DIS_CODE":0,"TOWNNAME":"永康區","LI":"六合里","LIN":"4鄰","STREET":"新興街","SECT":" ","MAREA":" ","LANE":"３７巷","ALLEY":" ","HOUSE_NO":"２６號","E_COORD97":171041.70999999999,"N_COORD97":2545819.9199999999,"ADDRESS":"新興街３７巷２６號","OBJECTID":426584},"geometry":{"x":171041.71000000089,"y":2545819.9199999999}},{"attributes":{"ID":426610,"DIS_CODE":0,"TOWNNAME":"永康區","LI":"六合里","LIN":"4鄰","STREET":"新興街","SECT":" ","MAREA":" ","LANE":"３７巷","ALLEY":" ","HOUSE_NO":"２７號","E_COORD97":171040.89999999999,"N_COORD97":2545829.96,"ADDRESS":"新興街３７巷２７號","OBJECTID":426585},"geometry":{"x":171040.9000000013,"y":2545829.9600000028}},{"attributes":{"ID":426611,"DIS_CODE":0,"TOWNNAME":"永康區","LI":"六合里","LIN":"4鄰","STREET":"新興街","SECT":" ","MAREA":" ","LANE":"３７巷","ALLEY":" ","HOUSE_NO":"２８號","E_COORD97":171046.59,"N_COORD97":2545822.5699999998,"ADDRESS":"新興街３７巷２８號","OBJECTID":426586},"geometry":{"x":171046.58999999985,"y":2545822.5700000022}},{"attributes":{"ID":426612,"DIS_CODE":0,"TOWNNAME":"永康區","LI":"六合里","LIN":"4鄰","STREET":"新興街","SECT":" ","MAREA":" ","LANE":"３７巷","ALLEY":" ","HOUSE_NO":"２號","E_COORD97":170981.5,"N_COORD97":2545800.4399999999,"ADDRESS":"新興街３７巷２號","OBJECTID":426587},"geometry":{"x":170981.50000000186,"y":2545800.4399999976}},{"attributes":{"ID":426613,"DIS_CODE":0,"TOWNNAME":"永康區","LI":"六合里","LIN":"4鄰","STREET":"新興街","SECT":" ","MAREA":" ","LANE":"３７巷","ALLEY":" ","HOUSE_NO":"３０號","E_COORD97":171051.48000000001,"N_COORD97":2545824.8999999999,"ADDRESS":"新興街３７巷３０號","OBJECTID":426588},"geometry":{"x":171051.48000000045,"y":2545824.9000000004}},{"attributes":{"ID":426614,"DIS_CODE":0,"TOWNNAME":"永康區","LI":"六合里","LIN":"4鄰","STREET":"新興街","SECT":" ","MAREA":" ","LANE":"３７巷","ALLEY":" ","HOUSE_NO":"３２號","E_COORD97":171057.31,"N_COORD97":2545824.7999999998,"ADDRESS":"新興街３７巷３２號","OBJECTID":426589},"geometry":{"x":171057.31000000052,"y":2545824.8000000026}},{"attributes":{"ID":426615,"DIS_CODE":0,"TOWNNAME":"永康區","LI":"六合里","LIN":"4鄰","STREET":"新興街","SECT":" ","MAREA":" ","LANE":"３７巷","ALLEY":" ","HOUSE_NO":"３６號","E_COORD97":171062.37,"N_COORD97":2545827.1299999999,"ADDRESS":"新興街３７巷３６號","OBJECTID":426590},"geometry":{"x":171062.37000000104,"y":2545827.1300000008}},{"attributes":{"ID":426616,"DIS_CODE":0,"TOWNNAME":"東區","LI":"東安里","LIN":"4鄰","STREET":"長榮路","SECT":"二段","MAREA":" ","LANE":"２４巷","ALLEY":" ","HOUSE_NO":"２號","E_COORD97":169954,"N_COORD97":2543078.8900000001,"ADDRESS":"長榮路二段２４巷２號","OBJECTID":426591},"geometry":{"x":169954,"y":2543078.8900000006}},{"attributes":{"ID":426617,"DIS_CODE":0,"TOWNNAME":"東區","LI":"東安里","LIN":"4鄰","STREET":"長榮路","SECT":"二段","MAREA":" ","LANE":"２４巷","ALLEY":" ","HOUSE_NO":"４號","E_COORD97":169956.82999999999,"N_COORD97":2543078.7000000002,"ADDRESS":"長榮路二段２４巷４號","OBJECTID":426592},"geometry":{"x":169956.83000000007,"y":2543078.6999999993}},{"attributes":{"ID":426618,"DIS_CODE":0,"TOWNNAME":"東區","LI":"東安里","LIN":"4鄰","STREET":"長榮路","SECT":"二段","MAREA":" ","LANE":"２４巷","ALLEY":" ","HOUSE_NO":"６號","E_COORD97":169959.28,"N_COORD97":2543078.04,"ADDRESS":"長榮路二段２４巷６號","OBJECTID":426593},"geometry":{"x":169959.28000000026,"y":2543078.040000001}},{"attributes":{"ID":426619,"DIS_CODE":0,"TOWNNAME":"東區","LI":"東安里","LIN":"4鄰","STREET":"長榮路","SECT":"二段","MAREA":" ","LANE":"２４巷","ALLEY":" ","HOUSE_NO":"８號","E_COORD97":169961.82999999999,"N_COORD97":2543076.4399999999,"ADDRESS":"長榮路二段２４巷８號","OBJECTID":426594},"geometry":{"x":169961.83000000007,"y":2543076.4400000013}},{"attributes":{"ID":426620,"DIS_CODE":0,"TOWNNAME":"東區","LI":"東安里","LIN":"4鄰","STREET":"長榮路","SECT":"二段","MAREA":" ","LANE":"２４巷","ALLEY":" ","HOUSE_NO":"１０號","E_COORD97":169964.28,"N_COORD97":2543075.5,"ADDRESS":"長榮路二段２４巷１０號","OBJECTID":426595},"geometry":{"x":169964.28000000026,"y":2543075.5000000019}},{"attributes":{"ID":426621,"DIS_CODE":0,"TOWNNAME":"東區","LI":"東安里","LIN":"4鄰","STREET":"長榮路","SECT":"二段","MAREA":" ","LANE":"２４巷","ALLEY":" ","HOUSE_NO":"１２號","E_COORD97":169966.92000000001,"N_COORD97":2543074.1800000002,"ADDRESS":"長榮路二段２４巷１２號","OBJECTID":426596},"geometry":{"x":169966.92000000086,"y":2543074.1800000016}},{"attributes":{"ID":426622,"DIS_CODE":0,"TOWNNAME":"東區","LI":"東安里","LIN":"4鄰","STREET":"長榮路","SECT":"二段","MAREA":" ","LANE":"２４巷","ALLEY":" ","HOUSE_NO":"１４號","E_COORD97":169969.37,"N_COORD97":2543073.71,"ADDRESS":"長榮路二段２４巷１４號","OBJECTID":426597},"geometry":{"x":169969.37000000104,"y":2543073.7100000009}},{"attributes":{"ID":426623,"DIS_CODE":0,"TOWNNAME":"東區","LI":"東安里","LIN":"4鄰","STREET":"長榮路","SECT":"二段","MAREA":" ","LANE":"２４巷","ALLEY":" ","HOUSE_NO":"１６號","E_COORD97":169971.82000000001,"N_COORD97":2543072.6800000002,"ADDRESS":"長榮路二段２４巷１６號","OBJECTID":426598},"geometry":{"x":169971.82000000123,"y":2543072.6799999997}},{"attributes":{"ID":426624,"DIS_CODE":0,"TOWNNAME":"東區","LI":"東安里","LIN":"4鄰","STREET":"長榮路","SECT":"二段","MAREA":" ","LANE":"２４巷","ALLEY":" ","HOUSE_NO":"１８號","E_COORD97":169974.54999999999,"N_COORD97":2543071.6400000001,"ADDRESS":"長榮路二段２４巷１８號","OBJECTID":426599},"geometry":{"x":169974.55000000075,"y":2543071.6400000025}},{"attributes":{"ID":426625,"DIS_CODE":0,"TOWNNAME":"東區","LI":"東安里","LIN":"4鄰","STREET":"長榮路","SECT":"二段","MAREA":" ","LANE":"２４巷","ALLEY":" ","HOUSE_NO":"２０號","E_COORD97":169979.82999999999,"N_COORD97":2543070.04,"ADDRESS":"長榮路二段２４巷２０號","OBJECTID":426600},"geometry":{"x":169979.83000000101,"y":2543070.0399999991}}]}