{"displayFieldName":"TOWNNAME","fieldAliases":{"ID":"ID","DIS_CODE":"DIS_CODE","TOWNNAME":"TOWNNAME","LI":"LI","LIN":"LIN","STREET":"STREET","SECT":"SECT","MAREA":"MAREA","LANE":"LANE","ALLEY":"ALLEY","HOUSE_NO":"HOUSE_NO","E_COORD97":"E_COORD97","N_COORD97":"N_COORD97","ADDRESS":"ADDRESS","OBJECTID":"OBJECTID"},"geometryType":"esriGeometryPoint","spatialReference":{"wkid":102443,"latestWkid":3826},"fields":[{"name":"ID","type":"esriFieldTypeDouble","alias":"ID"},{"name":"DIS_CODE","type":"esriFieldTypeInteger","alias":"DIS_CODE"},{"name":"TOWNNAME","type":"esriFieldTypeString","alias":"TOWNNAME","length":8},{"name":"LI","type":"esriFieldTypeString","alias":"LI","length":8},{"name":"LIN","type":"esriFieldTypeString","alias":"LIN","length":12},{"name":"STREET","type":"esriFieldTypeString","alias":"STREET","length":20},{"name":"SECT","type":"esriFieldTypeString","alias":"SECT","length":8},{"name":"MAREA","type":"esriFieldTypeString","alias":"MAREA","length":12},{"name":"LANE","type":"esriFieldTypeString","alias":"LANE","length":10},{"name":"ALLEY","type":"esriFieldTypeString","alias":"ALLEY","length":10},{"name":"HOUSE_NO","type":"esriFieldTypeString","alias":"HOUSE_NO","length":20},{"name":"E_COORD97","type":"esriFieldTypeDouble","alias":"E_COORD97"},{"name":"N_COORD97","type":"esriFieldTypeDouble","alias":"N_COORD97"},{"name":"ADDRESS","type":"esriFieldTypeString","alias":"ADDRESS","length":50},{"name":"OBJECTID","type":"esriFieldTypeOID","alias":"OBJECTID"}],"features":[{"attributes":{"ID":645428,"DIS_CODE":0,"TOWNNAME":"東山區","LI":"科里里","LIN":"12鄰","STREET":" ","SECT":" ","MAREA":"科里","LANE":" ","ALLEY":" ","HOUSE_NO":"７３號","E_COORD97":191064.657397,"N_COORD97":2577480.65784,"ADDRESS":"科里７３號","OBJECTID":645401},"geometry":{"x":191064.65739700012,"y":2577480.6578370016}},{"attributes":{"ID":645429,"DIS_CODE":0,"TOWNNAME":"東山區","LI":"高原里","LIN":"13鄰","STREET":" ","SECT":" ","MAREA":"高原","LANE":" ","ALLEY":" ","HOUSE_NO":"１０９號之１６","E_COORD97":200016.17064,"N_COORD97":2575223.6772400001,"ADDRESS":"高原１０９號之１６","OBJECTID":645402},"geometry":{"x":200016.17064000107,"y":2575223.677240001}},{"attributes":{"ID":645430,"DIS_CODE":0,"TOWNNAME":"永康區","LI":"崑山里","LIN":"19鄰","STREET":"國光一街","SECT":" ","MAREA":" ","LANE":" ","ALLEY":" ","HOUSE_NO":"７號","E_COORD97":174037.62154299999,"N_COORD97":2544559.7078300002,"ADDRESS":"國光一街７號","OBJECTID":645403},"geometry":{"x":174037.62154299859,"y":2544559.7078260016}},{"attributes":{"ID":645431,"DIS_CODE":0,"TOWNNAME":"東山區","LI":"科里里","LIN":"12鄰","STREET":" ","SECT":" ","MAREA":"科里","LANE":" ","ALLEY":" ","HOUSE_NO":"７４號","E_COORD97":191162.76675899999,"N_COORD97":2577446.5795200001,"ADDRESS":"科里７４號","OBJECTID":645404},"geometry":{"x":191162.76675900072,"y":2577446.5795220044}},{"attributes":{"ID":645432,"DIS_CODE":0,"TOWNNAME":"新營區","LI":"埤寮里","LIN":"3鄰","STREET":" ","SECT":" ","MAREA":"許丑","LANE":" ","ALLEY":" ","HOUSE_NO":"２７號","E_COORD97":179932.171772,"N_COORD97":2581005.5584999998,"ADDRESS":"許丑２７號","OBJECTID":645405},"geometry":{"x":179932.17177200224,"y":2581005.5584999993}},{"attributes":{"ID":645433,"DIS_CODE":0,"TOWNNAME":"東山區","LI":"科里里","LIN":"12鄰","STREET":" ","SECT":" ","MAREA":"科里","LANE":" ","ALLEY":" ","HOUSE_NO":"７４號之４","E_COORD97":191122.92968999999,"N_COORD97":2577438.5361899999,"ADDRESS":"科里７４號之４","OBJECTID":645406},"geometry":{"x":191122.9296900006,"y":2577438.5361899994}},{"attributes":{"ID":645434,"DIS_CODE":0,"TOWNNAME":"東山區","LI":"高原里","LIN":"13鄰","STREET":" ","SECT":" ","MAREA":"高原","LANE":" ","ALLEY":" ","HOUSE_NO":"１０９號之４","E_COORD97":199598.09805,"N_COORD97":2575452.38295,"ADDRESS":"高原１０９號之４","OBJECTID":645407},"geometry":{"x":199598.09805000015,"y":2575452.3829500023}},{"attributes":{"ID":645435,"DIS_CODE":0,"TOWNNAME":"仁德區","LI":"中洲里","LIN":"15鄰","STREET":" ","SECT":" ","MAREA":"中洲","LANE":" ","ALLEY":" ","HOUSE_NO":"３８４號之４","E_COORD97":173396.01201400001,"N_COORD97":2534242.6291700001,"ADDRESS":"中洲３８４號之４","OBJECTID":645408},"geometry":{"x":173396.01201399975,"y":2534242.6291700043}},{"attributes":{"ID":645436,"DIS_CODE":0,"TOWNNAME":"新營區","LI":"埤寮里","LIN":"3鄰","STREET":" ","SECT":" ","MAREA":"許丑","LANE":" ","ALLEY":" ","HOUSE_NO":"２８號","E_COORD97":179932.171772,"N_COORD97":2581020.8514100001,"ADDRESS":"許丑２８號","OBJECTID":645409},"geometry":{"x":179932.17177200224,"y":2581020.851408001}},{"attributes":{"ID":645437,"DIS_CODE":0,"TOWNNAME":"東山區","LI":"科里里","LIN":"12鄰","STREET":" ","SECT":" ","MAREA":"科里","LANE":" ","ALLEY":" ","HOUSE_NO":"７４號之５","E_COORD97":191144.96721999999,"N_COORD97":2577453.3528499999,"ADDRESS":"科里７４號之５","OBJECTID":645410},"geometry":{"x":191144.96721999999,"y":2577453.3528500013}},{"attributes":{"ID":645438,"DIS_CODE":0,"TOWNNAME":"東山區","LI":"高原里","LIN":"13鄰","STREET":" ","SECT":" ","MAREA":"高原","LANE":" ","ALLEY":" ","HOUSE_NO":"１０９號之８","E_COORD97":199575.85451,"N_COORD97":2575457.25128,"ADDRESS":"高原１０９號之８","OBJECTID":645411},"geometry":{"x":199575.85450999998,"y":2575457.2512800004}},{"attributes":{"ID":645439,"DIS_CODE":0,"TOWNNAME":"仁德區","LI":"中洲里","LIN":"15鄰","STREET":" ","SECT":" ","MAREA":"中洲","LANE":" ","ALLEY":" ","HOUSE_NO":"３８４號之３","E_COORD97":173412.53739499999,"N_COORD97":2534242.6291700001,"ADDRESS":"中洲３８４號之３","OBJECTID":645412},"geometry":{"x":173412.53739500046,"y":2534242.6291700043}},{"attributes":{"ID":645440,"DIS_CODE":0,"TOWNNAME":"東山區","LI":"高原里","LIN":"13鄰","STREET":" ","SECT":" ","MAREA":"高原","LANE":" ","ALLEY":" ","HOUSE_NO":"１１０號","E_COORD97":199593.64934,"N_COORD97":2575425.5013000001,"ADDRESS":"高原１１０號","OBJECTID":645413},"geometry":{"x":199593.64934,"y":2575425.5012999997}},{"attributes":{"ID":645441,"DIS_CODE":0,"TOWNNAME":"仁德區","LI":"中洲里","LIN":"15鄰","STREET":" ","SECT":" ","MAREA":"中洲","LANE":" ","ALLEY":" ","HOUSE_NO":"３８４號之１１","E_COORD97":173405.54588799999,"N_COORD97":2534264.64249,"ADDRESS":"中洲３８４號之１１","OBJECTID":645414},"geometry":{"x":173405.54588799924,"y":2534264.6424909979}},{"attributes":{"ID":645442,"DIS_CODE":0,"TOWNNAME":"善化區","LI":"小新里","LIN":"11鄰","STREET":"陽光北一路","SECT":" ","MAREA":" ","LANE":" ","ALLEY":" ","HOUSE_NO":"１８３號","E_COORD97":178835.81141600001,"N_COORD97":2557428.7445700001,"ADDRESS":"陽光北一路１８３號","OBJECTID":645415},"geometry":{"x":178835.81141600013,"y":2557428.7445739992}},{"attributes":{"ID":645443,"DIS_CODE":0,"TOWNNAME":"善化區","LI":"小新里","LIN":"11鄰","STREET":"陽光北一路","SECT":" ","MAREA":" ","LANE":" ","ALLEY":" ","HOUSE_NO":"１８５號","E_COORD97":178835.81141600001,"N_COORD97":2557434.3537400002,"ADDRESS":"陽光北一路１８５號","OBJECTID":645416},"geometry":{"x":178835.81141600013,"y":2557434.3537380006}},{"attributes":{"ID":645444,"DIS_CODE":0,"TOWNNAME":"東山區","LI":"高原里","LIN":"12鄰","STREET":" ","SECT":" ","MAREA":"高原","LANE":" ","ALLEY":" ","HOUSE_NO":"１１０號之２","E_COORD97":200903.15818,"N_COORD97":2576715.71477,"ADDRESS":"高原１１０號之２","OBJECTID":645417},"geometry":{"x":200903.15818000026,"y":2576715.7147700004}},{"attributes":{"ID":645445,"DIS_CODE":0,"TOWNNAME":"善化區","LI":"小新里","LIN":"11鄰","STREET":"陽光北一路","SECT":" ","MAREA":" ","LANE":" ","ALLEY":" ","HOUSE_NO":"１８７號","E_COORD97":178836.02322800001,"N_COORD97":2557439.6453999998,"ADDRESS":"陽光北一路１８７號","OBJECTID":645418},"geometry":{"x":178836.02322800178,"y":2557439.6454020012}},{"attributes":{"ID":645446,"DIS_CODE":0,"TOWNNAME":"善化區","LI":"小新里","LIN":"11鄰","STREET":"陽光北一路","SECT":" ","MAREA":" ","LANE":" ","ALLEY":" ","HOUSE_NO":"１８９號","E_COORD97":178836.23504100001,"N_COORD97":2557445.2545699999,"ADDRESS":"陽光北一路１８９號","OBJECTID":645419},"geometry":{"x":178836.23504099995,"y":2557445.2545650005}},{"attributes":{"ID":645447,"DIS_CODE":0,"TOWNNAME":"東山區","LI":"高原里","LIN":"12鄰","STREET":" ","SECT":" ","MAREA":"高原","LANE":" ","ALLEY":" ","HOUSE_NO":"１１０號之３","E_COORD97":200916.29246,"N_COORD97":2576715.71477,"ADDRESS":"高原１１０號之３","OBJECTID":645420},"geometry":{"x":200916.29246000107,"y":2576715.7147700004}},{"attributes":{"ID":645448,"DIS_CODE":0,"TOWNNAME":"善化區","LI":"小新里","LIN":"11鄰","STREET":"陽光北一路","SECT":" ","MAREA":" ","LANE":" ","ALLEY":" ","HOUSE_NO":"１９１號","E_COORD97":178836.552761,"N_COORD97":2557450.6520600002,"ADDRESS":"陽光北一路１９１號","OBJECTID":645421},"geometry":{"x":178836.55276100151,"y":2557450.6520620026}},{"attributes":{"ID":645449,"DIS_CODE":0,"TOWNNAME":"仁德區","LI":"中洲里","LIN":"15鄰","STREET":" ","SECT":" ","MAREA":"中洲","LANE":" ","ALLEY":" ","HOUSE_NO":"３８３號之１","E_COORD97":173365.29175599999,"N_COORD97":2534250.0375000001,"ADDRESS":"中洲３８３號之１","OBJECTID":645422},"geometry":{"x":173365.29175600037,"y":2534250.0374990012}},{"attributes":{"ID":645450,"DIS_CODE":0,"TOWNNAME":"善化區","LI":"小新里","LIN":"11鄰","STREET":"陽光北一路","SECT":" ","MAREA":" ","LANE":" ","ALLEY":" ","HOUSE_NO":"１９３號","E_COORD97":178836.76457299999,"N_COORD97":2557456.4728899999,"ADDRESS":"陽光北一路１９３號","OBJECTID":645423},"geometry":{"x":178836.76457300037,"y":2557456.4728930015}},{"attributes":{"ID":645451,"DIS_CODE":0,"TOWNNAME":"東山區","LI":"高原里","LIN":"12鄰","STREET":" ","SECT":" ","MAREA":"高原","LANE":" ","ALLEY":" ","HOUSE_NO":"１１０號之４","E_COORD97":200927.09646999999,"N_COORD97":2576715.92643,"ADDRESS":"高原１１０號之４","OBJECTID":645424},"geometry":{"x":200927.09647000115,"y":2576715.9264300019}},{"attributes":{"ID":645452,"DIS_CODE":0,"TOWNNAME":"新營區","LI":"埤寮里","LIN":"3鄰","STREET":" ","SECT":" ","MAREA":"許丑","LANE":" ","ALLEY":" ","HOUSE_NO":"３２號","E_COORD97":179862.874756,"N_COORD97":2581007.4105799999,"ADDRESS":"許丑３２號","OBJECTID":645425},"geometry":{"x":179862.874756,"y":2581007.4105820023}},{"attributes":{"ID":645453,"DIS_CODE":0,"TOWNNAME":"善化區","LI":"小新里","LIN":"11鄰","STREET":"陽光北一路","SECT":" ","MAREA":" ","LANE":" ","ALLEY":" ","HOUSE_NO":"１９７號","E_COORD97":178836.97638599999,"N_COORD97":2557468.4320499999,"ADDRESS":"陽光北一路１９７號","OBJECTID":645426},"geometry":{"x":178836.9763860004,"y":2557468.4320530035}},{"attributes":{"ID":645454,"DIS_CODE":0,"TOWNNAME":"善化區","LI":"小新里","LIN":"11鄰","STREET":"陽光北一路","SECT":" ","MAREA":" ","LANE":" ","ALLEY":" ","HOUSE_NO":"１９９號","E_COORD97":178837.188199,"N_COORD97":2557474.04122,"ADDRESS":"陽光北一路１９９號","OBJECTID":645427},"geometry":{"x":178837.18819900043,"y":2557474.0412160009}},{"attributes":{"ID":645455,"DIS_CODE":0,"TOWNNAME":"善化區","LI":"小新里","LIN":"11鄰","STREET":"陽光北一路","SECT":" ","MAREA":" ","LANE":" ","ALLEY":" ","HOUSE_NO":"２０１號","E_COORD97":178837.50591800001,"N_COORD97":2557479.7562099998,"ADDRESS":"陽光北一路２０１號","OBJECTID":645428},"geometry":{"x":178837.50591800082,"y":2557479.756213}},{"attributes":{"ID":645456,"DIS_CODE":0,"TOWNNAME":"善化區","LI":"小新里","LIN":"11鄰","STREET":"陽光北一路","SECT":" ","MAREA":" ","LANE":" ","ALLEY":" ","HOUSE_NO":"２０３號","E_COORD97":178837.611825,"N_COORD97":2557485.1537100002,"ADDRESS":"陽光北一路２０３號","OBJECTID":645429},"geometry":{"x":178837.61182499956,"y":2557485.1537100021}},{"attributes":{"ID":645457,"DIS_CODE":0,"TOWNNAME":"善化區","LI":"小新里","LIN":"11鄰","STREET":"陽光北一路","SECT":" ","MAREA":" ","LANE":" ","ALLEY":" ","HOUSE_NO":"２０５號","E_COORD97":178837.823638,"N_COORD97":2557490.5512100002,"ADDRESS":"陽光北一路２０５號","OBJECTID":645430},"geometry":{"x":178837.82363799959,"y":2557490.5512080025}},{"attributes":{"ID":645458,"DIS_CODE":0,"TOWNNAME":"善化區","LI":"小新里","LIN":"11鄰","STREET":"陽光北一路","SECT":" ","MAREA":" ","LANE":" ","ALLEY":" ","HOUSE_NO":"２０７號","E_COORD97":178838.14135699999,"N_COORD97":2557496.1603700002,"ADDRESS":"陽光北一路２０７號","OBJECTID":645431},"geometry":{"x":178838.14135699999,"y":2557496.1603710018}},{"attributes":{"ID":645459,"DIS_CODE":0,"TOWNNAME":"善化區","LI":"小新里","LIN":"11鄰","STREET":"陽光北一路","SECT":" ","MAREA":" ","LANE":" ","ALLEY":" ","HOUSE_NO":"２１１號","E_COORD97":178838.247263,"N_COORD97":2557508.3311999999,"ADDRESS":"陽光北一路２１１號","OBJECTID":645432},"geometry":{"x":178838.24726300128,"y":2557508.3311979994}},{"attributes":{"ID":645460,"DIS_CODE":0,"TOWNNAME":"仁德區","LI":"中洲里","LIN":"15鄰","STREET":" ","SECT":" ","MAREA":"中洲","LANE":" ","ALLEY":" ","HOUSE_NO":"３８６號","E_COORD97":173352.579925,"N_COORD97":2534271.4158200002,"ADDRESS":"中洲３８６號","OBJECTID":645433},"geometry":{"x":173352.57992499974,"y":2534271.4158210009}},{"attributes":{"ID":645461,"DIS_CODE":0,"TOWNNAME":"善化區","LI":"小新里","LIN":"11鄰","STREET":"陽光北一路","SECT":" ","MAREA":" ","LANE":" ","ALLEY":" ","HOUSE_NO":"２１３號","E_COORD97":178838.56498299999,"N_COORD97":2557514.15203,"ADDRESS":"陽光北一路２１３號","OBJECTID":645434},"geometry":{"x":178838.56498300098,"y":2557514.152028}},{"attributes":{"ID":645462,"DIS_CODE":0,"TOWNNAME":"善化區","LI":"小新里","LIN":"11鄰","STREET":"陽光北一路","SECT":" ","MAREA":" ","LANE":" ","ALLEY":" ","HOUSE_NO":"２１５號","E_COORD97":178839.07518099999,"N_COORD97":2557519.7627300001,"ADDRESS":"陽光北一路２１５號","OBJECTID":645435},"geometry":{"x":178839.07518100087,"y":2557519.7627310026}},{"attributes":{"ID":645463,"DIS_CODE":0,"TOWNNAME":"善化區","LI":"小新里","LIN":"11鄰","STREET":"陽光北一路","SECT":" ","MAREA":" ","LANE":"２０９巷","ALLEY":" ","HOUSE_NO":"１號","E_COORD97":178819.27067999999,"N_COORD97":2557499.2310799998,"ADDRESS":"陽光北一路２０９巷１號","OBJECTID":645436},"geometry":{"x":178819.27068000101,"y":2557499.231075}},{"attributes":{"ID":645464,"DIS_CODE":0,"TOWNNAME":"仁德區","LI":"太子里","LIN":"44鄰","STREET":"太子路","SECT":" ","MAREA":" ","LANE":"１０１巷","ALLEY":" ","HOUSE_NO":"２６號","E_COORD97":174886.484968,"N_COORD97":2543403.7918699998,"ADDRESS":"太子路１０１巷２６號","OBJECTID":645437},"geometry":{"x":174886.48496800102,"y":2543403.7918720003}},{"attributes":{"ID":645465,"DIS_CODE":0,"TOWNNAME":"仁德區","LI":"仁德里","LIN":"44鄰","STREET":"太子路","SECT":" ","MAREA":" ","LANE":"１０１巷","ALLEY":" ","HOUSE_NO":"８號","E_COORD97":174876.31991200001,"N_COORD97":2543468.1384999999,"ADDRESS":"太子路１０１巷８號","OBJECTID":645438},"geometry":{"x":174876.31991200149,"y":2543468.1385040004}},{"attributes":{"ID":645466,"DIS_CODE":0,"TOWNNAME":"歸仁區","LI":"辜厝里","LIN":"34鄰","STREET":"大吉二街","SECT":" ","MAREA":" ","LANE":"２６巷","ALLEY":" ","HOUSE_NO":"４２號","E_COORD97":177262.85325099999,"N_COORD97":2540474.9411200001,"ADDRESS":"大吉二街２６巷４２號","OBJECTID":645439},"geometry":{"x":177262.85325100087,"y":2540474.9411210027}},{"attributes":{"ID":645467,"DIS_CODE":0,"TOWNNAME":"永康區","LI":"南灣里","LIN":"13鄰","STREET":"大灣路","SECT":" ","MAREA":" ","LANE":" ","ALLEY":" ","HOUSE_NO":"５５２號","E_COORD97":174652.06834500001,"N_COORD97":2544743.6460600002,"ADDRESS":"大灣路５５２號","OBJECTID":645440},"geometry":{"x":174652.06834500097,"y":2544743.6460600048}},{"attributes":{"ID":645468,"DIS_CODE":0,"TOWNNAME":"善化區","LI":"小新里","LIN":"11鄰","STREET":"陽光北一路","SECT":" ","MAREA":" ","LANE":"２０９巷","ALLEY":" ","HOUSE_NO":"３號","E_COORD97":178813.55173400001,"N_COORD97":2557499.2310799998,"ADDRESS":"陽光北一路２０９巷３號","OBJECTID":645441},"geometry":{"x":178813.55173400231,"y":2557499.231075}},{"attributes":{"ID":645469,"DIS_CODE":0,"TOWNNAME":"安南區","LI":"溪頂里","LIN":"22鄰","STREET":"郡安路","SECT":"四段","MAREA":" ","LANE":"２５３巷","ALLEY":" ","HOUSE_NO":"１號","E_COORD97":168698.369982,"N_COORD97":2547616.0222299998,"ADDRESS":"郡安路四段２５３巷１號","OBJECTID":645442},"geometry":{"x":168698.36998200137,"y":2547616.0222320035}},{"attributes":{"ID":645470,"DIS_CODE":0,"TOWNNAME":"善化區","LI":"小新里","LIN":"11鄰","STREET":"陽光北一路","SECT":" ","MAREA":" ","LANE":"２０９巷","ALLEY":" ","HOUSE_NO":"５號","E_COORD97":178808.256413,"N_COORD97":2557499.5485700001,"ADDRESS":"陽光北一路２０９巷５號","OBJECTID":645443},"geometry":{"x":178808.2564129997,"y":2557499.548574999}},{"attributes":{"ID":645471,"DIS_CODE":0,"TOWNNAME":"善化區","LI":"小新里","LIN":"11鄰","STREET":"陽光北一路","SECT":" ","MAREA":" ","LANE":"２０９巷","ALLEY":" ","HOUSE_NO":"７號","E_COORD97":178802.74927900001,"N_COORD97":2557499.4427399999,"ADDRESS":"陽光北一路２０９巷７號","OBJECTID":645444},"geometry":{"x":178802.74927899987,"y":2557499.4427420013}},{"attributes":{"ID":645472,"DIS_CODE":0,"TOWNNAME":"善化區","LI":"小新里","LIN":"11鄰","STREET":"陽光北一路","SECT":" ","MAREA":" ","LANE":"２０９巷","ALLEY":" ","HOUSE_NO":"９號","E_COORD97":178797.34805100001,"N_COORD97":2557499.65441,"ADDRESS":"陽光北一路２０９巷９號","OBJECTID":645445},"geometry":{"x":178797.34805100039,"y":2557499.6544080041}},{"attributes":{"ID":645473,"DIS_CODE":0,"TOWNNAME":"善化區","LI":"小新里","LIN":"11鄰","STREET":"陽光北一路","SECT":" ","MAREA":" ","LANE":"２０９巷","ALLEY":" ","HOUSE_NO":"１１號","E_COORD97":178791.629105,"N_COORD97":2557499.7602400002,"ADDRESS":"陽光北一路２０９巷１１號","OBJECTID":645446},"geometry":{"x":178791.62910499889,"y":2557499.760241}},{"attributes":{"ID":645474,"DIS_CODE":0,"TOWNNAME":"善化區","LI":"小新里","LIN":"11鄰","STREET":"陽光北一路","SECT":" ","MAREA":" ","LANE":"２０９巷","ALLEY":" ","HOUSE_NO":"１３號","E_COORD97":178786.227877,"N_COORD97":2557500.0777400001,"ADDRESS":"陽光北一路２０９巷１３號","OBJECTID":645447},"geometry":{"x":178786.22787700035,"y":2557500.0777410027}},{"attributes":{"ID":645475,"DIS_CODE":0,"TOWNNAME":"善化區","LI":"小新里","LIN":"11鄰","STREET":"陽光北一路","SECT":" ","MAREA":" ","LANE":"２０９巷","ALLEY":" ","HOUSE_NO":"１５號","E_COORD97":178780.93255600001,"N_COORD97":2557500.39524,"ADDRESS":"陽光北一路２０９巷１５號","OBJECTID":645448},"geometry":{"x":178780.93255600054,"y":2557500.3952409998}},{"attributes":{"ID":645476,"DIS_CODE":0,"TOWNNAME":"善化區","LI":"小新里","LIN":"11鄰","STREET":"陽光北一路","SECT":" ","MAREA":" ","LANE":"２０９巷","ALLEY":" ","HOUSE_NO":"１７號","E_COORD97":178775.31951599999,"N_COORD97":2557500.5010700002,"ADDRESS":"陽光北一路２０９巷１７號","OBJECTID":645449},"geometry":{"x":178775.31951600127,"y":2557500.5010740012}},{"attributes":{"ID":645477,"DIS_CODE":0,"TOWNNAME":"仁德區","LI":"上崙里","LIN":"1鄰","STREET":"德崙路","SECT":" ","MAREA":" ","LANE":"７７巷","ALLEY":" ","HOUSE_NO":"９０號一樓之１","E_COORD97":173592.45392299999,"N_COORD97":2538420.9513400001,"ADDRESS":"德崙路７７巷９０號一樓之１","OBJECTID":645450},"geometry":{"x":173592.45392300002,"y":2538420.9513390008}},{"attributes":{"ID":645478,"DIS_CODE":0,"TOWNNAME":"善化區","LI":"小新里","LIN":"11鄰","STREET":"陽光北一路","SECT":" ","MAREA":" ","LANE":"２０９巷","ALLEY":" ","HOUSE_NO":"１９號","E_COORD97":178769.91828799999,"N_COORD97":2557500.6069100001,"ADDRESS":"陽光北一路２０９巷１９號","OBJECTID":645451},"geometry":{"x":178769.91828799993,"y":2557500.606908001}},{"attributes":{"ID":645479,"DIS_CODE":0,"TOWNNAME":"安南區","LI":"溪頂里","LIN":"22鄰","STREET":"郡安路","SECT":"四段","MAREA":" ","LANE":"２５３巷","ALLEY":" ","HOUSE_NO":"３號","E_COORD97":168704.72414499999,"N_COORD97":2547616.8689000001,"ADDRESS":"郡安路四段２５３巷３號","OBJECTID":645452},"geometry":{"x":168704.72414499987,"y":2547616.8688989989}},{"attributes":{"ID":645480,"DIS_CODE":0,"TOWNNAME":"善化區","LI":"小新里","LIN":"11鄰","STREET":"陽光北一路","SECT":" ","MAREA":" ","LANE":"２０９巷","ALLEY":" ","HOUSE_NO":"２１號","E_COORD97":178764.411154,"N_COORD97":2557500.7127399999,"ADDRESS":"陽光北一路２０９巷２１號","OBJECTID":645453},"geometry":{"x":178764.41115400009,"y":2557500.7127410024}},{"attributes":{"ID":645481,"DIS_CODE":0,"TOWNNAME":"仁德區","LI":"上崙里","LIN":"1鄰","STREET":"德崙路","SECT":" ","MAREA":" ","LANE":"７７巷","ALLEY":" ","HOUSE_NO":"９０號一樓之２","E_COORD97":173592.45392299999,"N_COORD97":2538420.9513400001,"ADDRESS":"德崙路７７巷９０號一樓之２","OBJECTID":645454},"geometry":{"x":173592.45392300002,"y":2538420.9513390008}},{"attributes":{"ID":645482,"DIS_CODE":0,"TOWNNAME":"善化區","LI":"小新里","LIN":"11鄰","STREET":"陽光北一路","SECT":" ","MAREA":" ","LANE":"２０９巷","ALLEY":" ","HOUSE_NO":"２３號","E_COORD97":178758.798114,"N_COORD97":2557500.8185700001,"ADDRESS":"陽光北一路２０９巷２３號","OBJECTID":645455},"geometry":{"x":178758.79811399989,"y":2557500.818574002}},{"attributes":{"ID":645483,"DIS_CODE":0,"TOWNNAME":"仁德區","LI":"上崙里","LIN":"1鄰","STREET":"德崙路","SECT":" ","MAREA":" ","LANE":"７７巷","ALLEY":" ","HOUSE_NO":"９０號一樓之３","E_COORD97":173592.45392299999,"N_COORD97":2538420.9513400001,"ADDRESS":"德崙路７７巷９０號一樓之３","OBJECTID":645456},"geometry":{"x":173592.45392300002,"y":2538420.9513390008}},{"attributes":{"ID":645484,"DIS_CODE":0,"TOWNNAME":"善化區","LI":"小新里","LIN":"11鄰","STREET":"陽光北一路","SECT":" ","MAREA":" ","LANE":"２０９巷","ALLEY":" ","HOUSE_NO":"２５號","E_COORD97":178753.18507400001,"N_COORD97":2557501.2419099999,"ADDRESS":"陽光北一路２０９巷２５號","OBJECTID":645457},"geometry":{"x":178753.18507399969,"y":2557501.2419070005}},{"attributes":{"ID":645485,"DIS_CODE":0,"TOWNNAME":"後壁區","LI":"新嘉里","LIN":"15鄰","STREET":" ","SECT":" ","MAREA":"白沙屯","LANE":" ","ALLEY":" ","HOUSE_NO":"１６０號之１０","E_COORD97":179057.209497,"N_COORD97":2585370.6487400001,"ADDRESS":"白沙屯１６０號之１０","OBJECTID":645458},"geometry":{"x":179057.20949700009,"y":2585370.6487430017}},{"attributes":{"ID":645486,"DIS_CODE":0,"TOWNNAME":"仁德區","LI":"上崙里","LIN":"1鄰","STREET":"德崙路","SECT":" ","MAREA":" ","LANE":"７７巷","ALLEY":" ","HOUSE_NO":"９０號一樓之５","E_COORD97":173592.45392299999,"N_COORD97":2538420.9513400001,"ADDRESS":"德崙路７７巷９０號一樓之５","OBJECTID":645459},"geometry":{"x":173592.45392300002,"y":2538420.9513390008}},{"attributes":{"ID":645487,"DIS_CODE":0,"TOWNNAME":"安南區","LI":"溪頂里","LIN":"22鄰","STREET":"郡安路","SECT":"四段","MAREA":" ","LANE":"２５３巷","ALLEY":" ","HOUSE_NO":"５號","E_COORD97":168705.994978,"N_COORD97":2547600.9939100002,"ADDRESS":"郡安路四段２５３巷５號","OBJECTID":645460},"geometry":{"x":168705.99497800041,"y":2547600.9939070027}},{"attributes":{"ID":645488,"DIS_CODE":0,"TOWNNAME":"善化區","LI":"小新里","LIN":"11鄰","STREET":"陽光北一路","SECT":" ","MAREA":" ","LANE":"２０９巷","ALLEY":" ","HOUSE_NO":"２７號","E_COORD97":178747.889753,"N_COORD97":2557501.2419099999,"ADDRESS":"陽光北一路２０９巷２７號","OBJECTID":645461},"geometry":{"x":178747.88975299988,"y":2557501.2419070005}},{"attributes":{"ID":645489,"DIS_CODE":0,"TOWNNAME":"仁德區","LI":"上崙里","LIN":"1鄰","STREET":"德崙路","SECT":" ","MAREA":" ","LANE":"７７巷","ALLEY":" ","HOUSE_NO":"９０號二樓之２","E_COORD97":173592.45392299999,"N_COORD97":2538420.9513400001,"ADDRESS":"德崙路７７巷９０號二樓之２","OBJECTID":645462},"geometry":{"x":173592.45392300002,"y":2538420.9513390008}},{"attributes":{"ID":645490,"DIS_CODE":0,"TOWNNAME":"仁德區","LI":"上崙里","LIN":"1鄰","STREET":"德崙路","SECT":" ","MAREA":" ","LANE":"７７巷","ALLEY":" ","HOUSE_NO":"９０號二樓之３","E_COORD97":173592.45392299999,"N_COORD97":2538420.9513400001,"ADDRESS":"德崙路７７巷９０號二樓之３","OBJECTID":645463},"geometry":{"x":173592.45392300002,"y":2538420.9513390008}},{"attributes":{"ID":645491,"DIS_CODE":0,"TOWNNAME":"善化區","LI":"小新里","LIN":"11鄰","STREET":"陽光北一路","SECT":" ","MAREA":" ","LANE":"２０９巷","ALLEY":" ","HOUSE_NO":"２９號","E_COORD97":178742.27671199999,"N_COORD97":2557501.7710699998,"ADDRESS":"陽光北一路２０９巷２９號","OBJECTID":645464},"geometry":{"x":178742.2767120013,"y":2557501.7710740007}},{"attributes":{"ID":645492,"DIS_CODE":0,"TOWNNAME":"善化區","LI":"小新里","LIN":"11鄰","STREET":"陽光北一路","SECT":" ","MAREA":" ","LANE":"２０９巷","ALLEY":" ","HOUSE_NO":"３１號","E_COORD97":178734.33373099999,"N_COORD97":2557501.66524,"ADDRESS":"陽光北一路２０９巷３１號","OBJECTID":645465},"geometry":{"x":178734.33373100217,"y":2557501.6652400047}},{"attributes":{"ID":645493,"DIS_CODE":0,"TOWNNAME":"仁德區","LI":"上崙里","LIN":"1鄰","STREET":"德崙路","SECT":" ","MAREA":" ","LANE":"７７巷","ALLEY":" ","HOUSE_NO":"９０號二樓之５","E_COORD97":173592.45392299999,"N_COORD97":2538420.9513400001,"ADDRESS":"德崙路７７巷９０號二樓之５","OBJECTID":645466},"geometry":{"x":173592.45392300002,"y":2538420.9513390008}},{"attributes":{"ID":645494,"DIS_CODE":0,"TOWNNAME":"善化區","LI":"小新里","LIN":"11鄰","STREET":"陽光北一路","SECT":" ","MAREA":" ","LANE":"２０９巷","ALLEY":" ","HOUSE_NO":"２號","E_COORD97":178819.164774,"N_COORD97":2557507.1685700002,"ADDRESS":"陽光北一路２０９巷２號","OBJECTID":645467},"geometry":{"x":178819.16477399971,"y":2557507.1685710009}},{"attributes":{"ID":645495,"DIS_CODE":0,"TOWNNAME":"善化區","LI":"小新里","LIN":"11鄰","STREET":"陽光北一路","SECT":" ","MAREA":" ","LANE":"２０９巷","ALLEY":" ","HOUSE_NO":"６號","E_COORD97":178813.975359,"N_COORD97":2557507.3802399999,"ADDRESS":"陽光北一路２０９巷６號","OBJECTID":645468},"geometry":{"x":178813.9753590012,"y":2557507.3802370038}},{"attributes":{"ID":645496,"DIS_CODE":0,"TOWNNAME":"仁德區","LI":"上崙里","LIN":"1鄰","STREET":"德崙路","SECT":" ","MAREA":" ","LANE":"７７巷","ALLEY":" ","HOUSE_NO":"９０號二樓之６","E_COORD97":173592.45392299999,"N_COORD97":2538420.9513400001,"ADDRESS":"德崙路７７巷９０號二樓之６","OBJECTID":645469},"geometry":{"x":173592.45392300002,"y":2538420.9513390008}},{"attributes":{"ID":645497,"DIS_CODE":0,"TOWNNAME":"善化區","LI":"小新里","LIN":"11鄰","STREET":"陽光北一路","SECT":" ","MAREA":" ","LANE":"２０９巷","ALLEY":" ","HOUSE_NO":"８號","E_COORD97":178808.36231900001,"N_COORD97":2557507.3802399999,"ADDRESS":"陽光北一路２０９巷８號","OBJECTID":645470},"geometry":{"x":178808.36231900193,"y":2557507.3802370038}},{"attributes":{"ID":645498,"DIS_CODE":0,"TOWNNAME":"善化區","LI":"小新里","LIN":"11鄰","STREET":"陽光北一路","SECT":" ","MAREA":" ","LANE":"２０９巷","ALLEY":" ","HOUSE_NO":"１０號","E_COORD97":178802.74927900001,"N_COORD97":2557507.80357,"ADDRESS":"陽光北一路２０９巷１０號","OBJECTID":645471},"geometry":{"x":178802.74927899987,"y":2557507.8035700023}},{"attributes":{"ID":645499,"DIS_CODE":0,"TOWNNAME":"仁德區","LI":"上崙里","LIN":"1鄰","STREET":"德崙路","SECT":" ","MAREA":" ","LANE":"７７巷","ALLEY":" ","HOUSE_NO":"９０號三樓之１","E_COORD97":173592.45392299999,"N_COORD97":2538420.9513400001,"ADDRESS":"德崙路７７巷９０號三樓之１","OBJECTID":645472},"geometry":{"x":173592.45392300002,"y":2538420.9513390008}},{"attributes":{"ID":645500,"DIS_CODE":0,"TOWNNAME":"仁德區","LI":"上崙里","LIN":"1鄰","STREET":"德崙路","SECT":" ","MAREA":" ","LANE":"７７巷","ALLEY":" ","HOUSE_NO":"９０號三樓之２","E_COORD97":173592.45392299999,"N_COORD97":2538420.9513400001,"ADDRESS":"德崙路７７巷９０號三樓之２","OBJECTID":645473},"geometry":{"x":173592.45392300002,"y":2538420.9513390008}},{"attributes":{"ID":645501,"DIS_CODE":0,"TOWNNAME":"善化區","LI":"小新里","LIN":"11鄰","STREET":"陽光北一路","SECT":" ","MAREA":" ","LANE":"２０９巷","ALLEY":" ","HOUSE_NO":"１２號","E_COORD97":178797.34805100001,"N_COORD97":2557507.6977400002,"ADDRESS":"陽光北一路２０９巷１２號","OBJECTID":645474},"geometry":{"x":178797.34805100039,"y":2557507.6977370009}},{"attributes":{"ID":645502,"DIS_CODE":0,"TOWNNAME":"善化區","LI":"小新里","LIN":"11鄰","STREET":"陽光北一路","SECT":" ","MAREA":" ","LANE":"２０９巷","ALLEY":" ","HOUSE_NO":"１６號","E_COORD97":178791.84091699999,"N_COORD97":2557508.0152400001,"ADDRESS":"陽光北一路２０９巷１６號","OBJECTID":645475},"geometry":{"x":178791.84091700055,"y":2557508.0152370036}},{"attributes":{"ID":645503,"DIS_CODE":0,"TOWNNAME":"仁德區","LI":"上崙里","LIN":"1鄰","STREET":"德崙路","SECT":" ","MAREA":" ","LANE":"７７巷","ALLEY":" ","HOUSE_NO":"９０號三樓之３","E_COORD97":173592.45392299999,"N_COORD97":2538420.9513400001,"ADDRESS":"德崙路７７巷９０號三樓之３","OBJECTID":645476},"geometry":{"x":173592.45392300002,"y":2538420.9513390008}},{"attributes":{"ID":645504,"DIS_CODE":0,"TOWNNAME":"善化區","LI":"小新里","LIN":"11鄰","STREET":"陽光北一路","SECT":" ","MAREA":" ","LANE":"２０９巷","ALLEY":" ","HOUSE_NO":"１８號","E_COORD97":178786.43969,"N_COORD97":2557507.9093999998,"ADDRESS":"陽光北一路２０９巷１８號","OBJECTID":645477},"geometry":{"x":178786.43969000131,"y":2557507.9094040021}},{"attributes":{"ID":645505,"DIS_CODE":0,"TOWNNAME":"仁德區","LI":"上崙里","LIN":"1鄰","STREET":"德崙路","SECT":" ","MAREA":" ","LANE":"７７巷","ALLEY":" ","HOUSE_NO":"９０號三樓之４","E_COORD97":173592.45392299999,"N_COORD97":2538420.9513400001,"ADDRESS":"德崙路７７巷９０號三樓之４","OBJECTID":645478},"geometry":{"x":173592.45392300002,"y":2538420.9513390008}},{"attributes":{"ID":645506,"DIS_CODE":0,"TOWNNAME":"善化區","LI":"小新里","LIN":"11鄰","STREET":"陽光北一路","SECT":" ","MAREA":" ","LANE":"２０９巷","ALLEY":" ","HOUSE_NO":"２０號","E_COORD97":178780.82665,"N_COORD97":2557508.33274,"ADDRESS":"陽光北一路２０９巷２０號","OBJECTID":645479},"geometry":{"x":178780.82665000111,"y":2557508.3327370007}},{"attributes":{"ID":645507,"DIS_CODE":0,"TOWNNAME":"仁德區","LI":"上崙里","LIN":"1鄰","STREET":"德崙路","SECT":" ","MAREA":" ","LANE":"７７巷","ALLEY":" ","HOUSE_NO":"９０號三樓之５","E_COORD97":173592.45392299999,"N_COORD97":2538420.9513400001,"ADDRESS":"德崙路７７巷９０號三樓之５","OBJECTID":645480},"geometry":{"x":173592.45392300002,"y":2538420.9513390008}},{"attributes":{"ID":645508,"DIS_CODE":0,"TOWNNAME":"善化區","LI":"小新里","LIN":"11鄰","STREET":"陽光北一路","SECT":" ","MAREA":" ","LANE":"２０９巷","ALLEY":" ","HOUSE_NO":"２２號","E_COORD97":178775.31951599999,"N_COORD97":2557508.6502399999,"ADDRESS":"陽光北一路２０９巷２２號","OBJECTID":645481},"geometry":{"x":178775.31951600127,"y":2557508.6502370033}},{"attributes":{"ID":645509,"DIS_CODE":0,"TOWNNAME":"仁德區","LI":"上崙里","LIN":"1鄰","STREET":"德崙路","SECT":" ","MAREA":" ","LANE":"７７巷","ALLEY":" ","HOUSE_NO":"９０號三樓之６","E_COORD97":173592.45392299999,"N_COORD97":2538420.9513400001,"ADDRESS":"德崙路７７巷９０號三樓之６","OBJECTID":645482},"geometry":{"x":173592.45392300002,"y":2538420.9513390008}},{"attributes":{"ID":645510,"DIS_CODE":0,"TOWNNAME":"善化區","LI":"小新里","LIN":"11鄰","STREET":"陽光北一路","SECT":" ","MAREA":" ","LANE":"２０９巷","ALLEY":" ","HOUSE_NO":"２６號","E_COORD97":178769.812382,"N_COORD97":2557509.07357,"ADDRESS":"陽光北一路２０９巷２６號","OBJECTID":645483},"geometry":{"x":178769.8123820005,"y":2557509.0735700019}},{"attributes":{"ID":645511,"DIS_CODE":0,"TOWNNAME":"東山區","LI":"高原里","LIN":"1鄰","STREET":" ","SECT":" ","MAREA":"高原","LANE":" ","ALLEY":" ","HOUSE_NO":"１１３號之２","E_COORD97":195820.03315999999,"N_COORD97":2575422.8025500001,"ADDRESS":"高原１１３號之２","OBJECTID":645484},"geometry":{"x":195820.03316000104,"y":2575422.8025499992}},{"attributes":{"ID":645512,"DIS_CODE":0,"TOWNNAME":"善化區","LI":"小新里","LIN":"11鄰","STREET":"陽光北一路","SECT":" ","MAREA":" ","LANE":"２０９巷","ALLEY":" ","HOUSE_NO":"２８號","E_COORD97":178764.411154,"N_COORD97":2557509.2852400001,"ADDRESS":"陽光北一路２０９巷２８號","OBJECTID":645485},"geometry":{"x":178764.41115400009,"y":2557509.2852360029}},{"attributes":{"ID":645513,"DIS_CODE":0,"TOWNNAME":"仁德區","LI":"太子里","LIN":"45鄰","STREET":"太子一街","SECT":" ","MAREA":" ","LANE":" ","ALLEY":" ","HOUSE_NO":"２５號","E_COORD97":174828.45944100001,"N_COORD97":2543364.7393899998,"ADDRESS":"太子一街２５號","OBJECTID":645486},"geometry":{"x":174828.45944099966,"y":2543364.7393929996}},{"attributes":{"ID":645514,"DIS_CODE":0,"TOWNNAME":"善化區","LI":"小新里","LIN":"11鄰","STREET":"陽光北一路","SECT":" ","MAREA":" ","LANE":"２０９巷","ALLEY":" ","HOUSE_NO":"３０號","E_COORD97":178759.00992700001,"N_COORD97":2557509.1793999998,"ADDRESS":"陽光北一路２０９巷３０號","OBJECTID":645487},"geometry":{"x":178759.00992699992,"y":2557509.1794030014}},{"attributes":{"ID":645515,"DIS_CODE":0,"TOWNNAME":"仁德區","LI":"上崙里","LIN":"1鄰","STREET":"德崙路","SECT":" ","MAREA":" ","LANE":"７７巷","ALLEY":" ","HOUSE_NO":"９０號五樓之１","E_COORD97":173592.45392299999,"N_COORD97":2538420.9513400001,"ADDRESS":"德崙路７７巷９０號五樓之１","OBJECTID":645488},"geometry":{"x":173592.45392300002,"y":2538420.9513390008}},{"attributes":{"ID":645516,"DIS_CODE":0,"TOWNNAME":"善化區","LI":"小新里","LIN":"11鄰","STREET":"陽光北一路","SECT":" ","MAREA":" ","LANE":"２０９巷","ALLEY":" ","HOUSE_NO":"３２號","E_COORD97":178753.50279299999,"N_COORD97":2557509.3910699999,"ADDRESS":"陽光北一路２０９巷３２號","OBJECTID":645489},"geometry":{"x":178753.50279300008,"y":2557509.3910690043}},{"attributes":{"ID":645517,"DIS_CODE":0,"TOWNNAME":"東山區","LI":"高原里","LIN":"1鄰","STREET":" ","SECT":" ","MAREA":"高原","LANE":" ","ALLEY":" ","HOUSE_NO":"１１３號之８","E_COORD97":195845.45434,"N_COORD97":2575455.6108599999,"ADDRESS":"高原１１３號之８","OBJECTID":645490},"geometry":{"x":195845.45434000157,"y":2575455.6108599994}},{"attributes":{"ID":645518,"DIS_CODE":0,"TOWNNAME":"仁德區","LI":"上崙里","LIN":"1鄰","STREET":"德崙路","SECT":" ","MAREA":" ","LANE":"７７巷","ALLEY":" ","HOUSE_NO":"９０號五樓之２","E_COORD97":173592.45392299999,"N_COORD97":2538420.9513400001,"ADDRESS":"德崙路７７巷９０號五樓之２","OBJECTID":645491},"geometry":{"x":173592.45392300002,"y":2538420.9513390008}},{"attributes":{"ID":645519,"DIS_CODE":0,"TOWNNAME":"善化區","LI":"小新里","LIN":"11鄰","STREET":"陽光北一路","SECT":" ","MAREA":" ","LANE":"２０９巷","ALLEY":" ","HOUSE_NO":"３６號","E_COORD97":178747.99565900001,"N_COORD97":2557509.8144,"ADDRESS":"陽光北一路２０９巷３６號","OBJECTID":645492},"geometry":{"x":178747.9956590021,"y":2557509.8144030012}},{"attributes":{"ID":645520,"DIS_CODE":0,"TOWNNAME":"仁德區","LI":"上崙里","LIN":"1鄰","STREET":"德崙路","SECT":" ","MAREA":" ","LANE":"７７巷","ALLEY":" ","HOUSE_NO":"９０號五樓之３","E_COORD97":173592.45392299999,"N_COORD97":2538420.9513400001,"ADDRESS":"德崙路７７巷９０號五樓之３","OBJECTID":645493},"geometry":{"x":173592.45392300002,"y":2538420.9513390008}},{"attributes":{"ID":645521,"DIS_CODE":0,"TOWNNAME":"善化區","LI":"小新里","LIN":"11鄰","STREET":"陽光北一路","SECT":" ","MAREA":" ","LANE":"２０９巷","ALLEY":" ","HOUSE_NO":"３８號","E_COORD97":178738.25226800001,"N_COORD97":2557510.1318999999,"ADDRESS":"陽光北一路２０９巷３８號","OBJECTID":645494},"geometry":{"x":178738.25226799957,"y":2557510.1319019999}},{"attributes":{"ID":645522,"DIS_CODE":0,"TOWNNAME":"仁德區","LI":"上崙里","LIN":"1鄰","STREET":"德崙路","SECT":" ","MAREA":" ","LANE":"７７巷","ALLEY":" ","HOUSE_NO":"９０號五樓之６","E_COORD97":173592.45392299999,"N_COORD97":2538420.9513400001,"ADDRESS":"德崙路７７巷９０號五樓之６","OBJECTID":645495},"geometry":{"x":173592.45392300002,"y":2538420.9513390008}},{"attributes":{"ID":645523,"DIS_CODE":0,"TOWNNAME":"善化區","LI":"小新里","LIN":"11鄰","STREET":"陽光北一路","SECT":" ","MAREA":" ","LANE":"１９５巷","ALLEY":" ","HOUSE_NO":"１號","E_COORD97":178817.78799099999,"N_COORD97":2557459.9669300001,"ADDRESS":"陽光北一路１９５巷１號","OBJECTID":645496},"geometry":{"x":178817.78799100127,"y":2557459.9669300038}},{"attributes":{"ID":645524,"DIS_CODE":0,"TOWNNAME":"仁德區","LI":"上崙里","LIN":"1鄰","STREET":"德崙路","SECT":" ","MAREA":" ","LANE":"７７巷","ALLEY":" ","HOUSE_NO":"９０號四樓之１","E_COORD97":173592.45392299999,"N_COORD97":2538420.9513400001,"ADDRESS":"德崙路７７巷９０號四樓之１","OBJECTID":645497},"geometry":{"x":173592.45392300002,"y":2538420.9513390008}},{"attributes":{"ID":645525,"DIS_CODE":0,"TOWNNAME":"仁德區","LI":"上崙里","LIN":"1鄰","STREET":"德崙路","SECT":" ","MAREA":" ","LANE":"７７巷","ALLEY":" ","HOUSE_NO":"９０號四樓之２","E_COORD97":173592.45392299999,"N_COORD97":2538420.9513400001,"ADDRESS":"德崙路７７巷９０號四樓之２","OBJECTID":645498},"geometry":{"x":173592.45392300002,"y":2538420.9513390008}},{"attributes":{"ID":645526,"DIS_CODE":0,"TOWNNAME":"善化區","LI":"小新里","LIN":"11鄰","STREET":"陽光北一路","SECT":" ","MAREA":" ","LANE":"１９５巷","ALLEY":" ","HOUSE_NO":"３號","E_COORD97":178812.492669,"N_COORD97":2557459.9669300001,"ADDRESS":"陽光北一路１９５巷３號","OBJECTID":645499},"geometry":{"x":178812.49266900029,"y":2557459.9669300038}},{"attributes":{"ID":645527,"DIS_CODE":0,"TOWNNAME":"仁德區","LI":"上崙里","LIN":"1鄰","STREET":"德崙路","SECT":" ","MAREA":" ","LANE":"７７巷","ALLEY":" ","HOUSE_NO":"９０號四樓之３","E_COORD97":173592.45392299999,"N_COORD97":2538420.9513400001,"ADDRESS":"德崙路７７巷９０號四樓之３","OBJECTID":645500},"geometry":{"x":173592.45392300002,"y":2538420.9513390008}},{"attributes":{"ID":645528,"DIS_CODE":0,"TOWNNAME":"善化區","LI":"小新里","LIN":"11鄰","STREET":"陽光北一路","SECT":" ","MAREA":" ","LANE":"１９５巷","ALLEY":" ","HOUSE_NO":"５號","E_COORD97":178806.879629,"N_COORD97":2557460.28443,"ADDRESS":"陽光北一路１９５巷５號","OBJECTID":645501},"geometry":{"x":178806.87962900009,"y":2557460.2844290007}},{"attributes":{"ID":645529,"DIS_CODE":0,"TOWNNAME":"善化區","LI":"小新里","LIN":"11鄰","STREET":"陽光北一路","SECT":" ","MAREA":" ","LANE":"１９５巷","ALLEY":" ","HOUSE_NO":"７號","E_COORD97":178801.37249499999,"N_COORD97":2557460.1786000002,"ADDRESS":"陽光北一路１９５巷７號","OBJECTID":645502},"geometry":{"x":178801.37249499932,"y":2557460.1785960011}},{"attributes":{"ID":645530,"DIS_CODE":0,"TOWNNAME":"仁德區","LI":"上崙里","LIN":"1鄰","STREET":"德崙路","SECT":" ","MAREA":" ","LANE":"７７巷","ALLEY":" ","HOUSE_NO":"９０號四樓之５","E_COORD97":173592.45392299999,"N_COORD97":2538420.9513400001,"ADDRESS":"德崙路７７巷９０號四樓之５","OBJECTID":645503},"geometry":{"x":173592.45392300002,"y":2538420.9513390008}},{"attributes":{"ID":645531,"DIS_CODE":0,"TOWNNAME":"善化區","LI":"小新里","LIN":"11鄰","STREET":"陽光北一路","SECT":" ","MAREA":" ","LANE":"１９５巷","ALLEY":" ","HOUSE_NO":"９號","E_COORD97":178796.07717400001,"N_COORD97":2557460.4961000001,"ADDRESS":"陽光北一路１９５巷９號","OBJECTID":645504},"geometry":{"x":178796.0771740023,"y":2557460.4960960019}},{"attributes":{"ID":645532,"DIS_CODE":0,"TOWNNAME":"善化區","LI":"小新里","LIN":"11鄰","STREET":"陽光北一路","SECT":" ","MAREA":" ","LANE":"１９５巷","ALLEY":" ","HOUSE_NO":"１１號","E_COORD97":178790.57003999999,"N_COORD97":2557460.3902599998,"ADDRESS":"陽光北一路１９５巷１１號","OBJECTID":645505},"geometry":{"x":178790.57003999967,"y":2557460.3902630024}},{"attributes":{"ID":645533,"DIS_CODE":0,"TOWNNAME":"仁德區","LI":"上崙里","LIN":"1鄰","STREET":"德崙路","SECT":" ","MAREA":" ","LANE":"７７巷","ALLEY":" ","HOUSE_NO":"９０號四樓之６","E_COORD97":173592.45392299999,"N_COORD97":2538420.9513400001,"ADDRESS":"德崙路７７巷９０號四樓之６","OBJECTID":645506},"geometry":{"x":173592.45392300002,"y":2538420.9513390008}},{"attributes":{"ID":645534,"DIS_CODE":0,"TOWNNAME":"善化區","LI":"小新里","LIN":"11鄰","STREET":"陽光北一路","SECT":" ","MAREA":" ","LANE":"１９５巷","ALLEY":" ","HOUSE_NO":"１３號","E_COORD97":178785.06290600001,"N_COORD97":2557460.9194299998,"ADDRESS":"陽光北一路１９５巷１３號","OBJECTID":645507},"geometry":{"x":178785.06290600169,"y":2557460.9194290005}},{"attributes":{"ID":645535,"DIS_CODE":0,"TOWNNAME":"仁德區","LI":"上崙里","LIN":"1鄰","STREET":"德崙路","SECT":" ","MAREA":" ","LANE":"７７巷","ALLEY":" ","HOUSE_NO":"９０號四樓之７","E_COORD97":173592.45392299999,"N_COORD97":2538420.9513400001,"ADDRESS":"德崙路７７巷９０號四樓之７","OBJECTID":645508},"geometry":{"x":173592.45392300002,"y":2538420.9513390008}},{"attributes":{"ID":645536,"DIS_CODE":0,"TOWNNAME":"善化區","LI":"小新里","LIN":"11鄰","STREET":"陽光北一路","SECT":" ","MAREA":" ","LANE":"１９５巷","ALLEY":" ","HOUSE_NO":"１５號","E_COORD97":178779.76758499999,"N_COORD97":2557460.9194299998,"ADDRESS":"陽光北一路１９５巷１５號","OBJECTID":645509},"geometry":{"x":178779.76758500095,"y":2557460.9194290005}},{"attributes":{"ID":645537,"DIS_CODE":0,"TOWNNAME":"善化區","LI":"小新里","LIN":"11鄰","STREET":"陽光北一路","SECT":" ","MAREA":" ","LANE":"１９５巷","ALLEY":" ","HOUSE_NO":"１７號","E_COORD97":178774.04863899999,"N_COORD97":2557461.1310999999,"ADDRESS":"陽光北一路１９５巷１７號","OBJECTID":645510},"geometry":{"x":178774.04863900039,"y":2557461.1310960017}},{"attributes":{"ID":645538,"DIS_CODE":0,"TOWNNAME":"善化區","LI":"小新里","LIN":"11鄰","STREET":"陽光北一路","SECT":" ","MAREA":" ","LANE":"１９５巷","ALLEY":" ","HOUSE_NO":"１９號","E_COORD97":178768.753318,"N_COORD97":2557461.3427599999,"ADDRESS":"陽光北一路１９５巷１９號","OBJECTID":645511},"geometry":{"x":178768.75331799965,"y":2557461.342761999}},{"attributes":{"ID":645539,"DIS_CODE":0,"TOWNNAME":"善化區","LI":"小新里","LIN":"11鄰","STREET":"陽光北一路","SECT":" ","MAREA":" ","LANE":"１９５巷","ALLEY":" ","HOUSE_NO":"２１號","E_COORD97":178763.24618399999,"N_COORD97":2557461.4485999998,"ADDRESS":"陽光北一路１９５巷２１號","OBJECTID":645512},"geometry":{"x":178763.24618399981,"y":2557461.4485950004}},{"attributes":{"ID":645540,"DIS_CODE":0,"TOWNNAME":"中西區","LI":"水仙里","LIN":"11鄰","STREET":"民權路","SECT":"三段","MAREA":" ","LANE":" ","ALLEY":" ","HOUSE_NO":"６０號","E_COORD97":167806.508084,"N_COORD97":2544127.6395299998,"ADDRESS":"民權路三段６０號","OBJECTID":645513},"geometry":{"x":167806.50808400009,"y":2544127.639525}},{"attributes":{"ID":645541,"DIS_CODE":0,"TOWNNAME":"善化區","LI":"小新里","LIN":"11鄰","STREET":"陽光北一路","SECT":" ","MAREA":" ","LANE":"１９５巷","ALLEY":" ","HOUSE_NO":"２３號","E_COORD97":178757.63314300001,"N_COORD97":2557461.6602599998,"ADDRESS":"陽光北一路１９５巷２３號","OBJECTID":645514},"geometry":{"x":178757.6331430003,"y":2557461.6602620017}},{"attributes":{"ID":645542,"DIS_CODE":0,"TOWNNAME":"善化區","LI":"小新里","LIN":"11鄰","STREET":"陽光北一路","SECT":" ","MAREA":" ","LANE":"１９５巷","ALLEY":" ","HOUSE_NO":"２５號","E_COORD97":178752.23191599999,"N_COORD97":2557461.6602599998,"ADDRESS":"陽光北一路１９５巷２５號","OBJECTID":645515},"geometry":{"x":178752.23191600107,"y":2557461.6602620017}},{"attributes":{"ID":645543,"DIS_CODE":0,"TOWNNAME":"仁德區","LI":"太子里","LIN":"44鄰","STREET":"太子路","SECT":" ","MAREA":" ","LANE":" ","ALLEY":" ","HOUSE_NO":"１０３號","E_COORD97":174918.67431100001,"N_COORD97":2543523.1718100002,"ADDRESS":"太子路１０３號","OBJECTID":645516},"geometry":{"x":174918.67431099992,"y":2543523.1718080025}},{"attributes":{"ID":645544,"DIS_CODE":0,"TOWNNAME":"善化區","LI":"小新里","LIN":"11鄰","STREET":"陽光北一路","SECT":" ","MAREA":" ","LANE":"１９５巷","ALLEY":" ","HOUSE_NO":"２７號","E_COORD97":178746.512969,"N_COORD97":2557461.9777600002,"ADDRESS":"陽光北一路１９５巷２７號","OBJECTID":645517},"geometry":{"x":178746.51296900027,"y":2557461.9777620044}},{"attributes":{"ID":645545,"DIS_CODE":0,"TOWNNAME":"善化區","LI":"小新里","LIN":"11鄰","STREET":"陽光北一路","SECT":" ","MAREA":" ","LANE":"１９５巷","ALLEY":" ","HOUSE_NO":"２９號","E_COORD97":178741.11174200001,"N_COORD97":2557462.0836,"ADDRESS":"陽光北一路１９５巷２９號","OBJECTID":645518},"geometry":{"x":178741.11174200103,"y":2557462.0835950002}},{"attributes":{"ID":645546,"DIS_CODE":0,"TOWNNAME":"善化區","LI":"小新里","LIN":"11鄰","STREET":"陽光北一路","SECT":" ","MAREA":" ","LANE":"１９５巷","ALLEY":" ","HOUSE_NO":"３１號","E_COORD97":178735.498701,"N_COORD97":2557461.8719299999,"ADDRESS":"陽光北一路１９５巷３１號","OBJECTID":645519},"geometry":{"x":178735.49870099965,"y":2557461.871927999}},{"attributes":{"ID":645547,"DIS_CODE":0,"TOWNNAME":"善化區","LI":"小新里","LIN":"11鄰","STREET":"陽光北一路","SECT":" ","MAREA":" ","LANE":"１９５巷","ALLEY":" ","HOUSE_NO":"３３號","E_COORD97":178727.76753300001,"N_COORD97":2557462.4010999999,"ADDRESS":"陽光北一路１９５巷３３號","OBJECTID":645520},"geometry":{"x":178727.76753300056,"y":2557462.4010950029}},{"attributes":{"ID":645548,"DIS_CODE":0,"TOWNNAME":"善化區","LI":"小新里","LIN":"11鄰","STREET":"陽光北一路","SECT":" ","MAREA":" ","LANE":"１９５巷","ALLEY":" ","HOUSE_NO":"２號","E_COORD97":178817.99980300001,"N_COORD97":2557467.4810899999,"ADDRESS":"陽光北一路１９５巷２號","OBJECTID":645521},"geometry":{"x":178817.99980300013,"y":2557467.4810920022}},{"attributes":{"ID":645549,"DIS_CODE":0,"TOWNNAME":"善化區","LI":"小新里","LIN":"11鄰","STREET":"陽光北一路","SECT":" ","MAREA":" ","LANE":"１９５巷","ALLEY":" ","HOUSE_NO":"６號","E_COORD97":178812.59857599999,"N_COORD97":2557467.5869300002,"ADDRESS":"陽光北一路１９５巷６號","OBJECTID":645522},"geometry":{"x":178812.59857600089,"y":2557467.5869250018}},{"attributes":{"ID":645550,"DIS_CODE":0,"TOWNNAME":"善化區","LI":"小新里","LIN":"11鄰","STREET":"陽光北一路","SECT":" ","MAREA":" ","LANE":"１９５巷","ALLEY":" ","HOUSE_NO":"８號","E_COORD97":178807.19734799999,"N_COORD97":2557467.69276,"ADDRESS":"陽光北一路１９５巷８號","OBJECTID":645523},"geometry":{"x":178807.19734799955,"y":2557467.6927590035}},{"attributes":{"ID":645551,"DIS_CODE":0,"TOWNNAME":"中西區","LI":"水仙里","LIN":"11鄰","STREET":"民權路","SECT":"三段","MAREA":" ","LANE":" ","ALLEY":" ","HOUSE_NO":"４６號","E_COORD97":167825.59152399999,"N_COORD97":2544125.4170300001,"ADDRESS":"民權路三段４６號","OBJECTID":645524},"geometry":{"x":167825.59152400214,"y":2544125.417026002}},{"attributes":{"ID":645552,"DIS_CODE":0,"TOWNNAME":"善化區","LI":"小新里","LIN":"11鄰","STREET":"陽光北一路","SECT":" ","MAREA":" ","LANE":"１９５巷","ALLEY":" ","HOUSE_NO":"１０號","E_COORD97":178801.69021500001,"N_COORD97":2557467.90442,"ADDRESS":"陽光北一路１９５巷１０號","OBJECTID":645525},"geometry":{"x":178801.69021500088,"y":2557467.9044250008}},{"attributes":{"ID":645553,"DIS_CODE":0,"TOWNNAME":"善化區","LI":"小新里","LIN":"11鄰","STREET":"陽光北一路","SECT":" ","MAREA":" ","LANE":"１９５巷","ALLEY":" ","HOUSE_NO":"１２號","E_COORD97":178796.07717400001,"N_COORD97":2557468.0102599999,"ADDRESS":"陽光北一路１９５巷１２號","OBJECTID":645526},"geometry":{"x":178796.0771740023,"y":2557468.0102580003}},{"attributes":{"ID":645554,"DIS_CODE":0,"TOWNNAME":"善化區","LI":"小新里","LIN":"11鄰","STREET":"陽光北一路","SECT":" ","MAREA":" ","LANE":"１９５巷","ALLEY":" ","HOUSE_NO":"１６號","E_COORD97":178790.57003999999,"N_COORD97":2557468.0102599999,"ADDRESS":"陽光北一路１９５巷１６號","OBJECTID":645527},"geometry":{"x":178790.57003999967,"y":2557468.0102580003}},{"attributes":{"ID":645555,"DIS_CODE":0,"TOWNNAME":"善化區","LI":"小新里","LIN":"11鄰","STREET":"陽光北一路","SECT":" ","MAREA":" ","LANE":"１９５巷","ALLEY":" ","HOUSE_NO":"１８號","E_COORD97":178785.27471900001,"N_COORD97":2557468.5394299999,"ADDRESS":"陽光北一路１９５巷１８號","OBJECTID":645528},"geometry":{"x":178785.27471899986,"y":2557468.5394250005}},{"attributes":{"ID":645556,"DIS_CODE":0,"TOWNNAME":"善化區","LI":"小新里","LIN":"11鄰","STREET":"陽光北一路","SECT":" ","MAREA":" ","LANE":"１９５巷","ALLEY":" ","HOUSE_NO":"２０號","E_COORD97":178779.87349200001,"N_COORD97":2557468.43359,"ADDRESS":"陽光北一路１９５巷２０號","OBJECTID":645529},"geometry":{"x":178779.87349199969,"y":2557468.4335919991}},{"attributes":{"ID":645557,"DIS_CODE":0,"TOWNNAME":"善化區","LI":"小新里","LIN":"11鄰","STREET":"陽光北一路","SECT":" ","MAREA":" ","LANE":"１９５巷","ALLEY":" ","HOUSE_NO":"２２號","E_COORD97":178774.366358,"N_COORD97":2557468.5394299999,"ADDRESS":"陽光北一路１９５巷２２號","OBJECTID":645530},"geometry":{"x":178774.36635799985,"y":2557468.5394250005}},{"attributes":{"ID":645558,"DIS_CODE":0,"TOWNNAME":"善化區","LI":"小新里","LIN":"11鄰","STREET":"陽光北一路","SECT":" ","MAREA":" ","LANE":"１９５巷","ALLEY":" ","HOUSE_NO":"２６號","E_COORD97":178768.96513,"N_COORD97":2557468.96276,"ADDRESS":"陽光北一路１９５巷２６號","OBJECTID":645531},"geometry":{"x":178768.96513000131,"y":2557468.9627580028}},{"attributes":{"ID":645559,"DIS_CODE":0,"TOWNNAME":"佳里區","LI":"鎮山里","LIN":"17鄰","STREET":"鎮山街","SECT":" ","MAREA":" ","LANE":" ","ALLEY":" ","HOUSE_NO":"３２號之１","E_COORD97":166304.547032,"N_COORD97":2561315.8744399999,"ADDRESS":"鎮山街３２號之１","OBJECTID":645532},"geometry":{"x":166304.54703199957,"y":2561315.8744430039}},{"attributes":{"ID":645560,"DIS_CODE":0,"TOWNNAME":"善化區","LI":"小新里","LIN":"11鄰","STREET":"陽光北一路","SECT":" ","MAREA":" ","LANE":"１９５巷","ALLEY":" ","HOUSE_NO":"２８號","E_COORD97":178763.35209,"N_COORD97":2557469.0685899998,"ADDRESS":"陽光北一路１９５巷２８號","OBJECTID":645533},"geometry":{"x":178763.35209000111,"y":2557469.0685910042}},{"attributes":{"ID":645561,"DIS_CODE":0,"TOWNNAME":"中西區","LI":"水仙里","LIN":"12鄰","STREET":"民權路","SECT":"三段","MAREA":" ","LANE":" ","ALLEY":" ","HOUSE_NO":"６６號","E_COORD97":167793.99782799999,"N_COORD97":2544138.8578499998,"ADDRESS":"民權路三段６６號","OBJECTID":645534},"geometry":{"x":167793.99782800023,"y":2544138.8578520007}},{"attributes":{"ID":645562,"DIS_CODE":0,"TOWNNAME":"善化區","LI":"小新里","LIN":"11鄰","STREET":"陽光北一路","SECT":" ","MAREA":" ","LANE":"１９５巷","ALLEY":" ","HOUSE_NO":"３２號","E_COORD97":178752.23191599999,"N_COORD97":2557469.1744200001,"ADDRESS":"陽光北一路１９５巷３２號","OBJECTID":645535},"geometry":{"x":178752.23191600107,"y":2557469.1744250003}},{"attributes":{"ID":645563,"DIS_CODE":0,"TOWNNAME":"仁德區","LI":"太子里","LIN":"44鄰","STREET":"太子路","SECT":" ","MAREA":" ","LANE":" ","ALLEY":" ","HOUSE_NO":"８７號","E_COORD97":174989.61793000001,"N_COORD97":2543517.5626400001,"ADDRESS":"太子路８７號","OBJECTID":645536},"geometry":{"x":174989.61793000158,"y":2543517.5626440048}},{"attributes":{"ID":645564,"DIS_CODE":0,"TOWNNAME":"善化區","LI":"小新里","LIN":"11鄰","STREET":"陽光北一路","SECT":" ","MAREA":" ","LANE":"１９５巷","ALLEY":" ","HOUSE_NO":"３６號","E_COORD97":178747.04250099999,"N_COORD97":2557469.5977599998,"ADDRESS":"陽光北一路１９５巷３６號","OBJECTID":645537},"geometry":{"x":178747.04250100069,"y":2557469.5977579989}},{"attributes":{"ID":645565,"DIS_CODE":0,"TOWNNAME":"中西區","LI":"水仙里","LIN":"12鄰","STREET":"民權路","SECT":"三段","MAREA":" ","LANE":" ","ALLEY":" ","HOUSE_NO":"６８號","E_COORD97":167790.817255,"N_COORD97":2544140.3395199999,"ADDRESS":"民權路三段６８號","OBJECTID":645538},"geometry":{"x":167790.81725500058,"y":2544140.3395180032}},{"attributes":{"ID":645566,"DIS_CODE":0,"TOWNNAME":"中西區","LI":"水仙里","LIN":"12鄰","STREET":"民權路","SECT":"三段","MAREA":" ","LANE":" ","ALLEY":" ","HOUSE_NO":"７２號","E_COORD97":167787.636681,"N_COORD97":2544136.3178500002,"ADDRESS":"民權路三段７２號","OBJECTID":645539},"geometry":{"x":167787.6366810007,"y":2544136.3178540003}},{"attributes":{"ID":645567,"DIS_CODE":0,"TOWNNAME":"善化區","LI":"小新里","LIN":"11鄰","STREET":"陽光北一路","SECT":" ","MAREA":" ","LANE":"１９５巷","ALLEY":" ","HOUSE_NO":"３０號","E_COORD97":178757.84495599999,"N_COORD97":2557469.1744200001,"ADDRESS":"陽光北一路１９５巷３０號","OBJECTID":645540},"geometry":{"x":178757.84495600127,"y":2557469.1744250003}},{"attributes":{"ID":645568,"DIS_CODE":0,"TOWNNAME":"善化區","LI":"小新里","LIN":"11鄰","STREET":"陽光北一路","SECT":" ","MAREA":" ","LANE":"１９５巷","ALLEY":" ","HOUSE_NO":"３８號","E_COORD97":178741.42946099999,"N_COORD97":2557469.4919199999,"ADDRESS":"陽光北一路１９５巷３８號","OBJECTID":645541},"geometry":{"x":178741.42946100049,"y":2557469.4919240028}},{"attributes":{"ID":645569,"DIS_CODE":0,"TOWNNAME":"仁德區","LI":"中洲里","LIN":"15鄰","STREET":" ","SECT":" ","MAREA":"中洲","LANE":" ","ALLEY":" ","HOUSE_NO":"３９５號之３","E_COORD97":173463.39765999999,"N_COORD97":2534166.7467100001,"ADDRESS":"中洲３９５號之３","OBJECTID":645542},"geometry":{"x":173463.39766000211,"y":2534166.7467110008}},{"attributes":{"ID":645570,"DIS_CODE":0,"TOWNNAME":"善化區","LI":"小新里","LIN":"11鄰","STREET":"陽光北一路","SECT":" ","MAREA":" ","LANE":"１９５巷","ALLEY":" ","HOUSE_NO":"４０號","E_COORD97":178731.36835100001,"N_COORD97":2557470.1269200002,"ADDRESS":"陽光北一路１９５巷４０號","OBJECTID":645543},"geometry":{"x":178731.36835100129,"y":2557470.1269240025}},{"attributes":{"ID":645571,"DIS_CODE":0,"TOWNNAME":"仁德區","LI":"仁和里","LIN":"2鄰","STREET":"和愛街","SECT":" ","MAREA":" ","LANE":" ","ALLEY":" ","HOUSE_NO":"３號十二樓之２","E_COORD97":170387.54999999999,"N_COORD97":2540119.5299999998,"ADDRESS":"和愛街３號十二樓之２","OBJECTID":645544},"geometry":{"x":170387.54999999981,"y":2540119.5299999993}},{"attributes":{"ID":645572,"DIS_CODE":0,"TOWNNAME":"中西區","LI":"水仙里","LIN":"12鄰","STREET":"民權路","SECT":"三段","MAREA":" ","LANE":" ","ALLEY":" ","HOUSE_NO":"７４號","E_COORD97":167785.09222300001,"N_COORD97":2544137.3761900002,"ADDRESS":"民權路三段７４號","OBJECTID":645545},"geometry":{"x":167785.09222299978,"y":2544137.3761860002}},{"attributes":{"ID":645573,"DIS_CODE":0,"TOWNNAME":"佳里區","LI":"鎮山里","LIN":"17鄰","STREET":"鎮山街","SECT":" ","MAREA":" ","LANE":" ","ALLEY":" ","HOUSE_NO":"３８號","E_COORD97":166301.36902099999,"N_COORD97":2561299.09987,"ADDRESS":"鎮山街３８號","OBJECTID":645546},"geometry":{"x":166301.36902100034,"y":2561299.0998690017}},{"attributes":{"ID":645574,"DIS_CODE":0,"TOWNNAME":"仁德區","LI":"仁和里","LIN":"2鄰","STREET":"和愛街","SECT":" ","MAREA":" ","LANE":" ","ALLEY":" ","HOUSE_NO":"３號十二樓之３","E_COORD97":170387.54999999999,"N_COORD97":2540119.5299999998,"ADDRESS":"和愛街３號十二樓之３","OBJECTID":645547},"geometry":{"x":170387.54999999981,"y":2540119.5299999993}},{"attributes":{"ID":645575,"DIS_CODE":0,"TOWNNAME":"善化區","LI":"小新里","LIN":"11鄰","STREET":"陽光北一路","SECT":" ","MAREA":" ","LANE":"１８１巷","ALLEY":" ","HOUSE_NO":"２號","E_COORD97":178816.834833,"N_COORD97":2557424.0894499999,"ADDRESS":"陽光北一路１８１巷２號","OBJECTID":645548},"geometry":{"x":178816.83483299986,"y":2557424.0894490033}},{"attributes":{"ID":645576,"DIS_CODE":0,"TOWNNAME":"仁德區","LI":"中洲里","LIN":"15鄰","STREET":" ","SECT":" ","MAREA":"中洲","LANE":" ","ALLEY":" ","HOUSE_NO":"３９５號","E_COORD97":173440.09263699999,"N_COORD97":2534156.1633799998,"ADDRESS":"中洲３９５號","OBJECTID":645549},"geometry":{"x":173440.09263700061,"y":2534156.1633829996}},{"attributes":{"ID":645577,"DIS_CODE":0,"TOWNNAME":"善化區","LI":"小新里","LIN":"11鄰","STREET":"陽光北一路","SECT":" ","MAREA":" ","LANE":"１８１巷","ALLEY":" ","HOUSE_NO":"６號","E_COORD97":178811.32769899999,"N_COORD97":2557423.9836200001,"ADDRESS":"陽光北一路１８１巷６號","OBJECTID":645550},"geometry":{"x":178811.32769900002,"y":2557423.9836160019}},{"attributes":{"ID":645578,"DIS_CODE":0,"TOWNNAME":"仁德區","LI":"仁和里","LIN":"2鄰","STREET":"和愛街","SECT":" ","MAREA":" ","LANE":" ","ALLEY":" ","HOUSE_NO":"３號十二樓之５","E_COORD97":170387.54999999999,"N_COORD97":2540119.5299999998,"ADDRESS":"和愛街３號十二樓之５","OBJECTID":645551},"geometry":{"x":170387.54999999981,"y":2540119.5299999993}},{"attributes":{"ID":645579,"DIS_CODE":0,"TOWNNAME":"善化區","LI":"小新里","LIN":"11鄰","STREET":"陽光北一路","SECT":" ","MAREA":" ","LANE":"１８１巷","ALLEY":" ","HOUSE_NO":"８號","E_COORD97":178805.71465899999,"N_COORD97":2557424.30112,"ADDRESS":"陽光北一路１８１巷８號","OBJECTID":645552},"geometry":{"x":178805.71465899982,"y":2557424.3011150006}},{"attributes":{"ID":645580,"DIS_CODE":0,"TOWNNAME":"仁德區","LI":"仁和里","LIN":"2鄰","STREET":"和愛街","SECT":" ","MAREA":" ","LANE":" ","ALLEY":" ","HOUSE_NO":"３號十三樓之１","E_COORD97":170387.54999999999,"N_COORD97":2540119.5299999998,"ADDRESS":"和愛街３號十三樓之１","OBJECTID":645553},"geometry":{"x":170387.54999999981,"y":2540119.5299999993}},{"attributes":{"ID":645581,"DIS_CODE":0,"TOWNNAME":"善化區","LI":"小新里","LIN":"11鄰","STREET":"陽光北一路","SECT":" ","MAREA":" ","LANE":"１８１巷","ALLEY":" ","HOUSE_NO":"１０號","E_COORD97":178800.419337,"N_COORD97":2557424.7244500001,"ADDRESS":"陽光北一路１８１巷１０號","OBJECTID":645554},"geometry":{"x":178800.4193370007,"y":2557424.7244490031}},{"attributes":{"ID":645582,"DIS_CODE":0,"TOWNNAME":"仁德區","LI":"仁和里","LIN":"2鄰","STREET":"和愛街","SECT":" ","MAREA":" ","LANE":" ","ALLEY":" ","HOUSE_NO":"３號十三樓之２","E_COORD97":170387.54999999999,"N_COORD97":2540119.5299999998,"ADDRESS":"和愛街３號十三樓之２","OBJECTID":645555},"geometry":{"x":170387.54999999981,"y":2540119.5299999993}},{"attributes":{"ID":645583,"DIS_CODE":0,"TOWNNAME":"善化區","LI":"小新里","LIN":"11鄰","STREET":"陽光北一路","SECT":" ","MAREA":" ","LANE":"１８１巷","ALLEY":" ","HOUSE_NO":"１２號","E_COORD97":178794.806297,"N_COORD97":2557424.9361100001,"ADDRESS":"陽光北一路１８１巷１２號","OBJECTID":645556},"geometry":{"x":178794.80629700143,"y":2557424.9361150004}},{"attributes":{"ID":645584,"DIS_CODE":0,"TOWNNAME":"仁德區","LI":"仁和里","LIN":"2鄰","STREET":"和愛街","SECT":" ","MAREA":" ","LANE":" ","ALLEY":" ","HOUSE_NO":"３號十三樓之３","E_COORD97":170387.54999999999,"N_COORD97":2540119.5299999998,"ADDRESS":"和愛街３號十三樓之３","OBJECTID":645557},"geometry":{"x":170387.54999999981,"y":2540119.5299999993}},{"attributes":{"ID":645585,"DIS_CODE":0,"TOWNNAME":"仁德區","LI":"仁和里","LIN":"2鄰","STREET":"和愛街","SECT":" ","MAREA":" ","LANE":" ","ALLEY":" ","HOUSE_NO":"３號十三樓之５","E_COORD97":170387.54999999999,"N_COORD97":2540119.5299999998,"ADDRESS":"和愛街３號十三樓之５","OBJECTID":645558},"geometry":{"x":170387.54999999981,"y":2540119.5299999993}},{"attributes":{"ID":645586,"DIS_CODE":0,"TOWNNAME":"善化區","LI":"小新里","LIN":"11鄰","STREET":"陽光北一路","SECT":" ","MAREA":" ","LANE":"１８１巷","ALLEY":" ","HOUSE_NO":"１６號","E_COORD97":178789.19325700001,"N_COORD97":2557425.04195,"ADDRESS":"陽光北一路１８１巷１６號","OBJECTID":645559},"geometry":{"x":178789.19325700123,"y":2557425.041948}},{"attributes":{"ID":645587,"DIS_CODE":0,"TOWNNAME":"後壁區","LI":"新嘉里","LIN":"15鄰","STREET":" ","SECT":" ","MAREA":"白沙屯","LANE":" ","ALLEY":" ","HOUSE_NO":"１６９號","E_COORD97":179521.749966,"N_COORD97":2585512.4124199999,"ADDRESS":"白沙屯１６９號","OBJECTID":645560},"geometry":{"x":179521.74996600114,"y":2585512.4124169983}},{"attributes":{"ID":645588,"DIS_CODE":0,"TOWNNAME":"善化區","LI":"小新里","LIN":"11鄰","STREET":"陽光北一路","SECT":" ","MAREA":" ","LANE":"１８１巷","ALLEY":" ","HOUSE_NO":"１８號","E_COORD97":178783.89793599999,"N_COORD97":2557425.04195,"ADDRESS":"陽光北一路１８１巷１８號","OBJECTID":645561},"geometry":{"x":178783.89793599863,"y":2557425.041948}},{"attributes":{"ID":645589,"DIS_CODE":0,"TOWNNAME":"善化區","LI":"小新里","LIN":"11鄰","STREET":"陽光北一路","SECT":" ","MAREA":" ","LANE":"１８１巷","ALLEY":" ","HOUSE_NO":"２０號","E_COORD97":178778.49670799999,"N_COORD97":2557425.1477800002,"ADDRESS":"陽光北一路１８１巷２０號","OBJECTID":645562},"geometry":{"x":178778.49670800008,"y":2557425.1477820016}},{"attributes":{"ID":645590,"DIS_CODE":0,"TOWNNAME":"仁德區","LI":"太子里","LIN":"28鄰","STREET":"太子路","SECT":" ","MAREA":" ","LANE":" ","ALLEY":" ","HOUSE_NO":"７０９號","E_COORD97":173134.918791,"N_COORD97":2543452.1576800002,"ADDRESS":"太子路７０９號","OBJECTID":645563},"geometry":{"x":173134.9187909998,"y":2543452.1576790027}},{"attributes":{"ID":645591,"DIS_CODE":0,"TOWNNAME":"善化區","LI":"小新里","LIN":"11鄰","STREET":"陽光北一路","SECT":" ","MAREA":" ","LANE":"１８１巷","ALLEY":" ","HOUSE_NO":"２２號","E_COORD97":178772.98957400001,"N_COORD97":2557425.3594499999,"ADDRESS":"陽光北一路１８１巷２２號","OBJECTID":645564},"geometry":{"x":178772.98957400024,"y":2557425.3594480027}},{"attributes":{"ID":645592,"DIS_CODE":0,"TOWNNAME":"善化區","LI":"小新里","LIN":"11鄰","STREET":"陽光北一路","SECT":" ","MAREA":" ","LANE":"１８１巷","ALLEY":" ","HOUSE_NO":"２６號","E_COORD97":178767.80016000001,"N_COORD97":2557425.4652800001,"ADDRESS":"陽光北一路１８１巷２６號","OBJECTID":645565},"geometry":{"x":178767.80016000103,"y":2557425.4652809985}},{"attributes":{"ID":645593,"DIS_CODE":0,"TOWNNAME":"善化區","LI":"小新里","LIN":"11鄰","STREET":"陽光北一路","SECT":" ","MAREA":" ","LANE":"１８１巷","ALLEY":" ","HOUSE_NO":"２８號","E_COORD97":178762.18711900001,"N_COORD97":2557425.9944500001,"ADDRESS":"陽光北一路１８１巷２８號","OBJECTID":645566},"geometry":{"x":178762.18711899966,"y":2557425.9944480024}},{"attributes":{"ID":645594,"DIS_CODE":0,"TOWNNAME":"仁德區","LI":"仁和里","LIN":"3鄰","STREET":"和愛街","SECT":" ","MAREA":" ","LANE":" ","ALLEY":" ","HOUSE_NO":"５號一樓之１","E_COORD97":170386.64999999999,"N_COORD97":2540155.8599999999,"ADDRESS":"和愛街５號一樓之１","OBJECTID":645567},"geometry":{"x":170386.6500000013,"y":2540155.8599999994}},{"attributes":{"ID":645595,"DIS_CODE":0,"TOWNNAME":"善化區","LI":"小新里","LIN":"11鄰","STREET":"陽光北一路","SECT":" ","MAREA":" ","LANE":"１８１巷","ALLEY":" ","HOUSE_NO":"３０號","E_COORD97":178756.57407900001,"N_COORD97":2557425.9944500001,"ADDRESS":"陽光北一路１８１巷３０號","OBJECTID":645568},"geometry":{"x":178756.57407900039,"y":2557425.9944480024}},{"attributes":{"ID":645596,"DIS_CODE":0,"TOWNNAME":"善化區","LI":"小新里","LIN":"11鄰","STREET":"陽光北一路","SECT":" ","MAREA":" ","LANE":"１８１巷","ALLEY":" ","HOUSE_NO":"３２號","E_COORD97":178751.17285199999,"N_COORD97":2557426.4177799998,"ADDRESS":"陽光北一路１８１巷３２號","OBJECTID":645569},"geometry":{"x":178751.17285200022,"y":2557426.417781001}},{"attributes":{"ID":645597,"DIS_CODE":0,"TOWNNAME":"仁德區","LI":"仁和里","LIN":"3鄰","STREET":"和愛街","SECT":" ","MAREA":" ","LANE":" ","ALLEY":" ","HOUSE_NO":"５號一樓之２","E_COORD97":170386.64999999999,"N_COORD97":2540155.8599999999,"ADDRESS":"和愛街５號一樓之２","OBJECTID":645570},"geometry":{"x":170386.6500000013,"y":2540155.8599999994}},{"attributes":{"ID":645598,"DIS_CODE":0,"TOWNNAME":"善化區","LI":"小新里","LIN":"11鄰","STREET":"陽光北一路","SECT":" ","MAREA":" ","LANE":"１８１巷","ALLEY":" ","HOUSE_NO":"３６號","E_COORD97":178745.665718,"N_COORD97":2557426.6294499999,"ADDRESS":"陽光北一路１８１巷３６號","OBJECTID":645571},"geometry":{"x":178745.66571800038,"y":2557426.6294480022}},{"attributes":{"ID":645599,"DIS_CODE":0,"TOWNNAME":"善化區","LI":"小新里","LIN":"11鄰","STREET":"陽光北一路","SECT":" ","MAREA":" ","LANE":"１８１巷","ALLEY":" ","HOUSE_NO":"３８號","E_COORD97":178740.15858399999,"N_COORD97":2557426.8411099999,"ADDRESS":"陽光北一路１８１巷３８號","OBJECTID":645572},"geometry":{"x":178740.15858399961,"y":2557426.8411139995}},{"attributes":{"ID":645600,"DIS_CODE":0,"TOWNNAME":"中西區","LI":"郡王里","LIN":"19鄰","STREET":"樹林街","SECT":"二段","MAREA":" ","LANE":" ","ALLEY":" ","HOUSE_NO":"７４號","E_COORD97":167785.09222300001,"N_COORD97":2544137.3761900002,"ADDRESS":"樹林街二段７４號","OBJECTID":645573},"geometry":{"x":167785.09222299978,"y":2544137.3761860002}},{"attributes":{"ID":645601,"DIS_CODE":0,"TOWNNAME":"善化區","LI":"小新里","LIN":"11鄰","STREET":"陽光北一路","SECT":" ","MAREA":" ","LANE":"１８１巷","ALLEY":" ","HOUSE_NO":"４０號","E_COORD97":178734.75735599999,"N_COORD97":2557427.1586099998,"ADDRESS":"陽光北一路１８１巷４０號","OBJECTID":645574},"geometry":{"x":178734.75735600106,"y":2557427.1586140022}},{"attributes":{"ID":645602,"DIS_CODE":0,"TOWNNAME":"善化區","LI":"小新里","LIN":"11鄰","STREET":"陽光北一路","SECT":" ","MAREA":" ","LANE":"１８１巷","ALLEY":" ","HOUSE_NO":"４２號","E_COORD97":178724.802153,"N_COORD97":2557427.3702799999,"ADDRESS":"陽光北一路１８１巷４２號","OBJECTID":645575},"geometry":{"x":178724.80215300061,"y":2557427.3702799994}},{"attributes":{"ID":645603,"DIS_CODE":0,"TOWNNAME":"中西區","LI":"郡王里","LIN":"9鄰","STREET":"樹林街","SECT":"二段","MAREA":" ","LANE":" ","ALLEY":" ","HOUSE_NO":"１８０號","E_COORD97":168580.023545,"N_COORD97":2542918.0710100001,"ADDRESS":"樹林街二段１８０號","OBJECTID":645576},"geometry":{"x":168580.0235450007,"y":2542918.0710110012}},{"attributes":{"ID":645604,"DIS_CODE":0,"TOWNNAME":"仁德區","LI":"仁和里","LIN":"3鄰","STREET":"和愛街","SECT":" ","MAREA":" ","LANE":" ","ALLEY":" ","HOUSE_NO":"５號二樓之１","E_COORD97":170386.64999999999,"N_COORD97":2540155.8599999999,"ADDRESS":"和愛街５號二樓之１","OBJECTID":645577},"geometry":{"x":170386.6500000013,"y":2540155.8599999994}},{"attributes":{"ID":645605,"DIS_CODE":0,"TOWNNAME":"仁德區","LI":"仁和里","LIN":"3鄰","STREET":"和愛街","SECT":" ","MAREA":" ","LANE":" ","ALLEY":" ","HOUSE_NO":"５號二樓之２","E_COORD97":170386.64999999999,"N_COORD97":2540155.8599999999,"ADDRESS":"和愛街５號二樓之２","OBJECTID":645578},"geometry":{"x":170386.6500000013,"y":2540155.8599999994}},{"attributes":{"ID":645606,"DIS_CODE":0,"TOWNNAME":"仁德區","LI":"仁和里","LIN":"3鄰","STREET":"和愛街","SECT":" ","MAREA":" ","LANE":" ","ALLEY":" ","HOUSE_NO":"５號二樓之３","E_COORD97":170386.64999999999,"N_COORD97":2540155.8599999999,"ADDRESS":"和愛街５號二樓之３","OBJECTID":645579},"geometry":{"x":170386.6500000013,"y":2540155.8599999994}},{"attributes":{"ID":645607,"DIS_CODE":0,"TOWNNAME":"仁德區","LI":"仁和里","LIN":"3鄰","STREET":"和愛街","SECT":" ","MAREA":" ","LANE":" ","ALLEY":" ","HOUSE_NO":"５號二樓之５","E_COORD97":170386.64999999999,"N_COORD97":2540155.8599999999,"ADDRESS":"和愛街５號二樓之５","OBJECTID":645580},"geometry":{"x":170386.6500000013,"y":2540155.8599999994}},{"attributes":{"ID":645608,"DIS_CODE":0,"TOWNNAME":"仁德區","LI":"仁和里","LIN":"3鄰","STREET":"和愛街","SECT":" ","MAREA":" ","LANE":" ","ALLEY":" ","HOUSE_NO":"５號二樓之６","E_COORD97":170386.64999999999,"N_COORD97":2540155.8599999999,"ADDRESS":"和愛街５號二樓之６","OBJECTID":645581},"geometry":{"x":170386.6500000013,"y":2540155.8599999994}},{"attributes":{"ID":645609,"DIS_CODE":0,"TOWNNAME":"仁德區","LI":"仁和里","LIN":"3鄰","STREET":"和愛街","SECT":" ","MAREA":" ","LANE":" ","ALLEY":" ","HOUSE_NO":"５號二樓之７","E_COORD97":170386.64999999999,"N_COORD97":2540155.8599999999,"ADDRESS":"和愛街５號二樓之７","OBJECTID":645582},"geometry":{"x":170386.6500000013,"y":2540155.8599999994}},{"attributes":{"ID":645610,"DIS_CODE":0,"TOWNNAME":"仁德區","LI":"仁和里","LIN":"3鄰","STREET":"和愛街","SECT":" ","MAREA":" ","LANE":" ","ALLEY":" ","HOUSE_NO":"５號二樓之８","E_COORD97":170386.64999999999,"N_COORD97":2540155.8599999999,"ADDRESS":"和愛街５號二樓之８","OBJECTID":645583},"geometry":{"x":170386.6500000013,"y":2540155.8599999994}},{"attributes":{"ID":645611,"DIS_CODE":0,"TOWNNAME":"仁德區","LI":"仁和里","LIN":"3鄰","STREET":"和愛街","SECT":" ","MAREA":" ","LANE":" ","ALLEY":" ","HOUSE_NO":"５號二樓之９","E_COORD97":170386.64999999999,"N_COORD97":2540155.8599999999,"ADDRESS":"和愛街５號二樓之９","OBJECTID":645584},"geometry":{"x":170386.6500000013,"y":2540155.8599999994}},{"attributes":{"ID":645612,"DIS_CODE":0,"TOWNNAME":"仁德區","LI":"一甲里","LIN":"14鄰","STREET":"忠義路","SECT":" ","MAREA":" ","LANE":"１９９巷","ALLEY":"２９弄","HOUSE_NO":"９號","E_COORD97":174059.44531700001,"N_COORD97":2541743.3629800002,"ADDRESS":"忠義路１９９巷２９弄９號","OBJECTID":645585},"geometry":{"x":174059.44531700015,"y":2541743.3629809991}},{"attributes":{"ID":645613,"DIS_CODE":0,"TOWNNAME":"仁德區","LI":"仁和里","LIN":"3鄰","STREET":"和愛街","SECT":" ","MAREA":" ","LANE":" ","ALLEY":" ","HOUSE_NO":"５號三樓之１","E_COORD97":170386.64999999999,"N_COORD97":2540155.8599999999,"ADDRESS":"和愛街５號三樓之１","OBJECTID":645586},"geometry":{"x":170386.6500000013,"y":2540155.8599999994}},{"attributes":{"ID":645614,"DIS_CODE":0,"TOWNNAME":"仁德區","LI":"一甲里","LIN":"14鄰","STREET":"忠義路","SECT":" ","MAREA":" ","LANE":"１９９巷","ALLEY":"２９弄","HOUSE_NO":"１１號","E_COORD97":174065.802562,"N_COORD97":2541744.8446499999,"ADDRESS":"忠義路１９９巷２９弄１１號","OBJECTID":645587},"geometry":{"x":174065.80256200116,"y":2541744.8446469996}},{"attributes":{"ID":645615,"DIS_CODE":0,"TOWNNAME":"仁德區","LI":"仁和里","LIN":"3鄰","STREET":"和愛街","SECT":" ","MAREA":" ","LANE":" ","ALLEY":" ","HOUSE_NO":"５號三樓之２","E_COORD97":170386.64999999999,"N_COORD97":2540155.8599999999,"ADDRESS":"和愛街５號三樓之２","OBJECTID":645588},"geometry":{"x":170386.6500000013,"y":2540155.8599999994}},{"attributes":{"ID":645616,"DIS_CODE":0,"TOWNNAME":"善化區","LI":"小新里","LIN":"11鄰","STREET":"蓮潭北二街","SECT":" ","MAREA":" ","LANE":" ","ALLEY":" ","HOUSE_NO":"１８８號","E_COORD97":178788.45191199999,"N_COORD97":2557398.1603000001,"ADDRESS":"蓮潭北二街１８８號","OBJECTID":645589},"geometry":{"x":178788.45191200078,"y":2557398.1602960043}},{"attributes":{"ID":645617,"DIS_CODE":0,"TOWNNAME":"仁德區","LI":"仁和里","LIN":"3鄰","STREET":"和愛街","SECT":" ","MAREA":" ","LANE":" ","ALLEY":" ","HOUSE_NO":"５號三樓之３","E_COORD97":170386.64999999999,"N_COORD97":2540155.8599999999,"ADDRESS":"和愛街５號三樓之３","OBJECTID":645590},"geometry":{"x":170386.6500000013,"y":2540155.8599999994}},{"attributes":{"ID":645618,"DIS_CODE":0,"TOWNNAME":"仁德區","LI":"一甲里","LIN":"14鄰","STREET":"忠義路","SECT":" ","MAREA":" ","LANE":"１９９巷","ALLEY":"２９弄","HOUSE_NO":"２號","E_COORD97":174032.74488799999,"N_COORD97":2541728.1229900001,"ADDRESS":"忠義路１９９巷２９弄２號","OBJECTID":645591},"geometry":{"x":174032.74488800112,"y":2541728.1229890008}},{"attributes":{"ID":645619,"DIS_CODE":0,"TOWNNAME":"善化區","LI":"小新里","LIN":"11鄰","STREET":"蓮潭北二街","SECT":" ","MAREA":" ","LANE":" ","ALLEY":" ","HOUSE_NO":"１９０號","E_COORD97":178779.87349200001,"N_COORD97":2557398.0544599998,"ADDRESS":"蓮潭北二街１９０號","OBJECTID":645592},"geometry":{"x":178779.87349199969,"y":2557398.0544629991}},{"attributes":{"ID":645620,"DIS_CODE":0,"TOWNNAME":"仁德區","LI":"仁和里","LIN":"3鄰","STREET":"和愛街","SECT":" ","MAREA":" ","LANE":" ","ALLEY":" ","HOUSE_NO":"５號三樓之５","E_COORD97":170386.64999999999,"N_COORD97":2540155.8599999999,"ADDRESS":"和愛街５號三樓之５","OBJECTID":645593},"geometry":{"x":170386.6500000013,"y":2540155.8599999994}},{"attributes":{"ID":645621,"DIS_CODE":0,"TOWNNAME":"仁德區","LI":"仁和里","LIN":"3鄰","STREET":"和愛街","SECT":" ","MAREA":" ","LANE":" ","ALLEY":" ","HOUSE_NO":"５號三樓之６","E_COORD97":170386.64999999999,"N_COORD97":2540155.8599999999,"ADDRESS":"和愛街５號三樓之６","OBJECTID":645594},"geometry":{"x":170386.6500000013,"y":2540155.8599999994}},{"attributes":{"ID":645622,"DIS_CODE":0,"TOWNNAME":"善化區","LI":"小新里","LIN":"11鄰","STREET":"蓮潭北二街","SECT":" ","MAREA":" ","LANE":" ","ALLEY":" ","HOUSE_NO":"１９２號","E_COORD97":178771.93051000001,"N_COORD97":2557398.5836299998,"ADDRESS":"蓮潭北二街１９２號","OBJECTID":645595},"geometry":{"x":178771.93051000126,"y":2557398.5836290028}},{"attributes":{"ID":645623,"DIS_CODE":0,"TOWNNAME":"仁德區","LI":"仁和里","LIN":"3鄰","STREET":"和愛街","SECT":" ","MAREA":" ","LANE":" ","ALLEY":" ","HOUSE_NO":"５號三樓之７","E_COORD97":170386.64999999999,"N_COORD97":2540155.8599999999,"ADDRESS":"和愛街５號三樓之７","OBJECTID":645596},"geometry":{"x":170386.6500000013,"y":2540155.8599999994}},{"attributes":{"ID":645624,"DIS_CODE":0,"TOWNNAME":"仁德區","LI":"一甲里","LIN":"14鄰","STREET":"忠義路","SECT":" ","MAREA":" ","LANE":"１９９巷","ALLEY":"２９弄","HOUSE_NO":"６號","E_COORD97":174039.31404100001,"N_COORD97":2541730.45132,"ADDRESS":"忠義路１９９巷２９弄６號","OBJECTID":645597},"geometry":{"x":174039.31404099986,"y":2541730.4513210002}},{"attributes":{"ID":645625,"DIS_CODE":0,"TOWNNAME":"仁德區","LI":"仁和里","LIN":"3鄰","STREET":"和愛街","SECT":" ","MAREA":" ","LANE":" ","ALLEY":" ","HOUSE_NO":"５號三樓之８","E_COORD97":170386.64999999999,"N_COORD97":2540155.8599999999,"ADDRESS":"和愛街５號三樓之８","OBJECTID":645598},"geometry":{"x":170386.6500000013,"y":2540155.8599999994}},{"attributes":{"ID":645626,"DIS_CODE":0,"TOWNNAME":"善化區","LI":"小新里","LIN":"11鄰","STREET":"蓮潭北二街","SECT":" ","MAREA":" ","LANE":" ","ALLEY":" ","HOUSE_NO":"１９６號","E_COORD97":178763.98752900001,"N_COORD97":2557398.5836299998,"ADDRESS":"蓮潭北二街１９６號","OBJECTID":645599},"geometry":{"x":178763.98752900027,"y":2557398.5836290028}},{"attributes":{"ID":645627,"DIS_CODE":0,"TOWNNAME":"仁德區","LI":"一甲里","LIN":"14鄰","STREET":"忠義路","SECT":" ","MAREA":" ","LANE":"１９９巷","ALLEY":"２９弄","HOUSE_NO":"８號","E_COORD97":174045.24747,"N_COORD97":2541733.2029900001,"ADDRESS":"忠義路１９９巷２９弄８號","OBJECTID":645600},"geometry":{"x":174045.24746999983,"y":2541733.2029870003}}]}