{"displayFieldName":"TOWNNAME","fieldAliases":{"ID":"ID","DIS_CODE":"DIS_CODE","TOWNNAME":"TOWNNAME","LI":"LI","LIN":"LIN","STREET":"STREET","SECT":"SECT","MAREA":"MAREA","LANE":"LANE","ALLEY":"ALLEY","HOUSE_NO":"HOUSE_NO","E_COORD97":"E_COORD97","N_COORD97":"N_COORD97","ADDRESS":"ADDRESS","OBJECTID":"OBJECTID"},"geometryType":"esriGeometryPoint","spatialReference":{"wkid":102443,"latestWkid":3826},"fields":[{"name":"ID","type":"esriFieldTypeDouble","alias":"ID"},{"name":"DIS_CODE","type":"esriFieldTypeInteger","alias":"DIS_CODE"},{"name":"TOWNNAME","type":"esriFieldTypeString","alias":"TOWNNAME","length":8},{"name":"LI","type":"esriFieldTypeString","alias":"LI","length":8},{"name":"LIN","type":"esriFieldTypeString","alias":"LIN","length":12},{"name":"STREET","type":"esriFieldTypeString","alias":"STREET","length":20},{"name":"SECT","type":"esriFieldTypeString","alias":"SECT","length":8},{"name":"MAREA","type":"esriFieldTypeString","alias":"MAREA","length":12},{"name":"LANE","type":"esriFieldTypeString","alias":"LANE","length":10},{"name":"ALLEY","type":"esriFieldTypeString","alias":"ALLEY","length":10},{"name":"HOUSE_NO","type":"esriFieldTypeString","alias":"HOUSE_NO","length":20},{"name":"E_COORD97","type":"esriFieldTypeDouble","alias":"E_COORD97"},{"name":"N_COORD97","type":"esriFieldTypeDouble","alias":"N_COORD97"},{"name":"ADDRESS","type":"esriFieldTypeString","alias":"ADDRESS","length":50},{"name":"OBJECTID","type":"esriFieldTypeOID","alias":"OBJECTID"}],"features":[{"attributes":{"ID":620428,"DIS_CODE":0,"TOWNNAME":"歸仁區","LI":"辜厝里","LIN":"48鄰","STREET":"民權九街","SECT":" ","MAREA":" ","LANE":" ","ALLEY":" ","HOUSE_NO":"４８號","E_COORD97":177058.82000000001,"N_COORD97":2540342.0299999998,"ADDRESS":"民權九街４８號","OBJECTID":620401},"geometry":{"x":177058.82000000123,"y":2540342.0300000012}},{"attributes":{"ID":620429,"DIS_CODE":0,"TOWNNAME":"歸仁區","LI":"後市里","LIN":"48鄰","STREET":"文化五街","SECT":" ","MAREA":" ","LANE":" ","ALLEY":" ","HOUSE_NO":"１號","E_COORD97":177119.39000000001,"N_COORD97":2541189.7599999998,"ADDRESS":"文化五街１號","OBJECTID":620402},"geometry":{"x":177119.38999999966,"y":2541189.7599999998}},{"attributes":{"ID":620430,"DIS_CODE":0,"TOWNNAME":"仁德區","LI":"成功里","LIN":"39鄰","STREET":"文賢路","SECT":"一段","MAREA":" ","LANE":" ","ALLEY":" ","HOUSE_NO":"７６號","E_COORD97":170226.34,"N_COORD97":2538187.0699999998,"ADDRESS":"文賢路一段７６號","OBJECTID":620403},"geometry":{"x":170226.33999999892,"y":2538187.0700000022}},{"attributes":{"ID":620431,"DIS_CODE":0,"TOWNNAME":"仁德區","LI":"仁義里","LIN":"48鄰","STREET":"仁義路","SECT":" ","MAREA":" ","LANE":" ","ALLEY":" ","HOUSE_NO":"１０７號","E_COORD97":173656.01999999999,"N_COORD97":2540979.3500000001,"ADDRESS":"仁義路１０７號","OBJECTID":620404},"geometry":{"x":173656.02000000142,"y":2540979.3499999996}},{"attributes":{"ID":620432,"DIS_CODE":0,"TOWNNAME":"仁德區","LI":"成功里","LIN":"39鄰","STREET":"文華路","SECT":"二段","MAREA":" ","LANE":" ","ALLEY":" ","HOUSE_NO":"５５號","E_COORD97":170281.23000000001,"N_COORD97":2537587.7599999998,"ADDRESS":"文華路二段５５號","OBJECTID":620405},"geometry":{"x":170281.23000000045,"y":2537587.7600000016}},{"attributes":{"ID":620433,"DIS_CODE":0,"TOWNNAME":"仁德區","LI":"成功里","LIN":"39鄰","STREET":"二仁路","SECT":"二段","MAREA":" ","LANE":" ","ALLEY":" ","HOUSE_NO":"６０８號","E_COORD97":170068.62,"N_COORD97":2538305.02,"ADDRESS":"二仁路二段６０８號","OBJECTID":620406},"geometry":{"x":170068.62000000011,"y":2538305.0200000014}},{"attributes":{"ID":620434,"DIS_CODE":0,"TOWNNAME":"仁德區","LI":"成功里","LIN":"39鄰","STREET":"文賢路","SECT":"一段","MAREA":" ","LANE":" ","ALLEY":" ","HOUSE_NO":"１７號","E_COORD97":170126.20000000001,"N_COORD97":2538272.0800000001,"ADDRESS":"文賢路一段１７號","OBJECTID":620407},"geometry":{"x":170126.20000000112,"y":2538272.0800000001}},{"attributes":{"ID":620435,"DIS_CODE":0,"TOWNNAME":"永康區","LI":"崑山里","LIN":"48鄰","STREET":"永華路","SECT":" ","MAREA":" ","LANE":" ","ALLEY":" ","HOUSE_NO":"３４號","E_COORD97":174081.85000000001,"N_COORD97":2545226.21,"ADDRESS":"永華路３４號","OBJECTID":620408},"geometry":{"x":174081.84999999963,"y":2545226.2100000009}},{"attributes":{"ID":620436,"DIS_CODE":0,"TOWNNAME":"永康區","LI":"崑山里","LIN":"48鄰","STREET":"國光六街","SECT":" ","MAREA":" ","LANE":" ","ALLEY":" ","HOUSE_NO":"７３號","E_COORD97":174118.16,"N_COORD97":2545304.4100000001,"ADDRESS":"國光六街７３號","OBJECTID":620409},"geometry":{"x":174118.16000000015,"y":2545304.410000002}},{"attributes":{"ID":620437,"DIS_CODE":0,"TOWNNAME":"東區","LI":"忠孝里","LIN":"5鄰","STREET":"崇明七街","SECT":" ","MAREA":" ","LANE":" ","ALLEY":" ","HOUSE_NO":"９號","E_COORD97":169634.38,"N_COORD97":2542145.3900000001,"ADDRESS":"崇明七街９號","OBJECTID":620410},"geometry":{"x":169634.37999999989,"y":2542145.3900000025}},{"attributes":{"ID":620438,"DIS_CODE":0,"TOWNNAME":"永康區","LI":"西灣里","LIN":"48鄰","STREET":"永華路","SECT":" ","MAREA":" ","LANE":" ","ALLEY":" ","HOUSE_NO":"２６３號","E_COORD97":174059.01000000001,"N_COORD97":2545798.8799999999,"ADDRESS":"永華路２６３號","OBJECTID":620411},"geometry":{"x":174059.00999999978,"y":2545798.879999999}},{"attributes":{"ID":620439,"DIS_CODE":0,"TOWNNAME":"永康區","LI":"崑山里","LIN":"48鄰","STREET":"國光六街","SECT":" ","MAREA":" ","LANE":" ","ALLEY":" ","HOUSE_NO":"７５號","E_COORD97":174114.92000000001,"N_COORD97":2545307.0699999998,"ADDRESS":"國光六街７５號","OBJECTID":620412},"geometry":{"x":174114.92000000086,"y":2545307.0700000022}},{"attributes":{"ID":620440,"DIS_CODE":0,"TOWNNAME":"永康區","LI":"西灣里","LIN":"48鄰","STREET":"永華路","SECT":" ","MAREA":" ","LANE":" ","ALLEY":" ","HOUSE_NO":"２３７號","E_COORD97":174068.60999999999,"N_COORD97":2545747.0099999998,"ADDRESS":"永華路２３７號","OBJECTID":620413},"geometry":{"x":174068.61000000127,"y":2545747.0100000016}},{"attributes":{"ID":620441,"DIS_CODE":0,"TOWNNAME":"永康區","LI":"西灣里","LIN":"48鄰","STREET":"永華路","SECT":" ","MAREA":" ","LANE":" ","ALLEY":" ","HOUSE_NO":"２４１號","E_COORD97":174067.29999999999,"N_COORD97":2545755.5099999998,"ADDRESS":"永華路２４１號","OBJECTID":620414},"geometry":{"x":174067.29999999981,"y":2545755.5099999998}},{"attributes":{"ID":620442,"DIS_CODE":0,"TOWNNAME":"永康區","LI":"西灣里","LIN":"48鄰","STREET":"永華路","SECT":" ","MAREA":" ","LANE":" ","ALLEY":" ","HOUSE_NO":"２５９號","E_COORD97":174060.76000000001,"N_COORD97":2545790.6299999999,"ADDRESS":"永華路２５９號","OBJECTID":620415},"geometry":{"x":174060.75999999978,"y":2545790.629999999}},{"attributes":{"ID":620443,"DIS_CODE":0,"TOWNNAME":"永康區","LI":"西灣里","LIN":"48鄰","STREET":"永華路","SECT":" ","MAREA":" ","LANE":" ","ALLEY":" ","HOUSE_NO":"２４３號","E_COORD97":174066.54999999999,"N_COORD97":2545759.7599999998,"ADDRESS":"永華路２４３號","OBJECTID":620416},"geometry":{"x":174066.55000000075,"y":2545759.7600000016}},{"attributes":{"ID":620444,"DIS_CODE":0,"TOWNNAME":"永康區","LI":"西灣里","LIN":"48鄰","STREET":"永華路","SECT":" ","MAREA":" ","LANE":" ","ALLEY":" ","HOUSE_NO":"２６７號","E_COORD97":174057.09,"N_COORD97":2545806.8799999999,"ADDRESS":"永華路２６７號","OBJECTID":620417},"geometry":{"x":174057.08999999985,"y":2545806.879999999}},{"attributes":{"ID":620445,"DIS_CODE":0,"TOWNNAME":"永康區","LI":"西灣里","LIN":"48鄰","STREET":"永華路","SECT":" ","MAREA":" ","LANE":" ","ALLEY":" ","HOUSE_NO":"２６１號","E_COORD97":174059.87,"N_COORD97":2545794.8799999999,"ADDRESS":"永華路２６１號","OBJECTID":620418},"geometry":{"x":174059.87000000104,"y":2545794.8800000008}},{"attributes":{"ID":620446,"DIS_CODE":0,"TOWNNAME":"永康區","LI":"西灣里","LIN":"48鄰","STREET":"永華路","SECT":" ","MAREA":" ","LANE":" ","ALLEY":" ","HOUSE_NO":"２７１號","E_COORD97":174053.91,"N_COORD97":2545817.3799999999,"ADDRESS":"永華路２７１號","OBJECTID":620419},"geometry":{"x":174053.90999999922,"y":2545817.3800000027}},{"attributes":{"ID":620447,"DIS_CODE":0,"TOWNNAME":"永康區","LI":"西灣里","LIN":"48鄰","STREET":"永華路","SECT":" ","MAREA":" ","LANE":" ","ALLEY":" ","HOUSE_NO":"２３９號","E_COORD97":174067.91,"N_COORD97":2545751.2599999998,"ADDRESS":"永華路２３９號","OBJECTID":620420},"geometry":{"x":174067.91000000108,"y":2545751.2600000035}},{"attributes":{"ID":620448,"DIS_CODE":0,"TOWNNAME":"永康區","LI":"\u25A0行里","LIN":"48鄰","STREET":"新行街","SECT":" ","MAREA":" ","LANE":" ","ALLEY":" ","HOUSE_NO":"１１４號","E_COORD97":172336.25,"N_COORD97":2549007.1899999999,"ADDRESS":"新行街１１４號","OBJECTID":620421},"geometry":{"x":172336.25000000093,"y":2549007.1900000013}},{"attributes":{"ID":620449,"DIS_CODE":0,"TOWNNAME":"永康區","LI":"\u25A0行里","LIN":"48鄰","STREET":"新行街","SECT":" ","MAREA":" ","LANE":" ","ALLEY":" ","HOUSE_NO":"９０號","E_COORD97":172320.38,"N_COORD97":2548939.9900000002,"ADDRESS":"新行街９０號","OBJECTID":620422},"geometry":{"x":172320.38000000082,"y":2548939.9900000002}},{"attributes":{"ID":620450,"DIS_CODE":0,"TOWNNAME":"永康區","LI":"\u25A0行里","LIN":"48鄰","STREET":"新民街","SECT":" ","MAREA":" ","LANE":" ","ALLEY":" ","HOUSE_NO":"４３號","E_COORD97":172375.47,"N_COORD97":2548941.7200000002,"ADDRESS":"新民街４３號","OBJECTID":620423},"geometry":{"x":172375.47000000067,"y":2548941.7200000007}},{"attributes":{"ID":620451,"DIS_CODE":0,"TOWNNAME":"仁德區","LI":"仁義里","LIN":"48鄰","STREET":"仁義路","SECT":" ","MAREA":" ","LANE":" ","ALLEY":" ","HOUSE_NO":"８７號","E_COORD97":173599.97,"N_COORD97":2540974.1000000001,"ADDRESS":"仁義路８７號","OBJECTID":620424},"geometry":{"x":173599.96999999974,"y":2540974.0999999996}},{"attributes":{"ID":620452,"DIS_CODE":0,"TOWNNAME":"中西區","LI":"三合里","LIN":"12鄰","STREET":"金華路","SECT":"四段","MAREA":" ","LANE":" ","ALLEY":" ","HOUSE_NO":"１０３號","E_COORD97":167503.56,"N_COORD97":2544502.79,"ADDRESS":"金華路四段１０３號","OBJECTID":620425},"geometry":{"x":167503.55999999959,"y":2544502.7900000028}},{"attributes":{"ID":620453,"DIS_CODE":0,"TOWNNAME":"中西區","LI":"安海里","LIN":"10鄰","STREET":"金華路","SECT":"三段","MAREA":" ","LANE":" ","ALLEY":" ","HOUSE_NO":"１９７號","E_COORD97":167300.14000000001,"N_COORD97":2543870.1299999999,"ADDRESS":"金華路三段１９７號","OBJECTID":620426},"geometry":{"x":167300.1400000006,"y":2543870.1300000008}},{"attributes":{"ID":620454,"DIS_CODE":0,"TOWNNAME":"中西區","LI":"安海里","LIN":"10鄰","STREET":"金華路","SECT":"三段","MAREA":" ","LANE":" ","ALLEY":" ","HOUSE_NO":"２０７號","E_COORD97":167305.95999999999,"N_COORD97":2543897.8999999999,"ADDRESS":"金華路三段２０７號","OBJECTID":620427},"geometry":{"x":167305.95999999996,"y":2543897.9000000022}},{"attributes":{"ID":620455,"DIS_CODE":0,"TOWNNAME":"中西區","LI":"安海里","LIN":"10鄰","STREET":"金華路","SECT":"三段","MAREA":" ","LANE":" ","ALLEY":" ","HOUSE_NO":"２０９號","E_COORD97":167306.72,"N_COORD97":2543912.7200000002,"ADDRESS":"金華路三段２０９號","OBJECTID":620428},"geometry":{"x":167306.72000000067,"y":2543912.7200000025}},{"attributes":{"ID":620456,"DIS_CODE":0,"TOWNNAME":"中西區","LI":"安海里","LIN":"10鄰","STREET":"河中街","SECT":" ","MAREA":" ","LANE":" ","ALLEY":" ","HOUSE_NO":"１２號","E_COORD97":167283.79999999999,"N_COORD97":2543924.9100000001,"ADDRESS":"河中街１２號","OBJECTID":620429},"geometry":{"x":167283.80000000168,"y":2543924.910000002}},{"attributes":{"ID":620457,"DIS_CODE":0,"TOWNNAME":"中西區","LI":"安海里","LIN":"10鄰","STREET":"河中街","SECT":" ","MAREA":" ","LANE":" ","ALLEY":" ","HOUSE_NO":"１４號","E_COORD97":167284.92999999999,"N_COORD97":2543937.8399999999,"ADDRESS":"河中街１４號","OBJECTID":620430},"geometry":{"x":167284.93000000063,"y":2543937.8400000017}},{"attributes":{"ID":620458,"DIS_CODE":0,"TOWNNAME":"中西區","LI":"安海里","LIN":"10鄰","STREET":"河中街","SECT":" ","MAREA":" ","LANE":" ","ALLEY":" ","HOUSE_NO":"１６號","E_COORD97":167286.79999999999,"N_COORD97":2543943.2799999998,"ADDRESS":"河中街１６號","OBJECTID":620431},"geometry":{"x":167286.79999999981,"y":2543943.2799999993}},{"attributes":{"ID":620459,"DIS_CODE":0,"TOWNNAME":"中西區","LI":"安海里","LIN":"10鄰","STREET":"河中街","SECT":" ","MAREA":" ","LANE":" ","ALLEY":" ","HOUSE_NO":"２０號","E_COORD97":167290.94,"N_COORD97":2543950.5899999999,"ADDRESS":"河中街２０號","OBJECTID":620432},"geometry":{"x":167290.94000000134,"y":2543950.5899999999}},{"attributes":{"ID":620460,"DIS_CODE":0,"TOWNNAME":"中西區","LI":"安海里","LIN":"10鄰","STREET":"河中街","SECT":" ","MAREA":" ","LANE":" ","ALLEY":" ","HOUSE_NO":"２２號","E_COORD97":167291.69,"N_COORD97":2543956.7799999998,"ADDRESS":"河中街２２號","OBJECTID":620433},"geometry":{"x":167291.69000000041,"y":2543956.7799999993}},{"attributes":{"ID":620461,"DIS_CODE":0,"TOWNNAME":"仁德區","LI":"仁義里","LIN":"48鄰","STREET":"仁義路","SECT":" ","MAREA":" ","LANE":" ","ALLEY":" ","HOUSE_NO":"８１號","E_COORD97":173587.51999999999,"N_COORD97":2540972.6000000001,"ADDRESS":"仁義路８１號","OBJECTID":620434},"geometry":{"x":173587.51999999955,"y":2540972.6000000015}},{"attributes":{"ID":620462,"DIS_CODE":0,"TOWNNAME":"仁德區","LI":"仁義里","LIN":"48鄰","STREET":"仁義路","SECT":" ","MAREA":" ","LANE":" ","ALLEY":" ","HOUSE_NO":"１０５號","E_COORD97":173651.76999999999,"N_COORD97":2540978.8500000001,"ADDRESS":"仁義路１０５號","OBJECTID":620435},"geometry":{"x":173651.76999999955,"y":2540978.8499999996}},{"attributes":{"ID":620463,"DIS_CODE":0,"TOWNNAME":"永康區","LI":"\u25A0行里","LIN":"48鄰","STREET":"新行街","SECT":" ","MAREA":" ","LANE":" ","ALLEY":" ","HOUSE_NO":"１１２號","E_COORD97":172335.23000000001,"N_COORD97":2549002.4399999999,"ADDRESS":"新行街１１２號","OBJECTID":620436},"geometry":{"x":172335.23000000138,"y":2549002.4400000013}},{"attributes":{"ID":620464,"DIS_CODE":0,"TOWNNAME":"永康區","LI":"\u25A0行里","LIN":"48鄰","STREET":"新行街","SECT":" ","MAREA":" ","LANE":" ","ALLEY":" ","HOUSE_NO":"９６號","E_COORD97":172323.92999999999,"N_COORD97":2548954.23,"ADDRESS":"新行街９６號","OBJECTID":620437},"geometry":{"x":172323.9299999997,"y":2548954.2300000023}},{"attributes":{"ID":620465,"DIS_CODE":0,"TOWNNAME":"永康區","LI":"\u25A0行里","LIN":"48鄰","STREET":"新行街","SECT":" ","MAREA":" ","LANE":" ","ALLEY":" ","HOUSE_NO":"１００號","E_COORD97":172329,"N_COORD97":2548976.4300000002,"ADDRESS":"新行街１００號","OBJECTID":620438},"geometry":{"x":172329,"y":2548976.4299999997}},{"attributes":{"ID":620466,"DIS_CODE":0,"TOWNNAME":"永康區","LI":"\u25A0行里","LIN":"48鄰","STREET":"新行街","SECT":" ","MAREA":" ","LANE":" ","ALLEY":" ","HOUSE_NO":"９２號","E_COORD97":172321.69,"N_COORD97":2548946.0800000001,"ADDRESS":"新行街９２號","OBJECTID":620439},"geometry":{"x":172321.69000000227,"y":2548946.0800000001}},{"attributes":{"ID":620467,"DIS_CODE":0,"TOWNNAME":"永康區","LI":"\u25A0行里","LIN":"48鄰","STREET":"新行街","SECT":" ","MAREA":" ","LANE":" ","ALLEY":" ","HOUSE_NO":"１０２號","E_COORD97":172329.95999999999,"N_COORD97":2548980.6800000002,"ADDRESS":"新行街１０２號","OBJECTID":620440},"geometry":{"x":172329.96000000089,"y":2548980.6800000016}},{"attributes":{"ID":620468,"DIS_CODE":0,"TOWNNAME":"永康區","LI":"\u25A0行里","LIN":"48鄰","STREET":"新行街","SECT":" ","MAREA":" ","LANE":" ","ALLEY":" ","HOUSE_NO":"１１６號","E_COORD97":172338,"N_COORD97":2549012.1899999999,"ADDRESS":"新行街１１６號","OBJECTID":620441},"geometry":{"x":172338.00000000093,"y":2549012.1899999995}},{"attributes":{"ID":620469,"DIS_CODE":0,"TOWNNAME":"永康區","LI":"\u25A0行里","LIN":"48鄰","STREET":"新民街","SECT":" ","MAREA":" ","LANE":" ","ALLEY":" ","HOUSE_NO":"６８號","E_COORD97":172360.29999999999,"N_COORD97":2548965.9900000002,"ADDRESS":"新民街６８號","OBJECTID":620442},"geometry":{"x":172360.29999999981,"y":2548965.9900000021}},{"attributes":{"ID":620470,"DIS_CODE":0,"TOWNNAME":"永康區","LI":"\u25A0行里","LIN":"48鄰","STREET":"新民街","SECT":" ","MAREA":" ","LANE":" ","ALLEY":" ","HOUSE_NO":"７２號","E_COORD97":172350.04999999999,"N_COORD97":2548968.2400000002,"ADDRESS":"新民街７２號","OBJECTID":620443},"geometry":{"x":172350.04999999981,"y":2548968.2400000002}},{"attributes":{"ID":620471,"DIS_CODE":0,"TOWNNAME":"永康區","LI":"\u25A0行里","LIN":"48鄰","STREET":"新民街","SECT":" ","MAREA":" ","LANE":" ","ALLEY":" ","HOUSE_NO":"７０號","E_COORD97":172354.48999999999,"N_COORD97":2548967.2400000002,"ADDRESS":"新民街７０號","OBJECTID":620444},"geometry":{"x":172354.49000000022,"y":2548967.2400000021}},{"attributes":{"ID":620472,"DIS_CODE":0,"TOWNNAME":"永康區","LI":"\u25A0行里","LIN":"48鄰","STREET":"新民街","SECT":" ","MAREA":" ","LANE":" ","ALLEY":" ","HOUSE_NO":"５９號","E_COORD97":172332.01999999999,"N_COORD97":2548953.0899999999,"ADDRESS":"新民街５９號","OBJECTID":620445},"geometry":{"x":172332.02000000142,"y":2548953.0900000036}},{"attributes":{"ID":620473,"DIS_CODE":0,"TOWNNAME":"永康區","LI":"\u25A0行里","LIN":"48鄰","STREET":"新民街","SECT":" ","MAREA":" ","LANE":" ","ALLEY":" ","HOUSE_NO":"５８號","E_COORD97":172380.39000000001,"N_COORD97":2548962.0099999998,"ADDRESS":"新民街５８號","OBJECTID":620446},"geometry":{"x":172380.38999999873,"y":2548962.0100000016}},{"attributes":{"ID":620474,"DIS_CODE":0,"TOWNNAME":"永康區","LI":"\u25A0行里","LIN":"48鄰","STREET":"新中街","SECT":" ","MAREA":" ","LANE":" ","ALLEY":" ","HOUSE_NO":"３０７號","E_COORD97":172480.07999999999,"N_COORD97":2548963.4900000002,"ADDRESS":"新中街３０７號","OBJECTID":620447},"geometry":{"x":172480.08000000101,"y":2548963.4900000002}},{"attributes":{"ID":620475,"DIS_CODE":0,"TOWNNAME":"永康區","LI":"\u25A0行里","LIN":"48鄰","STREET":"新民街","SECT":" ","MAREA":" ","LANE":" ","ALLEY":" ","HOUSE_NO":"５７號","E_COORD97":172336.85999999999,"N_COORD97":2548951.8399999999,"ADDRESS":"新民街５７號","OBJECTID":620448},"geometry":{"x":172336.86000000034,"y":2548951.8400000017}},{"attributes":{"ID":620476,"DIS_CODE":0,"TOWNNAME":"永康區","LI":"\u25A0行里","LIN":"48鄰","STREET":"新民街","SECT":" ","MAREA":" ","LANE":" ","ALLEY":" ","HOUSE_NO":"５５號","E_COORD97":172341.35999999999,"N_COORD97":2548950.8399999999,"ADDRESS":"新民街５５號","OBJECTID":620449},"geometry":{"x":172341.36000000127,"y":2548950.8399999999}},{"attributes":{"ID":620477,"DIS_CODE":0,"TOWNNAME":"永康區","LI":"\u25A0行里","LIN":"48鄰","STREET":"新民街","SECT":" ","MAREA":" ","LANE":" ","ALLEY":" ","HOUSE_NO":"４９號","E_COORD97":172356.17000000001,"N_COORD97":2548947.4500000002,"ADDRESS":"新民街４９號","OBJECTID":620450},"geometry":{"x":172356.16999999993,"y":2548947.4500000011}},{"attributes":{"ID":620478,"DIS_CODE":0,"TOWNNAME":"永康區","LI":"\u25A0行里","LIN":"48鄰","STREET":"新民街","SECT":" ","MAREA":" ","LANE":" ","ALLEY":" ","HOUSE_NO":"５３號","E_COORD97":172345.51999999999,"N_COORD97":2548949.8399999999,"ADDRESS":"新民街５３號","OBJECTID":620451},"geometry":{"x":172345.52000000142,"y":2548949.8399999999}},{"attributes":{"ID":620479,"DIS_CODE":0,"TOWNNAME":"永康區","LI":"\u25A0行里","LIN":"48鄰","STREET":"新民街","SECT":" ","MAREA":" ","LANE":" ","ALLEY":" ","HOUSE_NO":"６２號","E_COORD97":172371.16,"N_COORD97":2548964.0099999998,"ADDRESS":"新民街６２號","OBJECTID":620452},"geometry":{"x":172371.16000000108,"y":2548964.0100000016}},{"attributes":{"ID":620480,"DIS_CODE":0,"TOWNNAME":"永康區","LI":"\u25A0行里","LIN":"48鄰","STREET":"新民街","SECT":" ","MAREA":" ","LANE":" ","ALLEY":" ","HOUSE_NO":"５１號","E_COORD97":172351.60999999999,"N_COORD97":2548948.8399999999,"ADDRESS":"新民街５１號","OBJECTID":620453},"geometry":{"x":172351.61000000127,"y":2548948.8400000017}},{"attributes":{"ID":620481,"DIS_CODE":0,"TOWNNAME":"永康區","LI":"\u25A0行里","LIN":"48鄰","STREET":"新民街","SECT":" ","MAREA":" ","LANE":" ","ALLEY":" ","HOUSE_NO":"４１號","E_COORD97":172380.17000000001,"N_COORD97":2548940.73,"ADDRESS":"新民街４１號","OBJECTID":620454},"geometry":{"x":172380.16999999993,"y":2548940.7300000023}},{"attributes":{"ID":620482,"DIS_CODE":0,"TOWNNAME":"歸仁區","LI":"辜厝里","LIN":"48鄰","STREET":"民權九街","SECT":" ","MAREA":" ","LANE":" ","ALLEY":" ","HOUSE_NO":"２８號","E_COORD97":177026.01999999999,"N_COORD97":2540343.0299999998,"ADDRESS":"民權九街２８號","OBJECTID":620455},"geometry":{"x":177026.02000000142,"y":2540343.0300000012}},{"attributes":{"ID":620483,"DIS_CODE":0,"TOWNNAME":"歸仁區","LI":"後市里","LIN":"48鄰","STREET":"文化五街","SECT":" ","MAREA":" ","LANE":" ","ALLEY":" ","HOUSE_NO":"１７號","E_COORD97":177116.44,"N_COORD97":2541154.7599999998,"ADDRESS":"文化五街１７號","OBJECTID":620456},"geometry":{"x":177116.44000000041,"y":2541154.7600000016}},{"attributes":{"ID":620484,"DIS_CODE":0,"TOWNNAME":"永康區","LI":"西灣里","LIN":"48鄰","STREET":"永華路","SECT":" ","MAREA":" ","LANE":" ","ALLEY":" ","HOUSE_NO":"２６５號","E_COORD97":174057.95999999999,"N_COORD97":2545802.8799999999,"ADDRESS":"永華路２６５號","OBJECTID":620457},"geometry":{"x":174057.95999999996,"y":2545802.879999999}},{"attributes":{"ID":620485,"DIS_CODE":0,"TOWNNAME":"永康區","LI":"西灣里","LIN":"48鄰","STREET":"永華路","SECT":" ","MAREA":" ","LANE":" ","ALLEY":" ","HOUSE_NO":"２４７號","E_COORD97":174064.95000000001,"N_COORD97":2545767.7599999998,"ADDRESS":"永華路２４７號","OBJECTID":620458},"geometry":{"x":174064.95000000019,"y":2545767.7599999998}},{"attributes":{"ID":620486,"DIS_CODE":0,"TOWNNAME":"永康區","LI":"\u25A0行里","LIN":"48鄰","STREET":"新行街","SECT":" ","MAREA":" ","LANE":" ","ALLEY":" ","HOUSE_NO":"１０６號","E_COORD97":172331.98000000001,"N_COORD97":2548989.6800000002,"ADDRESS":"新行街１０６號","OBJECTID":620459},"geometry":{"x":172331.98000000138,"y":2548989.6800000034}},{"attributes":{"ID":620487,"DIS_CODE":0,"TOWNNAME":"永康區","LI":"\u25A0行里","LIN":"48鄰","STREET":"新行街","SECT":" ","MAREA":" ","LANE":" ","ALLEY":" ","HOUSE_NO":"１１０號","E_COORD97":172334.34,"N_COORD97":2548998.4399999999,"ADDRESS":"新行街１１０號","OBJECTID":620460},"geometry":{"x":172334.34000000078,"y":2548998.4400000013}},{"attributes":{"ID":620488,"DIS_CODE":0,"TOWNNAME":"永康區","LI":"\u25A0行里","LIN":"48鄰","STREET":"新行街","SECT":" ","MAREA":" ","LANE":" ","ALLEY":" ","HOUSE_NO":"１０８號","E_COORD97":172333.07000000001,"N_COORD97":2548993.6899999999,"ADDRESS":"新行街１０８號","OBJECTID":620461},"geometry":{"x":172333.07000000123,"y":2548993.6900000013}},{"attributes":{"ID":620489,"DIS_CODE":0,"TOWNNAME":"中西區","LI":"三合里","LIN":"12鄰","STREET":"金華路","SECT":"四段","MAREA":" ","LANE":" ","ALLEY":" ","HOUSE_NO":"１０５號","E_COORD97":167504.57000000001,"N_COORD97":2544506.6200000001,"ADDRESS":"金華路四段１０５號","OBJECTID":620462},"geometry":{"x":167504.57000000216,"y":2544506.6200000029}},{"attributes":{"ID":620490,"DIS_CODE":0,"TOWNNAME":"中西區","LI":"三合里","LIN":"12鄰","STREET":"金華路","SECT":"四段","MAREA":" ","LANE":" ","ALLEY":" ","HOUSE_NO":"１０７號","E_COORD97":167506.57999999999,"N_COORD97":2544510.6600000001,"ADDRESS":"金華路四段１０７號","OBJECTID":620463},"geometry":{"x":167506.58000000101,"y":2544510.6600000001}},{"attributes":{"ID":620491,"DIS_CODE":0,"TOWNNAME":"中西區","LI":"三合里","LIN":"12鄰","STREET":"金華路","SECT":"四段","MAREA":" ","LANE":" ","ALLEY":" ","HOUSE_NO":"１０９號","E_COORD97":167507.59,"N_COORD97":2544514.8900000001,"ADDRESS":"金華路四段１０９號","OBJECTID":620464},"geometry":{"x":167507.59000000078,"y":2544514.8900000025}},{"attributes":{"ID":620492,"DIS_CODE":0,"TOWNNAME":"中西區","LI":"三合里","LIN":"12鄰","STREET":"金華路","SECT":"四段","MAREA":" ","LANE":" ","ALLEY":" ","HOUSE_NO":"１１１號","E_COORD97":167509,"N_COORD97":2544519.3199999998,"ADDRESS":"金華路四段１１１號","OBJECTID":620465},"geometry":{"x":167509,"y":2544519.3200000003}},{"attributes":{"ID":620493,"DIS_CODE":0,"TOWNNAME":"中西區","LI":"三合里","LIN":"12鄰","STREET":"金華路","SECT":"四段","MAREA":" ","LANE":" ","ALLEY":" ","HOUSE_NO":"１１３號","E_COORD97":167510.62,"N_COORD97":2544522.1400000001,"ADDRESS":"金華路四段１１３號","OBJECTID":620466},"geometry":{"x":167510.62000000011,"y":2544522.1399999987}},{"attributes":{"ID":620494,"DIS_CODE":0,"TOWNNAME":"中西區","LI":"三合里","LIN":"12鄰","STREET":"金華路","SECT":"四段","MAREA":" ","LANE":" ","ALLEY":" ","HOUSE_NO":"１１５號","E_COORD97":167511.42999999999,"N_COORD97":2544524.77,"ADDRESS":"金華路四段１１５號","OBJECTID":620467},"geometry":{"x":167511.4299999997,"y":2544524.7700000014}},{"attributes":{"ID":620495,"DIS_CODE":0,"TOWNNAME":"中西區","LI":"三合里","LIN":"9鄰","STREET":"金華路","SECT":"四段","MAREA":" ","LANE":" ","ALLEY":" ","HOUSE_NO":"１４０號","E_COORD97":167513.82000000001,"N_COORD97":2544456.75,"ADDRESS":"金華路四段１４０號","OBJECTID":620468},"geometry":{"x":167513.82000000123,"y":2544456.7500000037}},{"attributes":{"ID":620496,"DIS_CODE":0,"TOWNNAME":"中西區","LI":"三合里","LIN":"9鄰","STREET":"金華路","SECT":"四段","MAREA":" ","LANE":" ","ALLEY":" ","HOUSE_NO":"１４４號","E_COORD97":167519.85000000001,"N_COORD97":2544458.6600000001,"ADDRESS":"金華路四段１４４號","OBJECTID":620469},"geometry":{"x":167519.84999999963,"y":2544458.660000002}},{"attributes":{"ID":620497,"DIS_CODE":0,"TOWNNAME":"中西區","LI":"三合里","LIN":"9鄰","STREET":"金華路","SECT":"四段","MAREA":" ","LANE":" ","ALLEY":" ","HOUSE_NO":"１４６號","E_COORD97":167523.23999999999,"N_COORD97":2544463.6600000001,"ADDRESS":"金華路四段１４６號","OBJECTID":620470},"geometry":{"x":167523.24000000022,"y":2544463.6600000001}},{"attributes":{"ID":620498,"DIS_CODE":0,"TOWNNAME":"中西區","LI":"三合里","LIN":"9鄰","STREET":"金華路","SECT":"四段","MAREA":" ","LANE":" ","ALLEY":" ","HOUSE_NO":"１４８號","E_COORD97":167526.62,"N_COORD97":2544484.5600000001,"ADDRESS":"金華路四段１４８號","OBJECTID":620471},"geometry":{"x":167526.62000000104,"y":2544484.5600000005}},{"attributes":{"ID":620499,"DIS_CODE":0,"TOWNNAME":"永康區","LI":"\u25A0行里","LIN":"48鄰","STREET":"新民街","SECT":" ","MAREA":" ","LANE":" ","ALLEY":" ","HOUSE_NO":"８０號","E_COORD97":172337.14999999999,"N_COORD97":2548971.4900000002,"ADDRESS":"新民街８０號","OBJECTID":620472},"geometry":{"x":172337.15000000224,"y":2548971.4900000021}},{"attributes":{"ID":620500,"DIS_CODE":0,"TOWNNAME":"永康區","LI":"\u25A0行里","LIN":"48鄰","STREET":"新民街","SECT":" ","MAREA":" ","LANE":" ","ALLEY":" ","HOUSE_NO":"５６號","E_COORD97":172384.64000000001,"N_COORD97":2548960.7599999998,"ADDRESS":"新民街５６號","OBJECTID":620473},"geometry":{"x":172384.6400000006,"y":2548960.7599999998}},{"attributes":{"ID":620501,"DIS_CODE":0,"TOWNNAME":"仁德區","LI":"仁義里","LIN":"48鄰","STREET":"仁義路","SECT":" ","MAREA":" ","LANE":" ","ALLEY":" ","HOUSE_NO":"９９號","E_COORD97":173636.73999999999,"N_COORD97":2540977.3500000001,"ADDRESS":"仁義路９９號","OBJECTID":620474},"geometry":{"x":173636.74000000115,"y":2540977.3500000015}},{"attributes":{"ID":620502,"DIS_CODE":0,"TOWNNAME":"仁德區","LI":"仁義里","LIN":"48鄰","STREET":"仁義路","SECT":" ","MAREA":" ","LANE":" ","ALLEY":" ","HOUSE_NO":"９３號","E_COORD97":173612.97,"N_COORD97":2540975.8500000001,"ADDRESS":"仁義路９３號","OBJECTID":620475},"geometry":{"x":173612.97000000067,"y":2540975.8499999996}},{"attributes":{"ID":620503,"DIS_CODE":0,"TOWNNAME":"仁德區","LI":"仁義里","LIN":"48鄰","STREET":"仁義路","SECT":" ","MAREA":" ","LANE":" ","ALLEY":" ","HOUSE_NO":"１０３號","E_COORD97":173647.39000000001,"N_COORD97":2540978.8500000001,"ADDRESS":"仁義路１０３號","OBJECTID":620476},"geometry":{"x":173647.3900000006,"y":2540978.8499999996}},{"attributes":{"ID":620504,"DIS_CODE":0,"TOWNNAME":"仁德區","LI":"仁義里","LIN":"48鄰","STREET":"仁義路","SECT":" ","MAREA":" ","LANE":" ","ALLEY":" ","HOUSE_NO":"８９號","E_COORD97":173603.97,"N_COORD97":2540974.3500000001,"ADDRESS":"仁義路８９號","OBJECTID":620477},"geometry":{"x":173603.9700000016,"y":2540974.3500000015}},{"attributes":{"ID":620505,"DIS_CODE":0,"TOWNNAME":"仁德區","LI":"仁義里","LIN":"48鄰","STREET":"仁義路","SECT":" ","MAREA":" ","LANE":" ","ALLEY":" ","HOUSE_NO":"９７號","E_COORD97":173632.20000000001,"N_COORD97":2540977.1000000001,"ADDRESS":"仁義路９７號","OBJECTID":620478},"geometry":{"x":173632.20000000112,"y":2540977.0999999996}},{"attributes":{"ID":620506,"DIS_CODE":0,"TOWNNAME":"仁德區","LI":"仁義里","LIN":"48鄰","STREET":"仁義路","SECT":" ","MAREA":" ","LANE":" ","ALLEY":" ","HOUSE_NO":"８５號","E_COORD97":173595.66,"N_COORD97":2540974.1000000001,"ADDRESS":"仁義路８５號","OBJECTID":620479},"geometry":{"x":173595.66000000015,"y":2540974.0999999996}},{"attributes":{"ID":620507,"DIS_CODE":0,"TOWNNAME":"仁德區","LI":"仁義里","LIN":"48鄰","STREET":"仁義路","SECT":" ","MAREA":" ","LANE":" ","ALLEY":" ","HOUSE_NO":"８３號","E_COORD97":173591.54000000001,"N_COORD97":2540973.3500000001,"ADDRESS":"仁義路８３號","OBJECTID":620480},"geometry":{"x":173591.54000000004,"y":2540973.3499999978}},{"attributes":{"ID":620508,"DIS_CODE":0,"TOWNNAME":"中西區","LI":"三合里","LIN":"6鄰","STREET":"忠孝街","SECT":" ","MAREA":" ","LANE":" ","ALLEY":" ","HOUSE_NO":"３５號","E_COORD97":167620.60999999999,"N_COORD97":2544390.5899999999,"ADDRESS":"忠孝街３５號","OBJECTID":620481},"geometry":{"x":167620.61000000034,"y":2544390.5900000017}},{"attributes":{"ID":620509,"DIS_CODE":0,"TOWNNAME":"中西區","LI":"三合里","LIN":"6鄰","STREET":"忠孝街","SECT":" ","MAREA":" ","LANE":" ","ALLEY":" ","HOUSE_NO":"３７號","E_COORD97":167620.42999999999,"N_COORD97":2544395.8100000001,"ADDRESS":"忠孝街３７號","OBJECTID":620482},"geometry":{"x":167620.43000000063,"y":2544395.8100000042}},{"attributes":{"ID":620510,"DIS_CODE":0,"TOWNNAME":"中西區","LI":"三合里","LIN":"6鄰","STREET":"忠孝街","SECT":" ","MAREA":" ","LANE":" ","ALLEY":" ","HOUSE_NO":"３９號","E_COORD97":167622.31,"N_COORD97":2544400.0099999998,"ADDRESS":"忠孝街３９號","OBJECTID":620483},"geometry":{"x":167622.30999999959,"y":2544400.0099999979}},{"attributes":{"ID":620511,"DIS_CODE":0,"TOWNNAME":"中西區","LI":"三合里","LIN":"6鄰","STREET":"忠孝街","SECT":" ","MAREA":" ","LANE":" ","ALLEY":" ","HOUSE_NO":"４１號","E_COORD97":167627.85000000001,"N_COORD97":2544408,"ADDRESS":"忠孝街４１號","OBJECTID":620484},"geometry":{"x":167627.85000000056,"y":2544408.0000000019}},{"attributes":{"ID":620512,"DIS_CODE":0,"TOWNNAME":"中西區","LI":"三合里","LIN":"6鄰","STREET":"忠孝街","SECT":" ","MAREA":" ","LANE":" ","ALLEY":" ","HOUSE_NO":"４３號","E_COORD97":167631.51000000001,"N_COORD97":2544416.0299999998,"ADDRESS":"忠孝街４３號","OBJECTID":620485},"geometry":{"x":167631.51000000164,"y":2544416.0299999993}},{"attributes":{"ID":620513,"DIS_CODE":0,"TOWNNAME":"中西區","LI":"三合里","LIN":"6鄰","STREET":"忠孝街","SECT":" ","MAREA":" ","LANE":" ","ALLEY":" ","HOUSE_NO":"４５號","E_COORD97":167631.64999999999,"N_COORD97":2544417.7200000002,"ADDRESS":"忠孝街４５號","OBJECTID":620486},"geometry":{"x":167631.6500000013,"y":2544417.7200000025}},{"attributes":{"ID":620514,"DIS_CODE":0,"TOWNNAME":"中西區","LI":"三合里","LIN":"6鄰","STREET":"忠孝街","SECT":" ","MAREA":" ","LANE":" ","ALLEY":" ","HOUSE_NO":"４７號","E_COORD97":167633.62,"N_COORD97":2544420.6800000002,"ADDRESS":"忠孝街４７號","OBJECTID":620487},"geometry":{"x":167633.62000000104,"y":2544420.6800000016}},{"attributes":{"ID":620515,"DIS_CODE":0,"TOWNNAME":"中西區","LI":"三合里","LIN":"6鄰","STREET":"忠孝街","SECT":" ","MAREA":" ","LANE":" ","ALLEY":" ","HOUSE_NO":"５１號","E_COORD97":167637.85000000001,"N_COORD97":2544429.3999999999,"ADDRESS":"忠孝街５１號","OBJECTID":620488},"geometry":{"x":167637.85000000056,"y":2544429.4000000022}},{"attributes":{"ID":620516,"DIS_CODE":0,"TOWNNAME":"中西區","LI":"三合里","LIN":"6鄰","STREET":"忠孝街","SECT":" ","MAREA":" ","LANE":" ","ALLEY":" ","HOUSE_NO":"５３號","E_COORD97":167643.48999999999,"N_COORD97":2544433.6299999999,"ADDRESS":"忠孝街５３號","OBJECTID":620489},"geometry":{"x":167643.49000000022,"y":2544433.6300000008}},{"attributes":{"ID":620517,"DIS_CODE":0,"TOWNNAME":"仁德區","LI":"成功里","LIN":"39鄰","STREET":"文華路","SECT":"二段","MAREA":" ","LANE":" ","ALLEY":" ","HOUSE_NO":"５７號","E_COORD97":170300.64000000001,"N_COORD97":2537588.5099999998,"ADDRESS":"文華路二段５７號","OBJECTID":620490},"geometry":{"x":170300.6400000006,"y":2537588.5099999998}},{"attributes":{"ID":620518,"DIS_CODE":0,"TOWNNAME":"仁德區","LI":"成功里","LIN":"39鄰","STREET":"文華路","SECT":"二段","MAREA":" ","LANE":" ","ALLEY":" ","HOUSE_NO":"６５號","E_COORD97":170407.20000000001,"N_COORD97":2537597.0099999998,"ADDRESS":"文華路二段６５號","OBJECTID":620491},"geometry":{"x":170407.20000000019,"y":2537597.0100000016}},{"attributes":{"ID":620519,"DIS_CODE":0,"TOWNNAME":"仁德區","LI":"成功里","LIN":"39鄰","STREET":"文華路","SECT":"二段","MAREA":" ","LANE":" ","ALLEY":" ","HOUSE_NO":"５９號","E_COORD97":170343.82000000001,"N_COORD97":2537609.52,"ADDRESS":"文華路二段５９號","OBJECTID":620492},"geometry":{"x":170343.8200000003,"y":2537609.5200000014}},{"attributes":{"ID":620520,"DIS_CODE":0,"TOWNNAME":"仁德區","LI":"成功里","LIN":"39鄰","STREET":"文華路","SECT":"二段","MAREA":" ","LANE":" ","ALLEY":" ","HOUSE_NO":"６３號","E_COORD97":170389.06,"N_COORD97":2537597.7599999998,"ADDRESS":"文華路二段６３號","OBJECTID":620493},"geometry":{"x":170389.06000000145,"y":2537597.7600000016}},{"attributes":{"ID":620521,"DIS_CODE":0,"TOWNNAME":"仁德區","LI":"成功里","LIN":"39鄰","STREET":"文賢路","SECT":"一段","MAREA":" ","LANE":" ","ALLEY":" ","HOUSE_NO":"８０號","E_COORD97":170235.06,"N_COORD97":2538180.8199999998,"ADDRESS":"文賢路一段８０號","OBJECTID":620494},"geometry":{"x":170235.06000000052,"y":2538180.820000004}},{"attributes":{"ID":620522,"DIS_CODE":0,"TOWNNAME":"仁德區","LI":"成功里","LIN":"39鄰","STREET":"二仁路","SECT":"二段","MAREA":" ","LANE":" ","ALLEY":" ","HOUSE_NO":"６１４號","E_COORD97":170062.42000000001,"N_COORD97":2538317.02,"ADDRESS":"二仁路二段６１４號","OBJECTID":620495},"geometry":{"x":170062.41999999993,"y":2538317.0199999996}},{"attributes":{"ID":620523,"DIS_CODE":0,"TOWNNAME":"仁德區","LI":"成功里","LIN":"39鄰","STREET":"文賢路","SECT":"一段","MAREA":" ","LANE":" ","ALLEY":" ","HOUSE_NO":"７２號","E_COORD97":170210.23999999999,"N_COORD97":2538165.3300000001,"ADDRESS":"文賢路一段７２號","OBJECTID":620496},"geometry":{"x":170210.24000000022,"y":2538165.3300000001}},{"attributes":{"ID":620524,"DIS_CODE":0,"TOWNNAME":"新市區","LI":"新和里","LIN":"48鄰","STREET":"和平街","SECT":" ","MAREA":" ","LANE":" ","ALLEY":" ","HOUSE_NO":"１３４號","E_COORD97":177524.51000000001,"N_COORD97":2553356.5,"ADDRESS":"和平街１３４號","OBJECTID":620497},"geometry":{"x":177524.50999999978,"y":2553356.5}},{"attributes":{"ID":620525,"DIS_CODE":0,"TOWNNAME":"新市區","LI":"新和里","LIN":"48鄰","STREET":"和平街","SECT":" ","MAREA":" ","LANE":" ","ALLEY":" ","HOUSE_NO":"１３０號","E_COORD97":177524.85000000001,"N_COORD97":2553375.75,"ADDRESS":"和平街１３０號","OBJECTID":620498},"geometry":{"x":177524.84999999963,"y":2553375.75}},{"attributes":{"ID":620526,"DIS_CODE":0,"TOWNNAME":"新市區","LI":"新和里","LIN":"48鄰","STREET":"和平街","SECT":" ","MAREA":" ","LANE":" ","ALLEY":" ","HOUSE_NO":"８０號","E_COORD97":177597.14999999999,"N_COORD97":2553419.25,"ADDRESS":"和平街８０號","OBJECTID":620499},"geometry":{"x":177597.14999999944,"y":2553419.25}},{"attributes":{"ID":620527,"DIS_CODE":0,"TOWNNAME":"新市區","LI":"新和里","LIN":"48鄰","STREET":"和平街","SECT":" ","MAREA":" ","LANE":" ","ALLEY":" ","HOUSE_NO":"６４號","E_COORD97":177621.34,"N_COORD97":2553451.5,"ADDRESS":"和平街６４號","OBJECTID":620500},"geometry":{"x":177621.34000000078,"y":2553451.5}},{"attributes":{"ID":620528,"DIS_CODE":0,"TOWNNAME":"新市區","LI":"新和里","LIN":"48鄰","STREET":"和平街","SECT":" ","MAREA":" ","LANE":" ","ALLEY":" ","HOUSE_NO":"７０號","E_COORD97":177613.23999999999,"N_COORD97":2553438.75,"ADDRESS":"和平街７０號","OBJECTID":620501},"geometry":{"x":177613.24000000022,"y":2553438.7500000019}},{"attributes":{"ID":620529,"DIS_CODE":0,"TOWNNAME":"新市區","LI":"新和里","LIN":"48鄰","STREET":"和平街","SECT":" ","MAREA":" ","LANE":" ","ALLEY":" ","HOUSE_NO":"１１２號","E_COORD97":177549.67999999999,"N_COORD97":2553374.5,"ADDRESS":"和平街１１２號","OBJECTID":620502},"geometry":{"x":177549.68000000063,"y":2553374.5}},{"attributes":{"ID":620530,"DIS_CODE":0,"TOWNNAME":"新市區","LI":"新和里","LIN":"48鄰","STREET":"和平街","SECT":" ","MAREA":" ","LANE":" ","ALLEY":" ","HOUSE_NO":"７２號","E_COORD97":177610.10000000001,"N_COORD97":2553435,"ADDRESS":"和平街７２號","OBJECTID":620503},"geometry":{"x":177610.09999999963,"y":2553435}},{"attributes":{"ID":620531,"DIS_CODE":0,"TOWNNAME":"新市區","LI":"新和里","LIN":"48鄰","STREET":"和平街","SECT":" ","MAREA":" ","LANE":" ","ALLEY":" ","HOUSE_NO":"１１０號","E_COORD97":177552.92999999999,"N_COORD97":2553377.25,"ADDRESS":"和平街１１０號","OBJECTID":620504},"geometry":{"x":177552.93000000063,"y":2553377.2500000019}},{"attributes":{"ID":620532,"DIS_CODE":0,"TOWNNAME":"新市區","LI":"新和里","LIN":"48鄰","STREET":"和平街","SECT":" ","MAREA":" ","LANE":" ","ALLEY":" ","HOUSE_NO":"８２號","E_COORD97":177595.31,"N_COORD97":2553414,"ADDRESS":"和平街８２號","OBJECTID":620505},"geometry":{"x":177595.31000000145,"y":2553414}},{"attributes":{"ID":620533,"DIS_CODE":0,"TOWNNAME":"新市區","LI":"新和里","LIN":"48鄰","STREET":"和平街","SECT":" ","MAREA":" ","LANE":" ","ALLEY":" ","HOUSE_NO":"１０８號","E_COORD97":177556.39000000001,"N_COORD97":2553379.5,"ADDRESS":"和平街１０８號","OBJECTID":620506},"geometry":{"x":177556.3900000006,"y":2553379.5000000019}},{"attributes":{"ID":620534,"DIS_CODE":0,"TOWNNAME":"中西區","LI":"三合里","LIN":"14鄰","STREET":"成功路","SECT":" ","MAREA":" ","LANE":" ","ALLEY":" ","HOUSE_NO":"４６９號","E_COORD97":167565.20000000001,"N_COORD97":2544663.21,"ADDRESS":"成功路４６９號","OBJECTID":620507},"geometry":{"x":167565.20000000112,"y":2544663.2100000009}},{"attributes":{"ID":620535,"DIS_CODE":0,"TOWNNAME":"中西區","LI":"三合里","LIN":"14鄰","STREET":"成功路","SECT":" ","MAREA":" ","LANE":" ","ALLEY":" ","HOUSE_NO":"４７１號","E_COORD97":167560.78,"N_COORD97":2544664.46,"ADDRESS":"成功路４７１號","OBJECTID":620508},"geometry":{"x":167560.78000000212,"y":2544664.4600000028}},{"attributes":{"ID":620536,"DIS_CODE":0,"TOWNNAME":"中西區","LI":"三合里","LIN":"14鄰","STREET":"成功路","SECT":" ","MAREA":" ","LANE":" ","ALLEY":" ","HOUSE_NO":"４７５號","E_COORD97":167554.01999999999,"N_COORD97":2544669,"ADDRESS":"成功路４７５號","OBJECTID":620509},"geometry":{"x":167554.02000000048,"y":2544669.0000000019}},{"attributes":{"ID":620537,"DIS_CODE":0,"TOWNNAME":"中西區","LI":"三合里","LIN":"14鄰","STREET":"成功路","SECT":" ","MAREA":" ","LANE":" ","ALLEY":" ","HOUSE_NO":"４７７號","E_COORD97":167551.06,"N_COORD97":2544670.0800000001,"ADDRESS":"成功路４７７號","OBJECTID":620510},"geometry":{"x":167551.05999999959,"y":2544670.0800000001}},{"attributes":{"ID":620538,"DIS_CODE":0,"TOWNNAME":"中西區","LI":"三合里","LIN":"14鄰","STREET":"成功路","SECT":" ","MAREA":" ","LANE":" ","ALLEY":" ","HOUSE_NO":"４７９號","E_COORD97":167543.39999999999,"N_COORD97":2544675.21,"ADDRESS":"成功路４７９號","OBJECTID":620511},"geometry":{"x":167543.4000000013,"y":2544675.2100000028}},{"attributes":{"ID":620539,"DIS_CODE":0,"TOWNNAME":"中西區","LI":"三合里","LIN":"8鄰","STREET":"金華路","SECT":"四段","MAREA":" ","LANE":" ","ALLEY":" ","HOUSE_NO":"２１２號","E_COORD97":167585.89999999999,"N_COORD97":2544632.9100000001,"ADDRESS":"金華路四段２１２號","OBJECTID":620512},"geometry":{"x":167585.9000000013,"y":2544632.910000002}},{"attributes":{"ID":620540,"DIS_CODE":0,"TOWNNAME":"中西區","LI":"三合里","LIN":"8鄰","STREET":"金華路","SECT":"四段","MAREA":" ","LANE":" ","ALLEY":" ","HOUSE_NO":"２１２號底一層","E_COORD97":167585.89999999999,"N_COORD97":2544632.9100000001,"ADDRESS":"金華路四段２１２號底一層","OBJECTID":620513},"geometry":{"x":167585.9000000013,"y":2544632.910000002}},{"attributes":{"ID":620541,"DIS_CODE":0,"TOWNNAME":"中西區","LI":"三合里","LIN":"8鄰","STREET":"金華路","SECT":"四段","MAREA":" ","LANE":" ","ALLEY":" ","HOUSE_NO":"２１２號底一層之１","E_COORD97":167585.89999999999,"N_COORD97":2544632.9100000001,"ADDRESS":"金華路四段２１２號底一層之１","OBJECTID":620514},"geometry":{"x":167585.9000000013,"y":2544632.910000002}},{"attributes":{"ID":620542,"DIS_CODE":0,"TOWNNAME":"中西區","LI":"三合里","LIN":"8鄰","STREET":"金華路","SECT":"四段","MAREA":" ","LANE":" ","ALLEY":" ","HOUSE_NO":"２１２號底二層","E_COORD97":167585.89999999999,"N_COORD97":2544632.9100000001,"ADDRESS":"金華路四段２１２號底二層","OBJECTID":620515},"geometry":{"x":167585.9000000013,"y":2544632.910000002}},{"attributes":{"ID":620543,"DIS_CODE":0,"TOWNNAME":"永康區","LI":"\u25A0行里","LIN":"48鄰","STREET":"新民街","SECT":" ","MAREA":" ","LANE":" ","ALLEY":" ","HOUSE_NO":"３６號","E_COORD97":172419.07999999999,"N_COORD97":2548956.4900000002,"ADDRESS":"新民街３６號","OBJECTID":620516},"geometry":{"x":172419.08000000101,"y":2548956.4900000002}},{"attributes":{"ID":620544,"DIS_CODE":0,"TOWNNAME":"永康區","LI":"\u25A0行里","LIN":"48鄰","STREET":"新民街","SECT":" ","MAREA":" ","LANE":" ","ALLEY":" ","HOUSE_NO":"４０號","E_COORD97":172410.82000000001,"N_COORD97":2548958.1000000001,"ADDRESS":"新民街４０號","OBJECTID":620517},"geometry":{"x":172410.82000000123,"y":2548958.0999999996}},{"attributes":{"ID":620545,"DIS_CODE":0,"TOWNNAME":"永康區","LI":"\u25A0行里","LIN":"48鄰","STREET":"新民街","SECT":" ","MAREA":" ","LANE":" ","ALLEY":" ","HOUSE_NO":"４０之１號","E_COORD97":172406.70000000001,"N_COORD97":2548958.9100000001,"ADDRESS":"新民街４０之１號","OBJECTID":620518},"geometry":{"x":172406.70000000112,"y":2548958.910000002}},{"attributes":{"ID":620546,"DIS_CODE":0,"TOWNNAME":"永康區","LI":"\u25A0行里","LIN":"48鄰","STREET":"新民街","SECT":" ","MAREA":" ","LANE":" ","ALLEY":" ","HOUSE_NO":"４２號","E_COORD97":172402.57999999999,"N_COORD97":2548959.7200000002,"ADDRESS":"新民街４２號","OBJECTID":620519},"geometry":{"x":172402.58000000007,"y":2548959.7200000044}},{"attributes":{"ID":620547,"DIS_CODE":0,"TOWNNAME":"永康區","LI":"\u25A0行里","LIN":"48鄰","STREET":"新民街","SECT":" ","MAREA":" ","LANE":" ","ALLEY":" ","HOUSE_NO":"４６號","E_COORD97":172398.45000000001,"N_COORD97":2548960.52,"ADDRESS":"新民街４６號","OBJECTID":620520},"geometry":{"x":172398.45000000019,"y":2548960.5200000014}},{"attributes":{"ID":620548,"DIS_CODE":0,"TOWNNAME":"永康區","LI":"\u25A0行里","LIN":"48鄰","STREET":"新民街","SECT":" ","MAREA":" ","LANE":" ","ALLEY":" ","HOUSE_NO":"４６之１號","E_COORD97":172391.07000000001,"N_COORD97":2548965.2000000002,"ADDRESS":"新民街４６之１號","OBJECTID":620521},"geometry":{"x":172391.0700000003,"y":2548965.200000003}},{"attributes":{"ID":620549,"DIS_CODE":0,"TOWNNAME":"中西區","LI":"三合里","LIN":"14鄰","STREET":"金華路","SECT":"四段","MAREA":" ","LANE":" ","ALLEY":" ","HOUSE_NO":"１６９號","E_COORD97":167557.47,"N_COORD97":2544632.2000000002,"ADDRESS":"金華路四段１６９號","OBJECTID":620522},"geometry":{"x":167557.47000000067,"y":2544632.1999999974}},{"attributes":{"ID":620550,"DIS_CODE":0,"TOWNNAME":"中西區","LI":"三合里","LIN":"14鄰","STREET":"金華路","SECT":"四段","MAREA":" ","LANE":" ","ALLEY":" ","HOUSE_NO":"１７１號","E_COORD97":167558.57999999999,"N_COORD97":2544635.6400000001,"ADDRESS":"金華路四段１７１號","OBJECTID":620523},"geometry":{"x":167558.58000000194,"y":2544635.6400000025}},{"attributes":{"ID":620551,"DIS_CODE":0,"TOWNNAME":"中西區","LI":"三合里","LIN":"14鄰","STREET":"金華路","SECT":"四段","MAREA":" ","LANE":" ","ALLEY":" ","HOUSE_NO":"１７３號","E_COORD97":167559.39999999999,"N_COORD97":2544638.1299999999,"ADDRESS":"金華路四段１７３號","OBJECTID":620524},"geometry":{"x":167559.40000000037,"y":2544638.129999999}},{"attributes":{"ID":620552,"DIS_CODE":0,"TOWNNAME":"中西區","LI":"三合里","LIN":"14鄰","STREET":"金華路","SECT":"四段","MAREA":" ","LANE":" ","ALLEY":" ","HOUSE_NO":"１７５號","E_COORD97":167559.82000000001,"N_COORD97":2544640.4700000002,"ADDRESS":"金華路四段１７５號","OBJECTID":620525},"geometry":{"x":167559.8200000003,"y":2544640.4700000025}},{"attributes":{"ID":620553,"DIS_CODE":0,"TOWNNAME":"新市區","LI":"新和里","LIN":"48鄰","STREET":"和平街","SECT":" ","MAREA":" ","LANE":" ","ALLEY":" ","HOUSE_NO":"７８號","E_COORD97":177601.14999999999,"N_COORD97":2553422,"ADDRESS":"和平街７８號","OBJECTID":620526},"geometry":{"x":177601.1500000013,"y":2553422}},{"attributes":{"ID":620554,"DIS_CODE":0,"TOWNNAME":"新市區","LI":"新和里","LIN":"48鄰","STREET":"和平街","SECT":" ","MAREA":" ","LANE":" ","ALLEY":" ","HOUSE_NO":"１５６號","E_COORD97":177473.98000000001,"N_COORD97":2553317.25,"ADDRESS":"和平街１５６號","OBJECTID":620527},"geometry":{"x":177473.98000000045,"y":2553317.2500000019}},{"attributes":{"ID":620555,"DIS_CODE":0,"TOWNNAME":"中西區","LI":"三合里","LIN":"16鄰","STREET":"成功路","SECT":" ","MAREA":" ","LANE":" ","ALLEY":" ","HOUSE_NO":"５０１號","E_COORD97":167473.89999999999,"N_COORD97":2544700.6000000001,"ADDRESS":"成功路５０１號","OBJECTID":620528},"geometry":{"x":167473.9000000013,"y":2544700.5999999996}},{"attributes":{"ID":620556,"DIS_CODE":0,"TOWNNAME":"中西區","LI":"三合里","LIN":"16鄰","STREET":"成功路","SECT":" ","MAREA":" ","LANE":" ","ALLEY":" ","HOUSE_NO":"５０３號","E_COORD97":167469.67000000001,"N_COORD97":2544702.54,"ADDRESS":"成功路５０３號","OBJECTID":620529},"geometry":{"x":167469.67000000179,"y":2544702.540000001}},{"attributes":{"ID":620557,"DIS_CODE":0,"TOWNNAME":"中西區","LI":"三合里","LIN":"16鄰","STREET":"成功路","SECT":" ","MAREA":" ","LANE":" ","ALLEY":" ","HOUSE_NO":"５０５號","E_COORD97":167463.31,"N_COORD97":2544706.4199999999,"ADDRESS":"成功路５０５號","OBJECTID":620530},"geometry":{"x":167463.31000000145,"y":2544706.4200000037}},{"attributes":{"ID":620558,"DIS_CODE":0,"TOWNNAME":"中西區","LI":"三合里","LIN":"16鄰","STREET":"成功路","SECT":" ","MAREA":" ","LANE":" ","ALLEY":" ","HOUSE_NO":"５０７號","E_COORD97":167459.78,"N_COORD97":2544707.2999999998,"ADDRESS":"成功路５０７號","OBJECTID":620531},"geometry":{"x":167459.78000000119,"y":2544707.3000000007}},{"attributes":{"ID":620559,"DIS_CODE":0,"TOWNNAME":"佳里區","LI":"安西里","LIN":"48鄰","STREET":"育善街","SECT":" ","MAREA":" ","LANE":" ","ALLEY":" ","HOUSE_NO":"８３號","E_COORD97":164962.5,"N_COORD97":2562232.3300000001,"ADDRESS":"育善街８３號","OBJECTID":620532},"geometry":{"x":164962.50000000093,"y":2562232.3300000019}},{"attributes":{"ID":620560,"DIS_CODE":0,"TOWNNAME":"佳里區","LI":"安西里","LIN":"48鄰","STREET":"育善街","SECT":" ","MAREA":" ","LANE":" ","ALLEY":" ","HOUSE_NO":"８５號","E_COORD97":164961.57000000001,"N_COORD97":2562236.46,"ADDRESS":"育善街８５號","OBJECTID":620533},"geometry":{"x":164961.5700000003,"y":2562236.4600000028}},{"attributes":{"ID":620561,"DIS_CODE":0,"TOWNNAME":"佳里區","LI":"安西里","LIN":"48鄰","STREET":"育善街","SECT":" ","MAREA":" ","LANE":" ","ALLEY":" ","HOUSE_NO":"８７號","E_COORD97":164961.39999999999,"N_COORD97":2562240.6699999999,"ADDRESS":"育善街８７號","OBJECTID":620534},"geometry":{"x":164961.40000000224,"y":2562240.6700000018}},{"attributes":{"ID":620562,"DIS_CODE":0,"TOWNNAME":"佳里區","LI":"安西里","LIN":"48鄰","STREET":"育善街","SECT":" ","MAREA":" ","LANE":" ","ALLEY":" ","HOUSE_NO":"８９號","E_COORD97":164960.48000000001,"N_COORD97":2562244.8500000001,"ADDRESS":"育善街８９號","OBJECTID":620535},"geometry":{"x":164960.48000000045,"y":2562244.8500000034}},{"attributes":{"ID":620563,"DIS_CODE":0,"TOWNNAME":"佳里區","LI":"安西里","LIN":"48鄰","STREET":"育善街","SECT":" ","MAREA":" ","LANE":" ","ALLEY":" ","HOUSE_NO":"９１號","E_COORD97":164959.59,"N_COORD97":2562249.0299999998,"ADDRESS":"育善街９１號","OBJECTID":620536},"geometry":{"x":164959.59000000171,"y":2562249.0299999993}},{"attributes":{"ID":620564,"DIS_CODE":0,"TOWNNAME":"佳里區","LI":"安西里","LIN":"48鄰","STREET":"育善街","SECT":" ","MAREA":" ","LANE":" ","ALLEY":" ","HOUSE_NO":"９３號","E_COORD97":164958.54000000001,"N_COORD97":2562253.5800000001,"ADDRESS":"育善街９３號","OBJECTID":620537},"geometry":{"x":164958.54000000097,"y":2562253.5799999982}},{"attributes":{"ID":620565,"DIS_CODE":0,"TOWNNAME":"佳里區","LI":"安西里","LIN":"48鄰","STREET":"育善街","SECT":" ","MAREA":" ","LANE":" ","ALLEY":" ","HOUSE_NO":"９５號","E_COORD97":164956.20999999999,"N_COORD97":2562258.2599999998,"ADDRESS":"育善街９５號","OBJECTID":620538},"geometry":{"x":164956.21000000089,"y":2562258.2599999998}},{"attributes":{"ID":620566,"DIS_CODE":0,"TOWNNAME":"永康區","LI":"\u25A0行里","LIN":"48鄰","STREET":"新民街","SECT":" ","MAREA":" ","LANE":" ","ALLEY":" ","HOUSE_NO":"４５號四樓之２","E_COORD97":172375.94,"N_COORD97":2548942.7799999998,"ADDRESS":"新民街４５號四樓之２","OBJECTID":620539},"geometry":{"x":172375.94000000227,"y":2548942.7799999993}},{"attributes":{"ID":620567,"DIS_CODE":0,"TOWNNAME":"永康區","LI":"\u25A0行里","LIN":"48鄰","STREET":"新民街","SECT":" ","MAREA":" ","LANE":" ","ALLEY":" ","HOUSE_NO":"４５號八樓之１","E_COORD97":172375.79999999999,"N_COORD97":2548942.7799999998,"ADDRESS":"新民街４５號八樓之１","OBJECTID":620540},"geometry":{"x":172375.79999999981,"y":2548942.7799999993}},{"attributes":{"ID":620568,"DIS_CODE":0,"TOWNNAME":"永康區","LI":"\u25A0行里","LIN":"48鄰","STREET":"新民街","SECT":" ","MAREA":" ","LANE":" ","ALLEY":" ","HOUSE_NO":"４５號六樓之２","E_COORD97":172375.94,"N_COORD97":2548942.7799999998,"ADDRESS":"新民街４５號六樓之２","OBJECTID":620541},"geometry":{"x":172375.94000000227,"y":2548942.7799999993}},{"attributes":{"ID":620569,"DIS_CODE":0,"TOWNNAME":"永康區","LI":"\u25A0行里","LIN":"48鄰","STREET":"新民街","SECT":" ","MAREA":" ","LANE":" ","ALLEY":" ","HOUSE_NO":"４５號六樓之１","E_COORD97":172375.79999999999,"N_COORD97":2548942.7799999998,"ADDRESS":"新民街４５號六樓之１","OBJECTID":620542},"geometry":{"x":172375.79999999981,"y":2548942.7799999993}},{"attributes":{"ID":620570,"DIS_CODE":0,"TOWNNAME":"永康區","LI":"\u25A0行里","LIN":"48鄰","STREET":"新民街","SECT":" ","MAREA":" ","LANE":" ","ALLEY":" ","HOUSE_NO":"４５號六樓之３","E_COORD97":172375.89999999999,"N_COORD97":2548942.7799999998,"ADDRESS":"新民街４５號六樓之３","OBJECTID":620543},"geometry":{"x":172375.90000000037,"y":2548942.7799999993}},{"attributes":{"ID":620571,"DIS_CODE":0,"TOWNNAME":"永康區","LI":"\u25A0行里","LIN":"48鄰","STREET":"新民街","SECT":" ","MAREA":" ","LANE":" ","ALLEY":" ","HOUSE_NO":"４５號八樓之３","E_COORD97":172375.89999999999,"N_COORD97":2548942.7799999998,"ADDRESS":"新民街４５號八樓之３","OBJECTID":620544},"geometry":{"x":172375.90000000037,"y":2548942.7799999993}},{"attributes":{"ID":620572,"DIS_CODE":0,"TOWNNAME":"永康區","LI":"\u25A0行里","LIN":"48鄰","STREET":"新民街","SECT":" ","MAREA":" ","LANE":" ","ALLEY":" ","HOUSE_NO":"４５號五樓之１","E_COORD97":172375.79999999999,"N_COORD97":2548942.7799999998,"ADDRESS":"新民街４５號五樓之１","OBJECTID":620545},"geometry":{"x":172375.79999999981,"y":2548942.7799999993}},{"attributes":{"ID":620573,"DIS_CODE":0,"TOWNNAME":"麻豆區","LI":"保安里","LIN":"7鄰","STREET":"興中路","SECT":" ","MAREA":" ","LANE":" ","ALLEY":" ","HOUSE_NO":"１１５號","E_COORD97":173328.29999999999,"N_COORD97":2564833.6800000002,"ADDRESS":"興中路１１５號","OBJECTID":620546},"geometry":{"x":173328.29999999981,"y":2564833.6800000016}},{"attributes":{"ID":620574,"DIS_CODE":0,"TOWNNAME":"永康區","LI":"\u25A0行里","LIN":"48鄰","STREET":"新民街","SECT":" ","MAREA":" ","LANE":" ","ALLEY":" ","HOUSE_NO":"４５號七樓之１","E_COORD97":172375.79999999999,"N_COORD97":2548942.7799999998,"ADDRESS":"新民街４５號七樓之１","OBJECTID":620547},"geometry":{"x":172375.79999999981,"y":2548942.7799999993}},{"attributes":{"ID":620575,"DIS_CODE":0,"TOWNNAME":"永康區","LI":"\u25A0行里","LIN":"48鄰","STREET":"新民街","SECT":" ","MAREA":" ","LANE":" ","ALLEY":" ","HOUSE_NO":"４５號七樓之２","E_COORD97":172375.94,"N_COORD97":2548942.7799999998,"ADDRESS":"新民街４５號七樓之２","OBJECTID":620548},"geometry":{"x":172375.94000000227,"y":2548942.7799999993}},{"attributes":{"ID":620576,"DIS_CODE":0,"TOWNNAME":"永康區","LI":"\u25A0行里","LIN":"48鄰","STREET":"新民街","SECT":" ","MAREA":" ","LANE":" ","ALLEY":" ","HOUSE_NO":"４５號九樓之１","E_COORD97":172375.79999999999,"N_COORD97":2548942.7799999998,"ADDRESS":"新民街４５號九樓之１","OBJECTID":620549},"geometry":{"x":172375.79999999981,"y":2548942.7799999993}},{"attributes":{"ID":620577,"DIS_CODE":0,"TOWNNAME":"永康區","LI":"\u25A0行里","LIN":"48鄰","STREET":"新民街","SECT":" ","MAREA":" ","LANE":" ","ALLEY":" ","HOUSE_NO":"４５號四樓之１","E_COORD97":172375.79999999999,"N_COORD97":2548942.7799999998,"ADDRESS":"新民街４５號四樓之１","OBJECTID":620550},"geometry":{"x":172375.79999999981,"y":2548942.7799999993}},{"attributes":{"ID":620578,"DIS_CODE":0,"TOWNNAME":"永康區","LI":"\u25A0行里","LIN":"48鄰","STREET":"新民街","SECT":" ","MAREA":" ","LANE":" ","ALLEY":" ","HOUSE_NO":"４５號八樓之２","E_COORD97":172375.94,"N_COORD97":2548942.7799999998,"ADDRESS":"新民街４５號八樓之２","OBJECTID":620551},"geometry":{"x":172375.94000000227,"y":2548942.7799999993}},{"attributes":{"ID":620579,"DIS_CODE":0,"TOWNNAME":"永康區","LI":"\u25A0行里","LIN":"48鄰","STREET":"新民街","SECT":" ","MAREA":" ","LANE":" ","ALLEY":" ","HOUSE_NO":"４５號九樓之３","E_COORD97":172375.89999999999,"N_COORD97":2548942.7799999998,"ADDRESS":"新民街４５號九樓之３","OBJECTID":620552},"geometry":{"x":172375.90000000037,"y":2548942.7799999993}},{"attributes":{"ID":620580,"DIS_CODE":0,"TOWNNAME":"永康區","LI":"\u25A0行里","LIN":"48鄰","STREET":"新民街","SECT":" ","MAREA":" ","LANE":" ","ALLEY":" ","HOUSE_NO":"４５號五樓之２","E_COORD97":172375.94,"N_COORD97":2548942.7799999998,"ADDRESS":"新民街４５號五樓之２","OBJECTID":620553},"geometry":{"x":172375.94000000227,"y":2548942.7799999993}},{"attributes":{"ID":620581,"DIS_CODE":0,"TOWNNAME":"永康區","LI":"崑山里","LIN":"48鄰","STREET":"永華路","SECT":" ","MAREA":" ","LANE":" ","ALLEY":" ","HOUSE_NO":"６８號","E_COORD97":174099.31,"N_COORD97":2545310.1200000001,"ADDRESS":"永華路６８號","OBJECTID":620554},"geometry":{"x":174099.30999999959,"y":2545310.1200000029}},{"attributes":{"ID":620582,"DIS_CODE":0,"TOWNNAME":"永康區","LI":"崑山里","LIN":"48鄰","STREET":"國光六街","SECT":" ","MAREA":" ","LANE":" ","ALLEY":" ","HOUSE_NO":"７１號","E_COORD97":174122.35999999999,"N_COORD97":2545303.1600000001,"ADDRESS":"國光六街７１號","OBJECTID":620555},"geometry":{"x":174122.3600000022,"y":2545303.160000002}},{"attributes":{"ID":620583,"DIS_CODE":0,"TOWNNAME":"永康區","LI":"崑山里","LIN":"48鄰","STREET":"永華路","SECT":" ","MAREA":" ","LANE":" ","ALLEY":" ","HOUSE_NO":"４２號","E_COORD97":174088.67999999999,"N_COORD97":2545246.9500000002,"ADDRESS":"永華路４２號","OBJECTID":620556},"geometry":{"x":174088.6799999997,"y":2545246.9499999993}},{"attributes":{"ID":620584,"DIS_CODE":0,"TOWNNAME":"永康區","LI":"崑山里","LIN":"48鄰","STREET":"永華路","SECT":" ","MAREA":" ","LANE":" ","ALLEY":" ","HOUSE_NO":"３６號","E_COORD97":174083.07000000001,"N_COORD97":2545233.3199999998,"ADDRESS":"永華路３６號","OBJECTID":620557},"geometry":{"x":174083.0700000003,"y":2545233.3200000022}},{"attributes":{"ID":620585,"DIS_CODE":0,"TOWNNAME":"永康區","LI":"崑山里","LIN":"48鄰","STREET":"永華路","SECT":" ","MAREA":" ","LANE":" ","ALLEY":" ","HOUSE_NO":"６９號","E_COORD97":174077.10999999999,"N_COORD97":2545314.71,"ADDRESS":"永華路６９號","OBJECTID":620558},"geometry":{"x":174077.11000000127,"y":2545314.7100000009}},{"attributes":{"ID":620586,"DIS_CODE":0,"TOWNNAME":"永康區","LI":"崑山里","LIN":"48鄰","STREET":"永華路","SECT":" ","MAREA":" ","LANE":" ","ALLEY":" ","HOUSE_NO":"６４號","E_COORD97":174097.48999999999,"N_COORD97":2545301.3900000001,"ADDRESS":"永華路６４號","OBJECTID":620559},"geometry":{"x":174097.48999999929,"y":2545301.3900000025}},{"attributes":{"ID":620587,"DIS_CODE":0,"TOWNNAME":"永康區","LI":"\u25A0行里","LIN":"48鄰","STREET":"新民街","SECT":" ","MAREA":" ","LANE":" ","ALLEY":" ","HOUSE_NO":"６０號","E_COORD97":172375.64000000001,"N_COORD97":2548963.0099999998,"ADDRESS":"新民街６０號","OBJECTID":620560},"geometry":{"x":172375.6400000006,"y":2548963.0099999998}},{"attributes":{"ID":620588,"DIS_CODE":0,"TOWNNAME":"永康區","LI":"崑山里","LIN":"48鄰","STREET":"永華路","SECT":" ","MAREA":" ","LANE":" ","ALLEY":" ","HOUSE_NO":"４６號","E_COORD97":174089.73000000001,"N_COORD97":2545252.4500000002,"ADDRESS":"永華路４６號","OBJECTID":620561},"geometry":{"x":174089.73000000138,"y":2545252.4500000011}},{"attributes":{"ID":620589,"DIS_CODE":0,"TOWNNAME":"永康區","LI":"崑山里","LIN":"48鄰","STREET":"國光六街","SECT":" ","MAREA":" ","LANE":" ","ALLEY":" ","HOUSE_NO":"７７號","E_COORD97":174110.92000000001,"N_COORD97":2545308.3199999998,"ADDRESS":"國光六街７７號","OBJECTID":620562},"geometry":{"x":174110.91999999993,"y":2545308.3200000022}},{"attributes":{"ID":620590,"DIS_CODE":0,"TOWNNAME":"永康區","LI":"崑山里","LIN":"48鄰","STREET":"國光六街","SECT":" ","MAREA":" ","LANE":" ","ALLEY":" ","HOUSE_NO":"３９之６號","E_COORD97":174190.12,"N_COORD97":2545278.0800000001,"ADDRESS":"國光六街３９之６號","OBJECTID":620563},"geometry":{"x":174190.12000000104,"y":2545278.0799999982}},{"attributes":{"ID":620591,"DIS_CODE":0,"TOWNNAME":"永康區","LI":"崑山里","LIN":"48鄰","STREET":"永華路","SECT":" ","MAREA":" ","LANE":" ","ALLEY":" ","HOUSE_NO":"６６號","E_COORD97":174098.04000000001,"N_COORD97":2545305.46,"ADDRESS":"永華路６６號","OBJECTID":620564},"geometry":{"x":174098.04000000004,"y":2545305.4600000009}},{"attributes":{"ID":620592,"DIS_CODE":0,"TOWNNAME":"永康區","LI":"崑山里","LIN":"48鄰","STREET":"永華路","SECT":" ","MAREA":" ","LANE":" ","ALLEY":" ","HOUSE_NO":"６２號","E_COORD97":174096.01000000001,"N_COORD97":2545296.6899999999,"ADDRESS":"永華路６２號","OBJECTID":620565},"geometry":{"x":174096.01000000071,"y":2545296.6899999995}},{"attributes":{"ID":620593,"DIS_CODE":0,"TOWNNAME":"永康區","LI":"崑山里","LIN":"48鄰","STREET":"國光六街","SECT":" ","MAREA":" ","LANE":" ","ALLEY":" ","HOUSE_NO":"３９之５號","E_COORD97":174194.42000000001,"N_COORD97":2545276.5800000001,"ADDRESS":"國光六街３９之５號","OBJECTID":620566},"geometry":{"x":174194.42000000179,"y":2545276.5800000001}},{"attributes":{"ID":620594,"DIS_CODE":0,"TOWNNAME":"永康區","LI":"崑山里","LIN":"48鄰","STREET":"國光六街","SECT":" ","MAREA":" ","LANE":" ","ALLEY":" ","HOUSE_NO":"５３號","E_COORD97":174169.01000000001,"N_COORD97":2545285.29,"ADDRESS":"國光六街５３號","OBJECTID":620567},"geometry":{"x":174169.01000000071,"y":2545285.2899999991}},{"attributes":{"ID":620595,"DIS_CODE":0,"TOWNNAME":"永康區","LI":"崑山里","LIN":"48鄰","STREET":"國光六街","SECT":" ","MAREA":" ","LANE":" ","ALLEY":" ","HOUSE_NO":"６９號","E_COORD97":174126.41,"N_COORD97":2545301.9100000001,"ADDRESS":"國光六街６９號","OBJECTID":620568},"geometry":{"x":174126.41000000015,"y":2545301.9100000001}},{"attributes":{"ID":620596,"DIS_CODE":0,"TOWNNAME":"永康區","LI":"崑山里","LIN":"48鄰","STREET":"永華路","SECT":" ","MAREA":" ","LANE":" ","ALLEY":" ","HOUSE_NO":"５８號","E_COORD97":174093.89999999999,"N_COORD97":2545287.3300000001,"ADDRESS":"永華路５８號","OBJECTID":620569},"geometry":{"x":174093.9000000013,"y":2545287.3300000019}},{"attributes":{"ID":620597,"DIS_CODE":0,"TOWNNAME":"永康區","LI":"崑山里","LIN":"48鄰","STREET":"國光六街","SECT":" ","MAREA":" ","LANE":" ","ALLEY":" ","HOUSE_NO":"５７號","E_COORD97":174156.42999999999,"N_COORD97":2545284.3500000001,"ADDRESS":"國光六街５７號","OBJECTID":620570},"geometry":{"x":174156.4299999997,"y":2545284.3500000015}},{"attributes":{"ID":620598,"DIS_CODE":0,"TOWNNAME":"永康區","LI":"崑山里","LIN":"48鄰","STREET":"國光六街","SECT":" ","MAREA":" ","LANE":" ","ALLEY":" ","HOUSE_NO":"５５號","E_COORD97":174162.39000000001,"N_COORD97":2545282.29,"ADDRESS":"國光六街５５號","OBJECTID":620571},"geometry":{"x":174162.3900000006,"y":2545282.2899999972}},{"attributes":{"ID":620599,"DIS_CODE":0,"TOWNNAME":"永康區","LI":"崑山里","LIN":"48鄰","STREET":"國光六街","SECT":" ","MAREA":" ","LANE":" ","ALLEY":" ","HOUSE_NO":"３９之７號","E_COORD97":174185.62,"N_COORD97":2545279.5800000001,"ADDRESS":"國光六街３９之７號","OBJECTID":620572},"geometry":{"x":174185.62000000011,"y":2545279.5800000019}},{"attributes":{"ID":620600,"DIS_CODE":0,"TOWNNAME":"仁德區","LI":"成功里","LIN":"39鄰","STREET":"文賢路","SECT":"一段","MAREA":" ","LANE":" ","ALLEY":" ","HOUSE_NO":"１３號","E_COORD97":170121.04000000001,"N_COORD97":2538282.0699999998,"ADDRESS":"文賢路一段１３號","OBJECTID":620573},"geometry":{"x":170121.04000000004,"y":2538282.0700000022}},{"attributes":{"ID":620601,"DIS_CODE":0,"TOWNNAME":"仁德區","LI":"成功里","LIN":"39鄰","STREET":"二仁路","SECT":"二段","MAREA":" ","LANE":" ","ALLEY":" ","HOUSE_NO":"６１２號","E_COORD97":170064.51000000001,"N_COORD97":2538311.77,"ADDRESS":"二仁路二段６１２號","OBJECTID":620574},"geometry":{"x":170064.51000000071,"y":2538311.7699999996}},{"attributes":{"ID":620602,"DIS_CODE":0,"TOWNNAME":"仁德區","LI":"成功里","LIN":"39鄰","STREET":"文賢路","SECT":"一段","MAREA":" ","LANE":" ","ALLEY":" ","HOUSE_NO":"５６號","E_COORD97":170183.81,"N_COORD97":2538212.0699999998,"ADDRESS":"文賢路一段５６號","OBJECTID":620575},"geometry":{"x":170183.80999999959,"y":2538212.0700000003}},{"attributes":{"ID":620603,"DIS_CODE":0,"TOWNNAME":"仁德區","LI":"成功里","LIN":"39鄰","STREET":"二仁路","SECT":"二段","MAREA":" ","LANE":" ","ALLEY":" ","HOUSE_NO":"６１０號","E_COORD97":170065.84,"N_COORD97":2538308.02,"ADDRESS":"二仁路二段６１０號","OBJECTID":620576},"geometry":{"x":170065.84000000078,"y":2538308.0200000014}},{"attributes":{"ID":620604,"DIS_CODE":0,"TOWNNAME":"仁德區","LI":"成功里","LIN":"39鄰","STREET":"文賢路","SECT":"一段","MAREA":" ","LANE":" ","ALLEY":" ","HOUSE_NO":"２７號","E_COORD97":170145.95999999999,"N_COORD97":2538259.3300000001,"ADDRESS":"文賢路一段２７號","OBJECTID":620577},"geometry":{"x":170145.95999999903,"y":2538259.3300000019}},{"attributes":{"ID":620605,"DIS_CODE":0,"TOWNNAME":"仁德區","LI":"成功里","LIN":"39鄰","STREET":"文賢路","SECT":"一段","MAREA":" ","LANE":" ","ALLEY":" ","HOUSE_NO":"１５號","E_COORD97":170122.14999999999,"N_COORD97":2538273.3300000001,"ADDRESS":"文賢路一段１５號","OBJECTID":620578},"geometry":{"x":170122.1500000013,"y":2538273.3300000019}},{"attributes":{"ID":620606,"DIS_CODE":0,"TOWNNAME":"仁德區","LI":"成功里","LIN":"39鄰","STREET":"二仁路","SECT":"二段","MAREA":" ","LANE":" ","ALLEY":" ","HOUSE_NO":"６０６號","E_COORD97":170070.25,"N_COORD97":2538301.52,"ADDRESS":"二仁路二段６０６號","OBJECTID":620579},"geometry":{"x":170070.25000000093,"y":2538301.5200000014}},{"attributes":{"ID":620607,"DIS_CODE":0,"TOWNNAME":"仁德區","LI":"成功里","LIN":"39鄰","STREET":"文賢路","SECT":"一段","MAREA":" ","LANE":" ","ALLEY":" ","HOUSE_NO":"５４號","E_COORD97":170179.57000000001,"N_COORD97":2538214.5699999998,"ADDRESS":"文賢路一段５４號","OBJECTID":620580},"geometry":{"x":170179.57000000216,"y":2538214.5700000022}},{"attributes":{"ID":620608,"DIS_CODE":0,"TOWNNAME":"仁德區","LI":"成功里","LIN":"39鄰","STREET":"文賢路","SECT":"一段","MAREA":" ","LANE":" ","ALLEY":" ","HOUSE_NO":"１號","E_COORD97":170073.22,"N_COORD97":2538299.5699999998,"ADDRESS":"文賢路一段１號","OBJECTID":620581},"geometry":{"x":170073.22000000067,"y":2538299.5700000003}},{"attributes":{"ID":620609,"DIS_CODE":0,"TOWNNAME":"仁德區","LI":"成功里","LIN":"39鄰","STREET":"文賢路","SECT":"一段","MAREA":" ","LANE":" ","ALLEY":" ","HOUSE_NO":"２１號","E_COORD97":170137.01000000001,"N_COORD97":2538275.5699999998,"ADDRESS":"文賢路一段２１號","OBJECTID":620582},"geometry":{"x":170137.01000000164,"y":2538275.5700000022}},{"attributes":{"ID":620610,"DIS_CODE":0,"TOWNNAME":"仁德區","LI":"成功里","LIN":"39鄰","STREET":"文賢路","SECT":"一段","MAREA":" ","LANE":" ","ALLEY":" ","HOUSE_NO":"９號","E_COORD97":170106.85000000001,"N_COORD97":2538285.8199999998,"ADDRESS":"文賢路一段９號","OBJECTID":620583},"geometry":{"x":170106.84999999963,"y":2538285.820000004}},{"attributes":{"ID":620611,"DIS_CODE":0,"TOWNNAME":"仁德區","LI":"成功里","LIN":"39鄰","STREET":"文賢路","SECT":"一段","MAREA":" ","LANE":" ","ALLEY":" ","HOUSE_NO":"７８號","E_COORD97":170230.04999999999,"N_COORD97":2538185.0699999998,"ADDRESS":"文賢路一段７８號","OBJECTID":620584},"geometry":{"x":170230.05000000168,"y":2538185.0700000003}},{"attributes":{"ID":620612,"DIS_CODE":0,"TOWNNAME":"永康區","LI":"崑山里","LIN":"48鄰","STREET":"國光六街","SECT":" ","MAREA":" ","LANE":" ","ALLEY":" ","HOUSE_NO":"６１號","E_COORD97":174141.51000000001,"N_COORD97":2545297.7000000002,"ADDRESS":"國光六街６１號","OBJECTID":620585},"geometry":{"x":174141.51000000071,"y":2545297.7000000011}},{"attributes":{"ID":620613,"DIS_CODE":0,"TOWNNAME":"永康區","LI":"崑山里","LIN":"48鄰","STREET":"國光六街","SECT":" ","MAREA":" ","LANE":" ","ALLEY":" ","HOUSE_NO":"６３號","E_COORD97":174137.69,"N_COORD97":2545298.98,"ADDRESS":"國光六街６３號","OBJECTID":620586},"geometry":{"x":174137.69000000134,"y":2545298.9800000004}},{"attributes":{"ID":620614,"DIS_CODE":0,"TOWNNAME":"麻豆區","LI":"\u25A0江里","LIN":"18鄰","STREET":"興中路","SECT":" ","MAREA":" ","LANE":" ","ALLEY":" ","HOUSE_NO":"１０８號","E_COORD97":173378.45999999999,"N_COORD97":2564805.4900000002,"ADDRESS":"興中路１０８號","OBJECTID":620587},"geometry":{"x":173378.45999999996,"y":2564805.4900000021}},{"attributes":{"ID":620615,"DIS_CODE":0,"TOWNNAME":"麻豆區","LI":"\u25A0江里","LIN":"18鄰","STREET":"興中路","SECT":" ","MAREA":" ","LANE":" ","ALLEY":" ","HOUSE_NO":"１１０號","E_COORD97":173381.73000000001,"N_COORD97":2564806.2599999998,"ADDRESS":"興中路１１０號","OBJECTID":620588},"geometry":{"x":173381.73000000045,"y":2564806.2600000016}},{"attributes":{"ID":620616,"DIS_CODE":0,"TOWNNAME":"麻豆區","LI":"\u25A0江里","LIN":"18鄰","STREET":"興中路","SECT":" ","MAREA":" ","LANE":" ","ALLEY":" ","HOUSE_NO":"１１２號","E_COORD97":173386.95000000001,"N_COORD97":2564803.4900000002,"ADDRESS":"興中路１１２號","OBJECTID":620589},"geometry":{"x":173386.95000000019,"y":2564803.4900000002}},{"attributes":{"ID":620617,"DIS_CODE":0,"TOWNNAME":"麻豆區","LI":"\u25A0江里","LIN":"18鄰","STREET":"興中路","SECT":" ","MAREA":" ","LANE":" ","ALLEY":" ","HOUSE_NO":"１１４號","E_COORD97":173391.32999999999,"N_COORD97":2564803.48,"ADDRESS":"興中路１１４號","OBJECTID":620590},"geometry":{"x":173391.33000000007,"y":2564803.4800000004}},{"attributes":{"ID":620618,"DIS_CODE":0,"TOWNNAME":"麻豆區","LI":"保安里","LIN":"7鄰","STREET":"興中路","SECT":" ","MAREA":" ","LANE":" ","ALLEY":" ","HOUSE_NO":"１１１號","E_COORD97":173313.39999999999,"N_COORD97":2564834.4700000002,"ADDRESS":"興中路１１１號","OBJECTID":620591},"geometry":{"x":173313.39999999944,"y":2564834.4700000007}},{"attributes":{"ID":620619,"DIS_CODE":0,"TOWNNAME":"麻豆區","LI":"保安里","LIN":"7鄰","STREET":"興中路","SECT":" ","MAREA":" ","LANE":" ","ALLEY":" ","HOUSE_NO":"１１３號","E_COORD97":173321.73000000001,"N_COORD97":2564833.6699999999,"ADDRESS":"興中路１１３號","OBJECTID":620592},"geometry":{"x":173321.73000000138,"y":2564833.6700000018}},{"attributes":{"ID":620620,"DIS_CODE":0,"TOWNNAME":"麻豆區","LI":"保安里","LIN":"3鄰","STREET":"興中路","SECT":" ","MAREA":" ","LANE":" ","ALLEY":" ","HOUSE_NO":"１１號","E_COORD97":173099.51999999999,"N_COORD97":2564832.77,"ADDRESS":"興中路１１號","OBJECTID":620593},"geometry":{"x":173099.51999999955,"y":2564832.7700000014}},{"attributes":{"ID":620621,"DIS_CODE":0,"TOWNNAME":"永康區","LI":"崑山里","LIN":"48鄰","STREET":"國光六街","SECT":" ","MAREA":" ","LANE":" ","ALLEY":" ","HOUSE_NO":"６５號","E_COORD97":174133.72,"N_COORD97":2545300.2000000002,"ADDRESS":"國光六街６５號","OBJECTID":620594},"geometry":{"x":174133.71999999974,"y":2545300.200000003}},{"attributes":{"ID":620622,"DIS_CODE":0,"TOWNNAME":"永康區","LI":"\u25A0行里","LIN":"48鄰","STREET":"新中街","SECT":" ","MAREA":" ","LANE":" ","ALLEY":" ","HOUSE_NO":"３０３號","E_COORD97":172492.45000000001,"N_COORD97":2548942.3900000001,"ADDRESS":"新中街３０３號","OBJECTID":620595},"geometry":{"x":172492.45000000205,"y":2548942.3900000025}},{"attributes":{"ID":620623,"DIS_CODE":0,"TOWNNAME":"永康區","LI":"\u25A0行里","LIN":"48鄰","STREET":"新中街","SECT":" ","MAREA":" ","LANE":" ","ALLEY":" ","HOUSE_NO":"３０１號","E_COORD97":172489.81,"N_COORD97":2548932.71,"ADDRESS":"新中街３０１號","OBJECTID":620596},"geometry":{"x":172489.81000000052,"y":2548932.7100000009}},{"attributes":{"ID":620624,"DIS_CODE":0,"TOWNNAME":"永康區","LI":"\u25A0行里","LIN":"48鄰","STREET":"新中街","SECT":" ","MAREA":" ","LANE":" ","ALLEY":" ","HOUSE_NO":"３１１號","E_COORD97":172488.14999999999,"N_COORD97":2548958.5600000001,"ADDRESS":"新中街３１１號","OBJECTID":620597},"geometry":{"x":172488.1500000013,"y":2548958.5600000024}},{"attributes":{"ID":620625,"DIS_CODE":0,"TOWNNAME":"永康區","LI":"\u25A0行里","LIN":"48鄰","STREET":"新中街","SECT":" ","MAREA":" ","LANE":" ","ALLEY":" ","HOUSE_NO":"３１３號","E_COORD97":172488.87,"N_COORD97":2548962.8199999998,"ADDRESS":"新中街３１３號","OBJECTID":620598},"geometry":{"x":172488.87000000011,"y":2548962.8200000022}},{"attributes":{"ID":620626,"DIS_CODE":0,"TOWNNAME":"永康區","LI":"\u25A0行里","LIN":"48鄰","STREET":"新中街","SECT":" ","MAREA":" ","LANE":" ","ALLEY":" ","HOUSE_NO":"３１５號","E_COORD97":172489.57999999999,"N_COORD97":2548967.0899999999,"ADDRESS":"新中街３１５號","OBJECTID":620599},"geometry":{"x":172489.58000000007,"y":2548967.0900000017}},{"attributes":{"ID":620627,"DIS_CODE":0,"TOWNNAME":"永康區","LI":"\u25A0行里","LIN":"48鄰","STREET":"新中街","SECT":" ","MAREA":" ","LANE":" ","ALLEY":" ","HOUSE_NO":"３１７號","E_COORD97":172492.01000000001,"N_COORD97":2548970.9399999999,"ADDRESS":"新中街３１７號","OBJECTID":620600},"geometry":{"x":172492.01000000071,"y":2548970.9400000013}}]}