{"displayFieldName":"TOWNNAME","fieldAliases":{"ID":"ID","DIS_CODE":"DIS_CODE","TOWNNAME":"TOWNNAME","LI":"LI","LIN":"LIN","STREET":"STREET","SECT":"SECT","MAREA":"MAREA","LANE":"LANE","ALLEY":"ALLEY","HOUSE_NO":"HOUSE_NO","E_COORD97":"E_COORD97","N_COORD97":"N_COORD97","ADDRESS":"ADDRESS","OBJECTID":"OBJECTID"},"geometryType":"esriGeometryPoint","spatialReference":{"wkid":102443,"latestWkid":3826},"fields":[{"name":"ID","type":"esriFieldTypeDouble","alias":"ID"},{"name":"DIS_CODE","type":"esriFieldTypeInteger","alias":"DIS_CODE"},{"name":"TOWNNAME","type":"esriFieldTypeString","alias":"TOWNNAME","length":8},{"name":"LI","type":"esriFieldTypeString","alias":"LI","length":8},{"name":"LIN","type":"esriFieldTypeString","alias":"LIN","length":12},{"name":"STREET","type":"esriFieldTypeString","alias":"STREET","length":20},{"name":"SECT","type":"esriFieldTypeString","alias":"SECT","length":8},{"name":"MAREA","type":"esriFieldTypeString","alias":"MAREA","length":12},{"name":"LANE","type":"esriFieldTypeString","alias":"LANE","length":10},{"name":"ALLEY","type":"esriFieldTypeString","alias":"ALLEY","length":10},{"name":"HOUSE_NO","type":"esriFieldTypeString","alias":"HOUSE_NO","length":20},{"name":"E_COORD97","type":"esriFieldTypeDouble","alias":"E_COORD97"},{"name":"N_COORD97","type":"esriFieldTypeDouble","alias":"N_COORD97"},{"name":"ADDRESS","type":"esriFieldTypeString","alias":"ADDRESS","length":50},{"name":"OBJECTID","type":"esriFieldTypeOID","alias":"OBJECTID"}],"features":[{"attributes":{"ID":623228,"DIS_CODE":0,"TOWNNAME":"新化區","LI":"協興里","LIN":"14鄰","STREET":"太平街","SECT":" ","MAREA":" ","LANE":" ","ALLEY":" ","HOUSE_NO":"１７６號","E_COORD97":178158.42000000001,"N_COORD97":2548681.25,"ADDRESS":"太平街１７６號","OBJECTID":623201},"geometry":{"x":178158.42000000086,"y":2548681.2500000019}},{"attributes":{"ID":623229,"DIS_CODE":0,"TOWNNAME":"新化區","LI":"太平里","LIN":"17鄰","STREET":"民權街","SECT":" ","MAREA":" ","LANE":" ","ALLEY":" ","HOUSE_NO":"９１號","E_COORD97":178699.56,"N_COORD97":2548695.25,"ADDRESS":"民權街９１號","OBJECTID":623202},"geometry":{"x":178699.56000000052,"y":2548695.2500000019}},{"attributes":{"ID":623230,"DIS_CODE":0,"TOWNNAME":"新化區","LI":"武安里","LIN":"13鄰","STREET":"正新南路","SECT":" ","MAREA":" ","LANE":" ","ALLEY":" ","HOUSE_NO":"９０號","E_COORD97":178904.72,"N_COORD97":2547990.25,"ADDRESS":"正新南路９０號","OBJECTID":623203},"geometry":{"x":178904.71999999881,"y":2547990.2500000019}},{"attributes":{"ID":623231,"DIS_CODE":0,"TOWNNAME":"新化區","LI":"太平里","LIN":"17鄰","STREET":"太平街","SECT":" ","MAREA":" ","LANE":" ","ALLEY":" ","HOUSE_NO":"７７號之２","E_COORD97":178770.92999999999,"N_COORD97":2548765.2599999998,"ADDRESS":"太平街７７號之２","OBJECTID":623204},"geometry":{"x":178770.9299999997,"y":2548765.2600000035}},{"attributes":{"ID":623232,"DIS_CODE":0,"TOWNNAME":"新化區","LI":"東榮里","LIN":"18鄰","STREET":"中興路","SECT":" ","MAREA":" ","LANE":" ","ALLEY":" ","HOUSE_NO":"６９３號","E_COORD97":179555.41,"N_COORD97":2548089.25,"ADDRESS":"中興路６９３號","OBJECTID":623205},"geometry":{"x":179555.41000000108,"y":2548089.2500000019}},{"attributes":{"ID":623233,"DIS_CODE":0,"TOWNNAME":"新化區","LI":"豐榮里","LIN":"13鄰","STREET":"民治路","SECT":" ","MAREA":" ","LANE":" ","ALLEY":" ","HOUSE_NO":"１９號","E_COORD97":178721.95999999999,"N_COORD97":2548011.25,"ADDRESS":"民治路１９號","OBJECTID":623206},"geometry":{"x":178721.96000000183,"y":2548011.2500000019}},{"attributes":{"ID":623234,"DIS_CODE":0,"TOWNNAME":"新化區","LI":"東榮里","LIN":"14鄰","STREET":"中興路","SECT":" ","MAREA":" ","LANE":" ","ALLEY":" ","HOUSE_NO":"５９３號","E_COORD97":179842.01000000001,"N_COORD97":2547947.25,"ADDRESS":"中興路５９３號","OBJECTID":623207},"geometry":{"x":179842.01000000164,"y":2547947.25}},{"attributes":{"ID":623235,"DIS_CODE":0,"TOWNNAME":"新化區","LI":"唪口里","LIN":"4鄰","STREET":"大德路","SECT":" ","MAREA":" ","LANE":" ","ALLEY":" ","HOUSE_NO":"８６號之２２","E_COORD97":178178.48000000001,"N_COORD97":2549522.2599999998,"ADDRESS":"大德路８６號之２２","OBJECTID":623208},"geometry":{"x":178178.48000000138,"y":2549522.2600000016}},{"attributes":{"ID":623236,"DIS_CODE":0,"TOWNNAME":"新化區","LI":"觀音里","LIN":"4鄰","STREET":"仁愛街","SECT":" ","MAREA":" ","LANE":" ","ALLEY":" ","HOUSE_NO":"６３號之２","E_COORD97":178980.94,"N_COORD97":2548568.2599999998,"ADDRESS":"仁愛街６３號之２","OBJECTID":623209},"geometry":{"x":178980.94000000134,"y":2548568.2599999998}},{"attributes":{"ID":623237,"DIS_CODE":0,"TOWNNAME":"新化區","LI":"唪口里","LIN":"4鄰","STREET":"大德路","SECT":" ","MAREA":" ","LANE":" ","ALLEY":" ","HOUSE_NO":"９０號之７","E_COORD97":178138.01999999999,"N_COORD97":2549504.2599999998,"ADDRESS":"大德路９０號之７","OBJECTID":623210},"geometry":{"x":178138.02000000142,"y":2549504.2599999979}},{"attributes":{"ID":623238,"DIS_CODE":0,"TOWNNAME":"新化區","LI":"太平里","LIN":"14鄰","STREET":"太平街","SECT":" ","MAREA":" ","LANE":" ","ALLEY":" ","HOUSE_NO":"７４號","E_COORD97":178695.76999999999,"N_COORD97":2548765.25,"ADDRESS":"太平街７４號","OBJECTID":623211},"geometry":{"x":178695.77000000142,"y":2548765.25}},{"attributes":{"ID":623239,"DIS_CODE":0,"TOWNNAME":"新化區","LI":"唪口里","LIN":"4鄰","STREET":"大德路","SECT":" ","MAREA":" ","LANE":" ","ALLEY":" ","HOUSE_NO":"９２號之１７","E_COORD97":178086.97,"N_COORD97":2549504.2599999998,"ADDRESS":"大德路９２號之１７","OBJECTID":623212},"geometry":{"x":178086.96999999974,"y":2549504.2599999979}},{"attributes":{"ID":623240,"DIS_CODE":0,"TOWNNAME":"安南區","LI":"城西里","LIN":"4鄰","STREET":"城西街","SECT":"三段","MAREA":" ","LANE":" ","ALLEY":" ","HOUSE_NO":"１０７０號之１０","E_COORD97":155508.70999999999,"N_COORD97":2550828.3100000001,"ADDRESS":"城西街三段１０７０號之１０","OBJECTID":623213},"geometry":{"x":155508.71000000089,"y":2550828.3100000024}},{"attributes":{"ID":623241,"DIS_CODE":0,"TOWNNAME":"安南區","LI":"布袋里","LIN":"7鄰","STREET":"長和路","SECT":"四段","MAREA":" ","LANE":" ","ALLEY":" ","HOUSE_NO":"１９２號","E_COORD97":168835.13,"N_COORD97":2551689.48,"ADDRESS":"長和路四段１９２號","OBJECTID":623214},"geometry":{"x":168835.13000000082,"y":2551689.4800000004}},{"attributes":{"ID":623242,"DIS_CODE":0,"TOWNNAME":"安南區","LI":"長安里","LIN":"11鄰","STREET":"長和路","SECT":"四段","MAREA":" ","LANE":" ","ALLEY":" ","HOUSE_NO":"４１５號","E_COORD97":167872.60999999999,"N_COORD97":2551939.3799999999,"ADDRESS":"長和路四段４１５號","OBJECTID":623215},"geometry":{"x":167872.61000000127,"y":2551939.379999999}},{"attributes":{"ID":623243,"DIS_CODE":0,"TOWNNAME":"安南區","LI":"長安里","LIN":"11鄰","STREET":"長和路","SECT":"四段","MAREA":" ","LANE":" ","ALLEY":" ","HOUSE_NO":"４１７號","E_COORD97":167868.04000000001,"N_COORD97":2551942.2599999998,"ADDRESS":"長和路四段４１７號","OBJECTID":623216},"geometry":{"x":167868.04000000097,"y":2551942.2600000035}},{"attributes":{"ID":623244,"DIS_CODE":0,"TOWNNAME":"安南區","LI":"安慶里","LIN":"13鄰","STREET":"安和路","SECT":"二段","MAREA":" ","LANE":" ","ALLEY":" ","HOUSE_NO":"６５號","E_COORD97":169452.98000000001,"N_COORD97":2548676.1000000001,"ADDRESS":"安和路二段６５號","OBJECTID":623217},"geometry":{"x":169452.97999999952,"y":2548676.1000000015}},{"attributes":{"ID":623245,"DIS_CODE":0,"TOWNNAME":"安南區","LI":"安慶里","LIN":"13鄰","STREET":"安和路","SECT":"二段","MAREA":" ","LANE":" ","ALLEY":" ","HOUSE_NO":"６７號","E_COORD97":169453.66,"N_COORD97":2548680.5800000001,"ADDRESS":"安和路二段６７號","OBJECTID":623218},"geometry":{"x":169453.66000000108,"y":2548680.5800000001}},{"attributes":{"ID":623246,"DIS_CODE":0,"TOWNNAME":"安南區","LI":"南興里","LIN":"1鄰","STREET":"安中路","SECT":"五段","MAREA":" ","LANE":" ","ALLEY":" ","HOUSE_NO":"４２２號之３","E_COORD97":162429.26000000001,"N_COORD97":2551186.0099999998,"ADDRESS":"安中路五段４２２號之３","OBJECTID":623219},"geometry":{"x":162429.26000000071,"y":2551186.0100000016}},{"attributes":{"ID":623247,"DIS_CODE":0,"TOWNNAME":"永康區","LI":"東灣里","LIN":"18鄰","STREET":"大灣三街","SECT":" ","MAREA":" ","LANE":" ","ALLEY":" ","HOUSE_NO":"３１號","E_COORD97":174994.76000000001,"N_COORD97":2544915.5099999998,"ADDRESS":"大灣三街３１號","OBJECTID":623220},"geometry":{"x":174994.75999999978,"y":2544915.5100000035}},{"attributes":{"ID":623248,"DIS_CODE":0,"TOWNNAME":"安南區","LI":"溪墘里","LIN":"4鄰","STREET":"安寧街","SECT":" ","MAREA":" ","LANE":" ","ALLEY":" ","HOUSE_NO":"１３５號","E_COORD97":167349.76999999999,"N_COORD97":2547161.2799999998,"ADDRESS":"安寧街１３５號","OBJECTID":623221},"geometry":{"x":167349.76999999862,"y":2547161.2800000031}},{"attributes":{"ID":623249,"DIS_CODE":0,"TOWNNAME":"安南區","LI":"溪墘里","LIN":"4鄰","STREET":"安寧街","SECT":" ","MAREA":" ","LANE":" ","ALLEY":" ","HOUSE_NO":"１３７號","E_COORD97":167351.42999999999,"N_COORD97":2547155.73,"ADDRESS":"安寧街１３７號","OBJECTID":623222},"geometry":{"x":167351.43000000063,"y":2547155.7299999986}},{"attributes":{"ID":623250,"DIS_CODE":0,"TOWNNAME":"安南區","LI":"幸福里","LIN":" ","STREET":"府安路","SECT":"六段","MAREA":" ","LANE":" ","ALLEY":" ","HOUSE_NO":"８５號","E_COORD97":166810.47,"N_COORD97":2546550.4300000002,"ADDRESS":"府安路六段８５號","OBJECTID":623223},"geometry":{"x":166810.46999999974,"y":2546550.4300000034}},{"attributes":{"ID":623251,"DIS_CODE":0,"TOWNNAME":"安南區","LI":"頂安里","LIN":"13鄰","STREET":"安中路","SECT":"一段","MAREA":" ","LANE":" ","ALLEY":" ","HOUSE_NO":"３５６號","E_COORD97":168440.70999999999,"N_COORD97":2548726.71,"ADDRESS":"安中路一段３５６號","OBJECTID":623224},"geometry":{"x":168440.71000000183,"y":2548726.7100000028}},{"attributes":{"ID":623252,"DIS_CODE":0,"TOWNNAME":"安南區","LI":"州南里","LIN":"17鄰","STREET":"安和路","SECT":"四段","MAREA":" ","LANE":" ","ALLEY":" ","HOUSE_NO":"３６９號","E_COORD97":169912.75,"N_COORD97":2550975.6899999999,"ADDRESS":"安和路四段３６９號","OBJECTID":623225},"geometry":{"x":169912.75,"y":2550975.6899999995}},{"attributes":{"ID":623253,"DIS_CODE":0,"TOWNNAME":"安南區","LI":"州南里","LIN":"17鄰","STREET":"安和路","SECT":"四段","MAREA":" ","LANE":" ","ALLEY":" ","HOUSE_NO":"３７１號","E_COORD97":169912.57999999999,"N_COORD97":2550979.54,"ADDRESS":"安和路四段３７１號","OBJECTID":623226},"geometry":{"x":169912.58000000007,"y":2550979.5399999991}},{"attributes":{"ID":623254,"DIS_CODE":0,"TOWNNAME":"安南區","LI":"安東里","LIN":"7鄰","STREET":"安和路","SECT":"一段","MAREA":" ","LANE":" ","ALLEY":" ","HOUSE_NO":"３０４號","E_COORD97":169301.26000000001,"N_COORD97":2548080.8999999999,"ADDRESS":"安和路一段３０４號","OBJECTID":623227},"geometry":{"x":169301.26000000164,"y":2548080.9000000022}},{"attributes":{"ID":623255,"DIS_CODE":0,"TOWNNAME":"安南區","LI":"淵東里","LIN":"7鄰","STREET":"本原街","SECT":"三段","MAREA":" ","LANE":" ","ALLEY":" ","HOUSE_NO":"２１５號","E_COORD97":165426.44,"N_COORD97":2550310.2400000002,"ADDRESS":"本原街三段２１５號","OBJECTID":623228},"geometry":{"x":165426.44000000041,"y":2550310.2400000021}},{"attributes":{"ID":623256,"DIS_CODE":0,"TOWNNAME":"安南區","LI":"梅花里","LIN":"17鄰","STREET":"安中路","SECT":"一段","MAREA":" ","LANE":" ","ALLEY":" ","HOUSE_NO":"７２３號","E_COORD97":167502.12,"N_COORD97":2549289.8300000001,"ADDRESS":"安中路一段７２３號","OBJECTID":623229},"geometry":{"x":167502.12000000011,"y":2549289.8300000001}},{"attributes":{"ID":623257,"DIS_CODE":0,"TOWNNAME":"安南區","LI":"州南里","LIN":"4鄰","STREET":"安和路","SECT":"四段","MAREA":" ","LANE":" ","ALLEY":" ","HOUSE_NO":"５０１號","E_COORD97":169916.95999999999,"N_COORD97":2551240.6000000001,"ADDRESS":"安和路四段５０１號","OBJECTID":623230},"geometry":{"x":169916.95999999996,"y":2551240.5999999996}},{"attributes":{"ID":623258,"DIS_CODE":0,"TOWNNAME":"安南區","LI":"州南里","LIN":"4鄰","STREET":"安和路","SECT":"四段","MAREA":" ","LANE":" ","ALLEY":" ","HOUSE_NO":"５０３號","E_COORD97":169916.76000000001,"N_COORD97":2551243.5699999998,"ADDRESS":"安和路四段５０３號","OBJECTID":623231},"geometry":{"x":169916.76000000164,"y":2551243.5700000022}},{"attributes":{"ID":623259,"DIS_CODE":0,"TOWNNAME":"安南區","LI":"安慶里","LIN":"24鄰","STREET":"安中路","SECT":"一段","MAREA":" ","LANE":" ","ALLEY":" ","HOUSE_NO":"２０９號之３","E_COORD97":168645.98000000001,"N_COORD97":2548558.75,"ADDRESS":"安中路一段２０９號之３","OBJECTID":623232},"geometry":{"x":168645.98000000045,"y":2548558.7500000037}},{"attributes":{"ID":623260,"DIS_CODE":0,"TOWNNAME":"安南區","LI":"州北里","LIN":"17鄰","STREET":"安和路","SECT":"六段","MAREA":" ","LANE":" ","ALLEY":" ","HOUSE_NO":"３２號之１","E_COORD97":169603.45000000001,"N_COORD97":2552405.79,"ADDRESS":"安和路六段３２號之１","OBJECTID":623233},"geometry":{"x":169603.45000000019,"y":2552405.7900000028}},{"attributes":{"ID":623261,"DIS_CODE":0,"TOWNNAME":"安南區","LI":"溪頂里","LIN":"17鄰","STREET":"德安街","SECT":" ","MAREA":" ","LANE":" ","ALLEY":" ","HOUSE_NO":"１２號","E_COORD97":168698.39000000001,"N_COORD97":2547390.1899999999,"ADDRESS":"德安街１２號","OBJECTID":623234},"geometry":{"x":168698.38999999873,"y":2547390.1900000013}},{"attributes":{"ID":623262,"DIS_CODE":0,"TOWNNAME":"安南區","LI":"溪北里","LIN":"17鄰","STREET":"惠安街","SECT":" ","MAREA":" ","LANE":" ","ALLEY":" ","HOUSE_NO":"９號","E_COORD97":169132.57999999999,"N_COORD97":2547456.3599999999,"ADDRESS":"惠安街９號","OBJECTID":623235},"geometry":{"x":169132.58000000007,"y":2547456.3600000013}},{"attributes":{"ID":623263,"DIS_CODE":0,"TOWNNAME":"安南區","LI":"溪頂里","LIN":"8鄰","STREET":"惠安街","SECT":" ","MAREA":" ","LANE":" ","ALLEY":" ","HOUSE_NO":"６７號","E_COORD97":168946.10999999999,"N_COORD97":2547466.96,"ADDRESS":"惠安街６７號","OBJECTID":623236},"geometry":{"x":168946.11000000034,"y":2547466.9600000046}},{"attributes":{"ID":623264,"DIS_CODE":0,"TOWNNAME":"安南區","LI":"城北里","LIN":"9鄰","STREET":"城北路","SECT":" ","MAREA":" ","LANE":" ","ALLEY":" ","HOUSE_NO":"３９號之１","E_COORD97":160895.73000000001,"N_COORD97":2551528.25,"ADDRESS":"城北路３９號之１","OBJECTID":623237},"geometry":{"x":160895.73000000231,"y":2551528.25}},{"attributes":{"ID":623265,"DIS_CODE":0,"TOWNNAME":"安南區","LI":"城北里","LIN":"8鄰","STREET":"安中路","SECT":"六段","MAREA":" ","LANE":" ","ALLEY":" ","HOUSE_NO":"２１３號之１","E_COORD97":161543.59,"N_COORD97":2551261.1099999999,"ADDRESS":"安中路六段２１３號之１","OBJECTID":623238},"geometry":{"x":161543.58999999892,"y":2551261.1099999975}},{"attributes":{"ID":623266,"DIS_CODE":0,"TOWNNAME":"安南區","LI":"城南里","LIN":"14鄰","STREET":"城西街","SECT":"二段","MAREA":" ","LANE":" ","ALLEY":" ","HOUSE_NO":"２０１號","E_COORD97":159840.32000000001,"N_COORD97":2550995.2999999998,"ADDRESS":"城西街二段２０１號","OBJECTID":623239},"geometry":{"x":159840.3200000003,"y":2550995.3000000026}},{"attributes":{"ID":623267,"DIS_CODE":0,"TOWNNAME":"安南區","LI":"城南里","LIN":"14鄰","STREET":"城西街","SECT":"二段","MAREA":" ","LANE":" ","ALLEY":" ","HOUSE_NO":"２０３號","E_COORD97":159836.04999999999,"N_COORD97":2550998.6499999999,"ADDRESS":"城西街二段２０３號","OBJECTID":623240},"geometry":{"x":159836.04999999981,"y":2550998.6500000022}},{"attributes":{"ID":623268,"DIS_CODE":0,"TOWNNAME":"安南區","LI":"城南里","LIN":"14鄰","STREET":"城西街","SECT":"二段","MAREA":" ","LANE":" ","ALLEY":" ","HOUSE_NO":"２１７號","E_COORD97":159805.54999999999,"N_COORD97":2550991.04,"ADDRESS":"城西街二段２１７號","OBJECTID":623241},"geometry":{"x":159805.54999999981,"y":2550991.040000001}},{"attributes":{"ID":623269,"DIS_CODE":0,"TOWNNAME":"安南區","LI":"城南里","LIN":"14鄰","STREET":"城西街","SECT":"二段","MAREA":" ","LANE":" ","ALLEY":" ","HOUSE_NO":"２０７號","E_COORD97":159827.81,"N_COORD97":2550992.8700000001,"ADDRESS":"城西街二段２０７號","OBJECTID":623242},"geometry":{"x":159827.80999999959,"y":2550992.870000001}},{"attributes":{"ID":623270,"DIS_CODE":0,"TOWNNAME":"安南區","LI":"城南里","LIN":"14鄰","STREET":"城西街","SECT":"二段","MAREA":" ","LANE":" ","ALLEY":" ","HOUSE_NO":"２０９號","E_COORD97":159823.23999999999,"N_COORD97":2550995.2999999998,"ADDRESS":"城西街二段２０９號","OBJECTID":623243},"geometry":{"x":159823.24000000115,"y":2550995.3000000026}},{"attributes":{"ID":623271,"DIS_CODE":0,"TOWNNAME":"安南區","LI":"城南里","LIN":"14鄰","STREET":"城西街","SECT":"二段","MAREA":" ","LANE":" ","ALLEY":" ","HOUSE_NO":"２１１號","E_COORD97":159819.57999999999,"N_COORD97":2550991.9500000002,"ADDRESS":"城西街二段２１１號","OBJECTID":623244},"geometry":{"x":159819.58000000007,"y":2550991.9500000011}},{"attributes":{"ID":623272,"DIS_CODE":0,"TOWNNAME":"安南區","LI":"城南里","LIN":"14鄰","STREET":"城西街","SECT":"二段","MAREA":" ","LANE":" ","ALLEY":" ","HOUSE_NO":"２１３號","E_COORD97":159815,"N_COORD97":2550994.0800000001,"ADDRESS":"城西街二段２１３號","OBJECTID":623245},"geometry":{"x":159815,"y":2550994.0800000001}},{"attributes":{"ID":623273,"DIS_CODE":0,"TOWNNAME":"安南區","LI":"城南里","LIN":"14鄰","STREET":"城西街","SECT":"二段","MAREA":" ","LANE":" ","ALLEY":" ","HOUSE_NO":"２１５號","E_COORD97":159810.42999999999,"N_COORD97":2550988.9100000001,"ADDRESS":"城西街二段２１５號","OBJECTID":623246},"geometry":{"x":159810.43000000156,"y":2550988.9100000039}},{"attributes":{"ID":623274,"DIS_CODE":0,"TOWNNAME":"安南區","LI":"城東里","LIN":"1鄰","STREET":"安明路","SECT":"四段","MAREA":" ","LANE":" ","ALLEY":" ","HOUSE_NO":"８２６號之２","E_COORD97":161430.39321099999,"N_COORD97":2553179.5108400001,"ADDRESS":"安明路四段８２６號之２","OBJECTID":623247},"geometry":{"x":161430.3932110006,"y":2553179.5108430013}},{"attributes":{"ID":623275,"DIS_CODE":0,"TOWNNAME":"安南區","LI":"公親里","LIN":"7鄰","STREET":"公學路","SECT":"一段","MAREA":" ","LANE":" ","ALLEY":" ","HOUSE_NO":"１０２號","E_COORD97":168362.42000000001,"N_COORD97":2553056.0899999999,"ADDRESS":"公學路一段１０２號","OBJECTID":623248},"geometry":{"x":168362.41999999993,"y":2553056.0900000017}},{"attributes":{"ID":623276,"DIS_CODE":0,"TOWNNAME":"安南區","LI":"溪頂里","LIN":"9鄰","STREET":"惠安街","SECT":" ","MAREA":" ","LANE":" ","ALLEY":" ","HOUSE_NO":"８９號","E_COORD97":168846.20999999999,"N_COORD97":2547466.8100000001,"ADDRESS":"惠安街８９號","OBJECTID":623249},"geometry":{"x":168846.21000000089,"y":2547466.8100000005}},{"attributes":{"ID":623277,"DIS_CODE":0,"TOWNNAME":"永康區","LI":"正強里","LIN":"4鄰","STREET":"正義街","SECT":" ","MAREA":" ","LANE":" ","ALLEY":" ","HOUSE_NO":"２７號","E_COORD97":173603.07999999999,"N_COORD97":2547682.0600000001,"ADDRESS":"正義街２７號","OBJECTID":623250},"geometry":{"x":173603.08000000007,"y":2547682.0600000005}},{"attributes":{"ID":623278,"DIS_CODE":0,"TOWNNAME":"永康區","LI":"永康里","LIN":"42鄰","STREET":"永大五路","SECT":" ","MAREA":" ","LANE":" ","ALLEY":" ","HOUSE_NO":"１７３號","E_COORD97":174065.98000000001,"N_COORD97":2546562.77,"ADDRESS":"永大五路１７３號","OBJECTID":623251},"geometry":{"x":174065.98000000138,"y":2546562.7700000014}},{"attributes":{"ID":623279,"DIS_CODE":0,"TOWNNAME":"永康區","LI":"龍潭里","LIN":"39鄰","STREET":"永明街","SECT":" ","MAREA":" ","LANE":" ","ALLEY":" ","HOUSE_NO":"２６１之１７號","E_COORD97":174627.89000000001,"N_COORD97":2547230.27,"ADDRESS":"永明街２６１之１７號","OBJECTID":623252},"geometry":{"x":174627.88999999966,"y":2547230.2700000014}},{"attributes":{"ID":623280,"DIS_CODE":0,"TOWNNAME":"永康區","LI":"西灣里","LIN":"20鄰","STREET":"大安街","SECT":" ","MAREA":" ","LANE":" ","ALLEY":" ","HOUSE_NO":"３８３號","E_COORD97":174578.92999999999,"N_COORD97":2545876.5899999999,"ADDRESS":"大安街３８３號","OBJECTID":623253},"geometry":{"x":174578.93000000156,"y":2545876.5899999999}},{"attributes":{"ID":623281,"DIS_CODE":0,"TOWNNAME":"永康區","LI":"正強里","LIN":"4鄰","STREET":"正義街","SECT":" ","MAREA":" ","LANE":" ","ALLEY":" ","HOUSE_NO":"６號","E_COORD97":173633.64000000001,"N_COORD97":2547731.2599999998,"ADDRESS":"正義街６號","OBJECTID":623254},"geometry":{"x":173633.6400000006,"y":2547731.2600000035}},{"attributes":{"ID":623282,"DIS_CODE":0,"TOWNNAME":"永康區","LI":"西灣里","LIN":"18鄰","STREET":"民族路","SECT":" ","MAREA":" ","LANE":" ","ALLEY":" ","HOUSE_NO":"５２８號","E_COORD97":174492.98000000001,"N_COORD97":2545480.6800000002,"ADDRESS":"民族路５２８號","OBJECTID":623255},"geometry":{"x":174492.98000000231,"y":2545480.6800000034}},{"attributes":{"ID":623283,"DIS_CODE":0,"TOWNNAME":"永康區","LI":"永康里","LIN":"25鄰","STREET":"埔聖街","SECT":" ","MAREA":" ","LANE":" ","ALLEY":" ","HOUSE_NO":"１２８號","E_COORD97":174042.82999999999,"N_COORD97":2547602.1899999999,"ADDRESS":"埔聖街１２８號","OBJECTID":623256},"geometry":{"x":174042.83000000101,"y":2547602.1899999995}},{"attributes":{"ID":623284,"DIS_CODE":0,"TOWNNAME":"永康區","LI":"甲頂里","LIN":"26鄰","STREET":"中央路","SECT":" ","MAREA":" ","LANE":" ","ALLEY":" ","HOUSE_NO":"１號","E_COORD97":169642.20000000001,"N_COORD97":2546958.8199999998,"ADDRESS":"中央路１號","OBJECTID":623257},"geometry":{"x":169642.20000000019,"y":2546958.8200000022}},{"attributes":{"ID":623285,"DIS_CODE":0,"TOWNNAME":"永康區","LI":"西橋里","LIN":"25鄰","STREET":"中華路","SECT":" ","MAREA":" ","LANE":" ","ALLEY":" ","HOUSE_NO":"７５３號","E_COORD97":170691.29000000001,"N_COORD97":2546518,"ADDRESS":"中華路７５３號","OBJECTID":623258},"geometry":{"x":170691.29000000004,"y":2546518}},{"attributes":{"ID":623286,"DIS_CODE":0,"TOWNNAME":"永康區","LI":"正強里","LIN":"5鄰","STREET":"自強路","SECT":" ","MAREA":" ","LANE":" ","ALLEY":" ","HOUSE_NO":"３７８號","E_COORD97":173528.07999999999,"N_COORD97":2547775.7000000002,"ADDRESS":"自強路３７８號","OBJECTID":623259},"geometry":{"x":173528.08000000101,"y":2547775.7000000011}},{"attributes":{"ID":623287,"DIS_CODE":0,"TOWNNAME":"永康區","LI":"西灣里","LIN":"24鄰","STREET":"國光七街","SECT":" ","MAREA":" ","LANE":" ","ALLEY":" ","HOUSE_NO":"２號之２","E_COORD97":174361.44,"N_COORD97":2545520.2999999998,"ADDRESS":"國光七街２號之２","OBJECTID":623260},"geometry":{"x":174361.44000000134,"y":2545520.3000000007}},{"attributes":{"ID":623288,"DIS_CODE":0,"TOWNNAME":"永康區","LI":"永康里","LIN":"39鄰","STREET":"永大一路","SECT":" ","MAREA":" ","LANE":" ","ALLEY":" ","HOUSE_NO":"５號","E_COORD97":174352.76999999999,"N_COORD97":2546478.8500000001,"ADDRESS":"永大一路５號","OBJECTID":623261},"geometry":{"x":174352.77000000142,"y":2546478.8499999996}},{"attributes":{"ID":623289,"DIS_CODE":0,"TOWNNAME":"永康區","LI":"大橋里","LIN":"4鄰","STREET":"大橋五街","SECT":" ","MAREA":" ","LANE":" ","ALLEY":" ","HOUSE_NO":"１４３號","E_COORD97":170974.04999999999,"N_COORD97":2546989.3100000001,"ADDRESS":"大橋五街１４３號","OBJECTID":623262},"geometry":{"x":170974.04999999981,"y":2546989.3100000042}},{"attributes":{"ID":623290,"DIS_CODE":0,"TOWNNAME":"永康區","LI":"網寮里","LIN":"26鄰","STREET":"永吉路","SECT":" ","MAREA":" ","LANE":" ","ALLEY":" ","HOUSE_NO":"１４３號","E_COORD97":173946.81,"N_COORD97":2546542.2400000002,"ADDRESS":"永吉路１４３號","OBJECTID":623263},"geometry":{"x":173946.80999999959,"y":2546542.2400000021}},{"attributes":{"ID":623291,"DIS_CODE":0,"TOWNNAME":"永康區","LI":"南灣里","LIN":"32鄰","STREET":"大灣一街","SECT":" ","MAREA":" ","LANE":" ","ALLEY":" ","HOUSE_NO":"９號","E_COORD97":174241.92999999999,"N_COORD97":2544831.2400000002,"ADDRESS":"大灣一街９號","OBJECTID":623264},"geometry":{"x":174241.93000000063,"y":2544831.2400000021}},{"attributes":{"ID":623292,"DIS_CODE":0,"TOWNNAME":"永康區","LI":"西灣里","LIN":"42鄰","STREET":"國光六街","SECT":" ","MAREA":" ","LANE":" ","ALLEY":" ","HOUSE_NO":"１００號","E_COORD97":173998.60000000001,"N_COORD97":2545375.5899999999,"ADDRESS":"國光六街１００號","OBJECTID":623265},"geometry":{"x":173998.60000000056,"y":2545375.5899999999}},{"attributes":{"ID":623293,"DIS_CODE":0,"TOWNNAME":"永康區","LI":"西橋里","LIN":"25鄰","STREET":"中華路","SECT":" ","MAREA":" ","LANE":" ","ALLEY":" ","HOUSE_NO":"８０３號","E_COORD97":170571.32000000001,"N_COORD97":2546602.9900000002,"ADDRESS":"中華路８０３號","OBJECTID":623266},"geometry":{"x":170571.32000000123,"y":2546602.9900000002}},{"attributes":{"ID":623294,"DIS_CODE":0,"TOWNNAME":"永康區","LI":"西灣里","LIN":"40鄰","STREET":"國光六街","SECT":" ","MAREA":" ","LANE":" ","ALLEY":" ","HOUSE_NO":"６８號","E_COORD97":174137.32000000001,"N_COORD97":2545318.6000000001,"ADDRESS":"國光六街６８號","OBJECTID":623267},"geometry":{"x":174137.3200000003,"y":2545318.6000000015}},{"attributes":{"ID":623295,"DIS_CODE":0,"TOWNNAME":"永康區","LI":"永康里","LIN":"32鄰","STREET":"永大路","SECT":"二段","MAREA":" ","LANE":" ","ALLEY":" ","HOUSE_NO":"１４８０號","E_COORD97":174269.54000000001,"N_COORD97":2547169.2000000002,"ADDRESS":"永大路二段１４８０號","OBJECTID":623268},"geometry":{"x":174269.54000000004,"y":2547169.2000000011}},{"attributes":{"ID":623296,"DIS_CODE":0,"TOWNNAME":"永康區","LI":"永康里","LIN":"18鄰","STREET":"永中街","SECT":" ","MAREA":" ","LANE":" ","ALLEY":" ","HOUSE_NO":"１３６號","E_COORD97":173986.17000000001,"N_COORD97":2547275.3300000001,"ADDRESS":"永中街１３６號","OBJECTID":623269},"geometry":{"x":173986.17000000086,"y":2547275.3300000001}},{"attributes":{"ID":623297,"DIS_CODE":0,"TOWNNAME":"永康區","LI":"復國里","LIN":"13鄰","STREET":"復華三街","SECT":" ","MAREA":" ","LANE":" ","ALLEY":" ","HOUSE_NO":"５號","E_COORD97":172920.91,"N_COORD97":2545524.4399999999,"ADDRESS":"復華三街５號","OBJECTID":623270},"geometry":{"x":172920.91000000015,"y":2545524.4399999995}},{"attributes":{"ID":623298,"DIS_CODE":0,"TOWNNAME":"永康區","LI":"北灣里","LIN":"39鄰","STREET":"大同街","SECT":" ","MAREA":" ","LANE":" ","ALLEY":" ","HOUSE_NO":"４３１號","E_COORD97":174608.64999999999,"N_COORD97":2546344.5499999998,"ADDRESS":"大同街４３１號","OBJECTID":623271},"geometry":{"x":174608.65000000224,"y":2546344.5500000026}},{"attributes":{"ID":623299,"DIS_CODE":0,"TOWNNAME":"永康區","LI":"南灣里","LIN":"25鄰","STREET":"立興街","SECT":" ","MAREA":" ","LANE":" ","ALLEY":" ","HOUSE_NO":"１００號","E_COORD97":174520.23000000001,"N_COORD97":2544760.3100000001,"ADDRESS":"立興街１００號","OBJECTID":623272},"geometry":{"x":174520.23000000138,"y":2544760.3100000005}},{"attributes":{"ID":623300,"DIS_CODE":0,"TOWNNAME":"永康區","LI":"永康里","LIN":"20鄰","STREET":"永明街","SECT":" ","MAREA":" ","LANE":" ","ALLEY":" ","HOUSE_NO":"７０號","E_COORD97":174120.67999999999,"N_COORD97":2547288.7200000002,"ADDRESS":"永明街７０號","OBJECTID":623273},"geometry":{"x":174120.6799999997,"y":2547288.7200000025}},{"attributes":{"ID":623301,"DIS_CODE":0,"TOWNNAME":"永康區","LI":"北灣里","LIN":"25鄰","STREET":"大灣六街","SECT":" ","MAREA":" ","LANE":" ","ALLEY":" ","HOUSE_NO":"７１號","E_COORD97":175053.01999999999,"N_COORD97":2545329.6400000001,"ADDRESS":"大灣六街７１號","OBJECTID":623274},"geometry":{"x":175053.02000000048,"y":2545329.6400000025}},{"attributes":{"ID":623302,"DIS_CODE":0,"TOWNNAME":"永康區","LI":"網寮里","LIN":"25鄰","STREET":"永興路","SECT":" ","MAREA":" ","LANE":" ","ALLEY":" ","HOUSE_NO":"１４１號","E_COORD97":173800.28,"N_COORD97":2546633.3900000001,"ADDRESS":"永興路１４１號","OBJECTID":623275},"geometry":{"x":173800.28000000026,"y":2546633.3900000025}},{"attributes":{"ID":623303,"DIS_CODE":0,"TOWNNAME":"永康區","LI":"北灣里","LIN":"20鄰","STREET":"北興路","SECT":" ","MAREA":" ","LANE":" ","ALLEY":" ","HOUSE_NO":"２號","E_COORD97":174595.28,"N_COORD97":2546022.5099999998,"ADDRESS":"北興路２號","OBJECTID":623276},"geometry":{"x":174595.28000000026,"y":2546022.5100000016}},{"attributes":{"ID":623304,"DIS_CODE":0,"TOWNNAME":"安南區","LI":"溪頂里","LIN":"17鄰","STREET":"德安街","SECT":" ","MAREA":" ","LANE":" ","ALLEY":" ","HOUSE_NO":"１４號","E_COORD97":168694.14000000001,"N_COORD97":2547388.9199999999,"ADDRESS":"德安街１４號","OBJECTID":623277},"geometry":{"x":168694.1400000006,"y":2547388.9200000018}},{"attributes":{"ID":623305,"DIS_CODE":0,"TOWNNAME":"永康區","LI":"中興里","LIN":"13鄰","STREET":"中興街","SECT":" ","MAREA":" ","LANE":" ","ALLEY":" ","HOUSE_NO":"１１０號","E_COORD97":172090.42999999999,"N_COORD97":2545378.75,"ADDRESS":"中興街１１０號","OBJECTID":623278},"geometry":{"x":172090.43000000156,"y":2545378.7500000037}},{"attributes":{"ID":623306,"DIS_CODE":0,"TOWNNAME":"永康區","LI":"永康里","LIN":"25鄰","STREET":"中山北路","SECT":" ","MAREA":" ","LANE":" ","ALLEY":" ","HOUSE_NO":"１２９號","E_COORD97":174128.79000000001,"N_COORD97":2547497.6200000001,"ADDRESS":"中山北路１２９號","OBJECTID":623279},"geometry":{"x":174128.79000000004,"y":2547497.6200000029}},{"attributes":{"ID":623307,"DIS_CODE":0,"TOWNNAME":"永康區","LI":"永康里","LIN":"18鄰","STREET":"永華路","SECT":" ","MAREA":" ","LANE":" ","ALLEY":" ","HOUSE_NO":"４９３號","E_COORD97":174102.85000000001,"N_COORD97":2547185.3999999999,"ADDRESS":"永華路４９３號","OBJECTID":623280},"geometry":{"x":174102.84999999963,"y":2547185.4000000041}},{"attributes":{"ID":623308,"DIS_CODE":0,"TOWNNAME":"永康區","LI":"勝利里","LIN":"20鄰","STREET":"勝華街","SECT":" ","MAREA":" ","LANE":" ","ALLEY":" ","HOUSE_NO":"１１８號","E_COORD97":171280.20999999999,"N_COORD97":2545221.25,"ADDRESS":"勝華街１１８號","OBJECTID":623281},"geometry":{"x":171280.21000000183,"y":2545221.25}},{"attributes":{"ID":623309,"DIS_CODE":0,"TOWNNAME":"東區","LI":"小東里","LIN":"13鄰","STREET":"東和路","SECT":" ","MAREA":" ","LANE":" ","ALLEY":" ","HOUSE_NO":"９１號","E_COORD97":170854.70000000001,"N_COORD97":2544311.29,"ADDRESS":"東和路９１號","OBJECTID":623282},"geometry":{"x":170854.70000000019,"y":2544311.2899999991}},{"attributes":{"ID":623310,"DIS_CODE":0,"TOWNNAME":"永康區","LI":"尚頂里","LIN":"5鄰","STREET":"\u25A0信街","SECT":" ","MAREA":" ","LANE":" ","ALLEY":" ","HOUSE_NO":"４０號","E_COORD97":170841.89999999999,"N_COORD97":2547425.8799999999,"ADDRESS":"\u25A0信街４０號","OBJECTID":623283},"geometry":{"x":170841.90000000224,"y":2547425.8800000008}},{"attributes":{"ID":623311,"DIS_CODE":0,"TOWNNAME":"永康區","LI":"尚頂里","LIN":"5鄰","STREET":"\u25A0信街","SECT":" ","MAREA":" ","LANE":" ","ALLEY":" ","HOUSE_NO":"１６號","E_COORD97":170782.14000000001,"N_COORD97":2547343.3900000001,"ADDRESS":"\u25A0信街１６號","OBJECTID":623284},"geometry":{"x":170782.1400000006,"y":2547343.3900000006}},{"attributes":{"ID":623312,"DIS_CODE":0,"TOWNNAME":"永康區","LI":"大橋里","LIN":"18鄰","STREET":"大橋二街","SECT":" ","MAREA":" ","LANE":" ","ALLEY":" ","HOUSE_NO":"１５４號","E_COORD97":171050.04999999999,"N_COORD97":2546747.5,"ADDRESS":"大橋二街１５４號","OBJECTID":623285},"geometry":{"x":171050.04999999981,"y":2546747.5000000019}},{"attributes":{"ID":623313,"DIS_CODE":0,"TOWNNAME":"永康區","LI":"西灣里","LIN":"20鄰","STREET":"文賢街","SECT":" ","MAREA":" ","LANE":" ","ALLEY":" ","HOUSE_NO":"４７８號","E_COORD97":174579.76000000001,"N_COORD97":2545854.8199999998,"ADDRESS":"文賢街４７８號","OBJECTID":623286},"geometry":{"x":174579.75999999978,"y":2545854.8200000022}},{"attributes":{"ID":623314,"DIS_CODE":0,"TOWNNAME":"永康區","LI":"北灣里","LIN":"20鄰","STREET":"北興路","SECT":" ","MAREA":" ","LANE":" ","ALLEY":" ","HOUSE_NO":"１２號","E_COORD97":174613.73999999999,"N_COORD97":2546027.5699999998,"ADDRESS":"北興路１２號","OBJECTID":623287},"geometry":{"x":174613.74000000115,"y":2546027.5699999984}},{"attributes":{"ID":623315,"DIS_CODE":0,"TOWNNAME":"永康區","LI":"南灣里","LIN":"25鄰","STREET":"立興街","SECT":" ","MAREA":" ","LANE":" ","ALLEY":" ","HOUSE_NO":"９４號","E_COORD97":174525.25,"N_COORD97":2544765.1699999999,"ADDRESS":"立興街９４號","OBJECTID":623288},"geometry":{"x":174525.25000000093,"y":2544765.1699999999}},{"attributes":{"ID":623316,"DIS_CODE":0,"TOWNNAME":"永康區","LI":"南灣里","LIN":"18鄰","STREET":"立興街","SECT":" ","MAREA":" ","LANE":" ","ALLEY":" ","HOUSE_NO":"１３０號","E_COORD97":174435.98000000001,"N_COORD97":2544690.96,"ADDRESS":"立興街１３０號","OBJECTID":623289},"geometry":{"x":174435.98000000138,"y":2544690.9600000028}},{"attributes":{"ID":623317,"DIS_CODE":0,"TOWNNAME":"永康區","LI":"永康里","LIN":"25鄰","STREET":"中山北路","SECT":" ","MAREA":" ","LANE":" ","ALLEY":" ","HOUSE_NO":"１５１號","E_COORD97":174182.89000000001,"N_COORD97":2547515.6000000001,"ADDRESS":"中山北路１５１號","OBJECTID":623290},"geometry":{"x":174182.8900000006,"y":2547515.6000000015}},{"attributes":{"ID":623318,"DIS_CODE":0,"TOWNNAME":"東區","LI":"大同里","LIN":"1鄰","STREET":"大同路","SECT":"一段","MAREA":" ","LANE":" ","ALLEY":" ","HOUSE_NO":"１號","E_COORD97":169205.38,"N_COORD97":2543238.3500000001,"ADDRESS":"大同路一段１號","OBJECTID":623291},"geometry":{"x":169205.37999999989,"y":2543238.3500000034}},{"attributes":{"ID":623319,"DIS_CODE":0,"TOWNNAME":"東區","LI":"仁和里","LIN":"18鄰","STREET":"仁東街","SECT":" ","MAREA":" ","LANE":" ","ALLEY":" ","HOUSE_NO":"３３號","E_COORD97":171560.37,"N_COORD97":2541160.7200000002,"ADDRESS":"仁東街３３號","OBJECTID":623292},"geometry":{"x":171560.37000000011,"y":2541160.7200000007}},{"attributes":{"ID":623320,"DIS_CODE":0,"TOWNNAME":"東區","LI":"仁和里","LIN":"24鄰","STREET":"仁東街","SECT":" ","MAREA":" ","LANE":" ","ALLEY":" ","HOUSE_NO":"４８號","E_COORD97":171624.04999999999,"N_COORD97":2541162.6200000001,"ADDRESS":"仁東街４８號","OBJECTID":623293},"geometry":{"x":171624.05000000075,"y":2541162.620000001}},{"attributes":{"ID":623321,"DIS_CODE":0,"TOWNNAME":"東區","LI":"仁和里","LIN":"10鄰","STREET":"仁和路","SECT":" ","MAREA":" ","LANE":" ","ALLEY":" ","HOUSE_NO":"１３３號","E_COORD97":171495.73000000001,"N_COORD97":2541118.6600000001,"ADDRESS":"仁和路１３３號","OBJECTID":623294},"geometry":{"x":171495.73000000231,"y":2541118.660000002}},{"attributes":{"ID":623322,"DIS_CODE":0,"TOWNNAME":"東區","LI":"仁和里","LIN":"10鄰","STREET":"仁和路","SECT":" ","MAREA":" ","LANE":" ","ALLEY":" ","HOUSE_NO":"１３３號之１","E_COORD97":171498.31,"N_COORD97":2541114.1499999999,"ADDRESS":"仁和路１３３號之１","OBJECTID":623295},"geometry":{"x":171498.31000000052,"y":2541114.1500000004}},{"attributes":{"ID":623323,"DIS_CODE":0,"TOWNNAME":"東區","LI":"仁和里","LIN":"20鄰","STREET":"仁東街","SECT":" ","MAREA":" ","LANE":" ","ALLEY":" ","HOUSE_NO":"２５之１號","E_COORD97":171529.47,"N_COORD97":2541232.3900000001,"ADDRESS":"仁東街２５之１號","OBJECTID":623296},"geometry":{"x":171529.47000000067,"y":2541232.3900000025}},{"attributes":{"ID":623324,"DIS_CODE":0,"TOWNNAME":"東區","LI":"仁和里","LIN":"20鄰","STREET":"仁東街","SECT":" ","MAREA":" ","LANE":" ","ALLEY":" ","HOUSE_NO":"２７之１０號","E_COORD97":171553.98000000001,"N_COORD97":2541264.6099999999,"ADDRESS":"仁東街２７之１０號","OBJECTID":623297},"geometry":{"x":171553.98000000138,"y":2541264.6100000013}},{"attributes":{"ID":623325,"DIS_CODE":0,"TOWNNAME":"東區","LI":"仁和里","LIN":"17鄰","STREET":"仁東街","SECT":" ","MAREA":" ","LANE":" ","ALLEY":" ","HOUSE_NO":"１１號","E_COORD97":171534.75,"N_COORD97":2541151.8900000001,"ADDRESS":"仁東街１１號","OBJECTID":623298},"geometry":{"x":171534.75000000093,"y":2541151.8900000025}},{"attributes":{"ID":623326,"DIS_CODE":0,"TOWNNAME":"東區","LI":"仁和里","LIN":"17鄰","STREET":"仁東街","SECT":" ","MAREA":" ","LANE":" ","ALLEY":" ","HOUSE_NO":"１９之１號","E_COORD97":171484.72,"N_COORD97":2541164.46,"ADDRESS":"仁東街１９之１號","OBJECTID":623299},"geometry":{"x":171484.71999999974,"y":2541164.4600000028}},{"attributes":{"ID":623327,"DIS_CODE":0,"TOWNNAME":"東區","LI":"仁和里","LIN":"19鄰","STREET":"仁東街","SECT":" ","MAREA":" ","LANE":" ","ALLEY":" ","HOUSE_NO":"２３之１號","E_COORD97":171535.92000000001,"N_COORD97":2541212.2000000002,"ADDRESS":"仁東街２３之１號","OBJECTID":623300},"geometry":{"x":171535.91999999993,"y":2541212.2000000011}},{"attributes":{"ID":623328,"DIS_CODE":0,"TOWNNAME":"東區","LI":"仁和里","LIN":"19鄰","STREET":"仁東街","SECT":" ","MAREA":" ","LANE":" ","ALLEY":" ","HOUSE_NO":"２９之１０號","E_COORD97":171567.31,"N_COORD97":2541207.8999999999,"ADDRESS":"仁東街２９之１０號","OBJECTID":623301},"geometry":{"x":171567.31000000145,"y":2541207.9000000041}},{"attributes":{"ID":623329,"DIS_CODE":0,"TOWNNAME":"東區","LI":"仁和里","LIN":"19鄰","STREET":"仁東街","SECT":" ","MAREA":" ","LANE":" ","ALLEY":" ","HOUSE_NO":"２９之１號","E_COORD97":171567.73999999999,"N_COORD97":2541252.5800000001,"ADDRESS":"仁東街２９之１號","OBJECTID":623302},"geometry":{"x":171567.74000000022,"y":2541252.5800000001}},{"attributes":{"ID":623330,"DIS_CODE":0,"TOWNNAME":"東區","LI":"仁和里","LIN":"19鄰","STREET":"仁東街","SECT":" ","MAREA":" ","LANE":" ","ALLEY":" ","HOUSE_NO":"２９之２號","E_COORD97":171568.17000000001,"N_COORD97":2541248.71,"ADDRESS":"仁東街２９之２號","OBJECTID":623303},"geometry":{"x":171568.16999999993,"y":2541248.7100000028}},{"attributes":{"ID":623331,"DIS_CODE":0,"TOWNNAME":"東區","LI":"仁和里","LIN":"19鄰","STREET":"仁東街","SECT":" ","MAREA":" ","LANE":" ","ALLEY":" ","HOUSE_NO":"２９之３號","E_COORD97":171567.73999999999,"N_COORD97":2541244.4199999999,"ADDRESS":"仁東街２９之３號","OBJECTID":623304},"geometry":{"x":171567.74000000022,"y":2541244.4199999981}},{"attributes":{"ID":623332,"DIS_CODE":0,"TOWNNAME":"東區","LI":"仁和里","LIN":"19鄰","STREET":"仁東街","SECT":" ","MAREA":" ","LANE":" ","ALLEY":" ","HOUSE_NO":"２９之５號","E_COORD97":171568.17000000001,"N_COORD97":2541239.6899999999,"ADDRESS":"仁東街２９之５號","OBJECTID":623305},"geometry":{"x":171568.16999999993,"y":2541239.6900000013}},{"attributes":{"ID":623333,"DIS_CODE":0,"TOWNNAME":"東區","LI":"仁和里","LIN":"19鄰","STREET":"仁東街","SECT":" ","MAREA":" ","LANE":" ","ALLEY":" ","HOUSE_NO":"２９之６號","E_COORD97":171568.60000000001,"N_COORD97":2541234.54,"ADDRESS":"仁東街２９之６號","OBJECTID":623306},"geometry":{"x":171568.5999999987,"y":2541234.5399999991}},{"attributes":{"ID":623334,"DIS_CODE":0,"TOWNNAME":"東區","LI":"仁和里","LIN":"19鄰","STREET":"仁東街","SECT":" ","MAREA":" ","LANE":" ","ALLEY":" ","HOUSE_NO":"２９之７號","E_COORD97":171568.17000000001,"N_COORD97":2541227.6600000001,"ADDRESS":"仁東街２９之７號","OBJECTID":623307},"geometry":{"x":171568.16999999993,"y":2541227.660000002}},{"attributes":{"ID":623335,"DIS_CODE":0,"TOWNNAME":"東區","LI":"仁和里","LIN":"19鄰","STREET":"仁東街","SECT":" ","MAREA":" ","LANE":" ","ALLEY":" ","HOUSE_NO":"２９之８號","E_COORD97":171568.60000000001,"N_COORD97":2541222.9399999999,"ADDRESS":"仁東街２９之８號","OBJECTID":623308},"geometry":{"x":171568.5999999987,"y":2541222.9399999995}},{"attributes":{"ID":623336,"DIS_CODE":0,"TOWNNAME":"東區","LI":"仁和里","LIN":"19鄰","STREET":"仁東街","SECT":" ","MAREA":" ","LANE":" ","ALLEY":" ","HOUSE_NO":"２９之９號","E_COORD97":171568.60000000001,"N_COORD97":2541216.0699999998,"ADDRESS":"仁東街２９之９號","OBJECTID":623309},"geometry":{"x":171568.5999999987,"y":2541216.0700000003}},{"attributes":{"ID":623337,"DIS_CODE":0,"TOWNNAME":"東區","LI":"仁和里","LIN":"19鄰","STREET":"仁東街","SECT":" ","MAREA":" ","LANE":" ","ALLEY":" ","HOUSE_NO":"２９號","E_COORD97":171567.31,"N_COORD97":2541257.73,"ADDRESS":"仁東街２９號","OBJECTID":623310},"geometry":{"x":171567.31000000145,"y":2541257.7300000023}},{"attributes":{"ID":623338,"DIS_CODE":0,"TOWNNAME":"東區","LI":"仁和里","LIN":"10鄰","STREET":"仁和路","SECT":" ","MAREA":" ","LANE":" ","ALLEY":" ","HOUSE_NO":"１３７號之１","E_COORD97":171513.14999999999,"N_COORD97":2541082.5600000001,"ADDRESS":"仁和路１３７號之１","OBJECTID":623311},"geometry":{"x":171513.15000000224,"y":2541082.5600000024}},{"attributes":{"ID":623339,"DIS_CODE":0,"TOWNNAME":"中西區","LI":"天后里","LIN":"24鄰","STREET":"郡緯街","SECT":" ","MAREA":" ","LANE":" ","ALLEY":" ","HOUSE_NO":"４號","E_COORD97":168209.98000000001,"N_COORD97":2544291.79,"ADDRESS":"郡緯街４號","OBJECTID":623312},"geometry":{"x":168209.98000000045,"y":2544291.7899999991}},{"attributes":{"ID":623340,"DIS_CODE":0,"TOWNNAME":"永康區","LI":"甲頂里","LIN":"14鄰","STREET":"大武街","SECT":" ","MAREA":" ","LANE":" ","ALLEY":" ","HOUSE_NO":"５４號","E_COORD97":170352.56,"N_COORD97":2546751.3599999999,"ADDRESS":"大武街５４號","OBJECTID":623313},"geometry":{"x":170352.56000000052,"y":2546751.3600000013}},{"attributes":{"ID":623341,"DIS_CODE":0,"TOWNNAME":"中西區","LI":"天后里","LIN":"24鄰","STREET":"郡緯街","SECT":" ","MAREA":" ","LANE":" ","ALLEY":" ","HOUSE_NO":"６號","E_COORD97":168205.07999999999,"N_COORD97":2544297.52,"ADDRESS":"郡緯街６號","OBJECTID":623314},"geometry":{"x":168205.08000000101,"y":2544297.5199999996}},{"attributes":{"ID":623342,"DIS_CODE":0,"TOWNNAME":"東區","LI":"自強里","LIN":"9鄰","STREET":"中華東路","SECT":"二段","MAREA":" ","LANE":" ","ALLEY":" ","HOUSE_NO":"３２５號","E_COORD97":171071.64999999999,"N_COORD97":2542467.8300000001,"ADDRESS":"中華東路二段３２５號","OBJECTID":623315},"geometry":{"x":171071.65000000037,"y":2542467.8300000001}},{"attributes":{"ID":623343,"DIS_CODE":0,"TOWNNAME":"永康區","LI":"永康里","LIN":"39鄰","STREET":"永忠路","SECT":" ","MAREA":" ","LANE":" ","ALLEY":" ","HOUSE_NO":"２８號","E_COORD97":174250.57999999999,"N_COORD97":2546414.48,"ADDRESS":"永忠路２８號","OBJECTID":623316},"geometry":{"x":174250.58000000007,"y":2546414.4800000004}},{"attributes":{"ID":623344,"DIS_CODE":0,"TOWNNAME":"東區","LI":"復興里","LIN":"2鄰","STREET":"富農街","SECT":"一段","MAREA":" ","LANE":" ","ALLEY":" ","HOUSE_NO":"２７２號","E_COORD97":171604.04999999999,"N_COORD97":2542681.3999999999,"ADDRESS":"富農街一段２７２號","OBJECTID":623317},"geometry":{"x":171604.04999999981,"y":2542681.4000000004}},{"attributes":{"ID":623345,"DIS_CODE":0,"TOWNNAME":"永康區","LI":"西勢里","LIN":"8鄰","STREET":"廣興街","SECT":" ","MAREA":" ","LANE":" ","ALLEY":" ","HOUSE_NO":"５號","E_COORD97":175752,"N_COORD97":2546592.9900000002,"ADDRESS":"廣興街５號","OBJECTID":623318},"geometry":{"x":175752.00000000093,"y":2546592.9900000002}},{"attributes":{"ID":623346,"DIS_CODE":0,"TOWNNAME":"永康區","LI":"正強里","LIN":"4鄰","STREET":"中正路","SECT":" ","MAREA":" ","LANE":" ","ALLEY":" ","HOUSE_NO":"４９號","E_COORD97":173615.70000000001,"N_COORD97":2547773.5800000001,"ADDRESS":"中正路４９號","OBJECTID":623319},"geometry":{"x":173615.70000000019,"y":2547773.5800000038}},{"attributes":{"ID":623347,"DIS_CODE":0,"TOWNNAME":"永康區","LI":"永康里","LIN":"25鄰","STREET":"中山北路","SECT":" ","MAREA":" ","LANE":" ","ALLEY":" ","HOUSE_NO":"１３９號","E_COORD97":174149.03,"N_COORD97":2547504.8700000001,"ADDRESS":"中山北路１３９號","OBJECTID":623320},"geometry":{"x":174149.03000000119,"y":2547504.8700000048}},{"attributes":{"ID":623348,"DIS_CODE":0,"TOWNNAME":"永康區","LI":"永康里","LIN":"38鄰","STREET":"西勢路","SECT":" ","MAREA":" ","LANE":" ","ALLEY":" ","HOUSE_NO":"７３７號","E_COORD97":174397.04999999999,"N_COORD97":2546698.3500000001,"ADDRESS":"西勢路７３７號","OBJECTID":623321},"geometry":{"x":174397.05000000075,"y":2546698.3499999996}},{"attributes":{"ID":623349,"DIS_CODE":0,"TOWNNAME":"永康區","LI":"大橋里","LIN":"4鄰","STREET":"大橋五街","SECT":" ","MAREA":" ","LANE":" ","ALLEY":" ","HOUSE_NO":"６９號","E_COORD97":170842.60000000001,"N_COORD97":2546938.7599999998,"ADDRESS":"大橋五街６９號","OBJECTID":623322},"geometry":{"x":170842.59999999963,"y":2546938.7600000016}},{"attributes":{"ID":623350,"DIS_CODE":0,"TOWNNAME":"永康區","LI":"永康里","LIN":"26鄰","STREET":"永明街","SECT":" ","MAREA":" ","LANE":" ","ALLEY":" ","HOUSE_NO":"６７之１號","E_COORD97":174150.63,"N_COORD97":2547287.7599999998,"ADDRESS":"永明街６７之１號","OBJECTID":623323},"geometry":{"x":174150.63000000175,"y":2547287.7600000016}},{"attributes":{"ID":623351,"DIS_CODE":0,"TOWNNAME":"永康區","LI":"網寮里","LIN":"26鄰","STREET":"永大二路","SECT":" ","MAREA":" ","LANE":" ","ALLEY":" ","HOUSE_NO":"１２２號","E_COORD97":174034.64000000001,"N_COORD97":2546502.2400000002,"ADDRESS":"永大二路１２２號","OBJECTID":623324},"geometry":{"x":174034.63999999966,"y":2546502.2400000021}},{"attributes":{"ID":623352,"DIS_CODE":0,"TOWNNAME":"永康區","LI":"二王里","LIN":"18鄰","STREET":"中山南路","SECT":" ","MAREA":" ","LANE":" ","ALLEY":" ","HOUSE_NO":"６３２號","E_COORD97":172369.14000000001,"N_COORD97":2546674.0299999998,"ADDRESS":"中山南路６３２號","OBJECTID":623325},"geometry":{"x":172369.1400000006,"y":2546674.0299999993}},{"attributes":{"ID":623353,"DIS_CODE":0,"TOWNNAME":"永康區","LI":"西灣里","LIN":"41鄰","STREET":"永華路","SECT":" ","MAREA":" ","LANE":" ","ALLEY":" ","HOUSE_NO":"９１號","E_COORD97":174085.29000000001,"N_COORD97":2545382.6800000002,"ADDRESS":"永華路９１號","OBJECTID":623326},"geometry":{"x":174085.2900000019,"y":2545382.6800000016}},{"attributes":{"ID":623354,"DIS_CODE":0,"TOWNNAME":"永康區","LI":"北灣里","LIN":"40鄰","STREET":"永大路","SECT":"二段","MAREA":" ","LANE":" ","ALLEY":" ","HOUSE_NO":"８７８號","E_COORD97":174518.35999999999,"N_COORD97":2546179.5499999998,"ADDRESS":"永大路二段８７８號","OBJECTID":623327},"geometry":{"x":174518.36000000034,"y":2546179.5500000007}},{"attributes":{"ID":623355,"DIS_CODE":0,"TOWNNAME":"永康區","LI":"永康里","LIN":"20鄰","STREET":"永明街","SECT":" ","MAREA":" ","LANE":" ","ALLEY":" ","HOUSE_NO":"６２號","E_COORD97":174106.29000000001,"N_COORD97":2547299.4700000002,"ADDRESS":"永明街６２號","OBJECTID":623328},"geometry":{"x":174106.29000000097,"y":2547299.4700000007}},{"attributes":{"ID":623356,"DIS_CODE":0,"TOWNNAME":"永康區","LI":"網寮里","LIN":"26鄰","STREET":"永大二路","SECT":" ","MAREA":" ","LANE":" ","ALLEY":" ","HOUSE_NO":"１３１號","E_COORD97":174013.94,"N_COORD97":2546476.7400000002,"ADDRESS":"永大二路１３１號","OBJECTID":623329},"geometry":{"x":174013.94000000134,"y":2546476.7400000002}},{"attributes":{"ID":623357,"DIS_CODE":0,"TOWNNAME":"永康區","LI":"龍潭里","LIN":" ","STREET":"龍潭街","SECT":" ","MAREA":" ","LANE":" ","ALLEY":" ","HOUSE_NO":"１０７號","E_COORD97":174853.45999999999,"N_COORD97":2548125.46,"ADDRESS":"龍潭街１０７號","OBJECTID":623330},"geometry":{"x":174853.45999999903,"y":2548125.4600000028}},{"attributes":{"ID":623358,"DIS_CODE":0,"TOWNNAME":"永康區","LI":"永康里","LIN":"38鄰","STREET":"西勢路","SECT":" ","MAREA":" ","LANE":" ","ALLEY":" ","HOUSE_NO":"７２５號","E_COORD97":174420.72,"N_COORD97":2546702.5299999998,"ADDRESS":"西勢路７２５號","OBJECTID":623331},"geometry":{"x":174420.71999999974,"y":2546702.5300000012}},{"attributes":{"ID":623359,"DIS_CODE":0,"TOWNNAME":"永康區","LI":"埔園里","LIN":"18鄰","STREET":"四維街","SECT":" ","MAREA":" ","LANE":" ","ALLEY":" ","HOUSE_NO":"１３４號","E_COORD97":173328.76000000001,"N_COORD97":2548317.5,"ADDRESS":"四維街１３４號","OBJECTID":623332},"geometry":{"x":173328.75999999978,"y":2548317.5000000019}},{"attributes":{"ID":623360,"DIS_CODE":0,"TOWNNAME":"永康區","LI":"東灣里","LIN":"26鄰","STREET":"大灣東路","SECT":" ","MAREA":" ","LANE":" ","ALLEY":" ","HOUSE_NO":"４５６號","E_COORD97":175333.62,"N_COORD97":2544755.25,"ADDRESS":"大灣東路４５６號","OBJECTID":623333},"geometry":{"x":175333.62000000011,"y":2544755.2500000019}},{"attributes":{"ID":623361,"DIS_CODE":0,"TOWNNAME":"永康區","LI":"尚頂里","LIN":"4鄰","STREET":"正南一街","SECT":" ","MAREA":" ","LANE":" ","ALLEY":" ","HOUSE_NO":"１７８號","E_COORD97":170646.10999999999,"N_COORD97":2547446.0699999998,"ADDRESS":"正南一街１７８號","OBJECTID":623334},"geometry":{"x":170646.11000000127,"y":2547446.0700000022}},{"attributes":{"ID":623362,"DIS_CODE":0,"TOWNNAME":"永康區","LI":"東灣里","LIN":"26鄰","STREET":"大灣東路","SECT":" ","MAREA":" ","LANE":" ","ALLEY":" ","HOUSE_NO":"２２２號","E_COORD97":174783.48000000001,"N_COORD97":2544482.25,"ADDRESS":"大灣東路２２２號","OBJECTID":623335},"geometry":{"x":174783.48000000138,"y":2544482.25}},{"attributes":{"ID":623363,"DIS_CODE":0,"TOWNNAME":"永康區","LI":"龍潭里","LIN":"40鄰","STREET":"永明街","SECT":" ","MAREA":" ","LANE":" ","ALLEY":" ","HOUSE_NO":"２７６號","E_COORD97":174467.57000000001,"N_COORD97":2547183.4900000002,"ADDRESS":"永明街２７６號","OBJECTID":623336},"geometry":{"x":174467.5700000003,"y":2547183.4900000002}},{"attributes":{"ID":623364,"DIS_CODE":0,"TOWNNAME":"永康區","LI":"崑山里","LIN":"24鄰","STREET":"大仁街","SECT":" ","MAREA":" ","LANE":" ","ALLEY":" ","HOUSE_NO":"５０號","E_COORD97":173814.37,"N_COORD97":2544676.0899999999,"ADDRESS":"大仁街５０號","OBJECTID":623337},"geometry":{"x":173814.37000000011,"y":2544676.0900000017}},{"attributes":{"ID":623365,"DIS_CODE":0,"TOWNNAME":"永康區","LI":"南灣里","LIN":" ","STREET":"南興路","SECT":" ","MAREA":" ","LANE":" ","ALLEY":" ","HOUSE_NO":"６９之２號","E_COORD97":174202.57000000001,"N_COORD97":2544271.2000000002,"ADDRESS":"南興路６９之２號","OBJECTID":623338},"geometry":{"x":174202.57000000123,"y":2544271.2000000011}},{"attributes":{"ID":623366,"DIS_CODE":0,"TOWNNAME":"永康區","LI":"神洲里","LIN":"18鄰","STREET":"忠孝路","SECT":" ","MAREA":" ","LANE":" ","ALLEY":" ","HOUSE_NO":"１０８號","E_COORD97":172091.04000000001,"N_COORD97":2544993,"ADDRESS":"忠孝路１０８號","OBJECTID":623339},"geometry":{"x":172091.04000000004,"y":2544993}},{"attributes":{"ID":623367,"DIS_CODE":0,"TOWNNAME":"永康區","LI":"勝利里","LIN":"20鄰","STREET":"勝學路","SECT":" ","MAREA":" ","LANE":" ","ALLEY":" ","HOUSE_NO":"２６２號","E_COORD97":171208.94,"N_COORD97":2545294.6499999999,"ADDRESS":"勝學路２６２號","OBJECTID":623340},"geometry":{"x":171208.94000000041,"y":2545294.6500000004}},{"attributes":{"ID":623368,"DIS_CODE":0,"TOWNNAME":"永康區","LI":"永康里","LIN":"20鄰","STREET":"永明街","SECT":" ","MAREA":" ","LANE":" ","ALLEY":" ","HOUSE_NO":"５２之２號","E_COORD97":174103.17999999999,"N_COORD97":2547304.2599999998,"ADDRESS":"永明街５２之２號","OBJECTID":623341},"geometry":{"x":174103.18000000063,"y":2547304.2600000035}},{"attributes":{"ID":623369,"DIS_CODE":0,"TOWNNAME":"永康區","LI":"南灣里","LIN":"32鄰","STREET":"大灣一街","SECT":" ","MAREA":" ","LANE":" ","ALLEY":" ","HOUSE_NO":"１７號","E_COORD97":174257.72,"N_COORD97":2544811.3399999999,"ADDRESS":"大灣一街１７號","OBJECTID":623342},"geometry":{"x":174257.71999999974,"y":2544811.3399999999}},{"attributes":{"ID":623370,"DIS_CODE":0,"TOWNNAME":"永康區","LI":"安康里","LIN":"24鄰","STREET":"大橋一街","SECT":" ","MAREA":" ","LANE":" ","ALLEY":" ","HOUSE_NO":"１１４號","E_COORD97":170813,"N_COORD97":2546345.8799999999,"ADDRESS":"大橋一街１１４號","OBJECTID":623343},"geometry":{"x":170813,"y":2546345.879999999}},{"attributes":{"ID":623371,"DIS_CODE":0,"TOWNNAME":"永康區","LI":"龍潭里","LIN":" ","STREET":"龍潭街","SECT":" ","MAREA":" ","LANE":" ","ALLEY":" ","HOUSE_NO":"２１４號","E_COORD97":174907.10999999999,"N_COORD97":2548274.46,"ADDRESS":"龍潭街２１４號","OBJECTID":623344},"geometry":{"x":174907.1099999994,"y":2548274.4600000028}},{"attributes":{"ID":623372,"DIS_CODE":0,"TOWNNAME":"永康區","LI":"西灣里","LIN":"20鄰","STREET":"大安街","SECT":" ","MAREA":" ","LANE":" ","ALLEY":" ","HOUSE_NO":"３６５號","E_COORD97":174569.70000000001,"N_COORD97":2545801.0699999998,"ADDRESS":"大安街３６５號","OBJECTID":623345},"geometry":{"x":174569.70000000112,"y":2545801.0700000022}},{"attributes":{"ID":623373,"DIS_CODE":0,"TOWNNAME":"永康區","LI":"永康里","LIN":"26鄰","STREET":"永大路","SECT":"二段","MAREA":" ","LANE":" ","ALLEY":" ","HOUSE_NO":"１１２９號地下一層之","E_COORD97":174202.32000000001,"N_COORD97":2547482.3599999999,"ADDRESS":"永大路二段１１２９號地下一層之２２","OBJECTID":623346},"geometry":{"x":174202.32000000216,"y":2547482.3599999994}},{"attributes":{"ID":623374,"DIS_CODE":0,"TOWNNAME":"永康區","LI":"甲頂里","LIN":"25鄰","STREET":"中正南路","SECT":" ","MAREA":" ","LANE":" ","ALLEY":" ","HOUSE_NO":"４９號","E_COORD97":169633.23999999999,"N_COORD97":2546796.3999999999,"ADDRESS":"中正南路４９號","OBJECTID":623347},"geometry":{"x":169633.24000000115,"y":2546796.4000000022}},{"attributes":{"ID":623375,"DIS_CODE":0,"TOWNNAME":"永康區","LI":"東灣里","LIN":"13鄰","STREET":"大灣路","SECT":" ","MAREA":" ","LANE":" ","ALLEY":" ","HOUSE_NO":"３７７號","E_COORD97":174751.17999999999,"N_COORD97":2544874.75,"ADDRESS":"大灣路３７７號","OBJECTID":623348},"geometry":{"x":174751.1799999997,"y":2544874.7500000019}},{"attributes":{"ID":623376,"DIS_CODE":0,"TOWNNAME":"永康區","LI":"復華里","LIN":"23鄰","STREET":"復華八街","SECT":" ","MAREA":" ","LANE":" ","ALLEY":" ","HOUSE_NO":"３６號","E_COORD97":172710.22,"N_COORD97":2546199.5299999998,"ADDRESS":"復華八街３６號","OBJECTID":623349},"geometry":{"x":172710.21999999974,"y":2546199.5299999993}},{"attributes":{"ID":623377,"DIS_CODE":0,"TOWNNAME":"永康區","LI":"永康里","LIN":"39鄰","STREET":"永大路","SECT":"二段","MAREA":" ","LANE":" ","ALLEY":" ","HOUSE_NO":"６２７號","E_COORD97":174407.42000000001,"N_COORD97":2546418.02,"ADDRESS":"永大路二段６２７號","OBJECTID":623350},"geometry":{"x":174407.41999999993,"y":2546418.0200000014}},{"attributes":{"ID":623378,"DIS_CODE":0,"TOWNNAME":"永康區","LI":"崑山里","LIN":"4鄰","STREET":"永大路","SECT":"一段","MAREA":" ","LANE":" ","ALLEY":" ","HOUSE_NO":"２７３之１號","E_COORD97":173970.89000000001,"N_COORD97":2544291.1800000002,"ADDRESS":"永大路一段２７３之１號","OBJECTID":623351},"geometry":{"x":173970.8900000006,"y":2544291.1800000016}},{"attributes":{"ID":623379,"DIS_CODE":0,"TOWNNAME":"永康區","LI":"永康里","LIN":"38鄰","STREET":"西勢路","SECT":" ","MAREA":" ","LANE":" ","ALLEY":" ","HOUSE_NO":"７０９號","E_COORD97":174455.63,"N_COORD97":2546712.2400000002,"ADDRESS":"西勢路７０９號","OBJECTID":623352},"geometry":{"x":174455.63000000175,"y":2546712.2400000021}},{"attributes":{"ID":623380,"DIS_CODE":0,"TOWNNAME":"永康區","LI":"永康里","LIN":"9鄰","STREET":"永康街","SECT":" ","MAREA":" ","LANE":" ","ALLEY":" ","HOUSE_NO":"９５號","E_COORD97":173851.66,"N_COORD97":2547153.2200000002,"ADDRESS":"永康街９５號","OBJECTID":623353},"geometry":{"x":173851.66000000015,"y":2547153.2200000025}},{"attributes":{"ID":623381,"DIS_CODE":0,"TOWNNAME":"永康區","LI":"北灣里","LIN":"4鄰","STREET":"信義街","SECT":" ","MAREA":" ","LANE":" ","ALLEY":" ","HOUSE_NO":"４２號","E_COORD97":175489.12,"N_COORD97":2545678.2599999998,"ADDRESS":"信義街４２號","OBJECTID":623354},"geometry":{"x":175489.12000000104,"y":2545678.2600000016}},{"attributes":{"ID":623382,"DIS_CODE":0,"TOWNNAME":"永康區","LI":"西橋里","LIN":"4鄰","STREET":"中華西街","SECT":" ","MAREA":" ","LANE":" ","ALLEY":" ","HOUSE_NO":"１１號","E_COORD97":170812.54000000001,"N_COORD97":2545937.9900000002,"ADDRESS":"中華西街１１號","OBJECTID":623355},"geometry":{"x":170812.54000000097,"y":2545937.9900000021}},{"attributes":{"ID":623383,"DIS_CODE":0,"TOWNNAME":"永康區","LI":"尚頂里","LIN":"5鄰","STREET":"正南一街","SECT":" ","MAREA":" ","LANE":" ","ALLEY":" ","HOUSE_NO":"１６６號","E_COORD97":170686.20000000001,"N_COORD97":2547405.7400000002,"ADDRESS":"正南一街１６６號","OBJECTID":623356},"geometry":{"x":170686.20000000112,"y":2547405.7400000002}},{"attributes":{"ID":623384,"DIS_CODE":0,"TOWNNAME":"永康區","LI":"永康里","LIN":"26鄰","STREET":"中山北路","SECT":" ","MAREA":" ","LANE":" ","ALLEY":" ","HOUSE_NO":"６８號","E_COORD97":174055.03,"N_COORD97":2547401.54,"ADDRESS":"中山北路６８號","OBJECTID":623357},"geometry":{"x":174055.03000000212,"y":2547401.540000001}},{"attributes":{"ID":623385,"DIS_CODE":0,"TOWNNAME":"永康區","LI":"北灣里","LIN":"39鄰","STREET":"大同街","SECT":" ","MAREA":" ","LANE":" ","ALLEY":" ","HOUSE_NO":"４１９號","E_COORD97":174626.42000000001,"N_COORD97":2546313.75,"ADDRESS":"大同街４１９號","OBJECTID":623358},"geometry":{"x":174626.41999999993,"y":2546313.75}},{"attributes":{"ID":623386,"DIS_CODE":0,"TOWNNAME":"永康區","LI":"西橋里","LIN":"25鄰","STREET":"中華路","SECT":" ","MAREA":" ","LANE":" ","ALLEY":" ","HOUSE_NO":"８１３號","E_COORD97":170554.41,"N_COORD97":2546614.75,"ADDRESS":"中華路８１３號","OBJECTID":623359},"geometry":{"x":170554.41000000015,"y":2546614.75}},{"attributes":{"ID":623387,"DIS_CODE":0,"TOWNNAME":"永康區","LI":"東橋里","LIN":"25鄰","STREET":"中正路","SECT":" ","MAREA":" ","LANE":" ","ALLEY":" ","HOUSE_NO":"３９６號","E_COORD97":172827.44,"N_COORD97":2548127.9900000002,"ADDRESS":"中正路３９６號","OBJECTID":623360},"geometry":{"x":172827.44000000134,"y":2548127.9900000021}},{"attributes":{"ID":623388,"DIS_CODE":0,"TOWNNAME":"永康區","LI":"正強里","LIN":"42鄰","STREET":"中正路","SECT":" ","MAREA":" ","LANE":" ","ALLEY":" ","HOUSE_NO":"２５８號底一層之１","E_COORD97":173169.14000000001,"N_COORD97":2547933.6499999999,"ADDRESS":"中正路２５８號底一層之１","OBJECTID":623361},"geometry":{"x":173169.1400000006,"y":2547933.6500000022}},{"attributes":{"ID":623389,"DIS_CODE":0,"TOWNNAME":"永康區","LI":"南灣里","LIN":" ","STREET":"大灣路","SECT":" ","MAREA":" ","LANE":" ","ALLEY":" ","HOUSE_NO":"６４０之１號","E_COORD97":174495.07000000001,"N_COORD97":2544604.2999999998,"ADDRESS":"大灣路６４０之１號","OBJECTID":623362},"geometry":{"x":174495.0700000003,"y":2544604.3000000026}},{"attributes":{"ID":623390,"DIS_CODE":0,"TOWNNAME":"永康區","LI":"永康里","LIN":"26鄰","STREET":"中山北路","SECT":" ","MAREA":" ","LANE":" ","ALLEY":" ","HOUSE_NO":"６２號","E_COORD97":174047.64999999999,"N_COORD97":2547396.4900000002,"ADDRESS":"中山北路６２號","OBJECTID":623363},"geometry":{"x":174047.65000000224,"y":2547396.4900000002}},{"attributes":{"ID":623391,"DIS_CODE":0,"TOWNNAME":"安南區","LI":"溪頂里","LIN":"17鄰","STREET":"德安街","SECT":" ","MAREA":" ","LANE":" ","ALLEY":" ","HOUSE_NO":"１０號","E_COORD97":168703.20000000001,"N_COORD97":2547390.6200000001,"ADDRESS":"德安街１０號","OBJECTID":623364},"geometry":{"x":168703.20000000019,"y":2547390.620000001}},{"attributes":{"ID":623392,"DIS_CODE":0,"TOWNNAME":"安南區","LI":"溪頂里","LIN":"19鄰","STREET":"賢安街","SECT":" ","MAREA":" ","LANE":" ","ALLEY":" ","HOUSE_NO":"１２號","E_COORD97":168696.26999999999,"N_COORD97":2547441.7999999998,"ADDRESS":"賢安街１２號","OBJECTID":623365},"geometry":{"x":168696.27000000048,"y":2547441.8000000026}},{"attributes":{"ID":623393,"DIS_CODE":0,"TOWNNAME":"安南區","LI":"溪頂里","LIN":"19鄰","STREET":"賢安街","SECT":" ","MAREA":" ","LANE":" ","ALLEY":" ","HOUSE_NO":"１４號","E_COORD97":168691.85999999999,"N_COORD97":2547441.6099999999,"ADDRESS":"賢安街１４號","OBJECTID":623366},"geometry":{"x":168691.86000000034,"y":2547441.6100000013}},{"attributes":{"ID":623394,"DIS_CODE":0,"TOWNNAME":"安南區","LI":"溪頂里","LIN":"19鄰","STREET":"賢安街","SECT":" ","MAREA":" ","LANE":" ","ALLEY":" ","HOUSE_NO":"２０號","E_COORD97":168674.28,"N_COORD97":2547438.1200000001,"ADDRESS":"賢安街２０號","OBJECTID":623367},"geometry":{"x":168674.28000000026,"y":2547438.120000001}},{"attributes":{"ID":623395,"DIS_CODE":0,"TOWNNAME":"安南區","LI":"溪頂里","LIN":"19鄰","STREET":"賢安街","SECT":" ","MAREA":" ","LANE":" ","ALLEY":" ","HOUSE_NO":"２２號","E_COORD97":168670.04999999999,"N_COORD97":2547437.6600000001,"ADDRESS":"賢安街２２號","OBJECTID":623368},"geometry":{"x":168670.04999999981,"y":2547437.6600000039}},{"attributes":{"ID":623396,"DIS_CODE":0,"TOWNNAME":"安南區","LI":"溪頂里","LIN":"19鄰","STREET":"賢安街","SECT":" ","MAREA":" ","LANE":" ","ALLEY":" ","HOUSE_NO":"２４號","E_COORD97":168665.82999999999,"N_COORD97":2547437.2000000002,"ADDRESS":"賢安街２４號","OBJECTID":623369},"geometry":{"x":168665.83000000101,"y":2547437.2000000011}},{"attributes":{"ID":623397,"DIS_CODE":0,"TOWNNAME":"安南區","LI":"溪頂里","LIN":"19鄰","STREET":"賢安街","SECT":" ","MAREA":" ","LANE":" ","ALLEY":" ","HOUSE_NO":"２８號","E_COORD97":168656.82999999999,"N_COORD97":2547436.2000000002,"ADDRESS":"賢安街２８號","OBJECTID":623370},"geometry":{"x":168656.83000000007,"y":2547436.200000003}},{"attributes":{"ID":623398,"DIS_CODE":0,"TOWNNAME":"安南區","LI":"溪頂里","LIN":"19鄰","STREET":"賢安街","SECT":" ","MAREA":" ","LANE":" ","ALLEY":" ","HOUSE_NO":"３０號","E_COORD97":168652.97,"N_COORD97":2547436.0099999998,"ADDRESS":"賢安街３０號","OBJECTID":623371},"geometry":{"x":168652.97000000067,"y":2547436.0100000016}},{"attributes":{"ID":623399,"DIS_CODE":0,"TOWNNAME":"安南區","LI":"溪頂里","LIN":"19鄰","STREET":"賢安街","SECT":" ","MAREA":" ","LANE":" ","ALLEY":" ","HOUSE_NO":"３２號","E_COORD97":168648.56,"N_COORD97":2547435.9199999999,"ADDRESS":"賢安街３２號","OBJECTID":623372},"geometry":{"x":168648.56000000052,"y":2547435.9200000018}},{"attributes":{"ID":623400,"DIS_CODE":0,"TOWNNAME":"安南區","LI":"溪頂里","LIN":"19鄰","STREET":"賢安街","SECT":" ","MAREA":" ","LANE":" ","ALLEY":" ","HOUSE_NO":"３６號","E_COORD97":168639.92999999999,"N_COORD97":2547434.8199999998,"ADDRESS":"賢安街３６號","OBJECTID":623373},"geometry":{"x":168639.9299999997,"y":2547434.8200000003}},{"attributes":{"ID":623401,"DIS_CODE":0,"TOWNNAME":"安南區","LI":"溪頂里","LIN":"19鄰","STREET":"賢安街","SECT":" ","MAREA":" ","LANE":" ","ALLEY":" ","HOUSE_NO":"３８號","E_COORD97":168635.25,"N_COORD97":2547434.73,"ADDRESS":"賢安街３８號","OBJECTID":623374},"geometry":{"x":168635.25,"y":2547434.7300000023}},{"attributes":{"ID":623402,"DIS_CODE":0,"TOWNNAME":"安南區","LI":"溪頂里","LIN":"19鄰","STREET":"賢安街","SECT":" ","MAREA":" ","LANE":" ","ALLEY":" ","HOUSE_NO":"４０號","E_COORD97":168631.66,"N_COORD97":2547434.6400000001,"ADDRESS":"賢安街４０號","OBJECTID":623375},"geometry":{"x":168631.66000000108,"y":2547434.6400000043}},{"attributes":{"ID":623403,"DIS_CODE":0,"TOWNNAME":"安南區","LI":"溪頂里","LIN":"19鄰","STREET":"賢安街","SECT":" ","MAREA":" ","LANE":" ","ALLEY":" ","HOUSE_NO":"４２號","E_COORD97":168627.01999999999,"N_COORD97":2547434.6899999999,"ADDRESS":"賢安街４２號","OBJECTID":623376},"geometry":{"x":168627.02000000048,"y":2547434.6900000013}},{"attributes":{"ID":623404,"DIS_CODE":0,"TOWNNAME":"安南區","LI":"溪頂里","LIN":"19鄰","STREET":"賢安街","SECT":" ","MAREA":" ","LANE":" ","ALLEY":" ","HOUSE_NO":"４６號","E_COORD97":168613.39000000001,"N_COORD97":2547431.54,"ADDRESS":"賢安街４６號","OBJECTID":623377},"geometry":{"x":168613.38999999966,"y":2547431.540000001}},{"attributes":{"ID":623405,"DIS_CODE":0,"TOWNNAME":"安南區","LI":"溪頂里","LIN":"19鄰","STREET":"賢安街","SECT":" ","MAREA":" ","LANE":" ","ALLEY":" ","HOUSE_NO":"４８號","E_COORD97":168609.34,"N_COORD97":2547430.9100000001,"ADDRESS":"賢安街４８號","OBJECTID":623378},"geometry":{"x":168609.34000000171,"y":2547430.9100000001}},{"attributes":{"ID":623406,"DIS_CODE":0,"TOWNNAME":"安南區","LI":"溪頂里","LIN":"19鄰","STREET":"賢安街","SECT":" ","MAREA":" ","LANE":" ","ALLEY":" ","HOUSE_NO":"４號","E_COORD97":168713.35000000001,"N_COORD97":2547442.6200000001,"ADDRESS":"賢安街４號","OBJECTID":623379},"geometry":{"x":168713.34999999963,"y":2547442.6200000029}},{"attributes":{"ID":623407,"DIS_CODE":0,"TOWNNAME":"安南區","LI":"溪頂里","LIN":"19鄰","STREET":"賢安街","SECT":" ","MAREA":" ","LANE":" ","ALLEY":" ","HOUSE_NO":"５０號","E_COORD97":168605.17000000001,"N_COORD97":2547430.2799999998,"ADDRESS":"賢安街５０號","OBJECTID":623380},"geometry":{"x":168605.16999999993,"y":2547430.2800000012}},{"attributes":{"ID":623408,"DIS_CODE":0,"TOWNNAME":"安南區","LI":"溪頂里","LIN":"19鄰","STREET":"賢安街","SECT":" ","MAREA":" ","LANE":" ","ALLEY":" ","HOUSE_NO":"５２號","E_COORD97":168600.62,"N_COORD97":2547430.02,"ADDRESS":"賢安街５２號","OBJECTID":623381},"geometry":{"x":168600.62000000011,"y":2547430.0199999996}},{"attributes":{"ID":623409,"DIS_CODE":0,"TOWNNAME":"安南區","LI":"溪頂里","LIN":"19鄰","STREET":"賢安街","SECT":" ","MAREA":" ","LANE":" ","ALLEY":" ","HOUSE_NO":"５６號","E_COORD97":168592.01999999999,"N_COORD97":2547428.7599999998,"ADDRESS":"賢安街５６號","OBJECTID":623382},"geometry":{"x":168592.01999999955,"y":2547428.7599999998}},{"attributes":{"ID":623410,"DIS_CODE":0,"TOWNNAME":"安南區","LI":"溪頂里","LIN":"19鄰","STREET":"賢安街","SECT":" ","MAREA":" ","LANE":" ","ALLEY":" ","HOUSE_NO":"５８號","E_COORD97":168587.72,"N_COORD97":2547428.8900000001,"ADDRESS":"賢安街５８號","OBJECTID":623383},"geometry":{"x":168587.71999999974,"y":2547428.8900000006}},{"attributes":{"ID":623411,"DIS_CODE":0,"TOWNNAME":"安南區","LI":"溪頂里","LIN":"19鄰","STREET":"賢安街","SECT":" ","MAREA":" ","LANE":" ","ALLEY":" ","HOUSE_NO":"６０號","E_COORD97":168583.81,"N_COORD97":2547428.3799999999,"ADDRESS":"賢安街６０號","OBJECTID":623384},"geometry":{"x":168583.81000000145,"y":2547428.3800000008}},{"attributes":{"ID":623412,"DIS_CODE":0,"TOWNNAME":"安南區","LI":"溪頂里","LIN":"19鄰","STREET":"賢安街","SECT":" ","MAREA":" ","LANE":" ","ALLEY":" ","HOUSE_NO":"６２號","E_COORD97":168579.63,"N_COORD97":2547427.8799999999,"ADDRESS":"賢安街６２號","OBJECTID":623385},"geometry":{"x":168579.62999999989,"y":2547427.8800000027}},{"attributes":{"ID":623413,"DIS_CODE":0,"TOWNNAME":"安南區","LI":"溪頂里","LIN":"19鄰","STREET":"賢安街","SECT":" ","MAREA":" ","LANE":" ","ALLEY":" ","HOUSE_NO":"６４號","E_COORD97":168574.45000000001,"N_COORD97":2547427.3700000001,"ADDRESS":"賢安街６４號","OBJECTID":623386},"geometry":{"x":168574.45000000019,"y":2547427.3700000029}},{"attributes":{"ID":623414,"DIS_CODE":0,"TOWNNAME":"安南區","LI":"溪頂里","LIN":"19鄰","STREET":"賢安街","SECT":" ","MAREA":" ","LANE":" ","ALLEY":" ","HOUSE_NO":"６６號","E_COORD97":168570.53,"N_COORD97":2547427.2400000002,"ADDRESS":"賢安街６６號","OBJECTID":623387},"geometry":{"x":168570.53000000026,"y":2547427.2400000021}},{"attributes":{"ID":623415,"DIS_CODE":0,"TOWNNAME":"安南區","LI":"溪頂里","LIN":"19鄰","STREET":"賢安街","SECT":" ","MAREA":" ","LANE":" ","ALLEY":" ","HOUSE_NO":"６８號","E_COORD97":168566.23000000001,"N_COORD97":2547427.2400000002,"ADDRESS":"賢安街６８號","OBJECTID":623388},"geometry":{"x":168566.23000000045,"y":2547427.2400000021}},{"attributes":{"ID":623416,"DIS_CODE":0,"TOWNNAME":"安南區","LI":"溪頂里","LIN":"21鄰","STREET":"聖安街","SECT":" ","MAREA":" ","LANE":" ","ALLEY":" ","HOUSE_NO":"６６號","E_COORD97":168564.42999999999,"N_COORD97":2547480.71,"ADDRESS":"聖安街６６號","OBJECTID":623389},"geometry":{"x":168564.43000000156,"y":2547480.7100000009}},{"attributes":{"ID":623417,"DIS_CODE":0,"TOWNNAME":"安南區","LI":"溪頂里","LIN":"21鄰","STREET":"聖安街","SECT":" ","MAREA":" ","LANE":" ","ALLEY":" ","HOUSE_NO":"６８號","E_COORD97":168560.01999999999,"N_COORD97":2547481.02,"ADDRESS":"聖安街６８號","OBJECTID":623390},"geometry":{"x":168560.01999999955,"y":2547481.0199999996}},{"attributes":{"ID":623418,"DIS_CODE":0,"TOWNNAME":"安南區","LI":"溪頂里","LIN":"21鄰","STREET":"聖安街","SECT":" ","MAREA":" ","LANE":" ","ALLEY":" ","HOUSE_NO":"８號","E_COORD97":168699.51999999999,"N_COORD97":2547496.3900000001,"ADDRESS":"聖安街８號","OBJECTID":623391},"geometry":{"x":168699.52000000048,"y":2547496.3900000006}},{"attributes":{"ID":623419,"DIS_CODE":0,"TOWNNAME":"仁德區","LI":"保安里","LIN":"23鄰","STREET":"保學路","SECT":" ","MAREA":" ","LANE":" ","ALLEY":" ","HOUSE_NO":"３５號","E_COORD97":171553.45999999999,"N_COORD97":2535603.4199999999,"ADDRESS":"保學路３５號","OBJECTID":623392},"geometry":{"x":171553.46000000089,"y":2535603.4200000018}},{"attributes":{"ID":623420,"DIS_CODE":0,"TOWNNAME":"安南區","LI":"溪頂里","LIN":"18鄰","STREET":"賢安街","SECT":" ","MAREA":" ","LANE":" ","ALLEY":" ","HOUSE_NO":"４５號","E_COORD97":168616.92000000001,"N_COORD97":2547403.4500000002,"ADDRESS":"賢安街４５號","OBJECTID":623393},"geometry":{"x":168616.91999999993,"y":2547403.4499999993}},{"attributes":{"ID":623421,"DIS_CODE":0,"TOWNNAME":"安南區","LI":"溪頂里","LIN":"20鄰","STREET":"聖安街","SECT":" ","MAREA":" ","LANE":" ","ALLEY":" ","HOUSE_NO":"６５號","E_COORD97":168568.12,"N_COORD97":2547452.2799999998,"ADDRESS":"聖安街６５號","OBJECTID":623394},"geometry":{"x":168568.12000000011,"y":2547452.2799999993}},{"attributes":{"ID":623422,"DIS_CODE":0,"TOWNNAME":"安南區","LI":"安慶里","LIN":"13鄰","STREET":"怡安路","SECT":"一段","MAREA":" ","LANE":" ","ALLEY":" ","HOUSE_NO":"８１號","E_COORD97":169369.89000000001,"N_COORD97":2548973.2200000002,"ADDRESS":"怡安路一段８１號","OBJECTID":623395},"geometry":{"x":169369.89000000153,"y":2548973.2199999988}},{"attributes":{"ID":623423,"DIS_CODE":0,"TOWNNAME":"安南區","LI":"州北里","LIN":"17鄰","STREET":"安和路","SECT":"六段","MAREA":" ","LANE":" ","ALLEY":" ","HOUSE_NO":"４９號之２","E_COORD97":169550.14999999999,"N_COORD97":2552428.1099999999,"ADDRESS":"安和路六段４９號之２","OBJECTID":623396},"geometry":{"x":169550.15000000224,"y":2552428.1100000013}},{"attributes":{"ID":623424,"DIS_CODE":0,"TOWNNAME":"仁德區","LI":"後壁里","LIN":"28鄰","STREET":"德洋路","SECT":" ","MAREA":" ","LANE":" ","ALLEY":" ","HOUSE_NO":"３５號","E_COORD97":173131.39999999999,"N_COORD97":2539017.77,"ADDRESS":"德洋路３５號","OBJECTID":623397},"geometry":{"x":173131.40000000037,"y":2539017.7700000033}},{"attributes":{"ID":623425,"DIS_CODE":0,"TOWNNAME":"安南區","LI":"海東里","LIN":"4鄰","STREET":"海中街","SECT":" ","MAREA":" ","LANE":" ","ALLEY":" ","HOUSE_NO":"１４０號","E_COORD97":166366.54999999999,"N_COORD97":2549155.8500000001,"ADDRESS":"海中街１４０號","OBJECTID":623398},"geometry":{"x":166366.54999999981,"y":2549155.8500000015}},{"attributes":{"ID":623426,"DIS_CODE":0,"TOWNNAME":"安南區","LI":"海東里","LIN":"4鄰","STREET":"海中街","SECT":" ","MAREA":" ","LANE":" ","ALLEY":" ","HOUSE_NO":"１４２號","E_COORD97":166362.35999999999,"N_COORD97":2549159.0899999999,"ADDRESS":"海中街１４２號","OBJECTID":623399},"geometry":{"x":166362.36000000127,"y":2549159.0899999999}},{"attributes":{"ID":623427,"DIS_CODE":0,"TOWNNAME":"安南區","LI":"海東里","LIN":"4鄰","STREET":"海中街","SECT":" ","MAREA":" ","LANE":" ","ALLEY":" ","HOUSE_NO":"１４６號","E_COORD97":166350.51999999999,"N_COORD97":2549168.5,"ADDRESS":"海中街１４６號","OBJECTID":623400},"geometry":{"x":166350.52000000048,"y":2549168.5000000019}}]}