{"displayFieldName":"TOWNNAME","fieldAliases":{"ID":"ID","DIS_CODE":"DIS_CODE","TOWNNAME":"TOWNNAME","LI":"LI","LIN":"LIN","STREET":"STREET","SECT":"SECT","MAREA":"MAREA","LANE":"LANE","ALLEY":"ALLEY","HOUSE_NO":"HOUSE_NO","E_COORD97":"E_COORD97","N_COORD97":"N_COORD97","ADDRESS":"ADDRESS","OBJECTID":"OBJECTID"},"geometryType":"esriGeometryPoint","spatialReference":{"wkid":102443,"latestWkid":3826},"fields":[{"name":"ID","type":"esriFieldTypeDouble","alias":"ID"},{"name":"DIS_CODE","type":"esriFieldTypeInteger","alias":"DIS_CODE"},{"name":"TOWNNAME","type":"esriFieldTypeString","alias":"TOWNNAME","length":8},{"name":"LI","type":"esriFieldTypeString","alias":"LI","length":8},{"name":"LIN","type":"esriFieldTypeString","alias":"LIN","length":12},{"name":"STREET","type":"esriFieldTypeString","alias":"STREET","length":20},{"name":"SECT","type":"esriFieldTypeString","alias":"SECT","length":8},{"name":"MAREA","type":"esriFieldTypeString","alias":"MAREA","length":12},{"name":"LANE","type":"esriFieldTypeString","alias":"LANE","length":10},{"name":"ALLEY","type":"esriFieldTypeString","alias":"ALLEY","length":10},{"name":"HOUSE_NO","type":"esriFieldTypeString","alias":"HOUSE_NO","length":20},{"name":"E_COORD97","type":"esriFieldTypeDouble","alias":"E_COORD97"},{"name":"N_COORD97","type":"esriFieldTypeDouble","alias":"N_COORD97"},{"name":"ADDRESS","type":"esriFieldTypeString","alias":"ADDRESS","length":50},{"name":"OBJECTID","type":"esriFieldTypeOID","alias":"OBJECTID"}],"features":[{"attributes":{"ID":429226,"DIS_CODE":0,"TOWNNAME":"歸仁區","LI":"看西里","LIN":"4鄰","STREET":"仁愛南街","SECT":" ","MAREA":" ","LANE":"１０２巷","ALLEY":" ","HOUSE_NO":"７號","E_COORD97":178242.35000000001,"N_COORD97":2540377.29,"ADDRESS":"仁愛南街１０２巷７號","OBJECTID":429201},"geometry":{"x":178242.34999999963,"y":2540377.290000001}},{"attributes":{"ID":429227,"DIS_CODE":0,"TOWNNAME":"歸仁區","LI":"看西里","LIN":"4鄰","STREET":"仁愛南街","SECT":" ","MAREA":" ","LANE":"１０２巷","ALLEY":" ","HOUSE_NO":"１３號","E_COORD97":178227.20000000001,"N_COORD97":2540370.29,"ADDRESS":"仁愛南街１０２巷１３號","OBJECTID":429202},"geometry":{"x":178227.19999999925,"y":2540370.290000001}},{"attributes":{"ID":429228,"DIS_CODE":0,"TOWNNAME":"歸仁區","LI":"南興里","LIN":"18鄰","STREET":"南興街","SECT":" ","MAREA":" ","LANE":"２０７巷","ALLEY":" ","HOUSE_NO":"６號","E_COORD97":175680.70999999999,"N_COORD97":2541364.25,"ADDRESS":"南興街２０７巷６號","OBJECTID":429203},"geometry":{"x":175680.70999999903,"y":2541364.2499999981}},{"attributes":{"ID":429229,"DIS_CODE":0,"TOWNNAME":"歸仁區","LI":"南保里","LIN":"20鄰","STREET":"文化街","SECT":"三段","MAREA":" ","LANE":"１０５巷","ALLEY":" ","HOUSE_NO":"１７號","E_COORD97":176785.87,"N_COORD97":2541162.2599999998,"ADDRESS":"文化街三段１０５巷１７號","OBJECTID":429204},"geometry":{"x":176785.87000000104,"y":2541162.2600000016}},{"attributes":{"ID":429230,"DIS_CODE":0,"TOWNNAME":"歸仁區","LI":"南保里","LIN":"5鄰","STREET":"文化街","SECT":"三段","MAREA":" ","LANE":"１８巷","ALLEY":" ","HOUSE_NO":"３７號","E_COORD97":176934.92000000001,"N_COORD97":2541286.2599999998,"ADDRESS":"文化街三段１８巷３７號","OBJECTID":429205},"geometry":{"x":176934.91999999993,"y":2541286.2600000035}},{"attributes":{"ID":429231,"DIS_CODE":0,"TOWNNAME":"歸仁區","LI":"媽廟里","LIN":"4鄰","STREET":"和順路","SECT":"一段","MAREA":" ","LANE":"１１巷","ALLEY":" ","HOUSE_NO":"５６號","E_COORD97":177460.51999999999,"N_COORD97":2543637.7200000002,"ADDRESS":"和順路一段１１巷５６號","OBJECTID":429206},"geometry":{"x":177460.52000000048,"y":2543637.7200000025}},{"attributes":{"ID":429232,"DIS_CODE":0,"TOWNNAME":"歸仁區","LI":"歸南里","LIN":"18鄰","STREET":"民生八街","SECT":" ","MAREA":" ","LANE":"２８巷","ALLEY":" ","HOUSE_NO":"２０號","E_COORD97":176125.45999999999,"N_COORD97":2540416.25,"ADDRESS":"民生八街２８巷２０號","OBJECTID":429207},"geometry":{"x":176125.46000000089,"y":2540416.2500000019}},{"attributes":{"ID":429233,"DIS_CODE":0,"TOWNNAME":"歸仁區","LI":"歸南里","LIN":"20鄰","STREET":"民生八街","SECT":" ","MAREA":" ","LANE":"２８巷","ALLEY":" ","HOUSE_NO":"１５號","E_COORD97":176111.06,"N_COORD97":2540412.25,"ADDRESS":"民生八街２８巷１５號","OBJECTID":429208},"geometry":{"x":176111.06000000052,"y":2540412.2500000019}},{"attributes":{"ID":429234,"DIS_CODE":0,"TOWNNAME":"歸仁區","LI":"媽廟里","LIN":"4鄰","STREET":"和順路","SECT":"一段","MAREA":" ","LANE":"６３巷","ALLEY":" ","HOUSE_NO":"３９號","E_COORD97":177397.01999999999,"N_COORD97":2543645.7200000002,"ADDRESS":"和順路一段６３巷３９號","OBJECTID":429209},"geometry":{"x":177397.01999999955,"y":2543645.7200000007}},{"attributes":{"ID":429235,"DIS_CODE":0,"TOWNNAME":"歸仁區","LI":"許厝里","LIN":"5鄰","STREET":"中山路","SECT":"一段","MAREA":" ","LANE":"３１９巷","ALLEY":" ","HOUSE_NO":"１８號","E_COORD97":178436.16,"N_COORD97":2540592.25,"ADDRESS":"中山路一段３１９巷１８號","OBJECTID":429210},"geometry":{"x":178436.16000000201,"y":2540592.2500000019}},{"attributes":{"ID":429236,"DIS_CODE":0,"TOWNNAME":"歸仁區","LI":"看西里","LIN":"18鄰","STREET":"成功五街","SECT":" ","MAREA":" ","LANE":"９５巷","ALLEY":" ","HOUSE_NO":"５號","E_COORD97":178409.76000000001,"N_COORD97":2539944.3599999999,"ADDRESS":"成功五街９５巷５號","OBJECTID":429211},"geometry":{"x":178409.76000000071,"y":2539944.3599999994}},{"attributes":{"ID":429237,"DIS_CODE":0,"TOWNNAME":"歸仁區","LI":"後市里","LIN":"38鄰","STREET":"民權三街","SECT":" ","MAREA":" ","LANE":"１１６巷","ALLEY":" ","HOUSE_NO":"２號","E_COORD97":177263.28,"N_COORD97":2541045.75,"ADDRESS":"民權三街１１６巷２號","OBJECTID":429212},"geometry":{"x":177263.28000000026,"y":2541045.7500000037}},{"attributes":{"ID":429238,"DIS_CODE":0,"TOWNNAME":"歸仁區","LI":"媽廟里","LIN":"4鄰","STREET":"和順路","SECT":"一段","MAREA":" ","LANE":"１１巷","ALLEY":" ","HOUSE_NO":"３４號","E_COORD97":177463.72,"N_COORD97":2543647.7200000002,"ADDRESS":"和順路一段１１巷３４號","OBJECTID":429213},"geometry":{"x":177463.71999999974,"y":2543647.7200000025}},{"attributes":{"ID":429239,"DIS_CODE":0,"TOWNNAME":"歸仁區","LI":"許厝里","LIN":"5鄰","STREET":"中山路","SECT":"一段","MAREA":" ","LANE":"３１９巷","ALLEY":" ","HOUSE_NO":"３４號","E_COORD97":178413.32999999999,"N_COORD97":2540549.8300000001,"ADDRESS":"中山路一段３１９巷３４號","OBJECTID":429214},"geometry":{"x":178413.33000000101,"y":2540549.8300000001}},{"attributes":{"ID":429240,"DIS_CODE":0,"TOWNNAME":"歸仁區","LI":"媽廟里","LIN":"4鄰","STREET":"和順路","SECT":"一段","MAREA":" ","LANE":"１１巷","ALLEY":" ","HOUSE_NO":"２４號","E_COORD97":177485.22,"N_COORD97":2543642.7200000002,"ADDRESS":"和順路一段１１巷２４號","OBJECTID":429215},"geometry":{"x":177485.21999999974,"y":2543642.7200000007}},{"attributes":{"ID":429241,"DIS_CODE":0,"TOWNNAME":"歸仁區","LI":"崙頂里","LIN":"25鄰","STREET":"崙頂街","SECT":" ","MAREA":" ","LANE":"１５０巷","ALLEY":" ","HOUSE_NO":"２８號","E_COORD97":177815.78,"N_COORD97":2539844.25,"ADDRESS":"崙頂街１５０巷２８號","OBJECTID":429216},"geometry":{"x":177815.78000000026,"y":2539844.25}},{"attributes":{"ID":429242,"DIS_CODE":0,"TOWNNAME":"歸仁區","LI":"辜厝里","LIN":"42鄰","STREET":"民權南路","SECT":" ","MAREA":" ","LANE":"１９１巷","ALLEY":" ","HOUSE_NO":"５１號","E_COORD97":177140.73000000001,"N_COORD97":2540390.1200000001,"ADDRESS":"民權南路１９１巷５１號","OBJECTID":429217},"geometry":{"x":177140.73000000231,"y":2540390.1200000048}},{"attributes":{"ID":429243,"DIS_CODE":0,"TOWNNAME":"歸仁區","LI":"媽廟里","LIN":"4鄰","STREET":"和順路","SECT":"一段","MAREA":" ","LANE":"１１巷","ALLEY":" ","HOUSE_NO":"６４號","E_COORD97":177477.92000000001,"N_COORD97":2543632.7200000002,"ADDRESS":"和順路一段１１巷６４號","OBJECTID":429218},"geometry":{"x":177477.92000000179,"y":2543632.7200000007}},{"attributes":{"ID":429244,"DIS_CODE":0,"TOWNNAME":"歸仁區","LI":"歸南里","LIN":"25鄰","STREET":"民生十街","SECT":" ","MAREA":" ","LANE":"８巷","ALLEY":" ","HOUSE_NO":"６號","E_COORD97":176080.85999999999,"N_COORD97":2540211.25,"ADDRESS":"民生十街８巷６號","OBJECTID":429219},"geometry":{"x":176080.86000000127,"y":2540211.25}},{"attributes":{"ID":429245,"DIS_CODE":0,"TOWNNAME":"歸仁區","LI":"許厝里","LIN":"25鄰","STREET":"信義北路","SECT":" ","MAREA":" ","LANE":"３０巷","ALLEY":" ","HOUSE_NO":"１１號","E_COORD97":178044.57999999999,"N_COORD97":2540829.23,"ADDRESS":"信義北路３０巷１１號","OBJECTID":429220},"geometry":{"x":178044.58000000007,"y":2540829.2299999986}},{"attributes":{"ID":429246,"DIS_CODE":0,"TOWNNAME":"歸仁區","LI":"許厝里","LIN":"25鄰","STREET":"中山路","SECT":"一段","MAREA":" ","LANE":"４３４巷","ALLEY":" ","HOUSE_NO":"７號","E_COORD97":178080.14999999999,"N_COORD97":2540764.9300000002,"ADDRESS":"中山路一段４３４巷７號","OBJECTID":429221},"geometry":{"x":178080.15000000037,"y":2540764.9299999997}},{"attributes":{"ID":429247,"DIS_CODE":0,"TOWNNAME":"歸仁區","LI":"辜厝里","LIN":"42鄰","STREET":"民權南路","SECT":" ","MAREA":" ","LANE":"１７７巷","ALLEY":" ","HOUSE_NO":"１０號","E_COORD97":177011.04999999999,"N_COORD97":2540406.0299999998,"ADDRESS":"民權南路１７７巷１０號","OBJECTID":429222},"geometry":{"x":177011.05000000075,"y":2540406.0300000031}},{"attributes":{"ID":429248,"DIS_CODE":0,"TOWNNAME":"歸仁區","LI":"媽廟里","LIN":"4鄰","STREET":"和順路","SECT":"一段","MAREA":" ","LANE":"１１巷","ALLEY":" ","HOUSE_NO":"５０號","E_COORD97":177447.22,"N_COORD97":2543639.7200000002,"ADDRESS":"和順路一段１１巷５０號","OBJECTID":429223},"geometry":{"x":177447.22000000067,"y":2543639.7200000007}},{"attributes":{"ID":429249,"DIS_CODE":0,"TOWNNAME":"歸仁區","LI":"許厝里","LIN":"38鄰","STREET":"公園路","SECT":" ","MAREA":" ","LANE":"６６巷","ALLEY":" ","HOUSE_NO":"６號","E_COORD97":178026.94,"N_COORD97":2540552.2799999998,"ADDRESS":"公園路６６巷６號","OBJECTID":429224},"geometry":{"x":178026.94000000041,"y":2540552.2799999993}},{"attributes":{"ID":429250,"DIS_CODE":0,"TOWNNAME":"歸仁區","LI":"許厝里","LIN":"5鄰","STREET":"中山路","SECT":"一段","MAREA":" ","LANE":"３１９巷","ALLEY":" ","HOUSE_NO":"８號","E_COORD97":178444.20999999999,"N_COORD97":2540614.25,"ADDRESS":"中山路一段３１９巷８號","OBJECTID":429225},"geometry":{"x":178444.21000000089,"y":2540614.25}},{"attributes":{"ID":429251,"DIS_CODE":0,"TOWNNAME":"歸仁區","LI":"媽廟里","LIN":"4鄰","STREET":"和順路","SECT":"一段","MAREA":" ","LANE":"１１巷","ALLEY":" ","HOUSE_NO":"６２號","E_COORD97":177473.92000000001,"N_COORD97":2543633.7200000002,"ADDRESS":"和順路一段１１巷６２號","OBJECTID":429226},"geometry":{"x":177473.91999999993,"y":2543633.7200000044}},{"attributes":{"ID":429252,"DIS_CODE":0,"TOWNNAME":"歸仁區","LI":"許厝里","LIN":"38鄰","STREET":"公園路","SECT":" ","MAREA":" ","LANE":"６６巷","ALLEY":" ","HOUSE_NO":"１２號","E_COORD97":178042.59,"N_COORD97":2540565.2799999998,"ADDRESS":"公園路６６巷１２號","OBJECTID":429227},"geometry":{"x":178042.58999999985,"y":2540565.2799999993}},{"attributes":{"ID":429253,"DIS_CODE":0,"TOWNNAME":"歸仁區","LI":"歸南里","LIN":"18鄰","STREET":"民生八街","SECT":" ","MAREA":" ","LANE":"２８巷","ALLEY":" ","HOUSE_NO":"１８號","E_COORD97":176125.45999999999,"N_COORD97":2540412.25,"ADDRESS":"民生八街２８巷１８號","OBJECTID":429228},"geometry":{"x":176125.46000000089,"y":2540412.2500000019}},{"attributes":{"ID":429254,"DIS_CODE":0,"TOWNNAME":"歸仁區","LI":"辜厝里","LIN":"42鄰","STREET":"民權南路","SECT":" ","MAREA":" ","LANE":"１７７巷","ALLEY":" ","HOUSE_NO":"８號","E_COORD97":176994.82999999999,"N_COORD97":2540405.9900000002,"ADDRESS":"民權南路１７７巷８號","OBJECTID":429229},"geometry":{"x":176994.83000000007,"y":2540405.9900000002}},{"attributes":{"ID":429255,"DIS_CODE":0,"TOWNNAME":"歸仁區","LI":"歸南里","LIN":"18鄰","STREET":"民生八街","SECT":" ","MAREA":" ","LANE":"２８巷","ALLEY":" ","HOUSE_NO":"２４號","E_COORD97":176125.45999999999,"N_COORD97":2540423.25,"ADDRESS":"民生八街２８巷２４號","OBJECTID":429230},"geometry":{"x":176125.46000000089,"y":2540423.2500000019}},{"attributes":{"ID":429256,"DIS_CODE":0,"TOWNNAME":"歸仁區","LI":"許厝里","LIN":"25鄰","STREET":"中山路","SECT":"一段","MAREA":" ","LANE":"４３４巷","ALLEY":" ","HOUSE_NO":"１５號","E_COORD97":178077.5,"N_COORD97":2540785.9300000002,"ADDRESS":"中山路一段４３４巷１５號","OBJECTID":429231},"geometry":{"x":178077.49999999907,"y":2540785.9299999997}},{"attributes":{"ID":429257,"DIS_CODE":0,"TOWNNAME":"歸仁區","LI":"看西里","LIN":"18鄰","STREET":"成功五街","SECT":" ","MAREA":" ","LANE":"８８巷","ALLEY":" ","HOUSE_NO":"８號","E_COORD97":178404.35999999999,"N_COORD97":2539882.3599999999,"ADDRESS":"成功五街８８巷８號","OBJECTID":429232},"geometry":{"x":178404.3600000022,"y":2539882.3600000013}},{"attributes":{"ID":429258,"DIS_CODE":0,"TOWNNAME":"歸仁區","LI":"崙頂里","LIN":"26鄰","STREET":"成功十街","SECT":" ","MAREA":" ","LANE":"１３３巷","ALLEY":" ","HOUSE_NO":"１３號","E_COORD97":177745.32999999999,"N_COORD97":2539861.25,"ADDRESS":"成功十街１３３巷１３號","OBJECTID":429233},"geometry":{"x":177745.33000000101,"y":2539861.25}},{"attributes":{"ID":429259,"DIS_CODE":0,"TOWNNAME":"北區","LI":"賢北里","LIN":"17鄰","STREET":"賢北街","SECT":" ","MAREA":" ","LANE":"２７巷","ALLEY":" ","HOUSE_NO":"１０７號","E_COORD97":166029.42999999999,"N_COORD97":2545281.9100000001,"ADDRESS":"賢北街２７巷１０７號","OBJECTID":429234},"geometry":{"x":166029.4299999997,"y":2545281.9100000001}},{"attributes":{"ID":429260,"DIS_CODE":0,"TOWNNAME":"北區","LI":"小康里","LIN":"4鄰","STREET":"實踐街","SECT":" ","MAREA":" ","LANE":"３９巷","ALLEY":" ","HOUSE_NO":"６１號","E_COORD97":169893.72,"N_COORD97":2546253.1600000001,"ADDRESS":"實踐街３９巷６１號","OBJECTID":429235},"geometry":{"x":169893.72000000067,"y":2546253.1600000001}},{"attributes":{"ID":429261,"DIS_CODE":0,"TOWNNAME":"北區","LI":"小康里","LIN":"4鄰","STREET":"實踐街","SECT":" ","MAREA":" ","LANE":"３９巷","ALLEY":" ","HOUSE_NO":"６３號","E_COORD97":169891.89000000001,"N_COORD97":2546247.8599999999,"ADDRESS":"實踐街３９巷６３號","OBJECTID":429236},"geometry":{"x":169891.89000000153,"y":2546247.8599999994}},{"attributes":{"ID":429262,"DIS_CODE":0,"TOWNNAME":"北區","LI":"小康里","LIN":"4鄰","STREET":"實踐街","SECT":" ","MAREA":" ","LANE":"３９巷","ALLEY":" ","HOUSE_NO":"６５號","E_COORD97":169886.37,"N_COORD97":2546244.8500000001,"ADDRESS":"實踐街３９巷６５號","OBJECTID":429237},"geometry":{"x":169886.37000000104,"y":2546244.8499999996}},{"attributes":{"ID":429263,"DIS_CODE":0,"TOWNNAME":"安平區","LI":"華平里","LIN":"4鄰","STREET":"怡平路","SECT":" ","MAREA":" ","LANE":"４６８巷","ALLEY":" ","HOUSE_NO":"３３號","E_COORD97":165234.79000000001,"N_COORD97":2543917.6400000001,"ADDRESS":"怡平路４６８巷３３號","OBJECTID":429238},"geometry":{"x":165234.79000000097,"y":2543917.6400000006}},{"attributes":{"ID":429264,"DIS_CODE":0,"TOWNNAME":"安平區","LI":"華平里","LIN":"4鄰","STREET":"怡平路","SECT":" ","MAREA":" ","LANE":"４６８巷","ALLEY":" ","HOUSE_NO":"３５號","E_COORD97":165235.10999999999,"N_COORD97":2543921.4500000002,"ADDRESS":"怡平路４６８巷３５號","OBJECTID":429239},"geometry":{"x":165235.11000000127,"y":2543921.4499999993}},{"attributes":{"ID":429265,"DIS_CODE":0,"TOWNNAME":"安平區","LI":"華平里","LIN":"4鄰","STREET":"怡平路","SECT":" ","MAREA":" ","LANE":"４６８巷","ALLEY":" ","HOUSE_NO":"３７號","E_COORD97":165235.26999999999,"N_COORD97":2543925.2599999998,"ADDRESS":"怡平路４６８巷３７號","OBJECTID":429240},"geometry":{"x":165235.26999999955,"y":2543925.2600000016}},{"attributes":{"ID":429266,"DIS_CODE":0,"TOWNNAME":"安平區","LI":"華平里","LIN":"4鄰","STREET":"怡平路","SECT":" ","MAREA":" ","LANE":"４６８巷","ALLEY":" ","HOUSE_NO":"３９號","E_COORD97":165235.75,"N_COORD97":2543930.6600000001,"ADDRESS":"怡平路４６８巷３９號","OBJECTID":429241},"geometry":{"x":165235.75,"y":2543930.6600000001}},{"attributes":{"ID":429267,"DIS_CODE":0,"TOWNNAME":"安平區","LI":"華平里","LIN":"4鄰","STREET":"怡平路","SECT":" ","MAREA":" ","LANE":"４６８巷","ALLEY":" ","HOUSE_NO":"４３號","E_COORD97":165236.06,"N_COORD97":2543938.4399999999,"ADDRESS":"怡平路４６８巷４３號","OBJECTID":429242},"geometry":{"x":165236.06000000052,"y":2543938.4399999995}},{"attributes":{"ID":429268,"DIS_CODE":0,"TOWNNAME":"安平區","LI":"文平里","LIN":"18鄰","STREET":"健康一街","SECT":" ","MAREA":" ","LANE":"７１巷","ALLEY":" ","HOUSE_NO":"１５號","E_COORD97":165891.51999999999,"N_COORD97":2542835.8900000001,"ADDRESS":"健康一街７１巷１５號","OBJECTID":429243},"geometry":{"x":165891.51999999955,"y":2542835.8900000025}},{"attributes":{"ID":429269,"DIS_CODE":0,"TOWNNAME":"安平區","LI":"文平里","LIN":"18鄰","STREET":"健康一街","SECT":" ","MAREA":" ","LANE":"７１巷","ALLEY":" ","HOUSE_NO":"１７號","E_COORD97":165887.07000000001,"N_COORD97":2542836.8399999999,"ADDRESS":"健康一街７１巷１７號","OBJECTID":429244},"geometry":{"x":165887.0700000003,"y":2542836.8400000017}},{"attributes":{"ID":429270,"DIS_CODE":0,"TOWNNAME":"安平區","LI":"怡平里","LIN":"13鄰","STREET":"建平十二街","SECT":" ","MAREA":" ","LANE":"３８６巷","ALLEY":" ","HOUSE_NO":"１６號","E_COORD97":165618.66,"N_COORD97":2544087.77,"ADDRESS":"建平十二街３８６巷１６號","OBJECTID":429245},"geometry":{"x":165618.65999999922,"y":2544087.7700000014}},{"attributes":{"ID":429271,"DIS_CODE":0,"TOWNNAME":"安平區","LI":"育平里","LIN":"32鄰","STREET":"府平路","SECT":" ","MAREA":" ","LANE":"２６７巷","ALLEY":" ","HOUSE_NO":"１０號","E_COORD97":164598,"N_COORD97":2543073.6200000001,"ADDRESS":"府平路２６７巷１０號","OBJECTID":429246},"geometry":{"x":164598.00000000093,"y":2543073.620000001}},{"attributes":{"ID":429272,"DIS_CODE":0,"TOWNNAME":"安平區","LI":"育平里","LIN":"32鄰","STREET":"府平路","SECT":" ","MAREA":" ","LANE":"２６７巷","ALLEY":" ","HOUSE_NO":"１６號","E_COORD97":164596.14999999999,"N_COORD97":2543062.5099999998,"ADDRESS":"府平路２６７巷１６號","OBJECTID":429247},"geometry":{"x":164596.15000000037,"y":2543062.5100000016}},{"attributes":{"ID":429273,"DIS_CODE":0,"TOWNNAME":"安平區","LI":"育平里","LIN":"32鄰","STREET":"府平路","SECT":" ","MAREA":" ","LANE":"２６７巷","ALLEY":" ","HOUSE_NO":"２號","E_COORD97":164600.91,"N_COORD97":2543087.5099999998,"ADDRESS":"府平路２６７巷２號","OBJECTID":429248},"geometry":{"x":164600.91000000015,"y":2543087.5099999998}},{"attributes":{"ID":429274,"DIS_CODE":0,"TOWNNAME":"安平區","LI":"華平里","LIN":"12鄰","STREET":"建平八街","SECT":" ","MAREA":" ","LANE":"３７２巷","ALLEY":" ","HOUSE_NO":"１２號","E_COORD97":165381.07000000001,"N_COORD97":2543614.4100000001,"ADDRESS":"建平八街３７２巷１２號","OBJECTID":429249},"geometry":{"x":165381.07000000123,"y":2543614.4100000001}},{"attributes":{"ID":429275,"DIS_CODE":0,"TOWNNAME":"安平區","LI":"漁光里","LIN":"4鄰","STREET":"漁光路","SECT":" ","MAREA":" ","LANE":"１１９巷","ALLEY":" ","HOUSE_NO":"１之２號","E_COORD97":163964.73000000001,"N_COORD97":2541981.4900000002,"ADDRESS":"漁光路１１９巷１之２號","OBJECTID":429250},"geometry":{"x":163964.73000000138,"y":2541981.4900000021}},{"attributes":{"ID":429276,"DIS_CODE":0,"TOWNNAME":"安平區","LI":"華平里","LIN":"6鄰","STREET":"怡平路","SECT":" ","MAREA":" ","LANE":"４１０巷","ALLEY":" ","HOUSE_NO":"８６號","E_COORD97":165439.35999999999,"N_COORD97":2544044.8999999999,"ADDRESS":"怡平路４１０巷８６號","OBJECTID":429251},"geometry":{"x":165439.36000000034,"y":2544044.9000000004}},{"attributes":{"ID":429277,"DIS_CODE":0,"TOWNNAME":"安平區","LI":"華平里","LIN":"12鄰","STREET":"建平八街","SECT":" ","MAREA":" ","LANE":"３７２巷","ALLEY":" ","HOUSE_NO":"３７號","E_COORD97":165368.44,"N_COORD97":2543666.8300000001,"ADDRESS":"建平八街３７２巷３７號","OBJECTID":429252},"geometry":{"x":165368.44000000134,"y":2543666.8300000019}},{"attributes":{"ID":429278,"DIS_CODE":0,"TOWNNAME":"安平區","LI":"億載里","LIN":"2鄰","STREET":"永華十一街","SECT":" ","MAREA":" ","LANE":"１５９巷","ALLEY":" ","HOUSE_NO":"４２號","E_COORD97":163951.59,"N_COORD97":2543834.27,"ADDRESS":"永華十一街１５９巷４２號","OBJECTID":429253},"geometry":{"x":163951.59000000078,"y":2543834.2699999996}},{"attributes":{"ID":429279,"DIS_CODE":0,"TOWNNAME":"安平區","LI":"億載里","LIN":"4鄰","STREET":"永華十二街","SECT":" ","MAREA":" ","LANE":"２７巷","ALLEY":" ","HOUSE_NO":"７６號","E_COORD97":163631.04999999999,"N_COORD97":2543629.96,"ADDRESS":"永華十二街２７巷７６號","OBJECTID":429254},"geometry":{"x":163631.05000000075,"y":2543629.9600000028}},{"attributes":{"ID":429280,"DIS_CODE":0,"TOWNNAME":"安平區","LI":"億載里","LIN":"4鄰","STREET":"永華十二街","SECT":" ","MAREA":" ","LANE":"２７巷","ALLEY":" ","HOUSE_NO":"７２號","E_COORD97":163642.95000000001,"N_COORD97":2543629.29,"ADDRESS":"永華十二街２７巷７２號","OBJECTID":429255},"geometry":{"x":163642.95000000019,"y":2543629.290000001}},{"attributes":{"ID":429281,"DIS_CODE":0,"TOWNNAME":"安平區","LI":"億載里","LIN":"4鄰","STREET":"永華十二街","SECT":" ","MAREA":" ","LANE":"２７巷","ALLEY":" ","HOUSE_NO":"７０號","E_COORD97":163647.57999999999,"N_COORD97":2543628.8999999999,"ADDRESS":"永華十二街２７巷７０號","OBJECTID":429256},"geometry":{"x":163647.57999999914,"y":2543628.9000000041}},{"attributes":{"ID":429282,"DIS_CODE":0,"TOWNNAME":"安平區","LI":"億載里","LIN":"4鄰","STREET":"永華十二街","SECT":" ","MAREA":" ","LANE":"２７巷","ALLEY":" ","HOUSE_NO":"６８號","E_COORD97":163653.14000000001,"N_COORD97":2543630.0899999999,"ADDRESS":"永華十二街２７巷６８號","OBJECTID":429257},"geometry":{"x":163653.13999999966,"y":2543630.0900000036}},{"attributes":{"ID":429283,"DIS_CODE":0,"TOWNNAME":"安平區","LI":"億載里","LIN":"4鄰","STREET":"永華十二街","SECT":" ","MAREA":" ","LANE":"２７巷","ALLEY":" ","HOUSE_NO":"６６號","E_COORD97":163659.89000000001,"N_COORD97":2543630.0899999999,"ADDRESS":"永華十二街２７巷６６號","OBJECTID":429258},"geometry":{"x":163659.88999999966,"y":2543630.0900000036}},{"attributes":{"ID":429284,"DIS_CODE":0,"TOWNNAME":"安平區","LI":"億載里","LIN":"4鄰","STREET":"永華十二街","SECT":" ","MAREA":" ","LANE":"２７巷","ALLEY":" ","HOUSE_NO":"６２號","E_COORD97":163665.17999999999,"N_COORD97":2543630.8799999999,"ADDRESS":"永華十二街２７巷６２號","OBJECTID":429259},"geometry":{"x":163665.17999999877,"y":2543630.8800000027}},{"attributes":{"ID":429285,"DIS_CODE":0,"TOWNNAME":"安平區","LI":"億載里","LIN":"4鄰","STREET":"永華十二街","SECT":" ","MAREA":" ","LANE":"２７巷","ALLEY":" ","HOUSE_NO":"６０號","E_COORD97":163669.41,"N_COORD97":2543632.6000000001,"ADDRESS":"永華十二街２７巷６０號","OBJECTID":429260},"geometry":{"x":163669.41000000108,"y":2543632.5999999996}},{"attributes":{"ID":429286,"DIS_CODE":0,"TOWNNAME":"安平區","LI":"育平里","LIN":"31鄰","STREET":"健康三街","SECT":" ","MAREA":" ","LANE":"１０７巷","ALLEY":" ","HOUSE_NO":"７號","E_COORD97":164708.17999999999,"N_COORD97":2543140.71,"ADDRESS":"健康三街１０７巷７號","OBJECTID":429261},"geometry":{"x":164708.18000000063,"y":2543140.7100000009}},{"attributes":{"ID":429287,"DIS_CODE":0,"TOWNNAME":"安平區","LI":"育平里","LIN":"33鄰","STREET":"建平七街","SECT":" ","MAREA":" ","LANE":"８１８巷","ALLEY":" ","HOUSE_NO":"６號","E_COORD97":164552.17000000001,"N_COORD97":2543485.7599999998,"ADDRESS":"建平七街８１８巷６號","OBJECTID":429262},"geometry":{"x":164552.17000000179,"y":2543485.7599999998}},{"attributes":{"ID":429288,"DIS_CODE":0,"TOWNNAME":"安平區","LI":"育平里","LIN":"33鄰","STREET":"建平七街","SECT":" ","MAREA":" ","LANE":"８１８巷","ALLEY":" ","HOUSE_NO":"６－１號","E_COORD97":164550.59,"N_COORD97":2543491.5800000001,"ADDRESS":"建平七街８１８巷６－１號","OBJECTID":429263},"geometry":{"x":164550.58999999985,"y":2543491.5800000038}},{"attributes":{"ID":429289,"DIS_CODE":0,"TOWNNAME":"安平區","LI":"西門里","LIN":"8鄰","STREET":"安北路","SECT":" ","MAREA":" ","LANE":"１９６巷","ALLEY":" ","HOUSE_NO":"２－１號","E_COORD97":163723.82000000001,"N_COORD97":2544811.2200000002,"ADDRESS":"安北路１９６巷２－１號","OBJECTID":429264},"geometry":{"x":163723.8200000003,"y":2544811.2200000025}},{"attributes":{"ID":429290,"DIS_CODE":0,"TOWNNAME":"安平區","LI":"金城里","LIN":"13鄰","STREET":"安北路","SECT":" ","MAREA":" ","LANE":"７２２巷","ALLEY":" ","HOUSE_NO":"４２號","E_COORD97":162539.98000000001,"N_COORD97":2544444.79,"ADDRESS":"安北路７２２巷４２號","OBJECTID":429265},"geometry":{"x":162539.97999999952,"y":2544444.7899999991}},{"attributes":{"ID":429291,"DIS_CODE":0,"TOWNNAME":"安平區","LI":"金城里","LIN":"13鄰","STREET":"安北路","SECT":" ","MAREA":" ","LANE":"７２２巷","ALLEY":" ","HOUSE_NO":"１１８號","E_COORD97":162511.57000000001,"N_COORD97":2544435.2599999998,"ADDRESS":"安北路７２２巷１１８號","OBJECTID":429266},"geometry":{"x":162511.5700000003,"y":2544435.2599999998}},{"attributes":{"ID":429292,"DIS_CODE":0,"TOWNNAME":"安平區","LI":"億載里","LIN":"13鄰","STREET":"健康四街","SECT":" ","MAREA":" ","LANE":"９５巷","ALLEY":" ","HOUSE_NO":"４２號","E_COORD97":164083.29999999999,"N_COORD97":2543258.4900000002,"ADDRESS":"健康四街９５巷４２號","OBJECTID":429267},"geometry":{"x":164083.30000000168,"y":2543258.4900000039}},{"attributes":{"ID":429293,"DIS_CODE":0,"TOWNNAME":"安平區","LI":"億載里","LIN":"13鄰","STREET":"健康四街","SECT":" ","MAREA":" ","LANE":"９５巷","ALLEY":" ","HOUSE_NO":"４０號","E_COORD97":164086.64000000001,"N_COORD97":2543258.8100000001,"ADDRESS":"健康四街９５巷４０號","OBJECTID":429268},"geometry":{"x":164086.6400000006,"y":2543258.8100000005}},{"attributes":{"ID":429294,"DIS_CODE":0,"TOWNNAME":"安平區","LI":"國平里","LIN":"4鄰","STREET":"建平五街","SECT":" ","MAREA":" ","LANE":"１８４巷","ALLEY":" ","HOUSE_NO":"３０號","E_COORD97":165598.79000000001,"N_COORD97":2543268.9900000002,"ADDRESS":"建平五街１８４巷３０號","OBJECTID":429269},"geometry":{"x":165598.79000000004,"y":2543268.9900000021}},{"attributes":{"ID":429295,"DIS_CODE":0,"TOWNNAME":"新營區","LI":"興業里","LIN":" ","STREET":"中興路","SECT":" ","MAREA":" ","LANE":"１３巷","ALLEY":" ","HOUSE_NO":"２６之１號","E_COORD97":180256.26000000001,"N_COORD97":2577960.25,"ADDRESS":"中興路１３巷２６之１號","OBJECTID":429270},"geometry":{"x":180256.26000000071,"y":2577960.2500000037}},{"attributes":{"ID":429296,"DIS_CODE":0,"TOWNNAME":"新營區","LI":"南興里","LIN":"26鄰","STREET":"和平路","SECT":" ","MAREA":" ","LANE":"１０４巷","ALLEY":" ","HOUSE_NO":"１３號","E_COORD97":179363.85999999999,"N_COORD97":2577549.1299999999,"ADDRESS":"和平路１０４巷１３號","OBJECTID":429271},"geometry":{"x":179363.8600000022,"y":2577549.129999999}},{"attributes":{"ID":429297,"DIS_CODE":0,"TOWNNAME":"新營區","LI":"王公里","LIN":"14鄰","STREET":"公正街","SECT":" ","MAREA":" ","LANE":"７０巷","ALLEY":" ","HOUSE_NO":"８號","E_COORD97":180214.26999999999,"N_COORD97":2579396.75,"ADDRESS":"公正街７０巷８號","OBJECTID":429272},"geometry":{"x":180214.26999999955,"y":2579396.75}},{"attributes":{"ID":429298,"DIS_CODE":0,"TOWNNAME":"新營區","LI":"民生里","LIN":"8鄰","STREET":"復興路","SECT":" ","MAREA":" ","LANE":"１４８巷","ALLEY":" ","HOUSE_NO":"１１號之１","E_COORD97":179337.17000000001,"N_COORD97":2578078.6800000002,"ADDRESS":"復興路１４８巷１１號之１","OBJECTID":429273},"geometry":{"x":179337.16999999993,"y":2578078.6799999997}},{"attributes":{"ID":429299,"DIS_CODE":0,"TOWNNAME":"新營區","LI":"民生里","LIN":" ","STREET":"進修街","SECT":" ","MAREA":" ","LANE":"２９巷","ALLEY":" ","HOUSE_NO":"１３之１號","E_COORD97":178948.23999999999,"N_COORD97":2578455.9700000002,"ADDRESS":"進修街２９巷１３之１號","OBJECTID":429274},"geometry":{"x":178948.24000000115,"y":2578455.9700000025}},{"attributes":{"ID":429300,"DIS_CODE":0,"TOWNNAME":"新營區","LI":"忠政里","LIN":"32鄰","STREET":"府西路","SECT":" ","MAREA":" ","LANE":"１７巷","ALLEY":" ","HOUSE_NO":"２２號","E_COORD97":179761.19,"N_COORD97":2578921.5800000001,"ADDRESS":"府西路１７巷２２號","OBJECTID":429275},"geometry":{"x":179761.19000000041,"y":2578921.5800000019}},{"attributes":{"ID":429301,"DIS_CODE":0,"TOWNNAME":"新營區","LI":"忠政里","LIN":"6鄰","STREET":"府西路","SECT":" ","MAREA":" ","LANE":"２２巷","ALLEY":" ","HOUSE_NO":"３５號","E_COORD97":179886.35999999999,"N_COORD97":2579215.5699999998,"ADDRESS":"府西路２２巷３５號","OBJECTID":429276},"geometry":{"x":179886.36000000127,"y":2579215.5700000003}},{"attributes":{"ID":429302,"DIS_CODE":0,"TOWNNAME":"新營區","LI":"埤寮里","LIN":" ","STREET":"中正路","SECT":" ","MAREA":" ","LANE":"３３５巷","ALLEY":" ","HOUSE_NO":"２６號","E_COORD97":180005.29000000001,"N_COORD97":2580145.27,"ADDRESS":"中正路３３５巷２６號","OBJECTID":429277},"geometry":{"x":180005.29000000097,"y":2580145.2699999996}},{"attributes":{"ID":429303,"DIS_CODE":0,"TOWNNAME":"新營區","LI":"南紙里","LIN":"4鄰","STREET":"南紙街","SECT":" ","MAREA":" ","LANE":"２９巷","ALLEY":" ","HOUSE_NO":"７號","E_COORD97":177871.10000000001,"N_COORD97":2577736.8199999998,"ADDRESS":"南紙街２９巷７號","OBJECTID":429278},"geometry":{"x":177871.09999999963,"y":2577736.8200000022}},{"attributes":{"ID":429304,"DIS_CODE":0,"TOWNNAME":"新營區","LI":"新東里","LIN":"24鄰","STREET":"民治路","SECT":" ","MAREA":" ","LANE":"６巷","ALLEY":" ","HOUSE_NO":"２０號","E_COORD97":180641.37,"N_COORD97":2578955.1499999999,"ADDRESS":"民治路６巷２０號","OBJECTID":429279},"geometry":{"x":180641.37000000011,"y":2578955.1500000022}},{"attributes":{"ID":429305,"DIS_CODE":0,"TOWNNAME":"新營區","LI":"嘉芳里","LIN":"15鄰","STREET":"復興路","SECT":" ","MAREA":" ","LANE":"１０００巷","ALLEY":" ","HOUSE_NO":"１號之２","E_COORD97":176315.25,"N_COORD97":2578888.5499999998,"ADDRESS":"復興路１０００巷１之２號","OBJECTID":429280},"geometry":{"x":176315.25000000093,"y":2578888.5500000026}},{"attributes":{"ID":429306,"DIS_CODE":0,"TOWNNAME":"新營區","LI":"民生里","LIN":"18鄰","STREET":"民治路","SECT":" ","MAREA":" ","LANE":"１８３巷","ALLEY":" ","HOUSE_NO":"５６之１號","E_COORD97":178902.64000000001,"N_COORD97":2578329.9399999999,"ADDRESS":"民治路１８３巷５６之１號","OBJECTID":429281},"geometry":{"x":178902.6400000006,"y":2578329.9399999995}},{"attributes":{"ID":429307,"DIS_CODE":0,"TOWNNAME":"新營區","LI":"好平里","LIN":" ","STREET":"濟安街","SECT":" ","MAREA":" ","LANE":"１８巷","ALLEY":" ","HOUSE_NO":"７號","E_COORD97":179445.44,"N_COORD97":2577968.4500000002,"ADDRESS":"濟安街１８巷７號","OBJECTID":429282},"geometry":{"x":179445.44000000134,"y":2577968.450000003}},{"attributes":{"ID":429308,"DIS_CODE":0,"TOWNNAME":"新營區","LI":"南興里","LIN":"7鄰","STREET":"和平路","SECT":" ","MAREA":" ","LANE":"９５巷","ALLEY":" ","HOUSE_NO":"３０號","E_COORD97":179494.10999999999,"N_COORD97":2577601.6699999999,"ADDRESS":"和平街９５巷３０號","OBJECTID":429283},"geometry":{"x":179494.11000000034,"y":2577601.6700000018}},{"attributes":{"ID":429309,"DIS_CODE":0,"TOWNNAME":"新營區","LI":"民生里","LIN":"11鄰","STREET":"三民路","SECT":" ","MAREA":" ","LANE":"１８６巷","ALLEY":" ","HOUSE_NO":"７號之１","E_COORD97":179185.26999999999,"N_COORD97":2578225.5800000001,"ADDRESS":"三民路１８６巷７號之１","OBJECTID":429284},"geometry":{"x":179185.26999999955,"y":2578225.5800000001}},{"attributes":{"ID":429310,"DIS_CODE":0,"TOWNNAME":"新營區","LI":"民榮里","LIN":"36鄰","STREET":"新進路","SECT":"二段","MAREA":" ","LANE":"４４５巷","ALLEY":" ","HOUSE_NO":"２６號","E_COORD97":178542.67000000001,"N_COORD97":2578004.9100000001,"ADDRESS":"新進路二段４４５巷２６號","OBJECTID":429285},"geometry":{"x":178542.67000000179,"y":2578004.910000002}},{"attributes":{"ID":429311,"DIS_CODE":0,"TOWNNAME":"將軍區","LI":"嘉昌里","LIN":"12鄰","STREET":" ","SECT":" ","MAREA":"北嘉","LANE":" ","ALLEY":" ","HOUSE_NO":"１０３之１７號","E_COORD97":162664.14077999999,"N_COORD97":2567922.6908,"ADDRESS":"北嘉１０３之１７號","OBJECTID":429286},"geometry":{"x":162664.14078000002,"y":2567922.690802997}},{"attributes":{"ID":429312,"DIS_CODE":0,"TOWNNAME":"新營區","LI":"新北里","LIN":"24鄰","STREET":"民生路","SECT":" ","MAREA":" ","LANE":"４２０巷","ALLEY":" ","HOUSE_NO":"２４號","E_COORD97":178874.51000000001,"N_COORD97":2579372.1299999999,"ADDRESS":"民生路４２０巷２４號","OBJECTID":429287},"geometry":{"x":178874.51000000071,"y":2579372.129999999}},{"attributes":{"ID":429313,"DIS_CODE":0,"TOWNNAME":"新營區","LI":"民榮里","LIN":" ","STREET":"太子路","SECT":" ","MAREA":" ","LANE":"１９巷","ALLEY":" ","HOUSE_NO":"１之３號","E_COORD97":178450.25,"N_COORD97":2578109.5099999998,"ADDRESS":"太子路１９巷１之３號","OBJECTID":429288},"geometry":{"x":178450.25,"y":2578109.5099999998}},{"attributes":{"ID":429314,"DIS_CODE":0,"TOWNNAME":"新營區","LI":"民榮里","LIN":" ","STREET":"裕民路","SECT":" ","MAREA":" ","LANE":"５８巷","ALLEY":" ","HOUSE_NO":"３０之２號","E_COORD97":179048.75,"N_COORD97":2577853.0299999998,"ADDRESS":"裕民路５８巷３０之２號","OBJECTID":429289},"geometry":{"x":179048.75,"y":2577853.0300000012}},{"attributes":{"ID":429315,"DIS_CODE":0,"TOWNNAME":"新營區","LI":"民生里","LIN":"18鄰","STREET":"民治路","SECT":" ","MAREA":" ","LANE":"１８３巷","ALLEY":" ","HOUSE_NO":"６２之１號","E_COORD97":178886.29999999999,"N_COORD97":2578336.6600000001,"ADDRESS":"民治路１８３巷６２之１號","OBJECTID":429290},"geometry":{"x":178886.30000000075,"y":2578336.6600000001}},{"attributes":{"ID":429316,"DIS_CODE":0,"TOWNNAME":"新營區","LI":"忠政里","LIN":"8鄰","STREET":"中正路","SECT":" ","MAREA":" ","LANE":"３７巷","ALLEY":" ","HOUSE_NO":"３４號","E_COORD97":180011.04000000001,"N_COORD97":2579192.8399999999,"ADDRESS":"中正路３７巷３４號","OBJECTID":429291},"geometry":{"x":180011.04000000004,"y":2579192.8399999999}},{"attributes":{"ID":429317,"DIS_CODE":0,"TOWNNAME":"新營區","LI":"興業里","LIN":" ","STREET":"中興路","SECT":" ","MAREA":" ","LANE":"１３巷","ALLEY":" ","HOUSE_NO":"１３之１號","E_COORD97":180203.09,"N_COORD97":2577979.3300000001,"ADDRESS":"中興路１３巷１３之１號","OBJECTID":429292},"geometry":{"x":180203.09000000078,"y":2577979.3300000001}},{"attributes":{"ID":429318,"DIS_CODE":0,"TOWNNAME":"新營區","LI":"南興里","LIN":"5鄰","STREET":"和平路","SECT":" ","MAREA":" ","LANE":"９７巷","ALLEY":" ","HOUSE_NO":"２號之２","E_COORD97":179428.63,"N_COORD97":2577556.6200000001,"ADDRESS":"和平路９７巷２之２號","OBJECTID":429293},"geometry":{"x":179428.62999999989,"y":2577556.6200000029}},{"attributes":{"ID":429319,"DIS_CODE":0,"TOWNNAME":"新營區","LI":"民榮里","LIN":"25鄰","STREET":"興農街","SECT":" ","MAREA":" ","LANE":"４７巷","ALLEY":" ","HOUSE_NO":"５３號","E_COORD97":179289.92000000001,"N_COORD97":2577697.8799999999,"ADDRESS":"興農街４７巷５３號","OBJECTID":429294},"geometry":{"x":179289.91999999993,"y":2577697.8800000008}},{"attributes":{"ID":429320,"DIS_CODE":0,"TOWNNAME":"新營區","LI":"民榮里","LIN":" ","STREET":"裕民路","SECT":" ","MAREA":" ","LANE":"５８巷","ALLEY":" ","HOUSE_NO":"２６之１號","E_COORD97":179052.82000000001,"N_COORD97":2577853.0099999998,"ADDRESS":"裕民路５８巷２６之１號","OBJECTID":429295},"geometry":{"x":179052.82000000123,"y":2577853.0100000035}},{"attributes":{"ID":429321,"DIS_CODE":0,"TOWNNAME":"新營區","LI":"南興里","LIN":"7鄰","STREET":"和平路","SECT":" ","MAREA":" ","LANE":"９５巷","ALLEY":" ","HOUSE_NO":"６號之１","E_COORD97":179439.01999999999,"N_COORD97":2577603.0899999999,"ADDRESS":"和平街９５巷６之１號","OBJECTID":429296},"geometry":{"x":179439.02000000048,"y":2577603.0900000017}},{"attributes":{"ID":429322,"DIS_CODE":0,"TOWNNAME":"新營區","LI":"新東里","LIN":"20鄰","STREET":"東明街","SECT":" ","MAREA":" ","LANE":"２８巷","ALLEY":" ","HOUSE_NO":"２８號","E_COORD97":180867.91,"N_COORD97":2579583.0699999998,"ADDRESS":"東明街２８巷２８號","OBJECTID":429297},"geometry":{"x":180867.91000000015,"y":2579583.0700000022}},{"attributes":{"ID":429323,"DIS_CODE":0,"TOWNNAME":"新營區","LI":"民生里","LIN":"5鄰","STREET":"中華路","SECT":" ","MAREA":" ","LANE":"８０巷","ALLEY":" ","HOUSE_NO":"８號","E_COORD97":179408.84,"N_COORD97":2578222.2400000002,"ADDRESS":"中華路８０巷８號","OBJECTID":429298},"geometry":{"x":179408.83999999985,"y":2578222.2400000021}},{"attributes":{"ID":429324,"DIS_CODE":0,"TOWNNAME":"新營區","LI":"民榮里","LIN":"26鄰","STREET":"復興路","SECT":" ","MAREA":" ","LANE":"３０５巷","ALLEY":" ","HOUSE_NO":"３１號","E_COORD97":178552.14999999999,"N_COORD97":2578058.02,"ADDRESS":"復興路３０５巷３１號","OBJECTID":429299},"geometry":{"x":178552.1500000013,"y":2578058.0199999996}},{"attributes":{"ID":429325,"DIS_CODE":0,"TOWNNAME":"新營區","LI":"民生里","LIN":"18鄰","STREET":"民治路","SECT":" ","MAREA":" ","LANE":"１８３巷","ALLEY":" ","HOUSE_NO":"４２號","E_COORD97":178864.42999999999,"N_COORD97":2578335.6000000001,"ADDRESS":"民治路１８３巷４２號","OBJECTID":429300},"geometry":{"x":178864.43000000156,"y":2578335.5999999996}},{"attributes":{"ID":429326,"DIS_CODE":0,"TOWNNAME":"新營區","LI":"南興里","LIN":"9鄰","STREET":"和平路","SECT":" ","MAREA":" ","LANE":"１０２巷","ALLEY":" ","HOUSE_NO":"３８號之１","E_COORD97":179303.35999999999,"N_COORD97":2577618.1400000001,"ADDRESS":"和平路１０２巷３８之１號","OBJECTID":429301},"geometry":{"x":179303.36000000127,"y":2577618.1400000006}},{"attributes":{"ID":429327,"DIS_CODE":0,"TOWNNAME":"新營區","LI":"新南里","LIN":"26鄰","STREET":"復興路","SECT":" ","MAREA":" ","LANE":"６２０巷","ALLEY":" ","HOUSE_NO":"４１號","E_COORD97":178039.67000000001,"N_COORD97":2578480.2200000002,"ADDRESS":"復興路６２０巷４１號","OBJECTID":429302},"geometry":{"x":178039.67000000086,"y":2578480.2200000025}},{"attributes":{"ID":429328,"DIS_CODE":0,"TOWNNAME":"新營區","LI":"民榮里","LIN":" ","STREET":"裕民路","SECT":" ","MAREA":" ","LANE":"３４巷","ALLEY":" ","HOUSE_NO":"３０之３號","E_COORD97":179037.67999999999,"N_COORD97":2577890.73,"ADDRESS":"裕民路３４巷３０之３號","OBJECTID":429303},"geometry":{"x":179037.68000000063,"y":2577890.7300000023}},{"attributes":{"ID":429329,"DIS_CODE":0,"TOWNNAME":"新營區","LI":"南興里","LIN":" ","STREET":"延平路","SECT":" ","MAREA":" ","LANE":"１４０巷","ALLEY":" ","HOUSE_NO":"３０之２號","E_COORD97":179652.48999999999,"N_COORD97":2577470.29,"ADDRESS":"延平路１４０巷３０之２號","OBJECTID":429304},"geometry":{"x":179652.49000000022,"y":2577470.2899999991}},{"attributes":{"ID":429330,"DIS_CODE":0,"TOWNNAME":"新營區","LI":"興業里","LIN":" ","STREET":"公誠街","SECT":" ","MAREA":" ","LANE":"９巷","ALLEY":" ","HOUSE_NO":"７之１號","E_COORD97":180330.94,"N_COORD97":2578018.6000000001,"ADDRESS":"公誠街９巷７之１號","OBJECTID":429305},"geometry":{"x":180330.94000000041,"y":2578018.6000000034}},{"attributes":{"ID":429331,"DIS_CODE":0,"TOWNNAME":"新營區","LI":"大宏里","LIN":"25鄰","STREET":"同濟街","SECT":" ","MAREA":" ","LANE":"１３６巷","ALLEY":" ","HOUSE_NO":"１９號","E_COORD97":180512.14999999999,"N_COORD97":2578760.79,"ADDRESS":"同濟街１３６巷１９號","OBJECTID":429306},"geometry":{"x":180512.15000000037,"y":2578760.790000001}},{"attributes":{"ID":429332,"DIS_CODE":0,"TOWNNAME":"新營區","LI":"中營里","LIN":"14鄰","STREET":"東昇街","SECT":" ","MAREA":" ","LANE":"１７７巷","ALLEY":" ","HOUSE_NO":"１３號","E_COORD97":181899.72,"N_COORD97":2579115.3599999999,"ADDRESS":"東昇街１７７巷１３號","OBJECTID":429307},"geometry":{"x":181899.71999999974,"y":2579115.3600000013}},{"attributes":{"ID":429333,"DIS_CODE":0,"TOWNNAME":"新營區","LI":"新東里","LIN":"24鄰","STREET":"大同路","SECT":" ","MAREA":" ","LANE":"５７巷","ALLEY":" ","HOUSE_NO":"１０號","E_COORD97":180650.22102900001,"N_COORD97":2579022.7871099999,"ADDRESS":"大同路５７巷１０號","OBJECTID":429308},"geometry":{"x":180650.22102900129,"y":2579022.7871129997}},{"attributes":{"ID":429334,"DIS_CODE":0,"TOWNNAME":"新營區","LI":"南興里","LIN":"7鄰","STREET":"和平路","SECT":" ","MAREA":" ","LANE":"９５巷","ALLEY":" ","HOUSE_NO":"２８號之１","E_COORD97":179489.42999999999,"N_COORD97":2577601.75,"ADDRESS":"和平街９５巷２８之１號","OBJECTID":429309},"geometry":{"x":179489.4299999997,"y":2577601.7500000019}},{"attributes":{"ID":429335,"DIS_CODE":0,"TOWNNAME":"新營區","LI":"埤寮里","LIN":" ","STREET":"中正路","SECT":" ","MAREA":" ","LANE":"４３０巷","ALLEY":" ","HOUSE_NO":"１１０之１５號","E_COORD97":180933.94,"N_COORD97":2580401.2400000002,"ADDRESS":"中正路４３０巷１１０之１５號","OBJECTID":429310},"geometry":{"x":180933.94000000134,"y":2580401.2400000002}},{"attributes":{"ID":429336,"DIS_CODE":0,"TOWNNAME":"新營區","LI":"民榮里","LIN":" ","STREET":"復興路","SECT":" ","MAREA":" ","LANE":"４８９巷","ALLEY":" ","HOUSE_NO":"２４號","E_COORD97":178295.95999999999,"N_COORD97":2578177.75,"ADDRESS":"復興路４８９巷２４號","OBJECTID":429311},"geometry":{"x":178295.95999999996,"y":2578177.7500000019}},{"attributes":{"ID":429337,"DIS_CODE":0,"TOWNNAME":"新營區","LI":"民榮里","LIN":"26鄰","STREET":"新進路","SECT":"二段","MAREA":" ","LANE":"４４５巷","ALLEY":" ","HOUSE_NO":"１２號","E_COORD97":178595.95999999999,"N_COORD97":2578040.0899999999,"ADDRESS":"新進路二段４４５巷１２號","OBJECTID":429312},"geometry":{"x":178595.95999999996,"y":2578040.0900000017}},{"attributes":{"ID":429338,"DIS_CODE":0,"TOWNNAME":"新營區","LI":"南興里","LIN":"7鄰","STREET":"和平路","SECT":" ","MAREA":" ","LANE":"９５巷","ALLEY":" ","HOUSE_NO":"２０號","E_COORD97":179470.56,"N_COORD97":2577602.8900000001,"ADDRESS":"和平街９５巷２０號","OBJECTID":429313},"geometry":{"x":179470.56000000052,"y":2577602.8900000006}},{"attributes":{"ID":429339,"DIS_CODE":0,"TOWNNAME":"北區","LI":"仁愛里","LIN":"1鄰","STREET":"勝利路","SECT":" ","MAREA":" ","LANE":"１９０巷","ALLEY":" ","HOUSE_NO":"８號","E_COORD97":169964.06,"N_COORD97":2544932.8900000001,"ADDRESS":"勝利路１９０巷８號","OBJECTID":429314},"geometry":{"x":169964.06000000052,"y":2544932.8900000006}},{"attributes":{"ID":429340,"DIS_CODE":0,"TOWNNAME":"北區","LI":"仁愛里","LIN":"1鄰","STREET":"勝利路","SECT":" ","MAREA":" ","LANE":"１９０巷","ALLEY":" ","HOUSE_NO":"８號之１","E_COORD97":169970.51000000001,"N_COORD97":2544934.7000000002,"ADDRESS":"勝利路１９０巷８號之１","OBJECTID":429315},"geometry":{"x":169970.50999999978,"y":2544934.7000000011}},{"attributes":{"ID":429341,"DIS_CODE":0,"TOWNNAME":"南區","LI":"開南里","LIN":"32鄰","STREET":"新建路","SECT":" ","MAREA":" ","LANE":"６１巷","ALLEY":" ","HOUSE_NO":"１號","E_COORD97":166479.62,"N_COORD97":2540582.7599999998,"ADDRESS":"新建路６１巷１號","OBJECTID":429316},"geometry":{"x":166479.62000000011,"y":2540582.7599999998}},{"attributes":{"ID":429342,"DIS_CODE":0,"TOWNNAME":"南區","LI":"開南里","LIN":"32鄰","STREET":"新建路","SECT":" ","MAREA":" ","LANE":"６１巷","ALLEY":" ","HOUSE_NO":"２號","E_COORD97":166479.48000000001,"N_COORD97":2540547.8300000001,"ADDRESS":"新建路６１巷２號","OBJECTID":429317},"geometry":{"x":166479.48000000045,"y":2540547.8300000019}},{"attributes":{"ID":429343,"DIS_CODE":0,"TOWNNAME":"南區","LI":"開南里","LIN":"32鄰","STREET":"新建路","SECT":" ","MAREA":" ","LANE":"６１巷","ALLEY":" ","HOUSE_NO":"３號","E_COORD97":166484.5,"N_COORD97":2540582.6200000001,"ADDRESS":"新建路６１巷３號","OBJECTID":429318},"geometry":{"x":166484.50000000093,"y":2540582.620000001}},{"attributes":{"ID":429344,"DIS_CODE":0,"TOWNNAME":"南區","LI":"新興里","LIN":"17鄰","STREET":"三官路","SECT":" ","MAREA":" ","LANE":"８９巷","ALLEY":" ","HOUSE_NO":"２０號","E_COORD97":167393.10999999999,"N_COORD97":2542161.27,"ADDRESS":"三官路８９巷２０號","OBJECTID":429319},"geometry":{"x":167393.11000000127,"y":2542161.2700000014}},{"attributes":{"ID":429345,"DIS_CODE":0,"TOWNNAME":"南區","LI":"新興里","LIN":"17鄰","STREET":"三官路","SECT":" ","MAREA":" ","LANE":"８９巷","ALLEY":" ","HOUSE_NO":"６號","E_COORD97":167400.44,"N_COORD97":2542180.3399999999,"ADDRESS":"三官路８９巷６號","OBJECTID":429320},"geometry":{"x":167400.44000000227,"y":2542180.3399999999}},{"attributes":{"ID":429346,"DIS_CODE":0,"TOWNNAME":"南區","LI":"新興里","LIN":"17鄰","STREET":"三官路","SECT":" ","MAREA":" ","LANE":"８９巷","ALLEY":" ","HOUSE_NO":"７號","E_COORD97":167397.76000000001,"N_COORD97":2542203.1299999999,"ADDRESS":"三官路８９巷７號","OBJECTID":429321},"geometry":{"x":167397.76000000071,"y":2542203.1300000008}},{"attributes":{"ID":429347,"DIS_CODE":0,"TOWNNAME":"南區","LI":"新興里","LIN":"17鄰","STREET":"三官路","SECT":" ","MAREA":" ","LANE":"８９巷","ALLEY":" ","HOUSE_NO":"９號","E_COORD97":167402.56,"N_COORD97":2542199.73,"ADDRESS":"三官路８９巷９號","OBJECTID":429322},"geometry":{"x":167402.56000000052,"y":2542199.7300000023}},{"attributes":{"ID":429348,"DIS_CODE":0,"TOWNNAME":"南區","LI":"新興里","LIN":"20鄰","STREET":"新興路","SECT":" ","MAREA":" ","LANE":"２６８巷","ALLEY":" ","HOUSE_NO":"１３號","E_COORD97":167101.32999999999,"N_COORD97":2541850.6000000001,"ADDRESS":"新興路２６８巷１３號","OBJECTID":429323},"geometry":{"x":167101.33000000101,"y":2541850.6000000015}},{"attributes":{"ID":429349,"DIS_CODE":0,"TOWNNAME":"南區","LI":"新興里","LIN":"21鄰","STREET":"金華路","SECT":"二段","MAREA":" ","LANE":"３４巷","ALLEY":" ","HOUSE_NO":"１０號","E_COORD97":167110.16,"N_COORD97":2541888.9399999999,"ADDRESS":"金華路二段３４巷１０號","OBJECTID":429324},"geometry":{"x":167110.16000000015,"y":2541888.9400000013}},{"attributes":{"ID":429350,"DIS_CODE":0,"TOWNNAME":"南區","LI":"新興里","LIN":"21鄰","STREET":"金華路","SECT":"二段","MAREA":" ","LANE":"３４巷","ALLEY":" ","HOUSE_NO":"１２號","E_COORD97":167115.22,"N_COORD97":2541891.6600000001,"ADDRESS":"金華路二段３４巷１２號","OBJECTID":429325},"geometry":{"x":167115.22000000067,"y":2541891.660000002}},{"attributes":{"ID":429351,"DIS_CODE":0,"TOWNNAME":"南區","LI":"新興里","LIN":"21鄰","STREET":"金華路","SECT":"二段","MAREA":" ","LANE":"３４巷","ALLEY":" ","HOUSE_NO":"１４號","E_COORD97":167144.67000000001,"N_COORD97":2541898.5800000001,"ADDRESS":"金華路二段３４巷１４號","OBJECTID":429326},"geometry":{"x":167144.67000000086,"y":2541898.5800000019}},{"attributes":{"ID":429352,"DIS_CODE":0,"TOWNNAME":"南區","LI":"新興里","LIN":"21鄰","STREET":"金華路","SECT":"二段","MAREA":" ","LANE":"３４巷","ALLEY":" ","HOUSE_NO":"１６號","E_COORD97":167141.81,"N_COORD97":2541909.4100000001,"ADDRESS":"金華路二段３４巷１６號","OBJECTID":429327},"geometry":{"x":167141.81000000052,"y":2541909.4100000039}},{"attributes":{"ID":429353,"DIS_CODE":0,"TOWNNAME":"北區","LI":"延平里","LIN":"4鄰","STREET":"公園路","SECT":" ","MAREA":" ","LANE":"７４６巷","ALLEY":" ","HOUSE_NO":"１０號","E_COORD97":169106.01999999999,"N_COORD97":2545482.1000000001,"ADDRESS":"公園路７４６巷１０號","OBJECTID":429328},"geometry":{"x":169106.02000000142,"y":2545482.1000000015}},{"attributes":{"ID":429354,"DIS_CODE":0,"TOWNNAME":"北區","LI":"延平里","LIN":"4鄰","STREET":"公園路","SECT":" ","MAREA":" ","LANE":"７４６巷","ALLEY":" ","HOUSE_NO":"１１號","E_COORD97":169110.23000000001,"N_COORD97":2545488.1200000001,"ADDRESS":"公園路７４６巷１１號","OBJECTID":429329},"geometry":{"x":169110.23000000045,"y":2545488.120000001}},{"attributes":{"ID":429355,"DIS_CODE":0,"TOWNNAME":"北區","LI":"延平里","LIN":"4鄰","STREET":"公園路","SECT":" ","MAREA":" ","LANE":"７４６巷","ALLEY":" ","HOUSE_NO":"１２號","E_COORD97":169110.51000000001,"N_COORD97":2545481.6800000002,"ADDRESS":"公園路７４６巷１２號","OBJECTID":429330},"geometry":{"x":169110.51000000071,"y":2545481.6800000016}},{"attributes":{"ID":429356,"DIS_CODE":0,"TOWNNAME":"北區","LI":"延平里","LIN":"4鄰","STREET":"公園路","SECT":" ","MAREA":" ","LANE":"７４６巷","ALLEY":" ","HOUSE_NO":"１６號","E_COORD97":169123.70000000001,"N_COORD97":2545478.5899999999,"ADDRESS":"公園路７４６巷１６號","OBJECTID":429331},"geometry":{"x":169123.70000000019,"y":2545478.5900000017}},{"attributes":{"ID":429357,"DIS_CODE":0,"TOWNNAME":"北區","LI":"延平里","LIN":"4鄰","STREET":"公園路","SECT":" ","MAREA":" ","LANE":"７４６巷","ALLEY":" ","HOUSE_NO":"１７號","E_COORD97":169122.98999999999,"N_COORD97":2545487.7000000002,"ADDRESS":"公園路７４６巷１７號","OBJECTID":429332},"geometry":{"x":169122.99000000115,"y":2545487.7000000011}},{"attributes":{"ID":429358,"DIS_CODE":0,"TOWNNAME":"北區","LI":"延平里","LIN":"4鄰","STREET":"公園路","SECT":" ","MAREA":" ","LANE":"７４６巷","ALLEY":" ","HOUSE_NO":"１８號","E_COORD97":169130.70999999999,"N_COORD97":2545476.0699999998,"ADDRESS":"公園路７４６巷１８號","OBJECTID":429333},"geometry":{"x":169130.71000000183,"y":2545476.0700000022}},{"attributes":{"ID":429359,"DIS_CODE":0,"TOWNNAME":"北區","LI":"延平里","LIN":"4鄰","STREET":"公園路","SECT":" ","MAREA":" ","LANE":"７４６巷","ALLEY":" ","HOUSE_NO":"１９號","E_COORD97":169126.92000000001,"N_COORD97":2545487.2799999998,"ADDRESS":"公園路７４６巷１９號","OBJECTID":429334},"geometry":{"x":169126.91999999993,"y":2545487.2800000012}},{"attributes":{"ID":429360,"DIS_CODE":0,"TOWNNAME":"北區","LI":"延平里","LIN":"4鄰","STREET":"公園路","SECT":" ","MAREA":" ","LANE":"７４６巷","ALLEY":" ","HOUSE_NO":"２０號","E_COORD97":169137.31,"N_COORD97":2545478.1699999999,"ADDRESS":"公園路７４６巷２０號","OBJECTID":429335},"geometry":{"x":169137.30999999959,"y":2545478.1700000018}},{"attributes":{"ID":429361,"DIS_CODE":0,"TOWNNAME":"北區","LI":"延平里","LIN":"4鄰","STREET":"公園路","SECT":" ","MAREA":" ","LANE":"７４６巷","ALLEY":" ","HOUSE_NO":"２１號","E_COORD97":169130.98999999999,"N_COORD97":2545487.1400000001,"ADDRESS":"公園路７４６巷２１號","OBJECTID":429336},"geometry":{"x":169130.99000000115,"y":2545487.1400000006}},{"attributes":{"ID":429362,"DIS_CODE":0,"TOWNNAME":"北區","LI":"延平里","LIN":"4鄰","STREET":"公園路","SECT":" ","MAREA":" ","LANE":"７４６巷","ALLEY":" ","HOUSE_NO":"２３號","E_COORD97":169135.76000000001,"N_COORD97":2545485.3199999998,"ADDRESS":"公園路７４６巷２３號","OBJECTID":429337},"geometry":{"x":169135.76000000071,"y":2545485.3200000022}},{"attributes":{"ID":429363,"DIS_CODE":0,"TOWNNAME":"北區","LI":"延平里","LIN":"6鄰","STREET":"公園路","SECT":" ","MAREA":" ","LANE":"７４６巷","ALLEY":" ","HOUSE_NO":"２５號之１","E_COORD97":169161.14999999999,"N_COORD97":2545481.1099999999,"ADDRESS":"公園路７４６巷２５號之１","OBJECTID":429338},"geometry":{"x":169161.15000000037,"y":2545481.1100000013}},{"attributes":{"ID":429364,"DIS_CODE":0,"TOWNNAME":"北區","LI":"延平里","LIN":"6鄰","STREET":"公園路","SECT":" ","MAREA":" ","LANE":"７４６巷","ALLEY":" ","HOUSE_NO":"２５號之１１","E_COORD97":169178.82999999999,"N_COORD97":2545478.0299999998,"ADDRESS":"公園路７４６巷２５號之１１","OBJECTID":429339},"geometry":{"x":169178.83000000007,"y":2545478.0300000031}},{"attributes":{"ID":429365,"DIS_CODE":0,"TOWNNAME":"北區","LI":"延平里","LIN":"6鄰","STREET":"公園路","SECT":" ","MAREA":" ","LANE":"７４６巷","ALLEY":" ","HOUSE_NO":"２５號之１３","E_COORD97":169185.14000000001,"N_COORD97":2545478.1699999999,"ADDRESS":"公園路７４６巷２５號之１３","OBJECTID":429340},"geometry":{"x":169185.14000000153,"y":2545478.1700000018}},{"attributes":{"ID":429366,"DIS_CODE":0,"TOWNNAME":"安平區","LI":"文平里","LIN":"18鄰","STREET":"健康一街","SECT":" ","MAREA":" ","LANE":"７１巷","ALLEY":" ","HOUSE_NO":"１９號","E_COORD97":165883.57999999999,"N_COORD97":2542835.1800000002,"ADDRESS":"健康一街７１巷１９號","OBJECTID":429341},"geometry":{"x":165883.57999999914,"y":2542835.1799999997}},{"attributes":{"ID":429367,"DIS_CODE":0,"TOWNNAME":"安平區","LI":"文平里","LIN":"20鄰","STREET":"健康一街","SECT":" ","MAREA":" ","LANE":"５７巷","ALLEY":" ","HOUSE_NO":"１６號","E_COORD97":165881.51999999999,"N_COORD97":2542817.5,"ADDRESS":"健康一街５７巷１６號","OBJECTID":429342},"geometry":{"x":165881.51999999955,"y":2542817.5000000037}},{"attributes":{"ID":429368,"DIS_CODE":0,"TOWNNAME":"安平區","LI":"文平里","LIN":"20鄰","STREET":"健康一街","SECT":" ","MAREA":" ","LANE":"５７巷","ALLEY":" ","HOUSE_NO":"１８號","E_COORD97":165876.72,"N_COORD97":2542818.1000000001,"ADDRESS":"健康一街５７巷１８號","OBJECTID":429343},"geometry":{"x":165876.71999999974,"y":2542818.0999999996}},{"attributes":{"ID":429369,"DIS_CODE":0,"TOWNNAME":"安平區","LI":"文平里","LIN":"20鄰","STREET":"健康一街","SECT":" ","MAREA":" ","LANE":"５７巷","ALLEY":" ","HOUSE_NO":"４８號","E_COORD97":165810.23000000001,"N_COORD97":2542826.3799999999,"ADDRESS":"健康一街５７巷４８號","OBJECTID":429344},"geometry":{"x":165810.23000000231,"y":2542826.379999999}},{"attributes":{"ID":429370,"DIS_CODE":0,"TOWNNAME":"安平區","LI":"億載里","LIN":"6鄰","STREET":"平豐路","SECT":" ","MAREA":" ","LANE":"２５１巷","ALLEY":" ","HOUSE_NO":"１４號","E_COORD97":164241.91,"N_COORD97":2543698.5899999999,"ADDRESS":"平豐路２５１巷１４號","OBJECTID":429345},"geometry":{"x":164241.91000000015,"y":2543698.5900000017}},{"attributes":{"ID":429371,"DIS_CODE":0,"TOWNNAME":"北區","LI":"東興里","LIN":"7鄰","STREET":"小東路","SECT":" ","MAREA":" ","LANE":"３０７巷","ALLEY":" ","HOUSE_NO":"１１號","E_COORD97":171141.94,"N_COORD97":2544437.8399999999,"ADDRESS":"小東路３０７巷１１號","OBJECTID":429346},"geometry":{"x":171141.94000000134,"y":2544437.8399999999}},{"attributes":{"ID":429372,"DIS_CODE":0,"TOWNNAME":"北區","LI":"東興里","LIN":"7鄰","STREET":"小東路","SECT":" ","MAREA":" ","LANE":"３０７巷","ALLEY":" ","HOUSE_NO":"１３號","E_COORD97":171145.35000000001,"N_COORD97":2544440.9500000002,"ADDRESS":"小東路３０７巷１３號","OBJECTID":429347},"geometry":{"x":171145.35000000056,"y":2544440.950000003}},{"attributes":{"ID":429373,"DIS_CODE":0,"TOWNNAME":"北區","LI":"東興里","LIN":"7鄰","STREET":"小東路","SECT":" ","MAREA":" ","LANE":"３０７巷","ALLEY":" ","HOUSE_NO":"１５號","E_COORD97":171149.53,"N_COORD97":2544442.02,"ADDRESS":"小東路３０７巷１５號","OBJECTID":429348},"geometry":{"x":171149.53000000212,"y":2544442.0200000014}},{"attributes":{"ID":429374,"DIS_CODE":0,"TOWNNAME":"北區","LI":"東興里","LIN":"7鄰","STREET":"小東路","SECT":" ","MAREA":" ","LANE":"３０７巷","ALLEY":" ","HOUSE_NO":"１７號","E_COORD97":171152.94,"N_COORD97":2544444.2599999998,"ADDRESS":"小東路３０７巷１７號","OBJECTID":429349},"geometry":{"x":171152.94000000041,"y":2544444.2600000016}},{"attributes":{"ID":429375,"DIS_CODE":0,"TOWNNAME":"北區","LI":"東興里","LIN":"7鄰","STREET":"小東路","SECT":" ","MAREA":" ","LANE":"３０７巷","ALLEY":" ","HOUSE_NO":"１９號","E_COORD97":171156.64000000001,"N_COORD97":2544445.7200000002,"ADDRESS":"小東路３０７巷１９號","OBJECTID":429350},"geometry":{"x":171156.64000000153,"y":2544445.7200000007}},{"attributes":{"ID":429376,"DIS_CODE":0,"TOWNNAME":"北區","LI":"東興里","LIN":"7鄰","STREET":"小東路","SECT":" ","MAREA":" ","LANE":"３０７巷","ALLEY":" ","HOUSE_NO":"２１號","E_COORD97":171160.82000000001,"N_COORD97":2544446.6899999999,"ADDRESS":"小東路３０７巷２１號","OBJECTID":429351},"geometry":{"x":171160.8200000003,"y":2544446.6900000013}},{"attributes":{"ID":429377,"DIS_CODE":0,"TOWNNAME":"北區","LI":"東興里","LIN":"7鄰","STREET":"小東路","SECT":" ","MAREA":" ","LANE":"３０７巷","ALLEY":" ","HOUSE_NO":"２３號","E_COORD97":171164.13,"N_COORD97":2544448.4399999999,"ADDRESS":"小東路３０７巷２３號","OBJECTID":429352},"geometry":{"x":171164.13000000082,"y":2544448.4400000013}},{"attributes":{"ID":429378,"DIS_CODE":0,"TOWNNAME":"北區","LI":"東興里","LIN":"7鄰","STREET":"小東路","SECT":" ","MAREA":" ","LANE":"３０７巷","ALLEY":" ","HOUSE_NO":"２５號","E_COORD97":171167.63,"N_COORD97":2544450.8700000001,"ADDRESS":"小東路３０７巷２５號","OBJECTID":429353},"geometry":{"x":171167.63000000082,"y":2544450.8700000029}},{"attributes":{"ID":429379,"DIS_CODE":0,"TOWNNAME":"北區","LI":"東興里","LIN":"7鄰","STREET":"小東路","SECT":" ","MAREA":" ","LANE":"３０７巷","ALLEY":" ","HOUSE_NO":"２７號","E_COORD97":171171,"N_COORD97":2544453.6499999999,"ADDRESS":"小東路３０７巷２７號","OBJECTID":429354},"geometry":{"x":171171,"y":2544453.6500000004}},{"attributes":{"ID":429380,"DIS_CODE":0,"TOWNNAME":"北區","LI":"東興里","LIN":"7鄰","STREET":"小東路","SECT":" ","MAREA":" ","LANE":"３０７巷","ALLEY":" ","HOUSE_NO":"２９號","E_COORD97":171174.70000000001,"N_COORD97":2544459.6699999999,"ADDRESS":"小東路３０７巷２９號","OBJECTID":429355},"geometry":{"x":171174.70000000019,"y":2544459.6699999999}},{"attributes":{"ID":429381,"DIS_CODE":0,"TOWNNAME":"北區","LI":"東興里","LIN":"5鄰","STREET":"小東路","SECT":" ","MAREA":" ","LANE":"２８７巷","ALLEY":" ","HOUSE_NO":"５１號","E_COORD97":170890.17999999999,"N_COORD97":2544597.7400000002,"ADDRESS":"小東路２８７巷５１號","OBJECTID":429356},"geometry":{"x":170890.18000000156,"y":2544597.7400000002}},{"attributes":{"ID":429382,"DIS_CODE":0,"TOWNNAME":"北區","LI":"東興里","LIN":"5鄰","STREET":"小東路","SECT":" ","MAREA":" ","LANE":"２８７巷","ALLEY":" ","HOUSE_NO":"６１號","E_COORD97":170888.23000000001,"N_COORD97":2544627.6499999999,"ADDRESS":"小東路２８７巷６１號","OBJECTID":429357},"geometry":{"x":170888.23000000045,"y":2544627.6500000022}},{"attributes":{"ID":429383,"DIS_CODE":0,"TOWNNAME":"北區","LI":"東興里","LIN":"5鄰","STREET":"小東路","SECT":" ","MAREA":" ","LANE":"２８７巷","ALLEY":" ","HOUSE_NO":"６３號","E_COORD97":170886.87,"N_COORD97":2544634.3599999999,"ADDRESS":"小東路２８７巷６３號","OBJECTID":429358},"geometry":{"x":170886.87000000011,"y":2544634.3599999994}},{"attributes":{"ID":429384,"DIS_CODE":0,"TOWNNAME":"楠西區","LI":"楠西里","LIN":"20鄰","STREET":"民族路","SECT":" ","MAREA":" ","LANE":"５３巷","ALLEY":" ","HOUSE_NO":"４號","E_COORD97":197057.73999999999,"N_COORD97":2563942.29,"ADDRESS":"民族路５３巷４號","OBJECTID":429359},"geometry":{"x":197057.74000000115,"y":2563942.2899999991}},{"attributes":{"ID":429385,"DIS_CODE":0,"TOWNNAME":"北區","LI":"東興里","LIN":"18鄰","STREET":"小東路","SECT":" ","MAREA":" ","LANE":"２９９巷","ALLEY":" ","HOUSE_NO":"４０號","E_COORD97":171132.01999999999,"N_COORD97":2544512.3399999999,"ADDRESS":"小東路２９９巷４０號","OBJECTID":429360},"geometry":{"x":171132.02000000048,"y":2544512.3399999999}},{"attributes":{"ID":429386,"DIS_CODE":0,"TOWNNAME":"北區","LI":"東興里","LIN":"19鄰","STREET":"小東路","SECT":" ","MAREA":" ","LANE":"３０７巷","ALLEY":" ","HOUSE_NO":"１０１號","E_COORD97":171064.53,"N_COORD97":2544574.7400000002,"ADDRESS":"小東路３０７巷１０１號","OBJECTID":429361},"geometry":{"x":171064.53000000026,"y":2544574.7400000002}},{"attributes":{"ID":429387,"DIS_CODE":0,"TOWNNAME":"北區","LI":"東興里","LIN":"19鄰","STREET":"小東路","SECT":" ","MAREA":" ","LANE":"３０７巷","ALLEY":" ","HOUSE_NO":"１０３號","E_COORD97":171061.51000000001,"N_COORD97":2544577.4700000002,"ADDRESS":"小東路３０７巷１０３號","OBJECTID":429362},"geometry":{"x":171061.51000000071,"y":2544577.4700000007}},{"attributes":{"ID":429388,"DIS_CODE":0,"TOWNNAME":"北區","LI":"東興里","LIN":"19鄰","STREET":"小東路","SECT":" ","MAREA":" ","LANE":"３０７巷","ALLEY":" ","HOUSE_NO":"１０５號","E_COORD97":171058.5,"N_COORD97":2544580.5800000001,"ADDRESS":"小東路３０７巷１０５號","OBJECTID":429363},"geometry":{"x":171058.50000000093,"y":2544580.5800000019}},{"attributes":{"ID":429389,"DIS_CODE":0,"TOWNNAME":"北區","LI":"東興里","LIN":"19鄰","STREET":"小東路","SECT":" ","MAREA":" ","LANE":"３０７巷","ALLEY":" ","HOUSE_NO":"１０７號","E_COORD97":171055.48000000001,"N_COORD97":2544583.3999999999,"ADDRESS":"小東路３０７巷１０７號","OBJECTID":429364},"geometry":{"x":171055.48000000138,"y":2544583.4000000004}},{"attributes":{"ID":429390,"DIS_CODE":0,"TOWNNAME":"北區","LI":"東興里","LIN":"19鄰","STREET":"小東路","SECT":" ","MAREA":" ","LANE":"３０７巷","ALLEY":" ","HOUSE_NO":"１０９號","E_COORD97":171052.76000000001,"N_COORD97":2544586.8399999999,"ADDRESS":"小東路３０７巷１０９號","OBJECTID":429365},"geometry":{"x":171052.76000000071,"y":2544586.8399999999}},{"attributes":{"ID":429391,"DIS_CODE":0,"TOWNNAME":"北區","LI":"東興里","LIN":"19鄰","STREET":"小東路","SECT":" ","MAREA":" ","LANE":"３０７巷","ALLEY":" ","HOUSE_NO":"１１１號","E_COORD97":171049.94,"N_COORD97":2544589.5699999998,"ADDRESS":"小東路３０７巷１１１號","OBJECTID":429366},"geometry":{"x":171049.94000000041,"y":2544589.5700000003}},{"attributes":{"ID":429392,"DIS_CODE":0,"TOWNNAME":"北區","LI":"東興里","LIN":"19鄰","STREET":"小東路","SECT":" ","MAREA":" ","LANE":"３０７巷","ALLEY":" ","HOUSE_NO":"１１３號","E_COORD97":171046.04000000001,"N_COORD97":2544591.7000000002,"ADDRESS":"小東路３０７巷１１３號","OBJECTID":429367},"geometry":{"x":171046.04000000097,"y":2544591.700000003}},{"attributes":{"ID":429393,"DIS_CODE":0,"TOWNNAME":"北區","LI":"東興里","LIN":"19鄰","STREET":"小東路","SECT":" ","MAREA":" ","LANE":"３０７巷","ALLEY":" ","HOUSE_NO":"１１５號","E_COORD97":171042.92999999999,"N_COORD97":2544594.4300000002,"ADDRESS":"小東路３０７巷１１５號","OBJECTID":429368},"geometry":{"x":171042.93000000063,"y":2544594.4300000016}},{"attributes":{"ID":429394,"DIS_CODE":0,"TOWNNAME":"北區","LI":"五福里","LIN":"4鄰","STREET":"自強街","SECT":" ","MAREA":" ","LANE":"８６巷","ALLEY":" ","HOUSE_NO":"１０號","E_COORD97":168363.51999999999,"N_COORD97":2544579.77,"ADDRESS":"自強街８６巷１０號","OBJECTID":429369},"geometry":{"x":168363.52000000142,"y":2544579.7699999996}},{"attributes":{"ID":429395,"DIS_CODE":0,"TOWNNAME":"北區","LI":"五福里","LIN":"4鄰","STREET":"自強街","SECT":" ","MAREA":" ","LANE":"８６巷","ALLEY":" ","HOUSE_NO":"１１號","E_COORD97":168362.01999999999,"N_COORD97":2544585.7599999998,"ADDRESS":"自強街８６巷１１號","OBJECTID":429370},"geometry":{"x":168362.02000000048,"y":2544585.7600000016}},{"attributes":{"ID":429396,"DIS_CODE":0,"TOWNNAME":"北區","LI":"五福里","LIN":"4鄰","STREET":"自強街","SECT":" ","MAREA":" ","LANE":"８６巷","ALLEY":" ","HOUSE_NO":"１２號","E_COORD97":168368.01999999999,"N_COORD97":2544577.52,"ADDRESS":"自強街８６巷１２號","OBJECTID":429371},"geometry":{"x":168368.01999999955,"y":2544577.5200000014}},{"attributes":{"ID":429397,"DIS_CODE":0,"TOWNNAME":"北區","LI":"五福里","LIN":"4鄰","STREET":"自強街","SECT":" ","MAREA":" ","LANE":"８６巷","ALLEY":" ","HOUSE_NO":"１５號","E_COORD97":168370.72,"N_COORD97":2544580.6699999999,"ADDRESS":"自強街８６巷１５號","OBJECTID":429372},"geometry":{"x":168370.71999999974,"y":2544580.6700000018}},{"attributes":{"ID":429398,"DIS_CODE":0,"TOWNNAME":"北區","LI":"五福里","LIN":"4鄰","STREET":"自強街","SECT":" ","MAREA":" ","LANE":"８６巷","ALLEY":" ","HOUSE_NO":"８號","E_COORD97":168359.92999999999,"N_COORD97":2544581.4199999999,"ADDRESS":"自強街８６巷８號","OBJECTID":429373},"geometry":{"x":168359.93000000063,"y":2544581.4200000018}},{"attributes":{"ID":429399,"DIS_CODE":0,"TOWNNAME":"北區","LI":"五福里","LIN":"1鄰","STREET":"北華街","SECT":" ","MAREA":" ","LANE":"２０２巷","ALLEY":" ","HOUSE_NO":"１４號","E_COORD97":168415.03,"N_COORD97":2544705.7799999998,"ADDRESS":"北華街２０２巷１４號","OBJECTID":429374},"geometry":{"x":168415.02999999933,"y":2544705.7799999993}},{"attributes":{"ID":429400,"DIS_CODE":0,"TOWNNAME":"北區","LI":"五福里","LIN":"1鄰","STREET":"北華街","SECT":" ","MAREA":" ","LANE":"２０２巷","ALLEY":" ","HOUSE_NO":"２０號","E_COORD97":168421.31,"N_COORD97":2544720.2400000002,"ADDRESS":"北華街２０２巷２０號","OBJECTID":429375},"geometry":{"x":168421.31000000052,"y":2544720.2400000002}},{"attributes":{"ID":429401,"DIS_CODE":0,"TOWNNAME":"北區","LI":"長德里","LIN":"4鄰","STREET":"公園南路","SECT":" ","MAREA":" ","LANE":"２２２巷","ALLEY":" ","HOUSE_NO":"２９號","E_COORD97":168562.48000000001,"N_COORD97":2544763.6899999999,"ADDRESS":"公園南路２２２巷２９號","OBJECTID":429376},"geometry":{"x":168562.48000000045,"y":2544763.6899999995}},{"attributes":{"ID":429402,"DIS_CODE":0,"TOWNNAME":"北區","LI":"長德里","LIN":"4鄰","STREET":"公園南路","SECT":" ","MAREA":" ","LANE":"２２２巷","ALLEY":" ","HOUSE_NO":"５號","E_COORD97":168551.73999999999,"N_COORD97":2544754.6899999999,"ADDRESS":"公園南路２２２巷５號","OBJECTID":429377},"geometry":{"x":168551.74000000115,"y":2544754.6900000032}},{"attributes":{"ID":429403,"DIS_CODE":0,"TOWNNAME":"北區","LI":"長德里","LIN":"4鄰","STREET":"公園南路","SECT":" ","MAREA":" ","LANE":"２２２巷","ALLEY":" ","HOUSE_NO":"７號","E_COORD97":168558.32000000001,"N_COORD97":2544755.73,"ADDRESS":"公園南路２２２巷７號","OBJECTID":429378},"geometry":{"x":168558.3200000003,"y":2544755.7300000042}},{"attributes":{"ID":429404,"DIS_CODE":0,"TOWNNAME":"北區","LI":"長德里","LIN":"4鄰","STREET":"公園南路","SECT":" ","MAREA":" ","LANE":"２２２巷","ALLEY":" ","HOUSE_NO":"９號","E_COORD97":168568.70999999999,"N_COORD97":2544741.8900000001,"ADDRESS":"公園南路２２２巷９號","OBJECTID":429379},"geometry":{"x":168568.70999999996,"y":2544741.8900000025}},{"attributes":{"ID":429405,"DIS_CODE":0,"TOWNNAME":"北區","LI":"長德里","LIN":"4鄰","STREET":"長德街","SECT":" ","MAREA":" ","LANE":"３１巷","ALLEY":" ","HOUSE_NO":"１１號","E_COORD97":168537.13,"N_COORD97":2544818.8599999999,"ADDRESS":"長德街３１巷１１號","OBJECTID":429380},"geometry":{"x":168537.12999999989,"y":2544818.8600000013}},{"attributes":{"ID":429406,"DIS_CODE":0,"TOWNNAME":"北區","LI":"長德里","LIN":"4鄰","STREET":"長德街","SECT":" ","MAREA":" ","LANE":"３１巷","ALLEY":" ","HOUSE_NO":"９號","E_COORD97":168537.47,"N_COORD97":2544815.3999999999,"ADDRESS":"長德街３１巷９號","OBJECTID":429381},"geometry":{"x":168537.47000000067,"y":2544815.4000000041}},{"attributes":{"ID":429407,"DIS_CODE":0,"TOWNNAME":"歸仁區","LI":"歸南里","LIN":"4鄰","STREET":"民權十六街","SECT":" ","MAREA":" ","LANE":"３０巷","ALLEY":" ","HOUSE_NO":"１０號","E_COORD97":176874.07000000001,"N_COORD97":2540169.29,"ADDRESS":"民權十六街３０巷１０號","OBJECTID":429382},"geometry":{"x":176874.07000000123,"y":2540169.2899999991}},{"attributes":{"ID":429408,"DIS_CODE":0,"TOWNNAME":"歸仁區","LI":"許厝里","LIN":"4鄰","STREET":"仁愛南街","SECT":" ","MAREA":" ","LANE":"３５巷","ALLEY":" ","HOUSE_NO":"９號","E_COORD97":178363.63,"N_COORD97":2540577.25,"ADDRESS":"仁愛南街３５巷９號","OBJECTID":429383},"geometry":{"x":178363.63000000082,"y":2540577.25}},{"attributes":{"ID":429409,"DIS_CODE":0,"TOWNNAME":"歸仁區","LI":"媽廟里","LIN":"4鄰","STREET":"和順路","SECT":"一段","MAREA":" ","LANE":"１１巷","ALLEY":" ","HOUSE_NO":"７２號","E_COORD97":177495.42000000001,"N_COORD97":2543629.7200000002,"ADDRESS":"和順路一段１１巷７２號","OBJECTID":429384},"geometry":{"x":177495.42000000086,"y":2543629.7200000007}},{"attributes":{"ID":429410,"DIS_CODE":0,"TOWNNAME":"歸仁區","LI":"後市里","LIN":"38鄰","STREET":"中山八街","SECT":" ","MAREA":" ","LANE":"４６巷","ALLEY":" ","HOUSE_NO":"１１號","E_COORD97":177252.88,"N_COORD97":2541019.7400000002,"ADDRESS":"中山八街４６巷１１號","OBJECTID":429385},"geometry":{"x":177252.88000000175,"y":2541019.7400000021}},{"attributes":{"ID":429411,"DIS_CODE":0,"TOWNNAME":"歸仁區","LI":"歸南里","LIN":"25鄰","STREET":"民生十街","SECT":" ","MAREA":" ","LANE":"８巷","ALLEY":" ","HOUSE_NO":"３號","E_COORD97":176080.64000000001,"N_COORD97":2540219.29,"ADDRESS":"民生十街８巷３號","OBJECTID":429386},"geometry":{"x":176080.63999999966,"y":2540219.2899999991}},{"attributes":{"ID":429412,"DIS_CODE":0,"TOWNNAME":"歸仁區","LI":"崙頂里","LIN":"25鄰","STREET":"崙頂街","SECT":" ","MAREA":" ","LANE":"１５０巷","ALLEY":" ","HOUSE_NO":"４０號","E_COORD97":177812.88,"N_COORD97":2539872.25,"ADDRESS":"崙頂街１５０巷４０號","OBJECTID":429387},"geometry":{"x":177812.88000000082,"y":2539872.25}},{"attributes":{"ID":429413,"DIS_CODE":0,"TOWNNAME":"歸仁區","LI":"媽廟里","LIN":"4鄰","STREET":"和順路","SECT":"一段","MAREA":" ","LANE":"１１巷","ALLEY":" ","HOUSE_NO":"６號","E_COORD97":177513.76999999999,"N_COORD97":2543671.7200000002,"ADDRESS":"和順路一段１１巷６號","OBJECTID":429388},"geometry":{"x":177513.76999999955,"y":2543671.7200000025}},{"attributes":{"ID":429414,"DIS_CODE":0,"TOWNNAME":"歸仁區","LI":"南興里","LIN":"25鄰","STREET":"文化二十街","SECT":" ","MAREA":" ","LANE":"１１２巷","ALLEY":" ","HOUSE_NO":"９號","E_COORD97":175490.23999999999,"N_COORD97":2541392.3300000001,"ADDRESS":"文化二十街１１２巷９號","OBJECTID":429389},"geometry":{"x":175490.24000000022,"y":2541392.3300000019}},{"attributes":{"ID":429415,"DIS_CODE":0,"TOWNNAME":"歸仁區","LI":"媽廟里","LIN":"4鄰","STREET":"和順路","SECT":"一段","MAREA":" ","LANE":"１１巷","ALLEY":" ","HOUSE_NO":"２６號","E_COORD97":177481.12,"N_COORD97":2543643.7200000002,"ADDRESS":"和順路一段１１巷２６號","OBJECTID":429390},"geometry":{"x":177481.12000000011,"y":2543643.7200000044}},{"attributes":{"ID":429416,"DIS_CODE":0,"TOWNNAME":"歸仁區","LI":"媽廟里","LIN":"4鄰","STREET":"和順路","SECT":"一段","MAREA":" ","LANE":"１１巷","ALLEY":" ","HOUSE_NO":"３６號","E_COORD97":177458.51999999999,"N_COORD97":2543648.7200000002,"ADDRESS":"和順路一段１１巷３６號","OBJECTID":429391},"geometry":{"x":177458.52000000048,"y":2543648.7200000025}},{"attributes":{"ID":429417,"DIS_CODE":0,"TOWNNAME":"歸仁區","LI":"媽廟里","LIN":"4鄰","STREET":"和順路","SECT":"一段","MAREA":" ","LANE":"１１巷","ALLEY":" ","HOUSE_NO":"２０號","E_COORD97":177494.42000000001,"N_COORD97":2543640.7200000002,"ADDRESS":"和順路一段１１巷２０號","OBJECTID":429392},"geometry":{"x":177494.41999999993,"y":2543640.7200000025}},{"attributes":{"ID":429418,"DIS_CODE":0,"TOWNNAME":"歸仁區","LI":"南興里","LIN":"25鄰","STREET":"文化二十街","SECT":" ","MAREA":" ","LANE":"１１２巷","ALLEY":" ","HOUSE_NO":"２９號","E_COORD97":175518.19,"N_COORD97":2541391.3300000001,"ADDRESS":"文化二十街１１２巷２９號","OBJECTID":429393},"geometry":{"x":175518.19000000041,"y":2541391.3300000038}},{"attributes":{"ID":429419,"DIS_CODE":0,"TOWNNAME":"歸仁區","LI":"新厝里","LIN":"18鄰","STREET":"中正南路","SECT":"一段","MAREA":" ","LANE":"１５３巷","ALLEY":" ","HOUSE_NO":"２２號","E_COORD97":177482.70999999999,"N_COORD97":2540366.25,"ADDRESS":"中正南路一段１５３巷２２號","OBJECTID":429394},"geometry":{"x":177482.70999999903,"y":2540366.25}},{"attributes":{"ID":429420,"DIS_CODE":0,"TOWNNAME":"歸仁區","LI":"歸仁里","LIN":"20鄰","STREET":"大仁二街","SECT":" ","MAREA":" ","LANE":"３２巷","ALLEY":" ","HOUSE_NO":"８號","E_COORD97":178124.94,"N_COORD97":2541128.1099999999,"ADDRESS":"大仁二街３２巷８號","OBJECTID":429395},"geometry":{"x":178124.94000000134,"y":2541128.1100000013}},{"attributes":{"ID":429421,"DIS_CODE":0,"TOWNNAME":"歸仁區","LI":"許厝里","LIN":"25鄰","STREET":"信義北路","SECT":" ","MAREA":" ","LANE":"３０巷","ALLEY":" ","HOUSE_NO":"１５號","E_COORD97":178059.98000000001,"N_COORD97":2540830.23,"ADDRESS":"信義北路３０巷１５號","OBJECTID":429396},"geometry":{"x":178059.98000000138,"y":2540830.2300000023}},{"attributes":{"ID":429422,"DIS_CODE":0,"TOWNNAME":"歸仁區","LI":"歸南里","LIN":"26鄰","STREET":"民生十街","SECT":" ","MAREA":" ","LANE":"５０巷","ALLEY":" ","HOUSE_NO":"１８２號","E_COORD97":175790.98999999999,"N_COORD97":2540422.29,"ADDRESS":"民生十街５０巷１８２號","OBJECTID":429397},"geometry":{"x":175790.98999999929,"y":2540422.290000001}},{"attributes":{"ID":429423,"DIS_CODE":0,"TOWNNAME":"歸仁區","LI":"南興里","LIN":"25鄰","STREET":"文化二十街","SECT":" ","MAREA":" ","LANE":"１１２巷","ALLEY":" ","HOUSE_NO":"３號","E_COORD97":175490.14000000001,"N_COORD97":2541370.3300000001,"ADDRESS":"文化二十街１１２巷３號","OBJECTID":429398},"geometry":{"x":175490.1400000006,"y":2541370.3300000001}},{"attributes":{"ID":429424,"DIS_CODE":0,"TOWNNAME":"歸仁區","LI":"歸南里","LIN":"20鄰","STREET":"民生八街","SECT":" ","MAREA":" ","LANE":"２８巷","ALLEY":" ","HOUSE_NO":"１１號","E_COORD97":176120.94,"N_COORD97":2540405.29,"ADDRESS":"民生八街２８巷１１號","OBJECTID":429399},"geometry":{"x":176120.94000000134,"y":2540405.290000001}},{"attributes":{"ID":429425,"DIS_CODE":0,"TOWNNAME":"歸仁區","LI":"媽廟里","LIN":"4鄰","STREET":"和順路","SECT":"一段","MAREA":" ","LANE":"１１巷","ALLEY":" ","HOUSE_NO":"３８號","E_COORD97":177454.42000000001,"N_COORD97":2543649.7200000002,"ADDRESS":"和順路一段１１巷３８號","OBJECTID":429400},"geometry":{"x":177454.42000000086,"y":2543649.7200000007}}]}