{"displayFieldName":"TOWNNAME","fieldAliases":{"ID":"ID","DIS_CODE":"DIS_CODE","TOWNNAME":"TOWNNAME","LI":"LI","LIN":"LIN","STREET":"STREET","SECT":"SECT","MAREA":"MAREA","LANE":"LANE","ALLEY":"ALLEY","HOUSE_NO":"HOUSE_NO","E_COORD97":"E_COORD97","N_COORD97":"N_COORD97","ADDRESS":"ADDRESS","OBJECTID":"OBJECTID"},"geometryType":"esriGeometryPoint","spatialReference":{"wkid":102443,"latestWkid":3826},"fields":[{"name":"ID","type":"esriFieldTypeDouble","alias":"ID"},{"name":"DIS_CODE","type":"esriFieldTypeInteger","alias":"DIS_CODE"},{"name":"TOWNNAME","type":"esriFieldTypeString","alias":"TOWNNAME","length":8},{"name":"LI","type":"esriFieldTypeString","alias":"LI","length":8},{"name":"LIN","type":"esriFieldTypeString","alias":"LIN","length":12},{"name":"STREET","type":"esriFieldTypeString","alias":"STREET","length":20},{"name":"SECT","type":"esriFieldTypeString","alias":"SECT","length":8},{"name":"MAREA","type":"esriFieldTypeString","alias":"MAREA","length":12},{"name":"LANE","type":"esriFieldTypeString","alias":"LANE","length":10},{"name":"ALLEY","type":"esriFieldTypeString","alias":"ALLEY","length":10},{"name":"HOUSE_NO","type":"esriFieldTypeString","alias":"HOUSE_NO","length":20},{"name":"E_COORD97","type":"esriFieldTypeDouble","alias":"E_COORD97"},{"name":"N_COORD97","type":"esriFieldTypeDouble","alias":"N_COORD97"},{"name":"ADDRESS","type":"esriFieldTypeString","alias":"ADDRESS","length":50},{"name":"OBJECTID","type":"esriFieldTypeOID","alias":"OBJECTID"}],"features":[{"attributes":{"ID":93001,"DIS_CODE":0,"TOWNNAME":"永康區","LI":"\u25A0洲里","LIN":"10鄰","STREET":"\u25A0行路","SECT":" ","MAREA":" ","LANE":"１４６巷","ALLEY":"２０弄","HOUSE_NO":"２９號","E_COORD97":171411.41,"N_COORD97":2549353.48,"ADDRESS":"\u25A0行路１４６巷２０弄２９號","OBJECTID":93001},"geometry":{"x":171411.41000000108,"y":2549353.4800000004}},{"attributes":{"ID":93002,"DIS_CODE":0,"TOWNNAME":"永康區","LI":"\u25A0洲里","LIN":"10鄰","STREET":"\u25A0行路","SECT":" ","MAREA":" ","LANE":"１４６巷","ALLEY":"２０弄","HOUSE_NO":"３３號","E_COORD97":171426.53,"N_COORD97":2549358.96,"ADDRESS":"\u25A0行路１４６巷２０弄３３號","OBJECTID":93002},"geometry":{"x":171426.53000000119,"y":2549358.9600000028}},{"attributes":{"ID":93003,"DIS_CODE":0,"TOWNNAME":"永康區","LI":"\u25A0洲里","LIN":"10鄰","STREET":"\u25A0行路","SECT":" ","MAREA":" ","LANE":"１４６巷","ALLEY":"２０弄","HOUSE_NO":"２７號","E_COORD97":171409.10999999999,"N_COORD97":2549351.3900000001,"ADDRESS":"\u25A0行路１４６巷２０弄２７號","OBJECTID":93003},"geometry":{"x":171409.11000000127,"y":2549351.3900000006}},{"attributes":{"ID":93004,"DIS_CODE":0,"TOWNNAME":"永康區","LI":"\u25A0洲里","LIN":"10鄰","STREET":"\u25A0行路","SECT":" ","MAREA":" ","LANE":"１４６巷","ALLEY":"２０弄","HOUSE_NO":"１２號","E_COORD97":171403.38,"N_COORD97":2549316.4300000002,"ADDRESS":"\u25A0行路１４６巷２０弄１２號","OBJECTID":93004},"geometry":{"x":171403.38000000082,"y":2549316.4299999997}},{"attributes":{"ID":93005,"DIS_CODE":0,"TOWNNAME":"北區","LI":"大和里","LIN":"25鄰","STREET":"大和路","SECT":" ","MAREA":" ","LANE":" ","ALLEY":" ","HOUSE_NO":"４７８號","E_COORD97":166883.94,"N_COORD97":2546186.1400000001,"ADDRESS":"大和路４７８號","OBJECTID":93005},"geometry":{"x":166883.94000000134,"y":2546186.1400000006}},{"attributes":{"ID":93006,"DIS_CODE":0,"TOWNNAME":"永康區","LI":"\u25A0洲里","LIN":"10鄰","STREET":"\u25A0行路","SECT":" ","MAREA":" ","LANE":"１４６巷","ALLEY":"２０弄","HOUSE_NO":"１４號","E_COORD97":171406.41,"N_COORD97":2549319.9300000002,"ADDRESS":"\u25A0行路１４６巷２０弄１４號","OBJECTID":93006},"geometry":{"x":171406.41000000108,"y":2549319.9299999978}},{"attributes":{"ID":93007,"DIS_CODE":0,"TOWNNAME":"永康區","LI":"\u25A0洲里","LIN":"10鄰","STREET":"\u25A0行路","SECT":" ","MAREA":" ","LANE":"１４６巷","ALLEY":"６弄","HOUSE_NO":"３５號","E_COORD97":171437.51999999999,"N_COORD97":2549309.21,"ADDRESS":"\u25A0行路１４６巷６弄３５號","OBJECTID":93007},"geometry":{"x":171437.52000000048,"y":2549309.209999999}},{"attributes":{"ID":93008,"DIS_CODE":0,"TOWNNAME":"永康區","LI":"\u25A0洲里","LIN":"10鄰","STREET":"\u25A0行路","SECT":" ","MAREA":" ","LANE":"１００巷","ALLEY":"６１弄","HOUSE_NO":"２５號","E_COORD97":171350.29000000001,"N_COORD97":2549357.8900000001,"ADDRESS":"\u25A0行路１００巷６１弄２５號","OBJECTID":93008},"geometry":{"x":171350.29000000004,"y":2549357.8900000006}},{"attributes":{"ID":93009,"DIS_CODE":0,"TOWNNAME":"永康區","LI":"\u25A0洲里","LIN":"10鄰","STREET":"\u25A0行路","SECT":" ","MAREA":" ","LANE":"１００巷","ALLEY":"６１弄","HOUSE_NO":"１號","E_COORD97":171378.81,"N_COORD97":2549395.8900000001,"ADDRESS":"\u25A0行路１００巷６１弄１號","OBJECTID":93009},"geometry":{"x":171378.80999999959,"y":2549395.8900000043}},{"attributes":{"ID":93010,"DIS_CODE":0,"TOWNNAME":"永康區","LI":"\u25A0洲里","LIN":"10鄰","STREET":"\u25A0行路","SECT":" ","MAREA":" ","LANE":"１００巷","ALLEY":"４０弄","HOUSE_NO":"３３號","E_COORD97":171474.63,"N_COORD97":2549434.75,"ADDRESS":"\u25A0行路１００巷４０弄３３號","OBJECTID":93010},"geometry":{"x":171474.63000000082,"y":2549434.7500000019}},{"attributes":{"ID":93011,"DIS_CODE":0,"TOWNNAME":"永康區","LI":"\u25A0洲里","LIN":"10鄰","STREET":"\u25A0行路","SECT":" ","MAREA":" ","LANE":"１００巷","ALLEY":"６１弄","HOUSE_NO":"１３號","E_COORD97":171364.82999999999,"N_COORD97":2549377.1400000001,"ADDRESS":"\u25A0行路１００巷６１弄１３號","OBJECTID":93011},"geometry":{"x":171364.83000000101,"y":2549377.1399999987}},{"attributes":{"ID":93012,"DIS_CODE":0,"TOWNNAME":"永康區","LI":"\u25A0洲里","LIN":"10鄰","STREET":"\u25A0行路","SECT":" ","MAREA":" ","LANE":"１００巷","ALLEY":"４０弄","HOUSE_NO":"７號","E_COORD97":171455.17999999999,"N_COORD97":2549386.3599999999,"ADDRESS":"\u25A0行路１００巷４０弄７號","OBJECTID":93012},"geometry":{"x":171455.18000000063,"y":2549386.3600000013}},{"attributes":{"ID":93013,"DIS_CODE":0,"TOWNNAME":"永康區","LI":"\u25A0洲里","LIN":"10鄰","STREET":"\u25A0行路","SECT":" ","MAREA":" ","LANE":"１００巷","ALLEY":"４０弄","HOUSE_NO":"２號","E_COORD97":171458.88,"N_COORD97":2549373.7400000002,"ADDRESS":"\u25A0行路１００巷４０弄２號","OBJECTID":93013},"geometry":{"x":171458.88000000082,"y":2549373.7400000021}},{"attributes":{"ID":93014,"DIS_CODE":0,"TOWNNAME":"永康區","LI":"\u25A0洲里","LIN":"10鄰","STREET":"\u25A0行路","SECT":" ","MAREA":" ","LANE":"１００巷","ALLEY":"６１弄","HOUSE_NO":"３３號","E_COORD97":171339.26999999999,"N_COORD97":2549346.6499999999,"ADDRESS":"\u25A0行路１００巷６１弄３３號","OBJECTID":93014},"geometry":{"x":171339.27000000048,"y":2549346.6500000041}},{"attributes":{"ID":93015,"DIS_CODE":0,"TOWNNAME":"永康區","LI":"\u25A0洲里","LIN":"10鄰","STREET":"\u25A0行路","SECT":" ","MAREA":" ","LANE":"１４６巷","ALLEY":"２０弄","HOUSE_NO":"２８號","E_COORD97":171435.31,"N_COORD97":2549343.2999999998,"ADDRESS":"\u25A0行路１４６巷２０弄２８號","OBJECTID":93015},"geometry":{"x":171435.31000000052,"y":2549343.3000000026}},{"attributes":{"ID":93016,"DIS_CODE":0,"TOWNNAME":"永康區","LI":"\u25A0洲里","LIN":"10鄰","STREET":"\u25A0行路","SECT":" ","MAREA":" ","LANE":"１００巷","ALLEY":"４０弄","HOUSE_NO":"１４號","E_COORD97":171478.10999999999,"N_COORD97":2549391.4900000002,"ADDRESS":"\u25A0行路１００巷４０弄１４號","OBJECTID":93016},"geometry":{"x":171478.11000000127,"y":2549391.4900000039}},{"attributes":{"ID":93017,"DIS_CODE":0,"TOWNNAME":"永康區","LI":"\u25A0洲里","LIN":"10鄰","STREET":"\u25A0行路","SECT":" ","MAREA":" ","LANE":"１００巷","ALLEY":"４０弄","HOUSE_NO":"３１號","E_COORD97":171476.63,"N_COORD97":2549430.75,"ADDRESS":"\u25A0行路１００巷４０弄３１號","OBJECTID":93017},"geometry":{"x":171476.62999999989,"y":2549430.7500000019}},{"attributes":{"ID":93018,"DIS_CODE":0,"TOWNNAME":"永康區","LI":"\u25A0洲里","LIN":"10鄰","STREET":"\u25A0行路","SECT":" ","MAREA":" ","LANE":"１００巷","ALLEY":"４０弄","HOUSE_NO":"１０號","E_COORD97":171471.92000000001,"N_COORD97":2549385.2400000002,"ADDRESS":"\u25A0行路１００巷４０弄１０號","OBJECTID":93018},"geometry":{"x":171471.92000000179,"y":2549385.2400000002}},{"attributes":{"ID":93019,"DIS_CODE":0,"TOWNNAME":"永康區","LI":"\u25A0洲里","LIN":"10鄰","STREET":"\u25A0行路","SECT":" ","MAREA":" ","LANE":"１００巷","ALLEY":"６１弄","HOUSE_NO":"２１號","E_COORD97":171354.57999999999,"N_COORD97":2549364.6400000001,"ADDRESS":"\u25A0行路１００巷６１弄２１號","OBJECTID":93019},"geometry":{"x":171354.58000000101,"y":2549364.6400000025}},{"attributes":{"ID":93020,"DIS_CODE":0,"TOWNNAME":"永康區","LI":"\u25A0洲里","LIN":"10鄰","STREET":"\u25A0行路","SECT":" ","MAREA":" ","LANE":"１４６巷","ALLEY":"６弄","HOUSE_NO":"１號","E_COORD97":171424.60999999999,"N_COORD97":2549261.9900000002,"ADDRESS":"\u25A0行路１４６巷６弄１號","OBJECTID":93020},"geometry":{"x":171424.61000000034,"y":2549261.9900000002}},{"attributes":{"ID":93021,"DIS_CODE":0,"TOWNNAME":"新化區","LI":"東榮里","LIN":"25鄰","STREET":"中正路","SECT":" ","MAREA":" ","LANE":" ","ALLEY":" ","HOUSE_NO":"３２６號","E_COORD97":179150.01000000001,"N_COORD97":2548093.25,"ADDRESS":"中正路３２６號","OBJECTID":93021},"geometry":{"x":179150.00999999978,"y":2548093.25}},{"attributes":{"ID":93022,"DIS_CODE":0,"TOWNNAME":"新化區","LI":"東榮里","LIN":"32鄰","STREET":"中正路","SECT":" ","MAREA":" ","LANE":" ","ALLEY":" ","HOUSE_NO":"３６２號","E_COORD97":179110.20999999999,"N_COORD97":2548345.25,"ADDRESS":"中正路３６２號","OBJECTID":93022},"geometry":{"x":179110.21000000183,"y":2548345.2500000037}},{"attributes":{"ID":93023,"DIS_CODE":0,"TOWNNAME":"新化區","LI":"東榮里","LIN":"34鄰","STREET":"中山路","SECT":" ","MAREA":" ","LANE":" ","ALLEY":" ","HOUSE_NO":"２１９號","E_COORD97":179172.60999999999,"N_COORD97":2548441.25,"ADDRESS":"中山路２１９號","OBJECTID":93023},"geometry":{"x":179172.61000000127,"y":2548441.2500000019}},{"attributes":{"ID":93024,"DIS_CODE":0,"TOWNNAME":"新化區","LI":"太平里","LIN":"8鄰","STREET":"中正路","SECT":" ","MAREA":" ","LANE":" ","ALLEY":" ","HOUSE_NO":"６２８號","E_COORD97":178720.20999999999,"N_COORD97":2549312.25,"ADDRESS":"中正路６２８號","OBJECTID":93024},"geometry":{"x":178720.20999999903,"y":2549312.2500000019}},{"attributes":{"ID":93025,"DIS_CODE":0,"TOWNNAME":"新化區","LI":"太平里","LIN":"4鄰","STREET":"民生路","SECT":" ","MAREA":" ","LANE":" ","ALLEY":" ","HOUSE_NO":"３０３號","E_COORD97":178920.60999999999,"N_COORD97":2549176.25,"ADDRESS":"民生路３０３號","OBJECTID":93025},"geometry":{"x":178920.61000000034,"y":2549176.2500000019}},{"attributes":{"ID":93026,"DIS_CODE":0,"TOWNNAME":"新化區","LI":"東榮里","LIN":"25鄰","STREET":"中正路","SECT":" ","MAREA":" ","LANE":" ","ALLEY":" ","HOUSE_NO":"３１０號之１３","E_COORD97":179250.20999999999,"N_COORD97":2547998.2599999998,"ADDRESS":"中正路３１０號之１３","OBJECTID":93026},"geometry":{"x":179250.20999999996,"y":2547998.2599999998}},{"attributes":{"ID":93027,"DIS_CODE":0,"TOWNNAME":"新化區","LI":"東榮里","LIN":"25鄰","STREET":"中正路","SECT":" ","MAREA":" ","LANE":" ","ALLEY":" ","HOUSE_NO":"３１０號之１２","E_COORD97":179247.41,"N_COORD97":2547998.2599999998,"ADDRESS":"中正路３１０號之１２","OBJECTID":93027},"geometry":{"x":179247.41000000015,"y":2547998.2599999998}},{"attributes":{"ID":93028,"DIS_CODE":0,"TOWNNAME":"新化區","LI":"清水里","LIN":"4鄰","STREET":"中山路","SECT":" ","MAREA":" ","LANE":" ","ALLEY":" ","HOUSE_NO":"４３６號","E_COORD97":178725.70999999999,"N_COORD97":2548417.25,"ADDRESS":"中山路４３６號","OBJECTID":93028},"geometry":{"x":178725.71000000089,"y":2548417.2500000019}},{"attributes":{"ID":93029,"DIS_CODE":0,"TOWNNAME":"新化區","LI":"清水里","LIN":"4鄰","STREET":"中山路","SECT":" ","MAREA":" ","LANE":" ","ALLEY":" ","HOUSE_NO":"４２６號","E_COORD97":178746.60999999999,"N_COORD97":2548418.25,"ADDRESS":"中山路４２６號","OBJECTID":93029},"geometry":{"x":178746.61000000034,"y":2548418.25}},{"attributes":{"ID":93030,"DIS_CODE":0,"TOWNNAME":"新化區","LI":"太平里","LIN":"4鄰","STREET":"民生路","SECT":" ","MAREA":" ","LANE":" ","ALLEY":" ","HOUSE_NO":"１９２號","E_COORD97":179108.70999999999,"N_COORD97":2548934.25,"ADDRESS":"民生路１９２號","OBJECTID":93030},"geometry":{"x":179108.71000000089,"y":2548934.25}},{"attributes":{"ID":93031,"DIS_CODE":0,"TOWNNAME":"新化區","LI":"東榮里","LIN":"25鄰","STREET":"中正路","SECT":" ","MAREA":" ","LANE":" ","ALLEY":" ","HOUSE_NO":"３１０號之９","E_COORD97":179224.85000000001,"N_COORD97":2548001.2599999998,"ADDRESS":"中正路３１０號之９","OBJECTID":93031},"geometry":{"x":179224.85000000056,"y":2548001.2599999998}},{"attributes":{"ID":93032,"DIS_CODE":0,"TOWNNAME":"新化區","LI":"東榮里","LIN":"32鄰","STREET":"中正路","SECT":" ","MAREA":" ","LANE":" ","ALLEY":" ","HOUSE_NO":"３５８號","E_COORD97":179112.31,"N_COORD97":2548338.25,"ADDRESS":"中正路３５８號","OBJECTID":93032},"geometry":{"x":179112.30999999959,"y":2548338.2499999981}},{"attributes":{"ID":93033,"DIS_CODE":0,"TOWNNAME":"新化區","LI":"太平里","LIN":"4鄰","STREET":"中正路","SECT":" ","MAREA":" ","LANE":" ","ALLEY":" ","HOUSE_NO":"５４４號","E_COORD97":178950.81,"N_COORD97":2548885.25,"ADDRESS":"中正路５４４號","OBJECTID":93033},"geometry":{"x":178950.80999999959,"y":2548885.2500000019}},{"attributes":{"ID":93034,"DIS_CODE":0,"TOWNNAME":"永康區","LI":"\u25A0洲里","LIN":"10鄰","STREET":"\u25A0行路","SECT":" ","MAREA":" ","LANE":"１４６巷","ALLEY":"２０弄","HOUSE_NO":"６號","E_COORD97":171393.01999999999,"N_COORD97":2549307.1800000002,"ADDRESS":"\u25A0行路１４６巷２０弄６號","OBJECTID":93034},"geometry":{"x":171393.02000000048,"y":2549307.1799999997}},{"attributes":{"ID":93035,"DIS_CODE":0,"TOWNNAME":"永康區","LI":"\u25A0洲里","LIN":"10鄰","STREET":"\u25A0行路","SECT":" ","MAREA":" ","LANE":"１４６巷","ALLEY":"２０弄","HOUSE_NO":"５號","E_COORD97":171378.62,"N_COORD97":2549320.4900000002,"ADDRESS":"\u25A0行路１４６巷２０弄５號","OBJECTID":93035},"geometry":{"x":171378.62000000011,"y":2549320.4900000039}},{"attributes":{"ID":93036,"DIS_CODE":0,"TOWNNAME":"永康區","LI":"\u25A0洲里","LIN":"10鄰","STREET":"\u25A0行路","SECT":" ","MAREA":" ","LANE":"１００巷","ALLEY":"４０弄","HOUSE_NO":"２１號","E_COORD97":171478.82000000001,"N_COORD97":2549407.4900000002,"ADDRESS":"\u25A0行路１００巷４０弄２１號","OBJECTID":93036},"geometry":{"x":171478.82000000123,"y":2549407.4900000002}},{"attributes":{"ID":93037,"DIS_CODE":0,"TOWNNAME":"永康區","LI":"\u25A0洲里","LIN":"10鄰","STREET":"\u25A0行路","SECT":" ","MAREA":" ","LANE":"１４６巷","ALLEY":"２０弄","HOUSE_NO":"１９號","E_COORD97":171397.85000000001,"N_COORD97":2549339.4300000002,"ADDRESS":"\u25A0行路１４６巷２０弄１９號","OBJECTID":93037},"geometry":{"x":171397.85000000056,"y":2549339.4299999997}},{"attributes":{"ID":93038,"DIS_CODE":0,"TOWNNAME":"永康區","LI":"\u25A0洲里","LIN":"10鄰","STREET":"\u25A0行路","SECT":" ","MAREA":" ","LANE":"１００巷","ALLEY":"６１弄","HOUSE_NO":"２７號","E_COORD97":171347.47,"N_COORD97":2549355.1400000001,"ADDRESS":"\u25A0行路１００巷６１弄２７號","OBJECTID":93038},"geometry":{"x":171347.46999999974,"y":2549355.1400000025}},{"attributes":{"ID":93039,"DIS_CODE":0,"TOWNNAME":"永康區","LI":"\u25A0洲里","LIN":"10鄰","STREET":"\u25A0行路","SECT":" ","MAREA":" ","LANE":"１００巷","ALLEY":"６１弄","HOUSE_NO":"１１號","E_COORD97":171367.38,"N_COORD97":2549380.1400000001,"ADDRESS":"\u25A0行路１００巷６１弄１１號","OBJECTID":93039},"geometry":{"x":171367.38000000082,"y":2549380.1400000006}},{"attributes":{"ID":93040,"DIS_CODE":0,"TOWNNAME":"永康區","LI":"\u25A0洲里","LIN":"10鄰","STREET":"\u25A0行路","SECT":" ","MAREA":" ","LANE":"１００巷","ALLEY":"６１弄","HOUSE_NO":"３號","E_COORD97":171376.72,"N_COORD97":2549392.3900000001,"ADDRESS":"\u25A0行路１００巷６１弄３號","OBJECTID":93040},"geometry":{"x":171376.72000000067,"y":2549392.3899999987}},{"attributes":{"ID":93041,"DIS_CODE":0,"TOWNNAME":"新市區","LI":"潭頂里","LIN":"10鄰","STREET":" ","SECT":" ","MAREA":"潭頂","LANE":" ","ALLEY":" ","HOUSE_NO":"３４５之１號","E_COORD97":180687.89999999999,"N_COORD97":2552852.0499999998,"ADDRESS":"潭頂３４５之１號","OBJECTID":93041},"geometry":{"x":180687.9000000013,"y":2552852.0500000007}},{"attributes":{"ID":93042,"DIS_CODE":0,"TOWNNAME":"新市區","LI":"潭頂里","LIN":"10鄰","STREET":" ","SECT":" ","MAREA":"潭頂","LANE":" ","ALLEY":" ","HOUSE_NO":"３４８號","E_COORD97":180713.48000000001,"N_COORD97":2552857,"ADDRESS":"潭頂３４８號","OBJECTID":93042},"geometry":{"x":180713.48000000045,"y":2552857.0000000019}},{"attributes":{"ID":93043,"DIS_CODE":0,"TOWNNAME":"新市區","LI":"豐華里","LIN":"10鄰","STREET":" ","SECT":" ","MAREA":"豐華","LANE":" ","ALLEY":" ","HOUSE_NO":"４７之３５號","E_COORD97":174145.10000000001,"N_COORD97":2554441.7999999998,"ADDRESS":"豐華４７之３５號","OBJECTID":93043},"geometry":{"x":174145.09999999963,"y":2554441.8000000045}},{"attributes":{"ID":93044,"DIS_CODE":0,"TOWNNAME":"新市區","LI":"豐華里","LIN":"10鄰","STREET":" ","SECT":" ","MAREA":"豐華","LANE":" ","ALLEY":" ","HOUSE_NO":"４７之３０號","E_COORD97":174137.09,"N_COORD97":2554421.2999999998,"ADDRESS":"豐華４７之３０號","OBJECTID":93044},"geometry":{"x":174137.08999999892,"y":2554421.3000000045}},{"attributes":{"ID":93045,"DIS_CODE":0,"TOWNNAME":"新市區","LI":"潭頂里","LIN":"10鄰","STREET":" ","SECT":" ","MAREA":"潭頂","LANE":" ","ALLEY":" ","HOUSE_NO":"３５０號","E_COORD97":180692.54000000001,"N_COORD97":2552850.25,"ADDRESS":"潭頂３５０號","OBJECTID":93045},"geometry":{"x":180692.54000000004,"y":2552850.25}},{"attributes":{"ID":93046,"DIS_CODE":0,"TOWNNAME":"新市區","LI":"豐華里","LIN":"10鄰","STREET":" ","SECT":" ","MAREA":"豐華","LANE":" ","ALLEY":" ","HOUSE_NO":"４７之１５號","E_COORD97":174117.59,"N_COORD97":2554461.0499999998,"ADDRESS":"豐華４７之１５號","OBJECTID":93046},"geometry":{"x":174117.59000000078,"y":2554461.0500000026}},{"attributes":{"ID":93047,"DIS_CODE":0,"TOWNNAME":"新市區","LI":"豐華里","LIN":"10鄰","STREET":" ","SECT":" ","MAREA":"豐華","LANE":" ","ALLEY":" ","HOUSE_NO":"４７之３４號","E_COORD97":174143.84,"N_COORD97":2554438.2999999998,"ADDRESS":"豐華４７之３４號","OBJECTID":93047},"geometry":{"x":174143.83999999985,"y":2554438.3000000045}},{"attributes":{"ID":93048,"DIS_CODE":0,"TOWNNAME":"新市區","LI":"潭頂里","LIN":"10鄰","STREET":" ","SECT":" ","MAREA":"潭頂","LANE":" ","ALLEY":" ","HOUSE_NO":"３５８之１０號","E_COORD97":180588.23000000001,"N_COORD97":2552831.5499999998,"ADDRESS":"潭頂３５８之１０號","OBJECTID":93048},"geometry":{"x":180588.23000000045,"y":2552831.5500000007}},{"attributes":{"ID":93049,"DIS_CODE":0,"TOWNNAME":"新市區","LI":"豐華里","LIN":"10鄰","STREET":" ","SECT":" ","MAREA":"豐華","LANE":" ","ALLEY":" ","HOUSE_NO":"４７之１３號","E_COORD97":174114.48000000001,"N_COORD97":2554453.0499999998,"ADDRESS":"豐華４７之１３號","OBJECTID":93049},"geometry":{"x":174114.48000000045,"y":2554453.0500000007}},{"attributes":{"ID":93050,"DIS_CODE":0,"TOWNNAME":"新市區","LI":"豐華里","LIN":"10鄰","STREET":" ","SECT":" ","MAREA":"豐華","LANE":" ","ALLEY":" ","HOUSE_NO":"４７之１０號","E_COORD97":174110.17999999999,"N_COORD97":2554440.2999999998,"ADDRESS":"豐華４７之１０號","OBJECTID":93050},"geometry":{"x":174110.1799999997,"y":2554440.3000000007}},{"attributes":{"ID":93051,"DIS_CODE":0,"TOWNNAME":"新市區","LI":"潭頂里","LIN":"10鄰","STREET":" ","SECT":" ","MAREA":"潭頂","LANE":" ","ALLEY":" ","HOUSE_NO":"３５６之１號","E_COORD97":180626.89000000001,"N_COORD97":2552812.2999999998,"ADDRESS":"潭頂３５６之１號","OBJECTID":93051},"geometry":{"x":180626.88999999966,"y":2552812.3000000026}},{"attributes":{"ID":93052,"DIS_CODE":0,"TOWNNAME":"新市區","LI":"潭頂里","LIN":"10鄰","STREET":" ","SECT":" ","MAREA":"潭頂","LANE":" ","ALLEY":" ","HOUSE_NO":"３４６號","E_COORD97":180682.95000000001,"N_COORD97":2552887,"ADDRESS":"潭頂３４６號","OBJECTID":93052},"geometry":{"x":180682.95000000019,"y":2552887.0000000019}},{"attributes":{"ID":93053,"DIS_CODE":0,"TOWNNAME":"新市區","LI":"豐華里","LIN":"10鄰","STREET":" ","SECT":" ","MAREA":"豐華","LANE":" ","ALLEY":" ","HOUSE_NO":"４７之７號","E_COORD97":174167.79000000001,"N_COORD97":2554375.0499999998,"ADDRESS":"豐華４７之７號","OBJECTID":93053},"geometry":{"x":174167.79000000004,"y":2554375.0500000007}},{"attributes":{"ID":93054,"DIS_CODE":0,"TOWNNAME":"永康區","LI":"\u25A0洲里","LIN":"10鄰","STREET":"\u25A0行路","SECT":" ","MAREA":" ","LANE":"１００巷","ALLEY":"６１弄","HOUSE_NO":"７號","E_COORD97":171371.32999999999,"N_COORD97":2549386.1400000001,"ADDRESS":"\u25A0行路１００巷６１弄７號","OBJECTID":93054},"geometry":{"x":171371.33000000101,"y":2549386.1400000006}},{"attributes":{"ID":93055,"DIS_CODE":0,"TOWNNAME":"新市區","LI":"豐華里","LIN":"10鄰","STREET":" ","SECT":" ","MAREA":"豐華","LANE":" ","ALLEY":" ","HOUSE_NO":"４７之２２號","E_COORD97":174127.76999999999,"N_COORD97":2554488.7999999998,"ADDRESS":"豐華４７之２２號","OBJECTID":93055},"geometry":{"x":174127.77000000048,"y":2554488.8000000007}},{"attributes":{"ID":93056,"DIS_CODE":0,"TOWNNAME":"新市區","LI":"豐華里","LIN":"10鄰","STREET":" ","SECT":" ","MAREA":"豐華","LANE":" ","ALLEY":" ","HOUSE_NO":"４７之３１號","E_COORD97":174139.54000000001,"N_COORD97":2554426.0499999998,"ADDRESS":"豐華４７之３１號","OBJECTID":93056},"geometry":{"x":174139.5400000019,"y":2554426.0500000007}},{"attributes":{"ID":93057,"DIS_CODE":0,"TOWNNAME":"新市區","LI":"豐華里","LIN":"10鄰","STREET":" ","SECT":" ","MAREA":"豐華","LANE":" ","ALLEY":" ","HOUSE_NO":"４７之１１號","E_COORD97":174112.48000000001,"N_COORD97":2554444.0499999998,"ADDRESS":"豐華４７之１１號","OBJECTID":93057},"geometry":{"x":174112.48000000045,"y":2554444.0500000026}},{"attributes":{"ID":93058,"DIS_CODE":0,"TOWNNAME":"永康區","LI":"\u25A0洲里","LIN":"10鄰","STREET":"\u25A0行路","SECT":" ","MAREA":" ","LANE":"１４６巷","ALLEY":"２０弄","HOUSE_NO":"１０號","E_COORD97":171400.44,"N_COORD97":2549313.4300000002,"ADDRESS":"\u25A0行路１４６巷２０弄１０號","OBJECTID":93058},"geometry":{"x":171400.44000000041,"y":2549313.4300000034}},{"attributes":{"ID":93059,"DIS_CODE":0,"TOWNNAME":"永康區","LI":"\u25A0洲里","LIN":"10鄰","STREET":"\u25A0行路","SECT":" ","MAREA":" ","LANE":"１４６巷","ALLEY":"６弄","HOUSE_NO":"４５號","E_COORD97":171461.22,"N_COORD97":2549302.73,"ADDRESS":"\u25A0行路１４６巷６弄４５號","OBJECTID":93059},"geometry":{"x":171461.2200000016,"y":2549302.7300000023}},{"attributes":{"ID":93060,"DIS_CODE":0,"TOWNNAME":"新市區","LI":"潭頂里","LIN":"10鄰","STREET":" ","SECT":" ","MAREA":"潭頂","LANE":" ","ALLEY":" ","HOUSE_NO":"３５８之７號","E_COORD97":180604.56,"N_COORD97":2552814.2999999998,"ADDRESS":"潭頂３５８之７號","OBJECTID":93060},"geometry":{"x":180604.56000000052,"y":2552814.3000000045}},{"attributes":{"ID":93061,"DIS_CODE":0,"TOWNNAME":"新市區","LI":"潭頂里","LIN":"10鄰","STREET":" ","SECT":" ","MAREA":"潭頂","LANE":" ","ALLEY":" ","HOUSE_NO":"３５５號","E_COORD97":180664.28,"N_COORD97":2552814,"ADDRESS":"潭頂３５５號","OBJECTID":93061},"geometry":{"x":180664.28000000026,"y":2552814}},{"attributes":{"ID":93062,"DIS_CODE":0,"TOWNNAME":"新市區","LI":"潭頂里","LIN":"10鄰","STREET":" ","SECT":" ","MAREA":"潭頂","LANE":" ","ALLEY":" ","HOUSE_NO":"３５８之１８號","E_COORD97":180571.73000000001,"N_COORD97":2552827.5499999998,"ADDRESS":"潭頂３５８之１８號","OBJECTID":93062},"geometry":{"x":180571.72999999952,"y":2552827.5500000026}},{"attributes":{"ID":93063,"DIS_CODE":0,"TOWNNAME":"新市區","LI":"大營里","LIN":"10鄰","STREET":" ","SECT":" ","MAREA":"大營","LANE":" ","ALLEY":" ","HOUSE_NO":"２２８之２號","E_COORD97":179339.44,"N_COORD97":2555704.4399999999,"ADDRESS":"大營２２８之２號","OBJECTID":93063},"geometry":{"x":179339.44000000041,"y":2555704.4400000013}},{"attributes":{"ID":93064,"DIS_CODE":0,"TOWNNAME":"永康區","LI":"\u25A0洲里","LIN":"10鄰","STREET":"\u25A0行路","SECT":" ","MAREA":" ","LANE":"１４６巷","ALLEY":"６弄","HOUSE_NO":"４１號","E_COORD97":171454.26999999999,"N_COORD97":2549295.9199999999,"ADDRESS":"\u25A0行路１４６巷６弄４１號","OBJECTID":93064},"geometry":{"x":171454.27000000048,"y":2549295.9199999999}},{"attributes":{"ID":93065,"DIS_CODE":0,"TOWNNAME":"新市區","LI":"港墘里","LIN":"10鄰","STREET":" ","SECT":" ","MAREA":"崙頂","LANE":" ","ALLEY":" ","HOUSE_NO":"２０之２５號","E_COORD97":178950.95000000001,"N_COORD97":2552553.3900000001,"ADDRESS":"崙頂２０之２５號","OBJECTID":93065},"geometry":{"x":178950.95000000019,"y":2552553.3900000025}},{"attributes":{"ID":93066,"DIS_CODE":0,"TOWNNAME":"新市區","LI":"港墘里","LIN":"10鄰","STREET":" ","SECT":" ","MAREA":"崙頂","LANE":" ","ALLEY":" ","HOUSE_NO":"２０之２８號","E_COORD97":178958.67000000001,"N_COORD97":2552517.2400000002,"ADDRESS":"崙頂２０之２８號","OBJECTID":93066},"geometry":{"x":178958.67000000086,"y":2552517.2400000021}},{"attributes":{"ID":93067,"DIS_CODE":0,"TOWNNAME":"永康區","LI":"\u25A0洲里","LIN":"10鄰","STREET":"\u25A0行路","SECT":" ","MAREA":" ","LANE":"１４６巷","ALLEY":"６弄","HOUSE_NO":"９號","E_COORD97":171437.31,"N_COORD97":2549273.7400000002,"ADDRESS":"\u25A0行路１４６巷６弄９號","OBJECTID":93067},"geometry":{"x":171437.31000000052,"y":2549273.7400000002}},{"attributes":{"ID":93068,"DIS_CODE":0,"TOWNNAME":"永康區","LI":"\u25A0洲里","LIN":"10鄰","STREET":"\u25A0行路","SECT":" ","MAREA":" ","LANE":"１００巷","ALLEY":"４０弄","HOUSE_NO":"８號","E_COORD97":171467.98000000001,"N_COORD97":2549382.4900000002,"ADDRESS":"\u25A0行路１００巷４０弄８號","OBJECTID":93068},"geometry":{"x":171467.98000000045,"y":2549382.4900000021}},{"attributes":{"ID":93069,"DIS_CODE":0,"TOWNNAME":"新市區","LI":"潭頂里","LIN":"10鄰","STREET":" ","SECT":" ","MAREA":"潭頂","LANE":" ","ALLEY":" ","HOUSE_NO":"３４６之３號","E_COORD97":180713.04999999999,"N_COORD97":2552886.4500000002,"ADDRESS":"潭頂３４６之３號","OBJECTID":93069},"geometry":{"x":180713.05000000168,"y":2552886.450000003}},{"attributes":{"ID":93070,"DIS_CODE":0,"TOWNNAME":"永康區","LI":"\u25A0洲里","LIN":"10鄰","STREET":"\u25A0行路","SECT":" ","MAREA":" ","LANE":"１００巷","ALLEY":"６１弄","HOUSE_NO":"５號","E_COORD97":171374.29999999999,"N_COORD97":2549389.1400000001,"ADDRESS":"\u25A0行路１００巷６１弄５號","OBJECTID":93070},"geometry":{"x":171374.30000000168,"y":2549389.1400000025}},{"attributes":{"ID":93071,"DIS_CODE":0,"TOWNNAME":"新市區","LI":"潭頂里","LIN":"10鄰","STREET":" ","SECT":" ","MAREA":"潭頂","LANE":" ","ALLEY":" ","HOUSE_NO":"３５５之２號","E_COORD97":180653.78,"N_COORD97":2552792.0499999998,"ADDRESS":"潭頂３５５之２號","OBJECTID":93071},"geometry":{"x":180653.78000000026,"y":2552792.0499999989}},{"attributes":{"ID":93072,"DIS_CODE":0,"TOWNNAME":"後壁區","LI":"平安里","LIN":"10鄰","STREET":" ","SECT":" ","MAREA":"魚寮","LANE":" ","ALLEY":" ","HOUSE_NO":"１６號","E_COORD97":182410.82999999999,"N_COORD97":2585446.0499999998,"ADDRESS":"魚寮１６號","OBJECTID":93072},"geometry":{"x":182410.83000000101,"y":2585446.0500000026}},{"attributes":{"ID":93073,"DIS_CODE":0,"TOWNNAME":"後壁區","LI":"平安里","LIN":"10鄰","STREET":" ","SECT":" ","MAREA":"魚寮","LANE":" ","ALLEY":" ","HOUSE_NO":"１７號","E_COORD97":182437.70000000001,"N_COORD97":2585401.3300000001,"ADDRESS":"魚寮１７號","OBJECTID":93073},"geometry":{"x":182437.70000000019,"y":2585401.3300000001}},{"attributes":{"ID":93074,"DIS_CODE":0,"TOWNNAME":"後壁區","LI":"平安里","LIN":"10鄰","STREET":" ","SECT":" ","MAREA":"魚寮","LANE":" ","ALLEY":" ","HOUSE_NO":"１８號","E_COORD97":182396.97,"N_COORD97":2585418.7999999998,"ADDRESS":"魚寮１８號","OBJECTID":93074},"geometry":{"x":182396.9700000016,"y":2585418.8000000007}},{"attributes":{"ID":93075,"DIS_CODE":0,"TOWNNAME":"後壁區","LI":"平安里","LIN":"10鄰","STREET":" ","SECT":" ","MAREA":"魚寮","LANE":" ","ALLEY":" ","HOUSE_NO":"１９號之４","E_COORD97":182424.79000000001,"N_COORD97":2585345,"ADDRESS":"魚寮１９號之４","OBJECTID":93075},"geometry":{"x":182424.79000000004,"y":2585345}},{"attributes":{"ID":93076,"DIS_CODE":0,"TOWNNAME":"後壁區","LI":"平安里","LIN":"10鄰","STREET":" ","SECT":" ","MAREA":"魚寮","LANE":" ","ALLEY":" ","HOUSE_NO":"１９號","E_COORD97":182391.60000000001,"N_COORD97":2585391.8700000001,"ADDRESS":"魚寮１９號","OBJECTID":93076},"geometry":{"x":182391.60000000056,"y":2585391.870000001}},{"attributes":{"ID":93077,"DIS_CODE":0,"TOWNNAME":"後壁區","LI":"平安里","LIN":"10鄰","STREET":" ","SECT":" ","MAREA":"魚寮","LANE":" ","ALLEY":" ","HOUSE_NO":"２０號","E_COORD97":182386.75,"N_COORD97":2585368.4300000002,"ADDRESS":"魚寮２０號","OBJECTID":93077},"geometry":{"x":182386.75000000186,"y":2585368.4299999997}},{"attributes":{"ID":93078,"DIS_CODE":0,"TOWNNAME":"後壁區","LI":"平安里","LIN":"10鄰","STREET":" ","SECT":" ","MAREA":"魚寮","LANE":" ","ALLEY":" ","HOUSE_NO":"２１號","E_COORD97":182379.39000000001,"N_COORD97":2585391.0099999998,"ADDRESS":"魚寮２１號","OBJECTID":93078},"geometry":{"x":182379.3900000006,"y":2585391.0100000016}},{"attributes":{"ID":93079,"DIS_CODE":0,"TOWNNAME":"後壁區","LI":"平安里","LIN":"10鄰","STREET":" ","SECT":" ","MAREA":"魚寮","LANE":" ","ALLEY":" ","HOUSE_NO":"２２號","E_COORD97":182360.70000000001,"N_COORD97":2585371.1400000001,"ADDRESS":"魚寮２２號","OBJECTID":93079},"geometry":{"x":182360.70000000112,"y":2585371.1400000025}},{"attributes":{"ID":93080,"DIS_CODE":0,"TOWNNAME":"後壁區","LI":"平安里","LIN":"10鄰","STREET":" ","SECT":" ","MAREA":"魚寮","LANE":" ","ALLEY":" ","HOUSE_NO":"２３之２號","E_COORD97":182292.82999999999,"N_COORD97":2585393.0899999999,"ADDRESS":"魚寮２３之２號","OBJECTID":93080},"geometry":{"x":182292.83000000007,"y":2585393.0900000036}},{"attributes":{"ID":93081,"DIS_CODE":0,"TOWNNAME":"後壁區","LI":"平安里","LIN":"10鄰","STREET":" ","SECT":" ","MAREA":"魚寮","LANE":" ","ALLEY":" ","HOUSE_NO":"２３號之３","E_COORD97":182279.98999999999,"N_COORD97":2585397.4900000002,"ADDRESS":"魚寮２３號之３","OBJECTID":93081},"geometry":{"x":182279.99000000022,"y":2585397.4900000039}},{"attributes":{"ID":93082,"DIS_CODE":0,"TOWNNAME":"後壁區","LI":"平安里","LIN":"10鄰","STREET":" ","SECT":" ","MAREA":"魚寮","LANE":" ","ALLEY":" ","HOUSE_NO":"２３之４號","E_COORD97":182259.84,"N_COORD97":2585390.1699999999,"ADDRESS":"魚寮２３之４號","OBJECTID":93082},"geometry":{"x":182259.83999999985,"y":2585390.1700000018}},{"attributes":{"ID":93083,"DIS_CODE":0,"TOWNNAME":"後壁區","LI":"平安里","LIN":"10鄰","STREET":" ","SECT":" ","MAREA":"魚寮","LANE":" ","ALLEY":" ","HOUSE_NO":"２３號","E_COORD97":182352.56,"N_COORD97":2585396.54,"ADDRESS":"魚寮２３號","OBJECTID":93083},"geometry":{"x":182352.56000000052,"y":2585396.540000001}},{"attributes":{"ID":93084,"DIS_CODE":0,"TOWNNAME":"後壁區","LI":"平安里","LIN":"10鄰","STREET":" ","SECT":" ","MAREA":"魚寮","LANE":" ","ALLEY":" ","HOUSE_NO":"２４號","E_COORD97":182323.38,"N_COORD97":2585392.1400000001,"ADDRESS":"魚寮２４號","OBJECTID":93084},"geometry":{"x":182323.38000000082,"y":2585392.1400000006}},{"attributes":{"ID":93085,"DIS_CODE":0,"TOWNNAME":"後壁區","LI":"平安里","LIN":"10鄰","STREET":" ","SECT":" ","MAREA":"魚寮","LANE":" ","ALLEY":" ","HOUSE_NO":"２５號","E_COORD97":182364.89999999999,"N_COORD97":2585339.5299999998,"ADDRESS":"魚寮２５號","OBJECTID":93085},"geometry":{"x":182364.9000000013,"y":2585339.5300000012}},{"attributes":{"ID":93086,"DIS_CODE":0,"TOWNNAME":"後壁區","LI":"平安里","LIN":"10鄰","STREET":" ","SECT":" ","MAREA":"魚寮","LANE":" ","ALLEY":" ","HOUSE_NO":"２６號之６","E_COORD97":182389.51999999999,"N_COORD97":2585311.9199999999,"ADDRESS":"魚寮２６號之６","OBJECTID":93086},"geometry":{"x":182389.52000000142,"y":2585311.9199999999}},{"attributes":{"ID":93087,"DIS_CODE":0,"TOWNNAME":"後壁區","LI":"平安里","LIN":"10鄰","STREET":" ","SECT":" ","MAREA":"魚寮","LANE":" ","ALLEY":" ","HOUSE_NO":"２６號","E_COORD97":182360.09,"N_COORD97":2585295.3700000001,"ADDRESS":"魚寮２６號","OBJECTID":93087},"geometry":{"x":182360.08999999985,"y":2585295.3700000029}},{"attributes":{"ID":93088,"DIS_CODE":0,"TOWNNAME":"後壁區","LI":"菁寮里","LIN":"10鄰","STREET":" ","SECT":" ","MAREA":"菁寮","LANE":" ","ALLEY":" ","HOUSE_NO":"１１０號之１","E_COORD97":182058,"N_COORD97":2586508.5499999998,"ADDRESS":"菁寮１１０號之１","OBJECTID":93088},"geometry":{"x":182058.00000000186,"y":2586508.5500000007}},{"attributes":{"ID":93089,"DIS_CODE":0,"TOWNNAME":"後壁區","LI":"菁寮里","LIN":"10鄰","STREET":" ","SECT":" ","MAREA":"菁寮","LANE":" ","ALLEY":" ","HOUSE_NO":"１１０號","E_COORD97":182041.29999999999,"N_COORD97":2586531.9900000002,"ADDRESS":"菁寮１１０號","OBJECTID":93089},"geometry":{"x":182041.29999999981,"y":2586531.9900000002}},{"attributes":{"ID":93090,"DIS_CODE":0,"TOWNNAME":"後壁區","LI":"菁寮里","LIN":"10鄰","STREET":" ","SECT":" ","MAREA":"菁寮","LANE":" ","ALLEY":" ","HOUSE_NO":"１１１號","E_COORD97":182044.48000000001,"N_COORD97":2586503.7000000002,"ADDRESS":"菁寮１１１號","OBJECTID":93090},"geometry":{"x":182044.48000000045,"y":2586503.700000003}},{"attributes":{"ID":93091,"DIS_CODE":0,"TOWNNAME":"後壁區","LI":"菁寮里","LIN":"10鄰","STREET":" ","SECT":" ","MAREA":"菁寮","LANE":" ","ALLEY":" ","HOUSE_NO":"１１２號","E_COORD97":182013.84,"N_COORD97":2586496.9900000002,"ADDRESS":"菁寮１１２號","OBJECTID":93091},"geometry":{"x":182013.84000000078,"y":2586496.9900000021}},{"attributes":{"ID":93092,"DIS_CODE":0,"TOWNNAME":"後壁區","LI":"菁寮里","LIN":"10鄰","STREET":" ","SECT":" ","MAREA":"菁寮","LANE":" ","ALLEY":" ","HOUSE_NO":"１１３號","E_COORD97":181982.79999999999,"N_COORD97":2586502.6800000002,"ADDRESS":"菁寮１１３號","OBJECTID":93092},"geometry":{"x":181982.80000000168,"y":2586502.6799999997}},{"attributes":{"ID":93093,"DIS_CODE":0,"TOWNNAME":"後壁區","LI":"菁寮里","LIN":"10鄰","STREET":" ","SECT":" ","MAREA":"菁寮","LANE":" ","ALLEY":" ","HOUSE_NO":"１１４號","E_COORD97":181962.51999999999,"N_COORD97":2586489.7999999998,"ADDRESS":"菁寮１１４號","OBJECTID":93093},"geometry":{"x":181962.52000000048,"y":2586489.8000000007}},{"attributes":{"ID":93094,"DIS_CODE":0,"TOWNNAME":"後壁區","LI":"菁寮里","LIN":"10鄰","STREET":" ","SECT":" ","MAREA":"菁寮","LANE":" ","ALLEY":" ","HOUSE_NO":"１１６號","E_COORD97":181969.70000000001,"N_COORD97":2586443.1000000001,"ADDRESS":"菁寮１１６號","OBJECTID":93094},"geometry":{"x":181969.70000000019,"y":2586443.0999999996}},{"attributes":{"ID":93095,"DIS_CODE":0,"TOWNNAME":"後壁區","LI":"菁寮里","LIN":"10鄰","STREET":" ","SECT":" ","MAREA":"菁寮","LANE":" ","ALLEY":" ","HOUSE_NO":"１２０號之２","E_COORD97":181995.79000000001,"N_COORD97":2586431.75,"ADDRESS":"菁寮１２０號之２","OBJECTID":93095},"geometry":{"x":181995.79000000097,"y":2586431.75}},{"attributes":{"ID":93096,"DIS_CODE":0,"TOWNNAME":"後壁區","LI":"菁寮里","LIN":"10鄰","STREET":" ","SECT":" ","MAREA":"菁寮","LANE":" ","ALLEY":" ","HOUSE_NO":"１２０號","E_COORD97":181977.29000000001,"N_COORD97":2586429.9900000002,"ADDRESS":"菁寮１２０號","OBJECTID":93096},"geometry":{"x":181977.29000000004,"y":2586429.9900000002}},{"attributes":{"ID":93097,"DIS_CODE":0,"TOWNNAME":"後壁區","LI":"墨林里","LIN":"10鄰","STREET":" ","SECT":" ","MAREA":"菁寮","LANE":" ","ALLEY":" ","HOUSE_NO":"２７４號","E_COORD97":182357.07999999999,"N_COORD97":2586426.5099999998,"ADDRESS":"菁寮２７４號","OBJECTID":93097},"geometry":{"x":182357.08000000007,"y":2586426.5099999998}},{"attributes":{"ID":93098,"DIS_CODE":0,"TOWNNAME":"後壁區","LI":"墨林里","LIN":"10鄰","STREET":" ","SECT":" ","MAREA":"菁寮","LANE":" ","ALLEY":" ","HOUSE_NO":"２７５號","E_COORD97":182369.73000000001,"N_COORD97":2586445.6400000001,"ADDRESS":"菁寮２７５號","OBJECTID":93098},"geometry":{"x":182369.73000000045,"y":2586445.6400000025}},{"attributes":{"ID":93099,"DIS_CODE":0,"TOWNNAME":"後壁區","LI":"墨林里","LIN":"10鄰","STREET":" ","SECT":" ","MAREA":"菁寮","LANE":" ","ALLEY":" ","HOUSE_NO":"２７６號","E_COORD97":182373.26999999999,"N_COORD97":2586418.9700000002,"ADDRESS":"菁寮２７６號","OBJECTID":93099},"geometry":{"x":182373.27000000048,"y":2586418.9700000025}},{"attributes":{"ID":93100,"DIS_CODE":0,"TOWNNAME":"永康區","LI":"\u25A0洲里","LIN":"10鄰","STREET":"\u25A0行路","SECT":" ","MAREA":" ","LANE":"１００巷","ALLEY":"４０弄","HOUSE_NO":"１５號","E_COORD97":171470.01999999999,"N_COORD97":2549398.9900000002,"ADDRESS":"\u25A0行路１００巷４０弄１５號","OBJECTID":93100},"geometry":{"x":171470.01999999955,"y":2549398.9900000021}},{"attributes":{"ID":93101,"DIS_CODE":0,"TOWNNAME":"後壁區","LI":"墨林里","LIN":"10鄰","STREET":" ","SECT":" ","MAREA":"菁寮","LANE":" ","ALLEY":" ","HOUSE_NO":"２７８號","E_COORD97":182358.57000000001,"N_COORD97":2586387.2599999998,"ADDRESS":"菁寮２７８號","OBJECTID":93101},"geometry":{"x":182358.57000000123,"y":2586387.2599999998}},{"attributes":{"ID":93102,"DIS_CODE":0,"TOWNNAME":"後壁區","LI":"墨林里","LIN":"10鄰","STREET":" ","SECT":" ","MAREA":"菁寮","LANE":" ","ALLEY":" ","HOUSE_NO":"２８１號","E_COORD97":182381.29999999999,"N_COORD97":2586353.25,"ADDRESS":"菁寮２８１號","OBJECTID":93102},"geometry":{"x":182381.30000000075,"y":2586353.25}},{"attributes":{"ID":93103,"DIS_CODE":0,"TOWNNAME":"安南區","LI":"安和里","LIN":"10鄰","STREET":"安和路","SECT":"一段","MAREA":" ","LANE":"５２巷","ALLEY":"２１弄","HOUSE_NO":"１４號","E_COORD97":169622.48000000001,"N_COORD97":2547565.5299999998,"ADDRESS":"安和路一段５２巷２１弄１４號","OBJECTID":93103},"geometry":{"x":169622.47999999952,"y":2547565.5299999993}},{"attributes":{"ID":93104,"DIS_CODE":0,"TOWNNAME":"後壁區","LI":"墨林里","LIN":"10鄰","STREET":" ","SECT":" ","MAREA":"菁寮","LANE":" ","ALLEY":" ","HOUSE_NO":"２８３號之１","E_COORD97":182486.98000000001,"N_COORD97":2586370.3599999999,"ADDRESS":"菁寮２８３號之１","OBJECTID":93104},"geometry":{"x":182486.98000000045,"y":2586370.3600000031}},{"attributes":{"ID":93105,"DIS_CODE":0,"TOWNNAME":"後壁區","LI":"墨林里","LIN":"10鄰","STREET":" ","SECT":" ","MAREA":"菁寮","LANE":" ","ALLEY":" ","HOUSE_NO":"２８５號之２","E_COORD97":182561.19,"N_COORD97":2586518.4199999999,"ADDRESS":"菁寮２８５號之２","OBJECTID":93105},"geometry":{"x":182561.19000000134,"y":2586518.4199999999}},{"attributes":{"ID":93106,"DIS_CODE":0,"TOWNNAME":"關廟區","LI":"五甲里","LIN":"15鄰","STREET":"東興一街","SECT":" ","MAREA":" ","LANE":" ","ALLEY":" ","HOUSE_NO":"６８號","E_COORD97":181267.17000000001,"N_COORD97":2539470.25,"ADDRESS":"東興一街６８號","OBJECTID":93106},"geometry":{"x":181267.17000000086,"y":2539470.2500000019}},{"attributes":{"ID":93107,"DIS_CODE":0,"TOWNNAME":"後壁區","LI":"墨林里","LIN":"10鄰","STREET":" ","SECT":" ","MAREA":"菁寮","LANE":" ","ALLEY":" ","HOUSE_NO":"２９１號","E_COORD97":182528.39999999999,"N_COORD97":2586366.2200000002,"ADDRESS":"菁寮２９１號","OBJECTID":93107},"geometry":{"x":182528.40000000037,"y":2586366.2200000025}},{"attributes":{"ID":93108,"DIS_CODE":0,"TOWNNAME":"後壁區","LI":"墨林里","LIN":"10鄰","STREET":" ","SECT":" ","MAREA":"菁寮","LANE":" ","ALLEY":" ","HOUSE_NO":"２９３號之１０","E_COORD97":182730.98000000001,"N_COORD97":2586308.2200000002,"ADDRESS":"菁寮２９３號之１０","OBJECTID":93108},"geometry":{"x":182730.98000000045,"y":2586308.2200000044}},{"attributes":{"ID":93109,"DIS_CODE":0,"TOWNNAME":"後壁區","LI":"墨林里","LIN":"10鄰","STREET":" ","SECT":" ","MAREA":"菁寮","LANE":" ","ALLEY":" ","HOUSE_NO":"２９３號之１５","E_COORD97":182772.78,"N_COORD97":2586304.5800000001,"ADDRESS":"菁寮２９３號之１５","OBJECTID":93109},"geometry":{"x":182772.78000000026,"y":2586304.5800000001}},{"attributes":{"ID":93110,"DIS_CODE":0,"TOWNNAME":"後壁區","LI":"墨林里","LIN":"10鄰","STREET":" ","SECT":" ","MAREA":"菁寮","LANE":" ","ALLEY":" ","HOUSE_NO":"２９３號之１８","E_COORD97":182810.22,"N_COORD97":2586295.4500000002,"ADDRESS":"菁寮２９３號之１８","OBJECTID":93110},"geometry":{"x":182810.21999999974,"y":2586295.4500000011}},{"attributes":{"ID":93111,"DIS_CODE":0,"TOWNNAME":"後壁區","LI":"墨林里","LIN":"10鄰","STREET":" ","SECT":" ","MAREA":"菁寮","LANE":" ","ALLEY":" ","HOUSE_NO":"２９３號之１９","E_COORD97":182807.54999999999,"N_COORD97":2586338.5899999999,"ADDRESS":"菁寮２９３號之１９","OBJECTID":93111},"geometry":{"x":182807.54999999981,"y":2586338.589999998}},{"attributes":{"ID":93112,"DIS_CODE":0,"TOWNNAME":"後壁區","LI":"墨林里","LIN":"10鄰","STREET":" ","SECT":" ","MAREA":"菁寮","LANE":" ","ALLEY":" ","HOUSE_NO":"２９３號之２０","E_COORD97":182800.10000000001,"N_COORD97":2586384.4199999999,"ADDRESS":"菁寮２９３號之２０","OBJECTID":93112},"geometry":{"x":182800.10000000056,"y":2586384.4200000018}},{"attributes":{"ID":93113,"DIS_CODE":0,"TOWNNAME":"安南區","LI":"安和里","LIN":"10鄰","STREET":"安和路","SECT":"一段","MAREA":" ","LANE":"５２巷","ALLEY":"２１弄","HOUSE_NO":"３０號","E_COORD97":169619.17999999999,"N_COORD97":2547585.5299999998,"ADDRESS":"安和路一段５２巷２１弄３０號","OBJECTID":93113},"geometry":{"x":169619.18000000063,"y":2547585.5299999993}},{"attributes":{"ID":93114,"DIS_CODE":0,"TOWNNAME":"後壁區","LI":"新東里","LIN":"10鄰","STREET":" ","SECT":" ","MAREA":"新港東","LANE":" ","ALLEY":" ","HOUSE_NO":"１０４號之１","E_COORD97":181654.64000000001,"N_COORD97":2581966.21,"ADDRESS":"新港東１０４號之１","OBJECTID":93114},"geometry":{"x":181654.63999999966,"y":2581966.2100000028}},{"attributes":{"ID":93115,"DIS_CODE":0,"TOWNNAME":"後壁區","LI":"新東里","LIN":"10鄰","STREET":" ","SECT":" ","MAREA":"新港東","LANE":" ","ALLEY":" ","HOUSE_NO":"１０４號之２","E_COORD97":181653.03,"N_COORD97":2581961.8799999999,"ADDRESS":"新港東１０４號之２","OBJECTID":93115},"geometry":{"x":181653.03000000119,"y":2581961.879999999}},{"attributes":{"ID":93116,"DIS_CODE":0,"TOWNNAME":"後壁區","LI":"新東里","LIN":"10鄰","STREET":" ","SECT":" ","MAREA":"新港東","LANE":" ","ALLEY":" ","HOUSE_NO":"１０４號之３","E_COORD97":181651.42000000001,"N_COORD97":2581957.6499999999,"ADDRESS":"新港東１０４號之３","OBJECTID":93116},"geometry":{"x":181651.41999999899,"y":2581957.6500000004}},{"attributes":{"ID":93117,"DIS_CODE":0,"TOWNNAME":"後壁區","LI":"新東里","LIN":"10鄰","STREET":" ","SECT":" ","MAREA":"新港東","LANE":" ","ALLEY":" ","HOUSE_NO":"１０４號之４","E_COORD97":181650.26999999999,"N_COORD97":2581953.48,"ADDRESS":"新港東１０４號之４","OBJECTID":93117},"geometry":{"x":181650.26999999955,"y":2581953.4800000023}},{"attributes":{"ID":93118,"DIS_CODE":0,"TOWNNAME":"後壁區","LI":"新東里","LIN":"10鄰","STREET":" ","SECT":" ","MAREA":"新港東","LANE":" ","ALLEY":" ","HOUSE_NO":"１０４號之５","E_COORD97":181648.26999999999,"N_COORD97":2581949.3700000001,"ADDRESS":"新港東１０４號之５","OBJECTID":93118},"geometry":{"x":181648.26999999955,"y":2581949.370000001}},{"attributes":{"ID":93119,"DIS_CODE":0,"TOWNNAME":"安南區","LI":"安和里","LIN":"10鄰","STREET":"安和路","SECT":"一段","MAREA":" ","LANE":"５２巷","ALLEY":"２１弄","HOUSE_NO":"４０號","E_COORD97":169596.63,"N_COORD97":2547566.79,"ADDRESS":"安和路一段５２巷２１弄４０號","OBJECTID":93119},"geometry":{"x":169596.62999999989,"y":2547566.7899999991}},{"attributes":{"ID":93120,"DIS_CODE":0,"TOWNNAME":"後壁區","LI":"新東里","LIN":"10鄰","STREET":" ","SECT":" ","MAREA":"新港東","LANE":" ","ALLEY":" ","HOUSE_NO":"１０４號之６","E_COORD97":181647.14000000001,"N_COORD97":2581945.4399999999,"ADDRESS":"新港東１０４號之６","OBJECTID":93120},"geometry":{"x":181647.1400000006,"y":2581945.4400000032}},{"attributes":{"ID":93121,"DIS_CODE":0,"TOWNNAME":"後壁區","LI":"新東里","LIN":"10鄰","STREET":" ","SECT":" ","MAREA":"新港東","LANE":" ","ALLEY":" ","HOUSE_NO":"１０４號之７","E_COORD97":181645.51000000001,"N_COORD97":2581941.4100000001,"ADDRESS":"新港東１０４號之７","OBJECTID":93121},"geometry":{"x":181645.50999999978,"y":2581941.4100000001}},{"attributes":{"ID":93122,"DIS_CODE":0,"TOWNNAME":"後壁區","LI":"新東里","LIN":"10鄰","STREET":" ","SECT":" ","MAREA":"新港東","LANE":" ","ALLEY":" ","HOUSE_NO":"１０４號之８","E_COORD97":181644.16,"N_COORD97":2581937.1099999999,"ADDRESS":"新港東１０４號之８","OBJECTID":93122},"geometry":{"x":181644.16000000108,"y":2581937.1099999994}},{"attributes":{"ID":93123,"DIS_CODE":0,"TOWNNAME":"後壁區","LI":"新東里","LIN":"10鄰","STREET":" ","SECT":" ","MAREA":"新港東","LANE":" ","ALLEY":" ","HOUSE_NO":"１０４號","E_COORD97":181675.25,"N_COORD97":2581957.1800000002,"ADDRESS":"新港東１０４號","OBJECTID":93123},"geometry":{"x":181675.25000000093,"y":2581957.1799999997}},{"attributes":{"ID":93124,"DIS_CODE":0,"TOWNNAME":"安南區","LI":"安和里","LIN":"10鄰","STREET":"安和路","SECT":"一段","MAREA":" ","LANE":"５２巷","ALLEY":"２１弄","HOUSE_NO":"２３號","E_COORD97":169571.54000000001,"N_COORD97":2547569.3199999998,"ADDRESS":"安和路一段５２巷２１弄２３號","OBJECTID":93124},"geometry":{"x":169571.54000000097,"y":2547569.3200000022}},{"attributes":{"ID":93125,"DIS_CODE":0,"TOWNNAME":"後壁區","LI":"新東里","LIN":"10鄰","STREET":" ","SECT":" ","MAREA":"新港東","LANE":" ","ALLEY":" ","HOUSE_NO":"１０５號之１","E_COORD97":181689.63,"N_COORD97":2581999.98,"ADDRESS":"新港東１０５號之１","OBJECTID":93125},"geometry":{"x":181689.63000000082,"y":2581999.9800000004}},{"attributes":{"ID":93126,"DIS_CODE":0,"TOWNNAME":"永康區","LI":"網寮里","LIN":"10鄰","STREET":"永二街","SECT":" ","MAREA":" ","LANE":"２４４巷","ALLEY":"８弄","HOUSE_NO":"３５號","E_COORD97":173338.23000000001,"N_COORD97":2546390.3399999999,"ADDRESS":"永二街２４４巷８弄３５號","OBJECTID":93126},"geometry":{"x":173338.23000000045,"y":2546390.3399999999}},{"attributes":{"ID":93127,"DIS_CODE":0,"TOWNNAME":"後壁區","LI":"新東里","LIN":"10鄰","STREET":" ","SECT":" ","MAREA":"新港東","LANE":" ","ALLEY":" ","HOUSE_NO":"１０５號","E_COORD97":181689.57000000001,"N_COORD97":2581987.2200000002,"ADDRESS":"新港東１０５號","OBJECTID":93127},"geometry":{"x":181689.5700000003,"y":2581987.2200000025}},{"attributes":{"ID":93128,"DIS_CODE":0,"TOWNNAME":"後壁區","LI":"新東里","LIN":"10鄰","STREET":" ","SECT":" ","MAREA":"新港東","LANE":" ","ALLEY":" ","HOUSE_NO":"１０６號之１","E_COORD97":181689.85000000001,"N_COORD97":2582048.4199999999,"ADDRESS":"新港東１０６號之１","OBJECTID":93128},"geometry":{"x":181689.84999999963,"y":2582048.4200000018}},{"attributes":{"ID":93129,"DIS_CODE":0,"TOWNNAME":"後壁區","LI":"新東里","LIN":"10鄰","STREET":" ","SECT":" ","MAREA":"新港東","LANE":" ","ALLEY":" ","HOUSE_NO":"１０６號之２","E_COORD97":181659.60000000001,"N_COORD97":2582078.96,"ADDRESS":"新港東１０６號之２","OBJECTID":93129},"geometry":{"x":181659.59999999963,"y":2582078.9600000046}},{"attributes":{"ID":93130,"DIS_CODE":0,"TOWNNAME":"永康區","LI":"網寮里","LIN":"10鄰","STREET":"永二街","SECT":" ","MAREA":" ","LANE":"２４４巷","ALLEY":"８弄","HOUSE_NO":"３７號","E_COORD97":173342.73000000001,"N_COORD97":2546387.3399999999,"ADDRESS":"永二街２４４巷８弄３７號","OBJECTID":93130},"geometry":{"x":173342.73000000045,"y":2546387.3399999999}},{"attributes":{"ID":93131,"DIS_CODE":0,"TOWNNAME":"永康區","LI":"網寮里","LIN":"10鄰","STREET":"永二街","SECT":" ","MAREA":" ","LANE":"２４４巷","ALLEY":"８弄","HOUSE_NO":"４３號","E_COORD97":173356.64000000001,"N_COORD97":2546378.8300000001,"ADDRESS":"永二街２４４巷８弄４３號","OBJECTID":93131},"geometry":{"x":173356.63999999966,"y":2546378.8300000019}},{"attributes":{"ID":93132,"DIS_CODE":0,"TOWNNAME":"永康區","LI":"網寮里","LIN":"10鄰","STREET":"永二街","SECT":" ","MAREA":" ","LANE":"２４４巷","ALLEY":"８弄","HOUSE_NO":"３９號","E_COORD97":173347.23000000001,"N_COORD97":2546384.5899999999,"ADDRESS":"永二街２４４巷８弄３９號","OBJECTID":93132},"geometry":{"x":173347.23000000138,"y":2546384.5900000017}},{"attributes":{"ID":93133,"DIS_CODE":0,"TOWNNAME":"關廟區","LI":"松腳里","LIN":"15鄰","STREET":"和平路","SECT":" ","MAREA":" ","LANE":"１４５巷","ALLEY":" ","HOUSE_NO":"２號","E_COORD97":181655.34,"N_COORD97":2539669.25,"ADDRESS":"和平路１４５巷２號","OBJECTID":93133},"geometry":{"x":181655.34000000171,"y":2539669.2500000037}},{"attributes":{"ID":93134,"DIS_CODE":0,"TOWNNAME":"安平區","LI":"港仔里","LIN":"8鄰","STREET":"安平路","SECT":" ","MAREA":" ","LANE":" ","ALLEY":" ","HOUSE_NO":"１０５號","E_COORD97":164311.48000000001,"N_COORD97":2544481.48,"ADDRESS":"安平路１０５號","OBJECTID":93134},"geometry":{"x":164311.47999999952,"y":2544481.4800000004}},{"attributes":{"ID":93135,"DIS_CODE":0,"TOWNNAME":"安平區","LI":"港仔里","LIN":"8鄰","STREET":"安平路","SECT":" ","MAREA":" ","LANE":" ","ALLEY":" ","HOUSE_NO":"１０７號","E_COORD97":164301.89999999999,"N_COORD97":2544482.6600000001,"ADDRESS":"安平路１０７號","OBJECTID":93135},"geometry":{"x":164301.90000000224,"y":2544482.660000002}},{"attributes":{"ID":93136,"DIS_CODE":0,"TOWNNAME":"安平區","LI":"港仔里","LIN":"8鄰","STREET":"安平路","SECT":" ","MAREA":" ","LANE":" ","ALLEY":" ","HOUSE_NO":"１０９號","E_COORD97":164272.03,"N_COORD97":2544489.3599999999,"ADDRESS":"安平路１０９號","OBJECTID":93136},"geometry":{"x":164272.03000000212,"y":2544489.3600000013}},{"attributes":{"ID":93137,"DIS_CODE":0,"TOWNNAME":"安平區","LI":"港仔里","LIN":"8鄰","STREET":"安平路","SECT":" ","MAREA":" ","LANE":" ","ALLEY":" ","HOUSE_NO":"９９號","E_COORD97":164342.29999999999,"N_COORD97":2544474.71,"ADDRESS":"安平路９９號","OBJECTID":93137},"geometry":{"x":164342.29999999981,"y":2544474.7100000046}},{"attributes":{"ID":93138,"DIS_CODE":0,"TOWNNAME":"安平區","LI":"港仔里","LIN":"8鄰","STREET":"安平路","SECT":" ","MAREA":" ","LANE":" ","ALLEY":" ","HOUSE_NO":"９９號之１１","E_COORD97":164278.89999999999,"N_COORD97":2544412.3300000001,"ADDRESS":"安平路９９號之１１","OBJECTID":93138},"geometry":{"x":164278.9000000013,"y":2544412.3300000019}},{"attributes":{"ID":93139,"DIS_CODE":0,"TOWNNAME":"安平區","LI":"港仔里","LIN":"8鄰","STREET":"安平路","SECT":" ","MAREA":" ","LANE":" ","ALLEY":" ","HOUSE_NO":"９９號之２","E_COORD97":164325.95000000001,"N_COORD97":2544449.6000000001,"ADDRESS":"安平路９９號之２","OBJECTID":93139},"geometry":{"x":164325.95000000019,"y":2544449.5999999996}},{"attributes":{"ID":93140,"DIS_CODE":0,"TOWNNAME":"後壁區","LI":"新東里","LIN":"10鄰","STREET":" ","SECT":" ","MAREA":"新港東","LANE":" ","ALLEY":" ","HOUSE_NO":"１０６號之３","E_COORD97":181694.60000000001,"N_COORD97":2582090.9199999999,"ADDRESS":"新港東１０６號之３","OBJECTID":93140},"geometry":{"x":181694.60000000056,"y":2582090.9199999999}},{"attributes":{"ID":93141,"DIS_CODE":0,"TOWNNAME":"後壁區","LI":"新東里","LIN":"10鄰","STREET":" ","SECT":" ","MAREA":"新港東","LANE":" ","ALLEY":" ","HOUSE_NO":"１０６號之５","E_COORD97":181707.70000000001,"N_COORD97":2582071.54,"ADDRESS":"新港東１０６號之５","OBJECTID":93141},"geometry":{"x":181707.70000000112,"y":2582071.540000001}},{"attributes":{"ID":93142,"DIS_CODE":0,"TOWNNAME":"後壁區","LI":"新東里","LIN":"10鄰","STREET":" ","SECT":" ","MAREA":"新港東","LANE":" ","ALLEY":" ","HOUSE_NO":"１０６號之８","E_COORD97":181669,"N_COORD97":2582091,"ADDRESS":"新港東１０６號之８","OBJECTID":93142},"geometry":{"x":181669,"y":2582091}},{"attributes":{"ID":93143,"DIS_CODE":0,"TOWNNAME":"後壁區","LI":"新東里","LIN":"10鄰","STREET":" ","SECT":" ","MAREA":"新港東","LANE":" ","ALLEY":" ","HOUSE_NO":"１０６號","E_COORD97":181669.73999999999,"N_COORD97":2582007.5800000001,"ADDRESS":"新港東１０６號","OBJECTID":93143},"geometry":{"x":181669.74000000022,"y":2582007.5800000019}},{"attributes":{"ID":93144,"DIS_CODE":0,"TOWNNAME":"後壁區","LI":"新東里","LIN":"10鄰","STREET":" ","SECT":" ","MAREA":"新港東","LANE":" ","ALLEY":" ","HOUSE_NO":"１０７號之１０","E_COORD97":181634.31,"N_COORD97":2581991,"ADDRESS":"新港東１０７號之１０","OBJECTID":93144},"geometry":{"x":181634.30999999959,"y":2581991.0000000019}},{"attributes":{"ID":93145,"DIS_CODE":0,"TOWNNAME":"後壁區","LI":"新東里","LIN":"10鄰","STREET":" ","SECT":" ","MAREA":"新港東","LANE":" ","ALLEY":" ","HOUSE_NO":"１０７號之１","E_COORD97":181649.91,"N_COORD97":2582044.7000000002,"ADDRESS":"新港東１０７號之１","OBJECTID":93145},"geometry":{"x":181649.91000000015,"y":2582044.6999999993}},{"attributes":{"ID":93146,"DIS_CODE":0,"TOWNNAME":"後壁區","LI":"新東里","LIN":"10鄰","STREET":" ","SECT":" ","MAREA":"新港東","LANE":" ","ALLEY":" ","HOUSE_NO":"１０７號之２","E_COORD97":181656.67999999999,"N_COORD97":2582055.4199999999,"ADDRESS":"新港東１０７號之２","OBJECTID":93146},"geometry":{"x":181656.68000000063,"y":2582055.4200000018}},{"attributes":{"ID":93147,"DIS_CODE":0,"TOWNNAME":"後壁區","LI":"新東里","LIN":"10鄰","STREET":" ","SECT":" ","MAREA":"新港東","LANE":" ","ALLEY":" ","HOUSE_NO":"１０７號之３","E_COORD97":181642.42999999999,"N_COORD97":2582104.6299999999,"ADDRESS":"新港東１０７號之３","OBJECTID":93147},"geometry":{"x":181642.4299999997,"y":2582104.6300000008}},{"attributes":{"ID":93148,"DIS_CODE":0,"TOWNNAME":"後壁區","LI":"新東里","LIN":"10鄰","STREET":" ","SECT":" ","MAREA":"新港東","LANE":" ","ALLEY":" ","HOUSE_NO":"１０７號之７","E_COORD97":181636.57999999999,"N_COORD97":2582074.1800000002,"ADDRESS":"新港東１０７號之７","OBJECTID":93148},"geometry":{"x":181636.58000000007,"y":2582074.1800000016}},{"attributes":{"ID":93149,"DIS_CODE":0,"TOWNNAME":"後壁區","LI":"新東里","LIN":"10鄰","STREET":" ","SECT":" ","MAREA":"新港東","LANE":" ","ALLEY":" ","HOUSE_NO":"１０７號之８","E_COORD97":181637.79000000001,"N_COORD97":2582045.8900000001,"ADDRESS":"新港東１０７號之８","OBJECTID":93149},"geometry":{"x":181637.79000000097,"y":2582045.8900000025}},{"attributes":{"ID":93150,"DIS_CODE":0,"TOWNNAME":"後壁區","LI":"新東里","LIN":"10鄰","STREET":" ","SECT":" ","MAREA":"新港東","LANE":" ","ALLEY":" ","HOUSE_NO":"１０７號","E_COORD97":181641.29000000001,"N_COORD97":2581996.6499999999,"ADDRESS":"新港東１０７號","OBJECTID":93150},"geometry":{"x":181641.29000000097,"y":2581996.6500000022}},{"attributes":{"ID":93151,"DIS_CODE":0,"TOWNNAME":"後壁區","LI":"新東里","LIN":"10鄰","STREET":" ","SECT":" ","MAREA":"新港東","LANE":" ","ALLEY":" ","HOUSE_NO":"１０８號","E_COORD97":181630,"N_COORD97":2581957.7400000002,"ADDRESS":"新港東１０８號","OBJECTID":93151},"geometry":{"x":181630,"y":2581957.7400000039}},{"attributes":{"ID":93152,"DIS_CODE":0,"TOWNNAME":"後壁區","LI":"新東里","LIN":"10鄰","STREET":" ","SECT":" ","MAREA":"新港東","LANE":" ","ALLEY":" ","HOUSE_NO":"１０９號","E_COORD97":181595.54999999999,"N_COORD97":2581972.4900000002,"ADDRESS":"新港東１０９號","OBJECTID":93152},"geometry":{"x":181595.54999999981,"y":2581972.4900000002}},{"attributes":{"ID":93153,"DIS_CODE":0,"TOWNNAME":"後壁區","LI":"新東里","LIN":"10鄰","STREET":" ","SECT":" ","MAREA":"新港東","LANE":" ","ALLEY":" ","HOUSE_NO":"１１０號","E_COORD97":181603.75,"N_COORD97":2581990.52,"ADDRESS":"新港東１１０號","OBJECTID":93153},"geometry":{"x":181603.75000000093,"y":2581990.5200000014}},{"attributes":{"ID":93154,"DIS_CODE":0,"TOWNNAME":"永康區","LI":"\u25A0行里","LIN":"10鄰","STREET":"中正路","SECT":" ","MAREA":" ","LANE":"４９５巷","ALLEY":"３弄","HOUSE_NO":"２號","E_COORD97":172199.89999999999,"N_COORD97":2548597.71,"ADDRESS":"中正路４９５巷３弄２號","OBJECTID":93154},"geometry":{"x":172199.90000000224,"y":2548597.7100000028}},{"attributes":{"ID":93155,"DIS_CODE":0,"TOWNNAME":"永康區","LI":"\u25A0行里","LIN":"10鄰","STREET":"中正路","SECT":" ","MAREA":" ","LANE":"４９５巷","ALLEY":"２弄","HOUSE_NO":"９號","E_COORD97":172187.10000000001,"N_COORD97":2548625.8900000001,"ADDRESS":"中正路４９５巷２弄９號","OBJECTID":93155},"geometry":{"x":172187.09999999963,"y":2548625.8900000006}},{"attributes":{"ID":93156,"DIS_CODE":0,"TOWNNAME":"永康區","LI":"\u25A0行里","LIN":"10鄰","STREET":"中正路","SECT":" ","MAREA":" ","LANE":"４９５巷","ALLEY":"１弄","HOUSE_NO":"４號","E_COORD97":172225.62,"N_COORD97":2548611.4500000002,"ADDRESS":"中正路４９５巷１弄４號","OBJECTID":93156},"geometry":{"x":172225.62000000104,"y":2548611.4500000011}},{"attributes":{"ID":93157,"DIS_CODE":0,"TOWNNAME":"永康區","LI":"\u25A0行里","LIN":"10鄰","STREET":"中正路","SECT":" ","MAREA":" ","LANE":"４９５巷","ALLEY":"３弄","HOUSE_NO":"７號","E_COORD97":172218.53,"N_COORD97":2548588.4900000002,"ADDRESS":"中正路４９５巷３弄７號","OBJECTID":93157},"geometry":{"x":172218.53000000026,"y":2548588.4900000021}},{"attributes":{"ID":93158,"DIS_CODE":0,"TOWNNAME":"永康區","LI":"\u25A0行里","LIN":"10鄰","STREET":"中正路","SECT":" ","MAREA":" ","LANE":"４９５巷","ALLEY":"２弄","HOUSE_NO":"７號","E_COORD97":172189.89999999999,"N_COORD97":2548622.3900000001,"ADDRESS":"中正路４９５巷２弄７號","OBJECTID":93158},"geometry":{"x":172189.9000000013,"y":2548622.3900000006}},{"attributes":{"ID":93159,"DIS_CODE":0,"TOWNNAME":"永康區","LI":"\u25A0行里","LIN":"10鄰","STREET":"中正路","SECT":" ","MAREA":" ","LANE":"４９５巷","ALLEY":"２弄","HOUSE_NO":"２號","E_COORD97":172209.10000000001,"N_COORD97":2548619.4900000002,"ADDRESS":"中正路４９５巷２弄２號","OBJECTID":93159},"geometry":{"x":172209.09999999963,"y":2548619.4900000021}},{"attributes":{"ID":93160,"DIS_CODE":0,"TOWNNAME":"永康區","LI":"\u25A0行里","LIN":"10鄰","STREET":"中正路","SECT":" ","MAREA":" ","LANE":"４９５巷","ALLEY":"１弄","HOUSE_NO":"１０號","E_COORD97":172235.87,"N_COORD97":2548595.7000000002,"ADDRESS":"中正路４９５巷１弄１０號","OBJECTID":93160},"geometry":{"x":172235.87000000104,"y":2548595.700000003}},{"attributes":{"ID":93161,"DIS_CODE":0,"TOWNNAME":"下營區","LI":"大屯里","LIN":"10鄰","STREET":" ","SECT":" ","MAREA":"大屯寮","LANE":" ","ALLEY":" ","HOUSE_NO":"８４號","E_COORD97":172155.63,"N_COORD97":2570639.4399999999,"ADDRESS":"大屯寮８４號","OBJECTID":93161},"geometry":{"x":172155.63000000082,"y":2570639.4400000013}},{"attributes":{"ID":93162,"DIS_CODE":0,"TOWNNAME":"永康區","LI":"\u25A0行里","LIN":"10鄰","STREET":"中正路","SECT":" ","MAREA":" ","LANE":"４９５巷","ALLEY":"１弄","HOUSE_NO":"５號","E_COORD97":172249.51000000001,"N_COORD97":2548597.0499999998,"ADDRESS":"中正路４９５巷１弄５號","OBJECTID":93162},"geometry":{"x":172249.51000000071,"y":2548597.0500000007}},{"attributes":{"ID":93163,"DIS_CODE":0,"TOWNNAME":"永康區","LI":"\u25A0行里","LIN":"10鄰","STREET":"中正路","SECT":" ","MAREA":" ","LANE":"４９５巷","ALLEY":"２弄","HOUSE_NO":"２０號","E_COORD97":172190.85000000001,"N_COORD97":2548643.48,"ADDRESS":"中正路４９５巷２弄２０號","OBJECTID":93163},"geometry":{"x":172190.85000000149,"y":2548643.4800000023}},{"attributes":{"ID":93164,"DIS_CODE":0,"TOWNNAME":"永康區","LI":"\u25A0行里","LIN":"10鄰","STREET":"中正路","SECT":" ","MAREA":" ","LANE":"４９５巷","ALLEY":"２弄","HOUSE_NO":"１２號","E_COORD97":172199.79000000001,"N_COORD97":2548632.23,"ADDRESS":"中正路４９５巷２弄１２號","OBJECTID":93164},"geometry":{"x":172199.79000000004,"y":2548632.2300000023}},{"attributes":{"ID":93165,"DIS_CODE":0,"TOWNNAME":"永康區","LI":"\u25A0行里","LIN":"10鄰","STREET":"中正路","SECT":" ","MAREA":" ","LANE":"４９５巷","ALLEY":"３弄","HOUSE_NO":"１０號","E_COORD97":172212.98999999999,"N_COORD97":2548576.2000000002,"ADDRESS":"中正路４９５巷３弄１０號","OBJECTID":93165},"geometry":{"x":172212.99000000115,"y":2548576.2000000011}},{"attributes":{"ID":93166,"DIS_CODE":0,"TOWNNAME":"永康區","LI":"\u25A0行里","LIN":"10鄰","STREET":"中正路","SECT":" ","MAREA":" ","LANE":"４９５巷","ALLEY":"２弄","HOUSE_NO":"１７號","E_COORD97":172177.64999999999,"N_COORD97":2548640.3799999999,"ADDRESS":"中正路４９５巷２弄１７號","OBJECTID":93166},"geometry":{"x":172177.64999999944,"y":2548640.379999999}},{"attributes":{"ID":93167,"DIS_CODE":0,"TOWNNAME":"永康區","LI":"\u25A0行里","LIN":"10鄰","STREET":"中正路","SECT":" ","MAREA":" ","LANE":"４９５巷","ALLEY":"３弄","HOUSE_NO":"５號","E_COORD97":172217.20999999999,"N_COORD97":2548594,"ADDRESS":"中正路４９５巷３弄５號","OBJECTID":93167},"geometry":{"x":172217.20999999996,"y":2548594}},{"attributes":{"ID":93168,"DIS_CODE":0,"TOWNNAME":"永康區","LI":"\u25A0行里","LIN":"10鄰","STREET":"中正路","SECT":" ","MAREA":" ","LANE":"４９５巷","ALLEY":"３弄","HOUSE_NO":"１號","E_COORD97":172209.92999999999,"N_COORD97":2548604.5,"ADDRESS":"中正路４９５巷３弄１號","OBJECTID":93168},"geometry":{"x":172209.9299999997,"y":2548604.4999999981}},{"attributes":{"ID":93169,"DIS_CODE":0,"TOWNNAME":"永康區","LI":"\u25A0行里","LIN":"10鄰","STREET":"中正路","SECT":" ","MAREA":" ","LANE":"４９５巷","ALLEY":"１弄","HOUSE_NO":"１號","E_COORD97":172243.20999999999,"N_COORD97":2548608.5499999998,"ADDRESS":"中正路４９５巷１弄１號","OBJECTID":93169},"geometry":{"x":172243.21000000089,"y":2548608.5500000045}},{"attributes":{"ID":93170,"DIS_CODE":0,"TOWNNAME":"關廟區","LI":"東勢里","LIN":"15鄰","STREET":"東興路","SECT":" ","MAREA":" ","LANE":"１６９巷","ALLEY":" ","HOUSE_NO":"１號","E_COORD97":181596.67000000001,"N_COORD97":2539595.25,"ADDRESS":"東興路１６９巷１號","OBJECTID":93170},"geometry":{"x":181596.66999999993,"y":2539595.2500000019}},{"attributes":{"ID":93171,"DIS_CODE":0,"TOWNNAME":"安平區","LI":"港仔里","LIN":"8鄰","STREET":"安平路","SECT":" ","MAREA":" ","LANE":" ","ALLEY":" ","HOUSE_NO":"９９號之３","E_COORD97":164320.45999999999,"N_COORD97":2544446.7400000002,"ADDRESS":"安平路９９號之３","OBJECTID":93171},"geometry":{"x":164320.46000000089,"y":2544446.7400000039}},{"attributes":{"ID":93172,"DIS_CODE":0,"TOWNNAME":"新營區","LI":"民榮里","LIN":" ","STREET":"和平路","SECT":" ","MAREA":" ","LANE":" ","ALLEY":" ","HOUSE_NO":"３８之１號","E_COORD97":179407.42999999999,"N_COORD97":2577779.3300000001,"ADDRESS":"和平路３８之１號","OBJECTID":93172},"geometry":{"x":179407.43000000063,"y":2577779.3300000001}},{"attributes":{"ID":93173,"DIS_CODE":0,"TOWNNAME":"安平區","LI":"港仔里","LIN":"8鄰","STREET":"安平路","SECT":" ","MAREA":" ","LANE":" ","ALLEY":" ","HOUSE_NO":"９９號之４","E_COORD97":164315.32999999999,"N_COORD97":2544444.2400000002,"ADDRESS":"安平路９９號之４","OBJECTID":93173},"geometry":{"x":164315.33000000007,"y":2544444.2400000021}},{"attributes":{"ID":93174,"DIS_CODE":0,"TOWNNAME":"永康區","LI":"\u25A0行里","LIN":"10鄰","STREET":"中正路","SECT":" ","MAREA":" ","LANE":"４９５巷","ALLEY":"１弄","HOUSE_NO":"３號","E_COORD97":172245.64999999999,"N_COORD97":2548603.0499999998,"ADDRESS":"中正路４９５巷１弄３號","OBJECTID":93174},"geometry":{"x":172245.65000000224,"y":2548603.0500000026}},{"attributes":{"ID":93175,"DIS_CODE":0,"TOWNNAME":"永康區","LI":"\u25A0行里","LIN":"10鄰","STREET":"中正路","SECT":" ","MAREA":" ","LANE":"４９５巷","ALLEY":"２弄","HOUSE_NO":"１０號","E_COORD97":172202.54999999999,"N_COORD97":2548629.2400000002,"ADDRESS":"中正路４９５巷２弄１０號","OBJECTID":93175},"geometry":{"x":172202.54999999981,"y":2548629.2400000002}},{"attributes":{"ID":93176,"DIS_CODE":0,"TOWNNAME":"永康區","LI":"\u25A0行里","LIN":"10鄰","STREET":"中正路","SECT":" ","MAREA":" ","LANE":"４９５巷","ALLEY":"１弄","HOUSE_NO":"２號","E_COORD97":172224.66,"N_COORD97":2548615.7000000002,"ADDRESS":"中正路４９５巷１弄２號","OBJECTID":93176},"geometry":{"x":172224.66000000015,"y":2548615.6999999993}},{"attributes":{"ID":93177,"DIS_CODE":0,"TOWNNAME":"永康區","LI":"\u25A0行里","LIN":"10鄰","STREET":"中正路","SECT":" ","MAREA":" ","LANE":"４９５巷","ALLEY":"２弄","HOUSE_NO":"６號","E_COORD97":172206.45000000001,"N_COORD97":2548622.9900000002,"ADDRESS":"中正路４９５巷２弄６號","OBJECTID":93177},"geometry":{"x":172206.45000000112,"y":2548622.9900000021}},{"attributes":{"ID":93178,"DIS_CODE":0,"TOWNNAME":"永康區","LI":"\u25A0行里","LIN":"10鄰","STREET":"中正路","SECT":" ","MAREA":" ","LANE":"４９５巷","ALLEY":"２弄","HOUSE_NO":"１６號","E_COORD97":172197.14999999999,"N_COORD97":2548635.73,"ADDRESS":"中正路４９５巷２弄１６號","OBJECTID":93178},"geometry":{"x":172197.1500000013,"y":2548635.7300000023}},{"attributes":{"ID":93179,"DIS_CODE":0,"TOWNNAME":"永康區","LI":"\u25A0行里","LIN":"10鄰","STREET":"中正路","SECT":" ","MAREA":" ","LANE":"４９５巷","ALLEY":"３弄","HOUSE_NO":"９號","E_COORD97":172221.70999999999,"N_COORD97":2548581.1600000001,"ADDRESS":"中正路４９５巷３弄９號","OBJECTID":93179},"geometry":{"x":172221.71000000089,"y":2548581.160000002}},{"attributes":{"ID":93180,"DIS_CODE":0,"TOWNNAME":"永康區","LI":"\u25A0行里","LIN":"10鄰","STREET":"中正路","SECT":" ","MAREA":" ","LANE":"４９５巷","ALLEY":"２弄","HOUSE_NO":"１號","E_COORD97":172197.89999999999,"N_COORD97":2548611.6400000001,"ADDRESS":"中正路４９５巷２弄１號","OBJECTID":93180},"geometry":{"x":172197.90000000037,"y":2548611.6400000025}},{"attributes":{"ID":93181,"DIS_CODE":0,"TOWNNAME":"北區","LI":"玉皇里","LIN":"15鄰","STREET":"佑民街","SECT":" ","MAREA":" ","LANE":" ","ALLEY":" ","HOUSE_NO":"２０號","E_COORD97":168613.29000000001,"N_COORD97":2544401.0899999999,"ADDRESS":"佑民街２０號","OBJECTID":93181},"geometry":{"x":168613.29000000097,"y":2544401.0900000017}},{"attributes":{"ID":93182,"DIS_CODE":0,"TOWNNAME":"後壁區","LI":"新東里","LIN":"10鄰","STREET":" ","SECT":" ","MAREA":"新港東","LANE":" ","ALLEY":" ","HOUSE_NO":"１１１號之２","E_COORD97":181625.07999999999,"N_COORD97":2582015.6200000001,"ADDRESS":"新港東１１１號之２","OBJECTID":93182},"geometry":{"x":181625.07999999914,"y":2582015.620000001}},{"attributes":{"ID":93183,"DIS_CODE":0,"TOWNNAME":"後壁區","LI":"新東里","LIN":"10鄰","STREET":" ","SECT":" ","MAREA":"新港東","LANE":" ","ALLEY":" ","HOUSE_NO":"１１１號之３","E_COORD97":181620.84,"N_COORD97":2582017.48,"ADDRESS":"新港東１１１號之３","OBJECTID":93183},"geometry":{"x":181620.83999999985,"y":2582017.4800000042}},{"attributes":{"ID":93184,"DIS_CODE":0,"TOWNNAME":"後壁區","LI":"新東里","LIN":"10鄰","STREET":" ","SECT":" ","MAREA":"新港東","LANE":" ","ALLEY":" ","HOUSE_NO":"１１１號之５","E_COORD97":181610.17999999999,"N_COORD97":2582012.3999999999,"ADDRESS":"新港東１１１號之５","OBJECTID":93184},"geometry":{"x":181610.1799999997,"y":2582012.4000000022}},{"attributes":{"ID":93185,"DIS_CODE":0,"TOWNNAME":"後壁區","LI":"新東里","LIN":"10鄰","STREET":" ","SECT":" ","MAREA":"新港東","LANE":" ","ALLEY":" ","HOUSE_NO":"１１１號之６","E_COORD97":181607.35999999999,"N_COORD97":2582021.7400000002,"ADDRESS":"新港東１１１號之６","OBJECTID":93185},"geometry":{"x":181607.36000000127,"y":2582021.7400000002}},{"attributes":{"ID":93186,"DIS_CODE":0,"TOWNNAME":"後壁區","LI":"新東里","LIN":"10鄰","STREET":" ","SECT":" ","MAREA":"新港東","LANE":" ","ALLEY":" ","HOUSE_NO":"１１２號之３","E_COORD97":181583.57000000001,"N_COORD97":2582015.6699999999,"ADDRESS":"新港東１１２號之３","OBJECTID":93186},"geometry":{"x":181583.57000000123,"y":2582015.6700000037}},{"attributes":{"ID":93187,"DIS_CODE":0,"TOWNNAME":"後壁區","LI":"新東里","LIN":"10鄰","STREET":" ","SECT":" ","MAREA":"新港東","LANE":" ","ALLEY":" ","HOUSE_NO":"１１２號","E_COORD97":181572.97,"N_COORD97":2582028.5499999998,"ADDRESS":"新港東１１２號","OBJECTID":93187},"geometry":{"x":181572.9700000016,"y":2582028.5500000026}},{"attributes":{"ID":93188,"DIS_CODE":0,"TOWNNAME":"後壁區","LI":"新東里","LIN":"10鄰","STREET":" ","SECT":" ","MAREA":"新港東","LANE":" ","ALLEY":" ","HOUSE_NO":"１１３號之１","E_COORD97":181561.5,"N_COORD97":2582006.0299999998,"ADDRESS":"新港東１１３號之１","OBJECTID":93188},"geometry":{"x":181561.50000000093,"y":2582006.0300000012}},{"attributes":{"ID":93189,"DIS_CODE":0,"TOWNNAME":"後壁區","LI":"新東里","LIN":"10鄰","STREET":" ","SECT":" ","MAREA":"新港東","LANE":" ","ALLEY":" ","HOUSE_NO":"１１３號之２","E_COORD97":181575.79999999999,"N_COORD97":2581984.73,"ADDRESS":"新港東１１３號之２","OBJECTID":93189},"geometry":{"x":181575.79999999981,"y":2581984.7300000004}},{"attributes":{"ID":93190,"DIS_CODE":0,"TOWNNAME":"新化區","LI":"山\u25A0里","LIN":"10鄰","STREET":" ","SECT":" ","MAREA":"五甲勢","LANE":" ","ALLEY":" ","HOUSE_NO":"２６號之１","E_COORD97":181942.41,"N_COORD97":2545815.2599999998,"ADDRESS":"五甲勢２６號之１","OBJECTID":93190},"geometry":{"x":181942.41000000108,"y":2545815.2599999998}},{"attributes":{"ID":93191,"DIS_CODE":0,"TOWNNAME":"新化區","LI":"山\u25A0里","LIN":"10鄰","STREET":" ","SECT":" ","MAREA":"五甲勢","LANE":" ","ALLEY":" ","HOUSE_NO":"４７號","E_COORD97":181880.07999999999,"N_COORD97":2545582.2599999998,"ADDRESS":"五甲勢４７號","OBJECTID":93191},"geometry":{"x":181880.08000000101,"y":2545582.2600000016}},{"attributes":{"ID":93192,"DIS_CODE":0,"TOWNNAME":"新化區","LI":"\u25A0拔里","LIN":"10鄰","STREET":" ","SECT":" ","MAREA":"牧場","LANE":" ","ALLEY":" ","HOUSE_NO":"９０號之１","E_COORD97":181954.85999999999,"N_COORD97":2551253.2599999998,"ADDRESS":"牧場９０號之１","OBJECTID":93192},"geometry":{"x":181954.86000000127,"y":2551253.2599999998}},{"attributes":{"ID":93193,"DIS_CODE":0,"TOWNNAME":"新化區","LI":"全興里","LIN":"10鄰","STREET":" ","SECT":" ","MAREA":"竹子\u25A0","LANE":" ","ALLEY":" ","HOUSE_NO":"１５９號之２０","E_COORD97":177286.42000000001,"N_COORD97":2547583.2599999998,"ADDRESS":"竹子\u25A0１５９號之２０","OBJECTID":93193},"geometry":{"x":177286.42000000179,"y":2547583.2600000016}},{"attributes":{"ID":93194,"DIS_CODE":0,"TOWNNAME":"新化區","LI":"唪口里","LIN":"10鄰","STREET":" ","SECT":" ","MAREA":"唪口","LANE":" ","ALLEY":" ","HOUSE_NO":"１５１號之３","E_COORD97":177626.59,"N_COORD97":2548977.2599999998,"ADDRESS":"唪口１５１號之３","OBJECTID":93194},"geometry":{"x":177626.59000000078,"y":2548977.2600000016}},{"attributes":{"ID":93195,"DIS_CODE":0,"TOWNNAME":"新化區","LI":"唪口里","LIN":"10鄰","STREET":" ","SECT":" ","MAREA":"唪口","LANE":" ","ALLEY":" ","HOUSE_NO":"１５１號之７","E_COORD97":177623.09,"N_COORD97":2548994.2599999998,"ADDRESS":"唪口１５１號之７","OBJECTID":93195},"geometry":{"x":177623.09000000078,"y":2548994.2599999998}},{"attributes":{"ID":93196,"DIS_CODE":0,"TOWNNAME":"下營區","LI":"甲中里","LIN":"10鄰","STREET":" ","SECT":" ","MAREA":"十六甲","LANE":" ","ALLEY":" ","HOUSE_NO":"１號之８","E_COORD97":175604.81,"N_COORD97":2572158.54,"ADDRESS":"十六甲１號之８","OBJECTID":93196},"geometry":{"x":175604.80999999959,"y":2572158.5399999991}},{"attributes":{"ID":93197,"DIS_CODE":0,"TOWNNAME":"下營區","LI":"甲中里","LIN":"10鄰","STREET":" ","SECT":" ","MAREA":"十六甲","LANE":" ","ALLEY":" ","HOUSE_NO":"１號","E_COORD97":175684.51000000001,"N_COORD97":2572169.0299999998,"ADDRESS":"十六甲１號","OBJECTID":93197},"geometry":{"x":175684.51000000071,"y":2572169.0299999993}},{"attributes":{"ID":93198,"DIS_CODE":0,"TOWNNAME":"下營區","LI":"甲中里","LIN":"10鄰","STREET":" ","SECT":" ","MAREA":"十六甲","LANE":" ","ALLEY":" ","HOUSE_NO":"２號之１","E_COORD97":175680.48999999999,"N_COORD97":2572196.0099999998,"ADDRESS":"十六甲２號之１","OBJECTID":93198},"geometry":{"x":175680.49000000022,"y":2572196.0100000016}},{"attributes":{"ID":93199,"DIS_CODE":0,"TOWNNAME":"下營區","LI":"甲中里","LIN":"10鄰","STREET":" ","SECT":" ","MAREA":"十六甲","LANE":" ","ALLEY":" ","HOUSE_NO":"２號","E_COORD97":175684.20999999999,"N_COORD97":2572214.46,"ADDRESS":"十六甲２號","OBJECTID":93199},"geometry":{"x":175684.21000000183,"y":2572214.4600000028}},{"attributes":{"ID":93200,"DIS_CODE":0,"TOWNNAME":"下營區","LI":"甲中里","LIN":"10鄰","STREET":" ","SECT":" ","MAREA":"十六甲","LANE":" ","ALLEY":" ","HOUSE_NO":"３號","E_COORD97":175666.75,"N_COORD97":2572223.79,"ADDRESS":"十六甲３號","OBJECTID":93200},"geometry":{"x":175666.75,"y":2572223.790000001}}]}