{"displayFieldName":"TOWNNAME","fieldAliases":{"ID":"ID","DIS_CODE":"DIS_CODE","TOWNNAME":"TOWNNAME","LI":"LI","LIN":"LIN","STREET":"STREET","SECT":"SECT","MAREA":"MAREA","LANE":"LANE","ALLEY":"ALLEY","HOUSE_NO":"HOUSE_NO","E_COORD97":"E_COORD97","N_COORD97":"N_COORD97","ADDRESS":"ADDRESS","OBJECTID":"OBJECTID"},"geometryType":"esriGeometryPoint","spatialReference":{"wkid":102443,"latestWkid":3826},"fields":[{"name":"ID","type":"esriFieldTypeDouble","alias":"ID"},{"name":"DIS_CODE","type":"esriFieldTypeInteger","alias":"DIS_CODE"},{"name":"TOWNNAME","type":"esriFieldTypeString","alias":"TOWNNAME","length":8},{"name":"LI","type":"esriFieldTypeString","alias":"LI","length":8},{"name":"LIN","type":"esriFieldTypeString","alias":"LIN","length":12},{"name":"STREET","type":"esriFieldTypeString","alias":"STREET","length":20},{"name":"SECT","type":"esriFieldTypeString","alias":"SECT","length":8},{"name":"MAREA","type":"esriFieldTypeString","alias":"MAREA","length":12},{"name":"LANE","type":"esriFieldTypeString","alias":"LANE","length":10},{"name":"ALLEY","type":"esriFieldTypeString","alias":"ALLEY","length":10},{"name":"HOUSE_NO","type":"esriFieldTypeString","alias":"HOUSE_NO","length":20},{"name":"E_COORD97","type":"esriFieldTypeDouble","alias":"E_COORD97"},{"name":"N_COORD97","type":"esriFieldTypeDouble","alias":"N_COORD97"},{"name":"ADDRESS","type":"esriFieldTypeString","alias":"ADDRESS","length":50},{"name":"OBJECTID","type":"esriFieldTypeOID","alias":"OBJECTID"}],"features":[{"attributes":{"ID":267806,"DIS_CODE":0,"TOWNNAME":"安南區","LI":"東和里","LIN":"7鄰","STREET":"環館三路","SECT":" ","MAREA":" ","LANE":"１３巷","ALLEY":" ","HOUSE_NO":"２５號","E_COORD97":171462.775119,"N_COORD97":2551573.3737400002,"ADDRESS":"環館三路１３巷２５號","OBJECTID":267801},"geometry":{"x":171462.77511900011,"y":2551573.3737420011}},{"attributes":{"ID":267807,"DIS_CODE":0,"TOWNNAME":"安南區","LI":"東和里","LIN":"7鄰","STREET":"環館三路","SECT":" ","MAREA":" ","LANE":"１３巷","ALLEY":" ","HOUSE_NO":"２１號","E_COORD97":171478.66291300001,"N_COORD97":2551575.9137400002,"ADDRESS":"環館三路１３巷２１號","OBJECTID":267802},"geometry":{"x":171478.66291300114,"y":2551575.913741}},{"attributes":{"ID":267808,"DIS_CODE":0,"TOWNNAME":"安南區","LI":"東和里","LIN":"7鄰","STREET":"環館三路","SECT":" ","MAREA":" ","LANE":"１３巷","ALLEY":" ","HOUSE_NO":"１９號","E_COORD97":171484.806193,"N_COORD97":2551578.2420700002,"ADDRESS":"環館三路１３巷１９號","OBJECTID":267803},"geometry":{"x":171484.80619299971,"y":2551578.2420730032}},{"attributes":{"ID":267809,"DIS_CODE":0,"TOWNNAME":"安南區","LI":"東和里","LIN":"7鄰","STREET":"環館三路","SECT":" ","MAREA":" ","LANE":"１３巷","ALLEY":" ","HOUSE_NO":"１７號","E_COORD97":171491.796822,"N_COORD97":2551579.5120700002,"ADDRESS":"環館三路１３巷１７號","OBJECTID":267804},"geometry":{"x":171491.79682200216,"y":2551579.5120720025}},{"attributes":{"ID":267810,"DIS_CODE":0,"TOWNNAME":"安南區","LI":"東和里","LIN":"7鄰","STREET":"環館三路","SECT":" ","MAREA":" ","LANE":"１３巷","ALLEY":" ","HOUSE_NO":"１５號","E_COORD97":171497.72826500001,"N_COORD97":2551580.1470699999,"ADDRESS":"環館三路１３巷１５號","OBJECTID":267805},"geometry":{"x":171497.72826500051,"y":2551580.1470720023}},{"attributes":{"ID":267811,"DIS_CODE":0,"TOWNNAME":"安南區","LI":"東和里","LIN":"7鄰","STREET":"環館三路","SECT":" ","MAREA":" ","LANE":"１３巷","ALLEY":" ","HOUSE_NO":"１３號","E_COORD97":171504.08338200001,"N_COORD97":2551582.0520700002,"ADDRESS":"環館三路１３巷１３號","OBJECTID":267806},"geometry":{"x":171504.08338200115,"y":2551582.0520710014}},{"attributes":{"ID":267812,"DIS_CODE":0,"TOWNNAME":"安南區","LI":"東和里","LIN":"7鄰","STREET":"環館三路","SECT":" ","MAREA":" ","LANE":"１３巷","ALLEY":" ","HOUSE_NO":"９號","E_COORD97":171517.21729199999,"N_COORD97":2551584.0628999998,"ADDRESS":"環館三路１３巷９號","OBJECTID":267807},"geometry":{"x":171517.21729200054,"y":2551584.0629030019}},{"attributes":{"ID":267813,"DIS_CODE":0,"TOWNNAME":"東區","LI":"路東里","LIN":"7鄰","STREET":"大同路","SECT":"二段","MAREA":" ","LANE":"６１巷","ALLEY":" ","HOUSE_NO":"２３號三樓之２","E_COORD97":169413.75,"N_COORD97":2542243.9199999999,"ADDRESS":"大同路二段６１巷２３號三樓之２","OBJECTID":267808},"geometry":{"x":169413.75000000093,"y":2542243.9199999999}},{"attributes":{"ID":267814,"DIS_CODE":0,"TOWNNAME":"東區","LI":"路東里","LIN":"7鄰","STREET":"大同路","SECT":"二段","MAREA":" ","LANE":"６１巷","ALLEY":" ","HOUSE_NO":"２３號三樓之３","E_COORD97":169413.75,"N_COORD97":2542243.9199999999,"ADDRESS":"大同路二段６１巷２３號三樓之３","OBJECTID":267809},"geometry":{"x":169413.75000000093,"y":2542243.9199999999}},{"attributes":{"ID":267815,"DIS_CODE":0,"TOWNNAME":"東區","LI":"路東里","LIN":"7鄰","STREET":"大同路","SECT":"二段","MAREA":" ","LANE":"６１巷","ALLEY":" ","HOUSE_NO":"２３號五樓之２","E_COORD97":169413.75,"N_COORD97":2542243.9199999999,"ADDRESS":"大同路二段６１巷２３號五樓之２","OBJECTID":267810},"geometry":{"x":169413.75000000093,"y":2542243.9199999999}},{"attributes":{"ID":267816,"DIS_CODE":0,"TOWNNAME":"東區","LI":"路東里","LIN":"7鄰","STREET":"大同路","SECT":"二段","MAREA":" ","LANE":"６１巷","ALLEY":" ","HOUSE_NO":"２３號五樓之３","E_COORD97":169413.75,"N_COORD97":2542243.9199999999,"ADDRESS":"大同路二段６１巷２３號五樓之３","OBJECTID":267811},"geometry":{"x":169413.75000000093,"y":2542243.9199999999}},{"attributes":{"ID":267817,"DIS_CODE":0,"TOWNNAME":"東區","LI":"路東里","LIN":"7鄰","STREET":"大同路","SECT":"二段","MAREA":" ","LANE":"６１巷","ALLEY":" ","HOUSE_NO":"２３號四樓之２","E_COORD97":169413.75,"N_COORD97":2542243.9199999999,"ADDRESS":"大同路二段６１巷２３號四樓之２","OBJECTID":267812},"geometry":{"x":169413.75000000093,"y":2542243.9199999999}},{"attributes":{"ID":267818,"DIS_CODE":0,"TOWNNAME":"中西區","LI":"萬昌里","LIN":"17鄰","STREET":"青年路","SECT":" ","MAREA":" ","LANE":"１６４巷","ALLEY":" ","HOUSE_NO":"１８號","E_COORD97":168999.17000000001,"N_COORD97":2543538.5600000001,"ADDRESS":"青年路１６４巷１８號","OBJECTID":267813},"geometry":{"x":168999.17000000086,"y":2543538.5600000005}},{"attributes":{"ID":267819,"DIS_CODE":0,"TOWNNAME":"東區","LI":"路東里","LIN":"7鄰","STREET":"大同路","SECT":"二段","MAREA":" ","LANE":"６１巷","ALLEY":" ","HOUSE_NO":"２３號四樓之３","E_COORD97":169413.75,"N_COORD97":2542243.9199999999,"ADDRESS":"大同路二段６１巷２３號四樓之３","OBJECTID":267814},"geometry":{"x":169413.75000000093,"y":2542243.9199999999}},{"attributes":{"ID":267820,"DIS_CODE":0,"TOWNNAME":"北區","LI":"仁愛里","LIN":"7鄰","STREET":"開元路","SECT":" ","MAREA":" ","LANE":"１４８巷","ALLEY":" ","HOUSE_NO":"１０６之１號五樓","E_COORD97":170049.01999999999,"N_COORD97":2545003.5600000001,"ADDRESS":"開元路１４８巷１０６之１號五樓","OBJECTID":267815},"geometry":{"x":170049.02000000048,"y":2545003.5600000005}},{"attributes":{"ID":267821,"DIS_CODE":0,"TOWNNAME":"北區","LI":"仁愛里","LIN":"7鄰","STREET":"開元路","SECT":" ","MAREA":" ","LANE":"１４８巷","ALLEY":" ","HOUSE_NO":"１０６之１號二樓","E_COORD97":170049.01999999999,"N_COORD97":2545003.5600000001,"ADDRESS":"開元路１４８巷１０６之１號二樓","OBJECTID":267816},"geometry":{"x":170049.02000000048,"y":2545003.5600000005}},{"attributes":{"ID":267822,"DIS_CODE":0,"TOWNNAME":"北區","LI":"仁愛里","LIN":"7鄰","STREET":"開元路","SECT":" ","MAREA":" ","LANE":"１４８巷","ALLEY":" ","HOUSE_NO":"１０６之１號四樓","E_COORD97":170049.01999999999,"N_COORD97":2545003.5600000001,"ADDRESS":"開元路１４８巷１０６之１號四樓","OBJECTID":267817},"geometry":{"x":170049.02000000048,"y":2545003.5600000005}},{"attributes":{"ID":267823,"DIS_CODE":0,"TOWNNAME":"中西區","LI":"保安里","LIN":"7鄰","STREET":"海安路","SECT":" ","MAREA":" ","LANE":"４８巷","ALLEY":" ","HOUSE_NO":"１０號","E_COORD97":167571.29999999999,"N_COORD97":2543546.4500000002,"ADDRESS":"海安路４８巷１０號","OBJECTID":267818},"geometry":{"x":167571.29999999981,"y":2543546.4500000011}},{"attributes":{"ID":267824,"DIS_CODE":0,"TOWNNAME":"中西區","LI":"保安里","LIN":"7鄰","STREET":"海安路","SECT":" ","MAREA":" ","LANE":"４８巷","ALLEY":" ","HOUSE_NO":"８號","E_COORD97":167565.37,"N_COORD97":2543538.1499999999,"ADDRESS":"海安路４８巷８號","OBJECTID":267819},"geometry":{"x":167565.37000000104,"y":2543538.1500000004}},{"attributes":{"ID":267825,"DIS_CODE":0,"TOWNNAME":"安定區","LI":"南安里","LIN":"3鄰","STREET":" ","SECT":" ","MAREA":"油車","LANE":" ","ALLEY":" ","HOUSE_NO":"３３之９號","E_COORD97":170869.94,"N_COORD97":2555802.2999999998,"ADDRESS":"油車３３之９號","OBJECTID":267820},"geometry":{"x":170869.94000000041,"y":2555802.3000000026}},{"attributes":{"ID":267826,"DIS_CODE":0,"TOWNNAME":"安定區","LI":"港口里","LIN":"3鄰","STREET":" ","SECT":" ","MAREA":"港口","LANE":" ","ALLEY":" ","HOUSE_NO":"２６３號之７","E_COORD97":171543.10000000001,"N_COORD97":2554680.2999999998,"ADDRESS":"港口２６３號之７","OBJECTID":267821},"geometry":{"x":171543.09999999963,"y":2554680.3000000026}},{"attributes":{"ID":267827,"DIS_CODE":0,"TOWNNAME":"安定區","LI":"南安里","LIN":"3鄰","STREET":" ","SECT":" ","MAREA":"油車","LANE":" ","ALLEY":" ","HOUSE_NO":"２５之２號","E_COORD97":170675.44,"N_COORD97":2555705.2999999998,"ADDRESS":"油車２５之２號","OBJECTID":267822},"geometry":{"x":170675.43999999948,"y":2555705.3000000007}},{"attributes":{"ID":267828,"DIS_CODE":0,"TOWNNAME":"安定區","LI":"南安里","LIN":"3鄰","STREET":" ","SECT":" ","MAREA":"油車","LANE":" ","ALLEY":" ","HOUSE_NO":"３５號","E_COORD97":170775.23999999999,"N_COORD97":2555760.25,"ADDRESS":"油車３５號","OBJECTID":267823},"geometry":{"x":170775.24000000115,"y":2555760.2500000037}},{"attributes":{"ID":267829,"DIS_CODE":0,"TOWNNAME":"安定區","LI":"安加里","LIN":"3鄰","STREET":" ","SECT":" ","MAREA":"安定","LANE":" ","ALLEY":" ","HOUSE_NO":"１８０號","E_COORD97":171887.54439600001,"N_COORD97":2557593.9772999999,"ADDRESS":"安定１８０號","OBJECTID":267824},"geometry":{"x":171887.54439600091,"y":2557593.9772999976}},{"attributes":{"ID":267830,"DIS_CODE":0,"TOWNNAME":"安定區","LI":"中榮里","LIN":"3鄰","STREET":" ","SECT":" ","MAREA":"許中營","LANE":" ","ALLEY":" ","HOUSE_NO":"２６號之２","E_COORD97":172544.10999999999,"N_COORD97":2554991.2999999998,"ADDRESS":"許中營２６號之２","OBJECTID":267825},"geometry":{"x":172544.1100000022,"y":2554991.3000000026}},{"attributes":{"ID":267831,"DIS_CODE":0,"TOWNNAME":"安定區","LI":"港口里","LIN":"3鄰","STREET":" ","SECT":" ","MAREA":"港口","LANE":" ","ALLEY":" ","HOUSE_NO":"２５３之４３號","E_COORD97":171610.84,"N_COORD97":2554879.2999999998,"ADDRESS":"港口２５３之４３號","OBJECTID":267826},"geometry":{"x":171610.83999999985,"y":2554879.3000000026}},{"attributes":{"ID":267832,"DIS_CODE":0,"TOWNNAME":"安南區","LI":"安順里","LIN":"3鄰","STREET":"安豐四街","SECT":" ","MAREA":" ","LANE":" ","ALLEY":" ","HOUSE_NO":"７２號","E_COORD97":169531.81,"N_COORD97":2549830.9399999999,"ADDRESS":"安豐四街７２號","OBJECTID":267827},"geometry":{"x":169531.81000000052,"y":2549830.9399999995}},{"attributes":{"ID":267833,"DIS_CODE":0,"TOWNNAME":"中西區","LI":"普濟里","LIN":"7鄰","STREET":"海安路","SECT":" ","MAREA":" ","LANE":"４３６巷","ALLEY":" ","HOUSE_NO":"５號","E_COORD97":167818.85000000001,"N_COORD97":2544377.6000000001,"ADDRESS":"海安路４３６巷５號","OBJECTID":267828},"geometry":{"x":167818.8499999987,"y":2544377.5999999996}},{"attributes":{"ID":267834,"DIS_CODE":0,"TOWNNAME":"安南區","LI":"布袋里","LIN":"7鄰","STREET":"長和路","SECT":"四段","MAREA":" ","LANE":"２００巷","ALLEY":" ","HOUSE_NO":"２６號","E_COORD97":168772.62,"N_COORD97":2551789.98,"ADDRESS":"長和路四段２００巷２６號","OBJECTID":267829},"geometry":{"x":168772.62000000104,"y":2551789.9800000023}},{"attributes":{"ID":267835,"DIS_CODE":0,"TOWNNAME":"中西區","LI":"普濟里","LIN":"7鄰","STREET":"海安路","SECT":"二段","MAREA":" ","LANE":"２９６巷","ALLEY":" ","HOUSE_NO":"１１號","E_COORD97":167829.51000000001,"N_COORD97":2544382.0899999999,"ADDRESS":"海安路二段２９６巷１１號","OBJECTID":267830},"geometry":{"x":167829.50999999978,"y":2544382.0899999999}},{"attributes":{"ID":267836,"DIS_CODE":0,"TOWNNAME":"中西區","LI":"普濟里","LIN":"7鄰","STREET":"海安路","SECT":"二段","MAREA":" ","LANE":"２９６巷","ALLEY":" ","HOUSE_NO":"１３號","E_COORD97":167833.44,"N_COORD97":2544383.4300000002,"ADDRESS":"海安路二段２９６巷１３號","OBJECTID":267831},"geometry":{"x":167833.44000000134,"y":2544383.4299999997}},{"attributes":{"ID":267837,"DIS_CODE":0,"TOWNNAME":"安南區","LI":"東和里","LIN":"7鄰","STREET":"環館三路","SECT":" ","MAREA":" ","LANE":"１３巷","ALLEY":" ","HOUSE_NO":"１０號","E_COORD97":171520.39485000001,"N_COORD97":2551613.1670499998,"ADDRESS":"環館三路１３巷１０號","OBJECTID":267832},"geometry":{"x":171520.39485000074,"y":2551613.1670540012}},{"attributes":{"ID":267838,"DIS_CODE":0,"TOWNNAME":"安南區","LI":"東和里","LIN":"7鄰","STREET":"環館三路","SECT":" ","MAREA":" ","LANE":"１３巷","ALLEY":" ","HOUSE_NO":"１１號","E_COORD97":171510.650337,"N_COORD97":2551583.0045699999,"ADDRESS":"環館三路１３巷１１號","OBJECTID":267833},"geometry":{"x":171510.65033700131,"y":2551583.0045699999}},{"attributes":{"ID":267839,"DIS_CODE":0,"TOWNNAME":"中西區","LI":"普濟里","LIN":"7鄰","STREET":"海安路","SECT":"二段","MAREA":" ","LANE":"２９６巷","ALLEY":" ","HOUSE_NO":"７號","E_COORD97":167823.57000000001,"N_COORD97":2544379.2799999998,"ADDRESS":"海安路二段２９６巷７號","OBJECTID":267834},"geometry":{"x":167823.57000000123,"y":2544379.2800000012}},{"attributes":{"ID":267840,"DIS_CODE":0,"TOWNNAME":"中西區","LI":"普濟里","LIN":"7鄰","STREET":"海安路","SECT":"二段","MAREA":" ","LANE":"２９６巷","ALLEY":" ","HOUSE_NO":"９號","E_COORD97":167826.48999999999,"N_COORD97":2544380.6299999999,"ADDRESS":"海安路二段２９６巷９號","OBJECTID":267835},"geometry":{"x":167826.49000000022,"y":2544380.629999999}},{"attributes":{"ID":267841,"DIS_CODE":0,"TOWNNAME":"仁德區","LI":"後壁里","LIN":"32鄰","STREET":"德洋路","SECT":" ","MAREA":" ","LANE":" ","ALLEY":" ","HOUSE_NO":"２１６號","E_COORD97":172528.63,"N_COORD97":2539509.02,"ADDRESS":"德洋路２１６號","OBJECTID":267836},"geometry":{"x":172528.63000000082,"y":2539509.0200000014}},{"attributes":{"ID":267842,"DIS_CODE":0,"TOWNNAME":"南區","LI":"喜東里","LIN":"7鄰","STREET":"喜樹路","SECT":" ","MAREA":" ","LANE":"６１９巷","ALLEY":" ","HOUSE_NO":"３６０之８號","E_COORD97":166895.66,"N_COORD97":2537896.8300000001,"ADDRESS":"喜樹路６１９巷３６０之８號","OBJECTID":267837},"geometry":{"x":166895.66000000108,"y":2537896.8300000019}},{"attributes":{"ID":267843,"DIS_CODE":0,"TOWNNAME":"白河區","LI":"仙草里","LIN":"20鄰","STREET":" ","SECT":" ","MAREA":"仙草","LANE":" ","ALLEY":" ","HOUSE_NO":"１１８號","E_COORD97":196821.79999999999,"N_COORD97":2582311.52,"ADDRESS":"仙草１１８號","OBJECTID":267838},"geometry":{"x":196821.79999999981,"y":2582311.5200000014}},{"attributes":{"ID":267844,"DIS_CODE":0,"TOWNNAME":"安定區","LI":"新吉里","LIN":"3鄰","STREET":" ","SECT":" ","MAREA":"新吉","LANE":" ","ALLEY":" ","HOUSE_NO":"２５之３０號","E_COORD97":169466.22,"N_COORD97":2554119.2999999998,"ADDRESS":"新吉２５之３０號","OBJECTID":267839},"geometry":{"x":169466.22000000067,"y":2554119.2999999989}},{"attributes":{"ID":267845,"DIS_CODE":0,"TOWNNAME":"仁德區","LI":"後壁里","LIN":"6鄰","STREET":"德善路","SECT":" ","MAREA":" ","LANE":" ","ALLEY":" ","HOUSE_NO":"１５５號","E_COORD97":173535.25,"N_COORD97":2538836.7599999998,"ADDRESS":"德善路１５５號","OBJECTID":267840},"geometry":{"x":173535.25000000093,"y":2538836.7599999998}},{"attributes":{"ID":267846,"DIS_CODE":0,"TOWNNAME":"安定區","LI":"新吉里","LIN":"3鄰","STREET":" ","SECT":" ","MAREA":"新吉","LANE":" ","ALLEY":" ","HOUSE_NO":"２６之２號","E_COORD97":169472.07000000001,"N_COORD97":2554058.2999999998,"ADDRESS":"新吉２６之２號","OBJECTID":267841},"geometry":{"x":169472.0700000003,"y":2554058.2999999989}},{"attributes":{"ID":267847,"DIS_CODE":0,"TOWNNAME":"安定區","LI":"中榮里","LIN":"3鄰","STREET":" ","SECT":" ","MAREA":"許中營","LANE":" ","ALLEY":" ","HOUSE_NO":"３１之８號","E_COORD97":172469.35000000001,"N_COORD97":2554962.46,"ADDRESS":"許中營３１之８號","OBJECTID":267842},"geometry":{"x":172469.35000000056,"y":2554962.4600000009}},{"attributes":{"ID":267848,"DIS_CODE":0,"TOWNNAME":"安定區","LI":"中榮里","LIN":"3鄰","STREET":" ","SECT":" ","MAREA":"許中營","LANE":" ","ALLEY":" ","HOUSE_NO":"３１之９號","E_COORD97":172464.76000000001,"N_COORD97":2554960.8599999999,"ADDRESS":"許中營３１之９號","OBJECTID":267843},"geometry":{"x":172464.76000000071,"y":2554960.8599999994}},{"attributes":{"ID":267849,"DIS_CODE":0,"TOWNNAME":"安定區","LI":"中榮里","LIN":"3鄰","STREET":" ","SECT":" ","MAREA":"許中營","LANE":" ","ALLEY":" ","HOUSE_NO":"３８之８號","E_COORD97":172540.56,"N_COORD97":2555037.1800000002,"ADDRESS":"許中營３８之８號","OBJECTID":267844},"geometry":{"x":172540.56000000052,"y":2555037.1799999997}},{"attributes":{"ID":267850,"DIS_CODE":0,"TOWNNAME":"安定區","LI":"中榮里","LIN":"3鄰","STREET":" ","SECT":" ","MAREA":"許中營","LANE":" ","ALLEY":" ","HOUSE_NO":"３８之３０號","E_COORD97":172612.02840899999,"N_COORD97":2555057.4068700001,"ADDRESS":"許中營３８之３０號","OBJECTID":267845},"geometry":{"x":172612.02840899955,"y":2555057.4068730008}},{"attributes":{"ID":267851,"DIS_CODE":0,"TOWNNAME":"安定區","LI":"中榮里","LIN":"3鄰","STREET":" ","SECT":" ","MAREA":"許中營","LANE":" ","ALLEY":" ","HOUSE_NO":"３８之３１號","E_COORD97":172605.67307700001,"N_COORD97":2555058.1477100002,"ADDRESS":"許中營３８之３１號","OBJECTID":267846},"geometry":{"x":172605.67307700124,"y":2555058.1477060001}},{"attributes":{"ID":267852,"DIS_CODE":0,"TOWNNAME":"安定區","LI":"中榮里","LIN":"3鄰","STREET":" ","SECT":" ","MAREA":"許中營","LANE":" ","ALLEY":" ","HOUSE_NO":"３８之３２號","E_COORD97":172598.89405500001,"N_COORD97":2555058.6768700001,"ADDRESS":"許中營３８之３２號","OBJECTID":267847},"geometry":{"x":172598.89405499958,"y":2555058.6768720001}},{"attributes":{"ID":267853,"DIS_CODE":0,"TOWNNAME":"安定區","LI":"中榮里","LIN":"3鄰","STREET":" ","SECT":" ","MAREA":"許中營","LANE":" ","ALLEY":" ","HOUSE_NO":"３８之３３號","E_COORD97":172592.11503399999,"N_COORD97":2555059.4177000001,"ADDRESS":"許中營３８之３３號","OBJECTID":267848},"geometry":{"x":172592.11503400002,"y":2555059.4177050013}},{"attributes":{"ID":267854,"DIS_CODE":0,"TOWNNAME":"新市區","LI":"大洲里","LIN":"3鄰","STREET":" ","SECT":" ","MAREA":"大洲","LANE":" ","ALLEY":" ","HOUSE_NO":"２０號之１","E_COORD97":174485.64000000001,"N_COORD97":2552448.2999999998,"ADDRESS":"大洲２０號之１","OBJECTID":267849},"geometry":{"x":174485.63999999966,"y":2552448.3000000045}},{"attributes":{"ID":267855,"DIS_CODE":0,"TOWNNAME":"新市區","LI":"大洲里","LIN":"3鄰","STREET":" ","SECT":" ","MAREA":"大洲","LANE":" ","ALLEY":" ","HOUSE_NO":"２５之２號","E_COORD97":174464.62,"N_COORD97":2552406.7999999998,"ADDRESS":"大洲２５之２號","OBJECTID":267850},"geometry":{"x":174464.62000000104,"y":2552406.8000000007}},{"attributes":{"ID":267856,"DIS_CODE":0,"TOWNNAME":"新市區","LI":"大洲里","LIN":"3鄰","STREET":" ","SECT":" ","MAREA":"大洲","LANE":" ","ALLEY":" ","HOUSE_NO":"２８號","E_COORD97":174364.48999999999,"N_COORD97":2552373.2400000002,"ADDRESS":"大洲２８號","OBJECTID":267851},"geometry":{"x":174364.49000000115,"y":2552373.2400000039}},{"attributes":{"ID":267857,"DIS_CODE":0,"TOWNNAME":"新市區","LI":"社內里","LIN":"3鄰","STREET":" ","SECT":" ","MAREA":"社內","LANE":" ","ALLEY":" ","HOUSE_NO":"３１之９號","E_COORD97":177032.85999999999,"N_COORD97":2552564.7999999998,"ADDRESS":"社內３１之９號","OBJECTID":267852},"geometry":{"x":177032.8599999994,"y":2552564.8000000026}},{"attributes":{"ID":267858,"DIS_CODE":0,"TOWNNAME":"新市區","LI":"新和里","LIN":"3鄰","STREET":"仁愛街","SECT":" ","MAREA":" ","LANE":" ","ALLEY":" ","HOUSE_NO":"７號","E_COORD97":177337.32999999999,"N_COORD97":2551985.5299999998,"ADDRESS":"仁愛街７號","OBJECTID":267853},"geometry":{"x":177337.33000000007,"y":2551985.5300000012}},{"attributes":{"ID":267859,"DIS_CODE":0,"TOWNNAME":"永康區","LI":"永康里","LIN":"3鄰","STREET":"中山路","SECT":" ","MAREA":" ","LANE":" ","ALLEY":" ","HOUSE_NO":"２９號","E_COORD97":173825.13,"N_COORD97":2547490.25,"ADDRESS":"中山路２９號","OBJECTID":267854},"geometry":{"x":173825.13000000175,"y":2547490.25}},{"attributes":{"ID":267860,"DIS_CODE":0,"TOWNNAME":"永康區","LI":"西勢里","LIN":"11鄰","STREET":"廣興街","SECT":" ","MAREA":" ","LANE":" ","ALLEY":" ","HOUSE_NO":"３９號","E_COORD97":175839.42999999999,"N_COORD97":2546593.0899999999,"ADDRESS":"廣興街３９號","OBJECTID":267855},"geometry":{"x":175839.4299999997,"y":2546593.0899999999}},{"attributes":{"ID":267861,"DIS_CODE":0,"TOWNNAME":"東區","LI":"大學里","LIN":"17鄰","STREET":"東寧路","SECT":" ","MAREA":" ","LANE":" ","ALLEY":" ","HOUSE_NO":"８９號","E_COORD97":170321.94,"N_COORD97":2543609.1600000001,"ADDRESS":"東寧路８９號","OBJECTID":267856},"geometry":{"x":170321.94000000134,"y":2543609.1600000001}},{"attributes":{"ID":267862,"DIS_CODE":0,"TOWNNAME":"東區","LI":"大福里","LIN":"19鄰","STREET":"立德七路","SECT":" ","MAREA":" ","LANE":" ","ALLEY":" ","HOUSE_NO":"１５號","E_COORD97":169520.60000000001,"N_COORD97":2541905.7599999998,"ADDRESS":"立德七路１５號","OBJECTID":267857},"geometry":{"x":169520.59999999963,"y":2541905.7599999998}},{"attributes":{"ID":267863,"DIS_CODE":0,"TOWNNAME":"安南區","LI":"南興里","LIN":"6鄰","STREET":"公學路","SECT":"五段","MAREA":" ","LANE":"６９７巷","ALLEY":" ","HOUSE_NO":"６１號","E_COORD97":163857.64000000001,"N_COORD97":2552696.8799999999,"ADDRESS":"公學路五段６９７巷６１號","OBJECTID":267858},"geometry":{"x":163857.6400000006,"y":2552696.8800000008}},{"attributes":{"ID":267864,"DIS_CODE":0,"TOWNNAME":"安南區","LI":"布袋里","LIN":"6鄰","STREET":"長和路","SECT":"四段","MAREA":" ","LANE":"１６０巷","ALLEY":" ","HOUSE_NO":"１４號","E_COORD97":168982.72,"N_COORD97":2551701.7400000002,"ADDRESS":"長和路四段１６０巷１４號","OBJECTID":267859},"geometry":{"x":168982.71999999881,"y":2551701.7400000002}},{"attributes":{"ID":267865,"DIS_CODE":0,"TOWNNAME":"安南區","LI":"布袋里","LIN":"6鄰","STREET":"長和路","SECT":"四段","MAREA":" ","LANE":"１６０巷","ALLEY":" ","HOUSE_NO":"１６號","E_COORD97":168987.07999999999,"N_COORD97":2551706.2999999998,"ADDRESS":"長和路四段１６０巷１６號","OBJECTID":267860},"geometry":{"x":168987.08000000007,"y":2551706.3000000026}},{"attributes":{"ID":267866,"DIS_CODE":0,"TOWNNAME":"安南區","LI":"布袋里","LIN":"6鄰","STREET":"長和路","SECT":"四段","MAREA":" ","LANE":"１６０巷","ALLEY":" ","HOUSE_NO":"１８號","E_COORD97":168990.72,"N_COORD97":2551710.4399999999,"ADDRESS":"長和路四段１６０巷１８號","OBJECTID":267861},"geometry":{"x":168990.71999999974,"y":2551710.4400000013}},{"attributes":{"ID":267867,"DIS_CODE":0,"TOWNNAME":"安南區","LI":"砂崙里","LIN":"6鄰","STREET":"城北路","SECT":" ","MAREA":" ","LANE":"７３５巷","ALLEY":" ","HOUSE_NO":"３３６號","E_COORD97":160164.45999999999,"N_COORD97":2552857.7599999998,"ADDRESS":"城北路７３５巷３３６號","OBJECTID":267862},"geometry":{"x":160164.45999999996,"y":2552857.7600000035}},{"attributes":{"ID":267868,"DIS_CODE":0,"TOWNNAME":"北區","LI":"實踐里","LIN":"6鄰","STREET":"長榮路","SECT":"五段","MAREA":" ","LANE":"２９８巷","ALLEY":" ","HOUSE_NO":"３２號十樓之５","E_COORD97":169771.17000000001,"N_COORD97":2546012.3900000001,"ADDRESS":"長榮路五段２９８巷３２號十樓之５","OBJECTID":267863},"geometry":{"x":169771.16999999993,"y":2546012.3900000043}},{"attributes":{"ID":267869,"DIS_CODE":0,"TOWNNAME":"北區","LI":"實踐里","LIN":"6鄰","STREET":"長榮路","SECT":"五段","MAREA":" ","LANE":"２９８巷","ALLEY":" ","HOUSE_NO":"３２號十一樓之１","E_COORD97":169771.17000000001,"N_COORD97":2546012.3900000001,"ADDRESS":"長榮路五段２９８巷３２號十一樓之１","OBJECTID":267864},"geometry":{"x":169771.16999999993,"y":2546012.3900000043}},{"attributes":{"ID":267870,"DIS_CODE":0,"TOWNNAME":"北區","LI":"實踐里","LIN":"6鄰","STREET":"長榮路","SECT":"五段","MAREA":" ","LANE":"２９８巷","ALLEY":" ","HOUSE_NO":"４６號","E_COORD97":169776.85000000001,"N_COORD97":2546041.1899999999,"ADDRESS":"長榮路五段２９８巷４６號","OBJECTID":267865},"geometry":{"x":169776.85000000149,"y":2546041.1900000013}},{"attributes":{"ID":267871,"DIS_CODE":0,"TOWNNAME":"北區","LI":"實踐里","LIN":"6鄰","STREET":"長榮路","SECT":"五段","MAREA":" ","LANE":"２９８巷","ALLEY":" ","HOUSE_NO":"４８號","E_COORD97":169777.54000000001,"N_COORD97":2546046.1600000001,"ADDRESS":"長榮路五段２９８巷４８號","OBJECTID":267866},"geometry":{"x":169777.54000000004,"y":2546046.1600000001}},{"attributes":{"ID":267872,"DIS_CODE":0,"TOWNNAME":"北區","LI":"實踐里","LIN":"6鄰","STREET":"長榮路","SECT":"五段","MAREA":" ","LANE":"２９８巷","ALLEY":" ","HOUSE_NO":"５０號","E_COORD97":169778.92999999999,"N_COORD97":2546052.2999999998,"ADDRESS":"長榮路五段２９８巷５０號","OBJECTID":267867},"geometry":{"x":169778.93000000063,"y":2546052.3000000007}},{"attributes":{"ID":267873,"DIS_CODE":0,"TOWNNAME":"北區","LI":"實踐里","LIN":"6鄰","STREET":"長榮路","SECT":"五段","MAREA":" ","LANE":"２９８巷","ALLEY":" ","HOUSE_NO":"５２號","E_COORD97":169780.67000000001,"N_COORD97":2546058.3900000001,"ADDRESS":"長榮路五段２９８巷５２號","OBJECTID":267868},"geometry":{"x":169780.67000000086,"y":2546058.3900000006}},{"attributes":{"ID":267874,"DIS_CODE":0,"TOWNNAME":"北區","LI":"實踐里","LIN":"6鄰","STREET":"長榮路","SECT":"五段","MAREA":" ","LANE":"２９８巷","ALLEY":" ","HOUSE_NO":"５６號","E_COORD97":169782.06,"N_COORD97":2546062.3300000001,"ADDRESS":"長榮路五段２９８巷５６號","OBJECTID":267869},"geometry":{"x":169782.05999999959,"y":2546062.3300000001}},{"attributes":{"ID":267875,"DIS_CODE":0,"TOWNNAME":"安平區","LI":"平通里","LIN":"6鄰","STREET":"平通路","SECT":" ","MAREA":" ","LANE":"５８０巷","ALLEY":" ","HOUSE_NO":"１１６號","E_COORD97":164974.32999999999,"N_COORD97":2544118.3500000001,"ADDRESS":"平通路５８０巷１１６號","OBJECTID":267870},"geometry":{"x":164974.33000000007,"y":2544118.3499999996}},{"attributes":{"ID":267876,"DIS_CODE":0,"TOWNNAME":"北區","LI":"長榮里","LIN":"20鄰","STREET":"開元路","SECT":" ","MAREA":" ","LANE":"３３３巷","ALLEY":" ","HOUSE_NO":"１號七樓之２","E_COORD97":170211.48999999999,"N_COORD97":2545431.4300000002,"ADDRESS":"開元路３３３巷１號七樓之２","OBJECTID":267871},"geometry":{"x":170211.49000000022,"y":2545431.4300000034}},{"attributes":{"ID":267877,"DIS_CODE":0,"TOWNNAME":"南區","LI":"同安里","LIN":"6鄰","STREET":"明興路","SECT":" ","MAREA":" ","LANE":"１１８１巷","ALLEY":" ","HOUSE_NO":"１８２號","E_COORD97":166968.67000000001,"N_COORD97":2536210.5,"ADDRESS":"明興路１１８１巷１８２號","OBJECTID":267872},"geometry":{"x":166968.66999999993,"y":2536210.5000000019}},{"attributes":{"ID":267878,"DIS_CODE":0,"TOWNNAME":"南區","LI":"同安里","LIN":"6鄰","STREET":"明興路","SECT":" ","MAREA":" ","LANE":"１１８１巷","ALLEY":" ","HOUSE_NO":"１８２之５號","E_COORD97":166969.14999999999,"N_COORD97":2536200.8199999998,"ADDRESS":"明興路１１８１巷１８２之５號","OBJECTID":267873},"geometry":{"x":166969.1500000013,"y":2536200.820000004}},{"attributes":{"ID":267879,"DIS_CODE":0,"TOWNNAME":"東區","LI":"龍山里","LIN":"6鄰","STREET":"東門路","SECT":"二段","MAREA":" ","LANE":"１５８巷","ALLEY":" ","HOUSE_NO":"４９號","E_COORD97":170070.72,"N_COORD97":2542749.8100000001,"ADDRESS":"東門路二段１５８巷４９號","OBJECTID":267874},"geometry":{"x":170070.71999999974,"y":2542749.8100000005}},{"attributes":{"ID":267880,"DIS_CODE":0,"TOWNNAME":"中西區","LI":"西賢里","LIN":"20鄰","STREET":"西賢一街","SECT":" ","MAREA":" ","LANE":"１３７巷","ALLEY":" ","HOUSE_NO":"２６號","E_COORD97":165646.17000000001,"N_COORD97":2544823.2000000002,"ADDRESS":"西賢一街１３７巷２６號","OBJECTID":267875},"geometry":{"x":165646.17000000086,"y":2544823.2000000011}},{"attributes":{"ID":267881,"DIS_CODE":0,"TOWNNAME":"東區","LI":"大福里","LIN":"19鄰","STREET":"立德七路","SECT":" ","MAREA":" ","LANE":" ","ALLEY":" ","HOUSE_NO":"１７號","E_COORD97":169525.56,"N_COORD97":2541906.9100000001,"ADDRESS":"立德七路１７號","OBJECTID":267876},"geometry":{"x":169525.55999999959,"y":2541906.910000002}},{"attributes":{"ID":267882,"DIS_CODE":0,"TOWNNAME":"下營區","LI":"西連里","LIN":"3鄰","STREET":" ","SECT":" ","MAREA":"連表","LANE":" ","ALLEY":" ","HOUSE_NO":"２６號之３","E_COORD97":174845.98000000001,"N_COORD97":2567730.7999999998,"ADDRESS":"連表２６號之３","OBJECTID":267877},"geometry":{"x":174845.98000000138,"y":2567730.8000000007}},{"attributes":{"ID":267883,"DIS_CODE":0,"TOWNNAME":"永康區","LI":"建國里","LIN":"11鄰","STREET":"復國路","SECT":" ","MAREA":" ","LANE":" ","ALLEY":" ","HOUSE_NO":"６２號","E_COORD97":172762.79999999999,"N_COORD97":2544601.9700000002,"ADDRESS":"復國路６２號","OBJECTID":267878},"geometry":{"x":172762.80000000075,"y":2544601.9700000025}},{"attributes":{"ID":267884,"DIS_CODE":0,"TOWNNAME":"永康區","LI":"建國里","LIN":"11鄰","STREET":"復國路","SECT":" ","MAREA":" ","LANE":" ","ALLEY":" ","HOUSE_NO":"６６號","E_COORD97":172762.79999999999,"N_COORD97":2544601.9700000002,"ADDRESS":"復國路６６號","OBJECTID":267879},"geometry":{"x":172762.80000000075,"y":2544601.9700000025}},{"attributes":{"ID":267885,"DIS_CODE":0,"TOWNNAME":"東區","LI":"大福里","LIN":"19鄰","STREET":"立德七路","SECT":" ","MAREA":" ","LANE":" ","ALLEY":" ","HOUSE_NO":"１９號","E_COORD97":169530.14000000001,"N_COORD97":2541908.0499999998,"ADDRESS":"立德七路１９號","OBJECTID":267880},"geometry":{"x":169530.13999999966,"y":2541908.0500000007}},{"attributes":{"ID":267886,"DIS_CODE":0,"TOWNNAME":"東區","LI":"大福里","LIN":"19鄰","STREET":"立德七路","SECT":" ","MAREA":" ","LANE":" ","ALLEY":" ","HOUSE_NO":"２１號","E_COORD97":169534.72,"N_COORD97":2541909.1899999999,"ADDRESS":"立德七路２１號","OBJECTID":267881},"geometry":{"x":169534.71999999974,"y":2541909.1899999995}},{"attributes":{"ID":267887,"DIS_CODE":0,"TOWNNAME":"安南區","LI":"新順里","LIN":"20鄰","STREET":"慶安路","SECT":" ","MAREA":" ","LANE":"１１５巷","ALLEY":" ","HOUSE_NO":"２６號","E_COORD97":169389.35999999999,"N_COORD97":2549272.3599999999,"ADDRESS":"慶安路１１５巷２６號","OBJECTID":267882},"geometry":{"x":169389.3600000022,"y":2549272.3599999994}},{"attributes":{"ID":267888,"DIS_CODE":0,"TOWNNAME":"安南區","LI":"新順里","LIN":"20鄰","STREET":"慶安路","SECT":" ","MAREA":" ","LANE":"１７５巷","ALLEY":" ","HOUSE_NO":"４７號","E_COORD97":169306.76000000001,"N_COORD97":2549312.9199999999,"ADDRESS":"慶安路１７５巷４７號","OBJECTID":267883},"geometry":{"x":169306.76000000071,"y":2549312.9199999999}},{"attributes":{"ID":267889,"DIS_CODE":0,"TOWNNAME":"安南區","LI":"東和里","LIN":"6鄰","STREET":"長和路","SECT":"一段","MAREA":" ","LANE":"８４５巷","ALLEY":" ","HOUSE_NO":"１７號之３","E_COORD97":170828.57999999999,"N_COORD97":2551366.3300000001,"ADDRESS":"長和路一段８４５巷１７號之３","OBJECTID":267884},"geometry":{"x":170828.58000000194,"y":2551366.3300000019}},{"attributes":{"ID":267890,"DIS_CODE":0,"TOWNNAME":"安南區","LI":"東和里","LIN":"6鄰","STREET":"長和路","SECT":"一段","MAREA":" ","LANE":"８４５巷","ALLEY":" ","HOUSE_NO":"１７號之７","E_COORD97":170815.12,"N_COORD97":2551349.27,"ADDRESS":"長和路一段８４５巷１７號之７","OBJECTID":267885},"geometry":{"x":170815.12000000104,"y":2551349.2700000014}},{"attributes":{"ID":267891,"DIS_CODE":0,"TOWNNAME":"安南區","LI":"東和里","LIN":"6鄰","STREET":"長和路","SECT":"一段","MAREA":" ","LANE":"８４５巷","ALLEY":" ","HOUSE_NO":"２５號","E_COORD97":170811.03,"N_COORD97":2551370.4100000001,"ADDRESS":"長和路一段８４５巷２５號","OBJECTID":267886},"geometry":{"x":170811.03000000119,"y":2551370.4100000001}},{"attributes":{"ID":267892,"DIS_CODE":0,"TOWNNAME":"安南區","LI":"州南里","LIN":"6鄰","STREET":"長和路","SECT":"三段","MAREA":" ","LANE":"１３３巷","ALLEY":" ","HOUSE_NO":"４２號","E_COORD97":169710.54999999999,"N_COORD97":2551440.3399999999,"ADDRESS":"長和路三段１３３巷４２號","OBJECTID":267887},"geometry":{"x":169710.54999999981,"y":2551440.3400000017}},{"attributes":{"ID":267893,"DIS_CODE":0,"TOWNNAME":"安南區","LI":"布袋里","LIN":"6鄰","STREET":"長和路","SECT":"四段","MAREA":" ","LANE":"１６０巷","ALLEY":" ","HOUSE_NO":"１０號","E_COORD97":168976.45999999999,"N_COORD97":2551693.8799999999,"ADDRESS":"長和路四段１６０巷１０號","OBJECTID":267888},"geometry":{"x":168976.46000000183,"y":2551693.8800000008}},{"attributes":{"ID":267894,"DIS_CODE":0,"TOWNNAME":"東區","LI":"大福里","LIN":"19鄰","STREET":"立德七路","SECT":" ","MAREA":" ","LANE":" ","ALLEY":" ","HOUSE_NO":"２３號","E_COORD97":169538.53,"N_COORD97":2541910.3399999999,"ADDRESS":"立德七路２３號","OBJECTID":267889},"geometry":{"x":169538.53000000026,"y":2541910.3400000017}},{"attributes":{"ID":267895,"DIS_CODE":0,"TOWNNAME":"東區","LI":"大福里","LIN":"16鄰","STREET":"立德六路","SECT":" ","MAREA":" ","LANE":" ","ALLEY":" ","HOUSE_NO":"４３號","E_COORD97":169623.20999999999,"N_COORD97":2541893.8399999999,"ADDRESS":"立德六路４３號","OBJECTID":267890},"geometry":{"x":169623.20999999996,"y":2541893.8400000017}},{"attributes":{"ID":267896,"DIS_CODE":0,"TOWNNAME":"北區","LI":"成德里","LIN":"20鄰","STREET":"文成三路","SECT":" ","MAREA":" ","LANE":"２４３巷","ALLEY":" ","HOUSE_NO":"２號","E_COORD97":168359.54000000001,"N_COORD97":2546309.6099999999,"ADDRESS":"文成三路２４３巷２號","OBJECTID":267891},"geometry":{"x":168359.54000000097,"y":2546309.6100000013}},{"attributes":{"ID":267897,"DIS_CODE":0,"TOWNNAME":"安平區","LI":"平通里","LIN":"20鄰","STREET":"育平九街","SECT":" ","MAREA":" ","LANE":"３７２巷","ALLEY":" ","HOUSE_NO":"１４０號","E_COORD97":164597.56,"N_COORD97":2544133.3599999999,"ADDRESS":"育平九街３７２巷１４０號","OBJECTID":267892},"geometry":{"x":164597.55999999959,"y":2544133.3600000013}},{"attributes":{"ID":267898,"DIS_CODE":0,"TOWNNAME":"安南區","LI":"幸福里","LIN":"17鄰","STREET":"府安路","SECT":"六段","MAREA":" ","LANE":"２７巷","ALLEY":" ","HOUSE_NO":"７３號","E_COORD97":166993.69,"N_COORD97":2546883.3100000001,"ADDRESS":"府安路六段２７巷７３號","OBJECTID":267893},"geometry":{"x":166993.69000000227,"y":2546883.3100000005}},{"attributes":{"ID":267899,"DIS_CODE":0,"TOWNNAME":"新營區","LI":"興業里","LIN":" ","STREET":"公誠街","SECT":" ","MAREA":" ","LANE":"１７巷","ALLEY":" ","HOUSE_NO":"４之３號","E_COORD97":180310.04999999999,"N_COORD97":2577916.8100000001,"ADDRESS":"公誠街１７巷４之３號","OBJECTID":267894},"geometry":{"x":180310.05000000075,"y":2577916.8100000024}},{"attributes":{"ID":267900,"DIS_CODE":0,"TOWNNAME":"安南區","LI":"溪墘里","LIN":"17鄰","STREET":"海佃路","SECT":"一段","MAREA":" ","LANE":"３７２巷","ALLEY":" ","HOUSE_NO":"３號","E_COORD97":167115.91,"N_COORD97":2547612.0499999998,"ADDRESS":"海佃路一段３７２巷３號","OBJECTID":267895},"geometry":{"x":167115.91000000108,"y":2547612.0500000026}},{"attributes":{"ID":267901,"DIS_CODE":0,"TOWNNAME":"永康區","LI":"中華里","LIN":"17鄰","STREET":"中華路","SECT":" ","MAREA":" ","LANE":"１０巷","ALLEY":" ","HOUSE_NO":"１６號","E_COORD97":171656.45000000001,"N_COORD97":2544460.2000000002,"ADDRESS":"中華路１０巷１６號","OBJECTID":267896},"geometry":{"x":171656.45000000019,"y":2544460.2000000011}},{"attributes":{"ID":267902,"DIS_CODE":0,"TOWNNAME":"永康區","LI":"中華里","LIN":"17鄰","STREET":"中華路","SECT":" ","MAREA":" ","LANE":"１０巷","ALLEY":" ","HOUSE_NO":"１２之１號","E_COORD97":171649.69,"N_COORD97":2544460.1000000001,"ADDRESS":"中華路１０巷１２之１號","OBJECTID":267897},"geometry":{"x":171649.69000000041,"y":2544460.0999999996}},{"attributes":{"ID":267903,"DIS_CODE":0,"TOWNNAME":"永康區","LI":"中華里","LIN":"17鄰","STREET":"中華路","SECT":" ","MAREA":" ","LANE":"１０巷","ALLEY":" ","HOUSE_NO":"１２號","E_COORD97":171640.23999999999,"N_COORD97":2544459.8900000001,"ADDRESS":"中華路１０巷１２號","OBJECTID":267898},"geometry":{"x":171640.24000000115,"y":2544459.8900000025}},{"attributes":{"ID":267904,"DIS_CODE":0,"TOWNNAME":"永康區","LI":"二王里","LIN":"17鄰","STREET":"忠孝路","SECT":" ","MAREA":" ","LANE":"４１０巷","ALLEY":" ","HOUSE_NO":"５２號","E_COORD97":172600.06,"N_COORD97":2546530.25,"ADDRESS":"忠孝路４１０巷５２號","OBJECTID":267899},"geometry":{"x":172600.06000000052,"y":2546530.25}},{"attributes":{"ID":267905,"DIS_CODE":0,"TOWNNAME":"永康區","LI":"二王里","LIN":"17鄰","STREET":"忠孝路","SECT":" ","MAREA":" ","LANE":"４１０巷","ALLEY":" ","HOUSE_NO":"６０號","E_COORD97":172630.85999999999,"N_COORD97":2546531.5,"ADDRESS":"忠孝路４１０巷６０號","OBJECTID":267900},"geometry":{"x":172630.86000000127,"y":2546531.5}},{"attributes":{"ID":267906,"DIS_CODE":0,"TOWNNAME":"仁德區","LI":"太子里","LIN":"17鄰","STREET":"太興路","SECT":" ","MAREA":" ","LANE":"１２７巷","ALLEY":" ","HOUSE_NO":"１１號","E_COORD97":174057.98000000001,"N_COORD97":2543597.5,"ADDRESS":"太興路１２７巷１１號","OBJECTID":267901},"geometry":{"x":174057.98000000138,"y":2543597.5000000019}},{"attributes":{"ID":267907,"DIS_CODE":0,"TOWNNAME":"安南區","LI":"溪東里","LIN":"17鄰","STREET":"府安路","SECT":"五段","MAREA":" ","LANE":"１１巷","ALLEY":" ","HOUSE_NO":"７１號","E_COORD97":168421.14999999999,"N_COORD97":2547540.3500000001,"ADDRESS":"府安路五段１１巷７１號","OBJECTID":267902},"geometry":{"x":168421.15000000224,"y":2547540.3499999996}},{"attributes":{"ID":267908,"DIS_CODE":0,"TOWNNAME":"安南區","LI":"溪東里","LIN":"17鄰","STREET":"府安路","SECT":"五段","MAREA":" ","LANE":"１１巷","ALLEY":" ","HOUSE_NO":"７３號","E_COORD97":168418.45000000001,"N_COORD97":2547545.4500000002,"ADDRESS":"府安路五段１１巷７３號","OBJECTID":267903},"geometry":{"x":168418.45000000019,"y":2547545.4499999993}},{"attributes":{"ID":267909,"DIS_CODE":0,"TOWNNAME":"安南區","LI":"溪東里","LIN":"17鄰","STREET":"府安路","SECT":"五段","MAREA":" ","LANE":"１１巷","ALLEY":" ","HOUSE_NO":"７５號","E_COORD97":168420.38,"N_COORD97":2547550.6299999999,"ADDRESS":"府安路五段１１巷７５號","OBJECTID":267904},"geometry":{"x":168420.37999999989,"y":2547550.629999999}},{"attributes":{"ID":267910,"DIS_CODE":0,"TOWNNAME":"安南區","LI":"溪東里","LIN":"17鄰","STREET":"府安路","SECT":"五段","MAREA":" ","LANE":"１１巷","ALLEY":" ","HOUSE_NO":"８３號","E_COORD97":168418.62,"N_COORD97":2547575.6499999999,"ADDRESS":"府安路五段１１巷８３號","OBJECTID":267905},"geometry":{"x":168418.62000000011,"y":2547575.6500000004}},{"attributes":{"ID":267911,"DIS_CODE":0,"TOWNNAME":"東區","LI":"莊敬里","LIN":"17鄰","STREET":"中華東路","SECT":"一段","MAREA":" ","LANE":"８０巷","ALLEY":" ","HOUSE_NO":"１９號","E_COORD97":171432.87,"N_COORD97":2544135.5099999998,"ADDRESS":"中華東路一段８０巷１９號","OBJECTID":267906},"geometry":{"x":171432.87000000011,"y":2544135.5099999998}},{"attributes":{"ID":267912,"DIS_CODE":0,"TOWNNAME":"東區","LI":"莊敬里","LIN":"17鄰","STREET":"中華東路","SECT":"一段","MAREA":" ","LANE":"８０巷","ALLEY":" ","HOUSE_NO":"２１號","E_COORD97":171428.23999999999,"N_COORD97":2544134.3700000001,"ADDRESS":"中華東路一段８０巷２１號","OBJECTID":267907},"geometry":{"x":171428.24000000115,"y":2544134.370000001}},{"attributes":{"ID":267913,"DIS_CODE":0,"TOWNNAME":"東區","LI":"莊敬里","LIN":"17鄰","STREET":"中華東路","SECT":"一段","MAREA":" ","LANE":"８０巷","ALLEY":" ","HOUSE_NO":"２３號","E_COORD97":171428.56,"N_COORD97":2544123.1600000001,"ADDRESS":"中華東路一段８０巷２３號","OBJECTID":267908},"geometry":{"x":171428.56000000052,"y":2544123.160000002}},{"attributes":{"ID":267914,"DIS_CODE":0,"TOWNNAME":"善化區","LI":"坐駕里","LIN":"17鄰","STREET":"文化路","SECT":" ","MAREA":" ","LANE":"８２巷","ALLEY":" ","HOUSE_NO":"２４號","E_COORD97":177976.98000000001,"N_COORD97":2558434.0299999998,"ADDRESS":"文化路８２巷２４號","OBJECTID":267909},"geometry":{"x":177976.98000000138,"y":2558434.0300000012}},{"attributes":{"ID":267915,"DIS_CODE":0,"TOWNNAME":"善化區","LI":"光文里","LIN":"17鄰","STREET":"和平路","SECT":" ","MAREA":" ","LANE":"１４６巷","ALLEY":" ","HOUSE_NO":"３號","E_COORD97":178148.32999999999,"N_COORD97":2558967.4900000002,"ADDRESS":"和平路１４６巷３號","OBJECTID":267910},"geometry":{"x":178148.33000000194,"y":2558967.4900000021}},{"attributes":{"ID":267916,"DIS_CODE":0,"TOWNNAME":"善化區","LI":"坐駕里","LIN":"17鄰","STREET":"文化路","SECT":" ","MAREA":" ","LANE":"８２巷","ALLEY":" ","HOUSE_NO":"７號","E_COORD97":177954.17000000001,"N_COORD97":2558409.5299999998,"ADDRESS":"文化路８２巷７號","OBJECTID":267911},"geometry":{"x":177954.16999999993,"y":2558409.5300000012}},{"attributes":{"ID":267917,"DIS_CODE":0,"TOWNNAME":"東區","LI":"大福里","LIN":"18鄰","STREET":"立德八路","SECT":" ","MAREA":" ","LANE":" ","ALLEY":" ","HOUSE_NO":"６０號","E_COORD97":169564.95999999999,"N_COORD97":2541931.1099999999,"ADDRESS":"立德八路６０號","OBJECTID":267912},"geometry":{"x":169564.96000000089,"y":2541931.1100000031}},{"attributes":{"ID":267918,"DIS_CODE":0,"TOWNNAME":"下營區","LI":"西連里","LIN":"3鄰","STREET":" ","SECT":" ","MAREA":"連表","LANE":" ","ALLEY":" ","HOUSE_NO":"２６號","E_COORD97":174850.53,"N_COORD97":2567742.5299999998,"ADDRESS":"連表２６號","OBJECTID":267913},"geometry":{"x":174850.53000000119,"y":2567742.5300000031}},{"attributes":{"ID":267919,"DIS_CODE":0,"TOWNNAME":"永康區","LI":"網寮里","LIN":"17鄰","STREET":"永興路","SECT":" ","MAREA":" ","LANE":"４２７巷","ALLEY":" ","HOUSE_NO":"７號","E_COORD97":173282.92999999999,"N_COORD97":2546852.1200000001,"ADDRESS":"永興路４２７巷７號","OBJECTID":267914},"geometry":{"x":173282.9299999997,"y":2546852.1200000048}},{"attributes":{"ID":267920,"DIS_CODE":0,"TOWNNAME":"永康區","LI":"網寮里","LIN":"17鄰","STREET":"永興路","SECT":" ","MAREA":" ","LANE":"３９７巷","ALLEY":" ","HOUSE_NO":"２０號","E_COORD97":173314.82999999999,"N_COORD97":2546827,"ADDRESS":"永興路３９７巷２０號","OBJECTID":267915},"geometry":{"x":173314.83000000007,"y":2546827}},{"attributes":{"ID":267921,"DIS_CODE":0,"TOWNNAME":"安南區","LI":"新順里","LIN":"3鄰","STREET":"安和路","SECT":"三段","MAREA":" ","LANE":" ","ALLEY":" ","HOUSE_NO":"４２號","E_COORD97":169788.04000000001,"N_COORD97":2549401.5299999998,"ADDRESS":"安和路三段４２號","OBJECTID":267916},"geometry":{"x":169788.04000000097,"y":2549401.5300000012}},{"attributes":{"ID":267922,"DIS_CODE":0,"TOWNNAME":"安南區","LI":"新順里","LIN":"3鄰","STREET":"安和路","SECT":"三段","MAREA":" ","LANE":" ","ALLEY":" ","HOUSE_NO":"２６號","E_COORD97":169767.73999999999,"N_COORD97":2549373.2599999998,"ADDRESS":"安和路三段２６號","OBJECTID":267917},"geometry":{"x":169767.74000000022,"y":2549373.2600000016}},{"attributes":{"ID":267923,"DIS_CODE":0,"TOWNNAME":"永康區","LI":"網寮里","LIN":"17鄰","STREET":"永興路","SECT":" ","MAREA":" ","LANE":"４２７巷","ALLEY":" ","HOUSE_NO":"６號","E_COORD97":173270.45000000001,"N_COORD97":2546859.3399999999,"ADDRESS":"永興路４２７巷６號","OBJECTID":267918},"geometry":{"x":173270.45000000019,"y":2546859.339999998}},{"attributes":{"ID":267924,"DIS_CODE":0,"TOWNNAME":"永康區","LI":"建國里","LIN":"10鄰","STREET":"復國路","SECT":" ","MAREA":" ","LANE":" ","ALLEY":" ","HOUSE_NO":"６８號","E_COORD97":172762.79999999999,"N_COORD97":2544601.9700000002,"ADDRESS":"復國路６８號","OBJECTID":267919},"geometry":{"x":172762.80000000075,"y":2544601.9700000025}},{"attributes":{"ID":267925,"DIS_CODE":0,"TOWNNAME":"永康區","LI":"網寮里","LIN":"17鄰","STREET":"永興路","SECT":" ","MAREA":" ","LANE":"４２７巷","ALLEY":" ","HOUSE_NO":"１５號","E_COORD97":173282.29000000001,"N_COORD97":2546820.25,"ADDRESS":"永興路４２７巷１５號","OBJECTID":267920},"geometry":{"x":173282.29000000097,"y":2546820.2500000019}},{"attributes":{"ID":267926,"DIS_CODE":0,"TOWNNAME":"永康區","LI":"網寮里","LIN":"17鄰","STREET":"永興路","SECT":" ","MAREA":" ","LANE":"３９７巷","ALLEY":" ","HOUSE_NO":"１２號","E_COORD97":173321.10000000001,"N_COORD97":2546838.75,"ADDRESS":"永興路３９７巷１２號","OBJECTID":267921},"geometry":{"x":173321.09999999963,"y":2546838.75}},{"attributes":{"ID":267927,"DIS_CODE":0,"TOWNNAME":"永康區","LI":"建國里","LIN":"10鄰","STREET":"復國路","SECT":" ","MAREA":" ","LANE":" ","ALLEY":" ","HOUSE_NO":"７０號","E_COORD97":172762.79999999999,"N_COORD97":2544601.9700000002,"ADDRESS":"復國路７０號","OBJECTID":267922},"geometry":{"x":172762.80000000075,"y":2544601.9700000025}},{"attributes":{"ID":267928,"DIS_CODE":0,"TOWNNAME":"安南區","LI":"新順里","LIN":"3鄰","STREET":"安和路","SECT":"三段","MAREA":" ","LANE":" ","ALLEY":" ","HOUSE_NO":"６０號","E_COORD97":169801.98000000001,"N_COORD97":2549457.2000000002,"ADDRESS":"安和路三段６０號","OBJECTID":267923},"geometry":{"x":169801.98000000045,"y":2549457.2000000011}},{"attributes":{"ID":267929,"DIS_CODE":0,"TOWNNAME":"永康區","LI":"網寮里","LIN":"17鄰","STREET":"永興路","SECT":" ","MAREA":" ","LANE":"４２７巷","ALLEY":" ","HOUSE_NO":"１１號","E_COORD97":173284.92999999999,"N_COORD97":2546839.3700000001,"ADDRESS":"永興路４２７巷１１號","OBJECTID":267924},"geometry":{"x":173284.9299999997,"y":2546839.370000001}},{"attributes":{"ID":267930,"DIS_CODE":0,"TOWNNAME":"永康區","LI":"網寮里","LIN":"17鄰","STREET":"永興路","SECT":" ","MAREA":" ","LANE":"３９７巷","ALLEY":" ","HOUSE_NO":"１６號","E_COORD97":173318.51000000001,"N_COORD97":2546835,"ADDRESS":"永興路３９７巷１６號","OBJECTID":267925},"geometry":{"x":173318.50999999978,"y":2546835.0000000037}},{"attributes":{"ID":267931,"DIS_CODE":0,"TOWNNAME":"永康區","LI":"復興里","LIN":"17鄰","STREET":"復興路","SECT":" ","MAREA":" ","LANE":"３５６巷","ALLEY":" ","HOUSE_NO":"６１號","E_COORD97":172319.57000000001,"N_COORD97":2544472.4900000002,"ADDRESS":"復興路３５６巷６１號","OBJECTID":267926},"geometry":{"x":172319.57000000123,"y":2544472.4900000021}},{"attributes":{"ID":267932,"DIS_CODE":0,"TOWNNAME":"永康區","LI":"復興里","LIN":"17鄰","STREET":"復興路","SECT":" ","MAREA":" ","LANE":"３５６巷","ALLEY":" ","HOUSE_NO":"４３號","E_COORD97":172299.95000000001,"N_COORD97":2544444.7799999998,"ADDRESS":"復興路３５６巷４３號","OBJECTID":267927},"geometry":{"x":172299.95000000112,"y":2544444.7799999993}},{"attributes":{"ID":267933,"DIS_CODE":0,"TOWNNAME":"永康區","LI":"復興里","LIN":"17鄰","STREET":"復興路","SECT":" ","MAREA":" ","LANE":"３５６巷","ALLEY":" ","HOUSE_NO":"４５號","E_COORD97":172303.48000000001,"N_COORD97":2544447.0299999998,"ADDRESS":"復興路３５６巷４５號","OBJECTID":267928},"geometry":{"x":172303.48000000138,"y":2544447.0300000031}},{"attributes":{"ID":267934,"DIS_CODE":0,"TOWNNAME":"善化區","LI":"坐駕里","LIN":"17鄰","STREET":"興華路","SECT":" ","MAREA":" ","LANE":"２８９巷","ALLEY":" ","HOUSE_NO":"１１號","E_COORD97":177816.17999999999,"N_COORD97":2558458.25,"ADDRESS":"興華路２８９巷１１號","OBJECTID":267929},"geometry":{"x":177816.1799999997,"y":2558458.25}},{"attributes":{"ID":267935,"DIS_CODE":0,"TOWNNAME":"善化區","LI":"坐駕里","LIN":"17鄰","STREET":"興華路","SECT":" ","MAREA":" ","LANE":"２８９巷","ALLEY":" ","HOUSE_NO":"１３號","E_COORD97":177816.73999999999,"N_COORD97":2558454,"ADDRESS":"興華路２８９巷１３號","OBJECTID":267930},"geometry":{"x":177816.73999999929,"y":2558454.0000000019}},{"attributes":{"ID":267936,"DIS_CODE":0,"TOWNNAME":"善化區","LI":"坐駕里","LIN":"17鄰","STREET":"興華路","SECT":" ","MAREA":" ","LANE":"３０７巷","ALLEY":" ","HOUSE_NO":"１１號","E_COORD97":177794.57999999999,"N_COORD97":2558435.5,"ADDRESS":"興華路３０７巷１１號","OBJECTID":267931},"geometry":{"x":177794.58000000101,"y":2558435.5}},{"attributes":{"ID":267937,"DIS_CODE":0,"TOWNNAME":"善化區","LI":"坐駕里","LIN":"17鄰","STREET":"興華路","SECT":" ","MAREA":" ","LANE":"３０７巷","ALLEY":" ","HOUSE_NO":"８號","E_COORD97":177791.89999999999,"N_COORD97":2558447,"ADDRESS":"興華路３０７巷８號","OBJECTID":267932},"geometry":{"x":177791.90000000037,"y":2558447.0000000037}},{"attributes":{"ID":267938,"DIS_CODE":0,"TOWNNAME":"善化區","LI":"坐駕里","LIN":"17鄰","STREET":"興華路","SECT":" ","MAREA":" ","LANE":"３０７巷","ALLEY":" ","HOUSE_NO":"１０號","E_COORD97":177794.04000000001,"N_COORD97":2558439.25,"ADDRESS":"興華路３０７巷１０號","OBJECTID":267933},"geometry":{"x":177794.04000000004,"y":2558439.2500000019}},{"attributes":{"ID":267939,"DIS_CODE":0,"TOWNNAME":"善化區","LI":"坐駕里","LIN":"17鄰","STREET":"興華路","SECT":" ","MAREA":" ","LANE":"２８９巷","ALLEY":" ","HOUSE_NO":"６號","E_COORD97":177831.48000000001,"N_COORD97":2558478.75,"ADDRESS":"興華路２８９巷６號","OBJECTID":267934},"geometry":{"x":177831.48000000138,"y":2558478.75}},{"attributes":{"ID":267940,"DIS_CODE":0,"TOWNNAME":"善化區","LI":"坐駕里","LIN":"17鄰","STREET":"興華路","SECT":" ","MAREA":" ","LANE":"２８９巷","ALLEY":" ","HOUSE_NO":"１號","E_COORD97":177810.98999999999,"N_COORD97":2558477.25,"ADDRESS":"興華路２８９巷１號","OBJECTID":267935},"geometry":{"x":177810.99000000022,"y":2558477.2500000019}},{"attributes":{"ID":267941,"DIS_CODE":0,"TOWNNAME":"善化區","LI":"坐駕里","LIN":"17鄰","STREET":"興華路","SECT":" ","MAREA":" ","LANE":"３０７巷","ALLEY":" ","HOUSE_NO":"１２號","E_COORD97":177795.67999999999,"N_COORD97":2558431.5,"ADDRESS":"興華路３０７巷１２號","OBJECTID":267936},"geometry":{"x":177795.6799999997,"y":2558431.5000000019}},{"attributes":{"ID":267942,"DIS_CODE":0,"TOWNNAME":"安南區","LI":"新順里","LIN":"3鄰","STREET":"安和路","SECT":"三段","MAREA":" ","LANE":" ","ALLEY":" ","HOUSE_NO":"７８號","E_COORD97":169819.48000000001,"N_COORD97":2549503.5600000001,"ADDRESS":"安和路三段７８號","OBJECTID":267937},"geometry":{"x":169819.48000000138,"y":2549503.5600000024}},{"attributes":{"ID":267943,"DIS_CODE":0,"TOWNNAME":"善化區","LI":"坐駕里","LIN":"17鄰","STREET":"興華路","SECT":" ","MAREA":" ","LANE":"２８９巷","ALLEY":" ","HOUSE_NO":"１５號","E_COORD97":177818.29000000001,"N_COORD97":2558449,"ADDRESS":"興華路２８９巷１５號","OBJECTID":267938},"geometry":{"x":177818.29000000097,"y":2558449}},{"attributes":{"ID":267944,"DIS_CODE":0,"TOWNNAME":"善化區","LI":"坐駕里","LIN":"17鄰","STREET":"興華路","SECT":" ","MAREA":" ","LANE":"３０７巷","ALLEY":" ","HOUSE_NO":"５號","E_COORD97":177789.35000000001,"N_COORD97":2558458.75,"ADDRESS":"興華路３０７巷５號","OBJECTID":267939},"geometry":{"x":177789.34999999963,"y":2558458.7500000037}},{"attributes":{"ID":267945,"DIS_CODE":0,"TOWNNAME":"安南區","LI":"海佃里","LIN":"17鄰","STREET":"海佃路","SECT":"一段","MAREA":" ","LANE":"１５７巷","ALLEY":" ","HOUSE_NO":"１號","E_COORD97":167117.92000000001,"N_COORD97":2547118.2799999998,"ADDRESS":"海佃路一段１５７巷１號","OBJECTID":267940},"geometry":{"x":167117.91999999993,"y":2547118.2800000012}},{"attributes":{"ID":267946,"DIS_CODE":0,"TOWNNAME":"安南區","LI":"海佃里","LIN":"17鄰","STREET":"海佃路","SECT":"一段","MAREA":" ","LANE":"１５７巷","ALLEY":" ","HOUSE_NO":"１號之１","E_COORD97":167125.10000000001,"N_COORD97":2547096.4300000002,"ADDRESS":"海佃路一段１５７巷１號之１","OBJECTID":267941},"geometry":{"x":167125.09999999963,"y":2547096.4300000016}},{"attributes":{"ID":267947,"DIS_CODE":0,"TOWNNAME":"安南區","LI":"海佃里","LIN":"17鄰","STREET":"海佃路","SECT":"一段","MAREA":" ","LANE":"１５７巷","ALLEY":" ","HOUSE_NO":"２號","E_COORD97":167113.26000000001,"N_COORD97":2547118.9500000002,"ADDRESS":"海佃路一段１５７巷２號","OBJECTID":267942},"geometry":{"x":167113.26000000071,"y":2547118.9499999974}},{"attributes":{"ID":267948,"DIS_CODE":0,"TOWNNAME":"安南區","LI":"海佃里","LIN":"17鄰","STREET":"海佃路","SECT":"一段","MAREA":" ","LANE":"１５７巷","ALLEY":" ","HOUSE_NO":"３號","E_COORD97":167109.94,"N_COORD97":2547116.96,"ADDRESS":"海佃路一段１５７巷３號","OBJECTID":267943},"geometry":{"x":167109.94000000041,"y":2547116.9600000009}},{"attributes":{"ID":267949,"DIS_CODE":0,"TOWNNAME":"安南區","LI":"海佃里","LIN":"17鄰","STREET":"海佃路","SECT":"一段","MAREA":" ","LANE":"１５７巷","ALLEY":" ","HOUSE_NO":"４號","E_COORD97":167105.28,"N_COORD97":2547115.6299999999,"ADDRESS":"海佃路一段１５７巷４號","OBJECTID":267944},"geometry":{"x":167105.28000000119,"y":2547115.6300000008}},{"attributes":{"ID":267950,"DIS_CODE":0,"TOWNNAME":"永康區","LI":"崑山里","LIN":"17鄰","STREET":"大灣路","SECT":" ","MAREA":" ","LANE":"９４２巷","ALLEY":" ","HOUSE_NO":"６１號","E_COORD97":173641.54000000001,"N_COORD97":2544560.75,"ADDRESS":"大灣路９４２巷６１號","OBJECTID":267945},"geometry":{"x":173641.54000000097,"y":2544560.75}},{"attributes":{"ID":267951,"DIS_CODE":0,"TOWNNAME":"永康區","LI":"西勢里","LIN":"17鄰","STREET":"富強路","SECT":"一段","MAREA":" ","LANE":"２５４巷","ALLEY":" ","HOUSE_NO":"２號","E_COORD97":175692.35999999999,"N_COORD97":2546468.8900000001,"ADDRESS":"富強路一段２５４巷２號","OBJECTID":267946},"geometry":{"x":175692.36000000127,"y":2546468.8900000006}},{"attributes":{"ID":267952,"DIS_CODE":0,"TOWNNAME":"安南區","LI":"幸福里","LIN":"17鄰","STREET":"府安路","SECT":"六段","MAREA":" ","LANE":"２７巷","ALLEY":" ","HOUSE_NO":"１１號","E_COORD97":167024.92000000001,"N_COORD97":2546733.6000000001,"ADDRESS":"府安路六段２７巷１１號","OBJECTID":267947},"geometry":{"x":167024.91999999993,"y":2546733.6000000015}},{"attributes":{"ID":267953,"DIS_CODE":0,"TOWNNAME":"安南區","LI":"幸福里","LIN":"17鄰","STREET":"府安路","SECT":"六段","MAREA":" ","LANE":"２７巷","ALLEY":" ","HOUSE_NO":"１３號","E_COORD97":167023.44,"N_COORD97":2546738.1499999999,"ADDRESS":"府安路六段２７巷１３號","OBJECTID":267948},"geometry":{"x":167023.44000000041,"y":2546738.1500000004}},{"attributes":{"ID":267954,"DIS_CODE":0,"TOWNNAME":"安南區","LI":"幸福里","LIN":"17鄰","STREET":"府安路","SECT":"六段","MAREA":" ","LANE":"２７巷","ALLEY":" ","HOUSE_NO":"１５號","E_COORD97":167022.29000000001,"N_COORD97":2546743.0899999999,"ADDRESS":"府安路六段２７巷１５號","OBJECTID":267949},"geometry":{"x":167022.29000000004,"y":2546743.0900000017}},{"attributes":{"ID":267955,"DIS_CODE":0,"TOWNNAME":"安南區","LI":"幸福里","LIN":"17鄰","STREET":"府安路","SECT":"六段","MAREA":" ","LANE":"２７巷","ALLEY":" ","HOUSE_NO":"１９號","E_COORD97":167020.92000000001,"N_COORD97":2546752.1899999999,"ADDRESS":"府安路六段２７巷１９號","OBJECTID":267950},"geometry":{"x":167020.92000000086,"y":2546752.1900000013}},{"attributes":{"ID":267956,"DIS_CODE":0,"TOWNNAME":"安南區","LI":"幸福里","LIN":"17鄰","STREET":"府安路","SECT":"六段","MAREA":" ","LANE":"２７巷","ALLEY":" ","HOUSE_NO":"２１號","E_COORD97":167019.79000000001,"N_COORD97":2546757.1899999999,"ADDRESS":"府安路六段２７巷２１號","OBJECTID":267951},"geometry":{"x":167019.7900000019,"y":2546757.1899999995}},{"attributes":{"ID":267957,"DIS_CODE":0,"TOWNNAME":"安南區","LI":"幸福里","LIN":"17鄰","STREET":"府安路","SECT":"六段","MAREA":" ","LANE":"２７巷","ALLEY":" ","HOUSE_NO":"２３號","E_COORD97":167018.98999999999,"N_COORD97":2546762.3100000001,"ADDRESS":"府安路六段２７巷２３號","OBJECTID":267952},"geometry":{"x":167018.99000000115,"y":2546762.3100000042}},{"attributes":{"ID":267958,"DIS_CODE":0,"TOWNNAME":"安南區","LI":"幸福里","LIN":"17鄰","STREET":"府安路","SECT":"六段","MAREA":" ","LANE":"２７巷","ALLEY":" ","HOUSE_NO":"２５號","E_COORD97":167017.95999999999,"N_COORD97":2546766.3300000001,"ADDRESS":"府安路六段２７巷２５號","OBJECTID":267953},"geometry":{"x":167017.95999999996,"y":2546766.3300000019}},{"attributes":{"ID":267959,"DIS_CODE":0,"TOWNNAME":"安南區","LI":"幸福里","LIN":"17鄰","STREET":"府安路","SECT":"六段","MAREA":" ","LANE":"２７巷","ALLEY":" ","HOUSE_NO":"２７號","E_COORD97":167017.04000000001,"N_COORD97":2546771.3500000001,"ADDRESS":"府安路六段２７巷２７號","OBJECTID":267954},"geometry":{"x":167017.04000000097,"y":2546771.3500000034}},{"attributes":{"ID":267960,"DIS_CODE":0,"TOWNNAME":"安南區","LI":"幸福里","LIN":"17鄰","STREET":"府安路","SECT":"六段","MAREA":" ","LANE":"２７巷","ALLEY":" ","HOUSE_NO":"３１號","E_COORD97":167015,"N_COORD97":2546781.1200000001,"ADDRESS":"府安路六段２７巷３１號","OBJECTID":267955},"geometry":{"x":167015.00000000093,"y":2546781.1200000048}},{"attributes":{"ID":267961,"DIS_CODE":0,"TOWNNAME":"安南區","LI":"幸福里","LIN":"17鄰","STREET":"府安路","SECT":"六段","MAREA":" ","LANE":"２７巷","ALLEY":" ","HOUSE_NO":"３５號","E_COORD97":167014.29999999999,"N_COORD97":2546793.7400000002,"ADDRESS":"府安路六段２７巷３５號","OBJECTID":267956},"geometry":{"x":167014.30000000168,"y":2546793.7400000021}},{"attributes":{"ID":267962,"DIS_CODE":0,"TOWNNAME":"安南區","LI":"幸福里","LIN":"17鄰","STREET":"府安路","SECT":"六段","MAREA":" ","LANE":"２７巷","ALLEY":" ","HOUSE_NO":"７號","E_COORD97":167026.17000000001,"N_COORD97":2546724.0499999998,"ADDRESS":"府安路六段２７巷７號","OBJECTID":267957},"geometry":{"x":167026.17000000086,"y":2546724.0500000026}},{"attributes":{"ID":267963,"DIS_CODE":0,"TOWNNAME":"仁德區","LI":"太子里","LIN":"17鄰","STREET":"太興路","SECT":" ","MAREA":" ","LANE":"１２７巷","ALLEY":" ","HOUSE_NO":"５號","E_COORD97":174074.37,"N_COORD97":2543594,"ADDRESS":"太興路１２７巷５號","OBJECTID":267958},"geometry":{"x":174074.37000000011,"y":2543594.0000000019}},{"attributes":{"ID":267964,"DIS_CODE":0,"TOWNNAME":"仁德區","LI":"太子里","LIN":"17鄰","STREET":"太子北路","SECT":" ","MAREA":" ","LANE":"１３２巷","ALLEY":" ","HOUSE_NO":"３號","E_COORD97":174039.78,"N_COORD97":2543705,"ADDRESS":"太子北路１３２巷３號","OBJECTID":267959},"geometry":{"x":174039.78000000212,"y":2543705}},{"attributes":{"ID":267965,"DIS_CODE":0,"TOWNNAME":"仁德區","LI":"太子里","LIN":"17鄰","STREET":"太子北路","SECT":" ","MAREA":" ","LANE":"１３２巷","ALLEY":" ","HOUSE_NO":"７號","E_COORD97":174042.29999999999,"N_COORD97":2543716.7599999998,"ADDRESS":"太子北路１３２巷７號","OBJECTID":267960},"geometry":{"x":174042.29999999981,"y":2543716.7599999998}},{"attributes":{"ID":267966,"DIS_CODE":0,"TOWNNAME":"仁德區","LI":"太子里","LIN":"17鄰","STREET":"太興路","SECT":" ","MAREA":" ","LANE":"１２７巷","ALLEY":" ","HOUSE_NO":"６號","E_COORD97":174073.39999999999,"N_COORD97":2543613.5099999998,"ADDRESS":"太興路１２７巷６號","OBJECTID":267961},"geometry":{"x":174073.4000000013,"y":2543613.5099999979}},{"attributes":{"ID":267967,"DIS_CODE":0,"TOWNNAME":"仁德區","LI":"太子里","LIN":"17鄰","STREET":"太興路","SECT":" ","MAREA":" ","LANE":"１２７巷","ALLEY":" ","HOUSE_NO":"１３號","E_COORD97":174046.89999999999,"N_COORD97":2543612.2599999998,"ADDRESS":"太興路１２７巷１３號","OBJECTID":267962},"geometry":{"x":174046.90000000037,"y":2543612.2600000035}},{"attributes":{"ID":267968,"DIS_CODE":0,"TOWNNAME":"仁德區","LI":"太子里","LIN":"17鄰","STREET":"太興路","SECT":" ","MAREA":" ","LANE":"１２７巷","ALLEY":" ","HOUSE_NO":"３號","E_COORD97":174075.85000000001,"N_COORD97":2543598.25,"ADDRESS":"太興路１２７巷３號","OBJECTID":267963},"geometry":{"x":174075.85000000149,"y":2543598.25}},{"attributes":{"ID":267969,"DIS_CODE":0,"TOWNNAME":"仁德區","LI":"太子里","LIN":"17鄰","STREET":"太興路","SECT":" ","MAREA":" ","LANE":"１２７巷","ALLEY":" ","HOUSE_NO":"２號","E_COORD97":174082.54000000001,"N_COORD97":2543611.0099999998,"ADDRESS":"太興路１２７巷２號","OBJECTID":267964},"geometry":{"x":174082.54000000097,"y":2543611.0100000016}},{"attributes":{"ID":267970,"DIS_CODE":0,"TOWNNAME":"永康區","LI":"東橋里","LIN":"17鄰","STREET":"東橋三路","SECT":" ","MAREA":" ","LANE":"４６６巷","ALLEY":" ","HOUSE_NO":"２號","E_COORD97":171357.42000000001,"N_COORD97":2547142.9199999999,"ADDRESS":"東橋三路４６６巷２號","OBJECTID":267965},"geometry":{"x":171357.42000000086,"y":2547142.9199999999}},{"attributes":{"ID":267971,"DIS_CODE":0,"TOWNNAME":"永康區","LI":"東橋里","LIN":"17鄰","STREET":"東橋三路","SECT":" ","MAREA":" ","LANE":"４６６巷","ALLEY":" ","HOUSE_NO":"６號","E_COORD97":171363.47,"N_COORD97":2547145.8900000001,"ADDRESS":"東橋三路４６６巷６號","OBJECTID":267966},"geometry":{"x":171363.47000000067,"y":2547145.8900000025}},{"attributes":{"ID":267972,"DIS_CODE":0,"TOWNNAME":"永康區","LI":"東橋里","LIN":"17鄰","STREET":"東橋三路","SECT":" ","MAREA":" ","LANE":"４６６巷","ALLEY":" ","HOUSE_NO":"８號","E_COORD97":171368.29000000001,"N_COORD97":2547148.8799999999,"ADDRESS":"東橋三路４６６巷８號","OBJECTID":267967},"geometry":{"x":171368.29000000097,"y":2547148.879999999}},{"attributes":{"ID":267973,"DIS_CODE":0,"TOWNNAME":"永康區","LI":"東橋里","LIN":"17鄰","STREET":"東橋三路","SECT":" ","MAREA":" ","LANE":"４６６巷","ALLEY":" ","HOUSE_NO":"１０號","E_COORD97":171373.12,"N_COORD97":2547151.8700000001,"ADDRESS":"東橋三路４６６巷１０號","OBJECTID":267968},"geometry":{"x":171373.12000000104,"y":2547151.870000001}},{"attributes":{"ID":267974,"DIS_CODE":0,"TOWNNAME":"永康區","LI":"東橋里","LIN":"17鄰","STREET":"東橋三路","SECT":" ","MAREA":" ","LANE":"４６６巷","ALLEY":" ","HOUSE_NO":"１２號","E_COORD97":171377.82999999999,"N_COORD97":2547154.7999999998,"ADDRESS":"東橋三路４６６巷１２號","OBJECTID":267969},"geometry":{"x":171377.83000000194,"y":2547154.8000000007}},{"attributes":{"ID":267975,"DIS_CODE":0,"TOWNNAME":"永康區","LI":"東橋里","LIN":"17鄰","STREET":"東橋三路","SECT":" ","MAREA":" ","LANE":"４６６巷","ALLEY":" ","HOUSE_NO":"１６號","E_COORD97":171382.48000000001,"N_COORD97":2547157.6800000002,"ADDRESS":"東橋三路４６６巷１６號","OBJECTID":267970},"geometry":{"x":171382.48000000138,"y":2547157.6799999997}},{"attributes":{"ID":267976,"DIS_CODE":0,"TOWNNAME":"永康區","LI":"東橋里","LIN":"17鄰","STREET":"東橋三路","SECT":" ","MAREA":" ","LANE":"４６６巷","ALLEY":" ","HOUSE_NO":"１８號","E_COORD97":171385.91,"N_COORD97":2547161.8100000001,"ADDRESS":"東橋三路４６６巷１８號","OBJECTID":267971},"geometry":{"x":171385.91000000108,"y":2547161.8100000005}},{"attributes":{"ID":267977,"DIS_CODE":0,"TOWNNAME":"永康區","LI":"東橋里","LIN":"17鄰","STREET":"東橋三路","SECT":" ","MAREA":" ","LANE":"４６６巷","ALLEY":" ","HOUSE_NO":"３２號","E_COORD97":171414.32000000001,"N_COORD97":2547177.4300000002,"ADDRESS":"東橋三路４６６巷３２號","OBJECTID":267972},"geometry":{"x":171414.32000000123,"y":2547177.4300000034}},{"attributes":{"ID":267978,"DIS_CODE":0,"TOWNNAME":"永康區","LI":"東橋里","LIN":"17鄰","STREET":"東橋三路","SECT":" ","MAREA":" ","LANE":"４６６巷","ALLEY":" ","HOUSE_NO":"３６號","E_COORD97":171417.66,"N_COORD97":2547181.5,"ADDRESS":"東橋三路４６６巷３６號","OBJECTID":267973},"geometry":{"x":171417.66000000015,"y":2547181.5000000019}},{"attributes":{"ID":267979,"DIS_CODE":0,"TOWNNAME":"永康區","LI":"東橋里","LIN":"17鄰","STREET":"東橋三路","SECT":" ","MAREA":" ","LANE":"４６６巷","ALLEY":" ","HOUSE_NO":"３８號","E_COORD97":171422.72,"N_COORD97":2547182.6299999999,"ADDRESS":"東橋三路４６６巷３８號","OBJECTID":267974},"geometry":{"x":171422.72000000067,"y":2547182.6300000008}},{"attributes":{"ID":267980,"DIS_CODE":0,"TOWNNAME":"下營區","LI":"西連里","LIN":"3鄰","STREET":" ","SECT":" ","MAREA":"連表","LANE":" ","ALLEY":" ","HOUSE_NO":"２３號之１","E_COORD97":174934.01999999999,"N_COORD97":2567731.9199999999,"ADDRESS":"連表２３號之１","OBJECTID":267975},"geometry":{"x":174934.01999999862,"y":2567731.9200000018}},{"attributes":{"ID":267981,"DIS_CODE":0,"TOWNNAME":"下營區","LI":"西連里","LIN":"3鄰","STREET":" ","SECT":" ","MAREA":"連表","LANE":" ","ALLEY":" ","HOUSE_NO":"２３號","E_COORD97":174918.16,"N_COORD97":2567749.23,"ADDRESS":"連表２３號","OBJECTID":267976},"geometry":{"x":174918.16000000015,"y":2567749.2300000042}},{"attributes":{"ID":267982,"DIS_CODE":0,"TOWNNAME":"下營區","LI":"西連里","LIN":"3鄰","STREET":" ","SECT":" ","MAREA":"連表","LANE":" ","ALLEY":" ","HOUSE_NO":"２４號","E_COORD97":174895.28,"N_COORD97":2567713.8799999999,"ADDRESS":"連表２４號","OBJECTID":267977},"geometry":{"x":174895.28000000026,"y":2567713.8800000008}},{"attributes":{"ID":267983,"DIS_CODE":0,"TOWNNAME":"下營區","LI":"西連里","LIN":"3鄰","STREET":" ","SECT":" ","MAREA":"連表","LANE":" ","ALLEY":" ","HOUSE_NO":"２５號","E_COORD97":174866.82999999999,"N_COORD97":2567715.9300000002,"ADDRESS":"連表２５號","OBJECTID":267978},"geometry":{"x":174866.83000000101,"y":2567715.9299999997}},{"attributes":{"ID":267984,"DIS_CODE":0,"TOWNNAME":"下營區","LI":"西連里","LIN":"3鄰","STREET":" ","SECT":" ","MAREA":"連表","LANE":" ","ALLEY":" ","HOUSE_NO":"２６號之１","E_COORD97":174841.23999999999,"N_COORD97":2567739.8900000001,"ADDRESS":"連表２６號之１","OBJECTID":267979},"geometry":{"x":174841.24000000022,"y":2567739.8900000006}},{"attributes":{"ID":267985,"DIS_CODE":0,"TOWNNAME":"下營區","LI":"西連里","LIN":"3鄰","STREET":" ","SECT":" ","MAREA":"連表","LANE":" ","ALLEY":" ","HOUSE_NO":"２６號之２","E_COORD97":174841.88,"N_COORD97":2567747.5899999999,"ADDRESS":"連表２６號之２","OBJECTID":267980},"geometry":{"x":174841.87999999989,"y":2567747.5900000017}},{"attributes":{"ID":267986,"DIS_CODE":0,"TOWNNAME":"永康區","LI":"東橋里","LIN":"17鄰","STREET":"東橋三路","SECT":" ","MAREA":" ","LANE":"４６６巷","ALLEY":" ","HOUSE_NO":"４０號","E_COORD97":171427.35999999999,"N_COORD97":2547185.52,"ADDRESS":"東橋三路４６６巷４０號","OBJECTID":267981},"geometry":{"x":171427.36000000127,"y":2547185.5199999996}},{"attributes":{"ID":267987,"DIS_CODE":0,"TOWNNAME":"永康區","LI":"東橋里","LIN":"17鄰","STREET":"東橋三路","SECT":" ","MAREA":" ","LANE":"４６６巷","ALLEY":" ","HOUSE_NO":"４２號","E_COORD97":171432.38,"N_COORD97":2547189.4100000001,"ADDRESS":"東橋三路４６６巷４２號","OBJECTID":267982},"geometry":{"x":171432.37999999989,"y":2547189.410000002}},{"attributes":{"ID":267988,"DIS_CODE":0,"TOWNNAME":"永康區","LI":"東橋里","LIN":"17鄰","STREET":"東橋三路","SECT":" ","MAREA":" ","LANE":"４６６巷","ALLEY":" ","HOUSE_NO":"１號","E_COORD97":171346.22,"N_COORD97":2547165.9100000001,"ADDRESS":"東橋三路４６６巷１號","OBJECTID":267983},"geometry":{"x":171346.22000000067,"y":2547165.910000002}},{"attributes":{"ID":267989,"DIS_CODE":0,"TOWNNAME":"新市區","LI":"新和里","LIN":"17鄰","STREET":"銘傳街","SECT":" ","MAREA":" ","LANE":"１２巷","ALLEY":" ","HOUSE_NO":"４號","E_COORD97":177543.04000000001,"N_COORD97":2552681.25,"ADDRESS":"銘傳街１２巷４號","OBJECTID":267984},"geometry":{"x":177543.04000000004,"y":2552681.25}},{"attributes":{"ID":267990,"DIS_CODE":0,"TOWNNAME":"新市區","LI":"新和里","LIN":"17鄰","STREET":"銘傳街","SECT":" ","MAREA":" ","LANE":"１２巷","ALLEY":" ","HOUSE_NO":"１０號","E_COORD97":177546.29000000001,"N_COORD97":2552699.75,"ADDRESS":"銘傳街１２巷１０號","OBJECTID":267985},"geometry":{"x":177546.29000000004,"y":2552699.7500000019}},{"attributes":{"ID":267991,"DIS_CODE":0,"TOWNNAME":"永康區","LI":"北灣里","LIN":"17鄰","STREET":"信義二街","SECT":" ","MAREA":" ","LANE":"１６０巷","ALLEY":" ","HOUSE_NO":"５號","E_COORD97":174831.66,"N_COORD97":2545762.1899999999,"ADDRESS":"信義二街１６０巷５號","OBJECTID":267986},"geometry":{"x":174831.66000000015,"y":2545762.1900000013}},{"attributes":{"ID":267992,"DIS_CODE":0,"TOWNNAME":"新市區","LI":"新和里","LIN":"17鄰","STREET":"銘傳街","SECT":" ","MAREA":" ","LANE":"１１巷","ALLEY":" ","HOUSE_NO":"４號","E_COORD97":177519.34,"N_COORD97":2552629.5,"ADDRESS":"銘傳街１１巷４號","OBJECTID":267987},"geometry":{"x":177519.34000000078,"y":2552629.5000000019}},{"attributes":{"ID":267993,"DIS_CODE":0,"TOWNNAME":"新市區","LI":"新和里","LIN":"17鄰","STREET":"銘傳街","SECT":" ","MAREA":" ","LANE":"１２巷","ALLEY":" ","HOUSE_NO":"６號","E_COORD97":177543.54000000001,"N_COORD97":2552685.5,"ADDRESS":"銘傳街１２巷６號","OBJECTID":267988},"geometry":{"x":177543.54000000097,"y":2552685.5}},{"attributes":{"ID":267994,"DIS_CODE":0,"TOWNNAME":"永康區","LI":"東橋里","LIN":"17鄰","STREET":"東橋三路","SECT":" ","MAREA":" ","LANE":"４８２巷","ALLEY":" ","HOUSE_NO":"２１號","E_COORD97":171370.23999999999,"N_COORD97":2547220.8900000001,"ADDRESS":"東橋三路４８２巷２１號","OBJECTID":267989},"geometry":{"x":171370.24000000115,"y":2547220.8900000025}},{"attributes":{"ID":267995,"DIS_CODE":0,"TOWNNAME":"永康區","LI":"西勢里","LIN":"17鄰","STREET":"富強路","SECT":"一段","MAREA":" ","LANE":"２５４巷","ALLEY":" ","HOUSE_NO":"１９號","E_COORD97":175741.94,"N_COORD97":2546434.1000000001,"ADDRESS":"富強路一段２５４巷１９號","OBJECTID":267990},"geometry":{"x":175741.94000000041,"y":2546434.1000000015}},{"attributes":{"ID":267996,"DIS_CODE":0,"TOWNNAME":"安南區","LI":"海東里","LIN":"17鄰","STREET":"同安路","SECT":" ","MAREA":" ","LANE":"３８７巷","ALLEY":" ","HOUSE_NO":"３號","E_COORD97":167272.39999999999,"N_COORD97":2549369.52,"ADDRESS":"同安路３８７巷３號","OBJECTID":267991},"geometry":{"x":167272.4000000013,"y":2549369.5199999996}},{"attributes":{"ID":267997,"DIS_CODE":0,"TOWNNAME":"安南區","LI":"海東里","LIN":"17鄰","STREET":"同安路","SECT":" ","MAREA":" ","LANE":"３８７巷","ALLEY":" ","HOUSE_NO":"５號","E_COORD97":167268.67000000001,"N_COORD97":2549371.52,"ADDRESS":"同安路３８７巷５號","OBJECTID":267992},"geometry":{"x":167268.67000000086,"y":2549371.5200000014}},{"attributes":{"ID":267998,"DIS_CODE":0,"TOWNNAME":"安南區","LI":"溪北里","LIN":"17鄰","STREET":"惠安街","SECT":" ","MAREA":" ","LANE":"２３巷","ALLEY":" ","HOUSE_NO":"１號","E_COORD97":169104.69,"N_COORD97":2547463.1200000001,"ADDRESS":"惠安街２３巷１號","OBJECTID":267993},"geometry":{"x":169104.69000000134,"y":2547463.1200000029}},{"attributes":{"ID":267999,"DIS_CODE":0,"TOWNNAME":"安南區","LI":"溪北里","LIN":"17鄰","STREET":"惠安街","SECT":" ","MAREA":" ","LANE":"２３巷","ALLEY":" ","HOUSE_NO":"５號","E_COORD97":169104.85999999999,"N_COORD97":2547455.27,"ADDRESS":"惠安街２３巷５號","OBJECTID":267994},"geometry":{"x":169104.86000000127,"y":2547455.2699999996}},{"attributes":{"ID":268000,"DIS_CODE":0,"TOWNNAME":"下營區","LI":"西連里","LIN":"3鄰","STREET":" ","SECT":" ","MAREA":"連表","LANE":" ","ALLEY":" ","HOUSE_NO":"２８號","E_COORD97":174869.48000000001,"N_COORD97":2567770.3700000001,"ADDRESS":"連表２８號","OBJECTID":267995},"geometry":{"x":174869.48000000138,"y":2567770.3700000029}},{"attributes":{"ID":268001,"DIS_CODE":0,"TOWNNAME":"下營區","LI":"西連里","LIN":"3鄰","STREET":" ","SECT":" ","MAREA":"連表","LANE":" ","ALLEY":" ","HOUSE_NO":"３０號之１","E_COORD97":174828.29000000001,"N_COORD97":2567790.98,"ADDRESS":"連表３０號之１","OBJECTID":267996},"geometry":{"x":174828.29000000097,"y":2567790.9800000004}},{"attributes":{"ID":268002,"DIS_CODE":0,"TOWNNAME":"下營區","LI":"西連里","LIN":"3鄰","STREET":" ","SECT":" ","MAREA":"連表","LANE":" ","ALLEY":" ","HOUSE_NO":"３０號之２","E_COORD97":174800.78,"N_COORD97":2567761.75,"ADDRESS":"連表３０號之２","OBJECTID":267997},"geometry":{"x":174800.77999999933,"y":2567761.7499999981}},{"attributes":{"ID":268003,"DIS_CODE":0,"TOWNNAME":"下營區","LI":"西連里","LIN":"3鄰","STREET":" ","SECT":" ","MAREA":"連表","LANE":" ","ALLEY":" ","HOUSE_NO":"３０號之３","E_COORD97":174820.25,"N_COORD97":2567772.1099999999,"ADDRESS":"連表３０號之３","OBJECTID":267998},"geometry":{"x":174820.25000000093,"y":2567772.1099999994}},{"attributes":{"ID":268004,"DIS_CODE":0,"TOWNNAME":"下營區","LI":"西連里","LIN":"3鄰","STREET":" ","SECT":" ","MAREA":"連表","LANE":" ","ALLEY":" ","HOUSE_NO":"３０號","E_COORD97":174867.20999999999,"N_COORD97":2567788.8999999999,"ADDRESS":"連表３０號","OBJECTID":267999},"geometry":{"x":174867.21000000183,"y":2567788.9000000022}},{"attributes":{"ID":268005,"DIS_CODE":0,"TOWNNAME":"下營區","LI":"西連里","LIN":"3鄰","STREET":" ","SECT":" ","MAREA":"連表","LANE":" ","ALLEY":" ","HOUSE_NO":"３２號之１","E_COORD97":174858.89000000001,"N_COORD97":2567821.8300000001,"ADDRESS":"連表３２號之１","OBJECTID":268000},"geometry":{"x":174858.89000000153,"y":2567821.8300000001}}]}