{"displayFieldName":"TOWNNAME","fieldAliases":{"ID":"ID","DIS_CODE":"DIS_CODE","TOWNNAME":"TOWNNAME","LI":"LI","LIN":"LIN","STREET":"STREET","SECT":"SECT","MAREA":"MAREA","LANE":"LANE","ALLEY":"ALLEY","HOUSE_NO":"HOUSE_NO","E_COORD97":"E_COORD97","N_COORD97":"N_COORD97","ADDRESS":"ADDRESS","OBJECTID":"OBJECTID"},"geometryType":"esriGeometryPoint","spatialReference":{"wkid":102443,"latestWkid":3826},"fields":[{"name":"ID","type":"esriFieldTypeDouble","alias":"ID"},{"name":"DIS_CODE","type":"esriFieldTypeInteger","alias":"DIS_CODE"},{"name":"TOWNNAME","type":"esriFieldTypeString","alias":"TOWNNAME","length":8},{"name":"LI","type":"esriFieldTypeString","alias":"LI","length":8},{"name":"LIN","type":"esriFieldTypeString","alias":"LIN","length":12},{"name":"STREET","type":"esriFieldTypeString","alias":"STREET","length":20},{"name":"SECT","type":"esriFieldTypeString","alias":"SECT","length":8},{"name":"MAREA","type":"esriFieldTypeString","alias":"MAREA","length":12},{"name":"LANE","type":"esriFieldTypeString","alias":"LANE","length":10},{"name":"ALLEY","type":"esriFieldTypeString","alias":"ALLEY","length":10},{"name":"HOUSE_NO","type":"esriFieldTypeString","alias":"HOUSE_NO","length":20},{"name":"E_COORD97","type":"esriFieldTypeDouble","alias":"E_COORD97"},{"name":"N_COORD97","type":"esriFieldTypeDouble","alias":"N_COORD97"},{"name":"ADDRESS","type":"esriFieldTypeString","alias":"ADDRESS","length":50},{"name":"OBJECTID","type":"esriFieldTypeOID","alias":"OBJECTID"}],"features":[{"attributes":{"ID":296209,"DIS_CODE":0,"TOWNNAME":"關廟區","LI":"松腳里","LIN":"17鄰","STREET":"民族街","SECT":" ","MAREA":" ","LANE":"１９巷","ALLEY":" ","HOUSE_NO":"２號","E_COORD97":181564.64000000001,"N_COORD97":2539778.29,"ADDRESS":"民族街１９巷２號","OBJECTID":296201},"geometry":{"x":181564.63999999966,"y":2539778.2899999991}},{"attributes":{"ID":296210,"DIS_CODE":0,"TOWNNAME":"關廟區","LI":"山西里","LIN":"17鄰","STREET":"崇明街","SECT":" ","MAREA":" ","LANE":"２３巷","ALLEY":" ","HOUSE_NO":"１３號","E_COORD97":180998.67000000001,"N_COORD97":2540657.25,"ADDRESS":"崇明街２３巷１３號","OBJECTID":296202},"geometry":{"x":180998.66999999993,"y":2540657.2500000019}},{"attributes":{"ID":296211,"DIS_CODE":0,"TOWNNAME":"關廟區","LI":"松腳里","LIN":"17鄰","STREET":"民族街","SECT":" ","MAREA":" ","LANE":"５巷","ALLEY":" ","HOUSE_NO":"２０號","E_COORD97":181622.23999999999,"N_COORD97":2539741.29,"ADDRESS":"民族街５巷２０號","OBJECTID":296203},"geometry":{"x":181622.24000000022,"y":2539741.2899999991}},{"attributes":{"ID":296212,"DIS_CODE":0,"TOWNNAME":"關廟區","LI":"山西里","LIN":"17鄰","STREET":"崇明街","SECT":" ","MAREA":" ","LANE":"２３巷","ALLEY":" ","HOUSE_NO":"１６號","E_COORD97":180985.17000000001,"N_COORD97":2540658.25,"ADDRESS":"崇明街２３巷１６號","OBJECTID":296204},"geometry":{"x":180985.16999999993,"y":2540658.25}},{"attributes":{"ID":296213,"DIS_CODE":0,"TOWNNAME":"關廟區","LI":"山西里","LIN":"17鄰","STREET":"崇明街","SECT":" ","MAREA":" ","LANE":"２３巷","ALLEY":" ","HOUSE_NO":"９號","E_COORD97":181000.82000000001,"N_COORD97":2540665.25,"ADDRESS":"崇明街２３巷９號","OBJECTID":296205},"geometry":{"x":181000.8200000003,"y":2540665.25}},{"attributes":{"ID":296214,"DIS_CODE":0,"TOWNNAME":"關廟區","LI":"山西里","LIN":"17鄰","STREET":"崇明街","SECT":" ","MAREA":" ","LANE":"３巷","ALLEY":" ","HOUSE_NO":"３號","E_COORD97":181040.67000000001,"N_COORD97":2540613.25,"ADDRESS":"崇明街３巷３號","OBJECTID":296206},"geometry":{"x":181040.66999999993,"y":2540613.2500000019}},{"attributes":{"ID":296215,"DIS_CODE":0,"TOWNNAME":"關廟區","LI":"東勢里","LIN":"17鄰","STREET":"旺萊路","SECT":" ","MAREA":" ","LANE":"２６０巷","ALLEY":" ","HOUSE_NO":"１５號","E_COORD97":181950.29000000001,"N_COORD97":2539341.25,"ADDRESS":"旺萊路２６０巷１５號","OBJECTID":296207},"geometry":{"x":181950.29000000004,"y":2539341.2500000019}},{"attributes":{"ID":296216,"DIS_CODE":0,"TOWNNAME":"關廟區","LI":"松腳里","LIN":"17鄰","STREET":"民族街","SECT":" ","MAREA":" ","LANE":"１９巷","ALLEY":" ","HOUSE_NO":"１０號","E_COORD97":181565.48999999999,"N_COORD97":2539765.29,"ADDRESS":"民族街１９巷１０號","OBJECTID":296208},"geometry":{"x":181565.49000000115,"y":2539765.2899999991}},{"attributes":{"ID":296217,"DIS_CODE":0,"TOWNNAME":"關廟區","LI":"松腳里","LIN":"17鄰","STREET":"民族街","SECT":" ","MAREA":" ","LANE":"５巷","ALLEY":" ","HOUSE_NO":"１８號","E_COORD97":181622.23999999999,"N_COORD97":2539745.29,"ADDRESS":"民族街５巷１８號","OBJECTID":296209},"geometry":{"x":181622.24000000022,"y":2539745.2899999991}},{"attributes":{"ID":296218,"DIS_CODE":0,"TOWNNAME":"關廟區","LI":"北花里","LIN":"17鄰","STREET":"中正路","SECT":" ","MAREA":" ","LANE":"５３７巷","ALLEY":" ","HOUSE_NO":"８號","E_COORD97":182350.57999999999,"N_COORD97":2540448.4700000002,"ADDRESS":"中正路５３７巷８號","OBJECTID":296210},"geometry":{"x":182350.58000000007,"y":2540448.4700000044}},{"attributes":{"ID":296219,"DIS_CODE":0,"TOWNNAME":"南區","LI":"文南里","LIN":"14鄰","STREET":"永南三街","SECT":" ","MAREA":" ","LANE":" ","ALLEY":" ","HOUSE_NO":"２４號","E_COORD97":166788.92000000001,"N_COORD97":2542672.4700000002,"ADDRESS":"永南三街２４號","OBJECTID":296211},"geometry":{"x":166788.92000000086,"y":2542672.4700000044}},{"attributes":{"ID":296220,"DIS_CODE":0,"TOWNNAME":"安平區","LI":"西門里","LIN":"17鄰","STREET":"安北路","SECT":" ","MAREA":" ","LANE":"３７０巷","ALLEY":" ","HOUSE_NO":"１５號","E_COORD97":163183.14999999999,"N_COORD97":2544635.48,"ADDRESS":"安北路３７０巷１５號","OBJECTID":296212},"geometry":{"x":163183.15000000224,"y":2544635.4800000023}},{"attributes":{"ID":296221,"DIS_CODE":0,"TOWNNAME":"安平區","LI":"西門里","LIN":"17鄰","STREET":"安北路","SECT":" ","MAREA":" ","LANE":"３７０巷","ALLEY":" ","HOUSE_NO":"１７號","E_COORD97":163180.38,"N_COORD97":2544638.8399999999,"ADDRESS":"安北路３７０巷１７號","OBJECTID":296213},"geometry":{"x":163180.37999999989,"y":2544638.8400000036}},{"attributes":{"ID":296222,"DIS_CODE":0,"TOWNNAME":"安平區","LI":"西門里","LIN":"17鄰","STREET":"安北路","SECT":" ","MAREA":" ","LANE":"３７０巷","ALLEY":" ","HOUSE_NO":"１９號","E_COORD97":163177.28,"N_COORD97":2544642.2000000002,"ADDRESS":"安北路３７０巷１９號","OBJECTID":296214},"geometry":{"x":163177.28000000119,"y":2544642.1999999993}},{"attributes":{"ID":296223,"DIS_CODE":0,"TOWNNAME":"安平區","LI":"西門里","LIN":"17鄰","STREET":"安北路","SECT":" ","MAREA":" ","LANE":"３７０巷","ALLEY":" ","HOUSE_NO":"２１號","E_COORD97":163175.70000000001,"N_COORD97":2544645.8300000001,"ADDRESS":"安北路３７０巷２１號","OBJECTID":296215},"geometry":{"x":163175.70000000205,"y":2544645.8300000038}},{"attributes":{"ID":296224,"DIS_CODE":0,"TOWNNAME":"安平區","LI":"西門里","LIN":"17鄰","STREET":"安北路","SECT":" ","MAREA":" ","LANE":"３７０巷","ALLEY":" ","HOUSE_NO":"２３號","E_COORD97":163173.26000000001,"N_COORD97":2544648.4700000002,"ADDRESS":"安北路３７０巷２３號","OBJECTID":296216},"geometry":{"x":163173.26000000164,"y":2544648.4700000007}},{"attributes":{"ID":296225,"DIS_CODE":0,"TOWNNAME":"安平區","LI":"西門里","LIN":"17鄰","STREET":"安北路","SECT":" ","MAREA":" ","LANE":"３７０巷","ALLEY":" ","HOUSE_NO":"３１號","E_COORD97":163162.63,"N_COORD97":2544664,"ADDRESS":"安北路３７０巷３１號","OBJECTID":296217},"geometry":{"x":163162.63000000082,"y":2544664}},{"attributes":{"ID":296226,"DIS_CODE":0,"TOWNNAME":"安平區","LI":"西門里","LIN":"17鄰","STREET":"安北路","SECT":" ","MAREA":" ","LANE":"３７０巷","ALLEY":" ","HOUSE_NO":"３３號","E_COORD97":163161.04999999999,"N_COORD97":2544667.4900000002,"ADDRESS":"安北路３７０巷３３號","OBJECTID":296218},"geometry":{"x":163161.05000000168,"y":2544667.4900000002}},{"attributes":{"ID":296227,"DIS_CODE":0,"TOWNNAME":"安平區","LI":"西門里","LIN":"17鄰","STREET":"安北路","SECT":" ","MAREA":" ","LANE":"３７０巷","ALLEY":" ","HOUSE_NO":"３５號","E_COORD97":163159.34,"N_COORD97":2544671.4500000002,"ADDRESS":"安北路３７０巷３５號","OBJECTID":296219},"geometry":{"x":163159.34000000078,"y":2544671.450000003}},{"attributes":{"ID":296228,"DIS_CODE":0,"TOWNNAME":"安平區","LI":"億載里","LIN":"17鄰","STREET":"平豐路","SECT":" ","MAREA":" ","LANE":"４３巷","ALLEY":" ","HOUSE_NO":"１９號","E_COORD97":164297.41,"N_COORD97":2542993.6400000001,"ADDRESS":"平豐路４３巷１９號","OBJECTID":296220},"geometry":{"x":164297.41000000015,"y":2542993.6400000025}},{"attributes":{"ID":296229,"DIS_CODE":0,"TOWNNAME":"安平區","LI":"億載里","LIN":"17鄰","STREET":"平豐路","SECT":" ","MAREA":" ","LANE":"４３巷","ALLEY":" ","HOUSE_NO":"２１號","E_COORD97":164293.19,"N_COORD97":2542993.04,"ADDRESS":"平豐路４３巷２１號","OBJECTID":296221},"geometry":{"x":164293.19000000227,"y":2542993.040000001}},{"attributes":{"ID":296230,"DIS_CODE":0,"TOWNNAME":"安平區","LI":"億載里","LIN":"17鄰","STREET":"平豐路","SECT":" ","MAREA":" ","LANE":"４３巷","ALLEY":" ","HOUSE_NO":"２３號","E_COORD97":164288.66,"N_COORD97":2542992.73,"ADDRESS":"平豐路４３巷２３號","OBJECTID":296222},"geometry":{"x":164288.66000000108,"y":2542992.7300000042}},{"attributes":{"ID":296231,"DIS_CODE":0,"TOWNNAME":"安平區","LI":"億載里","LIN":"17鄰","STREET":"平豐路","SECT":" ","MAREA":" ","LANE":"４３巷","ALLEY":" ","HOUSE_NO":"２６號","E_COORD97":164245.56,"N_COORD97":2543002.79,"ADDRESS":"平豐路４３巷２６號","OBJECTID":296223},"geometry":{"x":164245.55999999959,"y":2543002.7899999991}},{"attributes":{"ID":296232,"DIS_CODE":0,"TOWNNAME":"安平區","LI":"億載里","LIN":"17鄰","STREET":"平豐路","SECT":" ","MAREA":" ","LANE":"４３巷","ALLEY":" ","HOUSE_NO":"２號","E_COORD97":164303.14000000001,"N_COORD97":2543006.5299999998,"ADDRESS":"平豐路４３巷２號","OBJECTID":296224},"geometry":{"x":164303.1400000006,"y":2543006.5300000012}},{"attributes":{"ID":296233,"DIS_CODE":0,"TOWNNAME":"安平區","LI":"億載里","LIN":"17鄰","STREET":"平豐路","SECT":" ","MAREA":" ","LANE":"４３巷","ALLEY":" ","HOUSE_NO":"２號之１","E_COORD97":164302.53,"N_COORD97":2543011.6600000001,"ADDRESS":"平豐路４３巷２號之１","OBJECTID":296225},"geometry":{"x":164302.53000000212,"y":2543011.6600000001}},{"attributes":{"ID":296234,"DIS_CODE":0,"TOWNNAME":"安平區","LI":"億載里","LIN":"17鄰","STREET":"平豐路","SECT":" ","MAREA":" ","LANE":"４３巷","ALLEY":" ","HOUSE_NO":"２號之１０","E_COORD97":164299.20999999999,"N_COORD97":2543046.9399999999,"ADDRESS":"平豐路４３巷２號之１０","OBJECTID":296226},"geometry":{"x":164299.20999999903,"y":2543046.9399999995}},{"attributes":{"ID":296235,"DIS_CODE":0,"TOWNNAME":"安平區","LI":"億載里","LIN":"17鄰","STREET":"平豐路","SECT":" ","MAREA":" ","LANE":"４３巷","ALLEY":" ","HOUSE_NO":"２號之６","E_COORD97":164300.12,"N_COORD97":2543030.0600000001,"ADDRESS":"平豐路４３巷２號之６","OBJECTID":296227},"geometry":{"x":164300.12000000197,"y":2543030.0600000005}},{"attributes":{"ID":296236,"DIS_CODE":0,"TOWNNAME":"安平區","LI":"億載里","LIN":"17鄰","STREET":"平豐路","SECT":" ","MAREA":" ","LANE":"４３巷","ALLEY":" ","HOUSE_NO":"２號之７","E_COORD97":164299.82000000001,"N_COORD97":2543033.98,"ADDRESS":"平豐路４３巷２號之７","OBJECTID":296228},"geometry":{"x":164299.8200000003,"y":2543033.9800000004}},{"attributes":{"ID":296237,"DIS_CODE":0,"TOWNNAME":"安平區","LI":"億載里","LIN":"17鄰","STREET":"平豐路","SECT":" ","MAREA":" ","LANE":"４３巷","ALLEY":" ","HOUSE_NO":"２號之８","E_COORD97":164300.12,"N_COORD97":2543037.5899999999,"ADDRESS":"平豐路４３巷２號之８","OBJECTID":296229},"geometry":{"x":164300.12000000197,"y":2543037.5900000017}},{"attributes":{"ID":296238,"DIS_CODE":0,"TOWNNAME":"安平區","LI":"億載里","LIN":"17鄰","STREET":"平豐路","SECT":" ","MAREA":" ","LANE":"４３巷","ALLEY":" ","HOUSE_NO":"２號之９","E_COORD97":164299.20999999999,"N_COORD97":2543042.7200000002,"ADDRESS":"平豐路４３巷２號之９","OBJECTID":296230},"geometry":{"x":164299.20999999903,"y":2543042.7200000007}},{"attributes":{"ID":296239,"DIS_CODE":0,"TOWNNAME":"安平區","LI":"海頭里","LIN":"17鄰","STREET":"古堡街","SECT":" ","MAREA":" ","LANE":"１１８巷","ALLEY":" ","HOUSE_NO":"１號之２","E_COORD97":163818.57000000001,"N_COORD97":2544965.9300000002,"ADDRESS":"古堡街１１８巷１號之２","OBJECTID":296231},"geometry":{"x":163818.5700000003,"y":2544965.9299999997}},{"attributes":{"ID":296240,"DIS_CODE":0,"TOWNNAME":"安平區","LI":"海頭里","LIN":"17鄰","STREET":"古堡街","SECT":" ","MAREA":" ","LANE":"１１８巷","ALLEY":" ","HOUSE_NO":"３號","E_COORD97":163803.91,"N_COORD97":2544962.6499999999,"ADDRESS":"古堡街１１８巷３號","OBJECTID":296232},"geometry":{"x":163803.91000000108,"y":2544962.6500000041}},{"attributes":{"ID":296241,"DIS_CODE":0,"TOWNNAME":"鹽水區","LI":"橋南里","LIN":"17鄰","STREET":"治水路","SECT":" ","MAREA":" ","LANE":"１０５巷","ALLEY":" ","HOUSE_NO":"１０號","E_COORD97":174577.69,"N_COORD97":2579502.2599999998,"ADDRESS":"治水路１０５巷１０號","OBJECTID":296233},"geometry":{"x":174577.69000000041,"y":2579502.2599999998}},{"attributes":{"ID":296242,"DIS_CODE":0,"TOWNNAME":"鹽水區","LI":"橋南里","LIN":"17鄰","STREET":"治水路","SECT":" ","MAREA":" ","LANE":"１０５巷","ALLEY":" ","HOUSE_NO":"１１號","E_COORD97":174487.88,"N_COORD97":2579473.4399999999,"ADDRESS":"治水路１０５巷１１號","OBJECTID":296234},"geometry":{"x":174487.88000000175,"y":2579473.4399999995}},{"attributes":{"ID":296243,"DIS_CODE":0,"TOWNNAME":"鹽水區","LI":"橋南里","LIN":"17鄰","STREET":"治水路","SECT":" ","MAREA":" ","LANE":"１０５巷","ALLEY":" ","HOUSE_NO":"１２號","E_COORD97":174556.84,"N_COORD97":2579481.7799999998,"ADDRESS":"治水路１０５巷１２號","OBJECTID":296235},"geometry":{"x":174556.83999999985,"y":2579481.7800000031}},{"attributes":{"ID":296244,"DIS_CODE":0,"TOWNNAME":"北區","LI":"大和里","LIN":"17鄰","STREET":"中華北路","SECT":"一段","MAREA":" ","LANE":"６３２巷","ALLEY":" ","HOUSE_NO":"１０號","E_COORD97":167248.01999999999,"N_COORD97":2546440.7000000002,"ADDRESS":"中華北路一段６３２巷１０號","OBJECTID":296236},"geometry":{"x":167248.01999999862,"y":2546440.7000000011}},{"attributes":{"ID":296245,"DIS_CODE":0,"TOWNNAME":"北區","LI":"大和里","LIN":"17鄰","STREET":"中華北路","SECT":"一段","MAREA":" ","LANE":"６３２巷","ALLEY":" ","HOUSE_NO":"１１號","E_COORD97":167259.19,"N_COORD97":2546436.3799999999,"ADDRESS":"中華北路一段６３２巷１１號","OBJECTID":296237},"geometry":{"x":167259.19000000041,"y":2546436.379999999}},{"attributes":{"ID":296246,"DIS_CODE":0,"TOWNNAME":"北區","LI":"大和里","LIN":"17鄰","STREET":"中華北路","SECT":"一段","MAREA":" ","LANE":"６３２巷","ALLEY":" ","HOUSE_NO":"１２號","E_COORD97":167249.03,"N_COORD97":2546436.1299999999,"ADDRESS":"中華北路一段６３２巷１２號","OBJECTID":296238},"geometry":{"x":167249.03000000119,"y":2546436.1300000027}},{"attributes":{"ID":296247,"DIS_CODE":0,"TOWNNAME":"北區","LI":"大和里","LIN":"17鄰","STREET":"中華北路","SECT":"一段","MAREA":" ","LANE":"６３２巷","ALLEY":" ","HOUSE_NO":"１３號","E_COORD97":167260.20999999999,"N_COORD97":2546431.9399999999,"ADDRESS":"中華北路一段６３２巷１３號","OBJECTID":296239},"geometry":{"x":167260.20999999996,"y":2546431.9400000013}},{"attributes":{"ID":296248,"DIS_CODE":0,"TOWNNAME":"北區","LI":"大和里","LIN":"17鄰","STREET":"中華北路","SECT":"一段","MAREA":" ","LANE":"６３２巷","ALLEY":" ","HOUSE_NO":"１５號","E_COORD97":167261.23000000001,"N_COORD97":2546427.4900000002,"ADDRESS":"中華北路一段６３２巷１５號","OBJECTID":296240},"geometry":{"x":167261.23000000231,"y":2546427.4900000002}},{"attributes":{"ID":296249,"DIS_CODE":0,"TOWNNAME":"北區","LI":"大和里","LIN":"17鄰","STREET":"中華北路","SECT":"一段","MAREA":" ","LANE":"６３２巷","ALLEY":" ","HOUSE_NO":"１６號","E_COORD97":167249.54000000001,"N_COORD97":2546432.4500000002,"ADDRESS":"中華北路一段６３２巷１６號","OBJECTID":296241},"geometry":{"x":167249.54000000004,"y":2546432.4500000011}},{"attributes":{"ID":296250,"DIS_CODE":0,"TOWNNAME":"北區","LI":"大和里","LIN":"17鄰","STREET":"中華北路","SECT":"一段","MAREA":" ","LANE":"６３２巷","ALLEY":" ","HOUSE_NO":"１７號","E_COORD97":167262.23999999999,"N_COORD97":2546422.1600000001,"ADDRESS":"中華北路一段６３２巷１７號","OBJECTID":296242},"geometry":{"x":167262.24000000022,"y":2546422.1600000001}},{"attributes":{"ID":296251,"DIS_CODE":0,"TOWNNAME":"北區","LI":"大和里","LIN":"17鄰","STREET":"中華北路","SECT":"一段","MAREA":" ","LANE":"６３２巷","ALLEY":" ","HOUSE_NO":"１８號","E_COORD97":167250.67999999999,"N_COORD97":2546429.27,"ADDRESS":"中華北路一段６３２巷１８號","OBJECTID":296243},"geometry":{"x":167250.68000000156,"y":2546429.2700000033}},{"attributes":{"ID":296252,"DIS_CODE":0,"TOWNNAME":"北區","LI":"大和里","LIN":"17鄰","STREET":"中華北路","SECT":"一段","MAREA":" ","LANE":"６３２巷","ALLEY":" ","HOUSE_NO":"１９號","E_COORD97":167263.64000000001,"N_COORD97":2546417.21,"ADDRESS":"中華北路一段６３２巷１９號","OBJECTID":296244},"geometry":{"x":167263.63999999966,"y":2546417.209999999}},{"attributes":{"ID":296253,"DIS_CODE":0,"TOWNNAME":"北區","LI":"大和里","LIN":"17鄰","STREET":"中華北路","SECT":"一段","MAREA":" ","LANE":"６３２巷","ALLEY":" ","HOUSE_NO":"２號","E_COORD97":167243.70000000001,"N_COORD97":2546454.1600000001,"ADDRESS":"中華北路一段６３２巷２號","OBJECTID":296245},"geometry":{"x":167243.70000000019,"y":2546454.1600000039}},{"attributes":{"ID":296254,"DIS_CODE":0,"TOWNNAME":"南區","LI":"文南里","LIN":"14鄰","STREET":"永南三街","SECT":" ","MAREA":" ","LANE":" ","ALLEY":" ","HOUSE_NO":"２５號","E_COORD97":166765.14999999999,"N_COORD97":2542661.73,"ADDRESS":"永南三街２５號","OBJECTID":296246},"geometry":{"x":166765.1500000013,"y":2542661.7300000023}},{"attributes":{"ID":296255,"DIS_CODE":0,"TOWNNAME":"北區","LI":"大和里","LIN":"17鄰","STREET":"中華北路","SECT":"一段","MAREA":" ","LANE":"６３２巷","ALLEY":" ","HOUSE_NO":"２０號","E_COORD97":167251.19,"N_COORD97":2546424.4500000002,"ADDRESS":"中華北路一段６３２巷２０號","OBJECTID":296247},"geometry":{"x":167251.18999999948,"y":2546424.450000003}},{"attributes":{"ID":296256,"DIS_CODE":0,"TOWNNAME":"北區","LI":"大和里","LIN":"17鄰","STREET":"中華北路","SECT":"一段","MAREA":" ","LANE":"６３２巷","ALLEY":" ","HOUSE_NO":"２１號","E_COORD97":167264.64999999999,"N_COORD97":2546413.02,"ADDRESS":"中華北路一段６３２巷２１號","OBJECTID":296248},"geometry":{"x":167264.65000000037,"y":2546413.0199999996}},{"attributes":{"ID":296257,"DIS_CODE":0,"TOWNNAME":"北區","LI":"大和里","LIN":"17鄰","STREET":"中華北路","SECT":"一段","MAREA":" ","LANE":"６３２巷","ALLEY":" ","HOUSE_NO":"２２號","E_COORD97":167252.45999999999,"N_COORD97":2546420.8900000001,"ADDRESS":"中華北路一段６３２巷２２號","OBJECTID":296249},"geometry":{"x":167252.46000000183,"y":2546420.8900000025}},{"attributes":{"ID":296258,"DIS_CODE":0,"TOWNNAME":"北區","LI":"大和里","LIN":"17鄰","STREET":"中華北路","SECT":"一段","MAREA":" ","LANE":"６３２巷","ALLEY":" ","HOUSE_NO":"２３號","E_COORD97":167265.42000000001,"N_COORD97":2546408.7000000002,"ADDRESS":"中華北路一段６３２巷２３號","OBJECTID":296250},"geometry":{"x":167265.41999999993,"y":2546408.6999999974}},{"attributes":{"ID":296259,"DIS_CODE":0,"TOWNNAME":"新化區","LI":"東榮里","LIN":"17鄰","STREET":"中興路","SECT":" ","MAREA":" ","LANE":"６７７巷","ALLEY":" ","HOUSE_NO":"３０號","E_COORD97":179590.35999999999,"N_COORD97":2547966.25,"ADDRESS":"中興路６７７巷３０號","OBJECTID":296251},"geometry":{"x":179590.36000000034,"y":2547966.2500000019}},{"attributes":{"ID":296260,"DIS_CODE":0,"TOWNNAME":"新化區","LI":"東榮里","LIN":"17鄰","STREET":"中興路","SECT":" ","MAREA":" ","LANE":"６７７巷","ALLEY":" ","HOUSE_NO":"２９號","E_COORD97":179609.85999999999,"N_COORD97":2547967.25,"ADDRESS":"中興路６７７巷２９號","OBJECTID":296252},"geometry":{"x":179609.86000000127,"y":2547967.2500000019}},{"attributes":{"ID":296261,"DIS_CODE":0,"TOWNNAME":"新化區","LI":"東榮里","LIN":"17鄰","STREET":"中興路","SECT":" ","MAREA":" ","LANE":"６７７巷","ALLEY":" ","HOUSE_NO":"３１號","E_COORD97":179609.85999999999,"N_COORD97":2547963.25,"ADDRESS":"中興路６７７巷３１號","OBJECTID":296253},"geometry":{"x":179609.86000000127,"y":2547963.2500000019}},{"attributes":{"ID":296262,"DIS_CODE":0,"TOWNNAME":"新化區","LI":"東榮里","LIN":"17鄰","STREET":"中興路","SECT":" ","MAREA":" ","LANE":"６７７巷","ALLEY":" ","HOUSE_NO":"１６號","E_COORD97":179598.76000000001,"N_COORD97":2547998.25,"ADDRESS":"中興路６７７巷１６號","OBJECTID":296254},"geometry":{"x":179598.75999999978,"y":2547998.25}},{"attributes":{"ID":296263,"DIS_CODE":0,"TOWNNAME":"北區","LI":"成德里","LIN":"17鄰","STREET":"西門路","SECT":"四段","MAREA":" ","LANE":"３４１巷","ALLEY":" ","HOUSE_NO":"１０號","E_COORD97":168978.66,"N_COORD97":2546207.7000000002,"ADDRESS":"西門路四段３４１巷１０號","OBJECTID":296255},"geometry":{"x":168978.66000000201,"y":2546207.6999999993}},{"attributes":{"ID":296264,"DIS_CODE":0,"TOWNNAME":"北區","LI":"成德里","LIN":"17鄰","STREET":"西門路","SECT":"四段","MAREA":" ","LANE":"３４１巷","ALLEY":" ","HOUSE_NO":"１２號","E_COORD97":168974.57999999999,"N_COORD97":2546210.0699999998,"ADDRESS":"西門路四段３４１巷１２號","OBJECTID":296256},"geometry":{"x":168974.58000000101,"y":2546210.0700000003}},{"attributes":{"ID":296265,"DIS_CODE":0,"TOWNNAME":"北區","LI":"成德里","LIN":"17鄰","STREET":"西門路","SECT":"四段","MAREA":" ","LANE":"３４１巷","ALLEY":" ","HOUSE_NO":"１４號","E_COORD97":168971.03,"N_COORD97":2546212.1800000002,"ADDRESS":"西門路四段３４１巷１４號","OBJECTID":296257},"geometry":{"x":168971.02999999933,"y":2546212.1799999997}},{"attributes":{"ID":296266,"DIS_CODE":0,"TOWNNAME":"北區","LI":"成德里","LIN":"17鄰","STREET":"西門路","SECT":"四段","MAREA":" ","LANE":"３４１巷","ALLEY":" ","HOUSE_NO":"１６號","E_COORD97":168967.20999999999,"N_COORD97":2546214.2799999998,"ADDRESS":"西門路四段３４１巷１６號","OBJECTID":296258},"geometry":{"x":168967.20999999996,"y":2546214.2799999993}},{"attributes":{"ID":296267,"DIS_CODE":0,"TOWNNAME":"北區","LI":"大港里","LIN":"17鄰","STREET":"大興街","SECT":" ","MAREA":" ","LANE":"２４６巷","ALLEY":" ","HOUSE_NO":"１２６號","E_COORD97":166572.39000000001,"N_COORD97":2545935.2599999998,"ADDRESS":"大興街２４６巷１２６號","OBJECTID":296259},"geometry":{"x":166572.38999999966,"y":2545935.2600000016}},{"attributes":{"ID":296268,"DIS_CODE":0,"TOWNNAME":"北區","LI":"大港里","LIN":"17鄰","STREET":"大興街","SECT":" ","MAREA":" ","LANE":"２４６巷","ALLEY":" ","HOUSE_NO":"１２８號","E_COORD97":166570.04999999999,"N_COORD97":2545944.4399999999,"ADDRESS":"大興街２４６巷１２８號","OBJECTID":296260},"geometry":{"x":166570.04999999888,"y":2545944.4400000013}},{"attributes":{"ID":296269,"DIS_CODE":0,"TOWNNAME":"北區","LI":"大港里","LIN":"17鄰","STREET":"大興街","SECT":" ","MAREA":" ","LANE":"２４６巷","ALLEY":" ","HOUSE_NO":"８８號","E_COORD97":166626.23999999999,"N_COORD97":2545908.8700000001,"ADDRESS":"大興街２４６巷８８號","OBJECTID":296261},"geometry":{"x":166626.24000000022,"y":2545908.8700000029}},{"attributes":{"ID":296270,"DIS_CODE":0,"TOWNNAME":"北區","LI":"大港里","LIN":"17鄰","STREET":"大興街","SECT":" ","MAREA":" ","LANE":"２４６巷","ALLEY":" ","HOUSE_NO":"９０號","E_COORD97":166621.89999999999,"N_COORD97":2545907.7000000002,"ADDRESS":"大興街２４６巷９０號","OBJECTID":296262},"geometry":{"x":166621.90000000037,"y":2545907.7000000011}},{"attributes":{"ID":296271,"DIS_CODE":0,"TOWNNAME":"北區","LI":"大港里","LIN":"17鄰","STREET":"大興街","SECT":" ","MAREA":" ","LANE":"２４６巷","ALLEY":" ","HOUSE_NO":"９２號","E_COORD97":166617.84,"N_COORD97":2545906.73,"ADDRESS":"大興街２４６巷９２號","OBJECTID":296263},"geometry":{"x":166617.84000000078,"y":2545906.7300000004}},{"attributes":{"ID":296272,"DIS_CODE":0,"TOWNNAME":"北區","LI":"大港里","LIN":"17鄰","STREET":"大興街","SECT":" ","MAREA":" ","LANE":"２４６巷","ALLEY":" ","HOUSE_NO":"９４號","E_COORD97":166614,"N_COORD97":2545905.23,"ADDRESS":"大興街２４６巷９４號","OBJECTID":296264},"geometry":{"x":166614,"y":2545905.2300000023}},{"attributes":{"ID":296273,"DIS_CODE":0,"TOWNNAME":"北區","LI":"大港里","LIN":"17鄰","STREET":"大興街","SECT":" ","MAREA":" ","LANE":"２４６巷","ALLEY":" ","HOUSE_NO":"９６號","E_COORD97":166610.82000000001,"N_COORD97":2545904.5600000001,"ADDRESS":"大興街２４６巷９６號","OBJECTID":296265},"geometry":{"x":166610.8200000003,"y":2545904.5600000005}},{"attributes":{"ID":296274,"DIS_CODE":0,"TOWNNAME":"北區","LI":"大港里","LIN":"17鄰","STREET":"大興街","SECT":" ","MAREA":" ","LANE":"２４６巷","ALLEY":" ","HOUSE_NO":"９８號","E_COORD97":166606.64000000001,"N_COORD97":2545903.5600000001,"ADDRESS":"大興街２４６巷９８號","OBJECTID":296266},"geometry":{"x":166606.64000000153,"y":2545903.5600000024}},{"attributes":{"ID":296275,"DIS_CODE":0,"TOWNNAME":"北區","LI":"大港里","LIN":"17鄰","STREET":"大興街","SECT":" ","MAREA":" ","LANE":"２４６巷","ALLEY":" ","HOUSE_NO":"１１５號","E_COORD97":166554.01999999999,"N_COORD97":2545888.3799999999,"ADDRESS":"大興街２４６巷１１５號","OBJECTID":296267},"geometry":{"x":166554.01999999955,"y":2545888.379999999}},{"attributes":{"ID":296276,"DIS_CODE":0,"TOWNNAME":"北區","LI":"大港里","LIN":"17鄰","STREET":"大興街","SECT":" ","MAREA":" ","LANE":"２４６巷","ALLEY":" ","HOUSE_NO":"１１７號","E_COORD97":166557.85999999999,"N_COORD97":2545889.71,"ADDRESS":"大興街２４６巷１１７號","OBJECTID":296268},"geometry":{"x":166557.86000000034,"y":2545889.7100000028}},{"attributes":{"ID":296277,"DIS_CODE":0,"TOWNNAME":"北區","LI":"大港里","LIN":"17鄰","STREET":"大興街","SECT":" ","MAREA":" ","LANE":"２４６巷","ALLEY":" ","HOUSE_NO":"１２３號","E_COORD97":166569.22,"N_COORD97":2545893.3799999999,"ADDRESS":"大興街２４６巷１２３號","OBJECTID":296269},"geometry":{"x":166569.22000000067,"y":2545893.3800000008}},{"attributes":{"ID":296278,"DIS_CODE":0,"TOWNNAME":"北區","LI":"大港里","LIN":"17鄰","STREET":"大興街","SECT":" ","MAREA":" ","LANE":"２４６巷","ALLEY":" ","HOUSE_NO":"１２５號","E_COORD97":166561.70000000001,"N_COORD97":2545906.73,"ADDRESS":"大興街２４６巷１２５號","OBJECTID":296270},"geometry":{"x":166561.70000000112,"y":2545906.7300000004}},{"attributes":{"ID":296279,"DIS_CODE":0,"TOWNNAME":"北區","LI":"大港里","LIN":"17鄰","STREET":"大興街","SECT":" ","MAREA":" ","LANE":"２４６巷","ALLEY":" ","HOUSE_NO":"１２７號","E_COORD97":166560.70000000001,"N_COORD97":2545911.0699999998,"ADDRESS":"大興街２４６巷１２７號","OBJECTID":296271},"geometry":{"x":166560.70000000019,"y":2545911.0700000003}},{"attributes":{"ID":296280,"DIS_CODE":0,"TOWNNAME":"北區","LI":"大港里","LIN":"17鄰","STREET":"大興街","SECT":" ","MAREA":" ","LANE":"２４６巷","ALLEY":" ","HOUSE_NO":"１２９號","E_COORD97":166559.70000000001,"N_COORD97":2545915.0699999998,"ADDRESS":"大興街２４６巷１２９號","OBJECTID":296272},"geometry":{"x":166559.70000000112,"y":2545915.0700000003}},{"attributes":{"ID":296281,"DIS_CODE":0,"TOWNNAME":"北區","LI":"大港里","LIN":"17鄰","STREET":"大興街","SECT":" ","MAREA":" ","LANE":"２４６巷","ALLEY":" ","HOUSE_NO":"１３１號","E_COORD97":166559.03,"N_COORD97":2545918.9100000001,"ADDRESS":"大興街２４６巷１３１號","OBJECTID":296273},"geometry":{"x":166559.03000000119,"y":2545918.9100000001}},{"attributes":{"ID":296282,"DIS_CODE":0,"TOWNNAME":"北區","LI":"大港里","LIN":"17鄰","STREET":"大興街","SECT":" ","MAREA":" ","LANE":"２４６巷","ALLEY":" ","HOUSE_NO":"１３３號","E_COORD97":166558.03,"N_COORD97":2545923.0800000001,"ADDRESS":"大興街２４６巷１３３號","OBJECTID":296274},"geometry":{"x":166558.03000000026,"y":2545923.0800000019}},{"attributes":{"ID":296283,"DIS_CODE":0,"TOWNNAME":"北區","LI":"大港里","LIN":"17鄰","STREET":"大興街","SECT":" ","MAREA":" ","LANE":"２４６巷","ALLEY":" ","HOUSE_NO":"１３５號","E_COORD97":166557.01999999999,"N_COORD97":2545926.9199999999,"ADDRESS":"大興街２４６巷１３５號","OBJECTID":296275},"geometry":{"x":166557.02000000048,"y":2545926.9200000037}},{"attributes":{"ID":296284,"DIS_CODE":0,"TOWNNAME":"北區","LI":"大和里","LIN":"17鄰","STREET":"文賢路","SECT":" ","MAREA":" ","LANE":"８３３巷","ALLEY":" ","HOUSE_NO":"１４號","E_COORD97":167246.44,"N_COORD97":2546382.8199999998,"ADDRESS":"文賢路８３３巷１４號","OBJECTID":296276},"geometry":{"x":167246.44000000134,"y":2546382.8200000022}},{"attributes":{"ID":296285,"DIS_CODE":0,"TOWNNAME":"北區","LI":"大和里","LIN":"17鄰","STREET":"文賢路","SECT":" ","MAREA":" ","LANE":"８３３巷","ALLEY":" ","HOUSE_NO":"１６號","E_COORD97":167241.87,"N_COORD97":2546382.1200000001,"ADDRESS":"文賢路８３３巷１６號","OBJECTID":296277},"geometry":{"x":167241.87000000104,"y":2546382.1200000029}},{"attributes":{"ID":296286,"DIS_CODE":0,"TOWNNAME":"北區","LI":"大和里","LIN":"17鄰","STREET":"文賢路","SECT":" ","MAREA":" ","LANE":"８３３巷","ALLEY":" ","HOUSE_NO":"１８號","E_COORD97":167238.64000000001,"N_COORD97":2546379.9399999999,"ADDRESS":"文賢路８３３巷１８號","OBJECTID":296278},"geometry":{"x":167238.63999999966,"y":2546379.9399999995}},{"attributes":{"ID":296287,"DIS_CODE":0,"TOWNNAME":"北區","LI":"大和里","LIN":"17鄰","STREET":"文賢路","SECT":" ","MAREA":" ","LANE":"８３３巷","ALLEY":" ","HOUSE_NO":"２０號","E_COORD97":167233.87,"N_COORD97":2546380.71,"ADDRESS":"文賢路８３３巷２０號","OBJECTID":296279},"geometry":{"x":167233.87000000011,"y":2546380.7100000028}},{"attributes":{"ID":296288,"DIS_CODE":0,"TOWNNAME":"歸仁區","LI":"大廟里","LIN":"17鄰","STREET":"大廟五街","SECT":" ","MAREA":" ","LANE":"１７９巷","ALLEY":" ","HOUSE_NO":"１０１號","E_COORD97":175912.75,"N_COORD97":2544830.5099999998,"ADDRESS":"大廟五街１７９巷１０１號","OBJECTID":296280},"geometry":{"x":175912.74999999907,"y":2544830.5099999998}},{"attributes":{"ID":296289,"DIS_CODE":0,"TOWNNAME":"南區","LI":"同安里","LIN":"17鄰","STREET":"明興路","SECT":" ","MAREA":" ","LANE":"１４８１巷","ALLEY":" ","HOUSE_NO":"８１號","E_COORD97":166603.64000000001,"N_COORD97":2535787.8300000001,"ADDRESS":"明興路１４８１巷８１號","OBJECTID":296281},"geometry":{"x":166603.6400000006,"y":2535787.8300000019}},{"attributes":{"ID":296290,"DIS_CODE":0,"TOWNNAME":"南區","LI":"廣州里","LIN":"17鄰","STREET":"福吉三街","SECT":" ","MAREA":" ","LANE":"８０巷","ALLEY":" ","HOUSE_NO":"２號","E_COORD97":167225.98999999999,"N_COORD97":2542782.52,"ADDRESS":"福吉三街８０巷２號","OBJECTID":296282},"geometry":{"x":167225.99000000115,"y":2542782.5199999977}},{"attributes":{"ID":296291,"DIS_CODE":0,"TOWNNAME":"南區","LI":"廣州里","LIN":"17鄰","STREET":"福吉三街","SECT":" ","MAREA":" ","LANE":"８０巷","ALLEY":" ","HOUSE_NO":"４號","E_COORD97":167231.06,"N_COORD97":2542785.8900000001,"ADDRESS":"福吉三街８０巷４號","OBJECTID":296283},"geometry":{"x":167231.06000000145,"y":2542785.8900000025}},{"attributes":{"ID":296292,"DIS_CODE":0,"TOWNNAME":"南區","LI":"大忠里","LIN":"17鄰","STREET":"大同路","SECT":"二段","MAREA":" ","LANE":"６２０巷","ALLEY":" ","HOUSE_NO":"２０號","E_COORD97":169458.70000000001,"N_COORD97":2541088.5800000001,"ADDRESS":"大同路二段６２０巷２０號","OBJECTID":296284},"geometry":{"x":169458.70000000112,"y":2541088.5800000019}},{"attributes":{"ID":296293,"DIS_CODE":0,"TOWNNAME":"南區","LI":"白雪里","LIN":"17鄰","STREET":"新都路","SECT":" ","MAREA":" ","LANE":"６１２巷","ALLEY":" ","HOUSE_NO":"４９號","E_COORD97":166898.42000000001,"N_COORD97":2540999.3100000001,"ADDRESS":"新都路６１２巷４９號","OBJECTID":296285},"geometry":{"x":166898.42000000179,"y":2540999.3100000024}},{"attributes":{"ID":296294,"DIS_CODE":0,"TOWNNAME":"安平區","LI":"平安里","LIN":"17鄰","STREET":"安平路","SECT":" ","MAREA":" ","LANE":"６０６巷","ALLEY":" ","HOUSE_NO":"６號","E_COORD97":164846.51999999999,"N_COORD97":2544435.7400000002,"ADDRESS":"安平路６０６巷６號","OBJECTID":296286},"geometry":{"x":164846.52000000048,"y":2544435.7400000002}},{"attributes":{"ID":296295,"DIS_CODE":0,"TOWNNAME":"安平區","LI":"平安里","LIN":"17鄰","STREET":"安平路","SECT":" ","MAREA":" ","LANE":"６０６巷","ALLEY":" ","HOUSE_NO":"２號","E_COORD97":164843.14999999999,"N_COORD97":2544426.8700000001,"ADDRESS":"安平路６０６巷２號","OBJECTID":296287},"geometry":{"x":164843.1500000013,"y":2544426.8700000029}},{"attributes":{"ID":296296,"DIS_CODE":0,"TOWNNAME":"安平區","LI":"國平里","LIN":"17鄰","STREET":"華平路","SECT":" ","MAREA":" ","LANE":"２１巷","ALLEY":" ","HOUSE_NO":"４２號","E_COORD97":165191.42000000001,"N_COORD97":2542812.0099999998,"ADDRESS":"華平路２１巷４２號","OBJECTID":296288},"geometry":{"x":165191.42000000086,"y":2542812.0099999998}},{"attributes":{"ID":296297,"DIS_CODE":0,"TOWNNAME":"安平區","LI":"國平里","LIN":"17鄰","STREET":"華平路","SECT":" ","MAREA":" ","LANE":"２１巷","ALLEY":" ","HOUSE_NO":"４０號","E_COORD97":165196.5,"N_COORD97":2542811.54,"ADDRESS":"華平路２１巷４０號","OBJECTID":296289},"geometry":{"x":165196.50000000093,"y":2542811.5399999991}},{"attributes":{"ID":296298,"DIS_CODE":0,"TOWNNAME":"安平區","LI":"國平里","LIN":"17鄰","STREET":"華平路","SECT":" ","MAREA":" ","LANE":"２１巷","ALLEY":" ","HOUSE_NO":"３８號","E_COORD97":165200.16,"N_COORD97":2542808.6800000002,"ADDRESS":"華平路２１巷３８號","OBJECTID":296290},"geometry":{"x":165200.16000000201,"y":2542808.6799999997}},{"attributes":{"ID":296299,"DIS_CODE":0,"TOWNNAME":"安平區","LI":"國平里","LIN":"17鄰","STREET":"華平路","SECT":" ","MAREA":" ","LANE":"２１巷","ALLEY":" ","HOUSE_NO":"３３號","E_COORD97":165213.01000000001,"N_COORD97":2542792.1699999999,"ADDRESS":"華平路２１巷３３號","OBJECTID":296291},"geometry":{"x":165213.01000000071,"y":2542792.1699999981}},{"attributes":{"ID":296300,"DIS_CODE":0,"TOWNNAME":"安平區","LI":"億載里","LIN":"17鄰","STREET":"平豐路","SECT":" ","MAREA":" ","LANE":"４３巷","ALLEY":" ","HOUSE_NO":"６號","E_COORD97":164295.45000000001,"N_COORD97":2543005.2400000002,"ADDRESS":"平豐路４３巷６號","OBJECTID":296292},"geometry":{"x":164295.45000000019,"y":2543005.2400000002}},{"attributes":{"ID":296301,"DIS_CODE":0,"TOWNNAME":"安平區","LI":"億載里","LIN":"17鄰","STREET":"平豐路","SECT":" ","MAREA":" ","LANE":"４３巷","ALLEY":" ","HOUSE_NO":"８號","E_COORD97":164292.01000000001,"N_COORD97":2543004.8300000001,"ADDRESS":"平豐路４３巷８號","OBJECTID":296293},"geometry":{"x":164292.01000000164,"y":2543004.8299999982}},{"attributes":{"ID":296302,"DIS_CODE":0,"TOWNNAME":"安平區","LI":"億載里","LIN":"17鄰","STREET":"平豐路","SECT":" ","MAREA":" ","LANE":"４３巷","ALLEY":" ","HOUSE_NO":"１０號","E_COORD97":164285.76999999999,"N_COORD97":2543005.2999999998,"ADDRESS":"平豐路４３巷１０號","OBJECTID":296294},"geometry":{"x":164285.77000000048,"y":2543005.3000000007}},{"attributes":{"ID":296303,"DIS_CODE":0,"TOWNNAME":"安平區","LI":"億載里","LIN":"17鄰","STREET":"平豐路","SECT":" ","MAREA":" ","LANE":"４３巷","ALLEY":" ","HOUSE_NO":"１２號","E_COORD97":164282.12,"N_COORD97":2543005.46,"ADDRESS":"平豐路４３巷１２號","OBJECTID":296295},"geometry":{"x":164282.12000000104,"y":2543005.4600000028}},{"attributes":{"ID":296304,"DIS_CODE":0,"TOWNNAME":"安平區","LI":"億載里","LIN":"17鄰","STREET":"平豐路","SECT":" ","MAREA":" ","LANE":"４３巷","ALLEY":" ","HOUSE_NO":"１６號","E_COORD97":164276.88,"N_COORD97":2543005.9300000002,"ADDRESS":"平豐路４３巷１６號","OBJECTID":296296},"geometry":{"x":164276.88000000082,"y":2543005.9299999997}},{"attributes":{"ID":296305,"DIS_CODE":0,"TOWNNAME":"南區","LI":"永寧里","LIN":"17鄰","STREET":"灣裡路","SECT":" ","MAREA":" ","LANE":"２３５巷","ALLEY":" ","HOUSE_NO":"１５號之２","E_COORD97":166204.53,"N_COORD97":2536535.6099999999,"ADDRESS":"灣裡路２３５巷１５號之２","OBJECTID":296297},"geometry":{"x":166204.53000000212,"y":2536535.6099999994}},{"attributes":{"ID":296306,"DIS_CODE":0,"TOWNNAME":"南區","LI":"永寧里","LIN":"17鄰","STREET":"灣裡路","SECT":" ","MAREA":" ","LANE":"２３５巷","ALLEY":" ","HOUSE_NO":"１７號","E_COORD97":166220.59,"N_COORD97":2536530.9199999999,"ADDRESS":"灣裡路２３５巷１７號","OBJECTID":296298},"geometry":{"x":166220.58999999892,"y":2536530.9199999999}},{"attributes":{"ID":296307,"DIS_CODE":0,"TOWNNAME":"南區","LI":"永寧里","LIN":"17鄰","STREET":"灣裡路","SECT":" ","MAREA":" ","LANE":"２３５巷","ALLEY":" ","HOUSE_NO":"１７號之１","E_COORD97":166219.22,"N_COORD97":2536542.3599999999,"ADDRESS":"灣裡路２３５巷１７號之１","OBJECTID":296299},"geometry":{"x":166219.21999999974,"y":2536542.3600000013}},{"attributes":{"ID":296308,"DIS_CODE":0,"TOWNNAME":"南區","LI":"永寧里","LIN":"17鄰","STREET":"灣裡路","SECT":" ","MAREA":" ","LANE":"２３５巷","ALLEY":" ","HOUSE_NO":"１９號","E_COORD97":166227.70999999999,"N_COORD97":2536532.7400000002,"ADDRESS":"灣裡路２３５巷１９號","OBJECTID":296300},"geometry":{"x":166227.70999999996,"y":2536532.7400000002}},{"attributes":{"ID":296309,"DIS_CODE":0,"TOWNNAME":"南區","LI":"永寧里","LIN":"17鄰","STREET":"灣裡路","SECT":" ","MAREA":" ","LANE":"２３５巷","ALLEY":" ","HOUSE_NO":"２１號","E_COORD97":166229.07999999999,"N_COORD97":2536543.9100000001,"ADDRESS":"灣裡路２３５巷２１號","OBJECTID":296301},"geometry":{"x":166229.08000000007,"y":2536543.910000002}},{"attributes":{"ID":296310,"DIS_CODE":0,"TOWNNAME":"南區","LI":"永寧里","LIN":"17鄰","STREET":"灣裡路","SECT":" ","MAREA":" ","LANE":"２３５巷","ALLEY":" ","HOUSE_NO":"２２號","E_COORD97":166222.60000000001,"N_COORD97":2536514.46,"ADDRESS":"灣裡路２３５巷２２號","OBJECTID":296302},"geometry":{"x":166222.60000000056,"y":2536514.4600000009}},{"attributes":{"ID":296311,"DIS_CODE":0,"TOWNNAME":"南區","LI":"永寧里","LIN":"17鄰","STREET":"灣裡路","SECT":" ","MAREA":" ","LANE":"２３５巷","ALLEY":" ","HOUSE_NO":"２３號","E_COORD97":166233.45999999999,"N_COORD97":2536544.9100000001,"ADDRESS":"灣裡路２３５巷２３號","OBJECTID":296303},"geometry":{"x":166233.45999999903,"y":2536544.9100000001}},{"attributes":{"ID":296312,"DIS_CODE":0,"TOWNNAME":"南區","LI":"永寧里","LIN":"17鄰","STREET":"灣裡路","SECT":" ","MAREA":" ","LANE":"２３５巷","ALLEY":" ","HOUSE_NO":"２４號","E_COORD97":166225.60999999999,"N_COORD97":2536522.1600000001,"ADDRESS":"灣裡路２３５巷２４號","OBJECTID":296304},"geometry":{"x":166225.61000000034,"y":2536522.1600000001}},{"attributes":{"ID":296313,"DIS_CODE":0,"TOWNNAME":"南區","LI":"永寧里","LIN":"17鄰","STREET":"灣裡路","SECT":" ","MAREA":" ","LANE":"２３５巷","ALLEY":" ","HOUSE_NO":"２５號","E_COORD97":166238.20999999999,"N_COORD97":2536539.8999999999,"ADDRESS":"灣裡路２３５巷２５號","OBJECTID":296305},"geometry":{"x":166238.20999999996,"y":2536539.9000000022}},{"attributes":{"ID":296314,"DIS_CODE":0,"TOWNNAME":"安平區","LI":"文平里","LIN":" ","STREET":"建平三街","SECT":" ","MAREA":" ","LANE":"６５巷","ALLEY":" ","HOUSE_NO":"１８號四樓之４","E_COORD97":165743.35000000001,"N_COORD97":2542877.1400000001,"ADDRESS":"建平三街６５巷１８號四樓之４","OBJECTID":296306},"geometry":{"x":165743.34999999963,"y":2542877.1400000006}},{"attributes":{"ID":296315,"DIS_CODE":0,"TOWNNAME":"安平區","LI":"文平里","LIN":"17鄰","STREET":"建平三街","SECT":" ","MAREA":" ","LANE":"６５巷","ALLEY":" ","HOUSE_NO":"１８號三樓之２","E_COORD97":165743.35000000001,"N_COORD97":2542877.1400000001,"ADDRESS":"建平三街６５巷１８號三樓之２","OBJECTID":296307},"geometry":{"x":165743.34999999963,"y":2542877.1400000006}},{"attributes":{"ID":296316,"DIS_CODE":0,"TOWNNAME":"南區","LI":"永寧里","LIN":"17鄰","STREET":"灣裡路","SECT":" ","MAREA":" ","LANE":"２３５巷","ALLEY":" ","HOUSE_NO":"２６號","E_COORD97":166240.03,"N_COORD97":2536522.4399999999,"ADDRESS":"灣裡路２３５巷２６號","OBJECTID":296308},"geometry":{"x":166240.03000000026,"y":2536522.4400000013}},{"attributes":{"ID":296317,"DIS_CODE":0,"TOWNNAME":"南區","LI":"文南里","LIN":"14鄰","STREET":"永南三街","SECT":" ","MAREA":" ","LANE":" ","ALLEY":" ","HOUSE_NO":"２６號","E_COORD97":166784.73999999999,"N_COORD97":2542673.4100000001,"ADDRESS":"永南三街２６號","OBJECTID":296309},"geometry":{"x":166784.74000000115,"y":2542673.410000002}},{"attributes":{"ID":296318,"DIS_CODE":0,"TOWNNAME":"南區","LI":"文南里","LIN":"14鄰","STREET":"永南三街","SECT":" ","MAREA":" ","LANE":" ","ALLEY":" ","HOUSE_NO":"２８號","E_COORD97":166780.17999999999,"N_COORD97":2542675.7000000002,"ADDRESS":"永南三街２８號","OBJECTID":296310},"geometry":{"x":166780.18000000063,"y":2542675.6999999993}},{"attributes":{"ID":296319,"DIS_CODE":0,"TOWNNAME":"南區","LI":"永寧里","LIN":"17鄰","STREET":"灣裡路","SECT":" ","MAREA":" ","LANE":"２３５巷","ALLEY":" ","HOUSE_NO":"２７號","E_COORD97":166243.95999999999,"N_COORD97":2536540.6200000001,"ADDRESS":"灣裡路２３５巷２７號","OBJECTID":296311},"geometry":{"x":166243.96000000089,"y":2536540.620000001}},{"attributes":{"ID":296320,"DIS_CODE":0,"TOWNNAME":"南區","LI":"永寧里","LIN":"17鄰","STREET":"灣裡路","SECT":" ","MAREA":" ","LANE":"２３５巷","ALLEY":" ","HOUSE_NO":"２８號","E_COORD97":166253.17999999999,"N_COORD97":2536525.6299999999,"ADDRESS":"灣裡路２３５巷２８號","OBJECTID":296312},"geometry":{"x":166253.1799999997,"y":2536525.629999999}},{"attributes":{"ID":296321,"DIS_CODE":0,"TOWNNAME":"南區","LI":"永寧里","LIN":"17鄰","STREET":"灣裡路","SECT":" ","MAREA":" ","LANE":"２３５巷","ALLEY":" ","HOUSE_NO":"２９號","E_COORD97":166251.07999999999,"N_COORD97":2536538.8900000001,"ADDRESS":"灣裡路２３５巷２９號","OBJECTID":296313},"geometry":{"x":166251.08000000007,"y":2536538.8900000006}},{"attributes":{"ID":296322,"DIS_CODE":0,"TOWNNAME":"南區","LI":"永寧里","LIN":"17鄰","STREET":"灣裡路","SECT":" ","MAREA":" ","LANE":"２３５巷","ALLEY":" ","HOUSE_NO":"３０號","E_COORD97":166268.14000000001,"N_COORD97":2536537.8900000001,"ADDRESS":"灣裡路２３５巷３０號","OBJECTID":296314},"geometry":{"x":166268.1400000006,"y":2536537.8900000025}},{"attributes":{"ID":296323,"DIS_CODE":0,"TOWNNAME":"南區","LI":"永寧里","LIN":"17鄰","STREET":"灣裡路","SECT":" ","MAREA":" ","LANE":"２３５巷","ALLEY":" ","HOUSE_NO":"３０號之１","E_COORD97":166270.51999999999,"N_COORD97":2536545.8199999998,"ADDRESS":"灣裡路２３５巷３０號之１","OBJECTID":296315},"geometry":{"x":166270.52000000048,"y":2536545.8200000003}},{"attributes":{"ID":296324,"DIS_CODE":0,"TOWNNAME":"南區","LI":"永寧里","LIN":"17鄰","STREET":"灣裡路","SECT":" ","MAREA":" ","LANE":"２３５巷","ALLEY":" ","HOUSE_NO":"３１號","E_COORD97":166247.06,"N_COORD97":2536554.2999999998,"ADDRESS":"灣裡路２３５巷３１號","OBJECTID":296316},"geometry":{"x":166247.05999999959,"y":2536554.3000000026}},{"attributes":{"ID":296325,"DIS_CODE":0,"TOWNNAME":"南區","LI":"永寧里","LIN":"17鄰","STREET":"灣裡路","SECT":" ","MAREA":" ","LANE":"２３５巷","ALLEY":" ","HOUSE_NO":"３２號","E_COORD97":166268.14000000001,"N_COORD97":2536554.7599999998,"ADDRESS":"灣裡路２３５巷３２號","OBJECTID":296317},"geometry":{"x":166268.1400000006,"y":2536554.7600000016}},{"attributes":{"ID":296326,"DIS_CODE":0,"TOWNNAME":"南區","LI":"永寧里","LIN":"17鄰","STREET":"灣裡路","SECT":" ","MAREA":" ","LANE":"２３５巷","ALLEY":" ","HOUSE_NO":"７號","E_COORD97":166148.48999999999,"N_COORD97":2536506.9399999999,"ADDRESS":"灣裡路２３５巷７號","OBJECTID":296318},"geometry":{"x":166148.49000000022,"y":2536506.9399999995}},{"attributes":{"ID":296327,"DIS_CODE":0,"TOWNNAME":"南區","LI":"永寧里","LIN":"17鄰","STREET":"灣裡路","SECT":" ","MAREA":" ","LANE":"２３５巷","ALLEY":" ","HOUSE_NO":"９號","E_COORD97":166162.17999999999,"N_COORD97":2536511.4100000001,"ADDRESS":"灣裡路２３５巷９號","OBJECTID":296319},"geometry":{"x":166162.17999999877,"y":2536511.4100000001}},{"attributes":{"ID":296328,"DIS_CODE":0,"TOWNNAME":"安平區","LI":"華平里","LIN":"17鄰","STREET":"永華八街","SECT":" ","MAREA":" ","LANE":"１９３巷","ALLEY":" ","HOUSE_NO":"２２號之１","E_COORD97":165104.12,"N_COORD97":2543767.3199999998,"ADDRESS":"永華八街１９３巷２２號之１","OBJECTID":296320},"geometry":{"x":165104.12000000104,"y":2543767.3200000003}},{"attributes":{"ID":296329,"DIS_CODE":0,"TOWNNAME":"安平區","LI":"華平里","LIN":"17鄰","STREET":"永華八街","SECT":" ","MAREA":" ","LANE":"１９３巷","ALLEY":" ","HOUSE_NO":"３４號之２","E_COORD97":165080.85000000001,"N_COORD97":2543744.46,"ADDRESS":"永華八街１９３巷３４號之２","OBJECTID":296321},"geometry":{"x":165080.84999999963,"y":2543744.4600000028}},{"attributes":{"ID":296330,"DIS_CODE":0,"TOWNNAME":"歸仁區","LI":"崙頂里","LIN":"17鄰","STREET":"大成路","SECT":" ","MAREA":" ","LANE":"２９５巷","ALLEY":" ","HOUSE_NO":"３號","E_COORD97":177948.23000000001,"N_COORD97":2540140.25,"ADDRESS":"大成路２９５巷３號","OBJECTID":296322},"geometry":{"x":177948.23000000138,"y":2540140.25}},{"attributes":{"ID":296331,"DIS_CODE":0,"TOWNNAME":"歸仁區","LI":"崙頂里","LIN":"17鄰","STREET":"大成路","SECT":" ","MAREA":" ","LANE":"２９５巷","ALLEY":" ","HOUSE_NO":"１號","E_COORD97":177949.23000000001,"N_COORD97":2540136.25,"ADDRESS":"大成路２９５巷１號","OBJECTID":296323},"geometry":{"x":177949.23000000045,"y":2540136.25}},{"attributes":{"ID":296332,"DIS_CODE":0,"TOWNNAME":"北區","LI":"實踐里","LIN":"17鄰","STREET":"大武街","SECT":" ","MAREA":" ","LANE":"１５４巷","ALLEY":" ","HOUSE_NO":"４號","E_COORD97":169662.97,"N_COORD97":2546056.7000000002,"ADDRESS":"大武街１５４巷４號","OBJECTID":296324},"geometry":{"x":169662.97000000067,"y":2546056.7000000011}},{"attributes":{"ID":296333,"DIS_CODE":0,"TOWNNAME":"北區","LI":"實踐里","LIN":"17鄰","STREET":"大武街","SECT":" ","MAREA":" ","LANE":"１５４巷","ALLEY":" ","HOUSE_NO":"５號","E_COORD97":169667.98999999999,"N_COORD97":2546070.9500000002,"ADDRESS":"大武街１５４巷５號","OBJECTID":296325},"geometry":{"x":169667.98999999929,"y":2546070.9499999993}},{"attributes":{"ID":296334,"DIS_CODE":0,"TOWNNAME":"北區","LI":"實踐里","LIN":"17鄰","STREET":"大武街","SECT":" ","MAREA":" ","LANE":"１５４巷","ALLEY":" ","HOUSE_NO":"６號","E_COORD97":169666.60999999999,"N_COORD97":2546056.3100000001,"ADDRESS":"大武街１５４巷６號","OBJECTID":296326},"geometry":{"x":169666.61000000034,"y":2546056.3100000005}},{"attributes":{"ID":296335,"DIS_CODE":0,"TOWNNAME":"北區","LI":"實踐里","LIN":"17鄰","STREET":"大武街","SECT":" ","MAREA":" ","LANE":"１５４巷","ALLEY":" ","HOUSE_NO":"７號","E_COORD97":169671.53,"N_COORD97":2546070.75,"ADDRESS":"大武街１５４巷７號","OBJECTID":296327},"geometry":{"x":169671.53000000119,"y":2546070.7500000019}},{"attributes":{"ID":296336,"DIS_CODE":0,"TOWNNAME":"北區","LI":"實踐里","LIN":"17鄰","STREET":"大武街","SECT":" ","MAREA":" ","LANE":"１５４巷","ALLEY":" ","HOUSE_NO":"８號","E_COORD97":169671.42999999999,"N_COORD97":2546056.0099999998,"ADDRESS":"大武街１５４巷８號","OBJECTID":296328},"geometry":{"x":169671.43000000156,"y":2546056.0100000016}},{"attributes":{"ID":296337,"DIS_CODE":0,"TOWNNAME":"北區","LI":"實踐里","LIN":"17鄰","STREET":"大武街","SECT":" ","MAREA":" ","LANE":"１５４巷","ALLEY":" ","HOUSE_NO":"９號","E_COORD97":169675.26000000001,"N_COORD97":2546070.0699999998,"ADDRESS":"大武街１５４巷９號","OBJECTID":296329},"geometry":{"x":169675.25999999978,"y":2546070.0700000022}},{"attributes":{"ID":296338,"DIS_CODE":0,"TOWNNAME":"北區","LI":"實踐里","LIN":"17鄰","STREET":"大武街","SECT":" ","MAREA":" ","LANE":"１５４巷","ALLEY":" ","HOUSE_NO":"１０號","E_COORD97":169676.94,"N_COORD97":2546055.7200000002,"ADDRESS":"大武街１５４巷１０號","OBJECTID":296330},"geometry":{"x":169676.94000000041,"y":2546055.7200000025}},{"attributes":{"ID":296339,"DIS_CODE":0,"TOWNNAME":"北區","LI":"實踐里","LIN":"17鄰","STREET":"大武街","SECT":" ","MAREA":" ","LANE":"１５４巷","ALLEY":" ","HOUSE_NO":"１１號","E_COORD97":169678.81,"N_COORD97":2546069.48,"ADDRESS":"大武街１５４巷１１號","OBJECTID":296331},"geometry":{"x":169678.81000000145,"y":2546069.4800000042}},{"attributes":{"ID":296340,"DIS_CODE":0,"TOWNNAME":"新營區","LI":"南紙里","LIN":"17鄰","STREET":"南紙街","SECT":" ","MAREA":" ","LANE":"１６２巷","ALLEY":" ","HOUSE_NO":"３７號","E_COORD97":177827.28,"N_COORD97":2577291.8500000001,"ADDRESS":"南紙街１６２巷３７號","OBJECTID":296332},"geometry":{"x":177827.28000000119,"y":2577291.8500000015}},{"attributes":{"ID":296341,"DIS_CODE":0,"TOWNNAME":"新營區","LI":"南興里","LIN":"17鄰","STREET":"興農街","SECT":" ","MAREA":" ","LANE":"１４０巷","ALLEY":" ","HOUSE_NO":"２７號","E_COORD97":179145.92999999999,"N_COORD97":2577526.9100000001,"ADDRESS":"興農街１４０巷２７號","OBJECTID":296333},"geometry":{"x":179145.93000000063,"y":2577526.910000002}},{"attributes":{"ID":296342,"DIS_CODE":0,"TOWNNAME":"新市區","LI":"大營里","LIN":"7鄰","STREET":" ","SECT":" ","MAREA":"大營","LANE":" ","ALLEY":" ","HOUSE_NO":"１５８之１號","E_COORD97":179421.001158,"N_COORD97":2555478.1603799998,"ADDRESS":"大營１５８之１號","OBJECTID":296334},"geometry":{"x":179421.00115799904,"y":2555478.1603800002}},{"attributes":{"ID":296343,"DIS_CODE":0,"TOWNNAME":"新營區","LI":"南興里","LIN":"17鄰","STREET":"興農街","SECT":" ","MAREA":" ","LANE":"１４０巷","ALLEY":" ","HOUSE_NO":"２５之４號","E_COORD97":179155.59,"N_COORD97":2577526.9300000002,"ADDRESS":"興農街１４０巷２５之４號","OBJECTID":296335},"geometry":{"x":179155.59000000078,"y":2577526.9299999997}},{"attributes":{"ID":296344,"DIS_CODE":0,"TOWNNAME":"新營區","LI":"南興里","LIN":"17鄰","STREET":"興農街","SECT":" ","MAREA":" ","LANE":"１４０巷","ALLEY":" ","HOUSE_NO":"２５之２號","E_COORD97":179155.59,"N_COORD97":2577526.9300000002,"ADDRESS":"興農街１４０巷２５之２號","OBJECTID":296336},"geometry":{"x":179155.59000000078,"y":2577526.9299999997}},{"attributes":{"ID":296345,"DIS_CODE":0,"TOWNNAME":"新營區","LI":"南興里","LIN":"17鄰","STREET":"興農街","SECT":" ","MAREA":" ","LANE":"１４０巷","ALLEY":" ","HOUSE_NO":"２７之１號","E_COORD97":179151.5,"N_COORD97":2577526.9500000002,"ADDRESS":"興農街１４０巷２７之１號","OBJECTID":296337},"geometry":{"x":179151.50000000093,"y":2577526.9499999993}},{"attributes":{"ID":296346,"DIS_CODE":0,"TOWNNAME":"新營區","LI":"南興里","LIN":"17鄰","STREET":"興農街","SECT":" ","MAREA":" ","LANE":"１４０巷","ALLEY":" ","HOUSE_NO":"２３之４號","E_COORD97":179155.59,"N_COORD97":2577526.9300000002,"ADDRESS":"興農街１４０巷２３之４號","OBJECTID":296338},"geometry":{"x":179155.59000000078,"y":2577526.9299999997}},{"attributes":{"ID":296347,"DIS_CODE":0,"TOWNNAME":"新營區","LI":"南興里","LIN":"17鄰","STREET":"興農街","SECT":" ","MAREA":" ","LANE":"１４０巷","ALLEY":" ","HOUSE_NO":"２７之４號","E_COORD97":179151.5,"N_COORD97":2577526.9500000002,"ADDRESS":"興農街１４０巷２７之４號","OBJECTID":296339},"geometry":{"x":179151.50000000093,"y":2577526.9499999993}},{"attributes":{"ID":296348,"DIS_CODE":0,"TOWNNAME":"新營區","LI":"忠政里","LIN":"4鄰","STREET":"中正路","SECT":" ","MAREA":" ","LANE":"３９巷","ALLEY":" ","HOUSE_NO":"５號四樓","E_COORD97":180044.85999999999,"N_COORD97":2579174.9700000002,"ADDRESS":"中正路３９巷５號四樓","OBJECTID":296340},"geometry":{"x":180044.86000000034,"y":2579174.9700000007}},{"attributes":{"ID":296349,"DIS_CODE":0,"TOWNNAME":"新營區","LI":"永生里","LIN":" ","STREET":"康樂街","SECT":" ","MAREA":" ","LANE":"１巷","ALLEY":" ","HOUSE_NO":"１號１樓","E_COORD97":180070.62,"N_COORD97":2577919,"ADDRESS":"康樂街１巷１號１樓","OBJECTID":296341},"geometry":{"x":180070.62000000104,"y":2577919.0000000019}},{"attributes":{"ID":296350,"DIS_CODE":0,"TOWNNAME":"新營區","LI":"永生里","LIN":" ","STREET":"康樂街","SECT":" ","MAREA":" ","LANE":"１巷","ALLEY":" ","HOUSE_NO":"１號６樓","E_COORD97":180070.62,"N_COORD97":2577919,"ADDRESS":"康樂街１巷１號６樓","OBJECTID":296342},"geometry":{"x":180070.62000000104,"y":2577919.0000000019}},{"attributes":{"ID":296351,"DIS_CODE":0,"TOWNNAME":"新營區","LI":"民權里","LIN":" ","STREET":"民治路","SECT":" ","MAREA":" ","LANE":"５３巷","ALLEY":" ","HOUSE_NO":"７之１號６樓","E_COORD97":179689.34,"N_COORD97":2578733.73,"ADDRESS":"民治路５３巷７之１號６樓","OBJECTID":296343},"geometry":{"x":179689.34000000078,"y":2578733.7300000042}},{"attributes":{"ID":296352,"DIS_CODE":0,"TOWNNAME":"楠西區","LI":"東勢里","LIN":"17鄰","STREET":"信義路","SECT":" ","MAREA":" ","LANE":"４１巷","ALLEY":" ","HOUSE_NO":"１０號","E_COORD97":197570.17000000001,"N_COORD97":2563481.27,"ADDRESS":"信義路４１巷１０號","OBJECTID":296344},"geometry":{"x":197570.17000000086,"y":2563481.2699999996}},{"attributes":{"ID":296353,"DIS_CODE":0,"TOWNNAME":"楠西區","LI":"東勢里","LIN":"17鄰","STREET":"信義路","SECT":" ","MAREA":" ","LANE":"７７巷","ALLEY":" ","HOUSE_NO":"２７號","E_COORD97":197532.67000000001,"N_COORD97":2563575.27,"ADDRESS":"信義路７７巷２７號","OBJECTID":296345},"geometry":{"x":197532.67000000086,"y":2563575.2700000014}},{"attributes":{"ID":296354,"DIS_CODE":0,"TOWNNAME":"學甲區","LI":"仁得里","LIN":"17鄰","STREET":"八德街","SECT":" ","MAREA":" ","LANE":"２１９巷","ALLEY":" ","HOUSE_NO":"２號","E_COORD97":165689.98000000001,"N_COORD97":2569795.4399999999,"ADDRESS":"八德街２１９巷２號","OBJECTID":296346},"geometry":{"x":165689.98000000138,"y":2569795.4400000013}},{"attributes":{"ID":296355,"DIS_CODE":0,"TOWNNAME":"學甲區","LI":"仁得里","LIN":"17鄰","STREET":"八德街","SECT":" ","MAREA":" ","LANE":"２１９巷","ALLEY":" ","HOUSE_NO":"３號","E_COORD97":165704.47,"N_COORD97":2569783.8500000001,"ADDRESS":"八德街２１９巷３號","OBJECTID":296347},"geometry":{"x":165704.4700000016,"y":2569783.8499999996}},{"attributes":{"ID":296356,"DIS_CODE":0,"TOWNNAME":"學甲區","LI":"仁得里","LIN":"17鄰","STREET":"八德街","SECT":" ","MAREA":" ","LANE":"２１９巷","ALLEY":" ","HOUSE_NO":"４號","E_COORD97":165687.81,"N_COORD97":2569789.5600000001,"ADDRESS":"八德街２１９巷４號","OBJECTID":296348},"geometry":{"x":165687.80999999959,"y":2569789.5600000024}},{"attributes":{"ID":296357,"DIS_CODE":0,"TOWNNAME":"學甲區","LI":"仁得里","LIN":"17鄰","STREET":"八德街","SECT":" ","MAREA":" ","LANE":"２１９巷","ALLEY":" ","HOUSE_NO":"５號","E_COORD97":165700.67000000001,"N_COORD97":2569775.6000000001,"ADDRESS":"八德街２１９巷５號","OBJECTID":296349},"geometry":{"x":165700.66999999993,"y":2569775.5999999996}},{"attributes":{"ID":296358,"DIS_CODE":0,"TOWNNAME":"學甲區","LI":"仁得里","LIN":"17鄰","STREET":"八德街","SECT":" ","MAREA":" ","LANE":"２１９巷","ALLEY":" ","HOUSE_NO":"６號","E_COORD97":165685.37,"N_COORD97":2569783.8100000001,"ADDRESS":"八德街２１９巷６號","OBJECTID":296350},"geometry":{"x":165685.37000000104,"y":2569783.8100000024}},{"attributes":{"ID":296359,"DIS_CODE":0,"TOWNNAME":"學甲區","LI":"仁得里","LIN":"17鄰","STREET":"八德街","SECT":" ","MAREA":" ","LANE":"２１９巷","ALLEY":" ","HOUSE_NO":"８號","E_COORD97":165683.59,"N_COORD97":2569778.4700000002,"ADDRESS":"八德街２１９巷８號","OBJECTID":296351},"geometry":{"x":165683.59000000078,"y":2569778.4700000044}},{"attributes":{"ID":296360,"DIS_CODE":0,"TOWNNAME":"新化區","LI":"東榮里","LIN":"17鄰","STREET":"中興路","SECT":" ","MAREA":" ","LANE":"６７７巷","ALLEY":" ","HOUSE_NO":"１１號之１","E_COORD97":179623.39000000001,"N_COORD97":2548019.2599999998,"ADDRESS":"中興路６７７巷１１號之１","OBJECTID":296352},"geometry":{"x":179623.38999999966,"y":2548019.2599999979}},{"attributes":{"ID":296361,"DIS_CODE":0,"TOWNNAME":"新化區","LI":"東榮里","LIN":"17鄰","STREET":"中興路","SECT":" ","MAREA":" ","LANE":"６７７巷","ALLEY":" ","HOUSE_NO":"１３號","E_COORD97":179622.56,"N_COORD97":2548014.25,"ADDRESS":"中興路６７７巷１３號","OBJECTID":296353},"geometry":{"x":179622.55999999959,"y":2548014.2500000019}},{"attributes":{"ID":296362,"DIS_CODE":0,"TOWNNAME":"新化區","LI":"東榮里","LIN":"17鄰","STREET":"中興路","SECT":" ","MAREA":" ","LANE":"６８５巷","ALLEY":" ","HOUSE_NO":"３號","E_COORD97":179586.70999999999,"N_COORD97":2548045.25,"ADDRESS":"中興路６８５巷３號","OBJECTID":296354},"geometry":{"x":179586.71000000089,"y":2548045.25}},{"attributes":{"ID":296363,"DIS_CODE":0,"TOWNNAME":"南區","LI":"文南里","LIN":"14鄰","STREET":"永南三街","SECT":" ","MAREA":" ","LANE":" ","ALLEY":" ","HOUSE_NO":"２９號","E_COORD97":166755.45000000001,"N_COORD97":2542662.8799999999,"ADDRESS":"永南三街２９號","OBJECTID":296355},"geometry":{"x":166755.45000000019,"y":2542662.879999999}},{"attributes":{"ID":296364,"DIS_CODE":0,"TOWNNAME":"南區","LI":"文南里","LIN":"14鄰","STREET":"永南三街","SECT":" ","MAREA":" ","LANE":" ","ALLEY":" ","HOUSE_NO":"３１號","E_COORD97":166750.12,"N_COORD97":2542663.25,"ADDRESS":"永南三街３１號","OBJECTID":296356},"geometry":{"x":166750.12000000104,"y":2542663.2500000037}},{"attributes":{"ID":296365,"DIS_CODE":0,"TOWNNAME":"南區","LI":"文南里","LIN":"14鄰","STREET":"永南三街","SECT":" ","MAREA":" ","LANE":" ","ALLEY":" ","HOUSE_NO":"３３號","E_COORD97":166745.75,"N_COORD97":2542663.8199999998,"ADDRESS":"永南三街３３號","OBJECTID":296357},"geometry":{"x":166745.75000000093,"y":2542663.8200000022}},{"attributes":{"ID":296366,"DIS_CODE":0,"TOWNNAME":"南區","LI":"文南里","LIN":"14鄰","STREET":"永南三街","SECT":" ","MAREA":" ","LANE":" ","ALLEY":" ","HOUSE_NO":"３５號","E_COORD97":166740.81,"N_COORD97":2542664.7799999998,"ADDRESS":"永南三街３５號","OBJECTID":296358},"geometry":{"x":166740.80999999959,"y":2542664.7799999993}},{"attributes":{"ID":296367,"DIS_CODE":0,"TOWNNAME":"南區","LI":"文南里","LIN":"14鄰","STREET":"永南三街","SECT":" ","MAREA":" ","LANE":" ","ALLEY":" ","HOUSE_NO":"３７號","E_COORD97":166736.04999999999,"N_COORD97":2542665.3399999999,"ADDRESS":"永南三街３７號","OBJECTID":296359},"geometry":{"x":166736.04999999981,"y":2542665.3399999999}},{"attributes":{"ID":296368,"DIS_CODE":0,"TOWNNAME":"新營區","LI":"新北里","LIN":"24鄰","STREET":"民生路","SECT":" ","MAREA":" ","LANE":"４２０巷","ALLEY":" ","HOUSE_NO":"４１號二樓之３","E_COORD97":178928.54999999999,"N_COORD97":2579414.02,"ADDRESS":"民生路４２０巷４１號二樓之３","OBJECTID":296360},"geometry":{"x":178928.55000000075,"y":2579414.0200000014}},{"attributes":{"ID":296369,"DIS_CODE":0,"TOWNNAME":"新營區","LI":"民權里","LIN":"24鄰","STREET":"民治路","SECT":" ","MAREA":" ","LANE":"５３巷","ALLEY":" ","HOUSE_NO":"１１之２號四樓","E_COORD97":179683.14999999999,"N_COORD97":2578681.71,"ADDRESS":"民治路５３巷１１之２號四樓","OBJECTID":296361},"geometry":{"x":179683.1500000013,"y":2578681.7100000028}},{"attributes":{"ID":296370,"DIS_CODE":0,"TOWNNAME":"新營區","LI":"忠政里","LIN":"4鄰","STREET":"中正路","SECT":" ","MAREA":" ","LANE":"３９巷","ALLEY":" ","HOUSE_NO":"５號三樓","E_COORD97":180044.85999999999,"N_COORD97":2579174.9700000002,"ADDRESS":"中正路３９巷５號三樓","OBJECTID":296362},"geometry":{"x":180044.86000000034,"y":2579174.9700000007}},{"attributes":{"ID":296371,"DIS_CODE":0,"TOWNNAME":"新營區","LI":"永生里","LIN":" ","STREET":"康樂街","SECT":" ","MAREA":" ","LANE":"１巷","ALLEY":" ","HOUSE_NO":"２號３樓","E_COORD97":180078.88,"N_COORD97":2577920.0699999998,"ADDRESS":"康樂街１巷２號３樓","OBJECTID":296363},"geometry":{"x":180078.88000000082,"y":2577920.0700000003}},{"attributes":{"ID":296372,"DIS_CODE":0,"TOWNNAME":"新營區","LI":"南興里","LIN":"20鄰","STREET":"建業路","SECT":" ","MAREA":" ","LANE":"７８巷","ALLEY":" ","HOUSE_NO":"１０號九樓之２","E_COORD97":179350.12,"N_COORD97":2577529.3300000001,"ADDRESS":"建業路７８巷１０號九樓之２","OBJECTID":296364},"geometry":{"x":179350.12000000197,"y":2577529.3300000038}},{"attributes":{"ID":296373,"DIS_CODE":0,"TOWNNAME":"新營區","LI":"新北里","LIN":"24鄰","STREET":"民生路","SECT":" ","MAREA":" ","LANE":"４２０巷","ALLEY":" ","HOUSE_NO":"４１號六樓之３","E_COORD97":178928.54999999999,"N_COORD97":2579414.02,"ADDRESS":"民生路４２０巷４１號六樓之３","OBJECTID":296365},"geometry":{"x":178928.55000000075,"y":2579414.0200000014}},{"attributes":{"ID":296374,"DIS_CODE":0,"TOWNNAME":"新營區","LI":"民權里","LIN":"24鄰","STREET":"民治路","SECT":" ","MAREA":" ","LANE":"５３巷","ALLEY":" ","HOUSE_NO":"１１號三樓","E_COORD97":179660.17000000001,"N_COORD97":2578676.23,"ADDRESS":"民治路５３巷１１號三樓","OBJECTID":296366},"geometry":{"x":179660.17000000086,"y":2578676.2300000042}},{"attributes":{"ID":296375,"DIS_CODE":0,"TOWNNAME":"新營區","LI":"新北里","LIN":" ","STREET":"民生路","SECT":" ","MAREA":" ","LANE":"４２０巷","ALLEY":" ","HOUSE_NO":"４１號三樓之２","E_COORD97":178928.59,"N_COORD97":2579414.02,"ADDRESS":"民生路４２０巷４１號三樓之２","OBJECTID":296367},"geometry":{"x":178928.59000000078,"y":2579414.0200000014}},{"attributes":{"ID":296376,"DIS_CODE":0,"TOWNNAME":"新營區","LI":"新北里","LIN":"24鄰","STREET":"民生路","SECT":" ","MAREA":" ","LANE":"４２０巷","ALLEY":" ","HOUSE_NO":"４１號五樓之２","E_COORD97":178928.59,"N_COORD97":2579414.02,"ADDRESS":"民生路４２０巷４１號五樓之２","OBJECTID":296368},"geometry":{"x":178928.59000000078,"y":2579414.0200000014}},{"attributes":{"ID":296377,"DIS_CODE":0,"TOWNNAME":"新化區","LI":"東榮里","LIN":"17鄰","STREET":"中興路","SECT":" ","MAREA":" ","LANE":"６７７巷","ALLEY":" ","HOUSE_NO":"３５號","E_COORD97":179609.85999999999,"N_COORD97":2547954.25,"ADDRESS":"中興路６７７巷３５號","OBJECTID":296369},"geometry":{"x":179609.86000000127,"y":2547954.25}},{"attributes":{"ID":296378,"DIS_CODE":0,"TOWNNAME":"新化區","LI":"東榮里","LIN":"17鄰","STREET":"中興路","SECT":" ","MAREA":" ","LANE":"６７７巷","ALLEY":" ","HOUSE_NO":"１８號","E_COORD97":179589.76000000001,"N_COORD97":2547997.25,"ADDRESS":"中興路６７７巷１８號","OBJECTID":296370},"geometry":{"x":179589.76000000071,"y":2547997.2500000019}},{"attributes":{"ID":296379,"DIS_CODE":0,"TOWNNAME":"新化區","LI":"東榮里","LIN":"17鄰","STREET":"中興路","SECT":" ","MAREA":" ","LANE":"６７７巷","ALLEY":" ","HOUSE_NO":"３９號","E_COORD97":179609.85999999999,"N_COORD97":2547946.25,"ADDRESS":"中興路６７７巷３９號","OBJECTID":296371},"geometry":{"x":179609.86000000127,"y":2547946.2500000019}},{"attributes":{"ID":296380,"DIS_CODE":0,"TOWNNAME":"新化區","LI":"東榮里","LIN":"17鄰","STREET":"中興路","SECT":" ","MAREA":" ","LANE":"６７７巷","ALLEY":" ","HOUSE_NO":"８號","E_COORD97":179596.91,"N_COORD97":2548016.25,"ADDRESS":"中興路６７７巷８號","OBJECTID":296372},"geometry":{"x":179596.91000000015,"y":2548016.2499999981}},{"attributes":{"ID":296381,"DIS_CODE":0,"TOWNNAME":"南區","LI":"文南里","LIN":"14鄰","STREET":"永南三街","SECT":" ","MAREA":" ","LANE":" ","ALLEY":" ","HOUSE_NO":"３９號","E_COORD97":166731.10999999999,"N_COORD97":2542665.5299999998,"ADDRESS":"永南三街３９號","OBJECTID":296373},"geometry":{"x":166731.11000000034,"y":2542665.5299999993}},{"attributes":{"ID":296382,"DIS_CODE":0,"TOWNNAME":"南區","LI":"文南里","LIN":"14鄰","STREET":"永南三街","SECT":" ","MAREA":" ","LANE":" ","ALLEY":" ","HOUSE_NO":"４１號","E_COORD97":166726.16,"N_COORD97":2542665.9100000001,"ADDRESS":"永南三街４１號","OBJECTID":296374},"geometry":{"x":166726.16000000108,"y":2542665.910000002}},{"attributes":{"ID":296383,"DIS_CODE":0,"TOWNNAME":"南區","LI":"文南里","LIN":"14鄰","STREET":"永南三街","SECT":" ","MAREA":" ","LANE":" ","ALLEY":" ","HOUSE_NO":"４３號","E_COORD97":166721.41,"N_COORD97":2542666.48,"ADDRESS":"永南三街４３號","OBJECTID":296375},"geometry":{"x":166721.41000000108,"y":2542666.4800000023}},{"attributes":{"ID":296384,"DIS_CODE":0,"TOWNNAME":"南區","LI":"文南里","LIN":"14鄰","STREET":"永南三街","SECT":" ","MAREA":" ","LANE":" ","ALLEY":" ","HOUSE_NO":"４５號","E_COORD97":166716.64000000001,"N_COORD97":2542667.0499999998,"ADDRESS":"永南三街４５號","OBJECTID":296376},"geometry":{"x":166716.63999999966,"y":2542667.0500000007}},{"attributes":{"ID":296385,"DIS_CODE":0,"TOWNNAME":"東區","LI":"龍山里","LIN":"14鄰","STREET":"崇學路","SECT":" ","MAREA":" ","LANE":" ","ALLEY":" ","HOUSE_NO":"２６５號","E_COORD97":170563.81,"N_COORD97":2542522.5499999998,"ADDRESS":"崇學路２６５號","OBJECTID":296377},"geometry":{"x":170563.81000000145,"y":2542522.5499999989}},{"attributes":{"ID":296386,"DIS_CODE":0,"TOWNNAME":"東區","LI":"龍山里","LIN":"14鄰","STREET":"崇學路","SECT":" ","MAREA":" ","LANE":" ","ALLEY":" ","HOUSE_NO":"２６７號","E_COORD97":170564.57000000001,"N_COORD97":2542529.3500000001,"ADDRESS":"崇學路２６７號","OBJECTID":296378},"geometry":{"x":170564.57000000123,"y":2542529.3499999996}},{"attributes":{"ID":296387,"DIS_CODE":0,"TOWNNAME":"東區","LI":"龍山里","LIN":"14鄰","STREET":"崇學路","SECT":" ","MAREA":" ","LANE":" ","ALLEY":" ","HOUSE_NO":"２７１號之１","E_COORD97":170574.01999999999,"N_COORD97":2542538.04,"ADDRESS":"崇學路２７１號之１","OBJECTID":296379},"geometry":{"x":170574.01999999862,"y":2542538.0400000028}},{"attributes":{"ID":296388,"DIS_CODE":0,"TOWNNAME":"東區","LI":"龍山里","LIN":"14鄰","STREET":"崇學路","SECT":" ","MAREA":" ","LANE":" ","ALLEY":" ","HOUSE_NO":"２７１號之２","E_COORD97":170576.66,"N_COORD97":2542541.0600000001,"ADDRESS":"崇學路２７１號之２","OBJECTID":296380},"geometry":{"x":170576.66000000015,"y":2542541.0600000024}},{"attributes":{"ID":296389,"DIS_CODE":0,"TOWNNAME":"東區","LI":"龍山里","LIN":"14鄰","STREET":"崇學路","SECT":" ","MAREA":" ","LANE":" ","ALLEY":" ","HOUSE_NO":"２７１號之３","E_COORD97":170580.07000000001,"N_COORD97":2542545.21,"ADDRESS":"崇學路２７１號之３","OBJECTID":296381},"geometry":{"x":170580.07000000123,"y":2542545.2100000009}},{"attributes":{"ID":296390,"DIS_CODE":0,"TOWNNAME":"東區","LI":"龍山里","LIN":"14鄰","STREET":"崇學路","SECT":" ","MAREA":" ","LANE":" ","ALLEY":" ","HOUSE_NO":"２７１號之４","E_COORD97":170582.70999999999,"N_COORD97":2542547.8599999999,"ADDRESS":"崇學路２７１號之４","OBJECTID":296382},"geometry":{"x":170582.70999999996,"y":2542547.8600000013}},{"attributes":{"ID":296391,"DIS_CODE":0,"TOWNNAME":"新營區","LI":"民權里","LIN":"5鄰","STREET":"信義街","SECT":" ","MAREA":" ","LANE":"７２巷","ALLEY":" ","HOUSE_NO":"１０號十樓之５","E_COORD97":180002.34,"N_COORD97":2578521.8399999999,"ADDRESS":"信義街７２巷１０號十樓之５","OBJECTID":296383},"geometry":{"x":180002.33999999985,"y":2578521.8399999999}},{"attributes":{"ID":296392,"DIS_CODE":0,"TOWNNAME":"新營區","LI":"民生里","LIN":"26鄰","STREET":"民生路","SECT":" ","MAREA":" ","LANE":"１６３巷","ALLEY":" ","HOUSE_NO":"４７號四樓之１","E_COORD97":179111.82999999999,"N_COORD97":2578622.4199999999,"ADDRESS":"民生路１６３巷４７號四樓之１","OBJECTID":296384},"geometry":{"x":179111.83000000101,"y":2578622.4199999999}},{"attributes":{"ID":296393,"DIS_CODE":0,"TOWNNAME":"新營區","LI":"新南里","LIN":"25鄰","STREET":"復興路","SECT":" ","MAREA":" ","LANE":"６２０巷","ALLEY":" ","HOUSE_NO":"６６號二樓之７","E_COORD97":178065.07999999999,"N_COORD97":2578543.2999999998,"ADDRESS":"復興路６２０巷６６號二樓之７","OBJECTID":296385},"geometry":{"x":178065.08000000007,"y":2578543.3000000007}},{"attributes":{"ID":296394,"DIS_CODE":0,"TOWNNAME":"東區","LI":"龍山里","LIN":"14鄰","STREET":"崇學路","SECT":" ","MAREA":" ","LANE":" ","ALLEY":" ","HOUSE_NO":"２７１之５號","E_COORD97":170588.13,"N_COORD97":2542550.25,"ADDRESS":"崇學路２７１之５號","OBJECTID":296386},"geometry":{"x":170588.12999999989,"y":2542550.25}},{"attributes":{"ID":296395,"DIS_CODE":0,"TOWNNAME":"東區","LI":"龍山里","LIN":"14鄰","STREET":"德光街","SECT":" ","MAREA":" ","LANE":" ","ALLEY":" ","HOUSE_NO":"１９號","E_COORD97":170500.31,"N_COORD97":2542620.0899999999,"ADDRESS":"德光街１９號","OBJECTID":296387},"geometry":{"x":170500.30999999959,"y":2542620.0900000036}},{"attributes":{"ID":296396,"DIS_CODE":0,"TOWNNAME":"東區","LI":"龍山里","LIN":"14鄰","STREET":"德光街","SECT":" ","MAREA":" ","LANE":" ","ALLEY":" ","HOUSE_NO":"２１號","E_COORD97":170497.81,"N_COORD97":2542616.3500000001,"ADDRESS":"德光街２１號","OBJECTID":296388},"geometry":{"x":170497.81000000052,"y":2542616.3499999996}},{"attributes":{"ID":296397,"DIS_CODE":0,"TOWNNAME":"東區","LI":"龍山里","LIN":"14鄰","STREET":"德光街","SECT":" ","MAREA":" ","LANE":" ","ALLEY":" ","HOUSE_NO":"２３號","E_COORD97":170494.85000000001,"N_COORD97":2542612.2999999998,"ADDRESS":"德光街２３號","OBJECTID":296389},"geometry":{"x":170494.84999999963,"y":2542612.3000000007}},{"attributes":{"ID":296398,"DIS_CODE":0,"TOWNNAME":"南區","LI":"竹溪里","LIN":"4鄰","STREET":"體育路","SECT":" ","MAREA":" ","LANE":"４１巷","ALLEY":" ","HOUSE_NO":"３０號三樓","E_COORD97":168824.16,"N_COORD97":2542234.9300000002,"ADDRESS":"體育路４１巷３０號三樓","OBJECTID":296390},"geometry":{"x":168824.16000000015,"y":2542234.9300000016}},{"attributes":{"ID":296399,"DIS_CODE":0,"TOWNNAME":"南區","LI":"竹溪里","LIN":"4鄰","STREET":"體育路","SECT":" ","MAREA":" ","LANE":"４１巷","ALLEY":" ","HOUSE_NO":"３０號五樓","E_COORD97":168824.16,"N_COORD97":2542234.9300000002,"ADDRESS":"體育路４１巷３０號五樓","OBJECTID":296391},"geometry":{"x":168824.16000000015,"y":2542234.9300000016}},{"attributes":{"ID":296400,"DIS_CODE":0,"TOWNNAME":"南區","LI":"竹溪里","LIN":"4鄰","STREET":"體育路","SECT":" ","MAREA":" ","LANE":"４１巷","ALLEY":" ","HOUSE_NO":"３０號四樓","E_COORD97":168824.16,"N_COORD97":2542234.9300000002,"ADDRESS":"體育路４１巷３０號四樓","OBJECTID":296392},"geometry":{"x":168824.16000000015,"y":2542234.9300000016}},{"attributes":{"ID":296401,"DIS_CODE":0,"TOWNNAME":"南區","LI":"竹溪里","LIN":"4鄰","STREET":"體育路","SECT":" ","MAREA":" ","LANE":"４１巷","ALLEY":" ","HOUSE_NO":"３０號二樓","E_COORD97":168824.16,"N_COORD97":2542234.9300000002,"ADDRESS":"體育路４１巷３０號二樓","OBJECTID":296393},"geometry":{"x":168824.16000000015,"y":2542234.9300000016}},{"attributes":{"ID":296402,"DIS_CODE":0,"TOWNNAME":"南區","LI":"竹溪里","LIN":"4鄰","STREET":"體育路","SECT":" ","MAREA":" ","LANE":"４１巷","ALLEY":" ","HOUSE_NO":"３０號之１一樓","E_COORD97":168826.23999999999,"N_COORD97":2542234.9300000002,"ADDRESS":"體育路４１巷３０號之１一樓","OBJECTID":296394},"geometry":{"x":168826.24000000115,"y":2542234.9300000016}},{"attributes":{"ID":296403,"DIS_CODE":0,"TOWNNAME":"歸仁區","LI":"大廟里","LIN":"17鄰","STREET":"大廟五街","SECT":" ","MAREA":" ","LANE":"１３１巷","ALLEY":" ","HOUSE_NO":"１２之１號","E_COORD97":176053.79999999999,"N_COORD97":2544518.3300000001,"ADDRESS":"大廟五街１３１巷１２之１號","OBJECTID":296395},"geometry":{"x":176053.80000000075,"y":2544518.3300000019}},{"attributes":{"ID":296404,"DIS_CODE":0,"TOWNNAME":"歸仁區","LI":"大廟里","LIN":"17鄰","STREET":"大廟五街","SECT":" ","MAREA":" ","LANE":"１３１巷","ALLEY":" ","HOUSE_NO":"２４號","E_COORD97":176011.54999999999,"N_COORD97":2544523.3599999999,"ADDRESS":"大廟五街１３１巷２４號","OBJECTID":296396},"geometry":{"x":176011.54999999981,"y":2544523.3600000013}},{"attributes":{"ID":296405,"DIS_CODE":0,"TOWNNAME":"歸仁區","LI":"大廟里","LIN":"17鄰","STREET":"大廟五街","SECT":" ","MAREA":" ","LANE":"１３１巷","ALLEY":" ","HOUSE_NO":"４３號","E_COORD97":175956.91,"N_COORD97":2544506.8500000001,"ADDRESS":"大廟五街１３１巷４３號","OBJECTID":296397},"geometry":{"x":175956.91000000015,"y":2544506.8500000015}},{"attributes":{"ID":296406,"DIS_CODE":0,"TOWNNAME":"新營區","LI":"延平里","LIN":"17鄰","STREET":"長春街","SECT":" ","MAREA":" ","LANE":"１３４巷","ALLEY":" ","HOUSE_NO":"２８號","E_COORD97":179507.16,"N_COORD97":2577882.5,"ADDRESS":"長春街１３４巷２８號","OBJECTID":296398},"geometry":{"x":179507.16000000015,"y":2577882.5}},{"attributes":{"ID":296407,"DIS_CODE":0,"TOWNNAME":"永康區","LI":"勝利里","LIN":"17鄰","STREET":"中華一路","SECT":" ","MAREA":" ","LANE":"２８３巷","ALLEY":" ","HOUSE_NO":"２４號","E_COORD97":171256.51999999999,"N_COORD97":2544935.9399999999,"ADDRESS":"中華一路２８３巷２４號","OBJECTID":296399},"geometry":{"x":171256.51999999955,"y":2544935.9399999976}},{"attributes":{"ID":296408,"DIS_CODE":0,"TOWNNAME":"東區","LI":"路東里","LIN":"17鄰","STREET":"大同路","SECT":"二段","MAREA":" ","LANE":"６１巷","ALLEY":" ","HOUSE_NO":"１８２號","E_COORD97":169497.60999999999,"N_COORD97":2542342.23,"ADDRESS":"大同路二段６１巷１８２號","OBJECTID":296400},"geometry":{"x":169497.61000000034,"y":2542342.2300000023}}]}