{"displayFieldName":"TOWNNAME","fieldAliases":{"ID":"ID","DIS_CODE":"DIS_CODE","TOWNNAME":"TOWNNAME","LI":"LI","LIN":"LIN","STREET":"STREET","SECT":"SECT","MAREA":"MAREA","LANE":"LANE","ALLEY":"ALLEY","HOUSE_NO":"HOUSE_NO","E_COORD97":"E_COORD97","N_COORD97":"N_COORD97","ADDRESS":"ADDRESS","OBJECTID":"OBJECTID"},"geometryType":"esriGeometryPoint","spatialReference":{"wkid":102443,"latestWkid":3826},"fields":[{"name":"ID","type":"esriFieldTypeDouble","alias":"ID"},{"name":"DIS_CODE","type":"esriFieldTypeInteger","alias":"DIS_CODE"},{"name":"TOWNNAME","type":"esriFieldTypeString","alias":"TOWNNAME","length":8},{"name":"LI","type":"esriFieldTypeString","alias":"LI","length":8},{"name":"LIN","type":"esriFieldTypeString","alias":"LIN","length":12},{"name":"STREET","type":"esriFieldTypeString","alias":"STREET","length":20},{"name":"SECT","type":"esriFieldTypeString","alias":"SECT","length":8},{"name":"MAREA","type":"esriFieldTypeString","alias":"MAREA","length":12},{"name":"LANE","type":"esriFieldTypeString","alias":"LANE","length":10},{"name":"ALLEY","type":"esriFieldTypeString","alias":"ALLEY","length":10},{"name":"HOUSE_NO","type":"esriFieldTypeString","alias":"HOUSE_NO","length":20},{"name":"E_COORD97","type":"esriFieldTypeDouble","alias":"E_COORD97"},{"name":"N_COORD97","type":"esriFieldTypeDouble","alias":"N_COORD97"},{"name":"ADDRESS","type":"esriFieldTypeString","alias":"ADDRESS","length":50},{"name":"OBJECTID","type":"esriFieldTypeOID","alias":"OBJECTID"}],"features":[{"attributes":{"ID":192002,"DIS_CODE":0,"TOWNNAME":"鹽水區","LI":"南港里","LIN":"9鄰","STREET":" ","SECT":" ","MAREA":"?頭港","LANE":" ","ALLEY":" ","HOUSE_NO":"１９５號之６","E_COORD97":173181.60999999999,"N_COORD97":2572640.48,"ADDRESS":"?頭港１９５號之６","OBJECTID":192001},"geometry":{"x":173181.6100000022,"y":2572640.4800000023}},{"attributes":{"ID":192003,"DIS_CODE":0,"TOWNNAME":"鹽水區","LI":"南港里","LIN":"9鄰","STREET":" ","SECT":" ","MAREA":"?頭港","LANE":" ","ALLEY":" ","HOUSE_NO":"１９５號","E_COORD97":173163.73999999999,"N_COORD97":2572681.1499999999,"ADDRESS":"?頭港１９５號","OBJECTID":192002},"geometry":{"x":173163.74000000115,"y":2572681.1500000004}},{"attributes":{"ID":192004,"DIS_CODE":0,"TOWNNAME":"鹽水區","LI":"南港里","LIN":"9鄰","STREET":" ","SECT":" ","MAREA":"?頭港","LANE":" ","ALLEY":" ","HOUSE_NO":"１９８號之１０","E_COORD97":173203.19,"N_COORD97":2572628.8199999998,"ADDRESS":"?頭港１９８號之１０","OBJECTID":192003},"geometry":{"x":173203.19000000227,"y":2572628.8200000003}},{"attributes":{"ID":192005,"DIS_CODE":0,"TOWNNAME":"鹽水區","LI":"南港里","LIN":"9鄰","STREET":" ","SECT":" ","MAREA":"?頭港","LANE":" ","ALLEY":" ","HOUSE_NO":"１９８號之１１","E_COORD97":173201.67000000001,"N_COORD97":2572633.52,"ADDRESS":"?頭港１９８號之１１","OBJECTID":192004},"geometry":{"x":173201.67000000086,"y":2572633.5199999996}},{"attributes":{"ID":192006,"DIS_CODE":0,"TOWNNAME":"鹽水區","LI":"南港里","LIN":"9鄰","STREET":" ","SECT":" ","MAREA":"?頭港","LANE":" ","ALLEY":" ","HOUSE_NO":"１９８號之１２","E_COORD97":173200.23999999999,"N_COORD97":2572637.77,"ADDRESS":"?頭港１９８號之１２","OBJECTID":192005},"geometry":{"x":173200.24000000022,"y":2572637.7700000014}},{"attributes":{"ID":192007,"DIS_CODE":0,"TOWNNAME":"鹽水區","LI":"南港里","LIN":"9鄰","STREET":" ","SECT":" ","MAREA":"?頭港","LANE":" ","ALLEY":" ","HOUSE_NO":"１９８之１３號","E_COORD97":173198.73999999999,"N_COORD97":2572642.3100000001,"ADDRESS":"?頭港１９８之１３號","OBJECTID":192006},"geometry":{"x":173198.74000000022,"y":2572642.3100000024}},{"attributes":{"ID":192008,"DIS_CODE":0,"TOWNNAME":"鹽水區","LI":"南港里","LIN":"9鄰","STREET":" ","SECT":" ","MAREA":"?頭港","LANE":" ","ALLEY":" ","HOUSE_NO":"１９８號之１４","E_COORD97":173197.47,"N_COORD97":2572646.8100000001,"ADDRESS":"?頭港１９８號之１４","OBJECTID":192007},"geometry":{"x":173197.47000000067,"y":2572646.8100000005}},{"attributes":{"ID":192009,"DIS_CODE":0,"TOWNNAME":"歸仁區","LI":"看西里","LIN":"21鄰","STREET":"成功九街","SECT":" ","MAREA":" ","LANE":" ","ALLEY":" ","HOUSE_NO":"１５１號","E_COORD97":178116.28,"N_COORD97":2539524.25,"ADDRESS":"成功九街１５１號","OBJECTID":192008},"geometry":{"x":178116.28000000026,"y":2539524.2500000019}},{"attributes":{"ID":192010,"DIS_CODE":0,"TOWNNAME":"歸仁區","LI":"許厝里","LIN":"21鄰","STREET":"仁愛北街","SECT":" ","MAREA":" ","LANE":" ","ALLEY":" ","HOUSE_NO":"３５號","E_COORD97":178251.42999999999,"N_COORD97":2540821.25,"ADDRESS":"仁愛北街３５號","OBJECTID":192009},"geometry":{"x":178251.43000000063,"y":2540821.25}},{"attributes":{"ID":192011,"DIS_CODE":0,"TOWNNAME":"鹽水區","LI":"南港里","LIN":"9鄰","STREET":" ","SECT":" ","MAREA":"?頭港","LANE":" ","ALLEY":" ","HOUSE_NO":"１９８之１５號","E_COORD97":173195.81,"N_COORD97":2572651.2400000002,"ADDRESS":"?頭港１９８之１５號","OBJECTID":192010},"geometry":{"x":173195.80999999959,"y":2572651.2400000039}},{"attributes":{"ID":192012,"DIS_CODE":0,"TOWNNAME":"歸仁區","LI":"崙頂里","LIN":"21鄰","STREET":"大成路","SECT":" ","MAREA":" ","LANE":" ","ALLEY":" ","HOUSE_NO":"２７２號","E_COORD97":177830.82000000001,"N_COORD97":2540066.25,"ADDRESS":"大成路２７２號","OBJECTID":192011},"geometry":{"x":177830.8200000003,"y":2540066.2500000037}},{"attributes":{"ID":192013,"DIS_CODE":0,"TOWNNAME":"歸仁區","LI":"辜厝里","LIN":"21鄰","STREET":"大順街","SECT":" ","MAREA":" ","LANE":" ","ALLEY":" ","HOUSE_NO":"１９號","E_COORD97":177449.07999999999,"N_COORD97":2540552.1499999999,"ADDRESS":"大順街１９號","OBJECTID":192012},"geometry":{"x":177449.08000000007,"y":2540552.1500000022}},{"attributes":{"ID":192014,"DIS_CODE":0,"TOWNNAME":"鹽水區","LI":"南港里","LIN":"9鄰","STREET":" ","SECT":" ","MAREA":"?頭港","LANE":" ","ALLEY":" ","HOUSE_NO":"１９８號之１５","E_COORD97":173195.81,"N_COORD97":2572651.2400000002,"ADDRESS":"?頭港１９８號之１５","OBJECTID":192013},"geometry":{"x":173195.80999999959,"y":2572651.2400000039}},{"attributes":{"ID":192015,"DIS_CODE":0,"TOWNNAME":"鹽水區","LI":"南港里","LIN":"9鄰","STREET":" ","SECT":" ","MAREA":"?頭港","LANE":" ","ALLEY":" ","HOUSE_NO":"１９８之１６號","E_COORD97":173191.26000000001,"N_COORD97":2572658.6600000001,"ADDRESS":"?頭港１９８之１６號","OBJECTID":192014},"geometry":{"x":173191.25999999978,"y":2572658.6600000039}},{"attributes":{"ID":192016,"DIS_CODE":0,"TOWNNAME":"鹽水區","LI":"南港里","LIN":"9鄰","STREET":" ","SECT":" ","MAREA":"?頭港","LANE":" ","ALLEY":" ","HOUSE_NO":"１９８之１７號","E_COORD97":173190.10999999999,"N_COORD97":2572664.7599999998,"ADDRESS":"?頭港１９８之１７號","OBJECTID":192015},"geometry":{"x":173190.1100000022,"y":2572664.7600000016}},{"attributes":{"ID":192017,"DIS_CODE":0,"TOWNNAME":"鹽水區","LI":"南港里","LIN":"9鄰","STREET":" ","SECT":" ","MAREA":"?頭港","LANE":" ","ALLEY":" ","HOUSE_NO":"１９８號之１","E_COORD97":173233.29000000001,"N_COORD97":2572535.4199999999,"ADDRESS":"?頭港１９８號之１","OBJECTID":192016},"geometry":{"x":173233.29000000097,"y":2572535.4200000018}},{"attributes":{"ID":192018,"DIS_CODE":0,"TOWNNAME":"安南區","LI":"溪心里","LIN":"5鄰","STREET":"本原街","SECT":"二段","MAREA":" ","LANE":"１０６巷","ALLEY":"２７弄","HOUSE_NO":"７３號","E_COORD97":166867.89000000001,"N_COORD97":2550986.3199999998,"ADDRESS":"本原街二段１０６巷２７弄７３號","OBJECTID":192017},"geometry":{"x":166867.8900000006,"y":2550986.320000004}},{"attributes":{"ID":192019,"DIS_CODE":0,"TOWNNAME":"歸仁區","LI":"許厝里","LIN":"21鄰","STREET":"仁愛六街","SECT":" ","MAREA":" ","LANE":" ","ALLEY":" ","HOUSE_NO":"１６號","E_COORD97":178261.94,"N_COORD97":2540786.5600000001,"ADDRESS":"仁愛六街１６號","OBJECTID":192018},"geometry":{"x":178261.94000000134,"y":2540786.5600000042}},{"attributes":{"ID":192020,"DIS_CODE":0,"TOWNNAME":"安南區","LI":"溪心里","LIN":"5鄰","STREET":"本原街","SECT":"二段","MAREA":" ","LANE":"１０６巷","ALLEY":"２７弄","HOUSE_NO":"７５號","E_COORD97":166867.10999999999,"N_COORD97":2551004.77,"ADDRESS":"本原街二段１０６巷２７弄７５號","OBJECTID":192019},"geometry":{"x":166867.11000000127,"y":2551004.7699999996}},{"attributes":{"ID":192021,"DIS_CODE":0,"TOWNNAME":"安南區","LI":"溪心里","LIN":"5鄰","STREET":"本原街","SECT":"二段","MAREA":" ","LANE":"１０６巷","ALLEY":"５９弄","HOUSE_NO":"５０號","E_COORD97":166960.38,"N_COORD97":2551004.3100000001,"ADDRESS":"本原街二段１０６巷５９弄５０號","OBJECTID":192020},"geometry":{"x":166960.38000000082,"y":2551004.3100000024}},{"attributes":{"ID":192022,"DIS_CODE":0,"TOWNNAME":"安南區","LI":"溪心里","LIN":"5鄰","STREET":"本原街","SECT":"二段","MAREA":" ","LANE":"１０６巷","ALLEY":"５９弄","HOUSE_NO":"５５號","E_COORD97":166925.06,"N_COORD97":2551030.3700000001,"ADDRESS":"本原街二段１０６巷５９弄５５號","OBJECTID":192021},"geometry":{"x":166925.05999999959,"y":2551030.370000001}},{"attributes":{"ID":192023,"DIS_CODE":0,"TOWNNAME":"安南區","LI":"溪心里","LIN":"5鄰","STREET":"本原街","SECT":"二段","MAREA":" ","LANE":"１０６巷","ALLEY":"５９弄","HOUSE_NO":"５７號","E_COORD97":166936.82999999999,"N_COORD97":2551033.8300000001,"ADDRESS":"本原街二段１０６巷５９弄５７號","OBJECTID":192022},"geometry":{"x":166936.83000000101,"y":2551033.8300000019}},{"attributes":{"ID":192024,"DIS_CODE":0,"TOWNNAME":"安南區","LI":"溪心里","LIN":"5鄰","STREET":"本原街","SECT":"二段","MAREA":" ","LANE":"１０６巷","ALLEY":"５９弄","HOUSE_NO":"６１號","E_COORD97":166949.76000000001,"N_COORD97":2551035.8999999999,"ADDRESS":"本原街二段１０６巷５９弄６１號","OBJECTID":192023},"geometry":{"x":166949.75999999978,"y":2551035.9000000004}},{"attributes":{"ID":192025,"DIS_CODE":0,"TOWNNAME":"安南區","LI":"溪心里","LIN":"5鄰","STREET":"本原街","SECT":"二段","MAREA":" ","LANE":"１０６巷","ALLEY":"５９弄","HOUSE_NO":"６５號","E_COORD97":166965.23000000001,"N_COORD97":2551034.98,"ADDRESS":"本原街二段１０６巷５９弄６５號","OBJECTID":192024},"geometry":{"x":166965.23000000138,"y":2551034.9800000004}},{"attributes":{"ID":192026,"DIS_CODE":0,"TOWNNAME":"安南區","LI":"溪心里","LIN":"5鄰","STREET":"本原街","SECT":"二段","MAREA":" ","LANE":"１０６巷","ALLEY":"５９弄","HOUSE_NO":"６號","E_COORD97":166912.85999999999,"N_COORD97":2550985.6800000002,"ADDRESS":"本原街二段１０６巷５９弄６號","OBJECTID":192025},"geometry":{"x":166912.86000000127,"y":2550985.6799999997}},{"attributes":{"ID":192027,"DIS_CODE":0,"TOWNNAME":"安南區","LI":"溪心里","LIN":"5鄰","STREET":"本原街","SECT":"二段","MAREA":" ","LANE":"１０６巷","ALLEY":"５９弄","HOUSE_NO":"８號","E_COORD97":166901.48999999999,"N_COORD97":2550982.3599999999,"ADDRESS":"本原街二段１０６巷５９弄８號","OBJECTID":192026},"geometry":{"x":166901.49000000209,"y":2550982.3600000013}},{"attributes":{"ID":192028,"DIS_CODE":0,"TOWNNAME":"安南區","LI":"州南里","LIN":"5鄰","STREET":"安和路","SECT":"四段","MAREA":" ","LANE":"５３７巷","ALLEY":"７３弄","HOUSE_NO":"１５號","E_COORD97":169765.89000000001,"N_COORD97":2551417.8700000001,"ADDRESS":"安和路四段５３７巷７３弄１５號","OBJECTID":192027},"geometry":{"x":169765.88999999966,"y":2551417.8700000029}},{"attributes":{"ID":192029,"DIS_CODE":0,"TOWNNAME":"安南區","LI":"州南里","LIN":"5鄰","STREET":"安和路","SECT":"四段","MAREA":" ","LANE":"５３７巷","ALLEY":"７３弄","HOUSE_NO":"１７號","E_COORD97":169763.81,"N_COORD97":2551423.54,"ADDRESS":"安和路四段５３７巷７３弄１７號","OBJECTID":192028},"geometry":{"x":169763.81000000052,"y":2551423.5399999991}},{"attributes":{"ID":192030,"DIS_CODE":0,"TOWNNAME":"安南區","LI":"州南里","LIN":"5鄰","STREET":"安和路","SECT":"四段","MAREA":" ","LANE":"５３７巷","ALLEY":"７３弄","HOUSE_NO":"１９號","E_COORD97":169760.78,"N_COORD97":2551426.9500000002,"ADDRESS":"安和路四段５３７巷７３弄１９號","OBJECTID":192029},"geometry":{"x":169760.78000000026,"y":2551426.9499999993}},{"attributes":{"ID":192031,"DIS_CODE":0,"TOWNNAME":"安南區","LI":"州南里","LIN":"5鄰","STREET":"安和路","SECT":"四段","MAREA":" ","LANE":"５３７巷","ALLEY":"７３弄","HOUSE_NO":"２１號","E_COORD97":169758.32000000001,"N_COORD97":2551430.1600000001,"ADDRESS":"安和路四段５３７巷７３弄２１號","OBJECTID":192030},"geometry":{"x":169758.3200000003,"y":2551430.1600000001}},{"attributes":{"ID":192032,"DIS_CODE":0,"TOWNNAME":"安南區","LI":"州南里","LIN":"5鄰","STREET":"安和路","SECT":"四段","MAREA":" ","LANE":"５３７巷","ALLEY":"７３弄","HOUSE_NO":"２３號","E_COORD97":169756.04000000001,"N_COORD97":2551433.1899999999,"ADDRESS":"安和路四段５３７巷７３弄２３號","OBJECTID":192031},"geometry":{"x":169756.04000000097,"y":2551433.1899999995}},{"attributes":{"ID":192033,"DIS_CODE":0,"TOWNNAME":"安南區","LI":"州南里","LIN":"5鄰","STREET":"安和路","SECT":"四段","MAREA":" ","LANE":"５３７巷","ALLEY":"７３弄","HOUSE_NO":"２５號","E_COORD97":169752.45000000001,"N_COORD97":2551436.79,"ADDRESS":"安和路四段５３７巷７３弄２５號","OBJECTID":192032},"geometry":{"x":169752.45000000019,"y":2551436.790000001}},{"attributes":{"ID":192034,"DIS_CODE":0,"TOWNNAME":"安南區","LI":"州南里","LIN":"5鄰","STREET":"安和路","SECT":"四段","MAREA":" ","LANE":"５３７巷","ALLEY":"７３弄","HOUSE_NO":"１８號之１","E_COORD97":169775.66,"N_COORD97":2551443.25,"ADDRESS":"安和路四段５３７巷７３弄１８號之１","OBJECTID":192033},"geometry":{"x":169775.66000000108,"y":2551443.25}},{"attributes":{"ID":192035,"DIS_CODE":0,"TOWNNAME":"歸仁區","LI":"許厝里","LIN":"21鄰","STREET":"仁愛六街","SECT":" ","MAREA":" ","LANE":" ","ALLEY":" ","HOUSE_NO":"２８號","E_COORD97":178238.34,"N_COORD97":2540788.5600000001,"ADDRESS":"仁愛六街２８號","OBJECTID":192034},"geometry":{"x":178238.34000000078,"y":2540788.5600000005}},{"attributes":{"ID":192036,"DIS_CODE":0,"TOWNNAME":"鹽水區","LI":"南港里","LIN":"9鄰","STREET":" ","SECT":" ","MAREA":"?頭港","LANE":" ","ALLEY":" ","HOUSE_NO":"１９８之２６號","E_COORD97":173233.88,"N_COORD97":2572544.1600000001,"ADDRESS":"?頭港１９８之２６號","OBJECTID":192035},"geometry":{"x":173233.88000000082,"y":2572544.160000002}},{"attributes":{"ID":192037,"DIS_CODE":0,"TOWNNAME":"鹽水區","LI":"南港里","LIN":"9鄰","STREET":" ","SECT":" ","MAREA":"?頭港","LANE":" ","ALLEY":" ","HOUSE_NO":"１９８號之２","E_COORD97":173201.26000000001,"N_COORD97":2572560.1899999999,"ADDRESS":"?頭港１９８號之２","OBJECTID":192036},"geometry":{"x":173201.25999999978,"y":2572560.1900000013}},{"attributes":{"ID":192038,"DIS_CODE":0,"TOWNNAME":"鹽水區","LI":"南港里","LIN":"9鄰","STREET":" ","SECT":" ","MAREA":"?頭港","LANE":" ","ALLEY":" ","HOUSE_NO":"１９８號之３","E_COORD97":173212.23000000001,"N_COORD97":2572587.1200000001,"ADDRESS":"?頭港１９８號之３","OBJECTID":192037},"geometry":{"x":173212.23000000045,"y":2572587.120000001}},{"attributes":{"ID":192039,"DIS_CODE":0,"TOWNNAME":"南區","LI":"喜南里","LIN":"5鄰","STREET":"喜樹路","SECT":" ","MAREA":" ","LANE":"３０２巷","ALLEY":"１５弄","HOUSE_NO":"２號","E_COORD97":165662.73999999999,"N_COORD97":2537793.9700000002,"ADDRESS":"喜樹路３０２巷１５弄２號","OBJECTID":192038},"geometry":{"x":165662.74000000115,"y":2537793.9700000025}},{"attributes":{"ID":192040,"DIS_CODE":0,"TOWNNAME":"南區","LI":"喜南里","LIN":"5鄰","STREET":"喜樹路","SECT":" ","MAREA":" ","LANE":"３０２巷","ALLEY":"１５弄","HOUSE_NO":"６號","E_COORD97":165661.14999999999,"N_COORD97":2537783.8500000001,"ADDRESS":"喜樹路３０２巷１５弄６號","OBJECTID":192039},"geometry":{"x":165661.15000000037,"y":2537783.8500000015}},{"attributes":{"ID":192041,"DIS_CODE":0,"TOWNNAME":"南區","LI":"喜南里","LIN":"5鄰","STREET":"喜樹路","SECT":" ","MAREA":" ","LANE":"３０２巷","ALLEY":"２７弄","HOUSE_NO":"１號","E_COORD97":165613.45999999999,"N_COORD97":2537791.8300000001,"ADDRESS":"喜樹路３０２巷２７弄１號","OBJECTID":192040},"geometry":{"x":165613.46000000089,"y":2537791.8300000019}},{"attributes":{"ID":192042,"DIS_CODE":0,"TOWNNAME":"南區","LI":"喜南里","LIN":"5鄰","STREET":"喜樹路","SECT":" ","MAREA":" ","LANE":"３０２巷","ALLEY":"２７弄","HOUSE_NO":"５號","E_COORD97":165626.10000000001,"N_COORD97":2537777.0299999998,"ADDRESS":"喜樹路３０２巷２７弄５號","OBJECTID":192041},"geometry":{"x":165626.10000000056,"y":2537777.0299999993}},{"attributes":{"ID":192043,"DIS_CODE":0,"TOWNNAME":"永康區","LI":"埔園里","LIN":"5鄰","STREET":"中山路","SECT":" ","MAREA":" ","LANE":"１５８巷","ALLEY":"２４弄","HOUSE_NO":"５號","E_COORD97":173847.25,"N_COORD97":2547825.5299999998,"ADDRESS":"中山路１５８巷２４弄５號","OBJECTID":192042},"geometry":{"x":173847.25000000093,"y":2547825.5300000012}},{"attributes":{"ID":192044,"DIS_CODE":0,"TOWNNAME":"永康區","LI":"南灣里","LIN":"5鄰","STREET":"南興路","SECT":" ","MAREA":" ","LANE":"１１２巷","ALLEY":"４０弄","HOUSE_NO":"１２號","E_COORD97":174565.95000000001,"N_COORD97":2544488.04,"ADDRESS":"南興路１１２巷４０弄１２號","OBJECTID":192043},"geometry":{"x":174565.95000000112,"y":2544488.040000001}},{"attributes":{"ID":192045,"DIS_CODE":0,"TOWNNAME":"永康區","LI":"南灣里","LIN":"5鄰","STREET":"大灣路","SECT":" ","MAREA":" ","LANE":"５３７巷","ALLEY":"１５弄","HOUSE_NO":"２號之１","E_COORD97":174490.22,"N_COORD97":2544483.71,"ADDRESS":"大灣路５３７巷１５弄２號之１","OBJECTID":192044},"geometry":{"x":174490.21999999974,"y":2544483.7100000009}},{"attributes":{"ID":192046,"DIS_CODE":0,"TOWNNAME":"永康區","LI":"南灣里","LIN":"5鄰","STREET":"南興路","SECT":" ","MAREA":" ","LANE":"１１２巷","ALLEY":"４０弄","HOUSE_NO":"２１號","E_COORD97":174617.37,"N_COORD97":2544493.0600000001,"ADDRESS":"南興路１１２巷４０弄２１號","OBJECTID":192045},"geometry":{"x":174617.37000000104,"y":2544493.0600000024}},{"attributes":{"ID":192047,"DIS_CODE":0,"TOWNNAME":"永康區","LI":"埔園里","LIN":"5鄰","STREET":"中山路","SECT":" ","MAREA":" ","LANE":"１５８巷","ALLEY":"２４弄","HOUSE_NO":"６號","E_COORD97":173840.79000000001,"N_COORD97":2547819.2799999998,"ADDRESS":"中山路１５８巷２４弄６號","OBJECTID":192046},"geometry":{"x":173840.79000000004,"y":2547819.2800000012}},{"attributes":{"ID":192048,"DIS_CODE":0,"TOWNNAME":"安平區","LI":"平安里","LIN":"21鄰","STREET":"民權路","SECT":"四段","MAREA":" ","LANE":" ","ALLEY":" ","HOUSE_NO":"１４３號","E_COORD97":166189.29999999999,"N_COORD97":2544409.7200000002,"ADDRESS":"民權路四段１４３號","OBJECTID":192047},"geometry":{"x":166189.30000000075,"y":2544409.7199999988}},{"attributes":{"ID":192049,"DIS_CODE":0,"TOWNNAME":"安平區","LI":"文平里","LIN":"21鄰","STREET":"健康路","SECT":"三段","MAREA":" ","LANE":" ","ALLEY":" ","HOUSE_NO":"３６之２５號","E_COORD97":165816.64490099999,"N_COORD97":2542647.0361600001,"ADDRESS":"健康路三段３６之２５號","OBJECTID":192048},"geometry":{"x":165816.64490099996,"y":2542647.0361620001}},{"attributes":{"ID":192050,"DIS_CODE":0,"TOWNNAME":"安平區","LI":"文平里","LIN":"21鄰","STREET":"健康路","SECT":"三段","MAREA":" ","LANE":" ","ALLEY":" ","HOUSE_NO":"３６之２６號","E_COORD97":165812.61882800001,"N_COORD97":2542647.5653300001,"ADDRESS":"健康路三段３６之２６號","OBJECTID":192049},"geometry":{"x":165812.6188280005,"y":2542647.5653280001}},{"attributes":{"ID":192051,"DIS_CODE":0,"TOWNNAME":"安平區","LI":"平安里","LIN":"21鄰","STREET":"民權路","SECT":"四段","MAREA":" ","LANE":" ","ALLEY":" ","HOUSE_NO":"４５１號","E_COORD97":165280.45999999999,"N_COORD97":2544480.8999999999,"ADDRESS":"民權路四段４５１號","OBJECTID":192050},"geometry":{"x":165280.45999999996,"y":2544480.9000000022}},{"attributes":{"ID":192052,"DIS_CODE":0,"TOWNNAME":"安平區","LI":"平安里","LIN":"21鄰","STREET":"民權路","SECT":"四段","MAREA":" ","LANE":" ","ALLEY":" ","HOUSE_NO":"４５３號","E_COORD97":165275.53,"N_COORD97":2544481.21,"ADDRESS":"民權路四段４５３號","OBJECTID":192051},"geometry":{"x":165275.52999999933,"y":2544481.209999999}},{"attributes":{"ID":192053,"DIS_CODE":0,"TOWNNAME":"安平區","LI":"平安里","LIN":"21鄰","STREET":"民權路","SECT":"四段","MAREA":" ","LANE":" ","ALLEY":" ","HOUSE_NO":"４５５號","E_COORD97":165271.09,"N_COORD97":2544482.6400000001,"ADDRESS":"民權路四段４５５號","OBJECTID":192052},"geometry":{"x":165271.08999999985,"y":2544482.6400000025}},{"attributes":{"ID":192054,"DIS_CODE":0,"TOWNNAME":"安平區","LI":"平安里","LIN":"21鄰","STREET":"民權路","SECT":"四段","MAREA":" ","LANE":" ","ALLEY":" ","HOUSE_NO":"４５７號","E_COORD97":165266.42000000001,"N_COORD97":2544485.8399999999,"ADDRESS":"民權路四段４５７號","OBJECTID":192053},"geometry":{"x":165266.42000000086,"y":2544485.8399999999}},{"attributes":{"ID":192055,"DIS_CODE":0,"TOWNNAME":"安平區","LI":"平安里","LIN":"21鄰","STREET":"民權路","SECT":"四段","MAREA":" ","LANE":" ","ALLEY":" ","HOUSE_NO":"４５９號","E_COORD97":165263.06,"N_COORD97":2544486.7000000002,"ADDRESS":"民權路四段４５９號","OBJECTID":192054},"geometry":{"x":165263.06000000052,"y":2544486.700000003}},{"attributes":{"ID":192056,"DIS_CODE":0,"TOWNNAME":"安平區","LI":"平安里","LIN":"21鄰","STREET":"民權路","SECT":"四段","MAREA":" ","LANE":" ","ALLEY":" ","HOUSE_NO":"４６３號","E_COORD97":165253.94,"N_COORD97":2544489.79,"ADDRESS":"民權路四段４６３號","OBJECTID":192055},"geometry":{"x":165253.94000000041,"y":2544489.790000001}},{"attributes":{"ID":192057,"DIS_CODE":0,"TOWNNAME":"安平區","LI":"平安里","LIN":"21鄰","STREET":"民權路","SECT":"四段","MAREA":" ","LANE":" ","ALLEY":" ","HOUSE_NO":"４６１號","E_COORD97":165256.67999999999,"N_COORD97":2544489.23,"ADDRESS":"民權路四段４６１號","OBJECTID":192056},"geometry":{"x":165256.6799999997,"y":2544489.2300000023}},{"attributes":{"ID":192058,"DIS_CODE":0,"TOWNNAME":"仁德區","LI":"一甲里","LIN":"17鄰","STREET":"正義三街","SECT":" ","MAREA":" ","LANE":" ","ALLEY":" ","HOUSE_NO":"１５７號","E_COORD97":173891.76000000001,"N_COORD97":2541670.77,"ADDRESS":"正義三街１５７號","OBJECTID":192057},"geometry":{"x":173891.75999999885,"y":2541670.7699999996}},{"attributes":{"ID":192059,"DIS_CODE":0,"TOWNNAME":"仁德區","LI":"二行里","LIN":"20鄰","STREET":"行大街","SECT":" ","MAREA":" ","LANE":" ","ALLEY":" ","HOUSE_NO":"２３２號","E_COORD97":169826.13,"N_COORD97":2535123.5,"ADDRESS":"行大街２３２號","OBJECTID":192058},"geometry":{"x":169826.13000000175,"y":2535123.5}},{"attributes":{"ID":192060,"DIS_CODE":0,"TOWNNAME":"仁德區","LI":"一甲里","LIN":"20鄰","STREET":"太乙五街","SECT":" ","MAREA":" ","LANE":" ","ALLEY":" ","HOUSE_NO":"３５號","E_COORD97":173230.94,"N_COORD97":2542104.0099999998,"ADDRESS":"太乙五街３５號","OBJECTID":192059},"geometry":{"x":173230.94000000134,"y":2542104.0099999998}},{"attributes":{"ID":192061,"DIS_CODE":0,"TOWNNAME":"鹽水區","LI":"南港里","LIN":"9鄰","STREET":" ","SECT":" ","MAREA":"?頭港","LANE":" ","ALLEY":" ","HOUSE_NO":"１９８號之５","E_COORD97":173211.60999999999,"N_COORD97":2572598.8900000001,"ADDRESS":"?頭港１９８號之５","OBJECTID":192060},"geometry":{"x":173211.61000000034,"y":2572598.8900000006}},{"attributes":{"ID":192062,"DIS_CODE":0,"TOWNNAME":"鹽水區","LI":"南港里","LIN":"9鄰","STREET":" ","SECT":" ","MAREA":"?頭港","LANE":" ","ALLEY":" ","HOUSE_NO":"１９８之６號","E_COORD97":173211.07000000001,"N_COORD97":2572604.75,"ADDRESS":"?頭港１９８之６號","OBJECTID":192061},"geometry":{"x":173211.07000000123,"y":2572604.7500000019}},{"attributes":{"ID":192063,"DIS_CODE":0,"TOWNNAME":"鹽水區","LI":"南港里","LIN":"9鄰","STREET":" ","SECT":" ","MAREA":"?頭港","LANE":" ","ALLEY":" ","HOUSE_NO":"１９８號之７","E_COORD97":173209.79999999999,"N_COORD97":2572609.23,"ADDRESS":"?頭港１９８號之７","OBJECTID":192062},"geometry":{"x":173209.79999999981,"y":2572609.2300000004}},{"attributes":{"ID":192064,"DIS_CODE":0,"TOWNNAME":"鹽水區","LI":"南港里","LIN":"9鄰","STREET":" ","SECT":" ","MAREA":"?頭港","LANE":" ","ALLEY":" ","HOUSE_NO":"１９８之８號","E_COORD97":173205.17999999999,"N_COORD97":2572613.6800000002,"ADDRESS":"?頭港１９８之８號","OBJECTID":192063},"geometry":{"x":173205.1799999997,"y":2572613.6800000034}},{"attributes":{"ID":192065,"DIS_CODE":0,"TOWNNAME":"鹽水區","LI":"南港里","LIN":"9鄰","STREET":" ","SECT":" ","MAREA":"?頭港","LANE":" ","ALLEY":" ","HOUSE_NO":"１９８號之９","E_COORD97":173206.78,"N_COORD97":2572617.5299999998,"ADDRESS":"?頭港１９８號之９","OBJECTID":192064},"geometry":{"x":173206.78000000026,"y":2572617.5299999975}},{"attributes":{"ID":192066,"DIS_CODE":0,"TOWNNAME":"鹽水區","LI":"南港里","LIN":"9鄰","STREET":" ","SECT":" ","MAREA":"?頭港","LANE":" ","ALLEY":" ","HOUSE_NO":"１９８號","E_COORD97":173240.28,"N_COORD97":2572494.1600000001,"ADDRESS":"?頭港１９８號","OBJECTID":192065},"geometry":{"x":173240.28000000119,"y":2572494.1600000001}},{"attributes":{"ID":192067,"DIS_CODE":0,"TOWNNAME":"鹽水區","LI":"南港里","LIN":"9鄰","STREET":" ","SECT":" ","MAREA":"?頭港","LANE":" ","ALLEY":" ","HOUSE_NO":"１９９之１號","E_COORD97":173250.78,"N_COORD97":2572600.3700000001,"ADDRESS":"?頭港１９９之１號","OBJECTID":192066},"geometry":{"x":173250.78000000026,"y":2572600.3700000048}},{"attributes":{"ID":192068,"DIS_CODE":0,"TOWNNAME":"鹽水區","LI":"南港里","LIN":"9鄰","STREET":" ","SECT":" ","MAREA":"?頭港","LANE":" ","ALLEY":" ","HOUSE_NO":"１９９號之２","E_COORD97":173238.53,"N_COORD97":2572616.7400000002,"ADDRESS":"?頭港１９９號之２","OBJECTID":192067},"geometry":{"x":173238.53000000119,"y":2572616.7400000002}},{"attributes":{"ID":192069,"DIS_CODE":0,"TOWNNAME":"鹽水區","LI":"南港里","LIN":"9鄰","STREET":" ","SECT":" ","MAREA":"?頭港","LANE":" ","ALLEY":" ","HOUSE_NO":"１９９號","E_COORD97":173247.95999999999,"N_COORD97":2572619.0800000001,"ADDRESS":"?頭港１９９號","OBJECTID":192068},"geometry":{"x":173247.95999999996,"y":2572619.0800000019}},{"attributes":{"ID":192070,"DIS_CODE":0,"TOWNNAME":"鹽水區","LI":"南港里","LIN":"9鄰","STREET":" ","SECT":" ","MAREA":"?頭港","LANE":" ","ALLEY":" ","HOUSE_NO":"２００之１１號","E_COORD97":173340.48000000001,"N_COORD97":2572364.8199999998,"ADDRESS":"?頭港２００之１１號","OBJECTID":192069},"geometry":{"x":173340.48000000138,"y":2572364.8200000003}},{"attributes":{"ID":192071,"DIS_CODE":0,"TOWNNAME":"鹽水區","LI":"南港里","LIN":"9鄰","STREET":" ","SECT":" ","MAREA":"?頭港","LANE":" ","ALLEY":" ","HOUSE_NO":"２０１號之１０","E_COORD97":173342.94,"N_COORD97":2572597.7400000002,"ADDRESS":"?頭港２０１號之１０","OBJECTID":192070},"geometry":{"x":173342.94000000041,"y":2572597.7400000021}},{"attributes":{"ID":192072,"DIS_CODE":0,"TOWNNAME":"鹽水區","LI":"南港里","LIN":"9鄰","STREET":" ","SECT":" ","MAREA":"?頭港","LANE":" ","ALLEY":" ","HOUSE_NO":"２０１之１１號","E_COORD97":173336.51000000001,"N_COORD97":2572601.1800000002,"ADDRESS":"?頭港２０１之１１號","OBJECTID":192071},"geometry":{"x":173336.51000000071,"y":2572601.1800000016}},{"attributes":{"ID":192073,"DIS_CODE":0,"TOWNNAME":"安平區","LI":"平安里","LIN":"21鄰","STREET":"民權路","SECT":"四段","MAREA":" ","LANE":" ","ALLEY":" ","HOUSE_NO":"４６５號","E_COORD97":165248.23000000001,"N_COORD97":2544492.3300000001,"ADDRESS":"民權路四段４６５號","OBJECTID":192072},"geometry":{"x":165248.23000000045,"y":2544492.3300000001}},{"attributes":{"ID":192074,"DIS_CODE":0,"TOWNNAME":"永康區","LI":"南灣里","LIN":"5鄰","STREET":"南興路","SECT":" ","MAREA":" ","LANE":"１１２巷","ALLEY":"４０弄","HOUSE_NO":"１６號","E_COORD97":174568.70999999999,"N_COORD97":2544479.3100000001,"ADDRESS":"南興路１１２巷４０弄１６號","OBJECTID":192073},"geometry":{"x":174568.70999999903,"y":2544479.3100000005}},{"attributes":{"ID":192075,"DIS_CODE":0,"TOWNNAME":"鹽水區","LI":"南港里","LIN":"9鄰","STREET":" ","SECT":" ","MAREA":"?頭港","LANE":" ","ALLEY":" ","HOUSE_NO":"２０１號之１１","E_COORD97":173336.51000000001,"N_COORD97":2572601.1800000002,"ADDRESS":"?頭港２０１號之１１","OBJECTID":192074},"geometry":{"x":173336.51000000071,"y":2572601.1800000016}},{"attributes":{"ID":192076,"DIS_CODE":0,"TOWNNAME":"鹽水區","LI":"南港里","LIN":"9鄰","STREET":" ","SECT":" ","MAREA":"?頭港","LANE":" ","ALLEY":" ","HOUSE_NO":"２０１之１２號","E_COORD97":173332.13,"N_COORD97":2572601.48,"ADDRESS":"?頭港２０１之１２號","OBJECTID":192075},"geometry":{"x":173332.13000000082,"y":2572601.4800000004}},{"attributes":{"ID":192077,"DIS_CODE":0,"TOWNNAME":"永康區","LI":"南灣里","LIN":"5鄰","STREET":"大灣路","SECT":" ","MAREA":" ","LANE":"５３７巷","ALLEY":"１５弄","HOUSE_NO":"１４號","E_COORD97":174522.32999999999,"N_COORD97":2544489.9100000001,"ADDRESS":"大灣路５３７巷１５弄１４號","OBJECTID":192076},"geometry":{"x":174522.33000000194,"y":2544489.910000002}},{"attributes":{"ID":192078,"DIS_CODE":0,"TOWNNAME":"永康區","LI":"南灣里","LIN":"5鄰","STREET":"大灣路","SECT":" ","MAREA":" ","LANE":"５３７巷","ALLEY":"１５弄","HOUSE_NO":"２０號","E_COORD97":174535.66,"N_COORD97":2544493.1600000001,"ADDRESS":"大灣路５３７巷１５弄２０號","OBJECTID":192077},"geometry":{"x":174535.66000000108,"y":2544493.1600000001}},{"attributes":{"ID":192079,"DIS_CODE":0,"TOWNNAME":"安南區","LI":"淵東里","LIN":"5鄰","STREET":"本原街","SECT":"三段","MAREA":" ","LANE":"１３４巷","ALLEY":"１９弄","HOUSE_NO":"４７號","E_COORD97":165477.09,"N_COORD97":2550421.7200000002,"ADDRESS":"本原街三段１３４巷１９弄４７號","OBJECTID":192078},"geometry":{"x":165477.09000000078,"y":2550421.7200000025}},{"attributes":{"ID":192080,"DIS_CODE":0,"TOWNNAME":"鹽水區","LI":"南港里","LIN":"9鄰","STREET":" ","SECT":" ","MAREA":"?頭港","LANE":" ","ALLEY":" ","HOUSE_NO":"２０１號之１３","E_COORD97":173290.70000000001,"N_COORD97":2572634.7799999998,"ADDRESS":"?頭港２０１號之１３","OBJECTID":192079},"geometry":{"x":173290.70000000019,"y":2572634.7799999993}},{"attributes":{"ID":192081,"DIS_CODE":0,"TOWNNAME":"麻豆區","LI":"大埕里","LIN":"9鄰","STREET":" ","SECT":" ","MAREA":"大埕","LANE":" ","ALLEY":" ","HOUSE_NO":"５２號","E_COORD97":173067.85999999999,"N_COORD97":2565412.1600000001,"ADDRESS":"大埕５２號","OBJECTID":192080},"geometry":{"x":173067.8599999994,"y":2565412.1600000001}},{"attributes":{"ID":192082,"DIS_CODE":0,"TOWNNAME":"安南區","LI":"淵東里","LIN":"5鄰","STREET":"本原街","SECT":"三段","MAREA":" ","LANE":"２３４巷","ALLEY":"３４弄","HOUSE_NO":"３２號","E_COORD97":165459.94,"N_COORD97":2550403.9700000002,"ADDRESS":"本原街三段２３４巷３４弄３２號","OBJECTID":192081},"geometry":{"x":165459.94000000134,"y":2550403.9700000025}},{"attributes":{"ID":192083,"DIS_CODE":0,"TOWNNAME":"仁德區","LI":"仁德里","LIN":"5鄰","STREET":"仁德四街","SECT":" ","MAREA":" ","LANE":"１２巷","ALLEY":"１５弄","HOUSE_NO":"１６號","E_COORD97":173214.98999999999,"N_COORD97":2540889.79,"ADDRESS":"仁德四街１２巷１５弄１６號","OBJECTID":192082},"geometry":{"x":173214.99000000115,"y":2540889.790000001}},{"attributes":{"ID":192084,"DIS_CODE":0,"TOWNNAME":"鹽水區","LI":"南港里","LIN":"9鄰","STREET":" ","SECT":" ","MAREA":"?頭港","LANE":" ","ALLEY":" ","HOUSE_NO":"２０１號之１５","E_COORD97":173302.29999999999,"N_COORD97":2572654.0899999999,"ADDRESS":"?頭港２０１號之１５","OBJECTID":192083},"geometry":{"x":173302.30000000075,"y":2572654.0899999999}},{"attributes":{"ID":192085,"DIS_CODE":0,"TOWNNAME":"鹽水區","LI":"南港里","LIN":"9鄰","STREET":" ","SECT":" ","MAREA":"?頭港","LANE":" ","ALLEY":" ","HOUSE_NO":"２０１號之１６","E_COORD97":173303.66,"N_COORD97":2572659.23,"ADDRESS":"?頭港２０１號之１６","OBJECTID":192084},"geometry":{"x":173303.66000000108,"y":2572659.2300000023}},{"attributes":{"ID":192086,"DIS_CODE":0,"TOWNNAME":"仁德區","LI":"新田里","LIN":"5鄰","STREET":"勝利二街","SECT":" ","MAREA":" ","LANE":"１９巷","ALLEY":"１２弄","HOUSE_NO":"１３號","E_COORD97":174922.57000000001,"N_COORD97":2539278.2599999998,"ADDRESS":"勝利二街１９巷１２弄１３號","OBJECTID":192085},"geometry":{"x":174922.56999999937,"y":2539278.2599999998}},{"attributes":{"ID":192087,"DIS_CODE":0,"TOWNNAME":"仁德區","LI":"土庫里","LIN":"5鄰","STREET":"土庫三街","SECT":" ","MAREA":" ","LANE":"３９巷","ALLEY":"１３弄","HOUSE_NO":"１４號","E_COORD97":174152.5,"N_COORD97":2543165.4199999999,"ADDRESS":"土庫三街３９巷１３弄１４號","OBJECTID":192086},"geometry":{"x":174152.5,"y":2543165.4199999999}},{"attributes":{"ID":192088,"DIS_CODE":0,"TOWNNAME":"新營區","LI":"太北里","LIN":"21鄰","STREET":" ","SECT":" ","MAREA":"太子宮","LANE":" ","ALLEY":" ","HOUSE_NO":"１５２之２２號","E_COORD97":175308.71465499999,"N_COORD97":2577207.57473,"ADDRESS":"太子宮１５２之２２號","OBJECTID":192087},"geometry":{"x":175308.71465500072,"y":2577207.5747280009}},{"attributes":{"ID":192089,"DIS_CODE":0,"TOWNNAME":"新營區","LI":"太北里","LIN":"21鄰","STREET":" ","SECT":" ","MAREA":"太子宮","LANE":" ","ALLEY":" ","HOUSE_NO":"１５２之２７號","E_COORD97":175282.83997999999,"N_COORD97":2577237.9205200002,"ADDRESS":"太子宮１５２之２７號","OBJECTID":192088},"geometry":{"x":175282.8399799997,"y":2577237.9205210023}},{"attributes":{"ID":192090,"DIS_CODE":0,"TOWNNAME":"仁德區","LI":"土庫里","LIN":"5鄰","STREET":"土庫三街","SECT":" ","MAREA":" ","LANE":"３９巷","ALLEY":"１３弄","HOUSE_NO":"２號","E_COORD97":174213.42999999999,"N_COORD97":2543170.9900000002,"ADDRESS":"土庫三街３９巷１３弄２號","OBJECTID":192089},"geometry":{"x":174213.43000000063,"y":2543170.9900000021}},{"attributes":{"ID":192091,"DIS_CODE":0,"TOWNNAME":"安南區","LI":"淵東里","LIN":"5鄰","STREET":"本原街","SECT":"三段","MAREA":" ","LANE":"２３４巷","ALLEY":"３４弄","HOUSE_NO":"１１號","E_COORD97":165380.56,"N_COORD97":2550403.7000000002,"ADDRESS":"本原街三段２３４巷３４弄１１號","OBJECTID":192090},"geometry":{"x":165380.56000000052,"y":2550403.7000000011}},{"attributes":{"ID":192092,"DIS_CODE":0,"TOWNNAME":"安南區","LI":"淵東里","LIN":"5鄰","STREET":"本原街","SECT":"三段","MAREA":" ","LANE":"２３４巷","ALLEY":"３４弄","HOUSE_NO":"１５號","E_COORD97":165362.54000000001,"N_COORD97":2550422.6499999999,"ADDRESS":"本原街三段２３４巷３４弄１５號","OBJECTID":192091},"geometry":{"x":165362.54000000097,"y":2550422.6500000022}},{"attributes":{"ID":192093,"DIS_CODE":0,"TOWNNAME":"安南區","LI":"淵東里","LIN":"5鄰","STREET":"本原街","SECT":"三段","MAREA":" ","LANE":"２３４巷","ALLEY":"３４弄","HOUSE_NO":"１７號","E_COORD97":165374.12,"N_COORD97":2550425.8599999999,"ADDRESS":"本原街三段２３４巷３４弄１７號","OBJECTID":192092},"geometry":{"x":165374.12000000011,"y":2550425.8600000031}},{"attributes":{"ID":192094,"DIS_CODE":0,"TOWNNAME":"安南區","LI":"淵東里","LIN":"5鄰","STREET":"本原街","SECT":"三段","MAREA":" ","LANE":"２３４巷","ALLEY":"３４弄","HOUSE_NO":"２５號","E_COORD97":165402.75,"N_COORD97":2550412.52,"ADDRESS":"本原街三段２３４巷３４弄２５號","OBJECTID":192093},"geometry":{"x":165402.75000000186,"y":2550412.5200000014}},{"attributes":{"ID":192095,"DIS_CODE":0,"TOWNNAME":"安南區","LI":"淵東里","LIN":"5鄰","STREET":"本原街","SECT":"三段","MAREA":" ","LANE":"２３４巷","ALLEY":"３４弄","HOUSE_NO":"２９號","E_COORD97":165420.76000000001,"N_COORD97":2550419.1099999999,"ADDRESS":"本原街三段２３４巷３４弄２９號","OBJECTID":192094},"geometry":{"x":165420.75999999978,"y":2550419.1099999994}},{"attributes":{"ID":192096,"DIS_CODE":0,"TOWNNAME":"安南區","LI":"淵東里","LIN":"5鄰","STREET":"本原街","SECT":"三段","MAREA":" ","LANE":"２３４巷","ALLEY":"３４弄","HOUSE_NO":"３３號","E_COORD97":165395.73000000001,"N_COORD97":2550440.9700000002,"ADDRESS":"本原街三段２３４巷３４弄３３號","OBJECTID":192095},"geometry":{"x":165395.73000000045,"y":2550440.9700000025}},{"attributes":{"ID":192097,"DIS_CODE":0,"TOWNNAME":"官田區","LI":"官田里","LIN":"6鄰","STREET":" ","SECT":" ","MAREA":"官田","LANE":" ","ALLEY":" ","HOUSE_NO":"５０號","E_COORD97":182603.67000000001,"N_COORD97":2565087.6400000001,"ADDRESS":"官田５０號","OBJECTID":192096},"geometry":{"x":182603.66999999993,"y":2565087.6400000006}},{"attributes":{"ID":192098,"DIS_CODE":0,"TOWNNAME":"鹽水區","LI":"南港里","LIN":"9鄰","STREET":" ","SECT":" ","MAREA":"?頭港","LANE":" ","ALLEY":" ","HOUSE_NO":"２０１號之１７","E_COORD97":173304.45000000001,"N_COORD97":2572664.5299999998,"ADDRESS":"?頭港２０１號之１７","OBJECTID":192097},"geometry":{"x":173304.45000000205,"y":2572664.5299999993}},{"attributes":{"ID":192099,"DIS_CODE":0,"TOWNNAME":"鹽水區","LI":"南港里","LIN":"9鄰","STREET":" ","SECT":" ","MAREA":"?頭港","LANE":" ","ALLEY":" ","HOUSE_NO":"２０１之１８號","E_COORD97":173305.82000000001,"N_COORD97":2572669.75,"ADDRESS":"?頭港２０１之１８號","OBJECTID":192098},"geometry":{"x":173305.82000000123,"y":2572669.75}},{"attributes":{"ID":192100,"DIS_CODE":0,"TOWNNAME":"鹽水區","LI":"南港里","LIN":"9鄰","STREET":" ","SECT":" ","MAREA":"?頭港","LANE":" ","ALLEY":" ","HOUSE_NO":"２０１號之１９","E_COORD97":173307.22,"N_COORD97":2572674.8100000001,"ADDRESS":"?頭港２０１號之１９","OBJECTID":192099},"geometry":{"x":173307.2200000016,"y":2572674.8100000042}},{"attributes":{"ID":192101,"DIS_CODE":0,"TOWNNAME":"鹽水區","LI":"南港里","LIN":"9鄰","STREET":" ","SECT":" ","MAREA":"?頭港","LANE":" ","ALLEY":" ","HOUSE_NO":"２０１號之１","E_COORD97":173308.06,"N_COORD97":2572609.75,"ADDRESS":"?頭港２０１號之１","OBJECTID":192100},"geometry":{"x":173308.05999999959,"y":2572609.75}},{"attributes":{"ID":192102,"DIS_CODE":0,"TOWNNAME":"鹽水區","LI":"南港里","LIN":"9鄰","STREET":" ","SECT":" ","MAREA":"?頭港","LANE":" ","ALLEY":" ","HOUSE_NO":"２０１號之２０","E_COORD97":173309.32000000001,"N_COORD97":2572682.46,"ADDRESS":"?頭港２０１號之２０","OBJECTID":192101},"geometry":{"x":173309.32000000123,"y":2572682.4600000028}},{"attributes":{"ID":192103,"DIS_CODE":0,"TOWNNAME":"鹽水區","LI":"南港里","LIN":"9鄰","STREET":" ","SECT":" ","MAREA":"?頭港","LANE":" ","ALLEY":" ","HOUSE_NO":"２０１號之２１","E_COORD97":173310.56,"N_COORD97":2572687.1099999999,"ADDRESS":"?頭港２０１號之２１","OBJECTID":192102},"geometry":{"x":173310.56000000052,"y":2572687.1099999994}},{"attributes":{"ID":192104,"DIS_CODE":0,"TOWNNAME":"鹽水區","LI":"南港里","LIN":"9鄰","STREET":" ","SECT":" ","MAREA":"?頭港","LANE":" ","ALLEY":" ","HOUSE_NO":"２０１號之２２","E_COORD97":173311.84,"N_COORD97":2572691.4199999999,"ADDRESS":"?頭港２０１號之２２","OBJECTID":192103},"geometry":{"x":173311.84000000078,"y":2572691.4200000018}},{"attributes":{"ID":192105,"DIS_CODE":0,"TOWNNAME":"鹽水區","LI":"南港里","LIN":"9鄰","STREET":" ","SECT":" ","MAREA":"?頭港","LANE":" ","ALLEY":" ","HOUSE_NO":"２０１號之３１","E_COORD97":173316.98000000001,"N_COORD97":2572724.0299999998,"ADDRESS":"?頭港２０１號之３１","OBJECTID":192104},"geometry":{"x":173316.98000000138,"y":2572724.0300000012}},{"attributes":{"ID":192106,"DIS_CODE":0,"TOWNNAME":"鹽水區","LI":"南港里","LIN":"9鄰","STREET":" ","SECT":" ","MAREA":"?頭港","LANE":" ","ALLEY":" ","HOUSE_NO":"２０１之３５號","E_COORD97":173337.92000000001,"N_COORD97":2572690.52,"ADDRESS":"?頭港２０１之３５號","OBJECTID":192105},"geometry":{"x":173337.91999999993,"y":2572690.5200000014}},{"attributes":{"ID":192107,"DIS_CODE":0,"TOWNNAME":"鹽水區","LI":"南港里","LIN":"9鄰","STREET":" ","SECT":" ","MAREA":"?頭港","LANE":" ","ALLEY":" ","HOUSE_NO":"２０１之３６號","E_COORD97":173346.20000000001,"N_COORD97":2572688.3300000001,"ADDRESS":"?頭港２０１之３６號","OBJECTID":192106},"geometry":{"x":173346.20000000019,"y":2572688.3300000019}},{"attributes":{"ID":192108,"DIS_CODE":0,"TOWNNAME":"鹽水區","LI":"南港里","LIN":"9鄰","STREET":" ","SECT":" ","MAREA":"?頭港","LANE":" ","ALLEY":" ","HOUSE_NO":"２０１號之３","E_COORD97":173403.45000000001,"N_COORD97":2572585.5099999998,"ADDRESS":"?頭港２０１號之３","OBJECTID":192107},"geometry":{"x":173403.45000000112,"y":2572585.5100000016}},{"attributes":{"ID":192109,"DIS_CODE":0,"TOWNNAME":"鹽水區","LI":"南港里","LIN":"9鄰","STREET":" ","SECT":" ","MAREA":"?頭港","LANE":" ","ALLEY":" ","HOUSE_NO":"２０１之４０號","E_COORD97":173321.57999999999,"N_COORD97":2572635.5099999998,"ADDRESS":"?頭港２０１之４０號","OBJECTID":192108},"geometry":{"x":173321.58000000007,"y":2572635.5100000035}},{"attributes":{"ID":192110,"DIS_CODE":0,"TOWNNAME":"鹽水區","LI":"南港里","LIN":"9鄰","STREET":" ","SECT":" ","MAREA":"?頭港","LANE":" ","ALLEY":" ","HOUSE_NO":"２０１之４３號","E_COORD97":173351.32999999999,"N_COORD97":2572594.6099999999,"ADDRESS":"?頭港２０１之４３號","OBJECTID":192109},"geometry":{"x":173351.33000000101,"y":2572594.6100000013}},{"attributes":{"ID":192111,"DIS_CODE":0,"TOWNNAME":"安平區","LI":"文平里","LIN":"21鄰","STREET":"健康路","SECT":"三段","MAREA":" ","LANE":" ","ALLEY":" ","HOUSE_NO":"３６號","E_COORD97":165894.41167,"N_COORD97":2542637.7228299999,"ADDRESS":"健康路三段３６號","OBJECTID":192110},"geometry":{"x":165894.41167000122,"y":2542637.7228330001}},{"attributes":{"ID":192112,"DIS_CODE":0,"TOWNNAME":"鹽水區","LI":"南港里","LIN":"9鄰","STREET":" ","SECT":" ","MAREA":"?頭港","LANE":" ","ALLEY":" ","HOUSE_NO":"２０１號之４","E_COORD97":173414.34,"N_COORD97":2572682.2200000002,"ADDRESS":"?頭港２０１號之４","OBJECTID":192111},"geometry":{"x":173414.33999999985,"y":2572682.2200000044}},{"attributes":{"ID":192113,"DIS_CODE":0,"TOWNNAME":"鹽水區","LI":"南港里","LIN":"9鄰","STREET":" ","SECT":" ","MAREA":"?頭港","LANE":" ","ALLEY":" ","HOUSE_NO":"２０１之５號","E_COORD97":173399.34,"N_COORD97":2572686.5,"ADDRESS":"?頭港２０１之５號","OBJECTID":192112},"geometry":{"x":173399.33999999985,"y":2572686.5000000037}},{"attributes":{"ID":192114,"DIS_CODE":0,"TOWNNAME":"安平區","LI":"文平里","LIN":"21鄰","STREET":"健康一街","SECT":" ","MAREA":" ","LANE":" ","ALLEY":" ","HOUSE_NO":"１１號","E_COORD97":165913.39999999999,"N_COORD97":2542674.4500000002,"ADDRESS":"健康一街１１號","OBJECTID":192113},"geometry":{"x":165913.40000000037,"y":2542674.450000003}},{"attributes":{"ID":192115,"DIS_CODE":0,"TOWNNAME":"安南區","LI":"淵東里","LIN":"5鄰","STREET":"本原街","SECT":"三段","MAREA":" ","LANE":"２３４巷","ALLEY":"３４弄","HOUSE_NO":"３５號","E_COORD97":165411.25,"N_COORD97":2550442.4500000002,"ADDRESS":"本原街三段２３４巷３４弄３５號","OBJECTID":192114},"geometry":{"x":165411.25000000186,"y":2550442.4500000011}},{"attributes":{"ID":192116,"DIS_CODE":0,"TOWNNAME":"鹽水區","LI":"南港里","LIN":"9鄰","STREET":" ","SECT":" ","MAREA":"?頭港","LANE":" ","ALLEY":" ","HOUSE_NO":"２０１號之５","E_COORD97":173399.34,"N_COORD97":2572686.5,"ADDRESS":"?頭港２０１號之５","OBJECTID":192115},"geometry":{"x":173399.33999999985,"y":2572686.5000000037}},{"attributes":{"ID":192117,"DIS_CODE":0,"TOWNNAME":"鹽水區","LI":"南港里","LIN":"9鄰","STREET":" ","SECT":" ","MAREA":"?頭港","LANE":" ","ALLEY":" ","HOUSE_NO":"２０１號之６","E_COORD97":173386.94,"N_COORD97":2572690.4100000001,"ADDRESS":"?頭港２０１號之６","OBJECTID":192116},"geometry":{"x":173386.94000000134,"y":2572690.4099999983}},{"attributes":{"ID":192118,"DIS_CODE":0,"TOWNNAME":"安南區","LI":"淵東里","LIN":"5鄰","STREET":"本原街","SECT":"三段","MAREA":" ","LANE":"２３４巷","ALLEY":"３４弄","HOUSE_NO":"３７號","E_COORD97":165437.95000000001,"N_COORD97":2550446.1299999999,"ADDRESS":"本原街三段２３４巷３４弄３７號","OBJECTID":192117},"geometry":{"x":165437.95000000112,"y":2550446.129999999}},{"attributes":{"ID":192119,"DIS_CODE":0,"TOWNNAME":"安南區","LI":"淵東里","LIN":"5鄰","STREET":"本原街","SECT":"三段","MAREA":" ","LANE":"２３４巷","ALLEY":"３４弄","HOUSE_NO":"４１號","E_COORD97":165450.42000000001,"N_COORD97":2550445.3999999999,"ADDRESS":"本原街三段２３４巷３４弄４１號","OBJECTID":192118},"geometry":{"x":165450.41999999993,"y":2550445.4000000004}},{"attributes":{"ID":192120,"DIS_CODE":0,"TOWNNAME":"安南區","LI":"淵東里","LIN":"5鄰","STREET":"本原街","SECT":"三段","MAREA":" ","LANE":"２３４巷","ALLEY":"３４弄","HOUSE_NO":"７號","E_COORD97":165363.14000000001,"N_COORD97":2550397.1600000001,"ADDRESS":"本原街三段２３４巷３４弄７號","OBJECTID":192119},"geometry":{"x":165363.1400000006,"y":2550397.1600000039}},{"attributes":{"ID":192121,"DIS_CODE":0,"TOWNNAME":"南區","LI":"興農里","LIN":"5鄰","STREET":"灣裡路","SECT":" ","MAREA":" ","LANE":"２１１巷","ALLEY":"７０弄","HOUSE_NO":"９號","E_COORD97":166364.54000000001,"N_COORD97":2536533.7999999998,"ADDRESS":"灣裡路２１１巷７０弄９號","OBJECTID":192120},"geometry":{"x":166364.54000000004,"y":2536533.8000000045}},{"attributes":{"ID":192122,"DIS_CODE":0,"TOWNNAME":"仁德區","LI":"二行里","LIN":"5鄰","STREET":"二行一路","SECT":" ","MAREA":" ","LANE":"７１巷","ALLEY":"１７弄","HOUSE_NO":"６號","E_COORD97":170323.01999999999,"N_COORD97":2535291.2400000002,"ADDRESS":"二行一路７１巷１７弄６號","OBJECTID":192121},"geometry":{"x":170323.01999999955,"y":2535291.2400000002}},{"attributes":{"ID":192123,"DIS_CODE":0,"TOWNNAME":"鹽水區","LI":"南港里","LIN":"9鄰","STREET":" ","SECT":" ","MAREA":"?頭港","LANE":" ","ALLEY":" ","HOUSE_NO":"２０１號之７","E_COORD97":173372.76999999999,"N_COORD97":2572694.29,"ADDRESS":"?頭港２０１號之７","OBJECTID":192122},"geometry":{"x":173372.76999999862,"y":2572694.290000001}},{"attributes":{"ID":192124,"DIS_CODE":0,"TOWNNAME":"南區","LI":"新興里","LIN":"21鄰","STREET":"新興路","SECT":" ","MAREA":" ","LANE":"２３０巷","ALLEY":" ","HOUSE_NO":"８號","E_COORD97":167242.35999999999,"N_COORD97":2541972.2599999998,"ADDRESS":"新興路２３０巷８號","OBJECTID":192123},"geometry":{"x":167242.36000000127,"y":2541972.2600000016}},{"attributes":{"ID":192125,"DIS_CODE":0,"TOWNNAME":"安平區","LI":"文平里","LIN":"21鄰","STREET":"健康一街","SECT":" ","MAREA":" ","LANE":" ","ALLEY":" ","HOUSE_NO":"１３號","E_COORD97":165913.23999999999,"N_COORD97":2542681.23,"ADDRESS":"健康一街１３號","OBJECTID":192124},"geometry":{"x":165913.24000000209,"y":2542681.2300000023}},{"attributes":{"ID":192126,"DIS_CODE":0,"TOWNNAME":"安平區","LI":"華平里","LIN":"21鄰","STREET":"永華八街","SECT":" ","MAREA":" ","LANE":" ","ALLEY":" ","HOUSE_NO":"１２５號","E_COORD97":165127.78,"N_COORD97":2543568.46,"ADDRESS":"永華八街１２５號","OBJECTID":192125},"geometry":{"x":165127.78000000026,"y":2543568.4600000028}},{"attributes":{"ID":192127,"DIS_CODE":0,"TOWNNAME":"鹽水區","LI":"南港里","LIN":"9鄰","STREET":" ","SECT":" ","MAREA":"?頭港","LANE":" ","ALLEY":" ","HOUSE_NO":"２０１之８號","E_COORD97":173358.57999999999,"N_COORD97":2572592.6600000001,"ADDRESS":"?頭港２０１之８號","OBJECTID":192126},"geometry":{"x":173358.58000000101,"y":2572592.6600000001}},{"attributes":{"ID":192128,"DIS_CODE":0,"TOWNNAME":"鹽水區","LI":"南港里","LIN":"9鄰","STREET":" ","SECT":" ","MAREA":"?頭港","LANE":" ","ALLEY":" ","HOUSE_NO":"２０１號之８","E_COORD97":173358.57999999999,"N_COORD97":2572592.6600000001,"ADDRESS":"?頭港２０１號之８","OBJECTID":192127},"geometry":{"x":173358.58000000101,"y":2572592.6600000001}},{"attributes":{"ID":192129,"DIS_CODE":0,"TOWNNAME":"鹽水區","LI":"南港里","LIN":"9鄰","STREET":" ","SECT":" ","MAREA":"?頭港","LANE":" ","ALLEY":" ","HOUSE_NO":"２０１號之９","E_COORD97":173331.89000000001,"N_COORD97":2572555.23,"ADDRESS":"?頭港２０１號之９","OBJECTID":192128},"geometry":{"x":173331.8900000006,"y":2572555.2300000004}},{"attributes":{"ID":192130,"DIS_CODE":0,"TOWNNAME":"鹽水區","LI":"南港里","LIN":"9鄰","STREET":" ","SECT":" ","MAREA":"?頭港","LANE":" ","ALLEY":" ","HOUSE_NO":"２０２之４號","E_COORD97":173192.38,"N_COORD97":2572729.21,"ADDRESS":"?頭港２０２之４號","OBJECTID":192129},"geometry":{"x":173192.37999999989,"y":2572729.2100000009}},{"attributes":{"ID":192131,"DIS_CODE":0,"TOWNNAME":"南區","LI":"興農里","LIN":"5鄰","STREET":"灣裡路","SECT":" ","MAREA":" ","LANE":"２１１巷","ALLEY":"７０弄","HOUSE_NO":"９號之１","E_COORD97":166358.87,"N_COORD97":2536530.9700000002,"ADDRESS":"灣裡路２１１巷７０弄９號之１","OBJECTID":192130},"geometry":{"x":166358.87000000104,"y":2536530.9700000007}},{"attributes":{"ID":192132,"DIS_CODE":0,"TOWNNAME":"鹽水區","LI":"南港里","LIN":"9鄰","STREET":" ","SECT":" ","MAREA":"?頭港","LANE":" ","ALLEY":" ","HOUSE_NO":"２０２之６號","E_COORD97":173259.29999999999,"N_COORD97":2572724.2999999998,"ADDRESS":"?頭港２０２之６號","OBJECTID":192131},"geometry":{"x":173259.30000000168,"y":2572724.3000000007}},{"attributes":{"ID":192133,"DIS_CODE":0,"TOWNNAME":"鹽水區","LI":"南港里","LIN":"9鄰","STREET":" ","SECT":" ","MAREA":"?頭港","LANE":" ","ALLEY":" ","HOUSE_NO":"２０２號之６","E_COORD97":173259.29999999999,"N_COORD97":2572724.2999999998,"ADDRESS":"?頭港２０２號之６","OBJECTID":192132},"geometry":{"x":173259.30000000168,"y":2572724.3000000007}},{"attributes":{"ID":192134,"DIS_CODE":0,"TOWNNAME":"鹽水區","LI":"河南里","LIN":"9鄰","STREET":" ","SECT":" ","MAREA":"?頭港","LANE":" ","ALLEY":" ","HOUSE_NO":"９０號","E_COORD97":172848.97573800001,"N_COORD97":2572643.65998,"ADDRESS":"?頭港９０號","OBJECTID":192133},"geometry":{"x":172848.97573800199,"y":2572643.659976}},{"attributes":{"ID":192135,"DIS_CODE":0,"TOWNNAME":"鹽水區","LI":"河南里","LIN":"9鄰","STREET":" ","SECT":" ","MAREA":"?頭港","LANE":" ","ALLEY":" ","HOUSE_NO":"９３號之１","E_COORD97":172851.70000000001,"N_COORD97":2572601.8399999999,"ADDRESS":"?頭港９３號之１","OBJECTID":192134},"geometry":{"x":172851.70000000019,"y":2572601.8399999999}},{"attributes":{"ID":192136,"DIS_CODE":0,"TOWNNAME":"鹽水區","LI":"河南里","LIN":"9鄰","STREET":" ","SECT":" ","MAREA":"?頭港","LANE":" ","ALLEY":" ","HOUSE_NO":"９３號","E_COORD97":172862.10752200001,"N_COORD97":2572607.0416600001,"ADDRESS":"?頭港９３號","OBJECTID":192135},"geometry":{"x":172862.10752200149,"y":2572607.041662002}},{"attributes":{"ID":192137,"DIS_CODE":0,"TOWNNAME":"鹽水區","LI":"河南里","LIN":"9鄰","STREET":" ","SECT":" ","MAREA":"?頭港","LANE":" ","ALLEY":" ","HOUSE_NO":"９４號","E_COORD97":172880.10000000001,"N_COORD97":2572598.5099999998,"ADDRESS":"?頭港９４號","OBJECTID":192136},"geometry":{"x":172880.09999999963,"y":2572598.5100000016}},{"attributes":{"ID":192138,"DIS_CODE":0,"TOWNNAME":"鹽水區","LI":"河南里","LIN":"9鄰","STREET":" ","SECT":" ","MAREA":"?頭港","LANE":" ","ALLEY":" ","HOUSE_NO":"９５之１號","E_COORD97":172869.44,"N_COORD97":2572629.1099999999,"ADDRESS":"?頭港９５之１號","OBJECTID":192137},"geometry":{"x":172869.44000000134,"y":2572629.1100000013}},{"attributes":{"ID":192139,"DIS_CODE":0,"TOWNNAME":"鹽水區","LI":"河南里","LIN":"9鄰","STREET":" ","SECT":" ","MAREA":"?頭港","LANE":" ","ALLEY":" ","HOUSE_NO":"９５號","E_COORD97":172884.48999999999,"N_COORD97":2572610.3799999999,"ADDRESS":"?頭港９５號","OBJECTID":192138},"geometry":{"x":172884.49000000115,"y":2572610.379999999}},{"attributes":{"ID":192140,"DIS_CODE":0,"TOWNNAME":"鹽水區","LI":"河南里","LIN":"9鄰","STREET":" ","SECT":" ","MAREA":"?頭港","LANE":" ","ALLEY":" ","HOUSE_NO":"９６號","E_COORD97":172875.67999999999,"N_COORD97":2572646.6400000001,"ADDRESS":"?頭港９６號","OBJECTID":192139},"geometry":{"x":172875.68000000063,"y":2572646.6400000025}},{"attributes":{"ID":192141,"DIS_CODE":0,"TOWNNAME":"鹽水區","LI":"大豐里","LIN":"9鄰","STREET":" ","SECT":" ","MAREA":"大豐","LANE":" ","ALLEY":" ","HOUSE_NO":"８９之６號","E_COORD97":170503.23999999999,"N_COORD97":2574147.3500000001,"ADDRESS":"大豐８９之６號","OBJECTID":192140},"geometry":{"x":170503.24000000022,"y":2574147.3499999996}},{"attributes":{"ID":192142,"DIS_CODE":0,"TOWNNAME":"鹽水區","LI":"大豐里","LIN":"9鄰","STREET":" ","SECT":" ","MAREA":"大豐","LANE":" ","ALLEY":" ","HOUSE_NO":"８９之７號","E_COORD97":170559.92999999999,"N_COORD97":2574096.7799999998,"ADDRESS":"大豐８９之７號","OBJECTID":192141},"geometry":{"x":170559.93000000063,"y":2574096.7799999993}},{"attributes":{"ID":192143,"DIS_CODE":0,"TOWNNAME":"鹽水區","LI":"竹埔里","LIN":"9鄰","STREET":" ","SECT":" ","MAREA":"竹子腳","LANE":" ","ALLEY":" ","HOUSE_NO":"３３號","E_COORD97":172978.14999999999,"N_COORD97":2574402.9399999999,"ADDRESS":"竹子腳３３號","OBJECTID":192142},"geometry":{"x":172978.1500000013,"y":2574402.9400000013}},{"attributes":{"ID":192144,"DIS_CODE":0,"TOWNNAME":"鹽水區","LI":"竹埔里","LIN":"9鄰","STREET":" ","SECT":" ","MAREA":"竹子腳","LANE":" ","ALLEY":" ","HOUSE_NO":"３４號","E_COORD97":172949.56,"N_COORD97":2574389.2400000002,"ADDRESS":"竹子腳３４號","OBJECTID":192143},"geometry":{"x":172949.56000000052,"y":2574389.2400000002}},{"attributes":{"ID":192145,"DIS_CODE":0,"TOWNNAME":"鹽水區","LI":"竹埔里","LIN":"9鄰","STREET":" ","SECT":" ","MAREA":"竹子腳","LANE":" ","ALLEY":" ","HOUSE_NO":"３５號","E_COORD97":172954.95999999999,"N_COORD97":2574411.02,"ADDRESS":"竹子腳３５號","OBJECTID":192144},"geometry":{"x":172954.96000000183,"y":2574411.0199999996}},{"attributes":{"ID":192146,"DIS_CODE":0,"TOWNNAME":"鹽水區","LI":"竹埔里","LIN":"9鄰","STREET":" ","SECT":" ","MAREA":"竹子腳","LANE":" ","ALLEY":" ","HOUSE_NO":"３６號","E_COORD97":172935.45000000001,"N_COORD97":2574432.5699999998,"ADDRESS":"竹子腳３６號","OBJECTID":192145},"geometry":{"x":172935.45000000112,"y":2574432.570000004}},{"attributes":{"ID":192147,"DIS_CODE":0,"TOWNNAME":"鹽水區","LI":"竹埔里","LIN":"9鄰","STREET":" ","SECT":" ","MAREA":"竹子腳","LANE":" ","ALLEY":" ","HOUSE_NO":"３７號","E_COORD97":172959.39000000001,"N_COORD97":2574450.5899999999,"ADDRESS":"竹子腳３７號","OBJECTID":192146},"geometry":{"x":172959.38999999966,"y":2574450.5899999999}},{"attributes":{"ID":192148,"DIS_CODE":0,"TOWNNAME":"鹽水區","LI":"竹埔里","LIN":"9鄰","STREET":" ","SECT":" ","MAREA":"竹子腳","LANE":" ","ALLEY":" ","HOUSE_NO":"３９之１號","E_COORD97":172980.29999999999,"N_COORD97":2574429.6499999999,"ADDRESS":"竹子腳３９之１號","OBJECTID":192147},"geometry":{"x":172980.30000000075,"y":2574429.6500000022}},{"attributes":{"ID":192149,"DIS_CODE":0,"TOWNNAME":"麻豆區","LI":"大埕里","LIN":"9鄰","STREET":" ","SECT":" ","MAREA":"大埕","LANE":" ","ALLEY":" ","HOUSE_NO":"２６號","E_COORD97":173091.72,"N_COORD97":2565242.3900000001,"ADDRESS":"大埕２６號","OBJECTID":192148},"geometry":{"x":173091.71999999974,"y":2565242.3899999987}},{"attributes":{"ID":192150,"DIS_CODE":0,"TOWNNAME":"鹽水區","LI":"竹埔里","LIN":"9鄰","STREET":" ","SECT":" ","MAREA":"竹子腳","LANE":" ","ALLEY":" ","HOUSE_NO":"３９號之１","E_COORD97":172980.29999999999,"N_COORD97":2574429.6499999999,"ADDRESS":"竹子腳３９號之１","OBJECTID":192149},"geometry":{"x":172980.30000000075,"y":2574429.6500000022}},{"attributes":{"ID":192151,"DIS_CODE":0,"TOWNNAME":"鹽水區","LI":"竹埔里","LIN":"9鄰","STREET":" ","SECT":" ","MAREA":"竹子腳","LANE":" ","ALLEY":" ","HOUSE_NO":"３９之２號","E_COORD97":172980.51999999999,"N_COORD97":2574424.9199999999,"ADDRESS":"竹子腳３９之２號","OBJECTID":192150},"geometry":{"x":172980.51999999955,"y":2574424.9199999999}},{"attributes":{"ID":192152,"DIS_CODE":0,"TOWNNAME":"鹽水區","LI":"竹埔里","LIN":"9鄰","STREET":" ","SECT":" ","MAREA":"竹子腳","LANE":" ","ALLEY":" ","HOUSE_NO":"３９之３號","E_COORD97":172980.57000000001,"N_COORD97":2574420.46,"ADDRESS":"竹子腳３９之３號","OBJECTID":192151},"geometry":{"x":172980.57000000123,"y":2574420.4600000046}},{"attributes":{"ID":192153,"DIS_CODE":0,"TOWNNAME":"鹽水區","LI":"竹埔里","LIN":"9鄰","STREET":" ","SECT":" ","MAREA":"竹子腳","LANE":" ","ALLEY":" ","HOUSE_NO":"３９號","E_COORD97":172980.03,"N_COORD97":2574433.5,"ADDRESS":"竹子腳３９號","OBJECTID":192152},"geometry":{"x":172980.03000000026,"y":2574433.5000000019}},{"attributes":{"ID":192154,"DIS_CODE":0,"TOWNNAME":"鹽水區","LI":"竹埔里","LIN":"9鄰","STREET":" ","SECT":" ","MAREA":"竹子腳","LANE":" ","ALLEY":" ","HOUSE_NO":"４３號","E_COORD97":172940.60999999999,"N_COORD97":2574485.9300000002,"ADDRESS":"竹子腳４３號","OBJECTID":192153},"geometry":{"x":172940.61000000034,"y":2574485.9299999997}},{"attributes":{"ID":192155,"DIS_CODE":0,"TOWNNAME":"鹽水區","LI":"竹埔里","LIN":"9鄰","STREET":" ","SECT":" ","MAREA":"竹子腳","LANE":" ","ALLEY":" ","HOUSE_NO":"４４之１號","E_COORD97":172936.78,"N_COORD97":2574516.21,"ADDRESS":"竹子腳４４之１號","OBJECTID":192154},"geometry":{"x":172936.78000000119,"y":2574516.2100000009}},{"attributes":{"ID":192156,"DIS_CODE":0,"TOWNNAME":"仁德區","LI":"仁德里","LIN":"3鄰","STREET":"仁中七街","SECT":" ","MAREA":" ","LANE":" ","ALLEY":" ","HOUSE_NO":"２５號","E_COORD97":173202.12908799999,"N_COORD97":2540349.9593699998,"ADDRESS":"仁中七街２５號","OBJECTID":192155},"geometry":{"x":173202.12908800039,"y":2540349.9593660012}},{"attributes":{"ID":192157,"DIS_CODE":0,"TOWNNAME":"鹽水區","LI":"竹埔里","LIN":"9鄰","STREET":" ","SECT":" ","MAREA":"竹子腳","LANE":" ","ALLEY":" ","HOUSE_NO":"４５號","E_COORD97":172957.03,"N_COORD97":2574519.7599999998,"ADDRESS":"竹子腳４５號","OBJECTID":192156},"geometry":{"x":172957.03000000119,"y":2574519.7600000016}},{"attributes":{"ID":192158,"DIS_CODE":0,"TOWNNAME":"七股區","LI":"?埕里","LIN":"9鄰","STREET":" ","SECT":" ","MAREA":"?埕","LANE":" ","ALLEY":" ","HOUSE_NO":"１４２號","E_COORD97":156720.14999999999,"N_COORD97":2561423.8799999999,"ADDRESS":"?埕１４２號","OBJECTID":192157},"geometry":{"x":156720.15000000037,"y":2561423.8800000008}},{"attributes":{"ID":192159,"DIS_CODE":0,"TOWNNAME":"七股區","LI":"?埕里","LIN":"9鄰","STREET":" ","SECT":" ","MAREA":"?埕","LANE":" ","ALLEY":" ","HOUSE_NO":"１４３號","E_COORD97":156699.19,"N_COORD97":2561423.8399999999,"ADDRESS":"?埕１４３號","OBJECTID":192158},"geometry":{"x":156699.19000000134,"y":2561423.8399999999}},{"attributes":{"ID":192160,"DIS_CODE":0,"TOWNNAME":"七股區","LI":"?埕里","LIN":"9鄰","STREET":" ","SECT":" ","MAREA":"?埕","LANE":" ","ALLEY":" ","HOUSE_NO":"１４４號","E_COORD97":156720.19,"N_COORD97":2561419.7799999998,"ADDRESS":"?埕１４４號","OBJECTID":192159},"geometry":{"x":156720.19000000041,"y":2561419.7799999993}},{"attributes":{"ID":192161,"DIS_CODE":0,"TOWNNAME":"七股區","LI":"?埕里","LIN":"9鄰","STREET":" ","SECT":" ","MAREA":"?埕","LANE":" ","ALLEY":" ","HOUSE_NO":"１４５號","E_COORD97":156699.23000000001,"N_COORD97":2561419.7400000002,"ADDRESS":"?埕１４５號","OBJECTID":192160},"geometry":{"x":156699.23000000138,"y":2561419.7400000021}},{"attributes":{"ID":192162,"DIS_CODE":0,"TOWNNAME":"歸仁區","LI":"六甲里","LIN":"40鄰","STREET":"民生南街","SECT":"二段","MAREA":" ","LANE":" ","ALLEY":" ","HOUSE_NO":"７８８號","E_COORD97":176071.14999999999,"N_COORD97":2539363.29,"ADDRESS":"民生南街二段７８８號","OBJECTID":192161},"geometry":{"x":176071.15000000037,"y":2539363.290000001}},{"attributes":{"ID":192163,"DIS_CODE":0,"TOWNNAME":"歸仁區","LI":"歸仁里","LIN":"21鄰","STREET":"大仁街","SECT":" ","MAREA":" ","LANE":"１１３巷","ALLEY":" ","HOUSE_NO":"２３號","E_COORD97":178072.69,"N_COORD97":2541091.1099999999,"ADDRESS":"大仁街１１３巷２３號","OBJECTID":192162},"geometry":{"x":178072.69000000041,"y":2541091.1100000013}},{"attributes":{"ID":192164,"DIS_CODE":0,"TOWNNAME":"歸仁區","LI":"六甲里","LIN":"40鄰","STREET":"民生南街","SECT":"二段","MAREA":" ","LANE":" ","ALLEY":" ","HOUSE_NO":"７１６號","E_COORD97":176117.47,"N_COORD97":2539577.1099999999,"ADDRESS":"民生南街二段７１６號","OBJECTID":192163},"geometry":{"x":176117.46999999974,"y":2539577.1099999994}},{"attributes":{"ID":192165,"DIS_CODE":0,"TOWNNAME":"安南區","LI":"安順里","LIN":"15鄰","STREET":"安豐二街","SECT":" ","MAREA":" ","LANE":" ","ALLEY":" ","HOUSE_NO":"６２號","E_COORD97":169532.84,"N_COORD97":2549993.5699999998,"ADDRESS":"安豐二街６２號","OBJECTID":192164},"geometry":{"x":169532.83999999985,"y":2549993.5700000003}},{"attributes":{"ID":192166,"DIS_CODE":0,"TOWNNAME":"南區","LI":"興農里","LIN":"5鄰","STREET":"灣裡路","SECT":" ","MAREA":" ","LANE":"２１１巷","ALLEY":"７０弄","HOUSE_NO":"１１號","E_COORD97":166372.01000000001,"N_COORD97":2536517.27,"ADDRESS":"灣裡路２１１巷７０弄１１號","OBJECTID":192165},"geometry":{"x":166372.01000000164,"y":2536517.2700000014}},{"attributes":{"ID":192167,"DIS_CODE":0,"TOWNNAME":"南區","LI":"興農里","LIN":"5鄰","STREET":"灣裡路","SECT":" ","MAREA":" ","LANE":"２１１巷","ALLEY":"７０弄","HOUSE_NO":"１３號","E_COORD97":166373.29999999999,"N_COORD97":2536543.0699999998,"ADDRESS":"灣裡路２１１巷７０弄１３號","OBJECTID":192166},"geometry":{"x":166373.29999999981,"y":2536543.0700000022}},{"attributes":{"ID":192168,"DIS_CODE":0,"TOWNNAME":"南區","LI":"興農里","LIN":"5鄰","STREET":"灣裡路","SECT":" ","MAREA":" ","LANE":"２１１巷","ALLEY":"７０弄","HOUSE_NO":"１３號之１","E_COORD97":166383.10000000001,"N_COORD97":2536539.46,"ADDRESS":"灣裡路２１１巷７０弄１３號之１","OBJECTID":192167},"geometry":{"x":166383.10000000149,"y":2536539.4600000046}},{"attributes":{"ID":192169,"DIS_CODE":0,"TOWNNAME":"南區","LI":"興農里","LIN":"5鄰","STREET":"灣裡路","SECT":" ","MAREA":" ","LANE":"２１１巷","ALLEY":"７０弄","HOUSE_NO":"１６號","E_COORD97":166351.64999999999,"N_COORD97":2536527.8799999999,"ADDRESS":"灣裡路２１１巷７０弄１６號","OBJECTID":192168},"geometry":{"x":166351.6500000013,"y":2536527.8800000027}},{"attributes":{"ID":192170,"DIS_CODE":0,"TOWNNAME":"南區","LI":"興農里","LIN":"5鄰","STREET":"灣裡路","SECT":" ","MAREA":" ","LANE":"２１１巷","ALLEY":"７０弄","HOUSE_NO":"１８號","E_COORD97":166352.42000000001,"N_COORD97":2536523.2400000002,"ADDRESS":"灣裡路２１１巷７０弄１８號","OBJECTID":192169},"geometry":{"x":166352.42000000179,"y":2536523.2400000039}},{"attributes":{"ID":192171,"DIS_CODE":0,"TOWNNAME":"南區","LI":"興農里","LIN":"5鄰","STREET":"灣裡路","SECT":" ","MAREA":" ","LANE":"２１１巷","ALLEY":"７０弄","HOUSE_NO":"２２號","E_COORD97":166336.44,"N_COORD97":2536521.7000000002,"ADDRESS":"灣裡路２１１巷７０弄２２號","OBJECTID":192170},"geometry":{"x":166336.44000000134,"y":2536521.6999999993}},{"attributes":{"ID":192172,"DIS_CODE":0,"TOWNNAME":"南區","LI":"興農里","LIN":"5鄰","STREET":"灣裡路","SECT":" ","MAREA":" ","LANE":"２１１巷","ALLEY":"７０弄","HOUSE_NO":"２４號之１","E_COORD97":166333.79000000001,"N_COORD97":2536486.7200000002,"ADDRESS":"灣裡路２１１巷７０弄２４號之１","OBJECTID":192171},"geometry":{"x":166333.79000000097,"y":2536486.7200000044}},{"attributes":{"ID":192173,"DIS_CODE":0,"TOWNNAME":"南區","LI":"興農里","LIN":"5鄰","STREET":"灣裡路","SECT":" ","MAREA":" ","LANE":"２１１巷","ALLEY":"７０弄","HOUSE_NO":"２６號","E_COORD97":166348.69,"N_COORD97":2536502.8700000001,"ADDRESS":"灣裡路２１１巷７０弄２６號","OBJECTID":192172},"geometry":{"x":166348.69000000041,"y":2536502.8700000048}},{"attributes":{"ID":192174,"DIS_CODE":0,"TOWNNAME":"南區","LI":"興農里","LIN":"5鄰","STREET":"灣裡路","SECT":" ","MAREA":" ","LANE":"２１１巷","ALLEY":"７０弄","HOUSE_NO":"２８號","E_COORD97":166357.84,"N_COORD97":2536508.6000000001,"ADDRESS":"灣裡路２１１巷７０弄２８號","OBJECTID":192173},"geometry":{"x":166357.83999999985,"y":2536508.5999999996}},{"attributes":{"ID":192175,"DIS_CODE":0,"TOWNNAME":"南區","LI":"興農里","LIN":"5鄰","STREET":"灣裡路","SECT":" ","MAREA":" ","LANE":"２６３巷","ALLEY":"６１弄","HOUSE_NO":"２０號","E_COORD97":166311.75,"N_COORD97":2536505.4300000002,"ADDRESS":"灣裡路２６３巷６１弄２０號","OBJECTID":192174},"geometry":{"x":166311.75000000093,"y":2536505.4300000016}},{"attributes":{"ID":192176,"DIS_CODE":0,"TOWNNAME":"安南區","LI":"海東里","LIN":"21鄰","STREET":"海東二街","SECT":" ","MAREA":" ","LANE":" ","ALLEY":" ","HOUSE_NO":"４６號","E_COORD97":166917.93043199999,"N_COORD97":2547922.3313500001,"ADDRESS":"海東二街４６號","OBJECTID":192175},"geometry":{"x":166917.93043200113,"y":2547922.3313510027}},{"attributes":{"ID":192177,"DIS_CODE":0,"TOWNNAME":"中西區","LI":"萬昌里","LIN":"10鄰","STREET":"民權路","SECT":"一段","MAREA":" ","LANE":" ","ALLEY":" ","HOUSE_NO":"１９３號","E_COORD97":168776.42999999999,"N_COORD97":2543587.9500000002,"ADDRESS":"民權路一段１９３號","OBJECTID":192176},"geometry":{"x":168776.43000000063,"y":2543587.9500000011}},{"attributes":{"ID":192178,"DIS_CODE":0,"TOWNNAME":"中西區","LI":"萬昌里","LIN":"10鄰","STREET":"民權路","SECT":"一段","MAREA":" ","LANE":" ","ALLEY":" ","HOUSE_NO":"１９５號","E_COORD97":168778.63,"N_COORD97":2543594.46,"ADDRESS":"民權路一段１９５號","OBJECTID":192177},"geometry":{"x":168778.63000000175,"y":2543594.4600000009}},{"attributes":{"ID":192179,"DIS_CODE":0,"TOWNNAME":"中西區","LI":"萬昌里","LIN":"10鄰","STREET":"民權路","SECT":"一段","MAREA":" ","LANE":" ","ALLEY":" ","HOUSE_NO":"１９７號","E_COORD97":168773.78,"N_COORD97":2543595.8900000001,"ADDRESS":"民權路一段１９７號","OBJECTID":192178},"geometry":{"x":168773.78000000026,"y":2543595.8900000025}},{"attributes":{"ID":192180,"DIS_CODE":0,"TOWNNAME":"玉井區","LI":"玉田里","LIN":"21鄰","STREET":"中華路","SECT":" ","MAREA":" ","LANE":" ","ALLEY":" ","HOUSE_NO":"１９５號","E_COORD97":195130.26000000001,"N_COORD97":2557898.2400000002,"ADDRESS":"中華路１９５號","OBJECTID":192179},"geometry":{"x":195130.25999999978,"y":2557898.2400000002}},{"attributes":{"ID":192181,"DIS_CODE":0,"TOWNNAME":"玉井區","LI":"玉田里","LIN":"21鄰","STREET":"中華路","SECT":" ","MAREA":" ","LANE":" ","ALLEY":" ","HOUSE_NO":"２１９號","E_COORD97":195168.85000000001,"N_COORD97":2557863.2400000002,"ADDRESS":"中華路２１９號","OBJECTID":192180},"geometry":{"x":195168.84999999963,"y":2557863.2400000021}},{"attributes":{"ID":192182,"DIS_CODE":0,"TOWNNAME":"玉井區","LI":"玉田里","LIN":"21鄰","STREET":"中華路","SECT":" ","MAREA":" ","LANE":" ","ALLEY":" ","HOUSE_NO":"１８７號","E_COORD97":195126.76000000001,"N_COORD97":2557901.2400000002,"ADDRESS":"中華路１８７號","OBJECTID":192181},"geometry":{"x":195126.75999999978,"y":2557901.2400000021}},{"attributes":{"ID":192183,"DIS_CODE":0,"TOWNNAME":"玉井區","LI":"玉田里","LIN":"21鄰","STREET":"中華路","SECT":" ","MAREA":" ","LANE":" ","ALLEY":" ","HOUSE_NO":"１５３號","E_COORD97":195095.95999999999,"N_COORD97":2557928.25,"ADDRESS":"中華路１５３號","OBJECTID":192182},"geometry":{"x":195095.96000000183,"y":2557928.25}},{"attributes":{"ID":192184,"DIS_CODE":0,"TOWNNAME":"玉井區","LI":"玉田里","LIN":"21鄰","STREET":"中華路","SECT":" ","MAREA":" ","LANE":" ","ALLEY":" ","HOUSE_NO":"１６１號","E_COORD97":195108.35000000001,"N_COORD97":2557917.25,"ADDRESS":"中華路１６１號","OBJECTID":192183},"geometry":{"x":195108.35000000056,"y":2557917.2500000019}},{"attributes":{"ID":192185,"DIS_CODE":0,"TOWNNAME":"學甲區","LI":"慈福里","LIN":"21鄰","STREET":"成功路","SECT":" ","MAREA":" ","LANE":" ","ALLEY":" ","HOUSE_NO":"３０號","E_COORD97":166191.25,"N_COORD97":2570330.8399999999,"ADDRESS":"成功路３０號","OBJECTID":192184},"geometry":{"x":166191.25000000093,"y":2570330.8399999999}},{"attributes":{"ID":192186,"DIS_CODE":0,"TOWNNAME":"學甲區","LI":"慈福里","LIN":"21鄰","STREET":"成功路","SECT":" ","MAREA":" ","LANE":" ","ALLEY":" ","HOUSE_NO":"３２號之１","E_COORD97":166191.78,"N_COORD97":2570339.5600000001,"ADDRESS":"成功路３２號之１","OBJECTID":192185},"geometry":{"x":166191.78000000119,"y":2570339.5600000005}},{"attributes":{"ID":192187,"DIS_CODE":0,"TOWNNAME":"仁德區","LI":"上崙里","LIN":"25鄰","STREET":"上崙街","SECT":" ","MAREA":" ","LANE":" ","ALLEY":" ","HOUSE_NO":"３８６號","E_COORD97":173036.78,"N_COORD97":2537635.25,"ADDRESS":"上崙街３８６號","OBJECTID":192186},"geometry":{"x":173036.78000000119,"y":2537635.2500000037}},{"attributes":{"ID":192188,"DIS_CODE":0,"TOWNNAME":"仁德區","LI":"一甲里","LIN":"20鄰","STREET":"太乙三街","SECT":" ","MAREA":" ","LANE":" ","ALLEY":" ","HOUSE_NO":"９０號","E_COORD97":173288.89999999999,"N_COORD97":2542111.5,"ADDRESS":"太乙三街９０號","OBJECTID":192187},"geometry":{"x":173288.9000000013,"y":2542111.5}},{"attributes":{"ID":192189,"DIS_CODE":0,"TOWNNAME":"仁德區","LI":"二行里","LIN":"20鄰","STREET":"行大街","SECT":" ","MAREA":" ","LANE":" ","ALLEY":" ","HOUSE_NO":"２３６號","E_COORD97":169827.69,"N_COORD97":2535141,"ADDRESS":"行大街２３６號","OBJECTID":192188},"geometry":{"x":169827.69000000041,"y":2535141}},{"attributes":{"ID":192190,"DIS_CODE":0,"TOWNNAME":"仁德區","LI":"一甲里","LIN":"20鄰","STREET":"太乙三街","SECT":" ","MAREA":" ","LANE":" ","ALLEY":" ","HOUSE_NO":"８０號","E_COORD97":173302.94,"N_COORD97":2542186.2599999998,"ADDRESS":"太乙三街８０號","OBJECTID":192189},"geometry":{"x":173302.94000000041,"y":2542186.2600000016}},{"attributes":{"ID":192191,"DIS_CODE":0,"TOWNNAME":"七股區","LI":"?埕里","LIN":"9鄰","STREET":" ","SECT":" ","MAREA":"?埕","LANE":" ","ALLEY":" ","HOUSE_NO":"１４６號","E_COORD97":156720.23000000001,"N_COORD97":2561415.6800000002,"ADDRESS":"?埕１４６號","OBJECTID":192190},"geometry":{"x":156720.23000000045,"y":2561415.6800000016}},{"attributes":{"ID":192192,"DIS_CODE":0,"TOWNNAME":"七股區","LI":"?埕里","LIN":"9鄰","STREET":" ","SECT":" ","MAREA":"?埕","LANE":" ","ALLEY":" ","HOUSE_NO":"１４７號","E_COORD97":156699.26000000001,"N_COORD97":2561415.6400000001,"ADDRESS":"?埕１４７號","OBJECTID":192191},"geometry":{"x":156699.26000000164,"y":2561415.6400000006}},{"attributes":{"ID":192193,"DIS_CODE":0,"TOWNNAME":"七股區","LI":"?埕里","LIN":"9鄰","STREET":" ","SECT":" ","MAREA":"?埕","LANE":" ","ALLEY":" ","HOUSE_NO":"１４８號","E_COORD97":156720.26999999999,"N_COORD97":2561411.5699999998,"ADDRESS":"?埕１４８號","OBJECTID":192192},"geometry":{"x":156720.26999999955,"y":2561411.5700000022}},{"attributes":{"ID":192194,"DIS_CODE":0,"TOWNNAME":"七股區","LI":"?埕里","LIN":"9鄰","STREET":" ","SECT":" ","MAREA":"?埕","LANE":" ","ALLEY":" ","HOUSE_NO":"１４９號","E_COORD97":156699.29999999999,"N_COORD97":2561411.5299999998,"ADDRESS":"?埕１４９號","OBJECTID":192193},"geometry":{"x":156699.30000000075,"y":2561411.5299999993}},{"attributes":{"ID":192195,"DIS_CODE":0,"TOWNNAME":"七股區","LI":"?埕里","LIN":"9鄰","STREET":" ","SECT":" ","MAREA":"?埕","LANE":" ","ALLEY":" ","HOUSE_NO":"１５０號","E_COORD97":156720.35000000001,"N_COORD97":2561404.1400000001,"ADDRESS":"?埕１５０號","OBJECTID":192194},"geometry":{"x":156720.34999999963,"y":2561404.1400000025}},{"attributes":{"ID":192196,"DIS_CODE":0,"TOWNNAME":"七股區","LI":"?埕里","LIN":"9鄰","STREET":" ","SECT":" ","MAREA":"?埕","LANE":" ","ALLEY":" ","HOUSE_NO":"１５１號","E_COORD97":156699.29999999999,"N_COORD97":2561403.6099999999,"ADDRESS":"?埕１５１號","OBJECTID":192195},"geometry":{"x":156699.30000000075,"y":2561403.6100000013}},{"attributes":{"ID":192197,"DIS_CODE":0,"TOWNNAME":"七股區","LI":"?埕里","LIN":"9鄰","STREET":" ","SECT":" ","MAREA":"?埕","LANE":" ","ALLEY":" ","HOUSE_NO":"１５２號","E_COORD97":156720.35000000001,"N_COORD97":2561400.0299999998,"ADDRESS":"?埕１５２號","OBJECTID":192196},"geometry":{"x":156720.34999999963,"y":2561400.0300000012}},{"attributes":{"ID":192198,"DIS_CODE":0,"TOWNNAME":"七股區","LI":"?埕里","LIN":"9鄰","STREET":" ","SECT":" ","MAREA":"?埕","LANE":" ","ALLEY":" ","HOUSE_NO":"１５３號","E_COORD97":156699.29999999999,"N_COORD97":2561399.6200000001,"ADDRESS":"?埕１５３號","OBJECTID":192197},"geometry":{"x":156699.30000000075,"y":2561399.620000001}},{"attributes":{"ID":192199,"DIS_CODE":0,"TOWNNAME":"七股區","LI":"?埕里","LIN":"9鄰","STREET":" ","SECT":" ","MAREA":"?埕","LANE":" ","ALLEY":" ","HOUSE_NO":"１５４號","E_COORD97":156720.60000000001,"N_COORD97":2561395.6099999999,"ADDRESS":"?埕１５４號","OBJECTID":192198},"geometry":{"x":156720.60000000149,"y":2561395.6100000013}},{"attributes":{"ID":192200,"DIS_CODE":0,"TOWNNAME":"七股區","LI":"?埕里","LIN":"9鄰","STREET":" ","SECT":" ","MAREA":"?埕","LANE":" ","ALLEY":" ","HOUSE_NO":"１５５號","E_COORD97":156699.29999999999,"N_COORD97":2561395.6200000001,"ADDRESS":"?埕１５５號","OBJECTID":192199},"geometry":{"x":156699.30000000075,"y":2561395.620000001}},{"attributes":{"ID":192201,"DIS_CODE":0,"TOWNNAME":"學甲區","LI":"平和里","LIN":"21鄰","STREET":" ","SECT":" ","MAREA":"西平寮","LANE":" ","ALLEY":" ","HOUSE_NO":"１７號之２","E_COORD97":169277.10000000001,"N_COORD97":2573273.98,"ADDRESS":"西平寮１７號之２","OBJECTID":192200},"geometry":{"x":169277.10000000056,"y":2573273.9800000023}}]}