{"displayFieldName":"TOWNNAME","fieldAliases":{"ID":"ID","DIS_CODE":"DIS_CODE","TOWNNAME":"TOWNNAME","LI":"LI","LIN":"LIN","STREET":"STREET","SECT":"SECT","MAREA":"MAREA","LANE":"LANE","ALLEY":"ALLEY","HOUSE_NO":"HOUSE_NO","E_COORD97":"E_COORD97","N_COORD97":"N_COORD97","ADDRESS":"ADDRESS","OBJECTID":"OBJECTID"},"geometryType":"esriGeometryPoint","spatialReference":{"wkid":102443,"latestWkid":3826},"fields":[{"name":"ID","type":"esriFieldTypeDouble","alias":"ID"},{"name":"DIS_CODE","type":"esriFieldTypeInteger","alias":"DIS_CODE"},{"name":"TOWNNAME","type":"esriFieldTypeString","alias":"TOWNNAME","length":8},{"name":"LI","type":"esriFieldTypeString","alias":"LI","length":8},{"name":"LIN","type":"esriFieldTypeString","alias":"LIN","length":12},{"name":"STREET","type":"esriFieldTypeString","alias":"STREET","length":20},{"name":"SECT","type":"esriFieldTypeString","alias":"SECT","length":8},{"name":"MAREA","type":"esriFieldTypeString","alias":"MAREA","length":12},{"name":"LANE","type":"esriFieldTypeString","alias":"LANE","length":10},{"name":"ALLEY","type":"esriFieldTypeString","alias":"ALLEY","length":10},{"name":"HOUSE_NO","type":"esriFieldTypeString","alias":"HOUSE_NO","length":20},{"name":"E_COORD97","type":"esriFieldTypeDouble","alias":"E_COORD97"},{"name":"N_COORD97","type":"esriFieldTypeDouble","alias":"N_COORD97"},{"name":"ADDRESS","type":"esriFieldTypeString","alias":"ADDRESS","length":50},{"name":"OBJECTID","type":"esriFieldTypeOID","alias":"OBJECTID"}],"features":[{"attributes":{"ID":163002,"DIS_CODE":0,"TOWNNAME":"永康區","LI":"二王里","LIN":"4鄰","STREET":"二王路","SECT":" ","MAREA":" ","LANE":"４０巷","ALLEY":"３弄","HOUSE_NO":"３０號","E_COORD97":172947.98999999999,"N_COORD97":2546712.2000000002,"ADDRESS":"二王路４０巷３弄３０號","OBJECTID":163001},"geometry":{"x":172947.99000000022,"y":2546712.2000000011}},{"attributes":{"ID":163003,"DIS_CODE":0,"TOWNNAME":"永康區","LI":"二王里","LIN":"5鄰","STREET":"二王路","SECT":" ","MAREA":" ","LANE":"４０巷","ALLEY":"３弄","HOUSE_NO":"６６號","E_COORD97":172990.34,"N_COORD97":2546660.9100000001,"ADDRESS":"二王路４０巷３弄６６號","OBJECTID":163002},"geometry":{"x":172990.34000000078,"y":2546660.910000002}},{"attributes":{"ID":163004,"DIS_CODE":0,"TOWNNAME":"永康區","LI":"二王里","LIN":"20鄰","STREET":"中山南路","SECT":" ","MAREA":" ","LANE":"６４４巷","ALLEY":"２２弄","HOUSE_NO":"９號","E_COORD97":172364.17000000001,"N_COORD97":2546608.3500000001,"ADDRESS":"中山南路６４４巷２２弄９號","OBJECTID":163003},"geometry":{"x":172364.17000000086,"y":2546608.3500000034}},{"attributes":{"ID":163005,"DIS_CODE":0,"TOWNNAME":"永康區","LI":"二王里","LIN":"26鄰","STREET":"中山南路","SECT":" ","MAREA":" ","LANE":"５４４巷","ALLEY":"１２１弄","HOUSE_NO":"６號","E_COORD97":172350.48000000001,"N_COORD97":2546190.75,"ADDRESS":"中山南路５４４巷１２１弄６號","OBJECTID":163004},"geometry":{"x":172350.48000000138,"y":2546190.75}},{"attributes":{"ID":163006,"DIS_CODE":0,"TOWNNAME":"永康區","LI":"二王里","LIN":"25鄰","STREET":"中山南路","SECT":" ","MAREA":" ","LANE":"５４４巷","ALLEY":"１０３弄","HOUSE_NO":"７號","E_COORD97":172359.78,"N_COORD97":2546245.4199999999,"ADDRESS":"中山南路５４４巷１０３弄７號","OBJECTID":163005},"geometry":{"x":172359.78000000212,"y":2546245.4200000037}},{"attributes":{"ID":163007,"DIS_CODE":0,"TOWNNAME":"永康區","LI":"二王里","LIN":"26鄰","STREET":"中山南路","SECT":" ","MAREA":" ","LANE":"５４４巷","ALLEY":"９２弄","HOUSE_NO":"１７號","E_COORD97":172291.37,"N_COORD97":2546199.8599999999,"ADDRESS":"中山南路５４４巷９２弄１７號","OBJECTID":163006},"geometry":{"x":172291.37000000104,"y":2546199.8599999994}},{"attributes":{"ID":163008,"DIS_CODE":0,"TOWNNAME":"永康區","LI":"二王里","LIN":"25鄰","STREET":"中山南路","SECT":" ","MAREA":" ","LANE":"５４４巷","ALLEY":"６９弄","HOUSE_NO":"４號","E_COORD97":172357.79999999999,"N_COORD97":2546323.9100000001,"ADDRESS":"中山南路５４４巷６９弄４號","OBJECTID":163007},"geometry":{"x":172357.80000000075,"y":2546323.9100000039}},{"attributes":{"ID":163009,"DIS_CODE":0,"TOWNNAME":"永康區","LI":"二王里","LIN":"18鄰","STREET":"忠孝路","SECT":" ","MAREA":" ","LANE":"４６１巷","ALLEY":"２弄","HOUSE_NO":"１５號","E_COORD97":172438.98000000001,"N_COORD97":2546667.29,"ADDRESS":"忠孝路４６１巷２弄１５號","OBJECTID":163008},"geometry":{"x":172438.98000000138,"y":2546667.290000001}},{"attributes":{"ID":163010,"DIS_CODE":0,"TOWNNAME":"永康區","LI":"二王里","LIN":"20鄰","STREET":"中山南路","SECT":" ","MAREA":" ","LANE":"６４４巷","ALLEY":"２２弄","HOUSE_NO":"５號","E_COORD97":172373.14999999999,"N_COORD97":2546608.8500000001,"ADDRESS":"中山南路６４４巷２２弄５號","OBJECTID":163009},"geometry":{"x":172373.1500000013,"y":2546608.8500000015}},{"attributes":{"ID":163011,"DIS_CODE":0,"TOWNNAME":"永康區","LI":"大灣里","LIN":"20鄰","STREET":"大灣路","SECT":" ","MAREA":" ","LANE":"３５６巷","ALLEY":"１３弄","HOUSE_NO":"１７號","E_COORD97":174718.42000000001,"N_COORD97":2545105,"ADDRESS":"大灣路３５６巷１３弄１７號","OBJECTID":163010},"geometry":{"x":174718.42000000086,"y":2545105}},{"attributes":{"ID":163012,"DIS_CODE":0,"TOWNNAME":"永康區","LI":"西灣里","LIN":"50鄰","STREET":"大灣路","SECT":" ","MAREA":" ","LANE":"９４２巷","ALLEY":"６４１弄","HOUSE_NO":"８０號","E_COORD97":173695.48000000001,"N_COORD97":2545942.4900000002,"ADDRESS":"大灣路９４２巷６４１弄８０號","OBJECTID":163011},"geometry":{"x":173695.48000000045,"y":2545942.4900000002}},{"attributes":{"ID":163013,"DIS_CODE":0,"TOWNNAME":"永康區","LI":"永康里","LIN":"38鄰","STREET":"大同街","SECT":" ","MAREA":" ","LANE":"７１５巷","ALLEY":"２弄","HOUSE_NO":"１號","E_COORD97":174488.62,"N_COORD97":2546688.0699999998,"ADDRESS":"大同街７１５巷２弄１號","OBJECTID":163012},"geometry":{"x":174488.62000000104,"y":2546688.0700000003}},{"attributes":{"ID":163014,"DIS_CODE":0,"TOWNNAME":"永康區","LI":"龍潭里","LIN":"26鄰","STREET":"中山北路","SECT":" ","MAREA":" ","LANE":"４６１巷","ALLEY":"８弄","HOUSE_NO":"８２號","E_COORD97":175163.01000000001,"N_COORD97":2547863.96,"ADDRESS":"中山北路４６１巷８弄８２號","OBJECTID":163013},"geometry":{"x":175163.00999999978,"y":2547863.9600000028}},{"attributes":{"ID":163015,"DIS_CODE":0,"TOWNNAME":"永康區","LI":"西灣里","LIN":"46鄰","STREET":"永華路","SECT":" ","MAREA":" ","LANE":"２０１巷","ALLEY":"３２弄","HOUSE_NO":"５２號","E_COORD97":173995.26999999999,"N_COORD97":2545705.1099999999,"ADDRESS":"永華路２０１巷３２弄５２號","OBJECTID":163014},"geometry":{"x":173995.27000000048,"y":2545705.1100000013}},{"attributes":{"ID":163016,"DIS_CODE":0,"TOWNNAME":"白河區","LI":"永安里","LIN":"15鄰","STREET":"新興路","SECT":" ","MAREA":" ","LANE":" ","ALLEY":" ","HOUSE_NO":"５７５號","E_COORD97":190081.67999999999,"N_COORD97":2583605.2200000002,"ADDRESS":"新興路５７５號","OBJECTID":163015},"geometry":{"x":190081.68000000063,"y":2583605.2200000007}},{"attributes":{"ID":163017,"DIS_CODE":0,"TOWNNAME":"東山區","LI":"科里里","LIN":"18鄰","STREET":" ","SECT":" ","MAREA":"枋子林","LANE":" ","ALLEY":" ","HOUSE_NO":"３２號之１","E_COORD97":188273.95000000001,"N_COORD97":2576854.5299999998,"ADDRESS":"枋子林３２號之１","OBJECTID":163016},"geometry":{"x":188273.95000000019,"y":2576854.5299999993}},{"attributes":{"ID":163018,"DIS_CODE":0,"TOWNNAME":"東山區","LI":"科里里","LIN":"18鄰","STREET":" ","SECT":" ","MAREA":"枋子林","LANE":" ","ALLEY":" ","HOUSE_NO":"３２號","E_COORD97":188261.07000000001,"N_COORD97":2576867.3799999999,"ADDRESS":"枋子林３２號","OBJECTID":163017},"geometry":{"x":188261.07000000123,"y":2576867.3800000008}},{"attributes":{"ID":163019,"DIS_CODE":0,"TOWNNAME":"東山區","LI":"科里里","LIN":"18鄰","STREET":" ","SECT":" ","MAREA":"枋子林","LANE":" ","ALLEY":" ","HOUSE_NO":"３３號之１","E_COORD97":188284.64000000001,"N_COORD97":2576852.3799999999,"ADDRESS":"枋子林３３號之１","OBJECTID":163018},"geometry":{"x":188284.63999999873,"y":2576852.379999999}},{"attributes":{"ID":163020,"DIS_CODE":0,"TOWNNAME":"東山區","LI":"科里里","LIN":"18鄰","STREET":" ","SECT":" ","MAREA":"枋子林","LANE":" ","ALLEY":" ","HOUSE_NO":"３３號","E_COORD97":188292.85000000001,"N_COORD97":2576870.6400000001,"ADDRESS":"枋子林３３號","OBJECTID":163019},"geometry":{"x":188292.84999999963,"y":2576870.6400000025}},{"attributes":{"ID":163021,"DIS_CODE":0,"TOWNNAME":"東山區","LI":"科里里","LIN":"18鄰","STREET":" ","SECT":" ","MAREA":"枋子林","LANE":" ","ALLEY":" ","HOUSE_NO":"３５號之１","E_COORD97":188351.26000000001,"N_COORD97":2576905.7000000002,"ADDRESS":"枋子林３５號之１","OBJECTID":163020},"geometry":{"x":188351.25999999978,"y":2576905.7000000011}},{"attributes":{"ID":163022,"DIS_CODE":0,"TOWNNAME":"東山區","LI":"科里里","LIN":"18鄰","STREET":" ","SECT":" ","MAREA":"枋子林","LANE":" ","ALLEY":" ","HOUSE_NO":"３５號","E_COORD97":188307.26999999999,"N_COORD97":2576889.0699999998,"ADDRESS":"枋子林３５號","OBJECTID":163021},"geometry":{"x":188307.26999999955,"y":2576889.0700000003}},{"attributes":{"ID":163023,"DIS_CODE":0,"TOWNNAME":"東山區","LI":"東山里","LIN":"18鄰","STREET":" ","SECT":" ","MAREA":"東山","LANE":" ","ALLEY":" ","HOUSE_NO":"２７０號之１","E_COORD97":188891.26000000001,"N_COORD97":2580916.4900000002,"ADDRESS":"東山２７０號之１","OBJECTID":163022},"geometry":{"x":188891.26000000071,"y":2580916.4900000021}},{"attributes":{"ID":163024,"DIS_CODE":0,"TOWNNAME":"東山區","LI":"東山里","LIN":"18鄰","STREET":" ","SECT":" ","MAREA":"東山","LANE":" ","ALLEY":" ","HOUSE_NO":"２７０號之３","E_COORD97":188891.13,"N_COORD97":2580878.98,"ADDRESS":"東山２７０號之３","OBJECTID":163023},"geometry":{"x":188891.12999999989,"y":2580878.9800000023}},{"attributes":{"ID":163025,"DIS_CODE":0,"TOWNNAME":"東山區","LI":"東山里","LIN":"18鄰","STREET":" ","SECT":" ","MAREA":"東山","LANE":" ","ALLEY":" ","HOUSE_NO":"２７０號","E_COORD97":188886.60699100001,"N_COORD97":2580877.73734,"ADDRESS":"東山２７０號","OBJECTID":163024},"geometry":{"x":188886.6069910014,"y":2580877.737343004}},{"attributes":{"ID":163026,"DIS_CODE":0,"TOWNNAME":"東山區","LI":"東山里","LIN":"18鄰","STREET":" ","SECT":" ","MAREA":"東山","LANE":" ","ALLEY":" ","HOUSE_NO":"２７１號","E_COORD97":188948.01999999999,"N_COORD97":2580844.4399999999,"ADDRESS":"東山２７１號","OBJECTID":163025},"geometry":{"x":188948.01999999955,"y":2580844.4400000013}},{"attributes":{"ID":163027,"DIS_CODE":0,"TOWNNAME":"東山區","LI":"東山里","LIN":"18鄰","STREET":" ","SECT":" ","MAREA":"東山","LANE":" ","ALLEY":" ","HOUSE_NO":"２７２號之１","E_COORD97":188878.01999999999,"N_COORD97":2580829.4700000002,"ADDRESS":"東山２７２號之１","OBJECTID":163026},"geometry":{"x":188878.01999999955,"y":2580829.4700000007}},{"attributes":{"ID":163028,"DIS_CODE":0,"TOWNNAME":"東山區","LI":"東山里","LIN":"18鄰","STREET":" ","SECT":" ","MAREA":"東山","LANE":" ","ALLEY":" ","HOUSE_NO":"２７３號之２","E_COORD97":188966.85000000001,"N_COORD97":2580798.1800000002,"ADDRESS":"東山２７３號之２","OBJECTID":163027},"geometry":{"x":188966.85000000056,"y":2580798.1800000034}},{"attributes":{"ID":163029,"DIS_CODE":0,"TOWNNAME":"東山區","LI":"東山里","LIN":"18鄰","STREET":" ","SECT":" ","MAREA":"東山","LANE":" ","ALLEY":" ","HOUSE_NO":"２７３號之３","E_COORD97":189001.14000000001,"N_COORD97":2580887.0099999998,"ADDRESS":"東山２７３號之３","OBJECTID":163028},"geometry":{"x":189001.13999999966,"y":2580887.0099999998}},{"attributes":{"ID":163030,"DIS_CODE":0,"TOWNNAME":"東山區","LI":"東山里","LIN":"18鄰","STREET":" ","SECT":" ","MAREA":"東山","LANE":" ","ALLEY":" ","HOUSE_NO":"２７３號之４","E_COORD97":188963.60000000001,"N_COORD97":2580932.77,"ADDRESS":"東山２７３號之４","OBJECTID":163029},"geometry":{"x":188963.60000000056,"y":2580932.7699999977}},{"attributes":{"ID":163031,"DIS_CODE":0,"TOWNNAME":"永康區","LI":"尚頂里","LIN":"18鄰","STREET":"南台街","SECT":" ","MAREA":" ","LANE":"５４巷","ALLEY":"１８弄","HOUSE_NO":"２０號","E_COORD97":170385.04000000001,"N_COORD97":2547116.4900000002,"ADDRESS":"南台街５４巷１８弄２０號","OBJECTID":163030},"geometry":{"x":170385.04000000097,"y":2547116.4900000039}},{"attributes":{"ID":163032,"DIS_CODE":0,"TOWNNAME":"東山區","LI":"東山里","LIN":"18鄰","STREET":" ","SECT":" ","MAREA":"東山","LANE":" ","ALLEY":" ","HOUSE_NO":"２７３號","E_COORD97":188971.16,"N_COORD97":2580828.3999999999,"ADDRESS":"東山２７３號","OBJECTID":163031},"geometry":{"x":188971.16000000015,"y":2580828.4000000022}},{"attributes":{"ID":163033,"DIS_CODE":0,"TOWNNAME":"永康區","LI":"龍潭里","LIN":"38鄰","STREET":"中山北路","SECT":" ","MAREA":" ","LANE":"１６４巷","ALLEY":"７８弄","HOUSE_NO":"７號之５","E_COORD97":174455.44,"N_COORD97":2547336.7999999998,"ADDRESS":"中山北路１６４巷７８弄７號之５","OBJECTID":163032},"geometry":{"x":174455.44000000041,"y":2547336.8000000026}},{"attributes":{"ID":163034,"DIS_CODE":0,"TOWNNAME":"東山區","LI":"東山里","LIN":"18鄰","STREET":" ","SECT":" ","MAREA":"東山","LANE":" ","ALLEY":" ","HOUSE_NO":"２７４號","E_COORD97":188886.66,"N_COORD97":2580809.2200000002,"ADDRESS":"東山２７４號","OBJECTID":163033},"geometry":{"x":188886.66000000015,"y":2580809.2200000044}},{"attributes":{"ID":163035,"DIS_CODE":0,"TOWNNAME":"東山區","LI":"東山里","LIN":"18鄰","STREET":" ","SECT":" ","MAREA":"東山","LANE":" ","ALLEY":" ","HOUSE_NO":"２７５號","E_COORD97":188969.32000000001,"N_COORD97":2580762.1600000001,"ADDRESS":"東山２７５號","OBJECTID":163034},"geometry":{"x":188969.32000000123,"y":2580762.160000002}},{"attributes":{"ID":163036,"DIS_CODE":0,"TOWNNAME":"東山區","LI":"東山里","LIN":"18鄰","STREET":" ","SECT":" ","MAREA":"東山","LANE":" ","ALLEY":" ","HOUSE_NO":"２７６號之２","E_COORD97":188866.88,"N_COORD97":2580782.5600000001,"ADDRESS":"東山２７６號之２","OBJECTID":163035},"geometry":{"x":188866.88000000082,"y":2580782.5600000005}},{"attributes":{"ID":163037,"DIS_CODE":0,"TOWNNAME":"東山區","LI":"東山里","LIN":"18鄰","STREET":" ","SECT":" ","MAREA":"東山","LANE":" ","ALLEY":" ","HOUSE_NO":"２７６號","E_COORD97":188877.64000000001,"N_COORD97":2580762.9399999999,"ADDRESS":"東山２７６號","OBJECTID":163036},"geometry":{"x":188877.63999999966,"y":2580762.9400000013}},{"attributes":{"ID":163038,"DIS_CODE":0,"TOWNNAME":"東山區","LI":"東正里","LIN":"18鄰","STREET":" ","SECT":" ","MAREA":"東勢","LANE":" ","ALLEY":" ","HOUSE_NO":"１２１號之１","E_COORD97":189202.48000000001,"N_COORD97":2580391.3999999999,"ADDRESS":"東勢１２１號之１","OBJECTID":163037},"geometry":{"x":189202.48000000138,"y":2580391.4000000022}},{"attributes":{"ID":163039,"DIS_CODE":0,"TOWNNAME":"東山區","LI":"東正里","LIN":"18鄰","STREET":" ","SECT":" ","MAREA":"東勢","LANE":" ","ALLEY":" ","HOUSE_NO":"１２１號之３","E_COORD97":189202.70000000001,"N_COORD97":2580394.7599999998,"ADDRESS":"東勢１２１號之３","OBJECTID":163038},"geometry":{"x":189202.70000000112,"y":2580394.7600000016}},{"attributes":{"ID":163040,"DIS_CODE":0,"TOWNNAME":"東山區","LI":"東正里","LIN":"18鄰","STREET":" ","SECT":" ","MAREA":"東勢","LANE":" ","ALLEY":" ","HOUSE_NO":"１２１號之４","E_COORD97":189202.92000000001,"N_COORD97":2580398.1200000001,"ADDRESS":"東勢１２１號之４","OBJECTID":163039},"geometry":{"x":189202.91999999993,"y":2580398.1200000029}},{"attributes":{"ID":163041,"DIS_CODE":0,"TOWNNAME":"東山區","LI":"東正里","LIN":"18鄰","STREET":" ","SECT":" ","MAREA":"東勢","LANE":" ","ALLEY":" ","HOUSE_NO":"１２１號","E_COORD97":189217.95000000001,"N_COORD97":2580380.8300000001,"ADDRESS":"東勢１２１號","OBJECTID":163040},"geometry":{"x":189217.95000000112,"y":2580380.8300000019}},{"attributes":{"ID":163042,"DIS_CODE":0,"TOWNNAME":"東山區","LI":"東正里","LIN":"18鄰","STREET":" ","SECT":" ","MAREA":"東勢","LANE":" ","ALLEY":" ","HOUSE_NO":"１２２號之１","E_COORD97":189181.72,"N_COORD97":2580405.0800000001,"ADDRESS":"東勢１２２號之１","OBJECTID":163041},"geometry":{"x":189181.72000000067,"y":2580405.0800000001}},{"attributes":{"ID":163043,"DIS_CODE":0,"TOWNNAME":"東山區","LI":"東正里","LIN":"18鄰","STREET":" ","SECT":" ","MAREA":"東勢","LANE":" ","ALLEY":" ","HOUSE_NO":"１２２號之２","E_COORD97":189181.57999999999,"N_COORD97":2580400.3900000001,"ADDRESS":"東勢１２２號之２","OBJECTID":163042},"geometry":{"x":189181.58000000007,"y":2580400.3900000006}},{"attributes":{"ID":163044,"DIS_CODE":0,"TOWNNAME":"東山區","LI":"東正里","LIN":"18鄰","STREET":" ","SECT":" ","MAREA":"東勢","LANE":" ","ALLEY":" ","HOUSE_NO":"１２２號之３","E_COORD97":189181.39000000001,"N_COORD97":2580395.2200000002,"ADDRESS":"東勢１２２號之３","OBJECTID":163043},"geometry":{"x":189181.38999999873,"y":2580395.2199999988}},{"attributes":{"ID":163045,"DIS_CODE":0,"TOWNNAME":"東山區","LI":"東正里","LIN":"18鄰","STREET":" ","SECT":" ","MAREA":"東勢","LANE":" ","ALLEY":" ","HOUSE_NO":"１２２號","E_COORD97":189179.17999999999,"N_COORD97":2580411.3599999999,"ADDRESS":"東勢１２２號","OBJECTID":163044},"geometry":{"x":189179.1799999997,"y":2580411.3600000013}},{"attributes":{"ID":163046,"DIS_CODE":0,"TOWNNAME":"東山區","LI":"東正里","LIN":"18鄰","STREET":" ","SECT":" ","MAREA":"東勢","LANE":" ","ALLEY":" ","HOUSE_NO":"１２３號之１","E_COORD97":189210.01000000001,"N_COORD97":2580408.48,"ADDRESS":"東勢１２３號之１","OBJECTID":163045},"geometry":{"x":189210.01000000071,"y":2580408.4800000023}},{"attributes":{"ID":163047,"DIS_CODE":0,"TOWNNAME":"東山區","LI":"東正里","LIN":"18鄰","STREET":" ","SECT":" ","MAREA":"東勢","LANE":" ","ALLEY":" ","HOUSE_NO":"１２３號之２","E_COORD97":189205.51999999999,"N_COORD97":2580409.3799999999,"ADDRESS":"東勢１２３號之２","OBJECTID":163046},"geometry":{"x":189205.51999999955,"y":2580409.3800000027}},{"attributes":{"ID":163048,"DIS_CODE":0,"TOWNNAME":"東山區","LI":"東正里","LIN":"18鄰","STREET":" ","SECT":" ","MAREA":"東勢","LANE":" ","ALLEY":" ","HOUSE_NO":"１２３號之３","E_COORD97":189201.14000000001,"N_COORD97":2580409.7200000002,"ADDRESS":"東勢１２３號之３","OBJECTID":163047},"geometry":{"x":189201.13999999966,"y":2580409.7200000025}},{"attributes":{"ID":163049,"DIS_CODE":0,"TOWNNAME":"東山區","LI":"東正里","LIN":"18鄰","STREET":" ","SECT":" ","MAREA":"東勢","LANE":" ","ALLEY":" ","HOUSE_NO":"１２３號","E_COORD97":189225.92000000001,"N_COORD97":2580404.25,"ADDRESS":"東勢１２３號","OBJECTID":163048},"geometry":{"x":189225.92000000086,"y":2580404.25}},{"attributes":{"ID":163050,"DIS_CODE":0,"TOWNNAME":"東山區","LI":"東正里","LIN":"18鄰","STREET":" ","SECT":" ","MAREA":"東勢","LANE":" ","ALLEY":" ","HOUSE_NO":"１２４號","E_COORD97":189261.53,"N_COORD97":2580402.1800000002,"ADDRESS":"東勢１２４號","OBJECTID":163049},"geometry":{"x":189261.53000000119,"y":2580402.1800000016}},{"attributes":{"ID":163051,"DIS_CODE":0,"TOWNNAME":"東山區","LI":"東正里","LIN":"18鄰","STREET":" ","SECT":" ","MAREA":"東勢","LANE":" ","ALLEY":" ","HOUSE_NO":"１２５號","E_COORD97":189257.56,"N_COORD97":2580375.9199999999,"ADDRESS":"東勢１２５號","OBJECTID":163050},"geometry":{"x":189257.55999999959,"y":2580375.9199999999}},{"attributes":{"ID":163052,"DIS_CODE":0,"TOWNNAME":"東山區","LI":"青山里","LIN":"18鄰","STREET":" ","SECT":" ","MAREA":"青山","LANE":" ","ALLEY":" ","HOUSE_NO":"１１８號之１","E_COORD97":195198.95000000001,"N_COORD97":2574908.6200000001,"ADDRESS":"青山１１８號之１","OBJECTID":163051},"geometry":{"x":195198.95000000019,"y":2574908.6200000029}},{"attributes":{"ID":163053,"DIS_CODE":0,"TOWNNAME":"東山區","LI":"青山里","LIN":"18鄰","STREET":" ","SECT":" ","MAREA":"青山","LANE":" ","ALLEY":" ","HOUSE_NO":"１１８號之２","E_COORD97":195209.04000000001,"N_COORD97":2574921.29,"ADDRESS":"青山１１８號之２","OBJECTID":163052},"geometry":{"x":195209.0400000019,"y":2574921.2900000028}},{"attributes":{"ID":163054,"DIS_CODE":0,"TOWNNAME":"永康區","LI":"二王里","LIN":"38鄰","STREET":"中山南路","SECT":" ","MAREA":" ","LANE":"４９０巷","ALLEY":"１２弄","HOUSE_NO":"９５號","E_COORD97":172217.01000000001,"N_COORD97":2546264.77,"ADDRESS":"中山南路４９０巷１２弄９５號","OBJECTID":163053},"geometry":{"x":172217.01000000164,"y":2546264.7699999996}},{"attributes":{"ID":163055,"DIS_CODE":0,"TOWNNAME":"永康區","LI":"二王里","LIN":"18鄰","STREET":"忠孝路","SECT":" ","MAREA":" ","LANE":"４６１巷","ALLEY":"２弄","HOUSE_NO":"９號","E_COORD97":172438.23000000001,"N_COORD97":2546649.2999999998,"ADDRESS":"忠孝路４６１巷２弄９號","OBJECTID":163054},"geometry":{"x":172438.22999999952,"y":2546649.3000000007}},{"attributes":{"ID":163056,"DIS_CODE":0,"TOWNNAME":"永康區","LI":"二王里","LIN":"42鄰","STREET":"中山南路","SECT":" ","MAREA":" ","LANE":"３１６巷","ALLEY":"３２弄","HOUSE_NO":"２９號","E_COORD97":172065.19,"N_COORD97":2546050.4500000002,"ADDRESS":"中山南路３１６巷３２弄２９號","OBJECTID":163055},"geometry":{"x":172065.19000000041,"y":2546050.4499999993}},{"attributes":{"ID":163057,"DIS_CODE":0,"TOWNNAME":"永康區","LI":"二王里","LIN":"38鄰","STREET":"中山南路","SECT":" ","MAREA":" ","LANE":"４９０巷","ALLEY":"１２弄","HOUSE_NO":"６３號","E_COORD97":172232.76000000001,"N_COORD97":2546279.8399999999,"ADDRESS":"中山南路４９０巷１２弄６３號","OBJECTID":163056},"geometry":{"x":172232.76000000071,"y":2546279.8400000036}},{"attributes":{"ID":163058,"DIS_CODE":0,"TOWNNAME":"永康區","LI":"二王里","LIN":"46鄰","STREET":"南工街","SECT":" ","MAREA":" ","LANE":"２１２巷","ALLEY":"３弄","HOUSE_NO":"９號","E_COORD97":172066.32999999999,"N_COORD97":2546008.5699999998,"ADDRESS":"南工街２１２巷３弄９號","OBJECTID":163057},"geometry":{"x":172066.33000000101,"y":2546008.5700000022}},{"attributes":{"ID":163059,"DIS_CODE":0,"TOWNNAME":"永康區","LI":"埔園里","LIN":"17鄰","STREET":"八德街","SECT":" ","MAREA":" ","LANE":" ","ALLEY":" ","HOUSE_NO":"４３６號","E_COORD97":173355.75,"N_COORD97":2548540.23,"ADDRESS":"八德街４３６號","OBJECTID":163058},"geometry":{"x":173355.75,"y":2548540.2300000023}},{"attributes":{"ID":163060,"DIS_CODE":0,"TOWNNAME":"永康區","LI":"復興里","LIN":"12鄰","STREET":"復興路","SECT":" ","MAREA":" ","LANE":" ","ALLEY":" ","HOUSE_NO":"３４２號","E_COORD97":172248.19,"N_COORD97":2544343.27,"ADDRESS":"復興路３４２號","OBJECTID":163059},"geometry":{"x":172248.19000000041,"y":2544343.2699999996}},{"attributes":{"ID":163061,"DIS_CODE":0,"TOWNNAME":"永康區","LI":"復興里","LIN":"12鄰","STREET":"復興路","SECT":" ","MAREA":" ","LANE":" ","ALLEY":" ","HOUSE_NO":"３１６號","E_COORD97":172295.17999999999,"N_COORD97":2544348.5899999999,"ADDRESS":"復興路３１６號","OBJECTID":163060},"geometry":{"x":172295.1799999997,"y":2544348.5899999999}},{"attributes":{"ID":163062,"DIS_CODE":0,"TOWNNAME":"永康區","LI":"東灣里","LIN":"18鄰","STREET":"大灣三街","SECT":" ","MAREA":" ","LANE":" ","ALLEY":" ","HOUSE_NO":"１５號","E_COORD97":175041.45999999999,"N_COORD97":2544895.1400000001,"ADDRESS":"大灣三街１５號","OBJECTID":163061},"geometry":{"x":175041.45999999996,"y":2544895.1400000043}},{"attributes":{"ID":163063,"DIS_CODE":0,"TOWNNAME":"永康區","LI":"烏竹里","LIN":"18鄰","STREET":"龍中街","SECT":" ","MAREA":" ","LANE":" ","ALLEY":" ","HOUSE_NO":"２３８號","E_COORD97":174373.87,"N_COORD97":2548581.5,"ADDRESS":"龍中街２３８號","OBJECTID":163062},"geometry":{"x":174373.87000000011,"y":2548581.5000000019}},{"attributes":{"ID":163064,"DIS_CODE":0,"TOWNNAME":"永康區","LI":"二王里","LIN":"46鄰","STREET":"南工街","SECT":" ","MAREA":" ","LANE":"２１２巷","ALLEY":"７弄","HOUSE_NO":"１５號","E_COORD97":172087.60999999999,"N_COORD97":2546021.9500000002,"ADDRESS":"南工街２１２巷７弄１５號","OBJECTID":163063},"geometry":{"x":172087.61000000034,"y":2546021.9500000011}},{"attributes":{"ID":163065,"DIS_CODE":0,"TOWNNAME":"永康區","LI":"二王里","LIN":"4鄰","STREET":"二王路","SECT":" ","MAREA":" ","LANE":"４０巷","ALLEY":"３弄","HOUSE_NO":"６８號","E_COORD97":172984.67000000001,"N_COORD97":2546700.8199999998,"ADDRESS":"二王路４０巷３弄６８號","OBJECTID":163064},"geometry":{"x":172984.67000000086,"y":2546700.820000004}},{"attributes":{"ID":163066,"DIS_CODE":0,"TOWNNAME":"永康區","LI":"二王里","LIN":"20鄰","STREET":"中山南路","SECT":" ","MAREA":" ","LANE":"６４４巷","ALLEY":"２２弄","HOUSE_NO":"７號","E_COORD97":172368.67000000001,"N_COORD97":2546608.6000000001,"ADDRESS":"中山南路６４４巷２２弄７號","OBJECTID":163065},"geometry":{"x":172368.67000000179,"y":2546608.5999999996}},{"attributes":{"ID":163067,"DIS_CODE":0,"TOWNNAME":"永康區","LI":"埔園里","LIN":"39鄰","STREET":"自強路","SECT":" ","MAREA":" ","LANE":" ","ALLEY":" ","HOUSE_NO":"５８２號","E_COORD97":174023.79999999999,"N_COORD97":2548153.0499999998,"ADDRESS":"自強路５８２號","OBJECTID":163066},"geometry":{"x":174023.79999999888,"y":2548153.0500000007}},{"attributes":{"ID":163068,"DIS_CODE":0,"TOWNNAME":"永康區","LI":"二王里","LIN":"32鄰","STREET":"中山南路","SECT":" ","MAREA":" ","LANE":"５１０巷","ALLEY":"４６弄","HOUSE_NO":"１號","E_COORD97":172207.48999999999,"N_COORD97":2546384.8999999999,"ADDRESS":"中山南路５１０巷４６弄１號","OBJECTID":163067},"geometry":{"x":172207.49000000209,"y":2546384.9000000041}},{"attributes":{"ID":163069,"DIS_CODE":0,"TOWNNAME":"永康區","LI":"復華里","LIN":"25鄰","STREET":"國華街","SECT":" ","MAREA":" ","LANE":"１３２巷","ALLEY":"７弄","HOUSE_NO":"８號","E_COORD97":172840.50156999999,"N_COORD97":2546401.8940900001,"ADDRESS":"國華街１３２巷７弄８號","OBJECTID":163068},"geometry":{"x":172840.50157000124,"y":2546401.8940940015}},{"attributes":{"ID":163070,"DIS_CODE":0,"TOWNNAME":"永康區","LI":"二王里","LIN":"32鄰","STREET":"中山南路","SECT":" ","MAREA":" ","LANE":"５１０巷","ALLEY":"３４弄","HOUSE_NO":"１２號","E_COORD97":172149.04999999999,"N_COORD97":2546389.5099999998,"ADDRESS":"中山南路５１０巷３４弄１２號","OBJECTID":163069},"geometry":{"x":172149.05000000168,"y":2546389.5099999998}},{"attributes":{"ID":163071,"DIS_CODE":0,"TOWNNAME":"中西區","LI":"郡王里","LIN":"4鄰","STREET":"開山路","SECT":" ","MAREA":" ","LANE":" ","ALLEY":" ","HOUSE_NO":"２００號","E_COORD97":168948.54999999999,"N_COORD97":2542999.6600000001,"ADDRESS":"開山路２００號","OBJECTID":163070},"geometry":{"x":168948.55000000168,"y":2542999.6600000039}},{"attributes":{"ID":163072,"DIS_CODE":0,"TOWNNAME":"永康區","LI":"二王里","LIN":"5鄰","STREET":"二王路","SECT":" ","MAREA":" ","LANE":"４０巷","ALLEY":"３弄","HOUSE_NO":"２６之１號","E_COORD97":172959.22,"N_COORD97":2546660.4700000002,"ADDRESS":"二王路４０巷３弄２６之１號","OBJECTID":163071},"geometry":{"x":172959.21999999974,"y":2546660.4700000025}},{"attributes":{"ID":163073,"DIS_CODE":0,"TOWNNAME":"永康區","LI":"二王里","LIN":"38鄰","STREET":"中山南路","SECT":" ","MAREA":" ","LANE":"４９０巷","ALLEY":"１２弄","HOUSE_NO":"１２７號","E_COORD97":172199.98000000001,"N_COORD97":2546215.3100000001,"ADDRESS":"中山南路４９０巷１２弄１２７號","OBJECTID":163072},"geometry":{"x":172199.98000000138,"y":2546215.3100000005}},{"attributes":{"ID":163074,"DIS_CODE":0,"TOWNNAME":"永康區","LI":"二王里","LIN":"18鄰","STREET":"中山南路","SECT":" ","MAREA":" ","LANE":"６４４巷","ALLEY":"１９弄","HOUSE_NO":"３號","E_COORD97":172415.12,"N_COORD97":2546625.52,"ADDRESS":"中山南路６４４巷１９弄３號","OBJECTID":163073},"geometry":{"x":172415.12000000104,"y":2546625.5200000014}},{"attributes":{"ID":163075,"DIS_CODE":0,"TOWNNAME":"中西區","LI":"郡王里","LIN":"4鄰","STREET":"開山路","SECT":" ","MAREA":" ","LANE":" ","ALLEY":" ","HOUSE_NO":"２０２號","E_COORD97":168948.54999999999,"N_COORD97":2542995.1800000002,"ADDRESS":"開山路２０２號","OBJECTID":163074},"geometry":{"x":168948.55000000168,"y":2542995.1799999978}},{"attributes":{"ID":163076,"DIS_CODE":0,"TOWNNAME":"永康區","LI":"二王里","LIN":"32鄰","STREET":"中山南路","SECT":" ","MAREA":" ","LANE":"５１０巷","ALLEY":"４６弄","HOUSE_NO":"１６號","E_COORD97":172188,"N_COORD97":2546376.4300000002,"ADDRESS":"中山南路５１０巷４６弄１６號","OBJECTID":163075},"geometry":{"x":172188,"y":2546376.4299999997}},{"attributes":{"ID":163077,"DIS_CODE":0,"TOWNNAME":"中西區","LI":"郡王里","LIN":"4鄰","STREET":"開山路","SECT":" ","MAREA":" ","LANE":" ","ALLEY":" ","HOUSE_NO":"２０４號","E_COORD97":168951.35999999999,"N_COORD97":2542992.5699999998,"ADDRESS":"開山路２０４號","OBJECTID":163076},"geometry":{"x":168951.36000000034,"y":2542992.5700000003}},{"attributes":{"ID":163078,"DIS_CODE":0,"TOWNNAME":"中西區","LI":"五妃里","LIN":"4鄰","STREET":"南門路","SECT":" ","MAREA":" ","LANE":" ","ALLEY":" ","HOUSE_NO":"２３９號","E_COORD97":168394.14999999999,"N_COORD97":2542626.8199999998,"ADDRESS":"南門路２３９號","OBJECTID":163077},"geometry":{"x":168394.15000000224,"y":2542626.8200000022}},{"attributes":{"ID":163079,"DIS_CODE":0,"TOWNNAME":"永康區","LI":"二王里","LIN":"42鄰","STREET":"中山南路","SECT":" ","MAREA":" ","LANE":"３１６巷","ALLEY":"３２弄","HOUSE_NO":"２０號","E_COORD97":172040.89000000001,"N_COORD97":2546077.2000000002,"ADDRESS":"中山南路３１６巷３２弄２０號","OBJECTID":163078},"geometry":{"x":172040.88999999966,"y":2546077.2000000011}},{"attributes":{"ID":163080,"DIS_CODE":0,"TOWNNAME":"永康區","LI":"二王里","LIN":"20鄰","STREET":"中山南路","SECT":" ","MAREA":" ","LANE":"６４４巷","ALLEY":"２２弄","HOUSE_NO":"１４號","E_COORD97":172362.97,"N_COORD97":2546618.9900000002,"ADDRESS":"中山南路６４４巷２２弄１４號","OBJECTID":163079},"geometry":{"x":172362.96999999881,"y":2546618.9900000021}},{"attributes":{"ID":163081,"DIS_CODE":0,"TOWNNAME":"中西區","LI":"大南里","LIN":"1鄰","STREET":"南門路","SECT":" ","MAREA":" ","LANE":" ","ALLEY":" ","HOUSE_NO":"９０號","E_COORD97":168346.38,"N_COORD97":2542468.3100000001,"ADDRESS":"南門路９０號","OBJECTID":163080},"geometry":{"x":168346.38000000082,"y":2542468.3100000005}},{"attributes":{"ID":163082,"DIS_CODE":0,"TOWNNAME":"中西區","LI":"五妃里","LIN":"3鄰","STREET":"南門路","SECT":" ","MAREA":" ","LANE":" ","ALLEY":" ","HOUSE_NO":"２４１號","E_COORD97":168388.26999999999,"N_COORD97":2542589.6299999999,"ADDRESS":"南門路２４１號","OBJECTID":163081},"geometry":{"x":168388.26999999955,"y":2542589.6300000008}},{"attributes":{"ID":163083,"DIS_CODE":0,"TOWNNAME":"永康區","LI":"二王里","LIN":"25鄰","STREET":"中山南路","SECT":" ","MAREA":" ","LANE":"５４４巷","ALLEY":"６９弄","HOUSE_NO":"１６號","E_COORD97":172389.09,"N_COORD97":2546321.6600000001,"ADDRESS":"中山南路５４４巷６９弄１６號","OBJECTID":163082},"geometry":{"x":172389.08999999985,"y":2546321.6600000001}},{"attributes":{"ID":163084,"DIS_CODE":0,"TOWNNAME":"永康區","LI":"二王里","LIN":"25鄰","STREET":"中山南路","SECT":" ","MAREA":" ","LANE":"５４４巷","ALLEY":"６９弄","HOUSE_NO":"８號","E_COORD97":172367.79999999999,"N_COORD97":2546323.1600000001,"ADDRESS":"中山南路５４４巷６９弄８號","OBJECTID":163083},"geometry":{"x":172367.80000000168,"y":2546323.160000002}},{"attributes":{"ID":163085,"DIS_CODE":0,"TOWNNAME":"中西區","LI":"大南里","LIN":"1鄰","STREET":"南門路","SECT":" ","MAREA":" ","LANE":" ","ALLEY":" ","HOUSE_NO":"８０號","E_COORD97":168349.54999999999,"N_COORD97":2542486.9500000002,"ADDRESS":"南門路８０號","OBJECTID":163084},"geometry":{"x":168349.54999999981,"y":2542486.9499999993}},{"attributes":{"ID":163086,"DIS_CODE":0,"TOWNNAME":"中西區","LI":"大南里","LIN":"1鄰","STREET":"南門路","SECT":" ","MAREA":" ","LANE":" ","ALLEY":" ","HOUSE_NO":"８２號","E_COORD97":168348.84,"N_COORD97":2542482.3799999999,"ADDRESS":"南門路８２號","OBJECTID":163085},"geometry":{"x":168348.84000000078,"y":2542482.3800000008}},{"attributes":{"ID":163087,"DIS_CODE":0,"TOWNNAME":"東山區","LI":"青山里","LIN":"18鄰","STREET":" ","SECT":" ","MAREA":"青山","LANE":" ","ALLEY":" ","HOUSE_NO":"１１８號","E_COORD97":195210.88,"N_COORD97":2574917.1499999999,"ADDRESS":"青山１１８號","OBJECTID":163086},"geometry":{"x":195210.87999999989,"y":2574917.1500000022}},{"attributes":{"ID":163088,"DIS_CODE":0,"TOWNNAME":"東山區","LI":"青山里","LIN":"18鄰","STREET":" ","SECT":" ","MAREA":"青山","LANE":" ","ALLEY":" ","HOUSE_NO":"１１９號","E_COORD97":195253.72,"N_COORD97":2574967.0800000001,"ADDRESS":"青山１１９號","OBJECTID":163087},"geometry":{"x":195253.72000000067,"y":2574967.0800000001}},{"attributes":{"ID":163089,"DIS_CODE":0,"TOWNNAME":"東山區","LI":"青山里","LIN":"18鄰","STREET":" ","SECT":" ","MAREA":"青山","LANE":" ","ALLEY":" ","HOUSE_NO":"１２２號","E_COORD97":195264.20999999999,"N_COORD97":2574941.3999999999,"ADDRESS":"青山１２２號","OBJECTID":163088},"geometry":{"x":195264.21000000089,"y":2574941.4000000004}},{"attributes":{"ID":163090,"DIS_CODE":0,"TOWNNAME":"東山區","LI":"青山里","LIN":"18鄰","STREET":" ","SECT":" ","MAREA":"青山","LANE":" ","ALLEY":" ","HOUSE_NO":"１３１號","E_COORD97":195308.42999999999,"N_COORD97":2575158.6699999999,"ADDRESS":"青山１３１號","OBJECTID":163089},"geometry":{"x":195308.43000000063,"y":2575158.6699999999}},{"attributes":{"ID":163091,"DIS_CODE":0,"TOWNNAME":"東山區","LI":"青山里","LIN":"18鄰","STREET":" ","SECT":" ","MAREA":"青山","LANE":" ","ALLEY":" ","HOUSE_NO":"１３２號","E_COORD97":195304.53,"N_COORD97":2575160.3399999999,"ADDRESS":"青山１３２號","OBJECTID":163090},"geometry":{"x":195304.53000000119,"y":2575160.3400000017}},{"attributes":{"ID":163092,"DIS_CODE":0,"TOWNNAME":"永康區","LI":"南灣里","LIN":"3鄰","STREET":"大灣路","SECT":" ","MAREA":" ","LANE":" ","ALLEY":" ","HOUSE_NO":"５１９號","E_COORD97":174515.73000000001,"N_COORD97":2544584.2799999998,"ADDRESS":"大灣路５１９號","OBJECTID":163091},"geometry":{"x":174515.73000000138,"y":2544584.2799999975}},{"attributes":{"ID":163093,"DIS_CODE":0,"TOWNNAME":"永康區","LI":"二王里","LIN":"46鄰","STREET":"南工街","SECT":" ","MAREA":" ","LANE":"２１２巷","ALLEY":"７弄","HOUSE_NO":"１４號","E_COORD97":172092.01000000001,"N_COORD97":2546021.4500000002,"ADDRESS":"南工街２１２巷７弄１４號","OBJECTID":163092},"geometry":{"x":172092.01000000071,"y":2546021.4500000011}},{"attributes":{"ID":163094,"DIS_CODE":0,"TOWNNAME":"安南區","LI":"幸福里","LIN":"17鄰","STREET":"府安路","SECT":"六段","MAREA":" ","LANE":"２７巷","ALLEY":"６９弄","HOUSE_NO":"１號","E_COORD97":166993.19,"N_COORD97":2546857.23,"ADDRESS":"府安路六段２７巷６９弄１號","OBJECTID":163093},"geometry":{"x":166993.19000000041,"y":2546857.2300000004}},{"attributes":{"ID":163095,"DIS_CODE":0,"TOWNNAME":"安南區","LI":"幸福里","LIN":"17鄰","STREET":"府安路","SECT":"六段","MAREA":" ","LANE":"２７巷","ALLEY":"６９弄","HOUSE_NO":"２號","E_COORD97":166987.78,"N_COORD97":2546885.6000000001,"ADDRESS":"府安路六段２７巷６９弄２號","OBJECTID":163094},"geometry":{"x":166987.78000000212,"y":2546885.6000000015}},{"attributes":{"ID":163096,"DIS_CODE":0,"TOWNNAME":"永康區","LI":"南灣里","LIN":"18鄰","STREET":"立興街","SECT":" ","MAREA":" ","LANE":" ","ALLEY":" ","HOUSE_NO":"１６６號","E_COORD97":174340.89999999999,"N_COORD97":2544621.5499999998,"ADDRESS":"立興街１６６號","OBJECTID":163095},"geometry":{"x":174340.90000000224,"y":2544621.5500000045}},{"attributes":{"ID":163097,"DIS_CODE":0,"TOWNNAME":"安南區","LI":"幸福里","LIN":"17鄰","STREET":"府安路","SECT":"六段","MAREA":" ","LANE":"２７巷","ALLEY":"６９弄","HOUSE_NO":"３號","E_COORD97":166989.88,"N_COORD97":2546852.3700000001,"ADDRESS":"府安路六段２７巷６９弄３號","OBJECTID":163096},"geometry":{"x":166989.87999999989,"y":2546852.370000001}},{"attributes":{"ID":163098,"DIS_CODE":0,"TOWNNAME":"永康區","LI":"南灣里","LIN":"17鄰","STREET":"大灣路","SECT":" ","MAREA":" ","LANE":" ","ALLEY":" ","HOUSE_NO":"６７２號","E_COORD97":174416.48000000001,"N_COORD97":2544591.3500000001,"ADDRESS":"大灣路６７２號","OBJECTID":163097},"geometry":{"x":174416.47999999952,"y":2544591.3500000015}},{"attributes":{"ID":163099,"DIS_CODE":0,"TOWNNAME":"安南區","LI":"幸福里","LIN":"17鄰","STREET":"府安路","SECT":"六段","MAREA":" ","LANE":"２７巷","ALLEY":"６９弄","HOUSE_NO":"４號","E_COORD97":166983.07999999999,"N_COORD97":2546888.1299999999,"ADDRESS":"府安路六段２７巷６９弄４號","OBJECTID":163098},"geometry":{"x":166983.08000000007,"y":2546888.1300000008}},{"attributes":{"ID":163100,"DIS_CODE":0,"TOWNNAME":"永康區","LI":"南灣里","LIN":"7鄰","STREET":"大灣路","SECT":" ","MAREA":" ","LANE":" ","ALLEY":" ","HOUSE_NO":"５７３號","E_COORD97":174369.79999999999,"N_COORD97":2544545.25,"ADDRESS":"大灣路５７３號","OBJECTID":163099},"geometry":{"x":174369.80000000168,"y":2544545.2500000019}},{"attributes":{"ID":163101,"DIS_CODE":0,"TOWNNAME":"安南區","LI":"海南里","LIN":"4鄰","STREET":"府安路","SECT":"六段","MAREA":" ","LANE":"１０３巷","ALLEY":"６３弄","HOUSE_NO":"１２號","E_COORD97":166654.34,"N_COORD97":2546631.9199999999,"ADDRESS":"府安路六段１０３巷６３弄１２號","OBJECTID":163100},"geometry":{"x":166654.33999999985,"y":2546631.9200000037}},{"attributes":{"ID":163102,"DIS_CODE":0,"TOWNNAME":"永康區","LI":"埔園里","LIN":"33鄰","STREET":"自強路","SECT":" ","MAREA":" ","LANE":" ","ALLEY":" ","HOUSE_NO":"５３９號","E_COORD97":174012.79000000001,"N_COORD97":2548192.96,"ADDRESS":"自強路５３９號","OBJECTID":163101},"geometry":{"x":174012.79000000097,"y":2548192.9600000028}},{"attributes":{"ID":163103,"DIS_CODE":0,"TOWNNAME":"安南區","LI":"幸福里","LIN":"18鄰","STREET":"府安路","SECT":"六段","MAREA":" ","LANE":"２７巷","ALLEY":"２２弄","HOUSE_NO":"４號","E_COORD97":167068.89999999999,"N_COORD97":2546784.2200000002,"ADDRESS":"府安路六段２７巷２２弄４號","OBJECTID":163102},"geometry":{"x":167068.9000000013,"y":2546784.2200000025}},{"attributes":{"ID":163104,"DIS_CODE":0,"TOWNNAME":"安南區","LI":"海南里","LIN":"4鄰","STREET":"府安路","SECT":"六段","MAREA":" ","LANE":"１０３巷","ALLEY":"７５弄","HOUSE_NO":"４號","E_COORD97":166674.79999999999,"N_COORD97":2546674.75,"ADDRESS":"府安路六段１０３巷７５弄４號","OBJECTID":163103},"geometry":{"x":166674.79999999981,"y":2546674.7500000019}},{"attributes":{"ID":163105,"DIS_CODE":0,"TOWNNAME":"安南區","LI":"幸福里","LIN":"18鄰","STREET":"府安路","SECT":"六段","MAREA":" ","LANE":"２７巷","ALLEY":"５８弄","HOUSE_NO":"６號","E_COORD97":167056.42000000001,"N_COORD97":2546873.46,"ADDRESS":"府安路六段２７巷５８弄６號","OBJECTID":163104},"geometry":{"x":167056.42000000086,"y":2546873.4600000046}},{"attributes":{"ID":163106,"DIS_CODE":0,"TOWNNAME":"中西區","LI":"大南里","LIN":"1鄰","STREET":"南門路","SECT":" ","MAREA":" ","LANE":" ","ALLEY":" ","HOUSE_NO":"８４號","E_COORD97":168348.84,"N_COORD97":2542478.1600000001,"ADDRESS":"南門路８４號","OBJECTID":163105},"geometry":{"x":168348.84000000078,"y":2542478.160000002}},{"attributes":{"ID":163107,"DIS_CODE":0,"TOWNNAME":"中西區","LI":"大南里","LIN":"1鄰","STREET":"南門路","SECT":" ","MAREA":" ","LANE":" ","ALLEY":" ","HOUSE_NO":"８６號","E_COORD97":168347.42999999999,"N_COORD97":2542474.9900000002,"ADDRESS":"南門路８６號","OBJECTID":163106},"geometry":{"x":168347.43000000156,"y":2542474.9899999984}},{"attributes":{"ID":163108,"DIS_CODE":0,"TOWNNAME":"中西區","LI":"大南里","LIN":"1鄰","STREET":"南門路","SECT":" ","MAREA":" ","LANE":" ","ALLEY":" ","HOUSE_NO":"８８號","E_COORD97":168347.07999999999,"N_COORD97":2542471.4700000002,"ADDRESS":"南門路８８號","OBJECTID":163107},"geometry":{"x":168347.08000000101,"y":2542471.4700000007}},{"attributes":{"ID":163109,"DIS_CODE":0,"TOWNNAME":"中西區","LI":"大南里","LIN":"1鄰","STREET":"南門路","SECT":" ","MAREA":" ","LANE":" ","ALLEY":" ","HOUSE_NO":"９２號","E_COORD97":168346.38,"N_COORD97":2542463.3799999999,"ADDRESS":"南門路９２號","OBJECTID":163108},"geometry":{"x":168346.38000000082,"y":2542463.379999999}},{"attributes":{"ID":163110,"DIS_CODE":0,"TOWNNAME":"中西區","LI":"大南里","LIN":"1鄰","STREET":"南門路","SECT":" ","MAREA":" ","LANE":" ","ALLEY":" ","HOUSE_NO":"９４號","E_COORD97":168347.42999999999,"N_COORD97":2542457.0499999998,"ADDRESS":"南門路９４號","OBJECTID":163109},"geometry":{"x":168347.43000000156,"y":2542457.0500000007}},{"attributes":{"ID":163111,"DIS_CODE":0,"TOWNNAME":"南區","LI":"喜東里","LIN":"6鄰","STREET":"喜樹路","SECT":" ","MAREA":" ","LANE":" ","ALLEY":" ","HOUSE_NO":"９３號","E_COORD97":165904,"N_COORD97":2538315.48,"ADDRESS":"喜樹路９３號","OBJECTID":163110},"geometry":{"x":165904,"y":2538315.4800000042}},{"attributes":{"ID":163112,"DIS_CODE":0,"TOWNNAME":"中西區","LI":"仙草里","LIN":"3鄰","STREET":"五妃街","SECT":" ","MAREA":" ","LANE":" ","ALLEY":" ","HOUSE_NO":"２８４號","E_COORD97":167886.78,"N_COORD97":2542591.8900000001,"ADDRESS":"五妃街２８４號","OBJECTID":163111},"geometry":{"x":167886.78000000119,"y":2542591.8900000025}},{"attributes":{"ID":163113,"DIS_CODE":0,"TOWNNAME":"安南區","LI":"海佃里","LIN":"25鄰","STREET":"國安街","SECT":" ","MAREA":" ","LANE":"１５６巷","ALLEY":"８４弄","HOUSE_NO":"１５號","E_COORD97":166767.07999999999,"N_COORD97":2547232.1099999999,"ADDRESS":"國安街１５６巷８４弄１５號","OBJECTID":163112},"geometry":{"x":166767.08000000101,"y":2547232.1099999994}},{"attributes":{"ID":163114,"DIS_CODE":0,"TOWNNAME":"安南區","LI":"城南里","LIN":"4鄰","STREET":"城西街","SECT":"一段","MAREA":" ","LANE":"６１巷","ALLEY":"１３２弄","HOUSE_NO":"９號","E_COORD97":160616.29999999999,"N_COORD97":2551206.54,"ADDRESS":"城西街一段６１巷１３２弄９號","OBJECTID":163113},"geometry":{"x":160616.29999999981,"y":2551206.5399999991}},{"attributes":{"ID":163115,"DIS_CODE":0,"TOWNNAME":"安南區","LI":"州北里","LIN":"12鄰","STREET":"安和路","SECT":"五段","MAREA":" ","LANE":"１７１巷","ALLEY":"７２弄","HOUSE_NO":"１７號","E_COORD97":169659.34,"N_COORD97":2551832.6499999999,"ADDRESS":"安和路五段１７１巷７２弄１７號","OBJECTID":163114},"geometry":{"x":169659.34000000078,"y":2551832.6500000022}},{"attributes":{"ID":163116,"DIS_CODE":0,"TOWNNAME":"安南區","LI":"州北里","LIN":"12鄰","STREET":"安和路","SECT":"五段","MAREA":" ","LANE":"１７１巷","ALLEY":"７２弄","HOUSE_NO":"１９號","E_COORD97":169657.85000000001,"N_COORD97":2551836.4399999999,"ADDRESS":"安和路五段１７１巷７２弄１９號","OBJECTID":163115},"geometry":{"x":169657.84999999963,"y":2551836.4400000013}},{"attributes":{"ID":163117,"DIS_CODE":0,"TOWNNAME":"安南區","LI":"州南里","LIN":"5鄰","STREET":"安和路","SECT":"四段","MAREA":" ","LANE":"５３７巷","ALLEY":"７３弄","HOUSE_NO":"２７號","E_COORD97":169751.5,"N_COORD97":2551442.27,"ADDRESS":"安和路四段５３７巷７３弄２７號","OBJECTID":163116},"geometry":{"x":169751.50000000093,"y":2551442.2699999996}},{"attributes":{"ID":163118,"DIS_CODE":0,"TOWNNAME":"安南區","LI":"州北里","LIN":"1鄰","STREET":"安和路","SECT":"五段","MAREA":" ","LANE":"８１巷","ALLEY":"４０弄","HOUSE_NO":"２９號","E_COORD97":169746.57999999999,"N_COORD97":2551721.04,"ADDRESS":"安和路五段８１巷４０弄２９號","OBJECTID":163117},"geometry":{"x":169746.58000000007,"y":2551721.0399999991}},{"attributes":{"ID":163119,"DIS_CODE":0,"TOWNNAME":"中西區","LI":"仙草里","LIN":"3鄰","STREET":"五妃街","SECT":" ","MAREA":" ","LANE":" ","ALLEY":" ","HOUSE_NO":"２８６號","E_COORD97":167883.20000000001,"N_COORD97":2542591.7599999998,"ADDRESS":"五妃街２８６號","OBJECTID":163118},"geometry":{"x":167883.19999999925,"y":2542591.7600000035}},{"attributes":{"ID":163120,"DIS_CODE":0,"TOWNNAME":"東山區","LI":"青山里","LIN":"18鄰","STREET":" ","SECT":" ","MAREA":"青山","LANE":" ","ALLEY":" ","HOUSE_NO":"１３４號","E_COORD97":195296.73000000001,"N_COORD97":2575163.6899999999,"ADDRESS":"青山１３４號","OBJECTID":163119},"geometry":{"x":195296.73000000138,"y":2575163.6900000013}},{"attributes":{"ID":163121,"DIS_CODE":0,"TOWNNAME":"東山區","LI":"青山里","LIN":"18鄰","STREET":" ","SECT":" ","MAREA":"青山","LANE":" ","ALLEY":" ","HOUSE_NO":"１３５號","E_COORD97":195292.97,"N_COORD97":2575165.3300000001,"ADDRESS":"青山１３５號","OBJECTID":163120},"geometry":{"x":195292.97000000067,"y":2575165.3300000001}},{"attributes":{"ID":163122,"DIS_CODE":0,"TOWNNAME":"東山區","LI":"青山里","LIN":"18鄰","STREET":" ","SECT":" ","MAREA":"青山","LANE":" ","ALLEY":" ","HOUSE_NO":"１３７號之１","E_COORD97":195267.42000000001,"N_COORD97":2575170.0299999998,"ADDRESS":"青山１３７號之１","OBJECTID":163121},"geometry":{"x":195267.42000000179,"y":2575170.0299999993}},{"attributes":{"ID":163123,"DIS_CODE":0,"TOWNNAME":"東山區","LI":"青山里","LIN":"18鄰","STREET":" ","SECT":" ","MAREA":"青山","LANE":" ","ALLEY":" ","HOUSE_NO":"１３７號之２","E_COORD97":195263.57000000001,"N_COORD97":2575171.6099999999,"ADDRESS":"青山１３７號之２","OBJECTID":163122},"geometry":{"x":195263.57000000123,"y":2575171.6100000013}},{"attributes":{"ID":163124,"DIS_CODE":0,"TOWNNAME":"永康區","LI":"大橋里","LIN":"12鄰","STREET":"大橋二街","SECT":" ","MAREA":" ","LANE":" ","ALLEY":" ","HOUSE_NO":"２０５號","E_COORD97":171034.10000000001,"N_COORD97":2546754.75,"ADDRESS":"大橋二街２０５號","OBJECTID":163123},"geometry":{"x":171034.09999999963,"y":2546754.75}},{"attributes":{"ID":163125,"DIS_CODE":0,"TOWNNAME":"安南區","LI":"城南里","LIN":"4鄰","STREET":"城西街","SECT":"一段","MAREA":" ","LANE":"６１巷","ALLEY":"１３２弄","HOUSE_NO":"１１號","E_COORD97":160613.06,"N_COORD97":2551209.52,"ADDRESS":"城西街一段６１巷１３２弄１１號","OBJECTID":163124},"geometry":{"x":160613.06000000145,"y":2551209.5200000014}},{"attributes":{"ID":163126,"DIS_CODE":0,"TOWNNAME":"安南區","LI":"城南里","LIN":"4鄰","STREET":"城西街","SECT":"一段","MAREA":" ","LANE":"６１巷","ALLEY":"１３２弄","HOUSE_NO":"１３號","E_COORD97":160612.07000000001,"N_COORD97":2551213.9399999999,"ADDRESS":"城西街一段６１巷１３２弄１３號","OBJECTID":163125},"geometry":{"x":160612.07000000123,"y":2551213.9399999995}},{"attributes":{"ID":163127,"DIS_CODE":0,"TOWNNAME":"安南區","LI":"城南里","LIN":"4鄰","STREET":"城西街","SECT":"一段","MAREA":" ","LANE":"６１巷","ALLEY":"１３２弄","HOUSE_NO":"１５號","E_COORD97":160607.59,"N_COORD97":2551216.9199999999,"ADDRESS":"城西街一段６１巷１３２弄１５號","OBJECTID":163126},"geometry":{"x":160607.58999999985,"y":2551216.9200000018}},{"attributes":{"ID":163128,"DIS_CODE":0,"TOWNNAME":"安南區","LI":"城南里","LIN":"4鄰","STREET":"城西街","SECT":"一段","MAREA":" ","LANE":"６１巷","ALLEY":"１３２弄","HOUSE_NO":"１７號","E_COORD97":160605.10999999999,"N_COORD97":2551220.6299999999,"ADDRESS":"城西街一段６１巷１３２弄１７號","OBJECTID":163127},"geometry":{"x":160605.11000000127,"y":2551220.6300000008}},{"attributes":{"ID":163129,"DIS_CODE":0,"TOWNNAME":"安南區","LI":"城南里","LIN":"4鄰","STREET":"城西街","SECT":"一段","MAREA":" ","LANE":"６１巷","ALLEY":"１３２弄","HOUSE_NO":"１９號","E_COORD97":160603.37,"N_COORD97":2551224.6099999999,"ADDRESS":"城西街一段６１巷１３２弄１９號","OBJECTID":163128},"geometry":{"x":160603.37000000104,"y":2551224.6100000013}},{"attributes":{"ID":163130,"DIS_CODE":0,"TOWNNAME":"安南區","LI":"城南里","LIN":"4鄰","STREET":"城西街","SECT":"一段","MAREA":" ","LANE":"６１巷","ALLEY":"１３２弄","HOUSE_NO":"２１號","E_COORD97":160600.38,"N_COORD97":2551228.8300000001,"ADDRESS":"城西街一段６１巷１３２弄２１號","OBJECTID":163129},"geometry":{"x":160600.37999999989,"y":2551228.8300000001}},{"attributes":{"ID":163131,"DIS_CODE":0,"TOWNNAME":"安南區","LI":"城南里","LIN":"4鄰","STREET":"城西街","SECT":"一段","MAREA":" ","LANE":"６１巷","ALLEY":"１３２弄","HOUSE_NO":"２３號","E_COORD97":160598.39999999999,"N_COORD97":2551232.5600000001,"ADDRESS":"城西街一段６１巷１３２弄２３號","OBJECTID":163130},"geometry":{"x":160598.4000000013,"y":2551232.5600000042}},{"attributes":{"ID":163132,"DIS_CODE":0,"TOWNNAME":"安南區","LI":"城南里","LIN":"4鄰","STREET":"城西街","SECT":"一段","MAREA":" ","LANE":"６１巷","ALLEY":"１３２弄","HOUSE_NO":"２５號","E_COORD97":160595.41,"N_COORD97":2551236.2799999998,"ADDRESS":"城西街一段６１巷１３２弄２５號","OBJECTID":163131},"geometry":{"x":160595.41000000015,"y":2551236.2800000031}},{"attributes":{"ID":163133,"DIS_CODE":0,"TOWNNAME":"永康區","LI":"復華里","LIN":"25鄰","STREET":"國華街","SECT":" ","MAREA":" ","LANE":"１３２巷","ALLEY":"７弄","HOUSE_NO":"１０號","E_COORD97":172835.84048700001,"N_COORD97":2546401.4707599999,"ADDRESS":"國華街１３２巷７弄１０號","OBJECTID":163132},"geometry":{"x":172835.84048700053,"y":2546401.470761003}},{"attributes":{"ID":163134,"DIS_CODE":0,"TOWNNAME":"永康區","LI":"大橋里","LIN":"12鄰","STREET":"大橋二街","SECT":" ","MAREA":" ","LANE":" ","ALLEY":" ","HOUSE_NO":"２４７號","E_COORD97":171132.76999999999,"N_COORD97":2546821.6499999999,"ADDRESS":"大橋二街２４７號","OBJECTID":163133},"geometry":{"x":171132.76999999955,"y":2546821.6500000022}},{"attributes":{"ID":163135,"DIS_CODE":0,"TOWNNAME":"永康區","LI":"大橋里","LIN":"12鄰","STREET":"大橋二街","SECT":" ","MAREA":" ","LANE":" ","ALLEY":" ","HOUSE_NO":"２３３號","E_COORD97":171099.67999999999,"N_COORD97":2546798.8999999999,"ADDRESS":"大橋二街２３３號","OBJECTID":163134},"geometry":{"x":171099.6799999997,"y":2546798.9000000041}},{"attributes":{"ID":163136,"DIS_CODE":0,"TOWNNAME":"永康區","LI":"大橋里","LIN":"12鄰","STREET":"大橋二街","SECT":" ","MAREA":" ","LANE":" ","ALLEY":" ","HOUSE_NO":"２６３號","E_COORD97":171164.67999999999,"N_COORD97":2546842.3999999999,"ADDRESS":"大橋二街２６３號","OBJECTID":163135},"geometry":{"x":171164.67999999877,"y":2546842.4000000004}},{"attributes":{"ID":163137,"DIS_CODE":0,"TOWNNAME":"永康區","LI":"大橋里","LIN":"12鄰","STREET":"大橋二街","SECT":" ","MAREA":" ","LANE":" ","ALLEY":" ","HOUSE_NO":"２４９號","E_COORD97":171137.57000000001,"N_COORD97":2546824.3999999999,"ADDRESS":"大橋二街２４９號","OBJECTID":163136},"geometry":{"x":171137.57000000123,"y":2546824.4000000004}},{"attributes":{"ID":163138,"DIS_CODE":0,"TOWNNAME":"永康區","LI":"大橋里","LIN":"12鄰","STREET":"大橋二街","SECT":" ","MAREA":" ","LANE":" ","ALLEY":" ","HOUSE_NO":"２３５號","E_COORD97":171103.16,"N_COORD97":2546801.3999999999,"ADDRESS":"大橋二街２３５號","OBJECTID":163137},"geometry":{"x":171103.16000000108,"y":2546801.4000000004}},{"attributes":{"ID":163139,"DIS_CODE":0,"TOWNNAME":"永康區","LI":"大灣里","LIN":"12鄰","STREET":"民族路","SECT":" ","MAREA":" ","LANE":" ","ALLEY":" ","HOUSE_NO":"３４６號","E_COORD97":174889.82999999999,"N_COORD97":2545315.8500000001,"ADDRESS":"民族路３４６號","OBJECTID":163138},"geometry":{"x":174889.83000000007,"y":2545315.8499999996}},{"attributes":{"ID":163140,"DIS_CODE":0,"TOWNNAME":"永康區","LI":"大橋里","LIN":"12鄰","STREET":"大橋二街","SECT":" ","MAREA":" ","LANE":" ","ALLEY":" ","HOUSE_NO":"２３１號","E_COORD97":171095.81,"N_COORD97":2546796.8999999999,"ADDRESS":"大橋二街２３１號","OBJECTID":163139},"geometry":{"x":171095.80999999959,"y":2546796.9000000022}},{"attributes":{"ID":163141,"DIS_CODE":0,"TOWNNAME":"中西區","LI":"五妃里","LIN":"4鄰","STREET":"慶中街","SECT":" ","MAREA":" ","LANE":" ","ALLEY":" ","HOUSE_NO":"２３號","E_COORD97":168538.17000000001,"N_COORD97":2542692.9700000002,"ADDRESS":"慶中街２３號","OBJECTID":163140},"geometry":{"x":168538.17000000086,"y":2542692.9700000044}},{"attributes":{"ID":163142,"DIS_CODE":0,"TOWNNAME":"安南區","LI":"城南里","LIN":"4鄰","STREET":"城西街","SECT":"一段","MAREA":" ","LANE":"６１巷","ALLEY":"１３２弄","HOUSE_NO":"２７號","E_COORD97":160592.42999999999,"N_COORD97":2551239.0099999998,"ADDRESS":"城西街一段６１巷１３２弄２７號","OBJECTID":163141},"geometry":{"x":160592.43000000063,"y":2551239.0100000016}},{"attributes":{"ID":163143,"DIS_CODE":0,"TOWNNAME":"安南區","LI":"城南里","LIN":"4鄰","STREET":"城西街","SECT":"一段","MAREA":" ","LANE":"６１巷","ALLEY":"１３２弄","HOUSE_NO":"５號","E_COORD97":160619.03,"N_COORD97":2551197.8799999999,"ADDRESS":"城西街一段６１巷１３２弄５號","OBJECTID":163142},"geometry":{"x":160619.03000000212,"y":2551197.8800000027}},{"attributes":{"ID":163144,"DIS_CODE":0,"TOWNNAME":"安南區","LI":"城南里","LIN":"4鄰","STREET":"城西街","SECT":"一段","MAREA":" ","LANE":"６１巷","ALLEY":"１３２弄","HOUSE_NO":"７號","E_COORD97":160617.54000000001,"N_COORD97":2551201.8300000001,"ADDRESS":"城西街一段６１巷１３２弄７號","OBJECTID":163143},"geometry":{"x":160617.54000000097,"y":2551201.8300000001}},{"attributes":{"ID":163145,"DIS_CODE":0,"TOWNNAME":"安南區","LI":"安西里","LIN":"8鄰","STREET":"安和路","SECT":"一段","MAREA":" ","LANE":"３２１巷","ALLEY":"２１弄","HOUSE_NO":"１５號","E_COORD97":169153.45999999999,"N_COORD97":2548142.3999999999,"ADDRESS":"安和路一段３２１巷２１弄１５號","OBJECTID":163144},"geometry":{"x":169153.46000000089,"y":2548142.4000000022}},{"attributes":{"ID":163146,"DIS_CODE":0,"TOWNNAME":"中西區","LI":"仙草里","LIN":"6鄰","STREET":"五妃街","SECT":" ","MAREA":" ","LANE":" ","ALLEY":" ","HOUSE_NO":"２３８號","E_COORD97":167976.45000000001,"N_COORD97":2542593.6200000001,"ADDRESS":"五妃街２３８號","OBJECTID":163145},"geometry":{"x":167976.45000000205,"y":2542593.6199999992}},{"attributes":{"ID":163147,"DIS_CODE":0,"TOWNNAME":"東山區","LI":"青山里","LIN":"18鄰","STREET":" ","SECT":" ","MAREA":"青山","LANE":" ","ALLEY":" ","HOUSE_NO":"１３７號","E_COORD97":195271.98000000001,"N_COORD97":2575168.1899999999,"ADDRESS":"青山１３７號","OBJECTID":163146},"geometry":{"x":195271.98000000045,"y":2575168.1899999995}},{"attributes":{"ID":163148,"DIS_CODE":0,"TOWNNAME":"東山區","LI":"青山里","LIN":"18鄰","STREET":" ","SECT":" ","MAREA":"青山","LANE":" ","ALLEY":" ","HOUSE_NO":"１３８號","E_COORD97":195258.29000000001,"N_COORD97":2575173.7200000002,"ADDRESS":"青山１３８號","OBJECTID":163147},"geometry":{"x":195258.29000000097,"y":2575173.7200000007}},{"attributes":{"ID":163149,"DIS_CODE":0,"TOWNNAME":"東山區","LI":"青山里","LIN":"18鄰","STREET":" ","SECT":" ","MAREA":"青山","LANE":" ","ALLEY":" ","HOUSE_NO":"１４０號之１１","E_COORD97":195191.41,"N_COORD97":2575262.5800000001,"ADDRESS":"青山１４０號之１１","OBJECTID":163148},"geometry":{"x":195191.41000000201,"y":2575262.5799999982}},{"attributes":{"ID":163150,"DIS_CODE":0,"TOWNNAME":"東山區","LI":"青山里","LIN":"18鄰","STREET":" ","SECT":" ","MAREA":"青山","LANE":" ","ALLEY":" ","HOUSE_NO":"１４０號之１２","E_COORD97":195180.32999999999,"N_COORD97":2575262.9399999999,"ADDRESS":"青山１４０號之１２","OBJECTID":163149},"geometry":{"x":195180.33000000101,"y":2575262.9400000032}},{"attributes":{"ID":163151,"DIS_CODE":0,"TOWNNAME":"東山區","LI":"青山里","LIN":"18鄰","STREET":" ","SECT":" ","MAREA":"青山","LANE":" ","ALLEY":" ","HOUSE_NO":"１４０號之１","E_COORD97":195308.22,"N_COORD97":2575184.2999999998,"ADDRESS":"青山１４０號之１","OBJECTID":163150},"geometry":{"x":195308.22000000067,"y":2575184.3000000026}},{"attributes":{"ID":163152,"DIS_CODE":0,"TOWNNAME":"東山區","LI":"青山里","LIN":"18鄰","STREET":" ","SECT":" ","MAREA":"青山","LANE":" ","ALLEY":" ","HOUSE_NO":"１４０號之２","E_COORD97":195293.04000000001,"N_COORD97":2575192.1499999999,"ADDRESS":"青山１４０號之２","OBJECTID":163151},"geometry":{"x":195293.04000000004,"y":2575192.1500000022}},{"attributes":{"ID":163153,"DIS_CODE":0,"TOWNNAME":"東山區","LI":"青山里","LIN":"18鄰","STREET":" ","SECT":" ","MAREA":"青山","LANE":" ","ALLEY":" ","HOUSE_NO":"１４０號之３","E_COORD97":195296.98999999999,"N_COORD97":2575190.2799999998,"ADDRESS":"青山１４０號之３","OBJECTID":163152},"geometry":{"x":195296.99000000022,"y":2575190.2800000012}},{"attributes":{"ID":163154,"DIS_CODE":0,"TOWNNAME":"東山區","LI":"青山里","LIN":"18鄰","STREET":" ","SECT":" ","MAREA":"青山","LANE":" ","ALLEY":" ","HOUSE_NO":"１４１號之１","E_COORD97":195301.14999999999,"N_COORD97":2575188.98,"ADDRESS":"青山１４１號之１","OBJECTID":163153},"geometry":{"x":195301.15000000037,"y":2575188.9799999986}},{"attributes":{"ID":163155,"DIS_CODE":0,"TOWNNAME":"安南區","LI":"安西里","LIN":"8鄰","STREET":"安和路","SECT":"一段","MAREA":" ","LANE":"３２１巷","ALLEY":"２１弄","HOUSE_NO":"２號","E_COORD97":169182.42000000001,"N_COORD97":2548186.9500000002,"ADDRESS":"安和路一段３２１巷２１弄２號","OBJECTID":163154},"geometry":{"x":169182.42000000086,"y":2548186.9499999974}},{"attributes":{"ID":163156,"DIS_CODE":0,"TOWNNAME":"東山區","LI":"青山里","LIN":"18鄰","STREET":" ","SECT":" ","MAREA":"青山","LANE":" ","ALLEY":" ","HOUSE_NO":"１４１號之２","E_COORD97":195242.26999999999,"N_COORD97":2575179.2799999998,"ADDRESS":"青山１４１號之２","OBJECTID":163155},"geometry":{"x":195242.26999999955,"y":2575179.2800000031}},{"attributes":{"ID":163157,"DIS_CODE":0,"TOWNNAME":"安南區","LI":"學東里","LIN":"4鄰","STREET":"公學路","SECT":"六段","MAREA":" ","LANE":"４６９巷","ALLEY":"３１弄","HOUSE_NO":"１０號","E_COORD97":162661.54999999999,"N_COORD97":2553094.96,"ADDRESS":"公學路六段４６９巷３１弄１０號","OBJECTID":163156},"geometry":{"x":162661.55000000075,"y":2553094.9600000046}},{"attributes":{"ID":163158,"DIS_CODE":0,"TOWNNAME":"安南區","LI":"學東里","LIN":"4鄰","STREET":"公學路","SECT":"六段","MAREA":" ","LANE":"４６９巷","ALLEY":"３１弄","HOUSE_NO":"１２號","E_COORD97":162658.45000000001,"N_COORD97":2553090.4500000002,"ADDRESS":"公學路六段４６９巷３１弄１２號","OBJECTID":163157},"geometry":{"x":162658.45000000019,"y":2553090.4500000011}},{"attributes":{"ID":163159,"DIS_CODE":0,"TOWNNAME":"安南區","LI":"學東里","LIN":"4鄰","STREET":"公學路","SECT":"六段","MAREA":" ","LANE":"４６９巷","ALLEY":"３１弄","HOUSE_NO":"６號","E_COORD97":162658.87,"N_COORD97":2553104.98,"ADDRESS":"公學路六段４６９巷３１弄６號","OBJECTID":163158},"geometry":{"x":162658.87000000011,"y":2553104.9800000023}},{"attributes":{"ID":163160,"DIS_CODE":0,"TOWNNAME":"東山區","LI":"青山里","LIN":"18鄰","STREET":" ","SECT":" ","MAREA":"青山","LANE":" ","ALLEY":" ","HOUSE_NO":"１４１號之３","E_COORD97":195238.09,"N_COORD97":2575181.21,"ADDRESS":"青山１４１號之３","OBJECTID":163159},"geometry":{"x":195238.09000000078,"y":2575181.209999999}},{"attributes":{"ID":163161,"DIS_CODE":0,"TOWNNAME":"仁德區","LI":"保安里","LIN":"12鄰","STREET":"開發四路","SECT":" ","MAREA":" ","LANE":" ","ALLEY":" ","HOUSE_NO":"１６號","E_COORD97":173043.07999999999,"N_COORD97":2536027.5099999998,"ADDRESS":"開發四路１６號","OBJECTID":163160},"geometry":{"x":173043.08000000101,"y":2536027.5100000016}},{"attributes":{"ID":163162,"DIS_CODE":0,"TOWNNAME":"安南區","LI":"學東里","LIN":"4鄰","STREET":"公學路","SECT":"六段","MAREA":" ","LANE":"４６９巷","ALLEY":"３１弄","HOUSE_NO":"８號","E_COORD97":162660.42000000001,"N_COORD97":2553099.7599999998,"ADDRESS":"公學路六段４６９巷３１弄８號","OBJECTID":163161},"geometry":{"x":162660.42000000179,"y":2553099.7600000016}},{"attributes":{"ID":163163,"DIS_CODE":0,"TOWNNAME":"東山區","LI":"聖賢里","LIN":"18鄰","STREET":" ","SECT":" ","MAREA":"頂窩","LANE":" ","ALLEY":" ","HOUSE_NO":"３８號","E_COORD97":183006.70999999999,"N_COORD97":2578669.02,"ADDRESS":"頂窩３８號","OBJECTID":163162},"geometry":{"x":183006.70999999996,"y":2578669.0199999996}},{"attributes":{"ID":163164,"DIS_CODE":0,"TOWNNAME":"東山區","LI":"聖賢里","LIN":"18鄰","STREET":" ","SECT":" ","MAREA":"頂窩","LANE":" ","ALLEY":" ","HOUSE_NO":"３４號之１","E_COORD97":182996.73000000001,"N_COORD97":2578604.0699999998,"ADDRESS":"頂窩３４號之１","OBJECTID":163163},"geometry":{"x":182996.73000000138,"y":2578604.0700000022}},{"attributes":{"ID":163165,"DIS_CODE":0,"TOWNNAME":"東山區","LI":"聖賢里","LIN":"18鄰","STREET":" ","SECT":" ","MAREA":"頂窩","LANE":" ","ALLEY":" ","HOUSE_NO":"３４號","E_COORD97":183002.04000000001,"N_COORD97":2578603.6499999999,"ADDRESS":"頂窩３４號","OBJECTID":163164},"geometry":{"x":183002.04000000097,"y":2578603.6500000022}},{"attributes":{"ID":163166,"DIS_CODE":0,"TOWNNAME":"東山區","LI":"聖賢里","LIN":"18鄰","STREET":" ","SECT":" ","MAREA":"頂窩","LANE":" ","ALLEY":" ","HOUSE_NO":"３５號","E_COORD97":182984.73999999999,"N_COORD97":2578656.23,"ADDRESS":"頂窩３５號","OBJECTID":163165},"geometry":{"x":182984.74000000022,"y":2578656.2300000023}},{"attributes":{"ID":163167,"DIS_CODE":0,"TOWNNAME":"東山區","LI":"聖賢里","LIN":"18鄰","STREET":" ","SECT":" ","MAREA":"頂窩","LANE":" ","ALLEY":" ","HOUSE_NO":"３６號","E_COORD97":183002.88,"N_COORD97":2578647.1400000001,"ADDRESS":"頂窩３６號","OBJECTID":163166},"geometry":{"x":183002.88000000175,"y":2578647.1400000025}},{"attributes":{"ID":163168,"DIS_CODE":0,"TOWNNAME":"東山區","LI":"聖賢里","LIN":"18鄰","STREET":" ","SECT":" ","MAREA":"頂窩","LANE":" ","ALLEY":" ","HOUSE_NO":"３７號","E_COORD97":183019.37,"N_COORD97":2578620.1800000002,"ADDRESS":"頂窩３７號","OBJECTID":163167},"geometry":{"x":183019.37000000011,"y":2578620.1799999997}},{"attributes":{"ID":163169,"DIS_CODE":0,"TOWNNAME":"東山區","LI":"聖賢里","LIN":"18鄰","STREET":" ","SECT":" ","MAREA":"頂窩","LANE":" ","ALLEY":" ","HOUSE_NO":"３８號之１","E_COORD97":182998.07999999999,"N_COORD97":2578682.25,"ADDRESS":"頂窩３８號之１","OBJECTID":163168},"geometry":{"x":182998.08000000007,"y":2578682.2499999981}},{"attributes":{"ID":163170,"DIS_CODE":0,"TOWNNAME":"東山區","LI":"聖賢里","LIN":"18鄰","STREET":" ","SECT":" ","MAREA":"頂窩","LANE":" ","ALLEY":" ","HOUSE_NO":"４０號","E_COORD97":183033.73000000001,"N_COORD97":2578646.3100000001,"ADDRESS":"頂窩４０號","OBJECTID":163169},"geometry":{"x":183033.73000000138,"y":2578646.3100000024}},{"attributes":{"ID":163171,"DIS_CODE":0,"TOWNNAME":"東山區","LI":"聖賢里","LIN":"18鄰","STREET":" ","SECT":" ","MAREA":"頂窩","LANE":" ","ALLEY":" ","HOUSE_NO":"４１號之１","E_COORD97":183034.60000000001,"N_COORD97":2578623.7400000002,"ADDRESS":"頂窩４１號之１","OBJECTID":163170},"geometry":{"x":183034.59999999963,"y":2578623.7400000002}},{"attributes":{"ID":163172,"DIS_CODE":0,"TOWNNAME":"安南區","LI":"溪心里","LIN":"4鄰","STREET":"本原街","SECT":"二段","MAREA":" ","LANE":"１０６巷","ALLEY":"９７弄","HOUSE_NO":"１７號","E_COORD97":167062.04000000001,"N_COORD97":2550992.02,"ADDRESS":"本原街二段１０６巷９７弄１７號","OBJECTID":163171},"geometry":{"x":167062.0400000019,"y":2550992.0200000014}},{"attributes":{"ID":163173,"DIS_CODE":0,"TOWNNAME":"東山區","LI":"聖賢里","LIN":"18鄰","STREET":" ","SECT":" ","MAREA":"頂窩","LANE":" ","ALLEY":" ","HOUSE_NO":"４２號之１","E_COORD97":183050.42999999999,"N_COORD97":2578656.6200000001,"ADDRESS":"頂窩４２號之１","OBJECTID":163172},"geometry":{"x":183050.43000000063,"y":2578656.620000001}},{"attributes":{"ID":163174,"DIS_CODE":0,"TOWNNAME":"官田區","LI":"湖山里","LIN":"12鄰","STREET":" ","SECT":" ","MAREA":"烏山頭","LANE":" ","ALLEY":" ","HOUSE_NO":"７０號","E_COORD97":183473.95000000001,"N_COORD97":2567829.02,"ADDRESS":"烏山頭７０號","OBJECTID":163173},"geometry":{"x":183473.95000000205,"y":2567829.0200000014}},{"attributes":{"ID":163175,"DIS_CODE":0,"TOWNNAME":"安南區","LI":"溪心里","LIN":"4鄰","STREET":"本原街","SECT":"二段","MAREA":" ","LANE":"１０６巷","ALLEY":"９７弄","HOUSE_NO":"１７號之１","E_COORD97":167053.14000000001,"N_COORD97":2550990.3999999999,"ADDRESS":"本原街二段１０６巷９７弄１７號之１","OBJECTID":163174},"geometry":{"x":167053.1400000006,"y":2550990.4000000022}},{"attributes":{"ID":163176,"DIS_CODE":0,"TOWNNAME":"永康區","LI":"大灣里","LIN":"12鄰","STREET":"民族路","SECT":" ","MAREA":" ","LANE":"３８０巷","ALLEY":" ","HOUSE_NO":"３號","E_COORD97":174817.31,"N_COORD97":2545404.71,"ADDRESS":"民族路３８０巷３號","OBJECTID":163175},"geometry":{"x":174817.31000000052,"y":2545404.7100000028}},{"attributes":{"ID":163177,"DIS_CODE":0,"TOWNNAME":"東區","LI":"崇信里","LIN":"24鄰","STREET":"崇善一街","SECT":" ","MAREA":" ","LANE":" ","ALLEY":" ","HOUSE_NO":"８０號十七樓之１","E_COORD97":170834.92000000001,"N_COORD97":2542294.98,"ADDRESS":"崇善一街８０號十七樓之１","OBJECTID":163176},"geometry":{"x":170834.92000000086,"y":2542294.9800000004}},{"attributes":{"ID":163178,"DIS_CODE":0,"TOWNNAME":"東山區","LI":"聖賢里","LIN":"18鄰","STREET":" ","SECT":" ","MAREA":"頂窩","LANE":" ","ALLEY":" ","HOUSE_NO":"４２號之２","E_COORD97":183050.64999999999,"N_COORD97":2578628.6299999999,"ADDRESS":"頂窩４２號之２","OBJECTID":163177},"geometry":{"x":183050.65000000224,"y":2578628.6300000008}},{"attributes":{"ID":163179,"DIS_CODE":0,"TOWNNAME":"東區","LI":"崇信里","LIN":"24鄰","STREET":"崇善一街","SECT":" ","MAREA":" ","LANE":" ","ALLEY":" ","HOUSE_NO":"８０號十七樓之２","E_COORD97":170834.92000000001,"N_COORD97":2542294.98,"ADDRESS":"崇善一街８０號十七樓之２","OBJECTID":163178},"geometry":{"x":170834.92000000086,"y":2542294.9800000004}},{"attributes":{"ID":163180,"DIS_CODE":0,"TOWNNAME":"東區","LI":"崇信里","LIN":"24鄰","STREET":"崇善一街","SECT":" ","MAREA":" ","LANE":" ","ALLEY":" ","HOUSE_NO":"８０號十二樓","E_COORD97":170834.92000000001,"N_COORD97":2542294.98,"ADDRESS":"崇善一街８０號十二樓","OBJECTID":163179},"geometry":{"x":170834.92000000086,"y":2542294.9800000004}},{"attributes":{"ID":163181,"DIS_CODE":0,"TOWNNAME":"東區","LI":"崇信里","LIN":"24鄰","STREET":"崇善一街","SECT":" ","MAREA":" ","LANE":" ","ALLEY":" ","HOUSE_NO":"８０號十二樓之１","E_COORD97":170834.92000000001,"N_COORD97":2542294.98,"ADDRESS":"崇善一街８０號十二樓之１","OBJECTID":163180},"geometry":{"x":170834.92000000086,"y":2542294.9800000004}},{"attributes":{"ID":163182,"DIS_CODE":0,"TOWNNAME":"東區","LI":"崇信里","LIN":"24鄰","STREET":"崇善一街","SECT":" ","MAREA":" ","LANE":" ","ALLEY":" ","HOUSE_NO":"８０號十二樓之２","E_COORD97":170834.92000000001,"N_COORD97":2542294.98,"ADDRESS":"崇善一街８０號十二樓之２","OBJECTID":163181},"geometry":{"x":170834.92000000086,"y":2542294.9800000004}},{"attributes":{"ID":163183,"DIS_CODE":0,"TOWNNAME":"東區","LI":"崇信里","LIN":"24鄰","STREET":"崇善一街","SECT":" ","MAREA":" ","LANE":" ","ALLEY":" ","HOUSE_NO":"８０號十八樓","E_COORD97":170834.92000000001,"N_COORD97":2542294.98,"ADDRESS":"崇善一街８０號十八樓","OBJECTID":163182},"geometry":{"x":170834.92000000086,"y":2542294.9800000004}},{"attributes":{"ID":163184,"DIS_CODE":0,"TOWNNAME":"東區","LI":"崇信里","LIN":"24鄰","STREET":"崇善一街","SECT":" ","MAREA":" ","LANE":" ","ALLEY":" ","HOUSE_NO":"８０號十三樓","E_COORD97":170834.92000000001,"N_COORD97":2542294.98,"ADDRESS":"崇善一街８０號十三樓","OBJECTID":163183},"geometry":{"x":170834.92000000086,"y":2542294.9800000004}},{"attributes":{"ID":163185,"DIS_CODE":0,"TOWNNAME":"東區","LI":"崇信里","LIN":"24鄰","STREET":"崇善一街","SECT":" ","MAREA":" ","LANE":" ","ALLEY":" ","HOUSE_NO":"８０號十三樓之１","E_COORD97":170834.92000000001,"N_COORD97":2542294.98,"ADDRESS":"崇善一街８０號十三樓之１","OBJECTID":163184},"geometry":{"x":170834.92000000086,"y":2542294.9800000004}},{"attributes":{"ID":163186,"DIS_CODE":0,"TOWNNAME":"仁德區","LI":"保安里","LIN":"12鄰","STREET":"民生路","SECT":" ","MAREA":" ","LANE":" ","ALLEY":" ","HOUSE_NO":"１７號","E_COORD97":173067.04999999999,"N_COORD97":2535892.7799999998,"ADDRESS":"民生路１７號","OBJECTID":163185},"geometry":{"x":173067.04999999981,"y":2535892.7800000012}},{"attributes":{"ID":163187,"DIS_CODE":0,"TOWNNAME":"仁德區","LI":"保安里","LIN":"12鄰","STREET":"永德路","SECT":" ","MAREA":" ","LANE":" ","ALLEY":" ","HOUSE_NO":"２５之１號","E_COORD97":172468.92999999999,"N_COORD97":2535798.04,"ADDRESS":"永德路２５之１號","OBJECTID":163186},"geometry":{"x":172468.93000000063,"y":2535798.0400000028}},{"attributes":{"ID":163188,"DIS_CODE":0,"TOWNNAME":"仁德區","LI":"保安里","LIN":"12鄰","STREET":"民生路","SECT":" ","MAREA":" ","LANE":" ","ALLEY":" ","HOUSE_NO":"２４號","E_COORD97":173113.37,"N_COORD97":2535738.79,"ADDRESS":"民生路２４號","OBJECTID":163187},"geometry":{"x":173113.37000000197,"y":2535738.7900000028}},{"attributes":{"ID":163189,"DIS_CODE":0,"TOWNNAME":"仁德區","LI":"仁德里","LIN":"12鄰","STREET":"四維街","SECT":" ","MAREA":" ","LANE":" ","ALLEY":" ","HOUSE_NO":"１７號","E_COORD97":173267.29000000001,"N_COORD97":2541521.7400000002,"ADDRESS":"四維街１７號","OBJECTID":163188},"geometry":{"x":173267.29000000004,"y":2541521.7400000021}},{"attributes":{"ID":163190,"DIS_CODE":0,"TOWNNAME":"仁德區","LI":"保安里","LIN":"12鄰","STREET":"民生路","SECT":" ","MAREA":" ","LANE":" ","ALLEY":" ","HOUSE_NO":"８號","E_COORD97":172889.03,"N_COORD97":2536020.0299999998,"ADDRESS":"民生路８號","OBJECTID":163189},"geometry":{"x":172889.03000000119,"y":2536020.0300000012}},{"attributes":{"ID":163191,"DIS_CODE":0,"TOWNNAME":"仁德區","LI":"太子里","LIN":"12鄰","STREET":"長興二街","SECT":" ","MAREA":" ","LANE":" ","ALLEY":" ","HOUSE_NO":"７２號","E_COORD97":174257.44,"N_COORD97":2543702.75,"ADDRESS":"長興二街７２號","OBJECTID":163190},"geometry":{"x":174257.44000000227,"y":2543702.75}},{"attributes":{"ID":163192,"DIS_CODE":0,"TOWNNAME":"安南區","LI":"溪心里","LIN":"4鄰","STREET":"本原街","SECT":"二段","MAREA":" ","LANE":"１０６巷","ALLEY":"９７弄","HOUSE_NO":"１７號之３","E_COORD97":167048.98999999999,"N_COORD97":2550990.71,"ADDRESS":"本原街二段１０６巷９７弄１７號之３","OBJECTID":163191},"geometry":{"x":167048.99000000209,"y":2550990.7100000009}},{"attributes":{"ID":163193,"DIS_CODE":0,"TOWNNAME":"安南區","LI":"溪心里","LIN":"4鄰","STREET":"本原街","SECT":"二段","MAREA":" ","LANE":"１０６巷","ALLEY":"９７弄","HOUSE_NO":"１７號之４","E_COORD97":167044.03,"N_COORD97":2550989.7000000002,"ADDRESS":"本原街二段１０６巷９７弄１７號之４","OBJECTID":163192},"geometry":{"x":167044.03000000119,"y":2550989.7000000011}},{"attributes":{"ID":163194,"DIS_CODE":0,"TOWNNAME":"仁德區","LI":"成功里","LIN":"12鄰","STREET":"保華路","SECT":" ","MAREA":" ","LANE":" ","ALLEY":" ","HOUSE_NO":"２０９號","E_COORD97":170872.79000000001,"N_COORD97":2540010.25,"ADDRESS":"保華路２０９號","OBJECTID":163193},"geometry":{"x":170872.7900000019,"y":2540010.25}},{"attributes":{"ID":163195,"DIS_CODE":0,"TOWNNAME":"東山區","LI":"聖賢里","LIN":"18鄰","STREET":" ","SECT":" ","MAREA":"頂窩","LANE":" ","ALLEY":" ","HOUSE_NO":"４２號","E_COORD97":183060.67999999999,"N_COORD97":2578633.71,"ADDRESS":"頂窩４２號","OBJECTID":163194},"geometry":{"x":183060.68000000063,"y":2578633.7100000028}},{"attributes":{"ID":163196,"DIS_CODE":0,"TOWNNAME":"東山區","LI":"聖賢里","LIN":"18鄰","STREET":" ","SECT":" ","MAREA":"頂窩","LANE":" ","ALLEY":" ","HOUSE_NO":"４３號","E_COORD97":183049.14999999999,"N_COORD97":2578679.3500000001,"ADDRESS":"頂窩４３號","OBJECTID":163195},"geometry":{"x":183049.1500000013,"y":2578679.3500000015}},{"attributes":{"ID":163197,"DIS_CODE":0,"TOWNNAME":"永康區","LI":"埔園里","LIN":"7鄰","STREET":"中正路","SECT":" ","MAREA":" ","LANE":" ","ALLEY":" ","HOUSE_NO":"４８號","E_COORD97":173681.20000000001,"N_COORD97":2547741.2400000002,"ADDRESS":"中正路４８號","OBJECTID":163196},"geometry":{"x":173681.20000000112,"y":2547741.2400000002}},{"attributes":{"ID":163198,"DIS_CODE":0,"TOWNNAME":"安南區","LI":"溪心里","LIN":"4鄰","STREET":"本原街","SECT":"二段","MAREA":" ","LANE":"１０６巷","ALLEY":"９７弄","HOUSE_NO":"１７號之５","E_COORD97":167039.38,"N_COORD97":2550989.5899999999,"ADDRESS":"本原街二段１０６巷９７弄１７號之５","OBJECTID":163197},"geometry":{"x":167039.38000000082,"y":2550989.5899999999}},{"attributes":{"ID":163199,"DIS_CODE":0,"TOWNNAME":"安南區","LI":"溪心里","LIN":"5鄰","STREET":"本原街","SECT":"二段","MAREA":" ","LANE":"１０６巷","ALLEY":"２７弄","HOUSE_NO":"６８號","E_COORD97":166822.16,"N_COORD97":2550932.54,"ADDRESS":"本原街二段１０６巷２７弄６８號","OBJECTID":163198},"geometry":{"x":166822.16000000015,"y":2550932.5400000028}},{"attributes":{"ID":163200,"DIS_CODE":0,"TOWNNAME":"安南區","LI":"顯宮里","LIN":"4鄰","STREET":"顯宮二街","SECT":" ","MAREA":" ","LANE":" ","ALLEY":" ","HOUSE_NO":"３５號","E_COORD97":160675.5,"N_COORD97":2548912.9199999999,"ADDRESS":"顯宮二街３５號","OBJECTID":163199},"geometry":{"x":160675.50000000093,"y":2548912.9199999999}},{"attributes":{"ID":163201,"DIS_CODE":0,"TOWNNAME":"安南區","LI":"顯宮里","LIN":"4鄰","STREET":"顯宮二街","SECT":" ","MAREA":" ","LANE":" ","ALLEY":" ","HOUSE_NO":"３７號","E_COORD97":160670.98000000001,"N_COORD97":2548910.3300000001,"ADDRESS":"顯宮二街３７號","OBJECTID":163200},"geometry":{"x":160670.98000000138,"y":2548910.3300000001}}]}