{"displayFieldName":"TOWNNAME","fieldAliases":{"ID":"ID","DIS_CODE":"DIS_CODE","TOWNNAME":"TOWNNAME","LI":"LI","LIN":"LIN","STREET":"STREET","SECT":"SECT","MAREA":"MAREA","LANE":"LANE","ALLEY":"ALLEY","HOUSE_NO":"HOUSE_NO","E_COORD97":"E_COORD97","N_COORD97":"N_COORD97","ADDRESS":"ADDRESS","OBJECTID":"OBJECTID"},"geometryType":"esriGeometryPoint","spatialReference":{"wkid":102443,"latestWkid":3826},"fields":[{"name":"ID","type":"esriFieldTypeDouble","alias":"ID"},{"name":"DIS_CODE","type":"esriFieldTypeInteger","alias":"DIS_CODE"},{"name":"TOWNNAME","type":"esriFieldTypeString","alias":"TOWNNAME","length":8},{"name":"LI","type":"esriFieldTypeString","alias":"LI","length":8},{"name":"LIN","type":"esriFieldTypeString","alias":"LIN","length":12},{"name":"STREET","type":"esriFieldTypeString","alias":"STREET","length":20},{"name":"SECT","type":"esriFieldTypeString","alias":"SECT","length":8},{"name":"MAREA","type":"esriFieldTypeString","alias":"MAREA","length":12},{"name":"LANE","type":"esriFieldTypeString","alias":"LANE","length":10},{"name":"ALLEY","type":"esriFieldTypeString","alias":"ALLEY","length":10},{"name":"HOUSE_NO","type":"esriFieldTypeString","alias":"HOUSE_NO","length":20},{"name":"E_COORD97","type":"esriFieldTypeDouble","alias":"E_COORD97"},{"name":"N_COORD97","type":"esriFieldTypeDouble","alias":"N_COORD97"},{"name":"ADDRESS","type":"esriFieldTypeString","alias":"ADDRESS","length":50},{"name":"OBJECTID","type":"esriFieldTypeOID","alias":"OBJECTID"}],"features":[{"attributes":{"ID":298809,"DIS_CODE":0,"TOWNNAME":"北區","LI":"元寶里","LIN":"8鄰","STREET":"北園街","SECT":" ","MAREA":" ","LANE":"８巷","ALLEY":" ","HOUSE_NO":"１６號六樓之１","E_COORD97":170409.92000000001,"N_COORD97":2545614.27,"ADDRESS":"北園街８巷１６號六樓之１","OBJECTID":298801},"geometry":{"x":170409.91999999993,"y":2545614.2699999996}},{"attributes":{"ID":298810,"DIS_CODE":0,"TOWNNAME":"北區","LI":"元寶里","LIN":"8鄰","STREET":"北園街","SECT":" ","MAREA":" ","LANE":"８巷","ALLEY":" ","HOUSE_NO":"１６號六樓之２","E_COORD97":170409.92000000001,"N_COORD97":2545614.27,"ADDRESS":"北園街８巷１６號六樓之２","OBJECTID":298802},"geometry":{"x":170409.91999999993,"y":2545614.2699999996}},{"attributes":{"ID":298811,"DIS_CODE":0,"TOWNNAME":"北區","LI":"元寶里","LIN":"8鄰","STREET":"北園街","SECT":" ","MAREA":" ","LANE":"８巷","ALLEY":" ","HOUSE_NO":"１６號四樓之１","E_COORD97":170409.92000000001,"N_COORD97":2545614.27,"ADDRESS":"北園街８巷１６號四樓之１","OBJECTID":298803},"geometry":{"x":170409.91999999993,"y":2545614.2699999996}},{"attributes":{"ID":298812,"DIS_CODE":0,"TOWNNAME":"北區","LI":"元寶里","LIN":"8鄰","STREET":"北園街","SECT":" ","MAREA":" ","LANE":"８巷","ALLEY":" ","HOUSE_NO":"１６號四樓之２","E_COORD97":170409.92000000001,"N_COORD97":2545614.27,"ADDRESS":"北園街８巷１６號四樓之２","OBJECTID":298804},"geometry":{"x":170409.91999999993,"y":2545614.2699999996}},{"attributes":{"ID":298813,"DIS_CODE":0,"TOWNNAME":"新營區","LI":"南興里","LIN":"8鄰","STREET":"建業路","SECT":" ","MAREA":" ","LANE":"７８巷","ALLEY":" ","HOUSE_NO":"１號十一樓之１","E_COORD97":179328.39999999999,"N_COORD97":2577506.1800000002,"ADDRESS":"建業路７８巷１號十一樓之１","OBJECTID":298805},"geometry":{"x":179328.4000000013,"y":2577506.1800000034}},{"attributes":{"ID":298814,"DIS_CODE":0,"TOWNNAME":"新營區","LI":"南興里","LIN":"8鄰","STREET":"建業路","SECT":" ","MAREA":" ","LANE":"７８巷","ALLEY":" ","HOUSE_NO":"１號七樓之２","E_COORD97":179327.28,"N_COORD97":2577506.1800000002,"ADDRESS":"建業路７８巷１號七樓之２","OBJECTID":298806},"geometry":{"x":179327.28000000119,"y":2577506.1800000034}},{"attributes":{"ID":298815,"DIS_CODE":0,"TOWNNAME":"新營區","LI":"南興里","LIN":"8鄰","STREET":"建業路","SECT":" ","MAREA":" ","LANE":"７８巷","ALLEY":" ","HOUSE_NO":"１號八樓之１","E_COORD97":179327.14999999999,"N_COORD97":2577506.1800000002,"ADDRESS":"建業路７８巷１號八樓之１","OBJECTID":298807},"geometry":{"x":179327.1500000013,"y":2577506.1800000034}},{"attributes":{"ID":298816,"DIS_CODE":0,"TOWNNAME":"永康區","LI":"南灣里","LIN":"8鄰","STREET":"南興路","SECT":" ","MAREA":" ","LANE":"２巷","ALLEY":" ","HOUSE_NO":"９號之１","E_COORD97":174378.22,"N_COORD97":2543937.7999999998,"ADDRESS":"南興路２巷９號之１","OBJECTID":298808},"geometry":{"x":174378.21999999974,"y":2543937.8000000007}},{"attributes":{"ID":298817,"DIS_CODE":0,"TOWNNAME":"新營區","LI":"南興里","LIN":"8鄰","STREET":"建業路","SECT":" ","MAREA":" ","LANE":"７８巷","ALLEY":" ","HOUSE_NO":"１號八樓之３","E_COORD97":179327.23999999999,"N_COORD97":2577506.1800000002,"ADDRESS":"建業路７８巷１號八樓之３","OBJECTID":298809},"geometry":{"x":179327.24000000209,"y":2577506.1800000034}},{"attributes":{"ID":298818,"DIS_CODE":0,"TOWNNAME":"新營區","LI":"南興里","LIN":"8鄰","STREET":"建業路","SECT":" ","MAREA":" ","LANE":"７８巷","ALLEY":" ","HOUSE_NO":"１號七樓之１","E_COORD97":179327.14999999999,"N_COORD97":2577506.1800000002,"ADDRESS":"建業路７８巷１號七樓之１","OBJECTID":298810},"geometry":{"x":179327.1500000013,"y":2577506.1800000034}},{"attributes":{"ID":298819,"DIS_CODE":0,"TOWNNAME":"歸仁區","LI":"武東里","LIN":"8鄰","STREET":"武東一街","SECT":" ","MAREA":" ","LANE":"４９巷","ALLEY":" ","HOUSE_NO":"６６號六樓之６","E_COORD97":175800.23000000001,"N_COORD97":2535538.2999999998,"ADDRESS":"武東一街４９巷６６號六樓之６","OBJECTID":298811},"geometry":{"x":175800.23000000138,"y":2535538.3000000026}},{"attributes":{"ID":298820,"DIS_CODE":0,"TOWNNAME":"永康區","LI":"大灣里","LIN":"8鄰","STREET":"民族路","SECT":" ","MAREA":" ","LANE":"３９６巷","ALLEY":" ","HOUSE_NO":"５號","E_COORD97":174746.45999999999,"N_COORD97":2545430.75,"ADDRESS":"民族路３９６巷５號","OBJECTID":298812},"geometry":{"x":174746.45999999996,"y":2545430.7500000019}},{"attributes":{"ID":298821,"DIS_CODE":0,"TOWNNAME":"歸仁區","LI":"武東里","LIN":"8鄰","STREET":"武東一街","SECT":" ","MAREA":" ","LANE":"４９巷","ALLEY":" ","HOUSE_NO":"６６號五樓之５","E_COORD97":175800.28,"N_COORD97":2535538.2999999998,"ADDRESS":"武東一街４９巷６６號五樓之５","OBJECTID":298813},"geometry":{"x":175800.28000000026,"y":2535538.3000000026}},{"attributes":{"ID":298822,"DIS_CODE":0,"TOWNNAME":"歸仁區","LI":"武東里","LIN":"8鄰","STREET":"武東一街","SECT":" ","MAREA":" ","LANE":"４９巷","ALLEY":" ","HOUSE_NO":"６８號六樓之３","E_COORD97":175800.22,"N_COORD97":2535538.2999999998,"ADDRESS":"武東一街４９巷６８號六樓之３","OBJECTID":298814},"geometry":{"x":175800.21999999974,"y":2535538.3000000026}},{"attributes":{"ID":298823,"DIS_CODE":0,"TOWNNAME":"歸仁區","LI":"武東里","LIN":"8鄰","STREET":"武東一街","SECT":" ","MAREA":" ","LANE":"４９巷","ALLEY":" ","HOUSE_NO":"６８號二樓之２","E_COORD97":175800.26000000001,"N_COORD97":2535538.2999999998,"ADDRESS":"武東一街４９巷６８號二樓之２","OBJECTID":298815},"geometry":{"x":175800.25999999978,"y":2535538.3000000026}},{"attributes":{"ID":298824,"DIS_CODE":0,"TOWNNAME":"歸仁區","LI":"武東里","LIN":"8鄰","STREET":"武東一街","SECT":" ","MAREA":" ","LANE":"４９巷","ALLEY":" ","HOUSE_NO":"６８號二樓之４","E_COORD97":175800.14999999999,"N_COORD97":2535538.2999999998,"ADDRESS":"武東一街４９巷６８號二樓之４","OBJECTID":298816},"geometry":{"x":175800.15000000037,"y":2535538.3000000026}},{"attributes":{"ID":298825,"DIS_CODE":0,"TOWNNAME":"歸仁區","LI":"武東里","LIN":"8鄰","STREET":"武東一街","SECT":" ","MAREA":" ","LANE":"４９巷","ALLEY":" ","HOUSE_NO":"６６號六樓之１","E_COORD97":175800.13,"N_COORD97":2535538.2999999998,"ADDRESS":"武東一街４９巷６６號六樓之１","OBJECTID":298817},"geometry":{"x":175800.13000000082,"y":2535538.3000000026}},{"attributes":{"ID":298826,"DIS_CODE":0,"TOWNNAME":"歸仁區","LI":"武東里","LIN":"8鄰","STREET":"武東一街","SECT":" ","MAREA":" ","LANE":"４９巷","ALLEY":" ","HOUSE_NO":"６８號三樓之２","E_COORD97":175800.26000000001,"N_COORD97":2535538.2999999998,"ADDRESS":"武東一街４９巷６８號三樓之２","OBJECTID":298818},"geometry":{"x":175800.25999999978,"y":2535538.3000000026}},{"attributes":{"ID":298827,"DIS_CODE":0,"TOWNNAME":"南區","LI":"新昌里","LIN":"8鄰","STREET":"五妃街","SECT":" ","MAREA":" ","LANE":"３８６巷","ALLEY":" ","HOUSE_NO":"２１號二樓之１","E_COORD97":167581.35000000001,"N_COORD97":2542682.1099999999,"ADDRESS":"五妃街３８６巷２１號二樓之１","OBJECTID":298819},"geometry":{"x":167581.34999999963,"y":2542682.1099999994}},{"attributes":{"ID":298828,"DIS_CODE":0,"TOWNNAME":"北門區","LI":"三光里","LIN":"4鄰","STREET":" ","SECT":" ","MAREA":"三寮灣","LANE":" ","ALLEY":" ","HOUSE_NO":"１１０號之２","E_COORD97":158715.19,"N_COORD97":2570856.9700000002,"ADDRESS":"三寮灣１１０號之２","OBJECTID":298820},"geometry":{"x":158715.19000000041,"y":2570856.9700000025}},{"attributes":{"ID":298829,"DIS_CODE":0,"TOWNNAME":"善化區","LI":"光文里","LIN":"4鄰","STREET":" ","SECT":" ","MAREA":" ","LANE":"北子店１９","ALLEY":" ","HOUSE_NO":"１１號","E_COORD97":179295.64000000001,"N_COORD97":2559690.7599999998,"ADDRESS":"北子店１９９巷１１號","OBJECTID":298821},"geometry":{"x":179295.6400000006,"y":2559690.7600000016}},{"attributes":{"ID":298830,"DIS_CODE":0,"TOWNNAME":"永康區","LI":"中興里","LIN":"18鄰","STREET":"中華路","SECT":" ","MAREA":" ","LANE":"２８６巷","ALLEY":" ","HOUSE_NO":"３５號","E_COORD97":171654.70999999999,"N_COORD97":2545328.2400000002,"ADDRESS":"中華路２８６巷３５號","OBJECTID":298822},"geometry":{"x":171654.71000000183,"y":2545328.2400000039}},{"attributes":{"ID":298831,"DIS_CODE":0,"TOWNNAME":"中西區","LI":"文賢里","LIN":"4鄰","STREET":"西和路","SECT":" ","MAREA":" ","LANE":"２８７巷","ALLEY":" ","HOUSE_NO":"４號","E_COORD97":167246.79000000001,"N_COORD97":2544878.9399999999,"ADDRESS":"西和路２８７巷４號","OBJECTID":298823},"geometry":{"x":167246.7900000019,"y":2544878.9400000013}},{"attributes":{"ID":298832,"DIS_CODE":0,"TOWNNAME":"中西區","LI":"文賢里","LIN":"4鄰","STREET":"西和路","SECT":" ","MAREA":" ","LANE":"２８７巷","ALLEY":" ","HOUSE_NO":"５號","E_COORD97":167230.70000000001,"N_COORD97":2544875.9199999999,"ADDRESS":"西和路２８７巷５號","OBJECTID":298824},"geometry":{"x":167230.70000000205,"y":2544875.9200000037}},{"attributes":{"ID":298833,"DIS_CODE":0,"TOWNNAME":"中西區","LI":"文賢里","LIN":"4鄰","STREET":"西和路","SECT":" ","MAREA":" ","LANE":"２８７巷","ALLEY":" ","HOUSE_NO":"６號","E_COORD97":167243.23000000001,"N_COORD97":2544882.1400000001,"ADDRESS":"西和路２８７巷６號","OBJECTID":298825},"geometry":{"x":167243.23000000138,"y":2544882.1400000025}},{"attributes":{"ID":298834,"DIS_CODE":0,"TOWNNAME":"中西區","LI":"文賢里","LIN":"4鄰","STREET":"西和路","SECT":" ","MAREA":" ","LANE":"２８７巷","ALLEY":" ","HOUSE_NO":"７號","E_COORD97":167228.76999999999,"N_COORD97":2544879.5499999998,"ADDRESS":"西和路２８７巷７號","OBJECTID":298826},"geometry":{"x":167228.76999999955,"y":2544879.5500000026}},{"attributes":{"ID":298835,"DIS_CODE":0,"TOWNNAME":"中西區","LI":"文賢里","LIN":"4鄰","STREET":"西和路","SECT":" ","MAREA":" ","LANE":"２８７巷","ALLEY":" ","HOUSE_NO":"８號","E_COORD97":167241.31,"N_COORD97":2544885.5499999998,"ADDRESS":"西和路２８７巷８號","OBJECTID":298827},"geometry":{"x":167241.31000000052,"y":2544885.5500000007}},{"attributes":{"ID":298836,"DIS_CODE":0,"TOWNNAME":"中西區","LI":"開山里","LIN":"4鄰","STREET":"開山路","SECT":" ","MAREA":" ","LANE":"１２７巷","ALLEY":" ","HOUSE_NO":"５３號","E_COORD97":168897.79000000001,"N_COORD97":2543163.5299999998,"ADDRESS":"開山路１２７巷５３號","OBJECTID":298828},"geometry":{"x":168897.79000000004,"y":2543163.5300000012}},{"attributes":{"ID":298837,"DIS_CODE":0,"TOWNNAME":"中西區","LI":"開山里","LIN":"4鄰","STREET":"開山路","SECT":" ","MAREA":" ","LANE":"１２７巷","ALLEY":" ","HOUSE_NO":"５５號","E_COORD97":168907.94,"N_COORD97":2543162.77,"ADDRESS":"開山路１２７巷５５號","OBJECTID":298829},"geometry":{"x":168907.94000000134,"y":2543162.7699999996}},{"attributes":{"ID":298838,"DIS_CODE":0,"TOWNNAME":"中西區","LI":"開山里","LIN":"4鄰","STREET":"開山路","SECT":" ","MAREA":" ","LANE":"１２７巷","ALLEY":" ","HOUSE_NO":"５７號","E_COORD97":168913.76999999999,"N_COORD97":2543161.3700000001,"ADDRESS":"開山路１２７巷５７號","OBJECTID":298830},"geometry":{"x":168913.76999999955,"y":2543161.370000001}},{"attributes":{"ID":298839,"DIS_CODE":0,"TOWNNAME":"南區","LI":"新昌里","LIN":"8鄰","STREET":"五妃街","SECT":" ","MAREA":" ","LANE":"３８６巷","ALLEY":" ","HOUSE_NO":"２１號三樓之１","E_COORD97":167581.35000000001,"N_COORD97":2542682.1099999999,"ADDRESS":"五妃街３８６巷２１號三樓之１","OBJECTID":298831},"geometry":{"x":167581.34999999963,"y":2542682.1099999994}},{"attributes":{"ID":298840,"DIS_CODE":0,"TOWNNAME":"南區","LI":"新昌里","LIN":"8鄰","STREET":"五妃街","SECT":" ","MAREA":" ","LANE":"３８６巷","ALLEY":" ","HOUSE_NO":"２１號五樓之１","E_COORD97":167581.35000000001,"N_COORD97":2542682.1099999999,"ADDRESS":"五妃街３８６巷２１號五樓之１","OBJECTID":298832},"geometry":{"x":167581.34999999963,"y":2542682.1099999994}},{"attributes":{"ID":298841,"DIS_CODE":0,"TOWNNAME":"南區","LI":"新昌里","LIN":"8鄰","STREET":"五妃街","SECT":" ","MAREA":" ","LANE":"３８６巷","ALLEY":" ","HOUSE_NO":"２１號四樓之１","E_COORD97":167581.35000000001,"N_COORD97":2542682.1099999999,"ADDRESS":"五妃街３８６巷２１號四樓之１","OBJECTID":298833},"geometry":{"x":167581.34999999963,"y":2542682.1099999994}},{"attributes":{"ID":298842,"DIS_CODE":0,"TOWNNAME":"南區","LI":"新昌里","LIN":"8鄰","STREET":"五妃街","SECT":" ","MAREA":" ","LANE":"３８６巷","ALLEY":" ","HOUSE_NO":"２１號三樓之２","E_COORD97":167582.48999999999,"N_COORD97":2542688.1899999999,"ADDRESS":"五妃街３８６巷２１號三樓之２","OBJECTID":298834},"geometry":{"x":167582.49000000022,"y":2542688.1900000013}},{"attributes":{"ID":298843,"DIS_CODE":0,"TOWNNAME":"安南區","LI":"大安里","LIN":"14鄰","STREET":"義安街","SECT":" ","MAREA":" ","LANE":" ","ALLEY":" ","HOUSE_NO":"１０５號","E_COORD97":167445.87,"N_COORD97":2548096.3199999998,"ADDRESS":"義安街１０５號","OBJECTID":298835},"geometry":{"x":167445.87000000011,"y":2548096.3200000003}},{"attributes":{"ID":298844,"DIS_CODE":0,"TOWNNAME":"安南區","LI":"大安里","LIN":"14鄰","STREET":"義安街","SECT":" ","MAREA":" ","LANE":" ","ALLEY":" ","HOUSE_NO":"９０號","E_COORD97":167457.5,"N_COORD97":2548074.96,"ADDRESS":"義安街９０號","OBJECTID":298836},"geometry":{"x":167457.50000000093,"y":2548074.9600000028}},{"attributes":{"ID":298845,"DIS_CODE":0,"TOWNNAME":"安南區","LI":"大安里","LIN":"14鄰","STREET":"義安街","SECT":" ","MAREA":" ","LANE":" ","ALLEY":" ","HOUSE_NO":"９２號","E_COORD97":167459.5,"N_COORD97":2548079.1200000001,"ADDRESS":"義安街９２號","OBJECTID":298837},"geometry":{"x":167459.50000000093,"y":2548079.120000001}},{"attributes":{"ID":298846,"DIS_CODE":0,"TOWNNAME":"安南區","LI":"大安里","LIN":"14鄰","STREET":"義安街","SECT":" ","MAREA":" ","LANE":" ","ALLEY":" ","HOUSE_NO":"９４號","E_COORD97":167461.66,"N_COORD97":2548082.7000000002,"ADDRESS":"義安街９４號","OBJECTID":298838},"geometry":{"x":167461.66000000108,"y":2548082.6999999993}},{"attributes":{"ID":298847,"DIS_CODE":0,"TOWNNAME":"安南區","LI":"大安里","LIN":"14鄰","STREET":"義安街","SECT":" ","MAREA":" ","LANE":" ","ALLEY":" ","HOUSE_NO":"９６號","E_COORD97":167464.23999999999,"N_COORD97":2548087.29,"ADDRESS":"義安街９６號","OBJECTID":298839},"geometry":{"x":167464.23999999929,"y":2548087.290000001}},{"attributes":{"ID":298848,"DIS_CODE":0,"TOWNNAME":"安南區","LI":"大安里","LIN":"14鄰","STREET":"義安街","SECT":" ","MAREA":" ","LANE":" ","ALLEY":" ","HOUSE_NO":"９７號","E_COORD97":167434.67999999999,"N_COORD97":2548082.1299999999,"ADDRESS":"義安街９７號","OBJECTID":298840},"geometry":{"x":167434.6799999997,"y":2548082.1300000008}},{"attributes":{"ID":298849,"DIS_CODE":0,"TOWNNAME":"安南區","LI":"大安里","LIN":"14鄰","STREET":"義安街","SECT":" ","MAREA":" ","LANE":" ","ALLEY":" ","HOUSE_NO":"９８號","E_COORD97":167468.54000000001,"N_COORD97":2548090.73,"ADDRESS":"義安街９８號","OBJECTID":298841},"geometry":{"x":167468.54000000004,"y":2548090.7300000004}},{"attributes":{"ID":298850,"DIS_CODE":0,"TOWNNAME":"新化區","LI":"知義里","LIN":"14鄰","STREET":"復興路","SECT":" ","MAREA":" ","LANE":" ","ALLEY":" ","HOUSE_NO":"１１９號","E_COORD97":179473.01999999999,"N_COORD97":2547760.25,"ADDRESS":"復興路１１９號","OBJECTID":298842},"geometry":{"x":179473.01999999955,"y":2547760.2500000019}},{"attributes":{"ID":298851,"DIS_CODE":0,"TOWNNAME":"新營區","LI":"大宏里","LIN":"3鄰","STREET":"綠川北街","SECT":" ","MAREA":" ","LANE":" ","ALLEY":" ","HOUSE_NO":"１０９號","E_COORD97":180329.37173000001,"N_COORD97":2578707.9080099999,"ADDRESS":"綠川北街１０９號","OBJECTID":298843},"geometry":{"x":180329.37172999978,"y":2578707.9080100041}},{"attributes":{"ID":298852,"DIS_CODE":0,"TOWNNAME":"新化區","LI":"協興里","LIN":"14鄰","STREET":"太平街","SECT":" ","MAREA":" ","LANE":" ","ALLEY":" ","HOUSE_NO":"１６８號","E_COORD97":178232.51999999999,"N_COORD97":2548663.25,"ADDRESS":"太平街１６８號","OBJECTID":298844},"geometry":{"x":178232.51999999955,"y":2548663.25}},{"attributes":{"ID":298853,"DIS_CODE":0,"TOWNNAME":"白河區","LI":"白河里","LIN":"14鄰","STREET":"開明街","SECT":" ","MAREA":" ","LANE":" ","ALLEY":" ","HOUSE_NO":"２２５號","E_COORD97":190362.76999999999,"N_COORD97":2583189.8500000001,"ADDRESS":"開明街２２５號","OBJECTID":298845},"geometry":{"x":190362.77000000048,"y":2583189.8499999996}},{"attributes":{"ID":298854,"DIS_CODE":0,"TOWNNAME":"白河區","LI":"白河里","LIN":"14鄰","STREET":"開明街","SECT":" ","MAREA":" ","LANE":" ","ALLEY":" ","HOUSE_NO":"２２９號","E_COORD97":190350.78,"N_COORD97":2583197.02,"ADDRESS":"開明街２２９號","OBJECTID":298846},"geometry":{"x":190350.77999999933,"y":2583197.0200000014}},{"attributes":{"ID":298855,"DIS_CODE":0,"TOWNNAME":"安南區","LI":"安東里","LIN":"22鄰","STREET":"安和路","SECT":"二段","MAREA":" ","LANE":"５４巷","ALLEY":" ","HOUSE_NO":"２０號","E_COORD97":169525.87673300001,"N_COORD97":2548635.7006999999,"ADDRESS":"安和路二段５４巷２０號","OBJECTID":298847},"geometry":{"x":169525.87673299946,"y":2548635.7007040028}},{"attributes":{"ID":298856,"DIS_CODE":0,"TOWNNAME":"安南區","LI":"梅花里","LIN":"4鄰","STREET":"安中路","SECT":"一段","MAREA":" ","LANE":"６９９巷","ALLEY":" ","HOUSE_NO":"２８號","E_COORD97":167618.10000000001,"N_COORD97":2549128.0800000001,"ADDRESS":"安中路一段６９９巷２８號","OBJECTID":298848},"geometry":{"x":167618.09999999963,"y":2549128.0800000001}},{"attributes":{"ID":298857,"DIS_CODE":0,"TOWNNAME":"安南區","LI":"梅花里","LIN":"4鄰","STREET":"安中路","SECT":"一段","MAREA":" ","LANE":"６９９巷","ALLEY":" ","HOUSE_NO":"２９號","E_COORD97":167611.29999999999,"N_COORD97":2549134.6699999999,"ADDRESS":"安中路一段６９９巷２９號","OBJECTID":298849},"geometry":{"x":167611.30000000075,"y":2549134.6699999999}},{"attributes":{"ID":298858,"DIS_CODE":0,"TOWNNAME":"安南區","LI":"梅花里","LIN":"4鄰","STREET":"安中路","SECT":"一段","MAREA":" ","LANE":"６９９巷","ALLEY":" ","HOUSE_NO":"３０號","E_COORD97":167605.34,"N_COORD97":2549142.75,"ADDRESS":"安中路一段６９９巷３０號","OBJECTID":298850},"geometry":{"x":167605.33999999985,"y":2549142.7500000019}},{"attributes":{"ID":298859,"DIS_CODE":0,"TOWNNAME":"安南區","LI":"梅花里","LIN":"4鄰","STREET":"安中路","SECT":"一段","MAREA":" ","LANE":"６９９巷","ALLEY":" ","HOUSE_NO":"３２號之１","E_COORD97":167600.06,"N_COORD97":2549160.98,"ADDRESS":"安中路一段６９９巷３２號之１","OBJECTID":298851},"geometry":{"x":167600.05999999959,"y":2549160.9800000004}},{"attributes":{"ID":298860,"DIS_CODE":0,"TOWNNAME":"安南區","LI":"梅花里","LIN":"4鄰","STREET":"安中路","SECT":"一段","MAREA":" ","LANE":"６９９巷","ALLEY":" ","HOUSE_NO":"３３號","E_COORD97":167593.47,"N_COORD97":2549154.8199999998,"ADDRESS":"安中路一段６９９巷３３號","OBJECTID":298852},"geometry":{"x":167593.47000000067,"y":2549154.8200000003}},{"attributes":{"ID":298861,"DIS_CODE":0,"TOWNNAME":"安南區","LI":"梅花里","LIN":"4鄰","STREET":"安中路","SECT":"一段","MAREA":" ","LANE":"６９９巷","ALLEY":" ","HOUSE_NO":"３４號","E_COORD97":167588.14999999999,"N_COORD97":2549149.29,"ADDRESS":"安中路一段６９９巷３４號","OBJECTID":298853},"geometry":{"x":167588.15000000037,"y":2549149.2899999991}},{"attributes":{"ID":298862,"DIS_CODE":0,"TOWNNAME":"安南區","LI":"梅花里","LIN":"4鄰","STREET":"安中路","SECT":"一段","MAREA":" ","LANE":"６９９巷","ALLEY":" ","HOUSE_NO":"３５號","E_COORD97":167581.98000000001,"N_COORD97":2549142.9100000001,"ADDRESS":"安中路一段６９９巷３５號","OBJECTID":298854},"geometry":{"x":167581.98000000138,"y":2549142.9100000001}},{"attributes":{"ID":298863,"DIS_CODE":0,"TOWNNAME":"安南區","LI":"梅花里","LIN":"4鄰","STREET":"安中路","SECT":"一段","MAREA":" ","LANE":"６９９巷","ALLEY":" ","HOUSE_NO":"３６號","E_COORD97":167575.38,"N_COORD97":2549138.2400000002,"ADDRESS":"安中路一段６９９巷３６號","OBJECTID":298855},"geometry":{"x":167575.38000000082,"y":2549138.2400000002}},{"attributes":{"ID":298864,"DIS_CODE":0,"TOWNNAME":"安南區","LI":"梅花里","LIN":"4鄰","STREET":"安中路","SECT":"一段","MAREA":" ","LANE":"６９９巷","ALLEY":" ","HOUSE_NO":"３７號","E_COORD97":167570.06,"N_COORD97":2549132.9199999999,"ADDRESS":"安中路一段６９９巷３７號","OBJECTID":298856},"geometry":{"x":167570.06000000145,"y":2549132.9199999999}},{"attributes":{"ID":298865,"DIS_CODE":0,"TOWNNAME":"南區","LI":"新昌里","LIN":"8鄰","STREET":"五妃街","SECT":" ","MAREA":" ","LANE":"３８６巷","ALLEY":" ","HOUSE_NO":"２１號五樓之２","E_COORD97":167582.48999999999,"N_COORD97":2542688.1899999999,"ADDRESS":"五妃街３８６巷２１號五樓之２","OBJECTID":298857},"geometry":{"x":167582.49000000022,"y":2542688.1900000013}},{"attributes":{"ID":298866,"DIS_CODE":0,"TOWNNAME":"南區","LI":"新昌里","LIN":"8鄰","STREET":"五妃街","SECT":" ","MAREA":" ","LANE":"３８６巷","ALLEY":" ","HOUSE_NO":"２１號四樓之２","E_COORD97":167582.48999999999,"N_COORD97":2542688.1899999999,"ADDRESS":"五妃街３８６巷２１號四樓之２","OBJECTID":298858},"geometry":{"x":167582.49000000022,"y":2542688.1900000013}},{"attributes":{"ID":298867,"DIS_CODE":0,"TOWNNAME":"北區","LI":"光武里","LIN":"8鄰","STREET":"北門路","SECT":"二段","MAREA":" ","LANE":"５７７巷","ALLEY":" ","HOUSE_NO":"３號二樓之１","E_COORD97":169644.57999999999,"N_COORD97":2545745.27,"ADDRESS":"北門路二段５７７巷３號二樓之１","OBJECTID":298859},"geometry":{"x":169644.58000000007,"y":2545745.2700000014}},{"attributes":{"ID":298868,"DIS_CODE":0,"TOWNNAME":"北區","LI":"光武里","LIN":"8鄰","STREET":"北門路","SECT":"二段","MAREA":" ","LANE":"５７７巷","ALLEY":" ","HOUSE_NO":"３號二樓之２","E_COORD97":169644.57999999999,"N_COORD97":2545745.27,"ADDRESS":"北門路二段５７７巷３號二樓之２","OBJECTID":298860},"geometry":{"x":169644.58000000007,"y":2545745.2700000014}},{"attributes":{"ID":298869,"DIS_CODE":0,"TOWNNAME":"北區","LI":"光武里","LIN":"8鄰","STREET":"北門路","SECT":"二段","MAREA":" ","LANE":"５７７巷","ALLEY":" ","HOUSE_NO":"３號三樓之１","E_COORD97":169644.57999999999,"N_COORD97":2545745.27,"ADDRESS":"北門路二段５７７巷３號三樓之１","OBJECTID":298861},"geometry":{"x":169644.58000000007,"y":2545745.2700000014}},{"attributes":{"ID":298870,"DIS_CODE":0,"TOWNNAME":"北區","LI":"光武里","LIN":"8鄰","STREET":"北門路","SECT":"二段","MAREA":" ","LANE":"５７７巷","ALLEY":" ","HOUSE_NO":"３號四樓之１","E_COORD97":169644.57999999999,"N_COORD97":2545745.27,"ADDRESS":"北門路二段５７７巷３號四樓之１","OBJECTID":298862},"geometry":{"x":169644.58000000007,"y":2545745.2700000014}},{"attributes":{"ID":298871,"DIS_CODE":0,"TOWNNAME":"北區","LI":"光武里","LIN":"8鄰","STREET":"北門路","SECT":"二段","MAREA":" ","LANE":"５７７巷","ALLEY":" ","HOUSE_NO":"３號五樓之１","E_COORD97":169644.57999999999,"N_COORD97":2545745.27,"ADDRESS":"北門路二段５７７巷３號五樓之１","OBJECTID":298863},"geometry":{"x":169644.58000000007,"y":2545745.2700000014}},{"attributes":{"ID":298872,"DIS_CODE":0,"TOWNNAME":"北區","LI":"光武里","LIN":"8鄰","STREET":"北門路","SECT":"二段","MAREA":" ","LANE":"５７７巷","ALLEY":" ","HOUSE_NO":"３號六樓之１","E_COORD97":169644.57999999999,"N_COORD97":2545745.27,"ADDRESS":"北門路二段５７７巷３號六樓之１","OBJECTID":298864},"geometry":{"x":169644.58000000007,"y":2545745.2700000014}},{"attributes":{"ID":298873,"DIS_CODE":0,"TOWNNAME":"白河區","LI":"白河里","LIN":"14鄰","STREET":"開明街","SECT":" ","MAREA":" ","LANE":" ","ALLEY":" ","HOUSE_NO":"２３１號","E_COORD97":190346.78,"N_COORD97":2583198.9700000002,"ADDRESS":"開明街２３１號","OBJECTID":298865},"geometry":{"x":190346.78000000026,"y":2583198.9700000025}},{"attributes":{"ID":298874,"DIS_CODE":0,"TOWNNAME":"白河區","LI":"白河里","LIN":"14鄰","STREET":"開明街","SECT":" ","MAREA":" ","LANE":" ","ALLEY":" ","HOUSE_NO":"２３３號","E_COORD97":190341.85000000001,"N_COORD97":2583201.7999999998,"ADDRESS":"開明街２３３號","OBJECTID":298866},"geometry":{"x":190341.85000000056,"y":2583201.8000000007}},{"attributes":{"ID":298875,"DIS_CODE":0,"TOWNNAME":"白河區","LI":"白河里","LIN":"14鄰","STREET":"開明街","SECT":" ","MAREA":" ","LANE":" ","ALLEY":" ","HOUSE_NO":"２３７號","E_COORD97":190336.35000000001,"N_COORD97":2583205.4500000002,"ADDRESS":"開明街２３７號","OBJECTID":298867},"geometry":{"x":190336.35000000056,"y":2583205.4499999993}},{"attributes":{"ID":298876,"DIS_CODE":0,"TOWNNAME":"白河區","LI":"白河里","LIN":"14鄰","STREET":"開明街","SECT":" ","MAREA":" ","LANE":" ","ALLEY":" ","HOUSE_NO":"２３９號","E_COORD97":190331.47,"N_COORD97":2583208.23,"ADDRESS":"開明街２３９號","OBJECTID":298868},"geometry":{"x":190331.46999999974,"y":2583208.2300000004}},{"attributes":{"ID":298877,"DIS_CODE":0,"TOWNNAME":"白河區","LI":"白河里","LIN":"14鄰","STREET":"開明街","SECT":" ","MAREA":" ","LANE":" ","ALLEY":" ","HOUSE_NO":"２４１號","E_COORD97":190325.48999999999,"N_COORD97":2583211.8999999999,"ADDRESS":"開明街２４１號","OBJECTID":298869},"geometry":{"x":190325.49000000022,"y":2583211.9000000022}},{"attributes":{"ID":298878,"DIS_CODE":0,"TOWNNAME":"白河區","LI":"白河里","LIN":"14鄰","STREET":"開明街","SECT":" ","MAREA":" ","LANE":" ","ALLEY":" ","HOUSE_NO":"２５１號","E_COORD97":190303.54000000001,"N_COORD97":2583226.96,"ADDRESS":"開明街２５１號","OBJECTID":298870},"geometry":{"x":190303.54000000097,"y":2583226.9600000009}},{"attributes":{"ID":298879,"DIS_CODE":0,"TOWNNAME":"白河區","LI":"白河里","LIN":"14鄰","STREET":"新起街","SECT":" ","MAREA":" ","LANE":" ","ALLEY":" ","HOUSE_NO":"４７之２號","E_COORD97":190353.79999999999,"N_COORD97":2583160.8199999998,"ADDRESS":"新起街４７之２號","OBJECTID":298871},"geometry":{"x":190353.80000000075,"y":2583160.820000004}},{"attributes":{"ID":298880,"DIS_CODE":0,"TOWNNAME":"白河區","LI":"白河里","LIN":"14鄰","STREET":"新起街","SECT":" ","MAREA":" ","LANE":" ","ALLEY":" ","HOUSE_NO":"４７之３號","E_COORD97":190355.01000000001,"N_COORD97":2583165.0800000001,"ADDRESS":"新起街４７之３號","OBJECTID":298872},"geometry":{"x":190355.00999999978,"y":2583165.0800000001}},{"attributes":{"ID":298881,"DIS_CODE":0,"TOWNNAME":"白河區","LI":"白河里","LIN":"14鄰","STREET":"新起街","SECT":" ","MAREA":" ","LANE":" ","ALLEY":" ","HOUSE_NO":"４７之４號","E_COORD97":190356.22,"N_COORD97":2583169.3399999999,"ADDRESS":"新起街４７之４號","OBJECTID":298873},"geometry":{"x":190356.22000000067,"y":2583169.3399999999}},{"attributes":{"ID":298882,"DIS_CODE":0,"TOWNNAME":"白河區","LI":"白河里","LIN":"14鄰","STREET":"新起街","SECT":" ","MAREA":" ","LANE":" ","ALLEY":" ","HOUSE_NO":"４７之６號","E_COORD97":190358.64000000001,"N_COORD97":2583177.8700000001,"ADDRESS":"新起街４７之６號","OBJECTID":298874},"geometry":{"x":190358.6400000006,"y":2583177.870000001}},{"attributes":{"ID":298883,"DIS_CODE":0,"TOWNNAME":"白河區","LI":"白河里","LIN":"14鄰","STREET":"新起街","SECT":" ","MAREA":" ","LANE":" ","ALLEY":" ","HOUSE_NO":"４７之７號","E_COORD97":190359.85000000001,"N_COORD97":2583182.1299999999,"ADDRESS":"新起街４７之７號","OBJECTID":298875},"geometry":{"x":190359.85000000149,"y":2583182.1300000008}},{"attributes":{"ID":298884,"DIS_CODE":0,"TOWNNAME":"白河區","LI":"白河里","LIN":"14鄰","STREET":"新起街","SECT":" ","MAREA":" ","LANE":" ","ALLEY":" ","HOUSE_NO":"４７之８號","E_COORD97":190361.07000000001,"N_COORD97":2583186.3999999999,"ADDRESS":"新起街４７之８號","OBJECTID":298876},"geometry":{"x":190361.07000000123,"y":2583186.4000000004}},{"attributes":{"ID":298885,"DIS_CODE":0,"TOWNNAME":"永康區","LI":"三合里","LIN":"4鄰","STREET":"中華二路","SECT":" ","MAREA":" ","LANE":"８８巷","ALLEY":" ","HOUSE_NO":"２３號","E_COORD97":172072.62,"N_COORD97":2545526.7999999998,"ADDRESS":"中華二路８８巷２３號","OBJECTID":298877},"geometry":{"x":172072.62000000197,"y":2545526.8000000007}},{"attributes":{"ID":298886,"DIS_CODE":0,"TOWNNAME":"安南區","LI":"理想里","LIN":"4鄰","STREET":"海佃路","SECT":"二段","MAREA":" ","LANE":"３４２巷","ALLEY":" ","HOUSE_NO":"２３號","E_COORD97":166930.01000000001,"N_COORD97":2548574.1899999999,"ADDRESS":"海佃路二段３４２巷２３號","OBJECTID":298878},"geometry":{"x":166930.01000000071,"y":2548574.1899999995}},{"attributes":{"ID":298887,"DIS_CODE":0,"TOWNNAME":"安南區","LI":"理想里","LIN":"4鄰","STREET":"海佃路","SECT":"二段","MAREA":" ","LANE":"３４２巷","ALLEY":" ","HOUSE_NO":"２５號","E_COORD97":166932.57999999999,"N_COORD97":2548570.52,"ADDRESS":"海佃路二段３４２巷２５號","OBJECTID":298879},"geometry":{"x":166932.58000000007,"y":2548570.5200000014}},{"attributes":{"ID":298888,"DIS_CODE":0,"TOWNNAME":"安南區","LI":"原佃里","LIN":"4鄰","STREET":"本原街","SECT":"一段","MAREA":" ","LANE":"９４巷","ALLEY":" ","HOUSE_NO":"２３號","E_COORD97":167975.57000000001,"N_COORD97":2550237.9700000002,"ADDRESS":"本原街一段９４巷２３號","OBJECTID":298880},"geometry":{"x":167975.5700000003,"y":2550237.9700000025}},{"attributes":{"ID":298889,"DIS_CODE":0,"TOWNNAME":"安南區","LI":"原佃里","LIN":"4鄰","STREET":"本原街","SECT":"一段","MAREA":" ","LANE":"９４巷","ALLEY":" ","HOUSE_NO":"２５號","E_COORD97":167975.45999999999,"N_COORD97":2550242.46,"ADDRESS":"本原街一段９４巷２５號","OBJECTID":298881},"geometry":{"x":167975.45999999996,"y":2550242.4600000009}},{"attributes":{"ID":298890,"DIS_CODE":0,"TOWNNAME":"安南區","LI":"原佃里","LIN":"4鄰","STREET":"本原街","SECT":"一段","MAREA":" ","LANE":"９４巷","ALLEY":" ","HOUSE_NO":"２號","E_COORD97":168012.35999999999,"N_COORD97":2550185.3500000001,"ADDRESS":"本原街一段９４巷２號","OBJECTID":298882},"geometry":{"x":168012.36000000034,"y":2550185.3500000034}},{"attributes":{"ID":298891,"DIS_CODE":0,"TOWNNAME":"安南區","LI":"原佃里","LIN":"4鄰","STREET":"本原街","SECT":"一段","MAREA":" ","LANE":"９４巷","ALLEY":" ","HOUSE_NO":"４號","E_COORD97":168011.60999999999,"N_COORD97":2550190.04,"ADDRESS":"本原街一段９４巷４號","OBJECTID":298883},"geometry":{"x":168011.61000000127,"y":2550190.0400000028}},{"attributes":{"ID":298892,"DIS_CODE":0,"TOWNNAME":"安南區","LI":"原佃里","LIN":"4鄰","STREET":"本原街","SECT":"一段","MAREA":" ","LANE":"９４巷","ALLEY":" ","HOUSE_NO":"１８號","E_COORD97":168007.85999999999,"N_COORD97":2550231.1400000001,"ADDRESS":"本原街一段９４巷１８號","OBJECTID":298884},"geometry":{"x":168007.8600000022,"y":2550231.1400000006}},{"attributes":{"ID":298893,"DIS_CODE":0,"TOWNNAME":"安南區","LI":"原佃里","LIN":"4鄰","STREET":"本原街","SECT":"一段","MAREA":" ","LANE":"９４巷","ALLEY":" ","HOUSE_NO":"１號","E_COORD97":167981.67000000001,"N_COORD97":2550183,"ADDRESS":"本原街一段９４巷１號","OBJECTID":298885},"geometry":{"x":167981.67000000086,"y":2550183}},{"attributes":{"ID":298894,"DIS_CODE":0,"TOWNNAME":"安南區","LI":"原佃里","LIN":"4鄰","STREET":"本原街","SECT":"一段","MAREA":" ","LANE":"９４巷","ALLEY":" ","HOUSE_NO":"２０號","E_COORD97":168007.10999999999,"N_COORD97":2550236.1600000001,"ADDRESS":"本原街一段９４巷２０號","OBJECTID":298886},"geometry":{"x":168007.11000000034,"y":2550236.160000002}},{"attributes":{"ID":298895,"DIS_CODE":0,"TOWNNAME":"安南區","LI":"原佃里","LIN":"4鄰","STREET":"本原街","SECT":"一段","MAREA":" ","LANE":"９４巷","ALLEY":" ","HOUSE_NO":"２２號","E_COORD97":168006.35999999999,"N_COORD97":2550240.8599999999,"ADDRESS":"本原街一段９４巷２２號","OBJECTID":298887},"geometry":{"x":168006.36000000127,"y":2550240.8599999994}},{"attributes":{"ID":298896,"DIS_CODE":0,"TOWNNAME":"北區","LI":"光武里","LIN":"8鄰","STREET":"北門路","SECT":"二段","MAREA":" ","LANE":"５７７巷","ALLEY":" ","HOUSE_NO":"３號七樓之１","E_COORD97":169644.57999999999,"N_COORD97":2545745.27,"ADDRESS":"北門路二段５７７巷３號七樓之１","OBJECTID":298888},"geometry":{"x":169644.58000000007,"y":2545745.2700000014}},{"attributes":{"ID":298897,"DIS_CODE":0,"TOWNNAME":"北區","LI":"光武里","LIN":"8鄰","STREET":"北門路","SECT":"二段","MAREA":" ","LANE":"５７７巷","ALLEY":" ","HOUSE_NO":"３號八樓之１","E_COORD97":169644.57999999999,"N_COORD97":2545745.27,"ADDRESS":"北門路二段５７７巷３號八樓之１","OBJECTID":298889},"geometry":{"x":169644.58000000007,"y":2545745.2700000014}},{"attributes":{"ID":298898,"DIS_CODE":0,"TOWNNAME":"北區","LI":"光武里","LIN":"8鄰","STREET":"北門路","SECT":"二段","MAREA":" ","LANE":"５７７巷","ALLEY":" ","HOUSE_NO":"３號九樓之１","E_COORD97":169644.57999999999,"N_COORD97":2545745.27,"ADDRESS":"北門路二段５７７巷３號九樓之１","OBJECTID":298890},"geometry":{"x":169644.58000000007,"y":2545745.2700000014}},{"attributes":{"ID":298899,"DIS_CODE":0,"TOWNNAME":"北區","LI":"光武里","LIN":"8鄰","STREET":"北門路","SECT":"二段","MAREA":" ","LANE":"５７７巷","ALLEY":" ","HOUSE_NO":"３號十樓之１","E_COORD97":169644.57999999999,"N_COORD97":2545745.27,"ADDRESS":"北門路二段５７７巷３號十樓之１","OBJECTID":298891},"geometry":{"x":169644.58000000007,"y":2545745.2700000014}},{"attributes":{"ID":298900,"DIS_CODE":0,"TOWNNAME":"北區","LI":"光武里","LIN":"8鄰","STREET":"北門路","SECT":"二段","MAREA":" ","LANE":"５７７巷","ALLEY":" ","HOUSE_NO":"３號三樓之２","E_COORD97":169644.57999999999,"N_COORD97":2545745.27,"ADDRESS":"北門路二段５７７巷３號三樓之２","OBJECTID":298892},"geometry":{"x":169644.58000000007,"y":2545745.2700000014}},{"attributes":{"ID":298901,"DIS_CODE":0,"TOWNNAME":"北區","LI":"光武里","LIN":"8鄰","STREET":"北門路","SECT":"二段","MAREA":" ","LANE":"５７７巷","ALLEY":" ","HOUSE_NO":"３號四樓之２","E_COORD97":169644.57999999999,"N_COORD97":2545745.27,"ADDRESS":"北門路二段５７７巷３號四樓之２","OBJECTID":298893},"geometry":{"x":169644.58000000007,"y":2545745.2700000014}},{"attributes":{"ID":298902,"DIS_CODE":0,"TOWNNAME":"白河區","LI":"白河里","LIN":"14鄰","STREET":"新起街","SECT":" ","MAREA":" ","LANE":" ","ALLEY":" ","HOUSE_NO":"４７號","E_COORD97":190351.37,"N_COORD97":2583152.29,"ADDRESS":"新起街４７號","OBJECTID":298894},"geometry":{"x":190351.37000000011,"y":2583152.2899999991}},{"attributes":{"ID":298903,"DIS_CODE":0,"TOWNNAME":"白河區","LI":"白河里","LIN":"14鄰","STREET":"新起街","SECT":" ","MAREA":" ","LANE":" ","ALLEY":" ","HOUSE_NO":"６６號","E_COORD97":190378.44,"N_COORD97":2583164.1200000001,"ADDRESS":"新起街６６號","OBJECTID":298895},"geometry":{"x":190378.44000000041,"y":2583164.1200000029}},{"attributes":{"ID":298904,"DIS_CODE":0,"TOWNNAME":"白河區","LI":"白河里","LIN":"14鄰","STREET":"新富街","SECT":" ","MAREA":" ","LANE":" ","ALLEY":" ","HOUSE_NO":"１９號","E_COORD97":190284.57999999999,"N_COORD97":2583158.8199999998,"ADDRESS":"新富街１９號","OBJECTID":298896},"geometry":{"x":190284.58000000101,"y":2583158.8200000022}},{"attributes":{"ID":298905,"DIS_CODE":0,"TOWNNAME":"白河區","LI":"白河里","LIN":"14鄰","STREET":"新富街","SECT":" ","MAREA":" ","LANE":" ","ALLEY":" ","HOUSE_NO":"２１號","E_COORD97":190295.60999999999,"N_COORD97":2583184.3500000001,"ADDRESS":"新富街２１號","OBJECTID":298897},"geometry":{"x":190295.61000000034,"y":2583184.3500000015}},{"attributes":{"ID":298906,"DIS_CODE":0,"TOWNNAME":"白河區","LI":"白河里","LIN":"14鄰","STREET":"新富街","SECT":" ","MAREA":" ","LANE":" ","ALLEY":" ","HOUSE_NO":"２５號","E_COORD97":190300.23999999999,"N_COORD97":2583196.9399999999,"ADDRESS":"新富街２５號","OBJECTID":298898},"geometry":{"x":190300.24000000209,"y":2583196.9400000013}},{"attributes":{"ID":298907,"DIS_CODE":0,"TOWNNAME":"白河區","LI":"白河里","LIN":"14鄰","STREET":"新富街","SECT":" ","MAREA":" ","LANE":" ","ALLEY":" ","HOUSE_NO":"３４之１號","E_COORD97":190304.42000000001,"N_COORD97":2583168.3900000001,"ADDRESS":"新富街３４之１號","OBJECTID":298899},"geometry":{"x":190304.42000000086,"y":2583168.3900000025}},{"attributes":{"ID":298908,"DIS_CODE":0,"TOWNNAME":"白河區","LI":"白河里","LIN":"14鄰","STREET":"新富街","SECT":" ","MAREA":" ","LANE":" ","ALLEY":" ","HOUSE_NO":"３４之２號","E_COORD97":190306.04999999999,"N_COORD97":2583173.23,"ADDRESS":"新富街３４之２號","OBJECTID":298900},"geometry":{"x":190306.04999999888,"y":2583173.2300000023}},{"attributes":{"ID":298909,"DIS_CODE":0,"TOWNNAME":"白河區","LI":"白河里","LIN":"14鄰","STREET":"新富街","SECT":" ","MAREA":" ","LANE":" ","ALLEY":" ","HOUSE_NO":"３６之２號","E_COORD97":190313.23999999999,"N_COORD97":2583190.6800000002,"ADDRESS":"新富街３６之２號","OBJECTID":298901},"geometry":{"x":190313.24000000022,"y":2583190.6799999997}},{"attributes":{"ID":298910,"DIS_CODE":0,"TOWNNAME":"白河區","LI":"白河里","LIN":"14鄰","STREET":"新富街","SECT":" ","MAREA":" ","LANE":" ","ALLEY":" ","HOUSE_NO":"３６號","E_COORD97":190310.12,"N_COORD97":2583181.7200000002,"ADDRESS":"新富街３６號","OBJECTID":298902},"geometry":{"x":190310.12000000104,"y":2583181.7200000007}},{"attributes":{"ID":298911,"DIS_CODE":0,"TOWNNAME":"白河區","LI":"永安里","LIN":"14鄰","STREET":"新興路","SECT":" ","MAREA":" ","LANE":" ","ALLEY":" ","HOUSE_NO":"５２６號","E_COORD97":190390.29999999999,"N_COORD97":2583487.2799999998,"ADDRESS":"新興路５２６號","OBJECTID":298903},"geometry":{"x":190390.29999999981,"y":2583487.2800000012}},{"attributes":{"ID":298912,"DIS_CODE":0,"TOWNNAME":"白河區","LI":"永安里","LIN":"14鄰","STREET":"新興路","SECT":" ","MAREA":" ","LANE":" ","ALLEY":" ","HOUSE_NO":"５２８號","E_COORD97":190332,"N_COORD97":2583494.6699999999,"ADDRESS":"新興路５２８號","OBJECTID":298904},"geometry":{"x":190331.99999999907,"y":2583494.6700000018}},{"attributes":{"ID":298913,"DIS_CODE":0,"TOWNNAME":"新營區","LI":"南興里","LIN":"2鄰","STREET":"建業路","SECT":" ","MAREA":" ","LANE":" ","ALLEY":" ","HOUSE_NO":"２號之５","E_COORD97":179688.156491,"N_COORD97":2577590.9140699999,"ADDRESS":"建業路２號之５","OBJECTID":298905},"geometry":{"x":179688.15649100114,"y":2577590.914069999}},{"attributes":{"ID":298914,"DIS_CODE":0,"TOWNNAME":"安南區","LI":"溪東里","LIN":"4鄰","STREET":"府安路","SECT":"五段","MAREA":" ","LANE":"９８巷","ALLEY":" ","HOUSE_NO":"５號","E_COORD97":168047.60999999999,"N_COORD97":2547154.0299999998,"ADDRESS":"府安路五段９８巷５號","OBJECTID":298906},"geometry":{"x":168047.61000000127,"y":2547154.0300000012}},{"attributes":{"ID":298915,"DIS_CODE":0,"TOWNNAME":"安南區","LI":"溪東里","LIN":"4鄰","STREET":"府安路","SECT":"五段","MAREA":" ","LANE":"９８巷","ALLEY":" ","HOUSE_NO":"６號","E_COORD97":168072.48000000001,"N_COORD97":2547159.6299999999,"ADDRESS":"府安路五段９８巷６號","OBJECTID":298907},"geometry":{"x":168072.48000000045,"y":2547159.6300000008}},{"attributes":{"ID":298916,"DIS_CODE":0,"TOWNNAME":"安南區","LI":"溪東里","LIN":"4鄰","STREET":"府安路","SECT":"五段","MAREA":" ","LANE":"９８巷","ALLEY":" ","HOUSE_NO":"７號","E_COORD97":168046.95000000001,"N_COORD97":2547158.0800000001,"ADDRESS":"府安路五段９８巷７號","OBJECTID":298908},"geometry":{"x":168046.95000000019,"y":2547158.0800000019}},{"attributes":{"ID":298917,"DIS_CODE":0,"TOWNNAME":"安南區","LI":"溪東里","LIN":"4鄰","STREET":"府安路","SECT":"五段","MAREA":" ","LANE":"９８巷","ALLEY":" ","HOUSE_NO":"８號","E_COORD97":168071.53,"N_COORD97":2547162.8599999999,"ADDRESS":"府安路五段９８巷８號","OBJECTID":298909},"geometry":{"x":168071.53000000119,"y":2547162.8599999994}},{"attributes":{"ID":298918,"DIS_CODE":0,"TOWNNAME":"安南區","LI":"溪東里","LIN":"4鄰","STREET":"府安路","SECT":"五段","MAREA":" ","LANE":"９８巷","ALLEY":" ","HOUSE_NO":"９號","E_COORD97":168046.45999999999,"N_COORD97":2547162.2799999998,"ADDRESS":"府安路五段９８巷９號","OBJECTID":298910},"geometry":{"x":168046.46000000089,"y":2547162.2800000012}},{"attributes":{"ID":298919,"DIS_CODE":0,"TOWNNAME":"中西區","LI":"西賢里","LIN":"4鄰","STREET":"湖美街","SECT":" ","MAREA":" ","LANE":"１７７巷","ALLEY":" ","HOUSE_NO":"１０號","E_COORD97":165895.25,"N_COORD97":2544853.98,"ADDRESS":"湖美街１７７巷１０號","OBJECTID":298911},"geometry":{"x":165895.25,"y":2544853.9800000004}},{"attributes":{"ID":298920,"DIS_CODE":0,"TOWNNAME":"北區","LI":"光武里","LIN":"8鄰","STREET":"北門路","SECT":"二段","MAREA":" ","LANE":"５７７巷","ALLEY":" ","HOUSE_NO":"３號五樓之２","E_COORD97":169644.57999999999,"N_COORD97":2545745.27,"ADDRESS":"北門路二段５７７巷３號五樓之２","OBJECTID":298912},"geometry":{"x":169644.58000000007,"y":2545745.2700000014}},{"attributes":{"ID":298921,"DIS_CODE":0,"TOWNNAME":"北區","LI":"光武里","LIN":"8鄰","STREET":"北門路","SECT":"二段","MAREA":" ","LANE":"５７７巷","ALLEY":" ","HOUSE_NO":"３號六樓之２","E_COORD97":169644.57999999999,"N_COORD97":2545745.27,"ADDRESS":"北門路二段５７７巷３號六樓之２","OBJECTID":298913},"geometry":{"x":169644.58000000007,"y":2545745.2700000014}},{"attributes":{"ID":298922,"DIS_CODE":0,"TOWNNAME":"北區","LI":"光武里","LIN":"8鄰","STREET":"北門路","SECT":"二段","MAREA":" ","LANE":"５７７巷","ALLEY":" ","HOUSE_NO":"３號七樓之２","E_COORD97":169644.57999999999,"N_COORD97":2545745.27,"ADDRESS":"北門路二段５７７巷３號七樓之２","OBJECTID":298914},"geometry":{"x":169644.58000000007,"y":2545745.2700000014}},{"attributes":{"ID":298923,"DIS_CODE":0,"TOWNNAME":"北區","LI":"光武里","LIN":"8鄰","STREET":"北門路","SECT":"二段","MAREA":" ","LANE":"５７７巷","ALLEY":" ","HOUSE_NO":"３號八樓之２","E_COORD97":169644.57999999999,"N_COORD97":2545745.27,"ADDRESS":"北門路二段５７７巷３號八樓之２","OBJECTID":298915},"geometry":{"x":169644.58000000007,"y":2545745.2700000014}},{"attributes":{"ID":298924,"DIS_CODE":0,"TOWNNAME":"北區","LI":"光武里","LIN":"8鄰","STREET":"北門路","SECT":"二段","MAREA":" ","LANE":"５７７巷","ALLEY":" ","HOUSE_NO":"３號九樓之２","E_COORD97":169644.57999999999,"N_COORD97":2545745.27,"ADDRESS":"北門路二段５７７巷３號九樓之２","OBJECTID":298916},"geometry":{"x":169644.58000000007,"y":2545745.2700000014}},{"attributes":{"ID":298925,"DIS_CODE":0,"TOWNNAME":"北區","LI":"光武里","LIN":"8鄰","STREET":"北門路","SECT":"二段","MAREA":" ","LANE":"５７７巷","ALLEY":" ","HOUSE_NO":"３號十樓之２","E_COORD97":169644.57999999999,"N_COORD97":2545745.27,"ADDRESS":"北門路二段５７７巷３號十樓之２","OBJECTID":298917},"geometry":{"x":169644.58000000007,"y":2545745.2700000014}},{"attributes":{"ID":298926,"DIS_CODE":0,"TOWNNAME":"北區","LI":"光武里","LIN":"8鄰","STREET":"北門路","SECT":"二段","MAREA":" ","LANE":"５７７巷","ALLEY":" ","HOUSE_NO":"３號三樓之３","E_COORD97":169644.57999999999,"N_COORD97":2545745.27,"ADDRESS":"北門路二段５７７巷３號三樓之３","OBJECTID":298918},"geometry":{"x":169644.58000000007,"y":2545745.2700000014}},{"attributes":{"ID":298927,"DIS_CODE":0,"TOWNNAME":"北區","LI":"光武里","LIN":"8鄰","STREET":"北門路","SECT":"二段","MAREA":" ","LANE":"５７７巷","ALLEY":" ","HOUSE_NO":"３號四樓之３","E_COORD97":169644.57999999999,"N_COORD97":2545745.27,"ADDRESS":"北門路二段５７７巷３號四樓之３","OBJECTID":298919},"geometry":{"x":169644.58000000007,"y":2545745.2700000014}},{"attributes":{"ID":298928,"DIS_CODE":0,"TOWNNAME":"北區","LI":"光武里","LIN":"8鄰","STREET":"北門路","SECT":"二段","MAREA":" ","LANE":"５７７巷","ALLEY":" ","HOUSE_NO":"３號五樓之３","E_COORD97":169644.57999999999,"N_COORD97":2545745.27,"ADDRESS":"北門路二段５７７巷３號五樓之３","OBJECTID":298920},"geometry":{"x":169644.58000000007,"y":2545745.2700000014}},{"attributes":{"ID":298929,"DIS_CODE":0,"TOWNNAME":"北區","LI":"光武里","LIN":"8鄰","STREET":"北門路","SECT":"二段","MAREA":" ","LANE":"５７７巷","ALLEY":" ","HOUSE_NO":"３號六樓之３","E_COORD97":169644.57999999999,"N_COORD97":2545745.27,"ADDRESS":"北門路二段５７７巷３號六樓之３","OBJECTID":298921},"geometry":{"x":169644.58000000007,"y":2545745.2700000014}},{"attributes":{"ID":298930,"DIS_CODE":0,"TOWNNAME":"北區","LI":"光武里","LIN":"8鄰","STREET":"北門路","SECT":"二段","MAREA":" ","LANE":"５７７巷","ALLEY":" ","HOUSE_NO":"３號七樓之３","E_COORD97":169644.57999999999,"N_COORD97":2545745.27,"ADDRESS":"北門路二段５７７巷３號七樓之３","OBJECTID":298922},"geometry":{"x":169644.58000000007,"y":2545745.2700000014}},{"attributes":{"ID":298931,"DIS_CODE":0,"TOWNNAME":"北區","LI":"光武里","LIN":"8鄰","STREET":"北門路","SECT":"二段","MAREA":" ","LANE":"５７７巷","ALLEY":" ","HOUSE_NO":"３號八樓之３","E_COORD97":169644.57999999999,"N_COORD97":2545745.27,"ADDRESS":"北門路二段５７７巷３號八樓之３","OBJECTID":298923},"geometry":{"x":169644.58000000007,"y":2545745.2700000014}},{"attributes":{"ID":298932,"DIS_CODE":0,"TOWNNAME":"白河區","LI":"永安里","LIN":"14鄰","STREET":"新興路","SECT":" ","MAREA":" ","LANE":" ","ALLEY":" ","HOUSE_NO":"５３６號","E_COORD97":190167.32999999999,"N_COORD97":2583578.2400000002,"ADDRESS":"新興路５３６號","OBJECTID":298924},"geometry":{"x":190167.33000000194,"y":2583578.2399999984}},{"attributes":{"ID":298933,"DIS_CODE":0,"TOWNNAME":"白河區","LI":"永安里","LIN":"14鄰","STREET":"新興路","SECT":" ","MAREA":" ","LANE":" ","ALLEY":" ","HOUSE_NO":"５４１號","E_COORD97":190351.23000000001,"N_COORD97":2583465.02,"ADDRESS":"新興路５４１號","OBJECTID":298925},"geometry":{"x":190351.23000000045,"y":2583465.0200000014}},{"attributes":{"ID":298934,"DIS_CODE":0,"TOWNNAME":"白河區","LI":"永安里","LIN":"14鄰","STREET":"新興路","SECT":" ","MAREA":" ","LANE":" ","ALLEY":" ","HOUSE_NO":"５４３號","E_COORD97":190344.07999999999,"N_COORD97":2583466.4199999999,"ADDRESS":"新興路５４３號","OBJECTID":298926},"geometry":{"x":190344.08000000101,"y":2583466.4200000018}},{"attributes":{"ID":298935,"DIS_CODE":0,"TOWNNAME":"西港區","LI":"慶安里","LIN":"14鄰","STREET":"進學街","SECT":" ","MAREA":" ","LANE":" ","ALLEY":" ","HOUSE_NO":"１１１號","E_COORD97":167962.53,"N_COORD97":2558025.7999999998,"ADDRESS":"進學街１１１號","OBJECTID":298927},"geometry":{"x":167962.53000000212,"y":2558025.8000000026}},{"attributes":{"ID":298936,"DIS_CODE":0,"TOWNNAME":"西港區","LI":"慶安里","LIN":"14鄰","STREET":"進學街","SECT":" ","MAREA":" ","LANE":" ","ALLEY":" ","HOUSE_NO":"７５號","E_COORD97":168058.54999999999,"N_COORD97":2558031.7000000002,"ADDRESS":"進學街７５號","OBJECTID":298928},"geometry":{"x":168058.55000000168,"y":2558031.7000000011}},{"attributes":{"ID":298937,"DIS_CODE":0,"TOWNNAME":"西港區","LI":"慶安里","LIN":"14鄰","STREET":"進學街","SECT":" ","MAREA":" ","LANE":" ","ALLEY":" ","HOUSE_NO":"７９號","E_COORD97":168047.06,"N_COORD97":2558032.1800000002,"ADDRESS":"進學街７９號","OBJECTID":298929},"geometry":{"x":168047.06000000052,"y":2558032.1800000016}},{"attributes":{"ID":298938,"DIS_CODE":0,"TOWNNAME":"西港區","LI":"慶安里","LIN":"14鄰","STREET":"進學街","SECT":" ","MAREA":" ","LANE":" ","ALLEY":" ","HOUSE_NO":"８７號","E_COORD97":168031.51999999999,"N_COORD97":2558029.3300000001,"ADDRESS":"進學街８７號","OBJECTID":298930},"geometry":{"x":168031.52000000048,"y":2558029.3300000019}},{"attributes":{"ID":298939,"DIS_CODE":0,"TOWNNAME":"中西區","LI":"藥王里","LIN":"4鄰","STREET":"大福街","SECT":" ","MAREA":" ","LANE":"２７巷","ALLEY":" ","HOUSE_NO":"２３號","E_COORD97":167250.23000000001,"N_COORD97":2544403.0699999998,"ADDRESS":"大福街２７巷２３號","OBJECTID":298931},"geometry":{"x":167250.23000000045,"y":2544403.0700000003}},{"attributes":{"ID":298940,"DIS_CODE":0,"TOWNNAME":"中西區","LI":"藥王里","LIN":"4鄰","STREET":"大福街","SECT":" ","MAREA":" ","LANE":"２７巷","ALLEY":" ","HOUSE_NO":"２５號","E_COORD97":167246.12,"N_COORD97":2544404.2799999998,"ADDRESS":"大福街２７巷２５號","OBJECTID":298932},"geometry":{"x":167246.12000000011,"y":2544404.2799999993}},{"attributes":{"ID":298941,"DIS_CODE":0,"TOWNNAME":"中西區","LI":"藥王里","LIN":"4鄰","STREET":"大福街","SECT":" ","MAREA":" ","LANE":"２７巷","ALLEY":" ","HOUSE_NO":"２７號","E_COORD97":167242.48999999999,"N_COORD97":2544405.73,"ADDRESS":"大福街２７巷２７號","OBJECTID":298933},"geometry":{"x":167242.49000000115,"y":2544405.7300000004}},{"attributes":{"ID":298942,"DIS_CODE":0,"TOWNNAME":"中西區","LI":"藥王里","LIN":"4鄰","STREET":"大福街","SECT":" ","MAREA":" ","LANE":"２７巷","ALLEY":" ","HOUSE_NO":"３號","E_COORD97":167291.38,"N_COORD97":2544389.29,"ADDRESS":"大福街２７巷３號","OBJECTID":298934},"geometry":{"x":167291.37999999989,"y":2544389.2899999991}},{"attributes":{"ID":298943,"DIS_CODE":0,"TOWNNAME":"北區","LI":"光武里","LIN":"8鄰","STREET":"北門路","SECT":"二段","MAREA":" ","LANE":"５７７巷","ALLEY":" ","HOUSE_NO":"３號九樓之３","E_COORD97":169644.57999999999,"N_COORD97":2545745.27,"ADDRESS":"北門路二段５７７巷３號九樓之３","OBJECTID":298935},"geometry":{"x":169644.58000000007,"y":2545745.2700000014}},{"attributes":{"ID":298944,"DIS_CODE":0,"TOWNNAME":"北區","LI":"光武里","LIN":"8鄰","STREET":"北門路","SECT":"二段","MAREA":" ","LANE":"５７７巷","ALLEY":" ","HOUSE_NO":"３號十樓之３","E_COORD97":169644.57999999999,"N_COORD97":2545745.27,"ADDRESS":"北門路二段５７７巷３號十樓之３","OBJECTID":298936},"geometry":{"x":169644.58000000007,"y":2545745.2700000014}},{"attributes":{"ID":298945,"DIS_CODE":0,"TOWNNAME":"北區","LI":"光武里","LIN":"8鄰","STREET":"北門路","SECT":"二段","MAREA":" ","LANE":"５７７巷","ALLEY":" ","HOUSE_NO":"３號三樓之５","E_COORD97":169644.57999999999,"N_COORD97":2545745.27,"ADDRESS":"北門路二段５７７巷３號三樓之５","OBJECTID":298937},"geometry":{"x":169644.58000000007,"y":2545745.2700000014}},{"attributes":{"ID":298946,"DIS_CODE":0,"TOWNNAME":"北區","LI":"光武里","LIN":"8鄰","STREET":"北門路","SECT":"二段","MAREA":" ","LANE":"５７７巷","ALLEY":" ","HOUSE_NO":"３號四樓之５","E_COORD97":169644.57999999999,"N_COORD97":2545745.27,"ADDRESS":"北門路二段５７７巷３號四樓之５","OBJECTID":298938},"geometry":{"x":169644.58000000007,"y":2545745.2700000014}},{"attributes":{"ID":298947,"DIS_CODE":0,"TOWNNAME":"西港區","LI":"慶安里","LIN":"14鄰","STREET":"進學街","SECT":" ","MAREA":" ","LANE":" ","ALLEY":" ","HOUSE_NO":"８９號","E_COORD97":168035.78,"N_COORD97":2558029.2999999998,"ADDRESS":"進學街８９號","OBJECTID":298939},"geometry":{"x":168035.78000000119,"y":2558029.3000000026}},{"attributes":{"ID":298948,"DIS_CODE":0,"TOWNNAME":"西港區","LI":"慶安里","LIN":"14鄰","STREET":"進學街","SECT":" ","MAREA":" ","LANE":" ","ALLEY":" ","HOUSE_NO":"９１號","E_COORD97":168025.92000000001,"N_COORD97":2558028.4199999999,"ADDRESS":"進學街９１號","OBJECTID":298940},"geometry":{"x":168025.92000000086,"y":2558028.4200000018}},{"attributes":{"ID":298949,"DIS_CODE":0,"TOWNNAME":"西港區","LI":"慶安里","LIN":"14鄰","STREET":"進學街","SECT":" ","MAREA":" ","LANE":" ","ALLEY":" ","HOUSE_NO":"９３號","E_COORD97":168013.29000000001,"N_COORD97":2558026.2799999998,"ADDRESS":"進學街９３號","OBJECTID":298941},"geometry":{"x":168013.29000000097,"y":2558026.2799999993}},{"attributes":{"ID":298950,"DIS_CODE":0,"TOWNNAME":"東區","LI":"關聖里","LIN":"14鄰","STREET":"裕智街","SECT":" ","MAREA":" ","LANE":" ","ALLEY":" ","HOUSE_NO":"２１號","E_COORD97":172099.42999999999,"N_COORD97":2542976.3500000001,"ADDRESS":"裕智街２１號","OBJECTID":298942},"geometry":{"x":172099.43000000063,"y":2542976.3499999996}},{"attributes":{"ID":298951,"DIS_CODE":0,"TOWNNAME":"永康區","LI":"南灣里","LIN":"14鄰","STREET":"大灣路","SECT":" ","MAREA":" ","LANE":" ","ALLEY":" ","HOUSE_NO":"６４０號之３","E_COORD97":174485.23999999999,"N_COORD97":2544603.7999999998,"ADDRESS":"大灣路６４０號之３","OBJECTID":298943},"geometry":{"x":174485.24000000022,"y":2544603.8000000026}},{"attributes":{"ID":298952,"DIS_CODE":0,"TOWNNAME":"後壁區","LI":"烏樹里","LIN":"4鄰","STREET":" ","SECT":" ","MAREA":"烏樹林","LANE":" ","ALLEY":" ","HOUSE_NO":"４４號之３１","E_COORD97":186115.10999999999,"N_COORD97":2581540.0299999998,"ADDRESS":"烏樹林４４號之３１","OBJECTID":298944},"geometry":{"x":186115.11000000034,"y":2581540.0299999993}},{"attributes":{"ID":298953,"DIS_CODE":0,"TOWNNAME":"後壁區","LI":"烏樹里","LIN":"4鄰","STREET":" ","SECT":" ","MAREA":"烏樹林","LANE":" ","ALLEY":" ","HOUSE_NO":"４４號之３","E_COORD97":186198.84,"N_COORD97":2581528.29,"ADDRESS":"烏樹林４４號之３","OBJECTID":298945},"geometry":{"x":186198.84000000078,"y":2581528.2899999991}},{"attributes":{"ID":298954,"DIS_CODE":0,"TOWNNAME":"後壁區","LI":"烏樹里","LIN":"4鄰","STREET":" ","SECT":" ","MAREA":"烏樹林","LANE":" ","ALLEY":" ","HOUSE_NO":"４４號之４","E_COORD97":186194.75,"N_COORD97":2581528.5899999999,"ADDRESS":"烏樹林４４號之４","OBJECTID":298946},"geometry":{"x":186194.75000000093,"y":2581528.5900000017}},{"attributes":{"ID":298955,"DIS_CODE":0,"TOWNNAME":"後壁區","LI":"烏樹里","LIN":"4鄰","STREET":" ","SECT":" ","MAREA":"烏樹林","LANE":" ","ALLEY":" ","HOUSE_NO":"４４號之５","E_COORD97":186190.44,"N_COORD97":2581528.9900000002,"ADDRESS":"烏樹林４４號之５","OBJECTID":298947},"geometry":{"x":186190.44000000134,"y":2581528.9900000039}},{"attributes":{"ID":298956,"DIS_CODE":0,"TOWNNAME":"後壁區","LI":"烏樹里","LIN":"4鄰","STREET":" ","SECT":" ","MAREA":"烏樹林","LANE":" ","ALLEY":" ","HOUSE_NO":"４４號之６","E_COORD97":186197.60999999999,"N_COORD97":2581545.6099999999,"ADDRESS":"烏樹林４４號之６","OBJECTID":298948},"geometry":{"x":186197.61000000127,"y":2581545.6100000013}},{"attributes":{"ID":298957,"DIS_CODE":0,"TOWNNAME":"後壁區","LI":"烏樹里","LIN":"4鄰","STREET":" ","SECT":" ","MAREA":"烏樹林","LANE":" ","ALLEY":" ","HOUSE_NO":"４４號之７","E_COORD97":186196.73000000001,"N_COORD97":2581539.75,"ADDRESS":"烏樹林４４號之７","OBJECTID":298949},"geometry":{"x":186196.73000000138,"y":2581539.75}},{"attributes":{"ID":298958,"DIS_CODE":0,"TOWNNAME":"後壁區","LI":"烏樹里","LIN":"4鄰","STREET":" ","SECT":" ","MAREA":"烏樹林","LANE":" ","ALLEY":" ","HOUSE_NO":"４４號之８","E_COORD97":186181.39000000001,"N_COORD97":2581529.6600000001,"ADDRESS":"烏樹林４４號之８","OBJECTID":298950},"geometry":{"x":186181.3900000006,"y":2581529.6600000001}},{"attributes":{"ID":298959,"DIS_CODE":0,"TOWNNAME":"後壁區","LI":"烏樹里","LIN":"4鄰","STREET":" ","SECT":" ","MAREA":"烏樹林","LANE":" ","ALLEY":" ","HOUSE_NO":"４４號之９","E_COORD97":186177.25,"N_COORD97":2581529.8799999999,"ADDRESS":"烏樹林４４號之９","OBJECTID":298951},"geometry":{"x":186177.25000000186,"y":2581529.8800000008}},{"attributes":{"ID":298960,"DIS_CODE":0,"TOWNNAME":"後壁區","LI":"烏樹里","LIN":"4鄰","STREET":" ","SECT":" ","MAREA":"烏樹林","LANE":" ","ALLEY":" ","HOUSE_NO":"４４號","E_COORD97":186234.88,"N_COORD97":2581517.5499999998,"ADDRESS":"烏樹林４４號","OBJECTID":298952},"geometry":{"x":186234.87999999989,"y":2581517.5500000007}},{"attributes":{"ID":298961,"DIS_CODE":0,"TOWNNAME":"後壁區","LI":"烏樹里","LIN":"4鄰","STREET":" ","SECT":" ","MAREA":"烏樹林","LANE":" ","ALLEY":" ","HOUSE_NO":"４８號之１","E_COORD97":186255.17999999999,"N_COORD97":2581520.8500000001,"ADDRESS":"烏樹林４８號之１","OBJECTID":298953},"geometry":{"x":186255.1799999997,"y":2581520.8499999996}},{"attributes":{"ID":298962,"DIS_CODE":0,"TOWNNAME":"後壁區","LI":"烏樹里","LIN":"4鄰","STREET":" ","SECT":" ","MAREA":"烏樹林","LANE":" ","ALLEY":" ","HOUSE_NO":"４８號","E_COORD97":186271.35999999999,"N_COORD97":2581511.3999999999,"ADDRESS":"烏樹林４８號","OBJECTID":298954},"geometry":{"x":186271.36000000034,"y":2581511.4000000004}},{"attributes":{"ID":298963,"DIS_CODE":0,"TOWNNAME":"永康區","LI":"中興里","LIN":"4鄰","STREET":"中華路","SECT":" ","MAREA":" ","LANE":"２１２巷","ALLEY":" ","HOUSE_NO":"５８號","E_COORD97":171834.09,"N_COORD97":2545014.2599999998,"ADDRESS":"中華路２１２巷５８號","OBJECTID":298955},"geometry":{"x":171834.09000000078,"y":2545014.2599999998}},{"attributes":{"ID":298964,"DIS_CODE":0,"TOWNNAME":"永康區","LI":"網寮里","LIN":"4鄰","STREET":"永二街","SECT":" ","MAREA":" ","LANE":"１１８巷","ALLEY":" ","HOUSE_NO":"５號","E_COORD97":173491.89999999999,"N_COORD97":2546462.1099999999,"ADDRESS":"永二街１１８巷５號","OBJECTID":298956},"geometry":{"x":173491.9000000013,"y":2546462.1100000013}},{"attributes":{"ID":298965,"DIS_CODE":0,"TOWNNAME":"北區","LI":"光武里","LIN":"8鄰","STREET":"北門路","SECT":"二段","MAREA":" ","LANE":"５７７巷","ALLEY":" ","HOUSE_NO":"３號五樓之５","E_COORD97":169644.57999999999,"N_COORD97":2545745.27,"ADDRESS":"北門路二段５７７巷３號五樓之５","OBJECTID":298957},"geometry":{"x":169644.58000000007,"y":2545745.2700000014}},{"attributes":{"ID":298966,"DIS_CODE":0,"TOWNNAME":"北區","LI":"光武里","LIN":"8鄰","STREET":"北門路","SECT":"二段","MAREA":" ","LANE":"５７７巷","ALLEY":" ","HOUSE_NO":"３號六樓之５","E_COORD97":169644.57999999999,"N_COORD97":2545745.27,"ADDRESS":"北門路二段５７７巷３號六樓之５","OBJECTID":298958},"geometry":{"x":169644.58000000007,"y":2545745.2700000014}},{"attributes":{"ID":298967,"DIS_CODE":0,"TOWNNAME":"後壁區","LI":"頂安里","LIN":"4鄰","STREET":" ","SECT":" ","MAREA":"頂寮","LANE":" ","ALLEY":" ","HOUSE_NO":"３９號","E_COORD97":183984.57000000001,"N_COORD97":2581486.23,"ADDRESS":"頂寮３９號","OBJECTID":298959},"geometry":{"x":183984.5700000003,"y":2581486.2300000004}},{"attributes":{"ID":298968,"DIS_CODE":0,"TOWNNAME":"北區","LI":"光武里","LIN":"8鄰","STREET":"北門路","SECT":"二段","MAREA":" ","LANE":"５７７巷","ALLEY":" ","HOUSE_NO":"３號七樓之５","E_COORD97":169644.57999999999,"N_COORD97":2545745.27,"ADDRESS":"北門路二段５７７巷３號七樓之５","OBJECTID":298960},"geometry":{"x":169644.58000000007,"y":2545745.2700000014}},{"attributes":{"ID":298969,"DIS_CODE":0,"TOWNNAME":"北區","LI":"光武里","LIN":"8鄰","STREET":"北門路","SECT":"二段","MAREA":" ","LANE":"５７７巷","ALLEY":" ","HOUSE_NO":"３號八樓之５","E_COORD97":169644.57999999999,"N_COORD97":2545745.27,"ADDRESS":"北門路二段５７７巷３號八樓之５","OBJECTID":298961},"geometry":{"x":169644.58000000007,"y":2545745.2700000014}},{"attributes":{"ID":298970,"DIS_CODE":0,"TOWNNAME":"北區","LI":"光武里","LIN":"8鄰","STREET":"北門路","SECT":"二段","MAREA":" ","LANE":"５７７巷","ALLEY":" ","HOUSE_NO":"３號九樓之５","E_COORD97":169644.57999999999,"N_COORD97":2545745.27,"ADDRESS":"北門路二段５７７巷３號九樓之５","OBJECTID":298962},"geometry":{"x":169644.58000000007,"y":2545745.2700000014}},{"attributes":{"ID":298971,"DIS_CODE":0,"TOWNNAME":"東區","LI":"關聖里","LIN":"14鄰","STREET":"裕智街","SECT":" ","MAREA":" ","LANE":" ","ALLEY":" ","HOUSE_NO":"２３號","E_COORD97":172105.03,"N_COORD97":2542976.5099999998,"ADDRESS":"裕智街２３號","OBJECTID":298963},"geometry":{"x":172105.03000000026,"y":2542976.5100000035}},{"attributes":{"ID":298972,"DIS_CODE":0,"TOWNNAME":"東區","LI":"關聖里","LIN":"14鄰","STREET":"裕智街","SECT":" ","MAREA":" ","LANE":" ","ALLEY":" ","HOUSE_NO":"３１號","E_COORD97":172126.81,"N_COORD97":2542975.8799999999,"ADDRESS":"裕智街３１號","OBJECTID":298964},"geometry":{"x":172126.81000000052,"y":2542975.879999999}},{"attributes":{"ID":298973,"DIS_CODE":0,"TOWNNAME":"永康區","LI":"西橋里","LIN":"14鄰","STREET":"中華西街","SECT":" ","MAREA":" ","LANE":" ","ALLEY":" ","HOUSE_NO":"２０１號","E_COORD97":170619.78,"N_COORD97":2546347.25,"ADDRESS":"中華西街２０１號","OBJECTID":298965},"geometry":{"x":170619.78000000026,"y":2546347.25}},{"attributes":{"ID":298974,"DIS_CODE":0,"TOWNNAME":"永康區","LI":"五王里","LIN":"20鄰","STREET":"中華路","SECT":" ","MAREA":" ","LANE":"４６８巷","ALLEY":" ","HOUSE_NO":"６號","E_COORD97":171361.12,"N_COORD97":2545712,"ADDRESS":"中華路４６８巷６號","OBJECTID":298966},"geometry":{"x":171361.12000000104,"y":2545712}},{"attributes":{"ID":298975,"DIS_CODE":0,"TOWNNAME":"北區","LI":"光武里","LIN":"8鄰","STREET":"北門路","SECT":"二段","MAREA":" ","LANE":"５７７巷","ALLEY":" ","HOUSE_NO":"３號十樓之５","E_COORD97":169644.57999999999,"N_COORD97":2545745.27,"ADDRESS":"北門路二段５７７巷３號十樓之５","OBJECTID":298967},"geometry":{"x":169644.58000000007,"y":2545745.2700000014}},{"attributes":{"ID":298976,"DIS_CODE":0,"TOWNNAME":"後壁區","LI":"頂安里","LIN":"4鄰","STREET":" ","SECT":" ","MAREA":"頂寮","LANE":" ","ALLEY":" ","HOUSE_NO":"４１號之１２","E_COORD97":183958.32999999999,"N_COORD97":2581400.5600000001,"ADDRESS":"頂寮４１號之１２","OBJECTID":298968},"geometry":{"x":183958.33000000101,"y":2581400.5600000024}},{"attributes":{"ID":298977,"DIS_CODE":0,"TOWNNAME":"北區","LI":"光武里","LIN":"8鄰","STREET":"北門路","SECT":"二段","MAREA":" ","LANE":"５７７巷","ALLEY":" ","HOUSE_NO":"３號十一樓之１","E_COORD97":169644.57999999999,"N_COORD97":2545745.27,"ADDRESS":"北門路二段５７７巷３號十一樓之１","OBJECTID":298969},"geometry":{"x":169644.58000000007,"y":2545745.2700000014}},{"attributes":{"ID":298978,"DIS_CODE":0,"TOWNNAME":"後壁區","LI":"頂安里","LIN":"4鄰","STREET":" ","SECT":" ","MAREA":"頂寮","LANE":" ","ALLEY":" ","HOUSE_NO":"４１號之１３","E_COORD97":183955.14999999999,"N_COORD97":2581396.7599999998,"ADDRESS":"頂寮４１號之１３","OBJECTID":298970},"geometry":{"x":183955.15000000037,"y":2581396.7599999998}},{"attributes":{"ID":298979,"DIS_CODE":0,"TOWNNAME":"永康區","LI":"西橋里","LIN":"14鄰","STREET":"中華西街","SECT":" ","MAREA":" ","LANE":" ","ALLEY":" ","HOUSE_NO":"１９５號","E_COORD97":170617.73999999999,"N_COORD97":2546333,"ADDRESS":"中華西街１９５號","OBJECTID":298971},"geometry":{"x":170617.74000000115,"y":2546333.0000000037}},{"attributes":{"ID":298980,"DIS_CODE":0,"TOWNNAME":"後壁區","LI":"頂安里","LIN":"4鄰","STREET":" ","SECT":" ","MAREA":"頂寮","LANE":" ","ALLEY":" ","HOUSE_NO":"４１號之１４","E_COORD97":183953.17000000001,"N_COORD97":2581393.5,"ADDRESS":"頂寮４１號之１４","OBJECTID":298972},"geometry":{"x":183953.16999999993,"y":2581393.5000000019}},{"attributes":{"ID":298981,"DIS_CODE":0,"TOWNNAME":"仁德區","LI":"太子里","LIN":"33鄰","STREET":"太子路","SECT":" ","MAREA":" ","LANE":" ","ALLEY":" ","HOUSE_NO":"４７１號","E_COORD97":174096.76006199999,"N_COORD97":2543471.5516300001,"ADDRESS":"太子路４７１號","OBJECTID":298973},"geometry":{"x":174096.76006200071,"y":2543471.5516270027}},{"attributes":{"ID":298982,"DIS_CODE":0,"TOWNNAME":"北區","LI":"光武里","LIN":"8鄰","STREET":"北門路","SECT":"二段","MAREA":" ","LANE":"５７７巷","ALLEY":" ","HOUSE_NO":"３號十一樓之２","E_COORD97":169644.57999999999,"N_COORD97":2545745.27,"ADDRESS":"北門路二段５７７巷３號十一樓之２","OBJECTID":298974},"geometry":{"x":169644.58000000007,"y":2545745.2700000014}},{"attributes":{"ID":298983,"DIS_CODE":0,"TOWNNAME":"北區","LI":"光武里","LIN":"8鄰","STREET":"北門路","SECT":"二段","MAREA":" ","LANE":"５７７巷","ALLEY":" ","HOUSE_NO":"３號十一樓之３","E_COORD97":169644.57999999999,"N_COORD97":2545745.27,"ADDRESS":"北門路二段５７７巷３號十一樓之３","OBJECTID":298975},"geometry":{"x":169644.58000000007,"y":2545745.2700000014}},{"attributes":{"ID":298984,"DIS_CODE":0,"TOWNNAME":"北區","LI":"光武里","LIN":"8鄰","STREET":"北門路","SECT":"二段","MAREA":" ","LANE":"５７７巷","ALLEY":" ","HOUSE_NO":"３號十一樓之５","E_COORD97":169644.57999999999,"N_COORD97":2545745.27,"ADDRESS":"北門路二段５７７巷３號十一樓之５","OBJECTID":298976},"geometry":{"x":169644.58000000007,"y":2545745.2700000014}},{"attributes":{"ID":298985,"DIS_CODE":0,"TOWNNAME":"新營區","LI":"南興里","LIN":"8鄰","STREET":"建業路","SECT":" ","MAREA":" ","LANE":"７８巷","ALLEY":" ","HOUSE_NO":"１１號八樓之１","E_COORD97":179329.5,"N_COORD97":2577522.7799999998,"ADDRESS":"建業路７８巷１１號八樓之１","OBJECTID":298977},"geometry":{"x":179329.50000000093,"y":2577522.7800000012}},{"attributes":{"ID":298986,"DIS_CODE":0,"TOWNNAME":"新營區","LI":"南興里","LIN":"8鄰","STREET":"建業路","SECT":" ","MAREA":" ","LANE":"７８巷","ALLEY":" ","HOUSE_NO":"１１號八樓之２","E_COORD97":179329.63,"N_COORD97":2577522.7799999998,"ADDRESS":"建業路７８巷１１號八樓之２","OBJECTID":298978},"geometry":{"x":179329.63000000082,"y":2577522.7800000012}},{"attributes":{"ID":298987,"DIS_CODE":0,"TOWNNAME":"永康區","LI":"南灣里","LIN":"8鄰","STREET":"南興路","SECT":" ","MAREA":" ","LANE":"２巷","ALLEY":" ","HOUSE_NO":"６號之１","E_COORD97":174282.44,"N_COORD97":2543945.2999999998,"ADDRESS":"南興路２巷６號之１","OBJECTID":298979},"geometry":{"x":174282.44000000041,"y":2543945.3000000026}},{"attributes":{"ID":298988,"DIS_CODE":0,"TOWNNAME":"後壁區","LI":"頂安里","LIN":"4鄰","STREET":" ","SECT":" ","MAREA":"頂寮","LANE":" ","ALLEY":" ","HOUSE_NO":"４１號之４７","E_COORD97":183955.06,"N_COORD97":2581369.9500000002,"ADDRESS":"頂寮４１號之４７","OBJECTID":298980},"geometry":{"x":183955.05999999959,"y":2581369.9500000011}},{"attributes":{"ID":298989,"DIS_CODE":0,"TOWNNAME":"後壁區","LI":"頂安里","LIN":"4鄰","STREET":" ","SECT":" ","MAREA":"頂寮","LANE":" ","ALLEY":" ","HOUSE_NO":"４１號之６９","E_COORD97":183955.81,"N_COORD97":2581428.0800000001,"ADDRESS":"頂寮４１號之６９","OBJECTID":298981},"geometry":{"x":183955.81000000145,"y":2581428.0800000019}},{"attributes":{"ID":298990,"DIS_CODE":0,"TOWNNAME":"後壁區","LI":"頂安里","LIN":"4鄰","STREET":" ","SECT":" ","MAREA":"頂寮","LANE":" ","ALLEY":" ","HOUSE_NO":"４１號之７０","E_COORD97":183953.10999999999,"N_COORD97":2581431.8500000001,"ADDRESS":"頂寮４１號之７０","OBJECTID":298982},"geometry":{"x":183953.11000000127,"y":2581431.8500000015}},{"attributes":{"ID":298991,"DIS_CODE":0,"TOWNNAME":"後壁區","LI":"頂安里","LIN":"4鄰","STREET":" ","SECT":" ","MAREA":"頂寮","LANE":" ","ALLEY":" ","HOUSE_NO":"４２號之５","E_COORD97":183938.63,"N_COORD97":2581464.3799999999,"ADDRESS":"頂寮４２號之５","OBJECTID":298983},"geometry":{"x":183938.63000000175,"y":2581464.3800000008}},{"attributes":{"ID":298992,"DIS_CODE":0,"TOWNNAME":"新營區","LI":"南興里","LIN":"8鄰","STREET":"建業路","SECT":" ","MAREA":" ","LANE":"７８巷","ALLEY":" ","HOUSE_NO":"１１號九樓之１","E_COORD97":179329.5,"N_COORD97":2577522.7799999998,"ADDRESS":"建業路７８巷１１號九樓之１","OBJECTID":298984},"geometry":{"x":179329.50000000093,"y":2577522.7800000012}},{"attributes":{"ID":298993,"DIS_CODE":0,"TOWNNAME":"後壁區","LI":"頂安里","LIN":"4鄰","STREET":" ","SECT":" ","MAREA":"頂寮","LANE":" ","ALLEY":" ","HOUSE_NO":"４２號","E_COORD97":183950.14000000001,"N_COORD97":2581468.48,"ADDRESS":"頂寮４２號","OBJECTID":298985},"geometry":{"x":183950.14000000153,"y":2581468.4800000023}},{"attributes":{"ID":298994,"DIS_CODE":0,"TOWNNAME":"新營區","LI":"南興里","LIN":"8鄰","STREET":"建業路","SECT":" ","MAREA":" ","LANE":"７８巷","ALLEY":" ","HOUSE_NO":"１１號七樓之１","E_COORD97":179329.5,"N_COORD97":2577522.7799999998,"ADDRESS":"建業路７８巷１１號七樓之１","OBJECTID":298986},"geometry":{"x":179329.50000000093,"y":2577522.7800000012}},{"attributes":{"ID":298995,"DIS_CODE":0,"TOWNNAME":"永康區","LI":"西灣里","LIN":"14鄰","STREET":"大灣五街","SECT":" ","MAREA":" ","LANE":" ","ALLEY":" ","HOUSE_NO":"８０號","E_COORD97":174704.81,"N_COORD97":2545264.1200000001,"ADDRESS":"大灣五街８０號","OBJECTID":298987},"geometry":{"x":174704.80999999959,"y":2545264.120000001}},{"attributes":{"ID":298996,"DIS_CODE":0,"TOWNNAME":"後壁區","LI":"頂安里","LIN":"4鄰","STREET":" ","SECT":" ","MAREA":"頂寮","LANE":" ","ALLEY":" ","HOUSE_NO":"４３號之１","E_COORD97":183905.89000000001,"N_COORD97":2581443.9199999999,"ADDRESS":"頂寮４３號之１","OBJECTID":298988},"geometry":{"x":183905.88999999966,"y":2581443.9199999999}},{"attributes":{"ID":298997,"DIS_CODE":0,"TOWNNAME":"後壁區","LI":"頂安里","LIN":"4鄰","STREET":" ","SECT":" ","MAREA":"頂寮","LANE":" ","ALLEY":" ","HOUSE_NO":"４４號之１１","E_COORD97":183888.53,"N_COORD97":2581407.9399999999,"ADDRESS":"頂寮４４號之１１","OBJECTID":298989},"geometry":{"x":183888.53000000026,"y":2581407.9400000013}},{"attributes":{"ID":298998,"DIS_CODE":0,"TOWNNAME":"後壁區","LI":"頂安里","LIN":"4鄰","STREET":" ","SECT":" ","MAREA":"頂寮","LANE":" ","ALLEY":" ","HOUSE_NO":"４４號之５","E_COORD97":183882.51999999999,"N_COORD97":2581400.9300000002,"ADDRESS":"頂寮４４號之５","OBJECTID":298990},"geometry":{"x":183882.51999999955,"y":2581400.9300000016}},{"attributes":{"ID":298999,"DIS_CODE":0,"TOWNNAME":"後壁區","LI":"頂安里","LIN":"4鄰","STREET":" ","SECT":" ","MAREA":"頂寮","LANE":" ","ALLEY":" ","HOUSE_NO":"４４號之６","E_COORD97":183884.48000000001,"N_COORD97":2581405.3599999999,"ADDRESS":"頂寮４４號之６","OBJECTID":298991},"geometry":{"x":183884.48000000138,"y":2581405.3599999994}},{"attributes":{"ID":299000,"DIS_CODE":0,"TOWNNAME":"後壁區","LI":"頂安里","LIN":"4鄰","STREET":" ","SECT":" ","MAREA":"頂寮","LANE":" ","ALLEY":" ","HOUSE_NO":"４４號","E_COORD97":183902.54999999999,"N_COORD97":2581420.1400000001,"ADDRESS":"頂寮４４號","OBJECTID":298992},"geometry":{"x":183902.55000000075,"y":2581420.1400000025}},{"attributes":{"ID":299001,"DIS_CODE":0,"TOWNNAME":"後壁區","LI":"頂安里","LIN":"4鄰","STREET":" ","SECT":" ","MAREA":"頂寮","LANE":" ","ALLEY":" ","HOUSE_NO":"４５號","E_COORD97":183928.06,"N_COORD97":2581419.25,"ADDRESS":"頂寮４５號","OBJECTID":298993},"geometry":{"x":183928.05999999959,"y":2581419.2500000019}},{"attributes":{"ID":299002,"DIS_CODE":0,"TOWNNAME":"新營區","LI":"南興里","LIN":"8鄰","STREET":"建業路","SECT":" ","MAREA":" ","LANE":"７８巷","ALLEY":" ","HOUSE_NO":"１號六樓之１","E_COORD97":179327.14999999999,"N_COORD97":2577506.1800000002,"ADDRESS":"建業路７８巷１號六樓之１","OBJECTID":298994},"geometry":{"x":179327.1500000013,"y":2577506.1800000034}},{"attributes":{"ID":299003,"DIS_CODE":0,"TOWNNAME":"新營區","LI":"南興里","LIN":"8鄰","STREET":"建業路","SECT":" ","MAREA":" ","LANE":"７８巷","ALLEY":" ","HOUSE_NO":"１號十二樓之３","E_COORD97":179328.48999999999,"N_COORD97":2577506.1800000002,"ADDRESS":"建業路７８巷１號十二樓之３","OBJECTID":298995},"geometry":{"x":179328.49000000022,"y":2577506.1800000034}},{"attributes":{"ID":299004,"DIS_CODE":0,"TOWNNAME":"南區","LI":"日新里","LIN":"8鄰","STREET":"金華路","SECT":"一段","MAREA":" ","LANE":"４７５巷","ALLEY":" ","HOUSE_NO":"１８號二樓之１","E_COORD97":166956.76000000001,"N_COORD97":2541615.04,"ADDRESS":"金華路一段４７５巷１８號二樓之１","OBJECTID":298996},"geometry":{"x":166956.75999999885,"y":2541615.0399999991}},{"attributes":{"ID":299005,"DIS_CODE":0,"TOWNNAME":"南區","LI":"日新里","LIN":"8鄰","STREET":"金華路","SECT":"一段","MAREA":" ","LANE":"４７５巷","ALLEY":" ","HOUSE_NO":"１８號二樓之２","E_COORD97":166956.76000000001,"N_COORD97":2541615.04,"ADDRESS":"金華路一段４７５巷１８號二樓之２","OBJECTID":298997},"geometry":{"x":166956.75999999885,"y":2541615.0399999991}},{"attributes":{"ID":299006,"DIS_CODE":0,"TOWNNAME":"南區","LI":"日新里","LIN":"8鄰","STREET":"金華路","SECT":"一段","MAREA":" ","LANE":"４７５巷","ALLEY":" ","HOUSE_NO":"１８號二樓之３","E_COORD97":166956.76000000001,"N_COORD97":2541615.04,"ADDRESS":"金華路一段４７５巷１８號二樓之３","OBJECTID":298998},"geometry":{"x":166956.75999999885,"y":2541615.0399999991}},{"attributes":{"ID":299007,"DIS_CODE":0,"TOWNNAME":"南區","LI":"日新里","LIN":"8鄰","STREET":"金華路","SECT":"一段","MAREA":" ","LANE":"４７５巷","ALLEY":" ","HOUSE_NO":"１８號三樓之１","E_COORD97":166956.76000000001,"N_COORD97":2541615.04,"ADDRESS":"金華路一段４７５巷１８號三樓之１","OBJECTID":298999},"geometry":{"x":166956.75999999885,"y":2541615.0399999991}},{"attributes":{"ID":299008,"DIS_CODE":0,"TOWNNAME":"南區","LI":"日新里","LIN":"8鄰","STREET":"金華路","SECT":"一段","MAREA":" ","LANE":"４７５巷","ALLEY":" ","HOUSE_NO":"１８號三樓之２","E_COORD97":166956.76000000001,"N_COORD97":2541615.04,"ADDRESS":"金華路一段４７５巷１８號三樓之２","OBJECTID":299000},"geometry":{"x":166956.75999999885,"y":2541615.0399999991}}]}