{"displayFieldName":"TOWNNAME","fieldAliases":{"ID":"ID","DIS_CODE":"DIS_CODE","TOWNNAME":"TOWNNAME","LI":"LI","LIN":"LIN","STREET":"STREET","SECT":"SECT","MAREA":"MAREA","LANE":"LANE","ALLEY":"ALLEY","HOUSE_NO":"HOUSE_NO","E_COORD97":"E_COORD97","N_COORD97":"N_COORD97","ADDRESS":"ADDRESS","OBJECTID":"OBJECTID"},"geometryType":"esriGeometryPoint","spatialReference":{"wkid":102443,"latestWkid":3826},"fields":[{"name":"ID","type":"esriFieldTypeDouble","alias":"ID"},{"name":"DIS_CODE","type":"esriFieldTypeInteger","alias":"DIS_CODE"},{"name":"TOWNNAME","type":"esriFieldTypeString","alias":"TOWNNAME","length":8},{"name":"LI","type":"esriFieldTypeString","alias":"LI","length":8},{"name":"LIN","type":"esriFieldTypeString","alias":"LIN","length":12},{"name":"STREET","type":"esriFieldTypeString","alias":"STREET","length":20},{"name":"SECT","type":"esriFieldTypeString","alias":"SECT","length":8},{"name":"MAREA","type":"esriFieldTypeString","alias":"MAREA","length":12},{"name":"LANE","type":"esriFieldTypeString","alias":"LANE","length":10},{"name":"ALLEY","type":"esriFieldTypeString","alias":"ALLEY","length":10},{"name":"HOUSE_NO","type":"esriFieldTypeString","alias":"HOUSE_NO","length":20},{"name":"E_COORD97","type":"esriFieldTypeDouble","alias":"E_COORD97"},{"name":"N_COORD97","type":"esriFieldTypeDouble","alias":"N_COORD97"},{"name":"ADDRESS","type":"esriFieldTypeString","alias":"ADDRESS","length":50},{"name":"OBJECTID","type":"esriFieldTypeOID","alias":"OBJECTID"}],"features":[{"attributes":{"ID":155002,"DIS_CODE":0,"TOWNNAME":"關廟區","LI":"埤頭里","LIN":"2鄰","STREET":"保東路","SECT":" ","MAREA":" ","LANE":"３巷","ALLEY":"５６弄","HOUSE_NO":"７號","E_COORD97":179018.37,"N_COORD97":2543903.25,"ADDRESS":"保東路３巷５６弄７號","OBJECTID":155001},"geometry":{"x":179018.37000000104,"y":2543903.25}},{"attributes":{"ID":155003,"DIS_CODE":0,"TOWNNAME":"北區","LI":"新勝里","LIN":"2鄰","STREET":"開元路","SECT":" ","MAREA":" ","LANE":"３３３巷","ALLEY":"４弄","HOUSE_NO":"１１號","E_COORD97":170227.95999999999,"N_COORD97":2545504.6800000002,"ADDRESS":"開元路３３３巷４弄１１號","OBJECTID":155002},"geometry":{"x":170227.96000000089,"y":2545504.6800000016}},{"attributes":{"ID":155004,"DIS_CODE":0,"TOWNNAME":"北區","LI":"新勝里","LIN":"2鄰","STREET":"開元路","SECT":" ","MAREA":" ","LANE":"３３３巷","ALLEY":"４弄","HOUSE_NO":"１２號","E_COORD97":170236.35000000001,"N_COORD97":2545497.5600000001,"ADDRESS":"開元路３３３巷４弄１２號","OBJECTID":155003},"geometry":{"x":170236.35000000149,"y":2545497.5600000005}},{"attributes":{"ID":155005,"DIS_CODE":0,"TOWNNAME":"北區","LI":"新勝里","LIN":"2鄰","STREET":"開元路","SECT":" ","MAREA":" ","LANE":"３３３巷","ALLEY":"４弄","HOUSE_NO":"１３號","E_COORD97":170233.17999999999,"N_COORD97":2545511.1600000001,"ADDRESS":"開元路３３３巷４弄１３號","OBJECTID":155004},"geometry":{"x":170233.18000000063,"y":2545511.1600000001}},{"attributes":{"ID":155006,"DIS_CODE":0,"TOWNNAME":"北區","LI":"新勝里","LIN":"2鄰","STREET":"開元路","SECT":" ","MAREA":" ","LANE":"３３３巷","ALLEY":"４弄","HOUSE_NO":"１４號","E_COORD97":170241.95999999999,"N_COORD97":2545503.48,"ADDRESS":"開元路３３３巷４弄１４號","OBJECTID":155005},"geometry":{"x":170241.95999999996,"y":2545503.4800000023}},{"attributes":{"ID":155007,"DIS_CODE":0,"TOWNNAME":"北區","LI":"新勝里","LIN":"2鄰","STREET":"開元路","SECT":" ","MAREA":" ","LANE":"３３３巷","ALLEY":"４弄","HOUSE_NO":"１５號","E_COORD97":170237.04999999999,"N_COORD97":2545515.6600000001,"ADDRESS":"開元路３３３巷４弄１５號","OBJECTID":155006},"geometry":{"x":170237.05000000075,"y":2545515.660000002}},{"attributes":{"ID":155008,"DIS_CODE":0,"TOWNNAME":"北區","LI":"新勝里","LIN":"2鄰","STREET":"開元路","SECT":" ","MAREA":" ","LANE":"３３３巷","ALLEY":"４弄","HOUSE_NO":"１號","E_COORD97":170203.13,"N_COORD97":2545472.9100000001,"ADDRESS":"開元路３３３巷４弄１號","OBJECTID":155007},"geometry":{"x":170203.13000000082,"y":2545472.9100000039}},{"attributes":{"ID":155009,"DIS_CODE":0,"TOWNNAME":"北區","LI":"新勝里","LIN":"2鄰","STREET":"開元路","SECT":" ","MAREA":" ","LANE":"３３３巷","ALLEY":"４弄","HOUSE_NO":"２號","E_COORD97":170212.78,"N_COORD97":2545466.2799999998,"ADDRESS":"開元路３３３巷４弄２號","OBJECTID":155008},"geometry":{"x":170212.78000000119,"y":2545466.2800000012}},{"attributes":{"ID":155010,"DIS_CODE":0,"TOWNNAME":"北區","LI":"新勝里","LIN":"2鄰","STREET":"開元路","SECT":" ","MAREA":" ","LANE":"３３３巷","ALLEY":"４弄","HOUSE_NO":"３號","E_COORD97":170207.79000000001,"N_COORD97":2545479.6899999999,"ADDRESS":"開元路３３３巷４弄３號","OBJECTID":155009},"geometry":{"x":170207.79000000004,"y":2545479.6899999995}},{"attributes":{"ID":155011,"DIS_CODE":0,"TOWNNAME":"北區","LI":"新勝里","LIN":"2鄰","STREET":"開元路","SECT":" ","MAREA":" ","LANE":"３３３巷","ALLEY":"４弄","HOUSE_NO":"４號","E_COORD97":170217.20999999999,"N_COORD97":2545472.6099999999,"ADDRESS":"開元路３３３巷４弄４號","OBJECTID":155010},"geometry":{"x":170217.21000000183,"y":2545472.6099999994}},{"attributes":{"ID":155012,"DIS_CODE":0,"TOWNNAME":"北區","LI":"新勝里","LIN":"2鄰","STREET":"開元路","SECT":" ","MAREA":" ","LANE":"３３３巷","ALLEY":"４弄","HOUSE_NO":"５號","E_COORD97":170212.70000000001,"N_COORD97":2545485.9500000002,"ADDRESS":"開元路３３３巷４弄５號","OBJECTID":155011},"geometry":{"x":170212.70000000112,"y":2545485.9500000011}},{"attributes":{"ID":155013,"DIS_CODE":0,"TOWNNAME":"北區","LI":"新勝里","LIN":"2鄰","STREET":"開元路","SECT":" ","MAREA":" ","LANE":"３３３巷","ALLEY":"４弄","HOUSE_NO":"６號","E_COORD97":170222.35000000001,"N_COORD97":2545479.3199999998,"ADDRESS":"開元路３３３巷４弄６號","OBJECTID":155012},"geometry":{"x":170222.34999999963,"y":2545479.3200000003}},{"attributes":{"ID":155014,"DIS_CODE":0,"TOWNNAME":"北區","LI":"新勝里","LIN":"2鄰","STREET":"開元路","SECT":" ","MAREA":" ","LANE":"３３３巷","ALLEY":"４弄","HOUSE_NO":"７號","E_COORD97":170217.76000000001,"N_COORD97":2545491.9700000002,"ADDRESS":"開元路３３３巷４弄７號","OBJECTID":155013},"geometry":{"x":170217.75999999978,"y":2545491.9700000007}},{"attributes":{"ID":155015,"DIS_CODE":0,"TOWNNAME":"北區","LI":"新勝里","LIN":"2鄰","STREET":"開元路","SECT":" ","MAREA":" ","LANE":"３３３巷","ALLEY":"４弄","HOUSE_NO":"８號","E_COORD97":170226.94,"N_COORD97":2545484.9300000002,"ADDRESS":"開元路３３３巷４弄８號","OBJECTID":155014},"geometry":{"x":170226.94000000134,"y":2545484.9299999997}},{"attributes":{"ID":155016,"DIS_CODE":0,"TOWNNAME":"北區","LI":"新勝里","LIN":"2鄰","STREET":"開元路","SECT":" ","MAREA":" ","LANE":"３３３巷","ALLEY":"４弄","HOUSE_NO":"９號","E_COORD97":170223.22,"N_COORD97":2545498.9199999999,"ADDRESS":"開元路３３３巷４弄９號","OBJECTID":155015},"geometry":{"x":170223.21999999974,"y":2545498.9199999999}},{"attributes":{"ID":155017,"DIS_CODE":0,"TOWNNAME":"北區","LI":"新勝里","LIN":"2鄰","STREET":"開元路","SECT":" ","MAREA":" ","LANE":"３５７巷","ALLEY":"７弄","HOUSE_NO":"１０號","E_COORD97":170266.70999999999,"N_COORD97":2545508.2400000002,"ADDRESS":"開元路３５７巷７弄１０號","OBJECTID":155016},"geometry":{"x":170266.71000000089,"y":2545508.2400000021}},{"attributes":{"ID":155018,"DIS_CODE":0,"TOWNNAME":"將軍區","LI":"西華里","LIN":"5鄰","STREET":" ","SECT":" ","MAREA":"西華","LANE":" ","ALLEY":" ","HOUSE_NO":"６７之１９號","E_COORD97":163635.17000000001,"N_COORD97":2566570.2400000002,"ADDRESS":"西華６７之１９號","OBJECTID":155017},"geometry":{"x":163635.17000000179,"y":2566570.2400000021}},{"attributes":{"ID":155019,"DIS_CODE":0,"TOWNNAME":"將軍區","LI":"西華里","LIN":"5鄰","STREET":" ","SECT":" ","MAREA":"西華","LANE":" ","ALLEY":" ","HOUSE_NO":"６７之１號","E_COORD97":163569.32000000001,"N_COORD97":2566434.23,"ADDRESS":"西華６７之１號","OBJECTID":155018},"geometry":{"x":163569.3200000003,"y":2566434.2300000023}},{"attributes":{"ID":155020,"DIS_CODE":0,"TOWNNAME":"北區","LI":"新勝里","LIN":"2鄰","STREET":"開元路","SECT":" ","MAREA":" ","LANE":"３５７巷","ALLEY":"７弄","HOUSE_NO":"１２號","E_COORD97":170263.07999999999,"N_COORD97":2545506.1099999999,"ADDRESS":"開元路３５７巷７弄１２號","OBJECTID":155019},"geometry":{"x":170263.08000000101,"y":2545506.1100000013}},{"attributes":{"ID":155021,"DIS_CODE":0,"TOWNNAME":"新市區","LI":"港墘里","LIN":"4鄰","STREET":"三民街","SECT":" ","MAREA":" ","LANE":" ","ALLEY":" ","HOUSE_NO":"８８號","E_COORD97":178406.07000000001,"N_COORD97":2553485.29,"ADDRESS":"三民街８８號","OBJECTID":155020},"geometry":{"x":178406.0700000003,"y":2553485.290000001}},{"attributes":{"ID":155022,"DIS_CODE":0,"TOWNNAME":"北區","LI":"新勝里","LIN":"2鄰","STREET":"開元路","SECT":" ","MAREA":" ","LANE":"３５７巷","ALLEY":"７弄","HOUSE_NO":"１４號","E_COORD97":170259.20999999999,"N_COORD97":2545504.2999999998,"ADDRESS":"開元路３５７巷７弄１４號","OBJECTID":155021},"geometry":{"x":170259.20999999996,"y":2545504.3000000007}},{"attributes":{"ID":155023,"DIS_CODE":0,"TOWNNAME":"北區","LI":"新勝里","LIN":"2鄰","STREET":"開元路","SECT":" ","MAREA":" ","LANE":"３５７巷","ALLEY":"７弄","HOUSE_NO":"１６號","E_COORD97":170255.34,"N_COORD97":2545502.3199999998,"ADDRESS":"開元路３５７巷７弄１６號","OBJECTID":155022},"geometry":{"x":170255.34000000171,"y":2545502.3200000003}},{"attributes":{"ID":155024,"DIS_CODE":0,"TOWNNAME":"將軍區","LI":"西華里","LIN":"5鄰","STREET":" ","SECT":" ","MAREA":"西華","LANE":" ","ALLEY":" ","HOUSE_NO":"６７之２０號","E_COORD97":163635.07999999999,"N_COORD97":2566574.8599999999,"ADDRESS":"西華６７之２０號","OBJECTID":155023},"geometry":{"x":163635.08000000007,"y":2566574.8600000013}},{"attributes":{"ID":155025,"DIS_CODE":0,"TOWNNAME":"將軍區","LI":"西華里","LIN":"5鄰","STREET":" ","SECT":" ","MAREA":"西華","LANE":" ","ALLEY":" ","HOUSE_NO":"６７之２１號","E_COORD97":163634.98000000001,"N_COORD97":2566579.1000000001,"ADDRESS":"西華６７之２１號","OBJECTID":155024},"geometry":{"x":163634.98000000045,"y":2566579.0999999978}},{"attributes":{"ID":155026,"DIS_CODE":0,"TOWNNAME":"將軍區","LI":"西華里","LIN":"5鄰","STREET":" ","SECT":" ","MAREA":"西華","LANE":" ","ALLEY":" ","HOUSE_NO":"６７之２２號","E_COORD97":163634.94,"N_COORD97":2566583.7200000002,"ADDRESS":"西華６７之２２號","OBJECTID":155025},"geometry":{"x":163634.94000000041,"y":2566583.7200000025}},{"attributes":{"ID":155027,"DIS_CODE":0,"TOWNNAME":"將軍區","LI":"西華里","LIN":"5鄰","STREET":" ","SECT":" ","MAREA":"西華","LANE":" ","ALLEY":" ","HOUSE_NO":"６７之２３號","E_COORD97":163636.17999999999,"N_COORD97":2566591.2999999998,"ADDRESS":"西華６７之２３號","OBJECTID":155026},"geometry":{"x":163636.1799999997,"y":2566591.3000000007}},{"attributes":{"ID":155028,"DIS_CODE":0,"TOWNNAME":"將軍區","LI":"西華里","LIN":"5鄰","STREET":" ","SECT":" ","MAREA":"西華","LANE":" ","ALLEY":" ","HOUSE_NO":"６７之２９號","E_COORD97":163613.69,"N_COORD97":2566565.9500000002,"ADDRESS":"西華６７之２９號","OBJECTID":155027},"geometry":{"x":163613.69000000134,"y":2566565.9499999993}},{"attributes":{"ID":155029,"DIS_CODE":0,"TOWNNAME":"北區","LI":"新勝里","LIN":"2鄰","STREET":"開元路","SECT":" ","MAREA":" ","LANE":"３５７巷","ALLEY":"７弄","HOUSE_NO":"２號","E_COORD97":170281.32999999999,"N_COORD97":2545517.3199999998,"ADDRESS":"開元路３５７巷７弄２號","OBJECTID":155028},"geometry":{"x":170281.33000000101,"y":2545517.3199999984}},{"attributes":{"ID":155030,"DIS_CODE":0,"TOWNNAME":"北區","LI":"新勝里","LIN":"2鄰","STREET":"開元路","SECT":" ","MAREA":" ","LANE":"３５７巷","ALLEY":"７弄","HOUSE_NO":"４號","E_COORD97":170278.07000000001,"N_COORD97":2545515.3100000001,"ADDRESS":"開元路３５７巷７弄４號","OBJECTID":155029},"geometry":{"x":170278.07000000123,"y":2545515.3100000024}},{"attributes":{"ID":155031,"DIS_CODE":0,"TOWNNAME":"北區","LI":"新勝里","LIN":"2鄰","STREET":"開元路","SECT":" ","MAREA":" ","LANE":"３５７巷","ALLEY":"７弄","HOUSE_NO":"６號","E_COORD97":170273.98000000001,"N_COORD97":2545512.75,"ADDRESS":"開元路３５７巷７弄６號","OBJECTID":155030},"geometry":{"x":170273.98000000138,"y":2545512.75}},{"attributes":{"ID":155032,"DIS_CODE":0,"TOWNNAME":"北區","LI":"新勝里","LIN":"2鄰","STREET":"開元路","SECT":" ","MAREA":" ","LANE":"３５７巷","ALLEY":"７弄","HOUSE_NO":"８號","E_COORD97":170270.26999999999,"N_COORD97":2545510.46,"ADDRESS":"開元路３５７巷７弄８號","OBJECTID":155031},"geometry":{"x":170270.26999999955,"y":2545510.4600000046}},{"attributes":{"ID":155033,"DIS_CODE":0,"TOWNNAME":"南區","LI":"田寮里","LIN":"2鄰","STREET":"新興路","SECT":" ","MAREA":" ","LANE":"２６７巷","ALLEY":"１５弄","HOUSE_NO":"１號","E_COORD97":167245.09,"N_COORD97":2541812.79,"ADDRESS":"新興路２６７巷１５弄１號","OBJECTID":155032},"geometry":{"x":167245.09000000078,"y":2541812.7899999991}},{"attributes":{"ID":155034,"DIS_CODE":0,"TOWNNAME":"南區","LI":"興農里","LIN":"2鄰","STREET":"灣裡路","SECT":" ","MAREA":" ","LANE":"２６３巷","ALLEY":"６１弄","HOUSE_NO":"１１號之１","E_COORD97":166268.38,"N_COORD97":2536497.7599999998,"ADDRESS":"灣裡路２６３巷６１弄１１號之１","OBJECTID":155033},"geometry":{"x":166268.38000000082,"y":2536497.7599999998}},{"attributes":{"ID":155035,"DIS_CODE":0,"TOWNNAME":"南區","LI":"興農里","LIN":"2鄰","STREET":"灣裡路","SECT":" ","MAREA":" ","LANE":"２６３巷","ALLEY":"６１弄","HOUSE_NO":"１１號之２","E_COORD97":166267.09,"N_COORD97":2536502.3900000001,"ADDRESS":"灣裡路２６３巷６１弄１１號之２","OBJECTID":155034},"geometry":{"x":166267.09000000078,"y":2536502.3900000043}},{"attributes":{"ID":155036,"DIS_CODE":0,"TOWNNAME":"安平區","LI":"西門里","LIN":"2鄰","STREET":"國勝路","SECT":" ","MAREA":" ","LANE":"３５巷","ALLEY":"５弄","HOUSE_NO":"１號","E_COORD97":163867.51999999999,"N_COORD97":2544617.2200000002,"ADDRESS":"國勝路３５巷５弄１號","OBJECTID":155035},"geometry":{"x":163867.51999999955,"y":2544617.2200000025}},{"attributes":{"ID":155037,"DIS_CODE":0,"TOWNNAME":"安平區","LI":"西門里","LIN":"2鄰","STREET":"國勝路","SECT":" ","MAREA":" ","LANE":"３５巷","ALLEY":"５弄","HOUSE_NO":"２號","E_COORD97":163852.04000000001,"N_COORD97":2544615.0899999999,"ADDRESS":"國勝路３５巷５弄２號","OBJECTID":155036},"geometry":{"x":163852.04000000097,"y":2544615.0900000017}},{"attributes":{"ID":155038,"DIS_CODE":0,"TOWNNAME":"歸仁區","LI":"南保里","LIN":"19鄰","STREET":"民權六街","SECT":" ","MAREA":" ","LANE":" ","ALLEY":" ","HOUSE_NO":"１２號","E_COORD97":176965.59,"N_COORD97":2541106.29,"ADDRESS":"民權六街１２號","OBJECTID":155037},"geometry":{"x":176965.59000000078,"y":2541106.290000001}},{"attributes":{"ID":155039,"DIS_CODE":0,"TOWNNAME":"歸仁區","LI":"後市里","LIN":"19鄰","STREET":"大通路","SECT":" ","MAREA":" ","LANE":" ","ALLEY":" ","HOUSE_NO":"１１７號","E_COORD97":177563,"N_COORD97":2540898.25,"ADDRESS":"大通路１１７號","OBJECTID":155038},"geometry":{"x":177563.00000000093,"y":2540898.2500000019}},{"attributes":{"ID":155040,"DIS_CODE":0,"TOWNNAME":"歸仁區","LI":"南興里","LIN":"19鄰","STREET":"南興一街","SECT":" ","MAREA":" ","LANE":" ","ALLEY":" ","HOUSE_NO":"４２號","E_COORD97":175729.98999999999,"N_COORD97":2541332.25,"ADDRESS":"南興一街４２號","OBJECTID":155039},"geometry":{"x":175729.98999999929,"y":2541332.2500000019}},{"attributes":{"ID":155041,"DIS_CODE":0,"TOWNNAME":"歸仁區","LI":"南興里","LIN":"19鄰","STREET":"南興一街","SECT":" ","MAREA":" ","LANE":" ","ALLEY":" ","HOUSE_NO":"２６號","E_COORD97":175697.19,"N_COORD97":2541332.25,"ADDRESS":"南興一街２６號","OBJECTID":155040},"geometry":{"x":175697.19000000134,"y":2541332.2500000019}},{"attributes":{"ID":155042,"DIS_CODE":0,"TOWNNAME":"歸仁區","LI":"新厝里","LIN":"19鄰","STREET":"大成路","SECT":" ","MAREA":" ","LANE":" ","ALLEY":" ","HOUSE_NO":"７６號","E_COORD97":177644.69,"N_COORD97":2540356.1800000002,"ADDRESS":"大成路７６號","OBJECTID":155041},"geometry":{"x":177644.69000000134,"y":2540356.1799999997}},{"attributes":{"ID":155043,"DIS_CODE":0,"TOWNNAME":"歸仁區","LI":"歸仁里","LIN":"19鄰","STREET":"大仁一街","SECT":" ","MAREA":" ","LANE":" ","ALLEY":" ","HOUSE_NO":"２６號","E_COORD97":178151.94,"N_COORD97":2541086.1099999999,"ADDRESS":"大仁一街２６號","OBJECTID":155042},"geometry":{"x":178151.94000000134,"y":2541086.1099999994}},{"attributes":{"ID":155044,"DIS_CODE":0,"TOWNNAME":"安平區","LI":"西門里","LIN":"2鄰","STREET":"國勝路","SECT":" ","MAREA":" ","LANE":"３５巷","ALLEY":"５弄","HOUSE_NO":"３號","E_COORD97":163868.45000000001,"N_COORD97":2544609.73,"ADDRESS":"國勝路３５巷５弄３號","OBJECTID":155043},"geometry":{"x":163868.45000000019,"y":2544609.7300000042}},{"attributes":{"ID":155045,"DIS_CODE":0,"TOWNNAME":"安平區","LI":"西門里","LIN":"2鄰","STREET":"國勝路","SECT":" ","MAREA":" ","LANE":"３５巷","ALLEY":"５弄","HOUSE_NO":"４號","E_COORD97":163852.04000000001,"N_COORD97":2544608.8599999999,"ADDRESS":"國勝路３５巷５弄４號","OBJECTID":155044},"geometry":{"x":163852.04000000097,"y":2544608.8600000013}},{"attributes":{"ID":155046,"DIS_CODE":0,"TOWNNAME":"安平區","LI":"西門里","LIN":"2鄰","STREET":"國勝路","SECT":" ","MAREA":" ","LANE":"３５巷","ALLEY":"５弄","HOUSE_NO":"５號","E_COORD97":163871.03,"N_COORD97":2544589.3900000001,"ADDRESS":"國勝路３５巷５弄５號","OBJECTID":155045},"geometry":{"x":163871.03000000119,"y":2544589.3900000025}},{"attributes":{"ID":155047,"DIS_CODE":0,"TOWNNAME":"安平區","LI":"西門里","LIN":"2鄰","STREET":"國勝路","SECT":" ","MAREA":" ","LANE":"３５巷","ALLEY":"５弄","HOUSE_NO":"６號","E_COORD97":163851.44,"N_COORD97":2544605.1699999999,"ADDRESS":"國勝路３５巷５弄６號","OBJECTID":155046},"geometry":{"x":163851.44000000134,"y":2544605.1699999999}},{"attributes":{"ID":155048,"DIS_CODE":0,"TOWNNAME":"安平區","LI":"西門里","LIN":"2鄰","STREET":"國勝路","SECT":" ","MAREA":" ","LANE":"３５巷","ALLEY":"５弄","HOUSE_NO":"１０號","E_COORD97":163855.23000000001,"N_COORD97":2544593.2599999998,"ADDRESS":"國勝路３５巷５弄１０號","OBJECTID":155047},"geometry":{"x":163855.23000000045,"y":2544593.2600000016}},{"attributes":{"ID":155049,"DIS_CODE":0,"TOWNNAME":"安平區","LI":"文平里","LIN":"2鄰","STREET":"中華西路","SECT":"二段","MAREA":" ","LANE":"４９巷","ALLEY":"２４弄","HOUSE_NO":"５２號","E_COORD97":166571.92999999999,"N_COORD97":2543154.2999999998,"ADDRESS":"中華西路二段４９巷２４弄５２號","OBJECTID":155048},"geometry":{"x":166571.9299999997,"y":2543154.3000000007}},{"attributes":{"ID":155050,"DIS_CODE":0,"TOWNNAME":"安平區","LI":"港仔里","LIN":"2鄰","STREET":"安平路","SECT":" ","MAREA":" ","LANE":"３３巷","ALLEY":"８弄","HOUSE_NO":"２４之２號","E_COORD97":164569.16,"N_COORD97":2544386.3399999999,"ADDRESS":"安平路３３巷８弄２４之２號","OBJECTID":155049},"geometry":{"x":164569.16000000015,"y":2544386.3399999999}},{"attributes":{"ID":155051,"DIS_CODE":0,"TOWNNAME":"南區","LI":"同安里","LIN":"2鄰","STREET":"灣裡路","SECT":" ","MAREA":" ","LANE":"４００巷","ALLEY":"１１弄","HOUSE_NO":"２號之１","E_COORD97":166122.73999999999,"N_COORD97":2536139.5,"ADDRESS":"灣裡路４００巷１１弄２號之１","OBJECTID":155050},"geometry":{"x":166122.74000000022,"y":2536139.5000000019}},{"attributes":{"ID":155052,"DIS_CODE":0,"TOWNNAME":"北區","LI":"成功里","LIN":"2鄰","STREET":"北安路","SECT":"一段","MAREA":" ","LANE":"９４巷","ALLEY":"１弄","HOUSE_NO":"１０號","E_COORD97":169062.67000000001,"N_COORD97":2546402.1400000001,"ADDRESS":"北安路一段９４巷１弄１０號","OBJECTID":155051},"geometry":{"x":169062.66999999993,"y":2546402.1400000025}},{"attributes":{"ID":155053,"DIS_CODE":0,"TOWNNAME":"麻豆區","LI":"寮\u25A0里","LIN":"19鄰","STREET":" ","SECT":" ","MAREA":"寮子\u25A0","LANE":" ","ALLEY":" ","HOUSE_NO":"１５４號之５","E_COORD97":176450.10000000001,"N_COORD97":2565238.6699999999,"ADDRESS":"寮子\u25A0１５４號之５","OBJECTID":155052},"geometry":{"x":176450.09999999963,"y":2565238.6699999999}},{"attributes":{"ID":155054,"DIS_CODE":0,"TOWNNAME":"學甲區","LI":"三慶里","LIN":"20鄰","STREET":" ","SECT":" ","MAREA":"紅茄","LANE":" ","ALLEY":" ","HOUSE_NO":"５８號","E_COORD97":167541.98000000001,"N_COORD97":2575864.3300000001,"ADDRESS":"紅茄５８號","OBJECTID":155053},"geometry":{"x":167541.98000000045,"y":2575864.3299999982}},{"attributes":{"ID":155055,"DIS_CODE":0,"TOWNNAME":"北區","LI":"成功里","LIN":"2鄰","STREET":"北安路","SECT":"一段","MAREA":" ","LANE":"９４巷","ALLEY":"１弄","HOUSE_NO":"１１號","E_COORD97":169044.84,"N_COORD97":2546390.1099999999,"ADDRESS":"北安路一段９４巷１弄１１號","OBJECTID":155054},"geometry":{"x":169044.84000000171,"y":2546390.1100000013}},{"attributes":{"ID":155056,"DIS_CODE":0,"TOWNNAME":"麻豆區","LI":"寮\u25A0里","LIN":"19鄰","STREET":" ","SECT":" ","MAREA":"寮子\u25A0","LANE":" ","ALLEY":" ","HOUSE_NO":"１５５號","E_COORD97":176421.28,"N_COORD97":2565304.9399999999,"ADDRESS":"寮子\u25A0１５５號","OBJECTID":155055},"geometry":{"x":176421.28000000026,"y":2565304.9399999995}},{"attributes":{"ID":155057,"DIS_CODE":0,"TOWNNAME":"歸仁區","LI":"新厝里","LIN":"19鄰","STREET":"大成六街","SECT":" ","MAREA":" ","LANE":" ","ALLEY":" ","HOUSE_NO":"２０號","E_COORD97":177615.04000000001,"N_COORD97":2540310.1800000002,"ADDRESS":"大成六街２０號","OBJECTID":155056},"geometry":{"x":177615.04000000097,"y":2540310.1800000034}},{"attributes":{"ID":155058,"DIS_CODE":0,"TOWNNAME":"麻豆區","LI":"寮\u25A0里","LIN":"19鄰","STREET":" ","SECT":" ","MAREA":"寮子\u25A0","LANE":" ","ALLEY":" ","HOUSE_NO":"１５６號","E_COORD97":176395.82999999999,"N_COORD97":2565314.8300000001,"ADDRESS":"寮子\u25A0１５６號","OBJECTID":155057},"geometry":{"x":176395.83000000101,"y":2565314.8300000019}},{"attributes":{"ID":155059,"DIS_CODE":0,"TOWNNAME":"麻豆區","LI":"寮\u25A0里","LIN":"19鄰","STREET":" ","SECT":" ","MAREA":"寮子\u25A0","LANE":" ","ALLEY":" ","HOUSE_NO":"１５７號","E_COORD97":176415.14000000001,"N_COORD97":2565342.77,"ADDRESS":"寮子\u25A0１５７號","OBJECTID":155058},"geometry":{"x":176415.14000000153,"y":2565342.7699999996}},{"attributes":{"ID":155060,"DIS_CODE":0,"TOWNNAME":"麻豆區","LI":"寮\u25A0里","LIN":"19鄰","STREET":" ","SECT":" ","MAREA":"寮子\u25A0","LANE":" ","ALLEY":" ","HOUSE_NO":"１５８號之１","E_COORD97":176388.47,"N_COORD97":2565351.0699999998,"ADDRESS":"寮子\u25A0１５８號之１","OBJECTID":155059},"geometry":{"x":176388.46999999974,"y":2565351.0700000022}},{"attributes":{"ID":155061,"DIS_CODE":0,"TOWNNAME":"麻豆區","LI":"寮\u25A0里","LIN":"19鄰","STREET":" ","SECT":" ","MAREA":"寮子\u25A0","LANE":" ","ALLEY":" ","HOUSE_NO":"１５８號","E_COORD97":176412.98000000001,"N_COORD97":2565368.6099999999,"ADDRESS":"寮子\u25A0１５８號","OBJECTID":155060},"geometry":{"x":176412.98000000045,"y":2565368.6100000031}},{"attributes":{"ID":155062,"DIS_CODE":0,"TOWNNAME":"鹽水區","LI":"下中里","LIN":"5鄰","STREET":" ","SECT":" ","MAREA":"下中","LANE":" ","ALLEY":" ","HOUSE_NO":"１１號","E_COORD97":172364.10000000001,"N_COORD97":2579978.02,"ADDRESS":"下中１１號","OBJECTID":155061},"geometry":{"x":172364.10000000056,"y":2579978.0199999996}},{"attributes":{"ID":155063,"DIS_CODE":0,"TOWNNAME":"將軍區","LI":"西華里","LIN":"5鄰","STREET":" ","SECT":" ","MAREA":"西華","LANE":" ","ALLEY":" ","HOUSE_NO":"６７之３０號","E_COORD97":163624.03,"N_COORD97":2566578.21,"ADDRESS":"西華６７之３０號","OBJECTID":155062},"geometry":{"x":163624.03000000026,"y":2566578.2100000028}},{"attributes":{"ID":155064,"DIS_CODE":0,"TOWNNAME":"將軍區","LI":"西華里","LIN":"5鄰","STREET":" ","SECT":" ","MAREA":"西華","LANE":" ","ALLEY":" ","HOUSE_NO":"６７之９號","E_COORD97":163635.04000000001,"N_COORD97":2566526.54,"ADDRESS":"西華６７之９號","OBJECTID":155063},"geometry":{"x":163635.04000000097,"y":2566526.540000001}},{"attributes":{"ID":155065,"DIS_CODE":0,"TOWNNAME":"將軍區","LI":"西華里","LIN":"5鄰","STREET":" ","SECT":" ","MAREA":"西華","LANE":" ","ALLEY":" ","HOUSE_NO":"６７號","E_COORD97":163599.13,"N_COORD97":2566432.8999999999,"ADDRESS":"西華６７號","OBJECTID":155064},"geometry":{"x":163599.12999999989,"y":2566432.9000000022}},{"attributes":{"ID":155066,"DIS_CODE":0,"TOWNNAME":"將軍區","LI":"西華里","LIN":"5鄰","STREET":" ","SECT":" ","MAREA":"西華","LANE":" ","ALLEY":" ","HOUSE_NO":"６８號","E_COORD97":163571.67999999999,"N_COORD97":2566407.9399999999,"ADDRESS":"西華６８號","OBJECTID":155065},"geometry":{"x":163571.6799999997,"y":2566407.9400000013}},{"attributes":{"ID":155067,"DIS_CODE":0,"TOWNNAME":"北區","LI":"成功里","LIN":"2鄰","STREET":"北安路","SECT":"一段","MAREA":" ","LANE":"９４巷","ALLEY":"１弄","HOUSE_NO":"１２號","E_COORD97":169059.29000000001,"N_COORD97":2546405.9900000002,"ADDRESS":"北安路一段９４巷１弄１２號","OBJECTID":155066},"geometry":{"x":169059.29000000097,"y":2546405.9900000021}},{"attributes":{"ID":155068,"DIS_CODE":0,"TOWNNAME":"北區","LI":"成功里","LIN":"2鄰","STREET":"北安路","SECT":"一段","MAREA":" ","LANE":"９４巷","ALLEY":"１弄","HOUSE_NO":"１３號","E_COORD97":169040.98999999999,"N_COORD97":2546394.9199999999,"ADDRESS":"北安路一段９４巷１弄１３號","OBJECTID":155067},"geometry":{"x":169040.99000000209,"y":2546394.9200000018}},{"attributes":{"ID":155069,"DIS_CODE":0,"TOWNNAME":"將軍區","LI":"西華里","LIN":"5鄰","STREET":" ","SECT":" ","MAREA":"西華","LANE":" ","ALLEY":" ","HOUSE_NO":"６９之１號","E_COORD97":163572.92000000001,"N_COORD97":2566397.0800000001,"ADDRESS":"西華６９之１號","OBJECTID":155068},"geometry":{"x":163572.92000000086,"y":2566397.0800000038}},{"attributes":{"ID":155070,"DIS_CODE":0,"TOWNNAME":"將軍區","LI":"西華里","LIN":"5鄰","STREET":" ","SECT":" ","MAREA":"西華","LANE":" ","ALLEY":" ","HOUSE_NO":"６９之２號","E_COORD97":163567.98999999999,"N_COORD97":2566396.8599999999,"ADDRESS":"西華６９之２號","OBJECTID":155069},"geometry":{"x":163567.99000000022,"y":2566396.8599999994}},{"attributes":{"ID":155071,"DIS_CODE":0,"TOWNNAME":"將軍區","LI":"西華里","LIN":"5鄰","STREET":" ","SECT":" ","MAREA":"西華","LANE":" ","ALLEY":" ","HOUSE_NO":"６９之３號","E_COORD97":163563,"N_COORD97":2566396.71,"ADDRESS":"西華６９之３號","OBJECTID":155070},"geometry":{"x":163563,"y":2566396.709999999}},{"attributes":{"ID":155072,"DIS_CODE":0,"TOWNNAME":"將軍區","LI":"西華里","LIN":"5鄰","STREET":" ","SECT":" ","MAREA":"西華","LANE":" ","ALLEY":" ","HOUSE_NO":"６９之４號","E_COORD97":163557.63,"N_COORD97":2566396.5600000001,"ADDRESS":"西華６９之４號","OBJECTID":155071},"geometry":{"x":163557.63000000082,"y":2566396.5600000005}},{"attributes":{"ID":155073,"DIS_CODE":0,"TOWNNAME":"將軍區","LI":"西華里","LIN":"5鄰","STREET":" ","SECT":" ","MAREA":"西華","LANE":" ","ALLEY":" ","HOUSE_NO":"６９之５號","E_COORD97":163552.85000000001,"N_COORD97":2566396.5600000001,"ADDRESS":"西華６９之５號","OBJECTID":155072},"geometry":{"x":163552.85000000056,"y":2566396.5600000005}},{"attributes":{"ID":155074,"DIS_CODE":0,"TOWNNAME":"北區","LI":"成功里","LIN":"2鄰","STREET":"北安路","SECT":"一段","MAREA":" ","LANE":"９４巷","ALLEY":"１弄","HOUSE_NO":"１４號","E_COORD97":169053.51000000001,"N_COORD97":2546410.3199999998,"ADDRESS":"北安路一段９４巷１弄１４號","OBJECTID":155073},"geometry":{"x":169053.50999999978,"y":2546410.3200000022}},{"attributes":{"ID":155075,"DIS_CODE":0,"TOWNNAME":"將軍區","LI":"西華里","LIN":"5鄰","STREET":" ","SECT":" ","MAREA":"西華","LANE":" ","ALLEY":" ","HOUSE_NO":"６９號","E_COORD97":163578.14000000001,"N_COORD97":2566397.0800000001,"ADDRESS":"西華６９號","OBJECTID":155074},"geometry":{"x":163578.1400000006,"y":2566397.0800000038}},{"attributes":{"ID":155076,"DIS_CODE":0,"TOWNNAME":"將軍區","LI":"西華里","LIN":"5鄰","STREET":" ","SECT":" ","MAREA":"西華","LANE":" ","ALLEY":" ","HOUSE_NO":"７０之１號","E_COORD97":163569.5,"N_COORD97":2566380.9300000002,"ADDRESS":"西華７０之１號","OBJECTID":155075},"geometry":{"x":163569.5,"y":2566380.9300000016}},{"attributes":{"ID":155077,"DIS_CODE":0,"TOWNNAME":"將軍區","LI":"西華里","LIN":"5鄰","STREET":" ","SECT":" ","MAREA":"西華","LANE":" ","ALLEY":" ","HOUSE_NO":"７０之２號","E_COORD97":163574.14000000001,"N_COORD97":2566381.1600000001,"ADDRESS":"西華７０之２號","OBJECTID":155076},"geometry":{"x":163574.1400000006,"y":2566381.160000002}},{"attributes":{"ID":155078,"DIS_CODE":0,"TOWNNAME":"將軍區","LI":"西華里","LIN":"5鄰","STREET":" ","SECT":" ","MAREA":"西華","LANE":" ","ALLEY":" ","HOUSE_NO":"７０之３號","E_COORD97":163579.64000000001,"N_COORD97":2566381.3999999999,"ADDRESS":"西華７０之３號","OBJECTID":155077},"geometry":{"x":163579.6400000006,"y":2566381.4000000041}},{"attributes":{"ID":155079,"DIS_CODE":0,"TOWNNAME":"將軍區","LI":"西華里","LIN":"5鄰","STREET":" ","SECT":" ","MAREA":"西華","LANE":" ","ALLEY":" ","HOUSE_NO":"７０之４號","E_COORD97":163581.76000000001,"N_COORD97":2566361.8199999998,"ADDRESS":"西華７０之４號","OBJECTID":155078},"geometry":{"x":163581.76000000164,"y":2566361.820000004}},{"attributes":{"ID":155080,"DIS_CODE":0,"TOWNNAME":"將軍區","LI":"西華里","LIN":"5鄰","STREET":" ","SECT":" ","MAREA":"西華","LANE":" ","ALLEY":" ","HOUSE_NO":"７０之５號","E_COORD97":163577.56,"N_COORD97":2566361.6200000001,"ADDRESS":"西華７０之５號","OBJECTID":155079},"geometry":{"x":163577.55999999959,"y":2566361.6200000029}},{"attributes":{"ID":155081,"DIS_CODE":0,"TOWNNAME":"將軍區","LI":"西華里","LIN":"5鄰","STREET":" ","SECT":" ","MAREA":"西華","LANE":" ","ALLEY":" ","HOUSE_NO":"７０之６號","E_COORD97":163573.35000000001,"N_COORD97":2566361.4300000002,"ADDRESS":"西華７０之６號","OBJECTID":155080},"geometry":{"x":163573.34999999963,"y":2566361.4300000016}},{"attributes":{"ID":155082,"DIS_CODE":0,"TOWNNAME":"將軍區","LI":"西華里","LIN":"5鄰","STREET":" ","SECT":" ","MAREA":"西華","LANE":" ","ALLEY":" ","HOUSE_NO":"７０之７號","E_COORD97":163569.14000000001,"N_COORD97":2566361.2400000002,"ADDRESS":"西華７０之７號","OBJECTID":155081},"geometry":{"x":163569.1400000006,"y":2566361.2400000002}},{"attributes":{"ID":155083,"DIS_CODE":0,"TOWNNAME":"將軍區","LI":"西華里","LIN":"5鄰","STREET":" ","SECT":" ","MAREA":"西華","LANE":" ","ALLEY":" ","HOUSE_NO":"７０之８號","E_COORD97":163564.94,"N_COORD97":2566361.0499999998,"ADDRESS":"西華７０之８號","OBJECTID":155082},"geometry":{"x":163564.94000000134,"y":2566361.0500000026}},{"attributes":{"ID":155084,"DIS_CODE":0,"TOWNNAME":"將軍區","LI":"西華里","LIN":"5鄰","STREET":" ","SECT":" ","MAREA":"西華","LANE":" ","ALLEY":" ","HOUSE_NO":"７０之９號","E_COORD97":163560.73000000001,"N_COORD97":2566360.8500000001,"ADDRESS":"西華７０之９號","OBJECTID":155083},"geometry":{"x":163560.73000000231,"y":2566360.8500000034}},{"attributes":{"ID":155085,"DIS_CODE":0,"TOWNNAME":"將軍區","LI":"西華里","LIN":"5鄰","STREET":" ","SECT":" ","MAREA":"西華","LANE":" ","ALLEY":" ","HOUSE_NO":"７０號","E_COORD97":163565.04000000001,"N_COORD97":2566378.9199999999,"ADDRESS":"西華７０號","OBJECTID":155084},"geometry":{"x":163565.04000000097,"y":2566378.9200000018}},{"attributes":{"ID":155086,"DIS_CODE":0,"TOWNNAME":"北區","LI":"成功里","LIN":"2鄰","STREET":"北安路","SECT":"一段","MAREA":" ","LANE":"９４巷","ALLEY":"１弄","HOUSE_NO":"１５號","E_COORD97":169036.17000000001,"N_COORD97":2546397.8100000001,"ADDRESS":"北安路一段９４巷１弄１５號","OBJECTID":155085},"geometry":{"x":169036.17000000086,"y":2546397.8100000005}},{"attributes":{"ID":155087,"DIS_CODE":0,"TOWNNAME":"北區","LI":"成功里","LIN":"2鄰","STREET":"北安路","SECT":"一段","MAREA":" ","LANE":"９４巷","ALLEY":"１弄","HOUSE_NO":"１６號","E_COORD97":169048.20999999999,"N_COORD97":2546413.6800000002,"ADDRESS":"北安路一段９４巷１弄１６號","OBJECTID":155086},"geometry":{"x":169048.21000000089,"y":2546413.6800000016}},{"attributes":{"ID":155088,"DIS_CODE":0,"TOWNNAME":"將軍區","LI":"西華里","LIN":"5鄰","STREET":" ","SECT":" ","MAREA":"西華","LANE":" ","ALLEY":" ","HOUSE_NO":"７１之１號","E_COORD97":163556.09,"N_COORD97":2566360.8500000001,"ADDRESS":"西華７１之１號","OBJECTID":155087},"geometry":{"x":163556.09000000078,"y":2566360.8500000034}},{"attributes":{"ID":155089,"DIS_CODE":0,"TOWNNAME":"將軍區","LI":"西華里","LIN":"5鄰","STREET":" ","SECT":" ","MAREA":"西華","LANE":" ","ALLEY":" ","HOUSE_NO":"７１之２號","E_COORD97":163551.64000000001,"N_COORD97":2566360.6600000001,"ADDRESS":"西華７１之２號","OBJECTID":155088},"geometry":{"x":163551.63999999966,"y":2566360.660000002}},{"attributes":{"ID":155090,"DIS_CODE":0,"TOWNNAME":"北區","LI":"成功里","LIN":"2鄰","STREET":"北安路","SECT":"一段","MAREA":" ","LANE":"９４巷","ALLEY":"１弄","HOUSE_NO":"１７號","E_COORD97":169030.87,"N_COORD97":2546402.6200000001,"ADDRESS":"北安路一段９４巷１弄１７號","OBJECTID":155089},"geometry":{"x":169030.87000000011,"y":2546402.6200000029}},{"attributes":{"ID":155091,"DIS_CODE":0,"TOWNNAME":"將軍區","LI":"西華里","LIN":"5鄰","STREET":" ","SECT":" ","MAREA":"西華","LANE":" ","ALLEY":" ","HOUSE_NO":"７１之３號","E_COORD97":163547.19,"N_COORD97":2566360.46,"ADDRESS":"西華７１之３號","OBJECTID":155090},"geometry":{"x":163547.18999999948,"y":2566360.4600000009}},{"attributes":{"ID":155092,"DIS_CODE":0,"TOWNNAME":"將軍區","LI":"西華里","LIN":"5鄰","STREET":" ","SECT":" ","MAREA":"西華","LANE":" ","ALLEY":" ","HOUSE_NO":"７１之４號","E_COORD97":163542.75,"N_COORD97":2566360.2599999998,"ADDRESS":"西華７１之４號","OBJECTID":155091},"geometry":{"x":163542.75,"y":2566360.2599999998}},{"attributes":{"ID":155093,"DIS_CODE":0,"TOWNNAME":"將軍區","LI":"西華里","LIN":"5鄰","STREET":" ","SECT":" ","MAREA":"西華","LANE":" ","ALLEY":" ","HOUSE_NO":"７１之５號","E_COORD97":163538.29999999999,"N_COORD97":2566360.0699999998,"ADDRESS":"西華７１之５號","OBJECTID":155092},"geometry":{"x":163538.29999999981,"y":2566360.070000004}},{"attributes":{"ID":155094,"DIS_CODE":0,"TOWNNAME":"北區","LI":"成功里","LIN":"2鄰","STREET":"北安路","SECT":"一段","MAREA":" ","LANE":"９４巷","ALLEY":"１弄","HOUSE_NO":"１８號","E_COORD97":169042.92000000001,"N_COORD97":2546416.5699999998,"ADDRESS":"北安路一段９４巷１弄１８號","OBJECTID":155093},"geometry":{"x":169042.92000000086,"y":2546416.5700000003}},{"attributes":{"ID":155095,"DIS_CODE":0,"TOWNNAME":"北區","LI":"成功里","LIN":"2鄰","STREET":"北安路","SECT":"一段","MAREA":" ","LANE":"９４巷","ALLEY":"１弄","HOUSE_NO":"１９號","E_COORD97":169026.06,"N_COORD97":2546405.02,"ADDRESS":"北安路一段９４巷１弄１９號","OBJECTID":155094},"geometry":{"x":169026.05999999866,"y":2546405.0200000014}},{"attributes":{"ID":155096,"DIS_CODE":0,"TOWNNAME":"北區","LI":"成功里","LIN":"2鄰","STREET":"北安路","SECT":"一段","MAREA":" ","LANE":"９４巷","ALLEY":"１弄","HOUSE_NO":"１號","E_COORD97":169071.82000000001,"N_COORD97":2546370.8700000001,"ADDRESS":"北安路一段９４巷１弄１號","OBJECTID":155095},"geometry":{"x":169071.8200000003,"y":2546370.870000001}},{"attributes":{"ID":155097,"DIS_CODE":0,"TOWNNAME":"東區","LI":"關聖里","LIN":"15鄰","STREET":"裕英街","SECT":" ","MAREA":" ","LANE":" ","ALLEY":" ","HOUSE_NO":"８９號","E_COORD97":172345.17000000001,"N_COORD97":2543034.0699999998,"ADDRESS":"裕英街８９號","OBJECTID":155096},"geometry":{"x":172345.17000000086,"y":2543034.070000004}},{"attributes":{"ID":155098,"DIS_CODE":0,"TOWNNAME":"東區","LI":"關聖里","LIN":"15鄰","STREET":"裕英街","SECT":" ","MAREA":" ","LANE":" ","ALLEY":" ","HOUSE_NO":"９１號","E_COORD97":172350.31,"N_COORD97":2543031.0600000001,"ADDRESS":"裕英街９１號","OBJECTID":155097},"geometry":{"x":172350.30999999866,"y":2543031.0600000042}},{"attributes":{"ID":155099,"DIS_CODE":0,"TOWNNAME":"東區","LI":"關聖里","LIN":"15鄰","STREET":"裕英街","SECT":" ","MAREA":" ","LANE":" ","ALLEY":" ","HOUSE_NO":"９３號","E_COORD97":172356.16,"N_COORD97":2543034.0699999998,"ADDRESS":"裕英街９３號","OBJECTID":155098},"geometry":{"x":172356.16000000108,"y":2543034.070000004}},{"attributes":{"ID":155100,"DIS_CODE":0,"TOWNNAME":"歸仁區","LI":"歸仁里","LIN":"19鄰","STREET":"大仁街","SECT":" ","MAREA":" ","LANE":" ","ALLEY":" ","HOUSE_NO":"１２１號","E_COORD97":178163.26999999999,"N_COORD97":2541010.1099999999,"ADDRESS":"大仁街１２１號","OBJECTID":155099},"geometry":{"x":178163.26999999955,"y":2541010.1100000013}},{"attributes":{"ID":155101,"DIS_CODE":0,"TOWNNAME":"北區","LI":"成功里","LIN":"2鄰","STREET":"北安路","SECT":"一段","MAREA":" ","LANE":"９４巷","ALLEY":"１弄","HOUSE_NO":"２０號","E_COORD97":169039.06,"N_COORD97":2546419.9399999999,"ADDRESS":"北安路一段９４巷１弄２０號","OBJECTID":155100},"geometry":{"x":169039.05999999959,"y":2546419.9399999995}},{"attributes":{"ID":155102,"DIS_CODE":0,"TOWNNAME":"歸仁區","LI":"新厝里","LIN":"19鄰","STREET":"大成六街","SECT":" ","MAREA":" ","LANE":" ","ALLEY":" ","HOUSE_NO":"２號","E_COORD97":177640.48999999999,"N_COORD97":2540326.1800000002,"ADDRESS":"大成六街２號","OBJECTID":155101},"geometry":{"x":177640.49000000209,"y":2540326.1799999997}},{"attributes":{"ID":155103,"DIS_CODE":0,"TOWNNAME":"北區","LI":"成功里","LIN":"2鄰","STREET":"北安路","SECT":"一段","MAREA":" ","LANE":"９４巷","ALLEY":"１弄","HOUSE_NO":"２１號","E_COORD97":169021.23999999999,"N_COORD97":2546406.9500000002,"ADDRESS":"北安路一段９４巷１弄２１號","OBJECTID":155102},"geometry":{"x":169021.24000000115,"y":2546406.9499999993}},{"attributes":{"ID":155104,"DIS_CODE":0,"TOWNNAME":"歸仁區","LI":"歸仁里","LIN":"19鄰","STREET":"忠孝北路","SECT":" ","MAREA":" ","LANE":" ","ALLEY":" ","HOUSE_NO":"１３７號","E_COORD97":178202.39000000001,"N_COORD97":2541072.1099999999,"ADDRESS":"忠孝北路１３７號","OBJECTID":155103},"geometry":{"x":178202.3900000006,"y":2541072.1099999994}},{"attributes":{"ID":155105,"DIS_CODE":0,"TOWNNAME":"歸仁區","LI":"新厝里","LIN":"19鄰","STREET":"大成二街","SECT":" ","MAREA":" ","LANE":" ","ALLEY":" ","HOUSE_NO":"２５號","E_COORD97":177571.04000000001,"N_COORD97":2540332.1800000002,"ADDRESS":"大成二街２５號","OBJECTID":155104},"geometry":{"x":177571.04000000097,"y":2540332.1800000016}},{"attributes":{"ID":155106,"DIS_CODE":0,"TOWNNAME":"北區","LI":"成功里","LIN":"2鄰","STREET":"北安路","SECT":"一段","MAREA":" ","LANE":"９４巷","ALLEY":"１弄","HOUSE_NO":"２２號","E_COORD97":169034.73000000001,"N_COORD97":2546425.71,"ADDRESS":"北安路一段９４巷１弄２２號","OBJECTID":155105},"geometry":{"x":169034.73000000138,"y":2546425.7100000028}},{"attributes":{"ID":155107,"DIS_CODE":0,"TOWNNAME":"歸仁區","LI":"新厝里","LIN":"19鄰","STREET":"大成六街","SECT":" ","MAREA":" ","LANE":" ","ALLEY":" ","HOUSE_NO":"３６號","E_COORD97":177587.23999999999,"N_COORD97":2540294.1800000002,"ADDRESS":"大成六街３６號","OBJECTID":155106},"geometry":{"x":177587.24000000022,"y":2540294.1800000016}},{"attributes":{"ID":155108,"DIS_CODE":0,"TOWNNAME":"北區","LI":"成功里","LIN":"2鄰","STREET":"北安路","SECT":"一段","MAREA":" ","LANE":"９４巷","ALLEY":"１弄","HOUSE_NO":"２３號","E_COORD97":169015.94,"N_COORD97":2546412.2400000002,"ADDRESS":"北安路一段９４巷１弄２３號","OBJECTID":155107},"geometry":{"x":169015.94000000227,"y":2546412.2400000002}},{"attributes":{"ID":155109,"DIS_CODE":0,"TOWNNAME":"將軍區","LI":"西華里","LIN":"5鄰","STREET":" ","SECT":" ","MAREA":"西華","LANE":" ","ALLEY":" ","HOUSE_NO":"７１號","E_COORD97":163550.73000000001,"N_COORD97":2566373.6200000001,"ADDRESS":"西華７１號","OBJECTID":155108},"geometry":{"x":163550.73000000138,"y":2566373.620000001}},{"attributes":{"ID":155110,"DIS_CODE":0,"TOWNNAME":"將軍區","LI":"西華里","LIN":"5鄰","STREET":" ","SECT":" ","MAREA":"西華","LANE":" ","ALLEY":" ","HOUSE_NO":"７２之２號","E_COORD97":163529.01000000001,"N_COORD97":2566354.6800000002,"ADDRESS":"西華７２之２號","OBJECTID":155109},"geometry":{"x":163529.00999999978,"y":2566354.6799999997}},{"attributes":{"ID":155111,"DIS_CODE":0,"TOWNNAME":"將軍區","LI":"忠興里","LIN":"5鄰","STREET":" ","SECT":" ","MAREA":"忠興","LANE":" ","ALLEY":" ","HOUSE_NO":"６０號","E_COORD97":163704.57000000001,"N_COORD97":2566884.3599999999,"ADDRESS":"忠興６０號","OBJECTID":155110},"geometry":{"x":163704.57000000123,"y":2566884.3599999994}},{"attributes":{"ID":155112,"DIS_CODE":0,"TOWNNAME":"將軍區","LI":"忠興里","LIN":"5鄰","STREET":" ","SECT":" ","MAREA":"忠興","LANE":" ","ALLEY":" ","HOUSE_NO":"６１之１號","E_COORD97":163673.67999999999,"N_COORD97":2566881.7999999998,"ADDRESS":"忠興６１之１號","OBJECTID":155111},"geometry":{"x":163673.68000000156,"y":2566881.8000000026}},{"attributes":{"ID":155113,"DIS_CODE":0,"TOWNNAME":"將軍區","LI":"忠興里","LIN":"5鄰","STREET":" ","SECT":" ","MAREA":"忠興","LANE":" ","ALLEY":" ","HOUSE_NO":"６３之１號","E_COORD97":163649.44,"N_COORD97":2566891.6899999999,"ADDRESS":"忠興６３之１號","OBJECTID":155112},"geometry":{"x":163649.44000000134,"y":2566891.6900000013}},{"attributes":{"ID":155114,"DIS_CODE":0,"TOWNNAME":"北區","LI":"成功里","LIN":"2鄰","STREET":"北安路","SECT":"一段","MAREA":" ","LANE":"９４巷","ALLEY":"１弄","HOUSE_NO":"２４號","E_COORD97":169029.42999999999,"N_COORD97":2546428.6000000001,"ADDRESS":"北安路一段９４巷１弄２４號","OBJECTID":155113},"geometry":{"x":169029.43000000063,"y":2546428.6000000015}},{"attributes":{"ID":155115,"DIS_CODE":0,"TOWNNAME":"北區","LI":"成功里","LIN":"2鄰","STREET":"北安路","SECT":"一段","MAREA":" ","LANE":"９４巷","ALLEY":"１弄","HOUSE_NO":"２５號","E_COORD97":169011.60999999999,"N_COORD97":2546416.0899999999,"ADDRESS":"北安路一段９４巷１弄２５號","OBJECTID":155114},"geometry":{"x":169011.61000000127,"y":2546416.0899999999}},{"attributes":{"ID":155116,"DIS_CODE":0,"TOWNNAME":"北區","LI":"成功里","LIN":"2鄰","STREET":"北安路","SECT":"一段","MAREA":" ","LANE":"９４巷","ALLEY":"１弄","HOUSE_NO":"２６號","E_COORD97":169023.17000000001,"N_COORD97":2546432.4500000002,"ADDRESS":"北安路一段９４巷１弄２６號","OBJECTID":155115},"geometry":{"x":169023.17000000086,"y":2546432.4500000011}},{"attributes":{"ID":155117,"DIS_CODE":0,"TOWNNAME":"將軍區","LI":"忠興里","LIN":"5鄰","STREET":" ","SECT":" ","MAREA":"忠興","LANE":" ","ALLEY":" ","HOUSE_NO":"６８號","E_COORD97":163746.35999999999,"N_COORD97":2566912.23,"ADDRESS":"忠興６８號","OBJECTID":155116},"geometry":{"x":163746.36000000127,"y":2566912.2300000023}},{"attributes":{"ID":155118,"DIS_CODE":0,"TOWNNAME":"北區","LI":"成功里","LIN":"2鄰","STREET":"北安路","SECT":"一段","MAREA":" ","LANE":"９４巷","ALLEY":"１弄","HOUSE_NO":"２７號","E_COORD97":169005.82999999999,"N_COORD97":2546419.9399999999,"ADDRESS":"北安路一段９４巷１弄２７號","OBJECTID":155117},"geometry":{"x":169005.83000000007,"y":2546419.9399999995}},{"attributes":{"ID":155119,"DIS_CODE":0,"TOWNNAME":"白河區","LI":"廣安里","LIN":"5鄰","STREET":" ","SECT":" ","MAREA":"枋子林","LANE":" ","ALLEY":" ","HOUSE_NO":"３４號","E_COORD97":189000.01000000001,"N_COORD97":2587742.3900000001,"ADDRESS":"枋子林３４號","OBJECTID":155118},"geometry":{"x":189000.01000000071,"y":2587742.3900000025}},{"attributes":{"ID":155120,"DIS_CODE":0,"TOWNNAME":"白河區","LI":"廣安里","LIN":"5鄰","STREET":" ","SECT":" ","MAREA":"枋子林","LANE":" ","ALLEY":" ","HOUSE_NO":"３３之１號","E_COORD97":188968.23000000001,"N_COORD97":2587843.75,"ADDRESS":"枋子林３３之１號","OBJECTID":155119},"geometry":{"x":188968.23000000231,"y":2587843.7500000019}},{"attributes":{"ID":155121,"DIS_CODE":0,"TOWNNAME":"白河區","LI":"廣安里","LIN":"5鄰","STREET":" ","SECT":" ","MAREA":"枋子林","LANE":" ","ALLEY":" ","HOUSE_NO":"３３號","E_COORD97":188967.91,"N_COORD97":2587764.1299999999,"ADDRESS":"枋子林３３號","OBJECTID":155120},"geometry":{"x":188967.91000000015,"y":2587764.129999999}},{"attributes":{"ID":155122,"DIS_CODE":0,"TOWNNAME":"白河區","LI":"廣安里","LIN":"5鄰","STREET":" ","SECT":" ","MAREA":"枋子林","LANE":" ","ALLEY":" ","HOUSE_NO":"３４之２０號","E_COORD97":188910.70999999999,"N_COORD97":2587709.48,"ADDRESS":"枋子林３４之２０號","OBJECTID":155121},"geometry":{"x":188910.71000000089,"y":2587709.4800000004}},{"attributes":{"ID":155123,"DIS_CODE":0,"TOWNNAME":"白河區","LI":"廣安里","LIN":"5鄰","STREET":" ","SECT":" ","MAREA":"枋子林","LANE":" ","ALLEY":" ","HOUSE_NO":"３４之２１號","E_COORD97":188905.92999999999,"N_COORD97":2587710.9300000002,"ADDRESS":"枋子林３４之２１號","OBJECTID":155122},"geometry":{"x":188905.9299999997,"y":2587710.9300000016}},{"attributes":{"ID":155124,"DIS_CODE":0,"TOWNNAME":"北區","LI":"成功里","LIN":"2鄰","STREET":"北安路","SECT":"一段","MAREA":" ","LANE":"９４巷","ALLEY":"１弄","HOUSE_NO":"２８號","E_COORD97":169019.79999999999,"N_COORD97":2546435.8100000001,"ADDRESS":"北安路一段９４巷１弄２８號","OBJECTID":155123},"geometry":{"x":169019.80000000168,"y":2546435.8100000005}},{"attributes":{"ID":155125,"DIS_CODE":0,"TOWNNAME":"歸仁區","LI":"新厝里","LIN":"19鄰","STREET":"大成六街","SECT":" ","MAREA":" ","LANE":" ","ALLEY":" ","HOUSE_NO":"８號","E_COORD97":177633.29000000001,"N_COORD97":2540322.1800000002,"ADDRESS":"大成六街８號","OBJECTID":155124},"geometry":{"x":177633.2900000019,"y":2540322.1799999997}},{"attributes":{"ID":155126,"DIS_CODE":0,"TOWNNAME":"白河區","LI":"廣安里","LIN":"5鄰","STREET":" ","SECT":" ","MAREA":"枋子林","LANE":" ","ALLEY":" ","HOUSE_NO":"３６之１號","E_COORD97":188933.01999999999,"N_COORD97":2587752.6200000001,"ADDRESS":"枋子林３６之１號","OBJECTID":155125},"geometry":{"x":188933.02000000142,"y":2587752.620000001}},{"attributes":{"ID":155127,"DIS_CODE":0,"TOWNNAME":"白河區","LI":"廣安里","LIN":"5鄰","STREET":" ","SECT":" ","MAREA":"枋子林","LANE":" ","ALLEY":" ","HOUSE_NO":"３６之２號","E_COORD97":188961.09,"N_COORD97":2587726.6200000001,"ADDRESS":"枋子林３６之２號","OBJECTID":155126},"geometry":{"x":188961.08999999985,"y":2587726.6200000048}},{"attributes":{"ID":155128,"DIS_CODE":0,"TOWNNAME":"白河區","LI":"廣安里","LIN":"5鄰","STREET":" ","SECT":" ","MAREA":"枋子林","LANE":" ","ALLEY":" ","HOUSE_NO":"３６號","E_COORD97":188982.62,"N_COORD97":2587730.9700000002,"ADDRESS":"枋子林３６號","OBJECTID":155127},"geometry":{"x":188982.62000000104,"y":2587730.9700000025}},{"attributes":{"ID":155129,"DIS_CODE":0,"TOWNNAME":"白河區","LI":"廣安里","LIN":"5鄰","STREET":" ","SECT":" ","MAREA":"枋子林","LANE":" ","ALLEY":" ","HOUSE_NO":"３７之１號","E_COORD97":188075.82999999999,"N_COORD97":2587642.4700000002,"ADDRESS":"枋子林３７之１號","OBJECTID":155128},"geometry":{"x":188075.83000000101,"y":2587642.4700000044}},{"attributes":{"ID":155130,"DIS_CODE":0,"TOWNNAME":"白河區","LI":"廣安里","LIN":"5鄰","STREET":" ","SECT":" ","MAREA":"枋子林","LANE":" ","ALLEY":" ","HOUSE_NO":"３７之２００號","E_COORD97":187325,"N_COORD97":2587989.7999999998,"ADDRESS":"枋子林３７之２００號","OBJECTID":155129},"geometry":{"x":187325.00000000186,"y":2587989.8000000026}},{"attributes":{"ID":155131,"DIS_CODE":0,"TOWNNAME":"鹽水區","LI":"下中里","LIN":"5鄰","STREET":" ","SECT":" ","MAREA":"下中","LANE":" ","ALLEY":" ","HOUSE_NO":"１６號","E_COORD97":172346.17000000001,"N_COORD97":2579979.21,"ADDRESS":"下中１６號","OBJECTID":155130},"geometry":{"x":172346.16999999993,"y":2579979.2100000028}},{"attributes":{"ID":155132,"DIS_CODE":0,"TOWNNAME":"白河區","LI":"廣安里","LIN":"5鄰","STREET":" ","SECT":" ","MAREA":"枋子林","LANE":" ","ALLEY":" ","HOUSE_NO":"３７之３００號","E_COORD97":187551.17999999999,"N_COORD97":2588382.52,"ADDRESS":"枋子林３７之３００號","OBJECTID":155131},"geometry":{"x":187551.18000000063,"y":2588382.5199999996}},{"attributes":{"ID":155133,"DIS_CODE":0,"TOWNNAME":"白河區","LI":"廣安里","LIN":"5鄰","STREET":" ","SECT":" ","MAREA":"枋子林","LANE":" ","ALLEY":" ","HOUSE_NO":"３８之２１號","E_COORD97":188983.26999999999,"N_COORD97":2587597.9900000002,"ADDRESS":"枋子林３８之２１號","OBJECTID":155132},"geometry":{"x":188983.26999999955,"y":2587597.9900000021}},{"attributes":{"ID":155134,"DIS_CODE":0,"TOWNNAME":"白河區","LI":"廣安里","LIN":"5鄰","STREET":" ","SECT":" ","MAREA":"枋子林","LANE":" ","ALLEY":" ","HOUSE_NO":"３８之２６號","E_COORD97":188933.60000000001,"N_COORD97":2587651.4199999999,"ADDRESS":"枋子林３８之２６號","OBJECTID":155133},"geometry":{"x":188933.59999999963,"y":2587651.4199999999}},{"attributes":{"ID":155135,"DIS_CODE":0,"TOWNNAME":"北區","LI":"成功里","LIN":"2鄰","STREET":"北安路","SECT":"一段","MAREA":" ","LANE":"９４巷","ALLEY":"１弄","HOUSE_NO":"２９號","E_COORD97":169000.53,"N_COORD97":2546423.3100000001,"ADDRESS":"北安路一段９４巷１弄２９號","OBJECTID":155134},"geometry":{"x":169000.53000000119,"y":2546423.3100000042}},{"attributes":{"ID":155136,"DIS_CODE":0,"TOWNNAME":"新營區","LI":"太北里","LIN":"19鄰","STREET":" ","SECT":" ","MAREA":"太子宮","LANE":" ","ALLEY":" ","HOUSE_NO":"４４之１５號","E_COORD97":175679.54000000001,"N_COORD97":2577250.48,"ADDRESS":"太子宮４４之１５號","OBJECTID":155135},"geometry":{"x":175679.54000000004,"y":2577250.4800000042}},{"attributes":{"ID":155137,"DIS_CODE":0,"TOWNNAME":"新營區","LI":"太南里","LIN":"19鄰","STREET":" ","SECT":" ","MAREA":"太子宮","LANE":" ","ALLEY":" ","HOUSE_NO":"３０９之３８號","E_COORD97":175945.20000000001,"N_COORD97":2576524.8799999999,"ADDRESS":"太子宮３０９之３８號","OBJECTID":155136},"geometry":{"x":175945.20000000019,"y":2576524.8800000008}},{"attributes":{"ID":155138,"DIS_CODE":0,"TOWNNAME":"新營區","LI":"太南里","LIN":"19鄰","STREET":" ","SECT":" ","MAREA":"太子宮","LANE":" ","ALLEY":" ","HOUSE_NO":"３１２之２２號","E_COORD97":176042.51000000001,"N_COORD97":2576550.98,"ADDRESS":"太子宮３１２之２２號","OBJECTID":155137},"geometry":{"x":176042.50999999978,"y":2576550.9800000004}},{"attributes":{"ID":155139,"DIS_CODE":0,"TOWNNAME":"北區","LI":"成功里","LIN":"2鄰","STREET":"北安路","SECT":"一段","MAREA":" ","LANE":"９４巷","ALLEY":"１弄","HOUSE_NO":"３０號","E_COORD97":169014.01999999999,"N_COORD97":2546441.1099999999,"ADDRESS":"北安路一段９４巷１弄３０號","OBJECTID":155138},"geometry":{"x":169014.01999999955,"y":2546441.1100000013}},{"attributes":{"ID":155140,"DIS_CODE":0,"TOWNNAME":"新營區","LI":"太南里","LIN":"19鄰","STREET":" ","SECT":" ","MAREA":"太子宮","LANE":" ","ALLEY":" ","HOUSE_NO":"３７０號","E_COORD97":175706.95999999999,"N_COORD97":2576481.71,"ADDRESS":"太子宮３７０號","OBJECTID":155139},"geometry":{"x":175706.96000000089,"y":2576481.7100000009}},{"attributes":{"ID":155141,"DIS_CODE":0,"TOWNNAME":"北區","LI":"成功里","LIN":"2鄰","STREET":"北安路","SECT":"一段","MAREA":" ","LANE":"９４巷","ALLEY":"１弄","HOUSE_NO":"３１號","E_COORD97":168996.67999999999,"N_COORD97":2546427.1499999999,"ADDRESS":"北安路一段９４巷１弄３１號","OBJECTID":155140},"geometry":{"x":168996.68000000156,"y":2546427.1499999985}},{"attributes":{"ID":155142,"DIS_CODE":0,"TOWNNAME":"新營區","LI":"太南里","LIN":"19鄰","STREET":" ","SECT":" ","MAREA":"太子宮","LANE":" ","ALLEY":" ","HOUSE_NO":"３６０號","E_COORD97":175761.98999999999,"N_COORD97":2576440.4500000002,"ADDRESS":"太子宮３６０號","OBJECTID":155141},"geometry":{"x":175761.99000000022,"y":2576440.4500000011}},{"attributes":{"ID":155143,"DIS_CODE":0,"TOWNNAME":"北區","LI":"成功里","LIN":"2鄰","STREET":"北安路","SECT":"一段","MAREA":" ","LANE":"９４巷","ALLEY":"１弄","HOUSE_NO":"３２號","E_COORD97":169009.20000000001,"N_COORD97":2546443.0299999998,"ADDRESS":"北安路一段９４巷１弄３２號","OBJECTID":155142},"geometry":{"x":169009.20000000112,"y":2546443.0299999993}},{"attributes":{"ID":155144,"DIS_CODE":0,"TOWNNAME":"北區","LI":"成功里","LIN":"2鄰","STREET":"北安路","SECT":"一段","MAREA":" ","LANE":"９４巷","ALLEY":"１弄","HOUSE_NO":"３號","E_COORD97":169067,"N_COORD97":2546375.2000000002,"ADDRESS":"北安路一段９４巷１弄３號","OBJECTID":155143},"geometry":{"x":169067,"y":2546375.200000003}},{"attributes":{"ID":155145,"DIS_CODE":0,"TOWNNAME":"北區","LI":"成功里","LIN":"2鄰","STREET":"北安路","SECT":"一段","MAREA":" ","LANE":"９４巷","ALLEY":"１弄","HOUSE_NO":"４號","E_COORD97":169079.04000000001,"N_COORD97":2546390.1099999999,"ADDRESS":"北安路一段９４巷１弄４號","OBJECTID":155144},"geometry":{"x":169079.04000000004,"y":2546390.1100000013}},{"attributes":{"ID":155146,"DIS_CODE":0,"TOWNNAME":"白河區","LI":"廣安里","LIN":"5鄰","STREET":" ","SECT":" ","MAREA":"枋子林","LANE":" ","ALLEY":" ","HOUSE_NO":"３８之３０號","E_COORD97":188848.19,"N_COORD97":2587651.8300000001,"ADDRESS":"枋子林３８之３０號","OBJECTID":155145},"geometry":{"x":188848.19000000134,"y":2587651.8300000001}},{"attributes":{"ID":155147,"DIS_CODE":0,"TOWNNAME":"白河區","LI":"廣安里","LIN":"5鄰","STREET":" ","SECT":" ","MAREA":"枋子林","LANE":" ","ALLEY":" ","HOUSE_NO":"４０號","E_COORD97":189085.82999999999,"N_COORD97":2587610.52,"ADDRESS":"枋子林４０號","OBJECTID":155146},"geometry":{"x":189085.83000000194,"y":2587610.5200000033}},{"attributes":{"ID":155148,"DIS_CODE":0,"TOWNNAME":"北區","LI":"成功里","LIN":"2鄰","STREET":"北安路","SECT":"一段","MAREA":" ","LANE":"９４巷","ALLEY":"１弄","HOUSE_NO":"５號","E_COORD97":169060.26000000001,"N_COORD97":2546378.5600000001,"ADDRESS":"北安路一段９４巷１弄５號","OBJECTID":155147},"geometry":{"x":169060.25999999978,"y":2546378.5600000024}},{"attributes":{"ID":155149,"DIS_CODE":0,"TOWNNAME":"北區","LI":"成功里","LIN":"2鄰","STREET":"北安路","SECT":"一段","MAREA":" ","LANE":"９４巷","ALLEY":"１弄","HOUSE_NO":"６號","E_COORD97":169072.78,"N_COORD97":2546393.96,"ADDRESS":"北安路一段９４巷１弄６號","OBJECTID":155148},"geometry":{"x":169072.78000000212,"y":2546393.9600000009}},{"attributes":{"ID":155150,"DIS_CODE":0,"TOWNNAME":"北區","LI":"成功里","LIN":"2鄰","STREET":"北安路","SECT":"一段","MAREA":" ","LANE":"９４巷","ALLEY":"１弄","HOUSE_NO":"７號","E_COORD97":169056.39999999999,"N_COORD97":2546383.3799999999,"ADDRESS":"北安路一段９４巷１弄７號","OBJECTID":155149},"geometry":{"x":169056.40000000037,"y":2546383.379999999}},{"attributes":{"ID":155151,"DIS_CODE":0,"TOWNNAME":"白河區","LI":"廣安里","LIN":"5鄰","STREET":" ","SECT":" ","MAREA":"枋子林","LANE":" ","ALLEY":" ","HOUSE_NO":"４１之１０號","E_COORD97":189105.44,"N_COORD97":2587564.0600000001,"ADDRESS":"枋子林４１之１０號","OBJECTID":155150},"geometry":{"x":189105.44000000041,"y":2587564.0600000024}},{"attributes":{"ID":155152,"DIS_CODE":0,"TOWNNAME":"北區","LI":"成功里","LIN":"2鄰","STREET":"北安路","SECT":"一段","MAREA":" ","LANE":"９４巷","ALLEY":"１弄","HOUSE_NO":"８號","E_COORD97":169068.92999999999,"N_COORD97":2546398.29,"ADDRESS":"北安路一段９４巷１弄８號","OBJECTID":155151},"geometry":{"x":169068.9299999997,"y":2546398.290000001}},{"attributes":{"ID":155153,"DIS_CODE":0,"TOWNNAME":"北區","LI":"成功里","LIN":"2鄰","STREET":"北安路","SECT":"一段","MAREA":" ","LANE":"９４巷","ALLEY":"１弄","HOUSE_NO":"９號","E_COORD97":169050.62,"N_COORD97":2546385.2999999998,"ADDRESS":"北安路一段９４巷１弄９號","OBJECTID":155152},"geometry":{"x":169050.62000000104,"y":2546385.3000000007}},{"attributes":{"ID":155154,"DIS_CODE":0,"TOWNNAME":"北區","LI":"成功里","LIN":"2鄰","STREET":"北安路","SECT":"一段","MAREA":" ","LANE":"９４巷","ALLEY":"３弄","HOUSE_NO":"１１號","E_COORD97":169067.48000000001,"N_COORD97":2546416.0899999999,"ADDRESS":"北安路一段９４巷３弄１１號","OBJECTID":155153},"geometry":{"x":169067.48000000045,"y":2546416.0899999999}},{"attributes":{"ID":155155,"DIS_CODE":0,"TOWNNAME":"北區","LI":"成功里","LIN":"2鄰","STREET":"北安路","SECT":"一段","MAREA":" ","LANE":"９４巷","ALLEY":"３弄","HOUSE_NO":"１３號","E_COORD97":169061.70000000001,"N_COORD97":2546419.46,"ADDRESS":"北安路一段９４巷３弄１３號","OBJECTID":155154},"geometry":{"x":169061.70000000112,"y":2546419.4600000028}},{"attributes":{"ID":155156,"DIS_CODE":0,"TOWNNAME":"白河區","LI":"廣安里","LIN":"5鄰","STREET":" ","SECT":" ","MAREA":"枋子林","LANE":" ","ALLEY":" ","HOUSE_NO":"４１之３號","E_COORD97":189096.13,"N_COORD97":2587520.1400000001,"ADDRESS":"枋子林４１之３號","OBJECTID":155155},"geometry":{"x":189096.13000000082,"y":2587520.1400000025}},{"attributes":{"ID":155157,"DIS_CODE":0,"TOWNNAME":"北區","LI":"成功里","LIN":"2鄰","STREET":"北安路","SECT":"一段","MAREA":" ","LANE":"９４巷","ALLEY":"３弄","HOUSE_NO":"１５號","E_COORD97":169057.37,"N_COORD97":2546423.79,"ADDRESS":"北安路一段９４巷３弄１５號","OBJECTID":155156},"geometry":{"x":169057.37000000104,"y":2546423.7899999991}},{"attributes":{"ID":155158,"DIS_CODE":0,"TOWNNAME":"白河區","LI":"廣安里","LIN":"5鄰","STREET":" ","SECT":" ","MAREA":"枋子林","LANE":" ","ALLEY":" ","HOUSE_NO":"４１之５號","E_COORD97":189096.75,"N_COORD97":2587539.9900000002,"ADDRESS":"枋子林４１之５號","OBJECTID":155157},"geometry":{"x":189096.75000000093,"y":2587539.9900000039}},{"attributes":{"ID":155159,"DIS_CODE":0,"TOWNNAME":"北區","LI":"成功里","LIN":"2鄰","STREET":"北安路","SECT":"一段","MAREA":" ","LANE":"９４巷","ALLEY":"３弄","HOUSE_NO":"１７號","E_COORD97":169052.07000000001,"N_COORD97":2546427.1499999999,"ADDRESS":"北安路一段９４巷３弄１７號","OBJECTID":155158},"geometry":{"x":169052.0700000003,"y":2546427.1499999985}},{"attributes":{"ID":155160,"DIS_CODE":0,"TOWNNAME":"北區","LI":"成功里","LIN":"2鄰","STREET":"北安路","SECT":"一段","MAREA":" ","LANE":"９４巷","ALLEY":"３弄","HOUSE_NO":"１９號","E_COORD97":169048.22,"N_COORD97":2546431.96,"ADDRESS":"北安路一段９４巷３弄１９號","OBJECTID":155159},"geometry":{"x":169048.21999999974,"y":2546431.9600000009}},{"attributes":{"ID":155161,"DIS_CODE":0,"TOWNNAME":"白河區","LI":"廣安里","LIN":"5鄰","STREET":" ","SECT":" ","MAREA":"枋子林","LANE":" ","ALLEY":" ","HOUSE_NO":"４１之６號","E_COORD97":189098.19,"N_COORD97":2587546.4399999999,"ADDRESS":"枋子林４１之６號","OBJECTID":155160},"geometry":{"x":189098.19000000041,"y":2587546.4400000032}},{"attributes":{"ID":155162,"DIS_CODE":0,"TOWNNAME":"新營區","LI":"三仙里","LIN":"19鄰","STREET":"三民路","SECT":" ","MAREA":" ","LANE":" ","ALLEY":" ","HOUSE_NO":"１３８之１號","E_COORD97":179595.78,"N_COORD97":2578424.0899999999,"ADDRESS":"三民路１３８之１號","OBJECTID":155161},"geometry":{"x":179595.78000000026,"y":2578424.0899999999}},{"attributes":{"ID":155163,"DIS_CODE":0,"TOWNNAME":"白河區","LI":"廣安里","LIN":"5鄰","STREET":" ","SECT":" ","MAREA":"枋子林","LANE":" ","ALLEY":" ","HOUSE_NO":"４１之７號","E_COORD97":189101.75,"N_COORD97":2587551.6699999999,"ADDRESS":"枋子林４１之７號","OBJECTID":155162},"geometry":{"x":189101.75000000093,"y":2587551.6699999999}},{"attributes":{"ID":155164,"DIS_CODE":0,"TOWNNAME":"白河區","LI":"廣安里","LIN":"5鄰","STREET":" ","SECT":" ","MAREA":"枋子林","LANE":" ","ALLEY":" ","HOUSE_NO":"４１之８號","E_COORD97":189102.97,"N_COORD97":2587556.21,"ADDRESS":"枋子林４１之８號","OBJECTID":155163},"geometry":{"x":189102.96999999881,"y":2587556.2100000046}},{"attributes":{"ID":155165,"DIS_CODE":0,"TOWNNAME":"白河區","LI":"廣安里","LIN":"5鄰","STREET":" ","SECT":" ","MAREA":"枋子林","LANE":" ","ALLEY":" ","HOUSE_NO":"４１之９號","E_COORD97":189104.22,"N_COORD97":2587560.2000000002,"ADDRESS":"枋子林４１之９號","OBJECTID":155164},"geometry":{"x":189104.21999999974,"y":2587560.1999999993}},{"attributes":{"ID":155166,"DIS_CODE":0,"TOWNNAME":"白河區","LI":"廣安里","LIN":"5鄰","STREET":" ","SECT":" ","MAREA":"枋子林","LANE":" ","ALLEY":" ","HOUSE_NO":"４１號","E_COORD97":189083.03,"N_COORD97":2587557.8900000001,"ADDRESS":"枋子林４１號","OBJECTID":155165},"geometry":{"x":189083.03000000119,"y":2587557.8899999987}},{"attributes":{"ID":155167,"DIS_CODE":0,"TOWNNAME":"北區","LI":"成功里","LIN":"2鄰","STREET":"北安路","SECT":"一段","MAREA":" ","LANE":"９４巷","ALLEY":"３弄","HOUSE_NO":"１號","E_COORD97":169091.57000000001,"N_COORD97":2546396.8500000001,"ADDRESS":"北安路一段９４巷３弄１號","OBJECTID":155166},"geometry":{"x":169091.57000000123,"y":2546396.8499999996}},{"attributes":{"ID":155168,"DIS_CODE":0,"TOWNNAME":"白河區","LI":"廣安里","LIN":"5鄰","STREET":" ","SECT":" ","MAREA":"枋子林","LANE":" ","ALLEY":" ","HOUSE_NO":"４２之１號","E_COORD97":189052.60999999999,"N_COORD97":2587568.4199999999,"ADDRESS":"枋子林４２之１號","OBJECTID":155167},"geometry":{"x":189052.61000000127,"y":2587568.4200000018}},{"attributes":{"ID":155169,"DIS_CODE":0,"TOWNNAME":"白河區","LI":"廣安里","LIN":"5鄰","STREET":" ","SECT":" ","MAREA":"枋子林","LANE":" ","ALLEY":" ","HOUSE_NO":"４２之３號","E_COORD97":189024.51000000001,"N_COORD97":2587562.4100000001,"ADDRESS":"枋子林４２之３號","OBJECTID":155168},"geometry":{"x":189024.50999999978,"y":2587562.410000002}},{"attributes":{"ID":155170,"DIS_CODE":0,"TOWNNAME":"白河區","LI":"廣安里","LIN":"5鄰","STREET":" ","SECT":" ","MAREA":"枋子林","LANE":" ","ALLEY":" ","HOUSE_NO":"４２號","E_COORD97":189059.04000000001,"N_COORD97":2587556.4199999999,"ADDRESS":"枋子林４２號","OBJECTID":155169},"geometry":{"x":189059.04000000097,"y":2587556.4199999999}},{"attributes":{"ID":155171,"DIS_CODE":0,"TOWNNAME":"白河區","LI":"廣安里","LIN":"5鄰","STREET":" ","SECT":" ","MAREA":"枋子林","LANE":" ","ALLEY":" ","HOUSE_NO":"４３之１號","E_COORD97":189056.19,"N_COORD97":2587490.3999999999,"ADDRESS":"枋子林４３之１號","OBJECTID":155170},"geometry":{"x":189056.19000000041,"y":2587490.4000000022}},{"attributes":{"ID":155172,"DIS_CODE":0,"TOWNNAME":"北區","LI":"成功里","LIN":"2鄰","STREET":"北安路","SECT":"一段","MAREA":" ","LANE":"９４巷","ALLEY":"３弄","HOUSE_NO":"２１號","E_COORD97":169043.39999999999,"N_COORD97":2546434.8500000001,"ADDRESS":"北安路一段９４巷３弄２１號","OBJECTID":155171},"geometry":{"x":169043.40000000224,"y":2546434.8499999996}},{"attributes":{"ID":155173,"DIS_CODE":0,"TOWNNAME":"北區","LI":"成功里","LIN":"2鄰","STREET":"北安路","SECT":"一段","MAREA":" ","LANE":"９４巷","ALLEY":"３弄","HOUSE_NO":"２３號","E_COORD97":169037.62,"N_COORD97":2546439.1800000002,"ADDRESS":"北安路一段９４巷３弄２３號","OBJECTID":155172},"geometry":{"x":169037.62000000011,"y":2546439.1799999997}},{"attributes":{"ID":155174,"DIS_CODE":0,"TOWNNAME":"白河區","LI":"廣安里","LIN":"5鄰","STREET":" ","SECT":" ","MAREA":"枋子林","LANE":" ","ALLEY":" ","HOUSE_NO":"４４之１１號","E_COORD97":189070.23000000001,"N_COORD97":2587470.9399999999,"ADDRESS":"枋子林４４之１１號","OBJECTID":155173},"geometry":{"x":189070.23000000138,"y":2587470.9399999995}},{"attributes":{"ID":155175,"DIS_CODE":0,"TOWNNAME":"白河區","LI":"廣安里","LIN":"5鄰","STREET":" ","SECT":" ","MAREA":"枋子林","LANE":" ","ALLEY":" ","HOUSE_NO":"４４之１號","E_COORD97":189061.39000000001,"N_COORD97":2587444.1400000001,"ADDRESS":"枋子林４４之１號","OBJECTID":155174},"geometry":{"x":189061.3900000006,"y":2587444.1400000006}},{"attributes":{"ID":155176,"DIS_CODE":0,"TOWNNAME":"白河區","LI":"廣安里","LIN":"5鄰","STREET":" ","SECT":" ","MAREA":"枋子林","LANE":" ","ALLEY":" ","HOUSE_NO":"４４之２號","E_COORD97":189065.69,"N_COORD97":2587462.8199999998,"ADDRESS":"枋子林４４之２號","OBJECTID":155175},"geometry":{"x":189065.69000000134,"y":2587462.8200000003}},{"attributes":{"ID":155177,"DIS_CODE":0,"TOWNNAME":"白河區","LI":"廣安里","LIN":"5鄰","STREET":" ","SECT":" ","MAREA":"枋子林","LANE":" ","ALLEY":" ","HOUSE_NO":"４４之３號","E_COORD97":189068.39999999999,"N_COORD97":2587467.23,"ADDRESS":"枋子林４４之３號","OBJECTID":155176},"geometry":{"x":189068.40000000037,"y":2587467.2299999986}},{"attributes":{"ID":155178,"DIS_CODE":0,"TOWNNAME":"白河區","LI":"廣安里","LIN":"5鄰","STREET":" ","SECT":" ","MAREA":"枋子林","LANE":" ","ALLEY":" ","HOUSE_NO":"４４之５號","E_COORD97":189071.47,"N_COORD97":2587474.1899999999,"ADDRESS":"枋子林４４之５號","OBJECTID":155177},"geometry":{"x":189071.47000000067,"y":2587474.1900000013}},{"attributes":{"ID":155179,"DIS_CODE":0,"TOWNNAME":"北區","LI":"成功里","LIN":"2鄰","STREET":"北安路","SECT":"一段","MAREA":" ","LANE":"９４巷","ALLEY":"３弄","HOUSE_NO":"２５號","E_COORD97":169032.32000000001,"N_COORD97":2546442.5499999998,"ADDRESS":"北安路一段９４巷３弄２５號","OBJECTID":155178},"geometry":{"x":169032.32000000123,"y":2546442.5500000026}},{"attributes":{"ID":155180,"DIS_CODE":0,"TOWNNAME":"白河區","LI":"廣安里","LIN":"5鄰","STREET":" ","SECT":" ","MAREA":"枋子林","LANE":" ","ALLEY":" ","HOUSE_NO":"４４之６號","E_COORD97":189073.51999999999,"N_COORD97":2587477.9399999999,"ADDRESS":"枋子林４４之６號","OBJECTID":155179},"geometry":{"x":189073.51999999955,"y":2587477.9399999995}},{"attributes":{"ID":155181,"DIS_CODE":0,"TOWNNAME":"北區","LI":"成功里","LIN":"2鄰","STREET":"北安路","SECT":"一段","MAREA":" ","LANE":"９４巷","ALLEY":"３弄","HOUSE_NO":"２７號","E_COORD97":169024.60999999999,"N_COORD97":2546448.7999999998,"ADDRESS":"北安路一段９４巷３弄２７號","OBJECTID":155180},"geometry":{"x":169024.61000000034,"y":2546448.8000000026}},{"attributes":{"ID":155182,"DIS_CODE":0,"TOWNNAME":"白河區","LI":"廣安里","LIN":"5鄰","STREET":" ","SECT":" ","MAREA":"枋子林","LANE":" ","ALLEY":" ","HOUSE_NO":"４４之７號","E_COORD97":189075.57000000001,"N_COORD97":2587481.7000000002,"ADDRESS":"枋子林４４之７號","OBJECTID":155181},"geometry":{"x":189075.5700000003,"y":2587481.6999999993}},{"attributes":{"ID":155183,"DIS_CODE":0,"TOWNNAME":"北區","LI":"成功里","LIN":"2鄰","STREET":"北安路","SECT":"一段","MAREA":" ","LANE":"９４巷","ALLEY":"３弄","HOUSE_NO":"２９號","E_COORD97":169016.91,"N_COORD97":2546453.1299999999,"ADDRESS":"北安路一段９４巷３弄２９號","OBJECTID":155182},"geometry":{"x":169016.91000000015,"y":2546453.1300000027}},{"attributes":{"ID":155184,"DIS_CODE":0,"TOWNNAME":"白河區","LI":"廣安里","LIN":"5鄰","STREET":" ","SECT":" ","MAREA":"枋子林","LANE":" ","ALLEY":" ","HOUSE_NO":"４４之９號","E_COORD97":189077.13,"N_COORD97":2587485.5299999998,"ADDRESS":"枋子林４４之９號","OBJECTID":155183},"geometry":{"x":189077.13000000082,"y":2587485.5300000012}},{"attributes":{"ID":155185,"DIS_CODE":0,"TOWNNAME":"白河區","LI":"廣安里","LIN":"5鄰","STREET":" ","SECT":" ","MAREA":"枋子林","LANE":" ","ALLEY":" ","HOUSE_NO":"４６號","E_COORD97":189036.72,"N_COORD97":2587460.73,"ADDRESS":"枋子林４６號","OBJECTID":155184},"geometry":{"x":189036.71999999974,"y":2587460.7300000042}},{"attributes":{"ID":155186,"DIS_CODE":0,"TOWNNAME":"白河區","LI":"廣安里","LIN":"5鄰","STREET":" ","SECT":" ","MAREA":"枋子林","LANE":" ","ALLEY":" ","HOUSE_NO":"４８之１號","E_COORD97":189002.51000000001,"N_COORD97":2587513.7200000002,"ADDRESS":"枋子林４８之１號","OBJECTID":155185},"geometry":{"x":189002.50999999978,"y":2587513.7200000007}},{"attributes":{"ID":155187,"DIS_CODE":0,"TOWNNAME":"白河區","LI":"廣安里","LIN":"5鄰","STREET":" ","SECT":" ","MAREA":"枋子林","LANE":" ","ALLEY":" ","HOUSE_NO":"４８之２號","E_COORD97":188976.03,"N_COORD97":2587475.0499999998,"ADDRESS":"枋子林４８之２號","OBJECTID":155186},"geometry":{"x":188976.03000000212,"y":2587475.0500000007}},{"attributes":{"ID":155188,"DIS_CODE":0,"TOWNNAME":"學甲區","LI":"三慶里","LIN":"20鄰","STREET":" ","SECT":" ","MAREA":"紅茄","LANE":" ","ALLEY":" ","HOUSE_NO":"５９號","E_COORD97":167524.39999999999,"N_COORD97":2575864.3300000001,"ADDRESS":"紅茄５９號","OBJECTID":155187},"geometry":{"x":167524.40000000224,"y":2575864.3299999982}},{"attributes":{"ID":155189,"DIS_CODE":0,"TOWNNAME":"北區","LI":"成功里","LIN":"2鄰","STREET":"北安路","SECT":"一段","MAREA":" ","LANE":"９４巷","ALLEY":"３弄","HOUSE_NO":"３號","E_COORD97":169086.75,"N_COORD97":2546400.6899999999,"ADDRESS":"北安路一段９４巷３弄３號","OBJECTID":155188},"geometry":{"x":169086.75000000093,"y":2546400.6900000013}},{"attributes":{"ID":155190,"DIS_CODE":0,"TOWNNAME":"白河區","LI":"廣安里","LIN":"5鄰","STREET":" ","SECT":" ","MAREA":"枋子林","LANE":" ","ALLEY":" ","HOUSE_NO":"４８號","E_COORD97":188988.57000000001,"N_COORD97":2587502.6899999999,"ADDRESS":"枋子林４８號","OBJECTID":155189},"geometry":{"x":188988.5700000003,"y":2587502.6899999995}},{"attributes":{"ID":155191,"DIS_CODE":0,"TOWNNAME":"白河區","LI":"廣安里","LIN":"5鄰","STREET":" ","SECT":" ","MAREA":"枋子林","LANE":" ","ALLEY":" ","HOUSE_NO":"４９號","E_COORD97":189026.48000000001,"N_COORD97":2587453.4199999999,"ADDRESS":"枋子林４９號","OBJECTID":155190},"geometry":{"x":189026.48000000138,"y":2587453.4200000018}},{"attributes":{"ID":155192,"DIS_CODE":0,"TOWNNAME":"白河區","LI":"廣安里","LIN":"5鄰","STREET":" ","SECT":" ","MAREA":"枋子林","LANE":" ","ALLEY":" ","HOUSE_NO":"５０號","E_COORD97":188973.76999999999,"N_COORD97":2587440.1800000002,"ADDRESS":"枋子林５０號","OBJECTID":155191},"geometry":{"x":188973.77000000142,"y":2587440.1800000016}},{"attributes":{"ID":155193,"DIS_CODE":0,"TOWNNAME":"白河區","LI":"汴頭里","LIN":"5鄰","STREET":" ","SECT":" ","MAREA":"林子內","LANE":" ","ALLEY":" ","HOUSE_NO":"４２號","E_COORD97":194934.89999999999,"N_COORD97":2585065.54,"ADDRESS":"林子內４２號","OBJECTID":155192},"geometry":{"x":194934.90000000037,"y":2585065.5399999991}},{"attributes":{"ID":155194,"DIS_CODE":0,"TOWNNAME":"白河區","LI":"汴頭里","LIN":"5鄰","STREET":" ","SECT":" ","MAREA":"林子內","LANE":" ","ALLEY":" ","HOUSE_NO":"４３之１號","E_COORD97":194948.26000000001,"N_COORD97":2585055.5499999998,"ADDRESS":"林子內４３之１號","OBJECTID":155193},"geometry":{"x":194948.26000000071,"y":2585055.5500000026}},{"attributes":{"ID":155195,"DIS_CODE":0,"TOWNNAME":"北區","LI":"成功里","LIN":"2鄰","STREET":"北安路","SECT":"一段","MAREA":" ","LANE":"９４巷","ALLEY":"３弄","HOUSE_NO":"５號","E_COORD97":169082.41,"N_COORD97":2546405.02,"ADDRESS":"北安路一段９４巷３弄５號","OBJECTID":155194},"geometry":{"x":169082.41000000108,"y":2546405.0200000014}},{"attributes":{"ID":155196,"DIS_CODE":0,"TOWNNAME":"白河區","LI":"汴頭里","LIN":"5鄰","STREET":" ","SECT":" ","MAREA":"林子內","LANE":" ","ALLEY":" ","HOUSE_NO":"４５之１１號","E_COORD97":194982.64000000001,"N_COORD97":2585040.7200000002,"ADDRESS":"林子內４５之１１號","OBJECTID":155195},"geometry":{"x":194982.6400000006,"y":2585040.7200000025}},{"attributes":{"ID":155197,"DIS_CODE":0,"TOWNNAME":"白河區","LI":"汴頭里","LIN":"5鄰","STREET":" ","SECT":" ","MAREA":"林子內","LANE":" ","ALLEY":" ","HOUSE_NO":"４５之１２號","E_COORD97":194988.35000000001,"N_COORD97":2585045.1499999999,"ADDRESS":"林子內４５之１２號","OBJECTID":155196},"geometry":{"x":194988.35000000056,"y":2585045.1500000022}},{"attributes":{"ID":155198,"DIS_CODE":0,"TOWNNAME":"白河區","LI":"汴頭里","LIN":"5鄰","STREET":" ","SECT":" ","MAREA":"林子內","LANE":" ","ALLEY":" ","HOUSE_NO":"４５之１３號","E_COORD97":194993.57999999999,"N_COORD97":2585049.3599999999,"ADDRESS":"林子內４５之１３號","OBJECTID":155197},"geometry":{"x":194993.58000000101,"y":2585049.3600000013}},{"attributes":{"ID":155199,"DIS_CODE":0,"TOWNNAME":"白河區","LI":"汴頭里","LIN":"5鄰","STREET":" ","SECT":" ","MAREA":"林子內","LANE":" ","ALLEY":" ","HOUSE_NO":"４５之１４號","E_COORD97":194998.89999999999,"N_COORD97":2585054.4300000002,"ADDRESS":"林子內４５之１４號","OBJECTID":155198},"geometry":{"x":194998.9000000013,"y":2585054.4299999997}},{"attributes":{"ID":155200,"DIS_CODE":0,"TOWNNAME":"白河區","LI":"汴頭里","LIN":"5鄰","STREET":" ","SECT":" ","MAREA":"林子內","LANE":" ","ALLEY":" ","HOUSE_NO":"４５之１號","E_COORD97":194976.45999999999,"N_COORD97":2585025.8700000001,"ADDRESS":"林子內４５之１號","OBJECTID":155199},"geometry":{"x":194976.45999999996,"y":2585025.8699999992}},{"attributes":{"ID":155201,"DIS_CODE":0,"TOWNNAME":"北區","LI":"成功里","LIN":"2鄰","STREET":"北安路","SECT":"一段","MAREA":" ","LANE":"９４巷","ALLEY":"３弄","HOUSE_NO":"７號","E_COORD97":169077.12,"N_COORD97":2546409.8300000001,"ADDRESS":"北安路一段９４巷３弄７號","OBJECTID":155200},"geometry":{"x":169077.12000000197,"y":2546409.8300000019}}]}