{"displayFieldName":"TOWNNAME","fieldAliases":{"ID":"ID","DIS_CODE":"DIS_CODE","TOWNNAME":"TOWNNAME","LI":"LI","LIN":"LIN","STREET":"STREET","SECT":"SECT","MAREA":"MAREA","LANE":"LANE","ALLEY":"ALLEY","HOUSE_NO":"HOUSE_NO","E_COORD97":"E_COORD97","N_COORD97":"N_COORD97","ADDRESS":"ADDRESS","OBJECTID":"OBJECTID"},"geometryType":"esriGeometryPoint","spatialReference":{"wkid":102443,"latestWkid":3826},"fields":[{"name":"ID","type":"esriFieldTypeDouble","alias":"ID"},{"name":"DIS_CODE","type":"esriFieldTypeInteger","alias":"DIS_CODE"},{"name":"TOWNNAME","type":"esriFieldTypeString","alias":"TOWNNAME","length":8},{"name":"LI","type":"esriFieldTypeString","alias":"LI","length":8},{"name":"LIN","type":"esriFieldTypeString","alias":"LIN","length":12},{"name":"STREET","type":"esriFieldTypeString","alias":"STREET","length":20},{"name":"SECT","type":"esriFieldTypeString","alias":"SECT","length":8},{"name":"MAREA","type":"esriFieldTypeString","alias":"MAREA","length":12},{"name":"LANE","type":"esriFieldTypeString","alias":"LANE","length":10},{"name":"ALLEY","type":"esriFieldTypeString","alias":"ALLEY","length":10},{"name":"HOUSE_NO","type":"esriFieldTypeString","alias":"HOUSE_NO","length":20},{"name":"E_COORD97","type":"esriFieldTypeDouble","alias":"E_COORD97"},{"name":"N_COORD97","type":"esriFieldTypeDouble","alias":"N_COORD97"},{"name":"ADDRESS","type":"esriFieldTypeString","alias":"ADDRESS","length":50},{"name":"OBJECTID","type":"esriFieldTypeOID","alias":"OBJECTID"}],"features":[{"attributes":{"ID":614228,"DIS_CODE":0,"TOWNNAME":"東區","LI":"崇德里","LIN":"2鄰","STREET":"崇德路","SECT":" ","MAREA":" ","LANE":" ","ALLEY":" ","HOUSE_NO":"４１９號","E_COORD97":170589.34,"N_COORD97":2541788.0699999998,"ADDRESS":"崇德路４１９號","OBJECTID":614201},"geometry":{"x":170589.34000000078,"y":2541788.0700000022}},{"attributes":{"ID":614229,"DIS_CODE":0,"TOWNNAME":"東區","LI":"崇德里","LIN":"2鄰","STREET":"崇德路","SECT":" ","MAREA":" ","LANE":" ","ALLEY":" ","HOUSE_NO":"４２３號","E_COORD97":170597.12,"N_COORD97":2541782.54,"ADDRESS":"崇德路４２３號","OBJECTID":614202},"geometry":{"x":170597.12000000011,"y":2541782.540000001}},{"attributes":{"ID":614230,"DIS_CODE":0,"TOWNNAME":"東區","LI":"崇德里","LIN":"2鄰","STREET":"崇德路","SECT":" ","MAREA":" ","LANE":" ","ALLEY":" ","HOUSE_NO":"４２５號","E_COORD97":170600.57999999999,"N_COORD97":2541778.9100000001,"ADDRESS":"崇德路４２５號","OBJECTID":614203},"geometry":{"x":170600.58000000007,"y":2541778.9100000001}},{"attributes":{"ID":614231,"DIS_CODE":0,"TOWNNAME":"東區","LI":"崇德里","LIN":"2鄰","STREET":"崇德路","SECT":" ","MAREA":" ","LANE":" ","ALLEY":" ","HOUSE_NO":"４２７號","E_COORD97":170605.76000000001,"N_COORD97":2541778.5699999998,"ADDRESS":"崇德路４２７號","OBJECTID":614204},"geometry":{"x":170605.75999999978,"y":2541778.5700000003}},{"attributes":{"ID":614232,"DIS_CODE":0,"TOWNNAME":"東區","LI":"崇德里","LIN":"2鄰","STREET":"崇德路","SECT":" ","MAREA":" ","LANE":" ","ALLEY":" ","HOUSE_NO":"４２９號","E_COORD97":170611.45999999999,"N_COORD97":2541775.46,"ADDRESS":"崇德路４２９號","OBJECTID":614205},"geometry":{"x":170611.45999999996,"y":2541775.4600000028}},{"attributes":{"ID":614233,"DIS_CODE":0,"TOWNNAME":"東區","LI":"崇德里","LIN":"2鄰","STREET":"崇德路","SECT":" ","MAREA":" ","LANE":" ","ALLEY":" ","HOUSE_NO":"４３１號","E_COORD97":170615.26000000001,"N_COORD97":2541769.5899999999,"ADDRESS":"崇德路４３１號","OBJECTID":614206},"geometry":{"x":170615.26000000071,"y":2541769.5900000017}},{"attributes":{"ID":614234,"DIS_CODE":0,"TOWNNAME":"東區","LI":"崇德里","LIN":"2鄰","STREET":"中華東路","SECT":"三段","MAREA":" ","LANE":" ","ALLEY":" ","HOUSE_NO":"１７５號","E_COORD97":170644.47,"N_COORD97":2541906.6200000001,"ADDRESS":"中華東路三段１７５號","OBJECTID":614207},"geometry":{"x":170644.47000000067,"y":2541906.6200000029}},{"attributes":{"ID":614235,"DIS_CODE":0,"TOWNNAME":"東區","LI":"崇德里","LIN":"2鄰","STREET":"中華東路","SECT":"三段","MAREA":" ","LANE":" ","ALLEY":" ","HOUSE_NO":"１７７號","E_COORD97":170631.94,"N_COORD97":2541914.5800000001,"ADDRESS":"中華東路三段１７７號","OBJECTID":614208},"geometry":{"x":170631.94000000134,"y":2541914.5800000001}},{"attributes":{"ID":614236,"DIS_CODE":0,"TOWNNAME":"東區","LI":"崇德里","LIN":"2鄰","STREET":"中華東路","SECT":"三段","MAREA":" ","LANE":" ","ALLEY":" ","HOUSE_NO":"１８３號","E_COORD97":170623.62,"N_COORD97":2541904.4500000002,"ADDRESS":"中華東路三段１８３號","OBJECTID":614209},"geometry":{"x":170623.62000000104,"y":2541904.4499999993}},{"attributes":{"ID":614237,"DIS_CODE":0,"TOWNNAME":"東區","LI":"崇德里","LIN":"2鄰","STREET":"中華東路","SECT":"三段","MAREA":" ","LANE":" ","ALLEY":" ","HOUSE_NO":"１８５號","E_COORD97":170617.12,"N_COORD97":2541895.1000000001,"ADDRESS":"中華東路三段１８５號","OBJECTID":614210},"geometry":{"x":170617.12000000104,"y":2541895.1000000015}},{"attributes":{"ID":614238,"DIS_CODE":0,"TOWNNAME":"東區","LI":"崇德里","LIN":"2鄰","STREET":"中華東路","SECT":"三段","MAREA":" ","LANE":" ","ALLEY":" ","HOUSE_NO":"１９７號","E_COORD97":170601.53,"N_COORD97":2541882.1099999999,"ADDRESS":"中華東路三段１９７號","OBJECTID":614211},"geometry":{"x":170601.53000000026,"y":2541882.1099999994}},{"attributes":{"ID":614239,"DIS_CODE":0,"TOWNNAME":"東區","LI":"崇德里","LIN":"2鄰","STREET":"中華東路","SECT":"三段","MAREA":" ","LANE":" ","ALLEY":" ","HOUSE_NO":"１９９號","E_COORD97":170597.10999999999,"N_COORD97":2541878.48,"ADDRESS":"中華東路三段１９９號","OBJECTID":614212},"geometry":{"x":170597.11000000127,"y":2541878.4799999986}},{"attributes":{"ID":614240,"DIS_CODE":0,"TOWNNAME":"東區","LI":"崇德里","LIN":"2鄰","STREET":"中華東路","SECT":"三段","MAREA":" ","LANE":" ","ALLEY":" ","HOUSE_NO":"２０９號","E_COORD97":170581.25,"N_COORD97":2541854.3199999998,"ADDRESS":"中華東路三段２０９號","OBJECTID":614213},"geometry":{"x":170581.25,"y":2541854.3200000003}},{"attributes":{"ID":614241,"DIS_CODE":0,"TOWNNAME":"東區","LI":"崇德里","LIN":"2鄰","STREET":"中華東路","SECT":"三段","MAREA":" ","LANE":" ","ALLEY":" ","HOUSE_NO":"２１５號","E_COORD97":170568.51000000001,"N_COORD97":2541838.73,"ADDRESS":"中華東路三段２１５號","OBJECTID":614214},"geometry":{"x":170568.50999999978,"y":2541838.7300000004}},{"attributes":{"ID":614242,"DIS_CODE":0,"TOWNNAME":"中西區","LI":"天后里","LIN":"25鄰","STREET":"新美街","SECT":" ","MAREA":" ","LANE":" ","ALLEY":" ","HOUSE_NO":"２５４號","E_COORD97":168155.85000000001,"N_COORD97":2544321.8399999999,"ADDRESS":"新美街２５４號","OBJECTID":614215},"geometry":{"x":168155.84999999963,"y":2544321.8399999999}},{"attributes":{"ID":614243,"DIS_CODE":0,"TOWNNAME":"中西區","LI":"天后里","LIN":"25鄰","STREET":"新美街","SECT":" ","MAREA":" ","LANE":" ","ALLEY":" ","HOUSE_NO":"２５６號","E_COORD97":168156.41,"N_COORD97":2544324.9100000001,"ADDRESS":"新美街２５６號","OBJECTID":614216},"geometry":{"x":168156.41000000201,"y":2544324.910000002}},{"attributes":{"ID":614244,"DIS_CODE":0,"TOWNNAME":"中西區","LI":"天后里","LIN":"25鄰","STREET":"新美街","SECT":" ","MAREA":" ","LANE":" ","ALLEY":" ","HOUSE_NO":"２５８號","E_COORD97":168158.51000000001,"N_COORD97":2544329.1000000001,"ADDRESS":"新美街２５８號","OBJECTID":614217},"geometry":{"x":168158.50999999978,"y":2544329.1000000015}},{"attributes":{"ID":614245,"DIS_CODE":0,"TOWNNAME":"中西區","LI":"天后里","LIN":"25鄰","STREET":"新美街","SECT":" ","MAREA":" ","LANE":" ","ALLEY":" ","HOUSE_NO":"２６０號","E_COORD97":168166.89999999999,"N_COORD97":2544319.7400000002,"ADDRESS":"新美街２６０號","OBJECTID":614218},"geometry":{"x":168166.90000000224,"y":2544319.7400000002}},{"attributes":{"ID":614246,"DIS_CODE":0,"TOWNNAME":"仁德區","LI":"仁義里","LIN":"25鄰","STREET":"正義路","SECT":" ","MAREA":" ","LANE":" ","ALLEY":" ","HOUSE_NO":"９２號","E_COORD97":173588.04000000001,"N_COORD97":2541427.1800000002,"ADDRESS":"正義路９２號","OBJECTID":614219},"geometry":{"x":173588.04000000004,"y":2541427.1800000016}},{"attributes":{"ID":614247,"DIS_CODE":0,"TOWNNAME":"中西區","LI":"天后里","LIN":"16鄰","STREET":"民族路","SECT":"二段","MAREA":" ","LANE":" ","ALLEY":" ","HOUSE_NO":"２７０號","E_COORD97":168080.48000000001,"N_COORD97":2544232.0899999999,"ADDRESS":"民族路二段２７０號","OBJECTID":614220},"geometry":{"x":168080.48000000138,"y":2544232.0899999999}},{"attributes":{"ID":614248,"DIS_CODE":0,"TOWNNAME":"中西區","LI":"天后里","LIN":"16鄰","STREET":"民族路","SECT":"二段","MAREA":" ","LANE":" ","ALLEY":" ","HOUSE_NO":"２７２號","E_COORD97":168077.32000000001,"N_COORD97":2544233.27,"ADDRESS":"民族路二段２７２號","OBJECTID":614221},"geometry":{"x":168077.3200000003,"y":2544233.2700000014}},{"attributes":{"ID":614249,"DIS_CODE":0,"TOWNNAME":"中西區","LI":"天后里","LIN":"16鄰","STREET":"民族路","SECT":"二段","MAREA":" ","LANE":" ","ALLEY":" ","HOUSE_NO":"２７４號","E_COORD97":168073.5,"N_COORD97":2544234.9900000002,"ADDRESS":"民族路二段２７４號","OBJECTID":614222},"geometry":{"x":168073.5,"y":2544234.9900000039}},{"attributes":{"ID":614250,"DIS_CODE":0,"TOWNNAME":"中西區","LI":"天后里","LIN":"16鄰","STREET":"民族路","SECT":"二段","MAREA":" ","LANE":" ","ALLEY":" ","HOUSE_NO":"２７６號","E_COORD97":168075.85000000001,"N_COORD97":2544254.46,"ADDRESS":"民族路二段２７６號","OBJECTID":614223},"geometry":{"x":168075.84999999963,"y":2544254.4600000009}},{"attributes":{"ID":614251,"DIS_CODE":0,"TOWNNAME":"白河區","LI":"白河里","LIN":"2鄰","STREET":"康樂路","SECT":" ","MAREA":" ","LANE":" ","ALLEY":" ","HOUSE_NO":"１１之１號","E_COORD97":190220.23000000001,"N_COORD97":2582888.75,"ADDRESS":"康樂路１１之１號","OBJECTID":614224},"geometry":{"x":190220.23000000045,"y":2582888.75}},{"attributes":{"ID":614252,"DIS_CODE":0,"TOWNNAME":"白河區","LI":"白河里","LIN":"2鄰","STREET":"康樂路","SECT":" ","MAREA":" ","LANE":" ","ALLEY":" ","HOUSE_NO":"１１號","E_COORD97":190218.39999999999,"N_COORD97":2582892.5600000001,"ADDRESS":"康樂路１１號","OBJECTID":614225},"geometry":{"x":190218.4000000013,"y":2582892.5600000024}},{"attributes":{"ID":614253,"DIS_CODE":0,"TOWNNAME":"白河區","LI":"白河里","LIN":"2鄰","STREET":"康樂路","SECT":" ","MAREA":" ","LANE":" ","ALLEY":" ","HOUSE_NO":"１３號","E_COORD97":190215.29999999999,"N_COORD97":2582897.6600000001,"ADDRESS":"康樂路１３號","OBJECTID":614226},"geometry":{"x":190215.30000000075,"y":2582897.6600000039}},{"attributes":{"ID":614254,"DIS_CODE":0,"TOWNNAME":"白河區","LI":"白河里","LIN":"2鄰","STREET":"康樂路","SECT":" ","MAREA":" ","LANE":" ","ALLEY":" ","HOUSE_NO":"１５號","E_COORD97":190212.32999999999,"N_COORD97":2582901.6800000002,"ADDRESS":"康樂路１５號","OBJECTID":614227},"geometry":{"x":190212.33000000007,"y":2582901.6800000016}},{"attributes":{"ID":614255,"DIS_CODE":0,"TOWNNAME":"白河區","LI":"白河里","LIN":"2鄰","STREET":"康樂路","SECT":" ","MAREA":" ","LANE":" ","ALLEY":" ","HOUSE_NO":"１７號","E_COORD97":190209.98999999999,"N_COORD97":2582905.3599999999,"ADDRESS":"康樂路１７號","OBJECTID":614228},"geometry":{"x":190209.99000000022,"y":2582905.3600000031}},{"attributes":{"ID":614256,"DIS_CODE":0,"TOWNNAME":"白河區","LI":"白河里","LIN":"2鄰","STREET":"康樂路","SECT":" ","MAREA":" ","LANE":" ","ALLEY":" ","HOUSE_NO":"１９號","E_COORD97":190207.35000000001,"N_COORD97":2582909.3799999999,"ADDRESS":"康樂路１９號","OBJECTID":614229},"geometry":{"x":190207.35000000149,"y":2582909.3800000008}},{"attributes":{"ID":614257,"DIS_CODE":0,"TOWNNAME":"白河區","LI":"白河里","LIN":"2鄰","STREET":"康樂路","SECT":" ","MAREA":" ","LANE":" ","ALLEY":" ","HOUSE_NO":"３９之１號","E_COORD97":190175.57000000001,"N_COORD97":2582961.29,"ADDRESS":"康樂路３９之１號","OBJECTID":614230},"geometry":{"x":190175.5700000003,"y":2582961.290000001}},{"attributes":{"ID":614258,"DIS_CODE":0,"TOWNNAME":"白河區","LI":"白河里","LIN":"2鄰","STREET":"康樂路","SECT":" ","MAREA":" ","LANE":" ","ALLEY":" ","HOUSE_NO":"３９之２號","E_COORD97":190173.35999999999,"N_COORD97":2582965.9100000001,"ADDRESS":"康樂路３９之２號","OBJECTID":614231},"geometry":{"x":190173.36000000034,"y":2582965.9100000001}},{"attributes":{"ID":614259,"DIS_CODE":0,"TOWNNAME":"白河區","LI":"白河里","LIN":"2鄰","STREET":"康樂路","SECT":" ","MAREA":" ","LANE":" ","ALLEY":" ","HOUSE_NO":"４１之２號","E_COORD97":190168.57999999999,"N_COORD97":2582972.8599999999,"ADDRESS":"康樂路４１之２號","OBJECTID":614232},"geometry":{"x":190168.58000000007,"y":2582972.8599999994}},{"attributes":{"ID":614260,"DIS_CODE":0,"TOWNNAME":"白河區","LI":"白河里","LIN":"2鄰","STREET":"康樂路","SECT":" ","MAREA":" ","LANE":" ","ALLEY":" ","HOUSE_NO":"４３號","E_COORD97":190166.45000000001,"N_COORD97":2582976.1699999999,"ADDRESS":"康樂路４３號","OBJECTID":614233},"geometry":{"x":190166.44999999925,"y":2582976.1700000018}},{"attributes":{"ID":614261,"DIS_CODE":0,"TOWNNAME":"白河區","LI":"永安里","LIN":"2鄰","STREET":"康樂路","SECT":" ","MAREA":" ","LANE":" ","ALLEY":" ","HOUSE_NO":"５１號","E_COORD97":190124.42999999999,"N_COORD97":2583016.1499999999,"ADDRESS":"康樂路５１號","OBJECTID":614234},"geometry":{"x":190124.43000000063,"y":2583016.1499999985}},{"attributes":{"ID":614262,"DIS_CODE":0,"TOWNNAME":"白河區","LI":"永安里","LIN":"2鄰","STREET":"康樂路","SECT":" ","MAREA":" ","LANE":" ","ALLEY":" ","HOUSE_NO":"５６之１號","E_COORD97":190125.62,"N_COORD97":2583038.2000000002,"ADDRESS":"康樂路５６之１號","OBJECTID":614235},"geometry":{"x":190125.62000000011,"y":2583038.1999999993}},{"attributes":{"ID":614263,"DIS_CODE":0,"TOWNNAME":"白河區","LI":"永安里","LIN":"2鄰","STREET":"康樂路","SECT":" ","MAREA":" ","LANE":" ","ALLEY":" ","HOUSE_NO":"５６之２號","E_COORD97":190122.04000000001,"N_COORD97":2583040.6400000001,"ADDRESS":"康樂路５６之２號","OBJECTID":614236},"geometry":{"x":190122.04000000097,"y":2583040.6400000043}},{"attributes":{"ID":614264,"DIS_CODE":0,"TOWNNAME":"白河區","LI":"永安里","LIN":"2鄰","STREET":"康樂路","SECT":" ","MAREA":" ","LANE":" ","ALLEY":" ","HOUSE_NO":"５６號","E_COORD97":190129.06,"N_COORD97":2583034.2799999998,"ADDRESS":"康樂路５６號","OBJECTID":614237},"geometry":{"x":190129.05999999959,"y":2583034.2799999993}},{"attributes":{"ID":614265,"DIS_CODE":0,"TOWNNAME":"白河區","LI":"永安里","LIN":"2鄰","STREET":"康樂路","SECT":" ","MAREA":" ","LANE":" ","ALLEY":" ","HOUSE_NO":"５８號","E_COORD97":190116.10999999999,"N_COORD97":2583050.7999999998,"ADDRESS":"康樂路５８號","OBJECTID":614238},"geometry":{"x":190116.11000000034,"y":2583050.8000000026}},{"attributes":{"ID":614266,"DIS_CODE":0,"TOWNNAME":"白河區","LI":"永安里","LIN":"2鄰","STREET":"康樂路","SECT":" ","MAREA":" ","LANE":" ","ALLEY":" ","HOUSE_NO":"６０之１號","E_COORD97":190104.69,"N_COORD97":2583067.8900000001,"ADDRESS":"康樂路６０之１號","OBJECTID":614239},"geometry":{"x":190104.69000000134,"y":2583067.8900000006}},{"attributes":{"ID":614267,"DIS_CODE":0,"TOWNNAME":"白河區","LI":"永安里","LIN":"2鄰","STREET":"康樂路","SECT":" ","MAREA":" ","LANE":" ","ALLEY":" ","HOUSE_NO":"６０之２號","E_COORD97":190102.53,"N_COORD97":2583072.3300000001,"ADDRESS":"康樂路６０之２號","OBJECTID":614240},"geometry":{"x":190102.53000000026,"y":2583072.3299999982}},{"attributes":{"ID":614268,"DIS_CODE":0,"TOWNNAME":"白河區","LI":"永安里","LIN":"2鄰","STREET":"康樂路","SECT":" ","MAREA":" ","LANE":" ","ALLEY":" ","HOUSE_NO":"６０之３號","E_COORD97":190102.12,"N_COORD97":2583078.3100000001,"ADDRESS":"康樂路６０之３號","OBJECTID":614241},"geometry":{"x":190102.12000000011,"y":2583078.3100000005}},{"attributes":{"ID":614269,"DIS_CODE":0,"TOWNNAME":"白河區","LI":"永安里","LIN":"2鄰","STREET":"康樂路","SECT":" ","MAREA":" ","LANE":" ","ALLEY":" ","HOUSE_NO":"６０之４號","E_COORD97":190100.28,"N_COORD97":2583082,"ADDRESS":"康樂路６０之４號","OBJECTID":614242},"geometry":{"x":190100.28000000119,"y":2583082.0000000019}},{"attributes":{"ID":614270,"DIS_CODE":0,"TOWNNAME":"白河區","LI":"永安里","LIN":"2鄰","STREET":"康樂路","SECT":" ","MAREA":" ","LANE":" ","ALLEY":" ","HOUSE_NO":"６０之５號","E_COORD97":190099.23999999999,"N_COORD97":2583085.5099999998,"ADDRESS":"康樂路６０之５號","OBJECTID":614243},"geometry":{"x":190099.24000000115,"y":2583085.5100000016}},{"attributes":{"ID":614271,"DIS_CODE":0,"TOWNNAME":"白河區","LI":"永安里","LIN":"2鄰","STREET":"康樂路","SECT":" ","MAREA":" ","LANE":" ","ALLEY":" ","HOUSE_NO":"６０號","E_COORD97":190106.89999999999,"N_COORD97":2583064.71,"ADDRESS":"康樂路６０號","OBJECTID":614244},"geometry":{"x":190106.90000000037,"y":2583064.7100000028}},{"attributes":{"ID":614272,"DIS_CODE":0,"TOWNNAME":"白河區","LI":"永安里","LIN":"2鄰","STREET":"康樂路","SECT":" ","MAREA":" ","LANE":" ","ALLEY":" ","HOUSE_NO":"６２號","E_COORD97":190096.23000000001,"N_COORD97":2583091.2999999998,"ADDRESS":"康樂路６２號","OBJECTID":614245},"geometry":{"x":190096.23000000138,"y":2583091.3000000026}},{"attributes":{"ID":614273,"DIS_CODE":0,"TOWNNAME":"白河區","LI":"永安里","LIN":"2鄰","STREET":"康樂路","SECT":" ","MAREA":" ","LANE":" ","ALLEY":" ","HOUSE_NO":"６４號","E_COORD97":190095.63,"N_COORD97":2583095.2799999998,"ADDRESS":"康樂路６４號","OBJECTID":614246},"geometry":{"x":190095.63000000175,"y":2583095.2799999993}},{"attributes":{"ID":614274,"DIS_CODE":0,"TOWNNAME":"白河區","LI":"永安里","LIN":"2鄰","STREET":"康樂路","SECT":" ","MAREA":" ","LANE":" ","ALLEY":" ","HOUSE_NO":"６６號","E_COORD97":190095.19,"N_COORD97":2583099.4399999999,"ADDRESS":"康樂路６６號","OBJECTID":614247},"geometry":{"x":190095.19000000041,"y":2583099.4400000013}},{"attributes":{"ID":614275,"DIS_CODE":0,"TOWNNAME":"白河區","LI":"永安里","LIN":"2鄰","STREET":"康樂路","SECT":" ","MAREA":" ","LANE":" ","ALLEY":" ","HOUSE_NO":"６８號","E_COORD97":190095.01999999999,"N_COORD97":2583104.6800000002,"ADDRESS":"康樂路６８號","OBJECTID":614248},"geometry":{"x":190095.02000000048,"y":2583104.6800000016}},{"attributes":{"ID":614276,"DIS_CODE":0,"TOWNNAME":"白河區","LI":"永安里","LIN":"2鄰","STREET":"康樂路","SECT":" ","MAREA":" ","LANE":" ","ALLEY":" ","HOUSE_NO":"７０號","E_COORD97":190094.17000000001,"N_COORD97":2583109.6299999999,"ADDRESS":"康樂路７０號","OBJECTID":614249},"geometry":{"x":190094.17000000086,"y":2583109.629999999}},{"attributes":{"ID":614277,"DIS_CODE":0,"TOWNNAME":"白河區","LI":"永安里","LIN":"2鄰","STREET":"康樂路","SECT":" ","MAREA":" ","LANE":" ","ALLEY":" ","HOUSE_NO":"７２之１號","E_COORD97":190094.12,"N_COORD97":2583116.4399999999,"ADDRESS":"康樂路７２之１號","OBJECTID":614250},"geometry":{"x":190094.12000000197,"y":2583116.4400000013}},{"attributes":{"ID":614278,"DIS_CODE":0,"TOWNNAME":"白河區","LI":"永安里","LIN":"2鄰","STREET":"康樂路","SECT":" ","MAREA":" ","LANE":" ","ALLEY":" ","HOUSE_NO":"７２號","E_COORD97":190094.22,"N_COORD97":2583113.1000000001,"ADDRESS":"康樂路７２號","OBJECTID":614251},"geometry":{"x":190094.21999999974,"y":2583113.0999999996}},{"attributes":{"ID":614279,"DIS_CODE":0,"TOWNNAME":"中西區","LI":"天后里","LIN":"19鄰","STREET":"新美街","SECT":" ","MAREA":" ","LANE":" ","ALLEY":" ","HOUSE_NO":"１６９號","E_COORD97":168126.37,"N_COORD97":2544297.5699999998,"ADDRESS":"新美街１６９號","OBJECTID":614252},"geometry":{"x":168126.37000000104,"y":2544297.5700000003}},{"attributes":{"ID":614280,"DIS_CODE":0,"TOWNNAME":"中西區","LI":"天后里","LIN":"19鄰","STREET":"新美街","SECT":" ","MAREA":" ","LANE":" ","ALLEY":" ","HOUSE_NO":"１７１號","E_COORD97":168127.84,"N_COORD97":2544302.1200000001,"ADDRESS":"新美街１７１號","OBJECTID":614253},"geometry":{"x":168127.84000000171,"y":2544302.120000001}},{"attributes":{"ID":614281,"DIS_CODE":0,"TOWNNAME":"中西區","LI":"天后里","LIN":"19鄰","STREET":"新美街","SECT":" ","MAREA":" ","LANE":" ","ALLEY":" ","HOUSE_NO":"１７３號","E_COORD97":168127.25,"N_COORD97":2544307.6899999999,"ADDRESS":"新美街１７３號","OBJECTID":614254},"geometry":{"x":168127.25000000093,"y":2544307.6900000013}},{"attributes":{"ID":614282,"DIS_CODE":0,"TOWNNAME":"中西區","LI":"天后里","LIN":"19鄰","STREET":"新美街","SECT":" ","MAREA":" ","LANE":" ","ALLEY":" ","HOUSE_NO":"１８１號","E_COORD97":168133.48000000001,"N_COORD97":2544324.8599999999,"ADDRESS":"新美街１８１號","OBJECTID":614255},"geometry":{"x":168133.48000000045,"y":2544324.8599999994}},{"attributes":{"ID":614283,"DIS_CODE":0,"TOWNNAME":"中西區","LI":"天后里","LIN":"19鄰","STREET":"新美街","SECT":" ","MAREA":" ","LANE":" ","ALLEY":" ","HOUSE_NO":"１８３號","E_COORD97":168135.17000000001,"N_COORD97":2544328.3500000001,"ADDRESS":"新美街１８３號","OBJECTID":614256},"geometry":{"x":168135.16999999993,"y":2544328.3499999996}},{"attributes":{"ID":614284,"DIS_CODE":0,"TOWNNAME":"中西區","LI":"天后里","LIN":"19鄰","STREET":"新美街","SECT":" ","MAREA":" ","LANE":" ","ALLEY":" ","HOUSE_NO":"１８５號","E_COORD97":168138.54000000001,"N_COORD97":2544332.1099999999,"ADDRESS":"新美街１８５號","OBJECTID":614257},"geometry":{"x":168138.5400000019,"y":2544332.1100000013}},{"attributes":{"ID":614285,"DIS_CODE":0,"TOWNNAME":"中西區","LI":"天后里","LIN":"19鄰","STREET":"新美街","SECT":" ","MAREA":" ","LANE":" ","ALLEY":" ","HOUSE_NO":"１８７號","E_COORD97":168142.17000000001,"N_COORD97":2544336.5099999998,"ADDRESS":"新美街１８７號","OBJECTID":614258},"geometry":{"x":168142.16999999993,"y":2544336.5100000016}},{"attributes":{"ID":614286,"DIS_CODE":0,"TOWNNAME":"中西區","LI":"青年里","LIN":"17鄰","STREET":"青年路","SECT":" ","MAREA":" ","LANE":" ","ALLEY":" ","HOUSE_NO":"２５號","E_COORD97":168618.16,"N_COORD97":2543668.6299999999,"ADDRESS":"青年路２５號","OBJECTID":614259},"geometry":{"x":168618.16000000108,"y":2543668.629999999}},{"attributes":{"ID":614287,"DIS_CODE":0,"TOWNNAME":"仁德區","LI":"仁義里","LIN":"25鄰","STREET":"正義路","SECT":" ","MAREA":" ","LANE":" ","ALLEY":" ","HOUSE_NO":"９６號","E_COORD97":173591.98999999999,"N_COORD97":2541426.5,"ADDRESS":"正義路９６號","OBJECTID":614260},"geometry":{"x":173591.99000000022,"y":2541426.5}},{"attributes":{"ID":614288,"DIS_CODE":0,"TOWNNAME":"中西區","LI":"青年里","LIN":"17鄰","STREET":"青年路","SECT":" ","MAREA":" ","LANE":" ","ALLEY":" ","HOUSE_NO":"２７號","E_COORD97":168621.22,"N_COORD97":2543664.9900000002,"ADDRESS":"青年路２７號","OBJECTID":614261},"geometry":{"x":168621.21999999974,"y":2543664.9899999984}},{"attributes":{"ID":614289,"DIS_CODE":0,"TOWNNAME":"仁德區","LI":"保安里","LIN":"23鄰","STREET":"保學路","SECT":" ","MAREA":" ","LANE":" ","ALLEY":" ","HOUSE_NO":"４９號","E_COORD97":171611.23000000001,"N_COORD97":2535633.6200000001,"ADDRESS":"保學路４９號","OBJECTID":614262},"geometry":{"x":171611.23000000138,"y":2535633.6200000048}},{"attributes":{"ID":614290,"DIS_CODE":0,"TOWNNAME":"中西區","LI":"青年里","LIN":"16鄰","STREET":"青年路","SECT":" ","MAREA":" ","LANE":" ","ALLEY":" ","HOUSE_NO":"４９號","E_COORD97":168671.26000000001,"N_COORD97":2543658.6400000001,"ADDRESS":"青年路４９號","OBJECTID":614263},"geometry":{"x":168671.26000000071,"y":2543658.6400000025}},{"attributes":{"ID":614291,"DIS_CODE":0,"TOWNNAME":"麻豆區","LI":"巷口里","LIN":"2鄰","STREET":"興國路","SECT":" ","MAREA":" ","LANE":" ","ALLEY":" ","HOUSE_NO":"１９號","E_COORD97":173040.54999999999,"N_COORD97":2564674.8500000001,"ADDRESS":"興國路１９號","OBJECTID":614264},"geometry":{"x":173040.54999999888,"y":2564674.8499999996}},{"attributes":{"ID":614292,"DIS_CODE":0,"TOWNNAME":"麻豆區","LI":"巷口里","LIN":"2鄰","STREET":"興國路","SECT":" ","MAREA":" ","LANE":" ","ALLEY":" ","HOUSE_NO":"２１號","E_COORD97":173059.72,"N_COORD97":2564631.7200000002,"ADDRESS":"興國路２１號","OBJECTID":614265},"geometry":{"x":173059.7200000016,"y":2564631.7200000025}},{"attributes":{"ID":614293,"DIS_CODE":0,"TOWNNAME":"麻豆區","LI":"巷口里","LIN":"2鄰","STREET":"興國路","SECT":" ","MAREA":" ","LANE":" ","ALLEY":" ","HOUSE_NO":"２３號","E_COORD97":173029.12,"N_COORD97":2564638.8199999998,"ADDRESS":"興國路２３號","OBJECTID":614266},"geometry":{"x":173029.12000000104,"y":2564638.8200000003}},{"attributes":{"ID":614294,"DIS_CODE":0,"TOWNNAME":"麻豆區","LI":"穀興里","LIN":"2鄰","STREET":"興華街","SECT":" ","MAREA":" ","LANE":" ","ALLEY":" ","HOUSE_NO":"４８號","E_COORD97":172967.09,"N_COORD97":2564891.6800000002,"ADDRESS":"興華街４８號","OBJECTID":614267},"geometry":{"x":172967.08999999985,"y":2564891.6800000016}},{"attributes":{"ID":614295,"DIS_CODE":0,"TOWNNAME":"麻豆區","LI":"穀興里","LIN":"2鄰","STREET":"興華街","SECT":" ","MAREA":" ","LANE":" ","ALLEY":" ","HOUSE_NO":"３８號","E_COORD97":172995.34,"N_COORD97":2564881.27,"ADDRESS":"興華街３８號","OBJECTID":614268},"geometry":{"x":172995.34000000078,"y":2564881.2699999996}},{"attributes":{"ID":614296,"DIS_CODE":0,"TOWNNAME":"麻豆區","LI":"穀興里","LIN":"2鄰","STREET":"興華街","SECT":" ","MAREA":" ","LANE":" ","ALLEY":" ","HOUSE_NO":"４０號","E_COORD97":172989.84,"N_COORD97":2564883.3999999999,"ADDRESS":"興華街４０號","OBJECTID":614269},"geometry":{"x":172989.84000000078,"y":2564883.4000000022}},{"attributes":{"ID":614297,"DIS_CODE":0,"TOWNNAME":"麻豆區","LI":"穀興里","LIN":"2鄰","STREET":"興華街","SECT":" ","MAREA":" ","LANE":" ","ALLEY":" ","HOUSE_NO":"４２號","E_COORD97":172985.06,"N_COORD97":2564884.5499999998,"ADDRESS":"興華街４２號","OBJECTID":614270},"geometry":{"x":172985.06000000052,"y":2564884.5500000007}},{"attributes":{"ID":614298,"DIS_CODE":0,"TOWNNAME":"麻豆區","LI":"穀興里","LIN":"2鄰","STREET":"興華街","SECT":" ","MAREA":" ","LANE":" ","ALLEY":" ","HOUSE_NO":"４６號","E_COORD97":172972.20999999999,"N_COORD97":2564888.8100000001,"ADDRESS":"興華街４６號","OBJECTID":614271},"geometry":{"x":172972.21000000089,"y":2564888.8100000005}},{"attributes":{"ID":614299,"DIS_CODE":0,"TOWNNAME":"中西區","LI":"青年里","LIN":"16鄰","STREET":"青年路","SECT":" ","MAREA":" ","LANE":" ","ALLEY":" ","HOUSE_NO":"５１號","E_COORD97":168684.91,"N_COORD97":2543660.0499999998,"ADDRESS":"青年路５１號","OBJECTID":614272},"geometry":{"x":168684.91000000015,"y":2543660.0500000026}},{"attributes":{"ID":614300,"DIS_CODE":0,"TOWNNAME":"中西區","LI":"青年里","LIN":"16鄰","STREET":"青年路","SECT":" ","MAREA":" ","LANE":" ","ALLEY":" ","HOUSE_NO":"５１號之１","E_COORD97":168685.85000000001,"N_COORD97":2543655.7000000002,"ADDRESS":"青年路５１號之１","OBJECTID":614273},"geometry":{"x":168685.85000000056,"y":2543655.6999999974}},{"attributes":{"ID":614301,"DIS_CODE":0,"TOWNNAME":"中西區","LI":"青年里","LIN":"16鄰","STREET":"青年路","SECT":" ","MAREA":" ","LANE":" ","ALLEY":" ","HOUSE_NO":"５３號","E_COORD97":168689.98999999999,"N_COORD97":2543653.54,"ADDRESS":"青年路５３號","OBJECTID":614274},"geometry":{"x":168689.99000000209,"y":2543653.5400000028}},{"attributes":{"ID":614302,"DIS_CODE":0,"TOWNNAME":"中西區","LI":"青年里","LIN":"16鄰","STREET":"青年路","SECT":" ","MAREA":" ","LANE":" ","ALLEY":" ","HOUSE_NO":"５５號","E_COORD97":168700.44,"N_COORD97":2543653.23,"ADDRESS":"青年路５５號","OBJECTID":614275},"geometry":{"x":168700.44000000041,"y":2543653.2300000004}},{"attributes":{"ID":614303,"DIS_CODE":0,"TOWNNAME":"中西區","LI":"青年里","LIN":"16鄰","STREET":"青年路","SECT":" ","MAREA":" ","LANE":" ","ALLEY":" ","HOUSE_NO":"５７號","E_COORD97":168705.60999999999,"N_COORD97":2543651,"ADDRESS":"青年路５７號","OBJECTID":614276},"geometry":{"x":168705.61000000034,"y":2543651}},{"attributes":{"ID":614304,"DIS_CODE":0,"TOWNNAME":"中西區","LI":"青年里","LIN":"16鄰","STREET":"青年路","SECT":" ","MAREA":" ","LANE":" ","ALLEY":" ","HOUSE_NO":"５９號","E_COORD97":168712.56,"N_COORD97":2543650.2999999998,"ADDRESS":"青年路５９號","OBJECTID":614277},"geometry":{"x":168712.56000000145,"y":2543650.3000000045}},{"attributes":{"ID":614305,"DIS_CODE":0,"TOWNNAME":"中西區","LI":"青年里","LIN":"16鄰","STREET":"青年路","SECT":" ","MAREA":" ","LANE":" ","ALLEY":" ","HOUSE_NO":"６１號","E_COORD97":168724.09,"N_COORD97":2543650.6400000001,"ADDRESS":"青年路６１號","OBJECTID":614278},"geometry":{"x":168724.08999999985,"y":2543650.6400000006}},{"attributes":{"ID":614306,"DIS_CODE":0,"TOWNNAME":"中西區","LI":"青年里","LIN":"16鄰","STREET":"青年路","SECT":" ","MAREA":" ","LANE":" ","ALLEY":" ","HOUSE_NO":"６５號","E_COORD97":168736.85000000001,"N_COORD97":2543646.7000000002,"ADDRESS":"青年路６５號","OBJECTID":614279},"geometry":{"x":168736.85000000056,"y":2543646.7000000011}},{"attributes":{"ID":614307,"DIS_CODE":0,"TOWNNAME":"中西區","LI":"青年里","LIN":"16鄰","STREET":"青年路","SECT":" ","MAREA":" ","LANE":" ","ALLEY":" ","HOUSE_NO":"６７號","E_COORD97":168743.5,"N_COORD97":2543647.0299999998,"ADDRESS":"青年路６７號","OBJECTID":614280},"geometry":{"x":168743.5,"y":2543647.0300000031}},{"attributes":{"ID":614308,"DIS_CODE":0,"TOWNNAME":"中西區","LI":"青年里","LIN":"16鄰","STREET":"青年路","SECT":" ","MAREA":" ","LANE":" ","ALLEY":" ","HOUSE_NO":"６９號","E_COORD97":168747.82000000001,"N_COORD97":2543644.71,"ADDRESS":"青年路６９號","OBJECTID":614281},"geometry":{"x":168747.82000000123,"y":2543644.7100000028}},{"attributes":{"ID":614309,"DIS_CODE":0,"TOWNNAME":"中西區","LI":"青年里","LIN":"17鄰","STREET":"青年路","SECT":" ","MAREA":" ","LANE":" ","ALLEY":" ","HOUSE_NO":"２９號","E_COORD97":168625.57000000001,"N_COORD97":2543670.3999999999,"ADDRESS":"青年路２９號","OBJECTID":614282},"geometry":{"x":168625.57000000123,"y":2543670.4000000022}},{"attributes":{"ID":614310,"DIS_CODE":0,"TOWNNAME":"中西區","LI":"青年里","LIN":"17鄰","STREET":"青年路","SECT":" ","MAREA":" ","LANE":" ","ALLEY":" ","HOUSE_NO":"３１號","E_COORD97":168628.63,"N_COORD97":2543667.5800000001,"ADDRESS":"青年路３１號","OBJECTID":614283},"geometry":{"x":168628.62999999989,"y":2543667.5799999982}},{"attributes":{"ID":614311,"DIS_CODE":0,"TOWNNAME":"中西區","LI":"青年里","LIN":"17鄰","STREET":"青年路","SECT":" ","MAREA":" ","LANE":" ","ALLEY":" ","HOUSE_NO":"３３號","E_COORD97":168634.39000000001,"N_COORD97":2543667.6899999999,"ADDRESS":"青年路３３號","OBJECTID":614284},"geometry":{"x":168634.3900000006,"y":2543667.6900000013}},{"attributes":{"ID":614312,"DIS_CODE":0,"TOWNNAME":"中西區","LI":"青年里","LIN":"17鄰","STREET":"青年路","SECT":" ","MAREA":" ","LANE":" ","ALLEY":" ","HOUSE_NO":"３５號","E_COORD97":168639.57000000001,"N_COORD97":2543667.9300000002,"ADDRESS":"青年路３５號","OBJECTID":614285},"geometry":{"x":168639.5700000003,"y":2543667.9299999997}},{"attributes":{"ID":614313,"DIS_CODE":0,"TOWNNAME":"中西區","LI":"青年里","LIN":"17鄰","STREET":"青年路","SECT":" ","MAREA":" ","LANE":" ","ALLEY":" ","HOUSE_NO":"３９號","E_COORD97":168644.39999999999,"N_COORD97":2543664.9900000002,"ADDRESS":"青年路３９號","OBJECTID":614286},"geometry":{"x":168644.40000000037,"y":2543664.9899999984}},{"attributes":{"ID":614314,"DIS_CODE":0,"TOWNNAME":"中西區","LI":"青年里","LIN":"17鄰","STREET":"青年路","SECT":" ","MAREA":" ","LANE":" ","ALLEY":" ","HOUSE_NO":"４１號","E_COORD97":168649.45999999999,"N_COORD97":2543669.2200000002,"ADDRESS":"青年路４１號","OBJECTID":614287},"geometry":{"x":168649.46000000089,"y":2543669.2200000007}},{"attributes":{"ID":614315,"DIS_CODE":0,"TOWNNAME":"中西區","LI":"青年里","LIN":"17鄰","STREET":"青年路","SECT":" ","MAREA":" ","LANE":" ","ALLEY":" ","HOUSE_NO":"４３號","E_COORD97":168650.16,"N_COORD97":2543661.9399999999,"ADDRESS":"青年路４３號","OBJECTID":614288},"geometry":{"x":168650.16000000108,"y":2543661.9400000013}},{"attributes":{"ID":614316,"DIS_CODE":0,"TOWNNAME":"中西區","LI":"青年里","LIN":"17鄰","STREET":"青年路","SECT":" ","MAREA":" ","LANE":" ","ALLEY":" ","HOUSE_NO":"４５號","E_COORD97":168654.64000000001,"N_COORD97":2543664.29,"ADDRESS":"青年路４５號","OBJECTID":614289},"geometry":{"x":168654.6400000006,"y":2543664.2899999991}},{"attributes":{"ID":614317,"DIS_CODE":0,"TOWNNAME":"中西區","LI":"青年里","LIN":"17鄰","STREET":"中山路","SECT":" ","MAREA":" ","LANE":" ","ALLEY":" ","HOUSE_NO":"６號","E_COORD97":168575.64999999999,"N_COORD97":2543705.02,"ADDRESS":"中山路６號","OBJECTID":614290},"geometry":{"x":168575.6500000013,"y":2543705.0200000033}},{"attributes":{"ID":614318,"DIS_CODE":0,"TOWNNAME":"仁德區","LI":"新田里","LIN":"3鄰","STREET":"新田二街","SECT":" ","MAREA":" ","LANE":" ","ALLEY":" ","HOUSE_NO":"２５號","E_COORD97":174790.23000000001,"N_COORD97":2539831.7400000002,"ADDRESS":"新田二街２５號","OBJECTID":614291},"geometry":{"x":174790.23000000138,"y":2539831.7400000002}},{"attributes":{"ID":614319,"DIS_CODE":0,"TOWNNAME":"仁德區","LI":"新田里","LIN":"3鄰","STREET":"新田二街","SECT":" ","MAREA":" ","LANE":" ","ALLEY":" ","HOUSE_NO":"１７號","E_COORD97":174729.79000000001,"N_COORD97":2539833.7400000002,"ADDRESS":"新田二街１７號","OBJECTID":614292},"geometry":{"x":174729.79000000097,"y":2539833.7400000021}},{"attributes":{"ID":614320,"DIS_CODE":0,"TOWNNAME":"仁德區","LI":"太子里","LIN":"42鄰","STREET":"太子路","SECT":" ","MAREA":" ","LANE":" ","ALLEY":" ","HOUSE_NO":"２之１號","E_COORD97":175508.60494300001,"N_COORD97":2543625.2348000002,"ADDRESS":"太子路２之１號","OBJECTID":614293},"geometry":{"x":175508.60494299978,"y":2543625.2348030023}},{"attributes":{"ID":614321,"DIS_CODE":0,"TOWNNAME":"仁德區","LI":"後壁里","LIN":"29鄰","STREET":"德洋一街","SECT":" ","MAREA":" ","LANE":" ","ALLEY":" ","HOUSE_NO":"５４號","E_COORD97":173173.75,"N_COORD97":2539216.0099999998,"ADDRESS":"德洋一街５４號","OBJECTID":614294},"geometry":{"x":173173.75000000093,"y":2539216.0099999998}},{"attributes":{"ID":614322,"DIS_CODE":0,"TOWNNAME":"仁德區","LI":"保安里","LIN":"11鄰","STREET":"中正路","SECT":"一段","MAREA":" ","LANE":" ","ALLEY":" ","HOUSE_NO":"２２１號","E_COORD97":171717.23999999999,"N_COORD97":2535920.27,"ADDRESS":"中正路一段２２１號","OBJECTID":614295},"geometry":{"x":171717.24000000022,"y":2535920.2700000014}},{"attributes":{"ID":614323,"DIS_CODE":0,"TOWNNAME":"仁德區","LI":"新田里","LIN":"11鄰","STREET":"北保路","SECT":" ","MAREA":" ","LANE":" ","ALLEY":" ","HOUSE_NO":"８１號","E_COORD97":173224.09,"N_COORD97":2539579,"ADDRESS":"北保路８１號","OBJECTID":614296},"geometry":{"x":173224.09000000078,"y":2539579}},{"attributes":{"ID":614324,"DIS_CODE":0,"TOWNNAME":"仁德區","LI":"後壁里","LIN":"11鄰","STREET":"德善路","SECT":" ","MAREA":" ","LANE":" ","ALLEY":" ","HOUSE_NO":"２１３號之１１","E_COORD97":173793.39999999999,"N_COORD97":2538821.54,"ADDRESS":"德善路２１３號之１１","OBJECTID":614297},"geometry":{"x":173793.4000000013,"y":2538821.5399999991}},{"attributes":{"ID":614325,"DIS_CODE":0,"TOWNNAME":"仁德區","LI":"新田里","LIN":"3鄰","STREET":"新田二街","SECT":" ","MAREA":" ","LANE":" ","ALLEY":" ","HOUSE_NO":"４２之９號","E_COORD97":174732.79999999999,"N_COORD97":2539786.2999999998,"ADDRESS":"新田二街４２之９號","OBJECTID":614298},"geometry":{"x":174732.80000000075,"y":2539786.3000000026}},{"attributes":{"ID":614326,"DIS_CODE":0,"TOWNNAME":"仁德區","LI":"新田里","LIN":"13鄰","STREET":"北保二街","SECT":" ","MAREA":" ","LANE":" ","ALLEY":" ","HOUSE_NO":"２６號","E_COORD97":173232.60999999999,"N_COORD97":2539437.9900000002,"ADDRESS":"北保二街２６號","OBJECTID":614299},"geometry":{"x":173232.61000000127,"y":2539437.9900000021}},{"attributes":{"ID":614327,"DIS_CODE":0,"TOWNNAME":"仁德區","LI":"新田里","LIN":"14鄰","STREET":"中正路","SECT":"二段","MAREA":" ","LANE":" ","ALLEY":" ","HOUSE_NO":"４８８號","E_COORD97":173342.51999999999,"N_COORD97":2539435.27,"ADDRESS":"中正路二段４８８號","OBJECTID":614300},"geometry":{"x":173342.52000000048,"y":2539435.2700000014}},{"attributes":{"ID":614328,"DIS_CODE":0,"TOWNNAME":"仁德區","LI":"後壁里","LIN":"11鄰","STREET":"德善路","SECT":" ","MAREA":" ","LANE":" ","ALLEY":" ","HOUSE_NO":"２０３號","E_COORD97":173713.06,"N_COORD97":2538790.02,"ADDRESS":"德善路２０３號","OBJECTID":614301},"geometry":{"x":173713.05999999959,"y":2538790.0200000014}},{"attributes":{"ID":614329,"DIS_CODE":0,"TOWNNAME":"佳里區","LI":"忠仁里","LIN":"2鄰","STREET":"延平路","SECT":" ","MAREA":" ","LANE":" ","ALLEY":" ","HOUSE_NO":"２２９號","E_COORD97":165861.89000000001,"N_COORD97":2562205.27,"ADDRESS":"延平路２２９號","OBJECTID":614302},"geometry":{"x":165861.88999999966,"y":2562205.2700000014}},{"attributes":{"ID":614330,"DIS_CODE":0,"TOWNNAME":"佳里區","LI":"忠仁里","LIN":"2鄰","STREET":"延平路","SECT":" ","MAREA":" ","LANE":" ","ALLEY":" ","HOUSE_NO":"２３３號","E_COORD97":165862.67000000001,"N_COORD97":2562218.1299999999,"ADDRESS":"延平路２３３號","OBJECTID":614303},"geometry":{"x":165862.67000000179,"y":2562218.129999999}},{"attributes":{"ID":614331,"DIS_CODE":0,"TOWNNAME":"佳里區","LI":"忠仁里","LIN":"2鄰","STREET":"延平路","SECT":" ","MAREA":" ","LANE":" ","ALLEY":" ","HOUSE_NO":"２３７號","E_COORD97":165860.98000000001,"N_COORD97":2562226.9199999999,"ADDRESS":"延平路２３７號","OBJECTID":614304},"geometry":{"x":165860.98000000231,"y":2562226.9199999999}},{"attributes":{"ID":614332,"DIS_CODE":0,"TOWNNAME":"佳里區","LI":"忠仁里","LIN":"2鄰","STREET":"延平路","SECT":" ","MAREA":" ","LANE":" ","ALLEY":" ","HOUSE_NO":"２４１號","E_COORD97":165859.03,"N_COORD97":2562233.1299999999,"ADDRESS":"延平路２４１號","OBJECTID":614305},"geometry":{"x":165859.03000000119,"y":2562233.1300000008}},{"attributes":{"ID":614333,"DIS_CODE":0,"TOWNNAME":"佳里區","LI":"忠仁里","LIN":"2鄰","STREET":"延平路","SECT":" ","MAREA":" ","LANE":" ","ALLEY":" ","HOUSE_NO":"２４３號","E_COORD97":165857.87,"N_COORD97":2562237.6899999999,"ADDRESS":"延平路２４３號","OBJECTID":614306},"geometry":{"x":165857.86999999918,"y":2562237.6899999995}},{"attributes":{"ID":614334,"DIS_CODE":0,"TOWNNAME":"佳里區","LI":"忠仁里","LIN":"2鄰","STREET":"延平路","SECT":" ","MAREA":" ","LANE":" ","ALLEY":" ","HOUSE_NO":"２４５號","E_COORD97":165857.39000000001,"N_COORD97":2562242.3799999999,"ADDRESS":"延平路２４５號","OBJECTID":614307},"geometry":{"x":165857.39000000153,"y":2562242.379999999}},{"attributes":{"ID":614335,"DIS_CODE":0,"TOWNNAME":"佳里區","LI":"忠仁里","LIN":"2鄰","STREET":"延平路","SECT":" ","MAREA":" ","LANE":" ","ALLEY":" ","HOUSE_NO":"２４７號","E_COORD97":165856.44,"N_COORD97":2562247,"ADDRESS":"延平路２４７號","OBJECTID":614308},"geometry":{"x":165856.44000000134,"y":2562247}},{"attributes":{"ID":614336,"DIS_CODE":0,"TOWNNAME":"佳里區","LI":"忠仁里","LIN":"2鄰","STREET":"延平路","SECT":" ","MAREA":" ","LANE":" ","ALLEY":" ","HOUSE_NO":"２４９號","E_COORD97":165855.69,"N_COORD97":2562251.5099999998,"ADDRESS":"延平路２４９號","OBJECTID":614309},"geometry":{"x":165855.69000000041,"y":2562251.5100000016}},{"attributes":{"ID":614337,"DIS_CODE":0,"TOWNNAME":"佳里區","LI":"六安里","LIN":"2鄰","STREET":"延平路","SECT":" ","MAREA":" ","LANE":" ","ALLEY":" ","HOUSE_NO":"３７７號","E_COORD97":165841.62,"N_COORD97":2562681.8399999999,"ADDRESS":"延平路３７７號","OBJECTID":614310},"geometry":{"x":165841.62000000104,"y":2562681.8399999999}},{"attributes":{"ID":614338,"DIS_CODE":0,"TOWNNAME":"佳里區","LI":"六安里","LIN":"2鄰","STREET":"延平路","SECT":" ","MAREA":" ","LANE":" ","ALLEY":" ","HOUSE_NO":"３７９號","E_COORD97":165842.04000000001,"N_COORD97":2562689.7999999998,"ADDRESS":"延平路３７９號","OBJECTID":614311},"geometry":{"x":165842.04000000097,"y":2562689.8000000007}},{"attributes":{"ID":614339,"DIS_CODE":0,"TOWNNAME":"佳里區","LI":"六安里","LIN":"2鄰","STREET":"延平路","SECT":" ","MAREA":" ","LANE":" ","ALLEY":" ","HOUSE_NO":"３８１號","E_COORD97":165839.37,"N_COORD97":2562696.4900000002,"ADDRESS":"延平路３８１號","OBJECTID":614312},"geometry":{"x":165839.37000000197,"y":2562696.4900000021}},{"attributes":{"ID":614340,"DIS_CODE":0,"TOWNNAME":"佳里區","LI":"六安里","LIN":"2鄰","STREET":"延平路","SECT":" ","MAREA":" ","LANE":" ","ALLEY":" ","HOUSE_NO":"３８３號","E_COORD97":165840.20999999999,"N_COORD97":2562700.98,"ADDRESS":"延平路３８３號","OBJECTID":614313},"geometry":{"x":165840.21000000183,"y":2562700.9800000004}},{"attributes":{"ID":614341,"DIS_CODE":0,"TOWNNAME":"佳里區","LI":"六安里","LIN":"2鄰","STREET":"延平路","SECT":" ","MAREA":" ","LANE":" ","ALLEY":" ","HOUSE_NO":"３８５號","E_COORD97":165837.14999999999,"N_COORD97":2562710.1200000001,"ADDRESS":"延平路３８５號","OBJECTID":614314},"geometry":{"x":165837.15000000037,"y":2562710.1200000029}},{"attributes":{"ID":614342,"DIS_CODE":0,"TOWNNAME":"佳里區","LI":"六安里","LIN":"2鄰","STREET":"延平路","SECT":" ","MAREA":" ","LANE":" ","ALLEY":" ","HOUSE_NO":"３９１號","E_COORD97":165839.59,"N_COORD97":2562718.6400000001,"ADDRESS":"延平路３９１號","OBJECTID":614315},"geometry":{"x":165839.59000000078,"y":2562718.6400000043}},{"attributes":{"ID":614343,"DIS_CODE":0,"TOWNNAME":"佳里區","LI":"六安里","LIN":"2鄰","STREET":"延平路","SECT":" ","MAREA":" ","LANE":" ","ALLEY":" ","HOUSE_NO":"３９３號","E_COORD97":165839.81,"N_COORD97":2562723.2400000002,"ADDRESS":"延平路３９３號","OBJECTID":614316},"geometry":{"x":165839.81000000052,"y":2562723.2400000002}},{"attributes":{"ID":614344,"DIS_CODE":0,"TOWNNAME":"佳里區","LI":"六安里","LIN":"2鄰","STREET":"延平路","SECT":" ","MAREA":" ","LANE":" ","ALLEY":" ","HOUSE_NO":"３９５號","E_COORD97":165839.92000000001,"N_COORD97":2562727.8100000001,"ADDRESS":"延平路３９５號","OBJECTID":614317},"geometry":{"x":165839.91999999993,"y":2562727.8100000024}},{"attributes":{"ID":614345,"DIS_CODE":0,"TOWNNAME":"佳里區","LI":"六安里","LIN":"2鄰","STREET":"延平路","SECT":" ","MAREA":" ","LANE":" ","ALLEY":" ","HOUSE_NO":"３９９號","E_COORD97":165833.85000000001,"N_COORD97":2562735.5,"ADDRESS":"延平路３９９號","OBJECTID":614318},"geometry":{"x":165833.85000000149,"y":2562735.4999999981}},{"attributes":{"ID":614346,"DIS_CODE":0,"TOWNNAME":"佳里區","LI":"六安里","LIN":"2鄰","STREET":"延平路","SECT":" ","MAREA":" ","LANE":" ","ALLEY":" ","HOUSE_NO":"４０１號","E_COORD97":165833.92000000001,"N_COORD97":2562740.1899999999,"ADDRESS":"延平路４０１號","OBJECTID":614319},"geometry":{"x":165833.92000000086,"y":2562740.1899999995}},{"attributes":{"ID":614347,"DIS_CODE":0,"TOWNNAME":"佳里區","LI":"六安里","LIN":"2鄰","STREET":"延平路","SECT":" ","MAREA":" ","LANE":" ","ALLEY":" ","HOUSE_NO":"４０３號","E_COORD97":165833.01999999999,"N_COORD97":2562744.7400000002,"ADDRESS":"延平路４０３號","OBJECTID":614320},"geometry":{"x":165833.02000000048,"y":2562744.7400000039}},{"attributes":{"ID":614348,"DIS_CODE":0,"TOWNNAME":"佳里區","LI":"六安里","LIN":"2鄰","STREET":"延平路","SECT":" ","MAREA":" ","LANE":" ","ALLEY":" ","HOUSE_NO":"４０５號","E_COORD97":165833.09,"N_COORD97":2562749.1899999999,"ADDRESS":"延平路４０５號","OBJECTID":614321},"geometry":{"x":165833.09000000078,"y":2562749.1899999995}},{"attributes":{"ID":614349,"DIS_CODE":0,"TOWNNAME":"佳里區","LI":"六安里","LIN":"2鄰","STREET":"延平路","SECT":" ","MAREA":" ","LANE":" ","ALLEY":" ","HOUSE_NO":"４０７號","E_COORD97":165833.32000000001,"N_COORD97":2562753.96,"ADDRESS":"延平路４０７號","OBJECTID":614322},"geometry":{"x":165833.32000000123,"y":2562753.9600000046}},{"attributes":{"ID":614350,"DIS_CODE":0,"TOWNNAME":"佳里區","LI":"六安里","LIN":"2鄰","STREET":"延平路","SECT":" ","MAREA":" ","LANE":" ","ALLEY":" ","HOUSE_NO":"４０９號","E_COORD97":165833.10999999999,"N_COORD97":2562758.71,"ADDRESS":"延平路４０９號","OBJECTID":614323},"geometry":{"x":165833.11000000127,"y":2562758.7100000009}},{"attributes":{"ID":614351,"DIS_CODE":0,"TOWNNAME":"佳里區","LI":"六安里","LIN":"2鄰","STREET":"延平路","SECT":" ","MAREA":" ","LANE":" ","ALLEY":" ","HOUSE_NO":"４１１號","E_COORD97":165832.85999999999,"N_COORD97":2562763.1499999999,"ADDRESS":"延平路４１１號","OBJECTID":614324},"geometry":{"x":165832.8600000022,"y":2562763.1500000022}},{"attributes":{"ID":614352,"DIS_CODE":0,"TOWNNAME":"佳里區","LI":"六安里","LIN":"2鄰","STREET":"延平路","SECT":" ","MAREA":" ","LANE":" ","ALLEY":" ","HOUSE_NO":"４１３號","E_COORD97":165832.79000000001,"N_COORD97":2562767.7200000002,"ADDRESS":"延平路４１３號","OBJECTID":614325},"geometry":{"x":165832.79000000004,"y":2562767.7200000007}},{"attributes":{"ID":614353,"DIS_CODE":0,"TOWNNAME":"佳里區","LI":"六安里","LIN":"2鄰","STREET":"延平路","SECT":" ","MAREA":" ","LANE":" ","ALLEY":" ","HOUSE_NO":"４１５號","E_COORD97":165832.73999999999,"N_COORD97":2562772.2400000002,"ADDRESS":"延平路４１５號","OBJECTID":614326},"geometry":{"x":165832.74000000022,"y":2562772.2400000021}},{"attributes":{"ID":614354,"DIS_CODE":0,"TOWNNAME":"佳里區","LI":"六安里","LIN":"2鄰","STREET":"延平路","SECT":" ","MAREA":" ","LANE":" ","ALLEY":" ","HOUSE_NO":"４１９號","E_COORD97":165832.67999999999,"N_COORD97":2562781.9399999999,"ADDRESS":"延平路４１９號","OBJECTID":614327},"geometry":{"x":165832.6799999997,"y":2562781.9399999995}},{"attributes":{"ID":614355,"DIS_CODE":0,"TOWNNAME":"佳里區","LI":"六安里","LIN":"2鄰","STREET":"延平路","SECT":" ","MAREA":" ","LANE":" ","ALLEY":" ","HOUSE_NO":"４２０號","E_COORD97":165871.72,"N_COORD97":2562684.8500000001,"ADDRESS":"延平路４２０號","OBJECTID":614328},"geometry":{"x":165871.71999999974,"y":2562684.8499999996}},{"attributes":{"ID":614356,"DIS_CODE":0,"TOWNNAME":"仁德區","LI":"後壁里","LIN":"4鄰","STREET":"德善路","SECT":" ","MAREA":" ","LANE":" ","ALLEY":" ","HOUSE_NO":"５３號","E_COORD97":173316.45000000001,"N_COORD97":2538913.0099999998,"ADDRESS":"德善路５３號","OBJECTID":614329},"geometry":{"x":173316.45000000205,"y":2538913.0099999998}},{"attributes":{"ID":614357,"DIS_CODE":0,"TOWNNAME":"佳里區","LI":"六安里","LIN":"2鄰","STREET":"延平路","SECT":" ","MAREA":" ","LANE":" ","ALLEY":" ","HOUSE_NO":"４２１號","E_COORD97":165832.5,"N_COORD97":2562786.0499999998,"ADDRESS":"延平路４２１號","OBJECTID":614330},"geometry":{"x":165832.5,"y":2562786.0500000007}},{"attributes":{"ID":614358,"DIS_CODE":0,"TOWNNAME":"仁德區","LI":"後壁里","LIN":"29鄰","STREET":"德洋一街","SECT":" ","MAREA":" ","LANE":" ","ALLEY":" ","HOUSE_NO":"７８號","E_COORD97":173208.48000000001,"N_COORD97":2539271.27,"ADDRESS":"德洋一街７８號","OBJECTID":614331},"geometry":{"x":173208.48000000138,"y":2539271.2699999996}},{"attributes":{"ID":614359,"DIS_CODE":0,"TOWNNAME":"仁德區","LI":"保安里","LIN":"23鄰","STREET":"保學路","SECT":" ","MAREA":" ","LANE":" ","ALLEY":" ","HOUSE_NO":"１９號","E_COORD97":171506.72,"N_COORD97":2535587.7400000002,"ADDRESS":"保學路１９號","OBJECTID":614332},"geometry":{"x":171506.71999999974,"y":2535587.7400000039}},{"attributes":{"ID":614360,"DIS_CODE":0,"TOWNNAME":"佳里區","LI":"六安里","LIN":"2鄰","STREET":"延平路","SECT":" ","MAREA":" ","LANE":" ","ALLEY":" ","HOUSE_NO":"４２２號","E_COORD97":165872.34,"N_COORD97":2562689.3599999999,"ADDRESS":"延平路４２２號","OBJECTID":614333},"geometry":{"x":165872.33999999985,"y":2562689.3600000013}},{"attributes":{"ID":614361,"DIS_CODE":0,"TOWNNAME":"佳里區","LI":"六安里","LIN":"2鄰","STREET":"延平路","SECT":" ","MAREA":" ","LANE":" ","ALLEY":" ","HOUSE_NO":"４２４號","E_COORD97":165872.84,"N_COORD97":2562693.75,"ADDRESS":"延平路４２４號","OBJECTID":614334},"geometry":{"x":165872.83999999985,"y":2562693.7500000019}},{"attributes":{"ID":614362,"DIS_CODE":0,"TOWNNAME":"佳里區","LI":"六安里","LIN":"2鄰","STREET":"延平路","SECT":" ","MAREA":" ","LANE":" ","ALLEY":" ","HOUSE_NO":"４２６號","E_COORD97":165873.19,"N_COORD97":2562698.1699999999,"ADDRESS":"延平路４２６號","OBJECTID":614335},"geometry":{"x":165873.19000000227,"y":2562698.1700000018}},{"attributes":{"ID":614363,"DIS_CODE":0,"TOWNNAME":"佳里區","LI":"六安里","LIN":"2鄰","STREET":"延平路","SECT":" ","MAREA":" ","LANE":" ","ALLEY":" ","HOUSE_NO":"４２８號之１","E_COORD97":165872.10000000001,"N_COORD97":2562707.4199999999,"ADDRESS":"延平路４２８號之１","OBJECTID":614336},"geometry":{"x":165872.09999999963,"y":2562707.4199999999}},{"attributes":{"ID":614364,"DIS_CODE":0,"TOWNNAME":"佳里區","LI":"六安里","LIN":"2鄰","STREET":"延平路","SECT":" ","MAREA":" ","LANE":" ","ALLEY":" ","HOUSE_NO":"４２８號","E_COORD97":165873.37,"N_COORD97":2562702.9399999999,"ADDRESS":"延平路４２８號","OBJECTID":614337},"geometry":{"x":165873.37000000197,"y":2562702.9400000013}},{"attributes":{"ID":614365,"DIS_CODE":0,"TOWNNAME":"佳里區","LI":"六安里","LIN":"2鄰","STREET":"延平路","SECT":" ","MAREA":" ","LANE":" ","ALLEY":" ","HOUSE_NO":"４３０號","E_COORD97":165872.70999999999,"N_COORD97":2562711.6600000001,"ADDRESS":"延平路４３０號","OBJECTID":614338},"geometry":{"x":165872.71000000089,"y":2562711.660000002}},{"attributes":{"ID":614366,"DIS_CODE":0,"TOWNNAME":"佳里區","LI":"六安里","LIN":"2鄰","STREET":"延平路","SECT":" ","MAREA":" ","LANE":" ","ALLEY":" ","HOUSE_NO":"４３２號","E_COORD97":165873.35999999999,"N_COORD97":2562716.21,"ADDRESS":"延平路４３２號","OBJECTID":614339},"geometry":{"x":165873.36000000034,"y":2562716.2100000028}},{"attributes":{"ID":614367,"DIS_CODE":0,"TOWNNAME":"佳里區","LI":"六安里","LIN":"2鄰","STREET":"延平路","SECT":" ","MAREA":" ","LANE":" ","ALLEY":" ","HOUSE_NO":"４３４號","E_COORD97":165874.10000000001,"N_COORD97":2562720.2000000002,"ADDRESS":"延平路４３４號","OBJECTID":614340},"geometry":{"x":165874.09999999963,"y":2562720.200000003}},{"attributes":{"ID":614368,"DIS_CODE":0,"TOWNNAME":"佳里區","LI":"六安里","LIN":"2鄰","STREET":"延平路","SECT":" ","MAREA":" ","LANE":" ","ALLEY":" ","HOUSE_NO":"４３６號","E_COORD97":165874.84,"N_COORD97":2562724.8199999998,"ADDRESS":"延平路４３６號","OBJECTID":614341},"geometry":{"x":165874.84000000171,"y":2562724.8200000022}},{"attributes":{"ID":614369,"DIS_CODE":0,"TOWNNAME":"佳里區","LI":"六安里","LIN":"2鄰","STREET":"延平路","SECT":" ","MAREA":" ","LANE":" ","ALLEY":" ","HOUSE_NO":"４３８號","E_COORD97":165875.47,"N_COORD97":2562729.25,"ADDRESS":"延平路４３８號","OBJECTID":614342},"geometry":{"x":165875.46999999881,"y":2562729.25}},{"attributes":{"ID":614370,"DIS_CODE":0,"TOWNNAME":"佳里區","LI":"六安里","LIN":"2鄰","STREET":"延平路","SECT":" ","MAREA":" ","LANE":" ","ALLEY":" ","HOUSE_NO":"４４０號","E_COORD97":165882.20000000001,"N_COORD97":2562736.7599999998,"ADDRESS":"延平路４４０號","OBJECTID":614343},"geometry":{"x":165882.20000000019,"y":2562736.7599999998}},{"attributes":{"ID":614371,"DIS_CODE":0,"TOWNNAME":"佳里區","LI":"忠仁里","LIN":"2鄰","STREET":"延平路","SECT":" ","MAREA":" ","LANE":" ","ALLEY":" ","HOUSE_NO":"２５１號之１","E_COORD97":165854.17999999999,"N_COORD97":2562261.0699999998,"ADDRESS":"延平路２５１號之１","OBJECTID":614344},"geometry":{"x":165854.18000000063,"y":2562261.070000004}},{"attributes":{"ID":614372,"DIS_CODE":0,"TOWNNAME":"佳里區","LI":"忠仁里","LIN":"2鄰","STREET":"延平路","SECT":" ","MAREA":" ","LANE":" ","ALLEY":" ","HOUSE_NO":"２５１號之２","E_COORD97":165853.47,"N_COORD97":2562265.0099999998,"ADDRESS":"延平路２５１號之２","OBJECTID":614345},"geometry":{"x":165853.4700000016,"y":2562265.0100000016}},{"attributes":{"ID":614373,"DIS_CODE":0,"TOWNNAME":"佳里區","LI":"忠仁里","LIN":"2鄰","STREET":"延平路","SECT":" ","MAREA":" ","LANE":" ","ALLEY":" ","HOUSE_NO":"２５１號之３","E_COORD97":165852.79000000001,"N_COORD97":2562270.1800000002,"ADDRESS":"延平路２５１號之３","OBJECTID":614346},"geometry":{"x":165852.79000000004,"y":2562270.1800000016}},{"attributes":{"ID":614374,"DIS_CODE":0,"TOWNNAME":"佳里區","LI":"忠仁里","LIN":"2鄰","STREET":"延平路","SECT":" ","MAREA":" ","LANE":" ","ALLEY":" ","HOUSE_NO":"２５１號","E_COORD97":165855.22,"N_COORD97":2562255.8399999999,"ADDRESS":"延平路２５１號","OBJECTID":614347},"geometry":{"x":165855.2200000016,"y":2562255.8400000017}},{"attributes":{"ID":614375,"DIS_CODE":0,"TOWNNAME":"佳里區","LI":"忠仁里","LIN":"2鄰","STREET":"延平路","SECT":" ","MAREA":" ","LANE":" ","ALLEY":" ","HOUSE_NO":"２５３號","E_COORD97":165851.91,"N_COORD97":2562275.2400000002,"ADDRESS":"延平路２５３號","OBJECTID":614348},"geometry":{"x":165851.91000000015,"y":2562275.2400000002}},{"attributes":{"ID":614376,"DIS_CODE":0,"TOWNNAME":"佳里區","LI":"忠仁里","LIN":"2鄰","STREET":"延平路","SECT":" ","MAREA":" ","LANE":" ","ALLEY":" ","HOUSE_NO":"２５５號","E_COORD97":165852.29000000001,"N_COORD97":2562279.7000000002,"ADDRESS":"延平路２５５號","OBJECTID":614349},"geometry":{"x":165852.29000000097,"y":2562279.7000000011}},{"attributes":{"ID":614377,"DIS_CODE":0,"TOWNNAME":"佳里區","LI":"忠仁里","LIN":"2鄰","STREET":"延平路","SECT":" ","MAREA":" ","LANE":" ","ALLEY":" ","HOUSE_NO":"２５７號","E_COORD97":165853.39000000001,"N_COORD97":2562285.4100000001,"ADDRESS":"延平路２５７號","OBJECTID":614350},"geometry":{"x":165853.38999999966,"y":2562285.4099999983}},{"attributes":{"ID":614378,"DIS_CODE":0,"TOWNNAME":"佳里區","LI":"六安里","LIN":"2鄰","STREET":"忠孝東路","SECT":" ","MAREA":" ","LANE":" ","ALLEY":" ","HOUSE_NO":"６１號","E_COORD97":165952.31,"N_COORD97":2562750.8100000001,"ADDRESS":"忠孝東路６１號","OBJECTID":614351},"geometry":{"x":165952.30999999959,"y":2562750.8100000005}},{"attributes":{"ID":614379,"DIS_CODE":0,"TOWNNAME":"仁德區","LI":"後壁里","LIN":"39鄰","STREET":"德善一街","SECT":" ","MAREA":" ","LANE":" ","ALLEY":" ","HOUSE_NO":"３５號","E_COORD97":173443.17999999999,"N_COORD97":2538999.2599999998,"ADDRESS":"德善一街３５號","OBJECTID":614352},"geometry":{"x":173443.18000000156,"y":2538999.2600000016}},{"attributes":{"ID":614380,"DIS_CODE":0,"TOWNNAME":"仁德區","LI":"後壁里","LIN":"39鄰","STREET":"德善一街","SECT":" ","MAREA":" ","LANE":" ","ALLEY":" ","HOUSE_NO":"２９號","E_COORD97":173433.98999999999,"N_COORD97":2538991.52,"ADDRESS":"德善一街２９號","OBJECTID":614353},"geometry":{"x":173433.99000000022,"y":2538991.5199999996}},{"attributes":{"ID":614381,"DIS_CODE":0,"TOWNNAME":"仁德區","LI":"後壁里","LIN":"16鄰","STREET":"德善路","SECT":" ","MAREA":" ","LANE":" ","ALLEY":" ","HOUSE_NO":"７６號","E_COORD97":173391.14000000001,"N_COORD97":2538849.02,"ADDRESS":"德善路７６號","OBJECTID":614354},"geometry":{"x":173391.1400000006,"y":2538849.0199999996}},{"attributes":{"ID":614382,"DIS_CODE":0,"TOWNNAME":"仁德區","LI":"新田里","LIN":"13鄰","STREET":"北保二街","SECT":" ","MAREA":" ","LANE":" ","ALLEY":" ","HOUSE_NO":"２８號","E_COORD97":173234.38,"N_COORD97":2539442.2400000002,"ADDRESS":"北保二街２８號","OBJECTID":614355},"geometry":{"x":173234.37999999989,"y":2539442.2399999984}},{"attributes":{"ID":614383,"DIS_CODE":0,"TOWNNAME":"仁德區","LI":"新田里","LIN":"7鄰","STREET":"新田路","SECT":" ","MAREA":" ","LANE":" ","ALLEY":" ","HOUSE_NO":"３２號","E_COORD97":174493.04000000001,"N_COORD97":2538952,"ADDRESS":"新田路３２號","OBJECTID":614356},"geometry":{"x":174493.04000000004,"y":2538951.9999999981}},{"attributes":{"ID":614384,"DIS_CODE":0,"TOWNNAME":"仁德區","LI":"新田里","LIN":"4鄰","STREET":"新田路","SECT":" ","MAREA":" ","LANE":" ","ALLEY":" ","HOUSE_NO":"１１５號","E_COORD97":174367.79000000001,"N_COORD97":2539244.9900000002,"ADDRESS":"新田路１１５號","OBJECTID":614357},"geometry":{"x":174367.79000000004,"y":2539244.9900000021}},{"attributes":{"ID":614385,"DIS_CODE":0,"TOWNNAME":"仁德區","LI":"新田里","LIN":"13鄰","STREET":"北保二街","SECT":" ","MAREA":" ","LANE":" ","ALLEY":" ","HOUSE_NO":"２２號","E_COORD97":173228.82000000001,"N_COORD97":2539428.9900000002,"ADDRESS":"北保二街２２號","OBJECTID":614358},"geometry":{"x":173228.8200000003,"y":2539428.9900000002}},{"attributes":{"ID":614386,"DIS_CODE":0,"TOWNNAME":"仁德區","LI":"後壁里","LIN":"17鄰","STREET":"德善路","SECT":" ","MAREA":" ","LANE":" ","ALLEY":" ","HOUSE_NO":"２０號","E_COORD97":173294.35000000001,"N_COORD97":2538901.2599999998,"ADDRESS":"德善路２０號","OBJECTID":614359},"geometry":{"x":173294.35000000149,"y":2538901.2599999998}},{"attributes":{"ID":614387,"DIS_CODE":0,"TOWNNAME":"仁德區","LI":"新田里","LIN":"8鄰","STREET":"北保路","SECT":" ","MAREA":" ","LANE":" ","ALLEY":" ","HOUSE_NO":"２１８號","E_COORD97":173555.82999999999,"N_COORD97":2539393.5,"ADDRESS":"北保路２１８號","OBJECTID":614360},"geometry":{"x":173555.83000000007,"y":2539393.5000000019}},{"attributes":{"ID":614388,"DIS_CODE":0,"TOWNNAME":"仁德區","LI":"新田里","LIN":"10鄰","STREET":"北保路","SECT":" ","MAREA":" ","LANE":" ","ALLEY":" ","HOUSE_NO":"９２號","E_COORD97":173247.75,"N_COORD97":2539528.2400000002,"ADDRESS":"北保路９２號","OBJECTID":614361},"geometry":{"x":173247.75,"y":2539528.2400000021}},{"attributes":{"ID":614389,"DIS_CODE":0,"TOWNNAME":"仁德區","LI":"新田里","LIN":"10鄰","STREET":"北保一街","SECT":" ","MAREA":" ","LANE":" ","ALLEY":" ","HOUSE_NO":"１０號","E_COORD97":173277.69,"N_COORD97":2539442.2400000002,"ADDRESS":"北保一街１０號","OBJECTID":614362},"geometry":{"x":173277.69000000227,"y":2539442.2399999984}},{"attributes":{"ID":614390,"DIS_CODE":0,"TOWNNAME":"仁德區","LI":"新田里","LIN":"10鄰","STREET":"北保一街","SECT":" ","MAREA":" ","LANE":" ","ALLEY":" ","HOUSE_NO":"１６號","E_COORD97":173267.39999999999,"N_COORD97":2539449.7400000002,"ADDRESS":"北保一街１６號","OBJECTID":614363},"geometry":{"x":173267.40000000037,"y":2539449.7400000021}},{"attributes":{"ID":614391,"DIS_CODE":0,"TOWNNAME":"仁德區","LI":"新田里","LIN":"9鄰","STREET":"北保路","SECT":" ","MAREA":" ","LANE":" ","ALLEY":" ","HOUSE_NO":"１５５號","E_COORD97":173436.85999999999,"N_COORD97":2539469,"ADDRESS":"北保路１５５號","OBJECTID":614364},"geometry":{"x":173436.86000000034,"y":2539469.0000000019}},{"attributes":{"ID":614392,"DIS_CODE":0,"TOWNNAME":"仁德區","LI":"後壁里","LIN":"41鄰","STREET":"德善路","SECT":" ","MAREA":" ","LANE":" ","ALLEY":" ","HOUSE_NO":"２７９號","E_COORD97":173922.64999999999,"N_COORD97":2538642.02,"ADDRESS":"德善路２７９號","OBJECTID":614365},"geometry":{"x":173922.6500000013,"y":2538642.0199999996}},{"attributes":{"ID":614393,"DIS_CODE":0,"TOWNNAME":"仁德區","LI":"後壁里","LIN":"14鄰","STREET":"德善路","SECT":" ","MAREA":" ","LANE":" ","ALLEY":" ","HOUSE_NO":"１９６號","E_COORD97":173695.35000000001,"N_COORD97":2538759.27,"ADDRESS":"德善路１９６號","OBJECTID":614366},"geometry":{"x":173695.34999999963,"y":2538759.2699999996}},{"attributes":{"ID":614394,"DIS_CODE":0,"TOWNNAME":"新市區","LI":"港墘里","LIN":"2鄰","STREET":"三民街","SECT":" ","MAREA":" ","LANE":" ","ALLEY":" ","HOUSE_NO":"６號","E_COORD97":178566.17000000001,"N_COORD97":2553351.04,"ADDRESS":"三民街６號","OBJECTID":614367},"geometry":{"x":178566.16999999899,"y":2553351.040000001}},{"attributes":{"ID":614395,"DIS_CODE":0,"TOWNNAME":"新市區","LI":"新市里","LIN":"2鄰","STREET":"光華街","SECT":" ","MAREA":" ","LANE":" ","ALLEY":" ","HOUSE_NO":"１７９之２號","E_COORD97":177801.95999999999,"N_COORD97":2553097.2999999998,"ADDRESS":"光華街１７９之２號","OBJECTID":614368},"geometry":{"x":177801.96000000089,"y":2553097.3000000026}},{"attributes":{"ID":614396,"DIS_CODE":0,"TOWNNAME":"仁德區","LI":"大甲里","LIN":"20鄰","STREET":"行大街","SECT":" ","MAREA":" ","LANE":" ","ALLEY":" ","HOUSE_NO":"４３０號","E_COORD97":169407.19,"N_COORD97":2535324,"ADDRESS":"行大街４３０號","OBJECTID":614369},"geometry":{"x":169407.19000000041,"y":2535324}},{"attributes":{"ID":614397,"DIS_CODE":0,"TOWNNAME":"新市區","LI":"新市里","LIN":"2鄰","STREET":"光華街","SECT":" ","MAREA":" ","LANE":" ","ALLEY":" ","HOUSE_NO":"１７３號","E_COORD97":177806.60000000001,"N_COORD97":2553074.75,"ADDRESS":"光華街１７３號","OBJECTID":614370},"geometry":{"x":177806.59999999963,"y":2553074.7500000037}},{"attributes":{"ID":614398,"DIS_CODE":0,"TOWNNAME":"新市區","LI":"港墘里","LIN":"2鄰","STREET":"中山路","SECT":" ","MAREA":" ","LANE":" ","ALLEY":" ","HOUSE_NO":"６２號","E_COORD97":178593.73999999999,"N_COORD97":2553384.25,"ADDRESS":"中山路６２號","OBJECTID":614371},"geometry":{"x":178593.74000000115,"y":2553384.2500000019}},{"attributes":{"ID":614399,"DIS_CODE":0,"TOWNNAME":"新市區","LI":"新和里","LIN":"2鄰","STREET":"中山路","SECT":" ","MAREA":" ","LANE":" ","ALLEY":" ","HOUSE_NO":"２４２號","E_COORD97":177434.70000000001,"N_COORD97":2552042.5,"ADDRESS":"中山路２４２號","OBJECTID":614372},"geometry":{"x":177434.70000000112,"y":2552042.5000000037}},{"attributes":{"ID":614400,"DIS_CODE":0,"TOWNNAME":"新市區","LI":"新和里","LIN":"2鄰","STREET":"中山路","SECT":" ","MAREA":" ","LANE":" ","ALLEY":" ","HOUSE_NO":"２５２號","E_COORD97":177417.92999999999,"N_COORD97":2552032,"ADDRESS":"中山路２５２號","OBJECTID":614373},"geometry":{"x":177417.9299999997,"y":2552032}},{"attributes":{"ID":614401,"DIS_CODE":0,"TOWNNAME":"新市區","LI":"新和里","LIN":"2鄰","STREET":"中山路","SECT":" ","MAREA":" ","LANE":" ","ALLEY":" ","HOUSE_NO":"２２４之１號","E_COORD97":177510.67999999999,"N_COORD97":2552088.2999999998,"ADDRESS":"中山路２２４之１號","OBJECTID":614374},"geometry":{"x":177510.68000000063,"y":2552088.3000000007}},{"attributes":{"ID":614402,"DIS_CODE":0,"TOWNNAME":"東區","LI":"成大里","LIN":"2鄰","STREET":"育樂街","SECT":" ","MAREA":" ","LANE":" ","ALLEY":" ","HOUSE_NO":"２０７號","E_COORD97":169488.98000000001,"N_COORD97":2543720.2799999998,"ADDRESS":"育樂街２０７號","OBJECTID":614375},"geometry":{"x":169488.98000000138,"y":2543720.2800000012}},{"attributes":{"ID":614403,"DIS_CODE":0,"TOWNNAME":"東區","LI":"成大里","LIN":"2鄰","STREET":"育樂街","SECT":" ","MAREA":" ","LANE":" ","ALLEY":" ","HOUSE_NO":"２０９號","E_COORD97":169487.63,"N_COORD97":2543704.7400000002,"ADDRESS":"育樂街２０９號","OBJECTID":614376},"geometry":{"x":169487.63000000082,"y":2543704.7400000021}},{"attributes":{"ID":614404,"DIS_CODE":0,"TOWNNAME":"東區","LI":"成大里","LIN":"2鄰","STREET":"東寧路","SECT":"西段","MAREA":" ","LANE":" ","ALLEY":" ","HOUSE_NO":"２２號","E_COORD97":169625.75,"N_COORD97":2543683.21,"ADDRESS":"東寧路西段２２號","OBJECTID":614377},"geometry":{"x":169625.75000000093,"y":2543683.2100000009}},{"attributes":{"ID":614405,"DIS_CODE":0,"TOWNNAME":"東區","LI":"成大里","LIN":"2鄰","STREET":"東寧路","SECT":"西段","MAREA":" ","LANE":" ","ALLEY":" ","HOUSE_NO":"２２號地下層","E_COORD97":169625.75,"N_COORD97":2543683.21,"ADDRESS":"東寧路西段２２號地下層","OBJECTID":614378},"geometry":{"x":169625.75000000093,"y":2543683.2100000009}},{"attributes":{"ID":614406,"DIS_CODE":0,"TOWNNAME":"東區","LI":"成大里","LIN":"2鄰","STREET":"東寧路","SECT":"西段","MAREA":" ","LANE":" ","ALLEY":" ","HOUSE_NO":"２４號","E_COORD97":169616.45000000001,"N_COORD97":2543684.1499999999,"ADDRESS":"東寧路西段２４號","OBJECTID":614379},"geometry":{"x":169616.45000000112,"y":2543684.1500000004}},{"attributes":{"ID":614407,"DIS_CODE":0,"TOWNNAME":"東區","LI":"成大里","LIN":"2鄰","STREET":"東寧路","SECT":"西段","MAREA":" ","LANE":" ","ALLEY":" ","HOUSE_NO":"２６號","E_COORD97":169624.26000000001,"N_COORD97":2543695.3199999998,"ADDRESS":"東寧路西段２６號","OBJECTID":614380},"geometry":{"x":169624.25999999978,"y":2543695.3200000003}},{"attributes":{"ID":614408,"DIS_CODE":0,"TOWNNAME":"永康區","LI":"六合里","LIN":"2鄰","STREET":"新興街","SECT":" ","MAREA":" ","LANE":" ","ALLEY":" ","HOUSE_NO":"２９號","E_COORD97":170899.35999999999,"N_COORD97":2545784,"ADDRESS":"新興街２９號","OBJECTID":614381},"geometry":{"x":170899.36000000034,"y":2545784.0000000037}},{"attributes":{"ID":614409,"DIS_CODE":0,"TOWNNAME":"永康區","LI":"六合里","LIN":"2鄰","STREET":"新興街","SECT":" ","MAREA":" ","LANE":" ","ALLEY":" ","HOUSE_NO":"２７號","E_COORD97":170891.97,"N_COORD97":2545781.2400000002,"ADDRESS":"新興街２７號","OBJECTID":614382},"geometry":{"x":170891.97000000067,"y":2545781.2400000002}},{"attributes":{"ID":614410,"DIS_CODE":0,"TOWNNAME":"安南區","LI":"安西里","LIN":"2鄰","STREET":"安和路","SECT":"一段","MAREA":" ","LANE":" ","ALLEY":" ","HOUSE_NO":"２２１號","E_COORD97":169302.78,"N_COORD97":2547951.8999999999,"ADDRESS":"安和路一段２２１號","OBJECTID":614383},"geometry":{"x":169302.78000000026,"y":2547951.9000000022}},{"attributes":{"ID":614411,"DIS_CODE":0,"TOWNNAME":"安南區","LI":"安西里","LIN":"2鄰","STREET":"安和路","SECT":"一段","MAREA":" ","LANE":" ","ALLEY":" ","HOUSE_NO":"２２３號","E_COORD97":169301.20999999999,"N_COORD97":2547955.4199999999,"ADDRESS":"安和路一段２２３號","OBJECTID":614384},"geometry":{"x":169301.20999999996,"y":2547955.4200000018}},{"attributes":{"ID":614412,"DIS_CODE":0,"TOWNNAME":"安南區","LI":"安西里","LIN":"2鄰","STREET":"安和路","SECT":"一段","MAREA":" ","LANE":" ","ALLEY":" ","HOUSE_NO":"２２５號","E_COORD97":169300.82000000001,"N_COORD97":2547960.1099999999,"ADDRESS":"安和路一段２２５號","OBJECTID":614385},"geometry":{"x":169300.8200000003,"y":2547960.1100000013}},{"attributes":{"ID":614413,"DIS_CODE":0,"TOWNNAME":"安南區","LI":"安西里","LIN":"2鄰","STREET":"安和路","SECT":"一段","MAREA":" ","LANE":" ","ALLEY":" ","HOUSE_NO":"２２７號","E_COORD97":169299.64999999999,"N_COORD97":2547963.23,"ADDRESS":"安和路一段２２７號","OBJECTID":614386},"geometry":{"x":169299.6500000013,"y":2547963.2300000023}},{"attributes":{"ID":614414,"DIS_CODE":0,"TOWNNAME":"安南區","LI":"安西里","LIN":"2鄰","STREET":"安和路","SECT":"一段","MAREA":" ","LANE":" ","ALLEY":" ","HOUSE_NO":"２２９號","E_COORD97":169297.29999999999,"N_COORD97":2547966.3599999999,"ADDRESS":"安和路一段２２９號","OBJECTID":614387},"geometry":{"x":169297.29999999981,"y":2547966.3599999994}},{"attributes":{"ID":614415,"DIS_CODE":0,"TOWNNAME":"安南區","LI":"安西里","LIN":"2鄰","STREET":"安和路","SECT":"一段","MAREA":" ","LANE":" ","ALLEY":" ","HOUSE_NO":"２３１號","E_COORD97":169296.13,"N_COORD97":2547970.6600000001,"ADDRESS":"安和路一段２３１號","OBJECTID":614388},"geometry":{"x":169296.13000000082,"y":2547970.660000002}},{"attributes":{"ID":614416,"DIS_CODE":0,"TOWNNAME":"安南區","LI":"安西里","LIN":"2鄰","STREET":"安和路","SECT":"一段","MAREA":" ","LANE":" ","ALLEY":" ","HOUSE_NO":"２３３號","E_COORD97":169295.73000000001,"N_COORD97":2547974.5699999998,"ADDRESS":"安和路一段２３３號","OBJECTID":614389},"geometry":{"x":169295.73000000138,"y":2547974.5700000022}},{"attributes":{"ID":614417,"DIS_CODE":0,"TOWNNAME":"安南區","LI":"安西里","LIN":"2鄰","STREET":"安和路","SECT":"一段","MAREA":" ","LANE":" ","ALLEY":" ","HOUSE_NO":"２３５號","E_COORD97":169295.73000000001,"N_COORD97":2547978.0899999999,"ADDRESS":"安和路一段２３５號","OBJECTID":614390},"geometry":{"x":169295.73000000138,"y":2547978.0900000017}},{"attributes":{"ID":614418,"DIS_CODE":0,"TOWNNAME":"安南區","LI":"安順里","LIN":"2鄰","STREET":"總安街","SECT":"一段","MAREA":" ","LANE":" ","ALLEY":" ","HOUSE_NO":"６６號","E_COORD97":169790.91,"N_COORD97":2550116.7599999998,"ADDRESS":"總安街一段６６號","OBJECTID":614391},"geometry":{"x":169790.91000000108,"y":2550116.7599999998}},{"attributes":{"ID":614419,"DIS_CODE":0,"TOWNNAME":"安南區","LI":"安西里","LIN":"2鄰","STREET":"安和路","SECT":"一段","MAREA":" ","LANE":" ","ALLEY":" ","HOUSE_NO":"２３７號","E_COORD97":169294.17000000001,"N_COORD97":2547982.7799999998,"ADDRESS":"安和路一段２３７號","OBJECTID":614392},"geometry":{"x":169294.17000000086,"y":2547982.7800000012}},{"attributes":{"ID":614420,"DIS_CODE":0,"TOWNNAME":"安南區","LI":"佃東里","LIN":"2鄰","STREET":"海佃路","SECT":"四段","MAREA":" ","LANE":" ","ALLEY":" ","HOUSE_NO":"３０８號","E_COORD97":165613.42000000001,"N_COORD97":2551332.71,"ADDRESS":"海佃路四段３０８號","OBJECTID":614393},"geometry":{"x":165613.42000000179,"y":2551332.7100000009}},{"attributes":{"ID":614421,"DIS_CODE":0,"TOWNNAME":"安南區","LI":"海西里","LIN":"2鄰","STREET":"海環街","SECT":" ","MAREA":" ","LANE":" ","ALLEY":" ","HOUSE_NO":"４３４號","E_COORD97":166188.70999999999,"N_COORD97":2549086.9900000002,"ADDRESS":"海環街４３４號","OBJECTID":614394},"geometry":{"x":166188.70999999996,"y":2549086.9900000021}},{"attributes":{"ID":614422,"DIS_CODE":0,"TOWNNAME":"仁德區","LI":"新田里","LIN":"11鄰","STREET":"北保路","SECT":" ","MAREA":" ","LANE":" ","ALLEY":" ","HOUSE_NO":"８２之１號","E_COORD97":173211.14000000001,"N_COORD97":2539529.04,"ADDRESS":"北保路８２之１號","OBJECTID":614395},"geometry":{"x":173211.14000000153,"y":2539529.040000001}},{"attributes":{"ID":614423,"DIS_CODE":0,"TOWNNAME":"下營區","LI":"宅內里","LIN":"2鄰","STREET":"博愛街","SECT":" ","MAREA":" ","LANE":" ","ALLEY":" ","HOUSE_NO":"８６號","E_COORD97":173730.10999999999,"N_COORD97":2570567.7400000002,"ADDRESS":"博愛街８６號","OBJECTID":614396},"geometry":{"x":173730.11000000034,"y":2570567.7400000021}},{"attributes":{"ID":614424,"DIS_CODE":0,"TOWNNAME":"下營區","LI":"營前里","LIN":"2鄰","STREET":"復興街","SECT":" ","MAREA":" ","LANE":" ","ALLEY":" ","HOUSE_NO":"１０１號","E_COORD97":174474.04999999999,"N_COORD97":2570360.73,"ADDRESS":"復興街１０１號","OBJECTID":614397},"geometry":{"x":174474.04999999981,"y":2570360.7300000023}},{"attributes":{"ID":614425,"DIS_CODE":0,"TOWNNAME":"下營區","LI":"營前里","LIN":"2鄰","STREET":"復興街","SECT":" ","MAREA":" ","LANE":" ","ALLEY":" ","HOUSE_NO":"７９號","E_COORD97":174517.66,"N_COORD97":2570367.0800000001,"ADDRESS":"復興街７９號","OBJECTID":614398},"geometry":{"x":174517.66000000015,"y":2570367.0800000038}},{"attributes":{"ID":614426,"DIS_CODE":0,"TOWNNAME":"下營區","LI":"營前里","LIN":"2鄰","STREET":"復興街","SECT":" ","MAREA":" ","LANE":" ","ALLEY":" ","HOUSE_NO":"８１號","E_COORD97":174511.26000000001,"N_COORD97":2570366.0800000001,"ADDRESS":"復興街８１號","OBJECTID":614399},"geometry":{"x":174511.26000000071,"y":2570366.0800000001}},{"attributes":{"ID":614427,"DIS_CODE":0,"TOWNNAME":"下營區","LI":"營前里","LIN":"2鄰","STREET":"復興街","SECT":" ","MAREA":" ","LANE":" ","ALLEY":" ","HOUSE_NO":"８３號","E_COORD97":174507.39999999999,"N_COORD97":2570365.5600000001,"ADDRESS":"復興街８３號","OBJECTID":614400},"geometry":{"x":174507.4000000013,"y":2570365.5600000024}}]}