{"displayFieldName":"TOWNNAME","fieldAliases":{"ID":"ID","DIS_CODE":"DIS_CODE","TOWNNAME":"TOWNNAME","LI":"LI","LIN":"LIN","STREET":"STREET","SECT":"SECT","MAREA":"MAREA","LANE":"LANE","ALLEY":"ALLEY","HOUSE_NO":"HOUSE_NO","E_COORD97":"E_COORD97","N_COORD97":"N_COORD97","ADDRESS":"ADDRESS","OBJECTID":"OBJECTID"},"geometryType":"esriGeometryPoint","spatialReference":{"wkid":102443,"latestWkid":3826},"fields":[{"name":"ID","type":"esriFieldTypeDouble","alias":"ID"},{"name":"DIS_CODE","type":"esriFieldTypeInteger","alias":"DIS_CODE"},{"name":"TOWNNAME","type":"esriFieldTypeString","alias":"TOWNNAME","length":8},{"name":"LI","type":"esriFieldTypeString","alias":"LI","length":8},{"name":"LIN","type":"esriFieldTypeString","alias":"LIN","length":12},{"name":"STREET","type":"esriFieldTypeString","alias":"STREET","length":20},{"name":"SECT","type":"esriFieldTypeString","alias":"SECT","length":8},{"name":"MAREA","type":"esriFieldTypeString","alias":"MAREA","length":12},{"name":"LANE","type":"esriFieldTypeString","alias":"LANE","length":10},{"name":"ALLEY","type":"esriFieldTypeString","alias":"ALLEY","length":10},{"name":"HOUSE_NO","type":"esriFieldTypeString","alias":"HOUSE_NO","length":20},{"name":"E_COORD97","type":"esriFieldTypeDouble","alias":"E_COORD97"},{"name":"N_COORD97","type":"esriFieldTypeDouble","alias":"N_COORD97"},{"name":"ADDRESS","type":"esriFieldTypeString","alias":"ADDRESS","length":50},{"name":"OBJECTID","type":"esriFieldTypeOID","alias":"OBJECTID"}],"features":[{"attributes":{"ID":538828,"DIS_CODE":0,"TOWNNAME":"仁德區","LI":"保安里","LIN":"12鄰","STREET":"開發六路","SECT":" ","MAREA":" ","LANE":" ","ALLEY":" ","HOUSE_NO":"１６號","E_COORD97":172861.73999999999,"N_COORD97":2535582.2599999998,"ADDRESS":"開發六路１６號","OBJECTID":538801},"geometry":{"x":172861.73999999929,"y":2535582.2599999998}},{"attributes":{"ID":538829,"DIS_CODE":0,"TOWNNAME":"仁德區","LI":"保安里","LIN":"12鄰","STREET":"開發四路","SECT":" ","MAREA":" ","LANE":" ","ALLEY":" ","HOUSE_NO":"１８號","E_COORD97":173077.95000000001,"N_COORD97":2536042.7599999998,"ADDRESS":"開發四路１８號","OBJECTID":538802},"geometry":{"x":173077.95000000112,"y":2536042.7600000016}},{"attributes":{"ID":538830,"DIS_CODE":0,"TOWNNAME":"仁德區","LI":"太子里","LIN":"12鄰","STREET":"長興二街","SECT":" ","MAREA":" ","LANE":" ","ALLEY":" ","HOUSE_NO":"７６號","E_COORD97":174249.62,"N_COORD97":2543702.25,"ADDRESS":"長興二街７６號","OBJECTID":538803},"geometry":{"x":174249.62000000104,"y":2543702.25}},{"attributes":{"ID":538831,"DIS_CODE":0,"TOWNNAME":"仁德區","LI":"保安里","LIN":"12鄰","STREET":"開發六路","SECT":" ","MAREA":" ","LANE":" ","ALLEY":" ","HOUSE_NO":"２３號","E_COORD97":173026.82999999999,"N_COORD97":2535789.7599999998,"ADDRESS":"開發六路２３號","OBJECTID":538804},"geometry":{"x":173026.83000000007,"y":2535789.7599999998}},{"attributes":{"ID":538832,"DIS_CODE":0,"TOWNNAME":"仁德區","LI":"仁義里","LIN":"12鄰","STREET":"中山路","SECT":" ","MAREA":" ","LANE":" ","ALLEY":" ","HOUSE_NO":"３８號","E_COORD97":174970.62,"N_COORD97":2541141,"ADDRESS":"中山路３８號","OBJECTID":538805},"geometry":{"x":174970.62000000011,"y":2541141}},{"attributes":{"ID":538833,"DIS_CODE":0,"TOWNNAME":"仁德區","LI":"仁義里","LIN":"12鄰","STREET":"林頂街","SECT":" ","MAREA":" ","LANE":" ","ALLEY":" ","HOUSE_NO":"３３９號","E_COORD97":174997.59,"N_COORD97":2541322.7400000002,"ADDRESS":"林頂街３３９號","OBJECTID":538806},"geometry":{"x":174997.58999999985,"y":2541322.7400000002}},{"attributes":{"ID":538834,"DIS_CODE":0,"TOWNNAME":"仁德區","LI":"仁義里","LIN":"12鄰","STREET":"中山路","SECT":" ","MAREA":" ","LANE":" ","ALLEY":" ","HOUSE_NO":"２４號","E_COORD97":175091.07000000001,"N_COORD97":2541125.75,"ADDRESS":"中山路２４號","OBJECTID":538807},"geometry":{"x":175091.07000000123,"y":2541125.75}},{"attributes":{"ID":538835,"DIS_CODE":0,"TOWNNAME":"善化區","LI":"光文里","LIN":"12鄰","STREET":"民生路","SECT":" ","MAREA":" ","LANE":" ","ALLEY":" ","HOUSE_NO":"１１６號","E_COORD97":178622.34,"N_COORD97":2558994.0099999998,"ADDRESS":"民生路１１６號","OBJECTID":538808},"geometry":{"x":178622.33999999985,"y":2558994.0100000016}},{"attributes":{"ID":538836,"DIS_CODE":0,"TOWNNAME":"仁德區","LI":"仁義里","LIN":"12鄰","STREET":"中山路","SECT":" ","MAREA":" ","LANE":" ","ALLEY":" ","HOUSE_NO":"３６號","E_COORD97":174985.32999999999,"N_COORD97":2541148.25,"ADDRESS":"中山路３６號","OBJECTID":538809},"geometry":{"x":174985.33000000101,"y":2541148.2500000019}},{"attributes":{"ID":538837,"DIS_CODE":0,"TOWNNAME":"新市區","LI":"大營里","LIN":"12鄰","STREET":"西拉雅大道","SECT":" ","MAREA":" ","LANE":" ","ALLEY":" ","HOUSE_NO":"１５２號","E_COORD97":179165.29000000001,"N_COORD97":2556570.2999999998,"ADDRESS":"西拉雅大道１５２號","OBJECTID":538810},"geometry":{"x":179165.29000000004,"y":2556570.3000000007}},{"attributes":{"ID":538838,"DIS_CODE":0,"TOWNNAME":"新市區","LI":"大營里","LIN":"12鄰","STREET":"西拉雅大道","SECT":" ","MAREA":" ","LANE":" ","ALLEY":" ","HOUSE_NO":"１５６號","E_COORD97":179165.29000000001,"N_COORD97":2556570.2999999998,"ADDRESS":"西拉雅大道１５６號","OBJECTID":538811},"geometry":{"x":179165.29000000004,"y":2556570.3000000007}},{"attributes":{"ID":538839,"DIS_CODE":0,"TOWNNAME":"新市區","LI":"大營里","LIN":"12鄰","STREET":"西拉雅大道","SECT":" ","MAREA":" ","LANE":" ","ALLEY":" ","HOUSE_NO":"１５８號","E_COORD97":179165.29000000001,"N_COORD97":2556570.2999999998,"ADDRESS":"西拉雅大道１５８號","OBJECTID":538812},"geometry":{"x":179165.29000000004,"y":2556570.3000000007}},{"attributes":{"ID":538840,"DIS_CODE":0,"TOWNNAME":"新市區","LI":"大營里","LIN":"12鄰","STREET":"西拉雅大道","SECT":" ","MAREA":" ","LANE":" ","ALLEY":" ","HOUSE_NO":"１６０號","E_COORD97":179165.29000000001,"N_COORD97":2556570.2999999998,"ADDRESS":"西拉雅大道１６０號","OBJECTID":538813},"geometry":{"x":179165.29000000004,"y":2556570.3000000007}},{"attributes":{"ID":538841,"DIS_CODE":0,"TOWNNAME":"麻豆區","LI":"中興里","LIN":"12鄰","STREET":"三民路","SECT":" ","MAREA":" ","LANE":" ","ALLEY":" ","HOUSE_NO":"１８號之１","E_COORD97":172773.89999999999,"N_COORD97":2564720.1000000001,"ADDRESS":"三民路１８號之１","OBJECTID":538814},"geometry":{"x":172773.90000000037,"y":2564720.0999999996}},{"attributes":{"ID":538842,"DIS_CODE":0,"TOWNNAME":"麻豆區","LI":"中興里","LIN":"12鄰","STREET":"三民路","SECT":" ","MAREA":" ","LANE":" ","ALLEY":" ","HOUSE_NO":"１８號之２","E_COORD97":172771.60000000001,"N_COORD97":2564711.6600000001,"ADDRESS":"三民路１８號之２","OBJECTID":538815},"geometry":{"x":172771.59999999963,"y":2564711.6600000039}},{"attributes":{"ID":538843,"DIS_CODE":0,"TOWNNAME":"麻豆區","LI":"中興里","LIN":"12鄰","STREET":"三民路","SECT":" ","MAREA":" ","LANE":" ","ALLEY":" ","HOUSE_NO":"１８號之３","E_COORD97":172773.22,"N_COORD97":2564727.6200000001,"ADDRESS":"三民路１８號之３","OBJECTID":538816},"geometry":{"x":172773.21999999881,"y":2564727.6200000029}},{"attributes":{"ID":538844,"DIS_CODE":0,"TOWNNAME":"麻豆區","LI":"中興里","LIN":"12鄰","STREET":"三民路","SECT":" ","MAREA":" ","LANE":" ","ALLEY":" ","HOUSE_NO":"２２號之１","E_COORD97":172774.29000000001,"N_COORD97":2564671.6000000001,"ADDRESS":"三民路２２號之１","OBJECTID":538817},"geometry":{"x":172774.29000000004,"y":2564671.6000000015}},{"attributes":{"ID":538845,"DIS_CODE":0,"TOWNNAME":"麻豆區","LI":"中興里","LIN":"12鄰","STREET":"三民路","SECT":" ","MAREA":" ","LANE":" ","ALLEY":" ","HOUSE_NO":"２２號之２","E_COORD97":172774.12,"N_COORD97":2564667.3300000001,"ADDRESS":"三民路２２號之２","OBJECTID":538818},"geometry":{"x":172774.12000000011,"y":2564667.3300000019}},{"attributes":{"ID":538846,"DIS_CODE":0,"TOWNNAME":"麻豆區","LI":"中興里","LIN":"12鄰","STREET":"三民路","SECT":" ","MAREA":" ","LANE":" ","ALLEY":" ","HOUSE_NO":"２２號之３","E_COORD97":172774.38,"N_COORD97":2564662.5899999999,"ADDRESS":"三民路２２號之３","OBJECTID":538819},"geometry":{"x":172774.38000000082,"y":2564662.5899999999}},{"attributes":{"ID":538847,"DIS_CODE":0,"TOWNNAME":"麻豆區","LI":"中興里","LIN":"12鄰","STREET":"三民路","SECT":" ","MAREA":" ","LANE":" ","ALLEY":" ","HOUSE_NO":"２２號之４","E_COORD97":172773.87,"N_COORD97":2564652.5,"ADDRESS":"三民路２２號之４","OBJECTID":538820},"geometry":{"x":172773.87000000011,"y":2564652.5000000019}},{"attributes":{"ID":538848,"DIS_CODE":0,"TOWNNAME":"麻豆區","LI":"中興里","LIN":"12鄰","STREET":"三民路","SECT":" ","MAREA":" ","LANE":" ","ALLEY":" ","HOUSE_NO":"２２號之５","E_COORD97":172774.14000000001,"N_COORD97":2564647.73,"ADDRESS":"三民路２２號之５","OBJECTID":538821},"geometry":{"x":172774.1400000006,"y":2564647.7300000023}},{"attributes":{"ID":538849,"DIS_CODE":0,"TOWNNAME":"麻豆區","LI":"中興里","LIN":"12鄰","STREET":"三民路","SECT":" ","MAREA":" ","LANE":" ","ALLEY":" ","HOUSE_NO":"２２號之６","E_COORD97":172774.17999999999,"N_COORD97":2564643.25,"ADDRESS":"三民路２２號之６","OBJECTID":538822},"geometry":{"x":172774.18000000063,"y":2564643.2500000019}},{"attributes":{"ID":538850,"DIS_CODE":0,"TOWNNAME":"麻豆區","LI":"中興里","LIN":"12鄰","STREET":"三民路","SECT":" ","MAREA":" ","LANE":" ","ALLEY":" ","HOUSE_NO":"２８號","E_COORD97":172725.95999999999,"N_COORD97":2564637.25,"ADDRESS":"三民路２８號","OBJECTID":538823},"geometry":{"x":172725.95999999996,"y":2564637.2500000019}},{"attributes":{"ID":538851,"DIS_CODE":0,"TOWNNAME":"麻豆區","LI":"中興里","LIN":"12鄰","STREET":"三民路","SECT":" ","MAREA":" ","LANE":" ","ALLEY":" ","HOUSE_NO":"３０號","E_COORD97":172747.48999999999,"N_COORD97":2564651.6099999999,"ADDRESS":"三民路３０號","OBJECTID":538824},"geometry":{"x":172747.49000000022,"y":2564651.6100000013}},{"attributes":{"ID":538852,"DIS_CODE":0,"TOWNNAME":"麻豆區","LI":"中興里","LIN":"12鄰","STREET":"三民路","SECT":" ","MAREA":" ","LANE":" ","ALLEY":" ","HOUSE_NO":"３２號之１","E_COORD97":172774.06,"N_COORD97":2564638.46,"ADDRESS":"三民路３２號之１","OBJECTID":538825},"geometry":{"x":172774.05999999959,"y":2564638.4600000009}},{"attributes":{"ID":538853,"DIS_CODE":0,"TOWNNAME":"麻豆區","LI":"中興里","LIN":"12鄰","STREET":"三民路","SECT":" ","MAREA":" ","LANE":" ","ALLEY":" ","HOUSE_NO":"３２號之２","E_COORD97":172774.07000000001,"N_COORD97":2564633.73,"ADDRESS":"三民路３２號之２","OBJECTID":538826},"geometry":{"x":172774.0700000003,"y":2564633.7300000023}},{"attributes":{"ID":538854,"DIS_CODE":0,"TOWNNAME":"麻豆區","LI":"中興里","LIN":"12鄰","STREET":"三民路","SECT":" ","MAREA":" ","LANE":" ","ALLEY":" ","HOUSE_NO":"３２號之３","E_COORD97":172772.14999999999,"N_COORD97":2564627.21,"ADDRESS":"三民路３２號之３","OBJECTID":538827},"geometry":{"x":172772.15000000037,"y":2564627.2100000046}},{"attributes":{"ID":538855,"DIS_CODE":0,"TOWNNAME":"善化區","LI":"西關里","LIN":"12鄰","STREET":"中山路","SECT":" ","MAREA":" ","LANE":" ","ALLEY":" ","HOUSE_NO":"５９７號之１","E_COORD97":176840.16,"N_COORD97":2559202.02,"ADDRESS":"中山路５９７號之１","OBJECTID":538828},"geometry":{"x":176840.16000000015,"y":2559202.0199999996}},{"attributes":{"ID":538856,"DIS_CODE":0,"TOWNNAME":"善化區","LI":"西關里","LIN":"12鄰","STREET":"光復路","SECT":" ","MAREA":" ","LANE":" ","ALLEY":" ","HOUSE_NO":"６１２號","E_COORD97":176772.34,"N_COORD97":2559099.5099999998,"ADDRESS":"光復路６１２號","OBJECTID":538829},"geometry":{"x":176772.34000000078,"y":2559099.5099999998}},{"attributes":{"ID":538857,"DIS_CODE":0,"TOWNNAME":"善化區","LI":"光文里","LIN":"12鄰","STREET":"民生路","SECT":" ","MAREA":" ","LANE":" ","ALLEY":" ","HOUSE_NO":"８１號","E_COORD97":178736.98000000001,"N_COORD97":2558991.2599999998,"ADDRESS":"民生路８１號","OBJECTID":538830},"geometry":{"x":178736.98000000045,"y":2558991.2600000016}},{"attributes":{"ID":538858,"DIS_CODE":0,"TOWNNAME":"善化區","LI":"光文里","LIN":"12鄰","STREET":"民生路","SECT":" ","MAREA":" ","LANE":" ","ALLEY":" ","HOUSE_NO":"２３號","E_COORD97":178859.45999999999,"N_COORD97":2559014.2599999998,"ADDRESS":"民生路２３號","OBJECTID":538831},"geometry":{"x":178859.46000000183,"y":2559014.2599999979}},{"attributes":{"ID":538859,"DIS_CODE":0,"TOWNNAME":"善化區","LI":"光文里","LIN":"12鄰","STREET":"大成路","SECT":" ","MAREA":" ","LANE":" ","ALLEY":" ","HOUSE_NO":"１１２號","E_COORD97":178602.59,"N_COORD97":2558914.75,"ADDRESS":"大成路１１２號","OBJECTID":538832},"geometry":{"x":178602.59000000078,"y":2558914.7500000019}},{"attributes":{"ID":538860,"DIS_CODE":0,"TOWNNAME":"善化區","LI":"光文里","LIN":"12鄰","STREET":"民生路","SECT":" ","MAREA":" ","LANE":" ","ALLEY":" ","HOUSE_NO":"１１８號","E_COORD97":178617.97,"N_COORD97":2558993.2599999998,"ADDRESS":"民生路１１８號","OBJECTID":538833},"geometry":{"x":178617.96999999974,"y":2558993.2599999998}},{"attributes":{"ID":538861,"DIS_CODE":0,"TOWNNAME":"善化區","LI":"光文里","LIN":"12鄰","STREET":"民生路","SECT":" ","MAREA":" ","LANE":" ","ALLEY":" ","HOUSE_NO":"１３９號","E_COORD97":178577.94,"N_COORD97":2558969.7599999998,"ADDRESS":"民生路１３９號","OBJECTID":538834},"geometry":{"x":178577.94000000041,"y":2558969.7599999998}},{"attributes":{"ID":538862,"DIS_CODE":0,"TOWNNAME":"善化區","LI":"光文里","LIN":"12鄰","STREET":"民生路","SECT":" ","MAREA":" ","LANE":" ","ALLEY":" ","HOUSE_NO":"１０３號","E_COORD97":178689.17999999999,"N_COORD97":2558987.0099999998,"ADDRESS":"民生路１０３號","OBJECTID":538835},"geometry":{"x":178689.1799999997,"y":2558987.0100000016}},{"attributes":{"ID":538863,"DIS_CODE":0,"TOWNNAME":"善化區","LI":"光文里","LIN":"12鄰","STREET":"民生路","SECT":" ","MAREA":" ","LANE":" ","ALLEY":" ","HOUSE_NO":"１０２號","E_COORD97":178686.12,"N_COORD97":2559004.0099999998,"ADDRESS":"民生路１０２號","OBJECTID":538836},"geometry":{"x":178686.12000000104,"y":2559004.0100000016}},{"attributes":{"ID":538864,"DIS_CODE":0,"TOWNNAME":"善化區","LI":"光文里","LIN":"12鄰","STREET":"民生路","SECT":" ","MAREA":" ","LANE":" ","ALLEY":" ","HOUSE_NO":"１０１號","E_COORD97":178693.26000000001,"N_COORD97":2558987.7599999998,"ADDRESS":"民生路１０１號","OBJECTID":538837},"geometry":{"x":178693.26000000071,"y":2558987.7600000016}},{"attributes":{"ID":538865,"DIS_CODE":0,"TOWNNAME":"善化區","LI":"西關里","LIN":"12鄰","STREET":"自由路","SECT":" ","MAREA":" ","LANE":" ","ALLEY":" ","HOUSE_NO":"２６１號","E_COORD97":176847.51999999999,"N_COORD97":2559087,"ADDRESS":"自由路２６１號","OBJECTID":538838},"geometry":{"x":176847.51999999955,"y":2559087}},{"attributes":{"ID":538866,"DIS_CODE":0,"TOWNNAME":"善化區","LI":"光文里","LIN":"12鄰","STREET":"大成路","SECT":" ","MAREA":" ","LANE":" ","ALLEY":" ","HOUSE_NO":"９６號","E_COORD97":178635.45999999999,"N_COORD97":2558918.25,"ADDRESS":"大成路９６號","OBJECTID":538839},"geometry":{"x":178635.45999999903,"y":2558918.25}},{"attributes":{"ID":538867,"DIS_CODE":0,"TOWNNAME":"善化區","LI":"光文里","LIN":"12鄰","STREET":"大成路","SECT":" ","MAREA":" ","LANE":" ","ALLEY":" ","HOUSE_NO":"１２２號","E_COORD97":178580.42999999999,"N_COORD97":2558909.5,"ADDRESS":"大成路１２２號","OBJECTID":538840},"geometry":{"x":178580.4299999997,"y":2558909.5000000019}},{"attributes":{"ID":538868,"DIS_CODE":0,"TOWNNAME":"善化區","LI":"光文里","LIN":"12鄰","STREET":"大成路","SECT":" ","MAREA":" ","LANE":" ","ALLEY":" ","HOUSE_NO":"１４０號","E_COORD97":178541.54000000001,"N_COORD97":2558903.75,"ADDRESS":"大成路１４０號","OBJECTID":538841},"geometry":{"x":178541.54000000004,"y":2558903.7500000019}},{"attributes":{"ID":538869,"DIS_CODE":0,"TOWNNAME":"善化區","LI":"光文里","LIN":"12鄰","STREET":"民生路","SECT":" ","MAREA":" ","LANE":" ","ALLEY":" ","HOUSE_NO":"１４１號","E_COORD97":178573.66,"N_COORD97":2558969.0099999998,"ADDRESS":"民生路１４１號","OBJECTID":538842},"geometry":{"x":178573.66000000108,"y":2558969.0100000016}},{"attributes":{"ID":538870,"DIS_CODE":0,"TOWNNAME":"善化區","LI":"坐駕里","LIN":"12鄰","STREET":"大成路","SECT":" ","MAREA":" ","LANE":" ","ALLEY":" ","HOUSE_NO":"２６５號","E_COORD97":178243.59,"N_COORD97":2558822.75,"ADDRESS":"大成路２６５號","OBJECTID":538843},"geometry":{"x":178243.59000000078,"y":2558822.7500000019}},{"attributes":{"ID":538871,"DIS_CODE":0,"TOWNNAME":"善化區","LI":"光文里","LIN":"12鄰","STREET":"大成路","SECT":" ","MAREA":" ","LANE":" ","ALLEY":" ","HOUSE_NO":"１２４號","E_COORD97":178574.85000000001,"N_COORD97":2558913.5,"ADDRESS":"大成路１２４號","OBJECTID":538844},"geometry":{"x":178574.8499999987,"y":2558913.5}},{"attributes":{"ID":538872,"DIS_CODE":0,"TOWNNAME":"善化區","LI":"光文里","LIN":"12鄰","STREET":"大成路","SECT":" ","MAREA":" ","LANE":" ","ALLEY":" ","HOUSE_NO":"６４號","E_COORD97":178769.45999999999,"N_COORD97":2558948.25,"ADDRESS":"大成路６４號","OBJECTID":538845},"geometry":{"x":178769.46000000183,"y":2558948.2500000019}},{"attributes":{"ID":538873,"DIS_CODE":0,"TOWNNAME":"善化區","LI":"西關里","LIN":"12鄰","STREET":"中山路","SECT":" ","MAREA":" ","LANE":" ","ALLEY":" ","HOUSE_NO":"５８７之３號","E_COORD97":176934.48000000001,"N_COORD97":2559158.27,"ADDRESS":"中山路５８７之３號","OBJECTID":538846},"geometry":{"x":176934.48000000138,"y":2559158.2700000014}},{"attributes":{"ID":538874,"DIS_CODE":0,"TOWNNAME":"善化區","LI":"坐駕里","LIN":"12鄰","STREET":"大成路","SECT":" ","MAREA":" ","LANE":" ","ALLEY":" ","HOUSE_NO":"３４５號之２","E_COORD97":178022.01999999999,"N_COORD97":2558788.27,"ADDRESS":"大成路３４５號之２","OBJECTID":538847},"geometry":{"x":178022.01999999955,"y":2558788.2700000014}},{"attributes":{"ID":538875,"DIS_CODE":0,"TOWNNAME":"善化區","LI":"西關里","LIN":"12鄰","STREET":"自由路","SECT":" ","MAREA":" ","LANE":" ","ALLEY":" ","HOUSE_NO":"２５９號","E_COORD97":176847.67999999999,"N_COORD97":2559083,"ADDRESS":"自由路２５９號","OBJECTID":538848},"geometry":{"x":176847.68000000063,"y":2559083}},{"attributes":{"ID":538876,"DIS_CODE":0,"TOWNNAME":"善化區","LI":"光文里","LIN":"12鄰","STREET":"四維路","SECT":" ","MAREA":" ","LANE":" ","ALLEY":" ","HOUSE_NO":"６６號","E_COORD97":178799.42000000001,"N_COORD97":2558966.25,"ADDRESS":"四維路６６號","OBJECTID":538849},"geometry":{"x":178799.41999999993,"y":2558966.25}},{"attributes":{"ID":538877,"DIS_CODE":0,"TOWNNAME":"善化區","LI":"光文里","LIN":"12鄰","STREET":"民生路","SECT":" ","MAREA":" ","LANE":" ","ALLEY":" ","HOUSE_NO":"１２０號之１","E_COORD97":178609.51999999999,"N_COORD97":2559010.77,"ADDRESS":"民生路１２０號之１","OBJECTID":538850},"geometry":{"x":178609.52000000048,"y":2559010.7700000033}},{"attributes":{"ID":538878,"DIS_CODE":0,"TOWNNAME":"善化區","LI":"光文里","LIN":"12鄰","STREET":"民生路","SECT":" ","MAREA":" ","LANE":" ","ALLEY":" ","HOUSE_NO":"１０８號","E_COORD97":178674.23999999999,"N_COORD97":2559002.2599999998,"ADDRESS":"民生路１０８號","OBJECTID":538851},"geometry":{"x":178674.24000000022,"y":2559002.2600000016}},{"attributes":{"ID":538879,"DIS_CODE":0,"TOWNNAME":"善化區","LI":"西關里","LIN":"12鄰","STREET":"光復路","SECT":" ","MAREA":" ","LANE":" ","ALLEY":" ","HOUSE_NO":"６３０號","E_COORD97":176769.88,"N_COORD97":2559138.7599999998,"ADDRESS":"光復路６３０號","OBJECTID":538852},"geometry":{"x":176769.88000000082,"y":2559138.7599999998}},{"attributes":{"ID":538880,"DIS_CODE":0,"TOWNNAME":"善化區","LI":"光文里","LIN":"12鄰","STREET":"大成路","SECT":" ","MAREA":" ","LANE":" ","ALLEY":" ","HOUSE_NO":"１４２之１號","E_COORD97":178531.93482600001,"N_COORD97":2558901.9074499998,"ADDRESS":"大成路１４２之１號","OBJECTID":538853},"geometry":{"x":178531.93482600152,"y":2558901.9074500017}},{"attributes":{"ID":538881,"DIS_CODE":0,"TOWNNAME":"善化區","LI":"坐駕里","LIN":"12鄰","STREET":"大成路","SECT":" ","MAREA":" ","LANE":" ","ALLEY":" ","HOUSE_NO":"３２３號","E_COORD97":178077.72,"N_COORD97":2558797,"ADDRESS":"大成路３２３號","OBJECTID":538854},"geometry":{"x":178077.72000000067,"y":2558797.0000000019}},{"attributes":{"ID":538882,"DIS_CODE":0,"TOWNNAME":"南區","LI":"郡南里","LIN":"6鄰","STREET":"永吉街","SECT":" ","MAREA":" ","LANE":" ","ALLEY":" ","HOUSE_NO":"３號","E_COORD97":167289.85999999999,"N_COORD97":2540574.6699999999,"ADDRESS":"永吉街３號","OBJECTID":538855},"geometry":{"x":167289.86000000127,"y":2540574.6699999999}},{"attributes":{"ID":538883,"DIS_CODE":0,"TOWNNAME":"南區","LI":"郡南里","LIN":"6鄰","STREET":"永吉街","SECT":" ","MAREA":" ","LANE":" ","ALLEY":" ","HOUSE_NO":"５號","E_COORD97":167289.85999999999,"N_COORD97":2540577.8500000001,"ADDRESS":"永吉街５號","OBJECTID":538856},"geometry":{"x":167289.86000000127,"y":2540577.8500000015}},{"attributes":{"ID":538884,"DIS_CODE":0,"TOWNNAME":"南區","LI":"郡南里","LIN":"6鄰","STREET":"永吉街","SECT":" ","MAREA":" ","LANE":" ","ALLEY":" ","HOUSE_NO":"７號","E_COORD97":167290.66,"N_COORD97":2540586.0800000001,"ADDRESS":"永吉街７號","OBJECTID":538857},"geometry":{"x":167290.66000000108,"y":2540586.0800000038}},{"attributes":{"ID":538885,"DIS_CODE":0,"TOWNNAME":"南區","LI":"郡南里","LIN":"6鄰","STREET":"永吉街","SECT":" ","MAREA":" ","LANE":" ","ALLEY":" ","HOUSE_NO":"９號","E_COORD97":167289.59,"N_COORD97":2540594.8300000001,"ADDRESS":"永吉街９號","OBJECTID":538858},"geometry":{"x":167289.58999999985,"y":2540594.8300000019}},{"attributes":{"ID":538886,"DIS_CODE":0,"TOWNNAME":"南區","LI":"郡南里","LIN":"6鄰","STREET":"永興四街","SECT":" ","MAREA":" ","LANE":" ","ALLEY":" ","HOUSE_NO":"１號","E_COORD97":167299.73999999999,"N_COORD97":2540552.6699999999,"ADDRESS":"永興四街１號","OBJECTID":538859},"geometry":{"x":167299.74000000022,"y":2540552.6700000018}},{"attributes":{"ID":538887,"DIS_CODE":0,"TOWNNAME":"南區","LI":"郡南里","LIN":"6鄰","STREET":"永興四街","SECT":" ","MAREA":" ","LANE":" ","ALLEY":" ","HOUSE_NO":"２號","E_COORD97":167285.29000000001,"N_COORD97":2540576.75,"ADDRESS":"永興四街２號","OBJECTID":538860},"geometry":{"x":167285.29000000004,"y":2540576.75}},{"attributes":{"ID":538888,"DIS_CODE":0,"TOWNNAME":"南區","LI":"郡南里","LIN":"6鄰","STREET":"永興四街","SECT":" ","MAREA":" ","LANE":" ","ALLEY":" ","HOUSE_NO":"２號之１","E_COORD97":167278.48999999999,"N_COORD97":2540577.1099999999,"ADDRESS":"永興四街２號之１","OBJECTID":538861},"geometry":{"x":167278.49000000115,"y":2540577.1099999994}},{"attributes":{"ID":538889,"DIS_CODE":0,"TOWNNAME":"南區","LI":"郡南里","LIN":"6鄰","STREET":"永興四街","SECT":" ","MAREA":" ","LANE":" ","ALLEY":" ","HOUSE_NO":"３號","E_COORD97":167294.88,"N_COORD97":2540551.0499999998,"ADDRESS":"永興四街３號","OBJECTID":538862},"geometry":{"x":167294.87999999989,"y":2540551.0500000026}},{"attributes":{"ID":538890,"DIS_CODE":0,"TOWNNAME":"南區","LI":"郡南里","LIN":"6鄰","STREET":"永興四街","SECT":" ","MAREA":" ","LANE":" ","ALLEY":" ","HOUSE_NO":"４號","E_COORD97":167274.16,"N_COORD97":2540576.7000000002,"ADDRESS":"永興四街４號","OBJECTID":538863},"geometry":{"x":167274.16000000015,"y":2540576.6999999993}},{"attributes":{"ID":538891,"DIS_CODE":0,"TOWNNAME":"南區","LI":"郡南里","LIN":"6鄰","STREET":"永興四街","SECT":" ","MAREA":" ","LANE":" ","ALLEY":" ","HOUSE_NO":"５號","E_COORD97":167291.37,"N_COORD97":2540552.6699999999,"ADDRESS":"永興四街５號","OBJECTID":538864},"geometry":{"x":167291.37000000011,"y":2540552.6700000018}},{"attributes":{"ID":538892,"DIS_CODE":0,"TOWNNAME":"南區","LI":"郡南里","LIN":"6鄰","STREET":"永興四街","SECT":" ","MAREA":" ","LANE":" ","ALLEY":" ","HOUSE_NO":"６號","E_COORD97":167269.54999999999,"N_COORD97":2540576.5099999998,"ADDRESS":"永興四街６號","OBJECTID":538865},"geometry":{"x":167269.54999999981,"y":2540576.5100000016}},{"attributes":{"ID":538893,"DIS_CODE":0,"TOWNNAME":"善化區","LI":"西關里","LIN":"12鄰","STREET":"光復路","SECT":" ","MAREA":" ","LANE":" ","ALLEY":" ","HOUSE_NO":"６１８號","E_COORD97":176771.47,"N_COORD97":2559112.5099999998,"ADDRESS":"光復路６１８號","OBJECTID":538866},"geometry":{"x":176771.46999999974,"y":2559112.5100000016}},{"attributes":{"ID":538894,"DIS_CODE":0,"TOWNNAME":"善化區","LI":"坐駕里","LIN":"12鄰","STREET":"信義路","SECT":" ","MAREA":" ","LANE":" ","ALLEY":" ","HOUSE_NO":"８３號","E_COORD97":178268.92999999999,"N_COORD97":2558785.75,"ADDRESS":"信義路８３號","OBJECTID":538867},"geometry":{"x":178268.9299999997,"y":2558785.7500000019}},{"attributes":{"ID":538895,"DIS_CODE":0,"TOWNNAME":"南區","LI":"國宅里","LIN":"8鄰","STREET":"新孝路","SECT":" ","MAREA":" ","LANE":" ","ALLEY":" ","HOUSE_NO":"５５號","E_COORD97":166900.79999999999,"N_COORD97":2542040.0600000001,"ADDRESS":"新孝路５５號","OBJECTID":538868},"geometry":{"x":166900.80000000168,"y":2542040.0600000005}},{"attributes":{"ID":538896,"DIS_CODE":0,"TOWNNAME":"永康區","LI":"網寮里","LIN":"12鄰","STREET":"永勝街","SECT":" ","MAREA":" ","LANE":" ","ALLEY":" ","HOUSE_NO":"１６５號","E_COORD97":173313.01000000001,"N_COORD97":2546487.8199999998,"ADDRESS":"永勝街１６５號","OBJECTID":538869},"geometry":{"x":173313.00999999978,"y":2546487.8200000022}},{"attributes":{"ID":538897,"DIS_CODE":0,"TOWNNAME":"永康區","LI":"龍潭里","LIN":"12鄰","STREET":"龍橋街","SECT":" ","MAREA":" ","LANE":" ","ALLEY":" ","HOUSE_NO":"４９號","E_COORD97":174798.69,"N_COORD97":2548381.3399999999,"ADDRESS":"龍橋街４９號","OBJECTID":538870},"geometry":{"x":174798.69000000134,"y":2548381.3399999999}},{"attributes":{"ID":538898,"DIS_CODE":0,"TOWNNAME":"善化區","LI":"南關里","LIN":"12鄰","STREET":"復興街","SECT":" ","MAREA":" ","LANE":" ","ALLEY":" ","HOUSE_NO":"５３號之３","E_COORD97":177006.38,"N_COORD97":2559013.77,"ADDRESS":"復興街５３號之３","OBJECTID":538871},"geometry":{"x":177006.37999999989,"y":2559013.7699999996}},{"attributes":{"ID":538899,"DIS_CODE":0,"TOWNNAME":"善化區","LI":"坐駕里","LIN":"12鄰","STREET":"信義路","SECT":" ","MAREA":" ","LANE":" ","ALLEY":" ","HOUSE_NO":"８５號","E_COORD97":178268.34,"N_COORD97":2558789.5,"ADDRESS":"信義路８５號","OBJECTID":538872},"geometry":{"x":178268.34000000171,"y":2558789.5000000037}},{"attributes":{"ID":538900,"DIS_CODE":0,"TOWNNAME":"善化區","LI":"坐駕里","LIN":"12鄰","STREET":"信義路","SECT":" ","MAREA":" ","LANE":" ","ALLEY":" ","HOUSE_NO":"７７號","E_COORD97":178267.51999999999,"N_COORD97":2558768.25,"ADDRESS":"信義路７７號","OBJECTID":538873},"geometry":{"x":178267.52000000048,"y":2558768.2500000019}},{"attributes":{"ID":538901,"DIS_CODE":0,"TOWNNAME":"善化區","LI":"坐駕里","LIN":"12鄰","STREET":"信義路","SECT":" ","MAREA":" ","LANE":" ","ALLEY":" ","HOUSE_NO":"９７號","E_COORD97":178266.07999999999,"N_COORD97":2558813.75,"ADDRESS":"信義路９７號","OBJECTID":538874},"geometry":{"x":178266.08000000101,"y":2558813.75}},{"attributes":{"ID":538902,"DIS_CODE":0,"TOWNNAME":"善化區","LI":"坐駕里","LIN":"12鄰","STREET":"信義路","SECT":" ","MAREA":" ","LANE":" ","ALLEY":" ","HOUSE_NO":"９５號","E_COORD97":178266.19,"N_COORD97":2558809.25,"ADDRESS":"信義路９５號","OBJECTID":538875},"geometry":{"x":178266.19000000041,"y":2558809.2500000019}},{"attributes":{"ID":538903,"DIS_CODE":0,"TOWNNAME":"佳里區","LI":"忠仁里","LIN":"10鄰","STREET":"興中街","SECT":" ","MAREA":" ","LANE":" ","ALLEY":" ","HOUSE_NO":"２０號","E_COORD97":165968.32999999999,"N_COORD97":2562207.2000000002,"ADDRESS":"興中街２０號","OBJECTID":538876},"geometry":{"x":165968.32999999914,"y":2562207.1999999993}},{"attributes":{"ID":538904,"DIS_CODE":0,"TOWNNAME":"善化區","LI":"東關里","LIN":"12鄰","STREET":"中山路","SECT":" ","MAREA":" ","LANE":" ","ALLEY":" ","HOUSE_NO":"３８３號","E_COORD97":177416.76000000001,"N_COORD97":2559096,"ADDRESS":"中山路３８３號","OBJECTID":538877},"geometry":{"x":177416.76000000071,"y":2559096.0000000019}},{"attributes":{"ID":538905,"DIS_CODE":0,"TOWNNAME":"麻豆區","LI":"穀興里","LIN":"12鄰","STREET":"中山路","SECT":" ","MAREA":" ","LANE":" ","ALLEY":" ","HOUSE_NO":"３８號","E_COORD97":172920.25,"N_COORD97":2564838.1400000001,"ADDRESS":"中山路３８號","OBJECTID":538878},"geometry":{"x":172920.25,"y":2564838.1400000025}},{"attributes":{"ID":538906,"DIS_CODE":0,"TOWNNAME":"麻豆區","LI":"穀興里","LIN":"12鄰","STREET":"中山路","SECT":" ","MAREA":" ","LANE":" ","ALLEY":" ","HOUSE_NO":"４２號","E_COORD97":172910.29999999999,"N_COORD97":2564837.8399999999,"ADDRESS":"中山路４２號","OBJECTID":538879},"geometry":{"x":172910.30000000075,"y":2564837.8399999999}},{"attributes":{"ID":538907,"DIS_CODE":0,"TOWNNAME":"永康區","LI":"大灣里","LIN":"12鄰","STREET":"民族路","SECT":" ","MAREA":" ","LANE":" ","ALLEY":" ","HOUSE_NO":"３８８號","E_COORD97":174792.70999999999,"N_COORD97":2545361.2799999998,"ADDRESS":"民族路３８８號","OBJECTID":538880},"geometry":{"x":174792.71000000089,"y":2545361.2800000012}},{"attributes":{"ID":538908,"DIS_CODE":0,"TOWNNAME":"永康區","LI":"二王里","LIN":"12鄰","STREET":"永二街","SECT":" ","MAREA":" ","LANE":" ","ALLEY":" ","HOUSE_NO":"４２３號","E_COORD97":172778.70000000001,"N_COORD97":2546569.9300000002,"ADDRESS":"永二街４２３號","OBJECTID":538881},"geometry":{"x":172778.70000000019,"y":2546569.9299999997}},{"attributes":{"ID":538909,"DIS_CODE":0,"TOWNNAME":"永康區","LI":"西灣里","LIN":"12鄰","STREET":"大灣五街","SECT":" ","MAREA":" ","LANE":" ","ALLEY":" ","HOUSE_NO":"２０６號","E_COORD97":174414.67999999999,"N_COORD97":2545349.1400000001,"ADDRESS":"大灣五街２０６號","OBJECTID":538882},"geometry":{"x":174414.68000000063,"y":2545349.1400000006}},{"attributes":{"ID":538910,"DIS_CODE":0,"TOWNNAME":"永康區","LI":"西勢里","LIN":"12鄰","STREET":"廣盛街","SECT":" ","MAREA":" ","LANE":" ","ALLEY":" ","HOUSE_NO":"１４８號","E_COORD97":176089.60000000001,"N_COORD97":2546657.3799999999,"ADDRESS":"廣盛街１４８號","OBJECTID":538883},"geometry":{"x":176089.59999999963,"y":2546657.379999999}},{"attributes":{"ID":538911,"DIS_CODE":0,"TOWNNAME":"永康區","LI":"三民里","LIN":"12鄰","STREET":"和平東路","SECT":" ","MAREA":" ","LANE":" ","ALLEY":" ","HOUSE_NO":"１７３號","E_COORD97":174073.07000000001,"N_COORD97":2550532.3100000001,"ADDRESS":"和平東路１７３號","OBJECTID":538884},"geometry":{"x":174073.0700000003,"y":2550532.3100000042}},{"attributes":{"ID":538912,"DIS_CODE":0,"TOWNNAME":"永康區","LI":"大灣里","LIN":"12鄰","STREET":"民族路","SECT":" ","MAREA":" ","LANE":" ","ALLEY":" ","HOUSE_NO":"３８２號","E_COORD97":174800.10000000001,"N_COORD97":2545358.2799999998,"ADDRESS":"民族路３８２號","OBJECTID":538885},"geometry":{"x":174800.10000000056,"y":2545358.2800000012}},{"attributes":{"ID":538913,"DIS_CODE":0,"TOWNNAME":"永康區","LI":"三民里","LIN":"12鄰","STREET":"和平路","SECT":" ","MAREA":" ","LANE":" ","ALLEY":" ","HOUSE_NO":"２３３號","E_COORD97":174735.32999999999,"N_COORD97":2550702.5099999998,"ADDRESS":"和平路２３３號","OBJECTID":538886},"geometry":{"x":174735.33000000007,"y":2550702.5099999998}},{"attributes":{"ID":538914,"DIS_CODE":0,"TOWNNAME":"永康區","LI":"三民里","LIN":"12鄰","STREET":"正北一路","SECT":" ","MAREA":" ","LANE":" ","ALLEY":" ","HOUSE_NO":"１５８號","E_COORD97":174085.94,"N_COORD97":2550102.8700000001,"ADDRESS":"正北一路１５８號","OBJECTID":538887},"geometry":{"x":174085.94000000041,"y":2550102.8700000029}},{"attributes":{"ID":538915,"DIS_CODE":0,"TOWNNAME":"永康區","LI":"三民里","LIN":"12鄰","STREET":"和平東路","SECT":" ","MAREA":" ","LANE":" ","ALLEY":" ","HOUSE_NO":"１５０號","E_COORD97":174717.76000000001,"N_COORD97":2550591.9399999999,"ADDRESS":"和平東路１５０號","OBJECTID":538888},"geometry":{"x":174717.76000000071,"y":2550591.9400000013}},{"attributes":{"ID":538916,"DIS_CODE":0,"TOWNNAME":"永康區","LI":"三民里","LIN":"12鄰","STREET":"和平路","SECT":" ","MAREA":" ","LANE":" ","ALLEY":" ","HOUSE_NO":"２３１號","E_COORD97":174735.89000000001,"N_COORD97":2550694.5299999998,"ADDRESS":"和平路２３１號","OBJECTID":538889},"geometry":{"x":174735.8900000006,"y":2550694.5299999993}},{"attributes":{"ID":538917,"DIS_CODE":0,"TOWNNAME":"永康區","LI":"三民里","LIN":"12鄰","STREET":"和平東路","SECT":" ","MAREA":" ","LANE":" ","ALLEY":" ","HOUSE_NO":"１４８號","E_COORD97":174722.82999999999,"N_COORD97":2550593.9399999999,"ADDRESS":"和平東路１４８號","OBJECTID":538890},"geometry":{"x":174722.83000000101,"y":2550593.9399999995}},{"attributes":{"ID":538918,"DIS_CODE":0,"TOWNNAME":"永康區","LI":"三民里","LIN":"12鄰","STREET":"和平東路","SECT":" ","MAREA":" ","LANE":" ","ALLEY":" ","HOUSE_NO":"１１７號","E_COORD97":174717.45000000001,"N_COORD97":2550537.7400000002,"ADDRESS":"和平東路１１７號","OBJECTID":538891},"geometry":{"x":174717.45000000019,"y":2550537.7400000002}},{"attributes":{"ID":538919,"DIS_CODE":0,"TOWNNAME":"佳里區","LI":"忠仁里","LIN":"10鄰","STREET":"興中街","SECT":" ","MAREA":" ","LANE":" ","ALLEY":" ","HOUSE_NO":"２２號","E_COORD97":165964.38,"N_COORD97":2562206.8599999999,"ADDRESS":"興中街２２號","OBJECTID":538892},"geometry":{"x":165964.37999999896,"y":2562206.8599999994}},{"attributes":{"ID":538920,"DIS_CODE":0,"TOWNNAME":"永康區","LI":"三民里","LIN":"12鄰","STREET":"民東路","SECT":" ","MAREA":" ","LANE":" ","ALLEY":" ","HOUSE_NO":"５７號","E_COORD97":174655.42999999999,"N_COORD97":2550397.8399999999,"ADDRESS":"民東路５７號","OBJECTID":538893},"geometry":{"x":174655.43000000063,"y":2550397.8399999999}},{"attributes":{"ID":538921,"DIS_CODE":0,"TOWNNAME":"永康區","LI":"三民里","LIN":"12鄰","STREET":"正北一路","SECT":" ","MAREA":" ","LANE":" ","ALLEY":" ","HOUSE_NO":"１５７號","E_COORD97":174057.38,"N_COORD97":2550067.8199999998,"ADDRESS":"正北一路１５７號","OBJECTID":538894},"geometry":{"x":174057.38000000175,"y":2550067.8200000022}},{"attributes":{"ID":538922,"DIS_CODE":0,"TOWNNAME":"永康區","LI":"三民里","LIN":"12鄰","STREET":"正北一路","SECT":" ","MAREA":" ","LANE":" ","ALLEY":" ","HOUSE_NO":"１５５號","E_COORD97":173896.39000000001,"N_COORD97":2550544.4900000002,"ADDRESS":"正北一路１５５號","OBJECTID":538895},"geometry":{"x":173896.3900000006,"y":2550544.4900000039}},{"attributes":{"ID":538923,"DIS_CODE":0,"TOWNNAME":"永康區","LI":"三民里","LIN":"12鄰","STREET":"民東路","SECT":" ","MAREA":" ","LANE":" ","ALLEY":" ","HOUSE_NO":"１１號","E_COORD97":174233.41,"N_COORD97":2550372.79,"ADDRESS":"民東路１１號","OBJECTID":538896},"geometry":{"x":174233.41000000015,"y":2550372.790000001}},{"attributes":{"ID":538924,"DIS_CODE":0,"TOWNNAME":"永康區","LI":"三民里","LIN":"12鄰","STREET":"和平東路","SECT":" ","MAREA":" ","LANE":" ","ALLEY":" ","HOUSE_NO":"１３５號","E_COORD97":174640.09,"N_COORD97":2550560.0600000001,"ADDRESS":"和平東路１３５號","OBJECTID":538897},"geometry":{"x":174640.08999999985,"y":2550560.0600000005}},{"attributes":{"ID":538925,"DIS_CODE":0,"TOWNNAME":"永康區","LI":"三民里","LIN":"12鄰","STREET":"民東路","SECT":" ","MAREA":" ","LANE":" ","ALLEY":" ","HOUSE_NO":"３６號","E_COORD97":174348.04000000001,"N_COORD97":2550298.0299999998,"ADDRESS":"民東路３６號","OBJECTID":538898},"geometry":{"x":174348.0400000019,"y":2550298.0299999993}},{"attributes":{"ID":538926,"DIS_CODE":0,"TOWNNAME":"永康區","LI":"三民里","LIN":"12鄰","STREET":"正北三路","SECT":" ","MAREA":" ","LANE":" ","ALLEY":" ","HOUSE_NO":"２８８號","E_COORD97":174328.76999999999,"N_COORD97":2550513.6299999999,"ADDRESS":"正北三路２８８號","OBJECTID":538899},"geometry":{"x":174328.76999999955,"y":2550513.629999999}},{"attributes":{"ID":538927,"DIS_CODE":0,"TOWNNAME":"永康區","LI":"三民里","LIN":"12鄰","STREET":"民東路","SECT":" ","MAREA":" ","LANE":" ","ALLEY":" ","HOUSE_NO":"３３號","E_COORD97":174463.5,"N_COORD97":2550396.0499999998,"ADDRESS":"民東路３３號","OBJECTID":538900},"geometry":{"x":174463.50000000186,"y":2550396.0500000026}},{"attributes":{"ID":538928,"DIS_CODE":0,"TOWNNAME":"麻豆區","LI":"穀興里","LIN":"12鄰","STREET":"中山路","SECT":" ","MAREA":" ","LANE":" ","ALLEY":" ","HOUSE_NO":"８２號","E_COORD97":172774.22,"N_COORD97":2564838.2400000002,"ADDRESS":"中山路８２號","OBJECTID":538901},"geometry":{"x":172774.21999999974,"y":2564838.2400000002}},{"attributes":{"ID":538929,"DIS_CODE":0,"TOWNNAME":"永康區","LI":"三民里","LIN":"12鄰","STREET":"和平東路","SECT":" ","MAREA":" ","LANE":" ","ALLEY":" ","HOUSE_NO":"１６７號","E_COORD97":174140.98999999999,"N_COORD97":2550536.1600000001,"ADDRESS":"和平東路１６７號","OBJECTID":538902},"geometry":{"x":174140.99000000022,"y":2550536.1600000039}},{"attributes":{"ID":538930,"DIS_CODE":0,"TOWNNAME":"永康區","LI":"三民里","LIN":"12鄰","STREET":"和平東路","SECT":" ","MAREA":" ","LANE":" ","ALLEY":" ","HOUSE_NO":"１３７號","E_COORD97":174580.34,"N_COORD97":2550519.2400000002,"ADDRESS":"和平東路１３７號","OBJECTID":538903},"geometry":{"x":174580.34000000078,"y":2550519.2400000021}},{"attributes":{"ID":538931,"DIS_CODE":0,"TOWNNAME":"永康區","LI":"三民里","LIN":"12鄰","STREET":"正北一路","SECT":" ","MAREA":" ","LANE":" ","ALLEY":" ","HOUSE_NO":"１６８號","E_COORD97":174085.29999999999,"N_COORD97":2550264.6600000001,"ADDRESS":"正北一路１６８號","OBJECTID":538904},"geometry":{"x":174085.30000000075,"y":2550264.6600000001}},{"attributes":{"ID":538932,"DIS_CODE":0,"TOWNNAME":"永康區","LI":"三民里","LIN":"12鄰","STREET":"民東路","SECT":" ","MAREA":" ","LANE":" ","ALLEY":" ","HOUSE_NO":"２９號","E_COORD97":174382.85000000001,"N_COORD97":2550371.29,"ADDRESS":"民東路２９號","OBJECTID":538905},"geometry":{"x":174382.85000000149,"y":2550371.2899999972}},{"attributes":{"ID":538933,"DIS_CODE":0,"TOWNNAME":"永康區","LI":"三民里","LIN":"12鄰","STREET":"民東路","SECT":" ","MAREA":" ","LANE":" ","ALLEY":" ","HOUSE_NO":"６號","E_COORD97":174169.14000000001,"N_COORD97":2550315.29,"ADDRESS":"民東路６號","OBJECTID":538906},"geometry":{"x":174169.1400000006,"y":2550315.290000001}},{"attributes":{"ID":538934,"DIS_CODE":0,"TOWNNAME":"永康區","LI":"三民里","LIN":"12鄰","STREET":"民東路","SECT":" ","MAREA":" ","LANE":" ","ALLEY":" ","HOUSE_NO":"３２號","E_COORD97":174345.79000000001,"N_COORD97":2550287.79,"ADDRESS":"民東路３２號","OBJECTID":538907},"geometry":{"x":174345.79000000004,"y":2550287.790000001}},{"attributes":{"ID":538935,"DIS_CODE":0,"TOWNNAME":"永康區","LI":"三民里","LIN":"12鄰","STREET":"和平東路","SECT":" ","MAREA":" ","LANE":" ","ALLEY":" ","HOUSE_NO":"１８８號","E_COORD97":174321.22,"N_COORD97":2550588.75,"ADDRESS":"和平東路１８８號","OBJECTID":538908},"geometry":{"x":174321.22000000067,"y":2550588.75}},{"attributes":{"ID":538936,"DIS_CODE":0,"TOWNNAME":"永康區","LI":"三民里","LIN":"12鄰","STREET":"民東路","SECT":" ","MAREA":" ","LANE":" ","ALLEY":" ","HOUSE_NO":"５６號","E_COORD97":174547.98000000001,"N_COORD97":2550347.3300000001,"ADDRESS":"民東路５６號","OBJECTID":538909},"geometry":{"x":174547.98000000138,"y":2550347.3300000001}},{"attributes":{"ID":538937,"DIS_CODE":0,"TOWNNAME":"佳里區","LI":"忠仁里","LIN":"10鄰","STREET":"興中街","SECT":" ","MAREA":" ","LANE":" ","ALLEY":" ","HOUSE_NO":"２８號","E_COORD97":165951.48000000001,"N_COORD97":2562205.4199999999,"ADDRESS":"興中街２８號","OBJECTID":538910},"geometry":{"x":165951.48000000138,"y":2562205.4200000018}},{"attributes":{"ID":538938,"DIS_CODE":0,"TOWNNAME":"東區","LI":"崇德里","LIN":"12鄰","STREET":"崇德十一街","SECT":" ","MAREA":" ","LANE":" ","ALLEY":" ","HOUSE_NO":"７０號","E_COORD97":170980.32000000001,"N_COORD97":2541446.5299999998,"ADDRESS":"崇德十一街７０號","OBJECTID":538911},"geometry":{"x":170980.32000000123,"y":2541446.5300000031}},{"attributes":{"ID":538939,"DIS_CODE":0,"TOWNNAME":"安南區","LI":"幸福里","LIN":"12鄰","STREET":"府安路","SECT":"六段","MAREA":" ","LANE":" ","ALLEY":" ","HOUSE_NO":"８７號","E_COORD97":166799.29000000001,"N_COORD97":2546523.8300000001,"ADDRESS":"府安路六段８７號","OBJECTID":538912},"geometry":{"x":166799.2900000019,"y":2546523.8300000001}},{"attributes":{"ID":538940,"DIS_CODE":0,"TOWNNAME":"安南區","LI":"幸福里","LIN":"12鄰","STREET":"府安路","SECT":"六段","MAREA":" ","LANE":" ","ALLEY":" ","HOUSE_NO":"８８號","E_COORD97":166793.85999999999,"N_COORD97":2546523.04,"ADDRESS":"府安路六段８８號","OBJECTID":538913},"geometry":{"x":166793.86000000034,"y":2546523.040000001}},{"attributes":{"ID":538941,"DIS_CODE":0,"TOWNNAME":"安南區","LI":"幸福里","LIN":"12鄰","STREET":"府安路","SECT":"六段","MAREA":" ","LANE":" ","ALLEY":" ","HOUSE_NO":"８９號","E_COORD97":166789.51000000001,"N_COORD97":2546520.0800000001,"ADDRESS":"府安路六段８９號","OBJECTID":538914},"geometry":{"x":166789.51000000071,"y":2546520.0800000019}},{"attributes":{"ID":538942,"DIS_CODE":0,"TOWNNAME":"永康區","LI":"三民里","LIN":"12鄰","STREET":"民東路","SECT":" ","MAREA":" ","LANE":" ","ALLEY":" ","HOUSE_NO":"７號","E_COORD97":174153.51000000001,"N_COORD97":2550378.29,"ADDRESS":"民東路７號","OBJECTID":538915},"geometry":{"x":174153.51000000071,"y":2550378.2900000028}},{"attributes":{"ID":538943,"DIS_CODE":0,"TOWNNAME":"東區","LI":"崇德里","LIN":"12鄰","STREET":"崇德十一街","SECT":" ","MAREA":" ","LANE":" ","ALLEY":" ","HOUSE_NO":"１６號","E_COORD97":170835.73999999999,"N_COORD97":2541446.9399999999,"ADDRESS":"崇德十一街１６號","OBJECTID":538916},"geometry":{"x":170835.74000000022,"y":2541446.9399999995}},{"attributes":{"ID":538944,"DIS_CODE":0,"TOWNNAME":"東區","LI":"崇德里","LIN":"12鄰","STREET":"崇德十一街","SECT":" ","MAREA":" ","LANE":" ","ALLEY":" ","HOUSE_NO":"１８號","E_COORD97":170839.51000000001,"N_COORD97":2541444.8100000001,"ADDRESS":"崇德十一街１８號","OBJECTID":538917},"geometry":{"x":170839.51000000071,"y":2541444.8100000005}},{"attributes":{"ID":538945,"DIS_CODE":0,"TOWNNAME":"東區","LI":"崇德里","LIN":"12鄰","STREET":"崇德十一街","SECT":" ","MAREA":" ","LANE":" ","ALLEY":" ","HOUSE_NO":"２０號","E_COORD97":170844.28,"N_COORD97":2541443.5600000001,"ADDRESS":"崇德十一街２０號","OBJECTID":538918},"geometry":{"x":170844.28000000212,"y":2541443.5600000005}},{"attributes":{"ID":538946,"DIS_CODE":0,"TOWNNAME":"東區","LI":"崇德里","LIN":"12鄰","STREET":"崇德十一街","SECT":" ","MAREA":" ","LANE":" ","ALLEY":" ","HOUSE_NO":"２２號","E_COORD97":170849.56,"N_COORD97":2541443.1800000002,"ADDRESS":"崇德十一街２２號","OBJECTID":538919},"geometry":{"x":170849.55999999959,"y":2541443.1800000016}},{"attributes":{"ID":538947,"DIS_CODE":0,"TOWNNAME":"東區","LI":"崇德里","LIN":"12鄰","STREET":"崇德十一街","SECT":" ","MAREA":" ","LANE":" ","ALLEY":" ","HOUSE_NO":"２６號","E_COORD97":170860.12,"N_COORD97":2541442.5600000001,"ADDRESS":"崇德十一街２６號","OBJECTID":538920},"geometry":{"x":170860.12000000011,"y":2541442.5600000024}},{"attributes":{"ID":538948,"DIS_CODE":0,"TOWNNAME":"東區","LI":"崇德里","LIN":"12鄰","STREET":"崇德十一街","SECT":" ","MAREA":" ","LANE":" ","ALLEY":" ","HOUSE_NO":"２８號","E_COORD97":170864.22,"N_COORD97":2541445.4399999999,"ADDRESS":"崇德十一街２８號","OBJECTID":538921},"geometry":{"x":170864.21999999974,"y":2541445.4400000013}},{"attributes":{"ID":538949,"DIS_CODE":0,"TOWNNAME":"東區","LI":"崇德里","LIN":"12鄰","STREET":"崇德十一街","SECT":" ","MAREA":" ","LANE":" ","ALLEY":" ","HOUSE_NO":"３０號","E_COORD97":170868.73999999999,"N_COORD97":2541443.0699999998,"ADDRESS":"崇德十一街３０號","OBJECTID":538922},"geometry":{"x":170868.74000000115,"y":2541443.0700000003}},{"attributes":{"ID":538950,"DIS_CODE":0,"TOWNNAME":"東區","LI":"崇德里","LIN":"12鄰","STREET":"崇德十一街","SECT":" ","MAREA":" ","LANE":" ","ALLEY":" ","HOUSE_NO":"３２號","E_COORD97":170872.91,"N_COORD97":2541445.27,"ADDRESS":"崇德十一街３２號","OBJECTID":538923},"geometry":{"x":170872.91000000108,"y":2541445.2700000033}},{"attributes":{"ID":538951,"DIS_CODE":0,"TOWNNAME":"東區","LI":"崇德里","LIN":"12鄰","STREET":"崇德十一街","SECT":" ","MAREA":" ","LANE":" ","ALLEY":" ","HOUSE_NO":"３４號","E_COORD97":170877.04999999999,"N_COORD97":2541442.8100000001,"ADDRESS":"崇德十一街３４號","OBJECTID":538924},"geometry":{"x":170877.04999999981,"y":2541442.8100000042}},{"attributes":{"ID":538952,"DIS_CODE":0,"TOWNNAME":"東區","LI":"崇德里","LIN":"12鄰","STREET":"崇德十一街","SECT":" ","MAREA":" ","LANE":" ","ALLEY":" ","HOUSE_NO":"３６號","E_COORD97":170881.35000000001,"N_COORD97":2541445.1400000001,"ADDRESS":"崇德十一街３６號","OBJECTID":538925},"geometry":{"x":170881.34999999963,"y":2541445.1400000025}},{"attributes":{"ID":538953,"DIS_CODE":0,"TOWNNAME":"東區","LI":"崇德里","LIN":"12鄰","STREET":"崇德十一街","SECT":" ","MAREA":" ","LANE":" ","ALLEY":" ","HOUSE_NO":"３８號","E_COORD97":170884.97,"N_COORD97":2541442.6899999999,"ADDRESS":"崇德十一街３８號","OBJECTID":538926},"geometry":{"x":170884.9700000016,"y":2541442.6900000013}},{"attributes":{"ID":538954,"DIS_CODE":0,"TOWNNAME":"東區","LI":"崇德里","LIN":"12鄰","STREET":"崇德十一街","SECT":" ","MAREA":" ","LANE":" ","ALLEY":" ","HOUSE_NO":"６８號","E_COORD97":170978.12,"N_COORD97":2541450.0600000001,"ADDRESS":"崇德十一街６８號","OBJECTID":538927},"geometry":{"x":170978.12000000104,"y":2541450.0600000005}},{"attributes":{"ID":538955,"DIS_CODE":0,"TOWNNAME":"東區","LI":"崇德里","LIN":"12鄰","STREET":"崇德十一街","SECT":" ","MAREA":" ","LANE":" ","ALLEY":" ","HOUSE_NO":"７２號","E_COORD97":170977.09,"N_COORD97":2541462.3500000001,"ADDRESS":"崇德十一街７２號","OBJECTID":538928},"geometry":{"x":170977.08999999985,"y":2541462.3500000015}},{"attributes":{"ID":538956,"DIS_CODE":0,"TOWNNAME":"東區","LI":"崇德里","LIN":"12鄰","STREET":"崇德十一街","SECT":" ","MAREA":" ","LANE":" ","ALLEY":" ","HOUSE_NO":"７４號","E_COORD97":170981.64999999999,"N_COORD97":2541463.8199999998,"ADDRESS":"崇德十一街７４號","OBJECTID":538929},"geometry":{"x":170981.6500000013,"y":2541463.8200000022}},{"attributes":{"ID":538957,"DIS_CODE":0,"TOWNNAME":"東區","LI":"崇德里","LIN":"12鄰","STREET":"崇德十一街","SECT":" ","MAREA":" ","LANE":" ","ALLEY":" ","HOUSE_NO":"７６號","E_COORD97":170986.42999999999,"N_COORD97":2541465.0699999998,"ADDRESS":"崇德十一街７６號","OBJECTID":538930},"geometry":{"x":170986.4299999997,"y":2541465.0700000022}},{"attributes":{"ID":538958,"DIS_CODE":0,"TOWNNAME":"麻豆區","LI":"穀興里","LIN":"12鄰","STREET":"中山路","SECT":" ","MAREA":" ","LANE":" ","ALLEY":" ","HOUSE_NO":"７４號","E_COORD97":172835.23999999999,"N_COORD97":2564838.5800000001,"ADDRESS":"中山路７４號","OBJECTID":538931},"geometry":{"x":172835.24000000115,"y":2564838.5800000019}},{"attributes":{"ID":538959,"DIS_CODE":0,"TOWNNAME":"東區","LI":"龍山里","LIN":"12鄰","STREET":"東門路","SECT":"一段","MAREA":" ","LANE":" ","ALLEY":" ","HOUSE_NO":"３５４號","E_COORD97":169834.17999999999,"N_COORD97":2543017.0899999999,"ADDRESS":"東門路一段３５４號","OBJECTID":538932},"geometry":{"x":169834.18000000156,"y":2543017.0900000017}},{"attributes":{"ID":538960,"DIS_CODE":0,"TOWNNAME":"麻豆區","LI":"穀興里","LIN":"12鄰","STREET":"中山路","SECT":" ","MAREA":" ","LANE":" ","ALLEY":" ","HOUSE_NO":"４２號之１","E_COORD97":172905.14999999999,"N_COORD97":2564837.7400000002,"ADDRESS":"中山路４２號之１","OBJECTID":538933},"geometry":{"x":172905.1500000013,"y":2564837.7400000021}},{"attributes":{"ID":538961,"DIS_CODE":0,"TOWNNAME":"麻豆區","LI":"穀興里","LIN":"12鄰","STREET":"中山路","SECT":" ","MAREA":" ","LANE":" ","ALLEY":" ","HOUSE_NO":"４６號","E_COORD97":172901.32000000001,"N_COORD97":2564838.1699999999,"ADDRESS":"中山路４６號","OBJECTID":538934},"geometry":{"x":172901.3200000003,"y":2564838.1700000018}},{"attributes":{"ID":538962,"DIS_CODE":0,"TOWNNAME":"麻豆區","LI":"穀興里","LIN":"12鄰","STREET":"中山路","SECT":" ","MAREA":" ","LANE":" ","ALLEY":" ","HOUSE_NO":"４８號","E_COORD97":172897.26000000001,"N_COORD97":2564838.0299999998,"ADDRESS":"中山路４８號","OBJECTID":538935},"geometry":{"x":172897.26000000071,"y":2564838.0300000012}},{"attributes":{"ID":538963,"DIS_CODE":0,"TOWNNAME":"麻豆區","LI":"穀興里","LIN":"12鄰","STREET":"中山路","SECT":" ","MAREA":" ","LANE":" ","ALLEY":" ","HOUSE_NO":"５０號","E_COORD97":172893.01000000001,"N_COORD97":2564838.0299999998,"ADDRESS":"中山路５０號","OBJECTID":538936},"geometry":{"x":172893.00999999978,"y":2564838.0300000012}},{"attributes":{"ID":538964,"DIS_CODE":0,"TOWNNAME":"麻豆區","LI":"穀興里","LIN":"12鄰","STREET":"中山路","SECT":" ","MAREA":" ","LANE":" ","ALLEY":" ","HOUSE_NO":"５２號","E_COORD97":172888.62,"N_COORD97":2564838.2799999998,"ADDRESS":"中山路５２號","OBJECTID":538937},"geometry":{"x":172888.62000000104,"y":2564838.2799999993}},{"attributes":{"ID":538965,"DIS_CODE":0,"TOWNNAME":"麻豆區","LI":"穀興里","LIN":"12鄰","STREET":"中山路","SECT":" ","MAREA":" ","LANE":" ","ALLEY":" ","HOUSE_NO":"５４號","E_COORD97":172885.07000000001,"N_COORD97":2564838.0899999999,"ADDRESS":"中山路５４號","OBJECTID":538938},"geometry":{"x":172885.07000000216,"y":2564838.0900000017}},{"attributes":{"ID":538966,"DIS_CODE":0,"TOWNNAME":"麻豆區","LI":"穀興里","LIN":"12鄰","STREET":"中山路","SECT":" ","MAREA":" ","LANE":" ","ALLEY":" ","HOUSE_NO":"５６號","E_COORD97":172881.73999999999,"N_COORD97":2564838.2999999998,"ADDRESS":"中山路５６號","OBJECTID":538939},"geometry":{"x":172881.74000000022,"y":2564838.3000000007}},{"attributes":{"ID":538967,"DIS_CODE":0,"TOWNNAME":"麻豆區","LI":"穀興里","LIN":"12鄰","STREET":"中山路","SECT":" ","MAREA":" ","LANE":" ","ALLEY":" ","HOUSE_NO":"５８號","E_COORD97":172878.07000000001,"N_COORD97":2564838.27,"ADDRESS":"中山路５８號","OBJECTID":538940},"geometry":{"x":172878.0700000003,"y":2564838.2699999996}},{"attributes":{"ID":538968,"DIS_CODE":0,"TOWNNAME":"麻豆區","LI":"穀興里","LIN":"12鄰","STREET":"中山路","SECT":" ","MAREA":" ","LANE":" ","ALLEY":" ","HOUSE_NO":"６０號","E_COORD97":172874.17999999999,"N_COORD97":2564838.2999999998,"ADDRESS":"中山路６０號","OBJECTID":538941},"geometry":{"x":172874.18000000063,"y":2564838.3000000007}},{"attributes":{"ID":538969,"DIS_CODE":0,"TOWNNAME":"麻豆區","LI":"穀興里","LIN":"12鄰","STREET":"中山路","SECT":" ","MAREA":" ","LANE":" ","ALLEY":" ","HOUSE_NO":"６６號之１","E_COORD97":172859.54999999999,"N_COORD97":2564838.9199999999,"ADDRESS":"中山路６６號之１","OBJECTID":538942},"geometry":{"x":172859.55000000075,"y":2564838.9200000018}},{"attributes":{"ID":538970,"DIS_CODE":0,"TOWNNAME":"麻豆區","LI":"穀興里","LIN":"12鄰","STREET":"中山路","SECT":" ","MAREA":" ","LANE":" ","ALLEY":" ","HOUSE_NO":"６６號","E_COORD97":172862.95000000001,"N_COORD97":2564838.9199999999,"ADDRESS":"中山路６６號","OBJECTID":538943},"geometry":{"x":172862.95000000019,"y":2564838.9200000018}},{"attributes":{"ID":538971,"DIS_CODE":0,"TOWNNAME":"麻豆區","LI":"穀興里","LIN":"12鄰","STREET":"中山路","SECT":" ","MAREA":" ","LANE":" ","ALLEY":" ","HOUSE_NO":"６８號","E_COORD97":172852.59,"N_COORD97":2564838.5800000001,"ADDRESS":"中山路６８號","OBJECTID":538944},"geometry":{"x":172852.59000000078,"y":2564838.5800000019}},{"attributes":{"ID":538972,"DIS_CODE":0,"TOWNNAME":"麻豆區","LI":"穀興里","LIN":"12鄰","STREET":"中山路","SECT":" ","MAREA":" ","LANE":" ","ALLEY":" ","HOUSE_NO":"７０號","E_COORD97":172850.09,"N_COORD97":2564838.4700000002,"ADDRESS":"中山路７０號","OBJECTID":538945},"geometry":{"x":172850.08999999985,"y":2564838.4699999988}},{"attributes":{"ID":538973,"DIS_CODE":0,"TOWNNAME":"麻豆區","LI":"穀興里","LIN":"12鄰","STREET":"中山路","SECT":" ","MAREA":" ","LANE":" ","ALLEY":" ","HOUSE_NO":"７２號之１","E_COORD97":172846.28,"N_COORD97":2564838.6600000001,"ADDRESS":"中山路７２號之１","OBJECTID":538946},"geometry":{"x":172846.28000000212,"y":2564838.6600000001}},{"attributes":{"ID":538974,"DIS_CODE":0,"TOWNNAME":"麻豆區","LI":"穀興里","LIN":"12鄰","STREET":"中山路","SECT":" ","MAREA":" ","LANE":" ","ALLEY":" ","HOUSE_NO":"７２號之２","E_COORD97":172842.16,"N_COORD97":2564838.8700000001,"ADDRESS":"中山路７２號之２","OBJECTID":538947},"geometry":{"x":172842.16000000108,"y":2564838.870000001}},{"attributes":{"ID":538975,"DIS_CODE":0,"TOWNNAME":"麻豆區","LI":"穀興里","LIN":"12鄰","STREET":"中山路","SECT":" ","MAREA":" ","LANE":" ","ALLEY":" ","HOUSE_NO":"７２號之３","E_COORD97":172838.88,"N_COORD97":2564838.8199999998,"ADDRESS":"中山路７２號之３","OBJECTID":538948},"geometry":{"x":172838.88000000082,"y":2564838.8200000003}},{"attributes":{"ID":538976,"DIS_CODE":0,"TOWNNAME":"麻豆區","LI":"大埕里","LIN":"12鄰","STREET":"中正路","SECT":" ","MAREA":" ","LANE":" ","ALLEY":" ","HOUSE_NO":"５５號之２","E_COORD97":173119.07000000001,"N_COORD97":2565053.1299999999,"ADDRESS":"中正路５５號之２","OBJECTID":538949},"geometry":{"x":173119.07000000216,"y":2565053.1300000008}},{"attributes":{"ID":538977,"DIS_CODE":0,"TOWNNAME":"麻豆區","LI":"大埕里","LIN":"12鄰","STREET":"中正路","SECT":" ","MAREA":" ","LANE":" ","ALLEY":" ","HOUSE_NO":"５７號","E_COORD97":173123.67999999999,"N_COORD97":2565054.71,"ADDRESS":"中正路５７號","OBJECTID":538950},"geometry":{"x":173123.6799999997,"y":2565054.7100000028}},{"attributes":{"ID":538978,"DIS_CODE":0,"TOWNNAME":"麻豆區","LI":"大埕里","LIN":"12鄰","STREET":"中正路","SECT":" ","MAREA":" ","LANE":" ","ALLEY":" ","HOUSE_NO":"５９號之１","E_COORD97":173128.07000000001,"N_COORD97":2565063.0800000001,"ADDRESS":"中正路５９號之１","OBJECTID":538951},"geometry":{"x":173128.07000000123,"y":2565063.0800000001}},{"attributes":{"ID":538979,"DIS_CODE":0,"TOWNNAME":"麻豆區","LI":"大埕里","LIN":"12鄰","STREET":"中正路","SECT":" ","MAREA":" ","LANE":" ","ALLEY":" ","HOUSE_NO":"５９號之２","E_COORD97":173130.64000000001,"N_COORD97":2565066.8599999999,"ADDRESS":"中正路５９號之２","OBJECTID":538952},"geometry":{"x":173130.63999999966,"y":2565066.8600000013}},{"attributes":{"ID":538980,"DIS_CODE":0,"TOWNNAME":"麻豆區","LI":"大埕里","LIN":"12鄰","STREET":"中正路","SECT":" ","MAREA":" ","LANE":" ","ALLEY":" ","HOUSE_NO":"５９號之３","E_COORD97":173134.98999999999,"N_COORD97":2565072.0499999998,"ADDRESS":"中正路５９號之３","OBJECTID":538953},"geometry":{"x":173134.99000000115,"y":2565072.0500000045}},{"attributes":{"ID":538981,"DIS_CODE":0,"TOWNNAME":"麻豆區","LI":"大埕里","LIN":"12鄰","STREET":"中正路","SECT":" ","MAREA":" ","LANE":" ","ALLEY":" ","HOUSE_NO":"５９號","E_COORD97":173126.25,"N_COORD97":2565057.52,"ADDRESS":"中正路５９號","OBJECTID":538954},"geometry":{"x":173126.25000000093,"y":2565057.5200000033}},{"attributes":{"ID":538982,"DIS_CODE":0,"TOWNNAME":"麻豆區","LI":"大埕里","LIN":"12鄰","STREET":"中正路","SECT":" ","MAREA":" ","LANE":" ","ALLEY":" ","HOUSE_NO":"６１號","E_COORD97":173137.23000000001,"N_COORD97":2565074.4199999999,"ADDRESS":"中正路６１號","OBJECTID":538955},"geometry":{"x":173137.23000000138,"y":2565074.4199999999}},{"attributes":{"ID":538983,"DIS_CODE":0,"TOWNNAME":"麻豆區","LI":"大埕里","LIN":"12鄰","STREET":"中正路","SECT":" ","MAREA":" ","LANE":" ","ALLEY":" ","HOUSE_NO":"６３號","E_COORD97":173135.56,"N_COORD97":2565092.1899999999,"ADDRESS":"中正路６３號","OBJECTID":538956},"geometry":{"x":173135.56000000052,"y":2565092.1899999995}},{"attributes":{"ID":538984,"DIS_CODE":0,"TOWNNAME":"麻豆區","LI":"大埕里","LIN":"12鄰","STREET":"中正路","SECT":" ","MAREA":" ","LANE":" ","ALLEY":" ","HOUSE_NO":"６７號之１","E_COORD97":173104.62,"N_COORD97":2565130.3399999999,"ADDRESS":"中正路６７號之１","OBJECTID":538957},"geometry":{"x":173104.62000000011,"y":2565130.3400000036}},{"attributes":{"ID":538985,"DIS_CODE":0,"TOWNNAME":"麻豆區","LI":"大埕里","LIN":"12鄰","STREET":"中正路","SECT":" ","MAREA":" ","LANE":" ","ALLEY":" ","HOUSE_NO":"６７號","E_COORD97":173110.45999999999,"N_COORD97":2565121.54,"ADDRESS":"中正路６７號","OBJECTID":538958},"geometry":{"x":173110.45999999996,"y":2565121.5400000028}},{"attributes":{"ID":538986,"DIS_CODE":0,"TOWNNAME":"麻豆區","LI":"中興里","LIN":"12鄰","STREET":"仁愛路","SECT":" ","MAREA":" ","LANE":" ","ALLEY":" ","HOUSE_NO":"２１號之１０","E_COORD97":172755.82000000001,"N_COORD97":2564735.96,"ADDRESS":"仁愛路２１號之１０","OBJECTID":538959},"geometry":{"x":172755.8200000003,"y":2564735.9600000009}},{"attributes":{"ID":538987,"DIS_CODE":0,"TOWNNAME":"麻豆區","LI":"中興里","LIN":"12鄰","STREET":"仁愛路","SECT":" ","MAREA":" ","LANE":" ","ALLEY":" ","HOUSE_NO":"２１號之２","E_COORD97":172730.82000000001,"N_COORD97":2564737.79,"ADDRESS":"仁愛路２１號之２","OBJECTID":538960},"geometry":{"x":172730.82000000216,"y":2564737.790000001}},{"attributes":{"ID":538988,"DIS_CODE":0,"TOWNNAME":"麻豆區","LI":"中興里","LIN":"12鄰","STREET":"仁愛路","SECT":" ","MAREA":" ","LANE":" ","ALLEY":" ","HOUSE_NO":"２１號之３","E_COORD97":172767.22,"N_COORD97":2564736.4100000001,"ADDRESS":"仁愛路２１號之３","OBJECTID":538961},"geometry":{"x":172767.22000000067,"y":2564736.4100000001}},{"attributes":{"ID":538989,"DIS_CODE":0,"TOWNNAME":"麻豆區","LI":"中興里","LIN":"12鄰","STREET":"仁愛路","SECT":" ","MAREA":" ","LANE":" ","ALLEY":" ","HOUSE_NO":"２１號之６","E_COORD97":172744.67999999999,"N_COORD97":2564735.8100000001,"ADDRESS":"仁愛路２１號之６","OBJECTID":538962},"geometry":{"x":172744.68000000156,"y":2564735.8100000024}},{"attributes":{"ID":538990,"DIS_CODE":0,"TOWNNAME":"麻豆區","LI":"中興里","LIN":"12鄰","STREET":"仁愛路","SECT":" ","MAREA":" ","LANE":" ","ALLEY":" ","HOUSE_NO":"２１號之７","E_COORD97":172740.60000000001,"N_COORD97":2564735.7799999998,"ADDRESS":"仁愛路２１號之７","OBJECTID":538963},"geometry":{"x":172740.60000000056,"y":2564735.7799999993}},{"attributes":{"ID":538991,"DIS_CODE":0,"TOWNNAME":"麻豆區","LI":"中興里","LIN":"12鄰","STREET":"仁愛路","SECT":" ","MAREA":" ","LANE":" ","ALLEY":" ","HOUSE_NO":"２１號之８","E_COORD97":172749.64000000001,"N_COORD97":2564735.8599999999,"ADDRESS":"仁愛路２１號之８","OBJECTID":538964},"geometry":{"x":172749.63999999966,"y":2564735.8599999994}},{"attributes":{"ID":538992,"DIS_CODE":0,"TOWNNAME":"麻豆區","LI":"大埕里","LIN":"12鄰","STREET":"平等路","SECT":" ","MAREA":" ","LANE":" ","ALLEY":" ","HOUSE_NO":"１０號之１０","E_COORD97":173084.92000000001,"N_COORD97":2565136.48,"ADDRESS":"平等路１０號之１０","OBJECTID":538965},"geometry":{"x":173084.91999999993,"y":2565136.4799999986}},{"attributes":{"ID":538993,"DIS_CODE":0,"TOWNNAME":"麻豆區","LI":"大埕里","LIN":"12鄰","STREET":"平等路","SECT":" ","MAREA":" ","LANE":" ","ALLEY":" ","HOUSE_NO":"１０號之３","E_COORD97":173061.07999999999,"N_COORD97":2565126.4199999999,"ADDRESS":"平等路１０號之３","OBJECTID":538966},"geometry":{"x":173061.08000000194,"y":2565126.4200000037}},{"attributes":{"ID":538994,"DIS_CODE":0,"TOWNNAME":"麻豆區","LI":"大埕里","LIN":"12鄰","STREET":"平等路","SECT":" ","MAREA":" ","LANE":" ","ALLEY":" ","HOUSE_NO":"１０號之４","E_COORD97":173060.54000000001,"N_COORD97":2565131.48,"ADDRESS":"平等路１０號之４","OBJECTID":538967},"geometry":{"x":173060.54000000004,"y":2565131.4800000023}},{"attributes":{"ID":538995,"DIS_CODE":0,"TOWNNAME":"麻豆區","LI":"大埕里","LIN":"12鄰","STREET":"平等路","SECT":" ","MAREA":" ","LANE":" ","ALLEY":" ","HOUSE_NO":"１０號之５","E_COORD97":173060.69,"N_COORD97":2565136.1800000002,"ADDRESS":"平等路１０號之５","OBJECTID":538968},"geometry":{"x":173060.69000000227,"y":2565136.1800000016}},{"attributes":{"ID":538996,"DIS_CODE":0,"TOWNNAME":"麻豆區","LI":"大埕里","LIN":"12鄰","STREET":"平等路","SECT":" ","MAREA":" ","LANE":" ","ALLEY":" ","HOUSE_NO":"１０號之６","E_COORD97":173060.89999999999,"N_COORD97":2565141.1899999999,"ADDRESS":"平等路１０號之６","OBJECTID":538969},"geometry":{"x":173060.90000000224,"y":2565141.1900000032}},{"attributes":{"ID":538997,"DIS_CODE":0,"TOWNNAME":"麻豆區","LI":"大埕里","LIN":"12鄰","STREET":"平等路","SECT":" ","MAREA":" ","LANE":" ","ALLEY":" ","HOUSE_NO":"１０號之７","E_COORD97":173068.73000000001,"N_COORD97":2565144.6499999999,"ADDRESS":"平等路１０號之７","OBJECTID":538970},"geometry":{"x":173068.73000000045,"y":2565144.6500000004}},{"attributes":{"ID":538998,"DIS_CODE":0,"TOWNNAME":"麻豆區","LI":"大埕里","LIN":"12鄰","STREET":"平等路","SECT":" ","MAREA":" ","LANE":" ","ALLEY":" ","HOUSE_NO":"１０號之８","E_COORD97":173077.51000000001,"N_COORD97":2565139.8799999999,"ADDRESS":"平等路１０號之８","OBJECTID":538971},"geometry":{"x":173077.50999999978,"y":2565139.8800000008}},{"attributes":{"ID":538999,"DIS_CODE":0,"TOWNNAME":"麻豆區","LI":"大埕里","LIN":"12鄰","STREET":"平等路","SECT":" ","MAREA":" ","LANE":" ","ALLEY":" ","HOUSE_NO":"１０號之９","E_COORD97":173081.06,"N_COORD97":2565138.1000000001,"ADDRESS":"平等路１０號之９","OBJECTID":538972},"geometry":{"x":173081.06000000145,"y":2565138.0999999996}},{"attributes":{"ID":539000,"DIS_CODE":0,"TOWNNAME":"新市區","LI":"港墘里","LIN":"12鄰","STREET":"中山路","SECT":" ","MAREA":" ","LANE":" ","ALLEY":" ","HOUSE_NO":"１３８之１號","E_COORD97":178369.48000000001,"N_COORD97":2552732.0499999998,"ADDRESS":"中山路１３８之１號","OBJECTID":538973},"geometry":{"x":178369.48000000045,"y":2552732.0500000026}},{"attributes":{"ID":539001,"DIS_CODE":0,"TOWNNAME":"新市區","LI":"港墘里","LIN":"12鄰","STREET":"中山路","SECT":" ","MAREA":" ","LANE":" ","ALLEY":" ","HOUSE_NO":"１１０號","E_COORD97":178388.17999999999,"N_COORD97":2552780.5,"ADDRESS":"中山路１１０號","OBJECTID":538974},"geometry":{"x":178388.18000000063,"y":2552780.5}},{"attributes":{"ID":539002,"DIS_CODE":0,"TOWNNAME":"新市區","LI":"港墘里","LIN":"12鄰","STREET":"中山路","SECT":" ","MAREA":" ","LANE":" ","ALLEY":" ","HOUSE_NO":"１５０號","E_COORD97":178319.67999999999,"N_COORD97":2552648.5,"ADDRESS":"中山路１５０號","OBJECTID":538975},"geometry":{"x":178319.6799999997,"y":2552648.5}},{"attributes":{"ID":539003,"DIS_CODE":0,"TOWNNAME":"新市區","LI":"港墘里","LIN":"12鄰","STREET":"中山路","SECT":" ","MAREA":" ","LANE":" ","ALLEY":" ","HOUSE_NO":"１１４號","E_COORD97":178385.17999999999,"N_COORD97":2552772.5,"ADDRESS":"中山路１１４號","OBJECTID":538976},"geometry":{"x":178385.18000000063,"y":2552772.5000000019}},{"attributes":{"ID":539004,"DIS_CODE":0,"TOWNNAME":"新市區","LI":"新和里","LIN":"12鄰","STREET":"可口街","SECT":" ","MAREA":" ","LANE":" ","ALLEY":" ","HOUSE_NO":"１８號","E_COORD97":177585.03,"N_COORD97":2552400.25,"ADDRESS":"可口街１８號","OBJECTID":538977},"geometry":{"x":177585.03000000119,"y":2552400.2500000037}},{"attributes":{"ID":539005,"DIS_CODE":0,"TOWNNAME":"新市區","LI":"新和里","LIN":"12鄰","STREET":"可口街","SECT":" ","MAREA":" ","LANE":" ","ALLEY":" ","HOUSE_NO":"１４號","E_COORD97":177580.98000000001,"N_COORD97":2552393,"ADDRESS":"可口街１４號","OBJECTID":538978},"geometry":{"x":177580.98000000045,"y":2552393.0000000019}},{"attributes":{"ID":539006,"DIS_CODE":0,"TOWNNAME":"新市區","LI":"新和里","LIN":"12鄰","STREET":"可口街","SECT":" ","MAREA":" ","LANE":" ","ALLEY":" ","HOUSE_NO":"３４號","E_COORD97":177596.76000000001,"N_COORD97":2552432.25,"ADDRESS":"可口街３４號","OBJECTID":538979},"geometry":{"x":177596.75999999978,"y":2552432.2500000019}},{"attributes":{"ID":539007,"DIS_CODE":0,"TOWNNAME":"中西區","LI":"建國里","LIN":"12鄰","STREET":"民生路","SECT":"一段","MAREA":" ","LANE":" ","ALLEY":" ","HOUSE_NO":"１５９號","E_COORD97":168048.89999999999,"N_COORD97":2543825.0800000001,"ADDRESS":"民生路一段１５９號","OBJECTID":538980},"geometry":{"x":168048.9000000013,"y":2543825.0800000019}},{"attributes":{"ID":539008,"DIS_CODE":0,"TOWNNAME":"中西區","LI":"建國里","LIN":"12鄰","STREET":"民生路","SECT":"一段","MAREA":" ","LANE":" ","ALLEY":" ","HOUSE_NO":"１６１號","E_COORD97":168043.82999999999,"N_COORD97":2543826.5600000001,"ADDRESS":"民生路一段１６１號","OBJECTID":538981},"geometry":{"x":168043.83000000101,"y":2543826.5600000005}},{"attributes":{"ID":539009,"DIS_CODE":0,"TOWNNAME":"中西區","LI":"建國里","LIN":"12鄰","STREET":"民生路","SECT":"一段","MAREA":" ","LANE":" ","ALLEY":" ","HOUSE_NO":"１６３號","E_COORD97":168040.85000000001,"N_COORD97":2543827.8999999999,"ADDRESS":"民生路一段１６３號","OBJECTID":538982},"geometry":{"x":168040.84999999963,"y":2543827.9000000004}},{"attributes":{"ID":539010,"DIS_CODE":0,"TOWNNAME":"中西區","LI":"郡王里","LIN":"12鄰","STREET":"南門路","SECT":" ","MAREA":" ","LANE":" ","ALLEY":" ","HOUSE_NO":"１２１號","E_COORD97":168443.82000000001,"N_COORD97":2543064.3900000001,"ADDRESS":"南門路１２１號","OBJECTID":538983},"geometry":{"x":168443.82000000216,"y":2543064.3900000025}},{"attributes":{"ID":539011,"DIS_CODE":0,"TOWNNAME":"中西區","LI":"永華里","LIN":"12鄰","STREET":"開山路","SECT":" ","MAREA":" ","LANE":" ","ALLEY":" ","HOUSE_NO":"１０４號","E_COORD97":168705.44,"N_COORD97":2543351.2799999998,"ADDRESS":"開山路１０４號","OBJECTID":538984},"geometry":{"x":168705.44000000041,"y":2543351.2800000012}},{"attributes":{"ID":539012,"DIS_CODE":0,"TOWNNAME":"中西區","LI":"永華里","LIN":"12鄰","STREET":"開山路","SECT":" ","MAREA":" ","LANE":" ","ALLEY":" ","HOUSE_NO":"１０６號","E_COORD97":168699.03,"N_COORD97":2543347.98,"ADDRESS":"開山路１０６號","OBJECTID":538985},"geometry":{"x":168699.03000000119,"y":2543347.9800000023}},{"attributes":{"ID":539013,"DIS_CODE":0,"TOWNNAME":"中西區","LI":"永華里","LIN":"12鄰","STREET":"開山路","SECT":" ","MAREA":" ","LANE":" ","ALLEY":" ","HOUSE_NO":"１０８號","E_COORD97":168695.59,"N_COORD97":2543347.25,"ADDRESS":"開山路１０８號","OBJECTID":538986},"geometry":{"x":168695.58999999892,"y":2543347.25}},{"attributes":{"ID":539014,"DIS_CODE":0,"TOWNNAME":"中西區","LI":"永華里","LIN":"12鄰","STREET":"開山路","SECT":" ","MAREA":" ","LANE":" ","ALLEY":" ","HOUSE_NO":"１１０號","E_COORD97":168709.01000000001,"N_COORD97":2543346.7400000002,"ADDRESS":"開山路１１０號","OBJECTID":538987},"geometry":{"x":168709.00999999978,"y":2543346.7400000002}},{"attributes":{"ID":539015,"DIS_CODE":0,"TOWNNAME":"中西區","LI":"永華里","LIN":"12鄰","STREET":"開山路","SECT":" ","MAREA":" ","LANE":" ","ALLEY":" ","HOUSE_NO":"１１２號","E_COORD97":168712.35999999999,"N_COORD97":2543342.73,"ADDRESS":"開山路１１２號","OBJECTID":538988},"geometry":{"x":168712.36000000034,"y":2543342.7300000023}},{"attributes":{"ID":539016,"DIS_CODE":0,"TOWNNAME":"中西區","LI":"永華里","LIN":"12鄰","STREET":"開山路","SECT":" ","MAREA":" ","LANE":" ","ALLEY":" ","HOUSE_NO":"１１６號","E_COORD97":168716.59,"N_COORD97":2543336.3500000001,"ADDRESS":"開山路１１６號","OBJECTID":538989},"geometry":{"x":168716.59000000078,"y":2543336.3499999996}},{"attributes":{"ID":539017,"DIS_CODE":0,"TOWNNAME":"中西區","LI":"永華里","LIN":"12鄰","STREET":"開山路","SECT":" ","MAREA":" ","LANE":" ","ALLEY":" ","HOUSE_NO":"８６號","E_COORD97":168680.48999999999,"N_COORD97":2543382.5800000001,"ADDRESS":"開山路８６號","OBJECTID":538990},"geometry":{"x":168680.49000000115,"y":2543382.5800000001}},{"attributes":{"ID":539018,"DIS_CODE":0,"TOWNNAME":"中西區","LI":"永華里","LIN":"12鄰","STREET":"開山路","SECT":" ","MAREA":" ","LANE":" ","ALLEY":" ","HOUSE_NO":"９０號","E_COORD97":168685.54000000001,"N_COORD97":2543376.6400000001,"ADDRESS":"開山路９０號","OBJECTID":538991},"geometry":{"x":168685.54000000004,"y":2543376.6400000025}},{"attributes":{"ID":539019,"DIS_CODE":0,"TOWNNAME":"中西區","LI":"永華里","LIN":"12鄰","STREET":"開山路","SECT":" ","MAREA":" ","LANE":" ","ALLEY":" ","HOUSE_NO":"９２號","E_COORD97":168692.22,"N_COORD97":2543371.1000000001,"ADDRESS":"開山路９２號","OBJECTID":538992},"geometry":{"x":168692.21999999974,"y":2543371.0999999996}},{"attributes":{"ID":539020,"DIS_CODE":0,"TOWNNAME":"中西區","LI":"永華里","LIN":"12鄰","STREET":"開山路","SECT":" ","MAREA":" ","LANE":" ","ALLEY":" ","HOUSE_NO":"９４號","E_COORD97":168693.85999999999,"N_COORD97":2543368.2799999998,"ADDRESS":"開山路９４號","OBJECTID":538993},"geometry":{"x":168693.86000000034,"y":2543368.2800000012}},{"attributes":{"ID":539021,"DIS_CODE":0,"TOWNNAME":"中西區","LI":"永華里","LIN":"12鄰","STREET":"開山路","SECT":" ","MAREA":" ","LANE":" ","ALLEY":" ","HOUSE_NO":"９６號","E_COORD97":168695.34,"N_COORD97":2543364.8700000001,"ADDRESS":"開山路９６號","OBJECTID":538994},"geometry":{"x":168695.33999999985,"y":2543364.8699999992}},{"attributes":{"ID":539022,"DIS_CODE":0,"TOWNNAME":"中西區","LI":"永華里","LIN":"12鄰","STREET":"開山路","SECT":" ","MAREA":" ","LANE":" ","ALLEY":" ","HOUSE_NO":"９８號","E_COORD97":168698.16,"N_COORD97":2543360.5499999998,"ADDRESS":"開山路９８號","OBJECTID":538995},"geometry":{"x":168698.16000000015,"y":2543360.5500000026}},{"attributes":{"ID":539023,"DIS_CODE":0,"TOWNNAME":"仁德區","LI":"成功里","LIN":"12鄰","STREET":"成功二街","SECT":" ","MAREA":" ","LANE":" ","ALLEY":" ","HOUSE_NO":"４８號","E_COORD97":170898.85000000001,"N_COORD97":2539873.0099999998,"ADDRESS":"成功二街４８號","OBJECTID":538996},"geometry":{"x":170898.84999999963,"y":2539873.0099999998}},{"attributes":{"ID":539024,"DIS_CODE":0,"TOWNNAME":"仁德區","LI":"成功里","LIN":"12鄰","STREET":"成功二街","SECT":" ","MAREA":" ","LANE":" ","ALLEY":" ","HOUSE_NO":"４號","E_COORD97":170904.64999999999,"N_COORD97":2540006.52,"ADDRESS":"成功二街４號","OBJECTID":538997},"geometry":{"x":170904.65000000224,"y":2540006.5200000014}},{"attributes":{"ID":539025,"DIS_CODE":0,"TOWNNAME":"仁德區","LI":"田厝里","LIN":"12鄰","STREET":"田厝二街","SECT":" ","MAREA":" ","LANE":" ","ALLEY":" ","HOUSE_NO":"１２０號","E_COORD97":172253.10999999999,"N_COORD97":2537716.75,"ADDRESS":"田厝二街１２０號","OBJECTID":538998},"geometry":{"x":172253.11000000127,"y":2537716.7500000019}},{"attributes":{"ID":539026,"DIS_CODE":0,"TOWNNAME":"仁德區","LI":"保安里","LIN":"12鄰","STREET":"開發五路","SECT":" ","MAREA":" ","LANE":" ","ALLEY":" ","HOUSE_NO":"１２號","E_COORD97":172948.47,"N_COORD97":2535785.52,"ADDRESS":"開發五路１２號","OBJECTID":538999},"geometry":{"x":172948.47000000067,"y":2535785.5200000014}},{"attributes":{"ID":539027,"DIS_CODE":0,"TOWNNAME":"仁德區","LI":"田厝里","LIN":"12鄰","STREET":"田厝二街","SECT":" ","MAREA":" ","LANE":" ","ALLEY":" ","HOUSE_NO":"１１０號","E_COORD97":172274.98999999999,"N_COORD97":2537715.25,"ADDRESS":"田厝二街１１０號","OBJECTID":539000},"geometry":{"x":172274.99000000022,"y":2537715.25}}]}