{"displayFieldName":"TOWNNAME","fieldAliases":{"ID":"ID","DIS_CODE":"DIS_CODE","TOWNNAME":"TOWNNAME","LI":"LI","LIN":"LIN","STREET":"STREET","SECT":"SECT","MAREA":"MAREA","LANE":"LANE","ALLEY":"ALLEY","HOUSE_NO":"HOUSE_NO","E_COORD97":"E_COORD97","N_COORD97":"N_COORD97","ADDRESS":"ADDRESS","OBJECTID":"OBJECTID"},"geometryType":"esriGeometryPoint","spatialReference":{"wkid":102443,"latestWkid":3826},"fields":[{"name":"ID","type":"esriFieldTypeDouble","alias":"ID"},{"name":"DIS_CODE","type":"esriFieldTypeInteger","alias":"DIS_CODE"},{"name":"TOWNNAME","type":"esriFieldTypeString","alias":"TOWNNAME","length":8},{"name":"LI","type":"esriFieldTypeString","alias":"LI","length":8},{"name":"LIN","type":"esriFieldTypeString","alias":"LIN","length":12},{"name":"STREET","type":"esriFieldTypeString","alias":"STREET","length":20},{"name":"SECT","type":"esriFieldTypeString","alias":"SECT","length":8},{"name":"MAREA","type":"esriFieldTypeString","alias":"MAREA","length":12},{"name":"LANE","type":"esriFieldTypeString","alias":"LANE","length":10},{"name":"ALLEY","type":"esriFieldTypeString","alias":"ALLEY","length":10},{"name":"HOUSE_NO","type":"esriFieldTypeString","alias":"HOUSE_NO","length":20},{"name":"E_COORD97","type":"esriFieldTypeDouble","alias":"E_COORD97"},{"name":"N_COORD97","type":"esriFieldTypeDouble","alias":"N_COORD97"},{"name":"ADDRESS","type":"esriFieldTypeString","alias":"ADDRESS","length":50},{"name":"OBJECTID","type":"esriFieldTypeOID","alias":"OBJECTID"}],"features":[{"attributes":{"ID":18201,"DIS_CODE":0,"TOWNNAME":"東山區","LI":"東中里","LIN":"14鄰","STREET":" ","SECT":" ","MAREA":"北馬","LANE":" ","ALLEY":" ","HOUSE_NO":"９號之１４","E_COORD97":188619.10999999999,"N_COORD97":2578810.9900000002,"ADDRESS":"北馬９號之１４","OBJECTID":18201},"geometry":{"x":188619.11000000034,"y":2578810.9900000021}},{"attributes":{"ID":18202,"DIS_CODE":0,"TOWNNAME":"東山區","LI":"東中里","LIN":"14鄰","STREET":" ","SECT":" ","MAREA":"北馬","LANE":" ","ALLEY":" ","HOUSE_NO":"９號之１５","E_COORD97":188582.57000000001,"N_COORD97":2578618.3599999999,"ADDRESS":"北馬９號之１５","OBJECTID":18202},"geometry":{"x":188582.57000000216,"y":2578618.3599999994}},{"attributes":{"ID":18203,"DIS_CODE":0,"TOWNNAME":"東山區","LI":"東中里","LIN":"14鄰","STREET":" ","SECT":" ","MAREA":"北馬","LANE":" ","ALLEY":" ","HOUSE_NO":"９號之１６","E_COORD97":188560.44,"N_COORD97":2578610.1800000002,"ADDRESS":"北馬９號之１６","OBJECTID":18203},"geometry":{"x":188560.44000000134,"y":2578610.1799999997}},{"attributes":{"ID":18204,"DIS_CODE":0,"TOWNNAME":"東山區","LI":"東中里","LIN":"14鄰","STREET":" ","SECT":" ","MAREA":"北馬","LANE":" ","ALLEY":" ","HOUSE_NO":"９號之１７","E_COORD97":188474.73999999999,"N_COORD97":2578566.7599999998,"ADDRESS":"北馬９號之１７","OBJECTID":18204},"geometry":{"x":188474.74000000115,"y":2578566.7600000035}},{"attributes":{"ID":18205,"DIS_CODE":0,"TOWNNAME":"東山區","LI":"東中里","LIN":"14鄰","STREET":" ","SECT":" ","MAREA":"北馬","LANE":" ","ALLEY":" ","HOUSE_NO":"９號之２０","E_COORD97":188137.73000000001,"N_COORD97":2579139.48,"ADDRESS":"北馬９號之２０","OBJECTID":18205},"geometry":{"x":188137.73000000138,"y":2579139.4800000023}},{"attributes":{"ID":18206,"DIS_CODE":0,"TOWNNAME":"東山區","LI":"東中里","LIN":"14鄰","STREET":" ","SECT":" ","MAREA":"北馬","LANE":" ","ALLEY":" ","HOUSE_NO":"９號之２１","E_COORD97":188577.47,"N_COORD97":2578559.7999999998,"ADDRESS":"北馬９號之２１","OBJECTID":18206},"geometry":{"x":188577.46999999881,"y":2578559.8000000007}},{"attributes":{"ID":18207,"DIS_CODE":0,"TOWNNAME":"東山區","LI":"東中里","LIN":"14鄰","STREET":" ","SECT":" ","MAREA":"北馬","LANE":" ","ALLEY":" ","HOUSE_NO":"９號之２","E_COORD97":188588.17999999999,"N_COORD97":2578560.9199999999,"ADDRESS":"北馬９號之２","OBJECTID":18207},"geometry":{"x":188588.18000000063,"y":2578560.9199999999}},{"attributes":{"ID":18208,"DIS_CODE":0,"TOWNNAME":"東山區","LI":"東中里","LIN":"14鄰","STREET":" ","SECT":" ","MAREA":"北馬","LANE":" ","ALLEY":" ","HOUSE_NO":"９號之５","E_COORD97":188664.76000000001,"N_COORD97":2578985.5800000001,"ADDRESS":"北馬９號之５","OBJECTID":18208},"geometry":{"x":188664.75999999978,"y":2578985.5800000038}},{"attributes":{"ID":18209,"DIS_CODE":0,"TOWNNAME":"東山區","LI":"東中里","LIN":"14鄰","STREET":" ","SECT":" ","MAREA":"北馬","LANE":" ","ALLEY":" ","HOUSE_NO":"９號之７","E_COORD97":188578.91,"N_COORD97":2578577.4300000002,"ADDRESS":"北馬９號之７","OBJECTID":18209},"geometry":{"x":188578.91000000108,"y":2578577.4300000016}},{"attributes":{"ID":18210,"DIS_CODE":0,"TOWNNAME":"東山區","LI":"東中里","LIN":"14鄰","STREET":" ","SECT":" ","MAREA":"北馬","LANE":" ","ALLEY":" ","HOUSE_NO":"９號之８","E_COORD97":188617.67000000001,"N_COORD97":2578751.4700000002,"ADDRESS":"北馬９號之８","OBJECTID":18210},"geometry":{"x":188617.67000000086,"y":2578751.4700000007}},{"attributes":{"ID":18211,"DIS_CODE":0,"TOWNNAME":"東山區","LI":"東中里","LIN":"14鄰","STREET":" ","SECT":" ","MAREA":"北馬","LANE":" ","ALLEY":" ","HOUSE_NO":"９號之９","E_COORD97":188539.20999999999,"N_COORD97":2578611.3500000001,"ADDRESS":"北馬９號之９","OBJECTID":18211},"geometry":{"x":188539.21000000089,"y":2578611.3500000015}},{"attributes":{"ID":18212,"DIS_CODE":0,"TOWNNAME":"東山區","LI":"東中里","LIN":"14鄰","STREET":" ","SECT":" ","MAREA":"北馬","LANE":" ","ALLEY":" ","HOUSE_NO":"９號","E_COORD97":188597.14000000001,"N_COORD97":2578585.3999999999,"ADDRESS":"北馬９號","OBJECTID":18212},"geometry":{"x":188597.1400000006,"y":2578585.4000000004}},{"attributes":{"ID":18213,"DIS_CODE":0,"TOWNNAME":"東山區","LI":"聖賢里","LIN":"14鄰","STREET":" ","SECT":" ","MAREA":"田尾","LANE":" ","ALLEY":" ","HOUSE_NO":"４２號","E_COORD97":184601.82999999999,"N_COORD97":2578406.7599999998,"ADDRESS":"田尾４２號","OBJECTID":18213},"geometry":{"x":184601.82999999914,"y":2578406.7599999998}},{"attributes":{"ID":18214,"DIS_CODE":0,"TOWNNAME":"東山區","LI":"聖賢里","LIN":"14鄰","STREET":" ","SECT":" ","MAREA":"田尾","LANE":" ","ALLEY":" ","HOUSE_NO":"４３號","E_COORD97":184618.48999999999,"N_COORD97":2578405.8199999998,"ADDRESS":"田尾４３號","OBJECTID":18214},"geometry":{"x":184618.49000000115,"y":2578405.8200000022}},{"attributes":{"ID":18215,"DIS_CODE":0,"TOWNNAME":"東山區","LI":"聖賢里","LIN":"14鄰","STREET":" ","SECT":" ","MAREA":"田尾","LANE":" ","ALLEY":" ","HOUSE_NO":"４４號之１","E_COORD97":184628.20000000001,"N_COORD97":2578390.6699999999,"ADDRESS":"田尾４４號之１","OBJECTID":18215},"geometry":{"x":184628.20000000019,"y":2578390.6699999999}},{"attributes":{"ID":18216,"DIS_CODE":0,"TOWNNAME":"永康區","LI":"永康里","LIN":"24鄰","STREET":"永正路","SECT":" ","MAREA":" ","LANE":" ","ALLEY":" ","HOUSE_NO":"４５號四樓之５","E_COORD97":173556.07999999999,"N_COORD97":2547363.5499999998,"ADDRESS":"永正路４５號四樓之５","OBJECTID":18216},"geometry":{"x":173556.08000000194,"y":2547363.5500000007}},{"attributes":{"ID":18217,"DIS_CODE":0,"TOWNNAME":"東山區","LI":"聖賢里","LIN":"14鄰","STREET":" ","SECT":" ","MAREA":"田尾","LANE":" ","ALLEY":" ","HOUSE_NO":"４４號","E_COORD97":184648.57000000001,"N_COORD97":2578369.8700000001,"ADDRESS":"田尾４４號","OBJECTID":18217},"geometry":{"x":184648.57000000123,"y":2578369.870000001}},{"attributes":{"ID":18218,"DIS_CODE":0,"TOWNNAME":"永康區","LI":"埔園里","LIN":"34鄰","STREET":"永大路","SECT":"三段","MAREA":" ","LANE":"６２２巷","ALLEY":"７０弄","HOUSE_NO":"７號","E_COORD97":174065.92999999999,"N_COORD97":2548907.9100000001,"ADDRESS":"永大路三段６２２巷７０弄７號","OBJECTID":18218},"geometry":{"x":174065.93000000063,"y":2548907.910000002}},{"attributes":{"ID":18219,"DIS_CODE":0,"TOWNNAME":"六甲區","LI":"中社里","LIN":"8鄰","STREET":" ","SECT":" ","MAREA":"中社","LANE":" ","ALLEY":" ","HOUSE_NO":"３１４號","E_COORD97":180896.95999999999,"N_COORD97":2570860.6400000001,"ADDRESS":"中社３１４號","OBJECTID":18219},"geometry":{"x":180896.96000000183,"y":2570860.6400000006}},{"attributes":{"ID":18220,"DIS_CODE":0,"TOWNNAME":"東山區","LI":"聖賢里","LIN":"14鄰","STREET":" ","SECT":" ","MAREA":"田尾","LANE":" ","ALLEY":" ","HOUSE_NO":"４５號之１","E_COORD97":184666.92999999999,"N_COORD97":2578410.5299999998,"ADDRESS":"田尾４５號之１","OBJECTID":18220},"geometry":{"x":184666.93000000156,"y":2578410.5299999993}},{"attributes":{"ID":18221,"DIS_CODE":0,"TOWNNAME":"東山區","LI":"聖賢里","LIN":"14鄰","STREET":" ","SECT":" ","MAREA":"田尾","LANE":" ","ALLEY":" ","HOUSE_NO":"４５號之２","E_COORD97":184641.75,"N_COORD97":2578416.6600000001,"ADDRESS":"田尾４５號之２","OBJECTID":18221},"geometry":{"x":184641.75000000093,"y":2578416.660000002}},{"attributes":{"ID":18222,"DIS_CODE":0,"TOWNNAME":"東山區","LI":"聖賢里","LIN":"14鄰","STREET":" ","SECT":" ","MAREA":"田尾","LANE":" ","ALLEY":" ","HOUSE_NO":"４５號之３","E_COORD97":184695.07999999999,"N_COORD97":2578428.6600000001,"ADDRESS":"田尾４５號之３","OBJECTID":18222},"geometry":{"x":184695.07999999914,"y":2578428.6599999983}},{"attributes":{"ID":18223,"DIS_CODE":0,"TOWNNAME":"東山區","LI":"聖賢里","LIN":"14鄰","STREET":" ","SECT":" ","MAREA":"田尾","LANE":" ","ALLEY":" ","HOUSE_NO":"４６號之２","E_COORD97":184669.82000000001,"N_COORD97":2578382.3999999999,"ADDRESS":"田尾４６號之２","OBJECTID":18223},"geometry":{"x":184669.8200000003,"y":2578382.4000000004}},{"attributes":{"ID":18224,"DIS_CODE":0,"TOWNNAME":"東山區","LI":"聖賢里","LIN":"14鄰","STREET":" ","SECT":" ","MAREA":"田尾","LANE":" ","ALLEY":" ","HOUSE_NO":"４７號","E_COORD97":184710.92999999999,"N_COORD97":2578383.8199999998,"ADDRESS":"田尾４７號","OBJECTID":18224},"geometry":{"x":184710.92999999877,"y":2578383.820000004}},{"attributes":{"ID":18225,"DIS_CODE":0,"TOWNNAME":"東山區","LI":"聖賢里","LIN":"14鄰","STREET":" ","SECT":" ","MAREA":"田尾","LANE":" ","ALLEY":" ","HOUSE_NO":"４８號","E_COORD97":184730.79999999999,"N_COORD97":2578372.5899999999,"ADDRESS":"田尾４８號","OBJECTID":18225},"geometry":{"x":184730.80000000168,"y":2578372.5900000017}},{"attributes":{"ID":18226,"DIS_CODE":0,"TOWNNAME":"東山區","LI":"聖賢里","LIN":"14鄰","STREET":" ","SECT":" ","MAREA":"田尾","LANE":" ","ALLEY":" ","HOUSE_NO":"４９號之１","E_COORD97":184753.73999999999,"N_COORD97":2578354.5299999998,"ADDRESS":"田尾４９號之１","OBJECTID":18226},"geometry":{"x":184753.74000000115,"y":2578354.5300000031}},{"attributes":{"ID":18227,"DIS_CODE":0,"TOWNNAME":"永康區","LI":"埔園里","LIN":"34鄰","STREET":"永大路","SECT":"三段","MAREA":" ","LANE":"６２２巷","ALLEY":"９２弄","HOUSE_NO":"１６號","E_COORD97":174083.57000000001,"N_COORD97":2548891.3199999998,"ADDRESS":"永大路三段６２２巷９２弄１６號","OBJECTID":18227},"geometry":{"x":174083.57000000216,"y":2548891.3200000022}},{"attributes":{"ID":18228,"DIS_CODE":0,"TOWNNAME":"永康區","LI":"埔園里","LIN":"34鄰","STREET":"永大路","SECT":"三段","MAREA":" ","LANE":"６２２巷","ALLEY":"７０弄","HOUSE_NO":"３１號","E_COORD97":174083.29999999999,"N_COORD97":2548859.3199999998,"ADDRESS":"永大路三段６２２巷７０弄３１號","OBJECTID":18228},"geometry":{"x":174083.30000000168,"y":2548859.3200000003}},{"attributes":{"ID":18229,"DIS_CODE":0,"TOWNNAME":"永康區","LI":"埔園里","LIN":"34鄰","STREET":"永大路","SECT":"三段","MAREA":" ","LANE":"６２２巷","ALLEY":"９２弄","HOUSE_NO":"６號","E_COORD97":174080.16,"N_COORD97":2548910.8199999998,"ADDRESS":"永大路三段６２２巷９２弄６號","OBJECTID":18229},"geometry":{"x":174080.16000000108,"y":2548910.8200000003}},{"attributes":{"ID":18230,"DIS_CODE":0,"TOWNNAME":"永康區","LI":"埔園里","LIN":"34鄰","STREET":"永大路","SECT":"三段","MAREA":" ","LANE":"６２２巷","ALLEY":"９２弄","HOUSE_NO":"１０號","E_COORD97":174084.20999999999,"N_COORD97":2548899.8199999998,"ADDRESS":"永大路三段６２２巷９２弄１０號","OBJECTID":18230},"geometry":{"x":174084.21000000089,"y":2548899.8200000003}},{"attributes":{"ID":18231,"DIS_CODE":0,"TOWNNAME":"仁德區","LI":"新田里","LIN":"4鄰","STREET":"勝利路","SECT":" ","MAREA":" ","LANE":"１３２巷","ALLEY":"１２弄","HOUSE_NO":"１０號","E_COORD97":174288.26306500001,"N_COORD97":2539442.4964100001,"ADDRESS":"勝利路１３２巷１２弄１０號","OBJECTID":18231},"geometry":{"x":174288.263065001,"y":2539442.4964140039}},{"attributes":{"ID":18232,"DIS_CODE":0,"TOWNNAME":"西港區","LI":"慶安里","LIN":"34鄰","STREET":"中山路","SECT":" ","MAREA":" ","LANE":"１１７巷","ALLEY":"７弄","HOUSE_NO":"１１號","E_COORD97":168408.82999999999,"N_COORD97":2557437.1800000002,"ADDRESS":"中山路１１７巷７弄１１號","OBJECTID":18232},"geometry":{"x":168408.83000000007,"y":2557437.1799999997}},{"attributes":{"ID":18233,"DIS_CODE":0,"TOWNNAME":"西港區","LI":"慶安里","LIN":"34鄰","STREET":"中山路","SECT":" ","MAREA":" ","LANE":"１１７巷","ALLEY":"７弄","HOUSE_NO":"１３號","E_COORD97":168410.28,"N_COORD97":2557433.21,"ADDRESS":"中山路１１７巷７弄１３號","OBJECTID":18233},"geometry":{"x":168410.28000000119,"y":2557433.2100000028}},{"attributes":{"ID":18234,"DIS_CODE":0,"TOWNNAME":"西港區","LI":"慶安里","LIN":"34鄰","STREET":"中山路","SECT":" ","MAREA":" ","LANE":"１１７巷","ALLEY":"７弄","HOUSE_NO":"１５號","E_COORD97":168410.94,"N_COORD97":2557429.1000000001,"ADDRESS":"中山路１１７巷７弄１５號","OBJECTID":18234},"geometry":{"x":168410.94000000134,"y":2557429.1000000015}},{"attributes":{"ID":18235,"DIS_CODE":0,"TOWNNAME":"西港區","LI":"慶安里","LIN":"34鄰","STREET":"中山路","SECT":" ","MAREA":" ","LANE":"１１７巷","ALLEY":"７弄","HOUSE_NO":"１７號","E_COORD97":168411.64999999999,"N_COORD97":2557424.7799999998,"ADDRESS":"中山路１１７巷７弄１７號","OBJECTID":18235},"geometry":{"x":168411.6500000013,"y":2557424.7800000012}},{"attributes":{"ID":18236,"DIS_CODE":0,"TOWNNAME":"西港區","LI":"慶安里","LIN":"34鄰","STREET":"中山路","SECT":" ","MAREA":" ","LANE":"１１７巷","ALLEY":"７弄","HOUSE_NO":"１９號","E_COORD97":168412.5,"N_COORD97":2557421.2599999998,"ADDRESS":"中山路１１７巷７弄１９號","OBJECTID":18236},"geometry":{"x":168412.5,"y":2557421.2600000035}},{"attributes":{"ID":18237,"DIS_CODE":0,"TOWNNAME":"西港區","LI":"慶安里","LIN":"34鄰","STREET":"中山路","SECT":" ","MAREA":" ","LANE":"１１７巷","ALLEY":"７弄","HOUSE_NO":"１號","E_COORD97":168405.17000000001,"N_COORD97":2557458.1699999999,"ADDRESS":"中山路１１７巷７弄１號","OBJECTID":18237},"geometry":{"x":168405.16999999993,"y":2557458.1699999999}},{"attributes":{"ID":18238,"DIS_CODE":0,"TOWNNAME":"西港區","LI":"慶安里","LIN":"34鄰","STREET":"中山路","SECT":" ","MAREA":" ","LANE":"１１７巷","ALLEY":"７弄","HOUSE_NO":"２１號","E_COORD97":168413.64000000001,"N_COORD97":2557417.0899999999,"ADDRESS":"中山路１１７巷７弄２１號","OBJECTID":18238},"geometry":{"x":168413.63999999873,"y":2557417.0900000017}},{"attributes":{"ID":18239,"DIS_CODE":0,"TOWNNAME":"西港區","LI":"慶安里","LIN":"34鄰","STREET":"中山路","SECT":" ","MAREA":" ","LANE":"１１７巷","ALLEY":"７弄","HOUSE_NO":"２３號","E_COORD97":168414.67000000001,"N_COORD97":2557413.2200000002,"ADDRESS":"中山路１１７巷７弄２３號","OBJECTID":18239},"geometry":{"x":168414.66999999993,"y":2557413.2200000025}},{"attributes":{"ID":18240,"DIS_CODE":0,"TOWNNAME":"西港區","LI":"慶安里","LIN":"34鄰","STREET":"中山路","SECT":" ","MAREA":" ","LANE":"１１７巷","ALLEY":"７弄","HOUSE_NO":"３號","E_COORD97":168405.64999999999,"N_COORD97":2557453.77,"ADDRESS":"中山路１１７巷７弄３號","OBJECTID":18240},"geometry":{"x":168405.65000000037,"y":2557453.7699999996}},{"attributes":{"ID":18241,"DIS_CODE":0,"TOWNNAME":"西港區","LI":"慶安里","LIN":"34鄰","STREET":"中山路","SECT":" ","MAREA":" ","LANE":"１１７巷","ALLEY":"７弄","HOUSE_NO":"５０號","E_COORD97":168352.34,"N_COORD97":2557321.8700000001,"ADDRESS":"中山路１１７巷７弄５０號","OBJECTID":18241},"geometry":{"x":168352.34000000078,"y":2557321.870000001}},{"attributes":{"ID":18242,"DIS_CODE":0,"TOWNNAME":"西港區","LI":"慶安里","LIN":"34鄰","STREET":"中山路","SECT":" ","MAREA":" ","LANE":"１１７巷","ALLEY":"７弄","HOUSE_NO":"５２號","E_COORD97":168353.35999999999,"N_COORD97":2557316.6400000001,"ADDRESS":"中山路１１７巷７弄５２號","OBJECTID":18242},"geometry":{"x":168353.36000000034,"y":2557316.6400000006}},{"attributes":{"ID":18243,"DIS_CODE":0,"TOWNNAME":"西港區","LI":"慶安里","LIN":"34鄰","STREET":"中山路","SECT":" ","MAREA":" ","LANE":"１１７巷","ALLEY":"７弄","HOUSE_NO":"５４號","E_COORD97":168354.45999999999,"N_COORD97":2557311.75,"ADDRESS":"中山路１１７巷７弄５４號","OBJECTID":18243},"geometry":{"x":168354.46000000089,"y":2557311.75}},{"attributes":{"ID":18244,"DIS_CODE":0,"TOWNNAME":"西港區","LI":"慶安里","LIN":"34鄰","STREET":"中山路","SECT":" ","MAREA":" ","LANE":"１１７巷","ALLEY":"７弄","HOUSE_NO":"６０號","E_COORD97":168357.82999999999,"N_COORD97":2557295.9700000002,"ADDRESS":"中山路１１７巷７弄６０號","OBJECTID":18244},"geometry":{"x":168357.83000000007,"y":2557295.9700000025}},{"attributes":{"ID":18245,"DIS_CODE":0,"TOWNNAME":"西港區","LI":"慶安里","LIN":"34鄰","STREET":"中山路","SECT":" ","MAREA":" ","LANE":"１１７巷","ALLEY":"７弄","HOUSE_NO":"６２號","E_COORD97":168372.84,"N_COORD97":2557327.71,"ADDRESS":"中山路１１７巷７弄６２號","OBJECTID":18245},"geometry":{"x":168372.83999999985,"y":2557327.7100000046}},{"attributes":{"ID":18246,"DIS_CODE":0,"TOWNNAME":"西港區","LI":"慶安里","LIN":"34鄰","STREET":"中山路","SECT":" ","MAREA":" ","LANE":"１１７巷","ALLEY":"７弄","HOUSE_NO":"６４號","E_COORD97":168373.89999999999,"N_COORD97":2557323.5600000001,"ADDRESS":"中山路１１７巷７弄６４號","OBJECTID":18246},"geometry":{"x":168373.9000000013,"y":2557323.5600000005}},{"attributes":{"ID":18247,"DIS_CODE":0,"TOWNNAME":"西港區","LI":"慶安里","LIN":"34鄰","STREET":"中山路","SECT":" ","MAREA":" ","LANE":"１１７巷","ALLEY":"７弄","HOUSE_NO":"６６號","E_COORD97":168375.14999999999,"N_COORD97":2557318.1000000001,"ADDRESS":"中山路１１７巷７弄６６號","OBJECTID":18247},"geometry":{"x":168375.15000000037,"y":2557318.1000000015}},{"attributes":{"ID":18248,"DIS_CODE":0,"TOWNNAME":"西港區","LI":"慶安里","LIN":"34鄰","STREET":"中山路","SECT":" ","MAREA":" ","LANE":"１１７巷","ALLEY":"７弄","HOUSE_NO":"６８號","E_COORD97":168375.85000000001,"N_COORD97":2557313.3900000001,"ADDRESS":"中山路１１７巷７弄６８號","OBJECTID":18248},"geometry":{"x":168375.84999999963,"y":2557313.3900000025}},{"attributes":{"ID":18249,"DIS_CODE":0,"TOWNNAME":"西港區","LI":"慶安里","LIN":"34鄰","STREET":"中山路","SECT":" ","MAREA":" ","LANE":"１１７巷","ALLEY":"７弄","HOUSE_NO":"７０號","E_COORD97":168377.10999999999,"N_COORD97":2557307.98,"ADDRESS":"中山路１１７巷７弄７０號","OBJECTID":18249},"geometry":{"x":168377.11000000034,"y":2557307.9800000004}},{"attributes":{"ID":18250,"DIS_CODE":0,"TOWNNAME":"西港區","LI":"慶安里","LIN":"34鄰","STREET":"中山路","SECT":" ","MAREA":" ","LANE":"１１７巷","ALLEY":"７弄","HOUSE_NO":"７２號","E_COORD97":168378.17000000001,"N_COORD97":2557302.4199999999,"ADDRESS":"中山路１１７巷７弄７２號","OBJECTID":18250},"geometry":{"x":168378.17000000179,"y":2557302.4200000018}},{"attributes":{"ID":18251,"DIS_CODE":0,"TOWNNAME":"東山區","LI":"聖賢里","LIN":"14鄰","STREET":" ","SECT":" ","MAREA":"田尾","LANE":" ","ALLEY":" ","HOUSE_NO":"７０號之２","E_COORD97":184744.75,"N_COORD97":2578552.2000000002,"ADDRESS":"田尾７０號之２","OBJECTID":18251},"geometry":{"x":184744.75000000186,"y":2578552.1999999993}},{"attributes":{"ID":18252,"DIS_CODE":0,"TOWNNAME":"西港區","LI":"慶安里","LIN":"34鄰","STREET":"中山路","SECT":" ","MAREA":" ","LANE":"１１７巷","ALLEY":"７弄","HOUSE_NO":"７４號","E_COORD97":168389.60999999999,"N_COORD97":2557329.4700000002,"ADDRESS":"中山路１１７巷７弄７４號","OBJECTID":18252},"geometry":{"x":168389.61000000127,"y":2557329.4700000025}},{"attributes":{"ID":18253,"DIS_CODE":0,"TOWNNAME":"西港區","LI":"慶安里","LIN":"34鄰","STREET":"中山路","SECT":" ","MAREA":" ","LANE":"１１７巷","ALLEY":"７弄","HOUSE_NO":"７６號","E_COORD97":168390.51000000001,"N_COORD97":2557324.8500000001,"ADDRESS":"中山路１１７巷７弄７６號","OBJECTID":18253},"geometry":{"x":168390.50999999978,"y":2557324.8499999996}},{"attributes":{"ID":18254,"DIS_CODE":0,"TOWNNAME":"西港區","LI":"慶安里","LIN":"34鄰","STREET":"中山路","SECT":" ","MAREA":" ","LANE":"１１７巷","ALLEY":"７弄","HOUSE_NO":"７８號","E_COORD97":168391.56,"N_COORD97":2557319.5099999998,"ADDRESS":"中山路１１７巷７弄７８號","OBJECTID":18254},"geometry":{"x":168391.55999999959,"y":2557319.5099999998}},{"attributes":{"ID":18255,"DIS_CODE":0,"TOWNNAME":"西港區","LI":"慶安里","LIN":"34鄰","STREET":"中山路","SECT":" ","MAREA":" ","LANE":"１１７巷","ALLEY":"７弄","HOUSE_NO":"７號","E_COORD97":168407.57000000001,"N_COORD97":2557445.4300000002,"ADDRESS":"中山路１１７巷７弄７號","OBJECTID":18255},"geometry":{"x":168407.5700000003,"y":2557445.4299999997}},{"attributes":{"ID":18256,"DIS_CODE":0,"TOWNNAME":"西港區","LI":"慶安里","LIN":"34鄰","STREET":"中山路","SECT":" ","MAREA":" ","LANE":"１１７巷","ALLEY":"７弄","HOUSE_NO":"８０號","E_COORD97":168392.67999999999,"N_COORD97":2557314.0699999998,"ADDRESS":"中山路１１７巷７弄８０號","OBJECTID":18256},"geometry":{"x":168392.6799999997,"y":2557314.0700000003}},{"attributes":{"ID":18257,"DIS_CODE":0,"TOWNNAME":"西港區","LI":"慶安里","LIN":"34鄰","STREET":"中山路","SECT":" ","MAREA":" ","LANE":"１１７巷","ALLEY":"７弄","HOUSE_NO":"８２號","E_COORD97":168393.63,"N_COORD97":2557309.2200000002,"ADDRESS":"中山路１１７巷７弄８２號","OBJECTID":18257},"geometry":{"x":168393.63000000175,"y":2557309.2200000007}},{"attributes":{"ID":18258,"DIS_CODE":0,"TOWNNAME":"西港區","LI":"慶安里","LIN":"34鄰","STREET":"中山路","SECT":" ","MAREA":" ","LANE":"１１７巷","ALLEY":"７弄","HOUSE_NO":"８４號","E_COORD97":168394.51999999999,"N_COORD97":2557303.8300000001,"ADDRESS":"中山路１１７巷７弄８４號","OBJECTID":18258},"geometry":{"x":168394.52000000048,"y":2557303.8300000019}},{"attributes":{"ID":18259,"DIS_CODE":0,"TOWNNAME":"西港區","LI":"慶安里","LIN":"34鄰","STREET":"中山路","SECT":" ","MAREA":" ","LANE":"１１７巷","ALLEY":"７弄","HOUSE_NO":"８６號","E_COORD97":168407.76000000001,"N_COORD97":2557332.8199999998,"ADDRESS":"中山路１１７巷７弄８６號","OBJECTID":18259},"geometry":{"x":168407.75999999978,"y":2557332.8199999984}},{"attributes":{"ID":18260,"DIS_CODE":0,"TOWNNAME":"西港區","LI":"慶安里","LIN":"34鄰","STREET":"中山路","SECT":" ","MAREA":" ","LANE":"１１７巷","ALLEY":"７弄","HOUSE_NO":"８８號","E_COORD97":168408.5,"N_COORD97":2557327.3100000001,"ADDRESS":"中山路１１７巷７弄８８號","OBJECTID":18260},"geometry":{"x":168408.50000000093,"y":2557327.3100000024}},{"attributes":{"ID":18261,"DIS_CODE":0,"TOWNNAME":"西港區","LI":"慶安里","LIN":"34鄰","STREET":"中山路","SECT":" ","MAREA":" ","LANE":"１１７巷","ALLEY":"７弄","HOUSE_NO":"９０號","E_COORD97":168409.66,"N_COORD97":2557322.3700000001,"ADDRESS":"中山路１１７巷７弄９０號","OBJECTID":18261},"geometry":{"x":168409.66000000108,"y":2557322.370000001}},{"attributes":{"ID":18262,"DIS_CODE":0,"TOWNNAME":"西港區","LI":"慶安里","LIN":"34鄰","STREET":"中山路","SECT":" ","MAREA":" ","LANE":"１１７巷","ALLEY":"７弄","HOUSE_NO":"９２號","E_COORD97":168410.39000000001,"N_COORD97":2557317.5099999998,"ADDRESS":"中山路１１７巷７弄９２號","OBJECTID":18262},"geometry":{"x":168410.39000000153,"y":2557317.5100000035}},{"attributes":{"ID":18263,"DIS_CODE":0,"TOWNNAME":"西港區","LI":"慶安里","LIN":"34鄰","STREET":"中山路","SECT":" ","MAREA":" ","LANE":"１１７巷","ALLEY":"７弄","HOUSE_NO":"９４號","E_COORD97":168411.57000000001,"N_COORD97":2557312.3199999998,"ADDRESS":"中山路１１７巷７弄９４號","OBJECTID":18263},"geometry":{"x":168411.57000000216,"y":2557312.3200000003}},{"attributes":{"ID":18264,"DIS_CODE":0,"TOWNNAME":"西港區","LI":"慶安里","LIN":"34鄰","STREET":"中山路","SECT":" ","MAREA":" ","LANE":"１１７巷","ALLEY":"７弄","HOUSE_NO":"９６號","E_COORD97":168413.12,"N_COORD97":2557307.2400000002,"ADDRESS":"中山路１１７巷７弄９６號","OBJECTID":18264},"geometry":{"x":168413.12000000104,"y":2557307.2400000021}},{"attributes":{"ID":18265,"DIS_CODE":0,"TOWNNAME":"東區","LI":"和平里","LIN":"20鄰","STREET":"仁和路","SECT":" ","MAREA":" ","LANE":" ","ALLEY":" ","HOUSE_NO":"４５之２９號","E_COORD97":171091.32999999999,"N_COORD97":2541947.6099999999,"ADDRESS":"仁和路４５之２９號","OBJECTID":18265},"geometry":{"x":171091.33000000194,"y":2541947.6099999994}},{"attributes":{"ID":18266,"DIS_CODE":0,"TOWNNAME":"西港區","LI":"慶安里","LIN":"34鄰","STREET":"中山路","SECT":" ","MAREA":" ","LANE":"１１７巷","ALLEY":"７弄","HOUSE_NO":"９號","E_COORD97":168408.22,"N_COORD97":2557441.1899999999,"ADDRESS":"中山路１１７巷７弄９號","OBJECTID":18266},"geometry":{"x":168408.2200000016,"y":2557441.1899999995}},{"attributes":{"ID":18267,"DIS_CODE":0,"TOWNNAME":"新市區","LI":"新和里","LIN":"34鄰","STREET":"仁愛街","SECT":" ","MAREA":" ","LANE":"１８９巷","ALLEY":"３０弄","HOUSE_NO":"１號","E_COORD97":177511.20000000001,"N_COORD97":2552787.2799999998,"ADDRESS":"仁愛街１８９巷３０弄１號","OBJECTID":18267},"geometry":{"x":177511.20000000019,"y":2552787.2800000012}},{"attributes":{"ID":18268,"DIS_CODE":0,"TOWNNAME":"永康區","LI":"埔園里","LIN":"34鄰","STREET":"永大路","SECT":"三段","MAREA":" ","LANE":"６２２巷","ALLEY":"７０弄","HOUSE_NO":"１號","E_COORD97":174045.29999999999,"N_COORD97":2548903.1600000001,"ADDRESS":"永大路三段６２２巷７０弄１號","OBJECTID":18268},"geometry":{"x":174045.29999999981,"y":2548903.160000002}},{"attributes":{"ID":18269,"DIS_CODE":0,"TOWNNAME":"永康區","LI":"埔園里","LIN":"34鄰","STREET":"永大路","SECT":"三段","MAREA":" ","LANE":"６２２巷","ALLEY":"９２弄","HOUSE_NO":"３號","E_COORD97":174093.04999999999,"N_COORD97":2548920.6299999999,"ADDRESS":"永大路三段６２２巷９２弄３號","OBJECTID":18269},"geometry":{"x":174093.04999999981,"y":2548920.629999999}},{"attributes":{"ID":18270,"DIS_CODE":0,"TOWNNAME":"永康區","LI":"埔園里","LIN":"34鄰","STREET":"永大路","SECT":"三段","MAREA":" ","LANE":"６２２巷","ALLEY":"７０弄","HOUSE_NO":"１９號","E_COORD97":174056.04000000001,"N_COORD97":2548876.7200000002,"ADDRESS":"永大路三段６２２巷７０弄１９號","OBJECTID":18270},"geometry":{"x":174056.04000000004,"y":2548876.7200000025}},{"attributes":{"ID":18271,"DIS_CODE":0,"TOWNNAME":"永康區","LI":"埔園里","LIN":"34鄰","STREET":"永大路","SECT":"三段","MAREA":" ","LANE":"６２２巷","ALLEY":"７０弄","HOUSE_NO":"１３號","E_COORD97":174051.79999999999,"N_COORD97":2548888.2200000002,"ADDRESS":"永大路三段６２２巷７０弄１３號","OBJECTID":18271},"geometry":{"x":174051.80000000075,"y":2548888.2200000007}},{"attributes":{"ID":18272,"DIS_CODE":0,"TOWNNAME":"永康區","LI":"埔園里","LIN":"34鄰","STREET":"永大路","SECT":"三段","MAREA":" ","LANE":"６２２巷","ALLEY":"７０弄","HOUSE_NO":"２５號","E_COORD97":174071.34,"N_COORD97":2548861.3199999998,"ADDRESS":"永大路三段６２２巷７０弄２５號","OBJECTID":18272},"geometry":{"x":174071.34000000078,"y":2548861.3200000022}},{"attributes":{"ID":18273,"DIS_CODE":0,"TOWNNAME":"永康區","LI":"埔園里","LIN":"34鄰","STREET":"永大路","SECT":"三段","MAREA":" ","LANE":"６２２巷","ALLEY":"９２弄","HOUSE_NO":"１８號","E_COORD97":174083.01999999999,"N_COORD97":2548887.5600000001,"ADDRESS":"永大路三段６２２巷９２弄１８號","OBJECTID":18273},"geometry":{"x":174083.01999999862,"y":2548887.5600000024}},{"attributes":{"ID":18274,"DIS_CODE":0,"TOWNNAME":"永康區","LI":"埔園里","LIN":"34鄰","STREET":"永大路","SECT":"三段","MAREA":" ","LANE":"６２２巷","ALLEY":"７０弄","HOUSE_NO":"９號","E_COORD97":174065.79000000001,"N_COORD97":2548895.3500000001,"ADDRESS":"永大路三段６２２巷７０弄９號","OBJECTID":18274},"geometry":{"x":174065.79000000004,"y":2548895.3499999996}},{"attributes":{"ID":18275,"DIS_CODE":0,"TOWNNAME":"永康區","LI":"埔園里","LIN":"34鄰","STREET":"永大路","SECT":"三段","MAREA":" ","LANE":"６２２巷","ALLEY":"９２弄","HOUSE_NO":"２２號","E_COORD97":174082.01999999999,"N_COORD97":2548879.5600000001,"ADDRESS":"永大路三段６２２巷９２弄２２號","OBJECTID":18275},"geometry":{"x":174082.02000000048,"y":2548879.5600000042}},{"attributes":{"ID":18276,"DIS_CODE":0,"TOWNNAME":"永康區","LI":"埔園里","LIN":"34鄰","STREET":"永大路","SECT":"三段","MAREA":" ","LANE":"６２２巷","ALLEY":"７０弄","HOUSE_NO":"２９號","E_COORD97":174079.25,"N_COORD97":2548859.8199999998,"ADDRESS":"永大路三段６２２巷７０弄２９號","OBJECTID":18276},"geometry":{"x":174079.25000000093,"y":2548859.8200000003}},{"attributes":{"ID":18277,"DIS_CODE":0,"TOWNNAME":"永康區","LI":"東灣里","LIN":"34鄰","STREET":"民族路","SECT":" ","MAREA":" ","LANE":"１８１巷","ALLEY":"３弄","HOUSE_NO":"１３號","E_COORD97":175227.92000000001,"N_COORD97":2544807.4300000002,"ADDRESS":"民族路１８１巷３弄１３號","OBJECTID":18277},"geometry":{"x":175227.91999999993,"y":2544807.4299999978}},{"attributes":{"ID":18278,"DIS_CODE":0,"TOWNNAME":"永康區","LI":"東灣里","LIN":"34鄰","STREET":"民族路","SECT":" ","MAREA":" ","LANE":"１８１巷","ALLEY":"３弄","HOUSE_NO":"１２號","E_COORD97":175217.70000000001,"N_COORD97":2544787.0499999998,"ADDRESS":"民族路１８１巷３弄１２號","OBJECTID":18278},"geometry":{"x":175217.70000000019,"y":2544787.0500000007}},{"attributes":{"ID":18279,"DIS_CODE":0,"TOWNNAME":"永康區","LI":"東灣里","LIN":"34鄰","STREET":"民族路","SECT":" ","MAREA":" ","LANE":"１８１巷","ALLEY":"１弄","HOUSE_NO":"１２號","E_COORD97":175248.23000000001,"N_COORD97":2544826.3900000001,"ADDRESS":"民族路１８１巷１弄１２號","OBJECTID":18279},"geometry":{"x":175248.23000000045,"y":2544826.3900000025}},{"attributes":{"ID":18280,"DIS_CODE":0,"TOWNNAME":"東山區","LI":"聖賢里","LIN":"14鄰","STREET":" ","SECT":" ","MAREA":"田尾","LANE":" ","ALLEY":" ","HOUSE_NO":"４９號之２","E_COORD97":184768.45000000001,"N_COORD97":2578383.3199999998,"ADDRESS":"田尾４９號之２","OBJECTID":18280},"geometry":{"x":184768.45000000019,"y":2578383.3200000003}},{"attributes":{"ID":18281,"DIS_CODE":0,"TOWNNAME":"東山區","LI":"聖賢里","LIN":"14鄰","STREET":" ","SECT":" ","MAREA":"田尾","LANE":" ","ALLEY":" ","HOUSE_NO":"４９號之３","E_COORD97":184789.07999999999,"N_COORD97":2578562.48,"ADDRESS":"田尾４９號之３","OBJECTID":18281},"geometry":{"x":184789.08000000101,"y":2578562.4799999986}},{"attributes":{"ID":18282,"DIS_CODE":0,"TOWNNAME":"東山區","LI":"聖賢里","LIN":"14鄰","STREET":" ","SECT":" ","MAREA":"田尾","LANE":" ","ALLEY":" ","HOUSE_NO":"７０號之１","E_COORD97":184809.01000000001,"N_COORD97":2578586.9500000002,"ADDRESS":"田尾７０號之１","OBJECTID":18282},"geometry":{"x":184809.01000000164,"y":2578586.9500000011}},{"attributes":{"ID":18283,"DIS_CODE":0,"TOWNNAME":"東山區","LI":"東河里","LIN":"14鄰","STREET":" ","SECT":" ","MAREA":"吉貝耍","LANE":" ","ALLEY":" ","HOUSE_NO":"１２４號","E_COORD97":186703.59,"N_COORD97":2577083.5299999998,"ADDRESS":"吉貝耍１２４號","OBJECTID":18283},"geometry":{"x":186703.58999999892,"y":2577083.5300000012}},{"attributes":{"ID":18284,"DIS_CODE":0,"TOWNNAME":"東山區","LI":"東河里","LIN":"14鄰","STREET":" ","SECT":" ","MAREA":"吉貝耍","LANE":" ","ALLEY":" ","HOUSE_NO":"１２５號","E_COORD97":186724.89000000001,"N_COORD97":2577108.04,"ADDRESS":"吉貝耍１２５號","OBJECTID":18284},"geometry":{"x":186724.88999999966,"y":2577108.040000001}},{"attributes":{"ID":18285,"DIS_CODE":0,"TOWNNAME":"東山區","LI":"東河里","LIN":"14鄰","STREET":" ","SECT":" ","MAREA":"吉貝耍","LANE":" ","ALLEY":" ","HOUSE_NO":"１２６號","E_COORD97":186754.92000000001,"N_COORD97":2577113.4399999999,"ADDRESS":"吉貝耍１２６號","OBJECTID":18285},"geometry":{"x":186754.91999999993,"y":2577113.4399999995}},{"attributes":{"ID":18286,"DIS_CODE":0,"TOWNNAME":"東山區","LI":"東河里","LIN":"14鄰","STREET":" ","SECT":" ","MAREA":"吉貝耍","LANE":" ","ALLEY":" ","HOUSE_NO":"１２７號","E_COORD97":186770.51999999999,"N_COORD97":2577109.9300000002,"ADDRESS":"吉貝耍１２７號","OBJECTID":18286},"geometry":{"x":186770.52000000048,"y":2577109.9299999997}},{"attributes":{"ID":18287,"DIS_CODE":0,"TOWNNAME":"東山區","LI":"東河里","LIN":"14鄰","STREET":" ","SECT":" ","MAREA":"吉貝耍","LANE":" ","ALLEY":" ","HOUSE_NO":"１２８號之１","E_COORD97":186765.66,"N_COORD97":2577120.3199999998,"ADDRESS":"吉貝耍１２８號之１","OBJECTID":18287},"geometry":{"x":186765.66000000015,"y":2577120.3200000022}},{"attributes":{"ID":18288,"DIS_CODE":0,"TOWNNAME":"永康區","LI":"埔園里","LIN":"34鄰","STREET":"永大路","SECT":"三段","MAREA":" ","LANE":"６２２巷","ALLEY":"９２弄","HOUSE_NO":"１２號","E_COORD97":174083.91,"N_COORD97":2548895.3199999998,"ADDRESS":"永大路三段６２２巷９２弄１２號","OBJECTID":18288},"geometry":{"x":174083.91000000015,"y":2548895.3200000022}},{"attributes":{"ID":18289,"DIS_CODE":0,"TOWNNAME":"永康區","LI":"東灣里","LIN":"34鄰","STREET":"民族路","SECT":" ","MAREA":" ","LANE":"１８１巷","ALLEY":"１弄","HOUSE_NO":"２２號","E_COORD97":175262.01000000001,"N_COORD97":2544809.0600000001,"ADDRESS":"民族路１８１巷１弄２２號","OBJECTID":18289},"geometry":{"x":175262.01000000071,"y":2544809.0600000024}},{"attributes":{"ID":18290,"DIS_CODE":0,"TOWNNAME":"仁德區","LI":"成功里","LIN":"34鄰","STREET":"成功一街","SECT":" ","MAREA":" ","LANE":"６７巷","ALLEY":"２５弄","HOUSE_NO":"６號","E_COORD97":170636.92999999999,"N_COORD97":2540070.2599999998,"ADDRESS":"成功一街６７巷２５弄６號","OBJECTID":18290},"geometry":{"x":170636.9299999997,"y":2540070.2600000016}},{"attributes":{"ID":18291,"DIS_CODE":0,"TOWNNAME":"東區","LI":"成大里","LIN":"24鄰","STREET":"育樂街","SECT":" ","MAREA":" ","LANE":" ","ALLEY":" ","HOUSE_NO":"１０９之１號三樓","E_COORD97":169518.78,"N_COORD97":2544018.5,"ADDRESS":"育樂街１０９之１號三樓","OBJECTID":18291},"geometry":{"x":169518.78000000212,"y":2544018.5000000019}},{"attributes":{"ID":18292,"DIS_CODE":0,"TOWNNAME":"東山區","LI":"東河里","LIN":"14鄰","STREET":" ","SECT":" ","MAREA":"吉貝耍","LANE":" ","ALLEY":" ","HOUSE_NO":"１２９號","E_COORD97":186749.54999999999,"N_COORD97":2577130.9700000002,"ADDRESS":"吉貝耍１２９號","OBJECTID":18292},"geometry":{"x":186749.54999999888,"y":2577130.9700000007}},{"attributes":{"ID":18293,"DIS_CODE":0,"TOWNNAME":"東山區","LI":"東河里","LIN":"14鄰","STREET":" ","SECT":" ","MAREA":"吉貝耍","LANE":" ","ALLEY":" ","HOUSE_NO":"１３０號","E_COORD97":186726.64999999999,"N_COORD97":2577123.4500000002,"ADDRESS":"吉貝耍１３０號","OBJECTID":18293},"geometry":{"x":186726.6500000013,"y":2577123.4499999993}},{"attributes":{"ID":18294,"DIS_CODE":0,"TOWNNAME":"東山區","LI":"東河里","LIN":"14鄰","STREET":" ","SECT":" ","MAREA":"吉貝耍","LANE":" ","ALLEY":" ","HOUSE_NO":"１３１號","E_COORD97":186724.13,"N_COORD97":2577143.1099999999,"ADDRESS":"吉貝耍１３１號","OBJECTID":18294},"geometry":{"x":186724.13000000082,"y":2577143.1099999994}},{"attributes":{"ID":18295,"DIS_CODE":0,"TOWNNAME":"東山區","LI":"東河里","LIN":"14鄰","STREET":" ","SECT":" ","MAREA":"吉貝耍","LANE":" ","ALLEY":" ","HOUSE_NO":"１３２號","E_COORD97":186742.72,"N_COORD97":2577144.9500000002,"ADDRESS":"吉貝耍１３２號","OBJECTID":18295},"geometry":{"x":186742.71999999974,"y":2577144.9500000011}},{"attributes":{"ID":18296,"DIS_CODE":0,"TOWNNAME":"東山區","LI":"東河里","LIN":"14鄰","STREET":" ","SECT":" ","MAREA":"吉貝耍","LANE":" ","ALLEY":" ","HOUSE_NO":"１３３號","E_COORD97":186762.10000000001,"N_COORD97":2577147.73,"ADDRESS":"吉貝耍１３３號","OBJECTID":18296},"geometry":{"x":186762.09999999963,"y":2577147.7300000023}},{"attributes":{"ID":18297,"DIS_CODE":0,"TOWNNAME":"東山區","LI":"南勢里","LIN":"14鄰","STREET":" ","SECT":" ","MAREA":"南勢庄","LANE":" ","ALLEY":" ","HOUSE_NO":"４７號之４","E_COORD97":196305.89000000001,"N_COORD97":2570282.6099999999,"ADDRESS":"南勢庄４７號之４","OBJECTID":18297},"geometry":{"x":196305.88999999966,"y":2570282.6100000013}},{"attributes":{"ID":18298,"DIS_CODE":0,"TOWNNAME":"東山區","LI":"南勢里","LIN":"14鄰","STREET":" ","SECT":" ","MAREA":"南勢庄","LANE":" ","ALLEY":" ","HOUSE_NO":"４７號","E_COORD97":196335.01000000001,"N_COORD97":2570537.6000000001,"ADDRESS":"南勢庄４７號","OBJECTID":18298},"geometry":{"x":196335.01000000071,"y":2570537.6000000015}},{"attributes":{"ID":18299,"DIS_CODE":0,"TOWNNAME":"東山區","LI":"南勢里","LIN":"14鄰","STREET":" ","SECT":" ","MAREA":"南勢庄","LANE":" ","ALLEY":" ","HOUSE_NO":"４９號","E_COORD97":196256.91,"N_COORD97":2570412.7599999998,"ADDRESS":"南勢庄４９號","OBJECTID":18299},"geometry":{"x":196256.91000000015,"y":2570412.7599999979}},{"attributes":{"ID":18300,"DIS_CODE":0,"TOWNNAME":"東山區","LI":"南勢里","LIN":"14鄰","STREET":" ","SECT":" ","MAREA":"南勢庄","LANE":" ","ALLEY":" ","HOUSE_NO":"５０號之１","E_COORD97":196199.89999999999,"N_COORD97":2570252.8300000001,"ADDRESS":"南勢庄５０號之１","OBJECTID":18300},"geometry":{"x":196199.90000000037,"y":2570252.8300000001}},{"attributes":{"ID":18301,"DIS_CODE":0,"TOWNNAME":"東山區","LI":"南勢里","LIN":"14鄰","STREET":" ","SECT":" ","MAREA":"南勢庄","LANE":" ","ALLEY":" ","HOUSE_NO":"５０號之２","E_COORD97":195803.85000000001,"N_COORD97":2570176.5,"ADDRESS":"南勢庄５０號之２","OBJECTID":18301},"geometry":{"x":195803.85000000056,"y":2570176.5}},{"attributes":{"ID":18302,"DIS_CODE":0,"TOWNNAME":"東山區","LI":"南勢里","LIN":"14鄰","STREET":" ","SECT":" ","MAREA":"南勢庄","LANE":" ","ALLEY":" ","HOUSE_NO":"５０號之３","E_COORD97":196128.41,"N_COORD97":2570311.8799999999,"ADDRESS":"南勢庄５０號之３","OBJECTID":18302},"geometry":{"x":196128.41000000015,"y":2570311.879999999}},{"attributes":{"ID":18303,"DIS_CODE":0,"TOWNNAME":"東山區","LI":"南勢里","LIN":"14鄰","STREET":" ","SECT":" ","MAREA":"南勢庄","LANE":" ","ALLEY":" ","HOUSE_NO":"５０號","E_COORD97":195956.31,"N_COORD97":2570209.9900000002,"ADDRESS":"南勢庄５０號","OBJECTID":18303},"geometry":{"x":195956.31000000052,"y":2570209.9900000021}},{"attributes":{"ID":18304,"DIS_CODE":0,"TOWNNAME":"東山區","LI":"南勢里","LIN":"14鄰","STREET":" ","SECT":" ","MAREA":"南勢庄","LANE":" ","ALLEY":" ","HOUSE_NO":"５１號之１","E_COORD97":196155.32999999999,"N_COORD97":2569858.77,"ADDRESS":"南勢庄５１號之１","OBJECTID":18304},"geometry":{"x":196155.33000000101,"y":2569858.7699999996}},{"attributes":{"ID":18305,"DIS_CODE":0,"TOWNNAME":"東山區","LI":"南勢里","LIN":"14鄰","STREET":" ","SECT":" ","MAREA":"南勢庄","LANE":" ","ALLEY":" ","HOUSE_NO":"５１號之２","E_COORD97":196081.20000000001,"N_COORD97":2569718.1400000001,"ADDRESS":"南勢庄５１號之２","OBJECTID":18305},"geometry":{"x":196081.20000000112,"y":2569718.1400000006}},{"attributes":{"ID":18306,"DIS_CODE":0,"TOWNNAME":"東山區","LI":"南勢里","LIN":"14鄰","STREET":" ","SECT":" ","MAREA":"南勢庄","LANE":" ","ALLEY":" ","HOUSE_NO":"５１號之３","E_COORD97":196118.98000000001,"N_COORD97":2569785.3599999999,"ADDRESS":"南勢庄５１號之３","OBJECTID":18306},"geometry":{"x":196118.98000000138,"y":2569785.3600000013}},{"attributes":{"ID":18307,"DIS_CODE":0,"TOWNNAME":"東山區","LI":"南勢里","LIN":"14鄰","STREET":" ","SECT":" ","MAREA":"南勢庄","LANE":" ","ALLEY":" ","HOUSE_NO":"５１號之４","E_COORD97":196271.89999999999,"N_COORD97":2570106.2400000002,"ADDRESS":"南勢庄５１號之４","OBJECTID":18307},"geometry":{"x":196271.9000000013,"y":2570106.2400000021}},{"attributes":{"ID":18308,"DIS_CODE":0,"TOWNNAME":"東山區","LI":"南勢里","LIN":"14鄰","STREET":" ","SECT":" ","MAREA":"南勢庄","LANE":" ","ALLEY":" ","HOUSE_NO":"５１號","E_COORD97":195975.26999999999,"N_COORD97":2569383.3900000001,"ADDRESS":"南勢庄５１號","OBJECTID":18308},"geometry":{"x":195975.27000000048,"y":2569383.3900000025}},{"attributes":{"ID":18309,"DIS_CODE":0,"TOWNNAME":"東山區","LI":"南勢里","LIN":"14鄰","STREET":" ","SECT":" ","MAREA":"南勢庄","LANE":" ","ALLEY":" ","HOUSE_NO":"５２號","E_COORD97":195993.09,"N_COORD97":2569412.5,"ADDRESS":"南勢庄５２號","OBJECTID":18309},"geometry":{"x":195993.08999999985,"y":2569412.5000000019}},{"attributes":{"ID":18310,"DIS_CODE":0,"TOWNNAME":"麻豆區","LI":"埤頭里","LIN":"14鄰","STREET":" ","SECT":" ","MAREA":"埤頭","LANE":" ","ALLEY":" ","HOUSE_NO":"１２３號之１","E_COORD97":170899.87,"N_COORD97":2566714.1099999999,"ADDRESS":"埤頭１２３號之１","OBJECTID":18310},"geometry":{"x":170899.87000000104,"y":2566714.1099999994}},{"attributes":{"ID":18311,"DIS_CODE":0,"TOWNNAME":"麻豆區","LI":"埤頭里","LIN":"14鄰","STREET":" ","SECT":" ","MAREA":"埤頭","LANE":" ","ALLEY":" ","HOUSE_NO":"１２７號","E_COORD97":170900.19,"N_COORD97":2566774.9700000002,"ADDRESS":"埤頭１２７號","OBJECTID":18311},"geometry":{"x":170900.19000000041,"y":2566774.9700000025}},{"attributes":{"ID":18312,"DIS_CODE":0,"TOWNNAME":"仁德區","LI":"後壁里","LIN":"34鄰","STREET":"德洋二街","SECT":" ","MAREA":" ","LANE":"３９巷","ALLEY":"２９弄","HOUSE_NO":"１９號","E_COORD97":172333.37,"N_COORD97":2539391.52,"ADDRESS":"德洋二街３９巷２９弄１９號","OBJECTID":18312},"geometry":{"x":172333.37000000011,"y":2539391.5199999996}},{"attributes":{"ID":18313,"DIS_CODE":0,"TOWNNAME":"永康區","LI":"東灣里","LIN":"34鄰","STREET":"民族路","SECT":" ","MAREA":" ","LANE":"１８１巷","ALLEY":"３弄","HOUSE_NO":"８號","E_COORD97":175210.14000000001,"N_COORD97":2544795.1600000001,"ADDRESS":"民族路１８１巷３弄８號","OBJECTID":18313},"geometry":{"x":175210.1400000006,"y":2544795.1600000001}},{"attributes":{"ID":18314,"DIS_CODE":0,"TOWNNAME":"永康區","LI":"東灣里","LIN":"34鄰","STREET":"民族路","SECT":" ","MAREA":" ","LANE":"１８１巷","ALLEY":"３弄","HOUSE_NO":"１０號","E_COORD97":175213.48000000001,"N_COORD97":2544791.25,"ADDRESS":"民族路１８１巷３弄１０號","OBJECTID":18314},"geometry":{"x":175213.48000000231,"y":2544791.25}},{"attributes":{"ID":18315,"DIS_CODE":0,"TOWNNAME":"永康區","LI":"\u25A0行里","LIN":"34鄰","STREET":"中正北路","SECT":" ","MAREA":" ","LANE":"１７７巷","ALLEY":"２０弄","HOUSE_NO":"３２號","E_COORD97":172454.37,"N_COORD97":2549245.48,"ADDRESS":"中正北路１７７巷２０弄３２號","OBJECTID":18315},"geometry":{"x":172454.37000000104,"y":2549245.4800000004}},{"attributes":{"ID":18316,"DIS_CODE":0,"TOWNNAME":"永康區","LI":"龍潭里","LIN":"34鄰","STREET":"龍埔街","SECT":" ","MAREA":" ","LANE":"１３９巷","ALLEY":"１０弄","HOUSE_NO":"２２號","E_COORD97":174518.39999999999,"N_COORD97":2548166.6400000001,"ADDRESS":"龍埔街１３９巷１０弄２２號","OBJECTID":18316},"geometry":{"x":174518.40000000037,"y":2548166.6400000006}},{"attributes":{"ID":18317,"DIS_CODE":0,"TOWNNAME":"新營區","LI":"南紙里","LIN":"25鄰","STREET":"建業路","SECT":" ","MAREA":" ","LANE":"２２７巷","ALLEY":"２弄","HOUSE_NO":"２號","E_COORD97":178110.26000000001,"N_COORD97":2577476.52,"ADDRESS":"建業路２２７巷２弄２號","OBJECTID":18317},"geometry":{"x":178110.26000000071,"y":2577476.5200000033}},{"attributes":{"ID":18318,"DIS_CODE":0,"TOWNNAME":"麻豆區","LI":"埤頭里","LIN":"14鄰","STREET":" ","SECT":" ","MAREA":"埤頭","LANE":" ","ALLEY":" ","HOUSE_NO":"１２８號","E_COORD97":170889.78,"N_COORD97":2566791.1499999999,"ADDRESS":"埤頭１２８號","OBJECTID":18318},"geometry":{"x":170889.78000000026,"y":2566791.1500000022}},{"attributes":{"ID":18319,"DIS_CODE":0,"TOWNNAME":"永康區","LI":"\u25A0行里","LIN":"34鄰","STREET":"中正北路","SECT":" ","MAREA":" ","LANE":"１７７巷","ALLEY":"２０弄","HOUSE_NO":"９號","E_COORD97":172365.67999999999,"N_COORD97":2549242.9700000002,"ADDRESS":"中正北路１７７巷２０弄９號","OBJECTID":18319},"geometry":{"x":172365.68000000063,"y":2549242.9700000044}},{"attributes":{"ID":18320,"DIS_CODE":0,"TOWNNAME":"永康區","LI":"\u25A0行里","LIN":"34鄰","STREET":"中正北路","SECT":" ","MAREA":" ","LANE":"１７７巷","ALLEY":"２０弄","HOUSE_NO":"３０號","E_COORD97":172450.14999999999,"N_COORD97":2549245.48,"ADDRESS":"中正北路１７７巷２０弄３０號","OBJECTID":18320},"geometry":{"x":172450.15000000037,"y":2549245.4800000004}},{"attributes":{"ID":18321,"DIS_CODE":0,"TOWNNAME":"永康區","LI":"\u25A0行里","LIN":"34鄰","STREET":"中正北路","SECT":" ","MAREA":" ","LANE":"１７７巷","ALLEY":"２０弄","HOUSE_NO":"６號","E_COORD97":172398.70999999999,"N_COORD97":2549244.48,"ADDRESS":"中正北路１７７巷２０弄６號","OBJECTID":18321},"geometry":{"x":172398.70999999996,"y":2549244.4800000004}},{"attributes":{"ID":18322,"DIS_CODE":0,"TOWNNAME":"永康區","LI":"\u25A0行里","LIN":"34鄰","STREET":"中正北路","SECT":" ","MAREA":" ","LANE":"１７７巷","ALLEY":"２０弄","HOUSE_NO":"１３號","E_COORD97":172358.51999999999,"N_COORD97":2549242.9700000002,"ADDRESS":"中正北路１７７巷２０弄１３號","OBJECTID":18322},"geometry":{"x":172358.51999999955,"y":2549242.9700000044}},{"attributes":{"ID":18323,"DIS_CODE":0,"TOWNNAME":"麻豆區","LI":"埤頭里","LIN":"14鄰","STREET":" ","SECT":" ","MAREA":"埤頭","LANE":" ","ALLEY":" ","HOUSE_NO":"１２９號之１１","E_COORD97":170829,"N_COORD97":2566817.77,"ADDRESS":"埤頭１２９號之１１","OBJECTID":18323},"geometry":{"x":170829.00000000186,"y":2566817.7699999996}},{"attributes":{"ID":18324,"DIS_CODE":0,"TOWNNAME":"麻豆區","LI":"埤頭里","LIN":"14鄰","STREET":" ","SECT":" ","MAREA":"埤頭","LANE":" ","ALLEY":" ","HOUSE_NO":"１２９號之１２","E_COORD97":170829.98000000001,"N_COORD97":2566813.79,"ADDRESS":"埤頭１２９號之１２","OBJECTID":18324},"geometry":{"x":170829.98000000138,"y":2566813.7899999991}},{"attributes":{"ID":18325,"DIS_CODE":0,"TOWNNAME":"永康區","LI":"\u25A0行里","LIN":"34鄰","STREET":"中正北路","SECT":" ","MAREA":" ","LANE":"１７７巷","ALLEY":"２０弄","HOUSE_NO":"４號","E_COORD97":172394.51000000001,"N_COORD97":2549244.23,"ADDRESS":"中正北路１７７巷２０弄４號","OBJECTID":18325},"geometry":{"x":172394.50999999978,"y":2549244.2300000042}},{"attributes":{"ID":18326,"DIS_CODE":0,"TOWNNAME":"永康區","LI":"\u25A0行里","LIN":"34鄰","STREET":"中正北路","SECT":" ","MAREA":" ","LANE":"１７７巷","ALLEY":"２０弄","HOUSE_NO":"１號","E_COORD97":172381.26999999999,"N_COORD97":2549243.4700000002,"ADDRESS":"中正北路１７７巷２０弄１號","OBJECTID":18326},"geometry":{"x":172381.27000000142,"y":2549243.4700000025}},{"attributes":{"ID":18327,"DIS_CODE":0,"TOWNNAME":"永康區","LI":"\u25A0行里","LIN":"34鄰","STREET":"中正北路","SECT":" ","MAREA":" ","LANE":"１７７巷","ALLEY":"２０弄","HOUSE_NO":"３６號","E_COORD97":172462.64999999999,"N_COORD97":2549245.73,"ADDRESS":"中正北路１７７巷２０弄３６號","OBJECTID":18327},"geometry":{"x":172462.65000000224,"y":2549245.7300000023}},{"attributes":{"ID":18328,"DIS_CODE":0,"TOWNNAME":"麻豆區","LI":"埤頭里","LIN":"14鄰","STREET":" ","SECT":" ","MAREA":"埤頭","LANE":" ","ALLEY":" ","HOUSE_NO":"１２９號之１５","E_COORD97":170808.23999999999,"N_COORD97":2566734.9500000002,"ADDRESS":"埤頭１２９號之１５","OBJECTID":18328},"geometry":{"x":170808.24000000022,"y":2566734.9499999993}},{"attributes":{"ID":18329,"DIS_CODE":0,"TOWNNAME":"永康區","LI":"\u25A0行里","LIN":"34鄰","STREET":"中正北路","SECT":" ","MAREA":" ","LANE":"１７７巷","ALLEY":"２０弄","HOUSE_NO":"３號","E_COORD97":172377.32000000001,"N_COORD97":2549243.4700000002,"ADDRESS":"中正北路１７７巷２０弄３號","OBJECTID":18329},"geometry":{"x":172377.32000000123,"y":2549243.4700000025}},{"attributes":{"ID":18330,"DIS_CODE":0,"TOWNNAME":"麻豆區","LI":"埤頭里","LIN":"14鄰","STREET":" ","SECT":" ","MAREA":"埤頭","LANE":" ","ALLEY":" ","HOUSE_NO":"１２９號之１６","E_COORD97":170851.29999999999,"N_COORD97":2566862.3900000001,"ADDRESS":"埤頭１２９號之１６","OBJECTID":18330},"geometry":{"x":170851.30000000075,"y":2566862.3900000006}},{"attributes":{"ID":18331,"DIS_CODE":0,"TOWNNAME":"麻豆區","LI":"埤頭里","LIN":"14鄰","STREET":" ","SECT":" ","MAREA":"埤頭","LANE":" ","ALLEY":" ","HOUSE_NO":"１２９號之１","E_COORD97":170868.56,"N_COORD97":2566791.6200000001,"ADDRESS":"埤頭１２９號之１","OBJECTID":18331},"geometry":{"x":170868.55999999959,"y":2566791.6200000029}},{"attributes":{"ID":18332,"DIS_CODE":0,"TOWNNAME":"麻豆區","LI":"埤頭里","LIN":"14鄰","STREET":" ","SECT":" ","MAREA":"埤頭","LANE":" ","ALLEY":" ","HOUSE_NO":"１２９號之４","E_COORD97":170846.28,"N_COORD97":2566787.5600000001,"ADDRESS":"埤頭１２９號之４","OBJECTID":18332},"geometry":{"x":170846.28000000119,"y":2566787.5600000042}},{"attributes":{"ID":18333,"DIS_CODE":0,"TOWNNAME":"麻豆區","LI":"埤頭里","LIN":"14鄰","STREET":" ","SECT":" ","MAREA":"埤頭","LANE":" ","ALLEY":" ","HOUSE_NO":"１２９號之５","E_COORD97":170820.10000000001,"N_COORD97":2566755.5,"ADDRESS":"埤頭１２９號之５","OBJECTID":18333},"geometry":{"x":170820.10000000056,"y":2566755.5}},{"attributes":{"ID":18334,"DIS_CODE":0,"TOWNNAME":"麻豆區","LI":"埤頭里","LIN":"14鄰","STREET":" ","SECT":" ","MAREA":"埤頭","LANE":" ","ALLEY":" ","HOUSE_NO":"１２９號之６","E_COORD97":170828.20000000001,"N_COORD97":2566740.6099999999,"ADDRESS":"埤頭１２９號之６","OBJECTID":18334},"geometry":{"x":170828.20000000112,"y":2566740.6099999994}},{"attributes":{"ID":18335,"DIS_CODE":0,"TOWNNAME":"麻豆區","LI":"埤頭里","LIN":"14鄰","STREET":" ","SECT":" ","MAREA":"埤頭","LANE":" ","ALLEY":" ","HOUSE_NO":"１２９號之７","E_COORD97":170846.79000000001,"N_COORD97":2566738.7799999998,"ADDRESS":"埤頭１２９號之７","OBJECTID":18335},"geometry":{"x":170846.79000000004,"y":2566738.7800000012}},{"attributes":{"ID":18336,"DIS_CODE":0,"TOWNNAME":"麻豆區","LI":"埤頭里","LIN":"14鄰","STREET":" ","SECT":" ","MAREA":"埤頭","LANE":" ","ALLEY":" ","HOUSE_NO":"１２９號之８","E_COORD97":170872.51000000001,"N_COORD97":2566812.4900000002,"ADDRESS":"埤頭１２９號之８","OBJECTID":18336},"geometry":{"x":170872.50999999978,"y":2566812.4900000021}},{"attributes":{"ID":18337,"DIS_CODE":0,"TOWNNAME":"麻豆區","LI":"埤頭里","LIN":"14鄰","STREET":" ","SECT":" ","MAREA":"埤頭","LANE":" ","ALLEY":" ","HOUSE_NO":"１２９號之９","E_COORD97":170831.63,"N_COORD97":2566832.8300000001,"ADDRESS":"埤頭１２９號之９","OBJECTID":18337},"geometry":{"x":170831.63000000082,"y":2566832.8300000019}},{"attributes":{"ID":18338,"DIS_CODE":0,"TOWNNAME":"將軍區","LI":"西和里","LIN":"24鄰","STREET":" ","SECT":" ","MAREA":"西湖","LANE":" ","ALLEY":" ","HOUSE_NO":"９０號","E_COORD97":162178.98999999999,"N_COORD97":2566217.6800000002,"ADDRESS":"西湖９０號","OBJECTID":18338},"geometry":{"x":162178.99000000115,"y":2566217.6800000016}},{"attributes":{"ID":18339,"DIS_CODE":0,"TOWNNAME":"麻豆區","LI":"埤頭里","LIN":"14鄰","STREET":" ","SECT":" ","MAREA":"埤頭","LANE":" ","ALLEY":" ","HOUSE_NO":"１２９號","E_COORD97":170868.26999999999,"N_COORD97":2566781.4700000002,"ADDRESS":"埤頭１２９號","OBJECTID":18339},"geometry":{"x":170868.26999999955,"y":2566781.4700000044}},{"attributes":{"ID":18340,"DIS_CODE":0,"TOWNNAME":"南化區","LI":"南化里","LIN":"14鄰","STREET":" ","SECT":" ","MAREA":"南化","LANE":" ","ALLEY":" ","HOUSE_NO":"２９３號之８","E_COORD97":198679.42000000001,"N_COORD97":2548256.7999999998,"ADDRESS":"南化２９３號之８","OBJECTID":18340},"geometry":{"x":198679.41999999993,"y":2548256.8000000007}},{"attributes":{"ID":18341,"DIS_CODE":0,"TOWNNAME":"南化區","LI":"南化里","LIN":"14鄰","STREET":" ","SECT":" ","MAREA":"南化","LANE":" ","ALLEY":" ","HOUSE_NO":"２８９號之１","E_COORD97":198304.87,"N_COORD97":2547996.7999999998,"ADDRESS":"南化２８９號之１","OBJECTID":18341},"geometry":{"x":198304.87000000011,"y":2547996.8000000026}},{"attributes":{"ID":18342,"DIS_CODE":0,"TOWNNAME":"南化區","LI":"南化里","LIN":"14鄰","STREET":" ","SECT":" ","MAREA":"南化","LANE":" ","ALLEY":" ","HOUSE_NO":"２８９之５號","E_COORD97":198381.54000000001,"N_COORD97":2547897.7999999998,"ADDRESS":"南化２８９之５號","OBJECTID":18342},"geometry":{"x":198381.54000000004,"y":2547897.8000000007}},{"attributes":{"ID":18343,"DIS_CODE":0,"TOWNNAME":"南化區","LI":"南化里","LIN":"14鄰","STREET":" ","SECT":" ","MAREA":"南化","LANE":" ","ALLEY":" ","HOUSE_NO":"２９３號之７","E_COORD97":198674.45000000001,"N_COORD97":2548264.7999999998,"ADDRESS":"南化２９３號之７","OBJECTID":18343},"geometry":{"x":198674.45000000019,"y":2548264.8000000026}},{"attributes":{"ID":18344,"DIS_CODE":0,"TOWNNAME":"新營區","LI":"五興里","LIN":"14鄰","STREET":" ","SECT":" ","MAREA":"五間厝","LANE":" ","ALLEY":" ","HOUSE_NO":"１４５號","E_COORD97":175394.98000000001,"N_COORD97":2574269.4700000002,"ADDRESS":"五間厝１４５號","OBJECTID":18344},"geometry":{"x":175394.98000000138,"y":2574269.4700000007}},{"attributes":{"ID":18345,"DIS_CODE":0,"TOWNNAME":"新營區","LI":"五興里","LIN":"14鄰","STREET":" ","SECT":" ","MAREA":"五間厝","LANE":" ","ALLEY":" ","HOUSE_NO":"１５１之３號","E_COORD97":175400.07999999999,"N_COORD97":2574381.3599999999,"ADDRESS":"五間厝１５１之３號","OBJECTID":18345},"geometry":{"x":175400.08000000007,"y":2574381.3599999994}},{"attributes":{"ID":18346,"DIS_CODE":0,"TOWNNAME":"學甲區","LI":"秀昌里","LIN":"14鄰","STREET":" ","SECT":" ","MAREA":"下溪洲","LANE":" ","ALLEY":" ","HOUSE_NO":"１號之１４","E_COORD97":165336.92999999999,"N_COORD97":2570761.48,"ADDRESS":"下溪洲１號之１４","OBJECTID":18346},"geometry":{"x":165336.93000000063,"y":2570761.4800000042}},{"attributes":{"ID":18347,"DIS_CODE":0,"TOWNNAME":"學甲區","LI":"秀昌里","LIN":"14鄰","STREET":" ","SECT":" ","MAREA":"下溪洲","LANE":" ","ALLEY":" ","HOUSE_NO":"１號之２１","E_COORD97":165431.67999999999,"N_COORD97":2570983.02,"ADDRESS":"下溪洲１號之２１","OBJECTID":18347},"geometry":{"x":165431.68000000156,"y":2570983.0199999996}},{"attributes":{"ID":18348,"DIS_CODE":0,"TOWNNAME":"學甲區","LI":"秀昌里","LIN":"14鄰","STREET":" ","SECT":" ","MAREA":"下溪洲","LANE":" ","ALLEY":" ","HOUSE_NO":"１號之２２","E_COORD97":165432.59,"N_COORD97":2570987.1099999999,"ADDRESS":"下溪洲１號之２２","OBJECTID":18348},"geometry":{"x":165432.59000000078,"y":2570987.1100000013}},{"attributes":{"ID":18349,"DIS_CODE":0,"TOWNNAME":"學甲區","LI":"秀昌里","LIN":"14鄰","STREET":" ","SECT":" ","MAREA":"下溪洲","LANE":" ","ALLEY":" ","HOUSE_NO":"１號之２３","E_COORD97":165433.48999999999,"N_COORD97":2570990.6899999999,"ADDRESS":"下溪洲１號之２３","OBJECTID":18349},"geometry":{"x":165433.49000000209,"y":2570990.6900000013}},{"attributes":{"ID":18350,"DIS_CODE":0,"TOWNNAME":"學甲區","LI":"秀昌里","LIN":"14鄰","STREET":" ","SECT":" ","MAREA":"下溪洲","LANE":" ","ALLEY":" ","HOUSE_NO":"１號之２４","E_COORD97":165434.39999999999,"N_COORD97":2570995.2999999998,"ADDRESS":"下溪洲１號之２４","OBJECTID":18350},"geometry":{"x":165434.40000000224,"y":2570995.3000000007}},{"attributes":{"ID":18351,"DIS_CODE":0,"TOWNNAME":"學甲區","LI":"秀昌里","LIN":"14鄰","STREET":" ","SECT":" ","MAREA":"下溪洲","LANE":" ","ALLEY":" ","HOUSE_NO":"１號之２５","E_COORD97":165435.31,"N_COORD97":2570999.3900000001,"ADDRESS":"下溪洲１號之２５","OBJECTID":18351},"geometry":{"x":165435.30999999959,"y":2570999.3900000043}},{"attributes":{"ID":18352,"DIS_CODE":0,"TOWNNAME":"學甲區","LI":"秀昌里","LIN":"14鄰","STREET":" ","SECT":" ","MAREA":"下溪洲","LANE":" ","ALLEY":" ","HOUSE_NO":"１號之２６","E_COORD97":165436.22,"N_COORD97":2571003.48,"ADDRESS":"下溪洲１號之２６","OBJECTID":18352},"geometry":{"x":165436.21999999974,"y":2571003.4800000023}},{"attributes":{"ID":18353,"DIS_CODE":0,"TOWNNAME":"學甲區","LI":"秀昌里","LIN":"14鄰","STREET":" ","SECT":" ","MAREA":"下溪洲","LANE":" ","ALLEY":" ","HOUSE_NO":"１號之２７","E_COORD97":165437.56,"N_COORD97":2571007.25,"ADDRESS":"下溪洲１號之２７","OBJECTID":18353},"geometry":{"x":165437.56000000145,"y":2571007.2500000019}},{"attributes":{"ID":18354,"DIS_CODE":0,"TOWNNAME":"學甲區","LI":"秀昌里","LIN":"14鄰","STREET":" ","SECT":" ","MAREA":"下溪洲","LANE":" ","ALLEY":" ","HOUSE_NO":"１號之２８","E_COORD97":165438.29999999999,"N_COORD97":2571011.5299999998,"ADDRESS":"下溪洲１號之２８","OBJECTID":18354},"geometry":{"x":165438.30000000075,"y":2571011.5300000012}},{"attributes":{"ID":18355,"DIS_CODE":0,"TOWNNAME":"學甲區","LI":"秀昌里","LIN":"14鄰","STREET":" ","SECT":" ","MAREA":"下溪洲","LANE":" ","ALLEY":" ","HOUSE_NO":"１號之２９","E_COORD97":165439.54999999999,"N_COORD97":2571015.0699999998,"ADDRESS":"下溪洲１號之２９","OBJECTID":18355},"geometry":{"x":165439.55000000168,"y":2571015.070000004}},{"attributes":{"ID":18356,"DIS_CODE":0,"TOWNNAME":"學甲區","LI":"秀昌里","LIN":"14鄰","STREET":" ","SECT":" ","MAREA":"下溪洲","LANE":" ","ALLEY":" ","HOUSE_NO":"１號之２","E_COORD97":165473.01999999999,"N_COORD97":2570932.8500000001,"ADDRESS":"下溪洲１號之２","OBJECTID":18356},"geometry":{"x":165473.01999999955,"y":2570932.8499999996}},{"attributes":{"ID":18357,"DIS_CODE":0,"TOWNNAME":"永康區","LI":"\u25A0行里","LIN":"34鄰","STREET":"中正北路","SECT":" ","MAREA":" ","LANE":"１７７巷","ALLEY":"２０弄","HOUSE_NO":"３４號","E_COORD97":172458.54000000001,"N_COORD97":2549245.73,"ADDRESS":"中正北路１７７巷２０弄３４號","OBJECTID":18357},"geometry":{"x":172458.54000000097,"y":2549245.7300000023}},{"attributes":{"ID":18358,"DIS_CODE":0,"TOWNNAME":"永康區","LI":"\u25A0行里","LIN":"34鄰","STREET":"中正北路","SECT":" ","MAREA":" ","LANE":"１７７巷","ALLEY":"２０弄","HOUSE_NO":"２２號","E_COORD97":172433.67000000001,"N_COORD97":2549245.23,"ADDRESS":"中正北路１７７巷２０弄２２號","OBJECTID":18358},"geometry":{"x":172433.67000000086,"y":2549245.2300000023}},{"attributes":{"ID":18359,"DIS_CODE":0,"TOWNNAME":"永康區","LI":"\u25A0行里","LIN":"34鄰","STREET":"中正北路","SECT":" ","MAREA":" ","LANE":"１７７巷","ALLEY":"２０弄","HOUSE_NO":"１２號","E_COORD97":172412.51000000001,"N_COORD97":2549244.73,"ADDRESS":"中正北路１７７巷２０弄１２號","OBJECTID":18359},"geometry":{"x":172412.51000000071,"y":2549244.7300000023}},{"attributes":{"ID":18360,"DIS_CODE":0,"TOWNNAME":"學甲區","LI":"秀昌里","LIN":"14鄰","STREET":" ","SECT":" ","MAREA":"下溪洲","LANE":" ","ALLEY":" ","HOUSE_NO":"１號之３０","E_COORD97":165447.26000000001,"N_COORD97":2570982.1000000001,"ADDRESS":"下溪洲１號之３０","OBJECTID":18360},"geometry":{"x":165447.26000000071,"y":2570982.0999999996}},{"attributes":{"ID":18361,"DIS_CODE":0,"TOWNNAME":"永康區","LI":"\u25A0洲里","LIN":"34鄰","STREET":"洲尾街","SECT":" ","MAREA":" ","LANE":"１９１巷","ALLEY":"１１弄","HOUSE_NO":"６號","E_COORD97":170816.5,"N_COORD97":2548980.75,"ADDRESS":"洲尾街１９１巷１１弄６號","OBJECTID":18361},"geometry":{"x":170816.5,"y":2548980.7500000019}},{"attributes":{"ID":18362,"DIS_CODE":0,"TOWNNAME":"永康區","LI":"\u25A0行里","LIN":"34鄰","STREET":"中正北路","SECT":" ","MAREA":" ","LANE":"１７７巷","ALLEY":"２０弄","HOUSE_NO":"７號","E_COORD97":172369.17999999999,"N_COORD97":2549243.2200000002,"ADDRESS":"中正北路１７７巷２０弄７號","OBJECTID":18362},"geometry":{"x":172369.18000000063,"y":2549243.2200000007}},{"attributes":{"ID":18363,"DIS_CODE":0,"TOWNNAME":"永康區","LI":"龍潭里","LIN":"34鄰","STREET":"龍埔街","SECT":" ","MAREA":" ","LANE":"１７５巷","ALLEY":"３弄","HOUSE_NO":"１號","E_COORD97":174461.54999999999,"N_COORD97":2548157.75,"ADDRESS":"龍埔街１７５巷３弄１號","OBJECTID":18363},"geometry":{"x":174461.55000000075,"y":2548157.75}},{"attributes":{"ID":18364,"DIS_CODE":0,"TOWNNAME":"學甲區","LI":"秀昌里","LIN":"14鄰","STREET":" ","SECT":" ","MAREA":"下溪洲","LANE":" ","ALLEY":" ","HOUSE_NO":"１號之３１","E_COORD97":165451.66,"N_COORD97":2570981.1400000001,"ADDRESS":"下溪洲１號之３１","OBJECTID":18364},"geometry":{"x":165451.66000000108,"y":2570981.1400000025}},{"attributes":{"ID":18365,"DIS_CODE":0,"TOWNNAME":"學甲區","LI":"秀昌里","LIN":"14鄰","STREET":" ","SECT":" ","MAREA":"下溪洲","LANE":" ","ALLEY":" ","HOUSE_NO":"１號之３２","E_COORD97":165456.07000000001,"N_COORD97":2570980.1800000002,"ADDRESS":"下溪洲１號之３２","OBJECTID":18365},"geometry":{"x":165456.0700000003,"y":2570980.1800000016}},{"attributes":{"ID":18366,"DIS_CODE":0,"TOWNNAME":"學甲區","LI":"秀昌里","LIN":"14鄰","STREET":" ","SECT":" ","MAREA":"下溪洲","LANE":" ","ALLEY":" ","HOUSE_NO":"１號之３３","E_COORD97":165460.48000000001,"N_COORD97":2570979.2200000002,"ADDRESS":"下溪洲１號之３３","OBJECTID":18366},"geometry":{"x":165460.48000000045,"y":2570979.2200000007}},{"attributes":{"ID":18367,"DIS_CODE":0,"TOWNNAME":"學甲區","LI":"秀昌里","LIN":"14鄰","STREET":" ","SECT":" ","MAREA":"下溪洲","LANE":" ","ALLEY":" ","HOUSE_NO":"１號之３４","E_COORD97":165464.89000000001,"N_COORD97":2570978.2599999998,"ADDRESS":"下溪洲１號之３４","OBJECTID":18367},"geometry":{"x":165464.8900000006,"y":2570978.2599999998}},{"attributes":{"ID":18368,"DIS_CODE":0,"TOWNNAME":"學甲區","LI":"秀昌里","LIN":"14鄰","STREET":" ","SECT":" ","MAREA":"下溪洲","LANE":" ","ALLEY":" ","HOUSE_NO":"１號之３５","E_COORD97":165469.29999999999,"N_COORD97":2570977.2999999998,"ADDRESS":"下溪洲１號之３５","OBJECTID":18368},"geometry":{"x":165469.29999999981,"y":2570977.3000000026}},{"attributes":{"ID":18369,"DIS_CODE":0,"TOWNNAME":"學甲區","LI":"秀昌里","LIN":"14鄰","STREET":" ","SECT":" ","MAREA":"下溪洲","LANE":" ","ALLEY":" ","HOUSE_NO":"１號之３６","E_COORD97":165473.70999999999,"N_COORD97":2570976.3500000001,"ADDRESS":"下溪洲１號之３６","OBJECTID":18369},"geometry":{"x":165473.70999999996,"y":2570976.3500000015}},{"attributes":{"ID":18370,"DIS_CODE":0,"TOWNNAME":"學甲區","LI":"秀昌里","LIN":"14鄰","STREET":" ","SECT":" ","MAREA":"下溪洲","LANE":" ","ALLEY":" ","HOUSE_NO":"１號之３７","E_COORD97":165478.12,"N_COORD97":2570975.3900000001,"ADDRESS":"下溪洲１號之３７","OBJECTID":18370},"geometry":{"x":165478.12000000011,"y":2570975.3900000006}},{"attributes":{"ID":18371,"DIS_CODE":0,"TOWNNAME":"學甲區","LI":"秀昌里","LIN":"14鄰","STREET":" ","SECT":" ","MAREA":"下溪洲","LANE":" ","ALLEY":" ","HOUSE_NO":"１號之３８","E_COORD97":165482.53,"N_COORD97":2570974.4300000002,"ADDRESS":"下溪洲１號之３８","OBJECTID":18371},"geometry":{"x":165482.53000000212,"y":2570974.4300000034}},{"attributes":{"ID":18372,"DIS_CODE":0,"TOWNNAME":"學甲區","LI":"秀昌里","LIN":"14鄰","STREET":" ","SECT":" ","MAREA":"下溪洲","LANE":" ","ALLEY":" ","HOUSE_NO":"１號之３９","E_COORD97":165486.94,"N_COORD97":2570973.4700000002,"ADDRESS":"下溪洲１號之３９","OBJECTID":18372},"geometry":{"x":165486.94000000134,"y":2570973.4700000025}},{"attributes":{"ID":18373,"DIS_CODE":0,"TOWNNAME":"學甲區","LI":"秀昌里","LIN":"14鄰","STREET":" ","SECT":" ","MAREA":"下溪洲","LANE":" ","ALLEY":" ","HOUSE_NO":"１號之３","E_COORD97":165419.81,"N_COORD97":2570940.7799999998,"ADDRESS":"下溪洲１號之３","OBJECTID":18373},"geometry":{"x":165419.80999999959,"y":2570940.7799999993}},{"attributes":{"ID":18374,"DIS_CODE":0,"TOWNNAME":"學甲區","LI":"秀昌里","LIN":"14鄰","STREET":" ","SECT":" ","MAREA":"下溪洲","LANE":" ","ALLEY":" ","HOUSE_NO":"１號之４０","E_COORD97":165491.35000000001,"N_COORD97":2570972.5099999998,"ADDRESS":"下溪洲１號之４０","OBJECTID":18374},"geometry":{"x":165491.3499999987,"y":2570972.5099999998}},{"attributes":{"ID":18375,"DIS_CODE":0,"TOWNNAME":"學甲區","LI":"秀昌里","LIN":"14鄰","STREET":" ","SECT":" ","MAREA":"下溪洲","LANE":" ","ALLEY":" ","HOUSE_NO":"１號之４１","E_COORD97":165495.76000000001,"N_COORD97":2570971.5600000001,"ADDRESS":"下溪洲１號之４１","OBJECTID":18375},"geometry":{"x":165495.76000000071,"y":2570971.5600000024}},{"attributes":{"ID":18376,"DIS_CODE":0,"TOWNNAME":"學甲區","LI":"秀昌里","LIN":"14鄰","STREET":" ","SECT":" ","MAREA":"下溪洲","LANE":" ","ALLEY":" ","HOUSE_NO":"１號之４２","E_COORD97":165452.45000000001,"N_COORD97":2571002.2999999998,"ADDRESS":"下溪洲１號之４２","OBJECTID":18376},"geometry":{"x":165452.45000000205,"y":2571002.3000000007}},{"attributes":{"ID":18377,"DIS_CODE":0,"TOWNNAME":"學甲區","LI":"秀昌里","LIN":"14鄰","STREET":" ","SECT":" ","MAREA":"下溪洲","LANE":" ","ALLEY":" ","HOUSE_NO":"１號之４３","E_COORD97":165456.73000000001,"N_COORD97":2571001.1499999999,"ADDRESS":"下溪洲１號之４３","OBJECTID":18377},"geometry":{"x":165456.73000000045,"y":2571001.1500000022}},{"attributes":{"ID":18378,"DIS_CODE":0,"TOWNNAME":"學甲區","LI":"秀昌里","LIN":"14鄰","STREET":" ","SECT":" ","MAREA":"下溪洲","LANE":" ","ALLEY":" ","HOUSE_NO":"１號之４４","E_COORD97":165461.01000000001,"N_COORD97":2571000,"ADDRESS":"下溪洲１號之４４","OBJECTID":18378},"geometry":{"x":165461.00999999978,"y":2571000}},{"attributes":{"ID":18379,"DIS_CODE":0,"TOWNNAME":"學甲區","LI":"秀昌里","LIN":"14鄰","STREET":" ","SECT":" ","MAREA":"下溪洲","LANE":" ","ALLEY":" ","HOUSE_NO":"１號之４５","E_COORD97":165465.29999999999,"N_COORD97":2570998.8500000001,"ADDRESS":"下溪洲１號之４５","OBJECTID":18379},"geometry":{"x":165465.30000000075,"y":2570998.8500000034}},{"attributes":{"ID":18380,"DIS_CODE":0,"TOWNNAME":"學甲區","LI":"秀昌里","LIN":"14鄰","STREET":" ","SECT":" ","MAREA":"下溪洲","LANE":" ","ALLEY":" ","HOUSE_NO":"１號之４６","E_COORD97":165469.57999999999,"N_COORD97":2570997.7000000002,"ADDRESS":"下溪洲１號之４６","OBJECTID":18380},"geometry":{"x":165469.58000000007,"y":2570997.6999999993}},{"attributes":{"ID":18381,"DIS_CODE":0,"TOWNNAME":"學甲區","LI":"秀昌里","LIN":"14鄰","STREET":" ","SECT":" ","MAREA":"下溪洲","LANE":" ","ALLEY":" ","HOUSE_NO":"１號之４７","E_COORD97":165473.85999999999,"N_COORD97":2570996.5499999998,"ADDRESS":"下溪洲１號之４７","OBJECTID":18381},"geometry":{"x":165473.86000000127,"y":2570996.5500000026}},{"attributes":{"ID":18382,"DIS_CODE":0,"TOWNNAME":"學甲區","LI":"秀昌里","LIN":"14鄰","STREET":" ","SECT":" ","MAREA":"下溪洲","LANE":" ","ALLEY":" ","HOUSE_NO":"１號之４８","E_COORD97":165478.14000000001,"N_COORD97":2570995.3999999999,"ADDRESS":"下溪洲１號之４８","OBJECTID":18382},"geometry":{"x":165478.1400000006,"y":2570995.4000000004}},{"attributes":{"ID":18383,"DIS_CODE":0,"TOWNNAME":"學甲區","LI":"秀昌里","LIN":"14鄰","STREET":" ","SECT":" ","MAREA":"下溪洲","LANE":" ","ALLEY":" ","HOUSE_NO":"１號之４９","E_COORD97":165482.42000000001,"N_COORD97":2570994.25,"ADDRESS":"下溪洲１號之４９","OBJECTID":18383},"geometry":{"x":165482.41999999993,"y":2570994.2500000019}},{"attributes":{"ID":18384,"DIS_CODE":0,"TOWNNAME":"學甲區","LI":"秀昌里","LIN":"14鄰","STREET":" ","SECT":" ","MAREA":"下溪洲","LANE":" ","ALLEY":" ","HOUSE_NO":"１號之４","E_COORD97":165420.76999999999,"N_COORD97":2570944.9700000002,"ADDRESS":"下溪洲１號之４","OBJECTID":18384},"geometry":{"x":165420.77000000142,"y":2570944.9700000044}},{"attributes":{"ID":18385,"DIS_CODE":0,"TOWNNAME":"學甲區","LI":"秀昌里","LIN":"14鄰","STREET":" ","SECT":" ","MAREA":"下溪洲","LANE":" ","ALLEY":" ","HOUSE_NO":"１號之５０","E_COORD97":165486.70000000001,"N_COORD97":2570993.1000000001,"ADDRESS":"下溪洲１號之５０","OBJECTID":18385},"geometry":{"x":165486.70000000112,"y":2570993.0999999996}},{"attributes":{"ID":18386,"DIS_CODE":0,"TOWNNAME":"學甲區","LI":"秀昌里","LIN":"14鄰","STREET":" ","SECT":" ","MAREA":"下溪洲","LANE":" ","ALLEY":" ","HOUSE_NO":"１號之５１","E_COORD97":165490.98999999999,"N_COORD97":2570991.9500000002,"ADDRESS":"下溪洲１號之５１","OBJECTID":18386},"geometry":{"x":165490.99000000022,"y":2570991.9500000011}},{"attributes":{"ID":18387,"DIS_CODE":0,"TOWNNAME":"學甲區","LI":"秀昌里","LIN":"14鄰","STREET":" ","SECT":" ","MAREA":"下溪洲","LANE":" ","ALLEY":" ","HOUSE_NO":"１號之５２","E_COORD97":165495.26999999999,"N_COORD97":2570990.7999999998,"ADDRESS":"下溪洲１號之５２","OBJECTID":18387},"geometry":{"x":165495.27000000142,"y":2570990.8000000026}},{"attributes":{"ID":18388,"DIS_CODE":0,"TOWNNAME":"學甲區","LI":"秀昌里","LIN":"14鄰","STREET":" ","SECT":" ","MAREA":"下溪洲","LANE":" ","ALLEY":" ","HOUSE_NO":"１號之５３","E_COORD97":165499.54999999999,"N_COORD97":2570989.6499999999,"ADDRESS":"下溪洲１號之５３","OBJECTID":18388},"geometry":{"x":165499.55000000075,"y":2570989.6500000004}},{"attributes":{"ID":18389,"DIS_CODE":0,"TOWNNAME":"學甲區","LI":"秀昌里","LIN":"14鄰","STREET":" ","SECT":" ","MAREA":"下溪洲","LANE":" ","ALLEY":" ","HOUSE_NO":"１號之５８","E_COORD97":165445.85999999999,"N_COORD97":2571049.71,"ADDRESS":"下溪洲１號之５８","OBJECTID":18389},"geometry":{"x":165445.86000000034,"y":2571049.7100000028}},{"attributes":{"ID":18390,"DIS_CODE":0,"TOWNNAME":"學甲區","LI":"秀昌里","LIN":"14鄰","STREET":" ","SECT":" ","MAREA":"下溪洲","LANE":" ","ALLEY":" ","HOUSE_NO":"１號之５９","E_COORD97":165447.35000000001,"N_COORD97":2571054.0800000001,"ADDRESS":"下溪洲１號之５９","OBJECTID":18390},"geometry":{"x":165447.35000000149,"y":2571054.0800000001}},{"attributes":{"ID":18391,"DIS_CODE":0,"TOWNNAME":"學甲區","LI":"秀昌里","LIN":"14鄰","STREET":" ","SECT":" ","MAREA":"下溪洲","LANE":" ","ALLEY":" ","HOUSE_NO":"１號之５","E_COORD97":165421.73999999999,"N_COORD97":2570949.3900000001,"ADDRESS":"下溪洲１號之５","OBJECTID":18391},"geometry":{"x":165421.74000000209,"y":2570949.3900000025}},{"attributes":{"ID":18392,"DIS_CODE":0,"TOWNNAME":"學甲區","LI":"秀昌里","LIN":"14鄰","STREET":" ","SECT":" ","MAREA":"下溪洲","LANE":" ","ALLEY":" ","HOUSE_NO":"１號之６０","E_COORD97":165448.14999999999,"N_COORD97":2571059.1899999999,"ADDRESS":"下溪洲１號之６０","OBJECTID":18392},"geometry":{"x":165448.1500000013,"y":2571059.1899999995}},{"attributes":{"ID":18393,"DIS_CODE":0,"TOWNNAME":"學甲區","LI":"秀昌里","LIN":"14鄰","STREET":" ","SECT":" ","MAREA":"下溪洲","LANE":" ","ALLEY":" ","HOUSE_NO":"１號之６１","E_COORD97":165449.35000000001,"N_COORD97":2571063.6400000001,"ADDRESS":"下溪洲１號之６１","OBJECTID":18393},"geometry":{"x":165449.35000000056,"y":2571063.6400000025}},{"attributes":{"ID":18394,"DIS_CODE":0,"TOWNNAME":"學甲區","LI":"秀昌里","LIN":"14鄰","STREET":" ","SECT":" ","MAREA":"下溪洲","LANE":" ","ALLEY":" ","HOUSE_NO":"１號之６２","E_COORD97":165460.56,"N_COORD97":2571047.8700000001,"ADDRESS":"下溪洲１號之６２","OBJECTID":18394},"geometry":{"x":165460.55999999959,"y":2571047.8700000029}},{"attributes":{"ID":18395,"DIS_CODE":0,"TOWNNAME":"學甲區","LI":"秀昌里","LIN":"14鄰","STREET":" ","SECT":" ","MAREA":"下溪洲","LANE":" ","ALLEY":" ","HOUSE_NO":"１號之６３","E_COORD97":165464.78,"N_COORD97":2571046.2999999998,"ADDRESS":"下溪洲１號之６３","OBJECTID":18395},"geometry":{"x":165464.78000000026,"y":2571046.3000000007}},{"attributes":{"ID":18396,"DIS_CODE":0,"TOWNNAME":"學甲區","LI":"秀昌里","LIN":"14鄰","STREET":" ","SECT":" ","MAREA":"下溪洲","LANE":" ","ALLEY":" ","HOUSE_NO":"１號之６４","E_COORD97":165469.29999999999,"N_COORD97":2571045.1800000002,"ADDRESS":"下溪洲１號之６４","OBJECTID":18396},"geometry":{"x":165469.29999999981,"y":2571045.1800000016}},{"attributes":{"ID":18397,"DIS_CODE":0,"TOWNNAME":"學甲區","LI":"秀昌里","LIN":"14鄰","STREET":" ","SECT":" ","MAREA":"下溪洲","LANE":" ","ALLEY":" ","HOUSE_NO":"１號之６５","E_COORD97":165474.04000000001,"N_COORD97":2571043.9500000002,"ADDRESS":"下溪洲１號之６５","OBJECTID":18397},"geometry":{"x":165474.04000000097,"y":2571043.9499999993}},{"attributes":{"ID":18398,"DIS_CODE":0,"TOWNNAME":"學甲區","LI":"秀昌里","LIN":"14鄰","STREET":" ","SECT":" ","MAREA":"下溪洲","LANE":" ","ALLEY":" ","HOUSE_NO":"１號之６６","E_COORD97":165478.57999999999,"N_COORD97":2571042.7999999998,"ADDRESS":"下溪洲１號之６６","OBJECTID":18398},"geometry":{"x":165478.58000000194,"y":2571042.8000000007}},{"attributes":{"ID":18399,"DIS_CODE":0,"TOWNNAME":"學甲區","LI":"秀昌里","LIN":"14鄰","STREET":" ","SECT":" ","MAREA":"下溪洲","LANE":" ","ALLEY":" ","HOUSE_NO":"１號之６７","E_COORD97":165483.07999999999,"N_COORD97":2571041.4399999999,"ADDRESS":"下溪洲１號之６７","OBJECTID":18399},"geometry":{"x":165483.08000000007,"y":2571041.4399999995}},{"attributes":{"ID":18400,"DIS_CODE":0,"TOWNNAME":"永康區","LI":"龍潭里","LIN":"34鄰","STREET":"龍埔街","SECT":" ","MAREA":" ","LANE":"１７５巷","ALLEY":"３弄","HOUSE_NO":"９號","E_COORD97":174477.13,"N_COORD97":2548156.5,"ADDRESS":"龍埔街１７５巷３弄９號","OBJECTID":18400},"geometry":{"x":174477.12999999989,"y":2548156.5}}]}