{"displayFieldName":"TOWNNAME","fieldAliases":{"ID":"ID","DIS_CODE":"DIS_CODE","TOWNNAME":"TOWNNAME","LI":"LI","LIN":"LIN","STREET":"STREET","SECT":"SECT","MAREA":"MAREA","LANE":"LANE","ALLEY":"ALLEY","HOUSE_NO":"HOUSE_NO","E_COORD97":"E_COORD97","N_COORD97":"N_COORD97","ADDRESS":"ADDRESS","OBJECTID":"OBJECTID"},"geometryType":"esriGeometryPoint","spatialReference":{"wkid":102443,"latestWkid":3826},"fields":[{"name":"ID","type":"esriFieldTypeDouble","alias":"ID"},{"name":"DIS_CODE","type":"esriFieldTypeInteger","alias":"DIS_CODE"},{"name":"TOWNNAME","type":"esriFieldTypeString","alias":"TOWNNAME","length":8},{"name":"LI","type":"esriFieldTypeString","alias":"LI","length":8},{"name":"LIN","type":"esriFieldTypeString","alias":"LIN","length":12},{"name":"STREET","type":"esriFieldTypeString","alias":"STREET","length":20},{"name":"SECT","type":"esriFieldTypeString","alias":"SECT","length":8},{"name":"MAREA","type":"esriFieldTypeString","alias":"MAREA","length":12},{"name":"LANE","type":"esriFieldTypeString","alias":"LANE","length":10},{"name":"ALLEY","type":"esriFieldTypeString","alias":"ALLEY","length":10},{"name":"HOUSE_NO","type":"esriFieldTypeString","alias":"HOUSE_NO","length":20},{"name":"E_COORD97","type":"esriFieldTypeDouble","alias":"E_COORD97"},{"name":"N_COORD97","type":"esriFieldTypeDouble","alias":"N_COORD97"},{"name":"ADDRESS","type":"esriFieldTypeString","alias":"ADDRESS","length":50},{"name":"OBJECTID","type":"esriFieldTypeOID","alias":"OBJECTID"}],"features":[{"attributes":{"ID":6801,"DIS_CODE":0,"TOWNNAME":"東山區","LI":"科里里","LIN":"22鄰","STREET":" ","SECT":" ","MAREA":"枋子林","LANE":" ","ALLEY":" ","HOUSE_NO":"８３號","E_COORD97":189035.973378,"N_COORD97":2576992.9879899998,"ADDRESS":"枋子林８３號","OBJECTID":6801},"geometry":{"x":189035.97337800078,"y":2576992.9879890028}},{"attributes":{"ID":6802,"DIS_CODE":0,"TOWNNAME":"安南區","LI":"溪東里","LIN":"1鄰","STREET":"府安路","SECT":"五段","MAREA":" ","LANE":" ","ALLEY":" ","HOUSE_NO":"１２８號","E_COORD97":167938.22047999999,"N_COORD97":2547090.9164300002,"ADDRESS":"府安路五段１２８號","OBJECTID":6802},"geometry":{"x":167938.22047999967,"y":2547090.9164300021}},{"attributes":{"ID":6803,"DIS_CODE":0,"TOWNNAME":"安南區","LI":"溪東里","LIN":"1鄰","STREET":"府安路","SECT":"五段","MAREA":" ","LANE":" ","ALLEY":" ","HOUSE_NO":"１２９號","E_COORD97":167933.98564,"N_COORD97":2547090.28143,"ADDRESS":"府安路五段１２９號","OBJECTID":6803},"geometry":{"x":167933.98564000055,"y":2547090.2814300023}},{"attributes":{"ID":6804,"DIS_CODE":0,"TOWNNAME":"東山區","LI":"科里里","LIN":"9鄰","STREET":" ","SECT":" ","MAREA":"科里","LANE":" ","ALLEY":" ","HOUSE_NO":"１３７號","E_COORD97":190005.412541,"N_COORD97":2578208.5890000002,"ADDRESS":"科里１３７號","OBJECTID":6804},"geometry":{"x":190005.41254100017,"y":2578208.5889989994}},{"attributes":{"ID":6805,"DIS_CODE":0,"TOWNNAME":"安南區","LI":"溪東里","LIN":"1鄰","STREET":"府安路","SECT":"五段","MAREA":" ","LANE":"１３０巷","ALLEY":" ","HOUSE_NO":"２號","E_COORD97":167926.78641,"N_COORD97":2547117.58641,"ADDRESS":"府安路五段１３０巷２號","OBJECTID":6805},"geometry":{"x":167926.78641000018,"y":2547117.5864100009}},{"attributes":{"ID":6806,"DIS_CODE":0,"TOWNNAME":"安南區","LI":"溪東里","LIN":"1鄰","STREET":"府安路","SECT":"五段","MAREA":" ","LANE":"１３０巷","ALLEY":" ","HOUSE_NO":"１０號","E_COORD97":167921.28112,"N_COORD97":2547147.6430600001,"ADDRESS":"府安路五段１３０巷１０號","OBJECTID":6806},"geometry":{"x":167921.28112000134,"y":2547147.6430600025}},{"attributes":{"ID":6807,"DIS_CODE":0,"TOWNNAME":"永康區","LI":"永康里","LIN":"37鄰","STREET":"西勢路","SECT":" ","MAREA":" ","LANE":" ","ALLEY":" ","HOUSE_NO":"７２８號","E_COORD97":174557.811843,"N_COORD97":2546757.3181599998,"ADDRESS":"西勢路７２８號","OBJECTID":6807},"geometry":{"x":174557.81184300035,"y":2546757.3181560021}},{"attributes":{"ID":6808,"DIS_CODE":0,"TOWNNAME":"安南區","LI":"溪東里","LIN":"1鄰","STREET":"府安路","SECT":"五段","MAREA":" ","LANE":"１３０巷","ALLEY":" ","HOUSE_NO":"８號","E_COORD97":167922.12809000001,"N_COORD97":2547138.5414,"ADDRESS":"府安路五段１３０巷８號","OBJECTID":6808},"geometry":{"x":167922.12808999978,"y":2547138.5414000005}},{"attributes":{"ID":6809,"DIS_CODE":0,"TOWNNAME":"安南區","LI":"溪東里","LIN":"1鄰","STREET":"府安路","SECT":"五段","MAREA":" ","LANE":"１３０巷","ALLEY":" ","HOUSE_NO":"６號","E_COORD97":167923.610288,"N_COORD97":2547130.0747400001,"ADDRESS":"府安路五段１３０巷６號","OBJECTID":6809},"geometry":{"x":167923.61028800067,"y":2547130.0747420024}},{"attributes":{"ID":6810,"DIS_CODE":0,"TOWNNAME":"永康區","LI":"永康里","LIN":"37鄰","STREET":"西勢路","SECT":" ","MAREA":" ","LANE":"７３８巷","ALLEY":" ","HOUSE_NO":"８號","E_COORD97":174552.72501200001,"N_COORD97":2546772.5581499999,"ADDRESS":"西勢路７３８巷８號","OBJECTID":6810},"geometry":{"x":174552.72501199972,"y":2546772.5581480023}},{"attributes":{"ID":6811,"DIS_CODE":0,"TOWNNAME":"永康區","LI":"永康里","LIN":"37鄰","STREET":"西勢路","SECT":" ","MAREA":" ","LANE":" ","ALLEY":" ","HOUSE_NO":"７３０號","E_COORD97":174554.63257399999,"N_COORD97":2546756.0481599998,"ADDRESS":"西勢路７３０號","OBJECTID":6811},"geometry":{"x":174554.6325740004,"y":2546756.0481570009}},{"attributes":{"ID":6812,"DIS_CODE":0,"TOWNNAME":"安南區","LI":"溪東里","LIN":"1鄰","STREET":"府安路","SECT":"五段","MAREA":" ","LANE":"１３０巷","ALLEY":" ","HOUSE_NO":"１２號","E_COORD97":167915.56409299999,"N_COORD97":2547171.5613899999,"ADDRESS":"府安路五段１３０巷１２號","OBJECTID":6812},"geometry":{"x":167915.56409300026,"y":2547171.5613860022}},{"attributes":{"ID":6813,"DIS_CODE":0,"TOWNNAME":"永康區","LI":"永康里","LIN":"37鄰","STREET":"西勢路","SECT":" ","MAREA":" ","LANE":" ","ALLEY":" ","HOUSE_NO":"７２２號","E_COORD97":174569.46916499999,"N_COORD97":2546759.22315,"ADDRESS":"西勢路７２２號","OBJECTID":6813},"geometry":{"x":174569.46916500013,"y":2546759.2231550012}},{"attributes":{"ID":6814,"DIS_CODE":0,"TOWNNAME":"永康區","LI":"永康里","LIN":"37鄰","STREET":"西勢路","SECT":" ","MAREA":" ","LANE":" ","ALLEY":" ","HOUSE_NO":"７２０號","E_COORD97":174575.40380100001,"N_COORD97":2546761.1281499998,"ADDRESS":"西勢路７２０號","OBJECTID":6814},"geometry":{"x":174575.40380100161,"y":2546761.1281540003}},{"attributes":{"ID":6815,"DIS_CODE":0,"TOWNNAME":"安南區","LI":"溪東里","LIN":"1鄰","STREET":"府安路","SECT":"五段","MAREA":" ","LANE":"１３０巷","ALLEY":" ","HOUSE_NO":"１６號","E_COORD97":167909.423576,"N_COORD97":2547194.4213700001,"ADDRESS":"府安路五段１３０巷１６號","OBJECTID":6815},"geometry":{"x":167909.42357600015,"y":2547194.4213740025}},{"attributes":{"ID":6816,"DIS_CODE":0,"TOWNNAME":"安南區","LI":"溪東里","LIN":"1鄰","STREET":"府安路","SECT":"五段","MAREA":" ","LANE":"１３０巷","ALLEY":" ","HOUSE_NO":"１８號","E_COORD97":167906.88267299999,"N_COORD97":2547204.15803,"ADDRESS":"府安路五段１３０巷１８號","OBJECTID":6816},"geometry":{"x":167906.88267299999,"y":2547204.1580349971}},{"attributes":{"ID":6817,"DIS_CODE":0,"TOWNNAME":"永康區","LI":"永康里","LIN":"37鄰","STREET":"西勢路","SECT":" ","MAREA":" ","LANE":" ","ALLEY":" ","HOUSE_NO":"７１８號","E_COORD97":174581.97429099999,"N_COORD97":2546762.6098199999,"ADDRESS":"西勢路７１８號","OBJECTID":6817},"geometry":{"x":174581.97429099865,"y":2546762.6098200027}},{"attributes":{"ID":6818,"DIS_CODE":0,"TOWNNAME":"安南區","LI":"溪東里","LIN":"1鄰","STREET":"府安路","SECT":"五段","MAREA":" ","LANE":"１３０巷","ALLEY":" ","HOUSE_NO":"２０號","E_COORD97":167905.61222099999,"N_COORD97":2547209.6613699999,"ADDRESS":"府安路五段１３０巷２０號","OBJECTID":6818},"geometry":{"x":167905.61222099885,"y":2547209.6613660045}},{"attributes":{"ID":6819,"DIS_CODE":0,"TOWNNAME":"安南區","LI":"溪東里","LIN":"1鄰","STREET":"府安路","SECT":"五段","MAREA":" ","LANE":"１３０巷","ALLEY":" ","HOUSE_NO":"２２號","E_COORD97":167904.34176899999,"N_COORD97":2547216.8580299998,"ADDRESS":"府安路五段１３０巷２２號","OBJECTID":6819},"geometry":{"x":167904.34176900052,"y":2547216.8580280002}},{"attributes":{"ID":6820,"DIS_CODE":0,"TOWNNAME":"永康區","LI":"永康里","LIN":"37鄰","STREET":"西勢路","SECT":" ","MAREA":" ","LANE":"７３８巷","ALLEY":" ","HOUSE_NO":"１０號","E_COORD97":174551.24135299999,"N_COORD97":2546777.84981,"ADDRESS":"西勢路７３８巷１０號","OBJECTID":6820},"geometry":{"x":174551.24135300051,"y":2546777.8498120029}},{"attributes":{"ID":6821,"DIS_CODE":0,"TOWNNAME":"安南區","LI":"溪東里","LIN":"1鄰","STREET":"府安路","SECT":"五段","MAREA":" ","LANE":"１３０巷","ALLEY":" ","HOUSE_NO":"２６號","E_COORD97":167903.28305900001,"N_COORD97":2547221.09136,"ADDRESS":"府安路五段１３０巷２６號","OBJECTID":6821},"geometry":{"x":167903.28305900004,"y":2547221.0913590025}},{"attributes":{"ID":6822,"DIS_CODE":0,"TOWNNAME":"永康區","LI":"永康里","LIN":"37鄰","STREET":"西勢路","SECT":" ","MAREA":" ","LANE":"７３８巷","ALLEY":" ","HOUSE_NO":"１２號","E_COORD97":174549.545743,"N_COORD97":2546782.0831399998,"ADDRESS":"西勢路７３８巷１２號","OBJECTID":6822},"geometry":{"x":174549.54574299976,"y":2546782.0831430014}},{"attributes":{"ID":6823,"DIS_CODE":0,"TOWNNAME":"安南區","LI":"溪東里","LIN":"1鄰","STREET":"府安路","SECT":"五段","MAREA":" ","LANE":"１３０巷","ALLEY":" ","HOUSE_NO":"２８號","E_COORD97":167901.58912300001,"N_COORD97":2547227.4413600001,"ADDRESS":"府安路五段１３０巷２８號","OBJECTID":6823},"geometry":{"x":167901.58912300039,"y":2547227.4413560014}},{"attributes":{"ID":6824,"DIS_CODE":0,"TOWNNAME":"安南區","LI":"溪東里","LIN":"1鄰","STREET":"府安路","SECT":"五段","MAREA":" ","LANE":"１３０巷","ALLEY":" ","HOUSE_NO":"３０號","E_COORD97":167900.31867199999,"N_COORD97":2547234.4263499998,"ADDRESS":"府安路五段１３０巷３０號","OBJECTID":6824},"geometry":{"x":167900.31867200136,"y":2547234.4263519999}},{"attributes":{"ID":6825,"DIS_CODE":0,"TOWNNAME":"安南區","LI":"溪東里","LIN":"1鄰","STREET":"府安路","SECT":"五段","MAREA":" ","LANE":"１３０巷","ALLEY":" ","HOUSE_NO":"３２號","E_COORD97":167899.471704,"N_COORD97":2547239.71802,"ADDRESS":"府安路五段１３０巷３２號","OBJECTID":6825},"geometry":{"x":167899.47170399968,"y":2547239.7180160005}},{"attributes":{"ID":6826,"DIS_CODE":0,"TOWNNAME":"安南區","LI":"溪東里","LIN":"1鄰","STREET":"府安路","SECT":"五段","MAREA":" ","LANE":"１３０巷","ALLEY":" ","HOUSE_NO":"３６號","E_COORD97":167897.98951000001,"N_COORD97":2547246.9146799999,"ADDRESS":"府安路五段１３０巷３６號","OBJECTID":6826},"geometry":{"x":167897.98951000068,"y":2547246.9146790002}},{"attributes":{"ID":6827,"DIS_CODE":0,"TOWNNAME":"安南區","LI":"溪東里","LIN":"1鄰","STREET":"府安路","SECT":"五段","MAREA":" ","LANE":"１３０巷","ALLEY":" ","HOUSE_NO":"３８號","E_COORD97":167896.507316,"N_COORD97":2547254.1113399998,"ADDRESS":"府安路五段１３０巷３８號","OBJECTID":6827},"geometry":{"x":167896.50731600076,"y":2547254.1113420017}},{"attributes":{"ID":6828,"DIS_CODE":0,"TOWNNAME":"安南區","LI":"溪東里","LIN":"1鄰","STREET":"府安路","SECT":"五段","MAREA":" ","LANE":"１３０巷","ALLEY":" ","HOUSE_NO":"４２號","E_COORD97":167895.02512199999,"N_COORD97":2547262.7896699999,"ADDRESS":"府安路五段１３０巷４２號","OBJECTID":6828},"geometry":{"x":167895.0251219999,"y":2547262.7896700036}},{"attributes":{"ID":6829,"DIS_CODE":0,"TOWNNAME":"東山區","LI":"科里里","LIN":"7鄰","STREET":" ","SECT":" ","MAREA":"科里","LANE":" ","ALLEY":" ","HOUSE_NO":"２１號","E_COORD97":189911.11736599999,"N_COORD97":2578298.7589500002,"ADDRESS":"科里２１號","OBJECTID":6829},"geometry":{"x":189911.11736600101,"y":2578298.7589510027}},{"attributes":{"ID":6830,"DIS_CODE":0,"TOWNNAME":"安南區","LI":"溪東里","LIN":"1鄰","STREET":"府安路","SECT":"五段","MAREA":" ","LANE":"１３０巷","ALLEY":" ","HOUSE_NO":"４６號","E_COORD97":167893.75466999999,"N_COORD97":2547269.1396699999,"ADDRESS":"府安路五段１３０巷４６號","OBJECTID":6830},"geometry":{"x":167893.75467000157,"y":2547269.1396670006}},{"attributes":{"ID":6831,"DIS_CODE":0,"TOWNNAME":"安南區","LI":"溪東里","LIN":"1鄰","STREET":"府安路","SECT":"五段","MAREA":" ","LANE":"１３０巷","ALLEY":" ","HOUSE_NO":"５０號","E_COORD97":167892.69596099999,"N_COORD97":2547273.5846600002,"ADDRESS":"府安路五段１３０巷５０號","OBJECTID":6831},"geometry":{"x":167892.6959610004,"y":2547273.5846640021}},{"attributes":{"ID":6832,"DIS_CODE":0,"TOWNNAME":"安南區","LI":"溪東里","LIN":"1鄰","STREET":"府安路","SECT":"五段","MAREA":" ","LANE":"１３０巷","ALLEY":" ","HOUSE_NO":"５２號","E_COORD97":167892.27247699999,"N_COORD97":2547280.1463299999,"ADDRESS":"府安路五段１３０巷５２號","OBJECTID":6832},"geometry":{"x":167892.27247700095,"y":2547280.146327002}},{"attributes":{"ID":6833,"DIS_CODE":0,"TOWNNAME":"安南區","LI":"溪東里","LIN":"1鄰","STREET":"府安路","SECT":"五段","MAREA":" ","LANE":"１３０巷","ALLEY":" ","HOUSE_NO":"５６號","E_COORD97":167891.42550899999,"N_COORD97":2547287.1313200002,"ADDRESS":"府安路五段１３０巷５６號","OBJECTID":6833},"geometry":{"x":167891.42550900113,"y":2547287.1313240007}},{"attributes":{"ID":6834,"DIS_CODE":0,"TOWNNAME":"安南區","LI":"溪東里","LIN":"1鄰","STREET":"府安路","SECT":"五段","MAREA":" ","LANE":"１３０巷","ALLEY":" ","HOUSE_NO":"５８號","E_COORD97":167889.94331500001,"N_COORD97":2547296.8679800001,"ADDRESS":"府安路五段１３０巷５８號","OBJECTID":6834},"geometry":{"x":167889.94331500027,"y":2547296.8679850008}},{"attributes":{"ID":6835,"DIS_CODE":0,"TOWNNAME":"安南區","LI":"溪東里","LIN":"1鄰","STREET":"府安路","SECT":"五段","MAREA":" ","LANE":"１３０巷","ALLEY":" ","HOUSE_NO":"６０號","E_COORD97":167888.461121,"N_COORD97":2547306.1813099999,"ADDRESS":"府安路五段１３０巷６０號","OBJECTID":6835},"geometry":{"x":167888.46112100128,"y":2547306.1813130025}},{"attributes":{"ID":6836,"DIS_CODE":0,"TOWNNAME":"東山區","LI":"科里里","LIN":"7鄰","STREET":" ","SECT":" ","MAREA":"科里","LANE":" ","ALLEY":" ","HOUSE_NO":"２８號之１","E_COORD97":189972.99195,"N_COORD97":2578286.6939500002,"ADDRESS":"科里２８號之１","OBJECTID":6836},"geometry":{"x":189972.99195000157,"y":2578286.6939500012}},{"attributes":{"ID":6837,"DIS_CODE":0,"TOWNNAME":"安南區","LI":"溪東里","LIN":"1鄰","STREET":"府安路","SECT":"五段","MAREA":" ","LANE":"１３０巷","ALLEY":" ","HOUSE_NO":"６２號","E_COORD97":167886.97892699999,"N_COORD97":2547315.4946400002,"ADDRESS":"府安路五段１３０巷６２號","OBJECTID":6837},"geometry":{"x":167886.97892700229,"y":2547315.4946420025}},{"attributes":{"ID":6838,"DIS_CODE":0,"TOWNNAME":"永康區","LI":"烏竹里","LIN":"17鄰","STREET":"龍橋街","SECT":" ","MAREA":" ","LANE":" ","ALLEY":" ","HOUSE_NO":"２８３號","E_COORD97":174546.366473,"N_COORD97":2548901.8178300001,"ADDRESS":"龍橋街２８３號","OBJECTID":6838},"geometry":{"x":174546.3664730005,"y":2548901.8178320006}},{"attributes":{"ID":6839,"DIS_CODE":0,"TOWNNAME":"永康區","LI":"烏竹里","LIN":"17鄰","STREET":"龍橋街","SECT":" ","MAREA":" ","LANE":" ","ALLEY":" ","HOUSE_NO":"２８５號","E_COORD97":174543.82305800001,"N_COORD97":2548908.8028299999,"ADDRESS":"龍橋街２８５號","OBJECTID":6839},"geometry":{"x":174543.82305799983,"y":2548908.802827999}},{"attributes":{"ID":6840,"DIS_CODE":0,"TOWNNAME":"安南區","LI":"溪東里","LIN":"1鄰","STREET":"府安路","SECT":"五段","MAREA":" ","LANE":"１３０巷","ALLEY":" ","HOUSE_NO":"２５號","E_COORD97":167897.24841299999,"N_COORD97":2547219.9271900002,"ADDRESS":"府安路五段１３０巷２５號","OBJECTID":6840},"geometry":{"x":167897.24841300212,"y":2547219.9271930028}},{"attributes":{"ID":6841,"DIS_CODE":0,"TOWNNAME":"安南區","LI":"溪東里","LIN":"1鄰","STREET":"府安路","SECT":"五段","MAREA":" ","LANE":"１３０巷","ALLEY":" ","HOUSE_NO":"２７號","E_COORD97":167895.130993,"N_COORD97":2547226.4888599999,"ADDRESS":"府安路五段１３０巷２７號","OBJECTID":6841},"geometry":{"x":167895.13099300116,"y":2547226.488855999}},{"attributes":{"ID":6842,"DIS_CODE":0,"TOWNNAME":"安南區","LI":"溪東里","LIN":"1鄰","STREET":"府安路","SECT":"五段","MAREA":" ","LANE":"１３０巷","ALLEY":" ","HOUSE_NO":"２９號","E_COORD97":167894.07228299999,"N_COORD97":2547233.2621900002,"ADDRESS":"府安路五段１３０巷２９號","OBJECTID":6842},"geometry":{"x":167894.07228300069,"y":2547233.262186002}},{"attributes":{"ID":6843,"DIS_CODE":0,"TOWNNAME":"永康區","LI":"永康里","LIN":"25鄰","STREET":"永大路","SECT":"三段","MAREA":" ","LANE":" ","ALLEY":" ","HOUSE_NO":"５１號","E_COORD97":174157.43584799999,"N_COORD97":2547685.05265,"ADDRESS":"永大路三段５１號","OBJECTID":6843},"geometry":{"x":174157.43584799953,"y":2547685.0526550002}},{"attributes":{"ID":6844,"DIS_CODE":0,"TOWNNAME":"安南區","LI":"溪東里","LIN":"1鄰","STREET":"府安路","SECT":"五段","MAREA":" ","LANE":"１３０巷","ALLEY":" ","HOUSE_NO":"３１號","E_COORD97":167893.225316,"N_COORD97":2547240.0355199999,"ADDRESS":"府安路五段１３０巷３１號","OBJECTID":6844},"geometry":{"x":167893.22531600017,"y":2547240.0355159976}},{"attributes":{"ID":6845,"DIS_CODE":0,"TOWNNAME":"永康區","LI":"永康里","LIN":"31鄰","STREET":"永大路","SECT":"三段","MAREA":" ","LANE":" ","ALLEY":" ","HOUSE_NO":"８０號","E_COORD97":174195.79903299999,"N_COORD97":2547770.7776100002,"ADDRESS":"永大路三段８０號","OBJECTID":6845},"geometry":{"x":174195.79903300107,"y":2547770.777609}},{"attributes":{"ID":6846,"DIS_CODE":0,"TOWNNAME":"安南區","LI":"溪東里","LIN":"1鄰","STREET":"府安路","SECT":"五段","MAREA":" ","LANE":"１３０巷","ALLEY":" ","HOUSE_NO":"３３號","E_COORD97":167891.954864,"N_COORD97":2547246.3855099999,"ADDRESS":"府安路五段１３０巷３３號","OBJECTID":6846},"geometry":{"x":167891.95486399904,"y":2547246.3855120018}},{"attributes":{"ID":6847,"DIS_CODE":0,"TOWNNAME":"安南區","LI":"溪東里","LIN":"1鄰","STREET":"府安路","SECT":"五段","MAREA":" ","LANE":"１３０巷","ALLEY":" ","HOUSE_NO":"３５號","E_COORD97":167889.837444,"N_COORD97":2547252.73551,"ADDRESS":"府安路五段１３０巷３５號","OBJECTID":6847},"geometry":{"x":167889.83744400088,"y":2547252.7355090007}},{"attributes":{"ID":6848,"DIS_CODE":0,"TOWNNAME":"仁德區","LI":"後壁里","LIN":"31鄰","STREET":"德洋路","SECT":" ","MAREA":" ","LANE":" ","ALLEY":" ","HOUSE_NO":"１２６號","E_COORD97":172745.67550000001,"N_COORD97":2539274.95096,"ADDRESS":"德洋路１２６號","OBJECTID":6848},"geometry":{"x":172745.6754999999,"y":2539274.950956}},{"attributes":{"ID":6849,"DIS_CODE":0,"TOWNNAME":"安南區","LI":"溪東里","LIN":"1鄰","STREET":"府安路","SECT":"五段","MAREA":" ","LANE":"１３０巷","ALLEY":" ","HOUSE_NO":"３７號","E_COORD97":167887.93176599999,"N_COORD97":2547262.6838400001,"ADDRESS":"府安路五段１３０巷３７號","OBJECTID":6849},"geometry":{"x":167887.93176600058,"y":2547262.6838370021}},{"attributes":{"ID":6850,"DIS_CODE":0,"TOWNNAME":"安南區","LI":"溪東里","LIN":"1鄰","STREET":"府安路","SECT":"五段","MAREA":" ","LANE":"１３０巷","ALLEY":" ","HOUSE_NO":"３９號","E_COORD97":167887.29654000001,"N_COORD97":2547267.3404999999,"ADDRESS":"府安路五段１３０巷３９號","OBJECTID":6850},"geometry":{"x":167887.29653999954,"y":2547267.3405009992}},{"attributes":{"ID":6851,"DIS_CODE":0,"TOWNNAME":"安南區","LI":"溪東里","LIN":"1鄰","STREET":"府安路","SECT":"五段","MAREA":" ","LANE":"１３０巷","ALLEY":" ","HOUSE_NO":"４１號","E_COORD97":167886.23783,"N_COORD97":2547273.0554999998,"ADDRESS":"府安路五段１３０巷４１號","OBJECTID":6851},"geometry":{"x":167886.23783000093,"y":2547273.0554980021}},{"attributes":{"ID":6852,"DIS_CODE":0,"TOWNNAME":"安南區","LI":"溪東里","LIN":"1鄰","STREET":"府安路","SECT":"五段","MAREA":" ","LANE":"１３０巷","ALLEY":" ","HOUSE_NO":"４３號","E_COORD97":167885.60260499999,"N_COORD97":2547278.9821600001,"ADDRESS":"府安路五段１３０巷４３號","OBJECTID":6852},"geometry":{"x":167885.60260500107,"y":2547278.9821610022}},{"attributes":{"ID":6853,"DIS_CODE":0,"TOWNNAME":"安南區","LI":"溪東里","LIN":"1鄰","STREET":"府安路","SECT":"五段","MAREA":" ","LANE":"１３０巷","ALLEY":" ","HOUSE_NO":"４５號","E_COORD97":167884.332153,"N_COORD97":2547285.5438299999,"ADDRESS":"府安路五段１３０巷４５號","OBJECTID":6853},"geometry":{"x":167884.33215299994,"y":2547285.5438250024}},{"attributes":{"ID":6854,"DIS_CODE":0,"TOWNNAME":"安南區","LI":"溪東里","LIN":"1鄰","STREET":"府安路","SECT":"五段","MAREA":" ","LANE":"１３０巷","ALLEY":" ","HOUSE_NO":"４７號","E_COORD97":167882.638217,"N_COORD97":2547296.3388200002,"ADDRESS":"府安路五段１３０巷４７號","OBJECTID":6854},"geometry":{"x":167882.63821700122,"y":2547296.3388190009}},{"attributes":{"ID":6855,"DIS_CODE":0,"TOWNNAME":"安南區","LI":"溪東里","LIN":"1鄰","STREET":"府安路","SECT":"五段","MAREA":" ","LANE":"１３０巷","ALLEY":" ","HOUSE_NO":"４９號","E_COORD97":167881.791249,"N_COORD97":2547305.4404799999,"ADDRESS":"府安路五段１３０巷４９號","OBJECTID":6855},"geometry":{"x":167881.7912490014,"y":2547305.4404800013}},{"attributes":{"ID":6856,"DIS_CODE":0,"TOWNNAME":"安南區","LI":"溪東里","LIN":"1鄰","STREET":"府安路","SECT":"五段","MAREA":" ","LANE":"１３０巷","ALLEY":" ","HOUSE_NO":"５１號","E_COORD97":167880.520797,"N_COORD97":2547315.3888099999,"ADDRESS":"府安路五段１３０巷５１號","OBJECTID":6856},"geometry":{"x":167880.52079700027,"y":2547315.3888080027}},{"attributes":{"ID":6857,"DIS_CODE":0,"TOWNNAME":"安南區","LI":"溪東里","LIN":"1鄰","STREET":"海佃路","SECT":"一段","MAREA":" ","LANE":"１５８巷","ALLEY":" ","HOUSE_NO":"２１８號","E_COORD97":167885.17912099999,"N_COORD97":2547323.2204700001,"ADDRESS":"海佃路一段１５８巷２１８號","OBJECTID":6857},"geometry":{"x":167885.17912099976,"y":2547323.2204710022}},{"attributes":{"ID":6858,"DIS_CODE":0,"TOWNNAME":"仁德區","LI":"太子里","LIN":"40鄰","STREET":"太子路","SECT":" ","MAREA":" ","LANE":"２８巷","ALLEY":" ","HOUSE_NO":"３５號","E_COORD97":175321.22622300001,"N_COORD97":2543718.81794,"ADDRESS":"太子路２８巷３５號","OBJECTID":6858},"geometry":{"x":175321.22622300126,"y":2543718.8179380018}},{"attributes":{"ID":6859,"DIS_CODE":0,"TOWNNAME":"安南區","LI":"溪東里","LIN":"1鄰","STREET":"海佃路","SECT":"一段","MAREA":" ","LANE":"１５８巷","ALLEY":" ","HOUSE_NO":"２２０號","E_COORD97":167887.93176599999,"N_COORD97":2547324.0671399999,"ADDRESS":"海佃路一段１５８巷２２０號","OBJECTID":6859},"geometry":{"x":167887.93176600058,"y":2547324.0671369992}},{"attributes":{"ID":6860,"DIS_CODE":0,"TOWNNAME":"安南區","LI":"溪東里","LIN":"1鄰","STREET":"海佃路","SECT":"一段","MAREA":" ","LANE":"１５８巷","ALLEY":" ","HOUSE_NO":"２１６號","E_COORD97":167879.25034500001,"N_COORD97":2547323.6438000002,"ADDRESS":"海佃路一段１５８巷２１６號","OBJECTID":6860},"geometry":{"x":167879.25034500193,"y":2547323.6438040007}},{"attributes":{"ID":6861,"DIS_CODE":0,"TOWNNAME":"安南區","LI":"溪東里","LIN":"1鄰","STREET":"海佃路","SECT":"一段","MAREA":" ","LANE":"１５８巷","ALLEY":" ","HOUSE_NO":"２１２號","E_COORD97":167876.92118400001,"N_COORD97":2547324.0671399999,"ADDRESS":"海佃路一段１５８巷２１２號","OBJECTID":6861},"geometry":{"x":167876.92118399963,"y":2547324.0671369992}},{"attributes":{"ID":6862,"DIS_CODE":0,"TOWNNAME":"仁德區","LI":"太子里","LIN":"40鄰","STREET":"太子路","SECT":" ","MAREA":" ","LANE":"２８巷","ALLEY":" ","HOUSE_NO":"５３號","E_COORD97":175337.109123,"N_COORD97":2543755.6479199999,"ADDRESS":"太子路２８巷５３號","OBJECTID":6862},"geometry":{"x":175337.10912300088,"y":2543755.6479180008}},{"attributes":{"ID":6863,"DIS_CODE":0,"TOWNNAME":"東區","LI":"關聖里","LIN":"3鄰","STREET":"富農街","SECT":"二段","MAREA":" ","LANE":"１０８巷","ALLEY":" ","HOUSE_NO":"１０號","E_COORD97":171688.47021999999,"N_COORD97":2543080.7784099998,"ADDRESS":"富農街二段１０８巷１０號","OBJECTID":6863},"geometry":{"x":171688.47022000048,"y":2543080.7784099989}},{"attributes":{"ID":6864,"DIS_CODE":0,"TOWNNAME":"東區","LI":"大智里","LIN":"40鄰","STREET":"永東街","SECT":" ","MAREA":" ","LANE":" ","ALLEY":" ","HOUSE_NO":"１００號","E_COORD97":171550.87514799999,"N_COORD97":2540152.6946100001,"ADDRESS":"永東街１００號","OBJECTID":6864},"geometry":{"x":171550.87514800113,"y":2540152.6946070045}},{"attributes":{"ID":6865,"DIS_CODE":0,"TOWNNAME":"東區","LI":"東聖里","LIN":"20鄰","STREET":"中華東路","SECT":"二段","MAREA":" ","LANE":" ","ALLEY":" ","HOUSE_NO":"１０５號","E_COORD97":171413.16336199999,"N_COORD97":2542943.4440700002,"ADDRESS":"中華東路二段１０５號","OBJECTID":6865},"geometry":{"x":171413.16336200014,"y":2542943.4440730009}},{"attributes":{"ID":6866,"DIS_CODE":0,"TOWNNAME":"東區","LI":"東聖里","LIN":"20鄰","STREET":"中華東路","SECT":"二段","MAREA":" ","LANE":" ","ALLEY":" ","HOUSE_NO":"１０１號","E_COORD97":171414.643324,"N_COORD97":2542951.8913799999,"ADDRESS":"中華東路二段１０１號","OBJECTID":6866},"geometry":{"x":171414.64332400076,"y":2542951.8913819995}},{"attributes":{"ID":6867,"DIS_CODE":0,"TOWNNAME":"仁德區","LI":"成功里","LIN":"8鄰","STREET":"保華路","SECT":" ","MAREA":" ","LANE":"１５９巷","ALLEY":" ","HOUSE_NO":"６０號","E_COORD97":171032.82983900001,"N_COORD97":2539867.0702599999,"ADDRESS":"保華路１５９巷６０號","OBJECTID":6867},"geometry":{"x":171032.82983900048,"y":2539867.0702630002}},{"attributes":{"ID":6868,"DIS_CODE":0,"TOWNNAME":"東區","LI":"和平里","LIN":"24鄰","STREET":"仁和路","SECT":" ","MAREA":" ","LANE":"１０９巷","ALLEY":"１３５弄","HOUSE_NO":"１０５號","E_COORD97":171713.91373999999,"N_COORD97":2541416.8577399999,"ADDRESS":"仁和路１０９巷１３５弄１０５號","OBJECTID":6868},"geometry":{"x":171713.91374000069,"y":2541416.8577370048}},{"attributes":{"ID":6869,"DIS_CODE":0,"TOWNNAME":"東區","LI":"和平里","LIN":"24鄰","STREET":"仁和路","SECT":" ","MAREA":" ","LANE":"１０９巷","ALLEY":"１３５弄","HOUSE_NO":"１０１號","E_COORD97":171701.07703399999,"N_COORD97":2541417.6270599999,"ADDRESS":"仁和路１０９巷１３５弄１０１號","OBJECTID":6869},"geometry":{"x":171701.07703400124,"y":2541417.6270640027}},{"attributes":{"ID":6870,"DIS_CODE":0,"TOWNNAME":"東區","LI":"和平里","LIN":"24鄰","STREET":"仁和路","SECT":" ","MAREA":" ","LANE":"１０９巷","ALLEY":"１３５弄","HOUSE_NO":"１０３號","E_COORD97":171708.00885499999,"N_COORD97":2541417.3706200002,"ADDRESS":"仁和路１０９巷１３５弄１０３號","OBJECTID":6870},"geometry":{"x":171708.00885500107,"y":2541417.3706219997}},{"attributes":{"ID":6871,"DIS_CODE":0,"TOWNNAME":"東區","LI":"崇善里","LIN":"15鄰","STREET":"仁和路","SECT":" ","MAREA":" ","LANE":" ","ALLEY":" ","HOUSE_NO":"１０６之１號","E_COORD97":171292.14309600001,"N_COORD97":2541410.9368699999,"ADDRESS":"仁和路１０６之１號","OBJECTID":6871},"geometry":{"x":171292.14309600089,"y":2541410.9368680026}},{"attributes":{"ID":6872,"DIS_CODE":0,"TOWNNAME":"東區","LI":"崇善里","LIN":"15鄰","STREET":"仁和路","SECT":" ","MAREA":" ","LANE":" ","ALLEY":" ","HOUSE_NO":"１０６之２號","E_COORD97":171294.05026399999,"N_COORD97":2541407.9735400002,"ADDRESS":"仁和路１０６之２號","OBJECTID":6872},"geometry":{"x":171294.05026399996,"y":2541407.9735359997}},{"attributes":{"ID":6873,"DIS_CODE":0,"TOWNNAME":"東山區","LI":"南溪里","LIN":"1鄰","STREET":" ","SECT":" ","MAREA":"二重","LANE":" ","ALLEY":" ","HOUSE_NO":"５號","E_COORD97":189243.86865399999,"N_COORD97":2575496.4298899998,"ADDRESS":"二重５號","OBJECTID":6873},"geometry":{"x":189243.86865400057,"y":2575496.4298860021}},{"attributes":{"ID":6874,"DIS_CODE":0,"TOWNNAME":"東區","LI":"崇善里","LIN":"15鄰","STREET":"仁和路","SECT":" ","MAREA":" ","LANE":" ","ALLEY":" ","HOUSE_NO":"１０６之３號","E_COORD97":171295.95743099999,"N_COORD97":2541404.1635400001,"ADDRESS":"仁和路１０６之３號","OBJECTID":6874},"geometry":{"x":171295.95743099973,"y":2541404.1635379996}},{"attributes":{"ID":6875,"DIS_CODE":0,"TOWNNAME":"東區","LI":"崇善里","LIN":"15鄰","STREET":"仁和路","SECT":" ","MAREA":" ","LANE":" ","ALLEY":" ","HOUSE_NO":"１０８之１號","E_COORD97":171298.07650699999,"N_COORD97":2541398.2368700001,"ADDRESS":"仁和路１０８之１號","OBJECTID":6875},"geometry":{"x":171298.07650700025,"y":2541398.2368749995}},{"attributes":{"ID":6876,"DIS_CODE":0,"TOWNNAME":"安南區","LI":"公親里","LIN":"7鄰","STREET":"公學路","SECT":"一段","MAREA":" ","LANE":" ","ALLEY":" ","HOUSE_NO":"５２號","E_COORD97":168533.76526499999,"N_COORD97":2553065.9292000001,"ADDRESS":"公學路一段５２號","OBJECTID":6876},"geometry":{"x":168533.76526500005,"y":2553065.929204002}},{"attributes":{"ID":6877,"DIS_CODE":0,"TOWNNAME":"東區","LI":"和平里","LIN":"24鄰","STREET":"仁和路","SECT":" ","MAREA":" ","LANE":"１０９巷","ALLEY":"１３５弄","HOUSE_NO":"１０７號","E_COORD97":171718.791688,"N_COORD97":2541416.34485,"ADDRESS":"仁和路１０９巷１３５弄１０７號","OBJECTID":6877},"geometry":{"x":171718.79168800171,"y":2541416.3448529989}},{"attributes":{"ID":6878,"DIS_CODE":0,"TOWNNAME":"東區","LI":"和平里","LIN":"24鄰","STREET":"仁和路","SECT":" ","MAREA":" ","LANE":"１０９巷","ALLEY":"１３５弄","HOUSE_NO":"１０９號","E_COORD97":171719.305157,"N_COORD97":2541428.1411899999,"ADDRESS":"仁和路１０９巷１３５弄１０９號","OBJECTID":6878},"geometry":{"x":171719.3051570002,"y":2541428.1411930006}},{"attributes":{"ID":6879,"DIS_CODE":0,"TOWNNAME":"東區","LI":"和平里","LIN":"24鄰","STREET":"仁和路","SECT":" ","MAREA":" ","LANE":"１０９巷","ALLEY":"１３５弄","HOUSE_NO":"１１１號","E_COORD97":171713.65700599999,"N_COORD97":2541428.39763,"ADDRESS":"仁和路１０９巷１３５弄１１１號","OBJECTID":6879},"geometry":{"x":171713.65700600203,"y":2541428.3976349998}},{"attributes":{"ID":6880,"DIS_CODE":0,"TOWNNAME":"東區","LI":"和平里","LIN":"24鄰","STREET":"仁和路","SECT":" ","MAREA":" ","LANE":"１０９巷","ALLEY":"１３５弄","HOUSE_NO":"１１５號","E_COORD97":171700.82029999999,"N_COORD97":2541427.6283100001,"ADDRESS":"仁和路１０９巷１３５弄１１５號","OBJECTID":6880},"geometry":{"x":171700.82030000072,"y":2541427.6283080019}},{"attributes":{"ID":6881,"DIS_CODE":0,"TOWNNAME":"東區","LI":"和平里","LIN":"24鄰","STREET":"仁和路","SECT":" ","MAREA":" ","LANE":"１０９巷","ALLEY":"１３５弄","HOUSE_NO":"１１７號","E_COORD97":171695.94235200001,"N_COORD97":2541427.8847500002,"ADDRESS":"仁和路１０９巷１３５弄１１７號","OBJECTID":6881},"geometry":{"x":171695.94235199969,"y":2541427.8847509995}},{"attributes":{"ID":6882,"DIS_CODE":0,"TOWNNAME":"東區","LI":"和平里","LIN":"24鄰","STREET":"仁和路","SECT":" ","MAREA":" ","LANE":"１０９巷","ALLEY":"１３５弄","HOUSE_NO":"１１９號","E_COORD97":171691.57787199999,"N_COORD97":2541427.8847500002,"ADDRESS":"仁和路１０９巷１３５弄１１９號","OBJECTID":6882},"geometry":{"x":171691.57787200063,"y":2541427.8847509995}},{"attributes":{"ID":6883,"DIS_CODE":0,"TOWNNAME":"東區","LI":"仁和里","LIN":"8鄰","STREET":"仁和路","SECT":" ","MAREA":" ","LANE":"１０９巷","ALLEY":"１３５弄","HOUSE_NO":"１１號","E_COORD97":171705.57467599999,"N_COORD97":2541359.0785599998,"ADDRESS":"仁和路１０９巷１３５弄１１號","OBJECTID":6883},"geometry":{"x":171705.57467600051,"y":2541359.0785630029}},{"attributes":{"ID":6884,"DIS_CODE":0,"TOWNNAME":"仁德區","LI":"成功里","LIN":"8鄰","STREET":"保華路","SECT":" ","MAREA":" ","LANE":"１５９巷","ALLEY":" ","HOUSE_NO":"３６號","E_COORD97":171032.19442700001,"N_COORD97":2539908.5039900001,"ADDRESS":"保華路１５９巷３６號","OBJECTID":6884},"geometry":{"x":171032.19442700036,"y":2539908.503990002}},{"attributes":{"ID":6885,"DIS_CODE":0,"TOWNNAME":"仁德區","LI":"成功里","LIN":"8鄰","STREET":"保華路","SECT":" ","MAREA":" ","LANE":"１５９巷","ALLEY":" ","HOUSE_NO":"３８號","E_COORD97":171032.247378,"N_COORD97":2539904.3764900002,"ADDRESS":"保華路１５９巷３８號","OBJECTID":6885},"geometry":{"x":171032.24737800192,"y":2539904.3764929995}},{"attributes":{"ID":6886,"DIS_CODE":0,"TOWNNAME":"仁德區","LI":"成功里","LIN":"8鄰","STREET":"保華路","SECT":" ","MAREA":" ","LANE":"１５９巷","ALLEY":" ","HOUSE_NO":"４０號","E_COORD97":171031.770819,"N_COORD97":2539900.51358,"ADDRESS":"保華路１５９巷４０號","OBJECTID":6886},"geometry":{"x":171031.7708190009,"y":2539900.5135780014}},{"attributes":{"ID":6887,"DIS_CODE":0,"TOWNNAME":"仁德區","LI":"成功里","LIN":"8鄰","STREET":"保華路","SECT":" ","MAREA":" ","LANE":"１５９巷","ALLEY":" ","HOUSE_NO":"４２號","E_COORD97":171032.45918199999,"N_COORD97":2539896.6506599998,"ADDRESS":"保華路１５９巷４２號","OBJECTID":6887},"geometry":{"x":171032.45918199979,"y":2539896.6506630015}},{"attributes":{"ID":6888,"DIS_CODE":0,"TOWNNAME":"仁德區","LI":"成功里","LIN":"8鄰","STREET":"保華路","SECT":" ","MAREA":" ","LANE":"１５９巷","ALLEY":" ","HOUSE_NO":"４６號","E_COORD97":171032.14147599999,"N_COORD97":2539892.2585800001,"ADDRESS":"保華路１５９巷４６號","OBJECTID":6888},"geometry":{"x":171032.14147599973,"y":2539892.2585819997}},{"attributes":{"ID":6889,"DIS_CODE":0,"TOWNNAME":"仁德區","LI":"成功里","LIN":"8鄰","STREET":"保華路","SECT":" ","MAREA":" ","LANE":"１５９巷","ALLEY":" ","HOUSE_NO":"４８號","E_COORD97":171032.247378,"N_COORD97":2539888.1310899998,"ADDRESS":"保華路１５９巷４８號","OBJECTID":6889},"geometry":{"x":171032.24737800192,"y":2539888.1310850028}},{"attributes":{"ID":6890,"DIS_CODE":0,"TOWNNAME":"仁德區","LI":"成功里","LIN":"8鄰","STREET":"保華路","SECT":" ","MAREA":" ","LANE":"１５９巷","ALLEY":" ","HOUSE_NO":"５０號","E_COORD97":171032.35328000001,"N_COORD97":2539883.15692,"ADDRESS":"保華路１５９巷５０號","OBJECTID":6890},"geometry":{"x":171032.35328000132,"y":2539883.1569209993}},{"attributes":{"ID":6891,"DIS_CODE":0,"TOWNNAME":"仁德區","LI":"成功里","LIN":"8鄰","STREET":"保華路","SECT":" ","MAREA":" ","LANE":"１５９巷","ALLEY":" ","HOUSE_NO":"５２號","E_COORD97":171032.30032899999,"N_COORD97":2539880.0348399999,"ADDRESS":"保華路１５９巷５２號","OBJECTID":6891},"geometry":{"x":171032.30032900069,"y":2539880.0348390024}},{"attributes":{"ID":6892,"DIS_CODE":0,"TOWNNAME":"仁德區","LI":"成功里","LIN":"8鄰","STREET":"保華路","SECT":" ","MAREA":" ","LANE":"１５９巷","ALLEY":" ","HOUSE_NO":"５６號","E_COORD97":171032.45918199999,"N_COORD97":2539875.6956799999,"ADDRESS":"保華路１５９巷５６號","OBJECTID":6892},"geometry":{"x":171032.45918199979,"y":2539875.6956750043}},{"attributes":{"ID":6893,"DIS_CODE":0,"TOWNNAME":"仁德區","LI":"成功里","LIN":"8鄰","STREET":"保華路","SECT":" ","MAREA":" ","LANE":"１５９巷","ALLEY":" ","HOUSE_NO":"５８號","E_COORD97":171032.77688799999,"N_COORD97":2539871.5681799999,"ADDRESS":"保華路１５９巷５８號","OBJECTID":6893},"geometry":{"x":171032.77688799892,"y":2539871.5681770016}},{"attributes":{"ID":6894,"DIS_CODE":0,"TOWNNAME":"仁德區","LI":"成功里","LIN":"8鄰","STREET":"保華路","SECT":" ","MAREA":" ","LANE":"１５９巷","ALLEY":" ","HOUSE_NO":"６２號","E_COORD97":171033.14754500001,"N_COORD97":2539862.9956800002,"ADDRESS":"保華路１５９巷６２號","OBJECTID":6894},"geometry":{"x":171033.14754500054,"y":2539862.9956820011}},{"attributes":{"ID":6895,"DIS_CODE":0,"TOWNNAME":"仁德區","LI":"成功里","LIN":"8鄰","STREET":"保華路","SECT":" ","MAREA":" ","LANE":"１５９巷","ALLEY":" ","HOUSE_NO":"６６號","E_COORD97":171033.571153,"N_COORD97":2539858.02152,"ADDRESS":"保華路１５９巷６６號","OBJECTID":6895},"geometry":{"x":171033.571153,"y":2539858.0215179976}},{"attributes":{"ID":6896,"DIS_CODE":0,"TOWNNAME":"仁德區","LI":"成功里","LIN":"8鄰","STREET":"保華路","SECT":" ","MAREA":" ","LANE":"１５９巷","ALLEY":" ","HOUSE_NO":"６８號","E_COORD97":171033.67705500001,"N_COORD97":2539852.9679800002,"ADDRESS":"保華路１５９巷６８號","OBJECTID":6896},"geometry":{"x":171033.67705500033,"y":2539852.9679790009}},{"attributes":{"ID":6897,"DIS_CODE":0,"TOWNNAME":"仁德區","LI":"成功里","LIN":"8鄰","STREET":"成功二街","SECT":" ","MAREA":" ","LANE":"３１巷","ALLEY":" ","HOUSE_NO":"２７號","E_COORD97":171013.13206800001,"N_COORD97":2539855.0317299999,"ADDRESS":"成功二街３１巷２７號","OBJECTID":6897},"geometry":{"x":171013.13206800073,"y":2539855.0317279994}},{"attributes":{"ID":6898,"DIS_CODE":0,"TOWNNAME":"仁德區","LI":"成功里","LIN":"8鄰","STREET":"成功二街","SECT":" ","MAREA":" ","LANE":"３１巷","ALLEY":" ","HOUSE_NO":"２９號","E_COORD97":171017.47404999999,"N_COORD97":2539855.4550600001,"ADDRESS":"成功二街３１巷２９號","OBJECTID":6898},"geometry":{"x":171017.47405000031,"y":2539855.4550610017}},{"attributes":{"ID":6899,"DIS_CODE":0,"TOWNNAME":"東區","LI":"和平里","LIN":"24鄰","STREET":"仁和路","SECT":" ","MAREA":" ","LANE":"１０９巷","ALLEY":"１３５弄","HOUSE_NO":"１２號","E_COORD97":171742.08283100001,"N_COORD97":2541375.4369600001,"ADDRESS":"仁和路１０９巷１３５弄１２號","OBJECTID":6899},"geometry":{"x":171742.08283099998,"y":2541375.4369560014}},{"attributes":{"ID":6900,"DIS_CODE":0,"TOWNNAME":"仁德區","LI":"成功里","LIN":"8鄰","STREET":"成功二街","SECT":" ","MAREA":" ","LANE":"１５巷","ALLEY":" ","HOUSE_NO":"３號","E_COORD97":170927.033746,"N_COORD97":2539961.7116700001,"ADDRESS":"成功二街１５巷３號","OBJECTID":6900},"geometry":{"x":170927.03374600038,"y":2539961.7116700001}},{"attributes":{"ID":6901,"DIS_CODE":0,"TOWNNAME":"東區","LI":"崇善里","LIN":"15鄰","STREET":"仁和路","SECT":" ","MAREA":" ","LANE":" ","ALLEY":" ","HOUSE_NO":"１０８之２號","E_COORD97":171299.559859,"N_COORD97":2541394.6385400002,"ADDRESS":"仁和路１０８之２號","OBJECTID":6901},"geometry":{"x":171299.55985900015,"y":2541394.6385430023}},{"attributes":{"ID":6902,"DIS_CODE":0,"TOWNNAME":"東區","LI":"和平里","LIN":"24鄰","STREET":"仁和路","SECT":" ","MAREA":" ","LANE":"１０９巷","ALLEY":"１３５弄","HOUSE_NO":"１１３號","E_COORD97":171707.752121,"N_COORD97":2541427.8847500002,"ADDRESS":"仁和路１０９巷１３５弄１１３號","OBJECTID":6902},"geometry":{"x":171707.75212099962,"y":2541427.8847509995}},{"attributes":{"ID":6903,"DIS_CODE":0,"TOWNNAME":"東區","LI":"仁和里","LIN":"8鄰","STREET":"仁和路","SECT":" ","MAREA":" ","LANE":"１０９巷","ALLEY":" ","HOUSE_NO":"１３５弄２號","E_COORD97":171735.66553999999,"N_COORD97":2541343.6269,"ADDRESS":"仁和路１０９巷１３５弄２號","OBJECTID":6903},"geometry":{"x":171735.66554000136,"y":2541343.6269000024}},{"attributes":{"ID":6904,"DIS_CODE":0,"TOWNNAME":"東區","LI":"崇善里","LIN":"15鄰","STREET":"仁和路","SECT":" ","MAREA":" ","LANE":" ","ALLEY":" ","HOUSE_NO":"１０８之３號","E_COORD97":171301.678935,"N_COORD97":2541390.40521,"ADDRESS":"仁和路１０８之３號","OBJECTID":6904},"geometry":{"x":171301.67893500067,"y":2541390.405212}},{"attributes":{"ID":6905,"DIS_CODE":0,"TOWNNAME":"東區","LI":"仁和里","LIN":"14鄰","STREET":"東門路","SECT":"三段","MAREA":" ","LANE":"３３８巷","ALLEY":" ","HOUSE_NO":"１２８號","E_COORD97":171875.04007700001,"N_COORD97":2541027.9098899998,"ADDRESS":"東門路三段３３８巷１２８號","OBJECTID":6905},"geometry":{"x":171875.04007700179,"y":2541027.9098940007}},{"attributes":{"ID":6906,"DIS_CODE":0,"TOWNNAME":"佳里區","LI":"建南里","LIN":"7鄰","STREET":"建南街","SECT":" ","MAREA":" ","LANE":" ","ALLEY":" ","HOUSE_NO":"１６５號","E_COORD97":165703.63641800001,"N_COORD97":2562167.3323300001,"ADDRESS":"建南街１６５號","OBJECTID":6906},"geometry":{"x":165703.63641800079,"y":2562167.3323330022}},{"attributes":{"ID":6907,"DIS_CODE":0,"TOWNNAME":"東區","LI":"關聖里","LIN":"14鄰","STREET":"裕忠路","SECT":" ","MAREA":" ","LANE":" ","ALLEY":" ","HOUSE_NO":"１６６之１號","E_COORD97":172245.24252199999,"N_COORD97":2542893.53889,"ADDRESS":"裕忠路１６６之１號","OBJECTID":6907},"geometry":{"x":172245.24252200127,"y":2542893.5388860032}},{"attributes":{"ID":6908,"DIS_CODE":0,"TOWNNAME":"東區","LI":"關聖里","LIN":"14鄰","STREET":"裕忠路","SECT":" ","MAREA":" ","LANE":" ","ALLEY":" ","HOUSE_NO":"１６６之２號","E_COORD97":172244.39489200001,"N_COORD97":2542887.40056,"ADDRESS":"裕忠路１６６之２號","OBJECTID":6908},"geometry":{"x":172244.39489200059,"y":2542887.4005559999}},{"attributes":{"ID":6909,"DIS_CODE":0,"TOWNNAME":"中西區","LI":"普濟里","LIN":"16鄰","STREET":"海安路","SECT":"二段","MAREA":" ","LANE":"３３０巷","ALLEY":" ","HOUSE_NO":"１７號","E_COORD97":167875.59774500001,"N_COORD97":2544459.7465900001,"ADDRESS":"海安路二段３３０巷１７號","OBJECTID":6909},"geometry":{"x":167875.59774500038,"y":2544459.746588001}},{"attributes":{"ID":6910,"DIS_CODE":0,"TOWNNAME":"新營區","LI":"延平里","LIN":"1鄰","STREET":"延平路","SECT":" ","MAREA":" ","LANE":" ","ALLEY":" ","HOUSE_NO":"４６之３７號","E_COORD97":179766.53476499999,"N_COORD97":2577797.0705200001,"ADDRESS":"延平路４６之３７號","OBJECTID":6910},"geometry":{"x":179766.53476500046,"y":2577797.0705160014}},{"attributes":{"ID":6911,"DIS_CODE":0,"TOWNNAME":"中西區","LI":"普濟里","LIN":"16鄰","STREET":"海安路","SECT":"二段","MAREA":" ","LANE":"３３０巷","ALLEY":" ","HOUSE_NO":"１５號","E_COORD97":167871.57226399999,"N_COORD97":2544459.53492,"ADDRESS":"海安路二段３３０巷１５號","OBJECTID":6911},"geometry":{"x":167871.57226400077,"y":2544459.534922}},{"attributes":{"ID":6912,"DIS_CODE":0,"TOWNNAME":"佳里區","LI":"建南里","LIN":"26鄰","STREET":"安南路","SECT":" ","MAREA":" ","LANE":"３１６巷","ALLEY":"２６弄","HOUSE_NO":"３８號","E_COORD97":165389.957674,"N_COORD97":2561409.0774300001,"ADDRESS":"安南路３１６巷２６弄３８號","OBJECTID":6912},"geometry":{"x":165389.95767400041,"y":2561409.0774340015}},{"attributes":{"ID":6913,"DIS_CODE":0,"TOWNNAME":"仁德區","LI":"太子里","LIN":"40鄰","STREET":"太子路","SECT":" ","MAREA":" ","LANE":"６６巷","ALLEY":" ","HOUSE_NO":"８號","E_COORD97":175271.12906100001,"N_COORD97":2543679.60671,"ADDRESS":"太子路６６巷８號","OBJECTID":6913},"geometry":{"x":175271.12906100042,"y":2543679.6067090034}},{"attributes":{"ID":6914,"DIS_CODE":0,"TOWNNAME":"中西區","LI":"普濟里","LIN":"16鄰","STREET":"海安路","SECT":"二段","MAREA":" ","LANE":"３３０巷","ALLEY":" ","HOUSE_NO":"２５號","E_COORD97":167883.119038,"N_COORD97":2544479.6961599998,"ADDRESS":"海安路二段３３０巷２５號","OBJECTID":6914},"geometry":{"x":167883.11903799977,"y":2544479.6961610019}},{"attributes":{"ID":6915,"DIS_CODE":0,"TOWNNAME":"中西區","LI":"普濟里","LIN":"16鄰","STREET":"海安路","SECT":"二段","MAREA":" ","LANE":"３３０巷","ALLEY":" ","HOUSE_NO":"２７號","E_COORD97":167890.32253,"N_COORD97":2544482.7653299998,"ADDRESS":"海安路二段３３０巷２７號","OBJECTID":6915},"geometry":{"x":167890.32252999954,"y":2544482.7653260008}},{"attributes":{"ID":6916,"DIS_CODE":0,"TOWNNAME":"中西區","LI":"普濟里","LIN":"16鄰","STREET":"海安路","SECT":"二段","MAREA":" ","LANE":"３３０巷","ALLEY":" ","HOUSE_NO":"２９號","E_COORD97":167893.28867400001,"N_COORD97":2544484.8819900001,"ADDRESS":"海安路二段３３０巷２９號","OBJECTID":6916},"geometry":{"x":167893.28867399972,"y":2544484.8819920011}},{"attributes":{"ID":6917,"DIS_CODE":0,"TOWNNAME":"中西區","LI":"普濟里","LIN":"16鄰","STREET":"海安路","SECT":"二段","MAREA":" ","LANE":"３３０巷","ALLEY":" ","HOUSE_NO":"３１號","E_COORD97":167896.67855300001,"N_COORD97":2544485.72866,"ADDRESS":"海安路二段３３０巷３１號","OBJECTID":6917},"geometry":{"x":167896.67855300102,"y":2544485.7286580037}},{"attributes":{"ID":6918,"DIS_CODE":0,"TOWNNAME":"中西區","LI":"普濟里","LIN":"16鄰","STREET":"海安路","SECT":"二段","MAREA":" ","LANE":"３３０巷","ALLEY":" ","HOUSE_NO":"３３號","E_COORD97":167900.915901,"N_COORD97":2544487.4219900002,"ADDRESS":"海安路二段３３０巷３３號","OBJECTID":6918},"geometry":{"x":167900.91590099968,"y":2544487.4219900016}},{"attributes":{"ID":6919,"DIS_CODE":0,"TOWNNAME":"新營區","LI":"延平里","LIN":"1鄰","STREET":"延平路","SECT":" ","MAREA":" ","LANE":" ","ALLEY":" ","HOUSE_NO":"４６號之３８","E_COORD97":179759.435333,"N_COORD97":2577796.4355199998,"ADDRESS":"延平路４６號之３８","OBJECTID":6919},"geometry":{"x":179759.4353330005,"y":2577796.435517}},{"attributes":{"ID":6920,"DIS_CODE":0,"TOWNNAME":"新營區","LI":"延平里","LIN":"1鄰","STREET":"延平路","SECT":" ","MAREA":" ","LANE":" ","ALLEY":" ","HOUSE_NO":"４６號之３９","E_COORD97":179753.50148000001,"N_COORD97":2577797.7055199998,"ADDRESS":"延平路４６號之３９","OBJECTID":6920},"geometry":{"x":179753.50148000102,"y":2577797.7055160012}},{"attributes":{"ID":6921,"DIS_CODE":0,"TOWNNAME":"中西區","LI":"普濟里","LIN":"14鄰","STREET":"海安路","SECT":"二段","MAREA":" ","LANE":"３３０巷","ALLEY":" ","HOUSE_NO":"３８號","E_COORD97":167891.38186699999,"N_COORD97":2544474.7220000001,"ADDRESS":"海安路二段３３０巷３８號","OBJECTID":6921},"geometry":{"x":167891.38186700083,"y":2544474.721997004}},{"attributes":{"ID":6922,"DIS_CODE":0,"TOWNNAME":"新營區","LI":"延平里","LIN":"1鄰","STREET":"延平路","SECT":" ","MAREA":" ","LANE":" ","ALLEY":" ","HOUSE_NO":"４６之４０號","E_COORD97":179750.534553,"N_COORD97":2577798.12885,"ADDRESS":"延平路４６之４０號","OBJECTID":6922},"geometry":{"x":179750.53455300163,"y":2577798.1288489997}},{"attributes":{"ID":6923,"DIS_CODE":0,"TOWNNAME":"新營區","LI":"延平里","LIN":"1鄰","STREET":"延平路","SECT":" ","MAREA":" ","LANE":" ","ALLEY":" ","HOUSE_NO":"４６號之４１","E_COORD97":179747.56762700001,"N_COORD97":2577797.9171799999,"ADDRESS":"延平路４６號之４１","OBJECTID":6923},"geometry":{"x":179747.56762700062,"y":2577797.9171820022}},{"attributes":{"ID":6924,"DIS_CODE":0,"TOWNNAME":"南區","LI":"建南里","LIN":"23鄰","STREET":"永成路","SECT":"二段","MAREA":" ","LANE":"７３０巷","ALLEY":" ","HOUSE_NO":"１１１之１１號","E_COORD97":167861.347889,"N_COORD97":2539472.9433400002,"ADDRESS":"永成路二段７３０巷１１１之１１號","OBJECTID":6924},"geometry":{"x":167861.34788899962,"y":2539472.9433370009}},{"attributes":{"ID":6925,"DIS_CODE":0,"TOWNNAME":"新營區","LI":"延平里","LIN":"1鄰","STREET":"延平路","SECT":" ","MAREA":" ","LANE":" ","ALLEY":" ","HOUSE_NO":"４６之４２號","E_COORD97":179742.269543,"N_COORD97":2577797.4938500002,"ADDRESS":"延平路４６之４２號","OBJECTID":6925},"geometry":{"x":179742.2695430005,"y":2577797.493849}},{"attributes":{"ID":6926,"DIS_CODE":0,"TOWNNAME":"新營區","LI":"延平里","LIN":"1鄰","STREET":"延平路","SECT":" ","MAREA":" ","LANE":" ","ALLEY":" ","HOUSE_NO":"４６之４３號","E_COORD97":179738.87877000001,"N_COORD97":2577797.2821800001,"ADDRESS":"延平路４６之４３號","OBJECTID":6926},"geometry":{"x":179738.87876999937,"y":2577797.2821829971}},{"attributes":{"ID":6927,"DIS_CODE":0,"TOWNNAME":"新營區","LI":"延平里","LIN":"1鄰","STREET":"延平路","SECT":" ","MAREA":" ","LANE":" ","ALLEY":" ","HOUSE_NO":"４６之４４號","E_COORD97":179736.123766,"N_COORD97":2577797.7055199998,"ADDRESS":"延平路４６之４４號","OBJECTID":6927},"geometry":{"x":179736.12376600225,"y":2577797.7055160012}},{"attributes":{"ID":6928,"DIS_CODE":0,"TOWNNAME":"中西區","LI":"法華里","LIN":"1鄰","STREET":"法華街","SECT":" ","MAREA":" ","LANE":"７１巷","ALLEY":" ","HOUSE_NO":"５號","E_COORD97":169041.76342900001,"N_COORD97":2542716.5202000001,"ADDRESS":"法華街７１巷５號","OBJECTID":6928},"geometry":{"x":169041.76342900097,"y":2542716.5201960038}},{"attributes":{"ID":6929,"DIS_CODE":0,"TOWNNAME":"新營區","LI":"延平里","LIN":"1鄰","STREET":"延平路","SECT":" ","MAREA":" ","LANE":" ","ALLEY":" ","HOUSE_NO":"４６之４５號","E_COORD97":179732.70650299999,"N_COORD97":2577797.48062,"ADDRESS":"延平路４６之４５號","OBJECTID":6929},"geometry":{"x":179732.70650300011,"y":2577797.4806200005}},{"attributes":{"ID":6930,"DIS_CODE":0,"TOWNNAME":"新營區","LI":"延平里","LIN":"1鄰","STREET":"延平路","SECT":" ","MAREA":" ","LANE":" ","ALLEY":" ","HOUSE_NO":"４６之４６號","E_COORD97":179729.103806,"N_COORD97":2577796.9514500001,"ADDRESS":"延平路４６之４６號","OBJECTID":6930},"geometry":{"x":179729.1038060002,"y":2577796.9514540024}},{"attributes":{"ID":6931,"DIS_CODE":0,"TOWNNAME":"中西區","LI":"普濟里","LIN":"14鄰","STREET":"海安路","SECT":"二段","MAREA":" ","LANE":"３３０巷","ALLEY":" ","HOUSE_NO":"３０號","E_COORD97":167880.21480799999,"N_COORD97":2544468.6577400002,"ADDRESS":"海安路二段３３０巷３０號","OBJECTID":6931},"geometry":{"x":167880.21480800211,"y":2544468.6577390023}},{"attributes":{"ID":6932,"DIS_CODE":0,"TOWNNAME":"佳里區","LI":"建南里","LIN":"26鄰","STREET":"安南路","SECT":" ","MAREA":" ","LANE":"３１６巷","ALLEY":"２６弄","HOUSE_NO":"１號","E_COORD97":165390.434511,"N_COORD97":2561435.95909,"ADDRESS":"安南路３１６巷２６弄１號","OBJECTID":6932},"geometry":{"x":165390.43451100122,"y":2561435.9590860028}},{"attributes":{"ID":6933,"DIS_CODE":0,"TOWNNAME":"南區","LI":"建南里","LIN":"23鄰","STREET":"永成路","SECT":"二段","MAREA":" ","LANE":" ","ALLEY":" ","HOUSE_NO":"７７１號","E_COORD97":167482.06054800001,"N_COORD97":2539936.1755900001,"ADDRESS":"永成路二段７７１號","OBJECTID":6933},"geometry":{"x":167482.06054800097,"y":2539936.1755870003}},{"attributes":{"ID":6934,"DIS_CODE":0,"TOWNNAME":"南區","LI":"建南里","LIN":"23鄰","STREET":"永成路","SECT":"二段","MAREA":" ","LANE":" ","ALLEY":" ","HOUSE_NO":"７６９號","E_COORD97":167483.96651500001,"N_COORD97":2539930.2489200002,"ADDRESS":"永成路二段７６９號","OBJECTID":6934},"geometry":{"x":167483.96651500184,"y":2539930.2489240039}},{"attributes":{"ID":6935,"DIS_CODE":0,"TOWNNAME":"佳里區","LI":"建南里","LIN":"26鄰","STREET":"安南路","SECT":" ","MAREA":" ","LANE":"３１６巷","ALLEY":"２６弄","HOUSE_NO":"２號","E_COORD97":165375.59958000001,"N_COORD97":2561429.6090899999,"ADDRESS":"安南路３１６巷２６弄２號","OBJECTID":6935},"geometry":{"x":165375.59958000015,"y":2561429.6090900023}},{"attributes":{"ID":6936,"DIS_CODE":0,"TOWNNAME":"佳里區","LI":"建南里","LIN":"26鄰","STREET":"安南路","SECT":" ","MAREA":" ","LANE":"３１６巷","ALLEY":"２６弄","HOUSE_NO":"６號","E_COORD97":165378.99042099999,"N_COORD97":2561427.9157599998,"ADDRESS":"安南路３１６巷２６弄６號","OBJECTID":6936},"geometry":{"x":165378.99042100087,"y":2561427.9157570004}},{"attributes":{"ID":6937,"DIS_CODE":0,"TOWNNAME":"佳里區","LI":"建南里","LIN":"26鄰","STREET":"安南路","SECT":" ","MAREA":" ","LANE":"３１６巷","ALLEY":"２６弄","HOUSE_NO":"８號","E_COORD97":165381.32162500001,"N_COORD97":2561426.4340900001,"ADDRESS":"安南路３１６巷２６弄８號","OBJECTID":6937},"geometry":{"x":165381.32162499987,"y":2561426.4340920039}},{"attributes":{"ID":6938,"DIS_CODE":0,"TOWNNAME":"佳里區","LI":"建南里","LIN":"26鄰","STREET":"安南路","SECT":" ","MAREA":" ","LANE":"３１６巷","ALLEY":"２６弄","HOUSE_NO":"１０號","E_COORD97":165384.288611,"N_COORD97":2561424.5290899999,"ADDRESS":"安南路３１６巷２６弄１０號","OBJECTID":6938},"geometry":{"x":165384.28861100134,"y":2561424.5290930029}},{"attributes":{"ID":6939,"DIS_CODE":0,"TOWNNAME":"中西區","LI":"普濟里","LIN":"13鄰","STREET":"海安路","SECT":"二段","MAREA":" ","LANE":"３３０巷","ALLEY":" ","HOUSE_NO":"２０號","E_COORD97":167875.019872,"N_COORD97":2544447.27942,"ADDRESS":"海安路二段３３０巷２０號","OBJECTID":6939},"geometry":{"x":167875.01987200137,"y":2544447.279418001}},{"attributes":{"ID":6940,"DIS_CODE":0,"TOWNNAME":"新營區","LI":"延平里","LIN":"1鄰","STREET":"延平路","SECT":" ","MAREA":" ","LANE":" ","ALLEY":" ","HOUSE_NO":"４６之４７號","E_COORD97":179725.5276,"N_COORD97":2577796.4619700001,"ADDRESS":"延平路４６之４７號","OBJECTID":6940},"geometry":{"x":179725.52759999968,"y":2577796.4619750027}},{"attributes":{"ID":6941,"DIS_CODE":0,"TOWNNAME":"佳里區","LI":"建南里","LIN":"26鄰","STREET":"安南路","SECT":" ","MAREA":" ","LANE":"３１６巷","ALLEY":"２６弄","HOUSE_NO":"２８號","E_COORD97":165374.116087,"N_COORD97":2561398.4941099999,"ADDRESS":"安南路３１６巷２６弄２８號","OBJECTID":6941},"geometry":{"x":165374.11608699989,"y":2561398.4941070043}},{"attributes":{"ID":6942,"DIS_CODE":0,"TOWNNAME":"新營區","LI":"延平里","LIN":"1鄰","STREET":"延平路","SECT":" ","MAREA":" ","LANE":" ","ALLEY":" ","HOUSE_NO":"４６號之４８","E_COORD97":179722.772596,"N_COORD97":2577796.25031,"ADDRESS":"延平路４６號之４８","OBJECTID":6942},"geometry":{"x":179722.77259599976,"y":2577796.2503080014}},{"attributes":{"ID":6943,"DIS_CODE":0,"TOWNNAME":"新營區","LI":"延平里","LIN":"1鄰","STREET":"延平路","SECT":" ","MAREA":" ","LANE":" ","ALLEY":" ","HOUSE_NO":"４６號之４９","E_COORD97":179717.26259,"N_COORD97":2577795.4036400001,"ADDRESS":"延平路４６號之４９","OBJECTID":6943},"geometry":{"x":179717.26259000041,"y":2577795.4036420006}},{"attributes":{"ID":6944,"DIS_CODE":0,"TOWNNAME":"佳里區","LI":"建南里","LIN":"26鄰","STREET":"安南路","SECT":" ","MAREA":" ","LANE":"３１６巷","ALLEY":"２６弄","HOUSE_NO":"４８號","E_COORD97":165401.66667400001,"N_COORD97":2561416.6974300002,"ADDRESS":"安南路３１６巷２６弄４８號","OBJECTID":6944},"geometry":{"x":165401.66667400021,"y":2561416.6974299997}},{"attributes":{"ID":6945,"DIS_CODE":0,"TOWNNAME":"仁德區","LI":"太子里","LIN":"40鄰","STREET":"太子路","SECT":" ","MAREA":" ","LANE":"６６巷","ALLEY":" ","HOUSE_NO":"１０號","E_COORD97":175244.23401700001,"N_COORD97":2543690.82504,"ADDRESS":"太子路６６巷１０號","OBJECTID":6945},"geometry":{"x":175244.2340169996,"y":2543690.8250360005}},{"attributes":{"ID":6946,"DIS_CODE":0,"TOWNNAME":"新營區","LI":"延平里","LIN":"1鄰","STREET":"延平路","SECT":" ","MAREA":" ","LANE":" ","ALLEY":" ","HOUSE_NO":"４６之５０號","E_COORD97":179714.295663,"N_COORD97":2577795.6153099998,"ADDRESS":"延平路４６之５０號","OBJECTID":6946},"geometry":{"x":179714.29566300008,"y":2577795.615309}},{"attributes":{"ID":6947,"DIS_CODE":0,"TOWNNAME":"新營區","LI":"延平里","LIN":"1鄰","STREET":"延平路","SECT":" ","MAREA":" ","LANE":" ","ALLEY":" ","HOUSE_NO":"４６之５１號","E_COORD97":179711.54065899999,"N_COORD97":2577795.4036400001,"ADDRESS":"延平路４６之５１號","OBJECTID":6947},"geometry":{"x":179711.54065900017,"y":2577795.4036420006}},{"attributes":{"ID":6948,"DIS_CODE":0,"TOWNNAME":"新營區","LI":"延平里","LIN":"1鄰","STREET":"延平路","SECT":" ","MAREA":" ","LANE":" ","ALLEY":" ","HOUSE_NO":"４６之５２號","E_COORD97":179708.78565599999,"N_COORD97":2577794.98031,"ADDRESS":"延平路４６之５２號","OBJECTID":6948},"geometry":{"x":179708.78565599956,"y":2577794.9803090021}},{"attributes":{"ID":6949,"DIS_CODE":0,"TOWNNAME":"仁德區","LI":"太子里","LIN":"40鄰","STREET":"太子路","SECT":" ","MAREA":" ","LANE":"６６巷","ALLEY":" ","HOUSE_NO":"１４號","E_COORD97":175272.01999999999,"N_COORD97":2543693,"ADDRESS":"太子路６６巷１４號","OBJECTID":6949},"geometry":{"x":175272.02000000048,"y":2543693.0000000019}},{"attributes":{"ID":6950,"DIS_CODE":0,"TOWNNAME":"中西區","LI":"普濟里","LIN":"16鄰","STREET":"海安路","SECT":"二段","MAREA":" ","LANE":" ","ALLEY":" ","HOUSE_NO":"３２２號","E_COORD97":167820.18008699999,"N_COORD97":2544413.7416900001,"ADDRESS":"海安路二段３２２號","OBJECTID":6950},"geometry":{"x":167820.18008700106,"y":2544413.7416870035}},{"attributes":{"ID":6951,"DIS_CODE":0,"TOWNNAME":"佳里區","LI":"建南里","LIN":"28鄰","STREET":"四維一街","SECT":" ","MAREA":" ","LANE":"９１巷","ALLEY":" ","HOUSE_NO":"３５號","E_COORD97":165873.41750499999,"N_COORD97":2561191.3783800001,"ADDRESS":"四維一街９１巷３５號","OBJECTID":6951},"geometry":{"x":165873.41750499979,"y":2561191.3783850018}},{"attributes":{"ID":6952,"DIS_CODE":0,"TOWNNAME":"東區","LI":"崇善里","LIN":"15鄰","STREET":"仁和路","SECT":" ","MAREA":" ","LANE":" ","ALLEY":" ","HOUSE_NO":"１０８號","E_COORD97":171298.07650699999,"N_COORD97":2541402.0468700002,"ADDRESS":"仁和路１０８號","OBJECTID":6952},"geometry":{"x":171298.07650700025,"y":2541402.0468729995}},{"attributes":{"ID":6953,"DIS_CODE":0,"TOWNNAME":"仁德區","LI":"太子里","LIN":"40鄰","STREET":"太子路","SECT":" ","MAREA":" ","LANE":"６６巷","ALLEY":" ","HOUSE_NO":"２２號","E_COORD97":175275.999817,"N_COORD97":2543713.3675199999,"ADDRESS":"太子路６６巷２２號","OBJECTID":6953},"geometry":{"x":175275.9998170007,"y":2543713.3675240017}},{"attributes":{"ID":6954,"DIS_CODE":0,"TOWNNAME":"安南區","LI":"原佃里","LIN":"10鄰","STREET":"安吉路","SECT":"二段","MAREA":" ","LANE":" ","ALLEY":" ","HOUSE_NO":"６２號（農業資材室）","E_COORD97":167134.83162300001,"N_COORD97":2550857.9770499999,"ADDRESS":"安吉路二段６２號（農業資材室）","OBJECTID":6954},"geometry":{"x":167134.83162300009,"y":2550857.9770480022}},{"attributes":{"ID":6955,"DIS_CODE":0,"TOWNNAME":"中西區","LI":"普濟里","LIN":"17鄰","STREET":"海安路","SECT":"二段","MAREA":" ","LANE":" ","ALLEY":" ","HOUSE_NO":"３６２號","E_COORD97":167861.95161799999,"N_COORD97":2544519.5749599999,"ADDRESS":"海安路二段３６２號","OBJECTID":6955},"geometry":{"x":167861.95161799993,"y":2544519.5749630015}},{"attributes":{"ID":6956,"DIS_CODE":0,"TOWNNAME":"仁德區","LI":"太子里","LIN":"40鄰","STREET":"太子路","SECT":" ","MAREA":" ","LANE":"６６巷","ALLEY":" ","HOUSE_NO":"２４號","E_COORD97":175255.66970500001,"N_COORD97":2543728.6075200001,"ADDRESS":"太子路６６巷２４號","OBJECTID":6956},"geometry":{"x":175255.66970500071,"y":2543728.607516}},{"attributes":{"ID":6957,"DIS_CODE":0,"TOWNNAME":"佳里區","LI":"建南里","LIN":"28鄰","STREET":"四維一街","SECT":" ","MAREA":" ","LANE":"９１巷","ALLEY":" ","HOUSE_NO":"３５號之１","E_COORD97":165875.324853,"N_COORD97":2561190.3200500002,"ADDRESS":"四維一街９１巷３５號之１","OBJECTID":6957},"geometry":{"x":165875.32485300116,"y":2561190.3200519998}},{"attributes":{"ID":6958,"DIS_CODE":0,"TOWNNAME":"新營區","LI":"南興里","LIN":"22鄰","STREET":"延平路","SECT":" ","MAREA":" ","LANE":"１４０巷","ALLEY":" ","HOUSE_NO":"３５號","E_COORD97":179575.647031,"N_COORD97":2577416.56531,"ADDRESS":"延平路１４０巷３５號","OBJECTID":6958},"geometry":{"x":179575.64703100082,"y":2577416.5653140005}},{"attributes":{"ID":6959,"DIS_CODE":0,"TOWNNAME":"中西區","LI":"普濟里","LIN":"17鄰","STREET":"海安路","SECT":"二段","MAREA":" ","LANE":" ","ALLEY":" ","HOUSE_NO":"３６８號","E_COORD97":167870.91023400001,"N_COORD97":2544534.0476600002,"ADDRESS":"海安路二段３６８號","OBJECTID":6959},"geometry":{"x":167870.91023400147,"y":2544534.0476640016}},{"attributes":{"ID":6960,"DIS_CODE":0,"TOWNNAME":"仁德區","LI":"太子里","LIN":"40鄰","STREET":"太子路","SECT":" ","MAREA":" ","LANE":"６６巷","ALLEY":" ","HOUSE_NO":"４４號","E_COORD97":175292.51803199999,"N_COORD97":2543789.5674800002,"ADDRESS":"太子路６６巷４４號","OBJECTID":6960},"geometry":{"x":175292.5180320004,"y":2543789.5674830023}},{"attributes":{"ID":6961,"DIS_CODE":0,"TOWNNAME":"安南區","LI":"原佃里","LIN":"7鄰","STREET":"安吉路","SECT":"一段","MAREA":" ","LANE":"２９０巷","ALLEY":"３２弄","HOUSE_NO":"１３６號","E_COORD97":166967.79040699999,"N_COORD97":2549651.3259999999,"ADDRESS":"安吉路一段２９０巷３２弄１３６號","OBJECTID":6961},"geometry":{"x":166967.79040700011,"y":2549651.3259959985}},{"attributes":{"ID":6962,"DIS_CODE":0,"TOWNNAME":"中西區","LI":"普濟里","LIN":"17鄰","STREET":"海安路","SECT":"二段","MAREA":" ","LANE":"３６６巷","ALLEY":" ","HOUSE_NO":"７號","E_COORD97":167869.21392800001,"N_COORD97":2544526.00434,"ADDRESS":"海安路二段３６６巷７號","OBJECTID":6962},"geometry":{"x":167869.213928001,"y":2544526.004335003}},{"attributes":{"ID":6963,"DIS_CODE":0,"TOWNNAME":"安南區","LI":"原佃里","LIN":"7鄰","STREET":"安吉路","SECT":"一段","MAREA":" ","LANE":" ","ALLEY":" ","HOUSE_NO":"５６０之５號","E_COORD97":167000.32617099999,"N_COORD97":2550248.4830100001,"ADDRESS":"安吉路一段５６０之５號","OBJECTID":6963},"geometry":{"x":167000.32617099956,"y":2550248.4830099996}},{"attributes":{"ID":6964,"DIS_CODE":0,"TOWNNAME":"中西區","LI":"普濟里","LIN":"17鄰","STREET":"海安路","SECT":"二段","MAREA":" ","LANE":"３６６巷","ALLEY":" ","HOUSE_NO":"１１號","E_COORD97":167874.726922,"N_COORD97":2544515.4210100002,"ADDRESS":"海安路二段３６６巷１１號","OBJECTID":6964},"geometry":{"x":167874.72692200076,"y":2544515.4210070036}},{"attributes":{"ID":6965,"DIS_CODE":0,"TOWNNAME":"仁德區","LI":"太子里","LIN":"40鄰","STREET":"太子路","SECT":" ","MAREA":" ","LANE":"２８巷","ALLEY":" ","HOUSE_NO":"４６之２號","E_COORD97":175375.95619900001,"N_COORD97":2543793.5891499999,"ADDRESS":"太子路２８巷４６之２號","OBJECTID":6965},"geometry":{"x":175375.95619900152,"y":2543793.5891469996}},{"attributes":{"ID":6966,"DIS_CODE":0,"TOWNNAME":"中西區","LI":"普濟里","LIN":"16鄰","STREET":"海安路","SECT":"二段","MAREA":" ","LANE":" ","ALLEY":" ","HOUSE_NO":"３４６號","E_COORD97":167848.85825799999,"N_COORD97":2544481.55436,"ADDRESS":"海安路二段３４６號","OBJECTID":6966},"geometry":{"x":167848.85825800058,"y":2544481.554359002}},{"attributes":{"ID":6967,"DIS_CODE":0,"TOWNNAME":"中西區","LI":"普濟里","LIN":"16鄰","STREET":"海安路","SECT":"二段","MAREA":" ","LANE":" ","ALLEY":" ","HOUSE_NO":"３４０號","E_COORD97":167847.16195199999,"N_COORD97":2544476.2626999998,"ADDRESS":"海安路二段３４０號","OBJECTID":6967},"geometry":{"x":167847.16195200104,"y":2544476.2626950014}},{"attributes":{"ID":6968,"DIS_CODE":0,"TOWNNAME":"安南區","LI":"原佃里","LIN":"7鄰","STREET":"安吉路","SECT":"一段","MAREA":" ","LANE":" ","ALLEY":" ","HOUSE_NO":"３１０之６號","E_COORD97":166912.338583,"N_COORD97":2549871.0389999999,"ADDRESS":"安吉路一段３１０之６號","OBJECTID":6968},"geometry":{"x":166912.33858300094,"y":2549871.0389980003}},{"attributes":{"ID":6969,"DIS_CODE":0,"TOWNNAME":"仁德區","LI":"太子里","LIN":"40鄰","STREET":"太子路","SECT":" ","MAREA":" ","LANE":"８巷","ALLEY":" ","HOUSE_NO":"２１號","E_COORD97":175396.22016200001,"N_COORD97":2543667.6078300001,"ADDRESS":"太子路８巷２１號","OBJECTID":6969},"geometry":{"x":175396.22016200051,"y":2543667.6078309994}},{"attributes":{"ID":6970,"DIS_CODE":0,"TOWNNAME":"新市區","LI":"新和里","LIN":"39鄰","STREET":"中正路","SECT":" ","MAREA":" ","LANE":" ","ALLEY":" ","HOUSE_NO":"２０７號","E_COORD97":177423.45838500001,"N_COORD97":2553011.09118,"ADDRESS":"中正路２０７號","OBJECTID":6970},"geometry":{"x":177423.45838500001,"y":2553011.0911839996}},{"attributes":{"ID":6971,"DIS_CODE":0,"TOWNNAME":"安南區","LI":"原佃里","LIN":"10鄰","STREET":"本原街","SECT":"一段","MAREA":" ","LANE":" ","ALLEY":" ","HOUSE_NO":"３９６號","E_COORD97":167573.21697899999,"N_COORD97":2550485.5139600001,"ADDRESS":"本原街一段３９６號","OBJECTID":6971},"geometry":{"x":167573.21697899979,"y":2550485.5139590017}},{"attributes":{"ID":6972,"DIS_CODE":0,"TOWNNAME":"仁德區","LI":"中洲里","LIN":"3鄰","STREET":" ","SECT":" ","MAREA":"中洲","LANE":" ","ALLEY":" ","HOUSE_NO":"２１號之６","E_COORD97":173252.77911,"N_COORD97":2534450.61742,"ADDRESS":"中洲２１號之６","OBJECTID":6972},"geometry":{"x":173252.77911000047,"y":2534450.617417004}},{"attributes":{"ID":6973,"DIS_CODE":0,"TOWNNAME":"新市區","LI":"新和里","LIN":"44鄰","STREET":"民生路","SECT":" ","MAREA":" ","LANE":" ","ALLEY":" ","HOUSE_NO":"２２號","E_COORD97":177347.39392599999,"N_COORD97":2553169.3913099999,"ADDRESS":"民生路２２號","OBJECTID":6973},"geometry":{"x":177347.39392600209,"y":2553169.3913059998}},{"attributes":{"ID":6974,"DIS_CODE":0,"TOWNNAME":"安南區","LI":"原佃里","LIN":"10鄰","STREET":"本原街","SECT":"一段","MAREA":" ","LANE":"４８２巷","ALLEY":" ","HOUSE_NO":"３６號","E_COORD97":167373.11055300001,"N_COORD97":2550606.09772,"ADDRESS":"本原街一段４８２巷３６號","OBJECTID":6974},"geometry":{"x":167373.11055300105,"y":2550606.0977230016}},{"attributes":{"ID":6975,"DIS_CODE":0,"TOWNNAME":"仁德區","LI":"中洲里","LIN":"3鄰","STREET":" ","SECT":" ","MAREA":"中洲","LANE":" ","ALLEY":" ","HOUSE_NO":"２６３號之２","E_COORD97":173224.38935400001,"N_COORD97":2534112.37427,"ADDRESS":"中洲２６３號之２","OBJECTID":6975},"geometry":{"x":173224.3893540008,"y":2534112.3742660005}},{"attributes":{"ID":6976,"DIS_CODE":0,"TOWNNAME":"新市區","LI":"新和里","LIN":"45鄰","STREET":"民權路","SECT":" ","MAREA":" ","LANE":"１０９巷","ALLEY":" ","HOUSE_NO":"２號","E_COORD97":177103.30964399999,"N_COORD97":2552993.28474,"ADDRESS":"民權路１０９巷２號","OBJECTID":6976},"geometry":{"x":177103.3096440006,"y":2552993.2847350016}},{"attributes":{"ID":6977,"DIS_CODE":0,"TOWNNAME":"仁德區","LI":"太子里","LIN":"42鄰","STREET":"太子路","SECT":" ","MAREA":" ","LANE":"２８巷","ALLEY":" ","HOUSE_NO":"６號","E_COORD97":175338.79999999999,"N_COORD97":2543609.0099999998,"ADDRESS":"太子路２８巷６號","OBJECTID":6977},"geometry":{"x":175338.79999999981,"y":2543609.0099999998}},{"attributes":{"ID":6978,"DIS_CODE":0,"TOWNNAME":"仁德區","LI":"太子里","LIN":"42鄰","STREET":"太子路","SECT":" ","MAREA":" ","LANE":"２８巷","ALLEY":" ","HOUSE_NO":"１０號","E_COORD97":175341.29000000001,"N_COORD97":2543623.5099999998,"ADDRESS":"太子路２８巷１０號","OBJECTID":6978},"geometry":{"x":175341.2900000019,"y":2543623.5099999998}},{"attributes":{"ID":6979,"DIS_CODE":0,"TOWNNAME":"安南區","LI":"原佃里","LIN":"7鄰","STREET":"安吉路","SECT":"一段","MAREA":" ","LANE":" ","ALLEY":" ","HOUSE_NO":"６５０之１號","E_COORD97":167002.70449500001,"N_COORD97":2550371.5518499999,"ADDRESS":"安吉路一段６５０之１號","OBJECTID":6979},"geometry":{"x":167002.70449499972,"y":2550371.5518470015}},{"attributes":{"ID":6980,"DIS_CODE":0,"TOWNNAME":"仁德區","LI":"太子里","LIN":"40鄰","STREET":"太子路","SECT":" ","MAREA":" ","LANE":"２８巷","ALLEY":" ","HOUSE_NO":"２０之１號","E_COORD97":175354.37,"N_COORD97":2543672.54,"ADDRESS":"太子路２８巷２０之１號","OBJECTID":6980},"geometry":{"x":175354.36999999918,"y":2543672.5399999991}},{"attributes":{"ID":6981,"DIS_CODE":0,"TOWNNAME":"安南區","LI":"原佃里","LIN":"7鄰","STREET":"安吉路","SECT":"一段","MAREA":" ","LANE":" ","ALLEY":" ","HOUSE_NO":"６５６之１號","E_COORD97":167007.58514000001,"N_COORD97":2550385.49217,"ADDRESS":"安吉路一段６５６之１號","OBJECTID":6981},"geometry":{"x":167007.5851400001,"y":2550385.4921670016}},{"attributes":{"ID":6982,"DIS_CODE":0,"TOWNNAME":"仁德區","LI":"中洲里","LIN":"3鄰","STREET":" ","SECT":" ","MAREA":"中洲","LANE":" ","ALLEY":" ","HOUSE_NO":"２８７號之３","E_COORD97":173199.38941999999,"N_COORD97":2534239.1625299999,"ADDRESS":"中洲２８７號之３","OBJECTID":6982},"geometry":{"x":173199.38942000084,"y":2534239.1625309996}},{"attributes":{"ID":6983,"DIS_CODE":0,"TOWNNAME":"仁德區","LI":"後壁里","LIN":"5鄰","STREET":"德善路","SECT":" ","MAREA":" ","LANE":" ","ALLEY":" ","HOUSE_NO":"１０３號","E_COORD97":173420.69323999999,"N_COORD97":2538889.7382800002,"ADDRESS":"德善路１０３號","OBJECTID":6983},"geometry":{"x":173420.693239999,"y":2538889.7382800039}},{"attributes":{"ID":6984,"DIS_CODE":0,"TOWNNAME":"安南區","LI":"原佃里","LIN":"7鄰","STREET":"安吉路","SECT":"一段","MAREA":" ","LANE":"２９０巷","ALLEY":"３２弄","HOUSE_NO":"１１６號","E_COORD97":166962.62259700001,"N_COORD97":2549653.0989899999,"ADDRESS":"安吉路一段２９０巷３２弄１１６號","OBJECTID":6984},"geometry":{"x":166962.62259699963,"y":2549653.0989870019}},{"attributes":{"ID":6985,"DIS_CODE":0,"TOWNNAME":"新市區","LI":"社內里","LIN":"11鄰","STREET":" ","SECT":" ","MAREA":"社內","LANE":" ","ALLEY":" ","HOUSE_NO":"１１８之３號","E_COORD97":176545.02118099999,"N_COORD97":2552725.4818799999,"ADDRESS":"社內１１８之３號","OBJECTID":6985},"geometry":{"x":176545.02118100133,"y":2552725.4818789996}},{"attributes":{"ID":6986,"DIS_CODE":0,"TOWNNAME":"新市區","LI":"社內里","LIN":"11鄰","STREET":" ","SECT":" ","MAREA":"社內","LANE":" ","ALLEY":" ","HOUSE_NO":"１１８之５號","E_COORD97":176550.20997600001,"N_COORD97":2552715.3218800002,"ADDRESS":"社內１１８之５號","OBJECTID":6986},"geometry":{"x":176550.20997600071,"y":2552715.3218840007}},{"attributes":{"ID":6987,"DIS_CODE":0,"TOWNNAME":"安南區","LI":"原佃里","LIN":"6鄰","STREET":"怡安路","SECT":"二段","MAREA":" ","LANE":"５１６巷","ALLEY":" ","HOUSE_NO":"１６７號（農業資材室","E_COORD97":167594.84451699999,"N_COORD97":2549870.64065,"ADDRESS":"怡安路二段５１６巷１６７號（農業資材室）","OBJECTID":6987},"geometry":{"x":167594.84451700002,"y":2549870.6406500023}},{"attributes":{"ID":6988,"DIS_CODE":0,"TOWNNAME":"東山區","LI":"科里里","LIN":"7鄰","STREET":" ","SECT":" ","MAREA":"科里","LANE":" ","ALLEY":" ","HOUSE_NO":"２９號","E_COORD97":189941.562741,"N_COORD97":2578309.2358599999,"ADDRESS":"科里２９號","OBJECTID":6988},"geometry":{"x":189941.56274100114,"y":2578309.2358560003}},{"attributes":{"ID":6989,"DIS_CODE":0,"TOWNNAME":"東山區","LI":"科里里","LIN":"24鄰","STREET":" ","SECT":" ","MAREA":"科里","LANE":" ","ALLEY":" ","HOUSE_NO":"３９號","E_COORD97":189846.41996900001,"N_COORD97":2578234.9408999998,"ADDRESS":"科里３９號","OBJECTID":6989},"geometry":{"x":189846.41996899992,"y":2578234.9408960007}},{"attributes":{"ID":6990,"DIS_CODE":0,"TOWNNAME":"安南區","LI":"原佃里","LIN":"7鄰","STREET":"安吉路","SECT":"一段","MAREA":" ","LANE":" ","ALLEY":" ","HOUSE_NO":"８６０號（農業資材室","E_COORD97":167055.88354899999,"N_COORD97":2550631.4312800001,"ADDRESS":"安吉路一段８６０號（農業資材室）","OBJECTID":6990},"geometry":{"x":167055.88354900014,"y":2550631.4312780015}},{"attributes":{"ID":6991,"DIS_CODE":0,"TOWNNAME":"東山區","LI":"科里里","LIN":"24鄰","STREET":" ","SECT":" ","MAREA":"科里","LANE":" ","ALLEY":" ","HOUSE_NO":"４０號之１１","E_COORD97":189846.41996,"N_COORD97":2578234.9408900002,"ADDRESS":"科里４０號之１１","OBJECTID":6991},"geometry":{"x":189846.41995999962,"y":2578234.9408899993}},{"attributes":{"ID":6992,"DIS_CODE":0,"TOWNNAME":"安南區","LI":"原佃里","LIN":"7鄰","STREET":"安吉路","SECT":"一段","MAREA":" ","LANE":"２９０巷","ALLEY":"３２弄","HOUSE_NO":"１２８號","E_COORD97":166973.08715199999,"N_COORD97":2549650.7327800002,"ADDRESS":"安吉路一段２９０巷３２弄１２８號","OBJECTID":6992},"geometry":{"x":166973.08715199959,"y":2549650.7327769995}},{"attributes":{"ID":6993,"DIS_CODE":0,"TOWNNAME":"安南區","LI":"原佃里","LIN":"7鄰","STREET":"安吉路","SECT":"一段","MAREA":" ","LANE":"２９０巷","ALLEY":"３２弄","HOUSE_NO":"１３０號","E_COORD97":166977.61916500001,"N_COORD97":2549652.4753100001,"ADDRESS":"安吉路一段２９０巷３２弄１３０號","OBJECTID":6993},"geometry":{"x":166977.61916500144,"y":2549652.475310998}},{"attributes":{"ID":6994,"DIS_CODE":0,"TOWNNAME":"安南區","LI":"原佃里","LIN":"7鄰","STREET":"安吉路","SECT":"一段","MAREA":" ","LANE":"２９０巷","ALLEY":"３２弄","HOUSE_NO":"１３２號","E_COORD97":166988.07765699999,"N_COORD97":2549644.4596500001,"ADDRESS":"安吉路一段２９０巷３２弄１３２號","OBJECTID":6994},"geometry":{"x":166988.07765700109,"y":2549644.4596519973}},{"attributes":{"ID":6995,"DIS_CODE":0,"TOWNNAME":"仁德區","LI":"太子里","LIN":"40鄰","STREET":"太子路","SECT":" ","MAREA":" ","LANE":"２８巷","ALLEY":" ","HOUSE_NO":"３０號","E_COORD97":175364.10829599999,"N_COORD97":2543716.89335,"ADDRESS":"太子路２８巷３０號","OBJECTID":6995},"geometry":{"x":175364.1082960004,"y":2543716.8933550008}},{"attributes":{"ID":6996,"DIS_CODE":0,"TOWNNAME":"仁德區","LI":"太子里","LIN":"40鄰","STREET":"太子路","SECT":" ","MAREA":" ","LANE":"２８巷","ALLEY":" ","HOUSE_NO":"２８號","E_COORD97":175362.62589200001,"N_COORD97":2543707.47419,"ADDRESS":"太子路２８巷２８號","OBJECTID":6996},"geometry":{"x":175362.62589199934,"y":2543707.4741940033}},{"attributes":{"ID":6997,"DIS_CODE":0,"TOWNNAME":"安南區","LI":"原佃里","LIN":"7鄰","STREET":"安中路","SECT":"二段","MAREA":" ","LANE":" ","ALLEY":" ","HOUSE_NO":"２８號","E_COORD97":166985.811651,"N_COORD97":2549606.8209000002,"ADDRESS":"安中路二段２８號","OBJECTID":6997},"geometry":{"x":166985.81165100168,"y":2549606.8209040016}},{"attributes":{"ID":6998,"DIS_CODE":0,"TOWNNAME":"安南區","LI":"原佃里","LIN":"5鄰","STREET":"本原街","SECT":"一段","MAREA":" ","LANE":"２６２巷","ALLEY":" ","HOUSE_NO":"８８之１號","E_COORD97":167852.47204299999,"N_COORD97":2550844.0205000001,"ADDRESS":"本原街一段２６２巷８８之１號","OBJECTID":6998},"geometry":{"x":167852.47204300016,"y":2550844.0205050018}},{"attributes":{"ID":6999,"DIS_CODE":0,"TOWNNAME":"歸仁區","LI":"南保里","LIN":"43鄰","STREET":"民權十街","SECT":" ","MAREA":" ","LANE":" ","ALLEY":" ","HOUSE_NO":"９號","E_COORD97":176929.570928,"N_COORD97":2540724.2145199999,"ADDRESS":"民權十街９號","OBJECTID":6999},"geometry":{"x":176929.57092799991,"y":2540724.2145230006}},{"attributes":{"ID":7000,"DIS_CODE":0,"TOWNNAME":"官田區","LI":"隆田里","LIN":"22鄰","STREET":"信義街","SECT":"一段","MAREA":" ","LANE":" ","ALLEY":" ","HOUSE_NO":"１２６號","E_COORD97":179722.86114600001,"N_COORD97":2565686.35225,"ADDRESS":"信義街一段１２６號","OBJECTID":7000},"geometry":{"x":179722.86114600115,"y":2565686.3522490021}}]}