{"displayFieldName":"TOWNNAME","fieldAliases":{"ID":"ID","DIS_CODE":"DIS_CODE","TOWNNAME":"TOWNNAME","LI":"LI","LIN":"LIN","STREET":"STREET","SECT":"SECT","MAREA":"MAREA","LANE":"LANE","ALLEY":"ALLEY","HOUSE_NO":"HOUSE_NO","E_COORD97":"E_COORD97","N_COORD97":"N_COORD97","ADDRESS":"ADDRESS","OBJECTID":"OBJECTID"},"geometryType":"esriGeometryPoint","spatialReference":{"wkid":102443,"latestWkid":3826},"fields":[{"name":"ID","type":"esriFieldTypeDouble","alias":"ID"},{"name":"DIS_CODE","type":"esriFieldTypeInteger","alias":"DIS_CODE"},{"name":"TOWNNAME","type":"esriFieldTypeString","alias":"TOWNNAME","length":8},{"name":"LI","type":"esriFieldTypeString","alias":"LI","length":8},{"name":"LIN","type":"esriFieldTypeString","alias":"LIN","length":12},{"name":"STREET","type":"esriFieldTypeString","alias":"STREET","length":20},{"name":"SECT","type":"esriFieldTypeString","alias":"SECT","length":8},{"name":"MAREA","type":"esriFieldTypeString","alias":"MAREA","length":12},{"name":"LANE","type":"esriFieldTypeString","alias":"LANE","length":10},{"name":"ALLEY","type":"esriFieldTypeString","alias":"ALLEY","length":10},{"name":"HOUSE_NO","type":"esriFieldTypeString","alias":"HOUSE_NO","length":20},{"name":"E_COORD97","type":"esriFieldTypeDouble","alias":"E_COORD97"},{"name":"N_COORD97","type":"esriFieldTypeDouble","alias":"N_COORD97"},{"name":"ADDRESS","type":"esriFieldTypeString","alias":"ADDRESS","length":50},{"name":"OBJECTID","type":"esriFieldTypeOID","alias":"OBJECTID"}],"features":[{"attributes":{"ID":192202,"DIS_CODE":0,"TOWNNAME":"學甲區","LI":"平和里","LIN":"21鄰","STREET":" ","SECT":" ","MAREA":"西平寮","LANE":" ","ALLEY":" ","HOUSE_NO":"１７號","E_COORD97":169265.82999999999,"N_COORD97":2573245.4399999999,"ADDRESS":"西平寮１７號","OBJECTID":192201},"geometry":{"x":169265.83000000101,"y":2573245.4399999995}},{"attributes":{"ID":192203,"DIS_CODE":0,"TOWNNAME":"學甲區","LI":"平和里","LIN":"21鄰","STREET":" ","SECT":" ","MAREA":"西平寮","LANE":" ","ALLEY":" ","HOUSE_NO":"１８號","E_COORD97":169265.91,"N_COORD97":2573177.98,"ADDRESS":"西平寮１８號","OBJECTID":192202},"geometry":{"x":169265.91000000108,"y":2573177.9800000004}},{"attributes":{"ID":192204,"DIS_CODE":0,"TOWNNAME":"學甲區","LI":"平和里","LIN":"21鄰","STREET":" ","SECT":" ","MAREA":"西平寮","LANE":" ","ALLEY":" ","HOUSE_NO":"２０號","E_COORD97":169244.95999999999,"N_COORD97":2573188.3399999999,"ADDRESS":"西平寮２０號","OBJECTID":192203},"geometry":{"x":169244.96000000089,"y":2573188.3399999999}},{"attributes":{"ID":192205,"DIS_CODE":0,"TOWNNAME":"南區","LI":"興農里","LIN":"5鄰","STREET":"灣裡路","SECT":" ","MAREA":" ","LANE":"２６３巷","ALLEY":"６７弄","HOUSE_NO":"１７號","E_COORD97":166339.10999999999,"N_COORD97":2536472.7000000002,"ADDRESS":"灣裡路２６３巷６７弄１７號","OBJECTID":192204},"geometry":{"x":166339.11000000034,"y":2536472.7000000011}},{"attributes":{"ID":192206,"DIS_CODE":0,"TOWNNAME":"南區","LI":"興農里","LIN":"5鄰","STREET":"灣裡路","SECT":" ","MAREA":" ","LANE":"２６３巷","ALLEY":"６７弄","HOUSE_NO":"１９號","E_COORD97":166345.5,"N_COORD97":2536474.8199999998,"ADDRESS":"灣裡路２６３巷６７弄１９號","OBJECTID":192205},"geometry":{"x":166345.50000000093,"y":2536474.8200000003}},{"attributes":{"ID":192207,"DIS_CODE":0,"TOWNNAME":"南區","LI":"興農里","LIN":"5鄰","STREET":"灣裡路","SECT":" ","MAREA":" ","LANE":"２６３巷","ALLEY":"６７弄","HOUSE_NO":"２３號","E_COORD97":166356.98000000001,"N_COORD97":2536488.6299999999,"ADDRESS":"灣裡路２６３巷６７弄２３號","OBJECTID":192206},"geometry":{"x":166356.98000000045,"y":2536488.6299999971}},{"attributes":{"ID":192208,"DIS_CODE":0,"TOWNNAME":"南區","LI":"興農里","LIN":"5鄰","STREET":"灣裡路","SECT":" ","MAREA":" ","LANE":"２６３巷","ALLEY":"６７弄","HOUSE_NO":"２５號","E_COORD97":166368.47,"N_COORD97":2536495.8599999999,"ADDRESS":"灣裡路２６３巷６７弄２５號","OBJECTID":192207},"geometry":{"x":166368.46999999974,"y":2536495.8600000013}},{"attributes":{"ID":192209,"DIS_CODE":0,"TOWNNAME":"南區","LI":"興農里","LIN":"5鄰","STREET":"灣裡路","SECT":" ","MAREA":" ","LANE":"２６３巷","ALLEY":"６７弄","HOUSE_NO":"２９號之１","E_COORD97":166397.42000000001,"N_COORD97":2536493.54,"ADDRESS":"灣裡路２６３巷６７弄２９號之１","OBJECTID":192208},"geometry":{"x":166397.41999999993,"y":2536493.540000001}},{"attributes":{"ID":192210,"DIS_CODE":0,"TOWNNAME":"南區","LI":"興農里","LIN":"5鄰","STREET":"灣裡路","SECT":" ","MAREA":" ","LANE":"２６３巷","ALLEY":"６７弄","HOUSE_NO":"３１號","E_COORD97":166384.62,"N_COORD97":2536507.77,"ADDRESS":"灣裡路２６３巷６７弄３１號","OBJECTID":192209},"geometry":{"x":166384.62000000011,"y":2536507.7699999996}},{"attributes":{"ID":192211,"DIS_CODE":0,"TOWNNAME":"南區","LI":"興農里","LIN":"5鄰","STREET":"灣裡路","SECT":" ","MAREA":" ","LANE":"２６３巷","ALLEY":"６７弄","HOUSE_NO":"３３號","E_COORD97":166385.72,"N_COORD97":2536521.1000000001,"ADDRESS":"灣裡路２６３巷６７弄３３號","OBJECTID":192210},"geometry":{"x":166385.71999999881,"y":2536521.1000000015}},{"attributes":{"ID":192212,"DIS_CODE":0,"TOWNNAME":"安南區","LI":"頂安里","LIN":"5鄰","STREET":"長溪路","SECT":"一段","MAREA":" ","LANE":"４０６巷","ALLEY":"５５弄","HOUSE_NO":"１６號","E_COORD97":168603.87,"N_COORD97":2549156.6600000001,"ADDRESS":"長溪路一段４０６巷５５弄１６號","OBJECTID":192211},"geometry":{"x":168603.87000000011,"y":2549156.660000002}},{"attributes":{"ID":192213,"DIS_CODE":0,"TOWNNAME":"安南區","LI":"頂安里","LIN":"5鄰","STREET":"長溪路","SECT":"一段","MAREA":" ","LANE":"４０６巷","ALLEY":"５５弄","HOUSE_NO":"２０號","E_COORD97":168590.38,"N_COORD97":2549153.9700000002,"ADDRESS":"長溪路一段４０６巷５５弄２０號","OBJECTID":192212},"geometry":{"x":168590.38000000175,"y":2549153.9700000007}},{"attributes":{"ID":192214,"DIS_CODE":0,"TOWNNAME":"安南區","LI":"頂安里","LIN":"5鄰","STREET":"長溪路","SECT":"一段","MAREA":" ","LANE":"４０６巷","ALLEY":"５５弄","HOUSE_NO":"３１號","E_COORD97":168546.19,"N_COORD97":2549153.9700000002,"ADDRESS":"長溪路一段４０６巷５５弄３１號","OBJECTID":192213},"geometry":{"x":168546.19000000041,"y":2549153.9700000007}},{"attributes":{"ID":192215,"DIS_CODE":0,"TOWNNAME":"安南區","LI":"頂安里","LIN":"5鄰","STREET":"長溪路","SECT":"一段","MAREA":" ","LANE":"４０６巷","ALLEY":"５５弄","HOUSE_NO":"３４號","E_COORD97":168565.42000000001,"N_COORD97":2549174.8599999999,"ADDRESS":"長溪路一段４０６巷５５弄３４號","OBJECTID":192214},"geometry":{"x":168565.42000000086,"y":2549174.8600000013}},{"attributes":{"ID":192216,"DIS_CODE":0,"TOWNNAME":"官田區","LI":"隆本里","LIN":"5鄰","STREET":"中華路","SECT":"二段","MAREA":" ","LANE":"１０８巷","ALLEY":"１９弄","HOUSE_NO":"１０號","E_COORD97":180121.44,"N_COORD97":2566575.1200000001,"ADDRESS":"中華路二段１０８巷１９弄１０號","OBJECTID":192215},"geometry":{"x":180121.44000000134,"y":2566575.1200000029}},{"attributes":{"ID":192217,"DIS_CODE":0,"TOWNNAME":"官田區","LI":"隆本里","LIN":"5鄰","STREET":"中華路","SECT":"二段","MAREA":" ","LANE":"１０８巷","ALLEY":"１９弄","HOUSE_NO":"１１號","E_COORD97":180119.35000000001,"N_COORD97":2566591.7000000002,"ADDRESS":"中華路二段１０８巷１９弄１１號","OBJECTID":192216},"geometry":{"x":180119.35000000149,"y":2566591.6999999974}},{"attributes":{"ID":192218,"DIS_CODE":0,"TOWNNAME":"官田區","LI":"隆本里","LIN":"5鄰","STREET":"中華路","SECT":"二段","MAREA":" ","LANE":"１０８巷","ALLEY":"１９弄","HOUSE_NO":"２號","E_COORD97":180117.67000000001,"N_COORD97":2566557.9199999999,"ADDRESS":"中華路二段１０８巷１９弄２號","OBJECTID":192217},"geometry":{"x":180117.67000000086,"y":2566557.9200000018}},{"attributes":{"ID":192219,"DIS_CODE":0,"TOWNNAME":"官田區","LI":"隆本里","LIN":"5鄰","STREET":"中華路","SECT":"二段","MAREA":" ","LANE":"１０８巷","ALLEY":"１９弄","HOUSE_NO":"５號","E_COORD97":180102.42999999999,"N_COORD97":2566558.6400000001,"ADDRESS":"中華路二段１０８巷１９弄５號","OBJECTID":192218},"geometry":{"x":180102.43000000063,"y":2566558.6400000006}},{"attributes":{"ID":192220,"DIS_CODE":0,"TOWNNAME":"官田區","LI":"隆本里","LIN":"5鄰","STREET":"中華路","SECT":"二段","MAREA":" ","LANE":"１０８巷","ALLEY":"１９弄","HOUSE_NO":"６號","E_COORD97":180117.26000000001,"N_COORD97":2566563.1400000001,"ADDRESS":"中華路二段１０８巷１９弄６號","OBJECTID":192219},"geometry":{"x":180117.26000000071,"y":2566563.1400000043}},{"attributes":{"ID":192221,"DIS_CODE":0,"TOWNNAME":"官田區","LI":"隆本里","LIN":"5鄰","STREET":"中華路","SECT":"二段","MAREA":" ","LANE":"１０８巷","ALLEY":"１９弄","HOUSE_NO":"７號","E_COORD97":180102.42999999999,"N_COORD97":2566563.5800000001,"ADDRESS":"中華路二段１０８巷１９弄７號","OBJECTID":192220},"geometry":{"x":180102.43000000063,"y":2566563.5800000019}},{"attributes":{"ID":192222,"DIS_CODE":0,"TOWNNAME":"官田區","LI":"隆本里","LIN":"5鄰","STREET":"中華路","SECT":"二段","MAREA":" ","LANE":"１０８巷","ALLEY":"１９弄","HOUSE_NO":"８號","E_COORD97":180115.95999999999,"N_COORD97":2566574.9300000002,"ADDRESS":"中華路二段１０８巷１９弄８號","OBJECTID":192221},"geometry":{"x":180115.96000000089,"y":2566574.9300000016}},{"attributes":{"ID":192223,"DIS_CODE":0,"TOWNNAME":"北區","LI":"和順里","LIN":"21鄰","STREET":"民德路","SECT":" ","MAREA":" ","LANE":" ","ALLEY":" ","HOUSE_NO":"７７號","E_COORD97":168273,"N_COORD97":2545094.7400000002,"ADDRESS":"民德路７７號","OBJECTID":192222},"geometry":{"x":168273.00000000093,"y":2545094.7400000021}},{"attributes":{"ID":192224,"DIS_CODE":0,"TOWNNAME":"北區","LI":"和順里","LIN":"21鄰","STREET":"民德路","SECT":" ","MAREA":" ","LANE":" ","ALLEY":" ","HOUSE_NO":"７９號","E_COORD97":168269.10999999999,"N_COORD97":2545089.9900000002,"ADDRESS":"民德路７９號","OBJECTID":192223},"geometry":{"x":168269.11000000127,"y":2545089.9900000021}},{"attributes":{"ID":192225,"DIS_CODE":0,"TOWNNAME":"北區","LI":"和順里","LIN":"21鄰","STREET":"民德路","SECT":" ","MAREA":" ","LANE":" ","ALLEY":" ","HOUSE_NO":"８１號","E_COORD97":168265.37,"N_COORD97":2545088.5600000001,"ADDRESS":"民德路８１號","OBJECTID":192224},"geometry":{"x":168265.37000000104,"y":2545088.5600000005}},{"attributes":{"ID":192226,"DIS_CODE":0,"TOWNNAME":"北區","LI":"和順里","LIN":"21鄰","STREET":"民德路","SECT":" ","MAREA":" ","LANE":" ","ALLEY":" ","HOUSE_NO":"８３號","E_COORD97":168261.34,"N_COORD97":2545087.1200000001,"ADDRESS":"民德路８３號","OBJECTID":192225},"geometry":{"x":168261.33999999985,"y":2545087.1200000029}},{"attributes":{"ID":192227,"DIS_CODE":0,"TOWNNAME":"官田區","LI":"隆本里","LIN":"5鄰","STREET":"中華路","SECT":"二段","MAREA":" ","LANE":"１０８巷","ALLEY":"１９弄","HOUSE_NO":"９號","E_COORD97":180111.51999999999,"N_COORD97":2566591.5699999998,"ADDRESS":"中華路二段１０８巷１９弄９號","OBJECTID":192226},"geometry":{"x":180111.52000000048,"y":2566591.5700000022}},{"attributes":{"ID":192228,"DIS_CODE":0,"TOWNNAME":"官田區","LI":"隆本里","LIN":"5鄰","STREET":"中華路","SECT":"二段","MAREA":" ","LANE":"１０８巷","ALLEY":"１弄","HOUSE_NO":"５號","E_COORD97":180082.44622700001,"N_COORD97":2566563.5720799998,"ADDRESS":"中華路二段１０８巷１弄５號","OBJECTID":192227},"geometry":{"x":180082.44622700196,"y":2566563.5720770005}},{"attributes":{"ID":192229,"DIS_CODE":0,"TOWNNAME":"永康區","LI":"南灣里","LIN":"5鄰","STREET":"大灣路","SECT":" ","MAREA":" ","LANE":"５３７巷","ALLEY":"１５弄","HOUSE_NO":"１６號","E_COORD97":174526.64999999999,"N_COORD97":2544490.9100000001,"ADDRESS":"大灣路５３７巷１５弄１６號","OBJECTID":192228},"geometry":{"x":174526.65000000037,"y":2544490.910000002}},{"attributes":{"ID":192230,"DIS_CODE":0,"TOWNNAME":"永康區","LI":"西橋里","LIN":"5鄰","STREET":"中山南路","SECT":" ","MAREA":" ","LANE":"４３巷","ALLEY":"４０弄","HOUSE_NO":"３２號","E_COORD97":170756.95999999999,"N_COORD97":2545986.9900000002,"ADDRESS":"中山南路４３巷４０弄３２號","OBJECTID":192229},"geometry":{"x":170756.96000000089,"y":2545986.9900000002}},{"attributes":{"ID":192231,"DIS_CODE":0,"TOWNNAME":"永康區","LI":"甲頂里","LIN":"5鄰","STREET":"中正南路","SECT":" ","MAREA":" ","LANE":"１６８巷","ALLEY":"２弄","HOUSE_NO":"９０號","E_COORD97":169829.79000000001,"N_COORD97":2546852.25,"ADDRESS":"中正南路１６８巷２弄９０號","OBJECTID":192230},"geometry":{"x":169829.79000000004,"y":2546852.25}},{"attributes":{"ID":192232,"DIS_CODE":0,"TOWNNAME":"東區","LI":"大智里","LIN":"5鄰","STREET":"長東街","SECT":" ","MAREA":" ","LANE":"４１巷","ALLEY":"７弄","HOUSE_NO":"１號","E_COORD97":171039.51000000001,"N_COORD97":2540526.5099999998,"ADDRESS":"長東街４１巷７弄１號","OBJECTID":192231},"geometry":{"x":171039.51000000071,"y":2540526.5100000016}},{"attributes":{"ID":192233,"DIS_CODE":0,"TOWNNAME":"東區","LI":"大智里","LIN":"5鄰","STREET":"長東街","SECT":" ","MAREA":" ","LANE":"４１巷","ALLEY":"７弄","HOUSE_NO":"３號","E_COORD97":171039.34,"N_COORD97":2540532.2400000002,"ADDRESS":"長東街４１巷７弄３號","OBJECTID":192232},"geometry":{"x":171039.33999999985,"y":2540532.2400000021}},{"attributes":{"ID":192234,"DIS_CODE":0,"TOWNNAME":"東區","LI":"大智里","LIN":"5鄰","STREET":"長東街","SECT":" ","MAREA":" ","LANE":"４１巷","ALLEY":"７弄","HOUSE_NO":"５號","E_COORD97":171038.85000000001,"N_COORD97":2540537.48,"ADDRESS":"長東街４１巷７弄５號","OBJECTID":192233},"geometry":{"x":171038.85000000056,"y":2540537.4800000023}},{"attributes":{"ID":192235,"DIS_CODE":0,"TOWNNAME":"東區","LI":"富強里","LIN":"5鄰","STREET":"中華東路","SECT":"二段","MAREA":" ","LANE":"２２６巷","ALLEY":"２７弄","HOUSE_NO":"７６號","E_COORD97":171030.45999999999,"N_COORD97":2542630.6000000001,"ADDRESS":"中華東路二段２２６巷２７弄７６號","OBJECTID":192234},"geometry":{"x":171030.45999999996,"y":2542630.6000000015}},{"attributes":{"ID":192236,"DIS_CODE":0,"TOWNNAME":"東區","LI":"富強里","LIN":"5鄰","STREET":"中華東路","SECT":"二段","MAREA":" ","LANE":"２２６巷","ALLEY":"２７弄","HOUSE_NO":"７８號","E_COORD97":171024.91,"N_COORD97":2542630.75,"ADDRESS":"中華東路二段２２６巷２７弄７８號","OBJECTID":192235},"geometry":{"x":171024.91000000108,"y":2542630.7500000019}},{"attributes":{"ID":192237,"DIS_CODE":0,"TOWNNAME":"七股區","LI":"?埕里","LIN":"9鄰","STREET":" ","SECT":" ","MAREA":"?埕","LANE":" ","ALLEY":" ","HOUSE_NO":"１５６號","E_COORD97":156720.64999999999,"N_COORD97":2561391.6499999999,"ADDRESS":"?埕１５６號","OBJECTID":192236},"geometry":{"x":156720.65000000037,"y":2561391.6500000004}},{"attributes":{"ID":192238,"DIS_CODE":0,"TOWNNAME":"東區","LI":"富強里","LIN":"5鄰","STREET":"中華東路","SECT":"二段","MAREA":" ","LANE":"２２６巷","ALLEY":"２７弄","HOUSE_NO":"８０號","E_COORD97":171019.51000000001,"N_COORD97":2542631.5,"ADDRESS":"中華東路二段２２６巷２７弄８０號","OBJECTID":192237},"geometry":{"x":171019.50999999978,"y":2542631.5000000019}},{"attributes":{"ID":192239,"DIS_CODE":0,"TOWNNAME":"東區","LI":"富強里","LIN":"5鄰","STREET":"中華東路","SECT":"二段","MAREA":" ","LANE":"２２６巷","ALLEY":"２７弄","HOUSE_NO":"８２號","E_COORD97":171014.10999999999,"N_COORD97":2542631.9500000002,"ADDRESS":"中華東路二段２２６巷２７弄８２號","OBJECTID":192238},"geometry":{"x":171014.11000000127,"y":2542631.9500000011}},{"attributes":{"ID":192240,"DIS_CODE":0,"TOWNNAME":"七股區","LI":"?埕里","LIN":"9鄰","STREET":" ","SECT":" ","MAREA":"?埕","LANE":" ","ALLEY":" ","HOUSE_NO":"１５７號","E_COORD97":156699.29999999999,"N_COORD97":2561391.6200000001,"ADDRESS":"?埕１５７號","OBJECTID":192239},"geometry":{"x":156699.30000000075,"y":2561391.6200000029}},{"attributes":{"ID":192241,"DIS_CODE":0,"TOWNNAME":"東區","LI":"富強里","LIN":"5鄰","STREET":"中華東路","SECT":"二段","MAREA":" ","LANE":"２２６巷","ALLEY":"２７弄","HOUSE_NO":"８６號","E_COORD97":171008.39999999999,"N_COORD97":2542631.6499999999,"ADDRESS":"中華東路二段２２６巷２７弄８６號","OBJECTID":192240},"geometry":{"x":171008.4000000013,"y":2542631.6500000022}},{"attributes":{"ID":192242,"DIS_CODE":0,"TOWNNAME":"柳營區","LI":"重溪里","LIN":"9鄰","STREET":" ","SECT":" ","MAREA":"小腳腿","LANE":" ","ALLEY":" ","HOUSE_NO":"１００號","E_COORD97":185234.23999999999,"N_COORD97":2576803.3500000001,"ADDRESS":"小腳腿１００號","OBJECTID":192241},"geometry":{"x":185234.24000000022,"y":2576803.3500000015}},{"attributes":{"ID":192243,"DIS_CODE":0,"TOWNNAME":"柳營區","LI":"重溪里","LIN":"9鄰","STREET":" ","SECT":" ","MAREA":"小腳腿","LANE":" ","ALLEY":" ","HOUSE_NO":"１０１號","E_COORD97":185234.26999999999,"N_COORD97":2576769.0699999998,"ADDRESS":"小腳腿１０１號","OBJECTID":192242},"geometry":{"x":185234.27000000048,"y":2576769.0700000022}},{"attributes":{"ID":192244,"DIS_CODE":0,"TOWNNAME":"東區","LI":"富強里","LIN":"5鄰","STREET":"中華東路","SECT":"二段","MAREA":" ","LANE":"２２６巷","ALLEY":"２７弄","HOUSE_NO":"８８號","E_COORD97":171002.25,"N_COORD97":2542631.3500000001,"ADDRESS":"中華東路二段２２６巷２７弄８８號","OBJECTID":192243},"geometry":{"x":171002.25000000093,"y":2542631.3500000034}},{"attributes":{"ID":192245,"DIS_CODE":0,"TOWNNAME":"柳營區","LI":"重溪里","LIN":"9鄰","STREET":" ","SECT":" ","MAREA":"小腳腿","LANE":" ","ALLEY":" ","HOUSE_NO":"１０２號","E_COORD97":185248.60999999999,"N_COORD97":2576773.2000000002,"ADDRESS":"小腳腿１０２號","OBJECTID":192244},"geometry":{"x":185248.61000000127,"y":2576773.200000003}},{"attributes":{"ID":192246,"DIS_CODE":0,"TOWNNAME":"東區","LI":"富強里","LIN":"5鄰","STREET":"中華東路","SECT":"二段","MAREA":" ","LANE":"２２６巷","ALLEY":"２７弄","HOUSE_NO":"９０號","E_COORD97":170995.5,"N_COORD97":2542631.5,"ADDRESS":"中華東路二段２２６巷２７弄９０號","OBJECTID":192245},"geometry":{"x":170995.50000000093,"y":2542631.5000000019}},{"attributes":{"ID":192247,"DIS_CODE":0,"TOWNNAME":"東區","LI":"富強里","LIN":"5鄰","STREET":"中華東路","SECT":"二段","MAREA":" ","LANE":"２２６巷","ALLEY":"２７弄","HOUSE_NO":"９２號","E_COORD97":170988,"N_COORD97":2542631.2000000002,"ADDRESS":"中華東路二段２２６巷２７弄９２號","OBJECTID":192246},"geometry":{"x":170988,"y":2542631.1999999993}},{"attributes":{"ID":192248,"DIS_CODE":0,"TOWNNAME":"歸仁區","LI":"八甲里","LIN":"21鄰","STREET":"大仁三街","SECT":" ","MAREA":" ","LANE":" ","ALLEY":" ","HOUSE_NO":"７９號","E_COORD97":178251.29000000001,"N_COORD97":2541406.25,"ADDRESS":"大仁三街７９號","OBJECTID":192247},"geometry":{"x":178251.29000000004,"y":2541406.2500000019}},{"attributes":{"ID":192249,"DIS_CODE":0,"TOWNNAME":"柳營區","LI":"重溪里","LIN":"9鄰","STREET":" ","SECT":" ","MAREA":"小腳腿","LANE":" ","ALLEY":" ","HOUSE_NO":"１０３號","E_COORD97":185253.87,"N_COORD97":2576762.0600000001,"ADDRESS":"小腳腿１０３號","OBJECTID":192248},"geometry":{"x":185253.87000000011,"y":2576762.0600000042}},{"attributes":{"ID":192250,"DIS_CODE":0,"TOWNNAME":"柳營區","LI":"篤農里","LIN":"9鄰","STREET":" ","SECT":" ","MAREA":"小腳腿","LANE":" ","ALLEY":" ","HOUSE_NO":"２５８號之５","E_COORD97":185512.85999999999,"N_COORD97":2576272.2799999998,"ADDRESS":"小腳腿２５８號之５","OBJECTID":192249},"geometry":{"x":185512.86000000127,"y":2576272.2800000012}},{"attributes":{"ID":192251,"DIS_CODE":0,"TOWNNAME":"柳營區","LI":"篤農里","LIN":"9鄰","STREET":" ","SECT":" ","MAREA":"小腳腿","LANE":" ","ALLEY":" ","HOUSE_NO":"２５８號之６","E_COORD97":185516.32999999999,"N_COORD97":2576227.4399999999,"ADDRESS":"小腳腿２５８號之６","OBJECTID":192250},"geometry":{"x":185516.33000000101,"y":2576227.4400000013}},{"attributes":{"ID":192252,"DIS_CODE":0,"TOWNNAME":"柳營區","LI":"篤農里","LIN":"9鄰","STREET":" ","SECT":" ","MAREA":"小腳腿","LANE":" ","ALLEY":" ","HOUSE_NO":"２５８號之７","E_COORD97":185530.85999999999,"N_COORD97":2576264.8700000001,"ADDRESS":"小腳腿２５８號之７","OBJECTID":192251},"geometry":{"x":185530.8599999994,"y":2576264.870000001}},{"attributes":{"ID":192253,"DIS_CODE":0,"TOWNNAME":"中西區","LI":"仙草里","LIN":"15鄰","STREET":"五妃街","SECT":" ","MAREA":" ","LANE":" ","ALLEY":" ","HOUSE_NO":"３１１號","E_COORD97":167897.41,"N_COORD97":2542571.1800000002,"ADDRESS":"五妃街３１１號","OBJECTID":192252},"geometry":{"x":167897.41000000108,"y":2542571.1799999997}},{"attributes":{"ID":192254,"DIS_CODE":0,"TOWNNAME":"南區","LI":"鯤鯓里","LIN":"21鄰","STREET":"鯤鯓路","SECT":" ","MAREA":" ","LANE":" ","ALLEY":" ","HOUSE_NO":"１６４號","E_COORD97":164903.63,"N_COORD97":2540186.3999999999,"ADDRESS":"鯤鯓路１６４號","OBJECTID":192253},"geometry":{"x":164903.63000000082,"y":2540186.4000000004}},{"attributes":{"ID":192255,"DIS_CODE":0,"TOWNNAME":"南區","LI":"鯤鯓里","LIN":"21鄰","STREET":"鯤鯓路","SECT":" ","MAREA":" ","LANE":" ","ALLEY":" ","HOUSE_NO":"１６６號","E_COORD97":164898.44,"N_COORD97":2540193.1899999999,"ADDRESS":"鯤鯓路１６６號","OBJECTID":192254},"geometry":{"x":164898.44000000227,"y":2540193.1899999995}},{"attributes":{"ID":192256,"DIS_CODE":0,"TOWNNAME":"南區","LI":"鯤鯓里","LIN":"21鄰","STREET":"鯤鯓路","SECT":" ","MAREA":" ","LANE":" ","ALLEY":" ","HOUSE_NO":"１６８號","E_COORD97":164895.42000000001,"N_COORD97":2540199.3399999999,"ADDRESS":"鯤鯓路１６８號","OBJECTID":192255},"geometry":{"x":164895.42000000086,"y":2540199.3399999999}},{"attributes":{"ID":192257,"DIS_CODE":0,"TOWNNAME":"東區","LI":"富強里","LIN":"5鄰","STREET":"東門路","SECT":"二段","MAREA":" ","LANE":"３０１巷","ALLEY":"１２０弄","HOUSE_NO":"５２號","E_COORD97":170981.85000000001,"N_COORD97":2542666.1600000001,"ADDRESS":"東門路二段３０１巷１２０弄５２號","OBJECTID":192256},"geometry":{"x":170981.84999999963,"y":2542666.1600000001}},{"attributes":{"ID":192258,"DIS_CODE":0,"TOWNNAME":"東區","LI":"富強里","LIN":"5鄰","STREET":"東門路","SECT":"二段","MAREA":" ","LANE":"３０１巷","ALLEY":"１２０弄","HOUSE_NO":"５６號","E_COORD97":170987.10000000001,"N_COORD97":2542666.0099999998,"ADDRESS":"東門路二段３０１巷１２０弄５６號","OBJECTID":192257},"geometry":{"x":170987.09999999963,"y":2542666.0100000016}},{"attributes":{"ID":192259,"DIS_CODE":0,"TOWNNAME":"東區","LI":"富強里","LIN":"5鄰","STREET":"東門路","SECT":"二段","MAREA":" ","LANE":"３０１巷","ALLEY":"１２０弄","HOUSE_NO":"５８號","E_COORD97":170991.89999999999,"N_COORD97":2542666.1600000001,"ADDRESS":"東門路二段３０１巷１２０弄５８號","OBJECTID":192258},"geometry":{"x":170991.9000000013,"y":2542666.1600000001}},{"attributes":{"ID":192260,"DIS_CODE":0,"TOWNNAME":"東區","LI":"富強里","LIN":"5鄰","STREET":"東門路","SECT":"二段","MAREA":" ","LANE":"３０１巷","ALLEY":"１２０弄","HOUSE_NO":"６０號","E_COORD97":170998.5,"N_COORD97":2542666.1600000001,"ADDRESS":"東門路二段３０１巷１２０弄６０號","OBJECTID":192259},"geometry":{"x":170998.50000000186,"y":2542666.1600000001}},{"attributes":{"ID":192261,"DIS_CODE":0,"TOWNNAME":"東區","LI":"富強里","LIN":"5鄰","STREET":"東門路","SECT":"二段","MAREA":" ","LANE":"３０１巷","ALLEY":"１２０弄","HOUSE_NO":"６２號","E_COORD97":171005.54999999999,"N_COORD97":2542666.0099999998,"ADDRESS":"東門路二段３０１巷１２０弄６２號","OBJECTID":192260},"geometry":{"x":171005.55000000075,"y":2542666.0100000016}},{"attributes":{"ID":192262,"DIS_CODE":0,"TOWNNAME":"東區","LI":"富強里","LIN":"5鄰","STREET":"東門路","SECT":"二段","MAREA":" ","LANE":"３０１巷","ALLEY":"１２０弄","HOUSE_NO":"６６號","E_COORD97":171012.16,"N_COORD97":2542666.0099999998,"ADDRESS":"東門路二段３０１巷１２０弄６６號","OBJECTID":192261},"geometry":{"x":171012.16000000015,"y":2542666.0100000016}},{"attributes":{"ID":192263,"DIS_CODE":0,"TOWNNAME":"南區","LI":"鯤鯓里","LIN":"21鄰","STREET":"鯤鯓路","SECT":" ","MAREA":" ","LANE":" ","ALLEY":" ","HOUSE_NO":"１６８號之１","E_COORD97":164894.69,"N_COORD97":2540204.6499999999,"ADDRESS":"鯤鯓路１６８號之１","OBJECTID":192262},"geometry":{"x":164894.69000000041,"y":2540204.6500000004}},{"attributes":{"ID":192264,"DIS_CODE":0,"TOWNNAME":"東區","LI":"富強里","LIN":"5鄰","STREET":"東門路","SECT":"二段","MAREA":" ","LANE":"３０１巷","ALLEY":"１２０弄","HOUSE_NO":"６８號","E_COORD97":171027.60999999999,"N_COORD97":2542664.96,"ADDRESS":"東門路二段３０１巷１２０弄６８號","OBJECTID":192263},"geometry":{"x":171027.61000000127,"y":2542664.9600000009}},{"attributes":{"ID":192265,"DIS_CODE":0,"TOWNNAME":"東區","LI":"富強里","LIN":"5鄰","STREET":"東門路","SECT":"二段","MAREA":" ","LANE":"３０１巷","ALLEY":"１２０弄","HOUSE_NO":"７０號","E_COORD97":171027.91,"N_COORD97":2542658.5,"ADDRESS":"東門路二段３０１巷１２０弄７０號","OBJECTID":192264},"geometry":{"x":171027.91000000015,"y":2542658.5000000019}},{"attributes":{"ID":192266,"DIS_CODE":0,"TOWNNAME":"南區","LI":"鯤鯓里","LIN":"21鄰","STREET":"鯤鯓路","SECT":" ","MAREA":" ","LANE":" ","ALLEY":" ","HOUSE_NO":"１７０號","E_COORD97":164907.13,"N_COORD97":2540212.4700000002,"ADDRESS":"鯤鯓路１７０號","OBJECTID":192265},"geometry":{"x":164907.13000000082,"y":2540212.4700000025}},{"attributes":{"ID":192267,"DIS_CODE":0,"TOWNNAME":"南區","LI":"鯤鯓里","LIN":"21鄰","STREET":"鯤鯓路","SECT":" ","MAREA":" ","LANE":" ","ALLEY":" ","HOUSE_NO":"１７２號","E_COORD97":164906.76999999999,"N_COORD97":2540216.0899999999,"ADDRESS":"鯤鯓路１７２號","OBJECTID":192266},"geometry":{"x":164906.76999999955,"y":2540216.0900000036}},{"attributes":{"ID":192268,"DIS_CODE":0,"TOWNNAME":"官田區","LI":"官田里","LIN":"9鄰","STREET":" ","SECT":" ","MAREA":"官田","LANE":" ","ALLEY":" ","HOUSE_NO":"８５號","E_COORD97":182376.75,"N_COORD97":2565139.54,"ADDRESS":"官田８５號","OBJECTID":192267},"geometry":{"x":182376.75000000093,"y":2565139.540000001}},{"attributes":{"ID":192269,"DIS_CODE":0,"TOWNNAME":"柳營區","LI":"篤農里","LIN":"9鄰","STREET":" ","SECT":" ","MAREA":"小腳腿","LANE":" ","ALLEY":" ","HOUSE_NO":"２５８號之８","E_COORD97":185512.45999999999,"N_COORD97":2576254.4700000002,"ADDRESS":"小腳腿２５８號之８","OBJECTID":192268},"geometry":{"x":185512.45999999996,"y":2576254.4700000025}},{"attributes":{"ID":192270,"DIS_CODE":0,"TOWNNAME":"柳營區","LI":"篤農里","LIN":"9鄰","STREET":" ","SECT":" ","MAREA":"小腳腿","LANE":" ","ALLEY":" ","HOUSE_NO":"２５８號之９","E_COORD97":185534.94,"N_COORD97":2576321.8399999999,"ADDRESS":"小腳腿２５８號之９","OBJECTID":192269},"geometry":{"x":185534.94000000041,"y":2576321.8400000036}},{"attributes":{"ID":192271,"DIS_CODE":0,"TOWNNAME":"柳營區","LI":"篤農里","LIN":"9鄰","STREET":" ","SECT":" ","MAREA":"小腳腿","LANE":" ","ALLEY":" ","HOUSE_NO":"２５８號","E_COORD97":185522.22,"N_COORD97":2576358.1899999999,"ADDRESS":"小腳腿２５８號","OBJECTID":192270},"geometry":{"x":185522.21999999974,"y":2576358.1899999995}},{"attributes":{"ID":192272,"DIS_CODE":0,"TOWNNAME":"楠西區","LI":"東勢里","LIN":"21鄰","STREET":"民生路","SECT":" ","MAREA":" ","LANE":" ","ALLEY":" ","HOUSE_NO":"９２號","E_COORD97":197428.04000000001,"N_COORD97":2564194.29,"ADDRESS":"民生路９２號","OBJECTID":192271},"geometry":{"x":197428.0400000019,"y":2564194.2900000028}},{"attributes":{"ID":192273,"DIS_CODE":0,"TOWNNAME":"柳營區","LI":"篤農里","LIN":"9鄰","STREET":" ","SECT":" ","MAREA":"小腳腿","LANE":" ","ALLEY":" ","HOUSE_NO":"２５９號之１","E_COORD97":185518.54000000001,"N_COORD97":2576410.3500000001,"ADDRESS":"小腳腿２５９號之１","OBJECTID":192272},"geometry":{"x":185518.54000000004,"y":2576410.3500000015}},{"attributes":{"ID":192274,"DIS_CODE":0,"TOWNNAME":"柳營區","LI":"篤農里","LIN":"9鄰","STREET":" ","SECT":" ","MAREA":"小腳腿","LANE":" ","ALLEY":" ","HOUSE_NO":"２５９號","E_COORD97":185519.53,"N_COORD97":2576452.5600000001,"ADDRESS":"小腳腿２５９號","OBJECTID":192273},"geometry":{"x":185519.53000000212,"y":2576452.5600000005}},{"attributes":{"ID":192275,"DIS_CODE":0,"TOWNNAME":"柳營區","LI":"篤農里","LIN":"9鄰","STREET":" ","SECT":" ","MAREA":"小腳腿","LANE":" ","ALLEY":" ","HOUSE_NO":"２６０號","E_COORD97":185553.42000000001,"N_COORD97":2576454.0899999999,"ADDRESS":"小腳腿２６０號","OBJECTID":192274},"geometry":{"x":185553.41999999993,"y":2576454.0900000017}},{"attributes":{"ID":192276,"DIS_CODE":0,"TOWNNAME":"柳營區","LI":"篤農里","LIN":"9鄰","STREET":" ","SECT":" ","MAREA":"小腳腿","LANE":" ","ALLEY":" ","HOUSE_NO":"２６１號之１","E_COORD97":185541.17999999999,"N_COORD97":2576419,"ADDRESS":"小腳腿２６１號之１","OBJECTID":192275},"geometry":{"x":185541.1799999997,"y":2576419}},{"attributes":{"ID":192277,"DIS_CODE":0,"TOWNNAME":"柳營區","LI":"篤農里","LIN":"9鄰","STREET":" ","SECT":" ","MAREA":"小腳腿","LANE":" ","ALLEY":" ","HOUSE_NO":"２６１號","E_COORD97":185541.26999999999,"N_COORD97":2576427.4300000002,"ADDRESS":"小腳腿２６１號","OBJECTID":192276},"geometry":{"x":185541.27000000048,"y":2576427.4300000016}},{"attributes":{"ID":192278,"DIS_CODE":0,"TOWNNAME":"柳營區","LI":"篤農里","LIN":"9鄰","STREET":" ","SECT":" ","MAREA":"小腳腿","LANE":" ","ALLEY":" ","HOUSE_NO":"２６２號","E_COORD97":185552.60999999999,"N_COORD97":2576395.6200000001,"ADDRESS":"小腳腿２６２號","OBJECTID":192277},"geometry":{"x":185552.61000000034,"y":2576395.6199999992}},{"attributes":{"ID":192279,"DIS_CODE":0,"TOWNNAME":"柳營區","LI":"篤農里","LIN":"9鄰","STREET":" ","SECT":" ","MAREA":"小腳腿","LANE":" ","ALLEY":" ","HOUSE_NO":"２６３號之２","E_COORD97":185535.26999999999,"N_COORD97":2576364.04,"ADDRESS":"小腳腿２６３號之２","OBJECTID":192278},"geometry":{"x":185535.26999999955,"y":2576364.0400000028}},{"attributes":{"ID":192280,"DIS_CODE":0,"TOWNNAME":"柳營區","LI":"篤農里","LIN":"9鄰","STREET":" ","SECT":" ","MAREA":"小腳腿","LANE":" ","ALLEY":" ","HOUSE_NO":"２６３號","E_COORD97":185549.10999999999,"N_COORD97":2576370.7200000002,"ADDRESS":"小腳腿２６３號","OBJECTID":192279},"geometry":{"x":185549.11000000034,"y":2576370.7200000007}},{"attributes":{"ID":192281,"DIS_CODE":0,"TOWNNAME":"柳營區","LI":"重溪里","LIN":"9鄰","STREET":" ","SECT":" ","MAREA":"小腳腿","LANE":" ","ALLEY":" ","HOUSE_NO":"９７號","E_COORD97":185279.60000000001,"N_COORD97":2576799.1400000001,"ADDRESS":"小腳腿９７號","OBJECTID":192280},"geometry":{"x":185279.60000000056,"y":2576799.1400000025}},{"attributes":{"ID":192282,"DIS_CODE":0,"TOWNNAME":"柳營區","LI":"重溪里","LIN":"9鄰","STREET":" ","SECT":" ","MAREA":"小腳腿","LANE":" ","ALLEY":" ","HOUSE_NO":"９８號之１","E_COORD97":185264.87,"N_COORD97":2576796.5099999998,"ADDRESS":"小腳腿９８號之１","OBJECTID":192281},"geometry":{"x":185264.87000000104,"y":2576796.5100000016}},{"attributes":{"ID":192283,"DIS_CODE":0,"TOWNNAME":"柳營區","LI":"重溪里","LIN":"9鄰","STREET":" ","SECT":" ","MAREA":"小腳腿","LANE":" ","ALLEY":" ","HOUSE_NO":"９８號","E_COORD97":185240.89000000001,"N_COORD97":2576798.25,"ADDRESS":"小腳腿９８號","OBJECTID":192282},"geometry":{"x":185240.8900000006,"y":2576798.2500000019}},{"attributes":{"ID":192284,"DIS_CODE":0,"TOWNNAME":"柳營區","LI":"重溪里","LIN":"9鄰","STREET":" ","SECT":" ","MAREA":"小腳腿","LANE":" ","ALLEY":" ","HOUSE_NO":"９９號","E_COORD97":185229.89000000001,"N_COORD97":2576803.8799999999,"ADDRESS":"小腳腿９９號","OBJECTID":192283},"geometry":{"x":185229.88999999873,"y":2576803.879999999}},{"attributes":{"ID":192285,"DIS_CODE":0,"TOWNNAME":"六甲區","LI":"大丘里","LIN":"9鄰","STREET":" ","SECT":" ","MAREA":"猴洞腳","LANE":" ","ALLEY":" ","HOUSE_NO":"１５號","E_COORD97":190918.5,"N_COORD97":2568343.6800000002,"ADDRESS":"猴洞腳１５號","OBJECTID":192284},"geometry":{"x":190918.5,"y":2568343.6799999997}},{"attributes":{"ID":192286,"DIS_CODE":0,"TOWNNAME":"六甲區","LI":"大丘里","LIN":"9鄰","STREET":" ","SECT":" ","MAREA":"猴洞腳","LANE":" ","ALLEY":" ","HOUSE_NO":"１號之１","E_COORD97":190873.73999999999,"N_COORD97":2568699.1400000001,"ADDRESS":"猴洞腳１號之１","OBJECTID":192285},"geometry":{"x":190873.74000000115,"y":2568699.1400000043}},{"attributes":{"ID":192287,"DIS_CODE":0,"TOWNNAME":"六甲區","LI":"大丘里","LIN":"9鄰","STREET":" ","SECT":" ","MAREA":"猴洞腳","LANE":" ","ALLEY":" ","HOUSE_NO":"１號","E_COORD97":190876.29000000001,"N_COORD97":2568719.9100000001,"ADDRESS":"猴洞腳１號","OBJECTID":192286},"geometry":{"x":190876.29000000097,"y":2568719.9100000001}},{"attributes":{"ID":192288,"DIS_CODE":0,"TOWNNAME":"六甲區","LI":"大丘里","LIN":"9鄰","STREET":" ","SECT":" ","MAREA":"猴洞腳","LANE":" ","ALLEY":" ","HOUSE_NO":"２號","E_COORD97":190867.13,"N_COORD97":2568681.8799999999,"ADDRESS":"猴洞腳２號","OBJECTID":192287},"geometry":{"x":190867.13000000082,"y":2568681.879999999}},{"attributes":{"ID":192289,"DIS_CODE":0,"TOWNNAME":"六甲區","LI":"大丘里","LIN":"9鄰","STREET":" ","SECT":" ","MAREA":"猴洞腳","LANE":" ","ALLEY":" ","HOUSE_NO":"３號","E_COORD97":190831.22,"N_COORD97":2568302.3300000001,"ADDRESS":"猴洞腳３號","OBJECTID":192288},"geometry":{"x":190831.22000000067,"y":2568302.3300000001}},{"attributes":{"ID":192290,"DIS_CODE":0,"TOWNNAME":"六甲區","LI":"大丘里","LIN":"9鄰","STREET":" ","SECT":" ","MAREA":"猴洞腳","LANE":" ","ALLEY":" ","HOUSE_NO":"４號","E_COORD97":190853.79000000001,"N_COORD97":2568314.8500000001,"ADDRESS":"猴洞腳４號","OBJECTID":192289},"geometry":{"x":190853.79000000004,"y":2568314.8500000015}},{"attributes":{"ID":192291,"DIS_CODE":0,"TOWNNAME":"東區","LI":"富強里","LIN":"5鄰","STREET":"東門路","SECT":"二段","MAREA":" ","LANE":"３０１巷","ALLEY":"１２０弄","HOUSE_NO":"７２號","E_COORD97":171027.91,"N_COORD97":2542651.4500000002,"ADDRESS":"東門路二段３０１巷１２０弄７２號","OBJECTID":192290},"geometry":{"x":171027.91000000015,"y":2542651.4500000011}},{"attributes":{"ID":192292,"DIS_CODE":0,"TOWNNAME":"楠西區","LI":"楠西里","LIN":"21鄰","STREET":"中正路","SECT":" ","MAREA":" ","LANE":" ","ALLEY":" ","HOUSE_NO":"１３０號","E_COORD97":197310.16,"N_COORD97":2563921.25,"ADDRESS":"中正路１３０號","OBJECTID":192291},"geometry":{"x":197310.16000000015,"y":2563921.2500000019}},{"attributes":{"ID":192293,"DIS_CODE":0,"TOWNNAME":"六甲區","LI":"大丘里","LIN":"9鄰","STREET":" ","SECT":" ","MAREA":"猴洞腳","LANE":" ","ALLEY":" ","HOUSE_NO":"５號","E_COORD97":190858.73000000001,"N_COORD97":2568273.0800000001,"ADDRESS":"猴洞腳５號","OBJECTID":192292},"geometry":{"x":190858.73000000138,"y":2568273.0800000019}},{"attributes":{"ID":192294,"DIS_CODE":0,"TOWNNAME":"六甲區","LI":"大丘里","LIN":"9鄰","STREET":" ","SECT":" ","MAREA":"猴洞腳","LANE":" ","ALLEY":" ","HOUSE_NO":"６號","E_COORD97":190864.48000000001,"N_COORD97":2568298.7200000002,"ADDRESS":"猴洞腳６號","OBJECTID":192293},"geometry":{"x":190864.48000000045,"y":2568298.7200000044}},{"attributes":{"ID":192295,"DIS_CODE":0,"TOWNNAME":"六甲區","LI":"大丘里","LIN":"9鄰","STREET":" ","SECT":" ","MAREA":"猴洞腳","LANE":" ","ALLEY":" ","HOUSE_NO":"７號","E_COORD97":190888.22,"N_COORD97":2568259.2400000002,"ADDRESS":"猴洞腳７號","OBJECTID":192294},"geometry":{"x":190888.2200000016,"y":2568259.2400000002}},{"attributes":{"ID":192296,"DIS_CODE":0,"TOWNNAME":"東區","LI":"富強里","LIN":"5鄰","STREET":"東門路","SECT":"二段","MAREA":" ","LANE":"３０１巷","ALLEY":"１２０弄","HOUSE_NO":"７６號","E_COORD97":171027.31,"N_COORD97":2542645,"ADDRESS":"東門路二段３０１巷１２０弄７６號","OBJECTID":192295},"geometry":{"x":171027.31000000052,"y":2542645.0000000019}},{"attributes":{"ID":192297,"DIS_CODE":0,"TOWNNAME":"南區","LI":"文南里","LIN":"5鄰","STREET":"金華路","SECT":"二段","MAREA":" ","LANE":"２８９巷","ALLEY":"２３弄","HOUSE_NO":"２號","E_COORD97":167020.64999999999,"N_COORD97":2542761.02,"ADDRESS":"金華路二段２８９巷２３弄２號","OBJECTID":192296},"geometry":{"x":167020.65000000037,"y":2542761.0199999996}},{"attributes":{"ID":192298,"DIS_CODE":0,"TOWNNAME":"南區","LI":"佛壇里","LIN":"5鄰","STREET":"灣裡路","SECT":" ","MAREA":" ","LANE":"２８２巷","ALLEY":"１１７弄","HOUSE_NO":"４號","E_COORD97":166067.57999999999,"N_COORD97":2535958.7400000002,"ADDRESS":"灣裡路２８２巷１１７弄４號","OBJECTID":192297},"geometry":{"x":166067.58000000007,"y":2535958.7400000021}},{"attributes":{"ID":192299,"DIS_CODE":0,"TOWNNAME":"西港區","LI":"永樂里","LIN":"9鄰","STREET":" ","SECT":" ","MAREA":"大塭寮","LANE":" ","ALLEY":" ","HOUSE_NO":"７２號之１","E_COORD97":165815.56,"N_COORD97":2556174.4700000002,"ADDRESS":"大塭寮７２號之１","OBJECTID":192298},"geometry":{"x":165815.56000000145,"y":2556174.4700000025}},{"attributes":{"ID":192300,"DIS_CODE":0,"TOWNNAME":"南區","LI":"同安里","LIN":"5鄰","STREET":"灣裡路","SECT":" ","MAREA":" ","LANE":"３５１巷","ALLEY":"１２弄","HOUSE_NO":"１６號","E_COORD97":166269.54000000001,"N_COORD97":2536157.02,"ADDRESS":"灣裡路３５１巷１２弄１６號","OBJECTID":192299},"geometry":{"x":166269.54000000004,"y":2536157.0199999996}},{"attributes":{"ID":192301,"DIS_CODE":0,"TOWNNAME":"楠西區","LI":"東勢里","LIN":"21鄰","STREET":"民生路","SECT":" ","MAREA":" ","LANE":" ","ALLEY":" ","HOUSE_NO":"１０４號","E_COORD97":197423.98999999999,"N_COORD97":2564221.29,"ADDRESS":"民生路１０４號","OBJECTID":192300},"geometry":{"x":197423.99000000115,"y":2564221.2900000028}},{"attributes":{"ID":192302,"DIS_CODE":0,"TOWNNAME":"西港區","LI":"永樂里","LIN":"9鄰","STREET":" ","SECT":" ","MAREA":"大塭寮","LANE":" ","ALLEY":" ","HOUSE_NO":"７２號之２","E_COORD97":165810.39999999999,"N_COORD97":2556175.6099999999,"ADDRESS":"大塭寮７２號之２","OBJECTID":192301},"geometry":{"x":165810.40000000037,"y":2556175.6100000013}},{"attributes":{"ID":192303,"DIS_CODE":0,"TOWNNAME":"楠西區","LI":"楠西里","LIN":"21鄰","STREET":"中正路","SECT":" ","MAREA":" ","LANE":" ","ALLEY":" ","HOUSE_NO":"１５８號","E_COORD97":197337.95999999999,"N_COORD97":2563865.25,"ADDRESS":"中正路１５８號","OBJECTID":192302},"geometry":{"x":197337.95999999996,"y":2563865.25}},{"attributes":{"ID":192304,"DIS_CODE":0,"TOWNNAME":"南區","LI":"竹溪里","LIN":"5鄰","STREET":"體育路","SECT":" ","MAREA":" ","LANE":"４１巷","ALLEY":"１７弄","HOUSE_NO":"５號","E_COORD97":168799.51999999999,"N_COORD97":2542291.8500000001,"ADDRESS":"體育路４１巷１７弄５號","OBJECTID":192303},"geometry":{"x":168799.52000000048,"y":2542291.8499999996}},{"attributes":{"ID":192305,"DIS_CODE":0,"TOWNNAME":"楠西區","LI":"楠西里","LIN":"21鄰","STREET":"中正路","SECT":" ","MAREA":" ","LANE":" ","ALLEY":" ","HOUSE_NO":"１３４號","E_COORD97":197295.26000000001,"N_COORD97":2563966.25,"ADDRESS":"中正路１３４號","OBJECTID":192304},"geometry":{"x":197295.25999999978,"y":2563966.2500000019}},{"attributes":{"ID":192306,"DIS_CODE":0,"TOWNNAME":"西港區","LI":"永樂里","LIN":"9鄰","STREET":" ","SECT":" ","MAREA":"大塭寮","LANE":" ","ALLEY":" ","HOUSE_NO":"７２號","E_COORD97":165824.41,"N_COORD97":2556190.8999999999,"ADDRESS":"大塭寮７２號","OBJECTID":192305},"geometry":{"x":165824.41000000108,"y":2556190.9000000022}},{"attributes":{"ID":192307,"DIS_CODE":0,"TOWNNAME":"西港區","LI":"永樂里","LIN":"9鄰","STREET":" ","SECT":" ","MAREA":"大塭寮","LANE":" ","ALLEY":" ","HOUSE_NO":"７４號","E_COORD97":165827.98999999999,"N_COORD97":2556212.9100000001,"ADDRESS":"大塭寮７４號","OBJECTID":192306},"geometry":{"x":165827.99000000022,"y":2556212.9100000001}},{"attributes":{"ID":192308,"DIS_CODE":0,"TOWNNAME":"楠西區","LI":"東勢里","LIN":"21鄰","STREET":"民權路","SECT":" ","MAREA":" ","LANE":"３０巷","ALLEY":" ","HOUSE_NO":"７號","E_COORD97":197322.73999999999,"N_COORD97":2564221.29,"ADDRESS":"民權路３０巷７號","OBJECTID":192307},"geometry":{"x":197322.74000000022,"y":2564221.2900000028}},{"attributes":{"ID":192309,"DIS_CODE":0,"TOWNNAME":"楠西區","LI":"楠西里","LIN":"21鄰","STREET":"中正路","SECT":" ","MAREA":" ","LANE":" ","ALLEY":" ","HOUSE_NO":"１４８號","E_COORD97":197309.85999999999,"N_COORD97":2563940.25,"ADDRESS":"中正路１４８號","OBJECTID":192308},"geometry":{"x":197309.86000000127,"y":2563940.25}},{"attributes":{"ID":192310,"DIS_CODE":0,"TOWNNAME":"西港區","LI":"永樂里","LIN":"9鄰","STREET":" ","SECT":" ","MAREA":"大塭寮","LANE":" ","ALLEY":" ","HOUSE_NO":"７５號之１","E_COORD97":165846.62,"N_COORD97":2556224.5099999998,"ADDRESS":"大塭寮７５號之１","OBJECTID":192309},"geometry":{"x":165846.62000000104,"y":2556224.5099999998}},{"attributes":{"ID":192311,"DIS_CODE":0,"TOWNNAME":"楠西區","LI":"楠西里","LIN":"21鄰","STREET":"中正路","SECT":" ","MAREA":" ","LANE":" ","ALLEY":" ","HOUSE_NO":"１２８號","E_COORD97":197291.85999999999,"N_COORD97":2563977.25,"ADDRESS":"中正路１２８號","OBJECTID":192310},"geometry":{"x":197291.86000000034,"y":2563977.25}},{"attributes":{"ID":192312,"DIS_CODE":0,"TOWNNAME":"楠西區","LI":"楠西里","LIN":"21鄰","STREET":"中正路","SECT":" ","MAREA":" ","LANE":" ","ALLEY":" ","HOUSE_NO":"１５６號","E_COORD97":197319.85999999999,"N_COORD97":2563927.25,"ADDRESS":"中正路１５６號","OBJECTID":192311},"geometry":{"x":197319.86000000127,"y":2563927.2499999981}},{"attributes":{"ID":192313,"DIS_CODE":0,"TOWNNAME":"楠西區","LI":"楠西里","LIN":"21鄰","STREET":"中正路","SECT":" ","MAREA":" ","LANE":" ","ALLEY":" ","HOUSE_NO":"１５０號","E_COORD97":197311.85999999999,"N_COORD97":2563937.25,"ADDRESS":"中正路１５０號","OBJECTID":192312},"geometry":{"x":197311.86000000034,"y":2563937.25}},{"attributes":{"ID":192314,"DIS_CODE":0,"TOWNNAME":"西港區","LI":"永樂里","LIN":"9鄰","STREET":" ","SECT":" ","MAREA":"大塭寮","LANE":" ","ALLEY":" ","HOUSE_NO":"７６號","E_COORD97":165844.32999999999,"N_COORD97":2556250.4399999999,"ADDRESS":"大塭寮７６號","OBJECTID":192313},"geometry":{"x":165844.33000000007,"y":2556250.4400000013}},{"attributes":{"ID":192315,"DIS_CODE":0,"TOWNNAME":"西港區","LI":"永樂里","LIN":"9鄰","STREET":" ","SECT":" ","MAREA":"大塭寮","LANE":" ","ALLEY":" ","HOUSE_NO":"７７號","E_COORD97":165820.03,"N_COORD97":2556237.0299999998,"ADDRESS":"大塭寮７７號","OBJECTID":192314},"geometry":{"x":165820.03000000119,"y":2556237.0300000012}},{"attributes":{"ID":192316,"DIS_CODE":0,"TOWNNAME":"西港區","LI":"永樂里","LIN":"9鄰","STREET":" ","SECT":" ","MAREA":"大塭寮","LANE":" ","ALLEY":" ","HOUSE_NO":"７８號","E_COORD97":165815.10999999999,"N_COORD97":2556229.23,"ADDRESS":"大塭寮７８號","OBJECTID":192315},"geometry":{"x":165815.11000000034,"y":2556229.2300000023}},{"attributes":{"ID":192317,"DIS_CODE":0,"TOWNNAME":"西港區","LI":"永樂里","LIN":"9鄰","STREET":" ","SECT":" ","MAREA":"大塭寮","LANE":" ","ALLEY":" ","HOUSE_NO":"７９號","E_COORD97":165810.44,"N_COORD97":2556264.8500000001,"ADDRESS":"大塭寮７９號","OBJECTID":192316},"geometry":{"x":165810.44000000227,"y":2556264.8500000015}},{"attributes":{"ID":192318,"DIS_CODE":0,"TOWNNAME":"西港區","LI":"永樂里","LIN":"9鄰","STREET":" ","SECT":" ","MAREA":"大塭寮","LANE":" ","ALLEY":" ","HOUSE_NO":"８０號","E_COORD97":165793.5,"N_COORD97":2556262.8100000001,"ADDRESS":"大塭寮８０號","OBJECTID":192317},"geometry":{"x":165793.5,"y":2556262.8100000024}},{"attributes":{"ID":192319,"DIS_CODE":0,"TOWNNAME":"西港區","LI":"新復里","LIN":"9鄰","STREET":" ","SECT":" ","MAREA":"溪埔寮","LANE":" ","ALLEY":" ","HOUSE_NO":"２３號１７","E_COORD97":166463.20000000001,"N_COORD97":2553937.8300000001,"ADDRESS":"溪埔寮２３號１７","OBJECTID":192318},"geometry":{"x":166463.20000000112,"y":2553937.8300000001}},{"attributes":{"ID":192320,"DIS_CODE":0,"TOWNNAME":"西港區","LI":"新復里","LIN":"9鄰","STREET":" ","SECT":" ","MAREA":"溪埔寮","LANE":" ","ALLEY":" ","HOUSE_NO":"２４號之６","E_COORD97":166389.14000000001,"N_COORD97":2553973.1699999999,"ADDRESS":"溪埔寮２４號之６","OBJECTID":192319},"geometry":{"x":166389.13999999966,"y":2553973.1699999999}},{"attributes":{"ID":192321,"DIS_CODE":0,"TOWNNAME":"南區","LI":"竹溪里","LIN":"5鄰","STREET":"體育路","SECT":" ","MAREA":" ","LANE":"４１巷","ALLEY":"９弄","HOUSE_NO":"１號","E_COORD97":168762.20000000001,"N_COORD97":2542262.6499999999,"ADDRESS":"體育路４１巷９弄１號","OBJECTID":192320},"geometry":{"x":168762.20000000112,"y":2542262.6500000004}},{"attributes":{"ID":192322,"DIS_CODE":0,"TOWNNAME":"官田區","LI":"官田里","LIN":"6鄰","STREET":" ","SECT":" ","MAREA":"官田","LANE":" ","ALLEY":" ","HOUSE_NO":"５６號之４","E_COORD97":182658.03,"N_COORD97":2565099.3399999999,"ADDRESS":"官田５６號之４","OBJECTID":192321},"geometry":{"x":182658.03000000212,"y":2565099.3399999999}},{"attributes":{"ID":192323,"DIS_CODE":0,"TOWNNAME":"南區","LI":"興農里","LIN":"5鄰","STREET":"灣裡路","SECT":" ","MAREA":" ","LANE":"２６３巷","ALLEY":"６７弄","HOUSE_NO":"２５之２號","E_COORD97":166371.51000000001,"N_COORD97":2536490.9500000002,"ADDRESS":"灣裡路２６３巷６７弄２５之２號","OBJECTID":192322},"geometry":{"x":166371.50999999978,"y":2536490.9500000011}},{"attributes":{"ID":192324,"DIS_CODE":0,"TOWNNAME":"西港區","LI":"新復里","LIN":"9鄰","STREET":" ","SECT":" ","MAREA":"溪埔寮","LANE":" ","ALLEY":" ","HOUSE_NO":"２５之３號","E_COORD97":166185.35999999999,"N_COORD97":2553780.2200000002,"ADDRESS":"溪埔寮２５之３號","OBJECTID":192323},"geometry":{"x":166185.3599999994,"y":2553780.2200000007}},{"attributes":{"ID":192325,"DIS_CODE":0,"TOWNNAME":"西港區","LI":"新復里","LIN":"9鄰","STREET":" ","SECT":" ","MAREA":"溪埔寮","LANE":" ","ALLEY":" ","HOUSE_NO":"２５號之５","E_COORD97":166331.32000000001,"N_COORD97":2553923.2599999998,"ADDRESS":"溪埔寮２５號之５","OBJECTID":192324},"geometry":{"x":166331.3200000003,"y":2553923.2600000016}},{"attributes":{"ID":192326,"DIS_CODE":0,"TOWNNAME":"西港區","LI":"檨林里","LIN":"9鄰","STREET":" ","SECT":" ","MAREA":"檨子林","LANE":" ","ALLEY":" ","HOUSE_NO":"４６號之１","E_COORD97":171265.67999999999,"N_COORD97":2559498.9700000002,"ADDRESS":"檨子林４６號之１","OBJECTID":192325},"geometry":{"x":171265.6799999997,"y":2559498.9700000044}},{"attributes":{"ID":192327,"DIS_CODE":0,"TOWNNAME":"西港區","LI":"檨林里","LIN":"9鄰","STREET":" ","SECT":" ","MAREA":"檨子林","LANE":" ","ALLEY":" ","HOUSE_NO":"７０號之１０","E_COORD97":171404.01000000001,"N_COORD97":2559598.27,"ADDRESS":"檨子林７０號之１０","OBJECTID":192326},"geometry":{"x":171404.01000000071,"y":2559598.2700000014}},{"attributes":{"ID":192328,"DIS_CODE":0,"TOWNNAME":"西港區","LI":"檨林里","LIN":"9鄰","STREET":" ","SECT":" ","MAREA":"檨子林","LANE":" ","ALLEY":" ","HOUSE_NO":"７０號之１","E_COORD97":171440.89999999999,"N_COORD97":2559597.0800000001,"ADDRESS":"檨子林７０號之１","OBJECTID":192327},"geometry":{"x":171440.9000000013,"y":2559597.0800000019}},{"attributes":{"ID":192329,"DIS_CODE":0,"TOWNNAME":"西港區","LI":"檨林里","LIN":"9鄰","STREET":" ","SECT":" ","MAREA":"檨子林","LANE":" ","ALLEY":" ","HOUSE_NO":"７０號之２","E_COORD97":171465.98999999999,"N_COORD97":2559555.5899999999,"ADDRESS":"檨子林７０號之２","OBJECTID":192328},"geometry":{"x":171465.99000000022,"y":2559555.5900000017}},{"attributes":{"ID":192330,"DIS_CODE":0,"TOWNNAME":"西港區","LI":"檨林里","LIN":"9鄰","STREET":" ","SECT":" ","MAREA":"檨子林","LANE":" ","ALLEY":" ","HOUSE_NO":"７１號","E_COORD97":171383.89000000001,"N_COORD97":2559622.0899999999,"ADDRESS":"檨子林７１號","OBJECTID":192329},"geometry":{"x":171383.8900000006,"y":2559622.0899999999}},{"attributes":{"ID":192331,"DIS_CODE":0,"TOWNNAME":"西港區","LI":"檨林里","LIN":"9鄰","STREET":" ","SECT":" ","MAREA":"檨子林","LANE":" ","ALLEY":" ","HOUSE_NO":"７２號","E_COORD97":171383.69,"N_COORD97":2559661.29,"ADDRESS":"檨子林７２號","OBJECTID":192330},"geometry":{"x":171383.69000000041,"y":2559661.2900000028}},{"attributes":{"ID":192332,"DIS_CODE":0,"TOWNNAME":"南區","LI":"同安里","LIN":"5鄰","STREET":"灣裡路","SECT":" ","MAREA":" ","LANE":"３５１巷","ALLEY":"１２弄","HOUSE_NO":"８號","E_COORD97":166269.85000000001,"N_COORD97":2536167.9700000002,"ADDRESS":"灣裡路３５１巷１２弄８號","OBJECTID":192331},"geometry":{"x":166269.85000000056,"y":2536167.9700000007}},{"attributes":{"ID":192333,"DIS_CODE":0,"TOWNNAME":"南區","LI":"同安里","LIN":"5鄰","STREET":"灣裡路","SECT":" ","MAREA":" ","LANE":"３５１巷","ALLEY":"１２弄","HOUSE_NO":"１２號","E_COORD97":166260.32999999999,"N_COORD97":2536161.2999999998,"ADDRESS":"灣裡路３５１巷１２弄１２號","OBJECTID":192332},"geometry":{"x":166260.33000000101,"y":2536161.3000000026}},{"attributes":{"ID":192334,"DIS_CODE":0,"TOWNNAME":"南區","LI":"永寧里","LIN":"5鄰","STREET":"灣裡路","SECT":" ","MAREA":" ","LANE":"８８巷","ALLEY":"９３弄","HOUSE_NO":"２７號","E_COORD97":165962.44,"N_COORD97":2536607.8100000001,"ADDRESS":"灣裡路８８巷９３弄２７號","OBJECTID":192333},"geometry":{"x":165962.44000000041,"y":2536607.8100000042}},{"attributes":{"ID":192335,"DIS_CODE":0,"TOWNNAME":"安南區","LI":"佃東里","LIN":"5鄰","STREET":"公學路","SECT":"四段","MAREA":" ","LANE":"１２６巷","ALLEY":"２２弄","HOUSE_NO":"１１號","E_COORD97":165513.62,"N_COORD97":2552080.3500000001,"ADDRESS":"公學路四段１２６巷２２弄１１號","OBJECTID":192334},"geometry":{"x":165513.62000000011,"y":2552080.3500000034}},{"attributes":{"ID":192336,"DIS_CODE":0,"TOWNNAME":"安南區","LI":"安順里","LIN":"5鄰","STREET":"安和路","SECT":"四段","MAREA":" ","LANE":"１３１巷","ALLEY":"３９弄","HOUSE_NO":"３８號","E_COORD97":169804.62,"N_COORD97":2550304.4199999999,"ADDRESS":"安和路四段１３１巷３９弄３８號","OBJECTID":192335},"geometry":{"x":169804.62000000104,"y":2550304.4200000018}},{"attributes":{"ID":192337,"DIS_CODE":0,"TOWNNAME":"安南區","LI":"溪心里","LIN":"5鄰","STREET":"本原街","SECT":"二段","MAREA":" ","LANE":"１０６巷","ALLEY":"５９弄","HOUSE_NO":"１１號","E_COORD97":166884.47,"N_COORD97":2550935.1699999999,"ADDRESS":"本原街二段１０６巷５９弄１１號","OBJECTID":192336},"geometry":{"x":166884.47000000067,"y":2550935.1699999999}},{"attributes":{"ID":192338,"DIS_CODE":0,"TOWNNAME":"安南區","LI":"溪心里","LIN":"5鄰","STREET":"本原街","SECT":"二段","MAREA":" ","LANE":"１０６巷","ALLEY":"５９弄","HOUSE_NO":"１３號","E_COORD97":166889.51000000001,"N_COORD97":2550935.6400000001,"ADDRESS":"本原街二段１０６巷５９弄１３號","OBJECTID":192337},"geometry":{"x":166889.51000000071,"y":2550935.6400000006}},{"attributes":{"ID":192339,"DIS_CODE":0,"TOWNNAME":"安南區","LI":"溪心里","LIN":"5鄰","STREET":"本原街","SECT":"二段","MAREA":" ","LANE":"１０６巷","ALLEY":"５９弄","HOUSE_NO":"１５號","E_COORD97":166893.92000000001,"N_COORD97":2550936.7400000002,"ADDRESS":"本原街二段１０６巷５９弄１５號","OBJECTID":192338},"geometry":{"x":166893.92000000086,"y":2550936.7400000021}},{"attributes":{"ID":192340,"DIS_CODE":0,"TOWNNAME":"安南區","LI":"溪心里","LIN":"5鄰","STREET":"本原街","SECT":"二段","MAREA":" ","LANE":"１０６巷","ALLEY":"５９弄","HOUSE_NO":"１７號","E_COORD97":166898.48999999999,"N_COORD97":2550938,"ADDRESS":"本原街二段１０６巷５９弄１７號","OBJECTID":192339},"geometry":{"x":166898.49000000115,"y":2550938.0000000019}},{"attributes":{"ID":192341,"DIS_CODE":0,"TOWNNAME":"安南區","LI":"溪心里","LIN":"5鄰","STREET":"本原街","SECT":"二段","MAREA":" ","LANE":"１０６巷","ALLEY":"５９弄","HOUSE_NO":"１號","E_COORD97":166899.60999999999,"N_COORD97":2550910.7200000002,"ADDRESS":"本原街二段１０６巷５９弄１號","OBJECTID":192340},"geometry":{"x":166899.61000000127,"y":2550910.7200000025}},{"attributes":{"ID":192342,"DIS_CODE":0,"TOWNNAME":"安南區","LI":"溪心里","LIN":"5鄰","STREET":"本原街","SECT":"二段","MAREA":" ","LANE":"１０６巷","ALLEY":"５９弄","HOUSE_NO":"３號","E_COORD97":166898.64999999999,"N_COORD97":2550914.9500000002,"ADDRESS":"本原街二段１０６巷５９弄３號","OBJECTID":192341},"geometry":{"x":166898.65000000037,"y":2550914.9499999993}},{"attributes":{"ID":192343,"DIS_CODE":0,"TOWNNAME":"安南區","LI":"溪心里","LIN":"5鄰","STREET":"本原街","SECT":"二段","MAREA":" ","LANE":"１０６巷","ALLEY":"５９弄","HOUSE_NO":"７號","E_COORD97":166885.54000000001,"N_COORD97":2550911.3999999999,"ADDRESS":"本原街二段１０６巷５９弄７號","OBJECTID":192342},"geometry":{"x":166885.54000000004,"y":2550911.4000000041}},{"attributes":{"ID":192344,"DIS_CODE":0,"TOWNNAME":"安南區","LI":"溪心里","LIN":"5鄰","STREET":"本原街","SECT":"二段","MAREA":" ","LANE":"１０６巷","ALLEY":"５９弄","HOUSE_NO":"９號","E_COORD97":166879.42999999999,"N_COORD97":2550934.0600000001,"ADDRESS":"本原街二段１０６巷５９弄９號","OBJECTID":192343},"geometry":{"x":166879.43000000156,"y":2550934.0600000042}},{"attributes":{"ID":192345,"DIS_CODE":0,"TOWNNAME":"安南區","LI":"海南里","LIN":"5鄰","STREET":"府安路","SECT":"六段","MAREA":" ","LANE":"１０３巷","ALLEY":"４１弄","HOUSE_NO":"２６號","E_COORD97":166622.13,"N_COORD97":2546567.79,"ADDRESS":"府安路六段１０３巷４１弄２６號","OBJECTID":192344},"geometry":{"x":166622.12999999896,"y":2546567.790000001}},{"attributes":{"ID":192346,"DIS_CODE":0,"TOWNNAME":"安南區","LI":"安慶里","LIN":"5鄰","STREET":"長溪路","SECT":"一段","MAREA":" ","LANE":"１６８巷","ALLEY":"１９０弄","HOUSE_NO":"１４號之１","E_COORD97":169139.47,"N_COORD97":2548996.8999999999,"ADDRESS":"長溪路一段１６８巷１９０弄１４號之１","OBJECTID":192345},"geometry":{"x":169139.47000000067,"y":2548996.9000000022}},{"attributes":{"ID":192347,"DIS_CODE":0,"TOWNNAME":"安南區","LI":"安順里","LIN":"15鄰","STREET":"安豐二街","SECT":" ","MAREA":" ","LANE":" ","ALLEY":" ","HOUSE_NO":"６４號","E_COORD97":169528.89000000001,"N_COORD97":2549993.7999999998,"ADDRESS":"安豐二街６４號","OBJECTID":192346},"geometry":{"x":169528.88999999966,"y":2549993.8000000026}},{"attributes":{"ID":192348,"DIS_CODE":0,"TOWNNAME":"安南區","LI":"安順里","LIN":"15鄰","STREET":"安豐二街","SECT":" ","MAREA":" ","LANE":" ","ALLEY":" ","HOUSE_NO":"６６號","E_COORD97":169524.70999999999,"N_COORD97":2549993.5699999998,"ADDRESS":"安豐二街６６號","OBJECTID":192347},"geometry":{"x":169524.71000000089,"y":2549993.5700000003}},{"attributes":{"ID":192349,"DIS_CODE":0,"TOWNNAME":"安南區","LI":"安順里","LIN":"15鄰","STREET":"安豐二街","SECT":" ","MAREA":" ","LANE":" ","ALLEY":" ","HOUSE_NO":"６８號","E_COORD97":169520.51999999999,"N_COORD97":2549993.3399999999,"ADDRESS":"安豐二街６８號","OBJECTID":192348},"geometry":{"x":169520.52000000048,"y":2549993.3400000017}},{"attributes":{"ID":192350,"DIS_CODE":0,"TOWNNAME":"安南區","LI":"安順里","LIN":"15鄰","STREET":"安豐二街","SECT":" ","MAREA":" ","LANE":" ","ALLEY":" ","HOUSE_NO":"７０號","E_COORD97":169515.92000000001,"N_COORD97":2549991.5499999998,"ADDRESS":"安豐二街７０號","OBJECTID":192349},"geometry":{"x":169515.92000000086,"y":2549991.5499999989}},{"attributes":{"ID":192351,"DIS_CODE":0,"TOWNNAME":"安南區","LI":"安順里","LIN":"15鄰","STREET":"安豐二街","SECT":" ","MAREA":" ","LANE":" ","ALLEY":" ","HOUSE_NO":"７２號","E_COORD97":169511,"N_COORD97":2549992.1800000002,"ADDRESS":"安豐二街７２號","OBJECTID":192350},"geometry":{"x":169511,"y":2549992.1799999997}},{"attributes":{"ID":192352,"DIS_CODE":0,"TOWNNAME":"安南區","LI":"溪心里","LIN":"5鄰","STREET":"本原街","SECT":"二段","MAREA":" ","LANE":"１０６巷","ALLEY":"５９弄","HOUSE_NO":"１９號之１","E_COORD97":166882.79999999999,"N_COORD97":2550947.5499999998,"ADDRESS":"本原街二段１０６巷５９弄１９號之１","OBJECTID":192351},"geometry":{"x":166882.80000000075,"y":2550947.5500000007}},{"attributes":{"ID":192353,"DIS_CODE":0,"TOWNNAME":"仁德區","LI":"仁德里","LIN":"3鄰","STREET":"仁中七街","SECT":" ","MAREA":" ","LANE":" ","ALLEY":" ","HOUSE_NO":"２７號","E_COORD97":173197.25612999999,"N_COORD97":2540349.85353,"ADDRESS":"仁中七街２７號","OBJECTID":192352},"geometry":{"x":173197.25612999965,"y":2540349.8535330016}},{"attributes":{"ID":192354,"DIS_CODE":0,"TOWNNAME":"安南區","LI":"州北里","LIN":"5鄰","STREET":"安和路","SECT":"五段","MAREA":" ","LANE":"８１巷","ALLEY":"６４弄","HOUSE_NO":"１２號之１","E_COORD97":169719.29999999999,"N_COORD97":2551682.04,"ADDRESS":"安和路五段８１巷６４弄１２號之１","OBJECTID":192353},"geometry":{"x":169719.29999999981,"y":2551682.0400000028}},{"attributes":{"ID":192355,"DIS_CODE":0,"TOWNNAME":"安南區","LI":"海西里","LIN":"5鄰","STREET":"海中街","SECT":" ","MAREA":" ","LANE":"１２１巷","ALLEY":"１００弄","HOUSE_NO":"１２號","E_COORD97":166200.01999999999,"N_COORD97":2548975.73,"ADDRESS":"海中街１２１巷１００弄１２號","OBJECTID":192354},"geometry":{"x":166200.01999999955,"y":2548975.7300000004}},{"attributes":{"ID":192356,"DIS_CODE":0,"TOWNNAME":"安南區","LI":"海西里","LIN":"5鄰","STREET":"海中街","SECT":" ","MAREA":" ","LANE":"１２１巷","ALLEY":"１００弄","HOUSE_NO":"１４號","E_COORD97":166197.51000000001,"N_COORD97":2548979.4900000002,"ADDRESS":"海中街１２１巷１００弄１４號","OBJECTID":192355},"geometry":{"x":166197.51000000164,"y":2548979.4900000021}},{"attributes":{"ID":192357,"DIS_CODE":0,"TOWNNAME":"安南區","LI":"海西里","LIN":"5鄰","STREET":"海中街","SECT":" ","MAREA":" ","LANE":"１２１巷","ALLEY":"１００弄","HOUSE_NO":"１６號","E_COORD97":166195.82999999999,"N_COORD97":2548984.5099999998,"ADDRESS":"海中街１２１巷１００弄１６號","OBJECTID":192356},"geometry":{"x":166195.83000000101,"y":2548984.5100000016}},{"attributes":{"ID":192358,"DIS_CODE":0,"TOWNNAME":"安南區","LI":"海西里","LIN":"5鄰","STREET":"海中街","SECT":" ","MAREA":" ","LANE":"１２１巷","ALLEY":"１００弄","HOUSE_NO":"１８號","E_COORD97":166192.06,"N_COORD97":2548988.2799999998,"ADDRESS":"海中街１２１巷１００弄１８號","OBJECTID":192357},"geometry":{"x":166192.06000000052,"y":2548988.2799999975}},{"attributes":{"ID":192359,"DIS_CODE":0,"TOWNNAME":"安南區","LI":"海西里","LIN":"5鄰","STREET":"海中街","SECT":" ","MAREA":" ","LANE":"１２１巷","ALLEY":"１００弄","HOUSE_NO":"２號","E_COORD97":166210.07000000001,"N_COORD97":2548959.8300000001,"ADDRESS":"海中街１２１巷１００弄２號","OBJECTID":192358},"geometry":{"x":166210.07000000123,"y":2548959.8300000019}},{"attributes":{"ID":192360,"DIS_CODE":0,"TOWNNAME":"安南區","LI":"海西里","LIN":"5鄰","STREET":"海中街","SECT":" ","MAREA":" ","LANE":"１２１巷","ALLEY":"１００弄","HOUSE_NO":"６號","E_COORD97":166206.72,"N_COORD97":2548963.6000000001,"ADDRESS":"海中街１２１巷１００弄６號","OBJECTID":192359},"geometry":{"x":166206.72000000067,"y":2548963.6000000015}},{"attributes":{"ID":192361,"DIS_CODE":0,"TOWNNAME":"安南區","LI":"海西里","LIN":"5鄰","STREET":"海中街","SECT":" ","MAREA":" ","LANE":"１２１巷","ALLEY":"１００弄","HOUSE_NO":"８號","E_COORD97":166204.63,"N_COORD97":2548967.7799999998,"ADDRESS":"海中街１２１巷１００弄８號","OBJECTID":192360},"geometry":{"x":166204.62999999989,"y":2548967.7799999993}},{"attributes":{"ID":192362,"DIS_CODE":0,"TOWNNAME":"安南區","LI":"淵東里","LIN":"5鄰","STREET":"本原街","SECT":"三段","MAREA":" ","LANE":"１３４巷","ALLEY":"１９弄","HOUSE_NO":"４３號","E_COORD97":165496.85999999999,"N_COORD97":2550425.5499999998,"ADDRESS":"本原街三段１３４巷１９弄４３號","OBJECTID":192361},"geometry":{"x":165496.86000000034,"y":2550425.5499999989}},{"attributes":{"ID":192363,"DIS_CODE":0,"TOWNNAME":"安南區","LI":"淵東里","LIN":"5鄰","STREET":"本原街","SECT":"三段","MAREA":" ","LANE":"１３４巷","ALLEY":"１９弄","HOUSE_NO":"４５號","E_COORD97":165491.45999999999,"N_COORD97":2550423.2999999998,"ADDRESS":"本原街三段１３４巷１９弄４５號","OBJECTID":192362},"geometry":{"x":165491.46000000089,"y":2550423.3000000007}},{"attributes":{"ID":192364,"DIS_CODE":0,"TOWNNAME":"安南區","LI":"溪心里","LIN":"5鄰","STREET":"本原街","SECT":"二段","MAREA":" ","LANE":"１０６巷","ALLEY":"２７弄","HOUSE_NO":"７１號","E_COORD97":166859.57999999999,"N_COORD97":2550980.3199999998,"ADDRESS":"本原街二段１０６巷２７弄７１號","OBJECTID":192363},"geometry":{"x":166859.58000000007,"y":2550980.3200000022}},{"attributes":{"ID":192365,"DIS_CODE":0,"TOWNNAME":"安南區","LI":"長安里","LIN":"5鄰","STREET":"長溪路","SECT":"三段","MAREA":" ","LANE":"４０５巷","ALLEY":"４０弄","HOUSE_NO":"７４號之１","E_COORD97":167417.17000000001,"N_COORD97":2552000.5299999998,"ADDRESS":"長溪路三段４０５巷４０弄７４號之１","OBJECTID":192364},"geometry":{"x":167417.17000000086,"y":2552000.5299999993}},{"attributes":{"ID":192366,"DIS_CODE":0,"TOWNNAME":"安南區","LI":"安順里","LIN":"5鄰","STREET":"安和路","SECT":"四段","MAREA":" ","LANE":"１３１巷","ALLEY":"３９弄","HOUSE_NO":"２４號","E_COORD97":169808.84,"N_COORD97":2550343.7599999998,"ADDRESS":"安和路四段１３１巷３９弄２４號","OBJECTID":192365},"geometry":{"x":169808.83999999985,"y":2550343.7599999998}},{"attributes":{"ID":192367,"DIS_CODE":0,"TOWNNAME":"安南區","LI":"安順里","LIN":"5鄰","STREET":"安和路","SECT":"四段","MAREA":" ","LANE":"１３１巷","ALLEY":"３９弄","HOUSE_NO":"２６號","E_COORD97":169809.14000000001,"N_COORD97":2550339.4500000002,"ADDRESS":"安和路四段１３１巷３９弄２６號","OBJECTID":192366},"geometry":{"x":169809.1400000006,"y":2550339.4499999993}},{"attributes":{"ID":192368,"DIS_CODE":0,"TOWNNAME":"安南區","LI":"淵西里","LIN":"5鄰","STREET":"安中路","SECT":"四段","MAREA":" ","LANE":"３２０巷","ALLEY":"１６３弄","HOUSE_NO":"１號","E_COORD97":164821.20999999999,"N_COORD97":2550345.5099999998,"ADDRESS":"安中路四段３２０巷１６３弄１號","OBJECTID":192367},"geometry":{"x":164821.20999999996,"y":2550345.5099999998}},{"attributes":{"ID":192369,"DIS_CODE":0,"TOWNNAME":"官田區","LI":"官田里","LIN":"6鄰","STREET":" ","SECT":" ","MAREA":"官田","LANE":" ","ALLEY":" ","HOUSE_NO":"５６號之５","E_COORD97":182656.89999999999,"N_COORD97":2565103.2400000002,"ADDRESS":"官田５６號之５","OBJECTID":192368},"geometry":{"x":182656.90000000037,"y":2565103.2400000002}},{"attributes":{"ID":192370,"DIS_CODE":0,"TOWNNAME":"官田區","LI":"官田里","LIN":"6鄰","STREET":" ","SECT":" ","MAREA":"官田","LANE":" ","ALLEY":" ","HOUSE_NO":"５０號之３","E_COORD97":182656.75,"N_COORD97":2565027.6600000001,"ADDRESS":"官田５０號之３","OBJECTID":192369},"geometry":{"x":182656.75000000093,"y":2565027.660000002}},{"attributes":{"ID":192371,"DIS_CODE":0,"TOWNNAME":"官田區","LI":"隆本里","LIN":"5鄰","STREET":"中華路","SECT":"二段","MAREA":" ","LANE":"１０８巷","ALLEY":"３１弄","HOUSE_NO":"１０號","E_COORD97":180179.67000000001,"N_COORD97":2566565.3300000001,"ADDRESS":"中華路二段１０８巷３１弄１０號","OBJECTID":192370},"geometry":{"x":180179.66999999993,"y":2566565.3300000019}},{"attributes":{"ID":192372,"DIS_CODE":0,"TOWNNAME":"官田區","LI":"隆本里","LIN":"5鄰","STREET":"中華路","SECT":"二段","MAREA":" ","LANE":"１０８巷","ALLEY":"３１弄","HOUSE_NO":"１１號","E_COORD97":180135.37,"N_COORD97":2566579.46,"ADDRESS":"中華路二段１０８巷３１弄１１號","OBJECTID":192371},"geometry":{"x":180135.37000000104,"y":2566579.4600000028}},{"attributes":{"ID":192373,"DIS_CODE":0,"TOWNNAME":"官田區","LI":"隆本里","LIN":"5鄰","STREET":"中華路","SECT":"二段","MAREA":" ","LANE":"１０８巷","ALLEY":"３１弄","HOUSE_NO":"１２號","E_COORD97":180179.32999999999,"N_COORD97":2566571.5299999998,"ADDRESS":"中華路二段１０８巷３１弄１２號","OBJECTID":192372},"geometry":{"x":180179.33000000101,"y":2566571.5299999993}},{"attributes":{"ID":192374,"DIS_CODE":0,"TOWNNAME":"官田區","LI":"官田里","LIN":"6鄰","STREET":" ","SECT":" ","MAREA":"官田","LANE":" ","ALLEY":" ","HOUSE_NO":"５０號之４","E_COORD97":182652.85999999999,"N_COORD97":2565026.6600000001,"ADDRESS":"官田５０號之４","OBJECTID":192373},"geometry":{"x":182652.86000000127,"y":2565026.6600000039}},{"attributes":{"ID":192375,"DIS_CODE":0,"TOWNNAME":"官田區","LI":"官田里","LIN":"6鄰","STREET":" ","SECT":" ","MAREA":"官田","LANE":" ","ALLEY":" ","HOUSE_NO":"５０號之５","E_COORD97":182648.95999999999,"N_COORD97":2565025.6600000001,"ADDRESS":"官田５０號之５","OBJECTID":192374},"geometry":{"x":182648.95999999996,"y":2565025.6600000001}},{"attributes":{"ID":192376,"DIS_CODE":0,"TOWNNAME":"官田區","LI":"官田里","LIN":"6鄰","STREET":" ","SECT":" ","MAREA":"官田","LANE":" ","ALLEY":" ","HOUSE_NO":"５０號之６","E_COORD97":182645.07000000001,"N_COORD97":2565024.6600000001,"ADDRESS":"官田５０號之６","OBJECTID":192375},"geometry":{"x":182645.07000000123,"y":2565024.660000002}},{"attributes":{"ID":192377,"DIS_CODE":0,"TOWNNAME":"西港區","LI":"檨林里","LIN":"9鄰","STREET":" ","SECT":" ","MAREA":"檨子林","LANE":" ","ALLEY":" ","HOUSE_NO":"７３號之１０","E_COORD97":171412.26000000001,"N_COORD97":2559774.73,"ADDRESS":"檨子林７３號之１０","OBJECTID":192376},"geometry":{"x":171412.26000000071,"y":2559774.7300000042}},{"attributes":{"ID":192378,"DIS_CODE":0,"TOWNNAME":"西港區","LI":"檨林里","LIN":"9鄰","STREET":" ","SECT":" ","MAREA":"檨子林","LANE":" ","ALLEY":" ","HOUSE_NO":"７３號之１１","E_COORD97":171458.23000000001,"N_COORD97":2559972.5299999998,"ADDRESS":"檨子林７３號之１１","OBJECTID":192377},"geometry":{"x":171458.23000000045,"y":2559972.5300000012}},{"attributes":{"ID":192379,"DIS_CODE":0,"TOWNNAME":"學甲區","LI":"光華里","LIN":"21鄰","STREET":" ","SECT":" ","MAREA":"頭港子","LANE":" ","ALLEY":" ","HOUSE_NO":"２６號","E_COORD97":163115.47,"N_COORD97":2573159.9500000002,"ADDRESS":"頭港子２６號","OBJECTID":192378},"geometry":{"x":163115.46999999974,"y":2573159.9499999993}},{"attributes":{"ID":192380,"DIS_CODE":0,"TOWNNAME":"七股區","LI":"三股里","LIN":"3鄰","STREET":" ","SECT":" ","MAREA":"三股","LANE":" ","ALLEY":" ","HOUSE_NO":"３０號","E_COORD97":159560.32000000001,"N_COORD97":2555512.46,"ADDRESS":"三股３０號","OBJECTID":192379},"geometry":{"x":159560.3200000003,"y":2555512.4600000028}},{"attributes":{"ID":192381,"DIS_CODE":0,"TOWNNAME":"新營區","LI":"忠政里","LIN":"21鄰","STREET":"府西路","SECT":" ","MAREA":" ","LANE":" ","ALLEY":" ","HOUSE_NO":"２０９號","E_COORD97":179798.16,"N_COORD97":2579550.46,"ADDRESS":"府西路２０９號","OBJECTID":192380},"geometry":{"x":179798.16000000015,"y":2579550.4600000028}},{"attributes":{"ID":192382,"DIS_CODE":0,"TOWNNAME":"西港區","LI":"檨林里","LIN":"9鄰","STREET":" ","SECT":" ","MAREA":"檨子林","LANE":" ","ALLEY":" ","HOUSE_NO":"７３號之９","E_COORD97":171410.92999999999,"N_COORD97":2559769.98,"ADDRESS":"檨子林７３號之９","OBJECTID":192381},"geometry":{"x":171410.93000000063,"y":2559769.9800000042}},{"attributes":{"ID":192383,"DIS_CODE":0,"TOWNNAME":"官田區","LI":"隆本里","LIN":"5鄰","STREET":"中華路","SECT":"二段","MAREA":" ","LANE":"１０８巷","ALLEY":"３１弄","HOUSE_NO":"１３號","E_COORD97":180135.39999999999,"N_COORD97":2566584.02,"ADDRESS":"中華路二段１０８巷３１弄１３號","OBJECTID":192382},"geometry":{"x":180135.4000000013,"y":2566584.0200000014}},{"attributes":{"ID":192384,"DIS_CODE":0,"TOWNNAME":"學甲區","LI":"光華里","LIN":"21鄰","STREET":" ","SECT":" ","MAREA":"頭港子","LANE":" ","ALLEY":" ","HOUSE_NO":"２７號","E_COORD97":163034.82999999999,"N_COORD97":2573178.3300000001,"ADDRESS":"頭港子２７號","OBJECTID":192383},"geometry":{"x":163034.83000000101,"y":2573178.3300000001}},{"attributes":{"ID":192385,"DIS_CODE":0,"TOWNNAME":"官田區","LI":"隆本里","LIN":"5鄰","STREET":"中華路","SECT":"二段","MAREA":" ","LANE":"１０８巷","ALLEY":"３１弄","HOUSE_NO":"１５號","E_COORD97":180134.51999999999,"N_COORD97":2566587.6600000001,"ADDRESS":"中華路二段１０８巷３１弄１５號","OBJECTID":192384},"geometry":{"x":180134.51999999955,"y":2566587.660000002}},{"attributes":{"ID":192386,"DIS_CODE":0,"TOWNNAME":"官田區","LI":"隆本里","LIN":"5鄰","STREET":"中華路","SECT":"二段","MAREA":" ","LANE":"１０８巷","ALLEY":"３１弄","HOUSE_NO":"１６號","E_COORD97":180178.92000000001,"N_COORD97":2566577.5899999999,"ADDRESS":"中華路二段１０８巷３１弄１６號","OBJECTID":192385},"geometry":{"x":180178.92000000086,"y":2566577.5900000017}},{"attributes":{"ID":192387,"DIS_CODE":0,"TOWNNAME":"學甲區","LI":"光華里","LIN":"21鄰","STREET":" ","SECT":" ","MAREA":"頭港子","LANE":" ","ALLEY":" ","HOUSE_NO":"２８號之１","E_COORD97":163015.12,"N_COORD97":2573166.71,"ADDRESS":"頭港子２８號之１","OBJECTID":192386},"geometry":{"x":163015.12000000197,"y":2573166.7100000009}},{"attributes":{"ID":192388,"DIS_CODE":0,"TOWNNAME":"官田區","LI":"隆本里","LIN":"5鄰","STREET":"中華路","SECT":"二段","MAREA":" ","LANE":"１０８巷","ALLEY":"３１弄","HOUSE_NO":"１７號","E_COORD97":180134.29999999999,"N_COORD97":2566592.0499999998,"ADDRESS":"中華路二段１０８巷３１弄１７號","OBJECTID":192387},"geometry":{"x":180134.29999999981,"y":2566592.0500000026}},{"attributes":{"ID":192389,"DIS_CODE":0,"TOWNNAME":"官田區","LI":"隆本里","LIN":"5鄰","STREET":"中華路","SECT":"二段","MAREA":" ","LANE":"１０８巷","ALLEY":"３１弄","HOUSE_NO":"１８號","E_COORD97":180178.29999999999,"N_COORD97":2566583.1499999999,"ADDRESS":"中華路二段１０８巷３１弄１８號","OBJECTID":192388},"geometry":{"x":180178.29999999981,"y":2566583.1500000041}},{"attributes":{"ID":192390,"DIS_CODE":0,"TOWNNAME":"學甲區","LI":"光華里","LIN":"21鄰","STREET":" ","SECT":" ","MAREA":"頭港子","LANE":" ","ALLEY":" ","HOUSE_NO":"２８號","E_COORD97":163015.26000000001,"N_COORD97":2573184.8999999999,"ADDRESS":"頭港子２８號","OBJECTID":192389},"geometry":{"x":163015.25999999978,"y":2573184.9000000004}},{"attributes":{"ID":192391,"DIS_CODE":0,"TOWNNAME":"官田區","LI":"隆本里","LIN":"5鄰","STREET":"中華路","SECT":"二段","MAREA":" ","LANE":"１０８巷","ALLEY":"３１弄","HOUSE_NO":"１９號","E_COORD97":180133.64000000001,"N_COORD97":2566596.2200000002,"ADDRESS":"中華路二段１０８巷３１弄１９號","OBJECTID":192390},"geometry":{"x":180133.63999999966,"y":2566596.2200000007}},{"attributes":{"ID":192392,"DIS_CODE":0,"TOWNNAME":"學甲區","LI":"光華里","LIN":"21鄰","STREET":" ","SECT":" ","MAREA":"頭港子","LANE":" ","ALLEY":" ","HOUSE_NO":"２９號之１０","E_COORD97":162408.78,"N_COORD97":2573230.8999999999,"ADDRESS":"頭港子２９號之１０","OBJECTID":192391},"geometry":{"x":162408.78000000026,"y":2573230.9000000022}},{"attributes":{"ID":192393,"DIS_CODE":0,"TOWNNAME":"學甲區","LI":"光華里","LIN":"21鄰","STREET":" ","SECT":" ","MAREA":"頭港子","LANE":" ","ALLEY":" ","HOUSE_NO":"２９號之１６","E_COORD97":162273.29000000001,"N_COORD97":2573191.04,"ADDRESS":"頭港子２９號之１６","OBJECTID":192392},"geometry":{"x":162273.29000000097,"y":2573191.040000001}},{"attributes":{"ID":192394,"DIS_CODE":0,"TOWNNAME":"學甲區","LI":"光華里","LIN":"21鄰","STREET":" ","SECT":" ","MAREA":"頭港子","LANE":" ","ALLEY":" ","HOUSE_NO":"２９號之１７","E_COORD97":162112.35000000001,"N_COORD97":2573198.6000000001,"ADDRESS":"頭港子２９號之１７","OBJECTID":192393},"geometry":{"x":162112.34999999963,"y":2573198.6000000015}},{"attributes":{"ID":192395,"DIS_CODE":0,"TOWNNAME":"學甲區","LI":"光華里","LIN":"21鄰","STREET":" ","SECT":" ","MAREA":"頭港子","LANE":" ","ALLEY":" ","HOUSE_NO":"２９號之１８","E_COORD97":162202.69,"N_COORD97":2573136.1400000001,"ADDRESS":"頭港子２９號之１８","OBJECTID":192394},"geometry":{"x":162202.69000000041,"y":2573136.1400000006}},{"attributes":{"ID":192396,"DIS_CODE":0,"TOWNNAME":"西港區","LI":"檨林里","LIN":"9鄰","STREET":" ","SECT":" ","MAREA":"檨子林","LANE":" ","ALLEY":" ","HOUSE_NO":"７３號之１","E_COORD97":171431.67999999999,"N_COORD97":2559755.6699999999,"ADDRESS":"檨子林７３號之１","OBJECTID":192395},"geometry":{"x":171431.68000000063,"y":2559755.6700000018}},{"attributes":{"ID":192397,"DIS_CODE":0,"TOWNNAME":"西港區","LI":"檨林里","LIN":"9鄰","STREET":" ","SECT":" ","MAREA":"檨子林","LANE":" ","ALLEY":" ","HOUSE_NO":"７３號之２","E_COORD97":171430.94,"N_COORD97":2559711.8100000001,"ADDRESS":"檨子林７３號之２","OBJECTID":192396},"geometry":{"x":171430.94000000041,"y":2559711.8100000005}},{"attributes":{"ID":192398,"DIS_CODE":0,"TOWNNAME":"西港區","LI":"檨林里","LIN":"9鄰","STREET":" ","SECT":" ","MAREA":"檨子林","LANE":" ","ALLEY":" ","HOUSE_NO":"７３號之３","E_COORD97":171404.29000000001,"N_COORD97":2559743.02,"ADDRESS":"檨子林７３號之３","OBJECTID":192397},"geometry":{"x":171404.29000000004,"y":2559743.0200000014}},{"attributes":{"ID":192399,"DIS_CODE":0,"TOWNNAME":"西港區","LI":"檨林里","LIN":"9鄰","STREET":" ","SECT":" ","MAREA":"檨子林","LANE":" ","ALLEY":" ","HOUSE_NO":"７３號之４","E_COORD97":171430.39999999999,"N_COORD97":2559750.3300000001,"ADDRESS":"檨子林７３號之４","OBJECTID":192398},"geometry":{"x":171430.4000000013,"y":2559750.3300000019}},{"attributes":{"ID":192400,"DIS_CODE":0,"TOWNNAME":"西港區","LI":"檨林里","LIN":"9鄰","STREET":" ","SECT":" ","MAREA":"檨子林","LANE":" ","ALLEY":" ","HOUSE_NO":"７３號之５","E_COORD97":171406.66,"N_COORD97":2559753.1200000001,"ADDRESS":"檨子林７３號之５","OBJECTID":192399},"geometry":{"x":171406.66000000108,"y":2559753.1200000029}},{"attributes":{"ID":192401,"DIS_CODE":0,"TOWNNAME":"西港區","LI":"檨林里","LIN":"9鄰","STREET":" ","SECT":" ","MAREA":"檨子林","LANE":" ","ALLEY":" ","HOUSE_NO":"７３號之６","E_COORD97":171408.14000000001,"N_COORD97":2559757.1400000001,"ADDRESS":"檨子林７３號之６","OBJECTID":192400},"geometry":{"x":171408.1400000006,"y":2559757.1400000006}}]}