{"displayFieldName":"TOWNNAME","fieldAliases":{"ID":"ID","DIS_CODE":"DIS_CODE","TOWNNAME":"TOWNNAME","LI":"LI","LIN":"LIN","STREET":"STREET","SECT":"SECT","MAREA":"MAREA","LANE":"LANE","ALLEY":"ALLEY","HOUSE_NO":"HOUSE_NO","E_COORD97":"E_COORD97","N_COORD97":"N_COORD97","ADDRESS":"ADDRESS","OBJECTID":"OBJECTID"},"geometryType":"esriGeometryPoint","spatialReference":{"wkid":102443,"latestWkid":3826},"fields":[{"name":"ID","type":"esriFieldTypeDouble","alias":"ID"},{"name":"DIS_CODE","type":"esriFieldTypeInteger","alias":"DIS_CODE"},{"name":"TOWNNAME","type":"esriFieldTypeString","alias":"TOWNNAME","length":8},{"name":"LI","type":"esriFieldTypeString","alias":"LI","length":8},{"name":"LIN","type":"esriFieldTypeString","alias":"LIN","length":12},{"name":"STREET","type":"esriFieldTypeString","alias":"STREET","length":20},{"name":"SECT","type":"esriFieldTypeString","alias":"SECT","length":8},{"name":"MAREA","type":"esriFieldTypeString","alias":"MAREA","length":12},{"name":"LANE","type":"esriFieldTypeString","alias":"LANE","length":10},{"name":"ALLEY","type":"esriFieldTypeString","alias":"ALLEY","length":10},{"name":"HOUSE_NO","type":"esriFieldTypeString","alias":"HOUSE_NO","length":20},{"name":"E_COORD97","type":"esriFieldTypeDouble","alias":"E_COORD97"},{"name":"N_COORD97","type":"esriFieldTypeDouble","alias":"N_COORD97"},{"name":"ADDRESS","type":"esriFieldTypeString","alias":"ADDRESS","length":50},{"name":"OBJECTID","type":"esriFieldTypeOID","alias":"OBJECTID"}],"features":[{"attributes":{"ID":193202,"DIS_CODE":0,"TOWNNAME":"安南區","LI":"溪心里","LIN":"5鄰","STREET":"本原街","SECT":"二段","MAREA":" ","LANE":"５０巷","ALLEY":"３弄","HOUSE_NO":"７號","E_COORD97":166960.54000000001,"N_COORD97":2550787.3399999999,"ADDRESS":"本原街二段５０巷３弄７號","OBJECTID":193201},"geometry":{"x":166960.54000000097,"y":2550787.3399999999}},{"attributes":{"ID":193203,"DIS_CODE":0,"TOWNNAME":"安南區","LI":"溪心里","LIN":"5鄰","STREET":"本原街","SECT":"二段","MAREA":" ","LANE":"５０巷","ALLEY":"３弄","HOUSE_NO":"９號","E_COORD97":166957.29000000001,"N_COORD97":2550793.8300000001,"ADDRESS":"本原街二段５０巷３弄９號","OBJECTID":193202},"geometry":{"x":166957.29000000097,"y":2550793.8300000019}},{"attributes":{"ID":193204,"DIS_CODE":0,"TOWNNAME":"安南區","LI":"溪心里","LIN":"5鄰","STREET":"本原街","SECT":"二段","MAREA":" ","LANE":"５０巷","ALLEY":"３弄","HOUSE_NO":"１１號","E_COORD97":166952.57000000001,"N_COORD97":2550790.0099999998,"ADDRESS":"本原街二段５０巷３弄１１號","OBJECTID":193203},"geometry":{"x":166952.57000000123,"y":2550790.0099999998}},{"attributes":{"ID":193205,"DIS_CODE":0,"TOWNNAME":"安南區","LI":"溪心里","LIN":"5鄰","STREET":"本原街","SECT":"二段","MAREA":" ","LANE":"５０巷","ALLEY":"３弄","HOUSE_NO":"１３號","E_COORD97":166948.59,"N_COORD97":2550791.3399999999,"ADDRESS":"本原街二段５０巷３弄１３號","OBJECTID":193204},"geometry":{"x":166948.59000000078,"y":2550791.3399999999}},{"attributes":{"ID":193206,"DIS_CODE":0,"TOWNNAME":"安南區","LI":"溪東里","LIN":"21鄰","STREET":"郡安路","SECT":"五段","MAREA":" ","LANE":" ","ALLEY":" ","HOUSE_NO":"２７號四樓","E_COORD97":168225.51000000001,"N_COORD97":2547659.4900000002,"ADDRESS":"郡安路五段２７號四樓","OBJECTID":193205},"geometry":{"x":168225.51000000071,"y":2547659.4900000021}},{"attributes":{"ID":193207,"DIS_CODE":0,"TOWNNAME":"將軍區","LI":"平沙里","LIN":"3鄰","STREET":" ","SECT":" ","MAREA":"平沙","LANE":" ","ALLEY":" ","HOUSE_NO":"２５號","E_COORD97":157348.13,"N_COORD97":2568550.4500000002,"ADDRESS":"平沙２５號","OBJECTID":193206},"geometry":{"x":157348.13000000082,"y":2568550.4500000011}},{"attributes":{"ID":193208,"DIS_CODE":0,"TOWNNAME":"將軍區","LI":"平沙里","LIN":"3鄰","STREET":" ","SECT":" ","MAREA":"平沙","LANE":" ","ALLEY":" ","HOUSE_NO":"２６號","E_COORD97":157332.29999999999,"N_COORD97":2568542.8100000001,"ADDRESS":"平沙２６號","OBJECTID":193207},"geometry":{"x":157332.29999999981,"y":2568542.8100000024}},{"attributes":{"ID":193209,"DIS_CODE":0,"TOWNNAME":"將軍區","LI":"平沙里","LIN":"3鄰","STREET":" ","SECT":" ","MAREA":"平沙","LANE":" ","ALLEY":" ","HOUSE_NO":"２７號","E_COORD97":157343.07999999999,"N_COORD97":2568549.77,"ADDRESS":"平沙２７號","OBJECTID":193208},"geometry":{"x":157343.08000000007,"y":2568549.7699999996}},{"attributes":{"ID":193210,"DIS_CODE":0,"TOWNNAME":"將軍區","LI":"玉山里","LIN":"3鄰","STREET":" ","SECT":" ","MAREA":"玉山","LANE":" ","ALLEY":" ","HOUSE_NO":"２１號","E_COORD97":160605.39999999999,"N_COORD97":2567760.6099999999,"ADDRESS":"玉山２１號","OBJECTID":193209},"geometry":{"x":160605.4000000013,"y":2567760.6099999994}},{"attributes":{"ID":193211,"DIS_CODE":0,"TOWNNAME":"將軍區","LI":"玉山里","LIN":"3鄰","STREET":" ","SECT":" ","MAREA":"玉山","LANE":" ","ALLEY":" ","HOUSE_NO":"２３之１號","E_COORD97":160593.94,"N_COORD97":2567681.1400000001,"ADDRESS":"玉山２３之１號","OBJECTID":193210},"geometry":{"x":160593.94000000041,"y":2567681.1400000006}},{"attributes":{"ID":193212,"DIS_CODE":0,"TOWNNAME":"將軍區","LI":"玉山里","LIN":"3鄰","STREET":" ","SECT":" ","MAREA":"玉山","LANE":" ","ALLEY":" ","HOUSE_NO":"２３號","E_COORD97":160594.51000000001,"N_COORD97":2567701.5099999998,"ADDRESS":"玉山２３號","OBJECTID":193211},"geometry":{"x":160594.50999999978,"y":2567701.5099999998}},{"attributes":{"ID":193213,"DIS_CODE":0,"TOWNNAME":"將軍區","LI":"玉山里","LIN":"3鄰","STREET":" ","SECT":" ","MAREA":"玉山","LANE":" ","ALLEY":" ","HOUSE_NO":"２４號","E_COORD97":160606.04999999999,"N_COORD97":2567724.3399999999,"ADDRESS":"玉山２４號","OBJECTID":193212},"geometry":{"x":160606.04999999981,"y":2567724.3400000017}},{"attributes":{"ID":193214,"DIS_CODE":0,"TOWNNAME":"麻豆區","LI":"\u25A0江里","LIN":"21鄰","STREET":"民生路","SECT":" ","MAREA":" ","LANE":" ","ALLEY":" ","HOUSE_NO":"７８號六樓","E_COORD97":173746.57000000001,"N_COORD97":2564405.5800000001,"ADDRESS":"民生路７８號六樓","OBJECTID":193213},"geometry":{"x":173746.57000000123,"y":2564405.5800000001}},{"attributes":{"ID":193215,"DIS_CODE":0,"TOWNNAME":"安南區","LI":"溪心里","LIN":"5鄰","STREET":"本原街","SECT":"二段","MAREA":" ","LANE":"５０巷","ALLEY":"３弄","HOUSE_NO":"１５號","E_COORD97":166944.60999999999,"N_COORD97":2550792.6699999999,"ADDRESS":"本原街二段５０巷３弄１５號","OBJECTID":193214},"geometry":{"x":166944.61000000034,"y":2550792.6699999999}},{"attributes":{"ID":193216,"DIS_CODE":0,"TOWNNAME":"安南區","LI":"溪心里","LIN":"5鄰","STREET":"本原街","SECT":"二段","MAREA":" ","LANE":"５０巷","ALLEY":"３弄","HOUSE_NO":"１７號","E_COORD97":166940.85000000001,"N_COORD97":2550795.48,"ADDRESS":"本原街二段５０巷３弄１７號","OBJECTID":193215},"geometry":{"x":166940.85000000149,"y":2550795.4800000042}},{"attributes":{"ID":193217,"DIS_CODE":0,"TOWNNAME":"安南區","LI":"溪心里","LIN":"5鄰","STREET":"本原街","SECT":"二段","MAREA":" ","LANE":"５０巷","ALLEY":"３弄","HOUSE_NO":"１９號","E_COORD97":166935.57000000001,"N_COORD97":2550792.1200000001,"ADDRESS":"本原街二段５０巷３弄１９號","OBJECTID":193216},"geometry":{"x":166935.57000000123,"y":2550792.1200000029}},{"attributes":{"ID":193218,"DIS_CODE":0,"TOWNNAME":"安南區","LI":"溪心里","LIN":"5鄰","STREET":"本原街","SECT":"二段","MAREA":" ","LANE":"５０巷","ALLEY":"３弄","HOUSE_NO":"２１號","E_COORD97":166933.64999999999,"N_COORD97":2550800.98,"ADDRESS":"本原街二段５０巷３弄２１號","OBJECTID":193217},"geometry":{"x":166933.6500000013,"y":2550800.9800000004}},{"attributes":{"ID":193219,"DIS_CODE":0,"TOWNNAME":"安南區","LI":"溪心里","LIN":"5鄰","STREET":"本原街","SECT":"二段","MAREA":" ","LANE":"５０巷","ALLEY":"３弄","HOUSE_NO":"２３號","E_COORD97":166929.09,"N_COORD97":2550801.8999999999,"ADDRESS":"本原街二段５０巷３弄２３號","OBJECTID":193218},"geometry":{"x":166929.08999999985,"y":2550801.9000000004}},{"attributes":{"ID":193220,"DIS_CODE":0,"TOWNNAME":"安南區","LI":"溪心里","LIN":"5鄰","STREET":"本原街","SECT":"二段","MAREA":" ","LANE":"５０巷","ALLEY":"３弄","HOUSE_NO":"２５號","E_COORD97":166924.69,"N_COORD97":2550799.3199999998,"ADDRESS":"本原街二段５０巷３弄２５號","OBJECTID":193219},"geometry":{"x":166924.69000000134,"y":2550799.3200000003}},{"attributes":{"ID":193221,"DIS_CODE":0,"TOWNNAME":"安南區","LI":"溪心里","LIN":"5鄰","STREET":"本原街","SECT":"二段","MAREA":" ","LANE":"５０巷","ALLEY":"３弄","HOUSE_NO":"２７號","E_COORD97":166920.70999999999,"N_COORD97":2550800.6499999999,"ADDRESS":"本原街二段５０巷３弄２７號","OBJECTID":193220},"geometry":{"x":166920.71000000089,"y":2550800.6500000004}},{"attributes":{"ID":193222,"DIS_CODE":0,"TOWNNAME":"安南區","LI":"溪心里","LIN":"5鄰","STREET":"本原街","SECT":"二段","MAREA":" ","LANE":"５０巷","ALLEY":"３弄","HOUSE_NO":"２９號","E_COORD97":166916.72,"N_COORD97":2550801.9900000002,"ADDRESS":"本原街二段５０巷３弄２９號","OBJECTID":193221},"geometry":{"x":166916.72000000067,"y":2550801.9900000039}},{"attributes":{"ID":193223,"DIS_CODE":0,"TOWNNAME":"安南區","LI":"溪心里","LIN":"5鄰","STREET":"本原街","SECT":"二段","MAREA":" ","LANE":"５０巷","ALLEY":"３弄","HOUSE_NO":"３１號","E_COORD97":166912.73999999999,"N_COORD97":2550803.3199999998,"ADDRESS":"本原街二段５０巷３弄３１號","OBJECTID":193222},"geometry":{"x":166912.74000000022,"y":2550803.320000004}},{"attributes":{"ID":193224,"DIS_CODE":0,"TOWNNAME":"安南區","LI":"溪心里","LIN":"5鄰","STREET":"本原街","SECT":"二段","MAREA":" ","LANE":"５０巷","ALLEY":"３弄","HOUSE_NO":"３３號","E_COORD97":166907.63,"N_COORD97":2550807.77,"ADDRESS":"本原街二段５０巷３弄３３號","OBJECTID":193223},"geometry":{"x":166907.63000000082,"y":2550807.7700000014}},{"attributes":{"ID":193225,"DIS_CODE":0,"TOWNNAME":"安南區","LI":"溪心里","LIN":"5鄰","STREET":"本原街","SECT":"二段","MAREA":" ","LANE":"５０巷","ALLEY":"１弄","HOUSE_NO":"２號","E_COORD97":166973.01000000001,"N_COORD97":2550760.9900000002,"ADDRESS":"本原街二段５０巷１弄２號","OBJECTID":193224},"geometry":{"x":166973.00999999978,"y":2550760.9899999984}},{"attributes":{"ID":193226,"DIS_CODE":0,"TOWNNAME":"安南區","LI":"溪心里","LIN":"5鄰","STREET":"本原街","SECT":"二段","MAREA":" ","LANE":"５０巷","ALLEY":"１弄","HOUSE_NO":"２８號","E_COORD97":166931.84,"N_COORD97":2550775.1000000001,"ADDRESS":"本原街二段５０巷１弄２８號","OBJECTID":193225},"geometry":{"x":166931.83999999985,"y":2550775.1000000015}},{"attributes":{"ID":193227,"DIS_CODE":0,"TOWNNAME":"安南區","LI":"溪心里","LIN":"5鄰","STREET":"本原街","SECT":"二段","MAREA":" ","LANE":"５０巷","ALLEY":"１弄","HOUSE_NO":"６號","E_COORD97":166967.07000000001,"N_COORD97":2550759.8500000001,"ADDRESS":"本原街二段５０巷１弄６號","OBJECTID":193226},"geometry":{"x":166967.06999999937,"y":2550759.8500000015}},{"attributes":{"ID":193228,"DIS_CODE":0,"TOWNNAME":"安南區","LI":"溪心里","LIN":"5鄰","STREET":"本原街","SECT":"二段","MAREA":" ","LANE":"５０巷","ALLEY":"１弄","HOUSE_NO":"８號","E_COORD97":166962.97,"N_COORD97":2550763.3799999999,"ADDRESS":"本原街二段５０巷１弄８號","OBJECTID":193227},"geometry":{"x":166962.97000000067,"y":2550763.379999999}},{"attributes":{"ID":193229,"DIS_CODE":0,"TOWNNAME":"安南區","LI":"溪心里","LIN":"5鄰","STREET":"本原街","SECT":"二段","MAREA":" ","LANE":"５０巷","ALLEY":"１弄","HOUSE_NO":"１０號","E_COORD97":166961.5,"N_COORD97":2550770.8999999999,"ADDRESS":"本原街二段５０巷１弄１０號","OBJECTID":193228},"geometry":{"x":166961.5,"y":2550770.9000000004}},{"attributes":{"ID":193230,"DIS_CODE":0,"TOWNNAME":"安南區","LI":"溪心里","LIN":"5鄰","STREET":"本原街","SECT":"二段","MAREA":" ","LANE":"５０巷","ALLEY":"１弄","HOUSE_NO":"１２號","E_COORD97":166957.51000000001,"N_COORD97":2550772.23,"ADDRESS":"本原街二段５０巷１弄１２號","OBJECTID":193229},"geometry":{"x":166957.51000000071,"y":2550772.2300000004}},{"attributes":{"ID":193231,"DIS_CODE":0,"TOWNNAME":"安南區","LI":"溪心里","LIN":"5鄰","STREET":"本原街","SECT":"二段","MAREA":" ","LANE":"５０巷","ALLEY":"１弄","HOUSE_NO":"３０號","E_COORD97":166929.63,"N_COORD97":2550781.5600000001,"ADDRESS":"本原街二段５０巷１弄３０號","OBJECTID":193230},"geometry":{"x":166929.63000000082,"y":2550781.5600000042}},{"attributes":{"ID":193232,"DIS_CODE":0,"TOWNNAME":"安南區","LI":"溪心里","LIN":"5鄰","STREET":"本原街","SECT":"二段","MAREA":" ","LANE":"５０巷","ALLEY":"１弄","HOUSE_NO":"１６號","E_COORD97":166953.53,"N_COORD97":2550773.5600000001,"ADDRESS":"本原街二段５０巷１弄１６號","OBJECTID":193231},"geometry":{"x":166953.53000000026,"y":2550773.5600000005}},{"attributes":{"ID":193233,"DIS_CODE":0,"TOWNNAME":"將軍區","LI":"西華里","LIN":"3鄰","STREET":" ","SECT":" ","MAREA":"西華","LANE":" ","ALLEY":" ","HOUSE_NO":"５６號","E_COORD97":163800.94,"N_COORD97":2566237.46,"ADDRESS":"西華５６號","OBJECTID":193232},"geometry":{"x":163800.94000000041,"y":2566237.4600000028}},{"attributes":{"ID":193234,"DIS_CODE":0,"TOWNNAME":"安南區","LI":"溪心里","LIN":"5鄰","STREET":"本原街","SECT":"二段","MAREA":" ","LANE":"５０巷","ALLEY":"１弄","HOUSE_NO":"１８號","E_COORD97":166949.54999999999,"N_COORD97":2550774.8999999999,"ADDRESS":"本原街二段５０巷１弄１８號","OBJECTID":193233},"geometry":{"x":166949.54999999981,"y":2550774.9000000004}},{"attributes":{"ID":193235,"DIS_CODE":0,"TOWNNAME":"安南區","LI":"溪心里","LIN":"5鄰","STREET":"本原街","SECT":"二段","MAREA":" ","LANE":"５０巷","ALLEY":"１弄","HOUSE_NO":"２０號","E_COORD97":166944.64999999999,"N_COORD97":2550773.5299999998,"ADDRESS":"本原街二段５０巷１弄２０號","OBJECTID":193234},"geometry":{"x":166944.65000000224,"y":2550773.5300000031}},{"attributes":{"ID":193236,"DIS_CODE":0,"TOWNNAME":"安南區","LI":"溪心里","LIN":"5鄰","STREET":"本原街","SECT":"二段","MAREA":" ","LANE":"５０巷","ALLEY":"１弄","HOUSE_NO":"２２號","E_COORD97":166941.34,"N_COORD97":2550776.75,"ADDRESS":"本原街二段５０巷１弄２２號","OBJECTID":193235},"geometry":{"x":166941.34000000078,"y":2550776.7500000019}},{"attributes":{"ID":193237,"DIS_CODE":0,"TOWNNAME":"安南區","LI":"溪心里","LIN":"5鄰","STREET":"本原街","SECT":"二段","MAREA":" ","LANE":"５０巷","ALLEY":"１弄","HOUSE_NO":"３２號","E_COORD97":166924.07999999999,"N_COORD97":2550777.6899999999,"ADDRESS":"本原街二段５０巷１弄３２號","OBJECTID":193236},"geometry":{"x":166924.08000000007,"y":2550777.6900000013}},{"attributes":{"ID":193238,"DIS_CODE":0,"TOWNNAME":"安南區","LI":"溪心里","LIN":"5鄰","STREET":"本原街","SECT":"二段","MAREA":" ","LANE":"５０巷","ALLEY":"１弄","HOUSE_NO":"２６號","E_COORD97":166937.94,"N_COORD97":2550779.8900000001,"ADDRESS":"本原街二段５０巷１弄２６號","OBJECTID":193237},"geometry":{"x":166937.94000000134,"y":2550779.8900000025}},{"attributes":{"ID":193239,"DIS_CODE":0,"TOWNNAME":"安南區","LI":"溪心里","LIN":"5鄰","STREET":"本原街","SECT":"二段","MAREA":" ","LANE":"５０巷","ALLEY":"１弄","HOUSE_NO":"３６號","E_COORD97":166920.26999999999,"N_COORD97":2550780.8199999998,"ADDRESS":"本原街二段５０巷１弄３６號","OBJECTID":193238},"geometry":{"x":166920.26999999955,"y":2550780.8200000022}},{"attributes":{"ID":193240,"DIS_CODE":0,"TOWNNAME":"下營區","LI":"仁里里","LIN":"21鄰","STREET":"仁信街","SECT":" ","MAREA":" ","LANE":" ","ALLEY":" ","HOUSE_NO":"１３號","E_COORD97":174371.92999999999,"N_COORD97":2569651.6400000001,"ADDRESS":"仁信街１３號","OBJECTID":193239},"geometry":{"x":174371.9299999997,"y":2569651.6399999987}},{"attributes":{"ID":193241,"DIS_CODE":0,"TOWNNAME":"新化區","LI":"太平里","LIN":"4鄰","STREET":"民生路","SECT":" ","MAREA":" ","LANE":" ","ALLEY":" ","HOUSE_NO":"２５１號","E_COORD97":179019.70999999999,"N_COORD97":2549035.25,"ADDRESS":"民生路２５１號","OBJECTID":193240},"geometry":{"x":179019.70999999996,"y":2549035.25}},{"attributes":{"ID":193242,"DIS_CODE":0,"TOWNNAME":"新化區","LI":"太平里","LIN":"4鄰","STREET":"中正路","SECT":" ","MAREA":" ","LANE":" ","ALLEY":" ","HOUSE_NO":"５４４號之３","E_COORD97":178946.56,"N_COORD97":2548895.2599999998,"ADDRESS":"中正路５４４號之３","OBJECTID":193241},"geometry":{"x":178946.56000000052,"y":2548895.2600000016}},{"attributes":{"ID":193243,"DIS_CODE":0,"TOWNNAME":"新化區","LI":"協興里","LIN":"14鄰","STREET":"太平街","SECT":" ","MAREA":" ","LANE":" ","ALLEY":" ","HOUSE_NO":"１５６號","E_COORD97":178330.42000000001,"N_COORD97":2548686.25,"ADDRESS":"太平街１５６號","OBJECTID":193242},"geometry":{"x":178330.41999999993,"y":2548686.25}},{"attributes":{"ID":193244,"DIS_CODE":0,"TOWNNAME":"新化區","LI":"太平里","LIN":"4鄰","STREET":"民生路","SECT":" ","MAREA":" ","LANE":" ","ALLEY":" ","HOUSE_NO":"２２２號","E_COORD97":179072.41,"N_COORD97":2548995.25,"ADDRESS":"民生路２２２號","OBJECTID":193243},"geometry":{"x":179072.41000000108,"y":2548995.25}},{"attributes":{"ID":193245,"DIS_CODE":0,"TOWNNAME":"將軍區","LI":"玉山里","LIN":"3鄰","STREET":" ","SECT":" ","MAREA":"玉山","LANE":" ","ALLEY":" ","HOUSE_NO":"２５號","E_COORD97":160589.26000000001,"N_COORD97":2567722.1899999999,"ADDRESS":"玉山２５號","OBJECTID":193244},"geometry":{"x":160589.25999999978,"y":2567722.1900000013}},{"attributes":{"ID":193246,"DIS_CODE":0,"TOWNNAME":"將軍區","LI":"玉山里","LIN":"3鄰","STREET":" ","SECT":" ","MAREA":"玉山","LANE":" ","ALLEY":" ","HOUSE_NO":"２６號","E_COORD97":160568.31,"N_COORD97":2567727.1299999999,"ADDRESS":"玉山２６號","OBJECTID":193245},"geometry":{"x":160568.30999999959,"y":2567727.129999999}},{"attributes":{"ID":193247,"DIS_CODE":0,"TOWNNAME":"安南區","LI":"溪心里","LIN":"5鄰","STREET":"本原街","SECT":"二段","MAREA":" ","LANE":"５０巷","ALLEY":"１弄","HOUSE_NO":"３８號","E_COORD97":166916.73999999999,"N_COORD97":2550782.0099999998,"ADDRESS":"本原街二段５０巷１弄３８號","OBJECTID":193246},"geometry":{"x":166916.74000000209,"y":2550782.0100000016}},{"attributes":{"ID":193248,"DIS_CODE":0,"TOWNNAME":"安南區","LI":"溪心里","LIN":"5鄰","STREET":"本原街","SECT":"二段","MAREA":" ","LANE":"５０巷","ALLEY":"１弄","HOUSE_NO":"４０號","E_COORD97":166913.70000000001,"N_COORD97":2550786.8900000001,"ADDRESS":"本原街二段５０巷１弄４０號","OBJECTID":193247},"geometry":{"x":166913.70000000205,"y":2550786.8900000025}},{"attributes":{"ID":193249,"DIS_CODE":0,"TOWNNAME":"安南區","LI":"溪心里","LIN":"5鄰","STREET":"本原街","SECT":"二段","MAREA":" ","LANE":"５０巷","ALLEY":"１弄","HOUSE_NO":"４２號","E_COORD97":166909.72,"N_COORD97":2550788.23,"ADDRESS":"本原街二段５０巷１弄４２號","OBJECTID":193248},"geometry":{"x":166909.7200000016,"y":2550788.2300000023}},{"attributes":{"ID":193250,"DIS_CODE":0,"TOWNNAME":"安南區","LI":"安慶里","LIN":"5鄰","STREET":"怡安路","SECT":"一段","MAREA":" ","LANE":"２６２巷","ALLEY":"３５弄","HOUSE_NO":"５０號","E_COORD97":168982.70999999999,"N_COORD97":2549290.8399999999,"ADDRESS":"怡安路一段２６２巷３５弄５０號","OBJECTID":193249},"geometry":{"x":168982.70999999996,"y":2549290.8400000017}},{"attributes":{"ID":193251,"DIS_CODE":0,"TOWNNAME":"安南區","LI":"\u25A0南里","LIN":"5鄰","STREET":"安昌街","SECT":" ","MAREA":" ","LANE":"１３１巷","ALLEY":"３４弄","HOUSE_NO":"１０號","E_COORD97":169952.82999999999,"N_COORD97":2552385.3500000001,"ADDRESS":"安昌街１３１巷３４弄１０號","OBJECTID":193250},"geometry":{"x":169952.83000000101,"y":2552385.3499999978}},{"attributes":{"ID":193252,"DIS_CODE":0,"TOWNNAME":"安南區","LI":"\u25A0南里","LIN":"5鄰","STREET":"安昌街","SECT":" ","MAREA":" ","LANE":"１３１巷","ALLEY":"３４弄","HOUSE_NO":"１２號","E_COORD97":169952.45999999999,"N_COORD97":2552389.7200000002,"ADDRESS":"安昌街１３１巷３４弄１２號","OBJECTID":193251},"geometry":{"x":169952.45999999996,"y":2552389.7200000007}},{"attributes":{"ID":193253,"DIS_CODE":0,"TOWNNAME":"安南區","LI":"\u25A0南里","LIN":"5鄰","STREET":"安昌街","SECT":" ","MAREA":" ","LANE":"１３１巷","ALLEY":"３４弄","HOUSE_NO":"１８號","E_COORD97":169949,"N_COORD97":2552409.7400000002,"ADDRESS":"安昌街１３１巷３４弄１８號","OBJECTID":193252},"geometry":{"x":169949,"y":2552409.7400000002}},{"attributes":{"ID":193254,"DIS_CODE":0,"TOWNNAME":"安南區","LI":"\u25A0南里","LIN":"5鄰","STREET":"安昌街","SECT":" ","MAREA":" ","LANE":"１３１巷","ALLEY":"３４弄","HOUSE_NO":"１８號之１","E_COORD97":169953.95999999999,"N_COORD97":2552409.9399999999,"ADDRESS":"安昌街１３１巷３４弄１８號之１","OBJECTID":193253},"geometry":{"x":169953.95999999996,"y":2552409.9400000013}},{"attributes":{"ID":193255,"DIS_CODE":0,"TOWNNAME":"安南區","LI":"\u25A0南里","LIN":"5鄰","STREET":"安昌街","SECT":" ","MAREA":" ","LANE":"１３１巷","ALLEY":"３４弄","HOUSE_NO":"１８號之２","E_COORD97":169959.64000000001,"N_COORD97":2552410.1299999999,"ADDRESS":"安昌街１３１巷３４弄１８號之２","OBJECTID":193254},"geometry":{"x":169959.63999999873,"y":2552410.1300000027}},{"attributes":{"ID":193256,"DIS_CODE":0,"TOWNNAME":"安南區","LI":"\u25A0南里","LIN":"5鄰","STREET":"安昌街","SECT":" ","MAREA":" ","LANE":"１３１巷","ALLEY":"３４弄","HOUSE_NO":"１８號之３","E_COORD97":169964.56,"N_COORD97":2552410.5099999998,"ADDRESS":"安昌街１３１巷３４弄１８號之３","OBJECTID":193255},"geometry":{"x":169964.55999999959,"y":2552410.5099999998}},{"attributes":{"ID":193257,"DIS_CODE":0,"TOWNNAME":"安南區","LI":"\u25A0南里","LIN":"5鄰","STREET":"安昌街","SECT":" ","MAREA":" ","LANE":"１３１巷","ALLEY":"３４弄","HOUSE_NO":"２０號","E_COORD97":169952.82999999999,"N_COORD97":2552425.2400000002,"ADDRESS":"安昌街１３１巷３４弄２０號","OBJECTID":193256},"geometry":{"x":169952.83000000101,"y":2552425.2400000021}},{"attributes":{"ID":193258,"DIS_CODE":0,"TOWNNAME":"安南區","LI":"\u25A0南里","LIN":"5鄰","STREET":"安昌街","SECT":" ","MAREA":" ","LANE":"１３１巷","ALLEY":"３４弄","HOUSE_NO":"２２號","E_COORD97":169953.20999999999,"N_COORD97":2552429.3999999999,"ADDRESS":"安昌街１３１巷３４弄２２號","OBJECTID":193257},"geometry":{"x":169953.21000000089,"y":2552429.4000000004}},{"attributes":{"ID":193259,"DIS_CODE":0,"TOWNNAME":"安南區","LI":"\u25A0南里","LIN":"5鄰","STREET":"安昌街","SECT":" ","MAREA":" ","LANE":"１３１巷","ALLEY":"３４弄","HOUSE_NO":"２４號","E_COORD97":169953.01999999999,"N_COORD97":2552434.3100000001,"ADDRESS":"安昌街１３１巷３４弄２４號","OBJECTID":193258},"geometry":{"x":169953.01999999955,"y":2552434.3100000042}},{"attributes":{"ID":193260,"DIS_CODE":0,"TOWNNAME":"安南區","LI":"\u25A0南里","LIN":"5鄰","STREET":"安昌街","SECT":" ","MAREA":" ","LANE":"１３１巷","ALLEY":"３４弄","HOUSE_NO":"２６號","E_COORD97":169953.39999999999,"N_COORD97":2552438.6499999999,"ADDRESS":"安昌街１３１巷３４弄２６號","OBJECTID":193259},"geometry":{"x":169953.40000000037,"y":2552438.6500000041}},{"attributes":{"ID":193261,"DIS_CODE":0,"TOWNNAME":"安南區","LI":"\u25A0南里","LIN":"5鄰","STREET":"安昌街","SECT":" ","MAREA":" ","LANE":"１３１巷","ALLEY":"３４弄","HOUSE_NO":"２８號","E_COORD97":169953.20999999999,"N_COORD97":2552443.1899999999,"ADDRESS":"安昌街１３１巷３４弄２８號","OBJECTID":193260},"geometry":{"x":169953.21000000089,"y":2552443.1899999995}},{"attributes":{"ID":193262,"DIS_CODE":0,"TOWNNAME":"安南區","LI":"\u25A0南里","LIN":"5鄰","STREET":"安昌街","SECT":" ","MAREA":" ","LANE":"１３１巷","ALLEY":"３４弄","HOUSE_NO":"２號","E_COORD97":169952.82999999999,"N_COORD97":2552366.9300000002,"ADDRESS":"安昌街１３１巷３４弄２號","OBJECTID":193261},"geometry":{"x":169952.83000000101,"y":2552366.9299999997}},{"attributes":{"ID":193263,"DIS_CODE":0,"TOWNNAME":"安南區","LI":"\u25A0南里","LIN":"5鄰","STREET":"安昌街","SECT":" ","MAREA":" ","LANE":"１３１巷","ALLEY":"３４弄","HOUSE_NO":"３０號","E_COORD97":169952.82999999999,"N_COORD97":2552448.1000000001,"ADDRESS":"安昌街１３１巷３４弄３０號","OBJECTID":193262},"geometry":{"x":169952.83000000101,"y":2552448.0999999978}},{"attributes":{"ID":193264,"DIS_CODE":0,"TOWNNAME":"安南區","LI":"\u25A0南里","LIN":"5鄰","STREET":"安昌街","SECT":" ","MAREA":" ","LANE":"１３１巷","ALLEY":"３４弄","HOUSE_NO":"４號","E_COORD97":169953.01000000001,"N_COORD97":2552371.3100000001,"ADDRESS":"安昌街１３１巷３４弄４號","OBJECTID":193263},"geometry":{"x":169953.01000000071,"y":2552371.3100000024}},{"attributes":{"ID":193265,"DIS_CODE":0,"TOWNNAME":"安南區","LI":"\u25A0南里","LIN":"5鄰","STREET":"安昌街","SECT":" ","MAREA":" ","LANE":"１３１巷","ALLEY":"３４弄","HOUSE_NO":"６號","E_COORD97":169952.82999999999,"N_COORD97":2552375.6800000002,"ADDRESS":"安昌街１３１巷３４弄６號","OBJECTID":193264},"geometry":{"x":169952.83000000101,"y":2552375.6799999997}},{"attributes":{"ID":193266,"DIS_CODE":0,"TOWNNAME":"將軍區","LI":"玉山里","LIN":"3鄰","STREET":" ","SECT":" ","MAREA":"玉山","LANE":" ","ALLEY":" ","HOUSE_NO":"２７號","E_COORD97":160628.54000000001,"N_COORD97":2567725.7200000002,"ADDRESS":"玉山２７號","OBJECTID":193265},"geometry":{"x":160628.54000000004,"y":2567725.7200000044}},{"attributes":{"ID":193267,"DIS_CODE":0,"TOWNNAME":"將軍區","LI":"西和里","LIN":"3鄰","STREET":" ","SECT":" ","MAREA":"西和","LANE":" ","ALLEY":" ","HOUSE_NO":"２７之１號","E_COORD97":163287.22,"N_COORD97":2566344.1600000001,"ADDRESS":"西和２７之１號","OBJECTID":193266},"geometry":{"x":163287.22000000067,"y":2566344.1600000001}},{"attributes":{"ID":193268,"DIS_CODE":0,"TOWNNAME":"將軍區","LI":"西和里","LIN":"3鄰","STREET":" ","SECT":" ","MAREA":"西和","LANE":" ","ALLEY":" ","HOUSE_NO":"２７之２號","E_COORD97":163282.95999999999,"N_COORD97":2566343.6000000001,"ADDRESS":"西和２７之２號","OBJECTID":193267},"geometry":{"x":163282.96000000089,"y":2566343.6000000015}},{"attributes":{"ID":193269,"DIS_CODE":0,"TOWNNAME":"將軍區","LI":"西和里","LIN":"3鄰","STREET":" ","SECT":" ","MAREA":"西和","LANE":" ","ALLEY":" ","HOUSE_NO":"２７之３號","E_COORD97":163279.03,"N_COORD97":2566342.6600000001,"ADDRESS":"西和２７之３號","OBJECTID":193268},"geometry":{"x":163279.03000000119,"y":2566342.660000002}},{"attributes":{"ID":193270,"DIS_CODE":0,"TOWNNAME":"將軍區","LI":"西和里","LIN":"3鄰","STREET":" ","SECT":" ","MAREA":"西和","LANE":" ","ALLEY":" ","HOUSE_NO":"２７之４號","E_COORD97":163276.37,"N_COORD97":2566338.73,"ADDRESS":"西和２７之４號","OBJECTID":193269},"geometry":{"x":163276.37000000104,"y":2566338.7300000042}},{"attributes":{"ID":193271,"DIS_CODE":0,"TOWNNAME":"將軍區","LI":"西和里","LIN":"3鄰","STREET":" ","SECT":" ","MAREA":"西和","LANE":" ","ALLEY":" ","HOUSE_NO":"２７之５號","E_COORD97":163270.5,"N_COORD97":2566338.5600000001,"ADDRESS":"西和２７之５號","OBJECTID":193270},"geometry":{"x":163270.50000000093,"y":2566338.5600000005}},{"attributes":{"ID":193272,"DIS_CODE":0,"TOWNNAME":"將軍區","LI":"西和里","LIN":"3鄰","STREET":" ","SECT":" ","MAREA":"西和","LANE":" ","ALLEY":" ","HOUSE_NO":"２７號","E_COORD97":163294.48000000001,"N_COORD97":2566340.6600000001,"ADDRESS":"西和２７號","OBJECTID":193271},"geometry":{"x":163294.48000000231,"y":2566340.6600000001}},{"attributes":{"ID":193273,"DIS_CODE":0,"TOWNNAME":"將軍區","LI":"西和里","LIN":"3鄰","STREET":" ","SECT":" ","MAREA":"西和","LANE":" ","ALLEY":" ","HOUSE_NO":"２８之２號","E_COORD97":163256.20000000001,"N_COORD97":2566354.3199999998,"ADDRESS":"西和２８之２號","OBJECTID":193272},"geometry":{"x":163256.20000000112,"y":2566354.3200000003}},{"attributes":{"ID":193274,"DIS_CODE":0,"TOWNNAME":"將軍區","LI":"西和里","LIN":"3鄰","STREET":" ","SECT":" ","MAREA":"西和","LANE":" ","ALLEY":" ","HOUSE_NO":"２８之３號","E_COORD97":163258.26999999999,"N_COORD97":2566350.96,"ADDRESS":"西和２８之３號","OBJECTID":193273},"geometry":{"x":163258.27000000048,"y":2566350.959999999}},{"attributes":{"ID":193275,"DIS_CODE":0,"TOWNNAME":"將軍區","LI":"西和里","LIN":"3鄰","STREET":" ","SECT":" ","MAREA":"西和","LANE":" ","ALLEY":" ","HOUSE_NO":"３１號","E_COORD97":163229.44,"N_COORD97":2566399.0800000001,"ADDRESS":"西和３１號","OBJECTID":193274},"geometry":{"x":163229.44000000041,"y":2566399.0800000001}},{"attributes":{"ID":193276,"DIS_CODE":0,"TOWNNAME":"將軍區","LI":"西和里","LIN":"3鄰","STREET":" ","SECT":" ","MAREA":"西和","LANE":" ","ALLEY":" ","HOUSE_NO":"３４之３號","E_COORD97":163231.14000000001,"N_COORD97":2566364.3900000001,"ADDRESS":"西和３４之３號","OBJECTID":193275},"geometry":{"x":163231.13999999966,"y":2566364.3900000006}},{"attributes":{"ID":193277,"DIS_CODE":0,"TOWNNAME":"將軍區","LI":"西和里","LIN":"3鄰","STREET":" ","SECT":" ","MAREA":"西和","LANE":" ","ALLEY":" ","HOUSE_NO":"３４之４號","E_COORD97":163235.23999999999,"N_COORD97":2566358.71,"ADDRESS":"西和３４之４號","OBJECTID":193276},"geometry":{"x":163235.24000000115,"y":2566358.7100000009}},{"attributes":{"ID":193278,"DIS_CODE":0,"TOWNNAME":"將軍區","LI":"西和里","LIN":"3鄰","STREET":" ","SECT":" ","MAREA":"西和","LANE":" ","ALLEY":" ","HOUSE_NO":"３４號","E_COORD97":163222.92000000001,"N_COORD97":2566381.8399999999,"ADDRESS":"西和３４號","OBJECTID":193277},"geometry":{"x":163222.91999999993,"y":2566381.8400000017}},{"attributes":{"ID":193279,"DIS_CODE":0,"TOWNNAME":"將軍區","LI":"西華里","LIN":"3鄰","STREET":" ","SECT":" ","MAREA":"西華","LANE":" ","ALLEY":" ","HOUSE_NO":"３５號","E_COORD97":163815.76000000001,"N_COORD97":2566415.3399999999,"ADDRESS":"西華３５號","OBJECTID":193278},"geometry":{"x":163815.76000000164,"y":2566415.3400000036}},{"attributes":{"ID":193280,"DIS_CODE":0,"TOWNNAME":"將軍區","LI":"西華里","LIN":"3鄰","STREET":" ","SECT":" ","MAREA":"西華","LANE":" ","ALLEY":" ","HOUSE_NO":"３６號","E_COORD97":163831.72,"N_COORD97":2566409.8799999999,"ADDRESS":"西華３６號","OBJECTID":193279},"geometry":{"x":163831.72000000067,"y":2566409.879999999}},{"attributes":{"ID":193281,"DIS_CODE":0,"TOWNNAME":"將軍區","LI":"西華里","LIN":"3鄰","STREET":" ","SECT":" ","MAREA":"西華","LANE":" ","ALLEY":" ","HOUSE_NO":"３７號","E_COORD97":163804.79000000001,"N_COORD97":2566417.9399999999,"ADDRESS":"西華３７號","OBJECTID":193280},"geometry":{"x":163804.79000000004,"y":2566417.9400000013}},{"attributes":{"ID":193282,"DIS_CODE":0,"TOWNNAME":"將軍區","LI":"西華里","LIN":"3鄰","STREET":" ","SECT":" ","MAREA":"西華","LANE":" ","ALLEY":" ","HOUSE_NO":"３９號","E_COORD97":163828.60000000001,"N_COORD97":2566395.96,"ADDRESS":"西華３９號","OBJECTID":193281},"geometry":{"x":163828.60000000149,"y":2566395.9600000028}},{"attributes":{"ID":193283,"DIS_CODE":0,"TOWNNAME":"將軍區","LI":"西華里","LIN":"3鄰","STREET":" ","SECT":" ","MAREA":"西華","LANE":" ","ALLEY":" ","HOUSE_NO":"４１號","E_COORD97":163827.10999999999,"N_COORD97":2566388.1299999999,"ADDRESS":"西華４１號","OBJECTID":193282},"geometry":{"x":163827.11000000034,"y":2566388.129999999}},{"attributes":{"ID":193284,"DIS_CODE":0,"TOWNNAME":"將軍區","LI":"西華里","LIN":"3鄰","STREET":" ","SECT":" ","MAREA":"西華","LANE":" ","ALLEY":" ","HOUSE_NO":"４２號","E_COORD97":163826.35999999999,"N_COORD97":2566384.2200000002,"ADDRESS":"西華４２號","OBJECTID":193283},"geometry":{"x":163826.36000000127,"y":2566384.2200000025}},{"attributes":{"ID":193285,"DIS_CODE":0,"TOWNNAME":"將軍區","LI":"西華里","LIN":"3鄰","STREET":" ","SECT":" ","MAREA":"西華","LANE":" ","ALLEY":" ","HOUSE_NO":"４３號","E_COORD97":163825.67999999999,"N_COORD97":2566381.1000000001,"ADDRESS":"西華４３號","OBJECTID":193284},"geometry":{"x":163825.6799999997,"y":2566381.0999999996}},{"attributes":{"ID":193286,"DIS_CODE":0,"TOWNNAME":"將軍區","LI":"西華里","LIN":"3鄰","STREET":" ","SECT":" ","MAREA":"西華","LANE":" ","ALLEY":" ","HOUSE_NO":"４４號","E_COORD97":163825.03,"N_COORD97":2566377.3500000001,"ADDRESS":"西華４４號","OBJECTID":193285},"geometry":{"x":163825.03000000119,"y":2566377.3499999996}},{"attributes":{"ID":193287,"DIS_CODE":0,"TOWNNAME":"將軍區","LI":"西華里","LIN":"3鄰","STREET":" ","SECT":" ","MAREA":"西華","LANE":" ","ALLEY":" ","HOUSE_NO":"４５號","E_COORD97":163824.37,"N_COORD97":2566373.6000000001,"ADDRESS":"西華４５號","OBJECTID":193286},"geometry":{"x":163824.37000000104,"y":2566373.6000000015}},{"attributes":{"ID":193288,"DIS_CODE":0,"TOWNNAME":"將軍區","LI":"西華里","LIN":"3鄰","STREET":" ","SECT":" ","MAREA":"西華","LANE":" ","ALLEY":" ","HOUSE_NO":"４７號","E_COORD97":163823.07000000001,"N_COORD97":2566366.1000000001,"ADDRESS":"西華４７號","OBJECTID":193287},"geometry":{"x":163823.07000000123,"y":2566366.1000000015}},{"attributes":{"ID":193289,"DIS_CODE":0,"TOWNNAME":"將軍區","LI":"西華里","LIN":"3鄰","STREET":" ","SECT":" ","MAREA":"西華","LANE":" ","ALLEY":" ","HOUSE_NO":"４８之１號","E_COORD97":163815.78,"N_COORD97":2566341.5,"ADDRESS":"西華４８之１號","OBJECTID":193288},"geometry":{"x":163815.78000000026,"y":2566341.5}},{"attributes":{"ID":193290,"DIS_CODE":0,"TOWNNAME":"將軍區","LI":"西華里","LIN":"3鄰","STREET":" ","SECT":" ","MAREA":"西華","LANE":" ","ALLEY":" ","HOUSE_NO":"４８號","E_COORD97":163815.78,"N_COORD97":2566337.79,"ADDRESS":"西華４８號","OBJECTID":193289},"geometry":{"x":163815.78000000026,"y":2566337.790000001}},{"attributes":{"ID":193291,"DIS_CODE":0,"TOWNNAME":"將軍區","LI":"西華里","LIN":"3鄰","STREET":" ","SECT":" ","MAREA":"西華","LANE":" ","ALLEY":" ","HOUSE_NO":"４９號","E_COORD97":163815.42000000001,"N_COORD97":2566334.1400000001,"ADDRESS":"西華４９號","OBJECTID":193290},"geometry":{"x":163815.42000000086,"y":2566334.1400000025}},{"attributes":{"ID":193292,"DIS_CODE":0,"TOWNNAME":"將軍區","LI":"西華里","LIN":"3鄰","STREET":" ","SECT":" ","MAREA":"西華","LANE":" ","ALLEY":" ","HOUSE_NO":"５０號","E_COORD97":163815.76000000001,"N_COORD97":2566329.5699999998,"ADDRESS":"西華５０號","OBJECTID":193291},"geometry":{"x":163815.76000000164,"y":2566329.570000004}},{"attributes":{"ID":193293,"DIS_CODE":0,"TOWNNAME":"將軍區","LI":"西華里","LIN":"3鄰","STREET":" ","SECT":" ","MAREA":"西華","LANE":" ","ALLEY":" ","HOUSE_NO":"５１號","E_COORD97":163815.70999999999,"N_COORD97":2566325.5899999999,"ADDRESS":"西華５１號","OBJECTID":193292},"geometry":{"x":163815.70999999996,"y":2566325.5900000036}},{"attributes":{"ID":193294,"DIS_CODE":0,"TOWNNAME":"將軍區","LI":"西華里","LIN":"3鄰","STREET":" ","SECT":" ","MAREA":"西華","LANE":" ","ALLEY":" ","HOUSE_NO":"５２號","E_COORD97":163815.39999999999,"N_COORD97":2566321.6200000001,"ADDRESS":"西華５２號","OBJECTID":193293},"geometry":{"x":163815.40000000224,"y":2566321.620000001}},{"attributes":{"ID":193295,"DIS_CODE":0,"TOWNNAME":"將軍區","LI":"西華里","LIN":"3鄰","STREET":" ","SECT":" ","MAREA":"西華","LANE":" ","ALLEY":" ","HOUSE_NO":"５３號","E_COORD97":163802,"N_COORD97":2566311.4399999999,"ADDRESS":"西華５３號","OBJECTID":193294},"geometry":{"x":163802,"y":2566311.4399999995}},{"attributes":{"ID":193296,"DIS_CODE":0,"TOWNNAME":"將軍區","LI":"西華里","LIN":"3鄰","STREET":" ","SECT":" ","MAREA":"西華","LANE":" ","ALLEY":" ","HOUSE_NO":"５４號","E_COORD97":163812.92999999999,"N_COORD97":2566292.79,"ADDRESS":"西華５４號","OBJECTID":193295},"geometry":{"x":163812.93000000063,"y":2566292.7900000028}},{"attributes":{"ID":193297,"DIS_CODE":0,"TOWNNAME":"將軍區","LI":"西華里","LIN":"3鄰","STREET":" ","SECT":" ","MAREA":"西華","LANE":" ","ALLEY":" ","HOUSE_NO":"５５之５號","E_COORD97":163809.69,"N_COORD97":2566269.6099999999,"ADDRESS":"西華５５之５號","OBJECTID":193296},"geometry":{"x":163809.69000000041,"y":2566269.6099999994}},{"attributes":{"ID":193298,"DIS_CODE":0,"TOWNNAME":"將軍區","LI":"西華里","LIN":"3鄰","STREET":" ","SECT":" ","MAREA":"西華","LANE":" ","ALLEY":" ","HOUSE_NO":"５５之６號","E_COORD97":163809.69,"N_COORD97":2566265.5899999999,"ADDRESS":"西華５５之６號","OBJECTID":193297},"geometry":{"x":163809.69000000041,"y":2566265.5900000017}},{"attributes":{"ID":193299,"DIS_CODE":0,"TOWNNAME":"將軍區","LI":"西華里","LIN":"3鄰","STREET":" ","SECT":" ","MAREA":"西華","LANE":" ","ALLEY":" ","HOUSE_NO":"５５之７號","E_COORD97":163809.76999999999,"N_COORD97":2566261.3500000001,"ADDRESS":"西華５５之７號","OBJECTID":193298},"geometry":{"x":163809.76999999955,"y":2566261.3499999996}},{"attributes":{"ID":193300,"DIS_CODE":0,"TOWNNAME":"將軍區","LI":"西華里","LIN":"3鄰","STREET":" ","SECT":" ","MAREA":"西華","LANE":" ","ALLEY":" ","HOUSE_NO":"５５之８號","E_COORD97":163809.53,"N_COORD97":2566257.02,"ADDRESS":"西華５５之８號","OBJECTID":193299},"geometry":{"x":163809.53000000119,"y":2566257.0199999996}},{"attributes":{"ID":193301,"DIS_CODE":0,"TOWNNAME":"將軍區","LI":"西華里","LIN":"3鄰","STREET":" ","SECT":" ","MAREA":"西華","LANE":" ","ALLEY":" ","HOUSE_NO":"５５之９號","E_COORD97":163809.45000000001,"N_COORD97":2566252.9300000002,"ADDRESS":"西華５５之９號","OBJECTID":193300},"geometry":{"x":163809.45000000019,"y":2566252.9300000016}},{"attributes":{"ID":193302,"DIS_CODE":0,"TOWNNAME":"將軍區","LI":"忠興里","LIN":"3鄰","STREET":" ","SECT":" ","MAREA":"忠興","LANE":" ","ALLEY":" ","HOUSE_NO":"４２之１號","E_COORD97":163814.09,"N_COORD97":2566813.7000000002,"ADDRESS":"忠興４２之１號","OBJECTID":193301},"geometry":{"x":163814.09000000078,"y":2566813.7000000011}},{"attributes":{"ID":193303,"DIS_CODE":0,"TOWNNAME":"將軍區","LI":"西華里","LIN":"3鄰","STREET":" ","SECT":" ","MAREA":"西華","LANE":" ","ALLEY":" ","HOUSE_NO":"５８之１０號","E_COORD97":163753.39999999999,"N_COORD97":2566273.75,"ADDRESS":"西華５８之１０號","OBJECTID":193302},"geometry":{"x":163753.4000000013,"y":2566273.7500000037}},{"attributes":{"ID":193304,"DIS_CODE":0,"TOWNNAME":"將軍區","LI":"西華里","LIN":"3鄰","STREET":" ","SECT":" ","MAREA":"西華","LANE":" ","ALLEY":" ","HOUSE_NO":"５８之１１號","E_COORD97":163751.64000000001,"N_COORD97":2566277.7999999998,"ADDRESS":"西華５８之１１號","OBJECTID":193303},"geometry":{"x":163751.63999999966,"y":2566277.8000000026}},{"attributes":{"ID":193305,"DIS_CODE":0,"TOWNNAME":"將軍區","LI":"西華里","LIN":"3鄰","STREET":" ","SECT":" ","MAREA":"西華","LANE":" ","ALLEY":" ","HOUSE_NO":"５８之１２號","E_COORD97":163750.06,"N_COORD97":2566281.6699999999,"ADDRESS":"西華５８之１２號","OBJECTID":193304},"geometry":{"x":163750.05999999959,"y":2566281.6700000018}},{"attributes":{"ID":193306,"DIS_CODE":0,"TOWNNAME":"將軍區","LI":"西華里","LIN":"3鄰","STREET":" ","SECT":" ","MAREA":"西華","LANE":" ","ALLEY":" ","HOUSE_NO":"５８之１３２號","E_COORD97":163709.5,"N_COORD97":2566145.73,"ADDRESS":"西華５８之１３２號","OBJECTID":193305},"geometry":{"x":163709.50000000093,"y":2566145.7300000023}},{"attributes":{"ID":193307,"DIS_CODE":0,"TOWNNAME":"將軍區","LI":"西華里","LIN":"3鄰","STREET":" ","SECT":" ","MAREA":"西華","LANE":" ","ALLEY":" ","HOUSE_NO":"５８之１３４號","E_COORD97":163709.38,"N_COORD97":2566141.0600000001,"ADDRESS":"西華５８之１３４號","OBJECTID":193306},"geometry":{"x":163709.37999999989,"y":2566141.0600000024}},{"attributes":{"ID":193308,"DIS_CODE":0,"TOWNNAME":"將軍區","LI":"西華里","LIN":"3鄰","STREET":" ","SECT":" ","MAREA":"西華","LANE":" ","ALLEY":" ","HOUSE_NO":"５８之１３６號","E_COORD97":163709.26000000001,"N_COORD97":2566136.3900000001,"ADDRESS":"西華５８之１３６號","OBJECTID":193307},"geometry":{"x":163709.26000000071,"y":2566136.3900000006}},{"attributes":{"ID":193309,"DIS_CODE":0,"TOWNNAME":"將軍區","LI":"西華里","LIN":"3鄰","STREET":" ","SECT":" ","MAREA":"西華","LANE":" ","ALLEY":" ","HOUSE_NO":"５８之１３８號","E_COORD97":163709.14000000001,"N_COORD97":2566131.71,"ADDRESS":"西華５８之１３８號","OBJECTID":193308},"geometry":{"x":163709.13999999966,"y":2566131.7100000009}},{"attributes":{"ID":193310,"DIS_CODE":0,"TOWNNAME":"將軍區","LI":"西華里","LIN":"3鄰","STREET":" ","SECT":" ","MAREA":"西華","LANE":" ","ALLEY":" ","HOUSE_NO":"５８之１３號","E_COORD97":163748.47,"N_COORD97":2566285.3599999999,"ADDRESS":"西華５８之１３號","OBJECTID":193309},"geometry":{"x":163748.47000000067,"y":2566285.3599999994}},{"attributes":{"ID":193311,"DIS_CODE":0,"TOWNNAME":"將軍區","LI":"西華里","LIN":"3鄰","STREET":" ","SECT":" ","MAREA":"西華","LANE":" ","ALLEY":" ","HOUSE_NO":"５８之１４０號","E_COORD97":163686.82999999999,"N_COORD97":2566146.71,"ADDRESS":"西華５８之１４０號","OBJECTID":193310},"geometry":{"x":163686.83000000101,"y":2566146.7100000028}},{"attributes":{"ID":193312,"DIS_CODE":0,"TOWNNAME":"將軍區","LI":"西華里","LIN":"3鄰","STREET":" ","SECT":" ","MAREA":"西華","LANE":" ","ALLEY":" ","HOUSE_NO":"５８之１４２號","E_COORD97":163686.95000000001,"N_COORD97":2566141.79,"ADDRESS":"西華５８之１４２號","OBJECTID":193311},"geometry":{"x":163686.95000000019,"y":2566141.790000001}},{"attributes":{"ID":193313,"DIS_CODE":0,"TOWNNAME":"將軍區","LI":"西華里","LIN":"3鄰","STREET":" ","SECT":" ","MAREA":"西華","LANE":" ","ALLEY":" ","HOUSE_NO":"５８之１４４號","E_COORD97":163687.01000000001,"N_COORD97":2566136.75,"ADDRESS":"西華５８之１４４號","OBJECTID":193312},"geometry":{"x":163687.01000000071,"y":2566136.75}},{"attributes":{"ID":193314,"DIS_CODE":0,"TOWNNAME":"將軍區","LI":"西華里","LIN":"3鄰","STREET":" ","SECT":" ","MAREA":"西華","LANE":" ","ALLEY":" ","HOUSE_NO":"５８之１４６號","E_COORD97":163687.23000000001,"N_COORD97":2566131.6600000001,"ADDRESS":"西華５８之１４６號","OBJECTID":193313},"geometry":{"x":163687.23000000045,"y":2566131.6600000001}},{"attributes":{"ID":193315,"DIS_CODE":0,"TOWNNAME":"將軍區","LI":"西華里","LIN":"3鄰","STREET":" ","SECT":" ","MAREA":"西華","LANE":" ","ALLEY":" ","HOUSE_NO":"５８之１５號","E_COORD97":163742.34,"N_COORD97":2566192.8999999999,"ADDRESS":"西華５８之１５號","OBJECTID":193314},"geometry":{"x":163742.34000000171,"y":2566192.9000000022}},{"attributes":{"ID":193316,"DIS_CODE":0,"TOWNNAME":"將軍區","LI":"西華里","LIN":"3鄰","STREET":" ","SECT":" ","MAREA":"西華","LANE":" ","ALLEY":" ","HOUSE_NO":"５８之１６號","E_COORD97":163764.10000000001,"N_COORD97":2566155.3100000001,"ADDRESS":"西華５８之１６號","OBJECTID":193315},"geometry":{"x":163764.10000000149,"y":2566155.3100000042}},{"attributes":{"ID":193317,"DIS_CODE":0,"TOWNNAME":"將軍區","LI":"西華里","LIN":"3鄰","STREET":" ","SECT":" ","MAREA":"西華","LANE":" ","ALLEY":" ","HOUSE_NO":"５８之１７號","E_COORD97":163742.09,"N_COORD97":2566198.2200000002,"ADDRESS":"西華５８之１７號","OBJECTID":193316},"geometry":{"x":163742.08999999985,"y":2566198.2200000025}},{"attributes":{"ID":193318,"DIS_CODE":0,"TOWNNAME":"將軍區","LI":"西華里","LIN":"3鄰","STREET":" ","SECT":" ","MAREA":"西華","LANE":" ","ALLEY":" ","HOUSE_NO":"５８之１８號","E_COORD97":163763.38,"N_COORD97":2566159.54,"ADDRESS":"西華５８之１８號","OBJECTID":193317},"geometry":{"x":163763.37999999989,"y":2566159.540000001}},{"attributes":{"ID":193319,"DIS_CODE":0,"TOWNNAME":"將軍區","LI":"西華里","LIN":"3鄰","STREET":" ","SECT":" ","MAREA":"西華","LANE":" ","ALLEY":" ","HOUSE_NO":"５８之１９號","E_COORD97":163741.67000000001,"N_COORD97":2566203.6200000001,"ADDRESS":"西華５８之１９號","OBJECTID":193318},"geometry":{"x":163741.66999999993,"y":2566203.620000001}},{"attributes":{"ID":193320,"DIS_CODE":0,"TOWNNAME":"將軍區","LI":"西華里","LIN":"3鄰","STREET":" ","SECT":" ","MAREA":"西華","LANE":" ","ALLEY":" ","HOUSE_NO":"５８之１號","E_COORD97":163758.78,"N_COORD97":2566339.25,"ADDRESS":"西華５８之１號","OBJECTID":193319},"geometry":{"x":163758.78000000119,"y":2566339.2500000019}},{"attributes":{"ID":193321,"DIS_CODE":0,"TOWNNAME":"將軍區","LI":"西華里","LIN":"3鄰","STREET":" ","SECT":" ","MAREA":"西華","LANE":" ","ALLEY":" ","HOUSE_NO":"５８之２０號","E_COORD97":163762.56,"N_COORD97":2566163.3900000001,"ADDRESS":"西華５８之２０號","OBJECTID":193320},"geometry":{"x":163762.56000000145,"y":2566163.3900000006}},{"attributes":{"ID":193322,"DIS_CODE":0,"TOWNNAME":"將軍區","LI":"西華里","LIN":"3鄰","STREET":" ","SECT":" ","MAREA":"西華","LANE":" ","ALLEY":" ","HOUSE_NO":"５８之２１號","E_COORD97":163741.17000000001,"N_COORD97":2566209.1000000001,"ADDRESS":"西華５８之２１號","OBJECTID":193321},"geometry":{"x":163741.16999999993,"y":2566209.0999999996}},{"attributes":{"ID":193323,"DIS_CODE":0,"TOWNNAME":"將軍區","LI":"西華里","LIN":"3鄰","STREET":" ","SECT":" ","MAREA":"西華","LANE":" ","ALLEY":" ","HOUSE_NO":"５８之２２號","E_COORD97":163760.87,"N_COORD97":2566167.48,"ADDRESS":"西華５８之２２號","OBJECTID":193322},"geometry":{"x":163760.87000000011,"y":2566167.4800000042}},{"attributes":{"ID":193324,"DIS_CODE":0,"TOWNNAME":"將軍區","LI":"西華里","LIN":"3鄰","STREET":" ","SECT":" ","MAREA":"西華","LANE":" ","ALLEY":" ","HOUSE_NO":"５８之２４號","E_COORD97":163758.17999999999,"N_COORD97":2566172.0600000001,"ADDRESS":"西華５８之２４號","OBJECTID":193323},"geometry":{"x":163758.1799999997,"y":2566172.0600000005}},{"attributes":{"ID":193325,"DIS_CODE":0,"TOWNNAME":"將軍區","LI":"西華里","LIN":"3鄰","STREET":" ","SECT":" ","MAREA":"西華","LANE":" ","ALLEY":" ","HOUSE_NO":"５８之２６號","E_COORD97":163756.42999999999,"N_COORD97":2566177.5600000001,"ADDRESS":"西華５８之２６號","OBJECTID":193324},"geometry":{"x":163756.4299999997,"y":2566177.5600000024}},{"attributes":{"ID":193326,"DIS_CODE":0,"TOWNNAME":"將軍區","LI":"西華里","LIN":"3鄰","STREET":" ","SECT":" ","MAREA":"西華","LANE":" ","ALLEY":" ","HOUSE_NO":"５８之２８號","E_COORD97":163749.95999999999,"N_COORD97":2566164.77,"ADDRESS":"西華５８之２８號","OBJECTID":193325},"geometry":{"x":163749.95999999996,"y":2566164.7700000033}},{"attributes":{"ID":193327,"DIS_CODE":0,"TOWNNAME":"將軍區","LI":"西華里","LIN":"3鄰","STREET":" ","SECT":" ","MAREA":"西華","LANE":" ","ALLEY":" ","HOUSE_NO":"５８之２號","E_COORD97":163762.5,"N_COORD97":2566339.25,"ADDRESS":"西華５８之２號","OBJECTID":193326},"geometry":{"x":163762.50000000093,"y":2566339.2500000019}},{"attributes":{"ID":193328,"DIS_CODE":0,"TOWNNAME":"安南區","LI":"\u25A0南里","LIN":"5鄰","STREET":"安昌街","SECT":" ","MAREA":" ","LANE":"１３１巷","ALLEY":"３４弄","HOUSE_NO":"８號","E_COORD97":169952.64000000001,"N_COORD97":2552380.6099999999,"ADDRESS":"安昌街１３１巷３４弄８號","OBJECTID":193327},"geometry":{"x":169952.63999999966,"y":2552380.6100000013}},{"attributes":{"ID":193329,"DIS_CODE":0,"TOWNNAME":"將軍區","LI":"西華里","LIN":"3鄰","STREET":" ","SECT":" ","MAREA":"西華","LANE":" ","ALLEY":" ","HOUSE_NO":"５８之３０號","E_COORD97":163745.94,"N_COORD97":2566164.71,"ADDRESS":"西華５８之３０號","OBJECTID":193328},"geometry":{"x":163745.94000000134,"y":2566164.7100000009}},{"attributes":{"ID":193330,"DIS_CODE":0,"TOWNNAME":"安南區","LI":"新順里","LIN":"5鄰","STREET":"安豐六街","SECT":" ","MAREA":" ","LANE":"１０巷","ALLEY":"７１弄","HOUSE_NO":"２號","E_COORD97":169288.70000000001,"N_COORD97":2549429.96,"ADDRESS":"安豐六街１０巷７１弄２號","OBJECTID":193329},"geometry":{"x":169288.70000000205,"y":2549429.9600000046}},{"attributes":{"ID":193331,"DIS_CODE":0,"TOWNNAME":"安南區","LI":"新順里","LIN":"5鄰","STREET":"安豐六街","SECT":" ","MAREA":" ","LANE":"１０巷","ALLEY":"７１弄","HOUSE_NO":"６號","E_COORD97":169292.07000000001,"N_COORD97":2549428.1600000001,"ADDRESS":"安豐六街１０巷７１弄６號","OBJECTID":193330},"geometry":{"x":169292.07000000123,"y":2549428.160000002}},{"attributes":{"ID":193332,"DIS_CODE":0,"TOWNNAME":"將軍區","LI":"西華里","LIN":"3鄰","STREET":" ","SECT":" ","MAREA":"西華","LANE":" ","ALLEY":" ","HOUSE_NO":"５８之３２號","E_COORD97":163741.79999999999,"N_COORD97":2566164.77,"ADDRESS":"西華５８之３２號","OBJECTID":193331},"geometry":{"x":163741.79999999981,"y":2566164.7700000033}},{"attributes":{"ID":193333,"DIS_CODE":0,"TOWNNAME":"安南區","LI":"新順里","LIN":"5鄰","STREET":"安豐六街","SECT":" ","MAREA":" ","LANE":"１０巷","ALLEY":"７１弄","HOUSE_NO":"８號","E_COORD97":169296.10999999999,"N_COORD97":2549430.6299999999,"ADDRESS":"安豐六街１０巷７１弄８號","OBJECTID":193332},"geometry":{"x":169296.1100000022,"y":2549430.6300000008}},{"attributes":{"ID":193334,"DIS_CODE":0,"TOWNNAME":"將軍區","LI":"西華里","LIN":"3鄰","STREET":" ","SECT":" ","MAREA":"西華","LANE":" ","ALLEY":" ","HOUSE_NO":"５８之３４號","E_COORD97":163737.72,"N_COORD97":2566164.9399999999,"ADDRESS":"西華５８之３４號","OBJECTID":193333},"geometry":{"x":163737.71999999974,"y":2566164.9400000013}},{"attributes":{"ID":193335,"DIS_CODE":0,"TOWNNAME":"將軍區","LI":"忠興里","LIN":"3鄰","STREET":" ","SECT":" ","MAREA":"忠興","LANE":" ","ALLEY":" ","HOUSE_NO":"４２之２號","E_COORD97":163814.85000000001,"N_COORD97":2566818.5099999998,"ADDRESS":"忠興４２之２號","OBJECTID":193334},"geometry":{"x":163814.85000000149,"y":2566818.5100000016}},{"attributes":{"ID":193336,"DIS_CODE":0,"TOWNNAME":"將軍區","LI":"忠興里","LIN":"3鄰","STREET":" ","SECT":" ","MAREA":"忠興","LANE":" ","ALLEY":" ","HOUSE_NO":"４２之５號","E_COORD97":163810.14000000001,"N_COORD97":2566854.23,"ADDRESS":"忠興４２之５號","OBJECTID":193335},"geometry":{"x":163810.1400000006,"y":2566854.2300000042}},{"attributes":{"ID":193337,"DIS_CODE":0,"TOWNNAME":"將軍區","LI":"忠興里","LIN":"3鄰","STREET":" ","SECT":" ","MAREA":"忠興","LANE":" ","ALLEY":" ","HOUSE_NO":"４２之６號","E_COORD97":163810.37,"N_COORD97":2566849.4399999999,"ADDRESS":"忠興４２之６號","OBJECTID":193336},"geometry":{"x":163810.37000000104,"y":2566849.4400000013}},{"attributes":{"ID":193338,"DIS_CODE":0,"TOWNNAME":"將軍區","LI":"忠興里","LIN":"3鄰","STREET":" ","SECT":" ","MAREA":"忠興","LANE":" ","ALLEY":" ","HOUSE_NO":"４２之７號","E_COORD97":163813.41,"N_COORD97":2566832.25,"ADDRESS":"忠興４２之７號","OBJECTID":193337},"geometry":{"x":163813.41000000201,"y":2566832.25}},{"attributes":{"ID":193339,"DIS_CODE":0,"TOWNNAME":"將軍區","LI":"忠興里","LIN":"3鄰","STREET":" ","SECT":" ","MAREA":"忠興","LANE":" ","ALLEY":" ","HOUSE_NO":"４２之８號","E_COORD97":163813.48000000001,"N_COORD97":2566836.8300000001,"ADDRESS":"忠興４２之８號","OBJECTID":193338},"geometry":{"x":163813.48000000138,"y":2566836.8300000019}},{"attributes":{"ID":193340,"DIS_CODE":0,"TOWNNAME":"將軍區","LI":"忠興里","LIN":"3鄰","STREET":" ","SECT":" ","MAREA":"忠興","LANE":" ","ALLEY":" ","HOUSE_NO":"４３之８號","E_COORD97":163718.91,"N_COORD97":2566834.3399999999,"ADDRESS":"忠興４３之８號","OBJECTID":193339},"geometry":{"x":163718.91000000108,"y":2566834.3399999999}},{"attributes":{"ID":193341,"DIS_CODE":0,"TOWNNAME":"將軍區","LI":"忠興里","LIN":"3鄰","STREET":" ","SECT":" ","MAREA":"忠興","LANE":" ","ALLEY":" ","HOUSE_NO":"４６之１號","E_COORD97":163668.28,"N_COORD97":2566826.79,"ADDRESS":"忠興４６之１號","OBJECTID":193340},"geometry":{"x":163668.28000000026,"y":2566826.7899999991}},{"attributes":{"ID":193342,"DIS_CODE":0,"TOWNNAME":"將軍區","LI":"忠興里","LIN":"3鄰","STREET":" ","SECT":" ","MAREA":"忠興","LANE":" ","ALLEY":" ","HOUSE_NO":"４７之１號","E_COORD97":163665.16,"N_COORD97":2566849.7200000002,"ADDRESS":"忠興４７之１號","OBJECTID":193341},"geometry":{"x":163665.16000000015,"y":2566849.7200000007}},{"attributes":{"ID":193343,"DIS_CODE":0,"TOWNNAME":"將軍區","LI":"忠興里","LIN":"3鄰","STREET":" ","SECT":" ","MAREA":"忠興","LANE":" ","ALLEY":" ","HOUSE_NO":"４７號","E_COORD97":163673.53,"N_COORD97":2566835.0800000001,"ADDRESS":"忠興４７號","OBJECTID":193342},"geometry":{"x":163673.52999999933,"y":2566835.0800000019}},{"attributes":{"ID":193344,"DIS_CODE":0,"TOWNNAME":"將軍區","LI":"忠興里","LIN":"3鄰","STREET":" ","SECT":" ","MAREA":"忠興","LANE":" ","ALLEY":" ","HOUSE_NO":"４８號","E_COORD97":163693.20000000001,"N_COORD97":2566850.79,"ADDRESS":"忠興４８號","OBJECTID":193343},"geometry":{"x":163693.20000000112,"y":2566850.7899999991}},{"attributes":{"ID":193345,"DIS_CODE":0,"TOWNNAME":"白河區","LI":"廣安里","LIN":"3鄰","STREET":" ","SECT":" ","MAREA":"枋子林","LANE":" ","ALLEY":" ","HOUSE_NO":"１２之２號","E_COORD97":189076.70000000001,"N_COORD97":2587334.0899999999,"ADDRESS":"枋子林１２之２號","OBJECTID":193344},"geometry":{"x":189076.70000000112,"y":2587334.0899999999}},{"attributes":{"ID":193346,"DIS_CODE":0,"TOWNNAME":"白河區","LI":"廣安里","LIN":"3鄰","STREET":" ","SECT":" ","MAREA":"枋子林","LANE":" ","ALLEY":" ","HOUSE_NO":"１２號","E_COORD97":189056.09,"N_COORD97":2587370.3500000001,"ADDRESS":"枋子林１２號","OBJECTID":193345},"geometry":{"x":189056.08999999985,"y":2587370.3499999996}},{"attributes":{"ID":193347,"DIS_CODE":0,"TOWNNAME":"白河區","LI":"廣安里","LIN":"3鄰","STREET":" ","SECT":" ","MAREA":"枋子林","LANE":" ","ALLEY":" ","HOUSE_NO":"１之１號","E_COORD97":189100.32000000001,"N_COORD97":2587261.1000000001,"ADDRESS":"枋子林１之１號","OBJECTID":193346},"geometry":{"x":189100.32000000123,"y":2587261.1000000015}},{"attributes":{"ID":193348,"DIS_CODE":0,"TOWNNAME":"白河區","LI":"廣安里","LIN":"3鄰","STREET":" ","SECT":" ","MAREA":"枋子林","LANE":" ","ALLEY":" ","HOUSE_NO":"１之３號","E_COORD97":189228.95000000001,"N_COORD97":2587151.4500000002,"ADDRESS":"枋子林１之３號","OBJECTID":193347},"geometry":{"x":189228.95000000019,"y":2587151.4499999993}},{"attributes":{"ID":193349,"DIS_CODE":0,"TOWNNAME":"白河區","LI":"廣安里","LIN":"3鄰","STREET":" ","SECT":" ","MAREA":"枋子林","LANE":" ","ALLEY":" ","HOUSE_NO":"１之５號","E_COORD97":189185.57999999999,"N_COORD97":2587238.9100000001,"ADDRESS":"枋子林１之５號","OBJECTID":193348},"geometry":{"x":189185.58000000007,"y":2587238.9100000039}},{"attributes":{"ID":193350,"DIS_CODE":0,"TOWNNAME":"白河區","LI":"廣安里","LIN":"3鄰","STREET":" ","SECT":" ","MAREA":"枋子林","LANE":" ","ALLEY":" ","HOUSE_NO":"１之６號","E_COORD97":189328.69,"N_COORD97":2587241.5699999998,"ADDRESS":"枋子林１之６號","OBJECTID":193349},"geometry":{"x":189328.69000000041,"y":2587241.5700000022}},{"attributes":{"ID":193351,"DIS_CODE":0,"TOWNNAME":"白河區","LI":"廣安里","LIN":"3鄰","STREET":" ","SECT":" ","MAREA":"枋子林","LANE":" ","ALLEY":" ","HOUSE_NO":"１之９號","E_COORD97":189120.38,"N_COORD97":2587153.3999999999,"ADDRESS":"枋子林１之９號","OBJECTID":193350},"geometry":{"x":189120.37999999989,"y":2587153.4000000004}},{"attributes":{"ID":193352,"DIS_CODE":0,"TOWNNAME":"白河區","LI":"廣安里","LIN":"3鄰","STREET":" ","SECT":" ","MAREA":"枋子林","LANE":" ","ALLEY":" ","HOUSE_NO":"２號","E_COORD97":189071.14000000001,"N_COORD97":2587297.8100000001,"ADDRESS":"枋子林２號","OBJECTID":193351},"geometry":{"x":189071.13999999966,"y":2587297.8100000024}},{"attributes":{"ID":193353,"DIS_CODE":0,"TOWNNAME":"白河區","LI":"廣安里","LIN":"3鄰","STREET":" ","SECT":" ","MAREA":"枋子林","LANE":" ","ALLEY":" ","HOUSE_NO":"５之８號","E_COORD97":189003.26999999999,"N_COORD97":2587256.1600000001,"ADDRESS":"枋子林５之８號","OBJECTID":193352},"geometry":{"x":189003.27000000048,"y":2587256.1600000001}},{"attributes":{"ID":193354,"DIS_CODE":0,"TOWNNAME":"白河區","LI":"廣安里","LIN":"3鄰","STREET":" ","SECT":" ","MAREA":"枋子林","LANE":" ","ALLEY":" ","HOUSE_NO":"７號","E_COORD97":188977.09,"N_COORD97":2587276.4900000002,"ADDRESS":"枋子林７號","OBJECTID":193353},"geometry":{"x":188977.09000000078,"y":2587276.4900000021}},{"attributes":{"ID":193355,"DIS_CODE":0,"TOWNNAME":"白河區","LI":"廣安里","LIN":"3鄰","STREET":" ","SECT":" ","MAREA":"枋子林","LANE":" ","ALLEY":" ","HOUSE_NO":"８之２號","E_COORD97":189012.54000000001,"N_COORD97":2587315.8599999999,"ADDRESS":"枋子林８之２號","OBJECTID":193354},"geometry":{"x":189012.54000000004,"y":2587315.8599999994}},{"attributes":{"ID":193356,"DIS_CODE":0,"TOWNNAME":"白河區","LI":"廣安里","LIN":"3鄰","STREET":" ","SECT":" ","MAREA":"枋子林","LANE":" ","ALLEY":" ","HOUSE_NO":"８號","E_COORD97":189019.57999999999,"N_COORD97":2587307.0800000001,"ADDRESS":"枋子林８號","OBJECTID":193355},"geometry":{"x":189019.58000000194,"y":2587307.0800000001}},{"attributes":{"ID":193357,"DIS_CODE":0,"TOWNNAME":"白河區","LI":"廣安里","LIN":"3鄰","STREET":" ","SECT":" ","MAREA":"枋子林","LANE":" ","ALLEY":" ","HOUSE_NO":"９之１號","E_COORD97":189023.20999999999,"N_COORD97":2587355.6299999999,"ADDRESS":"枋子林９之１號","OBJECTID":193356},"geometry":{"x":189023.20999999996,"y":2587355.6300000008}},{"attributes":{"ID":193358,"DIS_CODE":0,"TOWNNAME":"白河區","LI":"廣安里","LIN":"3鄰","STREET":" ","SECT":" ","MAREA":"枋子林","LANE":" ","ALLEY":" ","HOUSE_NO":"９號","E_COORD97":189023.04000000001,"N_COORD97":2587334.9100000001,"ADDRESS":"枋子林９號","OBJECTID":193357},"geometry":{"x":189023.04000000004,"y":2587334.910000002}},{"attributes":{"ID":193359,"DIS_CODE":0,"TOWNNAME":"白河區","LI":"汴頭里","LIN":"3鄰","STREET":" ","SECT":" ","MAREA":"林子內","LANE":" ","ALLEY":" ","HOUSE_NO":"２５之１號","E_COORD97":195026.84,"N_COORD97":2584956.3300000001,"ADDRESS":"林子內２５之１號","OBJECTID":193358},"geometry":{"x":195026.83999999985,"y":2584956.3300000001}},{"attributes":{"ID":193360,"DIS_CODE":0,"TOWNNAME":"白河區","LI":"汴頭里","LIN":"3鄰","STREET":" ","SECT":" ","MAREA":"林子內","LANE":" ","ALLEY":" ","HOUSE_NO":"２６之１號","E_COORD97":195074.75,"N_COORD97":2584967.3599999999,"ADDRESS":"林子內２６之１號","OBJECTID":193359},"geometry":{"x":195074.75,"y":2584967.3600000013}},{"attributes":{"ID":193361,"DIS_CODE":0,"TOWNNAME":"白河區","LI":"汴頭里","LIN":"3鄰","STREET":" ","SECT":" ","MAREA":"林子內","LANE":" ","ALLEY":" ","HOUSE_NO":"２６號","E_COORD97":195081.42000000001,"N_COORD97":2584949.4500000002,"ADDRESS":"林子內２６號","OBJECTID":193360},"geometry":{"x":195081.42000000086,"y":2584949.4500000011}},{"attributes":{"ID":193362,"DIS_CODE":0,"TOWNNAME":"白河區","LI":"汴頭里","LIN":"3鄰","STREET":" ","SECT":" ","MAREA":"林子內","LANE":" ","ALLEY":" ","HOUSE_NO":"２７號","E_COORD97":195103.85999999999,"N_COORD97":2584969.1099999999,"ADDRESS":"林子內２７號","OBJECTID":193361},"geometry":{"x":195103.86000000127,"y":2584969.1100000013}},{"attributes":{"ID":193363,"DIS_CODE":0,"TOWNNAME":"白河區","LI":"汴頭里","LIN":"3鄰","STREET":" ","SECT":" ","MAREA":"林子內","LANE":" ","ALLEY":" ","HOUSE_NO":"２８之２號","E_COORD97":195049.06,"N_COORD97":2584979.6800000002,"ADDRESS":"林子內２８之２號","OBJECTID":193362},"geometry":{"x":195049.06000000145,"y":2584979.6800000016}},{"attributes":{"ID":193364,"DIS_CODE":0,"TOWNNAME":"白河區","LI":"汴頭里","LIN":"3鄰","STREET":" ","SECT":" ","MAREA":"林子內","LANE":" ","ALLEY":" ","HOUSE_NO":"２８號","E_COORD97":195087.01999999999,"N_COORD97":2584990.7200000002,"ADDRESS":"林子內２８號","OBJECTID":193363},"geometry":{"x":195087.02000000048,"y":2584990.7200000025}},{"attributes":{"ID":193365,"DIS_CODE":0,"TOWNNAME":"白河區","LI":"庄內里","LIN":"3鄰","STREET":" ","SECT":" ","MAREA":"客庄內","LANE":" ","ALLEY":" ","HOUSE_NO":"３３號","E_COORD97":190939.32000000001,"N_COORD97":2583433.9399999999,"ADDRESS":"客庄內３３號","OBJECTID":193364},"geometry":{"x":190939.32000000123,"y":2583433.9400000032}},{"attributes":{"ID":193366,"DIS_CODE":0,"TOWNNAME":"白河區","LI":"庄內里","LIN":"3鄰","STREET":" ","SECT":" ","MAREA":"客庄內","LANE":" ","ALLEY":" ","HOUSE_NO":"２８號","E_COORD97":190983.29999999999,"N_COORD97":2583398.52,"ADDRESS":"客庄內２８號","OBJECTID":193365},"geometry":{"x":190983.30000000075,"y":2583398.5199999996}},{"attributes":{"ID":193367,"DIS_CODE":0,"TOWNNAME":"白河區","LI":"庄內里","LIN":"3鄰","STREET":" ","SECT":" ","MAREA":"客庄內","LANE":" ","ALLEY":" ","HOUSE_NO":"２９號","E_COORD97":190966.22,"N_COORD97":2583400.6800000002,"ADDRESS":"客庄內２９號","OBJECTID":193366},"geometry":{"x":190966.22000000067,"y":2583400.6799999997}},{"attributes":{"ID":193368,"DIS_CODE":0,"TOWNNAME":"白河區","LI":"庄內里","LIN":"3鄰","STREET":" ","SECT":" ","MAREA":"客庄內","LANE":" ","ALLEY":" ","HOUSE_NO":"３０號","E_COORD97":190969.07999999999,"N_COORD97":2583417.0800000001,"ADDRESS":"客庄內３０號","OBJECTID":193367},"geometry":{"x":190969.08000000194,"y":2583417.0800000019}},{"attributes":{"ID":193369,"DIS_CODE":0,"TOWNNAME":"白河區","LI":"庄內里","LIN":"3鄰","STREET":" ","SECT":" ","MAREA":"客庄內","LANE":" ","ALLEY":" ","HOUSE_NO":"３１號","E_COORD97":190981.89999999999,"N_COORD97":2583426.52,"ADDRESS":"客庄內３１號","OBJECTID":193368},"geometry":{"x":190981.90000000037,"y":2583426.5200000033}},{"attributes":{"ID":193370,"DIS_CODE":0,"TOWNNAME":"白河區","LI":"庄內里","LIN":"3鄰","STREET":" ","SECT":" ","MAREA":"客庄內","LANE":" ","ALLEY":" ","HOUSE_NO":"３２號","E_COORD97":190982.26000000001,"N_COORD97":2583441.4399999999,"ADDRESS":"客庄內３２號","OBJECTID":193369},"geometry":{"x":190982.25999999978,"y":2583441.4400000013}},{"attributes":{"ID":193371,"DIS_CODE":0,"TOWNNAME":"白河區","LI":"庄內里","LIN":"3鄰","STREET":" ","SECT":" ","MAREA":"客庄內","LANE":" ","ALLEY":" ","HOUSE_NO":"３４號","E_COORD97":190923.25,"N_COORD97":2583424.7799999998,"ADDRESS":"客庄內３４號","OBJECTID":193370},"geometry":{"x":190923.25,"y":2583424.7800000031}},{"attributes":{"ID":193372,"DIS_CODE":0,"TOWNNAME":"白河區","LI":"庄內里","LIN":"3鄰","STREET":" ","SECT":" ","MAREA":"客庄內","LANE":" ","ALLEY":" ","HOUSE_NO":"３５號","E_COORD97":190942.17999999999,"N_COORD97":2583402.48,"ADDRESS":"客庄內３５號","OBJECTID":193371},"geometry":{"x":190942.1799999997,"y":2583402.4800000004}},{"attributes":{"ID":193373,"DIS_CODE":0,"TOWNNAME":"白河區","LI":"庄內里","LIN":"3鄰","STREET":" ","SECT":" ","MAREA":"客庄內","LANE":" ","ALLEY":" ","HOUSE_NO":"３７號","E_COORD97":190901.98000000001,"N_COORD97":2583412.0800000001,"ADDRESS":"客庄內３７號","OBJECTID":193372},"geometry":{"x":190901.98000000045,"y":2583412.0800000001}},{"attributes":{"ID":193374,"DIS_CODE":0,"TOWNNAME":"白河區","LI":"崁頭里","LIN":"3鄰","STREET":" ","SECT":" ","MAREA":"崁子頭","LANE":" ","ALLEY":" ","HOUSE_NO":"２４號","E_COORD97":190581.26999999999,"N_COORD97":2580711.4500000002,"ADDRESS":"崁子頭２４號","OBJECTID":193373},"geometry":{"x":190581.27000000048,"y":2580711.4500000011}},{"attributes":{"ID":193375,"DIS_CODE":0,"TOWNNAME":"白河區","LI":"崁頭里","LIN":"3鄰","STREET":" ","SECT":" ","MAREA":"崁子頭","LANE":" ","ALLEY":" ","HOUSE_NO":"２６號","E_COORD97":190609.70000000001,"N_COORD97":2580696.9500000002,"ADDRESS":"崁子頭２６號","OBJECTID":193374},"geometry":{"x":190609.70000000112,"y":2580696.9499999993}},{"attributes":{"ID":193376,"DIS_CODE":0,"TOWNNAME":"白河區","LI":"崁頭里","LIN":"3鄰","STREET":" ","SECT":" ","MAREA":"崁子頭","LANE":" ","ALLEY":" ","HOUSE_NO":"２７之１號","E_COORD97":190697.78,"N_COORD97":2580709.9100000001,"ADDRESS":"崁子頭２７之１號","OBJECTID":193375},"geometry":{"x":190697.78000000026,"y":2580709.910000002}},{"attributes":{"ID":193377,"DIS_CODE":0,"TOWNNAME":"白河區","LI":"崁頭里","LIN":"3鄰","STREET":" ","SECT":" ","MAREA":"崁子頭","LANE":" ","ALLEY":" ","HOUSE_NO":"２７之２號","E_COORD97":190702.29000000001,"N_COORD97":2580722.4700000002,"ADDRESS":"崁子頭２７之２號","OBJECTID":193376},"geometry":{"x":190702.29000000097,"y":2580722.4699999988}},{"attributes":{"ID":193378,"DIS_CODE":0,"TOWNNAME":"白河區","LI":"崁頭里","LIN":"3鄰","STREET":" ","SECT":" ","MAREA":"崁子頭","LANE":" ","ALLEY":" ","HOUSE_NO":"２７號","E_COORD97":190624.01999999999,"N_COORD97":2580727.6400000001,"ADDRESS":"崁子頭２７號","OBJECTID":193377},"geometry":{"x":190624.01999999955,"y":2580727.6400000006}},{"attributes":{"ID":193379,"DIS_CODE":0,"TOWNNAME":"白河區","LI":"崁頭里","LIN":"3鄰","STREET":" ","SECT":" ","MAREA":"崁子頭","LANE":" ","ALLEY":" ","HOUSE_NO":"２８之１號","E_COORD97":190654.75,"N_COORD97":2580694.1800000002,"ADDRESS":"崁子頭２８之１號","OBJECTID":193378},"geometry":{"x":190654.75000000093,"y":2580694.1800000016}},{"attributes":{"ID":193380,"DIS_CODE":0,"TOWNNAME":"白河區","LI":"崁頭里","LIN":"3鄰","STREET":" ","SECT":" ","MAREA":"崁子頭","LANE":" ","ALLEY":" ","HOUSE_NO":"２８號","E_COORD97":190637,"N_COORD97":2580687.48,"ADDRESS":"崁子頭２８號","OBJECTID":193379},"geometry":{"x":190637,"y":2580687.4800000004}},{"attributes":{"ID":193381,"DIS_CODE":0,"TOWNNAME":"白河區","LI":"崁頭里","LIN":"3鄰","STREET":" ","SECT":" ","MAREA":"崁子頭","LANE":" ","ALLEY":" ","HOUSE_NO":"２９之２號","E_COORD97":190598.92000000001,"N_COORD97":2580679.23,"ADDRESS":"崁子頭２９之２號","OBJECTID":193380},"geometry":{"x":190598.92000000086,"y":2580679.2300000004}},{"attributes":{"ID":193382,"DIS_CODE":0,"TOWNNAME":"白河區","LI":"秀祐里","LIN":"3鄰","STREET":" ","SECT":" ","MAREA":"頂秀祐","LANE":" ","ALLEY":" ","HOUSE_NO":"４３之６號","E_COORD97":188866.59,"N_COORD97":2583508.5800000001,"ADDRESS":"頂秀祐４３之６號","OBJECTID":193381},"geometry":{"x":188866.58999999892,"y":2583508.5800000019}},{"attributes":{"ID":193383,"DIS_CODE":0,"TOWNNAME":"白河區","LI":"秀祐里","LIN":"3鄰","STREET":" ","SECT":" ","MAREA":"頂秀祐","LANE":" ","ALLEY":" ","HOUSE_NO":"４３號","E_COORD97":188883.48999999999,"N_COORD97":2583507.7200000002,"ADDRESS":"頂秀祐４３號","OBJECTID":193382},"geometry":{"x":188883.49000000115,"y":2583507.7200000044}},{"attributes":{"ID":193384,"DIS_CODE":0,"TOWNNAME":"白河區","LI":"秀祐里","LIN":"3鄰","STREET":" ","SECT":" ","MAREA":"頂秀祐","LANE":" ","ALLEY":" ","HOUSE_NO":"４５號","E_COORD97":188828.98000000001,"N_COORD97":2583540.1699999999,"ADDRESS":"頂秀祐４５號","OBJECTID":193383},"geometry":{"x":188828.97999999952,"y":2583540.1699999999}},{"attributes":{"ID":193385,"DIS_CODE":0,"TOWNNAME":"白河區","LI":"秀祐里","LIN":"3鄰","STREET":" ","SECT":" ","MAREA":"頂秀祐","LANE":" ","ALLEY":" ","HOUSE_NO":"４６號","E_COORD97":188805.32000000001,"N_COORD97":2583570.7000000002,"ADDRESS":"頂秀祐４６號","OBJECTID":193384},"geometry":{"x":188805.32000000123,"y":2583570.6999999974}},{"attributes":{"ID":193386,"DIS_CODE":0,"TOWNNAME":"白河區","LI":"秀祐里","LIN":"3鄰","STREET":" ","SECT":" ","MAREA":"頂秀祐","LANE":" ","ALLEY":" ","HOUSE_NO":"４７之１號","E_COORD97":188795.04000000001,"N_COORD97":2583631.0499999998,"ADDRESS":"頂秀祐４７之１號","OBJECTID":193385},"geometry":{"x":188795.04000000097,"y":2583631.0500000045}},{"attributes":{"ID":193387,"DIS_CODE":0,"TOWNNAME":"白河區","LI":"秀祐里","LIN":"3鄰","STREET":" ","SECT":" ","MAREA":"頂秀祐","LANE":" ","ALLEY":" ","HOUSE_NO":"４７號","E_COORD97":188790.06,"N_COORD97":2583614.1499999999,"ADDRESS":"頂秀祐４７號","OBJECTID":193386},"geometry":{"x":188790.05999999959,"y":2583614.1500000022}},{"attributes":{"ID":193388,"DIS_CODE":0,"TOWNNAME":"白河區","LI":"秀祐里","LIN":"3鄰","STREET":" ","SECT":" ","MAREA":"頂秀祐","LANE":" ","ALLEY":" ","HOUSE_NO":"４８之７號","E_COORD97":188549.17000000001,"N_COORD97":2583648.1600000001,"ADDRESS":"頂秀祐４８之７號","OBJECTID":193387},"geometry":{"x":188549.16999999899,"y":2583648.160000002}},{"attributes":{"ID":193389,"DIS_CODE":0,"TOWNNAME":"白河區","LI":"秀祐里","LIN":"3鄰","STREET":" ","SECT":" ","MAREA":"頂秀祐","LANE":" ","ALLEY":" ","HOUSE_NO":"４８號","E_COORD97":188708.20999999999,"N_COORD97":2583617.4700000002,"ADDRESS":"頂秀祐４８號","OBJECTID":193388},"geometry":{"x":188708.20999999996,"y":2583617.4700000007}},{"attributes":{"ID":193390,"DIS_CODE":0,"TOWNNAME":"白河區","LI":"秀祐里","LIN":"3鄰","STREET":" ","SECT":" ","MAREA":"頂秀祐","LANE":" ","ALLEY":" ","HOUSE_NO":"４９之２６號","E_COORD97":187767.04000000001,"N_COORD97":2584031.5800000001,"ADDRESS":"頂秀祐４９之２６號","OBJECTID":193389},"geometry":{"x":187767.0400000019,"y":2584031.5800000019}},{"attributes":{"ID":193391,"DIS_CODE":0,"TOWNNAME":"白河區","LI":"秀祐里","LIN":"3鄰","STREET":" ","SECT":" ","MAREA":"頂秀祐","LANE":" ","ALLEY":" ","HOUSE_NO":"４９之６號","E_COORD97":188778.29000000001,"N_COORD97":2583507.6200000001,"ADDRESS":"頂秀祐４９之６號","OBJECTID":193390},"geometry":{"x":188778.29000000004,"y":2583507.620000001}},{"attributes":{"ID":193392,"DIS_CODE":0,"TOWNNAME":"安南區","LI":"新順里","LIN":"5鄰","STREET":"安豐六街","SECT":" ","MAREA":" ","LANE":"１０巷","ALLEY":"７１弄","HOUSE_NO":"１０號","E_COORD97":169300.60999999999,"N_COORD97":2549428.1600000001,"ADDRESS":"安豐六街１０巷７１弄１０號","OBJECTID":193391},"geometry":{"x":169300.61000000034,"y":2549428.160000002}},{"attributes":{"ID":193393,"DIS_CODE":0,"TOWNNAME":"中西區","LI":"大涼里","LIN":"21鄰","STREET":"府前二街","SECT":" ","MAREA":" ","LANE":" ","ALLEY":" ","HOUSE_NO":"７０號三樓之５","E_COORD97":166684.92999999999,"N_COORD97":2543908.52,"ADDRESS":"府前二街７０號三樓之５","OBJECTID":193392},"geometry":{"x":166684.93000000063,"y":2543908.5200000033}},{"attributes":{"ID":193394,"DIS_CODE":0,"TOWNNAME":"安南區","LI":"新順里","LIN":"5鄰","STREET":"安豐六街","SECT":" ","MAREA":" ","LANE":"１０巷","ALLEY":"７１弄","HOUSE_NO":"１２號","E_COORD97":169305.10000000001,"N_COORD97":2549431.0800000001,"ADDRESS":"安豐六街１０巷７１弄１２號","OBJECTID":193393},"geometry":{"x":169305.09999999963,"y":2549431.0800000001}},{"attributes":{"ID":193395,"DIS_CODE":0,"TOWNNAME":"麻豆區","LI":"中民里","LIN":"3鄰","STREET":" ","SECT":" ","MAREA":"謝厝寮","LANE":" ","ALLEY":" ","HOUSE_NO":"１０１號之８","E_COORD97":171771.62,"N_COORD97":2560567.1699999999,"ADDRESS":"謝厝寮１０１號之８","OBJECTID":193394},"geometry":{"x":171771.62000000104,"y":2560567.1699999999}},{"attributes":{"ID":193396,"DIS_CODE":0,"TOWNNAME":"中西區","LI":"大涼里","LIN":"21鄰","STREET":"府前二街","SECT":" ","MAREA":" ","LANE":" ","ALLEY":" ","HOUSE_NO":"７０號三樓之６","E_COORD97":166684.92999999999,"N_COORD97":2543908.52,"ADDRESS":"府前二街７０號三樓之６","OBJECTID":193395},"geometry":{"x":166684.93000000063,"y":2543908.5200000033}},{"attributes":{"ID":193397,"DIS_CODE":0,"TOWNNAME":"安南區","LI":"新順里","LIN":"5鄰","STREET":"安豐六街","SECT":" ","MAREA":" ","LANE":"１０巷","ALLEY":"７１弄","HOUSE_NO":"１６號","E_COORD97":169308.47,"N_COORD97":2549427.9399999999,"ADDRESS":"安豐六街１０巷７１弄１６號","OBJECTID":193396},"geometry":{"x":169308.47000000067,"y":2549427.9399999995}},{"attributes":{"ID":193398,"DIS_CODE":0,"TOWNNAME":"安南區","LI":"新順里","LIN":"5鄰","STREET":"安豐六街","SECT":" ","MAREA":" ","LANE":"１０巷","ALLEY":"７１弄","HOUSE_NO":"１８號","E_COORD97":169313.19,"N_COORD97":2549430.8599999999,"ADDRESS":"安豐六街１０巷７１弄１８號","OBJECTID":193397},"geometry":{"x":169313.19000000134,"y":2549430.8599999994}},{"attributes":{"ID":193399,"DIS_CODE":0,"TOWNNAME":"中西區","LI":"大涼里","LIN":"21鄰","STREET":"府前二街","SECT":" ","MAREA":" ","LANE":" ","ALLEY":" ","HOUSE_NO":"７０號三樓之７","E_COORD97":166684.92999999999,"N_COORD97":2543908.52,"ADDRESS":"府前二街７０號三樓之７","OBJECTID":193398},"geometry":{"x":166684.93000000063,"y":2543908.5200000033}},{"attributes":{"ID":193400,"DIS_CODE":0,"TOWNNAME":"麻豆區","LI":"中民里","LIN":"3鄰","STREET":" ","SECT":" ","MAREA":"謝厝寮","LANE":" ","ALLEY":" ","HOUSE_NO":"１０１號","E_COORD97":171719.13,"N_COORD97":2560766.9399999999,"ADDRESS":"謝厝寮１０１號","OBJECTID":193399},"geometry":{"x":171719.12999999989,"y":2560766.9400000013}},{"attributes":{"ID":193401,"DIS_CODE":0,"TOWNNAME":"麻豆區","LI":"中民里","LIN":"3鄰","STREET":" ","SECT":" ","MAREA":"謝厝寮","LANE":" ","ALLEY":" ","HOUSE_NO":"１０２號","E_COORD97":171731.10000000001,"N_COORD97":2560785.6000000001,"ADDRESS":"謝厝寮１０２號","OBJECTID":193400},"geometry":{"x":171731.09999999963,"y":2560785.6000000015}}]}