{"displayFieldName":"TOWNNAME","fieldAliases":{"ID":"ID","DIS_CODE":"DIS_CODE","TOWNNAME":"TOWNNAME","LI":"LI","LIN":"LIN","STREET":"STREET","SECT":"SECT","MAREA":"MAREA","LANE":"LANE","ALLEY":"ALLEY","HOUSE_NO":"HOUSE_NO","E_COORD97":"E_COORD97","N_COORD97":"N_COORD97","ADDRESS":"ADDRESS","OBJECTID":"OBJECTID"},"geometryType":"esriGeometryPoint","spatialReference":{"wkid":102443,"latestWkid":3826},"fields":[{"name":"ID","type":"esriFieldTypeDouble","alias":"ID"},{"name":"DIS_CODE","type":"esriFieldTypeInteger","alias":"DIS_CODE"},{"name":"TOWNNAME","type":"esriFieldTypeString","alias":"TOWNNAME","length":8},{"name":"LI","type":"esriFieldTypeString","alias":"LI","length":8},{"name":"LIN","type":"esriFieldTypeString","alias":"LIN","length":12},{"name":"STREET","type":"esriFieldTypeString","alias":"STREET","length":20},{"name":"SECT","type":"esriFieldTypeString","alias":"SECT","length":8},{"name":"MAREA","type":"esriFieldTypeString","alias":"MAREA","length":12},{"name":"LANE","type":"esriFieldTypeString","alias":"LANE","length":10},{"name":"ALLEY","type":"esriFieldTypeString","alias":"ALLEY","length":10},{"name":"HOUSE_NO","type":"esriFieldTypeString","alias":"HOUSE_NO","length":20},{"name":"E_COORD97","type":"esriFieldTypeDouble","alias":"E_COORD97"},{"name":"N_COORD97","type":"esriFieldTypeDouble","alias":"N_COORD97"},{"name":"ADDRESS","type":"esriFieldTypeString","alias":"ADDRESS","length":50},{"name":"OBJECTID","type":"esriFieldTypeOID","alias":"OBJECTID"}],"features":[{"attributes":{"ID":450626,"DIS_CODE":0,"TOWNNAME":"仁德區","LI":"成功里","LIN":"18鄰","STREET":"全福路","SECT":" ","MAREA":" ","LANE":"７５巷","ALLEY":" ","HOUSE_NO":"８號","E_COORD97":171037.51000000001,"N_COORD97":2539332.7400000002,"ADDRESS":"全福路７５巷８號","OBJECTID":450601},"geometry":{"x":171037.51000000071,"y":2539332.7400000002}},{"attributes":{"ID":450627,"DIS_CODE":0,"TOWNNAME":"仁德區","LI":"二行里","LIN":"18鄰","STREET":"行大街","SECT":" ","MAREA":" ","LANE":"１７２巷","ALLEY":" ","HOUSE_NO":"５９號","E_COORD97":169780.67000000001,"N_COORD97":2535234.25,"ADDRESS":"行大街１７２巷５９號","OBJECTID":450602},"geometry":{"x":169780.67000000086,"y":2535234.25}},{"attributes":{"ID":450628,"DIS_CODE":0,"TOWNNAME":"仁德區","LI":"一甲里","LIN":"18鄰","STREET":"忠義路","SECT":" ","MAREA":" ","LANE":"２５１巷","ALLEY":" ","HOUSE_NO":"１４號","E_COORD97":173822.48999999999,"N_COORD97":2541796.6499999999,"ADDRESS":"忠義路２５１巷１４號","OBJECTID":450603},"geometry":{"x":173822.49000000022,"y":2541796.6500000022}},{"attributes":{"ID":450629,"DIS_CODE":0,"TOWNNAME":"仁德區","LI":"一甲里","LIN":"18鄰","STREET":"忠義路","SECT":" ","MAREA":" ","LANE":"２５１巷","ALLEY":" ","HOUSE_NO":"１９號","E_COORD97":173838.70999999999,"N_COORD97":2541777.02,"ADDRESS":"忠義路２５１巷１９號","OBJECTID":450604},"geometry":{"x":173838.71000000089,"y":2541777.0200000014}},{"attributes":{"ID":450630,"DIS_CODE":0,"TOWNNAME":"仁德區","LI":"一甲里","LIN":"18鄰","STREET":"中清路","SECT":" ","MAREA":" ","LANE":"２４８巷","ALLEY":" ","HOUSE_NO":"１１號","E_COORD97":173855.09,"N_COORD97":2541741.54,"ADDRESS":"中清路２４８巷１１號","OBJECTID":450605},"geometry":{"x":173855.08999999985,"y":2541741.5400000028}},{"attributes":{"ID":450631,"DIS_CODE":0,"TOWNNAME":"仁德區","LI":"一甲里","LIN":"18鄰","STREET":"忠義路","SECT":" ","MAREA":" ","LANE":"２５１巷","ALLEY":" ","HOUSE_NO":"２４號","E_COORD97":173820.81,"N_COORD97":2541775.9100000001,"ADDRESS":"忠義路２５１巷２４號","OBJECTID":450606},"geometry":{"x":173820.81000000052,"y":2541775.9100000001}},{"attributes":{"ID":450632,"DIS_CODE":0,"TOWNNAME":"仁德區","LI":"一甲里","LIN":"18鄰","STREET":"忠義路","SECT":" ","MAREA":" ","LANE":"２５１巷","ALLEY":" ","HOUSE_NO":"２０號","E_COORD97":173821.39000000001,"N_COORD97":2541784.4100000001,"ADDRESS":"忠義路２５１巷２０號","OBJECTID":450607},"geometry":{"x":173821.39000000153,"y":2541784.410000002}},{"attributes":{"ID":450633,"DIS_CODE":0,"TOWNNAME":"仁德區","LI":"一甲里","LIN":"18鄰","STREET":"忠義路","SECT":" ","MAREA":" ","LANE":"２５１巷","ALLEY":" ","HOUSE_NO":"４號","E_COORD97":173822.73999999999,"N_COORD97":2541817.3999999999,"ADDRESS":"忠義路２５１巷４號","OBJECTID":450608},"geometry":{"x":173822.74000000022,"y":2541817.4000000004}},{"attributes":{"ID":450634,"DIS_CODE":0,"TOWNNAME":"仁德區","LI":"一甲里","LIN":"18鄰","STREET":"忠義路","SECT":" ","MAREA":" ","LANE":"２５１巷","ALLEY":" ","HOUSE_NO":"３號","E_COORD97":173845.14999999999,"N_COORD97":2541817.0099999998,"ADDRESS":"忠義路２５１巷３號","OBJECTID":450609},"geometry":{"x":173845.15000000037,"y":2541817.0100000035}},{"attributes":{"ID":450635,"DIS_CODE":0,"TOWNNAME":"仁德區","LI":"一甲里","LIN":"18鄰","STREET":"忠義路","SECT":" ","MAREA":" ","LANE":"２５１巷","ALLEY":" ","HOUSE_NO":"３４號","E_COORD97":173818.91,"N_COORD97":2541754.6600000001,"ADDRESS":"忠義路２５１巷３４號","OBJECTID":450610},"geometry":{"x":173818.91000000108,"y":2541754.6600000001}},{"attributes":{"ID":450636,"DIS_CODE":0,"TOWNNAME":"仁德區","LI":"上崙里","LIN":"18鄰","STREET":"德崙路","SECT":" ","MAREA":" ","LANE":"３１６巷","ALLEY":" ","HOUSE_NO":"２５號","E_COORD97":173914.04000000001,"N_COORD97":2538069.5099999998,"ADDRESS":"德崙路３１６巷２５號","OBJECTID":450611},"geometry":{"x":173914.0400000019,"y":2538069.5099999998}},{"attributes":{"ID":450637,"DIS_CODE":0,"TOWNNAME":"仁德區","LI":"一甲里","LIN":"18鄰","STREET":"中清路","SECT":" ","MAREA":" ","LANE":"２４８巷","ALLEY":" ","HOUSE_NO":"１３號","E_COORD97":173860.38,"N_COORD97":2541741.04,"ADDRESS":"中清路２４８巷１３號","OBJECTID":450612},"geometry":{"x":173860.37999999989,"y":2541741.0399999972}},{"attributes":{"ID":450638,"DIS_CODE":0,"TOWNNAME":"佳里區","LI":"建南里","LIN":"17鄰","STREET":"建南街","SECT":" ","MAREA":" ","LANE":"６５巷","ALLEY":" ","HOUSE_NO":"５號","E_COORD97":165586.23000000001,"N_COORD97":2561935.2999999998,"ADDRESS":"建南街６５巷５號","OBJECTID":450613},"geometry":{"x":165586.23000000045,"y":2561935.3000000026}},{"attributes":{"ID":450639,"DIS_CODE":0,"TOWNNAME":"仁德區","LI":"二行里","LIN":"18鄰","STREET":"行大街","SECT":" ","MAREA":" ","LANE":"１７２巷","ALLEY":" ","HOUSE_NO":"５１號","E_COORD97":169805.04000000001,"N_COORD97":2535222.5,"ADDRESS":"行大街１７２巷５１號","OBJECTID":450614},"geometry":{"x":169805.04000000097,"y":2535222.5}},{"attributes":{"ID":450640,"DIS_CODE":0,"TOWNNAME":"仁德區","LI":"一甲里","LIN":"18鄰","STREET":"中清路","SECT":" ","MAREA":" ","LANE":"２４８巷","ALLEY":" ","HOUSE_NO":"１９號","E_COORD97":173884.17999999999,"N_COORD97":2541745.7999999998,"ADDRESS":"中清路２４８巷１９號","OBJECTID":450615},"geometry":{"x":173884.18000000063,"y":2541745.8000000026}},{"attributes":{"ID":450641,"DIS_CODE":0,"TOWNNAME":"南區","LI":"新昌里","LIN":"18鄰","STREET":"西門路","SECT":"一段","MAREA":" ","LANE":"６８９巷","ALLEY":" ","HOUSE_NO":"２４號","E_COORD97":167619.92000000001,"N_COORD97":2543074.8399999999,"ADDRESS":"西門路一段６８９巷２４號","OBJECTID":450616},"geometry":{"x":167619.91999999993,"y":2543074.8399999999}},{"attributes":{"ID":450642,"DIS_CODE":0,"TOWNNAME":"南區","LI":"新昌里","LIN":"18鄰","STREET":"西門路","SECT":"一段","MAREA":" ","LANE":"６８９巷","ALLEY":" ","HOUSE_NO":"２６號","E_COORD97":167619.92000000001,"N_COORD97":2543086.5699999998,"ADDRESS":"西門路一段６８９巷２６號","OBJECTID":450617},"geometry":{"x":167619.91999999993,"y":2543086.5700000022}},{"attributes":{"ID":450643,"DIS_CODE":0,"TOWNNAME":"南區","LI":"新昌里","LIN":"18鄰","STREET":"西門路","SECT":"一段","MAREA":" ","LANE":"６８９巷","ALLEY":" ","HOUSE_NO":"２８號","E_COORD97":167614.20999999999,"N_COORD97":2543086.8900000001,"ADDRESS":"西門路一段６８９巷２８號","OBJECTID":450618},"geometry":{"x":167614.21000000089,"y":2543086.8900000025}},{"attributes":{"ID":450644,"DIS_CODE":0,"TOWNNAME":"南區","LI":"郡南里","LIN":"18鄰","STREET":"德興路","SECT":" ","MAREA":" ","LANE":"１６１巷","ALLEY":" ","HOUSE_NO":"２３號","E_COORD97":167283.67000000001,"N_COORD97":2540415.1899999999,"ADDRESS":"德興路１６１巷２３號","OBJECTID":450619},"geometry":{"x":167283.67000000086,"y":2540415.1900000032}},{"attributes":{"ID":450645,"DIS_CODE":0,"TOWNNAME":"南區","LI":"郡南里","LIN":"18鄰","STREET":"德興路","SECT":" ","MAREA":" ","LANE":"１６１巷","ALLEY":" ","HOUSE_NO":"２５號","E_COORD97":167288.10999999999,"N_COORD97":2540415.6699999999,"ADDRESS":"德興路１６１巷２５號","OBJECTID":450620},"geometry":{"x":167288.11000000127,"y":2540415.6700000037}},{"attributes":{"ID":450646,"DIS_CODE":0,"TOWNNAME":"南區","LI":"郡南里","LIN":"18鄰","STREET":"德興路","SECT":" ","MAREA":" ","LANE":"１６１巷","ALLEY":" ","HOUSE_NO":"２７號","E_COORD97":167292.72,"N_COORD97":2540415.98,"ADDRESS":"德興路１６１巷２７號","OBJECTID":450621},"geometry":{"x":167292.7200000016,"y":2540415.9800000004}},{"attributes":{"ID":450647,"DIS_CODE":0,"TOWNNAME":"南區","LI":"郡南里","LIN":"18鄰","STREET":"德興路","SECT":" ","MAREA":" ","LANE":"１６１巷","ALLEY":" ","HOUSE_NO":"２９號","E_COORD97":167297,"N_COORD97":2540416.46,"ADDRESS":"德興路１６１巷２９號","OBJECTID":450622},"geometry":{"x":167297.00000000093,"y":2540416.4600000009}},{"attributes":{"ID":450648,"DIS_CODE":0,"TOWNNAME":"南區","LI":"郡南里","LIN":"18鄰","STREET":"德興路","SECT":" ","MAREA":" ","LANE":"１６１巷","ALLEY":" ","HOUSE_NO":"３１號","E_COORD97":167309.70000000001,"N_COORD97":2540415.5099999998,"ADDRESS":"德興路１６１巷３１號","OBJECTID":450623},"geometry":{"x":167309.70000000019,"y":2540415.5099999998}},{"attributes":{"ID":450649,"DIS_CODE":0,"TOWNNAME":"南區","LI":"郡南里","LIN":"18鄰","STREET":"德興路","SECT":" ","MAREA":" ","LANE":"１６１巷","ALLEY":" ","HOUSE_NO":"３３號","E_COORD97":167310.01999999999,"N_COORD97":2540419.3199999998,"ADDRESS":"德興路１６１巷３３號","OBJECTID":450624},"geometry":{"x":167310.01999999955,"y":2540419.3200000022}},{"attributes":{"ID":450650,"DIS_CODE":0,"TOWNNAME":"南區","LI":"郡南里","LIN":"18鄰","STREET":"德興路","SECT":" ","MAREA":" ","LANE":"１６１巷","ALLEY":" ","HOUSE_NO":"３５號","E_COORD97":167310.17999999999,"N_COORD97":2540423.7599999998,"ADDRESS":"德興路１６１巷３５號","OBJECTID":450625},"geometry":{"x":167310.18000000063,"y":2540423.7599999998}},{"attributes":{"ID":450651,"DIS_CODE":0,"TOWNNAME":"南區","LI":"郡南里","LIN":"18鄰","STREET":"德興路","SECT":" ","MAREA":" ","LANE":"１６１巷","ALLEY":" ","HOUSE_NO":"３７號","E_COORD97":167310.17999999999,"N_COORD97":2540427.8900000001,"ADDRESS":"德興路１６１巷３７號","OBJECTID":450626},"geometry":{"x":167310.18000000063,"y":2540427.8900000006}},{"attributes":{"ID":450652,"DIS_CODE":0,"TOWNNAME":"南區","LI":"郡南里","LIN":"18鄰","STREET":"德興路","SECT":" ","MAREA":" ","LANE":"１６１巷","ALLEY":" ","HOUSE_NO":"３９號","E_COORD97":167310.34,"N_COORD97":2540432.02,"ADDRESS":"德興路１６１巷３９號","OBJECTID":450627},"geometry":{"x":167310.33999999985,"y":2540432.0199999996}},{"attributes":{"ID":450653,"DIS_CODE":0,"TOWNNAME":"南區","LI":"郡南里","LIN":"18鄰","STREET":"德興路","SECT":" ","MAREA":" ","LANE":"１６１巷","ALLEY":" ","HOUSE_NO":"４１號","E_COORD97":167310.66,"N_COORD97":2540437.2599999998,"ADDRESS":"德興路１６１巷４１號","OBJECTID":450628},"geometry":{"x":167310.66000000201,"y":2540437.2599999998}},{"attributes":{"ID":450654,"DIS_CODE":0,"TOWNNAME":"南區","LI":"郡南里","LIN":"18鄰","STREET":"德興路","SECT":" ","MAREA":" ","LANE":"１６１巷","ALLEY":" ","HOUSE_NO":"４３號","E_COORD97":167310.82000000001,"N_COORD97":2540441.8599999999,"ADDRESS":"德興路１６１巷４３號","OBJECTID":450629},"geometry":{"x":167310.8200000003,"y":2540441.8600000013}},{"attributes":{"ID":450655,"DIS_CODE":0,"TOWNNAME":"南區","LI":"郡南里","LIN":"18鄰","STREET":"德興路","SECT":" ","MAREA":" ","LANE":"１６１巷","ALLEY":" ","HOUSE_NO":"４５號","E_COORD97":167310.82000000001,"N_COORD97":2540445.9900000002,"ADDRESS":"德興路１６１巷４５號","OBJECTID":450630},"geometry":{"x":167310.8200000003,"y":2540445.9900000021}},{"attributes":{"ID":450656,"DIS_CODE":0,"TOWNNAME":"南區","LI":"郡南里","LIN":"18鄰","STREET":"德興路","SECT":" ","MAREA":" ","LANE":"１６１巷","ALLEY":" ","HOUSE_NO":"４７號","E_COORD97":167310.82000000001,"N_COORD97":2540450.27,"ADDRESS":"德興路１６１巷４７號","OBJECTID":450631},"geometry":{"x":167310.8200000003,"y":2540450.2699999996}},{"attributes":{"ID":450657,"DIS_CODE":0,"TOWNNAME":"安南區","LI":"大安里","LIN":"18鄰","STREET":"義安街","SECT":" ","MAREA":" ","LANE":"１７０巷","ALLEY":" ","HOUSE_NO":"１１號","E_COORD97":167615.45999999999,"N_COORD97":2548228.8399999999,"ADDRESS":"義安街１７０巷１１號","OBJECTID":450632},"geometry":{"x":167615.46000000089,"y":2548228.8399999999}},{"attributes":{"ID":450658,"DIS_CODE":0,"TOWNNAME":"安南區","LI":"大安里","LIN":"18鄰","STREET":"義安街","SECT":" ","MAREA":" ","LANE":"１７０巷","ALLEY":" ","HOUSE_NO":"１３號","E_COORD97":167620.44,"N_COORD97":2548226.5899999999,"ADDRESS":"義安街１７０巷１３號","OBJECTID":450633},"geometry":{"x":167620.44000000041,"y":2548226.5899999999}},{"attributes":{"ID":450659,"DIS_CODE":0,"TOWNNAME":"安南區","LI":"大安里","LIN":"18鄰","STREET":"義安街","SECT":" ","MAREA":" ","LANE":"１７０巷","ALLEY":" ","HOUSE_NO":"１５號","E_COORD97":167624.98999999999,"N_COORD97":2548223.23,"ADDRESS":"義安街１７０巷１５號","OBJECTID":450634},"geometry":{"x":167624.99000000022,"y":2548223.2300000004}},{"attributes":{"ID":450660,"DIS_CODE":0,"TOWNNAME":"安南區","LI":"大安里","LIN":"18鄰","STREET":"義安街","SECT":" ","MAREA":" ","LANE":"１７０巷","ALLEY":" ","HOUSE_NO":"１７號","E_COORD97":167630.35000000001,"N_COORD97":2548220.4300000002,"ADDRESS":"義安街１７０巷１７號","OBJECTID":450635},"geometry":{"x":167630.34999999963,"y":2548220.4299999997}},{"attributes":{"ID":450661,"DIS_CODE":0,"TOWNNAME":"安南區","LI":"大安里","LIN":"18鄰","STREET":"義安街","SECT":" ","MAREA":" ","LANE":"１７０巷","ALLEY":" ","HOUSE_NO":"１９號","E_COORD97":167634.73000000001,"N_COORD97":2548217.6099999999,"ADDRESS":"義安街１７０巷１９號","OBJECTID":450636},"geometry":{"x":167634.73000000138,"y":2548217.6100000013}},{"attributes":{"ID":450662,"DIS_CODE":0,"TOWNNAME":"安南區","LI":"大安里","LIN":"18鄰","STREET":"義安街","SECT":" ","MAREA":" ","LANE":"１７０巷","ALLEY":" ","HOUSE_NO":"１號","E_COORD97":167590.34,"N_COORD97":2548245.71,"ADDRESS":"義安街１７０巷１號","OBJECTID":450637},"geometry":{"x":167590.34000000171,"y":2548245.7100000028}},{"attributes":{"ID":450663,"DIS_CODE":0,"TOWNNAME":"安南區","LI":"大安里","LIN":"18鄰","STREET":"義安街","SECT":" ","MAREA":" ","LANE":"１７０巷","ALLEY":" ","HOUSE_NO":"２１號","E_COORD97":167639.53,"N_COORD97":2548215.4300000002,"ADDRESS":"義安街１７０巷２１號","OBJECTID":450638},"geometry":{"x":167639.53000000119,"y":2548215.4300000016}},{"attributes":{"ID":450664,"DIS_CODE":0,"TOWNNAME":"安南區","LI":"大安里","LIN":"18鄰","STREET":"義安街","SECT":" ","MAREA":" ","LANE":"１７０巷","ALLEY":" ","HOUSE_NO":"２３號","E_COORD97":167644.54000000001,"N_COORD97":2548211.3599999999,"ADDRESS":"義安街１７０巷２３號","OBJECTID":450639},"geometry":{"x":167644.54000000004,"y":2548211.3599999994}},{"attributes":{"ID":450665,"DIS_CODE":0,"TOWNNAME":"安南區","LI":"大安里","LIN":"18鄰","STREET":"義安街","SECT":" ","MAREA":" ","LANE":"１７０巷","ALLEY":" ","HOUSE_NO":"２５號","E_COORD97":167649.85999999999,"N_COORD97":2548208.23,"ADDRESS":"義安街１７０巷２５號","OBJECTID":450640},"geometry":{"x":167649.86000000034,"y":2548208.2300000023}},{"attributes":{"ID":450666,"DIS_CODE":0,"TOWNNAME":"安南區","LI":"大安里","LIN":"18鄰","STREET":"義安街","SECT":" ","MAREA":" ","LANE":"１７０巷","ALLEY":" ","HOUSE_NO":"３號","E_COORD97":167595.67999999999,"N_COORD97":2548242,"ADDRESS":"義安街１７０巷３號","OBJECTID":450641},"geometry":{"x":167595.6799999997,"y":2548242.0000000037}},{"attributes":{"ID":450667,"DIS_CODE":0,"TOWNNAME":"安南區","LI":"大安里","LIN":"18鄰","STREET":"義安街","SECT":" ","MAREA":" ","LANE":"１７０巷","ALLEY":" ","HOUSE_NO":"５號","E_COORD97":167600.25,"N_COORD97":2548238.8500000001,"ADDRESS":"義安街１７０巷５號","OBJECTID":450642},"geometry":{"x":167600.25000000093,"y":2548238.8499999978}},{"attributes":{"ID":450668,"DIS_CODE":0,"TOWNNAME":"安南區","LI":"大安里","LIN":"18鄰","STREET":"義安街","SECT":" ","MAREA":" ","LANE":"１７０巷","ALLEY":" ","HOUSE_NO":"７號","E_COORD97":167604.73000000001,"N_COORD97":2548234.6600000001,"ADDRESS":"義安街１７０巷７號","OBJECTID":450643},"geometry":{"x":167604.73000000045,"y":2548234.660000002}},{"attributes":{"ID":450669,"DIS_CODE":0,"TOWNNAME":"安南區","LI":"大安里","LIN":"18鄰","STREET":"義安街","SECT":" ","MAREA":" ","LANE":"１８４巷","ALLEY":" ","HOUSE_NO":"１０號","E_COORD97":167622.38,"N_COORD97":2548239.7999999998,"ADDRESS":"義安街１８４巷１０號","OBJECTID":450644},"geometry":{"x":167622.38000000175,"y":2548239.8000000007}},{"attributes":{"ID":450670,"DIS_CODE":0,"TOWNNAME":"東區","LI":"崇文里","LIN":"40鄰","STREET":"生產路","SECT":" ","MAREA":" ","LANE":" ","ALLEY":" ","HOUSE_NO":"２７３號十樓","E_COORD97":170903.01999999999,"N_COORD97":2540618.1099999999,"ADDRESS":"生產路２７３號十樓","OBJECTID":450645},"geometry":{"x":170903.02000000142,"y":2540618.1099999994}},{"attributes":{"ID":450671,"DIS_CODE":0,"TOWNNAME":"安南區","LI":"大安里","LIN":"18鄰","STREET":"義安街","SECT":" ","MAREA":" ","LANE":"１８４巷","ALLEY":" ","HOUSE_NO":"１１號","E_COORD97":167641.41,"N_COORD97":2548254.7999999998,"ADDRESS":"義安街１８４巷１１號","OBJECTID":450646},"geometry":{"x":167641.41000000108,"y":2548254.8000000026}},{"attributes":{"ID":450672,"DIS_CODE":0,"TOWNNAME":"安南區","LI":"大安里","LIN":"18鄰","STREET":"義安街","SECT":" ","MAREA":" ","LANE":"１８４巷","ALLEY":" ","HOUSE_NO":"１２號","E_COORD97":167627.64000000001,"N_COORD97":2548237,"ADDRESS":"義安街１８４巷１２號","OBJECTID":450647},"geometry":{"x":167627.6400000006,"y":2548237}},{"attributes":{"ID":450673,"DIS_CODE":0,"TOWNNAME":"安南區","LI":"大安里","LIN":"18鄰","STREET":"義安街","SECT":" ","MAREA":" ","LANE":"１８４巷","ALLEY":" ","HOUSE_NO":"１３號","E_COORD97":167647.67000000001,"N_COORD97":2548250.6299999999,"ADDRESS":"義安街１８４巷１３號","OBJECTID":450648},"geometry":{"x":167647.67000000179,"y":2548250.6300000008}},{"attributes":{"ID":450674,"DIS_CODE":0,"TOWNNAME":"安南區","LI":"大安里","LIN":"18鄰","STREET":"義安街","SECT":" ","MAREA":" ","LANE":"１８４巷","ALLEY":" ","HOUSE_NO":"１４號","E_COORD97":167632.32999999999,"N_COORD97":2548233.5600000001,"ADDRESS":"義安街１８４巷１４號","OBJECTID":450649},"geometry":{"x":167632.33000000007,"y":2548233.5600000005}},{"attributes":{"ID":450675,"DIS_CODE":0,"TOWNNAME":"安南區","LI":"大安里","LIN":"18鄰","STREET":"義安街","SECT":" ","MAREA":" ","LANE":"１８４巷","ALLEY":" ","HOUSE_NO":"１５號","E_COORD97":167655.17999999999,"N_COORD97":2548245,"ADDRESS":"義安街１８４巷１５號","OBJECTID":450650},"geometry":{"x":167655.1799999997,"y":2548244.9999999981}},{"attributes":{"ID":450676,"DIS_CODE":0,"TOWNNAME":"安南區","LI":"大安里","LIN":"18鄰","STREET":"義安街","SECT":" ","MAREA":" ","LANE":"１８４巷","ALLEY":" ","HOUSE_NO":"１６號","E_COORD97":167636.09,"N_COORD97":2548229.5,"ADDRESS":"義安街１８４巷１６號","OBJECTID":450651},"geometry":{"x":167636.08999999892,"y":2548229.5000000019}},{"attributes":{"ID":450677,"DIS_CODE":0,"TOWNNAME":"安南區","LI":"大安里","LIN":"18鄰","STREET":"義安街","SECT":" ","MAREA":" ","LANE":"１８４巷","ALLEY":" ","HOUSE_NO":"１７號","E_COORD97":167662.37,"N_COORD97":2548240.3100000001,"ADDRESS":"義安街１８４巷１７號","OBJECTID":450652},"geometry":{"x":167662.37000000104,"y":2548240.3100000042}},{"attributes":{"ID":450678,"DIS_CODE":0,"TOWNNAME":"安南區","LI":"大安里","LIN":"18鄰","STREET":"義安街","SECT":" ","MAREA":" ","LANE":"１８４巷","ALLEY":" ","HOUSE_NO":"１８號","E_COORD97":167641.41,"N_COORD97":2548225.9500000002,"ADDRESS":"義安街１８４巷１８號","OBJECTID":450653},"geometry":{"x":167641.41000000108,"y":2548225.9500000011}},{"attributes":{"ID":450679,"DIS_CODE":0,"TOWNNAME":"安南區","LI":"大安里","LIN":"18鄰","STREET":"義安街","SECT":" ","MAREA":" ","LANE":"１８４巷","ALLEY":" ","HOUSE_NO":"１９號","E_COORD97":167667.79999999999,"N_COORD97":2548234.79,"ADDRESS":"義安街１８４巷１９號","OBJECTID":450654},"geometry":{"x":167667.79999999981,"y":2548234.7899999991}},{"attributes":{"ID":450680,"DIS_CODE":0,"TOWNNAME":"安南區","LI":"大安里","LIN":"18鄰","STREET":"義安街","SECT":" ","MAREA":" ","LANE":"１８４巷","ALLEY":" ","HOUSE_NO":"１號","E_COORD97":167610.09,"N_COORD97":2548273.77,"ADDRESS":"義安街１８４巷１號","OBJECTID":450655},"geometry":{"x":167610.08999999985,"y":2548273.7700000014}},{"attributes":{"ID":450681,"DIS_CODE":0,"TOWNNAME":"安南區","LI":"大安里","LIN":"18鄰","STREET":"義安街","SECT":" ","MAREA":" ","LANE":"１８４巷","ALLEY":" ","HOUSE_NO":"２０號","E_COORD97":167647.04000000001,"N_COORD97":2548222.9300000002,"ADDRESS":"義安街１８４巷２０號","OBJECTID":450656},"geometry":{"x":167647.04000000097,"y":2548222.9300000016}},{"attributes":{"ID":450682,"DIS_CODE":0,"TOWNNAME":"安南區","LI":"大安里","LIN":"18鄰","STREET":"義安街","SECT":" ","MAREA":" ","LANE":"１８４巷","ALLEY":" ","HOUSE_NO":"２２號","E_COORD97":167652.04999999999,"N_COORD97":2548220.3199999998,"ADDRESS":"義安街１８４巷２２號","OBJECTID":450657},"geometry":{"x":167652.05000000075,"y":2548220.3200000022}},{"attributes":{"ID":450683,"DIS_CODE":0,"TOWNNAME":"安南區","LI":"大安里","LIN":"18鄰","STREET":"義安街","SECT":" ","MAREA":" ","LANE":"１８４巷","ALLEY":" ","HOUSE_NO":"２４號","E_COORD97":167657.89000000001,"N_COORD97":2548216.2599999998,"ADDRESS":"義安街１８４巷２４號","OBJECTID":450658},"geometry":{"x":167657.8900000006,"y":2548216.2600000035}},{"attributes":{"ID":450684,"DIS_CODE":0,"TOWNNAME":"安南區","LI":"大安里","LIN":"18鄰","STREET":"義安街","SECT":" ","MAREA":" ","LANE":"１８４巷","ALLEY":" ","HOUSE_NO":"３號","E_COORD97":167615.04000000001,"N_COORD97":2548271.0099999998,"ADDRESS":"義安街１８４巷３號","OBJECTID":450659},"geometry":{"x":167615.04000000097,"y":2548271.0099999998}},{"attributes":{"ID":450685,"DIS_CODE":0,"TOWNNAME":"安南區","LI":"大安里","LIN":"18鄰","STREET":"義安街","SECT":" ","MAREA":" ","LANE":"１８４巷","ALLEY":" ","HOUSE_NO":"５號","E_COORD97":167622.67000000001,"N_COORD97":2548265.96,"ADDRESS":"義安街１８４巷５號","OBJECTID":450660},"geometry":{"x":167622.67000000086,"y":2548265.9600000009}},{"attributes":{"ID":450686,"DIS_CODE":0,"TOWNNAME":"安南區","LI":"大安里","LIN":"18鄰","STREET":"義安街","SECT":" ","MAREA":" ","LANE":"１８４巷","ALLEY":" ","HOUSE_NO":"６號","E_COORD97":167610.17000000001,"N_COORD97":2548248.4700000002,"ADDRESS":"義安街１８４巷６號","OBJECTID":450661},"geometry":{"x":167610.16999999899,"y":2548248.4700000007}},{"attributes":{"ID":450687,"DIS_CODE":0,"TOWNNAME":"安南區","LI":"大安里","LIN":"18鄰","STREET":"義安街","SECT":" ","MAREA":" ","LANE":"１８４巷","ALLEY":" ","HOUSE_NO":"７號","E_COORD97":167625.91,"N_COORD97":2548262.6299999999,"ADDRESS":"義安街１８４巷７號","OBJECTID":450662},"geometry":{"x":167625.91000000201,"y":2548262.629999999}},{"attributes":{"ID":450688,"DIS_CODE":0,"TOWNNAME":"安南區","LI":"大安里","LIN":"18鄰","STREET":"義安街","SECT":" ","MAREA":" ","LANE":"１８４巷","ALLEY":" ","HOUSE_NO":"８號","E_COORD97":167616.07999999999,"N_COORD97":2548244.9500000002,"ADDRESS":"義安街１８４巷８號","OBJECTID":450663},"geometry":{"x":167616.08000000194,"y":2548244.950000003}},{"attributes":{"ID":450689,"DIS_CODE":0,"TOWNNAME":"安南區","LI":"大安里","LIN":"18鄰","STREET":"義安街","SECT":" ","MAREA":" ","LANE":"１８４巷","ALLEY":" ","HOUSE_NO":"９號","E_COORD97":167634.82999999999,"N_COORD97":2548258.7599999998,"ADDRESS":"義安街１８４巷９號","OBJECTID":450664},"geometry":{"x":167634.83000000194,"y":2548258.7599999998}},{"attributes":{"ID":450690,"DIS_CODE":0,"TOWNNAME":"安南區","LI":"大安里","LIN":"18鄰","STREET":"義安街","SECT":" ","MAREA":" ","LANE":"１９８巷","ALLEY":" ","HOUSE_NO":"１０號","E_COORD97":167630.45000000001,"N_COORD97":2548280.6299999999,"ADDRESS":"義安街１９８巷１０號","OBJECTID":450665},"geometry":{"x":167630.45000000019,"y":2548280.6300000027}},{"attributes":{"ID":450691,"DIS_CODE":0,"TOWNNAME":"安南區","LI":"大安里","LIN":"18鄰","STREET":"義安街","SECT":" ","MAREA":" ","LANE":"１９８巷","ALLEY":" ","HOUSE_NO":"１１號","E_COORD97":167648.47,"N_COORD97":2548301.5299999998,"ADDRESS":"義安街１９８巷１１號","OBJECTID":450666},"geometry":{"x":167648.46999999974,"y":2548301.5299999993}},{"attributes":{"ID":450692,"DIS_CODE":0,"TOWNNAME":"安南區","LI":"大安里","LIN":"18鄰","STREET":"義安街","SECT":" ","MAREA":" ","LANE":"１９８巷","ALLEY":" ","HOUSE_NO":"１２號","E_COORD97":167633.69,"N_COORD97":2548278.3300000001,"ADDRESS":"義安街１９８巷１２號","OBJECTID":450667},"geometry":{"x":167633.69000000041,"y":2548278.3300000019}},{"attributes":{"ID":450693,"DIS_CODE":0,"TOWNNAME":"安南區","LI":"大安里","LIN":"18鄰","STREET":"義安街","SECT":" ","MAREA":" ","LANE":"１９８巷","ALLEY":" ","HOUSE_NO":"１３號","E_COORD97":167652.63,"N_COORD97":2548298.6800000002,"ADDRESS":"義安街１９８巷１３號","OBJECTID":450668},"geometry":{"x":167652.62999999989,"y":2548298.6800000016}},{"attributes":{"ID":450694,"DIS_CODE":0,"TOWNNAME":"安南區","LI":"大安里","LIN":"18鄰","STREET":"義安街","SECT":" ","MAREA":" ","LANE":"１９８巷","ALLEY":" ","HOUSE_NO":"１４號","E_COORD97":167637.03,"N_COORD97":2548275.9300000002,"ADDRESS":"義安街１９８巷１４號","OBJECTID":450669},"geometry":{"x":167637.03000000212,"y":2548275.9300000034}},{"attributes":{"ID":450695,"DIS_CODE":0,"TOWNNAME":"安南區","LI":"大安里","LIN":"18鄰","STREET":"義安街","SECT":" ","MAREA":" ","LANE":"１９８巷","ALLEY":" ","HOUSE_NO":"１５號","E_COORD97":167655.48999999999,"N_COORD97":2548296.3399999999,"ADDRESS":"義安街１９８巷１５號","OBJECTID":450670},"geometry":{"x":167655.49000000022,"y":2548296.3399999999}},{"attributes":{"ID":450696,"DIS_CODE":0,"TOWNNAME":"安南區","LI":"大安里","LIN":"18鄰","STREET":"義安街","SECT":" ","MAREA":" ","LANE":"１９８巷","ALLEY":" ","HOUSE_NO":"１６號","E_COORD97":167639.84,"N_COORD97":2548272.7000000002,"ADDRESS":"義安街１９８巷１６號","OBJECTID":450671},"geometry":{"x":167639.84000000078,"y":2548272.6999999993}},{"attributes":{"ID":450697,"DIS_CODE":0,"TOWNNAME":"安南區","LI":"大安里","LIN":"18鄰","STREET":"義安街","SECT":" ","MAREA":" ","LANE":"１９８巷","ALLEY":" ","HOUSE_NO":"１７號","E_COORD97":167659.12,"N_COORD97":2548295.2999999998,"ADDRESS":"義安街１９８巷１７號","OBJECTID":450672},"geometry":{"x":167659.12000000104,"y":2548295.3000000026}},{"attributes":{"ID":450698,"DIS_CODE":0,"TOWNNAME":"安南區","LI":"大安里","LIN":"18鄰","STREET":"義安街","SECT":" ","MAREA":" ","LANE":"１９８巷","ALLEY":" ","HOUSE_NO":"１８號","E_COORD97":167644.01000000001,"N_COORD97":2548271.5600000001,"ADDRESS":"義安街１９８巷１８號","OBJECTID":450673},"geometry":{"x":167644.01000000071,"y":2548271.5600000005}},{"attributes":{"ID":450699,"DIS_CODE":0,"TOWNNAME":"安南區","LI":"大安里","LIN":"18鄰","STREET":"義安街","SECT":" ","MAREA":" ","LANE":"１９８巷","ALLEY":" ","HOUSE_NO":"１９號","E_COORD97":167660.48999999999,"N_COORD97":2548290.0699999998,"ADDRESS":"義安街１９８巷１９號","OBJECTID":450674},"geometry":{"x":167660.49000000022,"y":2548290.0700000022}},{"attributes":{"ID":450700,"DIS_CODE":0,"TOWNNAME":"安南區","LI":"大安里","LIN":"18鄰","STREET":"義安街","SECT":" ","MAREA":" ","LANE":"１９８巷","ALLEY":" ","HOUSE_NO":"１號","E_COORD97":167631.31,"N_COORD97":2548310.8799999999,"ADDRESS":"義安街１９８巷１號","OBJECTID":450675},"geometry":{"x":167631.31000000052,"y":2548310.8800000008}},{"attributes":{"ID":450701,"DIS_CODE":0,"TOWNNAME":"安南區","LI":"大安里","LIN":"18鄰","STREET":"義安街","SECT":" ","MAREA":" ","LANE":"１９８巷","ALLEY":" ","HOUSE_NO":"２０號","E_COORD97":167647.76999999999,"N_COORD97":2548269.5800000001,"ADDRESS":"義安街１９８巷２０號","OBJECTID":450676},"geometry":{"x":167647.76999999955,"y":2548269.5800000019}},{"attributes":{"ID":450702,"DIS_CODE":0,"TOWNNAME":"安南區","LI":"大安里","LIN":"18鄰","STREET":"義安街","SECT":" ","MAREA":" ","LANE":"１９８巷","ALLEY":" ","HOUSE_NO":"２１號","E_COORD97":167663.94,"N_COORD97":2548287.2599999998,"ADDRESS":"義安街１９８巷２１號","OBJECTID":450677},"geometry":{"x":167663.94000000134,"y":2548287.2600000035}},{"attributes":{"ID":450703,"DIS_CODE":0,"TOWNNAME":"安南區","LI":"大安里","LIN":"18鄰","STREET":"義安街","SECT":" ","MAREA":" ","LANE":"１９８巷","ALLEY":" ","HOUSE_NO":"２２號","E_COORD97":167650.26999999999,"N_COORD97":2548266.5499999998,"ADDRESS":"義安街１９８巷２２號","OBJECTID":450678},"geometry":{"x":167650.27000000048,"y":2548266.5500000026}},{"attributes":{"ID":450704,"DIS_CODE":0,"TOWNNAME":"安南區","LI":"大安里","LIN":"18鄰","STREET":"義安街","SECT":" ","MAREA":" ","LANE":"１９８巷","ALLEY":" ","HOUSE_NO":"２３號","E_COORD97":167667.17000000001,"N_COORD97":2548285.1699999999,"ADDRESS":"義安街１９８巷２３號","OBJECTID":450679},"geometry":{"x":167667.16999999993,"y":2548285.1700000018}},{"attributes":{"ID":450705,"DIS_CODE":0,"TOWNNAME":"安南區","LI":"大安里","LIN":"18鄰","STREET":"義安街","SECT":" ","MAREA":" ","LANE":"１９８巷","ALLEY":" ","HOUSE_NO":"２４號","E_COORD97":167654.48000000001,"N_COORD97":2548265.2000000002,"ADDRESS":"義安街１９８巷２４號","OBJECTID":450680},"geometry":{"x":167654.48000000231,"y":2548265.1999999993}},{"attributes":{"ID":450706,"DIS_CODE":0,"TOWNNAME":"安南區","LI":"大安里","LIN":"18鄰","STREET":"義安街","SECT":" ","MAREA":" ","LANE":"１９８巷","ALLEY":" ","HOUSE_NO":"２６號","E_COORD97":167656.88,"N_COORD97":2548263.1200000001,"ADDRESS":"義安街１９８巷２６號","OBJECTID":450681},"geometry":{"x":167656.88000000082,"y":2548263.1200000029}},{"attributes":{"ID":450707,"DIS_CODE":0,"TOWNNAME":"安南區","LI":"大安里","LIN":"18鄰","STREET":"義安街","SECT":" ","MAREA":" ","LANE":"１９８巷","ALLEY":" ","HOUSE_NO":"２７號","E_COORD97":167674.37,"N_COORD97":2548281,"ADDRESS":"義安街１９８巷２７號","OBJECTID":450682},"geometry":{"x":167674.37000000104,"y":2548281}},{"attributes":{"ID":450708,"DIS_CODE":0,"TOWNNAME":"安南區","LI":"大安里","LIN":"18鄰","STREET":"義安街","SECT":" ","MAREA":" ","LANE":"１９８巷","ALLEY":" ","HOUSE_NO":"２８號","E_COORD97":167661.04999999999,"N_COORD97":2548260.9300000002,"ADDRESS":"義安街１９８巷２８號","OBJECTID":450683},"geometry":{"x":167661.04999999981,"y":2548260.9299999997}},{"attributes":{"ID":450709,"DIS_CODE":0,"TOWNNAME":"安南區","LI":"大安里","LIN":"18鄰","STREET":"義安街","SECT":" ","MAREA":" ","LANE":"１９８巷","ALLEY":" ","HOUSE_NO":"２號","E_COORD97":167614.19,"N_COORD97":2548283.9700000002,"ADDRESS":"義安街１９８巷２號","OBJECTID":450684},"geometry":{"x":167614.19000000134,"y":2548283.9700000025}},{"attributes":{"ID":450710,"DIS_CODE":0,"TOWNNAME":"安南區","LI":"大安里","LIN":"18鄰","STREET":"義安街","SECT":" ","MAREA":" ","LANE":"１９８巷","ALLEY":" ","HOUSE_NO":"３０號","E_COORD97":167664.48999999999,"N_COORD97":2548259.0499999998,"ADDRESS":"義安街１９８巷３０號","OBJECTID":450685},"geometry":{"x":167664.49000000209,"y":2548259.0499999989}},{"attributes":{"ID":450711,"DIS_CODE":0,"TOWNNAME":"安南區","LI":"大安里","LIN":"18鄰","STREET":"義安街","SECT":" ","MAREA":" ","LANE":"１９８巷","ALLEY":" ","HOUSE_NO":"３３號","E_COORD97":167684.70000000001,"N_COORD97":2548274.75,"ADDRESS":"義安街１９８巷３３號","OBJECTID":450686},"geometry":{"x":167684.70000000019,"y":2548274.7500000019}},{"attributes":{"ID":450712,"DIS_CODE":0,"TOWNNAME":"安南區","LI":"大安里","LIN":"18鄰","STREET":"義安街","SECT":" ","MAREA":" ","LANE":"１９８巷","ALLEY":" ","HOUSE_NO":"３４號","E_COORD97":167670.75,"N_COORD97":2548254.2599999998,"ADDRESS":"義安街１９８巷３４號","OBJECTID":450687},"geometry":{"x":167670.74999999907,"y":2548254.2600000016}},{"attributes":{"ID":450713,"DIS_CODE":0,"TOWNNAME":"安南區","LI":"大安里","LIN":"18鄰","STREET":"義安街","SECT":" ","MAREA":" ","LANE":"１９８巷","ALLEY":" ","HOUSE_NO":"３６號","E_COORD97":167674.09,"N_COORD97":2548252.0699999998,"ADDRESS":"義安街１９８巷３６號","OBJECTID":450688},"geometry":{"x":167674.09000000078,"y":2548252.070000004}},{"attributes":{"ID":450714,"DIS_CODE":0,"TOWNNAME":"安南區","LI":"大安里","LIN":"18鄰","STREET":"義安街","SECT":" ","MAREA":" ","LANE":"１９８巷","ALLEY":" ","HOUSE_NO":"３８號","E_COORD97":167677.32999999999,"N_COORD97":2548250.6099999999,"ADDRESS":"義安街１９８巷３８號","OBJECTID":450689},"geometry":{"x":167677.33000000101,"y":2548250.6100000031}},{"attributes":{"ID":450715,"DIS_CODE":0,"TOWNNAME":"安南區","LI":"大安里","LIN":"18鄰","STREET":"義安街","SECT":" ","MAREA":" ","LANE":"１９８巷","ALLEY":" ","HOUSE_NO":"３號","E_COORD97":167634.69,"N_COORD97":2548308.8100000001,"ADDRESS":"義安街１９８巷３號","OBJECTID":450690},"geometry":{"x":167634.69000000134,"y":2548308.8100000024}},{"attributes":{"ID":450716,"DIS_CODE":0,"TOWNNAME":"安南區","LI":"大安里","LIN":"18鄰","STREET":"義安街","SECT":" ","MAREA":" ","LANE":"１９８巷","ALLEY":" ","HOUSE_NO":"４０號","E_COORD97":167681.07999999999,"N_COORD97":2548247.6899999999,"ADDRESS":"義安街１９８巷４０號","OBJECTID":450691},"geometry":{"x":167681.08000000101,"y":2548247.6900000013}},{"attributes":{"ID":450717,"DIS_CODE":0,"TOWNNAME":"安南區","LI":"大安里","LIN":"18鄰","STREET":"義安街","SECT":" ","MAREA":" ","LANE":"１９８巷","ALLEY":" ","HOUSE_NO":"６號","E_COORD97":167620.95999999999,"N_COORD97":2548280.0600000001,"ADDRESS":"義安街１９８巷６號","OBJECTID":450692},"geometry":{"x":167620.96000000089,"y":2548280.0600000024}},{"attributes":{"ID":450718,"DIS_CODE":0,"TOWNNAME":"安南區","LI":"大安里","LIN":"18鄰","STREET":"義安街","SECT":" ","MAREA":" ","LANE":"１９８巷","ALLEY":" ","HOUSE_NO":"７號","E_COORD97":167641.70999999999,"N_COORD97":2548304.3900000001,"ADDRESS":"義安街１９８巷７號","OBJECTID":450693},"geometry":{"x":167641.70999999996,"y":2548304.3900000043}},{"attributes":{"ID":450719,"DIS_CODE":0,"TOWNNAME":"安南區","LI":"大安里","LIN":"18鄰","STREET":"義安街","SECT":" ","MAREA":" ","LANE":"１９８巷","ALLEY":" ","HOUSE_NO":"８號","E_COORD97":167624.67999999999,"N_COORD97":2548278.4399999999,"ADDRESS":"義安街１９８巷８號","OBJECTID":450694},"geometry":{"x":167624.6799999997,"y":2548278.4399999995}},{"attributes":{"ID":450720,"DIS_CODE":0,"TOWNNAME":"安南區","LI":"大安里","LIN":"18鄰","STREET":"義安街","SECT":" ","MAREA":" ","LANE":"１９８巷","ALLEY":" ","HOUSE_NO":"９號","E_COORD97":167644.57000000001,"N_COORD97":2548302.5699999998,"ADDRESS":"義安街１９８巷９號","OBJECTID":450695},"geometry":{"x":167644.5700000003,"y":2548302.5699999984}},{"attributes":{"ID":450721,"DIS_CODE":0,"TOWNNAME":"安南區","LI":"溪心里","LIN":"18鄰","STREET":"功安二街","SECT":" ","MAREA":" ","LANE":"１５２巷","ALLEY":" ","HOUSE_NO":"１０號","E_COORD97":165974.20000000001,"N_COORD97":2550168.5699999998,"ADDRESS":"功安二街１５２巷１０號","OBJECTID":450696},"geometry":{"x":165974.20000000019,"y":2550168.5700000022}},{"attributes":{"ID":450722,"DIS_CODE":0,"TOWNNAME":"安南區","LI":"溪心里","LIN":"18鄰","STREET":"功安二街","SECT":" ","MAREA":" ","LANE":"１５２巷","ALLEY":" ","HOUSE_NO":"１１號","E_COORD97":165978.07000000001,"N_COORD97":2550160.48,"ADDRESS":"功安二街１５２巷１１號","OBJECTID":450697},"geometry":{"x":165978.0700000003,"y":2550160.4800000004}},{"attributes":{"ID":450723,"DIS_CODE":0,"TOWNNAME":"安南區","LI":"溪心里","LIN":"18鄰","STREET":"功安二街","SECT":" ","MAREA":" ","LANE":"１５２巷","ALLEY":" ","HOUSE_NO":"１號","E_COORD97":165941.44,"N_COORD97":2550171.0299999998,"ADDRESS":"功安二街１５２巷１號","OBJECTID":450698},"geometry":{"x":165941.44000000134,"y":2550171.0300000012}},{"attributes":{"ID":450724,"DIS_CODE":0,"TOWNNAME":"安南區","LI":"溪心里","LIN":"18鄰","STREET":"功安二街","SECT":" ","MAREA":" ","LANE":"１５２巷","ALLEY":" ","HOUSE_NO":"２號","E_COORD97":165946.03,"N_COORD97":2550174.1699999999,"ADDRESS":"功安二街１５２巷２號","OBJECTID":450699},"geometry":{"x":165946.03000000119,"y":2550174.1700000018}},{"attributes":{"ID":450725,"DIS_CODE":0,"TOWNNAME":"安南區","LI":"溪心里","LIN":"18鄰","STREET":"功安二街","SECT":" ","MAREA":" ","LANE":"１５２巷","ALLEY":" ","HOUSE_NO":"３號","E_COORD97":165949.78,"N_COORD97":2550177.7999999998,"ADDRESS":"功安二街１５２巷３號","OBJECTID":450700},"geometry":{"x":165949.78000000026,"y":2550177.8000000026}},{"attributes":{"ID":450726,"DIS_CODE":0,"TOWNNAME":"安南區","LI":"溪心里","LIN":"18鄰","STREET":"功安二街","SECT":" ","MAREA":" ","LANE":"１５２巷","ALLEY":" ","HOUSE_NO":"５號","E_COORD97":165952.56,"N_COORD97":2550181.0600000001,"ADDRESS":"功安二街１５２巷５號","OBJECTID":450701},"geometry":{"x":165952.55999999959,"y":2550181.0599999987}},{"attributes":{"ID":450727,"DIS_CODE":0,"TOWNNAME":"安南區","LI":"溪心里","LIN":"18鄰","STREET":"功安二街","SECT":" ","MAREA":" ","LANE":"１５２巷","ALLEY":" ","HOUSE_NO":"６號","E_COORD97":165956.54999999999,"N_COORD97":2550183.71,"ADDRESS":"功安二街１５２巷６號","OBJECTID":450702},"geometry":{"x":165956.55000000168,"y":2550183.7100000009}},{"attributes":{"ID":450728,"DIS_CODE":0,"TOWNNAME":"安南區","LI":"溪心里","LIN":"18鄰","STREET":"功安二街","SECT":" ","MAREA":" ","LANE":"１５２巷","ALLEY":" ","HOUSE_NO":"７號","E_COORD97":165961.75,"N_COORD97":2550186.0099999998,"ADDRESS":"功安二街１５２巷７號","OBJECTID":450703},"geometry":{"x":165961.75,"y":2550186.0099999998}},{"attributes":{"ID":450729,"DIS_CODE":0,"TOWNNAME":"安南區","LI":"溪心里","LIN":"18鄰","STREET":"功安二街","SECT":" ","MAREA":" ","LANE":"１５２巷","ALLEY":" ","HOUSE_NO":"８號","E_COORD97":165965.98000000001,"N_COORD97":2550176.54,"ADDRESS":"功安二街１５２巷８號","OBJECTID":450704},"geometry":{"x":165965.97999999952,"y":2550176.5400000028}},{"attributes":{"ID":450730,"DIS_CODE":0,"TOWNNAME":"安南區","LI":"溪心里","LIN":"18鄰","STREET":"功安二街","SECT":" ","MAREA":" ","LANE":"１５２巷","ALLEY":" ","HOUSE_NO":"９號","E_COORD97":165968.76000000001,"N_COORD97":2550172.7999999998,"ADDRESS":"功安二街１５２巷９號","OBJECTID":450705},"geometry":{"x":165968.76000000071,"y":2550172.8000000007}},{"attributes":{"ID":450731,"DIS_CODE":0,"TOWNNAME":"東區","LI":"路東里","LIN":"5鄰","STREET":"大同路","SECT":"二段","MAREA":" ","LANE":"９７巷","ALLEY":" ","HOUSE_NO":"１號","E_COORD97":169379.12,"N_COORD97":2542169.25,"ADDRESS":"大同路二段９７巷１號","OBJECTID":450706},"geometry":{"x":169379.12000000104,"y":2542169.2500000019}},{"attributes":{"ID":450732,"DIS_CODE":0,"TOWNNAME":"東區","LI":"路東里","LIN":"5鄰","STREET":"大同路","SECT":"二段","MAREA":" ","LANE":"９７巷","ALLEY":" ","HOUSE_NO":"３號","E_COORD97":169379.79999999999,"N_COORD97":2542177.3100000001,"ADDRESS":"大同路二段９７巷３號","OBJECTID":450707},"geometry":{"x":169379.80000000075,"y":2542177.3100000005}},{"attributes":{"ID":450733,"DIS_CODE":0,"TOWNNAME":"東區","LI":"路東里","LIN":"5鄰","STREET":"大同路","SECT":"二段","MAREA":" ","LANE":"９７巷","ALLEY":" ","HOUSE_NO":"５號","E_COORD97":169380.81,"N_COORD97":2542184.3700000001,"ADDRESS":"大同路二段９７巷５號","OBJECTID":450708},"geometry":{"x":169380.81000000052,"y":2542184.370000001}},{"attributes":{"ID":450734,"DIS_CODE":0,"TOWNNAME":"東區","LI":"路東里","LIN":"5鄰","STREET":"大同路","SECT":"二段","MAREA":" ","LANE":"９７巷","ALLEY":" ","HOUSE_NO":"７號","E_COORD97":169382.48999999999,"N_COORD97":2542194.7799999998,"ADDRESS":"大同路二段９７巷７號","OBJECTID":450709},"geometry":{"x":169382.49000000022,"y":2542194.7800000012}},{"attributes":{"ID":450735,"DIS_CODE":0,"TOWNNAME":"東區","LI":"路東里","LIN":"6鄰","STREET":"大同路","SECT":"二段","MAREA":" ","LANE":"６１巷","ALLEY":" ","HOUSE_NO":"１０號","E_COORD97":169370.72,"N_COORD97":2542218.29,"ADDRESS":"大同路二段６１巷１０號","OBJECTID":450710},"geometry":{"x":169370.71999999974,"y":2542218.290000001}},{"attributes":{"ID":450736,"DIS_CODE":0,"TOWNNAME":"永康區","LI":"南灣里","LIN":"18鄰","STREET":"立興街","SECT":" ","MAREA":" ","LANE":"１７６巷","ALLEY":" ","HOUSE_NO":"４號","E_COORD97":174312.84,"N_COORD97":2544630.8999999999,"ADDRESS":"立興街１７６巷４號","OBJECTID":450711},"geometry":{"x":174312.83999999985,"y":2544630.9000000004}},{"attributes":{"ID":450737,"DIS_CODE":0,"TOWNNAME":"東區","LI":"關聖里","LIN":"18鄰","STREET":"裕和路","SECT":" ","MAREA":" ","LANE":"２６２巷","ALLEY":" ","HOUSE_NO":"２號","E_COORD97":172478.25,"N_COORD97":2543113.9399999999,"ADDRESS":"裕和路２６２巷２號","OBJECTID":450712},"geometry":{"x":172478.25,"y":2543113.9399999995}},{"attributes":{"ID":450738,"DIS_CODE":0,"TOWNNAME":"東區","LI":"關聖里","LIN":"18鄰","STREET":"裕和路","SECT":" ","MAREA":" ","LANE":"２６２巷","ALLEY":" ","HOUSE_NO":"１６號","E_COORD97":172477.31,"N_COORD97":2543086.0299999998,"ADDRESS":"裕和路２６２巷１６號","OBJECTID":450713},"geometry":{"x":172477.30999999959,"y":2543086.0299999993}},{"attributes":{"ID":450739,"DIS_CODE":0,"TOWNNAME":"東區","LI":"關聖里","LIN":"18鄰","STREET":"裕和路","SECT":" ","MAREA":" ","LANE":"２６２巷","ALLEY":" ","HOUSE_NO":"６號","E_COORD97":172477.73000000001,"N_COORD97":2543108.6899999999,"ADDRESS":"裕和路２６２巷６號","OBJECTID":450714},"geometry":{"x":172477.73000000138,"y":2543108.6900000013}},{"attributes":{"ID":450740,"DIS_CODE":0,"TOWNNAME":"東區","LI":"關聖里","LIN":"18鄰","STREET":"裕和路","SECT":" ","MAREA":" ","LANE":"２６２巷","ALLEY":" ","HOUSE_NO":"８號","E_COORD97":172478.17000000001,"N_COORD97":2543103.6000000001,"ADDRESS":"裕和路２６２巷８號","OBJECTID":450715},"geometry":{"x":172478.16999999993,"y":2543103.5999999996}},{"attributes":{"ID":450741,"DIS_CODE":0,"TOWNNAME":"東區","LI":"關聖里","LIN":"18鄰","STREET":"裕和路","SECT":" ","MAREA":" ","LANE":"２６２巷","ALLEY":" ","HOUSE_NO":"１０號","E_COORD97":172476.84,"N_COORD97":2543097.3999999999,"ADDRESS":"裕和路２６２巷１０號","OBJECTID":450716},"geometry":{"x":172476.83999999985,"y":2543097.4000000022}},{"attributes":{"ID":450742,"DIS_CODE":0,"TOWNNAME":"東區","LI":"關聖里","LIN":"18鄰","STREET":"裕和路","SECT":" ","MAREA":" ","LANE":"２６２巷","ALLEY":" ","HOUSE_NO":"１２號","E_COORD97":172477.29000000001,"N_COORD97":2543092.2999999998,"ADDRESS":"裕和路２６２巷１２號","OBJECTID":450717},"geometry":{"x":172477.29000000097,"y":2543092.3000000026}},{"attributes":{"ID":450743,"DIS_CODE":0,"TOWNNAME":"東區","LI":"關聖里","LIN":"18鄰","STREET":"裕和路","SECT":" ","MAREA":" ","LANE":"２６２巷","ALLEY":" ","HOUSE_NO":"１８號","E_COORD97":172477.51000000001,"N_COORD97":2543080.1200000001,"ADDRESS":"裕和路２６２巷１８號","OBJECTID":450718},"geometry":{"x":172477.50999999978,"y":2543080.1200000029}},{"attributes":{"ID":450744,"DIS_CODE":0,"TOWNNAME":"東區","LI":"關聖里","LIN":"18鄰","STREET":"裕和路","SECT":" ","MAREA":" ","LANE":"２６２巷","ALLEY":" ","HOUSE_NO":"２０號","E_COORD97":172476.39999999999,"N_COORD97":2543074.8100000001,"ADDRESS":"裕和路２６２巷２０號","OBJECTID":450719},"geometry":{"x":172476.4000000013,"y":2543074.8100000024}},{"attributes":{"ID":450745,"DIS_CODE":0,"TOWNNAME":"東區","LI":"關聖里","LIN":"18鄰","STREET":"裕和路","SECT":" ","MAREA":" ","LANE":"２６２巷","ALLEY":" ","HOUSE_NO":"１５號","E_COORD97":172491.89999999999,"N_COORD97":2543073.2599999998,"ADDRESS":"裕和路２６２巷１５號","OBJECTID":450720},"geometry":{"x":172491.9000000013,"y":2543073.2600000016}},{"attributes":{"ID":450746,"DIS_CODE":0,"TOWNNAME":"東區","LI":"關聖里","LIN":"18鄰","STREET":"裕和路","SECT":" ","MAREA":" ","LANE":"２６２巷","ALLEY":" ","HOUSE_NO":"１３號","E_COORD97":172491.01999999999,"N_COORD97":2543078.5699999998,"ADDRESS":"裕和路２６２巷１３號","OBJECTID":450721},"geometry":{"x":172491.01999999955,"y":2543078.5700000022}},{"attributes":{"ID":450747,"DIS_CODE":0,"TOWNNAME":"東區","LI":"關聖里","LIN":"18鄰","STREET":"裕和路","SECT":" ","MAREA":" ","LANE":"２６２巷","ALLEY":" ","HOUSE_NO":"１１號","E_COORD97":172491.01999999999,"N_COORD97":2543085.4399999999,"ADDRESS":"裕和路２６２巷１１號","OBJECTID":450722},"geometry":{"x":172491.01999999955,"y":2543085.4400000013}},{"attributes":{"ID":450748,"DIS_CODE":0,"TOWNNAME":"東區","LI":"關聖里","LIN":"18鄰","STREET":"裕和路","SECT":" ","MAREA":" ","LANE":"２６２巷","ALLEY":" ","HOUSE_NO":"１號","E_COORD97":172491.01999999999,"N_COORD97":2543113.79,"ADDRESS":"裕和路２６２巷１號","OBJECTID":450723},"geometry":{"x":172491.01999999955,"y":2543113.790000001}},{"attributes":{"ID":450749,"DIS_CODE":0,"TOWNNAME":"東區","LI":"關聖里","LIN":"18鄰","STREET":"裕和路","SECT":" ","MAREA":" ","LANE":"２６２巷","ALLEY":" ","HOUSE_NO":"３號","E_COORD97":172491.45999999999,"N_COORD97":2543108.6899999999,"ADDRESS":"裕和路２６２巷３號","OBJECTID":450724},"geometry":{"x":172491.45999999996,"y":2543108.6900000013}},{"attributes":{"ID":450750,"DIS_CODE":0,"TOWNNAME":"東區","LI":"關聖里","LIN":"18鄰","STREET":"裕和路","SECT":" ","MAREA":" ","LANE":"２６２巷","ALLEY":" ","HOUSE_NO":"５號","E_COORD97":172491.23999999999,"N_COORD97":2543103.1600000001,"ADDRESS":"裕和路２６２巷５號","OBJECTID":450725},"geometry":{"x":172491.24000000115,"y":2543103.1600000001}},{"attributes":{"ID":450751,"DIS_CODE":0,"TOWNNAME":"東區","LI":"關聖里","LIN":"18鄰","STREET":"裕和路","SECT":" ","MAREA":" ","LANE":"２７２巷","ALLEY":" ","HOUSE_NO":"２號","E_COORD97":172504.07999999999,"N_COORD97":2543113.3399999999,"ADDRESS":"裕和路２７２巷２號","OBJECTID":450726},"geometry":{"x":172504.08000000101,"y":2543113.3400000036}},{"attributes":{"ID":450752,"DIS_CODE":0,"TOWNNAME":"東區","LI":"關聖里","LIN":"18鄰","STREET":"裕和路","SECT":" ","MAREA":" ","LANE":"２７２巷","ALLEY":" ","HOUSE_NO":"８號","E_COORD97":172504.29999999999,"N_COORD97":2543096.5099999998,"ADDRESS":"裕和路２７２巷８號","OBJECTID":450727},"geometry":{"x":172504.29999999981,"y":2543096.5100000016}},{"attributes":{"ID":450753,"DIS_CODE":0,"TOWNNAME":"東區","LI":"關聖里","LIN":"18鄰","STREET":"裕和路","SECT":" ","MAREA":" ","LANE":"２７２巷","ALLEY":" ","HOUSE_NO":"１０號","E_COORD97":172504.07999999999,"N_COORD97":2543089.2000000002,"ADDRESS":"裕和路２７２巷１０號","OBJECTID":450728},"geometry":{"x":172504.08000000101,"y":2543089.1999999993}},{"attributes":{"ID":450754,"DIS_CODE":0,"TOWNNAME":"東區","LI":"關聖里","LIN":"18鄰","STREET":"裕和路","SECT":" ","MAREA":" ","LANE":"２７２巷","ALLEY":" ","HOUSE_NO":"１２號","E_COORD97":172503.85999999999,"N_COORD97":2543081.8999999999,"ADDRESS":"裕和路２７２巷１２號","OBJECTID":450729},"geometry":{"x":172503.86000000127,"y":2543081.9000000004}},{"attributes":{"ID":450755,"DIS_CODE":0,"TOWNNAME":"東區","LI":"關聖里","LIN":"18鄰","STREET":"裕和路","SECT":" ","MAREA":" ","LANE":"２７２巷","ALLEY":" ","HOUSE_NO":"１６號","E_COORD97":172503.85999999999,"N_COORD97":2543074.8100000001,"ADDRESS":"裕和路２７２巷１６號","OBJECTID":450730},"geometry":{"x":172503.86000000127,"y":2543074.8100000024}},{"attributes":{"ID":450756,"DIS_CODE":0,"TOWNNAME":"東區","LI":"關聖里","LIN":"18鄰","STREET":"裕和路","SECT":" ","MAREA":" ","LANE":"２７２巷","ALLEY":" ","HOUSE_NO":"１號","E_COORD97":172515.38,"N_COORD97":2543113.3399999999,"ADDRESS":"裕和路２７２巷１號","OBJECTID":450731},"geometry":{"x":172515.38000000082,"y":2543113.3400000036}},{"attributes":{"ID":450757,"DIS_CODE":0,"TOWNNAME":"東區","LI":"關聖里","LIN":"18鄰","STREET":"裕和路","SECT":" ","MAREA":" ","LANE":"２７２巷","ALLEY":" ","HOUSE_NO":"３號","E_COORD97":172515.38,"N_COORD97":2543105.5899999999,"ADDRESS":"裕和路２７２巷３號","OBJECTID":450732},"geometry":{"x":172515.38000000082,"y":2543105.5900000017}},{"attributes":{"ID":450758,"DIS_CODE":0,"TOWNNAME":"東區","LI":"關聖里","LIN":"18鄰","STREET":"裕和路","SECT":" ","MAREA":" ","LANE":"２７２巷","ALLEY":" ","HOUSE_NO":"５號","E_COORD97":172515.16,"N_COORD97":2543096.96,"ADDRESS":"裕和路２７２巷５號","OBJECTID":450733},"geometry":{"x":172515.16000000108,"y":2543096.9600000028}},{"attributes":{"ID":450759,"DIS_CODE":0,"TOWNNAME":"東區","LI":"關聖里","LIN":"18鄰","STREET":"裕和路","SECT":" ","MAREA":" ","LANE":"２７２巷","ALLEY":" ","HOUSE_NO":"７號","E_COORD97":172515.82000000001,"N_COORD97":2543089.6499999999,"ADDRESS":"裕和路２７２巷７號","OBJECTID":450734},"geometry":{"x":172515.82000000123,"y":2543089.6500000004}},{"attributes":{"ID":450760,"DIS_CODE":0,"TOWNNAME":"東區","LI":"關聖里","LIN":"18鄰","STREET":"裕和路","SECT":" ","MAREA":" ","LANE":"２７２巷","ALLEY":" ","HOUSE_NO":"９號","E_COORD97":172514.48999999999,"N_COORD97":2543082.1200000001,"ADDRESS":"裕和路２７２巷９號","OBJECTID":450735},"geometry":{"x":172514.49000000115,"y":2543082.1200000048}},{"attributes":{"ID":450761,"DIS_CODE":0,"TOWNNAME":"東區","LI":"關聖里","LIN":"18鄰","STREET":"裕和路","SECT":" ","MAREA":" ","LANE":"２７２巷","ALLEY":" ","HOUSE_NO":"１１號","E_COORD97":172514.48999999999,"N_COORD97":2543073.9199999999,"ADDRESS":"裕和路２７２巷１１號","OBJECTID":450736},"geometry":{"x":172514.49000000115,"y":2543073.9199999999}},{"attributes":{"ID":450762,"DIS_CODE":0,"TOWNNAME":"南區","LI":"郡南里","LIN":"18鄰","STREET":"德興路","SECT":" ","MAREA":" ","LANE":"１６１巷","ALLEY":" ","HOUSE_NO":"１７號","E_COORD97":167269.70000000001,"N_COORD97":2540414.3199999998,"ADDRESS":"德興路１６１巷１７號","OBJECTID":450737},"geometry":{"x":167269.70000000205,"y":2540414.3200000003}},{"attributes":{"ID":450763,"DIS_CODE":0,"TOWNNAME":"南區","LI":"郡南里","LIN":"18鄰","STREET":"德興路","SECT":" ","MAREA":" ","LANE":"１６１巷","ALLEY":" ","HOUSE_NO":"６號","E_COORD97":167253.81,"N_COORD97":2540392.7599999998,"ADDRESS":"德興路１６１巷６號","OBJECTID":450738},"geometry":{"x":167253.81000000052,"y":2540392.7600000016}},{"attributes":{"ID":450764,"DIS_CODE":0,"TOWNNAME":"南區","LI":"白雪里","LIN":"18鄰","STREET":"新都路","SECT":" ","MAREA":" ","LANE":"５９０巷","ALLEY":" ","HOUSE_NO":"７號之１","E_COORD97":166890.64999999999,"N_COORD97":2540934.9700000002,"ADDRESS":"新都路５９０巷７號之１","OBJECTID":450739},"geometry":{"x":166890.6500000013,"y":2540934.9700000007}},{"attributes":{"ID":450765,"DIS_CODE":0,"TOWNNAME":"南區","LI":"大恩里","LIN":"18鄰","STREET":"大同路","SECT":"二段","MAREA":" ","LANE":"７５０巷","ALLEY":" ","HOUSE_NO":"１１２號","E_COORD97":169209.39999999999,"N_COORD97":2540711.8500000001,"ADDRESS":"大同路二段７５０巷１１２號","OBJECTID":450740},"geometry":{"x":169209.40000000224,"y":2540711.8499999996}},{"attributes":{"ID":450766,"DIS_CODE":0,"TOWNNAME":"南區","LI":"郡南里","LIN":"18鄰","STREET":"德興路","SECT":" ","MAREA":" ","LANE":"１６１巷","ALLEY":" ","HOUSE_NO":"１９號","E_COORD97":167274.29999999999,"N_COORD97":2540414.5499999998,"ADDRESS":"德興路１６１巷１９號","OBJECTID":450741},"geometry":{"x":167274.30000000075,"y":2540414.5500000026}},{"attributes":{"ID":450767,"DIS_CODE":0,"TOWNNAME":"南區","LI":"大恩里","LIN":"18鄰","STREET":"大同路","SECT":"二段","MAREA":" ","LANE":"７５０巷","ALLEY":" ","HOUSE_NO":"１１６之１號","E_COORD97":169198.29000000001,"N_COORD97":2540712.1699999999,"ADDRESS":"大同路二段７５０巷１１６之１號","OBJECTID":450742},"geometry":{"x":169198.29000000097,"y":2540712.1700000018}},{"attributes":{"ID":450768,"DIS_CODE":0,"TOWNNAME":"南區","LI":"大恩里","LIN":"18鄰","STREET":"大同路","SECT":"二段","MAREA":" ","LANE":"７５０巷","ALLEY":" ","HOUSE_NO":"１１６之２號","E_COORD97":169203.04999999999,"N_COORD97":2540719.3199999998,"ADDRESS":"大同路二段７５０巷１１６之２號","OBJECTID":450743},"geometry":{"x":169203.05000000075,"y":2540719.3200000003}},{"attributes":{"ID":450769,"DIS_CODE":0,"TOWNNAME":"佳里區","LI":"建南里","LIN":"17鄰","STREET":"建南街","SECT":" ","MAREA":" ","LANE":"６５巷","ALLEY":" ","HOUSE_NO":"６號","E_COORD97":165586.20000000001,"N_COORD97":2561925.6800000002,"ADDRESS":"建南街６５巷６號","OBJECTID":450744},"geometry":{"x":165586.19999999925,"y":2561925.6799999997}},{"attributes":{"ID":450770,"DIS_CODE":0,"TOWNNAME":"南區","LI":"大恩里","LIN":"18鄰","STREET":"大同路","SECT":"二段","MAREA":" ","LANE":"７５０巷","ALLEY":" ","HOUSE_NO":"１１６之３號","E_COORD97":169202.26000000001,"N_COORD97":2540725.98,"ADDRESS":"大同路二段７５０巷１１６之３號","OBJECTID":450745},"geometry":{"x":169202.25999999978,"y":2540725.9800000042}},{"attributes":{"ID":450771,"DIS_CODE":0,"TOWNNAME":"南區","LI":"大恩里","LIN":"18鄰","STREET":"大同路","SECT":"二段","MAREA":" ","LANE":"７５０巷","ALLEY":" ","HOUSE_NO":"１１６之５號","E_COORD97":169201.14999999999,"N_COORD97":2540733.29,"ADDRESS":"大同路二段７５０巷１１６之５號","OBJECTID":450746},"geometry":{"x":169201.1500000013,"y":2540733.290000001}},{"attributes":{"ID":450772,"DIS_CODE":0,"TOWNNAME":"南區","LI":"大恩里","LIN":"18鄰","STREET":"大同路","SECT":"二段","MAREA":" ","LANE":"７５０巷","ALLEY":" ","HOUSE_NO":"１１６之６號","E_COORD97":169200.35000000001,"N_COORD97":2540738.21,"ADDRESS":"大同路二段７５０巷１１６之６號","OBJECTID":450747},"geometry":{"x":169200.34999999963,"y":2540738.2100000009}},{"attributes":{"ID":450773,"DIS_CODE":0,"TOWNNAME":"南區","LI":"大恩里","LIN":"18鄰","STREET":"大同路","SECT":"二段","MAREA":" ","LANE":"７５０巷","ALLEY":" ","HOUSE_NO":"１１６號","E_COORD97":169204.32000000001,"N_COORD97":2540713.9199999999,"ADDRESS":"大同路二段７５０巷１１６號","OBJECTID":450748},"geometry":{"x":169204.3200000003,"y":2540713.9200000018}},{"attributes":{"ID":450774,"DIS_CODE":0,"TOWNNAME":"南區","LI":"大恩里","LIN":"18鄰","STREET":"大同路","SECT":"二段","MAREA":" ","LANE":"７５０巷","ALLEY":" ","HOUSE_NO":"１１８之１號","E_COORD97":169181.14000000001,"N_COORD97":2540717.73,"ADDRESS":"大同路二段７５０巷１１８之１號","OBJECTID":450749},"geometry":{"x":169181.13999999966,"y":2540717.7300000042}},{"attributes":{"ID":450775,"DIS_CODE":0,"TOWNNAME":"南區","LI":"大恩里","LIN":"18鄰","STREET":"大同路","SECT":"二段","MAREA":" ","LANE":"７５０巷","ALLEY":" ","HOUSE_NO":"１１８之２號","E_COORD97":169179.87,"N_COORD97":2540723.6000000001,"ADDRESS":"大同路二段７５０巷１１８之２號","OBJECTID":450750},"geometry":{"x":169179.87000000011,"y":2540723.5999999996}},{"attributes":{"ID":450776,"DIS_CODE":0,"TOWNNAME":"南區","LI":"大恩里","LIN":"18鄰","STREET":"大同路","SECT":"二段","MAREA":" ","LANE":"７５０巷","ALLEY":" ","HOUSE_NO":"１１８之３號","E_COORD97":169178.44,"N_COORD97":2540729.79,"ADDRESS":"大同路二段７５０巷１１８之３號","OBJECTID":450751},"geometry":{"x":169178.44000000041,"y":2540729.790000001}},{"attributes":{"ID":450777,"DIS_CODE":0,"TOWNNAME":"南區","LI":"大恩里","LIN":"18鄰","STREET":"大同路","SECT":"二段","MAREA":" ","LANE":"７５０巷","ALLEY":" ","HOUSE_NO":"１１８之５號","E_COORD97":169176.85999999999,"N_COORD97":2540734.8700000001,"ADDRESS":"大同路二段７５０巷１１８之５號","OBJECTID":450752},"geometry":{"x":169176.86000000034,"y":2540734.8700000029}},{"attributes":{"ID":450778,"DIS_CODE":0,"TOWNNAME":"南區","LI":"大恩里","LIN":"18鄰","STREET":"大同路","SECT":"二段","MAREA":" ","LANE":"７５０巷","ALLEY":" ","HOUSE_NO":"１１８號","E_COORD97":169187.64999999999,"N_COORD97":2540711.54,"ADDRESS":"大同路二段７５０巷１１８號","OBJECTID":450753},"geometry":{"x":169187.6500000013,"y":2540711.540000001}},{"attributes":{"ID":450779,"DIS_CODE":0,"TOWNNAME":"南區","LI":"大恩里","LIN":"18鄰","STREET":"大同路","SECT":"二段","MAREA":" ","LANE":"７５０巷","ALLEY":" ","HOUSE_NO":"１２０號","E_COORD97":169178.60000000001,"N_COORD97":2540711.8500000001,"ADDRESS":"大同路二段７５０巷１２０號","OBJECTID":450754},"geometry":{"x":169178.60000000149,"y":2540711.8499999996}},{"attributes":{"ID":450780,"DIS_CODE":0,"TOWNNAME":"南區","LI":"彰南里","LIN":"18鄰","STREET":"新和一路","SECT":" ","MAREA":" ","LANE":"１巷","ALLEY":" ","HOUSE_NO":"８號","E_COORD97":166139.57000000001,"N_COORD97":2540772.6600000001,"ADDRESS":"新和一路１巷８號","OBJECTID":450755},"geometry":{"x":166139.5700000003,"y":2540772.660000002}},{"attributes":{"ID":450781,"DIS_CODE":0,"TOWNNAME":"南區","LI":"郡南里","LIN":"18鄰","STREET":"德興路","SECT":" ","MAREA":" ","LANE":"１３９巷","ALLEY":" ","HOUSE_NO":"１６號","E_COORD97":167263.67000000001,"N_COORD97":2540449.3999999999,"ADDRESS":"德興路１３９巷１６號","OBJECTID":450756},"geometry":{"x":167263.66999999993,"y":2540449.4000000022}},{"attributes":{"ID":450782,"DIS_CODE":0,"TOWNNAME":"南區","LI":"郡南里","LIN":"18鄰","STREET":"德興路","SECT":" ","MAREA":" ","LANE":"１３９巷","ALLEY":" ","HOUSE_NO":"１８號","E_COORD97":167267.95000000001,"N_COORD97":2540449.8799999999,"ADDRESS":"德興路１３９巷１８號","OBJECTID":450757},"geometry":{"x":167267.95000000205,"y":2540449.879999999}},{"attributes":{"ID":450783,"DIS_CODE":0,"TOWNNAME":"南區","LI":"郡南里","LIN":"18鄰","STREET":"德興路","SECT":" ","MAREA":" ","LANE":"１３９巷","ALLEY":" ","HOUSE_NO":"２０號","E_COORD97":167272.39999999999,"N_COORD97":2540450.3500000001,"ADDRESS":"德興路１３９巷２０號","OBJECTID":450758},"geometry":{"x":167272.4000000013,"y":2540450.3499999996}},{"attributes":{"ID":450784,"DIS_CODE":0,"TOWNNAME":"南區","LI":"郡南里","LIN":"18鄰","STREET":"德興路","SECT":" ","MAREA":" ","LANE":"１３９巷","ALLEY":" ","HOUSE_NO":"２２號","E_COORD97":167277.16,"N_COORD97":2540450.8300000001,"ADDRESS":"德興路１３９巷２２號","OBJECTID":450759},"geometry":{"x":167277.16000000108,"y":2540450.8300000001}},{"attributes":{"ID":450785,"DIS_CODE":0,"TOWNNAME":"南區","LI":"郡南里","LIN":"18鄰","STREET":"德興路","SECT":" ","MAREA":" ","LANE":"１３９巷","ALLEY":" ","HOUSE_NO":"２６之３號","E_COORD97":167295.42000000001,"N_COORD97":2540452.1000000001,"ADDRESS":"德興路１３９巷２６之３號","OBJECTID":450760},"geometry":{"x":167295.42000000086,"y":2540452.0999999996}},{"attributes":{"ID":450786,"DIS_CODE":0,"TOWNNAME":"南區","LI":"郡南里","LIN":"18鄰","STREET":"德興路","SECT":" ","MAREA":" ","LANE":"１６１巷","ALLEY":" ","HOUSE_NO":"２１號","E_COORD97":167279.22,"N_COORD97":2540414.8700000001,"ADDRESS":"德興路１６１巷２１號","OBJECTID":450761},"geometry":{"x":167279.2200000016,"y":2540414.870000001}},{"attributes":{"ID":450787,"DIS_CODE":0,"TOWNNAME":"東區","LI":"忠孝里","LIN":"18鄰","STREET":"榮譽街","SECT":" ","MAREA":" ","LANE":"１３１巷","ALLEY":" ","HOUSE_NO":"１號","E_COORD97":169949.38,"N_COORD97":2541887.4399999999,"ADDRESS":"榮譽街１３１巷１號","OBJECTID":450762},"geometry":{"x":169949.37999999989,"y":2541887.4399999995}},{"attributes":{"ID":450788,"DIS_CODE":0,"TOWNNAME":"東區","LI":"忠孝里","LIN":"18鄰","STREET":"榮譽街","SECT":" ","MAREA":" ","LANE":"１３１巷","ALLEY":" ","HOUSE_NO":"３３號","E_COORD97":170000.85999999999,"N_COORD97":2541919.6499999999,"ADDRESS":"榮譽街１３１巷３３號","OBJECTID":450763},"geometry":{"x":170000.86000000034,"y":2541919.6500000022}},{"attributes":{"ID":450789,"DIS_CODE":0,"TOWNNAME":"東區","LI":"忠孝里","LIN":"18鄰","STREET":"榮譽街","SECT":" ","MAREA":" ","LANE":"１３１巷","ALLEY":" ","HOUSE_NO":"３號","E_COORD97":169951.92000000001,"N_COORD97":2541888.6600000001,"ADDRESS":"榮譽街１３１巷３號","OBJECTID":450764},"geometry":{"x":169951.92000000086,"y":2541888.660000002}},{"attributes":{"ID":450790,"DIS_CODE":0,"TOWNNAME":"善化區","LI":"文昌里","LIN":"18鄰","STREET":"興華路","SECT":" ","MAREA":" ","LANE":"３１７巷","ALLEY":" ","HOUSE_NO":"８號","E_COORD97":177747.89999999999,"N_COORD97":2558461,"ADDRESS":"興華路３１７巷８號","OBJECTID":450765},"geometry":{"x":177747.90000000037,"y":2558461.0000000019}},{"attributes":{"ID":450791,"DIS_CODE":0,"TOWNNAME":"善化區","LI":"文昌里","LIN":"18鄰","STREET":"中正路","SECT":" ","MAREA":" ","LANE":"２６６巷","ALLEY":" ","HOUSE_NO":"６號","E_COORD97":177738.92999999999,"N_COORD97":2558406.25,"ADDRESS":"中正路２６６巷６號","OBJECTID":450766},"geometry":{"x":177738.93000000063,"y":2558406.25}},{"attributes":{"ID":450792,"DIS_CODE":0,"TOWNNAME":"善化區","LI":"文昌里","LIN":"18鄰","STREET":"中正路","SECT":" ","MAREA":" ","LANE":"２６６巷","ALLEY":" ","HOUSE_NO":"５號","E_COORD97":177741.06,"N_COORD97":2558418.25,"ADDRESS":"中正路２６６巷５號","OBJECTID":450767},"geometry":{"x":177741.06000000145,"y":2558418.2500000037}},{"attributes":{"ID":450793,"DIS_CODE":0,"TOWNNAME":"善化區","LI":"文昌里","LIN":"18鄰","STREET":"興華路","SECT":" ","MAREA":" ","LANE":"３１７巷","ALLEY":" ","HOUSE_NO":"９號","E_COORD97":177757.70999999999,"N_COORD97":2558454.25,"ADDRESS":"興華路３１７巷９號","OBJECTID":450768},"geometry":{"x":177757.71000000089,"y":2558454.25}},{"attributes":{"ID":450794,"DIS_CODE":0,"TOWNNAME":"善化區","LI":"文昌里","LIN":"18鄰","STREET":"興華路","SECT":" ","MAREA":" ","LANE":"３１７巷","ALLEY":" ","HOUSE_NO":"４號","E_COORD97":177746.59,"N_COORD97":2558471.5,"ADDRESS":"興華路３１７巷４號","OBJECTID":450769},"geometry":{"x":177746.59000000078,"y":2558471.5000000019}},{"attributes":{"ID":450795,"DIS_CODE":0,"TOWNNAME":"善化區","LI":"文昌里","LIN":"18鄰","STREET":"中正路","SECT":" ","MAREA":" ","LANE":"２６６巷","ALLEY":" ","HOUSE_NO":"２２號","E_COORD97":177771.62,"N_COORD97":2558407.75,"ADDRESS":"中正路２６６巷２２號","OBJECTID":450770},"geometry":{"x":177771.62000000011,"y":2558407.7499999981}},{"attributes":{"ID":450796,"DIS_CODE":0,"TOWNNAME":"善化區","LI":"文昌里","LIN":"18鄰","STREET":"興華路","SECT":" ","MAREA":" ","LANE":"３１７巷","ALLEY":" ","HOUSE_NO":"２號","E_COORD97":177745.98999999999,"N_COORD97":2558475.5,"ADDRESS":"興華路３１７巷２號","OBJECTID":450771},"geometry":{"x":177745.99000000115,"y":2558475.5000000019}},{"attributes":{"ID":450797,"DIS_CODE":0,"TOWNNAME":"善化區","LI":"文昌里","LIN":"18鄰","STREET":"中正路","SECT":" ","MAREA":" ","LANE":"２６６巷","ALLEY":" ","HOUSE_NO":"２號","E_COORD97":177730.89000000001,"N_COORD97":2558405.25,"ADDRESS":"中正路２６６巷２號","OBJECTID":450772},"geometry":{"x":177730.8900000006,"y":2558405.2500000019}},{"attributes":{"ID":450798,"DIS_CODE":0,"TOWNNAME":"善化區","LI":"文昌里","LIN":"18鄰","STREET":"中正路","SECT":" ","MAREA":" ","LANE":"２６６巷","ALLEY":" ","HOUSE_NO":"８號","E_COORD97":177742.78,"N_COORD97":2558406.75,"ADDRESS":"中正路２６６巷８號","OBJECTID":450773},"geometry":{"x":177742.78000000119,"y":2558406.75}},{"attributes":{"ID":450799,"DIS_CODE":0,"TOWNNAME":"東區","LI":"崇文里","LIN":"40鄰","STREET":"生產路","SECT":" ","MAREA":" ","LANE":" ","ALLEY":" ","HOUSE_NO":"２７３號三樓","E_COORD97":170903.01999999999,"N_COORD97":2540618.1099999999,"ADDRESS":"生產路２７３號三樓","OBJECTID":450774},"geometry":{"x":170903.02000000142,"y":2540618.1099999994}},{"attributes":{"ID":450800,"DIS_CODE":0,"TOWNNAME":"善化區","LI":"文昌里","LIN":"18鄰","STREET":"中正路","SECT":" ","MAREA":" ","LANE":"２６６巷","ALLEY":" ","HOUSE_NO":"１４號","E_COORD97":177755.23000000001,"N_COORD97":2558408.5,"ADDRESS":"中正路２６６巷１４號","OBJECTID":450775},"geometry":{"x":177755.23000000138,"y":2558408.5}},{"attributes":{"ID":450801,"DIS_CODE":0,"TOWNNAME":"善化區","LI":"文昌里","LIN":"18鄰","STREET":"中正路","SECT":" ","MAREA":" ","LANE":"２６６巷","ALLEY":" ","HOUSE_NO":"１號","E_COORD97":177732.95000000001,"N_COORD97":2558417,"ADDRESS":"中正路２６６巷１號","OBJECTID":450776},"geometry":{"x":177732.95000000112,"y":2558417.0000000019}},{"attributes":{"ID":450802,"DIS_CODE":0,"TOWNNAME":"仁德區","LI":"一甲里","LIN":"18鄰","STREET":"忠義路","SECT":" ","MAREA":" ","LANE":"２５１巷","ALLEY":" ","HOUSE_NO":"７之１號","E_COORD97":173847.45000000001,"N_COORD97":2541794.79,"ADDRESS":"忠義路２５１巷７之１號","OBJECTID":450777},"geometry":{"x":173847.45000000112,"y":2541794.790000001}},{"attributes":{"ID":450803,"DIS_CODE":0,"TOWNNAME":"官田區","LI":"隆本里","LIN":"18鄰","STREET":"忠孝街","SECT":" ","MAREA":" ","LANE":"１３１巷","ALLEY":" ","HOUSE_NO":"６號","E_COORD97":179982.95000000001,"N_COORD97":2566360.3300000001,"ADDRESS":"忠孝街１３１巷６號","OBJECTID":450778},"geometry":{"x":179982.95000000019,"y":2566360.3300000001}},{"attributes":{"ID":450804,"DIS_CODE":0,"TOWNNAME":"仁德區","LI":"大甲里","LIN":"18鄰","STREET":"行大一街","SECT":" ","MAREA":" ","LANE":"４６７巷","ALLEY":" ","HOUSE_NO":"６號","E_COORD97":169278.67000000001,"N_COORD97":2535234.25,"ADDRESS":"行大一街４６７巷６號","OBJECTID":450779},"geometry":{"x":169278.67000000086,"y":2535234.25}},{"attributes":{"ID":450805,"DIS_CODE":0,"TOWNNAME":"仁德區","LI":"土庫里","LIN":"18鄰","STREET":"土庫一街","SECT":" ","MAREA":" ","LANE":"２２巷","ALLEY":" ","HOUSE_NO":"１號","E_COORD97":174474.75,"N_COORD97":2543075.9900000002,"ADDRESS":"土庫一街２２巷１號","OBJECTID":450780},"geometry":{"x":174474.75,"y":2543075.9900000021}},{"attributes":{"ID":450806,"DIS_CODE":0,"TOWNNAME":"仁德區","LI":"大甲里","LIN":"18鄰","STREET":"行大一街","SECT":" ","MAREA":" ","LANE":"４６７巷","ALLEY":" ","HOUSE_NO":"１０號","E_COORD97":169279.23000000001,"N_COORD97":2535225.25,"ADDRESS":"行大一街４６７巷１０號","OBJECTID":450781},"geometry":{"x":169279.23000000138,"y":2535225.2500000019}},{"attributes":{"ID":450807,"DIS_CODE":0,"TOWNNAME":"仁德區","LI":"一甲里","LIN":"18鄰","STREET":"忠義路","SECT":" ","MAREA":" ","LANE":"２５１巷","ALLEY":" ","HOUSE_NO":"７之２號","E_COORD97":173852.70000000001,"N_COORD97":2541794.2999999998,"ADDRESS":"忠義路２５１巷７之２號","OBJECTID":450782},"geometry":{"x":173852.70000000112,"y":2541794.3000000007}},{"attributes":{"ID":450808,"DIS_CODE":0,"TOWNNAME":"仁德區","LI":"仁義里","LIN":"18鄰","STREET":"正義三街","SECT":" ","MAREA":" ","LANE":"２８６巷","ALLEY":" ","HOUSE_NO":"３７號","E_COORD97":174012.87,"N_COORD97":2541439.77,"ADDRESS":"正義三街２８６巷３７號","OBJECTID":450783},"geometry":{"x":174012.87000000011,"y":2541439.7700000014}},{"attributes":{"ID":450809,"DIS_CODE":0,"TOWNNAME":"仁德區","LI":"一甲里","LIN":"18鄰","STREET":"忠義路","SECT":" ","MAREA":" ","LANE":"２５１巷","ALLEY":" ","HOUSE_NO":"５號","E_COORD97":173839.70999999999,"N_COORD97":2541805.5099999998,"ADDRESS":"忠義路２５１巷５號","OBJECTID":450784},"geometry":{"x":173839.70999999996,"y":2541805.5099999998}},{"attributes":{"ID":450810,"DIS_CODE":0,"TOWNNAME":"仁德區","LI":"仁義里","LIN":"18鄰","STREET":"正義三街","SECT":" ","MAREA":" ","LANE":"２８６巷","ALLEY":" ","HOUSE_NO":"２９號","E_COORD97":174011.29000000001,"N_COORD97":2541464.4199999999,"ADDRESS":"正義三街２８６巷２９號","OBJECTID":450785},"geometry":{"x":174011.29000000097,"y":2541464.4199999999}},{"attributes":{"ID":450811,"DIS_CODE":0,"TOWNNAME":"仁德區","LI":"仁義里","LIN":"18鄰","STREET":"正義三街","SECT":" ","MAREA":" ","LANE":"２８６巷","ALLEY":" ","HOUSE_NO":"３３號","E_COORD97":174014.81,"N_COORD97":2541448.27,"ADDRESS":"正義三街２８６巷３３號","OBJECTID":450786},"geometry":{"x":174014.80999999959,"y":2541448.2699999996}},{"attributes":{"ID":450812,"DIS_CODE":0,"TOWNNAME":"佳里區","LI":"龍安里","LIN":"6鄰","STREET":" ","SECT":" ","MAREA":"塭子內","LANE":" ","ALLEY":" ","HOUSE_NO":"６６號之５","E_COORD97":164428.24147899999,"N_COORD97":2558312.9979900001,"ADDRESS":"塭子內６６號之５","OBJECTID":450787},"geometry":{"x":164428.24147900194,"y":2558312.9979950022}},{"attributes":{"ID":450813,"DIS_CODE":0,"TOWNNAME":"中西區","LI":"福安里","LIN":"18鄰","STREET":"永福路","SECT":"二段","MAREA":" ","LANE":"６３巷","ALLEY":" ","HOUSE_NO":"１１號","E_COORD97":168006.39000000001,"N_COORD97":2543569.8799999999,"ADDRESS":"永福路二段６３巷１１號","OBJECTID":450788},"geometry":{"x":168006.38999999966,"y":2543569.8800000027}},{"attributes":{"ID":450814,"DIS_CODE":0,"TOWNNAME":"中西區","LI":"福安里","LIN":"18鄰","STREET":"永福路","SECT":"二段","MAREA":" ","LANE":"６３巷","ALLEY":" ","HOUSE_NO":"１３號","E_COORD97":168007.06,"N_COORD97":2543572.54,"ADDRESS":"永福路二段６３巷１３號","OBJECTID":450789},"geometry":{"x":168007.05999999959,"y":2543572.540000001}},{"attributes":{"ID":450815,"DIS_CODE":0,"TOWNNAME":"中西區","LI":"福安里","LIN":"18鄰","STREET":"永福路","SECT":"二段","MAREA":" ","LANE":"６３巷","ALLEY":" ","HOUSE_NO":"１５號","E_COORD97":168007.85999999999,"N_COORD97":2543578.9100000001,"ADDRESS":"永福路二段６３巷１５號","OBJECTID":450790},"geometry":{"x":168007.8600000022,"y":2543578.910000002}},{"attributes":{"ID":450816,"DIS_CODE":0,"TOWNNAME":"東區","LI":"大智里","LIN":"20鄰","STREET":"崇善十四街","SECT":" ","MAREA":" ","LANE":"１巷","ALLEY":" ","HOUSE_NO":"７號","E_COORD97":171379.76999999999,"N_COORD97":2540650.4900000002,"ADDRESS":"崇善十四街１巷７號","OBJECTID":450791},"geometry":{"x":171379.77000000048,"y":2540650.4900000002}},{"attributes":{"ID":450817,"DIS_CODE":0,"TOWNNAME":"中西區","LI":"福安里","LIN":"18鄰","STREET":"永福路","SECT":"二段","MAREA":" ","LANE":"６３巷","ALLEY":" ","HOUSE_NO":"１７號","E_COORD97":168007.59,"N_COORD97":2543586,"ADDRESS":"永福路二段６３巷１７號","OBJECTID":450792},"geometry":{"x":168007.59000000078,"y":2543586}},{"attributes":{"ID":450818,"DIS_CODE":0,"TOWNNAME":"中西區","LI":"福安里","LIN":"18鄰","STREET":"永福路","SECT":"二段","MAREA":" ","LANE":"６３巷","ALLEY":" ","HOUSE_NO":"１９號","E_COORD97":168008.64999999999,"N_COORD97":2543590.9100000001,"ADDRESS":"永福路二段６３巷１９號","OBJECTID":450793},"geometry":{"x":168008.65000000037,"y":2543590.9100000039}},{"attributes":{"ID":450819,"DIS_CODE":0,"TOWNNAME":"中西區","LI":"福安里","LIN":"18鄰","STREET":"永福路","SECT":"二段","MAREA":" ","LANE":"６３巷","ALLEY":" ","HOUSE_NO":"２１號","E_COORD97":168011.84,"N_COORD97":2543601.1400000001,"ADDRESS":"永福路二段６３巷２１號","OBJECTID":450794},"geometry":{"x":168011.83999999985,"y":2543601.1400000025}},{"attributes":{"ID":450820,"DIS_CODE":0,"TOWNNAME":"中西區","LI":"福安里","LIN":"18鄰","STREET":"永福路","SECT":"二段","MAREA":" ","LANE":"６３巷","ALLEY":" ","HOUSE_NO":"２３號","E_COORD97":167999.48000000001,"N_COORD97":2543602.6000000001,"ADDRESS":"永福路二段６３巷２３號","OBJECTID":450795},"geometry":{"x":167999.48000000045,"y":2543602.5999999978}},{"attributes":{"ID":450821,"DIS_CODE":0,"TOWNNAME":"中西區","LI":"福安里","LIN":"18鄰","STREET":"永福路","SECT":"二段","MAREA":" ","LANE":"６３巷","ALLEY":" ","HOUSE_NO":"２５號","E_COORD97":167994.29999999999,"N_COORD97":2543602.6000000001,"ADDRESS":"永福路二段６３巷２５號","OBJECTID":450796},"geometry":{"x":167994.30000000075,"y":2543602.5999999978}},{"attributes":{"ID":450822,"DIS_CODE":0,"TOWNNAME":"中西區","LI":"福安里","LIN":"18鄰","STREET":"永福路","SECT":"二段","MAREA":" ","LANE":"６３巷","ALLEY":" ","HOUSE_NO":"２７號","E_COORD97":167988.17999999999,"N_COORD97":2543601.54,"ADDRESS":"永福路二段６３巷２７號","OBJECTID":450797},"geometry":{"x":167988.18000000063,"y":2543601.5399999991}},{"attributes":{"ID":450823,"DIS_CODE":0,"TOWNNAME":"中西區","LI":"福安里","LIN":"18鄰","STREET":"永福路","SECT":"二段","MAREA":" ","LANE":"６３巷","ALLEY":" ","HOUSE_NO":"２９號","E_COORD97":167959.20000000001,"N_COORD97":2543610.4399999999,"ADDRESS":"永福路二段６３巷２９號","OBJECTID":450798},"geometry":{"x":167959.20000000019,"y":2543610.4400000032}},{"attributes":{"ID":450824,"DIS_CODE":0,"TOWNNAME":"中西區","LI":"福安里","LIN":"18鄰","STREET":"永福路","SECT":"二段","MAREA":" ","LANE":"６３巷","ALLEY":" ","HOUSE_NO":"７號","E_COORD97":167995.64999999999,"N_COORD97":2543568.5299999998,"ADDRESS":"永福路二段６３巷７號","OBJECTID":450799},"geometry":{"x":167995.65000000224,"y":2543568.5299999993}},{"attributes":{"ID":450825,"DIS_CODE":0,"TOWNNAME":"中西區","LI":"福安里","LIN":"18鄰","STREET":"永福路","SECT":"二段","MAREA":" ","LANE":"６３巷","ALLEY":" ","HOUSE_NO":"９號","E_COORD97":168006.66,"N_COORD97":2543566.0299999998,"ADDRESS":"永福路二段６３巷９號","OBJECTID":450800},"geometry":{"x":168006.66000000015,"y":2543566.0300000012}}]}