{"displayFieldName":"TOWNNAME","fieldAliases":{"ID":"ID","DIS_CODE":"DIS_CODE","TOWNNAME":"TOWNNAME","LI":"LI","LIN":"LIN","STREET":"STREET","SECT":"SECT","MAREA":"MAREA","LANE":"LANE","ALLEY":"ALLEY","HOUSE_NO":"HOUSE_NO","E_COORD97":"E_COORD97","N_COORD97":"N_COORD97","ADDRESS":"ADDRESS","OBJECTID":"OBJECTID"},"geometryType":"esriGeometryPoint","spatialReference":{"wkid":102443,"latestWkid":3826},"fields":[{"name":"ID","type":"esriFieldTypeDouble","alias":"ID"},{"name":"DIS_CODE","type":"esriFieldTypeInteger","alias":"DIS_CODE"},{"name":"TOWNNAME","type":"esriFieldTypeString","alias":"TOWNNAME","length":8},{"name":"LI","type":"esriFieldTypeString","alias":"LI","length":8},{"name":"LIN","type":"esriFieldTypeString","alias":"LIN","length":12},{"name":"STREET","type":"esriFieldTypeString","alias":"STREET","length":20},{"name":"SECT","type":"esriFieldTypeString","alias":"SECT","length":8},{"name":"MAREA","type":"esriFieldTypeString","alias":"MAREA","length":12},{"name":"LANE","type":"esriFieldTypeString","alias":"LANE","length":10},{"name":"ALLEY","type":"esriFieldTypeString","alias":"ALLEY","length":10},{"name":"HOUSE_NO","type":"esriFieldTypeString","alias":"HOUSE_NO","length":20},{"name":"E_COORD97","type":"esriFieldTypeDouble","alias":"E_COORD97"},{"name":"N_COORD97","type":"esriFieldTypeDouble","alias":"N_COORD97"},{"name":"ADDRESS","type":"esriFieldTypeString","alias":"ADDRESS","length":50},{"name":"OBJECTID","type":"esriFieldTypeOID","alias":"OBJECTID"}],"features":[{"attributes":{"ID":372411,"DIS_CODE":0,"TOWNNAME":"安南區","LI":"長安里","LIN":"10鄰","STREET":"公學路","SECT":"二段","MAREA":" ","LANE":"１２５巷","ALLEY":" ","HOUSE_NO":"４５號","E_COORD97":167771.07999999999,"N_COORD97":2552184.8799999999,"ADDRESS":"公學路二段１２５巷４５號","OBJECTID":372401},"geometry":{"x":167771.08000000101,"y":2552184.8800000008}},{"attributes":{"ID":372412,"DIS_CODE":0,"TOWNNAME":"安南區","LI":"長安里","LIN":"10鄰","STREET":"公學路","SECT":"二段","MAREA":" ","LANE":"１２５巷","ALLEY":" ","HOUSE_NO":"４７號","E_COORD97":167778.12,"N_COORD97":2552189.4199999999,"ADDRESS":"公學路二段１２５巷４７號","OBJECTID":372402},"geometry":{"x":167778.12000000011,"y":2552189.4200000018}},{"attributes":{"ID":372413,"DIS_CODE":0,"TOWNNAME":"安南區","LI":"長安里","LIN":"10鄰","STREET":"公學路","SECT":"二段","MAREA":" ","LANE":"１２５巷","ALLEY":" ","HOUSE_NO":"４８號","E_COORD97":167735.26000000001,"N_COORD97":2552178.8500000001,"ADDRESS":"公學路二段１２５巷４８號","OBJECTID":372403},"geometry":{"x":167735.26000000071,"y":2552178.8500000034}},{"attributes":{"ID":372414,"DIS_CODE":0,"TOWNNAME":"永康區","LI":"西勢里","LIN":"22鄰","STREET":"富強路","SECT":"一段","MAREA":" ","LANE":"１９４巷","ALLEY":" ","HOUSE_NO":"７號","E_COORD97":175654.45999999999,"N_COORD97":2546315.2799999998,"ADDRESS":"富強路一段１９４巷７號","OBJECTID":372404},"geometry":{"x":175654.46000000089,"y":2546315.2799999993}},{"attributes":{"ID":372415,"DIS_CODE":0,"TOWNNAME":"安南區","LI":"長安里","LIN":"10鄰","STREET":"公學路","SECT":"二段","MAREA":" ","LANE":"１２５巷","ALLEY":" ","HOUSE_NO":"５０號","E_COORD97":167738.10999999999,"N_COORD97":2552175.1099999999,"ADDRESS":"公學路二段１２５巷５０號","OBJECTID":372405},"geometry":{"x":167738.11000000034,"y":2552175.1099999994}},{"attributes":{"ID":372416,"DIS_CODE":0,"TOWNNAME":"安南區","LI":"長安里","LIN":"10鄰","STREET":"公學路","SECT":"二段","MAREA":" ","LANE":"１２５巷","ALLEY":" ","HOUSE_NO":"６號","E_COORD97":167711.17999999999,"N_COORD97":2552231.1400000001,"ADDRESS":"公學路二段１２５巷６號","OBJECTID":372406},"geometry":{"x":167711.1799999997,"y":2552231.1400000006}},{"attributes":{"ID":372417,"DIS_CODE":0,"TOWNNAME":"永康區","LI":"南灣里","LIN":"10鄰","STREET":"大灣東路","SECT":" ","MAREA":" ","LANE":"２２巷","ALLEY":" ","HOUSE_NO":"１號","E_COORD97":174120.79000000001,"N_COORD97":2544256.5699999998,"ADDRESS":"大灣東路２２巷１號","OBJECTID":372407},"geometry":{"x":174120.7900000019,"y":2544256.5700000003}},{"attributes":{"ID":372418,"DIS_CODE":0,"TOWNNAME":"永康區","LI":"西灣里","LIN":"19鄰","STREET":"大安街","SECT":" ","MAREA":" ","LANE":"２９３巷","ALLEY":" ","HOUSE_NO":"８２號","E_COORD97":174517.98999999999,"N_COORD97":2545636.1000000001,"ADDRESS":"大安街２９３巷８２號","OBJECTID":372408},"geometry":{"x":174517.99000000209,"y":2545636.0999999996}},{"attributes":{"ID":372419,"DIS_CODE":0,"TOWNNAME":"永康區","LI":"網寮里","LIN":"10鄰","STREET":"永二街","SECT":" ","MAREA":" ","LANE":"２４４巷","ALLEY":" ","HOUSE_NO":"１６號","E_COORD97":173293.19,"N_COORD97":2546437.8599999999,"ADDRESS":"永二街２４４巷１６號","OBJECTID":372409},"geometry":{"x":173293.19000000134,"y":2546437.8599999994}},{"attributes":{"ID":372420,"DIS_CODE":0,"TOWNNAME":"永康區","LI":"西勢里","LIN":"10鄰","STREET":"西勢路","SECT":" ","MAREA":" ","LANE":"１４３巷","ALLEY":" ","HOUSE_NO":"６號","E_COORD97":175964.79000000001,"N_COORD97":2546736.2799999998,"ADDRESS":"西勢路１４３巷６號","OBJECTID":372410},"geometry":{"x":175964.79000000004,"y":2546736.2799999993}},{"attributes":{"ID":372421,"DIS_CODE":0,"TOWNNAME":"永康區","LI":"安康里","LIN":"10鄰","STREET":"中華路","SECT":" ","MAREA":" ","LANE":"６１９巷","ALLEY":" ","HOUSE_NO":"４３號","E_COORD97":170899.95999999999,"N_COORD97":2546004.75,"ADDRESS":"中華路６１９巷４３號","OBJECTID":372411},"geometry":{"x":170899.95999999996,"y":2546004.75}},{"attributes":{"ID":372422,"DIS_CODE":0,"TOWNNAME":"永康區","LI":"王行里","LIN":"10鄰","STREET":"王行路","SECT":" ","MAREA":" ","LANE":"１０１８巷","ALLEY":" ","HOUSE_NO":"６０號","E_COORD97":175771.82999999999,"N_COORD97":2550210.4900000002,"ADDRESS":"王行路１０１８巷６０號","OBJECTID":372412},"geometry":{"x":175771.83000000101,"y":2550210.4900000002}},{"attributes":{"ID":372423,"DIS_CODE":0,"TOWNNAME":"永康區","LI":"西勢里","LIN":"10鄰","STREET":"西勢路","SECT":" ","MAREA":" ","LANE":"１４３巷","ALLEY":" ","HOUSE_NO":"１１號","E_COORD97":175981.60000000001,"N_COORD97":2546716.7000000002,"ADDRESS":"西勢路１４３巷１１號","OBJECTID":372413},"geometry":{"x":175981.60000000056,"y":2546716.6999999993}},{"attributes":{"ID":372424,"DIS_CODE":0,"TOWNNAME":"永康區","LI":"南灣里","LIN":"10鄰","STREET":"南興路","SECT":" ","MAREA":" ","LANE":"３巷","ALLEY":" ","HOUSE_NO":"７之１號","E_COORD97":173905.42000000001,"N_COORD97":2543826.77,"ADDRESS":"南興路３巷７之１號","OBJECTID":372414},"geometry":{"x":173905.41999999993,"y":2543826.7700000014}},{"attributes":{"ID":372425,"DIS_CODE":0,"TOWNNAME":"安南區","LI":"佃東里","LIN":"10鄰","STREET":"公學路","SECT":"四段","MAREA":" ","LANE":"１７８巷","ALLEY":" ","HOUSE_NO":"１２號之１","E_COORD97":165547.85999999999,"N_COORD97":2552001.2400000002,"ADDRESS":"公學路四段１７８巷１２號之１","OBJECTID":372415},"geometry":{"x":165547.86000000034,"y":2552001.2400000021}},{"attributes":{"ID":372426,"DIS_CODE":0,"TOWNNAME":"安南區","LI":"溪墘里","LIN":"10鄰","STREET":"海佃路","SECT":"一段","MAREA":" ","LANE":"２７０巷","ALLEY":" ","HOUSE_NO":"１號之１","E_COORD97":167140.01000000001,"N_COORD97":2547413.77,"ADDRESS":"海佃路一段２７０巷１號之１","OBJECTID":372416},"geometry":{"x":167140.01000000164,"y":2547413.7700000014}},{"attributes":{"ID":372427,"DIS_CODE":0,"TOWNNAME":"安南區","LI":"溪墘里","LIN":"10鄰","STREET":"海佃路","SECT":"一段","MAREA":" ","LANE":"２７０巷","ALLEY":" ","HOUSE_NO":"１號之２","E_COORD97":167145.34,"N_COORD97":2547413.77,"ADDRESS":"海佃路一段２７０巷１號之２","OBJECTID":372417},"geometry":{"x":167145.34000000078,"y":2547413.7700000014}},{"attributes":{"ID":372428,"DIS_CODE":0,"TOWNNAME":"安南區","LI":"理想里","LIN":"10鄰","STREET":"海佃路","SECT":"二段","MAREA":" ","LANE":"１５０巷","ALLEY":" ","HOUSE_NO":"２０號","E_COORD97":167050.73999999999,"N_COORD97":2548152.6699999999,"ADDRESS":"海佃路二段１５０巷２０號","OBJECTID":372418},"geometry":{"x":167050.74000000209,"y":2548152.6700000037}},{"attributes":{"ID":372429,"DIS_CODE":0,"TOWNNAME":"安南區","LI":"理想里","LIN":"10鄰","STREET":"海佃路","SECT":"二段","MAREA":" ","LANE":"１５０巷","ALLEY":" ","HOUSE_NO":"２２號","E_COORD97":167051.92999999999,"N_COORD97":2548156.2200000002,"ADDRESS":"海佃路二段１５０巷２２號","OBJECTID":372419},"geometry":{"x":167051.9299999997,"y":2548156.2200000044}},{"attributes":{"ID":372430,"DIS_CODE":0,"TOWNNAME":"安南區","LI":"理想里","LIN":"10鄰","STREET":"海佃路","SECT":"二段","MAREA":" ","LANE":"１５０巷","ALLEY":" ","HOUSE_NO":"２４號","E_COORD97":167053.89999999999,"N_COORD97":2548160.3500000001,"ADDRESS":"海佃路二段１５０巷２４號","OBJECTID":372420},"geometry":{"x":167053.9000000013,"y":2548160.3499999996}},{"attributes":{"ID":372431,"DIS_CODE":0,"TOWNNAME":"安南區","LI":"理想里","LIN":"10鄰","STREET":"海佃路","SECT":"二段","MAREA":" ","LANE":"１５０巷","ALLEY":" ","HOUSE_NO":"２６號","E_COORD97":167054.69,"N_COORD97":2548164.29,"ADDRESS":"海佃路二段１５０巷２６號","OBJECTID":372421},"geometry":{"x":167054.69000000227,"y":2548164.2900000028}},{"attributes":{"ID":372432,"DIS_CODE":0,"TOWNNAME":"仁德區","LI":"後壁里","LIN":"10鄰","STREET":"民安路","SECT":"二段","MAREA":" ","LANE":"１８２巷","ALLEY":" ","HOUSE_NO":"３０號","E_COORD97":173735,"N_COORD97":2538867.8199999998,"ADDRESS":"民安路二段１８２巷３０號","OBJECTID":372422},"geometry":{"x":173735.00000000093,"y":2538867.8200000003}},{"attributes":{"ID":372433,"DIS_CODE":0,"TOWNNAME":"中西區","LI":"赤嵌里","LIN":"10鄰","STREET":"公園路","SECT":" ","MAREA":" ","LANE":"１２３巷","ALLEY":" ","HOUSE_NO":"２號","E_COORD97":168601.59,"N_COORD97":2544165.9300000002,"ADDRESS":"公園路１２３巷２號","OBJECTID":372423},"geometry":{"x":168601.58999999985,"y":2544165.9299999997}},{"attributes":{"ID":372434,"DIS_CODE":0,"TOWNNAME":"永康區","LI":"西橋里","LIN":"5鄰","STREET":"中華西街","SECT":" ","MAREA":" ","LANE":"２１巷","ALLEY":" ","HOUSE_NO":"２２號","E_COORD97":170723.01000000001,"N_COORD97":2545920,"ADDRESS":"中華西街２１巷２２號","OBJECTID":372424},"geometry":{"x":170723.00999999978,"y":2545920.0000000019}},{"attributes":{"ID":372435,"DIS_CODE":0,"TOWNNAME":"永康區","LI":"西橋里","LIN":"14鄰","STREET":"大橋一街","SECT":" ","MAREA":" ","LANE":"３１巷","ALLEY":" ","HOUSE_NO":"４６號","E_COORD97":170580.89999999999,"N_COORD97":2546355.4900000002,"ADDRESS":"大橋一街３１巷４６號","OBJECTID":372425},"geometry":{"x":170580.90000000224,"y":2546355.4900000002}},{"attributes":{"ID":372436,"DIS_CODE":0,"TOWNNAME":"中西區","LI":"西賢里","LIN":"10鄰","STREET":"西賢一街","SECT":" ","MAREA":" ","LANE":"１４８巷","ALLEY":" ","HOUSE_NO":"１１號","E_COORD97":165786.89999999999,"N_COORD97":2544756.75,"ADDRESS":"西賢一街１４８巷１１號","OBJECTID":372426},"geometry":{"x":165786.90000000224,"y":2544756.75}},{"attributes":{"ID":372437,"DIS_CODE":0,"TOWNNAME":"中西區","LI":"西賢里","LIN":"10鄰","STREET":"西賢一街","SECT":" ","MAREA":" ","LANE":"１４８巷","ALLEY":" ","HOUSE_NO":"９號","E_COORD97":165781.94,"N_COORD97":2544756.6200000001,"ADDRESS":"西賢一街１４８巷９號","OBJECTID":372427},"geometry":{"x":165781.94000000134,"y":2544756.6199999992}},{"attributes":{"ID":372438,"DIS_CODE":0,"TOWNNAME":"中西區","LI":"西賢里","LIN":"10鄰","STREET":"西賢一街","SECT":" ","MAREA":" ","LANE":"１４８巷","ALLEY":" ","HOUSE_NO":"７號","E_COORD97":165777.88,"N_COORD97":2544756.2400000002,"ADDRESS":"西賢一街１４８巷７號","OBJECTID":372428},"geometry":{"x":165777.87999999896,"y":2544756.2400000021}},{"attributes":{"ID":372439,"DIS_CODE":0,"TOWNNAME":"永康區","LI":"西橋里","LIN":"17鄰","STREET":"大橋一街","SECT":" ","MAREA":" ","LANE":"３１巷","ALLEY":" ","HOUSE_NO":"４３號","E_COORD97":170575.54999999999,"N_COORD97":2546379.7400000002,"ADDRESS":"大橋一街３１巷４３號","OBJECTID":372429},"geometry":{"x":170575.54999999981,"y":2546379.7400000021}},{"attributes":{"ID":372440,"DIS_CODE":0,"TOWNNAME":"安南區","LI":"原佃里","LIN":"10鄰","STREET":"本原街","SECT":"一段","MAREA":" ","LANE":"４８２巷","ALLEY":" ","HOUSE_NO":"１３號","E_COORD97":167340.85000000001,"N_COORD97":2550547.7999999998,"ADDRESS":"本原街一段４８２巷１３號","OBJECTID":372430},"geometry":{"x":167340.85000000149,"y":2550547.8000000007}},{"attributes":{"ID":372441,"DIS_CODE":0,"TOWNNAME":"安南區","LI":"安慶里","LIN":"10鄰","STREET":"長溪路","SECT":"一段","MAREA":" ","LANE":"３０３巷","ALLEY":" ","HOUSE_NO":"１１號","E_COORD97":168767.78,"N_COORD97":2548727.2200000002,"ADDRESS":"長溪路一段３０３巷１１號","OBJECTID":372431},"geometry":{"x":168767.78000000212,"y":2548727.2200000025}},{"attributes":{"ID":372442,"DIS_CODE":0,"TOWNNAME":"安南區","LI":"安慶里","LIN":"10鄰","STREET":"長溪路","SECT":"一段","MAREA":" ","LANE":"３０３巷","ALLEY":" ","HOUSE_NO":"１２號","E_COORD97":168743.35999999999,"N_COORD97":2548748.79,"ADDRESS":"長溪路一段３０３巷１２號","OBJECTID":372432},"geometry":{"x":168743.36000000034,"y":2548748.790000001}},{"attributes":{"ID":372443,"DIS_CODE":0,"TOWNNAME":"安南區","LI":"安慶里","LIN":"10鄰","STREET":"長溪路","SECT":"一段","MAREA":" ","LANE":"３０３巷","ALLEY":" ","HOUSE_NO":"１３號","E_COORD97":168766.29999999999,"N_COORD97":2548722.9300000002,"ADDRESS":"長溪路一段３０３巷１３號","OBJECTID":372433},"geometry":{"x":168766.29999999981,"y":2548722.9299999997}},{"attributes":{"ID":372444,"DIS_CODE":0,"TOWNNAME":"安南區","LI":"安慶里","LIN":"10鄰","STREET":"長溪路","SECT":"一段","MAREA":" ","LANE":"３０３巷","ALLEY":" ","HOUSE_NO":"１４號","E_COORD97":168741.22,"N_COORD97":2548744.0600000001,"ADDRESS":"長溪路一段３０３巷１４號","OBJECTID":372434},"geometry":{"x":168741.22000000067,"y":2548744.0600000042}},{"attributes":{"ID":372445,"DIS_CODE":0,"TOWNNAME":"安南區","LI":"安慶里","LIN":"10鄰","STREET":"長溪路","SECT":"一段","MAREA":" ","LANE":"３０３巷","ALLEY":" ","HOUSE_NO":"１５號","E_COORD97":168766.29999999999,"N_COORD97":2548718.3500000001,"ADDRESS":"長溪路一段３０３巷１５號","OBJECTID":372435},"geometry":{"x":168766.29999999981,"y":2548718.3500000015}},{"attributes":{"ID":372446,"DIS_CODE":0,"TOWNNAME":"安南區","LI":"安慶里","LIN":"10鄰","STREET":"長溪路","SECT":"一段","MAREA":" ","LANE":"３０３巷","ALLEY":" ","HOUSE_NO":"１６號","E_COORD97":168741.41,"N_COORD97":2548739.8399999999,"ADDRESS":"長溪路一段３０３巷１６號","OBJECTID":372436},"geometry":{"x":168741.41000000201,"y":2548739.8399999999}},{"attributes":{"ID":372447,"DIS_CODE":0,"TOWNNAME":"安南區","LI":"安慶里","LIN":"10鄰","STREET":"長溪路","SECT":"一段","MAREA":" ","LANE":"３０３巷","ALLEY":" ","HOUSE_NO":"１７號","E_COORD97":168766.14999999999,"N_COORD97":2548713.6099999999,"ADDRESS":"長溪路一段３０３巷１７號","OBJECTID":372437},"geometry":{"x":168766.1500000013,"y":2548713.6099999994}},{"attributes":{"ID":372448,"DIS_CODE":0,"TOWNNAME":"安南區","LI":"安慶里","LIN":"10鄰","STREET":"長溪路","SECT":"一段","MAREA":" ","LANE":"３０３巷","ALLEY":" ","HOUSE_NO":"１８號","E_COORD97":168741.32000000001,"N_COORD97":2548735.3900000001,"ADDRESS":"長溪路一段３０３巷１８號","OBJECTID":372438},"geometry":{"x":168741.3200000003,"y":2548735.3900000025}},{"attributes":{"ID":372449,"DIS_CODE":0,"TOWNNAME":"安南區","LI":"安慶里","LIN":"10鄰","STREET":"長溪路","SECT":"一段","MAREA":" ","LANE":"３０３巷","ALLEY":" ","HOUSE_NO":"１９號","E_COORD97":168765.10999999999,"N_COORD97":2548709.02,"ADDRESS":"長溪路一段３０３巷１９號","OBJECTID":372439},"geometry":{"x":168765.11000000034,"y":2548709.0200000033}},{"attributes":{"ID":372450,"DIS_CODE":0,"TOWNNAME":"安南區","LI":"安慶里","LIN":"10鄰","STREET":"長溪路","SECT":"一段","MAREA":" ","LANE":"３０３巷","ALLEY":" ","HOUSE_NO":"１號","E_COORD97":168768.95999999999,"N_COORD97":2548750.1600000001,"ADDRESS":"長溪路一段３０３巷１號","OBJECTID":372440},"geometry":{"x":168768.95999999996,"y":2548750.160000002}},{"attributes":{"ID":372451,"DIS_CODE":0,"TOWNNAME":"安南區","LI":"安慶里","LIN":"10鄰","STREET":"長溪路","SECT":"一段","MAREA":" ","LANE":"３０３巷","ALLEY":" ","HOUSE_NO":"２０號","E_COORD97":168739.89999999999,"N_COORD97":2548730.8599999999,"ADDRESS":"長溪路一段３０３巷２０號","OBJECTID":372441},"geometry":{"x":168739.90000000224,"y":2548730.8600000013}},{"attributes":{"ID":372452,"DIS_CODE":0,"TOWNNAME":"安南區","LI":"安慶里","LIN":"10鄰","STREET":"長溪路","SECT":"一段","MAREA":" ","LANE":"３０３巷","ALLEY":" ","HOUSE_NO":"２１號","E_COORD97":168765.41,"N_COORD97":2548704.4399999999,"ADDRESS":"長溪路一段３０３巷２１號","OBJECTID":372442},"geometry":{"x":168765.41000000108,"y":2548704.4400000013}},{"attributes":{"ID":372453,"DIS_CODE":0,"TOWNNAME":"安南區","LI":"安慶里","LIN":"10鄰","STREET":"長溪路","SECT":"一段","MAREA":" ","LANE":"３０３巷","ALLEY":" ","HOUSE_NO":"２２號","E_COORD97":168739.45999999999,"N_COORD97":2548726.6200000001,"ADDRESS":"長溪路一段３０３巷２２號","OBJECTID":372443},"geometry":{"x":168739.46000000089,"y":2548726.620000001}},{"attributes":{"ID":372454,"DIS_CODE":0,"TOWNNAME":"安南區","LI":"安慶里","LIN":"10鄰","STREET":"長溪路","SECT":"一段","MAREA":" ","LANE":"３０３巷","ALLEY":" ","HOUSE_NO":"２３號","E_COORD97":168764.07999999999,"N_COORD97":2548700.4399999999,"ADDRESS":"長溪路一段３０３巷２３號","OBJECTID":372444},"geometry":{"x":168764.08000000101,"y":2548700.4400000013}},{"attributes":{"ID":372455,"DIS_CODE":0,"TOWNNAME":"安南區","LI":"安慶里","LIN":"10鄰","STREET":"長溪路","SECT":"一段","MAREA":" ","LANE":"３０３巷","ALLEY":" ","HOUSE_NO":"２４號","E_COORD97":168742.10999999999,"N_COORD97":2548719.1499999999,"ADDRESS":"長溪路一段３０３巷２４號","OBJECTID":372445},"geometry":{"x":168742.11000000127,"y":2548719.1499999985}},{"attributes":{"ID":372456,"DIS_CODE":0,"TOWNNAME":"安南區","LI":"安慶里","LIN":"10鄰","STREET":"長溪路","SECT":"一段","MAREA":" ","LANE":"３０３巷","ALLEY":" ","HOUSE_NO":"２號","E_COORD97":168743.82000000001,"N_COORD97":2548771.7999999998,"ADDRESS":"長溪路一段３０３巷２號","OBJECTID":372446},"geometry":{"x":168743.82000000216,"y":2548771.8000000007}},{"attributes":{"ID":372457,"DIS_CODE":0,"TOWNNAME":"安南區","LI":"安慶里","LIN":"10鄰","STREET":"長溪路","SECT":"一段","MAREA":" ","LANE":"３０３巷","ALLEY":" ","HOUSE_NO":"３號","E_COORD97":168768.95999999999,"N_COORD97":2548744.8300000001,"ADDRESS":"長溪路一段３０３巷３號","OBJECTID":372447},"geometry":{"x":168768.95999999996,"y":2548744.8300000038}},{"attributes":{"ID":372458,"DIS_CODE":0,"TOWNNAME":"安南區","LI":"安慶里","LIN":"10鄰","STREET":"長溪路","SECT":"一段","MAREA":" ","LANE":"３０３巷","ALLEY":" ","HOUSE_NO":"４號","E_COORD97":168744.10000000001,"N_COORD97":2548766.5099999998,"ADDRESS":"長溪路一段３０３巷４號","OBJECTID":372448},"geometry":{"x":168744.09999999963,"y":2548766.5099999998}},{"attributes":{"ID":372459,"DIS_CODE":0,"TOWNNAME":"安南區","LI":"安慶里","LIN":"10鄰","STREET":"長溪路","SECT":"一段","MAREA":" ","LANE":"３０３巷","ALLEY":" ","HOUSE_NO":"５號","E_COORD97":168767.48000000001,"N_COORD97":2548741.1299999999,"ADDRESS":"長溪路一段３０３巷５號","OBJECTID":372449},"geometry":{"x":168767.48000000045,"y":2548741.129999999}},{"attributes":{"ID":372460,"DIS_CODE":0,"TOWNNAME":"安南區","LI":"安慶里","LIN":"10鄰","STREET":"長溪路","SECT":"一段","MAREA":" ","LANE":"３０３巷","ALLEY":" ","HOUSE_NO":"６號","E_COORD97":168743.35999999999,"N_COORD97":2548762.1499999999,"ADDRESS":"長溪路一段３０３巷６號","OBJECTID":372450},"geometry":{"x":168743.36000000034,"y":2548762.1500000004}},{"attributes":{"ID":372461,"DIS_CODE":0,"TOWNNAME":"安南區","LI":"安慶里","LIN":"10鄰","STREET":"長溪路","SECT":"一段","MAREA":" ","LANE":"３０３巷","ALLEY":" ","HOUSE_NO":"７號","E_COORD97":168767.78,"N_COORD97":2548736.1000000001,"ADDRESS":"長溪路一段３０３巷７號","OBJECTID":372451},"geometry":{"x":168767.78000000212,"y":2548736.1000000015}},{"attributes":{"ID":372462,"DIS_CODE":0,"TOWNNAME":"安南區","LI":"安慶里","LIN":"10鄰","STREET":"長溪路","SECT":"一段","MAREA":" ","LANE":"３０３巷","ALLEY":" ","HOUSE_NO":"８號","E_COORD97":168743.35999999999,"N_COORD97":2548757.7000000002,"ADDRESS":"長溪路一段３０３巷８號","OBJECTID":372452},"geometry":{"x":168743.36000000034,"y":2548757.6999999993}},{"attributes":{"ID":372463,"DIS_CODE":0,"TOWNNAME":"安南區","LI":"安慶里","LIN":"10鄰","STREET":"長溪路","SECT":"一段","MAREA":" ","LANE":"３０３巷","ALLEY":" ","HOUSE_NO":"９號","E_COORD97":168767.48000000001,"N_COORD97":2548731.3700000001,"ADDRESS":"長溪路一段３０３巷９號","OBJECTID":372453},"geometry":{"x":168767.48000000045,"y":2548731.370000001}},{"attributes":{"ID":372464,"DIS_CODE":0,"TOWNNAME":"安南區","LI":"新順里","LIN":"10鄰","STREET":"政安路","SECT":" ","MAREA":" ","LANE":"６０巷","ALLEY":" ","HOUSE_NO":"２號","E_COORD97":169866.32999999999,"N_COORD97":2548998.7000000002,"ADDRESS":"政安路６０巷２號","OBJECTID":372454},"geometry":{"x":169866.33000000101,"y":2548998.6999999993}},{"attributes":{"ID":372465,"DIS_CODE":0,"TOWNNAME":"佳里區","LI":"鎮山里","LIN":"10鄰","STREET":"仁愛路","SECT":" ","MAREA":" ","LANE":"２７２巷","ALLEY":" ","HOUSE_NO":"２７號","E_COORD97":166152.67000000001,"N_COORD97":2561537.2799999998,"ADDRESS":"仁愛路２７２巷２７號","OBJECTID":372455},"geometry":{"x":166152.67000000086,"y":2561537.2800000012}},{"attributes":{"ID":372466,"DIS_CODE":0,"TOWNNAME":"佳里區","LI":"鎮山里","LIN":"10鄰","STREET":"仁愛路","SECT":" ","MAREA":" ","LANE":"２７２巷","ALLEY":" ","HOUSE_NO":"９號","E_COORD97":166112.95000000001,"N_COORD97":2561526.8799999999,"ADDRESS":"仁愛路２７２巷９號","OBJECTID":372456},"geometry":{"x":166112.95000000019,"y":2561526.879999999}},{"attributes":{"ID":372467,"DIS_CODE":0,"TOWNNAME":"永康區","LI":"西橋里","LIN":"9鄰","STREET":"中華西街","SECT":" ","MAREA":" ","LANE":"８５巷","ALLEY":" ","HOUSE_NO":"１８號","E_COORD97":170650.37,"N_COORD97":2546066.7400000002,"ADDRESS":"中華西街８５巷１８號","OBJECTID":372457},"geometry":{"x":170650.37000000197,"y":2546066.7400000002}},{"attributes":{"ID":372468,"DIS_CODE":0,"TOWNNAME":"永康區","LI":"西灣里","LIN":"38鄰","STREET":"大勇路","SECT":" ","MAREA":" ","LANE":"１３５巷","ALLEY":" ","HOUSE_NO":"２７號","E_COORD97":174180.73999999999,"N_COORD97":2545635.6099999999,"ADDRESS":"大勇路１３５巷２７號","OBJECTID":372458},"geometry":{"x":174180.74000000209,"y":2545635.6099999994}},{"attributes":{"ID":372469,"DIS_CODE":0,"TOWNNAME":"永康區","LI":"西橋里","LIN":"6鄰","STREET":"中華西街","SECT":" ","MAREA":" ","LANE":"６３巷","ALLEY":" ","HOUSE_NO":"５０號","E_COORD97":170644.42999999999,"N_COORD97":2545966.9900000002,"ADDRESS":"中華西街６３巷５０號","OBJECTID":372459},"geometry":{"x":170644.43000000156,"y":2545966.9899999984}},{"attributes":{"ID":372470,"DIS_CODE":0,"TOWNNAME":"東區","LI":"復興里","LIN":"10鄰","STREET":"裕文路","SECT":" ","MAREA":" ","LANE":"２２巷","ALLEY":" ","HOUSE_NO":"７號","E_COORD97":171864.81,"N_COORD97":2542556.6099999999,"ADDRESS":"裕文路２２巷７號","OBJECTID":372460},"geometry":{"x":171864.80999999959,"y":2542556.6099999994}},{"attributes":{"ID":372471,"DIS_CODE":0,"TOWNNAME":"東區","LI":"復興里","LIN":"10鄰","STREET":"裕文路","SECT":" ","MAREA":" ","LANE":"２２巷","ALLEY":" ","HOUSE_NO":"１２號","E_COORD97":171836.92999999999,"N_COORD97":2542554.2200000002,"ADDRESS":"裕文路２２巷１２號","OBJECTID":372461},"geometry":{"x":171836.9299999997,"y":2542554.2200000007}},{"attributes":{"ID":372472,"DIS_CODE":0,"TOWNNAME":"東區","LI":"復興里","LIN":"10鄰","STREET":"裕文路","SECT":" ","MAREA":" ","LANE":"２２巷","ALLEY":" ","HOUSE_NO":"１３號","E_COORD97":171865.60000000001,"N_COORD97":2542545.0800000001,"ADDRESS":"裕文路２２巷１３號","OBJECTID":372462},"geometry":{"x":171865.60000000056,"y":2542545.0800000001}},{"attributes":{"ID":372473,"DIS_CODE":0,"TOWNNAME":"東區","LI":"復興里","LIN":"10鄰","STREET":"裕文路","SECT":" ","MAREA":" ","LANE":"２２巷","ALLEY":" ","HOUSE_NO":"１４號","E_COORD97":171836.92999999999,"N_COORD97":2542550.25,"ADDRESS":"裕文路２２巷１４號","OBJECTID":372463},"geometry":{"x":171836.9299999997,"y":2542550.25}},{"attributes":{"ID":372474,"DIS_CODE":0,"TOWNNAME":"東區","LI":"復興里","LIN":"10鄰","STREET":"裕文路","SECT":" ","MAREA":" ","LANE":"２２巷","ALLEY":" ","HOUSE_NO":"１５號","E_COORD97":171866.79999999999,"N_COORD97":2542541.1000000001,"ADDRESS":"裕文路２２巷１５號","OBJECTID":372464},"geometry":{"x":171866.79999999981,"y":2542541.0999999996}},{"attributes":{"ID":372475,"DIS_CODE":0,"TOWNNAME":"東區","LI":"復興里","LIN":"10鄰","STREET":"裕文路","SECT":" ","MAREA":" ","LANE":"２２巷","ALLEY":" ","HOUSE_NO":"１６號","E_COORD97":171842.10999999999,"N_COORD97":2542545.8700000001,"ADDRESS":"裕文路２２巷１６號","OBJECTID":372465},"geometry":{"x":171842.11000000034,"y":2542545.8700000029}},{"attributes":{"ID":372476,"DIS_CODE":0,"TOWNNAME":"東區","LI":"復興里","LIN":"10鄰","STREET":"裕文路","SECT":" ","MAREA":" ","LANE":"２２巷","ALLEY":" ","HOUSE_NO":"１７號","E_COORD97":171867.59,"N_COORD97":2542537.1200000001,"ADDRESS":"裕文路２２巷１７號","OBJECTID":372466},"geometry":{"x":171867.59000000078,"y":2542537.1200000029}},{"attributes":{"ID":372477,"DIS_CODE":0,"TOWNNAME":"東區","LI":"復興里","LIN":"10鄰","STREET":"裕文路","SECT":" ","MAREA":" ","LANE":"２２巷","ALLEY":" ","HOUSE_NO":"１８號","E_COORD97":171841.31,"N_COORD97":2542541.8999999999,"ADDRESS":"裕文路２２巷１８號","OBJECTID":372467},"geometry":{"x":171841.30999999959,"y":2542541.9000000022}},{"attributes":{"ID":372478,"DIS_CODE":0,"TOWNNAME":"東區","LI":"復興里","LIN":"10鄰","STREET":"裕文路","SECT":" ","MAREA":" ","LANE":"２２巷","ALLEY":" ","HOUSE_NO":"１９號","E_COORD97":171867.98999999999,"N_COORD97":2542533.54,"ADDRESS":"裕文路２２巷１９號","OBJECTID":372468},"geometry":{"x":171867.99000000022,"y":2542533.5399999991}},{"attributes":{"ID":372479,"DIS_CODE":0,"TOWNNAME":"東區","LI":"復興里","LIN":"10鄰","STREET":"裕文路","SECT":" ","MAREA":" ","LANE":"２２巷","ALLEY":" ","HOUSE_NO":"１號","E_COORD97":171867.98999999999,"N_COORD97":2542568.9399999999,"ADDRESS":"裕文路２２巷１號","OBJECTID":372469},"geometry":{"x":171867.99000000022,"y":2542568.9399999995}},{"attributes":{"ID":372480,"DIS_CODE":0,"TOWNNAME":"東區","LI":"復興里","LIN":"10鄰","STREET":"裕文路","SECT":" ","MAREA":" ","LANE":"２２巷","ALLEY":" ","HOUSE_NO":"２０號","E_COORD97":171840.51999999999,"N_COORD97":2542537.9199999999,"ADDRESS":"裕文路２２巷２０號","OBJECTID":372470},"geometry":{"x":171840.52000000142,"y":2542537.9200000018}},{"attributes":{"ID":372481,"DIS_CODE":0,"TOWNNAME":"東區","LI":"復興里","LIN":"10鄰","STREET":"裕文路","SECT":" ","MAREA":" ","LANE":"２２巷","ALLEY":" ","HOUSE_NO":"２１號","E_COORD97":171867.20000000001,"N_COORD97":2542528.3700000001,"ADDRESS":"裕文路２２巷２１號","OBJECTID":372471},"geometry":{"x":171867.20000000112,"y":2542528.3700000029}},{"attributes":{"ID":372482,"DIS_CODE":0,"TOWNNAME":"東區","LI":"復興里","LIN":"10鄰","STREET":"裕文路","SECT":" ","MAREA":" ","LANE":"２２巷","ALLEY":" ","HOUSE_NO":"２２號","E_COORD97":171840.91,"N_COORD97":2542533.9399999999,"ADDRESS":"裕文路２２巷２２號","OBJECTID":372472},"geometry":{"x":171840.91000000108,"y":2542533.9400000013}},{"attributes":{"ID":372483,"DIS_CODE":0,"TOWNNAME":"永康區","LI":"西勢里","LIN":"14鄰","STREET":"西勢路","SECT":" ","MAREA":" ","LANE":"１９巷","ALLEY":" ","HOUSE_NO":"５５號","E_COORD97":176217.72,"N_COORD97":2546599.2799999998,"ADDRESS":"西勢路１９巷５５號","OBJECTID":372473},"geometry":{"x":176217.71999999974,"y":2546599.2800000012}},{"attributes":{"ID":372484,"DIS_CODE":0,"TOWNNAME":"永康區","LI":"西勢里","LIN":"15鄰","STREET":"西勢路","SECT":" ","MAREA":" ","LANE":"２６巷","ALLEY":" ","HOUSE_NO":"２７號","E_COORD97":176182.78,"N_COORD97":2546806.52,"ADDRESS":"西勢路２６巷２７號","OBJECTID":372474},"geometry":{"x":176182.78000000119,"y":2546806.5199999996}},{"attributes":{"ID":372485,"DIS_CODE":0,"TOWNNAME":"東區","LI":"復興里","LIN":"10鄰","STREET":"裕文路","SECT":" ","MAREA":" ","LANE":"２２巷","ALLEY":" ","HOUSE_NO":"２３號","E_COORD97":171866.39999999999,"N_COORD97":2542524.7999999998,"ADDRESS":"裕文路２２巷２３號","OBJECTID":372475},"geometry":{"x":171866.4000000013,"y":2542524.8000000026}},{"attributes":{"ID":372486,"DIS_CODE":0,"TOWNNAME":"東區","LI":"復興里","LIN":"10鄰","STREET":"裕文路","SECT":" ","MAREA":" ","LANE":"２２巷","ALLEY":" ","HOUSE_NO":"２４號","E_COORD97":171840.91,"N_COORD97":2542529.9700000002,"ADDRESS":"裕文路２２巷２４號","OBJECTID":372476},"geometry":{"x":171840.91000000108,"y":2542529.9700000044}},{"attributes":{"ID":372487,"DIS_CODE":0,"TOWNNAME":"東區","LI":"復興里","LIN":"10鄰","STREET":"裕文路","SECT":" ","MAREA":" ","LANE":"２２巷","ALLEY":" ","HOUSE_NO":"２５號","E_COORD97":171866.79999999999,"N_COORD97":2542520.8199999998,"ADDRESS":"裕文路２２巷２５號","OBJECTID":372477},"geometry":{"x":171866.79999999981,"y":2542520.8200000022}},{"attributes":{"ID":372488,"DIS_CODE":0,"TOWNNAME":"東區","LI":"復興里","LIN":"10鄰","STREET":"裕文路","SECT":" ","MAREA":" ","LANE":"２２巷","ALLEY":" ","HOUSE_NO":"２６號","E_COORD97":171839.72,"N_COORD97":2542525.5899999999,"ADDRESS":"裕文路２２巷２６號","OBJECTID":372478},"geometry":{"x":171839.72000000067,"y":2542525.5900000017}},{"attributes":{"ID":372489,"DIS_CODE":0,"TOWNNAME":"東區","LI":"復興里","LIN":"10鄰","STREET":"裕文路","SECT":" ","MAREA":" ","LANE":"２２巷","ALLEY":" ","HOUSE_NO":"２７號","E_COORD97":171869.19,"N_COORD97":2542515.6499999999,"ADDRESS":"裕文路２２巷２７號","OBJECTID":372479},"geometry":{"x":171869.19000000134,"y":2542515.6500000022}},{"attributes":{"ID":372490,"DIS_CODE":0,"TOWNNAME":"東區","LI":"復興里","LIN":"10鄰","STREET":"裕文路","SECT":" ","MAREA":" ","LANE":"２２巷","ALLEY":" ","HOUSE_NO":"２８號","E_COORD97":171839.72,"N_COORD97":2542521.2200000002,"ADDRESS":"裕文路２２巷２８號","OBJECTID":372480},"geometry":{"x":171839.72000000067,"y":2542521.2200000007}},{"attributes":{"ID":372491,"DIS_CODE":0,"TOWNNAME":"東區","LI":"復興里","LIN":"10鄰","STREET":"裕文路","SECT":" ","MAREA":" ","LANE":"２２巷","ALLEY":" ","HOUSE_NO":"２號","E_COORD97":171836.14000000001,"N_COORD97":2542570.9300000002,"ADDRESS":"裕文路２２巷２號","OBJECTID":372481},"geometry":{"x":171836.13999999966,"y":2542570.9300000016}},{"attributes":{"ID":372492,"DIS_CODE":0,"TOWNNAME":"東區","LI":"復興里","LIN":"10鄰","STREET":"裕文路","SECT":" ","MAREA":" ","LANE":"２２巷","ALLEY":" ","HOUSE_NO":"６號","E_COORD97":171835.34,"N_COORD97":2542565.3599999999,"ADDRESS":"裕文路２２巷６號","OBJECTID":372482},"geometry":{"x":171835.34000000078,"y":2542565.3599999994}},{"attributes":{"ID":372493,"DIS_CODE":0,"TOWNNAME":"東區","LI":"復興里","LIN":"10鄰","STREET":"裕文路","SECT":" ","MAREA":" ","LANE":"２２巷","ALLEY":" ","HOUSE_NO":"８號","E_COORD97":171836.92999999999,"N_COORD97":2542561.7799999998,"ADDRESS":"裕文路２２巷８號","OBJECTID":372483},"geometry":{"x":171836.9299999997,"y":2542561.7800000012}},{"attributes":{"ID":372494,"DIS_CODE":0,"TOWNNAME":"東區","LI":"復興里","LIN":"10鄰","STREET":"裕文路","SECT":" ","MAREA":" ","LANE":"２２巷","ALLEY":" ","HOUSE_NO":"９號","E_COORD97":171864.41,"N_COORD97":2542553.0299999998,"ADDRESS":"裕文路２２巷９號","OBJECTID":372484},"geometry":{"x":171864.41000000108,"y":2542553.0300000012}},{"attributes":{"ID":372495,"DIS_CODE":0,"TOWNNAME":"永康區","LI":"西勢里","LIN":"17鄰","STREET":"富強路","SECT":"一段","MAREA":" ","LANE":"２５４巷","ALLEY":" ","HOUSE_NO":"５９號","E_COORD97":175812.54000000001,"N_COORD97":2546350.0699999998,"ADDRESS":"富強路一段２５４巷５９號","OBJECTID":372485},"geometry":{"x":175812.5400000019,"y":2546350.070000004}},{"attributes":{"ID":372496,"DIS_CODE":0,"TOWNNAME":"永康區","LI":"南灣里","LIN":"10鄰","STREET":"大灣東路","SECT":" ","MAREA":" ","LANE":"２２巷","ALLEY":" ","HOUSE_NO":"１３號","E_COORD97":174107.60000000001,"N_COORD97":2544200.2400000002,"ADDRESS":"大灣東路２２巷１３號","OBJECTID":372486},"geometry":{"x":174107.59999999963,"y":2544200.2400000021}},{"attributes":{"ID":372497,"DIS_CODE":0,"TOWNNAME":"永康區","LI":"復國里","LIN":"10鄰","STREET":"復國二路","SECT":" ","MAREA":" ","LANE":"７９巷","ALLEY":" ","HOUSE_NO":"２號","E_COORD97":172833.35999999999,"N_COORD97":2545281.5299999998,"ADDRESS":"復國二路７９巷２號","OBJECTID":372487},"geometry":{"x":172833.36000000034,"y":2545281.5300000012}},{"attributes":{"ID":372498,"DIS_CODE":0,"TOWNNAME":"永康區","LI":"東灣里","LIN":"10鄰","STREET":"大灣路","SECT":" ","MAREA":" ","LANE":"４９４巷","ALLEY":" ","HOUSE_NO":"１號","E_COORD97":174709.70999999999,"N_COORD97":2544881.5,"ADDRESS":"大灣路４９４巷１號","OBJECTID":372488},"geometry":{"x":174709.71000000089,"y":2544881.5}},{"attributes":{"ID":372499,"DIS_CODE":0,"TOWNNAME":"永康區","LI":"東灣里","LIN":"10鄰","STREET":"大灣路","SECT":" ","MAREA":" ","LANE":"４９８巷","ALLEY":" ","HOUSE_NO":"１號","E_COORD97":174708.54000000001,"N_COORD97":2544874.25,"ADDRESS":"大灣路４９８巷１號","OBJECTID":372489},"geometry":{"x":174708.54000000004,"y":2544874.2500000019}},{"attributes":{"ID":372500,"DIS_CODE":0,"TOWNNAME":"永康區","LI":"南灣里","LIN":"10鄰","STREET":"大灣東路","SECT":" ","MAREA":" ","LANE":"２２巷","ALLEY":" ","HOUSE_NO":"９號","E_COORD97":174102.73999999999,"N_COORD97":2544215.7400000002,"ADDRESS":"大灣東路２２巷９號","OBJECTID":372490},"geometry":{"x":174102.74000000209,"y":2544215.7400000002}},{"attributes":{"ID":372501,"DIS_CODE":0,"TOWNNAME":"永康區","LI":"南灣里","LIN":"10鄰","STREET":"大灣東路","SECT":" ","MAREA":" ","LANE":"２２巷","ALLEY":" ","HOUSE_NO":"８２號","E_COORD97":173954.45000000001,"N_COORD97":2543924.7200000002,"ADDRESS":"大灣東路２２巷８２號","OBJECTID":372491},"geometry":{"x":173954.45000000112,"y":2543924.7200000007}},{"attributes":{"ID":372502,"DIS_CODE":0,"TOWNNAME":"永康區","LI":"南灣里","LIN":"10鄰","STREET":"大灣東路","SECT":" ","MAREA":" ","LANE":"２２巷","ALLEY":" ","HOUSE_NO":"２２號","E_COORD97":174056.79000000001,"N_COORD97":2544168.25,"ADDRESS":"大灣東路２２巷２２號","OBJECTID":372492},"geometry":{"x":174056.79000000097,"y":2544168.2500000037}},{"attributes":{"ID":372503,"DIS_CODE":0,"TOWNNAME":"永康區","LI":"南灣里","LIN":"10鄰","STREET":"大灣東路","SECT":" ","MAREA":" ","LANE":"２２巷","ALLEY":" ","HOUSE_NO":"６０號","E_COORD97":173998.35000000001,"N_COORD97":2544006.4900000002,"ADDRESS":"大灣東路２２巷６０號","OBJECTID":372493},"geometry":{"x":173998.35000000056,"y":2544006.4900000002}},{"attributes":{"ID":372504,"DIS_CODE":0,"TOWNNAME":"永康區","LI":"南灣里","LIN":"10鄰","STREET":"大灣東路","SECT":" ","MAREA":" ","LANE":"２２巷","ALLEY":" ","HOUSE_NO":"６６號","E_COORD97":173911.09,"N_COORD97":2544020.7400000002,"ADDRESS":"大灣東路２２巷６６號","OBJECTID":372494},"geometry":{"x":173911.08999999985,"y":2544020.7400000021}},{"attributes":{"ID":372505,"DIS_CODE":0,"TOWNNAME":"永康區","LI":"南灣里","LIN":"10鄰","STREET":"大灣東路","SECT":" ","MAREA":" ","LANE":"２２巷","ALLEY":" ","HOUSE_NO":"９６號","E_COORD97":173960.56,"N_COORD97":2543909.3100000001,"ADDRESS":"大灣東路２２巷９６號","OBJECTID":372495},"geometry":{"x":173960.55999999959,"y":2543909.3100000005}},{"attributes":{"ID":372506,"DIS_CODE":0,"TOWNNAME":"永康區","LI":"東灣里","LIN":"10鄰","STREET":"立興街","SECT":" ","MAREA":" ","LANE":"２８巷","ALLEY":" ","HOUSE_NO":"６號","E_COORD97":174664.38,"N_COORD97":2544890.2000000002,"ADDRESS":"立興街２８巷６號","OBJECTID":372496},"geometry":{"x":174664.38000000082,"y":2544890.200000003}},{"attributes":{"ID":372507,"DIS_CODE":0,"TOWNNAME":"永康區","LI":"南灣里","LIN":"10鄰","STREET":"大灣東路","SECT":" ","MAREA":" ","LANE":"２２巷","ALLEY":" ","HOUSE_NO":"１３２號","E_COORD97":173945.03,"N_COORD97":2543832.6200000001,"ADDRESS":"大灣東路２２巷１３２號","OBJECTID":372497},"geometry":{"x":173945.03000000119,"y":2543832.6200000029}},{"attributes":{"ID":372508,"DIS_CODE":0,"TOWNNAME":"永康區","LI":"南灣里","LIN":"10鄰","STREET":"大灣東路","SECT":" ","MAREA":" ","LANE":"２２巷","ALLEY":" ","HOUSE_NO":"４６號","E_COORD97":174019.95999999999,"N_COORD97":2544081.4900000002,"ADDRESS":"大灣東路２２巷４６號","OBJECTID":372498},"geometry":{"x":174019.96000000089,"y":2544081.4900000002}},{"attributes":{"ID":372509,"DIS_CODE":0,"TOWNNAME":"永康區","LI":"南灣里","LIN":"10鄰","STREET":"大灣東路","SECT":" ","MAREA":" ","LANE":"２２巷","ALLEY":" ","HOUSE_NO":"１２８號","E_COORD97":173873.16,"N_COORD97":2543893.6099999999,"ADDRESS":"大灣東路２２巷１２８號","OBJECTID":372499},"geometry":{"x":173873.16000000108,"y":2543893.6099999994}},{"attributes":{"ID":372510,"DIS_CODE":0,"TOWNNAME":"永康區","LI":"東灣里","LIN":"10鄰","STREET":"立興街","SECT":" ","MAREA":" ","LANE":"２８巷","ALLEY":" ","HOUSE_NO":"１４號","E_COORD97":174676.69,"N_COORD97":2544908.6699999999,"ADDRESS":"立興街２８巷１４號","OBJECTID":372500},"geometry":{"x":174676.69000000134,"y":2544908.6700000018}},{"attributes":{"ID":372511,"DIS_CODE":0,"TOWNNAME":"永康區","LI":"南灣里","LIN":"10鄰","STREET":"大灣東路","SECT":" ","MAREA":" ","LANE":"２２巷","ALLEY":" ","HOUSE_NO":"１１１號","E_COORD97":173979.94,"N_COORD97":2543862.8799999999,"ADDRESS":"大灣東路２２巷１１１號","OBJECTID":372501},"geometry":{"x":173979.94000000134,"y":2543862.8800000008}},{"attributes":{"ID":372512,"DIS_CODE":0,"TOWNNAME":"永康區","LI":"南灣里","LIN":"10鄰","STREET":"大灣東路","SECT":" ","MAREA":" ","LANE":"２２巷","ALLEY":" ","HOUSE_NO":"８８號","E_COORD97":173934.07000000001,"N_COORD97":2543931.9700000002,"ADDRESS":"大灣東路２２巷８８號","OBJECTID":372502},"geometry":{"x":173934.0700000003,"y":2543931.9700000007}},{"attributes":{"ID":372513,"DIS_CODE":0,"TOWNNAME":"永康區","LI":"南灣里","LIN":"10鄰","STREET":"大灣東路","SECT":" ","MAREA":" ","LANE":"２２巷","ALLEY":" ","HOUSE_NO":"９０號","E_COORD97":173915.5,"N_COORD97":2543938.75,"ADDRESS":"大灣東路２２巷９０號","OBJECTID":372503},"geometry":{"x":173915.5,"y":2543938.7500000019}},{"attributes":{"ID":372514,"DIS_CODE":0,"TOWNNAME":"永康區","LI":"南灣里","LIN":"10鄰","STREET":"大灣東路","SECT":" ","MAREA":" ","LANE":"２２巷","ALLEY":" ","HOUSE_NO":"１０３號","E_COORD97":173987.31,"N_COORD97":2543906.9199999999,"ADDRESS":"大灣東路２２巷１０３號","OBJECTID":372504},"geometry":{"x":173987.30999999959,"y":2543906.9200000018}},{"attributes":{"ID":372515,"DIS_CODE":0,"TOWNNAME":"永康區","LI":"西勢里","LIN":"20鄰","STREET":"富強路","SECT":"一段","MAREA":" ","LANE":"１８５巷","ALLEY":" ","HOUSE_NO":"６號","E_COORD97":175531.51000000001,"N_COORD97":2546432.5299999998,"ADDRESS":"富強路一段１８５巷６號","OBJECTID":372505},"geometry":{"x":175531.51000000071,"y":2546432.5299999993}},{"attributes":{"ID":372516,"DIS_CODE":0,"TOWNNAME":"永康區","LI":"西灣里","LIN":"42鄰","STREET":"大灣路","SECT":" ","MAREA":" ","LANE":"９４２巷","ALLEY":" ","HOUSE_NO":"３６８號","E_COORD97":173947.23999999999,"N_COORD97":2545402.25,"ADDRESS":"大灣路９４２巷３６８號","OBJECTID":372506},"geometry":{"x":173947.24000000115,"y":2545402.2499999981}},{"attributes":{"ID":372517,"DIS_CODE":0,"TOWNNAME":"永康區","LI":"西勢里","LIN":"24鄰","STREET":"廣興街","SECT":" ","MAREA":" ","LANE":"２６巷","ALLEY":" ","HOUSE_NO":"１０號","E_COORD97":175873.31,"N_COORD97":2546508.8599999999,"ADDRESS":"廣興街２６巷１０號","OBJECTID":372507},"geometry":{"x":175873.31000000052,"y":2546508.8599999994}},{"attributes":{"ID":372518,"DIS_CODE":0,"TOWNNAME":"安南區","LI":"國安里","LIN":"10鄰","STREET":"郡安路","SECT":"六段","MAREA":" ","LANE":"１１１巷","ALLEY":" ","HOUSE_NO":"１３號","E_COORD97":166499.28,"N_COORD97":2547361.4199999999,"ADDRESS":"郡安路六段１１１巷１３號","OBJECTID":372508},"geometry":{"x":166499.28000000026,"y":2547361.4200000018}},{"attributes":{"ID":372519,"DIS_CODE":0,"TOWNNAME":"安南區","LI":"國安里","LIN":"10鄰","STREET":"郡安路","SECT":"六段","MAREA":" ","LANE":"１１１巷","ALLEY":" ","HOUSE_NO":"１５號","E_COORD97":166500.78,"N_COORD97":2547351.75,"ADDRESS":"郡安路六段１１１巷１５號","OBJECTID":372509},"geometry":{"x":166500.78000000026,"y":2547351.7499999981}},{"attributes":{"ID":372520,"DIS_CODE":0,"TOWNNAME":"安南區","LI":"國安里","LIN":"10鄰","STREET":"郡安路","SECT":"六段","MAREA":" ","LANE":"１１１巷","ALLEY":" ","HOUSE_NO":"１７號","E_COORD97":166503.37,"N_COORD97":2547341.8500000001,"ADDRESS":"郡安路六段１１１巷１７號","OBJECTID":372510},"geometry":{"x":166503.37000000011,"y":2547341.8500000015}},{"attributes":{"ID":372521,"DIS_CODE":0,"TOWNNAME":"安南區","LI":"國安里","LIN":"10鄰","STREET":"郡安路","SECT":"六段","MAREA":" ","LANE":"１１１巷","ALLEY":" ","HOUSE_NO":"１９號","E_COORD97":166505.76000000001,"N_COORD97":2547330.5800000001,"ADDRESS":"郡安路六段１１１巷１９號","OBJECTID":372511},"geometry":{"x":166505.75999999978,"y":2547330.5800000019}},{"attributes":{"ID":372522,"DIS_CODE":0,"TOWNNAME":"安南區","LI":"國安里","LIN":"10鄰","STREET":"郡安路","SECT":"六段","MAREA":" ","LANE":"１１１巷","ALLEY":" ","HOUSE_NO":"２０號","E_COORD97":166480.47,"N_COORD97":2547358.2000000002,"ADDRESS":"郡安路六段１１１巷２０號","OBJECTID":372512},"geometry":{"x":166480.46999999974,"y":2547358.200000003}},{"attributes":{"ID":372523,"DIS_CODE":0,"TOWNNAME":"安南區","LI":"國安里","LIN":"10鄰","STREET":"郡安路","SECT":"六段","MAREA":" ","LANE":"１１１巷","ALLEY":" ","HOUSE_NO":"２１號","E_COORD97":166506.39999999999,"N_COORD97":2547321.0099999998,"ADDRESS":"郡安路六段１１１巷２１號","OBJECTID":372513},"geometry":{"x":166506.4000000013,"y":2547321.0100000016}},{"attributes":{"ID":372524,"DIS_CODE":0,"TOWNNAME":"安南區","LI":"國安里","LIN":"10鄰","STREET":"郡安路","SECT":"六段","MAREA":" ","LANE":"１１１巷","ALLEY":" ","HOUSE_NO":"２２號","E_COORD97":166482.82000000001,"N_COORD97":2547347.54,"ADDRESS":"郡安路六段１１１巷２２號","OBJECTID":372514},"geometry":{"x":166482.82000000123,"y":2547347.5399999991}},{"attributes":{"ID":372525,"DIS_CODE":0,"TOWNNAME":"永康區","LI":"西勢里","LIN":"2鄰","STREET":"富強路","SECT":"二段","MAREA":" ","LANE":"１９巷","ALLEY":" ","HOUSE_NO":"２５號","E_COORD97":175603.69,"N_COORD97":2546850.0899999999,"ADDRESS":"富強路二段１９巷２５號","OBJECTID":372515},"geometry":{"x":175603.69000000134,"y":2546850.0899999999}},{"attributes":{"ID":372526,"DIS_CODE":0,"TOWNNAME":"永康區","LI":"尚頂里","LIN":"13鄰","STREET":"正南一街","SECT":" ","MAREA":" ","LANE":"１０５巷","ALLEY":" ","HOUSE_NO":"６號","E_COORD97":170978.07999999999,"N_COORD97":2547198.7400000002,"ADDRESS":"正南一街１０５巷６號","OBJECTID":372516},"geometry":{"x":170978.08000000101,"y":2547198.7400000002}},{"attributes":{"ID":372527,"DIS_CODE":0,"TOWNNAME":"永康區","LI":"西灣里","LIN":"19鄰","STREET":"大安街","SECT":" ","MAREA":" ","LANE":"２９３巷","ALLEY":" ","HOUSE_NO":"９６號","E_COORD97":174493.38,"N_COORD97":2545674.5600000001,"ADDRESS":"大安街２９３巷９６號","OBJECTID":372517},"geometry":{"x":174493.38000000082,"y":2545674.5600000005}},{"attributes":{"ID":372528,"DIS_CODE":0,"TOWNNAME":"永康區","LI":"西勢里","LIN":"10鄰","STREET":"西勢路","SECT":" ","MAREA":" ","LANE":"１４３巷","ALLEY":" ","HOUSE_NO":"１５號","E_COORD97":175990.67999999999,"N_COORD97":2546717.2000000002,"ADDRESS":"西勢路１４３巷１５號","OBJECTID":372518},"geometry":{"x":175990.6799999997,"y":2546717.1999999974}},{"attributes":{"ID":372529,"DIS_CODE":0,"TOWNNAME":"安南區","LI":"國安里","LIN":"10鄰","STREET":"郡安路","SECT":"六段","MAREA":" ","LANE":"１１１巷","ALLEY":" ","HOUSE_NO":"２３號","E_COORD97":166508.88,"N_COORD97":2547311.0099999998,"ADDRESS":"郡安路六段１１１巷２３號","OBJECTID":372519},"geometry":{"x":166508.88000000082,"y":2547311.0099999998}},{"attributes":{"ID":372530,"DIS_CODE":0,"TOWNNAME":"安南區","LI":"國安里","LIN":"10鄰","STREET":"郡安路","SECT":"六段","MAREA":" ","LANE":"１１１巷","ALLEY":" ","HOUSE_NO":"２６號","E_COORD97":166486.54000000001,"N_COORD97":2547336.6400000001,"ADDRESS":"郡安路六段１１１巷２６號","OBJECTID":372520},"geometry":{"x":166486.54000000004,"y":2547336.6400000025}},{"attributes":{"ID":372531,"DIS_CODE":0,"TOWNNAME":"安南區","LI":"國安里","LIN":"10鄰","STREET":"郡安路","SECT":"六段","MAREA":" ","LANE":"１１１巷","ALLEY":" ","HOUSE_NO":"２５號","E_COORD97":166510.72,"N_COORD97":2547299.54,"ADDRESS":"郡安路六段１１１巷２５號","OBJECTID":372521},"geometry":{"x":166510.71999999974,"y":2547299.540000001}},{"attributes":{"ID":372532,"DIS_CODE":0,"TOWNNAME":"安南區","LI":"州北里","LIN":"10鄰","STREET":"安和路","SECT":"五段","MAREA":" ","LANE":"１７１巷","ALLEY":" ","HOUSE_NO":"８８之１號","E_COORD97":169652.54999999999,"N_COORD97":2551771.0499999998,"ADDRESS":"安和路五段１７１巷８８之１號","OBJECTID":372522},"geometry":{"x":169652.55000000075,"y":2551771.0500000007}},{"attributes":{"ID":372533,"DIS_CODE":0,"TOWNNAME":"安南區","LI":"新順里","LIN":"10鄰","STREET":"政安路","SECT":" ","MAREA":" ","LANE":"１４９巷","ALLEY":" ","HOUSE_NO":"２０號","E_COORD97":170391.45000000001,"N_COORD97":2549179.0499999998,"ADDRESS":"政安路１４９巷２０號","OBJECTID":372523},"geometry":{"x":170391.45000000019,"y":2549179.0500000026}},{"attributes":{"ID":372534,"DIS_CODE":0,"TOWNNAME":"安南區","LI":"原佃里","LIN":"10鄰","STREET":"本原街","SECT":"一段","MAREA":" ","LANE":"４４０巷","ALLEY":" ","HOUSE_NO":"２之１號","E_COORD97":167443.64000000001,"N_COORD97":2550496.7400000002,"ADDRESS":"本原街一段４４０巷２之１號","OBJECTID":372524},"geometry":{"x":167443.63999999966,"y":2550496.7400000021}},{"attributes":{"ID":372535,"DIS_CODE":0,"TOWNNAME":"永康區","LI":"大橋里","LIN":"10鄰","STREET":"大橋三街","SECT":" ","MAREA":" ","LANE":"２６６巷","ALLEY":" ","HOUSE_NO":"１０２號","E_COORD97":170929.56,"N_COORD97":2546758.25,"ADDRESS":"大橋三街２６６巷１０２號","OBJECTID":372525},"geometry":{"x":170929.55999999959,"y":2546758.25}},{"attributes":{"ID":372536,"DIS_CODE":0,"TOWNNAME":"永康區","LI":"西灣里","LIN":"36鄰","STREET":"大勇路","SECT":" ","MAREA":" ","LANE":"１３５巷","ALLEY":" ","HOUSE_NO":"４０號","E_COORD97":174161.48000000001,"N_COORD97":2545659.5,"ADDRESS":"大勇路１３５巷４０號","OBJECTID":372526},"geometry":{"x":174161.48000000138,"y":2545659.5000000019}},{"attributes":{"ID":372537,"DIS_CODE":0,"TOWNNAME":"永康區","LI":"西灣里","LIN":"8鄰","STREET":"大安街","SECT":" ","MAREA":" ","LANE":"１０７巷","ALLEY":" ","HOUSE_NO":"１０號","E_COORD97":174519.07999999999,"N_COORD97":2545074.7799999998,"ADDRESS":"大安街１０７巷１０號","OBJECTID":372527},"geometry":{"x":174519.08000000194,"y":2545074.7799999993}},{"attributes":{"ID":372538,"DIS_CODE":0,"TOWNNAME":"安南區","LI":"砂崙里","LIN":"10鄰","STREET":"青砂街","SECT":"一段","MAREA":" ","LANE":"６９５巷","ALLEY":" ","HOUSE_NO":"６號","E_COORD97":159898.63,"N_COORD97":2552860.8199999998,"ADDRESS":"青砂街一段６９５巷６號","OBJECTID":372528},"geometry":{"x":159898.62999999989,"y":2552860.8200000003}},{"attributes":{"ID":372539,"DIS_CODE":0,"TOWNNAME":"中西區","LI":"中正里","LIN":"10鄰","STREET":"正德街","SECT":" ","MAREA":" ","LANE":"３２巷","ALLEY":" ","HOUSE_NO":"１１號","E_COORD97":167549.42999999999,"N_COORD97":2543857.23,"ADDRESS":"正德街３２巷１１號","OBJECTID":372529},"geometry":{"x":167549.43000000063,"y":2543857.2300000042}},{"attributes":{"ID":372540,"DIS_CODE":0,"TOWNNAME":"永康區","LI":"西勢里","LIN":"24鄰","STREET":"廣興街","SECT":" ","MAREA":" ","LANE":"３８巷","ALLEY":" ","HOUSE_NO":"９號","E_COORD97":175953.57000000001,"N_COORD97":2546529.6099999999,"ADDRESS":"廣興街３８巷９號","OBJECTID":372530},"geometry":{"x":175953.57000000123,"y":2546529.6100000013}},{"attributes":{"ID":372541,"DIS_CODE":0,"TOWNNAME":"永康區","LI":"尚頂里","LIN":"1鄰","STREET":"中正南路","SECT":" ","MAREA":" ","LANE":"２８６巷","ALLEY":" ","HOUSE_NO":"１３號","E_COORD97":170721.42999999999,"N_COORD97":2547740.1800000002,"ADDRESS":"中正南路２８６巷１３號","OBJECTID":372531},"geometry":{"x":170721.43000000063,"y":2547740.1800000016}},{"attributes":{"ID":372542,"DIS_CODE":0,"TOWNNAME":"永康區","LI":"西灣里","LIN":"31鄰","STREET":"公園路","SECT":" ","MAREA":" ","LANE":"１１７巷","ALLEY":" ","HOUSE_NO":"１９號","E_COORD97":174186.76999999999,"N_COORD97":2545894.4399999999,"ADDRESS":"公園路１１７巷１９號","OBJECTID":372532},"geometry":{"x":174186.77000000048,"y":2545894.4399999995}},{"attributes":{"ID":372543,"DIS_CODE":0,"TOWNNAME":"中西區","LI":"中正里","LIN":"10鄰","STREET":"正德街","SECT":" ","MAREA":" ","LANE":"３２巷","ALLEY":" ","HOUSE_NO":"１號","E_COORD97":167531.72,"N_COORD97":2543859.7999999998,"ADDRESS":"正德街３２巷１號","OBJECTID":372533},"geometry":{"x":167531.7200000016,"y":2543859.8000000007}},{"attributes":{"ID":372544,"DIS_CODE":0,"TOWNNAME":"中西區","LI":"中正里","LIN":"10鄰","STREET":"正德街","SECT":" ","MAREA":" ","LANE":"３２巷","ALLEY":" ","HOUSE_NO":"３號","E_COORD97":167535.47,"N_COORD97":2543858.9399999999,"ADDRESS":"正德街３２巷３號","OBJECTID":372534},"geometry":{"x":167535.47000000067,"y":2543858.9400000013}},{"attributes":{"ID":372545,"DIS_CODE":0,"TOWNNAME":"中西區","LI":"中正里","LIN":"10鄰","STREET":"正德街","SECT":" ","MAREA":" ","LANE":"３２巷","ALLEY":" ","HOUSE_NO":"５號","E_COORD97":167539.34,"N_COORD97":2543858.8399999999,"ADDRESS":"正德街３２巷５號","OBJECTID":372535},"geometry":{"x":167539.33999999985,"y":2543858.839999998}},{"attributes":{"ID":372546,"DIS_CODE":0,"TOWNNAME":"中西區","LI":"中正里","LIN":"10鄰","STREET":"正德街","SECT":" ","MAREA":" ","LANE":"３２巷","ALLEY":" ","HOUSE_NO":"７號","E_COORD97":167542.66,"N_COORD97":2543857.7599999998,"ADDRESS":"正德街３２巷７號","OBJECTID":372536},"geometry":{"x":167542.65999999922,"y":2543857.7600000016}},{"attributes":{"ID":372547,"DIS_CODE":0,"TOWNNAME":"中西區","LI":"中正里","LIN":"10鄰","STREET":"正德街","SECT":" ","MAREA":" ","LANE":"４０巷","ALLEY":" ","HOUSE_NO":"５號","E_COORD97":167543.95000000001,"N_COORD97":2543873.1699999999,"ADDRESS":"正德街４０巷５號","OBJECTID":372537},"geometry":{"x":167543.95000000019,"y":2543873.1699999999}},{"attributes":{"ID":372548,"DIS_CODE":0,"TOWNNAME":"中西區","LI":"中正里","LIN":"10鄰","STREET":"正德街","SECT":" ","MAREA":" ","LANE":"４０巷","ALLEY":" ","HOUSE_NO":"７號","E_COORD97":167547.39000000001,"N_COORD97":2543872.4199999999,"ADDRESS":"正德街４０巷７號","OBJECTID":372538},"geometry":{"x":167547.38999999873,"y":2543872.4200000018}},{"attributes":{"ID":372549,"DIS_CODE":0,"TOWNNAME":"中西區","LI":"中正里","LIN":"10鄰","STREET":"正德街","SECT":" ","MAREA":" ","LANE":"４０巷","ALLEY":" ","HOUSE_NO":"９號","E_COORD97":167550.82000000001,"N_COORD97":2543872.21,"ADDRESS":"正德街４０巷９號","OBJECTID":372539},"geometry":{"x":167550.82000000123,"y":2543872.2100000028}},{"attributes":{"ID":372550,"DIS_CODE":0,"TOWNNAME":"永康區","LI":"西灣里","LIN":"46鄰","STREET":"永華路","SECT":" ","MAREA":" ","LANE":"２３３巷","ALLEY":" ","HOUSE_NO":"３１號","E_COORD97":173977.34,"N_COORD97":2545736.2400000002,"ADDRESS":"永華路２３３巷３１號","OBJECTID":372540},"geometry":{"x":173977.33999999985,"y":2545736.2400000021}},{"attributes":{"ID":372551,"DIS_CODE":0,"TOWNNAME":"東區","LI":"大同里","LIN":"10鄰","STREET":"大同路","SECT":"一段","MAREA":" ","LANE":"１１５巷","ALLEY":" ","HOUSE_NO":"１４號","E_COORD97":169204.09,"N_COORD97":2542954.5499999998,"ADDRESS":"大同路一段１１５巷１４號","OBJECTID":372541},"geometry":{"x":169204.08999999892,"y":2542954.5500000026}},{"attributes":{"ID":372552,"DIS_CODE":0,"TOWNNAME":"東區","LI":"大同里","LIN":"10鄰","STREET":"大同路","SECT":"一段","MAREA":" ","LANE":"１１５巷","ALLEY":" ","HOUSE_NO":"１６號","E_COORD97":169205.85999999999,"N_COORD97":2542948.3199999998,"ADDRESS":"大同路一段１１５巷１６號","OBJECTID":372542},"geometry":{"x":169205.86000000034,"y":2542948.3200000022}},{"attributes":{"ID":372553,"DIS_CODE":0,"TOWNNAME":"東區","LI":"大同里","LIN":"10鄰","STREET":"大同路","SECT":"一段","MAREA":" ","LANE":"１１５巷","ALLEY":" ","HOUSE_NO":"１８號","E_COORD97":169206.67999999999,"N_COORD97":2542944.79,"ADDRESS":"大同路一段１１５巷１８號","OBJECTID":372543},"geometry":{"x":169206.6799999997,"y":2542944.790000001}},{"attributes":{"ID":372554,"DIS_CODE":0,"TOWNNAME":"中西區","LI":"藥王里","LIN":"10鄰","STREET":"大新街","SECT":" ","MAREA":" ","LANE":"３５巷","ALLEY":" ","HOUSE_NO":"２號","E_COORD97":167133.10000000001,"N_COORD97":2544403.71,"ADDRESS":"大新街３５巷２號","OBJECTID":372544},"geometry":{"x":167133.10000000056,"y":2544403.7100000046}},{"attributes":{"ID":372555,"DIS_CODE":0,"TOWNNAME":"東區","LI":"大同里","LIN":"10鄰","STREET":"大同路","SECT":"一段","MAREA":" ","LANE":"１１５巷","ALLEY":" ","HOUSE_NO":"２０號","E_COORD97":169222.17999999999,"N_COORD97":2542946.8999999999,"ADDRESS":"大同路一段１１５巷２０號","OBJECTID":372545},"geometry":{"x":169222.18000000156,"y":2542946.9000000004}},{"attributes":{"ID":372556,"DIS_CODE":0,"TOWNNAME":"東區","LI":"大同里","LIN":"10鄰","STREET":"大同路","SECT":"一段","MAREA":" ","LANE":"１１５巷","ALLEY":" ","HOUSE_NO":"２２號","E_COORD97":169226.06,"N_COORD97":2542953.1400000001,"ADDRESS":"大同路一段１１５巷２２號","OBJECTID":372546},"geometry":{"x":169226.05999999866,"y":2542953.1400000025}},{"attributes":{"ID":372557,"DIS_CODE":0,"TOWNNAME":"東區","LI":"大同里","LIN":"10鄰","STREET":"大同路","SECT":"一段","MAREA":" ","LANE":"１１５巷","ALLEY":" ","HOUSE_NO":"２４號","E_COORD97":169230.48000000001,"N_COORD97":2542953.77,"ADDRESS":"大同路一段１１５巷２４號","OBJECTID":372547},"geometry":{"x":169230.48000000045,"y":2542953.7699999977}},{"attributes":{"ID":372558,"DIS_CODE":0,"TOWNNAME":"東區","LI":"大同里","LIN":"10鄰","STREET":"大同路","SECT":"一段","MAREA":" ","LANE":"１１５巷","ALLEY":" ","HOUSE_NO":"２６號","E_COORD97":169234.82999999999,"N_COORD97":2542953.5699999998,"ADDRESS":"大同路一段１１５巷２６號","OBJECTID":372548},"geometry":{"x":169234.83000000007,"y":2542953.5700000022}},{"attributes":{"ID":372559,"DIS_CODE":0,"TOWNNAME":"東區","LI":"大同里","LIN":"10鄰","STREET":"大同路","SECT":"一段","MAREA":" ","LANE":"１１５巷","ALLEY":" ","HOUSE_NO":"２８號","E_COORD97":169238.20999999999,"N_COORD97":2542957.4700000002,"ADDRESS":"大同路一段１１５巷２８號","OBJECTID":372549},"geometry":{"x":169238.21000000089,"y":2542957.4700000025}},{"attributes":{"ID":372560,"DIS_CODE":0,"TOWNNAME":"東區","LI":"大同里","LIN":"10鄰","STREET":"大同路","SECT":"一段","MAREA":" ","LANE":"１１５巷","ALLEY":" ","HOUSE_NO":"３０號","E_COORD97":169242.25,"N_COORD97":2542958.5699999998,"ADDRESS":"大同路一段１１５巷３０號","OBJECTID":372550},"geometry":{"x":169242.25000000186,"y":2542958.5700000003}},{"attributes":{"ID":372561,"DIS_CODE":0,"TOWNNAME":"東區","LI":"大同里","LIN":"10鄰","STREET":"大同路","SECT":"一段","MAREA":" ","LANE":"１１５巷","ALLEY":" ","HOUSE_NO":"３２號","E_COORD97":169250.51000000001,"N_COORD97":2542953.7000000002,"ADDRESS":"大同路一段１１５巷３２號","OBJECTID":372551},"geometry":{"x":169250.51000000164,"y":2542953.6999999993}},{"attributes":{"ID":372562,"DIS_CODE":0,"TOWNNAME":"東區","LI":"大同里","LIN":"10鄰","STREET":"大同路","SECT":"一段","MAREA":" ","LANE":"１１５巷","ALLEY":" ","HOUSE_NO":"３６號","E_COORD97":169240.89999999999,"N_COORD97":2542963.29,"ADDRESS":"大同路一段１１５巷３６號","OBJECTID":372552},"geometry":{"x":169240.90000000037,"y":2542963.2899999972}},{"attributes":{"ID":372563,"DIS_CODE":0,"TOWNNAME":"東區","LI":"大同里","LIN":"10鄰","STREET":"大同路","SECT":"一段","MAREA":" ","LANE":"１１５巷","ALLEY":" ","HOUSE_NO":"３８號","E_COORD97":169246.60000000001,"N_COORD97":2542968.6400000001,"ADDRESS":"大同路一段１１５巷３８號","OBJECTID":372553},"geometry":{"x":169246.60000000056,"y":2542968.6400000006}},{"attributes":{"ID":372564,"DIS_CODE":0,"TOWNNAME":"永康區","LI":"西灣里","LIN":"40鄰","STREET":"大勇路","SECT":" ","MAREA":" ","LANE":"５巷","ALLEY":" ","HOUSE_NO":"８號","E_COORD97":174164.89999999999,"N_COORD97":2545359.25,"ADDRESS":"大勇路５巷８號","OBJECTID":372554},"geometry":{"x":174164.9000000013,"y":2545359.2500000019}},{"attributes":{"ID":372565,"DIS_CODE":0,"TOWNNAME":"東區","LI":"大同里","LIN":"10鄰","STREET":"大同路","SECT":"一段","MAREA":" ","LANE":"１１５巷","ALLEY":" ","HOUSE_NO":"４４號","E_COORD97":169303.32999999999,"N_COORD97":2542975.6400000001,"ADDRESS":"大同路一段１１５巷４４號","OBJECTID":372555},"geometry":{"x":169303.33000000101,"y":2542975.6400000006}},{"attributes":{"ID":372566,"DIS_CODE":0,"TOWNNAME":"東區","LI":"大同里","LIN":"10鄰","STREET":"大同路","SECT":"一段","MAREA":" ","LANE":"１１５巷","ALLEY":" ","HOUSE_NO":"４６號","E_COORD97":169305.29000000001,"N_COORD97":2542967.2799999998,"ADDRESS":"大同路一段１１５巷４６號","OBJECTID":372556},"geometry":{"x":169305.29000000097,"y":2542967.2800000031}},{"attributes":{"ID":372567,"DIS_CODE":0,"TOWNNAME":"東區","LI":"大同里","LIN":"10鄰","STREET":"大同路","SECT":"一段","MAREA":" ","LANE":"１１５巷","ALLEY":" ","HOUSE_NO":"８號","E_COORD97":169173.35999999999,"N_COORD97":2542952.0800000001,"ADDRESS":"大同路一段１１５巷８號","OBJECTID":372557},"geometry":{"x":169173.36000000034,"y":2542952.0800000001}},{"attributes":{"ID":372568,"DIS_CODE":0,"TOWNNAME":"永康區","LI":"西橋里","LIN":"8鄰","STREET":"中山南路","SECT":" ","MAREA":" ","LANE":"４３巷","ALLEY":" ","HOUSE_NO":"７２號","E_COORD97":170653.07999999999,"N_COORD97":2546033.5,"ADDRESS":"中山南路４３巷７２號","OBJECTID":372558},"geometry":{"x":170653.08000000007,"y":2546033.5}},{"attributes":{"ID":372569,"DIS_CODE":0,"TOWNNAME":"永康區","LI":"西橋里","LIN":"10鄰","STREET":"中華西街","SECT":" ","MAREA":" ","LANE":"１２７巷","ALLEY":" ","HOUSE_NO":"５號","E_COORD97":170644.35000000001,"N_COORD97":2546166.7400000002,"ADDRESS":"中華西街１２７巷５號","OBJECTID":372559},"geometry":{"x":170644.34999999963,"y":2546166.7400000021}},{"attributes":{"ID":372570,"DIS_CODE":0,"TOWNNAME":"永康區","LI":"甲頂里","LIN":"13鄰","STREET":"正新街","SECT":" ","MAREA":" ","LANE":"１７巷","ALLEY":" ","HOUSE_NO":"１７號","E_COORD97":170357.45000000001,"N_COORD97":2546549.5800000001,"ADDRESS":"正新街１７巷１７號","OBJECTID":372560},"geometry":{"x":170357.45000000019,"y":2546549.5800000038}},{"attributes":{"ID":372571,"DIS_CODE":0,"TOWNNAME":"永康區","LI":"西勢里","LIN":"21鄰","STREET":"富強路","SECT":"一段","MAREA":" ","LANE":"１４９巷","ALLEY":" ","HOUSE_NO":"２９號","E_COORD97":175484.38,"N_COORD97":2546386.8999999999,"ADDRESS":"富強路一段１４９巷２９號","OBJECTID":372561},"geometry":{"x":175484.37999999989,"y":2546386.9000000004}},{"attributes":{"ID":372572,"DIS_CODE":0,"TOWNNAME":"永康區","LI":"南灣里","LIN":"10鄰","STREET":"大灣東路","SECT":" ","MAREA":" ","LANE":"２２巷","ALLEY":" ","HOUSE_NO":"２９號","E_COORD97":174084.67999999999,"N_COORD97":2544148.25,"ADDRESS":"大灣東路２２巷２９號","OBJECTID":372562},"geometry":{"x":174084.68000000063,"y":2544148.2500000037}},{"attributes":{"ID":372573,"DIS_CODE":0,"TOWNNAME":"永康區","LI":"東灣里","LIN":"10鄰","STREET":"大灣路","SECT":" ","MAREA":" ","LANE":"４９８巷","ALLEY":" ","HOUSE_NO":"２號","E_COORD97":174699.53,"N_COORD97":2544882.7999999998,"ADDRESS":"大灣路４９８巷２號","OBJECTID":372563},"geometry":{"x":174699.53000000119,"y":2544882.8000000007}},{"attributes":{"ID":372574,"DIS_CODE":0,"TOWNNAME":"永康區","LI":"尚頂里","LIN":"10鄰","STREET":"正南一街","SECT":" ","MAREA":" ","LANE":"１２９巷","ALLEY":" ","HOUSE_NO":"７號","E_COORD97":170832.48000000001,"N_COORD97":2547207.0499999998,"ADDRESS":"正南一街１２９巷７號","OBJECTID":372564},"geometry":{"x":170832.48000000045,"y":2547207.0500000007}},{"attributes":{"ID":372575,"DIS_CODE":0,"TOWNNAME":"永康區","LI":"正強里","LIN":"10鄰","STREET":"正義街","SECT":" ","MAREA":" ","LANE":"８９巷","ALLEY":" ","HOUSE_NO":"１６號","E_COORD97":173453.51999999999,"N_COORD97":2547518.8300000001,"ADDRESS":"正義街８９巷１６號","OBJECTID":372565},"geometry":{"x":173453.51999999955,"y":2547518.8300000019}},{"attributes":{"ID":372576,"DIS_CODE":0,"TOWNNAME":"永康區","LI":"正強里","LIN":"10鄰","STREET":"正義街","SECT":" ","MAREA":" ","LANE":"１０１巷","ALLEY":" ","HOUSE_NO":"１７號","E_COORD97":173433.04000000001,"N_COORD97":2547505.2599999998,"ADDRESS":"正義街１０１巷１７號","OBJECTID":372566},"geometry":{"x":173433.04000000097,"y":2547505.2600000016}},{"attributes":{"ID":372577,"DIS_CODE":0,"TOWNNAME":"永康區","LI":"正強里","LIN":"10鄰","STREET":"正義街","SECT":" ","MAREA":" ","LANE":"１０１巷","ALLEY":" ","HOUSE_NO":"５號","E_COORD97":173425.54999999999,"N_COORD97":2547528.0099999998,"ADDRESS":"正義街１０１巷５號","OBJECTID":372567},"geometry":{"x":173425.55000000168,"y":2547528.0099999998}},{"attributes":{"ID":372578,"DIS_CODE":0,"TOWNNAME":"永康區","LI":"正強里","LIN":"10鄰","STREET":"正義街","SECT":" ","MAREA":" ","LANE":"１０１巷","ALLEY":" ","HOUSE_NO":"７號","E_COORD97":173426.73000000001,"N_COORD97":2547524.5099999998,"ADDRESS":"正義街１０１巷７號","OBJECTID":372568},"geometry":{"x":173426.73000000231,"y":2547524.5099999998}},{"attributes":{"ID":372579,"DIS_CODE":0,"TOWNNAME":"永康區","LI":"正強里","LIN":"10鄰","STREET":"正義街","SECT":" ","MAREA":" ","LANE":"１０１巷","ALLEY":" ","HOUSE_NO":"１１號","E_COORD97":173429.79000000001,"N_COORD97":2547516.7599999998,"ADDRESS":"正義街１０１巷１１號","OBJECTID":372569},"geometry":{"x":173429.79000000097,"y":2547516.7599999998}},{"attributes":{"ID":372580,"DIS_CODE":0,"TOWNNAME":"永康區","LI":"正強里","LIN":"10鄰","STREET":"正義街","SECT":" ","MAREA":" ","LANE":"１０１巷","ALLEY":" ","HOUSE_NO":"１０號","E_COORD97":173418.04999999999,"N_COORD97":2547517.5099999998,"ADDRESS":"正義街１０１巷１０號","OBJECTID":372570},"geometry":{"x":173418.04999999981,"y":2547517.5100000016}},{"attributes":{"ID":372581,"DIS_CODE":0,"TOWNNAME":"佳里區","LI":"六安里","LIN":"10鄰","STREET":"安北路","SECT":" ","MAREA":" ","LANE":"５８巷","ALLEY":" ","HOUSE_NO":"９號","E_COORD97":166039.13,"N_COORD97":2563189.4900000002,"ADDRESS":"安北路５８巷９號","OBJECTID":372571},"geometry":{"x":166039.13000000175,"y":2563189.4900000002}},{"attributes":{"ID":372582,"DIS_CODE":0,"TOWNNAME":"安南區","LI":"州南里","LIN":"10鄰","STREET":"安和路","SECT":"四段","MAREA":" ","LANE":"５８９巷","ALLEY":" ","HOUSE_NO":"８之２號","E_COORD97":169882.44,"N_COORD97":2551447.1299999999,"ADDRESS":"安和路四段５８９巷８之２號","OBJECTID":372572},"geometry":{"x":169882.44000000134,"y":2551447.1300000027}},{"attributes":{"ID":372583,"DIS_CODE":0,"TOWNNAME":"安南區","LI":"州南里","LIN":"10鄰","STREET":"長和路","SECT":"三段","MAREA":" ","LANE":"１８巷","ALLEY":" ","HOUSE_NO":"１９號","E_COORD97":169879.67000000001,"N_COORD97":2551555.4900000002,"ADDRESS":"長和路三段１８巷１９號","OBJECTID":372573},"geometry":{"x":169879.66999999993,"y":2551555.4900000021}},{"attributes":{"ID":372584,"DIS_CODE":0,"TOWNNAME":"安南區","LI":"州南里","LIN":"10鄰","STREET":"長和路","SECT":"三段","MAREA":" ","LANE":"３８巷","ALLEY":" ","HOUSE_NO":"９之１號","E_COORD97":169822.557921,"N_COORD97":2551565.7691299999,"ADDRESS":"長和路三段３８巷９之１號","OBJECTID":372574},"geometry":{"x":169822.55792099983,"y":2551565.7691320013}},{"attributes":{"ID":372585,"DIS_CODE":0,"TOWNNAME":"安南區","LI":"州南里","LIN":"10鄰","STREET":"長和路","SECT":"三段","MAREA":" ","LANE":"３８巷","ALLEY":" ","HOUSE_NO":"７之２號","E_COORD97":169833.99150599999,"N_COORD97":2551548.62414,"ADDRESS":"長和路三段３８巷７之２號","OBJECTID":372575},"geometry":{"x":169833.99150600098,"y":2551548.6241410002}},{"attributes":{"ID":372586,"DIS_CODE":0,"TOWNNAME":"中西區","LI":"藥王里","LIN":"10鄰","STREET":"大新街","SECT":" ","MAREA":" ","LANE":"３５巷","ALLEY":" ","HOUSE_NO":"４號","E_COORD97":167129.89999999999,"N_COORD97":2544407.5499999998,"ADDRESS":"大新街３５巷４號","OBJECTID":372576},"geometry":{"x":167129.9000000013,"y":2544407.5499999989}},{"attributes":{"ID":372587,"DIS_CODE":0,"TOWNNAME":"安南區","LI":"州南里","LIN":"10鄰","STREET":"長和路","SECT":"三段","MAREA":" ","LANE":"１８巷","ALLEY":" ","HOUSE_NO":"３１號","E_COORD97":169864.35000000001,"N_COORD97":2551566.0299999998,"ADDRESS":"長和路三段１８巷３１號","OBJECTID":372577},"geometry":{"x":169864.34999999963,"y":2551566.0299999993}},{"attributes":{"ID":372588,"DIS_CODE":0,"TOWNNAME":"安南區","LI":"淵東里","LIN":"10鄰","STREET":"安中路","SECT":"三段","MAREA":" ","LANE":"４００巷","ALLEY":" ","HOUSE_NO":"３５之１號","E_COORD97":165448.88,"N_COORD97":2550109.7799999998,"ADDRESS":"安中路三段４００巷３５之１號","OBJECTID":372578},"geometry":{"x":165448.87999999989,"y":2550109.7799999993}},{"attributes":{"ID":372589,"DIS_CODE":0,"TOWNNAME":"安南區","LI":"淵東里","LIN":"10鄰","STREET":"安中路","SECT":"三段","MAREA":" ","LANE":"４００巷","ALLEY":" ","HOUSE_NO":"５７號","E_COORD97":165472.89000000001,"N_COORD97":2550101.27,"ADDRESS":"安中路三段４００巷５７號","OBJECTID":372579},"geometry":{"x":165472.8900000006,"y":2550101.2700000014}},{"attributes":{"ID":372590,"DIS_CODE":0,"TOWNNAME":"安南區","LI":"淵東里","LIN":"10鄰","STREET":"安中路","SECT":"三段","MAREA":" ","LANE":"４００巷","ALLEY":" ","HOUSE_NO":"６５號","E_COORD97":165479.87,"N_COORD97":2550102.6600000001,"ADDRESS":"安中路三段４００巷６５號","OBJECTID":372580},"geometry":{"x":165479.86999999918,"y":2550102.660000002}},{"attributes":{"ID":372591,"DIS_CODE":0,"TOWNNAME":"安南區","LI":"淵東里","LIN":"10鄰","STREET":"仁安路","SECT":" ","MAREA":" ","LANE":"４７巷","ALLEY":" ","HOUSE_NO":"２１號","E_COORD97":165529.23999999999,"N_COORD97":2550113.5699999998,"ADDRESS":"仁安路４７巷２１號","OBJECTID":372581},"geometry":{"x":165529.24000000115,"y":2550113.5700000022}},{"attributes":{"ID":372592,"DIS_CODE":0,"TOWNNAME":"安南區","LI":"淵東里","LIN":"10鄰","STREET":"仁安路","SECT":" ","MAREA":" ","LANE":"４７巷","ALLEY":" ","HOUSE_NO":"２３號","E_COORD97":165525.42999999999,"N_COORD97":2550117.5,"ADDRESS":"仁安路４７巷２３號","OBJECTID":372582},"geometry":{"x":165525.43000000063,"y":2550117.5000000019}},{"attributes":{"ID":372593,"DIS_CODE":0,"TOWNNAME":"安南區","LI":"淵東里","LIN":"10鄰","STREET":"仁安路","SECT":" ","MAREA":" ","LANE":"４７巷","ALLEY":" ","HOUSE_NO":"２５號","E_COORD97":165518.45000000001,"N_COORD97":2550123.8500000001,"ADDRESS":"仁安路４７巷２５號","OBJECTID":372583},"geometry":{"x":165518.45000000205,"y":2550123.8499999996}},{"attributes":{"ID":372594,"DIS_CODE":0,"TOWNNAME":"安南區","LI":"淵東里","LIN":"10鄰","STREET":"仁安路","SECT":" ","MAREA":" ","LANE":"４７巷","ALLEY":" ","HOUSE_NO":"２７號","E_COORD97":165513.12,"N_COORD97":2550130.5899999999,"ADDRESS":"仁安路４７巷２７號","OBJECTID":372584},"geometry":{"x":165513.12000000011,"y":2550130.5900000017}},{"attributes":{"ID":372595,"DIS_CODE":0,"TOWNNAME":"安南區","LI":"淵東里","LIN":"10鄰","STREET":"安中路","SECT":"三段","MAREA":" ","LANE":"３５８巷","ALLEY":" ","HOUSE_NO":"１３號","E_COORD97":165513.39000000001,"N_COORD97":2549989.6299999999,"ADDRESS":"安中路三段３５８巷１３號","OBJECTID":372585},"geometry":{"x":165513.39000000153,"y":2549989.6300000008}},{"attributes":{"ID":372596,"DIS_CODE":0,"TOWNNAME":"安南區","LI":"淵東里","LIN":"10鄰","STREET":"安中路","SECT":"三段","MAREA":" ","LANE":"３５８巷","ALLEY":" ","HOUSE_NO":"１１號","E_COORD97":165514.54000000001,"N_COORD97":2549987.2200000002,"ADDRESS":"安中路三段３５８巷１１號","OBJECTID":372586},"geometry":{"x":165514.54000000097,"y":2549987.2200000044}},{"attributes":{"ID":372597,"DIS_CODE":0,"TOWNNAME":"安南區","LI":"理想里","LIN":"10鄰","STREET":"海佃路","SECT":"二段","MAREA":" ","LANE":"１５０巷","ALLEY":" ","HOUSE_NO":"３０號","E_COORD97":167057.34,"N_COORD97":2548181.4300000002,"ADDRESS":"海佃路二段１５０巷３０號","OBJECTID":372587},"geometry":{"x":167057.33999999985,"y":2548181.4300000016}},{"attributes":{"ID":372598,"DIS_CODE":0,"TOWNNAME":"安南區","LI":"理想里","LIN":"10鄰","STREET":"海佃路","SECT":"二段","MAREA":" ","LANE":"１５０巷","ALLEY":" ","HOUSE_NO":"４２號","E_COORD97":167065.12,"N_COORD97":2548198.8900000001,"ADDRESS":"海佃路二段１５０巷４２號","OBJECTID":372588},"geometry":{"x":167065.12000000104,"y":2548198.8900000006}},{"attributes":{"ID":372599,"DIS_CODE":0,"TOWNNAME":"安南區","LI":"理想里","LIN":"10鄰","STREET":"海佃路","SECT":"二段","MAREA":" ","LANE":"１５０巷","ALLEY":" ","HOUSE_NO":"３２號","E_COORD97":167058.29000000001,"N_COORD97":2548184.9199999999,"ADDRESS":"海佃路二段１５０巷３２號","OBJECTID":372589},"geometry":{"x":167058.29000000004,"y":2548184.9200000037}},{"attributes":{"ID":372600,"DIS_CODE":0,"TOWNNAME":"安南區","LI":"理想里","LIN":"10鄰","STREET":"海佃路","SECT":"二段","MAREA":" ","LANE":"１５０巷","ALLEY":" ","HOUSE_NO":"３６號","E_COORD97":167060.04000000001,"N_COORD97":2548188.8900000001,"ADDRESS":"海佃路二段１５０巷３６號","OBJECTID":372590},"geometry":{"x":167060.04000000004,"y":2548188.8900000043}},{"attributes":{"ID":372601,"DIS_CODE":0,"TOWNNAME":"安南區","LI":"理想里","LIN":"10鄰","STREET":"海佃路","SECT":"二段","MAREA":" ","LANE":"１５０巷","ALLEY":" ","HOUSE_NO":"３８號","E_COORD97":167061.94,"N_COORD97":2548192.3900000001,"ADDRESS":"海佃路二段１５０巷３８號","OBJECTID":372591},"geometry":{"x":167061.94000000134,"y":2548192.3900000043}},{"attributes":{"ID":372602,"DIS_CODE":0,"TOWNNAME":"安南區","LI":"理想里","LIN":"10鄰","STREET":"海佃路","SECT":"二段","MAREA":" ","LANE":"１５０巷","ALLEY":" ","HOUSE_NO":"４０號","E_COORD97":167063.37,"N_COORD97":2548196.2000000002,"ADDRESS":"海佃路二段１５０巷４０號","OBJECTID":372592},"geometry":{"x":167063.37000000197,"y":2548196.2000000011}},{"attributes":{"ID":372603,"DIS_CODE":0,"TOWNNAME":"安南區","LI":"佃東里","LIN":"10鄰","STREET":"公學路","SECT":"四段","MAREA":" ","LANE":"１２６巷","ALLEY":" ","HOUSE_NO":"１３號","E_COORD97":165554.85000000001,"N_COORD97":2552059.7999999998,"ADDRESS":"公學路四段１２６巷１３號","OBJECTID":372593},"geometry":{"x":165554.85000000056,"y":2552059.8000000026}},{"attributes":{"ID":372604,"DIS_CODE":0,"TOWNNAME":"安南區","LI":"佃東里","LIN":"10鄰","STREET":"公學路","SECT":"四段","MAREA":" ","LANE":"１２６巷","ALLEY":" ","HOUSE_NO":"１５號","E_COORD97":165551.29000000001,"N_COORD97":2552056.4900000002,"ADDRESS":"公學路四段１２６巷１５號","OBJECTID":372594},"geometry":{"x":165551.29000000004,"y":2552056.4900000039}},{"attributes":{"ID":372605,"DIS_CODE":0,"TOWNNAME":"安南區","LI":"佃東里","LIN":"10鄰","STREET":"公學路","SECT":"四段","MAREA":" ","LANE":"１２６巷","ALLEY":" ","HOUSE_NO":"１７號","E_COORD97":165547.23000000001,"N_COORD97":2552053.0699999998,"ADDRESS":"公學路四段１２６巷１７號","OBJECTID":372595},"geometry":{"x":165547.23000000045,"y":2552053.0700000022}},{"attributes":{"ID":372606,"DIS_CODE":0,"TOWNNAME":"安南區","LI":"佃東里","LIN":"10鄰","STREET":"公學路","SECT":"四段","MAREA":" ","LANE":"１２６巷","ALLEY":" ","HOUSE_NO":"１９號","E_COORD97":165542.78,"N_COORD97":2552049.2400000002,"ADDRESS":"公學路四段１２６巷１９號","OBJECTID":372596},"geometry":{"x":165542.78000000026,"y":2552049.2400000021}},{"attributes":{"ID":372607,"DIS_CODE":0,"TOWNNAME":"安南區","LI":"淵西里","LIN":"10鄰","STREET":"安中路","SECT":"四段","MAREA":" ","LANE":"３２０巷","ALLEY":" ","HOUSE_NO":"１１８號","E_COORD97":164645.13,"N_COORD97":2550387.7599999998,"ADDRESS":"安中路四段３２０巷１１８號","OBJECTID":372597},"geometry":{"x":164645.12999999989,"y":2550387.7599999998}},{"attributes":{"ID":372608,"DIS_CODE":0,"TOWNNAME":"安南區","LI":"學東里","LIN":"10鄰","STREET":"公學路","SECT":"六段","MAREA":" ","LANE":"６６０巷","ALLEY":" ","HOUSE_NO":"６３之１號","E_COORD97":162260.91,"N_COORD97":2553457.52,"ADDRESS":"公學路六段６６０巷６３之１號","OBJECTID":372598},"geometry":{"x":162260.91000000108,"y":2553457.5199999996}},{"attributes":{"ID":372609,"DIS_CODE":0,"TOWNNAME":"安南區","LI":"學東里","LIN":"10鄰","STREET":"公學路","SECT":"六段","MAREA":" ","LANE":"６４２巷","ALLEY":" ","HOUSE_NO":"６８之１號","E_COORD97":162295.07000000001,"N_COORD97":2553426.9100000001,"ADDRESS":"公學路六段６４２巷６８之１號","OBJECTID":372599},"geometry":{"x":162295.0700000003,"y":2553426.910000002}},{"attributes":{"ID":372610,"DIS_CODE":0,"TOWNNAME":"安南區","LI":"安慶里","LIN":"13鄰","STREET":"怡安路","SECT":"一段","MAREA":" ","LANE":" ","ALLEY":" ","HOUSE_NO":"１９號","E_COORD97":169493.79999999999,"N_COORD97":2548945.6000000001,"ADDRESS":"怡安路一段１９號","OBJECTID":372600},"geometry":{"x":169493.79999999981,"y":2548945.5999999996}}]}