{"displayFieldName":"TOWNNAME","fieldAliases":{"ID":"ID","DIS_CODE":"DIS_CODE","TOWNNAME":"TOWNNAME","LI":"LI","LIN":"LIN","STREET":"STREET","SECT":"SECT","MAREA":"MAREA","LANE":"LANE","ALLEY":"ALLEY","HOUSE_NO":"HOUSE_NO","E_COORD97":"E_COORD97","N_COORD97":"N_COORD97","ADDRESS":"ADDRESS","OBJECTID":"OBJECTID"},"geometryType":"esriGeometryPoint","spatialReference":{"wkid":102443,"latestWkid":3826},"fields":[{"name":"ID","type":"esriFieldTypeDouble","alias":"ID"},{"name":"DIS_CODE","type":"esriFieldTypeInteger","alias":"DIS_CODE"},{"name":"TOWNNAME","type":"esriFieldTypeString","alias":"TOWNNAME","length":8},{"name":"LI","type":"esriFieldTypeString","alias":"LI","length":8},{"name":"LIN","type":"esriFieldTypeString","alias":"LIN","length":12},{"name":"STREET","type":"esriFieldTypeString","alias":"STREET","length":20},{"name":"SECT","type":"esriFieldTypeString","alias":"SECT","length":8},{"name":"MAREA","type":"esriFieldTypeString","alias":"MAREA","length":12},{"name":"LANE","type":"esriFieldTypeString","alias":"LANE","length":10},{"name":"ALLEY","type":"esriFieldTypeString","alias":"ALLEY","length":10},{"name":"HOUSE_NO","type":"esriFieldTypeString","alias":"HOUSE_NO","length":20},{"name":"E_COORD97","type":"esriFieldTypeDouble","alias":"E_COORD97"},{"name":"N_COORD97","type":"esriFieldTypeDouble","alias":"N_COORD97"},{"name":"ADDRESS","type":"esriFieldTypeString","alias":"ADDRESS","length":50},{"name":"OBJECTID","type":"esriFieldTypeOID","alias":"OBJECTID"}],"features":[{"attributes":{"ID":408825,"DIS_CODE":0,"TOWNNAME":"鹽水區","LI":"橋南里","LIN":"22鄰","STREET":"新中路","SECT":" ","MAREA":" ","LANE":"１０２巷","ALLEY":" ","HOUSE_NO":"３６號","E_COORD97":175934.42000000001,"N_COORD97":2578624.52,"ADDRESS":"新中路１０２巷３６號","OBJECTID":408801},"geometry":{"x":175934.42000000086,"y":2578624.5199999996}},{"attributes":{"ID":408826,"DIS_CODE":0,"TOWNNAME":"鹽水區","LI":"橋南里","LIN":"22鄰","STREET":"新中路","SECT":" ","MAREA":" ","LANE":"１０２巷","ALLEY":" ","HOUSE_NO":"３７號","E_COORD97":175915.44,"N_COORD97":2578602.29,"ADDRESS":"新中路１０２巷３７號","OBJECTID":408802},"geometry":{"x":175915.44000000227,"y":2578602.2899999991}},{"attributes":{"ID":408827,"DIS_CODE":0,"TOWNNAME":"鹽水區","LI":"橋南里","LIN":"22鄰","STREET":"新中路","SECT":" ","MAREA":" ","LANE":"１０２巷","ALLEY":" ","HOUSE_NO":"３８號","E_COORD97":175930.13,"N_COORD97":2578624.73,"ADDRESS":"新中路１０２巷３８號","OBJECTID":408803},"geometry":{"x":175930.12999999989,"y":2578624.7300000004}},{"attributes":{"ID":408828,"DIS_CODE":0,"TOWNNAME":"鹽水區","LI":"橋南里","LIN":"22鄰","STREET":"新中路","SECT":" ","MAREA":" ","LANE":"１０２巷","ALLEY":" ","HOUSE_NO":"３９號","E_COORD97":175911.17999999999,"N_COORD97":2578602.5,"ADDRESS":"新中路１０２巷３９號","OBJECTID":408804},"geometry":{"x":175911.1799999997,"y":2578602.4999999981}},{"attributes":{"ID":408829,"DIS_CODE":0,"TOWNNAME":"鹽水區","LI":"橋南里","LIN":"22鄰","STREET":"新中路","SECT":" ","MAREA":" ","LANE":"１０２巷","ALLEY":" ","HOUSE_NO":"４０號","E_COORD97":175925.85000000001,"N_COORD97":2578624.9399999999,"ADDRESS":"新中路１０２巷４０號","OBJECTID":408805},"geometry":{"x":175925.85000000056,"y":2578624.9399999995}},{"attributes":{"ID":408830,"DIS_CODE":0,"TOWNNAME":"鹽水區","LI":"橋南里","LIN":"22鄰","STREET":"新中路","SECT":" ","MAREA":" ","LANE":"１０２巷","ALLEY":" ","HOUSE_NO":"４１號","E_COORD97":175906.92999999999,"N_COORD97":2578602.7200000002,"ADDRESS":"新中路１０２巷４１號","OBJECTID":408806},"geometry":{"x":175906.93000000063,"y":2578602.7200000025}},{"attributes":{"ID":408831,"DIS_CODE":0,"TOWNNAME":"鹽水區","LI":"橋南里","LIN":"22鄰","STREET":"新中路","SECT":" ","MAREA":" ","LANE":"１０２巷","ALLEY":" ","HOUSE_NO":"４２號之１","E_COORD97":175917.29000000001,"N_COORD97":2578625.3599999999,"ADDRESS":"新中路１０２巷４２號之１","OBJECTID":408807},"geometry":{"x":175917.29000000004,"y":2578625.3599999994}},{"attributes":{"ID":408832,"DIS_CODE":0,"TOWNNAME":"鹽水區","LI":"橋南里","LIN":"22鄰","STREET":"新中路","SECT":" ","MAREA":" ","LANE":"１０２巷","ALLEY":" ","HOUSE_NO":"４２號","E_COORD97":175921.57000000001,"N_COORD97":2578625.1499999999,"ADDRESS":"新中路１０２巷４２號","OBJECTID":408808},"geometry":{"x":175921.57000000123,"y":2578625.1500000004}},{"attributes":{"ID":408833,"DIS_CODE":0,"TOWNNAME":"鹽水區","LI":"橋南里","LIN":"22鄰","STREET":"新中路","SECT":" ","MAREA":" ","LANE":"１０２巷","ALLEY":" ","HOUSE_NO":"４３號","E_COORD97":175902.67000000001,"N_COORD97":2578602.9399999999,"ADDRESS":"新中路１０２巷４３號","OBJECTID":408809},"geometry":{"x":175902.66999999993,"y":2578602.9400000013}},{"attributes":{"ID":408834,"DIS_CODE":0,"TOWNNAME":"鹽水區","LI":"橋南里","LIN":"22鄰","STREET":"新中路","SECT":" ","MAREA":" ","LANE":"１０２巷","ALLEY":" ","HOUSE_NO":"４５號","E_COORD97":175898.42000000001,"N_COORD97":2578603.1499999999,"ADDRESS":"新中路１０２巷４５號","OBJECTID":408810},"geometry":{"x":175898.42000000086,"y":2578603.1500000022}},{"attributes":{"ID":408835,"DIS_CODE":0,"TOWNNAME":"鹽水區","LI":"橋南里","LIN":"22鄰","STREET":"新中路","SECT":" ","MAREA":" ","LANE":"１０２巷","ALLEY":" ","HOUSE_NO":"６０號","E_COORD97":175883.04000000001,"N_COORD97":2578627.0299999998,"ADDRESS":"新中路１０２巷６０號","OBJECTID":408811},"geometry":{"x":175883.04000000004,"y":2578627.0300000012}},{"attributes":{"ID":408836,"DIS_CODE":0,"TOWNNAME":"鹽水區","LI":"橋南里","LIN":"22鄰","STREET":"新中路","SECT":" ","MAREA":" ","LANE":"１０２巷","ALLEY":" ","HOUSE_NO":"６２號","E_COORD97":175878.76000000001,"N_COORD97":2578627.2400000002,"ADDRESS":"新中路１０２巷６２號","OBJECTID":408812},"geometry":{"x":175878.76000000164,"y":2578627.2400000002}},{"attributes":{"ID":408837,"DIS_CODE":0,"TOWNNAME":"鹽水區","LI":"橋南里","LIN":"22鄰","STREET":"新中路","SECT":" ","MAREA":" ","LANE":"１０２巷","ALLEY":" ","HOUSE_NO":"６６號","E_COORD97":175870.19,"N_COORD97":2578627.6600000001,"ADDRESS":"新中路１０２巷６６號","OBJECTID":408813},"geometry":{"x":175870.19000000134,"y":2578627.6600000001}},{"attributes":{"ID":408838,"DIS_CODE":0,"TOWNNAME":"鹽水區","LI":"橋南里","LIN":"22鄰","STREET":"新中路","SECT":" ","MAREA":" ","LANE":"１０２巷","ALLEY":" ","HOUSE_NO":"６８號","E_COORD97":175865.91,"N_COORD97":2578627.8599999999,"ADDRESS":"新中路１０２巷６８號","OBJECTID":408814},"geometry":{"x":175865.91000000015,"y":2578627.8600000013}},{"attributes":{"ID":408839,"DIS_CODE":0,"TOWNNAME":"鹽水區","LI":"橋南里","LIN":"22鄰","STREET":"新中路","SECT":" ","MAREA":" ","LANE":"１０２巷","ALLEY":" ","HOUSE_NO":"７０號","E_COORD97":175861.63,"N_COORD97":2578628.0699999998,"ADDRESS":"新中路１０２巷７０號","OBJECTID":408815},"geometry":{"x":175861.63000000082,"y":2578628.0700000003}},{"attributes":{"ID":408840,"DIS_CODE":0,"TOWNNAME":"鹽水區","LI":"橋南里","LIN":"22鄰","STREET":"新中路","SECT":" ","MAREA":" ","LANE":"１０２巷","ALLEY":" ","HOUSE_NO":"７２號","E_COORD97":175857.35000000001,"N_COORD97":2578628.2799999998,"ADDRESS":"新中路１０２巷７２號","OBJECTID":408816},"geometry":{"x":175857.34999999963,"y":2578628.2800000012}},{"attributes":{"ID":408841,"DIS_CODE":0,"TOWNNAME":"永康區","LI":"崑山里","LIN":"18鄰","STREET":"大仁街","SECT":" ","MAREA":" ","LANE":"１１巷","ALLEY":" ","HOUSE_NO":"２１號","E_COORD97":173705.51000000001,"N_COORD97":2544561.3900000001,"ADDRESS":"大仁街１１巷２１號","OBJECTID":408817},"geometry":{"x":173705.51000000164,"y":2544561.3900000043}},{"attributes":{"ID":408842,"DIS_CODE":0,"TOWNNAME":"永康區","LI":"勝利里","LIN":"33鄰","STREET":"中華路","SECT":" ","MAREA":" ","LANE":"２３巷","ALLEY":" ","HOUSE_NO":"１號之２","E_COORD97":171492.35999999999,"N_COORD97":2544465.5499999998,"ADDRESS":"中華路２３巷１號之２","OBJECTID":408818},"geometry":{"x":171492.36000000034,"y":2544465.5500000045}},{"attributes":{"ID":408843,"DIS_CODE":0,"TOWNNAME":"永康區","LI":"崑山里","LIN":"29鄰","STREET":"大仁街","SECT":" ","MAREA":" ","LANE":"１０７巷","ALLEY":" ","HOUSE_NO":"２６號","E_COORD97":173770.64000000001,"N_COORD97":2544829.6200000001,"ADDRESS":"大仁街１０７巷２６號","OBJECTID":408819},"geometry":{"x":173770.64000000153,"y":2544829.6200000029}},{"attributes":{"ID":408844,"DIS_CODE":0,"TOWNNAME":"鹽水區","LI":"橋南里","LIN":"22鄰","STREET":"新中路","SECT":" ","MAREA":" ","LANE":"８２巷","ALLEY":" ","HOUSE_NO":"１３號","E_COORD97":175983.92999999999,"N_COORD97":2578646.29,"ADDRESS":"新中路８２巷１３號","OBJECTID":408820},"geometry":{"x":175983.9299999997,"y":2578646.2899999991}},{"attributes":{"ID":408845,"DIS_CODE":0,"TOWNNAME":"鹽水區","LI":"橋南里","LIN":"22鄰","STREET":"新中路","SECT":" ","MAREA":" ","LANE":"８２巷","ALLEY":" ","HOUSE_NO":"３３號","E_COORD97":175940.89999999999,"N_COORD97":2578648.5099999998,"ADDRESS":"新中路８２巷３３號","OBJECTID":408821},"geometry":{"x":175940.90000000037,"y":2578648.5099999998}},{"attributes":{"ID":408846,"DIS_CODE":0,"TOWNNAME":"鹽水區","LI":"橋南里","LIN":"22鄰","STREET":"新中路","SECT":" ","MAREA":" ","LANE":"８２巷","ALLEY":" ","HOUSE_NO":"３５號","E_COORD97":175936.59,"N_COORD97":2578648.73,"ADDRESS":"新中路８２巷３５號","OBJECTID":408822},"geometry":{"x":175936.59000000078,"y":2578648.7300000004}},{"attributes":{"ID":408847,"DIS_CODE":0,"TOWNNAME":"鹽水區","LI":"橋南里","LIN":"22鄰","STREET":"新中路","SECT":" ","MAREA":" ","LANE":"８２巷","ALLEY":" ","HOUSE_NO":"３７號","E_COORD97":175932.29000000001,"N_COORD97":2578648.96,"ADDRESS":"新中路８２巷３７號","OBJECTID":408823},"geometry":{"x":175932.29000000004,"y":2578648.9600000028}},{"attributes":{"ID":408848,"DIS_CODE":0,"TOWNNAME":"鹽水區","LI":"橋南里","LIN":"22鄰","STREET":"新中路","SECT":" ","MAREA":" ","LANE":"８２巷","ALLEY":" ","HOUSE_NO":"３９號","E_COORD97":175927.98999999999,"N_COORD97":2578649.1800000002,"ADDRESS":"新中路８２巷３９號","OBJECTID":408824},"geometry":{"x":175927.99000000022,"y":2578649.1800000016}},{"attributes":{"ID":408849,"DIS_CODE":0,"TOWNNAME":"鹽水區","LI":"橋南里","LIN":"22鄰","STREET":"新中路","SECT":" ","MAREA":" ","LANE":"８２巷","ALLEY":" ","HOUSE_NO":"４１號","E_COORD97":175923.67999999999,"N_COORD97":2578649.3999999999,"ADDRESS":"新中路８２巷４１號","OBJECTID":408825},"geometry":{"x":175923.68000000063,"y":2578649.4000000022}},{"attributes":{"ID":408850,"DIS_CODE":0,"TOWNNAME":"鹽水區","LI":"橋南里","LIN":"22鄰","STREET":"新中路","SECT":" ","MAREA":" ","LANE":"８２巷","ALLEY":" ","HOUSE_NO":"４３號","E_COORD97":175919.38,"N_COORD97":2578649.6200000001,"ADDRESS":"新中路８２巷４３號","OBJECTID":408826},"geometry":{"x":175919.38000000082,"y":2578649.620000001}},{"attributes":{"ID":408851,"DIS_CODE":0,"TOWNNAME":"鹽水區","LI":"橋南里","LIN":"22鄰","STREET":"新中路","SECT":" ","MAREA":" ","LANE":"８２巷","ALLEY":" ","HOUSE_NO":"４５號","E_COORD97":175915.07999999999,"N_COORD97":2578649.8399999999,"ADDRESS":"新中路８２巷４５號","OBJECTID":408827},"geometry":{"x":175915.08000000007,"y":2578649.8399999999}},{"attributes":{"ID":408852,"DIS_CODE":0,"TOWNNAME":"鹽水區","LI":"橋南里","LIN":"22鄰","STREET":"新中路","SECT":" ","MAREA":" ","LANE":"８２巷","ALLEY":" ","HOUSE_NO":"４７號","E_COORD97":175910.76999999999,"N_COORD97":2578650.0699999998,"ADDRESS":"新中路８２巷４７號","OBJECTID":408828},"geometry":{"x":175910.77000000048,"y":2578650.070000004}},{"attributes":{"ID":408853,"DIS_CODE":0,"TOWNNAME":"鹽水區","LI":"橋南里","LIN":"22鄰","STREET":"新中路","SECT":" ","MAREA":" ","LANE":"８２巷","ALLEY":" ","HOUSE_NO":"４９號","E_COORD97":175906.47,"N_COORD97":2578650.29,"ADDRESS":"新中路８２巷４９號","OBJECTID":408829},"geometry":{"x":175906.47000000067,"y":2578650.2899999991}},{"attributes":{"ID":408854,"DIS_CODE":0,"TOWNNAME":"鹽水區","LI":"橋南里","LIN":"22鄰","STREET":"新中路","SECT":" ","MAREA":" ","LANE":"８２巷","ALLEY":" ","HOUSE_NO":"５１號","E_COORD97":175902.17000000001,"N_COORD97":2578650.5099999998,"ADDRESS":"新中路８２巷５１號","OBJECTID":408830},"geometry":{"x":175902.17000000086,"y":2578650.5100000016}},{"attributes":{"ID":408855,"DIS_CODE":0,"TOWNNAME":"鹽水區","LI":"橋南里","LIN":"22鄰","STREET":"新中路","SECT":" ","MAREA":" ","LANE":"８２巷","ALLEY":" ","HOUSE_NO":"５３號","E_COORD97":175897.87,"N_COORD97":2578650.73,"ADDRESS":"新中路８２巷５３號","OBJECTID":408831},"geometry":{"x":175897.87000000011,"y":2578650.7300000023}},{"attributes":{"ID":408856,"DIS_CODE":0,"TOWNNAME":"鹽水區","LI":"橋南里","LIN":"22鄰","STREET":"新中路","SECT":" ","MAREA":" ","LANE":"８２巷","ALLEY":" ","HOUSE_NO":"５５號","E_COORD97":175893.56,"N_COORD97":2578650.9500000002,"ADDRESS":"新中路８２巷５５號","OBJECTID":408832},"geometry":{"x":175893.56000000052,"y":2578650.9500000011}},{"attributes":{"ID":408857,"DIS_CODE":0,"TOWNNAME":"鹽水區","LI":"橋南里","LIN":"22鄰","STREET":"新中路","SECT":" ","MAREA":" ","LANE":"８２巷","ALLEY":" ","HOUSE_NO":"５７號","E_COORD97":175889.26000000001,"N_COORD97":2578651.1800000002,"ADDRESS":"新中路８２巷５７號","OBJECTID":408833},"geometry":{"x":175889.26000000071,"y":2578651.1799999997}},{"attributes":{"ID":408858,"DIS_CODE":0,"TOWNNAME":"鹽水區","LI":"橋南里","LIN":"22鄰","STREET":"新中路","SECT":" ","MAREA":" ","LANE":"８２巷","ALLEY":" ","HOUSE_NO":"５９號","E_COORD97":175884.95999999999,"N_COORD97":2578651.3999999999,"ADDRESS":"新中路８２巷５９號","OBJECTID":408834},"geometry":{"x":175884.96000000089,"y":2578651.4000000041}},{"attributes":{"ID":408859,"DIS_CODE":0,"TOWNNAME":"鹽水區","LI":"橋南里","LIN":"22鄰","STREET":"新中路","SECT":" ","MAREA":" ","LANE":"８２巷","ALLEY":" ","HOUSE_NO":"６１號","E_COORD97":175880.64999999999,"N_COORD97":2578651.6200000001,"ADDRESS":"新中路８２巷６１號","OBJECTID":408835},"geometry":{"x":175880.6500000013,"y":2578651.6200000029}},{"attributes":{"ID":408860,"DIS_CODE":0,"TOWNNAME":"鹽水區","LI":"橋南里","LIN":"22鄰","STREET":"新中路","SECT":" ","MAREA":" ","LANE":"８２巷","ALLEY":" ","HOUSE_NO":"６３號","E_COORD97":175876.35000000001,"N_COORD97":2578651.8399999999,"ADDRESS":"新中路８２巷６３號","OBJECTID":408836},"geometry":{"x":175876.35000000056,"y":2578651.8400000017}},{"attributes":{"ID":408861,"DIS_CODE":0,"TOWNNAME":"鹽水區","LI":"橋南里","LIN":"22鄰","STREET":"新中路","SECT":" ","MAREA":" ","LANE":"８２巷","ALLEY":" ","HOUSE_NO":"６５號","E_COORD97":175872.04999999999,"N_COORD97":2578652.0699999998,"ADDRESS":"新中路８２巷６５號","OBJECTID":408837},"geometry":{"x":175872.05000000075,"y":2578652.0700000003}},{"attributes":{"ID":408862,"DIS_CODE":0,"TOWNNAME":"鹽水區","LI":"橋南里","LIN":"22鄰","STREET":"新中路","SECT":" ","MAREA":" ","LANE":"８２巷","ALLEY":" ","HOUSE_NO":"６７號","E_COORD97":175867.73999999999,"N_COORD97":2578652.29,"ADDRESS":"新中路８２巷６７號","OBJECTID":408838},"geometry":{"x":175867.74000000115,"y":2578652.290000001}},{"attributes":{"ID":408863,"DIS_CODE":0,"TOWNNAME":"鹽水區","LI":"橋南里","LIN":"22鄰","STREET":"新中路","SECT":" ","MAREA":" ","LANE":"８２巷","ALLEY":" ","HOUSE_NO":"６９號","E_COORD97":175863.44,"N_COORD97":2578652.5099999998,"ADDRESS":"新中路８２巷６９號","OBJECTID":408839},"geometry":{"x":175863.44000000134,"y":2578652.5099999998}},{"attributes":{"ID":408864,"DIS_CODE":0,"TOWNNAME":"鹽水區","LI":"橋南里","LIN":"22鄰","STREET":"新中路","SECT":" ","MAREA":" ","LANE":"８２巷","ALLEY":" ","HOUSE_NO":"７１號","E_COORD97":175859.14000000001,"N_COORD97":2578652.73,"ADDRESS":"新中路８２巷７１號","OBJECTID":408840},"geometry":{"x":175859.1400000006,"y":2578652.7300000042}},{"attributes":{"ID":408865,"DIS_CODE":0,"TOWNNAME":"鹽水區","LI":"橋南里","LIN":"22鄰","STREET":"新中路","SECT":" ","MAREA":" ","LANE":"８２巷","ALLEY":" ","HOUSE_NO":"７３號","E_COORD97":175854.82999999999,"N_COORD97":2578652.9500000002,"ADDRESS":"新中路８２巷７３號","OBJECTID":408841},"geometry":{"x":175854.83000000194,"y":2578652.9499999974}},{"attributes":{"ID":408866,"DIS_CODE":0,"TOWNNAME":"鹽水區","LI":"橋南里","LIN":"22鄰","STREET":"新中路","SECT":" ","MAREA":" ","LANE":"８２巷","ALLEY":" ","HOUSE_NO":"７５號","E_COORD97":175850.53,"N_COORD97":2578653.1800000002,"ADDRESS":"新中路８２巷７５號","OBJECTID":408842},"geometry":{"x":175850.53000000119,"y":2578653.1800000016}},{"attributes":{"ID":408867,"DIS_CODE":0,"TOWNNAME":"鹽水區","LI":"橋南里","LIN":"22鄰","STREET":"新中路","SECT":" ","MAREA":" ","LANE":"８２巷","ALLEY":" ","HOUSE_NO":"７７號","E_COORD97":175846.23000000001,"N_COORD97":2578653.3999999999,"ADDRESS":"新中路８２巷７７號","OBJECTID":408843},"geometry":{"x":175846.23000000138,"y":2578653.4000000004}},{"attributes":{"ID":408868,"DIS_CODE":0,"TOWNNAME":"鹽水區","LI":"橋南里","LIN":"22鄰","STREET":"新中路","SECT":" ","MAREA":" ","LANE":"８２巷","ALLEY":" ","HOUSE_NO":"８１號","E_COORD97":175837.62,"N_COORD97":2578653.8399999999,"ADDRESS":"新中路８２巷８１號","OBJECTID":408844},"geometry":{"x":175837.62000000197,"y":2578653.8399999999}},{"attributes":{"ID":408869,"DIS_CODE":0,"TOWNNAME":"鹽水區","LI":"橋南里","LIN":"22鄰","STREET":"新中路","SECT":" ","MAREA":" ","LANE":"８２巷","ALLEY":" ","HOUSE_NO":"８３號","E_COORD97":175833.32000000001,"N_COORD97":2578654.0600000001,"ADDRESS":"新中路８２巷８３號","OBJECTID":408845},"geometry":{"x":175833.32000000123,"y":2578654.0600000024}},{"attributes":{"ID":408870,"DIS_CODE":0,"TOWNNAME":"安平區","LI":"怡平里","LIN":"22鄰","STREET":"平通路","SECT":" ","MAREA":" ","LANE":"３６５巷","ALLEY":" ","HOUSE_NO":"１０號","E_COORD97":165659.04000000001,"N_COORD97":2543687.2799999998,"ADDRESS":"平通路３６５巷１０號","OBJECTID":408846},"geometry":{"x":165659.04000000097,"y":2543687.2800000012}},{"attributes":{"ID":408871,"DIS_CODE":0,"TOWNNAME":"永康區","LI":"勝利里","LIN":"23鄰","STREET":"中華一路","SECT":" ","MAREA":" ","LANE":"２２３巷","ALLEY":" ","HOUSE_NO":"７號","E_COORD97":171408.70999999999,"N_COORD97":2544937.9900000002,"ADDRESS":"中華一路２２３巷７號","OBJECTID":408847},"geometry":{"x":171408.70999999996,"y":2544937.9900000021}},{"attributes":{"ID":408872,"DIS_CODE":0,"TOWNNAME":"東區","LI":"德光里","LIN":"22鄰","STREET":"崇學路","SECT":" ","MAREA":" ","LANE":"５９巷","ALLEY":" ","HOUSE_NO":"５號","E_COORD97":170070.10000000001,"N_COORD97":2542089.3199999998,"ADDRESS":"崇學路５９巷５號","OBJECTID":408848},"geometry":{"x":170070.10000000149,"y":2542089.3200000003}},{"attributes":{"ID":408873,"DIS_CODE":0,"TOWNNAME":"東區","LI":"德光里","LIN":"22鄰","STREET":"崇學路","SECT":" ","MAREA":" ","LANE":"５９巷","ALLEY":" ","HOUSE_NO":"７號","E_COORD97":170062.41,"N_COORD97":2542095.4700000002,"ADDRESS":"崇學路５９巷７號","OBJECTID":408849},"geometry":{"x":170062.41000000108,"y":2542095.4700000007}},{"attributes":{"ID":408874,"DIS_CODE":0,"TOWNNAME":"東區","LI":"德光里","LIN":"22鄰","STREET":"崇學路","SECT":" ","MAREA":" ","LANE":"５９巷","ALLEY":" ","HOUSE_NO":"９號","E_COORD97":170054.10000000001,"N_COORD97":2542103.1499999999,"ADDRESS":"崇學路５９巷９號","OBJECTID":408850},"geometry":{"x":170054.09999999963,"y":2542103.1500000004}},{"attributes":{"ID":408875,"DIS_CODE":0,"TOWNNAME":"仁德區","LI":"成功里","LIN":"22鄰","STREET":"保生路","SECT":" ","MAREA":" ","LANE":"４１巷","ALLEY":" ","HOUSE_NO":"１３號","E_COORD97":170763.75,"N_COORD97":2539743.9900000002,"ADDRESS":"保生路４１巷１３號","OBJECTID":408851},"geometry":{"x":170763.75,"y":2539743.9900000021}},{"attributes":{"ID":408876,"DIS_CODE":0,"TOWNNAME":"仁德區","LI":"成功里","LIN":"22鄰","STREET":"保生路","SECT":" ","MAREA":" ","LANE":"４１巷","ALLEY":" ","HOUSE_NO":"２號","E_COORD97":170796.07000000001,"N_COORD97":2539750.4900000002,"ADDRESS":"保生路４１巷２號","OBJECTID":408852},"geometry":{"x":170796.0700000003,"y":2539750.4900000021}},{"attributes":{"ID":408877,"DIS_CODE":0,"TOWNNAME":"仁德區","LI":"後壁里","LIN":"22鄰","STREET":"中正路","SECT":"二段","MAREA":" ","LANE":"１８７巷","ALLEY":" ","HOUSE_NO":"１７號","E_COORD97":173156.17999999999,"N_COORD97":2538641.5299999998,"ADDRESS":"中正路二段１８７巷１７號","OBJECTID":408853},"geometry":{"x":173156.1799999997,"y":2538641.5299999993}},{"attributes":{"ID":408878,"DIS_CODE":0,"TOWNNAME":"永康區","LI":"永康里","LIN":"22鄰","STREET":"中山南路","SECT":" ","MAREA":" ","LANE":"５１７巷","ALLEY":" ","HOUSE_NO":"５號","E_COORD97":173268.63,"N_COORD97":2547081.4900000002,"ADDRESS":"中山南路５１７巷５號","OBJECTID":408854},"geometry":{"x":173268.62999999989,"y":2547081.4900000002}},{"attributes":{"ID":408879,"DIS_CODE":0,"TOWNNAME":"永康區","LI":"西橋里","LIN":"22鄰","STREET":"大橋三街","SECT":" ","MAREA":" ","LANE":"５７巷","ALLEY":" ","HOUSE_NO":"１５號","E_COORD97":170518.26000000001,"N_COORD97":2546570.4900000002,"ADDRESS":"大橋三街５７巷１５號","OBJECTID":408855},"geometry":{"x":170518.25999999978,"y":2546570.4899999984}},{"attributes":{"ID":408880,"DIS_CODE":0,"TOWNNAME":"東區","LI":"崇德里","LIN":"22鄰","STREET":"崇德路","SECT":" ","MAREA":" ","LANE":"５０８巷","ALLEY":" ","HOUSE_NO":"３８號","E_COORD97":170666.81,"N_COORD97":2541575.0600000001,"ADDRESS":"崇德路５０８巷３８號","OBJECTID":408856},"geometry":{"x":170666.80999999959,"y":2541575.0600000005}},{"attributes":{"ID":408881,"DIS_CODE":0,"TOWNNAME":"東區","LI":"崇德里","LIN":"22鄰","STREET":"崇德路","SECT":" ","MAREA":" ","LANE":"５０８巷","ALLEY":" ","HOUSE_NO":"４０號","E_COORD97":170661.23999999999,"N_COORD97":2541578.5600000001,"ADDRESS":"崇德路５０８巷４０號","OBJECTID":408857},"geometry":{"x":170661.24000000022,"y":2541578.5600000005}},{"attributes":{"ID":408882,"DIS_CODE":0,"TOWNNAME":"東區","LI":"崇德里","LIN":"22鄰","STREET":"崇德路","SECT":" ","MAREA":" ","LANE":"５０８巷","ALLEY":" ","HOUSE_NO":"４２號","E_COORD97":170655.45999999999,"N_COORD97":2541575.4700000002,"ADDRESS":"崇德路５０８巷４２號","OBJECTID":408858},"geometry":{"x":170655.45999999996,"y":2541575.4700000025}},{"attributes":{"ID":408883,"DIS_CODE":0,"TOWNNAME":"東區","LI":"崇德里","LIN":"22鄰","STREET":"崇德路","SECT":" ","MAREA":" ","LANE":"５０８巷","ALLEY":" ","HOUSE_NO":"４４號","E_COORD97":170647.82999999999,"N_COORD97":2541574.0299999998,"ADDRESS":"崇德路５０８巷４４號","OBJECTID":408859},"geometry":{"x":170647.83000000101,"y":2541574.0299999993}},{"attributes":{"ID":408884,"DIS_CODE":0,"TOWNNAME":"東區","LI":"崇德里","LIN":"22鄰","STREET":"崇德路","SECT":" ","MAREA":" ","LANE":"５０８巷","ALLEY":" ","HOUSE_NO":"４６號","E_COORD97":170641.42999999999,"N_COORD97":2541576.71,"ADDRESS":"崇德路５０８巷４６號","OBJECTID":408860},"geometry":{"x":170641.43000000063,"y":2541576.7100000028}},{"attributes":{"ID":408885,"DIS_CODE":0,"TOWNNAME":"東區","LI":"裕農里","LIN":"13鄰","STREET":"裕豐街","SECT":" ","MAREA":" ","LANE":"２４２巷","ALLEY":" ","HOUSE_NO":"９號","E_COORD97":170831.23999999999,"N_COORD97":2543262.7999999998,"ADDRESS":"裕豐街２４２巷９號","OBJECTID":408861},"geometry":{"x":170831.24000000115,"y":2543262.8000000007}},{"attributes":{"ID":408886,"DIS_CODE":0,"TOWNNAME":"東區","LI":"崇德里","LIN":"22鄰","STREET":"崇德路","SECT":" ","MAREA":" ","LANE":"５０８巷","ALLEY":" ","HOUSE_NO":"４８號","E_COORD97":170637.29999999999,"N_COORD97":2541578.77,"ADDRESS":"崇德路５０８巷４８號","OBJECTID":408862},"geometry":{"x":170637.30000000075,"y":2541578.7700000014}},{"attributes":{"ID":408887,"DIS_CODE":0,"TOWNNAME":"東區","LI":"崇德里","LIN":"22鄰","STREET":"崇德路","SECT":" ","MAREA":" ","LANE":"５０８巷","ALLEY":" ","HOUSE_NO":"５０號","E_COORD97":170633.79999999999,"N_COORD97":2541581.8599999999,"ADDRESS":"崇德路５０８巷５０號","OBJECTID":408863},"geometry":{"x":170633.80000000075,"y":2541581.8599999994}},{"attributes":{"ID":408888,"DIS_CODE":0,"TOWNNAME":"東區","LI":"崇德里","LIN":"22鄰","STREET":"崇德路","SECT":" ","MAREA":" ","LANE":"５０８巷","ALLEY":" ","HOUSE_NO":"５２號","E_COORD97":170629.67000000001,"N_COORD97":2541583.3100000001,"ADDRESS":"崇德路５０８巷５２號","OBJECTID":408864},"geometry":{"x":170629.67000000086,"y":2541583.3100000024}},{"attributes":{"ID":408889,"DIS_CODE":0,"TOWNNAME":"永康區","LI":"埔園里","LIN":"36鄰","STREET":"自強路","SECT":" ","MAREA":" ","LANE":"６３４巷","ALLEY":" ","HOUSE_NO":"６號","E_COORD97":174212.19,"N_COORD97":2548254.8900000001,"ADDRESS":"自強路６３４巷６號","OBJECTID":408865},"geometry":{"x":174212.19000000134,"y":2548254.8900000025}},{"attributes":{"ID":408890,"DIS_CODE":0,"TOWNNAME":"永康區","LI":"神洲里","LIN":"5鄰","STREET":"忠孝路","SECT":" ","MAREA":" ","LANE":"３８巷","ALLEY":" ","HOUSE_NO":"１７號","E_COORD97":172157.29999999999,"N_COORD97":2544709.6200000001,"ADDRESS":"忠孝路３８巷１７號","OBJECTID":408866},"geometry":{"x":172157.29999999981,"y":2544709.6200000048}},{"attributes":{"ID":408891,"DIS_CODE":0,"TOWNNAME":"永康區","LI":"勝利里","LIN":"25鄰","STREET":"中華路","SECT":" ","MAREA":" ","LANE":"１５５巷","ALLEY":" ","HOUSE_NO":"７１號","E_COORD97":171453.39999999999,"N_COORD97":2544732.7400000002,"ADDRESS":"中華路１５５巷７１號","OBJECTID":408867},"geometry":{"x":171453.40000000037,"y":2544732.7400000021}},{"attributes":{"ID":408892,"DIS_CODE":0,"TOWNNAME":"永康區","LI":"崑山里","LIN":"42鄰","STREET":"大仁街","SECT":" ","MAREA":" ","LANE":"１９９巷","ALLEY":" ","HOUSE_NO":"２號","E_COORD97":173911.95999999999,"N_COORD97":2545059.75,"ADDRESS":"大仁街１９９巷２號","OBJECTID":408868},"geometry":{"x":173911.95999999996,"y":2545059.7499999981}},{"attributes":{"ID":408893,"DIS_CODE":0,"TOWNNAME":"善化區","LI":"光文里","LIN":"22鄰","STREET":"光華路","SECT":" ","MAREA":" ","LANE":"３５巷","ALLEY":" ","HOUSE_NO":"６５號","E_COORD97":178454.87,"N_COORD97":2559246,"ADDRESS":"光華路３５巷６５號","OBJECTID":408869},"geometry":{"x":178454.86999999918,"y":2559246}},{"attributes":{"ID":408894,"DIS_CODE":0,"TOWNNAME":"永康區","LI":"崑山里","LIN":"36鄰","STREET":"大仁街","SECT":" ","MAREA":" ","LANE":"１９９巷","ALLEY":" ","HOUSE_NO":"７號","E_COORD97":173897.45999999999,"N_COORD97":2545051.7400000002,"ADDRESS":"大仁街１９９巷７號","OBJECTID":408870},"geometry":{"x":173897.46000000183,"y":2545051.7400000021}},{"attributes":{"ID":408895,"DIS_CODE":0,"TOWNNAME":"永康區","LI":"崑山里","LIN":"36鄰","STREET":"大仁街","SECT":" ","MAREA":" ","LANE":"１８１巷","ALLEY":" ","HOUSE_NO":"３號","E_COORD97":173880.64999999999,"N_COORD97":2544997.23,"ADDRESS":"大仁街１８１巷３號","OBJECTID":408871},"geometry":{"x":173880.65000000037,"y":2544997.2300000023}},{"attributes":{"ID":408896,"DIS_CODE":0,"TOWNNAME":"永康區","LI":"埔園里","LIN":"36鄰","STREET":"龍埔街","SECT":" ","MAREA":" ","LANE":"２３３巷","ALLEY":" ","HOUSE_NO":"９號","E_COORD97":174259.01999999999,"N_COORD97":2548209.5699999998,"ADDRESS":"龍埔街２３３巷９號","OBJECTID":408872},"geometry":{"x":174259.01999999955,"y":2548209.5700000003}},{"attributes":{"ID":408897,"DIS_CODE":0,"TOWNNAME":"永康區","LI":"烏竹里","LIN":"8鄰","STREET":"龍橋街","SECT":" ","MAREA":" ","LANE":"３８１巷","ALLEY":" ","HOUSE_NO":"２號","E_COORD97":174433.07000000001,"N_COORD97":2549140.6499999999,"ADDRESS":"龍橋街３８１巷２號","OBJECTID":408873},"geometry":{"x":174433.07000000123,"y":2549140.6500000022}},{"attributes":{"ID":408898,"DIS_CODE":0,"TOWNNAME":"永康區","LI":"烏竹里","LIN":"15鄰","STREET":"龍橋街","SECT":" ","MAREA":" ","LANE":"３５０巷","ALLEY":" ","HOUSE_NO":"９７號","E_COORD97":174674.20999999999,"N_COORD97":2549242.8300000001,"ADDRESS":"龍橋街３５０巷９７號","OBJECTID":408874},"geometry":{"x":174674.21000000089,"y":2549242.8300000001}},{"attributes":{"ID":408899,"DIS_CODE":0,"TOWNNAME":"永康區","LI":"崑山里","LIN":"33鄰","STREET":"國光二街","SECT":" ","MAREA":" ","LANE":"７０巷","ALLEY":" ","HOUSE_NO":"３９號","E_COORD97":173909.82999999999,"N_COORD97":2544866.0499999998,"ADDRESS":"國光二街７０巷３９號","OBJECTID":408875},"geometry":{"x":173909.83000000007,"y":2544866.0500000026}},{"attributes":{"ID":408900,"DIS_CODE":0,"TOWNNAME":"仁德區","LI":"土庫里","LIN":"22鄰","STREET":"太子二街","SECT":" ","MAREA":" ","LANE":"４１巷","ALLEY":" ","HOUSE_NO":"９號","E_COORD97":174349.07000000001,"N_COORD97":2543411.2599999998,"ADDRESS":"太子二街４１巷９號","OBJECTID":408876},"geometry":{"x":174349.0700000003,"y":2543411.2599999998}},{"attributes":{"ID":408901,"DIS_CODE":0,"TOWNNAME":"永康區","LI":"西灣里","LIN":"22鄰","STREET":"大勇路","SECT":" ","MAREA":" ","LANE":"４８巷","ALLEY":" ","HOUSE_NO":"１號","E_COORD97":174226.45999999999,"N_COORD97":2545401.6000000001,"ADDRESS":"大勇路４８巷１號","OBJECTID":408877},"geometry":{"x":174226.46000000183,"y":2545401.5999999996}},{"attributes":{"ID":408902,"DIS_CODE":0,"TOWNNAME":"永康區","LI":"安康里","LIN":"22鄰","STREET":"中華路","SECT":" ","MAREA":" ","LANE":"７０３巷","ALLEY":" ","HOUSE_NO":"８５號","E_COORD97":170714.76999999999,"N_COORD97":2546215.25,"ADDRESS":"中華路７０３巷８５號","OBJECTID":408878},"geometry":{"x":170714.77000000142,"y":2546215.25}},{"attributes":{"ID":408903,"DIS_CODE":0,"TOWNNAME":"安南區","LI":"梅花里","LIN":"22鄰","STREET":"同安路","SECT":" ","MAREA":" ","LANE":"３２２巷","ALLEY":" ","HOUSE_NO":"４０號","E_COORD97":167317.07999999999,"N_COORD97":2549167.9500000002,"ADDRESS":"同安路３２２巷４０號","OBJECTID":408879},"geometry":{"x":167317.08000000007,"y":2549167.9500000011}},{"attributes":{"ID":408904,"DIS_CODE":0,"TOWNNAME":"安南區","LI":"幸福里","LIN":"22鄰","STREET":"府安路","SECT":"六段","MAREA":" ","LANE":"６２巷","ALLEY":" ","HOUSE_NO":"３０號","E_COORD97":166889.76000000001,"N_COORD97":2546697.1299999999,"ADDRESS":"府安路六段６２巷３０號","OBJECTID":408880},"geometry":{"x":166889.76000000071,"y":2546697.1299999971}},{"attributes":{"ID":408905,"DIS_CODE":0,"TOWNNAME":"永康區","LI":"崑山里","LIN":"25鄰","STREET":"大仁街","SECT":" ","MAREA":" ","LANE":"７１巷","ALLEY":" ","HOUSE_NO":"２０號","E_COORD97":173745.35000000001,"N_COORD97":2544729.5899999999,"ADDRESS":"大仁街７１巷２０號","OBJECTID":408881},"geometry":{"x":173745.35000000149,"y":2544729.5900000017}},{"attributes":{"ID":408906,"DIS_CODE":0,"TOWNNAME":"永康區","LI":"埔園里","LIN":"39鄰","STREET":"聖龍街","SECT":" ","MAREA":" ","LANE":"１６５巷","ALLEY":" ","HOUSE_NO":"３０號","E_COORD97":174288.97,"N_COORD97":2547931.6200000001,"ADDRESS":"聖龍街１６５巷３０號","OBJECTID":408882},"geometry":{"x":174288.97000000067,"y":2547931.6200000029}},{"attributes":{"ID":408907,"DIS_CODE":0,"TOWNNAME":"永康區","LI":"崑山里","LIN":"30鄰","STREET":"崑山街","SECT":" ","MAREA":" ","LANE":"１０３巷","ALLEY":" ","HOUSE_NO":"２１號","E_COORD97":173918.29000000001,"N_COORD97":2544764.7799999998,"ADDRESS":"崑山街１０３巷２１號","OBJECTID":408883},"geometry":{"x":173918.29000000004,"y":2544764.7800000012}},{"attributes":{"ID":408908,"DIS_CODE":0,"TOWNNAME":"永康區","LI":"\u25A0行里","LIN":"22鄰","STREET":"正南五街","SECT":" ","MAREA":" ","LANE":"５２０巷","ALLEY":" ","HOUSE_NO":"５０號","E_COORD97":171689.03,"N_COORD97":2548779.7400000002,"ADDRESS":"正南五街５２０巷５０號","OBJECTID":408884},"geometry":{"x":171689.03000000119,"y":2548779.7400000039}},{"attributes":{"ID":408909,"DIS_CODE":0,"TOWNNAME":"仁德區","LI":"大甲里","LIN":"22鄰","STREET":"行大街","SECT":" ","MAREA":" ","LANE":"４０２巷","ALLEY":" ","HOUSE_NO":"２７號","E_COORD97":169500.07000000001,"N_COORD97":2535296.7400000002,"ADDRESS":"行大街４０２巷２７號","OBJECTID":408885},"geometry":{"x":169500.07000000123,"y":2535296.7400000021}},{"attributes":{"ID":408910,"DIS_CODE":0,"TOWNNAME":"仁德區","LI":"仁德里","LIN":"22鄰","STREET":"中山路","SECT":" ","MAREA":" ","LANE":"８７５巷","ALLEY":" ","HOUSE_NO":"１８號","E_COORD97":172409.10999999999,"N_COORD97":2541526.4900000002,"ADDRESS":"中山路８７５巷１８號","OBJECTID":408886},"geometry":{"x":172409.11000000127,"y":2541526.4900000021}},{"attributes":{"ID":408911,"DIS_CODE":0,"TOWNNAME":"仁德區","LI":"仁德里","LIN":"22鄰","STREET":"中山路","SECT":" ","MAREA":" ","LANE":"８７５巷","ALLEY":" ","HOUSE_NO":"８４號","E_COORD97":172357.81,"N_COORD97":2541298.7200000002,"ADDRESS":"中山路８７５巷８４號","OBJECTID":408887},"geometry":{"x":172357.81000000052,"y":2541298.7200000025}},{"attributes":{"ID":408912,"DIS_CODE":0,"TOWNNAME":"仁德區","LI":"仁德里","LIN":"22鄰","STREET":"中山路","SECT":" ","MAREA":" ","LANE":"８７５巷","ALLEY":" ","HOUSE_NO":"１６號","E_COORD97":172394.70000000001,"N_COORD97":2541527.9900000002,"ADDRESS":"中山路８７５巷１６號","OBJECTID":408888},"geometry":{"x":172394.70000000112,"y":2541527.9900000002}},{"attributes":{"ID":408913,"DIS_CODE":0,"TOWNNAME":"仁德區","LI":"仁德里","LIN":"22鄰","STREET":"中山路","SECT":" ","MAREA":" ","LANE":"８７５巷","ALLEY":" ","HOUSE_NO":"８０之１號","E_COORD97":172315.45000000001,"N_COORD97":2541323.52,"ADDRESS":"中山路８７５巷８０之１號","OBJECTID":408889},"geometry":{"x":172315.45000000019,"y":2541323.5199999996}},{"attributes":{"ID":408914,"DIS_CODE":0,"TOWNNAME":"官田區","LI":"隆田里","LIN":"22鄰","STREET":"隆西街","SECT":" ","MAREA":" ","LANE":"１３巷","ALLEY":" ","HOUSE_NO":"６號","E_COORD97":179101.89999999999,"N_COORD97":2565759.7599999998,"ADDRESS":"隆西街１３巷６號","OBJECTID":408890},"geometry":{"x":179101.90000000037,"y":2565759.7599999998}},{"attributes":{"ID":408915,"DIS_CODE":0,"TOWNNAME":"永康區","LI":"崑山里","LIN":"5鄰","STREET":"崑大路","SECT":" ","MAREA":" ","LANE":"１５５巷","ALLEY":" ","HOUSE_NO":"１１號","E_COORD97":173611.88,"N_COORD97":2544244.6099999999,"ADDRESS":"崑大路１５５巷１１號","OBJECTID":408891},"geometry":{"x":173611.88000000082,"y":2544244.6100000013}},{"attributes":{"ID":408916,"DIS_CODE":0,"TOWNNAME":"永康區","LI":"崑山里","LIN":"38鄰","STREET":"崑山街","SECT":" ","MAREA":" ","LANE":"１８３巷","ALLEY":" ","HOUSE_NO":"２２號","E_COORD97":173985.03,"N_COORD97":2544982.6699999999,"ADDRESS":"崑山街１８３巷２２號","OBJECTID":408892},"geometry":{"x":173985.03000000026,"y":2544982.6700000037}},{"attributes":{"ID":408917,"DIS_CODE":0,"TOWNNAME":"永康區","LI":"埔園里","LIN":"21鄰","STREET":"四維街","SECT":" ","MAREA":" ","LANE":"７８巷","ALLEY":" ","HOUSE_NO":"６號","E_COORD97":173422.85999999999,"N_COORD97":2548112.9900000002,"ADDRESS":"四維街７８巷６號","OBJECTID":408893},"geometry":{"x":173422.86000000127,"y":2548112.9900000002}},{"attributes":{"ID":408918,"DIS_CODE":0,"TOWNNAME":"東區","LI":"崇學里","LIN":"13鄰","STREET":"崇明九街","SECT":" ","MAREA":" ","LANE":" ","ALLEY":" ","HOUSE_NO":"１１０號","E_COORD97":170184.28,"N_COORD97":2541907.6800000002,"ADDRESS":"崇明九街１１０號","OBJECTID":408894},"geometry":{"x":170184.28000000026,"y":2541907.6800000016}},{"attributes":{"ID":408919,"DIS_CODE":0,"TOWNNAME":"中西區","LI":"永華里","LIN":"22鄰","STREET":"忠義路","SECT":"二段","MAREA":" ","LANE":"５０巷","ALLEY":" ","HOUSE_NO":"５號","E_COORD97":168326.67000000001,"N_COORD97":2543719.4500000002,"ADDRESS":"忠義路二段５０巷５號","OBJECTID":408895},"geometry":{"x":168326.66999999993,"y":2543719.4500000011}},{"attributes":{"ID":408920,"DIS_CODE":0,"TOWNNAME":"中西區","LI":"永華里","LIN":"22鄰","STREET":"忠義路","SECT":"二段","MAREA":" ","LANE":"５０巷","ALLEY":" ","HOUSE_NO":"６號","E_COORD97":168333.45000000001,"N_COORD97":2543717.8700000001,"ADDRESS":"忠義路二段５０巷６號","OBJECTID":408896},"geometry":{"x":168333.45000000019,"y":2543717.8700000048}},{"attributes":{"ID":408921,"DIS_CODE":0,"TOWNNAME":"中西區","LI":"永華里","LIN":"22鄰","STREET":"忠義路","SECT":"二段","MAREA":" ","LANE":"５０巷","ALLEY":" ","HOUSE_NO":"７號","E_COORD97":168332.60999999999,"N_COORD97":2543724.8100000001,"ADDRESS":"忠義路二段５０巷７號","OBJECTID":408897},"geometry":{"x":168332.61000000034,"y":2543724.8100000024}},{"attributes":{"ID":408922,"DIS_CODE":0,"TOWNNAME":"中西區","LI":"永華里","LIN":"22鄰","STREET":"忠義路","SECT":"二段","MAREA":" ","LANE":"５０巷","ALLEY":" ","HOUSE_NO":"８號","E_COORD97":168318.01999999999,"N_COORD97":2543727.1499999999,"ADDRESS":"忠義路二段５０巷８號","OBJECTID":408898},"geometry":{"x":168318.02000000048,"y":2543727.1500000004}},{"attributes":{"ID":408923,"DIS_CODE":0,"TOWNNAME":"永康區","LI":"崑山里","LIN":"46鄰","STREET":"國光五街","SECT":" ","MAREA":" ","LANE":"２２巷","ALLEY":" ","HOUSE_NO":"５５號","E_COORD97":174248.07000000001,"N_COORD97":2545222.1600000001,"ADDRESS":"國光五街２２巷５５號","OBJECTID":408899},"geometry":{"x":174248.07000000216,"y":2545222.1600000001}},{"attributes":{"ID":408924,"DIS_CODE":0,"TOWNNAME":"永康區","LI":"崑山里","LIN":"29鄰","STREET":"大灣路","SECT":" ","MAREA":" ","LANE":"９４２巷","ALLEY":" ","HOUSE_NO":"１１６號","E_COORD97":173736.69,"N_COORD97":2544794.75,"ADDRESS":"大灣路９４２巷１１６號","OBJECTID":408900},"geometry":{"x":173736.69000000041,"y":2544794.75}},{"attributes":{"ID":408925,"DIS_CODE":0,"TOWNNAME":"永康區","LI":"龍潭里","LIN":"22鄰","STREET":"龍橋街","SECT":" ","MAREA":" ","LANE":"１３０巷","ALLEY":" ","HOUSE_NO":"３０號","E_COORD97":174716.98000000001,"N_COORD97":2548662.5899999999,"ADDRESS":"龍橋街１３０巷３０號","OBJECTID":408901},"geometry":{"x":174716.98000000138,"y":2548662.5900000017}},{"attributes":{"ID":408926,"DIS_CODE":0,"TOWNNAME":"東區","LI":"後甲里","LIN":"22鄰","STREET":"中華東路","SECT":"一段","MAREA":" ","LANE":"２０７巷","ALLEY":" ","HOUSE_NO":"１０號","E_COORD97":171499.10999999999,"N_COORD97":2543393.1299999999,"ADDRESS":"中華東路一段２０７巷１０號","OBJECTID":408902},"geometry":{"x":171499.11000000034,"y":2543393.1300000008}},{"attributes":{"ID":408927,"DIS_CODE":0,"TOWNNAME":"東區","LI":"後甲里","LIN":"22鄰","STREET":"中華東路","SECT":"一段","MAREA":" ","LANE":"２０７巷","ALLEY":" ","HOUSE_NO":"１２號","E_COORD97":171503.92999999999,"N_COORD97":2543391.9199999999,"ADDRESS":"中華東路一段２０７巷１２號","OBJECTID":408903},"geometry":{"x":171503.93000000156,"y":2543391.9200000018}},{"attributes":{"ID":408928,"DIS_CODE":0,"TOWNNAME":"東區","LI":"後甲里","LIN":"22鄰","STREET":"中華東路","SECT":"一段","MAREA":" ","LANE":"２０７巷","ALLEY":" ","HOUSE_NO":"１６號","E_COORD97":171511.89000000001,"N_COORD97":2543392.6400000001,"ADDRESS":"中華東路一段２０７巷１６號","OBJECTID":408904},"geometry":{"x":171511.88999999966,"y":2543392.6400000006}},{"attributes":{"ID":408929,"DIS_CODE":0,"TOWNNAME":"東區","LI":"後甲里","LIN":"22鄰","STREET":"中華東路","SECT":"一段","MAREA":" ","LANE":"２０７巷","ALLEY":" ","HOUSE_NO":"１８號","E_COORD97":171515.26999999999,"N_COORD97":2543394.0899999999,"ADDRESS":"中華東路一段２０７巷１８號","OBJECTID":408905},"geometry":{"x":171515.27000000048,"y":2543394.0900000017}},{"attributes":{"ID":408930,"DIS_CODE":0,"TOWNNAME":"東區","LI":"後甲里","LIN":"22鄰","STREET":"中華東路","SECT":"一段","MAREA":" ","LANE":"２０７巷","ALLEY":" ","HOUSE_NO":"４號","E_COORD97":171488.01000000001,"N_COORD97":2543389.9900000002,"ADDRESS":"中華東路一段２０７巷４號","OBJECTID":408906},"geometry":{"x":171488.00999999885,"y":2543389.9900000002}},{"attributes":{"ID":408931,"DIS_CODE":0,"TOWNNAME":"永康區","LI":"崑山里","LIN":"40鄰","STREET":"崑山街","SECT":" ","MAREA":" ","LANE":"２２２巷","ALLEY":" ","HOUSE_NO":"１０號","E_COORD97":174132.5,"N_COORD97":2545025.1699999999,"ADDRESS":"崑山街２２２巷１０號","OBJECTID":408907},"geometry":{"x":174132.5,"y":2545025.1699999999}},{"attributes":{"ID":408932,"DIS_CODE":0,"TOWNNAME":"永康區","LI":"勝利里","LIN":"19鄰","STREET":"中華一路","SECT":" ","MAREA":" ","LANE":"２７２巷","ALLEY":" ","HOUSE_NO":"２１號","E_COORD97":171327.35999999999,"N_COORD97":2545044.9900000002,"ADDRESS":"中華一路２７２巷２１號","OBJECTID":408908},"geometry":{"x":171327.36000000127,"y":2545044.9900000039}},{"attributes":{"ID":408933,"DIS_CODE":0,"TOWNNAME":"永康區","LI":"龍潭里","LIN":"22鄰","STREET":"龍橋街","SECT":" ","MAREA":" ","LANE":"６６巷","ALLEY":" ","HOUSE_NO":"１３號","E_COORD97":174753.14999999999,"N_COORD97":2548509.46,"ADDRESS":"龍橋街６６巷１３號","OBJECTID":408909},"geometry":{"x":174753.1500000013,"y":2548509.4600000009}},{"attributes":{"ID":408934,"DIS_CODE":0,"TOWNNAME":"永康區","LI":"龍潭里","LIN":"22鄰","STREET":"龍橋街","SECT":" ","MAREA":" ","LANE":"１３０巷","ALLEY":" ","HOUSE_NO":"３５號","E_COORD97":174735.01000000001,"N_COORD97":2548695,"ADDRESS":"龍橋街１３０巷３５號","OBJECTID":408910},"geometry":{"x":174735.01000000071,"y":2548695}},{"attributes":{"ID":408935,"DIS_CODE":0,"TOWNNAME":"永康區","LI":"網寮里","LIN":"22鄰","STREET":"永春街","SECT":" ","MAREA":" ","LANE":"２５巷","ALLEY":" ","HOUSE_NO":"１５號","E_COORD97":173735.81,"N_COORD97":2546270.4900000002,"ADDRESS":"永春街２５巷１５號","OBJECTID":408911},"geometry":{"x":173735.81000000052,"y":2546270.4900000021}},{"attributes":{"ID":408936,"DIS_CODE":0,"TOWNNAME":"永康區","LI":"中華里","LIN":"22鄰","STREET":"忠勇街","SECT":" ","MAREA":" ","LANE":"６３巷","ALLEY":" ","HOUSE_NO":"１１號","E_COORD97":171842.84,"N_COORD97":2544612.9399999999,"ADDRESS":"忠勇街６３巷１１號","OBJECTID":408912},"geometry":{"x":171842.83999999985,"y":2544612.9399999995}},{"attributes":{"ID":408937,"DIS_CODE":0,"TOWNNAME":"永康區","LI":"中華里","LIN":"22鄰","STREET":"忠勇街","SECT":" ","MAREA":" ","LANE":"６３巷","ALLEY":" ","HOUSE_NO":"５號","E_COORD97":171853.89999999999,"N_COORD97":2544612.9399999999,"ADDRESS":"忠勇街６３巷５號","OBJECTID":408913},"geometry":{"x":171853.90000000224,"y":2544612.9399999995}},{"attributes":{"ID":408938,"DIS_CODE":0,"TOWNNAME":"永康區","LI":"中華里","LIN":"22鄰","STREET":"忠勇街","SECT":" ","MAREA":" ","LANE":"６３巷","ALLEY":" ","HOUSE_NO":"２１號","E_COORD97":171821.39000000001,"N_COORD97":2544611.7999999998,"ADDRESS":"忠勇街６３巷２１號","OBJECTID":408914},"geometry":{"x":171821.3900000006,"y":2544611.8000000007}},{"attributes":{"ID":408939,"DIS_CODE":0,"TOWNNAME":"永康區","LI":"中華里","LIN":"22鄰","STREET":"忠勇街","SECT":" ","MAREA":" ","LANE":"６３巷","ALLEY":" ","HOUSE_NO":"３號","E_COORD97":171858.22,"N_COORD97":2544613.0600000001,"ADDRESS":"忠勇街６３巷３號","OBJECTID":408915},"geometry":{"x":171858.22000000067,"y":2544613.0600000005}},{"attributes":{"ID":408940,"DIS_CODE":0,"TOWNNAME":"永康區","LI":"崑山里","LIN":"43鄰","STREET":"大灣路","SECT":" ","MAREA":" ","LANE":"９４２巷","ALLEY":" ","HOUSE_NO":"３３５號","E_COORD97":173831.73000000001,"N_COORD97":2545110.9900000002,"ADDRESS":"大灣路９４２巷３３５號","OBJECTID":408916},"geometry":{"x":173831.73000000231,"y":2545110.9900000021}},{"attributes":{"ID":408941,"DIS_CODE":0,"TOWNNAME":"東區","LI":"新東里","LIN":"22鄰","STREET":"裕農路","SECT":" ","MAREA":" ","LANE":"４３巷","ALLEY":" ","HOUSE_NO":"１號地下層","E_COORD97":170636.29000000001,"N_COORD97":2542923.79,"ADDRESS":"裕農路４３巷１號地下層","OBJECTID":408917},"geometry":{"x":170636.29000000097,"y":2542923.790000001}},{"attributes":{"ID":408942,"DIS_CODE":0,"TOWNNAME":"東區","LI":"東光里","LIN":"22鄰","STREET":"東安路","SECT":" ","MAREA":" ","LANE":"１３４巷","ALLEY":" ","HOUSE_NO":"１號","E_COORD97":170757.45999999999,"N_COORD97":2543848.4500000002,"ADDRESS":"東安路１３４巷１號","OBJECTID":408918},"geometry":{"x":170757.45999999996,"y":2543848.4500000011}},{"attributes":{"ID":408943,"DIS_CODE":0,"TOWNNAME":"東區","LI":"東光里","LIN":"22鄰","STREET":"東安路","SECT":" ","MAREA":" ","LANE":"１３４巷","ALLEY":" ","HOUSE_NO":"３號","E_COORD97":170761.17000000001,"N_COORD97":2543845.5299999998,"ADDRESS":"東安路１３４巷３號","OBJECTID":408919},"geometry":{"x":170761.16999999993,"y":2543845.5299999993}},{"attributes":{"ID":408944,"DIS_CODE":0,"TOWNNAME":"東區","LI":"東光里","LIN":"22鄰","STREET":"東安路","SECT":" ","MAREA":" ","LANE":"１３４巷","ALLEY":" ","HOUSE_NO":"５號","E_COORD97":170765.26000000001,"N_COORD97":2543848.6400000001,"ADDRESS":"東安路１３４巷５號","OBJECTID":408920},"geometry":{"x":170765.25999999978,"y":2543848.6400000025}},{"attributes":{"ID":408945,"DIS_CODE":0,"TOWNNAME":"東區","LI":"東明里","LIN":"22鄰","STREET":"東安路","SECT":" ","MAREA":" ","LANE":"３０巷","ALLEY":" ","HOUSE_NO":"２１號","E_COORD97":170761.85999999999,"N_COORD97":2543561.8500000001,"ADDRESS":"東安路３０巷２１號","OBJECTID":408921},"geometry":{"x":170761.86000000034,"y":2543561.8500000015}},{"attributes":{"ID":408946,"DIS_CODE":0,"TOWNNAME":"東區","LI":"東明里","LIN":"22鄰","STREET":"東安路","SECT":" ","MAREA":" ","LANE":"３０巷","ALLEY":" ","HOUSE_NO":"３９號","E_COORD97":170798.95999999999,"N_COORD97":2543554.3900000001,"ADDRESS":"東安路３０巷３９號","OBJECTID":408922},"geometry":{"x":170798.96000000089,"y":2543554.3900000043}},{"attributes":{"ID":408947,"DIS_CODE":0,"TOWNNAME":"東區","LI":"東明里","LIN":"22鄰","STREET":"東安路","SECT":" ","MAREA":" ","LANE":"４８巷","ALLEY":" ","HOUSE_NO":"２２號","E_COORD97":170767,"N_COORD97":2543585.1600000001,"ADDRESS":"東安路４８巷２２號","OBJECTID":408923},"geometry":{"x":170767.00000000093,"y":2543585.1600000001}},{"attributes":{"ID":408948,"DIS_CODE":0,"TOWNNAME":"東區","LI":"東明里","LIN":"22鄰","STREET":"東安路","SECT":" ","MAREA":" ","LANE":"４８巷","ALLEY":" ","HOUSE_NO":"２４號","E_COORD97":170771.66,"N_COORD97":2543587.4900000002,"ADDRESS":"東安路４８巷２４號","OBJECTID":408924},"geometry":{"x":170771.66000000015,"y":2543587.4900000021}},{"attributes":{"ID":408949,"DIS_CODE":0,"TOWNNAME":"永康區","LI":"烏竹里","LIN":"8鄰","STREET":"龍橋街","SECT":" ","MAREA":" ","LANE":"３８１巷","ALLEY":" ","HOUSE_NO":"２０號","E_COORD97":174406.98999999999,"N_COORD97":2549128.1000000001,"ADDRESS":"龍橋街３８１巷２０號","OBJECTID":408925},"geometry":{"x":174406.99000000022,"y":2549128.0999999996}},{"attributes":{"ID":408950,"DIS_CODE":0,"TOWNNAME":"永康區","LI":"崑山里","LIN":"35鄰","STREET":"大灣路","SECT":" ","MAREA":" ","LANE":"９４２巷","ALLEY":" ","HOUSE_NO":"２９１號","E_COORD97":173800.06,"N_COORD97":2545024.9900000002,"ADDRESS":"大灣路９４２巷２９１號","OBJECTID":408926},"geometry":{"x":173800.06000000052,"y":2545024.9900000021}},{"attributes":{"ID":408951,"DIS_CODE":0,"TOWNNAME":"永康區","LI":"崑山里","LIN":"6鄰","STREET":"崑大路","SECT":" ","MAREA":" ","LANE":"１５５巷","ALLEY":" ","HOUSE_NO":"１６３號","E_COORD97":173589.12,"N_COORD97":2543745.7000000002,"ADDRESS":"崑大路１５５巷１６３號","OBJECTID":408927},"geometry":{"x":173589.12000000011,"y":2543745.7000000011}},{"attributes":{"ID":408952,"DIS_CODE":0,"TOWNNAME":"永康區","LI":"崑山里","LIN":"30鄰","STREET":"崑山街","SECT":" ","MAREA":" ","LANE":"１０３巷","ALLEY":" ","HOUSE_NO":"２４號","E_COORD97":173920.06,"N_COORD97":2544784.04,"ADDRESS":"崑山街１０３巷２４號","OBJECTID":408928},"geometry":{"x":173920.05999999866,"y":2544784.040000001}},{"attributes":{"ID":408953,"DIS_CODE":0,"TOWNNAME":"永康區","LI":"崑山里","LIN":"29鄰","STREET":"大仁街","SECT":" ","MAREA":" ","LANE":"１０７巷","ALLEY":" ","HOUSE_NO":"２號","E_COORD97":173818.94,"N_COORD97":2544812.6200000001,"ADDRESS":"大仁街１０７巷２號","OBJECTID":408929},"geometry":{"x":173818.94000000134,"y":2544812.6200000029}},{"attributes":{"ID":408954,"DIS_CODE":0,"TOWNNAME":"永康區","LI":"網寮里","LIN":"22鄰","STREET":"永大一路","SECT":" ","MAREA":" ","LANE":"２５１巷","ALLEY":" ","HOUSE_NO":"２０號","E_COORD97":173670.34,"N_COORD97":2546239.7599999998,"ADDRESS":"永大一路２５１巷２０號","OBJECTID":408930},"geometry":{"x":173670.33999999985,"y":2546239.7600000035}},{"attributes":{"ID":408955,"DIS_CODE":0,"TOWNNAME":"永康區","LI":"復國里","LIN":"22鄰","STREET":"復華六街","SECT":" ","MAREA":" ","LANE":"９３巷","ALLEY":" ","HOUSE_NO":"２８號","E_COORD97":172606.42000000001,"N_COORD97":2545762.2799999998,"ADDRESS":"復華六街９３巷２８號","OBJECTID":408931},"geometry":{"x":172606.42000000086,"y":2545762.2800000012}},{"attributes":{"ID":408956,"DIS_CODE":0,"TOWNNAME":"永康區","LI":"網寮里","LIN":"22鄰","STREET":"永春街","SECT":" ","MAREA":" ","LANE":"２５巷","ALLEY":" ","HOUSE_NO":"１２號","E_COORD97":173726.39000000001,"N_COORD97":2546286.9900000002,"ADDRESS":"永春街２５巷１２號","OBJECTID":408932},"geometry":{"x":173726.39000000153,"y":2546286.9900000021}},{"attributes":{"ID":408957,"DIS_CODE":0,"TOWNNAME":"永康區","LI":"網寮里","LIN":"22鄰","STREET":"永春街","SECT":" ","MAREA":" ","LANE":"２５巷","ALLEY":" ","HOUSE_NO":"２號","E_COORD97":173760.23000000001,"N_COORD97":2546296.9900000002,"ADDRESS":"永春街２５巷２號","OBJECTID":408933},"geometry":{"x":173760.23000000045,"y":2546296.9900000021}},{"attributes":{"ID":408958,"DIS_CODE":0,"TOWNNAME":"永康區","LI":"網寮里","LIN":"22鄰","STREET":"永春街","SECT":" ","MAREA":" ","LANE":"２５巷","ALLEY":" ","HOUSE_NO":"５號","E_COORD97":173757.14999999999,"N_COORD97":2546274.9900000002,"ADDRESS":"永春街２５巷５號","OBJECTID":408934},"geometry":{"x":173757.15000000037,"y":2546274.9900000002}},{"attributes":{"ID":408959,"DIS_CODE":0,"TOWNNAME":"永康區","LI":"網寮里","LIN":"22鄰","STREET":"永春街","SECT":" ","MAREA":" ","LANE":"２５巷","ALLEY":" ","HOUSE_NO":"６之１號","E_COORD97":173752.79000000001,"N_COORD97":2546295.04,"ADDRESS":"永春街２５巷６之１號","OBJECTID":408935},"geometry":{"x":173752.79000000004,"y":2546295.040000001}},{"attributes":{"ID":408960,"DIS_CODE":0,"TOWNNAME":"永康區","LI":"網寮里","LIN":"22鄰","STREET":"永春街","SECT":" ","MAREA":" ","LANE":"２５巷","ALLEY":" ","HOUSE_NO":"８號","E_COORD97":173736.70000000001,"N_COORD97":2546290.7400000002,"ADDRESS":"永春街２５巷８號","OBJECTID":408936},"geometry":{"x":173736.70000000205,"y":2546290.7400000002}},{"attributes":{"ID":408961,"DIS_CODE":0,"TOWNNAME":"永康區","LI":"復華里","LIN":"22鄰","STREET":"復華七街","SECT":" ","MAREA":" ","LANE":"１１７巷","ALLEY":" ","HOUSE_NO":"２３號","E_COORD97":172778.38,"N_COORD97":2546162.4700000002,"ADDRESS":"復華七街１１７巷２３號","OBJECTID":408937},"geometry":{"x":172778.37999999989,"y":2546162.4700000025}},{"attributes":{"ID":408962,"DIS_CODE":0,"TOWNNAME":"永康區","LI":"復華里","LIN":"22鄰","STREET":"復華七街","SECT":" ","MAREA":" ","LANE":"１１７巷","ALLEY":" ","HOUSE_NO":"２６號","E_COORD97":172801.53,"N_COORD97":2546210.0099999998,"ADDRESS":"復華七街１１７巷２６號","OBJECTID":408938},"geometry":{"x":172801.53000000026,"y":2546210.0099999998}},{"attributes":{"ID":408963,"DIS_CODE":0,"TOWNNAME":"永康區","LI":"復華里","LIN":"22鄰","STREET":"復華七街","SECT":" ","MAREA":" ","LANE":"１１７巷","ALLEY":" ","HOUSE_NO":"１１號","E_COORD97":172794.78,"N_COORD97":2546155.77,"ADDRESS":"復華七街１１７巷１１號","OBJECTID":408939},"geometry":{"x":172794.78000000026,"y":2546155.7700000014}},{"attributes":{"ID":408964,"DIS_CODE":0,"TOWNNAME":"永康區","LI":"復華里","LIN":"22鄰","STREET":"復華七街","SECT":" ","MAREA":" ","LANE":"１１７巷","ALLEY":" ","HOUSE_NO":"２５號","E_COORD97":172781.79000000001,"N_COORD97":2546166.4700000002,"ADDRESS":"復華七街１１７巷２５號","OBJECTID":408940},"geometry":{"x":172781.79000000097,"y":2546166.4700000007}},{"attributes":{"ID":408965,"DIS_CODE":0,"TOWNNAME":"下營區","LI":"後街里","LIN":"22鄰","STREET":"大和街","SECT":" ","MAREA":" ","LANE":"１１３巷","ALLEY":" ","HOUSE_NO":"９號","E_COORD97":174622.87,"N_COORD97":2571151.8599999999,"ADDRESS":"大和街１１３巷９號","OBJECTID":408941},"geometry":{"x":174622.87000000104,"y":2571151.8600000013}},{"attributes":{"ID":408966,"DIS_CODE":0,"TOWNNAME":"永康區","LI":"復華里","LIN":"22鄰","STREET":"復華七街","SECT":" ","MAREA":" ","LANE":"１１７巷","ALLEY":" ","HOUSE_NO":"３８號","E_COORD97":172818.76000000001,"N_COORD97":2546241.7599999998,"ADDRESS":"復華七街１１７巷３８號","OBJECTID":408942},"geometry":{"x":172818.75999999885,"y":2546241.7599999998}},{"attributes":{"ID":408967,"DIS_CODE":0,"TOWNNAME":"永康區","LI":"復華里","LIN":"22鄰","STREET":"復華七街","SECT":" ","MAREA":" ","LANE":"１１７巷","ALLEY":" ","HOUSE_NO":"３６號","E_COORD97":172816.07999999999,"N_COORD97":2546236.5099999998,"ADDRESS":"復華七街１１７巷３６號","OBJECTID":408943},"geometry":{"x":172816.08000000101,"y":2546236.5099999998}},{"attributes":{"ID":408968,"DIS_CODE":0,"TOWNNAME":"永康區","LI":"復華里","LIN":"22鄰","STREET":"復華七街","SECT":" ","MAREA":" ","LANE":"１１７巷","ALLEY":" ","HOUSE_NO":"１３號","E_COORD97":172791.41,"N_COORD97":2546151.77,"ADDRESS":"復華七街１１７巷１３號","OBJECTID":408944},"geometry":{"x":172791.41000000108,"y":2546151.7700000014}},{"attributes":{"ID":408969,"DIS_CODE":0,"TOWNNAME":"永康區","LI":"復華里","LIN":"22鄰","STREET":"復華七街","SECT":" ","MAREA":" ","LANE":"１１７巷","ALLEY":" ","HOUSE_NO":"２４號","E_COORD97":172799.47,"N_COORD97":2546204.2599999998,"ADDRESS":"復華七街１１７巷２４號","OBJECTID":408945},"geometry":{"x":172799.47000000067,"y":2546204.2599999998}},{"attributes":{"ID":408970,"DIS_CODE":0,"TOWNNAME":"東區","LI":"大福里","LIN":"22鄰","STREET":"立德八路","SECT":" ","MAREA":" ","LANE":"１４巷","ALLEY":" ","HOUSE_NO":"５號","E_COORD97":169438.14999999999,"N_COORD97":2541886.4500000002,"ADDRESS":"立德八路１４巷５號","OBJECTID":408946},"geometry":{"x":169438.15000000037,"y":2541886.4499999993}},{"attributes":{"ID":408971,"DIS_CODE":0,"TOWNNAME":"東區","LI":"龍山里","LIN":"22鄰","STREET":"東門路","SECT":"二段","MAREA":" ","LANE":"１０４巷","ALLEY":" ","HOUSE_NO":"２５號","E_COORD97":170043.89000000001,"N_COORD97":2542909.23,"ADDRESS":"東門路二段１０４巷２５號","OBJECTID":408947},"geometry":{"x":170043.88999999966,"y":2542909.2300000023}},{"attributes":{"ID":408972,"DIS_CODE":0,"TOWNNAME":"永康區","LI":"大橋里","LIN":"22鄰","STREET":"大橋一街","SECT":" ","MAREA":" ","LANE":"１８１巷","ALLEY":" ","HOUSE_NO":"２５號","E_COORD97":171113.78,"N_COORD97":2546601.7400000002,"ADDRESS":"大橋一街１８１巷２５號","OBJECTID":408948},"geometry":{"x":171113.78000000212,"y":2546601.7400000002}},{"attributes":{"ID":408973,"DIS_CODE":0,"TOWNNAME":"永康區","LI":"中興里","LIN":"22鄰","STREET":"中華路","SECT":" ","MAREA":" ","LANE":"２１２巷","ALLEY":" ","HOUSE_NO":"１１號","E_COORD97":171734.78,"N_COORD97":2545018.79,"ADDRESS":"中華路２１２巷１１號","OBJECTID":408949},"geometry":{"x":171734.78000000119,"y":2545018.790000001}},{"attributes":{"ID":408974,"DIS_CODE":0,"TOWNNAME":"永康區","LI":"五王里","LIN":"22鄰","STREET":"成功路","SECT":" ","MAREA":" ","LANE":"２２８巷","ALLEY":" ","HOUSE_NO":"８號","E_COORD97":171387.03,"N_COORD97":2545786.02,"ADDRESS":"成功路２２８巷８號","OBJECTID":408950},"geometry":{"x":171387.03000000119,"y":2545786.0199999996}},{"attributes":{"ID":408975,"DIS_CODE":0,"TOWNNAME":"永康區","LI":"中興里","LIN":"22鄰","STREET":"中華路","SECT":" ","MAREA":" ","LANE":"２１２巷","ALLEY":" ","HOUSE_NO":"３７號","E_COORD97":171795.70999999999,"N_COORD97":2545024.0499999998,"ADDRESS":"中華路２１２巷３７號","OBJECTID":408951},"geometry":{"x":171795.71000000089,"y":2545024.0500000007}},{"attributes":{"ID":408976,"DIS_CODE":0,"TOWNNAME":"永康區","LI":"中興里","LIN":"22鄰","STREET":"中華路","SECT":" ","MAREA":" ","LANE":"２１２巷","ALLEY":" ","HOUSE_NO":"１８號","E_COORD97":171741.98999999999,"N_COORD97":2545006.5099999998,"ADDRESS":"中華路２１２巷１８號","OBJECTID":408952},"geometry":{"x":171741.99000000115,"y":2545006.5099999998}},{"attributes":{"ID":408977,"DIS_CODE":0,"TOWNNAME":"永康區","LI":"五王里","LIN":"22鄰","STREET":"成功路","SECT":" ","MAREA":" ","LANE":"２２８巷","ALLEY":" ","HOUSE_NO":"３９號","E_COORD97":171439.37,"N_COORD97":2545841.2599999998,"ADDRESS":"成功路２２８巷３９號","OBJECTID":408953},"geometry":{"x":171439.37000000104,"y":2545841.2599999998}},{"attributes":{"ID":408978,"DIS_CODE":0,"TOWNNAME":"永康區","LI":"中興里","LIN":"22鄰","STREET":"中華路","SECT":" ","MAREA":" ","LANE":"２１２巷","ALLEY":" ","HOUSE_NO":"５號","E_COORD97":171704.62,"N_COORD97":2545020.2400000002,"ADDRESS":"中華路２１２巷５號","OBJECTID":408954},"geometry":{"x":171704.61999999918,"y":2545020.2400000021}},{"attributes":{"ID":408979,"DIS_CODE":0,"TOWNNAME":"永康區","LI":"中興里","LIN":"22鄰","STREET":"中華路","SECT":" ","MAREA":" ","LANE":"２１２巷","ALLEY":" ","HOUSE_NO":"２２號","E_COORD97":171750.60999999999,"N_COORD97":2545007.0099999998,"ADDRESS":"中華路２１２巷２２號","OBJECTID":408955},"geometry":{"x":171750.61000000034,"y":2545007.0099999979}},{"attributes":{"ID":408980,"DIS_CODE":0,"TOWNNAME":"永康區","LI":"中興里","LIN":"22鄰","STREET":"中華路","SECT":" ","MAREA":" ","LANE":"２１２巷","ALLEY":" ","HOUSE_NO":"１６號","E_COORD97":171737.66,"N_COORD97":2545006.2599999998,"ADDRESS":"中華路２１２巷１６號","OBJECTID":408956},"geometry":{"x":171737.66000000015,"y":2545006.2600000016}},{"attributes":{"ID":408981,"DIS_CODE":0,"TOWNNAME":"永康區","LI":"神洲里","LIN":"18鄰","STREET":"忠孝路","SECT":" ","MAREA":" ","LANE":"８６巷","ALLEY":" ","HOUSE_NO":"７號","E_COORD97":172120.85000000001,"N_COORD97":2544945.7400000002,"ADDRESS":"忠孝路８６巷７號","OBJECTID":408957},"geometry":{"x":172120.84999999963,"y":2544945.7400000021}},{"attributes":{"ID":408982,"DIS_CODE":0,"TOWNNAME":"永康區","LI":"崑山里","LIN":"32鄰","STREET":"崑山街","SECT":" ","MAREA":" ","LANE":"１３６巷","ALLEY":" ","HOUSE_NO":"２６號","E_COORD97":174082.35999999999,"N_COORD97":2544819.3799999999,"ADDRESS":"崑山街１３６巷２６號","OBJECTID":408958},"geometry":{"x":174082.36000000127,"y":2544819.379999999}},{"attributes":{"ID":408983,"DIS_CODE":0,"TOWNNAME":"永康區","LI":"崑山里","LIN":"42鄰","STREET":"大仁街","SECT":" ","MAREA":" ","LANE":"１９９巷","ALLEY":" ","HOUSE_NO":"１４號","E_COORD97":173892.35000000001,"N_COORD97":2545067.25,"ADDRESS":"大仁街１９９巷１４號","OBJECTID":408959},"geometry":{"x":173892.34999999963,"y":2545067.2500000019}},{"attributes":{"ID":408984,"DIS_CODE":0,"TOWNNAME":"永康區","LI":"崑山里","LIN":"47鄰","STREET":"國光五街","SECT":" ","MAREA":" ","LANE":"２２巷","ALLEY":" ","HOUSE_NO":"４６號","E_COORD97":174274.44,"N_COORD97":2545227.3300000001,"ADDRESS":"國光五街２２巷４６號","OBJECTID":408960},"geometry":{"x":174274.44000000227,"y":2545227.3300000019}},{"attributes":{"ID":408985,"DIS_CODE":0,"TOWNNAME":"永康區","LI":"勝利里","LIN":"33鄰","STREET":"中華路","SECT":" ","MAREA":" ","LANE":"７巷","ALLEY":" ","HOUSE_NO":"３４號","E_COORD97":171459.69,"N_COORD97":2544397.2400000002,"ADDRESS":"中華路７巷３４號","OBJECTID":408961},"geometry":{"x":171459.69000000041,"y":2544397.2400000021}},{"attributes":{"ID":408986,"DIS_CODE":0,"TOWNNAME":"東區","LI":"崇學里","LIN":"13鄰","STREET":"崇明九街","SECT":" ","MAREA":" ","LANE":" ","ALLEY":" ","HOUSE_NO":"１１２號","E_COORD97":170190.23000000001,"N_COORD97":2541910.6499999999,"ADDRESS":"崇明九街１１２號","OBJECTID":408962},"geometry":{"x":170190.23000000045,"y":2541910.6500000004}},{"attributes":{"ID":408987,"DIS_CODE":0,"TOWNNAME":"永康區","LI":"崑山里","LIN":"30鄰","STREET":"崑山街","SECT":" ","MAREA":" ","LANE":"１２３巷","ALLEY":" ","HOUSE_NO":"２７號","E_COORD97":173914.87,"N_COORD97":2544820.2400000002,"ADDRESS":"崑山街１２３巷２７號","OBJECTID":408963},"geometry":{"x":173914.87000000011,"y":2544820.2400000021}},{"attributes":{"ID":408988,"DIS_CODE":0,"TOWNNAME":"永康區","LI":"中興里","LIN":"22鄰","STREET":"中華路","SECT":" ","MAREA":" ","LANE":"２１２巷","ALLEY":" ","HOUSE_NO":"３０號","E_COORD97":171767.70999999999,"N_COORD97":2545008.2599999998,"ADDRESS":"中華路２１２巷３０號","OBJECTID":408964},"geometry":{"x":171767.70999999996,"y":2545008.2599999998}},{"attributes":{"ID":408989,"DIS_CODE":0,"TOWNNAME":"永康區","LI":"中興里","LIN":"22鄰","STREET":"中華路","SECT":" ","MAREA":" ","LANE":"２１２巷","ALLEY":" ","HOUSE_NO":"３９號","E_COORD97":171800.09,"N_COORD97":2545024.1400000001,"ADDRESS":"中華路２１２巷３９號","OBJECTID":408965},"geometry":{"x":171800.09000000078,"y":2545024.1400000043}},{"attributes":{"ID":408990,"DIS_CODE":0,"TOWNNAME":"永康區","LI":"五王里","LIN":"22鄰","STREET":"成功路","SECT":" ","MAREA":" ","LANE":"２２８巷","ALLEY":" ","HOUSE_NO":"４２號","E_COORD97":171452.14999999999,"N_COORD97":2545833.27,"ADDRESS":"成功路２２８巷４２號","OBJECTID":408966},"geometry":{"x":171452.15000000224,"y":2545833.2700000014}},{"attributes":{"ID":408991,"DIS_CODE":0,"TOWNNAME":"永康區","LI":"正強里","LIN":"22鄰","STREET":"中正路","SECT":" ","MAREA":" ","LANE":"１２７巷","ALLEY":" ","HOUSE_NO":"２５號","E_COORD97":173398.39999999999,"N_COORD97":2547778.75,"ADDRESS":"中正路１２７巷２５號","OBJECTID":408967},"geometry":{"x":173398.40000000224,"y":2547778.75}},{"attributes":{"ID":408992,"DIS_CODE":0,"TOWNNAME":"永康區","LI":"勝利里","LIN":"22鄰","STREET":"勝華街","SECT":" ","MAREA":" ","LANE":"３７巷","ALLEY":" ","HOUSE_NO":"２１號","E_COORD97":171459.60000000001,"N_COORD97":2545156.75,"ADDRESS":"勝華街３７巷２１號","OBJECTID":408968},"geometry":{"x":171459.59999999963,"y":2545156.75}},{"attributes":{"ID":408993,"DIS_CODE":0,"TOWNNAME":"永康區","LI":"勝利里","LIN":"22鄰","STREET":"勝華街","SECT":" ","MAREA":" ","LANE":"３７巷","ALLEY":" ","HOUSE_NO":"２３號","E_COORD97":171459.60000000001,"N_COORD97":2545152.5,"ADDRESS":"勝華街３７巷２３號","OBJECTID":408969},"geometry":{"x":171459.59999999963,"y":2545152.5}},{"attributes":{"ID":408994,"DIS_CODE":0,"TOWNNAME":"永康區","LI":"勝利里","LIN":"22鄰","STREET":"勝華街","SECT":" ","MAREA":" ","LANE":"３７巷","ALLEY":" ","HOUSE_NO":"１９號","E_COORD97":171460.16,"N_COORD97":2545161.5099999998,"ADDRESS":"勝華街３７巷１９號","OBJECTID":408970},"geometry":{"x":171460.16000000015,"y":2545161.5099999998}},{"attributes":{"ID":408995,"DIS_CODE":0,"TOWNNAME":"永康區","LI":"復華里","LIN":"22鄰","STREET":"復華七街","SECT":" ","MAREA":" ","LANE":"１１７巷","ALLEY":" ","HOUSE_NO":"７號","E_COORD97":172800.62,"N_COORD97":2546164.27,"ADDRESS":"復華七街１１７巷７號","OBJECTID":408971},"geometry":{"x":172800.62000000104,"y":2546164.2699999996}},{"attributes":{"ID":408996,"DIS_CODE":0,"TOWNNAME":"永康區","LI":"勝利里","LIN":"22鄰","STREET":"勝華街","SECT":" ","MAREA":" ","LANE":"３７巷","ALLEY":" ","HOUSE_NO":"３３號","E_COORD97":171458.92000000001,"N_COORD97":2545130.5,"ADDRESS":"勝華街３７巷３３號","OBJECTID":408972},"geometry":{"x":171458.92000000086,"y":2545130.5000000019}},{"attributes":{"ID":408997,"DIS_CODE":0,"TOWNNAME":"永康區","LI":"復華里","LIN":"22鄰","STREET":"復華七街","SECT":" ","MAREA":" ","LANE":"１１７巷","ALLEY":" ","HOUSE_NO":"４０號","E_COORD97":172822.22,"N_COORD97":2546247.2599999998,"ADDRESS":"復華七街１１７巷４０號","OBJECTID":408973},"geometry":{"x":172822.21999999974,"y":2546247.2600000016}},{"attributes":{"ID":408998,"DIS_CODE":0,"TOWNNAME":"永康區","LI":"崑山里","LIN":"43鄰","STREET":"大灣路","SECT":" ","MAREA":" ","LANE":"９４２巷","ALLEY":" ","HOUSE_NO":"４４７號","E_COORD97":173921.10000000001,"N_COORD97":2545378.1600000001,"ADDRESS":"大灣路９４２巷４４７號","OBJECTID":408974},"geometry":{"x":173921.09999999963,"y":2545378.1600000001}},{"attributes":{"ID":408999,"DIS_CODE":0,"TOWNNAME":"永康區","LI":"崑山里","LIN":"34鄰","STREET":"大仁街","SECT":" ","MAREA":" ","LANE":"１４３巷","ALLEY":" ","HOUSE_NO":"２０號","E_COORD97":173824.26000000001,"N_COORD97":2544923.1200000001,"ADDRESS":"大仁街１４３巷２０號","OBJECTID":408975},"geometry":{"x":173824.26000000071,"y":2544923.1200000048}},{"attributes":{"ID":409000,"DIS_CODE":0,"TOWNNAME":"永康區","LI":"復華里","LIN":"22鄰","STREET":"復華七街","SECT":" ","MAREA":" ","LANE":"１１７巷","ALLEY":" ","HOUSE_NO":"３３號","E_COORD97":172795.62,"N_COORD97":2546182.9700000002,"ADDRESS":"復華七街１１７巷３３號","OBJECTID":408976},"geometry":{"x":172795.62000000011,"y":2546182.9700000025}},{"attributes":{"ID":409001,"DIS_CODE":0,"TOWNNAME":"永康區","LI":"勝利里","LIN":"22鄰","STREET":"勝華街","SECT":" ","MAREA":" ","LANE":"３７巷","ALLEY":" ","HOUSE_NO":"３號","E_COORD97":171461.38,"N_COORD97":2545196.5099999998,"ADDRESS":"勝華街３７巷３號","OBJECTID":408977},"geometry":{"x":171461.37999999989,"y":2545196.5099999998}},{"attributes":{"ID":409002,"DIS_CODE":0,"TOWNNAME":"永康區","LI":"復華里","LIN":"22鄰","STREET":"復華七街","SECT":" ","MAREA":" ","LANE":"１１７巷","ALLEY":" ","HOUSE_NO":"３４號","E_COORD97":172813.48999999999,"N_COORD97":2546231.0099999998,"ADDRESS":"復華七街１１７巷３４號","OBJECTID":408978},"geometry":{"x":172813.49000000115,"y":2546231.0100000035}},{"attributes":{"ID":409003,"DIS_CODE":0,"TOWNNAME":"永康區","LI":"勝利里","LIN":"22鄰","STREET":"勝華街","SECT":" ","MAREA":" ","LANE":"３７巷","ALLEY":" ","HOUSE_NO":"１５號","E_COORD97":171460.95000000001,"N_COORD97":2545170.0099999998,"ADDRESS":"勝華街３７巷１５號","OBJECTID":408979},"geometry":{"x":171460.95000000112,"y":2545170.0100000035}},{"attributes":{"ID":409004,"DIS_CODE":0,"TOWNNAME":"東區","LI":"新東里","LIN":"22鄰","STREET":"裕農路","SECT":" ","MAREA":" ","LANE":"４３巷","ALLEY":" ","HOUSE_NO":"３號","E_COORD97":170643.39999999999,"N_COORD97":2542920.8599999999,"ADDRESS":"裕農路４３巷３號","OBJECTID":408980},"geometry":{"x":170643.40000000037,"y":2542920.8600000013}},{"attributes":{"ID":409005,"DIS_CODE":0,"TOWNNAME":"永康區","LI":"勝利里","LIN":"22鄰","STREET":"中華路","SECT":" ","MAREA":" ","LANE":"２１７巷","ALLEY":" ","HOUSE_NO":"２５號","E_COORD97":171544.88,"N_COORD97":2545032.7400000002,"ADDRESS":"中華路２１７巷２５號","OBJECTID":408981},"geometry":{"x":171544.87999999989,"y":2545032.7400000002}},{"attributes":{"ID":409006,"DIS_CODE":0,"TOWNNAME":"東區","LI":"崇德里","LIN":"22鄰","STREET":"崇德路","SECT":" ","MAREA":" ","LANE":"５０８巷","ALLEY":" ","HOUSE_NO":"２８號","E_COORD97":170683.32000000001,"N_COORD97":2541577.1200000001,"ADDRESS":"崇德路５０８巷２８號","OBJECTID":408982},"geometry":{"x":170683.32000000123,"y":2541577.1200000029}},{"attributes":{"ID":409007,"DIS_CODE":0,"TOWNNAME":"永康區","LI":"五王里","LIN":"22鄰","STREET":"成功路","SECT":" ","MAREA":" ","LANE":"２２８巷","ALLEY":" ","HOUSE_NO":"５２號","E_COORD97":171470.69,"N_COORD97":2545844.2599999998,"ADDRESS":"成功路２２８巷５２號","OBJECTID":408983},"geometry":{"x":171470.69000000227,"y":2545844.2600000016}},{"attributes":{"ID":409008,"DIS_CODE":0,"TOWNNAME":"永康區","LI":"埔園里","LIN":"39鄰","STREET":"聖龍街","SECT":" ","MAREA":" ","LANE":"１６５巷","ALLEY":" ","HOUSE_NO":"１３號","E_COORD97":174276.07000000001,"N_COORD97":2547900.2999999998,"ADDRESS":"聖龍街１６５巷１３號","OBJECTID":408984},"geometry":{"x":174276.0700000003,"y":2547900.3000000007}},{"attributes":{"ID":409009,"DIS_CODE":0,"TOWNNAME":"永康區","LI":"崑山里","LIN":"42鄰","STREET":"大仁街","SECT":" ","MAREA":" ","LANE":"１９９巷","ALLEY":" ","HOUSE_NO":"１８號","E_COORD97":173885.22,"N_COORD97":2545069.75,"ADDRESS":"大仁街１９９巷１８號","OBJECTID":408985},"geometry":{"x":173885.21999999881,"y":2545069.75}},{"attributes":{"ID":409010,"DIS_CODE":0,"TOWNNAME":"仁德區","LI":"仁義里","LIN":"22鄰","STREET":"正義路","SECT":" ","MAREA":" ","LANE":"１１４巷","ALLEY":" ","HOUSE_NO":"３號","E_COORD97":173689.69,"N_COORD97":2541390.5099999998,"ADDRESS":"正義路１１４巷３號","OBJECTID":408986},"geometry":{"x":173689.69000000227,"y":2541390.5100000016}},{"attributes":{"ID":409011,"DIS_CODE":0,"TOWNNAME":"中西區","LI":"藥王里","LIN":"22鄰","STREET":"和善街","SECT":" ","MAREA":" ","LANE":"４３巷","ALLEY":" ","HOUSE_NO":"２號","E_COORD97":167018.98000000001,"N_COORD97":2544641.7599999998,"ADDRESS":"和善街４３巷２號","OBJECTID":408987},"geometry":{"x":167018.98000000138,"y":2544641.7599999998}},{"attributes":{"ID":409012,"DIS_CODE":0,"TOWNNAME":"中西區","LI":"藥王里","LIN":"22鄰","STREET":"和善街","SECT":" ","MAREA":" ","LANE":"４３巷","ALLEY":" ","HOUSE_NO":"４號","E_COORD97":167011.72,"N_COORD97":2544636.4199999999,"ADDRESS":"和善街４３巷４號","OBJECTID":408988},"geometry":{"x":167011.72000000067,"y":2544636.4200000018}},{"attributes":{"ID":409013,"DIS_CODE":0,"TOWNNAME":"中西區","LI":"藥王里","LIN":"22鄰","STREET":"和善街","SECT":" ","MAREA":" ","LANE":"４３巷","ALLEY":" ","HOUSE_NO":"５號","E_COORD97":167007.23000000001,"N_COORD97":2544634.2799999998,"ADDRESS":"和善街４３巷５號","OBJECTID":408989},"geometry":{"x":167007.23000000138,"y":2544634.2799999993}},{"attributes":{"ID":409014,"DIS_CODE":0,"TOWNNAME":"中西區","LI":"藥王里","LIN":"22鄰","STREET":"和善街","SECT":" ","MAREA":" ","LANE":"４３巷","ALLEY":" ","HOUSE_NO":"６號","E_COORD97":167004.67000000001,"N_COORD97":2544630.4399999999,"ADDRESS":"和善街４３巷６號","OBJECTID":408990},"geometry":{"x":167004.66999999993,"y":2544630.4399999995}},{"attributes":{"ID":409015,"DIS_CODE":0,"TOWNNAME":"東區","LI":"小東里","LIN":"22鄰","STREET":"光明街","SECT":" ","MAREA":" ","LANE":"１７５巷","ALLEY":" ","HOUSE_NO":"３０號地下一層","E_COORD97":171002.98999999999,"N_COORD97":2544156.7000000002,"ADDRESS":"光明街１７５巷３０號地下一層","OBJECTID":408991},"geometry":{"x":171002.99000000115,"y":2544156.6999999993}},{"attributes":{"ID":409016,"DIS_CODE":0,"TOWNNAME":"東區","LI":"小東里","LIN":"22鄰","STREET":"光明街","SECT":" ","MAREA":" ","LANE":"１７５巷","ALLEY":" ","HOUSE_NO":"３０號地下一層之１","E_COORD97":171002.98999999999,"N_COORD97":2544156.7000000002,"ADDRESS":"光明街１７５巷３０號地下一層之１","OBJECTID":408992},"geometry":{"x":171002.99000000115,"y":2544156.6999999993}},{"attributes":{"ID":409017,"DIS_CODE":0,"TOWNNAME":"東區","LI":"小東里","LIN":"22鄰","STREET":"光明街","SECT":" ","MAREA":" ","LANE":"１７５巷","ALLEY":" ","HOUSE_NO":"３０號地下一層之２","E_COORD97":171002.98999999999,"N_COORD97":2544156.7000000002,"ADDRESS":"光明街１７５巷３０號地下一層之２","OBJECTID":408993},"geometry":{"x":171002.99000000115,"y":2544156.6999999993}},{"attributes":{"ID":409018,"DIS_CODE":0,"TOWNNAME":"東區","LI":"小東里","LIN":"22鄰","STREET":"光明街","SECT":" ","MAREA":" ","LANE":"１７５巷","ALLEY":" ","HOUSE_NO":"３０號地下一層之３","E_COORD97":171002.98999999999,"N_COORD97":2544156.7000000002,"ADDRESS":"光明街１７５巷３０號地下一層之３","OBJECTID":408994},"geometry":{"x":171002.99000000115,"y":2544156.6999999993}},{"attributes":{"ID":409019,"DIS_CODE":0,"TOWNNAME":"永康區","LI":"崑山里","LIN":"36鄰","STREET":"大仁街","SECT":" ","MAREA":" ","LANE":"１９９巷","ALLEY":" ","HOUSE_NO":"３１號","E_COORD97":173844.67000000001,"N_COORD97":2545068.2999999998,"ADDRESS":"大仁街１９９巷３１號","OBJECTID":408995},"geometry":{"x":173844.66999999993,"y":2545068.3000000026}},{"attributes":{"ID":409020,"DIS_CODE":0,"TOWNNAME":"永康區","LI":"崑山里","LIN":"46鄰","STREET":"崑山街","SECT":" ","MAREA":" ","LANE":"２５８巷","ALLEY":" ","HOUSE_NO":"５號","E_COORD97":174155.76999999999,"N_COORD97":2545146.5800000001,"ADDRESS":"崑山街２５８巷５號","OBJECTID":408996},"geometry":{"x":174155.76999999955,"y":2545146.5800000019}},{"attributes":{"ID":409021,"DIS_CODE":0,"TOWNNAME":"中西區","LI":"西賢里","LIN":"22鄰","STREET":"西賢一街","SECT":" ","MAREA":" ","LANE":"１８７巷","ALLEY":" ","HOUSE_NO":"２０２號","E_COORD97":165554.31,"N_COORD97":2544985.3700000001,"ADDRESS":"西賢一街１８７巷２０２號","OBJECTID":408997},"geometry":{"x":165554.30999999866,"y":2544985.370000001}},{"attributes":{"ID":409022,"DIS_CODE":0,"TOWNNAME":"中西區","LI":"西賢里","LIN":"22鄰","STREET":"西賢一街","SECT":" ","MAREA":" ","LANE":"１８７巷","ALLEY":" ","HOUSE_NO":"２０６號","E_COORD97":165556.29000000001,"N_COORD97":2545004.7400000002,"ADDRESS":"西賢一街１８７巷２０６號","OBJECTID":408998},"geometry":{"x":165556.29000000004,"y":2545004.7400000002}},{"attributes":{"ID":409023,"DIS_CODE":0,"TOWNNAME":"中西區","LI":"西賢里","LIN":"22鄰","STREET":"西賢一街","SECT":" ","MAREA":" ","LANE":"１８７巷","ALLEY":" ","HOUSE_NO":"２０８號","E_COORD97":165550.62,"N_COORD97":2545006.71,"ADDRESS":"西賢一街１８７巷２０８號","OBJECTID":408999},"geometry":{"x":165550.62000000011,"y":2545006.709999999}},{"attributes":{"ID":409024,"DIS_CODE":0,"TOWNNAME":"中西區","LI":"西賢里","LIN":"22鄰","STREET":"西賢一街","SECT":" ","MAREA":" ","LANE":"１８７巷","ALLEY":" ","HOUSE_NO":"２１０號","E_COORD97":165546.31,"N_COORD97":2545007.3300000001,"ADDRESS":"西賢一街１８７巷２１０號","OBJECTID":409000},"geometry":{"x":165546.31000000052,"y":2545007.3300000001}}]}