{"displayFieldName":"TOWNNAME","fieldAliases":{"ID":"ID","DIS_CODE":"DIS_CODE","TOWNNAME":"TOWNNAME","LI":"LI","LIN":"LIN","STREET":"STREET","SECT":"SECT","MAREA":"MAREA","LANE":"LANE","ALLEY":"ALLEY","HOUSE_NO":"HOUSE_NO","E_COORD97":"E_COORD97","N_COORD97":"N_COORD97","ADDRESS":"ADDRESS","OBJECTID":"OBJECTID"},"geometryType":"esriGeometryPoint","spatialReference":{"wkid":102443,"latestWkid":3826},"fields":[{"name":"ID","type":"esriFieldTypeDouble","alias":"ID"},{"name":"DIS_CODE","type":"esriFieldTypeInteger","alias":"DIS_CODE"},{"name":"TOWNNAME","type":"esriFieldTypeString","alias":"TOWNNAME","length":8},{"name":"LI","type":"esriFieldTypeString","alias":"LI","length":8},{"name":"LIN","type":"esriFieldTypeString","alias":"LIN","length":12},{"name":"STREET","type":"esriFieldTypeString","alias":"STREET","length":20},{"name":"SECT","type":"esriFieldTypeString","alias":"SECT","length":8},{"name":"MAREA","type":"esriFieldTypeString","alias":"MAREA","length":12},{"name":"LANE","type":"esriFieldTypeString","alias":"LANE","length":10},{"name":"ALLEY","type":"esriFieldTypeString","alias":"ALLEY","length":10},{"name":"HOUSE_NO","type":"esriFieldTypeString","alias":"HOUSE_NO","length":20},{"name":"E_COORD97","type":"esriFieldTypeDouble","alias":"E_COORD97"},{"name":"N_COORD97","type":"esriFieldTypeDouble","alias":"N_COORD97"},{"name":"ADDRESS","type":"esriFieldTypeString","alias":"ADDRESS","length":50},{"name":"OBJECTID","type":"esriFieldTypeOID","alias":"OBJECTID"}],"features":[{"attributes":{"ID":548228,"DIS_CODE":0,"TOWNNAME":"學甲區","LI":"仁得里","LIN":"10鄰","STREET":"中正路","SECT":" ","MAREA":" ","LANE":" ","ALLEY":" ","HOUSE_NO":"９０號","E_COORD97":166023.89999999999,"N_COORD97":2569879.0899999999,"ADDRESS":"中正路９０號","OBJECTID":548201},"geometry":{"x":166023.90000000037,"y":2569879.0900000017}},{"attributes":{"ID":548229,"DIS_CODE":0,"TOWNNAME":"學甲區","LI":"仁得里","LIN":"10鄰","STREET":"中正路","SECT":" ","MAREA":" ","LANE":" ","ALLEY":" ","HOUSE_NO":"９２號","E_COORD97":166024.85000000001,"N_COORD97":2569885.4100000001,"ADDRESS":"中正路９２號","OBJECTID":548202},"geometry":{"x":166024.84999999963,"y":2569885.4100000001}},{"attributes":{"ID":548230,"DIS_CODE":0,"TOWNNAME":"學甲區","LI":"仁得里","LIN":"10鄰","STREET":"中正路","SECT":" ","MAREA":" ","LANE":" ","ALLEY":" ","HOUSE_NO":"９４號","E_COORD97":166025.51000000001,"N_COORD97":2569889.75,"ADDRESS":"中正路９４號","OBJECTID":548203},"geometry":{"x":166025.50999999978,"y":2569889.75}},{"attributes":{"ID":548231,"DIS_CODE":0,"TOWNNAME":"學甲區","LI":"仁得里","LIN":"10鄰","STREET":"中正路","SECT":" ","MAREA":" ","LANE":" ","ALLEY":" ","HOUSE_NO":"９６號","E_COORD97":166026.17000000001,"N_COORD97":2569894.0899999999,"ADDRESS":"中正路９６號","OBJECTID":548204},"geometry":{"x":166026.16999999993,"y":2569894.0899999999}},{"attributes":{"ID":548232,"DIS_CODE":0,"TOWNNAME":"學甲區","LI":"仁得里","LIN":"10鄰","STREET":"中正路","SECT":" ","MAREA":" ","LANE":" ","ALLEY":" ","HOUSE_NO":"９８號","E_COORD97":166026.82999999999,"N_COORD97":2569898.4199999999,"ADDRESS":"中正路９８號","OBJECTID":548205},"geometry":{"x":166026.83000000101,"y":2569898.4199999999}},{"attributes":{"ID":548233,"DIS_CODE":0,"TOWNNAME":"歸仁區","LI":"崙頂里","LIN":"10鄰","STREET":"崙頂五街","SECT":" ","MAREA":" ","LANE":" ","ALLEY":" ","HOUSE_NO":"７０號","E_COORD97":178040.63,"N_COORD97":2539833.25,"ADDRESS":"崙頂五街７０號","OBJECTID":548206},"geometry":{"x":178040.62999999989,"y":2539833.2500000019}},{"attributes":{"ID":548234,"DIS_CODE":0,"TOWNNAME":"學甲區","LI":"仁得里","LIN":"10鄰","STREET":"四維街","SECT":" ","MAREA":" ","LANE":" ","ALLEY":" ","HOUSE_NO":"７８號","E_COORD97":166050.82999999999,"N_COORD97":2569794.79,"ADDRESS":"四維街７８號","OBJECTID":548207},"geometry":{"x":166050.83000000007,"y":2569794.7899999972}},{"attributes":{"ID":548235,"DIS_CODE":0,"TOWNNAME":"學甲區","LI":"仁得里","LIN":"10鄰","STREET":"四維街","SECT":" ","MAREA":" ","LANE":" ","ALLEY":" ","HOUSE_NO":"１０１號","E_COORD97":166009.64000000001,"N_COORD97":2569781.7400000002,"ADDRESS":"四維街１０１號","OBJECTID":548208},"geometry":{"x":166009.63999999966,"y":2569781.7400000002}},{"attributes":{"ID":548236,"DIS_CODE":0,"TOWNNAME":"學甲區","LI":"仁得里","LIN":"10鄰","STREET":"四維街","SECT":" ","MAREA":" ","LANE":" ","ALLEY":" ","HOUSE_NO":"６８號","E_COORD97":166073.60999999999,"N_COORD97":2569793.4399999999,"ADDRESS":"四維街６８號","OBJECTID":548209},"geometry":{"x":166073.6100000022,"y":2569793.4399999995}},{"attributes":{"ID":548237,"DIS_CODE":0,"TOWNNAME":"學甲區","LI":"仁得里","LIN":"10鄰","STREET":"四維街","SECT":" ","MAREA":" ","LANE":" ","ALLEY":" ","HOUSE_NO":"６９號","E_COORD97":166082.60999999999,"N_COORD97":2569764.3399999999,"ADDRESS":"四維街６９號","OBJECTID":548210},"geometry":{"x":166082.61000000127,"y":2569764.3399999999}},{"attributes":{"ID":548238,"DIS_CODE":0,"TOWNNAME":"學甲區","LI":"仁得里","LIN":"10鄰","STREET":"四維街","SECT":" ","MAREA":" ","LANE":" ","ALLEY":" ","HOUSE_NO":"７１號","E_COORD97":166077.62,"N_COORD97":2569765.1200000001,"ADDRESS":"四維街７１號","OBJECTID":548211},"geometry":{"x":166077.62000000011,"y":2569765.1200000029}},{"attributes":{"ID":548239,"DIS_CODE":0,"TOWNNAME":"學甲區","LI":"仁得里","LIN":"10鄰","STREET":"四維街","SECT":" ","MAREA":" ","LANE":" ","ALLEY":" ","HOUSE_NO":"７４號","E_COORD97":166059.14999999999,"N_COORD97":2569793.1400000001,"ADDRESS":"四維街７４號","OBJECTID":548212},"geometry":{"x":166059.15000000037,"y":2569793.1400000006}},{"attributes":{"ID":548240,"DIS_CODE":0,"TOWNNAME":"學甲區","LI":"仁得里","LIN":"10鄰","STREET":"四維街","SECT":" ","MAREA":" ","LANE":" ","ALLEY":" ","HOUSE_NO":"７５號","E_COORD97":166068.23999999999,"N_COORD97":2569766.46,"ADDRESS":"四維街７５號","OBJECTID":548213},"geometry":{"x":166068.24000000115,"y":2569766.4600000028}},{"attributes":{"ID":548241,"DIS_CODE":0,"TOWNNAME":"學甲區","LI":"仁得里","LIN":"10鄰","STREET":"四維街","SECT":" ","MAREA":" ","LANE":" ","ALLEY":" ","HOUSE_NO":"７６號","E_COORD97":166054.75,"N_COORD97":2569794.1899999999,"ADDRESS":"四維街７６號","OBJECTID":548214},"geometry":{"x":166054.75,"y":2569794.1900000013}},{"attributes":{"ID":548242,"DIS_CODE":0,"TOWNNAME":"學甲區","LI":"仁得里","LIN":"10鄰","STREET":"四維街","SECT":" ","MAREA":" ","LANE":" ","ALLEY":" ","HOUSE_NO":"７７號","E_COORD97":166059.39000000001,"N_COORD97":2569767.8300000001,"ADDRESS":"四維街７７號","OBJECTID":548215},"geometry":{"x":166059.3900000006,"y":2569767.8300000001}},{"attributes":{"ID":548243,"DIS_CODE":0,"TOWNNAME":"學甲區","LI":"仁得里","LIN":"10鄰","STREET":"四維街","SECT":" ","MAREA":" ","LANE":" ","ALLEY":" ","HOUSE_NO":"８０號","E_COORD97":166046.82999999999,"N_COORD97":2569795.4100000001,"ADDRESS":"四維街８０號","OBJECTID":548216},"geometry":{"x":166046.83000000101,"y":2569795.4100000039}},{"attributes":{"ID":548244,"DIS_CODE":0,"TOWNNAME":"歸仁區","LI":"南保里","LIN":"10鄰","STREET":"文化八街","SECT":" ","MAREA":" ","LANE":" ","ALLEY":" ","HOUSE_NO":"２９號","E_COORD97":176738.12,"N_COORD97":2541301.2599999998,"ADDRESS":"文化八街２９號","OBJECTID":548217},"geometry":{"x":176738.12000000104,"y":2541301.2600000016}},{"attributes":{"ID":548245,"DIS_CODE":0,"TOWNNAME":"歸仁區","LI":"南保里","LIN":"10鄰","STREET":"文化街","SECT":"三段","MAREA":" ","LANE":" ","ALLEY":" ","HOUSE_NO":"１２４號","E_COORD97":176696.22,"N_COORD97":2541220.2599999998,"ADDRESS":"文化街三段１２４號","OBJECTID":548218},"geometry":{"x":176696.22000000067,"y":2541220.2599999998}},{"attributes":{"ID":548246,"DIS_CODE":0,"TOWNNAME":"歸仁區","LI":"看東里","LIN":"10鄰","STREET":"忠孝南路","SECT":" ","MAREA":" ","LANE":" ","ALLEY":" ","HOUSE_NO":"１４７號","E_COORD97":178562.26999999999,"N_COORD97":2540286.8300000001,"ADDRESS":"忠孝南路１４７號","OBJECTID":548219},"geometry":{"x":178562.27000000048,"y":2540286.8300000019}},{"attributes":{"ID":548247,"DIS_CODE":0,"TOWNNAME":"歸仁區","LI":"看東里","LIN":"10鄰","STREET":"忠孝南路","SECT":" ","MAREA":" ","LANE":" ","ALLEY":" ","HOUSE_NO":"１５７號","E_COORD97":178575.01999999999,"N_COORD97":2540262.6800000002,"ADDRESS":"忠孝南路１５７號","OBJECTID":548220},"geometry":{"x":178575.01999999955,"y":2540262.6800000034}},{"attributes":{"ID":548248,"DIS_CODE":0,"TOWNNAME":"歸仁區","LI":"後市里","LIN":"10鄰","STREET":"大順街","SECT":" ","MAREA":" ","LANE":" ","ALLEY":" ","HOUSE_NO":"１７０號","E_COORD97":176982.31,"N_COORD97":2540614.25,"ADDRESS":"大順街１７０號","OBJECTID":548221},"geometry":{"x":176982.31000000052,"y":2540614.25}},{"attributes":{"ID":548249,"DIS_CODE":0,"TOWNNAME":"歸仁區","LI":"南興里","LIN":"10鄰","STREET":"文化十六街","SECT":" ","MAREA":" ","LANE":" ","ALLEY":" ","HOUSE_NO":"１５號","E_COORD97":175983.47,"N_COORD97":2541250.2599999998,"ADDRESS":"文化十六街１５號","OBJECTID":548222},"geometry":{"x":175983.46999999974,"y":2541250.2600000016}},{"attributes":{"ID":548250,"DIS_CODE":0,"TOWNNAME":"歸仁區","LI":"歸南里","LIN":"10鄰","STREET":"民生九街","SECT":" ","MAREA":" ","LANE":" ","ALLEY":" ","HOUSE_NO":"１４９號","E_COORD97":176240.85999999999,"N_COORD97":2540006.25,"ADDRESS":"民生九街１４９號","OBJECTID":548223},"geometry":{"x":176240.86000000034,"y":2540006.2500000019}},{"attributes":{"ID":548251,"DIS_CODE":0,"TOWNNAME":"歸仁區","LI":"歸南里","LIN":"10鄰","STREET":"民生九街","SECT":" ","MAREA":" ","LANE":" ","ALLEY":" ","HOUSE_NO":"１４１號","E_COORD97":176234.76000000001,"N_COORD97":2540019.25,"ADDRESS":"民生九街１４１號","OBJECTID":548224},"geometry":{"x":176234.76000000164,"y":2540019.2500000019}},{"attributes":{"ID":548252,"DIS_CODE":0,"TOWNNAME":"歸仁區","LI":"崙頂里","LIN":"10鄰","STREET":"成功路","SECT":"二段","MAREA":" ","LANE":" ","ALLEY":" ","HOUSE_NO":"１６２號","E_COORD97":177960.34,"N_COORD97":2539724.25,"ADDRESS":"成功路二段１６２號","OBJECTID":548225},"geometry":{"x":177960.34000000078,"y":2539724.2500000019}},{"attributes":{"ID":548253,"DIS_CODE":0,"TOWNNAME":"歸仁區","LI":"看西里","LIN":"10鄰","STREET":"仁愛南街","SECT":" ","MAREA":" ","LANE":" ","ALLEY":" ","HOUSE_NO":"１９７號","E_COORD97":178347.48609300001,"N_COORD97":2540204.84515,"ADDRESS":"仁愛南街１９７號","OBJECTID":548226},"geometry":{"x":178347.48609299958,"y":2540204.8451460041}},{"attributes":{"ID":548254,"DIS_CODE":0,"TOWNNAME":"歸仁區","LI":"看西里","LIN":"10鄰","STREET":"仁愛南街","SECT":" ","MAREA":" ","LANE":" ","ALLEY":" ","HOUSE_NO":"１７７號","E_COORD97":178353.98000000001,"N_COORD97":2540245.2000000002,"ADDRESS":"仁愛南街１７７號","OBJECTID":548227},"geometry":{"x":178353.98000000045,"y":2540245.200000003}},{"attributes":{"ID":548255,"DIS_CODE":0,"TOWNNAME":"歸仁區","LI":"崙頂里","LIN":"10鄰","STREET":"成功路","SECT":"二段","MAREA":" ","LANE":" ","ALLEY":" ","HOUSE_NO":"１０６號","E_COORD97":178053.07000000001,"N_COORD97":2539781.3599999999,"ADDRESS":"成功路二段１０６號","OBJECTID":548228},"geometry":{"x":178053.0700000003,"y":2539781.3600000013}},{"attributes":{"ID":548256,"DIS_CODE":0,"TOWNNAME":"歸仁區","LI":"崙頂里","LIN":"10鄰","STREET":"成功路","SECT":"二段","MAREA":" ","LANE":" ","ALLEY":" ","HOUSE_NO":"１２０號","E_COORD97":178042.76999999999,"N_COORD97":2539775.3599999999,"ADDRESS":"成功路二段１２０號","OBJECTID":548229},"geometry":{"x":178042.76999999955,"y":2539775.3599999994}},{"attributes":{"ID":548257,"DIS_CODE":0,"TOWNNAME":"歸仁區","LI":"大廟里","LIN":"10鄰","STREET":"保大路","SECT":"三段","MAREA":" ","LANE":" ","ALLEY":" ","HOUSE_NO":"１９５號","E_COORD97":175924.03,"N_COORD97":2544129.25,"ADDRESS":"保大路三段１９５號","OBJECTID":548230},"geometry":{"x":175924.03000000026,"y":2544129.2500000019}},{"attributes":{"ID":548258,"DIS_CODE":0,"TOWNNAME":"歸仁區","LI":"歸南里","LIN":"10鄰","STREET":"民生九街","SECT":" ","MAREA":" ","LANE":" ","ALLEY":" ","HOUSE_NO":"１３６號","E_COORD97":176227.45999999999,"N_COORD97":2539996.25,"ADDRESS":"民生九街１３６號","OBJECTID":548231},"geometry":{"x":176227.46000000089,"y":2539996.2500000019}},{"attributes":{"ID":548259,"DIS_CODE":0,"TOWNNAME":"歸仁區","LI":"歸南里","LIN":"10鄰","STREET":"民生九街","SECT":" ","MAREA":" ","LANE":" ","ALLEY":" ","HOUSE_NO":"１４５號","E_COORD97":176240.85999999999,"N_COORD97":2540010.25,"ADDRESS":"民生九街１４５號","OBJECTID":548232},"geometry":{"x":176240.86000000034,"y":2540010.25}},{"attributes":{"ID":548260,"DIS_CODE":0,"TOWNNAME":"歸仁區","LI":"歸南里","LIN":"10鄰","STREET":"民生九街","SECT":" ","MAREA":" ","LANE":" ","ALLEY":" ","HOUSE_NO":"１３８號","E_COORD97":176227.45999999999,"N_COORD97":2539993.25,"ADDRESS":"民生九街１３８號","OBJECTID":548233},"geometry":{"x":176227.46000000089,"y":2539993.25}},{"attributes":{"ID":548261,"DIS_CODE":0,"TOWNNAME":"歸仁區","LI":"崙頂里","LIN":"10鄰","STREET":"成功路","SECT":"二段","MAREA":" ","LANE":" ","ALLEY":" ","HOUSE_NO":"１６４號","E_COORD97":177956.23999999999,"N_COORD97":2539721.25,"ADDRESS":"成功路二段１６４號","OBJECTID":548234},"geometry":{"x":177956.24000000115,"y":2539721.2500000019}},{"attributes":{"ID":548262,"DIS_CODE":0,"TOWNNAME":"歸仁區","LI":"看西里","LIN":"10鄰","STREET":"仁愛南街","SECT":" ","MAREA":" ","LANE":" ","ALLEY":" ","HOUSE_NO":"１７５號","E_COORD97":178357.17754,"N_COORD97":2540254.1634499999,"ADDRESS":"仁愛南街１７５號","OBJECTID":548235},"geometry":{"x":178357.17754000053,"y":2540254.1634530015}},{"attributes":{"ID":548263,"DIS_CODE":0,"TOWNNAME":"歸仁區","LI":"看東里","LIN":"10鄰","STREET":"成功路","SECT":"一段","MAREA":" ","LANE":" ","ALLEY":" ","HOUSE_NO":"１５２號","E_COORD97":178600.78,"N_COORD97":2540239.6800000002,"ADDRESS":"成功路一段１５２號","OBJECTID":548236},"geometry":{"x":178600.78000000026,"y":2540239.6800000016}},{"attributes":{"ID":548264,"DIS_CODE":0,"TOWNNAME":"歸仁區","LI":"看西里","LIN":"10鄰","STREET":"仁愛南街","SECT":" ","MAREA":" ","LANE":" ","ALLEY":" ","HOUSE_NO":"１６１號","E_COORD97":178328.38,"N_COORD97":2540260.2000000002,"ADDRESS":"仁愛南街１６１號","OBJECTID":548237},"geometry":{"x":178328.37999999989,"y":2540260.2000000011}},{"attributes":{"ID":548265,"DIS_CODE":0,"TOWNNAME":"歸仁區","LI":"看西里","LIN":"10鄰","STREET":"成功六街","SECT":" ","MAREA":" ","LANE":" ","ALLEY":" ","HOUSE_NO":"３１號","E_COORD97":178364.32999999999,"N_COORD97":2540192.25,"ADDRESS":"成功六街３１號","OBJECTID":548238},"geometry":{"x":178364.33000000101,"y":2540192.2500000019}},{"attributes":{"ID":548266,"DIS_CODE":0,"TOWNNAME":"歸仁區","LI":"看西里","LIN":"10鄰","STREET":"成功六街","SECT":" ","MAREA":" ","LANE":" ","ALLEY":" ","HOUSE_NO":"３３號","E_COORD97":178365.42999999999,"N_COORD97":2540199.25,"ADDRESS":"成功六街３３號","OBJECTID":548239},"geometry":{"x":178365.4299999997,"y":2540199.2500000019}},{"attributes":{"ID":548267,"DIS_CODE":0,"TOWNNAME":"歸仁區","LI":"崙頂里","LIN":"10鄰","STREET":"成功路","SECT":"二段","MAREA":" ","LANE":" ","ALLEY":" ","HOUSE_NO":"９４號","E_COORD97":178072.32000000001,"N_COORD97":2539799.3599999999,"ADDRESS":"成功路二段９４號","OBJECTID":548240},"geometry":{"x":178072.32000000216,"y":2539799.3599999994}},{"attributes":{"ID":548268,"DIS_CODE":0,"TOWNNAME":"歸仁區","LI":"看西里","LIN":"10鄰","STREET":"成功六街","SECT":" ","MAREA":" ","LANE":" ","ALLEY":" ","HOUSE_NO":"６５號","E_COORD97":178378.32000000001,"N_COORD97":2540248.2000000002,"ADDRESS":"成功六街６５號","OBJECTID":548241},"geometry":{"x":178378.32000000123,"y":2540248.1999999993}},{"attributes":{"ID":548269,"DIS_CODE":0,"TOWNNAME":"歸仁區","LI":"崙頂里","LIN":"10鄰","STREET":"成功路","SECT":"二段","MAREA":" ","LANE":" ","ALLEY":" ","HOUSE_NO":"１２０之１號","E_COORD97":178040.17000000001,"N_COORD97":2539772.3700000001,"ADDRESS":"成功路二段１２０之１號","OBJECTID":548242},"geometry":{"x":178040.16999999993,"y":2539772.3700000029}},{"attributes":{"ID":548270,"DIS_CODE":0,"TOWNNAME":"歸仁區","LI":"看東里","LIN":"10鄰","STREET":"成功路","SECT":"一段","MAREA":" ","LANE":" ","ALLEY":" ","HOUSE_NO":"１６６號","E_COORD97":178559.73000000001,"N_COORD97":2540206.25,"ADDRESS":"成功路一段１６６號","OBJECTID":548243},"geometry":{"x":178559.73000000231,"y":2540206.2500000019}},{"attributes":{"ID":548271,"DIS_CODE":0,"TOWNNAME":"歸仁區","LI":"崙頂里","LIN":"10鄰","STREET":"成功路","SECT":"二段","MAREA":" ","LANE":" ","ALLEY":" ","HOUSE_NO":"１５０號","E_COORD97":177999.44,"N_COORD97":2539747.25,"ADDRESS":"成功路二段１５０號","OBJECTID":548244},"geometry":{"x":177999.44000000134,"y":2539747.2500000037}},{"attributes":{"ID":548272,"DIS_CODE":0,"TOWNNAME":"歸仁區","LI":"崙頂里","LIN":"10鄰","STREET":"成功路","SECT":"二段","MAREA":" ","LANE":" ","ALLEY":" ","HOUSE_NO":"１０２號","E_COORD97":178059.17000000001,"N_COORD97":2539787.3599999999,"ADDRESS":"成功路二段１０２號","OBJECTID":548245},"geometry":{"x":178059.16999999993,"y":2539787.3600000013}},{"attributes":{"ID":548273,"DIS_CODE":0,"TOWNNAME":"安平區","LI":"平通里","LIN":"10鄰","STREET":"育平九街","SECT":" ","MAREA":" ","LANE":" ","ALLEY":" ","HOUSE_NO":"２４８號","E_COORD97":164892.79999999999,"N_COORD97":2544024.7599999998,"ADDRESS":"育平九街２４８號","OBJECTID":548246},"geometry":{"x":164892.79999999981,"y":2544024.7599999998}},{"attributes":{"ID":548274,"DIS_CODE":0,"TOWNNAME":"安平區","LI":"國平里","LIN":"10鄰","STREET":"華平路","SECT":" ","MAREA":" ","LANE":" ","ALLEY":" ","HOUSE_NO":"６６號","E_COORD97":165344.75,"N_COORD97":2542852.8900000001,"ADDRESS":"華平路６６號","OBJECTID":548247},"geometry":{"x":165344.75,"y":2542852.8900000025}},{"attributes":{"ID":548275,"DIS_CODE":0,"TOWNNAME":"安平區","LI":"國平里","LIN":"10鄰","STREET":"華平路","SECT":" ","MAREA":" ","LANE":" ","ALLEY":" ","HOUSE_NO":"９０號","E_COORD97":165354.57999999999,"N_COORD97":2542931.4900000002,"ADDRESS":"華平路９０號","OBJECTID":548248},"geometry":{"x":165354.58000000007,"y":2542931.4900000002}},{"attributes":{"ID":548276,"DIS_CODE":0,"TOWNNAME":"安平區","LI":"文平里","LIN":"10鄰","STREET":"永華路","SECT":"二段","MAREA":" ","LANE":" ","ALLEY":" ","HOUSE_NO":"５３號","E_COORD97":166433.62,"N_COORD97":2543309.0699999998,"ADDRESS":"永華路二段５３號","OBJECTID":548249},"geometry":{"x":166433.62000000011,"y":2543309.0700000022}},{"attributes":{"ID":548277,"DIS_CODE":0,"TOWNNAME":"新營區","LI":"新東里","LIN":"10鄰","STREET":"東勇街","SECT":" ","MAREA":" ","LANE":" ","ALLEY":" ","HOUSE_NO":"９８號","E_COORD97":181467.63,"N_COORD97":2579684.3799999999,"ADDRESS":"東勇街９８號","OBJECTID":548250},"geometry":{"x":181467.63000000082,"y":2579684.3800000008}},{"attributes":{"ID":548278,"DIS_CODE":0,"TOWNNAME":"新營區","LI":"民權里","LIN":"10鄰","STREET":"中華路","SECT":" ","MAREA":" ","LANE":" ","ALLEY":" ","HOUSE_NO":"１７號","E_COORD97":179885.67000000001,"N_COORD97":2578224.4100000001,"ADDRESS":"中華路１７號","OBJECTID":548251},"geometry":{"x":179885.67000000086,"y":2578224.410000002}},{"attributes":{"ID":548279,"DIS_CODE":0,"TOWNNAME":"新營區","LI":"新北里","LIN":"10鄰","STREET":"長榮路","SECT":"二段","MAREA":" ","LANE":" ","ALLEY":" ","HOUSE_NO":"１１０號","E_COORD97":179233.28,"N_COORD97":2579868.4399999999,"ADDRESS":"長榮路二段１１０號","OBJECTID":548252},"geometry":{"x":179233.28000000026,"y":2579868.4400000013}},{"attributes":{"ID":548280,"DIS_CODE":0,"TOWNNAME":"新營區","LI":"延平里","LIN":"10鄰","STREET":"成功街","SECT":" ","MAREA":" ","LANE":" ","ALLEY":" ","HOUSE_NO":"４０號","E_COORD97":179641.14079,"N_COORD97":2577931.5465099998,"ADDRESS":"成功街４０號","OBJECTID":548253},"geometry":{"x":179641.14079000056,"y":2577931.5465070009}},{"attributes":{"ID":548281,"DIS_CODE":0,"TOWNNAME":"新營區","LI":"大宏里","LIN":"10鄰","STREET":"民族路","SECT":" ","MAREA":" ","LANE":" ","ALLEY":" ","HOUSE_NO":"４３號","E_COORD97":180252.79999999999,"N_COORD97":2578840.6400000001,"ADDRESS":"民族路４３號","OBJECTID":548254},"geometry":{"x":180252.80000000075,"y":2578840.6400000025}},{"attributes":{"ID":548282,"DIS_CODE":0,"TOWNNAME":"新營區","LI":"新東里","LIN":"10鄰","STREET":"東勇街","SECT":" ","MAREA":" ","LANE":" ","ALLEY":" ","HOUSE_NO":"９２號","E_COORD97":181472.69,"N_COORD97":2579673.2799999998,"ADDRESS":"東勇街９２號","OBJECTID":548255},"geometry":{"x":181472.69000000134,"y":2579673.2799999993}},{"attributes":{"ID":548283,"DIS_CODE":0,"TOWNNAME":"新營區","LI":"忠政里","LIN":"10鄰","STREET":"中正路","SECT":" ","MAREA":" ","LANE":" ","ALLEY":" ","HOUSE_NO":"５３之１０號","E_COORD97":180033.60000000001,"N_COORD97":2579507.3100000001,"ADDRESS":"中正路５３之１０號","OBJECTID":548256},"geometry":{"x":180033.60000000056,"y":2579507.3100000024}},{"attributes":{"ID":548284,"DIS_CODE":0,"TOWNNAME":"新營區","LI":"新東里","LIN":"10鄰","STREET":"長榮路","SECT":"一段","MAREA":" ","LANE":" ","ALLEY":" ","HOUSE_NO":"１４９號","E_COORD97":181342.64000000001,"N_COORD97":2579802.3500000001,"ADDRESS":"長榮路一段１４９號","OBJECTID":548257},"geometry":{"x":181342.63999999966,"y":2579802.3499999996}},{"attributes":{"ID":548285,"DIS_CODE":0,"TOWNNAME":"南區","LI":"新興里","LIN":"10鄰","STREET":"夏林路","SECT":" ","MAREA":" ","LANE":" ","ALLEY":" ","HOUSE_NO":"１２９號","E_COORD97":167499.53,"N_COORD97":2542421.0899999999,"ADDRESS":"夏林路１２９號","OBJECTID":548258},"geometry":{"x":167499.53000000026,"y":2542421.0900000017}},{"attributes":{"ID":548286,"DIS_CODE":0,"TOWNNAME":"南區","LI":"新興里","LIN":"10鄰","STREET":"夏林路","SECT":" ","MAREA":" ","LANE":" ","ALLEY":" ","HOUSE_NO":"１３１號","E_COORD97":167499.62,"N_COORD97":2542417.3799999999,"ADDRESS":"夏林路１３１號","OBJECTID":548259},"geometry":{"x":167499.62000000104,"y":2542417.3800000008}},{"attributes":{"ID":548287,"DIS_CODE":0,"TOWNNAME":"南區","LI":"新興里","LIN":"10鄰","STREET":"夏林路","SECT":" ","MAREA":" ","LANE":" ","ALLEY":" ","HOUSE_NO":"１３３號","E_COORD97":167499.62,"N_COORD97":2542414.1000000001,"ADDRESS":"夏林路１３３號","OBJECTID":548260},"geometry":{"x":167499.62000000104,"y":2542414.1000000015}},{"attributes":{"ID":548288,"DIS_CODE":0,"TOWNNAME":"南區","LI":"新興里","LIN":"10鄰","STREET":"夏林路","SECT":" ","MAREA":" ","LANE":" ","ALLEY":" ","HOUSE_NO":"１３７號","E_COORD97":167501.64000000001,"N_COORD97":2542379.79,"ADDRESS":"夏林路１３７號","OBJECTID":548261},"geometry":{"x":167501.63999999873,"y":2542379.7899999991}},{"attributes":{"ID":548289,"DIS_CODE":0,"TOWNNAME":"南區","LI":"新興里","LIN":"10鄰","STREET":"夏林路","SECT":" ","MAREA":" ","LANE":" ","ALLEY":" ","HOUSE_NO":"１４１號","E_COORD97":167500.70999999999,"N_COORD97":2542374.9900000002,"ADDRESS":"夏林路１４１號","OBJECTID":548262},"geometry":{"x":167500.70999999996,"y":2542374.9900000021}},{"attributes":{"ID":548290,"DIS_CODE":0,"TOWNNAME":"南區","LI":"新興里","LIN":"10鄰","STREET":"夏林路","SECT":" ","MAREA":" ","LANE":" ","ALLEY":" ","HOUSE_NO":"１４３號","E_COORD97":167500.20999999999,"N_COORD97":2542365.2999999998,"ADDRESS":"夏林路１４３號","OBJECTID":548263},"geometry":{"x":167500.21000000089,"y":2542365.3000000045}},{"attributes":{"ID":548291,"DIS_CODE":0,"TOWNNAME":"南區","LI":"新興里","LIN":"10鄰","STREET":"夏林路","SECT":" ","MAREA":" ","LANE":" ","ALLEY":" ","HOUSE_NO":"１４５號","E_COORD97":167499.95999999999,"N_COORD97":2542359.8300000001,"ADDRESS":"夏林路１４５號","OBJECTID":548264},"geometry":{"x":167499.96000000183,"y":2542359.8300000001}},{"attributes":{"ID":548292,"DIS_CODE":0,"TOWNNAME":"南區","LI":"新興里","LIN":"10鄰","STREET":"夏林路","SECT":" ","MAREA":" ","LANE":" ","ALLEY":" ","HOUSE_NO":"１４９號","E_COORD97":167500.26999999999,"N_COORD97":2542343.6699999999,"ADDRESS":"夏林路１４９號","OBJECTID":548265},"geometry":{"x":167500.26999999955,"y":2542343.6699999999}},{"attributes":{"ID":548293,"DIS_CODE":0,"TOWNNAME":"南區","LI":"新興里","LIN":"10鄰","STREET":"夏林路","SECT":" ","MAREA":" ","LANE":" ","ALLEY":" ","HOUSE_NO":"１５３號","E_COORD97":167499.04999999999,"N_COORD97":2542338.3500000001,"ADDRESS":"夏林路１５３號","OBJECTID":548266},"geometry":{"x":167499.05000000168,"y":2542338.3499999996}},{"attributes":{"ID":548294,"DIS_CODE":0,"TOWNNAME":"南區","LI":"新興里","LIN":"10鄰","STREET":"夏林路","SECT":" ","MAREA":" ","LANE":" ","ALLEY":" ","HOUSE_NO":"１５５號","E_COORD97":167501.16,"N_COORD97":2542333.3500000001,"ADDRESS":"夏林路１５５號","OBJECTID":548267},"geometry":{"x":167501.16000000108,"y":2542333.3500000015}},{"attributes":{"ID":548295,"DIS_CODE":0,"TOWNNAME":"南區","LI":"新興里","LIN":"10鄰","STREET":"夏林路","SECT":" ","MAREA":" ","LANE":" ","ALLEY":" ","HOUSE_NO":"１５７號","E_COORD97":167501.94,"N_COORD97":2542328.6299999999,"ADDRESS":"夏林路１５７號","OBJECTID":548268},"geometry":{"x":167501.94000000041,"y":2542328.6300000008}},{"attributes":{"ID":548296,"DIS_CODE":0,"TOWNNAME":"南區","LI":"新興里","LIN":"10鄰","STREET":"夏林路","SECT":" ","MAREA":" ","LANE":" ","ALLEY":" ","HOUSE_NO":"１５９號","E_COORD97":167503.26999999999,"N_COORD97":2542323.8599999999,"ADDRESS":"夏林路１５９號","OBJECTID":548269},"geometry":{"x":167503.26999999955,"y":2542323.8600000013}},{"attributes":{"ID":548297,"DIS_CODE":0,"TOWNNAME":"南區","LI":"新興里","LIN":"10鄰","STREET":"夏林路","SECT":" ","MAREA":" ","LANE":" ","ALLEY":" ","HOUSE_NO":"１６１號","E_COORD97":167501.82999999999,"N_COORD97":2542319.7599999998,"ADDRESS":"夏林路１６１號","OBJECTID":548270},"geometry":{"x":167501.83000000007,"y":2542319.7599999998}},{"attributes":{"ID":548298,"DIS_CODE":0,"TOWNNAME":"安平區","LI":"怡平里","LIN":"10鄰","STREET":"永華六街","SECT":" ","MAREA":" ","LANE":" ","ALLEY":" ","HOUSE_NO":"１９６號之３","E_COORD97":165680.47,"N_COORD97":2544069.0800000001,"ADDRESS":"永華六街１９６號之３","OBJECTID":548271},"geometry":{"x":165680.46999999974,"y":2544069.0800000019}},{"attributes":{"ID":548299,"DIS_CODE":0,"TOWNNAME":"安平區","LI":"怡平里","LIN":"10鄰","STREET":"永華六街","SECT":" ","MAREA":" ","LANE":" ","ALLEY":" ","HOUSE_NO":"１９６號","E_COORD97":165666.07000000001,"N_COORD97":2544071.3500000001,"ADDRESS":"永華六街１９６號","OBJECTID":548272},"geometry":{"x":165666.07000000123,"y":2544071.3499999996}},{"attributes":{"ID":548300,"DIS_CODE":0,"TOWNNAME":"安平區","LI":"怡平里","LIN":"10鄰","STREET":"永華六街","SECT":" ","MAREA":" ","LANE":" ","ALLEY":" ","HOUSE_NO":"１９６號之５","E_COORD97":165685.28,"N_COORD97":2544068.8300000001,"ADDRESS":"永華六街１９６號之５","OBJECTID":548273},"geometry":{"x":165685.28000000026,"y":2544068.8300000001}},{"attributes":{"ID":548301,"DIS_CODE":0,"TOWNNAME":"安平區","LI":"怡平里","LIN":"10鄰","STREET":"永華六街","SECT":" ","MAREA":" ","LANE":" ","ALLEY":" ","HOUSE_NO":"１９６號之６","E_COORD97":165690.07999999999,"N_COORD97":2544067.5600000001,"ADDRESS":"永華六街１９６號之６","OBJECTID":548274},"geometry":{"x":165690.08000000007,"y":2544067.5600000005}},{"attributes":{"ID":548302,"DIS_CODE":0,"TOWNNAME":"安平區","LI":"怡平里","LIN":"10鄰","STREET":"永華六街","SECT":" ","MAREA":" ","LANE":" ","ALLEY":" ","HOUSE_NO":"１９６號之１","E_COORD97":165670.87,"N_COORD97":2544070.8399999999,"ADDRESS":"永華六街１９６號之１","OBJECTID":548275},"geometry":{"x":165670.87000000011,"y":2544070.8400000017}},{"attributes":{"ID":548303,"DIS_CODE":0,"TOWNNAME":"安平區","LI":"怡平里","LIN":"10鄰","STREET":"永華六街","SECT":" ","MAREA":" ","LANE":" ","ALLEY":" ","HOUSE_NO":"１９６號之７","E_COORD97":165694.63,"N_COORD97":2544067.3100000001,"ADDRESS":"永華六街１９６號之７","OBJECTID":548276},"geometry":{"x":165694.62999999989,"y":2544067.3100000024}},{"attributes":{"ID":548304,"DIS_CODE":0,"TOWNNAME":"安平區","LI":"怡平里","LIN":"10鄰","STREET":"永華六街","SECT":" ","MAREA":" ","LANE":" ","ALLEY":" ","HOUSE_NO":"１９６號之８","E_COORD97":165699.17999999999,"N_COORD97":2544065.7999999998,"ADDRESS":"永華六街１９６號之８","OBJECTID":548277},"geometry":{"x":165699.1799999997,"y":2544065.8000000007}},{"attributes":{"ID":548305,"DIS_CODE":0,"TOWNNAME":"安平區","LI":"怡平里","LIN":"10鄰","STREET":"永華六街","SECT":" ","MAREA":" ","LANE":" ","ALLEY":" ","HOUSE_NO":"１９８號之１","E_COORD97":165672.63,"N_COORD97":2544086.2799999998,"ADDRESS":"永華六街１９８號之１","OBJECTID":548278},"geometry":{"x":165672.62999999989,"y":2544086.2800000031}},{"attributes":{"ID":548306,"DIS_CODE":0,"TOWNNAME":"安平區","LI":"怡平里","LIN":"10鄰","STREET":"永華六街","SECT":" ","MAREA":" ","LANE":" ","ALLEY":" ","HOUSE_NO":"１９８號之２","E_COORD97":165678.07000000001,"N_COORD97":2544085.2599999998,"ADDRESS":"永華六街１９８號之２","OBJECTID":548279},"geometry":{"x":165678.0700000003,"y":2544085.2599999998}},{"attributes":{"ID":548307,"DIS_CODE":0,"TOWNNAME":"安平區","LI":"怡平里","LIN":"10鄰","STREET":"永華六街","SECT":" ","MAREA":" ","LANE":" ","ALLEY":" ","HOUSE_NO":"１９８號之３","E_COORD97":165682.82999999999,"N_COORD97":2544084.4100000001,"ADDRESS":"永華六街１９８號之３","OBJECTID":548280},"geometry":{"x":165682.83000000007,"y":2544084.4100000001}},{"attributes":{"ID":548308,"DIS_CODE":0,"TOWNNAME":"安平區","LI":"怡平里","LIN":"10鄰","STREET":"永華六街","SECT":" ","MAREA":" ","LANE":" ","ALLEY":" ","HOUSE_NO":"１９８號","E_COORD97":165668.04000000001,"N_COORD97":2544087.1299999999,"ADDRESS":"永華六街１９８號","OBJECTID":548281},"geometry":{"x":165668.04000000004,"y":2544087.1300000008}},{"attributes":{"ID":548309,"DIS_CODE":0,"TOWNNAME":"安平區","LI":"怡平里","LIN":"10鄰","STREET":"永華六街","SECT":" ","MAREA":" ","LANE":" ","ALLEY":" ","HOUSE_NO":"１９８號之５","E_COORD97":165687.25,"N_COORD97":2544083.5699999998,"ADDRESS":"永華六街１９８號之５","OBJECTID":548282},"geometry":{"x":165687.25,"y":2544083.5700000003}},{"attributes":{"ID":548310,"DIS_CODE":0,"TOWNNAME":"安平區","LI":"怡平里","LIN":"10鄰","STREET":"永華六街","SECT":" ","MAREA":" ","LANE":" ","ALLEY":" ","HOUSE_NO":"１９８號之６","E_COORD97":165692.35000000001,"N_COORD97":2544082.7200000002,"ADDRESS":"永華六街１９８號之６","OBJECTID":548283},"geometry":{"x":165692.34999999963,"y":2544082.7200000025}},{"attributes":{"ID":548311,"DIS_CODE":0,"TOWNNAME":"安平區","LI":"怡平里","LIN":"10鄰","STREET":"永華六街","SECT":" ","MAREA":" ","LANE":" ","ALLEY":" ","HOUSE_NO":"１９８號之７","E_COORD97":165696.76999999999,"N_COORD97":2544082.3799999999,"ADDRESS":"永華六街１９８號之７","OBJECTID":548284},"geometry":{"x":165696.76999999955,"y":2544082.3800000008}},{"attributes":{"ID":548312,"DIS_CODE":0,"TOWNNAME":"安平區","LI":"怡平里","LIN":"10鄰","STREET":"永華六街","SECT":" ","MAREA":" ","LANE":" ","ALLEY":" ","HOUSE_NO":"１９８號之８","E_COORD97":165701.70000000001,"N_COORD97":2544081.7000000002,"ADDRESS":"永華六街１９８號之８","OBJECTID":548285},"geometry":{"x":165701.70000000205,"y":2544081.6999999993}},{"attributes":{"ID":548313,"DIS_CODE":0,"TOWNNAME":"安平區","LI":"怡平里","LIN":"10鄰","STREET":"永華六街","SECT":" ","MAREA":" ","LANE":" ","ALLEY":" ","HOUSE_NO":"２００號","E_COORD97":165671.95000000001,"N_COORD97":2544099.02,"ADDRESS":"永華六街２００號","OBJECTID":548286},"geometry":{"x":165671.95000000019,"y":2544099.0200000014}},{"attributes":{"ID":548314,"DIS_CODE":0,"TOWNNAME":"安平區","LI":"怡平里","LIN":"10鄰","STREET":"永華六街","SECT":" ","MAREA":" ","LANE":" ","ALLEY":" ","HOUSE_NO":"２００號之１","E_COORD97":165677.89999999999,"N_COORD97":2544098.1699999999,"ADDRESS":"永華六街２００號之１","OBJECTID":548287},"geometry":{"x":165677.90000000037,"y":2544098.1700000018}},{"attributes":{"ID":548315,"DIS_CODE":0,"TOWNNAME":"安平區","LI":"怡平里","LIN":"10鄰","STREET":"永華六街","SECT":" ","MAREA":" ","LANE":" ","ALLEY":" ","HOUSE_NO":"２００號之２","E_COORD97":165684.35999999999,"N_COORD97":2544097.4900000002,"ADDRESS":"永華六街２００號之２","OBJECTID":548288},"geometry":{"x":165684.36000000127,"y":2544097.4900000002}},{"attributes":{"ID":548316,"DIS_CODE":0,"TOWNNAME":"安平區","LI":"怡平里","LIN":"10鄰","STREET":"永華六街","SECT":" ","MAREA":" ","LANE":" ","ALLEY":" ","HOUSE_NO":"２００號之３","E_COORD97":165689.97,"N_COORD97":2544097.3199999998,"ADDRESS":"永華六街２００號之３","OBJECTID":548289},"geometry":{"x":165689.96999999974,"y":2544097.3200000022}},{"attributes":{"ID":548317,"DIS_CODE":0,"TOWNNAME":"安平區","LI":"怡平里","LIN":"10鄰","STREET":"永華六街","SECT":" ","MAREA":" ","LANE":" ","ALLEY":" ","HOUSE_NO":"２００號之５","E_COORD97":165695.23999999999,"N_COORD97":2544097.1499999999,"ADDRESS":"永華六街２００號之５","OBJECTID":548290},"geometry":{"x":165695.24000000115,"y":2544097.1500000004}},{"attributes":{"ID":548318,"DIS_CODE":0,"TOWNNAME":"安平區","LI":"怡平里","LIN":"10鄰","STREET":"永華六街","SECT":" ","MAREA":" ","LANE":" ","ALLEY":" ","HOUSE_NO":"２００號之６","E_COORD97":165702.54999999999,"N_COORD97":2544095.2799999998,"ADDRESS":"永華六街２００號之６","OBJECTID":548291},"geometry":{"x":165702.55000000075,"y":2544095.2799999993}},{"attributes":{"ID":548319,"DIS_CODE":0,"TOWNNAME":"安平區","LI":"華平里","LIN":"10鄰","STREET":"怡平路","SECT":" ","MAREA":" ","LANE":" ","ALLEY":" ","HOUSE_NO":"４３４號","E_COORD97":165309.98999999999,"N_COORD97":2543843.5899999999,"ADDRESS":"怡平路４３４號","OBJECTID":548292},"geometry":{"x":165309.99000000115,"y":2543843.589999998}},{"attributes":{"ID":548320,"DIS_CODE":0,"TOWNNAME":"安平區","LI":"華平里","LIN":"10鄰","STREET":"怡平路","SECT":" ","MAREA":" ","LANE":" ","ALLEY":" ","HOUSE_NO":"４３６號","E_COORD97":165304.79999999999,"N_COORD97":2543844.6000000001,"ADDRESS":"怡平路４３６號","OBJECTID":548293},"geometry":{"x":165304.79999999981,"y":2543844.6000000015}},{"attributes":{"ID":548321,"DIS_CODE":0,"TOWNNAME":"安平區","LI":"華平里","LIN":"10鄰","STREET":"怡平路","SECT":" ","MAREA":" ","LANE":" ","ALLEY":" ","HOUSE_NO":"４３８號","E_COORD97":165299.09,"N_COORD97":2543845.4300000002,"ADDRESS":"怡平路４３８號","OBJECTID":548294},"geometry":{"x":165299.09000000078,"y":2543845.4300000016}},{"attributes":{"ID":548322,"DIS_CODE":0,"TOWNNAME":"安平區","LI":"華平里","LIN":"10鄰","STREET":"怡平路","SECT":" ","MAREA":" ","LANE":" ","ALLEY":" ","HOUSE_NO":"４４０號","E_COORD97":165294.39999999999,"N_COORD97":2543846.27,"ADDRESS":"怡平路４４０號","OBJECTID":548295},"geometry":{"x":165294.4000000013,"y":2543846.2700000014}},{"attributes":{"ID":548323,"DIS_CODE":0,"TOWNNAME":"北區","LI":"東興里","LIN":"10鄰","STREET":"小東路","SECT":" ","MAREA":" ","LANE":" ","ALLEY":" ","HOUSE_NO":"３９５號","E_COORD97":171279.07999999999,"N_COORD97":2544377.6499999999,"ADDRESS":"小東路３９５號","OBJECTID":548296},"geometry":{"x":171279.08000000007,"y":2544377.6500000022}},{"attributes":{"ID":548324,"DIS_CODE":0,"TOWNNAME":"北區","LI":"東興里","LIN":"10鄰","STREET":"小東路","SECT":" ","MAREA":" ","LANE":" ","ALLEY":" ","HOUSE_NO":"３９５號之１","E_COORD97":171283.75,"N_COORD97":2544380.8599999999,"ADDRESS":"小東路３９５號之１","OBJECTID":548297},"geometry":{"x":171283.75000000093,"y":2544380.8600000013}},{"attributes":{"ID":548325,"DIS_CODE":0,"TOWNNAME":"北區","LI":"東興里","LIN":"10鄰","STREET":"小東路","SECT":" ","MAREA":" ","LANE":" ","ALLEY":" ","HOUSE_NO":"３９５號之２","E_COORD97":171282.97,"N_COORD97":2544374.54,"ADDRESS":"小東路３９５號之２","OBJECTID":548298},"geometry":{"x":171282.96999999974,"y":2544374.5399999991}},{"attributes":{"ID":548326,"DIS_CODE":0,"TOWNNAME":"北區","LI":"東興里","LIN":"10鄰","STREET":"小東路","SECT":" ","MAREA":" ","LANE":" ","ALLEY":" ","HOUSE_NO":"３９５號之３","E_COORD97":171287.54000000001,"N_COORD97":2544377.8500000001,"ADDRESS":"小東路３９５號之３","OBJECTID":548299},"geometry":{"x":171287.54000000004,"y":2544377.8500000015}},{"attributes":{"ID":548327,"DIS_CODE":0,"TOWNNAME":"北區","LI":"東興里","LIN":"10鄰","STREET":"小東路","SECT":" ","MAREA":" ","LANE":" ","ALLEY":" ","HOUSE_NO":"３９５號之５","E_COORD97":171292.5,"N_COORD97":2544385.9199999999,"ADDRESS":"小東路３９５號之５","OBJECTID":548300},"geometry":{"x":171292.50000000093,"y":2544385.9199999999}},{"attributes":{"ID":548328,"DIS_CODE":0,"TOWNNAME":"北區","LI":"三德里","LIN":"10鄰","STREET":"長北街","SECT":" ","MAREA":" ","LANE":" ","ALLEY":" ","HOUSE_NO":"４２號","E_COORD97":168400.59,"N_COORD97":2544565.1699999999,"ADDRESS":"長北街４２號","OBJECTID":548301},"geometry":{"x":168400.58999999892,"y":2544565.1699999999}},{"attributes":{"ID":548329,"DIS_CODE":0,"TOWNNAME":"北區","LI":"三德里","LIN":"10鄰","STREET":"長北街","SECT":" ","MAREA":" ","LANE":" ","ALLEY":" ","HOUSE_NO":"４６號","E_COORD97":168403.14000000001,"N_COORD97":2544571.5600000001,"ADDRESS":"長北街４６號","OBJECTID":548302},"geometry":{"x":168403.13999999966,"y":2544571.5600000024}},{"attributes":{"ID":548330,"DIS_CODE":0,"TOWNNAME":"北區","LI":"三德里","LIN":"10鄰","STREET":"長北街","SECT":" ","MAREA":" ","LANE":" ","ALLEY":" ","HOUSE_NO":"４８號","E_COORD97":168406,"N_COORD97":2544579.3100000001,"ADDRESS":"長北街４８號","OBJECTID":548303},"geometry":{"x":168406,"y":2544579.3100000024}},{"attributes":{"ID":548331,"DIS_CODE":0,"TOWNNAME":"北區","LI":"三德里","LIN":"10鄰","STREET":"北華街","SECT":" ","MAREA":" ","LANE":" ","ALLEY":" ","HOUSE_NO":"２８３號","E_COORD97":168472.45999999999,"N_COORD97":2544602.6899999999,"ADDRESS":"北華街２８３號","OBJECTID":548304},"geometry":{"x":168472.45999999996,"y":2544602.6900000013}},{"attributes":{"ID":548332,"DIS_CODE":0,"TOWNNAME":"北區","LI":"三德里","LIN":"10鄰","STREET":"北華街","SECT":" ","MAREA":" ","LANE":" ","ALLEY":" ","HOUSE_NO":"２８５號","E_COORD97":168468.56,"N_COORD97":2544604.5,"ADDRESS":"北華街２８５號","OBJECTID":548305},"geometry":{"x":168468.56000000145,"y":2544604.5000000019}},{"attributes":{"ID":548333,"DIS_CODE":0,"TOWNNAME":"北區","LI":"三德里","LIN":"10鄰","STREET":"北華街","SECT":" ","MAREA":" ","LANE":" ","ALLEY":" ","HOUSE_NO":"２８５號之１","E_COORD97":168465.5,"N_COORD97":2544606.0299999998,"ADDRESS":"北華街２８５號之１","OBJECTID":548306},"geometry":{"x":168465.5,"y":2544606.0299999993}},{"attributes":{"ID":548334,"DIS_CODE":0,"TOWNNAME":"北區","LI":"三德里","LIN":"10鄰","STREET":"北華街","SECT":" ","MAREA":" ","LANE":" ","ALLEY":" ","HOUSE_NO":"２８７號","E_COORD97":168461.60000000001,"N_COORD97":2544607.9700000002,"ADDRESS":"北華街２８７號","OBJECTID":548307},"geometry":{"x":168461.60000000056,"y":2544607.9700000007}},{"attributes":{"ID":548335,"DIS_CODE":0,"TOWNNAME":"北區","LI":"三德里","LIN":"10鄰","STREET":"北華街","SECT":" ","MAREA":" ","LANE":" ","ALLEY":" ","HOUSE_NO":"２８９號","E_COORD97":168456.85999999999,"N_COORD97":2544609.9199999999,"ADDRESS":"北華街２８９號","OBJECTID":548308},"geometry":{"x":168456.86000000034,"y":2544609.9199999999}},{"attributes":{"ID":548336,"DIS_CODE":0,"TOWNNAME":"北區","LI":"三德里","LIN":"10鄰","STREET":"北華街","SECT":" ","MAREA":" ","LANE":" ","ALLEY":" ","HOUSE_NO":"２９１號","E_COORD97":168453.38,"N_COORD97":2544612.4199999999,"ADDRESS":"北華街２９１號","OBJECTID":548309},"geometry":{"x":168453.38000000082,"y":2544612.4200000018}},{"attributes":{"ID":548337,"DIS_CODE":0,"TOWNNAME":"北區","LI":"三德里","LIN":"10鄰","STREET":"北華街","SECT":" ","MAREA":" ","LANE":" ","ALLEY":" ","HOUSE_NO":"２９３號","E_COORD97":168449.20000000001,"N_COORD97":2544614.0899999999,"ADDRESS":"北華街２９３號","OBJECTID":548310},"geometry":{"x":168449.20000000019,"y":2544614.0900000017}},{"attributes":{"ID":548338,"DIS_CODE":0,"TOWNNAME":"北區","LI":"三德里","LIN":"10鄰","STREET":"北華街","SECT":" ","MAREA":" ","LANE":" ","ALLEY":" ","HOUSE_NO":"２９５號","E_COORD97":168445.45000000001,"N_COORD97":2544616.04,"ADDRESS":"北華街２９５號","OBJECTID":548311},"geometry":{"x":168445.45000000019,"y":2544616.0399999991}},{"attributes":{"ID":548339,"DIS_CODE":0,"TOWNNAME":"北區","LI":"三德里","LIN":"10鄰","STREET":"北華街","SECT":" ","MAREA":" ","LANE":" ","ALLEY":" ","HOUSE_NO":"２９７號","E_COORD97":168441.41,"N_COORD97":2544618.54,"ADDRESS":"北華街２９７號","OBJECTID":548312},"geometry":{"x":168441.41000000108,"y":2544618.5399999991}},{"attributes":{"ID":548340,"DIS_CODE":0,"TOWNNAME":"北區","LI":"三德里","LIN":"10鄰","STREET":"北華街","SECT":" ","MAREA":" ","LANE":" ","ALLEY":" ","HOUSE_NO":"２９７號之１","E_COORD97":168436.95000000001,"N_COORD97":2544620.4900000002,"ADDRESS":"北華街２９７號之１","OBJECTID":548313},"geometry":{"x":168436.95000000019,"y":2544620.4900000002}},{"attributes":{"ID":548341,"DIS_CODE":0,"TOWNNAME":"北區","LI":"三德里","LIN":"10鄰","STREET":"長北街","SECT":" ","MAREA":" ","LANE":" ","ALLEY":" ","HOUSE_NO":"５０號","E_COORD97":168415.79999999999,"N_COORD97":2544594.7999999998,"ADDRESS":"長北街５０號","OBJECTID":548314},"geometry":{"x":168415.79999999981,"y":2544594.8000000007}},{"attributes":{"ID":548342,"DIS_CODE":0,"TOWNNAME":"北區","LI":"三德里","LIN":"10鄰","STREET":"長北街","SECT":" ","MAREA":" ","LANE":" ","ALLEY":" ","HOUSE_NO":"５２號","E_COORD97":168412.32999999999,"N_COORD97":2544601.7400000002,"ADDRESS":"長北街５２號","OBJECTID":548315},"geometry":{"x":168412.33000000007,"y":2544601.7400000002}},{"attributes":{"ID":548343,"DIS_CODE":0,"TOWNNAME":"北區","LI":"三德里","LIN":"10鄰","STREET":"長北街","SECT":" ","MAREA":" ","LANE":" ","ALLEY":" ","HOUSE_NO":"６０號","E_COORD97":168429.28,"N_COORD97":2544622.54,"ADDRESS":"長北街６０號","OBJECTID":548316},"geometry":{"x":168429.28000000119,"y":2544622.5399999991}},{"attributes":{"ID":548344,"DIS_CODE":0,"TOWNNAME":"歸仁區","LI":"後市里","LIN":"10鄰","STREET":"民權七街","SECT":" ","MAREA":" ","LANE":" ","ALLEY":" ","HOUSE_NO":"２號","E_COORD97":177009.92000000001,"N_COORD97":2540720.29,"ADDRESS":"民權七街２號","OBJECTID":548317},"geometry":{"x":177009.91999999993,"y":2540720.290000001}},{"attributes":{"ID":548345,"DIS_CODE":0,"TOWNNAME":"歸仁區","LI":"崙頂里","LIN":"10鄰","STREET":"成功路","SECT":"二段","MAREA":" ","LANE":" ","ALLEY":" ","HOUSE_NO":"１０４號","E_COORD97":178056.07000000001,"N_COORD97":2539783.3599999999,"ADDRESS":"成功路二段１０４號","OBJECTID":548318},"geometry":{"x":178056.07000000123,"y":2539783.3600000031}},{"attributes":{"ID":548346,"DIS_CODE":0,"TOWNNAME":"歸仁區","LI":"大潭里","LIN":"10鄰","STREET":"大潭二街","SECT":" ","MAREA":" ","LANE":" ","ALLEY":" ","HOUSE_NO":"６７號","E_COORD97":175039.16,"N_COORD97":2534580.25,"ADDRESS":"大潭二街６７號","OBJECTID":548319},"geometry":{"x":175039.16000000108,"y":2534580.2500000037}},{"attributes":{"ID":548347,"DIS_CODE":0,"TOWNNAME":"歸仁區","LI":"崙頂里","LIN":"10鄰","STREET":"成功路","SECT":"二段","MAREA":" ","LANE":" ","ALLEY":" ","HOUSE_NO":"１５６號","E_COORD97":177969.64000000001,"N_COORD97":2539738.25,"ADDRESS":"成功路二段１５６號","OBJECTID":548320},"geometry":{"x":177969.64000000153,"y":2539738.2500000019}},{"attributes":{"ID":548348,"DIS_CODE":0,"TOWNNAME":"歸仁區","LI":"武東里","LIN":"10鄰","STREET":"武東三街","SECT":" ","MAREA":" ","LANE":" ","ALLEY":" ","HOUSE_NO":"６６號","E_COORD97":175055.14000000001,"N_COORD97":2535307.25,"ADDRESS":"武東三街６６號","OBJECTID":548321},"geometry":{"x":175055.13999999966,"y":2535307.2500000019}},{"attributes":{"ID":548349,"DIS_CODE":0,"TOWNNAME":"歸仁區","LI":"媽廟里","LIN":"10鄰","STREET":"中正北路","SECT":"三段","MAREA":" ","LANE":" ","ALLEY":" ","HOUSE_NO":"２０７號","E_COORD97":177597.76000000001,"N_COORD97":2543866.7200000002,"ADDRESS":"中正北路三段２０７號","OBJECTID":548322},"geometry":{"x":177597.76000000071,"y":2543866.7200000007}},{"attributes":{"ID":548350,"DIS_CODE":0,"TOWNNAME":"歸仁區","LI":"南保里","LIN":"10鄰","STREET":"文化八街","SECT":" ","MAREA":" ","LANE":" ","ALLEY":" ","HOUSE_NO":"１１號","E_COORD97":176743.84,"N_COORD97":2541266.3300000001,"ADDRESS":"文化八街１１號","OBJECTID":548323},"geometry":{"x":176743.83999999985,"y":2541266.3300000019}},{"attributes":{"ID":548351,"DIS_CODE":0,"TOWNNAME":"歸仁區","LI":"後市里","LIN":"10鄰","STREET":"民權南路","SECT":" ","MAREA":" ","LANE":" ","ALLEY":" ","HOUSE_NO":"１３５號","E_COORD97":176991.82000000001,"N_COORD97":2540706.29,"ADDRESS":"民權南路１３５號","OBJECTID":548324},"geometry":{"x":176991.8200000003,"y":2540706.290000001}},{"attributes":{"ID":548352,"DIS_CODE":0,"TOWNNAME":"歸仁區","LI":"南興里","LIN":"10鄰","STREET":"文化十六街","SECT":" ","MAREA":" ","LANE":" ","ALLEY":" ","HOUSE_NO":"２５號","E_COORD97":176020.09,"N_COORD97":2541248.3300000001,"ADDRESS":"文化十六街２５號","OBJECTID":548325},"geometry":{"x":176020.08999999985,"y":2541248.3300000001}},{"attributes":{"ID":548353,"DIS_CODE":0,"TOWNNAME":"歸仁區","LI":"南興里","LIN":"10鄰","STREET":"文化十六街","SECT":" ","MAREA":" ","LANE":" ","ALLEY":" ","HOUSE_NO":"５１號","E_COORD97":176024.48999999999,"N_COORD97":2541316.3300000001,"ADDRESS":"文化十六街５１號","OBJECTID":548326},"geometry":{"x":176024.49000000022,"y":2541316.3299999982}},{"attributes":{"ID":548354,"DIS_CODE":0,"TOWNNAME":"歸仁區","LI":"崙頂里","LIN":"10鄰","STREET":"崙頂五街","SECT":" ","MAREA":" ","LANE":" ","ALLEY":" ","HOUSE_NO":"３８號","E_COORD97":177982.84,"N_COORD97":2539824.25,"ADDRESS":"崙頂五街３８號","OBJECTID":548327},"geometry":{"x":177982.83999999985,"y":2539824.25}},{"attributes":{"ID":548355,"DIS_CODE":0,"TOWNNAME":"歸仁區","LI":"媽廟里","LIN":"10鄰","STREET":"中正北路","SECT":"三段","MAREA":" ","LANE":" ","ALLEY":" ","HOUSE_NO":"２３９號","E_COORD97":177607.26000000001,"N_COORD97":2543924.7200000002,"ADDRESS":"中正北路三段２３９號","OBJECTID":548328},"geometry":{"x":177607.25999999978,"y":2543924.7200000007}},{"attributes":{"ID":548356,"DIS_CODE":0,"TOWNNAME":"歸仁區","LI":"崙頂里","LIN":"10鄰","STREET":"成功路","SECT":"二段","MAREA":" ","LANE":" ","ALLEY":" ","HOUSE_NO":"１２０之３號","E_COORD97":178032.97,"N_COORD97":2539767.3700000001,"ADDRESS":"成功路二段１２０之３號","OBJECTID":548329},"geometry":{"x":178032.96999999974,"y":2539767.370000001}},{"attributes":{"ID":548357,"DIS_CODE":0,"TOWNNAME":"歸仁區","LI":"歸仁里","LIN":"10鄰","STREET":"大通路","SECT":" ","MAREA":" ","LANE":" ","ALLEY":" ","HOUSE_NO":"２號","E_COORD97":177981.01000000001,"N_COORD97":2540868.4900000002,"ADDRESS":"大通路２號","OBJECTID":548330},"geometry":{"x":177981.01000000071,"y":2540868.4900000021}},{"attributes":{"ID":548358,"DIS_CODE":0,"TOWNNAME":"歸仁區","LI":"歸南里","LIN":"10鄰","STREET":"民生九街","SECT":" ","MAREA":" ","LANE":" ","ALLEY":" ","HOUSE_NO":"１４０號","E_COORD97":176235.34,"N_COORD97":2539989.29,"ADDRESS":"民生九街１４０號","OBJECTID":548331},"geometry":{"x":176235.33999999985,"y":2539989.2899999991}},{"attributes":{"ID":548359,"DIS_CODE":0,"TOWNNAME":"歸仁區","LI":"看東里","LIN":"10鄰","STREET":"忠孝南路","SECT":" ","MAREA":" ","LANE":" ","ALLEY":" ","HOUSE_NO":"１４９號","E_COORD97":178562.26999999999,"N_COORD97":2540282.8199999998,"ADDRESS":"忠孝南路１４９號","OBJECTID":548332},"geometry":{"x":178562.27000000048,"y":2540282.820000004}},{"attributes":{"ID":548360,"DIS_CODE":0,"TOWNNAME":"歸仁區","LI":"南興里","LIN":"10鄰","STREET":"文化十六街","SECT":" ","MAREA":" ","LANE":" ","ALLEY":" ","HOUSE_NO":"３３號","E_COORD97":176020.19,"N_COORD97":2541276.3300000001,"ADDRESS":"文化十六街３３號","OBJECTID":548333},"geometry":{"x":176020.19000000041,"y":2541276.3300000019}},{"attributes":{"ID":548361,"DIS_CODE":0,"TOWNNAME":"歸仁區","LI":"七甲里","LIN":"10鄰","STREET":"中正北路","SECT":"二段","MAREA":" ","LANE":" ","ALLEY":" ","HOUSE_NO":"１８２號","E_COORD97":177553.22,"N_COORD97":2542532.6600000001,"ADDRESS":"中正北路二段１８２號","OBJECTID":548334},"geometry":{"x":177553.21999999974,"y":2542532.660000002}},{"attributes":{"ID":548362,"DIS_CODE":0,"TOWNNAME":"歸仁區","LI":"南保里","LIN":"10鄰","STREET":"文化八街","SECT":" ","MAREA":" ","LANE":" ","ALLEY":" ","HOUSE_NO":"２１號","E_COORD97":176743.94,"N_COORD97":2541286.3300000001,"ADDRESS":"文化八街２１號","OBJECTID":548335},"geometry":{"x":176743.94000000041,"y":2541286.3300000019}},{"attributes":{"ID":548363,"DIS_CODE":0,"TOWNNAME":"歸仁區","LI":"六甲里","LIN":"10鄰","STREET":"六甲路","SECT":" ","MAREA":" ","LANE":" ","ALLEY":" ","HOUSE_NO":"１９７號","E_COORD97":176055.85999999999,"N_COORD97":2539194.25,"ADDRESS":"六甲路１９７號","OBJECTID":548336},"geometry":{"x":176055.86000000034,"y":2539194.25}},{"attributes":{"ID":548364,"DIS_CODE":0,"TOWNNAME":"歸仁區","LI":"看東里","LIN":"10鄰","STREET":"中山一街","SECT":" ","MAREA":" ","LANE":" ","ALLEY":" ","HOUSE_NO":"１５０號","E_COORD97":178662.20999999999,"N_COORD97":2540263.6800000002,"ADDRESS":"中山一街１５０號","OBJECTID":548337},"geometry":{"x":178662.20999999996,"y":2540263.6800000016}},{"attributes":{"ID":548365,"DIS_CODE":0,"TOWNNAME":"歸仁區","LI":"南興里","LIN":"10鄰","STREET":"文化十六街","SECT":" ","MAREA":" ","LANE":" ","ALLEY":" ","HOUSE_NO":"５７號","E_COORD97":176024.59,"N_COORD97":2541330.3300000001,"ADDRESS":"文化十六街５７號","OBJECTID":548338},"geometry":{"x":176024.59000000078,"y":2541330.3300000038}},{"attributes":{"ID":548366,"DIS_CODE":0,"TOWNNAME":"歸仁區","LI":"七甲里","LIN":"10鄰","STREET":"七甲一街","SECT":" ","MAREA":" ","LANE":" ","ALLEY":" ","HOUSE_NO":"２７號","E_COORD97":177598.39000000001,"N_COORD97":2542481.6499999999,"ADDRESS":"七甲一街２７號","OBJECTID":548339},"geometry":{"x":177598.39000000153,"y":2542481.6500000022}},{"attributes":{"ID":548367,"DIS_CODE":0,"TOWNNAME":"鹽水區","LI":"橋南里","LIN":"10鄰","STREET":"橋南街","SECT":" ","MAREA":" ","LANE":" ","ALLEY":" ","HOUSE_NO":"８８號","E_COORD97":175126.23999999999,"N_COORD97":2579373.27,"ADDRESS":"橋南街８８號","OBJECTID":548340},"geometry":{"x":175126.24000000022,"y":2579373.2699999977}},{"attributes":{"ID":548368,"DIS_CODE":0,"TOWNNAME":"歸仁區","LI":"七甲里","LIN":"10鄰","STREET":"中正北路","SECT":"二段","MAREA":" ","LANE":" ","ALLEY":" ","HOUSE_NO":"１１２號","E_COORD97":177583.32000000001,"N_COORD97":2542391.6600000001,"ADDRESS":"中正北路二段１１２號","OBJECTID":548341},"geometry":{"x":177583.3200000003,"y":2542391.6600000001}},{"attributes":{"ID":548369,"DIS_CODE":0,"TOWNNAME":"歸仁區","LI":"八甲里","LIN":"10鄰","STREET":"大明街","SECT":" ","MAREA":" ","LANE":" ","ALLEY":" ","HOUSE_NO":"３１號","E_COORD97":177799.07000000001,"N_COORD97":2541889.6099999999,"ADDRESS":"大明街３１號","OBJECTID":548342},"geometry":{"x":177799.0700000003,"y":2541889.6099999994}},{"attributes":{"ID":548370,"DIS_CODE":0,"TOWNNAME":"歸仁區","LI":"文化里","LIN":"10鄰","STREET":"民族北街","SECT":" ","MAREA":" ","LANE":" ","ALLEY":" ","HOUSE_NO":"２５７號","E_COORD97":177477.29999999999,"N_COORD97":2541495.3300000001,"ADDRESS":"民族北街２５７號","OBJECTID":548343},"geometry":{"x":177477.30000000075,"y":2541495.3300000001}},{"attributes":{"ID":548371,"DIS_CODE":0,"TOWNNAME":"歸仁區","LI":"大廟里","LIN":"10鄰","STREET":"大廟一街","SECT":" ","MAREA":" ","LANE":" ","ALLEY":" ","HOUSE_NO":"１９號","E_COORD97":175870.87,"N_COORD97":2544102.25,"ADDRESS":"大廟一街１９號","OBJECTID":548344},"geometry":{"x":175870.87000000011,"y":2544102.25}},{"attributes":{"ID":548372,"DIS_CODE":0,"TOWNNAME":"玉井區","LI":"玉井里","LIN":"10鄰","STREET":"民生路","SECT":" ","MAREA":" ","LANE":" ","ALLEY":" ","HOUSE_NO":"１６號","E_COORD97":194771.84,"N_COORD97":2558211.2799999998,"ADDRESS":"民生路１６號","OBJECTID":548345},"geometry":{"x":194771.84000000078,"y":2558211.2800000012}},{"attributes":{"ID":548373,"DIS_CODE":0,"TOWNNAME":"玉井區","LI":"中正里","LIN":"10鄰","STREET":"健康街","SECT":" ","MAREA":" ","LANE":" ","ALLEY":" ","HOUSE_NO":"１１８號","E_COORD97":195552.17999999999,"N_COORD97":2558885.29,"ADDRESS":"健康街１１８號","OBJECTID":548346},"geometry":{"x":195552.18000000063,"y":2558885.290000001}},{"attributes":{"ID":548374,"DIS_CODE":0,"TOWNNAME":"玉井區","LI":"中正里","LIN":"10鄰","STREET":"中正路","SECT":" ","MAREA":" ","LANE":" ","ALLEY":" ","HOUSE_NO":"６３５號","E_COORD97":195767.14000000001,"N_COORD97":2558920.2400000002,"ADDRESS":"中正路６３５號","OBJECTID":548347},"geometry":{"x":195767.13999999966,"y":2558920.2400000039}},{"attributes":{"ID":548375,"DIS_CODE":0,"TOWNNAME":"玉井區","LI":"竹圍里","LIN":"10鄰","STREET":"武成街","SECT":" ","MAREA":" ","LANE":" ","ALLEY":" ","HOUSE_NO":"１７７號","E_COORD97":196246.59,"N_COORD97":2559081.9300000002,"ADDRESS":"武成街１７７號","OBJECTID":548348},"geometry":{"x":196246.59000000078,"y":2559081.9300000016}},{"attributes":{"ID":548376,"DIS_CODE":0,"TOWNNAME":"玉井區","LI":"竹圍里","LIN":"10鄰","STREET":"武成街","SECT":" ","MAREA":" ","LANE":" ","ALLEY":" ","HOUSE_NO":"１９３號","E_COORD97":196240.10000000001,"N_COORD97":2559094.3999999999,"ADDRESS":"武成街１９３號","OBJECTID":548349},"geometry":{"x":196240.09999999963,"y":2559094.4000000004}},{"attributes":{"ID":548377,"DIS_CODE":0,"TOWNNAME":"玉井區","LI":"竹圍里","LIN":"10鄰","STREET":"中正路","SECT":" ","MAREA":" ","LANE":" ","ALLEY":" ","HOUSE_NO":"８５５號","E_COORD97":196223.32000000001,"N_COORD97":2559221.4300000002,"ADDRESS":"中正路８５５號","OBJECTID":548350},"geometry":{"x":196223.32000000123,"y":2559221.4300000016}},{"attributes":{"ID":548378,"DIS_CODE":0,"TOWNNAME":"玉井區","LI":"玉田里","LIN":"10鄰","STREET":"大道街","SECT":" ","MAREA":" ","LANE":" ","ALLEY":" ","HOUSE_NO":"２號","E_COORD97":194908.87,"N_COORD97":2557951.25,"ADDRESS":"大道街２號","OBJECTID":548351},"geometry":{"x":194908.87000000104,"y":2557951.2500000019}},{"attributes":{"ID":548379,"DIS_CODE":0,"TOWNNAME":"玉井區","LI":"玉田里","LIN":"10鄰","STREET":"大道街","SECT":" ","MAREA":" ","LANE":" ","ALLEY":" ","HOUSE_NO":"１０號","E_COORD97":194904.72,"N_COORD97":2557989.2400000002,"ADDRESS":"大道街１０號","OBJECTID":548352},"geometry":{"x":194904.72000000067,"y":2557989.2400000021}},{"attributes":{"ID":548380,"DIS_CODE":0,"TOWNNAME":"玉井區","LI":"玉田里","LIN":"10鄰","STREET":"大道街","SECT":" ","MAREA":" ","LANE":" ","ALLEY":" ","HOUSE_NO":"６號","E_COORD97":194899.76000000001,"N_COORD97":2557980.2400000002,"ADDRESS":"大道街６號","OBJECTID":548353},"geometry":{"x":194899.75999999978,"y":2557980.2400000002}},{"attributes":{"ID":548381,"DIS_CODE":0,"TOWNNAME":"玉井區","LI":"玉田里","LIN":"10鄰","STREET":"大道街","SECT":" ","MAREA":" ","LANE":" ","ALLEY":" ","HOUSE_NO":"１號","E_COORD97":194893.67000000001,"N_COORD97":2557969.2400000002,"ADDRESS":"大道街１號","OBJECTID":548354},"geometry":{"x":194893.66999999993,"y":2557969.2400000002}},{"attributes":{"ID":548382,"DIS_CODE":0,"TOWNNAME":"玉井區","LI":"玉田里","LIN":"10鄰","STREET":"大道街","SECT":" ","MAREA":" ","LANE":" ","ALLEY":" ","HOUSE_NO":"２１號","E_COORD97":194878.82000000001,"N_COORD97":2558013.25,"ADDRESS":"大道街２１號","OBJECTID":548355},"geometry":{"x":194878.82000000123,"y":2558013.25}},{"attributes":{"ID":548383,"DIS_CODE":0,"TOWNNAME":"玉井區","LI":"竹圍里","LIN":"10鄰","STREET":"武成街","SECT":" ","MAREA":" ","LANE":" ","ALLEY":" ","HOUSE_NO":"２２１號","E_COORD97":196223.60999999999,"N_COORD97":2559111.73,"ADDRESS":"武成街２２１號","OBJECTID":548356},"geometry":{"x":196223.61000000034,"y":2559111.7300000023}},{"attributes":{"ID":548384,"DIS_CODE":0,"TOWNNAME":"玉井區","LI":"竹圍里","LIN":"10鄰","STREET":"武成街","SECT":" ","MAREA":" ","LANE":" ","ALLEY":" ","HOUSE_NO":"２１９號","E_COORD97":196247.01000000001,"N_COORD97":2559112.9100000001,"ADDRESS":"武成街２１９號","OBJECTID":548357},"geometry":{"x":196247.01000000071,"y":2559112.910000002}},{"attributes":{"ID":548385,"DIS_CODE":0,"TOWNNAME":"玉井區","LI":"玉田里","LIN":"10鄰","STREET":"大道街","SECT":" ","MAREA":" ","LANE":" ","ALLEY":" ","HOUSE_NO":"２３號","E_COORD97":194877.92000000001,"N_COORD97":2558019.25,"ADDRESS":"大道街２３號","OBJECTID":548358},"geometry":{"x":194877.92000000086,"y":2558019.2500000019}},{"attributes":{"ID":548386,"DIS_CODE":0,"TOWNNAME":"南區","LI":"文南里","LIN":"20鄰","STREET":"仁南二街","SECT":" ","MAREA":" ","LANE":" ","ALLEY":" ","HOUSE_NO":"５號","E_COORD97":166401.28,"N_COORD97":2542679.6200000001,"ADDRESS":"仁南二街５號","OBJECTID":548359},"geometry":{"x":166401.28000000212,"y":2542679.6200000029}},{"attributes":{"ID":548387,"DIS_CODE":0,"TOWNNAME":"鹽水區","LI":"橋南里","LIN":"10鄰","STREET":"橋南街","SECT":" ","MAREA":" ","LANE":" ","ALLEY":" ","HOUSE_NO":"９６號","E_COORD97":175146.70999999999,"N_COORD97":2579352.2200000002,"ADDRESS":"橋南街９６號","OBJECTID":548360},"geometry":{"x":175146.70999999996,"y":2579352.2200000025}},{"attributes":{"ID":548388,"DIS_CODE":0,"TOWNNAME":"學甲區","LI":"仁得里","LIN":"10鄰","STREET":"四維街","SECT":" ","MAREA":" ","LANE":" ","ALLEY":" ","HOUSE_NO":"９７號","E_COORD97":166024.70000000001,"N_COORD97":2569779.3700000001,"ADDRESS":"四維街９７號","OBJECTID":548361},"geometry":{"x":166024.70000000019,"y":2569779.3699999992}},{"attributes":{"ID":548389,"DIS_CODE":0,"TOWNNAME":"學甲區","LI":"仁得里","LIN":"10鄰","STREET":"四維街","SECT":" ","MAREA":" ","LANE":" ","ALLEY":" ","HOUSE_NO":"９９號","E_COORD97":166020.32000000001,"N_COORD97":2569780,"ADDRESS":"四維街９９號","OBJECTID":548362},"geometry":{"x":166020.32000000123,"y":2569780}},{"attributes":{"ID":548390,"DIS_CODE":0,"TOWNNAME":"學甲區","LI":"慈福里","LIN":"10鄰","STREET":"民族路","SECT":" ","MAREA":" ","LANE":" ","ALLEY":" ","HOUSE_NO":"３９號之１","E_COORD97":166592.81,"N_COORD97":2570242.6699999999,"ADDRESS":"民族路３９號之１","OBJECTID":548363},"geometry":{"x":166592.80999999959,"y":2570242.6699999999}},{"attributes":{"ID":548391,"DIS_CODE":0,"TOWNNAME":"學甲區","LI":"慈福里","LIN":"10鄰","STREET":"民族路","SECT":" ","MAREA":" ","LANE":" ","ALLEY":" ","HOUSE_NO":"４２號","E_COORD97":166620.45000000001,"N_COORD97":2570234.98,"ADDRESS":"民族路４２號","OBJECTID":548364},"geometry":{"x":166620.45000000205,"y":2570234.9800000004}},{"attributes":{"ID":548392,"DIS_CODE":0,"TOWNNAME":"學甲區","LI":"慈福里","LIN":"10鄰","STREET":"民族路","SECT":" ","MAREA":" ","LANE":" ","ALLEY":" ","HOUSE_NO":"４３號","E_COORD97":166593.78,"N_COORD97":2570260.8900000001,"ADDRESS":"民族路４３號","OBJECTID":548365},"geometry":{"x":166593.78000000026,"y":2570260.8900000025}},{"attributes":{"ID":548393,"DIS_CODE":0,"TOWNNAME":"學甲區","LI":"慈福里","LIN":"10鄰","STREET":"民族路","SECT":" ","MAREA":" ","LANE":" ","ALLEY":" ","HOUSE_NO":"４４號","E_COORD97":166624.29000000001,"N_COORD97":2570252.1699999999,"ADDRESS":"民族路４４號","OBJECTID":548366},"geometry":{"x":166624.29000000004,"y":2570252.1700000018}},{"attributes":{"ID":548394,"DIS_CODE":0,"TOWNNAME":"學甲區","LI":"新達里","LIN":"10鄰","STREET":"民族路","SECT":" ","MAREA":" ","LANE":" ","ALLEY":" ","HOUSE_NO":"７５號","E_COORD97":166644.82999999999,"N_COORD97":2570516.6299999999,"ADDRESS":"民族路７５號","OBJECTID":548367},"geometry":{"x":166644.83000000194,"y":2570516.629999999}},{"attributes":{"ID":548395,"DIS_CODE":0,"TOWNNAME":"學甲區","LI":"新達里","LIN":"10鄰","STREET":"民族路","SECT":" ","MAREA":" ","LANE":" ","ALLEY":" ","HOUSE_NO":"８１號之１","E_COORD97":166648.16,"N_COORD97":2570534.79,"ADDRESS":"民族路８１號之１","OBJECTID":548368},"geometry":{"x":166648.16000000108,"y":2570534.790000001}},{"attributes":{"ID":548396,"DIS_CODE":0,"TOWNNAME":"學甲區","LI":"新達里","LIN":"10鄰","STREET":"民族路","SECT":" ","MAREA":" ","LANE":" ","ALLEY":" ","HOUSE_NO":"８１號之２","E_COORD97":166648.42999999999,"N_COORD97":2570539.2799999998,"ADDRESS":"民族路８１號之２","OBJECTID":548369},"geometry":{"x":166648.4299999997,"y":2570539.2800000012}},{"attributes":{"ID":548397,"DIS_CODE":0,"TOWNNAME":"學甲區","LI":"新達里","LIN":"10鄰","STREET":"民族路","SECT":" ","MAREA":" ","LANE":" ","ALLEY":" ","HOUSE_NO":"８１號之３","E_COORD97":166637.57000000001,"N_COORD97":2570536.0600000001,"ADDRESS":"民族路８１號之３","OBJECTID":548370},"geometry":{"x":166637.5700000003,"y":2570536.0600000005}},{"attributes":{"ID":548398,"DIS_CODE":0,"TOWNNAME":"學甲區","LI":"新達里","LIN":"10鄰","STREET":"民族路","SECT":" ","MAREA":" ","LANE":" ","ALLEY":" ","HOUSE_NO":"８１號之４","E_COORD97":166633.16,"N_COORD97":2570537.2999999998,"ADDRESS":"民族路８１號之４","OBJECTID":548371},"geometry":{"x":166633.16000000108,"y":2570537.3000000026}},{"attributes":{"ID":548399,"DIS_CODE":0,"TOWNNAME":"學甲區","LI":"新達里","LIN":"10鄰","STREET":"民族路","SECT":" ","MAREA":" ","LANE":" ","ALLEY":" ","HOUSE_NO":"８１號之５","E_COORD97":166627.42000000001,"N_COORD97":2570538.5600000001,"ADDRESS":"民族路８１號之５","OBJECTID":548372},"geometry":{"x":166627.42000000086,"y":2570538.5600000024}},{"attributes":{"ID":548400,"DIS_CODE":0,"TOWNNAME":"學甲區","LI":"新達里","LIN":"10鄰","STREET":"民族路","SECT":" ","MAREA":" ","LANE":" ","ALLEY":" ","HOUSE_NO":"８３號之１","E_COORD97":166640.53,"N_COORD97":2570551.9700000002,"ADDRESS":"民族路８３號之１","OBJECTID":548373},"geometry":{"x":166640.53000000119,"y":2570551.9700000025}},{"attributes":{"ID":548401,"DIS_CODE":0,"TOWNNAME":"學甲區","LI":"新達里","LIN":"10鄰","STREET":"民族路","SECT":" ","MAREA":" ","LANE":" ","ALLEY":" ","HOUSE_NO":"８３號之２","E_COORD97":166636,"N_COORD97":2570553.0499999998,"ADDRESS":"民族路８３號之２","OBJECTID":548374},"geometry":{"x":166636,"y":2570553.0500000007}},{"attributes":{"ID":548402,"DIS_CODE":0,"TOWNNAME":"學甲區","LI":"新達里","LIN":"10鄰","STREET":"民族路","SECT":" ","MAREA":" ","LANE":" ","ALLEY":" ","HOUSE_NO":"８３號之３","E_COORD97":166630.5,"N_COORD97":2570554.23,"ADDRESS":"民族路８３號之３","OBJECTID":548375},"geometry":{"x":166630.50000000093,"y":2570554.2300000023}},{"attributes":{"ID":548403,"DIS_CODE":0,"TOWNNAME":"學甲區","LI":"新達里","LIN":"10鄰","STREET":"民族路","SECT":" ","MAREA":" ","LANE":" ","ALLEY":" ","HOUSE_NO":"８３號之４","E_COORD97":166654.79000000001,"N_COORD97":2570552.71,"ADDRESS":"民族路８３號之４","OBJECTID":548376},"geometry":{"x":166654.79000000004,"y":2570552.7100000009}},{"attributes":{"ID":548404,"DIS_CODE":0,"TOWNNAME":"學甲區","LI":"新達里","LIN":"10鄰","STREET":"民族路","SECT":" ","MAREA":" ","LANE":" ","ALLEY":" ","HOUSE_NO":"８３號之５","E_COORD97":166655.19,"N_COORD97":2570556.4300000002,"ADDRESS":"民族路８３號之５","OBJECTID":548377},"geometry":{"x":166655.19000000134,"y":2570556.4299999997}},{"attributes":{"ID":548405,"DIS_CODE":0,"TOWNNAME":"學甲區","LI":"新達里","LIN":"10鄰","STREET":"民族路","SECT":" ","MAREA":" ","LANE":" ","ALLEY":" ","HOUSE_NO":"８３號之６","E_COORD97":166656.06,"N_COORD97":2570560.79,"ADDRESS":"民族路８３號之６","OBJECTID":548378},"geometry":{"x":166656.05999999959,"y":2570560.7899999991}},{"attributes":{"ID":548406,"DIS_CODE":0,"TOWNNAME":"學甲區","LI":"新達里","LIN":"10鄰","STREET":"民族路","SECT":" ","MAREA":" ","LANE":" ","ALLEY":" ","HOUSE_NO":"８３號","E_COORD97":166653.42999999999,"N_COORD97":2570548.3399999999,"ADDRESS":"民族路８３號","OBJECTID":548379},"geometry":{"x":166653.4299999997,"y":2570548.3400000036}},{"attributes":{"ID":548407,"DIS_CODE":0,"TOWNNAME":"學甲區","LI":"新達里","LIN":"10鄰","STREET":"民族路","SECT":" ","MAREA":" ","LANE":" ","ALLEY":" ","HOUSE_NO":"８５號","E_COORD97":166630.69,"N_COORD97":2570588.1499999999,"ADDRESS":"民族路８５號","OBJECTID":548380},"geometry":{"x":166630.69000000041,"y":2570588.1500000022}},{"attributes":{"ID":548408,"DIS_CODE":0,"TOWNNAME":"學甲區","LI":"新達里","LIN":"10鄰","STREET":"民族路","SECT":" ","MAREA":" ","LANE":" ","ALLEY":" ","HOUSE_NO":"８７號","E_COORD97":166647.78,"N_COORD97":2570583.8700000001,"ADDRESS":"民族路８７號","OBJECTID":548381},"geometry":{"x":166647.78000000119,"y":2570583.8700000029}},{"attributes":{"ID":548409,"DIS_CODE":0,"TOWNNAME":"學甲區","LI":"仁得里","LIN":"10鄰","STREET":"民權路","SECT":" ","MAREA":" ","LANE":" ","ALLEY":" ","HOUSE_NO":"５９號之２","E_COORD97":166116.19,"N_COORD97":2570107.3900000001,"ADDRESS":"民權路５９號之２","OBJECTID":548382},"geometry":{"x":166116.19000000134,"y":2570107.3900000006}},{"attributes":{"ID":548410,"DIS_CODE":0,"TOWNNAME":"學甲區","LI":"仁得里","LIN":"10鄰","STREET":"民權路","SECT":" ","MAREA":" ","LANE":" ","ALLEY":" ","HOUSE_NO":"５９號之６","E_COORD97":166110.98000000001,"N_COORD97":2570093.2999999998,"ADDRESS":"民權路５９號之６","OBJECTID":548383},"geometry":{"x":166110.98000000138,"y":2570093.3000000026}},{"attributes":{"ID":548411,"DIS_CODE":0,"TOWNNAME":"學甲區","LI":"仁得里","LIN":"10鄰","STREET":"民權路","SECT":" ","MAREA":" ","LANE":" ","ALLEY":" ","HOUSE_NO":"５９號之７","E_COORD97":166110.70999999999,"N_COORD97":2570089.29,"ADDRESS":"民權路５９號之７","OBJECTID":548384},"geometry":{"x":166110.70999999996,"y":2570089.2899999991}},{"attributes":{"ID":548412,"DIS_CODE":0,"TOWNNAME":"學甲區","LI":"仁得里","LIN":"10鄰","STREET":"民權路","SECT":" ","MAREA":" ","LANE":" ","ALLEY":" ","HOUSE_NO":"５９號之８","E_COORD97":166109.60999999999,"N_COORD97":2570085.3700000001,"ADDRESS":"民權路５９號之８","OBJECTID":548385},"geometry":{"x":166109.61000000127,"y":2570085.3700000029}},{"attributes":{"ID":548413,"DIS_CODE":0,"TOWNNAME":"學甲區","LI":"仁得里","LIN":"10鄰","STREET":"民權路","SECT":" ","MAREA":" ","LANE":" ","ALLEY":" ","HOUSE_NO":"５９號之９","E_COORD97":166108.82999999999,"N_COORD97":2570080.8999999999,"ADDRESS":"民權路５９號之９","OBJECTID":548386},"geometry":{"x":166108.83000000007,"y":2570080.9000000022}},{"attributes":{"ID":548414,"DIS_CODE":0,"TOWNNAME":"學甲區","LI":"仁得里","LIN":"10鄰","STREET":"民權路","SECT":" ","MAREA":" ","LANE":" ","ALLEY":" ","HOUSE_NO":"５９號","E_COORD97":166124.51999999999,"N_COORD97":2570119.8100000001,"ADDRESS":"民權路５９號","OBJECTID":548387},"geometry":{"x":166124.52000000048,"y":2570119.8100000024}},{"attributes":{"ID":548415,"DIS_CODE":0,"TOWNNAME":"學甲區","LI":"仁得里","LIN":"10鄰","STREET":"民權路","SECT":" ","MAREA":" ","LANE":" ","ALLEY":" ","HOUSE_NO":"６０號之１","E_COORD97":166118.42999999999,"N_COORD97":2570147.23,"ADDRESS":"民權路６０號之１","OBJECTID":548388},"geometry":{"x":166118.43000000063,"y":2570147.2300000023}},{"attributes":{"ID":548416,"DIS_CODE":0,"TOWNNAME":"學甲區","LI":"仁得里","LIN":"10鄰","STREET":"民權路","SECT":" ","MAREA":" ","LANE":" ","ALLEY":" ","HOUSE_NO":"６０號之２","E_COORD97":166113.67999999999,"N_COORD97":2570147.6200000001,"ADDRESS":"民權路６０號之２","OBJECTID":548389},"geometry":{"x":166113.68000000063,"y":2570147.6200000048}},{"attributes":{"ID":548417,"DIS_CODE":0,"TOWNNAME":"學甲區","LI":"仁得里","LIN":"10鄰","STREET":"民權路","SECT":" ","MAREA":" ","LANE":" ","ALLEY":" ","HOUSE_NO":"６０號","E_COORD97":166128.84,"N_COORD97":2570144.6299999999,"ADDRESS":"民權路６０號","OBJECTID":548390},"geometry":{"x":166128.83999999985,"y":2570144.629999999}},{"attributes":{"ID":548418,"DIS_CODE":0,"TOWNNAME":"學甲區","LI":"仁得里","LIN":"10鄰","STREET":"民權路","SECT":" ","MAREA":" ","LANE":" ","ALLEY":" ","HOUSE_NO":"６１號之１","E_COORD97":166101.69,"N_COORD97":2570111.46,"ADDRESS":"民權路６１號之１","OBJECTID":548391},"geometry":{"x":166101.69000000041,"y":2570111.4600000028}},{"attributes":{"ID":548419,"DIS_CODE":0,"TOWNNAME":"學甲區","LI":"仁得里","LIN":"10鄰","STREET":"民權路","SECT":" ","MAREA":" ","LANE":" ","ALLEY":" ","HOUSE_NO":"６１號之２","E_COORD97":166100.38,"N_COORD97":2570106.4900000002,"ADDRESS":"民權路６１號之２","OBJECTID":548392},"geometry":{"x":166100.38000000082,"y":2570106.4899999984}},{"attributes":{"ID":548420,"DIS_CODE":0,"TOWNNAME":"學甲區","LI":"仁得里","LIN":"10鄰","STREET":"民權路","SECT":" ","MAREA":" ","LANE":" ","ALLEY":" ","HOUSE_NO":"６１號之３","E_COORD97":166099.35999999999,"N_COORD97":2570101.23,"ADDRESS":"民權路６１號之３","OBJECTID":548393},"geometry":{"x":166099.36000000127,"y":2570101.2300000004}},{"attributes":{"ID":548421,"DIS_CODE":0,"TOWNNAME":"學甲區","LI":"仁得里","LIN":"10鄰","STREET":"民權路","SECT":" ","MAREA":" ","LANE":" ","ALLEY":" ","HOUSE_NO":"６１號之４","E_COORD97":166097.87,"N_COORD97":2570096.3500000001,"ADDRESS":"民權路６１號之４","OBJECTID":548394},"geometry":{"x":166097.87000000011,"y":2570096.3499999996}},{"attributes":{"ID":548422,"DIS_CODE":0,"TOWNNAME":"學甲區","LI":"仁得里","LIN":"10鄰","STREET":"民權路","SECT":" ","MAREA":" ","LANE":" ","ALLEY":" ","HOUSE_NO":"６１號之５","E_COORD97":166096.85000000001,"N_COORD97":2570091.1000000001,"ADDRESS":"民權路６１號之５","OBJECTID":548395},"geometry":{"x":166096.85000000056,"y":2570091.0999999996}},{"attributes":{"ID":548423,"DIS_CODE":0,"TOWNNAME":"學甲區","LI":"仁得里","LIN":"10鄰","STREET":"民權路","SECT":" ","MAREA":" ","LANE":" ","ALLEY":" ","HOUSE_NO":"６１號之６","E_COORD97":166095.82999999999,"N_COORD97":2570085.8399999999,"ADDRESS":"民權路６１號之６","OBJECTID":548396},"geometry":{"x":166095.83000000101,"y":2570085.8399999999}},{"attributes":{"ID":548424,"DIS_CODE":0,"TOWNNAME":"學甲區","LI":"仁得里","LIN":"10鄰","STREET":"民權路","SECT":" ","MAREA":" ","LANE":" ","ALLEY":" ","HOUSE_NO":"６１號","E_COORD97":166109.76999999999,"N_COORD97":2570123.3799999999,"ADDRESS":"民權路６１號","OBJECTID":548397},"geometry":{"x":166109.77000000048,"y":2570123.3800000008}},{"attributes":{"ID":548425,"DIS_CODE":0,"TOWNNAME":"學甲區","LI":"仁得里","LIN":"10鄰","STREET":"民權路","SECT":" ","MAREA":" ","LANE":" ","ALLEY":" ","HOUSE_NO":"６２號之１","E_COORD97":166109,"N_COORD97":2570150.1200000001,"ADDRESS":"民權路６２號之１","OBJECTID":548398},"geometry":{"x":166109,"y":2570150.120000001}},{"attributes":{"ID":548426,"DIS_CODE":0,"TOWNNAME":"學甲區","LI":"仁得里","LIN":"10鄰","STREET":"民權路","SECT":" ","MAREA":" ","LANE":" ","ALLEY":" ","HOUSE_NO":"６２號之２","E_COORD97":166104.20999999999,"N_COORD97":2570150.54,"ADDRESS":"民權路６２號之２","OBJECTID":548399},"geometry":{"x":166104.20999999996,"y":2570150.540000001}},{"attributes":{"ID":548427,"DIS_CODE":0,"TOWNNAME":"學甲區","LI":"仁得里","LIN":"10鄰","STREET":"民權路","SECT":" ","MAREA":" ","LANE":" ","ALLEY":" ","HOUSE_NO":"６３號","E_COORD97":166105.32000000001,"N_COORD97":2570124.1600000001,"ADDRESS":"民權路６３號","OBJECTID":548400},"geometry":{"x":166105.3200000003,"y":2570124.1600000001}}]}