{"displayFieldName":"TOWNNAME","fieldAliases":{"ID":"ID","DIS_CODE":"DIS_CODE","TOWNNAME":"TOWNNAME","LI":"LI","LIN":"LIN","STREET":"STREET","SECT":"SECT","MAREA":"MAREA","LANE":"LANE","ALLEY":"ALLEY","HOUSE_NO":"HOUSE_NO","E_COORD97":"E_COORD97","N_COORD97":"N_COORD97","ADDRESS":"ADDRESS","OBJECTID":"OBJECTID"},"geometryType":"esriGeometryPoint","spatialReference":{"wkid":102443,"latestWkid":3826},"fields":[{"name":"ID","type":"esriFieldTypeDouble","alias":"ID"},{"name":"DIS_CODE","type":"esriFieldTypeInteger","alias":"DIS_CODE"},{"name":"TOWNNAME","type":"esriFieldTypeString","alias":"TOWNNAME","length":8},{"name":"LI","type":"esriFieldTypeString","alias":"LI","length":8},{"name":"LIN","type":"esriFieldTypeString","alias":"LIN","length":12},{"name":"STREET","type":"esriFieldTypeString","alias":"STREET","length":20},{"name":"SECT","type":"esriFieldTypeString","alias":"SECT","length":8},{"name":"MAREA","type":"esriFieldTypeString","alias":"MAREA","length":12},{"name":"LANE","type":"esriFieldTypeString","alias":"LANE","length":10},{"name":"ALLEY","type":"esriFieldTypeString","alias":"ALLEY","length":10},{"name":"HOUSE_NO","type":"esriFieldTypeString","alias":"HOUSE_NO","length":20},{"name":"E_COORD97","type":"esriFieldTypeDouble","alias":"E_COORD97"},{"name":"N_COORD97","type":"esriFieldTypeDouble","alias":"N_COORD97"},{"name":"ADDRESS","type":"esriFieldTypeString","alias":"ADDRESS","length":50},{"name":"OBJECTID","type":"esriFieldTypeOID","alias":"OBJECTID"}],"features":[{"attributes":{"ID":245205,"DIS_CODE":0,"TOWNNAME":"東山區","LI":"東山里","LIN":"11鄰","STREET":" ","SECT":" ","MAREA":"東山","LANE":" ","ALLEY":" ","HOUSE_NO":"２１７號之１","E_COORD97":188941.23999999999,"N_COORD97":2580495.4199999999,"ADDRESS":"東山２１７號之１","OBJECTID":245201},"geometry":{"x":188941.24000000115,"y":2580495.4200000018}},{"attributes":{"ID":245206,"DIS_CODE":0,"TOWNNAME":"佳里區","LI":"建南里","LIN":"24鄰","STREET":"四維三街","SECT":" ","MAREA":" ","LANE":"９８巷","ALLEY":" ","HOUSE_NO":"９號","E_COORD97":165474.35000000001,"N_COORD97":2560992.3100000001,"ADDRESS":"四維三街９８巷９號","OBJECTID":245202},"geometry":{"x":165474.34999999963,"y":2560992.3100000024}},{"attributes":{"ID":245207,"DIS_CODE":0,"TOWNNAME":"東山區","LI":"東山里","LIN":"11鄰","STREET":" ","SECT":" ","MAREA":"東山","LANE":" ","ALLEY":" ","HOUSE_NO":"２１７號之２","E_COORD97":188937.16,"N_COORD97":2580495.4900000002,"ADDRESS":"東山２１７號之２","OBJECTID":245203},"geometry":{"x":188937.16000000015,"y":2580495.4900000021}},{"attributes":{"ID":245208,"DIS_CODE":0,"TOWNNAME":"永康區","LI":"東灣里","LIN":"24鄰","STREET":"大灣三街","SECT":" ","MAREA":" ","LANE":"７３巷","ALLEY":" ","HOUSE_NO":"５０號","E_COORD97":174828.06,"N_COORD97":2544836.29,"ADDRESS":"大灣三街７３巷５０號","OBJECTID":245204},"geometry":{"x":174828.05999999959,"y":2544836.290000001}},{"attributes":{"ID":245209,"DIS_CODE":0,"TOWNNAME":"永康區","LI":"西橋里","LIN":"24鄰","STREET":"大橋三街","SECT":" ","MAREA":" ","LANE":"５７巷","ALLEY":" ","HOUSE_NO":"５２號","E_COORD97":170511.72,"N_COORD97":2546593.2400000002,"ADDRESS":"大橋三街５７巷５２號","OBJECTID":245205},"geometry":{"x":170511.71999999974,"y":2546593.2400000021}},{"attributes":{"ID":245210,"DIS_CODE":0,"TOWNNAME":"東區","LI":"成大里","LIN":"24鄰","STREET":"育樂街","SECT":" ","MAREA":" ","LANE":"１１７巷","ALLEY":" ","HOUSE_NO":"１４號","E_COORD97":169540.85000000001,"N_COORD97":2543974.3500000001,"ADDRESS":"育樂街１１７巷１４號","OBJECTID":245206},"geometry":{"x":169540.84999999963,"y":2543974.3500000015}},{"attributes":{"ID":245211,"DIS_CODE":0,"TOWNNAME":"東區","LI":"成大里","LIN":"24鄰","STREET":"育樂街","SECT":" ","MAREA":" ","LANE":"１１７巷","ALLEY":" ","HOUSE_NO":"１５號","E_COORD97":169536.78,"N_COORD97":2543973,"ADDRESS":"育樂街１１７巷１５號","OBJECTID":245207},"geometry":{"x":169536.78000000026,"y":2543973}},{"attributes":{"ID":245212,"DIS_CODE":0,"TOWNNAME":"東區","LI":"成大里","LIN":"24鄰","STREET":"育樂街","SECT":" ","MAREA":" ","LANE":"１１７巷","ALLEY":" ","HOUSE_NO":"１６號","E_COORD97":169530.84,"N_COORD97":2543972.1499999999,"ADDRESS":"育樂街１１７巷１６號","OBJECTID":245208},"geometry":{"x":169530.83999999985,"y":2543972.1500000004}},{"attributes":{"ID":245213,"DIS_CODE":0,"TOWNNAME":"東區","LI":"成大里","LIN":"24鄰","STREET":"育樂街","SECT":" ","MAREA":" ","LANE":"１１７巷","ALLEY":" ","HOUSE_NO":"１７號","E_COORD97":169531.85999999999,"N_COORD97":2543962.1499999999,"ADDRESS":"育樂街１１７巷１７號","OBJECTID":245209},"geometry":{"x":169531.8600000022,"y":2543962.1500000004}},{"attributes":{"ID":245214,"DIS_CODE":0,"TOWNNAME":"東區","LI":"成大里","LIN":"24鄰","STREET":"育樂街","SECT":" ","MAREA":" ","LANE":"１１７巷","ALLEY":" ","HOUSE_NO":"１８號","E_COORD97":169541.19,"N_COORD97":2543956.3900000001,"ADDRESS":"育樂街１１７巷１８號","OBJECTID":245210},"geometry":{"x":169541.19000000041,"y":2543956.3900000006}},{"attributes":{"ID":245215,"DIS_CODE":0,"TOWNNAME":"東區","LI":"成大里","LIN":"24鄰","STREET":"育樂街","SECT":" ","MAREA":" ","LANE":"１１７巷","ALLEY":" ","HOUSE_NO":"１９號","E_COORD97":169547.29999999999,"N_COORD97":2543958.25,"ADDRESS":"育樂街１１７巷１９號","OBJECTID":245211},"geometry":{"x":169547.30000000075,"y":2543958.2500000037}},{"attributes":{"ID":245216,"DIS_CODE":0,"TOWNNAME":"東區","LI":"成大里","LIN":"24鄰","STREET":"育樂街","SECT":" ","MAREA":" ","LANE":"１１７巷","ALLEY":" ","HOUSE_NO":"２０號","E_COORD97":169548.66,"N_COORD97":2543969.4399999999,"ADDRESS":"育樂街１１７巷２０號","OBJECTID":245212},"geometry":{"x":169548.66000000108,"y":2543969.4399999995}},{"attributes":{"ID":245217,"DIS_CODE":0,"TOWNNAME":"新化區","LI":"\u25A0拔里","LIN":"11鄰","STREET":" ","SECT":" ","MAREA":"牧場","LANE":" ","ALLEY":" ","HOUSE_NO":"３７號","E_COORD97":181757.92999999999,"N_COORD97":2551179.25,"ADDRESS":"牧場３７號","OBJECTID":245213},"geometry":{"x":181757.92999999877,"y":2551179.25}},{"attributes":{"ID":245218,"DIS_CODE":0,"TOWNNAME":"東區","LI":"成大里","LIN":"24鄰","STREET":"育樂街","SECT":" ","MAREA":" ","LANE":"１１７巷","ALLEY":" ","HOUSE_NO":"２１號","E_COORD97":169554.42999999999,"N_COORD97":2543969.7400000002,"ADDRESS":"育樂街１１７巷２１號","OBJECTID":245214},"geometry":{"x":169554.43000000156,"y":2543969.7400000021}},{"attributes":{"ID":245219,"DIS_CODE":0,"TOWNNAME":"新化區","LI":"唪口里","LIN":"11鄰","STREET":" ","SECT":" ","MAREA":"唪口","LANE":" ","ALLEY":" ","HOUSE_NO":"１６３號之１１","E_COORD97":177620.42999999999,"N_COORD97":2548828.2599999998,"ADDRESS":"唪口１６３號之１１","OBJECTID":245215},"geometry":{"x":177620.43000000063,"y":2548828.2599999998}},{"attributes":{"ID":245220,"DIS_CODE":0,"TOWNNAME":"新化區","LI":"大坑里","LIN":"11鄰","STREET":" ","SECT":" ","MAREA":"大坑尾","LANE":" ","ALLEY":" ","HOUSE_NO":"２４９號之５","E_COORD97":184577.69,"N_COORD97":2546109.2599999998,"ADDRESS":"大坑尾２４９號之５","OBJECTID":245216},"geometry":{"x":184577.68999999948,"y":2546109.2599999998}},{"attributes":{"ID":245221,"DIS_CODE":0,"TOWNNAME":"東區","LI":"成大里","LIN":"24鄰","STREET":"育樂街","SECT":" ","MAREA":" ","LANE":"１１７巷","ALLEY":" ","HOUSE_NO":"２２號","E_COORD97":169564.26999999999,"N_COORD97":2543971.98,"ADDRESS":"育樂街１１７巷２２號","OBJECTID":245217},"geometry":{"x":169564.27000000048,"y":2543971.9800000023}},{"attributes":{"ID":245222,"DIS_CODE":0,"TOWNNAME":"東區","LI":"成大里","LIN":"24鄰","STREET":"育樂街","SECT":" ","MAREA":" ","LANE":"１１７巷","ALLEY":" ","HOUSE_NO":"２３號","E_COORD97":169554.09,"N_COORD97":2543958.9300000002,"ADDRESS":"育樂街１１７巷２３號","OBJECTID":245218},"geometry":{"x":169554.09000000078,"y":2543958.9299999997}},{"attributes":{"ID":245223,"DIS_CODE":0,"TOWNNAME":"新化區","LI":"唪口里","LIN":"11鄰","STREET":" ","SECT":" ","MAREA":"唪口","LANE":" ","ALLEY":" ","HOUSE_NO":"１６３號","E_COORD97":177613.45000000001,"N_COORD97":2548874.25,"ADDRESS":"唪口１６３號","OBJECTID":245219},"geometry":{"x":177613.45000000019,"y":2548874.2500000037}},{"attributes":{"ID":245224,"DIS_CODE":0,"TOWNNAME":"新化區","LI":"\u25A0拔里","LIN":"11鄰","STREET":" ","SECT":" ","MAREA":"牧場","LANE":" ","ALLEY":" ","HOUSE_NO":"２４號之２","E_COORD97":181575.29000000001,"N_COORD97":2551141.2599999998,"ADDRESS":"牧場２４號之２","OBJECTID":245220},"geometry":{"x":181575.29000000097,"y":2551141.2599999998}},{"attributes":{"ID":245225,"DIS_CODE":0,"TOWNNAME":"東區","LI":"成大里","LIN":"24鄰","STREET":"育樂街","SECT":" ","MAREA":" ","LANE":"１１７巷","ALLEY":" ","HOUSE_NO":"２４號","E_COORD97":169557.32000000001,"N_COORD97":2543960.46,"ADDRESS":"育樂街１１７巷２４號","OBJECTID":245221},"geometry":{"x":169557.31999999937,"y":2543960.4600000009}},{"attributes":{"ID":245226,"DIS_CODE":0,"TOWNNAME":"東區","LI":"成大里","LIN":"24鄰","STREET":"育樂街","SECT":" ","MAREA":" ","LANE":"１１７巷","ALLEY":" ","HOUSE_NO":"３０號","E_COORD97":169589.56,"N_COORD97":2543974.3500000001,"ADDRESS":"育樂街１１７巷３０號","OBJECTID":245222},"geometry":{"x":169589.56000000052,"y":2543974.3500000015}},{"attributes":{"ID":245227,"DIS_CODE":0,"TOWNNAME":"東區","LI":"成大里","LIN":"24鄰","STREET":"育樂街","SECT":" ","MAREA":" ","LANE":"１１７巷","ALLEY":" ","HOUSE_NO":"３號","E_COORD97":169525.16093400001,"N_COORD97":2543970.6512199999,"ADDRESS":"育樂街１１７巷３號","OBJECTID":245223},"geometry":{"x":169525.16093400121,"y":2543970.6512170024}},{"attributes":{"ID":245228,"DIS_CODE":0,"TOWNNAME":"東區","LI":"成大里","LIN":"24鄰","STREET":"育樂街","SECT":" ","MAREA":" ","LANE":"１１７巷","ALLEY":" ","HOUSE_NO":"６號","E_COORD97":169530.48999999999,"N_COORD97":2543978,"ADDRESS":"育樂街１１７巷６號","OBJECTID":245224},"geometry":{"x":169530.49000000022,"y":2543978.0000000019}},{"attributes":{"ID":245229,"DIS_CODE":0,"TOWNNAME":"東區","LI":"成大里","LIN":"24鄰","STREET":"育樂街","SECT":" ","MAREA":" ","LANE":"１１７巷","ALLEY":" ","HOUSE_NO":"７號","E_COORD97":169534.23000000001,"N_COORD97":2543979.1800000002,"ADDRESS":"育樂街１１７巷７號","OBJECTID":245225},"geometry":{"x":169534.23000000045,"y":2543979.1800000016}},{"attributes":{"ID":245230,"DIS_CODE":0,"TOWNNAME":"新化區","LI":"\u25A0拔里","LIN":"11鄰","STREET":" ","SECT":" ","MAREA":"牧場","LANE":" ","ALLEY":" ","HOUSE_NO":"２８號","E_COORD97":181707.03,"N_COORD97":2551153.25,"ADDRESS":"牧場２８號","OBJECTID":245226},"geometry":{"x":181707.03000000212,"y":2551153.2500000019}},{"attributes":{"ID":245231,"DIS_CODE":0,"TOWNNAME":"新化區","LI":"唪口里","LIN":"11鄰","STREET":" ","SECT":" ","MAREA":"唪口","LANE":" ","ALLEY":" ","HOUSE_NO":"１６３號之１５","E_COORD97":177622.76000000001,"N_COORD97":2548812.2599999998,"ADDRESS":"唪口１６３號之１５","OBJECTID":245227},"geometry":{"x":177622.75999999978,"y":2548812.2599999998}},{"attributes":{"ID":245232,"DIS_CODE":0,"TOWNNAME":"東區","LI":"成大里","LIN":"24鄰","STREET":"育樂街","SECT":" ","MAREA":" ","LANE":"１１７巷","ALLEY":" ","HOUSE_NO":"８號","E_COORD97":169538.29999999999,"N_COORD97":2543978.1699999999,"ADDRESS":"育樂街１１７巷８號","OBJECTID":245228},"geometry":{"x":169538.29999999888,"y":2543978.1699999999}},{"attributes":{"ID":245233,"DIS_CODE":0,"TOWNNAME":"新化區","LI":"唪口里","LIN":"11鄰","STREET":" ","SECT":" ","MAREA":"唪口","LANE":" ","ALLEY":" ","HOUSE_NO":"１６２號","E_COORD97":177595.75,"N_COORD97":2548869.25,"ADDRESS":"唪口１６２號","OBJECTID":245229},"geometry":{"x":177595.75,"y":2548869.25}},{"attributes":{"ID":245234,"DIS_CODE":0,"TOWNNAME":"新化區","LI":"\u25A0拔里","LIN":"11鄰","STREET":" ","SECT":" ","MAREA":"牧場","LANE":" ","ALLEY":" ","HOUSE_NO":"４２號","E_COORD97":181814.73000000001,"N_COORD97":2551203.25,"ADDRESS":"牧場４２號","OBJECTID":245230},"geometry":{"x":181814.73000000138,"y":2551203.2500000037}},{"attributes":{"ID":245235,"DIS_CODE":0,"TOWNNAME":"新化區","LI":"大坑里","LIN":"11鄰","STREET":" ","SECT":" ","MAREA":"大坑尾","LANE":" ","ALLEY":" ","HOUSE_NO":"２號之５","E_COORD97":184229.48999999999,"N_COORD97":2546187.2599999998,"ADDRESS":"大坑尾２號之５","OBJECTID":245231},"geometry":{"x":184229.49000000022,"y":2546187.2599999998}},{"attributes":{"ID":245236,"DIS_CODE":0,"TOWNNAME":"新化區","LI":"唪口里","LIN":"11鄰","STREET":" ","SECT":" ","MAREA":"唪口","LANE":" ","ALLEY":" ","HOUSE_NO":"１６３號之９","E_COORD97":177619.09,"N_COORD97":2548837.2599999998,"ADDRESS":"唪口１６３號之９","OBJECTID":245232},"geometry":{"x":177619.09000000171,"y":2548837.2600000016}},{"attributes":{"ID":245237,"DIS_CODE":0,"TOWNNAME":"新化區","LI":"崙頂里","LIN":"11鄰","STREET":" ","SECT":" ","MAREA":"崙子頂","LANE":" ","ALLEY":" ","HOUSE_NO":"３９５號之２","E_COORD97":176946.98000000001,"N_COORD97":2546901.2599999998,"ADDRESS":"崙子頂３９５號之２","OBJECTID":245233},"geometry":{"x":176946.98000000045,"y":2546901.2600000016}},{"attributes":{"ID":245238,"DIS_CODE":0,"TOWNNAME":"東區","LI":"成大里","LIN":"24鄰","STREET":"育樂街","SECT":" ","MAREA":" ","LANE":"１１７巷","ALLEY":" ","HOUSE_NO":"９號","E_COORD97":169544.75,"N_COORD97":2543978.6699999999,"ADDRESS":"育樂街１１７巷９號","OBJECTID":245234},"geometry":{"x":169544.75000000093,"y":2543978.6699999981}},{"attributes":{"ID":245239,"DIS_CODE":0,"TOWNNAME":"新化區","LI":"唪口里","LIN":"11鄰","STREET":" ","SECT":" ","MAREA":"唪口","LANE":" ","ALLEY":" ","HOUSE_NO":"１７２號之３","E_COORD97":177685.29000000001,"N_COORD97":2548955.2599999998,"ADDRESS":"唪口１７２號之３","OBJECTID":245235},"geometry":{"x":177685.29000000004,"y":2548955.2600000035}},{"attributes":{"ID":245240,"DIS_CODE":0,"TOWNNAME":"東區","LI":"大福里","LIN":"24鄰","STREET":"中華東路","SECT":"三段","MAREA":" ","LANE":"６１８巷","ALLEY":" ","HOUSE_NO":"１８號","E_COORD97":169527.42000000001,"N_COORD97":2541534.54,"ADDRESS":"中華東路三段６１８巷１８號","OBJECTID":245236},"geometry":{"x":169527.41999999899,"y":2541534.5400000028}},{"attributes":{"ID":245241,"DIS_CODE":0,"TOWNNAME":"東區","LI":"大福里","LIN":"24鄰","STREET":"中華東路","SECT":"三段","MAREA":" ","LANE":"６１８巷","ALLEY":" ","HOUSE_NO":"１９號","E_COORD97":169522.85000000001,"N_COORD97":2541533.27,"ADDRESS":"中華東路三段６１８巷１９號","OBJECTID":245237},"geometry":{"x":169522.85000000056,"y":2541533.2700000033}},{"attributes":{"ID":245242,"DIS_CODE":0,"TOWNNAME":"東區","LI":"大福里","LIN":"24鄰","STREET":"中華東路","SECT":"三段","MAREA":" ","LANE":"６１８巷","ALLEY":" ","HOUSE_NO":"２０號","E_COORD97":169518.03,"N_COORD97":2541528.96,"ADDRESS":"中華東路三段６１８巷２０號","OBJECTID":245238},"geometry":{"x":169518.03000000026,"y":2541528.9600000009}},{"attributes":{"ID":245243,"DIS_CODE":0,"TOWNNAME":"東區","LI":"大福里","LIN":"24鄰","STREET":"中華東路","SECT":"三段","MAREA":" ","LANE":"６１８巷","ALLEY":" ","HOUSE_NO":"２１號","E_COORD97":169518.03,"N_COORD97":2541534.29,"ADDRESS":"中華東路三段６１８巷２１號","OBJECTID":245239},"geometry":{"x":169518.03000000026,"y":2541534.290000001}},{"attributes":{"ID":245244,"DIS_CODE":0,"TOWNNAME":"東區","LI":"大福里","LIN":"24鄰","STREET":"中華東路","SECT":"三段","MAREA":" ","LANE":"６１８巷","ALLEY":" ","HOUSE_NO":"８號","E_COORD97":169534.28,"N_COORD97":2541506.6400000001,"ADDRESS":"中華東路三段６１８巷８號","OBJECTID":245240},"geometry":{"x":169534.28000000119,"y":2541506.6400000006}},{"attributes":{"ID":245245,"DIS_CODE":0,"TOWNNAME":"北門區","LI":"仁里里","LIN":"4鄰","STREET":" ","SECT":" ","MAREA":"二重港","LANE":" ","ALLEY":" ","HOUSE_NO":"７１號","E_COORD97":161841.95999999999,"N_COORD97":2571172.1099999999,"ADDRESS":"二重港７１號","OBJECTID":245241},"geometry":{"x":161841.96000000089,"y":2571172.1099999994}},{"attributes":{"ID":245246,"DIS_CODE":0,"TOWNNAME":"東區","LI":"大福里","LIN":"24鄰","STREET":"中華東路","SECT":"三段","MAREA":" ","LANE":"６１８巷","ALLEY":" ","HOUSE_NO":"９號","E_COORD97":169525.39000000001,"N_COORD97":2541504.3599999999,"ADDRESS":"中華東路三段６１８巷９號","OBJECTID":245242},"geometry":{"x":169525.38999999966,"y":2541504.3599999994}},{"attributes":{"ID":245247,"DIS_CODE":0,"TOWNNAME":"永康區","LI":"西灣里","LIN":"24鄰","STREET":"國光八街","SECT":" ","MAREA":" ","LANE":"１１巷","ALLEY":" ","HOUSE_NO":"１號","E_COORD97":174418.34,"N_COORD97":2545732.4900000002,"ADDRESS":"國光八街１１巷１號","OBJECTID":245243},"geometry":{"x":174418.33999999985,"y":2545732.4900000002}},{"attributes":{"ID":245248,"DIS_CODE":0,"TOWNNAME":"永康區","LI":"尚頂里","LIN":"24鄰","STREET":"南台街","SECT":" ","MAREA":" ","LANE":"５４巷","ALLEY":" ","HOUSE_NO":"４９號","E_COORD97":170301.91,"N_COORD97":2547145.2799999998,"ADDRESS":"南台街５４巷４９號","OBJECTID":245244},"geometry":{"x":170301.91000000015,"y":2547145.2800000012}},{"attributes":{"ID":245249,"DIS_CODE":0,"TOWNNAME":"新化區","LI":"崙頂里","LIN":"11鄰","STREET":" ","SECT":" ","MAREA":"崙子頂","LANE":" ","ALLEY":" ","HOUSE_NO":"３８２號","E_COORD97":176898.13,"N_COORD97":2546832.25,"ADDRESS":"崙子頂３８２號","OBJECTID":245245},"geometry":{"x":176898.12999999989,"y":2546832.25}},{"attributes":{"ID":245250,"DIS_CODE":0,"TOWNNAME":"新化區","LI":"\u25A0拔里","LIN":"11鄰","STREET":" ","SECT":" ","MAREA":"牧場","LANE":" ","ALLEY":" ","HOUSE_NO":"１３號之２","E_COORD97":181543.89000000001,"N_COORD97":2551113.2599999998,"ADDRESS":"牧場１３號之２","OBJECTID":245246},"geometry":{"x":181543.88999999966,"y":2551113.2599999998}},{"attributes":{"ID":245251,"DIS_CODE":0,"TOWNNAME":"永康區","LI":"西灣里","LIN":"24鄰","STREET":"國光七街","SECT":" ","MAREA":" ","LANE":"６巷","ALLEY":" ","HOUSE_NO":"３４號","E_COORD97":174395.14000000001,"N_COORD97":2545652.7000000002,"ADDRESS":"國光七街６巷３４號","OBJECTID":245247},"geometry":{"x":174395.1400000006,"y":2545652.6999999974}},{"attributes":{"ID":245252,"DIS_CODE":0,"TOWNNAME":"新化區","LI":"全興里","LIN":"11鄰","STREET":" ","SECT":" ","MAREA":"竹子\u25A0","LANE":" ","ALLEY":" ","HOUSE_NO":"２３７號之１","E_COORD97":177983.26000000001,"N_COORD97":2546918.2599999998,"ADDRESS":"竹子\u25A0２３７號之１","OBJECTID":245248},"geometry":{"x":177983.25999999978,"y":2546918.2600000016}},{"attributes":{"ID":245253,"DIS_CODE":0,"TOWNNAME":"永康區","LI":"西灣里","LIN":"24鄰","STREET":"國光七街","SECT":" ","MAREA":" ","LANE":"６巷","ALLEY":" ","HOUSE_NO":"２４號","E_COORD97":174389.81,"N_COORD97":2545633.2000000002,"ADDRESS":"國光七街６巷２４號","OBJECTID":245249},"geometry":{"x":174389.81000000145,"y":2545633.2000000011}},{"attributes":{"ID":245254,"DIS_CODE":0,"TOWNNAME":"永康區","LI":"西灣里","LIN":"24鄰","STREET":"國光八街","SECT":" ","MAREA":" ","LANE":"１１巷","ALLEY":" ","HOUSE_NO":"１１號","E_COORD97":174411.5,"N_COORD97":2545703.5,"ADDRESS":"國光八街１１巷１１號","OBJECTID":245250},"geometry":{"x":174411.50000000093,"y":2545703.5000000019}},{"attributes":{"ID":245255,"DIS_CODE":0,"TOWNNAME":"新化區","LI":"崙頂里","LIN":"11鄰","STREET":" ","SECT":" ","MAREA":"崙子頂","LANE":" ","ALLEY":" ","HOUSE_NO":"３９３號之１","E_COORD97":176952.16,"N_COORD97":2546860.2599999998,"ADDRESS":"崙子頂３９３號之１","OBJECTID":245251},"geometry":{"x":176952.16000000015,"y":2546860.2600000035}},{"attributes":{"ID":245256,"DIS_CODE":0,"TOWNNAME":"新化區","LI":"大坑里","LIN":"11鄰","STREET":" ","SECT":" ","MAREA":"大坑尾","LANE":" ","ALLEY":" ","HOUSE_NO":"２４６號之８","E_COORD97":184920.79000000001,"N_COORD97":2545986.2599999998,"ADDRESS":"大坑尾２４６號之８","OBJECTID":245252},"geometry":{"x":184920.7900000019,"y":2545986.2600000016}},{"attributes":{"ID":245257,"DIS_CODE":0,"TOWNNAME":"新化區","LI":"崙頂里","LIN":"11鄰","STREET":" ","SECT":" ","MAREA":"崙子頂","LANE":" ","ALLEY":" ","HOUSE_NO":"４２１號之３","E_COORD97":177046.57999999999,"N_COORD97":2547001.2599999998,"ADDRESS":"崙子頂４２１號之３","OBJECTID":245253},"geometry":{"x":177046.58000000194,"y":2547001.2599999998}},{"attributes":{"ID":245258,"DIS_CODE":0,"TOWNNAME":"新化區","LI":"大坑里","LIN":"11鄰","STREET":" ","SECT":" ","MAREA":"大坑尾","LANE":" ","ALLEY":" ","HOUSE_NO":"２４６號之５","E_COORD97":184971.39000000001,"N_COORD97":2545919.2599999998,"ADDRESS":"大坑尾２４６號之５","OBJECTID":245254},"geometry":{"x":184971.3900000006,"y":2545919.2599999998}},{"attributes":{"ID":245259,"DIS_CODE":0,"TOWNNAME":"新化區","LI":"崙頂里","LIN":"11鄰","STREET":" ","SECT":" ","MAREA":"崙子頂","LANE":" ","ALLEY":" ","HOUSE_NO":"３７９號之４","E_COORD97":176881.95999999999,"N_COORD97":2546831.2599999998,"ADDRESS":"崙子頂３７９號之４","OBJECTID":245255},"geometry":{"x":176881.95999999996,"y":2546831.2599999998}},{"attributes":{"ID":245260,"DIS_CODE":0,"TOWNNAME":"新化區","LI":"知義里","LIN":"11鄰","STREET":"中興路","SECT":" ","MAREA":" ","LANE":"８１巷","ALLEY":" ","HOUSE_NO":"８號","E_COORD97":181827.16,"N_COORD97":2547244.25,"ADDRESS":"中興路８１巷８號","OBJECTID":245256},"geometry":{"x":181827.16000000108,"y":2547244.2500000019}},{"attributes":{"ID":245261,"DIS_CODE":0,"TOWNNAME":"新化區","LI":"崙頂里","LIN":"11鄰","STREET":" ","SECT":" ","MAREA":"崙子頂","LANE":" ","ALLEY":" ","HOUSE_NO":"３７９號","E_COORD97":176863.13,"N_COORD97":2546830.25,"ADDRESS":"崙子頂３７９號","OBJECTID":245257},"geometry":{"x":176863.13000000082,"y":2546830.2500000019}},{"attributes":{"ID":245262,"DIS_CODE":0,"TOWNNAME":"新化區","LI":"山\u25A0里","LIN":"11鄰","STREET":" ","SECT":" ","MAREA":"五甲勢","LANE":" ","ALLEY":" ","HOUSE_NO":"６８號","E_COORD97":181886.17999999999,"N_COORD97":2545510.2599999998,"ADDRESS":"五甲勢６８號","OBJECTID":245258},"geometry":{"x":181886.1799999997,"y":2545510.2599999998}},{"attributes":{"ID":245263,"DIS_CODE":0,"TOWNNAME":"新化區","LI":"崙頂里","LIN":"11鄰","STREET":" ","SECT":" ","MAREA":"崙子頂","LANE":" ","ALLEY":" ","HOUSE_NO":"３７９號之２","E_COORD97":176874.07999999999,"N_COORD97":2546831.2599999998,"ADDRESS":"崙子頂３７９號之２","OBJECTID":245259},"geometry":{"x":176874.08000000101,"y":2546831.2599999998}},{"attributes":{"ID":245264,"DIS_CODE":0,"TOWNNAME":"永康區","LI":"西灣里","LIN":"24鄰","STREET":"國光七街","SECT":" ","MAREA":" ","LANE":"６巷","ALLEY":" ","HOUSE_NO":"８號之１２","E_COORD97":174381.79000000001,"N_COORD97":2545597.5,"ADDRESS":"國光七街６巷８號之１２","OBJECTID":245260},"geometry":{"x":174381.78999999911,"y":2545597.5000000037}},{"attributes":{"ID":245265,"DIS_CODE":0,"TOWNNAME":"永康區","LI":"西灣里","LIN":"24鄰","STREET":"國光七街","SECT":" ","MAREA":" ","LANE":"６巷","ALLEY":" ","HOUSE_NO":"８號之３","E_COORD97":174370.69,"N_COORD97":2545561.7400000002,"ADDRESS":"國光七街６巷８號之３","OBJECTID":245261},"geometry":{"x":174370.69000000041,"y":2545561.7400000002}},{"attributes":{"ID":245266,"DIS_CODE":0,"TOWNNAME":"新化區","LI":"崙頂里","LIN":"11鄰","STREET":" ","SECT":" ","MAREA":"崙子頂","LANE":" ","ALLEY":" ","HOUSE_NO":"４０９號之２","E_COORD97":177004.28,"N_COORD97":2546884.2599999998,"ADDRESS":"崙子頂４０９號之２","OBJECTID":245262},"geometry":{"x":177004.28000000026,"y":2546884.2600000016}},{"attributes":{"ID":245267,"DIS_CODE":0,"TOWNNAME":"新化區","LI":"大坑里","LIN":"11鄰","STREET":" ","SECT":" ","MAREA":"大坑尾","LANE":" ","ALLEY":" ","HOUSE_NO":"２５１號","E_COORD97":184444.42999999999,"N_COORD97":2546364.25,"ADDRESS":"大坑尾２５１號","OBJECTID":245263},"geometry":{"x":184444.4299999997,"y":2546364.25}},{"attributes":{"ID":245268,"DIS_CODE":0,"TOWNNAME":"新化區","LI":"\u25A0拔里","LIN":"11鄰","STREET":" ","SECT":" ","MAREA":"牧場","LANE":" ","ALLEY":" ","HOUSE_NO":"１９號","E_COORD97":181690.32999999999,"N_COORD97":2551125.25,"ADDRESS":"牧場１９號","OBJECTID":245264},"geometry":{"x":181690.33000000101,"y":2551125.2499999981}},{"attributes":{"ID":245269,"DIS_CODE":0,"TOWNNAME":"新化區","LI":"崙頂里","LIN":"11鄰","STREET":" ","SECT":" ","MAREA":"崙子頂","LANE":" ","ALLEY":" ","HOUSE_NO":"３９０號之１","E_COORD97":176918.16,"N_COORD97":2546840.2599999998,"ADDRESS":"崙子頂３９０號之１","OBJECTID":245265},"geometry":{"x":176918.16000000015,"y":2546840.2600000016}},{"attributes":{"ID":245270,"DIS_CODE":0,"TOWNNAME":"新化區","LI":"崙頂里","LIN":"11鄰","STREET":" ","SECT":" ","MAREA":"崙子頂","LANE":" ","ALLEY":" ","HOUSE_NO":"４１８號","E_COORD97":177004.13,"N_COORD97":2546937.25,"ADDRESS":"崙子頂４１８號","OBJECTID":245266},"geometry":{"x":177004.13000000082,"y":2546937.25}},{"attributes":{"ID":245271,"DIS_CODE":0,"TOWNNAME":"新化區","LI":"大坑里","LIN":"11鄰","STREET":" ","SECT":" ","MAREA":"大坑尾","LANE":" ","ALLEY":" ","HOUSE_NO":"２６６號之２","E_COORD97":184171.75991399999,"N_COORD97":2546501.58904,"ADDRESS":"大坑尾２６６號之２","OBJECTID":245267},"geometry":{"x":184171.75991400052,"y":2546501.5890410021}},{"attributes":{"ID":245272,"DIS_CODE":0,"TOWNNAME":"永康區","LI":"西灣里","LIN":"24鄰","STREET":"國光八街","SECT":" ","MAREA":" ","LANE":"１１巷","ALLEY":" ","HOUSE_NO":"１９號","E_COORD97":174408.22,"N_COORD97":2545682.6099999999,"ADDRESS":"國光八街１１巷１９號","OBJECTID":245268},"geometry":{"x":174408.22000000067,"y":2545682.6099999994}},{"attributes":{"ID":245273,"DIS_CODE":0,"TOWNNAME":"永康區","LI":"西灣里","LIN":"24鄰","STREET":"國光八街","SECT":" ","MAREA":" ","LANE":"１１巷","ALLEY":" ","HOUSE_NO":"１５號","E_COORD97":174409.29999999999,"N_COORD97":2545695,"ADDRESS":"國光八街１１巷１５號","OBJECTID":245269},"geometry":{"x":174409.30000000075,"y":2545695}},{"attributes":{"ID":245274,"DIS_CODE":0,"TOWNNAME":"東區","LI":"崇信里","LIN":"14鄰","STREET":"崇學路","SECT":" ","MAREA":" ","LANE":" ","ALLEY":" ","HOUSE_NO":"１８６號七樓","E_COORD97":170572.23999999999,"N_COORD97":2542475.04,"ADDRESS":"崇學路１８６號七樓","OBJECTID":245270},"geometry":{"x":170572.24000000115,"y":2542475.040000001}},{"attributes":{"ID":245275,"DIS_CODE":0,"TOWNNAME":"新化區","LI":"崙頂里","LIN":"11鄰","STREET":" ","SECT":" ","MAREA":"崙子頂","LANE":" ","ALLEY":" ","HOUSE_NO":"４０６號","E_COORD97":176977.92999999999,"N_COORD97":2546839.25,"ADDRESS":"崙子頂４０６號","OBJECTID":245271},"geometry":{"x":176977.93000000063,"y":2546839.25}},{"attributes":{"ID":245276,"DIS_CODE":0,"TOWNNAME":"永康區","LI":"西灣里","LIN":"24鄰","STREET":"國光七街","SECT":" ","MAREA":" ","LANE":"６巷","ALLEY":" ","HOUSE_NO":"１６號","E_COORD97":174385.42999999999,"N_COORD97":2545616.96,"ADDRESS":"國光七街６巷１６號","OBJECTID":245272},"geometry":{"x":174385.4299999997,"y":2545616.9600000028}},{"attributes":{"ID":245277,"DIS_CODE":0,"TOWNNAME":"新化區","LI":"大坑里","LIN":"11鄰","STREET":" ","SECT":" ","MAREA":"大坑尾","LANE":" ","ALLEY":" ","HOUSE_NO":"２４９號","E_COORD97":184614.73000000001,"N_COORD97":2546087.25,"ADDRESS":"大坑尾２４９號","OBJECTID":245273},"geometry":{"x":184614.73000000045,"y":2546087.2500000037}},{"attributes":{"ID":245278,"DIS_CODE":0,"TOWNNAME":"永康區","LI":"西灣里","LIN":"24鄰","STREET":"國光七街","SECT":" ","MAREA":" ","LANE":"６巷","ALLEY":" ","HOUSE_NO":"３６號","E_COORD97":174396.19,"N_COORD97":2545656.7000000002,"ADDRESS":"國光七街６巷３６號","OBJECTID":245274},"geometry":{"x":174396.19000000041,"y":2545656.7000000011}},{"attributes":{"ID":245279,"DIS_CODE":0,"TOWNNAME":"新化區","LI":"唪口里","LIN":"11鄰","STREET":" ","SECT":" ","MAREA":"唪口","LANE":" ","ALLEY":" ","HOUSE_NO":"１７２號之５","E_COORD97":177686.31,"N_COORD97":2548943.2599999998,"ADDRESS":"唪口１７２號之５","OBJECTID":245275},"geometry":{"x":177686.30999999959,"y":2548943.2600000016}},{"attributes":{"ID":245280,"DIS_CODE":0,"TOWNNAME":"佳里區","LI":"建南里","LIN":"24鄰","STREET":"成功路","SECT":" ","MAREA":" ","LANE":"２１３巷","ALLEY":" ","HOUSE_NO":"１０號","E_COORD97":165410.10000000001,"N_COORD97":2561106.48,"ADDRESS":"成功路２１３巷１０號","OBJECTID":245276},"geometry":{"x":165410.10000000149,"y":2561106.4800000023}},{"attributes":{"ID":245281,"DIS_CODE":0,"TOWNNAME":"新化區","LI":"唪口里","LIN":"11鄰","STREET":" ","SECT":" ","MAREA":"唪口","LANE":" ","ALLEY":" ","HOUSE_NO":"１６３號之１４","E_COORD97":177622.23000000001,"N_COORD97":2548816.2599999998,"ADDRESS":"唪口１６３號之１４","OBJECTID":245277},"geometry":{"x":177622.23000000231,"y":2548816.2600000035}},{"attributes":{"ID":245282,"DIS_CODE":0,"TOWNNAME":"新化區","LI":"唪口里","LIN":"11鄰","STREET":" ","SECT":" ","MAREA":"唪口","LANE":" ","ALLEY":" ","HOUSE_NO":"１７２號之６","E_COORD97":177686.39999999999,"N_COORD97":2548938.2599999998,"ADDRESS":"唪口１７２號之６","OBJECTID":245278},"geometry":{"x":177686.40000000037,"y":2548938.2600000035}},{"attributes":{"ID":245283,"DIS_CODE":0,"TOWNNAME":"佳里區","LI":"建南里","LIN":"24鄰","STREET":"成功路","SECT":" ","MAREA":" ","LANE":"２１３巷","ALLEY":" ","HOUSE_NO":"１２號","E_COORD97":165414.59,"N_COORD97":2561105.7400000002,"ADDRESS":"成功路２１３巷１２號","OBJECTID":245279},"geometry":{"x":165414.59000000078,"y":2561105.7400000002}},{"attributes":{"ID":245284,"DIS_CODE":0,"TOWNNAME":"新化區","LI":"唪口里","LIN":"11鄰","STREET":" ","SECT":" ","MAREA":"唪口","LANE":" ","ALLEY":" ","HOUSE_NO":"１６３號之６","E_COORD97":177617.39999999999,"N_COORD97":2548849.2599999998,"ADDRESS":"唪口１６３號之６","OBJECTID":245280},"geometry":{"x":177617.40000000037,"y":2548849.2599999998}},{"attributes":{"ID":245285,"DIS_CODE":0,"TOWNNAME":"佳里區","LI":"建南里","LIN":"24鄰","STREET":"成功路","SECT":" ","MAREA":" ","LANE":"２１３巷","ALLEY":" ","HOUSE_NO":"１６號","E_COORD97":165419.32999999999,"N_COORD97":2561105.2599999998,"ADDRESS":"成功路２１３巷１６號","OBJECTID":245281},"geometry":{"x":165419.33000000101,"y":2561105.2599999998}},{"attributes":{"ID":245286,"DIS_CODE":0,"TOWNNAME":"佳里區","LI":"建南里","LIN":"24鄰","STREET":"成功路","SECT":" ","MAREA":" ","LANE":"２１３巷","ALLEY":" ","HOUSE_NO":"１８號","E_COORD97":165423.42000000001,"N_COORD97":2561104.9500000002,"ADDRESS":"成功路２１３巷１８號","OBJECTID":245282},"geometry":{"x":165423.42000000179,"y":2561104.9500000011}},{"attributes":{"ID":245287,"DIS_CODE":0,"TOWNNAME":"新化區","LI":"全興里","LIN":"11鄰","STREET":" ","SECT":" ","MAREA":"竹子\u25A0","LANE":" ","ALLEY":" ","HOUSE_NO":"２０９號","E_COORD97":177700.42999999999,"N_COORD97":2547448.25,"ADDRESS":"竹子\u25A0２０９號","OBJECTID":245283},"geometry":{"x":177700.43000000063,"y":2547448.2500000019}},{"attributes":{"ID":245288,"DIS_CODE":0,"TOWNNAME":"佳里區","LI":"建南里","LIN":"24鄰","STREET":"成功路","SECT":" ","MAREA":" ","LANE":"２１３巷","ALLEY":" ","HOUSE_NO":"２０號","E_COORD97":165428.64999999999,"N_COORD97":2561104.1600000001,"ADDRESS":"成功路２１３巷２０號","OBJECTID":245284},"geometry":{"x":165428.65000000037,"y":2561104.1600000039}},{"attributes":{"ID":245289,"DIS_CODE":0,"TOWNNAME":"新化區","LI":"唪口里","LIN":"11鄰","STREET":" ","SECT":" ","MAREA":"唪口","LANE":" ","ALLEY":" ","HOUSE_NO":"１７２號之１０","E_COORD97":177697.73999999999,"N_COORD97":2548958.2599999998,"ADDRESS":"唪口１７２號之１０","OBJECTID":245285},"geometry":{"x":177697.74000000022,"y":2548958.2599999998}},{"attributes":{"ID":245290,"DIS_CODE":0,"TOWNNAME":"佳里區","LI":"建南里","LIN":"24鄰","STREET":"成功路","SECT":" ","MAREA":" ","LANE":"２１３巷","ALLEY":" ","HOUSE_NO":"２２號","E_COORD97":165433.01999999999,"N_COORD97":2561103.52,"ADDRESS":"成功路２１３巷２２號","OBJECTID":245286},"geometry":{"x":165433.02000000048,"y":2561103.5199999996}},{"attributes":{"ID":245291,"DIS_CODE":0,"TOWNNAME":"佳里區","LI":"建南里","LIN":"24鄰","STREET":"成功路","SECT":" ","MAREA":" ","LANE":"２１３巷","ALLEY":" ","HOUSE_NO":"２６號","E_COORD97":165438.04999999999,"N_COORD97":2561103.0299999998,"ADDRESS":"成功路２１３巷２６號","OBJECTID":245287},"geometry":{"x":165438.05000000075,"y":2561103.0299999993}},{"attributes":{"ID":245292,"DIS_CODE":0,"TOWNNAME":"佳里區","LI":"建南里","LIN":"24鄰","STREET":"成功路","SECT":" ","MAREA":" ","LANE":"２１３巷","ALLEY":" ","HOUSE_NO":"２８號","E_COORD97":165442.85000000001,"N_COORD97":2561102.4399999999,"ADDRESS":"成功路２１３巷２８號","OBJECTID":245288},"geometry":{"x":165442.85000000056,"y":2561102.4400000013}},{"attributes":{"ID":245293,"DIS_CODE":0,"TOWNNAME":"新化區","LI":"唪口里","LIN":"11鄰","STREET":" ","SECT":" ","MAREA":"唪口","LANE":" ","ALLEY":" ","HOUSE_NO":"１７２號","E_COORD97":177683.75,"N_COORD97":2548977.25,"ADDRESS":"唪口１７２號","OBJECTID":245289},"geometry":{"x":177683.75,"y":2548977.2500000019}},{"attributes":{"ID":245294,"DIS_CODE":0,"TOWNNAME":"佳里區","LI":"建南里","LIN":"24鄰","STREET":"成功路","SECT":" ","MAREA":" ","LANE":"２１３巷","ALLEY":" ","HOUSE_NO":"２號之１","E_COORD97":165392.07999999999,"N_COORD97":2561109.3399999999,"ADDRESS":"成功路２１３巷２號之１","OBJECTID":245290},"geometry":{"x":165392.08000000194,"y":2561109.3400000036}},{"attributes":{"ID":245295,"DIS_CODE":0,"TOWNNAME":"佳里區","LI":"建南里","LIN":"24鄰","STREET":"成功路","SECT":" ","MAREA":" ","LANE":"２１３巷","ALLEY":" ","HOUSE_NO":"２號","E_COORD97":165387.54999999999,"N_COORD97":2561109.7799999998,"ADDRESS":"成功路２１３巷２號","OBJECTID":245291},"geometry":{"x":165387.55000000075,"y":2561109.7800000012}},{"attributes":{"ID":245296,"DIS_CODE":0,"TOWNNAME":"新化區","LI":"唪口里","LIN":"11鄰","STREET":" ","SECT":" ","MAREA":"唪口","LANE":" ","ALLEY":" ","HOUSE_NO":"１７１號之２","E_COORD97":177663.70000000001,"N_COORD97":2548969.2599999998,"ADDRESS":"唪口１７１號之２","OBJECTID":245292},"geometry":{"x":177663.70000000019,"y":2548969.2600000016}},{"attributes":{"ID":245297,"DIS_CODE":0,"TOWNNAME":"佳里區","LI":"建南里","LIN":"24鄰","STREET":"成功路","SECT":" ","MAREA":" ","LANE":"２１３巷","ALLEY":" ","HOUSE_NO":"６號之１","E_COORD97":165400.53,"N_COORD97":2561107.7599999998,"ADDRESS":"成功路２１３巷６號之１","OBJECTID":245293},"geometry":{"x":165400.53000000026,"y":2561107.7600000016}},{"attributes":{"ID":245298,"DIS_CODE":0,"TOWNNAME":"佳里區","LI":"建南里","LIN":"24鄰","STREET":"成功路","SECT":" ","MAREA":" ","LANE":"２１３巷","ALLEY":" ","HOUSE_NO":"６號","E_COORD97":165396.59,"N_COORD97":2561108.1899999999,"ADDRESS":"成功路２１３巷６號","OBJECTID":245294},"geometry":{"x":165396.58999999985,"y":2561108.1900000013}},{"attributes":{"ID":245299,"DIS_CODE":0,"TOWNNAME":"佳里區","LI":"建南里","LIN":"24鄰","STREET":"成功路","SECT":" ","MAREA":" ","LANE":"２３１巷","ALLEY":" ","HOUSE_NO":"１０號","E_COORD97":165385.81,"N_COORD97":2561058.7400000002,"ADDRESS":"成功路２３１巷１０號","OBJECTID":245295},"geometry":{"x":165385.80999999959,"y":2561058.7400000002}},{"attributes":{"ID":245300,"DIS_CODE":0,"TOWNNAME":"新化區","LI":"武安里","LIN":"11鄰","STREET":"信義路","SECT":" ","MAREA":" ","LANE":"３３９巷","ALLEY":" ","HOUSE_NO":"２５號","E_COORD97":178870.98000000001,"N_COORD97":2548219.25,"ADDRESS":"信義路３３９巷２５號","OBJECTID":245296},"geometry":{"x":178870.98000000045,"y":2548219.25}},{"attributes":{"ID":245301,"DIS_CODE":0,"TOWNNAME":"新化區","LI":"唪口里","LIN":"11鄰","STREET":" ","SECT":" ","MAREA":"唪口","LANE":" ","ALLEY":" ","HOUSE_NO":"１６８號","E_COORD97":177617.45000000001,"N_COORD97":2548942.25,"ADDRESS":"唪口１６８號","OBJECTID":245297},"geometry":{"x":177617.45000000112,"y":2548942.2500000037}},{"attributes":{"ID":245302,"DIS_CODE":0,"TOWNNAME":"佳里區","LI":"建南里","LIN":"24鄰","STREET":"成功路","SECT":" ","MAREA":" ","LANE":"２３１巷","ALLEY":" ","HOUSE_NO":"１１號","E_COORD97":165401.72,"N_COORD97":2561075.29,"ADDRESS":"成功路２３１巷１１號","OBJECTID":245298},"geometry":{"x":165401.72000000067,"y":2561075.290000001}},{"attributes":{"ID":245303,"DIS_CODE":0,"TOWNNAME":"佳里區","LI":"建南里","LIN":"24鄰","STREET":"成功路","SECT":" ","MAREA":" ","LANE":"２３１巷","ALLEY":" ","HOUSE_NO":"１２號","E_COORD97":165390.51000000001,"N_COORD97":2561058.0800000001,"ADDRESS":"成功路２３１巷１２號","OBJECTID":245299},"geometry":{"x":165390.51000000164,"y":2561058.0800000019}},{"attributes":{"ID":245304,"DIS_CODE":0,"TOWNNAME":"佳里區","LI":"建南里","LIN":"24鄰","STREET":"成功路","SECT":" ","MAREA":" ","LANE":"２３１巷","ALLEY":" ","HOUSE_NO":"１３號","E_COORD97":165405.95000000001,"N_COORD97":2561074.52,"ADDRESS":"成功路２３１巷１３號","OBJECTID":245300},"geometry":{"x":165405.95000000019,"y":2561074.5200000014}},{"attributes":{"ID":245305,"DIS_CODE":0,"TOWNNAME":"新化區","LI":"崙頂里","LIN":"11鄰","STREET":" ","SECT":" ","MAREA":"崙子頂","LANE":" ","ALLEY":" ","HOUSE_NO":"３７９號之１","E_COORD97":176868.45999999999,"N_COORD97":2546830.2599999998,"ADDRESS":"崙子頂３７９號之１","OBJECTID":245301},"geometry":{"x":176868.45999999996,"y":2546830.2600000016}},{"attributes":{"ID":245306,"DIS_CODE":0,"TOWNNAME":"佳里區","LI":"建南里","LIN":"24鄰","STREET":"成功路","SECT":" ","MAREA":" ","LANE":"２３１巷","ALLEY":" ","HOUSE_NO":"１５號","E_COORD97":165410.70000000001,"N_COORD97":2561073.6099999999,"ADDRESS":"成功路２３１巷１５號","OBJECTID":245302},"geometry":{"x":165410.70000000112,"y":2561073.6100000013}},{"attributes":{"ID":245307,"DIS_CODE":0,"TOWNNAME":"新化區","LI":"大坑里","LIN":"11鄰","STREET":" ","SECT":" ","MAREA":"大坑尾","LANE":" ","ALLEY":" ","HOUSE_NO":"２４９號之４","E_COORD97":184587.76000000001,"N_COORD97":2546104.2599999998,"ADDRESS":"大坑尾２４９號之４","OBJECTID":245303},"geometry":{"x":184587.75999999978,"y":2546104.2600000016}},{"attributes":{"ID":245308,"DIS_CODE":0,"TOWNNAME":"佳里區","LI":"建南里","LIN":"24鄰","STREET":"成功路","SECT":" ","MAREA":" ","LANE":"２３１巷","ALLEY":" ","HOUSE_NO":"１６號","E_COORD97":165395.20000000001,"N_COORD97":2561057.4100000001,"ADDRESS":"成功路２３１巷１６號","OBJECTID":245304},"geometry":{"x":165395.20000000112,"y":2561057.4100000001}},{"attributes":{"ID":245309,"DIS_CODE":0,"TOWNNAME":"佳里區","LI":"建南里","LIN":"24鄰","STREET":"成功路","SECT":" ","MAREA":" ","LANE":"２３１巷","ALLEY":" ","HOUSE_NO":"１７號","E_COORD97":165414.95999999999,"N_COORD97":2561072.9199999999,"ADDRESS":"成功路２３１巷１７號","OBJECTID":245305},"geometry":{"x":165414.96000000089,"y":2561072.9200000018}},{"attributes":{"ID":245310,"DIS_CODE":0,"TOWNNAME":"新化區","LI":"大坑里","LIN":"11鄰","STREET":" ","SECT":" ","MAREA":"大坑尾","LANE":" ","ALLEY":" ","HOUSE_NO":"１７號","E_COORD97":184610.88,"N_COORD97":2545906.25,"ADDRESS":"大坑尾１７號","OBJECTID":245306},"geometry":{"x":184610.87999999989,"y":2545906.25}},{"attributes":{"ID":245311,"DIS_CODE":0,"TOWNNAME":"佳里區","LI":"建南里","LIN":"24鄰","STREET":"成功路","SECT":" ","MAREA":" ","LANE":"２３１巷","ALLEY":" ","HOUSE_NO":"１８號","E_COORD97":165399.89000000001,"N_COORD97":2561056.75,"ADDRESS":"成功路２３１巷１８號","OBJECTID":245307},"geometry":{"x":165399.8900000006,"y":2561056.7500000019}},{"attributes":{"ID":245312,"DIS_CODE":0,"TOWNNAME":"佳里區","LI":"建南里","LIN":"24鄰","STREET":"成功路","SECT":" ","MAREA":" ","LANE":"２３１巷","ALLEY":" ","HOUSE_NO":"１９號","E_COORD97":165418.98999999999,"N_COORD97":2561072.3399999999,"ADDRESS":"成功路２３１巷１９號","OBJECTID":245308},"geometry":{"x":165418.99000000115,"y":2561072.3400000017}},{"attributes":{"ID":245313,"DIS_CODE":0,"TOWNNAME":"新化區","LI":"崙頂里","LIN":"11鄰","STREET":" ","SECT":" ","MAREA":"崙子頂","LANE":" ","ALLEY":" ","HOUSE_NO":"４１０號之１","E_COORD97":177010.76000000001,"N_COORD97":2546916.2599999998,"ADDRESS":"崙子頂４１０號之１","OBJECTID":245309},"geometry":{"x":177010.75999999978,"y":2546916.2599999998}},{"attributes":{"ID":245314,"DIS_CODE":0,"TOWNNAME":"佳里區","LI":"建南里","LIN":"24鄰","STREET":"成功路","SECT":" ","MAREA":" ","LANE":"２３１巷","ALLEY":" ","HOUSE_NO":"１號","E_COORD97":165378.45999999999,"N_COORD97":2561079.1000000001,"ADDRESS":"成功路２３１巷１號","OBJECTID":245310},"geometry":{"x":165378.45999999996,"y":2561079.0999999996}},{"attributes":{"ID":245315,"DIS_CODE":0,"TOWNNAME":"佳里區","LI":"建南里","LIN":"24鄰","STREET":"成功路","SECT":" ","MAREA":" ","LANE":"２３１巷","ALLEY":" ","HOUSE_NO":"２６號","E_COORD97":165413.54999999999,"N_COORD97":2561053.8300000001,"ADDRESS":"成功路２３１巷２６號","OBJECTID":245311},"geometry":{"x":165413.54999999981,"y":2561053.8300000001}},{"attributes":{"ID":245316,"DIS_CODE":0,"TOWNNAME":"佳里區","LI":"建南里","LIN":"24鄰","STREET":"成功路","SECT":" ","MAREA":" ","LANE":"２３１巷","ALLEY":" ","HOUSE_NO":"２７號","E_COORD97":165438.70999999999,"N_COORD97":2561069.6200000001,"ADDRESS":"成功路２３１巷２７號","OBJECTID":245312},"geometry":{"x":165438.71000000089,"y":2561069.6200000029}},{"attributes":{"ID":245317,"DIS_CODE":0,"TOWNNAME":"佳里區","LI":"建南里","LIN":"24鄰","STREET":"成功路","SECT":" ","MAREA":" ","LANE":"２３１巷","ALLEY":" ","HOUSE_NO":"２８號","E_COORD97":165418.23999999999,"N_COORD97":2561053.1699999999,"ADDRESS":"成功路２３１巷２８號","OBJECTID":245313},"geometry":{"x":165418.24000000209,"y":2561053.1700000018}},{"attributes":{"ID":245318,"DIS_CODE":0,"TOWNNAME":"佳里區","LI":"建南里","LIN":"24鄰","STREET":"成功路","SECT":" ","MAREA":" ","LANE":"２３１巷","ALLEY":" ","HOUSE_NO":"２號","E_COORD97":165372.48000000001,"N_COORD97":2561061.54,"ADDRESS":"成功路２３１巷２號","OBJECTID":245314},"geometry":{"x":165372.48000000045,"y":2561061.5399999991}},{"attributes":{"ID":245319,"DIS_CODE":0,"TOWNNAME":"新化區","LI":"山\u25A0里","LIN":"11鄰","STREET":" ","SECT":" ","MAREA":"五甲勢","LANE":" ","ALLEY":" ","HOUSE_NO":"５７號","E_COORD97":181895.28,"N_COORD97":2545497.2599999998,"ADDRESS":"五甲勢５７號","OBJECTID":245315},"geometry":{"x":181895.28000000212,"y":2545497.2600000035}},{"attributes":{"ID":245320,"DIS_CODE":0,"TOWNNAME":"東區","LI":"崇信里","LIN":"14鄰","STREET":"崇學路","SECT":" ","MAREA":" ","LANE":" ","ALLEY":" ","HOUSE_NO":"１８６號二樓","E_COORD97":170572.23999999999,"N_COORD97":2542475.04,"ADDRESS":"崇學路１８６號二樓","OBJECTID":245316},"geometry":{"x":170572.24000000115,"y":2542475.040000001}},{"attributes":{"ID":245321,"DIS_CODE":0,"TOWNNAME":"佳里區","LI":"建南里","LIN":"24鄰","STREET":"成功路","SECT":" ","MAREA":" ","LANE":"２３１巷","ALLEY":" ","HOUSE_NO":"３０號","E_COORD97":165422.94,"N_COORD97":2561052.5099999998,"ADDRESS":"成功路２３１巷３０號","OBJECTID":245317},"geometry":{"x":165422.94000000134,"y":2561052.5099999998}},{"attributes":{"ID":245322,"DIS_CODE":0,"TOWNNAME":"新化區","LI":"山\u25A0里","LIN":"11鄰","STREET":" ","SECT":" ","MAREA":"五甲勢","LANE":" ","ALLEY":" ","HOUSE_NO":"６６號","E_COORD97":181888.88,"N_COORD97":2545486.2599999998,"ADDRESS":"五甲勢６６號","OBJECTID":245318},"geometry":{"x":181888.87999999989,"y":2545486.2599999998}},{"attributes":{"ID":245323,"DIS_CODE":0,"TOWNNAME":"新化區","LI":"\u25A0拔里","LIN":"11鄰","STREET":" ","SECT":" ","MAREA":"牧場","LANE":" ","ALLEY":" ","HOUSE_NO":"１６號","E_COORD97":181755.73000000001,"N_COORD97":2551112.25,"ADDRESS":"牧場１６號","OBJECTID":245319},"geometry":{"x":181755.73000000138,"y":2551112.2500000019}},{"attributes":{"ID":245324,"DIS_CODE":0,"TOWNNAME":"新化區","LI":"唪口里","LIN":"11鄰","STREET":" ","SECT":" ","MAREA":"唪口","LANE":" ","ALLEY":" ","HOUSE_NO":"１５９號","E_COORD97":177545.64999999999,"N_COORD97":2548819.25,"ADDRESS":"唪口１５９號","OBJECTID":245320},"geometry":{"x":177545.65000000037,"y":2548819.25}},{"attributes":{"ID":245325,"DIS_CODE":0,"TOWNNAME":"新化區","LI":"大坑里","LIN":"11鄰","STREET":" ","SECT":" ","MAREA":"大坑尾","LANE":" ","ALLEY":" ","HOUSE_NO":"２５０號","E_COORD97":184456.32999999999,"N_COORD97":2546243.25,"ADDRESS":"大坑尾２５０號","OBJECTID":245321},"geometry":{"x":184456.33000000101,"y":2546243.2500000037}},{"attributes":{"ID":245326,"DIS_CODE":0,"TOWNNAME":"新化區","LI":"唪口里","LIN":"11鄰","STREET":" ","SECT":" ","MAREA":"唪口","LANE":" ","ALLEY":" ","HOUSE_NO":"１５９號之１","E_COORD97":177558.38,"N_COORD97":2548814.2599999998,"ADDRESS":"唪口１５９號之１","OBJECTID":245322},"geometry":{"x":177558.38000000082,"y":2548814.2600000016}},{"attributes":{"ID":245327,"DIS_CODE":0,"TOWNNAME":"新化區","LI":"\u25A0拔里","LIN":"11鄰","STREET":" ","SECT":" ","MAREA":"牧場","LANE":" ","ALLEY":" ","HOUSE_NO":"１３號之４","E_COORD97":181584.67000000001,"N_COORD97":2551107.2599999998,"ADDRESS":"牧場１３號之４","OBJECTID":245323},"geometry":{"x":181584.66999999993,"y":2551107.2599999998}},{"attributes":{"ID":245328,"DIS_CODE":0,"TOWNNAME":"新化區","LI":"\u25A0拔里","LIN":"11鄰","STREET":" ","SECT":" ","MAREA":"牧場","LANE":" ","ALLEY":" ","HOUSE_NO":"２７號","E_COORD97":181698.32999999999,"N_COORD97":2551155.25,"ADDRESS":"牧場２７號","OBJECTID":245324},"geometry":{"x":181698.33000000101,"y":2551155.25}},{"attributes":{"ID":245329,"DIS_CODE":0,"TOWNNAME":"新化區","LI":"礁坑里","LIN":"11鄰","STREET":" ","SECT":" ","MAREA":"茄冬坑","LANE":" ","ALLEY":" ","HOUSE_NO":"４７號","E_COORD97":183900.06883599999,"N_COORD97":2548453.33024,"ADDRESS":"茄冬坑４７號","OBJECTID":245325},"geometry":{"x":183900.06883600075,"y":2548453.3302449994}},{"attributes":{"ID":245330,"DIS_CODE":0,"TOWNNAME":"新化區","LI":"\u25A0拔里","LIN":"11鄰","STREET":" ","SECT":" ","MAREA":"牧場","LANE":" ","ALLEY":" ","HOUSE_NO":"１３號之８","E_COORD97":181668.69,"N_COORD97":2551093.2599999998,"ADDRESS":"牧場１３號之８","OBJECTID":245326},"geometry":{"x":181668.69000000041,"y":2551093.2599999998}},{"attributes":{"ID":245331,"DIS_CODE":0,"TOWNNAME":"新化區","LI":"唪口里","LIN":"11鄰","STREET":" ","SECT":" ","MAREA":"唪口","LANE":" ","ALLEY":" ","HOUSE_NO":"１６１號","E_COORD97":177593.95000000001,"N_COORD97":2548844.25,"ADDRESS":"唪口１６１號","OBJECTID":245327},"geometry":{"x":177593.95000000112,"y":2548844.2500000019}},{"attributes":{"ID":245332,"DIS_CODE":0,"TOWNNAME":"新化區","LI":"崙頂里","LIN":"11鄰","STREET":" ","SECT":" ","MAREA":"崙子頂","LANE":" ","ALLEY":" ","HOUSE_NO":"４０９號之７","E_COORD97":177026.67000000001,"N_COORD97":2546904.2599999998,"ADDRESS":"崙子頂４０９號之７","OBJECTID":245328},"geometry":{"x":177026.66999999993,"y":2546904.2600000035}},{"attributes":{"ID":245333,"DIS_CODE":0,"TOWNNAME":"新化區","LI":"\u25A0拔里","LIN":"11鄰","STREET":" ","SECT":" ","MAREA":"牧場","LANE":" ","ALLEY":" ","HOUSE_NO":"１３號之７","E_COORD97":181658.78,"N_COORD97":2551094.2599999998,"ADDRESS":"牧場１３號之７","OBJECTID":245329},"geometry":{"x":181658.78000000026,"y":2551094.2599999998}},{"attributes":{"ID":245334,"DIS_CODE":0,"TOWNNAME":"新化區","LI":"崙頂里","LIN":"11鄰","STREET":" ","SECT":" ","MAREA":"崙子頂","LANE":" ","ALLEY":" ","HOUSE_NO":"３８２號之１","E_COORD97":176894.06,"N_COORD97":2546865.2599999998,"ADDRESS":"崙子頂３８２號之１","OBJECTID":245330},"geometry":{"x":176894.06000000052,"y":2546865.2599999998}},{"attributes":{"ID":245335,"DIS_CODE":0,"TOWNNAME":"新化區","LI":"礁坑里","LIN":"11鄰","STREET":" ","SECT":" ","MAREA":"茄冬坑","LANE":" ","ALLEY":" ","HOUSE_NO":"５０號","E_COORD97":183884.602514,"N_COORD97":2548445.2869199999,"ADDRESS":"茄冬坑５０號","OBJECTID":245331},"geometry":{"x":183884.60251399968,"y":2548445.2869160008}},{"attributes":{"ID":245336,"DIS_CODE":0,"TOWNNAME":"新化區","LI":"崙頂里","LIN":"11鄰","STREET":" ","SECT":" ","MAREA":"崙子頂","LANE":" ","ALLEY":" ","HOUSE_NO":"４０９號之１","E_COORD97":177003.35999999999,"N_COORD97":2546879.2599999998,"ADDRESS":"崙子頂４０９號之１","OBJECTID":245332},"geometry":{"x":177003.36000000034,"y":2546879.2599999998}},{"attributes":{"ID":245337,"DIS_CODE":0,"TOWNNAME":"新化區","LI":"全興里","LIN":"11鄰","STREET":" ","SECT":" ","MAREA":"竹子\u25A0","LANE":" ","ALLEY":" ","HOUSE_NO":"２４２號","E_COORD97":178160.92999999999,"N_COORD97":2546949.25,"ADDRESS":"竹子\u25A0２４２號","OBJECTID":245333},"geometry":{"x":178160.93000000156,"y":2546949.2500000019}},{"attributes":{"ID":245338,"DIS_CODE":0,"TOWNNAME":"新化區","LI":"崙頂里","LIN":"11鄰","STREET":" ","SECT":" ","MAREA":"崙子頂","LANE":" ","ALLEY":" ","HOUSE_NO":"３９５號","E_COORD97":176947.23000000001,"N_COORD97":2546910.25,"ADDRESS":"崙子頂３９５號","OBJECTID":245334},"geometry":{"x":176947.23000000045,"y":2546910.25}},{"attributes":{"ID":245339,"DIS_CODE":0,"TOWNNAME":"新化區","LI":"礁坑里","LIN":"11鄰","STREET":" ","SECT":" ","MAREA":"茄冬坑","LANE":" ","ALLEY":" ","HOUSE_NO":"３５號之１","E_COORD97":183830.364455,"N_COORD97":2548392.1586099998,"ADDRESS":"茄冬坑３５號之１","OBJECTID":245335},"geometry":{"x":183830.3644550005,"y":2548392.1586109996}},{"attributes":{"ID":245340,"DIS_CODE":0,"TOWNNAME":"新化區","LI":"崙頂里","LIN":"11鄰","STREET":" ","SECT":" ","MAREA":"崙子頂","LANE":" ","ALLEY":" ","HOUSE_NO":"３９７號之２","E_COORD97":176927.17999999999,"N_COORD97":2546944.2599999998,"ADDRESS":"崙子頂３９７號之２","OBJECTID":245336},"geometry":{"x":176927.18000000063,"y":2546944.2599999998}},{"attributes":{"ID":245341,"DIS_CODE":0,"TOWNNAME":"新化區","LI":"礁坑里","LIN":"11鄰","STREET":" ","SECT":" ","MAREA":"茄冬坑","LANE":" ","ALLEY":" ","HOUSE_NO":"３５號","E_COORD97":183871.25486700001,"N_COORD97":2548385.38528,"ADDRESS":"茄冬坑３５號","OBJECTID":245337},"geometry":{"x":183871.25486700051,"y":2548385.3852820005}},{"attributes":{"ID":245342,"DIS_CODE":0,"TOWNNAME":"北門區","LI":"三光里","LIN":"14鄰","STREET":" ","SECT":" ","MAREA":"蘆竹溝","LANE":" ","ALLEY":" ","HOUSE_NO":"３１６號","E_COORD97":157609.73999999999,"N_COORD97":2570445.27,"ADDRESS":"蘆竹溝３１６號","OBJECTID":245338},"geometry":{"x":157609.74000000022,"y":2570445.2699999996}},{"attributes":{"ID":245343,"DIS_CODE":0,"TOWNNAME":"新化區","LI":"全興里","LIN":"11鄰","STREET":" ","SECT":" ","MAREA":"竹子\u25A0","LANE":" ","ALLEY":" ","HOUSE_NO":"２３８號","E_COORD97":177987.92999999999,"N_COORD97":2546935.25,"ADDRESS":"竹子\u25A0２３８號","OBJECTID":245339},"geometry":{"x":177987.93000000156,"y":2546935.2500000019}},{"attributes":{"ID":245344,"DIS_CODE":0,"TOWNNAME":"新化區","LI":"東榮里","LIN":"11鄰","STREET":"中興路","SECT":" ","MAREA":" ","LANE":" ","ALLEY":" ","HOUSE_NO":"４５８號","E_COORD97":180264.20999999999,"N_COORD97":2547779.25,"ADDRESS":"中興路４５８號","OBJECTID":245340},"geometry":{"x":180264.20999999996,"y":2547779.2500000037}},{"attributes":{"ID":245345,"DIS_CODE":0,"TOWNNAME":"新化區","LI":"全興里","LIN":"11鄰","STREET":" ","SECT":" ","MAREA":"竹子\u25A0","LANE":" ","ALLEY":" ","HOUSE_NO":"２３１號","E_COORD97":178059.73000000001,"N_COORD97":2547029.25,"ADDRESS":"竹子\u25A0２３１號","OBJECTID":245341},"geometry":{"x":178059.73000000138,"y":2547029.25}},{"attributes":{"ID":245346,"DIS_CODE":0,"TOWNNAME":"新化區","LI":"\u25A0拔里","LIN":"11鄰","STREET":" ","SECT":" ","MAREA":"牧場","LANE":" ","ALLEY":" ","HOUSE_NO":"２０號","E_COORD97":181677.92999999999,"N_COORD97":2551125.25,"ADDRESS":"牧場２０號","OBJECTID":245342},"geometry":{"x":181677.9299999997,"y":2551125.2499999981}},{"attributes":{"ID":245347,"DIS_CODE":0,"TOWNNAME":"佳里區","LI":"建南里","LIN":"24鄰","STREET":"成功路","SECT":" ","MAREA":" ","LANE":"２３１巷","ALLEY":" ","HOUSE_NO":"３１號","E_COORD97":165448.54000000001,"N_COORD97":2561068.3100000001,"ADDRESS":"成功路２３１巷３１號","OBJECTID":245343},"geometry":{"x":165448.54000000097,"y":2561068.3100000005}},{"attributes":{"ID":245348,"DIS_CODE":0,"TOWNNAME":"佳里區","LI":"建南里","LIN":"24鄰","STREET":"成功路","SECT":" ","MAREA":" ","LANE":"２３１巷","ALLEY":" ","HOUSE_NO":"３２號","E_COORD97":165427.63,"N_COORD97":2561051.8399999999,"ADDRESS":"成功路２３１巷３２號","OBJECTID":245344},"geometry":{"x":165427.63000000082,"y":2561051.8400000036}},{"attributes":{"ID":245349,"DIS_CODE":0,"TOWNNAME":"玉井區","LI":"望明里","LIN":"11鄰","STREET":" ","SECT":" ","MAREA":"望明","LANE":" ","ALLEY":" ","HOUSE_NO":"１１６號","E_COORD97":193259.14999999999,"N_COORD97":2556249.9100000001,"ADDRESS":"望明１１６號","OBJECTID":245345},"geometry":{"x":193259.15000000224,"y":2556249.9100000001}},{"attributes":{"ID":245350,"DIS_CODE":0,"TOWNNAME":"玉井區","LI":"望明里","LIN":"11鄰","STREET":" ","SECT":" ","MAREA":"望明","LANE":" ","ALLEY":" ","HOUSE_NO":"１１２之１０號","E_COORD97":193191.35000000001,"N_COORD97":2556093.71,"ADDRESS":"望明１１２之１０號","OBJECTID":245346},"geometry":{"x":193191.35000000056,"y":2556093.7100000046}},{"attributes":{"ID":245351,"DIS_CODE":0,"TOWNNAME":"新化區","LI":"崙頂里","LIN":"11鄰","STREET":" ","SECT":" ","MAREA":"崙子頂","LANE":" ","ALLEY":" ","HOUSE_NO":"４００號之１１","E_COORD97":176937.64999999999,"N_COORD97":2546981.8399999999,"ADDRESS":"崙子頂４００號之１１","OBJECTID":245347},"geometry":{"x":176937.65000000037,"y":2546981.8400000036}},{"attributes":{"ID":245352,"DIS_CODE":0,"TOWNNAME":"新化區","LI":"崙頂里","LIN":"11鄰","STREET":" ","SECT":" ","MAREA":"崙子頂","LANE":" ","ALLEY":" ","HOUSE_NO":"４００號之１２","E_COORD97":176938.70000000001,"N_COORD97":2546986.96,"ADDRESS":"崙子頂４００號之１２","OBJECTID":245348},"geometry":{"x":176938.70000000019,"y":2546986.9600000009}},{"attributes":{"ID":245353,"DIS_CODE":0,"TOWNNAME":"新化區","LI":"崙頂里","LIN":"11鄰","STREET":" ","SECT":" ","MAREA":"崙子頂","LANE":" ","ALLEY":" ","HOUSE_NO":"４００號之１３","E_COORD97":176938.67999999999,"N_COORD97":2546991.3599999999,"ADDRESS":"崙子頂４００號之１３","OBJECTID":245349},"geometry":{"x":176938.68000000156,"y":2546991.3600000031}},{"attributes":{"ID":245354,"DIS_CODE":0,"TOWNNAME":"佳里區","LI":"建南里","LIN":"24鄰","STREET":"成功路","SECT":" ","MAREA":" ","LANE":"２３１巷","ALLEY":" ","HOUSE_NO":"３３號","E_COORD97":165453.64000000001,"N_COORD97":2561067.7000000002,"ADDRESS":"成功路２３１巷３３號","OBJECTID":245350},"geometry":{"x":165453.63999999966,"y":2561067.6999999993}},{"attributes":{"ID":245355,"DIS_CODE":0,"TOWNNAME":"佳里區","LI":"建南里","LIN":"24鄰","STREET":"成功路","SECT":" ","MAREA":" ","LANE":"２３１巷","ALLEY":" ","HOUSE_NO":"３６號","E_COORD97":165432.32999999999,"N_COORD97":2561051.1800000002,"ADDRESS":"成功路２３１巷３６號","OBJECTID":245351},"geometry":{"x":165432.33000000007,"y":2561051.1799999997}},{"attributes":{"ID":245356,"DIS_CODE":0,"TOWNNAME":"新化區","LI":"崙頂里","LIN":"11鄰","STREET":" ","SECT":" ","MAREA":"崙子頂","LANE":" ","ALLEY":" ","HOUSE_NO":"４００號之１５","E_COORD97":176939.70999999999,"N_COORD97":2546996.3100000001,"ADDRESS":"崙子頂４００號之１５","OBJECTID":245352},"geometry":{"x":176939.70999999996,"y":2546996.3100000042}},{"attributes":{"ID":245357,"DIS_CODE":0,"TOWNNAME":"佳里區","LI":"建南里","LIN":"24鄰","STREET":"成功路","SECT":" ","MAREA":" ","LANE":"２３１巷","ALLEY":" ","HOUSE_NO":"３８號","E_COORD97":165437.01999999999,"N_COORD97":2561050.52,"ADDRESS":"成功路２３１巷３８號","OBJECTID":245353},"geometry":{"x":165437.01999999955,"y":2561050.5200000014}},{"attributes":{"ID":245358,"DIS_CODE":0,"TOWNNAME":"新化區","LI":"崙頂里","LIN":"11鄰","STREET":" ","SECT":" ","MAREA":"崙子頂","LANE":" ","ALLEY":" ","HOUSE_NO":"４００號之１６","E_COORD97":176951.25,"N_COORD97":2547008.9300000002,"ADDRESS":"崙子頂４００號之１６","OBJECTID":245354},"geometry":{"x":176951.25,"y":2547008.9300000016}},{"attributes":{"ID":245359,"DIS_CODE":0,"TOWNNAME":"新化區","LI":"崙頂里","LIN":"11鄰","STREET":" ","SECT":" ","MAREA":"崙子頂","LANE":" ","ALLEY":" ","HOUSE_NO":"４００號之１７","E_COORD97":176945.20999999999,"N_COORD97":2547004.6200000001,"ADDRESS":"崙子頂４００號之１７","OBJECTID":245355},"geometry":{"x":176945.20999999996,"y":2547004.6200000048}},{"attributes":{"ID":245360,"DIS_CODE":0,"TOWNNAME":"新化區","LI":"崙頂里","LIN":"11鄰","STREET":" ","SECT":" ","MAREA":"崙子頂","LANE":" ","ALLEY":" ","HOUSE_NO":"４００號之１８","E_COORD97":176939.51999999999,"N_COORD97":2547004.8900000001,"ADDRESS":"崙子頂４００號之１８","OBJECTID":245356},"geometry":{"x":176939.52000000142,"y":2547004.8900000006}},{"attributes":{"ID":245361,"DIS_CODE":0,"TOWNNAME":"新化區","LI":"崙頂里","LIN":"11鄰","STREET":" ","SECT":" ","MAREA":"崙子頂","LANE":" ","ALLEY":" ","HOUSE_NO":"４００號之１９","E_COORD97":176932.45000000001,"N_COORD97":2547005.7000000002,"ADDRESS":"崙子頂４００號之１９","OBJECTID":245357},"geometry":{"x":176932.45000000112,"y":2547005.700000003}},{"attributes":{"ID":245362,"DIS_CODE":0,"TOWNNAME":"南化區","LI":"南化里","LIN":"11鄰","STREET":" ","SECT":" ","MAREA":"南化","LANE":" ","ALLEY":" ","HOUSE_NO":"２３０之６號","E_COORD97":196514.01000000001,"N_COORD97":2549200.7000000002,"ADDRESS":"南化２３０之６號","OBJECTID":245358},"geometry":{"x":196514.00999999978,"y":2549200.7000000011}},{"attributes":{"ID":245363,"DIS_CODE":0,"TOWNNAME":"安南區","LI":"四草里","LIN":"1鄰","STREET":"大眾六街","SECT":" ","MAREA":" ","LANE":"１２６巷","ALLEY":" ","HOUSE_NO":"５７號","E_COORD97":160602.246896,"N_COORD97":2546699.2140199998,"ADDRESS":"大眾六街１２６巷５７號","OBJECTID":245359},"geometry":{"x":160602.24689600058,"y":2546699.2140150033}},{"attributes":{"ID":245364,"DIS_CODE":0,"TOWNNAME":"南化區","LI":"南化里","LIN":"11鄰","STREET":" ","SECT":" ","MAREA":"南化","LANE":" ","ALLEY":" ","HOUSE_NO":"２３０之７號","E_COORD97":196512.56,"N_COORD97":2549208.4100000001,"ADDRESS":"南化２３０之７號","OBJECTID":245360},"geometry":{"x":196512.56000000052,"y":2549208.4100000001}},{"attributes":{"ID":245365,"DIS_CODE":0,"TOWNNAME":"七股區","LI":"七股里","LIN":"11鄰","STREET":" ","SECT":" ","MAREA":" ","LANE":" ","ALLEY":" ","HOUSE_NO":"１００之０號","E_COORD97":160558.79999999999,"N_COORD97":2559451.1699999999,"ADDRESS":"１００之０號","OBJECTID":245361},"geometry":{"x":160558.79999999981,"y":2559451.1699999999}},{"attributes":{"ID":245366,"DIS_CODE":0,"TOWNNAME":"佳里區","LI":"建南里","LIN":"24鄰","STREET":"成功路","SECT":" ","MAREA":" ","LANE":"２３１巷","ALLEY":" ","HOUSE_NO":"３號","E_COORD97":165383.44,"N_COORD97":2561078.1600000001,"ADDRESS":"成功路２３１巷３號","OBJECTID":245362},"geometry":{"x":165383.44000000134,"y":2561078.160000002}},{"attributes":{"ID":245367,"DIS_CODE":0,"TOWNNAME":"新市區","LI":"港墘里","LIN":"11鄰","STREET":" ","SECT":" ","MAREA":"崙頂","LANE":" ","ALLEY":" ","HOUSE_NO":"３２號之２","E_COORD97":178843.29000000001,"N_COORD97":2552617.7999999998,"ADDRESS":"崙頂３２號之２","OBJECTID":245363},"geometry":{"x":178843.29000000004,"y":2552617.8000000045}},{"attributes":{"ID":245368,"DIS_CODE":0,"TOWNNAME":"將軍區","LI":"北埔里","LIN":"11鄰","STREET":" ","SECT":" ","MAREA":"北埔","LANE":" ","ALLEY":" ","HOUSE_NO":"１００號","E_COORD97":162997.53,"N_COORD97":2569158.8900000001,"ADDRESS":"北埔１００號","OBJECTID":245364},"geometry":{"x":162997.53000000119,"y":2569158.8900000025}},{"attributes":{"ID":245369,"DIS_CODE":0,"TOWNNAME":"將軍區","LI":"北埔里","LIN":"11鄰","STREET":" ","SECT":" ","MAREA":"北埔","LANE":" ","ALLEY":" ","HOUSE_NO":"１０１號","E_COORD97":162994.35999999999,"N_COORD97":2569198.6800000002,"ADDRESS":"北埔１０１號","OBJECTID":245365},"geometry":{"x":162994.36000000034,"y":2569198.6799999997}},{"attributes":{"ID":245370,"DIS_CODE":0,"TOWNNAME":"將軍區","LI":"北埔里","LIN":"11鄰","STREET":" ","SECT":" ","MAREA":"北埔","LANE":" ","ALLEY":" ","HOUSE_NO":"１０７之１號","E_COORD97":163020.14000000001,"N_COORD97":2569137.0099999998,"ADDRESS":"北埔１０７之１號","OBJECTID":245366},"geometry":{"x":163020.1400000006,"y":2569137.0100000016}},{"attributes":{"ID":245371,"DIS_CODE":0,"TOWNNAME":"將軍區","LI":"北埔里","LIN":"11鄰","STREET":" ","SECT":" ","MAREA":"北埔","LANE":" ","ALLEY":" ","HOUSE_NO":"１０８之２號","E_COORD97":163022.42000000001,"N_COORD97":2568971.3799999999,"ADDRESS":"北埔１０８之２號","OBJECTID":245367},"geometry":{"x":163022.41999999993,"y":2568971.3800000008}},{"attributes":{"ID":245372,"DIS_CODE":0,"TOWNNAME":"歸仁區","LI":"崙頂里","LIN":"11鄰","STREET":"成功路","SECT":"二段","MAREA":" ","LANE":"１３１巷","ALLEY":" ","HOUSE_NO":"２６號","E_COORD97":178037.37,"N_COORD97":2539681.7999999998,"ADDRESS":"成功路二段１３１巷２６號","OBJECTID":245368},"geometry":{"x":178037.37000000011,"y":2539681.8000000007}},{"attributes":{"ID":245373,"DIS_CODE":0,"TOWNNAME":"仁德區","LI":"仁義里","LIN":"11鄰","STREET":"中山路","SECT":" ","MAREA":" ","LANE":"５９１巷","ALLEY":" ","HOUSE_NO":"６號","E_COORD97":173343.32000000001,"N_COORD97":2541292.7400000002,"ADDRESS":"中山路５９１巷６號","OBJECTID":245369},"geometry":{"x":173343.32000000123,"y":2541292.7400000002}},{"attributes":{"ID":245374,"DIS_CODE":0,"TOWNNAME":"將軍區","LI":"北埔里","LIN":"11鄰","STREET":" ","SECT":" ","MAREA":"北埔","LANE":" ","ALLEY":" ","HOUSE_NO":"１１２號","E_COORD97":162963.07000000001,"N_COORD97":2568737.3799999999,"ADDRESS":"北埔１１２號","OBJECTID":245370},"geometry":{"x":162963.06999999937,"y":2568737.3800000008}},{"attributes":{"ID":245375,"DIS_CODE":0,"TOWNNAME":"將軍區","LI":"西華里","LIN":"11鄰","STREET":" ","SECT":" ","MAREA":"西華","LANE":" ","ALLEY":" ","HOUSE_NO":"１３１號","E_COORD97":163359.64000000001,"N_COORD97":2566177.48,"ADDRESS":"西華１３１號","OBJECTID":245371},"geometry":{"x":163359.63999999966,"y":2566177.4800000042}},{"attributes":{"ID":245376,"DIS_CODE":0,"TOWNNAME":"後壁區","LI":"新東里","LIN":"11鄰","STREET":" ","SECT":" ","MAREA":"新港東","LANE":" ","ALLEY":" ","HOUSE_NO":"１１８號","E_COORD97":181519.59,"N_COORD97":2581956.8199999998,"ADDRESS":"新港東１１８號","OBJECTID":245372},"geometry":{"x":181519.58999999985,"y":2581956.8200000003}},{"attributes":{"ID":245377,"DIS_CODE":0,"TOWNNAME":"東區","LI":"崇信里","LIN":"14鄰","STREET":"崇學路","SECT":" ","MAREA":" ","LANE":" ","ALLEY":" ","HOUSE_NO":"１８６號三樓","E_COORD97":170572.23999999999,"N_COORD97":2542475.04,"ADDRESS":"崇學路１８６號三樓","OBJECTID":245373},"geometry":{"x":170572.24000000115,"y":2542475.040000001}},{"attributes":{"ID":245378,"DIS_CODE":0,"TOWNNAME":"東區","LI":"崇信里","LIN":"14鄰","STREET":"崇學路","SECT":" ","MAREA":" ","LANE":" ","ALLEY":" ","HOUSE_NO":"１８６號五樓","E_COORD97":170572.23999999999,"N_COORD97":2542475.04,"ADDRESS":"崇學路１８６號五樓","OBJECTID":245374},"geometry":{"x":170572.24000000115,"y":2542475.040000001}},{"attributes":{"ID":245379,"DIS_CODE":0,"TOWNNAME":"關廟區","LI":"埤頭里","LIN":"11鄰","STREET":"關新路","SECT":"二段","MAREA":" ","LANE":" ","ALLEY":" ","HOUSE_NO":"６８號","E_COORD97":179111.22,"N_COORD97":2544171.2999999998,"ADDRESS":"關新路二段６８號","OBJECTID":245375},"geometry":{"x":179111.21999999974,"y":2544171.3000000007}},{"attributes":{"ID":245380,"DIS_CODE":0,"TOWNNAME":"西港區","LI":"慶安里","LIN":"11鄰","STREET":"新興街","SECT":" ","MAREA":" ","LANE":" ","ALLEY":" ","HOUSE_NO":"７８號","E_COORD97":168191.51000000001,"N_COORD97":2558088.7200000002,"ADDRESS":"新興街７８號","OBJECTID":245376},"geometry":{"x":168191.51000000071,"y":2558088.7200000007}},{"attributes":{"ID":245381,"DIS_CODE":0,"TOWNNAME":"新市區","LI":"港墘里","LIN":"11鄰","STREET":" ","SECT":" ","MAREA":"崙頂","LANE":" ","ALLEY":" ","HOUSE_NO":"２９號之３","E_COORD97":178859.73999999999,"N_COORD97":2552540.5499999998,"ADDRESS":"崙頂２９號之３","OBJECTID":245377},"geometry":{"x":178859.74000000115,"y":2552540.5500000007}},{"attributes":{"ID":245382,"DIS_CODE":0,"TOWNNAME":"關廟區","LI":"埤頭里","LIN":"11鄰","STREET":"關新路","SECT":"二段","MAREA":" ","LANE":" ","ALLEY":" ","HOUSE_NO":"９６號","E_COORD97":179110.42000000001,"N_COORD97":2544238.2999999998,"ADDRESS":"關新路二段９６號","OBJECTID":245378},"geometry":{"x":179110.42000000179,"y":2544238.3000000007}},{"attributes":{"ID":245383,"DIS_CODE":0,"TOWNNAME":"南區","LI":"文南里","LIN":"11鄰","STREET":"美南街","SECT":" ","MAREA":" ","LANE":"１４８巷","ALLEY":" ","HOUSE_NO":"２２號","E_COORD97":166646.47,"N_COORD97":2542839.8900000001,"ADDRESS":"美南街１４８巷２２號","OBJECTID":245379},"geometry":{"x":166646.46999999974,"y":2542839.8900000025}},{"attributes":{"ID":245384,"DIS_CODE":0,"TOWNNAME":"關廟區","LI":"埤頭里","LIN":"11鄰","STREET":"關新路","SECT":"二段","MAREA":" ","LANE":" ","ALLEY":" ","HOUSE_NO":"１０２號","E_COORD97":179112.47,"N_COORD97":2544261.2999999998,"ADDRESS":"關新路二段１０２號","OBJECTID":245380},"geometry":{"x":179112.46999999974,"y":2544261.3000000026}},{"attributes":{"ID":245385,"DIS_CODE":0,"TOWNNAME":"佳里區","LI":"建南里","LIN":"24鄰","STREET":"成功路","SECT":" ","MAREA":" ","LANE":"２３１巷","ALLEY":" ","HOUSE_NO":"４０號","E_COORD97":165441.72,"N_COORD97":2561049.8500000001,"ADDRESS":"成功路２３１巷４０號","OBJECTID":245381},"geometry":{"x":165441.7200000016,"y":2561049.8499999996}},{"attributes":{"ID":245386,"DIS_CODE":0,"TOWNNAME":"佳里區","LI":"建南里","LIN":"24鄰","STREET":"成功路","SECT":" ","MAREA":" ","LANE":"２３１巷","ALLEY":" ","HOUSE_NO":"４２號","E_COORD97":165446.41,"N_COORD97":2561049.1899999999,"ADDRESS":"成功路２３１巷４２號","OBJECTID":245382},"geometry":{"x":165446.41000000108,"y":2561049.1900000013}},{"attributes":{"ID":245387,"DIS_CODE":0,"TOWNNAME":"東區","LI":"德光里","LIN":"11鄰","STREET":"崇德三街","SECT":" ","MAREA":" ","LANE":"６２巷","ALLEY":" ","HOUSE_NO":"５號","E_COORD97":170299.63,"N_COORD97":2542252.8599999999,"ADDRESS":"崇德三街６２巷５號","OBJECTID":245383},"geometry":{"x":170299.63000000082,"y":2542252.8600000013}},{"attributes":{"ID":245388,"DIS_CODE":0,"TOWNNAME":"佳里區","LI":"建南里","LIN":"24鄰","STREET":"成功路","SECT":" ","MAREA":" ","LANE":"２３１巷","ALLEY":" ","HOUSE_NO":"４６號","E_COORD97":165451.10000000001,"N_COORD97":2561048.52,"ADDRESS":"成功路２３１巷４６號","OBJECTID":245384},"geometry":{"x":165451.10000000056,"y":2561048.5199999996}},{"attributes":{"ID":245389,"DIS_CODE":0,"TOWNNAME":"安南區","LI":"\u25A0南里","LIN":"24鄰","STREET":"長和路","SECT":"二段","MAREA":" ","LANE":"１２巷","ALLEY":" ","HOUSE_NO":"２３７號","E_COORD97":170377.07000000001,"N_COORD97":2552104.75,"ADDRESS":"長和路二段１２巷２３７號","OBJECTID":245385},"geometry":{"x":170377.0700000003,"y":2552104.75}},{"attributes":{"ID":245390,"DIS_CODE":0,"TOWNNAME":"安南區","LI":"州南里","LIN":"24鄰","STREET":"長和路","SECT":"三段","MAREA":" ","LANE":"１３３巷","ALLEY":" ","HOUSE_NO":"９３號","E_COORD97":169763.16,"N_COORD97":2551380.4700000002,"ADDRESS":"長和路三段１３３巷９３號","OBJECTID":245386},"geometry":{"x":169763.16000000015,"y":2551380.4700000025}},{"attributes":{"ID":245391,"DIS_CODE":0,"TOWNNAME":"安南區","LI":"\u25A0南里","LIN":"24鄰","STREET":"長和路","SECT":"二段","MAREA":" ","LANE":"１２巷","ALLEY":" ","HOUSE_NO":"２５９之９號","E_COORD97":170381.85999999999,"N_COORD97":2552195.3100000001,"ADDRESS":"長和路二段１２巷２５９之９號","OBJECTID":245387},"geometry":{"x":170381.86000000127,"y":2552195.3100000005}},{"attributes":{"ID":245392,"DIS_CODE":0,"TOWNNAME":"安南區","LI":"安東里","LIN":"24鄰","STREET":"安和路","SECT":"二段","MAREA":" ","LANE":"２巷","ALLEY":" ","HOUSE_NO":"２號","E_COORD97":169463.10999999999,"N_COORD97":2548503.4300000002,"ADDRESS":"安和路二段２巷２號","OBJECTID":245388},"geometry":{"x":169463.11000000127,"y":2548503.4300000016}},{"attributes":{"ID":245393,"DIS_CODE":0,"TOWNNAME":"官田區","LI":"二鎮里","LIN":"24鄰","STREET":"工社西街","SECT":" ","MAREA":" ","LANE":"２１巷","ALLEY":" ","HOUSE_NO":"１００號之１","E_COORD97":181214.12,"N_COORD97":2568816.9100000001,"ADDRESS":"工社西街２１巷１００號之１","OBJECTID":245389},"geometry":{"x":181214.12000000011,"y":2568816.910000002}},{"attributes":{"ID":245394,"DIS_CODE":0,"TOWNNAME":"官田區","LI":"二鎮里","LIN":"24鄰","STREET":"工社西街","SECT":" ","MAREA":" ","LANE":"２１巷","ALLEY":" ","HOUSE_NO":"１００號","E_COORD97":181210.63,"N_COORD97":2568816.0800000001,"ADDRESS":"工社西街２１巷１００號","OBJECTID":245390},"geometry":{"x":181210.62999999989,"y":2568816.0800000001}},{"attributes":{"ID":245395,"DIS_CODE":0,"TOWNNAME":"官田區","LI":"二鎮里","LIN":"24鄰","STREET":"工社西街","SECT":" ","MAREA":" ","LANE":"２１巷","ALLEY":" ","HOUSE_NO":"１０１號","E_COORD97":181237.5,"N_COORD97":2568798.3999999999,"ADDRESS":"工社西街２１巷１０１號","OBJECTID":245391},"geometry":{"x":181237.50000000186,"y":2568798.4000000004}},{"attributes":{"ID":245396,"DIS_CODE":0,"TOWNNAME":"官田區","LI":"二鎮里","LIN":"24鄰","STREET":"工社西街","SECT":" ","MAREA":" ","LANE":"２１巷","ALLEY":" ","HOUSE_NO":"１０２號","E_COORD97":181219.29999999999,"N_COORD97":2568817.8900000001,"ADDRESS":"工社西街２１巷１０２號","OBJECTID":245392},"geometry":{"x":181219.29999999981,"y":2568817.8900000006}},{"attributes":{"ID":245397,"DIS_CODE":0,"TOWNNAME":"東區","LI":"崇信里","LIN":"14鄰","STREET":"崇學路","SECT":" ","MAREA":" ","LANE":" ","ALLEY":" ","HOUSE_NO":"１８６號六樓","E_COORD97":170572.23999999999,"N_COORD97":2542475.04,"ADDRESS":"崇學路１８６號六樓","OBJECTID":245393},"geometry":{"x":170572.24000000115,"y":2542475.040000001}},{"attributes":{"ID":245398,"DIS_CODE":0,"TOWNNAME":"官田區","LI":"二鎮里","LIN":"24鄰","STREET":"工社西街","SECT":" ","MAREA":" ","LANE":"２１巷","ALLEY":" ","HOUSE_NO":"１０３號","E_COORD97":181241.59,"N_COORD97":2568799.4700000002,"ADDRESS":"工社西街２１巷１０３號","OBJECTID":245394},"geometry":{"x":181241.58999999985,"y":2568799.4700000025}},{"attributes":{"ID":245399,"DIS_CODE":0,"TOWNNAME":"官田區","LI":"二鎮里","LIN":"24鄰","STREET":"工社西街","SECT":" ","MAREA":" ","LANE":"２１巷","ALLEY":" ","HOUSE_NO":"１０４號","E_COORD97":181224.78,"N_COORD97":2568819.5,"ADDRESS":"工社西街２１巷１０４號","OBJECTID":245395},"geometry":{"x":181224.78000000119,"y":2568819.5000000019}},{"attributes":{"ID":245400,"DIS_CODE":0,"TOWNNAME":"官田區","LI":"二鎮里","LIN":"24鄰","STREET":"工社西街","SECT":" ","MAREA":" ","LANE":"２１巷","ALLEY":" ","HOUSE_NO":"１０６號之１","E_COORD97":181235.73000000001,"N_COORD97":2568822.6600000001,"ADDRESS":"工社西街２１巷１０６號之１","OBJECTID":245396},"geometry":{"x":181235.73000000045,"y":2568822.6600000001}},{"attributes":{"ID":245401,"DIS_CODE":0,"TOWNNAME":"官田區","LI":"二鎮里","LIN":"24鄰","STREET":"工社西街","SECT":" ","MAREA":" ","LANE":"２１巷","ALLEY":" ","HOUSE_NO":"１０６號","E_COORD97":181230.10000000001,"N_COORD97":2568820.8399999999,"ADDRESS":"工社西街２１巷１０６號","OBJECTID":245397},"geometry":{"x":181230.10000000056,"y":2568820.8399999999}},{"attributes":{"ID":245402,"DIS_CODE":0,"TOWNNAME":"官田區","LI":"二鎮里","LIN":"24鄰","STREET":"工社西街","SECT":" ","MAREA":" ","LANE":"２１巷","ALLEY":" ","HOUSE_NO":"１０７號","E_COORD97":181249.54000000001,"N_COORD97":2568801.0299999998,"ADDRESS":"工社西街２１巷１０７號","OBJECTID":245398},"geometry":{"x":181249.54000000097,"y":2568801.0300000012}},{"attributes":{"ID":245403,"DIS_CODE":0,"TOWNNAME":"官田區","LI":"二鎮里","LIN":"24鄰","STREET":"工社西街","SECT":" ","MAREA":" ","LANE":"２１巷","ALLEY":" ","HOUSE_NO":"１０９號","E_COORD97":181254.19,"N_COORD97":2568802.77,"ADDRESS":"工社西街２１巷１０９號","OBJECTID":245399},"geometry":{"x":181254.19000000134,"y":2568802.7700000014}},{"attributes":{"ID":245404,"DIS_CODE":0,"TOWNNAME":"官田區","LI":"二鎮里","LIN":"24鄰","STREET":"工社西街","SECT":" ","MAREA":" ","LANE":"２１巷","ALLEY":" ","HOUSE_NO":"１１０號之１","E_COORD97":181247.89999999999,"N_COORD97":2568825.77,"ADDRESS":"工社西街２１巷１１０號之１","OBJECTID":245400},"geometry":{"x":181247.90000000037,"y":2568825.7699999977}}]}