{"displayFieldName":"TOWNNAME","fieldAliases":{"ID":"ID","DIS_CODE":"DIS_CODE","TOWNNAME":"TOWNNAME","LI":"LI","LIN":"LIN","STREET":"STREET","SECT":"SECT","MAREA":"MAREA","LANE":"LANE","ALLEY":"ALLEY","HOUSE_NO":"HOUSE_NO","E_COORD97":"E_COORD97","N_COORD97":"N_COORD97","ADDRESS":"ADDRESS","OBJECTID":"OBJECTID"},"geometryType":"esriGeometryPoint","spatialReference":{"wkid":102443,"latestWkid":3826},"fields":[{"name":"ID","type":"esriFieldTypeDouble","alias":"ID"},{"name":"DIS_CODE","type":"esriFieldTypeInteger","alias":"DIS_CODE"},{"name":"TOWNNAME","type":"esriFieldTypeString","alias":"TOWNNAME","length":8},{"name":"LI","type":"esriFieldTypeString","alias":"LI","length":8},{"name":"LIN","type":"esriFieldTypeString","alias":"LIN","length":12},{"name":"STREET","type":"esriFieldTypeString","alias":"STREET","length":20},{"name":"SECT","type":"esriFieldTypeString","alias":"SECT","length":8},{"name":"MAREA","type":"esriFieldTypeString","alias":"MAREA","length":12},{"name":"LANE","type":"esriFieldTypeString","alias":"LANE","length":10},{"name":"ALLEY","type":"esriFieldTypeString","alias":"ALLEY","length":10},{"name":"HOUSE_NO","type":"esriFieldTypeString","alias":"HOUSE_NO","length":20},{"name":"E_COORD97","type":"esriFieldTypeDouble","alias":"E_COORD97"},{"name":"N_COORD97","type":"esriFieldTypeDouble","alias":"N_COORD97"},{"name":"ADDRESS","type":"esriFieldTypeString","alias":"ADDRESS","length":50},{"name":"OBJECTID","type":"esriFieldTypeOID","alias":"OBJECTID"}],"features":[{"attributes":{"ID":583028,"DIS_CODE":0,"TOWNNAME":"善化區","LI":"文昌里","LIN":"16鄰","STREET":"光復二街","SECT":" ","MAREA":" ","LANE":" ","ALLEY":" ","HOUSE_NO":"７５號","E_COORD97":177597.54000000001,"N_COORD97":2558628.6800000002,"ADDRESS":"光復二街７５號","OBJECTID":583001},"geometry":{"x":177597.53999999911,"y":2558628.6800000034}},{"attributes":{"ID":583029,"DIS_CODE":0,"TOWNNAME":"永康區","LI":"大橋里","LIN":"12鄰","STREET":"大橋二街","SECT":" ","MAREA":" ","LANE":" ","ALLEY":" ","HOUSE_NO":"２４３號","E_COORD97":171124.51999999999,"N_COORD97":2546815.6400000001,"ADDRESS":"大橋二街２４３號","OBJECTID":583002},"geometry":{"x":171124.51999999955,"y":2546815.6400000025}},{"attributes":{"ID":583030,"DIS_CODE":0,"TOWNNAME":"善化區","LI":"文昌里","LIN":"16鄰","STREET":"光復二街","SECT":" ","MAREA":" ","LANE":" ","ALLEY":" ","HOUSE_NO":"７７號","E_COORD97":177593.89000000001,"N_COORD97":2558633.1200000001,"ADDRESS":"光復二街７７號","OBJECTID":583003},"geometry":{"x":177593.8900000006,"y":2558633.120000001}},{"attributes":{"ID":583031,"DIS_CODE":0,"TOWNNAME":"善化區","LI":"文昌里","LIN":"16鄰","STREET":"光復二街","SECT":" ","MAREA":" ","LANE":" ","ALLEY":" ","HOUSE_NO":"７９號","E_COORD97":177590.06,"N_COORD97":2558638.1600000001,"ADDRESS":"光復二街７９號","OBJECTID":583004},"geometry":{"x":177590.05999999959,"y":2558638.1600000001}},{"attributes":{"ID":583032,"DIS_CODE":0,"TOWNNAME":"善化區","LI":"文昌里","LIN":"16鄰","STREET":"光復二街","SECT":" ","MAREA":" ","LANE":" ","ALLEY":" ","HOUSE_NO":"８０號","E_COORD97":177619.42000000001,"N_COORD97":2558645.6200000001,"ADDRESS":"光復二街８０號","OBJECTID":583005},"geometry":{"x":177619.42000000086,"y":2558645.620000001}},{"attributes":{"ID":583033,"DIS_CODE":0,"TOWNNAME":"善化區","LI":"文昌里","LIN":"16鄰","STREET":"光復二街","SECT":" ","MAREA":" ","LANE":" ","ALLEY":" ","HOUSE_NO":"８２號","E_COORD97":177613.20000000001,"N_COORD97":2558652.29,"ADDRESS":"光復二街８２號","OBJECTID":583006},"geometry":{"x":177613.20000000019,"y":2558652.290000001}},{"attributes":{"ID":583034,"DIS_CODE":0,"TOWNNAME":"善化區","LI":"文昌里","LIN":"16鄰","STREET":"光復二街","SECT":" ","MAREA":" ","LANE":" ","ALLEY":" ","HOUSE_NO":"８６號","E_COORD97":177607.89000000001,"N_COORD97":2558658.7799999998,"ADDRESS":"光復二街８６號","OBJECTID":583007},"geometry":{"x":177607.88999999966,"y":2558658.7800000012}},{"attributes":{"ID":583035,"DIS_CODE":0,"TOWNNAME":"善化區","LI":"文昌里","LIN":"16鄰","STREET":"光復二街","SECT":" ","MAREA":" ","LANE":" ","ALLEY":" ","HOUSE_NO":"８８號","E_COORD97":177603.34,"N_COORD97":2558665.98,"ADDRESS":"光復二街８８號","OBJECTID":583008},"geometry":{"x":177603.33999999985,"y":2558665.9800000023}},{"attributes":{"ID":583036,"DIS_CODE":0,"TOWNNAME":"善化區","LI":"文昌里","LIN":"16鄰","STREET":"光復二街","SECT":" ","MAREA":" ","LANE":" ","ALLEY":" ","HOUSE_NO":"９０號","E_COORD97":177597.76999999999,"N_COORD97":2558672.5800000001,"ADDRESS":"光復二街９０號","OBJECTID":583009},"geometry":{"x":177597.77000000048,"y":2558672.5800000001}},{"attributes":{"ID":583037,"DIS_CODE":0,"TOWNNAME":"善化區","LI":"文昌里","LIN":"16鄰","STREET":"中正路","SECT":" ","MAREA":" ","LANE":" ","ALLEY":" ","HOUSE_NO":"３７５號","E_COORD97":177672.54999999999,"N_COORD97":2558578.1800000002,"ADDRESS":"中正路３７５號","OBJECTID":583010},"geometry":{"x":177672.55000000075,"y":2558578.1800000016}},{"attributes":{"ID":583038,"DIS_CODE":0,"TOWNNAME":"善化區","LI":"文昌里","LIN":"16鄰","STREET":"光復二街","SECT":" ","MAREA":" ","LANE":" ","ALLEY":" ","HOUSE_NO":"９３號","E_COORD97":177507.47,"N_COORD97":2558642.2999999998,"ADDRESS":"光復二街９３號","OBJECTID":583011},"geometry":{"x":177507.46999999974,"y":2558642.3000000045}},{"attributes":{"ID":583039,"DIS_CODE":0,"TOWNNAME":"善化區","LI":"文昌里","LIN":"16鄰","STREET":"光復三街","SECT":" ","MAREA":" ","LANE":" ","ALLEY":" ","HOUSE_NO":"２號","E_COORD97":177557.91,"N_COORD97":2558566.7599999998,"ADDRESS":"光復三街２號","OBJECTID":583012},"geometry":{"x":177557.91000000201,"y":2558566.7599999979}},{"attributes":{"ID":583040,"DIS_CODE":0,"TOWNNAME":"善化區","LI":"文昌里","LIN":"16鄰","STREET":"光復三街","SECT":" ","MAREA":" ","LANE":" ","ALLEY":" ","HOUSE_NO":"６號","E_COORD97":177546.95000000001,"N_COORD97":2558553.2000000002,"ADDRESS":"光復三街６號","OBJECTID":583013},"geometry":{"x":177546.95000000019,"y":2558553.200000003}},{"attributes":{"ID":583041,"DIS_CODE":0,"TOWNNAME":"善化區","LI":"文昌里","LIN":"16鄰","STREET":"大同路","SECT":" ","MAREA":" ","LANE":" ","ALLEY":" ","HOUSE_NO":"９０號","E_COORD97":177545.66,"N_COORD97":2558562.7799999998,"ADDRESS":"大同路９０號","OBJECTID":583014},"geometry":{"x":177545.66000000015,"y":2558562.7799999975}},{"attributes":{"ID":583042,"DIS_CODE":0,"TOWNNAME":"善化區","LI":"文昌里","LIN":"16鄰","STREET":"大同路","SECT":" ","MAREA":" ","LANE":" ","ALLEY":" ","HOUSE_NO":"９２號","E_COORD97":177542.44,"N_COORD97":2558565.3300000001,"ADDRESS":"大同路９２號","OBJECTID":583015},"geometry":{"x":177542.44000000041,"y":2558565.3300000001}},{"attributes":{"ID":583043,"DIS_CODE":0,"TOWNNAME":"善化區","LI":"文昌里","LIN":"16鄰","STREET":"大同路","SECT":" ","MAREA":" ","LANE":" ","ALLEY":" ","HOUSE_NO":"９６號","E_COORD97":177539.32999999999,"N_COORD97":2558567.8700000001,"ADDRESS":"大同路９６號","OBJECTID":583016},"geometry":{"x":177539.33000000007,"y":2558567.8700000029}},{"attributes":{"ID":583044,"DIS_CODE":0,"TOWNNAME":"善化區","LI":"文昌里","LIN":"16鄰","STREET":"大同路","SECT":" ","MAREA":" ","LANE":" ","ALLEY":" ","HOUSE_NO":"９８號","E_COORD97":177536.07999999999,"N_COORD97":2558570.6400000001,"ADDRESS":"大同路９８號","OBJECTID":583017},"geometry":{"x":177536.08000000007,"y":2558570.6400000006}},{"attributes":{"ID":583045,"DIS_CODE":0,"TOWNNAME":"善化區","LI":"文昌里","LIN":"16鄰","STREET":"光復一街","SECT":" ","MAREA":" ","LANE":" ","ALLEY":" ","HOUSE_NO":"１８號","E_COORD97":177656.79999999999,"N_COORD97":2558632.8599999999,"ADDRESS":"光復一街１８號","OBJECTID":583018},"geometry":{"x":177656.80000000168,"y":2558632.8599999994}},{"attributes":{"ID":583046,"DIS_CODE":0,"TOWNNAME":"善化區","LI":"文昌里","LIN":"16鄰","STREET":"大同路","SECT":" ","MAREA":" ","LANE":" ","ALLEY":" ","HOUSE_NO":"６２號","E_COORD97":177601.89999999999,"N_COORD97":2558527.6400000001,"ADDRESS":"大同路６２號","OBJECTID":583019},"geometry":{"x":177601.90000000037,"y":2558527.6400000006}},{"attributes":{"ID":583047,"DIS_CODE":0,"TOWNNAME":"善化區","LI":"文昌里","LIN":"16鄰","STREET":"光復二街","SECT":" ","MAREA":" ","LANE":" ","ALLEY":" ","HOUSE_NO":"８１號","E_COORD97":177533.57999999999,"N_COORD97":2558611.6600000001,"ADDRESS":"光復二街８１號","OBJECTID":583020},"geometry":{"x":177533.58000000101,"y":2558611.6600000001}},{"attributes":{"ID":583048,"DIS_CODE":0,"TOWNNAME":"善化區","LI":"文昌里","LIN":"16鄰","STREET":"光復二街","SECT":" ","MAREA":" ","LANE":" ","ALLEY":" ","HOUSE_NO":"８３號","E_COORD97":177530.23000000001,"N_COORD97":2558617.3500000001,"ADDRESS":"光復二街８３號","OBJECTID":583021},"geometry":{"x":177530.23000000045,"y":2558617.3500000015}},{"attributes":{"ID":583049,"DIS_CODE":0,"TOWNNAME":"善化區","LI":"文昌里","LIN":"16鄰","STREET":"光復二街","SECT":" ","MAREA":" ","LANE":" ","ALLEY":" ","HOUSE_NO":"８５號","E_COORD97":177528.35000000001,"N_COORD97":2558622.7799999998,"ADDRESS":"光復二街８５號","OBJECTID":583022},"geometry":{"x":177528.34999999963,"y":2558622.7799999993}},{"attributes":{"ID":583050,"DIS_CODE":0,"TOWNNAME":"善化區","LI":"文昌里","LIN":"16鄰","STREET":"光復二街","SECT":" ","MAREA":" ","LANE":" ","ALLEY":" ","HOUSE_NO":"８７號","E_COORD97":177525.39999999999,"N_COORD97":2558628.6000000001,"ADDRESS":"光復二街８７號","OBJECTID":583023},"geometry":{"x":177525.40000000037,"y":2558628.5999999996}},{"attributes":{"ID":583051,"DIS_CODE":0,"TOWNNAME":"善化區","LI":"文昌里","LIN":"16鄰","STREET":"大同路","SECT":" ","MAREA":" ","LANE":" ","ALLEY":" ","HOUSE_NO":"１１６號","E_COORD97":177511.29000000001,"N_COORD97":2558591.7200000002,"ADDRESS":"大同路１１６號","OBJECTID":583024},"geometry":{"x":177511.2900000019,"y":2558591.7199999988}},{"attributes":{"ID":583052,"DIS_CODE":0,"TOWNNAME":"善化區","LI":"文昌里","LIN":"16鄰","STREET":"大同路","SECT":" ","MAREA":" ","LANE":" ","ALLEY":" ","HOUSE_NO":"１１８號","E_COORD97":177506.87,"N_COORD97":2558595.3700000001,"ADDRESS":"大同路１１８號","OBJECTID":583025},"geometry":{"x":177506.87000000011,"y":2558595.3700000029}},{"attributes":{"ID":583053,"DIS_CODE":0,"TOWNNAME":"永康區","LI":"三合里","LIN":"2鄰","STREET":"中華二路","SECT":" ","MAREA":" ","LANE":" ","ALLEY":" ","HOUSE_NO":"７８號","E_COORD97":172096.82000000001,"N_COORD97":2545444.2400000002,"ADDRESS":"中華二路７８號","OBJECTID":583026},"geometry":{"x":172096.82000000216,"y":2545444.2400000021}},{"attributes":{"ID":583054,"DIS_CODE":0,"TOWNNAME":"善化區","LI":"文昌里","LIN":"16鄰","STREET":"大同路","SECT":" ","MAREA":" ","LANE":" ","ALLEY":" ","HOUSE_NO":"１２０號","E_COORD97":177504.20000000001,"N_COORD97":2558598.75,"ADDRESS":"大同路１２０號","OBJECTID":583027},"geometry":{"x":177504.20000000112,"y":2558598.7500000019}},{"attributes":{"ID":583055,"DIS_CODE":0,"TOWNNAME":"善化區","LI":"文昌里","LIN":"16鄰","STREET":"大同路","SECT":" ","MAREA":" ","LANE":" ","ALLEY":" ","HOUSE_NO":"１２２號","E_COORD97":177501.95000000001,"N_COORD97":2558601.6699999999,"ADDRESS":"大同路１２２號","OBJECTID":583028},"geometry":{"x":177501.95000000112,"y":2558601.6700000037}},{"attributes":{"ID":583056,"DIS_CODE":0,"TOWNNAME":"永康區","LI":"中興里","LIN":"26鄰","STREET":"中山東路","SECT":" ","MAREA":" ","LANE":" ","ALLEY":" ","HOUSE_NO":"４１６號","E_COORD97":171916.39999999999,"N_COORD97":2545169.2400000002,"ADDRESS":"中山東路４１６號","OBJECTID":583029},"geometry":{"x":171916.40000000037,"y":2545169.2400000021}},{"attributes":{"ID":583057,"DIS_CODE":0,"TOWNNAME":"永康區","LI":"大橋里","LIN":"25鄰","STREET":"大橋一街","SECT":" ","MAREA":" ","LANE":" ","ALLEY":" ","HOUSE_NO":"２３１號","E_COORD97":171251.29999999999,"N_COORD97":2546635.75,"ADDRESS":"大橋一街２３１號","OBJECTID":583030},"geometry":{"x":171251.30000000075,"y":2546635.75}},{"attributes":{"ID":583058,"DIS_CODE":0,"TOWNNAME":"永康區","LI":"大灣里","LIN":"27鄰","STREET":"大灣六街","SECT":" ","MAREA":" ","LANE":" ","ALLEY":" ","HOUSE_NO":"３６號","E_COORD97":175252.95000000001,"N_COORD97":2545227.1299999999,"ADDRESS":"大灣六街３６號","OBJECTID":583031},"geometry":{"x":175252.95000000112,"y":2545227.1300000008}},{"attributes":{"ID":583059,"DIS_CODE":0,"TOWNNAME":"永康區","LI":"大橋里","LIN":"17鄰","STREET":"大橋一街","SECT":" ","MAREA":" ","LANE":" ","ALLEY":" ","HOUSE_NO":"１３１號","E_COORD97":171033.98999999999,"N_COORD97":2546493.4900000002,"ADDRESS":"大橋一街１３１號","OBJECTID":583032},"geometry":{"x":171033.99000000022,"y":2546493.4900000021}},{"attributes":{"ID":583060,"DIS_CODE":0,"TOWNNAME":"永康區","LI":"大橋里","LIN":"8鄰","STREET":"大橋三街","SECT":" ","MAREA":" ","LANE":" ","ALLEY":" ","HOUSE_NO":"２１９號","E_COORD97":170914.23000000001,"N_COORD97":2546815.52,"ADDRESS":"大橋三街２１９號","OBJECTID":583033},"geometry":{"x":170914.22999999952,"y":2546815.5200000014}},{"attributes":{"ID":583061,"DIS_CODE":0,"TOWNNAME":"永康區","LI":"大灣里","LIN":"30鄰","STREET":"大灣東路","SECT":" ","MAREA":" ","LANE":" ","ALLEY":" ","HOUSE_NO":"６０５號","E_COORD97":175456.67000000001,"N_COORD97":2544873.9199999999,"ADDRESS":"大灣東路６０５號","OBJECTID":583034},"geometry":{"x":175456.66999999993,"y":2544873.9200000018}},{"attributes":{"ID":583062,"DIS_CODE":0,"TOWNNAME":"永康區","LI":"大橋里","LIN":"10鄰","STREET":"大橋三街","SECT":" ","MAREA":" ","LANE":" ","ALLEY":" ","HOUSE_NO":"２５４號","E_COORD97":171008.64999999999,"N_COORD97":2546859.48,"ADDRESS":"大橋三街２５４號","OBJECTID":583035},"geometry":{"x":171008.6500000013,"y":2546859.4800000042}},{"attributes":{"ID":583063,"DIS_CODE":0,"TOWNNAME":"善化區","LI":"文昌里","LIN":"16鄰","STREET":"大同路","SECT":" ","MAREA":" ","LANE":" ","ALLEY":" ","HOUSE_NO":"１２６號","E_COORD97":177500.79999999999,"N_COORD97":2558606.7799999998,"ADDRESS":"大同路１２６號","OBJECTID":583036},"geometry":{"x":177500.80000000168,"y":2558606.7799999975}},{"attributes":{"ID":583064,"DIS_CODE":0,"TOWNNAME":"善化區","LI":"文昌里","LIN":"16鄰","STREET":"大同路","SECT":" ","MAREA":" ","LANE":" ","ALLEY":" ","HOUSE_NO":"１２８號","E_COORD97":177498.22,"N_COORD97":2558610.0600000001,"ADDRESS":"大同路１２８號","OBJECTID":583037},"geometry":{"x":177498.22000000067,"y":2558610.0600000042}},{"attributes":{"ID":583065,"DIS_CODE":0,"TOWNNAME":"善化區","LI":"光文里","LIN":"16鄰","STREET":"中山路","SECT":" ","MAREA":" ","LANE":" ","ALLEY":" ","HOUSE_NO":"１９７之１號","E_COORD97":178297.39999999999,"N_COORD97":2559117.8700000001,"ADDRESS":"中山路１９７之１號","OBJECTID":583038},"geometry":{"x":178297.40000000224,"y":2559117.8700000029}},{"attributes":{"ID":583066,"DIS_CODE":0,"TOWNNAME":"永康區","LI":"大灣里","LIN":"24鄰","STREET":"民族路","SECT":" ","MAREA":" ","LANE":" ","ALLEY":" ","HOUSE_NO":"３２１號","E_COORD97":175025.44,"N_COORD97":2545151.1099999999,"ADDRESS":"民族路３２１號","OBJECTID":583039},"geometry":{"x":175025.44000000227,"y":2545151.1099999994}},{"attributes":{"ID":583067,"DIS_CODE":0,"TOWNNAME":"永康區","LI":"大橋里","LIN":"24鄰","STREET":"大橋二街","SECT":" ","MAREA":" ","LANE":" ","ALLEY":" ","HOUSE_NO":"２０４號","E_COORD97":171135.32000000001,"N_COORD97":2546801.4199999999,"ADDRESS":"大橋二街２０４號","OBJECTID":583040},"geometry":{"x":171135.3200000003,"y":2546801.4200000037}},{"attributes":{"ID":583068,"DIS_CODE":0,"TOWNNAME":"永康區","LI":"大橋里","LIN":"6鄰","STREET":"大橋五街","SECT":" ","MAREA":" ","LANE":" ","ALLEY":" ","HOUSE_NO":"４０號","E_COORD97":170838.10999999999,"N_COORD97":2546883.8300000001,"ADDRESS":"大橋五街４０號","OBJECTID":583041},"geometry":{"x":170838.11000000034,"y":2546883.8300000038}},{"attributes":{"ID":583069,"DIS_CODE":0,"TOWNNAME":"永康區","LI":"大橋里","LIN":"28鄰","STREET":"中華路","SECT":" ","MAREA":" ","LANE":" ","ALLEY":" ","HOUSE_NO":"６５０號","E_COORD97":171087.25,"N_COORD97":2546125,"ADDRESS":"中華路６５０號","OBJECTID":583042},"geometry":{"x":171087.25000000093,"y":2546125}},{"attributes":{"ID":583070,"DIS_CODE":0,"TOWNNAME":"永康區","LI":"大灣里","LIN":"29鄰","STREET":"文賢街","SECT":" ","MAREA":" ","LANE":" ","ALLEY":" ","HOUSE_NO":"２１號","E_COORD97":175267.47,"N_COORD97":2544966.6899999999,"ADDRESS":"文賢街２１號","OBJECTID":583043},"geometry":{"x":175267.47000000067,"y":2544966.6899999995}},{"attributes":{"ID":583071,"DIS_CODE":0,"TOWNNAME":"中西區","LI":"光賢里","LIN":"16鄰","STREET":"武聖路","SECT":" ","MAREA":" ","LANE":" ","ALLEY":" ","HOUSE_NO":"１５３號","E_COORD97":167030.10000000001,"N_COORD97":2545182.6600000001,"ADDRESS":"武聖路１５３號","OBJECTID":583044},"geometry":{"x":167030.09999999963,"y":2545182.6599999983}},{"attributes":{"ID":583072,"DIS_CODE":0,"TOWNNAME":"中西區","LI":"光賢里","LIN":"16鄰","STREET":"武聖路","SECT":" ","MAREA":" ","LANE":" ","ALLEY":" ","HOUSE_NO":"１５７號","E_COORD97":167026.64999999999,"N_COORD97":2545187.1000000001,"ADDRESS":"武聖路１５７號","OBJECTID":583045},"geometry":{"x":167026.6500000013,"y":2545187.1000000015}},{"attributes":{"ID":583073,"DIS_CODE":0,"TOWNNAME":"中西區","LI":"光賢里","LIN":"16鄰","STREET":"武聖路","SECT":" ","MAREA":" ","LANE":" ","ALLEY":" ","HOUSE_NO":"１５９號","E_COORD97":167022.45000000001,"N_COORD97":2545190.5499999998,"ADDRESS":"武聖路１５９號","OBJECTID":583046},"geometry":{"x":167022.45000000112,"y":2545190.5500000007}},{"attributes":{"ID":583074,"DIS_CODE":0,"TOWNNAME":"中西區","LI":"光賢里","LIN":"16鄰","STREET":"武聖路","SECT":" ","MAREA":" ","LANE":" ","ALLEY":" ","HOUSE_NO":"１６１號","E_COORD97":167010.60999999999,"N_COORD97":2545192.27,"ADDRESS":"武聖路１６１號","OBJECTID":583047},"geometry":{"x":167010.61000000034,"y":2545192.2700000014}},{"attributes":{"ID":583075,"DIS_CODE":0,"TOWNNAME":"中西區","LI":"光賢里","LIN":"16鄰","STREET":"武聖路","SECT":" ","MAREA":" ","LANE":" ","ALLEY":" ","HOUSE_NO":"１６３號","E_COORD97":167006.67000000001,"N_COORD97":2545194.7400000002,"ADDRESS":"武聖路１６３號","OBJECTID":583048},"geometry":{"x":167006.66999999899,"y":2545194.7400000002}},{"attributes":{"ID":583076,"DIS_CODE":0,"TOWNNAME":"中西區","LI":"光賢里","LIN":"16鄰","STREET":"武聖路","SECT":" ","MAREA":" ","LANE":" ","ALLEY":" ","HOUSE_NO":"１６５號","E_COORD97":167003.45999999999,"N_COORD97":2545199.1699999999,"ADDRESS":"武聖路１６５號","OBJECTID":583049},"geometry":{"x":167003.46000000089,"y":2545199.1699999999}},{"attributes":{"ID":583077,"DIS_CODE":0,"TOWNNAME":"中西區","LI":"光賢里","LIN":"16鄰","STREET":"武聖路","SECT":" ","MAREA":" ","LANE":" ","ALLEY":" ","HOUSE_NO":"１６７號","E_COORD97":166997.54000000001,"N_COORD97":2545199.6600000001,"ADDRESS":"武聖路１６７號","OBJECTID":583050},"geometry":{"x":166997.53999999911,"y":2545199.6600000039}},{"attributes":{"ID":583078,"DIS_CODE":0,"TOWNNAME":"中西區","LI":"光賢里","LIN":"16鄰","STREET":"武聖路","SECT":" ","MAREA":" ","LANE":" ","ALLEY":" ","HOUSE_NO":"１６９號","E_COORD97":166994.32999999999,"N_COORD97":2545203.3599999999,"ADDRESS":"武聖路１６９號","OBJECTID":583051},"geometry":{"x":166994.33000000101,"y":2545203.3599999994}},{"attributes":{"ID":583079,"DIS_CODE":0,"TOWNNAME":"中西區","LI":"光賢里","LIN":"16鄰","STREET":"武聖路","SECT":" ","MAREA":" ","LANE":" ","ALLEY":" ","HOUSE_NO":"１７１號","E_COORD97":166987.67000000001,"N_COORD97":2545200.6499999999,"ADDRESS":"武聖路１７１號","OBJECTID":583052},"geometry":{"x":166987.66999999993,"y":2545200.6500000022}},{"attributes":{"ID":583080,"DIS_CODE":0,"TOWNNAME":"中西區","LI":"光賢里","LIN":"16鄰","STREET":"武聖路","SECT":" ","MAREA":" ","LANE":" ","ALLEY":" ","HOUSE_NO":"１７３號","E_COORD97":166984.22,"N_COORD97":2545205.0800000001,"ADDRESS":"武聖路１７３號","OBJECTID":583053},"geometry":{"x":166984.2200000016,"y":2545205.0800000019}},{"attributes":{"ID":583081,"DIS_CODE":0,"TOWNNAME":"中西區","LI":"光賢里","LIN":"16鄰","STREET":"武聖路","SECT":" ","MAREA":" ","LANE":" ","ALLEY":" ","HOUSE_NO":"１７５號","E_COORD97":166980.26999999999,"N_COORD97":2545207.5499999998,"ADDRESS":"武聖路１７５號","OBJECTID":583054},"geometry":{"x":166980.27000000142,"y":2545207.5500000007}},{"attributes":{"ID":583082,"DIS_CODE":0,"TOWNNAME":"中西區","LI":"光賢里","LIN":"16鄰","STREET":"武聖路","SECT":" ","MAREA":" ","LANE":" ","ALLEY":" ","HOUSE_NO":"１７７號","E_COORD97":166977.56,"N_COORD97":2545212.4700000002,"ADDRESS":"武聖路１７７號","OBJECTID":583055},"geometry":{"x":166977.55999999959,"y":2545212.4700000025}},{"attributes":{"ID":583083,"DIS_CODE":0,"TOWNNAME":"中西區","LI":"光賢里","LIN":"16鄰","STREET":"武聖路","SECT":" ","MAREA":" ","LANE":" ","ALLEY":" ","HOUSE_NO":"１７９號","E_COORD97":166972.87,"N_COORD97":2545213.46,"ADDRESS":"武聖路１７９號","OBJECTID":583056},"geometry":{"x":166972.87000000011,"y":2545213.4600000028}},{"attributes":{"ID":583084,"DIS_CODE":0,"TOWNNAME":"中西區","LI":"光賢里","LIN":"16鄰","STREET":"武聖路","SECT":" ","MAREA":" ","LANE":" ","ALLEY":" ","HOUSE_NO":"１８１號","E_COORD97":166968.42999999999,"N_COORD97":2545216.4199999999,"ADDRESS":"武聖路１８１號","OBJECTID":583057},"geometry":{"x":166968.4299999997,"y":2545216.4200000018}},{"attributes":{"ID":583085,"DIS_CODE":0,"TOWNNAME":"中西區","LI":"光賢里","LIN":"16鄰","STREET":"武聖路","SECT":" ","MAREA":" ","LANE":" ","ALLEY":" ","HOUSE_NO":"１８３號","E_COORD97":166962.76000000001,"N_COORD97":2545215.4300000002,"ADDRESS":"武聖路１８３號","OBJECTID":583058},"geometry":{"x":166962.76000000071,"y":2545215.4300000016}},{"attributes":{"ID":583086,"DIS_CODE":0,"TOWNNAME":"中西區","LI":"光賢里","LIN":"16鄰","STREET":"武聖路","SECT":" ","MAREA":" ","LANE":" ","ALLEY":" ","HOUSE_NO":"１８７號","E_COORD97":166955.35999999999,"N_COORD97":2545223.3199999998,"ADDRESS":"武聖路１８７號","OBJECTID":583059},"geometry":{"x":166955.36000000127,"y":2545223.3200000022}},{"attributes":{"ID":583087,"DIS_CODE":0,"TOWNNAME":"中西區","LI":"光賢里","LIN":"16鄰","STREET":"武聖路","SECT":" ","MAREA":" ","LANE":" ","ALLEY":" ","HOUSE_NO":"１８９號","E_COORD97":166950.42000000001,"N_COORD97":2545224.0499999998,"ADDRESS":"武聖路１８９號","OBJECTID":583060},"geometry":{"x":166950.41999999993,"y":2545224.0500000007}},{"attributes":{"ID":583088,"DIS_CODE":0,"TOWNNAME":"中西區","LI":"光賢里","LIN":"16鄰","STREET":"武聖路","SECT":" ","MAREA":" ","LANE":" ","ALLEY":" ","HOUSE_NO":"１９１號","E_COORD97":166946.23000000001,"N_COORD97":2545227.5,"ADDRESS":"武聖路１９１號","OBJECTID":583061},"geometry":{"x":166946.23000000138,"y":2545227.5}},{"attributes":{"ID":583089,"DIS_CODE":0,"TOWNNAME":"中西區","LI":"光賢里","LIN":"16鄰","STREET":"武聖路","SECT":" ","MAREA":" ","LANE":" ","ALLEY":" ","HOUSE_NO":"１９３號","E_COORD97":166942.04000000001,"N_COORD97":2545231.6899999999,"ADDRESS":"武聖路１９３號","OBJECTID":583062},"geometry":{"x":166942.04000000097,"y":2545231.6899999995}},{"attributes":{"ID":583090,"DIS_CODE":0,"TOWNNAME":"中西區","LI":"光賢里","LIN":"16鄰","STREET":"武聖路","SECT":" ","MAREA":" ","LANE":" ","ALLEY":" ","HOUSE_NO":"１９５號","E_COORD97":166934.64000000001,"N_COORD97":2545229.4700000002,"ADDRESS":"武聖路１９５號","OBJECTID":583063},"geometry":{"x":166934.6400000006,"y":2545229.4700000025}},{"attributes":{"ID":583091,"DIS_CODE":0,"TOWNNAME":"永康區","LI":"中興里","LIN":"26鄰","STREET":"中山東路","SECT":" ","MAREA":" ","LANE":" ","ALLEY":" ","HOUSE_NO":"３９２號","E_COORD97":171905.45999999999,"N_COORD97":2545225.9900000002,"ADDRESS":"中山東路３９２號","OBJECTID":583064},"geometry":{"x":171905.45999999996,"y":2545225.9900000021}},{"attributes":{"ID":583092,"DIS_CODE":0,"TOWNNAME":"永康區","LI":"大橋里","LIN":"4鄰","STREET":"大橋五街","SECT":" ","MAREA":" ","LANE":" ","ALLEY":" ","HOUSE_NO":"２９號","E_COORD97":170816.85000000001,"N_COORD97":2546895.4900000002,"ADDRESS":"大橋五街２９號","OBJECTID":583065},"geometry":{"x":170816.85000000056,"y":2546895.4900000002}},{"attributes":{"ID":583093,"DIS_CODE":0,"TOWNNAME":"鹽水區","LI":"橋南里","LIN":"8鄰","STREET":"南太路","SECT":" ","MAREA":" ","LANE":" ","ALLEY":" ","HOUSE_NO":"６號","E_COORD97":175386.38,"N_COORD97":2578896.2599999998,"ADDRESS":"南太路６號","OBJECTID":583066},"geometry":{"x":175386.38000000175,"y":2578896.2600000016}},{"attributes":{"ID":583094,"DIS_CODE":0,"TOWNNAME":"永康區","LI":"三民里","LIN":"14鄰","STREET":"中正北路","SECT":" ","MAREA":" ","LANE":" ","ALLEY":" ","HOUSE_NO":"９１０號","E_COORD97":175285.29000000001,"N_COORD97":2550349.25,"ADDRESS":"中正北路９１０號","OBJECTID":583067},"geometry":{"x":175285.28999999911,"y":2550349.2500000037}},{"attributes":{"ID":583095,"DIS_CODE":0,"TOWNNAME":"永康區","LI":"大灣里","LIN":"12鄰","STREET":"民族路","SECT":" ","MAREA":" ","LANE":" ","ALLEY":" ","HOUSE_NO":"３２２號","E_COORD97":174919.04000000001,"N_COORD97":2545304.4300000002,"ADDRESS":"民族路３２２號","OBJECTID":583068},"geometry":{"x":174919.04000000004,"y":2545304.4299999997}},{"attributes":{"ID":583096,"DIS_CODE":0,"TOWNNAME":"永康區","LI":"大灣里","LIN":"10鄰","STREET":"大灣路","SECT":" ","MAREA":" ","LANE":" ","ALLEY":" ","HOUSE_NO":"１６６號","E_COORD97":175058.06,"N_COORD97":2545489.1499999999,"ADDRESS":"大灣路１６６號","OBJECTID":583069},"geometry":{"x":175058.06000000052,"y":2545489.1500000022}},{"attributes":{"ID":583097,"DIS_CODE":0,"TOWNNAME":"永康區","LI":"大橋里","LIN":"28鄰","STREET":"中華路","SECT":" ","MAREA":" ","LANE":" ","ALLEY":" ","HOUSE_NO":"６５６號","E_COORD97":171080.14000000001,"N_COORD97":2546137.75,"ADDRESS":"中華路６５６號","OBJECTID":583070},"geometry":{"x":171080.13999999873,"y":2546137.75}},{"attributes":{"ID":583098,"DIS_CODE":0,"TOWNNAME":"永康區","LI":"大灣里","LIN":"16鄰","STREET":"大灣五街","SECT":" ","MAREA":" ","LANE":" ","ALLEY":" ","HOUSE_NO":"１５之３號","E_COORD97":174808.89999999999,"N_COORD97":2545194.3199999998,"ADDRESS":"大灣五街１５之３號","OBJECTID":583071},"geometry":{"x":174808.9000000013,"y":2545194.3200000003}},{"attributes":{"ID":583099,"DIS_CODE":0,"TOWNNAME":"新市區","LI":"港墘里","LIN":"16鄰","STREET":"長安街","SECT":" ","MAREA":" ","LANE":" ","ALLEY":" ","HOUSE_NO":"６０號","E_COORD97":178214.01999999999,"N_COORD97":2552665.3199999998,"ADDRESS":"長安街６０號","OBJECTID":583072},"geometry":{"x":178214.01999999955,"y":2552665.3200000022}},{"attributes":{"ID":583100,"DIS_CODE":0,"TOWNNAME":"白河區","LI":"永安里","LIN":"16鄰","STREET":"新生路","SECT":" ","MAREA":" ","LANE":" ","ALLEY":" ","HOUSE_NO":"１７號","E_COORD97":190093,"N_COORD97":2583205.8700000001,"ADDRESS":"新生路１７號","OBJECTID":583073},"geometry":{"x":190092.99999999907,"y":2583205.8700000029}},{"attributes":{"ID":583101,"DIS_CODE":0,"TOWNNAME":"永康區","LI":"大橋里","LIN":"11鄰","STREET":"大橋二街","SECT":" ","MAREA":" ","LANE":" ","ALLEY":" ","HOUSE_NO":"１８９號","E_COORD97":170990.56,"N_COORD97":2546727.25,"ADDRESS":"大橋二街１８９號","OBJECTID":583074},"geometry":{"x":170990.55999999959,"y":2546727.25}},{"attributes":{"ID":583102,"DIS_CODE":0,"TOWNNAME":"永康區","LI":"大橋里","LIN":"5鄰","STREET":"大橋五街","SECT":" ","MAREA":" ","LANE":" ","ALLEY":" ","HOUSE_NO":"１８之１號","E_COORD97":170794.20999999999,"N_COORD97":2546848.1499999999,"ADDRESS":"大橋五街１８之１號","OBJECTID":583075},"geometry":{"x":170794.21000000089,"y":2546848.1500000022}},{"attributes":{"ID":583103,"DIS_CODE":0,"TOWNNAME":"永康區","LI":"大橋里","LIN":"5鄰","STREET":"大橋五街","SECT":" ","MAREA":" ","LANE":" ","ALLEY":" ","HOUSE_NO":"２０之２號","E_COORD97":170809.20000000001,"N_COORD97":2546851.7999999998,"ADDRESS":"大橋五街２０之２號","OBJECTID":583076},"geometry":{"x":170809.20000000205,"y":2546851.8000000026}},{"attributes":{"ID":583104,"DIS_CODE":0,"TOWNNAME":"永康區","LI":"大橋里","LIN":"30鄰","STREET":"大橋一街","SECT":" ","MAREA":" ","LANE":" ","ALLEY":" ","HOUSE_NO":"２８６號","E_COORD97":171160.89999999999,"N_COORD97":2546563.4900000002,"ADDRESS":"大橋一街２８６號","OBJECTID":583077},"geometry":{"x":171160.9000000013,"y":2546563.4900000002}},{"attributes":{"ID":583105,"DIS_CODE":0,"TOWNNAME":"永康區","LI":"大灣里","LIN":"22鄰","STREET":"民族路","SECT":" ","MAREA":" ","LANE":" ","ALLEY":" ","HOUSE_NO":"２７８號","E_COORD97":175000.22,"N_COORD97":2545217.96,"ADDRESS":"民族路２７８號","OBJECTID":583078},"geometry":{"x":175000.21999999974,"y":2545217.9600000009}},{"attributes":{"ID":583106,"DIS_CODE":0,"TOWNNAME":"永康區","LI":"大灣里","LIN":"5鄰","STREET":"大民街","SECT":" ","MAREA":" ","LANE":" ","ALLEY":" ","HOUSE_NO":"１３９號","E_COORD97":174924.79000000001,"N_COORD97":2545640.7799999998,"ADDRESS":"大民街１３９號","OBJECTID":583079},"geometry":{"x":174924.79000000097,"y":2545640.7799999993}},{"attributes":{"ID":583107,"DIS_CODE":0,"TOWNNAME":"永康區","LI":"大橋里","LIN":"28鄰","STREET":"中華路","SECT":" ","MAREA":" ","LANE":" ","ALLEY":" ","HOUSE_NO":"６１８號","E_COORD97":171170.41,"N_COORD97":2546071.2400000002,"ADDRESS":"中華路６１８號","OBJECTID":583080},"geometry":{"x":171170.40999999922,"y":2546071.2400000021}},{"attributes":{"ID":583108,"DIS_CODE":0,"TOWNNAME":"永康區","LI":"大灣里","LIN":"23鄰","STREET":"民族路","SECT":" ","MAREA":" ","LANE":" ","ALLEY":" ","HOUSE_NO":"３４９號","E_COORD97":174990.89999999999,"N_COORD97":2545198.8999999999,"ADDRESS":"民族路３４９號","OBJECTID":583081},"geometry":{"x":174990.90000000037,"y":2545198.9000000022}},{"attributes":{"ID":583109,"DIS_CODE":0,"TOWNNAME":"永康區","LI":"大灣里","LIN":"16鄰","STREET":"大灣五街","SECT":" ","MAREA":" ","LANE":" ","ALLEY":" ","HOUSE_NO":"１號","E_COORD97":174841.57000000001,"N_COORD97":2545181.25,"ADDRESS":"大灣五街１號","OBJECTID":583082},"geometry":{"x":174841.57000000123,"y":2545181.25}},{"attributes":{"ID":583110,"DIS_CODE":0,"TOWNNAME":"永康區","LI":"大橋里","LIN":"11鄰","STREET":"大橋二街","SECT":" ","MAREA":" ","LANE":" ","ALLEY":" ","HOUSE_NO":"１７３號","E_COORD97":170963.06,"N_COORD97":2546708.7400000002,"ADDRESS":"大橋二街１７３號","OBJECTID":583083},"geometry":{"x":170963.05999999959,"y":2546708.7400000021}},{"attributes":{"ID":583111,"DIS_CODE":0,"TOWNNAME":"永康區","LI":"三民里","LIN":"14鄰","STREET":"中正北路","SECT":" ","MAREA":" ","LANE":" ","ALLEY":" ","HOUSE_NO":"９４８號之６","E_COORD97":175589.95999999999,"N_COORD97":2550605.54,"ADDRESS":"中正北路９４８號之６","OBJECTID":583084},"geometry":{"x":175589.96000000089,"y":2550605.5399999991}},{"attributes":{"ID":583112,"DIS_CODE":0,"TOWNNAME":"永康區","LI":"大橋里","LIN":"8鄰","STREET":"大橋三街","SECT":" ","MAREA":" ","LANE":" ","ALLEY":" ","HOUSE_NO":"２０１號","E_COORD97":170874.53,"N_COORD97":2546789.7999999998,"ADDRESS":"大橋三街２０１號","OBJECTID":583085},"geometry":{"x":170874.53000000026,"y":2546789.8000000045}},{"attributes":{"ID":583113,"DIS_CODE":0,"TOWNNAME":"永康區","LI":"大橋里","LIN":"1鄰","STREET":"中華路","SECT":" ","MAREA":" ","LANE":" ","ALLEY":" ","HOUSE_NO":"８９２號","E_COORD97":170568.57000000001,"N_COORD97":2546651,"ADDRESS":"中華路８９２號","OBJECTID":583086},"geometry":{"x":170568.57000000123,"y":2546651}},{"attributes":{"ID":583114,"DIS_CODE":0,"TOWNNAME":"永康區","LI":"大橋里","LIN":"10鄰","STREET":"大橋三街","SECT":" ","MAREA":" ","LANE":" ","ALLEY":" ","HOUSE_NO":"２１０號","E_COORD97":170876.04999999999,"N_COORD97":2546775.2400000002,"ADDRESS":"大橋三街２１０號","OBJECTID":583087},"geometry":{"x":170876.05000000075,"y":2546775.2400000002}},{"attributes":{"ID":583115,"DIS_CODE":0,"TOWNNAME":"永康區","LI":"大橋里","LIN":"23鄰","STREET":"大橋一街","SECT":" ","MAREA":" ","LANE":" ","ALLEY":" ","HOUSE_NO":"１８５號","E_COORD97":171151.17999999999,"N_COORD97":2546569.9900000002,"ADDRESS":"大橋一街１８５號","OBJECTID":583088},"geometry":{"x":171151.18000000156,"y":2546569.9900000002}},{"attributes":{"ID":583116,"DIS_CODE":0,"TOWNNAME":"永康區","LI":"大灣里","LIN":"25鄰","STREET":"民族路","SECT":" ","MAREA":" ","LANE":" ","ALLEY":" ","HOUSE_NO":"２３４號","E_COORD97":175060.38,"N_COORD97":2545146.8399999999,"ADDRESS":"民族路２３４號","OBJECTID":583089},"geometry":{"x":175060.37999999989,"y":2545146.8399999999}},{"attributes":{"ID":583117,"DIS_CODE":0,"TOWNNAME":"永康區","LI":"大橋里","LIN":"28鄰","STREET":"中華路","SECT":" ","MAREA":" ","LANE":" ","ALLEY":" ","HOUSE_NO":"７５６號","E_COORD97":170914.82000000001,"N_COORD97":2546377.9900000002,"ADDRESS":"中華路７５６號","OBJECTID":583090},"geometry":{"x":170914.8200000003,"y":2546377.9900000021}},{"attributes":{"ID":583118,"DIS_CODE":0,"TOWNNAME":"新市區","LI":"永就里","LIN":"16鄰","STREET":"永華二街","SECT":" ","MAREA":" ","LANE":" ","ALLEY":" ","HOUSE_NO":"２６號","E_COORD97":177618.76000000001,"N_COORD97":2551030.5,"ADDRESS":"永華二街２６號","OBJECTID":583091},"geometry":{"x":177618.75999999978,"y":2551030.5}},{"attributes":{"ID":583119,"DIS_CODE":0,"TOWNNAME":"永康區","LI":"大灣里","LIN":"5鄰","STREET":"大同街","SECT":" ","MAREA":" ","LANE":" ","ALLEY":" ","HOUSE_NO":"１５９號","E_COORD97":174810.94,"N_COORD97":2545620.1200000001,"ADDRESS":"大同街１５９號","OBJECTID":583092},"geometry":{"x":174810.94000000134,"y":2545620.120000001}},{"attributes":{"ID":583120,"DIS_CODE":0,"TOWNNAME":"永康區","LI":"大灣里","LIN":"5鄰","STREET":"大民街","SECT":" ","MAREA":" ","LANE":" ","ALLEY":" ","HOUSE_NO":"１２５號","E_COORD97":174931.82000000001,"N_COORD97":2545611.1000000001,"ADDRESS":"大民街１２５號","OBJECTID":583093},"geometry":{"x":174931.82000000123,"y":2545611.1000000015}},{"attributes":{"ID":583121,"DIS_CODE":0,"TOWNNAME":"永康區","LI":"五王里","LIN":"41鄰","STREET":"中山南路","SECT":" ","MAREA":" ","LANE":" ","ALLEY":" ","HOUSE_NO":"２２２號","E_COORD97":171414.14999999999,"N_COORD97":2546054.7400000002,"ADDRESS":"中山南路２２２號","OBJECTID":583094},"geometry":{"x":171414.15000000037,"y":2546054.7400000021}},{"attributes":{"ID":583122,"DIS_CODE":0,"TOWNNAME":"永康區","LI":"大灣里","LIN":"1鄰","STREET":"大安街","SECT":" ","MAREA":" ","LANE":" ","ALLEY":" ","HOUSE_NO":"４１２號","E_COORD97":174637.98999999999,"N_COORD97":2545775.6699999999,"ADDRESS":"大安街４１２號","OBJECTID":583095},"geometry":{"x":174637.99000000022,"y":2545775.6699999981}},{"attributes":{"ID":583123,"DIS_CODE":0,"TOWNNAME":"永康區","LI":"大橋里","LIN":"28鄰","STREET":"中華路","SECT":" ","MAREA":" ","LANE":" ","ALLEY":" ","HOUSE_NO":"７３６號","E_COORD97":170941.35000000001,"N_COORD97":2546346.25,"ADDRESS":"中華路７３６號","OBJECTID":583096},"geometry":{"x":170941.3499999987,"y":2546346.2500000019}},{"attributes":{"ID":583124,"DIS_CODE":0,"TOWNNAME":"永康區","LI":"大橋里","LIN":"28鄰","STREET":"中華路","SECT":" ","MAREA":" ","LANE":" ","ALLEY":" ","HOUSE_NO":"６９４號","E_COORD97":171010.67999999999,"N_COORD97":2546261.4100000001,"ADDRESS":"中華路６９４號","OBJECTID":583097},"geometry":{"x":171010.68000000063,"y":2546261.4100000001}},{"attributes":{"ID":583125,"DIS_CODE":0,"TOWNNAME":"永康區","LI":"五王里","LIN":"40鄰","STREET":"中山南路","SECT":" ","MAREA":" ","LANE":" ","ALLEY":" ","HOUSE_NO":"１６４號底二層","E_COORD97":171285.06,"N_COORD97":2546011.5099999998,"ADDRESS":"中山南路１６４號底二層","OBJECTID":583098},"geometry":{"x":171285.05999999959,"y":2546011.5100000016}},{"attributes":{"ID":583126,"DIS_CODE":0,"TOWNNAME":"永康區","LI":"大橋里","LIN":"8鄰","STREET":"大橋三街","SECT":" ","MAREA":" ","LANE":" ","ALLEY":" ","HOUSE_NO":"２１５號之５","E_COORD97":174380.07000000001,"N_COORD97":2547362.4500000002,"ADDRESS":"大橋三街２１５號之５","OBJECTID":583099},"geometry":{"x":174380.0700000003,"y":2547362.4499999993}},{"attributes":{"ID":583127,"DIS_CODE":0,"TOWNNAME":"永康區","LI":"大橋里","LIN":"18鄰","STREET":"大橋二街","SECT":" ","MAREA":" ","LANE":" ","ALLEY":" ","HOUSE_NO":"１７４號","E_COORD97":171091.89000000001,"N_COORD97":2546743.3599999999,"ADDRESS":"大橋二街１７４號","OBJECTID":583100},"geometry":{"x":171091.88999999966,"y":2546743.3599999994}},{"attributes":{"ID":583128,"DIS_CODE":0,"TOWNNAME":"永康區","LI":"大橋里","LIN":"1鄰","STREET":"中華路","SECT":" ","MAREA":" ","LANE":" ","ALLEY":" ","HOUSE_NO":"８９８號","E_COORD97":170558.48000000001,"N_COORD97":2546658.5,"ADDRESS":"中華路８９８號","OBJECTID":583101},"geometry":{"x":170558.48000000231,"y":2546658.5000000037}},{"attributes":{"ID":583129,"DIS_CODE":0,"TOWNNAME":"永康區","LI":"大橋里","LIN":"10鄰","STREET":"大橋三街","SECT":" ","MAREA":" ","LANE":" ","ALLEY":" ","HOUSE_NO":"２０８號","E_COORD97":170872.62,"N_COORD97":2546772.9900000002,"ADDRESS":"大橋三街２０８號","OBJECTID":583102},"geometry":{"x":170872.62000000104,"y":2546772.9900000002}},{"attributes":{"ID":583130,"DIS_CODE":0,"TOWNNAME":"新市區","LI":"新和里","LIN":"16鄰","STREET":"可口街","SECT":" ","MAREA":" ","LANE":" ","ALLEY":" ","HOUSE_NO":"７０號","E_COORD97":177620.42000000001,"N_COORD97":2552550.5,"ADDRESS":"可口街７０號","OBJECTID":583103},"geometry":{"x":177620.42000000179,"y":2552550.5}},{"attributes":{"ID":583131,"DIS_CODE":0,"TOWNNAME":"新市區","LI":"新和里","LIN":"16鄰","STREET":"可口街","SECT":" ","MAREA":" ","LANE":" ","ALLEY":" ","HOUSE_NO":"６６號","E_COORD97":177618.82000000001,"N_COORD97":2552543,"ADDRESS":"可口街６６號","OBJECTID":583104},"geometry":{"x":177618.82000000123,"y":2552543}},{"attributes":{"ID":583132,"DIS_CODE":0,"TOWNNAME":"新市區","LI":"新和里","LIN":"16鄰","STREET":"可口街","SECT":" ","MAREA":" ","LANE":" ","ALLEY":" ","HOUSE_NO":"４９號","E_COORD97":177603.73000000001,"N_COORD97":2552525.5,"ADDRESS":"可口街４９號","OBJECTID":583105},"geometry":{"x":177603.73000000138,"y":2552525.5000000019}},{"attributes":{"ID":583133,"DIS_CODE":0,"TOWNNAME":"新市區","LI":"新和里","LIN":"16鄰","STREET":"可口街","SECT":" ","MAREA":" ","LANE":" ","ALLEY":" ","HOUSE_NO":"５４號","E_COORD97":177614.01000000001,"N_COORD97":2552519,"ADDRESS":"可口街５４號","OBJECTID":583106},"geometry":{"x":177614.00999999978,"y":2552519}},{"attributes":{"ID":583134,"DIS_CODE":0,"TOWNNAME":"永康區","LI":"大橋里","LIN":"16鄰","STREET":"大橋二街","SECT":" ","MAREA":" ","LANE":" ","ALLEY":" ","HOUSE_NO":"８６號","E_COORD97":170922.79000000001,"N_COORD97":2546635.75,"ADDRESS":"大橋二街８６號","OBJECTID":583107},"geometry":{"x":170922.79000000097,"y":2546635.75}},{"attributes":{"ID":583135,"DIS_CODE":0,"TOWNNAME":"永康區","LI":"大橋里","LIN":"16鄰","STREET":"大橋二街","SECT":" ","MAREA":" ","LANE":" ","ALLEY":" ","HOUSE_NO":"１０２號","E_COORD97":170931.54000000001,"N_COORD97":2546669.4900000002,"ADDRESS":"大橋二街１０２號","OBJECTID":583108},"geometry":{"x":170931.54000000004,"y":2546669.4900000021}},{"attributes":{"ID":583136,"DIS_CODE":0,"TOWNNAME":"永康區","LI":"大橋里","LIN":"11鄰","STREET":"大橋二街","SECT":" ","MAREA":" ","LANE":" ","ALLEY":" ","HOUSE_NO":"１６９號","E_COORD97":170956.06,"N_COORD97":2546703.9900000002,"ADDRESS":"大橋二街１６９號","OBJECTID":583109},"geometry":{"x":170956.06000000052,"y":2546703.9900000021}},{"attributes":{"ID":583137,"DIS_CODE":0,"TOWNNAME":"永康區","LI":"大橋里","LIN":"14鄰","STREET":"中華路","SECT":" ","MAREA":" ","LANE":" ","ALLEY":" ","HOUSE_NO":"７７２號","E_COORD97":170860.51999999999,"N_COORD97":2546433.75,"ADDRESS":"中華路７７２號","OBJECTID":583110},"geometry":{"x":170860.52000000142,"y":2546433.7500000019}},{"attributes":{"ID":583138,"DIS_CODE":0,"TOWNNAME":"永康區","LI":"大灣里","LIN":"30鄰","STREET":"大灣東路","SECT":" ","MAREA":" ","LANE":" ","ALLEY":" ","HOUSE_NO":"６０３號","E_COORD97":175452.64999999999,"N_COORD97":2544871.6699999999,"ADDRESS":"大灣東路６０３號","OBJECTID":583111},"geometry":{"x":175452.65000000037,"y":2544871.6700000018}},{"attributes":{"ID":583139,"DIS_CODE":0,"TOWNNAME":"永康區","LI":"大橋里","LIN":"28鄰","STREET":"中華路","SECT":" ","MAREA":" ","LANE":" ","ALLEY":" ","HOUSE_NO":"７４８號","E_COORD97":170943.42999999999,"N_COORD97":2546379.7400000002,"ADDRESS":"中華路７４８號","OBJECTID":583112},"geometry":{"x":170943.43000000063,"y":2546379.7400000021}},{"attributes":{"ID":583140,"DIS_CODE":0,"TOWNNAME":"永康區","LI":"大灣里","LIN":"28鄰","STREET":"文賢街","SECT":" ","MAREA":" ","LANE":" ","ALLEY":" ","HOUSE_NO":"４７號","E_COORD97":175296.37,"N_COORD97":2545043.5499999998,"ADDRESS":"文賢街４７號","OBJECTID":583113},"geometry":{"x":175296.37000000011,"y":2545043.5500000007}},{"attributes":{"ID":583141,"DIS_CODE":0,"TOWNNAME":"永康區","LI":"王行里","LIN":"16鄰","STREET":"中山北路","SECT":" ","MAREA":" ","LANE":" ","ALLEY":" ","HOUSE_NO":"８８３號","E_COORD97":176242.81,"N_COORD97":2548040.9500000002,"ADDRESS":"中山北路８８３號","OBJECTID":583114},"geometry":{"x":176242.81000000052,"y":2548040.9499999993}},{"attributes":{"ID":583142,"DIS_CODE":0,"TOWNNAME":"永康區","LI":"王行里","LIN":"16鄰","STREET":"中山北路","SECT":" ","MAREA":" ","LANE":" ","ALLEY":" ","HOUSE_NO":"６５１號","E_COORD97":175614.69,"N_COORD97":2547816.2999999998,"ADDRESS":"中山北路６５１號","OBJECTID":583115},"geometry":{"x":175614.69000000041,"y":2547816.3000000007}},{"attributes":{"ID":583143,"DIS_CODE":0,"TOWNNAME":"永康區","LI":"王行里","LIN":"16鄰","STREET":"中山北路","SECT":" ","MAREA":" ","LANE":" ","ALLEY":" ","HOUSE_NO":"７９５號","E_COORD97":176058.82000000001,"N_COORD97":2547938.0600000001,"ADDRESS":"中山北路７９５號","OBJECTID":583116},"geometry":{"x":176058.82000000123,"y":2547938.0600000024}},{"attributes":{"ID":583144,"DIS_CODE":0,"TOWNNAME":"永康區","LI":"王行里","LIN":"16鄰","STREET":"中山北路","SECT":" ","MAREA":" ","LANE":" ","ALLEY":" ","HOUSE_NO":"７７７號","E_COORD97":176000.72,"N_COORD97":2547924.4399999999,"ADDRESS":"中山北路７７７號","OBJECTID":583117},"geometry":{"x":176000.71999999974,"y":2547924.4400000013}},{"attributes":{"ID":583145,"DIS_CODE":0,"TOWNNAME":"永康區","LI":"王行里","LIN":"16鄰","STREET":"中山北路","SECT":" ","MAREA":" ","LANE":" ","ALLEY":" ","HOUSE_NO":"６９５號","E_COORD97":175715.38,"N_COORD97":2547844.2599999998,"ADDRESS":"中山北路６９５號","OBJECTID":583118},"geometry":{"x":175715.38000000082,"y":2547844.2600000016}},{"attributes":{"ID":583146,"DIS_CODE":0,"TOWNNAME":"永康區","LI":"王行里","LIN":"16鄰","STREET":"中山北路","SECT":" ","MAREA":" ","LANE":" ","ALLEY":" ","HOUSE_NO":"６３５號","E_COORD97":175559.48000000001,"N_COORD97":2547817.2400000002,"ADDRESS":"中山北路６３５號","OBJECTID":583119},"geometry":{"x":175559.48000000138,"y":2547817.2400000021}},{"attributes":{"ID":583147,"DIS_CODE":0,"TOWNNAME":"永康區","LI":"王行里","LIN":"16鄰","STREET":"中山北路","SECT":" ","MAREA":" ","LANE":" ","ALLEY":" ","HOUSE_NO":"６３３號","E_COORD97":175541.91,"N_COORD97":2547798.73,"ADDRESS":"中山北路６３３號","OBJECTID":583120},"geometry":{"x":175541.91000000015,"y":2547798.7300000004}},{"attributes":{"ID":583148,"DIS_CODE":0,"TOWNNAME":"永康區","LI":"王行里","LIN":"16鄰","STREET":"中山北路","SECT":" ","MAREA":" ","LANE":" ","ALLEY":" ","HOUSE_NO":"６９３號","E_COORD97":175701.22,"N_COORD97":2547868.7799999998,"ADDRESS":"中山北路６９３號","OBJECTID":583121},"geometry":{"x":175701.22000000067,"y":2547868.7799999993}},{"attributes":{"ID":583149,"DIS_CODE":0,"TOWNNAME":"永康區","LI":"王行里","LIN":"16鄰","STREET":"中山北路","SECT":" ","MAREA":" ","LANE":" ","ALLEY":" ","HOUSE_NO":"７０１號","E_COORD97":175753.76000000001,"N_COORD97":2547867.27,"ADDRESS":"中山北路７０１號","OBJECTID":583122},"geometry":{"x":175753.76000000071,"y":2547867.2700000014}},{"attributes":{"ID":583150,"DIS_CODE":0,"TOWNNAME":"永康區","LI":"王行里","LIN":"16鄰","STREET":"中山北路","SECT":" ","MAREA":" ","LANE":" ","ALLEY":" ","HOUSE_NO":"１０３３號","E_COORD97":176485.19,"N_COORD97":2548085.4700000002,"ADDRESS":"中山北路１０３３號","OBJECTID":583123},"geometry":{"x":176485.19000000134,"y":2548085.4700000007}},{"attributes":{"ID":583151,"DIS_CODE":0,"TOWNNAME":"永康區","LI":"王行里","LIN":"16鄰","STREET":"中山北路","SECT":" ","MAREA":" ","LANE":" ","ALLEY":" ","HOUSE_NO":"７６９號","E_COORD97":176099.79999999999,"N_COORD97":2547971.1600000001,"ADDRESS":"中山北路７６９號","OBJECTID":583124},"geometry":{"x":176099.79999999981,"y":2547971.160000002}},{"attributes":{"ID":583152,"DIS_CODE":0,"TOWNNAME":"永康區","LI":"王行里","LIN":"16鄰","STREET":"中山北路","SECT":" ","MAREA":" ","LANE":" ","ALLEY":" ","HOUSE_NO":"６６５號","E_COORD97":175640.78,"N_COORD97":2547825.2999999998,"ADDRESS":"中山北路６６５號","OBJECTID":583125},"geometry":{"x":175640.78000000119,"y":2547825.3000000026}},{"attributes":{"ID":583153,"DIS_CODE":0,"TOWNNAME":"永康區","LI":"王行里","LIN":"16鄰","STREET":"中山北路","SECT":" ","MAREA":" ","LANE":" ","ALLEY":" ","HOUSE_NO":"８０３號","E_COORD97":176173.73999999999,"N_COORD97":2547974,"ADDRESS":"中山北路８０３號","OBJECTID":583126},"geometry":{"x":176173.74000000022,"y":2547974.0000000037}},{"attributes":{"ID":583154,"DIS_CODE":0,"TOWNNAME":"永康區","LI":"大灣里","LIN":"16鄰","STREET":"大灣路","SECT":" ","MAREA":" ","LANE":" ","ALLEY":" ","HOUSE_NO":"３３８號","E_COORD97":174855.95999999999,"N_COORD97":2545158.23,"ADDRESS":"大灣路３３８號","OBJECTID":583127},"geometry":{"x":174855.96000000089,"y":2545158.2300000004}},{"attributes":{"ID":583155,"DIS_CODE":0,"TOWNNAME":"永康區","LI":"王行里","LIN":"16鄰","STREET":"中山北路","SECT":" ","MAREA":" ","LANE":" ","ALLEY":" ","HOUSE_NO":"６３９號","E_COORD97":175572.34,"N_COORD97":2547801.75,"ADDRESS":"中山北路６３９號","OBJECTID":583128},"geometry":{"x":175572.33999999985,"y":2547801.75}},{"attributes":{"ID":583156,"DIS_CODE":0,"TOWNNAME":"永康區","LI":"大橋里","LIN":"8鄰","STREET":"大橋三街","SECT":" ","MAREA":" ","LANE":" ","ALLEY":" ","HOUSE_NO":"２２９號之４","E_COORD97":170949.09,"N_COORD97":2546837.3300000001,"ADDRESS":"大橋三街２２９號之４","OBJECTID":583129},"geometry":{"x":170949.09000000078,"y":2546837.3300000019}},{"attributes":{"ID":583157,"DIS_CODE":0,"TOWNNAME":"永康區","LI":"大灣里","LIN":"10鄰","STREET":"大同街","SECT":" ","MAREA":" ","LANE":" ","ALLEY":" ","HOUSE_NO":"１１９之１號","E_COORD97":174956.94,"N_COORD97":2545529.7000000002,"ADDRESS":"大同街１１９之１號","OBJECTID":583130},"geometry":{"x":174956.94000000041,"y":2545529.6999999993}},{"attributes":{"ID":583158,"DIS_CODE":0,"TOWNNAME":"永康區","LI":"勝利里","LIN":"16鄰","STREET":"勝學路","SECT":" ","MAREA":" ","LANE":" ","ALLEY":" ","HOUSE_NO":"１２８號","E_COORD97":171176.69,"N_COORD97":2544920.4700000002,"ADDRESS":"勝學路１２８號","OBJECTID":583131},"geometry":{"x":171176.69000000041,"y":2544920.4700000044}},{"attributes":{"ID":583159,"DIS_CODE":0,"TOWNNAME":"永康區","LI":"勝利里","LIN":"16鄰","STREET":"勝學路","SECT":" ","MAREA":" ","LANE":" ","ALLEY":" ","HOUSE_NO":"１２６號","E_COORD97":171176.04000000001,"N_COORD97":2544914.2200000002,"ADDRESS":"勝學路１２６號","OBJECTID":583132},"geometry":{"x":171176.04000000004,"y":2544914.2200000007}},{"attributes":{"ID":583160,"DIS_CODE":0,"TOWNNAME":"永康區","LI":"大灣里","LIN":"5鄰","STREET":"大民街","SECT":" ","MAREA":" ","LANE":" ","ALLEY":" ","HOUSE_NO":"１４１號","E_COORD97":174924.09,"N_COORD97":2545644.7799999998,"ADDRESS":"大民街１４１號","OBJECTID":583133},"geometry":{"x":174924.09000000078,"y":2545644.7799999993}},{"attributes":{"ID":583161,"DIS_CODE":0,"TOWNNAME":"永康區","LI":"復國里","LIN":"16鄰","STREET":"復國二路","SECT":" ","MAREA":" ","LANE":" ","ALLEY":" ","HOUSE_NO":"２０８號","E_COORD97":172957.57999999999,"N_COORD97":2545830.1699999999,"ADDRESS":"復國二路２０８號","OBJECTID":583134},"geometry":{"x":172957.57999999914,"y":2545830.1700000037}},{"attributes":{"ID":583162,"DIS_CODE":0,"TOWNNAME":"永康區","LI":"大橋里","LIN":"26鄰","STREET":"大橋二街","SECT":" ","MAREA":" ","LANE":" ","ALLEY":" ","HOUSE_NO":"２３２號","E_COORD97":171204.48000000001,"N_COORD97":2546842.27,"ADDRESS":"大橋二街２３２號","OBJECTID":583135},"geometry":{"x":171204.48000000138,"y":2546842.2699999996}},{"attributes":{"ID":583163,"DIS_CODE":0,"TOWNNAME":"永康區","LI":"大灣里","LIN":"15鄰","STREET":"大民街","SECT":" ","MAREA":" ","LANE":" ","ALLEY":" ","HOUSE_NO":"２２號","E_COORD97":174800.39000000001,"N_COORD97":2545253.8500000001,"ADDRESS":"大民街２２號","OBJECTID":583136},"geometry":{"x":174800.38999999966,"y":2545253.8500000015}},{"attributes":{"ID":583164,"DIS_CODE":0,"TOWNNAME":"永康區","LI":"五王里","LIN":"31鄰","STREET":"中華路","SECT":" ","MAREA":" ","LANE":" ","ALLEY":" ","HOUSE_NO":"５２６號","E_COORD97":171230.39000000001,"N_COORD97":2545884.4100000001,"ADDRESS":"中華路５２６號","OBJECTID":583137},"geometry":{"x":171230.38999999966,"y":2545884.410000002}},{"attributes":{"ID":583165,"DIS_CODE":0,"TOWNNAME":"永康區","LI":"大橋里","LIN":"28鄰","STREET":"中華路","SECT":" ","MAREA":" ","LANE":" ","ALLEY":" ","HOUSE_NO":"７１８號","E_COORD97":170963.95000000001,"N_COORD97":2546322.77,"ADDRESS":"中華路７１８號","OBJECTID":583138},"geometry":{"x":170963.95000000112,"y":2546322.7699999996}},{"attributes":{"ID":583166,"DIS_CODE":0,"TOWNNAME":"白河區","LI":"永安里","LIN":"16鄰","STREET":"三義街","SECT":" ","MAREA":" ","LANE":" ","ALLEY":" ","HOUSE_NO":"２３號","E_COORD97":190008.60000000001,"N_COORD97":2583197.48,"ADDRESS":"三義街２３號","OBJECTID":583139},"geometry":{"x":190008.59999999963,"y":2583197.4800000042}},{"attributes":{"ID":583167,"DIS_CODE":0,"TOWNNAME":"白河區","LI":"永安里","LIN":"16鄰","STREET":"三義街","SECT":" ","MAREA":" ","LANE":" ","ALLEY":" ","HOUSE_NO":"２５號","E_COORD97":190015.26000000001,"N_COORD97":2583199.8999999999,"ADDRESS":"三義街２５號","OBJECTID":583140},"geometry":{"x":190015.26000000071,"y":2583199.9000000004}},{"attributes":{"ID":583168,"DIS_CODE":0,"TOWNNAME":"白河區","LI":"永安里","LIN":"16鄰","STREET":"三義街","SECT":" ","MAREA":" ","LANE":" ","ALLEY":" ","HOUSE_NO":"２７號","E_COORD97":190019.20999999999,"N_COORD97":2583204.8399999999,"ADDRESS":"三義街２７號","OBJECTID":583141},"geometry":{"x":190019.21000000089,"y":2583204.8400000017}},{"attributes":{"ID":583169,"DIS_CODE":0,"TOWNNAME":"白河區","LI":"永安里","LIN":"16鄰","STREET":"三義街","SECT":" ","MAREA":" ","LANE":" ","ALLEY":" ","HOUSE_NO":"３２號","E_COORD97":190052.34,"N_COORD97":2583209.5800000001,"ADDRESS":"三義街３２號","OBJECTID":583142},"geometry":{"x":190052.34000000078,"y":2583209.5799999982}},{"attributes":{"ID":583170,"DIS_CODE":0,"TOWNNAME":"白河區","LI":"永安里","LIN":"16鄰","STREET":"三義街","SECT":" ","MAREA":" ","LANE":" ","ALLEY":" ","HOUSE_NO":"３３之１號","E_COORD97":190042.07000000001,"N_COORD97":2583221.1699999999,"ADDRESS":"三義街３３之１號","OBJECTID":583143},"geometry":{"x":190042.07000000216,"y":2583221.1699999999}},{"attributes":{"ID":583171,"DIS_CODE":0,"TOWNNAME":"永康區","LI":"大灣里","LIN":"13鄰","STREET":"中灣五街","SECT":" ","MAREA":" ","LANE":" ","ALLEY":" ","HOUSE_NO":"２３號","E_COORD97":175099.26999999999,"N_COORD97":2545247.3500000001,"ADDRESS":"中灣五街２３號","OBJECTID":583144},"geometry":{"x":175099.27000000048,"y":2545247.3499999996}},{"attributes":{"ID":583172,"DIS_CODE":0,"TOWNNAME":"永康區","LI":"大橋里","LIN":"14鄰","STREET":"大橋一街","SECT":" ","MAREA":" ","LANE":" ","ALLEY":" ","HOUSE_NO":"６３號","E_COORD97":170894.14999999999,"N_COORD97":2546429.5,"ADDRESS":"大橋一街６３號","OBJECTID":583145},"geometry":{"x":170894.15000000037,"y":2546429.5000000019}},{"attributes":{"ID":583173,"DIS_CODE":0,"TOWNNAME":"白河區","LI":"永安里","LIN":"16鄰","STREET":"三義街","SECT":" ","MAREA":" ","LANE":" ","ALLEY":" ","HOUSE_NO":"３３之２號","E_COORD97":190055.92999999999,"N_COORD97":2583231.0699999998,"ADDRESS":"三義街３３之２號","OBJECTID":583146},"geometry":{"x":190055.93000000156,"y":2583231.0700000022}},{"attributes":{"ID":583174,"DIS_CODE":0,"TOWNNAME":"白河區","LI":"永安里","LIN":"16鄰","STREET":"三義街","SECT":" ","MAREA":" ","LANE":" ","ALLEY":" ","HOUSE_NO":"３５號","E_COORD97":190092.64999999999,"N_COORD97":2583312.23,"ADDRESS":"三義街３５號","OBJECTID":583147},"geometry":{"x":190092.6500000013,"y":2583312.2300000023}},{"attributes":{"ID":583175,"DIS_CODE":0,"TOWNNAME":"白河區","LI":"永安里","LIN":"16鄰","STREET":"三義街","SECT":" ","MAREA":" ","LANE":" ","ALLEY":" ","HOUSE_NO":"３６號","E_COORD97":190059.17999999999,"N_COORD97":2583215.4900000002,"ADDRESS":"三義街３６號","OBJECTID":583148},"geometry":{"x":190059.1799999997,"y":2583215.4900000021}},{"attributes":{"ID":583176,"DIS_CODE":0,"TOWNNAME":"白河區","LI":"永安里","LIN":"16鄰","STREET":"三義街","SECT":" ","MAREA":" ","LANE":" ","ALLEY":" ","HOUSE_NO":"４０號","E_COORD97":190065.42000000001,"N_COORD97":2583220.6200000001,"ADDRESS":"三義街４０號","OBJECTID":583149},"geometry":{"x":190065.42000000086,"y":2583220.6200000048}},{"attributes":{"ID":583177,"DIS_CODE":0,"TOWNNAME":"白河區","LI":"永安里","LIN":"16鄰","STREET":"三義街","SECT":" ","MAREA":" ","LANE":" ","ALLEY":" ","HOUSE_NO":"４６號","E_COORD97":190076.14999999999,"N_COORD97":2583230.6200000001,"ADDRESS":"三義街４６號","OBJECTID":583150},"geometry":{"x":190076.1500000013,"y":2583230.6199999992}},{"attributes":{"ID":583178,"DIS_CODE":0,"TOWNNAME":"白河區","LI":"永安里","LIN":"16鄰","STREET":"中正路","SECT":" ","MAREA":" ","LANE":" ","ALLEY":" ","HOUSE_NO":"１００號","E_COORD97":189945.16,"N_COORD97":2583144.9500000002,"ADDRESS":"中正路１００號","OBJECTID":583151},"geometry":{"x":189945.16000000108,"y":2583144.9499999993}},{"attributes":{"ID":583179,"DIS_CODE":0,"TOWNNAME":"白河區","LI":"永安里","LIN":"16鄰","STREET":"中正路","SECT":" ","MAREA":" ","LANE":" ","ALLEY":" ","HOUSE_NO":"１０６號","E_COORD97":189908.76000000001,"N_COORD97":2583148.52,"ADDRESS":"中正路１０６號","OBJECTID":583152},"geometry":{"x":189908.76000000071,"y":2583148.5200000033}},{"attributes":{"ID":583180,"DIS_CODE":0,"TOWNNAME":"白河區","LI":"永安里","LIN":"16鄰","STREET":"中正路","SECT":" ","MAREA":" ","LANE":" ","ALLEY":" ","HOUSE_NO":"１１０號","E_COORD97":189889.14999999999,"N_COORD97":2583130.8599999999,"ADDRESS":"中正路１１０號","OBJECTID":583153},"geometry":{"x":189889.15000000224,"y":2583130.8600000013}},{"attributes":{"ID":583181,"DIS_CODE":0,"TOWNNAME":"白河區","LI":"永安里","LIN":"16鄰","STREET":"中正路","SECT":" ","MAREA":" ","LANE":" ","ALLEY":" ","HOUSE_NO":"１１２號","E_COORD97":189882.54000000001,"N_COORD97":2583129.5600000001,"ADDRESS":"中正路１１２號","OBJECTID":583154},"geometry":{"x":189882.53999999911,"y":2583129.5600000024}},{"attributes":{"ID":583182,"DIS_CODE":0,"TOWNNAME":"白河區","LI":"永安里","LIN":"16鄰","STREET":"中正路","SECT":" ","MAREA":" ","LANE":" ","ALLEY":" ","HOUSE_NO":"１１６號","E_COORD97":189871.62,"N_COORD97":2583128.6299999999,"ADDRESS":"中正路１１６號","OBJECTID":583155},"geometry":{"x":189871.62000000011,"y":2583128.629999999}},{"attributes":{"ID":583183,"DIS_CODE":0,"TOWNNAME":"白河區","LI":"永安里","LIN":"16鄰","STREET":"中正路","SECT":" ","MAREA":" ","LANE":" ","ALLEY":" ","HOUSE_NO":"１１８號","E_COORD97":189864.76999999999,"N_COORD97":2583127.6499999999,"ADDRESS":"中正路１１８號","OBJECTID":583156},"geometry":{"x":189864.76999999955,"y":2583127.6500000004}},{"attributes":{"ID":583184,"DIS_CODE":0,"TOWNNAME":"安南區","LI":"理想里","LIN":"16鄰","STREET":"大安街","SECT":" ","MAREA":" ","LANE":" ","ALLEY":" ","HOUSE_NO":"１８５號","E_COORD97":167358.54000000001,"N_COORD97":2548282.02,"ADDRESS":"大安街１８５號","OBJECTID":583157},"geometry":{"x":167358.54000000004,"y":2548282.0200000033}},{"attributes":{"ID":583185,"DIS_CODE":0,"TOWNNAME":"永康區","LI":"大灣里","LIN":"2鄰","STREET":"中灣一街","SECT":" ","MAREA":" ","LANE":" ","ALLEY":" ","HOUSE_NO":"３２號","E_COORD97":174734.73999999999,"N_COORD97":2545620.5800000001,"ADDRESS":"中灣一街３２號","OBJECTID":583158},"geometry":{"x":174734.74000000022,"y":2545620.5800000038}},{"attributes":{"ID":583186,"DIS_CODE":0,"TOWNNAME":"永康區","LI":"大灣里","LIN":"10鄰","STREET":"大同街","SECT":" ","MAREA":" ","LANE":" ","ALLEY":" ","HOUSE_NO":"１１７號","E_COORD97":174962.53,"N_COORD97":2545525.8999999999,"ADDRESS":"大同街１１７號","OBJECTID":583159},"geometry":{"x":174962.53000000119,"y":2545525.9000000004}},{"attributes":{"ID":583187,"DIS_CODE":0,"TOWNNAME":"永康區","LI":"大橋里","LIN":"28鄰","STREET":"中華路","SECT":" ","MAREA":" ","LANE":" ","ALLEY":" ","HOUSE_NO":"７５２號","E_COORD97":170933.57000000001,"N_COORD97":2546383.4900000002,"ADDRESS":"中華路７５２號","OBJECTID":583160},"geometry":{"x":170933.5700000003,"y":2546383.4900000002}},{"attributes":{"ID":583188,"DIS_CODE":0,"TOWNNAME":"安南區","LI":"頂安里","LIN":"16鄰","STREET":"安中路","SECT":"一段","MAREA":" ","LANE":" ","ALLEY":" ","HOUSE_NO":"３１０號","E_COORD97":168570.56,"N_COORD97":2548643.02,"ADDRESS":"安中路一段３１０號","OBJECTID":583161},"geometry":{"x":168570.56000000052,"y":2548643.0200000014}},{"attributes":{"ID":583189,"DIS_CODE":0,"TOWNNAME":"安南區","LI":"頂安里","LIN":"16鄰","STREET":"安中路","SECT":"一段","MAREA":" ","LANE":" ","ALLEY":" ","HOUSE_NO":"３１４號","E_COORD97":168558.28,"N_COORD97":2548652.29,"ADDRESS":"安中路一段３１４號","OBJECTID":583162},"geometry":{"x":168558.28000000119,"y":2548652.2899999991}},{"attributes":{"ID":583190,"DIS_CODE":0,"TOWNNAME":"安南區","LI":"頂安里","LIN":"16鄰","STREET":"安中路","SECT":"一段","MAREA":" ","LANE":" ","ALLEY":" ","HOUSE_NO":"３１６號","E_COORD97":168549.28,"N_COORD97":2548655.0600000001,"ADDRESS":"安中路一段３１６號","OBJECTID":583163},"geometry":{"x":168549.28000000119,"y":2548655.0600000005}},{"attributes":{"ID":583191,"DIS_CODE":0,"TOWNNAME":"安南區","LI":"頂安里","LIN":"16鄰","STREET":"安中路","SECT":"一段","MAREA":" ","LANE":" ","ALLEY":" ","HOUSE_NO":"３１８號","E_COORD97":168544.92000000001,"N_COORD97":2548657.2400000002,"ADDRESS":"安中路一段３１８號","OBJECTID":583164},"geometry":{"x":168544.92000000086,"y":2548657.2399999984}},{"attributes":{"ID":583192,"DIS_CODE":0,"TOWNNAME":"安南區","LI":"頂安里","LIN":"16鄰","STREET":"安中路","SECT":"一段","MAREA":" ","LANE":" ","ALLEY":" ","HOUSE_NO":"３２０號","E_COORD97":168541.37,"N_COORD97":2548659.1499999999,"ADDRESS":"安中路一段３２０號","OBJECTID":583165},"geometry":{"x":168541.36999999918,"y":2548659.1500000022}},{"attributes":{"ID":583193,"DIS_CODE":0,"TOWNNAME":"安南區","LI":"頂安里","LIN":"16鄰","STREET":"安中路","SECT":"一段","MAREA":" ","LANE":" ","ALLEY":" ","HOUSE_NO":"３２２號","E_COORD97":168538.64000000001,"N_COORD97":2548661.8399999999,"ADDRESS":"安中路一段３２２號","OBJECTID":583166},"geometry":{"x":168538.63999999966,"y":2548661.8399999999}},{"attributes":{"ID":583194,"DIS_CODE":0,"TOWNNAME":"安南區","LI":"頂安里","LIN":"16鄰","STREET":"安中路","SECT":"一段","MAREA":" ","LANE":" ","ALLEY":" ","HOUSE_NO":"３２４號","E_COORD97":168534.82000000001,"N_COORD97":2548664.02,"ADDRESS":"安中路一段３２４號","OBJECTID":583167},"geometry":{"x":168534.8200000003,"y":2548664.0199999996}},{"attributes":{"ID":583195,"DIS_CODE":0,"TOWNNAME":"安南區","LI":"頂安里","LIN":"16鄰","STREET":"安中路","SECT":"一段","MAREA":" ","LANE":" ","ALLEY":" ","HOUSE_NO":"３２６號","E_COORD97":168531.01000000001,"N_COORD97":2548666.2000000002,"ADDRESS":"安中路一段３２６號","OBJECTID":583168},"geometry":{"x":168531.00999999978,"y":2548666.1999999993}},{"attributes":{"ID":583196,"DIS_CODE":0,"TOWNNAME":"安南區","LI":"頂安里","LIN":"16鄰","STREET":"安中路","SECT":"一段","MAREA":" ","LANE":" ","ALLEY":" ","HOUSE_NO":"３２８號","E_COORD97":168527.45999999999,"N_COORD97":2548668.9300000002,"ADDRESS":"安中路一段３２８號","OBJECTID":583169},"geometry":{"x":168527.46000000089,"y":2548668.9299999997}},{"attributes":{"ID":583197,"DIS_CODE":0,"TOWNNAME":"安南區","LI":"頂安里","LIN":"16鄰","STREET":"安中路","SECT":"一段","MAREA":" ","LANE":" ","ALLEY":" ","HOUSE_NO":"３２８號之１","E_COORD97":168524.45999999999,"N_COORD97":2548671.6600000001,"ADDRESS":"安中路一段３２８號之１","OBJECTID":583170},"geometry":{"x":168524.46000000089,"y":2548671.6600000039}},{"attributes":{"ID":583198,"DIS_CODE":0,"TOWNNAME":"安南區","LI":"頂安里","LIN":"16鄰","STREET":"安中路","SECT":"一段","MAREA":" ","LANE":" ","ALLEY":" ","HOUSE_NO":"３３０號","E_COORD97":168505.35999999999,"N_COORD97":2548690.7400000002,"ADDRESS":"安中路一段３３０號","OBJECTID":583171},"geometry":{"x":168505.36000000034,"y":2548690.7400000002}},{"attributes":{"ID":583199,"DIS_CODE":0,"TOWNNAME":"鹽水區","LI":"福得里","LIN":"4鄰","STREET":"清泉路","SECT":" ","MAREA":" ","LANE":" ","ALLEY":" ","HOUSE_NO":"３號","E_COORD97":175273.89999999999,"N_COORD97":2580015.29,"ADDRESS":"清泉路３號","OBJECTID":583172},"geometry":{"x":175273.9000000013,"y":2580015.290000001}},{"attributes":{"ID":583200,"DIS_CODE":0,"TOWNNAME":"安南區","LI":"頂安里","LIN":"16鄰","STREET":"安中路","SECT":"一段","MAREA":" ","LANE":" ","ALLEY":" ","HOUSE_NO":"３４８號","E_COORD97":168481.63,"N_COORD97":2548700,"ADDRESS":"安中路一段３４８號","OBJECTID":583173},"geometry":{"x":168481.62999999989,"y":2548700.0000000019}},{"attributes":{"ID":583201,"DIS_CODE":0,"TOWNNAME":"安南區","LI":"頂安里","LIN":"16鄰","STREET":"安中路","SECT":"一段","MAREA":" ","LANE":" ","ALLEY":" ","HOUSE_NO":"３５０號","E_COORD97":168454.89999999999,"N_COORD97":2548716.3599999999,"ADDRESS":"安中路一段３５０號","OBJECTID":583174},"geometry":{"x":168454.90000000037,"y":2548716.3599999994}},{"attributes":{"ID":583202,"DIS_CODE":0,"TOWNNAME":"安南區","LI":"海東里","LIN":"16鄰","STREET":"海佃路","SECT":"二段","MAREA":" ","LANE":" ","ALLEY":" ","HOUSE_NO":"３４５號","E_COORD97":166752.95999999999,"N_COORD97":2548822.2000000002,"ADDRESS":"海佃路二段３４５號","OBJECTID":583175},"geometry":{"x":166752.96000000089,"y":2548822.1999999993}},{"attributes":{"ID":583203,"DIS_CODE":0,"TOWNNAME":"安南區","LI":"海東里","LIN":"16鄰","STREET":"海佃路","SECT":"二段","MAREA":" ","LANE":" ","ALLEY":" ","HOUSE_NO":"３４５號之２","E_COORD97":166748.14999999999,"N_COORD97":2548824.6000000001,"ADDRESS":"海佃路二段３４５號之２","OBJECTID":583176},"geometry":{"x":166748.15000000224,"y":2548824.6000000015}},{"attributes":{"ID":583204,"DIS_CODE":0,"TOWNNAME":"安南區","LI":"海東里","LIN":"16鄰","STREET":"海佃路","SECT":"二段","MAREA":" ","LANE":" ","ALLEY":" ","HOUSE_NO":"３７３號","E_COORD97":166745.66,"N_COORD97":2548885.8799999999,"ADDRESS":"海佃路二段３７３號","OBJECTID":583177},"geometry":{"x":166745.66000000015,"y":2548885.8800000027}},{"attributes":{"ID":583205,"DIS_CODE":0,"TOWNNAME":"安南區","LI":"海東里","LIN":"16鄰","STREET":"海環街","SECT":" ","MAREA":" ","LANE":" ","ALLEY":" ","HOUSE_NO":"１１號","E_COORD97":166729.94,"N_COORD97":2548865.6899999999,"ADDRESS":"海環街１１號","OBJECTID":583178},"geometry":{"x":166729.94000000134,"y":2548865.6899999995}},{"attributes":{"ID":583206,"DIS_CODE":0,"TOWNNAME":"安南區","LI":"海東里","LIN":"16鄰","STREET":"海環街","SECT":" ","MAREA":" ","LANE":" ","ALLEY":" ","HOUSE_NO":"２３號","E_COORD97":166703.19,"N_COORD97":2548854.0800000001,"ADDRESS":"海環街２３號","OBJECTID":583179},"geometry":{"x":166703.19000000041,"y":2548854.0800000001}},{"attributes":{"ID":583207,"DIS_CODE":0,"TOWNNAME":"安南區","LI":"海東里","LIN":"16鄰","STREET":"海環街","SECT":" ","MAREA":" ","LANE":" ","ALLEY":" ","HOUSE_NO":"５１號","E_COORD97":166641.67999999999,"N_COORD97":2548818.8900000001,"ADDRESS":"海環街５１號","OBJECTID":583180},"geometry":{"x":166641.6799999997,"y":2548818.8900000006}},{"attributes":{"ID":583208,"DIS_CODE":0,"TOWNNAME":"安南區","LI":"海東里","LIN":"16鄰","STREET":"海環街","SECT":" ","MAREA":" ","LANE":" ","ALLEY":" ","HOUSE_NO":"５３號","E_COORD97":166638.35999999999,"N_COORD97":2548815.96,"ADDRESS":"海環街５３號","OBJECTID":583181},"geometry":{"x":166638.36000000127,"y":2548815.9600000046}},{"attributes":{"ID":583209,"DIS_CODE":0,"TOWNNAME":"永康區","LI":"五王里","LIN":"36鄰","STREET":"中華路","SECT":" ","MAREA":" ","LANE":" ","ALLEY":" ","HOUSE_NO":"５９８號之９","E_COORD97":171223.76000000001,"N_COORD97":2545944.54,"ADDRESS":"中華路５９８號之９","OBJECTID":583182},"geometry":{"x":171223.76000000164,"y":2545944.5399999991}},{"attributes":{"ID":583210,"DIS_CODE":0,"TOWNNAME":"永康區","LI":"五王里","LIN":"36鄰","STREET":"中華路","SECT":" ","MAREA":" ","LANE":" ","ALLEY":" ","HOUSE_NO":"５９８號之７","E_COORD97":171226.97,"N_COORD97":2545949.04,"ADDRESS":"中華路５９８號之７","OBJECTID":583183},"geometry":{"x":171226.96999999974,"y":2545949.040000001}},{"attributes":{"ID":583211,"DIS_CODE":0,"TOWNNAME":"永康區","LI":"中興里","LIN":"7鄰","STREET":"中山東路","SECT":" ","MAREA":" ","LANE":" ","ALLEY":" ","HOUSE_NO":"４５６號","E_COORD97":171936.79999999999,"N_COORD97":2545062.25,"ADDRESS":"中山東路４５６號","OBJECTID":583184},"geometry":{"x":171936.79999999981,"y":2545062.25}},{"attributes":{"ID":583212,"DIS_CODE":0,"TOWNNAME":"永康區","LI":"大橋里","LIN":"1鄰","STREET":"中華路","SECT":" ","MAREA":" ","LANE":" ","ALLEY":" ","HOUSE_NO":"８８８號","E_COORD97":170575.38,"N_COORD97":2546646.5,"ADDRESS":"中華路８８８號","OBJECTID":583185},"geometry":{"x":170575.38000000175,"y":2546646.5000000019}},{"attributes":{"ID":583213,"DIS_CODE":0,"TOWNNAME":"安南區","LI":"海東里","LIN":"16鄰","STREET":"海環街","SECT":" ","MAREA":" ","LANE":" ","ALLEY":" ","HOUSE_NO":"５５號","E_COORD97":166634.64999999999,"N_COORD97":2548813.5899999999,"ADDRESS":"海環街５５號","OBJECTID":583186},"geometry":{"x":166634.6500000013,"y":2548813.5899999999}},{"attributes":{"ID":583214,"DIS_CODE":0,"TOWNNAME":"安南區","LI":"海東里","LIN":"16鄰","STREET":"海環街","SECT":" ","MAREA":" ","LANE":" ","ALLEY":" ","HOUSE_NO":"５７號","E_COORD97":166630.28,"N_COORD97":2548812.3799999999,"ADDRESS":"海環街５７號","OBJECTID":583187},"geometry":{"x":166630.28000000119,"y":2548812.3800000008}},{"attributes":{"ID":583215,"DIS_CODE":0,"TOWNNAME":"安南區","LI":"理想里","LIN":"16鄰","STREET":"大安街","SECT":" ","MAREA":" ","LANE":" ","ALLEY":" ","HOUSE_NO":"１７７號","E_COORD97":167347.63,"N_COORD97":2548266.6699999999,"ADDRESS":"大安街１７７號","OBJECTID":583188},"geometry":{"x":167347.62999999896,"y":2548266.6699999999}},{"attributes":{"ID":583216,"DIS_CODE":0,"TOWNNAME":"永康區","LI":"大灣里","LIN":"27鄰","STREET":"大灣六街","SECT":" ","MAREA":" ","LANE":" ","ALLEY":" ","HOUSE_NO":"１２號","E_COORD97":175299.17000000001,"N_COORD97":2545211.02,"ADDRESS":"大灣六街１２號","OBJECTID":583189},"geometry":{"x":175299.16999999993,"y":2545211.0200000014}},{"attributes":{"ID":583217,"DIS_CODE":0,"TOWNNAME":"永康區","LI":"大灣里","LIN":"2鄰","STREET":"中灣一街","SECT":" ","MAREA":" ","LANE":" ","ALLEY":" ","HOUSE_NO":"２６號","E_COORD97":174748.85999999999,"N_COORD97":2545623.6499999999,"ADDRESS":"中灣一街２６號","OBJECTID":583190},"geometry":{"x":174748.86000000034,"y":2545623.6499999985}},{"attributes":{"ID":583218,"DIS_CODE":0,"TOWNNAME":"永康區","LI":"大橋里","LIN":"14鄰","STREET":"中華路","SECT":" ","MAREA":" ","LANE":" ","ALLEY":" ","HOUSE_NO":"７６６號","E_COORD97":170886.28,"N_COORD97":2546407.25,"ADDRESS":"中華路７６６號","OBJECTID":583191},"geometry":{"x":170886.28000000026,"y":2546407.2500000019}},{"attributes":{"ID":583219,"DIS_CODE":0,"TOWNNAME":"永康區","LI":"大橋里","LIN":"1鄰","STREET":"中華路","SECT":" ","MAREA":" ","LANE":" ","ALLEY":" ","HOUSE_NO":"８７０號","E_COORD97":170607.79000000001,"N_COORD97":2546622.75,"ADDRESS":"中華路８７０號","OBJECTID":583192},"geometry":{"x":170607.79000000004,"y":2546622.7499999981}},{"attributes":{"ID":583220,"DIS_CODE":0,"TOWNNAME":"仁德區","LI":"仁德里","LIN":"16鄰","STREET":"中山路","SECT":" ","MAREA":" ","LANE":" ","ALLEY":" ","HOUSE_NO":"６７５號","E_COORD97":173129.23000000001,"N_COORD97":2541353.25,"ADDRESS":"中山路６７５號","OBJECTID":583193},"geometry":{"x":173129.23000000045,"y":2541353.25}},{"attributes":{"ID":583221,"DIS_CODE":0,"TOWNNAME":"仁德區","LI":"太子里","LIN":"16鄰","STREET":"太興路","SECT":" ","MAREA":" ","LANE":" ","ALLEY":" ","HOUSE_NO":"５８號","E_COORD97":174115.39999999999,"N_COORD97":2543620.7599999998,"ADDRESS":"太興路５８號","OBJECTID":583194},"geometry":{"x":174115.40000000224,"y":2543620.7599999998}},{"attributes":{"ID":583222,"DIS_CODE":0,"TOWNNAME":"永康區","LI":"中興里","LIN":"8鄰","STREET":"中山東路","SECT":" ","MAREA":" ","LANE":" ","ALLEY":" ","HOUSE_NO":"３９３號","E_COORD97":171955.41,"N_COORD97":2545112.9900000002,"ADDRESS":"中山東路３９３號","OBJECTID":583195},"geometry":{"x":171955.41000000201,"y":2545112.9900000039}},{"attributes":{"ID":583223,"DIS_CODE":0,"TOWNNAME":"仁德區","LI":"太子里","LIN":"16鄰","STREET":"長興四街","SECT":" ","MAREA":" ","LANE":" ","ALLEY":" ","HOUSE_NO":"２１號","E_COORD97":174042.29999999999,"N_COORD97":2543651.2599999998,"ADDRESS":"長興四街２１號","OBJECTID":583196},"geometry":{"x":174042.29999999981,"y":2543651.2599999998}},{"attributes":{"ID":583224,"DIS_CODE":0,"TOWNNAME":"仁德區","LI":"新田里","LIN":"16鄰","STREET":"民安路","SECT":"二段","MAREA":" ","LANE":" ","ALLEY":" ","HOUSE_NO":"５５號","E_COORD97":173410.10000000001,"N_COORD97":2539243.0600000001,"ADDRESS":"民安路二段５５號","OBJECTID":583197},"geometry":{"x":173410.10000000056,"y":2539243.0600000005}},{"attributes":{"ID":583225,"DIS_CODE":0,"TOWNNAME":"永康區","LI":"大橋里","LIN":"3鄰","STREET":"大橋三街","SECT":" ","MAREA":" ","LANE":" ","ALLEY":" ","HOUSE_NO":"１０８號","E_COORD97":170742.94,"N_COORD97":2546653.75,"ADDRESS":"大橋三街１０８號","OBJECTID":583198},"geometry":{"x":170742.94000000041,"y":2546653.7500000037}},{"attributes":{"ID":583226,"DIS_CODE":0,"TOWNNAME":"永康區","LI":"中興里","LIN":"26鄰","STREET":"中山東路","SECT":" ","MAREA":" ","LANE":" ","ALLEY":" ","HOUSE_NO":"４００號","E_COORD97":171910.07999999999,"N_COORD97":2545196.7200000002,"ADDRESS":"中山東路４００號","OBJECTID":583199},"geometry":{"x":171910.08000000194,"y":2545196.7200000044}},{"attributes":{"ID":583227,"DIS_CODE":0,"TOWNNAME":"永康區","LI":"大橋里","LIN":"14鄰","STREET":"中華路","SECT":" ","MAREA":" ","LANE":" ","ALLEY":" ","HOUSE_NO":"７７４號","E_COORD97":170857.51999999999,"N_COORD97":2546436.5,"ADDRESS":"中華路７７４號","OBJECTID":583200},"geometry":{"x":170857.52000000048,"y":2546436.5000000019}}]}