{"displayFieldName":"TOWNNAME","fieldAliases":{"ID":"ID","DIS_CODE":"DIS_CODE","TOWNNAME":"TOWNNAME","LI":"LI","LIN":"LIN","STREET":"STREET","SECT":"SECT","MAREA":"MAREA","LANE":"LANE","ALLEY":"ALLEY","HOUSE_NO":"HOUSE_NO","E_COORD97":"E_COORD97","N_COORD97":"N_COORD97","ADDRESS":"ADDRESS","OBJECTID":"OBJECTID"},"geometryType":"esriGeometryPoint","spatialReference":{"wkid":102443,"latestWkid":3826},"fields":[{"name":"ID","type":"esriFieldTypeDouble","alias":"ID"},{"name":"DIS_CODE","type":"esriFieldTypeInteger","alias":"DIS_CODE"},{"name":"TOWNNAME","type":"esriFieldTypeString","alias":"TOWNNAME","length":8},{"name":"LI","type":"esriFieldTypeString","alias":"LI","length":8},{"name":"LIN","type":"esriFieldTypeString","alias":"LIN","length":12},{"name":"STREET","type":"esriFieldTypeString","alias":"STREET","length":20},{"name":"SECT","type":"esriFieldTypeString","alias":"SECT","length":8},{"name":"MAREA","type":"esriFieldTypeString","alias":"MAREA","length":12},{"name":"LANE","type":"esriFieldTypeString","alias":"LANE","length":10},{"name":"ALLEY","type":"esriFieldTypeString","alias":"ALLEY","length":10},{"name":"HOUSE_NO","type":"esriFieldTypeString","alias":"HOUSE_NO","length":20},{"name":"E_COORD97","type":"esriFieldTypeDouble","alias":"E_COORD97"},{"name":"N_COORD97","type":"esriFieldTypeDouble","alias":"N_COORD97"},{"name":"ADDRESS","type":"esriFieldTypeString","alias":"ADDRESS","length":50},{"name":"OBJECTID","type":"esriFieldTypeOID","alias":"OBJECTID"}],"features":[{"attributes":{"ID":370611,"DIS_CODE":0,"TOWNNAME":"佳里區","LI":"建南里","LIN":"12鄰","STREET":"新生路","SECT":" ","MAREA":" ","LANE":"３９５巷","ALLEY":" ","HOUSE_NO":"８號","E_COORD97":165313.73000000001,"N_COORD97":2562159.5099999998,"ADDRESS":"新生路３９５巷８號","OBJECTID":370601},"geometry":{"x":165313.73000000138,"y":2562159.5100000016}},{"attributes":{"ID":370612,"DIS_CODE":0,"TOWNNAME":"楠西區","LI":"東勢里","LIN":"12鄰","STREET":"信義路","SECT":" ","MAREA":" ","LANE":"１７３巷","ALLEY":" ","HOUSE_NO":"３８號","E_COORD97":197585.51999999999,"N_COORD97":2563842.27,"ADDRESS":"信義路１７３巷３８號","OBJECTID":370602},"geometry":{"x":197585.52000000048,"y":2563842.2700000033}},{"attributes":{"ID":370613,"DIS_CODE":0,"TOWNNAME":"東山區","LI":"東中里","LIN":"12鄰","STREET":"育仁街","SECT":" ","MAREA":" ","LANE":"１巷","ALLEY":" ","HOUSE_NO":"１１號","E_COORD97":188863.26000000001,"N_COORD97":2579497.5099999998,"ADDRESS":"育仁街１巷１１號","OBJECTID":370603},"geometry":{"x":188863.25999999978,"y":2579497.5100000035}},{"attributes":{"ID":370614,"DIS_CODE":0,"TOWNNAME":"東山區","LI":"東中里","LIN":"12鄰","STREET":"育仁街","SECT":" ","MAREA":" ","LANE":"１巷","ALLEY":" ","HOUSE_NO":"１號","E_COORD97":188873.26000000001,"N_COORD97":2579524.6400000001,"ADDRESS":"育仁街１巷１號","OBJECTID":370604},"geometry":{"x":188873.25999999978,"y":2579524.6400000043}},{"attributes":{"ID":370615,"DIS_CODE":0,"TOWNNAME":"東山區","LI":"東中里","LIN":"12鄰","STREET":"育仁街","SECT":" ","MAREA":" ","LANE":"１巷","ALLEY":" ","HOUSE_NO":"３號","E_COORD97":188871.26000000001,"N_COORD97":2579519.2200000002,"ADDRESS":"育仁街１巷３號","OBJECTID":370605},"geometry":{"x":188871.26000000071,"y":2579519.2200000007}},{"attributes":{"ID":370616,"DIS_CODE":0,"TOWNNAME":"東山區","LI":"東中里","LIN":"12鄰","STREET":"育仁街","SECT":" ","MAREA":" ","LANE":"１巷","ALLEY":" ","HOUSE_NO":"５號","E_COORD97":188869.26000000001,"N_COORD97":2579513.79,"ADDRESS":"育仁街１巷５號","OBJECTID":370606},"geometry":{"x":188869.26000000071,"y":2579513.7899999991}},{"attributes":{"ID":370617,"DIS_CODE":0,"TOWNNAME":"東山區","LI":"東中里","LIN":"12鄰","STREET":"育仁街","SECT":" ","MAREA":" ","LANE":"１巷","ALLEY":" ","HOUSE_NO":"７號","E_COORD97":188867.26000000001,"N_COORD97":2579508.3700000001,"ADDRESS":"育仁街１巷７號","OBJECTID":370607},"geometry":{"x":188867.26000000164,"y":2579508.370000001}},{"attributes":{"ID":370618,"DIS_CODE":0,"TOWNNAME":"東山區","LI":"東中里","LIN":"12鄰","STREET":"育仁街","SECT":" ","MAREA":" ","LANE":"１巷","ALLEY":" ","HOUSE_NO":"９號","E_COORD97":188865.26000000001,"N_COORD97":2579502.9399999999,"ADDRESS":"育仁街１巷９號","OBJECTID":370608},"geometry":{"x":188865.25999999978,"y":2579502.9399999995}},{"attributes":{"ID":370619,"DIS_CODE":0,"TOWNNAME":"新化區","LI":"太平里","LIN":"12鄰","STREET":"中正路","SECT":" ","MAREA":" ","LANE":"６９１巷","ALLEY":" ","HOUSE_NO":"９號","E_COORD97":178793.10999999999,"N_COORD97":2549054.25,"ADDRESS":"中正路６９１巷９號","OBJECTID":370609},"geometry":{"x":178793.11000000127,"y":2549054.2500000019}},{"attributes":{"ID":370620,"DIS_CODE":0,"TOWNNAME":"新化區","LI":"太平里","LIN":"12鄰","STREET":"中正路","SECT":" ","MAREA":" ","LANE":"６６３巷","ALLEY":" ","HOUSE_NO":"２號","E_COORD97":178805.10999999999,"N_COORD97":2549025.25,"ADDRESS":"中正路６６３巷２號","OBJECTID":370610},"geometry":{"x":178805.11000000127,"y":2549025.25}},{"attributes":{"ID":370621,"DIS_CODE":0,"TOWNNAME":"新化區","LI":"豐榮里","LIN":"12鄰","STREET":"正新路","SECT":" ","MAREA":" ","LANE":"９５巷","ALLEY":" ","HOUSE_NO":"９號","E_COORD97":178562.87,"N_COORD97":2548038.25,"ADDRESS":"正新路９５巷９號","OBJECTID":370611},"geometry":{"x":178562.87000000011,"y":2548038.2500000019}},{"attributes":{"ID":370622,"DIS_CODE":0,"TOWNNAME":"南區","LI":"彰南里","LIN":"5鄰","STREET":"中華西路","SECT":"一段","MAREA":" ","LANE":"５０巷","ALLEY":" ","HOUSE_NO":"１號","E_COORD97":166330.29999999999,"N_COORD97":2541168.9500000002,"ADDRESS":"中華西路一段５０巷１號","OBJECTID":370612},"geometry":{"x":166330.29999999981,"y":2541168.9499999974}},{"attributes":{"ID":370623,"DIS_CODE":0,"TOWNNAME":"南區","LI":"彰南里","LIN":"5鄰","STREET":"中華西路","SECT":"一段","MAREA":" ","LANE":"５０巷","ALLEY":" ","HOUSE_NO":"３號","E_COORD97":166338.54999999999,"N_COORD97":2541169.5699999998,"ADDRESS":"中華西路一段５０巷３號","OBJECTID":370613},"geometry":{"x":166338.55000000075,"y":2541169.570000004}},{"attributes":{"ID":370624,"DIS_CODE":0,"TOWNNAME":"南區","LI":"彰南里","LIN":"5鄰","STREET":"中華西路","SECT":"一段","MAREA":" ","LANE":"５０巷","ALLEY":" ","HOUSE_NO":"５號","E_COORD97":166348.85000000001,"N_COORD97":2541169.75,"ADDRESS":"中華西路一段５０巷５號","OBJECTID":370614},"geometry":{"x":166348.84999999963,"y":2541169.75}},{"attributes":{"ID":370625,"DIS_CODE":0,"TOWNNAME":"南區","LI":"彰南里","LIN":"5鄰","STREET":"中華西路","SECT":"一段","MAREA":" ","LANE":"５０巷","ALLEY":" ","HOUSE_NO":"７號","E_COORD97":166356.29999999999,"N_COORD97":2541170.1899999999,"ADDRESS":"中華西路一段５０巷７號","OBJECTID":370615},"geometry":{"x":166356.29999999981,"y":2541170.1899999995}},{"attributes":{"ID":370626,"DIS_CODE":0,"TOWNNAME":"南區","LI":"新昌里","LIN":"18鄰","STREET":"西門路","SECT":"一段","MAREA":" ","LANE":"６８９巷","ALLEY":" ","HOUSE_NO":"２號","E_COORD97":167706.88,"N_COORD97":2543079.6899999999,"ADDRESS":"西門路一段６８９巷２號","OBJECTID":370616},"geometry":{"x":167706.87999999989,"y":2543079.6899999976}},{"attributes":{"ID":370627,"DIS_CODE":0,"TOWNNAME":"南區","LI":"新昌里","LIN":"18鄰","STREET":"西門路","SECT":"一段","MAREA":" ","LANE":"６８９巷","ALLEY":" ","HOUSE_NO":"４號","E_COORD97":167699.48000000001,"N_COORD97":2543080.0099999998,"ADDRESS":"西門路一段６８９巷４號","OBJECTID":370617},"geometry":{"x":167699.48000000045,"y":2543080.0099999998}},{"attributes":{"ID":370628,"DIS_CODE":0,"TOWNNAME":"南區","LI":"新昌里","LIN":"18鄰","STREET":"西門路","SECT":"一段","MAREA":" ","LANE":"６８９巷","ALLEY":" ","HOUSE_NO":"６號","E_COORD97":167693.04999999999,"N_COORD97":2543080.6499999999,"ADDRESS":"西門路一段６８９巷６號","OBJECTID":370618},"geometry":{"x":167693.05000000075,"y":2543080.6500000004}},{"attributes":{"ID":370629,"DIS_CODE":0,"TOWNNAME":"南區","LI":"新昌里","LIN":"18鄰","STREET":"西門路","SECT":"一段","MAREA":" ","LANE":"６８９巷","ALLEY":" ","HOUSE_NO":"８號","E_COORD97":167686.29999999999,"N_COORD97":2543079.3700000001,"ADDRESS":"西門路一段６８９巷８號","OBJECTID":370619},"geometry":{"x":167686.30000000075,"y":2543079.370000001}},{"attributes":{"ID":370630,"DIS_CODE":0,"TOWNNAME":"南區","LI":"新昌里","LIN":"18鄰","STREET":"西門路","SECT":"一段","MAREA":" ","LANE":"６８９巷","ALLEY":" ","HOUSE_NO":"１０號","E_COORD97":167677.60999999999,"N_COORD97":2543079.6899999999,"ADDRESS":"西門路一段６８９巷１０號","OBJECTID":370620},"geometry":{"x":167677.61000000127,"y":2543079.6899999976}},{"attributes":{"ID":370631,"DIS_CODE":0,"TOWNNAME":"南區","LI":"新昌里","LIN":"18鄰","STREET":"西門路","SECT":"一段","MAREA":" ","LANE":"６８９巷","ALLEY":" ","HOUSE_NO":"１２號","E_COORD97":167671.17999999999,"N_COORD97":2543079.3700000001,"ADDRESS":"西門路一段６８９巷１２號","OBJECTID":370621},"geometry":{"x":167671.18000000063,"y":2543079.370000001}},{"attributes":{"ID":370632,"DIS_CODE":0,"TOWNNAME":"南區","LI":"新昌里","LIN":"18鄰","STREET":"西門路","SECT":"一段","MAREA":" ","LANE":"６８９巷","ALLEY":" ","HOUSE_NO":"１４號","E_COORD97":167657.98999999999,"N_COORD97":2543078.3999999999,"ADDRESS":"西門路一段６８９巷１４號","OBJECTID":370622},"geometry":{"x":167657.99000000115,"y":2543078.4000000004}},{"attributes":{"ID":370633,"DIS_CODE":0,"TOWNNAME":"南區","LI":"新昌里","LIN":"18鄰","STREET":"西門路","SECT":"一段","MAREA":" ","LANE":"６８９巷","ALLEY":" ","HOUSE_NO":"１６號","E_COORD97":167652.51999999999,"N_COORD97":2543078.7200000002,"ADDRESS":"西門路一段６８９巷１６號","OBJECTID":370623},"geometry":{"x":167652.51999999955,"y":2543078.7200000025}},{"attributes":{"ID":370634,"DIS_CODE":0,"TOWNNAME":"南區","LI":"新昌里","LIN":"18鄰","STREET":"西門路","SECT":"一段","MAREA":" ","LANE":"６８９巷","ALLEY":" ","HOUSE_NO":"１８號","E_COORD97":167646.09,"N_COORD97":2543079.3700000001,"ADDRESS":"西門路一段６８９巷１８號","OBJECTID":370624},"geometry":{"x":167646.08999999985,"y":2543079.370000001}},{"attributes":{"ID":370635,"DIS_CODE":0,"TOWNNAME":"南區","LI":"新昌里","LIN":"18鄰","STREET":"西門路","SECT":"一段","MAREA":" ","LANE":"６８９巷","ALLEY":" ","HOUSE_NO":"２０號","E_COORD97":167632.26000000001,"N_COORD97":2543081.2999999998,"ADDRESS":"西門路一段６８９巷２０號","OBJECTID":370625},"geometry":{"x":167632.26000000071,"y":2543081.3000000026}},{"attributes":{"ID":370636,"DIS_CODE":0,"TOWNNAME":"南區","LI":"新昌里","LIN":"18鄰","STREET":"西門路","SECT":"一段","MAREA":" ","LANE":"６８９巷","ALLEY":" ","HOUSE_NO":"２２號","E_COORD97":167625.17999999999,"N_COORD97":2543080.6499999999,"ADDRESS":"西門路一段６８９巷２２號","OBJECTID":370626},"geometry":{"x":167625.18000000156,"y":2543080.6500000004}},{"attributes":{"ID":370637,"DIS_CODE":0,"TOWNNAME":"新化區","LI":"豐榮里","LIN":"12鄰","STREET":"正新路","SECT":" ","MAREA":" ","LANE":"９５巷","ALLEY":" ","HOUSE_NO":"３號","E_COORD97":178559.26999999999,"N_COORD97":2548051.25,"ADDRESS":"正新路９５巷３號","OBJECTID":370627},"geometry":{"x":178559.27000000048,"y":2548051.2500000019}},{"attributes":{"ID":370638,"DIS_CODE":0,"TOWNNAME":"新化區","LI":"太平里","LIN":"12鄰","STREET":"中正路","SECT":" ","MAREA":" ","LANE":"６９１巷","ALLEY":" ","HOUSE_NO":"１３號","E_COORD97":178783.56,"N_COORD97":2549046.25,"ADDRESS":"中正路６９１巷１３號","OBJECTID":370628},"geometry":{"x":178783.55999999866,"y":2549046.25}},{"attributes":{"ID":370639,"DIS_CODE":0,"TOWNNAME":"新化區","LI":"豐榮里","LIN":"12鄰","STREET":"正新路","SECT":" ","MAREA":" ","LANE":"９５巷","ALLEY":" ","HOUSE_NO":"３１號","E_COORD97":178577.22,"N_COORD97":2547988.25,"ADDRESS":"正新路９５巷３１號","OBJECTID":370629},"geometry":{"x":178577.21999999974,"y":2547988.25}},{"attributes":{"ID":370640,"DIS_CODE":0,"TOWNNAME":"新化區","LI":"武安里","LIN":"12鄰","STREET":"正新南路","SECT":" ","MAREA":" ","LANE":"１２３巷","ALLEY":" ","HOUSE_NO":"３號","E_COORD97":178862.67000000001,"N_COORD97":2547940.25,"ADDRESS":"正新南路１２３巷３號","OBJECTID":370630},"geometry":{"x":178862.66999999993,"y":2547940.25}},{"attributes":{"ID":370641,"DIS_CODE":0,"TOWNNAME":"新化區","LI":"協興里","LIN":"12鄰","STREET":"太平街","SECT":" ","MAREA":" ","LANE":"１５０巷","ALLEY":" ","HOUSE_NO":"２３５號","E_COORD97":178213.72,"N_COORD97":2548909.25,"ADDRESS":"太平街１５０巷２３５號","OBJECTID":370631},"geometry":{"x":178213.72000000067,"y":2548909.2500000019}},{"attributes":{"ID":370642,"DIS_CODE":0,"TOWNNAME":"新化區","LI":"武安里","LIN":"12鄰","STREET":"正新南路","SECT":" ","MAREA":" ","LANE":"８９巷","ALLEY":" ","HOUSE_NO":"１號","E_COORD97":178962.32000000001,"N_COORD97":2547982.25,"ADDRESS":"正新南路８９巷１號","OBJECTID":370632},"geometry":{"x":178962.32000000216,"y":2547982.2499999981}},{"attributes":{"ID":370643,"DIS_CODE":0,"TOWNNAME":"新化區","LI":"豐榮里","LIN":"12鄰","STREET":"民治路","SECT":" ","MAREA":" ","LANE":"４３巷","ALLEY":" ","HOUSE_NO":"６０號","E_COORD97":178602.51000000001,"N_COORD97":2548095.25,"ADDRESS":"民治路４３巷６０號","OBJECTID":370633},"geometry":{"x":178602.50999999978,"y":2548095.2500000019}},{"attributes":{"ID":370644,"DIS_CODE":0,"TOWNNAME":"新化區","LI":"協興里","LIN":"12鄰","STREET":"太平街","SECT":" ","MAREA":" ","LANE":"１５０巷","ALLEY":" ","HOUSE_NO":"１２３號","E_COORD97":178299.32000000001,"N_COORD97":2548879.25,"ADDRESS":"太平街１５０巷１２３號","OBJECTID":370634},"geometry":{"x":178299.3200000003,"y":2548879.2500000019}},{"attributes":{"ID":370645,"DIS_CODE":0,"TOWNNAME":"新化區","LI":"協興里","LIN":"12鄰","STREET":"太平街","SECT":" ","MAREA":" ","LANE":"１５０巷","ALLEY":" ","HOUSE_NO":"２２５號","E_COORD97":178251.62,"N_COORD97":2548928.25,"ADDRESS":"太平街１５０巷２２５號","OBJECTID":370635},"geometry":{"x":178251.62000000197,"y":2548928.2499999981}},{"attributes":{"ID":370646,"DIS_CODE":0,"TOWNNAME":"東區","LI":"和平里","LIN":"1鄰","STREET":"文化一街","SECT":" ","MAREA":" ","LANE":" ","ALLEY":" ","HOUSE_NO":"２號十三樓","E_COORD97":171099.45000000001,"N_COORD97":2542097.2200000002,"ADDRESS":"文化一街２號十三樓","OBJECTID":370636},"geometry":{"x":171099.45000000112,"y":2542097.2200000007}},{"attributes":{"ID":370647,"DIS_CODE":0,"TOWNNAME":"新化區","LI":"協興里","LIN":"12鄰","STREET":"太平街","SECT":" ","MAREA":" ","LANE":"１５０巷","ALLEY":" ","HOUSE_NO":"２０５號","E_COORD97":178291.22,"N_COORD97":2548910.25,"ADDRESS":"太平街１５０巷２０５號","OBJECTID":370637},"geometry":{"x":178291.2200000016,"y":2548910.25}},{"attributes":{"ID":370648,"DIS_CODE":0,"TOWNNAME":"新化區","LI":"太平里","LIN":"12鄰","STREET":"中正路","SECT":" ","MAREA":" ","LANE":"６９１巷","ALLEY":" ","HOUSE_NO":"２３號","E_COORD97":178779.35999999999,"N_COORD97":2548999.25,"ADDRESS":"中正路６９１巷２３號","OBJECTID":370638},"geometry":{"x":178779.36000000127,"y":2548999.25}},{"attributes":{"ID":370649,"DIS_CODE":0,"TOWNNAME":"新化區","LI":"協興里","LIN":"12鄰","STREET":"太平街","SECT":" ","MAREA":" ","LANE":"１５０巷","ALLEY":" ","HOUSE_NO":"１５７號","E_COORD97":178233.62,"N_COORD97":2548877.25,"ADDRESS":"太平街１５０巷１５７號","OBJECTID":370639},"geometry":{"x":178233.62000000104,"y":2548877.25}},{"attributes":{"ID":370650,"DIS_CODE":0,"TOWNNAME":"新化區","LI":"東榮里","LIN":"12鄰","STREET":"中興路","SECT":" ","MAREA":" ","LANE":"５５４巷","ALLEY":" ","HOUSE_NO":"６號","E_COORD97":179920.20999999999,"N_COORD97":2547957.25,"ADDRESS":"中興路５５４巷６號","OBJECTID":370640},"geometry":{"x":179920.20999999996,"y":2547957.25}},{"attributes":{"ID":370651,"DIS_CODE":0,"TOWNNAME":"新化區","LI":"協興里","LIN":"12鄰","STREET":"太平街","SECT":" ","MAREA":" ","LANE":"１５０巷","ALLEY":" ","HOUSE_NO":"１９５號","E_COORD97":178264.72,"N_COORD97":2548898.25,"ADDRESS":"太平街１５０巷１９５號","OBJECTID":370641},"geometry":{"x":178264.72000000067,"y":2548898.2500000019}},{"attributes":{"ID":370652,"DIS_CODE":0,"TOWNNAME":"新化區","LI":"豐榮里","LIN":"12鄰","STREET":"正新路","SECT":" ","MAREA":" ","LANE":"９５巷","ALLEY":" ","HOUSE_NO":"３３號","E_COORD97":178578.22,"N_COORD97":2547985.25,"ADDRESS":"正新路９５巷３３號","OBJECTID":370642},"geometry":{"x":178578.22000000067,"y":2547985.25}},{"attributes":{"ID":370653,"DIS_CODE":0,"TOWNNAME":"新化區","LI":"太平里","LIN":"12鄰","STREET":"中正路","SECT":" ","MAREA":" ","LANE":"６９１巷","ALLEY":" ","HOUSE_NO":"１９號","E_COORD97":178778.45999999999,"N_COORD97":2549023.25,"ADDRESS":"中正路６９１巷１９號","OBJECTID":370643},"geometry":{"x":178778.46000000089,"y":2549023.2500000037}},{"attributes":{"ID":370654,"DIS_CODE":0,"TOWNNAME":"新化區","LI":"太平里","LIN":"12鄰","STREET":"中正路","SECT":" ","MAREA":" ","LANE":"６３３巷","ALLEY":" ","HOUSE_NO":"８號之２","E_COORD97":178852.66,"N_COORD97":2548924.2599999998,"ADDRESS":"中正路６３３巷８號之２","OBJECTID":370644},"geometry":{"x":178852.66000000015,"y":2548924.2599999998}},{"attributes":{"ID":370655,"DIS_CODE":0,"TOWNNAME":"新化區","LI":"太平里","LIN":"12鄰","STREET":"中正路","SECT":" ","MAREA":" ","LANE":"６３３巷","ALLEY":" ","HOUSE_NO":"３４號","E_COORD97":178722.76000000001,"N_COORD97":2548918.25,"ADDRESS":"中正路６３３巷３４號","OBJECTID":370645},"geometry":{"x":178722.75999999978,"y":2548918.2500000037}},{"attributes":{"ID":370656,"DIS_CODE":0,"TOWNNAME":"新化區","LI":"太平里","LIN":"12鄰","STREET":"中正路","SECT":" ","MAREA":" ","LANE":"６３３巷","ALLEY":" ","HOUSE_NO":"２６號","E_COORD97":178762.06,"N_COORD97":2548923.25,"ADDRESS":"中正路６３３巷２６號","OBJECTID":370646},"geometry":{"x":178762.06000000052,"y":2548923.2500000019}},{"attributes":{"ID":370657,"DIS_CODE":0,"TOWNNAME":"新化區","LI":"太平里","LIN":"12鄰","STREET":"中正路","SECT":" ","MAREA":" ","LANE":"６３３巷","ALLEY":" ","HOUSE_NO":"２２號","E_COORD97":178770.45999999999,"N_COORD97":2548922.25,"ADDRESS":"中正路６３３巷２２號","OBJECTID":370647},"geometry":{"x":178770.45999999996,"y":2548922.2500000019}},{"attributes":{"ID":370658,"DIS_CODE":0,"TOWNNAME":"新化區","LI":"豐榮里","LIN":"12鄰","STREET":"正新路","SECT":" ","MAREA":" ","LANE":"９５巷","ALLEY":" ","HOUSE_NO":"１７號","E_COORD97":178566.92000000001,"N_COORD97":2548022.25,"ADDRESS":"正新路９５巷１７號","OBJECTID":370648},"geometry":{"x":178566.92000000086,"y":2548022.25}},{"attributes":{"ID":370659,"DIS_CODE":0,"TOWNNAME":"新化區","LI":"太平里","LIN":"12鄰","STREET":"中正路","SECT":" ","MAREA":" ","LANE":"６３３巷","ALLEY":" ","HOUSE_NO":"３０號","E_COORD97":178753.95999999999,"N_COORD97":2548922.25,"ADDRESS":"中正路６３３巷３０號","OBJECTID":370649},"geometry":{"x":178753.95999999996,"y":2548922.2500000019}},{"attributes":{"ID":370660,"DIS_CODE":0,"TOWNNAME":"新化區","LI":"太平里","LIN":"12鄰","STREET":"中正路","SECT":" ","MAREA":" ","LANE":"６３３巷","ALLEY":" ","HOUSE_NO":"６號之２","E_COORD97":178874.85999999999,"N_COORD97":2548925.2599999998,"ADDRESS":"中正路６３３巷６號之２","OBJECTID":370650},"geometry":{"x":178874.86000000034,"y":2548925.2600000016}},{"attributes":{"ID":370661,"DIS_CODE":0,"TOWNNAME":"新化區","LI":"太平里","LIN":"12鄰","STREET":"中正路","SECT":" ","MAREA":" ","LANE":"６３３巷","ALLEY":" ","HOUSE_NO":"１２號之３","E_COORD97":178805.31,"N_COORD97":2548942.2599999998,"ADDRESS":"中正路６３３巷１２號之３","OBJECTID":370651},"geometry":{"x":178805.30999999959,"y":2548942.2600000016}},{"attributes":{"ID":370662,"DIS_CODE":0,"TOWNNAME":"新化區","LI":"太平里","LIN":"12鄰","STREET":"中正路","SECT":" ","MAREA":" ","LANE":"６９１巷","ALLEY":" ","HOUSE_NO":"５號","E_COORD97":178795.41,"N_COORD97":2549063.25,"ADDRESS":"中正路６９１巷５號","OBJECTID":370652},"geometry":{"x":178795.41000000201,"y":2549063.25}},{"attributes":{"ID":370663,"DIS_CODE":0,"TOWNNAME":"新化區","LI":"武安里","LIN":"12鄰","STREET":"正新南路","SECT":" ","MAREA":" ","LANE":"１３３巷","ALLEY":" ","HOUSE_NO":"３號","E_COORD97":178832.76999999999,"N_COORD97":2547931.25,"ADDRESS":"正新南路１３３巷３號","OBJECTID":370653},"geometry":{"x":178832.76999999955,"y":2547931.25}},{"attributes":{"ID":370664,"DIS_CODE":0,"TOWNNAME":"新化區","LI":"太平里","LIN":"12鄰","STREET":"中正路","SECT":" ","MAREA":" ","LANE":"６３３巷","ALLEY":" ","HOUSE_NO":"１４號","E_COORD97":178798.85999999999,"N_COORD97":2548922.25,"ADDRESS":"中正路６３３巷１４號","OBJECTID":370654},"geometry":{"x":178798.86000000034,"y":2548922.2500000019}},{"attributes":{"ID":370665,"DIS_CODE":0,"TOWNNAME":"新化區","LI":"武安里","LIN":"12鄰","STREET":"正新南路","SECT":" ","MAREA":" ","LANE":"１２３巷","ALLEY":" ","HOUSE_NO":"６號","E_COORD97":178846.47,"N_COORD97":2547935.25,"ADDRESS":"正新南路１２３巷６號","OBJECTID":370655},"geometry":{"x":178846.46999999974,"y":2547935.2500000037}},{"attributes":{"ID":370666,"DIS_CODE":0,"TOWNNAME":"新化區","LI":"太平里","LIN":"12鄰","STREET":"中正路","SECT":" ","MAREA":" ","LANE":"６３３巷","ALLEY":" ","HOUSE_NO":"１０號","E_COORD97":178847.76000000001,"N_COORD97":2548924.25,"ADDRESS":"中正路６３３巷１０號","OBJECTID":370656},"geometry":{"x":178847.76000000071,"y":2548924.25}},{"attributes":{"ID":370667,"DIS_CODE":0,"TOWNNAME":"新化區","LI":"太平里","LIN":"12鄰","STREET":"中正路","SECT":" ","MAREA":" ","LANE":"６３３巷","ALLEY":" ","HOUSE_NO":"１２號之１","E_COORD97":178813.59,"N_COORD97":2548926.2599999998,"ADDRESS":"中正路６３３巷１２號之１","OBJECTID":370657},"geometry":{"x":178813.58999999985,"y":2548926.2600000016}},{"attributes":{"ID":370668,"DIS_CODE":0,"TOWNNAME":"新化區","LI":"武安里","LIN":"12鄰","STREET":"正新南路","SECT":" ","MAREA":" ","LANE":"１２３巷","ALLEY":" ","HOUSE_NO":"２號","E_COORD97":178844.97,"N_COORD97":2547942.25,"ADDRESS":"正新南路１２３巷２號","OBJECTID":370658},"geometry":{"x":178844.96999999974,"y":2547942.2500000019}},{"attributes":{"ID":370669,"DIS_CODE":0,"TOWNNAME":"新化區","LI":"豐榮里","LIN":"12鄰","STREET":"正新路","SECT":" ","MAREA":" ","LANE":"９５巷","ALLEY":" ","HOUSE_NO":"５號","E_COORD97":178560.87,"N_COORD97":2548047.25,"ADDRESS":"正新路９５巷５號","OBJECTID":370659},"geometry":{"x":178560.87000000104,"y":2548047.2500000019}},{"attributes":{"ID":370670,"DIS_CODE":0,"TOWNNAME":"新化區","LI":"太平里","LIN":"12鄰","STREET":"中正路","SECT":" ","MAREA":" ","LANE":"６３３巷","ALLEY":" ","HOUSE_NO":"６號","E_COORD97":178882.20999999999,"N_COORD97":2548925.25,"ADDRESS":"中正路６３３巷６號","OBJECTID":370660},"geometry":{"x":178882.20999999996,"y":2548925.2500000037}},{"attributes":{"ID":370671,"DIS_CODE":0,"TOWNNAME":"新化區","LI":"太平里","LIN":"12鄰","STREET":"中正路","SECT":" ","MAREA":" ","LANE":"６３３巷","ALLEY":" ","HOUSE_NO":"８號之１","E_COORD97":178856.94,"N_COORD97":2548924.2599999998,"ADDRESS":"中正路６３３巷８號之１","OBJECTID":370661},"geometry":{"x":178856.94000000134,"y":2548924.2599999998}},{"attributes":{"ID":370672,"DIS_CODE":0,"TOWNNAME":"新化區","LI":"太平里","LIN":"12鄰","STREET":"中正路","SECT":" ","MAREA":" ","LANE":"６６３巷","ALLEY":" ","HOUSE_NO":"１號","E_COORD97":178826.91,"N_COORD97":2549018.25,"ADDRESS":"中正路６６３巷１號","OBJECTID":370662},"geometry":{"x":178826.91000000015,"y":2549018.2500000019}},{"attributes":{"ID":370673,"DIS_CODE":0,"TOWNNAME":"新化區","LI":"豐榮里","LIN":"12鄰","STREET":"正新路","SECT":" ","MAREA":" ","LANE":"９５巷","ALLEY":" ","HOUSE_NO":"１３號","E_COORD97":178565.51999999999,"N_COORD97":2548030.25,"ADDRESS":"正新路９５巷１３號","OBJECTID":370663},"geometry":{"x":178565.52000000048,"y":2548030.2500000037}},{"attributes":{"ID":370674,"DIS_CODE":0,"TOWNNAME":"新化區","LI":"豐榮里","LIN":"12鄰","STREET":"正新路","SECT":" ","MAREA":" ","LANE":"９５巷","ALLEY":" ","HOUSE_NO":"１５號","E_COORD97":178566.72,"N_COORD97":2548027.25,"ADDRESS":"正新路９５巷１５號","OBJECTID":370664},"geometry":{"x":178566.71999999974,"y":2548027.2500000019}},{"attributes":{"ID":370675,"DIS_CODE":0,"TOWNNAME":"新化區","LI":"太平里","LIN":"12鄰","STREET":"中正路","SECT":" ","MAREA":" ","LANE":"６３３巷","ALLEY":" ","HOUSE_NO":"１２號之２","E_COORD97":178811.20999999999,"N_COORD97":2548932.2599999998,"ADDRESS":"中正路６３３巷１２號之２","OBJECTID":370665},"geometry":{"x":178811.20999999996,"y":2548932.2600000016}},{"attributes":{"ID":370676,"DIS_CODE":0,"TOWNNAME":"新化區","LI":"太平里","LIN":"12鄰","STREET":"中正路","SECT":" ","MAREA":" ","LANE":"６３３巷","ALLEY":" ","HOUSE_NO":"４號","E_COORD97":178798.41,"N_COORD97":2549004.25,"ADDRESS":"中正路６３３巷４號","OBJECTID":370666},"geometry":{"x":178798.41000000015,"y":2549004.2500000019}},{"attributes":{"ID":370677,"DIS_CODE":0,"TOWNNAME":"新化區","LI":"豐榮里","LIN":"12鄰","STREET":"正新路","SECT":" ","MAREA":" ","LANE":"９５巷","ALLEY":" ","HOUSE_NO":"３９號","E_COORD97":178582.01999999999,"N_COORD97":2547973.25,"ADDRESS":"正新路９５巷３９號","OBJECTID":370667},"geometry":{"x":178582.01999999955,"y":2547973.2500000019}},{"attributes":{"ID":370678,"DIS_CODE":0,"TOWNNAME":"新化區","LI":"太平里","LIN":"12鄰","STREET":"中正路","SECT":" ","MAREA":" ","LANE":"６３３巷","ALLEY":" ","HOUSE_NO":"３２號","E_COORD97":178742.56,"N_COORD97":2548924.25,"ADDRESS":"中正路６３３巷３２號","OBJECTID":370668},"geometry":{"x":178742.55999999959,"y":2548924.25}},{"attributes":{"ID":370679,"DIS_CODE":0,"TOWNNAME":"新化區","LI":"豐榮里","LIN":"12鄰","STREET":"正新路","SECT":" ","MAREA":" ","LANE":"９５巷","ALLEY":" ","HOUSE_NO":"３７號","E_COORD97":178581.22,"N_COORD97":2547977.25,"ADDRESS":"正新路９５巷３７號","OBJECTID":370669},"geometry":{"x":178581.22000000067,"y":2547977.2500000019}},{"attributes":{"ID":370680,"DIS_CODE":0,"TOWNNAME":"新化區","LI":"東榮里","LIN":"12鄰","STREET":"中興路","SECT":" ","MAREA":" ","LANE":"５５４巷","ALLEY":" ","HOUSE_NO":"１６號","E_COORD97":179922.56,"N_COORD97":2547981.25,"ADDRESS":"中興路５５４巷１６號","OBJECTID":370670},"geometry":{"x":179922.55999999959,"y":2547981.25}},{"attributes":{"ID":370681,"DIS_CODE":0,"TOWNNAME":"新化區","LI":"東榮里","LIN":"12鄰","STREET":"中興路","SECT":" ","MAREA":" ","LANE":"５３４巷","ALLEY":" ","HOUSE_NO":"２號之２","E_COORD97":179969.85999999999,"N_COORD97":2547955.2599999998,"ADDRESS":"中興路５３４巷２號之２","OBJECTID":370671},"geometry":{"x":179969.86000000127,"y":2547955.2600000035}},{"attributes":{"ID":370682,"DIS_CODE":0,"TOWNNAME":"新化區","LI":"東榮里","LIN":"12鄰","STREET":"中興路","SECT":" ","MAREA":" ","LANE":"５３４巷","ALLEY":" ","HOUSE_NO":"４０號","E_COORD97":179972.06,"N_COORD97":2548004.25,"ADDRESS":"中興路５３４巷４０號","OBJECTID":370672},"geometry":{"x":179972.06000000145,"y":2548004.2500000019}},{"attributes":{"ID":370683,"DIS_CODE":0,"TOWNNAME":"新化區","LI":"豐榮里","LIN":"12鄰","STREET":"正新路","SECT":" ","MAREA":" ","LANE":"９５巷","ALLEY":" ","HOUSE_NO":"２９號","E_COORD97":178576.01999999999,"N_COORD97":2547993.25,"ADDRESS":"正新路９５巷２９號","OBJECTID":370673},"geometry":{"x":178576.02000000048,"y":2547993.2500000019}},{"attributes":{"ID":370684,"DIS_CODE":0,"TOWNNAME":"新化區","LI":"豐榮里","LIN":"12鄰","STREET":"正新路","SECT":" ","MAREA":" ","LANE":"９５巷","ALLEY":" ","HOUSE_NO":"２７號","E_COORD97":178575.22,"N_COORD97":2547997.25,"ADDRESS":"正新路９５巷２７號","OBJECTID":370674},"geometry":{"x":178575.21999999974,"y":2547997.2500000019}},{"attributes":{"ID":370685,"DIS_CODE":0,"TOWNNAME":"新化區","LI":"武安里","LIN":"12鄰","STREET":"正新南路","SECT":" ","MAREA":" ","LANE":"８９巷","ALLEY":" ","HOUSE_NO":"６號","E_COORD97":178944.12,"N_COORD97":2547969.25,"ADDRESS":"正新南路８９巷６號","OBJECTID":370675},"geometry":{"x":178944.12000000011,"y":2547969.2500000019}},{"attributes":{"ID":370686,"DIS_CODE":0,"TOWNNAME":"新化區","LI":"豐榮里","LIN":"12鄰","STREET":"正新路","SECT":" ","MAREA":" ","LANE":"９５巷","ALLEY":" ","HOUSE_NO":"５６號","E_COORD97":178578.42000000001,"N_COORD97":2547898.25,"ADDRESS":"正新路９５巷５６號","OBJECTID":370676},"geometry":{"x":178578.42000000086,"y":2547898.2500000019}},{"attributes":{"ID":370687,"DIS_CODE":0,"TOWNNAME":"新化區","LI":"豐榮里","LIN":"12鄰","STREET":"正新路","SECT":" ","MAREA":" ","LANE":"９５巷","ALLEY":" ","HOUSE_NO":"２１號","E_COORD97":178569.92000000001,"N_COORD97":2548014.25,"ADDRESS":"正新路９５巷２１號","OBJECTID":370677},"geometry":{"x":178569.92000000086,"y":2548014.2500000019}},{"attributes":{"ID":370688,"DIS_CODE":0,"TOWNNAME":"新化區","LI":"東榮里","LIN":"12鄰","STREET":"中興路","SECT":" ","MAREA":" ","LANE":"５３４巷","ALLEY":" ","HOUSE_NO":"５７號","E_COORD97":179963.06,"N_COORD97":2548005.25,"ADDRESS":"中興路５３４巷５７號","OBJECTID":370678},"geometry":{"x":179963.05999999959,"y":2548005.25}},{"attributes":{"ID":370689,"DIS_CODE":0,"TOWNNAME":"安平區","LI":"華平里","LIN":"12鄰","STREET":"建平八街","SECT":" ","MAREA":" ","LANE":"３７２巷","ALLEY":" ","HOUSE_NO":"５０號","E_COORD97":165392.01235599999,"N_COORD97":2543684.2426300002,"ADDRESS":"建平八街３７２巷５０號","OBJECTID":370679},"geometry":{"x":165392.01235600095,"y":2543684.2426289972}},{"attributes":{"ID":370690,"DIS_CODE":0,"TOWNNAME":"新化區","LI":"協興里","LIN":"12鄰","STREET":"太平街","SECT":" ","MAREA":" ","LANE":"１５０巷","ALLEY":" ","HOUSE_NO":"１４３號","E_COORD97":178247.81,"N_COORD97":2548865.9700000002,"ADDRESS":"太平街１５０巷１４３號","OBJECTID":370680},"geometry":{"x":178247.80999999959,"y":2548865.9700000007}},{"attributes":{"ID":370691,"DIS_CODE":0,"TOWNNAME":"安平區","LI":"文平里","LIN":"12鄰","STREET":"永華四街","SECT":" ","MAREA":" ","LANE":"１７巷","ALLEY":" ","HOUSE_NO":"３９號","E_COORD97":165781.20999999999,"N_COORD97":2543195.8700000001,"ADDRESS":"永華四街１７巷３９號","OBJECTID":370681},"geometry":{"x":165781.21000000089,"y":2543195.8700000029}},{"attributes":{"ID":370692,"DIS_CODE":0,"TOWNNAME":"安平區","LI":"文平里","LIN":"12鄰","STREET":"永華四街","SECT":" ","MAREA":" ","LANE":"１７巷","ALLEY":" ","HOUSE_NO":"３７號","E_COORD97":165786.10999999999,"N_COORD97":2543205.6200000001,"ADDRESS":"永華四街１７巷３７號","OBJECTID":370682},"geometry":{"x":165786.11000000127,"y":2543205.6200000029}},{"attributes":{"ID":370693,"DIS_CODE":0,"TOWNNAME":"永康區","LI":"王行里","LIN":"12鄰","STREET":"王行路","SECT":" ","MAREA":" ","LANE":"８９８巷","ALLEY":" ","HOUSE_NO":"３８號","E_COORD97":175979.79000000001,"N_COORD97":2550064.9500000002,"ADDRESS":"王行路８９８巷３８號","OBJECTID":370683},"geometry":{"x":175979.79000000004,"y":2550064.9499999993}},{"attributes":{"ID":370694,"DIS_CODE":0,"TOWNNAME":"東區","LI":"路東里","LIN":"12鄰","STREET":"大同路","SECT":"二段","MAREA":" ","LANE":"６１巷","ALLEY":" ","HOUSE_NO":"７３號","E_COORD97":169395.66,"N_COORD97":2542406.0299999998,"ADDRESS":"大同路二段１６１巷７３號","OBJECTID":370684},"geometry":{"x":169395.66000000201,"y":2542406.0300000031}},{"attributes":{"ID":370695,"DIS_CODE":0,"TOWNNAME":"南區","LI":"彰南里","LIN":"4鄰","STREET":"中華西路","SECT":"一段","MAREA":" ","LANE":"５２巷","ALLEY":" ","HOUSE_NO":"２號","E_COORD97":166332.79000000001,"N_COORD97":2541188.8900000001,"ADDRESS":"中華西路一段５２巷２號","OBJECTID":370685},"geometry":{"x":166332.79000000004,"y":2541188.8900000025}},{"attributes":{"ID":370696,"DIS_CODE":0,"TOWNNAME":"南區","LI":"彰南里","LIN":"4鄰","STREET":"中華西路","SECT":"一段","MAREA":" ","LANE":"５２巷","ALLEY":" ","HOUSE_NO":"３號","E_COORD97":166357.14999999999,"N_COORD97":2541214.5699999998,"ADDRESS":"中華西路一段５２巷３號","OBJECTID":370686},"geometry":{"x":166357.1500000013,"y":2541214.5700000022}},{"attributes":{"ID":370697,"DIS_CODE":0,"TOWNNAME":"仁德區","LI":"仁德里","LIN":"12鄰","STREET":"中山路","SECT":" ","MAREA":" ","LANE":"６０６巷","ALLEY":" ","HOUSE_NO":"３號","E_COORD97":173224.01000000001,"N_COORD97":2541404.4900000002,"ADDRESS":"中山路６０６巷３號","OBJECTID":370687},"geometry":{"x":173224.01000000164,"y":2541404.4900000021}},{"attributes":{"ID":370698,"DIS_CODE":0,"TOWNNAME":"東區","LI":"龍山里","LIN":"12鄰","STREET":"東門路","SECT":"一段","MAREA":" ","LANE":"３５０巷","ALLEY":" ","HOUSE_NO":"１４號","E_COORD97":169795.39999999999,"N_COORD97":2542972.3100000001,"ADDRESS":"東門路一段３５０巷１４號","OBJECTID":370688},"geometry":{"x":169795.40000000037,"y":2542972.3100000024}},{"attributes":{"ID":370699,"DIS_CODE":0,"TOWNNAME":"東區","LI":"德光里","LIN":"12鄰","STREET":"崇學路","SECT":" ","MAREA":" ","LANE":"１３５巷","ALLEY":" ","HOUSE_NO":"１０號","E_COORD97":170265.32000000001,"N_COORD97":2542224.6000000001,"ADDRESS":"崇學路１３５巷１０號","OBJECTID":370689},"geometry":{"x":170265.3200000003,"y":2542224.5999999996}},{"attributes":{"ID":370700,"DIS_CODE":0,"TOWNNAME":"東區","LI":"德光里","LIN":"12鄰","STREET":"崇學路","SECT":" ","MAREA":" ","LANE":"１３５巷","ALLEY":" ","HOUSE_NO":"１２號","E_COORD97":170261.26999999999,"N_COORD97":2542227.7200000002,"ADDRESS":"崇學路１３５巷１２號","OBJECTID":370690},"geometry":{"x":170261.27000000048,"y":2542227.7200000025}},{"attributes":{"ID":370701,"DIS_CODE":0,"TOWNNAME":"東區","LI":"德光里","LIN":"12鄰","STREET":"崇學路","SECT":" ","MAREA":" ","LANE":"１３５巷","ALLEY":" ","HOUSE_NO":"１４號","E_COORD97":170258.31,"N_COORD97":2542230.6699999999,"ADDRESS":"崇學路１３５巷１４號","OBJECTID":370691},"geometry":{"x":170258.30999999959,"y":2542230.6700000018}},{"attributes":{"ID":370702,"DIS_CODE":0,"TOWNNAME":"東區","LI":"德光里","LIN":"12鄰","STREET":"崇學路","SECT":" ","MAREA":" ","LANE":"１３５巷","ALLEY":" ","HOUSE_NO":"１６號","E_COORD97":170255.51000000001,"N_COORD97":2542232.7000000002,"ADDRESS":"崇學路１３５巷１６號","OBJECTID":370692},"geometry":{"x":170255.50999999978,"y":2542232.7000000011}},{"attributes":{"ID":370703,"DIS_CODE":0,"TOWNNAME":"東區","LI":"德光里","LIN":"12鄰","STREET":"崇學路","SECT":" ","MAREA":" ","LANE":"１３５巷","ALLEY":" ","HOUSE_NO":"１８號","E_COORD97":170251.92000000001,"N_COORD97":2542236.1200000001,"ADDRESS":"崇學路１３５巷１８號","OBJECTID":370693},"geometry":{"x":170251.92000000086,"y":2542236.120000001}},{"attributes":{"ID":370704,"DIS_CODE":0,"TOWNNAME":"東區","LI":"德光里","LIN":"12鄰","STREET":"崇學路","SECT":" ","MAREA":" ","LANE":"１３５巷","ALLEY":" ","HOUSE_NO":"４號","E_COORD97":170274.20999999999,"N_COORD97":2542217.29,"ADDRESS":"崇學路１３５巷４號","OBJECTID":370694},"geometry":{"x":170274.20999999996,"y":2542217.2899999991}},{"attributes":{"ID":370705,"DIS_CODE":0,"TOWNNAME":"東區","LI":"德光里","LIN":"12鄰","STREET":"崇學路","SECT":" ","MAREA":" ","LANE":"１３５巷","ALLEY":" ","HOUSE_NO":"６號","E_COORD97":170271.39999999999,"N_COORD97":2542219.3100000001,"ADDRESS":"崇學路１３５巷６號","OBJECTID":370695},"geometry":{"x":170271.4000000013,"y":2542219.3100000024}},{"attributes":{"ID":370706,"DIS_CODE":0,"TOWNNAME":"東區","LI":"德光里","LIN":"12鄰","STREET":"崇學路","SECT":" ","MAREA":" ","LANE":"１３５巷","ALLEY":" ","HOUSE_NO":"８號","E_COORD97":170268.28,"N_COORD97":2542221.96,"ADDRESS":"崇學路１３５巷８號","OBJECTID":370696},"geometry":{"x":170268.28000000119,"y":2542221.9600000046}},{"attributes":{"ID":370707,"DIS_CODE":0,"TOWNNAME":"南區","LI":"彰南里","LIN":"3鄰","STREET":"中華西路","SECT":"一段","MAREA":" ","LANE":"５４巷","ALLEY":" ","HOUSE_NO":"１１號","E_COORD97":166374.42999999999,"N_COORD97":2541258.79,"ADDRESS":"中華西路一段５４巷１１號","OBJECTID":370697},"geometry":{"x":166374.43000000063,"y":2541258.790000001}},{"attributes":{"ID":370708,"DIS_CODE":0,"TOWNNAME":"南區","LI":"彰南里","LIN":"1鄰","STREET":"中華西路","SECT":"一段","MAREA":" ","LANE":"５８巷","ALLEY":" ","HOUSE_NO":"１０號","E_COORD97":166366.20999999999,"N_COORD97":2541321.6200000001,"ADDRESS":"中華西路一段５８巷１０號","OBJECTID":370698},"geometry":{"x":166366.21000000089,"y":2541321.620000001}},{"attributes":{"ID":370709,"DIS_CODE":0,"TOWNNAME":"南區","LI":"彰南里","LIN":"1鄰","STREET":"中華西路","SECT":"一段","MAREA":" ","LANE":"５８巷","ALLEY":" ","HOUSE_NO":"１２號","E_COORD97":166373.48000000001,"N_COORD97":2541321.7999999998,"ADDRESS":"中華西路一段５８巷１２號","OBJECTID":370699},"geometry":{"x":166373.48000000138,"y":2541321.8000000026}},{"attributes":{"ID":370710,"DIS_CODE":0,"TOWNNAME":"南區","LI":"彰南里","LIN":"1鄰","STREET":"中華西路","SECT":"一段","MAREA":" ","LANE":"５８巷","ALLEY":" ","HOUSE_NO":"２號","E_COORD97":166331.51999999999,"N_COORD97":2541321.4500000002,"ADDRESS":"中華西路一段５８巷２號","OBJECTID":370700},"geometry":{"x":166331.52000000048,"y":2541321.4499999974}},{"attributes":{"ID":370711,"DIS_CODE":0,"TOWNNAME":"南區","LI":"田寮里","LIN":"12鄰","STREET":"西門路","SECT":"一段","MAREA":" ","LANE":"３８９巷","ALLEY":" ","HOUSE_NO":"２號","E_COORD97":167706.91,"N_COORD97":2542218.9100000001,"ADDRESS":"西門路一段３８９巷２號","OBJECTID":370701},"geometry":{"x":167706.91000000015,"y":2542218.910000002}},{"attributes":{"ID":370712,"DIS_CODE":0,"TOWNNAME":"南區","LI":"田寮里","LIN":"12鄰","STREET":"西門路","SECT":"一段","MAREA":" ","LANE":"３８９巷","ALLEY":" ","HOUSE_NO":"３號","E_COORD97":167706.91,"N_COORD97":2542214.6899999999,"ADDRESS":"西門路一段３８９巷３號","OBJECTID":370702},"geometry":{"x":167706.91000000015,"y":2542214.6899999995}},{"attributes":{"ID":370713,"DIS_CODE":0,"TOWNNAME":"南區","LI":"田寮里","LIN":"12鄰","STREET":"西門路","SECT":"一段","MAREA":" ","LANE":"３８９巷","ALLEY":" ","HOUSE_NO":"４號","E_COORD97":167707.04999999999,"N_COORD97":2542210.6000000001,"ADDRESS":"西門路一段３８９巷４號","OBJECTID":370703},"geometry":{"x":167707.04999999981,"y":2542210.6000000015}},{"attributes":{"ID":370714,"DIS_CODE":0,"TOWNNAME":"中西區","LI":"民生里","LIN":"12鄰","STREET":"大勇街","SECT":" ","MAREA":" ","LANE":"１３４巷","ALLEY":" ","HOUSE_NO":"１０號","E_COORD97":167077.12,"N_COORD97":2543419.6400000001,"ADDRESS":"大勇街１３４巷１０號","OBJECTID":370704},"geometry":{"x":167077.12000000104,"y":2543419.6400000006}},{"attributes":{"ID":370715,"DIS_CODE":0,"TOWNNAME":"中西區","LI":"民生里","LIN":"12鄰","STREET":"大勇街","SECT":" ","MAREA":" ","LANE":"１３４巷","ALLEY":" ","HOUSE_NO":"１２號","E_COORD97":167078.26000000001,"N_COORD97":2543428.29,"ADDRESS":"大勇街１３４巷１２號","OBJECTID":370705},"geometry":{"x":167078.25999999978,"y":2543428.2900000028}},{"attributes":{"ID":370716,"DIS_CODE":0,"TOWNNAME":"中西區","LI":"民生里","LIN":"12鄰","STREET":"大勇街","SECT":" ","MAREA":" ","LANE":"１３４巷","ALLEY":" ","HOUSE_NO":"２號","E_COORD97":167074.39000000001,"N_COORD97":2543409.1699999999,"ADDRESS":"大勇街１３４巷２號","OBJECTID":370706},"geometry":{"x":167074.38999999966,"y":2543409.1699999981}},{"attributes":{"ID":370717,"DIS_CODE":0,"TOWNNAME":"中西區","LI":"民生里","LIN":"12鄰","STREET":"大勇街","SECT":" ","MAREA":" ","LANE":"１３４巷","ALLEY":" ","HOUSE_NO":"２號之１","E_COORD97":167075.07000000001,"N_COORD97":2543412.1299999999,"ADDRESS":"大勇街１３４巷２號之１","OBJECTID":370707},"geometry":{"x":167075.0700000003,"y":2543412.1300000027}},{"attributes":{"ID":370718,"DIS_CODE":0,"TOWNNAME":"中西區","LI":"民生里","LIN":"12鄰","STREET":"大勇街","SECT":" ","MAREA":" ","LANE":"１３４巷","ALLEY":" ","HOUSE_NO":"６號","E_COORD97":167075.53,"N_COORD97":2543415.3100000001,"ADDRESS":"大勇街１３４巷６號","OBJECTID":370708},"geometry":{"x":167075.53000000026,"y":2543415.3100000005}},{"attributes":{"ID":370719,"DIS_CODE":0,"TOWNNAME":"中西區","LI":"民生里","LIN":"12鄰","STREET":"大勇街","SECT":" ","MAREA":" ","LANE":"１３８巷","ALLEY":" ","HOUSE_NO":"１０號","E_COORD97":167064.35999999999,"N_COORD97":2543413.9500000002,"ADDRESS":"大勇街１３８巷１０號","OBJECTID":370709},"geometry":{"x":167064.36000000127,"y":2543413.9500000011}},{"attributes":{"ID":370720,"DIS_CODE":0,"TOWNNAME":"中西區","LI":"元安里","LIN":"12鄰","STREET":"建安街","SECT":" ","MAREA":" ","LANE":"５２巷","ALLEY":" ","HOUSE_NO":"２號","E_COORD97":167508.54999999999,"N_COORD97":2543283.27,"ADDRESS":"建安街５２巷２號","OBJECTID":370710},"geometry":{"x":167508.54999999981,"y":2543283.2700000014}},{"attributes":{"ID":370721,"DIS_CODE":0,"TOWNNAME":"中西區","LI":"民生里","LIN":"12鄰","STREET":"大勇街","SECT":" ","MAREA":" ","LANE":"１３８巷","ALLEY":" ","HOUSE_NO":"１１號","E_COORD97":167054.10000000001,"N_COORD97":2543418.27,"ADDRESS":"大勇街１３８巷１１號","OBJECTID":370711},"geometry":{"x":167054.09999999963,"y":2543418.2699999977}},{"attributes":{"ID":370722,"DIS_CODE":0,"TOWNNAME":"中西區","LI":"民生里","LIN":"12鄰","STREET":"大勇街","SECT":" ","MAREA":" ","LANE":"１３８巷","ALLEY":" ","HOUSE_NO":"１２號","E_COORD97":167065.26999999999,"N_COORD97":2543417.5899999999,"ADDRESS":"大勇街１３８巷１２號","OBJECTID":370712},"geometry":{"x":167065.27000000048,"y":2543417.5900000017}},{"attributes":{"ID":370723,"DIS_CODE":0,"TOWNNAME":"中西區","LI":"民生里","LIN":"12鄰","STREET":"大勇街","SECT":" ","MAREA":" ","LANE":"１３８巷","ALLEY":" ","HOUSE_NO":"１４號","E_COORD97":167066.41,"N_COORD97":2543421,"ADDRESS":"大勇街１３８巷１４號","OBJECTID":370713},"geometry":{"x":167066.41000000201,"y":2543421.0000000037}},{"attributes":{"ID":370724,"DIS_CODE":0,"TOWNNAME":"中西區","LI":"民生里","LIN":"12鄰","STREET":"大勇街","SECT":" ","MAREA":" ","LANE":"１３８巷","ALLEY":" ","HOUSE_NO":"１６號","E_COORD97":167067.10000000001,"N_COORD97":2543425.1000000001,"ADDRESS":"大勇街１３８巷１６號","OBJECTID":370714},"geometry":{"x":167067.10000000056,"y":2543425.0999999996}},{"attributes":{"ID":370725,"DIS_CODE":0,"TOWNNAME":"中西區","LI":"民生里","LIN":"12鄰","STREET":"大勇街","SECT":" ","MAREA":" ","LANE":"１３８巷","ALLEY":" ","HOUSE_NO":"１號","E_COORD97":167050,"N_COORD97":2543400.29,"ADDRESS":"大勇街１３８巷１號","OBJECTID":370715},"geometry":{"x":167050,"y":2543400.2899999991}},{"attributes":{"ID":370726,"DIS_CODE":0,"TOWNNAME":"中西區","LI":"民生里","LIN":"12鄰","STREET":"大勇街","SECT":" ","MAREA":" ","LANE":"１３８巷","ALLEY":" ","HOUSE_NO":"２號","E_COORD97":167060.03,"N_COORD97":2543398.2400000002,"ADDRESS":"大勇街１３８巷２號","OBJECTID":370716},"geometry":{"x":167060.03000000026,"y":2543398.2400000002}},{"attributes":{"ID":370727,"DIS_CODE":0,"TOWNNAME":"中西區","LI":"民生里","LIN":"12鄰","STREET":"大勇街","SECT":" ","MAREA":" ","LANE":"１３８巷","ALLEY":" ","HOUSE_NO":"３號","E_COORD97":167051.14000000001,"N_COORD97":2543403.9300000002,"ADDRESS":"大勇街１３８巷３號","OBJECTID":370717},"geometry":{"x":167051.1400000006,"y":2543403.9300000034}},{"attributes":{"ID":370728,"DIS_CODE":0,"TOWNNAME":"中西區","LI":"民生里","LIN":"12鄰","STREET":"大勇街","SECT":" ","MAREA":" ","LANE":"１３８巷","ALLEY":" ","HOUSE_NO":"４號","E_COORD97":167061.85000000001,"N_COORD97":2543402.3399999999,"ADDRESS":"大勇街１３８巷４號","OBJECTID":370718},"geometry":{"x":167061.85000000056,"y":2543402.3400000017}},{"attributes":{"ID":370729,"DIS_CODE":0,"TOWNNAME":"中西區","LI":"民生里","LIN":"12鄰","STREET":"大勇街","SECT":" ","MAREA":" ","LANE":"１３８巷","ALLEY":" ","HOUSE_NO":"５號","E_COORD97":167051.82000000001,"N_COORD97":2543407.1200000001,"ADDRESS":"大勇街１３８巷５號","OBJECTID":370719},"geometry":{"x":167051.81999999937,"y":2543407.120000001}},{"attributes":{"ID":370730,"DIS_CODE":0,"TOWNNAME":"中西區","LI":"民生里","LIN":"12鄰","STREET":"大勇街","SECT":" ","MAREA":" ","LANE":"１３８巷","ALLEY":" ","HOUSE_NO":"６號","E_COORD97":167062.31,"N_COORD97":2543406.21,"ADDRESS":"大勇街１３８巷６號","OBJECTID":370720},"geometry":{"x":167062.30999999959,"y":2543406.2100000009}},{"attributes":{"ID":370731,"DIS_CODE":0,"TOWNNAME":"中西區","LI":"民生里","LIN":"12鄰","STREET":"大勇街","SECT":" ","MAREA":" ","LANE":"１３８巷","ALLEY":" ","HOUSE_NO":"７號","E_COORD97":167052.73999999999,"N_COORD97":2543411.21,"ADDRESS":"大勇街１３８巷７號","OBJECTID":370721},"geometry":{"x":167052.74000000115,"y":2543411.2100000028}},{"attributes":{"ID":370732,"DIS_CODE":0,"TOWNNAME":"中西區","LI":"民生里","LIN":"12鄰","STREET":"大勇街","SECT":" ","MAREA":" ","LANE":"１３８巷","ALLEY":" ","HOUSE_NO":"８號","E_COORD97":167062.98999999999,"N_COORD97":2543410.0800000001,"ADDRESS":"大勇街１３８巷８號","OBJECTID":370722},"geometry":{"x":167062.99000000115,"y":2543410.0800000038}},{"attributes":{"ID":370733,"DIS_CODE":0,"TOWNNAME":"中西區","LI":"民生里","LIN":"12鄰","STREET":"大勇街","SECT":" ","MAREA":" ","LANE":"１３８巷","ALLEY":" ","HOUSE_NO":"９號","E_COORD97":167053.42000000001,"N_COORD97":2543414.8599999999,"ADDRESS":"大勇街１３８巷９號","OBJECTID":370723},"geometry":{"x":167053.41999999993,"y":2543414.8600000013}},{"attributes":{"ID":370734,"DIS_CODE":0,"TOWNNAME":"永康區","LI":"甲頂里","LIN":"12鄰","STREET":"中正南路","SECT":" ","MAREA":" ","LANE":"５２巷","ALLEY":" ","HOUSE_NO":"９２號","E_COORD97":170110.57000000001,"N_COORD97":2546796.7799999998,"ADDRESS":"中正南路５２巷９２號","OBJECTID":370724},"geometry":{"x":170110.57000000123,"y":2546796.7799999993}},{"attributes":{"ID":370735,"DIS_CODE":0,"TOWNNAME":"中西區","LI":"元安里","LIN":"12鄰","STREET":"建安街","SECT":" ","MAREA":" ","LANE":"５２巷","ALLEY":" ","HOUSE_NO":"３號","E_COORD97":167512.04000000001,"N_COORD97":2543290.0099999998,"ADDRESS":"建安街５２巷３號","OBJECTID":370725},"geometry":{"x":167512.04000000097,"y":2543290.0099999998}},{"attributes":{"ID":370736,"DIS_CODE":0,"TOWNNAME":"永康區","LI":"甲頂里","LIN":"12鄰","STREET":"中正南路","SECT":" ","MAREA":" ","LANE":"５２巷","ALLEY":" ","HOUSE_NO":"９６號","E_COORD97":170132.44,"N_COORD97":2546796.1000000001,"ADDRESS":"中正南路５２巷９６號","OBJECTID":370726},"geometry":{"x":170132.44000000041,"y":2546796.0999999996}},{"attributes":{"ID":370737,"DIS_CODE":0,"TOWNNAME":"永康區","LI":"甲頂里","LIN":"12鄰","STREET":"中正南路","SECT":" ","MAREA":" ","LANE":"５２巷","ALLEY":" ","HOUSE_NO":"９６號","E_COORD97":170138.98000000001,"N_COORD97":2546766.2599999998,"ADDRESS":"中正南路５２巷９６號","OBJECTID":370727},"geometry":{"x":170138.98000000045,"y":2546766.2600000016}},{"attributes":{"ID":370738,"DIS_CODE":0,"TOWNNAME":"永康區","LI":"甲頂里","LIN":"12鄰","STREET":"中正南路","SECT":" ","MAREA":" ","LANE":"５２巷","ALLEY":" ","HOUSE_NO":"９６號","E_COORD97":170126.09,"N_COORD97":2546796.6000000001,"ADDRESS":"中正南路５２巷９６號","OBJECTID":370728},"geometry":{"x":170126.08999999985,"y":2546796.6000000034}},{"attributes":{"ID":370739,"DIS_CODE":0,"TOWNNAME":"永康區","LI":"甲頂里","LIN":"12鄰","STREET":"中正南路","SECT":" ","MAREA":" ","LANE":"５２巷","ALLEY":" ","HOUSE_NO":"９６號","E_COORD97":170125.98999999999,"N_COORD97":2546796.6000000001,"ADDRESS":"中正南路５２巷９６號","OBJECTID":370729},"geometry":{"x":170125.99000000115,"y":2546796.6000000034}},{"attributes":{"ID":370740,"DIS_CODE":0,"TOWNNAME":"永康區","LI":"甲頂里","LIN":"12鄰","STREET":"中正南路","SECT":" ","MAREA":" ","LANE":"５２巷","ALLEY":" ","HOUSE_NO":"９６號","E_COORD97":170120.57000000001,"N_COORD97":2546794.6000000001,"ADDRESS":"中正南路５２巷９６號","OBJECTID":370730},"geometry":{"x":170120.57000000123,"y":2546794.6000000015}},{"attributes":{"ID":370741,"DIS_CODE":0,"TOWNNAME":"永康區","LI":"甲頂里","LIN":"12鄰","STREET":"中正南路","SECT":" ","MAREA":" ","LANE":"５２巷","ALLEY":" ","HOUSE_NO":"７６號","E_COORD97":170070.26000000001,"N_COORD97":2546796.0299999998,"ADDRESS":"中正南路５２巷７６號","OBJECTID":370731},"geometry":{"x":170070.25999999978,"y":2546796.0299999993}},{"attributes":{"ID":370742,"DIS_CODE":0,"TOWNNAME":"永康區","LI":"甲頂里","LIN":"12鄰","STREET":"中正南路","SECT":" ","MAREA":" ","LANE":"５２巷","ALLEY":" ","HOUSE_NO":"９６號","E_COORD97":170115.94,"N_COORD97":2546794.5600000001,"ADDRESS":"中正南路５２巷９６號","OBJECTID":370732},"geometry":{"x":170115.94000000041,"y":2546794.5600000042}},{"attributes":{"ID":370743,"DIS_CODE":0,"TOWNNAME":"永康區","LI":"甲頂里","LIN":"12鄰","STREET":"中正南路","SECT":" ","MAREA":" ","LANE":"５２巷","ALLEY":" ","HOUSE_NO":"９６號","E_COORD97":170132.48000000001,"N_COORD97":2546796.1000000001,"ADDRESS":"中正南路５２巷９６號","OBJECTID":370733},"geometry":{"x":170132.48000000045,"y":2546796.0999999996}},{"attributes":{"ID":370744,"DIS_CODE":0,"TOWNNAME":"永康區","LI":"甲頂里","LIN":"12鄰","STREET":"中正南路","SECT":" ","MAREA":" ","LANE":"５２巷","ALLEY":" ","HOUSE_NO":"９６號","E_COORD97":170120.70999999999,"N_COORD97":2546794.6000000001,"ADDRESS":"中正南路５２巷９６號","OBJECTID":370734},"geometry":{"x":170120.71000000183,"y":2546794.6000000015}},{"attributes":{"ID":370745,"DIS_CODE":0,"TOWNNAME":"永康區","LI":"西橋里","LIN":"12鄰","STREET":"中華西街","SECT":" ","MAREA":" ","LANE":"１２７巷","ALLEY":" ","HOUSE_NO":"６號","E_COORD97":170624.51000000001,"N_COORD97":2546181.4900000002,"ADDRESS":"中華西街１２７巷６號","OBJECTID":370735},"geometry":{"x":170624.50999999978,"y":2546181.4900000021}},{"attributes":{"ID":370746,"DIS_CODE":0,"TOWNNAME":"永康區","LI":"甲頂里","LIN":"12鄰","STREET":"中正南路","SECT":" ","MAREA":" ","LANE":"５２巷","ALLEY":" ","HOUSE_NO":"９６號","E_COORD97":170120.67000000001,"N_COORD97":2546794.6000000001,"ADDRESS":"中正南路５２巷９６號","OBJECTID":370736},"geometry":{"x":170120.66999999993,"y":2546794.6000000015}},{"attributes":{"ID":370747,"DIS_CODE":0,"TOWNNAME":"永康區","LI":"甲頂里","LIN":"12鄰","STREET":"中正南路","SECT":" ","MAREA":" ","LANE":"５２巷","ALLEY":" ","HOUSE_NO":"９６號","E_COORD97":170125.98999999999,"N_COORD97":2546796.6000000001,"ADDRESS":"中正南路５２巷９６號","OBJECTID":370737},"geometry":{"x":170125.99000000115,"y":2546796.6000000034}},{"attributes":{"ID":370748,"DIS_CODE":0,"TOWNNAME":"永康區","LI":"西橋里","LIN":"12鄰","STREET":"中華西街","SECT":" ","MAREA":" ","LANE":"１２７巷","ALLEY":" ","HOUSE_NO":"１０號","E_COORD97":170621.45999999999,"N_COORD97":2546169.9900000002,"ADDRESS":"中華西街１２７巷１０號","OBJECTID":370738},"geometry":{"x":170621.46000000089,"y":2546169.9900000002}},{"attributes":{"ID":370749,"DIS_CODE":0,"TOWNNAME":"永康區","LI":"甲頂里","LIN":"12鄰","STREET":"中正南路","SECT":" ","MAREA":" ","LANE":"５２巷","ALLEY":" ","HOUSE_NO":"９６號","E_COORD97":170126.13,"N_COORD97":2546796.6000000001,"ADDRESS":"中正南路５２巷９６號","OBJECTID":370739},"geometry":{"x":170126.13000000175,"y":2546796.6000000034}},{"attributes":{"ID":370750,"DIS_CODE":0,"TOWNNAME":"永康區","LI":"正強里","LIN":"12鄰","STREET":"正強街","SECT":" ","MAREA":" ","LANE":"１２２巷","ALLEY":" ","HOUSE_NO":"１６號","E_COORD97":173389.45999999999,"N_COORD97":2547414.4900000002,"ADDRESS":"正強街１２２巷１６號","OBJECTID":370740},"geometry":{"x":173389.46000000089,"y":2547414.4900000002}},{"attributes":{"ID":370751,"DIS_CODE":0,"TOWNNAME":"永康區","LI":"永康里","LIN":"12鄰","STREET":"永康街","SECT":" ","MAREA":" ","LANE":"１３６巷","ALLEY":" ","HOUSE_NO":"３２號","E_COORD97":173878.85000000001,"N_COORD97":2547014.2400000002,"ADDRESS":"永康街１３６巷３２號","OBJECTID":370741},"geometry":{"x":173878.84999999963,"y":2547014.2400000021}},{"attributes":{"ID":370752,"DIS_CODE":0,"TOWNNAME":"中西區","LI":"元安里","LIN":"12鄰","STREET":"建安街","SECT":" ","MAREA":" ","LANE":"５２巷","ALLEY":" ","HOUSE_NO":"１號","E_COORD97":167508.76000000001,"N_COORD97":2543279.8799999999,"ADDRESS":"建安街５２巷１號","OBJECTID":370742},"geometry":{"x":167508.75999999978,"y":2543279.879999999}},{"attributes":{"ID":370753,"DIS_CODE":0,"TOWNNAME":"永康區","LI":"永康里","LIN":"12鄰","STREET":"永康街","SECT":" ","MAREA":" ","LANE":"１３６巷","ALLEY":" ","HOUSE_NO":"２０號","E_COORD97":173897.79000000001,"N_COORD97":2547039.3799999999,"ADDRESS":"永康街１３６巷２０號","OBJECTID":370743},"geometry":{"x":173897.79000000097,"y":2547039.3800000008}},{"attributes":{"ID":370754,"DIS_CODE":0,"TOWNNAME":"永康區","LI":"永康里","LIN":"12鄰","STREET":"永康街","SECT":" ","MAREA":" ","LANE":"１３６巷","ALLEY":" ","HOUSE_NO":"３０號","E_COORD97":173884.5,"N_COORD97":2547019.1200000001,"ADDRESS":"永康街１３６巷３０號","OBJECTID":370744},"geometry":{"x":173884.50000000093,"y":2547019.1200000029}},{"attributes":{"ID":370755,"DIS_CODE":0,"TOWNNAME":"中西區","LI":"元安里","LIN":"12鄰","STREET":"建安街","SECT":" ","MAREA":" ","LANE":"５２巷","ALLEY":" ","HOUSE_NO":"４號","E_COORD97":167506.95000000001,"N_COORD97":2543288.3199999998,"ADDRESS":"建安街５２巷４號","OBJECTID":370745},"geometry":{"x":167506.95000000205,"y":2543288.3200000022}},{"attributes":{"ID":370756,"DIS_CODE":0,"TOWNNAME":"中西區","LI":"元安里","LIN":"12鄰","STREET":"建安街","SECT":" ","MAREA":" ","LANE":"５２巷","ALLEY":" ","HOUSE_NO":"５號","E_COORD97":167501.01000000001,"N_COORD97":2543289.0600000001,"ADDRESS":"建安街５２巷５號","OBJECTID":370746},"geometry":{"x":167501.01000000164,"y":2543289.0600000024}},{"attributes":{"ID":370757,"DIS_CODE":0,"TOWNNAME":"中西區","LI":"元安里","LIN":"12鄰","STREET":"建安街","SECT":" ","MAREA":" ","LANE":"５２巷","ALLEY":" ","HOUSE_NO":"６號","E_COORD97":167501.44,"N_COORD97":2543282.3199999998,"ADDRESS":"建安街５２巷６號","OBJECTID":370747},"geometry":{"x":167501.44000000041,"y":2543282.3200000003}},{"attributes":{"ID":370758,"DIS_CODE":0,"TOWNNAME":"中西區","LI":"元安里","LIN":"12鄰","STREET":"建安街","SECT":" ","MAREA":" ","LANE":"５２巷","ALLEY":" ","HOUSE_NO":"７號","E_COORD97":167499.85000000001,"N_COORD97":2543276.4900000002,"ADDRESS":"建安街５２巷７號","OBJECTID":370748},"geometry":{"x":167499.84999999963,"y":2543276.4900000021}},{"attributes":{"ID":370759,"DIS_CODE":0,"TOWNNAME":"新化區","LI":"協興里","LIN":"12鄰","STREET":"太平街","SECT":" ","MAREA":" ","LANE":"１５０巷","ALLEY":" ","HOUSE_NO":"１２７號","E_COORD97":178297.22,"N_COORD97":2548886.25,"ADDRESS":"太平街１５０巷１２７號","OBJECTID":370749},"geometry":{"x":178297.21999999974,"y":2548886.25}},{"attributes":{"ID":370760,"DIS_CODE":0,"TOWNNAME":"新化區","LI":"協興里","LIN":"12鄰","STREET":"太平街","SECT":" ","MAREA":" ","LANE":"１５０巷","ALLEY":" ","HOUSE_NO":"１４９號","E_COORD97":178233.92000000001,"N_COORD97":2548857.25,"ADDRESS":"太平街１５０巷１４９號","OBJECTID":370750},"geometry":{"x":178233.91999999899,"y":2548857.2500000037}},{"attributes":{"ID":370761,"DIS_CODE":0,"TOWNNAME":"新化區","LI":"協興里","LIN":"12鄰","STREET":"太平街","SECT":" ","MAREA":" ","LANE":"１５０巷","ALLEY":" ","HOUSE_NO":"１９７號","E_COORD97":178268.72,"N_COORD97":2548899.25,"ADDRESS":"太平街１５０巷１９７號","OBJECTID":370751},"geometry":{"x":178268.71999999974,"y":2548899.2500000019}},{"attributes":{"ID":370762,"DIS_CODE":0,"TOWNNAME":"新化區","LI":"協興里","LIN":"12鄰","STREET":"太平街","SECT":" ","MAREA":" ","LANE":"１５０巷","ALLEY":" ","HOUSE_NO":"１４７號","E_COORD97":178239.12,"N_COORD97":2548859.25,"ADDRESS":"太平街１５０巷１４７號","OBJECTID":370752},"geometry":{"x":178239.12000000011,"y":2548859.25}},{"attributes":{"ID":370763,"DIS_CODE":0,"TOWNNAME":"新化區","LI":"協興里","LIN":"12鄰","STREET":"太平街","SECT":" ","MAREA":" ","LANE":"１５０巷","ALLEY":" ","HOUSE_NO":"１７７號","E_COORD97":178225.92000000001,"N_COORD97":2548888.25,"ADDRESS":"太平街１５０巷１７７號","OBJECTID":370753},"geometry":{"x":178225.92000000086,"y":2548888.2500000019}},{"attributes":{"ID":370764,"DIS_CODE":0,"TOWNNAME":"新化區","LI":"協興里","LIN":"12鄰","STREET":"太平街","SECT":" ","MAREA":" ","LANE":"１５０巷","ALLEY":" ","HOUSE_NO":"１３９號","E_COORD97":178267.12,"N_COORD97":2548864.25,"ADDRESS":"太平街１５０巷１３９號","OBJECTID":370754},"geometry":{"x":178267.12000000104,"y":2548864.2500000037}},{"attributes":{"ID":370765,"DIS_CODE":0,"TOWNNAME":"新化區","LI":"協興里","LIN":"12鄰","STREET":"太平街","SECT":" ","MAREA":" ","LANE":"１５０巷","ALLEY":" ","HOUSE_NO":"２３３號","E_COORD97":178222.51999999999,"N_COORD97":2548914.25,"ADDRESS":"太平街１５０巷２３３號","OBJECTID":370755},"geometry":{"x":178222.51999999955,"y":2548914.25}},{"attributes":{"ID":370766,"DIS_CODE":0,"TOWNNAME":"新化區","LI":"協興里","LIN":"12鄰","STREET":"太平街","SECT":" ","MAREA":" ","LANE":"１５０巷","ALLEY":" ","HOUSE_NO":"１６３號","E_COORD97":178254.51999999999,"N_COORD97":2548884.25,"ADDRESS":"太平街１５０巷１６３號","OBJECTID":370756},"geometry":{"x":178254.51999999955,"y":2548884.2500000037}},{"attributes":{"ID":370767,"DIS_CODE":0,"TOWNNAME":"新化區","LI":"協興里","LIN":"12鄰","STREET":"太平街","SECT":" ","MAREA":" ","LANE":"１５０巷","ALLEY":" ","HOUSE_NO":"１７９號","E_COORD97":178230.42000000001,"N_COORD97":2548890.25,"ADDRESS":"太平街１５０巷１７９號","OBJECTID":370757},"geometry":{"x":178230.41999999993,"y":2548890.25}},{"attributes":{"ID":370768,"DIS_CODE":0,"TOWNNAME":"新化區","LI":"協興里","LIN":"12鄰","STREET":"太平街","SECT":" ","MAREA":" ","LANE":"１５０巷","ALLEY":" ","HOUSE_NO":"１７３號","E_COORD97":178214.12,"N_COORD97":2548885.25,"ADDRESS":"太平街１５０巷１７３號","OBJECTID":370758},"geometry":{"x":178214.11999999918,"y":2548885.2500000019}},{"attributes":{"ID":370769,"DIS_CODE":0,"TOWNNAME":"新化區","LI":"協興里","LIN":"12鄰","STREET":"太平街","SECT":" ","MAREA":" ","LANE":"１５０巷","ALLEY":" ","HOUSE_NO":"２１１號","E_COORD97":178286.32000000001,"N_COORD97":2548927.25,"ADDRESS":"太平街１５０巷２１１號","OBJECTID":370759},"geometry":{"x":178286.32000000123,"y":2548927.25}},{"attributes":{"ID":370770,"DIS_CODE":0,"TOWNNAME":"新化區","LI":"協興里","LIN":"12鄰","STREET":"太平街","SECT":" ","MAREA":" ","LANE":"１５０巷","ALLEY":" ","HOUSE_NO":"２２３號","E_COORD97":178256.62,"N_COORD97":2548931.25,"ADDRESS":"太平街１５０巷２２３號","OBJECTID":370760},"geometry":{"x":178256.62000000197,"y":2548931.25}},{"attributes":{"ID":370771,"DIS_CODE":0,"TOWNNAME":"新化區","LI":"協興里","LIN":"12鄰","STREET":"太平街","SECT":" ","MAREA":" ","LANE":"１５０巷","ALLEY":" ","HOUSE_NO":"１８５號","E_COORD97":178244.32000000001,"N_COORD97":2548893.25,"ADDRESS":"太平街１５０巷１８５號","OBJECTID":370761},"geometry":{"x":178244.32000000123,"y":2548893.25}},{"attributes":{"ID":370772,"DIS_CODE":0,"TOWNNAME":"新化區","LI":"協興里","LIN":"12鄰","STREET":"太平街","SECT":" ","MAREA":" ","LANE":"１５０巷","ALLEY":" ","HOUSE_NO":"１７１號","E_COORD97":178276.01999999999,"N_COORD97":2548889.25,"ADDRESS":"太平街１５０巷１７１號","OBJECTID":370762},"geometry":{"x":178276.02000000048,"y":2548889.2500000019}},{"attributes":{"ID":370773,"DIS_CODE":0,"TOWNNAME":"新化區","LI":"協興里","LIN":"12鄰","STREET":"太平街","SECT":" ","MAREA":" ","LANE":"１５０巷","ALLEY":" ","HOUSE_NO":"１６１號","E_COORD97":178250.22,"N_COORD97":2548883.25,"ADDRESS":"太平街１５０巷１６１號","OBJECTID":370763},"geometry":{"x":178250.21999999974,"y":2548883.25}},{"attributes":{"ID":370774,"DIS_CODE":0,"TOWNNAME":"新化區","LI":"協興里","LIN":"12鄰","STREET":"太平街","SECT":" ","MAREA":" ","LANE":"１５０巷","ALLEY":" ","HOUSE_NO":"１６５號","E_COORD97":178258.62,"N_COORD97":2548885.25,"ADDRESS":"太平街１５０巷１６５號","OBJECTID":370764},"geometry":{"x":178258.62000000104,"y":2548885.2500000019}},{"attributes":{"ID":370775,"DIS_CODE":0,"TOWNNAME":"新化區","LI":"協興里","LIN":"12鄰","STREET":"太平街","SECT":" ","MAREA":" ","LANE":"１５０巷","ALLEY":" ","HOUSE_NO":"２０１號","E_COORD97":178275.42000000001,"N_COORD97":2548901.25,"ADDRESS":"太平街１５０巷２０１號","OBJECTID":370765},"geometry":{"x":178275.42000000086,"y":2548901.2500000037}},{"attributes":{"ID":370776,"DIS_CODE":0,"TOWNNAME":"新化區","LI":"協興里","LIN":"12鄰","STREET":"太平街","SECT":" ","MAREA":" ","LANE":"１５０巷","ALLEY":" ","HOUSE_NO":"１８９號","E_COORD97":178251.82000000001,"N_COORD97":2548895.25,"ADDRESS":"太平街１５０巷１８９號","OBJECTID":370766},"geometry":{"x":178251.8200000003,"y":2548895.2500000019}},{"attributes":{"ID":370777,"DIS_CODE":0,"TOWNNAME":"新化區","LI":"協興里","LIN":"12鄰","STREET":"太平街","SECT":" ","MAREA":" ","LANE":"１５０巷","ALLEY":" ","HOUSE_NO":"２１３號","E_COORD97":178284.51999999999,"N_COORD97":2548935.25,"ADDRESS":"太平街１５０巷２１３號","OBJECTID":370767},"geometry":{"x":178284.52000000048,"y":2548935.2500000037}},{"attributes":{"ID":370778,"DIS_CODE":0,"TOWNNAME":"南區","LI":"新生里","LIN":"5鄰","STREET":"大同路","SECT":"二段","MAREA":" ","LANE":" ","ALLEY":" ","HOUSE_NO":"１８２號","E_COORD97":169352.17000000001,"N_COORD97":2541962.3799999999,"ADDRESS":"大同路二段１８２號","OBJECTID":370768},"geometry":{"x":169352.16999999993,"y":2541962.3799999971}},{"attributes":{"ID":370779,"DIS_CODE":0,"TOWNNAME":"新市區","LI":"新市里","LIN":"12鄰","STREET":"中正路","SECT":" ","MAREA":" ","LANE":"３０１巷","ALLEY":" ","HOUSE_NO":"３號","E_COORD97":177582.01999999999,"N_COORD97":2553267.25,"ADDRESS":"中正路３０１巷３號","OBJECTID":370769},"geometry":{"x":177582.02000000142,"y":2553267.25}},{"attributes":{"ID":370780,"DIS_CODE":0,"TOWNNAME":"新化區","LI":"協興里","LIN":"12鄰","STREET":"太平街","SECT":" ","MAREA":" ","LANE":"１５０巷","ALLEY":" ","HOUSE_NO":"２０９號","E_COORD97":178288.82000000001,"N_COORD97":2548918.25,"ADDRESS":"太平街１５０巷２０９號","OBJECTID":370770},"geometry":{"x":178288.8200000003,"y":2548918.2500000037}},{"attributes":{"ID":370781,"DIS_CODE":0,"TOWNNAME":"新化區","LI":"協興里","LIN":"12鄰","STREET":"太平街","SECT":" ","MAREA":" ","LANE":"１５０巷","ALLEY":" ","HOUSE_NO":"１５３號","E_COORD97":178222.32000000001,"N_COORD97":2548875.2400000002,"ADDRESS":"太平街１５０巷１５３號","OBJECTID":370771},"geometry":{"x":178222.32000000123,"y":2548875.2400000021}},{"attributes":{"ID":370782,"DIS_CODE":0,"TOWNNAME":"新化區","LI":"協興里","LIN":"12鄰","STREET":"太平街","SECT":" ","MAREA":" ","LANE":"１５０巷","ALLEY":" ","HOUSE_NO":"１３１號","E_COORD97":178295.12,"N_COORD97":2548894.25,"ADDRESS":"太平街１５０巷１３１號","OBJECTID":370772},"geometry":{"x":178295.12000000011,"y":2548894.25}},{"attributes":{"ID":370783,"DIS_CODE":0,"TOWNNAME":"新化區","LI":"協興里","LIN":"12鄰","STREET":"太平街","SECT":" ","MAREA":" ","LANE":"１５０巷","ALLEY":" ","HOUSE_NO":"１５１號","E_COORD97":178228.32000000001,"N_COORD97":2548855.25,"ADDRESS":"太平街１５０巷１５１號","OBJECTID":370773},"geometry":{"x":178228.32000000216,"y":2548855.2500000019}},{"attributes":{"ID":370784,"DIS_CODE":0,"TOWNNAME":"新化區","LI":"協興里","LIN":"12鄰","STREET":"太平街","SECT":" ","MAREA":" ","LANE":"１５０巷","ALLEY":" ","HOUSE_NO":"２２１號","E_COORD97":178260.32000000001,"N_COORD97":2548933.25,"ADDRESS":"太平街１５０巷２２１號","OBJECTID":370774},"geometry":{"x":178260.3200000003,"y":2548933.2500000019}},{"attributes":{"ID":370785,"DIS_CODE":0,"TOWNNAME":"新化區","LI":"協興里","LIN":"12鄰","STREET":"太平街","SECT":" ","MAREA":" ","LANE":"１５０巷","ALLEY":" ","HOUSE_NO":"１６９號","E_COORD97":178268.42000000001,"N_COORD97":2548887.25,"ADDRESS":"太平街１５０巷１６９號","OBJECTID":370775},"geometry":{"x":178268.42000000086,"y":2548887.25}},{"attributes":{"ID":370786,"DIS_CODE":0,"TOWNNAME":"新化區","LI":"協興里","LIN":"12鄰","STREET":"太平街","SECT":" ","MAREA":" ","LANE":"１５０巷","ALLEY":" ","HOUSE_NO":"１４１號","E_COORD97":178261.22,"N_COORD97":2548862.25,"ADDRESS":"太平街１５０巷１４１號","OBJECTID":370776},"geometry":{"x":178261.22000000067,"y":2548862.2500000019}},{"attributes":{"ID":370787,"DIS_CODE":0,"TOWNNAME":"新化區","LI":"協興里","LIN":"12鄰","STREET":"太平街","SECT":" ","MAREA":" ","LANE":"１５０巷","ALLEY":" ","HOUSE_NO":"２０７號","E_COORD97":178290.12,"N_COORD97":2548913.25,"ADDRESS":"太平街１５０巷２０７號","OBJECTID":370777},"geometry":{"x":178290.12000000011,"y":2548913.25}},{"attributes":{"ID":370788,"DIS_CODE":0,"TOWNNAME":"新化區","LI":"協興里","LIN":"12鄰","STREET":"太平街","SECT":" ","MAREA":" ","LANE":"１５０巷","ALLEY":" ","HOUSE_NO":"１２９號","E_COORD97":178296.22,"N_COORD97":2548890.25,"ADDRESS":"太平街１５０巷１２９號","OBJECTID":370778},"geometry":{"x":178296.2200000016,"y":2548890.25}},{"attributes":{"ID":370789,"DIS_CODE":0,"TOWNNAME":"新化區","LI":"協興里","LIN":"12鄰","STREET":"太平街","SECT":" ","MAREA":" ","LANE":"１５０巷","ALLEY":" ","HOUSE_NO":"１６７號","E_COORD97":178262.72,"N_COORD97":2548886.25,"ADDRESS":"太平街１５０巷１６７號","OBJECTID":370779},"geometry":{"x":178262.72000000067,"y":2548886.25}},{"attributes":{"ID":370790,"DIS_CODE":0,"TOWNNAME":"新化區","LI":"協興里","LIN":"12鄰","STREET":"太平街","SECT":" ","MAREA":" ","LANE":"１５０巷","ALLEY":" ","HOUSE_NO":"１８３號","E_COORD97":178240.22,"N_COORD97":2548892.25,"ADDRESS":"太平街１５０巷１８３號","OBJECTID":370780},"geometry":{"x":178240.2200000016,"y":2548892.2500000019}},{"attributes":{"ID":370791,"DIS_CODE":0,"TOWNNAME":"安南區","LI":"安西里","LIN":"12鄰","STREET":"安通路","SECT":"四段","MAREA":" ","LANE":"１０９巷","ALLEY":" ","HOUSE_NO":"１０號","E_COORD97":168788.25,"N_COORD97":2547795.0899999999,"ADDRESS":"安通路四段１０９巷１０號","OBJECTID":370781},"geometry":{"x":168788.25000000093,"y":2547795.0900000017}},{"attributes":{"ID":370792,"DIS_CODE":0,"TOWNNAME":"安南區","LI":"安西里","LIN":"12鄰","STREET":"安通路","SECT":"四段","MAREA":" ","LANE":"１０９巷","ALLEY":" ","HOUSE_NO":"１２號","E_COORD97":168789.73000000001,"N_COORD97":2547801.29,"ADDRESS":"安通路四段１０９巷１２號","OBJECTID":370782},"geometry":{"x":168789.73000000045,"y":2547801.2899999991}},{"attributes":{"ID":370793,"DIS_CODE":0,"TOWNNAME":"安南區","LI":"安西里","LIN":"12鄰","STREET":"安通路","SECT":"四段","MAREA":" ","LANE":"１０９巷","ALLEY":" ","HOUSE_NO":"１４號","E_COORD97":168789.73000000001,"N_COORD97":2547807.2000000002,"ADDRESS":"安通路四段１０９巷１４號","OBJECTID":370783},"geometry":{"x":168789.73000000045,"y":2547807.2000000011}},{"attributes":{"ID":370794,"DIS_CODE":0,"TOWNNAME":"佳里區","LI":"建南里","LIN":"12鄰","STREET":"新生路","SECT":" ","MAREA":" ","LANE":"３９５巷","ALLEY":" ","HOUSE_NO":"９號","E_COORD97":165312.09,"N_COORD97":2562144.9900000002,"ADDRESS":"新生路３９５巷９號","OBJECTID":370784},"geometry":{"x":165312.09000000171,"y":2562144.9900000002}},{"attributes":{"ID":370795,"DIS_CODE":0,"TOWNNAME":"安南區","LI":"安西里","LIN":"12鄰","STREET":"安通路","SECT":"四段","MAREA":" ","LANE":"１０９巷","ALLEY":" ","HOUSE_NO":"１６號","E_COORD97":168789.14000000001,"N_COORD97":2547813.4100000001,"ADDRESS":"安通路四段１０９巷１６號","OBJECTID":370785},"geometry":{"x":168789.1400000006,"y":2547813.410000002}},{"attributes":{"ID":370796,"DIS_CODE":0,"TOWNNAME":"安南區","LI":"安西里","LIN":"12鄰","STREET":"安通路","SECT":"四段","MAREA":" ","LANE":"１０９巷","ALLEY":" ","HOUSE_NO":"１８號","E_COORD97":168789.73000000001,"N_COORD97":2547818.73,"ADDRESS":"安通路四段１０９巷１８號","OBJECTID":370786},"geometry":{"x":168789.73000000045,"y":2547818.7300000004}},{"attributes":{"ID":370797,"DIS_CODE":0,"TOWNNAME":"安南區","LI":"安西里","LIN":"12鄰","STREET":"安通路","SECT":"四段","MAREA":" ","LANE":"１０９巷","ALLEY":" ","HOUSE_NO":"２０號","E_COORD97":168789.73000000001,"N_COORD97":2547825.23,"ADDRESS":"安通路四段１０９巷２０號","OBJECTID":370787},"geometry":{"x":168789.73000000045,"y":2547825.2300000023}},{"attributes":{"ID":370798,"DIS_CODE":0,"TOWNNAME":"安南區","LI":"安西里","LIN":"12鄰","STREET":"安通路","SECT":"四段","MAREA":" ","LANE":"１０９巷","ALLEY":" ","HOUSE_NO":"２號","E_COORD97":168787.07000000001,"N_COORD97":2547770.8599999999,"ADDRESS":"安通路四段１０９巷２號","OBJECTID":370788},"geometry":{"x":168787.0700000003,"y":2547770.8600000031}},{"attributes":{"ID":370799,"DIS_CODE":0,"TOWNNAME":"安南區","LI":"安西里","LIN":"12鄰","STREET":"安通路","SECT":"四段","MAREA":" ","LANE":"１０９巷","ALLEY":" ","HOUSE_NO":"４號","E_COORD97":168789.42999999999,"N_COORD97":2547777.3599999999,"ADDRESS":"安通路四段１０９巷４號","OBJECTID":370789},"geometry":{"x":168789.4299999997,"y":2547777.3599999994}},{"attributes":{"ID":370800,"DIS_CODE":0,"TOWNNAME":"安南區","LI":"溪北里","LIN":"12鄰","STREET":"文安街","SECT":" ","MAREA":" ","LANE":"４５巷","ALLEY":" ","HOUSE_NO":"４號","E_COORD97":169384.51999999999,"N_COORD97":2547469.9300000002,"ADDRESS":"文安街４５巷４號","OBJECTID":370790},"geometry":{"x":169384.52000000048,"y":2547469.9300000016}},{"attributes":{"ID":370801,"DIS_CODE":0,"TOWNNAME":"安南區","LI":"安西里","LIN":"12鄰","STREET":"安通一街","SECT":" ","MAREA":" ","LANE":" ","ALLEY":" ","HOUSE_NO":"３號","E_COORD97":168804.82000000001,"N_COORD97":2547775.5800000001,"ADDRESS":"安通一街３號","OBJECTID":370791},"geometry":{"x":168804.82000000216,"y":2547775.5800000001}},{"attributes":{"ID":370802,"DIS_CODE":0,"TOWNNAME":"安南區","LI":"安西里","LIN":"12鄰","STREET":"安通一街","SECT":" ","MAREA":" ","LANE":" ","ALLEY":" ","HOUSE_NO":"５號","E_COORD97":168806.60000000001,"N_COORD97":2547781.4900000002,"ADDRESS":"安通一街５號","OBJECTID":370792},"geometry":{"x":168806.59999999963,"y":2547781.4900000021}},{"attributes":{"ID":370803,"DIS_CODE":0,"TOWNNAME":"安南區","LI":"安西里","LIN":"12鄰","STREET":"安通路","SECT":"四段","MAREA":" ","LANE":"１０９巷","ALLEY":" ","HOUSE_NO":"６號","E_COORD97":168789.14000000001,"N_COORD97":2547782.9700000002,"ADDRESS":"安通路四段１０９巷６號","OBJECTID":370793},"geometry":{"x":168789.1400000006,"y":2547782.9700000025}},{"attributes":{"ID":370804,"DIS_CODE":0,"TOWNNAME":"安南區","LI":"安西里","LIN":"12鄰","STREET":"安通路","SECT":"四段","MAREA":" ","LANE":"４７巷","ALLEY":" ","HOUSE_NO":"１４號","E_COORD97":169158.94,"N_COORD97":2547757.4199999999,"ADDRESS":"安通路四段４７巷１４號","OBJECTID":370794},"geometry":{"x":169158.94000000134,"y":2547757.4200000037}},{"attributes":{"ID":370805,"DIS_CODE":0,"TOWNNAME":"安南區","LI":"安西里","LIN":"12鄰","STREET":"安通路","SECT":"四段","MAREA":" ","LANE":"４７巷","ALLEY":" ","HOUSE_NO":"２２號","E_COORD97":169157.78,"N_COORD97":2547783.1800000002,"ADDRESS":"安通路四段４７巷２２號","OBJECTID":370795},"geometry":{"x":169157.78000000119,"y":2547783.1800000016}},{"attributes":{"ID":370806,"DIS_CODE":0,"TOWNNAME":"安南區","LI":"安西里","LIN":"12鄰","STREET":"安通路","SECT":"四段","MAREA":" ","LANE":"４７巷","ALLEY":" ","HOUSE_NO":"２８號","E_COORD97":169155.76000000001,"N_COORD97":2547793.8500000001,"ADDRESS":"安通路四段４７巷２８號","OBJECTID":370796},"geometry":{"x":169155.76000000071,"y":2547793.8499999996}},{"attributes":{"ID":370807,"DIS_CODE":0,"TOWNNAME":"安南區","LI":"溪北里","LIN":"12鄰","STREET":"文安街","SECT":" ","MAREA":" ","LANE":"４５巷","ALLEY":" ","HOUSE_NO":"９號","E_COORD97":169407.28,"N_COORD97":2547469.23,"ADDRESS":"文安街４５巷９號","OBJECTID":370797},"geometry":{"x":169407.28000000119,"y":2547469.2300000023}},{"attributes":{"ID":370808,"DIS_CODE":0,"TOWNNAME":"安南區","LI":"溪北里","LIN":"12鄰","STREET":"文安街","SECT":" ","MAREA":" ","LANE":"４５巷","ALLEY":" ","HOUSE_NO":"１０號","E_COORD97":169386.63,"N_COORD97":2547456.1200000001,"ADDRESS":"文安街４５巷１０號","OBJECTID":370798},"geometry":{"x":169386.62999999989,"y":2547456.1200000029}},{"attributes":{"ID":370809,"DIS_CODE":0,"TOWNNAME":"安南區","LI":"溪北里","LIN":"12鄰","STREET":"文安街","SECT":" ","MAREA":" ","LANE":"４５巷","ALLEY":" ","HOUSE_NO":"１２號","E_COORD97":169387.72,"N_COORD97":2547450.79,"ADDRESS":"文安街４５巷１２號","OBJECTID":370799},"geometry":{"x":169387.71999999974,"y":2547450.7899999991}},{"attributes":{"ID":370810,"DIS_CODE":0,"TOWNNAME":"安南區","LI":"溪北里","LIN":"12鄰","STREET":"文安街","SECT":" ","MAREA":" ","LANE":"４５巷","ALLEY":" ","HOUSE_NO":"２號","E_COORD97":169383.37,"N_COORD97":2547473.96,"ADDRESS":"文安街４５巷２號","OBJECTID":370800},"geometry":{"x":169383.37000000011,"y":2547473.9600000028}}]}