{"displayFieldName":"TOWNNAME","fieldAliases":{"ID":"ID","DIS_CODE":"DIS_CODE","TOWNNAME":"TOWNNAME","LI":"LI","LIN":"LIN","STREET":"STREET","SECT":"SECT","MAREA":"MAREA","LANE":"LANE","ALLEY":"ALLEY","HOUSE_NO":"HOUSE_NO","E_COORD97":"E_COORD97","N_COORD97":"N_COORD97","ADDRESS":"ADDRESS","OBJECTID":"OBJECTID"},"geometryType":"esriGeometryPoint","spatialReference":{"wkid":102443,"latestWkid":3826},"fields":[{"name":"ID","type":"esriFieldTypeDouble","alias":"ID"},{"name":"DIS_CODE","type":"esriFieldTypeInteger","alias":"DIS_CODE"},{"name":"TOWNNAME","type":"esriFieldTypeString","alias":"TOWNNAME","length":8},{"name":"LI","type":"esriFieldTypeString","alias":"LI","length":8},{"name":"LIN","type":"esriFieldTypeString","alias":"LIN","length":12},{"name":"STREET","type":"esriFieldTypeString","alias":"STREET","length":20},{"name":"SECT","type":"esriFieldTypeString","alias":"SECT","length":8},{"name":"MAREA","type":"esriFieldTypeString","alias":"MAREA","length":12},{"name":"LANE","type":"esriFieldTypeString","alias":"LANE","length":10},{"name":"ALLEY","type":"esriFieldTypeString","alias":"ALLEY","length":10},{"name":"HOUSE_NO","type":"esriFieldTypeString","alias":"HOUSE_NO","length":20},{"name":"E_COORD97","type":"esriFieldTypeDouble","alias":"E_COORD97"},{"name":"N_COORD97","type":"esriFieldTypeDouble","alias":"N_COORD97"},{"name":"ADDRESS","type":"esriFieldTypeString","alias":"ADDRESS","length":50},{"name":"OBJECTID","type":"esriFieldTypeOID","alias":"OBJECTID"}],"features":[{"attributes":{"ID":312209,"DIS_CODE":0,"TOWNNAME":"歸仁區","LI":"後市里","LIN":"47鄰","STREET":"文化街","SECT":"二段","MAREA":" ","LANE":"１２１巷","ALLEY":" ","HOUSE_NO":"３號","E_COORD97":177195.34,"N_COORD97":2541164.7599999998,"ADDRESS":"文化街二段１２１巷３號","OBJECTID":312201},"geometry":{"x":177195.34000000171,"y":2541164.7600000016}},{"attributes":{"ID":312210,"DIS_CODE":0,"TOWNNAME":"安平區","LI":"港仔里","LIN":"7鄰","STREET":"安平路","SECT":" ","MAREA":" ","LANE":"７２４巷","ALLEY":" ","HOUSE_NO":"５號二樓","E_COORD97":164337.95999999999,"N_COORD97":2544518.6000000001,"ADDRESS":"安平路７２４巷５號二樓","OBJECTID":312202},"geometry":{"x":164337.95999999996,"y":2544518.6000000015}},{"attributes":{"ID":312211,"DIS_CODE":0,"TOWNNAME":"安平區","LI":"港仔里","LIN":"7鄰","STREET":"安平路","SECT":" ","MAREA":" ","LANE":"７２４巷","ALLEY":" ","HOUSE_NO":"５號三樓","E_COORD97":164337.95999999999,"N_COORD97":2544518.6000000001,"ADDRESS":"安平路７２４巷５號三樓","OBJECTID":312203},"geometry":{"x":164337.95999999996,"y":2544518.6000000015}},{"attributes":{"ID":312212,"DIS_CODE":0,"TOWNNAME":"安平區","LI":"港仔里","LIN":"7鄰","STREET":"安平路","SECT":" ","MAREA":" ","LANE":"７２４巷","ALLEY":" ","HOUSE_NO":"５號四樓","E_COORD97":164337.95999999999,"N_COORD97":2544518.6000000001,"ADDRESS":"安平路７２４巷５號四樓","OBJECTID":312204},"geometry":{"x":164337.95999999996,"y":2544518.6000000015}},{"attributes":{"ID":312213,"DIS_CODE":0,"TOWNNAME":"北區","LI":"長榮里","LIN":"7鄰","STREET":"長榮路","SECT":"五段","MAREA":" ","LANE":"４１巷","ALLEY":" ","HOUSE_NO":"１６號二樓之１","E_COORD97":170015.07999999999,"N_COORD97":2545549.6499999999,"ADDRESS":"長榮路五段４１巷１６號二樓之１","OBJECTID":312205},"geometry":{"x":170015.08000000101,"y":2545549.6500000022}},{"attributes":{"ID":312214,"DIS_CODE":0,"TOWNNAME":"北區","LI":"長榮里","LIN":"7鄰","STREET":"長榮路","SECT":"五段","MAREA":" ","LANE":"４１巷","ALLEY":" ","HOUSE_NO":"１６號二樓之２","E_COORD97":170015.07999999999,"N_COORD97":2545549.6499999999,"ADDRESS":"長榮路五段４１巷１６號二樓之２","OBJECTID":312206},"geometry":{"x":170015.08000000101,"y":2545549.6500000022}},{"attributes":{"ID":312215,"DIS_CODE":0,"TOWNNAME":"北區","LI":"長榮里","LIN":"7鄰","STREET":"長榮路","SECT":"五段","MAREA":" ","LANE":"４１巷","ALLEY":" ","HOUSE_NO":"１６號三樓之１","E_COORD97":170015.07999999999,"N_COORD97":2545549.6499999999,"ADDRESS":"長榮路五段４１巷１６號三樓之１","OBJECTID":312207},"geometry":{"x":170015.08000000101,"y":2545549.6500000022}},{"attributes":{"ID":312216,"DIS_CODE":0,"TOWNNAME":"新營區","LI":"新北里","LIN":"33鄰","STREET":"新北八街","SECT":" ","MAREA":" ","LANE":" ","ALLEY":" ","HOUSE_NO":"７０號","E_COORD97":178779.54000000001,"N_COORD97":2579198.71,"ADDRESS":"新北八街７０號","OBJECTID":312208},"geometry":{"x":178779.54000000097,"y":2579198.709999999}},{"attributes":{"ID":312217,"DIS_CODE":0,"TOWNNAME":"北區","LI":"長榮里","LIN":"7鄰","STREET":"長榮路","SECT":"五段","MAREA":" ","LANE":"４１巷","ALLEY":" ","HOUSE_NO":"１６號三樓之２","E_COORD97":170015.07999999999,"N_COORD97":2545549.6499999999,"ADDRESS":"長榮路五段４１巷１６號三樓之２","OBJECTID":312209},"geometry":{"x":170015.08000000101,"y":2545549.6500000022}},{"attributes":{"ID":312218,"DIS_CODE":0,"TOWNNAME":"安南區","LI":"溪北里","LIN":"4鄰","STREET":"文安街","SECT":" ","MAREA":" ","LANE":" ","ALLEY":" ","HOUSE_NO":"７２之１號","E_COORD97":169332.84642399999,"N_COORD97":2547496.1798700001,"ADDRESS":"文安街７２之１號","OBJECTID":312210},"geometry":{"x":169332.84642400127,"y":2547496.1798739992}},{"attributes":{"ID":312219,"DIS_CODE":0,"TOWNNAME":"安平區","LI":"國平里","LIN":"4鄰","STREET":"建平五街","SECT":" ","MAREA":" ","LANE":"１５０巷","ALLEY":" ","HOUSE_NO":"９號","E_COORD97":165626.35000000001,"N_COORD97":2543215.4500000002,"ADDRESS":"建平五街１５０巷９號","OBJECTID":312211},"geometry":{"x":165626.34999999963,"y":2543215.4499999993}},{"attributes":{"ID":312220,"DIS_CODE":0,"TOWNNAME":"安平區","LI":"億載里","LIN":"7鄰","STREET":"郡平路","SECT":" ","MAREA":" ","LANE":"４６０巷","ALLEY":" ","HOUSE_NO":"２９號","E_COORD97":163933.79999999999,"N_COORD97":2543451.23,"ADDRESS":"郡平路４６０巷２９號","OBJECTID":312212},"geometry":{"x":163933.79999999981,"y":2543451.2300000023}},{"attributes":{"ID":312221,"DIS_CODE":0,"TOWNNAME":"安平區","LI":"文平里","LIN":"4鄰","STREET":"中華西路","SECT":"二段","MAREA":" ","LANE":"１巷","ALLEY":" ","HOUSE_NO":"３６號","E_COORD97":166458.09,"N_COORD97":2543054.6000000001,"ADDRESS":"中華西路二段１巷３６號","OBJECTID":312213},"geometry":{"x":166458.09000000171,"y":2543054.6000000015}},{"attributes":{"ID":312222,"DIS_CODE":0,"TOWNNAME":"北區","LI":"長榮里","LIN":"7鄰","STREET":"長榮路","SECT":"五段","MAREA":" ","LANE":"４１巷","ALLEY":" ","HOUSE_NO":"１６號四樓之１","E_COORD97":170015.07999999999,"N_COORD97":2545549.6499999999,"ADDRESS":"長榮路五段４１巷１６號四樓之１","OBJECTID":312214},"geometry":{"x":170015.08000000101,"y":2545549.6500000022}},{"attributes":{"ID":312223,"DIS_CODE":0,"TOWNNAME":"北區","LI":"長榮里","LIN":"7鄰","STREET":"長榮路","SECT":"五段","MAREA":" ","LANE":"４１巷","ALLEY":" ","HOUSE_NO":"１６號四樓之２","E_COORD97":170015.07999999999,"N_COORD97":2545549.6499999999,"ADDRESS":"長榮路五段４１巷１６號四樓之２","OBJECTID":312215},"geometry":{"x":170015.08000000101,"y":2545549.6500000022}},{"attributes":{"ID":312224,"DIS_CODE":0,"TOWNNAME":"北區","LI":"長榮里","LIN":"7鄰","STREET":"長榮路","SECT":"五段","MAREA":" ","LANE":"４１巷","ALLEY":" ","HOUSE_NO":"１６號四樓之３","E_COORD97":170015.07999999999,"N_COORD97":2545549.6499999999,"ADDRESS":"長榮路五段４１巷１６號四樓之３","OBJECTID":312216},"geometry":{"x":170015.08000000101,"y":2545549.6500000022}},{"attributes":{"ID":312225,"DIS_CODE":0,"TOWNNAME":"北區","LI":"長榮里","LIN":"7鄰","STREET":"長榮路","SECT":"五段","MAREA":" ","LANE":"４１巷","ALLEY":" ","HOUSE_NO":"１６號四樓之５","E_COORD97":170015.07999999999,"N_COORD97":2545549.6499999999,"ADDRESS":"長榮路五段４１巷１６號四樓之５","OBJECTID":312217},"geometry":{"x":170015.08000000101,"y":2545549.6500000022}},{"attributes":{"ID":312226,"DIS_CODE":0,"TOWNNAME":"北區","LI":"長榮里","LIN":"7鄰","STREET":"長榮路","SECT":"五段","MAREA":" ","LANE":"４１巷","ALLEY":" ","HOUSE_NO":"１６號五樓之１","E_COORD97":170015.07999999999,"N_COORD97":2545549.6499999999,"ADDRESS":"長榮路五段４１巷１６號五樓之１","OBJECTID":312218},"geometry":{"x":170015.08000000101,"y":2545549.6500000022}},{"attributes":{"ID":312227,"DIS_CODE":0,"TOWNNAME":"北區","LI":"長榮里","LIN":"7鄰","STREET":"長榮路","SECT":"五段","MAREA":" ","LANE":"４１巷","ALLEY":" ","HOUSE_NO":"１６號五樓之２","E_COORD97":170015.07999999999,"N_COORD97":2545549.6499999999,"ADDRESS":"長榮路五段４１巷１６號五樓之２","OBJECTID":312219},"geometry":{"x":170015.08000000101,"y":2545549.6500000022}},{"attributes":{"ID":312228,"DIS_CODE":0,"TOWNNAME":"北區","LI":"長榮里","LIN":"7鄰","STREET":"長榮路","SECT":"五段","MAREA":" ","LANE":"４１巷","ALLEY":" ","HOUSE_NO":"１６號五樓之３","E_COORD97":170015.07999999999,"N_COORD97":2545549.6499999999,"ADDRESS":"長榮路五段４１巷１６號五樓之３","OBJECTID":312220},"geometry":{"x":170015.08000000101,"y":2545549.6500000022}},{"attributes":{"ID":312229,"DIS_CODE":0,"TOWNNAME":"北區","LI":"長榮里","LIN":"7鄰","STREET":"長榮路","SECT":"五段","MAREA":" ","LANE":"４１巷","ALLEY":" ","HOUSE_NO":"１６號五樓之５","E_COORD97":170015.07999999999,"N_COORD97":2545549.6499999999,"ADDRESS":"長榮路五段４１巷１６號五樓之５","OBJECTID":312221},"geometry":{"x":170015.08000000101,"y":2545549.6500000022}},{"attributes":{"ID":312230,"DIS_CODE":0,"TOWNNAME":"北區","LI":"長榮里","LIN":"7鄰","STREET":"長榮路","SECT":"五段","MAREA":" ","LANE":"４１巷","ALLEY":" ","HOUSE_NO":"１６號六樓之１","E_COORD97":170015.07999999999,"N_COORD97":2545549.6499999999,"ADDRESS":"長榮路五段４１巷１６號六樓之１","OBJECTID":312222},"geometry":{"x":170015.08000000101,"y":2545549.6500000022}},{"attributes":{"ID":312231,"DIS_CODE":0,"TOWNNAME":"永康區","LI":"中興里","LIN":"17鄰","STREET":"中華路","SECT":" ","MAREA":" ","LANE":" ","ALLEY":" ","HOUSE_NO":"２６４號","E_COORD97":171632.42999999999,"N_COORD97":2545138.2400000002,"ADDRESS":"中華路２６４號","OBJECTID":312223},"geometry":{"x":171632.4299999997,"y":2545138.2400000039}},{"attributes":{"ID":312232,"DIS_CODE":0,"TOWNNAME":"永康區","LI":"北灣里","LIN":"17鄰","STREET":"大同街","SECT":" ","MAREA":" ","LANE":" ","ALLEY":" ","HOUSE_NO":"２５０號","E_COORD97":174791,"N_COORD97":2545762.96,"ADDRESS":"大同街２５０號","OBJECTID":312224},"geometry":{"x":174791.00000000093,"y":2545762.9600000028}},{"attributes":{"ID":312233,"DIS_CODE":0,"TOWNNAME":"永康區","LI":"北灣里","LIN":"17鄰","STREET":"大同街","SECT":" ","MAREA":" ","LANE":" ","ALLEY":" ","HOUSE_NO":"２４８號","E_COORD97":174791.29999999999,"N_COORD97":2545758.71,"ADDRESS":"大同街２４８號","OBJECTID":312225},"geometry":{"x":174791.29999999981,"y":2545758.7100000009}},{"attributes":{"ID":312234,"DIS_CODE":0,"TOWNNAME":"永康區","LI":"中興里","LIN":"17鄰","STREET":"中華路","SECT":" ","MAREA":" ","LANE":" ","ALLEY":" ","HOUSE_NO":"２２４號","E_COORD97":171640.32000000001,"N_COORD97":2545075.25,"ADDRESS":"中華路２２４號","OBJECTID":312226},"geometry":{"x":171640.3200000003,"y":2545075.2500000019}},{"attributes":{"ID":312235,"DIS_CODE":0,"TOWNNAME":"安平區","LI":"億載里","LIN":"4鄰","STREET":"永華十二街","SECT":" ","MAREA":" ","LANE":"２７巷","ALLEY":" ","HOUSE_NO":"１０號","E_COORD97":163726.75,"N_COORD97":2543636.3199999998,"ADDRESS":"永華十二街２７巷１０號","OBJECTID":312227},"geometry":{"x":163726.75000000093,"y":2543636.3200000022}},{"attributes":{"ID":312236,"DIS_CODE":0,"TOWNNAME":"安平區","LI":"億載里","LIN":"4鄰","STREET":"永華十二街","SECT":" ","MAREA":" ","LANE":"２７巷","ALLEY":" ","HOUSE_NO":"２１號","E_COORD97":163698.51999999999,"N_COORD97":2543621.29,"ADDRESS":"永華十二街２７巷２１號","OBJECTID":312228},"geometry":{"x":163698.52000000142,"y":2543621.2900000028}},{"attributes":{"ID":312237,"DIS_CODE":0,"TOWNNAME":"北區","LI":"長榮里","LIN":"7鄰","STREET":"長榮路","SECT":"五段","MAREA":" ","LANE":"４１巷","ALLEY":" ","HOUSE_NO":"１６號六樓之２","E_COORD97":170015.07999999999,"N_COORD97":2545549.6499999999,"ADDRESS":"長榮路五段４１巷１６號六樓之２","OBJECTID":312229},"geometry":{"x":170015.08000000101,"y":2545549.6500000022}},{"attributes":{"ID":312238,"DIS_CODE":0,"TOWNNAME":"北區","LI":"長榮里","LIN":"7鄰","STREET":"長榮路","SECT":"五段","MAREA":" ","LANE":"４１巷","ALLEY":" ","HOUSE_NO":"１６號六樓之３","E_COORD97":170015.07999999999,"N_COORD97":2545549.6499999999,"ADDRESS":"長榮路五段４１巷１６號六樓之３","OBJECTID":312230},"geometry":{"x":170015.08000000101,"y":2545549.6500000022}},{"attributes":{"ID":312239,"DIS_CODE":0,"TOWNNAME":"北區","LI":"長榮里","LIN":"7鄰","STREET":"長榮路","SECT":"五段","MAREA":" ","LANE":"４１巷","ALLEY":" ","HOUSE_NO":"１６號六樓之５","E_COORD97":170015.07999999999,"N_COORD97":2545549.6499999999,"ADDRESS":"長榮路五段４１巷１６號六樓之５","OBJECTID":312231},"geometry":{"x":170015.08000000101,"y":2545549.6500000022}},{"attributes":{"ID":312240,"DIS_CODE":0,"TOWNNAME":"北區","LI":"長榮里","LIN":"7鄰","STREET":"長榮路","SECT":"五段","MAREA":" ","LANE":"４１巷","ALLEY":" ","HOUSE_NO":"１６號七樓之１","E_COORD97":170015.07999999999,"N_COORD97":2545549.6499999999,"ADDRESS":"長榮路五段４１巷１６號七樓之１","OBJECTID":312232},"geometry":{"x":170015.08000000101,"y":2545549.6500000022}},{"attributes":{"ID":312241,"DIS_CODE":0,"TOWNNAME":"永康區","LI":"中興里","LIN":"17鄰","STREET":"中華二路","SECT":" ","MAREA":" ","LANE":" ","ALLEY":" ","HOUSE_NO":"２８５號","E_COORD97":171544.76999999999,"N_COORD97":2545417.6099999999,"ADDRESS":"中華二路２８５號","OBJECTID":312233},"geometry":{"x":171544.76999999955,"y":2545417.6100000013}},{"attributes":{"ID":312242,"DIS_CODE":0,"TOWNNAME":"永康區","LI":"中興里","LIN":"17鄰","STREET":"中華路","SECT":" ","MAREA":" ","LANE":" ","ALLEY":" ","HOUSE_NO":"２３４號","E_COORD97":171639.26999999999,"N_COORD97":2545098.25,"ADDRESS":"中華路２３４號","OBJECTID":312234},"geometry":{"x":171639.27000000048,"y":2545098.2500000019}},{"attributes":{"ID":312243,"DIS_CODE":0,"TOWNNAME":"新營區","LI":"南紙里","LIN":"25鄰","STREET":"建業路","SECT":" ","MAREA":" ","LANE":" ","ALLEY":" ","HOUSE_NO":"２５５號","E_COORD97":178046.39999999999,"N_COORD97":2577503.4199999999,"ADDRESS":"建業路２５５號","OBJECTID":312235},"geometry":{"x":178046.39999999944,"y":2577503.4199999999}},{"attributes":{"ID":312244,"DIS_CODE":0,"TOWNNAME":"新營區","LI":"太北里","LIN":"16鄰","STREET":" ","SECT":" ","MAREA":"太子宮","LANE":" ","ALLEY":" ","HOUSE_NO":"１３２號之６","E_COORD97":175899.066406,"N_COORD97":2576889.1173299998,"ADDRESS":"太子宮１３２號之６","OBJECTID":312236},"geometry":{"x":175899.06640600134,"y":2576889.1173320021}},{"attributes":{"ID":312245,"DIS_CODE":0,"TOWNNAME":"新營區","LI":"太南里","LIN":" ","STREET":" ","SECT":" ","MAREA":"太子宮","LANE":" ","ALLEY":" ","HOUSE_NO":"２３９之２號","E_COORD97":175960.20000000001,"N_COORD97":2576915.73,"ADDRESS":"太子宮２３９之２號","OBJECTID":312237},"geometry":{"x":175960.20000000019,"y":2576915.7300000004}},{"attributes":{"ID":312246,"DIS_CODE":0,"TOWNNAME":"新營區","LI":"鐵線里","LIN":"5鄰","STREET":" ","SECT":" ","MAREA":"鐵線橋","LANE":" ","ALLEY":" ","HOUSE_NO":"５０號","E_COORD97":176005.91,"N_COORD97":2573715.9900000002,"ADDRESS":"鐵線橋５０號","OBJECTID":312238},"geometry":{"x":176005.91000000108,"y":2573715.9900000002}},{"attributes":{"ID":312247,"DIS_CODE":0,"TOWNNAME":"歸仁區","LI":"辜厝里","LIN":"16鄰","STREET":"大順街","SECT":" ","MAREA":" ","LANE":" ","ALLEY":" ","HOUSE_NO":"５號","E_COORD97":177486.72554000001,"N_COORD97":2540513.8803699999,"ADDRESS":"大順街５號","OBJECTID":312239},"geometry":{"x":177486.72554000095,"y":2540513.8803700022}},{"attributes":{"ID":312248,"DIS_CODE":0,"TOWNNAME":"新營區","LI":"南紙里","LIN":"20鄰","STREET":"南紙街","SECT":" ","MAREA":" ","LANE":"１１７巷","ALLEY":" ","HOUSE_NO":"３１號","E_COORD97":177923.39999999999,"N_COORD97":2577496.27,"ADDRESS":"南紙街１１７巷３１號","OBJECTID":312240},"geometry":{"x":177923.4000000013,"y":2577496.2700000014}},{"attributes":{"ID":312249,"DIS_CODE":0,"TOWNNAME":"新營區","LI":"護鎮里","LIN":"2鄰","STREET":" ","SECT":" ","MAREA":"後鎮","LANE":" ","ALLEY":" ","HOUSE_NO":"１７號之７","E_COORD97":179318.13,"N_COORD97":2580945.9700000002,"ADDRESS":"後鎮１７之７號","OBJECTID":312241},"geometry":{"x":179318.13000000082,"y":2580945.9700000007}},{"attributes":{"ID":312250,"DIS_CODE":0,"TOWNNAME":"新營區","LI":"太南里","LIN":" ","STREET":" ","SECT":" ","MAREA":"太子宮","LANE":" ","ALLEY":" ","HOUSE_NO":"２３２之４號","E_COORD97":176050.34,"N_COORD97":2576939.6499999999,"ADDRESS":"太子宮２３２之４號","OBJECTID":312242},"geometry":{"x":176050.33999999985,"y":2576939.6500000004}},{"attributes":{"ID":312251,"DIS_CODE":0,"TOWNNAME":"新營區","LI":"太南里","LIN":"13鄰","STREET":" ","SECT":" ","MAREA":"太子宮","LANE":" ","ALLEY":" ","HOUSE_NO":"２７９號","E_COORD97":176114.85000000001,"N_COORD97":2576634.71,"ADDRESS":"太子宮２７９號","OBJECTID":312243},"geometry":{"x":176114.84999999963,"y":2576634.7100000009}},{"attributes":{"ID":312252,"DIS_CODE":0,"TOWNNAME":"北區","LI":"長榮里","LIN":"7鄰","STREET":"長榮路","SECT":"五段","MAREA":" ","LANE":"４１巷","ALLEY":" ","HOUSE_NO":"１６號七樓之２","E_COORD97":170015.07999999999,"N_COORD97":2545549.6499999999,"ADDRESS":"長榮路五段４１巷１６號七樓之２","OBJECTID":312244},"geometry":{"x":170015.08000000101,"y":2545549.6500000022}},{"attributes":{"ID":312253,"DIS_CODE":0,"TOWNNAME":"北區","LI":"長榮里","LIN":"7鄰","STREET":"長榮路","SECT":"五段","MAREA":" ","LANE":"４１巷","ALLEY":" ","HOUSE_NO":"１６號七樓之３","E_COORD97":170015.07999999999,"N_COORD97":2545549.6499999999,"ADDRESS":"長榮路五段４１巷１６號七樓之３","OBJECTID":312245},"geometry":{"x":170015.08000000101,"y":2545549.6500000022}},{"attributes":{"ID":312254,"DIS_CODE":0,"TOWNNAME":"北區","LI":"長榮里","LIN":"7鄰","STREET":"長榮路","SECT":"五段","MAREA":" ","LANE":"４１巷","ALLEY":" ","HOUSE_NO":"１６號七樓之５","E_COORD97":170015.07999999999,"N_COORD97":2545549.6499999999,"ADDRESS":"長榮路五段４１巷１６號七樓之５","OBJECTID":312246},"geometry":{"x":170015.08000000101,"y":2545549.6500000022}},{"attributes":{"ID":312255,"DIS_CODE":0,"TOWNNAME":"北區","LI":"長榮里","LIN":"7鄰","STREET":"長榮路","SECT":"五段","MAREA":" ","LANE":"４１巷","ALLEY":" ","HOUSE_NO":"１６號八樓之１","E_COORD97":170015.07999999999,"N_COORD97":2545549.6499999999,"ADDRESS":"長榮路五段４１巷１６號八樓之１","OBJECTID":312247},"geometry":{"x":170015.08000000101,"y":2545549.6500000022}},{"attributes":{"ID":312256,"DIS_CODE":0,"TOWNNAME":"永康區","LI":"中興里","LIN":"17鄰","STREET":"中華路","SECT":" ","MAREA":" ","LANE":" ","ALLEY":" ","HOUSE_NO":"２８０號之４５","E_COORD97":171624.45000000001,"N_COORD97":2545193.0499999998,"ADDRESS":"中華路２８０號之４５","OBJECTID":312248},"geometry":{"x":171624.44999999925,"y":2545193.0500000007}},{"attributes":{"ID":312257,"DIS_CODE":0,"TOWNNAME":"永康區","LI":"中興里","LIN":"17鄰","STREET":"中華路","SECT":" ","MAREA":" ","LANE":" ","ALLEY":" ","HOUSE_NO":"２８０號之４０","E_COORD97":171669.01999999999,"N_COORD97":2545278.3999999999,"ADDRESS":"中華路２８０號之４０","OBJECTID":312249},"geometry":{"x":171669.01999999955,"y":2545278.4000000004}},{"attributes":{"ID":312258,"DIS_CODE":0,"TOWNNAME":"永康區","LI":"中興里","LIN":"17鄰","STREET":"中華路","SECT":" ","MAREA":" ","LANE":" ","ALLEY":" ","HOUSE_NO":"２８０號之３５","E_COORD97":171648.85999999999,"N_COORD97":2545278.23,"ADDRESS":"中華路２８０號之３５","OBJECTID":312250},"geometry":{"x":171648.86000000034,"y":2545278.2300000023}},{"attributes":{"ID":312259,"DIS_CODE":0,"TOWNNAME":"新營區","LI":"新北里","LIN":"14鄰","STREET":"南新街","SECT":" ","MAREA":" ","LANE":"１３巷","ALLEY":" ","HOUSE_NO":"９號","E_COORD97":179312.31,"N_COORD97":2578804.1099999999,"ADDRESS":"南新街１３巷９號","OBJECTID":312251},"geometry":{"x":179312.30999999959,"y":2578804.1099999994}},{"attributes":{"ID":312260,"DIS_CODE":0,"TOWNNAME":"新營區","LI":"鐵線里","LIN":" ","STREET":" ","SECT":" ","MAREA":"鐵線橋","LANE":" ","ALLEY":" ","HOUSE_NO":"４８之１３號","E_COORD97":176086.26999999999,"N_COORD97":2573678.0099999998,"ADDRESS":"鐵線橋４８之１３號","OBJECTID":312252},"geometry":{"x":176086.26999999955,"y":2573678.0099999998}},{"attributes":{"ID":312261,"DIS_CODE":0,"TOWNNAME":"新營區","LI":"嘉芳里","LIN":" ","STREET":" ","SECT":" ","MAREA":"茄苳腳","LANE":" ","ALLEY":" ","HOUSE_NO":"５７之１９號","E_COORD97":176883.20000000001,"N_COORD97":2578432.7999999998,"ADDRESS":"茄苳腳５７之１９號","OBJECTID":312253},"geometry":{"x":176883.20000000112,"y":2578432.8000000026}},{"attributes":{"ID":312262,"DIS_CODE":0,"TOWNNAME":"新營區","LI":"太南里","LIN":" ","STREET":" ","SECT":" ","MAREA":"太子宮","LANE":" ","ALLEY":" ","HOUSE_NO":"２３９之３號","E_COORD97":175964.29999999999,"N_COORD97":2576916.8199999998,"ADDRESS":"太子宮２３９之３號","OBJECTID":312254},"geometry":{"x":175964.29999999981,"y":2576916.8200000022}},{"attributes":{"ID":312263,"DIS_CODE":0,"TOWNNAME":"新營區","LI":"興業里","LIN":" ","STREET":"公誠街","SECT":" ","MAREA":" ","LANE":"１１巷","ALLEY":" ","HOUSE_NO":"２之４號","E_COORD97":180303.09,"N_COORD97":2577960.0299999998,"ADDRESS":"公誠街１１巷２之４號","OBJECTID":312255},"geometry":{"x":180303.09000000078,"y":2577960.0299999993}},{"attributes":{"ID":312264,"DIS_CODE":0,"TOWNNAME":"新營區","LI":"太南里","LIN":" ","STREET":" ","SECT":" ","MAREA":"太子宮","LANE":" ","ALLEY":" ","HOUSE_NO":"２３９之４號","E_COORD97":175969.42000000001,"N_COORD97":2576919.0099999998,"ADDRESS":"太子宮２３９之４號","OBJECTID":312256},"geometry":{"x":175969.42000000086,"y":2576919.0100000016}},{"attributes":{"ID":312265,"DIS_CODE":0,"TOWNNAME":"新營區","LI":"太南里","LIN":" ","STREET":" ","SECT":" ","MAREA":"太子宮","LANE":" ","ALLEY":" ","HOUSE_NO":"２８７之２號","E_COORD97":176232.48000000001,"N_COORD97":2576746.04,"ADDRESS":"太子宮２８７之２號","OBJECTID":312257},"geometry":{"x":176232.48000000138,"y":2576746.0399999991}},{"attributes":{"ID":312266,"DIS_CODE":0,"TOWNNAME":"新營區","LI":"民生里","LIN":"26鄰","STREET":"民生路","SECT":" ","MAREA":" ","LANE":"１３９巷","ALLEY":" ","HOUSE_NO":"３０之１號","E_COORD97":179145.44,"N_COORD97":2578605.6299999999,"ADDRESS":"民生路１３９巷３０之１號","OBJECTID":312258},"geometry":{"x":179145.44000000134,"y":2578605.6300000008}},{"attributes":{"ID":312267,"DIS_CODE":0,"TOWNNAME":"新營區","LI":"嘉芳里","LIN":"5鄰","STREET":" ","SECT":" ","MAREA":"茄苳腳","LANE":" ","ALLEY":" ","HOUSE_NO":"５７號之２２","E_COORD97":176881.22,"N_COORD97":2578447.21,"ADDRESS":"茄苳腳５７之２２號","OBJECTID":312259},"geometry":{"x":176881.22000000067,"y":2578447.2100000028}},{"attributes":{"ID":312268,"DIS_CODE":0,"TOWNNAME":"新營區","LI":"太南里","LIN":" ","STREET":" ","SECT":" ","MAREA":"太子宮","LANE":" ","ALLEY":" ","HOUSE_NO":"２６２之２號","E_COORD97":176128.47,"N_COORD97":2576811.8999999999,"ADDRESS":"太子宮２６２之２號","OBJECTID":312260},"geometry":{"x":176128.47000000067,"y":2576811.9000000022}},{"attributes":{"ID":312269,"DIS_CODE":0,"TOWNNAME":"新營區","LI":"嘉芳里","LIN":" ","STREET":" ","SECT":" ","MAREA":"茄苳腳","LANE":" ","ALLEY":" ","HOUSE_NO":"５７之６號","E_COORD97":176924.70999999999,"N_COORD97":2578392.7200000002,"ADDRESS":"茄苳腳５７之６號","OBJECTID":312261},"geometry":{"x":176924.70999999996,"y":2578392.7200000025}},{"attributes":{"ID":312270,"DIS_CODE":0,"TOWNNAME":"新營區","LI":"土庫里","LIN":"7鄰","STREET":" ","SECT":" ","MAREA":"土庫","LANE":" ","ALLEY":" ","HOUSE_NO":"６４號","E_COORD97":183165.12,"N_COORD97":2579832.7599999998,"ADDRESS":"土庫６４號","OBJECTID":312262},"geometry":{"x":183165.12000000011,"y":2579832.7600000016}},{"attributes":{"ID":312271,"DIS_CODE":0,"TOWNNAME":"新營區","LI":"新南里","LIN":"1鄰","STREET":"民治路","SECT":" ","MAREA":" ","LANE":"２３０巷","ALLEY":" ","HOUSE_NO":"１２號","E_COORD97":178803.20000000001,"N_COORD97":2578592.8100000001,"ADDRESS":"民治路２３０巷１２號","OBJECTID":312263},"geometry":{"x":178803.20000000019,"y":2578592.8100000005}},{"attributes":{"ID":312272,"DIS_CODE":0,"TOWNNAME":"新營區","LI":"民榮里","LIN":" ","STREET":"太子路","SECT":" ","MAREA":" ","LANE":"４４巷","ALLEY":" ","HOUSE_NO":"２４號","E_COORD97":178166.5,"N_COORD97":2578057.6699999999,"ADDRESS":"太子路４４巷２４號","OBJECTID":312264},"geometry":{"x":178166.50000000093,"y":2578057.6699999999}},{"attributes":{"ID":312273,"DIS_CODE":0,"TOWNNAME":"北區","LI":"長榮里","LIN":"7鄰","STREET":"長榮路","SECT":"五段","MAREA":" ","LANE":"４１巷","ALLEY":" ","HOUSE_NO":"１６號八樓之２","E_COORD97":170015.07999999999,"N_COORD97":2545549.6499999999,"ADDRESS":"長榮路五段４１巷１６號八樓之２","OBJECTID":312265},"geometry":{"x":170015.08000000101,"y":2545549.6500000022}},{"attributes":{"ID":312274,"DIS_CODE":0,"TOWNNAME":"北區","LI":"長榮里","LIN":"7鄰","STREET":"長榮路","SECT":"五段","MAREA":" ","LANE":"４１巷","ALLEY":" ","HOUSE_NO":"１６號八樓之３","E_COORD97":170015.07999999999,"N_COORD97":2545549.6499999999,"ADDRESS":"長榮路五段４１巷１６號八樓之３","OBJECTID":312266},"geometry":{"x":170015.08000000101,"y":2545549.6500000022}},{"attributes":{"ID":312275,"DIS_CODE":0,"TOWNNAME":"永康區","LI":"中興里","LIN":"17鄰","STREET":"中華路","SECT":" ","MAREA":" ","LANE":" ","ALLEY":" ","HOUSE_NO":"２８０號之５３","E_COORD97":171604.25,"N_COORD97":2545252.04,"ADDRESS":"中華路２８０號之５３","OBJECTID":312267},"geometry":{"x":171604.25000000093,"y":2545252.040000001}},{"attributes":{"ID":312276,"DIS_CODE":0,"TOWNNAME":"永康區","LI":"中興里","LIN":"17鄰","STREET":"中華路","SECT":" ","MAREA":" ","LANE":" ","ALLEY":" ","HOUSE_NO":"２８０號之３１","E_COORD97":171618,"N_COORD97":2545273.8599999999,"ADDRESS":"中華路２８０號之３１","OBJECTID":312268},"geometry":{"x":171618.00000000093,"y":2545273.8600000013}},{"attributes":{"ID":312277,"DIS_CODE":0,"TOWNNAME":"永康區","LI":"勝利里","LIN":"17鄰","STREET":"中華一路","SECT":" ","MAREA":" ","LANE":" ","ALLEY":" ","HOUSE_NO":"３０９號","E_COORD97":171193.41,"N_COORD97":2544981.75,"ADDRESS":"中華一路３０９號","OBJECTID":312269},"geometry":{"x":171193.41000000015,"y":2544981.75}},{"attributes":{"ID":312278,"DIS_CODE":0,"TOWNNAME":"永康區","LI":"勝利里","LIN":"17鄰","STREET":"中華一路","SECT":" ","MAREA":" ","LANE":" ","ALLEY":" ","HOUSE_NO":"２９０號","E_COORD97":171284.16,"N_COORD97":2544994,"ADDRESS":"中華一路２９０號","OBJECTID":312270},"geometry":{"x":171284.16000000201,"y":2544994.0000000037}},{"attributes":{"ID":312279,"DIS_CODE":0,"TOWNNAME":"新營區","LI":"土庫里","LIN":"8鄰","STREET":" ","SECT":" ","MAREA":"土庫","LANE":" ","ALLEY":" ","HOUSE_NO":"７１號之３３","E_COORD97":182927.79000000001,"N_COORD97":2579891.4900000002,"ADDRESS":"土庫７１號之３３","OBJECTID":312271},"geometry":{"x":182927.79000000097,"y":2579891.4900000039}},{"attributes":{"ID":312280,"DIS_CODE":0,"TOWNNAME":"新營區","LI":"太南里","LIN":" ","STREET":" ","SECT":" ","MAREA":"太子宮","LANE":" ","ALLEY":" ","HOUSE_NO":"２３６之５號","E_COORD97":176008.26000000001,"N_COORD97":2576913.2799999998,"ADDRESS":"太子宮２３６之５號","OBJECTID":312272},"geometry":{"x":176008.26000000071,"y":2576913.2800000012}},{"attributes":{"ID":312281,"DIS_CODE":0,"TOWNNAME":"新營區","LI":"太南里","LIN":"8鄰","STREET":" ","SECT":" ","MAREA":"太子宮","LANE":" ","ALLEY":" ","HOUSE_NO":"２３１號","E_COORD97":176087.57000000001,"N_COORD97":2576906.1800000002,"ADDRESS":"太子宮２３１號","OBJECTID":312273},"geometry":{"x":176087.57000000123,"y":2576906.1800000034}},{"attributes":{"ID":312282,"DIS_CODE":0,"TOWNNAME":"新營區","LI":"嘉芳里","LIN":" ","STREET":" ","SECT":" ","MAREA":"茄苳腳","LANE":" ","ALLEY":" ","HOUSE_NO":"５５號","E_COORD97":176883.20000000001,"N_COORD97":2578362.96,"ADDRESS":"茄苳腳５５號","OBJECTID":312274},"geometry":{"x":176883.20000000112,"y":2578362.959999999}},{"attributes":{"ID":312283,"DIS_CODE":0,"TOWNNAME":"新營區","LI":"護鎮里","LIN":"1鄰","STREET":"中正路","SECT":" ","MAREA":" ","LANE":"４３９巷","ALLEY":" ","HOUSE_NO":"４５號","E_COORD97":179604.97618299999,"N_COORD97":2580280.89426,"ADDRESS":"中正路４３９巷４５號","OBJECTID":312275},"geometry":{"x":179604.97618300002,"y":2580280.8942600004}},{"attributes":{"ID":312284,"DIS_CODE":0,"TOWNNAME":"新營區","LI":"王公里","LIN":"25鄰","STREET":"中正路","SECT":" ","MAREA":" ","LANE":" ","ALLEY":" ","HOUSE_NO":"１３４號之６","E_COORD97":180167.94,"N_COORD97":2579588.6299999999,"ADDRESS":"中正路１３４號之６","OBJECTID":312276},"geometry":{"x":180167.94000000041,"y":2579588.6300000008}},{"attributes":{"ID":312285,"DIS_CODE":0,"TOWNNAME":"新營區","LI":"南紙里","LIN":"20鄰","STREET":"南紙街","SECT":" ","MAREA":" ","LANE":"１１７巷","ALLEY":" ","HOUSE_NO":"９號","E_COORD97":177845.34,"N_COORD97":2577501.0699999998,"ADDRESS":"南紙街１１７巷９號","OBJECTID":312277},"geometry":{"x":177845.34000000078,"y":2577501.0700000022}},{"attributes":{"ID":312286,"DIS_CODE":0,"TOWNNAME":"新營區","LI":"興業里","LIN":"4鄰","STREET":"公誠街","SECT":" ","MAREA":" ","LANE":"７巷","ALLEY":" ","HOUSE_NO":"１８號","E_COORD97":180359.48000000001,"N_COORD97":2578052.73,"ADDRESS":"公誠街７巷１８號","OBJECTID":312278},"geometry":{"x":180359.48000000045,"y":2578052.7300000023}},{"attributes":{"ID":312287,"DIS_CODE":0,"TOWNNAME":"新營區","LI":"興業里","LIN":" ","STREET":"中興路","SECT":" ","MAREA":" ","LANE":"１３巷","ALLEY":" ","HOUSE_NO":"４之３號","E_COORD97":180155.82000000001,"N_COORD97":2577964.04,"ADDRESS":"中興路１３巷４之３號","OBJECTID":312279},"geometry":{"x":180155.82000000216,"y":2577964.0400000028}},{"attributes":{"ID":312288,"DIS_CODE":0,"TOWNNAME":"北區","LI":"長榮里","LIN":"7鄰","STREET":"長榮路","SECT":"五段","MAREA":" ","LANE":"４１巷","ALLEY":" ","HOUSE_NO":"１６號八樓之５","E_COORD97":170015.07999999999,"N_COORD97":2545549.6499999999,"ADDRESS":"長榮路五段４１巷１６號八樓之５","OBJECTID":312280},"geometry":{"x":170015.08000000101,"y":2545549.6500000022}},{"attributes":{"ID":312289,"DIS_CODE":0,"TOWNNAME":"北區","LI":"長榮里","LIN":"7鄰","STREET":"長榮路","SECT":"五段","MAREA":" ","LANE":"４１巷","ALLEY":" ","HOUSE_NO":"１６號九樓之１","E_COORD97":170015.07999999999,"N_COORD97":2545549.6499999999,"ADDRESS":"長榮路五段４１巷１６號九樓之１","OBJECTID":312281},"geometry":{"x":170015.08000000101,"y":2545549.6500000022}},{"attributes":{"ID":312290,"DIS_CODE":0,"TOWNNAME":"中西區","LI":"西賢里","LIN":"17鄰","STREET":"西賢一街","SECT":" ","MAREA":" ","LANE":" ","ALLEY":" ","HOUSE_NO":"６１號","E_COORD97":165684.62,"N_COORD97":2544589.5499999998,"ADDRESS":"西賢一街６１號","OBJECTID":312282},"geometry":{"x":165684.62000000011,"y":2544589.5500000007}},{"attributes":{"ID":312291,"DIS_CODE":0,"TOWNNAME":"中西區","LI":"西賢里","LIN":"17鄰","STREET":"西賢一街","SECT":" ","MAREA":" ","LANE":" ","ALLEY":" ","HOUSE_NO":"６３號","E_COORD97":165683.79999999999,"N_COORD97":2544602.1800000002,"ADDRESS":"西賢一街６３號","OBJECTID":312283},"geometry":{"x":165683.80000000075,"y":2544602.1799999997}},{"attributes":{"ID":312292,"DIS_CODE":0,"TOWNNAME":"中西區","LI":"西賢里","LIN":"17鄰","STREET":"西賢一街","SECT":" ","MAREA":" ","LANE":" ","ALLEY":" ","HOUSE_NO":"６５號","E_COORD97":165685.84,"N_COORD97":2544612.3799999999,"ADDRESS":"西賢一街６５號","OBJECTID":312284},"geometry":{"x":165685.84000000078,"y":2544612.379999999}},{"attributes":{"ID":312293,"DIS_CODE":0,"TOWNNAME":"新營區","LI":"民榮里","LIN":"17鄰","STREET":"富強街","SECT":" ","MAREA":" ","LANE":" ","ALLEY":" ","HOUSE_NO":"３８號","E_COORD97":178985.66,"N_COORD97":2577803.4399999999,"ADDRESS":"富強街３８號","OBJECTID":312285},"geometry":{"x":178985.66000000108,"y":2577803.4400000013}},{"attributes":{"ID":312294,"DIS_CODE":0,"TOWNNAME":"新營區","LI":"民榮里","LIN":" ","STREET":"復興路","SECT":" ","MAREA":" ","LANE":" ","ALLEY":" ","HOUSE_NO":"１５７之３０號","E_COORD97":179058.76000000001,"N_COORD97":2577946.02,"ADDRESS":"復興路１５７之３０號","OBJECTID":312286},"geometry":{"x":179058.76000000164,"y":2577946.0200000014}},{"attributes":{"ID":312295,"DIS_CODE":0,"TOWNNAME":"新營區","LI":"土庫里","LIN":" ","STREET":" ","SECT":" ","MAREA":"土庫","LANE":" ","ALLEY":" ","HOUSE_NO":"６７號","E_COORD97":183138.60000000001,"N_COORD97":2579847.27,"ADDRESS":"土庫６７號","OBJECTID":312287},"geometry":{"x":183138.60000000056,"y":2579847.2699999996}},{"attributes":{"ID":312296,"DIS_CODE":0,"TOWNNAME":"新營區","LI":"嘉芳里","LIN":"5鄰","STREET":" ","SECT":" ","MAREA":"茄苳腳","LANE":" ","ALLEY":" ","HOUSE_NO":"５７號之１１","E_COORD97":176905.48999999999,"N_COORD97":2578389.5,"ADDRESS":"茄苳腳５７之１１號","OBJECTID":312288},"geometry":{"x":176905.49000000115,"y":2578389.5000000019}},{"attributes":{"ID":312297,"DIS_CODE":0,"TOWNNAME":"新營區","LI":"土庫里","LIN":" ","STREET":" ","SECT":" ","MAREA":"土庫","LANE":" ","ALLEY":" ","HOUSE_NO":"７１之１號","E_COORD97":183029.76000000001,"N_COORD97":2579874.4199999999,"ADDRESS":"土庫７１之１號","OBJECTID":312289},"geometry":{"x":183029.76000000071,"y":2579874.4199999981}},{"attributes":{"ID":312298,"DIS_CODE":0,"TOWNNAME":"新營區","LI":"王公里","LIN":"12鄰","STREET":"義和街","SECT":" ","MAREA":" ","LANE":" ","ALLEY":" ","HOUSE_NO":"３號之８","E_COORD97":180578.16,"N_COORD97":2579027.4199999999,"ADDRESS":"義和街３號之８","OBJECTID":312290},"geometry":{"x":180578.16000000015,"y":2579027.4200000018}},{"attributes":{"ID":312299,"DIS_CODE":0,"TOWNNAME":"新營區","LI":"南興里","LIN":"6鄰","STREET":"和平路","SECT":" ","MAREA":" ","LANE":"９７巷","ALLEY":" ","HOUSE_NO":"５號之１","E_COORD97":179438.95000000001,"N_COORD97":2577586.48,"ADDRESS":"和平路９７巷５之１號","OBJECTID":312291},"geometry":{"x":179438.95000000019,"y":2577586.4800000042}},{"attributes":{"ID":312300,"DIS_CODE":0,"TOWNNAME":"新營區","LI":"永生里","LIN":" ","STREET":"中山路","SECT":" ","MAREA":" ","LANE":"２２１巷","ALLEY":" ","HOUSE_NO":"２之１號","E_COORD97":179916.48000000001,"N_COORD97":2577970.71,"ADDRESS":"中山路２２１巷２之１號","OBJECTID":312292},"geometry":{"x":179916.48000000138,"y":2577970.7100000009}},{"attributes":{"ID":312301,"DIS_CODE":0,"TOWNNAME":"新營區","LI":"民生里","LIN":"25鄰","STREET":"民生路","SECT":" ","MAREA":" ","LANE":"１３９巷","ALLEY":" ","HOUSE_NO":"２８號","E_COORD97":179159.20999999999,"N_COORD97":2578592.2200000002,"ADDRESS":"民生路１３９巷２８號","OBJECTID":312293},"geometry":{"x":179159.20999999996,"y":2578592.2200000025}},{"attributes":{"ID":312302,"DIS_CODE":0,"TOWNNAME":"北區","LI":"長榮里","LIN":"7鄰","STREET":"長榮路","SECT":"五段","MAREA":" ","LANE":"４１巷","ALLEY":" ","HOUSE_NO":"１６號九樓之２","E_COORD97":170015.07999999999,"N_COORD97":2545549.6499999999,"ADDRESS":"長榮路五段４１巷１６號九樓之２","OBJECTID":312294},"geometry":{"x":170015.08000000101,"y":2545549.6500000022}},{"attributes":{"ID":312303,"DIS_CODE":0,"TOWNNAME":"北區","LI":"長榮里","LIN":"7鄰","STREET":"長榮路","SECT":"五段","MAREA":" ","LANE":"４１巷","ALLEY":" ","HOUSE_NO":"１６號九樓之３","E_COORD97":170015.07999999999,"N_COORD97":2545549.6499999999,"ADDRESS":"長榮路五段４１巷１６號九樓之３","OBJECTID":312295},"geometry":{"x":170015.08000000101,"y":2545549.6500000022}},{"attributes":{"ID":312304,"DIS_CODE":0,"TOWNNAME":"北區","LI":"長榮里","LIN":"7鄰","STREET":"長榮路","SECT":"五段","MAREA":" ","LANE":"４１巷","ALLEY":" ","HOUSE_NO":"１６號九樓之５","E_COORD97":170015.07999999999,"N_COORD97":2545549.6499999999,"ADDRESS":"長榮路五段４１巷１６號九樓之５","OBJECTID":312296},"geometry":{"x":170015.08000000101,"y":2545549.6500000022}},{"attributes":{"ID":312305,"DIS_CODE":0,"TOWNNAME":"中西區","LI":"水仙里","LIN":"17鄰","STREET":"普濟街","SECT":" ","MAREA":" ","LANE":" ","ALLEY":" ","HOUSE_NO":"３６號","E_COORD97":167827.35000000001,"N_COORD97":2544234.2000000002,"ADDRESS":"普濟街３６號","OBJECTID":312297},"geometry":{"x":167827.3499999987,"y":2544234.1999999993}},{"attributes":{"ID":312306,"DIS_CODE":0,"TOWNNAME":"中西區","LI":"水仙里","LIN":"17鄰","STREET":"普濟街","SECT":" ","MAREA":" ","LANE":" ","ALLEY":" ","HOUSE_NO":"３８號","E_COORD97":167828.88,"N_COORD97":2544241.1600000001,"ADDRESS":"普濟街３８號","OBJECTID":312298},"geometry":{"x":167828.87999999989,"y":2544241.160000002}},{"attributes":{"ID":312307,"DIS_CODE":0,"TOWNNAME":"中西區","LI":"水仙里","LIN":"17鄰","STREET":"普濟街","SECT":" ","MAREA":" ","LANE":" ","ALLEY":" ","HOUSE_NO":"４０號","E_COORD97":167830.54999999999,"N_COORD97":2544244.2200000002,"ADDRESS":"普濟街４０號","OBJECTID":312299},"geometry":{"x":167830.54999999981,"y":2544244.2200000025}},{"attributes":{"ID":312308,"DIS_CODE":0,"TOWNNAME":"中西區","LI":"水仙里","LIN":"17鄰","STREET":"普濟街","SECT":" ","MAREA":" ","LANE":" ","ALLEY":" ","HOUSE_NO":"４２號","E_COORD97":167831.53,"N_COORD97":2544247.1400000001,"ADDRESS":"普濟街４２號","OBJECTID":312300},"geometry":{"x":167831.53000000026,"y":2544247.1400000006}},{"attributes":{"ID":312309,"DIS_CODE":0,"TOWNNAME":"中西區","LI":"水仙里","LIN":"17鄰","STREET":"普濟街","SECT":" ","MAREA":" ","LANE":" ","ALLEY":" ","HOUSE_NO":"４４號","E_COORD97":167831.53,"N_COORD97":2544251.73,"ADDRESS":"普濟街４４號","OBJECTID":312301},"geometry":{"x":167831.53000000026,"y":2544251.7300000023}},{"attributes":{"ID":312310,"DIS_CODE":0,"TOWNNAME":"六甲區","LI":"中社里","LIN":"1鄰","STREET":" ","SECT":" ","MAREA":"中社","LANE":" ","ALLEY":" ","HOUSE_NO":"２之３９號","E_COORD97":181474.046871,"N_COORD97":2570997.1913600001,"ADDRESS":"中社２之３９號","OBJECTID":312302},"geometry":{"x":181474.04687099997,"y":2570997.1913570035}},{"attributes":{"ID":312311,"DIS_CODE":0,"TOWNNAME":"新營區","LI":"太北里","LIN":"16鄰","STREET":" ","SECT":" ","MAREA":"太子宮","LANE":" ","ALLEY":" ","HOUSE_NO":"１３２號之１","E_COORD97":175919.83489299999,"N_COORD97":2576900.2298300001,"ADDRESS":"太子宮１３２號之１","OBJECTID":312303},"geometry":{"x":175919.83489300124,"y":2576900.2298260033}},{"attributes":{"ID":312312,"DIS_CODE":0,"TOWNNAME":"新營區","LI":"南興里","LIN":"3鄰","STREET":"南昌街","SECT":" ","MAREA":" ","LANE":" ","ALLEY":" ","HOUSE_NO":"３５號之２","E_COORD97":179535.70000000001,"N_COORD97":2577649.1499999999,"ADDRESS":"南昌街３５號之２","OBJECTID":312304},"geometry":{"x":179535.70000000019,"y":2577649.1499999985}},{"attributes":{"ID":312313,"DIS_CODE":0,"TOWNNAME":"新市區","LI":"永就里","LIN":"6鄰","STREET":" ","SECT":" ","MAREA":"永就","LANE":" ","ALLEY":" ","HOUSE_NO":"６８之５２號","E_COORD97":177466.91557300001,"N_COORD97":2550547.68279,"ADDRESS":"永就６８之５２號","OBJECTID":312305},"geometry":{"x":177466.91557300091,"y":2550547.6827950012}},{"attributes":{"ID":312314,"DIS_CODE":0,"TOWNNAME":"新營區","LI":"埤寮里","LIN":"4鄰","STREET":" ","SECT":" ","MAREA":"許丑","LANE":" ","ALLEY":" ","HOUSE_NO":"４３之１０號","E_COORD97":179800.98000000001,"N_COORD97":2580910.46,"ADDRESS":"許丑４３之１０號","OBJECTID":312306},"geometry":{"x":179800.98000000138,"y":2580910.4600000028}},{"attributes":{"ID":312315,"DIS_CODE":0,"TOWNNAME":"新市區","LI":"永就里","LIN":"6鄰","STREET":"中華路","SECT":" ","MAREA":" ","LANE":" ","ALLEY":" ","HOUSE_NO":"４５之１號","E_COORD97":177593.374656,"N_COORD97":2551714.6005000002,"ADDRESS":"中華路４５之１號","OBJECTID":312307},"geometry":{"x":177593.37465600111,"y":2551714.6004980039}},{"attributes":{"ID":312316,"DIS_CODE":0,"TOWNNAME":"新營區","LI":"新北里","LIN":"14鄰","STREET":"南新街","SECT":" ","MAREA":" ","LANE":"１３巷","ALLEY":" ","HOUSE_NO":"３號","E_COORD97":179325.73999999999,"N_COORD97":2578807.3700000001,"ADDRESS":"南新街１３巷３號","OBJECTID":312308},"geometry":{"x":179325.74000000115,"y":2578807.370000001}},{"attributes":{"ID":312317,"DIS_CODE":0,"TOWNNAME":"新營區","LI":"興業里","LIN":" ","STREET":"中興路","SECT":" ","MAREA":" ","LANE":"１３巷","ALLEY":" ","HOUSE_NO":"１９之４號","E_COORD97":180229.69,"N_COORD97":2577979.2000000002,"ADDRESS":"中興路１３巷１９之４號","OBJECTID":312309},"geometry":{"x":180229.69000000227,"y":2577979.1999999993}},{"attributes":{"ID":312318,"DIS_CODE":0,"TOWNNAME":"新營區","LI":"太南里","LIN":" ","STREET":" ","SECT":" ","MAREA":"太子宮","LANE":" ","ALLEY":" ","HOUSE_NO":"２３２之３號","E_COORD97":176055.45999999999,"N_COORD97":2576940.73,"ADDRESS":"太子宮２３２之３號","OBJECTID":312310},"geometry":{"x":176055.46000000183,"y":2576940.7300000023}},{"attributes":{"ID":312319,"DIS_CODE":0,"TOWNNAME":"新營區","LI":"護鎮里","LIN":" ","STREET":" ","SECT":" ","MAREA":"後鎮","LANE":" ","ALLEY":" ","HOUSE_NO":"９６之１６號","E_COORD97":179088.76999999999,"N_COORD97":2580847.3999999999,"ADDRESS":"後鎮９６之１６號","OBJECTID":312311},"geometry":{"x":179088.76999999955,"y":2580847.4000000004}},{"attributes":{"ID":312320,"DIS_CODE":0,"TOWNNAME":"新營區","LI":"嘉芳里","LIN":"5鄰","STREET":" ","SECT":" ","MAREA":"茄苳腳","LANE":" ","ALLEY":" ","HOUSE_NO":"５２號之３","E_COORD97":176941.70999999999,"N_COORD97":2578312.8999999999,"ADDRESS":"茄苳腳５２之３號","OBJECTID":312312},"geometry":{"x":176941.70999999996,"y":2578312.9000000022}},{"attributes":{"ID":312321,"DIS_CODE":0,"TOWNNAME":"新營區","LI":"土庫里","LIN":"17鄰","STREET":" ","SECT":" ","MAREA":"卯舍","LANE":" ","ALLEY":" ","HOUSE_NO":"１４號之１","E_COORD97":181654.32000000001,"N_COORD97":2580139.8399999999,"ADDRESS":"卯舍１４號之１","OBJECTID":312313},"geometry":{"x":181654.32000000216,"y":2580139.8400000017}},{"attributes":{"ID":312322,"DIS_CODE":0,"TOWNNAME":"新營區","LI":"鐵線里","LIN":" ","STREET":" ","SECT":" ","MAREA":"秀才","LANE":" ","ALLEY":" ","HOUSE_NO":"１６之１號","E_COORD97":174747.73000000001,"N_COORD97":2573902.8999999999,"ADDRESS":"秀才１６之１號","OBJECTID":312314},"geometry":{"x":174747.73000000138,"y":2573902.9000000022}},{"attributes":{"ID":312323,"DIS_CODE":0,"TOWNNAME":"新營區","LI":"護鎮里","LIN":"2鄰","STREET":" ","SECT":" ","MAREA":"後鎮","LANE":" ","ALLEY":" ","HOUSE_NO":"２０號之１","E_COORD97":179305.42999999999,"N_COORD97":2581056.7799999998,"ADDRESS":"後鎮２０之１號","OBJECTID":312315},"geometry":{"x":179305.43000000063,"y":2581056.7799999993}},{"attributes":{"ID":312324,"DIS_CODE":0,"TOWNNAME":"佳里區","LI":"忠仁里","LIN":"7鄰","STREET":"忠仁街","SECT":" ","MAREA":" ","LANE":"５１巷","ALLEY":" ","HOUSE_NO":"１號","E_COORD97":166029.76000000001,"N_COORD97":2562055.1899999999,"ADDRESS":"忠仁街５１巷１號","OBJECTID":312316},"geometry":{"x":166029.76000000071,"y":2562055.1899999995}},{"attributes":{"ID":312325,"DIS_CODE":0,"TOWNNAME":"北區","LI":"長榮里","LIN":"7鄰","STREET":"長榮路","SECT":"五段","MAREA":" ","LANE":"４１巷","ALLEY":" ","HOUSE_NO":"１６號十樓之１","E_COORD97":170015.07999999999,"N_COORD97":2545549.6499999999,"ADDRESS":"長榮路五段４１巷１６號十樓之１","OBJECTID":312317},"geometry":{"x":170015.08000000101,"y":2545549.6500000022}},{"attributes":{"ID":312326,"DIS_CODE":0,"TOWNNAME":"新營區","LI":"護鎮里","LIN":"2鄰","STREET":" ","SECT":" ","MAREA":"後鎮","LANE":" ","ALLEY":" ","HOUSE_NO":"１２號之１","E_COORD97":179344.51999999999,"N_COORD97":2581117.5,"ADDRESS":"後鎮１２之１號","OBJECTID":312318},"geometry":{"x":179344.51999999955,"y":2581117.5}},{"attributes":{"ID":312327,"DIS_CODE":0,"TOWNNAME":"北區","LI":"長榮里","LIN":"7鄰","STREET":"長榮路","SECT":"五段","MAREA":" ","LANE":"４１巷","ALLEY":" ","HOUSE_NO":"１６號十二樓之１","E_COORD97":170015.07999999999,"N_COORD97":2545549.6499999999,"ADDRESS":"長榮路五段４１巷１６號十二樓之１","OBJECTID":312319},"geometry":{"x":170015.08000000101,"y":2545549.6500000022}},{"attributes":{"ID":312328,"DIS_CODE":0,"TOWNNAME":"北區","LI":"長榮里","LIN":"7鄰","STREET":"長榮路","SECT":"五段","MAREA":" ","LANE":"４１巷","ALLEY":" ","HOUSE_NO":"１６號十二樓之２","E_COORD97":170015.07999999999,"N_COORD97":2545549.6499999999,"ADDRESS":"長榮路五段４１巷１６號十二樓之２","OBJECTID":312320},"geometry":{"x":170015.08000000101,"y":2545549.6500000022}},{"attributes":{"ID":312329,"DIS_CODE":0,"TOWNNAME":"中西區","LI":"水仙里","LIN":"17鄰","STREET":"普濟街","SECT":" ","MAREA":" ","LANE":" ","ALLEY":" ","HOUSE_NO":"４６號","E_COORD97":167832.07999999999,"N_COORD97":2544256.04,"ADDRESS":"普濟街４６號","OBJECTID":312321},"geometry":{"x":167832.08000000101,"y":2544256.0399999991}},{"attributes":{"ID":312330,"DIS_CODE":0,"TOWNNAME":"中西區","LI":"水仙里","LIN":"17鄰","STREET":"普濟街","SECT":" ","MAREA":" ","LANE":" ","ALLEY":" ","HOUSE_NO":"４８號","E_COORD97":167832.35999999999,"N_COORD97":2544259.3799999999,"ADDRESS":"普濟街４８號","OBJECTID":312322},"geometry":{"x":167832.36000000034,"y":2544259.3800000008}},{"attributes":{"ID":312331,"DIS_CODE":0,"TOWNNAME":"中西區","LI":"水仙里","LIN":"17鄰","STREET":"普濟街","SECT":" ","MAREA":" ","LANE":" ","ALLEY":" ","HOUSE_NO":"５０號","E_COORD97":167832.35999999999,"N_COORD97":2544262.5800000001,"ADDRESS":"普濟街５０號","OBJECTID":312323},"geometry":{"x":167832.36000000034,"y":2544262.5800000019}},{"attributes":{"ID":312332,"DIS_CODE":0,"TOWNNAME":"中西區","LI":"水仙里","LIN":"17鄰","STREET":"神農街","SECT":" ","MAREA":" ","LANE":" ","ALLEY":" ","HOUSE_NO":"１０號","E_COORD97":167798.26000000001,"N_COORD97":2544164.2000000002,"ADDRESS":"神農街１０號","OBJECTID":312324},"geometry":{"x":167798.26000000071,"y":2544164.1999999993}},{"attributes":{"ID":312333,"DIS_CODE":0,"TOWNNAME":"新營區","LI":"土庫里","LIN":" ","STREET":" ","SECT":" ","MAREA":"土庫","LANE":" ","ALLEY":" ","HOUSE_NO":"７１之２０號","E_COORD97":182668.51000000001,"N_COORD97":2580001.2000000002,"ADDRESS":"土庫７１之２０號","OBJECTID":312325},"geometry":{"x":182668.51000000071,"y":2580001.2000000011}},{"attributes":{"ID":312334,"DIS_CODE":0,"TOWNNAME":"新營區","LI":"興業里","LIN":" ","STREET":"公誠街","SECT":" ","MAREA":" ","LANE":"９巷","ALLEY":" ","HOUSE_NO":"２之２號","E_COORD97":180305.32999999999,"N_COORD97":2578003.21,"ADDRESS":"公誠街９巷２之２號","OBJECTID":312326},"geometry":{"x":180305.33000000101,"y":2578003.2100000028}},{"attributes":{"ID":312335,"DIS_CODE":0,"TOWNNAME":"新營區","LI":"興業里","LIN":" ","STREET":"中興路","SECT":" ","MAREA":" ","LANE":"１３巷","ALLEY":" ","HOUSE_NO":"３０之３號","E_COORD97":180274.70000000001,"N_COORD97":2577960.1699999999,"ADDRESS":"中興路１３巷３０之３號","OBJECTID":312327},"geometry":{"x":180274.70000000019,"y":2577960.1699999999}},{"attributes":{"ID":312336,"DIS_CODE":0,"TOWNNAME":"新營區","LI":"嘉芳里","LIN":" ","STREET":" ","SECT":" ","MAREA":"茄苳腳","LANE":" ","ALLEY":" ","HOUSE_NO":"２８之１２號","E_COORD97":177018.23000000001,"N_COORD97":2578424.3799999999,"ADDRESS":"茄苳腳２８之１２號","OBJECTID":312328},"geometry":{"x":177018.23000000045,"y":2578424.3800000008}},{"attributes":{"ID":312337,"DIS_CODE":0,"TOWNNAME":"北區","LI":"長榮里","LIN":"7鄰","STREET":"長榮路","SECT":"五段","MAREA":" ","LANE":"４１巷","ALLEY":" ","HOUSE_NO":"１６號十二樓之３","E_COORD97":170015.07999999999,"N_COORD97":2545549.6499999999,"ADDRESS":"長榮路五段４１巷１６號十二樓之３","OBJECTID":312329},"geometry":{"x":170015.08000000101,"y":2545549.6500000022}},{"attributes":{"ID":312338,"DIS_CODE":0,"TOWNNAME":"北區","LI":"長榮里","LIN":"7鄰","STREET":"長榮路","SECT":"五段","MAREA":" ","LANE":"４１巷","ALLEY":" ","HOUSE_NO":"１６號十二樓之５","E_COORD97":170015.07999999999,"N_COORD97":2545549.6499999999,"ADDRESS":"長榮路五段４１巷１６號十二樓之５","OBJECTID":312330},"geometry":{"x":170015.08000000101,"y":2545549.6500000022}},{"attributes":{"ID":312339,"DIS_CODE":0,"TOWNNAME":"新營區","LI":"太南里","LIN":" ","STREET":" ","SECT":" ","MAREA":"太子宮","LANE":" ","ALLEY":" ","HOUSE_NO":"２６３之１號","E_COORD97":176141.78,"N_COORD97":2576812.9399999999,"ADDRESS":"太子宮２６３之１號","OBJECTID":312331},"geometry":{"x":176141.78000000212,"y":2576812.9400000013}},{"attributes":{"ID":312340,"DIS_CODE":0,"TOWNNAME":"北區","LI":"長榮里","LIN":"7鄰","STREET":"長榮路","SECT":"五段","MAREA":" ","LANE":"４１巷","ALLEY":" ","HOUSE_NO":"１６號十三樓之１","E_COORD97":170015.07999999999,"N_COORD97":2545549.6499999999,"ADDRESS":"長榮路五段４１巷１６號十三樓之１","OBJECTID":312332},"geometry":{"x":170015.08000000101,"y":2545549.6500000022}},{"attributes":{"ID":312341,"DIS_CODE":0,"TOWNNAME":"北區","LI":"長榮里","LIN":"7鄰","STREET":"長榮路","SECT":"五段","MAREA":" ","LANE":"４１巷","ALLEY":" ","HOUSE_NO":"１６號十三樓之２","E_COORD97":170015.07999999999,"N_COORD97":2545549.6499999999,"ADDRESS":"長榮路五段４１巷１６號十三樓之２","OBJECTID":312333},"geometry":{"x":170015.08000000101,"y":2545549.6500000022}},{"attributes":{"ID":312342,"DIS_CODE":0,"TOWNNAME":"北區","LI":"長榮里","LIN":"7鄰","STREET":"長榮路","SECT":"五段","MAREA":" ","LANE":"４１巷","ALLEY":" ","HOUSE_NO":"１６號十三樓之３","E_COORD97":170015.07999999999,"N_COORD97":2545549.6499999999,"ADDRESS":"長榮路五段４１巷１６號十三樓之３","OBJECTID":312334},"geometry":{"x":170015.08000000101,"y":2545549.6500000022}},{"attributes":{"ID":312343,"DIS_CODE":0,"TOWNNAME":"新營區","LI":"護鎮里","LIN":"4鄰","STREET":" ","SECT":" ","MAREA":"後鎮","LANE":" ","ALLEY":" ","HOUSE_NO":"４５號之６","E_COORD97":179179.91,"N_COORD97":2581163.6899999999,"ADDRESS":"後鎮４５號之６","OBJECTID":312335},"geometry":{"x":179179.91000000015,"y":2581163.6899999995}},{"attributes":{"ID":312344,"DIS_CODE":0,"TOWNNAME":"北區","LI":"長榮里","LIN":"7鄰","STREET":"長榮路","SECT":"五段","MAREA":" ","LANE":"４１巷","ALLEY":" ","HOUSE_NO":"１６號十三樓之５","E_COORD97":170015.07999999999,"N_COORD97":2545549.6499999999,"ADDRESS":"長榮路五段４１巷１６號十三樓之５","OBJECTID":312336},"geometry":{"x":170015.08000000101,"y":2545549.6500000022}},{"attributes":{"ID":312345,"DIS_CODE":0,"TOWNNAME":"北區","LI":"長榮里","LIN":"7鄰","STREET":"長榮路","SECT":"五段","MAREA":" ","LANE":"４１巷","ALLEY":" ","HOUSE_NO":"１６號十四樓之１","E_COORD97":170015.07999999999,"N_COORD97":2545549.6499999999,"ADDRESS":"長榮路五段４１巷１６號十四樓之１","OBJECTID":312337},"geometry":{"x":170015.08000000101,"y":2545549.6500000022}},{"attributes":{"ID":312346,"DIS_CODE":0,"TOWNNAME":"北區","LI":"長榮里","LIN":"7鄰","STREET":"長榮路","SECT":"五段","MAREA":" ","LANE":"４１巷","ALLEY":" ","HOUSE_NO":"１６號十四樓之２","E_COORD97":170015.07999999999,"N_COORD97":2545549.6499999999,"ADDRESS":"長榮路五段４１巷１６號十四樓之２","OBJECTID":312338},"geometry":{"x":170015.08000000101,"y":2545549.6500000022}},{"attributes":{"ID":312347,"DIS_CODE":0,"TOWNNAME":"北區","LI":"長榮里","LIN":"7鄰","STREET":"長榮路","SECT":"五段","MAREA":" ","LANE":"４１巷","ALLEY":" ","HOUSE_NO":"１６號十四樓之３","E_COORD97":170015.07999999999,"N_COORD97":2545549.6499999999,"ADDRESS":"長榮路五段４１巷１６號十四樓之３","OBJECTID":312339},"geometry":{"x":170015.08000000101,"y":2545549.6500000022}},{"attributes":{"ID":312348,"DIS_CODE":0,"TOWNNAME":"北區","LI":"長榮里","LIN":"7鄰","STREET":"長榮路","SECT":"五段","MAREA":" ","LANE":"４１巷","ALLEY":" ","HOUSE_NO":"１６號十四樓之５","E_COORD97":170015.07999999999,"N_COORD97":2545549.6499999999,"ADDRESS":"長榮路五段４１巷１６號十四樓之５","OBJECTID":312340},"geometry":{"x":170015.08000000101,"y":2545549.6500000022}},{"attributes":{"ID":312349,"DIS_CODE":0,"TOWNNAME":"中西區","LI":"水仙里","LIN":"17鄰","STREET":"神農街","SECT":" ","MAREA":" ","LANE":" ","ALLEY":" ","HOUSE_NO":"１２號","E_COORD97":167795.47,"N_COORD97":2544167.3999999999,"ADDRESS":"神農街１２號","OBJECTID":312341},"geometry":{"x":167795.46999999974,"y":2544167.4000000004}},{"attributes":{"ID":312350,"DIS_CODE":0,"TOWNNAME":"中西區","LI":"水仙里","LIN":"17鄰","STREET":"神農街","SECT":" ","MAREA":" ","LANE":" ","ALLEY":" ","HOUSE_NO":"４號","E_COORD97":167809.39000000001,"N_COORD97":2544158.77,"ADDRESS":"神農街４號","OBJECTID":312342},"geometry":{"x":167809.3900000006,"y":2544158.7700000014}},{"attributes":{"ID":312351,"DIS_CODE":0,"TOWNNAME":"新營區","LI":"土庫里","LIN":"1鄰","STREET":" ","SECT":" ","MAREA":"土庫","LANE":" ","ALLEY":" ","HOUSE_NO":"５號之１４","E_COORD97":182950.79999999999,"N_COORD97":2580057.4900000002,"ADDRESS":"土庫５號之１４","OBJECTID":312343},"geometry":{"x":182950.80000000168,"y":2580057.4900000039}},{"attributes":{"ID":312352,"DIS_CODE":0,"TOWNNAME":"新營區","LI":"土庫里","LIN":"2鄰","STREET":" ","SECT":" ","MAREA":"土庫","LANE":" ","ALLEY":" ","HOUSE_NO":"６號之１８","E_COORD97":182550.03,"N_COORD97":2580091.4399999999,"ADDRESS":"土庫６號之１８","OBJECTID":312344},"geometry":{"x":182550.03000000119,"y":2580091.4400000013}},{"attributes":{"ID":312353,"DIS_CODE":0,"TOWNNAME":"新營區","LI":"土庫里","LIN":" ","STREET":" ","SECT":" ","MAREA":"土庫","LANE":" ","ALLEY":" ","HOUSE_NO":"４４之１號","E_COORD97":183284.53,"N_COORD97":2579887.6600000001,"ADDRESS":"土庫４４之１號","OBJECTID":312345},"geometry":{"x":183284.53000000026,"y":2579887.660000002}},{"attributes":{"ID":312354,"DIS_CODE":0,"TOWNNAME":"新營區","LI":"護鎮里","LIN":"8鄰","STREET":" ","SECT":" ","MAREA":"後鎮","LANE":" ","ALLEY":" ","HOUSE_NO":"９０之２號","E_COORD97":179182.20999999999,"N_COORD97":2580972.0899999999,"ADDRESS":"後鎮９０之２號","OBJECTID":312346},"geometry":{"x":179182.21000000089,"y":2580972.0900000036}},{"attributes":{"ID":312355,"DIS_CODE":0,"TOWNNAME":"新營區","LI":"太南里","LIN":"1鄰","STREET":" ","SECT":" ","MAREA":"太子宮","LANE":" ","ALLEY":" ","HOUSE_NO":"２００之９號","E_COORD97":176106.95999999999,"N_COORD97":2577011.3500000001,"ADDRESS":"太子宮２００之９號","OBJECTID":312347},"geometry":{"x":176106.96000000089,"y":2577011.3500000015}},{"attributes":{"ID":312356,"DIS_CODE":0,"TOWNNAME":"新營區","LI":"嘉芳里","LIN":"3鄰","STREET":" ","SECT":" ","MAREA":"茄苳腳","LANE":" ","ALLEY":" ","HOUSE_NO":"２８號之８","E_COORD97":177039.47,"N_COORD97":2578422.0600000001,"ADDRESS":"茄苳腳２８之８號","OBJECTID":312348},"geometry":{"x":177039.46999999974,"y":2578422.0600000005}},{"attributes":{"ID":312357,"DIS_CODE":0,"TOWNNAME":"新營區","LI":"南興里","LIN":" ","STREET":"和平路","SECT":" ","MAREA":" ","LANE":"１０４巷","ALLEY":" ","HOUSE_NO":"１３之２號","E_COORD97":179368.39999999999,"N_COORD97":2577549.1699999999,"ADDRESS":"和平路１０４巷１３之２號","OBJECTID":312349},"geometry":{"x":179368.40000000037,"y":2577549.1699999999}},{"attributes":{"ID":312358,"DIS_CODE":0,"TOWNNAME":"新營區","LI":"好平里","LIN":" ","STREET":"南昌街","SECT":" ","MAREA":" ","LANE":"４０巷","ALLEY":" ","HOUSE_NO":"３號","E_COORD97":179499.35999999999,"N_COORD97":2577676.9399999999,"ADDRESS":"南昌街４０巷３號","OBJECTID":312350},"geometry":{"x":179499.3599999994,"y":2577676.9400000032}},{"attributes":{"ID":312359,"DIS_CODE":0,"TOWNNAME":"新營區","LI":"興業里","LIN":" ","STREET":"中興路","SECT":" ","MAREA":" ","LANE":"１３巷","ALLEY":" ","HOUSE_NO":"１１之２號","E_COORD97":180193.89000000001,"N_COORD97":2577980.48,"ADDRESS":"中興路１３巷１１之２號","OBJECTID":312351},"geometry":{"x":180193.8900000006,"y":2577980.4800000023}},{"attributes":{"ID":312360,"DIS_CODE":0,"TOWNNAME":"新營區","LI":"民榮里","LIN":"20鄰","STREET":"裕民路","SECT":" ","MAREA":" ","LANE":"１２巷","ALLEY":" ","HOUSE_NO":"１１號","E_COORD97":179071.17999999999,"N_COORD97":2577950.3199999998,"ADDRESS":"裕民路１２巷１１號","OBJECTID":312352},"geometry":{"x":179071.18000000156,"y":2577950.3200000022}},{"attributes":{"ID":312361,"DIS_CODE":0,"TOWNNAME":"歸仁區","LI":"南保里","LIN":"20鄰","STREET":"文化街","SECT":"三段","MAREA":" ","LANE":"６１巷","ALLEY":" ","HOUSE_NO":"１０號","E_COORD97":176892.14000000001,"N_COORD97":2541203.3300000001,"ADDRESS":"文化街三段６１巷１０號","OBJECTID":312353},"geometry":{"x":176892.1400000006,"y":2541203.3300000001}},{"attributes":{"ID":312362,"DIS_CODE":0,"TOWNNAME":"歸仁區","LI":"南保里","LIN":"26鄰","STREET":"民權六街","SECT":" ","MAREA":" ","LANE":"１８１巷","ALLEY":" ","HOUSE_NO":"１９號","E_COORD97":176650.48999999999,"N_COORD97":2541070.29,"ADDRESS":"民權六街１８１巷１９號","OBJECTID":312354},"geometry":{"x":176650.48999999929,"y":2541070.2899999991}},{"attributes":{"ID":312363,"DIS_CODE":0,"TOWNNAME":"歸仁區","LI":"南保里","LIN":"32鄰","STREET":"民權八街","SECT":" ","MAREA":" ","LANE":"７０巷","ALLEY":" ","HOUSE_NO":"１８號","E_COORD97":176807.94,"N_COORD97":2541031.29,"ADDRESS":"民權八街７０巷１８號","OBJECTID":312355},"geometry":{"x":176807.94000000041,"y":2541031.2900000028}},{"attributes":{"ID":312364,"DIS_CODE":0,"TOWNNAME":"安南區","LI":"新順里","LIN":"7鄰","STREET":"北安路","SECT":"三段","MAREA":" ","LANE":"７４５巷","ALLEY":" ","HOUSE_NO":"２８號","E_COORD97":169073.23999999999,"N_COORD97":2549955.9300000002,"ADDRESS":"北安路三段７４５巷２８號","OBJECTID":312356},"geometry":{"x":169073.24000000115,"y":2549955.9299999997}},{"attributes":{"ID":312365,"DIS_CODE":0,"TOWNNAME":"安南區","LI":"安西里","LIN":"7鄰","STREET":"安和路","SECT":"一段","MAREA":" ","LANE":"３２１巷","ALLEY":" ","HOUSE_NO":"４１號","E_COORD97":169146.01999999999,"N_COORD97":2548101.5,"ADDRESS":"安和路一段３２１巷４１號","OBJECTID":312357},"geometry":{"x":169146.01999999955,"y":2548101.5}},{"attributes":{"ID":312366,"DIS_CODE":0,"TOWNNAME":"安南區","LI":"理想里","LIN":"7鄰","STREET":"海佃路","SECT":"二段","MAREA":" ","LANE":"２０６巷","ALLEY":" ","HOUSE_NO":"６號之６","E_COORD97":166994.06,"N_COORD97":2548250.0899999999,"ADDRESS":"海佃路二段２０６巷６號之６","OBJECTID":312358},"geometry":{"x":166994.06000000052,"y":2548250.0899999999}},{"attributes":{"ID":312367,"DIS_CODE":0,"TOWNNAME":"安南區","LI":"溪頂里","LIN":"7鄰","STREET":"府安路","SECT":"四段","MAREA":" ","LANE":"１８５巷","ALLEY":" ","HOUSE_NO":"１１號","E_COORD97":168653.88,"N_COORD97":2547275.8399999999,"ADDRESS":"府安路四段１８５巷１１號","OBJECTID":312359},"geometry":{"x":168653.88000000082,"y":2547275.8399999999}},{"attributes":{"ID":312368,"DIS_CODE":0,"TOWNNAME":"安南區","LI":"溪頂里","LIN":"7鄰","STREET":"府安路","SECT":"四段","MAREA":" ","LANE":"１８５巷","ALLEY":" ","HOUSE_NO":"１號","E_COORD97":168657.06,"N_COORD97":2547254.3100000001,"ADDRESS":"府安路四段１８５巷１號","OBJECTID":312360},"geometry":{"x":168657.06000000052,"y":2547254.3100000024}},{"attributes":{"ID":312369,"DIS_CODE":0,"TOWNNAME":"安南區","LI":"溪頂里","LIN":"7鄰","STREET":"府安路","SECT":"四段","MAREA":" ","LANE":"１８５巷","ALLEY":" ","HOUSE_NO":"２２號","E_COORD97":168668.32999999999,"N_COORD97":2547298.71,"ADDRESS":"府安路四段１８５巷２２號","OBJECTID":312361},"geometry":{"x":168668.33000000007,"y":2547298.709999999}},{"attributes":{"ID":312370,"DIS_CODE":0,"TOWNNAME":"中西區","LI":"水仙里","LIN":"17鄰","STREET":"神農街","SECT":" ","MAREA":" ","LANE":" ","ALLEY":" ","HOUSE_NO":"６號","E_COORD97":167805.78,"N_COORD97":2544166.4199999999,"ADDRESS":"神農街６號","OBJECTID":312362},"geometry":{"x":167805.78000000026,"y":2544166.4199999999}},{"attributes":{"ID":312371,"DIS_CODE":0,"TOWNNAME":"中西區","LI":"水仙里","LIN":"17鄰","STREET":"神農街","SECT":" ","MAREA":" ","LANE":" ","ALLEY":" ","HOUSE_NO":"８號","E_COORD97":167801.88,"N_COORD97":2544166.1400000001,"ADDRESS":"神農街８號","OBJECTID":312363},"geometry":{"x":167801.87999999989,"y":2544166.1399999987}},{"attributes":{"ID":312372,"DIS_CODE":0,"TOWNNAME":"中西區","LI":"水仙里","LIN":"17鄰","STREET":"普濟街","SECT":" ","MAREA":" ","LANE":" ","ALLEY":" ","HOUSE_NO":"１０號","E_COORD97":167808.84,"N_COORD97":2544194.4900000002,"ADDRESS":"普濟街１０號","OBJECTID":312364},"geometry":{"x":167808.83999999985,"y":2544194.4900000021}},{"attributes":{"ID":312373,"DIS_CODE":0,"TOWNNAME":"中西區","LI":"水仙里","LIN":"17鄰","STREET":"普濟街","SECT":" ","MAREA":" ","LANE":" ","ALLEY":" ","HOUSE_NO":"１２號","E_COORD97":167811.76000000001,"N_COORD97":2544198.9399999999,"ADDRESS":"普濟街１２號","OBJECTID":312365},"geometry":{"x":167811.76000000071,"y":2544198.9399999995}},{"attributes":{"ID":312374,"DIS_CODE":0,"TOWNNAME":"中西區","LI":"水仙里","LIN":"17鄰","STREET":"普濟街","SECT":" ","MAREA":" ","LANE":" ","ALLEY":" ","HOUSE_NO":"１８號","E_COORD97":167815.23999999999,"N_COORD97":2544208.2599999998,"ADDRESS":"普濟街１８號","OBJECTID":312366},"geometry":{"x":167815.24000000209,"y":2544208.2599999998}},{"attributes":{"ID":312375,"DIS_CODE":0,"TOWNNAME":"新市區","LI":"永就里","LIN":"1鄰","STREET":" ","SECT":" ","MAREA":"永就","LANE":" ","ALLEY":" ","HOUSE_NO":"１５之６號","E_COORD97":178298.81771199999,"N_COORD97":2551348.17924,"ADDRESS":"永就１５之６號","OBJECTID":312367},"geometry":{"x":178298.8177120015,"y":2551348.1792370025}},{"attributes":{"ID":312376,"DIS_CODE":0,"TOWNNAME":"新營區","LI":"南興里","LIN":"1鄰","STREET":"南昌街","SECT":" ","MAREA":" ","LANE":" ","ALLEY":" ","HOUSE_NO":"５號之１","E_COORD97":179684.75,"N_COORD97":2577649.5299999998,"ADDRESS":"南昌街５號之１","OBJECTID":312368},"geometry":{"x":179684.75000000186,"y":2577649.5300000012}},{"attributes":{"ID":312377,"DIS_CODE":0,"TOWNNAME":"新營區","LI":"土庫里","LIN":"17鄰","STREET":" ","SECT":" ","MAREA":"卯舍","LANE":" ","ALLEY":" ","HOUSE_NO":"１４號之２","E_COORD97":181588.84,"N_COORD97":2580135.71,"ADDRESS":"卯舍１４號之２","OBJECTID":312369},"geometry":{"x":181588.83999999985,"y":2580135.7100000028}},{"attributes":{"ID":312378,"DIS_CODE":0,"TOWNNAME":"新營區","LI":"土庫里","LIN":" ","STREET":" ","SECT":" ","MAREA":"土庫","LANE":" ","ALLEY":" ","HOUSE_NO":"７１之２２號","E_COORD97":182627.57999999999,"N_COORD97":2579998.0600000001,"ADDRESS":"土庫７１之２２號","OBJECTID":312370},"geometry":{"x":182627.58000000101,"y":2579998.0600000005}},{"attributes":{"ID":312379,"DIS_CODE":0,"TOWNNAME":"新營區","LI":"新南里","LIN":"26鄰","STREET":"復興路","SECT":" ","MAREA":" ","LANE":"６２０巷","ALLEY":" ","HOUSE_NO":"４９號","E_COORD97":178040.78,"N_COORD97":2578496.8300000001,"ADDRESS":"復興路６２０巷４９號","OBJECTID":312371},"geometry":{"x":178040.78000000119,"y":2578496.8300000019}},{"attributes":{"ID":312380,"DIS_CODE":0,"TOWNNAME":"新營區","LI":"新南里","LIN":"25鄰","STREET":"隋唐街","SECT":" ","MAREA":" ","LANE":"２９５巷","ALLEY":" ","HOUSE_NO":"１０號","E_COORD97":178154.51999999999,"N_COORD97":2578556.0800000001,"ADDRESS":"隋唐街２９５巷１０號","OBJECTID":312372},"geometry":{"x":178154.51999999955,"y":2578556.0800000019}},{"attributes":{"ID":312381,"DIS_CODE":0,"TOWNNAME":"新營區","LI":"興業里","LIN":" ","STREET":"中興路","SECT":" ","MAREA":" ","LANE":"１３巷","ALLEY":" ","HOUSE_NO":"１５之１號","E_COORD97":180211.28,"N_COORD97":2577979.29,"ADDRESS":"中興路１３巷１５之１號","OBJECTID":312373},"geometry":{"x":180211.28000000026,"y":2577979.2900000028}},{"attributes":{"ID":312382,"DIS_CODE":0,"TOWNNAME":"安南區","LI":"溪頂里","LIN":"7鄰","STREET":"府安路","SECT":"四段","MAREA":" ","LANE":"１８５巷","ALLEY":" ","HOUSE_NO":"２８號","E_COORD97":168654.54999999999,"N_COORD97":2547296.9100000001,"ADDRESS":"府安路四段１８５巷２８號","OBJECTID":312374},"geometry":{"x":168654.54999999981,"y":2547296.9100000039}},{"attributes":{"ID":312383,"DIS_CODE":0,"TOWNNAME":"安南區","LI":"溪頂里","LIN":"7鄰","STREET":"府安路","SECT":"四段","MAREA":" ","LANE":"１８５巷","ALLEY":" ","HOUSE_NO":"３號","E_COORD97":168656.54999999999,"N_COORD97":2547258.6499999999,"ADDRESS":"府安路四段１８５巷３號","OBJECTID":312375},"geometry":{"x":168656.54999999981,"y":2547258.6500000022}},{"attributes":{"ID":312384,"DIS_CODE":0,"TOWNNAME":"安南區","LI":"溪頂里","LIN":"7鄰","STREET":"府安路","SECT":"四段","MAREA":" ","LANE":"１８５巷","ALLEY":" ","HOUSE_NO":"５號","E_COORD97":168656.14999999999,"N_COORD97":2547262.8799999999,"ADDRESS":"府安路四段１８５巷５號","OBJECTID":312376},"geometry":{"x":168656.15000000037,"y":2547262.8800000008}},{"attributes":{"ID":312385,"DIS_CODE":0,"TOWNNAME":"安南區","LI":"溪頂里","LIN":"7鄰","STREET":"府安路","SECT":"四段","MAREA":" ","LANE":"１８５巷","ALLEY":" ","HOUSE_NO":"７號","E_COORD97":168655.75,"N_COORD97":2547266.9199999999,"ADDRESS":"府安路四段１８５巷７號","OBJECTID":312377},"geometry":{"x":168655.75000000186,"y":2547266.9200000018}},{"attributes":{"ID":312386,"DIS_CODE":0,"TOWNNAME":"安南區","LI":"溪頂里","LIN":"7鄰","STREET":"府安路","SECT":"四段","MAREA":" ","LANE":"１８５巷","ALLEY":" ","HOUSE_NO":"９號","E_COORD97":168654.64000000001,"N_COORD97":2547271.46,"ADDRESS":"府安路四段１８５巷９號","OBJECTID":312378},"geometry":{"x":168654.6400000006,"y":2547271.4600000028}},{"attributes":{"ID":312387,"DIS_CODE":0,"TOWNNAME":"安南區","LI":"城北里","LIN":"7鄰","STREET":"安中路","SECT":"六段","MAREA":" ","LANE":"１４８巷","ALLEY":" ","HOUSE_NO":"５０號","E_COORD97":161813.29999999999,"N_COORD97":2551488.9399999999,"ADDRESS":"安中路六段１４８巷５０號","OBJECTID":312379},"geometry":{"x":161813.29999999888,"y":2551488.9399999995}},{"attributes":{"ID":312388,"DIS_CODE":0,"TOWNNAME":"安南區","LI":"海西里","LIN":"7鄰","STREET":"海中街","SECT":" ","MAREA":" ","LANE":"１０１巷","ALLEY":" ","HOUSE_NO":"３２號","E_COORD97":166316.34,"N_COORD97":2548978.2400000002,"ADDRESS":"海中街１０１巷３２號","OBJECTID":312380},"geometry":{"x":166316.34000000078,"y":2548978.2400000002}},{"attributes":{"ID":312389,"DIS_CODE":0,"TOWNNAME":"安南區","LI":"城西里","LIN":"7鄰","STREET":"城西街","SECT":"三段","MAREA":" ","LANE":"５０１巷","ALLEY":" ","HOUSE_NO":"３６２號之１６","E_COORD97":157705.48000000001,"N_COORD97":2549235.6499999999,"ADDRESS":"城西街三段５０１巷３６２號之１６","OBJECTID":312381},"geometry":{"x":157705.48000000231,"y":2549235.6500000022}},{"attributes":{"ID":312390,"DIS_CODE":0,"TOWNNAME":"安南區","LI":"城西里","LIN":"7鄰","STREET":"城西街","SECT":"三段","MAREA":" ","LANE":"５０１巷","ALLEY":" ","HOUSE_NO":"３６２號之３２","E_COORD97":157623.98000000001,"N_COORD97":2549359.75,"ADDRESS":"城西街三段５０１巷３６２號之３２","OBJECTID":312382},"geometry":{"x":157623.97999999952,"y":2549359.7500000019}},{"attributes":{"ID":312391,"DIS_CODE":0,"TOWNNAME":"安南區","LI":"城西里","LIN":"7鄰","STREET":"城西街","SECT":"三段","MAREA":" ","LANE":"５０１巷","ALLEY":" ","HOUSE_NO":"３６２號之６２","E_COORD97":157620.5,"N_COORD97":2548953.1600000001,"ADDRESS":"城西街三段５０１巷３６２號之６２","OBJECTID":312383},"geometry":{"x":157620.50000000093,"y":2548953.1600000039}},{"attributes":{"ID":312392,"DIS_CODE":0,"TOWNNAME":"安南區","LI":"城西里","LIN":"7鄰","STREET":"城西街","SECT":"三段","MAREA":" ","LANE":"５０１巷","ALLEY":" ","HOUSE_NO":"３６２號之７０","E_COORD97":157613.72,"N_COORD97":2548994.79,"ADDRESS":"城西街三段５０１巷３６２號之７０","OBJECTID":312384},"geometry":{"x":157613.72000000067,"y":2548994.7899999972}},{"attributes":{"ID":312393,"DIS_CODE":0,"TOWNNAME":"安南區","LI":"城西里","LIN":"7鄰","STREET":"城西街","SECT":"三段","MAREA":" ","LANE":"５０１巷","ALLEY":" ","HOUSE_NO":"３６２號之４２","E_COORD97":157729.39999999999,"N_COORD97":2549187.4700000002,"ADDRESS":"城西街三段５０１巷３６２號之４２","OBJECTID":312385},"geometry":{"x":157729.40000000037,"y":2549187.4700000007}},{"attributes":{"ID":312394,"DIS_CODE":0,"TOWNNAME":"中西區","LI":"水仙里","LIN":"17鄰","STREET":"普濟街","SECT":" ","MAREA":" ","LANE":" ","ALLEY":" ","HOUSE_NO":"２０號","E_COORD97":167817.75,"N_COORD97":2544211.8799999999,"ADDRESS":"普濟街２０號","OBJECTID":312386},"geometry":{"x":167817.75,"y":2544211.8800000008}},{"attributes":{"ID":312395,"DIS_CODE":0,"TOWNNAME":"中西區","LI":"水仙里","LIN":"17鄰","STREET":"普濟街","SECT":" ","MAREA":" ","LANE":" ","ALLEY":" ","HOUSE_NO":"２２號","E_COORD97":167819.69,"N_COORD97":2544216.1899999999,"ADDRESS":"普濟街２２號","OBJECTID":312387},"geometry":{"x":167819.69000000134,"y":2544216.1900000013}},{"attributes":{"ID":312396,"DIS_CODE":0,"TOWNNAME":"中西區","LI":"水仙里","LIN":"17鄰","STREET":"普濟街","SECT":" ","MAREA":" ","LANE":" ","ALLEY":" ","HOUSE_NO":"２４號","E_COORD97":167820.81,"N_COORD97":2544219.9399999999,"ADDRESS":"普濟街２４號","OBJECTID":312388},"geometry":{"x":167820.81000000145,"y":2544219.9399999995}},{"attributes":{"ID":312397,"DIS_CODE":0,"TOWNNAME":"中西區","LI":"水仙里","LIN":"17鄰","STREET":"普濟街","SECT":" ","MAREA":" ","LANE":" ","ALLEY":" ","HOUSE_NO":"２６號","E_COORD97":167821.64000000001,"N_COORD97":2544223.98,"ADDRESS":"普濟街２６號","OBJECTID":312389},"geometry":{"x":167821.63999999966,"y":2544223.9800000004}},{"attributes":{"ID":312398,"DIS_CODE":0,"TOWNNAME":"中西區","LI":"水仙里","LIN":"17鄰","STREET":"普濟街","SECT":" ","MAREA":" ","LANE":" ","ALLEY":" ","HOUSE_NO":"２號","E_COORD97":167803.82999999999,"N_COORD97":2544177.9399999999,"ADDRESS":"普濟街２號","OBJECTID":312390},"geometry":{"x":167803.83000000007,"y":2544177.9400000013}},{"attributes":{"ID":312399,"DIS_CODE":0,"TOWNNAME":"六甲區","LI":"二甲里","LIN":"21鄰","STREET":"中山路","SECT":" ","MAREA":" ","LANE":"２２１巷","ALLEY":" ","HOUSE_NO":"３９號","E_COORD97":183110.70999999999,"N_COORD97":2569976.5899999999,"ADDRESS":"中山路２２１巷３９號","OBJECTID":312391},"geometry":{"x":183110.70999999996,"y":2569976.589999998}},{"attributes":{"ID":312400,"DIS_CODE":0,"TOWNNAME":"六甲區","LI":"二甲里","LIN":"21鄰","STREET":"中山路","SECT":" ","MAREA":" ","LANE":"２２１巷","ALLEY":" ","HOUSE_NO":"３號","E_COORD97":183137.92999999999,"N_COORD97":2570064.2400000002,"ADDRESS":"中山路２２１巷３號","OBJECTID":312392},"geometry":{"x":183137.93000000156,"y":2570064.2400000039}},{"attributes":{"ID":312401,"DIS_CODE":0,"TOWNNAME":"六甲區","LI":"二甲里","LIN":"21鄰","STREET":"中山路","SECT":" ","MAREA":" ","LANE":"２２１巷","ALLEY":" ","HOUSE_NO":"４１號","E_COORD97":183109.57000000001,"N_COORD97":2569972.3599999999,"ADDRESS":"中山路２２１巷４１號","OBJECTID":312393},"geometry":{"x":183109.57000000123,"y":2569972.3600000013}},{"attributes":{"ID":312402,"DIS_CODE":0,"TOWNNAME":"六甲區","LI":"二甲里","LIN":"21鄰","STREET":"中山路","SECT":" ","MAREA":" ","LANE":"２２１巷","ALLEY":" ","HOUSE_NO":"４３號","E_COORD97":183106.67000000001,"N_COORD97":2569967.4300000002,"ADDRESS":"中山路２２１巷４３號","OBJECTID":312394},"geometry":{"x":183106.67000000086,"y":2569967.4299999978}},{"attributes":{"ID":312403,"DIS_CODE":0,"TOWNNAME":"六甲區","LI":"二甲里","LIN":"21鄰","STREET":"中山路","SECT":" ","MAREA":" ","LANE":"２２１巷","ALLEY":" ","HOUSE_NO":"４５號","E_COORD97":183105.04000000001,"N_COORD97":2569963.6499999999,"ADDRESS":"中山路２２１巷４５號","OBJECTID":312395},"geometry":{"x":183105.04000000004,"y":2569963.6500000041}},{"attributes":{"ID":312404,"DIS_CODE":0,"TOWNNAME":"六甲區","LI":"二甲里","LIN":"21鄰","STREET":"中山路","SECT":" ","MAREA":" ","LANE":"２２１巷","ALLEY":" ","HOUSE_NO":"５號","E_COORD97":183136.73999999999,"N_COORD97":2570060.1200000001,"ADDRESS":"中山路２２１巷５號","OBJECTID":312396},"geometry":{"x":183136.74000000115,"y":2570060.1200000029}},{"attributes":{"ID":312405,"DIS_CODE":0,"TOWNNAME":"六甲區","LI":"二甲里","LIN":"21鄰","STREET":"中山路","SECT":" ","MAREA":" ","LANE":"２２１巷","ALLEY":" ","HOUSE_NO":"７號","E_COORD97":183135.26999999999,"N_COORD97":2570055.8300000001,"ADDRESS":"中山路２２１巷７號","OBJECTID":312397},"geometry":{"x":183135.26999999955,"y":2570055.8300000001}},{"attributes":{"ID":312406,"DIS_CODE":0,"TOWNNAME":"安南區","LI":"溪心里","LIN":"7鄰","STREET":"本原街","SECT":"二段","MAREA":" ","LANE":"１１５巷","ALLEY":" ","HOUSE_NO":"３０號","E_COORD97":166531.32999999999,"N_COORD97":2550498.0600000001,"ADDRESS":"本原街二段１１５巷３０號","OBJECTID":312398},"geometry":{"x":166531.33000000194,"y":2550498.0600000024}},{"attributes":{"ID":312407,"DIS_CODE":0,"TOWNNAME":"安南區","LI":"新順里","LIN":"7鄰","STREET":"北安路","SECT":"三段","MAREA":" ","LANE":"７４５巷","ALLEY":" ","HOUSE_NO":"３６號之１","E_COORD97":169096.48000000001,"N_COORD97":2550025.8599999999,"ADDRESS":"北安路三段７４５巷３６號之１","OBJECTID":312399},"geometry":{"x":169096.48000000045,"y":2550025.8600000013}},{"attributes":{"ID":312408,"DIS_CODE":0,"TOWNNAME":"中西區","LI":"保安里","LIN":"7鄰","STREET":"府前路","SECT":"二段","MAREA":" ","LANE":"４０巷","ALLEY":" ","HOUSE_NO":"１７號","E_COORD97":167626.70999999999,"N_COORD97":2543540.7200000002,"ADDRESS":"府前路二段４０巷１７號","OBJECTID":312400},"geometry":{"x":167626.70999999996,"y":2543540.7200000007}}]}