{"displayFieldName":"TOWNNAME","fieldAliases":{"ID":"ID","DIS_CODE":"DIS_CODE","TOWNNAME":"TOWNNAME","LI":"LI","LIN":"LIN","STREET":"STREET","SECT":"SECT","MAREA":"MAREA","LANE":"LANE","ALLEY":"ALLEY","HOUSE_NO":"HOUSE_NO","E_COORD97":"E_COORD97","N_COORD97":"N_COORD97","ADDRESS":"ADDRESS","OBJECTID":"OBJECTID"},"geometryType":"esriGeometryPoint","spatialReference":{"wkid":102443,"latestWkid":3826},"fields":[{"name":"ID","type":"esriFieldTypeDouble","alias":"ID"},{"name":"DIS_CODE","type":"esriFieldTypeInteger","alias":"DIS_CODE"},{"name":"TOWNNAME","type":"esriFieldTypeString","alias":"TOWNNAME","length":8},{"name":"LI","type":"esriFieldTypeString","alias":"LI","length":8},{"name":"LIN","type":"esriFieldTypeString","alias":"LIN","length":12},{"name":"STREET","type":"esriFieldTypeString","alias":"STREET","length":20},{"name":"SECT","type":"esriFieldTypeString","alias":"SECT","length":8},{"name":"MAREA","type":"esriFieldTypeString","alias":"MAREA","length":12},{"name":"LANE","type":"esriFieldTypeString","alias":"LANE","length":10},{"name":"ALLEY","type":"esriFieldTypeString","alias":"ALLEY","length":10},{"name":"HOUSE_NO","type":"esriFieldTypeString","alias":"HOUSE_NO","length":20},{"name":"E_COORD97","type":"esriFieldTypeDouble","alias":"E_COORD97"},{"name":"N_COORD97","type":"esriFieldTypeDouble","alias":"N_COORD97"},{"name":"ADDRESS","type":"esriFieldTypeString","alias":"ADDRESS","length":50},{"name":"OBJECTID","type":"esriFieldTypeOID","alias":"OBJECTID"}],"features":[{"attributes":{"ID":410625,"DIS_CODE":0,"TOWNNAME":"東區","LI":"大同里","LIN":"3鄰","STREET":"大同路","SECT":"一段","MAREA":" ","LANE":"５１巷","ALLEY":" ","HOUSE_NO":"１１號三樓","E_COORD97":169221.42999999999,"N_COORD97":2543136.4300000002,"ADDRESS":"大同路一段５１巷１１號三樓","OBJECTID":410601},"geometry":{"x":169221.4299999997,"y":2543136.4300000016}},{"attributes":{"ID":410626,"DIS_CODE":0,"TOWNNAME":"東區","LI":"大同里","LIN":"3鄰","STREET":"大同路","SECT":"一段","MAREA":" ","LANE":"５１巷","ALLEY":" ","HOUSE_NO":"１１號四樓","E_COORD97":169221.42999999999,"N_COORD97":2543136.4300000002,"ADDRESS":"大同路一段５１巷１１號四樓","OBJECTID":410602},"geometry":{"x":169221.4299999997,"y":2543136.4300000016}},{"attributes":{"ID":410627,"DIS_CODE":0,"TOWNNAME":"東區","LI":"大同里","LIN":"3鄰","STREET":"大同路","SECT":"一段","MAREA":" ","LANE":"５１巷","ALLEY":" ","HOUSE_NO":"５號二樓","E_COORD97":169190.37,"N_COORD97":2543145.6800000002,"ADDRESS":"大同路一段５１巷５號二樓","OBJECTID":410603},"geometry":{"x":169190.37000000011,"y":2543145.6800000016}},{"attributes":{"ID":410628,"DIS_CODE":0,"TOWNNAME":"東區","LI":"大同里","LIN":"3鄰","STREET":"大同路","SECT":"一段","MAREA":" ","LANE":"５１巷","ALLEY":" ","HOUSE_NO":"５號三樓","E_COORD97":169190.37,"N_COORD97":2543145.6800000002,"ADDRESS":"大同路一段５１巷５號三樓","OBJECTID":410604},"geometry":{"x":169190.37000000011,"y":2543145.6800000016}},{"attributes":{"ID":410629,"DIS_CODE":0,"TOWNNAME":"東區","LI":"大同里","LIN":"3鄰","STREET":"大同路","SECT":"一段","MAREA":" ","LANE":"５１巷","ALLEY":" ","HOUSE_NO":"５號四樓","E_COORD97":169190.37,"N_COORD97":2543145.6800000002,"ADDRESS":"大同路一段５１巷５號四樓","OBJECTID":410605},"geometry":{"x":169190.37000000011,"y":2543145.6800000016}},{"attributes":{"ID":410630,"DIS_CODE":0,"TOWNNAME":"東區","LI":"大智里","LIN":"40鄰","STREET":"文東街","SECT":" ","MAREA":" ","LANE":"２巷","ALLEY":" ","HOUSE_NO":"１號","E_COORD97":171332.98999999999,"N_COORD97":2540106.1800000002,"ADDRESS":"文東街２巷１號","OBJECTID":410606},"geometry":{"x":171332.99000000115,"y":2540106.1799999997}},{"attributes":{"ID":410631,"DIS_CODE":0,"TOWNNAME":"東區","LI":"大同里","LIN":"3鄰","STREET":"大同路","SECT":"一段","MAREA":" ","LANE":"５１巷","ALLEY":" ","HOUSE_NO":"７號二樓","E_COORD97":169199.82999999999,"N_COORD97":2543142.1200000001,"ADDRESS":"大同路一段５１巷７號二樓","OBJECTID":410607},"geometry":{"x":169199.83000000101,"y":2543142.120000001}},{"attributes":{"ID":410632,"DIS_CODE":0,"TOWNNAME":"東區","LI":"大同里","LIN":"3鄰","STREET":"大同路","SECT":"一段","MAREA":" ","LANE":"５１巷","ALLEY":" ","HOUSE_NO":"７號三樓","E_COORD97":169199.82999999999,"N_COORD97":2543142.1200000001,"ADDRESS":"大同路一段５１巷７號三樓","OBJECTID":410608},"geometry":{"x":169199.83000000101,"y":2543142.120000001}},{"attributes":{"ID":410633,"DIS_CODE":0,"TOWNNAME":"東區","LI":"大同里","LIN":"3鄰","STREET":"大同路","SECT":"一段","MAREA":" ","LANE":"５１巷","ALLEY":" ","HOUSE_NO":"７號四樓","E_COORD97":169199.82999999999,"N_COORD97":2543142.1200000001,"ADDRESS":"大同路一段５１巷７號四樓","OBJECTID":410609},"geometry":{"x":169199.83000000101,"y":2543142.120000001}},{"attributes":{"ID":410634,"DIS_CODE":0,"TOWNNAME":"東區","LI":"大同里","LIN":"3鄰","STREET":"大同路","SECT":"一段","MAREA":" ","LANE":"５１巷","ALLEY":" ","HOUSE_NO":"９號二樓","E_COORD97":169212.10000000001,"N_COORD97":2543138.4399999999,"ADDRESS":"大同路一段５１巷９號二樓","OBJECTID":410610},"geometry":{"x":169212.09999999963,"y":2543138.4399999995}},{"attributes":{"ID":410635,"DIS_CODE":0,"TOWNNAME":"東區","LI":"大同里","LIN":"3鄰","STREET":"大同路","SECT":"一段","MAREA":" ","LANE":"５１巷","ALLEY":" ","HOUSE_NO":"９號三樓","E_COORD97":169212.10000000001,"N_COORD97":2543138.4399999999,"ADDRESS":"大同路一段５１巷９號三樓","OBJECTID":410611},"geometry":{"x":169212.09999999963,"y":2543138.4399999995}},{"attributes":{"ID":410636,"DIS_CODE":0,"TOWNNAME":"東區","LI":"大同里","LIN":"3鄰","STREET":"大同路","SECT":"一段","MAREA":" ","LANE":"５１巷","ALLEY":" ","HOUSE_NO":"９號四樓","E_COORD97":169212.10000000001,"N_COORD97":2543138.4399999999,"ADDRESS":"大同路一段５１巷９號四樓","OBJECTID":410612},"geometry":{"x":169212.09999999963,"y":2543138.4399999995}},{"attributes":{"ID":410637,"DIS_CODE":0,"TOWNNAME":"永康區","LI":"北灣里","LIN":"3鄰","STREET":"文賢街","SECT":" ","MAREA":" ","LANE":"１３６巷","ALLEY":" ","HOUSE_NO":"２號六樓之３","E_COORD97":175408.10000000001,"N_COORD97":2545555.9300000002,"ADDRESS":"文賢街１３６巷２號六樓之３","OBJECTID":410613},"geometry":{"x":175408.09999999963,"y":2545555.9299999997}},{"attributes":{"ID":410638,"DIS_CODE":0,"TOWNNAME":"永康區","LI":"\u25A0洲里","LIN":"3鄰","STREET":"\u25A0洲二街","SECT":" ","MAREA":" ","LANE":"１６０巷","ALLEY":" ","HOUSE_NO":"１號四樓之２","E_COORD97":171686.54999999999,"N_COORD97":2549322.6099999999,"ADDRESS":"\u25A0洲二街１６０巷１號四樓之２","OBJECTID":410614},"geometry":{"x":171686.55000000075,"y":2549322.6100000013}},{"attributes":{"ID":410639,"DIS_CODE":0,"TOWNNAME":"永康區","LI":"\u25A0洲里","LIN":"3鄰","STREET":"\u25A0洲二街","SECT":" ","MAREA":" ","LANE":"１６０巷","ALLEY":" ","HOUSE_NO":"１號三樓之３","E_COORD97":171686.51999999999,"N_COORD97":2549322.6099999999,"ADDRESS":"\u25A0洲二街１６０巷１號三樓之３","OBJECTID":410615},"geometry":{"x":171686.52000000048,"y":2549322.6100000013}},{"attributes":{"ID":410640,"DIS_CODE":0,"TOWNNAME":"永康區","LI":"北灣里","LIN":"3鄰","STREET":"文賢街","SECT":" ","MAREA":" ","LANE":"１３６巷","ALLEY":" ","HOUSE_NO":"１０號八樓之２","E_COORD97":175429.64999999999,"N_COORD97":2545543.8799999999,"ADDRESS":"文賢街１３６巷１０號八樓之２","OBJECTID":410616},"geometry":{"x":175429.6500000013,"y":2545543.8800000008}},{"attributes":{"ID":410641,"DIS_CODE":0,"TOWNNAME":"永康區","LI":"北灣里","LIN":"3鄰","STREET":"文賢街","SECT":" ","MAREA":" ","LANE":"１３６巷","ALLEY":" ","HOUSE_NO":"２號五樓之３","E_COORD97":175408.10000000001,"N_COORD97":2545555.9300000002,"ADDRESS":"文賢街１３６巷２號五樓之３","OBJECTID":410617},"geometry":{"x":175408.09999999963,"y":2545555.9299999997}},{"attributes":{"ID":410642,"DIS_CODE":0,"TOWNNAME":"永康區","LI":"永康里","LIN":"3鄰","STREET":"中山路","SECT":" ","MAREA":" ","LANE":"１０巷","ALLEY":" ","HOUSE_NO":"６號六樓之２","E_COORD97":173893.64999999999,"N_COORD97":2547392.8700000001,"ADDRESS":"中山路１０巷６號六樓之２","OBJECTID":410618},"geometry":{"x":173893.6500000013,"y":2547392.8700000048}},{"attributes":{"ID":410643,"DIS_CODE":0,"TOWNNAME":"永康區","LI":"永康里","LIN":"3鄰","STREET":"中山路","SECT":" ","MAREA":" ","LANE":"１０巷","ALLEY":" ","HOUSE_NO":"６號八樓之２","E_COORD97":173893.64999999999,"N_COORD97":2547392.8700000001,"ADDRESS":"中山路１０巷６號八樓之２","OBJECTID":410619},"geometry":{"x":173893.6500000013,"y":2547392.8700000048}},{"attributes":{"ID":410644,"DIS_CODE":0,"TOWNNAME":"永康區","LI":"永康里","LIN":"3鄰","STREET":"中山路","SECT":" ","MAREA":" ","LANE":"１０巷","ALLEY":" ","HOUSE_NO":"６號三樓之１","E_COORD97":173893.51999999999,"N_COORD97":2547392.8700000001,"ADDRESS":"中山路１０巷６號三樓之１","OBJECTID":410620},"geometry":{"x":173893.52000000048,"y":2547392.8700000048}},{"attributes":{"ID":410645,"DIS_CODE":0,"TOWNNAME":"永康區","LI":"北灣里","LIN":"3鄰","STREET":"文賢街","SECT":" ","MAREA":" ","LANE":"１３６巷","ALLEY":" ","HOUSE_NO":"２號七樓之５","E_COORD97":175408.16,"N_COORD97":2545555.9300000002,"ADDRESS":"文賢街１３６巷２號七樓之５","OBJECTID":410621},"geometry":{"x":175408.16000000015,"y":2545555.9299999997}},{"attributes":{"ID":410646,"DIS_CODE":0,"TOWNNAME":"永康區","LI":"安康里","LIN":"3鄰","STREET":"中華路","SECT":" ","MAREA":" ","LANE":"７２７巷","ALLEY":" ","HOUSE_NO":"８６號六樓之１","E_COORD97":170657.84,"N_COORD97":2546333.2999999998,"ADDRESS":"中華路７２７巷８６號六樓之１","OBJECTID":410622},"geometry":{"x":170657.84000000078,"y":2546333.3000000026}},{"attributes":{"ID":410647,"DIS_CODE":0,"TOWNNAME":"永康區","LI":"安康里","LIN":"3鄰","STREET":"中華路","SECT":" ","MAREA":" ","LANE":"７２７巷","ALLEY":" ","HOUSE_NO":"８６號九樓之１","E_COORD97":170657.84,"N_COORD97":2546333.2999999998,"ADDRESS":"中華路７２７巷８６號九樓之１","OBJECTID":410623},"geometry":{"x":170657.84000000078,"y":2546333.3000000026}},{"attributes":{"ID":410648,"DIS_CODE":0,"TOWNNAME":"東區","LI":"東光里","LIN":"30鄰","STREET":"東平路","SECT":" ","MAREA":" ","LANE":"９巷","ALLEY":" ","HOUSE_NO":"１１號","E_COORD97":171443.28,"N_COORD97":2543861.3399999999,"ADDRESS":"東平路９巷１１號","OBJECTID":410624},"geometry":{"x":171443.28000000119,"y":2543861.3399999999}},{"attributes":{"ID":410649,"DIS_CODE":0,"TOWNNAME":"東區","LI":"東光里","LIN":"30鄰","STREET":"東平路","SECT":" ","MAREA":" ","LANE":"９巷","ALLEY":" ","HOUSE_NO":"１３號","E_COORD97":171443.04000000001,"N_COORD97":2543857.2000000002,"ADDRESS":"東平路９巷１３號","OBJECTID":410625},"geometry":{"x":171443.04000000097,"y":2543857.2000000011}},{"attributes":{"ID":410650,"DIS_CODE":0,"TOWNNAME":"東區","LI":"東光里","LIN":"30鄰","STREET":"東平路","SECT":" ","MAREA":" ","LANE":"９巷","ALLEY":" ","HOUSE_NO":"１５號","E_COORD97":171442.69,"N_COORD97":2543852.71,"ADDRESS":"東平路９巷１５號","OBJECTID":410626},"geometry":{"x":171442.69000000041,"y":2543852.7100000009}},{"attributes":{"ID":410651,"DIS_CODE":0,"TOWNNAME":"東區","LI":"東光里","LIN":"30鄰","STREET":"東平路","SECT":" ","MAREA":" ","LANE":"９巷","ALLEY":" ","HOUSE_NO":"１７號","E_COORD97":171442.09,"N_COORD97":2543847.5,"ADDRESS":"東平路９巷１７號","OBJECTID":410627},"geometry":{"x":171442.09000000078,"y":2543847.5}},{"attributes":{"ID":410652,"DIS_CODE":0,"TOWNNAME":"東區","LI":"東光里","LIN":"30鄰","STREET":"東平路","SECT":" ","MAREA":" ","LANE":"９巷","ALLEY":" ","HOUSE_NO":"１９號","E_COORD97":171441.5,"N_COORD97":2543842.7799999998,"ADDRESS":"東平路９巷１９號","OBJECTID":410628},"geometry":{"x":171441.50000000093,"y":2543842.7800000012}},{"attributes":{"ID":410653,"DIS_CODE":0,"TOWNNAME":"東區","LI":"東光里","LIN":"30鄰","STREET":"東平路","SECT":" ","MAREA":" ","LANE":"９巷","ALLEY":" ","HOUSE_NO":"１號","E_COORD97":171446.56,"N_COORD97":2543888.1699999999,"ADDRESS":"東平路９巷１號","OBJECTID":410629},"geometry":{"x":171446.55999999959,"y":2543888.1700000018}},{"attributes":{"ID":410654,"DIS_CODE":0,"TOWNNAME":"東區","LI":"東光里","LIN":"30鄰","STREET":"東平路","SECT":" ","MAREA":" ","LANE":"９巷","ALLEY":" ","HOUSE_NO":"２１號","E_COORD97":171440.91,"N_COORD97":2543838.2799999998,"ADDRESS":"東平路９巷２１號","OBJECTID":410630},"geometry":{"x":171440.91000000015,"y":2543838.2799999993}},{"attributes":{"ID":410655,"DIS_CODE":0,"TOWNNAME":"東區","LI":"東光里","LIN":"30鄰","STREET":"東平路","SECT":" ","MAREA":" ","LANE":"９巷","ALLEY":" ","HOUSE_NO":"２３號","E_COORD97":171440.32000000001,"N_COORD97":2543833.5600000001,"ADDRESS":"東平路９巷２３號","OBJECTID":410631},"geometry":{"x":171440.3200000003,"y":2543833.5600000005}},{"attributes":{"ID":410656,"DIS_CODE":0,"TOWNNAME":"東區","LI":"東光里","LIN":"30鄰","STREET":"東平路","SECT":" ","MAREA":" ","LANE":"９巷","ALLEY":" ","HOUSE_NO":"２５號","E_COORD97":171439.95999999999,"N_COORD97":2543829.4199999999,"ADDRESS":"東平路９巷２５號","OBJECTID":410632},"geometry":{"x":171439.96000000089,"y":2543829.4200000018}},{"attributes":{"ID":410657,"DIS_CODE":0,"TOWNNAME":"東區","LI":"東光里","LIN":"30鄰","STREET":"東平路","SECT":" ","MAREA":" ","LANE":"９巷","ALLEY":" ","HOUSE_NO":"２７號","E_COORD97":171439.48999999999,"N_COORD97":2543824.6899999999,"ADDRESS":"東平路９巷２７號","OBJECTID":410633},"geometry":{"x":171439.49000000209,"y":2543824.6899999995}},{"attributes":{"ID":410658,"DIS_CODE":0,"TOWNNAME":"東區","LI":"東光里","LIN":"30鄰","STREET":"東平路","SECT":" ","MAREA":" ","LANE":"９巷","ALLEY":" ","HOUSE_NO":"３３號","E_COORD97":171444.09,"N_COORD97":2543815.4100000001,"ADDRESS":"東平路９巷３３號","OBJECTID":410634},"geometry":{"x":171444.09000000078,"y":2543815.410000002}},{"attributes":{"ID":410659,"DIS_CODE":0,"TOWNNAME":"東區","LI":"東光里","LIN":"30鄰","STREET":"東平路","SECT":" ","MAREA":" ","LANE":"９巷","ALLEY":" ","HOUSE_NO":"３５號","E_COORD97":171450.53,"N_COORD97":2543813.5699999998,"ADDRESS":"東平路９巷３５號","OBJECTID":410635},"geometry":{"x":171450.53000000026,"y":2543813.5700000003}},{"attributes":{"ID":410660,"DIS_CODE":0,"TOWNNAME":"東區","LI":"東光里","LIN":"30鄰","STREET":"東平路","SECT":" ","MAREA":" ","LANE":"９巷","ALLEY":" ","HOUSE_NO":"３７號","E_COORD97":171455.48999999999,"N_COORD97":2543815.2200000002,"ADDRESS":"東平路９巷３７號","OBJECTID":410636},"geometry":{"x":171455.49000000115,"y":2543815.2200000007}},{"attributes":{"ID":410661,"DIS_CODE":0,"TOWNNAME":"東區","LI":"東光里","LIN":"30鄰","STREET":"東平路","SECT":" ","MAREA":" ","LANE":"９巷","ALLEY":" ","HOUSE_NO":"３號","E_COORD97":171445.97,"N_COORD97":2543883.2599999998,"ADDRESS":"東平路９巷３號","OBJECTID":410637},"geometry":{"x":171445.9700000016,"y":2543883.2600000035}},{"attributes":{"ID":410662,"DIS_CODE":0,"TOWNNAME":"東區","LI":"東光里","LIN":"30鄰","STREET":"東平路","SECT":" ","MAREA":" ","LANE":"９巷","ALLEY":" ","HOUSE_NO":"５號","E_COORD97":171444.95999999999,"N_COORD97":2543878.7000000002,"ADDRESS":"東平路９巷５號","OBJECTID":410638},"geometry":{"x":171444.96000000089,"y":2543878.6999999993}},{"attributes":{"ID":410663,"DIS_CODE":0,"TOWNNAME":"東區","LI":"東光里","LIN":"30鄰","STREET":"東平路","SECT":" ","MAREA":" ","LANE":"９巷","ALLEY":" ","HOUSE_NO":"７號","E_COORD97":171443.67999999999,"N_COORD97":2543868.79,"ADDRESS":"東平路９巷７號","OBJECTID":410639},"geometry":{"x":171443.6799999997,"y":2543868.7900000028}},{"attributes":{"ID":410664,"DIS_CODE":0,"TOWNNAME":"東區","LI":"東光里","LIN":"30鄰","STREET":"東平路","SECT":" ","MAREA":" ","LANE":"９巷","ALLEY":" ","HOUSE_NO":"９號","E_COORD97":171443.87,"N_COORD97":2543865.2400000002,"ADDRESS":"東平路９巷９號","OBJECTID":410640},"geometry":{"x":171443.87000000104,"y":2543865.2400000002}},{"attributes":{"ID":410665,"DIS_CODE":0,"TOWNNAME":"永康區","LI":"安康里","LIN":"3鄰","STREET":"中華路","SECT":" ","MAREA":" ","LANE":"７２７巷","ALLEY":" ","HOUSE_NO":"８６號五樓之２","E_COORD97":170657.97,"N_COORD97":2546333.2999999998,"ADDRESS":"中華路７２７巷８６號五樓之２","OBJECTID":410641},"geometry":{"x":170657.97000000067,"y":2546333.3000000026}},{"attributes":{"ID":410666,"DIS_CODE":0,"TOWNNAME":"永康區","LI":"北灣里","LIN":"3鄰","STREET":"文賢街","SECT":" ","MAREA":" ","LANE":"１３６巷","ALLEY":" ","HOUSE_NO":"１０號十樓之１","E_COORD97":175429.51999999999,"N_COORD97":2545543.8799999999,"ADDRESS":"文賢街１３６巷１０號十樓之１","OBJECTID":410642},"geometry":{"x":175429.52000000048,"y":2545543.8800000008}},{"attributes":{"ID":410667,"DIS_CODE":0,"TOWNNAME":"永康區","LI":"永康里","LIN":"3鄰","STREET":"中山路","SECT":" ","MAREA":" ","LANE":"１０巷","ALLEY":" ","HOUSE_NO":"８號五樓之２","E_COORD97":173894.84,"N_COORD97":2547386.6299999999,"ADDRESS":"中山路１０巷８號五樓之２","OBJECTID":410643},"geometry":{"x":173894.84000000171,"y":2547386.6300000008}},{"attributes":{"ID":410668,"DIS_CODE":0,"TOWNNAME":"永康區","LI":"永康里","LIN":"3鄰","STREET":"中山路","SECT":" ","MAREA":" ","LANE":"１０巷","ALLEY":" ","HOUSE_NO":"６號九樓之３","E_COORD97":173893.62,"N_COORD97":2547392.8700000001,"ADDRESS":"中山路１０巷６號九樓之３","OBJECTID":410644},"geometry":{"x":173893.62000000104,"y":2547392.8700000048}},{"attributes":{"ID":410669,"DIS_CODE":0,"TOWNNAME":"永康區","LI":"北灣里","LIN":"3鄰","STREET":"文賢街","SECT":" ","MAREA":" ","LANE":"１３６巷","ALLEY":" ","HOUSE_NO":"８號七樓之１","E_COORD97":175428.37,"N_COORD97":2545540.3799999999,"ADDRESS":"文賢街１３６巷８號七樓之１","OBJECTID":410645},"geometry":{"x":175428.37000000011,"y":2545540.3800000008}},{"attributes":{"ID":410670,"DIS_CODE":0,"TOWNNAME":"永康區","LI":"北灣里","LIN":"3鄰","STREET":"文賢街","SECT":" ","MAREA":" ","LANE":"１３６巷","ALLEY":" ","HOUSE_NO":"８號九樓之１","E_COORD97":175428.37,"N_COORD97":2545540.3799999999,"ADDRESS":"文賢街１３６巷８號九樓之１","OBJECTID":410646},"geometry":{"x":175428.37000000011,"y":2545540.3800000008}},{"attributes":{"ID":410671,"DIS_CODE":0,"TOWNNAME":"永康區","LI":"北灣里","LIN":"3鄰","STREET":"文賢街","SECT":" ","MAREA":" ","LANE":"１３６巷","ALLEY":" ","HOUSE_NO":"８號四樓之２","E_COORD97":175428.5,"N_COORD97":2545540.3799999999,"ADDRESS":"文賢街１３６巷８號四樓之２","OBJECTID":410647},"geometry":{"x":175428.50000000093,"y":2545540.3800000008}},{"attributes":{"ID":410672,"DIS_CODE":0,"TOWNNAME":"永康區","LI":"北灣里","LIN":"3鄰","STREET":"文賢街","SECT":" ","MAREA":" ","LANE":"１３６巷","ALLEY":" ","HOUSE_NO":"２號四樓之１","E_COORD97":175408.01000000001,"N_COORD97":2545555.9300000002,"ADDRESS":"文賢街１３６巷２號四樓之１","OBJECTID":410648},"geometry":{"x":175408.01000000071,"y":2545555.9299999997}},{"attributes":{"ID":410673,"DIS_CODE":0,"TOWNNAME":"永康區","LI":"北灣里","LIN":"3鄰","STREET":"文賢街","SECT":" ","MAREA":" ","LANE":"１３６巷","ALLEY":" ","HOUSE_NO":"２號四樓之５","E_COORD97":175408.16,"N_COORD97":2545555.9300000002,"ADDRESS":"文賢街１３６巷２號四樓之５","OBJECTID":410649},"geometry":{"x":175408.16000000015,"y":2545555.9299999997}},{"attributes":{"ID":410674,"DIS_CODE":0,"TOWNNAME":"永康區","LI":"北灣里","LIN":"3鄰","STREET":"文賢街","SECT":" ","MAREA":" ","LANE":"１３６巷","ALLEY":" ","HOUSE_NO":"８號六樓之３","E_COORD97":175428.47,"N_COORD97":2545540.3799999999,"ADDRESS":"文賢街１３６巷８號六樓之３","OBJECTID":410650},"geometry":{"x":175428.47000000067,"y":2545540.3800000008}},{"attributes":{"ID":410675,"DIS_CODE":0,"TOWNNAME":"永康區","LI":"北灣里","LIN":"3鄰","STREET":"文賢街","SECT":" ","MAREA":" ","LANE":"１３６巷","ALLEY":" ","HOUSE_NO":"２號九樓之２","E_COORD97":175408.14000000001,"N_COORD97":2545555.9300000002,"ADDRESS":"文賢街１３６巷２號九樓之２","OBJECTID":410651},"geometry":{"x":175408.14000000153,"y":2545555.9299999997}},{"attributes":{"ID":410676,"DIS_CODE":0,"TOWNNAME":"永康區","LI":"北灣里","LIN":"3鄰","STREET":"文賢街","SECT":" ","MAREA":" ","LANE":"１３６巷","ALLEY":" ","HOUSE_NO":"８號三樓之２","E_COORD97":175428.5,"N_COORD97":2545540.3799999999,"ADDRESS":"文賢街１３６巷８號三樓之２","OBJECTID":410652},"geometry":{"x":175428.50000000093,"y":2545540.3800000008}},{"attributes":{"ID":410677,"DIS_CODE":0,"TOWNNAME":"永康區","LI":"北灣里","LIN":"3鄰","STREET":"文賢街","SECT":" ","MAREA":" ","LANE":"１３６巷","ALLEY":" ","HOUSE_NO":"１０號七樓之３","E_COORD97":175429.62,"N_COORD97":2545543.8799999999,"ADDRESS":"文賢街１３６巷１０號七樓之３","OBJECTID":410653},"geometry":{"x":175429.62000000104,"y":2545543.8800000008}},{"attributes":{"ID":410678,"DIS_CODE":0,"TOWNNAME":"永康區","LI":"北灣里","LIN":"3鄰","STREET":"文賢街","SECT":" ","MAREA":" ","LANE":"１３６巷","ALLEY":" ","HOUSE_NO":"１０號七樓之１","E_COORD97":175429.51999999999,"N_COORD97":2545543.8799999999,"ADDRESS":"文賢街１３６巷１０號七樓之１","OBJECTID":410654},"geometry":{"x":175429.52000000048,"y":2545543.8800000008}},{"attributes":{"ID":410679,"DIS_CODE":0,"TOWNNAME":"玉井區","LI":"中正里","LIN":"9鄰","STREET":" ","SECT":" ","MAREA":"中正","LANE":" ","ALLEY":" ","HOUSE_NO":"９７之１６號","E_COORD97":194927.31043099999,"N_COORD97":2559320.7649900001,"ADDRESS":"中正９７之１６號","OBJECTID":410655},"geometry":{"x":194927.31043100078,"y":2559320.7649889998}},{"attributes":{"ID":410680,"DIS_CODE":0,"TOWNNAME":"永康區","LI":"北灣里","LIN":"3鄰","STREET":"文賢街","SECT":" ","MAREA":" ","LANE":"１３６巷","ALLEY":" ","HOUSE_NO":"８號十樓之３","E_COORD97":175428.47,"N_COORD97":2545540.3799999999,"ADDRESS":"文賢街１３６巷８號十樓之３","OBJECTID":410656},"geometry":{"x":175428.47000000067,"y":2545540.3800000008}},{"attributes":{"ID":410681,"DIS_CODE":0,"TOWNNAME":"永康區","LI":"北灣里","LIN":"3鄰","STREET":"文賢街","SECT":" ","MAREA":" ","LANE":"１３６巷","ALLEY":" ","HOUSE_NO":"２號九樓之５","E_COORD97":175408.16,"N_COORD97":2545555.9300000002,"ADDRESS":"文賢街１３６巷２號九樓之５","OBJECTID":410657},"geometry":{"x":175408.16000000015,"y":2545555.9299999997}},{"attributes":{"ID":410682,"DIS_CODE":0,"TOWNNAME":"永康區","LI":"北灣里","LIN":"3鄰","STREET":"文賢街","SECT":" ","MAREA":" ","LANE":"１３６巷","ALLEY":" ","HOUSE_NO":"２號六樓之２","E_COORD97":175408.14000000001,"N_COORD97":2545555.9300000002,"ADDRESS":"文賢街１３６巷２號六樓之２","OBJECTID":410658},"geometry":{"x":175408.14000000153,"y":2545555.9299999997}},{"attributes":{"ID":410683,"DIS_CODE":0,"TOWNNAME":"永康區","LI":"北灣里","LIN":"3鄰","STREET":"文賢街","SECT":" ","MAREA":" ","LANE":"１３６巷","ALLEY":" ","HOUSE_NO":"１０號六樓之１","E_COORD97":175429.51999999999,"N_COORD97":2545543.8799999999,"ADDRESS":"文賢街１３６巷１０號六樓之１","OBJECTID":410659},"geometry":{"x":175429.52000000048,"y":2545543.8800000008}},{"attributes":{"ID":410684,"DIS_CODE":0,"TOWNNAME":"永康區","LI":"北灣里","LIN":"3鄰","STREET":"文賢街","SECT":" ","MAREA":" ","LANE":"１３６巷","ALLEY":" ","HOUSE_NO":"８號六樓之１","E_COORD97":175428.37,"N_COORD97":2545540.3799999999,"ADDRESS":"文賢街１３６巷８號六樓之１","OBJECTID":410660},"geometry":{"x":175428.37000000011,"y":2545540.3800000008}},{"attributes":{"ID":410685,"DIS_CODE":0,"TOWNNAME":"永康區","LI":"北灣里","LIN":"3鄰","STREET":"文賢街","SECT":" ","MAREA":" ","LANE":"１３６巷","ALLEY":" ","HOUSE_NO":"１０號五樓之３","E_COORD97":175429.62,"N_COORD97":2545543.8799999999,"ADDRESS":"文賢街１３６巷１０號五樓之３","OBJECTID":410661},"geometry":{"x":175429.62000000104,"y":2545543.8800000008}},{"attributes":{"ID":410686,"DIS_CODE":0,"TOWNNAME":"永康區","LI":"北灣里","LIN":"3鄰","STREET":"文賢街","SECT":" ","MAREA":" ","LANE":"１３６巷","ALLEY":" ","HOUSE_NO":"８號三樓之３","E_COORD97":175428.47,"N_COORD97":2545540.3799999999,"ADDRESS":"文賢街１３６巷８號三樓之３","OBJECTID":410662},"geometry":{"x":175428.47000000067,"y":2545540.3800000008}},{"attributes":{"ID":410687,"DIS_CODE":0,"TOWNNAME":"永康區","LI":"北灣里","LIN":"3鄰","STREET":"文賢街","SECT":" ","MAREA":" ","LANE":"１３６巷","ALLEY":" ","HOUSE_NO":"１０號三樓之１","E_COORD97":175429.51999999999,"N_COORD97":2545543.8799999999,"ADDRESS":"文賢街１３６巷１０號三樓之１","OBJECTID":410663},"geometry":{"x":175429.52000000048,"y":2545543.8800000008}},{"attributes":{"ID":410688,"DIS_CODE":0,"TOWNNAME":"永康區","LI":"永康里","LIN":"3鄰","STREET":"中山路","SECT":" ","MAREA":" ","LANE":"１０巷","ALLEY":" ","HOUSE_NO":"８號十樓之１","E_COORD97":173894.70999999999,"N_COORD97":2547386.6299999999,"ADDRESS":"中山路１０巷８號十樓之１","OBJECTID":410664},"geometry":{"x":173894.71000000089,"y":2547386.6300000008}},{"attributes":{"ID":410689,"DIS_CODE":0,"TOWNNAME":"永康區","LI":"北灣里","LIN":"3鄰","STREET":"文賢街","SECT":" ","MAREA":" ","LANE":"１３６巷","ALLEY":" ","HOUSE_NO":"８號五樓之３","E_COORD97":175428.47,"N_COORD97":2545540.3799999999,"ADDRESS":"文賢街１３６巷８號五樓之３","OBJECTID":410665},"geometry":{"x":175428.47000000067,"y":2545540.3800000008}},{"attributes":{"ID":410690,"DIS_CODE":0,"TOWNNAME":"永康區","LI":"永康里","LIN":"3鄰","STREET":"中山路","SECT":" ","MAREA":" ","LANE":"１０巷","ALLEY":" ","HOUSE_NO":"８號十一樓之１","E_COORD97":173895.95999999999,"N_COORD97":2547386.6299999999,"ADDRESS":"中山路１０巷８號十一樓之１","OBJECTID":410666},"geometry":{"x":173895.96000000089,"y":2547386.6300000008}},{"attributes":{"ID":410691,"DIS_CODE":0,"TOWNNAME":"永康區","LI":"永康里","LIN":"3鄰","STREET":"中山路","SECT":" ","MAREA":" ","LANE":"１０巷","ALLEY":" ","HOUSE_NO":"８號九樓之２","E_COORD97":173894.84,"N_COORD97":2547386.6299999999,"ADDRESS":"中山路１０巷８號九樓之２","OBJECTID":410667},"geometry":{"x":173894.84000000171,"y":2547386.6300000008}},{"attributes":{"ID":410692,"DIS_CODE":0,"TOWNNAME":"永康區","LI":"永康里","LIN":"3鄰","STREET":"中山路","SECT":" ","MAREA":" ","LANE":"１０巷","ALLEY":" ","HOUSE_NO":"６號三樓之３","E_COORD97":173893.62,"N_COORD97":2547392.8700000001,"ADDRESS":"中山路１０巷６號三樓之３","OBJECTID":410668},"geometry":{"x":173893.62000000104,"y":2547392.8700000048}},{"attributes":{"ID":410693,"DIS_CODE":0,"TOWNNAME":"永康區","LI":"北灣里","LIN":"3鄰","STREET":"文賢街","SECT":" ","MAREA":" ","LANE":"１３６巷","ALLEY":" ","HOUSE_NO":"８號八樓之３","E_COORD97":175428.47,"N_COORD97":2545540.3799999999,"ADDRESS":"文賢街１３６巷８號八樓之３","OBJECTID":410669},"geometry":{"x":175428.47000000067,"y":2545540.3800000008}},{"attributes":{"ID":410694,"DIS_CODE":0,"TOWNNAME":"永康區","LI":"北灣里","LIN":"3鄰","STREET":"文賢街","SECT":" ","MAREA":" ","LANE":"１３６巷","ALLEY":" ","HOUSE_NO":"２號八樓之５","E_COORD97":175408.16,"N_COORD97":2545555.9300000002,"ADDRESS":"文賢街１３６巷２號八樓之５","OBJECTID":410670},"geometry":{"x":175408.16000000015,"y":2545555.9299999997}},{"attributes":{"ID":410695,"DIS_CODE":0,"TOWNNAME":"永康區","LI":"北灣里","LIN":"3鄰","STREET":"文賢街","SECT":" ","MAREA":" ","LANE":"１３６巷","ALLEY":" ","HOUSE_NO":"８號十一樓之３","E_COORD97":175429.72,"N_COORD97":2545540.3799999999,"ADDRESS":"文賢街１３６巷８號十一樓之３","OBJECTID":410671},"geometry":{"x":175429.7200000016,"y":2545540.3800000008}},{"attributes":{"ID":410696,"DIS_CODE":0,"TOWNNAME":"永康區","LI":"北灣里","LIN":"3鄰","STREET":"文賢街","SECT":" ","MAREA":" ","LANE":"１３６巷","ALLEY":" ","HOUSE_NO":"２號十樓之５","E_COORD97":175408.16,"N_COORD97":2545555.9300000002,"ADDRESS":"文賢街１３６巷２號十樓之５","OBJECTID":410672},"geometry":{"x":175408.16000000015,"y":2545555.9299999997}},{"attributes":{"ID":410697,"DIS_CODE":0,"TOWNNAME":"永康區","LI":"北灣里","LIN":"3鄰","STREET":"文賢街","SECT":" ","MAREA":" ","LANE":"１３６巷","ALLEY":" ","HOUSE_NO":"２號六樓之５","E_COORD97":175408.16,"N_COORD97":2545555.9300000002,"ADDRESS":"文賢街１３６巷２號六樓之５","OBJECTID":410673},"geometry":{"x":175408.16000000015,"y":2545555.9299999997}},{"attributes":{"ID":410698,"DIS_CODE":0,"TOWNNAME":"永康區","LI":"北灣里","LIN":"3鄰","STREET":"文賢街","SECT":" ","MAREA":" ","LANE":"１３６巷","ALLEY":" ","HOUSE_NO":"２號二樓之３","E_COORD97":175408.10000000001,"N_COORD97":2545555.9300000002,"ADDRESS":"文賢街１３６巷２號二樓之３","OBJECTID":410674},"geometry":{"x":175408.09999999963,"y":2545555.9299999997}},{"attributes":{"ID":410699,"DIS_CODE":0,"TOWNNAME":"永康區","LI":"北灣里","LIN":"3鄰","STREET":"文賢街","SECT":" ","MAREA":" ","LANE":"１３６巷","ALLEY":" ","HOUSE_NO":"１０號四樓之２","E_COORD97":175429.64999999999,"N_COORD97":2545543.8799999999,"ADDRESS":"文賢街１３６巷１０號四樓之２","OBJECTID":410675},"geometry":{"x":175429.6500000013,"y":2545543.8800000008}},{"attributes":{"ID":410700,"DIS_CODE":0,"TOWNNAME":"永康區","LI":"北灣里","LIN":"3鄰","STREET":"文賢街","SECT":" ","MAREA":" ","LANE":"１３６巷","ALLEY":" ","HOUSE_NO":"８號九樓之２","E_COORD97":175428.5,"N_COORD97":2545540.3799999999,"ADDRESS":"文賢街１３６巷８號九樓之２","OBJECTID":410676},"geometry":{"x":175428.50000000093,"y":2545540.3800000008}},{"attributes":{"ID":410701,"DIS_CODE":0,"TOWNNAME":"永康區","LI":"北灣里","LIN":"3鄰","STREET":"文賢街","SECT":" ","MAREA":" ","LANE":"１３６巷","ALLEY":" ","HOUSE_NO":"８號二樓之３","E_COORD97":175428.47,"N_COORD97":2545540.3799999999,"ADDRESS":"文賢街１３６巷８號二樓之３","OBJECTID":410677},"geometry":{"x":175428.47000000067,"y":2545540.3800000008}},{"attributes":{"ID":410702,"DIS_CODE":0,"TOWNNAME":"永康區","LI":"北灣里","LIN":"3鄰","STREET":"文賢街","SECT":" ","MAREA":" ","LANE":"１３６巷","ALLEY":" ","HOUSE_NO":"２號八樓之１","E_COORD97":175408.01000000001,"N_COORD97":2545555.9300000002,"ADDRESS":"文賢街１３６巷２號八樓之１","OBJECTID":410678},"geometry":{"x":175408.01000000071,"y":2545555.9299999997}},{"attributes":{"ID":410703,"DIS_CODE":0,"TOWNNAME":"永康區","LI":"北灣里","LIN":"3鄰","STREET":"文賢街","SECT":" ","MAREA":" ","LANE":"１３６巷","ALLEY":" ","HOUSE_NO":"８號十一樓之１","E_COORD97":175429.62,"N_COORD97":2545540.3799999999,"ADDRESS":"文賢街１３６巷８號十一樓之１","OBJECTID":410679},"geometry":{"x":175429.62000000104,"y":2545540.3800000008}},{"attributes":{"ID":410704,"DIS_CODE":0,"TOWNNAME":"永康區","LI":"北灣里","LIN":"3鄰","STREET":"文賢街","SECT":" ","MAREA":" ","LANE":"１３６巷","ALLEY":" ","HOUSE_NO":"２號七樓之３","E_COORD97":175408.10000000001,"N_COORD97":2545555.9300000002,"ADDRESS":"文賢街１３６巷２號七樓之３","OBJECTID":410680},"geometry":{"x":175408.09999999963,"y":2545555.9299999997}},{"attributes":{"ID":410705,"DIS_CODE":0,"TOWNNAME":"永康區","LI":"北灣里","LIN":"3鄰","STREET":"文賢街","SECT":" ","MAREA":" ","LANE":"１３６巷","ALLEY":" ","HOUSE_NO":"１０號三樓之２","E_COORD97":175429.64999999999,"N_COORD97":2545543.8799999999,"ADDRESS":"文賢街１３６巷１０號三樓之２","OBJECTID":410681},"geometry":{"x":175429.6500000013,"y":2545543.8800000008}},{"attributes":{"ID":410706,"DIS_CODE":0,"TOWNNAME":"永康區","LI":"北灣里","LIN":"3鄰","STREET":"文賢街","SECT":" ","MAREA":" ","LANE":"１３６巷","ALLEY":" ","HOUSE_NO":"１０號四樓之１","E_COORD97":175429.51999999999,"N_COORD97":2545543.8799999999,"ADDRESS":"文賢街１３６巷１０號四樓之１","OBJECTID":410682},"geometry":{"x":175429.52000000048,"y":2545543.8800000008}},{"attributes":{"ID":410707,"DIS_CODE":0,"TOWNNAME":"永康區","LI":"北灣里","LIN":"3鄰","STREET":"文賢街","SECT":" ","MAREA":" ","LANE":"１３６巷","ALLEY":" ","HOUSE_NO":"２號十樓之２","E_COORD97":175408.14000000001,"N_COORD97":2545555.9300000002,"ADDRESS":"文賢街１３６巷２號十樓之２","OBJECTID":410683},"geometry":{"x":175408.14000000153,"y":2545555.9299999997}},{"attributes":{"ID":410708,"DIS_CODE":0,"TOWNNAME":"永康區","LI":"北灣里","LIN":"3鄰","STREET":"文賢街","SECT":" ","MAREA":" ","LANE":"１３６巷","ALLEY":" ","HOUSE_NO":"１０號七樓之２","E_COORD97":175429.64999999999,"N_COORD97":2545543.8799999999,"ADDRESS":"文賢街１３６巷１０號七樓之２","OBJECTID":410684},"geometry":{"x":175429.6500000013,"y":2545543.8800000008}},{"attributes":{"ID":410709,"DIS_CODE":0,"TOWNNAME":"永康區","LI":"北灣里","LIN":"3鄰","STREET":"文賢街","SECT":" ","MAREA":" ","LANE":"１３６巷","ALLEY":" ","HOUSE_NO":"８號三樓之１","E_COORD97":175428.37,"N_COORD97":2545540.3799999999,"ADDRESS":"文賢街１３６巷８號三樓之１","OBJECTID":410685},"geometry":{"x":175428.37000000011,"y":2545540.3800000008}},{"attributes":{"ID":410710,"DIS_CODE":0,"TOWNNAME":"玉井區","LI":"中正里","LIN":"9鄰","STREET":" ","SECT":" ","MAREA":"中正","LANE":" ","ALLEY":" ","HOUSE_NO":"９７之１５號","E_COORD97":195033.688008,"N_COORD97":2559336.8516500001,"ADDRESS":"中正９７之１５號","OBJECTID":410686},"geometry":{"x":195033.68800800107,"y":2559336.8516470026}},{"attributes":{"ID":410711,"DIS_CODE":0,"TOWNNAME":"永康區","LI":"北灣里","LIN":"3鄰","STREET":"文賢街","SECT":" ","MAREA":" ","LANE":"１３６巷","ALLEY":" ","HOUSE_NO":"８號九樓之３","E_COORD97":175428.47,"N_COORD97":2545540.3799999999,"ADDRESS":"文賢街１３６巷８號九樓之３","OBJECTID":410687},"geometry":{"x":175428.47000000067,"y":2545540.3800000008}},{"attributes":{"ID":410712,"DIS_CODE":0,"TOWNNAME":"永康區","LI":"北灣里","LIN":"3鄰","STREET":"文賢街","SECT":" ","MAREA":" ","LANE":"１３６巷","ALLEY":" ","HOUSE_NO":"１０號八樓之１","E_COORD97":175429.51999999999,"N_COORD97":2545543.8799999999,"ADDRESS":"文賢街１３６巷１０號八樓之１","OBJECTID":410688},"geometry":{"x":175429.52000000048,"y":2545543.8800000008}},{"attributes":{"ID":410713,"DIS_CODE":0,"TOWNNAME":"永康區","LI":"北灣里","LIN":"3鄰","STREET":"文賢街","SECT":" ","MAREA":" ","LANE":"１３６巷","ALLEY":" ","HOUSE_NO":"８號八樓之１","E_COORD97":175428.37,"N_COORD97":2545540.3799999999,"ADDRESS":"文賢街１３６巷８號八樓之１","OBJECTID":410689},"geometry":{"x":175428.37000000011,"y":2545540.3800000008}},{"attributes":{"ID":410714,"DIS_CODE":0,"TOWNNAME":"永康區","LI":"北灣里","LIN":"3鄰","STREET":"文賢街","SECT":" ","MAREA":" ","LANE":"１３６巷","ALLEY":" ","HOUSE_NO":"１０號六樓之３","E_COORD97":175429.62,"N_COORD97":2545543.8799999999,"ADDRESS":"文賢街１３６巷１０號六樓之３","OBJECTID":410690},"geometry":{"x":175429.62000000104,"y":2545543.8800000008}},{"attributes":{"ID":410715,"DIS_CODE":0,"TOWNNAME":"永康區","LI":"北灣里","LIN":"3鄰","STREET":"文賢街","SECT":" ","MAREA":" ","LANE":"１３６巷","ALLEY":" ","HOUSE_NO":"２號三樓之５","E_COORD97":175408.16,"N_COORD97":2545555.9300000002,"ADDRESS":"文賢街１３６巷２號三樓之５","OBJECTID":410691},"geometry":{"x":175408.16000000015,"y":2545555.9299999997}},{"attributes":{"ID":410716,"DIS_CODE":0,"TOWNNAME":"永康區","LI":"北灣里","LIN":"3鄰","STREET":"文賢街","SECT":" ","MAREA":" ","LANE":"１３６巷","ALLEY":" ","HOUSE_NO":"２號三樓之３","E_COORD97":175408.10000000001,"N_COORD97":2545555.9300000002,"ADDRESS":"文賢街１３６巷２號三樓之３","OBJECTID":410692},"geometry":{"x":175408.09999999963,"y":2545555.9299999997}},{"attributes":{"ID":410717,"DIS_CODE":0,"TOWNNAME":"永康區","LI":"北灣里","LIN":"3鄰","STREET":"文賢街","SECT":" ","MAREA":" ","LANE":"１３６巷","ALLEY":" ","HOUSE_NO":"８號十樓之２","E_COORD97":175428.5,"N_COORD97":2545540.3799999999,"ADDRESS":"文賢街１３６巷８號十樓之２","OBJECTID":410693},"geometry":{"x":175428.50000000093,"y":2545540.3800000008}},{"attributes":{"ID":410718,"DIS_CODE":0,"TOWNNAME":"永康區","LI":"北灣里","LIN":"3鄰","STREET":"文賢街","SECT":" ","MAREA":" ","LANE":"１３６巷","ALLEY":" ","HOUSE_NO":"８號七樓之２","E_COORD97":175428.5,"N_COORD97":2545540.3799999999,"ADDRESS":"文賢街１３６巷８號七樓之２","OBJECTID":410694},"geometry":{"x":175428.50000000093,"y":2545540.3800000008}},{"attributes":{"ID":410719,"DIS_CODE":0,"TOWNNAME":"安南區","LI":"安西里","LIN":"3鄰","STREET":"安和路","SECT":"一段","MAREA":" ","LANE":"２６３巷","ALLEY":" ","HOUSE_NO":"１１號三樓","E_COORD97":169215.67999999999,"N_COORD97":2548007.5099999998,"ADDRESS":"安和路一段２６３巷１１號三樓","OBJECTID":410695},"geometry":{"x":169215.68000000063,"y":2548007.5100000035}},{"attributes":{"ID":410720,"DIS_CODE":0,"TOWNNAME":"安南區","LI":"安西里","LIN":"3鄰","STREET":"安和路","SECT":"一段","MAREA":" ","LANE":"２６３巷","ALLEY":" ","HOUSE_NO":"１１號四樓","E_COORD97":169215.67999999999,"N_COORD97":2548007.5099999998,"ADDRESS":"安和路一段２６３巷１１號四樓","OBJECTID":410696},"geometry":{"x":169215.68000000063,"y":2548007.5100000035}},{"attributes":{"ID":410721,"DIS_CODE":0,"TOWNNAME":"永康區","LI":"北灣里","LIN":"3鄰","STREET":"文賢街","SECT":" ","MAREA":" ","LANE":"１３６巷","ALLEY":" ","HOUSE_NO":"２號二樓之１","E_COORD97":175408.01000000001,"N_COORD97":2545555.9300000002,"ADDRESS":"文賢街１３６巷２號二樓之１","OBJECTID":410697},"geometry":{"x":175408.01000000071,"y":2545555.9299999997}},{"attributes":{"ID":410722,"DIS_CODE":0,"TOWNNAME":"永康區","LI":"北灣里","LIN":"3鄰","STREET":"文賢街","SECT":" ","MAREA":" ","LANE":"１３６巷","ALLEY":" ","HOUSE_NO":"８號五樓之２","E_COORD97":175428.5,"N_COORD97":2545540.3799999999,"ADDRESS":"文賢街１３６巷８號五樓之２","OBJECTID":410698},"geometry":{"x":175428.50000000093,"y":2545540.3800000008}},{"attributes":{"ID":410723,"DIS_CODE":0,"TOWNNAME":"永康區","LI":"北灣里","LIN":"3鄰","STREET":"文賢街","SECT":" ","MAREA":" ","LANE":"１３６巷","ALLEY":" ","HOUSE_NO":"８號四樓之３","E_COORD97":175428.47,"N_COORD97":2545540.3799999999,"ADDRESS":"文賢街１３６巷８號四樓之３","OBJECTID":410699},"geometry":{"x":175428.47000000067,"y":2545540.3800000008}},{"attributes":{"ID":410724,"DIS_CODE":0,"TOWNNAME":"永康區","LI":"北灣里","LIN":"3鄰","STREET":"文賢街","SECT":" ","MAREA":" ","LANE":"１３６巷","ALLEY":" ","HOUSE_NO":"２號三樓之２","E_COORD97":175408.14000000001,"N_COORD97":2545555.9300000002,"ADDRESS":"文賢街１３６巷２號三樓之２","OBJECTID":410700},"geometry":{"x":175408.14000000153,"y":2545555.9299999997}},{"attributes":{"ID":410725,"DIS_CODE":0,"TOWNNAME":"永康區","LI":"北灣里","LIN":"3鄰","STREET":"文賢街","SECT":" ","MAREA":" ","LANE":"１３６巷","ALLEY":" ","HOUSE_NO":"１０號十樓之３","E_COORD97":175429.62,"N_COORD97":2545543.8799999999,"ADDRESS":"文賢街１３６巷１０號十樓之３","OBJECTID":410701},"geometry":{"x":175429.62000000104,"y":2545543.8800000008}},{"attributes":{"ID":410726,"DIS_CODE":0,"TOWNNAME":"永康區","LI":"北灣里","LIN":"3鄰","STREET":"文賢街","SECT":" ","MAREA":" ","LANE":"１３６巷","ALLEY":" ","HOUSE_NO":"２號四樓之３","E_COORD97":175408.10000000001,"N_COORD97":2545555.9300000002,"ADDRESS":"文賢街１３６巷２號四樓之３","OBJECTID":410702},"geometry":{"x":175408.09999999963,"y":2545555.9299999997}},{"attributes":{"ID":410727,"DIS_CODE":0,"TOWNNAME":"永康區","LI":"北灣里","LIN":"3鄰","STREET":"文賢街","SECT":" ","MAREA":" ","LANE":"１３６巷","ALLEY":" ","HOUSE_NO":"１０號三樓之３","E_COORD97":175429.62,"N_COORD97":2545543.8799999999,"ADDRESS":"文賢街１３６巷１０號三樓之３","OBJECTID":410703},"geometry":{"x":175429.62000000104,"y":2545543.8800000008}},{"attributes":{"ID":410728,"DIS_CODE":0,"TOWNNAME":"永康區","LI":"北灣里","LIN":"3鄰","STREET":"文賢街","SECT":" ","MAREA":" ","LANE":"１３６巷","ALLEY":" ","HOUSE_NO":"２號二樓之２","E_COORD97":175408.14000000001,"N_COORD97":2545555.9300000002,"ADDRESS":"文賢街１３６巷２號二樓之２","OBJECTID":410704},"geometry":{"x":175408.14000000153,"y":2545555.9299999997}},{"attributes":{"ID":410729,"DIS_CODE":0,"TOWNNAME":"永康區","LI":"\u25A0洲里","LIN":"3鄰","STREET":"\u25A0洲二街","SECT":" ","MAREA":" ","LANE":"１６０巷","ALLEY":" ","HOUSE_NO":"１號九樓之２","E_COORD97":171686.54999999999,"N_COORD97":2549322.6099999999,"ADDRESS":"\u25A0洲二街１６０巷１號九樓之２","OBJECTID":410705},"geometry":{"x":171686.55000000075,"y":2549322.6100000013}},{"attributes":{"ID":410730,"DIS_CODE":0,"TOWNNAME":"永康區","LI":"\u25A0洲里","LIN":"3鄰","STREET":"\u25A0洲二街","SECT":" ","MAREA":" ","LANE":"１６０巷","ALLEY":" ","HOUSE_NO":"１號十樓之３","E_COORD97":171686.51999999999,"N_COORD97":2549322.6099999999,"ADDRESS":"\u25A0洲二街１６０巷１號十樓之３","OBJECTID":410706},"geometry":{"x":171686.52000000048,"y":2549322.6100000013}},{"attributes":{"ID":410731,"DIS_CODE":0,"TOWNNAME":"永康區","LI":"\u25A0洲里","LIN":"3鄰","STREET":"\u25A0洲二街","SECT":" ","MAREA":" ","LANE":"１６０巷","ALLEY":" ","HOUSE_NO":"１號十一樓之２","E_COORD97":171687.79999999999,"N_COORD97":2549322.6099999999,"ADDRESS":"\u25A0洲二街１６０巷１號十一樓之２","OBJECTID":410707},"geometry":{"x":171687.79999999888,"y":2549322.6100000013}},{"attributes":{"ID":410732,"DIS_CODE":0,"TOWNNAME":"永康區","LI":"\u25A0洲里","LIN":"3鄰","STREET":"\u25A0洲二街","SECT":" ","MAREA":" ","LANE":"１６０巷","ALLEY":" ","HOUSE_NO":"３號十一樓之１","E_COORD97":171706.45999999999,"N_COORD97":2549342.8199999998,"ADDRESS":"\u25A0洲二街１６０巷３號十一樓之１","OBJECTID":410708},"geometry":{"x":171706.46000000089,"y":2549342.8200000022}},{"attributes":{"ID":410733,"DIS_CODE":0,"TOWNNAME":"永康區","LI":"北灣里","LIN":"3鄰","STREET":"文賢街","SECT":" ","MAREA":" ","LANE":"１３６巷","ALLEY":" ","HOUSE_NO":"２號四樓之２","E_COORD97":175408.14000000001,"N_COORD97":2545555.9300000002,"ADDRESS":"文賢街１３６巷２號四樓之２","OBJECTID":410709},"geometry":{"x":175408.14000000153,"y":2545555.9299999997}},{"attributes":{"ID":410734,"DIS_CODE":0,"TOWNNAME":"永康區","LI":"\u25A0行里","LIN":"3鄰","STREET":"中正路","SECT":" ","MAREA":" ","LANE":"８７２巷","ALLEY":" ","HOUSE_NO":"３號四樓","E_COORD97":172128.79999999999,"N_COORD97":2548813.2599999998,"ADDRESS":"中正路８７２巷３號四樓","OBJECTID":410710},"geometry":{"x":172128.80000000075,"y":2548813.2600000016}},{"attributes":{"ID":410735,"DIS_CODE":0,"TOWNNAME":"永康區","LI":"北灣里","LIN":"3鄰","STREET":"文賢街","SECT":" ","MAREA":" ","LANE":"１３６巷","ALLEY":" ","HOUSE_NO":"８號五樓之１","E_COORD97":175428.37,"N_COORD97":2545540.3799999999,"ADDRESS":"文賢街１３６巷８號五樓之１","OBJECTID":410711},"geometry":{"x":175428.37000000011,"y":2545540.3800000008}},{"attributes":{"ID":410736,"DIS_CODE":0,"TOWNNAME":"永康區","LI":"\u25A0洲里","LIN":"3鄰","STREET":"\u25A0洲二街","SECT":" ","MAREA":" ","LANE":"１６０巷","ALLEY":" ","HOUSE_NO":"１號七樓之５","E_COORD97":171686.57999999999,"N_COORD97":2549322.6099999999,"ADDRESS":"\u25A0洲二街１６０巷１號七樓之５","OBJECTID":410712},"geometry":{"x":171686.58000000101,"y":2549322.6100000013}},{"attributes":{"ID":410737,"DIS_CODE":0,"TOWNNAME":"永康區","LI":"北灣里","LIN":"3鄰","STREET":"文賢街","SECT":" ","MAREA":" ","LANE":"１３６巷","ALLEY":" ","HOUSE_NO":"８號八樓之２","E_COORD97":175428.5,"N_COORD97":2545540.3799999999,"ADDRESS":"文賢街１３６巷８號八樓之２","OBJECTID":410713},"geometry":{"x":175428.50000000093,"y":2545540.3800000008}},{"attributes":{"ID":410738,"DIS_CODE":0,"TOWNNAME":"永康區","LI":"北灣里","LIN":"3鄰","STREET":"文賢街","SECT":" ","MAREA":" ","LANE":"１３６巷","ALLEY":" ","HOUSE_NO":"８號四樓之１","E_COORD97":175428.37,"N_COORD97":2545540.3799999999,"ADDRESS":"文賢街１３６巷８號四樓之１","OBJECTID":410714},"geometry":{"x":175428.37000000011,"y":2545540.3800000008}},{"attributes":{"ID":410739,"DIS_CODE":0,"TOWNNAME":"東區","LI":"崇善里","LIN":"3鄰","STREET":"崇善十二街","SECT":" ","MAREA":" ","LANE":"６巷","ALLEY":" ","HOUSE_NO":"１２號七樓","E_COORD97":171208.79000000001,"N_COORD97":2541023.7999999998,"ADDRESS":"崇善十二街６巷１２號七樓","OBJECTID":410715},"geometry":{"x":171208.79000000097,"y":2541023.8000000026}},{"attributes":{"ID":410740,"DIS_CODE":0,"TOWNNAME":"東區","LI":"崇善里","LIN":"3鄰","STREET":"崇善十二街","SECT":" ","MAREA":" ","LANE":"６巷","ALLEY":" ","HOUSE_NO":"１２號七樓之１","E_COORD97":171208.79000000001,"N_COORD97":2541023.7999999998,"ADDRESS":"崇善十二街６巷１２號七樓之１","OBJECTID":410716},"geometry":{"x":171208.79000000097,"y":2541023.8000000026}},{"attributes":{"ID":410741,"DIS_CODE":0,"TOWNNAME":"東區","LI":"崇善里","LIN":"3鄰","STREET":"崇善十二街","SECT":" ","MAREA":" ","LANE":"６巷","ALLEY":" ","HOUSE_NO":"１２號九樓","E_COORD97":171208.79000000001,"N_COORD97":2541023.7999999998,"ADDRESS":"崇善十二街６巷１２號九樓","OBJECTID":410717},"geometry":{"x":171208.79000000097,"y":2541023.8000000026}},{"attributes":{"ID":410742,"DIS_CODE":0,"TOWNNAME":"東區","LI":"崇善里","LIN":"3鄰","STREET":"崇善十二街","SECT":" ","MAREA":" ","LANE":"６巷","ALLEY":" ","HOUSE_NO":"１２號九樓之１","E_COORD97":171208.79000000001,"N_COORD97":2541023.7999999998,"ADDRESS":"崇善十二街６巷１２號九樓之１","OBJECTID":410718},"geometry":{"x":171208.79000000097,"y":2541023.8000000026}},{"attributes":{"ID":410743,"DIS_CODE":0,"TOWNNAME":"東區","LI":"崇善里","LIN":"3鄰","STREET":"崇善十二街","SECT":" ","MAREA":" ","LANE":"６巷","ALLEY":" ","HOUSE_NO":"１２號二樓之１","E_COORD97":171208.79000000001,"N_COORD97":2541023.7999999998,"ADDRESS":"崇善十二街６巷１２號二樓之１","OBJECTID":410719},"geometry":{"x":171208.79000000097,"y":2541023.8000000026}},{"attributes":{"ID":410744,"DIS_CODE":0,"TOWNNAME":"東區","LI":"崇善里","LIN":"3鄰","STREET":"崇善十二街","SECT":" ","MAREA":" ","LANE":"６巷","ALLEY":" ","HOUSE_NO":"１２號八樓","E_COORD97":171208.79000000001,"N_COORD97":2541023.7999999998,"ADDRESS":"崇善十二街６巷１２號八樓","OBJECTID":410720},"geometry":{"x":171208.79000000097,"y":2541023.8000000026}},{"attributes":{"ID":410745,"DIS_CODE":0,"TOWNNAME":"東區","LI":"崇善里","LIN":"3鄰","STREET":"崇善十二街","SECT":" ","MAREA":" ","LANE":"６巷","ALLEY":" ","HOUSE_NO":"１２號八樓之１","E_COORD97":171208.79000000001,"N_COORD97":2541023.7999999998,"ADDRESS":"崇善十二街６巷１２號八樓之１","OBJECTID":410721},"geometry":{"x":171208.79000000097,"y":2541023.8000000026}},{"attributes":{"ID":410746,"DIS_CODE":0,"TOWNNAME":"東區","LI":"崇善里","LIN":"3鄰","STREET":"崇善十二街","SECT":" ","MAREA":" ","LANE":"６巷","ALLEY":" ","HOUSE_NO":"１２號十樓","E_COORD97":171208.79000000001,"N_COORD97":2541023.7999999998,"ADDRESS":"崇善十二街６巷１２號十樓","OBJECTID":410722},"geometry":{"x":171208.79000000097,"y":2541023.8000000026}},{"attributes":{"ID":410747,"DIS_CODE":0,"TOWNNAME":"東區","LI":"崇善里","LIN":"3鄰","STREET":"崇善十二街","SECT":" ","MAREA":" ","LANE":"６巷","ALLEY":" ","HOUSE_NO":"１２號十樓之１","E_COORD97":171208.79000000001,"N_COORD97":2541023.7999999998,"ADDRESS":"崇善十二街６巷１２號十樓之１","OBJECTID":410723},"geometry":{"x":171208.79000000097,"y":2541023.8000000026}},{"attributes":{"ID":410748,"DIS_CODE":0,"TOWNNAME":"東區","LI":"崇善里","LIN":"3鄰","STREET":"崇善十二街","SECT":" ","MAREA":" ","LANE":"６巷","ALLEY":" ","HOUSE_NO":"１２號三樓","E_COORD97":171208.79000000001,"N_COORD97":2541023.7999999998,"ADDRESS":"崇善十二街６巷１２號三樓","OBJECTID":410724},"geometry":{"x":171208.79000000097,"y":2541023.8000000026}},{"attributes":{"ID":410749,"DIS_CODE":0,"TOWNNAME":"東區","LI":"崇善里","LIN":"3鄰","STREET":"崇善十二街","SECT":" ","MAREA":" ","LANE":"６巷","ALLEY":" ","HOUSE_NO":"１２號三樓之１","E_COORD97":171208.79000000001,"N_COORD97":2541023.7999999998,"ADDRESS":"崇善十二街６巷１２號三樓之１","OBJECTID":410725},"geometry":{"x":171208.79000000097,"y":2541023.8000000026}},{"attributes":{"ID":410750,"DIS_CODE":0,"TOWNNAME":"東區","LI":"崇善里","LIN":"3鄰","STREET":"崇善十二街","SECT":" ","MAREA":" ","LANE":"６巷","ALLEY":" ","HOUSE_NO":"１２號五樓","E_COORD97":171208.79000000001,"N_COORD97":2541023.7999999998,"ADDRESS":"崇善十二街６巷１２號五樓","OBJECTID":410726},"geometry":{"x":171208.79000000097,"y":2541023.8000000026}},{"attributes":{"ID":410751,"DIS_CODE":0,"TOWNNAME":"東區","LI":"崇善里","LIN":"3鄰","STREET":"崇善十二街","SECT":" ","MAREA":" ","LANE":"６巷","ALLEY":" ","HOUSE_NO":"１２號五樓之１","E_COORD97":171208.79000000001,"N_COORD97":2541023.7999999998,"ADDRESS":"崇善十二街６巷１２號五樓之１","OBJECTID":410727},"geometry":{"x":171208.79000000097,"y":2541023.8000000026}},{"attributes":{"ID":410752,"DIS_CODE":0,"TOWNNAME":"東區","LI":"崇善里","LIN":"3鄰","STREET":"崇善十二街","SECT":" ","MAREA":" ","LANE":"６巷","ALLEY":" ","HOUSE_NO":"１２號六樓","E_COORD97":171208.79000000001,"N_COORD97":2541023.7999999998,"ADDRESS":"崇善十二街６巷１２號六樓","OBJECTID":410728},"geometry":{"x":171208.79000000097,"y":2541023.8000000026}},{"attributes":{"ID":410753,"DIS_CODE":0,"TOWNNAME":"東區","LI":"崇善里","LIN":"3鄰","STREET":"崇善十二街","SECT":" ","MAREA":" ","LANE":"６巷","ALLEY":" ","HOUSE_NO":"１２號六樓之１","E_COORD97":171208.79000000001,"N_COORD97":2541023.7999999998,"ADDRESS":"崇善十二街６巷１２號六樓之１","OBJECTID":410729},"geometry":{"x":171208.79000000097,"y":2541023.8000000026}},{"attributes":{"ID":410754,"DIS_CODE":0,"TOWNNAME":"東區","LI":"崇善里","LIN":"3鄰","STREET":"崇善十二街","SECT":" ","MAREA":" ","LANE":"６巷","ALLEY":" ","HOUSE_NO":"１２號四樓","E_COORD97":171208.79000000001,"N_COORD97":2541023.7999999998,"ADDRESS":"崇善十二街６巷１２號四樓","OBJECTID":410730},"geometry":{"x":171208.79000000097,"y":2541023.8000000026}},{"attributes":{"ID":410755,"DIS_CODE":0,"TOWNNAME":"東區","LI":"崇善里","LIN":"3鄰","STREET":"崇善十二街","SECT":" ","MAREA":" ","LANE":"６巷","ALLEY":" ","HOUSE_NO":"１２號四樓之１","E_COORD97":171208.79000000001,"N_COORD97":2541023.7999999998,"ADDRESS":"崇善十二街６巷１２號四樓之１","OBJECTID":410731},"geometry":{"x":171208.79000000097,"y":2541023.8000000026}},{"attributes":{"ID":410756,"DIS_CODE":0,"TOWNNAME":"東區","LI":"崇善里","LIN":"3鄰","STREET":"崇善十二街","SECT":" ","MAREA":" ","LANE":"６巷","ALLEY":" ","HOUSE_NO":"２號七樓","E_COORD97":171196.48000000001,"N_COORD97":2541055.4300000002,"ADDRESS":"崇善十二街６巷２號七樓","OBJECTID":410732},"geometry":{"x":171196.48000000138,"y":2541055.4300000016}},{"attributes":{"ID":410757,"DIS_CODE":0,"TOWNNAME":"東區","LI":"崇善里","LIN":"3鄰","STREET":"崇善十二街","SECT":" ","MAREA":" ","LANE":"６巷","ALLEY":" ","HOUSE_NO":"２號七樓之１","E_COORD97":171196.48000000001,"N_COORD97":2541055.4300000002,"ADDRESS":"崇善十二街６巷２號七樓之１","OBJECTID":410733},"geometry":{"x":171196.48000000138,"y":2541055.4300000016}},{"attributes":{"ID":410758,"DIS_CODE":0,"TOWNNAME":"東區","LI":"崇善里","LIN":"3鄰","STREET":"崇善十二街","SECT":" ","MAREA":" ","LANE":"６巷","ALLEY":" ","HOUSE_NO":"２號七樓之２","E_COORD97":171196.48000000001,"N_COORD97":2541055.4300000002,"ADDRESS":"崇善十二街６巷２號七樓之２","OBJECTID":410734},"geometry":{"x":171196.48000000138,"y":2541055.4300000016}},{"attributes":{"ID":410759,"DIS_CODE":0,"TOWNNAME":"東區","LI":"崇善里","LIN":"3鄰","STREET":"崇善十二街","SECT":" ","MAREA":" ","LANE":"６巷","ALLEY":" ","HOUSE_NO":"２號七樓之３","E_COORD97":171196.48000000001,"N_COORD97":2541055.4300000002,"ADDRESS":"崇善十二街６巷２號七樓之３","OBJECTID":410735},"geometry":{"x":171196.48000000138,"y":2541055.4300000016}},{"attributes":{"ID":410760,"DIS_CODE":0,"TOWNNAME":"東區","LI":"崇善里","LIN":"3鄰","STREET":"崇善十二街","SECT":" ","MAREA":" ","LANE":"６巷","ALLEY":" ","HOUSE_NO":"２號九樓","E_COORD97":171196.48000000001,"N_COORD97":2541055.4300000002,"ADDRESS":"崇善十二街６巷２號九樓","OBJECTID":410736},"geometry":{"x":171196.48000000138,"y":2541055.4300000016}},{"attributes":{"ID":410761,"DIS_CODE":0,"TOWNNAME":"東區","LI":"崇善里","LIN":"3鄰","STREET":"崇善十二街","SECT":" ","MAREA":" ","LANE":"６巷","ALLEY":" ","HOUSE_NO":"２號九樓之１","E_COORD97":171196.48000000001,"N_COORD97":2541055.4300000002,"ADDRESS":"崇善十二街６巷２號九樓之１","OBJECTID":410737},"geometry":{"x":171196.48000000138,"y":2541055.4300000016}},{"attributes":{"ID":410762,"DIS_CODE":0,"TOWNNAME":"東區","LI":"崇善里","LIN":"3鄰","STREET":"崇善十二街","SECT":" ","MAREA":" ","LANE":"６巷","ALLEY":" ","HOUSE_NO":"２號九樓之２","E_COORD97":171196.48000000001,"N_COORD97":2541055.4300000002,"ADDRESS":"崇善十二街６巷２號九樓之２","OBJECTID":410738},"geometry":{"x":171196.48000000138,"y":2541055.4300000016}},{"attributes":{"ID":410763,"DIS_CODE":0,"TOWNNAME":"東區","LI":"崇善里","LIN":"3鄰","STREET":"崇善十二街","SECT":" ","MAREA":" ","LANE":"６巷","ALLEY":" ","HOUSE_NO":"２號九樓之３","E_COORD97":171196.48000000001,"N_COORD97":2541055.4300000002,"ADDRESS":"崇善十二街６巷２號九樓之３","OBJECTID":410739},"geometry":{"x":171196.48000000138,"y":2541055.4300000016}},{"attributes":{"ID":410764,"DIS_CODE":0,"TOWNNAME":"東區","LI":"崇善里","LIN":"3鄰","STREET":"崇善十二街","SECT":" ","MAREA":" ","LANE":"６巷","ALLEY":" ","HOUSE_NO":"２號二樓","E_COORD97":171196.48000000001,"N_COORD97":2541055.4300000002,"ADDRESS":"崇善十二街６巷２號二樓","OBJECTID":410740},"geometry":{"x":171196.48000000138,"y":2541055.4300000016}},{"attributes":{"ID":410765,"DIS_CODE":0,"TOWNNAME":"東區","LI":"崇善里","LIN":"3鄰","STREET":"崇善十二街","SECT":" ","MAREA":" ","LANE":"６巷","ALLEY":" ","HOUSE_NO":"２號二樓之１","E_COORD97":171196.48000000001,"N_COORD97":2541055.4300000002,"ADDRESS":"崇善十二街６巷２號二樓之１","OBJECTID":410741},"geometry":{"x":171196.48000000138,"y":2541055.4300000016}},{"attributes":{"ID":410766,"DIS_CODE":0,"TOWNNAME":"東區","LI":"崇善里","LIN":"3鄰","STREET":"崇善十二街","SECT":" ","MAREA":" ","LANE":"６巷","ALLEY":" ","HOUSE_NO":"２號二樓之２","E_COORD97":171196.48000000001,"N_COORD97":2541055.4300000002,"ADDRESS":"崇善十二街６巷２號二樓之２","OBJECTID":410742},"geometry":{"x":171196.48000000138,"y":2541055.4300000016}},{"attributes":{"ID":410767,"DIS_CODE":0,"TOWNNAME":"東區","LI":"崇善里","LIN":"3鄰","STREET":"崇善十二街","SECT":" ","MAREA":" ","LANE":"６巷","ALLEY":" ","HOUSE_NO":"２號二樓之３","E_COORD97":171196.48000000001,"N_COORD97":2541055.4300000002,"ADDRESS":"崇善十二街６巷２號二樓之３","OBJECTID":410743},"geometry":{"x":171196.48000000138,"y":2541055.4300000016}},{"attributes":{"ID":410768,"DIS_CODE":0,"TOWNNAME":"東區","LI":"崇善里","LIN":"3鄰","STREET":"崇善十二街","SECT":" ","MAREA":" ","LANE":"６巷","ALLEY":" ","HOUSE_NO":"２號八樓","E_COORD97":171196.48000000001,"N_COORD97":2541055.4300000002,"ADDRESS":"崇善十二街６巷２號八樓","OBJECTID":410744},"geometry":{"x":171196.48000000138,"y":2541055.4300000016}},{"attributes":{"ID":410769,"DIS_CODE":0,"TOWNNAME":"東區","LI":"崇善里","LIN":"3鄰","STREET":"崇善十二街","SECT":" ","MAREA":" ","LANE":"６巷","ALLEY":" ","HOUSE_NO":"２號八樓之１","E_COORD97":171196.48000000001,"N_COORD97":2541055.4300000002,"ADDRESS":"崇善十二街６巷２號八樓之１","OBJECTID":410745},"geometry":{"x":171196.48000000138,"y":2541055.4300000016}},{"attributes":{"ID":410770,"DIS_CODE":0,"TOWNNAME":"東區","LI":"崇善里","LIN":"3鄰","STREET":"崇善十二街","SECT":" ","MAREA":" ","LANE":"６巷","ALLEY":" ","HOUSE_NO":"２號八樓之２","E_COORD97":171196.48000000001,"N_COORD97":2541055.4300000002,"ADDRESS":"崇善十二街６巷２號八樓之２","OBJECTID":410746},"geometry":{"x":171196.48000000138,"y":2541055.4300000016}},{"attributes":{"ID":410771,"DIS_CODE":0,"TOWNNAME":"永康區","LI":"南灣里","LIN":"9鄰","STREET":"大灣東路","SECT":" ","MAREA":" ","LANE":" ","ALLEY":" ","HOUSE_NO":"５號","E_COORD97":174040.79999999999,"N_COORD97":2544277.77,"ADDRESS":"大灣東路５號","OBJECTID":410747},"geometry":{"x":174040.80000000168,"y":2544277.7700000014}},{"attributes":{"ID":410772,"DIS_CODE":0,"TOWNNAME":"東區","LI":"崇善里","LIN":"3鄰","STREET":"崇善十二街","SECT":" ","MAREA":" ","LANE":"６巷","ALLEY":" ","HOUSE_NO":"２號八樓之３","E_COORD97":171196.48000000001,"N_COORD97":2541055.4300000002,"ADDRESS":"崇善十二街６巷２號八樓之３","OBJECTID":410748},"geometry":{"x":171196.48000000138,"y":2541055.4300000016}},{"attributes":{"ID":410773,"DIS_CODE":0,"TOWNNAME":"東區","LI":"崇善里","LIN":"3鄰","STREET":"崇善十二街","SECT":" ","MAREA":" ","LANE":"６巷","ALLEY":" ","HOUSE_NO":"２號十一樓","E_COORD97":171196.48000000001,"N_COORD97":2541055.4300000002,"ADDRESS":"崇善十二街６巷２號十一樓","OBJECTID":410749},"geometry":{"x":171196.48000000138,"y":2541055.4300000016}},{"attributes":{"ID":410774,"DIS_CODE":0,"TOWNNAME":"東區","LI":"崇善里","LIN":"3鄰","STREET":"崇善十二街","SECT":" ","MAREA":" ","LANE":"６巷","ALLEY":" ","HOUSE_NO":"２號十一樓之１","E_COORD97":171196.48000000001,"N_COORD97":2541055.4300000002,"ADDRESS":"崇善十二街６巷２號十一樓之１","OBJECTID":410750},"geometry":{"x":171196.48000000138,"y":2541055.4300000016}},{"attributes":{"ID":410775,"DIS_CODE":0,"TOWNNAME":"東區","LI":"崇善里","LIN":"3鄰","STREET":"崇善十二街","SECT":" ","MAREA":" ","LANE":"６巷","ALLEY":" ","HOUSE_NO":"２號十一樓之２","E_COORD97":171196.48000000001,"N_COORD97":2541055.4300000002,"ADDRESS":"崇善十二街６巷２號十一樓之２","OBJECTID":410751},"geometry":{"x":171196.48000000138,"y":2541055.4300000016}},{"attributes":{"ID":410776,"DIS_CODE":0,"TOWNNAME":"東區","LI":"崇善里","LIN":"3鄰","STREET":"崇善十二街","SECT":" ","MAREA":" ","LANE":"６巷","ALLEY":" ","HOUSE_NO":"２號十一樓之３","E_COORD97":171196.48000000001,"N_COORD97":2541055.4300000002,"ADDRESS":"崇善十二街６巷２號十一樓之３","OBJECTID":410752},"geometry":{"x":171196.48000000138,"y":2541055.4300000016}},{"attributes":{"ID":410777,"DIS_CODE":0,"TOWNNAME":"東區","LI":"崇善里","LIN":"3鄰","STREET":"崇善十二街","SECT":" ","MAREA":" ","LANE":"６巷","ALLEY":" ","HOUSE_NO":"２號十二樓","E_COORD97":171196.48000000001,"N_COORD97":2541055.4300000002,"ADDRESS":"崇善十二街６巷２號十二樓","OBJECTID":410753},"geometry":{"x":171196.48000000138,"y":2541055.4300000016}},{"attributes":{"ID":410778,"DIS_CODE":0,"TOWNNAME":"東區","LI":"崇善里","LIN":"3鄰","STREET":"崇善十二街","SECT":" ","MAREA":" ","LANE":"６巷","ALLEY":" ","HOUSE_NO":"２號十二樓之１","E_COORD97":171196.48000000001,"N_COORD97":2541055.4300000002,"ADDRESS":"崇善十二街６巷２號十二樓之１","OBJECTID":410754},"geometry":{"x":171196.48000000138,"y":2541055.4300000016}},{"attributes":{"ID":410779,"DIS_CODE":0,"TOWNNAME":"東區","LI":"崇善里","LIN":"3鄰","STREET":"崇善十二街","SECT":" ","MAREA":" ","LANE":"６巷","ALLEY":" ","HOUSE_NO":"２號十二樓之２","E_COORD97":171196.48000000001,"N_COORD97":2541055.4300000002,"ADDRESS":"崇善十二街６巷２號十二樓之２","OBJECTID":410755},"geometry":{"x":171196.48000000138,"y":2541055.4300000016}},{"attributes":{"ID":410780,"DIS_CODE":0,"TOWNNAME":"東區","LI":"崇善里","LIN":"3鄰","STREET":"崇善十二街","SECT":" ","MAREA":" ","LANE":"６巷","ALLEY":" ","HOUSE_NO":"２號十二樓之３","E_COORD97":171196.48000000001,"N_COORD97":2541055.4300000002,"ADDRESS":"崇善十二街６巷２號十二樓之３","OBJECTID":410756},"geometry":{"x":171196.48000000138,"y":2541055.4300000016}},{"attributes":{"ID":410781,"DIS_CODE":0,"TOWNNAME":"東區","LI":"崇善里","LIN":"3鄰","STREET":"崇善十二街","SECT":" ","MAREA":" ","LANE":"６巷","ALLEY":" ","HOUSE_NO":"２號十樓","E_COORD97":171196.48000000001,"N_COORD97":2541055.4300000002,"ADDRESS":"崇善十二街６巷２號十樓","OBJECTID":410757},"geometry":{"x":171196.48000000138,"y":2541055.4300000016}},{"attributes":{"ID":410782,"DIS_CODE":0,"TOWNNAME":"東區","LI":"崇善里","LIN":"3鄰","STREET":"崇善十二街","SECT":" ","MAREA":" ","LANE":"６巷","ALLEY":" ","HOUSE_NO":"２號十樓之１","E_COORD97":171196.48000000001,"N_COORD97":2541055.4300000002,"ADDRESS":"崇善十二街６巷２號十樓之１","OBJECTID":410758},"geometry":{"x":171196.48000000138,"y":2541055.4300000016}},{"attributes":{"ID":410783,"DIS_CODE":0,"TOWNNAME":"東區","LI":"崇善里","LIN":"3鄰","STREET":"崇善十二街","SECT":" ","MAREA":" ","LANE":"６巷","ALLEY":" ","HOUSE_NO":"２號十樓之２","E_COORD97":171196.48000000001,"N_COORD97":2541055.4300000002,"ADDRESS":"崇善十二街６巷２號十樓之２","OBJECTID":410759},"geometry":{"x":171196.48000000138,"y":2541055.4300000016}},{"attributes":{"ID":410784,"DIS_CODE":0,"TOWNNAME":"佳里區","LI":"鎮山里","LIN":"3鄰","STREET":"延平路","SECT":" ","MAREA":" ","LANE":"５９巷","ALLEY":" ","HOUSE_NO":"６號","E_COORD97":165919.85999999999,"N_COORD97":2561710.98,"ADDRESS":"延平路５９巷６號","OBJECTID":410760},"geometry":{"x":165919.86000000127,"y":2561710.9800000004}},{"attributes":{"ID":410785,"DIS_CODE":0,"TOWNNAME":"東區","LI":"崇善里","LIN":"3鄰","STREET":"崇善十二街","SECT":" ","MAREA":" ","LANE":"６巷","ALLEY":" ","HOUSE_NO":"２號十樓之３","E_COORD97":171196.48000000001,"N_COORD97":2541055.4300000002,"ADDRESS":"崇善十二街６巷２號十樓之３","OBJECTID":410761},"geometry":{"x":171196.48000000138,"y":2541055.4300000016}},{"attributes":{"ID":410786,"DIS_CODE":0,"TOWNNAME":"東區","LI":"崇善里","LIN":"3鄰","STREET":"崇善十二街","SECT":" ","MAREA":" ","LANE":"６巷","ALLEY":" ","HOUSE_NO":"２號三樓","E_COORD97":171196.48000000001,"N_COORD97":2541055.4300000002,"ADDRESS":"崇善十二街６巷２號三樓","OBJECTID":410762},"geometry":{"x":171196.48000000138,"y":2541055.4300000016}},{"attributes":{"ID":410787,"DIS_CODE":0,"TOWNNAME":"東區","LI":"崇善里","LIN":"3鄰","STREET":"崇善十二街","SECT":" ","MAREA":" ","LANE":"６巷","ALLEY":" ","HOUSE_NO":"２號三樓之１","E_COORD97":171196.48000000001,"N_COORD97":2541055.4300000002,"ADDRESS":"崇善十二街６巷２號三樓之１","OBJECTID":410763},"geometry":{"x":171196.48000000138,"y":2541055.4300000016}},{"attributes":{"ID":410788,"DIS_CODE":0,"TOWNNAME":"東區","LI":"崇善里","LIN":"3鄰","STREET":"崇善十二街","SECT":" ","MAREA":" ","LANE":"６巷","ALLEY":" ","HOUSE_NO":"２號三樓之２","E_COORD97":171196.48000000001,"N_COORD97":2541055.4300000002,"ADDRESS":"崇善十二街６巷２號三樓之２","OBJECTID":410764},"geometry":{"x":171196.48000000138,"y":2541055.4300000016}},{"attributes":{"ID":410789,"DIS_CODE":0,"TOWNNAME":"東區","LI":"崇善里","LIN":"3鄰","STREET":"崇善十二街","SECT":" ","MAREA":" ","LANE":"６巷","ALLEY":" ","HOUSE_NO":"２號三樓之３","E_COORD97":171196.48000000001,"N_COORD97":2541055.4300000002,"ADDRESS":"崇善十二街６巷２號三樓之３","OBJECTID":410765},"geometry":{"x":171196.48000000138,"y":2541055.4300000016}},{"attributes":{"ID":410790,"DIS_CODE":0,"TOWNNAME":"東區","LI":"崇善里","LIN":"3鄰","STREET":"崇善十二街","SECT":" ","MAREA":" ","LANE":"６巷","ALLEY":" ","HOUSE_NO":"２號五樓","E_COORD97":171196.48000000001,"N_COORD97":2541055.4300000002,"ADDRESS":"崇善十二街６巷２號五樓","OBJECTID":410766},"geometry":{"x":171196.48000000138,"y":2541055.4300000016}},{"attributes":{"ID":410791,"DIS_CODE":0,"TOWNNAME":"東區","LI":"崇善里","LIN":"3鄰","STREET":"崇善十二街","SECT":" ","MAREA":" ","LANE":"６巷","ALLEY":" ","HOUSE_NO":"２號五樓之１","E_COORD97":171196.48000000001,"N_COORD97":2541055.4300000002,"ADDRESS":"崇善十二街６巷２號五樓之１","OBJECTID":410767},"geometry":{"x":171196.48000000138,"y":2541055.4300000016}},{"attributes":{"ID":410792,"DIS_CODE":0,"TOWNNAME":"東區","LI":"崇善里","LIN":"3鄰","STREET":"崇善十二街","SECT":" ","MAREA":" ","LANE":"６巷","ALLEY":" ","HOUSE_NO":"２號五樓之２","E_COORD97":171196.48000000001,"N_COORD97":2541055.4300000002,"ADDRESS":"崇善十二街６巷２號五樓之２","OBJECTID":410768},"geometry":{"x":171196.48000000138,"y":2541055.4300000016}},{"attributes":{"ID":410793,"DIS_CODE":0,"TOWNNAME":"東區","LI":"崇善里","LIN":"3鄰","STREET":"崇善十二街","SECT":" ","MAREA":" ","LANE":"６巷","ALLEY":" ","HOUSE_NO":"２號五樓之３","E_COORD97":171196.48000000001,"N_COORD97":2541055.4300000002,"ADDRESS":"崇善十二街６巷２號五樓之３","OBJECTID":410769},"geometry":{"x":171196.48000000138,"y":2541055.4300000016}},{"attributes":{"ID":410794,"DIS_CODE":0,"TOWNNAME":"東區","LI":"崇善里","LIN":"3鄰","STREET":"崇善十二街","SECT":" ","MAREA":" ","LANE":"６巷","ALLEY":" ","HOUSE_NO":"２號六樓","E_COORD97":171196.48000000001,"N_COORD97":2541055.4300000002,"ADDRESS":"崇善十二街６巷２號六樓","OBJECTID":410770},"geometry":{"x":171196.48000000138,"y":2541055.4300000016}},{"attributes":{"ID":410795,"DIS_CODE":0,"TOWNNAME":"東區","LI":"崇善里","LIN":"3鄰","STREET":"崇善十二街","SECT":" ","MAREA":" ","LANE":"６巷","ALLEY":" ","HOUSE_NO":"２號六樓之１","E_COORD97":171196.48000000001,"N_COORD97":2541055.4300000002,"ADDRESS":"崇善十二街６巷２號六樓之１","OBJECTID":410771},"geometry":{"x":171196.48000000138,"y":2541055.4300000016}},{"attributes":{"ID":410796,"DIS_CODE":0,"TOWNNAME":"東區","LI":"崇善里","LIN":"3鄰","STREET":"崇善十二街","SECT":" ","MAREA":" ","LANE":"６巷","ALLEY":" ","HOUSE_NO":"２號六樓之２","E_COORD97":171196.48000000001,"N_COORD97":2541055.4300000002,"ADDRESS":"崇善十二街６巷２號六樓之２","OBJECTID":410772},"geometry":{"x":171196.48000000138,"y":2541055.4300000016}},{"attributes":{"ID":410797,"DIS_CODE":0,"TOWNNAME":"東區","LI":"崇善里","LIN":"3鄰","STREET":"崇善十二街","SECT":" ","MAREA":" ","LANE":"６巷","ALLEY":" ","HOUSE_NO":"２號六樓之３","E_COORD97":171196.48000000001,"N_COORD97":2541055.4300000002,"ADDRESS":"崇善十二街６巷２號六樓之３","OBJECTID":410773},"geometry":{"x":171196.48000000138,"y":2541055.4300000016}},{"attributes":{"ID":410798,"DIS_CODE":0,"TOWNNAME":"東區","LI":"崇善里","LIN":"3鄰","STREET":"崇善十二街","SECT":" ","MAREA":" ","LANE":"６巷","ALLEY":" ","HOUSE_NO":"２號四樓","E_COORD97":171196.48000000001,"N_COORD97":2541055.4300000002,"ADDRESS":"崇善十二街６巷２號四樓","OBJECTID":410774},"geometry":{"x":171196.48000000138,"y":2541055.4300000016}},{"attributes":{"ID":410799,"DIS_CODE":0,"TOWNNAME":"東區","LI":"崇善里","LIN":"3鄰","STREET":"崇善十二街","SECT":" ","MAREA":" ","LANE":"６巷","ALLEY":" ","HOUSE_NO":"２號四樓之１","E_COORD97":171196.48000000001,"N_COORD97":2541055.4300000002,"ADDRESS":"崇善十二街６巷２號四樓之１","OBJECTID":410775},"geometry":{"x":171196.48000000138,"y":2541055.4300000016}},{"attributes":{"ID":410800,"DIS_CODE":0,"TOWNNAME":"東區","LI":"崇善里","LIN":"3鄰","STREET":"崇善十二街","SECT":" ","MAREA":" ","LANE":"６巷","ALLEY":" ","HOUSE_NO":"２號四樓之２","E_COORD97":171196.48000000001,"N_COORD97":2541055.4300000002,"ADDRESS":"崇善十二街６巷２號四樓之２","OBJECTID":410776},"geometry":{"x":171196.48000000138,"y":2541055.4300000016}},{"attributes":{"ID":410801,"DIS_CODE":0,"TOWNNAME":"東區","LI":"崇善里","LIN":"3鄰","STREET":"崇善十二街","SECT":" ","MAREA":" ","LANE":"６巷","ALLEY":" ","HOUSE_NO":"２號四樓之３","E_COORD97":171196.48000000001,"N_COORD97":2541055.4300000002,"ADDRESS":"崇善十二街６巷２號四樓之３","OBJECTID":410777},"geometry":{"x":171196.48000000138,"y":2541055.4300000016}},{"attributes":{"ID":410802,"DIS_CODE":0,"TOWNNAME":"永康區","LI":"\u25A0行里","LIN":"3鄰","STREET":"中正路","SECT":" ","MAREA":" ","LANE":"８７２巷","ALLEY":" ","HOUSE_NO":"２號七樓","E_COORD97":172133.26999999999,"N_COORD97":2548809.2599999998,"ADDRESS":"中正路８７２巷２號七樓","OBJECTID":410778},"geometry":{"x":172133.26999999955,"y":2548809.2599999979}},{"attributes":{"ID":410803,"DIS_CODE":0,"TOWNNAME":"永康區","LI":"北灣里","LIN":"3鄰","STREET":"文賢街","SECT":" ","MAREA":" ","LANE":"１３６巷","ALLEY":" ","HOUSE_NO":"２號六樓之１","E_COORD97":175408.01000000001,"N_COORD97":2545555.9300000002,"ADDRESS":"文賢街１３６巷２號六樓之１","OBJECTID":410779},"geometry":{"x":175408.01000000071,"y":2545555.9299999997}},{"attributes":{"ID":410804,"DIS_CODE":0,"TOWNNAME":"永康區","LI":"北灣里","LIN":"3鄰","STREET":"文賢街","SECT":" ","MAREA":" ","LANE":"１３６巷","ALLEY":" ","HOUSE_NO":"１０號八樓之３","E_COORD97":175429.62,"N_COORD97":2545543.8799999999,"ADDRESS":"文賢街１３６巷１０號八樓之３","OBJECTID":410780},"geometry":{"x":175429.62000000104,"y":2545543.8800000008}},{"attributes":{"ID":410805,"DIS_CODE":0,"TOWNNAME":"永康區","LI":"北灣里","LIN":"3鄰","STREET":"文賢街","SECT":" ","MAREA":" ","LANE":"１３６巷","ALLEY":" ","HOUSE_NO":"２號八樓之３","E_COORD97":175408.10000000001,"N_COORD97":2545555.9300000002,"ADDRESS":"文賢街１３６巷２號八樓之３","OBJECTID":410781},"geometry":{"x":175408.09999999963,"y":2545555.9299999997}},{"attributes":{"ID":410806,"DIS_CODE":0,"TOWNNAME":"永康區","LI":"\u25A0行里","LIN":"3鄰","STREET":"中正路","SECT":" ","MAREA":" ","LANE":"８７２巷","ALLEY":" ","HOUSE_NO":"１１號三樓","E_COORD97":172086.85999999999,"N_COORD97":2548847.0800000001,"ADDRESS":"中正路８７２巷１１號三樓","OBJECTID":410782},"geometry":{"x":172086.86000000127,"y":2548847.0800000001}},{"attributes":{"ID":410807,"DIS_CODE":0,"TOWNNAME":"東區","LI":"成大里","LIN":"3鄰","STREET":"東寧路","SECT":"西段","MAREA":" ","LANE":"１８巷","ALLEY":" ","HOUSE_NO":"２３號二樓","E_COORD97":169703.13,"N_COORD97":2543741.6000000001,"ADDRESS":"東寧路西段１８巷２３號二樓","OBJECTID":410783},"geometry":{"x":169703.13000000082,"y":2543741.5999999978}},{"attributes":{"ID":410808,"DIS_CODE":0,"TOWNNAME":"東區","LI":"成大里","LIN":"3鄰","STREET":"東寧路","SECT":"西段","MAREA":" ","LANE":"１８巷","ALLEY":" ","HOUSE_NO":"２３號三樓","E_COORD97":169703.13,"N_COORD97":2543741.6000000001,"ADDRESS":"東寧路西段１８巷２３號三樓","OBJECTID":410784},"geometry":{"x":169703.13000000082,"y":2543741.5999999978}},{"attributes":{"ID":410809,"DIS_CODE":0,"TOWNNAME":"東區","LI":"成大里","LIN":"3鄰","STREET":"東寧路","SECT":"西段","MAREA":" ","LANE":"１８巷","ALLEY":" ","HOUSE_NO":"２３號四樓","E_COORD97":169703.13,"N_COORD97":2543741.6000000001,"ADDRESS":"東寧路西段１８巷２３號四樓","OBJECTID":410785},"geometry":{"x":169703.13000000082,"y":2543741.5999999978}},{"attributes":{"ID":410810,"DIS_CODE":0,"TOWNNAME":"東區","LI":"成大里","LIN":"3鄰","STREET":"東寧路","SECT":"西段","MAREA":" ","LANE":"１８巷","ALLEY":" ","HOUSE_NO":"２５號二樓","E_COORD97":169709.03,"N_COORD97":2543740.3900000001,"ADDRESS":"東寧路西段１８巷２５號二樓","OBJECTID":410786},"geometry":{"x":169709.03000000119,"y":2543740.3900000006}},{"attributes":{"ID":410811,"DIS_CODE":0,"TOWNNAME":"東區","LI":"成大里","LIN":"3鄰","STREET":"東寧路","SECT":"西段","MAREA":" ","LANE":"１８巷","ALLEY":" ","HOUSE_NO":"２５號三樓","E_COORD97":169709.03,"N_COORD97":2543740.3900000001,"ADDRESS":"東寧路西段１８巷２５號三樓","OBJECTID":410787},"geometry":{"x":169709.03000000119,"y":2543740.3900000006}},{"attributes":{"ID":410812,"DIS_CODE":0,"TOWNNAME":"東區","LI":"成大里","LIN":"3鄰","STREET":"東寧路","SECT":"西段","MAREA":" ","LANE":"１８巷","ALLEY":" ","HOUSE_NO":"２５號四樓","E_COORD97":169709.03,"N_COORD97":2543740.3900000001,"ADDRESS":"東寧路西段１８巷２５號四樓","OBJECTID":410788},"geometry":{"x":169709.03000000119,"y":2543740.3900000006}},{"attributes":{"ID":410813,"DIS_CODE":0,"TOWNNAME":"東區","LI":"成大里","LIN":"3鄰","STREET":"東寧路","SECT":"西段","MAREA":" ","LANE":"１８巷","ALLEY":" ","HOUSE_NO":"２７號二樓","E_COORD97":169715.23999999999,"N_COORD97":2543739.1800000002,"ADDRESS":"東寧路西段１８巷２７號二樓","OBJECTID":410789},"geometry":{"x":169715.24000000022,"y":2543739.1800000016}},{"attributes":{"ID":410814,"DIS_CODE":0,"TOWNNAME":"東區","LI":"成大里","LIN":"3鄰","STREET":"東寧路","SECT":"西段","MAREA":" ","LANE":"１８巷","ALLEY":" ","HOUSE_NO":"２７號三樓","E_COORD97":169715.23999999999,"N_COORD97":2543739.1800000002,"ADDRESS":"東寧路西段１８巷２７號三樓","OBJECTID":410790},"geometry":{"x":169715.24000000022,"y":2543739.1800000016}},{"attributes":{"ID":410815,"DIS_CODE":0,"TOWNNAME":"東區","LI":"成大里","LIN":"3鄰","STREET":"東寧路","SECT":"西段","MAREA":" ","LANE":"１８巷","ALLEY":" ","HOUSE_NO":"２７號四樓","E_COORD97":169715.23999999999,"N_COORD97":2543739.1800000002,"ADDRESS":"東寧路西段１８巷２７號四樓","OBJECTID":410791},"geometry":{"x":169715.24000000022,"y":2543739.1800000016}},{"attributes":{"ID":410816,"DIS_CODE":0,"TOWNNAME":"東區","LI":"成大里","LIN":"3鄰","STREET":"東寧路","SECT":"西段","MAREA":" ","LANE":"１８巷","ALLEY":" ","HOUSE_NO":"２９號二樓","E_COORD97":169720.67999999999,"N_COORD97":2543737.2200000002,"ADDRESS":"東寧路西段１８巷２９號二樓","OBJECTID":410792},"geometry":{"x":169720.68000000063,"y":2543737.2200000007}},{"attributes":{"ID":410817,"DIS_CODE":0,"TOWNNAME":"東區","LI":"成大里","LIN":"3鄰","STREET":"東寧路","SECT":"西段","MAREA":" ","LANE":"１８巷","ALLEY":" ","HOUSE_NO":"２９號三樓","E_COORD97":169720.67999999999,"N_COORD97":2543737.2200000002,"ADDRESS":"東寧路西段１８巷２９號三樓","OBJECTID":410793},"geometry":{"x":169720.68000000063,"y":2543737.2200000007}},{"attributes":{"ID":410818,"DIS_CODE":0,"TOWNNAME":"永康區","LI":"\u25A0洲里","LIN":"3鄰","STREET":"\u25A0洲二街","SECT":" ","MAREA":" ","LANE":"１６０巷","ALLEY":" ","HOUSE_NO":"３號四樓之２","E_COORD97":171705.34,"N_COORD97":2549342.8199999998,"ADDRESS":"\u25A0洲二街１６０巷３號四樓之２","OBJECTID":410794},"geometry":{"x":171705.34000000078,"y":2549342.8200000022}},{"attributes":{"ID":410819,"DIS_CODE":0,"TOWNNAME":"永康區","LI":"\u25A0行里","LIN":"3鄰","STREET":"中正路","SECT":" ","MAREA":" ","LANE":"８７２巷","ALLEY":" ","HOUSE_NO":"１０號二樓","E_COORD97":172092.82999999999,"N_COORD97":2548852.3300000001,"ADDRESS":"中正路８７２巷１０號二樓","OBJECTID":410795},"geometry":{"x":172092.83000000007,"y":2548852.3300000001}},{"attributes":{"ID":410820,"DIS_CODE":0,"TOWNNAME":"永康區","LI":"\u25A0洲里","LIN":"3鄰","STREET":"\u25A0洲二街","SECT":" ","MAREA":" ","LANE":"１６０巷","ALLEY":" ","HOUSE_NO":"１號五樓之２","E_COORD97":171686.54999999999,"N_COORD97":2549322.6099999999,"ADDRESS":"\u25A0洲二街１６０巷１號五樓之２","OBJECTID":410796},"geometry":{"x":171686.55000000075,"y":2549322.6100000013}},{"attributes":{"ID":410821,"DIS_CODE":0,"TOWNNAME":"永康區","LI":"\u25A0行里","LIN":"3鄰","STREET":"中正路","SECT":" ","MAREA":" ","LANE":"８７２巷","ALLEY":" ","HOUSE_NO":"４號六樓","E_COORD97":172123.87,"N_COORD97":2548820.2599999998,"ADDRESS":"中正路８７２巷４號六樓","OBJECTID":410797},"geometry":{"x":172123.87000000104,"y":2548820.2600000016}},{"attributes":{"ID":410822,"DIS_CODE":0,"TOWNNAME":"永康區","LI":"\u25A0行里","LIN":"3鄰","STREET":"中正路","SECT":" ","MAREA":" ","LANE":"８７２巷","ALLEY":" ","HOUSE_NO":"５號六樓","E_COORD97":172116.57000000001,"N_COORD97":2548828.0099999998,"ADDRESS":"中正路８７２巷５號六樓","OBJECTID":410798},"geometry":{"x":172116.5700000003,"y":2548828.0100000035}},{"attributes":{"ID":410823,"DIS_CODE":0,"TOWNNAME":"永康區","LI":"\u25A0行里","LIN":"3鄰","STREET":"中正路","SECT":" ","MAREA":" ","LANE":"８７２巷","ALLEY":" ","HOUSE_NO":"２號三樓","E_COORD97":172133.26999999999,"N_COORD97":2548809.2599999998,"ADDRESS":"中正路８７２巷２號三樓","OBJECTID":410799},"geometry":{"x":172133.26999999955,"y":2548809.2599999979}},{"attributes":{"ID":410824,"DIS_CODE":0,"TOWNNAME":"永康區","LI":"\u25A0洲里","LIN":"3鄰","STREET":"\u25A0洲二街","SECT":" ","MAREA":" ","LANE":"１６０巷","ALLEY":" ","HOUSE_NO":"３號十樓之２","E_COORD97":171705.34,"N_COORD97":2549342.8199999998,"ADDRESS":"\u25A0洲二街１６０巷３號十樓之２","OBJECTID":410800},"geometry":{"x":171705.34000000078,"y":2549342.8200000022}}]}