{"displayFieldName":"TOWNNAME","fieldAliases":{"ID":"ID","DIS_CODE":"DIS_CODE","TOWNNAME":"TOWNNAME","LI":"LI","LIN":"LIN","STREET":"STREET","SECT":"SECT","MAREA":"MAREA","LANE":"LANE","ALLEY":"ALLEY","HOUSE_NO":"HOUSE_NO","E_COORD97":"E_COORD97","N_COORD97":"N_COORD97","ADDRESS":"ADDRESS","OBJECTID":"OBJECTID"},"geometryType":"esriGeometryPoint","spatialReference":{"wkid":102443,"latestWkid":3826},"fields":[{"name":"ID","type":"esriFieldTypeDouble","alias":"ID"},{"name":"DIS_CODE","type":"esriFieldTypeInteger","alias":"DIS_CODE"},{"name":"TOWNNAME","type":"esriFieldTypeString","alias":"TOWNNAME","length":8},{"name":"LI","type":"esriFieldTypeString","alias":"LI","length":8},{"name":"LIN","type":"esriFieldTypeString","alias":"LIN","length":12},{"name":"STREET","type":"esriFieldTypeString","alias":"STREET","length":20},{"name":"SECT","type":"esriFieldTypeString","alias":"SECT","length":8},{"name":"MAREA","type":"esriFieldTypeString","alias":"MAREA","length":12},{"name":"LANE","type":"esriFieldTypeString","alias":"LANE","length":10},{"name":"ALLEY","type":"esriFieldTypeString","alias":"ALLEY","length":10},{"name":"HOUSE_NO","type":"esriFieldTypeString","alias":"HOUSE_NO","length":20},{"name":"E_COORD97","type":"esriFieldTypeDouble","alias":"E_COORD97"},{"name":"N_COORD97","type":"esriFieldTypeDouble","alias":"N_COORD97"},{"name":"ADDRESS","type":"esriFieldTypeString","alias":"ADDRESS","length":50},{"name":"OBJECTID","type":"esriFieldTypeOID","alias":"OBJECTID"}],"features":[{"attributes":{"ID":126401,"DIS_CODE":0,"TOWNNAME":"安南區","LI":"安和里","LIN":"16鄰","STREET":"安和路","SECT":"一段","MAREA":" ","LANE":"１５０巷","ALLEY":"２０弄","HOUSE_NO":"１４號","E_COORD97":169587.78,"N_COORD97":2547713.6499999999,"ADDRESS":"安和路一段１５０巷２０弄１４號","OBJECTID":126401},"geometry":{"x":169587.78000000026,"y":2547713.6500000022}},{"attributes":{"ID":126402,"DIS_CODE":0,"TOWNNAME":"安南區","LI":"安和里","LIN":"16鄰","STREET":"安和路","SECT":"一段","MAREA":" ","LANE":"１５０巷","ALLEY":"２０弄","HOUSE_NO":"２號","E_COORD97":169545.84,"N_COORD97":2547692.9500000002,"ADDRESS":"安和路一段１５０巷２０弄２號","OBJECTID":126402},"geometry":{"x":169545.83999999985,"y":2547692.9500000011}},{"attributes":{"ID":126403,"DIS_CODE":0,"TOWNNAME":"安南區","LI":"安和里","LIN":"16鄰","STREET":"安和路","SECT":"一段","MAREA":" ","LANE":"１５０巷","ALLEY":"２０弄","HOUSE_NO":"３號","E_COORD97":169548.84,"N_COORD97":2547694.9399999999,"ADDRESS":"安和路一段１５０巷２０弄３號","OBJECTID":126403},"geometry":{"x":169548.84000000078,"y":2547694.9399999995}},{"attributes":{"ID":126404,"DIS_CODE":0,"TOWNNAME":"安南區","LI":"安和里","LIN":"16鄰","STREET":"安和路","SECT":"一段","MAREA":" ","LANE":"１５０巷","ALLEY":"２０弄","HOUSE_NO":"５號","E_COORD97":169556.32999999999,"N_COORD97":2547698.6800000002,"ADDRESS":"安和路一段１５０巷２０弄５號","OBJECTID":126404},"geometry":{"x":169556.33000000007,"y":2547698.6800000016}},{"attributes":{"ID":126405,"DIS_CODE":0,"TOWNNAME":"永康區","LI":"北灣里","LIN":"6鄰","STREET":"大灣路","SECT":" ","MAREA":" ","LANE":" ","ALLEY":" ","HOUSE_NO":"１１３號","E_COORD97":175125.73000000001,"N_COORD97":2545552.02,"ADDRESS":"大灣路１１３號","OBJECTID":126405},"geometry":{"x":175125.73000000138,"y":2545552.0199999996}},{"attributes":{"ID":126406,"DIS_CODE":0,"TOWNNAME":"東區","LI":"德光里","LIN":"5鄰","STREET":"崇明七街","SECT":" ","MAREA":" ","LANE":" ","ALLEY":" ","HOUSE_NO":"１３１號","E_COORD97":169905.16,"N_COORD97":2542242.5499999998,"ADDRESS":"崇明七街１３１號","OBJECTID":126406},"geometry":{"x":169905.16000000015,"y":2542242.5500000026}},{"attributes":{"ID":126407,"DIS_CODE":0,"TOWNNAME":"安南區","LI":"安和里","LIN":"16鄰","STREET":"安和路","SECT":"一段","MAREA":" ","LANE":"１５０巷","ALLEY":"２０弄","HOUSE_NO":"６號","E_COORD97":169559.82000000001,"N_COORD97":2547700.4300000002,"ADDRESS":"安和路一段１５０巷２０弄６號","OBJECTID":126407},"geometry":{"x":169559.82000000123,"y":2547700.4300000016}},{"attributes":{"ID":126408,"DIS_CODE":0,"TOWNNAME":"安南區","LI":"安和里","LIN":"16鄰","STREET":"安和路","SECT":"一段","MAREA":" ","LANE":"１５０巷","ALLEY":"２０弄","HOUSE_NO":"７號","E_COORD97":169564.31,"N_COORD97":2547698.9300000002,"ADDRESS":"安和路一段１５０巷２０弄７號","OBJECTID":126408},"geometry":{"x":169564.31000000052,"y":2547698.9299999997}},{"attributes":{"ID":126409,"DIS_CODE":0,"TOWNNAME":"安南區","LI":"安和里","LIN":"16鄰","STREET":"安和路","SECT":"一段","MAREA":" ","LANE":"１５０巷","ALLEY":"２０弄","HOUSE_NO":"８號","E_COORD97":169567.56,"N_COORD97":2547701.6800000002,"ADDRESS":"安和路一段１５０巷２０弄８號","OBJECTID":126409},"geometry":{"x":169567.56000000052,"y":2547701.6800000016}},{"attributes":{"ID":126410,"DIS_CODE":0,"TOWNNAME":"安南區","LI":"安和里","LIN":"16鄰","STREET":"安和路","SECT":"一段","MAREA":" ","LANE":"１５０巷","ALLEY":"２０弄","HOUSE_NO":"９號","E_COORD97":169570.29999999999,"N_COORD97":2547704.1699999999,"ADDRESS":"安和路一段１５０巷２０弄９號","OBJECTID":126410},"geometry":{"x":169570.29999999981,"y":2547704.1699999999}},{"attributes":{"ID":126411,"DIS_CODE":0,"TOWNNAME":"安平區","LI":"國平里","LIN":"16鄰","STREET":"華平路","SECT":" ","MAREA":" ","LANE":"２１巷","ALLEY":"１８弄","HOUSE_NO":"２７號","E_COORD97":165266.73000000001,"N_COORD97":2542869.23,"ADDRESS":"華平路２１巷１８弄２７號","OBJECTID":126411},"geometry":{"x":165266.73000000138,"y":2542869.2300000004}},{"attributes":{"ID":126412,"DIS_CODE":0,"TOWNNAME":"安平區","LI":"國平里","LIN":"16鄰","STREET":"華平路","SECT":" ","MAREA":" ","LANE":"２１巷","ALLEY":"１８弄","HOUSE_NO":"２１號","E_COORD97":165262.07999999999,"N_COORD97":2542850.8700000001,"ADDRESS":"華平路２１巷１８弄２１號","OBJECTID":126412},"geometry":{"x":165262.08000000101,"y":2542850.8700000029}},{"attributes":{"ID":126413,"DIS_CODE":0,"TOWNNAME":"佳里區","LI":"民安里","LIN":"6鄰","STREET":" ","SECT":" ","MAREA":"同安寮","LANE":" ","ALLEY":" ","HOUSE_NO":"６７號","E_COORD97":167363.95000000001,"N_COORD97":2562626.5499999998,"ADDRESS":"同安寮６７號","OBJECTID":126413},"geometry":{"x":167363.95000000019,"y":2562626.5500000007}},{"attributes":{"ID":126414,"DIS_CODE":0,"TOWNNAME":"佳里區","LI":"民安里","LIN":"6鄰","STREET":" ","SECT":" ","MAREA":"同安寮","LANE":" ","ALLEY":" ","HOUSE_NO":"７１號","E_COORD97":167374.22,"N_COORD97":2562663.2999999998,"ADDRESS":"同安寮７１號","OBJECTID":126414},"geometry":{"x":167374.2200000016,"y":2562663.3000000045}},{"attributes":{"ID":126415,"DIS_CODE":0,"TOWNNAME":"佳里區","LI":"民安里","LIN":"6鄰","STREET":" ","SECT":" ","MAREA":"同安寮","LANE":" ","ALLEY":" ","HOUSE_NO":"７２號之１０","E_COORD97":167219.32000000001,"N_COORD97":2562715.2400000002,"ADDRESS":"同安寮７２號之１０","OBJECTID":126415},"geometry":{"x":167219.3200000003,"y":2562715.2400000021}},{"attributes":{"ID":126416,"DIS_CODE":0,"TOWNNAME":"佳里區","LI":"民安里","LIN":"6鄰","STREET":" ","SECT":" ","MAREA":"同安寮","LANE":" ","ALLEY":" ","HOUSE_NO":"７２號之１１","E_COORD97":167011.03,"N_COORD97":2562781.7799999998,"ADDRESS":"同安寮７２號之１１","OBJECTID":126416},"geometry":{"x":167011.03000000026,"y":2562781.7800000012}},{"attributes":{"ID":126417,"DIS_CODE":0,"TOWNNAME":"佳里區","LI":"民安里","LIN":"6鄰","STREET":" ","SECT":" ","MAREA":"同安寮","LANE":" ","ALLEY":" ","HOUSE_NO":"７２號之１２","E_COORD97":167008.13,"N_COORD97":2562774.54,"ADDRESS":"同安寮７２號之１２","OBJECTID":126417},"geometry":{"x":167008.12999999989,"y":2562774.5399999991}},{"attributes":{"ID":126418,"DIS_CODE":0,"TOWNNAME":"佳里區","LI":"民安里","LIN":"6鄰","STREET":" ","SECT":" ","MAREA":"同安寮","LANE":" ","ALLEY":" ","HOUSE_NO":"７２號之１４","E_COORD97":167389.70999999999,"N_COORD97":2562886.4199999999,"ADDRESS":"同安寮７２號之１４","OBJECTID":126418},"geometry":{"x":167389.71000000183,"y":2562886.4200000018}},{"attributes":{"ID":126419,"DIS_CODE":0,"TOWNNAME":"佳里區","LI":"民安里","LIN":"6鄰","STREET":" ","SECT":" ","MAREA":"同安寮","LANE":" ","ALLEY":" ","HOUSE_NO":"７２號之１５","E_COORD97":167118.04999999999,"N_COORD97":2562799.52,"ADDRESS":"同安寮７２號之１５","OBJECTID":126419},"geometry":{"x":167118.05000000075,"y":2562799.5200000033}},{"attributes":{"ID":126420,"DIS_CODE":0,"TOWNNAME":"佳里區","LI":"民安里","LIN":"6鄰","STREET":" ","SECT":" ","MAREA":"同安寮","LANE":" ","ALLEY":" ","HOUSE_NO":"７２號之１７","E_COORD97":167053.07000000001,"N_COORD97":2562817.6899999999,"ADDRESS":"同安寮７２號之１７","OBJECTID":126420},"geometry":{"x":167053.0700000003,"y":2562817.6899999995}},{"attributes":{"ID":126421,"DIS_CODE":0,"TOWNNAME":"學甲區","LI":"大灣里","LIN":"4鄰","STREET":" ","SECT":" ","MAREA":"大灣","LANE":" ","ALLEY":" ","HOUSE_NO":"３５號","E_COORD97":166830.85999999999,"N_COORD97":2568131.4900000002,"ADDRESS":"大灣３５號","OBJECTID":126421},"geometry":{"x":166830.86000000034,"y":2568131.4900000021}},{"attributes":{"ID":126422,"DIS_CODE":0,"TOWNNAME":"佳里區","LI":"民安里","LIN":"6鄰","STREET":" ","SECT":" ","MAREA":"同安寮","LANE":" ","ALLEY":" ","HOUSE_NO":"７２號之１","E_COORD97":167307.70000000001,"N_COORD97":2562691.75,"ADDRESS":"同安寮７２號之１","OBJECTID":126422},"geometry":{"x":167307.70000000112,"y":2562691.75}},{"attributes":{"ID":126423,"DIS_CODE":0,"TOWNNAME":"佳里區","LI":"民安里","LIN":"6鄰","STREET":" ","SECT":" ","MAREA":"同安寮","LANE":" ","ALLEY":" ","HOUSE_NO":"７２號之３","E_COORD97":167019.12,"N_COORD97":2562794.6699999999,"ADDRESS":"同安寮７２號之３","OBJECTID":126423},"geometry":{"x":167019.11999999918,"y":2562794.6699999999}},{"attributes":{"ID":126424,"DIS_CODE":0,"TOWNNAME":"佳里區","LI":"民安里","LIN":"6鄰","STREET":" ","SECT":" ","MAREA":"同安寮","LANE":" ","ALLEY":" ","HOUSE_NO":"７２號之４","E_COORD97":166970.28,"N_COORD97":2562654.9900000002,"ADDRESS":"同安寮７２號之４","OBJECTID":126424},"geometry":{"x":166970.28000000026,"y":2562654.9900000021}},{"attributes":{"ID":126425,"DIS_CODE":0,"TOWNNAME":"佳里區","LI":"民安里","LIN":"6鄰","STREET":" ","SECT":" ","MAREA":"同安寮","LANE":" ","ALLEY":" ","HOUSE_NO":"７２號之５","E_COORD97":167004.95999999999,"N_COORD97":2562763.1699999999,"ADDRESS":"同安寮７２號之５","OBJECTID":126425},"geometry":{"x":167004.96000000183,"y":2562763.1700000018}},{"attributes":{"ID":126426,"DIS_CODE":0,"TOWNNAME":"佳里區","LI":"蚶寮里","LIN":"3鄰","STREET":" ","SECT":" ","MAREA":"蚶寮","LANE":" ","ALLEY":" ","HOUSE_NO":"２９號","E_COORD97":163806.67000000001,"N_COORD97":2558555.0800000001,"ADDRESS":"蚶寮２９號","OBJECTID":126426},"geometry":{"x":163806.67000000086,"y":2558555.0800000038}},{"attributes":{"ID":126427,"DIS_CODE":0,"TOWNNAME":"安平區","LI":"國平里","LIN":"16鄰","STREET":"華平路","SECT":" ","MAREA":" ","LANE":"２１巷","ALLEY":"１８弄","HOUSE_NO":"２３號","E_COORD97":165264.29999999999,"N_COORD97":2542857.73,"ADDRESS":"華平路２１巷１８弄２３號","OBJECTID":126427},"geometry":{"x":165264.29999999981,"y":2542857.7300000023}},{"attributes":{"ID":126428,"DIS_CODE":0,"TOWNNAME":"安南區","LI":"淵東里","LIN":"6鄰","STREET":"本原街","SECT":"三段","MAREA":" ","LANE":" ","ALLEY":" ","HOUSE_NO":"１７８號","E_COORD97":165483.89999999999,"N_COORD97":2550361.04,"ADDRESS":"本原街三段１７８號","OBJECTID":126428},"geometry":{"x":165483.9000000013,"y":2550361.040000001}},{"attributes":{"ID":126429,"DIS_CODE":0,"TOWNNAME":"安南區","LI":"學東里","LIN":"6鄰","STREET":"公學路","SECT":"七段","MAREA":" ","LANE":" ","ALLEY":" ","HOUSE_NO":"１６２之８２號","E_COORD97":161470.82999999999,"N_COORD97":2553597.1200000001,"ADDRESS":"公學路七段１６２之８２號","OBJECTID":126429},"geometry":{"x":161470.83000000007,"y":2553597.1200000029}},{"attributes":{"ID":126430,"DIS_CODE":0,"TOWNNAME":"安平區","LI":"國平里","LIN":"16鄰","STREET":"華平路","SECT":" ","MAREA":" ","LANE":"２１巷","ALLEY":"１８弄","HOUSE_NO":"２５號","E_COORD97":165265.92000000001,"N_COORD97":2542866.3999999999,"ADDRESS":"華平路２１巷１８弄２５號","OBJECTID":126430},"geometry":{"x":165265.92000000179,"y":2542866.4000000022}},{"attributes":{"ID":126431,"DIS_CODE":0,"TOWNNAME":"安平區","LI":"國平里","LIN":"16鄰","STREET":"華平路","SECT":" ","MAREA":" ","LANE":"２１巷","ALLEY":"１８弄","HOUSE_NO":"２９號","E_COORD97":165267.73999999999,"N_COORD97":2542875.2799999998,"ADDRESS":"華平路２１巷１８弄２９號","OBJECTID":126431},"geometry":{"x":165267.74000000115,"y":2542875.2799999993}},{"attributes":{"ID":126432,"DIS_CODE":0,"TOWNNAME":"安平區","LI":"國平里","LIN":"16鄰","STREET":"華平路","SECT":" ","MAREA":" ","LANE":"２１巷","ALLEY":"１８弄","HOUSE_NO":"３１號","E_COORD97":165268.14000000001,"N_COORD97":2542879.9199999999,"ADDRESS":"華平路２１巷１８弄３１號","OBJECTID":126432},"geometry":{"x":165268.1400000006,"y":2542879.9200000018}},{"attributes":{"ID":126433,"DIS_CODE":0,"TOWNNAME":"佳里區","LI":"民安里","LIN":"6鄰","STREET":" ","SECT":" ","MAREA":"同安寮","LANE":" ","ALLEY":" ","HOUSE_NO":"７５號","E_COORD97":167393.10000000001,"N_COORD97":2562713.21,"ADDRESS":"同安寮７５號","OBJECTID":126433},"geometry":{"x":167393.09999999963,"y":2562713.2100000028}},{"attributes":{"ID":126434,"DIS_CODE":0,"TOWNNAME":"佳里區","LI":"蚶寮里","LIN":"3鄰","STREET":" ","SECT":" ","MAREA":"蚶寮","LANE":" ","ALLEY":" ","HOUSE_NO":"３０號之１","E_COORD97":163793.42999999999,"N_COORD97":2558506.2599999998,"ADDRESS":"蚶寮３０號之１","OBJECTID":126434},"geometry":{"x":163793.4299999997,"y":2558506.2600000016}},{"attributes":{"ID":126435,"DIS_CODE":0,"TOWNNAME":"佳里區","LI":"蚶寮里","LIN":"3鄰","STREET":" ","SECT":" ","MAREA":"蚶寮","LANE":" ","ALLEY":" ","HOUSE_NO":"３０號之２","E_COORD97":163800.14999999999,"N_COORD97":2558505.4500000002,"ADDRESS":"蚶寮３０號之２","OBJECTID":126435},"geometry":{"x":163800.15000000224,"y":2558505.4500000011}},{"attributes":{"ID":126436,"DIS_CODE":0,"TOWNNAME":"佳里區","LI":"蚶寮里","LIN":"4鄰","STREET":" ","SECT":" ","MAREA":"蚶寮","LANE":" ","ALLEY":" ","HOUSE_NO":"４９號之２","E_COORD97":163625.81,"N_COORD97":2558486.8300000001,"ADDRESS":"蚶寮４９號之２","OBJECTID":126436},"geometry":{"x":163625.81000000052,"y":2558486.8300000019}},{"attributes":{"ID":126437,"DIS_CODE":0,"TOWNNAME":"佳里區","LI":"蚶寮里","LIN":"4鄰","STREET":" ","SECT":" ","MAREA":"蚶寮","LANE":" ","ALLEY":" ","HOUSE_NO":"４９號","E_COORD97":163625.84,"N_COORD97":2558452.9700000002,"ADDRESS":"蚶寮４９號","OBJECTID":126437},"geometry":{"x":163625.84000000078,"y":2558452.9700000007}},{"attributes":{"ID":126438,"DIS_CODE":0,"TOWNNAME":"佳里區","LI":"蚶寮里","LIN":"4鄰","STREET":" ","SECT":" ","MAREA":"蚶寮","LANE":" ","ALLEY":" ","HOUSE_NO":"５０號之２","E_COORD97":163627.04999999999,"N_COORD97":2558371.2599999998,"ADDRESS":"蚶寮５０號之２","OBJECTID":126438},"geometry":{"x":163627.04999999981,"y":2558371.2600000016}},{"attributes":{"ID":126439,"DIS_CODE":0,"TOWNNAME":"佳里區","LI":"蚶寮里","LIN":"4鄰","STREET":" ","SECT":" ","MAREA":"蚶寮","LANE":" ","ALLEY":" ","HOUSE_NO":"５０號之３","E_COORD97":163608.23000000001,"N_COORD97":2558260.1499999999,"ADDRESS":"蚶寮５０號之３","OBJECTID":126439},"geometry":{"x":163608.23000000138,"y":2558260.1500000022}},{"attributes":{"ID":126440,"DIS_CODE":0,"TOWNNAME":"佳里區","LI":"蚶寮里","LIN":"4鄰","STREET":" ","SECT":" ","MAREA":"蚶寮","LANE":" ","ALLEY":" ","HOUSE_NO":"５０號","E_COORD97":163601.81,"N_COORD97":2558370.3399999999,"ADDRESS":"蚶寮５０號","OBJECTID":126440},"geometry":{"x":163601.81000000052,"y":2558370.3400000017}},{"attributes":{"ID":126441,"DIS_CODE":0,"TOWNNAME":"佳里區","LI":"蚶寮里","LIN":"4鄰","STREET":" ","SECT":" ","MAREA":"蚶寮","LANE":" ","ALLEY":" ","HOUSE_NO":"５１號之１","E_COORD97":163583.17999999999,"N_COORD97":2558437.6699999999,"ADDRESS":"蚶寮５１號之１","OBJECTID":126441},"geometry":{"x":163583.1799999997,"y":2558437.6699999999}},{"attributes":{"ID":126442,"DIS_CODE":0,"TOWNNAME":"佳里區","LI":"蚶寮里","LIN":"4鄰","STREET":" ","SECT":" ","MAREA":"蚶寮","LANE":" ","ALLEY":" ","HOUSE_NO":"５１號","E_COORD97":163520.54999999999,"N_COORD97":2558474.4100000001,"ADDRESS":"蚶寮５１號","OBJECTID":126442},"geometry":{"x":163520.55000000168,"y":2558474.4100000001}},{"attributes":{"ID":126443,"DIS_CODE":0,"TOWNNAME":"佳里區","LI":"蚶寮里","LIN":"4鄰","STREET":" ","SECT":" ","MAREA":"蚶寮","LANE":" ","ALLEY":" ","HOUSE_NO":"５２號之２","E_COORD97":163373.57000000001,"N_COORD97":2558613.5899999999,"ADDRESS":"蚶寮５２號之２","OBJECTID":126443},"geometry":{"x":163373.57000000123,"y":2558613.5900000017}},{"attributes":{"ID":126444,"DIS_CODE":0,"TOWNNAME":"佳里區","LI":"蚶寮里","LIN":"4鄰","STREET":" ","SECT":" ","MAREA":"蚶寮","LANE":" ","ALLEY":" ","HOUSE_NO":"５２號","E_COORD97":163454.54000000001,"N_COORD97":2558504.46,"ADDRESS":"蚶寮５２號","OBJECTID":126444},"geometry":{"x":163454.53999999911,"y":2558504.4600000009}},{"attributes":{"ID":126445,"DIS_CODE":0,"TOWNNAME":"東區","LI":"德光里","LIN":"5鄰","STREET":"崇明六街","SECT":" ","MAREA":" ","LANE":" ","ALLEY":" ","HOUSE_NO":"８１號","E_COORD97":169861.94,"N_COORD97":2542278.5899999999,"ADDRESS":"崇明六街８１號","OBJECTID":126445},"geometry":{"x":169861.94000000227,"y":2542278.5900000017}},{"attributes":{"ID":126446,"DIS_CODE":0,"TOWNNAME":"東區","LI":"德光里","LIN":"5鄰","STREET":"崇明六街","SECT":" ","MAREA":" ","LANE":" ","ALLEY":" ","HOUSE_NO":"８３號","E_COORD97":169865.92000000001,"N_COORD97":2542279.8500000001,"ADDRESS":"崇明六街８３號","OBJECTID":126446},"geometry":{"x":169865.91999999993,"y":2542279.8500000015}},{"attributes":{"ID":126447,"DIS_CODE":0,"TOWNNAME":"東區","LI":"德光里","LIN":"5鄰","STREET":"崇明六街","SECT":" ","MAREA":" ","LANE":" ","ALLEY":" ","HOUSE_NO":"８５號","E_COORD97":169869.72,"N_COORD97":2542282.5699999998,"ADDRESS":"崇明六街８５號","OBJECTID":126447},"geometry":{"x":169869.72000000067,"y":2542282.5700000022}},{"attributes":{"ID":126448,"DIS_CODE":0,"TOWNNAME":"佳里區","LI":"蚶寮里","LIN":"1鄰","STREET":" ","SECT":" ","MAREA":"蚶寮","LANE":" ","ALLEY":" ","HOUSE_NO":"４號","E_COORD97":164008.28,"N_COORD97":2558482.8999999999,"ADDRESS":"蚶寮４號","OBJECTID":126448},"geometry":{"x":164008.28000000119,"y":2558482.9000000022}},{"attributes":{"ID":126449,"DIS_CODE":0,"TOWNNAME":"佳里區","LI":"蚶寮里","LIN":"6鄰","STREET":" ","SECT":" ","MAREA":"蚶寮","LANE":" ","ALLEY":" ","HOUSE_NO":"５３號之１","E_COORD97":163596.23000000001,"N_COORD97":2558675.5,"ADDRESS":"蚶寮５３號之１","OBJECTID":126449},"geometry":{"x":163596.23000000231,"y":2558675.5000000019}},{"attributes":{"ID":126450,"DIS_CODE":0,"TOWNNAME":"安平區","LI":"國平里","LIN":"16鄰","STREET":"華平路","SECT":" ","MAREA":" ","LANE":"２１巷","ALLEY":"１８弄","HOUSE_NO":"３３號","E_COORD97":165269.76000000001,"N_COORD97":2542884.3599999999,"ADDRESS":"華平路２１巷１８弄３３號","OBJECTID":126450},"geometry":{"x":165269.75999999978,"y":2542884.3599999994}},{"attributes":{"ID":126451,"DIS_CODE":0,"TOWNNAME":"安平區","LI":"國平里","LIN":"16鄰","STREET":"華平路","SECT":" ","MAREA":" ","LANE":"２１巷","ALLEY":"１８弄","HOUSE_NO":"３５號","E_COORD97":165270.97,"N_COORD97":2542888.2000000002,"ADDRESS":"華平路２１巷１８弄３５號","OBJECTID":126451},"geometry":{"x":165270.97000000067,"y":2542888.1999999993}},{"attributes":{"ID":126452,"DIS_CODE":0,"TOWNNAME":"安平區","LI":"國平里","LIN":"16鄰","STREET":"華平路","SECT":" ","MAREA":" ","LANE":"２１巷","ALLEY":"１８弄","HOUSE_NO":"３７號","E_COORD97":165271.45999999999,"N_COORD97":2542893.96,"ADDRESS":"華平路２１巷１８弄３７號","OBJECTID":126452},"geometry":{"x":165271.46000000089,"y":2542893.9600000028}},{"attributes":{"ID":126453,"DIS_CODE":0,"TOWNNAME":"佳里區","LI":"蚶寮里","LIN":"6鄰","STREET":" ","SECT":" ","MAREA":"蚶寮","LANE":" ","ALLEY":" ","HOUSE_NO":"５３號","E_COORD97":163601.19,"N_COORD97":2558659.3799999999,"ADDRESS":"蚶寮５３號","OBJECTID":126453},"geometry":{"x":163601.19000000041,"y":2558659.379999999}},{"attributes":{"ID":126454,"DIS_CODE":0,"TOWNNAME":"佳里區","LI":"蚶寮里","LIN":"6鄰","STREET":" ","SECT":" ","MAREA":"蚶寮","LANE":" ","ALLEY":" ","HOUSE_NO":"５４號之１２","E_COORD97":163567.64999999999,"N_COORD97":2558750.3999999999,"ADDRESS":"蚶寮５４號之１２","OBJECTID":126454},"geometry":{"x":163567.65000000037,"y":2558750.4000000022}},{"attributes":{"ID":126455,"DIS_CODE":0,"TOWNNAME":"佳里區","LI":"蚶寮里","LIN":"6鄰","STREET":" ","SECT":" ","MAREA":"蚶寮","LANE":" ","ALLEY":" ","HOUSE_NO":"５４號之１","E_COORD97":163574.98000000001,"N_COORD97":2558748.5299999998,"ADDRESS":"蚶寮５４號之１","OBJECTID":126455},"geometry":{"x":163574.98000000138,"y":2558748.5300000012}},{"attributes":{"ID":126456,"DIS_CODE":0,"TOWNNAME":"佳里區","LI":"蚶寮里","LIN":"6鄰","STREET":" ","SECT":" ","MAREA":"蚶寮","LANE":" ","ALLEY":" ","HOUSE_NO":"５４號之２","E_COORD97":163564.07000000001,"N_COORD97":2558764.3900000001,"ADDRESS":"蚶寮５４號之２","OBJECTID":126456},"geometry":{"x":163564.07000000123,"y":2558764.3900000025}},{"attributes":{"ID":126457,"DIS_CODE":0,"TOWNNAME":"佳里區","LI":"蚶寮里","LIN":"6鄰","STREET":" ","SECT":" ","MAREA":"蚶寮","LANE":" ","ALLEY":" ","HOUSE_NO":"５４號之４","E_COORD97":163617.73000000001,"N_COORD97":2558701.5,"ADDRESS":"蚶寮５４號之４","OBJECTID":126457},"geometry":{"x":163617.73000000045,"y":2558701.5000000019}},{"attributes":{"ID":126458,"DIS_CODE":0,"TOWNNAME":"佳里區","LI":"蚶寮里","LIN":"6鄰","STREET":" ","SECT":" ","MAREA":"蚶寮","LANE":" ","ALLEY":" ","HOUSE_NO":"５４號之５","E_COORD97":163620.10000000001,"N_COORD97":2558694.9300000002,"ADDRESS":"蚶寮５４號之５","OBJECTID":126458},"geometry":{"x":163620.10000000056,"y":2558694.9300000016}},{"attributes":{"ID":126459,"DIS_CODE":0,"TOWNNAME":"佳里區","LI":"蚶寮里","LIN":"6鄰","STREET":" ","SECT":" ","MAREA":"蚶寮","LANE":" ","ALLEY":" ","HOUSE_NO":"５４號之６","E_COORD97":163620.84,"N_COORD97":2558690.2200000002,"ADDRESS":"蚶寮５４號之６","OBJECTID":126459},"geometry":{"x":163620.84000000078,"y":2558690.2200000044}},{"attributes":{"ID":126460,"DIS_CODE":0,"TOWNNAME":"佳里區","LI":"蚶寮里","LIN":"6鄰","STREET":" ","SECT":" ","MAREA":"蚶寮","LANE":" ","ALLEY":" ","HOUSE_NO":"５４號之７","E_COORD97":163622.07000000001,"N_COORD97":2558685.2999999998,"ADDRESS":"蚶寮５４號之７","OBJECTID":126460},"geometry":{"x":163622.0700000003,"y":2558685.3000000007}},{"attributes":{"ID":126461,"DIS_CODE":0,"TOWNNAME":"佳里區","LI":"蚶寮里","LIN":"6鄰","STREET":" ","SECT":" ","MAREA":"蚶寮","LANE":" ","ALLEY":" ","HOUSE_NO":"５４號之８","E_COORD97":163622.97,"N_COORD97":2558680.3300000001,"ADDRESS":"蚶寮５４號之８","OBJECTID":126461},"geometry":{"x":163622.97000000067,"y":2558680.3300000019}},{"attributes":{"ID":126462,"DIS_CODE":0,"TOWNNAME":"七股區","LI":"竹橋里","LIN":"6鄰","STREET":" ","SECT":" ","MAREA":"竹橋","LANE":" ","ALLEY":" ","HOUSE_NO":"７６號","E_COORD97":164014.82999999999,"N_COORD97":2555836.23,"ADDRESS":"竹橋７６號","OBJECTID":126462},"geometry":{"x":164014.83000000007,"y":2555836.2300000023}},{"attributes":{"ID":126463,"DIS_CODE":0,"TOWNNAME":"七股區","LI":"竹橋里","LIN":"6鄰","STREET":" ","SECT":" ","MAREA":"竹橋","LANE":" ","ALLEY":" ","HOUSE_NO":"７８號","E_COORD97":164019.04000000001,"N_COORD97":2555867.6400000001,"ADDRESS":"竹橋７８號","OBJECTID":126463},"geometry":{"x":164019.03999999911,"y":2555867.6400000025}},{"attributes":{"ID":126464,"DIS_CODE":0,"TOWNNAME":"七股區","LI":"竹橋里","LIN":"6鄰","STREET":" ","SECT":" ","MAREA":"竹橋","LANE":" ","ALLEY":" ","HOUSE_NO":"７９號","E_COORD97":164026.78,"N_COORD97":2555883.0800000001,"ADDRESS":"竹橋７９號","OBJECTID":126464},"geometry":{"x":164026.78000000119,"y":2555883.0799999982}},{"attributes":{"ID":126465,"DIS_CODE":0,"TOWNNAME":"七股區","LI":"竹橋里","LIN":"6鄰","STREET":" ","SECT":" ","MAREA":"竹橋","LANE":" ","ALLEY":" ","HOUSE_NO":"８１號","E_COORD97":164008.66,"N_COORD97":2555889.21,"ADDRESS":"竹橋８１號","OBJECTID":126465},"geometry":{"x":164008.66000000108,"y":2555889.2100000009}},{"attributes":{"ID":126466,"DIS_CODE":0,"TOWNNAME":"七股區","LI":"竹橋里","LIN":"6鄰","STREET":" ","SECT":" ","MAREA":"竹橋","LANE":" ","ALLEY":" ","HOUSE_NO":"８２號","E_COORD97":164004.12,"N_COORD97":2555913.4500000002,"ADDRESS":"竹橋８２號","OBJECTID":126466},"geometry":{"x":164004.12000000104,"y":2555913.4499999993}},{"attributes":{"ID":126467,"DIS_CODE":0,"TOWNNAME":"七股區","LI":"竹橋里","LIN":"6鄰","STREET":" ","SECT":" ","MAREA":"竹橋","LANE":" ","ALLEY":" ","HOUSE_NO":"８３號","E_COORD97":164042.29000000001,"N_COORD97":2555890.1800000002,"ADDRESS":"竹橋８３號","OBJECTID":126467},"geometry":{"x":164042.29000000004,"y":2555890.1800000016}},{"attributes":{"ID":126468,"DIS_CODE":0,"TOWNNAME":"佳里區","LI":"蚶寮里","LIN":"6鄰","STREET":" ","SECT":" ","MAREA":"蚶寮","LANE":" ","ALLEY":" ","HOUSE_NO":"５４號之９","E_COORD97":163587.14999999999,"N_COORD97":2558721.0699999998,"ADDRESS":"蚶寮５４號之９","OBJECTID":126468},"geometry":{"x":163587.1500000013,"y":2558721.0700000003}},{"attributes":{"ID":126469,"DIS_CODE":0,"TOWNNAME":"佳里區","LI":"蚶寮里","LIN":"6鄰","STREET":" ","SECT":" ","MAREA":"蚶寮","LANE":" ","ALLEY":" ","HOUSE_NO":"５４號","E_COORD97":163590.79999999999,"N_COORD97":2558696.4100000001,"ADDRESS":"蚶寮５４號","OBJECTID":126469},"geometry":{"x":163590.80000000075,"y":2558696.410000002}},{"attributes":{"ID":126470,"DIS_CODE":0,"TOWNNAME":"佳里區","LI":"蚶寮里","LIN":"6鄰","STREET":" ","SECT":" ","MAREA":"蚶寮","LANE":" ","ALLEY":" ","HOUSE_NO":"５５號之１","E_COORD97":163557.39999999999,"N_COORD97":2558701.7599999998,"ADDRESS":"蚶寮５５號之１","OBJECTID":126470},"geometry":{"x":163557.40000000037,"y":2558701.7599999998}},{"attributes":{"ID":126471,"DIS_CODE":0,"TOWNNAME":"佳里區","LI":"蚶寮里","LIN":"8鄰","STREET":" ","SECT":" ","MAREA":"蚶寮","LANE":" ","ALLEY":" ","HOUSE_NO":"７８號","E_COORD97":163204.73999999999,"N_COORD97":2558817.0499999998,"ADDRESS":"蚶寮７８號","OBJECTID":126471},"geometry":{"x":163204.74000000115,"y":2558817.0500000045}},{"attributes":{"ID":126472,"DIS_CODE":0,"TOWNNAME":"佳里區","LI":"頂\u25A0里","LIN":"4鄰","STREET":" ","SECT":" ","MAREA":"頂\u25A0","LANE":" ","ALLEY":" ","HOUSE_NO":"３８號","E_COORD97":163147.75,"N_COORD97":2563727.5499999998,"ADDRESS":"頂\u25A0３８號","OBJECTID":126472},"geometry":{"x":163147.75,"y":2563727.5500000026}},{"attributes":{"ID":126473,"DIS_CODE":0,"TOWNNAME":"佳里區","LI":"頂\u25A0里","LIN":"4鄰","STREET":" ","SECT":" ","MAREA":"頂\u25A0","LANE":" ","ALLEY":" ","HOUSE_NO":"３９號","E_COORD97":163166.23999999999,"N_COORD97":2563735.3500000001,"ADDRESS":"頂\u25A0３９號","OBJECTID":126473},"geometry":{"x":163166.24000000022,"y":2563735.3499999996}},{"attributes":{"ID":126474,"DIS_CODE":0,"TOWNNAME":"佳里區","LI":"頂\u25A0里","LIN":"4鄰","STREET":" ","SECT":" ","MAREA":"頂\u25A0","LANE":" ","ALLEY":" ","HOUSE_NO":"４０號","E_COORD97":163148.70000000001,"N_COORD97":2563754.9100000001,"ADDRESS":"頂\u25A0４０號","OBJECTID":126474},"geometry":{"x":163148.70000000205,"y":2563754.910000002}},{"attributes":{"ID":126475,"DIS_CODE":0,"TOWNNAME":"佳里區","LI":"頂\u25A0里","LIN":"4鄰","STREET":" ","SECT":" ","MAREA":"頂\u25A0","LANE":" ","ALLEY":" ","HOUSE_NO":"４１號","E_COORD97":163150.79999999999,"N_COORD97":2563768.02,"ADDRESS":"頂\u25A0４１號","OBJECTID":126475},"geometry":{"x":163150.79999999888,"y":2563768.0199999996}},{"attributes":{"ID":126476,"DIS_CODE":0,"TOWNNAME":"佳里區","LI":"頂\u25A0里","LIN":"4鄰","STREET":" ","SECT":" ","MAREA":"頂\u25A0","LANE":" ","ALLEY":" ","HOUSE_NO":"４２號","E_COORD97":163165.04999999999,"N_COORD97":2563757.1699999999,"ADDRESS":"頂\u25A0４２號","OBJECTID":126476},"geometry":{"x":163165.05000000075,"y":2563757.1699999999}},{"attributes":{"ID":126477,"DIS_CODE":0,"TOWNNAME":"佳里區","LI":"頂\u25A0里","LIN":"4鄰","STREET":" ","SECT":" ","MAREA":"頂\u25A0","LANE":" ","ALLEY":" ","HOUSE_NO":"４４號","E_COORD97":163186.67999999999,"N_COORD97":2563773.6800000002,"ADDRESS":"頂\u25A0４４號","OBJECTID":126477},"geometry":{"x":163186.6799999997,"y":2563773.6799999997}},{"attributes":{"ID":126478,"DIS_CODE":0,"TOWNNAME":"佳里區","LI":"頂\u25A0里","LIN":"4鄰","STREET":" ","SECT":" ","MAREA":"頂\u25A0","LANE":" ","ALLEY":" ","HOUSE_NO":"４５號","E_COORD97":163183.95999999999,"N_COORD97":2563751.2599999998,"ADDRESS":"頂\u25A0４５號","OBJECTID":126478},"geometry":{"x":163183.96000000183,"y":2563751.2600000016}},{"attributes":{"ID":126479,"DIS_CODE":0,"TOWNNAME":"佳里區","LI":"頂\u25A0里","LIN":"4鄰","STREET":" ","SECT":" ","MAREA":"頂\u25A0","LANE":" ","ALLEY":" ","HOUSE_NO":"４６號","E_COORD97":163205.09,"N_COORD97":2563759.75,"ADDRESS":"頂\u25A0４６號","OBJECTID":126479},"geometry":{"x":163205.09000000078,"y":2563759.75}},{"attributes":{"ID":126480,"DIS_CODE":0,"TOWNNAME":"安平區","LI":"國平里","LIN":"16鄰","STREET":"華平路","SECT":" ","MAREA":" ","LANE":"２１巷","ALLEY":"１８弄","HOUSE_NO":"３９號","E_COORD97":165272.07000000001,"N_COORD97":2542898.1899999999,"ADDRESS":"華平路２１巷１８弄３９號","OBJECTID":126480},"geometry":{"x":165272.07000000216,"y":2542898.1900000013}},{"attributes":{"ID":126481,"DIS_CODE":0,"TOWNNAME":"安平區","LI":"國平里","LIN":"16鄰","STREET":"華平路","SECT":" ","MAREA":" ","LANE":"２１巷","ALLEY":"３２弄","HOUSE_NO":"１８號","E_COORD97":165229.32000000001,"N_COORD97":2542866.3799999999,"ADDRESS":"華平路２１巷３２弄１８號","OBJECTID":126481},"geometry":{"x":165229.3200000003,"y":2542866.379999999}},{"attributes":{"ID":126482,"DIS_CODE":0,"TOWNNAME":"安平區","LI":"國平里","LIN":"16鄰","STREET":"華平路","SECT":" ","MAREA":" ","LANE":"２１巷","ALLEY":"３２弄","HOUSE_NO":"２０號","E_COORD97":165228.31,"N_COORD97":2542858.71,"ADDRESS":"華平路２１巷３２弄２０號","OBJECTID":126482},"geometry":{"x":165228.30999999959,"y":2542858.7100000028}},{"attributes":{"ID":126483,"DIS_CODE":0,"TOWNNAME":"佳里區","LI":"頂\u25A0里","LIN":"4鄰","STREET":" ","SECT":" ","MAREA":"頂\u25A0","LANE":" ","ALLEY":" ","HOUSE_NO":"４７號","E_COORD97":163223,"N_COORD97":2563770.5800000001,"ADDRESS":"頂\u25A0４７號","OBJECTID":126483},"geometry":{"x":163223.00000000093,"y":2563770.5800000019}},{"attributes":{"ID":126484,"DIS_CODE":0,"TOWNNAME":"安平區","LI":"國平里","LIN":"16鄰","STREET":"華平路","SECT":" ","MAREA":" ","LANE":"２１巷","ALLEY":"１８弄","HOUSE_NO":"１３號","E_COORD97":165257.82999999999,"N_COORD97":2542827.77,"ADDRESS":"華平路２１巷１８弄１３號","OBJECTID":126484},"geometry":{"x":165257.83000000007,"y":2542827.7699999996}},{"attributes":{"ID":126485,"DIS_CODE":0,"TOWNNAME":"六甲區","LI":"水林里","LIN":"16鄰","STREET":"中山路","SECT":" ","MAREA":" ","LANE":"８０巷","ALLEY":"２７弄","HOUSE_NO":"１４之１號","E_COORD97":183391.64908900001,"N_COORD97":2570165.09026,"ADDRESS":"中山路８０巷２７弄１４之１號","OBJECTID":126485},"geometry":{"x":183391.64908900112,"y":2570165.090261003}},{"attributes":{"ID":126486,"DIS_CODE":0,"TOWNNAME":"六甲區","LI":"水林里","LIN":"16鄰","STREET":"中山路","SECT":" ","MAREA":" ","LANE":"８０巷","ALLEY":"２７弄","HOUSE_NO":"１５號","E_COORD97":183374.12,"N_COORD97":2570169.8599999999,"ADDRESS":"中山路８０巷２７弄１５號","OBJECTID":126486},"geometry":{"x":183374.12000000011,"y":2570169.8599999994}},{"attributes":{"ID":126487,"DIS_CODE":0,"TOWNNAME":"六甲區","LI":"水林里","LIN":"16鄰","STREET":"中山路","SECT":" ","MAREA":" ","LANE":"８０巷","ALLEY":"２７弄","HOUSE_NO":"１６號","E_COORD97":183392.35999999999,"N_COORD97":2570168.3500000001,"ADDRESS":"中山路８０巷２７弄１６號","OBJECTID":126487},"geometry":{"x":183392.36000000127,"y":2570168.3500000034}},{"attributes":{"ID":126488,"DIS_CODE":0,"TOWNNAME":"六甲區","LI":"水林里","LIN":"16鄰","STREET":"中山路","SECT":" ","MAREA":" ","LANE":"８０巷","ALLEY":"２７弄","HOUSE_NO":"１７號","E_COORD97":183376.85000000001,"N_COORD97":2570185.4199999999,"ADDRESS":"中山路８０巷２７弄１７號","OBJECTID":126488},"geometry":{"x":183376.84999999963,"y":2570185.4200000018}},{"attributes":{"ID":126489,"DIS_CODE":0,"TOWNNAME":"六甲區","LI":"水林里","LIN":"16鄰","STREET":"中山路","SECT":" ","MAREA":" ","LANE":"８０巷","ALLEY":"２７弄","HOUSE_NO":"１８號","E_COORD97":183392.91,"N_COORD97":2570172.71,"ADDRESS":"中山路８０巷２７弄１８號","OBJECTID":126489},"geometry":{"x":183392.91000000201,"y":2570172.7100000009}},{"attributes":{"ID":126490,"DIS_CODE":0,"TOWNNAME":"六甲區","LI":"水林里","LIN":"16鄰","STREET":"中山路","SECT":" ","MAREA":" ","LANE":"８０巷","ALLEY":"２７弄","HOUSE_NO":"２４號","E_COORD97":183394.63,"N_COORD97":2570180.6600000001,"ADDRESS":"中山路８０巷２７弄２４號","OBJECTID":126490},"geometry":{"x":183394.63000000082,"y":2570180.660000002}},{"attributes":{"ID":126491,"DIS_CODE":0,"TOWNNAME":"六甲區","LI":"水林里","LIN":"16鄰","STREET":"中山路","SECT":" ","MAREA":" ","LANE":"８０巷","ALLEY":"２７弄","HOUSE_NO":"２５號","E_COORD97":183383.92999999999,"N_COORD97":2570203.0099999998,"ADDRESS":"中山路８０巷２７弄２５號","OBJECTID":126491},"geometry":{"x":183383.93000000063,"y":2570203.0099999998}},{"attributes":{"ID":126492,"DIS_CODE":0,"TOWNNAME":"六甲區","LI":"水林里","LIN":"16鄰","STREET":"中山路","SECT":" ","MAREA":" ","LANE":"８０巷","ALLEY":"２７弄","HOUSE_NO":"２８號","E_COORD97":183396.22,"N_COORD97":2570193.4199999999,"ADDRESS":"中山路８０巷２７弄２８號","OBJECTID":126492},"geometry":{"x":183396.21999999974,"y":2570193.4199999999}},{"attributes":{"ID":126493,"DIS_CODE":0,"TOWNNAME":"六甲區","LI":"水林里","LIN":"16鄰","STREET":"中山路","SECT":" ","MAREA":" ","LANE":"８０巷","ALLEY":"２７弄","HOUSE_NO":"３０號","E_COORD97":183396.88,"N_COORD97":2570200.25,"ADDRESS":"中山路８０巷２７弄３０號","OBJECTID":126493},"geometry":{"x":183396.88000000082,"y":2570200.2500000019}},{"attributes":{"ID":126494,"DIS_CODE":0,"TOWNNAME":"六甲區","LI":"水林里","LIN":"16鄰","STREET":"中山路","SECT":" ","MAREA":" ","LANE":"８０巷","ALLEY":"２７弄","HOUSE_NO":"３９號","E_COORD97":183353.17000000001,"N_COORD97":2570208.1200000001,"ADDRESS":"中山路８０巷２７弄３９號","OBJECTID":126494},"geometry":{"x":183353.16999999993,"y":2570208.120000001}},{"attributes":{"ID":126495,"DIS_CODE":0,"TOWNNAME":"六甲區","LI":"水林里","LIN":"16鄰","STREET":"中山路","SECT":" ","MAREA":" ","LANE":"８０巷","ALLEY":"２７弄","HOUSE_NO":"４１號","E_COORD97":183355.53,"N_COORD97":2570214,"ADDRESS":"中山路８０巷２７弄４１號","OBJECTID":126495},"geometry":{"x":183355.53000000119,"y":2570214}},{"attributes":{"ID":126496,"DIS_CODE":0,"TOWNNAME":"六甲區","LI":"水林里","LIN":"16鄰","STREET":"中山路","SECT":" ","MAREA":" ","LANE":"８０巷","ALLEY":"２７弄","HOUSE_NO":"４５號","E_COORD97":183361.95999999999,"N_COORD97":2570230.5600000001,"ADDRESS":"中山路８０巷２７弄４５號","OBJECTID":126496},"geometry":{"x":183361.96000000089,"y":2570230.5600000005}},{"attributes":{"ID":126497,"DIS_CODE":0,"TOWNNAME":"六甲區","LI":"水林里","LIN":"16鄰","STREET":"中山路","SECT":" ","MAREA":" ","LANE":"８０巷","ALLEY":"２７弄","HOUSE_NO":"４９之１號","E_COORD97":183364.37,"N_COORD97":2570248.5899999999,"ADDRESS":"中山路８０巷２７弄４９之１號","OBJECTID":126497},"geometry":{"x":183364.37000000104,"y":2570248.5900000017}},{"attributes":{"ID":126498,"DIS_CODE":0,"TOWNNAME":"六甲區","LI":"水林里","LIN":"16鄰","STREET":"中山路","SECT":" ","MAREA":" ","LANE":"８０巷","ALLEY":"２７弄","HOUSE_NO":"４９號","E_COORD97":183370.69,"N_COORD97":2570245.9100000001,"ADDRESS":"中山路８０巷２７弄４９號","OBJECTID":126498},"geometry":{"x":183370.69000000041,"y":2570245.9100000001}},{"attributes":{"ID":126499,"DIS_CODE":0,"TOWNNAME":"六甲區","LI":"水林里","LIN":"16鄰","STREET":"中山路","SECT":" ","MAREA":" ","LANE":"８０巷","ALLEY":"２７弄","HOUSE_NO":"５１號","E_COORD97":183352.57000000001,"N_COORD97":2570260.3900000001,"ADDRESS":"中山路８０巷２７弄５１號","OBJECTID":126499},"geometry":{"x":183352.5700000003,"y":2570260.3900000043}},{"attributes":{"ID":126500,"DIS_CODE":0,"TOWNNAME":"六甲區","LI":"水林里","LIN":"16鄰","STREET":"中山路","SECT":" ","MAREA":" ","LANE":"８０巷","ALLEY":"２７弄","HOUSE_NO":"５２號","E_COORD97":183358.87,"N_COORD97":2570288.96,"ADDRESS":"中山路８０巷２７弄５２號","OBJECTID":126500},"geometry":{"x":183358.87000000011,"y":2570288.9600000028}},{"attributes":{"ID":126501,"DIS_CODE":0,"TOWNNAME":"七股區","LI":"西寮里","LIN":"6鄰","STREET":" ","SECT":" ","MAREA":"西寮","LANE":" ","ALLEY":" ","HOUSE_NO":"５３號之１１","E_COORD97":157333.63,"N_COORD97":2563646.4100000001,"ADDRESS":"西寮５３號之１１","OBJECTID":126501},"geometry":{"x":157333.62999999989,"y":2563646.410000002}},{"attributes":{"ID":126502,"DIS_CODE":0,"TOWNNAME":"七股區","LI":"西寮里","LIN":"6鄰","STREET":" ","SECT":" ","MAREA":"西寮","LANE":" ","ALLEY":" ","HOUSE_NO":"５３號之１","E_COORD97":157373.12,"N_COORD97":2563633,"ADDRESS":"西寮５３號之１","OBJECTID":126502},"geometry":{"x":157373.12000000011,"y":2563633}},{"attributes":{"ID":126503,"DIS_CODE":0,"TOWNNAME":"七股區","LI":"看坪里","LIN":"6鄰","STREET":" ","SECT":" ","MAREA":"看坪","LANE":" ","ALLEY":" ","HOUSE_NO":"３８號","E_COORD97":162813.14000000001,"N_COORD97":2558668.8399999999,"ADDRESS":"看坪３８號","OBJECTID":126503},"geometry":{"x":162813.1400000006,"y":2558668.8400000017}},{"attributes":{"ID":126504,"DIS_CODE":0,"TOWNNAME":"七股區","LI":"溪南里","LIN":"6鄰","STREET":" ","SECT":" ","MAREA":"溪南","LANE":" ","ALLEY":" ","HOUSE_NO":"５５號","E_COORD97":158597.51999999999,"N_COORD97":2557710.4199999999,"ADDRESS":"溪南５５號","OBJECTID":126504},"geometry":{"x":158597.52000000142,"y":2557710.4199999999}},{"attributes":{"ID":126505,"DIS_CODE":0,"TOWNNAME":"七股區","LI":"溪南里","LIN":"6鄰","STREET":" ","SECT":" ","MAREA":"溪南","LANE":" ","ALLEY":" ","HOUSE_NO":"５７號","E_COORD97":158318.14000000001,"N_COORD97":2557039.8900000001,"ADDRESS":"溪南５７號","OBJECTID":126505},"geometry":{"x":158318.13999999966,"y":2557039.8900000006}},{"attributes":{"ID":126506,"DIS_CODE":0,"TOWNNAME":"中西區","LI":"進學里","LIN":"6鄰","STREET":"永福路","SECT":"一段","MAREA":" ","LANE":" ","ALLEY":" ","HOUSE_NO":"１２之１號","E_COORD97":167999.23000000001,"N_COORD97":2542897.5600000001,"ADDRESS":"永福路一段１２之１號","OBJECTID":126506},"geometry":{"x":167999.23000000138,"y":2542897.5600000005}},{"attributes":{"ID":126507,"DIS_CODE":0,"TOWNNAME":"中西區","LI":"郡西里","LIN":"6鄰","STREET":"大智街","SECT":" ","MAREA":" ","LANE":" ","ALLEY":" ","HOUSE_NO":"１０１號之７","E_COORD97":167304.64999999999,"N_COORD97":2543362.3900000001,"ADDRESS":"大智街１０１號之７","OBJECTID":126507},"geometry":{"x":167304.6500000013,"y":2543362.3900000025}},{"attributes":{"ID":126508,"DIS_CODE":0,"TOWNNAME":"安南區","LI":"城西里","LIN":"6鄰","STREET":"城西街","SECT":"三段","MAREA":" ","LANE":" ","ALLEY":" ","HOUSE_NO":"４７１號","E_COORD97":157234.31,"N_COORD97":2550853.8999999999,"ADDRESS":"城西街三段４７１號","OBJECTID":126508},"geometry":{"x":157234.30999999866,"y":2550853.9000000022}},{"attributes":{"ID":126509,"DIS_CODE":0,"TOWNNAME":"麻豆區","LI":"保安里","LIN":"6鄰","STREET":"興中路","SECT":" ","MAREA":" ","LANE":" ","ALLEY":" ","HOUSE_NO":"８９號","E_COORD97":173265.07999999999,"N_COORD97":2564830.6499999999,"ADDRESS":"興中路８９號","OBJECTID":126509},"geometry":{"x":173265.08000000101,"y":2564830.6500000041}},{"attributes":{"ID":126510,"DIS_CODE":0,"TOWNNAME":"安南區","LI":"城西里","LIN":"6鄰","STREET":"城西街","SECT":"三段","MAREA":" ","LANE":" ","ALLEY":" ","HOUSE_NO":"４３１之５７號","E_COORD97":157609.81,"N_COORD97":2550724.0699999998,"ADDRESS":"城西街三段４３１之５７號","OBJECTID":126510},"geometry":{"x":157609.81000000052,"y":2550724.0700000022}},{"attributes":{"ID":126511,"DIS_CODE":0,"TOWNNAME":"六甲區","LI":"水林里","LIN":"16鄰","STREET":"中山路","SECT":" ","MAREA":" ","LANE":"８０巷","ALLEY":"２７弄","HOUSE_NO":"５３號","E_COORD97":183346.73999999999,"N_COORD97":2570261.6699999999,"ADDRESS":"中山路８０巷２７弄５３號","OBJECTID":126511},"geometry":{"x":183346.74000000115,"y":2570261.6700000018}},{"attributes":{"ID":126512,"DIS_CODE":0,"TOWNNAME":"永康區","LI":"安康里","LIN":"25鄰","STREET":"中華路","SECT":" ","MAREA":" ","LANE":" ","ALLEY":" ","HOUSE_NO":"７１５號","E_COORD97":170879.82999999999,"N_COORD97":2546363.9900000002,"ADDRESS":"中華路７１５號","OBJECTID":126512},"geometry":{"x":170879.83000000101,"y":2546363.9900000039}},{"attributes":{"ID":126513,"DIS_CODE":0,"TOWNNAME":"六甲區","LI":"水林里","LIN":"16鄰","STREET":"中山路","SECT":" ","MAREA":" ","LANE":"８０巷","ALLEY":"２７弄","HOUSE_NO":"５５號","E_COORD97":183341.85000000001,"N_COORD97":2570263,"ADDRESS":"中山路８０巷２７弄５５號","OBJECTID":126513},"geometry":{"x":183341.85000000149,"y":2570263.0000000019}},{"attributes":{"ID":126514,"DIS_CODE":0,"TOWNNAME":"永康區","LI":"永康里","LIN":"38鄰","STREET":"永大路","SECT":"二段","MAREA":" ","LANE":" ","ALLEY":" ","HOUSE_NO":"１１６８號","E_COORD97":174382.16,"N_COORD97":2546666.5600000001,"ADDRESS":"永大路二段１１６８號","OBJECTID":126514},"geometry":{"x":174382.16000000015,"y":2546666.5600000024}},{"attributes":{"ID":126515,"DIS_CODE":0,"TOWNNAME":"永康區","LI":"永康里","LIN":"39鄰","STREET":"文化路","SECT":" ","MAREA":" ","LANE":" ","ALLEY":" ","HOUSE_NO":"３８號","E_COORD97":174297.62,"N_COORD97":2546360.0699999998,"ADDRESS":"文化路３８號","OBJECTID":126515},"geometry":{"x":174297.62000000011,"y":2546360.070000004}},{"attributes":{"ID":126516,"DIS_CODE":0,"TOWNNAME":"六甲區","LI":"水林里","LIN":"16鄰","STREET":"中山路","SECT":" ","MAREA":" ","LANE":"８０巷","ALLEY":"２７弄","HOUSE_NO":"５６號","E_COORD97":183349.89999999999,"N_COORD97":2570290.5499999998,"ADDRESS":"中山路８０巷２７弄５６號","OBJECTID":126516},"geometry":{"x":183349.90000000037,"y":2570290.5500000026}},{"attributes":{"ID":126517,"DIS_CODE":0,"TOWNNAME":"六甲區","LI":"水林里","LIN":"16鄰","STREET":"中山路","SECT":" ","MAREA":" ","LANE":"８０巷","ALLEY":"２７弄","HOUSE_NO":"８３號","E_COORD97":183330.88,"N_COORD97":2570156.4399999999,"ADDRESS":"中山路８０巷２７弄８３號","OBJECTID":126517},"geometry":{"x":183330.87999999989,"y":2570156.4399999995}},{"attributes":{"ID":126518,"DIS_CODE":0,"TOWNNAME":"東山區","LI":"聖賢里","LIN":"20鄰","STREET":" ","SECT":" ","MAREA":"頂窩","LANE":" ","ALLEY":" ","HOUSE_NO":"６７號","E_COORD97":183826.51999999999,"N_COORD97":2578687.46,"ADDRESS":"頂窩６７號","OBJECTID":126518},"geometry":{"x":183826.51999999955,"y":2578687.4600000009}},{"attributes":{"ID":126519,"DIS_CODE":0,"TOWNNAME":"六甲區","LI":"水林里","LIN":"16鄰","STREET":"中山路","SECT":" ","MAREA":" ","LANE":"８０巷","ALLEY":"２７弄","HOUSE_NO":"８５號","E_COORD97":183326.73000000001,"N_COORD97":2570157.3500000001,"ADDRESS":"中山路８０巷２７弄８５號","OBJECTID":126519},"geometry":{"x":183326.73000000138,"y":2570157.3499999996}},{"attributes":{"ID":126520,"DIS_CODE":0,"TOWNNAME":"六甲區","LI":"水林里","LIN":"16鄰","STREET":"中山路","SECT":" ","MAREA":" ","LANE":"８０巷","ALLEY":"２７弄","HOUSE_NO":"８７號","E_COORD97":183322.54999999999,"N_COORD97":2570158.5800000001,"ADDRESS":"中山路８０巷２７弄８７號","OBJECTID":126520},"geometry":{"x":183322.55000000075,"y":2570158.5800000001}},{"attributes":{"ID":126521,"DIS_CODE":0,"TOWNNAME":"六甲區","LI":"水林里","LIN":"16鄰","STREET":"中山路","SECT":" ","MAREA":" ","LANE":"８０巷","ALLEY":"２７弄","HOUSE_NO":"８９號","E_COORD97":183318.07000000001,"N_COORD97":2570159.6099999999,"ADDRESS":"中山路８０巷２７弄８９號","OBJECTID":126521},"geometry":{"x":183318.07000000123,"y":2570159.6100000013}},{"attributes":{"ID":126522,"DIS_CODE":0,"TOWNNAME":"六甲區","LI":"水林里","LIN":"16鄰","STREET":"中山路","SECT":" ","MAREA":" ","LANE":"８０巷","ALLEY":"２７弄","HOUSE_NO":"９１號","E_COORD97":183313.45999999999,"N_COORD97":2570145.7799999998,"ADDRESS":"中山路８０巷２７弄９１號","OBJECTID":126522},"geometry":{"x":183313.45999999996,"y":2570145.7800000012}},{"attributes":{"ID":126523,"DIS_CODE":0,"TOWNNAME":"六甲區","LI":"水林里","LIN":"16鄰","STREET":"中山路","SECT":" ","MAREA":" ","LANE":"８０巷","ALLEY":"２７弄","HOUSE_NO":"９３號","E_COORD97":183312.44,"N_COORD97":2570141.5499999998,"ADDRESS":"中山路８０巷２７弄９３號","OBJECTID":126523},"geometry":{"x":183312.44000000041,"y":2570141.5500000026}},{"attributes":{"ID":126524,"DIS_CODE":0,"TOWNNAME":"六甲區","LI":"水林里","LIN":"16鄰","STREET":"中山路","SECT":" ","MAREA":" ","LANE":"８０巷","ALLEY":"４６弄","HOUSE_NO":"５９號","E_COORD97":183336.42000000001,"N_COORD97":2570245.8300000001,"ADDRESS":"中山路８０巷４６弄５９號","OBJECTID":126524},"geometry":{"x":183336.41999999899,"y":2570245.8300000001}},{"attributes":{"ID":126525,"DIS_CODE":0,"TOWNNAME":"永康區","LI":"永康里","LIN":"39鄰","STREET":"永大一路","SECT":" ","MAREA":" ","LANE":" ","ALLEY":" ","HOUSE_NO":"６２號之８","E_COORD97":174145.17999999999,"N_COORD97":2546446.9700000002,"ADDRESS":"永大一路６２號之８","OBJECTID":126525},"geometry":{"x":174145.18000000063,"y":2546446.9700000025}},{"attributes":{"ID":126526,"DIS_CODE":0,"TOWNNAME":"將軍區","LI":"三吉里","LIN":"6鄰","STREET":" ","SECT":" ","MAREA":"三吉","LANE":" ","ALLEY":" ","HOUSE_NO":"４２之１號","E_COORD97":161095.98000000001,"N_COORD97":2567010.5299999998,"ADDRESS":"三吉４２之１號","OBJECTID":126526},"geometry":{"x":161095.98000000138,"y":2567010.5300000012}},{"attributes":{"ID":126527,"DIS_CODE":0,"TOWNNAME":"將軍區","LI":"三吉里","LIN":"6鄰","STREET":" ","SECT":" ","MAREA":"三吉","LANE":" ","ALLEY":" ","HOUSE_NO":"４２號","E_COORD97":161068.38,"N_COORD97":2567004.6400000001,"ADDRESS":"三吉４２號","OBJECTID":126527},"geometry":{"x":161068.37999999989,"y":2567004.6400000025}},{"attributes":{"ID":126528,"DIS_CODE":0,"TOWNNAME":"將軍區","LI":"三吉里","LIN":"6鄰","STREET":" ","SECT":" ","MAREA":"三吉","LANE":" ","ALLEY":" ","HOUSE_NO":"４３之１號","E_COORD97":161025.57000000001,"N_COORD97":2567016.77,"ADDRESS":"三吉４３之１號","OBJECTID":126528},"geometry":{"x":161025.57000000216,"y":2567016.7700000014}},{"attributes":{"ID":126529,"DIS_CODE":0,"TOWNNAME":"將軍區","LI":"三吉里","LIN":"6鄰","STREET":" ","SECT":" ","MAREA":"三吉","LANE":" ","ALLEY":" ","HOUSE_NO":"４３號","E_COORD97":161056.72,"N_COORD97":2567022.7000000002,"ADDRESS":"三吉４３號","OBJECTID":126529},"geometry":{"x":161056.72000000067,"y":2567022.700000003}},{"attributes":{"ID":126530,"DIS_CODE":0,"TOWNNAME":"將軍區","LI":"三吉里","LIN":"6鄰","STREET":" ","SECT":" ","MAREA":"三吉","LANE":" ","ALLEY":" ","HOUSE_NO":"４４號","E_COORD97":161038.48000000001,"N_COORD97":2566997.79,"ADDRESS":"三吉４４號","OBJECTID":126530},"geometry":{"x":161038.48000000138,"y":2566997.7899999972}},{"attributes":{"ID":126531,"DIS_CODE":0,"TOWNNAME":"六甲區","LI":"水林里","LIN":"16鄰","STREET":"中山路","SECT":" ","MAREA":" ","LANE":"８０巷","ALLEY":"４６弄","HOUSE_NO":"６１號","E_COORD97":183335.31,"N_COORD97":2570241.6000000001,"ADDRESS":"中山路８０巷４６弄６１號","OBJECTID":126531},"geometry":{"x":183335.31000000145,"y":2570241.6000000015}},{"attributes":{"ID":126532,"DIS_CODE":0,"TOWNNAME":"六甲區","LI":"水林里","LIN":"16鄰","STREET":"中山路","SECT":" ","MAREA":" ","LANE":"８０巷","ALLEY":"４６弄","HOUSE_NO":"６３號","E_COORD97":183334.23000000001,"N_COORD97":2570236.9900000002,"ADDRESS":"中山路８０巷４６弄６３號","OBJECTID":126532},"geometry":{"x":183334.23000000045,"y":2570236.9900000021}},{"attributes":{"ID":126533,"DIS_CODE":0,"TOWNNAME":"六甲區","LI":"水林里","LIN":"16鄰","STREET":"中山路","SECT":" ","MAREA":" ","LANE":"８０巷","ALLEY":"４６弄","HOUSE_NO":"６５號","E_COORD97":183333.42999999999,"N_COORD97":2570233.1299999999,"ADDRESS":"中山路８０巷４６弄６５號","OBJECTID":126533},"geometry":{"x":183333.43000000063,"y":2570233.1299999971}},{"attributes":{"ID":126534,"DIS_CODE":0,"TOWNNAME":"六甲區","LI":"水林里","LIN":"16鄰","STREET":"中山路","SECT":" ","MAREA":" ","LANE":"８０巷","ALLEY":"４６弄","HOUSE_NO":"６７號","E_COORD97":183332.22,"N_COORD97":2570229,"ADDRESS":"中山路８０巷４６弄６７號","OBJECTID":126534},"geometry":{"x":183332.21999999974,"y":2570229.0000000019}},{"attributes":{"ID":126535,"DIS_CODE":0,"TOWNNAME":"六甲區","LI":"水林里","LIN":"16鄰","STREET":"中山路","SECT":" ","MAREA":" ","LANE":"８０巷","ALLEY":"４６弄","HOUSE_NO":"６９號","E_COORD97":183331.09,"N_COORD97":2570224.7799999998,"ADDRESS":"中山路８０巷４６弄６９號","OBJECTID":126535},"geometry":{"x":183331.08999999985,"y":2570224.7799999993}},{"attributes":{"ID":126536,"DIS_CODE":0,"TOWNNAME":"東區","LI":"德光里","LIN":"6鄰","STREET":"崇明路","SECT":" ","MAREA":" ","LANE":" ","ALLEY":" ","HOUSE_NO":"１４１號","E_COORD97":169872.56,"N_COORD97":2542226.8399999999,"ADDRESS":"崇明路１４１號","OBJECTID":126536},"geometry":{"x":169872.56000000052,"y":2542226.8399999999}},{"attributes":{"ID":126537,"DIS_CODE":0,"TOWNNAME":"東區","LI":"德光里","LIN":"6鄰","STREET":"崇明路","SECT":" ","MAREA":" ","LANE":" ","ALLEY":" ","HOUSE_NO":"１４３號","E_COORD97":169876.98000000001,"N_COORD97":2542228.25,"ADDRESS":"崇明路１４３號","OBJECTID":126537},"geometry":{"x":169876.98000000231,"y":2542228.25}},{"attributes":{"ID":126538,"DIS_CODE":0,"TOWNNAME":"東區","LI":"德光里","LIN":"6鄰","STREET":"崇明路","SECT":" ","MAREA":" ","LANE":" ","ALLEY":" ","HOUSE_NO":"１４５號","E_COORD97":169881.57999999999,"N_COORD97":2542229.8399999999,"ADDRESS":"崇明路１４５號","OBJECTID":126538},"geometry":{"x":169881.58000000101,"y":2542229.8400000017}},{"attributes":{"ID":126539,"DIS_CODE":0,"TOWNNAME":"東區","LI":"德光里","LIN":"6鄰","STREET":"崇明路","SECT":" ","MAREA":" ","LANE":" ","ALLEY":" ","HOUSE_NO":"１４７號","E_COORD97":169886,"N_COORD97":2542231.0800000001,"ADDRESS":"崇明路１４７號","OBJECTID":126539},"geometry":{"x":169886,"y":2542231.0800000019}},{"attributes":{"ID":126540,"DIS_CODE":0,"TOWNNAME":"麻豆區","LI":"保安里","LIN":"6鄰","STREET":"興中路","SECT":" ","MAREA":" ","LANE":" ","ALLEY":" ","HOUSE_NO":"８３號","E_COORD97":173253.28,"N_COORD97":2564830.4900000002,"ADDRESS":"興中路８３號","OBJECTID":126540},"geometry":{"x":173253.28000000212,"y":2564830.4900000002}},{"attributes":{"ID":126541,"DIS_CODE":0,"TOWNNAME":"六甲區","LI":"水林里","LIN":"16鄰","STREET":"中山路","SECT":" ","MAREA":" ","LANE":"８０巷","ALLEY":"４６弄","HOUSE_NO":"７３號","E_COORD97":183328.88,"N_COORD97":2570216.2000000002,"ADDRESS":"中山路８０巷４６弄７３號","OBJECTID":126541},"geometry":{"x":183328.88000000082,"y":2570216.200000003}},{"attributes":{"ID":126542,"DIS_CODE":0,"TOWNNAME":"六甲區","LI":"水林里","LIN":"16鄰","STREET":"中山路","SECT":" ","MAREA":" ","LANE":"８０巷","ALLEY":"４６弄","HOUSE_NO":"７５號","E_COORD97":183326.04999999999,"N_COORD97":2570207.21,"ADDRESS":"中山路８０巷４６弄７５號","OBJECTID":126542},"geometry":{"x":183326.05000000075,"y":2570207.2100000009}},{"attributes":{"ID":126543,"DIS_CODE":0,"TOWNNAME":"六甲區","LI":"水林里","LIN":"16鄰","STREET":"中山路","SECT":" ","MAREA":" ","LANE":"８０巷","ALLEY":"４６弄","HOUSE_NO":"７７號","E_COORD97":183325.07000000001,"N_COORD97":2570203.0600000001,"ADDRESS":"中山路８０巷４６弄７７號","OBJECTID":126543},"geometry":{"x":183325.0700000003,"y":2570203.0600000024}},{"attributes":{"ID":126544,"DIS_CODE":0,"TOWNNAME":"六甲區","LI":"水林里","LIN":"16鄰","STREET":"中山路","SECT":" ","MAREA":" ","LANE":"８０巷","ALLEY":"４６弄","HOUSE_NO":"７９號","E_COORD97":183324.20999999999,"N_COORD97":2570198.8900000001,"ADDRESS":"中山路８０巷４６弄７９號","OBJECTID":126544},"geometry":{"x":183324.20999999996,"y":2570198.8900000006}},{"attributes":{"ID":126545,"DIS_CODE":0,"TOWNNAME":"麻豆區","LI":"保安里","LIN":"6鄰","STREET":"興中路","SECT":" ","MAREA":" ","LANE":" ","ALLEY":" ","HOUSE_NO":"８５號","E_COORD97":173257.29999999999,"N_COORD97":2564830.4700000002,"ADDRESS":"興中路８５號","OBJECTID":126545},"geometry":{"x":173257.29999999981,"y":2564830.4700000007}},{"attributes":{"ID":126546,"DIS_CODE":0,"TOWNNAME":"白河區","LI":"甘宅里","LIN":"6鄰","STREET":" ","SECT":" ","MAREA":"甘宅","LANE":" ","ALLEY":" ","HOUSE_NO":"６９之９號","E_COORD97":192626.70000000001,"N_COORD97":2586797.2999999998,"ADDRESS":"甘宅６９之９號","OBJECTID":126546},"geometry":{"x":192626.70000000112,"y":2586797.3000000026}},{"attributes":{"ID":126547,"DIS_CODE":0,"TOWNNAME":"白河區","LI":"甘宅里","LIN":"6鄰","STREET":" ","SECT":" ","MAREA":"甘宅","LANE":" ","ALLEY":" ","HOUSE_NO":"６９號","E_COORD97":192632.32000000001,"N_COORD97":2586849.1699999999,"ADDRESS":"甘宅６９號","OBJECTID":126547},"geometry":{"x":192632.32000000216,"y":2586849.1699999999}},{"attributes":{"ID":126548,"DIS_CODE":0,"TOWNNAME":"白河區","LI":"甘宅里","LIN":"6鄰","STREET":" ","SECT":" ","MAREA":"甘宅","LANE":" ","ALLEY":" ","HOUSE_NO":"５７號","E_COORD97":192557.70999999999,"N_COORD97":2586868.6800000002,"ADDRESS":"甘宅５７號","OBJECTID":126548},"geometry":{"x":192557.70999999996,"y":2586868.6799999997}},{"attributes":{"ID":126549,"DIS_CODE":0,"TOWNNAME":"白河區","LI":"甘宅里","LIN":"6鄰","STREET":" ","SECT":" ","MAREA":"甘宅","LANE":" ","ALLEY":" ","HOUSE_NO":"５８號","E_COORD97":192542.67999999999,"N_COORD97":2586849.9300000002,"ADDRESS":"甘宅５８號","OBJECTID":126549},"geometry":{"x":192542.6799999997,"y":2586849.9300000016}},{"attributes":{"ID":126550,"DIS_CODE":0,"TOWNNAME":"白河區","LI":"甘宅里","LIN":"6鄰","STREET":" ","SECT":" ","MAREA":"甘宅","LANE":" ","ALLEY":" ","HOUSE_NO":"５９號","E_COORD97":192554.26000000001,"N_COORD97":2586832.1099999999,"ADDRESS":"甘宅５９號","OBJECTID":126550},"geometry":{"x":192554.26000000164,"y":2586832.1099999994}},{"attributes":{"ID":126551,"DIS_CODE":0,"TOWNNAME":"白河區","LI":"甘宅里","LIN":"6鄰","STREET":" ","SECT":" ","MAREA":"甘宅","LANE":" ","ALLEY":" ","HOUSE_NO":"６１號","E_COORD97":192582.19,"N_COORD97":2586824.9900000002,"ADDRESS":"甘宅６１號","OBJECTID":126551},"geometry":{"x":192582.19000000041,"y":2586824.9900000021}},{"attributes":{"ID":126552,"DIS_CODE":0,"TOWNNAME":"白河區","LI":"甘宅里","LIN":"6鄰","STREET":" ","SECT":" ","MAREA":"甘宅","LANE":" ","ALLEY":" ","HOUSE_NO":"６２號","E_COORD97":192575.35999999999,"N_COORD97":2586850.8799999999,"ADDRESS":"甘宅６２號","OBJECTID":126552},"geometry":{"x":192575.36000000034,"y":2586850.879999999}},{"attributes":{"ID":126553,"DIS_CODE":0,"TOWNNAME":"白河區","LI":"甘宅里","LIN":"6鄰","STREET":" ","SECT":" ","MAREA":"甘宅","LANE":" ","ALLEY":" ","HOUSE_NO":"６３號","E_COORD97":192592.84,"N_COORD97":2586869.7000000002,"ADDRESS":"甘宅６３號","OBJECTID":126553},"geometry":{"x":192592.84000000171,"y":2586869.700000003}},{"attributes":{"ID":126554,"DIS_CODE":0,"TOWNNAME":"白河區","LI":"甘宅里","LIN":"6鄰","STREET":" ","SECT":" ","MAREA":"甘宅","LANE":" ","ALLEY":" ","HOUSE_NO":"６４之１號","E_COORD97":192602.92000000001,"N_COORD97":2586881.54,"ADDRESS":"甘宅６４之１號","OBJECTID":126554},"geometry":{"x":192602.92000000086,"y":2586881.540000001}},{"attributes":{"ID":126555,"DIS_CODE":0,"TOWNNAME":"白河區","LI":"甘宅里","LIN":"6鄰","STREET":" ","SECT":" ","MAREA":"甘宅","LANE":" ","ALLEY":" ","HOUSE_NO":"６４之３號","E_COORD97":192626.63,"N_COORD97":2586880.21,"ADDRESS":"甘宅６４之３號","OBJECTID":126555},"geometry":{"x":192626.63000000082,"y":2586880.2100000009}},{"attributes":{"ID":126556,"DIS_CODE":0,"TOWNNAME":"白河區","LI":"甘宅里","LIN":"6鄰","STREET":" ","SECT":" ","MAREA":"甘宅","LANE":" ","ALLEY":" ","HOUSE_NO":"６４號","E_COORD97":192614.66,"N_COORD97":2586863.1499999999,"ADDRESS":"甘宅６４號","OBJECTID":126556},"geometry":{"x":192614.66000000201,"y":2586863.1500000004}},{"attributes":{"ID":126557,"DIS_CODE":0,"TOWNNAME":"白河區","LI":"甘宅里","LIN":"6鄰","STREET":" ","SECT":" ","MAREA":"甘宅","LANE":" ","ALLEY":" ","HOUSE_NO":"６７號","E_COORD97":192614.04999999999,"N_COORD97":2586828.0499999998,"ADDRESS":"甘宅６７號","OBJECTID":126557},"geometry":{"x":192614.05000000075,"y":2586828.0499999989}},{"attributes":{"ID":126558,"DIS_CODE":0,"TOWNNAME":"白河區","LI":"甘宅里","LIN":"6鄰","STREET":" ","SECT":" ","MAREA":"甘宅","LANE":" ","ALLEY":" ","HOUSE_NO":"６８號","E_COORD97":192620.82999999999,"N_COORD97":2586841.5299999998,"ADDRESS":"甘宅６８號","OBJECTID":126558},"geometry":{"x":192620.83000000101,"y":2586841.5300000012}},{"attributes":{"ID":126559,"DIS_CODE":0,"TOWNNAME":"白河區","LI":"甘宅里","LIN":"6鄰","STREET":" ","SECT":" ","MAREA":"甘宅","LANE":" ","ALLEY":" ","HOUSE_NO":"６９之１０號","E_COORD97":192622.64000000001,"N_COORD97":2586795.8999999999,"ADDRESS":"甘宅６９之１０號","OBJECTID":126559},"geometry":{"x":192622.63999999873,"y":2586795.9000000022}},{"attributes":{"ID":126560,"DIS_CODE":0,"TOWNNAME":"白河區","LI":"甘宅里","LIN":"6鄰","STREET":" ","SECT":" ","MAREA":"甘宅","LANE":" ","ALLEY":" ","HOUSE_NO":"６９之５號","E_COORD97":192638.97,"N_COORD97":2586809.04,"ADDRESS":"甘宅６９之５號","OBJECTID":126560},"geometry":{"x":192638.96999999974,"y":2586809.0399999991}},{"attributes":{"ID":126561,"DIS_CODE":0,"TOWNNAME":"白河區","LI":"甘宅里","LIN":"6鄰","STREET":" ","SECT":" ","MAREA":"甘宅","LANE":" ","ALLEY":" ","HOUSE_NO":"６９之６號","E_COORD97":192635.14999999999,"N_COORD97":2586807.4399999999,"ADDRESS":"甘宅６９之６號","OBJECTID":126561},"geometry":{"x":192635.14999999944,"y":2586807.4400000032}},{"attributes":{"ID":126562,"DIS_CODE":0,"TOWNNAME":"白河區","LI":"甘宅里","LIN":"6鄰","STREET":" ","SECT":" ","MAREA":"甘宅","LANE":" ","ALLEY":" ","HOUSE_NO":"６９之７號","E_COORD97":192631.26000000001,"N_COORD97":2586806.1099999999,"ADDRESS":"甘宅６９之７號","OBJECTID":126562},"geometry":{"x":192631.26000000071,"y":2586806.1100000031}},{"attributes":{"ID":126563,"DIS_CODE":0,"TOWNNAME":"白河區","LI":"甘宅里","LIN":"6鄰","STREET":" ","SECT":" ","MAREA":"甘宅","LANE":" ","ALLEY":" ","HOUSE_NO":"６９之８號","E_COORD97":192630.38,"N_COORD97":2586798.52,"ADDRESS":"甘宅６９之８號","OBJECTID":126563},"geometry":{"x":192630.38000000082,"y":2586798.5199999996}},{"attributes":{"ID":126564,"DIS_CODE":0,"TOWNNAME":"白河區","LI":"竹門里","LIN":"6鄰","STREET":" ","SECT":" ","MAREA":"竹子門","LANE":" ","ALLEY":" ","HOUSE_NO":"７６號","E_COORD97":193557.79999999999,"N_COORD97":2586466.9500000002,"ADDRESS":"竹子門７６號","OBJECTID":126564},"geometry":{"x":193557.80000000075,"y":2586466.9499999993}},{"attributes":{"ID":126565,"DIS_CODE":0,"TOWNNAME":"白河區","LI":"竹門里","LIN":"6鄰","STREET":" ","SECT":" ","MAREA":"竹子門","LANE":" ","ALLEY":" ","HOUSE_NO":"７８之１號","E_COORD97":193547.48999999999,"N_COORD97":2586399.8900000001,"ADDRESS":"竹子門７８之１號","OBJECTID":126565},"geometry":{"x":193547.49000000022,"y":2586399.8900000025}},{"attributes":{"ID":126566,"DIS_CODE":0,"TOWNNAME":"佳里區","LI":"頂\u25A0里","LIN":"4鄰","STREET":" ","SECT":" ","MAREA":"頂\u25A0","LANE":" ","ALLEY":" ","HOUSE_NO":"４８號之１","E_COORD97":163237.60999999999,"N_COORD97":2563767.5299999998,"ADDRESS":"頂\u25A0４８號之１","OBJECTID":126566},"geometry":{"x":163237.6100000022,"y":2563767.5299999993}},{"attributes":{"ID":126567,"DIS_CODE":0,"TOWNNAME":"佳里區","LI":"頂\u25A0里","LIN":"4鄰","STREET":" ","SECT":" ","MAREA":"頂\u25A0","LANE":" ","ALLEY":" ","HOUSE_NO":"４８號","E_COORD97":163233.70000000001,"N_COORD97":2563766.48,"ADDRESS":"頂\u25A0４８號","OBJECTID":126567},"geometry":{"x":163233.70000000112,"y":2563766.4800000004}},{"attributes":{"ID":126568,"DIS_CODE":0,"TOWNNAME":"佳里區","LI":"頂\u25A0里","LIN":"1鄰","STREET":" ","SECT":" ","MAREA":"頂\u25A0","LANE":" ","ALLEY":" ","HOUSE_NO":"２號","E_COORD97":163319.88,"N_COORD97":2563791.8399999999,"ADDRESS":"頂\u25A0２號","OBJECTID":126568},"geometry":{"x":163319.87999999896,"y":2563791.8400000017}},{"attributes":{"ID":126569,"DIS_CODE":0,"TOWNNAME":"佳里區","LI":"頂\u25A0里","LIN":"4鄰","STREET":" ","SECT":" ","MAREA":"頂\u25A0","LANE":" ","ALLEY":" ","HOUSE_NO":"４９號之１","E_COORD97":163246.06,"N_COORD97":2563788.4700000002,"ADDRESS":"頂\u25A0４９號之１","OBJECTID":126569},"geometry":{"x":163246.06000000052,"y":2563788.4700000025}},{"attributes":{"ID":126570,"DIS_CODE":0,"TOWNNAME":"佳里區","LI":"頂\u25A0里","LIN":"4鄰","STREET":" ","SECT":" ","MAREA":"頂\u25A0","LANE":" ","ALLEY":" ","HOUSE_NO":"４９號","E_COORD97":163227.53,"N_COORD97":2563795.9700000002,"ADDRESS":"頂\u25A0４９號","OBJECTID":126570},"geometry":{"x":163227.53000000026,"y":2563795.9700000025}},{"attributes":{"ID":126571,"DIS_CODE":0,"TOWNNAME":"佳里區","LI":"漳洲里","LIN":"1鄰","STREET":" ","SECT":" ","MAREA":"番子寮","LANE":" ","ALLEY":" ","HOUSE_NO":"１５１號","E_COORD97":163801.51999999999,"N_COORD97":2564582.9700000002,"ADDRESS":"番子寮１５１號","OBJECTID":126571},"geometry":{"x":163801.51999999955,"y":2564582.9700000007}},{"attributes":{"ID":126572,"DIS_CODE":0,"TOWNNAME":"佳里區","LI":"漳洲里","LIN":"1鄰","STREET":" ","SECT":" ","MAREA":"番子寮","LANE":" ","ALLEY":" ","HOUSE_NO":"１５２號","E_COORD97":163789.95000000001,"N_COORD97":2564623.1299999999,"ADDRESS":"番子寮１５２號","OBJECTID":126572},"geometry":{"x":163789.95000000112,"y":2564623.1300000008}},{"attributes":{"ID":126573,"DIS_CODE":0,"TOWNNAME":"佳里區","LI":"漳洲里","LIN":"1鄰","STREET":" ","SECT":" ","MAREA":"番子寮","LANE":" ","ALLEY":" ","HOUSE_NO":"１５４號","E_COORD97":163746.70999999999,"N_COORD97":2564626.0600000001,"ADDRESS":"番子寮１５４號","OBJECTID":126573},"geometry":{"x":163746.71000000183,"y":2564626.0600000005}},{"attributes":{"ID":126574,"DIS_CODE":0,"TOWNNAME":"佳里區","LI":"漳洲里","LIN":"1鄰","STREET":" ","SECT":" ","MAREA":"番子寮","LANE":" ","ALLEY":" ","HOUSE_NO":"１５５號之１","E_COORD97":163722.5,"N_COORD97":2564619.0699999998,"ADDRESS":"番子寮１５５號之１","OBJECTID":126574},"geometry":{"x":163722.5,"y":2564619.0700000003}},{"attributes":{"ID":126575,"DIS_CODE":0,"TOWNNAME":"佳里區","LI":"漳洲里","LIN":"1鄰","STREET":" ","SECT":" ","MAREA":"番子寮","LANE":" ","ALLEY":" ","HOUSE_NO":"１５５號之２","E_COORD97":163707.62,"N_COORD97":2564598.8999999999,"ADDRESS":"番子寮１５５號之２","OBJECTID":126575},"geometry":{"x":163707.62000000104,"y":2564598.9000000022}},{"attributes":{"ID":126576,"DIS_CODE":0,"TOWNNAME":"佳里區","LI":"漳洲里","LIN":"1鄰","STREET":" ","SECT":" ","MAREA":"番子寮","LANE":" ","ALLEY":" ","HOUSE_NO":"１５６號","E_COORD97":163668.82999999999,"N_COORD97":2564594.3599999999,"ADDRESS":"番子寮１５６號","OBJECTID":126576},"geometry":{"x":163668.83000000101,"y":2564594.3600000013}},{"attributes":{"ID":126577,"DIS_CODE":0,"TOWNNAME":"佳里區","LI":"漳洲里","LIN":"1鄰","STREET":" ","SECT":" ","MAREA":"番子寮","LANE":" ","ALLEY":" ","HOUSE_NO":"１５８號","E_COORD97":163701.64999999999,"N_COORD97":2564621.9399999999,"ADDRESS":"番子寮１５８號","OBJECTID":126577},"geometry":{"x":163701.64999999944,"y":2564621.9400000013}},{"attributes":{"ID":126578,"DIS_CODE":0,"TOWNNAME":"佳里區","LI":"通興里","LIN":"1鄰","STREET":" ","SECT":" ","MAREA":"港墘","LANE":" ","ALLEY":" ","HOUSE_NO":"１１號之１","E_COORD97":163897.85999999999,"N_COORD97":2559751.7000000002,"ADDRESS":"港墘１１號之１","OBJECTID":126578},"geometry":{"x":163897.86000000034,"y":2559751.7000000011}},{"attributes":{"ID":126579,"DIS_CODE":0,"TOWNNAME":"佳里區","LI":"通興里","LIN":"1鄰","STREET":" ","SECT":" ","MAREA":"港墘","LANE":" ","ALLEY":" ","HOUSE_NO":"１１號之２","E_COORD97":163890.73000000001,"N_COORD97":2559750.6099999999,"ADDRESS":"港墘１１號之２","OBJECTID":126579},"geometry":{"x":163890.73000000045,"y":2559750.6099999975}},{"attributes":{"ID":126580,"DIS_CODE":0,"TOWNNAME":"佳里區","LI":"通興里","LIN":"1鄰","STREET":" ","SECT":" ","MAREA":"港墘","LANE":" ","ALLEY":" ","HOUSE_NO":"１號之１","E_COORD97":163968.76000000001,"N_COORD97":2559692.5800000001,"ADDRESS":"港墘１號之１","OBJECTID":126580},"geometry":{"x":163968.76000000071,"y":2559692.5800000001}},{"attributes":{"ID":126581,"DIS_CODE":0,"TOWNNAME":"佳里區","LI":"通興里","LIN":"1鄰","STREET":" ","SECT":" ","MAREA":"港墘","LANE":" ","ALLEY":" ","HOUSE_NO":"１號之２","E_COORD97":163955.47,"N_COORD97":2559647.98,"ADDRESS":"港墘１號之２","OBJECTID":126581},"geometry":{"x":163955.47000000067,"y":2559647.9800000042}},{"attributes":{"ID":126582,"DIS_CODE":0,"TOWNNAME":"佳里區","LI":"通興里","LIN":"2鄰","STREET":" ","SECT":" ","MAREA":"港墘","LANE":" ","ALLEY":" ","HOUSE_NO":"１３號","E_COORD97":163893.89999999999,"N_COORD97":2559699.9500000002,"ADDRESS":"港墘１３號","OBJECTID":126582},"geometry":{"x":163893.9000000013,"y":2559699.9499999993}},{"attributes":{"ID":126583,"DIS_CODE":0,"TOWNNAME":"佳里區","LI":"通興里","LIN":"2鄰","STREET":" ","SECT":" ","MAREA":"港墘","LANE":" ","ALLEY":" ","HOUSE_NO":"１５號","E_COORD97":163870.76000000001,"N_COORD97":2559685.8999999999,"ADDRESS":"港墘１５號","OBJECTID":126583},"geometry":{"x":163870.76000000071,"y":2559685.9000000022}},{"attributes":{"ID":126584,"DIS_CODE":0,"TOWNNAME":"佳里區","LI":"通興里","LIN":"2鄰","STREET":" ","SECT":" ","MAREA":"港墘","LANE":" ","ALLEY":" ","HOUSE_NO":"１６號之１","E_COORD97":163856.17999999999,"N_COORD97":2559712.9100000001,"ADDRESS":"港墘１６號之１","OBJECTID":126584},"geometry":{"x":163856.1799999997,"y":2559712.910000002}},{"attributes":{"ID":126585,"DIS_CODE":0,"TOWNNAME":"白河區","LI":"外角里","LIN":"6鄰","STREET":"光明街","SECT":" ","MAREA":" ","LANE":" ","ALLEY":" ","HOUSE_NO":"２號","E_COORD97":190555.56,"N_COORD97":2583284.25,"ADDRESS":"光明街２號","OBJECTID":126585},"geometry":{"x":190555.56000000052,"y":2583284.2500000019}},{"attributes":{"ID":126586,"DIS_CODE":0,"TOWNNAME":"東區","LI":"德光里","LIN":"5鄰","STREET":"崇明路","SECT":" ","MAREA":" ","LANE":" ","ALLEY":" ","HOUSE_NO":"９７號","E_COORD97":169776.32999999999,"N_COORD97":2542285.0899999999,"ADDRESS":"崇明路９７號","OBJECTID":126586},"geometry":{"x":169776.33000000101,"y":2542285.0900000017}},{"attributes":{"ID":126587,"DIS_CODE":0,"TOWNNAME":"東區","LI":"德光里","LIN":"5鄰","STREET":"崇明路","SECT":" ","MAREA":" ","LANE":" ","ALLEY":" ","HOUSE_NO":"９９號","E_COORD97":169777.51999999999,"N_COORD97":2542280.6800000002,"ADDRESS":"崇明路９９號","OBJECTID":126587},"geometry":{"x":169777.52000000048,"y":2542280.6800000016}},{"attributes":{"ID":126588,"DIS_CODE":0,"TOWNNAME":"白河區","LI":"竹門里","LIN":"6鄰","STREET":" ","SECT":" ","MAREA":"竹子門","LANE":" ","ALLEY":" ","HOUSE_NO":"７８之２號","E_COORD97":193547.31,"N_COORD97":2586404.2000000002,"ADDRESS":"竹子門７８之２號","OBJECTID":126588},"geometry":{"x":193547.31000000052,"y":2586404.1999999993}},{"attributes":{"ID":126589,"DIS_CODE":0,"TOWNNAME":"六甲區","LI":"水林里","LIN":"16鄰","STREET":"中山路","SECT":" ","MAREA":" ","LANE":"８０巷","ALLEY":"４６弄","HOUSE_NO":"８１號","E_COORD97":183323.31,"N_COORD97":2570194.71,"ADDRESS":"中山路８０巷４６弄８１號","OBJECTID":126589},"geometry":{"x":183323.30999999866,"y":2570194.7100000028}},{"attributes":{"ID":126590,"DIS_CODE":0,"TOWNNAME":"白河區","LI":"竹門里","LIN":"6鄰","STREET":" ","SECT":" ","MAREA":"竹子門","LANE":" ","ALLEY":" ","HOUSE_NO":"７８之３號","E_COORD97":193547.25,"N_COORD97":2586408.6299999999,"ADDRESS":"竹子門７８之３號","OBJECTID":126590},"geometry":{"x":193547.25,"y":2586408.6299999971}},{"attributes":{"ID":126591,"DIS_CODE":0,"TOWNNAME":"六甲區","LI":"水林里","LIN":"16鄰","STREET":"中山路","SECT":" ","MAREA":" ","LANE":"８０巷","ALLEY":"４６弄","HOUSE_NO":"８３號","E_COORD97":183322.31,"N_COORD97":2570190.8799999999,"ADDRESS":"中山路８０巷４６弄８３號","OBJECTID":126591},"geometry":{"x":183322.31000000052,"y":2570190.8800000027}},{"attributes":{"ID":126592,"DIS_CODE":0,"TOWNNAME":"東區","LI":"德光里","LIN":"5鄰","STREET":"崇德路","SECT":" ","MAREA":" ","LANE":" ","ALLEY":" ","HOUSE_NO":"１００號","E_COORD97":169874.41,"N_COORD97":2542300.5,"ADDRESS":"崇德路１００號","OBJECTID":126592},"geometry":{"x":169874.41000000108,"y":2542300.5}},{"attributes":{"ID":126593,"DIS_CODE":0,"TOWNNAME":"六甲區","LI":"水林里","LIN":"16鄰","STREET":"中山路","SECT":" ","MAREA":" ","LANE":"８０巷","ALLEY":"４６弄","HOUSE_NO":"８５號","E_COORD97":183321.39999999999,"N_COORD97":2570187.3199999998,"ADDRESS":"中山路８０巷４６弄８５號","OBJECTID":126593},"geometry":{"x":183321.40000000037,"y":2570187.3200000022}},{"attributes":{"ID":126594,"DIS_CODE":0,"TOWNNAME":"東區","LI":"德光里","LIN":"5鄰","STREET":"崇德路","SECT":" ","MAREA":" ","LANE":" ","ALLEY":" ","HOUSE_NO":"１０２號","E_COORD97":169877.85999999999,"N_COORD97":2542298.7799999998,"ADDRESS":"崇德路１０２號","OBJECTID":126594},"geometry":{"x":169877.86000000127,"y":2542298.7799999993}},{"attributes":{"ID":126595,"DIS_CODE":0,"TOWNNAME":"六甲區","LI":"水林里","LIN":"16鄰","STREET":"中山路","SECT":" ","MAREA":" ","LANE":"８０巷","ALLEY":"４６弄","HOUSE_NO":"８７號","E_COORD97":183320.59,"N_COORD97":2570183.5800000001,"ADDRESS":"中山路８０巷４６弄８７號","OBJECTID":126595},"geometry":{"x":183320.59000000078,"y":2570183.5800000001}},{"attributes":{"ID":126596,"DIS_CODE":0,"TOWNNAME":"六甲區","LI":"水林里","LIN":"16鄰","STREET":"中山路","SECT":" ","MAREA":" ","LANE":"８０巷","ALLEY":"４６弄","HOUSE_NO":"８９號","E_COORD97":183319.48000000001,"N_COORD97":2570179.6299999999,"ADDRESS":"中山路８０巷４６弄８９號","OBJECTID":126596},"geometry":{"x":183319.48000000045,"y":2570179.6300000008}},{"attributes":{"ID":126597,"DIS_CODE":0,"TOWNNAME":"東區","LI":"德光里","LIN":"5鄰","STREET":"崇德路","SECT":" ","MAREA":" ","LANE":" ","ALLEY":" ","HOUSE_NO":"１０４號","E_COORD97":169880.66,"N_COORD97":2542295.7599999998,"ADDRESS":"崇德路１０４號","OBJECTID":126597},"geometry":{"x":169880.66000000108,"y":2542295.7599999998}},{"attributes":{"ID":126598,"DIS_CODE":0,"TOWNNAME":"東區","LI":"德光里","LIN":"5鄰","STREET":"崇德路","SECT":" ","MAREA":" ","LANE":" ","ALLEY":" ","HOUSE_NO":"１０６號","E_COORD97":169884.12,"N_COORD97":2542292.5299999998,"ADDRESS":"崇德路１０６號","OBJECTID":126598},"geometry":{"x":169884.12000000197,"y":2542292.5300000012}},{"attributes":{"ID":126599,"DIS_CODE":0,"TOWNNAME":"六甲區","LI":"二甲里","LIN":"16鄰","STREET":"民權街","SECT":" ","MAREA":" ","LANE":"１６２巷","ALLEY":"１３弄","HOUSE_NO":"１號","E_COORD97":183210.42000000001,"N_COORD97":2569757.3799999999,"ADDRESS":"民權街１６２巷１３弄１號","OBJECTID":126599},"geometry":{"x":183210.41999999993,"y":2569757.3800000008}},{"attributes":{"ID":126600,"DIS_CODE":0,"TOWNNAME":"學甲區","LI":"大灣里","LIN":"4鄰","STREET":" ","SECT":" ","MAREA":"大灣","LANE":" ","ALLEY":" ","HOUSE_NO":"３６號","E_COORD97":166825.06,"N_COORD97":2568100.5699999998,"ADDRESS":"大灣３６號","OBJECTID":126600},"geometry":{"x":166825.05999999959,"y":2568100.5700000022}}]}