{"displayFieldName":"TOWNNAME","fieldAliases":{"ID":"ID","DIS_CODE":"DIS_CODE","TOWNNAME":"TOWNNAME","LI":"LI","LIN":"LIN","STREET":"STREET","SECT":"SECT","MAREA":"MAREA","LANE":"LANE","ALLEY":"ALLEY","HOUSE_NO":"HOUSE_NO","E_COORD97":"E_COORD97","N_COORD97":"N_COORD97","ADDRESS":"ADDRESS","OBJECTID":"OBJECTID"},"geometryType":"esriGeometryPoint","spatialReference":{"wkid":102443,"latestWkid":3826},"fields":[{"name":"ID","type":"esriFieldTypeDouble","alias":"ID"},{"name":"DIS_CODE","type":"esriFieldTypeInteger","alias":"DIS_CODE"},{"name":"TOWNNAME","type":"esriFieldTypeString","alias":"TOWNNAME","length":8},{"name":"LI","type":"esriFieldTypeString","alias":"LI","length":8},{"name":"LIN","type":"esriFieldTypeString","alias":"LIN","length":12},{"name":"STREET","type":"esriFieldTypeString","alias":"STREET","length":20},{"name":"SECT","type":"esriFieldTypeString","alias":"SECT","length":8},{"name":"MAREA","type":"esriFieldTypeString","alias":"MAREA","length":12},{"name":"LANE","type":"esriFieldTypeString","alias":"LANE","length":10},{"name":"ALLEY","type":"esriFieldTypeString","alias":"ALLEY","length":10},{"name":"HOUSE_NO","type":"esriFieldTypeString","alias":"HOUSE_NO","length":20},{"name":"E_COORD97","type":"esriFieldTypeDouble","alias":"E_COORD97"},{"name":"N_COORD97","type":"esriFieldTypeDouble","alias":"N_COORD97"},{"name":"ADDRESS","type":"esriFieldTypeString","alias":"ADDRESS","length":50},{"name":"OBJECTID","type":"esriFieldTypeOID","alias":"OBJECTID"}],"features":[{"attributes":{"ID":535428,"DIS_CODE":0,"TOWNNAME":"永康區","LI":"五王里","LIN":"19鄰","STREET":"成功路","SECT":" ","MAREA":" ","LANE":" ","ALLEY":" ","HOUSE_NO":"１７６號五樓之９","E_COORD97":171437.01000000001,"N_COORD97":2545636.9100000001,"ADDRESS":"成功路１７６號五樓之９","OBJECTID":535401},"geometry":{"x":171437.00999999978,"y":2545636.910000002}},{"attributes":{"ID":535429,"DIS_CODE":0,"TOWNNAME":"永康區","LI":"五王里","LIN":"19鄰","STREET":"成功路","SECT":" ","MAREA":" ","LANE":" ","ALLEY":" ","HOUSE_NO":"１７６號四樓之１２","E_COORD97":171438.31,"N_COORD97":2545636.9100000001,"ADDRESS":"成功路１７６號四樓之１２","OBJECTID":535402},"geometry":{"x":171438.30999999866,"y":2545636.910000002}},{"attributes":{"ID":535430,"DIS_CODE":0,"TOWNNAME":"永康區","LI":"復國里","LIN":"19鄰","STREET":"國華街","SECT":" ","MAREA":" ","LANE":" ","ALLEY":" ","HOUSE_NO":"４７號七樓之３","E_COORD97":172830.01999999999,"N_COORD97":2545727.6800000002,"ADDRESS":"國華街４７號七樓之３","OBJECTID":535403},"geometry":{"x":172830.01999999955,"y":2545727.6799999997}},{"attributes":{"ID":535431,"DIS_CODE":0,"TOWNNAME":"永康區","LI":"五王里","LIN":"19鄰","STREET":"成功路","SECT":" ","MAREA":" ","LANE":" ","ALLEY":" ","HOUSE_NO":"１７６號六樓之１６","E_COORD97":171438.28,"N_COORD97":2545636.9100000001,"ADDRESS":"成功路１７６號六樓之１６","OBJECTID":535404},"geometry":{"x":171438.28000000119,"y":2545636.910000002}},{"attributes":{"ID":535432,"DIS_CODE":0,"TOWNNAME":"永康區","LI":"復國里","LIN":"19鄰","STREET":"國華街","SECT":" ","MAREA":" ","LANE":" ","ALLEY":" ","HOUSE_NO":"４９號六樓之２","E_COORD97":172823.51999999999,"N_COORD97":2545722.4300000002,"ADDRESS":"國華街４９號六樓之２","OBJECTID":535405},"geometry":{"x":172823.51999999862,"y":2545722.4299999997}},{"attributes":{"ID":535433,"DIS_CODE":0,"TOWNNAME":"永康區","LI":"五王里","LIN":"19鄰","STREET":"成功路","SECT":" ","MAREA":" ","LANE":" ","ALLEY":" ","HOUSE_NO":"１７６號七樓之６","E_COORD97":171437.03,"N_COORD97":2545636.9100000001,"ADDRESS":"成功路１７６號七樓之６","OBJECTID":535406},"geometry":{"x":171437.03000000026,"y":2545636.910000002}},{"attributes":{"ID":535434,"DIS_CODE":0,"TOWNNAME":"永康區","LI":"復國里","LIN":"19鄰","STREET":"國華街","SECT":" ","MAREA":" ","LANE":" ","ALLEY":" ","HOUSE_NO":"４７號十一樓之２","E_COORD97":172831.29999999999,"N_COORD97":2545727.6800000002,"ADDRESS":"國華街４７號十一樓之２","OBJECTID":535407},"geometry":{"x":172831.30000000075,"y":2545727.6799999997}},{"attributes":{"ID":535435,"DIS_CODE":0,"TOWNNAME":"永康區","LI":"五王里","LIN":"19鄰","STREET":"成功路","SECT":" ","MAREA":" ","LANE":" ","ALLEY":" ","HOUSE_NO":"１７６號四樓之８","E_COORD97":171437.07000000001,"N_COORD97":2545636.9100000001,"ADDRESS":"成功路１７６號四樓之８","OBJECTID":535408},"geometry":{"x":171437.0700000003,"y":2545636.910000002}},{"attributes":{"ID":535436,"DIS_CODE":0,"TOWNNAME":"永康區","LI":"復國里","LIN":"19鄰","STREET":"國華街","SECT":" ","MAREA":" ","LANE":" ","ALLEY":" ","HOUSE_NO":"４７號四樓之３","E_COORD97":172830.01999999999,"N_COORD97":2545727.6800000002,"ADDRESS":"國華街４７號四樓之３","OBJECTID":535409},"geometry":{"x":172830.01999999955,"y":2545727.6799999997}},{"attributes":{"ID":535437,"DIS_CODE":0,"TOWNNAME":"永康區","LI":"五王里","LIN":"19鄰","STREET":"成功路","SECT":" ","MAREA":" ","LANE":" ","ALLEY":" ","HOUSE_NO":"１７６號七樓之７","E_COORD97":171437,"N_COORD97":2545636.9100000001,"ADDRESS":"成功路１７６號七樓之７","OBJECTID":535410},"geometry":{"x":171437,"y":2545636.910000002}},{"attributes":{"ID":535438,"DIS_CODE":0,"TOWNNAME":"永康區","LI":"五王里","LIN":"19鄰","STREET":"成功路","SECT":" ","MAREA":" ","LANE":" ","ALLEY":" ","HOUSE_NO":"１７６號五樓之１４","E_COORD97":171438.20000000001,"N_COORD97":2545636.9100000001,"ADDRESS":"成功路１７６號五樓之１４","OBJECTID":535411},"geometry":{"x":171438.20000000205,"y":2545636.910000002}},{"attributes":{"ID":535439,"DIS_CODE":0,"TOWNNAME":"永康區","LI":"五王里","LIN":"19鄰","STREET":"成功路","SECT":" ","MAREA":" ","LANE":" ","ALLEY":" ","HOUSE_NO":"１７６號七樓之３","E_COORD97":171437.01999999999,"N_COORD97":2545636.9100000001,"ADDRESS":"成功路１７６號七樓之３","OBJECTID":535412},"geometry":{"x":171437.02000000142,"y":2545636.910000002}},{"attributes":{"ID":535440,"DIS_CODE":0,"TOWNNAME":"永康區","LI":"復國里","LIN":"19鄰","STREET":"國華街","SECT":" ","MAREA":" ","LANE":" ","ALLEY":" ","HOUSE_NO":"５３號十一樓之５","E_COORD97":172796,"N_COORD97":2545723.1800000002,"ADDRESS":"國華街５３號十一樓之５","OBJECTID":535413},"geometry":{"x":172796.00000000093,"y":2545723.1799999997}},{"attributes":{"ID":535441,"DIS_CODE":0,"TOWNNAME":"永康區","LI":"復國里","LIN":"19鄰","STREET":"國華街","SECT":" ","MAREA":" ","LANE":" ","ALLEY":" ","HOUSE_NO":"５３號三樓之２","E_COORD97":172794.72,"N_COORD97":2545723.1800000002,"ADDRESS":"國華街５３號三樓之２","OBJECTID":535414},"geometry":{"x":172794.71999999974,"y":2545723.1799999997}},{"attributes":{"ID":535442,"DIS_CODE":0,"TOWNNAME":"永康區","LI":"復國里","LIN":"19鄰","STREET":"國華街","SECT":" ","MAREA":" ","LANE":" ","ALLEY":" ","HOUSE_NO":"４７號十樓之１","E_COORD97":172829.92000000001,"N_COORD97":2545727.6800000002,"ADDRESS":"國華街４７號十樓之１","OBJECTID":535415},"geometry":{"x":172829.92000000086,"y":2545727.6799999997}},{"attributes":{"ID":535443,"DIS_CODE":0,"TOWNNAME":"永康區","LI":"五王里","LIN":"19鄰","STREET":"成功路","SECT":" ","MAREA":" ","LANE":" ","ALLEY":" ","HOUSE_NO":"１７６號五樓之５","E_COORD97":171437.07999999999,"N_COORD97":2545636.9100000001,"ADDRESS":"成功路１７６號五樓之５","OBJECTID":535416},"geometry":{"x":171437.08000000194,"y":2545636.910000002}},{"attributes":{"ID":535444,"DIS_CODE":0,"TOWNNAME":"永康區","LI":"西橋里","LIN":"19鄰","STREET":"大橋三街","SECT":" ","MAREA":" ","LANE":" ","ALLEY":" ","HOUSE_NO":"２７號三樓之１","E_COORD97":170492.98000000001,"N_COORD97":2546370.54,"ADDRESS":"大橋三街２７號三樓之１","OBJECTID":535417},"geometry":{"x":170492.98000000138,"y":2546370.540000001}},{"attributes":{"ID":535445,"DIS_CODE":0,"TOWNNAME":"永康區","LI":"五王里","LIN":"19鄰","STREET":"成功路","SECT":" ","MAREA":" ","LANE":" ","ALLEY":" ","HOUSE_NO":"１７６號六樓之９","E_COORD97":171437.01000000001,"N_COORD97":2545636.9100000001,"ADDRESS":"成功路１７６號六樓之９","OBJECTID":535418},"geometry":{"x":171437.00999999978,"y":2545636.910000002}},{"attributes":{"ID":535446,"DIS_CODE":0,"TOWNNAME":"歸仁區","LI":"辜厝里","LIN":"19鄰","STREET":"大順一街","SECT":" ","MAREA":" ","LANE":" ","ALLEY":" ","HOUSE_NO":"３號十一樓","E_COORD97":177457.92999999999,"N_COORD97":2540505.9500000002,"ADDRESS":"大順一街３號十一樓","OBJECTID":535419},"geometry":{"x":177457.93000000063,"y":2540505.9500000011}},{"attributes":{"ID":535447,"DIS_CODE":0,"TOWNNAME":"歸仁區","LI":"辜厝里","LIN":"19鄰","STREET":"大順一街","SECT":" ","MAREA":" ","LANE":" ","ALLEY":" ","HOUSE_NO":"３號九樓","E_COORD97":177457.67999999999,"N_COORD97":2540505.9500000002,"ADDRESS":"大順一街３號九樓","OBJECTID":535420},"geometry":{"x":177457.68000000063,"y":2540505.9500000011}},{"attributes":{"ID":535448,"DIS_CODE":0,"TOWNNAME":"歸仁區","LI":"辜厝里","LIN":"19鄰","STREET":"大順一街","SECT":" ","MAREA":" ","LANE":" ","ALLEY":" ","HOUSE_NO":"３號十一樓之１","E_COORD97":177458.35999999999,"N_COORD97":2540505.9500000002,"ADDRESS":"大順一街３號十一樓之１","OBJECTID":535421},"geometry":{"x":177458.3599999994,"y":2540505.9500000011}},{"attributes":{"ID":535449,"DIS_CODE":0,"TOWNNAME":"歸仁區","LI":"辜厝里","LIN":"19鄰","STREET":"大順一街","SECT":" ","MAREA":" ","LANE":" ","ALLEY":" ","HOUSE_NO":"３號五樓之２","E_COORD97":177458.13,"N_COORD97":2540505.9500000002,"ADDRESS":"大順一街３號五樓之２","OBJECTID":535422},"geometry":{"x":177458.13000000082,"y":2540505.9500000011}},{"attributes":{"ID":535450,"DIS_CODE":0,"TOWNNAME":"歸仁區","LI":"辜厝里","LIN":"19鄰","STREET":"大順一街","SECT":" ","MAREA":" ","LANE":" ","ALLEY":" ","HOUSE_NO":"３號十二樓之２","E_COORD97":177458.38,"N_COORD97":2540505.9500000002,"ADDRESS":"大順一街３號十二樓之２","OBJECTID":535423},"geometry":{"x":177458.38000000082,"y":2540505.9500000011}},{"attributes":{"ID":535451,"DIS_CODE":0,"TOWNNAME":"歸仁區","LI":"許厝里","LIN":"19鄰","STREET":"仁愛北街","SECT":" ","MAREA":" ","LANE":" ","ALLEY":" ","HOUSE_NO":"６６號二樓","E_COORD97":178300.42999999999,"N_COORD97":2540875.25,"ADDRESS":"仁愛北街６６號二樓","OBJECTID":535424},"geometry":{"x":178300.43000000063,"y":2540875.25}},{"attributes":{"ID":535452,"DIS_CODE":0,"TOWNNAME":"歸仁區","LI":"許厝里","LIN":"19鄰","STREET":"忠孝北路","SECT":" ","MAREA":" ","LANE":" ","ALLEY":" ","HOUSE_NO":"８５號八樓","E_COORD97":178341.22,"N_COORD97":2540868.25,"ADDRESS":"忠孝北路８５號八樓","OBJECTID":535425},"geometry":{"x":178341.21999999974,"y":2540868.25}},{"attributes":{"ID":535453,"DIS_CODE":0,"TOWNNAME":"歸仁區","LI":"許厝里","LIN":"19鄰","STREET":"忠孝北路","SECT":" ","MAREA":" ","LANE":" ","ALLEY":" ","HOUSE_NO":"８５號三樓","E_COORD97":178341.22,"N_COORD97":2540868.25,"ADDRESS":"忠孝北路８５號三樓","OBJECTID":535426},"geometry":{"x":178341.21999999974,"y":2540868.25}},{"attributes":{"ID":535454,"DIS_CODE":0,"TOWNNAME":"歸仁區","LI":"辜厝里","LIN":"19鄰","STREET":"大順一街","SECT":" ","MAREA":" ","LANE":" ","ALLEY":" ","HOUSE_NO":"３號六樓","E_COORD97":177457.67999999999,"N_COORD97":2540505.9500000002,"ADDRESS":"大順一街３號六樓","OBJECTID":535427},"geometry":{"x":177457.68000000063,"y":2540505.9500000011}},{"attributes":{"ID":535455,"DIS_CODE":0,"TOWNNAME":"歸仁區","LI":"辜厝里","LIN":"19鄰","STREET":"大順一街","SECT":" ","MAREA":" ","LANE":" ","ALLEY":" ","HOUSE_NO":"３號二樓","E_COORD97":177457.67999999999,"N_COORD97":2540505.9500000002,"ADDRESS":"大順一街３號二樓","OBJECTID":535428},"geometry":{"x":177457.68000000063,"y":2540505.9500000011}},{"attributes":{"ID":535456,"DIS_CODE":0,"TOWNNAME":"歸仁區","LI":"辜厝里","LIN":"19鄰","STREET":"大順一街","SECT":" ","MAREA":" ","LANE":" ","ALLEY":" ","HOUSE_NO":"３號九樓之２","E_COORD97":177458.13,"N_COORD97":2540505.9500000002,"ADDRESS":"大順一街３號九樓之２","OBJECTID":535429},"geometry":{"x":177458.13000000082,"y":2540505.9500000011}},{"attributes":{"ID":535457,"DIS_CODE":0,"TOWNNAME":"南區","LI":"新興里","LIN":"19鄰","STREET":"新興路","SECT":" ","MAREA":" ","LANE":" ","ALLEY":" ","HOUSE_NO":"１６０號二樓之２","E_COORD97":167405.62,"N_COORD97":2542056.2400000002,"ADDRESS":"新興路１６０號二樓之２","OBJECTID":535430},"geometry":{"x":167405.61999999918,"y":2542056.2399999984}},{"attributes":{"ID":535458,"DIS_CODE":0,"TOWNNAME":"南區","LI":"新興里","LIN":"19鄰","STREET":"新興路","SECT":" ","MAREA":" ","LANE":" ","ALLEY":" ","HOUSE_NO":"１６０號二樓之３","E_COORD97":167405.62,"N_COORD97":2542056.2400000002,"ADDRESS":"新興路１６０號二樓之３","OBJECTID":535431},"geometry":{"x":167405.61999999918,"y":2542056.2399999984}},{"attributes":{"ID":535459,"DIS_CODE":0,"TOWNNAME":"南區","LI":"新興里","LIN":"19鄰","STREET":"新興路","SECT":" ","MAREA":" ","LANE":" ","ALLEY":" ","HOUSE_NO":"１６０號二樓之４","E_COORD97":167405.62,"N_COORD97":2542056.2400000002,"ADDRESS":"新興路１６０號二樓之４","OBJECTID":535432},"geometry":{"x":167405.61999999918,"y":2542056.2399999984}},{"attributes":{"ID":535460,"DIS_CODE":0,"TOWNNAME":"南區","LI":"新興里","LIN":"19鄰","STREET":"新興路","SECT":" ","MAREA":" ","LANE":" ","ALLEY":" ","HOUSE_NO":"１６０號二樓之５","E_COORD97":167405.62,"N_COORD97":2542056.2400000002,"ADDRESS":"新興路１６０號二樓之５","OBJECTID":535433},"geometry":{"x":167405.61999999918,"y":2542056.2399999984}},{"attributes":{"ID":535461,"DIS_CODE":0,"TOWNNAME":"南區","LI":"新興里","LIN":"19鄰","STREET":"新興路","SECT":" ","MAREA":" ","LANE":" ","ALLEY":" ","HOUSE_NO":"１６０號八樓之１","E_COORD97":167405.62,"N_COORD97":2542056.2400000002,"ADDRESS":"新興路１６０號八樓之１","OBJECTID":535434},"geometry":{"x":167405.61999999918,"y":2542056.2399999984}},{"attributes":{"ID":535462,"DIS_CODE":0,"TOWNNAME":"南區","LI":"新興里","LIN":"19鄰","STREET":"新興路","SECT":" ","MAREA":" ","LANE":" ","ALLEY":" ","HOUSE_NO":"１６０號八樓之２","E_COORD97":167405.62,"N_COORD97":2542056.2400000002,"ADDRESS":"新興路１６０號八樓之２","OBJECTID":535435},"geometry":{"x":167405.61999999918,"y":2542056.2399999984}},{"attributes":{"ID":535463,"DIS_CODE":0,"TOWNNAME":"南區","LI":"新興里","LIN":"19鄰","STREET":"新興路","SECT":" ","MAREA":" ","LANE":" ","ALLEY":" ","HOUSE_NO":"１６０號八樓之３","E_COORD97":167405.62,"N_COORD97":2542056.2400000002,"ADDRESS":"新興路１６０號八樓之３","OBJECTID":535436},"geometry":{"x":167405.61999999918,"y":2542056.2399999984}},{"attributes":{"ID":535464,"DIS_CODE":0,"TOWNNAME":"南區","LI":"新興里","LIN":"19鄰","STREET":"新興路","SECT":" ","MAREA":" ","LANE":" ","ALLEY":" ","HOUSE_NO":"１６０號八樓之４","E_COORD97":167405.62,"N_COORD97":2542056.2400000002,"ADDRESS":"新興路１６０號八樓之４","OBJECTID":535437},"geometry":{"x":167405.61999999918,"y":2542056.2399999984}},{"attributes":{"ID":535465,"DIS_CODE":0,"TOWNNAME":"南區","LI":"新興里","LIN":"19鄰","STREET":"新興路","SECT":" ","MAREA":" ","LANE":" ","ALLEY":" ","HOUSE_NO":"１６０號八樓之５","E_COORD97":167405.62,"N_COORD97":2542056.2400000002,"ADDRESS":"新興路１６０號八樓之５","OBJECTID":535438},"geometry":{"x":167405.61999999918,"y":2542056.2399999984}},{"attributes":{"ID":535466,"DIS_CODE":0,"TOWNNAME":"南區","LI":"新興里","LIN":"19鄰","STREET":"新興路","SECT":" ","MAREA":" ","LANE":" ","ALLEY":" ","HOUSE_NO":"１６０號八樓之６","E_COORD97":167405.62,"N_COORD97":2542056.2400000002,"ADDRESS":"新興路１６０號八樓之６","OBJECTID":535439},"geometry":{"x":167405.61999999918,"y":2542056.2399999984}},{"attributes":{"ID":535467,"DIS_CODE":0,"TOWNNAME":"南區","LI":"新興里","LIN":"19鄰","STREET":"新興路","SECT":" ","MAREA":" ","LANE":" ","ALLEY":" ","HOUSE_NO":"１６０號八樓之７","E_COORD97":167405.62,"N_COORD97":2542056.2400000002,"ADDRESS":"新興路１６０號八樓之７","OBJECTID":535440},"geometry":{"x":167405.61999999918,"y":2542056.2399999984}},{"attributes":{"ID":535468,"DIS_CODE":0,"TOWNNAME":"南區","LI":"新興里","LIN":"19鄰","STREET":"新興路","SECT":" ","MAREA":" ","LANE":" ","ALLEY":" ","HOUSE_NO":"１６０號三樓之１","E_COORD97":167405.62,"N_COORD97":2542056.2400000002,"ADDRESS":"新興路１６０號三樓之１","OBJECTID":535441},"geometry":{"x":167405.61999999918,"y":2542056.2399999984}},{"attributes":{"ID":535469,"DIS_CODE":0,"TOWNNAME":"南區","LI":"新興里","LIN":"19鄰","STREET":"新興路","SECT":" ","MAREA":" ","LANE":" ","ALLEY":" ","HOUSE_NO":"１６０號三樓之２","E_COORD97":167405.62,"N_COORD97":2542056.2400000002,"ADDRESS":"新興路１６０號三樓之２","OBJECTID":535442},"geometry":{"x":167405.61999999918,"y":2542056.2399999984}},{"attributes":{"ID":535470,"DIS_CODE":0,"TOWNNAME":"南區","LI":"新興里","LIN":"19鄰","STREET":"新興路","SECT":" ","MAREA":" ","LANE":" ","ALLEY":" ","HOUSE_NO":"１６０號三樓之３","E_COORD97":167405.62,"N_COORD97":2542056.2400000002,"ADDRESS":"新興路１６０號三樓之３","OBJECTID":535443},"geometry":{"x":167405.61999999918,"y":2542056.2399999984}},{"attributes":{"ID":535471,"DIS_CODE":0,"TOWNNAME":"南區","LI":"新興里","LIN":"19鄰","STREET":"新興路","SECT":" ","MAREA":" ","LANE":" ","ALLEY":" ","HOUSE_NO":"１６０號三樓之４","E_COORD97":167405.62,"N_COORD97":2542056.2400000002,"ADDRESS":"新興路１６０號三樓之４","OBJECTID":535444},"geometry":{"x":167405.61999999918,"y":2542056.2399999984}},{"attributes":{"ID":535472,"DIS_CODE":0,"TOWNNAME":"南區","LI":"新興里","LIN":"19鄰","STREET":"新興路","SECT":" ","MAREA":" ","LANE":" ","ALLEY":" ","HOUSE_NO":"１６０號三樓之５","E_COORD97":167405.62,"N_COORD97":2542056.2400000002,"ADDRESS":"新興路１６０號三樓之５","OBJECTID":535445},"geometry":{"x":167405.61999999918,"y":2542056.2399999984}},{"attributes":{"ID":535473,"DIS_CODE":0,"TOWNNAME":"南區","LI":"新興里","LIN":"19鄰","STREET":"新興路","SECT":" ","MAREA":" ","LANE":" ","ALLEY":" ","HOUSE_NO":"１６０號三樓之６","E_COORD97":167405.62,"N_COORD97":2542056.2400000002,"ADDRESS":"新興路１６０號三樓之６","OBJECTID":535446},"geometry":{"x":167405.61999999918,"y":2542056.2399999984}},{"attributes":{"ID":535474,"DIS_CODE":0,"TOWNNAME":"南區","LI":"新興里","LIN":"19鄰","STREET":"新興路","SECT":" ","MAREA":" ","LANE":" ","ALLEY":" ","HOUSE_NO":"１６０號三樓之７","E_COORD97":167405.62,"N_COORD97":2542056.2400000002,"ADDRESS":"新興路１６０號三樓之７","OBJECTID":535447},"geometry":{"x":167405.61999999918,"y":2542056.2399999984}},{"attributes":{"ID":535475,"DIS_CODE":0,"TOWNNAME":"南區","LI":"新興里","LIN":"19鄰","STREET":"新興路","SECT":" ","MAREA":" ","LANE":" ","ALLEY":" ","HOUSE_NO":"１６０號五樓之１","E_COORD97":167405.62,"N_COORD97":2542056.2400000002,"ADDRESS":"新興路１６０號五樓之１","OBJECTID":535448},"geometry":{"x":167405.61999999918,"y":2542056.2399999984}},{"attributes":{"ID":535476,"DIS_CODE":0,"TOWNNAME":"南區","LI":"新興里","LIN":"19鄰","STREET":"新興路","SECT":" ","MAREA":" ","LANE":" ","ALLEY":" ","HOUSE_NO":"１６０號五樓之２","E_COORD97":167405.62,"N_COORD97":2542056.2400000002,"ADDRESS":"新興路１６０號五樓之２","OBJECTID":535449},"geometry":{"x":167405.61999999918,"y":2542056.2399999984}},{"attributes":{"ID":535477,"DIS_CODE":0,"TOWNNAME":"南區","LI":"新興里","LIN":"19鄰","STREET":"新興路","SECT":" ","MAREA":" ","LANE":" ","ALLEY":" ","HOUSE_NO":"１６０號五樓之３","E_COORD97":167405.62,"N_COORD97":2542056.2400000002,"ADDRESS":"新興路１６０號五樓之３","OBJECTID":535450},"geometry":{"x":167405.61999999918,"y":2542056.2399999984}},{"attributes":{"ID":535478,"DIS_CODE":0,"TOWNNAME":"南區","LI":"新興里","LIN":"19鄰","STREET":"新興路","SECT":" ","MAREA":" ","LANE":" ","ALLEY":" ","HOUSE_NO":"１６０號五樓之４","E_COORD97":167405.62,"N_COORD97":2542056.2400000002,"ADDRESS":"新興路１６０號五樓之４","OBJECTID":535451},"geometry":{"x":167405.61999999918,"y":2542056.2399999984}},{"attributes":{"ID":535479,"DIS_CODE":0,"TOWNNAME":"南區","LI":"新興里","LIN":"19鄰","STREET":"新興路","SECT":" ","MAREA":" ","LANE":" ","ALLEY":" ","HOUSE_NO":"１６０號五樓之５","E_COORD97":167405.62,"N_COORD97":2542056.2400000002,"ADDRESS":"新興路１６０號五樓之５","OBJECTID":535452},"geometry":{"x":167405.61999999918,"y":2542056.2399999984}},{"attributes":{"ID":535480,"DIS_CODE":0,"TOWNNAME":"南區","LI":"新興里","LIN":"19鄰","STREET":"新興路","SECT":" ","MAREA":" ","LANE":" ","ALLEY":" ","HOUSE_NO":"１６０號五樓之６","E_COORD97":167405.62,"N_COORD97":2542056.2400000002,"ADDRESS":"新興路１６０號五樓之６","OBJECTID":535453},"geometry":{"x":167405.61999999918,"y":2542056.2399999984}},{"attributes":{"ID":535481,"DIS_CODE":0,"TOWNNAME":"南區","LI":"新興里","LIN":"19鄰","STREET":"新興路","SECT":" ","MAREA":" ","LANE":" ","ALLEY":" ","HOUSE_NO":"１６０號五樓之７","E_COORD97":167405.62,"N_COORD97":2542056.2400000002,"ADDRESS":"新興路１６０號五樓之７","OBJECTID":535454},"geometry":{"x":167405.61999999918,"y":2542056.2399999984}},{"attributes":{"ID":535482,"DIS_CODE":0,"TOWNNAME":"南區","LI":"新興里","LIN":"19鄰","STREET":"新興路","SECT":" ","MAREA":" ","LANE":" ","ALLEY":" ","HOUSE_NO":"１６０號六樓之１","E_COORD97":167405.62,"N_COORD97":2542056.2400000002,"ADDRESS":"新興路１６０號六樓之１","OBJECTID":535455},"geometry":{"x":167405.61999999918,"y":2542056.2399999984}},{"attributes":{"ID":535483,"DIS_CODE":0,"TOWNNAME":"南區","LI":"新興里","LIN":"19鄰","STREET":"新興路","SECT":" ","MAREA":" ","LANE":" ","ALLEY":" ","HOUSE_NO":"１６０號六樓之２","E_COORD97":167405.62,"N_COORD97":2542056.2400000002,"ADDRESS":"新興路１６０號六樓之２","OBJECTID":535456},"geometry":{"x":167405.61999999918,"y":2542056.2399999984}},{"attributes":{"ID":535484,"DIS_CODE":0,"TOWNNAME":"南區","LI":"新興里","LIN":"19鄰","STREET":"新興路","SECT":" ","MAREA":" ","LANE":" ","ALLEY":" ","HOUSE_NO":"１６０號六樓之３","E_COORD97":167405.62,"N_COORD97":2542056.2400000002,"ADDRESS":"新興路１６０號六樓之３","OBJECTID":535457},"geometry":{"x":167405.61999999918,"y":2542056.2399999984}},{"attributes":{"ID":535485,"DIS_CODE":0,"TOWNNAME":"南區","LI":"新興里","LIN":"19鄰","STREET":"新興路","SECT":" ","MAREA":" ","LANE":" ","ALLEY":" ","HOUSE_NO":"１６０號六樓之４","E_COORD97":167405.62,"N_COORD97":2542056.2400000002,"ADDRESS":"新興路１６０號六樓之４","OBJECTID":535458},"geometry":{"x":167405.61999999918,"y":2542056.2399999984}},{"attributes":{"ID":535486,"DIS_CODE":0,"TOWNNAME":"南區","LI":"新興里","LIN":"19鄰","STREET":"新興路","SECT":" ","MAREA":" ","LANE":" ","ALLEY":" ","HOUSE_NO":"１６０號六樓之５","E_COORD97":167405.62,"N_COORD97":2542056.2400000002,"ADDRESS":"新興路１６０號六樓之５","OBJECTID":535459},"geometry":{"x":167405.61999999918,"y":2542056.2399999984}},{"attributes":{"ID":535487,"DIS_CODE":0,"TOWNNAME":"南區","LI":"新興里","LIN":"19鄰","STREET":"新興路","SECT":" ","MAREA":" ","LANE":" ","ALLEY":" ","HOUSE_NO":"１６０號六樓之６","E_COORD97":167405.62,"N_COORD97":2542056.2400000002,"ADDRESS":"新興路１６０號六樓之６","OBJECTID":535460},"geometry":{"x":167405.61999999918,"y":2542056.2399999984}},{"attributes":{"ID":535488,"DIS_CODE":0,"TOWNNAME":"南區","LI":"新興里","LIN":"19鄰","STREET":"新興路","SECT":" ","MAREA":" ","LANE":" ","ALLEY":" ","HOUSE_NO":"１６０號六樓之７","E_COORD97":167405.62,"N_COORD97":2542056.2400000002,"ADDRESS":"新興路１６０號六樓之７","OBJECTID":535461},"geometry":{"x":167405.61999999918,"y":2542056.2399999984}},{"attributes":{"ID":535489,"DIS_CODE":0,"TOWNNAME":"南區","LI":"新興里","LIN":"19鄰","STREET":"新興路","SECT":" ","MAREA":" ","LANE":" ","ALLEY":" ","HOUSE_NO":"１６０號四樓之１","E_COORD97":167405.62,"N_COORD97":2542056.2400000002,"ADDRESS":"新興路１６０號四樓之１","OBJECTID":535462},"geometry":{"x":167405.61999999918,"y":2542056.2399999984}},{"attributes":{"ID":535490,"DIS_CODE":0,"TOWNNAME":"南區","LI":"新興里","LIN":"19鄰","STREET":"新興路","SECT":" ","MAREA":" ","LANE":" ","ALLEY":" ","HOUSE_NO":"１６０號四樓之２","E_COORD97":167405.62,"N_COORD97":2542056.2400000002,"ADDRESS":"新興路１６０號四樓之２","OBJECTID":535463},"geometry":{"x":167405.61999999918,"y":2542056.2399999984}},{"attributes":{"ID":535491,"DIS_CODE":0,"TOWNNAME":"南區","LI":"新興里","LIN":"19鄰","STREET":"新興路","SECT":" ","MAREA":" ","LANE":" ","ALLEY":" ","HOUSE_NO":"１６０號四樓之３","E_COORD97":167405.62,"N_COORD97":2542056.2400000002,"ADDRESS":"新興路１６０號四樓之３","OBJECTID":535464},"geometry":{"x":167405.61999999918,"y":2542056.2399999984}},{"attributes":{"ID":535492,"DIS_CODE":0,"TOWNNAME":"南區","LI":"新興里","LIN":"19鄰","STREET":"新興路","SECT":" ","MAREA":" ","LANE":" ","ALLEY":" ","HOUSE_NO":"１６０號四樓之４","E_COORD97":167405.62,"N_COORD97":2542056.2400000002,"ADDRESS":"新興路１６０號四樓之４","OBJECTID":535465},"geometry":{"x":167405.61999999918,"y":2542056.2399999984}},{"attributes":{"ID":535493,"DIS_CODE":0,"TOWNNAME":"南區","LI":"新興里","LIN":"19鄰","STREET":"新興路","SECT":" ","MAREA":" ","LANE":" ","ALLEY":" ","HOUSE_NO":"１６０號四樓之５","E_COORD97":167405.62,"N_COORD97":2542056.2400000002,"ADDRESS":"新興路１６０號四樓之５","OBJECTID":535466},"geometry":{"x":167405.61999999918,"y":2542056.2399999984}},{"attributes":{"ID":535494,"DIS_CODE":0,"TOWNNAME":"南區","LI":"新興里","LIN":"19鄰","STREET":"新興路","SECT":" ","MAREA":" ","LANE":" ","ALLEY":" ","HOUSE_NO":"１６０號四樓之６","E_COORD97":167405.62,"N_COORD97":2542056.2400000002,"ADDRESS":"新興路１６０號四樓之６","OBJECTID":535467},"geometry":{"x":167405.61999999918,"y":2542056.2399999984}},{"attributes":{"ID":535495,"DIS_CODE":0,"TOWNNAME":"南區","LI":"新興里","LIN":"19鄰","STREET":"新興路","SECT":" ","MAREA":" ","LANE":" ","ALLEY":" ","HOUSE_NO":"１６０號四樓之７","E_COORD97":167405.62,"N_COORD97":2542056.2400000002,"ADDRESS":"新興路１６０號四樓之７","OBJECTID":535468},"geometry":{"x":167405.61999999918,"y":2542056.2399999984}},{"attributes":{"ID":535496,"DIS_CODE":0,"TOWNNAME":"南區","LI":"新興里","LIN":"19鄰","STREET":"新興路","SECT":" ","MAREA":" ","LANE":" ","ALLEY":" ","HOUSE_NO":"１６２號七樓之１","E_COORD97":167367.79000000001,"N_COORD97":2542077.8599999999,"ADDRESS":"新興路１６２號七樓之１","OBJECTID":535469},"geometry":{"x":167367.79000000097,"y":2542077.8599999994}},{"attributes":{"ID":535497,"DIS_CODE":0,"TOWNNAME":"南區","LI":"新興里","LIN":"19鄰","STREET":"新興路","SECT":" ","MAREA":" ","LANE":" ","ALLEY":" ","HOUSE_NO":"１６２號七樓之２","E_COORD97":167367.79000000001,"N_COORD97":2542077.8599999999,"ADDRESS":"新興路１６２號七樓之２","OBJECTID":535470},"geometry":{"x":167367.79000000097,"y":2542077.8599999994}},{"attributes":{"ID":535498,"DIS_CODE":0,"TOWNNAME":"南區","LI":"新興里","LIN":"19鄰","STREET":"新興路","SECT":" ","MAREA":" ","LANE":" ","ALLEY":" ","HOUSE_NO":"１６２號七樓之３","E_COORD97":167367.79000000001,"N_COORD97":2542077.8599999999,"ADDRESS":"新興路１６２號七樓之３","OBJECTID":535471},"geometry":{"x":167367.79000000097,"y":2542077.8599999994}},{"attributes":{"ID":535499,"DIS_CODE":0,"TOWNNAME":"南區","LI":"新興里","LIN":"19鄰","STREET":"新興路","SECT":" ","MAREA":" ","LANE":" ","ALLEY":" ","HOUSE_NO":"１６２號二樓之１","E_COORD97":167367.79000000001,"N_COORD97":2542077.8599999999,"ADDRESS":"新興路１６２號二樓之１","OBJECTID":535472},"geometry":{"x":167367.79000000097,"y":2542077.8599999994}},{"attributes":{"ID":535500,"DIS_CODE":0,"TOWNNAME":"南區","LI":"新興里","LIN":"19鄰","STREET":"新興路","SECT":" ","MAREA":" ","LANE":" ","ALLEY":" ","HOUSE_NO":"１６２號二樓之２","E_COORD97":167367.79000000001,"N_COORD97":2542077.8599999999,"ADDRESS":"新興路１６２號二樓之２","OBJECTID":535473},"geometry":{"x":167367.79000000097,"y":2542077.8599999994}},{"attributes":{"ID":535501,"DIS_CODE":0,"TOWNNAME":"南區","LI":"新興里","LIN":"19鄰","STREET":"新興路","SECT":" ","MAREA":" ","LANE":" ","ALLEY":" ","HOUSE_NO":"１６２號二樓之３","E_COORD97":167367.79000000001,"N_COORD97":2542077.8599999999,"ADDRESS":"新興路１６２號二樓之３","OBJECTID":535474},"geometry":{"x":167367.79000000097,"y":2542077.8599999994}},{"attributes":{"ID":535502,"DIS_CODE":0,"TOWNNAME":"南區","LI":"新興里","LIN":"19鄰","STREET":"新興路","SECT":" ","MAREA":" ","LANE":" ","ALLEY":" ","HOUSE_NO":"１６２號八樓","E_COORD97":167367.79000000001,"N_COORD97":2542077.8599999999,"ADDRESS":"新興路１６２號八樓","OBJECTID":535475},"geometry":{"x":167367.79000000097,"y":2542077.8599999994}},{"attributes":{"ID":535503,"DIS_CODE":0,"TOWNNAME":"南區","LI":"新興里","LIN":"19鄰","STREET":"新興路","SECT":" ","MAREA":" ","LANE":" ","ALLEY":" ","HOUSE_NO":"１６２號三樓之１","E_COORD97":167367.79000000001,"N_COORD97":2542077.8599999999,"ADDRESS":"新興路１６２號三樓之１","OBJECTID":535476},"geometry":{"x":167367.79000000097,"y":2542077.8599999994}},{"attributes":{"ID":535504,"DIS_CODE":0,"TOWNNAME":"南區","LI":"新興里","LIN":"19鄰","STREET":"新興路","SECT":" ","MAREA":" ","LANE":" ","ALLEY":" ","HOUSE_NO":"１６２號三樓之２","E_COORD97":167367.79000000001,"N_COORD97":2542077.8599999999,"ADDRESS":"新興路１６２號三樓之２","OBJECTID":535477},"geometry":{"x":167367.79000000097,"y":2542077.8599999994}},{"attributes":{"ID":535505,"DIS_CODE":0,"TOWNNAME":"南區","LI":"新興里","LIN":"19鄰","STREET":"新興路","SECT":" ","MAREA":" ","LANE":" ","ALLEY":" ","HOUSE_NO":"１６２號五樓之１","E_COORD97":167367.79000000001,"N_COORD97":2542077.8599999999,"ADDRESS":"新興路１６２號五樓之１","OBJECTID":535478},"geometry":{"x":167367.79000000097,"y":2542077.8599999994}},{"attributes":{"ID":535506,"DIS_CODE":0,"TOWNNAME":"歸仁區","LI":"許厝里","LIN":"19鄰","STREET":"忠孝北路","SECT":" ","MAREA":" ","LANE":" ","ALLEY":" ","HOUSE_NO":"８９號三樓","E_COORD97":178335.62,"N_COORD97":2540876.25,"ADDRESS":"忠孝北路８９號三樓","OBJECTID":535479},"geometry":{"x":178335.62000000011,"y":2540876.2500000037}},{"attributes":{"ID":535507,"DIS_CODE":0,"TOWNNAME":"歸仁區","LI":"許厝里","LIN":"19鄰","STREET":"忠孝北路","SECT":" ","MAREA":" ","LANE":" ","ALLEY":" ","HOUSE_NO":"８１號四樓","E_COORD97":178342.32000000001,"N_COORD97":2540859.25,"ADDRESS":"忠孝北路８１號四樓","OBJECTID":535480},"geometry":{"x":178342.32000000123,"y":2540859.2500000037}},{"attributes":{"ID":535508,"DIS_CODE":0,"TOWNNAME":"歸仁區","LI":"辜厝里","LIN":"19鄰","STREET":"大順一街","SECT":" ","MAREA":" ","LANE":" ","ALLEY":" ","HOUSE_NO":"３號五樓之１","E_COORD97":177458.10999999999,"N_COORD97":2540505.9500000002,"ADDRESS":"大順一街３號五樓之１","OBJECTID":535481},"geometry":{"x":177458.11000000034,"y":2540505.9500000011}},{"attributes":{"ID":535509,"DIS_CODE":0,"TOWNNAME":"歸仁區","LI":"許厝里","LIN":"19鄰","STREET":"仁愛北街","SECT":" ","MAREA":" ","LANE":" ","ALLEY":" ","HOUSE_NO":"６６號七樓","E_COORD97":178300.42999999999,"N_COORD97":2540875.25,"ADDRESS":"仁愛北街６６號七樓","OBJECTID":535482},"geometry":{"x":178300.43000000063,"y":2540875.25}},{"attributes":{"ID":535510,"DIS_CODE":0,"TOWNNAME":"歸仁區","LI":"辜厝里","LIN":"19鄰","STREET":"大順一街","SECT":" ","MAREA":" ","LANE":" ","ALLEY":" ","HOUSE_NO":"３號十四樓之１","E_COORD97":177458.35999999999,"N_COORD97":2540505.9500000002,"ADDRESS":"大順一街３號十四樓之１","OBJECTID":535483},"geometry":{"x":177458.3599999994,"y":2540505.9500000011}},{"attributes":{"ID":535511,"DIS_CODE":0,"TOWNNAME":"歸仁區","LI":"辜厝里","LIN":"19鄰","STREET":"大順一街","SECT":" ","MAREA":" ","LANE":" ","ALLEY":" ","HOUSE_NO":"３號十一樓之２","E_COORD97":177458.38,"N_COORD97":2540505.9500000002,"ADDRESS":"大順一街３號十一樓之２","OBJECTID":535484},"geometry":{"x":177458.38000000082,"y":2540505.9500000011}},{"attributes":{"ID":535512,"DIS_CODE":0,"TOWNNAME":"歸仁區","LI":"辜厝里","LIN":"19鄰","STREET":"大順一街","SECT":" ","MAREA":" ","LANE":" ","ALLEY":" ","HOUSE_NO":"３號八樓","E_COORD97":177457.67999999999,"N_COORD97":2540505.9500000002,"ADDRESS":"大順一街３號八樓","OBJECTID":535485},"geometry":{"x":177457.68000000063,"y":2540505.9500000011}},{"attributes":{"ID":535513,"DIS_CODE":0,"TOWNNAME":"歸仁區","LI":"許厝里","LIN":"19鄰","STREET":"仁愛北街","SECT":" ","MAREA":" ","LANE":" ","ALLEY":" ","HOUSE_NO":"６６號八樓","E_COORD97":178300.42999999999,"N_COORD97":2540875.25,"ADDRESS":"仁愛北街６６號八樓","OBJECTID":535486},"geometry":{"x":178300.43000000063,"y":2540875.25}},{"attributes":{"ID":535514,"DIS_CODE":0,"TOWNNAME":"歸仁區","LI":"辜厝里","LIN":"19鄰","STREET":"大順一街","SECT":" ","MAREA":" ","LANE":" ","ALLEY":" ","HOUSE_NO":"３號九樓之１","E_COORD97":177458.10999999999,"N_COORD97":2540505.9500000002,"ADDRESS":"大順一街３號九樓之１","OBJECTID":535487},"geometry":{"x":177458.11000000034,"y":2540505.9500000011}},{"attributes":{"ID":535515,"DIS_CODE":0,"TOWNNAME":"歸仁區","LI":"辜厝里","LIN":"19鄰","STREET":"大順一街","SECT":" ","MAREA":" ","LANE":" ","ALLEY":" ","HOUSE_NO":"３號十二樓之１","E_COORD97":177458.35999999999,"N_COORD97":2540505.9500000002,"ADDRESS":"大順一街３號十二樓之１","OBJECTID":535488},"geometry":{"x":177458.3599999994,"y":2540505.9500000011}},{"attributes":{"ID":535516,"DIS_CODE":0,"TOWNNAME":"新營區","LI":"忠政里","LIN":"19鄰","STREET":"長榮路","SECT":"二段","MAREA":" ","LANE":" ","ALLEY":" ","HOUSE_NO":"３９號五樓","E_COORD97":179959.34,"N_COORD97":2579843.1699999999,"ADDRESS":"長榮路二段３９號五樓","OBJECTID":535489},"geometry":{"x":179959.34000000078,"y":2579843.1700000018}},{"attributes":{"ID":535517,"DIS_CODE":0,"TOWNNAME":"新營區","LI":"忠政里","LIN":"19鄰","STREET":"長榮路","SECT":"二段","MAREA":" ","LANE":" ","ALLEY":" ","HOUSE_NO":"３７號三樓","E_COORD97":179963.42999999999,"N_COORD97":2579843.1600000001,"ADDRESS":"長榮路二段３７號三樓","OBJECTID":535490},"geometry":{"x":179963.43000000063,"y":2579843.160000002}},{"attributes":{"ID":535518,"DIS_CODE":0,"TOWNNAME":"南區","LI":"新生里","LIN":"19鄰","STREET":"大同路","SECT":"二段","MAREA":" ","LANE":" ","ALLEY":" ","HOUSE_NO":"１１０號八樓之５","E_COORD97":169232.37,"N_COORD97":2542269.9900000002,"ADDRESS":"大同路二段１１０號八樓之５","OBJECTID":535491},"geometry":{"x":169232.37000000011,"y":2542269.9900000021}},{"attributes":{"ID":535519,"DIS_CODE":0,"TOWNNAME":"南區","LI":"新生里","LIN":"19鄰","STREET":"大同路","SECT":"二段","MAREA":" ","LANE":" ","ALLEY":" ","HOUSE_NO":"１１０號二樓","E_COORD97":169232.37,"N_COORD97":2542269.9900000002,"ADDRESS":"大同路二段１１０號二樓","OBJECTID":535492},"geometry":{"x":169232.37000000011,"y":2542269.9900000021}},{"attributes":{"ID":535520,"DIS_CODE":0,"TOWNNAME":"南區","LI":"新生里","LIN":"19鄰","STREET":"大同路","SECT":"二段","MAREA":" ","LANE":" ","ALLEY":" ","HOUSE_NO":"１１０號三樓之１","E_COORD97":169232.37,"N_COORD97":2542269.9900000002,"ADDRESS":"大同路二段１１０號三樓之１","OBJECTID":535493},"geometry":{"x":169232.37000000011,"y":2542269.9900000021}},{"attributes":{"ID":535521,"DIS_CODE":0,"TOWNNAME":"南區","LI":"新生里","LIN":"19鄰","STREET":"大同路","SECT":"二段","MAREA":" ","LANE":" ","ALLEY":" ","HOUSE_NO":"１１０號三樓之２","E_COORD97":169232.37,"N_COORD97":2542269.9900000002,"ADDRESS":"大同路二段１１０號三樓之２","OBJECTID":535494},"geometry":{"x":169232.37000000011,"y":2542269.9900000021}},{"attributes":{"ID":535522,"DIS_CODE":0,"TOWNNAME":"南區","LI":"新生里","LIN":"19鄰","STREET":"大同路","SECT":"二段","MAREA":" ","LANE":" ","ALLEY":" ","HOUSE_NO":"１１０號三樓之３","E_COORD97":169232.37,"N_COORD97":2542269.9900000002,"ADDRESS":"大同路二段１１０號三樓之３","OBJECTID":535495},"geometry":{"x":169232.37000000011,"y":2542269.9900000021}},{"attributes":{"ID":535523,"DIS_CODE":0,"TOWNNAME":"南區","LI":"新生里","LIN":"19鄰","STREET":"大同路","SECT":"二段","MAREA":" ","LANE":" ","ALLEY":" ","HOUSE_NO":"１１０號三樓之５","E_COORD97":169232.37,"N_COORD97":2542269.9900000002,"ADDRESS":"大同路二段１１０號三樓之５","OBJECTID":535496},"geometry":{"x":169232.37000000011,"y":2542269.9900000021}},{"attributes":{"ID":535524,"DIS_CODE":0,"TOWNNAME":"南區","LI":"新生里","LIN":"19鄰","STREET":"大同路","SECT":"二段","MAREA":" ","LANE":" ","ALLEY":" ","HOUSE_NO":"１１０號四樓之１","E_COORD97":169232.37,"N_COORD97":2542269.9900000002,"ADDRESS":"大同路二段１１０號四樓之１","OBJECTID":535497},"geometry":{"x":169232.37000000011,"y":2542269.9900000021}},{"attributes":{"ID":535525,"DIS_CODE":0,"TOWNNAME":"南區","LI":"新生里","LIN":"19鄰","STREET":"大同路","SECT":"二段","MAREA":" ","LANE":" ","ALLEY":" ","HOUSE_NO":"１１０號四樓之２","E_COORD97":169232.37,"N_COORD97":2542269.9900000002,"ADDRESS":"大同路二段１１０號四樓之２","OBJECTID":535498},"geometry":{"x":169232.37000000011,"y":2542269.9900000021}},{"attributes":{"ID":535526,"DIS_CODE":0,"TOWNNAME":"南區","LI":"新生里","LIN":"19鄰","STREET":"大同路","SECT":"二段","MAREA":" ","LANE":" ","ALLEY":" ","HOUSE_NO":"１１０號四樓之３","E_COORD97":169232.37,"N_COORD97":2542269.9900000002,"ADDRESS":"大同路二段１１０號四樓之３","OBJECTID":535499},"geometry":{"x":169232.37000000011,"y":2542269.9900000021}},{"attributes":{"ID":535527,"DIS_CODE":0,"TOWNNAME":"南區","LI":"新生里","LIN":"19鄰","STREET":"大同路","SECT":"二段","MAREA":" ","LANE":" ","ALLEY":" ","HOUSE_NO":"１１０號四樓之５","E_COORD97":169232.37,"N_COORD97":2542269.9900000002,"ADDRESS":"大同路二段１１０號四樓之５","OBJECTID":535500},"geometry":{"x":169232.37000000011,"y":2542269.9900000021}},{"attributes":{"ID":535528,"DIS_CODE":0,"TOWNNAME":"南區","LI":"新生里","LIN":"19鄰","STREET":"大同路","SECT":"二段","MAREA":" ","LANE":" ","ALLEY":" ","HOUSE_NO":"１１０號六樓之５","E_COORD97":169232.37,"N_COORD97":2542269.9900000002,"ADDRESS":"大同路二段１１０號六樓之５","OBJECTID":535501},"geometry":{"x":169232.37000000011,"y":2542269.9900000021}},{"attributes":{"ID":535529,"DIS_CODE":0,"TOWNNAME":"南區","LI":"新生里","LIN":"19鄰","STREET":"大同路","SECT":"二段","MAREA":" ","LANE":" ","ALLEY":" ","HOUSE_NO":"１１０號七樓之１","E_COORD97":169232.37,"N_COORD97":2542269.9900000002,"ADDRESS":"大同路二段１１０號七樓之１","OBJECTID":535502},"geometry":{"x":169232.37000000011,"y":2542269.9900000021}},{"attributes":{"ID":535530,"DIS_CODE":0,"TOWNNAME":"南區","LI":"新生里","LIN":"19鄰","STREET":"大同路","SECT":"二段","MAREA":" ","LANE":" ","ALLEY":" ","HOUSE_NO":"１１０號七樓之２","E_COORD97":169232.37,"N_COORD97":2542269.9900000002,"ADDRESS":"大同路二段１１０號七樓之２","OBJECTID":535503},"geometry":{"x":169232.37000000011,"y":2542269.9900000021}},{"attributes":{"ID":535531,"DIS_CODE":0,"TOWNNAME":"南區","LI":"新生里","LIN":"19鄰","STREET":"大同路","SECT":"二段","MAREA":" ","LANE":" ","ALLEY":" ","HOUSE_NO":"１１０號七樓之３","E_COORD97":169232.37,"N_COORD97":2542269.9900000002,"ADDRESS":"大同路二段１１０號七樓之３","OBJECTID":535504},"geometry":{"x":169232.37000000011,"y":2542269.9900000021}},{"attributes":{"ID":535532,"DIS_CODE":0,"TOWNNAME":"南區","LI":"新生里","LIN":"19鄰","STREET":"大同路","SECT":"二段","MAREA":" ","LANE":" ","ALLEY":" ","HOUSE_NO":"１１０號七樓之５","E_COORD97":169232.37,"N_COORD97":2542269.9900000002,"ADDRESS":"大同路二段１１０號七樓之５","OBJECTID":535505},"geometry":{"x":169232.37000000011,"y":2542269.9900000021}},{"attributes":{"ID":535533,"DIS_CODE":0,"TOWNNAME":"南區","LI":"新生里","LIN":"19鄰","STREET":"大同路","SECT":"二段","MAREA":" ","LANE":" ","ALLEY":" ","HOUSE_NO":"１１０號八樓之１","E_COORD97":169232.37,"N_COORD97":2542269.9900000002,"ADDRESS":"大同路二段１１０號八樓之１","OBJECTID":535506},"geometry":{"x":169232.37000000011,"y":2542269.9900000021}},{"attributes":{"ID":535534,"DIS_CODE":0,"TOWNNAME":"南區","LI":"新生里","LIN":"19鄰","STREET":"大同路","SECT":"二段","MAREA":" ","LANE":" ","ALLEY":" ","HOUSE_NO":"１１０號八樓之２","E_COORD97":169232.37,"N_COORD97":2542269.9900000002,"ADDRESS":"大同路二段１１０號八樓之２","OBJECTID":535507},"geometry":{"x":169232.37000000011,"y":2542269.9900000021}},{"attributes":{"ID":535535,"DIS_CODE":0,"TOWNNAME":"南區","LI":"新生里","LIN":"19鄰","STREET":"大同路","SECT":"二段","MAREA":" ","LANE":" ","ALLEY":" ","HOUSE_NO":"１１０號八樓之３","E_COORD97":169232.37,"N_COORD97":2542269.9900000002,"ADDRESS":"大同路二段１１０號八樓之３","OBJECTID":535508},"geometry":{"x":169232.37000000011,"y":2542269.9900000021}},{"attributes":{"ID":535536,"DIS_CODE":0,"TOWNNAME":"南區","LI":"新生里","LIN":"19鄰","STREET":"大同路","SECT":"二段","MAREA":" ","LANE":" ","ALLEY":" ","HOUSE_NO":"１１０號九樓之１","E_COORD97":169232.37,"N_COORD97":2542269.9900000002,"ADDRESS":"大同路二段１１０號九樓之１","OBJECTID":535509},"geometry":{"x":169232.37000000011,"y":2542269.9900000021}},{"attributes":{"ID":535537,"DIS_CODE":0,"TOWNNAME":"南區","LI":"新生里","LIN":"19鄰","STREET":"大同路","SECT":"二段","MAREA":" ","LANE":" ","ALLEY":" ","HOUSE_NO":"１１０號九樓之２","E_COORD97":169232.37,"N_COORD97":2542269.9900000002,"ADDRESS":"大同路二段１１０號九樓之２","OBJECTID":535510},"geometry":{"x":169232.37000000011,"y":2542269.9900000021}},{"attributes":{"ID":535538,"DIS_CODE":0,"TOWNNAME":"南區","LI":"新生里","LIN":"19鄰","STREET":"大同路","SECT":"二段","MAREA":" ","LANE":" ","ALLEY":" ","HOUSE_NO":"１１０號九樓之３","E_COORD97":169232.37,"N_COORD97":2542269.9900000002,"ADDRESS":"大同路二段１１０號九樓之３","OBJECTID":535511},"geometry":{"x":169232.37000000011,"y":2542269.9900000021}},{"attributes":{"ID":535539,"DIS_CODE":0,"TOWNNAME":"南區","LI":"新生里","LIN":"19鄰","STREET":"大同路","SECT":"二段","MAREA":" ","LANE":" ","ALLEY":" ","HOUSE_NO":"１１０號九樓之５","E_COORD97":169232.37,"N_COORD97":2542269.9900000002,"ADDRESS":"大同路二段１１０號九樓之５","OBJECTID":535512},"geometry":{"x":169232.37000000011,"y":2542269.9900000021}},{"attributes":{"ID":535540,"DIS_CODE":0,"TOWNNAME":"南區","LI":"新生里","LIN":"19鄰","STREET":"大同路","SECT":"二段","MAREA":" ","LANE":" ","ALLEY":" ","HOUSE_NO":"１１０號十樓之１","E_COORD97":169232.37,"N_COORD97":2542269.9900000002,"ADDRESS":"大同路二段１１０號十樓之１","OBJECTID":535513},"geometry":{"x":169232.37000000011,"y":2542269.9900000021}},{"attributes":{"ID":535541,"DIS_CODE":0,"TOWNNAME":"南區","LI":"新生里","LIN":"19鄰","STREET":"大同路","SECT":"二段","MAREA":" ","LANE":" ","ALLEY":" ","HOUSE_NO":"１１０號十樓之２","E_COORD97":169232.37,"N_COORD97":2542269.9900000002,"ADDRESS":"大同路二段１１０號十樓之２","OBJECTID":535514},"geometry":{"x":169232.37000000011,"y":2542269.9900000021}},{"attributes":{"ID":535542,"DIS_CODE":0,"TOWNNAME":"南區","LI":"新生里","LIN":"19鄰","STREET":"大同路","SECT":"二段","MAREA":" ","LANE":" ","ALLEY":" ","HOUSE_NO":"１１０號十樓之３","E_COORD97":169232.37,"N_COORD97":2542269.9900000002,"ADDRESS":"大同路二段１１０號十樓之３","OBJECTID":535515},"geometry":{"x":169232.37000000011,"y":2542269.9900000021}},{"attributes":{"ID":535543,"DIS_CODE":0,"TOWNNAME":"南區","LI":"新生里","LIN":"19鄰","STREET":"大同路","SECT":"二段","MAREA":" ","LANE":" ","ALLEY":" ","HOUSE_NO":"１１０號十樓之５","E_COORD97":169232.37,"N_COORD97":2542269.9900000002,"ADDRESS":"大同路二段１１０號十樓之５","OBJECTID":535516},"geometry":{"x":169232.37000000011,"y":2542269.9900000021}},{"attributes":{"ID":535544,"DIS_CODE":0,"TOWNNAME":"南區","LI":"新生里","LIN":"19鄰","STREET":"大同路","SECT":"二段","MAREA":" ","LANE":" ","ALLEY":" ","HOUSE_NO":"１１０號五樓之１","E_COORD97":169232.37,"N_COORD97":2542269.9900000002,"ADDRESS":"大同路二段１１０號五樓之１","OBJECTID":535517},"geometry":{"x":169232.37000000011,"y":2542269.9900000021}},{"attributes":{"ID":535545,"DIS_CODE":0,"TOWNNAME":"南區","LI":"新生里","LIN":"19鄰","STREET":"大同路","SECT":"二段","MAREA":" ","LANE":" ","ALLEY":" ","HOUSE_NO":"１１０號五樓之２","E_COORD97":169232.37,"N_COORD97":2542269.9900000002,"ADDRESS":"大同路二段１１０號五樓之２","OBJECTID":535518},"geometry":{"x":169232.37000000011,"y":2542269.9900000021}},{"attributes":{"ID":535546,"DIS_CODE":0,"TOWNNAME":"南區","LI":"新生里","LIN":"19鄰","STREET":"大同路","SECT":"二段","MAREA":" ","LANE":" ","ALLEY":" ","HOUSE_NO":"１１０號五樓之３","E_COORD97":169232.37,"N_COORD97":2542269.9900000002,"ADDRESS":"大同路二段１１０號五樓之３","OBJECTID":535519},"geometry":{"x":169232.37000000011,"y":2542269.9900000021}},{"attributes":{"ID":535547,"DIS_CODE":0,"TOWNNAME":"南區","LI":"新生里","LIN":"19鄰","STREET":"大同路","SECT":"二段","MAREA":" ","LANE":" ","ALLEY":" ","HOUSE_NO":"１１０號五樓之５","E_COORD97":169232.37,"N_COORD97":2542269.9900000002,"ADDRESS":"大同路二段１１０號五樓之５","OBJECTID":535520},"geometry":{"x":169232.37000000011,"y":2542269.9900000021}},{"attributes":{"ID":535548,"DIS_CODE":0,"TOWNNAME":"南區","LI":"新生里","LIN":"19鄰","STREET":"大同路","SECT":"二段","MAREA":" ","LANE":" ","ALLEY":" ","HOUSE_NO":"１１０號六樓之１","E_COORD97":169232.37,"N_COORD97":2542269.9900000002,"ADDRESS":"大同路二段１１０號六樓之１","OBJECTID":535521},"geometry":{"x":169232.37000000011,"y":2542269.9900000021}},{"attributes":{"ID":535549,"DIS_CODE":0,"TOWNNAME":"南區","LI":"新生里","LIN":"19鄰","STREET":"大同路","SECT":"二段","MAREA":" ","LANE":" ","ALLEY":" ","HOUSE_NO":"１１０號六樓之２","E_COORD97":169232.37,"N_COORD97":2542269.9900000002,"ADDRESS":"大同路二段１１０號六樓之２","OBJECTID":535522},"geometry":{"x":169232.37000000011,"y":2542269.9900000021}},{"attributes":{"ID":535550,"DIS_CODE":0,"TOWNNAME":"南區","LI":"新生里","LIN":"19鄰","STREET":"大同路","SECT":"二段","MAREA":" ","LANE":" ","ALLEY":" ","HOUSE_NO":"１１０號六樓之３","E_COORD97":169232.37,"N_COORD97":2542269.9900000002,"ADDRESS":"大同路二段１１０號六樓之３","OBJECTID":535523},"geometry":{"x":169232.37000000011,"y":2542269.9900000021}},{"attributes":{"ID":535551,"DIS_CODE":0,"TOWNNAME":"北區","LI":"六甲里","LIN":"19鄰","STREET":"公園路","SECT":" ","MAREA":" ","LANE":" ","ALLEY":" ","HOUSE_NO":"５８７號之２７五樓","E_COORD97":169113.89999999999,"N_COORD97":2545869.6400000001,"ADDRESS":"公園路５８７號之２７五樓","OBJECTID":535524},"geometry":{"x":169113.90000000037,"y":2545869.6400000025}},{"attributes":{"ID":535552,"DIS_CODE":0,"TOWNNAME":"北區","LI":"六甲里","LIN":"19鄰","STREET":"公園路","SECT":" ","MAREA":" ","LANE":" ","ALLEY":" ","HOUSE_NO":"５８７號之３３三樓之","E_COORD97":169099.57999999999,"N_COORD97":2545850.4300000002,"ADDRESS":"公園路５８７號之３３三樓之２","OBJECTID":535525},"geometry":{"x":169099.58000000101,"y":2545850.4299999997}},{"attributes":{"ID":535553,"DIS_CODE":0,"TOWNNAME":"北區","LI":"六甲里","LIN":"19鄰","STREET":"公園路","SECT":" ","MAREA":" ","LANE":" ","ALLEY":" ","HOUSE_NO":"５８７號之２１五樓","E_COORD97":169111.16,"N_COORD97":2545843.1699999999,"ADDRESS":"公園路５８７號之２１五樓","OBJECTID":535526},"geometry":{"x":169111.16000000108,"y":2545843.1699999999}},{"attributes":{"ID":535554,"DIS_CODE":0,"TOWNNAME":"北區","LI":"六甲里","LIN":"19鄰","STREET":"公園路","SECT":" ","MAREA":" ","LANE":" ","ALLEY":" ","HOUSE_NO":"５８７號之２０二樓","E_COORD97":169109.19,"N_COORD97":2545835.1400000001,"ADDRESS":"公園路５８７號之２０二樓","OBJECTID":535527},"geometry":{"x":169109.19000000227,"y":2545835.1400000025}},{"attributes":{"ID":535555,"DIS_CODE":0,"TOWNNAME":"北區","LI":"六甲里","LIN":"19鄰","STREET":"公園路","SECT":" ","MAREA":" ","LANE":" ","ALLEY":" ","HOUSE_NO":"５８７號之２０三樓","E_COORD97":169109.19,"N_COORD97":2545835.1400000001,"ADDRESS":"公園路５８７號之２０三樓","OBJECTID":535528},"geometry":{"x":169109.19000000227,"y":2545835.1400000025}},{"attributes":{"ID":535556,"DIS_CODE":0,"TOWNNAME":"北區","LI":"六甲里","LIN":"19鄰","STREET":"公園路","SECT":" ","MAREA":" ","LANE":" ","ALLEY":" ","HOUSE_NO":"５８７號之２０五樓","E_COORD97":169109.19,"N_COORD97":2545835.1400000001,"ADDRESS":"公園路５８７號之２０五樓","OBJECTID":535529},"geometry":{"x":169109.19000000227,"y":2545835.1400000025}},{"attributes":{"ID":535557,"DIS_CODE":0,"TOWNNAME":"北區","LI":"六甲里","LIN":"19鄰","STREET":"公園路","SECT":" ","MAREA":" ","LANE":" ","ALLEY":" ","HOUSE_NO":"５８７號之２０四樓","E_COORD97":169109.19,"N_COORD97":2545835.1400000001,"ADDRESS":"公園路５８７號之２０四樓","OBJECTID":535530},"geometry":{"x":169109.19000000227,"y":2545835.1400000025}},{"attributes":{"ID":535558,"DIS_CODE":0,"TOWNNAME":"北區","LI":"六甲里","LIN":"19鄰","STREET":"公園路","SECT":" ","MAREA":" ","LANE":" ","ALLEY":" ","HOUSE_NO":"５８７號之２１二樓","E_COORD97":169111.16,"N_COORD97":2545843.1699999999,"ADDRESS":"公園路５８７號之２１二樓","OBJECTID":535531},"geometry":{"x":169111.16000000108,"y":2545843.1699999999}},{"attributes":{"ID":535559,"DIS_CODE":0,"TOWNNAME":"北區","LI":"六甲里","LIN":"19鄰","STREET":"公園路","SECT":" ","MAREA":" ","LANE":" ","ALLEY":" ","HOUSE_NO":"５８７號之２１三樓","E_COORD97":169111.16,"N_COORD97":2545843.1699999999,"ADDRESS":"公園路５８７號之２１三樓","OBJECTID":535532},"geometry":{"x":169111.16000000108,"y":2545843.1699999999}},{"attributes":{"ID":535560,"DIS_CODE":0,"TOWNNAME":"北區","LI":"六甲里","LIN":"19鄰","STREET":"公園路","SECT":" ","MAREA":" ","LANE":" ","ALLEY":" ","HOUSE_NO":"５８７號之２１四樓","E_COORD97":169111.16,"N_COORD97":2545843.1699999999,"ADDRESS":"公園路５８７號之２１四樓","OBJECTID":535533},"geometry":{"x":169111.16000000108,"y":2545843.1699999999}},{"attributes":{"ID":535561,"DIS_CODE":0,"TOWNNAME":"北區","LI":"六甲里","LIN":"19鄰","STREET":"公園路","SECT":" ","MAREA":" ","LANE":" ","ALLEY":" ","HOUSE_NO":"５８７號之２２二樓","E_COORD97":169111.94,"N_COORD97":2545847.8799999999,"ADDRESS":"公園路５８７號之２２二樓","OBJECTID":535534},"geometry":{"x":169111.94000000041,"y":2545847.8800000027}},{"attributes":{"ID":535562,"DIS_CODE":0,"TOWNNAME":"北區","LI":"六甲里","LIN":"19鄰","STREET":"公園路","SECT":" ","MAREA":" ","LANE":" ","ALLEY":" ","HOUSE_NO":"５８７號之２２三樓","E_COORD97":169111.94,"N_COORD97":2545847.8799999999,"ADDRESS":"公園路５８７號之２２三樓","OBJECTID":535535},"geometry":{"x":169111.94000000041,"y":2545847.8800000027}},{"attributes":{"ID":535563,"DIS_CODE":0,"TOWNNAME":"北區","LI":"六甲里","LIN":"19鄰","STREET":"公園路","SECT":" ","MAREA":" ","LANE":" ","ALLEY":" ","HOUSE_NO":"５８７號之２２四樓","E_COORD97":169111.94,"N_COORD97":2545847.8799999999,"ADDRESS":"公園路５８７號之２２四樓","OBJECTID":535536},"geometry":{"x":169111.94000000041,"y":2545847.8800000027}},{"attributes":{"ID":535564,"DIS_CODE":0,"TOWNNAME":"北區","LI":"六甲里","LIN":"19鄰","STREET":"公園路","SECT":" ","MAREA":" ","LANE":" ","ALLEY":" ","HOUSE_NO":"５８７號之２３二樓","E_COORD97":169113.70999999999,"N_COORD97":2545853.5600000001,"ADDRESS":"公園路５８７號之２３二樓","OBJECTID":535537},"geometry":{"x":169113.71000000183,"y":2545853.5600000005}},{"attributes":{"ID":535565,"DIS_CODE":0,"TOWNNAME":"北區","LI":"六甲里","LIN":"19鄰","STREET":"公園路","SECT":" ","MAREA":" ","LANE":" ","ALLEY":" ","HOUSE_NO":"５８７號之２３三樓","E_COORD97":169113.70999999999,"N_COORD97":2545853.5600000001,"ADDRESS":"公園路５８７號之２３三樓","OBJECTID":535538},"geometry":{"x":169113.71000000183,"y":2545853.5600000005}},{"attributes":{"ID":535566,"DIS_CODE":0,"TOWNNAME":"北區","LI":"六甲里","LIN":"19鄰","STREET":"公園路","SECT":" ","MAREA":" ","LANE":" ","ALLEY":" ","HOUSE_NO":"５８７號之２３五樓","E_COORD97":169113.70999999999,"N_COORD97":2545853.5600000001,"ADDRESS":"公園路５８７號之２３五樓","OBJECTID":535539},"geometry":{"x":169113.71000000183,"y":2545853.5600000005}},{"attributes":{"ID":535567,"DIS_CODE":0,"TOWNNAME":"北區","LI":"六甲里","LIN":"19鄰","STREET":"公園路","SECT":" ","MAREA":" ","LANE":" ","ALLEY":" ","HOUSE_NO":"５８７號之２３四樓","E_COORD97":169113.70999999999,"N_COORD97":2545853.5600000001,"ADDRESS":"公園路５８７號之２３四樓","OBJECTID":535540},"geometry":{"x":169113.71000000183,"y":2545853.5600000005}},{"attributes":{"ID":535568,"DIS_CODE":0,"TOWNNAME":"北區","LI":"六甲里","LIN":"19鄰","STREET":"公園路","SECT":" ","MAREA":" ","LANE":" ","ALLEY":" ","HOUSE_NO":"５８７號之２４二樓","E_COORD97":169114.48999999999,"N_COORD97":2545858.27,"ADDRESS":"公園路５８７號之２４二樓","OBJECTID":535541},"geometry":{"x":169114.49000000115,"y":2545858.2699999996}},{"attributes":{"ID":535569,"DIS_CODE":0,"TOWNNAME":"北區","LI":"六甲里","LIN":"19鄰","STREET":"公園路","SECT":" ","MAREA":" ","LANE":" ","ALLEY":" ","HOUSE_NO":"５８７號之２４三樓","E_COORD97":169114.48999999999,"N_COORD97":2545858.27,"ADDRESS":"公園路５８７號之２４三樓","OBJECTID":535542},"geometry":{"x":169114.49000000115,"y":2545858.2699999996}},{"attributes":{"ID":535570,"DIS_CODE":0,"TOWNNAME":"北區","LI":"六甲里","LIN":"19鄰","STREET":"公園路","SECT":" ","MAREA":" ","LANE":" ","ALLEY":" ","HOUSE_NO":"５８７號之２４五樓","E_COORD97":169114.48999999999,"N_COORD97":2545858.27,"ADDRESS":"公園路５８７號之２４五樓","OBJECTID":535543},"geometry":{"x":169114.49000000115,"y":2545858.2699999996}},{"attributes":{"ID":535571,"DIS_CODE":0,"TOWNNAME":"北區","LI":"六甲里","LIN":"19鄰","STREET":"公園路","SECT":" ","MAREA":" ","LANE":" ","ALLEY":" ","HOUSE_NO":"５８７號之２４四樓之","E_COORD97":169114.48999999999,"N_COORD97":2545858.27,"ADDRESS":"公園路５８７號之２４四樓之１","OBJECTID":535544},"geometry":{"x":169114.49000000115,"y":2545858.2699999996}},{"attributes":{"ID":535572,"DIS_CODE":0,"TOWNNAME":"北區","LI":"六甲里","LIN":"19鄰","STREET":"公園路","SECT":" ","MAREA":" ","LANE":" ","ALLEY":" ","HOUSE_NO":"５８７號之２４四樓之","E_COORD97":169114.48999999999,"N_COORD97":2545858.27,"ADDRESS":"公園路５８７號之２４四樓之２","OBJECTID":535545},"geometry":{"x":169114.49000000115,"y":2545858.2699999996}},{"attributes":{"ID":535573,"DIS_CODE":0,"TOWNNAME":"北區","LI":"六甲里","LIN":"19鄰","STREET":"公園路","SECT":" ","MAREA":" ","LANE":" ","ALLEY":" ","HOUSE_NO":"５８７號之２５二樓","E_COORD97":169116.45999999999,"N_COORD97":2545863.9500000002,"ADDRESS":"公園路５８７號之２５二樓","OBJECTID":535546},"geometry":{"x":169116.45999999996,"y":2545863.9499999993}},{"attributes":{"ID":535574,"DIS_CODE":0,"TOWNNAME":"東區","LI":"忠孝里","LIN":"35鄰","STREET":"崇明路","SECT":" ","MAREA":" ","LANE":" ","ALLEY":" ","HOUSE_NO":"４８號","E_COORD97":169663.01999999999,"N_COORD97":2542393.8900000001,"ADDRESS":"崇明路４８號","OBJECTID":535547},"geometry":{"x":169663.01999999955,"y":2542393.8900000006}},{"attributes":{"ID":535575,"DIS_CODE":0,"TOWNNAME":"北區","LI":"六甲里","LIN":"19鄰","STREET":"公園路","SECT":" ","MAREA":" ","LANE":" ","ALLEY":" ","HOUSE_NO":"５８７號之２５三樓之","E_COORD97":169116.45999999999,"N_COORD97":2545863.9500000002,"ADDRESS":"公園路５８７號之２５三樓之１","OBJECTID":535548},"geometry":{"x":169116.45999999996,"y":2545863.9499999993}},{"attributes":{"ID":535576,"DIS_CODE":0,"TOWNNAME":"北區","LI":"六甲里","LIN":"19鄰","STREET":"公園路","SECT":" ","MAREA":" ","LANE":" ","ALLEY":" ","HOUSE_NO":"５８７號之２５三樓之","E_COORD97":169116.45999999999,"N_COORD97":2545863.9500000002,"ADDRESS":"公園路５８７號之２５三樓之２","OBJECTID":535549},"geometry":{"x":169116.45999999996,"y":2545863.9499999993}},{"attributes":{"ID":535577,"DIS_CODE":0,"TOWNNAME":"北區","LI":"六甲里","LIN":"19鄰","STREET":"公園路","SECT":" ","MAREA":" ","LANE":" ","ALLEY":" ","HOUSE_NO":"５８７號之２５五樓","E_COORD97":169116.45999999999,"N_COORD97":2545863.9500000002,"ADDRESS":"公園路５８７號之２５五樓","OBJECTID":535550},"geometry":{"x":169116.45999999996,"y":2545863.9499999993}},{"attributes":{"ID":535578,"DIS_CODE":0,"TOWNNAME":"北區","LI":"六甲里","LIN":"19鄰","STREET":"公園路","SECT":" ","MAREA":" ","LANE":" ","ALLEY":" ","HOUSE_NO":"５８７號之２５四樓之","E_COORD97":169116.45999999999,"N_COORD97":2545863.9500000002,"ADDRESS":"公園路５８７號之２５四樓之１","OBJECTID":535551},"geometry":{"x":169116.45999999996,"y":2545863.9499999993}},{"attributes":{"ID":535579,"DIS_CODE":0,"TOWNNAME":"北區","LI":"六甲里","LIN":"19鄰","STREET":"公園路","SECT":" ","MAREA":" ","LANE":" ","ALLEY":" ","HOUSE_NO":"５８７號之２５四樓之","E_COORD97":169116.45999999999,"N_COORD97":2545863.9500000002,"ADDRESS":"公園路５８７號之２５四樓之２","OBJECTID":535552},"geometry":{"x":169116.45999999996,"y":2545863.9499999993}},{"attributes":{"ID":535580,"DIS_CODE":0,"TOWNNAME":"北區","LI":"六甲里","LIN":"19鄰","STREET":"公園路","SECT":" ","MAREA":" ","LANE":" ","ALLEY":" ","HOUSE_NO":"５８７號之２６三樓之","E_COORD97":169118.81,"N_COORD97":2545868.0699999998,"ADDRESS":"公園路５８７號之２６三樓之１","OBJECTID":535553},"geometry":{"x":169118.80999999959,"y":2545868.0700000003}},{"attributes":{"ID":535581,"DIS_CODE":0,"TOWNNAME":"北區","LI":"六甲里","LIN":"19鄰","STREET":"公園路","SECT":" ","MAREA":" ","LANE":" ","ALLEY":" ","HOUSE_NO":"５８７號之２６三樓之","E_COORD97":169118.81,"N_COORD97":2545868.0699999998,"ADDRESS":"公園路５８７號之２６三樓之２","OBJECTID":535554},"geometry":{"x":169118.80999999959,"y":2545868.0700000003}},{"attributes":{"ID":535582,"DIS_CODE":0,"TOWNNAME":"北區","LI":"六甲里","LIN":"19鄰","STREET":"公園路","SECT":" ","MAREA":" ","LANE":" ","ALLEY":" ","HOUSE_NO":"５８７號之２６五樓","E_COORD97":169118.81,"N_COORD97":2545868.0699999998,"ADDRESS":"公園路５８７號之２６五樓","OBJECTID":535555},"geometry":{"x":169118.80999999959,"y":2545868.0700000003}},{"attributes":{"ID":535583,"DIS_CODE":0,"TOWNNAME":"北區","LI":"六甲里","LIN":"19鄰","STREET":"公園路","SECT":" ","MAREA":" ","LANE":" ","ALLEY":" ","HOUSE_NO":"５８７號之２６四樓之","E_COORD97":169118.81,"N_COORD97":2545868.0699999998,"ADDRESS":"公園路５８７號之２６四樓之１","OBJECTID":535556},"geometry":{"x":169118.80999999959,"y":2545868.0700000003}},{"attributes":{"ID":535584,"DIS_CODE":0,"TOWNNAME":"北區","LI":"六甲里","LIN":"19鄰","STREET":"公園路","SECT":" ","MAREA":" ","LANE":" ","ALLEY":" ","HOUSE_NO":"５８７號之２６四樓之","E_COORD97":169118.81,"N_COORD97":2545868.0699999998,"ADDRESS":"公園路５８７號之２６四樓之２","OBJECTID":535557},"geometry":{"x":169118.80999999959,"y":2545868.0700000003}},{"attributes":{"ID":535585,"DIS_CODE":0,"TOWNNAME":"北區","LI":"六甲里","LIN":"19鄰","STREET":"公園路","SECT":" ","MAREA":" ","LANE":" ","ALLEY":" ","HOUSE_NO":"５８７號之２７二樓","E_COORD97":169113.89999999999,"N_COORD97":2545869.6400000001,"ADDRESS":"公園路５８７號之２７二樓","OBJECTID":535558},"geometry":{"x":169113.90000000037,"y":2545869.6400000025}},{"attributes":{"ID":535586,"DIS_CODE":0,"TOWNNAME":"北區","LI":"六甲里","LIN":"19鄰","STREET":"公園路","SECT":" ","MAREA":" ","LANE":" ","ALLEY":" ","HOUSE_NO":"５８７號之２７三樓","E_COORD97":169113.89999999999,"N_COORD97":2545869.6400000001,"ADDRESS":"公園路５８７號之２７三樓","OBJECTID":535559},"geometry":{"x":169113.90000000037,"y":2545869.6400000025}},{"attributes":{"ID":535587,"DIS_CODE":0,"TOWNNAME":"北區","LI":"六甲里","LIN":"19鄰","STREET":"公園路","SECT":" ","MAREA":" ","LANE":" ","ALLEY":" ","HOUSE_NO":"５８７號之２７四樓","E_COORD97":169113.89999999999,"N_COORD97":2545869.6400000001,"ADDRESS":"公園路５８７號之２７四樓","OBJECTID":535560},"geometry":{"x":169113.90000000037,"y":2545869.6400000025}},{"attributes":{"ID":535588,"DIS_CODE":0,"TOWNNAME":"北區","LI":"六甲里","LIN":"19鄰","STREET":"公園路","SECT":" ","MAREA":" ","LANE":" ","ALLEY":" ","HOUSE_NO":"５８７號之２８二樓","E_COORD97":169108.60999999999,"N_COORD97":2545870.8100000001,"ADDRESS":"公園路５８７號之２８二樓","OBJECTID":535561},"geometry":{"x":169108.61000000127,"y":2545870.8100000024}},{"attributes":{"ID":535589,"DIS_CODE":0,"TOWNNAME":"北區","LI":"六甲里","LIN":"19鄰","STREET":"公園路","SECT":" ","MAREA":" ","LANE":" ","ALLEY":" ","HOUSE_NO":"５８７號之２８三樓","E_COORD97":169108.60999999999,"N_COORD97":2545870.8100000001,"ADDRESS":"公園路５８７號之２８三樓","OBJECTID":535562},"geometry":{"x":169108.61000000127,"y":2545870.8100000024}},{"attributes":{"ID":535590,"DIS_CODE":0,"TOWNNAME":"北區","LI":"六甲里","LIN":"19鄰","STREET":"公園路","SECT":" ","MAREA":" ","LANE":" ","ALLEY":" ","HOUSE_NO":"５８７號之２８五樓","E_COORD97":169108.60999999999,"N_COORD97":2545870.8100000001,"ADDRESS":"公園路５８７號之２８五樓","OBJECTID":535563},"geometry":{"x":169108.61000000127,"y":2545870.8100000024}},{"attributes":{"ID":535591,"DIS_CODE":0,"TOWNNAME":"北區","LI":"六甲里","LIN":"19鄰","STREET":"公園路","SECT":" ","MAREA":" ","LANE":" ","ALLEY":" ","HOUSE_NO":"５８７號之２８四樓","E_COORD97":169108.60999999999,"N_COORD97":2545870.8100000001,"ADDRESS":"公園路５８７號之２８四樓","OBJECTID":535564},"geometry":{"x":169108.61000000127,"y":2545870.8100000024}},{"attributes":{"ID":535592,"DIS_CODE":0,"TOWNNAME":"北區","LI":"六甲里","LIN":"19鄰","STREET":"公園路","SECT":" ","MAREA":" ","LANE":" ","ALLEY":" ","HOUSE_NO":"５８７號之２９二樓之","E_COORD97":169101.92999999999,"N_COORD97":2545872.3799999999,"ADDRESS":"公園路５８７號之２９二樓之１","OBJECTID":535565},"geometry":{"x":169101.93000000063,"y":2545872.3800000008}},{"attributes":{"ID":535593,"DIS_CODE":0,"TOWNNAME":"北區","LI":"六甲里","LIN":"19鄰","STREET":"公園路","SECT":" ","MAREA":" ","LANE":" ","ALLEY":" ","HOUSE_NO":"５８７號之２９二樓之","E_COORD97":169101.92999999999,"N_COORD97":2545872.3799999999,"ADDRESS":"公園路５８７號之２９二樓之２","OBJECTID":535566},"geometry":{"x":169101.93000000063,"y":2545872.3800000008}},{"attributes":{"ID":535594,"DIS_CODE":0,"TOWNNAME":"北區","LI":"六甲里","LIN":"19鄰","STREET":"公園路","SECT":" ","MAREA":" ","LANE":" ","ALLEY":" ","HOUSE_NO":"５８７號之２９三樓之","E_COORD97":169101.92999999999,"N_COORD97":2545872.3799999999,"ADDRESS":"公園路５８７號之２９三樓之１","OBJECTID":535567},"geometry":{"x":169101.93000000063,"y":2545872.3800000008}},{"attributes":{"ID":535595,"DIS_CODE":0,"TOWNNAME":"北區","LI":"六甲里","LIN":"19鄰","STREET":"公園路","SECT":" ","MAREA":" ","LANE":" ","ALLEY":" ","HOUSE_NO":"５８７號之２９五樓","E_COORD97":169101.92999999999,"N_COORD97":2545872.3799999999,"ADDRESS":"公園路５８７號之２９五樓","OBJECTID":535568},"geometry":{"x":169101.93000000063,"y":2545872.3800000008}},{"attributes":{"ID":535596,"DIS_CODE":0,"TOWNNAME":"北區","LI":"六甲里","LIN":"19鄰","STREET":"公園路","SECT":" ","MAREA":" ","LANE":" ","ALLEY":" ","HOUSE_NO":"５８７號之２９四樓","E_COORD97":169101.92999999999,"N_COORD97":2545872.3799999999,"ADDRESS":"公園路５８７號之２９四樓","OBJECTID":535569},"geometry":{"x":169101.93000000063,"y":2545872.3800000008}},{"attributes":{"ID":535597,"DIS_CODE":0,"TOWNNAME":"北區","LI":"六甲里","LIN":"19鄰","STREET":"公園路","SECT":" ","MAREA":" ","LANE":" ","ALLEY":" ","HOUSE_NO":"５８７號之３０二樓","E_COORD97":169103.89000000001,"N_COORD97":2545866.5,"ADDRESS":"公園路５８７號之３０二樓","OBJECTID":535570},"geometry":{"x":169103.8900000006,"y":2545866.5000000019}},{"attributes":{"ID":535598,"DIS_CODE":0,"TOWNNAME":"北區","LI":"六甲里","LIN":"19鄰","STREET":"公園路","SECT":" ","MAREA":" ","LANE":" ","ALLEY":" ","HOUSE_NO":"５８７號之３０三樓之","E_COORD97":169103.89000000001,"N_COORD97":2545866.5,"ADDRESS":"公園路５８７號之３０三樓之１","OBJECTID":535571},"geometry":{"x":169103.8900000006,"y":2545866.5000000019}},{"attributes":{"ID":535599,"DIS_CODE":0,"TOWNNAME":"北區","LI":"六甲里","LIN":"19鄰","STREET":"公園路","SECT":" ","MAREA":" ","LANE":" ","ALLEY":" ","HOUSE_NO":"５８７號之３０三樓之","E_COORD97":169103.89000000001,"N_COORD97":2545866.5,"ADDRESS":"公園路５８７號之３０三樓之２","OBJECTID":535572},"geometry":{"x":169103.8900000006,"y":2545866.5000000019}},{"attributes":{"ID":535600,"DIS_CODE":0,"TOWNNAME":"北區","LI":"六甲里","LIN":"19鄰","STREET":"公園路","SECT":" ","MAREA":" ","LANE":" ","ALLEY":" ","HOUSE_NO":"５８７號之３０五樓","E_COORD97":169103.89000000001,"N_COORD97":2545866.5,"ADDRESS":"公園路５８７號之３０五樓","OBJECTID":535573},"geometry":{"x":169103.8900000006,"y":2545866.5000000019}},{"attributes":{"ID":535601,"DIS_CODE":0,"TOWNNAME":"北區","LI":"六甲里","LIN":"19鄰","STREET":"公園路","SECT":" ","MAREA":" ","LANE":" ","ALLEY":" ","HOUSE_NO":"５８７號之３０四樓","E_COORD97":169103.89000000001,"N_COORD97":2545866.5,"ADDRESS":"公園路５８７號之３０四樓","OBJECTID":535574},"geometry":{"x":169103.8900000006,"y":2545866.5000000019}},{"attributes":{"ID":535602,"DIS_CODE":0,"TOWNNAME":"北區","LI":"六甲里","LIN":"19鄰","STREET":"公園路","SECT":" ","MAREA":" ","LANE":" ","ALLEY":" ","HOUSE_NO":"５８７號之３１二樓","E_COORD97":169102.51999999999,"N_COORD97":2545861.0099999998,"ADDRESS":"公園路５８７號之３１二樓","OBJECTID":535575},"geometry":{"x":169102.51999999955,"y":2545861.0099999998}},{"attributes":{"ID":535603,"DIS_CODE":0,"TOWNNAME":"北區","LI":"六甲里","LIN":"19鄰","STREET":"公園路","SECT":" ","MAREA":" ","LANE":" ","ALLEY":" ","HOUSE_NO":"５８７號之３１三樓之","E_COORD97":169102.51999999999,"N_COORD97":2545861.0099999998,"ADDRESS":"公園路５８７號之３１三樓之１","OBJECTID":535576},"geometry":{"x":169102.51999999955,"y":2545861.0099999998}},{"attributes":{"ID":535604,"DIS_CODE":0,"TOWNNAME":"北區","LI":"六甲里","LIN":"19鄰","STREET":"公園路","SECT":" ","MAREA":" ","LANE":" ","ALLEY":" ","HOUSE_NO":"５８７號之３１三樓之","E_COORD97":169102.51999999999,"N_COORD97":2545861.0099999998,"ADDRESS":"公園路５８７號之３１三樓之２","OBJECTID":535577},"geometry":{"x":169102.51999999955,"y":2545861.0099999998}},{"attributes":{"ID":535605,"DIS_CODE":0,"TOWNNAME":"北區","LI":"六甲里","LIN":"19鄰","STREET":"公園路","SECT":" ","MAREA":" ","LANE":" ","ALLEY":" ","HOUSE_NO":"５８７號之３１五樓","E_COORD97":169102.51999999999,"N_COORD97":2545861.0099999998,"ADDRESS":"公園路５８７號之３１五樓","OBJECTID":535578},"geometry":{"x":169102.51999999955,"y":2545861.0099999998}},{"attributes":{"ID":535606,"DIS_CODE":0,"TOWNNAME":"北區","LI":"六甲里","LIN":"19鄰","STREET":"公園路","SECT":" ","MAREA":" ","LANE":" ","ALLEY":" ","HOUSE_NO":"５８７號之３１四樓","E_COORD97":169102.51999999999,"N_COORD97":2545861.0099999998,"ADDRESS":"公園路５８７號之３１四樓","OBJECTID":535579},"geometry":{"x":169102.51999999955,"y":2545861.0099999998}},{"attributes":{"ID":535607,"DIS_CODE":0,"TOWNNAME":"北區","LI":"六甲里","LIN":"19鄰","STREET":"公園路","SECT":" ","MAREA":" ","LANE":" ","ALLEY":" ","HOUSE_NO":"５８７號之３２二樓","E_COORD97":169100.35999999999,"N_COORD97":2545856.1099999999,"ADDRESS":"公園路５８７號之３２二樓","OBJECTID":535580},"geometry":{"x":169100.36000000034,"y":2545856.1099999994}},{"attributes":{"ID":535608,"DIS_CODE":0,"TOWNNAME":"北區","LI":"六甲里","LIN":"19鄰","STREET":"公園路","SECT":" ","MAREA":" ","LANE":" ","ALLEY":" ","HOUSE_NO":"５８７號之３２三樓之","E_COORD97":169100.35999999999,"N_COORD97":2545856.1099999999,"ADDRESS":"公園路５８７號之３２三樓之１","OBJECTID":535581},"geometry":{"x":169100.36000000034,"y":2545856.1099999994}},{"attributes":{"ID":535609,"DIS_CODE":0,"TOWNNAME":"北區","LI":"六甲里","LIN":"19鄰","STREET":"公園路","SECT":" ","MAREA":" ","LANE":" ","ALLEY":" ","HOUSE_NO":"５８７號之３２三樓之","E_COORD97":169100.35999999999,"N_COORD97":2545856.1099999999,"ADDRESS":"公園路５８７號之３２三樓之２","OBJECTID":535582},"geometry":{"x":169100.36000000034,"y":2545856.1099999994}},{"attributes":{"ID":535610,"DIS_CODE":0,"TOWNNAME":"北區","LI":"六甲里","LIN":"19鄰","STREET":"公園路","SECT":" ","MAREA":" ","LANE":" ","ALLEY":" ","HOUSE_NO":"５８７號之３２四樓之","E_COORD97":169100.35999999999,"N_COORD97":2545856.1099999999,"ADDRESS":"公園路５８７號之３２四樓之１","OBJECTID":535583},"geometry":{"x":169100.36000000034,"y":2545856.1099999994}},{"attributes":{"ID":535611,"DIS_CODE":0,"TOWNNAME":"北區","LI":"六甲里","LIN":"19鄰","STREET":"公園路","SECT":" ","MAREA":" ","LANE":" ","ALLEY":" ","HOUSE_NO":"５８７號之３２四樓之","E_COORD97":169100.35999999999,"N_COORD97":2545856.1099999999,"ADDRESS":"公園路５８７號之３２四樓之２","OBJECTID":535584},"geometry":{"x":169100.36000000034,"y":2545856.1099999994}},{"attributes":{"ID":535612,"DIS_CODE":0,"TOWNNAME":"北區","LI":"六甲里","LIN":"19鄰","STREET":"公園路","SECT":" ","MAREA":" ","LANE":" ","ALLEY":" ","HOUSE_NO":"５８７號之３３二樓","E_COORD97":169099.57999999999,"N_COORD97":2545850.4300000002,"ADDRESS":"公園路５８７號之３３二樓","OBJECTID":535585},"geometry":{"x":169099.58000000101,"y":2545850.4299999997}},{"attributes":{"ID":535613,"DIS_CODE":0,"TOWNNAME":"北區","LI":"六甲里","LIN":"19鄰","STREET":"公園路","SECT":" ","MAREA":" ","LANE":" ","ALLEY":" ","HOUSE_NO":"５８７號之３３三樓之","E_COORD97":169099.57999999999,"N_COORD97":2545850.4300000002,"ADDRESS":"公園路５８７號之３３三樓之１","OBJECTID":535586},"geometry":{"x":169099.58000000101,"y":2545850.4299999997}},{"attributes":{"ID":535614,"DIS_CODE":0,"TOWNNAME":"北區","LI":"六甲里","LIN":"19鄰","STREET":"公園路","SECT":" ","MAREA":" ","LANE":" ","ALLEY":" ","HOUSE_NO":"５８７號之２２五樓","E_COORD97":169111.94,"N_COORD97":2545847.8799999999,"ADDRESS":"公園路５８７號之２２五樓","OBJECTID":535587},"geometry":{"x":169111.94000000041,"y":2545847.8800000027}},{"attributes":{"ID":535615,"DIS_CODE":0,"TOWNNAME":"新營區","LI":"王公里","LIN":"19鄰","STREET":"民族路","SECT":" ","MAREA":" ","LANE":" ","ALLEY":" ","HOUSE_NO":"１１２號六樓之２","E_COORD97":180353.54999999999,"N_COORD97":2579207.9100000001,"ADDRESS":"民族路１１２號六樓之２","OBJECTID":535588},"geometry":{"x":180353.54999999981,"y":2579207.910000002}},{"attributes":{"ID":535616,"DIS_CODE":0,"TOWNNAME":"新營區","LI":"王公里","LIN":"19鄰","STREET":"民族路","SECT":" ","MAREA":" ","LANE":" ","ALLEY":" ","HOUSE_NO":"１１２號七樓之１","E_COORD97":180353.42000000001,"N_COORD97":2579207.9100000001,"ADDRESS":"民族路１１２號七樓之１","OBJECTID":535589},"geometry":{"x":180353.42000000086,"y":2579207.910000002}},{"attributes":{"ID":535617,"DIS_CODE":0,"TOWNNAME":"新營區","LI":"王公里","LIN":"19鄰","STREET":"民族路","SECT":" ","MAREA":" ","LANE":" ","ALLEY":" ","HOUSE_NO":"１１２號六樓之３","E_COORD97":180353.51000000001,"N_COORD97":2579207.9100000001,"ADDRESS":"民族路１１２號六樓之３","OBJECTID":535590},"geometry":{"x":180353.50999999978,"y":2579207.910000002}},{"attributes":{"ID":535618,"DIS_CODE":0,"TOWNNAME":"安平區","LI":"國平里","LIN":"19鄰","STREET":"育平五街","SECT":" ","MAREA":" ","LANE":" ","ALLEY":" ","HOUSE_NO":"６號二十二樓之１","E_COORD97":164895.03,"N_COORD97":2543486.02,"ADDRESS":"育平五街６號二十二樓之１","OBJECTID":535591},"geometry":{"x":164895.03000000119,"y":2543486.0200000014}},{"attributes":{"ID":535619,"DIS_CODE":0,"TOWNNAME":"下營區","LI":"後街里","LIN":"19鄰","STREET":"水池街","SECT":" ","MAREA":" ","LANE":" ","ALLEY":" ","HOUSE_NO":"１９２號","E_COORD97":174472.54999999999,"N_COORD97":2571208.9500000002,"ADDRESS":"水池街１９２號","OBJECTID":535592},"geometry":{"x":174472.54999999981,"y":2571208.9500000011}},{"attributes":{"ID":535620,"DIS_CODE":0,"TOWNNAME":"新營區","LI":"王公里","LIN":"19鄰","STREET":"民族路","SECT":" ","MAREA":" ","LANE":" ","ALLEY":" ","HOUSE_NO":"１１２號二樓之３","E_COORD97":180353.51000000001,"N_COORD97":2579207.9100000001,"ADDRESS":"民族路１１２號二樓之３","OBJECTID":535593},"geometry":{"x":180353.50999999978,"y":2579207.910000002}},{"attributes":{"ID":535621,"DIS_CODE":0,"TOWNNAME":"新營區","LI":"王公里","LIN":"19鄰","STREET":"民族路","SECT":" ","MAREA":" ","LANE":" ","ALLEY":" ","HOUSE_NO":"１１２號五樓之１","E_COORD97":180353.42000000001,"N_COORD97":2579207.9100000001,"ADDRESS":"民族路１１２號五樓之１","OBJECTID":535594},"geometry":{"x":180353.42000000086,"y":2579207.910000002}},{"attributes":{"ID":535622,"DIS_CODE":0,"TOWNNAME":"南區","LI":"大林里","LIN":"19鄰","STREET":"大林路","SECT":" ","MAREA":" ","LANE":" ","ALLEY":" ","HOUSE_NO":"１０７號八樓之１","E_COORD97":169154.32999999999,"N_COORD97":2541779.4300000002,"ADDRESS":"大林路１０７號八樓之１","OBJECTID":535595},"geometry":{"x":169154.33000000101,"y":2541779.4299999997}},{"attributes":{"ID":535623,"DIS_CODE":0,"TOWNNAME":"南區","LI":"大林里","LIN":"19鄰","STREET":"大林路","SECT":" ","MAREA":" ","LANE":" ","ALLEY":" ","HOUSE_NO":"１０７號五樓之２","E_COORD97":169154.32999999999,"N_COORD97":2541779.4300000002,"ADDRESS":"大林路１０７號五樓之２","OBJECTID":535596},"geometry":{"x":169154.33000000101,"y":2541779.4299999997}},{"attributes":{"ID":535624,"DIS_CODE":0,"TOWNNAME":"南區","LI":"大林里","LIN":"19鄰","STREET":"大林路","SECT":" ","MAREA":" ","LANE":" ","ALLEY":" ","HOUSE_NO":"１０５號九樓之２","E_COORD97":169160.35999999999,"N_COORD97":2541780.4399999999,"ADDRESS":"大林路１０５號九樓之２","OBJECTID":535597},"geometry":{"x":169160.36000000034,"y":2541780.4400000013}},{"attributes":{"ID":535625,"DIS_CODE":0,"TOWNNAME":"南區","LI":"大林里","LIN":"19鄰","STREET":"大林路","SECT":" ","MAREA":" ","LANE":" ","ALLEY":" ","HOUSE_NO":"１０５號八樓之１","E_COORD97":169160.35999999999,"N_COORD97":2541780.4399999999,"ADDRESS":"大林路１０５號八樓之１","OBJECTID":535598},"geometry":{"x":169160.36000000034,"y":2541780.4400000013}},{"attributes":{"ID":535626,"DIS_CODE":0,"TOWNNAME":"南區","LI":"大林里","LIN":"19鄰","STREET":"大林路","SECT":" ","MAREA":" ","LANE":" ","ALLEY":" ","HOUSE_NO":"１０５號八樓之２","E_COORD97":169160.35999999999,"N_COORD97":2541780.4399999999,"ADDRESS":"大林路１０５號八樓之２","OBJECTID":535599},"geometry":{"x":169160.36000000034,"y":2541780.4400000013}},{"attributes":{"ID":535627,"DIS_CODE":0,"TOWNNAME":"南區","LI":"大林里","LIN":"19鄰","STREET":"大林路","SECT":" ","MAREA":" ","LANE":" ","ALLEY":" ","HOUSE_NO":"１０５號十樓","E_COORD97":169160.35999999999,"N_COORD97":2541780.4399999999,"ADDRESS":"大林路１０５號十樓","OBJECTID":535600},"geometry":{"x":169160.36000000034,"y":2541780.4400000013}}]}