{"displayFieldName":"TOWNNAME","fieldAliases":{"ID":"ID","DIS_CODE":"DIS_CODE","TOWNNAME":"TOWNNAME","LI":"LI","LIN":"LIN","STREET":"STREET","SECT":"SECT","MAREA":"MAREA","LANE":"LANE","ALLEY":"ALLEY","HOUSE_NO":"HOUSE_NO","E_COORD97":"E_COORD97","N_COORD97":"N_COORD97","ADDRESS":"ADDRESS","OBJECTID":"OBJECTID"},"geometryType":"esriGeometryPoint","spatialReference":{"wkid":102443,"latestWkid":3826},"fields":[{"name":"ID","type":"esriFieldTypeDouble","alias":"ID"},{"name":"DIS_CODE","type":"esriFieldTypeInteger","alias":"DIS_CODE"},{"name":"TOWNNAME","type":"esriFieldTypeString","alias":"TOWNNAME","length":8},{"name":"LI","type":"esriFieldTypeString","alias":"LI","length":8},{"name":"LIN","type":"esriFieldTypeString","alias":"LIN","length":12},{"name":"STREET","type":"esriFieldTypeString","alias":"STREET","length":20},{"name":"SECT","type":"esriFieldTypeString","alias":"SECT","length":8},{"name":"MAREA","type":"esriFieldTypeString","alias":"MAREA","length":12},{"name":"LANE","type":"esriFieldTypeString","alias":"LANE","length":10},{"name":"ALLEY","type":"esriFieldTypeString","alias":"ALLEY","length":10},{"name":"HOUSE_NO","type":"esriFieldTypeString","alias":"HOUSE_NO","length":20},{"name":"E_COORD97","type":"esriFieldTypeDouble","alias":"E_COORD97"},{"name":"N_COORD97","type":"esriFieldTypeDouble","alias":"N_COORD97"},{"name":"ADDRESS","type":"esriFieldTypeString","alias":"ADDRESS","length":50},{"name":"OBJECTID","type":"esriFieldTypeOID","alias":"OBJECTID"}],"features":[{"attributes":{"ID":554628,"DIS_CODE":0,"TOWNNAME":"東區","LI":"東明里","LIN":"21鄰","STREET":"東安路","SECT":" ","MAREA":" ","LANE":" ","ALLEY":" ","HOUSE_NO":"５０號四樓之８","E_COORD97":170696.03,"N_COORD97":2543616.6800000002,"ADDRESS":"東安路５０號四樓之８","OBJECTID":554601},"geometry":{"x":170696.03000000026,"y":2543616.6800000016}},{"attributes":{"ID":554629,"DIS_CODE":0,"TOWNNAME":"東區","LI":"東明里","LIN":"21鄰","STREET":"東安路","SECT":" ","MAREA":" ","LANE":" ","ALLEY":" ","HOUSE_NO":"５０號四樓之１０","E_COORD97":170696.03,"N_COORD97":2543616.6800000002,"ADDRESS":"東安路５０號四樓之１０","OBJECTID":554602},"geometry":{"x":170696.03000000026,"y":2543616.6800000016}},{"attributes":{"ID":554630,"DIS_CODE":0,"TOWNNAME":"東區","LI":"東明里","LIN":"21鄰","STREET":"東安路","SECT":" ","MAREA":" ","LANE":" ","ALLEY":" ","HOUSE_NO":"５０號五樓之３","E_COORD97":170696.03,"N_COORD97":2543616.6800000002,"ADDRESS":"東安路５０號五樓之３","OBJECTID":554603},"geometry":{"x":170696.03000000026,"y":2543616.6800000016}},{"attributes":{"ID":554631,"DIS_CODE":0,"TOWNNAME":"東區","LI":"東明里","LIN":"21鄰","STREET":"東安路","SECT":" ","MAREA":" ","LANE":" ","ALLEY":" ","HOUSE_NO":"５０號五樓之４","E_COORD97":170696.03,"N_COORD97":2543616.6800000002,"ADDRESS":"東安路５０號五樓之４","OBJECTID":554604},"geometry":{"x":170696.03000000026,"y":2543616.6800000016}},{"attributes":{"ID":554632,"DIS_CODE":0,"TOWNNAME":"東區","LI":"東明里","LIN":"21鄰","STREET":"東安路","SECT":" ","MAREA":" ","LANE":" ","ALLEY":" ","HOUSE_NO":"５０號五樓之５","E_COORD97":170696.03,"N_COORD97":2543616.6800000002,"ADDRESS":"東安路５０號五樓之５","OBJECTID":554605},"geometry":{"x":170696.03000000026,"y":2543616.6800000016}},{"attributes":{"ID":554633,"DIS_CODE":0,"TOWNNAME":"東區","LI":"東明里","LIN":"21鄰","STREET":"東安路","SECT":" ","MAREA":" ","LANE":" ","ALLEY":" ","HOUSE_NO":"５０號五樓之８","E_COORD97":170696.03,"N_COORD97":2543616.6800000002,"ADDRESS":"東安路５０號五樓之８","OBJECTID":554606},"geometry":{"x":170696.03000000026,"y":2543616.6800000016}},{"attributes":{"ID":554634,"DIS_CODE":0,"TOWNNAME":"東區","LI":"東明里","LIN":"21鄰","STREET":"東安路","SECT":" ","MAREA":" ","LANE":" ","ALLEY":" ","HOUSE_NO":"５０號五樓之９","E_COORD97":170696.03,"N_COORD97":2543616.6800000002,"ADDRESS":"東安路５０號五樓之９","OBJECTID":554607},"geometry":{"x":170696.03000000026,"y":2543616.6800000016}},{"attributes":{"ID":554635,"DIS_CODE":0,"TOWNNAME":"東區","LI":"東明里","LIN":"21鄰","STREET":"東安路","SECT":" ","MAREA":" ","LANE":" ","ALLEY":" ","HOUSE_NO":"５０號六樓之１０","E_COORD97":170696.03,"N_COORD97":2543616.6800000002,"ADDRESS":"東安路５０號六樓之１０","OBJECTID":554608},"geometry":{"x":170696.03000000026,"y":2543616.6800000016}},{"attributes":{"ID":554636,"DIS_CODE":0,"TOWNNAME":"東區","LI":"東明里","LIN":"21鄰","STREET":"東安路","SECT":" ","MAREA":" ","LANE":" ","ALLEY":" ","HOUSE_NO":"５０號六樓之１４","E_COORD97":170696.03,"N_COORD97":2543616.6800000002,"ADDRESS":"東安路５０號六樓之１４","OBJECTID":554609},"geometry":{"x":170696.03000000026,"y":2543616.6800000016}},{"attributes":{"ID":554637,"DIS_CODE":0,"TOWNNAME":"東區","LI":"東明里","LIN":"21鄰","STREET":"東安路","SECT":" ","MAREA":" ","LANE":" ","ALLEY":" ","HOUSE_NO":"５０號七樓之３","E_COORD97":170696.03,"N_COORD97":2543616.6800000002,"ADDRESS":"東安路５０號七樓之３","OBJECTID":554610},"geometry":{"x":170696.03000000026,"y":2543616.6800000016}},{"attributes":{"ID":554638,"DIS_CODE":0,"TOWNNAME":"東區","LI":"東明里","LIN":"21鄰","STREET":"東安路","SECT":" ","MAREA":" ","LANE":" ","ALLEY":" ","HOUSE_NO":"５０號七樓之４","E_COORD97":170696.03,"N_COORD97":2543616.6800000002,"ADDRESS":"東安路５０號七樓之４","OBJECTID":554611},"geometry":{"x":170696.03000000026,"y":2543616.6800000016}},{"attributes":{"ID":554639,"DIS_CODE":0,"TOWNNAME":"東區","LI":"東明里","LIN":"21鄰","STREET":"東安路","SECT":" ","MAREA":" ","LANE":" ","ALLEY":" ","HOUSE_NO":"５０號七樓之１０","E_COORD97":170696.03,"N_COORD97":2543616.6800000002,"ADDRESS":"東安路５０號七樓之１０","OBJECTID":554612},"geometry":{"x":170696.03000000026,"y":2543616.6800000016}},{"attributes":{"ID":554640,"DIS_CODE":0,"TOWNNAME":"永康區","LI":"甲頂里","LIN":"15鄰","STREET":"正新街","SECT":" ","MAREA":" ","LANE":" ","ALLEY":" ","HOUSE_NO":"１６號","E_COORD97":170426.23000000001,"N_COORD97":2546649.6899999999,"ADDRESS":"正新街１６號","OBJECTID":554613},"geometry":{"x":170426.23000000231,"y":2546649.6899999976}},{"attributes":{"ID":554641,"DIS_CODE":0,"TOWNNAME":"永康區","LI":"甲頂里","LIN":"15鄰","STREET":"正新街","SECT":" ","MAREA":" ","LANE":" ","ALLEY":" ","HOUSE_NO":"４１號","E_COORD97":170357.20999999999,"N_COORD97":2546674.8500000001,"ADDRESS":"正新街４１號","OBJECTID":554614},"geometry":{"x":170357.20999999996,"y":2546674.8499999996}},{"attributes":{"ID":554642,"DIS_CODE":0,"TOWNNAME":"永康區","LI":"西勢里","LIN":"21鄰","STREET":"富強路","SECT":"一段","MAREA":" ","LANE":" ","ALLEY":" ","HOUSE_NO":"１５號","E_COORD97":175383.45999999999,"N_COORD97":2546038.0299999998,"ADDRESS":"富強路一段１５號","OBJECTID":554615},"geometry":{"x":175383.45999999996,"y":2546038.0300000012}},{"attributes":{"ID":554643,"DIS_CODE":0,"TOWNNAME":"東區","LI":"東明里","LIN":"21鄰","STREET":"東安路","SECT":" ","MAREA":" ","LANE":" ","ALLEY":" ","HOUSE_NO":"５０號七樓之１１","E_COORD97":170696.03,"N_COORD97":2543616.6800000002,"ADDRESS":"東安路５０號七樓之１１","OBJECTID":554616},"geometry":{"x":170696.03000000026,"y":2543616.6800000016}},{"attributes":{"ID":554644,"DIS_CODE":0,"TOWNNAME":"東區","LI":"東明里","LIN":"21鄰","STREET":"東安路","SECT":" ","MAREA":" ","LANE":" ","ALLEY":" ","HOUSE_NO":"５０號七樓之１２","E_COORD97":170696.03,"N_COORD97":2543616.6800000002,"ADDRESS":"東安路５０號七樓之１２","OBJECTID":554617},"geometry":{"x":170696.03000000026,"y":2543616.6800000016}},{"attributes":{"ID":554645,"DIS_CODE":0,"TOWNNAME":"東區","LI":"東明里","LIN":"21鄰","STREET":"東安路","SECT":" ","MAREA":" ","LANE":" ","ALLEY":" ","HOUSE_NO":"５０號七樓之１３","E_COORD97":170696.03,"N_COORD97":2543616.6800000002,"ADDRESS":"東安路５０號七樓之１３","OBJECTID":554618},"geometry":{"x":170696.03000000026,"y":2543616.6800000016}},{"attributes":{"ID":554646,"DIS_CODE":0,"TOWNNAME":"東區","LI":"裕農里","LIN":"21鄰","STREET":"裕豐街","SECT":" ","MAREA":" ","LANE":" ","ALLEY":" ","HOUSE_NO":"１８０號五樓","E_COORD97":170782.29999999999,"N_COORD97":2543106.52,"ADDRESS":"裕豐街１８０號五樓","OBJECTID":554619},"geometry":{"x":170782.29999999981,"y":2543106.5200000014}},{"attributes":{"ID":554647,"DIS_CODE":0,"TOWNNAME":"永康區","LI":"網寮里","LIN":"21鄰","STREET":"文化路","SECT":" ","MAREA":" ","LANE":" ","ALLEY":" ","HOUSE_NO":"２３０號五樓之１","E_COORD97":173614.26000000001,"N_COORD97":2546146.7799999998,"ADDRESS":"文化路２３０號五樓之１","OBJECTID":554620},"geometry":{"x":173614.26000000071,"y":2546146.7799999993}},{"attributes":{"ID":554648,"DIS_CODE":0,"TOWNNAME":"仁德區","LI":"後壁里","LIN":"21鄰","STREET":"中正路","SECT":"二段","MAREA":" ","LANE":" ","ALLEY":" ","HOUSE_NO":"４１號","E_COORD97":173090.32000000001,"N_COORD97":2538344.0299999998,"ADDRESS":"中正路二段４１號","OBJECTID":554621},"geometry":{"x":173090.32000000216,"y":2538344.0299999993}},{"attributes":{"ID":554649,"DIS_CODE":0,"TOWNNAME":"永康區","LI":"\u25A0行里","LIN":"25鄰","STREET":"\u25A0和街","SECT":" ","MAREA":" ","LANE":" ","ALLEY":" ","HOUSE_NO":"２７２號","E_COORD97":171559.45999999999,"N_COORD97":2548415,"ADDRESS":"\u25A0和街２７２號","OBJECTID":554622},"geometry":{"x":171559.45999999996,"y":2548415.0000000037}},{"attributes":{"ID":554650,"DIS_CODE":0,"TOWNNAME":"永康區","LI":"\u25A0行里","LIN":"27鄰","STREET":"中正南路","SECT":" ","MAREA":" ","LANE":" ","ALLEY":" ","HOUSE_NO":"３２０號","E_COORD97":170800.32999999999,"N_COORD97":2547964.25,"ADDRESS":"中正南路３２０號","OBJECTID":554623},"geometry":{"x":170800.33000000101,"y":2547964.25}},{"attributes":{"ID":554651,"DIS_CODE":0,"TOWNNAME":"永康區","LI":"\u25A0行里","LIN":"25鄰","STREET":"\u25A0和街","SECT":" ","MAREA":" ","LANE":" ","ALLEY":" ","HOUSE_NO":"２４１號","E_COORD97":171581.04000000001,"N_COORD97":2548367.9900000002,"ADDRESS":"\u25A0和街２４１號","OBJECTID":554624},"geometry":{"x":171581.04000000004,"y":2548367.9900000021}},{"attributes":{"ID":554652,"DIS_CODE":0,"TOWNNAME":"永康區","LI":"\u25A0行里","LIN":"25鄰","STREET":"\u25A0和街","SECT":" ","MAREA":" ","LANE":" ","ALLEY":" ","HOUSE_NO":"２９２號","E_COORD97":171448.39999999999,"N_COORD97":2548541.9900000002,"ADDRESS":"\u25A0和街２９２號","OBJECTID":554625},"geometry":{"x":171448.40000000037,"y":2548541.9900000021}},{"attributes":{"ID":554653,"DIS_CODE":0,"TOWNNAME":"永康區","LI":"\u25A0洲里","LIN":"24鄰","STREET":"中正南路","SECT":" ","MAREA":" ","LANE":" ","ALLEY":" ","HOUSE_NO":"４８９號","E_COORD97":170886.73000000001,"N_COORD97":2548152.6499999999,"ADDRESS":"中正南路４８９號","OBJECTID":554626},"geometry":{"x":170886.73000000045,"y":2548152.6500000004}},{"attributes":{"ID":554654,"DIS_CODE":0,"TOWNNAME":"永康區","LI":"復國里","LIN":"21鄰","STREET":"復華六街","SECT":" ","MAREA":" ","LANE":" ","ALLEY":" ","HOUSE_NO":"７７號","E_COORD97":172658.48000000001,"N_COORD97":2545836.3900000001,"ADDRESS":"復華六街７７號","OBJECTID":554627},"geometry":{"x":172658.48000000045,"y":2545836.3900000025}},{"attributes":{"ID":554655,"DIS_CODE":0,"TOWNNAME":"永康區","LI":"三合里","LIN":"21鄰","STREET":"南工街","SECT":" ","MAREA":" ","LANE":" ","ALLEY":" ","HOUSE_NO":"２８５號","E_COORD97":171883.26999999999,"N_COORD97":2546016.5,"ADDRESS":"南工街２８５號","OBJECTID":554628},"geometry":{"x":171883.27000000048,"y":2546016.5}},{"attributes":{"ID":554656,"DIS_CODE":0,"TOWNNAME":"永康區","LI":"崑山里","LIN":" ","STREET":"永大路","SECT":"二段","MAREA":" ","LANE":" ","ALLEY":" ","HOUSE_NO":"９１之１號","E_COORD97":174230.29999999999,"N_COORD97":2544887.0899999999,"ADDRESS":"永大路二段９１之１號","OBJECTID":554629},"geometry":{"x":174230.29999999981,"y":2544887.0899999999}},{"attributes":{"ID":554657,"DIS_CODE":0,"TOWNNAME":"永康區","LI":"\u25A0行里","LIN":"3鄰","STREET":"中正七街","SECT":" ","MAREA":" ","LANE":" ","ALLEY":" ","HOUSE_NO":"１０號","E_COORD97":172074.31,"N_COORD97":2548864.4500000002,"ADDRESS":"中正七街１０號","OBJECTID":554630},"geometry":{"x":172074.31000000052,"y":2548864.4499999993}},{"attributes":{"ID":554658,"DIS_CODE":0,"TOWNNAME":"東區","LI":"莊敬里","LIN":"21鄰","STREET":"莊敬路","SECT":" ","MAREA":" ","LANE":" ","ALLEY":" ","HOUSE_NO":"１５２號","E_COORD97":171380.82999999999,"N_COORD97":2544075.23,"ADDRESS":"莊敬路１５２號","OBJECTID":554631},"geometry":{"x":171380.83000000007,"y":2544075.2300000023}},{"attributes":{"ID":554659,"DIS_CODE":0,"TOWNNAME":"東區","LI":"莊敬里","LIN":"21鄰","STREET":"莊敬路","SECT":" ","MAREA":" ","LANE":" ","ALLEY":" ","HOUSE_NO":"１５４號","E_COORD97":171381.48000000001,"N_COORD97":2544079.04,"ADDRESS":"莊敬路１５４號","OBJECTID":554632},"geometry":{"x":171381.48000000045,"y":2544079.0399999991}},{"attributes":{"ID":554660,"DIS_CODE":0,"TOWNNAME":"東區","LI":"莊敬里","LIN":"21鄰","STREET":"莊敬路","SECT":" ","MAREA":" ","LANE":" ","ALLEY":" ","HOUSE_NO":"１５６號","E_COORD97":171382.37,"N_COORD97":2544084.3999999999,"ADDRESS":"莊敬路１５６號","OBJECTID":554633},"geometry":{"x":171382.37000000011,"y":2544084.4000000022}},{"attributes":{"ID":554661,"DIS_CODE":0,"TOWNNAME":"永康區","LI":"\u25A0行里","LIN":"29鄰","STREET":"竹林街","SECT":" ","MAREA":" ","LANE":" ","ALLEY":" ","HOUSE_NO":"１１號","E_COORD97":172795.69,"N_COORD97":2548976.2400000002,"ADDRESS":"竹林街１１號","OBJECTID":554634},"geometry":{"x":172795.69000000041,"y":2548976.2400000039}},{"attributes":{"ID":554662,"DIS_CODE":0,"TOWNNAME":"永康區","LI":"\u25A0行里","LIN":"16鄰","STREET":"中正六街","SECT":" ","MAREA":" ","LANE":" ","ALLEY":" ","HOUSE_NO":"２５０號","E_COORD97":171913.48000000001,"N_COORD97":2548884.8199999998,"ADDRESS":"中正六街２５０號","OBJECTID":554635},"geometry":{"x":171913.48000000138,"y":2548884.8200000022}},{"attributes":{"ID":554663,"DIS_CODE":0,"TOWNNAME":"東區","LI":"莊敬里","LIN":"21鄰","STREET":"莊敬路","SECT":" ","MAREA":" ","LANE":" ","ALLEY":" ","HOUSE_NO":"１４０號","E_COORD97":171378.22,"N_COORD97":2544051.4900000002,"ADDRESS":"莊敬路１４０號","OBJECTID":554636},"geometry":{"x":171378.2200000016,"y":2544051.4899999984}},{"attributes":{"ID":554664,"DIS_CODE":0,"TOWNNAME":"永康區","LI":"\u25A0行里","LIN":"25鄰","STREET":"\u25A0和街","SECT":" ","MAREA":" ","LANE":" ","ALLEY":" ","HOUSE_NO":"２６４號","E_COORD97":171591.35000000001,"N_COORD97":2548387,"ADDRESS":"\u25A0和街２６４號","OBJECTID":554637},"geometry":{"x":171591.35000000056,"y":2548387}},{"attributes":{"ID":554665,"DIS_CODE":0,"TOWNNAME":"永康區","LI":"\u25A0行里","LIN":"47鄰","STREET":"新行街","SECT":" ","MAREA":" ","LANE":" ","ALLEY":" ","HOUSE_NO":"４２號","E_COORD97":172278.41,"N_COORD97":2548821.73,"ADDRESS":"新行街４２號","OBJECTID":554638},"geometry":{"x":172278.41000000015,"y":2548821.7300000023}},{"attributes":{"ID":554666,"DIS_CODE":0,"TOWNNAME":"中西區","LI":"西湖里","LIN":"21鄰","STREET":"湖美街","SECT":" ","MAREA":" ","LANE":" ","ALLEY":" ","HOUSE_NO":"２６號","E_COORD97":165957.29999999999,"N_COORD97":2544534.6400000001,"ADDRESS":"湖美街２６號","OBJECTID":554639},"geometry":{"x":165957.30000000075,"y":2544534.6400000006}},{"attributes":{"ID":554667,"DIS_CODE":0,"TOWNNAME":"中西區","LI":"西湖里","LIN":"21鄰","STREET":"湖美街","SECT":" ","MAREA":" ","LANE":" ","ALLEY":" ","HOUSE_NO":"２８號","E_COORD97":165957.57000000001,"N_COORD97":2544545.5899999999,"ADDRESS":"湖美街２８號","OBJECTID":554640},"geometry":{"x":165957.57000000123,"y":2544545.5900000036}},{"attributes":{"ID":554668,"DIS_CODE":0,"TOWNNAME":"中西區","LI":"西湖里","LIN":"21鄰","STREET":"湖美街","SECT":" ","MAREA":" ","LANE":" ","ALLEY":" ","HOUSE_NO":"３０號","E_COORD97":165956.5,"N_COORD97":2544553.8700000001,"ADDRESS":"湖美街３０號","OBJECTID":554641},"geometry":{"x":165956.5,"y":2544553.870000001}},{"attributes":{"ID":554669,"DIS_CODE":0,"TOWNNAME":"善化區","LI":"文昌里","LIN":"21鄰","STREET":"中正路","SECT":" ","MAREA":" ","LANE":" ","ALLEY":" ","HOUSE_NO":"２之２號","E_COORD97":177737.79000000001,"N_COORD97":2557569.3399999999,"ADDRESS":"中正路２之２號","OBJECTID":554642},"geometry":{"x":177737.79000000004,"y":2557569.3399999999}},{"attributes":{"ID":554670,"DIS_CODE":0,"TOWNNAME":"善化區","LI":"文昌里","LIN":"21鄰","STREET":"中正路","SECT":" ","MAREA":" ","LANE":" ","ALLEY":" ","HOUSE_NO":"２之３號","E_COORD97":177737.95999999999,"N_COORD97":2557566.4500000002,"ADDRESS":"中正路２之３號","OBJECTID":554643},"geometry":{"x":177737.95999999996,"y":2557566.4500000011}},{"attributes":{"ID":554671,"DIS_CODE":0,"TOWNNAME":"善化區","LI":"文昌里","LIN":"21鄰","STREET":"中正路","SECT":" ","MAREA":" ","LANE":" ","ALLEY":" ","HOUSE_NO":"１１號（該建物係為農","E_COORD97":177698.92999999999,"N_COORD97":2557579.8199999998,"ADDRESS":"中正路１１號（該建物係為農業設施不得設籍）","OBJECTID":554644},"geometry":{"x":177698.9299999997,"y":2557579.8200000003}},{"attributes":{"ID":554672,"DIS_CODE":0,"TOWNNAME":"善化區","LI":"胡厝里","LIN":"21鄰","STREET":"興農路","SECT":" ","MAREA":" ","LANE":" ","ALLEY":" ","HOUSE_NO":"５５６號（該建物係為","E_COORD97":175088.35000000001,"N_COORD97":2558954.7000000002,"ADDRESS":"興農路５５６號（該建物係為農業設施不得設籍）","OBJECTID":554645},"geometry":{"x":175088.35000000056,"y":2558954.7000000011}},{"attributes":{"ID":554673,"DIS_CODE":0,"TOWNNAME":"善化區","LI":"文昌里","LIN":"21鄰","STREET":"中正路","SECT":" ","MAREA":" ","LANE":" ","ALLEY":" ","HOUSE_NO":"１６５號","E_COORD97":177667.57999999999,"N_COORD97":2558040.73,"ADDRESS":"中正路１６５號","OBJECTID":554646},"geometry":{"x":177667.58000000101,"y":2558040.7300000004}},{"attributes":{"ID":554674,"DIS_CODE":0,"TOWNNAME":"永康區","LI":"\u25A0行里","LIN":"3鄰","STREET":"中正路","SECT":" ","MAREA":" ","LANE":" ","ALLEY":" ","HOUSE_NO":"８３０號","E_COORD97":172160.28,"N_COORD97":2548741.7400000002,"ADDRESS":"中正路８３０號","OBJECTID":554647},"geometry":{"x":172160.28000000119,"y":2548741.7400000002}},{"attributes":{"ID":554675,"DIS_CODE":0,"TOWNNAME":"永康區","LI":"\u25A0行里","LIN":"42鄰","STREET":"永安二街","SECT":" ","MAREA":" ","LANE":" ","ALLEY":" ","HOUSE_NO":"５６號","E_COORD97":172384.73999999999,"N_COORD97":2549618.1899999999,"ADDRESS":"永安二街５６號","OBJECTID":554648},"geometry":{"x":172384.74000000022,"y":2549618.1900000013}},{"attributes":{"ID":554676,"DIS_CODE":0,"TOWNNAME":"永康區","LI":"\u25A0行里","LIN":"43鄰","STREET":"\u25A0平街","SECT":" ","MAREA":" ","LANE":" ","ALLEY":" ","HOUSE_NO":"９２號","E_COORD97":171689.95000000001,"N_COORD97":2548068.25,"ADDRESS":"\u25A0平街９２號","OBJECTID":554649},"geometry":{"x":171689.95000000019,"y":2548068.2500000019}},{"attributes":{"ID":554677,"DIS_CODE":0,"TOWNNAME":"永康區","LI":"\u25A0洲里","LIN":"40鄰","STREET":"洲工街","SECT":" ","MAREA":" ","LANE":" ","ALLEY":" ","HOUSE_NO":"１６９號","E_COORD97":170736.62,"N_COORD97":2548681.02,"ADDRESS":"洲工街１６９號","OBJECTID":554650},"geometry":{"x":170736.61999999918,"y":2548681.0199999996}},{"attributes":{"ID":554678,"DIS_CODE":0,"TOWNNAME":"永康區","LI":"\u25A0行里","LIN":"44鄰","STREET":"\u25A0平街","SECT":" ","MAREA":" ","LANE":" ","ALLEY":" ","HOUSE_NO":"２４２號","E_COORD97":171989.89000000001,"N_COORD97":2548277.5,"ADDRESS":"\u25A0平街２４２號","OBJECTID":554651},"geometry":{"x":171989.88999999966,"y":2548277.5}},{"attributes":{"ID":554679,"DIS_CODE":0,"TOWNNAME":"永康區","LI":"龍潭里","LIN":"22鄰","STREET":"自強路","SECT":" ","MAREA":" ","LANE":" ","ALLEY":" ","HOUSE_NO":"８４２號","E_COORD97":174670.26000000001,"N_COORD97":2548677.7200000002,"ADDRESS":"自強路８４２號","OBJECTID":554652},"geometry":{"x":174670.26000000071,"y":2548677.7200000007}},{"attributes":{"ID":554680,"DIS_CODE":0,"TOWNNAME":"永康區","LI":"\u25A0洲里","LIN":"3鄰","STREET":"\u25A0洲二街","SECT":" ","MAREA":" ","LANE":" ","ALLEY":" ","HOUSE_NO":"１５８號","E_COORD97":171654.19,"N_COORD97":2549321.25,"ADDRESS":"\u25A0洲二街１５８號","OBJECTID":554653},"geometry":{"x":171654.19000000134,"y":2549321.25}},{"attributes":{"ID":554681,"DIS_CODE":0,"TOWNNAME":"永康區","LI":"\u25A0洲里","LIN":"4鄰","STREET":"\u25A0洲二街","SECT":" ","MAREA":" ","LANE":" ","ALLEY":" ","HOUSE_NO":"１６１號","E_COORD97":171696.01999999999,"N_COORD97":2549385.2400000002,"ADDRESS":"\u25A0洲二街１６１號","OBJECTID":554654},"geometry":{"x":171696.01999999955,"y":2549385.2400000002}},{"attributes":{"ID":554682,"DIS_CODE":0,"TOWNNAME":"永康區","LI":"\u25A0行里","LIN":"25鄰","STREET":"\u25A0和街","SECT":" ","MAREA":" ","LANE":" ","ALLEY":" ","HOUSE_NO":"２６５號","E_COORD97":171475.25,"N_COORD97":2548477.23,"ADDRESS":"\u25A0和街２６５號","OBJECTID":554655},"geometry":{"x":171475.25000000093,"y":2548477.2300000004}},{"attributes":{"ID":554683,"DIS_CODE":0,"TOWNNAME":"永康區","LI":"\u25A0行里","LIN":"42鄰","STREET":"永安二街","SECT":" ","MAREA":" ","LANE":" ","ALLEY":" ","HOUSE_NO":"４６號","E_COORD97":172401.09,"N_COORD97":2549615.1800000002,"ADDRESS":"永安二街４６號","OBJECTID":554656},"geometry":{"x":172401.08999999985,"y":2549615.1799999997}},{"attributes":{"ID":554684,"DIS_CODE":0,"TOWNNAME":"永康區","LI":"龍潭里","LIN":"42鄰","STREET":"永平街","SECT":" ","MAREA":" ","LANE":" ","ALLEY":" ","HOUSE_NO":"７７３號","E_COORD97":174623.19,"N_COORD97":2547111.9900000002,"ADDRESS":"永平街７７３號","OBJECTID":554657},"geometry":{"x":174623.19000000041,"y":2547111.9900000002}},{"attributes":{"ID":554685,"DIS_CODE":0,"TOWNNAME":"永康區","LI":"龍潭里","LIN":"3鄰","STREET":"龍國街","SECT":" ","MAREA":" ","LANE":" ","ALLEY":" ","HOUSE_NO":"２５５號","E_COORD97":174544.06,"N_COORD97":2548040.6000000001,"ADDRESS":"龍國街２５５號","OBJECTID":554658},"geometry":{"x":174544.06000000145,"y":2548040.5999999978}},{"attributes":{"ID":554686,"DIS_CODE":0,"TOWNNAME":"永康區","LI":"龍潭里","LIN":"42鄰","STREET":"永平街","SECT":" ","MAREA":" ","LANE":" ","ALLEY":" ","HOUSE_NO":"７６１之１３號","E_COORD97":174633.25,"N_COORD97":2547074.2999999998,"ADDRESS":"永平街７６１之１３號","OBJECTID":554659},"geometry":{"x":174633.25000000093,"y":2547074.3000000045}},{"attributes":{"ID":554687,"DIS_CODE":0,"TOWNNAME":"永康區","LI":"\u25A0行里","LIN":"44鄰","STREET":"\u25A0和街","SECT":" ","MAREA":" ","LANE":" ","ALLEY":" ","HOUSE_NO":"１６８號","E_COORD97":171934.45000000001,"N_COORD97":2547931.7400000002,"ADDRESS":"\u25A0和街１６８號","OBJECTID":554660},"geometry":{"x":171934.45000000019,"y":2547931.7399999984}},{"attributes":{"ID":554688,"DIS_CODE":0,"TOWNNAME":"永康區","LI":"\u25A0洲里","LIN":"23鄰","STREET":"正南六街","SECT":" ","MAREA":" ","LANE":" ","ALLEY":" ","HOUSE_NO":"３１號","E_COORD97":170997.88,"N_COORD97":2548493.25,"ADDRESS":"正南六街３１號","OBJECTID":554661},"geometry":{"x":170997.88000000082,"y":2548493.25}},{"attributes":{"ID":554689,"DIS_CODE":0,"TOWNNAME":"永康區","LI":"龍潭里","LIN":"3鄰","STREET":"龍國街","SECT":" ","MAREA":" ","LANE":" ","ALLEY":" ","HOUSE_NO":"２５３號","E_COORD97":174539.62,"N_COORD97":2548041.1000000001,"ADDRESS":"龍國街２５３號","OBJECTID":554662},"geometry":{"x":174539.62000000104,"y":2548041.1000000015}},{"attributes":{"ID":554690,"DIS_CODE":0,"TOWNNAME":"永康區","LI":"\u25A0行里","LIN":"3鄰","STREET":"中正路","SECT":" ","MAREA":" ","LANE":" ","ALLEY":" ","HOUSE_NO":"８８６號","E_COORD97":172069.63,"N_COORD97":2548837.7999999998,"ADDRESS":"中正路８８６號","OBJECTID":554663},"geometry":{"x":172069.63000000082,"y":2548837.8000000026}},{"attributes":{"ID":554691,"DIS_CODE":0,"TOWNNAME":"永康區","LI":"\u25A0洲里","LIN":"4鄰","STREET":"\u25A0洲二街","SECT":" ","MAREA":" ","LANE":" ","ALLEY":" ","HOUSE_NO":"１２９號","E_COORD97":171638.62,"N_COORD97":2549331.75,"ADDRESS":"\u25A0洲二街１２９號","OBJECTID":554664},"geometry":{"x":171638.62000000197,"y":2549331.7500000037}},{"attributes":{"ID":554692,"DIS_CODE":0,"TOWNNAME":"永康區","LI":"\u25A0洲里","LIN":"40鄰","STREET":"洲工街","SECT":" ","MAREA":" ","LANE":" ","ALLEY":" ","HOUSE_NO":"１７８號","E_COORD97":170857.04999999999,"N_COORD97":2548765.9199999999,"ADDRESS":"洲工街１７８號","OBJECTID":554665},"geometry":{"x":170857.04999999981,"y":2548765.9200000018}},{"attributes":{"ID":554693,"DIS_CODE":0,"TOWNNAME":"永康區","LI":"\u25A0行里","LIN":"33鄰","STREET":"中正北路","SECT":" ","MAREA":" ","LANE":" ","ALLEY":" ","HOUSE_NO":"２５號","E_COORD97":171919.07999999999,"N_COORD97":2549091.8199999998,"ADDRESS":"中正北路２５號","OBJECTID":554666},"geometry":{"x":171919.08000000101,"y":2549091.8200000022}},{"attributes":{"ID":554694,"DIS_CODE":0,"TOWNNAME":"永康區","LI":"\u25A0洲里","LIN":"4鄰","STREET":"\u25A0洲二街","SECT":" ","MAREA":" ","LANE":" ","ALLEY":" ","HOUSE_NO":"１３１號","E_COORD97":171640.16,"N_COORD97":2549335.5,"ADDRESS":"\u25A0洲二街１３１號","OBJECTID":554667},"geometry":{"x":171640.16000000201,"y":2549335.5}},{"attributes":{"ID":554695,"DIS_CODE":0,"TOWNNAME":"永康區","LI":"\u25A0行里","LIN":"36鄰","STREET":"三村一街","SECT":" ","MAREA":" ","LANE":" ","ALLEY":" ","HOUSE_NO":"１０６號","E_COORD97":172102.79000000001,"N_COORD97":2549251.5,"ADDRESS":"三村一街１０６號","OBJECTID":554668},"geometry":{"x":172102.79000000004,"y":2549251.5}},{"attributes":{"ID":554696,"DIS_CODE":0,"TOWNNAME":"永康區","LI":"\u25A0行里","LIN":"25鄰","STREET":"\u25A0和街","SECT":" ","MAREA":" ","LANE":" ","ALLEY":" ","HOUSE_NO":"２４８號","E_COORD97":171677.38,"N_COORD97":2548297.25,"ADDRESS":"\u25A0和街２４８號","OBJECTID":554669},"geometry":{"x":171677.38000000175,"y":2548297.25}},{"attributes":{"ID":554697,"DIS_CODE":0,"TOWNNAME":"永康區","LI":"\u25A0洲里","LIN":"40鄰","STREET":"正南六街","SECT":" ","MAREA":" ","LANE":" ","ALLEY":" ","HOUSE_NO":"１３０號","E_COORD97":170837.85000000001,"N_COORD97":2548675.8100000001,"ADDRESS":"正南六街１３０號","OBJECTID":554670},"geometry":{"x":170837.84999999963,"y":2548675.8100000024}},{"attributes":{"ID":554698,"DIS_CODE":0,"TOWNNAME":"永康區","LI":"\u25A0洲里","LIN":"24鄰","STREET":"中正南路","SECT":" ","MAREA":" ","LANE":" ","ALLEY":" ","HOUSE_NO":"４７９號","E_COORD97":170873.07000000001,"N_COORD97":2548137.1499999999,"ADDRESS":"中正南路４７９號","OBJECTID":554671},"geometry":{"x":170873.07000000123,"y":2548137.1500000022}},{"attributes":{"ID":554699,"DIS_CODE":0,"TOWNNAME":"永康區","LI":"蔦松里","LIN":"8鄰","STREET":"蔦松二街","SECT":" ","MAREA":" ","LANE":" ","ALLEY":" ","HOUSE_NO":"２５號","E_COORD97":173645.57000000001,"N_COORD97":2549189.0699999998,"ADDRESS":"蔦松二街２５號","OBJECTID":554672},"geometry":{"x":173645.5700000003,"y":2549189.0700000022}},{"attributes":{"ID":554700,"DIS_CODE":0,"TOWNNAME":"新市區","LI":"新市里","LIN":"21鄰","STREET":"和平街","SECT":" ","MAREA":" ","LANE":" ","ALLEY":" ","HOUSE_NO":"１８號","E_COORD97":177738.54000000001,"N_COORD97":2553467,"ADDRESS":"和平街１８號","OBJECTID":554673},"geometry":{"x":177738.54000000097,"y":2553467.0000000019}},{"attributes":{"ID":554701,"DIS_CODE":0,"TOWNNAME":"永康區","LI":"\u25A0洲里","LIN":" ","STREET":"鹽洲一街","SECT":" ","MAREA":" ","LANE":" ","ALLEY":" ","HOUSE_NO":"３０號","E_COORD97":171562.01000000001,"N_COORD97":2548996,"ADDRESS":"鹽洲一街３０號","OBJECTID":554674},"geometry":{"x":171562.00999999978,"y":2548996.0000000019}},{"attributes":{"ID":554702,"DIS_CODE":0,"TOWNNAME":"新市區","LI":"新和里","LIN":"21鄰","STREET":"中正路","SECT":" ","MAREA":" ","LANE":" ","ALLEY":" ","HOUSE_NO":"１４８號","E_COORD97":177401.70999999999,"N_COORD97":2552655,"ADDRESS":"中正路１４８號","OBJECTID":554675},"geometry":{"x":177401.71000000089,"y":2552655}},{"attributes":{"ID":554703,"DIS_CODE":0,"TOWNNAME":"新市區","LI":"新和里","LIN":"21鄰","STREET":"中正路","SECT":" ","MAREA":" ","LANE":" ","ALLEY":" ","HOUSE_NO":"１１２號","E_COORD97":177418.20000000001,"N_COORD97":2552560,"ADDRESS":"中正路１１２號","OBJECTID":554676},"geometry":{"x":177418.20000000019,"y":2552560}},{"attributes":{"ID":554704,"DIS_CODE":0,"TOWNNAME":"永康區","LI":"\u25A0行里","LIN":"36鄰","STREET":"三村一街","SECT":" ","MAREA":" ","LANE":" ","ALLEY":" ","HOUSE_NO":"２８號","E_COORD97":172261.85000000001,"N_COORD97":2549258.29,"ADDRESS":"三村一街２８號","OBJECTID":554677},"geometry":{"x":172261.84999999963,"y":2549258.2899999991}},{"attributes":{"ID":554705,"DIS_CODE":0,"TOWNNAME":"永康區","LI":"\u25A0行里","LIN":"25鄰","STREET":"\u25A0和街","SECT":" ","MAREA":" ","LANE":" ","ALLEY":" ","HOUSE_NO":"２９４號","E_COORD97":171407.07999999999,"N_COORD97":2548580.5,"ADDRESS":"\u25A0和街２９４號","OBJECTID":554678},"geometry":{"x":171407.08000000101,"y":2548580.5}},{"attributes":{"ID":554706,"DIS_CODE":0,"TOWNNAME":"永康區","LI":"\u25A0行里","LIN":"42鄰","STREET":"永安二街","SECT":" ","MAREA":" ","LANE":" ","ALLEY":" ","HOUSE_NO":"１６號","E_COORD97":172452.20000000001,"N_COORD97":2549612.8100000001,"ADDRESS":"永安二街１６號","OBJECTID":554679},"geometry":{"x":172452.20000000112,"y":2549612.8100000005}},{"attributes":{"ID":554707,"DIS_CODE":0,"TOWNNAME":"永康區","LI":"\u25A0行里","LIN":"3鄰","STREET":"中正路","SECT":" ","MAREA":" ","LANE":" ","ALLEY":" ","HOUSE_NO":"８２６號","E_COORD97":172166.04000000001,"N_COORD97":2548735.2400000002,"ADDRESS":"中正路８２６號","OBJECTID":554680},"geometry":{"x":172166.04000000004,"y":2548735.2399999984}},{"attributes":{"ID":554708,"DIS_CODE":0,"TOWNNAME":"永康區","LI":"\u25A0洲里","LIN":"25鄰","STREET":"中正南路","SECT":" ","MAREA":" ","LANE":" ","ALLEY":" ","HOUSE_NO":"４１７號","E_COORD97":170758.45000000001,"N_COORD97":2548043.9900000002,"ADDRESS":"中正南路４１７號","OBJECTID":554681},"geometry":{"x":170758.45000000205,"y":2548043.9900000002}},{"attributes":{"ID":554709,"DIS_CODE":0,"TOWNNAME":"永康區","LI":"\u25A0洲里","LIN":"25鄰","STREET":"洲工街","SECT":" ","MAREA":" ","LANE":" ","ALLEY":" ","HOUSE_NO":"１３號","E_COORD97":170631.42999999999,"N_COORD97":2548073,"ADDRESS":"洲工街１３號","OBJECTID":554682},"geometry":{"x":170631.43000000063,"y":2548073.0000000019}},{"attributes":{"ID":554710,"DIS_CODE":0,"TOWNNAME":"永康區","LI":"\u25A0洲里","LIN":"40鄰","STREET":"正南六街","SECT":" ","MAREA":" ","LANE":" ","ALLEY":" ","HOUSE_NO":"１１１號","E_COORD97":170805.70000000001,"N_COORD97":2548683,"ADDRESS":"正南六街１１１號","OBJECTID":554683},"geometry":{"x":170805.69999999925,"y":2548683.0000000019}},{"attributes":{"ID":554711,"DIS_CODE":0,"TOWNNAME":"永康區","LI":"\u25A0洲里","LIN":"40鄰","STREET":"正南六街","SECT":" ","MAREA":" ","LANE":" ","ALLEY":" ","HOUSE_NO":"８９號","E_COORD97":170871.89999999999,"N_COORD97":2548616.3199999998,"ADDRESS":"正南六街８９號","OBJECTID":554684},"geometry":{"x":170871.90000000037,"y":2548616.320000004}},{"attributes":{"ID":554712,"DIS_CODE":0,"TOWNNAME":"新市區","LI":"新和里","LIN":"21鄰","STREET":"中正路","SECT":" ","MAREA":" ","LANE":" ","ALLEY":" ","HOUSE_NO":"６７號","E_COORD97":177393.45999999999,"N_COORD97":2552536.25,"ADDRESS":"中正路６７號","OBJECTID":554685},"geometry":{"x":177393.46000000089,"y":2552536.2500000019}},{"attributes":{"ID":554713,"DIS_CODE":0,"TOWNNAME":"新市區","LI":"新和里","LIN":"21鄰","STREET":"中正路","SECT":" ","MAREA":" ","LANE":" ","ALLEY":" ","HOUSE_NO":"７８號","E_COORD97":177450.26000000001,"N_COORD97":2552422.25,"ADDRESS":"中正路７８號","OBJECTID":554686},"geometry":{"x":177450.26000000071,"y":2552422.25}},{"attributes":{"ID":554714,"DIS_CODE":0,"TOWNNAME":"新市區","LI":"新和里","LIN":"21鄰","STREET":"中正路","SECT":" ","MAREA":" ","LANE":" ","ALLEY":" ","HOUSE_NO":"８２號","E_COORD97":177448.12,"N_COORD97":2552430.25,"ADDRESS":"中正路８２號","OBJECTID":554687},"geometry":{"x":177448.12000000197,"y":2552430.25}},{"attributes":{"ID":554715,"DIS_CODE":0,"TOWNNAME":"新市區","LI":"新和里","LIN":"21鄰","STREET":"中正路","SECT":" ","MAREA":" ","LANE":" ","ALLEY":" ","HOUSE_NO":"９８號","E_COORD97":177427.87,"N_COORD97":2552515.25,"ADDRESS":"中正路９８號","OBJECTID":554688},"geometry":{"x":177427.87000000104,"y":2552515.2499999981}},{"attributes":{"ID":554716,"DIS_CODE":0,"TOWNNAME":"永康區","LI":"\u25A0洲里","LIN":"40鄰","STREET":"洲工街","SECT":" ","MAREA":" ","LANE":" ","ALLEY":" ","HOUSE_NO":"１７３號","E_COORD97":170747.95999999999,"N_COORD97":2548696.2799999998,"ADDRESS":"洲工街１７３號","OBJECTID":554689},"geometry":{"x":170747.96000000183,"y":2548696.2799999993}},{"attributes":{"ID":554717,"DIS_CODE":0,"TOWNNAME":"永康區","LI":"\u25A0行里","LIN":"1鄰","STREET":"中正路","SECT":" ","MAREA":" ","LANE":" ","ALLEY":" ","HOUSE_NO":"１００４號","E_COORD97":171881.54000000001,"N_COORD97":2549021.75,"ADDRESS":"中正路１００４號","OBJECTID":554690},"geometry":{"x":171881.5400000019,"y":2549021.75}},{"attributes":{"ID":554718,"DIS_CODE":0,"TOWNNAME":"新市區","LI":"新和里","LIN":"21鄰","STREET":"中正路","SECT":" ","MAREA":" ","LANE":" ","ALLEY":" ","HOUSE_NO":"１０１號","E_COORD97":177377.62,"N_COORD97":2552644.25,"ADDRESS":"中正路１０１號","OBJECTID":554691},"geometry":{"x":177377.62000000104,"y":2552644.2500000037}},{"attributes":{"ID":554719,"DIS_CODE":0,"TOWNNAME":"永康區","LI":"復國里","LIN":"21鄰","STREET":"復華六街","SECT":" ","MAREA":" ","LANE":" ","ALLEY":" ","HOUSE_NO":"４７號","E_COORD97":172742.31,"N_COORD97":2545834.52,"ADDRESS":"復華六街４７號","OBJECTID":554692},"geometry":{"x":172742.31000000052,"y":2545834.5200000014}},{"attributes":{"ID":554720,"DIS_CODE":0,"TOWNNAME":"永康區","LI":"復國里","LIN":"21鄰","STREET":"復華五街","SECT":" ","MAREA":" ","LANE":" ","ALLEY":" ","HOUSE_NO":"４９號","E_COORD97":172697.64999999999,"N_COORD97":2545700.73,"ADDRESS":"復華五街４９號","OBJECTID":554693},"geometry":{"x":172697.65000000037,"y":2545700.7300000004}},{"attributes":{"ID":554721,"DIS_CODE":0,"TOWNNAME":"永康區","LI":"復國里","LIN":"21鄰","STREET":"復華五街","SECT":" ","MAREA":" ","LANE":" ","ALLEY":" ","HOUSE_NO":"３７號","E_COORD97":172727.69,"N_COORD97":2545699.98,"ADDRESS":"復華五街３７號","OBJECTID":554694},"geometry":{"x":172727.69000000041,"y":2545699.9800000023}},{"attributes":{"ID":554722,"DIS_CODE":0,"TOWNNAME":"永康區","LI":"復國里","LIN":"21鄰","STREET":"復華六街","SECT":" ","MAREA":" ","LANE":" ","ALLEY":" ","HOUSE_NO":"６５號","E_COORD97":172701.57000000001,"N_COORD97":2545835.77,"ADDRESS":"復華六街６５號","OBJECTID":554695},"geometry":{"x":172701.5700000003,"y":2545835.7700000033}},{"attributes":{"ID":554723,"DIS_CODE":0,"TOWNNAME":"永康區","LI":"復國里","LIN":"21鄰","STREET":"復華五街","SECT":" ","MAREA":" ","LANE":" ","ALLEY":" ","HOUSE_NO":"４３號","E_COORD97":172712.60000000001,"N_COORD97":2545699.98,"ADDRESS":"復華五街４３號","OBJECTID":554696},"geometry":{"x":172712.59999999963,"y":2545699.9800000023}},{"attributes":{"ID":554724,"DIS_CODE":0,"TOWNNAME":"永康區","LI":"復國里","LIN":"21鄰","STREET":"復華五街","SECT":" ","MAREA":" ","LANE":" ","ALLEY":" ","HOUSE_NO":"３５號","E_COORD97":172732.35000000001,"N_COORD97":2545699.73,"ADDRESS":"復華五街３５號","OBJECTID":554697},"geometry":{"x":172732.35000000056,"y":2545699.7300000004}},{"attributes":{"ID":554725,"DIS_CODE":0,"TOWNNAME":"永康區","LI":"復國里","LIN":"21鄰","STREET":"復華六街","SECT":" ","MAREA":" ","LANE":" ","ALLEY":" ","HOUSE_NO":"７５號","E_COORD97":172662.78,"N_COORD97":2545836.1400000001,"ADDRESS":"復華六街７５號","OBJECTID":554698},"geometry":{"x":172662.78000000026,"y":2545836.1400000006}},{"attributes":{"ID":554726,"DIS_CODE":0,"TOWNNAME":"永康區","LI":"復國里","LIN":"21鄰","STREET":"復華六街","SECT":" ","MAREA":" ","LANE":" ","ALLEY":" ","HOUSE_NO":"４９號","E_COORD97":172738.26000000001,"N_COORD97":2545834.77,"ADDRESS":"復華六街４９號","OBJECTID":554699},"geometry":{"x":172738.26000000071,"y":2545834.7699999996}},{"attributes":{"ID":554727,"DIS_CODE":0,"TOWNNAME":"永康區","LI":"復國里","LIN":"21鄰","STREET":"復華六街","SECT":" ","MAREA":" ","LANE":" ","ALLEY":" ","HOUSE_NO":"６１號","E_COORD97":172714.06,"N_COORD97":2545835.77,"ADDRESS":"復華六街６１號","OBJECTID":554700},"geometry":{"x":172714.05999999959,"y":2545835.7700000033}},{"attributes":{"ID":554728,"DIS_CODE":0,"TOWNNAME":"永康區","LI":"勝利里","LIN":"21鄰","STREET":"勝利街","SECT":" ","MAREA":" ","LANE":" ","ALLEY":" ","HOUSE_NO":"１９３號","E_COORD97":171368.14999999999,"N_COORD97":2545115.75,"ADDRESS":"勝利街１９３號","OBJECTID":554701},"geometry":{"x":171368.1500000013,"y":2545115.7500000019}},{"attributes":{"ID":554729,"DIS_CODE":0,"TOWNNAME":"永康區","LI":"勝利里","LIN":"21鄰","STREET":"勝利街","SECT":" ","MAREA":" ","LANE":" ","ALLEY":" ","HOUSE_NO":"１９５號","E_COORD97":171368.14999999999,"N_COORD97":2545120,"ADDRESS":"勝利街１９５號","OBJECTID":554702},"geometry":{"x":171368.1500000013,"y":2545120.0000000019}},{"attributes":{"ID":554730,"DIS_CODE":0,"TOWNNAME":"永康區","LI":"\u25A0行里","LIN":"28鄰","STREET":"竹林街","SECT":" ","MAREA":" ","LANE":" ","ALLEY":" ","HOUSE_NO":"３７號","E_COORD97":172754.23000000001,"N_COORD97":2548862.2200000002,"ADDRESS":"竹林街３７號","OBJECTID":554703},"geometry":{"x":172754.23000000138,"y":2548862.2200000025}},{"attributes":{"ID":554731,"DIS_CODE":0,"TOWNNAME":"永康區","LI":"勝利里","LIN":"21鄰","STREET":"勝利街","SECT":" ","MAREA":" ","LANE":" ","ALLEY":" ","HOUSE_NO":"２０７號","E_COORD97":171372.48000000001,"N_COORD97":2545158.25,"ADDRESS":"勝利街２０７號","OBJECTID":554704},"geometry":{"x":171372.48000000138,"y":2545158.2500000037}},{"attributes":{"ID":554732,"DIS_CODE":0,"TOWNNAME":"永康區","LI":"蔦松里","LIN":"5鄰","STREET":"蔦松二街","SECT":" ","MAREA":" ","LANE":" ","ALLEY":" ","HOUSE_NO":"１１１號","E_COORD97":173777.20999999999,"N_COORD97":2549387.7999999998,"ADDRESS":"蔦松二街１１１號","OBJECTID":554705},"geometry":{"x":173777.21000000183,"y":2549387.8000000026}},{"attributes":{"ID":554733,"DIS_CODE":0,"TOWNNAME":"永康區","LI":"\u25A0行里","LIN":"43鄰","STREET":"\u25A0平街","SECT":" ","MAREA":" ","LANE":" ","ALLEY":" ","HOUSE_NO":"２０號","E_COORD97":171561.51999999999,"N_COORD97":2548003.5,"ADDRESS":"\u25A0平街２０號","OBJECTID":554706},"geometry":{"x":171561.52000000048,"y":2548003.5}},{"attributes":{"ID":554734,"DIS_CODE":0,"TOWNNAME":"永康區","LI":"\u25A0行里","LIN":"44鄰","STREET":"\u25A0和街","SECT":" ","MAREA":" ","LANE":" ","ALLEY":" ","HOUSE_NO":"２３３號","E_COORD97":171607.42999999999,"N_COORD97":2548296.25,"ADDRESS":"\u25A0和街２３３號","OBJECTID":554707},"geometry":{"x":171607.43000000063,"y":2548296.25}},{"attributes":{"ID":554735,"DIS_CODE":0,"TOWNNAME":"官田區","LI":"隆本里","LIN":"21鄰","STREET":"勝利路","SECT":" ","MAREA":" ","LANE":" ","ALLEY":" ","HOUSE_NO":"１４０號","E_COORD97":180087.57999999999,"N_COORD97":2566084.3100000001,"ADDRESS":"勝利路１４０號","OBJECTID":554708},"geometry":{"x":180087.58000000194,"y":2566084.3100000024}},{"attributes":{"ID":554736,"DIS_CODE":0,"TOWNNAME":"官田區","LI":"隆本里","LIN":"21鄰","STREET":"勝利路","SECT":" ","MAREA":" ","LANE":" ","ALLEY":" ","HOUSE_NO":"１４２號","E_COORD97":180097.92000000001,"N_COORD97":2566093.98,"ADDRESS":"勝利路１４２號","OBJECTID":554709},"geometry":{"x":180097.91999999993,"y":2566093.9800000023}},{"attributes":{"ID":554737,"DIS_CODE":0,"TOWNNAME":"官田區","LI":"隆本里","LIN":"21鄰","STREET":"勝利路","SECT":" ","MAREA":" ","LANE":" ","ALLEY":" ","HOUSE_NO":"１４６號","E_COORD97":180144.70000000001,"N_COORD97":2566155.0800000001,"ADDRESS":"勝利路１４６號","OBJECTID":554710},"geometry":{"x":180144.70000000205,"y":2566155.0800000001}},{"attributes":{"ID":554738,"DIS_CODE":0,"TOWNNAME":"官田區","LI":"隆本里","LIN":"21鄰","STREET":"勝利路","SECT":" ","MAREA":" ","LANE":" ","ALLEY":" ","HOUSE_NO":"１４８號","E_COORD97":180138.04999999999,"N_COORD97":2566129.1099999999,"ADDRESS":"勝利路１４８號","OBJECTID":554711},"geometry":{"x":180138.04999999981,"y":2566129.1100000013}},{"attributes":{"ID":554739,"DIS_CODE":0,"TOWNNAME":"官田區","LI":"隆本里","LIN":"21鄰","STREET":"勝利路","SECT":" ","MAREA":" ","LANE":" ","ALLEY":" ","HOUSE_NO":"１５０號","E_COORD97":180161.84,"N_COORD97":2566159.9300000002,"ADDRESS":"勝利路１５０號","OBJECTID":554712},"geometry":{"x":180161.83999999892,"y":2566159.9299999978}},{"attributes":{"ID":554740,"DIS_CODE":0,"TOWNNAME":"官田區","LI":"隆本里","LIN":"21鄰","STREET":"勝利路","SECT":" ","MAREA":" ","LANE":" ","ALLEY":" ","HOUSE_NO":"１５２號","E_COORD97":180166.32000000001,"N_COORD97":2566160.8199999998,"ADDRESS":"勝利路１５２號","OBJECTID":554713},"geometry":{"x":180166.32000000123,"y":2566160.8200000003}},{"attributes":{"ID":554741,"DIS_CODE":0,"TOWNNAME":"官田區","LI":"隆本里","LIN":"21鄰","STREET":"勝利路","SECT":" ","MAREA":" ","LANE":" ","ALLEY":" ","HOUSE_NO":"１５６號","E_COORD97":180172.23999999999,"N_COORD97":2566165.3399999999,"ADDRESS":"勝利路１５６號","OBJECTID":554714},"geometry":{"x":180172.24000000115,"y":2566165.3400000017}},{"attributes":{"ID":554742,"DIS_CODE":0,"TOWNNAME":"官田區","LI":"隆本里","LIN":"21鄰","STREET":"勝利路","SECT":" ","MAREA":" ","LANE":" ","ALLEY":" ","HOUSE_NO":"１５８號","E_COORD97":180177.76999999999,"N_COORD97":2566170.5299999998,"ADDRESS":"勝利路１５８號","OBJECTID":554715},"geometry":{"x":180177.77000000048,"y":2566170.5300000012}},{"attributes":{"ID":554743,"DIS_CODE":0,"TOWNNAME":"官田區","LI":"隆本里","LIN":"21鄰","STREET":"勝利路","SECT":" ","MAREA":" ","LANE":" ","ALLEY":" ","HOUSE_NO":"１６６號","E_COORD97":180184.23999999999,"N_COORD97":2566180.96,"ADDRESS":"勝利路１６６號","OBJECTID":554716},"geometry":{"x":180184.24000000022,"y":2566180.9600000009}},{"attributes":{"ID":554744,"DIS_CODE":0,"TOWNNAME":"官田區","LI":"隆本里","LIN":"21鄰","STREET":"勝利路","SECT":" ","MAREA":" ","LANE":" ","ALLEY":" ","HOUSE_NO":"１７２號","E_COORD97":180184.44,"N_COORD97":2566196.6299999999,"ADDRESS":"勝利路１７２號","OBJECTID":554717},"geometry":{"x":180184.44000000134,"y":2566196.6300000008}},{"attributes":{"ID":554745,"DIS_CODE":0,"TOWNNAME":"官田區","LI":"隆本里","LIN":"21鄰","STREET":"勝利路","SECT":" ","MAREA":" ","LANE":" ","ALLEY":" ","HOUSE_NO":"１７６號","E_COORD97":180184.38,"N_COORD97":2566201.4500000002,"ADDRESS":"勝利路１７６號","OBJECTID":554718},"geometry":{"x":180184.38000000082,"y":2566201.4500000011}},{"attributes":{"ID":554746,"DIS_CODE":0,"TOWNNAME":"官田區","LI":"隆本里","LIN":"21鄰","STREET":"勝利路","SECT":" ","MAREA":" ","LANE":" ","ALLEY":" ","HOUSE_NO":"１７８號","E_COORD97":180182,"N_COORD97":2566207.1200000001,"ADDRESS":"勝利路１７８號","OBJECTID":554719},"geometry":{"x":180182.00000000093,"y":2566207.120000001}},{"attributes":{"ID":554747,"DIS_CODE":0,"TOWNNAME":"官田區","LI":"隆本里","LIN":"21鄰","STREET":"勝利路","SECT":" ","MAREA":" ","LANE":" ","ALLEY":" ","HOUSE_NO":"１８０號","E_COORD97":180180.72,"N_COORD97":2566213.04,"ADDRESS":"勝利路１８０號","OBJECTID":554720},"geometry":{"x":180180.71999999974,"y":2566213.0400000028}},{"attributes":{"ID":554748,"DIS_CODE":0,"TOWNNAME":"官田區","LI":"隆本里","LIN":"21鄰","STREET":"勝利路","SECT":" ","MAREA":" ","LANE":" ","ALLEY":" ","HOUSE_NO":"１８２號","E_COORD97":180180.13,"N_COORD97":2566218.1899999999,"ADDRESS":"勝利路１８２號","OBJECTID":554721},"geometry":{"x":180180.12999999989,"y":2566218.1899999995}},{"attributes":{"ID":554749,"DIS_CODE":0,"TOWNNAME":"官田區","LI":"隆本里","LIN":"21鄰","STREET":"勝利路","SECT":" ","MAREA":" ","LANE":" ","ALLEY":" ","HOUSE_NO":"１８６號","E_COORD97":180179.56,"N_COORD97":2566223.0699999998,"ADDRESS":"勝利路１８６號","OBJECTID":554722},"geometry":{"x":180179.56000000052,"y":2566223.0700000003}},{"attributes":{"ID":554750,"DIS_CODE":0,"TOWNNAME":"官田區","LI":"隆本里","LIN":"21鄰","STREET":"勝利路","SECT":" ","MAREA":" ","LANE":" ","ALLEY":" ","HOUSE_NO":"１８８號","E_COORD97":180172.95000000001,"N_COORD97":2566227.21,"ADDRESS":"勝利路１８８號","OBJECTID":554723},"geometry":{"x":180172.95000000019,"y":2566227.209999999}},{"attributes":{"ID":554751,"DIS_CODE":0,"TOWNNAME":"白河區","LI":"永安里","LIN":"21鄰","STREET":"中山路","SECT":" ","MAREA":" ","LANE":" ","ALLEY":" ","HOUSE_NO":"１之１２０號","E_COORD97":189967.14999999999,"N_COORD97":2582814.1000000001,"ADDRESS":"中山路１之１２０號","OBJECTID":554724},"geometry":{"x":189967.15000000224,"y":2582814.1000000015}},{"attributes":{"ID":554752,"DIS_CODE":0,"TOWNNAME":"白河區","LI":"永安里","LIN":"21鄰","STREET":"中山路","SECT":" ","MAREA":" ","LANE":" ","ALLEY":" ","HOUSE_NO":"１之２５號","E_COORD97":189980.69,"N_COORD97":2582773.3999999999,"ADDRESS":"中山路１之２５號","OBJECTID":554725},"geometry":{"x":189980.69000000134,"y":2582773.4000000004}},{"attributes":{"ID":554753,"DIS_CODE":0,"TOWNNAME":"白河區","LI":"永安里","LIN":"21鄰","STREET":"中山路","SECT":" ","MAREA":" ","LANE":" ","ALLEY":" ","HOUSE_NO":"１之２６號","E_COORD97":189977.73000000001,"N_COORD97":2582768.4500000002,"ADDRESS":"中山路１之２６號","OBJECTID":554726},"geometry":{"x":189977.73000000045,"y":2582768.4499999993}},{"attributes":{"ID":554754,"DIS_CODE":0,"TOWNNAME":"白河區","LI":"永安里","LIN":"21鄰","STREET":"中山路","SECT":" ","MAREA":" ","LANE":" ","ALLEY":" ","HOUSE_NO":"１之２７號","E_COORD97":189975.59,"N_COORD97":2582764.4700000002,"ADDRESS":"中山路１之２７號","OBJECTID":554727},"geometry":{"x":189975.59000000078,"y":2582764.4700000025}},{"attributes":{"ID":554755,"DIS_CODE":0,"TOWNNAME":"白河區","LI":"永安里","LIN":"21鄰","STREET":"中山路","SECT":" ","MAREA":" ","LANE":" ","ALLEY":" ","HOUSE_NO":"１之２８號","E_COORD97":189972.76999999999,"N_COORD97":2582761.0099999998,"ADDRESS":"中山路１之２８號","OBJECTID":554728},"geometry":{"x":189972.77000000048,"y":2582761.0099999998}},{"attributes":{"ID":554756,"DIS_CODE":0,"TOWNNAME":"白河區","LI":"永安里","LIN":"21鄰","STREET":"中山路","SECT":" ","MAREA":" ","LANE":" ","ALLEY":" ","HOUSE_NO":"１之２９號","E_COORD97":189960.37,"N_COORD97":2582749.3500000001,"ADDRESS":"中山路１之２９號","OBJECTID":554729},"geometry":{"x":189960.37000000104,"y":2582749.3499999996}},{"attributes":{"ID":554757,"DIS_CODE":0,"TOWNNAME":"白河區","LI":"永安里","LIN":"21鄰","STREET":"中山路","SECT":" ","MAREA":" ","LANE":" ","ALLEY":" ","HOUSE_NO":"１之３６號","E_COORD97":189950.98999999999,"N_COORD97":2582731.9900000002,"ADDRESS":"中山路１之３６號","OBJECTID":554730},"geometry":{"x":189950.99000000209,"y":2582731.9900000002}},{"attributes":{"ID":554758,"DIS_CODE":0,"TOWNNAME":"白河區","LI":"永安里","LIN":"21鄰","STREET":"中山路","SECT":" ","MAREA":" ","LANE":" ","ALLEY":" ","HOUSE_NO":"１之３７號","E_COORD97":189945.70000000001,"N_COORD97":2582719.3700000001,"ADDRESS":"中山路１之３７號","OBJECTID":554731},"geometry":{"x":189945.70000000019,"y":2582719.370000001}},{"attributes":{"ID":554759,"DIS_CODE":0,"TOWNNAME":"白河區","LI":"永安里","LIN":"21鄰","STREET":"中山路","SECT":" ","MAREA":" ","LANE":" ","ALLEY":" ","HOUSE_NO":"１之３８號","E_COORD97":189922.14000000001,"N_COORD97":2582722.8300000001,"ADDRESS":"中山路１之３８號","OBJECTID":554732},"geometry":{"x":189922.13999999966,"y":2582722.8300000001}},{"attributes":{"ID":554760,"DIS_CODE":0,"TOWNNAME":"白河區","LI":"永安里","LIN":"21鄰","STREET":"中山路","SECT":" ","MAREA":" ","LANE":" ","ALLEY":" ","HOUSE_NO":"１之３９號","E_COORD97":189920.88,"N_COORD97":2582704.9100000001,"ADDRESS":"中山路１之３９號","OBJECTID":554733},"geometry":{"x":189920.88000000175,"y":2582704.9100000001}},{"attributes":{"ID":554761,"DIS_CODE":0,"TOWNNAME":"白河區","LI":"永安里","LIN":"21鄰","STREET":"中山路","SECT":" ","MAREA":" ","LANE":" ","ALLEY":" ","HOUSE_NO":"１之４０號","E_COORD97":189921.01999999999,"N_COORD97":2582698.1699999999,"ADDRESS":"中山路１之４０號","OBJECTID":554734},"geometry":{"x":189921.01999999955,"y":2582698.1700000018}},{"attributes":{"ID":554762,"DIS_CODE":0,"TOWNNAME":"白河區","LI":"永安里","LIN":"21鄰","STREET":"中山路","SECT":" ","MAREA":" ","LANE":" ","ALLEY":" ","HOUSE_NO":"１之４２號","E_COORD97":189918.42000000001,"N_COORD97":2582683.1499999999,"ADDRESS":"中山路１之４２號","OBJECTID":554735},"geometry":{"x":189918.41999999993,"y":2582683.1500000004}},{"attributes":{"ID":554763,"DIS_CODE":0,"TOWNNAME":"白河區","LI":"永安里","LIN":"21鄰","STREET":"中山路","SECT":" ","MAREA":" ","LANE":" ","ALLEY":" ","HOUSE_NO":"１之４３３號","E_COORD97":189739.23000000001,"N_COORD97":2582442.2400000002,"ADDRESS":"中山路１之４３３號","OBJECTID":554736},"geometry":{"x":189739.23000000045,"y":2582442.2400000002}},{"attributes":{"ID":554764,"DIS_CODE":0,"TOWNNAME":"永康區","LI":"\u25A0洲里","LIN":"25鄰","STREET":"洲工街","SECT":" ","MAREA":" ","LANE":" ","ALLEY":" ","HOUSE_NO":"１８號","E_COORD97":170626.70000000001,"N_COORD97":2548119.8799999999,"ADDRESS":"洲工街１８號","OBJECTID":554737},"geometry":{"x":170626.70000000112,"y":2548119.8800000008}},{"attributes":{"ID":554765,"DIS_CODE":0,"TOWNNAME":"永康區","LI":"\u25A0行里","LIN":"25鄰","STREET":"\u25A0和街","SECT":" ","MAREA":" ","LANE":" ","ALLEY":" ","HOUSE_NO":"２３４號","E_COORD97":171745.48999999999,"N_COORD97":2548204.25,"ADDRESS":"\u25A0和街２３４號","OBJECTID":554738},"geometry":{"x":171745.49000000115,"y":2548204.2500000019}},{"attributes":{"ID":554766,"DIS_CODE":0,"TOWNNAME":"永康區","LI":"\u25A0洲里","LIN":"40鄰","STREET":"洲工街","SECT":" ","MAREA":" ","LANE":" ","ALLEY":" ","HOUSE_NO":"１７９號","E_COORD97":170821.34,"N_COORD97":2548811.5,"ADDRESS":"洲工街１７９號","OBJECTID":554739},"geometry":{"x":170821.33999999892,"y":2548811.5000000037}},{"attributes":{"ID":554767,"DIS_CODE":0,"TOWNNAME":"白河區","LI":"永安里","LIN":"21鄰","STREET":"中山路","SECT":" ","MAREA":" ","LANE":" ","ALLEY":" ","HOUSE_NO":"１之４４３號","E_COORD97":189653.32000000001,"N_COORD97":2582332.4700000002,"ADDRESS":"中山路１之４４３號","OBJECTID":554740},"geometry":{"x":189653.3200000003,"y":2582332.4700000007}},{"attributes":{"ID":554768,"DIS_CODE":0,"TOWNNAME":"白河區","LI":"永安里","LIN":"21鄰","STREET":"中山路","SECT":" ","MAREA":" ","LANE":" ","ALLEY":" ","HOUSE_NO":"１之４７３號","E_COORD97":189611.78,"N_COORD97":2582288.25,"ADDRESS":"中山路１之４７３號","OBJECTID":554741},"geometry":{"x":189611.78000000212,"y":2582288.25}},{"attributes":{"ID":554769,"DIS_CODE":0,"TOWNNAME":"白河區","LI":"永安里","LIN":"21鄰","STREET":"中山路","SECT":" ","MAREA":" ","LANE":" ","ALLEY":" ","HOUSE_NO":"１之５００號","E_COORD97":189502.75,"N_COORD97":2582233.29,"ADDRESS":"中山路１之５００號","OBJECTID":554742},"geometry":{"x":189502.75,"y":2582233.2899999991}},{"attributes":{"ID":554770,"DIS_CODE":0,"TOWNNAME":"白河區","LI":"永安里","LIN":"21鄰","STREET":"中山路","SECT":" ","MAREA":" ","LANE":" ","ALLEY":" ","HOUSE_NO":"１之６１號","E_COORD97":189822.95000000001,"N_COORD97":2582649.7200000002,"ADDRESS":"中山路１之６１號","OBJECTID":554743},"geometry":{"x":189822.95000000112,"y":2582649.7200000007}},{"attributes":{"ID":554771,"DIS_CODE":0,"TOWNNAME":"白河區","LI":"永安里","LIN":"21鄰","STREET":"中山路","SECT":" ","MAREA":" ","LANE":" ","ALLEY":" ","HOUSE_NO":"１之６２號","E_COORD97":189857.87,"N_COORD97":2582645.9700000002,"ADDRESS":"中山路１之６２號","OBJECTID":554744},"geometry":{"x":189857.87000000011,"y":2582645.9700000025}},{"attributes":{"ID":554772,"DIS_CODE":0,"TOWNNAME":"白河區","LI":"永安里","LIN":"21鄰","STREET":"中山路","SECT":" ","MAREA":" ","LANE":" ","ALLEY":" ","HOUSE_NO":"１之８３號","E_COORD97":189824.44,"N_COORD97":2582595.96,"ADDRESS":"中山路１之８３號","OBJECTID":554745},"geometry":{"x":189824.44000000227,"y":2582595.9600000028}},{"attributes":{"ID":554773,"DIS_CODE":0,"TOWNNAME":"安南區","LI":"州北里","LIN":"21鄰","STREET":"安和路","SECT":"五段","MAREA":" ","LANE":" ","ALLEY":" ","HOUSE_NO":"３３７號之１","E_COORD97":169650.42999999999,"N_COORD97":2552182.1000000001,"ADDRESS":"安和路五段３３７號之１","OBJECTID":554746},"geometry":{"x":169650.4299999997,"y":2552182.1000000015}},{"attributes":{"ID":554774,"DIS_CODE":0,"TOWNNAME":"安南區","LI":"州北里","LIN":"21鄰","STREET":"安和路","SECT":"五段","MAREA":" ","LANE":" ","ALLEY":" ","HOUSE_NO":"３４３號","E_COORD97":169651.60999999999,"N_COORD97":2552193.8700000001,"ADDRESS":"安和路五段３４３號","OBJECTID":554747},"geometry":{"x":169651.61000000034,"y":2552193.8700000048}},{"attributes":{"ID":554775,"DIS_CODE":0,"TOWNNAME":"安南區","LI":"州北里","LIN":"21鄰","STREET":"安和路","SECT":"五段","MAREA":" ","LANE":" ","ALLEY":" ","HOUSE_NO":"３４７號","E_COORD97":169646.51000000001,"N_COORD97":2552202.1000000001,"ADDRESS":"安和路五段３４７號","OBJECTID":554748},"geometry":{"x":169646.50999999978,"y":2552202.1000000015}},{"attributes":{"ID":554776,"DIS_CODE":0,"TOWNNAME":"安南區","LI":"州北里","LIN":"21鄰","STREET":"安和路","SECT":"五段","MAREA":" ","LANE":" ","ALLEY":" ","HOUSE_NO":"３４９號","E_COORD97":169644.94,"N_COORD97":2552206.4199999999,"ADDRESS":"安和路五段３４９號","OBJECTID":554749},"geometry":{"x":169644.94000000227,"y":2552206.4200000018}},{"attributes":{"ID":554777,"DIS_CODE":0,"TOWNNAME":"安南區","LI":"州北里","LIN":"21鄰","STREET":"安和路","SECT":"五段","MAREA":" ","LANE":" ","ALLEY":" ","HOUSE_NO":"３６１號","E_COORD97":169630.01000000001,"N_COORD97":2552250.5899999999,"ADDRESS":"安和路五段３６１號","OBJECTID":554750},"geometry":{"x":169630.00999999978,"y":2552250.5899999999}},{"attributes":{"ID":554778,"DIS_CODE":0,"TOWNNAME":"永康區","LI":"龍潭里","LIN":"22鄰","STREET":"自強路","SECT":" ","MAREA":" ","LANE":" ","ALLEY":" ","HOUSE_NO":"８５２號","E_COORD97":174687.13,"N_COORD97":2548690.23,"ADDRESS":"自強路８５２號","OBJECTID":554751},"geometry":{"x":174687.12999999989,"y":2548690.2300000004}},{"attributes":{"ID":554779,"DIS_CODE":0,"TOWNNAME":"永康區","LI":"\u25A0行里","LIN":"14鄰","STREET":"中正六街","SECT":" ","MAREA":" ","LANE":" ","ALLEY":" ","HOUSE_NO":"１８５號","E_COORD97":171877.37,"N_COORD97":2548871.3799999999,"ADDRESS":"中正六街１８５號","OBJECTID":554752},"geometry":{"x":171877.37000000011,"y":2548871.379999999}},{"attributes":{"ID":554780,"DIS_CODE":0,"TOWNNAME":"永康區","LI":"龍潭里","LIN":"30鄰","STREET":"龍國街","SECT":" ","MAREA":" ","LANE":" ","ALLEY":" ","HOUSE_NO":"５００號","E_COORD97":175050.44,"N_COORD97":2548000.4300000002,"ADDRESS":"龍國街５００號","OBJECTID":554753},"geometry":{"x":175050.44000000041,"y":2548000.4299999997}},{"attributes":{"ID":554781,"DIS_CODE":0,"TOWNNAME":"永康區","LI":"\u25A0行里","LIN":"44鄰","STREET":"\u25A0和街","SECT":" ","MAREA":" ","LANE":" ","ALLEY":" ","HOUSE_NO":"２１９號","E_COORD97":171752.66,"N_COORD97":2548156.7400000002,"ADDRESS":"\u25A0和街２１９號","OBJECTID":554754},"geometry":{"x":171752.66000000108,"y":2548156.7400000021}},{"attributes":{"ID":554782,"DIS_CODE":0,"TOWNNAME":"永康區","LI":"\u25A0行里","LIN":"44鄰","STREET":"\u25A0和街","SECT":" ","MAREA":" ","LANE":" ","ALLEY":" ","HOUSE_NO":"１８０號","E_COORD97":171889.62,"N_COORD97":2547995,"ADDRESS":"\u25A0和街１８０號","OBJECTID":554755},"geometry":{"x":171889.62000000104,"y":2547995.0000000019}},{"attributes":{"ID":554783,"DIS_CODE":0,"TOWNNAME":"永康區","LI":"\u25A0行里","LIN":"14鄰","STREET":"中正六街","SECT":" ","MAREA":" ","LANE":" ","ALLEY":" ","HOUSE_NO":"１９９號","E_COORD97":171902.92999999999,"N_COORD97":2548901.6400000001,"ADDRESS":"中正六街１９９號","OBJECTID":554756},"geometry":{"x":171902.93000000063,"y":2548901.6400000006}},{"attributes":{"ID":554784,"DIS_CODE":0,"TOWNNAME":"永康區","LI":"龍潭里","LIN":"44鄰","STREET":"永平街","SECT":" ","MAREA":" ","LANE":" ","ALLEY":" ","HOUSE_NO":"２９２之２７號","E_COORD97":174655.56,"N_COORD97":2547068.5499999998,"ADDRESS":"永平街２９２之２７號","OBJECTID":554757},"geometry":{"x":174655.55999999959,"y":2547068.5500000007}},{"attributes":{"ID":554785,"DIS_CODE":0,"TOWNNAME":"仁德區","LI":"保安里","LIN":"21鄰","STREET":"文賢路","SECT":"一段","MAREA":" ","LANE":" ","ALLEY":" ","HOUSE_NO":"６３４號","E_COORD97":171132.29000000001,"N_COORD97":2536681.8300000001,"ADDRESS":"文賢路一段６３４號","OBJECTID":554758},"geometry":{"x":171132.2900000019,"y":2536681.8300000038}},{"attributes":{"ID":554786,"DIS_CODE":0,"TOWNNAME":"仁德區","LI":"保安里","LIN":"21鄰","STREET":"文賢路","SECT":"一段","MAREA":" ","LANE":" ","ALLEY":" ","HOUSE_NO":"６３６號","E_COORD97":171134.10999999999,"N_COORD97":2536677.3300000001,"ADDRESS":"文賢路一段６３６號","OBJECTID":554759},"geometry":{"x":171134.11000000127,"y":2536677.3300000001}},{"attributes":{"ID":554787,"DIS_CODE":0,"TOWNNAME":"仁德區","LI":"後壁里","LIN":"21鄰","STREET":"中正路","SECT":"一段","MAREA":" ","LANE":" ","ALLEY":" ","HOUSE_NO":"６５１號","E_COORD97":172997.85000000001,"N_COORD97":2538034.7799999998,"ADDRESS":"中正路一段６５１號","OBJECTID":554760},"geometry":{"x":172997.85000000149,"y":2538034.7800000012}},{"attributes":{"ID":554788,"DIS_CODE":0,"TOWNNAME":"仁德區","LI":"保安里","LIN":"21鄰","STREET":"文賢路","SECT":"一段","MAREA":" ","LANE":" ","ALLEY":" ","HOUSE_NO":"６４４號","E_COORD97":171144.31,"N_COORD97":2536651.3199999998,"ADDRESS":"文賢路一段６４４號","OBJECTID":554761},"geometry":{"x":171144.30999999959,"y":2536651.3200000003}},{"attributes":{"ID":554789,"DIS_CODE":0,"TOWNNAME":"永康區","LI":"\u25A0行里","LIN":"44鄰","STREET":"\u25A0和街","SECT":" ","MAREA":" ","LANE":" ","ALLEY":" ","HOUSE_NO":"２１５號","E_COORD97":171771.57999999999,"N_COORD97":2548131.96,"ADDRESS":"\u25A0和街２１５號","OBJECTID":554762},"geometry":{"x":171771.58000000101,"y":2548131.9600000028}},{"attributes":{"ID":554790,"DIS_CODE":0,"TOWNNAME":"永康區","LI":"龍潭里","LIN":"44鄰","STREET":"永平街","SECT":" ","MAREA":" ","LANE":" ","ALLEY":" ","HOUSE_NO":"２９６之８號","E_COORD97":174672.37,"N_COORD97":2547093.29,"ADDRESS":"永平街２９６之８號","OBJECTID":554763},"geometry":{"x":174672.37000000011,"y":2547093.2900000028}},{"attributes":{"ID":554791,"DIS_CODE":0,"TOWNNAME":"仁德區","LI":"保安里","LIN":"21鄰","STREET":"文賢一街","SECT":" ","MAREA":" ","LANE":" ","ALLEY":" ","HOUSE_NO":"１６號","E_COORD97":171070.35000000001,"N_COORD97":2536713.3300000001,"ADDRESS":"文賢一街１６號","OBJECTID":554764},"geometry":{"x":171070.35000000149,"y":2536713.3300000019}},{"attributes":{"ID":554792,"DIS_CODE":0,"TOWNNAME":"仁德區","LI":"保安里","LIN":"21鄰","STREET":"文賢一街","SECT":" ","MAREA":" ","LANE":" ","ALLEY":" ","HOUSE_NO":"１８號","E_COORD97":171066.60000000001,"N_COORD97":2536711.5800000001,"ADDRESS":"文賢一街１８號","OBJECTID":554765},"geometry":{"x":171066.59999999963,"y":2536711.5800000019}},{"attributes":{"ID":554793,"DIS_CODE":0,"TOWNNAME":"永康區","LI":"五王里","LIN":"21鄰","STREET":"振興路","SECT":" ","MAREA":" ","LANE":" ","ALLEY":" ","HOUSE_NO":"１號","E_COORD97":171372.03,"N_COORD97":2545744.4900000002,"ADDRESS":"振興路１號","OBJECTID":554766},"geometry":{"x":171372.03000000119,"y":2545744.4900000021}},{"attributes":{"ID":554794,"DIS_CODE":0,"TOWNNAME":"永康區","LI":"龍潭里","LIN":"45鄰","STREET":"西勢路","SECT":" ","MAREA":" ","LANE":" ","ALLEY":" ","HOUSE_NO":"６６８號","E_COORD97":174707.60000000001,"N_COORD97":2546793.6400000001,"ADDRESS":"西勢路６６８號","OBJECTID":554767},"geometry":{"x":174707.59999999963,"y":2546793.6399999987}},{"attributes":{"ID":554795,"DIS_CODE":0,"TOWNNAME":"永康區","LI":"\u25A0行里","LIN":"16鄰","STREET":"中正六街","SECT":" ","MAREA":" ","LANE":" ","ALLEY":" ","HOUSE_NO":"２７０號","E_COORD97":171942.59,"N_COORD97":2548918.8500000001,"ADDRESS":"中正六街２７０號","OBJECTID":554768},"geometry":{"x":171942.59000000078,"y":2548918.8500000015}},{"attributes":{"ID":554796,"DIS_CODE":0,"TOWNNAME":"永康區","LI":"\u25A0洲里","LIN":"25鄰","STREET":"洲工街","SECT":" ","MAREA":" ","LANE":" ","ALLEY":" ","HOUSE_NO":"７號","E_COORD97":170645.62,"N_COORD97":2548051.2400000002,"ADDRESS":"洲工街７號","OBJECTID":554769},"geometry":{"x":170645.62000000104,"y":2548051.2400000021}},{"attributes":{"ID":554797,"DIS_CODE":0,"TOWNNAME":"中西區","LI":"五妃里","LIN":"12鄰","STREET":"南門路","SECT":" ","MAREA":" ","LANE":" ","ALLEY":" ","HOUSE_NO":"２１５號","E_COORD97":168413.20999999999,"N_COORD97":2542836.71,"ADDRESS":"南門路２１５號","OBJECTID":554770},"geometry":{"x":168413.20999999996,"y":2542836.7100000009}},{"attributes":{"ID":554798,"DIS_CODE":0,"TOWNNAME":"中西區","LI":"五妃里","LIN":"19鄰","STREET":"南門路","SECT":" ","MAREA":" ","LANE":" ","ALLEY":" ","HOUSE_NO":"１８３號","E_COORD97":168423.79000000001,"N_COORD97":2542930.9300000002,"ADDRESS":"南門路１８３號","OBJECTID":554771},"geometry":{"x":168423.79000000097,"y":2542930.9300000016}},{"attributes":{"ID":554799,"DIS_CODE":0,"TOWNNAME":"中西區","LI":"五妃里","LIN":"19鄰","STREET":"南門路","SECT":" ","MAREA":" ","LANE":" ","ALLEY":" ","HOUSE_NO":"１８５號","E_COORD97":168423.28,"N_COORD97":2542926.3399999999,"ADDRESS":"南門路１８５號","OBJECTID":554772},"geometry":{"x":168423.28000000026,"y":2542926.3399999999}},{"attributes":{"ID":554800,"DIS_CODE":0,"TOWNNAME":"中西區","LI":"五妃里","LIN":"19鄰","STREET":"南門路","SECT":" ","MAREA":" ","LANE":" ","ALLEY":" ","HOUSE_NO":"１８５號之１","E_COORD97":168422.76999999999,"N_COORD97":2542922.0099999998,"ADDRESS":"南門路１８５號之１","OBJECTID":554773},"geometry":{"x":168422.76999999862,"y":2542922.0100000035}},{"attributes":{"ID":554801,"DIS_CODE":0,"TOWNNAME":"中西區","LI":"五妃里","LIN":"19鄰","STREET":"南門路","SECT":" ","MAREA":" ","LANE":" ","ALLEY":" ","HOUSE_NO":"１８５號之２","E_COORD97":168422.51000000001,"N_COORD97":2542917.6699999999,"ADDRESS":"南門路１８５號之２","OBJECTID":554774},"geometry":{"x":168422.50999999978,"y":2542917.6700000037}},{"attributes":{"ID":554802,"DIS_CODE":0,"TOWNNAME":"中西區","LI":"五妃里","LIN":"19鄰","STREET":"南門路","SECT":" ","MAREA":" ","LANE":" ","ALLEY":" ","HOUSE_NO":"１８５號之３","E_COORD97":168421.87,"N_COORD97":2542912.8199999998,"ADDRESS":"南門路１８５號之３","OBJECTID":554775},"geometry":{"x":168421.87000000104,"y":2542912.8200000003}},{"attributes":{"ID":554803,"DIS_CODE":0,"TOWNNAME":"中西區","LI":"五妃里","LIN":"19鄰","STREET":"南門路","SECT":" ","MAREA":" ","LANE":" ","ALLEY":" ","HOUSE_NO":"１８５號之４","E_COORD97":168421.10999999999,"N_COORD97":2542908.23,"ADDRESS":"南門路１８５號之４","OBJECTID":554776},"geometry":{"x":168421.11000000034,"y":2542908.2300000023}},{"attributes":{"ID":554804,"DIS_CODE":0,"TOWNNAME":"中西區","LI":"五妃里","LIN":"19鄰","STREET":"南門路","SECT":" ","MAREA":" ","LANE":" ","ALLEY":" ","HOUSE_NO":"１８５號之５","E_COORD97":168420.60000000001,"N_COORD97":2542904.2799999998,"ADDRESS":"南門路１８５號之５","OBJECTID":554777},"geometry":{"x":168420.59999999963,"y":2542904.2800000012}},{"attributes":{"ID":554805,"DIS_CODE":0,"TOWNNAME":"永康區","LI":"埔園里","LIN":"21鄰","STREET":"埔園街","SECT":" ","MAREA":" ","LANE":" ","ALLEY":" ","HOUSE_NO":"２８１號","E_COORD97":173431.14999999999,"N_COORD97":2548164.0600000001,"ADDRESS":"埔園街２８１號","OBJECTID":554778},"geometry":{"x":173431.1500000013,"y":2548164.0600000042}},{"attributes":{"ID":554806,"DIS_CODE":0,"TOWNNAME":"永康區","LI":"\u25A0行里","LIN":" ","STREET":"永安二街","SECT":" ","MAREA":" ","LANE":" ","ALLEY":" ","HOUSE_NO":"１０號","E_COORD97":172461.01000000001,"N_COORD97":2549613.0600000001,"ADDRESS":"永安二街１０號","OBJECTID":554779},"geometry":{"x":172461.00999999885,"y":2549613.0600000024}},{"attributes":{"ID":554807,"DIS_CODE":0,"TOWNNAME":"中西區","LI":"五妃里","LIN":"19鄰","STREET":"南門路","SECT":" ","MAREA":" ","LANE":" ","ALLEY":" ","HOUSE_NO":"１８５號之６","E_COORD97":168438.62,"N_COORD97":2542899.9399999999,"ADDRESS":"南門路１８５號之６","OBJECTID":554780},"geometry":{"x":168438.62000000104,"y":2542899.9400000013}},{"attributes":{"ID":554808,"DIS_CODE":0,"TOWNNAME":"中西區","LI":"五妃里","LIN":"19鄰","STREET":"南門路","SECT":" ","MAREA":" ","LANE":" ","ALLEY":" ","HOUSE_NO":"１８５號之７","E_COORD97":168442.97,"N_COORD97":2542899.0499999998,"ADDRESS":"南門路１８５號之７","OBJECTID":554781},"geometry":{"x":168442.96999999974,"y":2542899.0500000045}},{"attributes":{"ID":554809,"DIS_CODE":0,"TOWNNAME":"中西區","LI":"五妃里","LIN":"19鄰","STREET":"南門路","SECT":" ","MAREA":" ","LANE":" ","ALLEY":" ","HOUSE_NO":"１８５號之８","E_COORD97":168446.79999999999,"N_COORD97":2542898.0299999998,"ADDRESS":"南門路１８５號之８","OBJECTID":554782},"geometry":{"x":168446.80000000168,"y":2542898.0300000012}},{"attributes":{"ID":554810,"DIS_CODE":0,"TOWNNAME":"中西區","LI":"五妃里","LIN":"19鄰","STREET":"樹林街","SECT":"二段","MAREA":" ","LANE":" ","ALLEY":" ","HOUSE_NO":"９３號","E_COORD97":168464.67000000001,"N_COORD97":2542925.0699999998,"ADDRESS":"樹林街二段９３號","OBJECTID":554783},"geometry":{"x":168464.67000000179,"y":2542925.0700000003}},{"attributes":{"ID":554811,"DIS_CODE":0,"TOWNNAME":"中西區","LI":"五妃里","LIN":"19鄰","STREET":"樹林街","SECT":"二段","MAREA":" ","LANE":" ","ALLEY":" ","HOUSE_NO":"９５號","E_COORD97":168454.84,"N_COORD97":2542927.1099999999,"ADDRESS":"樹林街二段９５號","OBJECTID":554784},"geometry":{"x":168454.83999999892,"y":2542927.1099999994}},{"attributes":{"ID":554812,"DIS_CODE":0,"TOWNNAME":"中西區","LI":"五妃里","LIN":"19鄰","STREET":"樹林街","SECT":"二段","MAREA":" ","LANE":" ","ALLEY":" ","HOUSE_NO":"９７號","E_COORD97":168451.39000000001,"N_COORD97":2542927.7400000002,"ADDRESS":"樹林街二段９７號","OBJECTID":554785},"geometry":{"x":168451.3900000006,"y":2542927.7400000039}},{"attributes":{"ID":554813,"DIS_CODE":0,"TOWNNAME":"中西區","LI":"五妃里","LIN":"19鄰","STREET":"樹林街","SECT":"二段","MAREA":" ","LANE":" ","ALLEY":" ","HOUSE_NO":"９９號","E_COORD97":168448.07000000001,"N_COORD97":2542928.5099999998,"ADDRESS":"樹林街二段９９號","OBJECTID":554786},"geometry":{"x":168448.0700000003,"y":2542928.5099999998}},{"attributes":{"ID":554814,"DIS_CODE":0,"TOWNNAME":"永康區","LI":"五王里","LIN":"21鄰","STREET":"振興路","SECT":" ","MAREA":" ","LANE":" ","ALLEY":" ","HOUSE_NO":"２２號","E_COORD97":171418.73000000001,"N_COORD97":2545753.7999999998,"ADDRESS":"振興路２２號","OBJECTID":554787},"geometry":{"x":171418.73000000045,"y":2545753.8000000007}},{"attributes":{"ID":554815,"DIS_CODE":0,"TOWNNAME":"仁德區","LI":"保安里","LIN":"21鄰","STREET":"文賢一街","SECT":" ","MAREA":" ","LANE":" ","ALLEY":" ","HOUSE_NO":"４號","E_COORD97":171097.73000000001,"N_COORD97":2536724.3199999998,"ADDRESS":"文賢一街４號","OBJECTID":554788},"geometry":{"x":171097.73000000138,"y":2536724.3200000022}},{"attributes":{"ID":554816,"DIS_CODE":0,"TOWNNAME":"仁德區","LI":"保安里","LIN":"21鄰","STREET":"文賢一街","SECT":" ","MAREA":" ","LANE":" ","ALLEY":" ","HOUSE_NO":"１４號","E_COORD97":171074.39999999999,"N_COORD97":2536715.3300000001,"ADDRESS":"文賢一街１４號","OBJECTID":554789},"geometry":{"x":171074.4000000013,"y":2536715.3300000001}},{"attributes":{"ID":554817,"DIS_CODE":0,"TOWNNAME":"安南區","LI":"州北里","LIN":"21鄰","STREET":"安和路","SECT":"五段","MAREA":" ","LANE":" ","ALLEY":" ","HOUSE_NO":"３７７號","E_COORD97":169609.20000000001,"N_COORD97":2552290.4300000002,"ADDRESS":"安和路五段３７７號","OBJECTID":554790},"geometry":{"x":169609.20000000112,"y":2552290.4300000016}},{"attributes":{"ID":554818,"DIS_CODE":0,"TOWNNAME":"安南區","LI":"州北里","LIN":"21鄰","STREET":"安和路","SECT":"五段","MAREA":" ","LANE":" ","ALLEY":" ","HOUSE_NO":"３４５號","E_COORD97":169649.19,"N_COORD97":2552197.8500000001,"ADDRESS":"安和路五段３４５號","OBJECTID":554791},"geometry":{"x":169649.19000000041,"y":2552197.8499999996}},{"attributes":{"ID":554819,"DIS_CODE":0,"TOWNNAME":"安南區","LI":"州北里","LIN":"21鄰","STREET":"安和路","SECT":"五段","MAREA":" ","LANE":" ","ALLEY":" ","HOUSE_NO":"３６５號","E_COORD97":169629.60999999999,"N_COORD97":2552258.4300000002,"ADDRESS":"安和路五段３６５號","OBJECTID":554792},"geometry":{"x":169629.61000000034,"y":2552258.4299999997}},{"attributes":{"ID":554820,"DIS_CODE":0,"TOWNNAME":"安南區","LI":"州北里","LIN":"21鄰","STREET":"安和路","SECT":"五段","MAREA":" ","LANE":" ","ALLEY":" ","HOUSE_NO":"３６７號","E_COORD97":169627.26000000001,"N_COORD97":2552261.5699999998,"ADDRESS":"安和路五段３６７號","OBJECTID":554793},"geometry":{"x":169627.26000000071,"y":2552261.5700000003}},{"attributes":{"ID":554821,"DIS_CODE":0,"TOWNNAME":"永康區","LI":"網寮里","LIN":"21鄰","STREET":"永勝街","SECT":" ","MAREA":" ","LANE":" ","ALLEY":" ","HOUSE_NO":"２１號","E_COORD97":173614.04999999999,"N_COORD97":2546223.1899999999,"ADDRESS":"永勝街２１號","OBJECTID":554794},"geometry":{"x":173614.05000000075,"y":2546223.1900000013}},{"attributes":{"ID":554822,"DIS_CODE":0,"TOWNNAME":"永康區","LI":"五王里","LIN":"21鄰","STREET":"振興路","SECT":" ","MAREA":" ","LANE":" ","ALLEY":" ","HOUSE_NO":"２６號","E_COORD97":171425.67999999999,"N_COORD97":2545758.0499999998,"ADDRESS":"振興路２６號","OBJECTID":554795},"geometry":{"x":171425.6799999997,"y":2545758.0500000026}},{"attributes":{"ID":554823,"DIS_CODE":0,"TOWNNAME":"永康區","LI":"正強里","LIN":"21鄰","STREET":"中正路","SECT":" ","MAREA":" ","LANE":" ","ALLEY":" ","HOUSE_NO":"６１號","E_COORD97":173552.76999999999,"N_COORD97":2547826.9900000002,"ADDRESS":"中正路６１號","OBJECTID":554796},"geometry":{"x":173552.77000000048,"y":2547826.9900000002}},{"attributes":{"ID":554824,"DIS_CODE":0,"TOWNNAME":"永康區","LI":"五王里","LIN":"21鄰","STREET":"振興路","SECT":" ","MAREA":" ","LANE":" ","ALLEY":" ","HOUSE_NO":"１７號","E_COORD97":171409.37,"N_COORD97":2545774.7400000002,"ADDRESS":"振興路１７號","OBJECTID":554797},"geometry":{"x":171409.37000000011,"y":2545774.7400000002}},{"attributes":{"ID":554825,"DIS_CODE":0,"TOWNNAME":"永康區","LI":"三合里","LIN":"21鄰","STREET":"南工街","SECT":" ","MAREA":" ","LANE":" ","ALLEY":" ","HOUSE_NO":"２８７號","E_COORD97":171884.17999999999,"N_COORD97":2546023.25,"ADDRESS":"南工街２８７號","OBJECTID":554798},"geometry":{"x":171884.18000000063,"y":2546023.2500000019}},{"attributes":{"ID":554826,"DIS_CODE":0,"TOWNNAME":"永康區","LI":"五王里","LIN":"21鄰","STREET":"振興路","SECT":" ","MAREA":" ","LANE":" ","ALLEY":" ","HOUSE_NO":"３６號","E_COORD97":171441.75,"N_COORD97":2545769.27,"ADDRESS":"振興路３６號","OBJECTID":554799},"geometry":{"x":171441.75000000093,"y":2545769.2700000014}},{"attributes":{"ID":554827,"DIS_CODE":0,"TOWNNAME":"永康區","LI":"網寮里","LIN":"21鄰","STREET":"永勝街","SECT":" ","MAREA":" ","LANE":" ","ALLEY":" ","HOUSE_NO":"２７號","E_COORD97":173611.04000000001,"N_COORD97":2546234.8399999999,"ADDRESS":"永勝街２７號","OBJECTID":554800},"geometry":{"x":173611.04000000097,"y":2546234.8399999999}}]}