{"displayFieldName":"TOWNNAME","fieldAliases":{"ID":"ID","DIS_CODE":"DIS_CODE","TOWNNAME":"TOWNNAME","LI":"LI","LIN":"LIN","STREET":"STREET","SECT":"SECT","MAREA":"MAREA","LANE":"LANE","ALLEY":"ALLEY","HOUSE_NO":"HOUSE_NO","E_COORD97":"E_COORD97","N_COORD97":"N_COORD97","ADDRESS":"ADDRESS","OBJECTID":"OBJECTID"},"geometryType":"esriGeometryPoint","spatialReference":{"wkid":102443,"latestWkid":3826},"fields":[{"name":"ID","type":"esriFieldTypeDouble","alias":"ID"},{"name":"DIS_CODE","type":"esriFieldTypeInteger","alias":"DIS_CODE"},{"name":"TOWNNAME","type":"esriFieldTypeString","alias":"TOWNNAME","length":8},{"name":"LI","type":"esriFieldTypeString","alias":"LI","length":8},{"name":"LIN","type":"esriFieldTypeString","alias":"LIN","length":12},{"name":"STREET","type":"esriFieldTypeString","alias":"STREET","length":20},{"name":"SECT","type":"esriFieldTypeString","alias":"SECT","length":8},{"name":"MAREA","type":"esriFieldTypeString","alias":"MAREA","length":12},{"name":"LANE","type":"esriFieldTypeString","alias":"LANE","length":10},{"name":"ALLEY","type":"esriFieldTypeString","alias":"ALLEY","length":10},{"name":"HOUSE_NO","type":"esriFieldTypeString","alias":"HOUSE_NO","length":20},{"name":"E_COORD97","type":"esriFieldTypeDouble","alias":"E_COORD97"},{"name":"N_COORD97","type":"esriFieldTypeDouble","alias":"N_COORD97"},{"name":"ADDRESS","type":"esriFieldTypeString","alias":"ADDRESS","length":50},{"name":"OBJECTID","type":"esriFieldTypeOID","alias":"OBJECTID"}],"features":[{"attributes":{"ID":97201,"DIS_CODE":0,"TOWNNAME":"南區","LI":"府南里","LIN":"21鄰","STREET":"大成路","SECT":"二段","MAREA":" ","LANE":"１４３巷","ALLEY":"５弄","HOUSE_NO":"２０號","E_COORD97":167350.51999999999,"N_COORD97":2541642.0699999998,"ADDRESS":"大成路二段１４３巷５弄２０號","OBJECTID":97201},"geometry":{"x":167350.52000000048,"y":2541642.0700000022}},{"attributes":{"ID":97202,"DIS_CODE":0,"TOWNNAME":"南區","LI":"府南里","LIN":"21鄰","STREET":"大成路","SECT":"二段","MAREA":" ","LANE":"１４３巷","ALLEY":"５弄","HOUSE_NO":"２２號","E_COORD97":167353.01000000001,"N_COORD97":2541647.1099999999,"ADDRESS":"大成路二段１４３巷５弄２２號","OBJECTID":97202},"geometry":{"x":167353.00999999978,"y":2541647.1100000013}},{"attributes":{"ID":97203,"DIS_CODE":0,"TOWNNAME":"後壁區","LI":"侯伯里","LIN":"10鄰","STREET":" ","SECT":" ","MAREA":"後壁寮","LANE":" ","ALLEY":" ","HOUSE_NO":"８５號之１","E_COORD97":185299.76000000001,"N_COORD97":2585351.6000000001,"ADDRESS":"後壁寮８５號之１","OBJECTID":97203},"geometry":{"x":185299.75999999978,"y":2585351.5999999996}},{"attributes":{"ID":97204,"DIS_CODE":0,"TOWNNAME":"後壁區","LI":"侯伯里","LIN":"10鄰","STREET":" ","SECT":" ","MAREA":"後壁寮","LANE":" ","ALLEY":" ","HOUSE_NO":"８５號之２","E_COORD97":185289.91,"N_COORD97":2585353.1299999999,"ADDRESS":"後壁寮８５號之２","OBJECTID":97204},"geometry":{"x":185289.91000000108,"y":2585353.129999999}},{"attributes":{"ID":97205,"DIS_CODE":0,"TOWNNAME":"後壁區","LI":"侯伯里","LIN":"10鄰","STREET":" ","SECT":" ","MAREA":"後壁寮","LANE":" ","ALLEY":" ","HOUSE_NO":"８５號之３","E_COORD97":185296.22,"N_COORD97":2585364.5800000001,"ADDRESS":"後壁寮８５號之３","OBJECTID":97205},"geometry":{"x":185296.22000000067,"y":2585364.5800000001}},{"attributes":{"ID":97206,"DIS_CODE":0,"TOWNNAME":"南區","LI":"府南里","LIN":"21鄰","STREET":"大成路","SECT":"二段","MAREA":" ","LANE":"１４３巷","ALLEY":"５弄","HOUSE_NO":"２４號","E_COORD97":167355.87,"N_COORD97":2541654.1899999999,"ADDRESS":"大成路二段１４３巷５弄２４號","OBJECTID":97206},"geometry":{"x":167355.87000000011,"y":2541654.1900000013}},{"attributes":{"ID":97207,"DIS_CODE":0,"TOWNNAME":"南區","LI":"府南里","LIN":"21鄰","STREET":"大成路","SECT":"二段","MAREA":" ","LANE":"１４３巷","ALLEY":"５弄","HOUSE_NO":"２６號","E_COORD97":167355.72,"N_COORD97":2541658.0299999998,"ADDRESS":"大成路二段１４３巷５弄２６號","OBJECTID":97207},"geometry":{"x":167355.72000000067,"y":2541658.0300000012}},{"attributes":{"ID":97208,"DIS_CODE":0,"TOWNNAME":"後壁區","LI":"侯伯里","LIN":"10鄰","STREET":" ","SECT":" ","MAREA":"後壁寮","LANE":" ","ALLEY":" ","HOUSE_NO":"８５號","E_COORD97":185312.29000000001,"N_COORD97":2585362.1499999999,"ADDRESS":"後壁寮８５號","OBJECTID":97208},"geometry":{"x":185312.29000000004,"y":2585362.1500000004}},{"attributes":{"ID":97209,"DIS_CODE":0,"TOWNNAME":"後壁區","LI":"烏樹里","LIN":"10鄰","STREET":" ","SECT":" ","MAREA":"烏樹林","LANE":" ","ALLEY":" ","HOUSE_NO":"１１２號","E_COORD97":186270.57999999999,"N_COORD97":2581248.04,"ADDRESS":"烏樹林１１２號","OBJECTID":97209},"geometry":{"x":186270.58000000101,"y":2581248.0399999991}},{"attributes":{"ID":97210,"DIS_CODE":0,"TOWNNAME":"後壁區","LI":"烏樹里","LIN":"10鄰","STREET":" ","SECT":" ","MAREA":"烏樹林","LANE":" ","ALLEY":" ","HOUSE_NO":"１１３號之１","E_COORD97":186259.5,"N_COORD97":2581223.4500000002,"ADDRESS":"烏樹林１１３號之１","OBJECTID":97210},"geometry":{"x":186259.5,"y":2581223.4500000011}},{"attributes":{"ID":97211,"DIS_CODE":0,"TOWNNAME":"白河區","LI":"永安里","LIN":"15鄰","STREET":"三民路","SECT":" ","MAREA":" ","LANE":" ","ALLEY":" ","HOUSE_NO":"５０５號","E_COORD97":189778.67999999999,"N_COORD97":2583481.6800000002,"ADDRESS":"三民路５０５號","OBJECTID":97211},"geometry":{"x":189778.68000000063,"y":2583481.6799999997}},{"attributes":{"ID":97212,"DIS_CODE":0,"TOWNNAME":"後壁區","LI":"烏樹里","LIN":"10鄰","STREET":" ","SECT":" ","MAREA":"烏樹林","LANE":" ","ALLEY":" ","HOUSE_NO":"１１３號之２","E_COORD97":186185.29000000001,"N_COORD97":2581182.3300000001,"ADDRESS":"烏樹林１１３號之２","OBJECTID":97212},"geometry":{"x":186185.29000000004,"y":2581182.3300000019}},{"attributes":{"ID":97213,"DIS_CODE":0,"TOWNNAME":"後壁區","LI":"烏樹里","LIN":"10鄰","STREET":" ","SECT":" ","MAREA":"烏樹林","LANE":" ","ALLEY":" ","HOUSE_NO":"１１３號","E_COORD97":186220.84,"N_COORD97":2581206.4100000001,"ADDRESS":"烏樹林１１３號","OBJECTID":97213},"geometry":{"x":186220.84000000078,"y":2581206.4100000001}},{"attributes":{"ID":97214,"DIS_CODE":0,"TOWNNAME":"後壁區","LI":"烏樹里","LIN":"10鄰","STREET":" ","SECT":" ","MAREA":"烏樹林","LANE":" ","ALLEY":" ","HOUSE_NO":"１１４號","E_COORD97":186261.73000000001,"N_COORD97":2581196.0699999998,"ADDRESS":"烏樹林１１４號","OBJECTID":97214},"geometry":{"x":186261.73000000138,"y":2581196.070000004}},{"attributes":{"ID":97215,"DIS_CODE":0,"TOWNNAME":"後壁區","LI":"烏樹里","LIN":"10鄰","STREET":" ","SECT":" ","MAREA":"烏樹林","LANE":" ","ALLEY":" ","HOUSE_NO":"１１６號","E_COORD97":186274.5,"N_COORD97":2581226.8500000001,"ADDRESS":"烏樹林１１６號","OBJECTID":97215},"geometry":{"x":186274.50000000093,"y":2581226.8499999996}},{"attributes":{"ID":97216,"DIS_CODE":0,"TOWNNAME":"後壁區","LI":"烏樹里","LIN":"10鄰","STREET":" ","SECT":" ","MAREA":"烏樹林","LANE":" ","ALLEY":" ","HOUSE_NO":"１１７號","E_COORD97":186281.57000000001,"N_COORD97":2581213.9100000001,"ADDRESS":"烏樹林１１７號","OBJECTID":97216},"geometry":{"x":186281.5700000003,"y":2581213.9099999983}},{"attributes":{"ID":97217,"DIS_CODE":0,"TOWNNAME":"後壁區","LI":"烏樹里","LIN":"10鄰","STREET":" ","SECT":" ","MAREA":"烏樹林","LANE":" ","ALLEY":" ","HOUSE_NO":"１２０號之１","E_COORD97":186247.76999999999,"N_COORD97":2581140.4399999999,"ADDRESS":"烏樹林１２０號之１","OBJECTID":97217},"geometry":{"x":186247.77000000142,"y":2581140.4399999995}},{"attributes":{"ID":97218,"DIS_CODE":0,"TOWNNAME":"後壁區","LI":"烏樹里","LIN":"10鄰","STREET":" ","SECT":" ","MAREA":"烏樹林","LANE":" ","ALLEY":" ","HOUSE_NO":"１２０號之４","E_COORD97":186201.29999999999,"N_COORD97":2581092.3199999998,"ADDRESS":"烏樹林１２０號之４","OBJECTID":97218},"geometry":{"x":186201.29999999981,"y":2581092.3200000003}},{"attributes":{"ID":97219,"DIS_CODE":0,"TOWNNAME":"後壁區","LI":"烏樹里","LIN":"10鄰","STREET":" ","SECT":" ","MAREA":"烏樹林","LANE":" ","ALLEY":" ","HOUSE_NO":"１２０號","E_COORD97":186262.23999999999,"N_COORD97":2581172.9700000002,"ADDRESS":"烏樹林１２０號","OBJECTID":97219},"geometry":{"x":186262.24000000209,"y":2581172.9700000007}},{"attributes":{"ID":97220,"DIS_CODE":0,"TOWNNAME":"後壁區","LI":"烏樹里","LIN":"10鄰","STREET":" ","SECT":" ","MAREA":"烏樹林","LANE":" ","ALLEY":" ","HOUSE_NO":"１２１號之１","E_COORD97":186285.42999999999,"N_COORD97":2581110.8999999999,"ADDRESS":"烏樹林１２１號之１","OBJECTID":97220},"geometry":{"x":186285.4299999997,"y":2581110.9000000022}},{"attributes":{"ID":97221,"DIS_CODE":0,"TOWNNAME":"後壁區","LI":"烏樹里","LIN":"10鄰","STREET":" ","SECT":" ","MAREA":"烏樹林","LANE":" ","ALLEY":" ","HOUSE_NO":"１２１號","E_COORD97":186287.29000000001,"N_COORD97":2581136.4700000002,"ADDRESS":"烏樹林１２１號","OBJECTID":97221},"geometry":{"x":186287.2900000019,"y":2581136.4700000044}},{"attributes":{"ID":97222,"DIS_CODE":0,"TOWNNAME":"後壁區","LI":"崁頂里","LIN":"10鄰","STREET":" ","SECT":" ","MAREA":"崩埤","LANE":" ","ALLEY":" ","HOUSE_NO":"１９號","E_COORD97":184844.23000000001,"N_COORD97":2587830.25,"ADDRESS":"崩埤１９號","OBJECTID":97222},"geometry":{"x":184844.23000000138,"y":2587830.2500000019}},{"attributes":{"ID":97223,"DIS_CODE":0,"TOWNNAME":"後壁區","LI":"崁頂里","LIN":"10鄰","STREET":" ","SECT":" ","MAREA":"崩埤","LANE":" ","ALLEY":" ","HOUSE_NO":"２０號","E_COORD97":184834.17999999999,"N_COORD97":2587814.1000000001,"ADDRESS":"崩埤２０號","OBJECTID":97223},"geometry":{"x":184834.1799999997,"y":2587814.1000000015}},{"attributes":{"ID":97224,"DIS_CODE":0,"TOWNNAME":"後壁區","LI":"崁頂里","LIN":"10鄰","STREET":" ","SECT":" ","MAREA":"崩埤","LANE":" ","ALLEY":" ","HOUSE_NO":"２１號","E_COORD97":184818.25,"N_COORD97":2587826.6899999999,"ADDRESS":"崩埤２１號","OBJECTID":97224},"geometry":{"x":184818.25000000093,"y":2587826.6900000013}},{"attributes":{"ID":97225,"DIS_CODE":0,"TOWNNAME":"後壁區","LI":"崁頂里","LIN":"10鄰","STREET":" ","SECT":" ","MAREA":"崩埤","LANE":" ","ALLEY":" ","HOUSE_NO":"２３號","E_COORD97":184793.45000000001,"N_COORD97":2587819.46,"ADDRESS":"崩埤２３號","OBJECTID":97225},"geometry":{"x":184793.45000000112,"y":2587819.4600000028}},{"attributes":{"ID":97226,"DIS_CODE":0,"TOWNNAME":"後壁區","LI":"崁頂里","LIN":"10鄰","STREET":" ","SECT":" ","MAREA":"崩埤","LANE":" ","ALLEY":" ","HOUSE_NO":"２４號之２","E_COORD97":184829.66,"N_COORD97":2587787.52,"ADDRESS":"崩埤２４號之２","OBJECTID":97226},"geometry":{"x":184829.66000000015,"y":2587787.5200000014}},{"attributes":{"ID":97227,"DIS_CODE":0,"TOWNNAME":"後壁區","LI":"崁頂里","LIN":"10鄰","STREET":" ","SECT":" ","MAREA":"崩埤","LANE":" ","ALLEY":" ","HOUSE_NO":"２４號之３","E_COORD97":184811.78,"N_COORD97":2587801.1000000001,"ADDRESS":"崩埤２４號之３","OBJECTID":97227},"geometry":{"x":184811.78000000119,"y":2587801.1000000015}},{"attributes":{"ID":97228,"DIS_CODE":0,"TOWNNAME":"後壁區","LI":"頂安里","LIN":"10鄰","STREET":" ","SECT":" ","MAREA":"頂寮","LANE":" ","ALLEY":" ","HOUSE_NO":"１０２號","E_COORD97":183744.23000000001,"N_COORD97":2581204.3799999999,"ADDRESS":"頂寮１０２號","OBJECTID":97228},"geometry":{"x":183744.23000000138,"y":2581204.3800000008}},{"attributes":{"ID":97229,"DIS_CODE":0,"TOWNNAME":"後壁區","LI":"頂安里","LIN":"10鄰","STREET":" ","SECT":" ","MAREA":"頂寮","LANE":" ","ALLEY":" ","HOUSE_NO":"１０３號之１","E_COORD97":183751.48999999999,"N_COORD97":2581188.1299999999,"ADDRESS":"頂寮１０３號之１","OBJECTID":97229},"geometry":{"x":183751.49000000022,"y":2581188.1300000008}},{"attributes":{"ID":97230,"DIS_CODE":0,"TOWNNAME":"後壁區","LI":"頂安里","LIN":"10鄰","STREET":" ","SECT":" ","MAREA":"頂寮","LANE":" ","ALLEY":" ","HOUSE_NO":"１０３號","E_COORD97":183763.78,"N_COORD97":2581191.3799999999,"ADDRESS":"頂寮１０３號","OBJECTID":97230},"geometry":{"x":183763.78000000119,"y":2581191.379999999}},{"attributes":{"ID":97231,"DIS_CODE":0,"TOWNNAME":"後壁區","LI":"頂安里","LIN":"10鄰","STREET":" ","SECT":" ","MAREA":"頂寮","LANE":" ","ALLEY":" ","HOUSE_NO":"１０５號之１００","E_COORD97":183591.92999999999,"N_COORD97":2581084.4500000002,"ADDRESS":"頂寮１０５號之１００","OBJECTID":97231},"geometry":{"x":183591.9299999997,"y":2581084.4500000011}},{"attributes":{"ID":97232,"DIS_CODE":0,"TOWNNAME":"白河區","LI":"內角里","LIN":"10鄰","STREET":" ","SECT":" ","MAREA":"內角","LANE":" ","ALLEY":" ","HOUSE_NO":"１４１號","E_COORD97":192565.14999999999,"N_COORD97":2590046.7999999998,"ADDRESS":"內角１４１號","OBJECTID":97232},"geometry":{"x":192565.15000000037,"y":2590046.8000000007}},{"attributes":{"ID":97233,"DIS_CODE":0,"TOWNNAME":"後壁區","LI":"頂安里","LIN":"10鄰","STREET":" ","SECT":" ","MAREA":"頂寮","LANE":" ","ALLEY":" ","HOUSE_NO":"１０５號之１０","E_COORD97":183669.26999999999,"N_COORD97":2581054.54,"ADDRESS":"頂寮１０５號之１０","OBJECTID":97233},"geometry":{"x":183669.26999999955,"y":2581054.5399999991}},{"attributes":{"ID":97234,"DIS_CODE":0,"TOWNNAME":"後壁區","LI":"頂安里","LIN":"10鄰","STREET":" ","SECT":" ","MAREA":"頂寮","LANE":" ","ALLEY":" ","HOUSE_NO":"１０５號之１１","E_COORD97":183664.97,"N_COORD97":2581054.0699999998,"ADDRESS":"頂寮１０５號之１１","OBJECTID":97234},"geometry":{"x":183664.9700000016,"y":2581054.070000004}},{"attributes":{"ID":97235,"DIS_CODE":0,"TOWNNAME":"後壁區","LI":"頂安里","LIN":"10鄰","STREET":" ","SECT":" ","MAREA":"頂寮","LANE":" ","ALLEY":" ","HOUSE_NO":"１０５號之１２","E_COORD97":183661.13,"N_COORD97":2581053.3700000001,"ADDRESS":"頂寮１０５號之１２","OBJECTID":97235},"geometry":{"x":183661.13000000082,"y":2581053.3700000029}},{"attributes":{"ID":97236,"DIS_CODE":0,"TOWNNAME":"南區","LI":"府南里","LIN":"21鄰","STREET":"大成路","SECT":"二段","MAREA":" ","LANE":"１４３巷","ALLEY":"５弄","HOUSE_NO":"２８號","E_COORD97":167369.75,"N_COORD97":2541652.1699999999,"ADDRESS":"大成路二段１４３巷５弄２８號","OBJECTID":97236},"geometry":{"x":167369.75000000093,"y":2541652.1699999999}},{"attributes":{"ID":97237,"DIS_CODE":0,"TOWNNAME":"南區","LI":"府南里","LIN":"21鄰","STREET":"大成路","SECT":"二段","MAREA":" ","LANE":"１４３巷","ALLEY":"５弄","HOUSE_NO":"３０號","E_COORD97":167373.97,"N_COORD97":2541650.5099999998,"ADDRESS":"大成路二段１４３巷５弄３０號","OBJECTID":97237},"geometry":{"x":167373.96999999974,"y":2541650.5099999979}},{"attributes":{"ID":97238,"DIS_CODE":0,"TOWNNAME":"南區","LI":"府南里","LIN":"21鄰","STREET":"大成路","SECT":"二段","MAREA":" ","LANE":"１４３巷","ALLEY":"５弄","HOUSE_NO":"３２號","E_COORD97":167378.70999999999,"N_COORD97":2541648.9300000002,"ADDRESS":"大成路二段１４３巷５弄３２號","OBJECTID":97238},"geometry":{"x":167378.70999999996,"y":2541648.9300000016}},{"attributes":{"ID":97239,"DIS_CODE":0,"TOWNNAME":"南區","LI":"府南里","LIN":"21鄰","STREET":"大成路","SECT":"二段","MAREA":" ","LANE":"１４３巷","ALLEY":"５弄","HOUSE_NO":"３４號","E_COORD97":167382.92999999999,"N_COORD97":2541647.2000000002,"ADDRESS":"大成路二段１４３巷５弄３４號","OBJECTID":97239},"geometry":{"x":167382.93000000156,"y":2541647.1999999993}},{"attributes":{"ID":97240,"DIS_CODE":0,"TOWNNAME":"南區","LI":"府南里","LIN":"21鄰","STREET":"大成路","SECT":"二段","MAREA":" ","LANE":"１４３巷","ALLEY":"５弄","HOUSE_NO":"４號","E_COORD97":167343.79999999999,"N_COORD97":2541661.5800000001,"ADDRESS":"大成路二段１４３巷５弄４號","OBJECTID":97240},"geometry":{"x":167343.80000000075,"y":2541661.5800000019}},{"attributes":{"ID":97241,"DIS_CODE":0,"TOWNNAME":"南區","LI":"府南里","LIN":"21鄰","STREET":"大成路","SECT":"二段","MAREA":" ","LANE":"１４３巷","ALLEY":"５弄","HOUSE_NO":"６號","E_COORD97":167342.82000000001,"N_COORD97":2541657.6600000001,"ADDRESS":"大成路二段１４３巷５弄６號","OBJECTID":97241},"geometry":{"x":167342.8200000003,"y":2541657.660000002}},{"attributes":{"ID":97242,"DIS_CODE":0,"TOWNNAME":"南區","LI":"府南里","LIN":"21鄰","STREET":"大成路","SECT":"二段","MAREA":" ","LANE":"１４３巷","ALLEY":"５弄","HOUSE_NO":"８號","E_COORD97":167340.32999999999,"N_COORD97":2541650.2599999998,"ADDRESS":"大成路二段１４３巷５弄８號","OBJECTID":97242},"geometry":{"x":167340.33000000101,"y":2541650.2600000016}},{"attributes":{"ID":97243,"DIS_CODE":0,"TOWNNAME":"南區","LI":"廣州里","LIN":"21鄰","STREET":"福吉四街","SECT":" ","MAREA":" ","LANE":"４７巷","ALLEY":"１弄","HOUSE_NO":"２號之１","E_COORD97":167217.72,"N_COORD97":2542623.3599999999,"ADDRESS":"福吉四街４７巷１弄２號之１","OBJECTID":97243},"geometry":{"x":167217.71999999974,"y":2542623.3599999994}},{"attributes":{"ID":97244,"DIS_CODE":0,"TOWNNAME":"南區","LI":"田寮里","LIN":"21鄰","STREET":"西門路","SECT":"一段","MAREA":" ","LANE":"２７９巷","ALLEY":"１６弄","HOUSE_NO":"８號","E_COORD97":167653.04000000001,"N_COORD97":2541982.71,"ADDRESS":"西門路一段２７９巷１６弄８號","OBJECTID":97244},"geometry":{"x":167653.04000000004,"y":2541982.7100000046}},{"attributes":{"ID":97245,"DIS_CODE":0,"TOWNNAME":"歸仁區","LI":"歸南里","LIN":"21鄰","STREET":"民生八街","SECT":" ","MAREA":" ","LANE":"２８巷","ALLEY":"１９弄","HOUSE_NO":"４１號","E_COORD97":176013.41,"N_COORD97":2540416.25,"ADDRESS":"民生八街２８巷１９弄４１號","OBJECTID":97245},"geometry":{"x":176013.41000000015,"y":2540416.2500000019}},{"attributes":{"ID":97246,"DIS_CODE":0,"TOWNNAME":"鹽水區","LI":"水正里","LIN":"8鄰","STREET":"中正路","SECT":" ","MAREA":" ","LANE":" ","ALLEY":" ","HOUSE_NO":"７７號","E_COORD97":175110,"N_COORD97":2579793.8900000001,"ADDRESS":"中正路７７號","OBJECTID":97246},"geometry":{"x":175110.00000000093,"y":2579793.8899999987}},{"attributes":{"ID":97247,"DIS_CODE":0,"TOWNNAME":"鹽水區","LI":"水正里","LIN":"8鄰","STREET":"中正路","SECT":" ","MAREA":" ","LANE":" ","ALLEY":" ","HOUSE_NO":"７９號","E_COORD97":175109.54000000001,"N_COORD97":2579789.3100000001,"ADDRESS":"中正路７９號","OBJECTID":97247},"geometry":{"x":175109.54000000097,"y":2579789.3100000024}},{"attributes":{"ID":97248,"DIS_CODE":0,"TOWNNAME":"鹽水區","LI":"水正里","LIN":"8鄰","STREET":"中正路","SECT":" ","MAREA":" ","LANE":" ","ALLEY":" ","HOUSE_NO":"８１號","E_COORD97":175109.07999999999,"N_COORD97":2579784.73,"ADDRESS":"中正路８１號","OBJECTID":97248},"geometry":{"x":175109.08000000101,"y":2579784.7299999986}},{"attributes":{"ID":97249,"DIS_CODE":0,"TOWNNAME":"鹽水區","LI":"水正里","LIN":"8鄰","STREET":"中正路","SECT":" ","MAREA":" ","LANE":" ","ALLEY":" ","HOUSE_NO":"８３號","E_COORD97":175108.62,"N_COORD97":2579780.1499999999,"ADDRESS":"中正路８３號","OBJECTID":97249},"geometry":{"x":175108.62000000197,"y":2579780.1500000022}},{"attributes":{"ID":97250,"DIS_CODE":0,"TOWNNAME":"後壁區","LI":"頂安里","LIN":"10鄰","STREET":" ","SECT":" ","MAREA":"頂寮","LANE":" ","ALLEY":" ","HOUSE_NO":"１０５號之１３","E_COORD97":183656.94,"N_COORD97":2581052.4900000002,"ADDRESS":"頂寮１０５號之１３","OBJECTID":97250},"geometry":{"x":183656.94000000041,"y":2581052.4900000021}},{"attributes":{"ID":97251,"DIS_CODE":0,"TOWNNAME":"後壁區","LI":"頂安里","LIN":"10鄰","STREET":" ","SECT":" ","MAREA":"頂寮","LANE":" ","ALLEY":" ","HOUSE_NO":"１０５號之１４附１","E_COORD97":183648.67000000001,"N_COORD97":2581051.0099999998,"ADDRESS":"頂寮１０５號之１４附１","OBJECTID":97251},"geometry":{"x":183648.67000000086,"y":2581051.0100000016}},{"attributes":{"ID":97252,"DIS_CODE":0,"TOWNNAME":"後壁區","LI":"頂安里","LIN":"10鄰","STREET":" ","SECT":" ","MAREA":"頂寮","LANE":" ","ALLEY":" ","HOUSE_NO":"１０５號之１４","E_COORD97":183652.54999999999,"N_COORD97":2581051.7999999998,"ADDRESS":"頂寮１０５號之１４","OBJECTID":97252},"geometry":{"x":183652.55000000168,"y":2581051.8000000007}},{"attributes":{"ID":97253,"DIS_CODE":0,"TOWNNAME":"後壁區","LI":"頂安里","LIN":"10鄰","STREET":" ","SECT":" ","MAREA":"頂寮","LANE":" ","ALLEY":" ","HOUSE_NO":"１０５號之１５","E_COORD97":183640.73999999999,"N_COORD97":2581048.3799999999,"ADDRESS":"頂寮１０５號之１５","OBJECTID":97253},"geometry":{"x":183640.74000000022,"y":2581048.3800000008}},{"attributes":{"ID":97254,"DIS_CODE":0,"TOWNNAME":"後壁區","LI":"頂安里","LIN":"10鄰","STREET":" ","SECT":" ","MAREA":"頂寮","LANE":" ","ALLEY":" ","HOUSE_NO":"１０５之１６號","E_COORD97":183635.81,"N_COORD97":2581047.3100000001,"ADDRESS":"頂寮１０５之１６號","OBJECTID":97254},"geometry":{"x":183635.81000000052,"y":2581047.3100000024}},{"attributes":{"ID":97255,"DIS_CODE":0,"TOWNNAME":"鹽水區","LI":"水正里","LIN":"8鄰","STREET":"中正路","SECT":" ","MAREA":" ","LANE":" ","ALLEY":" ","HOUSE_NO":"８５號","E_COORD97":175108.14999999999,"N_COORD97":2579775.5699999998,"ADDRESS":"中正路８５號","OBJECTID":97255},"geometry":{"x":175108.15000000037,"y":2579775.570000004}},{"attributes":{"ID":97256,"DIS_CODE":0,"TOWNNAME":"鹽水區","LI":"水正里","LIN":"8鄰","STREET":"中正路","SECT":" ","MAREA":" ","LANE":" ","ALLEY":" ","HOUSE_NO":"８７號","E_COORD97":175107.69,"N_COORD97":2579770.9900000002,"ADDRESS":"中正路８７號","OBJECTID":97256},"geometry":{"x":175107.69000000041,"y":2579770.9900000021}},{"attributes":{"ID":97257,"DIS_CODE":0,"TOWNNAME":"新營區","LI":"鐵線里","LIN":"5鄰","STREET":" ","SECT":" ","MAREA":"鐵線橋","LANE":" ","ALLEY":" ","HOUSE_NO":"５４號","E_COORD97":176105.66,"N_COORD97":2573611.3900000001,"ADDRESS":"鐵線橋５４號","OBJECTID":97257},"geometry":{"x":176105.66000000108,"y":2573611.3900000025}},{"attributes":{"ID":97258,"DIS_CODE":0,"TOWNNAME":"新營區","LI":"五興里","LIN":"14鄰","STREET":" ","SECT":" ","MAREA":"五間厝","LANE":" ","ALLEY":" ","HOUSE_NO":"１４６號","E_COORD97":175395.06,"N_COORD97":2574286.0800000001,"ADDRESS":"五間厝１４６號","OBJECTID":97258},"geometry":{"x":175395.06000000145,"y":2574286.0799999982}},{"attributes":{"ID":97259,"DIS_CODE":0,"TOWNNAME":"後壁區","LI":"頂安里","LIN":"10鄰","STREET":" ","SECT":" ","MAREA":"頂寮","LANE":" ","ALLEY":" ","HOUSE_NO":"１０５號之１７","E_COORD97":183631.45000000001,"N_COORD97":2581046.6499999999,"ADDRESS":"頂寮１０５號之１７","OBJECTID":97259},"geometry":{"x":183631.44999999925,"y":2581046.6500000041}},{"attributes":{"ID":97260,"DIS_CODE":0,"TOWNNAME":"後壁區","LI":"頂安里","LIN":"10鄰","STREET":" ","SECT":" ","MAREA":"頂寮","LANE":" ","ALLEY":" ","HOUSE_NO":"１０５號之１８","E_COORD97":183627.06,"N_COORD97":2581045.77,"ADDRESS":"頂寮１０５號之１８","OBJECTID":97260},"geometry":{"x":183627.06000000052,"y":2581045.7700000014}},{"attributes":{"ID":97261,"DIS_CODE":0,"TOWNNAME":"後壁區","LI":"頂安里","LIN":"10鄰","STREET":" ","SECT":" ","MAREA":"頂寮","LANE":" ","ALLEY":" ","HOUSE_NO":"１０５號之１９","E_COORD97":183622.60999999999,"N_COORD97":2581044.6099999999,"ADDRESS":"頂寮１０５號之１９","OBJECTID":97261},"geometry":{"x":183622.61000000127,"y":2581044.6099999994}},{"attributes":{"ID":97262,"DIS_CODE":0,"TOWNNAME":"後壁區","LI":"頂安里","LIN":"10鄰","STREET":" ","SECT":" ","MAREA":"頂寮","LANE":" ","ALLEY":" ","HOUSE_NO":"１０５號之１","E_COORD97":183705.98000000001,"N_COORD97":2581061.3700000001,"ADDRESS":"頂寮１０５號之１","OBJECTID":97262},"geometry":{"x":183705.98000000045,"y":2581061.370000001}},{"attributes":{"ID":97263,"DIS_CODE":0,"TOWNNAME":"後壁區","LI":"頂安里","LIN":"10鄰","STREET":" ","SECT":" ","MAREA":"頂寮","LANE":" ","ALLEY":" ","HOUSE_NO":"１０５號之２０","E_COORD97":183618.22,"N_COORD97":2581044.1099999999,"ADDRESS":"頂寮１０５號之２０","OBJECTID":97263},"geometry":{"x":183618.22000000067,"y":2581044.1100000013}},{"attributes":{"ID":97264,"DIS_CODE":0,"TOWNNAME":"後壁區","LI":"頂安里","LIN":"10鄰","STREET":" ","SECT":" ","MAREA":"頂寮","LANE":" ","ALLEY":" ","HOUSE_NO":"１０５號之２２","E_COORD97":183609.35000000001,"N_COORD97":2581042.1000000001,"ADDRESS":"頂寮１０５號之２２","OBJECTID":97264},"geometry":{"x":183609.34999999963,"y":2581042.0999999996}},{"attributes":{"ID":97265,"DIS_CODE":0,"TOWNNAME":"歸仁區","LI":"大潭里","LIN":"21鄰","STREET":"長榮路","SECT":"二段","MAREA":" ","LANE":"９０巷","ALLEY":"４１弄","HOUSE_NO":"１００號","E_COORD97":176948.87,"N_COORD97":2534311.2799999998,"ADDRESS":"長榮路二段９０巷４１弄１００號","OBJECTID":97265},"geometry":{"x":176948.87000000011,"y":2534311.2799999993}},{"attributes":{"ID":97266,"DIS_CODE":0,"TOWNNAME":"歸仁區","LI":"大潭里","LIN":"21鄰","STREET":"長榮路","SECT":"二段","MAREA":" ","LANE":"９０巷","ALLEY":"４１弄","HOUSE_NO":"１號","E_COORD97":176904.87,"N_COORD97":2534425.2799999998,"ADDRESS":"長榮路二段９０巷４１弄１號","OBJECTID":97266},"geometry":{"x":176904.87000000011,"y":2534425.2799999993}},{"attributes":{"ID":97267,"DIS_CODE":0,"TOWNNAME":"歸仁區","LI":"大潭里","LIN":"21鄰","STREET":"長榮路","SECT":"二段","MAREA":" ","LANE":"９０巷","ALLEY":"２０弄","HOUSE_NO":"１０號","E_COORD97":176951.32000000001,"N_COORD97":2534446.2799999998,"ADDRESS":"長榮路二段９０巷２０弄１０號","OBJECTID":97267},"geometry":{"x":176951.3200000003,"y":2534446.2799999993}},{"attributes":{"ID":97268,"DIS_CODE":0,"TOWNNAME":"歸仁區","LI":"大潭里","LIN":"21鄰","STREET":"長榮路","SECT":"二段","MAREA":" ","LANE":"９０巷","ALLEY":"４１弄","HOUSE_NO":"５０號","E_COORD97":176849.12,"N_COORD97":2534302.2799999998,"ADDRESS":"長榮路二段９０巷４１弄５０號","OBJECTID":97268},"geometry":{"x":176849.12000000011,"y":2534302.2800000012}},{"attributes":{"ID":97269,"DIS_CODE":0,"TOWNNAME":"歸仁區","LI":"歸南里","LIN":"21鄰","STREET":"民生八街","SECT":" ","MAREA":" ","LANE":"２８巷","ALLEY":"１９弄","HOUSE_NO":"５號","E_COORD97":176087.95999999999,"N_COORD97":2540414.25,"ADDRESS":"民生八街２８巷１９弄５號","OBJECTID":97269},"geometry":{"x":176087.96000000089,"y":2540414.25}},{"attributes":{"ID":97270,"DIS_CODE":0,"TOWNNAME":"新營區","LI":"南紙里","LIN":"21鄰","STREET":"建業路","SECT":" ","MAREA":" ","LANE":"２２７巷","ALLEY":"２弄","HOUSE_NO":"１７號","E_COORD97":178062.26999999999,"N_COORD97":2577463.4700000002,"ADDRESS":"建業路２２７巷２弄１７號","OBJECTID":97270},"geometry":{"x":178062.27000000048,"y":2577463.4700000007}},{"attributes":{"ID":97271,"DIS_CODE":0,"TOWNNAME":"新營區","LI":"南紙里","LIN":"21鄰","STREET":"建業路","SECT":" ","MAREA":" ","LANE":"２２７巷","ALLEY":"２弄","HOUSE_NO":"２７號","E_COORD97":178040.87,"N_COORD97":2577464.6800000002,"ADDRESS":"建業路２２７巷２弄２７號","OBJECTID":97271},"geometry":{"x":178040.87000000011,"y":2577464.6799999997}},{"attributes":{"ID":97272,"DIS_CODE":0,"TOWNNAME":"新營區","LI":"南紙里","LIN":"21鄰","STREET":"建業路","SECT":" ","MAREA":" ","LANE":"２２７巷","ALLEY":"２弄","HOUSE_NO":"１９號","E_COORD97":178058.17999999999,"N_COORD97":2577463.4900000002,"ADDRESS":"建業路２２７巷２弄１９號","OBJECTID":97272},"geometry":{"x":178058.18000000063,"y":2577463.4900000002}},{"attributes":{"ID":97273,"DIS_CODE":0,"TOWNNAME":"新營區","LI":"南紙里","LIN":"21鄰","STREET":"建業路","SECT":" ","MAREA":" ","LANE":"２２７巷","ALLEY":"２０弄","HOUSE_NO":"５號","E_COORD97":178097.57000000001,"N_COORD97":2577400.1699999999,"ADDRESS":"建業路２２７巷２０弄５號","OBJECTID":97273},"geometry":{"x":178097.5700000003,"y":2577400.1699999999}},{"attributes":{"ID":97274,"DIS_CODE":0,"TOWNNAME":"安南區","LI":"學東里","LIN":"15鄰","STREET":"城北路","SECT":" ","MAREA":" ","LANE":" ","ALLEY":" ","HOUSE_NO":"８５０號","E_COORD97":160949.5,"N_COORD97":2553261.29,"ADDRESS":"城北路８５０號","OBJECTID":97274},"geometry":{"x":160949.50000000186,"y":2553261.290000001}},{"attributes":{"ID":97275,"DIS_CODE":0,"TOWNNAME":"歸仁區","LI":"南保里","LIN":"21鄰","STREET":"民權六街","SECT":" ","MAREA":" ","LANE":"１２８巷","ALLEY":"２弄","HOUSE_NO":"６號","E_COORD97":176630.420457,"N_COORD97":2541141.85873,"ADDRESS":"民權六街１２８巷２弄６號","OBJECTID":97275},"geometry":{"x":176630.42045699991,"y":2541141.8587270025}},{"attributes":{"ID":97276,"DIS_CODE":0,"TOWNNAME":"歸仁區","LI":"南保里","LIN":"21鄰","STREET":"民權六街","SECT":" ","MAREA":" ","LANE":"１２８巷","ALLEY":"２弄","HOUSE_NO":"３號","E_COORD97":176630.208556,"N_COORD97":2541155.61705,"ADDRESS":"民權六街１２８巷２弄３號","OBJECTID":97276},"geometry":{"x":176630.20855600014,"y":2541155.6170530021}},{"attributes":{"ID":97277,"DIS_CODE":0,"TOWNNAME":"歸仁區","LI":"南保里","LIN":"21鄰","STREET":"民權六街","SECT":" ","MAREA":" ","LANE":"１２８巷","ALLEY":"２弄","HOUSE_NO":"９號","E_COORD97":176646.313004,"N_COORD97":2541155.5112200002,"ADDRESS":"民權六街１２８巷２弄９號","OBJECTID":97277},"geometry":{"x":176646.31300399918,"y":2541155.5112200007}},{"attributes":{"ID":97278,"DIS_CODE":0,"TOWNNAME":"安南區","LI":"學東里","LIN":"15鄰","STREET":"城北路","SECT":" ","MAREA":" ","LANE":" ","ALLEY":" ","HOUSE_NO":"８５２號","E_COORD97":160949.04000000001,"N_COORD97":2553265.6000000001,"ADDRESS":"城北路８５２號","OBJECTID":97278},"geometry":{"x":160949.04000000004,"y":2553265.6000000034}},{"attributes":{"ID":97279,"DIS_CODE":0,"TOWNNAME":"安南區","LI":"學東里","LIN":"15鄰","STREET":"城北路","SECT":" ","MAREA":" ","LANE":" ","ALLEY":" ","HOUSE_NO":"８５４號","E_COORD97":160948.39999999999,"N_COORD97":2553270.1499999999,"ADDRESS":"城北路８５４號","OBJECTID":97279},"geometry":{"x":160948.40000000037,"y":2553270.1500000022}},{"attributes":{"ID":97280,"DIS_CODE":0,"TOWNNAME":"安南區","LI":"學東里","LIN":"15鄰","STREET":"城北路","SECT":" ","MAREA":" ","LANE":" ","ALLEY":" ","HOUSE_NO":"８５６號","E_COORD97":160947.62,"N_COORD97":2553275.4500000002,"ADDRESS":"城北路８５６號","OBJECTID":97280},"geometry":{"x":160947.62000000104,"y":2553275.4499999993}},{"attributes":{"ID":97281,"DIS_CODE":0,"TOWNNAME":"後壁區","LI":"頂安里","LIN":"10鄰","STREET":" ","SECT":" ","MAREA":"頂寮","LANE":" ","ALLEY":" ","HOUSE_NO":"１０５號之２３","E_COORD97":183604.64000000001,"N_COORD97":2581041.1899999999,"ADDRESS":"頂寮１０５號之２３","OBJECTID":97281},"geometry":{"x":183604.6400000006,"y":2581041.1899999995}},{"attributes":{"ID":97282,"DIS_CODE":0,"TOWNNAME":"安南區","LI":"學東里","LIN":"15鄰","STREET":"城北路","SECT":" ","MAREA":" ","LANE":" ","ALLEY":" ","HOUSE_NO":"８５８號","E_COORD97":160947.62,"N_COORD97":2553278.7200000002,"ADDRESS":"城北路８５８號","OBJECTID":97282},"geometry":{"x":160947.62000000104,"y":2553278.7200000007}},{"attributes":{"ID":97283,"DIS_CODE":0,"TOWNNAME":"安南區","LI":"學東里","LIN":"15鄰","STREET":"城北路","SECT":" ","MAREA":" ","LANE":" ","ALLEY":" ","HOUSE_NO":"８６０號","E_COORD97":160947.78,"N_COORD97":2553283.0899999999,"ADDRESS":"城北路８６０號","OBJECTID":97283},"geometry":{"x":160947.78000000212,"y":2553283.0900000017}},{"attributes":{"ID":97284,"DIS_CODE":0,"TOWNNAME":"安南區","LI":"學東里","LIN":"15鄰","STREET":"城北路","SECT":" ","MAREA":" ","LANE":" ","ALLEY":" ","HOUSE_NO":"８６２號","E_COORD97":160947,"N_COORD97":2553287.29,"ADDRESS":"城北路８６２號","OBJECTID":97284},"geometry":{"x":160947,"y":2553287.2900000028}},{"attributes":{"ID":97285,"DIS_CODE":0,"TOWNNAME":"安南區","LI":"學東里","LIN":"15鄰","STREET":"城北路","SECT":" ","MAREA":" ","LANE":" ","ALLEY":" ","HOUSE_NO":"８６４號","E_COORD97":160947.92999999999,"N_COORD97":2553290.4100000001,"ADDRESS":"城北路８６４號","OBJECTID":97285},"geometry":{"x":160947.93000000156,"y":2553290.4100000001}},{"attributes":{"ID":97286,"DIS_CODE":0,"TOWNNAME":"新營區","LI":"三仙里","LIN":"16鄰","STREET":"武昌街","SECT":" ","MAREA":" ","LANE":" ","ALLEY":" ","HOUSE_NO":"８０號之２","E_COORD97":179565.17999999999,"N_COORD97":2578307.9500000002,"ADDRESS":"武昌街８０號之２","OBJECTID":97286},"geometry":{"x":179565.18000000063,"y":2578307.9500000011}},{"attributes":{"ID":97287,"DIS_CODE":0,"TOWNNAME":"善化區","LI":"胡家里","LIN":"15鄰","STREET":" ","SECT":" ","MAREA":"胡厝寮","LANE":" ","ALLEY":" ","HOUSE_NO":"１３５號","E_COORD97":175359.75,"N_COORD97":2560811,"ADDRESS":"胡厝寮１３５號","OBJECTID":97287},"geometry":{"x":175359.75,"y":2560811.0000000019}},{"attributes":{"ID":97288,"DIS_CODE":0,"TOWNNAME":"善化區","LI":"胡厝里","LIN":"15鄰","STREET":" ","SECT":" ","MAREA":"胡厝寮","LANE":" ","ALLEY":" ","HOUSE_NO":"２４３號","E_COORD97":174898.10000000001,"N_COORD97":2560229.25,"ADDRESS":"胡厝寮２４３號","OBJECTID":97288},"geometry":{"x":174898.10000000149,"y":2560229.2500000019}},{"attributes":{"ID":97289,"DIS_CODE":0,"TOWNNAME":"善化區","LI":"胡厝里","LIN":"15鄰","STREET":" ","SECT":" ","MAREA":"胡厝寮","LANE":" ","ALLEY":" ","HOUSE_NO":"２４５號","E_COORD97":174912.54999999999,"N_COORD97":2560212.25,"ADDRESS":"胡厝寮２４５號","OBJECTID":97289},"geometry":{"x":174912.55000000075,"y":2560212.2500000019}},{"attributes":{"ID":97290,"DIS_CODE":0,"TOWNNAME":"善化區","LI":"胡厝里","LIN":"15鄰","STREET":" ","SECT":" ","MAREA":"胡厝寮","LANE":" ","ALLEY":" ","HOUSE_NO":"２４１號","E_COORD97":174905.09,"N_COORD97":2560253.75,"ADDRESS":"胡厝寮２４１號","OBJECTID":97290},"geometry":{"x":174905.09000000171,"y":2560253.7500000019}},{"attributes":{"ID":97291,"DIS_CODE":0,"TOWNNAME":"善化區","LI":"田寮里","LIN":"15鄰","STREET":" ","SECT":" ","MAREA":"六分寮","LANE":" ","ALLEY":" ","HOUSE_NO":"１６６號之２","E_COORD97":178744.98999999999,"N_COORD97":2561484.02,"ADDRESS":"六分寮１６６號之２","OBJECTID":97291},"geometry":{"x":178744.99000000022,"y":2561484.0200000033}},{"attributes":{"ID":97292,"DIS_CODE":0,"TOWNNAME":"善化區","LI":"胡厝里","LIN":"15鄰","STREET":" ","SECT":" ","MAREA":"胡厝寮","LANE":" ","ALLEY":" ","HOUSE_NO":"２３９號","E_COORD97":174925.04999999999,"N_COORD97":2560264.75,"ADDRESS":"胡厝寮２３９號","OBJECTID":97292},"geometry":{"x":174925.04999999981,"y":2560264.75}},{"attributes":{"ID":97293,"DIS_CODE":0,"TOWNNAME":"新營區","LI":"南紙里","LIN":"21鄰","STREET":"建業路","SECT":" ","MAREA":" ","LANE":"２２７巷","ALLEY":"２０弄","HOUSE_NO":"４５號","E_COORD97":178005.81,"N_COORD97":2577406.1600000001,"ADDRESS":"建業路２２７巷２０弄４５號","OBJECTID":97293},"geometry":{"x":178005.81000000052,"y":2577406.160000002}},{"attributes":{"ID":97294,"DIS_CODE":0,"TOWNNAME":"新營區","LI":"南紙里","LIN":"21鄰","STREET":"建業路","SECT":" ","MAREA":" ","LANE":"２２７巷","ALLEY":"２弄","HOUSE_NO":"１３號","E_COORD97":178071.48000000001,"N_COORD97":2577462.3100000001,"ADDRESS":"建業路２２７巷２弄１３號","OBJECTID":97294},"geometry":{"x":178071.48000000231,"y":2577462.3100000024}},{"attributes":{"ID":97295,"DIS_CODE":0,"TOWNNAME":"新營區","LI":"南紙里","LIN":"21鄰","STREET":"建業路","SECT":" ","MAREA":" ","LANE":"２２７巷","ALLEY":"２弄","HOUSE_NO":"３３號","E_COORD97":178027.60000000001,"N_COORD97":2577465.8500000001,"ADDRESS":"建業路２２７巷２弄３３號","OBJECTID":97295},"geometry":{"x":178027.60000000056,"y":2577465.8500000015}},{"attributes":{"ID":97296,"DIS_CODE":0,"TOWNNAME":"新營區","LI":"南紙里","LIN":"21鄰","STREET":"建業路","SECT":" ","MAREA":" ","LANE":"２２７巷","ALLEY":"２０弄","HOUSE_NO":"３１號","E_COORD97":178038.54999999999,"N_COORD97":2577403.79,"ADDRESS":"建業路２２７巷２０弄３１號","OBJECTID":97296},"geometry":{"x":178038.55000000075,"y":2577403.790000001}},{"attributes":{"ID":97297,"DIS_CODE":0,"TOWNNAME":"新營區","LI":"南紙里","LIN":"21鄰","STREET":"建業路","SECT":" ","MAREA":" ","LANE":"２２７巷","ALLEY":"２０弄","HOUSE_NO":"３３號","E_COORD97":178033.44,"N_COORD97":2577404.9199999999,"ADDRESS":"建業路２２７巷２０弄３３號","OBJECTID":97297},"geometry":{"x":178033.44000000134,"y":2577404.9199999999}},{"attributes":{"ID":97298,"DIS_CODE":0,"TOWNNAME":"新營區","LI":"南紙里","LIN":"21鄰","STREET":"建業路","SECT":" ","MAREA":" ","LANE":"２２７巷","ALLEY":"２０弄","HOUSE_NO":"２９號","E_COORD97":178042.62,"N_COORD97":2577403.77,"ADDRESS":"建業路２２７巷２０弄２９號","OBJECTID":97298},"geometry":{"x":178042.62000000011,"y":2577403.7700000033}},{"attributes":{"ID":97299,"DIS_CODE":0,"TOWNNAME":"新營區","LI":"南紙里","LIN":"21鄰","STREET":"建業路","SECT":" ","MAREA":" ","LANE":"２２７巷","ALLEY":"２０弄","HOUSE_NO":"７號","E_COORD97":178092.45999999999,"N_COORD97":2577400.2000000002,"ADDRESS":"建業路２２７巷２０弄７號","OBJECTID":97299},"geometry":{"x":178092.45999999996,"y":2577400.1999999974}},{"attributes":{"ID":97300,"DIS_CODE":0,"TOWNNAME":"善化區","LI":"胡家里","LIN":"15鄰","STREET":" ","SECT":" ","MAREA":"胡厝寮","LANE":" ","ALLEY":" ","HOUSE_NO":"１３６號之５","E_COORD97":175380.04999999999,"N_COORD97":2560757.27,"ADDRESS":"胡厝寮１３６號之５","OBJECTID":97300},"geometry":{"x":175380.05000000168,"y":2560757.2700000014}},{"attributes":{"ID":97301,"DIS_CODE":0,"TOWNNAME":"新營區","LI":"南紙里","LIN":"21鄰","STREET":"建業路","SECT":" ","MAREA":" ","LANE":"２２７巷","ALLEY":"２０弄","HOUSE_NO":"３號","E_COORD97":178101.73000000001,"N_COORD97":2577400.1499999999,"ADDRESS":"建業路２２７巷２０弄３號","OBJECTID":97301},"geometry":{"x":178101.73000000045,"y":2577400.1500000022}},{"attributes":{"ID":97302,"DIS_CODE":0,"TOWNNAME":"新營區","LI":"南紙里","LIN":"21鄰","STREET":"建業路","SECT":" ","MAREA":" ","LANE":"２２７巷","ALLEY":"２弄","HOUSE_NO":"１１號","E_COORD97":178075.57000000001,"N_COORD97":2577462.29,"ADDRESS":"建業路２２７巷２弄１１號","OBJECTID":97302},"geometry":{"x":178075.5700000003,"y":2577462.290000001}},{"attributes":{"ID":97303,"DIS_CODE":0,"TOWNNAME":"新營區","LI":"南紙里","LIN":"21鄰","STREET":"建業路","SECT":" ","MAREA":" ","LANE":"２２７巷","ALLEY":"２０弄","HOUSE_NO":"４３號","E_COORD97":178009.89999999999,"N_COORD97":2577406.1400000001,"ADDRESS":"建業路２２７巷２０弄４３號","OBJECTID":97303},"geometry":{"x":178009.9000000013,"y":2577406.1400000025}},{"attributes":{"ID":97304,"DIS_CODE":0,"TOWNNAME":"新營區","LI":"南紙里","LIN":"21鄰","STREET":"建業路","SECT":" ","MAREA":" ","LANE":"２２７巷","ALLEY":"２弄","HOUSE_NO":"１５號","E_COORD97":178066.37,"N_COORD97":2577463.4500000002,"ADDRESS":"建業路２２７巷２弄１５號","OBJECTID":97304},"geometry":{"x":178066.37000000011,"y":2577463.4500000011}},{"attributes":{"ID":97305,"DIS_CODE":0,"TOWNNAME":"新營區","LI":"角帶里","LIN":"8鄰","STREET":" ","SECT":" ","MAREA":"角帶圍","LANE":" ","ALLEY":" ","HOUSE_NO":"７７號","E_COORD97":174840.37,"N_COORD97":2575711.9500000002,"ADDRESS":"角帶圍７７號","OBJECTID":97305},"geometry":{"x":174840.37000000011,"y":2575711.9500000011}},{"attributes":{"ID":97306,"DIS_CODE":0,"TOWNNAME":"安南區","LI":"學東里","LIN":"15鄰","STREET":"城北路","SECT":" ","MAREA":" ","LANE":" ","ALLEY":" ","HOUSE_NO":"９６０之３００號","E_COORD97":160947.54999999999,"N_COORD97":2553308.5699999998,"ADDRESS":"城北路９６０之３００號","OBJECTID":97306},"geometry":{"x":160947.55000000075,"y":2553308.5700000022}},{"attributes":{"ID":97307,"DIS_CODE":0,"TOWNNAME":"安南區","LI":"溪心里","LIN":"15鄰","STREET":"本原街","SECT":"二段","MAREA":" ","LANE":" ","ALLEY":" ","HOUSE_NO":"５２９號","E_COORD97":165886.23999999999,"N_COORD97":2550486.5099999998,"ADDRESS":"本原街二段５２９號","OBJECTID":97307},"geometry":{"x":165886.24000000209,"y":2550486.5100000016}},{"attributes":{"ID":97308,"DIS_CODE":0,"TOWNNAME":"善化區","LI":"胡厝里","LIN":"15鄰","STREET":" ","SECT":" ","MAREA":"胡厝寮","LANE":" ","ALLEY":" ","HOUSE_NO":"２４１之１號","E_COORD97":174898.04999999999,"N_COORD97":2560257.52,"ADDRESS":"胡厝寮２４１之１號","OBJECTID":97308},"geometry":{"x":174898.04999999981,"y":2560257.5200000014}},{"attributes":{"ID":97309,"DIS_CODE":0,"TOWNNAME":"善化區","LI":"胡厝里","LIN":"15鄰","STREET":" ","SECT":" ","MAREA":"胡厝寮","LANE":" ","ALLEY":" ","HOUSE_NO":"２４４號之１","E_COORD97":174881.60999999999,"N_COORD97":2560200.02,"ADDRESS":"胡厝寮２４４號之１","OBJECTID":97309},"geometry":{"x":174881.61000000034,"y":2560200.0200000014}},{"attributes":{"ID":97310,"DIS_CODE":0,"TOWNNAME":"後壁區","LI":"頂安里","LIN":"10鄰","STREET":" ","SECT":" ","MAREA":"頂寮","LANE":" ","ALLEY":" ","HOUSE_NO":"１０５號之２４","E_COORD97":183600.29999999999,"N_COORD97":2581040.5800000001,"ADDRESS":"頂寮１０５號之２４","OBJECTID":97310},"geometry":{"x":183600.30000000075,"y":2581040.5800000019}},{"attributes":{"ID":97311,"DIS_CODE":0,"TOWNNAME":"新營區","LI":"南紙里","LIN":"21鄰","STREET":"建業路","SECT":" ","MAREA":" ","LANE":"２２７巷","ALLEY":"２０弄","HOUSE_NO":"４７號","E_COORD97":178000.70000000001,"N_COORD97":2577406.1800000002,"ADDRESS":"建業路２２７巷２０弄４７號","OBJECTID":97311},"geometry":{"x":178000.70000000112,"y":2577406.1799999997}},{"attributes":{"ID":97312,"DIS_CODE":0,"TOWNNAME":"新營區","LI":"南紙里","LIN":"21鄰","STREET":"建業路","SECT":" ","MAREA":" ","LANE":"２２７巷","ALLEY":"２弄","HOUSE_NO":"３號","E_COORD97":178091.79000000001,"N_COORD97":2577461.1000000001,"ADDRESS":"建業路２２７巷２弄３號","OBJECTID":97312},"geometry":{"x":178091.79000000004,"y":2577461.0999999996}},{"attributes":{"ID":97313,"DIS_CODE":0,"TOWNNAME":"善化區","LI":"胡家里","LIN":"15鄰","STREET":" ","SECT":" ","MAREA":"胡厝寮","LANE":" ","ALLEY":" ","HOUSE_NO":"１３５號之２","E_COORD97":175346.5,"N_COORD97":2560825.77,"ADDRESS":"胡厝寮１３５號之２","OBJECTID":97313},"geometry":{"x":175346.5,"y":2560825.7700000014}},{"attributes":{"ID":97314,"DIS_CODE":0,"TOWNNAME":"善化區","LI":"胡家里","LIN":"15鄰","STREET":" ","SECT":" ","MAREA":"胡厝寮","LANE":" ","ALLEY":" ","HOUSE_NO":"１４２號之３","E_COORD97":175297.78,"N_COORD97":2560784.27,"ADDRESS":"胡厝寮１４２號之３","OBJECTID":97314},"geometry":{"x":175297.78000000119,"y":2560784.2700000014}},{"attributes":{"ID":97315,"DIS_CODE":0,"TOWNNAME":"善化區","LI":"胡家里","LIN":"15鄰","STREET":" ","SECT":" ","MAREA":"胡厝寮","LANE":" ","ALLEY":" ","HOUSE_NO":"１３９號之２","E_COORD97":175350.32999999999,"N_COORD97":2560751.27,"ADDRESS":"胡厝寮１３９號之２","OBJECTID":97315},"geometry":{"x":175350.33000000101,"y":2560751.2700000014}},{"attributes":{"ID":97316,"DIS_CODE":0,"TOWNNAME":"歸仁區","LI":"大廟里","LIN":"21鄰","STREET":"大廟一街","SECT":" ","MAREA":" ","LANE":"２８巷","ALLEY":"５５弄","HOUSE_NO":"２０號","E_COORD97":175655.04999999999,"N_COORD97":2544176.9399999999,"ADDRESS":"大廟一街２８巷５５弄２０號","OBJECTID":97316},"geometry":{"x":175655.05000000075,"y":2544176.9400000032}},{"attributes":{"ID":97317,"DIS_CODE":0,"TOWNNAME":"歸仁區","LI":"大廟里","LIN":"21鄰","STREET":"大廟一街","SECT":" ","MAREA":" ","LANE":"２８巷","ALLEY":"５５弄","HOUSE_NO":"４０號","E_COORD97":175637.25,"N_COORD97":2544101.9500000002,"ADDRESS":"大廟一街２８巷５５弄４０號","OBJECTID":97317},"geometry":{"x":175637.25000000093,"y":2544101.950000003}},{"attributes":{"ID":97318,"DIS_CODE":0,"TOWNNAME":"北區","LI":"大豐里","LIN":"21鄰","STREET":"大興街","SECT":" ","MAREA":" ","LANE":"２３３巷","ALLEY":"４６弄","HOUSE_NO":"５０號","E_COORD97":166739.63,"N_COORD97":2545524.6499999999,"ADDRESS":"大興街２３３巷４６弄５０號","OBJECTID":97318},"geometry":{"x":166739.63000000082,"y":2545524.6500000004}},{"attributes":{"ID":97319,"DIS_CODE":0,"TOWNNAME":"善化區","LI":"胡家里","LIN":"15鄰","STREET":" ","SECT":" ","MAREA":"胡厝寮","LANE":" ","ALLEY":" ","HOUSE_NO":"１３６號之２","E_COORD97":175375.70000000001,"N_COORD97":2560757.77,"ADDRESS":"胡厝寮１３６號之２","OBJECTID":97319},"geometry":{"x":175375.70000000019,"y":2560757.7700000014}},{"attributes":{"ID":97320,"DIS_CODE":0,"TOWNNAME":"歸仁區","LI":"大廟里","LIN":"21鄰","STREET":"保大路","SECT":"三段","MAREA":" ","LANE":"４０１巷","ALLEY":"１０５弄","HOUSE_NO":"３４號","E_COORD97":175648.29999999999,"N_COORD97":2544126.98,"ADDRESS":"保大路三段４０１巷１０５弄３４號","OBJECTID":97320},"geometry":{"x":175648.30000000075,"y":2544126.9800000023}},{"attributes":{"ID":97321,"DIS_CODE":0,"TOWNNAME":"善化區","LI":"胡厝里","LIN":"15鄰","STREET":" ","SECT":" ","MAREA":"胡厝寮","LANE":" ","ALLEY":" ","HOUSE_NO":"２４４號","E_COORD97":174867.07000000001,"N_COORD97":2560230.5,"ADDRESS":"胡厝寮２４４號","OBJECTID":97321},"geometry":{"x":174867.07000000123,"y":2560230.5000000037}},{"attributes":{"ID":97322,"DIS_CODE":0,"TOWNNAME":"善化區","LI":"胡家里","LIN":"15鄰","STREET":" ","SECT":" ","MAREA":"胡厝寮","LANE":" ","ALLEY":" ","HOUSE_NO":"１３６之３號","E_COORD97":175371.91,"N_COORD97":2560757.27,"ADDRESS":"胡厝寮１３６之３號","OBJECTID":97322},"geometry":{"x":175371.91000000108,"y":2560757.2700000014}},{"attributes":{"ID":97323,"DIS_CODE":0,"TOWNNAME":"善化區","LI":"胡家里","LIN":"15鄰","STREET":" ","SECT":" ","MAREA":"胡厝寮","LANE":" ","ALLEY":" ","HOUSE_NO":"１３９之４號","E_COORD97":175340.76999999999,"N_COORD97":2560751.27,"ADDRESS":"胡厝寮１３９之４號","OBJECTID":97323},"geometry":{"x":175340.76999999955,"y":2560751.2700000014}},{"attributes":{"ID":97324,"DIS_CODE":0,"TOWNNAME":"善化區","LI":"胡厝里","LIN":"15鄰","STREET":" ","SECT":" ","MAREA":"胡厝寮","LANE":" ","ALLEY":" ","HOUSE_NO":"２４１號之６","E_COORD97":174882.07000000001,"N_COORD97":2560249.52,"ADDRESS":"胡厝寮２４１號之６","OBJECTID":97324},"geometry":{"x":174882.07000000216,"y":2560249.5199999996}},{"attributes":{"ID":97325,"DIS_CODE":0,"TOWNNAME":"善化區","LI":"胡家里","LIN":"15鄰","STREET":" ","SECT":" ","MAREA":"胡厝寮","LANE":" ","ALLEY":" ","HOUSE_NO":"１３６號","E_COORD97":175369.25,"N_COORD97":2560780.75,"ADDRESS":"胡厝寮１３６號","OBJECTID":97325},"geometry":{"x":175369.25000000093,"y":2560780.75}},{"attributes":{"ID":97326,"DIS_CODE":0,"TOWNNAME":"安平區","LI":"文平里","LIN":"15鄰","STREET":"建平五街","SECT":" ","MAREA":" ","LANE":" ","ALLEY":" ","HOUSE_NO":"２５號","E_COORD97":166074.57000000001,"N_COORD97":2543107.7599999998,"ADDRESS":"建平五街２５號","OBJECTID":97326},"geometry":{"x":166074.57000000123,"y":2543107.7600000016}},{"attributes":{"ID":97327,"DIS_CODE":0,"TOWNNAME":"善化區","LI":"光文里","LIN":"15鄰","STREET":"樹人路","SECT":" ","MAREA":" ","LANE":" ","ALLEY":" ","HOUSE_NO":"３９號","E_COORD97":178370.10000000001,"N_COORD97":2558989.25,"ADDRESS":"樹人路３９號","OBJECTID":97327},"geometry":{"x":178370.10000000056,"y":2558989.2500000019}},{"attributes":{"ID":97328,"DIS_CODE":0,"TOWNNAME":"善化區","LI":"田寮里","LIN":"15鄰","STREET":" ","SECT":" ","MAREA":"六分寮","LANE":" ","ALLEY":" ","HOUSE_NO":"１６７之６號","E_COORD97":178847,"N_COORD97":2561410.52,"ADDRESS":"六分寮１６７之６號","OBJECTID":97328},"geometry":{"x":178847,"y":2561410.5200000014}},{"attributes":{"ID":97329,"DIS_CODE":0,"TOWNNAME":"善化區","LI":"田寮里","LIN":"15鄰","STREET":" ","SECT":" ","MAREA":"六分寮","LANE":" ","ALLEY":" ","HOUSE_NO":"１６３號","E_COORD97":178715.29999999999,"N_COORD97":2561516,"ADDRESS":"六分寮１６３號","OBJECTID":97329},"geometry":{"x":178715.30000000075,"y":2561516.0000000019}},{"attributes":{"ID":97330,"DIS_CODE":0,"TOWNNAME":"善化區","LI":"牛庄里","LIN":"15鄰","STREET":" ","SECT":" ","MAREA":"牛庄","LANE":" ","ALLEY":" ","HOUSE_NO":"１３５號之１９","E_COORD97":179893.45000000001,"N_COORD97":2559995.52,"ADDRESS":"牛庄１３５號之１９","OBJECTID":97330},"geometry":{"x":179893.45000000019,"y":2559995.5199999977}},{"attributes":{"ID":97331,"DIS_CODE":0,"TOWNNAME":"新營區","LI":"角帶里","LIN":" ","STREET":" ","SECT":" ","MAREA":"角帶圍","LANE":" ","ALLEY":" ","HOUSE_NO":"６５號","E_COORD97":174686.04000000001,"N_COORD97":2575745.96,"ADDRESS":"角帶圍６５號","OBJECTID":97331},"geometry":{"x":174686.04000000097,"y":2575745.9600000046}},{"attributes":{"ID":97332,"DIS_CODE":0,"TOWNNAME":"善化區","LI":"田寮里","LIN":"15鄰","STREET":" ","SECT":" ","MAREA":"六分寮","LANE":" ","ALLEY":" ","HOUSE_NO":"１６７號","E_COORD97":178728.17999999999,"N_COORD97":2561441.25,"ADDRESS":"六分寮１６７號","OBJECTID":97332},"geometry":{"x":178728.1799999997,"y":2561441.25}},{"attributes":{"ID":97333,"DIS_CODE":0,"TOWNNAME":"善化區","LI":"牛庄里","LIN":"15鄰","STREET":" ","SECT":" ","MAREA":"牛庄","LANE":" ","ALLEY":" ","HOUSE_NO":"５３６號","E_COORD97":179567.82000000001,"N_COORD97":2560197.5,"ADDRESS":"牛庄５３６號","OBJECTID":97333},"geometry":{"x":179567.82000000123,"y":2560197.5000000019}},{"attributes":{"ID":97334,"DIS_CODE":0,"TOWNNAME":"善化區","LI":"牛庄里","LIN":"15鄰","STREET":" ","SECT":" ","MAREA":"牛庄","LANE":" ","ALLEY":" ","HOUSE_NO":"３５１號之５","E_COORD97":179784.57999999999,"N_COORD97":2560031.02,"ADDRESS":"牛庄３５１號之５","OBJECTID":97334},"geometry":{"x":179784.58000000101,"y":2560031.0200000014}},{"attributes":{"ID":97335,"DIS_CODE":0,"TOWNNAME":"善化區","LI":"田寮里","LIN":"15鄰","STREET":" ","SECT":" ","MAREA":"六分寮","LANE":" ","ALLEY":" ","HOUSE_NO":"１６６號","E_COORD97":178734.64000000001,"N_COORD97":2561478,"ADDRESS":"六分寮１６６號","OBJECTID":97335},"geometry":{"x":178734.6400000006,"y":2561478.0000000037}},{"attributes":{"ID":97336,"DIS_CODE":0,"TOWNNAME":"歸仁區","LI":"大廟里","LIN":"21鄰","STREET":"保大路","SECT":"三段","MAREA":" ","LANE":"４０１巷","ALLEY":"１０５弄","HOUSE_NO":"３０號","E_COORD97":175618.5,"N_COORD97":2544120.98,"ADDRESS":"保大路三段４０１巷１０５弄３０號","OBJECTID":97336},"geometry":{"x":175618.50000000093,"y":2544120.9800000023}},{"attributes":{"ID":97337,"DIS_CODE":0,"TOWNNAME":"歸仁區","LI":"大潭里","LIN":"21鄰","STREET":"長榮路","SECT":"二段","MAREA":" ","LANE":"９０巷","ALLEY":"２０弄","HOUSE_NO":"６號","E_COORD97":176951.17000000001,"N_COORD97":2534455.2799999998,"ADDRESS":"長榮路二段９０巷２０弄６號","OBJECTID":97337},"geometry":{"x":176951.17000000086,"y":2534455.2800000012}},{"attributes":{"ID":97338,"DIS_CODE":0,"TOWNNAME":"歸仁區","LI":"大廟里","LIN":"21鄰","STREET":"大廟一街","SECT":" ","MAREA":" ","LANE":"３８巷","ALLEY":"５７弄","HOUSE_NO":"１０號","E_COORD97":175609.54999999999,"N_COORD97":2544093.9500000002,"ADDRESS":"大廟一街３８巷５７弄１０號","OBJECTID":97338},"geometry":{"x":175609.55000000075,"y":2544093.9499999993}},{"attributes":{"ID":97339,"DIS_CODE":0,"TOWNNAME":"善化區","LI":"牛庄里","LIN":"15鄰","STREET":" ","SECT":" ","MAREA":"牛庄","LANE":" ","ALLEY":" ","HOUSE_NO":"３０６號","E_COORD97":179598.01000000001,"N_COORD97":2560011.75,"ADDRESS":"牛庄３０６號","OBJECTID":97339},"geometry":{"x":179598.01000000164,"y":2560011.7500000037}},{"attributes":{"ID":97340,"DIS_CODE":0,"TOWNNAME":"柳營區","LI":"士林里","LIN":"21鄰","STREET":"柳營路","SECT":"一段","MAREA":" ","LANE":"２７９巷","ALLEY":"１５０弄","HOUSE_NO":"３１號","E_COORD97":179439.34,"N_COORD97":2573957.4199999999,"ADDRESS":"柳營路一段２７９巷１５０弄３１號","OBJECTID":97340},"geometry":{"x":179439.33999999985,"y":2573957.4199999999}},{"attributes":{"ID":97341,"DIS_CODE":0,"TOWNNAME":"善化區","LI":"牛庄里","LIN":"15鄰","STREET":" ","SECT":" ","MAREA":"牛庄","LANE":" ","ALLEY":" ","HOUSE_NO":"５４２號","E_COORD97":179617.64999999999,"N_COORD97":2560474,"ADDRESS":"牛庄５４２號","OBJECTID":97341},"geometry":{"x":179617.65000000037,"y":2560474}},{"attributes":{"ID":97342,"DIS_CODE":0,"TOWNNAME":"善化區","LI":"田寮里","LIN":"15鄰","STREET":" ","SECT":" ","MAREA":"六分寮","LANE":" ","ALLEY":" ","HOUSE_NO":"１６８號之５","E_COORD97":178819.62,"N_COORD97":2561476.77,"ADDRESS":"六分寮１６８號之５","OBJECTID":97342},"geometry":{"x":178819.62000000104,"y":2561476.7700000014}},{"attributes":{"ID":97343,"DIS_CODE":0,"TOWNNAME":"柳營區","LI":"士林里","LIN":"21鄰","STREET":"柳營路","SECT":"一段","MAREA":" ","LANE":"２７９巷","ALLEY":"１５０弄","HOUSE_NO":"６１號","E_COORD97":179426.82000000001,"N_COORD97":2574018.4700000002,"ADDRESS":"柳營路一段２７９巷１５０弄６１號","OBJECTID":97343},"geometry":{"x":179426.82000000216,"y":2574018.4700000007}},{"attributes":{"ID":97344,"DIS_CODE":0,"TOWNNAME":"善化區","LI":"光文里","LIN":"15鄰","STREET":"樹人路","SECT":" ","MAREA":" ","LANE":"７巷","ALLEY":" ","HOUSE_NO":"５號","E_COORD97":178356.70999999999,"N_COORD97":2558898.75,"ADDRESS":"樹人路７巷５號","OBJECTID":97344},"geometry":{"x":178356.70999999996,"y":2558898.75}},{"attributes":{"ID":97345,"DIS_CODE":0,"TOWNNAME":"後壁區","LI":"頂安里","LIN":"10鄰","STREET":" ","SECT":" ","MAREA":"頂寮","LANE":" ","ALLEY":" ","HOUSE_NO":"１０５號之３６","E_COORD97":183703.42000000001,"N_COORD97":2581078.7200000002,"ADDRESS":"頂寮１０５號之３６","OBJECTID":97345},"geometry":{"x":183703.42000000086,"y":2581078.7200000007}},{"attributes":{"ID":97346,"DIS_CODE":0,"TOWNNAME":"後壁區","LI":"頂安里","LIN":"10鄰","STREET":" ","SECT":" ","MAREA":"頂寮","LANE":" ","ALLEY":" ","HOUSE_NO":"１０５號之３９","E_COORD97":183703.39000000001,"N_COORD97":2581091.0600000001,"ADDRESS":"頂寮１０５號之３９","OBJECTID":97346},"geometry":{"x":183703.3900000006,"y":2581091.0600000005}},{"attributes":{"ID":97347,"DIS_CODE":0,"TOWNNAME":"新營區","LI":"民權里","LIN":"17鄰","STREET":"文化街","SECT":" ","MAREA":" ","LANE":" ","ALLEY":" ","HOUSE_NO":"１５號","E_COORD97":179815.20999999999,"N_COORD97":2578030.9399999999,"ADDRESS":"文化街１５號","OBJECTID":97347},"geometry":{"x":179815.20999999996,"y":2578030.9400000013}},{"attributes":{"ID":97348,"DIS_CODE":0,"TOWNNAME":"後壁區","LI":"頂安里","LIN":"10鄰","STREET":" ","SECT":" ","MAREA":"頂寮","LANE":" ","ALLEY":" ","HOUSE_NO":"１０５號之３","E_COORD97":183698.04999999999,"N_COORD97":2581060.02,"ADDRESS":"頂寮１０５號之３","OBJECTID":97348},"geometry":{"x":183698.04999999981,"y":2581060.0200000033}},{"attributes":{"ID":97349,"DIS_CODE":0,"TOWNNAME":"後壁區","LI":"頂安里","LIN":"10鄰","STREET":" ","SECT":" ","MAREA":"頂寮","LANE":" ","ALLEY":" ","HOUSE_NO":"１０５號之４０","E_COORD97":183703.41,"N_COORD97":2581095.3900000001,"ADDRESS":"頂寮１０５號之４０","OBJECTID":97349},"geometry":{"x":183703.41000000108,"y":2581095.3900000006}},{"attributes":{"ID":97350,"DIS_CODE":0,"TOWNNAME":"後壁區","LI":"頂安里","LIN":"10鄰","STREET":" ","SECT":" ","MAREA":"頂寮","LANE":" ","ALLEY":" ","HOUSE_NO":"１０５號之４１","E_COORD97":183703.45000000001,"N_COORD97":2581099.7999999998,"ADDRESS":"頂寮１０５號之４１","OBJECTID":97350},"geometry":{"x":183703.45000000112,"y":2581099.8000000007}},{"attributes":{"ID":97351,"DIS_CODE":0,"TOWNNAME":"後壁區","LI":"頂安里","LIN":"10鄰","STREET":" ","SECT":" ","MAREA":"頂寮","LANE":" ","ALLEY":" ","HOUSE_NO":"１０５號之４２","E_COORD97":183704.25,"N_COORD97":2581103.77,"ADDRESS":"頂寮１０５號之４２","OBJECTID":97351},"geometry":{"x":183704.25000000093,"y":2581103.7700000014}},{"attributes":{"ID":97352,"DIS_CODE":0,"TOWNNAME":"善化區","LI":"田寮里","LIN":"15鄰","STREET":" ","SECT":" ","MAREA":"六分寮","LANE":" ","ALLEY":" ","HOUSE_NO":"１６８號之６","E_COORD97":178750.70000000001,"N_COORD97":2561521.52,"ADDRESS":"六分寮１６８號之６","OBJECTID":97352},"geometry":{"x":178750.70000000019,"y":2561521.5200000033}},{"attributes":{"ID":97353,"DIS_CODE":0,"TOWNNAME":"善化區","LI":"田寮里","LIN":"15鄰","STREET":" ","SECT":" ","MAREA":"六分寮","LANE":" ","ALLEY":" ","HOUSE_NO":"１６６號之１","E_COORD97":178738.19,"N_COORD97":2561466.77,"ADDRESS":"六分寮１６６號之１","OBJECTID":97353},"geometry":{"x":178738.19000000134,"y":2561466.7700000014}},{"attributes":{"ID":97354,"DIS_CODE":0,"TOWNNAME":"善化區","LI":"田寮里","LIN":"15鄰","STREET":" ","SECT":" ","MAREA":"六分寮","LANE":" ","ALLEY":" ","HOUSE_NO":"１６９號","E_COORD97":178753.82000000001,"N_COORD97":2561549,"ADDRESS":"六分寮１６９號","OBJECTID":97354},"geometry":{"x":178753.82000000216,"y":2561549.0000000037}},{"attributes":{"ID":97355,"DIS_CODE":0,"TOWNNAME":"新營區","LI":"五興里","LIN":"14鄰","STREET":" ","SECT":" ","MAREA":"五間厝","LANE":" ","ALLEY":" ","HOUSE_NO":"１５２號之１","E_COORD97":175355.10999999999,"N_COORD97":2574389.3399999999,"ADDRESS":"五間厝１５２之１號","OBJECTID":97355},"geometry":{"x":175355.11000000127,"y":2574389.3400000036}},{"attributes":{"ID":97356,"DIS_CODE":0,"TOWNNAME":"新營區","LI":"角帶里","LIN":"5鄰","STREET":" ","SECT":" ","MAREA":"角帶圍","LANE":" ","ALLEY":" ","HOUSE_NO":"６１號","E_COORD97":174751.45999999999,"N_COORD97":2575734.5600000001,"ADDRESS":"角帶圍６１號","OBJECTID":97356},"geometry":{"x":174751.45999999996,"y":2575734.5600000042}},{"attributes":{"ID":97357,"DIS_CODE":0,"TOWNNAME":"玉井區","LI":"豐里里","LIN":"1鄰","STREET":" ","SECT":" ","MAREA":"豐里","LANE":" ","ALLEY":" ","HOUSE_NO":"７號","E_COORD97":193206.20999999999,"N_COORD97":2558046.25,"ADDRESS":"豐里７號","OBJECTID":97357},"geometry":{"x":193206.21000000089,"y":2558046.2500000019}},{"attributes":{"ID":97358,"DIS_CODE":0,"TOWNNAME":"善化區","LI":"田寮里","LIN":"15鄰","STREET":" ","SECT":" ","MAREA":"六分寮","LANE":" ","ALLEY":" ","HOUSE_NO":"１６８號之８","E_COORD97":178773.32000000001,"N_COORD97":2561441.27,"ADDRESS":"六分寮１６８號之８","OBJECTID":97358},"geometry":{"x":178773.32000000123,"y":2561441.2699999996}},{"attributes":{"ID":97359,"DIS_CODE":0,"TOWNNAME":"善化區","LI":"田寮里","LIN":"15鄰","STREET":" ","SECT":" ","MAREA":"六分寮","LANE":" ","ALLEY":" ","HOUSE_NO":"１６８號之７","E_COORD97":178752.07999999999,"N_COORD97":2561517.27,"ADDRESS":"六分寮１６８號之７","OBJECTID":97359},"geometry":{"x":178752.08000000101,"y":2561517.2700000014}},{"attributes":{"ID":97360,"DIS_CODE":0,"TOWNNAME":"後壁區","LI":"頂安里","LIN":"10鄰","STREET":" ","SECT":" ","MAREA":"頂寮","LANE":" ","ALLEY":" ","HOUSE_NO":"１０５號之４３","E_COORD97":183703.88,"N_COORD97":2581108.1299999999,"ADDRESS":"頂寮１０５號之４３","OBJECTID":97360},"geometry":{"x":183703.87999999989,"y":2581108.129999999}},{"attributes":{"ID":97361,"DIS_CODE":0,"TOWNNAME":"後壁區","LI":"頂安里","LIN":"10鄰","STREET":" ","SECT":" ","MAREA":"頂寮","LANE":" ","ALLEY":" ","HOUSE_NO":"１０５號之４４","E_COORD97":183704.10000000001,"N_COORD97":2581112.77,"ADDRESS":"頂寮１０５號之４４","OBJECTID":97361},"geometry":{"x":183704.09999999963,"y":2581112.7700000033}},{"attributes":{"ID":97362,"DIS_CODE":0,"TOWNNAME":"白河區","LI":"內角里","LIN":"10鄰","STREET":" ","SECT":" ","MAREA":"內角","LANE":" ","ALLEY":" ","HOUSE_NO":"１２４號","E_COORD97":193139.20000000001,"N_COORD97":2589888.3599999999,"ADDRESS":"內角１２４號","OBJECTID":97362},"geometry":{"x":193139.20000000019,"y":2589888.3599999994}},{"attributes":{"ID":97363,"DIS_CODE":0,"TOWNNAME":"柳營區","LI":"士林里","LIN":"21鄰","STREET":"柳營路","SECT":"一段","MAREA":" ","LANE":"４９１巷","ALLEY":"１２８弄","HOUSE_NO":"１１號","E_COORD97":179474.06,"N_COORD97":2574286.2000000002,"ADDRESS":"柳營路一段４９１巷１２８弄１１號","OBJECTID":97363},"geometry":{"x":179474.06000000052,"y":2574286.2000000011}},{"attributes":{"ID":97364,"DIS_CODE":0,"TOWNNAME":"柳營區","LI":"重溪里","LIN":"21鄰","STREET":"義士路","SECT":"一段","MAREA":" ","LANE":"８３２巷","ALLEY":"２３弄","HOUSE_NO":"１０號","E_COORD97":185274.82000000001,"N_COORD97":2576064.79,"ADDRESS":"義士路一段８３２巷２３弄１０號","OBJECTID":97364},"geometry":{"x":185274.8200000003,"y":2576064.790000001}},{"attributes":{"ID":97365,"DIS_CODE":0,"TOWNNAME":"柳營區","LI":"重溪里","LIN":"21鄰","STREET":"義士路","SECT":"一段","MAREA":" ","LANE":"８３２巷","ALLEY":"２３弄","HOUSE_NO":"１２號","E_COORD97":185270.51000000001,"N_COORD97":2576065.29,"ADDRESS":"義士路一段８３２巷２３弄１２號","OBJECTID":97365},"geometry":{"x":185270.51000000071,"y":2576065.290000001}},{"attributes":{"ID":97366,"DIS_CODE":0,"TOWNNAME":"柳營區","LI":"重溪里","LIN":"21鄰","STREET":"義士路","SECT":"一段","MAREA":" ","LANE":"８３２巷","ALLEY":"２３弄","HOUSE_NO":"１６號","E_COORD97":185266.44,"N_COORD97":2576065.6699999999,"ADDRESS":"義士路一段８３２巷２３弄１６號","OBJECTID":97366},"geometry":{"x":185266.44000000134,"y":2576065.6700000037}},{"attributes":{"ID":97367,"DIS_CODE":0,"TOWNNAME":"後壁區","LI":"頂安里","LIN":"10鄰","STREET":" ","SECT":" ","MAREA":"頂寮","LANE":" ","ALLEY":" ","HOUSE_NO":"１０５號之４５","E_COORD97":183704.23000000001,"N_COORD97":2581116.7400000002,"ADDRESS":"頂寮１０５號之４５","OBJECTID":97367},"geometry":{"x":183704.23000000045,"y":2581116.7399999984}},{"attributes":{"ID":97368,"DIS_CODE":0,"TOWNNAME":"後壁區","LI":"頂安里","LIN":"10鄰","STREET":" ","SECT":" ","MAREA":"頂寮","LANE":" ","ALLEY":" ","HOUSE_NO":"１０５號之４６","E_COORD97":183703.98999999999,"N_COORD97":2581123.8100000001,"ADDRESS":"頂寮１０５號之４６","OBJECTID":97368},"geometry":{"x":183703.99000000022,"y":2581123.8100000042}},{"attributes":{"ID":97369,"DIS_CODE":0,"TOWNNAME":"後壁區","LI":"頂安里","LIN":"10鄰","STREET":" ","SECT":" ","MAREA":"頂寮","LANE":" ","ALLEY":" ","HOUSE_NO":"１０５號之４７","E_COORD97":183704.06,"N_COORD97":2581128.1000000001,"ADDRESS":"頂寮１０５號之４７","OBJECTID":97369},"geometry":{"x":183704.05999999959,"y":2581128.1000000015}},{"attributes":{"ID":97370,"DIS_CODE":0,"TOWNNAME":"後壁區","LI":"頂安里","LIN":"10鄰","STREET":" ","SECT":" ","MAREA":"頂寮","LANE":" ","ALLEY":" ","HOUSE_NO":"１０５號之４８","E_COORD97":183704.03,"N_COORD97":2581132.7000000002,"ADDRESS":"頂寮１０５號之４８","OBJECTID":97370},"geometry":{"x":183704.03000000212,"y":2581132.6999999993}},{"attributes":{"ID":97371,"DIS_CODE":0,"TOWNNAME":"柳營區","LI":"重溪里","LIN":"21鄰","STREET":"義士路","SECT":"一段","MAREA":" ","LANE":"８３２巷","ALLEY":"２３弄","HOUSE_NO":"１８號","E_COORD97":185262.28,"N_COORD97":2576066.1499999999,"ADDRESS":"義士路一段８３２巷２３弄１８號","OBJECTID":97371},"geometry":{"x":185262.28000000119,"y":2576066.1500000041}},{"attributes":{"ID":97372,"DIS_CODE":0,"TOWNNAME":"後壁區","LI":"頂安里","LIN":"10鄰","STREET":" ","SECT":" ","MAREA":"頂寮","LANE":" ","ALLEY":" ","HOUSE_NO":"１０５號之４９","E_COORD97":183704.12,"N_COORD97":2581137.0600000001,"ADDRESS":"頂寮１０５號之４９","OBJECTID":97372},"geometry":{"x":183704.12000000011,"y":2581137.0600000024}},{"attributes":{"ID":97373,"DIS_CODE":0,"TOWNNAME":"後壁區","LI":"頂安里","LIN":"10鄰","STREET":" ","SECT":" ","MAREA":"頂寮","LANE":" ","ALLEY":" ","HOUSE_NO":"１０５號之５０","E_COORD97":183704.39999999999,"N_COORD97":2581141.8500000001,"ADDRESS":"頂寮１０５號之５０","OBJECTID":97373},"geometry":{"x":183704.40000000037,"y":2581141.8499999996}},{"attributes":{"ID":97374,"DIS_CODE":0,"TOWNNAME":"後壁區","LI":"頂安里","LIN":"10鄰","STREET":" ","SECT":" ","MAREA":"頂寮","LANE":" ","ALLEY":" ","HOUSE_NO":"１０５號之５１","E_COORD97":183704.66,"N_COORD97":2581146.1299999999,"ADDRESS":"頂寮１０５號之５１","OBJECTID":97374},"geometry":{"x":183704.66000000201,"y":2581146.129999999}},{"attributes":{"ID":97375,"DIS_CODE":0,"TOWNNAME":"官田區","LI":"西庄里","LIN":"1鄰","STREET":" ","SECT":" ","MAREA":"西庄","LANE":" ","ALLEY":" ","HOUSE_NO":"９號","E_COORD97":177812.20000000001,"N_COORD97":2565038.8399999999,"ADDRESS":"西庄９號","OBJECTID":97375},"geometry":{"x":177812.20000000112,"y":2565038.8400000036}},{"attributes":{"ID":97376,"DIS_CODE":0,"TOWNNAME":"後壁區","LI":"頂安里","LIN":"10鄰","STREET":" ","SECT":" ","MAREA":"頂寮","LANE":" ","ALLEY":" ","HOUSE_NO":"１０５號之５２","E_COORD97":183704.57999999999,"N_COORD97":2581150.6000000001,"ADDRESS":"頂寮１０５號之５２","OBJECTID":97376},"geometry":{"x":183704.58000000007,"y":2581150.5999999996}},{"attributes":{"ID":97377,"DIS_CODE":0,"TOWNNAME":"後壁區","LI":"頂安里","LIN":"10鄰","STREET":" ","SECT":" ","MAREA":"頂寮","LANE":" ","ALLEY":" ","HOUSE_NO":"１０５號之５３","E_COORD97":183705,"N_COORD97":2581154.77,"ADDRESS":"頂寮１０５號之５３","OBJECTID":97377},"geometry":{"x":183705,"y":2581154.7700000014}},{"attributes":{"ID":97378,"DIS_CODE":0,"TOWNNAME":"後壁區","LI":"頂安里","LIN":"10鄰","STREET":" ","SECT":" ","MAREA":"頂寮","LANE":" ","ALLEY":" ","HOUSE_NO":"１０５號之５４","E_COORD97":183699.16,"N_COORD97":2581174.8500000001,"ADDRESS":"頂寮１０５號之５４","OBJECTID":97378},"geometry":{"x":183699.16000000015,"y":2581174.8500000015}},{"attributes":{"ID":97379,"DIS_CODE":0,"TOWNNAME":"後壁區","LI":"頂安里","LIN":"10鄰","STREET":" ","SECT":" ","MAREA":"頂寮","LANE":" ","ALLEY":" ","HOUSE_NO":"１０５號之５５","E_COORD97":183691.14999999999,"N_COORD97":2581080.8799999999,"ADDRESS":"頂寮１０５號之５５","OBJECTID":97379},"geometry":{"x":183691.15000000037,"y":2581080.8800000027}},{"attributes":{"ID":97380,"DIS_CODE":0,"TOWNNAME":"新營區","LI":"角帶里","LIN":"1鄰","STREET":" ","SECT":" ","MAREA":"角帶圍","LANE":" ","ALLEY":" ","HOUSE_NO":"２之８號","E_COORD97":174896.73000000001,"N_COORD97":2576081.6200000001,"ADDRESS":"角帶圍２之８號","OBJECTID":97380},"geometry":{"x":174896.73000000138,"y":2576081.6200000029}},{"attributes":{"ID":97381,"DIS_CODE":0,"TOWNNAME":"新營區","LI":"角帶里","LIN":" ","STREET":" ","SECT":" ","MAREA":"角帶圍","LANE":" ","ALLEY":" ","HOUSE_NO":"１５號","E_COORD97":174752.78,"N_COORD97":2575998.1200000001,"ADDRESS":"角帶圍１５號","OBJECTID":97381},"geometry":{"x":174752.78000000026,"y":2575998.120000001}},{"attributes":{"ID":97382,"DIS_CODE":0,"TOWNNAME":"後壁區","LI":"頂安里","LIN":"10鄰","STREET":" ","SECT":" ","MAREA":"頂寮","LANE":" ","ALLEY":" ","HOUSE_NO":"１０５號之５８","E_COORD97":183686.95000000001,"N_COORD97":2581099.23,"ADDRESS":"頂寮１０５號之５８","OBJECTID":97382},"geometry":{"x":183686.95000000019,"y":2581099.2300000004}},{"attributes":{"ID":97383,"DIS_CODE":0,"TOWNNAME":"柳營區","LI":"重溪里","LIN":"21鄰","STREET":"義士路","SECT":"一段","MAREA":" ","LANE":"８３２巷","ALLEY":"２３弄","HOUSE_NO":"２號","E_COORD97":185287.32999999999,"N_COORD97":2576063.5800000001,"ADDRESS":"義士路一段８３２巷２３弄２號","OBJECTID":97383},"geometry":{"x":185287.33000000101,"y":2576063.5800000019}},{"attributes":{"ID":97384,"DIS_CODE":0,"TOWNNAME":"柳營區","LI":"重溪里","LIN":"21鄰","STREET":"義士路","SECT":"一段","MAREA":" ","LANE":"８３２巷","ALLEY":"２３弄","HOUSE_NO":"６號","E_COORD97":185283.26999999999,"N_COORD97":2576063.75,"ADDRESS":"義士路一段８３２巷２３弄６號","OBJECTID":97384},"geometry":{"x":185283.27000000142,"y":2576063.75}},{"attributes":{"ID":97385,"DIS_CODE":0,"TOWNNAME":"柳營區","LI":"重溪里","LIN":"21鄰","STREET":"義士路","SECT":"一段","MAREA":" ","LANE":"８３２巷","ALLEY":"２３弄","HOUSE_NO":"８號","E_COORD97":185278.98000000001,"N_COORD97":2576064.27,"ADDRESS":"義士路一段８３２巷２３弄８號","OBJECTID":97385},"geometry":{"x":185278.98000000045,"y":2576064.2699999977}},{"attributes":{"ID":97386,"DIS_CODE":0,"TOWNNAME":"柳營區","LI":"重溪里","LIN":"21鄰","STREET":"義士路","SECT":"一段","MAREA":" ","LANE":"８３２巷","ALLEY":"４２弄","HOUSE_NO":"２號","E_COORD97":185341.73000000001,"N_COORD97":2576042.7999999998,"ADDRESS":"義士路一段８３２巷４２弄２號","OBJECTID":97386},"geometry":{"x":185341.73000000045,"y":2576042.8000000026}},{"attributes":{"ID":97387,"DIS_CODE":0,"TOWNNAME":"後壁區","LI":"頂安里","LIN":"10鄰","STREET":" ","SECT":" ","MAREA":"頂寮","LANE":" ","ALLEY":" ","HOUSE_NO":"１０５號之５９","E_COORD97":183681.69,"N_COORD97":2581078.73,"ADDRESS":"頂寮１０５號之５９","OBJECTID":97387},"geometry":{"x":183681.69000000134,"y":2581078.7300000004}},{"attributes":{"ID":97388,"DIS_CODE":0,"TOWNNAME":"後壁區","LI":"頂安里","LIN":"10鄰","STREET":" ","SECT":" ","MAREA":"頂寮","LANE":" ","ALLEY":" ","HOUSE_NO":"１０５號之５","E_COORD97":183689.92000000001,"N_COORD97":2581058.5299999998,"ADDRESS":"頂寮１０５號之５","OBJECTID":97388},"geometry":{"x":183689.92000000086,"y":2581058.5299999993}},{"attributes":{"ID":97389,"DIS_CODE":0,"TOWNNAME":"柳營區","LI":"重溪里","LIN":"21鄰","STREET":"義士路","SECT":"一段","MAREA":" ","LANE":"８３２巷","ALLEY":"９５弄","HOUSE_NO":"１０號","E_COORD97":185298.20999999999,"N_COORD97":2576248.2400000002,"ADDRESS":"義士路一段８３２巷９５弄１０號","OBJECTID":97389},"geometry":{"x":185298.21000000089,"y":2576248.2399999984}},{"attributes":{"ID":97390,"DIS_CODE":0,"TOWNNAME":"柳營區","LI":"重溪里","LIN":"21鄰","STREET":"義士路","SECT":"一段","MAREA":" ","LANE":"８３２巷","ALLEY":"９５弄","HOUSE_NO":"１２號","E_COORD97":185293.88,"N_COORD97":2576248.9399999999,"ADDRESS":"義士路一段８３２巷９５弄１２號","OBJECTID":97390},"geometry":{"x":185293.87999999989,"y":2576248.9399999995}},{"attributes":{"ID":97391,"DIS_CODE":0,"TOWNNAME":"柳營區","LI":"重溪里","LIN":"21鄰","STREET":"義士路","SECT":"一段","MAREA":" ","LANE":"８３２巷","ALLEY":"９５弄","HOUSE_NO":"１６號","E_COORD97":185280.64999999999,"N_COORD97":2576258.6400000001,"ADDRESS":"義士路一段８３２巷９５弄１６號","OBJECTID":97391},"geometry":{"x":185280.6500000013,"y":2576258.6400000006}},{"attributes":{"ID":97392,"DIS_CODE":0,"TOWNNAME":"後壁區","LI":"頂安里","LIN":"10鄰","STREET":" ","SECT":" ","MAREA":"頂寮","LANE":" ","ALLEY":" ","HOUSE_NO":"１０５號之６１","E_COORD97":183677.91,"N_COORD97":2581078.0699999998,"ADDRESS":"頂寮１０５號之６１","OBJECTID":97392},"geometry":{"x":183677.91000000108,"y":2581078.0700000022}},{"attributes":{"ID":97393,"DIS_CODE":0,"TOWNNAME":"後壁區","LI":"頂安里","LIN":"10鄰","STREET":" ","SECT":" ","MAREA":"頂寮","LANE":" ","ALLEY":" ","HOUSE_NO":"１０５號之６２","E_COORD97":183678.19,"N_COORD97":2581097.9900000002,"ADDRESS":"頂寮１０５號之６２","OBJECTID":97393},"geometry":{"x":183678.19000000134,"y":2581097.9900000002}},{"attributes":{"ID":97394,"DIS_CODE":0,"TOWNNAME":"後壁區","LI":"頂安里","LIN":"10鄰","STREET":" ","SECT":" ","MAREA":"頂寮","LANE":" ","ALLEY":" ","HOUSE_NO":"１０５號之６３","E_COORD97":183673.54000000001,"N_COORD97":2581077.25,"ADDRESS":"頂寮１０５號之６３","OBJECTID":97394},"geometry":{"x":183673.54000000097,"y":2581077.2500000019}},{"attributes":{"ID":97395,"DIS_CODE":0,"TOWNNAME":"後壁區","LI":"頂安里","LIN":"10鄰","STREET":" ","SECT":" ","MAREA":"頂寮","LANE":" ","ALLEY":" ","HOUSE_NO":"１０５號之６４","E_COORD97":183674.12,"N_COORD97":2581097.4100000001,"ADDRESS":"頂寮１０５號之６４","OBJECTID":97395},"geometry":{"x":183674.12000000011,"y":2581097.4100000001}},{"attributes":{"ID":97396,"DIS_CODE":0,"TOWNNAME":"後壁區","LI":"頂安里","LIN":"10鄰","STREET":" ","SECT":" ","MAREA":"頂寮","LANE":" ","ALLEY":" ","HOUSE_NO":"１０５號之６５","E_COORD97":183669.14000000001,"N_COORD97":2581076.2200000002,"ADDRESS":"頂寮１０５號之６５","OBJECTID":97396},"geometry":{"x":183669.1400000006,"y":2581076.2200000007}},{"attributes":{"ID":97397,"DIS_CODE":0,"TOWNNAME":"柳營區","LI":"重溪里","LIN":"21鄰","STREET":"義士路","SECT":"一段","MAREA":" ","LANE":"８３２巷","ALLEY":"９５弄","HOUSE_NO":"３０號","E_COORD97":185251.32000000001,"N_COORD97":2576249.8900000001,"ADDRESS":"義士路一段８３２巷９５弄３０號","OBJECTID":97397},"geometry":{"x":185251.3200000003,"y":2576249.8900000006}},{"attributes":{"ID":97398,"DIS_CODE":0,"TOWNNAME":"柳營區","LI":"重溪里","LIN":"21鄰","STREET":"義士路","SECT":"一段","MAREA":" ","LANE":"８３２巷","ALLEY":"９５弄","HOUSE_NO":"８號","E_COORD97":185302.85000000001,"N_COORD97":2576246.3700000001,"ADDRESS":"義士路一段８３２巷９５弄８號","OBJECTID":97398},"geometry":{"x":185302.84999999963,"y":2576246.3700000029}},{"attributes":{"ID":97399,"DIS_CODE":0,"TOWNNAME":"歸仁區","LI":"大潭里","LIN":"21鄰","STREET":"長榮路","SECT":"二段","MAREA":" ","LANE":"９０巷","ALLEY":"２０弄","HOUSE_NO":"２號","E_COORD97":176943.07000000001,"N_COORD97":2534476.2799999998,"ADDRESS":"長榮路二段９０巷２０弄２號","OBJECTID":97399},"geometry":{"x":176943.0700000003,"y":2534476.2799999993}},{"attributes":{"ID":97400,"DIS_CODE":0,"TOWNNAME":"六甲區","LI":"甲東里","LIN":"21鄰","STREET":"裕農街","SECT":" ","MAREA":" ","LANE":"８０巷","ALLEY":"２６弄","HOUSE_NO":"２７號","E_COORD97":184254.35000000001,"N_COORD97":2569580.21,"ADDRESS":"裕農街８０巷２６弄２７號","OBJECTID":97400},"geometry":{"x":184254.35000000056,"y":2569580.209999999}}]}