{"displayFieldName":"TOWNNAME","fieldAliases":{"ID":"ID","DIS_CODE":"DIS_CODE","TOWNNAME":"TOWNNAME","LI":"LI","LIN":"LIN","STREET":"STREET","SECT":"SECT","MAREA":"MAREA","LANE":"LANE","ALLEY":"ALLEY","HOUSE_NO":"HOUSE_NO","E_COORD97":"E_COORD97","N_COORD97":"N_COORD97","ADDRESS":"ADDRESS","OBJECTID":"OBJECTID"},"geometryType":"esriGeometryPoint","spatialReference":{"wkid":102443,"latestWkid":3826},"fields":[{"name":"ID","type":"esriFieldTypeDouble","alias":"ID"},{"name":"DIS_CODE","type":"esriFieldTypeInteger","alias":"DIS_CODE"},{"name":"TOWNNAME","type":"esriFieldTypeString","alias":"TOWNNAME","length":8},{"name":"LI","type":"esriFieldTypeString","alias":"LI","length":8},{"name":"LIN","type":"esriFieldTypeString","alias":"LIN","length":12},{"name":"STREET","type":"esriFieldTypeString","alias":"STREET","length":20},{"name":"SECT","type":"esriFieldTypeString","alias":"SECT","length":8},{"name":"MAREA","type":"esriFieldTypeString","alias":"MAREA","length":12},{"name":"LANE","type":"esriFieldTypeString","alias":"LANE","length":10},{"name":"ALLEY","type":"esriFieldTypeString","alias":"ALLEY","length":10},{"name":"HOUSE_NO","type":"esriFieldTypeString","alias":"HOUSE_NO","length":20},{"name":"E_COORD97","type":"esriFieldTypeDouble","alias":"E_COORD97"},{"name":"N_COORD97","type":"esriFieldTypeDouble","alias":"N_COORD97"},{"name":"ADDRESS","type":"esriFieldTypeString","alias":"ADDRESS","length":50},{"name":"OBJECTID","type":"esriFieldTypeOID","alias":"OBJECTID"}],"features":[{"attributes":{"ID":388625,"DIS_CODE":0,"TOWNNAME":"柳營區","LI":"光福里","LIN":"28鄰","STREET":"建業路","SECT":" ","MAREA":" ","LANE":"１０１巷","ALLEY":" ","HOUSE_NO":"１７８號","E_COORD97":179891.54000000001,"N_COORD97":2575767.7200000002,"ADDRESS":"建業路１０１巷１７８號","OBJECTID":388601},"geometry":{"x":179891.54000000097,"y":2575767.7200000044}},{"attributes":{"ID":388626,"DIS_CODE":0,"TOWNNAME":"柳營區","LI":"光福里","LIN":"28鄰","STREET":"建業路","SECT":" ","MAREA":" ","LANE":"１０１巷","ALLEY":" ","HOUSE_NO":"１８０號","E_COORD97":179885.35999999999,"N_COORD97":2575773.0099999998,"ADDRESS":"建業路１０１巷１８０號","OBJECTID":388602},"geometry":{"x":179885.36000000034,"y":2575773.0100000016}},{"attributes":{"ID":388627,"DIS_CODE":0,"TOWNNAME":"柳營區","LI":"光福里","LIN":"28鄰","STREET":"建業路","SECT":" ","MAREA":" ","LANE":"１０１巷","ALLEY":" ","HOUSE_NO":"１８６號","E_COORD97":179872.70000000001,"N_COORD97":2575772.98,"ADDRESS":"建業路１０１巷１８６號","OBJECTID":388603},"geometry":{"x":179872.70000000019,"y":2575772.9800000023}},{"attributes":{"ID":388628,"DIS_CODE":0,"TOWNNAME":"柳營區","LI":"光福里","LIN":"28鄰","STREET":"建業路","SECT":" ","MAREA":" ","LANE":"１０１巷","ALLEY":" ","HOUSE_NO":"２３０號","E_COORD97":179804.62,"N_COORD97":2575781.8700000001,"ADDRESS":"建業路１０１巷２３０號","OBJECTID":388604},"geometry":{"x":179804.62000000104,"y":2575781.8700000029}},{"attributes":{"ID":388629,"DIS_CODE":0,"TOWNNAME":"柳營區","LI":"光福里","LIN":"28鄰","STREET":"建業路","SECT":" ","MAREA":" ","LANE":"１０１巷","ALLEY":" ","HOUSE_NO":"２３２號","E_COORD97":179799.78,"N_COORD97":2575781.98,"ADDRESS":"建業路１０１巷２３２號","OBJECTID":388605},"geometry":{"x":179799.78000000026,"y":2575781.9800000004}},{"attributes":{"ID":388630,"DIS_CODE":0,"TOWNNAME":"柳營區","LI":"光福里","LIN":"28鄰","STREET":"建業路","SECT":" ","MAREA":" ","LANE":"１０１巷","ALLEY":" ","HOUSE_NO":"２３６號","E_COORD97":179793.89000000001,"N_COORD97":2575765.6899999999,"ADDRESS":"建業路１０１巷２３６號","OBJECTID":388606},"geometry":{"x":179793.8900000006,"y":2575765.6899999995}},{"attributes":{"ID":388631,"DIS_CODE":0,"TOWNNAME":"柳營區","LI":"光福里","LIN":"28鄰","STREET":"建業路","SECT":" ","MAREA":" ","LANE":"１０１巷","ALLEY":" ","HOUSE_NO":"２３８號","E_COORD97":179788.51000000001,"N_COORD97":2575782.6299999999,"ADDRESS":"建業路１０１巷２３８號","OBJECTID":388607},"geometry":{"x":179788.51000000071,"y":2575782.629999999}},{"attributes":{"ID":388632,"DIS_CODE":0,"TOWNNAME":"柳營區","LI":"光福里","LIN":"28鄰","STREET":"建業路","SECT":" ","MAREA":" ","LANE":"１０１巷","ALLEY":" ","HOUSE_NO":"２５６號","E_COORD97":179773,"N_COORD97":2575767.6600000001,"ADDRESS":"建業路１０１巷２５６號","OBJECTID":388608},"geometry":{"x":179773.00000000093,"y":2575767.6600000039}},{"attributes":{"ID":388633,"DIS_CODE":0,"TOWNNAME":"柳營區","LI":"光福里","LIN":"28鄰","STREET":"建業路","SECT":" ","MAREA":" ","LANE":"１０１巷","ALLEY":" ","HOUSE_NO":"２５８號","E_COORD97":179773.44,"N_COORD97":2575788.4700000002,"ADDRESS":"建業路１０１巷２５８號","OBJECTID":388609},"geometry":{"x":179773.44000000041,"y":2575788.4700000007}},{"attributes":{"ID":388634,"DIS_CODE":0,"TOWNNAME":"柳營區","LI":"光福里","LIN":"28鄰","STREET":"建業路","SECT":" ","MAREA":" ","LANE":"１０１巷","ALLEY":" ","HOUSE_NO":"２６２號","E_COORD97":179757.29999999999,"N_COORD97":2575790.1200000001,"ADDRESS":"建業路１０１巷２６２號","OBJECTID":388610},"geometry":{"x":179757.30000000075,"y":2575790.1200000029}},{"attributes":{"ID":388635,"DIS_CODE":0,"TOWNNAME":"柳營區","LI":"光福里","LIN":"28鄰","STREET":"建業路","SECT":" ","MAREA":" ","LANE":"２０５巷","ALLEY":" ","HOUSE_NO":"１２３號","E_COORD97":179935.23999999999,"N_COORD97":2575954.7799999998,"ADDRESS":"建業路２０５巷１２３號","OBJECTID":388611},"geometry":{"x":179935.24000000022,"y":2575954.7799999993}},{"attributes":{"ID":388636,"DIS_CODE":0,"TOWNNAME":"柳營區","LI":"光福里","LIN":"28鄰","STREET":"建業路","SECT":" ","MAREA":" ","LANE":"２０５巷","ALLEY":" ","HOUSE_NO":"１７１號","E_COORD97":179865.32000000001,"N_COORD97":2575945.4100000001,"ADDRESS":"建業路２０５巷１７１號","OBJECTID":388612},"geometry":{"x":179865.3200000003,"y":2575945.4100000039}},{"attributes":{"ID":388637,"DIS_CODE":0,"TOWNNAME":"柳營區","LI":"光福里","LIN":"28鄰","STREET":"建業路","SECT":" ","MAREA":" ","LANE":"２０５巷","ALLEY":" ","HOUSE_NO":"１８３號","E_COORD97":179858.98999999999,"N_COORD97":2575916.0499999998,"ADDRESS":"建業路２０５巷１８３號","OBJECTID":388613},"geometry":{"x":179858.99000000022,"y":2575916.0500000026}},{"attributes":{"ID":388638,"DIS_CODE":0,"TOWNNAME":"柳營區","LI":"光福里","LIN":"28鄰","STREET":"建業路","SECT":" ","MAREA":" ","LANE":"３７９巷","ALLEY":" ","HOUSE_NO":"２８號","E_COORD97":180131.07000000001,"N_COORD97":2576358.52,"ADDRESS":"建業路３７９巷２８號","OBJECTID":388614},"geometry":{"x":180131.07000000123,"y":2576358.5200000014}},{"attributes":{"ID":388639,"DIS_CODE":0,"TOWNNAME":"柳營區","LI":"光福里","LIN":"28鄰","STREET":"建業路","SECT":" ","MAREA":" ","LANE":"３７９巷","ALLEY":" ","HOUSE_NO":"７７號","E_COORD97":180037.97,"N_COORD97":2576308.8700000001,"ADDRESS":"建業路３７９巷７７號","OBJECTID":388615},"geometry":{"x":180037.97000000067,"y":2576308.870000001}},{"attributes":{"ID":388640,"DIS_CODE":0,"TOWNNAME":"柳營區","LI":"東昇里","LIN":"28鄰","STREET":"建國路","SECT":" ","MAREA":" ","LANE":"６巷","ALLEY":" ","HOUSE_NO":"１０號","E_COORD97":180665.81,"N_COORD97":2575211.1499999999,"ADDRESS":"建國路６巷１０號","OBJECTID":388616},"geometry":{"x":180665.81000000052,"y":2575211.1500000004}},{"attributes":{"ID":388641,"DIS_CODE":0,"TOWNNAME":"柳營區","LI":"東昇里","LIN":"28鄰","STREET":"建國路","SECT":" ","MAREA":" ","LANE":"６巷","ALLEY":" ","HOUSE_NO":"１２號","E_COORD97":180665.85000000001,"N_COORD97":2575216.3999999999,"ADDRESS":"建國路６巷１２號","OBJECTID":388617},"geometry":{"x":180665.85000000056,"y":2575216.4000000004}},{"attributes":{"ID":388642,"DIS_CODE":0,"TOWNNAME":"柳營區","LI":"東昇里","LIN":"28鄰","STREET":"建國路","SECT":" ","MAREA":" ","LANE":"６巷","ALLEY":" ","HOUSE_NO":"１６號","E_COORD97":180665.88,"N_COORD97":2575221.6499999999,"ADDRESS":"建國路６巷１６號","OBJECTID":388618},"geometry":{"x":180665.88000000082,"y":2575221.6499999985}},{"attributes":{"ID":388643,"DIS_CODE":0,"TOWNNAME":"柳營區","LI":"東昇里","LIN":"28鄰","STREET":"建國路","SECT":" ","MAREA":" ","LANE":"６巷","ALLEY":" ","HOUSE_NO":"１８號","E_COORD97":180665.92000000001,"N_COORD97":2575226.8999999999,"ADDRESS":"建國路６巷１８號","OBJECTID":388619},"geometry":{"x":180665.91999999993,"y":2575226.9000000041}},{"attributes":{"ID":388644,"DIS_CODE":0,"TOWNNAME":"柳營區","LI":"東昇里","LIN":"28鄰","STREET":"建國路","SECT":" ","MAREA":" ","LANE":"６巷","ALLEY":" ","HOUSE_NO":"２０號","E_COORD97":180665.95000000001,"N_COORD97":2575232.1600000001,"ADDRESS":"建國路６巷２０號","OBJECTID":388620},"geometry":{"x":180665.95000000019,"y":2575232.160000002}},{"attributes":{"ID":388645,"DIS_CODE":0,"TOWNNAME":"柳營區","LI":"東昇里","LIN":"28鄰","STREET":"建國路","SECT":" ","MAREA":" ","LANE":"６巷","ALLEY":" ","HOUSE_NO":"２２號","E_COORD97":180665.98999999999,"N_COORD97":2575237.4100000001,"ADDRESS":"建國路６巷２２號","OBJECTID":388621},"geometry":{"x":180665.99000000022,"y":2575237.410000002}},{"attributes":{"ID":388646,"DIS_CODE":0,"TOWNNAME":"柳營區","LI":"東昇里","LIN":"28鄰","STREET":"建國路","SECT":" ","MAREA":" ","LANE":"６巷","ALLEY":" ","HOUSE_NO":"２６號","E_COORD97":180666.01999999999,"N_COORD97":2575242.6600000001,"ADDRESS":"建國路６巷２６號","OBJECTID":388622},"geometry":{"x":180666.02000000048,"y":2575242.660000002}},{"attributes":{"ID":388647,"DIS_CODE":0,"TOWNNAME":"柳營區","LI":"東昇里","LIN":"28鄰","STREET":"建國路","SECT":" ","MAREA":" ","LANE":"６巷","ALLEY":" ","HOUSE_NO":"２７號","E_COORD97":180648.28,"N_COORD97":2575264.7799999998,"ADDRESS":"建國路６巷２７號","OBJECTID":388623},"geometry":{"x":180648.28000000119,"y":2575264.7800000012}},{"attributes":{"ID":388648,"DIS_CODE":0,"TOWNNAME":"柳營區","LI":"東昇里","LIN":"28鄰","STREET":"建國路","SECT":" ","MAREA":" ","LANE":"６巷","ALLEY":" ","HOUSE_NO":"２８號","E_COORD97":180666.06,"N_COORD97":2575247.9100000001,"ADDRESS":"建國路６巷２８號","OBJECTID":388624},"geometry":{"x":180666.06000000052,"y":2575247.910000002}},{"attributes":{"ID":388649,"DIS_CODE":0,"TOWNNAME":"柳營區","LI":"東昇里","LIN":"28鄰","STREET":"建國路","SECT":" ","MAREA":" ","LANE":"６巷","ALLEY":" ","HOUSE_NO":"２９號","E_COORD97":180648.48000000001,"N_COORD97":2575270.21,"ADDRESS":"建國路６巷２９號","OBJECTID":388625},"geometry":{"x":180648.48000000138,"y":2575270.2100000028}},{"attributes":{"ID":388650,"DIS_CODE":0,"TOWNNAME":"柳營區","LI":"東昇里","LIN":"28鄰","STREET":"建國路","SECT":" ","MAREA":" ","LANE":"６巷","ALLEY":" ","HOUSE_NO":"３１號","E_COORD97":180648.67999999999,"N_COORD97":2575275.6400000001,"ADDRESS":"建國路６巷３１號","OBJECTID":388626},"geometry":{"x":180648.6799999997,"y":2575275.6400000006}},{"attributes":{"ID":388651,"DIS_CODE":0,"TOWNNAME":"柳營區","LI":"東昇里","LIN":"28鄰","STREET":"建國路","SECT":" ","MAREA":" ","LANE":"６巷","ALLEY":" ","HOUSE_NO":"３３號","E_COORD97":180648.88,"N_COORD97":2575281.0699999998,"ADDRESS":"建國路６巷３３號","OBJECTID":388627},"geometry":{"x":180648.88000000082,"y":2575281.0700000022}},{"attributes":{"ID":388652,"DIS_CODE":0,"TOWNNAME":"柳營區","LI":"東昇里","LIN":"28鄰","STREET":"建國路","SECT":" ","MAREA":" ","LANE":"６巷","ALLEY":" ","HOUSE_NO":"３５號","E_COORD97":180649.07999999999,"N_COORD97":2575286.5,"ADDRESS":"建國路６巷３５號","OBJECTID":388628},"geometry":{"x":180649.08000000101,"y":2575286.5}},{"attributes":{"ID":388653,"DIS_CODE":0,"TOWNNAME":"柳營區","LI":"東昇里","LIN":"28鄰","STREET":"建國路","SECT":" ","MAREA":" ","LANE":"６巷","ALLEY":" ","HOUSE_NO":"３７號","E_COORD97":180649.28,"N_COORD97":2575291.9300000002,"ADDRESS":"建國路６巷３７號","OBJECTID":388629},"geometry":{"x":180649.28000000212,"y":2575291.9300000016}},{"attributes":{"ID":388654,"DIS_CODE":0,"TOWNNAME":"柳營區","LI":"東昇里","LIN":"28鄰","STREET":"建國路","SECT":" ","MAREA":" ","LANE":"６巷","ALLEY":" ","HOUSE_NO":"３９號","E_COORD97":180649.48000000001,"N_COORD97":2575297.3700000001,"ADDRESS":"建國路６巷３９號","OBJECTID":388630},"geometry":{"x":180649.48000000045,"y":2575297.3700000029}},{"attributes":{"ID":388655,"DIS_CODE":0,"TOWNNAME":"柳營區","LI":"東昇里","LIN":"28鄰","STREET":"建國路","SECT":" ","MAREA":" ","LANE":"６巷","ALLEY":" ","HOUSE_NO":"６號","E_COORD97":180665.73999999999,"N_COORD97":2575200.6499999999,"ADDRESS":"建國路６巷６號","OBJECTID":388631},"geometry":{"x":180665.74000000022,"y":2575200.6500000004}},{"attributes":{"ID":388656,"DIS_CODE":0,"TOWNNAME":"柳營區","LI":"東昇里","LIN":"28鄰","STREET":"建國路","SECT":" ","MAREA":" ","LANE":"６巷","ALLEY":" ","HOUSE_NO":"８號","E_COORD97":180665.78,"N_COORD97":2575205.8999999999,"ADDRESS":"建國路６巷８號","OBJECTID":388632},"geometry":{"x":180665.78000000026,"y":2575205.9000000004}},{"attributes":{"ID":388657,"DIS_CODE":0,"TOWNNAME":"北區","LI":"成德里","LIN":"28鄰","STREET":"育德二路","SECT":" ","MAREA":" ","LANE":"１９０巷","ALLEY":" ","HOUSE_NO":"３７號","E_COORD97":168496.89999999999,"N_COORD97":2545734.6099999999,"ADDRESS":"育德二路１９０巷３７號","OBJECTID":388633},"geometry":{"x":168496.90000000037,"y":2545734.6099999994}},{"attributes":{"ID":388658,"DIS_CODE":0,"TOWNNAME":"北區","LI":"成德里","LIN":"28鄰","STREET":"育德二路","SECT":" ","MAREA":" ","LANE":"１９０巷","ALLEY":" ","HOUSE_NO":"５０號","E_COORD97":168495.14999999999,"N_COORD97":2545721.8300000001,"ADDRESS":"育德二路１９０巷５０號","OBJECTID":388634},"geometry":{"x":168495.15000000037,"y":2545721.8300000019}},{"attributes":{"ID":388659,"DIS_CODE":0,"TOWNNAME":"關廟區","LI":"香洋里","LIN":"28鄰","STREET":"大富街","SECT":" ","MAREA":" ","LANE":"３３９巷","ALLEY":" ","HOUSE_NO":"８號","E_COORD97":180974.07000000001,"N_COORD97":2539848.25,"ADDRESS":"大富街３３９巷８號","OBJECTID":388635},"geometry":{"x":180974.0700000003,"y":2539848.25}},{"attributes":{"ID":388660,"DIS_CODE":0,"TOWNNAME":"關廟區","LI":"東勢里","LIN":"28鄰","STREET":"東榮街","SECT":" ","MAREA":" ","LANE":"１４３巷","ALLEY":" ","HOUSE_NO":"７號","E_COORD97":182273.23000000001,"N_COORD97":2539388.1099999999,"ADDRESS":"東榮街１４３巷７號","OBJECTID":388636},"geometry":{"x":182273.23000000045,"y":2539388.1100000031}},{"attributes":{"ID":388661,"DIS_CODE":0,"TOWNNAME":"關廟區","LI":"香洋里","LIN":"28鄰","STREET":"大富街","SECT":" ","MAREA":" ","LANE":"３４３巷","ALLEY":" ","HOUSE_NO":"１６號","E_COORD97":180957.32000000001,"N_COORD97":2539854.25,"ADDRESS":"大富街３４３巷１６號","OBJECTID":388637},"geometry":{"x":180957.3200000003,"y":2539854.25}},{"attributes":{"ID":388662,"DIS_CODE":0,"TOWNNAME":"關廟區","LI":"香洋里","LIN":"28鄰","STREET":"民生街","SECT":" ","MAREA":" ","LANE":"２１８巷","ALLEY":" ","HOUSE_NO":"１８號","E_COORD97":180969.14000000001,"N_COORD97":2539945.29,"ADDRESS":"民生街２１８巷１８號","OBJECTID":388638},"geometry":{"x":180969.1400000006,"y":2539945.2899999991}},{"attributes":{"ID":388663,"DIS_CODE":0,"TOWNNAME":"安平區","LI":"平通里","LIN":"28鄰","STREET":"育平七街","SECT":" ","MAREA":" ","LANE":"８０巷","ALLEY":" ","HOUSE_NO":"１８號","E_COORD97":164407.60000000001,"N_COORD97":2543817.3700000001,"ADDRESS":"育平七街８０巷１８號","OBJECTID":388639},"geometry":{"x":164407.59999999963,"y":2543817.3700000029}},{"attributes":{"ID":388664,"DIS_CODE":0,"TOWNNAME":"安平區","LI":"平通里","LIN":"28鄰","STREET":"育平七街","SECT":" ","MAREA":" ","LANE":"８０巷","ALLEY":" ","HOUSE_NO":"１９號","E_COORD97":164378.98999999999,"N_COORD97":2543820.25,"ADDRESS":"育平七街８０巷１９號","OBJECTID":388640},"geometry":{"x":164378.98999999929,"y":2543820.2500000019}},{"attributes":{"ID":388665,"DIS_CODE":0,"TOWNNAME":"安平區","LI":"平通里","LIN":"28鄰","STREET":"育平七街","SECT":" ","MAREA":" ","LANE":"８０巷","ALLEY":" ","HOUSE_NO":"２０號","E_COORD97":164407.48999999999,"N_COORD97":2543821.48,"ADDRESS":"育平七街８０巷２０號","OBJECTID":388641},"geometry":{"x":164407.49000000022,"y":2543821.4800000042}},{"attributes":{"ID":388666,"DIS_CODE":0,"TOWNNAME":"安平區","LI":"平通里","LIN":"28鄰","STREET":"育平七街","SECT":" ","MAREA":" ","LANE":"８０巷","ALLEY":" ","HOUSE_NO":"２１號","E_COORD97":164378.76999999999,"N_COORD97":2543823.0800000001,"ADDRESS":"育平七街８０巷２１號","OBJECTID":388642},"geometry":{"x":164378.77000000048,"y":2543823.0800000001}},{"attributes":{"ID":388667,"DIS_CODE":0,"TOWNNAME":"安平區","LI":"平通里","LIN":"28鄰","STREET":"育平七街","SECT":" ","MAREA":" ","LANE":"８０巷","ALLEY":" ","HOUSE_NO":"２２號","E_COORD97":164407.26999999999,"N_COORD97":2543825.9500000002,"ADDRESS":"育平七街８０巷２２號","OBJECTID":388643},"geometry":{"x":164407.27000000048,"y":2543825.9499999993}},{"attributes":{"ID":388668,"DIS_CODE":0,"TOWNNAME":"安平區","LI":"平通里","LIN":"28鄰","STREET":"育平七街","SECT":" ","MAREA":" ","LANE":"８０巷","ALLEY":" ","HOUSE_NO":"３１號","E_COORD97":164378.79999999999,"N_COORD97":2543847.3300000001,"ADDRESS":"育平七街８０巷３１號","OBJECTID":388644},"geometry":{"x":164378.80000000075,"y":2543847.3300000019}},{"attributes":{"ID":388669,"DIS_CODE":0,"TOWNNAME":"安平區","LI":"平通里","LIN":"28鄰","STREET":"育平七街","SECT":" ","MAREA":" ","LANE":"８０巷","ALLEY":" ","HOUSE_NO":"３３號","E_COORD97":164378.94,"N_COORD97":2543851.3199999998,"ADDRESS":"育平七街８０巷３３號","OBJECTID":388645},"geometry":{"x":164378.94000000041,"y":2543851.3200000003}},{"attributes":{"ID":388670,"DIS_CODE":0,"TOWNNAME":"安平區","LI":"平通里","LIN":"28鄰","STREET":"育平七街","SECT":" ","MAREA":" ","LANE":"８０巷","ALLEY":" ","HOUSE_NO":"３４號","E_COORD97":164407.31,"N_COORD97":2543854.8199999998,"ADDRESS":"育平七街８０巷３４號","OBJECTID":388646},"geometry":{"x":164407.31000000052,"y":2543854.8200000003}},{"attributes":{"ID":388671,"DIS_CODE":0,"TOWNNAME":"安平區","LI":"平通里","LIN":"28鄰","STREET":"育平七街","SECT":" ","MAREA":" ","LANE":"８０巷","ALLEY":" ","HOUSE_NO":"３５號","E_COORD97":164379.16,"N_COORD97":2543854.7400000002,"ADDRESS":"育平七街８０巷３５號","OBJECTID":388647},"geometry":{"x":164379.16000000015,"y":2543854.7400000021}},{"attributes":{"ID":388672,"DIS_CODE":0,"TOWNNAME":"安平區","LI":"平通里","LIN":"28鄰","STREET":"育平七街","SECT":" ","MAREA":" ","LANE":"８０巷","ALLEY":" ","HOUSE_NO":"３６號","E_COORD97":164407.51999999999,"N_COORD97":2543861.4900000002,"ADDRESS":"育平七街８０巷３６號","OBJECTID":388648},"geometry":{"x":164407.52000000048,"y":2543861.4900000002}},{"attributes":{"ID":388673,"DIS_CODE":0,"TOWNNAME":"安平區","LI":"平通里","LIN":"28鄰","STREET":"育平七街","SECT":" ","MAREA":" ","LANE":"８０巷","ALLEY":" ","HOUSE_NO":"３８號","E_COORD97":164407.42000000001,"N_COORD97":2543866.2799999998,"ADDRESS":"育平七街８０巷３８號","OBJECTID":388649},"geometry":{"x":164407.41999999993,"y":2543866.2800000012}},{"attributes":{"ID":388674,"DIS_CODE":0,"TOWNNAME":"安平區","LI":"平通里","LIN":"28鄰","STREET":"育平七街","SECT":" ","MAREA":" ","LANE":"８０巷","ALLEY":" ","HOUSE_NO":"４０號","E_COORD97":164407.09,"N_COORD97":2543870.3199999998,"ADDRESS":"育平七街８０巷４０號","OBJECTID":388650},"geometry":{"x":164407.09000000078,"y":2543870.3200000022}},{"attributes":{"ID":388675,"DIS_CODE":0,"TOWNNAME":"安平區","LI":"平通里","LIN":"28鄰","STREET":"育平七街","SECT":" ","MAREA":" ","LANE":"８０巷","ALLEY":" ","HOUSE_NO":"４２號","E_COORD97":164407.20000000001,"N_COORD97":2543875.2200000002,"ADDRESS":"育平七街８０巷４２號","OBJECTID":388651},"geometry":{"x":164407.20000000112,"y":2543875.2200000025}},{"attributes":{"ID":388676,"DIS_CODE":0,"TOWNNAME":"安平區","LI":"平通里","LIN":"28鄰","STREET":"育平七街","SECT":" ","MAREA":" ","LANE":"８０巷","ALLEY":" ","HOUSE_NO":"４２號之１","E_COORD97":164406.98000000001,"N_COORD97":2543879.1499999999,"ADDRESS":"育平七街８０巷４２號之１","OBJECTID":388652},"geometry":{"x":164406.98000000138,"y":2543879.1500000022}},{"attributes":{"ID":388677,"DIS_CODE":0,"TOWNNAME":"安平區","LI":"平通里","LIN":"28鄰","STREET":"育平七街","SECT":" ","MAREA":" ","LANE":"８０巷","ALLEY":" ","HOUSE_NO":"４６號","E_COORD97":164406.98000000001,"N_COORD97":2543882.8500000001,"ADDRESS":"育平七街８０巷４６號","OBJECTID":388653},"geometry":{"x":164406.98000000138,"y":2543882.8500000015}},{"attributes":{"ID":388678,"DIS_CODE":0,"TOWNNAME":"北區","LI":"和順里","LIN":"28鄰","STREET":"海安路","SECT":"三段","MAREA":" ","LANE":"２１９巷","ALLEY":" ","HOUSE_NO":"３７之２號","E_COORD97":167828.28,"N_COORD97":2545233.1099999999,"ADDRESS":"海安路三段２１９巷３７之２號","OBJECTID":388654},"geometry":{"x":167828.28000000026,"y":2545233.1100000031}},{"attributes":{"ID":388679,"DIS_CODE":0,"TOWNNAME":"北區","LI":"成德里","LIN":"28鄰","STREET":"育德路","SECT":" ","MAREA":" ","LANE":"１９９巷","ALLEY":" ","HOUSE_NO":"６０號","E_COORD97":168494.98000000001,"N_COORD97":2545705.1699999999,"ADDRESS":"育德路１９９巷６０號","OBJECTID":388655},"geometry":{"x":168494.98000000045,"y":2545705.1700000018}},{"attributes":{"ID":388680,"DIS_CODE":0,"TOWNNAME":"南區","LI":"金華里","LIN":"28鄰","STREET":"健康路","SECT":"二段","MAREA":" ","LANE":"４０１巷","ALLEY":" ","HOUSE_NO":"１４號","E_COORD97":166567.48999999999,"N_COORD97":2542454.5299999998,"ADDRESS":"健康路二段４０１巷１４號","OBJECTID":388656},"geometry":{"x":166567.48999999929,"y":2542454.5300000012}},{"attributes":{"ID":388681,"DIS_CODE":0,"TOWNNAME":"新營區","LI":"南興里","LIN":"28鄰","STREET":"建業路","SECT":" ","MAREA":" ","LANE":"１１１巷","ALLEY":" ","HOUSE_NO":"１０號","E_COORD97":178489.72,"N_COORD97":2577433.71,"ADDRESS":"建業路１１１巷１０號","OBJECTID":388657},"geometry":{"x":178489.72000000067,"y":2577433.7100000028}},{"attributes":{"ID":388682,"DIS_CODE":0,"TOWNNAME":"新營區","LI":"新東里","LIN":"28鄰","STREET":"東興九街","SECT":" ","MAREA":" ","LANE":"１２巷","ALLEY":" ","HOUSE_NO":"１２號","E_COORD97":180710.45000000001,"N_COORD97":2579825.2200000002,"ADDRESS":"東興九街１２巷１２號","OBJECTID":388658},"geometry":{"x":180710.45000000019,"y":2579825.2200000007}},{"attributes":{"ID":388683,"DIS_CODE":0,"TOWNNAME":"新營區","LI":"南興里","LIN":"28鄰","STREET":"建業路","SECT":" ","MAREA":" ","LANE":"１３７巷","ALLEY":" ","HOUSE_NO":"１１號","E_COORD97":178441.67999999999,"N_COORD97":2577441.7000000002,"ADDRESS":"建業路１３７巷１１號","OBJECTID":388659},"geometry":{"x":178441.6799999997,"y":2577441.7000000011}},{"attributes":{"ID":388684,"DIS_CODE":0,"TOWNNAME":"新營區","LI":"民榮里","LIN":"28鄰","STREET":"復興路","SECT":" ","MAREA":" ","LANE":"５１１巷","ALLEY":" ","HOUSE_NO":"３２號","E_COORD97":178096.67999999999,"N_COORD97":2578210.8399999999,"ADDRESS":"復興路５１１巷３２號","OBJECTID":388660},"geometry":{"x":178096.68000000063,"y":2578210.8400000017}},{"attributes":{"ID":388685,"DIS_CODE":0,"TOWNNAME":"新營區","LI":"民榮里","LIN":"28鄰","STREET":"復興路","SECT":" ","MAREA":" ","LANE":"５１１巷","ALLEY":" ","HOUSE_NO":"３３號","E_COORD97":178088.32000000001,"N_COORD97":2578174.3300000001,"ADDRESS":"復興路５１１巷３３號","OBJECTID":388661},"geometry":{"x":178088.32000000123,"y":2578174.3300000019}},{"attributes":{"ID":388686,"DIS_CODE":0,"TOWNNAME":"新營區","LI":"民榮里","LIN":"28鄰","STREET":"復興路","SECT":" ","MAREA":" ","LANE":"５１１巷","ALLEY":" ","HOUSE_NO":"４５號","E_COORD97":178112.76000000001,"N_COORD97":2578154.2799999998,"ADDRESS":"復興路５１１巷４５號","OBJECTID":388662},"geometry":{"x":178112.75999999978,"y":2578154.2799999993}},{"attributes":{"ID":388687,"DIS_CODE":0,"TOWNNAME":"新營區","LI":"民榮里","LIN":"28鄰","STREET":"復興路","SECT":" ","MAREA":" ","LANE":"５１１巷","ALLEY":" ","HOUSE_NO":"１３號","E_COORD97":178136.57000000001,"N_COORD97":2578227.2599999998,"ADDRESS":"復興路５１１巷１３號","OBJECTID":388663},"geometry":{"x":178136.5700000003,"y":2578227.2599999998}},{"attributes":{"ID":388688,"DIS_CODE":0,"TOWNNAME":"新營區","LI":"新東里","LIN":"28鄰","STREET":"東光街","SECT":" ","MAREA":" ","LANE":"８８巷","ALLEY":" ","HOUSE_NO":"１７號","E_COORD97":180646.45000000001,"N_COORD97":2579699.27,"ADDRESS":"東光街８８巷１７號","OBJECTID":388664},"geometry":{"x":180646.45000000205,"y":2579699.2700000014}},{"attributes":{"ID":388689,"DIS_CODE":0,"TOWNNAME":"新營區","LI":"民榮里","LIN":"28鄰","STREET":"復興路","SECT":" ","MAREA":" ","LANE":"５１１巷","ALLEY":" ","HOUSE_NO":"５１號","E_COORD97":178104.48000000001,"N_COORD97":2578145.46,"ADDRESS":"復興路５１１巷５１號","OBJECTID":388665},"geometry":{"x":178104.48000000138,"y":2578145.4600000009}},{"attributes":{"ID":388690,"DIS_CODE":0,"TOWNNAME":"新營區","LI":"民榮里","LIN":"28鄰","STREET":"復興路","SECT":" ","MAREA":" ","LANE":"５１１巷","ALLEY":" ","HOUSE_NO":"６３號","E_COORD97":178085.97,"N_COORD97":2578128.9399999999,"ADDRESS":"復興路５１１巷６３號","OBJECTID":388666},"geometry":{"x":178085.9700000016,"y":2578128.9400000013}},{"attributes":{"ID":388691,"DIS_CODE":0,"TOWNNAME":"新營區","LI":"民榮里","LIN":"28鄰","STREET":"復興路","SECT":" ","MAREA":" ","LANE":"５１１巷","ALLEY":" ","HOUSE_NO":"５３號","E_COORD97":178100.38,"N_COORD97":2578143.2599999998,"ADDRESS":"復興路５１１巷５３號","OBJECTID":388667},"geometry":{"x":178100.38000000175,"y":2578143.2600000035}},{"attributes":{"ID":388692,"DIS_CODE":0,"TOWNNAME":"新營區","LI":"民榮里","LIN":"28鄰","STREET":"復興路","SECT":" ","MAREA":" ","LANE":"５１１巷","ALLEY":" ","HOUSE_NO":"３６號","E_COORD97":178091.54000000001,"N_COORD97":2578205.3300000001,"ADDRESS":"復興路５１１巷３６號","OBJECTID":388668},"geometry":{"x":178091.54000000097,"y":2578205.3300000019}},{"attributes":{"ID":388693,"DIS_CODE":0,"TOWNNAME":"新營區","LI":"民榮里","LIN":"28鄰","STREET":"復興路","SECT":" ","MAREA":" ","LANE":"５１１巷","ALLEY":" ","HOUSE_NO":"２７號","E_COORD97":178096.53,"N_COORD97":2578182.04,"ADDRESS":"復興路５１１巷２７號","OBJECTID":388669},"geometry":{"x":178096.53000000119,"y":2578182.040000001}},{"attributes":{"ID":388694,"DIS_CODE":0,"TOWNNAME":"新營區","LI":"民榮里","LIN":"28鄰","STREET":"復興路","SECT":" ","MAREA":" ","LANE":"５１１巷","ALLEY":" ","HOUSE_NO":"２３號","E_COORD97":178122.23999999999,"N_COORD97":2578212.9300000002,"ADDRESS":"復興路５１１巷２３號","OBJECTID":388670},"geometry":{"x":178122.24000000115,"y":2578212.9300000034}},{"attributes":{"ID":388695,"DIS_CODE":0,"TOWNNAME":"新營區","LI":"民榮里","LIN":"28鄰","STREET":"復興路","SECT":" ","MAREA":" ","LANE":"５１１巷","ALLEY":" ","HOUSE_NO":"３號","E_COORD97":178176.23999999999,"N_COORD97":2578210.4500000002,"ADDRESS":"復興路５１１巷３號","OBJECTID":388671},"geometry":{"x":178176.24000000209,"y":2578210.4500000011}},{"attributes":{"ID":388696,"DIS_CODE":0,"TOWNNAME":"新營區","LI":"民榮里","LIN":"28鄰","STREET":"復興路","SECT":" ","MAREA":" ","LANE":"５１１巷","ALLEY":" ","HOUSE_NO":"７號","E_COORD97":178164.88,"N_COORD97":2578199.4199999999,"ADDRESS":"復興路５１１巷７號","OBJECTID":388672},"geometry":{"x":178164.88000000175,"y":2578199.4199999999}},{"attributes":{"ID":388697,"DIS_CODE":0,"TOWNNAME":"新營區","LI":"民榮里","LIN":"28鄰","STREET":"復興路","SECT":" ","MAREA":" ","LANE":"５１１巷","ALLEY":" ","HOUSE_NO":"５５號","E_COORD97":178097.29000000001,"N_COORD97":2578139.96,"ADDRESS":"復興路５１１巷５５號","OBJECTID":388673},"geometry":{"x":178097.29000000004,"y":2578139.9600000028}},{"attributes":{"ID":388698,"DIS_CODE":0,"TOWNNAME":"新營區","LI":"民榮里","LIN":"28鄰","STREET":"復興路","SECT":" ","MAREA":" ","LANE":"５１１巷","ALLEY":" ","HOUSE_NO":"６１號","E_COORD97":178089.06,"N_COORD97":2578132.25,"ADDRESS":"復興路５１１巷６１號","OBJECTID":388674},"geometry":{"x":178089.06000000052,"y":2578132.25}},{"attributes":{"ID":388699,"DIS_CODE":0,"TOWNNAME":"新營區","LI":"民榮里","LIN":"28鄰","STREET":"復興路","SECT":" ","MAREA":" ","LANE":"５１１巷","ALLEY":" ","HOUSE_NO":"２１號","E_COORD97":178125.32999999999,"N_COORD97":2578216.2400000002,"ADDRESS":"復興路５１１巷２１號","OBJECTID":388675},"geometry":{"x":178125.33000000101,"y":2578216.2400000021}},{"attributes":{"ID":388700,"DIS_CODE":0,"TOWNNAME":"新營區","LI":"民榮里","LIN":"28鄰","STREET":"復興路","SECT":" ","MAREA":" ","LANE":"５１１巷","ALLEY":" ","HOUSE_NO":"３８號","E_COORD97":178087.44,"N_COORD97":2578203.1299999999,"ADDRESS":"復興路５１１巷３８號","OBJECTID":388676},"geometry":{"x":178087.44000000134,"y":2578203.129999999}},{"attributes":{"ID":388701,"DIS_CODE":0,"TOWNNAME":"新營區","LI":"南興里","LIN":"28鄰","STREET":"建業路","SECT":" ","MAREA":" ","LANE":"１３７巷","ALLEY":" ","HOUSE_NO":"３號","E_COORD97":178442.64999999999,"N_COORD97":2577458.2999999998,"ADDRESS":"建業路１３７巷３號","OBJECTID":388677},"geometry":{"x":178442.65000000037,"y":2577458.3000000007}},{"attributes":{"ID":388702,"DIS_CODE":0,"TOWNNAME":"新營區","LI":"新東里","LIN":"28鄰","STREET":"東光街","SECT":" ","MAREA":" ","LANE":"５１巷","ALLEY":" ","HOUSE_NO":"３號","E_COORD97":180597.98000000001,"N_COORD97":2579645.23,"ADDRESS":"東光街５１巷３號","OBJECTID":388678},"geometry":{"x":180597.98000000138,"y":2579645.2300000004}},{"attributes":{"ID":388703,"DIS_CODE":0,"TOWNNAME":"新營區","LI":"民榮里","LIN":"28鄰","STREET":"復興路","SECT":" ","MAREA":" ","LANE":"５１１巷","ALLEY":" ","HOUSE_NO":"３０號","E_COORD97":178099.76000000001,"N_COORD97":2578214.1499999999,"ADDRESS":"復興路５１１巷３０號","OBJECTID":388679},"geometry":{"x":178099.76000000071,"y":2578214.1500000004}},{"attributes":{"ID":388704,"DIS_CODE":0,"TOWNNAME":"新營區","LI":"民榮里","LIN":"28鄰","STREET":"復興路","SECT":" ","MAREA":" ","LANE":"５１１巷","ALLEY":" ","HOUSE_NO":"２２號","E_COORD97":178112.07000000001,"N_COORD97":2578225.1600000001,"ADDRESS":"復興路５１１巷２２號","OBJECTID":388680},"geometry":{"x":178112.07000000123,"y":2578225.1600000001}},{"attributes":{"ID":388705,"DIS_CODE":0,"TOWNNAME":"歸仁區","LI":"南保里","LIN":"28鄰","STREET":"民權北路","SECT":" ","MAREA":" ","LANE":"６１巷","ALLEY":" ","HOUSE_NO":"５８號","E_COORD97":176846.04000000001,"N_COORD97":2541052.29,"ADDRESS":"民權北路６１巷５８號","OBJECTID":388681},"geometry":{"x":176846.04000000004,"y":2541052.290000001}},{"attributes":{"ID":388706,"DIS_CODE":0,"TOWNNAME":"歸仁區","LI":"南興里","LIN":"28鄰","STREET":"文化街","SECT":"三段","MAREA":" ","LANE":"７７６巷","ALLEY":" ","HOUSE_NO":"３６號","E_COORD97":175348.69,"N_COORD97":2541293.8300000001,"ADDRESS":"文化街三段７７６巷３６號","OBJECTID":388682},"geometry":{"x":175348.69000000041,"y":2541293.8300000019}},{"attributes":{"ID":388707,"DIS_CODE":0,"TOWNNAME":"歸仁區","LI":"後市里","LIN":"28鄰","STREET":"民族北街","SECT":" ","MAREA":" ","LANE":"１７巷","ALLEY":" ","HOUSE_NO":"２０號地下室","E_COORD97":177377.13,"N_COORD97":2540905.75,"ADDRESS":"民族北街１７巷２０號地下室","OBJECTID":388683},"geometry":{"x":177377.13000000082,"y":2540905.75}},{"attributes":{"ID":388708,"DIS_CODE":0,"TOWNNAME":"歸仁區","LI":"南保里","LIN":"28鄰","STREET":"民權北路","SECT":" ","MAREA":" ","LANE":"６１巷","ALLEY":" ","HOUSE_NO":"４０號","E_COORD97":176878.84,"N_COORD97":2541049.29,"ADDRESS":"民權北路６１巷４０號","OBJECTID":388684},"geometry":{"x":176878.84000000078,"y":2541049.290000001}},{"attributes":{"ID":388709,"DIS_CODE":0,"TOWNNAME":"歸仁區","LI":"南保里","LIN":"28鄰","STREET":"民權北路","SECT":" ","MAREA":" ","LANE":"６１巷","ALLEY":" ","HOUSE_NO":"７２號","E_COORD97":176800.84,"N_COORD97":2541054.29,"ADDRESS":"民權北路６１巷７２號","OBJECTID":388685},"geometry":{"x":176800.84000000078,"y":2541054.2899999991}},{"attributes":{"ID":388710,"DIS_CODE":0,"TOWNNAME":"歸仁區","LI":"南保里","LIN":"28鄰","STREET":"民權北路","SECT":" ","MAREA":" ","LANE":"６１巷","ALLEY":" ","HOUSE_NO":"６０號","E_COORD97":176840.84,"N_COORD97":2541052.29,"ADDRESS":"民權北路６１巷６０號","OBJECTID":388686},"geometry":{"x":176840.83999999985,"y":2541052.290000001}},{"attributes":{"ID":388711,"DIS_CODE":0,"TOWNNAME":"歸仁區","LI":"南保里","LIN":"28鄰","STREET":"民權北路","SECT":" ","MAREA":" ","LANE":"６１巷","ALLEY":" ","HOUSE_NO":"６４號","E_COORD97":176831.64000000001,"N_COORD97":2541053.29,"ADDRESS":"民權北路６１巷６４號","OBJECTID":388687},"geometry":{"x":176831.63999999966,"y":2541053.2899999991}},{"attributes":{"ID":388712,"DIS_CODE":0,"TOWNNAME":"歸仁區","LI":"南興里","LIN":"28鄰","STREET":"文化街","SECT":"三段","MAREA":" ","LANE":"７７６巷","ALLEY":" ","HOUSE_NO":"３３號","E_COORD97":175339.39000000001,"N_COORD97":2541293.8300000001,"ADDRESS":"文化街三段７７６巷３３號","OBJECTID":388688},"geometry":{"x":175339.3900000006,"y":2541293.8300000019}},{"attributes":{"ID":388713,"DIS_CODE":0,"TOWNNAME":"歸仁區","LI":"歸仁里","LIN":"28鄰","STREET":"中山路","SECT":"一段","MAREA":" ","LANE":"２巷","ALLEY":" ","HOUSE_NO":"６１之１號","E_COORD97":179632.85999999999,"N_COORD97":2540804.2599999998,"ADDRESS":"中山路一段２巷６１之１號","OBJECTID":388689},"geometry":{"x":179632.86000000034,"y":2540804.2599999998}},{"attributes":{"ID":388714,"DIS_CODE":0,"TOWNNAME":"歸仁區","LI":"媽廟里","LIN":"28鄰","STREET":"保大路","SECT":"一段","MAREA":" ","LANE":"１００巷","ALLEY":" ","HOUSE_NO":"３５號","E_COORD97":177862.98000000001,"N_COORD97":2544114.7200000002,"ADDRESS":"保大路一段１００巷３５號","OBJECTID":388690},"geometry":{"x":177862.98000000231,"y":2544114.7200000007}},{"attributes":{"ID":388715,"DIS_CODE":0,"TOWNNAME":"歸仁區","LI":"新厝里","LIN":"28鄰","STREET":"中正南路","SECT":"一段","MAREA":" ","LANE":"４５３巷","ALLEY":" ","HOUSE_NO":"１９號","E_COORD97":176968.17000000001,"N_COORD97":2540010.79,"ADDRESS":"中正南路一段４５３巷１９號","OBJECTID":388691},"geometry":{"x":176968.17000000086,"y":2540010.7900000028}},{"attributes":{"ID":388716,"DIS_CODE":0,"TOWNNAME":"歸仁區","LI":"歸仁里","LIN":"28鄰","STREET":"中山路","SECT":"一段","MAREA":" ","LANE":"３０巷","ALLEY":" ","HOUSE_NO":"９號","E_COORD97":179579.23000000001,"N_COORD97":2540381.5699999998,"ADDRESS":"中山路一段３０巷９號","OBJECTID":388692},"geometry":{"x":179579.23000000138,"y":2540381.5700000003}},{"attributes":{"ID":388717,"DIS_CODE":0,"TOWNNAME":"歸仁區","LI":"歸仁里","LIN":"28鄰","STREET":"中山路","SECT":"一段","MAREA":" ","LANE":"３０巷","ALLEY":" ","HOUSE_NO":"１號","E_COORD97":179577.03,"N_COORD97":2540358.5699999998,"ADDRESS":"中山路一段３０巷１號","OBJECTID":388693},"geometry":{"x":179577.03000000119,"y":2540358.5700000003}},{"attributes":{"ID":388718,"DIS_CODE":0,"TOWNNAME":"歸仁區","LI":"辜厝里","LIN":"28鄰","STREET":"大順街","SECT":" ","MAREA":" ","LANE":"６９巷","ALLEY":" ","HOUSE_NO":"７號","E_COORD97":177311.98999999999,"N_COORD97":2540582.6800000002,"ADDRESS":"大順街６９巷７號","OBJECTID":388694},"geometry":{"x":177311.99000000115,"y":2540582.6800000016}},{"attributes":{"ID":388719,"DIS_CODE":0,"TOWNNAME":"歸仁區","LI":"辜厝里","LIN":"28鄰","STREET":"大吉街","SECT":" ","MAREA":" ","LANE":"１１３巷","ALLEY":" ","HOUSE_NO":"７號","E_COORD97":177243.44,"N_COORD97":2540568.6800000002,"ADDRESS":"大吉街１１３巷７號","OBJECTID":388695},"geometry":{"x":177243.44000000134,"y":2540568.6800000016}},{"attributes":{"ID":388720,"DIS_CODE":0,"TOWNNAME":"歸仁區","LI":"崙頂里","LIN":"28鄰","STREET":"成功十街","SECT":" ","MAREA":" ","LANE":"６２巷","ALLEY":" ","HOUSE_NO":"１號","E_COORD97":177811.82000000001,"N_COORD97":2539701.1099999999,"ADDRESS":"成功十街６２巷１號","OBJECTID":388696},"geometry":{"x":177811.82000000123,"y":2539701.1100000013}},{"attributes":{"ID":388721,"DIS_CODE":0,"TOWNNAME":"歸仁區","LI":"南興里","LIN":"28鄰","STREET":"文化街","SECT":"三段","MAREA":" ","LANE":"７７６巷","ALLEY":" ","HOUSE_NO":"３９號","E_COORD97":175339.48999999999,"N_COORD97":2541312.8300000001,"ADDRESS":"文化街三段７７６巷３９號","OBJECTID":388697},"geometry":{"x":175339.49000000022,"y":2541312.8300000001}},{"attributes":{"ID":388722,"DIS_CODE":0,"TOWNNAME":"歸仁區","LI":"南興里","LIN":"28鄰","STREET":"文化街","SECT":"三段","MAREA":" ","LANE":"７７６巷","ALLEY":" ","HOUSE_NO":"３８號","E_COORD97":175348.69,"N_COORD97":2541297.8300000001,"ADDRESS":"文化街三段７７６巷３８號","OBJECTID":388698},"geometry":{"x":175348.69000000041,"y":2541297.8300000019}},{"attributes":{"ID":388723,"DIS_CODE":0,"TOWNNAME":"歸仁區","LI":"南保里","LIN":"28鄰","STREET":"民權北路","SECT":" ","MAREA":" ","LANE":"６１巷","ALLEY":" ","HOUSE_NO":"２８號","E_COORD97":176911.64000000001,"N_COORD97":2541045.29,"ADDRESS":"民權北路６１巷２８號","OBJECTID":388699},"geometry":{"x":176911.63999999873,"y":2541045.290000001}},{"attributes":{"ID":388724,"DIS_CODE":0,"TOWNNAME":"歸仁區","LI":"後市里","LIN":"28鄰","STREET":"民族北街","SECT":" ","MAREA":" ","LANE":"１７巷","ALLEY":" ","HOUSE_NO":"２６號","E_COORD97":177349.67999999999,"N_COORD97":2540890.75,"ADDRESS":"民族北街１７巷２６號","OBJECTID":388700},"geometry":{"x":177349.68000000063,"y":2540890.7500000019}},{"attributes":{"ID":388725,"DIS_CODE":0,"TOWNNAME":"歸仁區","LI":"後市里","LIN":"28鄰","STREET":"民族北街","SECT":" ","MAREA":" ","LANE":"１７巷","ALLEY":" ","HOUSE_NO":"３０號","E_COORD97":177341.48000000001,"N_COORD97":2540894.75,"ADDRESS":"民族北街１７巷３０號","OBJECTID":388701},"geometry":{"x":177341.48000000138,"y":2540894.7500000019}},{"attributes":{"ID":388726,"DIS_CODE":0,"TOWNNAME":"歸仁區","LI":"南保里","LIN":"28鄰","STREET":"民權北路","SECT":" ","MAREA":" ","LANE":"６１巷","ALLEY":" ","HOUSE_NO":"６８號","E_COORD97":176819.34,"N_COORD97":2541052.29,"ADDRESS":"民權北路６１巷６８號","OBJECTID":388702},"geometry":{"x":176819.34000000078,"y":2541052.290000001}},{"attributes":{"ID":388727,"DIS_CODE":0,"TOWNNAME":"歸仁區","LI":"後市里","LIN":"28鄰","STREET":"民族北街","SECT":" ","MAREA":" ","LANE":"１７巷","ALLEY":" ","HOUSE_NO":"８號","E_COORD97":177405.82999999999,"N_COORD97":2540892.75,"ADDRESS":"民族北街１７巷８號","OBJECTID":388703},"geometry":{"x":177405.83000000194,"y":2540892.75}},{"attributes":{"ID":388728,"DIS_CODE":0,"TOWNNAME":"歸仁區","LI":"南興里","LIN":"28鄰","STREET":"文化街","SECT":"三段","MAREA":" ","LANE":"７７６巷","ALLEY":" ","HOUSE_NO":"５號","E_COORD97":175336.84,"N_COORD97":2541235.8300000001,"ADDRESS":"文化街三段７７６巷５號","OBJECTID":388704},"geometry":{"x":175336.83999999985,"y":2541235.8300000019}},{"attributes":{"ID":388729,"DIS_CODE":0,"TOWNNAME":"歸仁區","LI":"南興里","LIN":"28鄰","STREET":"文化街","SECT":"三段","MAREA":" ","LANE":"７７６巷","ALLEY":" ","HOUSE_NO":"２３號","E_COORD97":175337.19,"N_COORD97":2541269.8300000001,"ADDRESS":"文化街三段７７６巷２３號","OBJECTID":388705},"geometry":{"x":175337.19000000041,"y":2541269.8300000019}},{"attributes":{"ID":388730,"DIS_CODE":0,"TOWNNAME":"歸仁區","LI":"後市里","LIN":"28鄰","STREET":"民族北街","SECT":" ","MAREA":" ","LANE":"１７巷","ALLEY":" ","HOUSE_NO":"２８號","E_COORD97":177345.57999999999,"N_COORD97":2540890.75,"ADDRESS":"民族北街１７巷２８號","OBJECTID":388706},"geometry":{"x":177345.58000000101,"y":2540890.7500000019}},{"attributes":{"ID":388731,"DIS_CODE":0,"TOWNNAME":"歸仁區","LI":"後市里","LIN":"28鄰","STREET":"民族北街","SECT":" ","MAREA":" ","LANE":"１７巷","ALLEY":" ","HOUSE_NO":"２０號","E_COORD97":177376.38,"N_COORD97":2540905.75,"ADDRESS":"民族北街１７巷２０號","OBJECTID":388707},"geometry":{"x":177376.37999999896,"y":2540905.75}},{"attributes":{"ID":388732,"DIS_CODE":0,"TOWNNAME":"歸仁區","LI":"南保里","LIN":"28鄰","STREET":"民權北路","SECT":" ","MAREA":" ","LANE":"６１巷","ALLEY":" ","HOUSE_NO":"４２號","E_COORD97":176873.64000000001,"N_COORD97":2541049.29,"ADDRESS":"民權北路６１巷４２號","OBJECTID":388708},"geometry":{"x":176873.63999999966,"y":2541049.290000001}},{"attributes":{"ID":388733,"DIS_CODE":0,"TOWNNAME":"歸仁區","LI":"南興里","LIN":"28鄰","STREET":"文化街","SECT":"三段","MAREA":" ","LANE":"７７６巷","ALLEY":" ","HOUSE_NO":"４０號","E_COORD97":175348.69,"N_COORD97":2541302.8300000001,"ADDRESS":"文化街三段７７６巷４０號","OBJECTID":388709},"geometry":{"x":175348.69000000041,"y":2541302.8299999982}},{"attributes":{"ID":388734,"DIS_CODE":0,"TOWNNAME":"歸仁區","LI":"六甲里","LIN":"28鄰","STREET":"六甲路","SECT":" ","MAREA":" ","LANE":"２５４巷","ALLEY":" ","HOUSE_NO":"１６號","E_COORD97":175880.62,"N_COORD97":2539268.25,"ADDRESS":"六甲路２５４巷１６號","OBJECTID":388710},"geometry":{"x":175880.62000000104,"y":2539268.25}},{"attributes":{"ID":388735,"DIS_CODE":0,"TOWNNAME":"歸仁區","LI":"辜厝里","LIN":"28鄰","STREET":"大吉街","SECT":" ","MAREA":" ","LANE":"１１３巷","ALLEY":" ","HOUSE_NO":"１號","E_COORD97":177225.04000000001,"N_COORD97":2540568.6800000002,"ADDRESS":"大吉街１１３巷１號","OBJECTID":388711},"geometry":{"x":177225.04000000097,"y":2540568.6800000016}},{"attributes":{"ID":388736,"DIS_CODE":0,"TOWNNAME":"新營區","LI":"大宏里","LIN":"28鄰","STREET":"新東街","SECT":" ","MAREA":" ","LANE":"３４巷","ALLEY":" ","HOUSE_NO":"７號","E_COORD97":180816.22,"N_COORD97":2578647.5099999998,"ADDRESS":"新東街３４巷７號","OBJECTID":388712},"geometry":{"x":180816.21999999974,"y":2578647.5100000016}},{"attributes":{"ID":388737,"DIS_CODE":0,"TOWNNAME":"新營區","LI":"大宏里","LIN":"28鄰","STREET":"新東街","SECT":" ","MAREA":" ","LANE":"３４巷","ALLEY":" ","HOUSE_NO":"６號","E_COORD97":180805.98999999999,"N_COORD97":2578649.77,"ADDRESS":"新東街３４巷６號","OBJECTID":388713},"geometry":{"x":180805.99000000115,"y":2578649.7699999996}},{"attributes":{"ID":388738,"DIS_CODE":0,"TOWNNAME":"新營區","LI":"忠政里","LIN":"28鄰","STREET":"中正路","SECT":" ","MAREA":" ","LANE":"３９巷","ALLEY":" ","HOUSE_NO":"９１號","E_COORD97":179840.44,"N_COORD97":2579262.3100000001,"ADDRESS":"中正路３９巷９１號","OBJECTID":388714},"geometry":{"x":179840.44000000134,"y":2579262.3100000042}},{"attributes":{"ID":388739,"DIS_CODE":0,"TOWNNAME":"新營區","LI":"忠政里","LIN":"28鄰","STREET":"中正路","SECT":" ","MAREA":" ","LANE":"３９巷","ALLEY":" ","HOUSE_NO":"９６號","E_COORD97":179751.42999999999,"N_COORD97":2579254.98,"ADDRESS":"中正路３９巷９６號","OBJECTID":388715},"geometry":{"x":179751.43000000063,"y":2579254.9800000023}},{"attributes":{"ID":388740,"DIS_CODE":0,"TOWNNAME":"新營區","LI":"新北里","LIN":"28鄰","STREET":"新北二街","SECT":" ","MAREA":" ","LANE":"６巷","ALLEY":" ","HOUSE_NO":"５０號","E_COORD97":178948.10999999999,"N_COORD97":2578731.6600000001,"ADDRESS":"新北二街６巷５０號","OBJECTID":388716},"geometry":{"x":178948.11000000034,"y":2578731.660000002}},{"attributes":{"ID":388741,"DIS_CODE":0,"TOWNNAME":"北區","LI":"成德里","LIN":"28鄰","STREET":"育德路","SECT":" ","MAREA":" ","LANE":"１９９巷","ALLEY":" ","HOUSE_NO":"７８號","E_COORD97":168451.95999999999,"N_COORD97":2545706.9199999999,"ADDRESS":"育德路１９９巷７８號","OBJECTID":388717},"geometry":{"x":168451.95999999996,"y":2545706.9200000018}},{"attributes":{"ID":388742,"DIS_CODE":0,"TOWNNAME":"北區","LI":"成德里","LIN":"28鄰","STREET":"育德路","SECT":" ","MAREA":" ","LANE":"１９９巷","ALLEY":" ","HOUSE_NO":"８０號","E_COORD97":168446.07999999999,"N_COORD97":2545706.9199999999,"ADDRESS":"育德路１９９巷８０號","OBJECTID":388718},"geometry":{"x":168446.08000000007,"y":2545706.9200000018}},{"attributes":{"ID":388743,"DIS_CODE":0,"TOWNNAME":"北區","LI":"成德里","LIN":"28鄰","STREET":"育德路","SECT":" ","MAREA":" ","LANE":"１９９巷","ALLEY":" ","HOUSE_NO":"８２號","E_COORD97":168440.37,"N_COORD97":2545706.6800000002,"ADDRESS":"育德路１９９巷８２號","OBJECTID":388719},"geometry":{"x":168440.37000000104,"y":2545706.6799999997}},{"attributes":{"ID":388744,"DIS_CODE":0,"TOWNNAME":"北區","LI":"成德里","LIN":"28鄰","STREET":"育德路","SECT":" ","MAREA":" ","LANE":"１９９巷","ALLEY":" ","HOUSE_NO":"８６號","E_COORD97":168434.01999999999,"N_COORD97":2545706.8399999999,"ADDRESS":"育德路１９９巷８６號","OBJECTID":388720},"geometry":{"x":168434.01999999955,"y":2545706.8400000036}},{"attributes":{"ID":388745,"DIS_CODE":0,"TOWNNAME":"北區","LI":"成德里","LIN":"28鄰","STREET":"育德路","SECT":" ","MAREA":" ","LANE":"１９９巷","ALLEY":" ","HOUSE_NO":"８８號","E_COORD97":168427.82999999999,"N_COORD97":2545706.8399999999,"ADDRESS":"育德路１９９巷８８號","OBJECTID":388721},"geometry":{"x":168427.83000000007,"y":2545706.8400000036}},{"attributes":{"ID":388746,"DIS_CODE":0,"TOWNNAME":"北區","LI":"成德里","LIN":"28鄰","STREET":"育德路","SECT":" ","MAREA":" ","LANE":"１９９巷","ALLEY":" ","HOUSE_NO":"９０號","E_COORD97":168420.53,"N_COORD97":2545706.8399999999,"ADDRESS":"育德路１９９巷９０號","OBJECTID":388722},"geometry":{"x":168420.53000000119,"y":2545706.8400000036}},{"attributes":{"ID":388747,"DIS_CODE":0,"TOWNNAME":"北區","LI":"成德里","LIN":"28鄰","STREET":"育德路","SECT":" ","MAREA":" ","LANE":"１９９巷","ALLEY":" ","HOUSE_NO":"９２號","E_COORD97":168413.85999999999,"N_COORD97":2545707.4700000002,"ADDRESS":"育德路１９９巷９２號","OBJECTID":388723},"geometry":{"x":168413.86000000034,"y":2545707.4700000025}},{"attributes":{"ID":388748,"DIS_CODE":0,"TOWNNAME":"北區","LI":"成德里","LIN":"28鄰","STREET":"育德路","SECT":" ","MAREA":" ","LANE":"１９９巷","ALLEY":" ","HOUSE_NO":"９６號","E_COORD97":168407.19,"N_COORD97":2545706.2799999998,"ADDRESS":"育德路１９９巷９６號","OBJECTID":388724},"geometry":{"x":168407.19000000041,"y":2545706.2799999993}},{"attributes":{"ID":388749,"DIS_CODE":0,"TOWNNAME":"北區","LI":"成德里","LIN":"28鄰","STREET":"育德路","SECT":" ","MAREA":" ","LANE":"１９９巷","ALLEY":" ","HOUSE_NO":"９８號","E_COORD97":168400.20999999999,"N_COORD97":2545706.6000000001,"ADDRESS":"育德路１９９巷９８號","OBJECTID":388725},"geometry":{"x":168400.21000000089,"y":2545706.5999999996}},{"attributes":{"ID":388750,"DIS_CODE":0,"TOWNNAME":"北區","LI":"成德里","LIN":"28鄰","STREET":"育德路","SECT":" ","MAREA":" ","LANE":"１９９巷","ALLEY":" ","HOUSE_NO":"１００號","E_COORD97":168393.22,"N_COORD97":2545706.6000000001,"ADDRESS":"育德路１９９巷１００號","OBJECTID":388726},"geometry":{"x":168393.22000000067,"y":2545706.5999999996}},{"attributes":{"ID":388751,"DIS_CODE":0,"TOWNNAME":"北區","LI":"成德里","LIN":"28鄰","STREET":"育德路","SECT":" ","MAREA":" ","LANE":"１９９巷","ALLEY":" ","HOUSE_NO":"１０２號","E_COORD97":168386.87,"N_COORD97":2545707.3999999999,"ADDRESS":"育德路１９９巷１０２號","OBJECTID":388727},"geometry":{"x":168386.87000000011,"y":2545707.4000000022}},{"attributes":{"ID":388752,"DIS_CODE":0,"TOWNNAME":"北區","LI":"成德里","LIN":"28鄰","STREET":"育德路","SECT":" ","MAREA":" ","LANE":"１９９巷","ALLEY":" ","HOUSE_NO":"１０６號","E_COORD97":168380.67999999999,"N_COORD97":2545707.3999999999,"ADDRESS":"育德路１９９巷１０６號","OBJECTID":388728},"geometry":{"x":168380.6799999997,"y":2545707.4000000022}},{"attributes":{"ID":388753,"DIS_CODE":0,"TOWNNAME":"北區","LI":"成德里","LIN":"28鄰","STREET":"育德路","SECT":" ","MAREA":" ","LANE":"１９９巷","ALLEY":" ","HOUSE_NO":"１０８號","E_COORD97":168374.01000000001,"N_COORD97":2545707.8700000001,"ADDRESS":"育德路１９９巷１０８號","OBJECTID":388729},"geometry":{"x":168374.01000000164,"y":2545707.8700000048}},{"attributes":{"ID":388754,"DIS_CODE":0,"TOWNNAME":"北區","LI":"成德里","LIN":"28鄰","STREET":"育德路","SECT":" ","MAREA":" ","LANE":"２２１巷","ALLEY":" ","HOUSE_NO":"５１號","E_COORD97":168498.79000000001,"N_COORD97":2545747.1600000001,"ADDRESS":"育德路２２１巷５１號","OBJECTID":388730},"geometry":{"x":168498.79000000004,"y":2545747.160000002}},{"attributes":{"ID":388755,"DIS_CODE":0,"TOWNNAME":"北區","LI":"成德里","LIN":"28鄰","STREET":"育德路","SECT":" ","MAREA":" ","LANE":"２２１巷","ALLEY":" ","HOUSE_NO":"５３號","E_COORD97":168491.48999999999,"N_COORD97":2545747.7200000002,"ADDRESS":"育德路２２１巷５３號","OBJECTID":388731},"geometry":{"x":168491.48999999929,"y":2545747.7200000007}},{"attributes":{"ID":388756,"DIS_CODE":0,"TOWNNAME":"北區","LI":"成德里","LIN":"28鄰","STREET":"育德路","SECT":" ","MAREA":" ","LANE":"２２１巷","ALLEY":" ","HOUSE_NO":"７３號","E_COORD97":168421.79999999999,"N_COORD97":2545751.1299999999,"ADDRESS":"育德路２２１巷７３號","OBJECTID":388732},"geometry":{"x":168421.80000000075,"y":2545751.1299999971}},{"attributes":{"ID":388757,"DIS_CODE":0,"TOWNNAME":"北區","LI":"成德里","LIN":"28鄰","STREET":"育德路","SECT":" ","MAREA":" ","LANE":"２２１巷","ALLEY":" ","HOUSE_NO":"７５號","E_COORD97":168414.01999999999,"N_COORD97":2545751.6099999999,"ADDRESS":"育德路２２１巷７５號","OBJECTID":388733},"geometry":{"x":168414.01999999955,"y":2545751.6099999994}},{"attributes":{"ID":388758,"DIS_CODE":0,"TOWNNAME":"北區","LI":"成德里","LIN":"28鄰","STREET":"育德路","SECT":" ","MAREA":" ","LANE":"２２１巷","ALLEY":" ","HOUSE_NO":"７７號","E_COORD97":168407.82999999999,"N_COORD97":2545751.77,"ADDRESS":"育德路２２１巷７７號","OBJECTID":388734},"geometry":{"x":168407.83000000194,"y":2545751.7700000014}},{"attributes":{"ID":388759,"DIS_CODE":0,"TOWNNAME":"北區","LI":"成德里","LIN":"28鄰","STREET":"育德路","SECT":" ","MAREA":" ","LANE":"２２１巷","ALLEY":" ","HOUSE_NO":"７９號","E_COORD97":168400.51999999999,"N_COORD97":2545751.9199999999,"ADDRESS":"育德路２２１巷７９號","OBJECTID":388735},"geometry":{"x":168400.51999999955,"y":2545751.9200000018}},{"attributes":{"ID":388760,"DIS_CODE":0,"TOWNNAME":"北區","LI":"成德里","LIN":"28鄰","STREET":"育德路","SECT":" ","MAREA":" ","LANE":"２２１巷","ALLEY":" ","HOUSE_NO":"８１號","E_COORD97":168393.06,"N_COORD97":2545752.0800000001,"ADDRESS":"育德路２２１巷８１號","OBJECTID":388736},"geometry":{"x":168393.05999999959,"y":2545752.0800000001}},{"attributes":{"ID":388761,"DIS_CODE":0,"TOWNNAME":"北區","LI":"成德里","LIN":"28鄰","STREET":"育德路","SECT":" ","MAREA":" ","LANE":"２２１巷","ALLEY":" ","HOUSE_NO":"８３號","E_COORD97":168384.32999999999,"N_COORD97":2545752.2400000002,"ADDRESS":"育德路２２１巷８３號","OBJECTID":388737},"geometry":{"x":168384.33000000101,"y":2545752.2400000021}},{"attributes":{"ID":388762,"DIS_CODE":0,"TOWNNAME":"北區","LI":"成德里","LIN":"28鄰","STREET":"育德路","SECT":" ","MAREA":" ","LANE":"２２１巷","ALLEY":" ","HOUSE_NO":"８５號","E_COORD97":168376.54999999999,"N_COORD97":2545752.5600000001,"ADDRESS":"育德路２２１巷８５號","OBJECTID":388738},"geometry":{"x":168376.54999999981,"y":2545752.5600000005}},{"attributes":{"ID":388763,"DIS_CODE":0,"TOWNNAME":"北區","LI":"大豐里","LIN":"28鄰","STREET":"文賢路","SECT":" ","MAREA":" ","LANE":"３６５巷","ALLEY":" ","HOUSE_NO":"４７號","E_COORD97":167209.35000000001,"N_COORD97":2545379.52,"ADDRESS":"文賢路３６５巷４７號","OBJECTID":388739},"geometry":{"x":167209.35000000056,"y":2545379.5199999977}},{"attributes":{"ID":388764,"DIS_CODE":0,"TOWNNAME":"北區","LI":"大豐里","LIN":"28鄰","STREET":"文賢路","SECT":" ","MAREA":" ","LANE":"３６５巷","ALLEY":" ","HOUSE_NO":"４９號","E_COORD97":167204.54999999999,"N_COORD97":2545379.9399999999,"ADDRESS":"文賢路３６５巷４９號","OBJECTID":388740},"geometry":{"x":167204.55000000075,"y":2545379.9399999995}},{"attributes":{"ID":388765,"DIS_CODE":0,"TOWNNAME":"北區","LI":"大豐里","LIN":"28鄰","STREET":"文賢路","SECT":" ","MAREA":" ","LANE":"３６５巷","ALLEY":" ","HOUSE_NO":"５３號","E_COORD97":167195.35000000001,"N_COORD97":2545380.73,"ADDRESS":"文賢路３６５巷５３號","OBJECTID":388741},"geometry":{"x":167195.35000000056,"y":2545380.7300000023}},{"attributes":{"ID":388766,"DIS_CODE":0,"TOWNNAME":"北區","LI":"大豐里","LIN":"28鄰","STREET":"文賢路","SECT":" ","MAREA":" ","LANE":"３６５巷","ALLEY":" ","HOUSE_NO":"５５號","E_COORD97":167190.67000000001,"N_COORD97":2545381.21,"ADDRESS":"文賢路３６５巷５５號","OBJECTID":388742},"geometry":{"x":167190.67000000086,"y":2545381.2100000028}},{"attributes":{"ID":388767,"DIS_CODE":0,"TOWNNAME":"北區","LI":"大豐里","LIN":"28鄰","STREET":"文賢路","SECT":" ","MAREA":" ","LANE":"３６５巷","ALLEY":" ","HOUSE_NO":"５６號","E_COORD97":167190.85000000001,"N_COORD97":2545404.8199999998,"ADDRESS":"文賢路３６５巷５６號","OBJECTID":388743},"geometry":{"x":167190.85000000056,"y":2545404.8200000003}},{"attributes":{"ID":388768,"DIS_CODE":0,"TOWNNAME":"北區","LI":"大豐里","LIN":"28鄰","STREET":"文賢路","SECT":" ","MAREA":" ","LANE":"３６５巷","ALLEY":" ","HOUSE_NO":"５７號","E_COORD97":167186.59,"N_COORD97":2545381.6299999999,"ADDRESS":"文賢路３６５巷５７號","OBJECTID":388744},"geometry":{"x":167186.58999999985,"y":2545381.6299999971}},{"attributes":{"ID":388769,"DIS_CODE":0,"TOWNNAME":"北區","LI":"大豐里","LIN":"28鄰","STREET":"文賢路","SECT":" ","MAREA":" ","LANE":"３６５巷","ALLEY":" ","HOUSE_NO":"５９號","E_COORD97":167181.97,"N_COORD97":2545382.1699999999,"ADDRESS":"文賢路３６５巷５９號","OBJECTID":388745},"geometry":{"x":167181.96999999974,"y":2545382.1699999999}},{"attributes":{"ID":388770,"DIS_CODE":0,"TOWNNAME":"新營區","LI":"忠政里","LIN":"28鄰","STREET":"中正路","SECT":" ","MAREA":" ","LANE":"３９巷","ALLEY":" ","HOUSE_NO":"７４之２３號","E_COORD97":179860.92999999999,"N_COORD97":2579328.7200000002,"ADDRESS":"中正路３９巷７４之２３號","OBJECTID":388746},"geometry":{"x":179860.9299999997,"y":2579328.7200000025}},{"attributes":{"ID":388771,"DIS_CODE":0,"TOWNNAME":"新營區","LI":"忠政里","LIN":"28鄰","STREET":"中正路","SECT":" ","MAREA":" ","LANE":"３９巷","ALLEY":" ","HOUSE_NO":"８２號","E_COORD97":179832.44,"N_COORD97":2579280.0600000001,"ADDRESS":"中正路３９巷８２號","OBJECTID":388747},"geometry":{"x":179832.44000000041,"y":2579280.0600000005}},{"attributes":{"ID":388772,"DIS_CODE":0,"TOWNNAME":"新營區","LI":"忠政里","LIN":"28鄰","STREET":"中正路","SECT":" ","MAREA":" ","LANE":"３９巷","ALLEY":" ","HOUSE_NO":"７４之２５號","E_COORD97":179859.95000000001,"N_COORD97":2579336.48,"ADDRESS":"中正路３９巷７４之２５號","OBJECTID":388748},"geometry":{"x":179859.95000000112,"y":2579336.4800000023}},{"attributes":{"ID":388773,"DIS_CODE":0,"TOWNNAME":"新營區","LI":"忠政里","LIN":"28鄰","STREET":"中正路","SECT":" ","MAREA":" ","LANE":"３９巷","ALLEY":" ","HOUSE_NO":"７４之１４號","E_COORD97":179862.79000000001,"N_COORD97":2579289.9500000002,"ADDRESS":"中正路３９巷７４之１４號","OBJECTID":388749},"geometry":{"x":179862.79000000097,"y":2579289.9499999993}},{"attributes":{"ID":388774,"DIS_CODE":0,"TOWNNAME":"新營區","LI":"忠政里","LIN":"28鄰","STREET":"中正路","SECT":" ","MAREA":" ","LANE":"３９巷","ALLEY":" ","HOUSE_NO":"８１號","E_COORD97":179870.20000000001,"N_COORD97":2579262.1699999999,"ADDRESS":"中正路３９巷８１號","OBJECTID":388750},"geometry":{"x":179870.20000000112,"y":2579262.1699999999}},{"attributes":{"ID":388775,"DIS_CODE":0,"TOWNNAME":"新營區","LI":"忠政里","LIN":"28鄰","STREET":"中正路","SECT":" ","MAREA":" ","LANE":"３９巷","ALLEY":" ","HOUSE_NO":"７４之１１號","E_COORD97":179850.70999999999,"N_COORD97":2579329.8799999999,"ADDRESS":"中正路３９巷７４之１１號","OBJECTID":388751},"geometry":{"x":179850.70999999996,"y":2579329.879999999}},{"attributes":{"ID":388776,"DIS_CODE":0,"TOWNNAME":"新營區","LI":"忠政里","LIN":"28鄰","STREET":"中正路","SECT":" ","MAREA":" ","LANE":"３９巷","ALLEY":" ","HOUSE_NO":"８５號","E_COORD97":179860.98999999999,"N_COORD97":2579261.1000000001,"ADDRESS":"中正路３９巷８５號","OBJECTID":388752},"geometry":{"x":179860.99000000022,"y":2579261.0999999996}},{"attributes":{"ID":388777,"DIS_CODE":0,"TOWNNAME":"新營區","LI":"忠政里","LIN":"28鄰","STREET":"中正路","SECT":" ","MAREA":" ","LANE":"３９巷","ALLEY":" ","HOUSE_NO":"７６號","E_COORD97":179851.81,"N_COORD97":2579274.4399999999,"ADDRESS":"中正路３９巷７６號","OBJECTID":388753},"geometry":{"x":179851.81000000052,"y":2579274.4400000013}},{"attributes":{"ID":388778,"DIS_CODE":0,"TOWNNAME":"新營區","LI":"忠政里","LIN":"28鄰","STREET":"中正路","SECT":" ","MAREA":" ","LANE":"３９巷","ALLEY":" ","HOUSE_NO":"７４之６號","E_COORD97":179850.38,"N_COORD97":2579309.9399999999,"ADDRESS":"中正路３９巷７４之６號","OBJECTID":388754},"geometry":{"x":179850.38000000082,"y":2579309.9399999995}},{"attributes":{"ID":388779,"DIS_CODE":0,"TOWNNAME":"新營區","LI":"忠政里","LIN":"28鄰","STREET":"中正路","SECT":" ","MAREA":" ","LANE":"３９巷","ALLEY":" ","HOUSE_NO":"７４之１０號","E_COORD97":179850.69,"N_COORD97":2579325.4500000002,"ADDRESS":"中正路３９巷７４之１０號","OBJECTID":388755},"geometry":{"x":179850.69000000134,"y":2579325.4500000011}},{"attributes":{"ID":388780,"DIS_CODE":0,"TOWNNAME":"新營區","LI":"忠政里","LIN":"28鄰","STREET":"中正路","SECT":" ","MAREA":" ","LANE":"３９巷","ALLEY":" ","HOUSE_NO":"８９號","E_COORD97":179845.64999999999,"N_COORD97":2579261.1800000002,"ADDRESS":"中正路３９巷８９號","OBJECTID":388756},"geometry":{"x":179845.6500000013,"y":2579261.1799999997}},{"attributes":{"ID":388781,"DIS_CODE":0,"TOWNNAME":"新營區","LI":"忠政里","LIN":"28鄰","STREET":"中正路","SECT":" ","MAREA":" ","LANE":"３９巷","ALLEY":" ","HOUSE_NO":"６５號","E_COORD97":179904.92999999999,"N_COORD97":2579264.2200000002,"ADDRESS":"中正路３９巷６５號","OBJECTID":388757},"geometry":{"x":179904.9299999997,"y":2579264.2200000025}},{"attributes":{"ID":388782,"DIS_CODE":0,"TOWNNAME":"新營區","LI":"忠政里","LIN":"28鄰","STREET":"中正路","SECT":" ","MAREA":" ","LANE":"３９巷","ALLEY":" ","HOUSE_NO":"７１號","E_COORD97":179891.64999999999,"N_COORD97":2579263.1699999999,"ADDRESS":"中正路３９巷７１號","OBJECTID":388758},"geometry":{"x":179891.6500000013,"y":2579263.1700000018}},{"attributes":{"ID":388783,"DIS_CODE":0,"TOWNNAME":"新營區","LI":"忠政里","LIN":"28鄰","STREET":"中正路","SECT":" ","MAREA":" ","LANE":"３９巷","ALLEY":" ","HOUSE_NO":"７４之７號","E_COORD97":179850.41,"N_COORD97":2579314.3700000001,"ADDRESS":"中正路３９巷７４之７號","OBJECTID":388759},"geometry":{"x":179850.41000000108,"y":2579314.3700000029}},{"attributes":{"ID":388784,"DIS_CODE":0,"TOWNNAME":"新營區","LI":"忠政里","LIN":"28鄰","STREET":"中正路","SECT":" ","MAREA":" ","LANE":"３９巷","ALLEY":" ","HOUSE_NO":"７４之９號","E_COORD97":179849.42000000001,"N_COORD97":2579322.1200000001,"ADDRESS":"中正路３９巷７４之９號","OBJECTID":388760},"geometry":{"x":179849.41999999899,"y":2579322.1200000029}},{"attributes":{"ID":388785,"DIS_CODE":0,"TOWNNAME":"新營區","LI":"忠政里","LIN":"28鄰","STREET":"中正路","SECT":" ","MAREA":" ","LANE":"３９巷","ALLEY":" ","HOUSE_NO":"７８號","E_COORD97":179846.70000000001,"N_COORD97":2579274.46,"ADDRESS":"中正路３９巷７８號","OBJECTID":388761},"geometry":{"x":179846.70000000112,"y":2579274.4600000009}},{"attributes":{"ID":388786,"DIS_CODE":0,"TOWNNAME":"新營區","LI":"忠政里","LIN":"28鄰","STREET":"中正路","SECT":" ","MAREA":" ","LANE":"３９巷","ALLEY":" ","HOUSE_NO":"７３號","E_COORD97":179887.56,"N_COORD97":2579263.1899999999,"ADDRESS":"中正路３９巷７３號","OBJECTID":388762},"geometry":{"x":179887.56000000052,"y":2579263.1900000013}},{"attributes":{"ID":388787,"DIS_CODE":0,"TOWNNAME":"新營區","LI":"忠政里","LIN":"28鄰","STREET":"中正路","SECT":" ","MAREA":" ","LANE":"３９巷","ALLEY":" ","HOUSE_NO":"７４之１３號","E_COORD97":179849.72,"N_COORD97":2579337.6299999999,"ADDRESS":"中正路３９巷７４之１３號","OBJECTID":388763},"geometry":{"x":179849.72000000067,"y":2579337.6300000008}},{"attributes":{"ID":388788,"DIS_CODE":0,"TOWNNAME":"新營區","LI":"忠政里","LIN":"28鄰","STREET":"中正路","SECT":" ","MAREA":" ","LANE":"３９巷","ALLEY":" ","HOUSE_NO":"７４之５號","E_COORD97":179851.39000000001,"N_COORD97":2579306.6099999999,"ADDRESS":"中正路３９巷７４之５號","OBJECTID":388764},"geometry":{"x":179851.3900000006,"y":2579306.6100000031}},{"attributes":{"ID":388789,"DIS_CODE":0,"TOWNNAME":"安平區","LI":"建平里","LIN":"28鄰","STREET":"建平八街","SECT":" ","MAREA":" ","LANE":"１０８巷","ALLEY":" ","HOUSE_NO":"１８號","E_COORD97":165842.95000000001,"N_COORD97":2543553.02,"ADDRESS":"建平八街１０８巷１８號","OBJECTID":388765},"geometry":{"x":165842.95000000112,"y":2543553.0200000014}},{"attributes":{"ID":388790,"DIS_CODE":0,"TOWNNAME":"安平區","LI":"建平里","LIN":"28鄰","STREET":"建平八街","SECT":" ","MAREA":" ","LANE":"１０８巷","ALLEY":" ","HOUSE_NO":"６號","E_COORD97":165838.32999999999,"N_COORD97":2543525.3199999998,"ADDRESS":"建平八街１０８巷６號","OBJECTID":388766},"geometry":{"x":165838.33000000101,"y":2543525.3200000022}},{"attributes":{"ID":388791,"DIS_CODE":0,"TOWNNAME":"安平區","LI":"建平里","LIN":"28鄰","STREET":"建平八街","SECT":" ","MAREA":" ","LANE":"１０８巷","ALLEY":" ","HOUSE_NO":"８號","E_COORD97":165839.44,"N_COORD97":2543530.0800000001,"ADDRESS":"建平八街１０８巷８號","OBJECTID":388767},"geometry":{"x":165839.44000000134,"y":2543530.0800000019}},{"attributes":{"ID":388792,"DIS_CODE":0,"TOWNNAME":"安平區","LI":"建平里","LIN":"28鄰","STREET":"建平八街","SECT":" ","MAREA":" ","LANE":"１０８巷","ALLEY":" ","HOUSE_NO":"１６號","E_COORD97":165840.59,"N_COORD97":2543546.04,"ADDRESS":"建平八街１０８巷１６號","OBJECTID":388768},"geometry":{"x":165840.58999999985,"y":2543546.040000001}},{"attributes":{"ID":388793,"DIS_CODE":0,"TOWNNAME":"安平區","LI":"建平里","LIN":"28鄰","STREET":"建平八街","SECT":" ","MAREA":" ","LANE":"１０８巷","ALLEY":" ","HOUSE_NO":"１０號","E_COORD97":165840.07999999999,"N_COORD97":2543535.48,"ADDRESS":"建平八街１０８巷１０號","OBJECTID":388769},"geometry":{"x":165840.08000000101,"y":2543535.4800000004}},{"attributes":{"ID":388794,"DIS_CODE":0,"TOWNNAME":"安平區","LI":"建平里","LIN":"28鄰","STREET":"建平八街","SECT":" ","MAREA":" ","LANE":"１０８巷","ALLEY":" ","HOUSE_NO":"１２號","E_COORD97":165839.92000000001,"N_COORD97":2543541.04,"ADDRESS":"建平八街１０８巷１２號","OBJECTID":388770},"geometry":{"x":165839.91999999993,"y":2543541.0399999991}},{"attributes":{"ID":388795,"DIS_CODE":0,"TOWNNAME":"安平區","LI":"建平里","LIN":"28鄰","STREET":"建平八街","SECT":" ","MAREA":" ","LANE":"１０８巷","ALLEY":" ","HOUSE_NO":"３之１號","E_COORD97":165824.26000000001,"N_COORD97":2543559.71,"ADDRESS":"建平八街１０８巷３之１號","OBJECTID":388771},"geometry":{"x":165824.25999999978,"y":2543559.7100000028}},{"attributes":{"ID":388796,"DIS_CODE":0,"TOWNNAME":"安平區","LI":"建平里","LIN":"28鄰","STREET":"建平八街","SECT":" ","MAREA":" ","LANE":"１０８巷","ALLEY":" ","HOUSE_NO":"３號","E_COORD97":165824.26000000001,"N_COORD97":2543553.52,"ADDRESS":"建平八街１０８巷３號","OBJECTID":388772},"geometry":{"x":165824.25999999978,"y":2543553.5200000014}},{"attributes":{"ID":388797,"DIS_CODE":0,"TOWNNAME":"歸仁區","LI":"南興里","LIN":"28鄰","STREET":"文化街","SECT":"三段","MAREA":" ","LANE":"７７６巷","ALLEY":" ","HOUSE_NO":"３號","E_COORD97":175325.92000000001,"N_COORD97":2541230.7599999998,"ADDRESS":"文化街三段７７６巷３號","OBJECTID":388773},"geometry":{"x":175325.92000000086,"y":2541230.7599999998}},{"attributes":{"ID":388798,"DIS_CODE":0,"TOWNNAME":"歸仁區","LI":"後市里","LIN":"28鄰","STREET":"民族北街","SECT":" ","MAREA":" ","LANE":"１７巷","ALLEY":" ","HOUSE_NO":"６號","E_COORD97":177410.92999999999,"N_COORD97":2540890.75,"ADDRESS":"民族北街１７巷６號","OBJECTID":388774},"geometry":{"x":177410.9299999997,"y":2540890.7500000019}},{"attributes":{"ID":388799,"DIS_CODE":0,"TOWNNAME":"歸仁區","LI":"南興里","LIN":"28鄰","STREET":"文化街","SECT":"三段","MAREA":" ","LANE":"７７６巷","ALLEY":" ","HOUSE_NO":"９號","E_COORD97":175326.01999999999,"N_COORD97":2541242.7599999998,"ADDRESS":"文化街三段７７６巷９號","OBJECTID":388775},"geometry":{"x":175326.02000000048,"y":2541242.7600000016}},{"attributes":{"ID":388800,"DIS_CODE":0,"TOWNNAME":"北區","LI":"大豐里","LIN":"28鄰","STREET":"文賢路","SECT":" ","MAREA":" ","LANE":"３６５巷","ALLEY":" ","HOUSE_NO":"５１號","E_COORD97":167200.10999999999,"N_COORD97":2545380.7400000002,"ADDRESS":"文賢路３６５巷５１號","OBJECTID":388776},"geometry":{"x":167200.11000000034,"y":2545380.7400000002}},{"attributes":{"ID":388801,"DIS_CODE":0,"TOWNNAME":"歸仁區","LI":"媽廟里","LIN":"25鄰","STREET":"保大路","SECT":"一段","MAREA":" ","LANE":"１１７巷","ALLEY":"２６弄","HOUSE_NO":"１８號","E_COORD97":177778.13874699999,"N_COORD97":2543952.0449199998,"ADDRESS":"保大路一段１１７巷２６弄弄１８號","OBJECTID":388777},"geometry":{"x":177778.13874700107,"y":2543952.0449170005}},{"attributes":{"ID":388802,"DIS_CODE":0,"TOWNNAME":"北區","LI":"和順里","LIN":"28鄰","STREET":"海安路","SECT":"三段","MAREA":" ","LANE":"２１９巷","ALLEY":" ","HOUSE_NO":"２１號","E_COORD97":167910.91,"N_COORD97":2545236.1099999999,"ADDRESS":"海安路三段２１９巷２１號","OBJECTID":388778},"geometry":{"x":167910.91000000108,"y":2545236.1099999994}},{"attributes":{"ID":388803,"DIS_CODE":0,"TOWNNAME":"北區","LI":"文元里","LIN":"28鄰","STREET":"文賢一路","SECT":" ","MAREA":" ","LANE":"１８２巷","ALLEY":" ","HOUSE_NO":"１１號","E_COORD97":167549.34,"N_COORD97":2545699.8100000001,"ADDRESS":"文賢一路１８２巷１１號","OBJECTID":388779},"geometry":{"x":167549.33999999985,"y":2545699.8100000005}},{"attributes":{"ID":388804,"DIS_CODE":0,"TOWNNAME":"北區","LI":"成德里","LIN":"28鄰","STREET":"育德二路","SECT":" ","MAREA":" ","LANE":"１９０巷","ALLEY":" ","HOUSE_NO":"３３號","E_COORD97":168483.39999999999,"N_COORD97":2545735.0099999998,"ADDRESS":"育德二路１９０巷３３號","OBJECTID":388780},"geometry":{"x":168483.40000000037,"y":2545735.0099999998}},{"attributes":{"ID":388805,"DIS_CODE":0,"TOWNNAME":"北區","LI":"成德里","LIN":"28鄰","STREET":"育德二路","SECT":" ","MAREA":" ","LANE":"１９０巷","ALLEY":" ","HOUSE_NO":"３５號","E_COORD97":168490.39000000001,"N_COORD97":2545735.0099999998,"ADDRESS":"育德二路１９０巷３５號","OBJECTID":388781},"geometry":{"x":168490.3900000006,"y":2545735.0099999998}},{"attributes":{"ID":388806,"DIS_CODE":0,"TOWNNAME":"北區","LI":"成德里","LIN":"28鄰","STREET":"育德二路","SECT":" ","MAREA":" ","LANE":"１９０巷","ALLEY":" ","HOUSE_NO":"２８號","E_COORD97":168439.26999999999,"N_COORD97":2545721.6699999999,"ADDRESS":"育德二路１９０巷２８號","OBJECTID":388782},"geometry":{"x":168439.26999999955,"y":2545721.6700000037}},{"attributes":{"ID":388807,"DIS_CODE":0,"TOWNNAME":"北區","LI":"成德里","LIN":"28鄰","STREET":"育德二路","SECT":" ","MAREA":" ","LANE":"１９０巷","ALLEY":" ","HOUSE_NO":"６號","E_COORD97":168379.57999999999,"N_COORD97":2545721.9900000002,"ADDRESS":"育德二路１９０巷６號","OBJECTID":388783},"geometry":{"x":168379.58000000101,"y":2545721.9900000002}},{"attributes":{"ID":388808,"DIS_CODE":0,"TOWNNAME":"北區","LI":"成德里","LIN":"28鄰","STREET":"育德二路","SECT":" ","MAREA":" ","LANE":"１９０巷","ALLEY":" ","HOUSE_NO":"８號","E_COORD97":168385.60999999999,"N_COORD97":2545721.9900000002,"ADDRESS":"育德二路１９０巷８號","OBJECTID":388784},"geometry":{"x":168385.61000000034,"y":2545721.9900000002}},{"attributes":{"ID":388809,"DIS_CODE":0,"TOWNNAME":"北區","LI":"成德里","LIN":"28鄰","STREET":"育德二路","SECT":" ","MAREA":" ","LANE":"１９０巷","ALLEY":" ","HOUSE_NO":"１０號","E_COORD97":168391.81,"N_COORD97":2545721.9900000002,"ADDRESS":"育德二路１９０巷１０號","OBJECTID":388785},"geometry":{"x":168391.80999999959,"y":2545721.9900000002}},{"attributes":{"ID":388810,"DIS_CODE":0,"TOWNNAME":"北區","LI":"成德里","LIN":"28鄰","STREET":"育德二路","SECT":" ","MAREA":" ","LANE":"１９０巷","ALLEY":" ","HOUSE_NO":"１２號","E_COORD97":168399.10999999999,"N_COORD97":2545721.8300000001,"ADDRESS":"育德二路１９０巷１２號","OBJECTID":388786},"geometry":{"x":168399.11000000034,"y":2545721.8300000019}},{"attributes":{"ID":388811,"DIS_CODE":0,"TOWNNAME":"北區","LI":"成德里","LIN":"28鄰","STREET":"育德二路","SECT":" ","MAREA":" ","LANE":"１９０巷","ALLEY":" ","HOUSE_NO":"２２號","E_COORD97":168426.25,"N_COORD97":2545721.6699999999,"ADDRESS":"育德二路１９０巷２２號","OBJECTID":388787},"geometry":{"x":168426.25,"y":2545721.6700000037}},{"attributes":{"ID":388812,"DIS_CODE":0,"TOWNNAME":"北區","LI":"成德里","LIN":"28鄰","STREET":"育德二路","SECT":" ","MAREA":" ","LANE":"１９０巷","ALLEY":" ","HOUSE_NO":"１６號","E_COORD97":168405.92999999999,"N_COORD97":2545721.8300000001,"ADDRESS":"育德二路１９０巷１６號","OBJECTID":388788},"geometry":{"x":168405.9299999997,"y":2545721.8300000019}},{"attributes":{"ID":388813,"DIS_CODE":0,"TOWNNAME":"北區","LI":"成德里","LIN":"28鄰","STREET":"育德二路","SECT":" ","MAREA":" ","LANE":"１９０巷","ALLEY":" ","HOUSE_NO":"１８號","E_COORD97":168412.44,"N_COORD97":2545721.8300000001,"ADDRESS":"育德二路１９０巷１８號","OBJECTID":388789},"geometry":{"x":168412.44000000227,"y":2545721.8300000019}},{"attributes":{"ID":388814,"DIS_CODE":0,"TOWNNAME":"北區","LI":"成德里","LIN":"28鄰","STREET":"育德二路","SECT":" ","MAREA":" ","LANE":"１９０巷","ALLEY":" ","HOUSE_NO":"２０號","E_COORD97":168419.59,"N_COORD97":2545721.8300000001,"ADDRESS":"育德二路１９０巷２０號","OBJECTID":388790},"geometry":{"x":168419.59000000078,"y":2545721.8300000019}},{"attributes":{"ID":388815,"DIS_CODE":0,"TOWNNAME":"北區","LI":"成德里","LIN":"28鄰","STREET":"育德二路","SECT":" ","MAREA":" ","LANE":"１９０巷","ALLEY":" ","HOUSE_NO":"３８號","E_COORD97":168463.39999999999,"N_COORD97":2545721.9900000002,"ADDRESS":"育德二路１９０巷３８號","OBJECTID":388791},"geometry":{"x":168463.40000000037,"y":2545721.9900000002}},{"attributes":{"ID":388816,"DIS_CODE":0,"TOWNNAME":"北區","LI":"成德里","LIN":"28鄰","STREET":"育德二路","SECT":" ","MAREA":" ","LANE":"１９０巷","ALLEY":" ","HOUSE_NO":"４０號","E_COORD97":168469.28,"N_COORD97":2545722.1499999999,"ADDRESS":"育德二路１９０巷４０號","OBJECTID":388792},"geometry":{"x":168469.27999999933,"y":2545722.1500000041}},{"attributes":{"ID":388817,"DIS_CODE":0,"TOWNNAME":"北區","LI":"成德里","LIN":"28鄰","STREET":"育德二路","SECT":" ","MAREA":" ","LANE":"１９０巷","ALLEY":" ","HOUSE_NO":"３６號","E_COORD97":168456.89000000001,"N_COORD97":2545721.75,"ADDRESS":"育德二路１９０巷３６號","OBJECTID":388793},"geometry":{"x":168456.8900000006,"y":2545721.7500000019}},{"attributes":{"ID":388818,"DIS_CODE":0,"TOWNNAME":"北區","LI":"成德里","LIN":"28鄰","STREET":"育德二路","SECT":" ","MAREA":" ","LANE":"１９０巷","ALLEY":" ","HOUSE_NO":"３０號","E_COORD97":168445.29999999999,"N_COORD97":2545721.8300000001,"ADDRESS":"育德二路１９０巷３０號","OBJECTID":388794},"geometry":{"x":168445.30000000075,"y":2545721.8300000019}},{"attributes":{"ID":388819,"DIS_CODE":0,"TOWNNAME":"北區","LI":"成德里","LIN":"28鄰","STREET":"育德二路","SECT":" ","MAREA":" ","LANE":"１９０巷","ALLEY":" ","HOUSE_NO":"４６號","E_COORD97":168482.13,"N_COORD97":2545721.8300000001,"ADDRESS":"育德二路１９０巷４６號","OBJECTID":388795},"geometry":{"x":168482.13000000082,"y":2545721.8300000019}},{"attributes":{"ID":388820,"DIS_CODE":0,"TOWNNAME":"北區","LI":"成德里","LIN":"28鄰","STREET":"育德二路","SECT":" ","MAREA":" ","LANE":"１９０巷","ALLEY":" ","HOUSE_NO":"３２號","E_COORD97":168451.5,"N_COORD97":2545721.75,"ADDRESS":"育德二路１９０巷３２號","OBJECTID":388796},"geometry":{"x":168451.5,"y":2545721.7500000019}},{"attributes":{"ID":388821,"DIS_CODE":0,"TOWNNAME":"北區","LI":"成德里","LIN":"28鄰","STREET":"育德二路","SECT":" ","MAREA":" ","LANE":"１９０巷","ALLEY":" ","HOUSE_NO":"４２號","E_COORD97":168475.94,"N_COORD97":2545721.8300000001,"ADDRESS":"育德二路１９０巷４２號","OBJECTID":388797},"geometry":{"x":168475.94000000134,"y":2545721.8300000019}},{"attributes":{"ID":388822,"DIS_CODE":0,"TOWNNAME":"北區","LI":"成德里","LIN":"28鄰","STREET":"育德二路","SECT":" ","MAREA":" ","LANE":"１９０巷","ALLEY":" ","HOUSE_NO":"４８號","E_COORD97":168488.64000000001,"N_COORD97":2545721.8300000001,"ADDRESS":"育德二路１９０巷４８號","OBJECTID":388798},"geometry":{"x":168488.6400000006,"y":2545721.8300000019}},{"attributes":{"ID":388823,"DIS_CODE":0,"TOWNNAME":"新營區","LI":"南興里","LIN":"28鄰","STREET":"建業路","SECT":" ","MAREA":" ","LANE":"１３７巷","ALLEY":" ","HOUSE_NO":"９號","E_COORD97":178440.42000000001,"N_COORD97":2577446.1299999999,"ADDRESS":"建業路１３７巷９號","OBJECTID":388799},"geometry":{"x":178440.41999999993,"y":2577446.1300000008}},{"attributes":{"ID":388824,"DIS_CODE":0,"TOWNNAME":"新營區","LI":"新東里","LIN":"28鄰","STREET":"東光街","SECT":" ","MAREA":" ","LANE":"８２巷","ALLEY":" ","HOUSE_NO":"１３號","E_COORD97":180648.57999999999,"N_COORD97":2579642.5499999998,"ADDRESS":"東光街８２巷１３號","OBJECTID":388800},"geometry":{"x":180648.58000000007,"y":2579642.5500000007}}]}