{"displayFieldName":"TOWNNAME","fieldAliases":{"ID":"ID","DIS_CODE":"DIS_CODE","TOWNNAME":"TOWNNAME","LI":"LI","LIN":"LIN","STREET":"STREET","SECT":"SECT","MAREA":"MAREA","LANE":"LANE","ALLEY":"ALLEY","HOUSE_NO":"HOUSE_NO","E_COORD97":"E_COORD97","N_COORD97":"N_COORD97","ADDRESS":"ADDRESS","OBJECTID":"OBJECTID"},"geometryType":"esriGeometryPoint","spatialReference":{"wkid":102443,"latestWkid":3826},"fields":[{"name":"ID","type":"esriFieldTypeDouble","alias":"ID"},{"name":"DIS_CODE","type":"esriFieldTypeInteger","alias":"DIS_CODE"},{"name":"TOWNNAME","type":"esriFieldTypeString","alias":"TOWNNAME","length":8},{"name":"LI","type":"esriFieldTypeString","alias":"LI","length":8},{"name":"LIN","type":"esriFieldTypeString","alias":"LIN","length":12},{"name":"STREET","type":"esriFieldTypeString","alias":"STREET","length":20},{"name":"SECT","type":"esriFieldTypeString","alias":"SECT","length":8},{"name":"MAREA","type":"esriFieldTypeString","alias":"MAREA","length":12},{"name":"LANE","type":"esriFieldTypeString","alias":"LANE","length":10},{"name":"ALLEY","type":"esriFieldTypeString","alias":"ALLEY","length":10},{"name":"HOUSE_NO","type":"esriFieldTypeString","alias":"HOUSE_NO","length":20},{"name":"E_COORD97","type":"esriFieldTypeDouble","alias":"E_COORD97"},{"name":"N_COORD97","type":"esriFieldTypeDouble","alias":"N_COORD97"},{"name":"ADDRESS","type":"esriFieldTypeString","alias":"ADDRESS","length":50},{"name":"OBJECTID","type":"esriFieldTypeOID","alias":"OBJECTID"}],"features":[{"attributes":{"ID":31801,"DIS_CODE":0,"TOWNNAME":"善化區","LI":"胡家里","LIN":"8鄰","STREET":" ","SECT":" ","MAREA":"胡厝寮","LANE":" ","ALLEY":" ","HOUSE_NO":"５９號","E_COORD97":175414,"N_COORD97":2560720.5,"ADDRESS":"胡厝寮５９號","OBJECTID":31801},"geometry":{"x":175414,"y":2560720.5}},{"attributes":{"ID":31802,"DIS_CODE":0,"TOWNNAME":"中西區","LI":"光賢里","LIN":"8鄰","STREET":"武聖路","SECT":" ","MAREA":" ","LANE":"６９巷","ALLEY":"８５弄","HOUSE_NO":"３２號","E_COORD97":167127.23999999999,"N_COORD97":2544885.0699999998,"ADDRESS":"武聖路６９巷８５弄３２號","OBJECTID":31802},"geometry":{"x":167127.24000000115,"y":2544885.0699999984}},{"attributes":{"ID":31803,"DIS_CODE":0,"TOWNNAME":"中西區","LI":"光賢里","LIN":"8鄰","STREET":"武聖路","SECT":" ","MAREA":" ","LANE":"６９巷","ALLEY":"８５弄","HOUSE_NO":"４號","E_COORD97":167073.91,"N_COORD97":2544914.2799999998,"ADDRESS":"武聖路６９巷８５弄４號","OBJECTID":31803},"geometry":{"x":167073.91000000108,"y":2544914.2800000012}},{"attributes":{"ID":31804,"DIS_CODE":0,"TOWNNAME":"善化區","LI":"東昌里","LIN":"8鄰","STREET":" ","SECT":" ","MAREA":"東勢寮","LANE":" ","ALLEY":" ","HOUSE_NO":"８１號之４","E_COORD97":180408.45000000001,"N_COORD97":2561928.27,"ADDRESS":"東勢寮８１號之４","OBJECTID":31804},"geometry":{"x":180408.45000000019,"y":2561928.2699999996}},{"attributes":{"ID":31805,"DIS_CODE":0,"TOWNNAME":"善化區","LI":"嘉北里","LIN":"8鄰","STREET":" ","SECT":" ","MAREA":"茄拔","LANE":" ","ALLEY":" ","HOUSE_NO":"１８０號之２３","E_COORD97":181115.17000000001,"N_COORD97":2560172.02,"ADDRESS":"茄拔１８０號之２３","OBJECTID":31805},"geometry":{"x":181115.16999999993,"y":2560172.0200000033}},{"attributes":{"ID":31806,"DIS_CODE":0,"TOWNNAME":"善化區","LI":"嘉北里","LIN":"8鄰","STREET":" ","SECT":" ","MAREA":"茄拔","LANE":" ","ALLEY":" ","HOUSE_NO":"１８１號之２２","E_COORD97":181135.92000000001,"N_COORD97":2560138.02,"ADDRESS":"茄拔１８１號之２２","OBJECTID":31806},"geometry":{"x":181135.91999999993,"y":2560138.0200000033}},{"attributes":{"ID":31807,"DIS_CODE":0,"TOWNNAME":"中西區","LI":"光賢里","LIN":"8鄰","STREET":"武聖路","SECT":" ","MAREA":" ","LANE":"６９巷","ALLEY":"８５弄","HOUSE_NO":"６號","E_COORD97":167077.92999999999,"N_COORD97":2544912.1600000001,"ADDRESS":"武聖路６９巷８５弄６號","OBJECTID":31807},"geometry":{"x":167077.93000000063,"y":2544912.160000002}},{"attributes":{"ID":31808,"DIS_CODE":0,"TOWNNAME":"中西區","LI":"光賢里","LIN":"8鄰","STREET":"武聖路","SECT":" ","MAREA":" ","LANE":"６９巷","ALLEY":"８５弄","HOUSE_NO":"８號","E_COORD97":167081.31,"N_COORD97":2544910.0499999998,"ADDRESS":"武聖路６９巷８５弄８號","OBJECTID":31808},"geometry":{"x":167081.30999999959,"y":2544910.0500000026}},{"attributes":{"ID":31809,"DIS_CODE":0,"TOWNNAME":"中西區","LI":"光賢里","LIN":"8鄰","STREET":"武聖路","SECT":" ","MAREA":" ","LANE":"６９巷","ALLEY":"９９弄","HOUSE_NO":"１０號","E_COORD97":167059.63,"N_COORD97":2544873.98,"ADDRESS":"武聖路６９巷９９弄１０號","OBJECTID":31809},"geometry":{"x":167059.63000000175,"y":2544873.9800000023}},{"attributes":{"ID":31810,"DIS_CODE":0,"TOWNNAME":"中西區","LI":"光賢里","LIN":"8鄰","STREET":"武聖路","SECT":" ","MAREA":" ","LANE":"６９巷","ALLEY":"９９弄","HOUSE_NO":"１１號","E_COORD97":167077.5,"N_COORD97":2544888.46,"ADDRESS":"武聖路６９巷９９弄１１號","OBJECTID":31810},"geometry":{"x":167077.50000000186,"y":2544888.4600000009}},{"attributes":{"ID":31811,"DIS_CODE":0,"TOWNNAME":"中西區","LI":"光賢里","LIN":"8鄰","STREET":"武聖路","SECT":" ","MAREA":" ","LANE":"６９巷","ALLEY":"９９弄","HOUSE_NO":"１２號","E_COORD97":167063.54000000001,"N_COORD97":2544871.7000000002,"ADDRESS":"武聖路６９巷９９弄１２號","OBJECTID":31811},"geometry":{"x":167063.54000000004,"y":2544871.6999999993}},{"attributes":{"ID":31812,"DIS_CODE":0,"TOWNNAME":"中西區","LI":"光賢里","LIN":"8鄰","STREET":"武聖路","SECT":" ","MAREA":" ","LANE":"６９巷","ALLEY":"９９弄","HOUSE_NO":"１３號","E_COORD97":167080.89000000001,"N_COORD97":2544886.7599999998,"ADDRESS":"武聖路６９巷９９弄１３號","OBJECTID":31812},"geometry":{"x":167080.88999999966,"y":2544886.7600000035}},{"attributes":{"ID":31813,"DIS_CODE":0,"TOWNNAME":"善化區","LI":"東昌里","LIN":"8鄰","STREET":" ","SECT":" ","MAREA":"東勢寮","LANE":" ","ALLEY":" ","HOUSE_NO":"７９號","E_COORD97":180442.01000000001,"N_COORD97":2561915.5099999998,"ADDRESS":"東勢寮７９號","OBJECTID":31813},"geometry":{"x":180442.00999999885,"y":2561915.5100000016}},{"attributes":{"ID":31814,"DIS_CODE":0,"TOWNNAME":"善化區","LI":"嘉北里","LIN":"8鄰","STREET":" ","SECT":" ","MAREA":"茄拔","LANE":" ","ALLEY":" ","HOUSE_NO":"１８１號之１７","E_COORD97":181157.35999999999,"N_COORD97":2560116.27,"ADDRESS":"茄拔１８１號之１７","OBJECTID":31814},"geometry":{"x":181157.3600000022,"y":2560116.2700000033}},{"attributes":{"ID":31815,"DIS_CODE":0,"TOWNNAME":"善化區","LI":"田寮里","LIN":"8鄰","STREET":" ","SECT":" ","MAREA":"六分寮","LANE":" ","ALLEY":" ","HOUSE_NO":"８７號之２","E_COORD97":178536.73999999999,"N_COORD97":2561454.02,"ADDRESS":"六分寮８７號之２","OBJECTID":31815},"geometry":{"x":178536.74000000022,"y":2561454.0200000014}},{"attributes":{"ID":31816,"DIS_CODE":0,"TOWNNAME":"大內區","LI":"曲溪里","LIN":"8鄰","STREET":" ","SECT":" ","MAREA":"二重溪","LANE":" ","ALLEY":" ","HOUSE_NO":"７２號之３","E_COORD97":187233.92000000001,"N_COORD97":2557913.3100000001,"ADDRESS":"二重溪７２號之３","OBJECTID":31816},"geometry":{"x":187233.92000000179,"y":2557913.3100000042}},{"attributes":{"ID":31817,"DIS_CODE":0,"TOWNNAME":"中西區","LI":"光賢里","LIN":"8鄰","STREET":"武聖路","SECT":" ","MAREA":" ","LANE":"６９巷","ALLEY":"９９弄","HOUSE_NO":"１４號","E_COORD97":167066.79000000001,"N_COORD97":2544869.1000000001,"ADDRESS":"武聖路６９巷９９弄１４號","OBJECTID":31817},"geometry":{"x":167066.79000000004,"y":2544869.0999999996}},{"attributes":{"ID":31818,"DIS_CODE":0,"TOWNNAME":"中西區","LI":"光賢里","LIN":"8鄰","STREET":"武聖路","SECT":" ","MAREA":" ","LANE":"６９巷","ALLEY":"９９弄","HOUSE_NO":"１５號","E_COORD97":166613.57000000001,"N_COORD97":2545217.4199999999,"ADDRESS":"武聖路６９巷９９弄１５號","OBJECTID":31818},"geometry":{"x":166613.57000000123,"y":2545217.4199999999}},{"attributes":{"ID":31819,"DIS_CODE":0,"TOWNNAME":"歸仁區","LI":"南興里","LIN":"24鄰","STREET":"文化二十街","SECT":" ","MAREA":" ","LANE":" ","ALLEY":" ","HOUSE_NO":"５４號","E_COORD97":175503.48999999999,"N_COORD97":2541292.3300000001,"ADDRESS":"文化二十街５４號","OBJECTID":31819},"geometry":{"x":175503.49000000115,"y":2541292.3300000001}},{"attributes":{"ID":31820,"DIS_CODE":0,"TOWNNAME":"仁德區","LI":"成功里","LIN":"14鄰","STREET":"全福路","SECT":" ","MAREA":" ","LANE":" ","ALLEY":" ","HOUSE_NO":"７４號","E_COORD97":170992.87,"N_COORD97":2539301.5,"ADDRESS":"全福路７４號","OBJECTID":31820},"geometry":{"x":170992.87000000104,"y":2539301.5000000037}},{"attributes":{"ID":31821,"DIS_CODE":0,"TOWNNAME":"中西區","LI":"光賢里","LIN":"8鄰","STREET":"武聖路","SECT":" ","MAREA":" ","LANE":"６９巷","ALLEY":"９９弄","HOUSE_NO":"１６號","E_COORD97":167070.38,"N_COORD97":2544867.4700000002,"ADDRESS":"武聖路６９巷９９弄１６號","OBJECTID":31821},"geometry":{"x":167070.38000000082,"y":2544867.4700000025}},{"attributes":{"ID":31822,"DIS_CODE":0,"TOWNNAME":"中西區","LI":"光賢里","LIN":"8鄰","STREET":"武聖路","SECT":" ","MAREA":" ","LANE":"６９巷","ALLEY":"９９弄","HOUSE_NO":"１７號","E_COORD97":167084.48999999999,"N_COORD97":2544884.4300000002,"ADDRESS":"武聖路６９巷９９弄１７號","OBJECTID":31822},"geometry":{"x":167084.48999999929,"y":2544884.4299999997}},{"attributes":{"ID":31823,"DIS_CODE":0,"TOWNNAME":"中西區","LI":"光賢里","LIN":"8鄰","STREET":"武聖路","SECT":" ","MAREA":" ","LANE":"６９巷","ALLEY":"９９弄","HOUSE_NO":"１８號","E_COORD97":167073.95999999999,"N_COORD97":2544865.52,"ADDRESS":"武聖路６９巷９９弄１８號","OBJECTID":31823},"geometry":{"x":167073.95999999996,"y":2544865.5200000014}},{"attributes":{"ID":31824,"DIS_CODE":0,"TOWNNAME":"中西區","LI":"光賢里","LIN":"8鄰","STREET":"武聖路","SECT":" ","MAREA":" ","LANE":"６９巷","ALLEY":"９９弄","HOUSE_NO":"１９號","E_COORD97":167087.87,"N_COORD97":2544882.5299999998,"ADDRESS":"武聖路６９巷９９弄１９號","OBJECTID":31824},"geometry":{"x":167087.87000000011,"y":2544882.5300000012}},{"attributes":{"ID":31825,"DIS_CODE":0,"TOWNNAME":"中西區","LI":"光賢里","LIN":"8鄰","STREET":"武聖路","SECT":" ","MAREA":" ","LANE":"６９巷","ALLEY":"９９弄","HOUSE_NO":"１號","E_COORD97":167059.09,"N_COORD97":2544897.98,"ADDRESS":"武聖路６９巷９９弄１號","OBJECTID":31825},"geometry":{"x":167059.08999999985,"y":2544897.9800000004}},{"attributes":{"ID":31826,"DIS_CODE":0,"TOWNNAME":"中西區","LI":"光賢里","LIN":"8鄰","STREET":"武聖路","SECT":" ","MAREA":" ","LANE":"６９巷","ALLEY":"９９弄","HOUSE_NO":"２０號","E_COORD97":167077.54999999999,"N_COORD97":2544864.2200000002,"ADDRESS":"武聖路６９巷９９弄２０號","OBJECTID":31826},"geometry":{"x":167077.55000000075,"y":2544864.2200000044}},{"attributes":{"ID":31827,"DIS_CODE":0,"TOWNNAME":"中西區","LI":"光賢里","LIN":"8鄰","STREET":"武聖路","SECT":" ","MAREA":" ","LANE":"６９巷","ALLEY":"９９弄","HOUSE_NO":"２１號","E_COORD97":167091.47,"N_COORD97":2544880.8300000001,"ADDRESS":"武聖路６９巷９９弄２１號","OBJECTID":31827},"geometry":{"x":167091.47000000067,"y":2544880.8300000019}},{"attributes":{"ID":31828,"DIS_CODE":0,"TOWNNAME":"中西區","LI":"光賢里","LIN":"8鄰","STREET":"武聖路","SECT":" ","MAREA":" ","LANE":"６９巷","ALLEY":"９９弄","HOUSE_NO":"２２號","E_COORD97":167081.13,"N_COORD97":2544861.9399999999,"ADDRESS":"武聖路６９巷９９弄２２號","OBJECTID":31828},"geometry":{"x":167081.12999999989,"y":2544861.9400000013}},{"attributes":{"ID":31829,"DIS_CODE":0,"TOWNNAME":"中西區","LI":"光賢里","LIN":"8鄰","STREET":"武聖路","SECT":" ","MAREA":" ","LANE":"６９巷","ALLEY":"９９弄","HOUSE_NO":"２３號","E_COORD97":167094.85999999999,"N_COORD97":2544878.7200000002,"ADDRESS":"武聖路６９巷９９弄２３號","OBJECTID":31829},"geometry":{"x":167094.86000000127,"y":2544878.7200000025}},{"attributes":{"ID":31830,"DIS_CODE":0,"TOWNNAME":"善化區","LI":"田寮里","LIN":"8鄰","STREET":" ","SECT":" ","MAREA":"六分寮","LANE":" ","ALLEY":" ","HOUSE_NO":"９０之１號","E_COORD97":178605.45999999999,"N_COORD97":2561461.02,"ADDRESS":"六分寮９０之１號","OBJECTID":31830},"geometry":{"x":178605.46000000089,"y":2561461.0200000014}},{"attributes":{"ID":31831,"DIS_CODE":0,"TOWNNAME":"善化區","LI":"六分里","LIN":"8鄰","STREET":" ","SECT":" ","MAREA":"溪底寮","LANE":" ","ALLEY":" ","HOUSE_NO":"１０號","E_COORD97":177899.62,"N_COORD97":2561980.27,"ADDRESS":"溪底寮１０號","OBJECTID":31831},"geometry":{"x":177899.62000000104,"y":2561980.2699999996}},{"attributes":{"ID":31832,"DIS_CODE":0,"TOWNNAME":"中西區","LI":"光賢里","LIN":"8鄰","STREET":"武聖路","SECT":" ","MAREA":" ","LANE":"６９巷","ALLEY":"９９弄","HOUSE_NO":"２４號","E_COORD97":167085.04000000001,"N_COORD97":2544860.3100000001,"ADDRESS":"武聖路６９巷９９弄２４號","OBJECTID":31832},"geometry":{"x":167085.04000000004,"y":2544860.3100000042}},{"attributes":{"ID":31833,"DIS_CODE":0,"TOWNNAME":"中西區","LI":"光賢里","LIN":"8鄰","STREET":"武聖路","SECT":" ","MAREA":" ","LANE":"６９巷","ALLEY":"９９弄","HOUSE_NO":"２５號","E_COORD97":167098.45999999999,"N_COORD97":2544876.8100000001,"ADDRESS":"武聖路６９巷９９弄２５號","OBJECTID":31833},"geometry":{"x":167098.46000000089,"y":2544876.8099999987}},{"attributes":{"ID":31834,"DIS_CODE":0,"TOWNNAME":"安南區","LI":"州南里","LIN":"1鄰","STREET":"安和路","SECT":"四段","MAREA":" ","LANE":"２７４巷","ALLEY":"１３弄","HOUSE_NO":"８號","E_COORD97":170001.38505099999,"N_COORD97":2550821.5874000001,"ADDRESS":"安和路四段２７４巷１３弄８號","OBJECTID":31834},"geometry":{"x":170001.38505100086,"y":2550821.5874050017}},{"attributes":{"ID":31835,"DIS_CODE":0,"TOWNNAME":"中西區","LI":"光賢里","LIN":"8鄰","STREET":"武聖路","SECT":" ","MAREA":" ","LANE":"６９巷","ALLEY":"９９弄","HOUSE_NO":"２６號","E_COORD97":167088.29999999999,"N_COORD97":2544858.6899999999,"ADDRESS":"武聖路６９巷９９弄２６號","OBJECTID":31835},"geometry":{"x":167088.29999999981,"y":2544858.6899999995}},{"attributes":{"ID":31836,"DIS_CODE":0,"TOWNNAME":"中西區","LI":"光賢里","LIN":"8鄰","STREET":"武聖路","SECT":" ","MAREA":" ","LANE":"６９巷","ALLEY":"９９弄","HOUSE_NO":"２７號","E_COORD97":167101.84,"N_COORD97":2544875.1200000001,"ADDRESS":"武聖路６９巷９９弄２７號","OBJECTID":31836},"geometry":{"x":167101.83999999985,"y":2544875.120000001}},{"attributes":{"ID":31837,"DIS_CODE":0,"TOWNNAME":"中西區","LI":"光賢里","LIN":"8鄰","STREET":"武聖路","SECT":" ","MAREA":" ","LANE":"６９巷","ALLEY":"９９弄","HOUSE_NO":"２８號","E_COORD97":167092.20999999999,"N_COORD97":2544856.73,"ADDRESS":"武聖路６９巷９９弄２８號","OBJECTID":31837},"geometry":{"x":167092.20999999996,"y":2544856.7300000004}},{"attributes":{"ID":31838,"DIS_CODE":0,"TOWNNAME":"中西區","LI":"光賢里","LIN":"8鄰","STREET":"武聖路","SECT":" ","MAREA":" ","LANE":"６９巷","ALLEY":"９９弄","HOUSE_NO":"２９號","E_COORD97":166615.38,"N_COORD97":2545209.7400000002,"ADDRESS":"武聖路６９巷９９弄２９號","OBJECTID":31838},"geometry":{"x":166615.38000000175,"y":2545209.7400000039}},{"attributes":{"ID":31839,"DIS_CODE":0,"TOWNNAME":"中西區","LI":"光賢里","LIN":"8鄰","STREET":"武聖路","SECT":" ","MAREA":" ","LANE":"６９巷","ALLEY":"９９弄","HOUSE_NO":"２號","E_COORD97":167045.94,"N_COORD97":2544882.1200000001,"ADDRESS":"武聖路６９巷９９弄２號","OBJECTID":31839},"geometry":{"x":167045.94000000041,"y":2544882.1199999992}},{"attributes":{"ID":31840,"DIS_CODE":0,"TOWNNAME":"中西區","LI":"光賢里","LIN":"8鄰","STREET":"武聖路","SECT":" ","MAREA":" ","LANE":"６９巷","ALLEY":"９９弄","HOUSE_NO":"３０號","E_COORD97":167095.79000000001,"N_COORD97":2544855.7599999998,"ADDRESS":"武聖路６９巷９９弄３０號","OBJECTID":31840},"geometry":{"x":167095.79000000004,"y":2544855.7599999998}},{"attributes":{"ID":31841,"DIS_CODE":0,"TOWNNAME":"中西區","LI":"光賢里","LIN":"8鄰","STREET":"武聖路","SECT":" ","MAREA":" ","LANE":"６９巷","ALLEY":"９９弄","HOUSE_NO":"３號","E_COORD97":167063.32000000001,"N_COORD97":2544896.29,"ADDRESS":"武聖路６９巷９９弄３號","OBJECTID":31841},"geometry":{"x":167063.3200000003,"y":2544896.2900000028}},{"attributes":{"ID":31842,"DIS_CODE":0,"TOWNNAME":"中西區","LI":"光賢里","LIN":"8鄰","STREET":"武聖路","SECT":" ","MAREA":" ","LANE":"６９巷","ALLEY":"９９弄","HOUSE_NO":"５號","E_COORD97":167066.92000000001,"N_COORD97":2544894.1699999999,"ADDRESS":"武聖路６９巷９９弄５號","OBJECTID":31842},"geometry":{"x":167066.92000000086,"y":2544894.1699999981}},{"attributes":{"ID":31843,"DIS_CODE":0,"TOWNNAME":"中西區","LI":"光賢里","LIN":"8鄰","STREET":"武聖路","SECT":" ","MAREA":" ","LANE":"６９巷","ALLEY":"９９弄","HOUSE_NO":"６號","E_COORD97":167053.10999999999,"N_COORD97":2544877.8799999999,"ADDRESS":"武聖路６９巷９９弄６號","OBJECTID":31843},"geometry":{"x":167053.11000000034,"y":2544877.879999999}},{"attributes":{"ID":31844,"DIS_CODE":0,"TOWNNAME":"善化區","LI":"六分里","LIN":"8鄰","STREET":" ","SECT":" ","MAREA":"溪底寮","LANE":" ","ALLEY":" ","HOUSE_NO":"９號之２","E_COORD97":177924.57999999999,"N_COORD97":2561908.77,"ADDRESS":"溪底寮９號之２","OBJECTID":31844},"geometry":{"x":177924.58000000194,"y":2561908.7699999996}},{"attributes":{"ID":31845,"DIS_CODE":0,"TOWNNAME":"善化區","LI":"牛庄里","LIN":"8鄰","STREET":" ","SECT":" ","MAREA":"牛庄","LANE":" ","ALLEY":" ","HOUSE_NO":"９２號之３","E_COORD97":180075.76999999999,"N_COORD97":2560151.77,"ADDRESS":"牛庄９２號之３","OBJECTID":31845},"geometry":{"x":180075.77000000048,"y":2560151.7699999996}},{"attributes":{"ID":31846,"DIS_CODE":0,"TOWNNAME":"善化區","LI":"嘉北里","LIN":"8鄰","STREET":" ","SECT":" ","MAREA":"茄拔","LANE":" ","ALLEY":" ","HOUSE_NO":"１８５之４號","E_COORD97":181099.06,"N_COORD97":2560166.52,"ADDRESS":"茄拔１８５之４號","OBJECTID":31846},"geometry":{"x":181099.05999999959,"y":2560166.5200000014}},{"attributes":{"ID":31847,"DIS_CODE":0,"TOWNNAME":"中西區","LI":"光賢里","LIN":"8鄰","STREET":"武聖路","SECT":" ","MAREA":" ","LANE":"６９巷","ALLEY":"９９弄","HOUSE_NO":"７號","E_COORD97":167070.31,"N_COORD97":2544892.27,"ADDRESS":"武聖路６９巷９９弄７號","OBJECTID":31847},"geometry":{"x":167070.31000000052,"y":2544892.2699999996}},{"attributes":{"ID":31848,"DIS_CODE":0,"TOWNNAME":"善化區","LI":"牛庄里","LIN":"8鄰","STREET":" ","SECT":" ","MAREA":"牛庄","LANE":" ","ALLEY":" ","HOUSE_NO":"９８號之１","E_COORD97":180067.48000000001,"N_COORD97":2560062.27,"ADDRESS":"牛庄９８號之１","OBJECTID":31848},"geometry":{"x":180067.48000000138,"y":2560062.2700000014}},{"attributes":{"ID":31849,"DIS_CODE":0,"TOWNNAME":"中西區","LI":"光賢里","LIN":"8鄰","STREET":"武聖路","SECT":" ","MAREA":" ","LANE":"６９巷","ALLEY":"９９弄","HOUSE_NO":"８號","E_COORD97":167056.69,"N_COORD97":2544875.6099999999,"ADDRESS":"武聖路６９巷９９弄８號","OBJECTID":31849},"geometry":{"x":167056.69000000134,"y":2544875.6099999994}},{"attributes":{"ID":31850,"DIS_CODE":0,"TOWNNAME":"善化區","LI":"嘉北里","LIN":"8鄰","STREET":" ","SECT":" ","MAREA":"茄拔","LANE":" ","ALLEY":" ","HOUSE_NO":"１８４號之２","E_COORD97":181070.31,"N_COORD97":2560058.77,"ADDRESS":"茄拔１８４號之２","OBJECTID":31850},"geometry":{"x":181070.30999999959,"y":2560058.7700000014}},{"attributes":{"ID":31851,"DIS_CODE":0,"TOWNNAME":"中西區","LI":"光賢里","LIN":"8鄰","STREET":"武聖路","SECT":" ","MAREA":" ","LANE":"６９巷","ALLEY":"９９弄","HOUSE_NO":"９號","E_COORD97":167073.89999999999,"N_COORD97":2544890.5699999998,"ADDRESS":"武聖路６９巷９９弄９號","OBJECTID":31851},"geometry":{"x":167073.9000000013,"y":2544890.5700000003}},{"attributes":{"ID":31852,"DIS_CODE":0,"TOWNNAME":"永康區","LI":"大灣里","LIN":"8鄰","STREET":"民族路","SECT":" ","MAREA":" ","LANE":"３９６巷","ALLEY":"１６弄","HOUSE_NO":"８號","E_COORD97":174815.06,"N_COORD97":2545426.4399999999,"ADDRESS":"民族路３９６巷１６弄８號","OBJECTID":31852},"geometry":{"x":174815.05999999959,"y":2545426.4399999995}},{"attributes":{"ID":31853,"DIS_CODE":0,"TOWNNAME":"仁德區","LI":"仁義里","LIN":"8鄰","STREET":"中山路","SECT":" ","MAREA":" ","LANE":"５０９巷","ALLEY":"３弄","HOUSE_NO":"４號","E_COORD97":173567.66,"N_COORD97":2541245.25,"ADDRESS":"中山路５０９巷３弄４號","OBJECTID":31853},"geometry":{"x":173567.66000000108,"y":2541245.25}},{"attributes":{"ID":31854,"DIS_CODE":0,"TOWNNAME":"仁德區","LI":"仁義里","LIN":"8鄰","STREET":"中山路","SECT":" ","MAREA":" ","LANE":"５０９巷","ALLEY":"３弄","HOUSE_NO":"２號","E_COORD97":173563.70999999999,"N_COORD97":2541244.5,"ADDRESS":"中山路５０９巷３弄２號","OBJECTID":31854},"geometry":{"x":173563.71000000089,"y":2541244.5000000019}},{"attributes":{"ID":31855,"DIS_CODE":0,"TOWNNAME":"仁德區","LI":"仁義里","LIN":"8鄰","STREET":"中山路","SECT":" ","MAREA":" ","LANE":"５０９巷","ALLEY":"３弄","HOUSE_NO":"８號","E_COORD97":173575.98999999999,"N_COORD97":2541246.5,"ADDRESS":"中山路５０９巷３弄８號","OBJECTID":31855},"geometry":{"x":173575.99000000115,"y":2541246.5}},{"attributes":{"ID":31856,"DIS_CODE":0,"TOWNNAME":"仁德區","LI":"仁義里","LIN":"8鄰","STREET":"中山路","SECT":" ","MAREA":" ","LANE":"５０９巷","ALLEY":"３弄","HOUSE_NO":"１２號","E_COORD97":173585.51999999999,"N_COORD97":2541247.5,"ADDRESS":"中山路５０９巷３弄１２號","OBJECTID":31856},"geometry":{"x":173585.52000000048,"y":2541247.5000000037}},{"attributes":{"ID":31857,"DIS_CODE":0,"TOWNNAME":"仁德區","LI":"太子里","LIN":"8鄰","STREET":"太子路","SECT":" ","MAREA":" ","LANE":"１７２巷","ALLEY":"１弄","HOUSE_NO":"５號","E_COORD97":174361.01999999999,"N_COORD97":2543547.7599999998,"ADDRESS":"太子路１７２巷１弄５號","OBJECTID":31857},"geometry":{"x":174361.01999999862,"y":2543547.7600000035}},{"attributes":{"ID":31858,"DIS_CODE":0,"TOWNNAME":"仁德區","LI":"太子里","LIN":"8鄰","STREET":"太子路","SECT":" ","MAREA":" ","LANE":"１７２巷","ALLEY":"１弄","HOUSE_NO":"８號","E_COORD97":174350.45999999999,"N_COORD97":2543560.25,"ADDRESS":"太子路１７２巷１弄８號","OBJECTID":31858},"geometry":{"x":174350.46000000089,"y":2543560.25}},{"attributes":{"ID":31859,"DIS_CODE":0,"TOWNNAME":"將軍區","LI":"將富里","LIN":"14鄰","STREET":" ","SECT":" ","MAREA":"將榮","LANE":" ","ALLEY":" ","HOUSE_NO":"１００號","E_COORD97":161835.44,"N_COORD97":2568681.3399999999,"ADDRESS":"將榮１００號","OBJECTID":31859},"geometry":{"x":161835.44000000134,"y":2568681.3400000017}},{"attributes":{"ID":31860,"DIS_CODE":0,"TOWNNAME":"安南區","LI":"安富里","LIN":"8鄰","STREET":"郡安路","SECT":"五段","MAREA":" ","LANE":"１８４巷","ALLEY":"９４弄","HOUSE_NO":"２１號","E_COORD97":167428.91,"N_COORD97":2547491.29,"ADDRESS":"郡安路五段１８４巷９４弄２１號","OBJECTID":31860},"geometry":{"x":167428.91000000015,"y":2547491.290000001}},{"attributes":{"ID":31861,"DIS_CODE":0,"TOWNNAME":"東區","LI":"虎尾里","LIN":"8鄰","STREET":"東成街","SECT":" ","MAREA":" ","LANE":"１４２巷","ALLEY":"２２弄","HOUSE_NO":"２號","E_COORD97":171641.03,"N_COORD97":2542248.1000000001,"ADDRESS":"東成街１４２巷２２弄２號","OBJECTID":31861},"geometry":{"x":171641.03000000212,"y":2542248.1000000015}},{"attributes":{"ID":31862,"DIS_CODE":0,"TOWNNAME":"永康區","LI":"新樹里","LIN":"8鄰","STREET":"富強路","SECT":"二段","MAREA":" ","LANE":"１２８巷","ALLEY":"１４弄","HOUSE_NO":"５２號","E_COORD97":175717.88,"N_COORD97":2546981.8599999999,"ADDRESS":"富強路二段１２８巷１４弄５２號","OBJECTID":31862},"geometry":{"x":175717.87999999989,"y":2546981.8600000013}},{"attributes":{"ID":31863,"DIS_CODE":0,"TOWNNAME":"永康區","LI":"網寮里","LIN":"8鄰","STREET":"永二街","SECT":" ","MAREA":" ","LANE":"２４４巷","ALLEY":"４弄","HOUSE_NO":"２７號","E_COORD97":173326.98000000001,"N_COORD97":2546327.6499999999,"ADDRESS":"永二街２４４巷４弄２７號","OBJECTID":31863},"geometry":{"x":173326.98000000138,"y":2546327.6500000004}},{"attributes":{"ID":31864,"DIS_CODE":0,"TOWNNAME":"永康區","LI":"新樹里","LIN":"8鄰","STREET":"富強路","SECT":"二段","MAREA":" ","LANE":"５６巷","ALLEY":"５８弄","HOUSE_NO":"３６號","E_COORD97":175817.12,"N_COORD97":2546924.0299999998,"ADDRESS":"富強路二段５６巷５８弄３６號","OBJECTID":31864},"geometry":{"x":175817.11999999918,"y":2546924.0299999993}},{"attributes":{"ID":31865,"DIS_CODE":0,"TOWNNAME":"永康區","LI":"網寮里","LIN":"8鄰","STREET":"永二街","SECT":" ","MAREA":" ","LANE":"２４４巷","ALLEY":"４弄","HOUSE_NO":"７號","E_COORD97":173280.82000000001,"N_COORD97":2546356.3900000001,"ADDRESS":"永二街２４４巷４弄７號","OBJECTID":31865},"geometry":{"x":173280.82000000123,"y":2546356.3900000025}},{"attributes":{"ID":31866,"DIS_CODE":0,"TOWNNAME":"永康區","LI":"新樹里","LIN":"8鄰","STREET":"富強路","SECT":"二段","MAREA":" ","LANE":"５６巷","ALLEY":"５８弄","HOUSE_NO":"３２號","E_COORD97":175817.16,"N_COORD97":2546920.27,"ADDRESS":"富強路二段５６巷５８弄３２號","OBJECTID":31866},"geometry":{"x":175817.16000000108,"y":2546920.2699999996}},{"attributes":{"ID":31867,"DIS_CODE":0,"TOWNNAME":"永康區","LI":"網寮里","LIN":"8鄰","STREET":"永二街","SECT":" ","MAREA":" ","LANE":"２４４巷","ALLEY":"６弄","HOUSE_NO":"１２號","E_COORD97":173295.81,"N_COORD97":2546367.5800000001,"ADDRESS":"永二街２４４巷６弄１２號","OBJECTID":31867},"geometry":{"x":173295.80999999959,"y":2546367.5800000019}},{"attributes":{"ID":31868,"DIS_CODE":0,"TOWNNAME":"永康區","LI":"新樹里","LIN":"8鄰","STREET":"富強路","SECT":"二段","MAREA":" ","LANE":"５６巷","ALLEY":"５８弄","HOUSE_NO":"６號","E_COORD97":175822.23000000001,"N_COORD97":2546990.6000000001,"ADDRESS":"富強路二段５６巷５８弄６號","OBJECTID":31868},"geometry":{"x":175822.23000000138,"y":2546990.6000000015}},{"attributes":{"ID":31869,"DIS_CODE":0,"TOWNNAME":"永康區","LI":"新樹里","LIN":"8鄰","STREET":"富強路","SECT":"二段","MAREA":" ","LANE":"５６巷","ALLEY":"５８弄","HOUSE_NO":"３０號","E_COORD97":175819.32000000001,"N_COORD97":2546939.23,"ADDRESS":"富強路二段５６巷５８弄３０號","OBJECTID":31869},"geometry":{"x":175819.3200000003,"y":2546939.2300000023}},{"attributes":{"ID":31870,"DIS_CODE":0,"TOWNNAME":"永康區","LI":"\u25A0行里","LIN":"8鄰","STREET":"中正一街","SECT":" ","MAREA":" ","LANE":"３２巷","ALLEY":"１５弄","HOUSE_NO":"１號","E_COORD97":172926.38,"N_COORD97":2548382,"ADDRESS":"中正一街３２巷１５弄１號","OBJECTID":31870},"geometry":{"x":172926.37999999989,"y":2548382.0000000019}},{"attributes":{"ID":31871,"DIS_CODE":0,"TOWNNAME":"永康區","LI":"網寮里","LIN":"8鄰","STREET":"永二街","SECT":" ","MAREA":" ","LANE":"２４４巷","ALLEY":"４弄","HOUSE_NO":"１５號","E_COORD97":173300.07000000001,"N_COORD97":2546345.1499999999,"ADDRESS":"永二街２４４巷４弄１５號","OBJECTID":31871},"geometry":{"x":173300.0700000003,"y":2546345.1500000004}},{"attributes":{"ID":31872,"DIS_CODE":0,"TOWNNAME":"善化區","LI":"嘉北里","LIN":"8鄰","STREET":" ","SECT":" ","MAREA":"茄拔","LANE":" ","ALLEY":" ","HOUSE_NO":"１８１號之２７","E_COORD97":181132.70000000001,"N_COORD97":2560180.27,"ADDRESS":"茄拔１８１號之２７","OBJECTID":31872},"geometry":{"x":181132.70000000019,"y":2560180.2699999977}},{"attributes":{"ID":31873,"DIS_CODE":0,"TOWNNAME":"善化區","LI":"溪美里","LIN":"8鄰","STREET":" ","SECT":" ","MAREA":"溪尾","LANE":" ","ALLEY":" ","HOUSE_NO":"７２之１８號","E_COORD97":176307.16,"N_COORD97":2561463.52,"ADDRESS":"溪尾７２之１８號","OBJECTID":31873},"geometry":{"x":176307.16000000108,"y":2561463.5199999977}},{"attributes":{"ID":31874,"DIS_CODE":0,"TOWNNAME":"官田區","LI":"東庄里","LIN":"8鄰","STREET":" ","SECT":" ","MAREA":"西庄","LANE":" ","ALLEY":" ","HOUSE_NO":"１４７號之３","E_COORD97":178065.75,"N_COORD97":2565155.4399999999,"ADDRESS":"西庄１４７號之３","OBJECTID":31874},"geometry":{"x":178065.75000000186,"y":2565155.4399999995}},{"attributes":{"ID":31875,"DIS_CODE":0,"TOWNNAME":"官田區","LI":"東庄里","LIN":"8鄰","STREET":" ","SECT":" ","MAREA":"西庄","LANE":" ","ALLEY":" ","HOUSE_NO":"１４８號","E_COORD97":178086.98000000001,"N_COORD97":2565166.5099999998,"ADDRESS":"西庄１４８號","OBJECTID":31875},"geometry":{"x":178086.98000000138,"y":2565166.5100000035}},{"attributes":{"ID":31876,"DIS_CODE":0,"TOWNNAME":"官田區","LI":"東庄里","LIN":"8鄰","STREET":" ","SECT":" ","MAREA":"西庄","LANE":" ","ALLEY":" ","HOUSE_NO":"１４９號","E_COORD97":178113.64999999999,"N_COORD97":2565139.6800000002,"ADDRESS":"西庄１４９號","OBJECTID":31876},"geometry":{"x":178113.65000000037,"y":2565139.6800000016}},{"attributes":{"ID":31877,"DIS_CODE":0,"TOWNNAME":"永康區","LI":"新樹里","LIN":"8鄰","STREET":"富強路","SECT":"二段","MAREA":" ","LANE":"５６巷","ALLEY":"１９弄","HOUSE_NO":"１０號","E_COORD97":175751.56,"N_COORD97":2546972.0699999998,"ADDRESS":"富強路二段５６巷１９弄１０號","OBJECTID":31877},"geometry":{"x":175751.56000000052,"y":2546972.0700000003}},{"attributes":{"ID":31878,"DIS_CODE":0,"TOWNNAME":"官田區","LI":"東庄里","LIN":"8鄰","STREET":" ","SECT":" ","MAREA":"西庄","LANE":" ","ALLEY":" ","HOUSE_NO":"１５０號","E_COORD97":178123.04000000001,"N_COORD97":2565143.5099999998,"ADDRESS":"西庄１５０號","OBJECTID":31878},"geometry":{"x":178123.03999999911,"y":2565143.5100000016}},{"attributes":{"ID":31879,"DIS_CODE":0,"TOWNNAME":"官田區","LI":"東庄里","LIN":"8鄰","STREET":" ","SECT":" ","MAREA":"西庄","LANE":" ","ALLEY":" ","HOUSE_NO":"１５１號","E_COORD97":178132.89999999999,"N_COORD97":2565131.9199999999,"ADDRESS":"西庄１５１號","OBJECTID":31879},"geometry":{"x":178132.90000000224,"y":2565131.9199999999}},{"attributes":{"ID":31880,"DIS_CODE":0,"TOWNNAME":"永康區","LI":"\u25A0行里","LIN":"8鄰","STREET":"中正一街","SECT":" ","MAREA":" ","LANE":"３２巷","ALLEY":"１５弄","HOUSE_NO":"５號","E_COORD97":172917.14999999999,"N_COORD97":2548408.5600000001,"ADDRESS":"中正一街３２巷１５弄５號","OBJECTID":31880},"geometry":{"x":172917.1500000013,"y":2548408.5600000024}},{"attributes":{"ID":31881,"DIS_CODE":0,"TOWNNAME":"永康區","LI":"網寮里","LIN":"8鄰","STREET":"永二街","SECT":" ","MAREA":" ","LANE":"２４４巷","ALLEY":"６弄","HOUSE_NO":"４號","E_COORD97":173275.89999999999,"N_COORD97":2546379.3300000001,"ADDRESS":"永二街２４４巷６弄４號","OBJECTID":31881},"geometry":{"x":173275.90000000037,"y":2546379.3300000019}},{"attributes":{"ID":31882,"DIS_CODE":0,"TOWNNAME":"安南區","LI":"海佃里","LIN":"8鄰","STREET":"國安街","SECT":" ","MAREA":" ","LANE":"５６巷","ALLEY":"６７弄","HOUSE_NO":"１０號","E_COORD97":166914.5,"N_COORD97":2547215.0699999998,"ADDRESS":"國安街５６巷６７弄１０號","OBJECTID":31882},"geometry":{"x":166914.5,"y":2547215.0700000022}},{"attributes":{"ID":31883,"DIS_CODE":0,"TOWNNAME":"安南區","LI":"海佃里","LIN":"8鄰","STREET":"國安街","SECT":" ","MAREA":" ","LANE":"５６巷","ALLEY":"６７弄","HOUSE_NO":"１１號","E_COORD97":166914.5,"N_COORD97":2547188.5,"ADDRESS":"國安街５６巷６７弄１１號","OBJECTID":31883},"geometry":{"x":166914.5,"y":2547188.5000000019}},{"attributes":{"ID":31884,"DIS_CODE":0,"TOWNNAME":"安南區","LI":"海佃里","LIN":"8鄰","STREET":"國安街","SECT":" ","MAREA":" ","LANE":"５６巷","ALLEY":"６７弄","HOUSE_NO":"１２號","E_COORD97":166909.85000000001,"N_COORD97":2547213.7400000002,"ADDRESS":"國安街５６巷６７弄１２號","OBJECTID":31884},"geometry":{"x":166909.84999999963,"y":2547213.7400000021}},{"attributes":{"ID":31885,"DIS_CODE":0,"TOWNNAME":"安南區","LI":"海佃里","LIN":"8鄰","STREET":"國安街","SECT":" ","MAREA":" ","LANE":"５６巷","ALLEY":"６７弄","HOUSE_NO":"１３號","E_COORD97":166909.17999999999,"N_COORD97":2547187.8399999999,"ADDRESS":"國安街５６巷６７弄１３號","OBJECTID":31885},"geometry":{"x":166909.1799999997,"y":2547187.8399999999}},{"attributes":{"ID":31886,"DIS_CODE":0,"TOWNNAME":"安南區","LI":"海佃里","LIN":"8鄰","STREET":"國安街","SECT":" ","MAREA":" ","LANE":"５６巷","ALLEY":"６７弄","HOUSE_NO":"１４號","E_COORD97":166904.53,"N_COORD97":2547213.7400000002,"ADDRESS":"國安街５６巷６７弄１４號","OBJECTID":31886},"geometry":{"x":166904.53000000026,"y":2547213.7400000021}},{"attributes":{"ID":31887,"DIS_CODE":0,"TOWNNAME":"安南區","LI":"海佃里","LIN":"8鄰","STREET":"國安街","SECT":" ","MAREA":" ","LANE":"５６巷","ALLEY":"６７弄","HOUSE_NO":"１５號","E_COORD97":166903.85999999999,"N_COORD97":2547185.8399999999,"ADDRESS":"國安街５６巷６７弄１５號","OBJECTID":31887},"geometry":{"x":166903.86000000034,"y":2547185.8400000017}},{"attributes":{"ID":31888,"DIS_CODE":0,"TOWNNAME":"安南區","LI":"海佃里","LIN":"8鄰","STREET":"國安街","SECT":" ","MAREA":" ","LANE":"５６巷","ALLEY":"６７弄","HOUSE_NO":"１６號","E_COORD97":166898.54000000001,"N_COORD97":2547212.4199999999,"ADDRESS":"國安街５６巷６７弄１６號","OBJECTID":31888},"geometry":{"x":166898.54000000004,"y":2547212.4200000018}},{"attributes":{"ID":31889,"DIS_CODE":0,"TOWNNAME":"安南區","LI":"海佃里","LIN":"8鄰","STREET":"國安街","SECT":" ","MAREA":" ","LANE":"５６巷","ALLEY":"６７弄","HOUSE_NO":"１７號","E_COORD97":166898.54000000001,"N_COORD97":2547185.8399999999,"ADDRESS":"國安街５６巷６７弄１７號","OBJECTID":31889},"geometry":{"x":166898.54000000004,"y":2547185.8400000017}},{"attributes":{"ID":31890,"DIS_CODE":0,"TOWNNAME":"安南區","LI":"海佃里","LIN":"8鄰","STREET":"國安街","SECT":" ","MAREA":" ","LANE":"５６巷","ALLEY":"６７弄","HOUSE_NO":"１８號","E_COORD97":166893.22,"N_COORD97":2547211.0899999999,"ADDRESS":"國安街５６巷６７弄１８號","OBJECTID":31890},"geometry":{"x":166893.22000000067,"y":2547211.0900000017}},{"attributes":{"ID":31891,"DIS_CODE":0,"TOWNNAME":"安南區","LI":"海佃里","LIN":"8鄰","STREET":"國安街","SECT":" ","MAREA":" ","LANE":"５６巷","ALLEY":"６７弄","HOUSE_NO":"１９號","E_COORD97":166893.89000000001,"N_COORD97":2547185.1800000002,"ADDRESS":"國安街５６巷６７弄１９號","OBJECTID":31891},"geometry":{"x":166893.8900000006,"y":2547185.1799999997}},{"attributes":{"ID":31892,"DIS_CODE":0,"TOWNNAME":"安南區","LI":"海佃里","LIN":"8鄰","STREET":"國安街","SECT":" ","MAREA":" ","LANE":"５６巷","ALLEY":"６７弄","HOUSE_NO":"２０號","E_COORD97":166887.23999999999,"N_COORD97":2547210.4199999999,"ADDRESS":"國安街５６巷６７弄２０號","OBJECTID":31892},"geometry":{"x":166887.24000000022,"y":2547210.4199999999}},{"attributes":{"ID":31893,"DIS_CODE":0,"TOWNNAME":"安南區","LI":"海佃里","LIN":"8鄰","STREET":"國安街","SECT":" ","MAREA":" ","LANE":"５６巷","ALLEY":"６７弄","HOUSE_NO":"２１號","E_COORD97":166887.23999999999,"N_COORD97":2547183.1899999999,"ADDRESS":"國安街５６巷６７弄２１號","OBJECTID":31893},"geometry":{"x":166887.24000000022,"y":2547183.1900000013}},{"attributes":{"ID":31894,"DIS_CODE":0,"TOWNNAME":"仁德區","LI":"仁愛里","LIN":"14鄰","STREET":" ","SECT":" ","MAREA":"仁愛","LANE":" ","ALLEY":" ","HOUSE_NO":"２８９號","E_COORD97":170254.29657999999,"N_COORD97":2539927.1499999999,"ADDRESS":"仁愛２８９號","OBJECTID":31894},"geometry":{"x":170254.29657999985,"y":2539927.1500000004}},{"attributes":{"ID":31895,"DIS_CODE":0,"TOWNNAME":"仁德區","LI":"土庫里","LIN":"14鄰","STREET":"土庫路","SECT":" ","MAREA":" ","LANE":" ","ALLEY":" ","HOUSE_NO":"１５７號","E_COORD97":174363.09,"N_COORD97":2543048.4900000002,"ADDRESS":"土庫路１５７號","OBJECTID":31895},"geometry":{"x":174363.09000000078,"y":2543048.4900000021}},{"attributes":{"ID":31896,"DIS_CODE":0,"TOWNNAME":"將軍區","LI":"廣山里","LIN":"14鄰","STREET":" ","SECT":" ","MAREA":"廣山","LANE":" ","ALLEY":" ","HOUSE_NO":"１４０號","E_COORD97":159534.44,"N_COORD97":2569254.71,"ADDRESS":"廣山１４０號","OBJECTID":31896},"geometry":{"x":159534.44000000041,"y":2569254.709999999}},{"attributes":{"ID":31897,"DIS_CODE":0,"TOWNNAME":"龍崎區","LI":"崎頂里","LIN":"14鄰","STREET":" ","SECT":" ","MAREA":"石梯","LANE":" ","ALLEY":" ","HOUSE_NO":"２之１號","E_COORD97":186496.62,"N_COORD97":2540537.2999999998,"ADDRESS":"石梯２之１號","OBJECTID":31897},"geometry":{"x":186496.62000000011,"y":2540537.3000000007}},{"attributes":{"ID":31898,"DIS_CODE":0,"TOWNNAME":"安南區","LI":"海佃里","LIN":"8鄰","STREET":"國安街","SECT":" ","MAREA":" ","LANE":"５６巷","ALLEY":"６７弄","HOUSE_NO":"２２號","E_COORD97":166881.92000000001,"N_COORD97":2547208.4300000002,"ADDRESS":"國安街５６巷６７弄２２號","OBJECTID":31898},"geometry":{"x":166881.92000000086,"y":2547208.4300000016}},{"attributes":{"ID":31899,"DIS_CODE":0,"TOWNNAME":"安南區","LI":"海佃里","LIN":"8鄰","STREET":"國安街","SECT":" ","MAREA":" ","LANE":"５６巷","ALLEY":"６７弄","HOUSE_NO":"２３號","E_COORD97":166881.92000000001,"N_COORD97":2547181.1899999999,"ADDRESS":"國安街５６巷６７弄２３號","OBJECTID":31899},"geometry":{"x":166881.92000000086,"y":2547181.1899999995}},{"attributes":{"ID":31900,"DIS_CODE":0,"TOWNNAME":"龍崎區","LI":"崎頂里","LIN":"14鄰","STREET":" ","SECT":" ","MAREA":"石梯","LANE":" ","ALLEY":" ","HOUSE_NO":"３號","E_COORD97":186659.92000000001,"N_COORD97":2540556.25,"ADDRESS":"石梯３號","OBJECTID":31900},"geometry":{"x":186659.92000000086,"y":2540556.25}},{"attributes":{"ID":31901,"DIS_CODE":0,"TOWNNAME":"安南區","LI":"海佃里","LIN":"8鄰","STREET":"國安街","SECT":" ","MAREA":" ","LANE":"５６巷","ALLEY":"６７弄","HOUSE_NO":"２４號","E_COORD97":166876.60000000001,"N_COORD97":2547209.7599999998,"ADDRESS":"國安街５６巷６７弄２４號","OBJECTID":31901},"geometry":{"x":166876.60000000056,"y":2547209.7600000016}},{"attributes":{"ID":31902,"DIS_CODE":0,"TOWNNAME":"安定區","LI":"安加里","LIN":"14鄰","STREET":" ","SECT":" ","MAREA":"安定","LANE":" ","ALLEY":" ","HOUSE_NO":"３０１之１號","E_COORD97":171702.72,"N_COORD97":2557467.3199999998,"ADDRESS":"安定３０１之１號","OBJECTID":31902},"geometry":{"x":171702.72000000067,"y":2557467.3200000003}},{"attributes":{"ID":31903,"DIS_CODE":0,"TOWNNAME":"安定區","LI":"安加里","LIN":"14鄰","STREET":" ","SECT":" ","MAREA":"安定","LANE":" ","ALLEY":" ","HOUSE_NO":"３０５號","E_COORD97":171655.22,"N_COORD97":2557527.3199999998,"ADDRESS":"安定３０５號","OBJECTID":31903},"geometry":{"x":171655.22000000067,"y":2557527.3200000022}},{"attributes":{"ID":31904,"DIS_CODE":0,"TOWNNAME":"安定區","LI":"大同里","LIN":"14鄰","STREET":" ","SECT":" ","MAREA":"牛肉寮","LANE":" ","ALLEY":" ","HOUSE_NO":"６７號","E_COORD97":170891.82000000001,"N_COORD97":2552856.25,"ADDRESS":"牛肉寮６７號","OBJECTID":31904},"geometry":{"x":170891.82000000123,"y":2552856.25}},{"attributes":{"ID":31905,"DIS_CODE":0,"TOWNNAME":"安定區","LI":"海寮里","LIN":"14鄰","STREET":" ","SECT":" ","MAREA":"海寮","LANE":" ","ALLEY":" ","HOUSE_NO":"１３７之７號","E_COORD97":168936.73999999999,"N_COORD97":2555641.2999999998,"ADDRESS":"海寮１３７之７號","OBJECTID":31905},"geometry":{"x":168936.74000000022,"y":2555641.3000000007}},{"attributes":{"ID":31906,"DIS_CODE":0,"TOWNNAME":"安南區","LI":"海佃里","LIN":"8鄰","STREET":"國安街","SECT":" ","MAREA":" ","LANE":"５６巷","ALLEY":"６７弄","HOUSE_NO":"２５號","E_COORD97":166876.60000000001,"N_COORD97":2547180.5299999998,"ADDRESS":"國安街５６巷６７弄２５號","OBJECTID":31906},"geometry":{"x":166876.60000000056,"y":2547180.5300000012}},{"attributes":{"ID":31907,"DIS_CODE":0,"TOWNNAME":"安南區","LI":"海佃里","LIN":"8鄰","STREET":"國安街","SECT":" ","MAREA":" ","LANE":"５６巷","ALLEY":"６７弄","HOUSE_NO":"２６號","E_COORD97":166871.28,"N_COORD97":2547206.4399999999,"ADDRESS":"國安街５６巷６７弄２６號","OBJECTID":31907},"geometry":{"x":166871.28000000119,"y":2547206.4399999995}},{"attributes":{"ID":31908,"DIS_CODE":0,"TOWNNAME":"安南區","LI":"海佃里","LIN":"8鄰","STREET":"國安街","SECT":" ","MAREA":" ","LANE":"５６巷","ALLEY":"６７弄","HOUSE_NO":"２７號","E_COORD97":166872.60999999999,"N_COORD97":2547179.8700000001,"ADDRESS":"國安街５６巷６７弄２７號","OBJECTID":31908},"geometry":{"x":166872.61000000127,"y":2547179.8700000029}},{"attributes":{"ID":31909,"DIS_CODE":0,"TOWNNAME":"安南區","LI":"海佃里","LIN":"8鄰","STREET":"國安街","SECT":" ","MAREA":" ","LANE":"５６巷","ALLEY":"６７弄","HOUSE_NO":"２８號","E_COORD97":166865.95999999999,"N_COORD97":2547205.77,"ADDRESS":"國安街５６巷６７弄２８號","OBJECTID":31909},"geometry":{"x":166865.96000000183,"y":2547205.7700000033}},{"attributes":{"ID":31910,"DIS_CODE":0,"TOWNNAME":"安南區","LI":"海佃里","LIN":"8鄰","STREET":"國安街","SECT":" ","MAREA":" ","LANE":"５６巷","ALLEY":"６７弄","HOUSE_NO":"２９號","E_COORD97":166866.62,"N_COORD97":2547178.54,"ADDRESS":"國安街５６巷６７弄２９號","OBJECTID":31910},"geometry":{"x":166866.62000000197,"y":2547178.5399999991}},{"attributes":{"ID":31911,"DIS_CODE":0,"TOWNNAME":"安南區","LI":"海佃里","LIN":"8鄰","STREET":"國安街","SECT":" ","MAREA":" ","LANE":"５６巷","ALLEY":"６７弄","HOUSE_NO":"３０號","E_COORD97":166860.64000000001,"N_COORD97":2547204.4399999999,"ADDRESS":"國安街５６巷６７弄３０號","OBJECTID":31911},"geometry":{"x":166860.63999999966,"y":2547204.4400000032}},{"attributes":{"ID":31912,"DIS_CODE":0,"TOWNNAME":"佳里區","LI":"海澄里","LIN":"14鄰","STREET":" ","SECT":" ","MAREA":"番子寮","LANE":" ","ALLEY":" ","HOUSE_NO":"１０２號之１０","E_COORD97":164070.84,"N_COORD97":2564665.6899999999,"ADDRESS":"番子寮１０２號之１０","OBJECTID":31912},"geometry":{"x":164070.83999999985,"y":2564665.6899999995}},{"attributes":{"ID":31913,"DIS_CODE":0,"TOWNNAME":"佳里區","LI":"海澄里","LIN":"14鄰","STREET":" ","SECT":" ","MAREA":"番子寮","LANE":" ","ALLEY":" ","HOUSE_NO":"１０２號之１１","E_COORD97":164065.78,"N_COORD97":2564666.02,"ADDRESS":"番子寮１０２號之１１","OBJECTID":31913},"geometry":{"x":164065.78000000119,"y":2564666.0199999996}},{"attributes":{"ID":31914,"DIS_CODE":0,"TOWNNAME":"安南區","LI":"海佃里","LIN":"8鄰","STREET":"國安街","SECT":" ","MAREA":" ","LANE":"５６巷","ALLEY":"６７弄","HOUSE_NO":"３１號","E_COORD97":166859.97,"N_COORD97":2547177.21,"ADDRESS":"國安街５６巷６７弄３１號","OBJECTID":31914},"geometry":{"x":166859.96999999974,"y":2547177.2100000028}},{"attributes":{"ID":31915,"DIS_CODE":0,"TOWNNAME":"佳里區","LI":"海澄里","LIN":"14鄰","STREET":" ","SECT":" ","MAREA":"番子寮","LANE":" ","ALLEY":" ","HOUSE_NO":"１０２號之１２","E_COORD97":164061.37,"N_COORD97":2564665.6499999999,"ADDRESS":"番子寮１０２號之１２","OBJECTID":31915},"geometry":{"x":164061.37000000104,"y":2564665.6500000022}},{"attributes":{"ID":31916,"DIS_CODE":0,"TOWNNAME":"安南區","LI":"海佃里","LIN":"8鄰","STREET":"國安街","SECT":" ","MAREA":" ","LANE":"５６巷","ALLEY":"６７弄","HOUSE_NO":"３２號","E_COORD97":166854.64999999999,"N_COORD97":2547204.4399999999,"ADDRESS":"國安街５６巷６７弄３２號","OBJECTID":31916},"geometry":{"x":166854.65000000037,"y":2547204.4400000032}},{"attributes":{"ID":31917,"DIS_CODE":0,"TOWNNAME":"佳里區","LI":"海澄里","LIN":"14鄰","STREET":" ","SECT":" ","MAREA":"番子寮","LANE":" ","ALLEY":" ","HOUSE_NO":"１１１號之５","E_COORD97":163913.37,"N_COORD97":2564687.29,"ADDRESS":"番子寮１１１號之５","OBJECTID":31917},"geometry":{"x":163913.37000000011,"y":2564687.290000001}},{"attributes":{"ID":31918,"DIS_CODE":0,"TOWNNAME":"佳里區","LI":"海澄里","LIN":"14鄰","STREET":" ","SECT":" ","MAREA":"番子寮","LANE":" ","ALLEY":" ","HOUSE_NO":"１１１號之６","E_COORD97":163913.5,"N_COORD97":2564691.9300000002,"ADDRESS":"番子寮１１１號之６","OBJECTID":31918},"geometry":{"x":163913.5,"y":2564691.9299999978}},{"attributes":{"ID":31919,"DIS_CODE":0,"TOWNNAME":"歸仁區","LI":"六甲里","LIN":"8鄰","STREET":"中正十五街","SECT":" ","MAREA":" ","LANE":" ","ALLEY":" ","HOUSE_NO":"９０號","E_COORD97":176482.91,"N_COORD97":2539448.25,"ADDRESS":"中正十五街９０號","OBJECTID":31919},"geometry":{"x":176482.91000000015,"y":2539448.25}},{"attributes":{"ID":31920,"DIS_CODE":0,"TOWNNAME":"佳里區","LI":"海澄里","LIN":"14鄰","STREET":" ","SECT":" ","MAREA":"番子寮","LANE":" ","ALLEY":" ","HOUSE_NO":"１１１號之７","E_COORD97":163913.35000000001,"N_COORD97":2564696.1899999999,"ADDRESS":"番子寮１１１號之７","OBJECTID":31920},"geometry":{"x":163913.35000000149,"y":2564696.1899999995}},{"attributes":{"ID":31921,"DIS_CODE":0,"TOWNNAME":"佳里區","LI":"海澄里","LIN":"14鄰","STREET":" ","SECT":" ","MAREA":"番子寮","LANE":" ","ALLEY":" ","HOUSE_NO":"１１１號之８","E_COORD97":163913.17000000001,"N_COORD97":2564700.1699999999,"ADDRESS":"番子寮１１１號之８","OBJECTID":31921},"geometry":{"x":163913.17000000179,"y":2564700.1699999999}},{"attributes":{"ID":31922,"DIS_CODE":0,"TOWNNAME":"佳里區","LI":"海澄里","LIN":"14鄰","STREET":" ","SECT":" ","MAREA":"番子寮","LANE":" ","ALLEY":" ","HOUSE_NO":"１１１號","E_COORD97":163941.87,"N_COORD97":2564692.2400000002,"ADDRESS":"番子寮１１１號","OBJECTID":31922},"geometry":{"x":163941.87000000011,"y":2564692.2400000021}},{"attributes":{"ID":31923,"DIS_CODE":0,"TOWNNAME":"佳里區","LI":"海澄里","LIN":"14鄰","STREET":" ","SECT":" ","MAREA":"番子寮","LANE":" ","ALLEY":" ","HOUSE_NO":"１１２號之１","E_COORD97":163887.23999999999,"N_COORD97":2564654.9500000002,"ADDRESS":"番子寮１１２號之１","OBJECTID":31923},"geometry":{"x":163887.24000000022,"y":2564654.9500000011}},{"attributes":{"ID":31924,"DIS_CODE":0,"TOWNNAME":"佳里區","LI":"海澄里","LIN":"14鄰","STREET":" ","SECT":" ","MAREA":"番子寮","LANE":" ","ALLEY":" ","HOUSE_NO":"１１３號之１","E_COORD97":163838.04000000001,"N_COORD97":2564653.9199999999,"ADDRESS":"番子寮１１３號之１","OBJECTID":31924},"geometry":{"x":163838.04000000097,"y":2564653.9199999999}},{"attributes":{"ID":31925,"DIS_CODE":0,"TOWNNAME":"佳里區","LI":"海澄里","LIN":"14鄰","STREET":" ","SECT":" ","MAREA":"番子寮","LANE":" ","ALLEY":" ","HOUSE_NO":"１１３號","E_COORD97":163844.59,"N_COORD97":2564655.25,"ADDRESS":"番子寮１１３號","OBJECTID":31925},"geometry":{"x":163844.59000000078,"y":2564655.25}},{"attributes":{"ID":31926,"DIS_CODE":0,"TOWNNAME":"佳里區","LI":"海澄里","LIN":"14鄰","STREET":" ","SECT":" ","MAREA":"番子寮","LANE":" ","ALLEY":" ","HOUSE_NO":"１１４號","E_COORD97":163887.51999999999,"N_COORD97":2564674.23,"ADDRESS":"番子寮１１４號","OBJECTID":31926},"geometry":{"x":163887.51999999955,"y":2564674.2300000042}},{"attributes":{"ID":31927,"DIS_CODE":0,"TOWNNAME":"學甲區","LI":"中洲里","LIN":"14鄰","STREET":" ","SECT":" ","MAREA":"中洲","LANE":" ","ALLEY":" ","HOUSE_NO":"１４１號之１","E_COORD97":163772.51999999999,"N_COORD97":2571232.5499999998,"ADDRESS":"中洲１４１號之１","OBJECTID":31927},"geometry":{"x":163772.51999999955,"y":2571232.5500000045}},{"attributes":{"ID":31928,"DIS_CODE":0,"TOWNNAME":"學甲區","LI":"中洲里","LIN":"14鄰","STREET":" ","SECT":" ","MAREA":"中洲","LANE":" ","ALLEY":" ","HOUSE_NO":"１４１號之２","E_COORD97":163771.01999999999,"N_COORD97":2571212.6200000001,"ADDRESS":"中洲１４１號之２","OBJECTID":31928},"geometry":{"x":163771.01999999955,"y":2571212.6200000029}},{"attributes":{"ID":31929,"DIS_CODE":0,"TOWNNAME":"學甲區","LI":"中洲里","LIN":"14鄰","STREET":" ","SECT":" ","MAREA":"中洲","LANE":" ","ALLEY":" ","HOUSE_NO":"１４１號","E_COORD97":163741.70000000001,"N_COORD97":2571306.3700000001,"ADDRESS":"中洲１４１號","OBJECTID":31929},"geometry":{"x":163741.70000000019,"y":2571306.3700000029}},{"attributes":{"ID":31930,"DIS_CODE":0,"TOWNNAME":"學甲區","LI":"中洲里","LIN":"14鄰","STREET":" ","SECT":" ","MAREA":"中洲","LANE":" ","ALLEY":" ","HOUSE_NO":"１４４號","E_COORD97":163720.48000000001,"N_COORD97":2571308.0699999998,"ADDRESS":"中洲１４４號","OBJECTID":31930},"geometry":{"x":163720.48000000138,"y":2571308.0700000022}},{"attributes":{"ID":31931,"DIS_CODE":0,"TOWNNAME":"學甲區","LI":"中洲里","LIN":"14鄰","STREET":" ","SECT":" ","MAREA":"中洲","LANE":" ","ALLEY":" ","HOUSE_NO":"１４５號","E_COORD97":163692.32999999999,"N_COORD97":2571288.7599999998,"ADDRESS":"中洲１４５號","OBJECTID":31931},"geometry":{"x":163692.33000000101,"y":2571288.7600000016}},{"attributes":{"ID":31932,"DIS_CODE":0,"TOWNNAME":"安南區","LI":"海佃里","LIN":"8鄰","STREET":"國安街","SECT":" ","MAREA":" ","LANE":"５６巷","ALLEY":"６７弄","HOUSE_NO":"３３號","E_COORD97":166853.98999999999,"N_COORD97":2547175.8799999999,"ADDRESS":"國安街５６巷６７弄３３號","OBJECTID":31932},"geometry":{"x":166853.98999999929,"y":2547175.879999999}},{"attributes":{"ID":31933,"DIS_CODE":0,"TOWNNAME":"學甲區","LI":"中洲里","LIN":"14鄰","STREET":" ","SECT":" ","MAREA":"中洲","LANE":" ","ALLEY":" ","HOUSE_NO":"１４７號","E_COORD97":163674.67999999999,"N_COORD97":2571303.1899999999,"ADDRESS":"中洲１４７號","OBJECTID":31933},"geometry":{"x":163674.6799999997,"y":2571303.1899999995}},{"attributes":{"ID":31934,"DIS_CODE":0,"TOWNNAME":"學甲區","LI":"中洲里","LIN":"14鄰","STREET":" ","SECT":" ","MAREA":"中洲","LANE":" ","ALLEY":" ","HOUSE_NO":"１４８號之１８","E_COORD97":163540.57999999999,"N_COORD97":2571339.3999999999,"ADDRESS":"中洲１４８號之１８","OBJECTID":31934},"geometry":{"x":163540.58000000007,"y":2571339.4000000022}},{"attributes":{"ID":31935,"DIS_CODE":0,"TOWNNAME":"學甲區","LI":"中洲里","LIN":"14鄰","STREET":" ","SECT":" ","MAREA":"中洲","LANE":" ","ALLEY":" ","HOUSE_NO":"１４８號","E_COORD97":163677.04000000001,"N_COORD97":2571339.2400000002,"ADDRESS":"中洲１４８號","OBJECTID":31935},"geometry":{"x":163677.04000000097,"y":2571339.2400000039}},{"attributes":{"ID":31936,"DIS_CODE":0,"TOWNNAME":"學甲區","LI":"中洲里","LIN":"14鄰","STREET":" ","SECT":" ","MAREA":"中洲","LANE":" ","ALLEY":" ","HOUSE_NO":"１４９號","E_COORD97":163646.10999999999,"N_COORD97":2571313.8700000001,"ADDRESS":"中洲１４９號","OBJECTID":31936},"geometry":{"x":163646.1100000022,"y":2571313.870000001}},{"attributes":{"ID":31937,"DIS_CODE":0,"TOWNNAME":"學甲區","LI":"中洲里","LIN":"14鄰","STREET":" ","SECT":" ","MAREA":"中洲","LANE":" ","ALLEY":" ","HOUSE_NO":"１５０號","E_COORD97":163667.48000000001,"N_COORD97":2571315.77,"ADDRESS":"中洲１５０號","OBJECTID":31937},"geometry":{"x":163667.48000000231,"y":2571315.7700000014}},{"attributes":{"ID":31938,"DIS_CODE":0,"TOWNNAME":"安南區","LI":"海佃里","LIN":"8鄰","STREET":"國安街","SECT":" ","MAREA":" ","LANE":"５６巷","ALLEY":"６７弄","HOUSE_NO":"３４號","E_COORD97":166849.32999999999,"N_COORD97":2547202.4500000002,"ADDRESS":"國安街５６巷６７弄３４號","OBJECTID":31938},"geometry":{"x":166849.33000000007,"y":2547202.4499999993}},{"attributes":{"ID":31939,"DIS_CODE":0,"TOWNNAME":"學甲區","LI":"明宜里","LIN":"14鄰","STREET":"中山路","SECT":" ","MAREA":" ","LANE":" ","ALLEY":" ","HOUSE_NO":"１３１號","E_COORD97":166052.29000000001,"N_COORD97":2570497.9700000002,"ADDRESS":"中山路１３１號","OBJECTID":31939},"geometry":{"x":166052.29000000097,"y":2570497.9700000025}},{"attributes":{"ID":31940,"DIS_CODE":0,"TOWNNAME":"學甲區","LI":"中洲里","LIN":"14鄰","STREET":" ","SECT":" ","MAREA":"中洲","LANE":" ","ALLEY":" ","HOUSE_NO":"１５１號","E_COORD97":163647.97,"N_COORD97":2571283.1000000001,"ADDRESS":"中洲１５１號","OBJECTID":31940},"geometry":{"x":163647.96999999881,"y":2571283.1000000015}},{"attributes":{"ID":31941,"DIS_CODE":0,"TOWNNAME":"學甲區","LI":"光華里","LIN":"14鄰","STREET":" ","SECT":" ","MAREA":"中洲","LANE":" ","ALLEY":" ","HOUSE_NO":"６００號","E_COORD97":164164.31,"N_COORD97":2571640.1899999999,"ADDRESS":"中洲６００號","OBJECTID":31941},"geometry":{"x":164164.31000000145,"y":2571640.1899999976}},{"attributes":{"ID":31942,"DIS_CODE":0,"TOWNNAME":"學甲區","LI":"明宜里","LIN":"14鄰","STREET":"中山路","SECT":" ","MAREA":" ","LANE":" ","ALLEY":" ","HOUSE_NO":"１３３號之３","E_COORD97":166033.42000000001,"N_COORD97":2570500.6099999999,"ADDRESS":"中山路１３３號之３","OBJECTID":31942},"geometry":{"x":166033.41999999993,"y":2570500.6099999994}},{"attributes":{"ID":31943,"DIS_CODE":0,"TOWNNAME":"學甲區","LI":"明宜里","LIN":"14鄰","STREET":"中山路","SECT":" ","MAREA":" ","LANE":" ","ALLEY":" ","HOUSE_NO":"１３３號之４","E_COORD97":166029.76000000001,"N_COORD97":2570501.4700000002,"ADDRESS":"中山路１３３號之４","OBJECTID":31943},"geometry":{"x":166029.76000000071,"y":2570501.4700000025}},{"attributes":{"ID":31944,"DIS_CODE":0,"TOWNNAME":"安南區","LI":"海佃里","LIN":"8鄰","STREET":"國安街","SECT":" ","MAREA":" ","LANE":"５６巷","ALLEY":"６７弄","HOUSE_NO":"３５號","E_COORD97":166849.32999999999,"N_COORD97":2547175.8799999999,"ADDRESS":"國安街５６巷６７弄３５號","OBJECTID":31944},"geometry":{"x":166849.33000000007,"y":2547175.879999999}},{"attributes":{"ID":31945,"DIS_CODE":0,"TOWNNAME":"官田區","LI":"東庄里","LIN":"8鄰","STREET":" ","SECT":" ","MAREA":"西庄","LANE":" ","ALLEY":" ","HOUSE_NO":"１５２號之１０","E_COORD97":178270.82999999999,"N_COORD97":2565051.4500000002,"ADDRESS":"西庄１５２號之１０","OBJECTID":31945},"geometry":{"x":178270.83000000101,"y":2565051.4500000011}},{"attributes":{"ID":31946,"DIS_CODE":0,"TOWNNAME":"官田區","LI":"東庄里","LIN":"8鄰","STREET":" ","SECT":" ","MAREA":"西庄","LANE":" ","ALLEY":" ","HOUSE_NO":"１５２號之１","E_COORD97":178177,"N_COORD97":2565092.7599999998,"ADDRESS":"西庄１５２號之１","OBJECTID":31946},"geometry":{"x":178177,"y":2565092.7599999998}},{"attributes":{"ID":31947,"DIS_CODE":0,"TOWNNAME":"官田區","LI":"東庄里","LIN":"8鄰","STREET":" ","SECT":" ","MAREA":"西庄","LANE":" ","ALLEY":" ","HOUSE_NO":"１５２號之２","E_COORD97":178172.82000000001,"N_COORD97":2565093.0299999998,"ADDRESS":"西庄１５２號之２","OBJECTID":31947},"geometry":{"x":178172.82000000123,"y":2565093.0299999993}},{"attributes":{"ID":31948,"DIS_CODE":0,"TOWNNAME":"安南區","LI":"海佃里","LIN":"8鄰","STREET":"國安街","SECT":" ","MAREA":" ","LANE":"５６巷","ALLEY":"６７弄","HOUSE_NO":"３６號","E_COORD97":166844.67999999999,"N_COORD97":2547201.79,"ADDRESS":"國安街５６巷６７弄３６號","OBJECTID":31948},"geometry":{"x":166844.6799999997,"y":2547201.790000001}},{"attributes":{"ID":31949,"DIS_CODE":0,"TOWNNAME":"官田區","LI":"東庄里","LIN":"8鄰","STREET":" ","SECT":" ","MAREA":"西庄","LANE":" ","ALLEY":" ","HOUSE_NO":"１５２號之３","E_COORD97":178192.10999999999,"N_COORD97":2565075.46,"ADDRESS":"西庄１５２號之３","OBJECTID":31949},"geometry":{"x":178192.11000000034,"y":2565075.4600000009}},{"attributes":{"ID":31950,"DIS_CODE":0,"TOWNNAME":"官田區","LI":"東庄里","LIN":"8鄰","STREET":" ","SECT":" ","MAREA":"西庄","LANE":" ","ALLEY":" ","HOUSE_NO":"１５２號之４","E_COORD97":178199.04000000001,"N_COORD97":2565072.4399999999,"ADDRESS":"西庄１５２號之４","OBJECTID":31950},"geometry":{"x":178199.04000000004,"y":2565072.4400000013}},{"attributes":{"ID":31951,"DIS_CODE":0,"TOWNNAME":"官田區","LI":"東庄里","LIN":"8鄰","STREET":" ","SECT":" ","MAREA":"西庄","LANE":" ","ALLEY":" ","HOUSE_NO":"１５２號之５","E_COORD97":178218.64999999999,"N_COORD97":2565065.9199999999,"ADDRESS":"西庄１５２號之５","OBJECTID":31951},"geometry":{"x":178218.65000000037,"y":2565065.9200000018}},{"attributes":{"ID":31952,"DIS_CODE":0,"TOWNNAME":"官田區","LI":"東庄里","LIN":"8鄰","STREET":" ","SECT":" ","MAREA":"西庄","LANE":" ","ALLEY":" ","HOUSE_NO":"１５２號之６","E_COORD97":178223.32999999999,"N_COORD97":2565065.5800000001,"ADDRESS":"西庄１５２號之６","OBJECTID":31952},"geometry":{"x":178223.33000000101,"y":2565065.5800000019}},{"attributes":{"ID":31953,"DIS_CODE":0,"TOWNNAME":"官田區","LI":"東庄里","LIN":"8鄰","STREET":" ","SECT":" ","MAREA":"西庄","LANE":" ","ALLEY":" ","HOUSE_NO":"１５２號之７","E_COORD97":178239.44,"N_COORD97":2565067.04,"ADDRESS":"西庄１５２號之７","OBJECTID":31953},"geometry":{"x":178239.44000000227,"y":2565067.0400000028}},{"attributes":{"ID":31954,"DIS_CODE":0,"TOWNNAME":"官田區","LI":"東庄里","LIN":"8鄰","STREET":" ","SECT":" ","MAREA":"西庄","LANE":" ","ALLEY":" ","HOUSE_NO":"１５２號之８","E_COORD97":178233.57999999999,"N_COORD97":2565068.0600000001,"ADDRESS":"西庄１５２號之８","OBJECTID":31954},"geometry":{"x":178233.58000000101,"y":2565068.0600000005}},{"attributes":{"ID":31955,"DIS_CODE":0,"TOWNNAME":"安南區","LI":"海佃里","LIN":"8鄰","STREET":"國安街","SECT":" ","MAREA":" ","LANE":"５６巷","ALLEY":"６７弄","HOUSE_NO":"３７號","E_COORD97":166843.35000000001,"N_COORD97":2547173.8900000001,"ADDRESS":"國安街５６巷６７弄３７號","OBJECTID":31955},"geometry":{"x":166843.35000000056,"y":2547173.8900000006}},{"attributes":{"ID":31956,"DIS_CODE":0,"TOWNNAME":"安南區","LI":"海佃里","LIN":"8鄰","STREET":"國安街","SECT":" ","MAREA":" ","LANE":"５６巷","ALLEY":"６７弄","HOUSE_NO":"３８號","E_COORD97":166839.35999999999,"N_COORD97":2547201.1200000001,"ADDRESS":"國安街５６巷６７弄３８號","OBJECTID":31956},"geometry":{"x":166839.36000000034,"y":2547201.1199999992}},{"attributes":{"ID":31957,"DIS_CODE":0,"TOWNNAME":"官田區","LI":"東庄里","LIN":"8鄰","STREET":" ","SECT":" ","MAREA":"西庄","LANE":" ","ALLEY":" ","HOUSE_NO":"１５２號","E_COORD97":178137.67000000001,"N_COORD97":2565144.4199999999,"ADDRESS":"西庄１５２號","OBJECTID":31957},"geometry":{"x":178137.67000000086,"y":2565144.4200000018}},{"attributes":{"ID":31958,"DIS_CODE":0,"TOWNNAME":"安南區","LI":"海佃里","LIN":"8鄰","STREET":"國安街","SECT":" ","MAREA":" ","LANE":"５６巷","ALLEY":"６７弄","HOUSE_NO":"３９號","E_COORD97":166839.35999999999,"N_COORD97":2547173.2200000002,"ADDRESS":"國安街５６巷６７弄３９號","OBJECTID":31958},"geometry":{"x":166839.36000000034,"y":2547173.2200000044}},{"attributes":{"ID":31959,"DIS_CODE":0,"TOWNNAME":"安南區","LI":"海佃里","LIN":"8鄰","STREET":"國安街","SECT":" ","MAREA":" ","LANE":"５６巷","ALLEY":"６７弄","HOUSE_NO":"３號","E_COORD97":166936.45000000001,"N_COORD97":2547193.1499999999,"ADDRESS":"國安街５６巷６７弄３號","OBJECTID":31959},"geometry":{"x":166936.45000000112,"y":2547193.1500000004}},{"attributes":{"ID":31960,"DIS_CODE":0,"TOWNNAME":"安南區","LI":"海佃里","LIN":"8鄰","STREET":"國安街","SECT":" ","MAREA":" ","LANE":"５６巷","ALLEY":"６７弄","HOUSE_NO":"４０號","E_COORD97":166832.70999999999,"N_COORD97":2547199.1299999999,"ADDRESS":"國安街５６巷６７弄４０號","OBJECTID":31960},"geometry":{"x":166832.71000000089,"y":2547199.1300000027}},{"attributes":{"ID":31961,"DIS_CODE":0,"TOWNNAME":"安南區","LI":"海佃里","LIN":"8鄰","STREET":"國安街","SECT":" ","MAREA":" ","LANE":"５６巷","ALLEY":"６７弄","HOUSE_NO":"４１號","E_COORD97":166832.70999999999,"N_COORD97":2547173.2200000002,"ADDRESS":"國安街５６巷６７弄４１號","OBJECTID":31961},"geometry":{"x":166832.71000000089,"y":2547173.2200000044}},{"attributes":{"ID":31962,"DIS_CODE":0,"TOWNNAME":"安南區","LI":"海佃里","LIN":"8鄰","STREET":"國安街","SECT":" ","MAREA":" ","LANE":"５６巷","ALLEY":"６７弄","HOUSE_NO":"４２號","E_COORD97":166828.04999999999,"N_COORD97":2547198.4700000002,"ADDRESS":"國安街５６巷６７弄４２號","OBJECTID":31962},"geometry":{"x":166828.05000000075,"y":2547198.4700000044}},{"attributes":{"ID":31963,"DIS_CODE":0,"TOWNNAME":"安南區","LI":"海佃里","LIN":"8鄰","STREET":"國安街","SECT":" ","MAREA":" ","LANE":"５６巷","ALLEY":"６７弄","HOUSE_NO":"４３號","E_COORD97":166828.04999999999,"N_COORD97":2547171.23,"ADDRESS":"國安街５６巷６７弄４３號","OBJECTID":31963},"geometry":{"x":166828.05000000075,"y":2547171.2300000004}},{"attributes":{"ID":31964,"DIS_CODE":0,"TOWNNAME":"安南區","LI":"海佃里","LIN":"8鄰","STREET":"國安街","SECT":" ","MAREA":" ","LANE":"５６巷","ALLEY":"６７弄","HOUSE_NO":"４４號","E_COORD97":166822.73000000001,"N_COORD97":2547198.4700000002,"ADDRESS":"國安街５６巷６７弄４４號","OBJECTID":31964},"geometry":{"x":166822.73000000138,"y":2547198.4700000044}},{"attributes":{"ID":31965,"DIS_CODE":0,"TOWNNAME":"官田區","LI":"西庄里","LIN":"8鄰","STREET":" ","SECT":" ","MAREA":"西庄","LANE":" ","ALLEY":" ","HOUSE_NO":"５７號之２","E_COORD97":177909.51999999999,"N_COORD97":2565071.98,"ADDRESS":"西庄５７號之２","OBJECTID":31965},"geometry":{"x":177909.52000000048,"y":2565071.9800000004}},{"attributes":{"ID":31966,"DIS_CODE":0,"TOWNNAME":"官田區","LI":"西庄里","LIN":"8鄰","STREET":" ","SECT":" ","MAREA":"西庄","LANE":" ","ALLEY":" ","HOUSE_NO":"５８號","E_COORD97":177919.63,"N_COORD97":2565090.5299999998,"ADDRESS":"西庄５８號","OBJECTID":31966},"geometry":{"x":177919.63000000082,"y":2565090.5299999993}},{"attributes":{"ID":31967,"DIS_CODE":0,"TOWNNAME":"安南區","LI":"海佃里","LIN":"8鄰","STREET":"國安街","SECT":" ","MAREA":" ","LANE":"５６巷","ALLEY":"６７弄","HOUSE_NO":"４５號","E_COORD97":166821.39999999999,"N_COORD97":2547171.23,"ADDRESS":"國安街５６巷６７弄４５號","OBJECTID":31967},"geometry":{"x":166821.4000000013,"y":2547171.2300000004}},{"attributes":{"ID":31968,"DIS_CODE":0,"TOWNNAME":"歸仁區","LI":"崙頂里","LIN":"14鄰","STREET":"崙頂五街","SECT":" ","MAREA":" ","LANE":" ","ALLEY":" ","HOUSE_NO":"１５號","E_COORD97":177916.53,"N_COORD97":2539829.25,"ADDRESS":"崙頂五街１５號","OBJECTID":31968},"geometry":{"x":177916.52999999933,"y":2539829.2500000019}},{"attributes":{"ID":31969,"DIS_CODE":0,"TOWNNAME":"官田區","LI":"西庄里","LIN":"8鄰","STREET":" ","SECT":" ","MAREA":"西庄","LANE":" ","ALLEY":" ","HOUSE_NO":"５９號","E_COORD97":177907.39000000001,"N_COORD97":2565087.79,"ADDRESS":"西庄５９號","OBJECTID":31969},"geometry":{"x":177907.3900000006,"y":2565087.7899999991}},{"attributes":{"ID":31970,"DIS_CODE":0,"TOWNNAME":"官田區","LI":"西庄里","LIN":"8鄰","STREET":" ","SECT":" ","MAREA":"西庄","LANE":" ","ALLEY":" ","HOUSE_NO":"６０號之１","E_COORD97":177914.5,"N_COORD97":2565098.8199999998,"ADDRESS":"西庄６０號之１","OBJECTID":31970},"geometry":{"x":177914.5,"y":2565098.8200000003}},{"attributes":{"ID":31971,"DIS_CODE":0,"TOWNNAME":"官田區","LI":"西庄里","LIN":"8鄰","STREET":" ","SECT":" ","MAREA":"西庄","LANE":" ","ALLEY":" ","HOUSE_NO":"６０號之２","E_COORD97":177914.79000000001,"N_COORD97":2565103.8599999999,"ADDRESS":"西庄６０號之２","OBJECTID":31971},"geometry":{"x":177914.79000000097,"y":2565103.8600000013}},{"attributes":{"ID":31972,"DIS_CODE":0,"TOWNNAME":"官田區","LI":"西庄里","LIN":"8鄰","STREET":" ","SECT":" ","MAREA":"西庄","LANE":" ","ALLEY":" ","HOUSE_NO":"６０號之３","E_COORD97":177914.63,"N_COORD97":2565108.8999999999,"ADDRESS":"西庄６０號之３","OBJECTID":31972},"geometry":{"x":177914.63000000082,"y":2565108.9000000004}},{"attributes":{"ID":31973,"DIS_CODE":0,"TOWNNAME":"官田區","LI":"西庄里","LIN":"8鄰","STREET":" ","SECT":" ","MAREA":"西庄","LANE":" ","ALLEY":" ","HOUSE_NO":"６１號之１","E_COORD97":177912.81,"N_COORD97":2565118.9700000002,"ADDRESS":"西庄６１號之１","OBJECTID":31973},"geometry":{"x":177912.81000000052,"y":2565118.9700000007}},{"attributes":{"ID":31974,"DIS_CODE":0,"TOWNNAME":"官田區","LI":"西庄里","LIN":"8鄰","STREET":" ","SECT":" ","MAREA":"西庄","LANE":" ","ALLEY":" ","HOUSE_NO":"６１號之２","E_COORD97":177909.78,"N_COORD97":2565125.3300000001,"ADDRESS":"西庄６１號之２","OBJECTID":31974},"geometry":{"x":177909.77999999933,"y":2565125.3300000019}},{"attributes":{"ID":31975,"DIS_CODE":0,"TOWNNAME":"官田區","LI":"西庄里","LIN":"8鄰","STREET":" ","SECT":" ","MAREA":"西庄","LANE":" ","ALLEY":" ","HOUSE_NO":"６１號","E_COORD97":177913.10999999999,"N_COORD97":2565114.4900000002,"ADDRESS":"西庄６１號","OBJECTID":31975},"geometry":{"x":177913.11000000127,"y":2565114.4900000002}},{"attributes":{"ID":31976,"DIS_CODE":0,"TOWNNAME":"官田區","LI":"西庄里","LIN":"8鄰","STREET":" ","SECT":" ","MAREA":"西庄","LANE":" ","ALLEY":" ","HOUSE_NO":"６３號","E_COORD97":177949.20999999999,"N_COORD97":2565107.25,"ADDRESS":"西庄６３號","OBJECTID":31976},"geometry":{"x":177949.21000000089,"y":2565107.2500000037}},{"attributes":{"ID":31977,"DIS_CODE":0,"TOWNNAME":"官田區","LI":"西庄里","LIN":"8鄰","STREET":" ","SECT":" ","MAREA":"西庄","LANE":" ","ALLEY":" ","HOUSE_NO":"６４號","E_COORD97":177926.82999999999,"N_COORD97":2565080.2000000002,"ADDRESS":"西庄６４號","OBJECTID":31977},"geometry":{"x":177926.83000000101,"y":2565080.2000000011}},{"attributes":{"ID":31978,"DIS_CODE":0,"TOWNNAME":"仁德區","LI":"中生里","LIN":"8鄰","STREET":" ","SECT":" ","MAREA":"中洲","LANE":" ","ALLEY":" ","HOUSE_NO":"１４７號","E_COORD97":173067.67999999999,"N_COORD97":2534135.9900000002,"ADDRESS":"中洲１４７號","OBJECTID":31978},"geometry":{"x":173067.6799999997,"y":2534135.9900000021}},{"attributes":{"ID":31979,"DIS_CODE":0,"TOWNNAME":"仁德區","LI":"中生里","LIN":"8鄰","STREET":" ","SECT":" ","MAREA":"中洲","LANE":" ","ALLEY":" ","HOUSE_NO":"１５２號","E_COORD97":173076.10000000001,"N_COORD97":2534206,"ADDRESS":"中洲１５２號","OBJECTID":31979},"geometry":{"x":173076.10000000056,"y":2534206.0000000019}},{"attributes":{"ID":31980,"DIS_CODE":0,"TOWNNAME":"仁德區","LI":"中生里","LIN":"8鄰","STREET":" ","SECT":" ","MAREA":"中洲","LANE":" ","ALLEY":" ","HOUSE_NO":"１５１號之４","E_COORD97":172964.70000000001,"N_COORD97":2534198.7999999998,"ADDRESS":"中洲１５１號之４","OBJECTID":31980},"geometry":{"x":172964.70000000019,"y":2534198.8000000026}},{"attributes":{"ID":31981,"DIS_CODE":0,"TOWNNAME":"安南區","LI":"海佃里","LIN":"8鄰","STREET":"國安街","SECT":" ","MAREA":" ","LANE":"５６巷","ALLEY":"６７弄","HOUSE_NO":"４６號","E_COORD97":166816.75,"N_COORD97":2547196.4700000002,"ADDRESS":"國安街５６巷６７弄４６號","OBJECTID":31981},"geometry":{"x":166816.75000000093,"y":2547196.4700000025}},{"attributes":{"ID":31982,"DIS_CODE":0,"TOWNNAME":"安南區","LI":"海佃里","LIN":"8鄰","STREET":"國安街","SECT":" ","MAREA":" ","LANE":"５６巷","ALLEY":"６７弄","HOUSE_NO":"４７號","E_COORD97":166816.73999999999,"N_COORD97":2547167.9100000001,"ADDRESS":"國安街５６巷６７弄４７號","OBJECTID":31982},"geometry":{"x":166816.74000000209,"y":2547167.9100000039}},{"attributes":{"ID":31983,"DIS_CODE":0,"TOWNNAME":"安南區","LI":"海佃里","LIN":"8鄰","STREET":"國安街","SECT":" ","MAREA":" ","LANE":"５６巷","ALLEY":"６７弄","HOUSE_NO":"４８號","E_COORD97":166812.09,"N_COORD97":2547195.8100000001,"ADDRESS":"國安街５６巷６７弄４８號","OBJECTID":31983},"geometry":{"x":166812.08999999985,"y":2547195.8100000005}},{"attributes":{"ID":31984,"DIS_CODE":0,"TOWNNAME":"安南區","LI":"海佃里","LIN":"8鄰","STREET":"國安街","SECT":" ","MAREA":" ","LANE":"５６巷","ALLEY":"６７弄","HOUSE_NO":"４９號","E_COORD97":166810.76000000001,"N_COORD97":2547168.5699999998,"ADDRESS":"國安街５６巷６７弄４９號","OBJECTID":31984},"geometry":{"x":166810.75999999978,"y":2547168.5700000022}},{"attributes":{"ID":31985,"DIS_CODE":0,"TOWNNAME":"安南區","LI":"海佃里","LIN":"8鄰","STREET":"國安街","SECT":" ","MAREA":" ","LANE":"５６巷","ALLEY":"６７弄","HOUSE_NO":"４號","E_COORD97":166931.13,"N_COORD97":2547218.3900000001,"ADDRESS":"國安街５６巷６７弄４號","OBJECTID":31985},"geometry":{"x":166931.13000000082,"y":2547218.3900000006}},{"attributes":{"ID":31986,"DIS_CODE":0,"TOWNNAME":"安南區","LI":"海佃里","LIN":"8鄰","STREET":"國安街","SECT":" ","MAREA":" ","LANE":"５６巷","ALLEY":"６７弄","HOUSE_NO":"５０號","E_COORD97":166805.44,"N_COORD97":2547194.48,"ADDRESS":"國安街５６巷６７弄５０號","OBJECTID":31986},"geometry":{"x":166805.44000000227,"y":2547194.4800000004}},{"attributes":{"ID":31987,"DIS_CODE":0,"TOWNNAME":"安南區","LI":"海佃里","LIN":"8鄰","STREET":"國安街","SECT":" ","MAREA":" ","LANE":"５６巷","ALLEY":"６７弄","HOUSE_NO":"５號","E_COORD97":166930.45999999999,"N_COORD97":2547193.1499999999,"ADDRESS":"國安街５６巷６７弄５號","OBJECTID":31987},"geometry":{"x":166930.46000000089,"y":2547193.1500000004}},{"attributes":{"ID":31988,"DIS_CODE":0,"TOWNNAME":"安南區","LI":"海佃里","LIN":"8鄰","STREET":"國安街","SECT":" ","MAREA":" ","LANE":"５６巷","ALLEY":"６７弄","HOUSE_NO":"６號","E_COORD97":166925.81,"N_COORD97":2547218.3900000001,"ADDRESS":"國安街５６巷６７弄６號","OBJECTID":31988},"geometry":{"x":166925.81000000145,"y":2547218.3900000006}},{"attributes":{"ID":31989,"DIS_CODE":0,"TOWNNAME":"安南區","LI":"海佃里","LIN":"8鄰","STREET":"國安街","SECT":" ","MAREA":" ","LANE":"５６巷","ALLEY":"６７弄","HOUSE_NO":"７號","E_COORD97":166924.48000000001,"N_COORD97":2547191.8199999998,"ADDRESS":"國安街５６巷６７弄７號","OBJECTID":31989},"geometry":{"x":166924.48000000138,"y":2547191.8200000003}},{"attributes":{"ID":31990,"DIS_CODE":0,"TOWNNAME":"安南區","LI":"海佃里","LIN":"8鄰","STREET":"國安街","SECT":" ","MAREA":" ","LANE":"５６巷","ALLEY":"６７弄","HOUSE_NO":"８號","E_COORD97":166921.14999999999,"N_COORD97":2547215.0699999998,"ADDRESS":"國安街５６巷６７弄８號","OBJECTID":31990},"geometry":{"x":166921.1500000013,"y":2547215.0700000022}},{"attributes":{"ID":31991,"DIS_CODE":0,"TOWNNAME":"安南區","LI":"海佃里","LIN":"8鄰","STREET":"國安街","SECT":" ","MAREA":" ","LANE":"５６巷","ALLEY":"６７弄","HOUSE_NO":"９號","E_COORD97":166919.16,"N_COORD97":2547190.4900000002,"ADDRESS":"國安街５６巷６７弄９號","OBJECTID":31991},"geometry":{"x":166919.16000000108,"y":2547190.4900000002}},{"attributes":{"ID":31992,"DIS_CODE":0,"TOWNNAME":"安南區","LI":"幸福里","LIN":"8鄰","STREET":"國安街","SECT":" ","MAREA":" ","LANE":"１５５巷","ALLEY":"６２弄","HOUSE_NO":"１１號","E_COORD97":166719.35999999999,"N_COORD97":2546773.77,"ADDRESS":"國安街１５５巷６２弄１１號","OBJECTID":31992},"geometry":{"x":166719.3599999994,"y":2546773.7699999996}},{"attributes":{"ID":31993,"DIS_CODE":0,"TOWNNAME":"安南區","LI":"幸福里","LIN":"8鄰","STREET":"國安街","SECT":" ","MAREA":" ","LANE":"１５５巷","ALLEY":"６２弄","HOUSE_NO":"１３號","E_COORD97":166713.26000000001,"N_COORD97":2546770.6299999999,"ADDRESS":"國安街１５５巷６２弄１３號","OBJECTID":31993},"geometry":{"x":166713.26000000071,"y":2546770.629999999}},{"attributes":{"ID":31994,"DIS_CODE":0,"TOWNNAME":"安南區","LI":"幸福里","LIN":"8鄰","STREET":"國安街","SECT":" ","MAREA":" ","LANE":"１５５巷","ALLEY":"６２弄","HOUSE_NO":"１５號","E_COORD97":166706.87,"N_COORD97":2546772,"ADDRESS":"國安街１５５巷６２弄１５號","OBJECTID":31994},"geometry":{"x":166706.87000000011,"y":2546772.0000000019}},{"attributes":{"ID":31995,"DIS_CODE":0,"TOWNNAME":"安南區","LI":"幸福里","LIN":"8鄰","STREET":"國安街","SECT":" ","MAREA":" ","LANE":"１５５巷","ALLEY":"６２弄","HOUSE_NO":"１７號","E_COORD97":166701.45999999999,"N_COORD97":2546766.6899999999,"ADDRESS":"國安街１５５巷６２弄１７號","OBJECTID":31995},"geometry":{"x":166701.46000000183,"y":2546766.6900000013}},{"attributes":{"ID":31996,"DIS_CODE":0,"TOWNNAME":"安南區","LI":"幸福里","LIN":"8鄰","STREET":"國安街","SECT":" ","MAREA":" ","LANE":"１５５巷","ALLEY":"６２弄","HOUSE_NO":"５號","E_COORD97":166738.57000000001,"N_COORD97":2546775.0499999998,"ADDRESS":"國安街１５５巷６２弄５號","OBJECTID":31996},"geometry":{"x":166738.57000000123,"y":2546775.0500000026}},{"attributes":{"ID":31997,"DIS_CODE":0,"TOWNNAME":"北區","LI":"賢北里","LIN":"14鄰","STREET":"大興街","SECT":" ","MAREA":" ","LANE":" ","ALLEY":" ","HOUSE_NO":"４９１號","E_COORD97":166168.41,"N_COORD97":2545502.5699999998,"ADDRESS":"大興街４９１號","OBJECTID":31997},"geometry":{"x":166168.41000000108,"y":2545502.5700000022}},{"attributes":{"ID":31998,"DIS_CODE":0,"TOWNNAME":"北區","LI":"賢北里","LIN":"14鄰","STREET":"大興街","SECT":" ","MAREA":" ","LANE":" ","ALLEY":" ","HOUSE_NO":"４９５號","E_COORD97":166158.42000000001,"N_COORD97":2545499.7799999998,"ADDRESS":"大興街４９５號","OBJECTID":31998},"geometry":{"x":166158.41999999993,"y":2545499.7800000031}},{"attributes":{"ID":31999,"DIS_CODE":0,"TOWNNAME":"仁德區","LI":"中生里","LIN":"8鄰","STREET":" ","SECT":" ","MAREA":"中洲","LANE":" ","ALLEY":" ","HOUSE_NO":"１４７之２號","E_COORD97":173078.89000000001,"N_COORD97":2534119.0499999998,"ADDRESS":"中洲１４７之２號","OBJECTID":31999},"geometry":{"x":173078.89000000153,"y":2534119.0500000026}},{"attributes":{"ID":32000,"DIS_CODE":0,"TOWNNAME":"北區","LI":"賢北里","LIN":"14鄰","STREET":"大興街","SECT":" ","MAREA":" ","LANE":" ","ALLEY":" ","HOUSE_NO":"４９７號","E_COORD97":166153.84,"N_COORD97":2545498.0299999998,"ADDRESS":"大興街４９７號","OBJECTID":32000},"geometry":{"x":166153.83999999985,"y":2545498.0300000031}}]}