{"displayFieldName":"TOWNNAME","fieldAliases":{"ID":"ID","DIS_CODE":"DIS_CODE","TOWNNAME":"TOWNNAME","LI":"LI","LIN":"LIN","STREET":"STREET","SECT":"SECT","MAREA":"MAREA","LANE":"LANE","ALLEY":"ALLEY","HOUSE_NO":"HOUSE_NO","E_COORD97":"E_COORD97","N_COORD97":"N_COORD97","ADDRESS":"ADDRESS","OBJECTID":"OBJECTID"},"geometryType":"esriGeometryPoint","spatialReference":{"wkid":102443,"latestWkid":3826},"fields":[{"name":"ID","type":"esriFieldTypeDouble","alias":"ID"},{"name":"DIS_CODE","type":"esriFieldTypeInteger","alias":"DIS_CODE"},{"name":"TOWNNAME","type":"esriFieldTypeString","alias":"TOWNNAME","length":8},{"name":"LI","type":"esriFieldTypeString","alias":"LI","length":8},{"name":"LIN","type":"esriFieldTypeString","alias":"LIN","length":12},{"name":"STREET","type":"esriFieldTypeString","alias":"STREET","length":20},{"name":"SECT","type":"esriFieldTypeString","alias":"SECT","length":8},{"name":"MAREA","type":"esriFieldTypeString","alias":"MAREA","length":12},{"name":"LANE","type":"esriFieldTypeString","alias":"LANE","length":10},{"name":"ALLEY","type":"esriFieldTypeString","alias":"ALLEY","length":10},{"name":"HOUSE_NO","type":"esriFieldTypeString","alias":"HOUSE_NO","length":20},{"name":"E_COORD97","type":"esriFieldTypeDouble","alias":"E_COORD97"},{"name":"N_COORD97","type":"esriFieldTypeDouble","alias":"N_COORD97"},{"name":"ADDRESS","type":"esriFieldTypeString","alias":"ADDRESS","length":50},{"name":"OBJECTID","type":"esriFieldTypeOID","alias":"OBJECTID"}],"features":[{"attributes":{"ID":27401,"DIS_CODE":0,"TOWNNAME":"學甲區","LI":"平和里","LIN":"8鄰","STREET":" ","SECT":" ","MAREA":"學甲寮","LANE":" ","ALLEY":" ","HOUSE_NO":"７２號","E_COORD97":169646.97,"N_COORD97":2573454.8300000001,"ADDRESS":"學甲寮７２號","OBJECTID":27401},"geometry":{"x":169646.96999999974,"y":2573454.8300000019}},{"attributes":{"ID":27402,"DIS_CODE":0,"TOWNNAME":"學甲區","LI":"平和里","LIN":"8鄰","STREET":" ","SECT":" ","MAREA":"學甲寮","LANE":" ","ALLEY":" ","HOUSE_NO":"７３號","E_COORD97":169640.26000000001,"N_COORD97":2573453.1800000002,"ADDRESS":"學甲寮７３號","OBJECTID":27402},"geometry":{"x":169640.25999999885,"y":2573453.1799999997}},{"attributes":{"ID":27403,"DIS_CODE":0,"TOWNNAME":"學甲區","LI":"光華里","LIN":"8鄰","STREET":" ","SECT":" ","MAREA":"過港子","LANE":" ","ALLEY":" ","HOUSE_NO":"６５號之１","E_COORD97":164689.23999999999,"N_COORD97":2571513.52,"ADDRESS":"過港子６５號之１","OBJECTID":27403},"geometry":{"x":164689.23999999929,"y":2571513.5200000014}},{"attributes":{"ID":27404,"DIS_CODE":0,"TOWNNAME":"學甲區","LI":"光華里","LIN":"8鄰","STREET":" ","SECT":" ","MAREA":"過港子","LANE":" ","ALLEY":" ","HOUSE_NO":"６５號之２","E_COORD97":164682.10000000001,"N_COORD97":2571486.2000000002,"ADDRESS":"過港子６５號之２","OBJECTID":27404},"geometry":{"x":164682.09999999963,"y":2571486.1999999993}},{"attributes":{"ID":27405,"DIS_CODE":0,"TOWNNAME":"學甲區","LI":"光華里","LIN":"8鄰","STREET":" ","SECT":" ","MAREA":"過港子","LANE":" ","ALLEY":" ","HOUSE_NO":"６６號之１０","E_COORD97":164696.07000000001,"N_COORD97":2571455.8399999999,"ADDRESS":"過港子６６號之１０","OBJECTID":27405},"geometry":{"x":164696.07000000123,"y":2571455.8399999999}},{"attributes":{"ID":27406,"DIS_CODE":0,"TOWNNAME":"學甲區","LI":"光華里","LIN":"8鄰","STREET":" ","SECT":" ","MAREA":"過港子","LANE":" ","ALLEY":" ","HOUSE_NO":"６６號之１１","E_COORD97":164673.84,"N_COORD97":2571450.54,"ADDRESS":"過港子６６號之１１","OBJECTID":27406},"geometry":{"x":164673.83999999985,"y":2571450.5399999991}},{"attributes":{"ID":27407,"DIS_CODE":0,"TOWNNAME":"學甲區","LI":"光華里","LIN":"8鄰","STREET":" ","SECT":" ","MAREA":"過港子","LANE":" ","ALLEY":" ","HOUSE_NO":"６６號之１２","E_COORD97":164658.75,"N_COORD97":2571436.9399999999,"ADDRESS":"過港子６６號之１２","OBJECTID":27407},"geometry":{"x":164658.75000000093,"y":2571436.9400000013}},{"attributes":{"ID":27408,"DIS_CODE":0,"TOWNNAME":"學甲區","LI":"光華里","LIN":"8鄰","STREET":" ","SECT":" ","MAREA":"過港子","LANE":" ","ALLEY":" ","HOUSE_NO":"６６號之１","E_COORD97":164713.82000000001,"N_COORD97":2571497.46,"ADDRESS":"過港子６６號之１","OBJECTID":27408},"geometry":{"x":164713.8200000003,"y":2571497.459999999}},{"attributes":{"ID":27409,"DIS_CODE":0,"TOWNNAME":"學甲區","LI":"光華里","LIN":"8鄰","STREET":" ","SECT":" ","MAREA":"過港子","LANE":" ","ALLEY":" ","HOUSE_NO":"６６號之２０","E_COORD97":165006.98000000001,"N_COORD97":2571547.9199999999,"ADDRESS":"過港子６６號之２０","OBJECTID":27409},"geometry":{"x":165006.98000000138,"y":2571547.9200000037}},{"attributes":{"ID":27410,"DIS_CODE":0,"TOWNNAME":"學甲區","LI":"光華里","LIN":"8鄰","STREET":" ","SECT":" ","MAREA":"過港子","LANE":" ","ALLEY":" ","HOUSE_NO":"６６號之８","E_COORD97":164700.63,"N_COORD97":2571415.3199999998,"ADDRESS":"過港子６６號之８","OBJECTID":27410},"geometry":{"x":164700.63000000082,"y":2571415.3200000003}},{"attributes":{"ID":27411,"DIS_CODE":0,"TOWNNAME":"學甲區","LI":"光華里","LIN":"8鄰","STREET":" ","SECT":" ","MAREA":"過港子","LANE":" ","ALLEY":" ","HOUSE_NO":"６６號之９","E_COORD97":164699.73999999999,"N_COORD97":2571430.4900000002,"ADDRESS":"過港子６６號之９","OBJECTID":27411},"geometry":{"x":164699.74000000115,"y":2571430.4900000021}},{"attributes":{"ID":27412,"DIS_CODE":0,"TOWNNAME":"學甲區","LI":"光華里","LIN":"8鄰","STREET":" ","SECT":" ","MAREA":"過港子","LANE":" ","ALLEY":" ","HOUSE_NO":"６６號","E_COORD97":164705,"N_COORD97":2571530.0099999998,"ADDRESS":"過港子６６號","OBJECTID":27412},"geometry":{"x":164705.00000000093,"y":2571530.0100000035}},{"attributes":{"ID":27413,"DIS_CODE":0,"TOWNNAME":"學甲區","LI":"光華里","LIN":"8鄰","STREET":" ","SECT":" ","MAREA":"過港子","LANE":" ","ALLEY":" ","HOUSE_NO":"６７號之１","E_COORD97":164706.17999999999,"N_COORD97":2571544.4100000001,"ADDRESS":"過港子６７號之１","OBJECTID":27413},"geometry":{"x":164706.18000000156,"y":2571544.4100000001}},{"attributes":{"ID":27414,"DIS_CODE":0,"TOWNNAME":"學甲區","LI":"光華里","LIN":"8鄰","STREET":" ","SECT":" ","MAREA":"過港子","LANE":" ","ALLEY":" ","HOUSE_NO":"６７號之２","E_COORD97":164704.20999999999,"N_COORD97":2571555.3999999999,"ADDRESS":"過港子６７號之２","OBJECTID":27414},"geometry":{"x":164704.20999999996,"y":2571555.4000000041}},{"attributes":{"ID":27415,"DIS_CODE":0,"TOWNNAME":"學甲區","LI":"光華里","LIN":"8鄰","STREET":" ","SECT":" ","MAREA":"過港子","LANE":" ","ALLEY":" ","HOUSE_NO":"６７號","E_COORD97":164707.04999999999,"N_COORD97":2571572.29,"ADDRESS":"過港子６７號","OBJECTID":27415},"geometry":{"x":164707.05000000168,"y":2571572.290000001}},{"attributes":{"ID":27416,"DIS_CODE":0,"TOWNNAME":"學甲區","LI":"光華里","LIN":"8鄰","STREET":" ","SECT":" ","MAREA":"過港子","LANE":" ","ALLEY":" ","HOUSE_NO":"６８號之６","E_COORD97":164784.63,"N_COORD97":2571532.0899999999,"ADDRESS":"過港子６８號之６","OBJECTID":27416},"geometry":{"x":164784.63000000175,"y":2571532.0899999999}},{"attributes":{"ID":27417,"DIS_CODE":0,"TOWNNAME":"學甲區","LI":"光華里","LIN":"8鄰","STREET":" ","SECT":" ","MAREA":"過港子","LANE":" ","ALLEY":" ","HOUSE_NO":"６８號","E_COORD97":164726.26000000001,"N_COORD97":2571581.5699999998,"ADDRESS":"過港子６８號","OBJECTID":27417},"geometry":{"x":164726.26000000071,"y":2571581.5700000022}},{"attributes":{"ID":27418,"DIS_CODE":0,"TOWNNAME":"官田區","LI":"大崎里","LIN":"8鄰","STREET":" ","SECT":" ","MAREA":"大崎","LANE":" ","ALLEY":" ","HOUSE_NO":"６６號之２６三樓","E_COORD97":185829.01999999999,"N_COORD97":2565312.1699999999,"ADDRESS":"大崎６６號之２６三樓","OBJECTID":27418},"geometry":{"x":185829.01999999862,"y":2565312.1700000018}},{"attributes":{"ID":27419,"DIS_CODE":0,"TOWNNAME":"官田區","LI":"大崎里","LIN":"8鄰","STREET":" ","SECT":" ","MAREA":"大崎","LANE":" ","ALLEY":" ","HOUSE_NO":"６６號之２７二樓","E_COORD97":185828.70999999999,"N_COORD97":2565319.5,"ADDRESS":"大崎６６號之２７二樓","OBJECTID":27419},"geometry":{"x":185828.71000000089,"y":2565319.5000000019}},{"attributes":{"ID":27420,"DIS_CODE":0,"TOWNNAME":"官田區","LI":"大崎里","LIN":"8鄰","STREET":" ","SECT":" ","MAREA":"大崎","LANE":" ","ALLEY":" ","HOUSE_NO":"６６號之２７三樓","E_COORD97":185828.70999999999,"N_COORD97":2565319.5,"ADDRESS":"大崎６６號之２７三樓","OBJECTID":27420},"geometry":{"x":185828.71000000089,"y":2565319.5000000019}},{"attributes":{"ID":27421,"DIS_CODE":0,"TOWNNAME":"官田區","LI":"大崎里","LIN":"8鄰","STREET":" ","SECT":" ","MAREA":"大崎","LANE":" ","ALLEY":" ","HOUSE_NO":"６６號之２８二樓","E_COORD97":185826.98000000001,"N_COORD97":2565325.96,"ADDRESS":"大崎６６號之２８二樓","OBJECTID":27421},"geometry":{"x":185826.98000000231,"y":2565325.9600000009}},{"attributes":{"ID":27422,"DIS_CODE":0,"TOWNNAME":"七股區","LI":"三股里","LIN":"7鄰","STREET":" ","SECT":" ","MAREA":"三股","LANE":" ","ALLEY":" ","HOUSE_NO":"９０號","E_COORD97":159829.57999999999,"N_COORD97":2555834.1000000001,"ADDRESS":"三股９０號","OBJECTID":27422},"geometry":{"x":159829.58000000007,"y":2555834.0999999996}},{"attributes":{"ID":27423,"DIS_CODE":0,"TOWNNAME":"官田區","LI":"大崎里","LIN":"8鄰","STREET":" ","SECT":" ","MAREA":"大崎","LANE":" ","ALLEY":" ","HOUSE_NO":"６６號之２８三樓","E_COORD97":185826.98000000001,"N_COORD97":2565325.96,"ADDRESS":"大崎６６號之２８三樓","OBJECTID":27423},"geometry":{"x":185826.98000000231,"y":2565325.9600000009}},{"attributes":{"ID":27424,"DIS_CODE":0,"TOWNNAME":"官田區","LI":"大崎里","LIN":"8鄰","STREET":" ","SECT":" ","MAREA":"大崎","LANE":" ","ALLEY":" ","HOUSE_NO":"６６號之２９二樓","E_COORD97":185817.79000000001,"N_COORD97":2565352.0800000001,"ADDRESS":"大崎６６號之２９二樓","OBJECTID":27424},"geometry":{"x":185817.79000000097,"y":2565352.0800000001}},{"attributes":{"ID":27425,"DIS_CODE":0,"TOWNNAME":"官田區","LI":"大崎里","LIN":"8鄰","STREET":" ","SECT":" ","MAREA":"大崎","LANE":" ","ALLEY":" ","HOUSE_NO":"６６號之３０二樓","E_COORD97":185815.03,"N_COORD97":2565357.4199999999,"ADDRESS":"大崎６６號之３０二樓","OBJECTID":27425},"geometry":{"x":185815.03000000119,"y":2565357.4200000018}},{"attributes":{"ID":27426,"DIS_CODE":0,"TOWNNAME":"官田區","LI":"大崎里","LIN":"8鄰","STREET":" ","SECT":" ","MAREA":"大崎","LANE":" ","ALLEY":" ","HOUSE_NO":"６６號之３０三樓","E_COORD97":185815.03,"N_COORD97":2565357.4199999999,"ADDRESS":"大崎６６號之３０三樓","OBJECTID":27426},"geometry":{"x":185815.03000000119,"y":2565357.4200000018}},{"attributes":{"ID":27427,"DIS_CODE":0,"TOWNNAME":"官田區","LI":"大崎里","LIN":"8鄰","STREET":" ","SECT":" ","MAREA":"大崎","LANE":" ","ALLEY":" ","HOUSE_NO":"６６號之７０二樓","E_COORD97":185930.04000000001,"N_COORD97":2565219.0699999998,"ADDRESS":"大崎６６號之７０二樓","OBJECTID":27427},"geometry":{"x":185930.04000000097,"y":2565219.0700000003}},{"attributes":{"ID":27428,"DIS_CODE":0,"TOWNNAME":"東區","LI":"自強里","LIN":"17鄰","STREET":"中華東路","SECT":"二段","MAREA":" ","LANE":"２４３巷","ALLEY":"２４弄","HOUSE_NO":"１４號","E_COORD97":171253.37,"N_COORD97":2542557.8799999999,"ADDRESS":"中華東路二段２４３巷２４弄１４號","OBJECTID":27428},"geometry":{"x":171253.37000000011,"y":2542557.879999999}},{"attributes":{"ID":27429,"DIS_CODE":0,"TOWNNAME":"東區","LI":"自強里","LIN":"17鄰","STREET":"中華東路","SECT":"二段","MAREA":" ","LANE":"２４３巷","ALLEY":"２４弄","HOUSE_NO":"１５號","E_COORD97":171261.32000000001,"N_COORD97":2542545.4500000002,"ADDRESS":"中華東路二段２４３巷２４弄１５號","OBJECTID":27429},"geometry":{"x":171261.32000000123,"y":2542545.4499999974}},{"attributes":{"ID":27430,"DIS_CODE":0,"TOWNNAME":"東區","LI":"自強里","LIN":"17鄰","STREET":"中華東路","SECT":"二段","MAREA":" ","LANE":"２４３巷","ALLEY":"２４弄","HOUSE_NO":"１６號","E_COORD97":171250.56,"N_COORD97":2542554.2000000002,"ADDRESS":"中華東路二段２４３巷２４弄１６號","OBJECTID":27430},"geometry":{"x":171250.56000000052,"y":2542554.200000003}},{"attributes":{"ID":27431,"DIS_CODE":0,"TOWNNAME":"官田區","LI":"大崎里","LIN":"8鄰","STREET":" ","SECT":" ","MAREA":"大崎","LANE":" ","ALLEY":" ","HOUSE_NO":"６６號之７４三樓","E_COORD97":185949.31,"N_COORD97":2565184.1000000001,"ADDRESS":"大崎６６號之７４三樓","OBJECTID":27431},"geometry":{"x":185949.31000000145,"y":2565184.1000000015}},{"attributes":{"ID":27432,"DIS_CODE":0,"TOWNNAME":"東區","LI":"自強里","LIN":"17鄰","STREET":"中華東路","SECT":"二段","MAREA":" ","LANE":"２４３巷","ALLEY":"２４弄","HOUSE_NO":"１７號","E_COORD97":171267.12,"N_COORD97":2542540.54,"ADDRESS":"中華東路二段２４３巷２４弄１７號","OBJECTID":27432},"geometry":{"x":171267.12000000011,"y":2542540.5399999991}},{"attributes":{"ID":27433,"DIS_CODE":0,"TOWNNAME":"東區","LI":"中西里","LIN":"34鄰","STREET":"林森路","SECT":"二段","MAREA":" ","LANE":" ","ALLEY":" ","HOUSE_NO":"１０７號之５","E_COORD97":170413.5,"N_COORD97":2543423.71,"ADDRESS":"林森路二段１０７號之５","OBJECTID":27433},"geometry":{"x":170413.5,"y":2543423.7100000046}},{"attributes":{"ID":27434,"DIS_CODE":0,"TOWNNAME":"東區","LI":"自強里","LIN":"17鄰","STREET":"中華東路","SECT":"二段","MAREA":" ","LANE":"２４３巷","ALLEY":"２４弄","HOUSE_NO":"１９號","E_COORD97":171273.44,"N_COORD97":2542535.4399999999,"ADDRESS":"中華東路二段２４３巷２４弄１９號","OBJECTID":27434},"geometry":{"x":171273.44000000041,"y":2542535.4399999995}},{"attributes":{"ID":27435,"DIS_CODE":0,"TOWNNAME":"東區","LI":"自強里","LIN":"17鄰","STREET":"中華東路","SECT":"二段","MAREA":" ","LANE":"２４３巷","ALLEY":"２４弄","HOUSE_NO":"１號","E_COORD97":171288.70999999999,"N_COORD97":2542580.8700000001,"ADDRESS":"中華東路二段２４３巷２４弄１號","OBJECTID":27435},"geometry":{"x":171288.71000000183,"y":2542580.870000001}},{"attributes":{"ID":27436,"DIS_CODE":0,"TOWNNAME":"東區","LI":"自強里","LIN":"17鄰","STREET":"中華東路","SECT":"二段","MAREA":" ","LANE":"２４３巷","ALLEY":"２４弄","HOUSE_NO":"２１號","E_COORD97":171279.28,"N_COORD97":2542530.5299999998,"ADDRESS":"中華東路二段２４３巷２４弄２１號","OBJECTID":27436},"geometry":{"x":171279.28000000026,"y":2542530.5299999993}},{"attributes":{"ID":27437,"DIS_CODE":0,"TOWNNAME":"東區","LI":"自強里","LIN":"17鄰","STREET":"中華東路","SECT":"二段","MAREA":" ","LANE":"２４３巷","ALLEY":"２４弄","HOUSE_NO":"２２號","E_COORD97":171242.48999999999,"N_COORD97":2542544.3799999999,"ADDRESS":"中華東路二段２４３巷２４弄２２號","OBJECTID":27437},"geometry":{"x":171242.49000000022,"y":2542544.379999999}},{"attributes":{"ID":27438,"DIS_CODE":0,"TOWNNAME":"東區","LI":"自強里","LIN":"17鄰","STREET":"中華東路","SECT":"二段","MAREA":" ","LANE":"２４３巷","ALLEY":"２４弄","HOUSE_NO":"２４號","E_COORD97":171240.03,"N_COORD97":2542541.5800000001,"ADDRESS":"中華東路二段２４３巷２４弄２４號","OBJECTID":27438},"geometry":{"x":171240.03000000119,"y":2542541.5800000001}},{"attributes":{"ID":27439,"DIS_CODE":0,"TOWNNAME":"東區","LI":"自強里","LIN":"17鄰","STREET":"中華東路","SECT":"二段","MAREA":" ","LANE":"２４３巷","ALLEY":"２４弄","HOUSE_NO":"２６號","E_COORD97":171237.22,"N_COORD97":2542538.77,"ADDRESS":"中華東路二段２４３巷２４弄２６號","OBJECTID":27439},"geometry":{"x":171237.21999999974,"y":2542538.7699999996}},{"attributes":{"ID":27440,"DIS_CODE":0,"TOWNNAME":"東區","LI":"自強里","LIN":"17鄰","STREET":"中華東路","SECT":"二段","MAREA":" ","LANE":"２４３巷","ALLEY":"２４弄","HOUSE_NO":"２８號","E_COORD97":171234.76000000001,"N_COORD97":2542535.4399999999,"ADDRESS":"中華東路二段２４３巷２４弄２８號","OBJECTID":27440},"geometry":{"x":171234.75999999978,"y":2542535.4399999995}},{"attributes":{"ID":27441,"DIS_CODE":0,"TOWNNAME":"東區","LI":"自強里","LIN":"17鄰","STREET":"中華東路","SECT":"二段","MAREA":" ","LANE":"２４３巷","ALLEY":"２４弄","HOUSE_NO":"２號","E_COORD97":171270.23000000001,"N_COORD97":2542579.7999999998,"ADDRESS":"中華東路二段２４３巷２４弄２號","OBJECTID":27441},"geometry":{"x":171270.22999999952,"y":2542579.8000000026}},{"attributes":{"ID":27442,"DIS_CODE":0,"TOWNNAME":"東區","LI":"自強里","LIN":"17鄰","STREET":"中華東路","SECT":"二段","MAREA":" ","LANE":"２４３巷","ALLEY":"２４弄","HOUSE_NO":"３０號","E_COORD97":171231.57999999999,"N_COORD97":2542532.5099999998,"ADDRESS":"中華東路二段２４３巷２４弄３０號","OBJECTID":27442},"geometry":{"x":171231.58000000007,"y":2542532.5100000016}},{"attributes":{"ID":27443,"DIS_CODE":0,"TOWNNAME":"東區","LI":"自強里","LIN":"17鄰","STREET":"中華東路","SECT":"二段","MAREA":" ","LANE":"２４３巷","ALLEY":"２４弄","HOUSE_NO":"３２號","E_COORD97":171228.81,"N_COORD97":2542529.0499999998,"ADDRESS":"中華東路二段２４３巷２４弄３２號","OBJECTID":27443},"geometry":{"x":171228.81000000052,"y":2542529.0500000007}},{"attributes":{"ID":27444,"DIS_CODE":0,"TOWNNAME":"東區","LI":"自強里","LIN":"17鄰","STREET":"中華東路","SECT":"二段","MAREA":" ","LANE":"２４３巷","ALLEY":"２４弄","HOUSE_NO":"３３號","E_COORD97":171308.39000000001,"N_COORD97":2542513.8199999998,"ADDRESS":"中華東路二段２４３巷２４弄３３號","OBJECTID":27444},"geometry":{"x":171308.38999999966,"y":2542513.820000004}},{"attributes":{"ID":27445,"DIS_CODE":0,"TOWNNAME":"東區","LI":"自強里","LIN":"17鄰","STREET":"中華東路","SECT":"二段","MAREA":" ","LANE":"２４３巷","ALLEY":"２４弄","HOUSE_NO":"３４號","E_COORD97":171226.45999999999,"N_COORD97":2542526.0099999998,"ADDRESS":"中華東路二段２４３巷２４弄３４號","OBJECTID":27445},"geometry":{"x":171226.46000000089,"y":2542526.0100000016}},{"attributes":{"ID":27446,"DIS_CODE":0,"TOWNNAME":"官田區","LI":"大崎里","LIN":"8鄰","STREET":" ","SECT":" ","MAREA":"大崎","LANE":" ","ALLEY":" ","HOUSE_NO":"６６號之７０三樓","E_COORD97":185930.04000000001,"N_COORD97":2565219.0699999998,"ADDRESS":"大崎６６號之７０三樓","OBJECTID":27446},"geometry":{"x":185930.04000000097,"y":2565219.0700000003}},{"attributes":{"ID":27447,"DIS_CODE":0,"TOWNNAME":"官田區","LI":"大崎里","LIN":"8鄰","STREET":" ","SECT":" ","MAREA":"大崎","LANE":" ","ALLEY":" ","HOUSE_NO":"６６號之７１二樓","E_COORD97":185932.66,"N_COORD97":2565212.77,"ADDRESS":"大崎６６號之７１二樓","OBJECTID":27447},"geometry":{"x":185932.66000000108,"y":2565212.7700000014}},{"attributes":{"ID":27448,"DIS_CODE":0,"TOWNNAME":"官田區","LI":"大崎里","LIN":"8鄰","STREET":" ","SECT":" ","MAREA":"大崎","LANE":" ","ALLEY":" ","HOUSE_NO":"６６號之７１三樓","E_COORD97":185932.66,"N_COORD97":2565212.77,"ADDRESS":"大崎６６號之７１三樓","OBJECTID":27448},"geometry":{"x":185932.66000000108,"y":2565212.7700000014}},{"attributes":{"ID":27449,"DIS_CODE":0,"TOWNNAME":"官田區","LI":"大崎里","LIN":"8鄰","STREET":" ","SECT":" ","MAREA":"大崎","LANE":" ","ALLEY":" ","HOUSE_NO":"６６號之７２二樓","E_COORD97":185934.56,"N_COORD97":2565206.6200000001,"ADDRESS":"大崎６６號之７２二樓","OBJECTID":27449},"geometry":{"x":185934.56000000052,"y":2565206.620000001}},{"attributes":{"ID":27450,"DIS_CODE":0,"TOWNNAME":"東區","LI":"自強里","LIN":"17鄰","STREET":"中華東路","SECT":"二段","MAREA":" ","LANE":"２４３巷","ALLEY":"２４弄","HOUSE_NO":"３５號","E_COORD97":171304.23999999999,"N_COORD97":2542513.6899999999,"ADDRESS":"中華東路二段２４３巷２４弄３５號","OBJECTID":27450},"geometry":{"x":171304.24000000115,"y":2542513.6900000032}},{"attributes":{"ID":27451,"DIS_CODE":0,"TOWNNAME":"七股區","LI":"三股里","LIN":"7鄰","STREET":" ","SECT":" ","MAREA":"三股","LANE":" ","ALLEY":" ","HOUSE_NO":"９１號","E_COORD97":159819.29000000001,"N_COORD97":2555832.7400000002,"ADDRESS":"三股９１號","OBJECTID":27451},"geometry":{"x":159819.29000000097,"y":2555832.7400000021}},{"attributes":{"ID":27452,"DIS_CODE":0,"TOWNNAME":"東區","LI":"自強里","LIN":"17鄰","STREET":"中華東路","SECT":"二段","MAREA":" ","LANE":"２４３巷","ALLEY":"２４弄","HOUSE_NO":"３６號","E_COORD97":171224.38,"N_COORD97":2542522.4199999999,"ADDRESS":"中華東路二段２４３巷２４弄３６號","OBJECTID":27452},"geometry":{"x":171224.37999999989,"y":2542522.4199999999}},{"attributes":{"ID":27453,"DIS_CODE":0,"TOWNNAME":"東區","LI":"自強里","LIN":"17鄰","STREET":"中華東路","SECT":"二段","MAREA":" ","LANE":"２４３巷","ALLEY":"２４弄","HOUSE_NO":"３７號","E_COORD97":171300.82999999999,"N_COORD97":2542513.6899999999,"ADDRESS":"中華東路二段２４３巷２４弄３７號","OBJECTID":27453},"geometry":{"x":171300.83000000007,"y":2542513.6900000032}},{"attributes":{"ID":27454,"DIS_CODE":0,"TOWNNAME":"東區","LI":"自強里","LIN":"17鄰","STREET":"中華東路","SECT":"二段","MAREA":" ","LANE":"２４３巷","ALLEY":"２４弄","HOUSE_NO":"３８號","E_COORD97":171220.64000000001,"N_COORD97":2542518.96,"ADDRESS":"中華東路二段２４３巷２４弄３８號","OBJECTID":27454},"geometry":{"x":171220.63999999966,"y":2542518.9600000009}},{"attributes":{"ID":27455,"DIS_CODE":0,"TOWNNAME":"官田區","LI":"大崎里","LIN":"8鄰","STREET":" ","SECT":" ","MAREA":"大崎","LANE":" ","ALLEY":" ","HOUSE_NO":"６６號之７２三樓","E_COORD97":185934.56,"N_COORD97":2565206.6200000001,"ADDRESS":"大崎６６號之７２三樓","OBJECTID":27455},"geometry":{"x":185934.56000000052,"y":2565206.620000001}},{"attributes":{"ID":27456,"DIS_CODE":0,"TOWNNAME":"永康區","LI":"\u25A0行里","LIN":"34鄰","STREET":"中正北路","SECT":" ","MAREA":" ","LANE":"１７７巷","ALLEY":" ","HOUSE_NO":"１９號","E_COORD97":172385.42999999999,"N_COORD97":2549182.21,"ADDRESS":"中正北路１７７巷１９號","OBJECTID":27456},"geometry":{"x":172385.43000000156,"y":2549182.2100000028}},{"attributes":{"ID":27457,"DIS_CODE":0,"TOWNNAME":"永康區","LI":"\u25A0行里","LIN":"34鄰","STREET":"新行街","SECT":" ","MAREA":" ","LANE":" ","ALLEY":" ","HOUSE_NO":"１８５號","E_COORD97":172322.75,"N_COORD97":2549230.3100000001,"ADDRESS":"新行街１８５號","OBJECTID":27457},"geometry":{"x":172322.75000000093,"y":2549230.3100000042}},{"attributes":{"ID":27458,"DIS_CODE":0,"TOWNNAME":"永康區","LI":"\u25A0行里","LIN":"34鄰","STREET":"新行街","SECT":" ","MAREA":" ","LANE":" ","ALLEY":" ","HOUSE_NO":"１７３號","E_COORD97":172324.64999999999,"N_COORD97":2549199.0499999998,"ADDRESS":"新行街１７３號","OBJECTID":27458},"geometry":{"x":172324.65000000037,"y":2549199.0500000026}},{"attributes":{"ID":27459,"DIS_CODE":0,"TOWNNAME":"官田區","LI":"大崎里","LIN":"8鄰","STREET":" ","SECT":" ","MAREA":"大崎","LANE":" ","ALLEY":" ","HOUSE_NO":"６６號之７３二樓","E_COORD97":185940.10000000001,"N_COORD97":2565201.2799999998,"ADDRESS":"大崎６６號之７３二樓","OBJECTID":27459},"geometry":{"x":185940.09999999963,"y":2565201.2800000031}},{"attributes":{"ID":27460,"DIS_CODE":0,"TOWNNAME":"官田區","LI":"大崎里","LIN":"8鄰","STREET":" ","SECT":" ","MAREA":"大崎","LANE":" ","ALLEY":" ","HOUSE_NO":"６６號之７４二樓","E_COORD97":185949.31,"N_COORD97":2565184.1000000001,"ADDRESS":"大崎６６號之７４二樓","OBJECTID":27460},"geometry":{"x":185949.31000000145,"y":2565184.1000000015}},{"attributes":{"ID":27461,"DIS_CODE":0,"TOWNNAME":"永康區","LI":"\u25A0行里","LIN":"34鄰","STREET":"新行街","SECT":" ","MAREA":" ","LANE":" ","ALLEY":" ","HOUSE_NO":"１７７號","E_COORD97":172323.79999999999,"N_COORD97":2549209.3100000001,"ADDRESS":"新行街１７７號","OBJECTID":27461},"geometry":{"x":172323.80000000075,"y":2549209.3100000005}},{"attributes":{"ID":27462,"DIS_CODE":0,"TOWNNAME":"白河區","LI":"關嶺里","LIN":"8鄰","STREET":" ","SECT":" ","MAREA":"南寮","LANE":" ","ALLEY":" ","HOUSE_NO":"１４號","E_COORD97":198655.62,"N_COORD97":2580244.8300000001,"ADDRESS":"南寮１４號","OBJECTID":27462},"geometry":{"x":198655.62000000104,"y":2580244.8300000038}},{"attributes":{"ID":27463,"DIS_CODE":0,"TOWNNAME":"官田區","LI":"大崎里","LIN":"8鄰","STREET":" ","SECT":" ","MAREA":"大崎","LANE":" ","ALLEY":" ","HOUSE_NO":"６６號之７５二樓","E_COORD97":185950.98000000001,"N_COORD97":2565179.2999999998,"ADDRESS":"大崎６６號之７５二樓","OBJECTID":27463},"geometry":{"x":185950.98000000138,"y":2565179.3000000026}},{"attributes":{"ID":27464,"DIS_CODE":0,"TOWNNAME":"官田區","LI":"大崎里","LIN":"8鄰","STREET":" ","SECT":" ","MAREA":"大崎","LANE":" ","ALLEY":" ","HOUSE_NO":"６６號之７５三樓","E_COORD97":185950.98000000001,"N_COORD97":2565179.2999999998,"ADDRESS":"大崎６６號之７５三樓","OBJECTID":27464},"geometry":{"x":185950.98000000138,"y":2565179.3000000026}},{"attributes":{"ID":27465,"DIS_CODE":0,"TOWNNAME":"東區","LI":"自強里","LIN":"17鄰","STREET":"中華東路","SECT":"二段","MAREA":" ","LANE":"２４３巷","ALLEY":"２４弄","HOUSE_NO":"３９號","E_COORD97":171296.62,"N_COORD97":2542513.5600000001,"ADDRESS":"中華東路二段２４３巷２４弄３９號","OBJECTID":27465},"geometry":{"x":171296.62000000104,"y":2542513.5600000024}},{"attributes":{"ID":27466,"DIS_CODE":0,"TOWNNAME":"東區","LI":"自強里","LIN":"17鄰","STREET":"中華東路","SECT":"二段","MAREA":" ","LANE":"２４３巷","ALLEY":"２４弄","HOUSE_NO":"３號","E_COORD97":171284.5,"N_COORD97":2542576.6600000001,"ADDRESS":"中華東路二段２４３巷２４弄３號","OBJECTID":27466},"geometry":{"x":171284.5,"y":2542576.660000002}},{"attributes":{"ID":27467,"DIS_CODE":0,"TOWNNAME":"東區","LI":"自強里","LIN":"17鄰","STREET":"中華東路","SECT":"二段","MAREA":" ","LANE":"２４３巷","ALLEY":"２４弄","HOUSE_NO":"４１號","E_COORD97":171291.98999999999,"N_COORD97":2542513.5600000001,"ADDRESS":"中華東路二段２４３巷２４弄４１號","OBJECTID":27467},"geometry":{"x":171291.98999999929,"y":2542513.5600000024}},{"attributes":{"ID":27468,"DIS_CODE":0,"TOWNNAME":"下營區","LI":"紅厝里","LIN":"8鄰","STREET":" ","SECT":" ","MAREA":"紅毛厝","LANE":" ","ALLEY":" ","HOUSE_NO":"５６號之１","E_COORD97":174992.92000000001,"N_COORD97":2571665.5299999998,"ADDRESS":"紅毛厝５６號之１","OBJECTID":27468},"geometry":{"x":174992.92000000179,"y":2571665.5300000012}},{"attributes":{"ID":27469,"DIS_CODE":0,"TOWNNAME":"佳里區","LI":"禮化里","LIN":"8鄰","STREET":" ","SECT":" ","MAREA":"佳里興","LANE":" ","ALLEY":" ","HOUSE_NO":"３０２號之６","E_COORD97":166882.10999999999,"N_COORD97":2565813.4300000002,"ADDRESS":"佳里興３０２號之６","OBJECTID":27469},"geometry":{"x":166882.1099999994,"y":2565813.4299999997}},{"attributes":{"ID":27470,"DIS_CODE":0,"TOWNNAME":"佳里區","LI":"禮化里","LIN":"8鄰","STREET":" ","SECT":" ","MAREA":"佳里興","LANE":" ","ALLEY":" ","HOUSE_NO":"３０２號之７","E_COORD97":166882.34,"N_COORD97":2565806.23,"ADDRESS":"佳里興３０２號之７","OBJECTID":27470},"geometry":{"x":166882.34000000078,"y":2565806.2300000042}},{"attributes":{"ID":27471,"DIS_CODE":0,"TOWNNAME":"佳里區","LI":"禮化里","LIN":"8鄰","STREET":" ","SECT":" ","MAREA":"佳里興","LANE":" ","ALLEY":" ","HOUSE_NO":"３０２號之８","E_COORD97":166881.22,"N_COORD97":2565794.8399999999,"ADDRESS":"佳里興３０２號之８","OBJECTID":27471},"geometry":{"x":166881.22000000067,"y":2565794.8400000036}},{"attributes":{"ID":27472,"DIS_CODE":0,"TOWNNAME":"佳里區","LI":"禮化里","LIN":"8鄰","STREET":" ","SECT":" ","MAREA":"佳里興","LANE":" ","ALLEY":" ","HOUSE_NO":"３０２號之９","E_COORD97":166882.39000000001,"N_COORD97":2565785.6600000001,"ADDRESS":"佳里興３０２號之９","OBJECTID":27472},"geometry":{"x":166882.38999999966,"y":2565785.6600000001}},{"attributes":{"ID":27473,"DIS_CODE":0,"TOWNNAME":"佳里區","LI":"禮化里","LIN":"8鄰","STREET":" ","SECT":" ","MAREA":"佳里興","LANE":" ","ALLEY":" ","HOUSE_NO":"３０３號","E_COORD97":166785.39000000001,"N_COORD97":2565780.6000000001,"ADDRESS":"佳里興３０３號","OBJECTID":27473},"geometry":{"x":166785.3900000006,"y":2565780.6000000015}},{"attributes":{"ID":27474,"DIS_CODE":0,"TOWNNAME":"佳里區","LI":"禮化里","LIN":"8鄰","STREET":" ","SECT":" ","MAREA":"佳里興","LANE":" ","ALLEY":" ","HOUSE_NO":"３０５號","E_COORD97":166839.56,"N_COORD97":2565765.8700000001,"ADDRESS":"佳里興３０５號","OBJECTID":27474},"geometry":{"x":166839.56000000052,"y":2565765.8700000029}},{"attributes":{"ID":27475,"DIS_CODE":0,"TOWNNAME":"佳里區","LI":"禮化里","LIN":"8鄰","STREET":" ","SECT":" ","MAREA":"佳里興","LANE":" ","ALLEY":" ","HOUSE_NO":"３０６號","E_COORD97":166874.09,"N_COORD97":2565773.04,"ADDRESS":"佳里興３０６號","OBJECTID":27475},"geometry":{"x":166874.09000000078,"y":2565773.040000001}},{"attributes":{"ID":27476,"DIS_CODE":0,"TOWNNAME":"佳里區","LI":"禮化里","LIN":"8鄰","STREET":" ","SECT":" ","MAREA":"佳里興","LANE":" ","ALLEY":" ","HOUSE_NO":"３０７號之１","E_COORD97":166912.60000000001,"N_COORD97":2565776.3199999998,"ADDRESS":"佳里興３０７號之１","OBJECTID":27476},"geometry":{"x":166912.60000000056,"y":2565776.3200000022}},{"attributes":{"ID":27477,"DIS_CODE":0,"TOWNNAME":"佳里區","LI":"禮化里","LIN":"8鄰","STREET":" ","SECT":" ","MAREA":"佳里興","LANE":" ","ALLEY":" ","HOUSE_NO":"３０７號","E_COORD97":166893.04999999999,"N_COORD97":2565777.96,"ADDRESS":"佳里興３０７號","OBJECTID":27477},"geometry":{"x":166893.05000000075,"y":2565777.959999999}},{"attributes":{"ID":27478,"DIS_CODE":0,"TOWNNAME":"佳里區","LI":"禮化里","LIN":"8鄰","STREET":" ","SECT":" ","MAREA":"佳里興","LANE":" ","ALLEY":" ","HOUSE_NO":"３０８號","E_COORD97":166929.39000000001,"N_COORD97":2565765.0099999998,"ADDRESS":"佳里興３０８號","OBJECTID":27478},"geometry":{"x":166929.3900000006,"y":2565765.0099999998}},{"attributes":{"ID":27479,"DIS_CODE":0,"TOWNNAME":"佳里區","LI":"禮化里","LIN":"8鄰","STREET":" ","SECT":" ","MAREA":"佳里興","LANE":" ","ALLEY":" ","HOUSE_NO":"３０９號","E_COORD97":166941.16,"N_COORD97":2565761.9900000002,"ADDRESS":"佳里興３０９號","OBJECTID":27479},"geometry":{"x":166941.16000000108,"y":2565761.9900000002}},{"attributes":{"ID":27480,"DIS_CODE":0,"TOWNNAME":"佳里區","LI":"禮化里","LIN":"8鄰","STREET":" ","SECT":" ","MAREA":"佳里興","LANE":" ","ALLEY":" ","HOUSE_NO":"３１０號","E_COORD97":166953.04999999999,"N_COORD97":2565759.6699999999,"ADDRESS":"佳里興３１０號","OBJECTID":27480},"geometry":{"x":166953.04999999981,"y":2565759.6700000018}},{"attributes":{"ID":27481,"DIS_CODE":0,"TOWNNAME":"佳里區","LI":"興化里","LIN":"8鄰","STREET":" ","SECT":" ","MAREA":"佳里興","LANE":" ","ALLEY":" ","HOUSE_NO":"４７６號之８","E_COORD97":166997.51000000001,"N_COORD97":2565576.6499999999,"ADDRESS":"佳里興４７６號之８","OBJECTID":27481},"geometry":{"x":166997.51000000164,"y":2565576.6500000022}},{"attributes":{"ID":27482,"DIS_CODE":0,"TOWNNAME":"佳里區","LI":"興化里","LIN":"8鄰","STREET":" ","SECT":" ","MAREA":"佳里興","LANE":" ","ALLEY":" ","HOUSE_NO":"４７６號之９","E_COORD97":166991.97,"N_COORD97":2565575.8300000001,"ADDRESS":"佳里興４７６號之９","OBJECTID":27482},"geometry":{"x":166991.96999999974,"y":2565575.8300000019}},{"attributes":{"ID":27483,"DIS_CODE":0,"TOWNNAME":"佳里區","LI":"興化里","LIN":"8鄰","STREET":" ","SECT":" ","MAREA":"佳里興","LANE":" ","ALLEY":" ","HOUSE_NO":"４７７號之１","E_COORD97":167012.10999999999,"N_COORD97":2565571.3399999999,"ADDRESS":"佳里興４７７號之１","OBJECTID":27483},"geometry":{"x":167012.11000000034,"y":2565571.3400000017}},{"attributes":{"ID":27484,"DIS_CODE":0,"TOWNNAME":"佳里區","LI":"興化里","LIN":"8鄰","STREET":" ","SECT":" ","MAREA":"佳里興","LANE":" ","ALLEY":" ","HOUSE_NO":"４７７號","E_COORD97":167019.45000000001,"N_COORD97":2565567.6499999999,"ADDRESS":"佳里興４７７號","OBJECTID":27484},"geometry":{"x":167019.45000000112,"y":2565567.6500000022}},{"attributes":{"ID":27485,"DIS_CODE":0,"TOWNNAME":"佳里區","LI":"興化里","LIN":"8鄰","STREET":" ","SECT":" ","MAREA":"佳里興","LANE":" ","ALLEY":" ","HOUSE_NO":"４７９號之１","E_COORD97":167084.07000000001,"N_COORD97":2565525.8100000001,"ADDRESS":"佳里興４７９號之１","OBJECTID":27485},"geometry":{"x":167084.06999999937,"y":2565525.8100000024}},{"attributes":{"ID":27486,"DIS_CODE":0,"TOWNNAME":"佳里區","LI":"興化里","LIN":"8鄰","STREET":" ","SECT":" ","MAREA":"佳里興","LANE":" ","ALLEY":" ","HOUSE_NO":"４７９號之３","E_COORD97":167068.34,"N_COORD97":2565538.0600000001,"ADDRESS":"佳里興４７９號之３","OBJECTID":27486},"geometry":{"x":167068.34000000171,"y":2565538.0600000005}},{"attributes":{"ID":27487,"DIS_CODE":0,"TOWNNAME":"佳里區","LI":"興化里","LIN":"8鄰","STREET":" ","SECT":" ","MAREA":"佳里興","LANE":" ","ALLEY":" ","HOUSE_NO":"４７９號之４","E_COORD97":167059.60999999999,"N_COORD97":2565543.5,"ADDRESS":"佳里興４７９號之４","OBJECTID":27487},"geometry":{"x":167059.61000000034,"y":2565543.5000000019}},{"attributes":{"ID":27488,"DIS_CODE":0,"TOWNNAME":"佳里區","LI":"興化里","LIN":"8鄰","STREET":" ","SECT":" ","MAREA":"佳里興","LANE":" ","ALLEY":" ","HOUSE_NO":"４７９號之５","E_COORD97":167055.03,"N_COORD97":2565546.2599999998,"ADDRESS":"佳里興４７９號之５","OBJECTID":27488},"geometry":{"x":167055.03000000026,"y":2565546.2599999998}},{"attributes":{"ID":27489,"DIS_CODE":0,"TOWNNAME":"佳里區","LI":"興化里","LIN":"8鄰","STREET":" ","SECT":" ","MAREA":"佳里興","LANE":" ","ALLEY":" ","HOUSE_NO":"４７９號","E_COORD97":167042.51000000001,"N_COORD97":2565548.98,"ADDRESS":"佳里興４７９號","OBJECTID":27489},"geometry":{"x":167042.50999999978,"y":2565548.9800000004}},{"attributes":{"ID":27490,"DIS_CODE":0,"TOWNNAME":"佳里區","LI":"興化里","LIN":"8鄰","STREET":" ","SECT":" ","MAREA":"佳里興","LANE":" ","ALLEY":" ","HOUSE_NO":"４８０號之１","E_COORD97":166965.13,"N_COORD97":2565548.6299999999,"ADDRESS":"佳里興４８０號之１","OBJECTID":27490},"geometry":{"x":166965.13000000082,"y":2565548.6300000008}},{"attributes":{"ID":27491,"DIS_CODE":0,"TOWNNAME":"佳里區","LI":"興化里","LIN":"8鄰","STREET":" ","SECT":" ","MAREA":"佳里興","LANE":" ","ALLEY":" ","HOUSE_NO":"４８０號之２","E_COORD97":166969.35999999999,"N_COORD97":2565546.9300000002,"ADDRESS":"佳里興４８０號之２","OBJECTID":27491},"geometry":{"x":166969.36000000127,"y":2565546.9300000016}},{"attributes":{"ID":27492,"DIS_CODE":0,"TOWNNAME":"東區","LI":"自強里","LIN":"17鄰","STREET":"中華東路","SECT":"二段","MAREA":" ","LANE":"２４３巷","ALLEY":"２４弄","HOUSE_NO":"４３號","E_COORD97":171288.17999999999,"N_COORD97":2542513.6899999999,"ADDRESS":"中華東路二段２４３巷２４弄４３號","OBJECTID":27492},"geometry":{"x":171288.1799999997,"y":2542513.6900000032}},{"attributes":{"ID":27493,"DIS_CODE":0,"TOWNNAME":"東區","LI":"自強里","LIN":"17鄰","STREET":"中華東路","SECT":"二段","MAREA":" ","LANE":"２４３巷","ALLEY":"２４弄","HOUSE_NO":"４５號","E_COORD97":171283.84,"N_COORD97":2542513.8900000001,"ADDRESS":"中華東路二段２４３巷２４弄４５號","OBJECTID":27493},"geometry":{"x":171283.83999999985,"y":2542513.8900000025}},{"attributes":{"ID":27494,"DIS_CODE":0,"TOWNNAME":"東區","LI":"自強里","LIN":"17鄰","STREET":"中華東路","SECT":"二段","MAREA":" ","LANE":"２４３巷","ALLEY":"２４弄","HOUSE_NO":"４７號","E_COORD97":171278.76999999999,"N_COORD97":2542513.23,"ADDRESS":"中華東路二段２４３巷２４弄４７號","OBJECTID":27494},"geometry":{"x":171278.76999999955,"y":2542513.2300000004}},{"attributes":{"ID":27495,"DIS_CODE":0,"TOWNNAME":"永康區","LI":"龍潭里","LIN":"34鄰","STREET":"龍埔街","SECT":" ","MAREA":" ","LANE":" ","ALLEY":" ","HOUSE_NO":"１６７號","E_COORD97":174481.64999999999,"N_COORD97":2548247.23,"ADDRESS":"龍埔街１６７號","OBJECTID":27495},"geometry":{"x":174481.6500000013,"y":2548247.2300000004}},{"attributes":{"ID":27496,"DIS_CODE":0,"TOWNNAME":"永康區","LI":"龍潭里","LIN":"34鄰","STREET":"龍埔街","SECT":" ","MAREA":" ","LANE":" ","ALLEY":" ","HOUSE_NO":"１７７號","E_COORD97":174459.89999999999,"N_COORD97":2548249.3500000001,"ADDRESS":"龍埔街１７７號","OBJECTID":27496},"geometry":{"x":174459.9000000013,"y":2548249.3500000034}},{"attributes":{"ID":27497,"DIS_CODE":0,"TOWNNAME":"佳里區","LI":"興化里","LIN":"8鄰","STREET":" ","SECT":" ","MAREA":"佳里興","LANE":" ","ALLEY":" ","HOUSE_NO":"４８０號之３","E_COORD97":166973.16,"N_COORD97":2565546.2200000002,"ADDRESS":"佳里興４８０號之３","OBJECTID":27497},"geometry":{"x":166973.16000000201,"y":2565546.2200000025}},{"attributes":{"ID":27498,"DIS_CODE":0,"TOWNNAME":"佳里區","LI":"興化里","LIN":"8鄰","STREET":" ","SECT":" ","MAREA":"佳里興","LANE":" ","ALLEY":" ","HOUSE_NO":"４８０號之４","E_COORD97":166977.04999999999,"N_COORD97":2565545.0899999999,"ADDRESS":"佳里興４８０號之４","OBJECTID":27498},"geometry":{"x":166977.05000000168,"y":2565545.0899999999}},{"attributes":{"ID":27499,"DIS_CODE":0,"TOWNNAME":"東區","LI":"自強里","LIN":"17鄰","STREET":"中華東路","SECT":"二段","MAREA":" ","LANE":"２４３巷","ALLEY":"２４弄","HOUSE_NO":"４號","E_COORD97":171267.42000000001,"N_COORD97":2542576.29,"ADDRESS":"中華東路二段２４３巷２４弄４號","OBJECTID":27499},"geometry":{"x":171267.42000000086,"y":2542576.2899999991}},{"attributes":{"ID":27500,"DIS_CODE":0,"TOWNNAME":"佳里區","LI":"興化里","LIN":"8鄰","STREET":" ","SECT":" ","MAREA":"佳里興","LANE":" ","ALLEY":" ","HOUSE_NO":"４８０號之５","E_COORD97":166981.19,"N_COORD97":2565543.8300000001,"ADDRESS":"佳里興４８０號之５","OBJECTID":27500},"geometry":{"x":166981.19000000041,"y":2565543.8300000001}},{"attributes":{"ID":27501,"DIS_CODE":0,"TOWNNAME":"東區","LI":"自強里","LIN":"17鄰","STREET":"中華東路","SECT":"二段","MAREA":" ","LANE":"２４３巷","ALLEY":"２４弄","HOUSE_NO":"５９號","E_COORD97":171244.14000000001,"N_COORD97":2542519.0299999998,"ADDRESS":"中華東路二段２４３巷２４弄５９號","OBJECTID":27501},"geometry":{"x":171244.13999999966,"y":2542519.0300000012}},{"attributes":{"ID":27502,"DIS_CODE":0,"TOWNNAME":"東區","LI":"自強里","LIN":"17鄰","STREET":"中華東路","SECT":"二段","MAREA":" ","LANE":"２４３巷","ALLEY":"２４弄","HOUSE_NO":"５號","E_COORD97":171280.29000000001,"N_COORD97":2542571.75,"ADDRESS":"中華東路二段２４３巷２４弄５號","OBJECTID":27502},"geometry":{"x":171280.29000000097,"y":2542571.7500000019}},{"attributes":{"ID":27503,"DIS_CODE":0,"TOWNNAME":"佳里區","LI":"興化里","LIN":"8鄰","STREET":" ","SECT":" ","MAREA":"佳里興","LANE":" ","ALLEY":" ","HOUSE_NO":"４８０號之６","E_COORD97":166984.78,"N_COORD97":2565542.1800000002,"ADDRESS":"佳里興４８０號之６","OBJECTID":27503},"geometry":{"x":166984.78000000119,"y":2565542.1800000016}},{"attributes":{"ID":27504,"DIS_CODE":0,"TOWNNAME":"佳里區","LI":"興化里","LIN":"8鄰","STREET":" ","SECT":" ","MAREA":"佳里興","LANE":" ","ALLEY":" ","HOUSE_NO":"４８０號之７","E_COORD97":166988.64999999999,"N_COORD97":2565540.8799999999,"ADDRESS":"佳里興４８０號之７","OBJECTID":27504},"geometry":{"x":166988.64999999944,"y":2565540.8800000008}},{"attributes":{"ID":27505,"DIS_CODE":0,"TOWNNAME":"東區","LI":"自強里","LIN":"17鄰","STREET":"中華東路","SECT":"二段","MAREA":" ","LANE":"２４３巷","ALLEY":"２４弄","HOUSE_NO":"６號","E_COORD97":171264.60999999999,"N_COORD97":2542572.6099999999,"ADDRESS":"中華東路二段２４３巷２４弄６號","OBJECTID":27505},"geometry":{"x":171264.61000000127,"y":2542572.6100000013}},{"attributes":{"ID":27506,"DIS_CODE":0,"TOWNNAME":"東區","LI":"自強里","LIN":"17鄰","STREET":"中華東路","SECT":"二段","MAREA":" ","LANE":"２４３巷","ALLEY":"２４弄","HOUSE_NO":"８號","E_COORD97":171261.45000000001,"N_COORD97":2542568.3999999999,"ADDRESS":"中華東路二段２４３巷２４弄８號","OBJECTID":27506},"geometry":{"x":171261.45000000019,"y":2542568.4000000022}},{"attributes":{"ID":27507,"DIS_CODE":0,"TOWNNAME":"新營區","LI":"南紙里","LIN":"26鄰","STREET":"建業路","SECT":" ","MAREA":" ","LANE":"２２７巷","ALLEY":"２２弄","HOUSE_NO":"３３號","E_COORD97":178024.01999999999,"N_COORD97":2577360.6600000001,"ADDRESS":"建業路２２７巷２２弄３３號","OBJECTID":27507},"geometry":{"x":178024.01999999955,"y":2577360.6599999983}},{"attributes":{"ID":27508,"DIS_CODE":0,"TOWNNAME":"東區","LI":"自強里","LIN":"17鄰","STREET":"中華東路","SECT":"二段","MAREA":" ","LANE":"２４３巷","ALLEY":"３４弄","HOUSE_NO":"１０號","E_COORD97":171311.23000000001,"N_COORD97":2542549.9900000002,"ADDRESS":"中華東路二段２４３巷３４弄１０號","OBJECTID":27508},"geometry":{"x":171311.23000000138,"y":2542549.9900000039}},{"attributes":{"ID":27509,"DIS_CODE":0,"TOWNNAME":"永康區","LI":"龍潭里","LIN":"39鄰","STREET":"永明街","SECT":" ","MAREA":" ","LANE":"２３１巷","ALLEY":"１６弄","HOUSE_NO":"１６號","E_COORD97":174613.89621599999,"N_COORD97":2547279.8606400001,"ADDRESS":"永明街２３１巷１６弄１６號","OBJECTID":27509},"geometry":{"x":174613.89621600136,"y":2547279.8606359996}},{"attributes":{"ID":27510,"DIS_CODE":0,"TOWNNAME":"東區","LI":"自強里","LIN":"17鄰","STREET":"中華東路","SECT":"二段","MAREA":" ","LANE":"２４３巷","ALLEY":"３４弄","HOUSE_NO":"１２號","E_COORD97":171311.57999999999,"N_COORD97":2542543.8599999999,"ADDRESS":"中華東路二段２４３巷３４弄１２號","OBJECTID":27510},"geometry":{"x":171311.58000000194,"y":2542543.8600000013}},{"attributes":{"ID":27511,"DIS_CODE":0,"TOWNNAME":"東區","LI":"自強里","LIN":"17鄰","STREET":"中華東路","SECT":"二段","MAREA":" ","LANE":"２４３巷","ALLEY":"３４弄","HOUSE_NO":"１４號","E_COORD97":171312.10999999999,"N_COORD97":2542537.3700000001,"ADDRESS":"中華東路二段２４３巷３４弄１４號","OBJECTID":27511},"geometry":{"x":171312.11000000127,"y":2542537.370000001}},{"attributes":{"ID":27512,"DIS_CODE":0,"TOWNNAME":"東區","LI":"自強里","LIN":"17鄰","STREET":"中華東路","SECT":"二段","MAREA":" ","LANE":"２４３巷","ALLEY":"３４弄","HOUSE_NO":"１號","E_COORD97":171320.35999999999,"N_COORD97":2542549.6400000001,"ADDRESS":"中華東路二段２４３巷３４弄１號","OBJECTID":27512},"geometry":{"x":171320.36000000127,"y":2542549.6400000025}},{"attributes":{"ID":27513,"DIS_CODE":0,"TOWNNAME":"東區","LI":"自強里","LIN":"17鄰","STREET":"中華東路","SECT":"二段","MAREA":" ","LANE":"２４３巷","ALLEY":"３４弄","HOUSE_NO":"２號","E_COORD97":171308.25,"N_COORD97":2542565.77,"ADDRESS":"中華東路二段２４３巷３４弄２號","OBJECTID":27513},"geometry":{"x":171308.25,"y":2542565.7700000014}},{"attributes":{"ID":27514,"DIS_CODE":0,"TOWNNAME":"東區","LI":"自強里","LIN":"17鄰","STREET":"中華東路","SECT":"二段","MAREA":" ","LANE":"２４３巷","ALLEY":"３４弄","HOUSE_NO":"３號","E_COORD97":171321.41,"N_COORD97":2542544.3799999999,"ADDRESS":"中華東路二段２４３巷３４弄３號","OBJECTID":27514},"geometry":{"x":171321.41000000201,"y":2542544.379999999}},{"attributes":{"ID":27515,"DIS_CODE":0,"TOWNNAME":"七股區","LI":"三股里","LIN":"7鄰","STREET":" ","SECT":" ","MAREA":"三股","LANE":" ","ALLEY":" ","HOUSE_NO":"９６號","E_COORD97":159850.19,"N_COORD97":2555830.4900000002,"ADDRESS":"三股９６號","OBJECTID":27515},"geometry":{"x":159850.19000000227,"y":2555830.4900000021}},{"attributes":{"ID":27516,"DIS_CODE":0,"TOWNNAME":"東區","LI":"自強里","LIN":"17鄰","STREET":"中華東路","SECT":"二段","MAREA":" ","LANE":"２４３巷","ALLEY":"３４弄","HOUSE_NO":"４號","E_COORD97":171286.29999999999,"N_COORD97":2542552.7999999998,"ADDRESS":"中華東路二段２４３巷３４弄４號","OBJECTID":27516},"geometry":{"x":171286.30000000075,"y":2542552.8000000026}},{"attributes":{"ID":27517,"DIS_CODE":0,"TOWNNAME":"東區","LI":"自強里","LIN":"17鄰","STREET":"中華東路","SECT":"二段","MAREA":" ","LANE":"２４３巷","ALLEY":"３４弄","HOUSE_NO":"６號","E_COORD97":171292.44,"N_COORD97":2542548.0600000001,"ADDRESS":"中華東路二段２４３巷３４弄６號","OBJECTID":27517},"geometry":{"x":171292.44000000041,"y":2542548.0600000005}},{"attributes":{"ID":27518,"DIS_CODE":0,"TOWNNAME":"東區","LI":"自強里","LIN":"17鄰","STREET":"中華東路","SECT":"二段","MAREA":" ","LANE":"２４３巷","ALLEY":"３４弄","HOUSE_NO":"８號","E_COORD97":171311.06,"N_COORD97":2542555.9500000002,"ADDRESS":"中華東路二段２４３巷３４弄８號","OBJECTID":27518},"geometry":{"x":171311.05999999959,"y":2542555.950000003}},{"attributes":{"ID":27519,"DIS_CODE":0,"TOWNNAME":"新營區","LI":"新南里","LIN":"19鄰","STREET":"隋唐街","SECT":" ","MAREA":" ","LANE":"３１巷","ALLEY":"２８弄","HOUSE_NO":"１號","E_COORD97":178666.88,"N_COORD97":2578370.8700000001,"ADDRESS":"隋唐街３１巷２８弄１號","OBJECTID":27519},"geometry":{"x":178666.88000000082,"y":2578370.8700000048}},{"attributes":{"ID":27520,"DIS_CODE":0,"TOWNNAME":"永康區","LI":"網寮里","LIN":"17鄰","STREET":"永興路","SECT":" ","MAREA":" ","LANE":"４２７巷","ALLEY":"２弄","HOUSE_NO":"２３號","E_COORD97":173249.20999999999,"N_COORD97":2546824.25,"ADDRESS":"永興路４２７巷２弄２３號","OBJECTID":27520},"geometry":{"x":173249.20999999996,"y":2546824.2500000019}},{"attributes":{"ID":27521,"DIS_CODE":0,"TOWNNAME":"永康區","LI":"網寮里","LIN":"17鄰","STREET":"永興路","SECT":" ","MAREA":" ","LANE":"４２７巷","ALLEY":"２弄","HOUSE_NO":"１３號","E_COORD97":173249,"N_COORD97":2546790.27,"ADDRESS":"永興路４２７巷２弄１３號","OBJECTID":27521},"geometry":{"x":173249,"y":2546790.2699999996}},{"attributes":{"ID":27522,"DIS_CODE":0,"TOWNNAME":"佳里區","LI":"興化里","LIN":"8鄰","STREET":" ","SECT":" ","MAREA":"佳里興","LANE":" ","ALLEY":" ","HOUSE_NO":"４８０號","E_COORD97":166961.60999999999,"N_COORD97":2565549.52,"ADDRESS":"佳里興４８０號","OBJECTID":27522},"geometry":{"x":166961.61000000034,"y":2565549.5200000014}},{"attributes":{"ID":27523,"DIS_CODE":0,"TOWNNAME":"永康區","LI":"網寮里","LIN":"17鄰","STREET":"永興路","SECT":" ","MAREA":" ","LANE":"４２７巷","ALLEY":"２弄","HOUSE_NO":"３號","E_COORD97":173255.31,"N_COORD97":2546852.7599999998,"ADDRESS":"永興路４２７巷２弄３號","OBJECTID":27523},"geometry":{"x":173255.30999999959,"y":2546852.7599999998}},{"attributes":{"ID":27524,"DIS_CODE":0,"TOWNNAME":"永康區","LI":"西灣里","LIN":"17鄰","STREET":"民族路","SECT":" ","MAREA":" ","LANE":"５１３巷","ALLEY":"２弄","HOUSE_NO":"２號","E_COORD97":174480.87,"N_COORD97":2545450.0299999998,"ADDRESS":"民族路５１３巷２弄２號","OBJECTID":27524},"geometry":{"x":174480.87000000011,"y":2545450.0299999993}},{"attributes":{"ID":27525,"DIS_CODE":0,"TOWNNAME":"新營區","LI":"南紙里","LIN":"25鄰","STREET":"建業路","SECT":" ","MAREA":" ","LANE":"２２７巷","ALLEY":"２弄","HOUSE_NO":"２８號","E_COORD97":178042.98999999999,"N_COORD97":2577481.29,"ADDRESS":"建業路２２７巷２弄２８號","OBJECTID":27525},"geometry":{"x":178042.99000000115,"y":2577481.290000001}},{"attributes":{"ID":27526,"DIS_CODE":0,"TOWNNAME":"新營區","LI":"民榮里","LIN":"38鄰","STREET":"太子路","SECT":" ","MAREA":" ","LANE":"５３巷","ALLEY":"６弄","HOUSE_NO":"２９之２號","E_COORD97":178244.07999999999,"N_COORD97":2577931.1099999999,"ADDRESS":"太子路５３巷６弄２９之２號","OBJECTID":27526},"geometry":{"x":178244.08000000101,"y":2577931.1100000013}},{"attributes":{"ID":27527,"DIS_CODE":0,"TOWNNAME":"白河區","LI":"關嶺里","LIN":"8鄰","STREET":" ","SECT":" ","MAREA":"南寮","LANE":" ","ALLEY":" ","HOUSE_NO":"１５號","E_COORD97":198699.04999999999,"N_COORD97":2580228.2000000002,"ADDRESS":"南寮１５號","OBJECTID":27527},"geometry":{"x":198699.05000000168,"y":2580228.200000003}},{"attributes":{"ID":27528,"DIS_CODE":0,"TOWNNAME":"東區","LI":"復興里","LIN":"17鄰","STREET":"東成街","SECT":" ","MAREA":" ","LANE":"１３１巷","ALLEY":"１２弄","HOUSE_NO":"４０號","E_COORD97":171779.98999999999,"N_COORD97":2542340.8700000001,"ADDRESS":"東成街１３１巷１２弄４０號","OBJECTID":27528},"geometry":{"x":171779.99000000022,"y":2542340.870000001}},{"attributes":{"ID":27529,"DIS_CODE":0,"TOWNNAME":"東區","LI":"崇誨里","LIN":"34鄰","STREET":"東寧路","SECT":" ","MAREA":" ","LANE":" ","ALLEY":" ","HOUSE_NO":"２１８號","E_COORD97":170520.28,"N_COORD97":2543483.3199999998,"ADDRESS":"東寧路２１８號","OBJECTID":27529},"geometry":{"x":170520.28000000026,"y":2543483.320000004}},{"attributes":{"ID":27530,"DIS_CODE":0,"TOWNNAME":"佳里區","LI":"興化里","LIN":"8鄰","STREET":" ","SECT":" ","MAREA":"佳里興","LANE":" ","ALLEY":" ","HOUSE_NO":"４８１號之２","E_COORD97":166956.82999999999,"N_COORD97":2565530.4500000002,"ADDRESS":"佳里興４８１號之２","OBJECTID":27530},"geometry":{"x":166956.83000000194,"y":2565530.4500000011}},{"attributes":{"ID":27531,"DIS_CODE":0,"TOWNNAME":"佳里區","LI":"興化里","LIN":"8鄰","STREET":" ","SECT":" ","MAREA":"佳里興","LANE":" ","ALLEY":" ","HOUSE_NO":"４８１號","E_COORD97":166972.79000000001,"N_COORD97":2565525.3900000001,"ADDRESS":"佳里興４８１號","OBJECTID":27531},"geometry":{"x":166972.79000000097,"y":2565525.3900000025}},{"attributes":{"ID":27532,"DIS_CODE":0,"TOWNNAME":"東區","LI":"復興里","LIN":"17鄰","STREET":"東成街","SECT":" ","MAREA":" ","LANE":"１３１巷","ALLEY":"１２弄","HOUSE_NO":"４２號","E_COORD97":171776.39999999999,"N_COORD97":2542350.8199999998,"ADDRESS":"東成街１３１巷１２弄４２號","OBJECTID":27532},"geometry":{"x":171776.4000000013,"y":2542350.820000004}},{"attributes":{"ID":27533,"DIS_CODE":0,"TOWNNAME":"佳里區","LI":"興化里","LIN":"8鄰","STREET":" ","SECT":" ","MAREA":"佳里興","LANE":" ","ALLEY":" ","HOUSE_NO":"４８２號之１０","E_COORD97":167015.67999999999,"N_COORD97":2565531.2599999998,"ADDRESS":"佳里興４８２號之１０","OBJECTID":27533},"geometry":{"x":167015.68000000063,"y":2565531.2600000016}},{"attributes":{"ID":27534,"DIS_CODE":0,"TOWNNAME":"佳里區","LI":"興化里","LIN":"8鄰","STREET":" ","SECT":" ","MAREA":"佳里興","LANE":" ","ALLEY":" ","HOUSE_NO":"４８２號之１１","E_COORD97":167014.64999999999,"N_COORD97":2565527.52,"ADDRESS":"佳里興４８２號之１１","OBJECTID":27534},"geometry":{"x":167014.6500000013,"y":2565527.5199999996}},{"attributes":{"ID":27535,"DIS_CODE":0,"TOWNNAME":"佳里區","LI":"興化里","LIN":"8鄰","STREET":" ","SECT":" ","MAREA":"佳里興","LANE":" ","ALLEY":" ","HOUSE_NO":"４８２號之１２","E_COORD97":167013.67999999999,"N_COORD97":2565523.0299999998,"ADDRESS":"佳里興４８２號之１２","OBJECTID":27535},"geometry":{"x":167013.68000000063,"y":2565523.0300000012}},{"attributes":{"ID":27536,"DIS_CODE":0,"TOWNNAME":"佳里區","LI":"興化里","LIN":"8鄰","STREET":" ","SECT":" ","MAREA":"佳里興","LANE":" ","ALLEY":" ","HOUSE_NO":"４８２之１３號","E_COORD97":167012.35999999999,"N_COORD97":2565519.2999999998,"ADDRESS":"佳里興４８２之１３號","OBJECTID":27536},"geometry":{"x":167012.36000000034,"y":2565519.3000000026}},{"attributes":{"ID":27537,"DIS_CODE":0,"TOWNNAME":"佳里區","LI":"興化里","LIN":"8鄰","STREET":" ","SECT":" ","MAREA":"佳里興","LANE":" ","ALLEY":" ","HOUSE_NO":"４８２號之１３","E_COORD97":167012.35999999999,"N_COORD97":2565519.2999999998,"ADDRESS":"佳里興４８２號之１３","OBJECTID":27537},"geometry":{"x":167012.36000000034,"y":2565519.3000000026}},{"attributes":{"ID":27538,"DIS_CODE":0,"TOWNNAME":"佳里區","LI":"興化里","LIN":"8鄰","STREET":" ","SECT":" ","MAREA":"佳里興","LANE":" ","ALLEY":" ","HOUSE_NO":"４８２號之１","E_COORD97":166992.73000000001,"N_COORD97":2565529.4199999999,"ADDRESS":"佳里興４８２號之１","OBJECTID":27538},"geometry":{"x":166992.73000000045,"y":2565529.4199999999}},{"attributes":{"ID":27539,"DIS_CODE":0,"TOWNNAME":"佳里區","LI":"興化里","LIN":"8鄰","STREET":" ","SECT":" ","MAREA":"佳里興","LANE":" ","ALLEY":" ","HOUSE_NO":"４８２號之２","E_COORD97":166993.22,"N_COORD97":2565532.96,"ADDRESS":"佳里興４８２號之２","OBJECTID":27539},"geometry":{"x":166993.22000000067,"y":2565532.9600000009}},{"attributes":{"ID":27540,"DIS_CODE":0,"TOWNNAME":"佳里區","LI":"興化里","LIN":"8鄰","STREET":" ","SECT":" ","MAREA":"佳里興","LANE":" ","ALLEY":" ","HOUSE_NO":"４８２號之３","E_COORD97":166994.14000000001,"N_COORD97":2565536.52,"ADDRESS":"佳里興４８２號之３","OBJECTID":27540},"geometry":{"x":166994.13999999966,"y":2565536.5200000014}},{"attributes":{"ID":27541,"DIS_CODE":0,"TOWNNAME":"佳里區","LI":"興化里","LIN":"8鄰","STREET":" ","SECT":" ","MAREA":"佳里興","LANE":" ","ALLEY":" ","HOUSE_NO":"４８２號之４","E_COORD97":166995.29000000001,"N_COORD97":2565540.6499999999,"ADDRESS":"佳里興４８２號之４","OBJECTID":27541},"geometry":{"x":166995.29000000004,"y":2565540.6500000022}},{"attributes":{"ID":27542,"DIS_CODE":0,"TOWNNAME":"佳里區","LI":"興化里","LIN":"8鄰","STREET":" ","SECT":" ","MAREA":"佳里興","LANE":" ","ALLEY":" ","HOUSE_NO":"４８２號之５","E_COORD97":166996.01999999999,"N_COORD97":2565544.5,"ADDRESS":"佳里興４８２號之５","OBJECTID":27542},"geometry":{"x":166996.02000000048,"y":2565544.5000000019}},{"attributes":{"ID":27543,"DIS_CODE":0,"TOWNNAME":"佳里區","LI":"興化里","LIN":"8鄰","STREET":" ","SECT":" ","MAREA":"佳里興","LANE":" ","ALLEY":" ","HOUSE_NO":"４８２號之６","E_COORD97":166997.14000000001,"N_COORD97":2565548.4100000001,"ADDRESS":"佳里興４８２號之６","OBJECTID":27543},"geometry":{"x":166997.1400000006,"y":2565548.410000002}},{"attributes":{"ID":27544,"DIS_CODE":0,"TOWNNAME":"東區","LI":"復興里","LIN":"17鄰","STREET":"東成街","SECT":" ","MAREA":" ","LANE":"１３１巷","ALLEY":"１２弄","HOUSE_NO":"４４號","E_COORD97":171781.98000000001,"N_COORD97":2542349.23,"ADDRESS":"東成街１３１巷１２弄４４號","OBJECTID":27544},"geometry":{"x":171781.98000000045,"y":2542349.2300000023}},{"attributes":{"ID":27545,"DIS_CODE":0,"TOWNNAME":"東區","LI":"復興里","LIN":"17鄰","STREET":"東成街","SECT":" ","MAREA":" ","LANE":"１３１巷","ALLEY":"１２弄","HOUSE_NO":"４６號","E_COORD97":171787.54999999999,"N_COORD97":2542350.02,"ADDRESS":"東成街１３１巷１２弄４６號","OBJECTID":27545},"geometry":{"x":171787.54999999981,"y":2542350.0200000014}},{"attributes":{"ID":27546,"DIS_CODE":0,"TOWNNAME":"下營區","LI":"新興里","LIN":"17鄰","STREET":"中山路","SECT":"一段","MAREA":" ","LANE":"４１６巷","ALLEY":"３７弄","HOUSE_NO":"１００號","E_COORD97":176301.35999999999,"N_COORD97":2570918.3999999999,"ADDRESS":"中山路一段４１６巷３７弄１００號","OBJECTID":27546},"geometry":{"x":176301.36000000127,"y":2570918.4000000022}},{"attributes":{"ID":27547,"DIS_CODE":0,"TOWNNAME":"下營區","LI":"茅港里","LIN":"8鄰","STREET":" ","SECT":" ","MAREA":"茅港尾","LANE":" ","ALLEY":" ","HOUSE_NO":"２９４號","E_COORD97":176484.01999999999,"N_COORD97":2568465.8399999999,"ADDRESS":"茅港尾２９４號","OBJECTID":27547},"geometry":{"x":176484.02000000048,"y":2568465.8399999999}},{"attributes":{"ID":27548,"DIS_CODE":0,"TOWNNAME":"下營區","LI":"新興里","LIN":"17鄰","STREET":"中山路","SECT":"一段","MAREA":" ","LANE":"４１６巷","ALLEY":"３７弄","HOUSE_NO":"１０２號","E_COORD97":176318.42000000001,"N_COORD97":2570993.46,"ADDRESS":"中山路一段４１６巷３７弄１０２號","OBJECTID":27548},"geometry":{"x":176318.42000000179,"y":2570993.4600000028}},{"attributes":{"ID":27549,"DIS_CODE":0,"TOWNNAME":"佳里區","LI":"興化里","LIN":"8鄰","STREET":" ","SECT":" ","MAREA":"佳里興","LANE":" ","ALLEY":" ","HOUSE_NO":"４８２號之７","E_COORD97":167018.39999999999,"N_COORD97":2565542.79,"ADDRESS":"佳里興４８２號之７","OBJECTID":27549},"geometry":{"x":167018.4000000013,"y":2565542.7899999991}},{"attributes":{"ID":27550,"DIS_CODE":0,"TOWNNAME":"佳里區","LI":"興化里","LIN":"8鄰","STREET":" ","SECT":" ","MAREA":"佳里興","LANE":" ","ALLEY":" ","HOUSE_NO":"４８２號之８","E_COORD97":167017.62,"N_COORD97":2565539.1899999999,"ADDRESS":"佳里興４８２號之８","OBJECTID":27550},"geometry":{"x":167017.62000000197,"y":2565539.1900000013}},{"attributes":{"ID":27551,"DIS_CODE":0,"TOWNNAME":"佳里區","LI":"興化里","LIN":"8鄰","STREET":" ","SECT":" ","MAREA":"佳里興","LANE":" ","ALLEY":" ","HOUSE_NO":"４８２號之９","E_COORD97":167016.82999999999,"N_COORD97":2565534.98,"ADDRESS":"佳里興４８２號之９","OBJECTID":27551},"geometry":{"x":167016.83000000101,"y":2565534.9800000023}},{"attributes":{"ID":27552,"DIS_CODE":0,"TOWNNAME":"永康區","LI":"北灣里","LIN":"34鄰","STREET":"大灣路","SECT":" ","MAREA":" ","LANE":"４０巷","ALLEY":" ","HOUSE_NO":"３０號","E_COORD97":175163.47,"N_COORD97":2546036.7999999998,"ADDRESS":"大灣路４０巷３０號","OBJECTID":27552},"geometry":{"x":175163.4700000016,"y":2546036.8000000045}},{"attributes":{"ID":27553,"DIS_CODE":0,"TOWNNAME":"佳里區","LI":"興化里","LIN":"8鄰","STREET":" ","SECT":" ","MAREA":"佳里興","LANE":" ","ALLEY":" ","HOUSE_NO":"４８２號","E_COORD97":166991.82999999999,"N_COORD97":2565525.5800000001,"ADDRESS":"佳里興４８２號","OBJECTID":27553},"geometry":{"x":166991.83000000007,"y":2565525.5800000038}},{"attributes":{"ID":27554,"DIS_CODE":0,"TOWNNAME":"佳里區","LI":"佳化里","LIN":"8鄰","STREET":" ","SECT":" ","MAREA":"佳里興","LANE":" ","ALLEY":" ","HOUSE_NO":"７３號","E_COORD97":167630.25,"N_COORD97":2565085.6400000001,"ADDRESS":"佳里興７３號","OBJECTID":27554},"geometry":{"x":167630.25000000186,"y":2565085.6400000025}},{"attributes":{"ID":27555,"DIS_CODE":0,"TOWNNAME":"永康區","LI":"龍潭里","LIN":"34鄰","STREET":"龍埔街","SECT":" ","MAREA":" ","LANE":" ","ALLEY":" ","HOUSE_NO":"１８３號","E_COORD97":174423.38,"N_COORD97":2548254.96,"ADDRESS":"龍埔街１８３號","OBJECTID":27555},"geometry":{"x":174423.37999999896,"y":2548254.9600000028}},{"attributes":{"ID":27556,"DIS_CODE":0,"TOWNNAME":"佳里區","LI":"佳化里","LIN":"8鄰","STREET":" ","SECT":" ","MAREA":"佳里興","LANE":" ","ALLEY":" ","HOUSE_NO":"７６號之１","E_COORD97":167578.57999999999,"N_COORD97":2565069.6600000001,"ADDRESS":"佳里興７６號之１","OBJECTID":27556},"geometry":{"x":167578.58000000007,"y":2565069.6600000001}},{"attributes":{"ID":27557,"DIS_CODE":0,"TOWNNAME":"永康區","LI":"\u25A0行里","LIN":"34鄰","STREET":"中正北路","SECT":" ","MAREA":" ","LANE":" ","ALLEY":" ","HOUSE_NO":"１２３之５號","E_COORD97":172198.07000000001,"N_COORD97":2549101.7999999998,"ADDRESS":"中正北路１２３之５號","OBJECTID":27557},"geometry":{"x":172198.0700000003,"y":2549101.8000000045}},{"attributes":{"ID":27558,"DIS_CODE":0,"TOWNNAME":"永康區","LI":"龍潭里","LIN":"34鄰","STREET":"龍埔街","SECT":" ","MAREA":" ","LANE":" ","ALLEY":" ","HOUSE_NO":"１８５號","E_COORD97":174418.95999999999,"N_COORD97":2548255.71,"ADDRESS":"龍埔街１８５號","OBJECTID":27558},"geometry":{"x":174418.95999999996,"y":2548255.7100000028}},{"attributes":{"ID":27559,"DIS_CODE":0,"TOWNNAME":"永康區","LI":"龍潭里","LIN":"34鄰","STREET":"龍埔街","SECT":" ","MAREA":" ","LANE":" ","ALLEY":" ","HOUSE_NO":"１４７號","E_COORD97":174536.13,"N_COORD97":2548242.4900000002,"ADDRESS":"龍埔街１４７號","OBJECTID":27559},"geometry":{"x":174536.13000000082,"y":2548242.4900000021}},{"attributes":{"ID":27560,"DIS_CODE":0,"TOWNNAME":"永康區","LI":"\u25A0行里","LIN":"34鄰","STREET":"中正北路","SECT":" ","MAREA":" ","LANE":" ","ALLEY":" ","HOUSE_NO":"１４９號","E_COORD97":172269.42000000001,"N_COORD97":2549107.6499999999,"ADDRESS":"中正北路１４９號","OBJECTID":27560},"geometry":{"x":172269.42000000086,"y":2549107.6500000004}},{"attributes":{"ID":27561,"DIS_CODE":0,"TOWNNAME":"永康區","LI":"\u25A0行里","LIN":"34鄰","STREET":"中正北路","SECT":" ","MAREA":" ","LANE":" ","ALLEY":" ","HOUSE_NO":"１２９號","E_COORD97":172231.17999999999,"N_COORD97":2549105.25,"ADDRESS":"中正北路１２９號","OBJECTID":27561},"geometry":{"x":172231.18000000156,"y":2549105.2500000019}},{"attributes":{"ID":27562,"DIS_CODE":0,"TOWNNAME":"永康區","LI":"龍潭里","LIN":"34鄰","STREET":"龍埔街","SECT":" ","MAREA":" ","LANE":" ","ALLEY":" ","HOUSE_NO":"１５１號","E_COORD97":174520.62,"N_COORD97":2548244.1699999999,"ADDRESS":"龍埔街１５１號","OBJECTID":27562},"geometry":{"x":174520.62000000104,"y":2548244.1700000037}},{"attributes":{"ID":27563,"DIS_CODE":0,"TOWNNAME":"下營區","LI":"新興里","LIN":"17鄰","STREET":"中山路","SECT":"一段","MAREA":" ","LANE":"４１６巷","ALLEY":"３７弄","HOUSE_NO":"１０９號","E_COORD97":176387.5,"N_COORD97":2571018.6000000001,"ADDRESS":"中山路一段４１６巷３７弄１０９號","OBJECTID":27563},"geometry":{"x":176387.50000000186,"y":2571018.6000000015}},{"attributes":{"ID":27564,"DIS_CODE":0,"TOWNNAME":"佳里區","LI":"佳化里","LIN":"8鄰","STREET":" ","SECT":" ","MAREA":"佳里興","LANE":" ","ALLEY":" ","HOUSE_NO":"７６號之２","E_COORD97":167580.37,"N_COORD97":2565074.2200000002,"ADDRESS":"佳里興７６號之２","OBJECTID":27564},"geometry":{"x":167580.37000000197,"y":2565074.2200000044}},{"attributes":{"ID":27565,"DIS_CODE":0,"TOWNNAME":"佳里區","LI":"佳化里","LIN":"8鄰","STREET":" ","SECT":" ","MAREA":"佳里興","LANE":" ","ALLEY":" ","HOUSE_NO":"７６號","E_COORD97":167549.20999999999,"N_COORD97":2565056.4900000002,"ADDRESS":"佳里興７６號","OBJECTID":27565},"geometry":{"x":167549.21000000089,"y":2565056.4900000021}},{"attributes":{"ID":27566,"DIS_CODE":0,"TOWNNAME":"下營區","LI":"新興里","LIN":"17鄰","STREET":"中山路","SECT":"一段","MAREA":" ","LANE":"４１６巷","ALLEY":"３７弄","HOUSE_NO":"８號","E_COORD97":175646.38,"N_COORD97":2570931.3700000001,"ADDRESS":"中山路一段４１６巷３７弄８號","OBJECTID":27566},"geometry":{"x":175646.38000000082,"y":2570931.370000001}},{"attributes":{"ID":27567,"DIS_CODE":0,"TOWNNAME":"佳里區","LI":"佳化里","LIN":"8鄰","STREET":" ","SECT":" ","MAREA":"佳里興","LANE":" ","ALLEY":" ","HOUSE_NO":"７７號","E_COORD97":167596.20000000001,"N_COORD97":2565020.3300000001,"ADDRESS":"佳里興７７號","OBJECTID":27567},"geometry":{"x":167596.20000000019,"y":2565020.3300000019}},{"attributes":{"ID":27568,"DIS_CODE":0,"TOWNNAME":"佳里區","LI":"佳化里","LIN":"8鄰","STREET":" ","SECT":" ","MAREA":"佳里興","LANE":" ","ALLEY":" ","HOUSE_NO":"７８號之１０","E_COORD97":167707.34,"N_COORD97":2564846.1099999999,"ADDRESS":"佳里興７８號之１０","OBJECTID":27568},"geometry":{"x":167707.34000000171,"y":2564846.1099999994}},{"attributes":{"ID":27569,"DIS_CODE":0,"TOWNNAME":"佳里區","LI":"佳化里","LIN":"8鄰","STREET":" ","SECT":" ","MAREA":"佳里興","LANE":" ","ALLEY":" ","HOUSE_NO":"７８號之１","E_COORD97":167683.54999999999,"N_COORD97":2565001.0099999998,"ADDRESS":"佳里興７８號之１","OBJECTID":27569},"geometry":{"x":167683.54999999981,"y":2565001.0100000016}},{"attributes":{"ID":27570,"DIS_CODE":0,"TOWNNAME":"佳里區","LI":"佳化里","LIN":"8鄰","STREET":" ","SECT":" ","MAREA":"佳里興","LANE":" ","ALLEY":" ","HOUSE_NO":"７８號之５","E_COORD97":167727.17999999999,"N_COORD97":2564982.3199999998,"ADDRESS":"佳里興７８號之５","OBJECTID":27570},"geometry":{"x":167727.18000000063,"y":2564982.3200000022}},{"attributes":{"ID":27571,"DIS_CODE":0,"TOWNNAME":"新營區","LI":"南紙里","LIN":"25鄰","STREET":"建業路","SECT":" ","MAREA":" ","LANE":"２２７巷","ALLEY":"２弄","HOUSE_NO":"２６號","E_COORD97":178048.10999999999,"N_COORD97":2577481.2599999998,"ADDRESS":"建業路２２７巷２弄２６號","OBJECTID":27571},"geometry":{"x":178048.11000000034,"y":2577481.2599999998}},{"attributes":{"ID":27572,"DIS_CODE":0,"TOWNNAME":"佳里區","LI":"佳化里","LIN":"8鄰","STREET":" ","SECT":" ","MAREA":"佳里興","LANE":" ","ALLEY":" ","HOUSE_NO":"８３號之１０","E_COORD97":167561.47,"N_COORD97":2564953.7799999998,"ADDRESS":"佳里興８３號之１０","OBJECTID":27572},"geometry":{"x":167561.46999999974,"y":2564953.7800000031}},{"attributes":{"ID":27573,"DIS_CODE":0,"TOWNNAME":"佳里區","LI":"佳化里","LIN":"8鄰","STREET":" ","SECT":" ","MAREA":"佳里興","LANE":" ","ALLEY":" ","HOUSE_NO":"８３號之１","E_COORD97":167490.79999999999,"N_COORD97":2564967.8599999999,"ADDRESS":"佳里興８３號之１","OBJECTID":27573},"geometry":{"x":167490.80000000075,"y":2564967.8600000013}},{"attributes":{"ID":27574,"DIS_CODE":0,"TOWNNAME":"佳里區","LI":"佳化里","LIN":"8鄰","STREET":" ","SECT":" ","MAREA":"佳里興","LANE":" ","ALLEY":" ","HOUSE_NO":"８３號之２","E_COORD97":167574.51999999999,"N_COORD97":2564959.9500000002,"ADDRESS":"佳里興８３號之２","OBJECTID":27574},"geometry":{"x":167574.51999999955,"y":2564959.9500000011}},{"attributes":{"ID":27575,"DIS_CODE":0,"TOWNNAME":"下營區","LI":"新興里","LIN":"17鄰","STREET":"中華街","SECT":" ","MAREA":" ","LANE":"２０２巷","ALLEY":"１５弄","HOUSE_NO":"１０號","E_COORD97":175206.51000000001,"N_COORD97":2570736.1899999999,"ADDRESS":"中華街２０２巷１５弄１０號","OBJECTID":27575},"geometry":{"x":175206.50999999978,"y":2570736.1900000013}},{"attributes":{"ID":27576,"DIS_CODE":0,"TOWNNAME":"佳里區","LI":"佳化里","LIN":"8鄰","STREET":" ","SECT":" ","MAREA":"佳里興","LANE":" ","ALLEY":" ","HOUSE_NO":"８３號","E_COORD97":167555.94,"N_COORD97":2564978.48,"ADDRESS":"佳里興８３號","OBJECTID":27576},"geometry":{"x":167555.94000000041,"y":2564978.4800000023}},{"attributes":{"ID":27577,"DIS_CODE":0,"TOWNNAME":"下營區","LI":"新興里","LIN":"17鄰","STREET":"中華街","SECT":" ","MAREA":" ","LANE":"２０２巷","ALLEY":"１５弄","HOUSE_NO":"１１號","E_COORD97":175190.25,"N_COORD97":2570732.7599999998,"ADDRESS":"中華街２０２巷１５弄１１號","OBJECTID":27577},"geometry":{"x":175190.25,"y":2570732.7600000016}},{"attributes":{"ID":27578,"DIS_CODE":0,"TOWNNAME":"佳里區","LI":"佳化里","LIN":"8鄰","STREET":" ","SECT":" ","MAREA":"佳里興","LANE":" ","ALLEY":" ","HOUSE_NO":"８４號之１０","E_COORD97":167563.53,"N_COORD97":2565035.6299999999,"ADDRESS":"佳里興８４號之１０","OBJECTID":27578},"geometry":{"x":167563.53000000026,"y":2565035.6299999971}},{"attributes":{"ID":27579,"DIS_CODE":0,"TOWNNAME":"佳里區","LI":"佳化里","LIN":"8鄰","STREET":" ","SECT":" ","MAREA":"佳里興","LANE":" ","ALLEY":" ","HOUSE_NO":"８４號之１１","E_COORD97":167563.95999999999,"N_COORD97":2565040.5499999998,"ADDRESS":"佳里興８４號之１１","OBJECTID":27579},"geometry":{"x":167563.95999999996,"y":2565040.5500000007}},{"attributes":{"ID":27580,"DIS_CODE":0,"TOWNNAME":"佳里區","LI":"佳化里","LIN":"8鄰","STREET":" ","SECT":" ","MAREA":"佳里興","LANE":" ","ALLEY":" ","HOUSE_NO":"８４號之１","E_COORD97":167557.39999999999,"N_COORD97":2565016.6600000001,"ADDRESS":"佳里興８４號之１","OBJECTID":27580},"geometry":{"x":167557.4000000013,"y":2565016.6600000039}},{"attributes":{"ID":27581,"DIS_CODE":0,"TOWNNAME":"佳里區","LI":"佳化里","LIN":"8鄰","STREET":" ","SECT":" ","MAREA":"佳里興","LANE":" ","ALLEY":" ","HOUSE_NO":"８４號之２","E_COORD97":167562.14999999999,"N_COORD97":2565016.73,"ADDRESS":"佳里興８４號之２","OBJECTID":27581},"geometry":{"x":167562.1500000013,"y":2565016.7300000023}},{"attributes":{"ID":27582,"DIS_CODE":0,"TOWNNAME":"下營區","LI":"新興里","LIN":"17鄰","STREET":"中華街","SECT":" ","MAREA":" ","LANE":"２０２巷","ALLEY":"１５弄","HOUSE_NO":"１３號","E_COORD97":175191.84,"N_COORD97":2570736.23,"ADDRESS":"中華街２０２巷１５弄１３號","OBJECTID":27582},"geometry":{"x":175191.84000000078,"y":2570736.2300000023}},{"attributes":{"ID":27583,"DIS_CODE":0,"TOWNNAME":"佳里區","LI":"佳化里","LIN":"8鄰","STREET":" ","SECT":" ","MAREA":"佳里興","LANE":" ","ALLEY":" ","HOUSE_NO":"８４號之３","E_COORD97":167567.85999999999,"N_COORD97":2565019.1600000001,"ADDRESS":"佳里興８４號之３","OBJECTID":27583},"geometry":{"x":167567.86000000127,"y":2565019.1600000001}},{"attributes":{"ID":27584,"DIS_CODE":0,"TOWNNAME":"下營區","LI":"茅港里","LIN":"8鄰","STREET":" ","SECT":" ","MAREA":"茅港尾","LANE":" ","ALLEY":" ","HOUSE_NO":"２６０號","E_COORD97":176523.64999999999,"N_COORD97":2568301.6899999999,"ADDRESS":"茅港尾２６０號","OBJECTID":27584},"geometry":{"x":176523.65000000037,"y":2568301.6900000013}},{"attributes":{"ID":27585,"DIS_CODE":0,"TOWNNAME":"下營區","LI":"茅港里","LIN":"8鄰","STREET":" ","SECT":" ","MAREA":"茅港尾","LANE":" ","ALLEY":" ","HOUSE_NO":"２６１號","E_COORD97":176451.51999999999,"N_COORD97":2568376.1600000001,"ADDRESS":"茅港尾２６１號","OBJECTID":27585},"geometry":{"x":176451.52000000048,"y":2568376.1599999983}},{"attributes":{"ID":27586,"DIS_CODE":0,"TOWNNAME":"下營區","LI":"茅港里","LIN":"8鄰","STREET":" ","SECT":" ","MAREA":"茅港尾","LANE":" ","ALLEY":" ","HOUSE_NO":"２６７號","E_COORD97":176467.03,"N_COORD97":2568353.7799999998,"ADDRESS":"茅港尾２６７號","OBJECTID":27586},"geometry":{"x":176467.03000000026,"y":2568353.7799999993}},{"attributes":{"ID":27587,"DIS_CODE":0,"TOWNNAME":"下營區","LI":"茅港里","LIN":"8鄰","STREET":" ","SECT":" ","MAREA":"茅港尾","LANE":" ","ALLEY":" ","HOUSE_NO":"２６９號之６","E_COORD97":176485.57000000001,"N_COORD97":2568390,"ADDRESS":"茅港尾２６９號之６","OBJECTID":27587},"geometry":{"x":176485.56999999937,"y":2568390}},{"attributes":{"ID":27588,"DIS_CODE":0,"TOWNNAME":"下營區","LI":"茅港里","LIN":"8鄰","STREET":" ","SECT":" ","MAREA":"茅港尾","LANE":" ","ALLEY":" ","HOUSE_NO":"２６９號","E_COORD97":176454.38,"N_COORD97":2568389.1400000001,"ADDRESS":"茅港尾２６９號","OBJECTID":27588},"geometry":{"x":176454.38000000175,"y":2568389.1400000006}},{"attributes":{"ID":27589,"DIS_CODE":0,"TOWNNAME":"下營區","LI":"茅港里","LIN":"8鄰","STREET":" ","SECT":" ","MAREA":"茅港尾","LANE":" ","ALLEY":" ","HOUSE_NO":"２７０號之１","E_COORD97":176494.47,"N_COORD97":2568427.0099999998,"ADDRESS":"茅港尾２７０號之１","OBJECTID":27589},"geometry":{"x":176494.47000000067,"y":2568427.0099999998}},{"attributes":{"ID":27590,"DIS_CODE":0,"TOWNNAME":"下營區","LI":"茅港里","LIN":"8鄰","STREET":" ","SECT":" ","MAREA":"茅港尾","LANE":" ","ALLEY":" ","HOUSE_NO":"２７０號","E_COORD97":176503.79999999999,"N_COORD97":2568411.5,"ADDRESS":"茅港尾２７０號","OBJECTID":27590},"geometry":{"x":176503.79999999981,"y":2568411.5000000037}},{"attributes":{"ID":27591,"DIS_CODE":0,"TOWNNAME":"下營區","LI":"茅港里","LIN":"8鄰","STREET":" ","SECT":" ","MAREA":"茅港尾","LANE":" ","ALLEY":" ","HOUSE_NO":"２７１號","E_COORD97":176458.42000000001,"N_COORD97":2568444.3100000001,"ADDRESS":"茅港尾２７１號","OBJECTID":27591},"geometry":{"x":176458.41999999993,"y":2568444.3100000024}},{"attributes":{"ID":27592,"DIS_CODE":0,"TOWNNAME":"下營區","LI":"茅港里","LIN":"8鄰","STREET":" ","SECT":" ","MAREA":"茅港尾","LANE":" ","ALLEY":" ","HOUSE_NO":"２７３之１號","E_COORD97":176531.07999999999,"N_COORD97":2568396.8500000001,"ADDRESS":"茅港尾２７３之１號","OBJECTID":27592},"geometry":{"x":176531.08000000194,"y":2568396.8499999996}},{"attributes":{"ID":27593,"DIS_CODE":0,"TOWNNAME":"下營區","LI":"茅港里","LIN":"8鄰","STREET":" ","SECT":" ","MAREA":"茅港尾","LANE":" ","ALLEY":" ","HOUSE_NO":"２７５號","E_COORD97":176557.01000000001,"N_COORD97":2568368.6899999999,"ADDRESS":"茅港尾２７５號","OBJECTID":27593},"geometry":{"x":176557.01000000071,"y":2568368.6900000032}},{"attributes":{"ID":27594,"DIS_CODE":0,"TOWNNAME":"永康區","LI":"崑山里","LIN":"34鄰","STREET":"大仁街","SECT":" ","MAREA":" ","LANE":" ","ALLEY":" ","HOUSE_NO":"１４９號","E_COORD97":173876.41,"N_COORD97":2544932.9199999999,"ADDRESS":"大仁街１４９號","OBJECTID":27594},"geometry":{"x":173876.41000000108,"y":2544932.9199999999}},{"attributes":{"ID":27595,"DIS_CODE":0,"TOWNNAME":"永康區","LI":"\u25A0行里","LIN":"34鄰","STREET":"新行街","SECT":" ","MAREA":" ","LANE":" ","ALLEY":" ","HOUSE_NO":"１６３號","E_COORD97":172326.39999999999,"N_COORD97":2549172.5499999998,"ADDRESS":"新行街１６３號","OBJECTID":27595},"geometry":{"x":172326.40000000037,"y":2549172.5500000026}},{"attributes":{"ID":27596,"DIS_CODE":0,"TOWNNAME":"永康區","LI":"\u25A0行里","LIN":"34鄰","STREET":"新行街","SECT":" ","MAREA":" ","LANE":" ","ALLEY":" ","HOUSE_NO":"１８１號","E_COORD97":172323.14999999999,"N_COORD97":2549220.0600000001,"ADDRESS":"新行街１８１號","OBJECTID":27596},"geometry":{"x":172323.15000000037,"y":2549220.0600000024}},{"attributes":{"ID":27597,"DIS_CODE":0,"TOWNNAME":"下營區","LI":"茅港里","LIN":"8鄰","STREET":" ","SECT":" ","MAREA":"茅港尾","LANE":" ","ALLEY":" ","HOUSE_NO":"２７６號","E_COORD97":176532.79999999999,"N_COORD97":2568378.52,"ADDRESS":"茅港尾２７６號","OBJECTID":27597},"geometry":{"x":176532.80000000168,"y":2568378.5199999996}},{"attributes":{"ID":27598,"DIS_CODE":0,"TOWNNAME":"下營區","LI":"茅港里","LIN":"8鄰","STREET":" ","SECT":" ","MAREA":"茅港尾","LANE":" ","ALLEY":" ","HOUSE_NO":"２７８號","E_COORD97":176562.03,"N_COORD97":2568404.9199999999,"ADDRESS":"茅港尾２７８號","OBJECTID":27598},"geometry":{"x":176562.03000000026,"y":2568404.9200000037}},{"attributes":{"ID":27599,"DIS_CODE":0,"TOWNNAME":"下營區","LI":"茅港里","LIN":"8鄰","STREET":" ","SECT":" ","MAREA":"茅港尾","LANE":" ","ALLEY":" ","HOUSE_NO":"２７９號","E_COORD97":176566.26000000001,"N_COORD97":2568417.0099999998,"ADDRESS":"茅港尾２７９號","OBJECTID":27599},"geometry":{"x":176566.25999999978,"y":2568417.0099999998}},{"attributes":{"ID":27600,"DIS_CODE":0,"TOWNNAME":"下營區","LI":"茅港里","LIN":"8鄰","STREET":" ","SECT":" ","MAREA":"茅港尾","LANE":" ","ALLEY":" ","HOUSE_NO":"２８１號","E_COORD97":176552.91,"N_COORD97":2568444.04,"ADDRESS":"茅港尾２８１號","OBJECTID":27600},"geometry":{"x":176552.91000000108,"y":2568444.0400000028}}]}