{"displayFieldName":"TOWNNAME","fieldAliases":{"ID":"ID","DIS_CODE":"DIS_CODE","TOWNNAME":"TOWNNAME","LI":"LI","LIN":"LIN","STREET":"STREET","SECT":"SECT","MAREA":"MAREA","LANE":"LANE","ALLEY":"ALLEY","HOUSE_NO":"HOUSE_NO","E_COORD97":"E_COORD97","N_COORD97":"N_COORD97","ADDRESS":"ADDRESS","OBJECTID":"OBJECTID"},"geometryType":"esriGeometryPoint","spatialReference":{"wkid":102443,"latestWkid":3826},"fields":[{"name":"ID","type":"esriFieldTypeDouble","alias":"ID"},{"name":"DIS_CODE","type":"esriFieldTypeInteger","alias":"DIS_CODE"},{"name":"TOWNNAME","type":"esriFieldTypeString","alias":"TOWNNAME","length":8},{"name":"LI","type":"esriFieldTypeString","alias":"LI","length":8},{"name":"LIN","type":"esriFieldTypeString","alias":"LIN","length":12},{"name":"STREET","type":"esriFieldTypeString","alias":"STREET","length":20},{"name":"SECT","type":"esriFieldTypeString","alias":"SECT","length":8},{"name":"MAREA","type":"esriFieldTypeString","alias":"MAREA","length":12},{"name":"LANE","type":"esriFieldTypeString","alias":"LANE","length":10},{"name":"ALLEY","type":"esriFieldTypeString","alias":"ALLEY","length":10},{"name":"HOUSE_NO","type":"esriFieldTypeString","alias":"HOUSE_NO","length":20},{"name":"E_COORD97","type":"esriFieldTypeDouble","alias":"E_COORD97"},{"name":"N_COORD97","type":"esriFieldTypeDouble","alias":"N_COORD97"},{"name":"ADDRESS","type":"esriFieldTypeString","alias":"ADDRESS","length":50},{"name":"OBJECTID","type":"esriFieldTypeOID","alias":"OBJECTID"}],"features":[{"attributes":{"ID":405425,"DIS_CODE":0,"TOWNNAME":"南區","LI":"文華里","LIN":"27鄰","STREET":"南樂街","SECT":" ","MAREA":" ","LANE":"１０３巷","ALLEY":" ","HOUSE_NO":"１９號","E_COORD97":166639.48999999999,"N_COORD97":2542906.8900000001,"ADDRESS":"南樂街１０３巷１９號","OBJECTID":405401},"geometry":{"x":166639.49000000115,"y":2542906.8900000043}},{"attributes":{"ID":405426,"DIS_CODE":0,"TOWNNAME":"南區","LI":"文華里","LIN":"27鄰","STREET":"南樂街","SECT":" ","MAREA":" ","LANE":"１０３巷","ALLEY":" ","HOUSE_NO":"１號","E_COORD97":166648.06,"N_COORD97":2542991.8500000001,"ADDRESS":"南樂街１０３巷１號","OBJECTID":405402},"geometry":{"x":166648.06000000052,"y":2542991.8500000015}},{"attributes":{"ID":405427,"DIS_CODE":0,"TOWNNAME":"南區","LI":"文華里","LIN":"27鄰","STREET":"南樂街","SECT":" ","MAREA":" ","LANE":"１０３巷","ALLEY":" ","HOUSE_NO":"２號","E_COORD97":166647.53,"N_COORD97":2542986.6600000001,"ADDRESS":"南樂街１０３巷２號","OBJECTID":405403},"geometry":{"x":166647.53000000119,"y":2542986.660000002}},{"attributes":{"ID":405428,"DIS_CODE":0,"TOWNNAME":"南區","LI":"文華里","LIN":"27鄰","STREET":"南樂街","SECT":" ","MAREA":" ","LANE":"１０３巷","ALLEY":" ","HOUSE_NO":"３號","E_COORD97":166646.79000000001,"N_COORD97":2542980.1899999999,"ADDRESS":"南樂街１０３巷３號","OBJECTID":405404},"geometry":{"x":166646.7900000019,"y":2542980.1899999995}},{"attributes":{"ID":405429,"DIS_CODE":0,"TOWNNAME":"南區","LI":"文華里","LIN":"27鄰","STREET":"南樂街","SECT":" ","MAREA":" ","LANE":"１０３巷","ALLEY":" ","HOUSE_NO":"５號","E_COORD97":166645.51000000001,"N_COORD97":2542969.5899999999,"ADDRESS":"南樂街１０３巷５號","OBJECTID":405405},"geometry":{"x":166645.51000000071,"y":2542969.5900000017}},{"attributes":{"ID":405430,"DIS_CODE":0,"TOWNNAME":"南區","LI":"文華里","LIN":"27鄰","STREET":"南樂街","SECT":" ","MAREA":" ","LANE":"１０３巷","ALLEY":" ","HOUSE_NO":"７號","E_COORD97":166645.12,"N_COORD97":2542960.6800000002,"ADDRESS":"南樂街１０３巷７號","OBJECTID":405406},"geometry":{"x":166645.12000000104,"y":2542960.6799999997}},{"attributes":{"ID":405431,"DIS_CODE":0,"TOWNNAME":"南區","LI":"文華里","LIN":"27鄰","STREET":"南樂街","SECT":" ","MAREA":" ","LANE":"１０３巷","ALLEY":" ","HOUSE_NO":"８號","E_COORD97":166644.48000000001,"N_COORD97":2542957.1800000002,"ADDRESS":"南樂街１０３巷８號","OBJECTID":405407},"geometry":{"x":166644.48000000138,"y":2542957.1799999997}},{"attributes":{"ID":405432,"DIS_CODE":0,"TOWNNAME":"永康區","LI":"大灣里","LIN":"8鄰","STREET":"大同街","SECT":" ","MAREA":" ","LANE":"１５３巷","ALLEY":" ","HOUSE_NO":"１７號","E_COORD97":174815.14000000001,"N_COORD97":2545540.3599999999,"ADDRESS":"大同街１５３巷１７號","OBJECTID":405408},"geometry":{"x":174815.1400000006,"y":2545540.3600000013}},{"attributes":{"ID":405433,"DIS_CODE":0,"TOWNNAME":"永康區","LI":"大灣里","LIN":"10鄰","STREET":"大灣六街","SECT":" ","MAREA":" ","LANE":"１５０巷","ALLEY":" ","HOUSE_NO":"１０號","E_COORD97":174949.60999999999,"N_COORD97":2545450.2599999998,"ADDRESS":"大灣六街１５０巷１０號","OBJECTID":405409},"geometry":{"x":174949.6100000022,"y":2545450.2600000016}},{"attributes":{"ID":405434,"DIS_CODE":0,"TOWNNAME":"永康區","LI":"中興里","LIN":"11鄰","STREET":"中興街","SECT":" ","MAREA":" ","LANE":"３５巷","ALLEY":" ","HOUSE_NO":"２３號","E_COORD97":172023.39999999999,"N_COORD97":2545171.8700000001,"ADDRESS":"中興街３５巷２３號","OBJECTID":405410},"geometry":{"x":172023.40000000224,"y":2545171.870000001}},{"attributes":{"ID":405435,"DIS_CODE":0,"TOWNNAME":"永康區","LI":"大灣里","LIN":"10鄰","STREET":"大灣六街","SECT":" ","MAREA":" ","LANE":"１５０巷","ALLEY":" ","HOUSE_NO":"７號","E_COORD97":174930.56,"N_COORD97":2545439.8100000001,"ADDRESS":"大灣六街１５０巷７號","OBJECTID":405411},"geometry":{"x":174930.56000000145,"y":2545439.8100000042}},{"attributes":{"ID":405436,"DIS_CODE":0,"TOWNNAME":"永康區","LI":"五王里","LIN":"30鄰","STREET":"中山東路","SECT":" ","MAREA":" ","LANE":"１２０巷","ALLEY":" ","HOUSE_NO":"３號","E_COORD97":171700.73999999999,"N_COORD97":2545876.1299999999,"ADDRESS":"中山東路１２０巷３號","OBJECTID":405412},"geometry":{"x":171700.74000000209,"y":2545876.129999999}},{"attributes":{"ID":405437,"DIS_CODE":0,"TOWNNAME":"安平區","LI":"怡平里","LIN":"27鄰","STREET":"永華六街","SECT":" ","MAREA":" ","LANE":"２５巷","ALLEY":" ","HOUSE_NO":"２６號之１","E_COORD97":165529.95000000001,"N_COORD97":2543607.9700000002,"ADDRESS":"永華六街２５巷２６號之１","OBJECTID":405413},"geometry":{"x":165529.95000000019,"y":2543607.9699999988}},{"attributes":{"ID":405438,"DIS_CODE":0,"TOWNNAME":"安平區","LI":"怡平里","LIN":"27鄰","STREET":"永華六街","SECT":" ","MAREA":" ","LANE":"２５巷","ALLEY":" ","HOUSE_NO":"２８號","E_COORD97":165524.51999999999,"N_COORD97":2543608.2200000002,"ADDRESS":"永華六街２５巷２８號","OBJECTID":405414},"geometry":{"x":165524.52000000048,"y":2543608.2200000007}},{"attributes":{"ID":405439,"DIS_CODE":0,"TOWNNAME":"安平區","LI":"怡平里","LIN":"27鄰","STREET":"永華六街","SECT":" ","MAREA":" ","LANE":"２５巷","ALLEY":" ","HOUSE_NO":"３０號","E_COORD97":165516.63,"N_COORD97":2543609.4500000002,"ADDRESS":"永華六街２５巷３０號","OBJECTID":405415},"geometry":{"x":165516.62999999989,"y":2543609.4499999993}},{"attributes":{"ID":405440,"DIS_CODE":0,"TOWNNAME":"安平區","LI":"怡平里","LIN":"27鄰","STREET":"永華六街","SECT":" ","MAREA":" ","LANE":"２５巷","ALLEY":" ","HOUSE_NO":"３２號","E_COORD97":165508.73000000001,"N_COORD97":2543609.9399999999,"ADDRESS":"永華六街２５巷３２號","OBJECTID":405416},"geometry":{"x":165508.73000000138,"y":2543609.9399999995}},{"attributes":{"ID":405441,"DIS_CODE":0,"TOWNNAME":"六甲區","LI":"甲東里","LIN":"27鄰","STREET":"忠孝街","SECT":" ","MAREA":" ","LANE":"３６巷","ALLEY":" ","HOUSE_NO":"２號","E_COORD97":183828.92999999999,"N_COORD97":2569423.1400000001,"ADDRESS":"忠孝街３６巷２號","OBJECTID":405417},"geometry":{"x":183828.9299999997,"y":2569423.1400000006}},{"attributes":{"ID":405442,"DIS_CODE":0,"TOWNNAME":"六甲區","LI":"甲東里","LIN":"27鄰","STREET":"忠孝街","SECT":" ","MAREA":" ","LANE":"３６巷","ALLEY":" ","HOUSE_NO":"４號","E_COORD97":183848.44,"N_COORD97":2569413.0600000001,"ADDRESS":"忠孝街３６巷４號","OBJECTID":405418},"geometry":{"x":183848.44000000041,"y":2569413.0600000024}},{"attributes":{"ID":405443,"DIS_CODE":0,"TOWNNAME":"六甲區","LI":"甲東里","LIN":"27鄰","STREET":"珊瑚路","SECT":" ","MAREA":" ","LANE":"６７巷","ALLEY":" ","HOUSE_NO":"１０號之２","E_COORD97":183849.66,"N_COORD97":2569364.6200000001,"ADDRESS":"珊瑚路６７巷１０號之２","OBJECTID":405419},"geometry":{"x":183849.66000000015,"y":2569364.6200000029}},{"attributes":{"ID":405444,"DIS_CODE":0,"TOWNNAME":"六甲區","LI":"甲東里","LIN":"27鄰","STREET":"珊瑚路","SECT":" ","MAREA":" ","LANE":"６７巷","ALLEY":" ","HOUSE_NO":"１２號","E_COORD97":183880.31,"N_COORD97":2569365.7799999998,"ADDRESS":"珊瑚路６７巷１２號","OBJECTID":405420},"geometry":{"x":183880.30999999959,"y":2569365.7800000012}},{"attributes":{"ID":405445,"DIS_CODE":0,"TOWNNAME":"六甲區","LI":"甲東里","LIN":"27鄰","STREET":"珊瑚路","SECT":" ","MAREA":" ","LANE":"６７巷","ALLEY":" ","HOUSE_NO":"１６號","E_COORD97":183870,"N_COORD97":2569354.6899999999,"ADDRESS":"珊瑚路６７巷１６號","OBJECTID":405421},"geometry":{"x":183869.99999999907,"y":2569354.6899999995}},{"attributes":{"ID":405446,"DIS_CODE":0,"TOWNNAME":"六甲區","LI":"甲東里","LIN":"27鄰","STREET":"珊瑚路","SECT":" ","MAREA":" ","LANE":"６７巷","ALLEY":" ","HOUSE_NO":"２之２號","E_COORD97":183814.57000000001,"N_COORD97":2569364.4100000001,"ADDRESS":"珊瑚路６７巷２之２號","OBJECTID":405422},"geometry":{"x":183814.57000000123,"y":2569364.4100000001}},{"attributes":{"ID":405447,"DIS_CODE":0,"TOWNNAME":"六甲區","LI":"甲東里","LIN":"27鄰","STREET":"珊瑚路","SECT":" ","MAREA":" ","LANE":"６７巷","ALLEY":" ","HOUSE_NO":"２號","E_COORD97":183811.12,"N_COORD97":2569358.3100000001,"ADDRESS":"珊瑚路６７巷２號","OBJECTID":405423},"geometry":{"x":183811.12000000011,"y":2569358.3100000005}},{"attributes":{"ID":405448,"DIS_CODE":0,"TOWNNAME":"永康區","LI":"中興里","LIN":"5鄰","STREET":"中華路","SECT":" ","MAREA":" ","LANE":"２１４巷","ALLEY":" ","HOUSE_NO":"１９號","E_COORD97":171752.22,"N_COORD97":2545065.2200000002,"ADDRESS":"中華路２１４巷１９號","OBJECTID":405424},"geometry":{"x":171752.21999999974,"y":2545065.2200000025}},{"attributes":{"ID":405449,"DIS_CODE":0,"TOWNNAME":"永康區","LI":"五王里","LIN":"17鄰","STREET":"成功路","SECT":" ","MAREA":" ","LANE":"１７２巷","ALLEY":" ","HOUSE_NO":"８２號","E_COORD97":171557.47,"N_COORD97":2545789.4399999999,"ADDRESS":"成功路１７２巷８２號","OBJECTID":405425},"geometry":{"x":171557.46999999974,"y":2545789.4399999995}},{"attributes":{"ID":405450,"DIS_CODE":0,"TOWNNAME":"永康區","LI":"中興里","LIN":"17鄰","STREET":"中華路","SECT":" ","MAREA":" ","LANE":"２８６巷","ALLEY":" ","HOUSE_NO":"２號之１","E_COORD97":171591.60999999999,"N_COORD97":2545307.6400000001,"ADDRESS":"中華路２８６巷２號之１","OBJECTID":405426},"geometry":{"x":171591.61000000127,"y":2545307.6400000006}},{"attributes":{"ID":405451,"DIS_CODE":0,"TOWNNAME":"六甲區","LI":"甲東里","LIN":"27鄰","STREET":"珊瑚路","SECT":" ","MAREA":" ","LANE":"９３巷","ALLEY":" ","HOUSE_NO":"２４號","E_COORD97":183916.64999999999,"N_COORD97":2569373.6099999999,"ADDRESS":"珊瑚路９３巷２４號","OBJECTID":405427},"geometry":{"x":183916.65000000037,"y":2569373.6100000013}},{"attributes":{"ID":405452,"DIS_CODE":0,"TOWNNAME":"六甲區","LI":"甲東里","LIN":"27鄰","STREET":"珊瑚路","SECT":" ","MAREA":" ","LANE":"９３巷","ALLEY":" ","HOUSE_NO":"２號","E_COORD97":183885.79000000001,"N_COORD97":2569298.5,"ADDRESS":"珊瑚路９３巷２號","OBJECTID":405428},"geometry":{"x":183885.79000000097,"y":2569298.5}},{"attributes":{"ID":405453,"DIS_CODE":0,"TOWNNAME":"新營區","LI":"民榮里","LIN":"27鄰","STREET":"復興路","SECT":" ","MAREA":" ","LANE":"４８９巷","ALLEY":" ","HOUSE_NO":"１號","E_COORD97":178286.62,"N_COORD97":2578209.9100000001,"ADDRESS":"復興路４８９巷１號","OBJECTID":405429},"geometry":{"x":178286.62000000011,"y":2578209.9100000001}},{"attributes":{"ID":405454,"DIS_CODE":0,"TOWNNAME":"新營區","LI":"民榮里","LIN":"27鄰","STREET":"復興路","SECT":" ","MAREA":" ","LANE":"４８９巷","ALLEY":" ","HOUSE_NO":"２０號","E_COORD97":178290.87,"N_COORD97":2578183.3100000001,"ADDRESS":"復興路４８９巷２０號","OBJECTID":405430},"geometry":{"x":178290.87000000104,"y":2578183.3100000005}},{"attributes":{"ID":405455,"DIS_CODE":0,"TOWNNAME":"新營區","LI":"民榮里","LIN":"27鄰","STREET":"復興路","SECT":" ","MAREA":" ","LANE":"４８９巷","ALLEY":" ","HOUSE_NO":"１８號","E_COORD97":178287.75,"N_COORD97":2578186.6499999999,"ADDRESS":"復興路４８９巷１８號","OBJECTID":405431},"geometry":{"x":178287.75000000186,"y":2578186.6500000022}},{"attributes":{"ID":405456,"DIS_CODE":0,"TOWNNAME":"永康區","LI":"大灣里","LIN":"18鄰","STREET":"大灣路","SECT":" ","MAREA":" ","LANE":"３５６巷","ALLEY":" ","HOUSE_NO":"４２號","E_COORD97":174771.64999999999,"N_COORD97":2545148.5899999999,"ADDRESS":"大灣路３５６巷４２號","OBJECTID":405432},"geometry":{"x":174771.6500000013,"y":2545148.5899999999}},{"attributes":{"ID":405457,"DIS_CODE":0,"TOWNNAME":"永康區","LI":"大灣里","LIN":"18鄰","STREET":"大灣路","SECT":" ","MAREA":" ","LANE":"３５６巷","ALLEY":" ","HOUSE_NO":"３０號","E_COORD97":174784.14999999999,"N_COORD97":2545167.7200000002,"ADDRESS":"大灣路３５６巷３０號","OBJECTID":405433},"geometry":{"x":174784.15000000037,"y":2545167.7200000007}},{"attributes":{"ID":405458,"DIS_CODE":0,"TOWNNAME":"永康區","LI":"中興里","LIN":"25鄰","STREET":"中華路","SECT":" ","MAREA":" ","LANE":"２１６巷","ALLEY":" ","HOUSE_NO":"３號之１０","E_COORD97":171758.56,"N_COORD97":2545153.79,"ADDRESS":"中華路２１６巷３號之１０","OBJECTID":405434},"geometry":{"x":171758.55999999959,"y":2545153.7900000028}},{"attributes":{"ID":405459,"DIS_CODE":0,"TOWNNAME":"永康區","LI":"中興里","LIN":"17鄰","STREET":"中華路","SECT":" ","MAREA":" ","LANE":"２８６巷","ALLEY":" ","HOUSE_NO":"１１號","E_COORD97":171597.04999999999,"N_COORD97":2545322.5,"ADDRESS":"中華路２８６巷１１號","OBJECTID":405435},"geometry":{"x":171597.05000000075,"y":2545322.4999999981}},{"attributes":{"ID":405460,"DIS_CODE":0,"TOWNNAME":"永康區","LI":"大橋里","LIN":"8鄰","STREET":"大橋三街","SECT":" ","MAREA":" ","LANE":"１９９巷","ALLEY":" ","HOUSE_NO":"６號","E_COORD97":170854.25,"N_COORD97":2546817.2400000002,"ADDRESS":"大橋三街１９９巷６號","OBJECTID":405436},"geometry":{"x":170854.25,"y":2546817.2400000021}},{"attributes":{"ID":405461,"DIS_CODE":0,"TOWNNAME":"永康區","LI":"大灣里","LIN":"15鄰","STREET":"大灣路","SECT":" ","MAREA":" ","LANE":"２８８巷","ALLEY":" ","HOUSE_NO":"３７號","E_COORD97":174822.64000000001,"N_COORD97":2545283.5800000001,"ADDRESS":"大灣路２８８巷３７號","OBJECTID":405437},"geometry":{"x":174822.63999999966,"y":2545283.5800000001}},{"attributes":{"ID":405462,"DIS_CODE":0,"TOWNNAME":"新營區","LI":"新北里","LIN":"27鄰","STREET":"民生路","SECT":" ","MAREA":" ","LANE":"３８５巷","ALLEY":" ","HOUSE_NO":"３號","E_COORD97":178878.35000000001,"N_COORD97":2579149.5,"ADDRESS":"民生路３８５巷３號","OBJECTID":405438},"geometry":{"x":178878.35000000149,"y":2579149.5000000019}},{"attributes":{"ID":405463,"DIS_CODE":0,"TOWNNAME":"新營區","LI":"民榮里","LIN":"27鄰","STREET":"復興路","SECT":" ","MAREA":" ","LANE":"４８９巷","ALLEY":" ","HOUSE_NO":"１４號","E_COORD97":178281.64999999999,"N_COORD97":2578192.2200000002,"ADDRESS":"復興路４８９巷１４號","OBJECTID":405439},"geometry":{"x":178281.65000000037,"y":2578192.2200000025}},{"attributes":{"ID":405464,"DIS_CODE":0,"TOWNNAME":"歸仁區","LI":"六甲里","LIN":"27鄰","STREET":"六甲路","SECT":" ","MAREA":" ","LANE":"２２６巷","ALLEY":" ","HOUSE_NO":"１５號","E_COORD97":175904.01999999999,"N_COORD97":2539233.25,"ADDRESS":"六甲路２２６巷１５號","OBJECTID":405440},"geometry":{"x":175904.02000000048,"y":2539233.2500000019}},{"attributes":{"ID":405465,"DIS_CODE":0,"TOWNNAME":"北區","LI":"和順里","LIN":"27鄰","STREET":"民德路","SECT":" ","MAREA":" ","LANE":"９０巷","ALLEY":" ","HOUSE_NO":"１０號","E_COORD97":168095.01999999999,"N_COORD97":2545322.2000000002,"ADDRESS":"民德路９０巷１０號","OBJECTID":405441},"geometry":{"x":168095.01999999955,"y":2545322.2000000011}},{"attributes":{"ID":405466,"DIS_CODE":0,"TOWNNAME":"北區","LI":"和順里","LIN":"27鄰","STREET":"育德二路","SECT":" ","MAREA":" ","LANE":"３１巷","ALLEY":" ","HOUSE_NO":"１２號","E_COORD97":168122.89000000001,"N_COORD97":2545316.7400000002,"ADDRESS":"育德二路３１巷１２號","OBJECTID":405442},"geometry":{"x":168122.8900000006,"y":2545316.7400000002}},{"attributes":{"ID":405467,"DIS_CODE":0,"TOWNNAME":"北區","LI":"和順里","LIN":"27鄰","STREET":"育德二路","SECT":" ","MAREA":" ","LANE":"３１巷","ALLEY":" ","HOUSE_NO":"２號","E_COORD97":168180.98000000001,"N_COORD97":2545317,"ADDRESS":"育德二路３１巷２號","OBJECTID":405443},"geometry":{"x":168180.98000000045,"y":2545317.0000000019}},{"attributes":{"ID":405468,"DIS_CODE":0,"TOWNNAME":"北區","LI":"和順里","LIN":"27鄰","STREET":"育德二路","SECT":" ","MAREA":" ","LANE":"３１巷","ALLEY":" ","HOUSE_NO":"６號","E_COORD97":168164.31,"N_COORD97":2545317,"ADDRESS":"育德二路３１巷６號","OBJECTID":405444},"geometry":{"x":168164.30999999959,"y":2545317.0000000019}},{"attributes":{"ID":405469,"DIS_CODE":0,"TOWNNAME":"北區","LI":"和順里","LIN":"27鄰","STREET":"育德二路","SECT":" ","MAREA":" ","LANE":"３１巷","ALLEY":" ","HOUSE_NO":"８號","E_COORD97":168151.54999999999,"N_COORD97":2545316.21,"ADDRESS":"育德二路３１巷８號","OBJECTID":405445},"geometry":{"x":168151.54999999981,"y":2545316.2100000028}},{"attributes":{"ID":405470,"DIS_CODE":0,"TOWNNAME":"北區","LI":"和順里","LIN":"27鄰","STREET":"育德二路","SECT":" ","MAREA":" ","LANE":"３１巷","ALLEY":" ","HOUSE_NO":"１０號","E_COORD97":168136.70000000001,"N_COORD97":2545317,"ADDRESS":"育德二路３１巷１０號","OBJECTID":405446},"geometry":{"x":168136.70000000112,"y":2545317.0000000019}},{"attributes":{"ID":405471,"DIS_CODE":0,"TOWNNAME":"北區","LI":"和順里","LIN":"27鄰","STREET":"育德二路","SECT":" ","MAREA":" ","LANE":"４１巷","ALLEY":" ","HOUSE_NO":"１２號","E_COORD97":168180.72,"N_COORD97":2545340.4199999999,"ADDRESS":"育德二路４１巷１２號","OBJECTID":405447},"geometry":{"x":168180.71999999974,"y":2545340.4200000037}},{"attributes":{"ID":405472,"DIS_CODE":0,"TOWNNAME":"北區","LI":"和順里","LIN":"27鄰","STREET":"育德二路","SECT":" ","MAREA":" ","LANE":"４１巷","ALLEY":" ","HOUSE_NO":"１６號","E_COORD97":168174.20999999999,"N_COORD97":2545340.6800000002,"ADDRESS":"育德二路４１巷１６號","OBJECTID":405448},"geometry":{"x":168174.20999999996,"y":2545340.6799999997}},{"attributes":{"ID":405473,"DIS_CODE":0,"TOWNNAME":"永康區","LI":"大灣里","LIN":"5鄰","STREET":"大同街","SECT":" ","MAREA":" ","LANE":"１５３巷","ALLEY":" ","HOUSE_NO":"２２號","E_COORD97":174813.22,"N_COORD97":2545580.77,"ADDRESS":"大同街１５３巷２２號","OBJECTID":405449},"geometry":{"x":174813.22000000067,"y":2545580.7699999996}},{"attributes":{"ID":405474,"DIS_CODE":0,"TOWNNAME":"永康區","LI":"大橋里","LIN":"10鄰","STREET":"大橋三街","SECT":" ","MAREA":" ","LANE":"２６６巷","ALLEY":" ","HOUSE_NO":"１２４號","E_COORD97":170892.14999999999,"N_COORD97":2546730,"ADDRESS":"大橋三街２６６巷１２４號","OBJECTID":405450},"geometry":{"x":170892.15000000037,"y":2546730.0000000037}},{"attributes":{"ID":405475,"DIS_CODE":0,"TOWNNAME":"北區","LI":"和順里","LIN":"27鄰","STREET":"育德二路","SECT":" ","MAREA":" ","LANE":"４１巷","ALLEY":" ","HOUSE_NO":"１８號","E_COORD97":168168.48000000001,"N_COORD97":2545340.4199999999,"ADDRESS":"育德二路４１巷１８號","OBJECTID":405451},"geometry":{"x":168168.48000000138,"y":2545340.4200000037}},{"attributes":{"ID":405476,"DIS_CODE":0,"TOWNNAME":"北區","LI":"和順里","LIN":"27鄰","STREET":"育德二路","SECT":" ","MAREA":" ","LANE":"４１巷","ALLEY":" ","HOUSE_NO":"２０號","E_COORD97":168162.48999999999,"N_COORD97":2545340.4199999999,"ADDRESS":"育德二路４１巷２０號","OBJECTID":405452},"geometry":{"x":168162.49000000022,"y":2545340.4200000037}},{"attributes":{"ID":405477,"DIS_CODE":0,"TOWNNAME":"北區","LI":"和順里","LIN":"27鄰","STREET":"育德二路","SECT":" ","MAREA":" ","LANE":"４１巷","ALLEY":" ","HOUSE_NO":"２號","E_COORD97":168204.42999999999,"N_COORD97":2545340.9399999999,"ADDRESS":"育德二路４１巷２號","OBJECTID":405453},"geometry":{"x":168204.4299999997,"y":2545340.9400000013}},{"attributes":{"ID":405478,"DIS_CODE":0,"TOWNNAME":"北區","LI":"和順里","LIN":"27鄰","STREET":"育德二路","SECT":" ","MAREA":" ","LANE":"４１巷","ALLEY":" ","HOUSE_NO":"６號","E_COORD97":168198.44,"N_COORD97":2545341.2000000002,"ADDRESS":"育德二路４１巷６號","OBJECTID":405454},"geometry":{"x":168198.44000000041,"y":2545341.200000003}},{"attributes":{"ID":405479,"DIS_CODE":0,"TOWNNAME":"北區","LI":"和順里","LIN":"27鄰","STREET":"育德二路","SECT":" ","MAREA":" ","LANE":"４１巷","ALLEY":" ","HOUSE_NO":"１０號","E_COORD97":168186.70999999999,"N_COORD97":2545340.6800000002,"ADDRESS":"育德二路４１巷１０號","OBJECTID":405455},"geometry":{"x":168186.71000000089,"y":2545340.6799999997}},{"attributes":{"ID":405480,"DIS_CODE":0,"TOWNNAME":"永康區","LI":"五王里","LIN":"18鄰","STREET":"成功路","SECT":" ","MAREA":" ","LANE":"１７２巷","ALLEY":" ","HOUSE_NO":"５５號","E_COORD97":171559.45000000001,"N_COORD97":2545716.6400000001,"ADDRESS":"成功路１７２巷５５號","OBJECTID":405456},"geometry":{"x":171559.45000000019,"y":2545716.6400000025}},{"attributes":{"ID":405481,"DIS_CODE":0,"TOWNNAME":"永康區","LI":"大灣里","LIN":"1鄰","STREET":"大同街","SECT":" ","MAREA":" ","LANE":"１６９巷","ALLEY":" ","HOUSE_NO":"２號","E_COORD97":174781.60000000001,"N_COORD97":2545641.3199999998,"ADDRESS":"大同街１６９巷２號","OBJECTID":405457},"geometry":{"x":174781.60000000056,"y":2545641.3200000003}},{"attributes":{"ID":405482,"DIS_CODE":0,"TOWNNAME":"永康區","LI":"三合里","LIN":"21鄰","STREET":"南工街","SECT":" ","MAREA":" ","LANE":"２８９巷","ALLEY":" ","HOUSE_NO":"７號","E_COORD97":171851.39999999999,"N_COORD97":2546027.75,"ADDRESS":"南工街２８９巷７號","OBJECTID":405458},"geometry":{"x":171851.4000000013,"y":2546027.7500000019}},{"attributes":{"ID":405483,"DIS_CODE":0,"TOWNNAME":"永康區","LI":"五王里","LIN":"37鄰","STREET":"中華路","SECT":" ","MAREA":" ","LANE":"５７８巷","ALLEY":" ","HOUSE_NO":"１５號之３１","E_COORD97":171275.95000000001,"N_COORD97":2545965.79,"ADDRESS":"中華路５７８巷１５號之３１","OBJECTID":405459},"geometry":{"x":171275.95000000112,"y":2545965.7899999991}},{"attributes":{"ID":405484,"DIS_CODE":0,"TOWNNAME":"永康區","LI":"五王里","LIN":"28鄰","STREET":"中山東路","SECT":" ","MAREA":" ","LANE":"６８巷","ALLEY":" ","HOUSE_NO":"２６號","E_COORD97":171638.19,"N_COORD97":2545991.2200000002,"ADDRESS":"中山東路６８巷２６號","OBJECTID":405460},"geometry":{"x":171638.19000000041,"y":2545991.2200000025}},{"attributes":{"ID":405485,"DIS_CODE":0,"TOWNNAME":"永康區","LI":"五王里","LIN":"27鄰","STREET":"五福街","SECT":" ","MAREA":" ","LANE":"１１０巷","ALLEY":" ","HOUSE_NO":"１３號","E_COORD97":171577.48999999999,"N_COORD97":2545935.8500000001,"ADDRESS":"五福街１１０巷１３號","OBJECTID":405461},"geometry":{"x":171577.49000000115,"y":2545935.8499999996}},{"attributes":{"ID":405486,"DIS_CODE":0,"TOWNNAME":"永康區","LI":"五王里","LIN":"18鄰","STREET":"成功路","SECT":" ","MAREA":" ","LANE":"１８８巷","ALLEY":" ","HOUSE_NO":"７號","E_COORD97":171439.88,"N_COORD97":2545686.27,"ADDRESS":"成功路１８８巷７號","OBJECTID":405462},"geometry":{"x":171439.88000000175,"y":2545686.2699999996}},{"attributes":{"ID":405487,"DIS_CODE":0,"TOWNNAME":"永康區","LI":"大灣里","LIN":"18鄰","STREET":"大灣路","SECT":" ","MAREA":" ","LANE":"３５６巷","ALLEY":" ","HOUSE_NO":"１號","E_COORD97":174818.98999999999,"N_COORD97":2545117.6200000001,"ADDRESS":"大灣路３５６巷１號","OBJECTID":405463},"geometry":{"x":174818.99000000022,"y":2545117.6200000029}},{"attributes":{"ID":405488,"DIS_CODE":0,"TOWNNAME":"永康區","LI":"中興里","LIN":"20鄰","STREET":"中華路","SECT":" ","MAREA":" ","LANE":"２１６巷","ALLEY":" ","HOUSE_NO":"２９號","E_COORD97":171834.45000000001,"N_COORD97":2545159.46,"ADDRESS":"中華路２１６巷２９號","OBJECTID":405464},"geometry":{"x":171834.45000000019,"y":2545159.4600000028}},{"attributes":{"ID":405489,"DIS_CODE":0,"TOWNNAME":"永康區","LI":"王行里","LIN":"13鄰","STREET":"王行路","SECT":" ","MAREA":" ","LANE":"１０１８巷","ALLEY":" ","HOUSE_NO":"３５號","E_COORD97":175820.57000000001,"N_COORD97":2550202.4900000002,"ADDRESS":"王行路１０１８巷３５號","OBJECTID":405465},"geometry":{"x":175820.5700000003,"y":2550202.4900000021}},{"attributes":{"ID":405490,"DIS_CODE":0,"TOWNNAME":"永康區","LI":"大橋里","LIN":"27鄰","STREET":"大橋一街","SECT":" ","MAREA":" ","LANE":"２５３巷","ALLEY":" ","HOUSE_NO":"１５號","E_COORD97":171277.04999999999,"N_COORD97":2546760.25,"ADDRESS":"大橋一街２５３巷１５號","OBJECTID":405466},"geometry":{"x":171277.04999999981,"y":2546760.2500000019}},{"attributes":{"ID":405491,"DIS_CODE":0,"TOWNNAME":"永康區","LI":"大橋里","LIN":"27鄰","STREET":"大橋一街","SECT":" ","MAREA":" ","LANE":"２５３巷","ALLEY":" ","HOUSE_NO":"９號","E_COORD97":171295.42999999999,"N_COORD97":2546734.25,"ADDRESS":"大橋一街２５３巷９號","OBJECTID":405467},"geometry":{"x":171295.43000000156,"y":2546734.25}},{"attributes":{"ID":405492,"DIS_CODE":0,"TOWNNAME":"永康區","LI":"中興里","LIN":"27鄰","STREET":"中興街","SECT":" ","MAREA":" ","LANE":"９１巷","ALLEY":" ","HOUSE_NO":"２９號","E_COORD97":171989.45000000001,"N_COORD97":2545341.9900000002,"ADDRESS":"中興街９１巷２９號","OBJECTID":405468},"geometry":{"x":171989.45000000112,"y":2545341.9900000002}},{"attributes":{"ID":405493,"DIS_CODE":0,"TOWNNAME":"永康區","LI":"大橋里","LIN":"5鄰","STREET":"大橋一街","SECT":" ","MAREA":" ","LANE":"１０３巷","ALLEY":" ","HOUSE_NO":"１９８號","E_COORD97":170808.73999999999,"N_COORD97":2546796.4900000002,"ADDRESS":"大橋一街１０３巷１９８號","OBJECTID":405469},"geometry":{"x":170808.74000000022,"y":2546796.4900000002}},{"attributes":{"ID":405494,"DIS_CODE":0,"TOWNNAME":"永康區","LI":"大橋里","LIN":"5鄰","STREET":"大橋一街","SECT":" ","MAREA":" ","LANE":"１０３巷","ALLEY":" ","HOUSE_NO":"１８４號","E_COORD97":170809.39999999999,"N_COORD97":2546766,"ADDRESS":"大橋一街１０３巷１８４號","OBJECTID":405470},"geometry":{"x":170809.40000000037,"y":2546766}},{"attributes":{"ID":405495,"DIS_CODE":0,"TOWNNAME":"永康區","LI":"中興里","LIN":"18鄰","STREET":"中華路","SECT":" ","MAREA":" ","LANE":"２８６巷","ALLEY":" ","HOUSE_NO":"３２號","E_COORD97":171675.41,"N_COORD97":2545311.5,"ADDRESS":"中華路２８６巷３２號","OBJECTID":405471},"geometry":{"x":171675.41000000015,"y":2545311.5}},{"attributes":{"ID":405496,"DIS_CODE":0,"TOWNNAME":"永康區","LI":"大灣里","LIN":"11鄰","STREET":"大灣路","SECT":" ","MAREA":" ","LANE":"２４０巷","ALLEY":" ","HOUSE_NO":"１０號","E_COORD97":174946.29000000001,"N_COORD97":2545382.1299999999,"ADDRESS":"大灣路２４０巷１０號","OBJECTID":405472},"geometry":{"x":174946.28999999911,"y":2545382.1300000008}},{"attributes":{"ID":405497,"DIS_CODE":0,"TOWNNAME":"歸仁區","LI":"六甲里","LIN":"27鄰","STREET":"六甲路","SECT":" ","MAREA":" ","LANE":"２２６巷","ALLEY":" ","HOUSE_NO":"１７號","E_COORD97":175899.92000000001,"N_COORD97":2539234.25,"ADDRESS":"六甲路２２６巷１７號","OBJECTID":405473},"geometry":{"x":175899.92000000086,"y":2539234.25}},{"attributes":{"ID":405498,"DIS_CODE":0,"TOWNNAME":"歸仁區","LI":"六甲里","LIN":"27鄰","STREET":"六甲路","SECT":" ","MAREA":" ","LANE":"２２６巷","ALLEY":" ","HOUSE_NO":"１號","E_COORD97":175950.97,"N_COORD97":2539243.25,"ADDRESS":"六甲路２２６巷１號","OBJECTID":405474},"geometry":{"x":175950.96999999974,"y":2539243.2500000019}},{"attributes":{"ID":405499,"DIS_CODE":0,"TOWNNAME":"歸仁區","LI":"六甲里","LIN":"27鄰","STREET":"六甲路","SECT":" ","MAREA":" ","LANE":"２２６巷","ALLEY":" ","HOUSE_NO":"３號","E_COORD97":175938.76999999999,"N_COORD97":2539254.25,"ADDRESS":"六甲路２２６巷３號","OBJECTID":405475},"geometry":{"x":175938.76999999955,"y":2539254.25}},{"attributes":{"ID":405500,"DIS_CODE":0,"TOWNNAME":"南區","LI":"金華里","LIN":"27鄰","STREET":"健康路","SECT":"二段","MAREA":" ","LANE":"４０１巷","ALLEY":" ","HOUSE_NO":"１１號","E_COORD97":166605.60999999999,"N_COORD97":2542430.73,"ADDRESS":"健康路二段４０１巷１１號","OBJECTID":405476},"geometry":{"x":166605.61000000034,"y":2542430.7300000023}},{"attributes":{"ID":405501,"DIS_CODE":0,"TOWNNAME":"南區","LI":"金華里","LIN":"27鄰","STREET":"健康路","SECT":"二段","MAREA":" ","LANE":"４０１巷","ALLEY":" ","HOUSE_NO":"１３號","E_COORD97":166605.79000000001,"N_COORD97":2542422.1400000001,"ADDRESS":"健康路二段４０１巷１３號","OBJECTID":405477},"geometry":{"x":166605.79000000004,"y":2542422.1400000006}},{"attributes":{"ID":405502,"DIS_CODE":0,"TOWNNAME":"南區","LI":"金華里","LIN":"27鄰","STREET":"健康路","SECT":"二段","MAREA":" ","LANE":"４０１巷","ALLEY":" ","HOUSE_NO":"１５號","E_COORD97":166607.10000000001,"N_COORD97":2542413.9199999999,"ADDRESS":"健康路二段４０１巷１５號","OBJECTID":405478},"geometry":{"x":166607.10000000056,"y":2542413.9199999999}},{"attributes":{"ID":405503,"DIS_CODE":0,"TOWNNAME":"北區","LI":"成德里","LIN":"27鄰","STREET":"育德二路","SECT":" ","MAREA":" ","LANE":"１９６巷","ALLEY":" ","HOUSE_NO":"１３號","E_COORD97":168401.32999999999,"N_COORD97":2545807,"ADDRESS":"育德二路１９６巷１３號","OBJECTID":405479},"geometry":{"x":168401.33000000101,"y":2545807}},{"attributes":{"ID":405504,"DIS_CODE":0,"TOWNNAME":"北區","LI":"成德里","LIN":"27鄰","STREET":"育德二路","SECT":" ","MAREA":" ","LANE":"１９６巷","ALLEY":" ","HOUSE_NO":"５號","E_COORD97":168383.87,"N_COORD97":2545807.3199999998,"ADDRESS":"育德二路１９６巷５號","OBJECTID":405480},"geometry":{"x":168383.87000000197,"y":2545807.3200000022}},{"attributes":{"ID":405505,"DIS_CODE":0,"TOWNNAME":"北區","LI":"成德里","LIN":"27鄰","STREET":"育德二路","SECT":" ","MAREA":" ","LANE":"１９６巷","ALLEY":" ","HOUSE_NO":"１１號","E_COORD97":168397.20000000001,"N_COORD97":2545807,"ADDRESS":"育德二路１９６巷１１號","OBJECTID":405481},"geometry":{"x":168397.20000000112,"y":2545807}},{"attributes":{"ID":405506,"DIS_CODE":0,"TOWNNAME":"北區","LI":"成德里","LIN":"27鄰","STREET":"育德二路","SECT":" ","MAREA":" ","LANE":"１９６巷","ALLEY":" ","HOUSE_NO":"１５號","E_COORD97":168405.62,"N_COORD97":2545807,"ADDRESS":"育德二路１９６巷１５號","OBJECTID":405482},"geometry":{"x":168405.62000000011,"y":2545807}},{"attributes":{"ID":405507,"DIS_CODE":0,"TOWNNAME":"北區","LI":"成德里","LIN":"27鄰","STREET":"育德二路","SECT":" ","MAREA":" ","LANE":"１９６巷","ALLEY":" ","HOUSE_NO":"３號","E_COORD97":168379.26000000001,"N_COORD97":2545807.6299999999,"ADDRESS":"育德二路１９６巷３號","OBJECTID":405483},"geometry":{"x":168379.26000000164,"y":2545807.629999999}},{"attributes":{"ID":405508,"DIS_CODE":0,"TOWNNAME":"永康區","LI":"三合里","LIN":"22鄰","STREET":"南工街","SECT":" ","MAREA":" ","LANE":"３１１巷","ALLEY":" ","HOUSE_NO":"２１號","E_COORD97":171829.51000000001,"N_COORD97":2545991.25,"ADDRESS":"南工街３１１巷２１號","OBJECTID":405484},"geometry":{"x":171829.51000000071,"y":2545991.25}},{"attributes":{"ID":405509,"DIS_CODE":0,"TOWNNAME":"永康區","LI":"大橋里","LIN":"5鄰","STREET":"大橋三街","SECT":" ","MAREA":" ","LANE":"１９９巷","ALLEY":" ","HOUSE_NO":"５號","E_COORD97":170834.35999999999,"N_COORD97":2546807.0600000001,"ADDRESS":"大橋三街１９９巷５號","OBJECTID":405485},"geometry":{"x":170834.36000000127,"y":2546807.0600000005}},{"attributes":{"ID":405510,"DIS_CODE":0,"TOWNNAME":"永康區","LI":"中興里","LIN":"5鄰","STREET":"中華路","SECT":" ","MAREA":" ","LANE":"２１４巷","ALLEY":" ","HOUSE_NO":"８１號","E_COORD97":171894.32999999999,"N_COORD97":2545110.9900000002,"ADDRESS":"中華路２１４巷８１號","OBJECTID":405486},"geometry":{"x":171894.33000000007,"y":2545110.9900000021}},{"attributes":{"ID":405511,"DIS_CODE":0,"TOWNNAME":"永康區","LI":"中興里","LIN":"20鄰","STREET":"中華路","SECT":" ","MAREA":" ","LANE":"２１６巷","ALLEY":" ","HOUSE_NO":"２５號","E_COORD97":171825.67000000001,"N_COORD97":2545159.8300000001,"ADDRESS":"中華路２１６巷２５號","OBJECTID":405487},"geometry":{"x":171825.66999999993,"y":2545159.8300000001}},{"attributes":{"ID":405512,"DIS_CODE":0,"TOWNNAME":"永康區","LI":"五王里","LIN":"19鄰","STREET":"成功路","SECT":" ","MAREA":" ","LANE":"１７２巷","ALLEY":" ","HOUSE_NO":"２３號","E_COORD97":171491.20000000001,"N_COORD97":2545663.48,"ADDRESS":"成功路１７２巷２３號","OBJECTID":405488},"geometry":{"x":171491.20000000112,"y":2545663.4800000023}},{"attributes":{"ID":405513,"DIS_CODE":0,"TOWNNAME":"永康區","LI":"大橋里","LIN":"10鄰","STREET":"大橋一街","SECT":" ","MAREA":" ","LANE":"１０３巷","ALLEY":" ","HOUSE_NO":"１８０號","E_COORD97":170844.79999999999,"N_COORD97":2546728,"ADDRESS":"大橋一街１０３巷１８０號","OBJECTID":405489},"geometry":{"x":170844.79999999981,"y":2546728.0000000019}},{"attributes":{"ID":405514,"DIS_CODE":0,"TOWNNAME":"永康區","LI":"王行里","LIN":"10鄰","STREET":"王行路","SECT":" ","MAREA":" ","LANE":"１０１８巷","ALLEY":" ","HOUSE_NO":"２２號","E_COORD97":175858.03,"N_COORD97":2550183.8100000001,"ADDRESS":"王行路１０１８巷２２號","OBJECTID":405490},"geometry":{"x":175858.03000000026,"y":2550183.8100000024}},{"attributes":{"ID":405515,"DIS_CODE":0,"TOWNNAME":"北區","LI":"成德里","LIN":"27鄰","STREET":"育德二路","SECT":" ","MAREA":" ","LANE":"１９６巷","ALLEY":" ","HOUSE_NO":"７號","E_COORD97":168388.14999999999,"N_COORD97":2545807.3199999998,"ADDRESS":"育德二路１９６巷７號","OBJECTID":405491},"geometry":{"x":168388.15000000037,"y":2545807.3200000022}},{"attributes":{"ID":405516,"DIS_CODE":0,"TOWNNAME":"北區","LI":"成德里","LIN":"27鄰","STREET":"育德二路","SECT":" ","MAREA":" ","LANE":"１９６巷","ALLEY":" ","HOUSE_NO":"２７號","E_COORD97":168429.42999999999,"N_COORD97":2545806.6800000002,"ADDRESS":"育德二路１９６巷２７號","OBJECTID":405492},"geometry":{"x":168429.43000000063,"y":2545806.6800000016}},{"attributes":{"ID":405517,"DIS_CODE":0,"TOWNNAME":"北區","LI":"成德里","LIN":"27鄰","STREET":"育德二路","SECT":" ","MAREA":" ","LANE":"１９６巷","ALLEY":" ","HOUSE_NO":"２３號","E_COORD97":168421.64999999999,"N_COORD97":2545806.8399999999,"ADDRESS":"育德二路１９６巷２３號","OBJECTID":405493},"geometry":{"x":168421.6500000013,"y":2545806.8399999999}},{"attributes":{"ID":405518,"DIS_CODE":0,"TOWNNAME":"北區","LI":"成德里","LIN":"27鄰","STREET":"育德二路","SECT":" ","MAREA":" ","LANE":"１９６巷","ALLEY":" ","HOUSE_NO":"３１號","E_COORD97":168437.53,"N_COORD97":2545806.6800000002,"ADDRESS":"育德二路１９６巷３１號","OBJECTID":405494},"geometry":{"x":168437.53000000119,"y":2545806.6800000016}},{"attributes":{"ID":405519,"DIS_CODE":0,"TOWNNAME":"北區","LI":"成德里","LIN":"27鄰","STREET":"育德二路","SECT":" ","MAREA":" ","LANE":"１９６巷","ALLEY":" ","HOUSE_NO":"２１號","E_COORD97":168417.84,"N_COORD97":2545806.8399999999,"ADDRESS":"育德二路１９６巷２１號","OBJECTID":405495},"geometry":{"x":168417.84000000078,"y":2545806.8399999999}},{"attributes":{"ID":405520,"DIS_CODE":0,"TOWNNAME":"北區","LI":"成德里","LIN":"27鄰","STREET":"育德二路","SECT":" ","MAREA":" ","LANE":"１９６巷","ALLEY":" ","HOUSE_NO":"２５號","E_COORD97":168425.45999999999,"N_COORD97":2545806.6800000002,"ADDRESS":"育德二路１９６巷２５號","OBJECTID":405496},"geometry":{"x":168425.46000000183,"y":2545806.6800000016}},{"attributes":{"ID":405521,"DIS_CODE":0,"TOWNNAME":"北區","LI":"成德里","LIN":"27鄰","STREET":"育德二路","SECT":" ","MAREA":" ","LANE":"１９６巷","ALLEY":" ","HOUSE_NO":"２９號","E_COORD97":168433.72,"N_COORD97":2545806.6800000002,"ADDRESS":"育德二路１９６巷２９號","OBJECTID":405497},"geometry":{"x":168433.7200000016,"y":2545806.6800000016}},{"attributes":{"ID":405522,"DIS_CODE":0,"TOWNNAME":"北區","LI":"成德里","LIN":"27鄰","STREET":"育德二路","SECT":" ","MAREA":" ","LANE":"１９６巷","ALLEY":" ","HOUSE_NO":"３３號","E_COORD97":168441.34,"N_COORD97":2545806.6800000002,"ADDRESS":"育德二路１９６巷３３號","OBJECTID":405498},"geometry":{"x":168441.34000000171,"y":2545806.6800000016}},{"attributes":{"ID":405523,"DIS_CODE":0,"TOWNNAME":"北區","LI":"成德里","LIN":"27鄰","STREET":"育德二路","SECT":" ","MAREA":" ","LANE":"２００巷","ALLEY":" ","HOUSE_NO":"３５號","E_COORD97":168447.04999999999,"N_COORD97":2545843.8300000001,"ADDRESS":"育德二路２００巷３５號","OBJECTID":405499},"geometry":{"x":168447.05000000075,"y":2545843.8300000019}},{"attributes":{"ID":405524,"DIS_CODE":0,"TOWNNAME":"北區","LI":"成德里","LIN":"27鄰","STREET":"育德二路","SECT":" ","MAREA":" ","LANE":"２００巷","ALLEY":" ","HOUSE_NO":"４６號","E_COORD97":168446.89000000001,"N_COORD97":2545828.27,"ADDRESS":"育德二路２００巷４６號","OBJECTID":405500},"geometry":{"x":168446.88999999966,"y":2545828.2699999996}},{"attributes":{"ID":405525,"DIS_CODE":0,"TOWNNAME":"北區","LI":"成德里","LIN":"27鄰","STREET":"育德二路","SECT":" ","MAREA":" ","LANE":"２００巷","ALLEY":" ","HOUSE_NO":"１７號","E_COORD97":168409.42999999999,"N_COORD97":2545845.2599999998,"ADDRESS":"育德二路２００巷１７號","OBJECTID":405501},"geometry":{"x":168409.4299999997,"y":2545845.2599999998}},{"attributes":{"ID":405526,"DIS_CODE":0,"TOWNNAME":"北區","LI":"成德里","LIN":"27鄰","STREET":"育德二路","SECT":" ","MAREA":" ","LANE":"２００巷","ALLEY":" ","HOUSE_NO":"１９號","E_COORD97":168413.23999999999,"N_COORD97":2545845.1000000001,"ADDRESS":"育德二路２００巷１９號","OBJECTID":405502},"geometry":{"x":168413.24000000022,"y":2545845.1000000015}},{"attributes":{"ID":405527,"DIS_CODE":0,"TOWNNAME":"北區","LI":"成德里","LIN":"27鄰","STREET":"育德二路","SECT":" ","MAREA":" ","LANE":"２００巷","ALLEY":" ","HOUSE_NO":"２２號","E_COORD97":168409.26999999999,"N_COORD97":2545830.3399999999,"ADDRESS":"育德二路２００巷２２號","OBJECTID":405503},"geometry":{"x":168409.27000000142,"y":2545830.3400000017}},{"attributes":{"ID":405528,"DIS_CODE":0,"TOWNNAME":"北區","LI":"成德里","LIN":"27鄰","STREET":"育德二路","SECT":" ","MAREA":" ","LANE":"２００巷","ALLEY":" ","HOUSE_NO":"２６號","E_COORD97":168413.07999999999,"N_COORD97":2545830.02,"ADDRESS":"育德二路２００巷２６號","OBJECTID":405504},"geometry":{"x":168413.08000000101,"y":2545830.0199999996}},{"attributes":{"ID":405529,"DIS_CODE":0,"TOWNNAME":"北區","LI":"成德里","LIN":"27鄰","STREET":"育德二路","SECT":" ","MAREA":" ","LANE":"２００巷","ALLEY":" ","HOUSE_NO":"１２號","E_COORD97":168391.32999999999,"N_COORD97":2545830.6499999999,"ADDRESS":"育德二路２００巷１２號","OBJECTID":405505},"geometry":{"x":168391.33000000101,"y":2545830.6500000041}},{"attributes":{"ID":405530,"DIS_CODE":0,"TOWNNAME":"北區","LI":"成德里","LIN":"27鄰","STREET":"育德二路","SECT":" ","MAREA":" ","LANE":"２００巷","ALLEY":" ","HOUSE_NO":"１８號","E_COORD97":168400.54000000001,"N_COORD97":2545830.4900000002,"ADDRESS":"育德二路２００巷１８號","OBJECTID":405506},"geometry":{"x":168400.54000000004,"y":2545830.4900000002}},{"attributes":{"ID":405531,"DIS_CODE":0,"TOWNNAME":"北區","LI":"成德里","LIN":"27鄰","STREET":"育德二路","SECT":" ","MAREA":" ","LANE":"２００巷","ALLEY":" ","HOUSE_NO":"８號","E_COORD97":168382.44,"N_COORD97":2545830.8100000001,"ADDRESS":"育德二路２００巷８號","OBJECTID":405507},"geometry":{"x":168382.44000000134,"y":2545830.8100000024}},{"attributes":{"ID":405532,"DIS_CODE":0,"TOWNNAME":"北區","LI":"成德里","LIN":"27鄰","STREET":"育德二路","SECT":" ","MAREA":" ","LANE":"２００巷","ALLEY":" ","HOUSE_NO":"６號","E_COORD97":168377.98999999999,"N_COORD97":2545830.9700000002,"ADDRESS":"育德二路２００巷６號","OBJECTID":405508},"geometry":{"x":168377.99000000209,"y":2545830.9700000007}},{"attributes":{"ID":405533,"DIS_CODE":0,"TOWNNAME":"永康區","LI":"大灣里","LIN":"15鄰","STREET":"民族路","SECT":" ","MAREA":" ","LANE":"４１５巷","ALLEY":" ","HOUSE_NO":"１３號","E_COORD97":174773.54999999999,"N_COORD97":2545284.4199999999,"ADDRESS":"民族路４１５巷１３號","OBJECTID":405509},"geometry":{"x":174773.55000000075,"y":2545284.4199999999}},{"attributes":{"ID":405534,"DIS_CODE":0,"TOWNNAME":"永康區","LI":"五王里","LIN":"1鄰","STREET":"中華二路","SECT":" ","MAREA":" ","LANE":"２０６巷","ALLEY":" ","HOUSE_NO":"１７號","E_COORD97":171579.37,"N_COORD97":2545516.29,"ADDRESS":"中華二路２０６巷１７號","OBJECTID":405510},"geometry":{"x":171579.37000000197,"y":2545516.2899999972}},{"attributes":{"ID":405535,"DIS_CODE":0,"TOWNNAME":"永康區","LI":"五王里","LIN":"30鄰","STREET":"中山東路","SECT":" ","MAREA":" ","LANE":"１２０巷","ALLEY":" ","HOUSE_NO":"３３號","E_COORD97":171656.60000000001,"N_COORD97":2545840.3900000001,"ADDRESS":"中山東路１２０巷３３號","OBJECTID":405511},"geometry":{"x":171656.59999999963,"y":2545840.3900000025}},{"attributes":{"ID":405536,"DIS_CODE":0,"TOWNNAME":"永康區","LI":"大橋里","LIN":"10鄰","STREET":"大橋三街","SECT":" ","MAREA":" ","LANE":"２６６巷","ALLEY":" ","HOUSE_NO":"１２８號","E_COORD97":170885.01000000001,"N_COORD97":2546725.5,"ADDRESS":"大橋三街２６６巷１２８號","OBJECTID":405512},"geometry":{"x":170885.01000000071,"y":2546725.5}},{"attributes":{"ID":405537,"DIS_CODE":0,"TOWNNAME":"北區","LI":"成德里","LIN":"27鄰","STREET":"育德二路","SECT":" ","MAREA":" ","LANE":"２００巷","ALLEY":" ","HOUSE_NO":"１０號","E_COORD97":168387.20000000001,"N_COORD97":2545830.8100000001,"ADDRESS":"育德二路２００巷１０號","OBJECTID":405513},"geometry":{"x":168387.20000000112,"y":2545830.8100000024}},{"attributes":{"ID":405538,"DIS_CODE":0,"TOWNNAME":"北區","LI":"成德里","LIN":"27鄰","STREET":"育德二路","SECT":" ","MAREA":" ","LANE":"２００巷","ALLEY":" ","HOUSE_NO":"１６號","E_COORD97":168396.09,"N_COORD97":2545830.4900000002,"ADDRESS":"育德二路２００巷１６號","OBJECTID":405514},"geometry":{"x":168396.09000000078,"y":2545830.4900000002}},{"attributes":{"ID":405539,"DIS_CODE":0,"TOWNNAME":"北區","LI":"成德里","LIN":"27鄰","STREET":"育德二路","SECT":" ","MAREA":" ","LANE":"２００巷","ALLEY":" ","HOUSE_NO":"２０號","E_COORD97":168405.14000000001,"N_COORD97":2545830.3399999999,"ADDRESS":"育德二路２００巷２０號","OBJECTID":405515},"geometry":{"x":168405.13999999873,"y":2545830.3400000017}},{"attributes":{"ID":405540,"DIS_CODE":0,"TOWNNAME":"北區","LI":"成德里","LIN":"27鄰","STREET":"育德二路","SECT":" ","MAREA":" ","LANE":"２００巷","ALLEY":" ","HOUSE_NO":"３６號","E_COORD97":168430.07000000001,"N_COORD97":2545829.3799999999,"ADDRESS":"育德二路２００巷３６號","OBJECTID":405516},"geometry":{"x":168430.07000000216,"y":2545829.379999999}},{"attributes":{"ID":405541,"DIS_CODE":0,"TOWNNAME":"北區","LI":"成德里","LIN":"27鄰","STREET":"育德二路","SECT":" ","MAREA":" ","LANE":"２００巷","ALLEY":" ","HOUSE_NO":"２９號","E_COORD97":168434.35000000001,"N_COORD97":2545844.23,"ADDRESS":"育德二路２００巷２９號","OBJECTID":405517},"geometry":{"x":168434.35000000149,"y":2545844.2300000023}},{"attributes":{"ID":405542,"DIS_CODE":0,"TOWNNAME":"北區","LI":"成德里","LIN":"27鄰","STREET":"育德二路","SECT":" ","MAREA":" ","LANE":"２００巷","ALLEY":" ","HOUSE_NO":"３３號","E_COORD97":168442.76999999999,"N_COORD97":2545843.75,"ADDRESS":"育德二路２００巷３３號","OBJECTID":405518},"geometry":{"x":168442.76999999955,"y":2545843.7500000019}},{"attributes":{"ID":405543,"DIS_CODE":0,"TOWNNAME":"關廟區","LI":"東勢里","LIN":"27鄰","STREET":"和平路","SECT":" ","MAREA":" ","LANE":"２２巷","ALLEY":" ","HOUSE_NO":"３號","E_COORD97":181757.39000000001,"N_COORD97":2539368.25,"ADDRESS":"和平路２２巷３號","OBJECTID":405519},"geometry":{"x":181757.3900000006,"y":2539368.2500000019}},{"attributes":{"ID":405544,"DIS_CODE":0,"TOWNNAME":"關廟區","LI":"東勢里","LIN":"27鄰","STREET":"東安街","SECT":" ","MAREA":" ","LANE":"２４５巷","ALLEY":" ","HOUSE_NO":"３６號","E_COORD97":181677.72,"N_COORD97":2539423.3199999998,"ADDRESS":"東安街２４５巷３６號","OBJECTID":405520},"geometry":{"x":181677.71999999974,"y":2539423.3200000022}},{"attributes":{"ID":405545,"DIS_CODE":0,"TOWNNAME":"永康區","LI":"三合里","LIN":"20鄰","STREET":"南工街","SECT":" ","MAREA":" ","LANE":"２７９巷","ALLEY":" ","HOUSE_NO":"８號","E_COORD97":171848.76999999999,"N_COORD97":2546006,"ADDRESS":"南工街２７９巷８號","OBJECTID":405521},"geometry":{"x":171848.76999999862,"y":2546006}},{"attributes":{"ID":405546,"DIS_CODE":0,"TOWNNAME":"永康區","LI":"中興里","LIN":"20鄰","STREET":"中華路","SECT":" ","MAREA":" ","LANE":"２１６巷","ALLEY":" ","HOUSE_NO":"２７號","E_COORD97":171830.38,"N_COORD97":2545159.7200000002,"ADDRESS":"中華路２１６巷２７號","OBJECTID":405522},"geometry":{"x":171830.38000000082,"y":2545159.7200000025}},{"attributes":{"ID":405547,"DIS_CODE":0,"TOWNNAME":"永康區","LI":"大橋里","LIN":"10鄰","STREET":"大橋三街","SECT":" ","MAREA":" ","LANE":"２６６巷","ALLEY":" ","HOUSE_NO":"１１６號","E_COORD97":170905.69,"N_COORD97":2546740.25,"ADDRESS":"大橋三街２６６巷１１６號","OBJECTID":405523},"geometry":{"x":170905.69000000041,"y":2546740.25}},{"attributes":{"ID":405548,"DIS_CODE":0,"TOWNNAME":"關廟區","LI":"香洋里","LIN":"27鄰","STREET":"民權街","SECT":" ","MAREA":" ","LANE":"２０８巷","ALLEY":" ","HOUSE_NO":"１號","E_COORD97":181177.09,"N_COORD97":2539815.29,"ADDRESS":"民權街２０８巷１號","OBJECTID":405524},"geometry":{"x":181177.08999999985,"y":2539815.290000001}},{"attributes":{"ID":405549,"DIS_CODE":0,"TOWNNAME":"關廟區","LI":"東勢里","LIN":"27鄰","STREET":"和平路","SECT":" ","MAREA":" ","LANE":"４１巷","ALLEY":" ","HOUSE_NO":"６號","E_COORD97":181684.09,"N_COORD97":2539399.25,"ADDRESS":"和平路４１巷６號","OBJECTID":405525},"geometry":{"x":181684.08999999892,"y":2539399.2500000019}},{"attributes":{"ID":405550,"DIS_CODE":0,"TOWNNAME":"永康區","LI":"大橋里","LIN":"11鄰","STREET":"大橋三街","SECT":" ","MAREA":" ","LANE":"２６６巷","ALLEY":" ","HOUSE_NO":"１２７號","E_COORD97":170890.16,"N_COORD97":2546705.7400000002,"ADDRESS":"大橋三街２６６巷１２７號","OBJECTID":405526},"geometry":{"x":170890.16000000015,"y":2546705.7400000021}},{"attributes":{"ID":405551,"DIS_CODE":0,"TOWNNAME":"新營區","LI":"南興里","LIN":"27鄰","STREET":"建業路","SECT":" ","MAREA":" ","LANE":"１１１巷","ALLEY":" ","HOUSE_NO":"３號","E_COORD97":178502.98000000001,"N_COORD97":2577453.5800000001,"ADDRESS":"建業路１１１巷３號","OBJECTID":405527},"geometry":{"x":178502.98000000045,"y":2577453.5800000019}},{"attributes":{"ID":405552,"DIS_CODE":0,"TOWNNAME":"新營區","LI":"南興里","LIN":"27鄰","STREET":"建業路","SECT":" ","MAREA":" ","LANE":"１１１巷","ALLEY":" ","HOUSE_NO":"５號","E_COORD97":178502.88,"N_COORD97":2577449.1499999999,"ADDRESS":"建業路１１１巷５號","OBJECTID":405528},"geometry":{"x":178502.88000000082,"y":2577449.1499999985}},{"attributes":{"ID":405553,"DIS_CODE":0,"TOWNNAME":"新營區","LI":"新東里","LIN":"27鄰","STREET":"東光街","SECT":" ","MAREA":" ","LANE":"１巷","ALLEY":" ","HOUSE_NO":"８號","E_COORD97":180588.26999999999,"N_COORD97":2579541.1699999999,"ADDRESS":"東光街１巷８號","OBJECTID":405529},"geometry":{"x":180588.27000000048,"y":2579541.1700000018}},{"attributes":{"ID":405554,"DIS_CODE":0,"TOWNNAME":"新營區","LI":"新東里","LIN":"27鄰","STREET":"東光街","SECT":" ","MAREA":" ","LANE":"４０巷","ALLEY":" ","HOUSE_NO":"２６號","E_COORD97":180678.64000000001,"N_COORD97":2579571.77,"ADDRESS":"東光街４０巷２６號","OBJECTID":405530},"geometry":{"x":180678.6400000006,"y":2579571.7699999996}},{"attributes":{"ID":405555,"DIS_CODE":0,"TOWNNAME":"新營區","LI":"民榮里","LIN":"27鄰","STREET":"復興路","SECT":" ","MAREA":" ","LANE":"４８９巷","ALLEY":" ","HOUSE_NO":"２２號","E_COORD97":178293.92999999999,"N_COORD97":2578181.0800000001,"ADDRESS":"復興路４８９巷２２號","OBJECTID":405531},"geometry":{"x":178293.9299999997,"y":2578181.0800000001}},{"attributes":{"ID":405556,"DIS_CODE":0,"TOWNNAME":"新營區","LI":"民榮里","LIN":"27鄰","STREET":"復興路","SECT":" ","MAREA":" ","LANE":"４８９巷","ALLEY":" ","HOUSE_NO":"３４號","E_COORD97":178311.26000000001,"N_COORD97":2578163.2799999998,"ADDRESS":"復興路４８９巷３４號","OBJECTID":405532},"geometry":{"x":178311.26000000164,"y":2578163.2800000012}},{"attributes":{"ID":405557,"DIS_CODE":0,"TOWNNAME":"新營區","LI":"民榮里","LIN":"27鄰","STREET":"復興路","SECT":" ","MAREA":" ","LANE":"４８９巷","ALLEY":" ","HOUSE_NO":"３號","E_COORD97":178290.78,"N_COORD97":2578206.5699999998,"ADDRESS":"復興路４８９巷３號","OBJECTID":405533},"geometry":{"x":178290.78000000026,"y":2578206.5700000022}},{"attributes":{"ID":405558,"DIS_CODE":0,"TOWNNAME":"永康區","LI":"大灣里","LIN":"1鄰","STREET":"大同街","SECT":" ","MAREA":" ","LANE":"１６９巷","ALLEY":" ","HOUSE_NO":"３號","E_COORD97":174773.87,"N_COORD97":2545638.5600000001,"ADDRESS":"大同街１６９巷３號","OBJECTID":405534},"geometry":{"x":174773.87000000011,"y":2545638.5600000024}},{"attributes":{"ID":405559,"DIS_CODE":0,"TOWNNAME":"關廟區","LI":"東勢里","LIN":"27鄰","STREET":"和平路","SECT":" ","MAREA":" ","LANE":"４１巷","ALLEY":" ","HOUSE_NO":"７號","E_COORD97":181686.79000000001,"N_COORD97":2539390.25,"ADDRESS":"和平路４１巷７號","OBJECTID":405535},"geometry":{"x":181686.79000000097,"y":2539390.25}},{"attributes":{"ID":405560,"DIS_CODE":0,"TOWNNAME":"歸仁區","LI":"南保里","LIN":"27鄰","STREET":"民權六街","SECT":" ","MAREA":" ","LANE":"１９巷","ALLEY":" ","HOUSE_NO":"２號","E_COORD97":176938.19,"N_COORD97":2541082.29,"ADDRESS":"民權六街１９巷２號","OBJECTID":405536},"geometry":{"x":176938.19000000134,"y":2541082.290000001}},{"attributes":{"ID":405561,"DIS_CODE":0,"TOWNNAME":"中西區","LI":"藥王里","LIN":"8鄰","STREET":"大新街","SECT":" ","MAREA":" ","LANE":"７巷","ALLEY":" ","HOUSE_NO":"２１號","E_COORD97":167077.14999999999,"N_COORD97":2544337.7599999998,"ADDRESS":"大新街７巷２１號","OBJECTID":405537},"geometry":{"x":167077.1500000013,"y":2544337.7600000035}},{"attributes":{"ID":405562,"DIS_CODE":0,"TOWNNAME":"歸仁區","LI":"南保里","LIN":"27鄰","STREET":"民權北路","SECT":" ","MAREA":" ","LANE":"６１巷","ALLEY":" ","HOUSE_NO":"２２號","E_COORD97":176953.64000000001,"N_COORD97":2541037.29,"ADDRESS":"民權北路６１巷２２號","OBJECTID":405538},"geometry":{"x":176953.63999999966,"y":2541037.2899999991}},{"attributes":{"ID":405563,"DIS_CODE":0,"TOWNNAME":"歸仁區","LI":"南保里","LIN":"27鄰","STREET":"民權六街","SECT":" ","MAREA":" ","LANE":"１９巷","ALLEY":" ","HOUSE_NO":"１０號","E_COORD97":176937.34,"N_COORD97":2541069.29,"ADDRESS":"民權六街１９巷１０號","OBJECTID":405539},"geometry":{"x":176937.33999999985,"y":2541069.290000001}},{"attributes":{"ID":405564,"DIS_CODE":0,"TOWNNAME":"歸仁區","LI":"南保里","LIN":"27鄰","STREET":"民權北路","SECT":" ","MAREA":" ","LANE":"６１巷","ALLEY":" ","HOUSE_NO":"２４號","E_COORD97":176949.44,"N_COORD97":2541036.29,"ADDRESS":"民權北路６１巷２４號","OBJECTID":405540},"geometry":{"x":176949.44000000227,"y":2541036.2899999991}},{"attributes":{"ID":405565,"DIS_CODE":0,"TOWNNAME":"歸仁區","LI":"歸南里","LIN":"27鄰","STREET":"民生南街","SECT":"二段","MAREA":" ","LANE":"２４０巷","ALLEY":" ","HOUSE_NO":"６號","E_COORD97":176047.45999999999,"N_COORD97":2540087.25,"ADDRESS":"民生南街二段２４０巷６號","OBJECTID":405541},"geometry":{"x":176047.46000000089,"y":2540087.2500000019}},{"attributes":{"ID":405566,"DIS_CODE":0,"TOWNNAME":"歸仁區","LI":"新厝里","LIN":"27鄰","STREET":"中正南路","SECT":"一段","MAREA":" ","LANE":"４５３巷","ALLEY":" ","HOUSE_NO":"６９號","E_COORD97":177057.20999999999,"N_COORD97":2539964.25,"ADDRESS":"中正南路一段４５３巷６９號","OBJECTID":405542},"geometry":{"x":177057.20999999903,"y":2539964.2500000037}},{"attributes":{"ID":405567,"DIS_CODE":0,"TOWNNAME":"歸仁區","LI":"新厝里","LIN":"27鄰","STREET":"中正五街","SECT":" ","MAREA":" ","LANE":"３９巷","ALLEY":" ","HOUSE_NO":"６號","E_COORD97":177080.17000000001,"N_COORD97":2540082.4300000002,"ADDRESS":"中正五街３９巷６號","OBJECTID":405543},"geometry":{"x":177080.17000000086,"y":2540082.4300000016}},{"attributes":{"ID":405568,"DIS_CODE":0,"TOWNNAME":"歸仁區","LI":"新厝里","LIN":"27鄰","STREET":"中正南路","SECT":"一段","MAREA":" ","LANE":"４５３巷","ALLEY":" ","HOUSE_NO":"８１號","E_COORD97":177090.01000000001,"N_COORD97":2539966.25,"ADDRESS":"中正南路一段４５３巷８１號","OBJECTID":405544},"geometry":{"x":177090.00999999978,"y":2539966.25}},{"attributes":{"ID":405569,"DIS_CODE":0,"TOWNNAME":"永康區","LI":"中興里","LIN":"4鄰","STREET":"中華一路","SECT":" ","MAREA":" ","LANE":"５８巷","ALLEY":" ","HOUSE_NO":"１號","E_COORD97":171849.95999999999,"N_COORD97":2544997.3900000001,"ADDRESS":"中華一路５８巷１號","OBJECTID":405545},"geometry":{"x":171849.96000000089,"y":2544997.3900000006}},{"attributes":{"ID":405570,"DIS_CODE":0,"TOWNNAME":"永康區","LI":"中興里","LIN":"11鄰","STREET":"中興街","SECT":" ","MAREA":" ","LANE":"３５巷","ALLEY":" ","HOUSE_NO":"２１號","E_COORD97":172027.48999999999,"N_COORD97":2545172.8700000001,"ADDRESS":"中興街３５巷２１號","OBJECTID":405546},"geometry":{"x":172027.49000000022,"y":2545172.8700000029}},{"attributes":{"ID":405571,"DIS_CODE":0,"TOWNNAME":"歸仁區","LI":"媽廟里","LIN":"27鄰","STREET":"保大路","SECT":"一段","MAREA":" ","LANE":"１５２巷","ALLEY":" ","HOUSE_NO":"１號","E_COORD97":177697.42999999999,"N_COORD97":2544061.7200000002,"ADDRESS":"保大路一段１５２巷１號","OBJECTID":405547},"geometry":{"x":177697.4299999997,"y":2544061.7200000025}},{"attributes":{"ID":405572,"DIS_CODE":0,"TOWNNAME":"歸仁區","LI":"新厝里","LIN":"27鄰","STREET":"中正南路","SECT":"一段","MAREA":" ","LANE":"４５３巷","ALLEY":" ","HOUSE_NO":"７５號","E_COORD97":177075.70999999999,"N_COORD97":2539967.25,"ADDRESS":"中正南路一段４５３巷７５號","OBJECTID":405548},"geometry":{"x":177075.70999999996,"y":2539967.25}},{"attributes":{"ID":405573,"DIS_CODE":0,"TOWNNAME":"歸仁區","LI":"新厝里","LIN":"27鄰","STREET":"中正五街","SECT":" ","MAREA":" ","LANE":"５０巷","ALLEY":" ","HOUSE_NO":"３９號","E_COORD97":177049.42000000001,"N_COORD97":2539998.79,"ADDRESS":"中正五街５０巷３９號","OBJECTID":405549},"geometry":{"x":177049.42000000086,"y":2539998.7899999991}},{"attributes":{"ID":405574,"DIS_CODE":0,"TOWNNAME":"歸仁區","LI":"歸南里","LIN":"27鄰","STREET":"民生南街","SECT":"二段","MAREA":" ","LANE":"２２６巷","ALLEY":" ","HOUSE_NO":"２號","E_COORD97":176053.66,"N_COORD97":2540112.25,"ADDRESS":"民生南街二段２２６巷２號","OBJECTID":405550},"geometry":{"x":176053.66000000015,"y":2540112.25}},{"attributes":{"ID":405575,"DIS_CODE":0,"TOWNNAME":"歸仁區","LI":"歸南里","LIN":"27鄰","STREET":"民生南街","SECT":"二段","MAREA":" ","LANE":"２１２巷","ALLEY":" ","HOUSE_NO":"２號","E_COORD97":176044.66,"N_COORD97":2540141.25,"ADDRESS":"民生南街二段２１２巷２號","OBJECTID":405551},"geometry":{"x":176044.66000000108,"y":2540141.2500000019}},{"attributes":{"ID":405576,"DIS_CODE":0,"TOWNNAME":"歸仁區","LI":"新厝里","LIN":"27鄰","STREET":"中正五街","SECT":" ","MAREA":" ","LANE":"３９巷","ALLEY":" ","HOUSE_NO":"１６號","E_COORD97":177067.12,"N_COORD97":2540100.4300000002,"ADDRESS":"中正五街３９巷１６號","OBJECTID":405552},"geometry":{"x":177067.12000000104,"y":2540100.4299999997}},{"attributes":{"ID":405577,"DIS_CODE":0,"TOWNNAME":"歸仁區","LI":"歸南里","LIN":"27鄰","STREET":"民生南街","SECT":"二段","MAREA":" ","LANE":"２１２巷","ALLEY":" ","HOUSE_NO":"３號","E_COORD97":176047.66,"N_COORD97":2540131.25,"ADDRESS":"民生南街二段２１２巷３號","OBJECTID":405553},"geometry":{"x":176047.66000000201,"y":2540131.2500000019}},{"attributes":{"ID":405578,"DIS_CODE":0,"TOWNNAME":"歸仁區","LI":"歸南里","LIN":"27鄰","STREET":"民生南街","SECT":"二段","MAREA":" ","LANE":"２２６巷","ALLEY":" ","HOUSE_NO":"１號","E_COORD97":176053.66,"N_COORD97":2540104.25,"ADDRESS":"民生南街二段２２６巷１號","OBJECTID":405554},"geometry":{"x":176053.66000000015,"y":2540104.2500000019}},{"attributes":{"ID":405579,"DIS_CODE":0,"TOWNNAME":"歸仁區","LI":"歸南里","LIN":"27鄰","STREET":"民生南街","SECT":"二段","MAREA":" ","LANE":"２２６巷","ALLEY":" ","HOUSE_NO":"６號","E_COORD97":176047.56,"N_COORD97":2540113.25,"ADDRESS":"民生南街二段２２６巷６號","OBJECTID":405555},"geometry":{"x":176047.56000000145,"y":2540113.2499999981}},{"attributes":{"ID":405580,"DIS_CODE":0,"TOWNNAME":"歸仁區","LI":"媽廟里","LIN":"27鄰","STREET":"保大路","SECT":"一段","MAREA":" ","LANE":"１９２巷","ALLEY":" ","HOUSE_NO":"２號","E_COORD97":177586.73000000001,"N_COORD97":2544072.7200000002,"ADDRESS":"保大路一段１９２巷２號","OBJECTID":405556},"geometry":{"x":177586.73000000231,"y":2544072.7200000007}},{"attributes":{"ID":405581,"DIS_CODE":0,"TOWNNAME":"歸仁區","LI":"新厝里","LIN":"27鄰","STREET":"中正五街","SECT":" ","MAREA":" ","LANE":"５０巷","ALLEY":" ","HOUSE_NO":"１５號","E_COORD97":177083.22,"N_COORD97":2540039.4300000002,"ADDRESS":"中正五街５０巷１５號","OBJECTID":405557},"geometry":{"x":177083.22000000067,"y":2540039.4299999997}},{"attributes":{"ID":405582,"DIS_CODE":0,"TOWNNAME":"永康區","LI":"大橋里","LIN":"5鄰","STREET":"大橋一街","SECT":" ","MAREA":" ","LANE":"１０３巷","ALLEY":" ","HOUSE_NO":"１９０號","E_COORD97":170802.85000000001,"N_COORD97":2546776.2400000002,"ADDRESS":"大橋一街１０３巷１９０號","OBJECTID":405558},"geometry":{"x":170802.85000000056,"y":2546776.2400000021}},{"attributes":{"ID":405583,"DIS_CODE":0,"TOWNNAME":"永康區","LI":"中興里","LIN":"5鄰","STREET":"中華一路","SECT":" ","MAREA":" ","LANE":"５８巷","ALLEY":" ","HOUSE_NO":"１３號","E_COORD97":171848.64999999999,"N_COORD97":2545031.2400000002,"ADDRESS":"中華一路５８巷１３號","OBJECTID":405559},"geometry":{"x":171848.65000000037,"y":2545031.2400000021}},{"attributes":{"ID":405584,"DIS_CODE":0,"TOWNNAME":"永康區","LI":"五王里","LIN":"18鄰","STREET":"成功路","SECT":" ","MAREA":" ","LANE":"１７２巷","ALLEY":" ","HOUSE_NO":"６３號","E_COORD97":171554.98999999999,"N_COORD97":2545734.3799999999,"ADDRESS":"成功路１７２巷６３號","OBJECTID":405560},"geometry":{"x":171554.99000000115,"y":2545734.3800000008}},{"attributes":{"ID":405585,"DIS_CODE":0,"TOWNNAME":"永康區","LI":"中興里","LIN":"24鄰","STREET":"中華路","SECT":" ","MAREA":" ","LANE":"２１６巷","ALLEY":" ","HOUSE_NO":"１２號之５","E_COORD97":171715.01999999999,"N_COORD97":2545123.29,"ADDRESS":"中華路２１６巷１２號之５","OBJECTID":405561},"geometry":{"x":171715.02000000142,"y":2545123.2900000028}},{"attributes":{"ID":405586,"DIS_CODE":0,"TOWNNAME":"永康區","LI":"中興里","LIN":"24鄰","STREET":"中華路","SECT":" ","MAREA":" ","LANE":"２１６巷","ALLEY":" ","HOUSE_NO":"１２號之１","E_COORD97":171714.75,"N_COORD97":2545104.2999999998,"ADDRESS":"中華路２１６巷１２號之１","OBJECTID":405562},"geometry":{"x":171714.75,"y":2545104.2999999989}},{"attributes":{"ID":405587,"DIS_CODE":0,"TOWNNAME":"永康區","LI":"大橋里","LIN":"17鄰","STREET":"大橋一街","SECT":" ","MAREA":" ","LANE":"１０３巷","ALLEY":" ","HOUSE_NO":"１２號","E_COORD97":170976.76999999999,"N_COORD97":2546502.2400000002,"ADDRESS":"大橋一街１０３巷１２號","OBJECTID":405563},"geometry":{"x":170976.76999999955,"y":2546502.2400000021}},{"attributes":{"ID":405588,"DIS_CODE":0,"TOWNNAME":"永康區","LI":"大灣里","LIN":"23鄰","STREET":"大灣路","SECT":" ","MAREA":" ","LANE":"２４１巷","ALLEY":" ","HOUSE_NO":"９號","E_COORD97":174961.82000000001,"N_COORD97":2545190.25,"ADDRESS":"大灣路２４１巷９號","OBJECTID":405564},"geometry":{"x":174961.82000000216,"y":2545190.2500000019}},{"attributes":{"ID":405589,"DIS_CODE":0,"TOWNNAME":"歸仁區","LI":"新厝里","LIN":"27鄰","STREET":"中正南路","SECT":"一段","MAREA":" ","LANE":"４５３巷","ALLEY":" ","HOUSE_NO":"７１號","E_COORD97":177065.41,"N_COORD97":2539966.25,"ADDRESS":"中正南路一段４５３巷７１號","OBJECTID":405565},"geometry":{"x":177065.41000000108,"y":2539966.25}},{"attributes":{"ID":405590,"DIS_CODE":0,"TOWNNAME":"歸仁區","LI":"媽廟里","LIN":"27鄰","STREET":"保大路","SECT":"一段","MAREA":" ","LANE":"１９２巷","ALLEY":" ","HOUSE_NO":"２０號","E_COORD97":177598.57999999999,"N_COORD97":2544132.7200000002,"ADDRESS":"保大路一段１９２巷２０號","OBJECTID":405566},"geometry":{"x":177598.58000000007,"y":2544132.7200000025}},{"attributes":{"ID":405591,"DIS_CODE":0,"TOWNNAME":"歸仁區","LI":"後市里","LIN":"27鄰","STREET":"民族北街","SECT":" ","MAREA":" ","LANE":"１７巷","ALLEY":" ","HOUSE_NO":"５號","E_COORD97":177391.32999999999,"N_COORD97":2540863.75,"ADDRESS":"民族北街１７巷５號","OBJECTID":405567},"geometry":{"x":177391.33000000101,"y":2540863.7500000019}},{"attributes":{"ID":405592,"DIS_CODE":0,"TOWNNAME":"歸仁區","LI":"南保里","LIN":"27鄰","STREET":"民權北路","SECT":" ","MAREA":" ","LANE":"６１巷","ALLEY":" ","HOUSE_NO":"１６號","E_COORD97":176965.84,"N_COORD97":2541031.29,"ADDRESS":"民權北路６１巷１６號","OBJECTID":405568},"geometry":{"x":176965.83999999985,"y":2541031.2900000028}},{"attributes":{"ID":405593,"DIS_CODE":0,"TOWNNAME":"永康區","LI":"五王里","LIN":"26鄰","STREET":"五福街","SECT":" ","MAREA":" ","LANE":"８２巷","ALLEY":" ","HOUSE_NO":"４５號","E_COORD97":171545.89000000001,"N_COORD97":2545881.4300000002,"ADDRESS":"五福街８２巷４５號","OBJECTID":405569},"geometry":{"x":171545.88999999966,"y":2545881.4299999997}},{"attributes":{"ID":405594,"DIS_CODE":0,"TOWNNAME":"永康區","LI":"三合里","LIN":"8鄰","STREET":"南工街","SECT":" ","MAREA":" ","LANE":"１１９巷","ALLEY":" ","HOUSE_NO":"１１號","E_COORD97":172058.39999999999,"N_COORD97":2545748.4900000002,"ADDRESS":"南工街１１９巷１１號","OBJECTID":405570},"geometry":{"x":172058.40000000037,"y":2545748.4900000021}},{"attributes":{"ID":405595,"DIS_CODE":0,"TOWNNAME":"永康區","LI":"五王里","LIN":"30鄰","STREET":"中山東路","SECT":" ","MAREA":" ","LANE":"１２０巷","ALLEY":" ","HOUSE_NO":"１２號","E_COORD97":171718.75,"N_COORD97":2545906.0299999998,"ADDRESS":"中山東路１２０巷１２號","OBJECTID":405571},"geometry":{"x":171718.75,"y":2545906.0300000012}},{"attributes":{"ID":405596,"DIS_CODE":0,"TOWNNAME":"歸仁區","LI":"新厝里","LIN":"27鄰","STREET":"中正五街","SECT":" ","MAREA":" ","LANE":"３９巷","ALLEY":" ","HOUSE_NO":"８號","E_COORD97":177077.07000000001,"N_COORD97":2540087.4300000002,"ADDRESS":"中正五街３９巷８號","OBJECTID":405572},"geometry":{"x":177077.0700000003,"y":2540087.4299999997}},{"attributes":{"ID":405597,"DIS_CODE":0,"TOWNNAME":"新營區","LI":"南紙里","LIN":"27鄰","STREET":"太子路","SECT":" ","MAREA":" ","LANE":"２００巷","ALLEY":" ","HOUSE_NO":"１０９號","E_COORD97":177834.39999999999,"N_COORD97":2578096.9399999999,"ADDRESS":"太子路２００巷１０９號","OBJECTID":405573},"geometry":{"x":177834.40000000037,"y":2578096.9399999995}},{"attributes":{"ID":405598,"DIS_CODE":0,"TOWNNAME":"關廟區","LI":"東勢里","LIN":"27鄰","STREET":"東安街","SECT":" ","MAREA":" ","LANE":"２４５巷","ALLEY":" ","HOUSE_NO":"２６號","E_COORD97":181667.82000000001,"N_COORD97":2539406.3199999998,"ADDRESS":"東安街２４５巷２６號","OBJECTID":405574},"geometry":{"x":181667.82000000216,"y":2539406.3200000022}},{"attributes":{"ID":405599,"DIS_CODE":0,"TOWNNAME":"永康區","LI":"中興里","LIN":"24鄰","STREET":"中華路","SECT":" ","MAREA":" ","LANE":"２１６巷","ALLEY":" ","HOUSE_NO":"１２號之２","E_COORD97":171714.69,"N_COORD97":2545109.5499999998,"ADDRESS":"中華路２１６巷１２號之２","OBJECTID":405575},"geometry":{"x":171714.69000000227,"y":2545109.5500000045}},{"attributes":{"ID":405600,"DIS_CODE":0,"TOWNNAME":"永康區","LI":"五王里","LIN":"17鄰","STREET":"成功路","SECT":" ","MAREA":" ","LANE":"２０４巷","ALLEY":" ","HOUSE_NO":"５５號","E_COORD97":171528.17999999999,"N_COORD97":2545794.52,"ADDRESS":"成功路２０４巷５５號","OBJECTID":405576},"geometry":{"x":171528.18000000063,"y":2545794.5200000014}},{"attributes":{"ID":405601,"DIS_CODE":0,"TOWNNAME":"永康區","LI":"五王里","LIN":"23鄰","STREET":"成功路","SECT":" ","MAREA":" ","LANE":"２４４巷","ALLEY":" ","HOUSE_NO":"６號","E_COORD97":171361.04000000001,"N_COORD97":2545821.02,"ADDRESS":"成功路２４４巷６號","OBJECTID":405577},"geometry":{"x":171361.0400000019,"y":2545821.0200000014}},{"attributes":{"ID":405602,"DIS_CODE":0,"TOWNNAME":"關廟區","LI":"東勢里","LIN":"27鄰","STREET":"和平路","SECT":" ","MAREA":" ","LANE":"２２巷","ALLEY":" ","HOUSE_NO":"７號","E_COORD97":181766.98999999999,"N_COORD97":2539372.25,"ADDRESS":"和平路２２巷７號","OBJECTID":405578},"geometry":{"x":181766.99000000115,"y":2539372.2500000019}},{"attributes":{"ID":405603,"DIS_CODE":0,"TOWNNAME":"關廟區","LI":"東勢里","LIN":"27鄰","STREET":"和平路","SECT":" ","MAREA":" ","LANE":"２２巷","ALLEY":" ","HOUSE_NO":"５號","E_COORD97":181761.59,"N_COORD97":2539369.25,"ADDRESS":"和平路２２巷５號","OBJECTID":405579},"geometry":{"x":181761.58999999985,"y":2539369.2500000019}},{"attributes":{"ID":405604,"DIS_CODE":0,"TOWNNAME":"關廟區","LI":"香洋里","LIN":"27鄰","STREET":"民權街","SECT":" ","MAREA":" ","LANE":"２０８巷","ALLEY":" ","HOUSE_NO":"３號","E_COORD97":181176.29000000001,"N_COORD97":2539819.29,"ADDRESS":"民權街２０８巷３號","OBJECTID":405580},"geometry":{"x":181176.2900000019,"y":2539819.2899999991}},{"attributes":{"ID":405605,"DIS_CODE":0,"TOWNNAME":"永康區","LI":"五王里","LIN":"38鄰","STREET":"中華路","SECT":" ","MAREA":" ","LANE":"５７８巷","ALLEY":" ","HOUSE_NO":"１７號之３５","E_COORD97":171333.72,"N_COORD97":2545989.54,"ADDRESS":"中華路５７８巷１７號之３５","OBJECTID":405581},"geometry":{"x":171333.71999999974,"y":2545989.5400000028}},{"attributes":{"ID":405606,"DIS_CODE":0,"TOWNNAME":"永康區","LI":"大灣里","LIN":"30鄰","STREET":"民族路","SECT":" ","MAREA":" ","LANE":"１２６巷","ALLEY":" ","HOUSE_NO":"３４號","E_COORD97":175388.48999999999,"N_COORD97":2544864.04,"ADDRESS":"民族路１２６巷３４號","OBJECTID":405582},"geometry":{"x":175388.49000000115,"y":2544864.0400000028}},{"attributes":{"ID":405607,"DIS_CODE":0,"TOWNNAME":"永康區","LI":"大灣里","LIN":"28鄰","STREET":"大灣六街","SECT":" ","MAREA":" ","LANE":"９巷","ALLEY":" ","HOUSE_NO":"１８號","E_COORD97":175296.16,"N_COORD97":2545150.0699999998,"ADDRESS":"大灣六街９巷１８號","OBJECTID":405583},"geometry":{"x":175296.16000000015,"y":2545150.0700000022}},{"attributes":{"ID":405608,"DIS_CODE":0,"TOWNNAME":"永康區","LI":"大灣里","LIN":"23鄰","STREET":"大灣路","SECT":" ","MAREA":" ","LANE":"２４１巷","ALLEY":" ","HOUSE_NO":"５號","E_COORD97":174952.13,"N_COORD97":2545199,"ADDRESS":"大灣路２４１巷５號","OBJECTID":405584},"geometry":{"x":174952.12999999989,"y":2545199.0000000019}},{"attributes":{"ID":405609,"DIS_CODE":0,"TOWNNAME":"安平區","LI":"國平里","LIN":"27鄰","STREET":"健康三街","SECT":" ","MAREA":" ","LANE":"１６２巷","ALLEY":" ","HOUSE_NO":"３號","E_COORD97":164780.82000000001,"N_COORD97":2543213.2400000002,"ADDRESS":"健康三街１６２巷３號","OBJECTID":405585},"geometry":{"x":164780.82000000123,"y":2543213.2400000021}},{"attributes":{"ID":405610,"DIS_CODE":0,"TOWNNAME":"安平區","LI":"國平里","LIN":"27鄰","STREET":"府平路","SECT":" ","MAREA":" ","LANE":"１４４巷","ALLEY":" ","HOUSE_NO":"５５號","E_COORD97":164796.53,"N_COORD97":2543211.3399999999,"ADDRESS":"府平路１４４巷５５號","OBJECTID":405586},"geometry":{"x":164796.53000000119,"y":2543211.339999998}},{"attributes":{"ID":405611,"DIS_CODE":0,"TOWNNAME":"安平區","LI":"國平里","LIN":"27鄰","STREET":"府平路","SECT":" ","MAREA":" ","LANE":"１４４巷","ALLEY":" ","HOUSE_NO":"５７號","E_COORD97":164799.92999999999,"N_COORD97":2543219.2999999998,"ADDRESS":"府平路１４４巷５７號","OBJECTID":405587},"geometry":{"x":164799.93000000063,"y":2543219.2999999989}},{"attributes":{"ID":405612,"DIS_CODE":0,"TOWNNAME":"安平區","LI":"國平里","LIN":"27鄰","STREET":"健康三街","SECT":" ","MAREA":" ","LANE":"１６２巷","ALLEY":" ","HOUSE_NO":"１號","E_COORD97":164773.67000000001,"N_COORD97":2543213.3999999999,"ADDRESS":"健康三街１６２巷１號","OBJECTID":405588},"geometry":{"x":164773.66999999993,"y":2543213.4000000004}},{"attributes":{"ID":405613,"DIS_CODE":0,"TOWNNAME":"永康區","LI":"五王里","LIN":"3鄰","STREET":"成功路","SECT":" ","MAREA":" ","LANE":"１３０巷","ALLEY":" ","HOUSE_NO":"２３號","E_COORD97":171539.69,"N_COORD97":2545555.6899999999,"ADDRESS":"成功路１３０巷２３號","OBJECTID":405589},"geometry":{"x":171539.69000000041,"y":2545555.6900000013}},{"attributes":{"ID":405614,"DIS_CODE":0,"TOWNNAME":"永康區","LI":"大橋里","LIN":"8鄰","STREET":"大橋三街","SECT":" ","MAREA":" ","LANE":"１９９巷","ALLEY":" ","HOUSE_NO":"２號","E_COORD97":170859.64999999999,"N_COORD97":2546808.7400000002,"ADDRESS":"大橋三街１９９巷２號","OBJECTID":405590},"geometry":{"x":170859.6500000013,"y":2546808.7400000002}},{"attributes":{"ID":405615,"DIS_CODE":0,"TOWNNAME":"永康區","LI":"大橋里","LIN":"11鄰","STREET":"大橋三街","SECT":" ","MAREA":" ","LANE":"２６６巷","ALLEY":" ","HOUSE_NO":"１０９號","E_COORD97":170934.32000000001,"N_COORD97":2546718.25,"ADDRESS":"大橋三街２６６巷１０９號","OBJECTID":405591},"geometry":{"x":170934.32000000123,"y":2546718.2500000019}},{"attributes":{"ID":405616,"DIS_CODE":0,"TOWNNAME":"北區","LI":"成德里","LIN":"27鄰","STREET":"育德路","SECT":" ","MAREA":" ","LANE":"２２１巷","ALLEY":" ","HOUSE_NO":"７２號","E_COORD97":168416.23999999999,"N_COORD97":2545775.4199999999,"ADDRESS":"育德路２２１巷７２號","OBJECTID":405592},"geometry":{"x":168416.24000000022,"y":2545775.4200000018}},{"attributes":{"ID":405617,"DIS_CODE":0,"TOWNNAME":"北區","LI":"成德里","LIN":"27鄰","STREET":"育德路","SECT":" ","MAREA":" ","LANE":"２２１巷","ALLEY":" ","HOUSE_NO":"７０號","E_COORD97":168422.75,"N_COORD97":2545775.1000000001,"ADDRESS":"育德路２２１巷７０號","OBJECTID":405593},"geometry":{"x":168422.75,"y":2545775.0999999996}},{"attributes":{"ID":405618,"DIS_CODE":0,"TOWNNAME":"北區","LI":"成德里","LIN":"27鄰","STREET":"育德路","SECT":" ","MAREA":" ","LANE":"２２１巷","ALLEY":" ","HOUSE_NO":"６８號","E_COORD97":168430.04999999999,"N_COORD97":2545774.4700000002,"ADDRESS":"育德路２２１巷６８號","OBJECTID":405594},"geometry":{"x":168430.05000000075,"y":2545774.4700000044}},{"attributes":{"ID":405619,"DIS_CODE":0,"TOWNNAME":"北區","LI":"成德里","LIN":"27鄰","STREET":"育德路","SECT":" ","MAREA":" ","LANE":"２２１巷","ALLEY":" ","HOUSE_NO":"６６號","E_COORD97":168437.19,"N_COORD97":2545774.3100000001,"ADDRESS":"育德路２２１巷６６號","OBJECTID":405595},"geometry":{"x":168437.19000000041,"y":2545774.3100000005}},{"attributes":{"ID":405620,"DIS_CODE":0,"TOWNNAME":"北區","LI":"成德里","LIN":"27鄰","STREET":"育德路","SECT":" ","MAREA":" ","LANE":"２２１巷","ALLEY":" ","HOUSE_NO":"６２號","E_COORD97":168444.66,"N_COORD97":2545773.9900000002,"ADDRESS":"育德路２２１巷６２號","OBJECTID":405596},"geometry":{"x":168444.66000000201,"y":2545773.9900000039}},{"attributes":{"ID":405621,"DIS_CODE":0,"TOWNNAME":"北區","LI":"成德里","LIN":"27鄰","STREET":"育德路","SECT":" ","MAREA":" ","LANE":"２２１巷","ALLEY":" ","HOUSE_NO":"６０號","E_COORD97":168451.64000000001,"N_COORD97":2545773.5099999998,"ADDRESS":"育德路２２１巷６０號","OBJECTID":405597},"geometry":{"x":168451.6400000006,"y":2545773.5100000035}},{"attributes":{"ID":405622,"DIS_CODE":0,"TOWNNAME":"北區","LI":"文元里","LIN":"27鄰","STREET":"中華北路","SECT":"二段","MAREA":" ","LANE":"６２巷","ALLEY":" ","HOUSE_NO":"１７號","E_COORD97":167629.81,"N_COORD97":2546588.6000000001,"ADDRESS":"中華北路二段６２巷１７號","OBJECTID":405598},"geometry":{"x":167629.81000000052,"y":2546588.5999999996}},{"attributes":{"ID":405623,"DIS_CODE":0,"TOWNNAME":"北區","LI":"文元里","LIN":"27鄰","STREET":"中華北路","SECT":"二段","MAREA":" ","LANE":"６２巷","ALLEY":" ","HOUSE_NO":"１８號","E_COORD97":167621.07999999999,"N_COORD97":2546592.7200000002,"ADDRESS":"中華北路二段６２巷１８號","OBJECTID":405599},"geometry":{"x":167621.08000000007,"y":2546592.7200000007}},{"attributes":{"ID":405624,"DIS_CODE":0,"TOWNNAME":"北區","LI":"文元里","LIN":"27鄰","STREET":"中華北路","SECT":"二段","MAREA":" ","LANE":"６２巷","ALLEY":" ","HOUSE_NO":"１９號","E_COORD97":167629.97,"N_COORD97":2546585.5800000001,"ADDRESS":"中華北路二段６２巷１９號","OBJECTID":405600},"geometry":{"x":167629.96999999881,"y":2546585.5800000001}}]}