{"displayFieldName":"TOWNNAME","fieldAliases":{"ID":"ID","DIS_CODE":"DIS_CODE","TOWNNAME":"TOWNNAME","LI":"LI","LIN":"LIN","STREET":"STREET","SECT":"SECT","MAREA":"MAREA","LANE":"LANE","ALLEY":"ALLEY","HOUSE_NO":"HOUSE_NO","E_COORD97":"E_COORD97","N_COORD97":"N_COORD97","ADDRESS":"ADDRESS","OBJECTID":"OBJECTID"},"geometryType":"esriGeometryPoint","spatialReference":{"wkid":102443,"latestWkid":3826},"fields":[{"name":"ID","type":"esriFieldTypeDouble","alias":"ID"},{"name":"DIS_CODE","type":"esriFieldTypeInteger","alias":"DIS_CODE"},{"name":"TOWNNAME","type":"esriFieldTypeString","alias":"TOWNNAME","length":8},{"name":"LI","type":"esriFieldTypeString","alias":"LI","length":8},{"name":"LIN","type":"esriFieldTypeString","alias":"LIN","length":12},{"name":"STREET","type":"esriFieldTypeString","alias":"STREET","length":20},{"name":"SECT","type":"esriFieldTypeString","alias":"SECT","length":8},{"name":"MAREA","type":"esriFieldTypeString","alias":"MAREA","length":12},{"name":"LANE","type":"esriFieldTypeString","alias":"LANE","length":10},{"name":"ALLEY","type":"esriFieldTypeString","alias":"ALLEY","length":10},{"name":"HOUSE_NO","type":"esriFieldTypeString","alias":"HOUSE_NO","length":20},{"name":"E_COORD97","type":"esriFieldTypeDouble","alias":"E_COORD97"},{"name":"N_COORD97","type":"esriFieldTypeDouble","alias":"N_COORD97"},{"name":"ADDRESS","type":"esriFieldTypeString","alias":"ADDRESS","length":50},{"name":"OBJECTID","type":"esriFieldTypeOID","alias":"OBJECTID"}],"features":[{"attributes":{"ID":494228,"DIS_CODE":0,"TOWNNAME":"北區","LI":"成德里","LIN":"24鄰","STREET":"海安路","SECT":"三段","MAREA":" ","LANE":" ","ALLEY":" ","HOUSE_NO":"７２８號","E_COORD97":168061.82999999999,"N_COORD97":2546187.5299999998,"ADDRESS":"海安路三段７２８號","OBJECTID":494201},"geometry":{"x":168061.83000000007,"y":2546187.5300000012}},{"attributes":{"ID":494229,"DIS_CODE":0,"TOWNNAME":"北區","LI":"成德里","LIN":"24鄰","STREET":"海安路","SECT":"三段","MAREA":" ","LANE":" ","ALLEY":" ","HOUSE_NO":"７３０號","E_COORD97":168072.98000000001,"N_COORD97":2546183.4900000002,"ADDRESS":"海安路三段７３０號","OBJECTID":494202},"geometry":{"x":168072.98000000045,"y":2546183.4900000002}},{"attributes":{"ID":494230,"DIS_CODE":0,"TOWNNAME":"北區","LI":"成德里","LIN":"24鄰","STREET":"海安路","SECT":"三段","MAREA":" ","LANE":" ","ALLEY":" ","HOUSE_NO":"７３２號","E_COORD97":168077.59,"N_COORD97":2546184.0699999998,"ADDRESS":"海安路三段７３２號","OBJECTID":494203},"geometry":{"x":168077.59000000078,"y":2546184.0700000022}},{"attributes":{"ID":494231,"DIS_CODE":0,"TOWNNAME":"楠西區","LI":"東勢里","LIN":"19鄰","STREET":"水庫路","SECT":" ","MAREA":" ","LANE":" ","ALLEY":" ","HOUSE_NO":"５１０號","E_COORD97":197633.87,"N_COORD97":2563507.25,"ADDRESS":"水庫路５１０號","OBJECTID":494204},"geometry":{"x":197633.87000000011,"y":2563507.2500000037}},{"attributes":{"ID":494232,"DIS_CODE":0,"TOWNNAME":"楠西區","LI":"東勢里","LIN":"19鄰","STREET":"水庫路","SECT":" ","MAREA":" ","LANE":" ","ALLEY":" ","HOUSE_NO":"５２６號","E_COORD97":197625.07000000001,"N_COORD97":2563475.25,"ADDRESS":"水庫路５２６號","OBJECTID":494205},"geometry":{"x":197625.07000000123,"y":2563475.25}},{"attributes":{"ID":494233,"DIS_CODE":0,"TOWNNAME":"新營區","LI":"忠政里","LIN":"19鄰","STREET":"長榮路","SECT":"二段","MAREA":" ","LANE":" ","ALLEY":" ","HOUSE_NO":"３７號","E_COORD97":179960.92999999999,"N_COORD97":2579843.1499999999,"ADDRESS":"長榮路二段３７號","OBJECTID":494206},"geometry":{"x":179960.9299999997,"y":2579843.1500000041}},{"attributes":{"ID":494234,"DIS_CODE":0,"TOWNNAME":"新營區","LI":"新東里","LIN":"19鄰","STREET":"東學路","SECT":" ","MAREA":" ","LANE":" ","ALLEY":" ","HOUSE_NO":"２之１號","E_COORD97":180783.20999999999,"N_COORD97":2579354.2799999998,"ADDRESS":"東學路２之１號","OBJECTID":494207},"geometry":{"x":180783.20999999996,"y":2579354.2800000012}},{"attributes":{"ID":494235,"DIS_CODE":0,"TOWNNAME":"新營區","LI":"新東里","LIN":"19鄰","STREET":"東學路","SECT":" ","MAREA":" ","LANE":" ","ALLEY":" ","HOUSE_NO":"８２號","E_COORD97":180903.67999999999,"N_COORD97":2579358.0899999999,"ADDRESS":"東學路８２號","OBJECTID":494208},"geometry":{"x":180903.68000000156,"y":2579358.0900000036}},{"attributes":{"ID":494236,"DIS_CODE":0,"TOWNNAME":"新營區","LI":"大宏里","LIN":"19鄰","STREET":"三民路","SECT":" ","MAREA":" ","LANE":" ","ALLEY":" ","HOUSE_NO":"３６之２０號","E_COORD97":180450.38,"N_COORD97":2578513.0699999998,"ADDRESS":"三民路３６之２０號","OBJECTID":494209},"geometry":{"x":180450.38000000082,"y":2578513.0700000003}},{"attributes":{"ID":494237,"DIS_CODE":0,"TOWNNAME":"新營區","LI":"王公里","LIN":"19鄰","STREET":"民族路","SECT":" ","MAREA":" ","LANE":" ","ALLEY":" ","HOUSE_NO":"１１２之１號","E_COORD97":180348.78,"N_COORD97":2579207.8599999999,"ADDRESS":"民族路１１２之１號","OBJECTID":494210},"geometry":{"x":180348.78000000026,"y":2579207.8600000013}},{"attributes":{"ID":494238,"DIS_CODE":0,"TOWNNAME":"新營區","LI":"三仙里","LIN":"19鄰","STREET":"三民路","SECT":" ","MAREA":" ","LANE":" ","ALLEY":" ","HOUSE_NO":"１３８號之１２","E_COORD97":179585.78,"N_COORD97":2578471.7599999998,"ADDRESS":"三民路１３８號之１２","OBJECTID":494211},"geometry":{"x":179585.78000000026,"y":2578471.7600000035}},{"attributes":{"ID":494239,"DIS_CODE":0,"TOWNNAME":"中西區","LI":"小西里","LIN":"15鄰","STREET":"府前路","SECT":"一段","MAREA":" ","LANE":" ","ALLEY":" ","HOUSE_NO":"３２１號","E_COORD97":167979.47,"N_COORD97":2543383.3799999999,"ADDRESS":"府前路一段３２１號","OBJECTID":494212},"geometry":{"x":167979.47000000067,"y":2543383.3800000027}},{"attributes":{"ID":494240,"DIS_CODE":0,"TOWNNAME":"中西區","LI":"小西里","LIN":"15鄰","STREET":"府前路","SECT":"一段","MAREA":" ","LANE":" ","ALLEY":" ","HOUSE_NO":"３２３號","E_COORD97":167975.67000000001,"N_COORD97":2543382.1800000002,"ADDRESS":"府前路一段３２３號","OBJECTID":494213},"geometry":{"x":167975.66999999993,"y":2543382.1800000034}},{"attributes":{"ID":494241,"DIS_CODE":0,"TOWNNAME":"中西區","LI":"小西里","LIN":"15鄰","STREET":"府前路","SECT":"一段","MAREA":" ","LANE":" ","ALLEY":" ","HOUSE_NO":"３２５號","E_COORD97":167971.22,"N_COORD97":2543382.5099999998,"ADDRESS":"府前路一段３２５號","OBJECTID":494214},"geometry":{"x":167971.22000000067,"y":2543382.5099999998}},{"attributes":{"ID":494242,"DIS_CODE":0,"TOWNNAME":"中西區","LI":"小西里","LIN":"15鄰","STREET":"府前路","SECT":"一段","MAREA":" ","LANE":" ","ALLEY":" ","HOUSE_NO":"３２７號","E_COORD97":167967.95999999999,"N_COORD97":2543384.5699999998,"ADDRESS":"府前路一段３２７號","OBJECTID":494215},"geometry":{"x":167967.96000000089,"y":2543384.5700000022}},{"attributes":{"ID":494243,"DIS_CODE":0,"TOWNNAME":"中西區","LI":"小西里","LIN":"15鄰","STREET":"府前路","SECT":"一段","MAREA":" ","LANE":" ","ALLEY":" ","HOUSE_NO":"３２９號","E_COORD97":167964.38,"N_COORD97":2543383.27,"ADDRESS":"府前路一段３２９號","OBJECTID":494216},"geometry":{"x":167964.37999999989,"y":2543383.2699999996}},{"attributes":{"ID":494244,"DIS_CODE":0,"TOWNNAME":"中西區","LI":"小西里","LIN":"15鄰","STREET":"府前路","SECT":"一段","MAREA":" ","LANE":" ","ALLEY":" ","HOUSE_NO":"３３１號","E_COORD97":167961.44,"N_COORD97":2543385,"ADDRESS":"府前路一段３３１號","OBJECTID":494217},"geometry":{"x":167961.43999999948,"y":2543385.0000000019}},{"attributes":{"ID":494245,"DIS_CODE":0,"TOWNNAME":"中西區","LI":"小西里","LIN":"15鄰","STREET":"府前路","SECT":"一段","MAREA":" ","LANE":" ","ALLEY":" ","HOUSE_NO":"３３７號","E_COORD97":167947.98000000001,"N_COORD97":2543383.8100000001,"ADDRESS":"府前路一段３３７號","OBJECTID":494218},"geometry":{"x":167947.98000000138,"y":2543383.8100000005}},{"attributes":{"ID":494246,"DIS_CODE":0,"TOWNNAME":"北區","LI":"六甲里","LIN":"19鄰","STREET":"公園路","SECT":" ","MAREA":" ","LANE":" ","ALLEY":" ","HOUSE_NO":"５８７號之２０","E_COORD97":169109.19,"N_COORD97":2545835.1400000001,"ADDRESS":"公園路５８７號之２０","OBJECTID":494219},"geometry":{"x":169109.19000000227,"y":2545835.1400000025}},{"attributes":{"ID":494247,"DIS_CODE":0,"TOWNNAME":"北區","LI":"六甲里","LIN":"19鄰","STREET":"公園路","SECT":" ","MAREA":" ","LANE":" ","ALLEY":" ","HOUSE_NO":"５８７號之２１","E_COORD97":169111.16,"N_COORD97":2545843.1699999999,"ADDRESS":"公園路５８７號之２１","OBJECTID":494220},"geometry":{"x":169111.16000000108,"y":2545843.1699999999}},{"attributes":{"ID":494248,"DIS_CODE":0,"TOWNNAME":"北區","LI":"六甲里","LIN":"19鄰","STREET":"公園路","SECT":" ","MAREA":" ","LANE":" ","ALLEY":" ","HOUSE_NO":"５８７號之２２","E_COORD97":169111.94,"N_COORD97":2545847.8799999999,"ADDRESS":"公園路５８７號之２２","OBJECTID":494221},"geometry":{"x":169111.94000000041,"y":2545847.8800000027}},{"attributes":{"ID":494249,"DIS_CODE":0,"TOWNNAME":"北區","LI":"六甲里","LIN":"19鄰","STREET":"公園路","SECT":" ","MAREA":" ","LANE":" ","ALLEY":" ","HOUSE_NO":"５８７號之２３","E_COORD97":169113.70999999999,"N_COORD97":2545853.5600000001,"ADDRESS":"公園路５８７號之２３","OBJECTID":494222},"geometry":{"x":169113.71000000183,"y":2545853.5600000005}},{"attributes":{"ID":494250,"DIS_CODE":0,"TOWNNAME":"北區","LI":"六甲里","LIN":"19鄰","STREET":"公園路","SECT":" ","MAREA":" ","LANE":" ","ALLEY":" ","HOUSE_NO":"５８７號之２５","E_COORD97":169116.45999999999,"N_COORD97":2545863.9500000002,"ADDRESS":"公園路５８７號之２５","OBJECTID":494223},"geometry":{"x":169116.45999999996,"y":2545863.9499999993}},{"attributes":{"ID":494251,"DIS_CODE":0,"TOWNNAME":"北區","LI":"六甲里","LIN":"19鄰","STREET":"公園路","SECT":" ","MAREA":" ","LANE":" ","ALLEY":" ","HOUSE_NO":"５８７號之２６","E_COORD97":169118.81,"N_COORD97":2545868.0699999998,"ADDRESS":"公園路５８７號之２６","OBJECTID":494224},"geometry":{"x":169118.80999999959,"y":2545868.0700000003}},{"attributes":{"ID":494252,"DIS_CODE":0,"TOWNNAME":"北區","LI":"六甲里","LIN":"19鄰","STREET":"公園路","SECT":" ","MAREA":" ","LANE":" ","ALLEY":" ","HOUSE_NO":"５８７號之２７","E_COORD97":169113.89999999999,"N_COORD97":2545869.6400000001,"ADDRESS":"公園路５８７號之２７","OBJECTID":494225},"geometry":{"x":169113.90000000037,"y":2545869.6400000025}},{"attributes":{"ID":494253,"DIS_CODE":0,"TOWNNAME":"北區","LI":"六甲里","LIN":"19鄰","STREET":"公園路","SECT":" ","MAREA":" ","LANE":" ","ALLEY":" ","HOUSE_NO":"５８７號之２８","E_COORD97":169108.60999999999,"N_COORD97":2545870.8100000001,"ADDRESS":"公園路５８７號之２８","OBJECTID":494226},"geometry":{"x":169108.61000000127,"y":2545870.8100000024}},{"attributes":{"ID":494254,"DIS_CODE":0,"TOWNNAME":"北區","LI":"六甲里","LIN":"19鄰","STREET":"公園路","SECT":" ","MAREA":" ","LANE":" ","ALLEY":" ","HOUSE_NO":"５８７號之２９","E_COORD97":169101.92999999999,"N_COORD97":2545872.3799999999,"ADDRESS":"公園路５８７號之２９","OBJECTID":494227},"geometry":{"x":169101.93000000063,"y":2545872.3800000008}},{"attributes":{"ID":494255,"DIS_CODE":0,"TOWNNAME":"北區","LI":"六甲里","LIN":"19鄰","STREET":"公園路","SECT":" ","MAREA":" ","LANE":" ","ALLEY":" ","HOUSE_NO":"５８７號之３０","E_COORD97":169103.89000000001,"N_COORD97":2545866.5,"ADDRESS":"公園路５８７號之３０","OBJECTID":494228},"geometry":{"x":169103.8900000006,"y":2545866.5000000019}},{"attributes":{"ID":494256,"DIS_CODE":0,"TOWNNAME":"北區","LI":"六甲里","LIN":"19鄰","STREET":"公園路","SECT":" ","MAREA":" ","LANE":" ","ALLEY":" ","HOUSE_NO":"５８７號之３１","E_COORD97":169102.51999999999,"N_COORD97":2545861.0099999998,"ADDRESS":"公園路５８７號之３１","OBJECTID":494229},"geometry":{"x":169102.51999999955,"y":2545861.0099999998}},{"attributes":{"ID":494257,"DIS_CODE":0,"TOWNNAME":"北區","LI":"六甲里","LIN":"19鄰","STREET":"公園路","SECT":" ","MAREA":" ","LANE":" ","ALLEY":" ","HOUSE_NO":"５８７號之３２","E_COORD97":169100.35999999999,"N_COORD97":2545856.1099999999,"ADDRESS":"公園路５８７號之３２","OBJECTID":494230},"geometry":{"x":169100.36000000034,"y":2545856.1099999994}},{"attributes":{"ID":494258,"DIS_CODE":0,"TOWNNAME":"北區","LI":"六甲里","LIN":"19鄰","STREET":"公園路","SECT":" ","MAREA":" ","LANE":" ","ALLEY":" ","HOUSE_NO":"５８７號之３３","E_COORD97":169099.57999999999,"N_COORD97":2545850.4300000002,"ADDRESS":"公園路５８７號之３３","OBJECTID":494231},"geometry":{"x":169099.58000000101,"y":2545850.4299999997}},{"attributes":{"ID":494259,"DIS_CODE":0,"TOWNNAME":"新營區","LI":"民生里","LIN":"19鄰","STREET":"進修街","SECT":" ","MAREA":" ","LANE":" ","ALLEY":" ","HOUSE_NO":"１０３號","E_COORD97":178962.62,"N_COORD97":2578410.4399999999,"ADDRESS":"進修街１０３號","OBJECTID":494232},"geometry":{"x":178962.62000000104,"y":2578410.4400000013}},{"attributes":{"ID":494260,"DIS_CODE":0,"TOWNNAME":"中西區","LI":"仙草里","LIN":"14鄰","STREET":"西門路","SECT":"一段","MAREA":" ","LANE":" ","ALLEY":" ","HOUSE_NO":"４９４號","E_COORD97":167747.62,"N_COORD97":2542715.2000000002,"ADDRESS":"西門路一段４９４號","OBJECTID":494233},"geometry":{"x":167747.62000000011,"y":2542715.1999999993}},{"attributes":{"ID":494261,"DIS_CODE":0,"TOWNNAME":"中西區","LI":"仙草里","LIN":"14鄰","STREET":"西門路","SECT":"一段","MAREA":" ","LANE":" ","ALLEY":" ","HOUSE_NO":"４９６號底一層","E_COORD97":167749.60000000001,"N_COORD97":2542735.3100000001,"ADDRESS":"西門路一段４９６號底一層","OBJECTID":494234},"geometry":{"x":167749.60000000056,"y":2542735.3100000024}},{"attributes":{"ID":494262,"DIS_CODE":0,"TOWNNAME":"中西區","LI":"仙草里","LIN":"14鄰","STREET":"西門路","SECT":"一段","MAREA":" ","LANE":" ","ALLEY":" ","HOUSE_NO":"４９８號","E_COORD97":167746.42999999999,"N_COORD97":2542764.5899999999,"ADDRESS":"西門路一段４９８號","OBJECTID":494235},"geometry":{"x":167746.43000000063,"y":2542764.5899999999}},{"attributes":{"ID":494263,"DIS_CODE":0,"TOWNNAME":"永康區","LI":"北灣里","LIN":"31鄰","STREET":"大同街","SECT":" ","MAREA":" ","LANE":"３３巷","ALLEY":"１６弄","HOUSE_NO":"９號","E_COORD97":175224.28,"N_COORD97":2545361.7000000002,"ADDRESS":"大同街３３巷１６弄９號","OBJECTID":494236},"geometry":{"x":175224.28000000026,"y":2545361.7000000011}},{"attributes":{"ID":494264,"DIS_CODE":0,"TOWNNAME":"六甲區","LI":"二甲里","LIN":"14鄰","STREET":"光復街","SECT":" ","MAREA":" ","LANE":" ","ALLEY":" ","HOUSE_NO":"９９號","E_COORD97":183072.20999999999,"N_COORD97":2569915.1699999999,"ADDRESS":"光復街９９號","OBJECTID":494237},"geometry":{"x":183072.21000000089,"y":2569915.1699999981}},{"attributes":{"ID":494265,"DIS_CODE":0,"TOWNNAME":"六甲區","LI":"甲東里","LIN":"14鄰","STREET":"忠孝街","SECT":" ","MAREA":" ","LANE":" ","ALLEY":" ","HOUSE_NO":"１５４號","E_COORD97":184002.17300000001,"N_COORD97":2569843.8531300002,"ADDRESS":"忠孝街１５４號","OBJECTID":494238},"geometry":{"x":184002.17300000135,"y":2569843.853128003}},{"attributes":{"ID":494266,"DIS_CODE":0,"TOWNNAME":"六甲區","LI":"甲東里","LIN":"14鄰","STREET":"忠孝街","SECT":" ","MAREA":" ","LANE":" ","ALLEY":" ","HOUSE_NO":"１５６號","E_COORD97":184001.09,"N_COORD97":2569851.9700000002,"ADDRESS":"忠孝街１５６號","OBJECTID":494239},"geometry":{"x":184001.08999999985,"y":2569851.9700000007}},{"attributes":{"ID":494267,"DIS_CODE":0,"TOWNNAME":"六甲區","LI":"甲東里","LIN":"14鄰","STREET":"忠孝街","SECT":" ","MAREA":" ","LANE":" ","ALLEY":" ","HOUSE_NO":"１５８號之１","E_COORD97":184002.47,"N_COORD97":2569865.77,"ADDRESS":"忠孝街１５８號之１","OBJECTID":494240},"geometry":{"x":184002.47000000067,"y":2569865.7699999996}},{"attributes":{"ID":494268,"DIS_CODE":0,"TOWNNAME":"六甲區","LI":"甲東里","LIN":"14鄰","STREET":"忠孝街","SECT":" ","MAREA":" ","LANE":" ","ALLEY":" ","HOUSE_NO":"１５８號","E_COORD97":184000.85999999999,"N_COORD97":2569861.73,"ADDRESS":"忠孝街１５８號","OBJECTID":494241},"geometry":{"x":184000.86000000127,"y":2569861.7300000023}},{"attributes":{"ID":494269,"DIS_CODE":0,"TOWNNAME":"六甲區","LI":"甲東里","LIN":"14鄰","STREET":"忠孝街","SECT":" ","MAREA":" ","LANE":" ","ALLEY":" ","HOUSE_NO":"１６０號","E_COORD97":184003.06,"N_COORD97":2569870.0800000001,"ADDRESS":"忠孝街１６０號","OBJECTID":494242},"geometry":{"x":184003.05999999866,"y":2569870.0800000019}},{"attributes":{"ID":494270,"DIS_CODE":0,"TOWNNAME":"六甲區","LI":"甲東里","LIN":"14鄰","STREET":"忠孝街","SECT":" ","MAREA":" ","LANE":" ","ALLEY":" ","HOUSE_NO":"１６２號","E_COORD97":184003.76000000001,"N_COORD97":2569880.75,"ADDRESS":"忠孝街１６２號","OBJECTID":494243},"geometry":{"x":184003.76000000164,"y":2569880.7499999981}},{"attributes":{"ID":494271,"DIS_CODE":0,"TOWNNAME":"六甲區","LI":"甲東里","LIN":"14鄰","STREET":"忠孝街","SECT":" ","MAREA":" ","LANE":" ","ALLEY":" ","HOUSE_NO":"１６４號","E_COORD97":184004.29000000001,"N_COORD97":2569884.96,"ADDRESS":"忠孝街１６４號","OBJECTID":494244},"geometry":{"x":184004.29000000097,"y":2569884.9600000028}},{"attributes":{"ID":494272,"DIS_CODE":0,"TOWNNAME":"六甲區","LI":"甲東里","LIN":"14鄰","STREET":"忠孝街","SECT":" ","MAREA":" ","LANE":" ","ALLEY":" ","HOUSE_NO":"１６６號","E_COORD97":184004.84,"N_COORD97":2569889.0600000001,"ADDRESS":"忠孝街１６６號","OBJECTID":494245},"geometry":{"x":184004.83999999892,"y":2569889.0600000005}},{"attributes":{"ID":494273,"DIS_CODE":0,"TOWNNAME":"六甲區","LI":"六甲里","LIN":"14鄰","STREET":"建國街","SECT":" ","MAREA":" ","LANE":" ","ALLEY":" ","HOUSE_NO":"４０號","E_COORD97":183707.76000000001,"N_COORD97":2569913.6299999999,"ADDRESS":"建國街４０號","OBJECTID":494246},"geometry":{"x":183707.76000000071,"y":2569913.629999999}},{"attributes":{"ID":494274,"DIS_CODE":0,"TOWNNAME":"六甲區","LI":"六甲里","LIN":"14鄰","STREET":"建國街","SECT":" ","MAREA":" ","LANE":" ","ALLEY":" ","HOUSE_NO":"４２號","E_COORD97":183709.01000000001,"N_COORD97":2569917.5,"ADDRESS":"建國街４２號","OBJECTID":494247},"geometry":{"x":183709.01000000071,"y":2569917.5000000019}},{"attributes":{"ID":494275,"DIS_CODE":0,"TOWNNAME":"六甲區","LI":"六甲里","LIN":"14鄰","STREET":"建國街","SECT":" ","MAREA":" ","LANE":" ","ALLEY":" ","HOUSE_NO":"４４號","E_COORD97":183709.54000000001,"N_COORD97":2569921.6000000001,"ADDRESS":"建國街４４號","OBJECTID":494248},"geometry":{"x":183709.54000000097,"y":2569921.5999999996}},{"attributes":{"ID":494276,"DIS_CODE":0,"TOWNNAME":"六甲區","LI":"六甲里","LIN":"14鄰","STREET":"建國街","SECT":" ","MAREA":" ","LANE":" ","ALLEY":" ","HOUSE_NO":"４６號","E_COORD97":183710.45999999999,"N_COORD97":2569925.04,"ADDRESS":"建國街４６號","OBJECTID":494249},"geometry":{"x":183710.45999999996,"y":2569925.0399999991}},{"attributes":{"ID":494277,"DIS_CODE":0,"TOWNNAME":"六甲區","LI":"六甲里","LIN":"14鄰","STREET":"建國街","SECT":" ","MAREA":" ","LANE":" ","ALLEY":" ","HOUSE_NO":"４８號","E_COORD97":183711.42999999999,"N_COORD97":2569929.1299999999,"ADDRESS":"建國街４８號","OBJECTID":494250},"geometry":{"x":183711.43000000063,"y":2569929.1300000008}},{"attributes":{"ID":494278,"DIS_CODE":0,"TOWNNAME":"六甲區","LI":"六甲里","LIN":"14鄰","STREET":"建國街","SECT":" ","MAREA":" ","LANE":" ","ALLEY":" ","HOUSE_NO":"５０號","E_COORD97":183712.64000000001,"N_COORD97":2569933.1400000001,"ADDRESS":"建國街５０號","OBJECTID":494251},"geometry":{"x":183712.63999999966,"y":2569933.1400000043}},{"attributes":{"ID":494279,"DIS_CODE":0,"TOWNNAME":"六甲區","LI":"六甲里","LIN":"14鄰","STREET":"建國街","SECT":" ","MAREA":" ","LANE":" ","ALLEY":" ","HOUSE_NO":"５２號","E_COORD97":183713.44,"N_COORD97":2569937.2999999998,"ADDRESS":"建國街５２號","OBJECTID":494252},"geometry":{"x":183713.44000000134,"y":2569937.3000000026}},{"attributes":{"ID":494280,"DIS_CODE":0,"TOWNNAME":"六甲區","LI":"六甲里","LIN":"14鄰","STREET":"建國街","SECT":" ","MAREA":" ","LANE":" ","ALLEY":" ","HOUSE_NO":"５４號","E_COORD97":183714.39999999999,"N_COORD97":2569941.3599999999,"ADDRESS":"建國街５４號","OBJECTID":494253},"geometry":{"x":183714.40000000037,"y":2569941.3600000013}},{"attributes":{"ID":494281,"DIS_CODE":0,"TOWNNAME":"六甲區","LI":"六甲里","LIN":"14鄰","STREET":"復興街","SECT":" ","MAREA":" ","LANE":" ","ALLEY":" ","HOUSE_NO":"４３號之２","E_COORD97":183790.13,"N_COORD97":2569920.1400000001,"ADDRESS":"復興街４３號之２","OBJECTID":494254},"geometry":{"x":183790.13000000082,"y":2569920.1400000025}},{"attributes":{"ID":494282,"DIS_CODE":0,"TOWNNAME":"六甲區","LI":"六甲里","LIN":"14鄰","STREET":"復興街","SECT":" ","MAREA":" ","LANE":" ","ALLEY":" ","HOUSE_NO":"４３號之３","E_COORD97":183806.39999999999,"N_COORD97":2569923.0099999998,"ADDRESS":"復興街４３號之３","OBJECTID":494255},"geometry":{"x":183806.40000000037,"y":2569923.0100000035}},{"attributes":{"ID":494283,"DIS_CODE":0,"TOWNNAME":"六甲區","LI":"六甲里","LIN":"14鄰","STREET":"復興街","SECT":" ","MAREA":" ","LANE":" ","ALLEY":" ","HOUSE_NO":"４３之４號","E_COORD97":183810.78,"N_COORD97":2569921.3300000001,"ADDRESS":"復興街４３之４號","OBJECTID":494256},"geometry":{"x":183810.78000000212,"y":2569921.3300000038}},{"attributes":{"ID":494284,"DIS_CODE":0,"TOWNNAME":"六甲區","LI":"六甲里","LIN":"14鄰","STREET":"復興街","SECT":" ","MAREA":" ","LANE":" ","ALLEY":" ","HOUSE_NO":"４７號","E_COORD97":183781.69,"N_COORD97":2569929.96,"ADDRESS":"復興街４７號","OBJECTID":494257},"geometry":{"x":183781.69000000134,"y":2569929.9600000009}},{"attributes":{"ID":494285,"DIS_CODE":0,"TOWNNAME":"六甲區","LI":"六甲里","LIN":"14鄰","STREET":"復興街","SECT":" ","MAREA":" ","LANE":" ","ALLEY":" ","HOUSE_NO":"４９號","E_COORD97":183777.76999999999,"N_COORD97":2569931.25,"ADDRESS":"復興街４９號","OBJECTID":494258},"geometry":{"x":183777.76999999955,"y":2569931.25}},{"attributes":{"ID":494286,"DIS_CODE":0,"TOWNNAME":"六甲區","LI":"六甲里","LIN":"14鄰","STREET":"復興街","SECT":" ","MAREA":" ","LANE":" ","ALLEY":" ","HOUSE_NO":"５３號","E_COORD97":183767.09,"N_COORD97":2569934.3799999999,"ADDRESS":"復興街５３號","OBJECTID":494259},"geometry":{"x":183767.08999999985,"y":2569934.3800000008}},{"attributes":{"ID":494287,"DIS_CODE":0,"TOWNNAME":"六甲區","LI":"六甲里","LIN":"14鄰","STREET":"復興街","SECT":" ","MAREA":" ","LANE":" ","ALLEY":" ","HOUSE_NO":"５５之１號","E_COORD97":183754.78,"N_COORD97":2569934.8799999999,"ADDRESS":"復興街５５之１號","OBJECTID":494260},"geometry":{"x":183754.77999999933,"y":2569934.8800000008}},{"attributes":{"ID":494288,"DIS_CODE":0,"TOWNNAME":"六甲區","LI":"六甲里","LIN":"14鄰","STREET":"復興街","SECT":" ","MAREA":" ","LANE":" ","ALLEY":" ","HOUSE_NO":"５５號","E_COORD97":183751.82999999999,"N_COORD97":2569938.8900000001,"ADDRESS":"復興街５５號","OBJECTID":494261},"geometry":{"x":183751.83000000007,"y":2569938.8900000025}},{"attributes":{"ID":494289,"DIS_CODE":0,"TOWNNAME":"六甲區","LI":"六甲里","LIN":"14鄰","STREET":"復興街","SECT":" ","MAREA":" ","LANE":" ","ALLEY":" ","HOUSE_NO":"５７號","E_COORD97":183746.87,"N_COORD97":2569940.02,"ADDRESS":"復興街５７號","OBJECTID":494262},"geometry":{"x":183746.87000000011,"y":2569940.0200000014}},{"attributes":{"ID":494290,"DIS_CODE":0,"TOWNNAME":"六甲區","LI":"六甲里","LIN":"14鄰","STREET":"復興街","SECT":" ","MAREA":" ","LANE":" ","ALLEY":" ","HOUSE_NO":"５９號","E_COORD97":183742.59,"N_COORD97":2569941.3100000001,"ADDRESS":"復興街５９號","OBJECTID":494263},"geometry":{"x":183742.59000000078,"y":2569941.3100000005}},{"attributes":{"ID":494291,"DIS_CODE":0,"TOWNNAME":"麻豆區","LI":"東角里","LIN":"14鄰","STREET":"同仁街","SECT":" ","MAREA":" ","LANE":" ","ALLEY":" ","HOUSE_NO":"６號之２","E_COORD97":173778.35000000001,"N_COORD97":2564706.5600000001,"ADDRESS":"同仁街６號之２","OBJECTID":494264},"geometry":{"x":173778.35000000056,"y":2564706.5600000024}},{"attributes":{"ID":494292,"DIS_CODE":0,"TOWNNAME":"麻豆區","LI":"東角里","LIN":"14鄰","STREET":"同仁街","SECT":" ","MAREA":" ","LANE":" ","ALLEY":" ","HOUSE_NO":"６號","E_COORD97":173754.17000000001,"N_COORD97":2564694.98,"ADDRESS":"同仁街６號","OBJECTID":494265},"geometry":{"x":173754.17000000086,"y":2564694.9800000004}},{"attributes":{"ID":494293,"DIS_CODE":0,"TOWNNAME":"新營區","LI":"嘉芳里","LIN":"14鄰","STREET":"五福路","SECT":" ","MAREA":" ","LANE":" ","ALLEY":" ","HOUSE_NO":"１７號","E_COORD97":176590.23999999999,"N_COORD97":2578282.4500000002,"ADDRESS":"五福路１７號","OBJECTID":494266},"geometry":{"x":176590.24000000115,"y":2578282.4499999993}},{"attributes":{"ID":494294,"DIS_CODE":0,"TOWNNAME":"新營區","LI":"嘉芳里","LIN":"14鄰","STREET":"五福路","SECT":" ","MAREA":" ","LANE":" ","ALLEY":" ","HOUSE_NO":"９號","E_COORD97":176827.22,"N_COORD97":2578269.1000000001,"ADDRESS":"五福路９號","OBJECTID":494267},"geometry":{"x":176827.22000000067,"y":2578269.0999999996}},{"attributes":{"ID":494295,"DIS_CODE":0,"TOWNNAME":"新營區","LI":"嘉芳里","LIN":"14鄰","STREET":"四維路","SECT":" ","MAREA":" ","LANE":" ","ALLEY":" ","HOUSE_NO":"１４號","E_COORD97":176356.32999999999,"N_COORD97":2578556.0499999998,"ADDRESS":"四維路１４號","OBJECTID":494268},"geometry":{"x":176356.33000000007,"y":2578556.0500000026}},{"attributes":{"ID":494296,"DIS_CODE":0,"TOWNNAME":"新營區","LI":"新南里","LIN":"14鄰","STREET":"民治路","SECT":" ","MAREA":" ","LANE":" ","ALLEY":" ","HOUSE_NO":"２４２號","E_COORD97":178817.5,"N_COORD97":2578528.5299999998,"ADDRESS":"民治路２４２號","OBJECTID":494269},"geometry":{"x":178817.50000000093,"y":2578528.5300000012}},{"attributes":{"ID":494297,"DIS_CODE":0,"TOWNNAME":"新營區","LI":"嘉芳里","LIN":"14鄰","STREET":"復興路","SECT":" ","MAREA":" ","LANE":" ","ALLEY":" ","HOUSE_NO":"１１０７號","E_COORD97":176390.60000000001,"N_COORD97":2578772.96,"ADDRESS":"復興路１１０７號","OBJECTID":494270},"geometry":{"x":176390.60000000056,"y":2578772.9600000009}},{"attributes":{"ID":494298,"DIS_CODE":0,"TOWNNAME":"新營區","LI":"嘉芳里","LIN":"14鄰","STREET":"五福路","SECT":" ","MAREA":" ","LANE":" ","ALLEY":" ","HOUSE_NO":"２７之１號","E_COORD97":176492.44,"N_COORD97":2578258.6400000001,"ADDRESS":"五福路２７之１號","OBJECTID":494271},"geometry":{"x":176492.44000000134,"y":2578258.6400000006}},{"attributes":{"ID":494299,"DIS_CODE":0,"TOWNNAME":"新營區","LI":"嘉芳里","LIN":"14鄰","STREET":"五福路","SECT":" ","MAREA":" ","LANE":" ","ALLEY":" ","HOUSE_NO":"７號","E_COORD97":176865.04999999999,"N_COORD97":2578253.4100000001,"ADDRESS":"五福路７號","OBJECTID":494272},"geometry":{"x":176865.05000000168,"y":2578253.4100000001}},{"attributes":{"ID":494300,"DIS_CODE":0,"TOWNNAME":"新營區","LI":"嘉芳里","LIN":"14鄰","STREET":"忠孝路","SECT":" ","MAREA":" ","LANE":" ","ALLEY":" ","HOUSE_NO":"７號","E_COORD97":176675.91,"N_COORD97":2577857.8700000001,"ADDRESS":"忠孝路７號","OBJECTID":494273},"geometry":{"x":176675.91000000015,"y":2577857.870000001}},{"attributes":{"ID":494301,"DIS_CODE":0,"TOWNNAME":"新營區","LI":"嘉芳里","LIN":"14鄰","STREET":"新業街","SECT":" ","MAREA":" ","LANE":" ","ALLEY":" ","HOUSE_NO":"１之１號","E_COORD97":176791.72,"N_COORD97":2578231.6800000002,"ADDRESS":"新業街１之１號","OBJECTID":494274},"geometry":{"x":176791.72000000067,"y":2578231.6800000034}},{"attributes":{"ID":494302,"DIS_CODE":0,"TOWNNAME":"新營區","LI":"嘉芳里","LIN":"14鄰","STREET":"四維路","SECT":" ","MAREA":" ","LANE":" ","ALLEY":" ","HOUSE_NO":"２６號","E_COORD97":176118.10000000001,"N_COORD97":2578560.5600000001,"ADDRESS":"四維路２６號","OBJECTID":494275},"geometry":{"x":176118.09999999963,"y":2578560.5600000005}},{"attributes":{"ID":494303,"DIS_CODE":0,"TOWNNAME":"新營區","LI":"嘉芳里","LIN":"14鄰","STREET":"五福路","SECT":" ","MAREA":" ","LANE":" ","ALLEY":" ","HOUSE_NO":"２０號","E_COORD97":176862.42000000001,"N_COORD97":2578288.8599999999,"ADDRESS":"五福路２０號","OBJECTID":494276},"geometry":{"x":176862.41999999993,"y":2578288.8600000013}},{"attributes":{"ID":494304,"DIS_CODE":0,"TOWNNAME":"新營區","LI":"中營里","LIN":"14鄰","STREET":"東昇街","SECT":" ","MAREA":" ","LANE":" ","ALLEY":" ","HOUSE_NO":"１６５號","E_COORD97":181868.89000000001,"N_COORD97":2579032.46,"ADDRESS":"東昇街１６５號","OBJECTID":494277},"geometry":{"x":181868.8900000006,"y":2579032.4600000028}},{"attributes":{"ID":494305,"DIS_CODE":0,"TOWNNAME":"新營區","LI":"嘉芳里","LIN":"14鄰","STREET":"五福路","SECT":" ","MAREA":" ","LANE":" ","ALLEY":" ","HOUSE_NO":"１３０號","E_COORD97":176211.23000000001,"N_COORD97":2578334.1899999999,"ADDRESS":"五福路１３０號","OBJECTID":494278},"geometry":{"x":176211.23000000045,"y":2578334.1900000013}},{"attributes":{"ID":494306,"DIS_CODE":0,"TOWNNAME":"新營區","LI":"嘉芳里","LIN":"14鄰","STREET":"五福路","SECT":" ","MAREA":" ","LANE":" ","ALLEY":" ","HOUSE_NO":"２２號","E_COORD97":176856.29000000001,"N_COORD97":2578290,"ADDRESS":"五福路２２號","OBJECTID":494279},"geometry":{"x":176856.29000000004,"y":2578290}},{"attributes":{"ID":494307,"DIS_CODE":0,"TOWNNAME":"新營區","LI":"嘉芳里","LIN":"14鄰","STREET":"復興路","SECT":" ","MAREA":" ","LANE":" ","ALLEY":" ","HOUSE_NO":"１１２７號","E_COORD97":176345.60999999999,"N_COORD97":2578776.5,"ADDRESS":"復興路１１２７號","OBJECTID":494280},"geometry":{"x":176345.61000000034,"y":2578776.5000000019}},{"attributes":{"ID":494308,"DIS_CODE":0,"TOWNNAME":"新營區","LI":"嘉芳里","LIN":"14鄰","STREET":"四維路","SECT":" ","MAREA":" ","LANE":" ","ALLEY":" ","HOUSE_NO":"５號","E_COORD97":176422.12,"N_COORD97":2578457.1600000001,"ADDRESS":"四維路５號","OBJECTID":494281},"geometry":{"x":176422.12000000011,"y":2578457.160000002}},{"attributes":{"ID":494309,"DIS_CODE":0,"TOWNNAME":"新營區","LI":"嘉芳里","LIN":"14鄰","STREET":"復興路","SECT":" ","MAREA":" ","LANE":" ","ALLEY":" ","HOUSE_NO":"１１３７號","E_COORD97":176045.14000000001,"N_COORD97":2578826.73,"ADDRESS":"復興路１１３７號","OBJECTID":494282},"geometry":{"x":176045.13999999966,"y":2578826.7300000023}},{"attributes":{"ID":494310,"DIS_CODE":0,"TOWNNAME":"新營區","LI":"興安里","LIN":"14鄰","STREET":"延平路","SECT":" ","MAREA":" ","LANE":" ","ALLEY":" ","HOUSE_NO":"１０１號之２","E_COORD97":179782.14999999999,"N_COORD97":2577652.4100000001,"ADDRESS":"延平路１０１號之２","OBJECTID":494283},"geometry":{"x":179782.15000000037,"y":2577652.410000002}},{"attributes":{"ID":494311,"DIS_CODE":0,"TOWNNAME":"新營區","LI":"中營里","LIN":"14鄰","STREET":"東義街","SECT":" ","MAREA":" ","LANE":" ","ALLEY":" ","HOUSE_NO":"９號","E_COORD97":181346.01999999999,"N_COORD97":2578872.0699999998,"ADDRESS":"東義街９號","OBJECTID":494284},"geometry":{"x":181346.02000000048,"y":2578872.0700000022}},{"attributes":{"ID":494312,"DIS_CODE":0,"TOWNNAME":"新營區","LI":"民榮里","LIN":"14鄰","STREET":"復興路","SECT":" ","MAREA":" ","LANE":" ","ALLEY":" ","HOUSE_NO":"１５９之１５號","E_COORD97":178901.23999999999,"N_COORD97":2577945.6699999999,"ADDRESS":"復興路１５９之１５號","OBJECTID":494285},"geometry":{"x":178901.24000000022,"y":2577945.6699999999}},{"attributes":{"ID":494313,"DIS_CODE":0,"TOWNNAME":"新營區","LI":"嘉芳里","LIN":"14鄰","STREET":"新嘉街","SECT":" ","MAREA":" ","LANE":" ","ALLEY":" ","HOUSE_NO":"１３號","E_COORD97":176310.64000000001,"N_COORD97":2578418.96,"ADDRESS":"新嘉街１３號","OBJECTID":494286},"geometry":{"x":176310.6400000006,"y":2578418.9600000028}},{"attributes":{"ID":494314,"DIS_CODE":0,"TOWNNAME":"新營區","LI":"嘉芳里","LIN":"14鄰","STREET":"忠孝路","SECT":" ","MAREA":" ","LANE":" ","ALLEY":" ","HOUSE_NO":"２之１號","E_COORD97":176877.95000000001,"N_COORD97":2577865.79,"ADDRESS":"忠孝路２之１號","OBJECTID":494287},"geometry":{"x":176877.95000000205,"y":2577865.790000001}},{"attributes":{"ID":494315,"DIS_CODE":0,"TOWNNAME":"新營區","LI":"嘉芳里","LIN":"14鄰","STREET":"新業街","SECT":" ","MAREA":" ","LANE":" ","ALLEY":" ","HOUSE_NO":"６號","E_COORD97":176760.48000000001,"N_COORD97":2578209.6299999999,"ADDRESS":"新業街６號","OBJECTID":494288},"geometry":{"x":176760.48000000045,"y":2578209.629999999}},{"attributes":{"ID":494316,"DIS_CODE":0,"TOWNNAME":"新營區","LI":"興安里","LIN":"14鄰","STREET":"延平路","SECT":" ","MAREA":" ","LANE":" ","ALLEY":" ","HOUSE_NO":"１０３號之１","E_COORD97":179779.87,"N_COORD97":2577631.3799999999,"ADDRESS":"延平路１０３號之１","OBJECTID":494289},"geometry":{"x":179779.87000000011,"y":2577631.379999999}},{"attributes":{"ID":494317,"DIS_CODE":0,"TOWNNAME":"新營區","LI":"嘉芳里","LIN":"14鄰","STREET":"四維路","SECT":" ","MAREA":" ","LANE":" ","ALLEY":" ","HOUSE_NO":"１４之１號","E_COORD97":176326.12,"N_COORD97":2578559.5899999999,"ADDRESS":"四維路１４之１號","OBJECTID":494290},"geometry":{"x":176326.12000000104,"y":2578559.5899999999}},{"attributes":{"ID":494318,"DIS_CODE":0,"TOWNNAME":"新營區","LI":"嘉芳里","LIN":"14鄰","STREET":"復興路","SECT":" ","MAREA":" ","LANE":" ","ALLEY":" ","HOUSE_NO":"１０９１號","E_COORD97":176457.04000000001,"N_COORD97":2578764.8799999999,"ADDRESS":"復興路１０９１號","OBJECTID":494291},"geometry":{"x":176457.04000000097,"y":2578764.879999999}},{"attributes":{"ID":494319,"DIS_CODE":0,"TOWNNAME":"新營區","LI":"中營里","LIN":"14鄰","STREET":"東昇街","SECT":" ","MAREA":" ","LANE":" ","ALLEY":" ","HOUSE_NO":"１７５號","E_COORD97":181910.84,"N_COORD97":2579036.7000000002,"ADDRESS":"東昇街１７５號","OBJECTID":494292},"geometry":{"x":181910.83999999985,"y":2579036.6999999993}},{"attributes":{"ID":494320,"DIS_CODE":0,"TOWNNAME":"新營區","LI":"嘉芳里","LIN":"14鄰","STREET":"四維路","SECT":" ","MAREA":" ","LANE":" ","ALLEY":" ","HOUSE_NO":"３號","E_COORD97":176456.12,"N_COORD97":2578493.5299999998,"ADDRESS":"四維路３號","OBJECTID":494293},"geometry":{"x":176456.12000000011,"y":2578493.5300000031}},{"attributes":{"ID":494321,"DIS_CODE":0,"TOWNNAME":"新營區","LI":"嘉芳里","LIN":"14鄰","STREET":"八德路","SECT":" ","MAREA":" ","LANE":" ","ALLEY":" ","HOUSE_NO":"１７號","E_COORD97":176419.45000000001,"N_COORD97":2578083.96,"ADDRESS":"八德路１７號","OBJECTID":494294},"geometry":{"x":176419.45000000019,"y":2578083.9600000009}},{"attributes":{"ID":494322,"DIS_CODE":0,"TOWNNAME":"新營區","LI":"嘉芳里","LIN":"14鄰","STREET":"五福路","SECT":" ","MAREA":" ","LANE":" ","ALLEY":" ","HOUSE_NO":"１０２之２號","E_COORD97":176670.79999999999,"N_COORD97":2578303.1600000001,"ADDRESS":"五福路１０２之２號","OBJECTID":494295},"geometry":{"x":176670.80000000075,"y":2578303.1600000001}},{"attributes":{"ID":494323,"DIS_CODE":0,"TOWNNAME":"新營區","LI":"興安里","LIN":"14鄰","STREET":"延平路","SECT":" ","MAREA":" ","LANE":" ","ALLEY":" ","HOUSE_NO":"１０７號","E_COORD97":179775.64000000001,"N_COORD97":2577622.48,"ADDRESS":"延平路１０７號","OBJECTID":494296},"geometry":{"x":179775.6400000006,"y":2577622.4800000004}},{"attributes":{"ID":494324,"DIS_CODE":0,"TOWNNAME":"新營區","LI":"嘉芳里","LIN":"14鄰","STREET":"新中路","SECT":" ","MAREA":" ","LANE":" ","ALLEY":" ","HOUSE_NO":"１５號","E_COORD97":176030.38,"N_COORD97":2578420.3599999999,"ADDRESS":"新中路１５號","OBJECTID":494297},"geometry":{"x":176030.37999999896,"y":2578420.3600000013}},{"attributes":{"ID":494325,"DIS_CODE":0,"TOWNNAME":"新營區","LI":"王公里","LIN":"14鄰","STREET":"中正路","SECT":" ","MAREA":" ","LANE":" ","ALLEY":" ","HOUSE_NO":"９８號","E_COORD97":180108.73000000001,"N_COORD97":2579328.5899999999,"ADDRESS":"中正路９８號","OBJECTID":494298},"geometry":{"x":180108.73000000045,"y":2579328.5900000017}},{"attributes":{"ID":494326,"DIS_CODE":0,"TOWNNAME":"新營區","LI":"民榮里","LIN":"14鄰","STREET":"復興路","SECT":" ","MAREA":" ","LANE":" ","ALLEY":" ","HOUSE_NO":"１５９之１１號","E_COORD97":178916.63,"N_COORD97":2577956.6699999999,"ADDRESS":"復興路１５９之１１號","OBJECTID":494299},"geometry":{"x":178916.62999999989,"y":2577956.6699999999}},{"attributes":{"ID":494327,"DIS_CODE":0,"TOWNNAME":"新營區","LI":"嘉芳里","LIN":"14鄰","STREET":"八德路","SECT":" ","MAREA":" ","LANE":" ","ALLEY":" ","HOUSE_NO":"７號","E_COORD97":176741.29000000001,"N_COORD97":2578048.0299999998,"ADDRESS":"八德路７號","OBJECTID":494300},"geometry":{"x":176741.29000000004,"y":2578048.0299999993}},{"attributes":{"ID":494328,"DIS_CODE":0,"TOWNNAME":"新營區","LI":"嘉芳里","LIN":"14鄰","STREET":"新業街","SECT":" ","MAREA":" ","LANE":" ","ALLEY":" ","HOUSE_NO":"８號","E_COORD97":176754.12,"N_COORD97":2578152.0699999998,"ADDRESS":"新業街８號","OBJECTID":494301},"geometry":{"x":176754.12000000011,"y":2578152.0700000022}},{"attributes":{"ID":494329,"DIS_CODE":0,"TOWNNAME":"新營區","LI":"嘉芳里","LIN":"14鄰","STREET":"新芳街","SECT":" ","MAREA":" ","LANE":" ","ALLEY":" ","HOUSE_NO":"６號","E_COORD97":176614.75,"N_COORD97":2578524.8700000001,"ADDRESS":"新芳街６號","OBJECTID":494302},"geometry":{"x":176614.75000000186,"y":2578524.8700000029}},{"attributes":{"ID":494330,"DIS_CODE":0,"TOWNNAME":"新營區","LI":"中營里","LIN":"14鄰","STREET":"東義街","SECT":" ","MAREA":" ","LANE":" ","ALLEY":" ","HOUSE_NO":"１２號","E_COORD97":181366.57999999999,"N_COORD97":2578837.6499999999,"ADDRESS":"東義街１２號","OBJECTID":494303},"geometry":{"x":181366.58000000101,"y":2578837.6500000022}},{"attributes":{"ID":494331,"DIS_CODE":0,"TOWNNAME":"新營區","LI":"興安里","LIN":"14鄰","STREET":"延平路","SECT":" ","MAREA":" ","LANE":" ","ALLEY":" ","HOUSE_NO":"１０３號","E_COORD97":179776.73000000001,"N_COORD97":2577635.77,"ADDRESS":"延平路１０３號","OBJECTID":494304},"geometry":{"x":179776.73000000231,"y":2577635.7700000014}},{"attributes":{"ID":494332,"DIS_CODE":0,"TOWNNAME":"新營區","LI":"王公里","LIN":"14鄰","STREET":"中正路","SECT":" ","MAREA":" ","LANE":" ","ALLEY":" ","HOUSE_NO":"９６號","E_COORD97":180109.69,"N_COORD97":2579315.2999999998,"ADDRESS":"中正路９６號","OBJECTID":494305},"geometry":{"x":180109.69000000134,"y":2579315.3000000007}},{"attributes":{"ID":494333,"DIS_CODE":0,"TOWNNAME":"新營區","LI":"中營里","LIN":"14鄰","STREET":"東昇街","SECT":" ","MAREA":" ","LANE":" ","ALLEY":" ","HOUSE_NO":"１６７號","E_COORD97":181878.10000000001,"N_COORD97":2579033.5299999998,"ADDRESS":"東昇街１６７號","OBJECTID":494306},"geometry":{"x":181878.09999999963,"y":2579033.5300000012}},{"attributes":{"ID":494334,"DIS_CODE":0,"TOWNNAME":"新營區","LI":"嘉芳里","LIN":"14鄰","STREET":"四維路","SECT":" ","MAREA":" ","LANE":" ","ALLEY":" ","HOUSE_NO":"１２號","E_COORD97":176405.41,"N_COORD97":2578551.3799999999,"ADDRESS":"四維路１２號","OBJECTID":494307},"geometry":{"x":176405.41000000108,"y":2578551.3799999971}},{"attributes":{"ID":494335,"DIS_CODE":0,"TOWNNAME":"新營區","LI":"民榮里","LIN":"31鄰","STREET":"太子路","SECT":" ","MAREA":" ","LANE":"３３巷","ALLEY":"１弄","HOUSE_NO":"９號","E_COORD97":178349.22,"N_COORD97":2578049.0099999998,"ADDRESS":"太子路３３巷１弄９號","OBJECTID":494308},"geometry":{"x":178349.22000000067,"y":2578049.0099999998}},{"attributes":{"ID":494336,"DIS_CODE":0,"TOWNNAME":"東區","LI":"崇成里","LIN":"8鄰","STREET":"崇德十三街","SECT":" ","MAREA":" ","LANE":" ","ALLEY":" ","HOUSE_NO":"４５號","E_COORD97":170924.87,"N_COORD97":2541311.0099999998,"ADDRESS":"崇德十三街４５號","OBJECTID":494309},"geometry":{"x":170924.87000000197,"y":2541311.0099999998}},{"attributes":{"ID":494337,"DIS_CODE":0,"TOWNNAME":"東區","LI":"崇成里","LIN":"8鄰","STREET":"崇德十三街","SECT":" ","MAREA":" ","LANE":" ","ALLEY":" ","HOUSE_NO":"４７號","E_COORD97":170929.51999999999,"N_COORD97":2541310.8999999999,"ADDRESS":"崇德十三街４７號","OBJECTID":494310},"geometry":{"x":170929.51999999955,"y":2541310.9000000022}},{"attributes":{"ID":494338,"DIS_CODE":0,"TOWNNAME":"東區","LI":"崇成里","LIN":"8鄰","STREET":"崇德十三街","SECT":" ","MAREA":" ","LANE":" ","ALLEY":" ","HOUSE_NO":"４９號","E_COORD97":170934.5,"N_COORD97":2541310.8999999999,"ADDRESS":"崇德十三街４９號","OBJECTID":494311},"geometry":{"x":170934.50000000093,"y":2541310.9000000022}},{"attributes":{"ID":494339,"DIS_CODE":0,"TOWNNAME":"東區","LI":"崇成里","LIN":"8鄰","STREET":"崇德十三街","SECT":" ","MAREA":" ","LANE":" ","ALLEY":" ","HOUSE_NO":"５１號","E_COORD97":170940.13,"N_COORD97":2541311.0099999998,"ADDRESS":"崇德十三街５１號","OBJECTID":494312},"geometry":{"x":170940.13000000082,"y":2541311.0099999998}},{"attributes":{"ID":494340,"DIS_CODE":0,"TOWNNAME":"東區","LI":"崇成里","LIN":"8鄰","STREET":"崇德十三街","SECT":" ","MAREA":" ","LANE":" ","ALLEY":" ","HOUSE_NO":"５３號","E_COORD97":170945.92000000001,"N_COORD97":2541311.1200000001,"ADDRESS":"崇德十三街５３號","OBJECTID":494313},"geometry":{"x":170945.91999999993,"y":2541311.120000001}},{"attributes":{"ID":494341,"DIS_CODE":0,"TOWNNAME":"東區","LI":"崇成里","LIN":"8鄰","STREET":"崇德十三街","SECT":" ","MAREA":" ","LANE":" ","ALLEY":" ","HOUSE_NO":"５５號","E_COORD97":170950.03,"N_COORD97":2541311.1200000001,"ADDRESS":"崇德十三街５５號","OBJECTID":494314},"geometry":{"x":170950.03000000119,"y":2541311.120000001}},{"attributes":{"ID":494342,"DIS_CODE":0,"TOWNNAME":"東區","LI":"崇成里","LIN":"8鄰","STREET":"崇德十三街","SECT":" ","MAREA":" ","LANE":" ","ALLEY":" ","HOUSE_NO":"５７號","E_COORD97":170954.35999999999,"N_COORD97":2541311.0099999998,"ADDRESS":"崇德十三街５７號","OBJECTID":494315},"geometry":{"x":170954.36000000127,"y":2541311.0099999998}},{"attributes":{"ID":494343,"DIS_CODE":0,"TOWNNAME":"東區","LI":"崇成里","LIN":"8鄰","STREET":"崇德十三街","SECT":" ","MAREA":" ","LANE":" ","ALLEY":" ","HOUSE_NO":"５９號","E_COORD97":170958.14999999999,"N_COORD97":2541311.0099999998,"ADDRESS":"崇德十三街５９號","OBJECTID":494316},"geometry":{"x":170958.15000000037,"y":2541311.0099999998}},{"attributes":{"ID":494344,"DIS_CODE":0,"TOWNNAME":"東區","LI":"崇成里","LIN":"8鄰","STREET":"崇德十三街","SECT":" ","MAREA":" ","LANE":" ","ALLEY":" ","HOUSE_NO":"６１號","E_COORD97":170962.26000000001,"N_COORD97":2541311.1200000001,"ADDRESS":"崇德十三街６１號","OBJECTID":494317},"geometry":{"x":170962.25999999978,"y":2541311.120000001}},{"attributes":{"ID":494345,"DIS_CODE":0,"TOWNNAME":"東區","LI":"崇成里","LIN":"8鄰","STREET":"崇德十三街","SECT":" ","MAREA":" ","LANE":" ","ALLEY":" ","HOUSE_NO":"６３號","E_COORD97":170966.26999999999,"N_COORD97":2541311.23,"ADDRESS":"崇德十三街６３號","OBJECTID":494318},"geometry":{"x":170966.27000000048,"y":2541311.2300000023}},{"attributes":{"ID":494346,"DIS_CODE":0,"TOWNNAME":"東區","LI":"崇成里","LIN":"8鄰","STREET":"崇德十三街","SECT":" ","MAREA":" ","LANE":" ","ALLEY":" ","HOUSE_NO":"６５號","E_COORD97":170970.48999999999,"N_COORD97":2541311.23,"ADDRESS":"崇德十三街６５號","OBJECTID":494319},"geometry":{"x":170970.49000000115,"y":2541311.2300000023}},{"attributes":{"ID":494347,"DIS_CODE":0,"TOWNNAME":"東區","LI":"崇成里","LIN":"8鄰","STREET":"崇德十三街","SECT":" ","MAREA":" ","LANE":" ","ALLEY":" ","HOUSE_NO":"６７號","E_COORD97":170974.17000000001,"N_COORD97":2541311.23,"ADDRESS":"崇德十三街６７號","OBJECTID":494320},"geometry":{"x":170974.17000000086,"y":2541311.2300000023}},{"attributes":{"ID":494348,"DIS_CODE":0,"TOWNNAME":"東區","LI":"崇成里","LIN":"8鄰","STREET":"崇德十三街","SECT":" ","MAREA":" ","LANE":" ","ALLEY":" ","HOUSE_NO":"６９號","E_COORD97":170978.28,"N_COORD97":2541311.3399999999,"ADDRESS":"崇德十三街６９號","OBJECTID":494321},"geometry":{"x":170978.28000000212,"y":2541311.3399999999}},{"attributes":{"ID":494349,"DIS_CODE":0,"TOWNNAME":"東區","LI":"崇成里","LIN":"8鄰","STREET":"崇德十三街","SECT":" ","MAREA":" ","LANE":" ","ALLEY":" ","HOUSE_NO":"７１號","E_COORD97":170983.59,"N_COORD97":2541310.2599999998,"ADDRESS":"崇德十三街７１號","OBJECTID":494322},"geometry":{"x":170983.58999999985,"y":2541310.2600000016}},{"attributes":{"ID":494350,"DIS_CODE":0,"TOWNNAME":"東區","LI":"崇成里","LIN":"8鄰","STREET":"崇德十三街","SECT":" ","MAREA":" ","LANE":" ","ALLEY":" ","HOUSE_NO":"７３號","E_COORD97":170989.76000000001,"N_COORD97":2541310.3599999999,"ADDRESS":"崇德十三街７３號","OBJECTID":494323},"geometry":{"x":170989.76000000164,"y":2541310.3600000013}},{"attributes":{"ID":494351,"DIS_CODE":0,"TOWNNAME":"東區","LI":"崇文里","LIN":"8鄰","STREET":"崇善路","SECT":" ","MAREA":" ","LANE":" ","ALLEY":" ","HOUSE_NO":"６４６號","E_COORD97":171144.01000000001,"N_COORD97":2541021.3399999999,"ADDRESS":"崇善路６４６號","OBJECTID":494324},"geometry":{"x":171144.01000000164,"y":2541021.3400000036}},{"attributes":{"ID":494352,"DIS_CODE":0,"TOWNNAME":"東區","LI":"崇文里","LIN":"8鄰","STREET":"崇善路","SECT":" ","MAREA":" ","LANE":" ","ALLEY":" ","HOUSE_NO":"６４８號","E_COORD97":171148.09,"N_COORD97":2541016.0699999998,"ADDRESS":"崇善路６４８號","OBJECTID":494325},"geometry":{"x":171148.08999999985,"y":2541016.0700000003}},{"attributes":{"ID":494353,"DIS_CODE":0,"TOWNNAME":"東區","LI":"崇文里","LIN":"8鄰","STREET":"崇善路","SECT":" ","MAREA":" ","LANE":" ","ALLEY":" ","HOUSE_NO":"６５０號","E_COORD97":171149.09,"N_COORD97":2541011.1899999999,"ADDRESS":"崇善路６５０號","OBJECTID":494326},"geometry":{"x":171149.09000000078,"y":2541011.1899999995}},{"attributes":{"ID":494354,"DIS_CODE":0,"TOWNNAME":"東區","LI":"崇文里","LIN":"8鄰","STREET":"崇善路","SECT":" ","MAREA":" ","LANE":" ","ALLEY":" ","HOUSE_NO":"６５２號","E_COORD97":171149.19,"N_COORD97":2541004.9300000002,"ADDRESS":"崇善路６５２號","OBJECTID":494327},"geometry":{"x":171149.19000000134,"y":2541004.9300000016}},{"attributes":{"ID":494355,"DIS_CODE":0,"TOWNNAME":"東區","LI":"崇明里","LIN":"8鄰","STREET":"大同路","SECT":"二段","MAREA":" ","LANE":" ","ALLEY":" ","HOUSE_NO":"４２７號之１","E_COORD97":169539.03,"N_COORD97":2541343.0600000001,"ADDRESS":"大同路二段４２７號之１","OBJECTID":494328},"geometry":{"x":169539.03000000212,"y":2541343.0600000024}},{"attributes":{"ID":494356,"DIS_CODE":0,"TOWNNAME":"東區","LI":"崇明里","LIN":"8鄰","STREET":"大同路","SECT":"二段","MAREA":" ","LANE":" ","ALLEY":" ","HOUSE_NO":"４２９號","E_COORD97":169540.81,"N_COORD97":2541330.8300000001,"ADDRESS":"大同路二段４２９號","OBJECTID":494329},"geometry":{"x":169540.80999999959,"y":2541330.8300000019}},{"attributes":{"ID":494357,"DIS_CODE":0,"TOWNNAME":"東區","LI":"崇明里","LIN":"8鄰","STREET":"大同路","SECT":"二段","MAREA":" ","LANE":" ","ALLEY":" ","HOUSE_NO":"４３１號","E_COORD97":169543.57999999999,"N_COORD97":2541325.8999999999,"ADDRESS":"大同路二段４３１號","OBJECTID":494330},"geometry":{"x":169543.58000000194,"y":2541325.9000000004}},{"attributes":{"ID":494358,"DIS_CODE":0,"TOWNNAME":"東區","LI":"崇明里","LIN":"8鄰","STREET":"大同路","SECT":"二段","MAREA":" ","LANE":" ","ALLEY":" ","HOUSE_NO":"４３３號","E_COORD97":169544.37,"N_COORD97":2541321.5600000001,"ADDRESS":"大同路二段４３３號","OBJECTID":494331},"geometry":{"x":169544.37000000011,"y":2541321.5600000005}},{"attributes":{"ID":494359,"DIS_CODE":0,"TOWNNAME":"東區","LI":"崇明里","LIN":"8鄰","STREET":"大同路","SECT":"二段","MAREA":" ","LANE":" ","ALLEY":" ","HOUSE_NO":"４３５之２號","E_COORD97":169550.45000000001,"N_COORD97":2541294.8599999999,"ADDRESS":"大同路二段４３５之２號","OBJECTID":494332},"geometry":{"x":169550.45000000112,"y":2541294.8599999994}},{"attributes":{"ID":494360,"DIS_CODE":0,"TOWNNAME":"東區","LI":"崇明里","LIN":"8鄰","STREET":"大同路","SECT":"二段","MAREA":" ","LANE":" ","ALLEY":" ","HOUSE_NO":"４３７號","E_COORD97":169548.91,"N_COORD97":2541302.2200000002,"ADDRESS":"大同路二段４３７號","OBJECTID":494333},"geometry":{"x":169548.91000000108,"y":2541302.2200000025}},{"attributes":{"ID":494361,"DIS_CODE":0,"TOWNNAME":"中西區","LI":"三合里","LIN":"8鄰","STREET":"成功路","SECT":" ","MAREA":" ","LANE":" ","ALLEY":" ","HOUSE_NO":"４４５號","E_COORD97":167661.39000000001,"N_COORD97":2544609.6000000001,"ADDRESS":"成功路４４５號","OBJECTID":494334},"geometry":{"x":167661.3900000006,"y":2544609.6000000034}},{"attributes":{"ID":494362,"DIS_CODE":0,"TOWNNAME":"中西區","LI":"保安里","LIN":"8鄰","STREET":"國華街","SECT":"二段","MAREA":" ","LANE":" ","ALLEY":" ","HOUSE_NO":"１１７之１號","E_COORD97":167654.32000000001,"N_COORD97":2543530.1600000001,"ADDRESS":"國華街二段１１７之１號","OBJECTID":494335},"geometry":{"x":167654.32000000123,"y":2543530.1600000001}},{"attributes":{"ID":494363,"DIS_CODE":0,"TOWNNAME":"中西區","LI":"保安里","LIN":"8鄰","STREET":"國華街","SECT":"二段","MAREA":" ","LANE":" ","ALLEY":" ","HOUSE_NO":"１１７號","E_COORD97":167653.45999999999,"N_COORD97":2543525.3399999999,"ADDRESS":"國華街二段１１７號","OBJECTID":494336},"geometry":{"x":167653.45999999996,"y":2543525.3399999999}},{"attributes":{"ID":494364,"DIS_CODE":0,"TOWNNAME":"中西區","LI":"保安里","LIN":"8鄰","STREET":"國華街","SECT":"二段","MAREA":" ","LANE":" ","ALLEY":" ","HOUSE_NO":"１２３號","E_COORD97":167661.38,"N_COORD97":2543545.6299999999,"ADDRESS":"國華街二段１２３號","OBJECTID":494337},"geometry":{"x":167661.38000000175,"y":2543545.6300000008}},{"attributes":{"ID":494365,"DIS_CODE":0,"TOWNNAME":"中西區","LI":"保安里","LIN":"8鄰","STREET":"國華街","SECT":"二段","MAREA":" ","LANE":" ","ALLEY":" ","HOUSE_NO":"１２５號","E_COORD97":167662.75,"N_COORD97":2543551.4700000002,"ADDRESS":"國華街二段１２５號","OBJECTID":494338},"geometry":{"x":167662.75000000093,"y":2543551.4700000025}},{"attributes":{"ID":494366,"DIS_CODE":0,"TOWNNAME":"中西區","LI":"保安里","LIN":"8鄰","STREET":"國華街","SECT":"二段","MAREA":" ","LANE":" ","ALLEY":" ","HOUSE_NO":"１４８號","E_COORD97":167676.17999999999,"N_COORD97":2543535.6600000001,"ADDRESS":"國華街二段１４８號","OBJECTID":494339},"geometry":{"x":167676.18000000156,"y":2543535.660000002}},{"attributes":{"ID":494367,"DIS_CODE":0,"TOWNNAME":"中西區","LI":"保安里","LIN":"8鄰","STREET":"國華街","SECT":"二段","MAREA":" ","LANE":" ","ALLEY":" ","HOUSE_NO":"１５０號","E_COORD97":167677.04000000001,"N_COORD97":2543540.1299999999,"ADDRESS":"國華街二段１５０號","OBJECTID":494340},"geometry":{"x":167677.04000000004,"y":2543540.129999999}},{"attributes":{"ID":494368,"DIS_CODE":0,"TOWNNAME":"中西區","LI":"保安里","LIN":"8鄰","STREET":"國華街","SECT":"二段","MAREA":" ","LANE":" ","ALLEY":" ","HOUSE_NO":"１５２號","E_COORD97":167678.92999999999,"N_COORD97":2543545.2799999998,"ADDRESS":"國華街二段１５２號","OBJECTID":494341},"geometry":{"x":167678.9299999997,"y":2543545.2800000012}},{"attributes":{"ID":494369,"DIS_CODE":0,"TOWNNAME":"中西區","LI":"水仙里","LIN":"8鄰","STREET":"民權路","SECT":"三段","MAREA":" ","LANE":" ","ALLEY":" ","HOUSE_NO":"２７號","E_COORD97":167867.03,"N_COORD97":2544090.9100000001,"ADDRESS":"民權路三段２７號","OBJECTID":494342},"geometry":{"x":167867.03000000026,"y":2544090.910000002}},{"attributes":{"ID":494370,"DIS_CODE":0,"TOWNNAME":"中西區","LI":"水仙里","LIN":"8鄰","STREET":"民權路","SECT":"三段","MAREA":" ","LANE":" ","ALLEY":" ","HOUSE_NO":"２９號","E_COORD97":167862.57999999999,"N_COORD97":2544091.3300000001,"ADDRESS":"民權路三段２９號","OBJECTID":494343},"geometry":{"x":167862.58000000101,"y":2544091.3300000019}},{"attributes":{"ID":494371,"DIS_CODE":0,"TOWNNAME":"中西區","LI":"水仙里","LIN":"8鄰","STREET":"民權路","SECT":"三段","MAREA":" ","LANE":" ","ALLEY":" ","HOUSE_NO":"３１號","E_COORD97":167857.56,"N_COORD97":2544093.4199999999,"ADDRESS":"民權路三段３１號","OBJECTID":494344},"geometry":{"x":167857.55999999959,"y":2544093.4200000018}},{"attributes":{"ID":494372,"DIS_CODE":0,"TOWNNAME":"中西區","LI":"水仙里","LIN":"8鄰","STREET":"民權路","SECT":"三段","MAREA":" ","LANE":" ","ALLEY":" ","HOUSE_NO":"３３號","E_COORD97":167853.81,"N_COORD97":2544094.25,"ADDRESS":"民權路三段３３號","OBJECTID":494345},"geometry":{"x":167853.81000000052,"y":2544094.2500000019}},{"attributes":{"ID":494373,"DIS_CODE":0,"TOWNNAME":"中西區","LI":"水仙里","LIN":"8鄰","STREET":"民權路","SECT":"三段","MAREA":" ","LANE":" ","ALLEY":" ","HOUSE_NO":"３５號","E_COORD97":167849.20999999999,"N_COORD97":2544095.3700000001,"ADDRESS":"民權路三段３５號","OBJECTID":494346},"geometry":{"x":167849.21000000089,"y":2544095.3700000029}},{"attributes":{"ID":494374,"DIS_CODE":0,"TOWNNAME":"中西區","LI":"水仙里","LIN":"8鄰","STREET":"民權路","SECT":"三段","MAREA":" ","LANE":" ","ALLEY":" ","HOUSE_NO":"３７號","E_COORD97":167844.62,"N_COORD97":2544097.1699999999,"ADDRESS":"民權路三段３７號","OBJECTID":494347},"geometry":{"x":167844.61999999918,"y":2544097.1699999999}},{"attributes":{"ID":494375,"DIS_CODE":0,"TOWNNAME":"中西區","LI":"水仙里","LIN":"8鄰","STREET":"民權路","SECT":"三段","MAREA":" ","LANE":" ","ALLEY":" ","HOUSE_NO":"４１號","E_COORD97":167835.70999999999,"N_COORD97":2544099.8199999998,"ADDRESS":"民權路三段４１號","OBJECTID":494348},"geometry":{"x":167835.71000000089,"y":2544099.8200000003}},{"attributes":{"ID":494376,"DIS_CODE":0,"TOWNNAME":"中西區","LI":"水仙里","LIN":"8鄰","STREET":"民權路","SECT":"三段","MAREA":" ","LANE":" ","ALLEY":" ","HOUSE_NO":"４５號","E_COORD97":167825.26999999999,"N_COORD97":2544108.3399999999,"ADDRESS":"民權路三段４５號","OBJECTID":494349},"geometry":{"x":167825.27000000048,"y":2544108.3399999999}},{"attributes":{"ID":494377,"DIS_CODE":0,"TOWNNAME":"中西區","LI":"水仙里","LIN":"8鄰","STREET":"民權路","SECT":"三段","MAREA":" ","LANE":" ","ALLEY":" ","HOUSE_NO":"４７號","E_COORD97":167821.51000000001,"N_COORD97":2544105.0099999998,"ADDRESS":"民權路三段４７號","OBJECTID":494350},"geometry":{"x":167821.51000000164,"y":2544105.0099999998}},{"attributes":{"ID":494378,"DIS_CODE":0,"TOWNNAME":"中西區","LI":"水仙里","LIN":"8鄰","STREET":"民權路","SECT":"三段","MAREA":" ","LANE":" ","ALLEY":" ","HOUSE_NO":"４９號","E_COORD97":167816.92000000001,"N_COORD97":2544106.1200000001,"ADDRESS":"民權路三段４９號","OBJECTID":494351},"geometry":{"x":167816.91999999993,"y":2544106.1200000048}},{"attributes":{"ID":494379,"DIS_CODE":0,"TOWNNAME":"中西區","LI":"水仙里","LIN":"8鄰","STREET":"民權路","SECT":"三段","MAREA":" ","LANE":" ","ALLEY":" ","HOUSE_NO":"５１號","E_COORD97":167812.57999999999,"N_COORD97":2544108.75,"ADDRESS":"民權路三段５１號","OBJECTID":494352},"geometry":{"x":167812.58000000007,"y":2544108.7500000019}},{"attributes":{"ID":494380,"DIS_CODE":0,"TOWNNAME":"中西區","LI":"水仙里","LIN":"8鄰","STREET":"民權路","SECT":"三段","MAREA":" ","LANE":" ","ALLEY":" ","HOUSE_NO":"５３號","E_COORD97":167807.04000000001,"N_COORD97":2544111.54,"ADDRESS":"民權路三段５３號","OBJECTID":494353},"geometry":{"x":167807.04000000097,"y":2544111.540000001}},{"attributes":{"ID":494381,"DIS_CODE":0,"TOWNNAME":"中西區","LI":"水仙里","LIN":"8鄰","STREET":"民權路","SECT":"三段","MAREA":" ","LANE":" ","ALLEY":" ","HOUSE_NO":"５５號","E_COORD97":167802.72,"N_COORD97":2544114.0499999998,"ADDRESS":"民權路三段５５號","OBJECTID":494354},"geometry":{"x":167802.71999999974,"y":2544114.0500000026}},{"attributes":{"ID":494382,"DIS_CODE":0,"TOWNNAME":"中西區","LI":"水仙里","LIN":"8鄰","STREET":"民權路","SECT":"三段","MAREA":" ","LANE":" ","ALLEY":" ","HOUSE_NO":"５７號","E_COORD97":167795.62,"N_COORD97":2544117.1099999999,"ADDRESS":"民權路三段５７號","OBJECTID":494355},"geometry":{"x":167795.62000000197,"y":2544117.1099999994}},{"attributes":{"ID":494383,"DIS_CODE":0,"TOWNNAME":"中西區","LI":"水仙里","LIN":"8鄰","STREET":"仁愛街","SECT":" ","MAREA":" ","LANE":" ","ALLEY":" ","HOUSE_NO":"３８號","E_COORD97":167760.67999999999,"N_COORD97":2544029.7999999998,"ADDRESS":"仁愛街３８號","OBJECTID":494356},"geometry":{"x":167760.6799999997,"y":2544029.8000000045}},{"attributes":{"ID":494384,"DIS_CODE":0,"TOWNNAME":"中西區","LI":"水仙里","LIN":"8鄰","STREET":"仁愛街","SECT":" ","MAREA":" ","LANE":" ","ALLEY":" ","HOUSE_NO":"４０號","E_COORD97":167774.98999999999,"N_COORD97":2544051.71,"ADDRESS":"仁愛街４０號","OBJECTID":494357},"geometry":{"x":167774.99000000115,"y":2544051.7100000028}},{"attributes":{"ID":494385,"DIS_CODE":0,"TOWNNAME":"中西區","LI":"水仙里","LIN":"8鄰","STREET":"仁愛街","SECT":" ","MAREA":" ","LANE":" ","ALLEY":" ","HOUSE_NO":"４２號","E_COORD97":167774.98999999999,"N_COORD97":2544056.1099999999,"ADDRESS":"仁愛街４２號","OBJECTID":494358},"geometry":{"x":167774.99000000115,"y":2544056.1099999994}},{"attributes":{"ID":494386,"DIS_CODE":0,"TOWNNAME":"中西區","LI":"水仙里","LIN":"8鄰","STREET":"仁愛街","SECT":" ","MAREA":" ","LANE":" ","ALLEY":" ","HOUSE_NO":"４２號之１","E_COORD97":167777.85999999999,"N_COORD97":2544060.73,"ADDRESS":"仁愛街４２號之１","OBJECTID":494359},"geometry":{"x":167777.86000000127,"y":2544060.7300000023}},{"attributes":{"ID":494387,"DIS_CODE":0,"TOWNNAME":"中西區","LI":"水仙里","LIN":"8鄰","STREET":"仁愛街","SECT":" ","MAREA":" ","LANE":" ","ALLEY":" ","HOUSE_NO":"４６號","E_COORD97":167778.51999999999,"N_COORD97":2544064.7000000002,"ADDRESS":"仁愛街４６號","OBJECTID":494360},"geometry":{"x":167778.51999999955,"y":2544064.6999999993}},{"attributes":{"ID":494388,"DIS_CODE":0,"TOWNNAME":"中西區","LI":"水仙里","LIN":"8鄰","STREET":"仁愛街","SECT":" ","MAREA":" ","LANE":" ","ALLEY":" ","HOUSE_NO":"４８號","E_COORD97":167778.29999999999,"N_COORD97":2544069.3199999998,"ADDRESS":"仁愛街４８號","OBJECTID":494361},"geometry":{"x":167778.29999999981,"y":2544069.3200000003}},{"attributes":{"ID":494389,"DIS_CODE":0,"TOWNNAME":"中西區","LI":"水仙里","LIN":"8鄰","STREET":"仁愛街","SECT":" ","MAREA":" ","LANE":" ","ALLEY":" ","HOUSE_NO":"５０號","E_COORD97":167778.73999999999,"N_COORD97":2544074.3799999999,"ADDRESS":"仁愛街５０號","OBJECTID":494362},"geometry":{"x":167778.74000000115,"y":2544074.379999999}},{"attributes":{"ID":494390,"DIS_CODE":0,"TOWNNAME":"中西區","LI":"水仙里","LIN":"8鄰","STREET":"仁愛街","SECT":" ","MAREA":" ","LANE":" ","ALLEY":" ","HOUSE_NO":"５２號","E_COORD97":167781.60000000001,"N_COORD97":2544078.3500000001,"ADDRESS":"仁愛街５２號","OBJECTID":494363},"geometry":{"x":167781.60000000149,"y":2544078.3499999996}},{"attributes":{"ID":494391,"DIS_CODE":0,"TOWNNAME":"中西區","LI":"水仙里","LIN":"8鄰","STREET":"仁愛街","SECT":" ","MAREA":" ","LANE":" ","ALLEY":" ","HOUSE_NO":"５４號","E_COORD97":167782.48999999999,"N_COORD97":2544081.4300000002,"ADDRESS":"仁愛街５４號","OBJECTID":494364},"geometry":{"x":167782.49000000022,"y":2544081.4299999997}},{"attributes":{"ID":494392,"DIS_CODE":0,"TOWNNAME":"中西區","LI":"水仙里","LIN":"8鄰","STREET":"仁愛街","SECT":" ","MAREA":" ","LANE":" ","ALLEY":" ","HOUSE_NO":"５６號","E_COORD97":167782.04999999999,"N_COORD97":2544085.8300000001,"ADDRESS":"仁愛街５６號","OBJECTID":494365},"geometry":{"x":167782.04999999981,"y":2544085.8300000001}},{"attributes":{"ID":494393,"DIS_CODE":0,"TOWNNAME":"中西區","LI":"水仙里","LIN":"8鄰","STREET":"仁愛街","SECT":" ","MAREA":" ","LANE":" ","ALLEY":" ","HOUSE_NO":"５８號","E_COORD97":167782.48999999999,"N_COORD97":2544090.0099999998,"ADDRESS":"仁愛街５８號","OBJECTID":494366},"geometry":{"x":167782.49000000022,"y":2544090.0100000016}},{"attributes":{"ID":494394,"DIS_CODE":0,"TOWNNAME":"中西區","LI":"水仙里","LIN":"8鄰","STREET":"仁愛街","SECT":" ","MAREA":" ","LANE":" ","ALLEY":" ","HOUSE_NO":"６０號","E_COORD97":167784.35000000001,"N_COORD97":2544103.75,"ADDRESS":"仁愛街６０號","OBJECTID":494367},"geometry":{"x":167784.34999999963,"y":2544103.7499999981}},{"attributes":{"ID":494395,"DIS_CODE":0,"TOWNNAME":"中西區","LI":"水仙里","LIN":"8鄰","STREET":"仁愛街","SECT":" ","MAREA":" ","LANE":" ","ALLEY":" ","HOUSE_NO":"６２號","E_COORD97":167789.35999999999,"N_COORD97":2544107.3700000001,"ADDRESS":"仁愛街６２號","OBJECTID":494368},"geometry":{"x":167789.36000000127,"y":2544107.3699999992}},{"attributes":{"ID":494396,"DIS_CODE":0,"TOWNNAME":"中西區","LI":"水仙里","LIN":"8鄰","STREET":"仁愛街","SECT":" ","MAREA":" ","LANE":" ","ALLEY":" ","HOUSE_NO":"６４號","E_COORD97":167791.45000000001,"N_COORD97":2544112.9300000002,"ADDRESS":"仁愛街６４號","OBJECTID":494369},"geometry":{"x":167791.45000000019,"y":2544112.9300000016}},{"attributes":{"ID":494397,"DIS_CODE":0,"TOWNNAME":"中西區","LI":"郡西里","LIN":"8鄰","STREET":"建安街","SECT":" ","MAREA":" ","LANE":" ","ALLEY":" ","HOUSE_NO":"７０號","E_COORD97":167422.94,"N_COORD97":2543264.1800000002,"ADDRESS":"建安街７０號","OBJECTID":494370},"geometry":{"x":167422.94000000134,"y":2543264.1800000016}},{"attributes":{"ID":494398,"DIS_CODE":0,"TOWNNAME":"中西區","LI":"郡西里","LIN":"8鄰","STREET":"郡西路","SECT":" ","MAREA":" ","LANE":" ","ALLEY":" ","HOUSE_NO":"８６號","E_COORD97":167421.32000000001,"N_COORD97":2543388.2200000002,"ADDRESS":"郡西路８６號","OBJECTID":494371},"geometry":{"x":167421.3200000003,"y":2543388.2200000007}},{"attributes":{"ID":494399,"DIS_CODE":0,"TOWNNAME":"下營區","LI":"仁里里","LIN":"8鄰","STREET":"公園路","SECT":" ","MAREA":" ","LANE":" ","ALLEY":" ","HOUSE_NO":"１１０號","E_COORD97":174163.26999999999,"N_COORD97":2570280.9399999999,"ADDRESS":"公園路１１０號","OBJECTID":494372},"geometry":{"x":174163.27000000048,"y":2570280.9399999995}},{"attributes":{"ID":494400,"DIS_CODE":0,"TOWNNAME":"下營區","LI":"仁里里","LIN":"8鄰","STREET":"公園路","SECT":" ","MAREA":" ","LANE":" ","ALLEY":" ","HOUSE_NO":"１２０號","E_COORD97":174145.13,"N_COORD97":2570273.2799999998,"ADDRESS":"公園路１２０號","OBJECTID":494373},"geometry":{"x":174145.12999999989,"y":2570273.2800000031}},{"attributes":{"ID":494401,"DIS_CODE":0,"TOWNNAME":"下營區","LI":"仁里里","LIN":"8鄰","STREET":"公園路","SECT":" ","MAREA":" ","LANE":" ","ALLEY":" ","HOUSE_NO":"１２６號","E_COORD97":174132.81,"N_COORD97":2570272.6000000001,"ADDRESS":"公園路１２６號","OBJECTID":494374},"geometry":{"x":174132.81000000052,"y":2570272.6000000015}},{"attributes":{"ID":494402,"DIS_CODE":0,"TOWNNAME":"下營區","LI":"仁里里","LIN":"8鄰","STREET":"公園路","SECT":" ","MAREA":" ","LANE":" ","ALLEY":" ","HOUSE_NO":"１３２號","E_COORD97":174117.45999999999,"N_COORD97":2570272.71,"ADDRESS":"公園路１３２號","OBJECTID":494375},"geometry":{"x":174117.45999999996,"y":2570272.7100000028}},{"attributes":{"ID":494403,"DIS_CODE":0,"TOWNNAME":"下營區","LI":"仁里里","LIN":"8鄰","STREET":"公園路","SECT":" ","MAREA":" ","LANE":" ","ALLEY":" ","HOUSE_NO":"１４２號","E_COORD97":174096.01000000001,"N_COORD97":2570276.8700000001,"ADDRESS":"公園路１４２號","OBJECTID":494376},"geometry":{"x":174096.01000000071,"y":2570276.870000001}},{"attributes":{"ID":494404,"DIS_CODE":0,"TOWNNAME":"下營區","LI":"仁里里","LIN":"8鄰","STREET":"公園路","SECT":" ","MAREA":" ","LANE":" ","ALLEY":" ","HOUSE_NO":"１４６號","E_COORD97":174091.60000000001,"N_COORD97":2570277.1200000001,"ADDRESS":"公園路１４６號","OBJECTID":494377},"geometry":{"x":174091.60000000056,"y":2570277.1200000029}},{"attributes":{"ID":494405,"DIS_CODE":0,"TOWNNAME":"下營區","LI":"仁里里","LIN":"8鄰","STREET":"公園路","SECT":" ","MAREA":" ","LANE":" ","ALLEY":" ","HOUSE_NO":"１４８號","E_COORD97":174087.75,"N_COORD97":2570277.3300000001,"ADDRESS":"公園路１４８號","OBJECTID":494378},"geometry":{"x":174087.75000000093,"y":2570277.3300000038}},{"attributes":{"ID":494406,"DIS_CODE":0,"TOWNNAME":"下營區","LI":"仁里里","LIN":"8鄰","STREET":"公園路","SECT":" ","MAREA":" ","LANE":" ","ALLEY":" ","HOUSE_NO":"１５０號","E_COORD97":174076.64999999999,"N_COORD97":2570277.2799999998,"ADDRESS":"公園路１５０號","OBJECTID":494379},"geometry":{"x":174076.6500000013,"y":2570277.2800000012}},{"attributes":{"ID":494407,"DIS_CODE":0,"TOWNNAME":"下營區","LI":"仁里里","LIN":"8鄰","STREET":"公園路","SECT":" ","MAREA":" ","LANE":" ","ALLEY":" ","HOUSE_NO":"１５６號","E_COORD97":174072.95999999999,"N_COORD97":2570277.27,"ADDRESS":"公園路１５６號","OBJECTID":494380},"geometry":{"x":174072.95999999996,"y":2570277.2700000033}},{"attributes":{"ID":494408,"DIS_CODE":0,"TOWNNAME":"下營區","LI":"仁里里","LIN":"8鄰","STREET":"公園路","SECT":" ","MAREA":" ","LANE":" ","ALLEY":" ","HOUSE_NO":"１７２號","E_COORD97":174040.01999999999,"N_COORD97":2570285.9399999999,"ADDRESS":"公園路１７２號","OBJECTID":494381},"geometry":{"x":174040.01999999955,"y":2570285.9400000032}},{"attributes":{"ID":494409,"DIS_CODE":0,"TOWNNAME":"下營區","LI":"仁里里","LIN":"8鄰","STREET":"公園路","SECT":" ","MAREA":" ","LANE":" ","ALLEY":" ","HOUSE_NO":"１７６號","E_COORD97":174035.91,"N_COORD97":2570286.0800000001,"ADDRESS":"公園路１７６號","OBJECTID":494382},"geometry":{"x":174035.91000000108,"y":2570286.0800000019}},{"attributes":{"ID":494410,"DIS_CODE":0,"TOWNNAME":"下營區","LI":"仁里里","LIN":"8鄰","STREET":"公園路","SECT":" ","MAREA":" ","LANE":" ","ALLEY":" ","HOUSE_NO":"１８２號","E_COORD97":174013.63,"N_COORD97":2570277.0099999998,"ADDRESS":"公園路１８２號","OBJECTID":494383},"geometry":{"x":174013.63000000082,"y":2570277.0100000016}},{"attributes":{"ID":494411,"DIS_CODE":0,"TOWNNAME":"下營區","LI":"仁里里","LIN":"8鄰","STREET":"公園路","SECT":" ","MAREA":" ","LANE":" ","ALLEY":" ","HOUSE_NO":"１８６號","E_COORD97":174008.79999999999,"N_COORD97":2570277.4500000002,"ADDRESS":"公園路１８６號","OBJECTID":494384},"geometry":{"x":174008.80000000075,"y":2570277.4499999993}},{"attributes":{"ID":494412,"DIS_CODE":0,"TOWNNAME":"下營區","LI":"仁里里","LIN":"8鄰","STREET":"公園路","SECT":" ","MAREA":" ","LANE":" ","ALLEY":" ","HOUSE_NO":"２４０號","E_COORD97":173920.42000000001,"N_COORD97":2570281.1800000002,"ADDRESS":"公園路２４０號","OBJECTID":494385},"geometry":{"x":173920.42000000086,"y":2570281.1800000034}},{"attributes":{"ID":494413,"DIS_CODE":0,"TOWNNAME":"下營區","LI":"仁里里","LIN":"8鄰","STREET":"公園路","SECT":" ","MAREA":" ","LANE":" ","ALLEY":" ","HOUSE_NO":"２４２號","E_COORD97":173916.79000000001,"N_COORD97":2570281.3300000001,"ADDRESS":"公園路２４２號","OBJECTID":494386},"geometry":{"x":173916.79000000004,"y":2570281.3300000019}},{"attributes":{"ID":494414,"DIS_CODE":0,"TOWNNAME":"下營區","LI":"仁里里","LIN":"8鄰","STREET":"公園路","SECT":" ","MAREA":" ","LANE":" ","ALLEY":" ","HOUSE_NO":"２４６號","E_COORD97":173912.84,"N_COORD97":2570281.4900000002,"ADDRESS":"公園路２４６號","OBJECTID":494387},"geometry":{"x":173912.83999999985,"y":2570281.4900000002}},{"attributes":{"ID":494415,"DIS_CODE":0,"TOWNNAME":"下營區","LI":"仁里里","LIN":"8鄰","STREET":"公園路","SECT":" ","MAREA":" ","LANE":" ","ALLEY":" ","HOUSE_NO":"２４８號","E_COORD97":173908.73000000001,"N_COORD97":2570281.2799999998,"ADDRESS":"公園路２４８號","OBJECTID":494388},"geometry":{"x":173908.73000000138,"y":2570281.2800000012}},{"attributes":{"ID":494416,"DIS_CODE":0,"TOWNNAME":"下營區","LI":"仁里里","LIN":"8鄰","STREET":"公園路","SECT":" ","MAREA":" ","LANE":" ","ALLEY":" ","HOUSE_NO":"２５０號","E_COORD97":173904.48000000001,"N_COORD97":2570281.0099999998,"ADDRESS":"公園路２５０號","OBJECTID":494389},"geometry":{"x":173904.48000000045,"y":2570281.0099999998}},{"attributes":{"ID":494417,"DIS_CODE":0,"TOWNNAME":"下營區","LI":"仁里里","LIN":"8鄰","STREET":"公園路","SECT":" ","MAREA":" ","LANE":" ","ALLEY":" ","HOUSE_NO":"２５２號","E_COORD97":173900.48000000001,"N_COORD97":2570281.3300000001,"ADDRESS":"公園路２５２號","OBJECTID":494390},"geometry":{"x":173900.48000000045,"y":2570281.3300000019}},{"attributes":{"ID":494418,"DIS_CODE":0,"TOWNNAME":"下營區","LI":"仁里里","LIN":"8鄰","STREET":"公園路","SECT":" ","MAREA":" ","LANE":" ","ALLEY":" ","HOUSE_NO":"２５６號","E_COORD97":173896.01000000001,"N_COORD97":2570290.3799999999,"ADDRESS":"公園路２５６號","OBJECTID":494391},"geometry":{"x":173896.01000000071,"y":2570290.3800000008}},{"attributes":{"ID":494419,"DIS_CODE":0,"TOWNNAME":"下營區","LI":"仁里里","LIN":"8鄰","STREET":"公園路","SECT":" ","MAREA":" ","LANE":" ","ALLEY":" ","HOUSE_NO":"２５８號","E_COORD97":173891.20999999999,"N_COORD97":2570280.8599999999,"ADDRESS":"公園路２５８號","OBJECTID":494392},"geometry":{"x":173891.21000000089,"y":2570280.8600000013}},{"attributes":{"ID":494420,"DIS_CODE":0,"TOWNNAME":"下營區","LI":"仁里里","LIN":"8鄰","STREET":"公園路","SECT":" ","MAREA":" ","LANE":" ","ALLEY":" ","HOUSE_NO":"２６０號","E_COORD97":173886.53,"N_COORD97":2570280.5899999999,"ADDRESS":"公園路２６０號","OBJECTID":494393},"geometry":{"x":173886.53000000026,"y":2570280.5899999999}},{"attributes":{"ID":494421,"DIS_CODE":0,"TOWNNAME":"下營區","LI":"仁里里","LIN":"8鄰","STREET":"公園路","SECT":" ","MAREA":" ","LANE":" ","ALLEY":" ","HOUSE_NO":"２６２號","E_COORD97":173882.01999999999,"N_COORD97":2570280.9700000002,"ADDRESS":"公園路２６２號","OBJECTID":494394},"geometry":{"x":173882.02000000048,"y":2570280.9700000025}},{"attributes":{"ID":494422,"DIS_CODE":0,"TOWNNAME":"下營區","LI":"仁里里","LIN":"8鄰","STREET":"公園路","SECT":" ","MAREA":" ","LANE":" ","ALLEY":" ","HOUSE_NO":"２６６號","E_COORD97":173877.57000000001,"N_COORD97":2570280.8100000001,"ADDRESS":"公園路２６６號","OBJECTID":494395},"geometry":{"x":173877.57000000123,"y":2570280.8100000005}},{"attributes":{"ID":494423,"DIS_CODE":0,"TOWNNAME":"下營區","LI":"仁里里","LIN":"8鄰","STREET":"公園路","SECT":" ","MAREA":" ","LANE":" ","ALLEY":" ","HOUSE_NO":"２７８號","E_COORD97":173852.32999999999,"N_COORD97":2570281.6299999999,"ADDRESS":"公園路２７８號","OBJECTID":494396},"geometry":{"x":173852.33000000007,"y":2570281.6300000008}},{"attributes":{"ID":494424,"DIS_CODE":0,"TOWNNAME":"下營區","LI":"後街里","LIN":"8鄰","STREET":"玄德街","SECT":" ","MAREA":" ","LANE":" ","ALLEY":" ","HOUSE_NO":"１００號","E_COORD97":174367.31,"N_COORD97":2570715.6800000002,"ADDRESS":"玄德街１００號","OBJECTID":494397},"geometry":{"x":174367.30999999959,"y":2570715.6800000016}},{"attributes":{"ID":494425,"DIS_CODE":0,"TOWNNAME":"下營區","LI":"後街里","LIN":"8鄰","STREET":"玄德街","SECT":" ","MAREA":" ","LANE":" ","ALLEY":" ","HOUSE_NO":"１０２號","E_COORD97":174368.59,"N_COORD97":2570723.1800000002,"ADDRESS":"玄德街１０２號","OBJECTID":494398},"geometry":{"x":174368.59000000078,"y":2570723.1800000016}},{"attributes":{"ID":494426,"DIS_CODE":0,"TOWNNAME":"下營區","LI":"下營里","LIN":"8鄰","STREET":"民生街","SECT":" ","MAREA":" ","LANE":" ","ALLEY":" ","HOUSE_NO":"２０號","E_COORD97":174496.73000000001,"N_COORD97":2570435.5800000001,"ADDRESS":"民生街２０號","OBJECTID":494399},"geometry":{"x":174496.73000000138,"y":2570435.5800000019}},{"attributes":{"ID":494427,"DIS_CODE":0,"TOWNNAME":"下營區","LI":"下營里","LIN":"8鄰","STREET":"民生街","SECT":" ","MAREA":" ","LANE":" ","ALLEY":" ","HOUSE_NO":"２２號","E_COORD97":174491.17000000001,"N_COORD97":2570432.7400000002,"ADDRESS":"民生街２２號","OBJECTID":494400},"geometry":{"x":174491.17000000179,"y":2570432.7400000002}}]}