{"displayFieldName":"TOWNNAME","fieldAliases":{"ID":"ID","DIS_CODE":"DIS_CODE","TOWNNAME":"TOWNNAME","LI":"LI","LIN":"LIN","STREET":"STREET","SECT":"SECT","MAREA":"MAREA","LANE":"LANE","ALLEY":"ALLEY","HOUSE_NO":"HOUSE_NO","E_COORD97":"E_COORD97","N_COORD97":"N_COORD97","ADDRESS":"ADDRESS","OBJECTID":"OBJECTID"},"geometryType":"esriGeometryPoint","spatialReference":{"wkid":102443,"latestWkid":3826},"fields":[{"name":"ID","type":"esriFieldTypeDouble","alias":"ID"},{"name":"DIS_CODE","type":"esriFieldTypeInteger","alias":"DIS_CODE"},{"name":"TOWNNAME","type":"esriFieldTypeString","alias":"TOWNNAME","length":8},{"name":"LI","type":"esriFieldTypeString","alias":"LI","length":8},{"name":"LIN","type":"esriFieldTypeString","alias":"LIN","length":12},{"name":"STREET","type":"esriFieldTypeString","alias":"STREET","length":20},{"name":"SECT","type":"esriFieldTypeString","alias":"SECT","length":8},{"name":"MAREA","type":"esriFieldTypeString","alias":"MAREA","length":12},{"name":"LANE","type":"esriFieldTypeString","alias":"LANE","length":10},{"name":"ALLEY","type":"esriFieldTypeString","alias":"ALLEY","length":10},{"name":"HOUSE_NO","type":"esriFieldTypeString","alias":"HOUSE_NO","length":20},{"name":"E_COORD97","type":"esriFieldTypeDouble","alias":"E_COORD97"},{"name":"N_COORD97","type":"esriFieldTypeDouble","alias":"N_COORD97"},{"name":"ADDRESS","type":"esriFieldTypeString","alias":"ADDRESS","length":50},{"name":"OBJECTID","type":"esriFieldTypeOID","alias":"OBJECTID"}],"features":[{"attributes":{"ID":664628,"DIS_CODE":0,"TOWNNAME":"南區","LI":"荔宅里","LIN":"2鄰","STREET":"興昌路","SECT":" ","MAREA":" ","LANE":"３８巷","ALLEY":"２９弄","HOUSE_NO":"１０號","E_COORD97":167881.77020999999,"N_COORD97":2542038.16439,"ADDRESS":"興昌路３８巷２９弄１０號","OBJECTID":664601},"geometry":{"x":167881.77021000162,"y":2542038.1643940005}},{"attributes":{"ID":664629,"DIS_CODE":0,"TOWNNAME":"南區","LI":"荔宅里","LIN":"2鄰","STREET":"興昌路","SECT":" ","MAREA":" ","LANE":"３８巷","ALLEY":"２９弄","HOUSE_NO":"８號","E_COORD97":167884.94682099999,"N_COORD97":2542038.4818899999,"ADDRESS":"興昌路３８巷２９弄８號","OBJECTID":664602},"geometry":{"x":167884.94682100136,"y":2542038.4818939995}},{"attributes":{"ID":664630,"DIS_CODE":0,"TOWNNAME":"南區","LI":"荔宅里","LIN":"2鄰","STREET":"興昌路","SECT":" ","MAREA":" ","LANE":"３８巷","ALLEY":"２９弄","HOUSE_NO":"６號","E_COORD97":167887.69988299999,"N_COORD97":2542038.69356,"ADDRESS":"興昌路３８巷２９弄６號","OBJECTID":664603},"geometry":{"x":167887.69988300093,"y":2542038.6935610007}},{"attributes":{"ID":664631,"DIS_CODE":0,"TOWNNAME":"南區","LI":"荔宅里","LIN":"2鄰","STREET":"興昌路","SECT":" ","MAREA":" ","LANE":"３８巷","ALLEY":"２９弄","HOUSE_NO":"２號","E_COORD97":167890.876494,"N_COORD97":2542038.4818899999,"ADDRESS":"興昌路３８巷２９弄２號","OBJECTID":664604},"geometry":{"x":167890.8764939988,"y":2542038.4818939995}},{"attributes":{"ID":664632,"DIS_CODE":0,"TOWNNAME":"南區","LI":"荔宅里","LIN":"2鄰","STREET":"興昌路","SECT":" ","MAREA":" ","LANE":"３８巷","ALLEY":" ","HOUSE_NO":"３３號","E_COORD97":167894.37076600001,"N_COORD97":2542039.6460600002,"ADDRESS":"興昌路３８巷３３號","OBJECTID":664605},"geometry":{"x":167894.37076599896,"y":2542039.646060003}},{"attributes":{"ID":664633,"DIS_CODE":0,"TOWNNAME":"南區","LI":"荔宅里","LIN":"2鄰","STREET":"興昌路","SECT":" ","MAREA":" ","LANE":"３８巷","ALLEY":" ","HOUSE_NO":"３１號","E_COORD97":167894.47665299999,"N_COORD97":2542036.9473100002,"ADDRESS":"興昌路３８巷３１號","OBJECTID":664606},"geometry":{"x":167894.47665300034,"y":2542036.947312003}},{"attributes":{"ID":664634,"DIS_CODE":0,"TOWNNAME":"南區","LI":"荔宅里","LIN":"2鄰","STREET":"興昌路","SECT":" ","MAREA":" ","LANE":"３８巷","ALLEY":"２９弄","HOUSE_NO":"１１號","E_COORD97":167874.67577900001,"N_COORD97":2542030.17398,"ADDRESS":"興昌路３８巷２９弄１１號","OBJECTID":664607},"geometry":{"x":167874.67577899899,"y":2542030.1739820018}},{"attributes":{"ID":664635,"DIS_CODE":0,"TOWNNAME":"南區","LI":"荔宅里","LIN":"2鄰","STREET":"興昌路","SECT":" ","MAREA":" ","LANE":"３８巷","ALLEY":"２９弄","HOUSE_NO":"９號","E_COORD97":167877.85238999999,"N_COORD97":2542030.3856500001,"ADDRESS":"興昌路３８巷２９弄９號","OBJECTID":664608},"geometry":{"x":167877.85238999967,"y":2542030.3856489994}},{"attributes":{"ID":664636,"DIS_CODE":0,"TOWNNAME":"南區","LI":"荔宅里","LIN":"2鄰","STREET":"興昌路","SECT":" ","MAREA":" ","LANE":"３８巷","ALLEY":"２９弄","HOUSE_NO":"７號","E_COORD97":167881.55843599999,"N_COORD97":2542031.0206499998,"ADDRESS":"興昌路３８巷２９弄７號","OBJECTID":664609},"geometry":{"x":167881.55843600072,"y":2542031.0206479989}},{"attributes":{"ID":664637,"DIS_CODE":0,"TOWNNAME":"南區","LI":"荔宅里","LIN":"2鄰","STREET":"興昌路","SECT":" ","MAREA":" ","LANE":"３８巷","ALLEY":"２９弄","HOUSE_NO":"５號","E_COORD97":167884.84093400001,"N_COORD97":2542030.8089800002,"ADDRESS":"興昌路３８巷２９弄５號","OBJECTID":664610},"geometry":{"x":167884.84093399998,"y":2542030.8089820016}},{"attributes":{"ID":664638,"DIS_CODE":0,"TOWNNAME":"南區","LI":"荔宅里","LIN":"2鄰","STREET":"興昌路","SECT":" ","MAREA":" ","LANE":"３８巷","ALLEY":"２９弄","HOUSE_NO":"３號","E_COORD97":167887.911658,"N_COORD97":2542031.3381500002,"ADDRESS":"興昌路３８巷２９弄３號","OBJECTID":664611},"geometry":{"x":167887.91165800113,"y":2542031.3381480016}},{"attributes":{"ID":664639,"DIS_CODE":0,"TOWNNAME":"南區","LI":"荔宅里","LIN":"2鄰","STREET":"興昌路","SECT":" ","MAREA":" ","LANE":"３８巷","ALLEY":"２９弄","HOUSE_NO":"１號","E_COORD97":167890.77060700001,"N_COORD97":2542031.23232,"ADDRESS":"興昌路３８巷２９弄１號","OBJECTID":664612},"geometry":{"x":167890.77060700022,"y":2542031.2323150001}},{"attributes":{"ID":664640,"DIS_CODE":0,"TOWNNAME":"南區","LI":"荔宅里","LIN":"2鄰","STREET":"興昌路","SECT":" ","MAREA":" ","LANE":"３８巷","ALLEY":" ","HOUSE_NO":"２７號","E_COORD97":167894.47665299999,"N_COORD97":2542031.7614799999,"ADDRESS":"興昌路３８巷２７號","OBJECTID":664613},"geometry":{"x":167894.47665300034,"y":2542031.7614810001}},{"attributes":{"ID":664641,"DIS_CODE":0,"TOWNNAME":"南區","LI":"荔宅里","LIN":"2鄰","STREET":"興昌路","SECT":" ","MAREA":" ","LANE":"３８巷","ALLEY":" ","HOUSE_NO":"２５號","E_COORD97":167894.37076600001,"N_COORD97":2542029.5389800002,"ADDRESS":"興昌路３８巷２５號","OBJECTID":664614},"geometry":{"x":167894.37076599896,"y":2542029.5389820021}},{"attributes":{"ID":664642,"DIS_CODE":0,"TOWNNAME":"南區","LI":"荔宅里","LIN":"2鄰","STREET":"興昌路","SECT":" ","MAREA":" ","LANE":"３８巷","ALLEY":" ","HOUSE_NO":"２３號","E_COORD97":167894.47665299999,"N_COORD97":2542027.7398199998,"ADDRESS":"興昌路３８巷２３號","OBJECTID":664615},"geometry":{"x":167894.47665300034,"y":2542027.7398170028}},{"attributes":{"ID":664643,"DIS_CODE":0,"TOWNNAME":"南區","LI":"荔宅里","LIN":"2鄰","STREET":"興昌路","SECT":" ","MAREA":" ","LANE":"３８巷","ALLEY":" ","HOUSE_NO":"２１號","E_COORD97":167894.37076600001,"N_COORD97":2542025.9406499998,"ADDRESS":"興昌路３８巷２１號","OBJECTID":664616},"geometry":{"x":167894.37076599896,"y":2542025.9406509995}},{"attributes":{"ID":664644,"DIS_CODE":0,"TOWNNAME":"南區","LI":"荔宅里","LIN":"2鄰","STREET":"興昌路","SECT":" ","MAREA":" ","LANE":"３８巷","ALLEY":"１９弄","HOUSE_NO":"１６號","E_COORD97":167874.46400499999,"N_COORD97":2542027.10482,"ADDRESS":"興昌路３８巷１９弄１６號","OBJECTID":664617},"geometry":{"x":167874.46400500089,"y":2542027.1048169993}},{"attributes":{"ID":664645,"DIS_CODE":0,"TOWNNAME":"南區","LI":"荔宅里","LIN":"2鄰","STREET":"興昌路","SECT":" ","MAREA":" ","LANE":"３８巷","ALLEY":"１９弄","HOUSE_NO":"１２號","E_COORD97":167877.746503,"N_COORD97":2542027.10482,"ADDRESS":"興昌路３８巷１９弄１２號","OBJECTID":664618},"geometry":{"x":167877.74650300015,"y":2542027.1048169993}},{"attributes":{"ID":664646,"DIS_CODE":0,"TOWNNAME":"南區","LI":"荔宅里","LIN":"2鄰","STREET":"興昌路","SECT":" ","MAREA":" ","LANE":"３８巷","ALLEY":"１９弄","HOUSE_NO":"１０號","E_COORD97":167881.24077500001,"N_COORD97":2542027.5281500001,"ADDRESS":"興昌路３８巷１９弄１０號","OBJECTID":664619},"geometry":{"x":167881.2407750003,"y":2542027.5281500015}},{"attributes":{"ID":664647,"DIS_CODE":0,"TOWNNAME":"南區","LI":"荔宅里","LIN":"2鄰","STREET":"興昌路","SECT":" ","MAREA":" ","LANE":"３８巷","ALLEY":"１９弄","HOUSE_NO":"８號","E_COORD97":167884.73504699999,"N_COORD97":2542027.4223199999,"ADDRESS":"興昌路３８巷１９弄８號","OBJECTID":664620},"geometry":{"x":167884.73504700046,"y":2542027.4223170001}},{"attributes":{"ID":664648,"DIS_CODE":0,"TOWNNAME":"南區","LI":"荔宅里","LIN":"2鄰","STREET":"興昌路","SECT":" ","MAREA":" ","LANE":"３８巷","ALLEY":"１９弄","HOUSE_NO":"６號","E_COORD97":167887.80577000001,"N_COORD97":2542027.84565,"ADDRESS":"興昌路３８巷１９弄６號","OBJECTID":664621},"geometry":{"x":167887.80577000044,"y":2542027.8456500042}},{"attributes":{"ID":664649,"DIS_CODE":0,"TOWNNAME":"南區","LI":"荔宅里","LIN":"2鄰","STREET":"興昌路","SECT":" ","MAREA":" ","LANE":"３８巷","ALLEY":"１９弄","HOUSE_NO":"２號","E_COORD97":167890.66472,"N_COORD97":2542028.0573200001,"ADDRESS":"興昌路３８巷１９弄２號","OBJECTID":664622},"geometry":{"x":167890.6647200007,"y":2542028.0573169999}},{"attributes":{"ID":664650,"DIS_CODE":0,"TOWNNAME":"南區","LI":"荔宅里","LIN":"2鄰","STREET":"興昌路","SECT":" ","MAREA":" ","LANE":"３８巷","ALLEY":"１９弄","HOUSE_NO":"１１號","E_COORD97":167874.25223099999,"N_COORD97":2542020.96649,"ADDRESS":"興昌路３８巷１９弄１１號","OBJECTID":664623},"geometry":{"x":167874.25223099999,"y":2542020.9664870016}},{"attributes":{"ID":664651,"DIS_CODE":0,"TOWNNAME":"永康區","LI":"\u25A0洲里","LIN":"38鄰","STREET":"\u25A0行路","SECT":" ","MAREA":" ","LANE":"１８８巷","ALLEY":" ","HOUSE_NO":"２２號","E_COORD97":171281.953052,"N_COORD97":2549286.32754,"ADDRESS":"\u25A0行路１８８巷２２號","OBJECTID":664624},"geometry":{"x":171281.95305200107,"y":2549286.3275420032}},{"attributes":{"ID":664652,"DIS_CODE":0,"TOWNNAME":"南區","LI":"荔宅里","LIN":"2鄰","STREET":"興昌路","SECT":" ","MAREA":" ","LANE":"３８巷","ALLEY":"１９弄","HOUSE_NO":"９號","E_COORD97":167877.53472900001,"N_COORD97":2542021.6014899998,"ADDRESS":"興昌路３８巷１９弄９號","OBJECTID":664625},"geometry":{"x":167877.53472900018,"y":2542021.6014870014}},{"attributes":{"ID":664653,"DIS_CODE":0,"TOWNNAME":"南區","LI":"荔宅里","LIN":"2鄰","STREET":"興昌路","SECT":" ","MAREA":" ","LANE":"３８巷","ALLEY":"１９弄","HOUSE_NO":"７號","E_COORD97":167880.923114,"N_COORD97":2542022.3423199998,"ADDRESS":"興昌路３８巷１９弄７號","OBJECTID":664626},"geometry":{"x":167880.92311400082,"y":2542022.3423200008}},{"attributes":{"ID":664654,"DIS_CODE":0,"TOWNNAME":"官田區","LI":"嘉南里","LIN":"7鄰","STREET":" ","SECT":" ","MAREA":"嘉南","LANE":" ","ALLEY":" ","HOUSE_NO":"７７號之２２","E_COORD97":184569.264628,"N_COORD97":2567951.2598899999,"ADDRESS":"嘉南７７號之２２","OBJECTID":664627},"geometry":{"x":184569.26462800056,"y":2567951.2598940004}},{"attributes":{"ID":664655,"DIS_CODE":0,"TOWNNAME":"南區","LI":"荔宅里","LIN":"2鄰","STREET":"興昌路","SECT":" ","MAREA":" ","LANE":"３８巷","ALLEY":"１９弄","HOUSE_NO":"５號","E_COORD97":167884.311498,"N_COORD97":2542021.5485700001,"ADDRESS":"興昌路３８巷１９弄５號","OBJECTID":664628},"geometry":{"x":167884.31149800029,"y":2542021.5485700034}},{"attributes":{"ID":664656,"DIS_CODE":0,"TOWNNAME":"南區","LI":"荔宅里","LIN":"2鄰","STREET":"興昌路","SECT":" ","MAREA":" ","LANE":"３８巷","ALLEY":"１９弄","HOUSE_NO":"３號","E_COORD97":167887.488109,"N_COORD97":2542021.6543999999,"ADDRESS":"興昌路３８巷１９弄３號","OBJECTID":664629},"geometry":{"x":167887.48810900003,"y":2542021.6544030048}},{"attributes":{"ID":664657,"DIS_CODE":0,"TOWNNAME":"南區","LI":"荔宅里","LIN":"2鄰","STREET":"興昌路","SECT":" ","MAREA":" ","LANE":"３８巷","ALLEY":"１９弄","HOUSE_NO":"１號","E_COORD97":167890.34705899999,"N_COORD97":2542022.0777400001,"ADDRESS":"興昌路３８巷１９弄１號","OBJECTID":664630},"geometry":{"x":167890.34705900121,"y":2542022.0777360015}},{"attributes":{"ID":664658,"DIS_CODE":0,"TOWNNAME":"官田區","LI":"嘉南里","LIN":"7鄰","STREET":" ","SECT":" ","MAREA":"嘉南","LANE":" ","ALLEY":" ","HOUSE_NO":"７７號之１６","E_COORD97":184548.28794400001,"N_COORD97":2567958.6682199999,"ADDRESS":"嘉南７７號之１６","OBJECTID":664631},"geometry":{"x":184548.28794400208,"y":2567958.6682230029}},{"attributes":{"ID":664659,"DIS_CODE":0,"TOWNNAME":"永康區","LI":"王行里","LIN":"16鄰","STREET":"永科環路","SECT":" ","MAREA":" ","LANE":" ","ALLEY":" ","HOUSE_NO":"３號","E_COORD97":176515.18686300001,"N_COORD97":2548675.3520399998,"ADDRESS":"永科環路３號","OBJECTID":664632},"geometry":{"x":176515.18686299957,"y":2548675.3520390019}},{"attributes":{"ID":664660,"DIS_CODE":0,"TOWNNAME":"永康區","LI":"王行里","LIN":"16鄰","STREET":"永科環路","SECT":" ","MAREA":" ","LANE":" ","ALLEY":" ","HOUSE_NO":"５號","E_COORD97":176515.39876899999,"N_COORD97":2548669.2137099998,"ADDRESS":"永科環路５號","OBJECTID":664633},"geometry":{"x":176515.39876900055,"y":2548669.2137090005}},{"attributes":{"ID":664661,"DIS_CODE":0,"TOWNNAME":"南區","LI":"荔宅里","LIN":"2鄰","STREET":"興昌路","SECT":" ","MAREA":" ","LANE":"３８巷","ALLEY":" ","HOUSE_NO":"１５號","E_COORD97":167894.10604899999,"N_COORD97":2542020.9400300002,"ADDRESS":"興昌路３８巷１５號","OBJECTID":664634},"geometry":{"x":167894.10604900122,"y":2542020.940028999}},{"attributes":{"ID":664662,"DIS_CODE":0,"TOWNNAME":"永康區","LI":"永康里","LIN":"42鄰","STREET":"文化路","SECT":" ","MAREA":" ","LANE":" ","ALLEY":" ","HOUSE_NO":"８２之１號","E_COORD97":174168.96218100001,"N_COORD97":2546324.15998,"ADDRESS":"文化路８２之１號","OBJECTID":664635},"geometry":{"x":174168.96218100097,"y":2546324.1599749997}},{"attributes":{"ID":664663,"DIS_CODE":0,"TOWNNAME":"南區","LI":"荔宅里","LIN":"2鄰","STREET":"興昌路","SECT":" ","MAREA":" ","LANE":"３８巷","ALLEY":" ","HOUSE_NO":"１７號","E_COORD97":167894.00016200001,"N_COORD97":2542022.31586,"ADDRESS":"興昌路３８巷１７號","OBJECTID":664636},"geometry":{"x":167894.00016199984,"y":2542022.3158609997}},{"attributes":{"ID":664664,"DIS_CODE":0,"TOWNNAME":"永康區","LI":"安康里","LIN":"21鄰","STREET":"中華路","SECT":" ","MAREA":" ","LANE":" ","ALLEY":" ","HOUSE_NO":"７０１號","E_COORD97":170910.69351099999,"N_COORD97":2546329.9808100001,"ADDRESS":"中華路７０１號","OBJECTID":664637},"geometry":{"x":170910.69351100083,"y":2546329.9808060043}},{"attributes":{"ID":664665,"DIS_CODE":0,"TOWNNAME":"南區","LI":"荔宅里","LIN":"2鄰","STREET":"興昌路","SECT":" ","MAREA":" ","LANE":"３８巷","ALLEY":" ","HOUSE_NO":"１７之１號","E_COORD97":167892.41185599999,"N_COORD97":2542023.2154399999,"ADDRESS":"興昌路３８巷１７之１號","OBJECTID":664638},"geometry":{"x":167892.41185600124,"y":2542023.2154440004}},{"attributes":{"ID":664666,"DIS_CODE":0,"TOWNNAME":"山上區","LI":"新莊里","LIN":"1鄰","STREET":" ","SECT":" ","MAREA":"新庄","LANE":" ","ALLEY":" ","HOUSE_NO":"１之２２號","E_COORD97":184742.20057399999,"N_COORD97":2554960.60384,"ADDRESS":"新庄１之２２號","OBJECTID":664639},"geometry":{"x":184742.2005740013,"y":2554960.6038360018}},{"attributes":{"ID":664667,"DIS_CODE":0,"TOWNNAME":"山上區","LI":"新莊里","LIN":"1鄰","STREET":" ","SECT":" ","MAREA":"新庄","LANE":" ","ALLEY":" ","HOUSE_NO":"１之２２號","E_COORD97":184742.20057399999,"N_COORD97":2554960.60384,"ADDRESS":"新庄１之２２號","OBJECTID":664640},"geometry":{"x":184742.2005740013,"y":2554960.6038360018}},{"attributes":{"ID":664668,"DIS_CODE":0,"TOWNNAME":"山上區","LI":"新莊里","LIN":"1鄰","STREET":" ","SECT":" ","MAREA":"新庄","LANE":" ","ALLEY":" ","HOUSE_NO":"１之２２號","E_COORD97":184742.20057399999,"N_COORD97":2554960.60384,"ADDRESS":"新庄１之２２號","OBJECTID":664641},"geometry":{"x":184742.2005740013,"y":2554960.6038360018}},{"attributes":{"ID":664669,"DIS_CODE":0,"TOWNNAME":"南區","LI":"明亮里","LIN":"29鄰","STREET":"永成路","SECT":"三段","MAREA":" ","LANE":" ","ALLEY":" ","HOUSE_NO":"２０５號","E_COORD97":167488.58306400001,"N_COORD97":2540933.21587,"ADDRESS":"永成路三段２０５號","OBJECTID":664642},"geometry":{"x":167488.58306399919,"y":2540933.215869002}},{"attributes":{"ID":664670,"DIS_CODE":0,"TOWNNAME":"南區","LI":"明亮里","LIN":"29鄰","STREET":"永成路","SECT":"三段","MAREA":" ","LANE":" ","ALLEY":" ","HOUSE_NO":"１９５號","E_COORD97":167486.67709799999,"N_COORD97":2540900.3017199999,"ADDRESS":"永成路三段１９５號","OBJECTID":664643},"geometry":{"x":167486.67709800042,"y":2540900.3017199989}},{"attributes":{"ID":664671,"DIS_CODE":0,"TOWNNAME":"南區","LI":"明亮里","LIN":"29鄰","STREET":"永成路","SECT":"三段","MAREA":" ","LANE":" ","ALLEY":" ","HOUSE_NO":"１９７號","E_COORD97":167486.25354899999,"N_COORD97":2540909.6150500001,"ADDRESS":"永成路三段１９７號","OBJECTID":664644},"geometry":{"x":167486.25354899932,"y":2540909.6150480006}},{"attributes":{"ID":664672,"DIS_CODE":0,"TOWNNAME":"南區","LI":"明亮里","LIN":"29鄰","STREET":"永成路","SECT":"三段","MAREA":" ","LANE":" ","ALLEY":" ","HOUSE_NO":"１９９號","E_COORD97":167486.88887200001,"N_COORD97":2540918.9283799999,"ADDRESS":"永成路三段１９９號","OBJECTID":664645},"geometry":{"x":167486.88887200132,"y":2540918.9283770025}},{"attributes":{"ID":664673,"DIS_CODE":0,"TOWNNAME":"南區","LI":"明亮里","LIN":"29鄰","STREET":"永成路","SECT":"三段","MAREA":" ","LANE":" ","ALLEY":" ","HOUSE_NO":"２２５號","E_COORD97":167494.08919,"N_COORD97":2540988.5666700001,"ADDRESS":"永成路三段２２５號","OBJECTID":664646},"geometry":{"x":167494.08918999974,"y":2540988.5666720029}},{"attributes":{"ID":664674,"DIS_CODE":0,"TOWNNAME":"南區","LI":"明亮里","LIN":"29鄰","STREET":"永成路","SECT":"三段","MAREA":" ","LANE":" ","ALLEY":" ","HOUSE_NO":"２４１號","E_COORD97":167490.06548200001,"N_COORD97":2540998.9383299998,"ADDRESS":"永成路三段２４１號","OBJECTID":664647},"geometry":{"x":167490.06548199989,"y":2540998.9383330029}},{"attributes":{"ID":664675,"DIS_CODE":0,"TOWNNAME":"山上區","LI":"明和里","LIN":"13鄰","STREET":" ","SECT":" ","MAREA":"明和","LANE":" ","ALLEY":" ","HOUSE_NO":"２５８號","E_COORD97":182570.90338999999,"N_COORD97":2557039.1722900001,"ADDRESS":"明和２５８號","OBJECTID":664648},"geometry":{"x":182570.90339000151,"y":2557039.1722860038}},{"attributes":{"ID":664676,"DIS_CODE":0,"TOWNNAME":"南區","LI":"鯤鯓里","LIN":"12鄰","STREET":"鯤鯓路","SECT":" ","MAREA":" ","LANE":"２３２巷","ALLEY":" ","HOUSE_NO":"５２號","E_COORD97":165017.00941200001,"N_COORD97":2540422.7055700002,"ADDRESS":"鯤鯓路２３２巷５２號","OBJECTID":664649},"geometry":{"x":165017.00941200089,"y":2540422.7055660021}},{"attributes":{"ID":664677,"DIS_CODE":0,"TOWNNAME":"新化區","LI":"全興里","LIN":"10鄰","STREET":" ","SECT":" ","MAREA":"竹子\u25A0","LANE":" ","ALLEY":" ","HOUSE_NO":"１６６號之３８","E_COORD97":177271.60498,"N_COORD97":2547295.02171,"ADDRESS":"竹子\u25A0１６６號之３８","OBJECTID":664650},"geometry":{"x":177271.60498000123,"y":2547295.0217150021}},{"attributes":{"ID":664678,"DIS_CODE":0,"TOWNNAME":"後壁區","LI":"後壁里","LIN":"8鄰","STREET":" ","SECT":" ","MAREA":"後壁","LANE":" ","ALLEY":" ","HOUSE_NO":"１４８號","E_COORD97":184910.20048500001,"N_COORD97":2585049.6070599998,"ADDRESS":"後壁１４８號","OBJECTID":664651},"geometry":{"x":184910.20048500039,"y":2585049.6070600003}},{"attributes":{"ID":664679,"DIS_CODE":0,"TOWNNAME":"新化區","LI":"全興里","LIN":"10鄰","STREET":" ","SECT":" ","MAREA":"竹子\u25A0","LANE":" ","ALLEY":" ","HOUSE_NO":"１６３號之２","E_COORD97":176915.87958199999,"N_COORD97":2547550.29158,"ADDRESS":"竹子\u25A0１６３號之２","OBJECTID":664652},"geometry":{"x":176915.87958199997,"y":2547550.2915770002}},{"attributes":{"ID":664680,"DIS_CODE":0,"TOWNNAME":"新化區","LI":"全興里","LIN":"10鄰","STREET":" ","SECT":" ","MAREA":"竹子\u25A0","LANE":" ","ALLEY":" ","HOUSE_NO":"１６３號之３","E_COORD97":176921.600003,"N_COORD97":2547555.37157,"ADDRESS":"竹子\u25A0１６３號之３","OBJECTID":664653},"geometry":{"x":176921.60000299942,"y":2547555.3715739995}},{"attributes":{"ID":664681,"DIS_CODE":0,"TOWNNAME":"新化區","LI":"全興里","LIN":"10鄰","STREET":" ","SECT":" ","MAREA":"竹子\u25A0","LANE":" ","ALLEY":" ","HOUSE_NO":"１５８號之６","E_COORD97":177458.47204399999,"N_COORD97":2547441.6008000001,"ADDRESS":"竹子\u25A0１５８號之６","OBJECTID":664654},"geometry":{"x":177458.4720440004,"y":2547441.6008020043}},{"attributes":{"ID":664682,"DIS_CODE":0,"TOWNNAME":"新化區","LI":"全興里","LIN":"11鄰","STREET":" ","SECT":" ","MAREA":"竹子\u25A0","LANE":" ","ALLEY":" ","HOUSE_NO":"２４７號之５","E_COORD97":178351.70508499999,"N_COORD97":2546848.8286199998,"ADDRESS":"竹子\u25A0２４７號之５","OBJECTID":664655},"geometry":{"x":178351.70508500002,"y":2546848.8286220003}},{"attributes":{"ID":664683,"DIS_CODE":0,"TOWNNAME":"新化區","LI":"全興里","LIN":"10鄰","STREET":" ","SECT":" ","MAREA":"竹子\u25A0","LANE":" ","ALLEY":" ","HOUSE_NO":"１７７號之２０","E_COORD97":177749.57787800001,"N_COORD97":2547353.54752,"ADDRESS":"竹子\u25A0１７７號之２０","OBJECTID":664656},"geometry":{"x":177749.57787800115,"y":2547353.5475170016}},{"attributes":{"ID":664684,"DIS_CODE":0,"TOWNNAME":"新化區","LI":"全興里","LIN":"10鄰","STREET":" ","SECT":" ","MAREA":"竹子\u25A0","LANE":" ","ALLEY":" ","HOUSE_NO":"１６９號之３６","E_COORD97":177362.284235,"N_COORD97":2547784.7122800001,"ADDRESS":"竹子\u25A0１６９號之３６","OBJECTID":664657},"geometry":{"x":177362.28423500061,"y":2547784.7122840006}},{"attributes":{"ID":664685,"DIS_CODE":0,"TOWNNAME":"新化區","LI":"全興里","LIN":"11鄰","STREET":" ","SECT":" ","MAREA":"竹子\u25A0","LANE":" ","ALLEY":" ","HOUSE_NO":"２３５號之２０","E_COORD97":178057.42123899999,"N_COORD97":2546798.66365,"ADDRESS":"竹子\u25A0２３５號之２０","OBJECTID":664658},"geometry":{"x":178057.42123900075,"y":2546798.663649004}},{"attributes":{"ID":664686,"DIS_CODE":0,"TOWNNAME":"新化區","LI":"全興里","LIN":"10鄰","STREET":" ","SECT":" ","MAREA":"竹子\u25A0","LANE":" ","ALLEY":" ","HOUSE_NO":"２３０號","E_COORD97":177963.352105,"N_COORD97":2547172.7842799998,"ADDRESS":"竹子\u25A0２３０號","OBJECTID":664659},"geometry":{"x":177963.35210500006,"y":2547172.7842810024}},{"attributes":{"ID":664687,"DIS_CODE":0,"TOWNNAME":"新化區","LI":"全興里","LIN":"11鄰","STREET":" ","SECT":" ","MAREA":"竹子\u25A0","LANE":" ","ALLEY":" ","HOUSE_NO":"３２５號","E_COORD97":178072.88756100001,"N_COORD97":2547164.74095,"ADDRESS":"竹子\u25A0３２５號","OBJECTID":664660},"geometry":{"x":178072.88756100181,"y":2547164.7409520019}},{"attributes":{"ID":664688,"DIS_CODE":0,"TOWNNAME":"新化區","LI":"全興里","LIN":"11鄰","STREET":" ","SECT":" ","MAREA":"竹子\u25A0","LANE":" ","ALLEY":" ","HOUSE_NO":"２３１號之１２","E_COORD97":178191.321448,"N_COORD97":2547001.4402100001,"ADDRESS":"竹子\u25A0２３１號之１２","OBJECTID":664661},"geometry":{"x":178191.32144800015,"y":2547001.4402070008}},{"attributes":{"ID":664689,"DIS_CODE":0,"TOWNNAME":"新化區","LI":"全興里","LIN":"11鄰","STREET":" ","SECT":" ","MAREA":"竹子\u25A0","LANE":" ","ALLEY":" ","HOUSE_NO":"２７６號","E_COORD97":178822.68635900001,"N_COORD97":2546905.97859,"ADDRESS":"竹子\u25A0２７６號","OBJECTID":664662},"geometry":{"x":178822.68635900039,"y":2546905.9785920028}},{"attributes":{"ID":664690,"DIS_CODE":0,"TOWNNAME":"新化區","LI":"全興里","LIN":"10鄰","STREET":" ","SECT":" ","MAREA":"竹子\u25A0","LANE":" ","ALLEY":" ","HOUSE_NO":"１７７號之２６","E_COORD97":177767.162874,"N_COORD97":2547342.1175199999,"ADDRESS":"竹子\u25A0１７７號之２６","OBJECTID":664663},"geometry":{"x":177767.16287400015,"y":2547342.1175229996}},{"attributes":{"ID":664691,"DIS_CODE":0,"TOWNNAME":"新化區","LI":"全興里","LIN":"10鄰","STREET":" ","SECT":" ","MAREA":"竹子\u25A0","LANE":" ","ALLEY":" ","HOUSE_NO":"１６８號之１６","E_COORD97":177436.22596499999,"N_COORD97":2547001.4402100001,"ADDRESS":"竹子\u25A0１６８號之１６","OBJECTID":664664},"geometry":{"x":177436.22596500069,"y":2547001.4402070008}},{"attributes":{"ID":664692,"DIS_CODE":0,"TOWNNAME":"新化區","LI":"全興里","LIN":"10鄰","STREET":" ","SECT":" ","MAREA":"竹子\u25A0","LANE":" ","ALLEY":" ","HOUSE_NO":"９８號之２６","E_COORD97":177343.639902,"N_COORD97":2548143.48709,"ADDRESS":"竹子\u25A0９８號之２６","OBJECTID":664665},"geometry":{"x":177343.63990200032,"y":2548143.4870899972}},{"attributes":{"ID":664693,"DIS_CODE":0,"TOWNNAME":"後壁區","LI":"後壁里","LIN":"4鄰","STREET":" ","SECT":" ","MAREA":"後壁","LANE":" ","ALLEY":" ","HOUSE_NO":"８５號","E_COORD97":184665.561384,"N_COORD97":2584992.8410200002,"ADDRESS":"後壁８５號","OBJECTID":664666},"geometry":{"x":184665.56138399988,"y":2584992.8410209995}},{"attributes":{"ID":664694,"DIS_CODE":0,"TOWNNAME":"新化區","LI":"全興里","LIN":"10鄰","STREET":" ","SECT":" ","MAREA":"竹子\u25A0","LANE":" ","ALLEY":" ","HOUSE_NO":"１６６號之２６（農業","E_COORD97":177262.282813,"N_COORD97":2547302.43004,"ADDRESS":"竹子\u25A0１６６號之２６（農業資料室）","OBJECTID":664667},"geometry":{"x":177262.28281299956,"y":2547302.4300439991}},{"attributes":{"ID":664695,"DIS_CODE":0,"TOWNNAME":"新化區","LI":"全興里","LIN":"9鄰","STREET":" ","SECT":" ","MAREA":"竹子\u25A0","LANE":" ","ALLEY":" ","HOUSE_NO":"１１５號之２","E_COORD97":177481.14185000001,"N_COORD97":2547639.0856900001,"ADDRESS":"竹子\u25A0１１５號之２","OBJECTID":664668},"geometry":{"x":177481.14185000118,"y":2547639.085690001}},{"attributes":{"ID":664696,"DIS_CODE":0,"TOWNNAME":"新化區","LI":"全興里","LIN":"9鄰","STREET":" ","SECT":" ","MAREA":"竹子\u25A0","LANE":" ","ALLEY":" ","HOUSE_NO":"１１５號之３","E_COORD97":177489.19282,"N_COORD97":2547649.6690199999,"ADDRESS":"竹子\u25A0１１５號之３","OBJECTID":664669},"geometry":{"x":177489.19282000046,"y":2547649.6690230034}},{"attributes":{"ID":664697,"DIS_CODE":0,"TOWNNAME":"新化區","LI":"全興里","LIN":"8鄰","STREET":" ","SECT":" ","MAREA":"竹子\u25A0","LANE":" ","ALLEY":" ","HOUSE_NO":"１００號之９（農業資","E_COORD97":177237.70619299999,"N_COORD97":2547913.6172099998,"ADDRESS":"竹子\u25A0１００號之９（農業資料室）","OBJECTID":664670},"geometry":{"x":177237.70619300008,"y":2547913.6172140017}},{"attributes":{"ID":664698,"DIS_CODE":0,"TOWNNAME":"新化區","LI":"全興里","LIN":"10鄰","STREET":" ","SECT":" ","MAREA":"竹子\u25A0","LANE":" ","ALLEY":" ","HOUSE_NO":"１６８號之８","E_COORD97":177218.21439000001,"N_COORD97":2547100.2884900002,"ADDRESS":"竹子\u25A0１６８號之８","OBJECTID":664671},"geometry":{"x":177218.21439000033,"y":2547100.2884870004}},{"attributes":{"ID":664699,"DIS_CODE":0,"TOWNNAME":"新化區","LI":"全興里","LIN":"10鄰","STREET":" ","SECT":" ","MAREA":"竹子\u25A0","LANE":" ","ALLEY":" ","HOUSE_NO":"１６８號之１８","E_COORD97":177422.03084799999,"N_COORD97":2547028.7451900002,"ADDRESS":"竹子\u25A0１６８號之１８","OBJECTID":664672},"geometry":{"x":177422.03084800113,"y":2547028.7451920006}},{"attributes":{"ID":664700,"DIS_CODE":0,"TOWNNAME":"新化區","LI":"全興里","LIN":"8鄰","STREET":" ","SECT":" ","MAREA":"竹子\u25A0","LANE":" ","ALLEY":" ","HOUSE_NO":"１０１號之３１（菇類","E_COORD97":177059.525693,"N_COORD97":2547463.5082899998,"ADDRESS":"竹子\u25A0１０１號之３１（菇類栽培場）","OBJECTID":664673},"geometry":{"x":177059.52569300123,"y":2547463.5082900021}},{"attributes":{"ID":664701,"DIS_CODE":0,"TOWNNAME":"後壁區","LI":"後壁里","LIN":"4鄰","STREET":" ","SECT":" ","MAREA":"後壁","LANE":" ","ALLEY":" ","HOUSE_NO":"９０號","E_COORD97":184680.716388,"N_COORD97":2584988.60769,"ADDRESS":"後壁９０號","OBJECTID":664674},"geometry":{"x":184680.71638800111,"y":2584988.6076900009}},{"attributes":{"ID":664702,"DIS_CODE":0,"TOWNNAME":"後壁區","LI":"後壁里","LIN":"4鄰","STREET":" ","SECT":" ","MAREA":"後壁","LANE":" ","ALLEY":" ","HOUSE_NO":"８９號","E_COORD97":184674.887541,"N_COORD97":2584989.0310200001,"ADDRESS":"後壁８９號","OBJECTID":664675},"geometry":{"x":184674.88754100073,"y":2584989.0310229994}},{"attributes":{"ID":664703,"DIS_CODE":0,"TOWNNAME":"後壁區","LI":"後壁里","LIN":"4鄰","STREET":" ","SECT":" ","MAREA":"後壁","LANE":" ","ALLEY":" ","HOUSE_NO":"８６號","E_COORD97":184668.52879800001,"N_COORD97":2584991.9943499998,"ADDRESS":"後壁８６號","OBJECTID":664676},"geometry":{"x":184668.52879799996,"y":2584991.9943540022}},{"attributes":{"ID":664704,"DIS_CODE":0,"TOWNNAME":"新化區","LI":"全興里","LIN":"8鄰","STREET":" ","SECT":" ","MAREA":"竹子\u25A0","LANE":" ","ALLEY":" ","HOUSE_NO":"１０１號之６（農業資","E_COORD97":176916.93891900001,"N_COORD97":2547583.6290600002,"ADDRESS":"竹子\u25A0１０１號之６（農業資料室）","OBJECTID":664677},"geometry":{"x":176916.93891900126,"y":2547583.6290589999}},{"attributes":{"ID":664705,"DIS_CODE":0,"TOWNNAME":"新化區","LI":"全興里","LIN":"10鄰","STREET":" ","SECT":" ","MAREA":"竹子\u25A0","LANE":" ","ALLEY":" ","HOUSE_NO":"１６３號之６（農業資","E_COORD97":176927.320423,"N_COORD97":2547561.5098999999,"ADDRESS":"竹子\u25A0１６３號之６（農業資料室）","OBJECTID":664678},"geometry":{"x":176927.32042299956,"y":2547561.5099040009}},{"attributes":{"ID":664706,"DIS_CODE":0,"TOWNNAME":"新化區","LI":"全興里","LIN":"10鄰","STREET":" ","SECT":" ","MAREA":"竹子\u25A0","LANE":" ","ALLEY":" ","HOUSE_NO":"１６０號之６（農業資","E_COORD97":177402.32717800001,"N_COORD97":2547460.6507899999,"ADDRESS":"竹子\u25A0１６０號之６（農業資料室）","OBJECTID":664679},"geometry":{"x":177402.32717799954,"y":2547460.6507920008}},{"attributes":{"ID":664707,"DIS_CODE":0,"TOWNNAME":"新化區","LI":"全興里","LIN":"8鄰","STREET":"中山路","SECT":" ","MAREA":" ","LANE":" ","ALLEY":" ","HOUSE_NO":"９７９號（農業資料室","E_COORD97":177074.14454499999,"N_COORD97":2548197.1445599999,"ADDRESS":"中山路９７９號（農業資料室）","OBJECTID":664680},"geometry":{"x":177074.14454500005,"y":2548197.1445610002}},{"attributes":{"ID":664708,"DIS_CODE":0,"TOWNNAME":"麻豆區","LI":"麻口里","LIN":"10鄰","STREET":" ","SECT":" ","MAREA":"番子寮","LANE":" ","ALLEY":" ","HOUSE_NO":"１號之５６","E_COORD97":169728.40651599999,"N_COORD97":2563106.9216200002,"ADDRESS":"番子寮１號之５６","OBJECTID":664681},"geometry":{"x":169728.4065159997,"y":2563106.9216210041}},{"attributes":{"ID":664709,"DIS_CODE":0,"TOWNNAME":"新化區","LI":"全興里","LIN":"10鄰","STREET":" ","SECT":" ","MAREA":"竹子\u25A0","LANE":" ","ALLEY":" ","HOUSE_NO":"１６３號之７","E_COORD97":176946.38849099999,"N_COORD97":2547576.32656,"ADDRESS":"竹子\u25A0１６３號之７","OBJECTID":664682},"geometry":{"x":176946.38849100098,"y":2547576.3265630044}},{"attributes":{"ID":664710,"DIS_CODE":0,"TOWNNAME":"新化區","LI":"全興里","LIN":"7鄰","STREET":" ","SECT":" ","MAREA":"竹子\u25A0","LANE":" ","ALLEY":" ","HOUSE_NO":"９７號之２","E_COORD97":177498.93872100001,"N_COORD97":2547825.2464299998,"ADDRESS":"竹子\u25A0９７號之２","OBJECTID":664683},"geometry":{"x":177498.93872100208,"y":2547825.2464280017}},{"attributes":{"ID":664711,"DIS_CODE":0,"TOWNNAME":"仁德區","LI":"大甲里","LIN":"1鄰","STREET":"行大街","SECT":" ","MAREA":" ","LANE":" ","ALLEY":" ","HOUSE_NO":"２０７號","E_COORD97":169918.27772499999,"N_COORD97":2535089.8062100001,"ADDRESS":"行大街２０７號","OBJECTID":664684},"geometry":{"x":169918.27772500087,"y":2535089.8062120024}},{"attributes":{"ID":664712,"DIS_CODE":0,"TOWNNAME":"新化區","LI":"護國里","LIN":"8鄰","STREET":"信義路","SECT":" ","MAREA":" ","LANE":" ","ALLEY":" ","HOUSE_NO":"２號之３０","E_COORD97":181548.420541,"N_COORD97":2548805.7914300002,"ADDRESS":"信義路２號之３０","OBJECTID":664685},"geometry":{"x":181548.42054100148,"y":2548805.7914310005}},{"attributes":{"ID":664713,"DIS_CODE":0,"TOWNNAME":"麻豆區","LI":"麻口里","LIN":"1鄰","STREET":" ","SECT":" ","MAREA":"麻豆口","LANE":" ","ALLEY":" ","HOUSE_NO":"１號之３６","E_COORD97":170323.32589499999,"N_COORD97":2563988.0497499998,"ADDRESS":"麻豆口１號之３６","OBJECTID":664686},"geometry":{"x":170323.32589500025,"y":2563988.0497529991}},{"attributes":{"ID":664714,"DIS_CODE":0,"TOWNNAME":"麻豆區","LI":"麻口里","LIN":"12鄰","STREET":" ","SECT":" ","MAREA":"番子寮","LANE":" ","ALLEY":" ","HOUSE_NO":"３２號之６","E_COORD97":170568.04986,"N_COORD97":2563246.8993199999,"ADDRESS":"番子寮３２號之６","OBJECTID":664687},"geometry":{"x":170568.04985999968,"y":2563246.8993199989}},{"attributes":{"ID":664715,"DIS_CODE":0,"TOWNNAME":"麻豆區","LI":"大埕里","LIN":"6鄰","STREET":"文昌路","SECT":" ","MAREA":" ","LANE":" ","ALLEY":" ","HOUSE_NO":"６３號之１","E_COORD97":173553.25847199999,"N_COORD97":2565455.32229,"ADDRESS":"文昌路６３號之１","OBJECTID":664688},"geometry":{"x":173553.25847200118,"y":2565455.3222940005}},{"attributes":{"ID":664716,"DIS_CODE":0,"TOWNNAME":"新化區","LI":"護國里","LIN":"8鄰","STREET":"中山路","SECT":" ","MAREA":" ","LANE":" ","ALLEY":" ","HOUSE_NO":"５號之１６","E_COORD97":180667.62784900001,"N_COORD97":2550184.0584900002,"ADDRESS":"中山路５號之１６","OBJECTID":664689},"geometry":{"x":180667.62784899957,"y":2550184.0584880039}},{"attributes":{"ID":664717,"DIS_CODE":0,"TOWNNAME":"佳里區","LI":"安西里","LIN":"48鄰","STREET":"育善街","SECT":" ","MAREA":" ","LANE":"８８巷","ALLEY":" ","HOUSE_NO":"８號","E_COORD97":165016.18465899999,"N_COORD97":2562256.7094399999,"ADDRESS":"育善街８８巷８號","OBJECTID":664690},"geometry":{"x":165016.18465900049,"y":2562256.7094350029}},{"attributes":{"ID":664718,"DIS_CODE":0,"TOWNNAME":"新化區","LI":"護國里","LIN":"11鄰","STREET":"中山路","SECT":" ","MAREA":" ","LANE":"１９巷","ALLEY":" ","HOUSE_NO":"１７號之８（農業資料","E_COORD97":180399.82743,"N_COORD97":2549690.0287500001,"ADDRESS":"中山路１９巷１７號之８（農業資料室）","OBJECTID":664691},"geometry":{"x":180399.82743000053,"y":2549690.0287550017}},{"attributes":{"ID":664719,"DIS_CODE":0,"TOWNNAME":"新化區","LI":"護國里","LIN":"8鄰","STREET":"中山路","SECT":" ","MAREA":" ","LANE":"３９巷","ALLEY":" ","HOUSE_NO":"４６號之１（農業資料","E_COORD97":180271.859509,"N_COORD97":2549623.8829600001,"ADDRESS":"中山路３９巷４６號之１（農業資料室）","OBJECTID":664692},"geometry":{"x":180271.85950899962,"y":2549623.882957004}},{"attributes":{"ID":664720,"DIS_CODE":0,"TOWNNAME":"新化區","LI":"護國里","LIN":"8鄰","STREET":"中山路","SECT":" ","MAREA":" ","LANE":"１４巷","ALLEY":" ","HOUSE_NO":"３２號（農業資料室）","E_COORD97":181128.86322100001,"N_COORD97":2549098.6324100001,"ADDRESS":"中山路１４巷３２號（農業資料室）","OBJECTID":664693},"geometry":{"x":181128.86322099995,"y":2549098.6324080024}},{"attributes":{"ID":664721,"DIS_CODE":0,"TOWNNAME":"新化區","LI":"護國里","LIN":"8鄰","STREET":"中山路","SECT":" ","MAREA":" ","LANE":" ","ALLEY":" ","HOUSE_NO":"２號之３２","E_COORD97":189908.01348699999,"N_COORD97":2546964.3985600001,"ADDRESS":"中山路２號之３２","OBJECTID":664694},"geometry":{"x":189908.01348700002,"y":2546964.3985600024}},{"attributes":{"ID":664722,"DIS_CODE":0,"TOWNNAME":"新化區","LI":"全興里","LIN":"1鄰","STREET":" ","SECT":" ","MAREA":"竹子\u25A0","LANE":" ","ALLEY":" ","HOUSE_NO":"２號","E_COORD97":177738.34890499999,"N_COORD97":2547821.6480999999,"ADDRESS":"竹子\u25A0２號","OBJECTID":664695},"geometry":{"x":177738.3489049999,"y":2547821.6480970047}},{"attributes":{"ID":664723,"DIS_CODE":0,"TOWNNAME":"新化區","LI":"全興里","LIN":"1鄰","STREET":" ","SECT":" ","MAREA":"竹子\u25A0","LANE":" ","ALLEY":" ","HOUSE_NO":"３號之２","E_COORD97":177714.56716400001,"N_COORD97":2547859.21906,"ADDRESS":"竹子\u25A0３號之２","OBJECTID":664696},"geometry":{"x":177714.56716400106,"y":2547859.2190610003}},{"attributes":{"ID":664724,"DIS_CODE":0,"TOWNNAME":"新化區","LI":"全興里","LIN":"1鄰","STREET":" ","SECT":" ","MAREA":"竹子\u25A0","LANE":" ","ALLEY":" ","HOUSE_NO":"１７號","E_COORD97":177704.60939600001,"N_COORD97":2547802.7040900001,"ADDRESS":"竹子\u25A0１７號","OBJECTID":664697},"geometry":{"x":177704.60939600039,"y":2547802.7040910013}},{"attributes":{"ID":664725,"DIS_CODE":0,"TOWNNAME":"新化區","LI":"全興里","LIN":"2鄰","STREET":" ","SECT":" ","MAREA":"竹子\u25A0","LANE":" ","ALLEY":" ","HOUSE_NO":"３２號","E_COORD97":177694.65162700001,"N_COORD97":2547768.8374399999,"ADDRESS":"竹子\u25A0３２號","OBJECTID":664698},"geometry":{"x":177694.65162700042,"y":2547768.8374430016}},{"attributes":{"ID":664726,"DIS_CODE":0,"TOWNNAME":"新化區","LI":"全興里","LIN":"2鄰","STREET":" ","SECT":" ","MAREA":"竹子\u25A0","LANE":" ","ALLEY":" ","HOUSE_NO":"３４號","E_COORD97":177676.21916099999,"N_COORD97":2547768.8374399999,"ADDRESS":"竹子\u25A0３４號","OBJECTID":664699},"geometry":{"x":177676.21916100197,"y":2547768.8374430016}},{"attributes":{"ID":664727,"DIS_CODE":0,"TOWNNAME":"麻豆區","LI":"寮\u25A0里","LIN":"1鄰","STREET":" ","SECT":" ","MAREA":"寮子\u25A0","LANE":" ","ALLEY":" ","HOUSE_NO":"９號之１６３","E_COORD97":175522.835857,"N_COORD97":2566405.52648,"ADDRESS":"寮子\u25A0９號之１６３","OBJECTID":664700},"geometry":{"x":175522.83585700113,"y":2566405.5264759995}},{"attributes":{"ID":664728,"DIS_CODE":0,"TOWNNAME":"新化區","LI":"全興里","LIN":"2鄰","STREET":" ","SECT":" ","MAREA":"竹子\u25A0","LANE":" ","ALLEY":" ","HOUSE_NO":"１９１號之３","E_COORD97":177760.754262,"N_COORD97":2547680.0433200002,"ADDRESS":"竹子\u25A0１９１號之３","OBJECTID":664701},"geometry":{"x":177760.75426200125,"y":2547680.0433240049}},{"attributes":{"ID":664729,"DIS_CODE":0,"TOWNNAME":"新化區","LI":"全興里","LIN":"2鄰","STREET":" ","SECT":" ","MAREA":"竹子\u25A0","LANE":" ","ALLEY":" ","HOUSE_NO":"１９１號之５","E_COORD97":177796.55985600001,"N_COORD97":2547718.24914,"ADDRESS":"竹子\u25A0１９１號之５","OBJECTID":664702},"geometry":{"x":177796.55985600129,"y":2547718.2491369974}},{"attributes":{"ID":664730,"DIS_CODE":0,"TOWNNAME":"新化區","LI":"全興里","LIN":"2鄰","STREET":" ","SECT":" ","MAREA":"竹子\u25A0","LANE":" ","ALLEY":" ","HOUSE_NO":"２００號之１２","E_COORD97":177834.907859,"N_COORD97":2547723.8583,"ADDRESS":"竹子\u25A0２００號之１２","OBJECTID":664703},"geometry":{"x":177834.90785900038,"y":2547723.8583010007}},{"attributes":{"ID":664731,"DIS_CODE":0,"TOWNNAME":"新化區","LI":"全興里","LIN":"4鄰","STREET":" ","SECT":" ","MAREA":"竹子\u25A0","LANE":" ","ALLEY":" ","HOUSE_NO":"５２號","E_COORD97":177614.406766,"N_COORD97":2547732.0603,"ADDRESS":"竹子\u25A0５２號","OBJECTID":664704},"geometry":{"x":177614.40676600114,"y":2547732.060304001}},{"attributes":{"ID":664732,"DIS_CODE":0,"TOWNNAME":"新化區","LI":"全興里","LIN":"4鄰","STREET":" ","SECT":" ","MAREA":"竹子\u25A0","LANE":" ","ALLEY":" ","HOUSE_NO":"５９號之１","E_COORD97":177607.83887599999,"N_COORD97":2547767.62029,"ADDRESS":"竹子\u25A0５９號之１","OBJECTID":664705},"geometry":{"x":177607.83887600061,"y":2547767.6202850025}},{"attributes":{"ID":664733,"DIS_CODE":0,"TOWNNAME":"新化區","LI":"全興里","LIN":"5鄰","STREET":" ","SECT":" ","MAREA":"竹子\u25A0","LANE":" ","ALLEY":" ","HOUSE_NO":"６４號","E_COORD97":177643.22073500001,"N_COORD97":2547667.8195099998,"ADDRESS":"竹子\u25A0６４號","OBJECTID":664706},"geometry":{"x":177643.22073500138,"y":2547667.8195050023}},{"attributes":{"ID":664734,"DIS_CODE":0,"TOWNNAME":"新化區","LI":"全興里","LIN":"6鄰","STREET":" ","SECT":" ","MAREA":"竹子\u25A0","LANE":" ","ALLEY":" ","HOUSE_NO":"７２號","E_COORD97":177623.30519799999,"N_COORD97":2547659.77618,"ADDRESS":"竹子\u25A0７２號","OBJECTID":664707},"geometry":{"x":177623.30519799888,"y":2547659.776176}},{"attributes":{"ID":664735,"DIS_CODE":0,"TOWNNAME":"永康區","LI":"東橋里","LIN":"15鄰","STREET":"東橋五路","SECT":" ","MAREA":" ","LANE":"７２巷","ALLEY":" ","HOUSE_NO":"１號","E_COORD97":171759.547578,"N_COORD97":2546685.5355199999,"ADDRESS":"東橋五路７２巷１號","OBJECTID":664708},"geometry":{"x":171759.54757800046,"y":2546685.5355210025}},{"attributes":{"ID":664736,"DIS_CODE":0,"TOWNNAME":"永康區","LI":"東橋里","LIN":"15鄰","STREET":"東橋五路","SECT":" ","MAREA":" ","LANE":"７２巷","ALLEY":" ","HOUSE_NO":"２號","E_COORD97":171761.666639,"N_COORD97":2546679.60886,"ADDRESS":"東橋五路７２巷２號","OBJECTID":664709},"geometry":{"x":171761.66663900018,"y":2546679.6088570021}},{"attributes":{"ID":664737,"DIS_CODE":0,"TOWNNAME":"永康區","LI":"東橋里","LIN":"15鄰","STREET":"東橋五路","SECT":" ","MAREA":" ","LANE":"７２巷","ALLEY":" ","HOUSE_NO":"３號","E_COORD97":171764.633325,"N_COORD97":2546688.07552,"ADDRESS":"東橋五路７２巷３號","OBJECTID":664710},"geometry":{"x":171764.63332500029,"y":2546688.0755190011}},{"attributes":{"ID":664738,"DIS_CODE":0,"TOWNNAME":"永康區","LI":"東橋里","LIN":"15鄰","STREET":"東橋五路","SECT":" ","MAREA":" ","LANE":"７２巷","ALLEY":" ","HOUSE_NO":"５號","E_COORD97":171769.93097799999,"N_COORD97":2546690.61552,"ADDRESS":"東橋五路７２巷５號","OBJECTID":664711},"geometry":{"x":171769.93097800016,"y":2546690.6155180018}},{"attributes":{"ID":664739,"DIS_CODE":0,"TOWNNAME":"仁德區","LI":"太子里","LIN":"24鄰","STREET":"長興五街","SECT":" ","MAREA":" ","LANE":"３６巷","ALLEY":" ","HOUSE_NO":"２之１號","E_COORD97":173600.10190899999,"N_COORD97":2543654.5903400001,"ADDRESS":"長興五街３６巷２之１號","OBJECTID":664712},"geometry":{"x":173600.10190900136,"y":2543654.5903379992}},{"attributes":{"ID":664740,"DIS_CODE":0,"TOWNNAME":"永康區","LI":"東橋里","LIN":"15鄰","STREET":"東橋五路","SECT":" ","MAREA":" ","LANE":" ","ALLEY":" ","HOUSE_NO":"６８號","E_COORD97":171760.607108,"N_COORD97":2546673.8938600002,"ADDRESS":"東橋五路６８號","OBJECTID":664713},"geometry":{"x":171760.60710799973,"y":2546673.893860003}},{"attributes":{"ID":664741,"DIS_CODE":0,"TOWNNAME":"永康區","LI":"東橋里","LIN":"15鄰","STREET":"東橋五路","SECT":" ","MAREA":" ","LANE":"７２巷","ALLEY":" ","HOUSE_NO":"６號","E_COORD97":171765.90476199999,"N_COORD97":2546681.3021900002,"ADDRESS":"東橋五路７２巷６號","OBJECTID":664714},"geometry":{"x":171765.90476200078,"y":2546681.3021900002}},{"attributes":{"ID":664742,"DIS_CODE":0,"TOWNNAME":"永康區","LI":"東橋里","LIN":"15鄰","STREET":"東橋五路","SECT":" ","MAREA":" ","LANE":" ","ALLEY":" ","HOUSE_NO":"７０號","E_COORD97":171758.91185900001,"N_COORD97":2546677.28052,"ADDRESS":"東橋五路７０號","OBJECTID":664715},"geometry":{"x":171758.91185900103,"y":2546677.2805249989}},{"attributes":{"ID":664743,"DIS_CODE":0,"TOWNNAME":"永康區","LI":"東橋里","LIN":"15鄰","STREET":"東橋五路","SECT":" ","MAREA":" ","LANE":" ","ALLEY":" ","HOUSE_NO":"７６號","E_COORD97":171752.76658200001,"N_COORD97":2546689.7688500001,"ADDRESS":"東橋五路７６號","OBJECTID":664716},"geometry":{"x":171752.766582001,"y":2546689.7688519992}},{"attributes":{"ID":664744,"DIS_CODE":0,"TOWNNAME":"永康區","LI":"東橋里","LIN":"15鄰","STREET":"東橋五路","SECT":" ","MAREA":" ","LANE":"７２巷","ALLEY":" ","HOUSE_NO":"１０號","E_COORD97":171773.32147600001,"N_COORD97":2546685.3238499998,"ADDRESS":"東橋五路７２巷１０號","OBJECTID":664717},"geometry":{"x":171773.32147600129,"y":2546685.3238540012}},{"attributes":{"ID":664745,"DIS_CODE":0,"TOWNNAME":"永康區","LI":"東橋里","LIN":"15鄰","STREET":"東橋五路","SECT":" ","MAREA":" ","LANE":"７２巷","ALLEY":" ","HOUSE_NO":"７號","E_COORD97":171774.38100699999,"N_COORD97":2546692.7321799998,"ADDRESS":"東橋五路７２巷７號","OBJECTID":664718},"geometry":{"x":171774.38100699987,"y":2546692.7321840022}},{"attributes":{"ID":664746,"DIS_CODE":0,"TOWNNAME":"永康區","LI":"東橋里","LIN":"15鄰","STREET":"東橋五路","SECT":" ","MAREA":" ","LANE":"７２巷","ALLEY":" ","HOUSE_NO":"８號","E_COORD97":171769.71907200001,"N_COORD97":2546683.20719,"ADDRESS":"東橋五路７２巷８號","OBJECTID":664719},"geometry":{"x":171769.71907200105,"y":2546683.207189003}},{"attributes":{"ID":664747,"DIS_CODE":0,"TOWNNAME":"永康區","LI":"東橋里","LIN":"15鄰","STREET":"東橋五路","SECT":" ","MAREA":" ","LANE":"７２巷","ALLEY":" ","HOUSE_NO":"１２號","E_COORD97":171777.77150500001,"N_COORD97":2546687.2288500001,"ADDRESS":"東橋五路７２巷１２號","OBJECTID":664720},"geometry":{"x":171777.771505001,"y":2546687.2288530003}},{"attributes":{"ID":664748,"DIS_CODE":0,"TOWNNAME":"新化區","LI":"全興里","LIN":"8鄰","STREET":"中山路","SECT":" ","MAREA":" ","LANE":" ","ALLEY":" ","HOUSE_NO":"９８１號","E_COORD97":177043.212203,"N_COORD97":2548211.4850499998,"ADDRESS":"中山路９８１號","OBJECTID":664721},"geometry":{"x":177043.21220300067,"y":2548211.4850450046}},{"attributes":{"ID":664749,"DIS_CODE":0,"TOWNNAME":"新化區","LI":"全興里","LIN":"8鄰","STREET":"中山路","SECT":" ","MAREA":" ","LANE":" ","ALLEY":" ","HOUSE_NO":"１００１號","E_COORD97":177009.31341599999,"N_COORD97":2548219.7400400001,"ADDRESS":"中山路１００１號","OBJECTID":664722},"geometry":{"x":177009.31341600139,"y":2548219.740040997}},{"attributes":{"ID":664750,"DIS_CODE":0,"TOWNNAME":"新化區","LI":"全興里","LIN":"8鄰","STREET":" ","SECT":" ","MAREA":"竹子\u25A0","LANE":" ","ALLEY":" ","HOUSE_NO":"１０１號之５","E_COORD97":176920.964702,"N_COORD97":2547580.61289,"ADDRESS":"竹子\u25A0１０１號之５","OBJECTID":664723},"geometry":{"x":176920.96470200084,"y":2547580.6128860004}},{"attributes":{"ID":664751,"DIS_CODE":0,"TOWNNAME":"新化區","LI":"全興里","LIN":"8鄰","STREET":" ","SECT":" ","MAREA":"竹子\u25A0","LANE":" ","ALLEY":" ","HOUSE_NO":"１０１號之３０","E_COORD97":177047.23768399999,"N_COORD97":2547478.4837699998,"ADDRESS":"竹子\u25A0１０１號之３０","OBJECTID":664724},"geometry":{"x":177047.23768400215,"y":2547478.4837740008}},{"attributes":{"ID":664752,"DIS_CODE":0,"TOWNNAME":"新化區","LI":"全興里","LIN":"8鄰","STREET":" ","SECT":" ","MAREA":"竹子\u25A0","LANE":" ","ALLEY":" ","HOUSE_NO":"１０８號","E_COORD97":177493.43046999999,"N_COORD97":2547717.77281,"ADDRESS":"竹子\u25A0１０８號","OBJECTID":664725},"geometry":{"x":177493.43047000095,"y":2547717.7728119995}},{"attributes":{"ID":664753,"DIS_CODE":0,"TOWNNAME":"新化區","LI":"全興里","LIN":"8鄰","STREET":" ","SECT":" ","MAREA":"竹子\u25A0","LANE":" ","ALLEY":" ","HOUSE_NO":"１１３號","E_COORD97":177484.10830299999,"N_COORD97":2547677.4503299999,"ADDRESS":"竹子\u25A0１１３號","OBJECTID":664726},"geometry":{"x":177484.10830300115,"y":2547677.4503339995}},{"attributes":{"ID":664754,"DIS_CODE":0,"TOWNNAME":"仁德區","LI":"新田里","LIN":"7鄰","STREET":"民安路","SECT":"二段","MAREA":" ","LANE":"８２７巷","ALLEY":" ","HOUSE_NO":"２２５號","E_COORD97":174733.818031,"N_COORD97":2538892.2549000001,"ADDRESS":"民安路二段８２７巷２２５號","OBJECTID":664727},"geometry":{"x":174733.8180310009,"y":2538892.2548969984}},{"attributes":{"ID":664755,"DIS_CODE":0,"TOWNNAME":"新化區","LI":"全興里","LIN":"9鄰","STREET":" ","SECT":" ","MAREA":"竹子\u25A0","LANE":" ","ALLEY":" ","HOUSE_NO":"１１５號之１","E_COORD97":177475.63360599999,"N_COORD97":2547631.3070299998,"ADDRESS":"竹子\u25A0１１５號之１","OBJECTID":664728},"geometry":{"x":177475.63360599987,"y":2547631.3070250005}},{"attributes":{"ID":664756,"DIS_CODE":0,"TOWNNAME":"新化區","LI":"全興里","LIN":"9鄰","STREET":" ","SECT":" ","MAREA":"竹子\u25A0","LANE":" ","ALLEY":" ","HOUSE_NO":"１５１號之１","E_COORD97":177453.17566000001,"N_COORD97":2547576.3795599998,"ADDRESS":"竹子\u25A0１５１號之１","OBJECTID":664729},"geometry":{"x":177453.17566000018,"y":2547576.3795549981}},{"attributes":{"ID":664757,"DIS_CODE":0,"TOWNNAME":"新化區","LI":"全興里","LIN":"10鄰","STREET":" ","SECT":" ","MAREA":"竹子\u25A0","LANE":" ","ALLEY":" ","HOUSE_NO":"６６號","E_COORD97":177625.000137,"N_COORD97":2547647.81702,"ADDRESS":"竹子\u25A0６６號","OBJECTID":664730},"geometry":{"x":177625.00013700034,"y":2547647.8170160018}},{"attributes":{"ID":664758,"DIS_CODE":0,"TOWNNAME":"安南區","LI":"城中里","LIN":"7鄰","STREET":"城安西街","SECT":" ","MAREA":" ","LANE":" ","ALLEY":" ","HOUSE_NO":"３６號","E_COORD97":160702.34479500001,"N_COORD97":2551573.8006899999,"ADDRESS":"城安西街３６號","OBJECTID":664731},"geometry":{"x":160702.34479500074,"y":2551573.8006920014}},{"attributes":{"ID":664759,"DIS_CODE":0,"TOWNNAME":"新化區","LI":"全興里","LIN":"10鄰","STREET":" ","SECT":" ","MAREA":"竹子\u25A0","LANE":" ","ALLEY":" ","HOUSE_NO":"１６３號之１","E_COORD97":176954.492344,"N_COORD97":2547551.3499099999,"ADDRESS":"竹子\u25A0１６３號之１","OBJECTID":664732},"geometry":{"x":176954.49234400224,"y":2547551.3499100022}},{"attributes":{"ID":664760,"DIS_CODE":0,"TOWNNAME":"新化區","LI":"全興里","LIN":"10鄰","STREET":" ","SECT":" ","MAREA":"竹子\u25A0","LANE":" ","ALLEY":" ","HOUSE_NO":"１６６號之１０","E_COORD97":177245.810046,"N_COORD97":2547223.1609200002,"ADDRESS":"竹子\u25A0１６６號之１０","OBJECTID":664733},"geometry":{"x":177245.81004600134,"y":2547223.1609200016}},{"attributes":{"ID":664761,"DIS_CODE":0,"TOWNNAME":"永康區","LI":"東橋里","LIN":"15鄰","STREET":"東橋五路","SECT":" ","MAREA":" ","LANE":" ","ALLEY":" ","HOUSE_NO":"８０號","E_COORD97":171743.654618,"N_COORD97":2546710.9355100002,"ADDRESS":"東橋五路８０號","OBJECTID":664734},"geometry":{"x":171743.65461800061,"y":2546710.9355070014}},{"attributes":{"ID":664762,"DIS_CODE":0,"TOWNNAME":"永康區","LI":"東橋里","LIN":"15鄰","STREET":"東橋五路","SECT":" ","MAREA":" ","LANE":"７２巷","ALLEY":" ","HOUSE_NO":"９號","E_COORD97":171776.92387999999,"N_COORD97":2546694.42552,"ADDRESS":"東橋五路７２巷９號","OBJECTID":664735},"geometry":{"x":171776.9238800006,"y":2546694.425516}},{"attributes":{"ID":664763,"DIS_CODE":0,"TOWNNAME":"永康區","LI":"東橋里","LIN":"15鄰","STREET":"東橋五路","SECT":" ","MAREA":" ","LANE":"７２巷","ALLEY":" ","HOUSE_NO":"１１號","E_COORD97":171779.89056599999,"N_COORD97":2546695.69551,"ADDRESS":"東橋五路７２巷１１號","OBJECTID":664736},"geometry":{"x":171779.89056600071,"y":2546695.6955150012}},{"attributes":{"ID":664764,"DIS_CODE":0,"TOWNNAME":"永康區","LI":"東橋里","LIN":"15鄰","STREET":"東橋五路","SECT":" ","MAREA":" ","LANE":"７２巷","ALLEY":" ","HOUSE_NO":"１６號","E_COORD97":171780.526285,"N_COORD97":2546689.55718,"ADDRESS":"東橋五路７２巷１６號","OBJECTID":664737},"geometry":{"x":171780.52628500201,"y":2546689.5571850035}},{"attributes":{"ID":664765,"DIS_CODE":0,"TOWNNAME":"永康區","LI":"埔園里","LIN":"37鄰","STREET":"龍中街","SECT":" ","MAREA":" ","LANE":" ","ALLEY":" ","HOUSE_NO":"４６３號","E_COORD97":174389.51456899999,"N_COORD97":2548301.9271499999,"ADDRESS":"龍中街４６３號","OBJECTID":664738},"geometry":{"x":174389.51456900127,"y":2548301.9271479975}},{"attributes":{"ID":664766,"DIS_CODE":0,"TOWNNAME":"永康區","LI":"埔園里","LIN":"35鄰","STREET":"龍中街","SECT":" ","MAREA":" ","LANE":" ","ALLEY":" ","HOUSE_NO":"４６３之１號","E_COORD97":174388.24313300001,"N_COORD97":2548308.27715,"ADDRESS":"龍中街４６３之１號","OBJECTID":664739},"geometry":{"x":174388.24313300196,"y":2548308.277145002}},{"attributes":{"ID":664767,"DIS_CODE":0,"TOWNNAME":"新化區","LI":"全興里","LIN":"10鄰","STREET":" ","SECT":" ","MAREA":"竹子\u25A0","LANE":" ","ALLEY":" ","HOUSE_NO":"１６８號之１１","E_COORD97":177243.90323900001,"N_COORD97":2547080.6035000002,"ADDRESS":"竹子\u25A0１６８號之１１","OBJECTID":664740},"geometry":{"x":177243.90323899966,"y":2547080.6034970004}},{"attributes":{"ID":664768,"DIS_CODE":0,"TOWNNAME":"新化區","LI":"全興里","LIN":"10鄰","STREET":" ","SECT":" ","MAREA":"竹子\u25A0","LANE":" ","ALLEY":" ","HOUSE_NO":"１６９號","E_COORD97":177221.445293,"N_COORD97":2547203.2642600001,"ADDRESS":"竹子\u25A0１６９號","OBJECTID":664741},"geometry":{"x":177221.4452930009,"y":2547203.2642640024}},{"attributes":{"ID":664769,"DIS_CODE":0,"TOWNNAME":"新化區","LI":"全興里","LIN":"10鄰","STREET":" ","SECT":" ","MAREA":"竹子\u25A0","LANE":" ","ALLEY":" ","HOUSE_NO":"１７９號","E_COORD97":177580.136834,"N_COORD97":2547559.4990699999,"ADDRESS":"竹子\u25A0１７９號","OBJECTID":664742},"geometry":{"x":177580.13683400024,"y":2547559.4990720004}},{"attributes":{"ID":664770,"DIS_CODE":0,"TOWNNAME":"新化區","LI":"全興里","LIN":"11鄰","STREET":" ","SECT":" ","MAREA":"竹子\u25A0","LANE":" ","ALLEY":" ","HOUSE_NO":"２３３號之６","E_COORD97":177893.27687999999,"N_COORD97":2546922.06525,"ADDRESS":"竹子\u25A0２３３號之６","OBJECTID":664743},"geometry":{"x":177893.27688000072,"y":2546922.0652500018}},{"attributes":{"ID":664771,"DIS_CODE":0,"TOWNNAME":"新化區","LI":"全興里","LIN":"11鄰","STREET":" ","SECT":" ","MAREA":"竹子\u25A0","LANE":" ","ALLEY":" ","HOUSE_NO":"２３６號","E_COORD97":177923.78578899999,"N_COORD97":2546915.2919200002,"ADDRESS":"竹子\u25A0２３６號","OBJECTID":664744},"geometry":{"x":177923.7857890008,"y":2546915.2919199988}},{"attributes":{"ID":664772,"DIS_CODE":0,"TOWNNAME":"新化區","LI":"全興里","LIN":"11鄰","STREET":" ","SECT":" ","MAREA":"竹子\u25A0","LANE":" ","ALLEY":" ","HOUSE_NO":"２４９號之８","E_COORD97":178485.87005299999,"N_COORD97":2546853.59112,"ADDRESS":"竹子\u25A0２４９號之８","OBJECTID":664745},"geometry":{"x":178485.87005299982,"y":2546853.5911200009}},{"attributes":{"ID":664773,"DIS_CODE":0,"TOWNNAME":"新化區","LI":"全興里","LIN":"11鄰","STREET":" ","SECT":" ","MAREA":"竹子\u25A0","LANE":" ","ALLEY":" ","HOUSE_NO":"２４９號之５","E_COORD97":178667.86416600001,"N_COORD97":2546930.3202499999,"ADDRESS":"竹子\u25A0２４９號之５","OBJECTID":664746},"geometry":{"x":178667.86416600086,"y":2546930.3202449996}},{"attributes":{"ID":664774,"DIS_CODE":0,"TOWNNAME":"南區","LI":"大林里","LIN":"15鄰","STREET":"大同路","SECT":"二段","MAREA":" ","LANE":"４８２巷","ALLEY":"１０弄","HOUSE_NO":"３６號","E_COORD97":169420.431006,"N_COORD97":2541568.10072,"ADDRESS":"大同路二段４８２巷１０弄３６號","OBJECTID":664747},"geometry":{"x":169420.43100600038,"y":2541568.1007230021}},{"attributes":{"ID":664775,"DIS_CODE":0,"TOWNNAME":"南區","LI":"大林里","LIN":"15鄰","STREET":"大同路","SECT":"二段","MAREA":" ","LANE":"４８２巷","ALLEY":"１０弄","HOUSE_NO":"３６號二樓","E_COORD97":169420.431006,"N_COORD97":2541568.10072,"ADDRESS":"大同路二段４８２巷１０弄３６號二樓","OBJECTID":664748},"geometry":{"x":169420.43100600038,"y":2541568.1007230021}},{"attributes":{"ID":664776,"DIS_CODE":0,"TOWNNAME":"南區","LI":"大林里","LIN":"15鄰","STREET":"大同路","SECT":"二段","MAREA":" ","LANE":"４８２巷","ALLEY":"１０弄","HOUSE_NO":"３６號三樓","E_COORD97":169420.431006,"N_COORD97":2541568.10072,"ADDRESS":"大同路二段４８２巷１０弄３６號三樓","OBJECTID":664749},"geometry":{"x":169420.43100600038,"y":2541568.1007230021}},{"attributes":{"ID":664777,"DIS_CODE":0,"TOWNNAME":"南區","LI":"大林里","LIN":"15鄰","STREET":"大同路","SECT":"二段","MAREA":" ","LANE":"４８２巷","ALLEY":"１０弄","HOUSE_NO":"３６號五樓","E_COORD97":169420.431006,"N_COORD97":2541568.10072,"ADDRESS":"大同路二段４８２巷１０弄３６號五樓","OBJECTID":664750},"geometry":{"x":169420.43100600038,"y":2541568.1007230021}},{"attributes":{"ID":664778,"DIS_CODE":0,"TOWNNAME":"南區","LI":"大林里","LIN":"15鄰","STREET":"大同路","SECT":"二段","MAREA":" ","LANE":"４８２巷","ALLEY":"１０弄","HOUSE_NO":"３６號四樓","E_COORD97":169420.431006,"N_COORD97":2541568.10072,"ADDRESS":"大同路二段４８２巷１０弄３６號四樓","OBJECTID":664751},"geometry":{"x":169420.43100600038,"y":2541568.1007230021}},{"attributes":{"ID":664779,"DIS_CODE":0,"TOWNNAME":"南區","LI":"大林里","LIN":"15鄰","STREET":"大同路","SECT":"二段","MAREA":" ","LANE":"４８２巷","ALLEY":"１０弄","HOUSE_NO":"３８號二樓","E_COORD97":169418.94769199999,"N_COORD97":2541575.50905,"ADDRESS":"大同路二段４８２巷１０弄３８號二樓","OBJECTID":664752},"geometry":{"x":169418.94769200124,"y":2541575.5090519991}},{"attributes":{"ID":664780,"DIS_CODE":0,"TOWNNAME":"南區","LI":"大林里","LIN":"15鄰","STREET":"大同路","SECT":"二段","MAREA":" ","LANE":"４８２巷","ALLEY":"１０弄","HOUSE_NO":"３８號三樓","E_COORD97":169418.94769199999,"N_COORD97":2541575.50905,"ADDRESS":"大同路二段４８２巷１０弄３８號三樓","OBJECTID":664753},"geometry":{"x":169418.94769200124,"y":2541575.5090519991}},{"attributes":{"ID":664781,"DIS_CODE":0,"TOWNNAME":"南區","LI":"大林里","LIN":"15鄰","STREET":"大同路","SECT":"二段","MAREA":" ","LANE":"４８２巷","ALLEY":"１０弄","HOUSE_NO":"３８號五樓","E_COORD97":169418.94769199999,"N_COORD97":2541575.50905,"ADDRESS":"大同路二段４８２巷１０弄３８號五樓","OBJECTID":664754},"geometry":{"x":169418.94769200124,"y":2541575.5090519991}},{"attributes":{"ID":664782,"DIS_CODE":0,"TOWNNAME":"南區","LI":"大林里","LIN":"15鄰","STREET":"大同路","SECT":"二段","MAREA":" ","LANE":"４８２巷","ALLEY":"１０弄","HOUSE_NO":"３８號四樓","E_COORD97":169418.94769199999,"N_COORD97":2541575.50905,"ADDRESS":"大同路二段４８２巷１０弄３８號四樓","OBJECTID":664755},"geometry":{"x":169418.94769200124,"y":2541575.5090519991}},{"attributes":{"ID":664783,"DIS_CODE":0,"TOWNNAME":"南區","LI":"大林里","LIN":"15鄰","STREET":"大同路","SECT":"二段","MAREA":" ","LANE":"４８２巷","ALLEY":"１０弄","HOUSE_NO":"３８號","E_COORD97":169418.94769199999,"N_COORD97":2541575.50905,"ADDRESS":"大同路二段４８２巷１０弄３８號","OBJECTID":664756},"geometry":{"x":169418.94769200124,"y":2541575.5090519991}},{"attributes":{"ID":664784,"DIS_CODE":0,"TOWNNAME":"南區","LI":"建南里","LIN":"23鄰","STREET":"永成路","SECT":"二段","MAREA":" ","LANE":" ","ALLEY":" ","HOUSE_NO":"６５２之３號","E_COORD97":167519.034415,"N_COORD97":2539186.85201,"ADDRESS":"永成路二段６５２之３號","OBJECTID":664757},"geometry":{"x":167519.03441500012,"y":2539186.852009004}},{"attributes":{"ID":664785,"DIS_CODE":0,"TOWNNAME":"南區","LI":"新興里","LIN":"15鄰","STREET":"三官路","SECT":" ","MAREA":" ","LANE":" ","ALLEY":" ","HOUSE_NO":"１１號","E_COORD97":167357.9889,"N_COORD97":2542400.3736100001,"ADDRESS":"三官路１１號","OBJECTID":664758},"geometry":{"x":167357.98890000023,"y":2542400.3736070022}},{"attributes":{"ID":664786,"DIS_CODE":0,"TOWNNAME":"南區","LI":"新興里","LIN":"15鄰","STREET":"三官路","SECT":" ","MAREA":" ","LANE":" ","ALLEY":" ","HOUSE_NO":"１７號","E_COORD97":167357.353194,"N_COORD97":2542394.6586099998,"ADDRESS":"三官路１７號","OBJECTID":664759},"geometry":{"x":167357.35319400113,"y":2542394.6586099993}},{"attributes":{"ID":664787,"DIS_CODE":0,"TOWNNAME":"南區","LI":"新興里","LIN":"15鄰","STREET":"三官路","SECT":" ","MAREA":" ","LANE":" ","ALLEY":" ","HOUSE_NO":"１９號","E_COORD97":167357.353194,"N_COORD97":2542389.3669500002,"ADDRESS":"三官路１９號","OBJECTID":664760},"geometry":{"x":167357.35319400113,"y":2542389.3669460025}},{"attributes":{"ID":664788,"DIS_CODE":0,"TOWNNAME":"南區","LI":"新興里","LIN":"15鄰","STREET":"三官路","SECT":" ","MAREA":" ","LANE":" ","ALLEY":" ","HOUSE_NO":"２１號","E_COORD97":167357.14129199999,"N_COORD97":2542384.7102800002,"ADDRESS":"三官路２１號","OBJECTID":664761},"geometry":{"x":167357.14129200205,"y":2542384.7102820035}},{"attributes":{"ID":664789,"DIS_CODE":0,"TOWNNAME":"南區","LI":"新興里","LIN":"16鄰","STREET":"三官路","SECT":" ","MAREA":" ","LANE":"２５巷","ALLEY":" ","HOUSE_NO":"３號","E_COORD97":167363.28645000001,"N_COORD97":2542381.9586200002,"ADDRESS":"三官路２５巷３號","OBJECTID":664762},"geometry":{"x":167363.28645000048,"y":2542381.9586170018}},{"attributes":{"ID":664790,"DIS_CODE":0,"TOWNNAME":"南區","LI":"荔宅里","LIN":"7鄰","STREET":"興昌路","SECT":" ","MAREA":" ","LANE":"５３巷","ALLEY":" ","HOUSE_NO":"５０號","E_COORD97":167864.64656699999,"N_COORD97":2541829.72058,"ADDRESS":"興昌路５３巷５０號","OBJECTID":664763},"geometry":{"x":167864.64656700008,"y":2541829.7205820028}},{"attributes":{"ID":664791,"DIS_CODE":0,"TOWNNAME":"南區","LI":"荔宅里","LIN":"7鄰","STREET":"興昌路","SECT":" ","MAREA":" ","LANE":"５３巷","ALLEY":" ","HOUSE_NO":"５０號三樓","E_COORD97":167864.64656699999,"N_COORD97":2541829.72058,"ADDRESS":"興昌路５３巷５０號三樓","OBJECTID":664764},"geometry":{"x":167864.64656700008,"y":2541829.7205820028}},{"attributes":{"ID":664792,"DIS_CODE":0,"TOWNNAME":"新化區","LI":"全興里","LIN":"11鄰","STREET":" ","SECT":" ","MAREA":"竹子\u25A0","LANE":" ","ALLEY":" ","HOUSE_NO":"２５６號之７","E_COORD97":178789.32189200001,"N_COORD97":2547240.7834999999,"ADDRESS":"竹子\u25A0２５６號之７","OBJECTID":664765},"geometry":{"x":178789.32189200167,"y":2547240.7834960017}},{"attributes":{"ID":664793,"DIS_CODE":0,"TOWNNAME":"南區","LI":"彰南里","LIN":"14鄰","STREET":"新愛路","SECT":" ","MAREA":" ","LANE":" ","ALLEY":" ","HOUSE_NO":"１之２號","E_COORD97":166198.673091,"N_COORD97":2541662.7156699998,"ADDRESS":"新愛路１之２號","OBJECTID":664766},"geometry":{"x":166198.67309099995,"y":2541662.7156719994}},{"attributes":{"ID":664794,"DIS_CODE":0,"TOWNNAME":"南區","LI":"彰南里","LIN":"14鄰","STREET":"新愛路","SECT":" ","MAREA":" ","LANE":" ","ALLEY":" ","HOUSE_NO":"１之２號二樓","E_COORD97":166198.673091,"N_COORD97":2541662.7156699998,"ADDRESS":"新愛路１之２號二樓","OBJECTID":664767},"geometry":{"x":166198.67309099995,"y":2541662.7156719994}},{"attributes":{"ID":664795,"DIS_CODE":0,"TOWNNAME":"南區","LI":"彰南里","LIN":"14鄰","STREET":"新愛路","SECT":" ","MAREA":" ","LANE":" ","ALLEY":" ","HOUSE_NO":"１之２號三樓","E_COORD97":166198.673091,"N_COORD97":2541662.7156699998,"ADDRESS":"新愛路１之２號三樓","OBJECTID":664768},"geometry":{"x":166198.67309099995,"y":2541662.7156719994}},{"attributes":{"ID":664796,"DIS_CODE":0,"TOWNNAME":"南區","LI":"省躬里","LIN":"14鄰","STREET":"萬年二街","SECT":" ","MAREA":" ","LANE":"３２巷","ALLEY":" ","HOUSE_NO":"２８號","E_COORD97":166843.10024,"N_COORD97":2537164.6214100001,"ADDRESS":"萬年二街３２巷２８號","OBJECTID":664769},"geometry":{"x":166843.10023999959,"y":2537164.6214129999}},{"attributes":{"ID":664797,"DIS_CODE":0,"TOWNNAME":"玉井區","LI":"竹圍里","LIN":"14鄰","STREET":" ","SECT":" ","MAREA":"竹圍","LANE":" ","ALLEY":" ","HOUSE_NO":"１４０之１５號","E_COORD97":196856.29440700001,"N_COORD97":2559960.92496,"ADDRESS":"竹圍１４０之１５號","OBJECTID":664770},"geometry":{"x":196856.29440699983,"y":2559960.9249620009}},{"attributes":{"ID":664798,"DIS_CODE":0,"TOWNNAME":"玉井區","LI":"沙田里","LIN":"1鄰","STREET":" ","SECT":" ","MAREA":"沙田","LANE":" ","ALLEY":" ","HOUSE_NO":"５之２號","E_COORD97":195544.428441,"N_COORD97":2557115.3936000001,"ADDRESS":"沙田５之２號","OBJECTID":664771},"geometry":{"x":195544.42844100017,"y":2557115.3936030027}},{"attributes":{"ID":664799,"DIS_CODE":0,"TOWNNAME":"玉井區","LI":"豐里里","LIN":"8鄰","STREET":" ","SECT":" ","MAREA":"豐里","LANE":" ","ALLEY":" ","HOUSE_NO":"８３之２號","E_COORD97":192825.067985,"N_COORD97":2559260.8461099998,"ADDRESS":"豐里８３之２號","OBJECTID":664772},"geometry":{"x":192825.06798500102,"y":2559260.8461080045}},{"attributes":{"ID":664800,"DIS_CODE":0,"TOWNNAME":"玉井區","LI":"望明里","LIN":"16鄰","STREET":" ","SECT":" ","MAREA":"望明","LANE":" ","ALLEY":" ","HOUSE_NO":"１６４之１號","E_COORD97":191746.760281,"N_COORD97":2555572.55577,"ADDRESS":"望明１６４之１號","OBJECTID":664773},"geometry":{"x":191746.76028100122,"y":2555572.5557729993}},{"attributes":{"ID":664801,"DIS_CODE":0,"TOWNNAME":"南區","LI":"竹溪里","LIN":"3鄰","STREET":"健康路","SECT":"一段","MAREA":" ","LANE":"１１３巷","ALLEY":" ","HOUSE_NO":"６６號","E_COORD97":168935.63242899999,"N_COORD97":2542231.8832700001,"ADDRESS":"健康路一段１１３巷６６號","OBJECTID":664774},"geometry":{"x":168935.63242899999,"y":2542231.8832729999}},{"attributes":{"ID":664802,"DIS_CODE":0,"TOWNNAME":"南區","LI":"文南里","LIN":"9鄰","STREET":"文南路","SECT":" ","MAREA":" ","LANE":" ","ALLEY":" ","HOUSE_NO":"６４號","E_COORD97":166947.99172699999,"N_COORD97":2542677.2297,"ADDRESS":"文南路６４號","OBJECTID":664775},"geometry":{"x":166947.99172700103,"y":2542677.229700001}},{"attributes":{"ID":664803,"DIS_CODE":0,"TOWNNAME":"南區","LI":"新興里","LIN":"7鄰","STREET":"健康路","SECT":"二段","MAREA":" ","LANE":" ","ALLEY":" ","HOUSE_NO":"５５號","E_COORD97":167579.67157000001,"N_COORD97":2542439.3164900001,"ADDRESS":"健康路二段５５號","OBJECTID":664776},"geometry":{"x":167579.67157000117,"y":2542439.3164949995}},{"attributes":{"ID":664804,"DIS_CODE":0,"TOWNNAME":"安南區","LI":"淵西里","LIN":"15鄰","STREET":"本原街","SECT":"三段","MAREA":" ","LANE":"２３４巷","ALLEY":" ","HOUSE_NO":"１３９之３９號","E_COORD97":165061.59224699999,"N_COORD97":2550702.9613800002,"ADDRESS":"本原街三段２３４巷１３９之３９號","OBJECTID":664777},"geometry":{"x":165061.59224699996,"y":2550702.9613760039}},{"attributes":{"ID":664805,"DIS_CODE":0,"TOWNNAME":"安南區","LI":"淵西里","LIN":"12鄰","STREET":"安中路","SECT":"四段","MAREA":" ","LANE":"２１０巷","ALLEY":" ","HOUSE_NO":"２９號","E_COORD97":164813.98002799999,"N_COORD97":2550138.6577599999,"ADDRESS":"安中路四段２１０巷２９號","OBJECTID":664778},"geometry":{"x":164813.98002799973,"y":2550138.6577579994}},{"attributes":{"ID":664806,"DIS_CODE":0,"TOWNNAME":"安南區","LI":"淵西里","LIN":"13鄰","STREET":"安中路","SECT":"四段","MAREA":" ","LANE":"３２０巷","ALLEY":"９７弄","HOUSE_NO":"４７之５５號","E_COORD97":164502.92700699999,"N_COORD97":2550768.26345,"ADDRESS":"安中路四段３２０巷９７弄４７之５５號","OBJECTID":664779},"geometry":{"x":164502.92700700089,"y":2550768.2634529993}},{"attributes":{"ID":664807,"DIS_CODE":0,"TOWNNAME":"北區","LI":"文成里","LIN":"18鄰","STREET":"文賢路","SECT":" ","MAREA":" ","LANE":"２１８巷","ALLEY":"２８弄","HOUSE_NO":"１之９號","E_COORD97":167497.79952,"N_COORD97":2544956.6605500001,"ADDRESS":"文賢路２１８巷２８弄１之９號","OBJECTID":664780},"geometry":{"x":167497.79952000082,"y":2544956.6605500001}},{"attributes":{"ID":664808,"DIS_CODE":0,"TOWNNAME":"北區","LI":"成德里","LIN":"41鄰","STREET":"文成二路","SECT":" ","MAREA":" ","LANE":" ","ALLEY":" ","HOUSE_NO":"２１７號","E_COORD97":168262.96722600001,"N_COORD97":2546162.8758399999,"ADDRESS":"文成二路２１７號","OBJECTID":664781},"geometry":{"x":168262.9672260005,"y":2546162.8758380022}},{"attributes":{"ID":664809,"DIS_CODE":0,"TOWNNAME":"北區","LI":"賢北里","LIN":"3鄰","STREET":"中華北路","SECT":"一段","MAREA":" ","LANE":" ","ALLEY":" ","HOUSE_NO":"１３１號","E_COORD97":166479.073405,"N_COORD97":2545578.9602199998,"ADDRESS":"中華北路一段１３１號","OBJECTID":664782},"geometry":{"x":166479.07340500131,"y":2545578.9602200016}},{"attributes":{"ID":664810,"DIS_CODE":0,"TOWNNAME":"新市區","LI":"新市里","LIN":"23鄰","STREET":"富林路","SECT":" ","MAREA":" ","LANE":" ","ALLEY":" ","HOUSE_NO":"１號","E_COORD97":177791.65414900001,"N_COORD97":2553582.96471,"ADDRESS":"富林路１號","OBJECTID":664783},"geometry":{"x":177791.65414900053,"y":2553582.964707002}},{"attributes":{"ID":664811,"DIS_CODE":0,"TOWNNAME":"仁德區","LI":"仁德里","LIN":"24鄰","STREET":"文忠路","SECT":" ","MAREA":" ","LANE":" ","ALLEY":" ","HOUSE_NO":"８１號","E_COORD97":171947.94915,"N_COORD97":2541557.2902000002,"ADDRESS":"文忠路８１號","OBJECTID":664784},"geometry":{"x":171947.94914999977,"y":2541557.2901959997}},{"attributes":{"ID":664812,"DIS_CODE":0,"TOWNNAME":"仁德區","LI":"仁德里","LIN":"24鄰","STREET":"文忠路","SECT":" ","MAREA":" ","LANE":" ","ALLEY":" ","HOUSE_NO":"８５號","E_COORD97":171949.85671200001,"N_COORD97":2541568.2968600001,"ADDRESS":"文忠路８５號","OBJECTID":664785},"geometry":{"x":171949.85671200044,"y":2541568.2968569994}},{"attributes":{"ID":664813,"DIS_CODE":0,"TOWNNAME":"北區","LI":"安民里","LIN":"9鄰","STREET":"成功路","SECT":" ","MAREA":" ","LANE":" ","ALLEY":" ","HOUSE_NO":"３３６號","E_COORD97":168082.01762999999,"N_COORD97":2544498.44148,"ADDRESS":"成功路３３６號","OBJECTID":664786},"geometry":{"x":168082.0176300006,"y":2544498.4414799996}},{"attributes":{"ID":664814,"DIS_CODE":0,"TOWNNAME":"北區","LI":"安民里","LIN":"9鄰","STREET":"成功路","SECT":" ","MAREA":" ","LANE":" ","ALLEY":" ","HOUSE_NO":"３３６號二樓","E_COORD97":168082.01762999999,"N_COORD97":2544498.44148,"ADDRESS":"成功路３３６號二樓","OBJECTID":664787},"geometry":{"x":168082.0176300006,"y":2544498.4414799996}},{"attributes":{"ID":664815,"DIS_CODE":0,"TOWNNAME":"北區","LI":"安民里","LIN":"9鄰","STREET":"成功路","SECT":" ","MAREA":" ","LANE":" ","ALLEY":" ","HOUSE_NO":"３３６號三樓","E_COORD97":168082.01762999999,"N_COORD97":2544498.44148,"ADDRESS":"成功路３３６號三樓","OBJECTID":664788},"geometry":{"x":168082.0176300006,"y":2544498.4414799996}},{"attributes":{"ID":664816,"DIS_CODE":0,"TOWNNAME":"北區","LI":"文成里","LIN":"18鄰","STREET":"文賢路","SECT":" ","MAREA":" ","LANE":"２４２巷","ALLEY":"７２弄","HOUSE_NO":"２８號","E_COORD97":167520.570939,"N_COORD97":2544974.1453200001,"ADDRESS":"文賢路２４２巷７２弄２８號","OBJECTID":664789},"geometry":{"x":167520.57093899976,"y":2544974.1453200001}},{"attributes":{"ID":664817,"DIS_CODE":0,"TOWNNAME":"北區","LI":"文成里","LIN":"18鄰","STREET":"文賢路","SECT":" ","MAREA":" ","LANE":"２４２巷","ALLEY":"７２弄","HOUSE_NO":"３０號","E_COORD97":167521.630167,"N_COORD97":2544968.6419899999,"ADDRESS":"文賢路２４２巷７２弄３０號","OBJECTID":664790},"geometry":{"x":167521.63016700093,"y":2544968.641989002}},{"attributes":{"ID":664818,"DIS_CODE":0,"TOWNNAME":"北區","LI":"成德里","LIN":"16鄰","STREET":"西門路","SECT":"四段","MAREA":" ","LANE":" ","ALLEY":" ","HOUSE_NO":"３１５號","E_COORD97":168960.65300799999,"N_COORD97":2546065.8044500002,"ADDRESS":"西門路四段３１５號","OBJECTID":664791},"geometry":{"x":168960.65300799999,"y":2546065.8044500034}},{"attributes":{"ID":664819,"DIS_CODE":0,"TOWNNAME":"麻豆區","LI":"北勢里","LIN":"2鄰","STREET":" ","SECT":" ","MAREA":"加輦邦","LANE":" ","ALLEY":" ","HOUSE_NO":"１７號之２","E_COORD97":173311.020239,"N_COORD97":2566322.28914,"ADDRESS":"加輦邦１７號之２","OBJECTID":664792},"geometry":{"x":173311.02023900207,"y":2566322.2891370039}},{"attributes":{"ID":664820,"DIS_CODE":0,"TOWNNAME":"安定區","LI":"管寮里","LIN":"3鄰","STREET":" ","SECT":" ","MAREA":"管寮","LANE":" ","ALLEY":" ","HOUSE_NO":"３０之８號","E_COORD97":170192.12923200001,"N_COORD97":2556573.65344,"ADDRESS":"管寮３０之８號","OBJECTID":664793},"geometry":{"x":170192.12923200056,"y":2556573.6534450017}},{"attributes":{"ID":664821,"DIS_CODE":0,"TOWNNAME":"永康區","LI":"北灣里","LIN":"16鄰","STREET":"文賢街","SECT":" ","MAREA":" ","LANE":"３５６巷","ALLEY":"１７弄","HOUSE_NO":"１０號","E_COORD97":174863.255328,"N_COORD97":2545838.6568300002,"ADDRESS":"文賢街３５６巷１７弄１０號","OBJECTID":664794},"geometry":{"x":174863.25532799959,"y":2545838.6568329986}},{"attributes":{"ID":664822,"DIS_CODE":0,"TOWNNAME":"永康區","LI":"北灣里","LIN":"16鄰","STREET":"文賢街","SECT":" ","MAREA":" ","LANE":"３５６巷","ALLEY":"１７弄","HOUSE_NO":"１２號","E_COORD97":174861.98389199999,"N_COORD97":2545842.2551699998,"ADDRESS":"文賢街３５６巷１７弄１２號","OBJECTID":664795},"geometry":{"x":174861.98389200028,"y":2545842.2551650014}},{"attributes":{"ID":664823,"DIS_CODE":0,"TOWNNAME":"永康區","LI":"北灣里","LIN":"16鄰","STREET":"文賢街","SECT":" ","MAREA":" ","LANE":"３５６巷","ALLEY":"１７弄","HOUSE_NO":"１６號","E_COORD97":174860.92436100001,"N_COORD97":2545844.5835000002,"ADDRESS":"文賢街３５６巷１７弄１６號","OBJECTID":664796},"geometry":{"x":174860.92436099891,"y":2545844.583496999}},{"attributes":{"ID":664824,"DIS_CODE":0,"TOWNNAME":"安定區","LI":"港尾里","LIN":"11鄰","STREET":" ","SECT":" ","MAREA":"港子尾","LANE":" ","ALLEY":" ","HOUSE_NO":"６４之１１號","E_COORD97":171281.572506,"N_COORD97":2555657.56061,"ADDRESS":"港子尾６４之１１號","OBJECTID":664797},"geometry":{"x":171281.57250600215,"y":2555657.5606060028}},{"attributes":{"ID":664825,"DIS_CODE":0,"TOWNNAME":"玉井區","LI":"竹圍里","LIN":"16鄰","STREET":"忠孝街","SECT":" ","MAREA":" ","LANE":" ","ALLEY":" ","HOUSE_NO":"２５９之１號","E_COORD97":195501.278895,"N_COORD97":2558285.4783700001,"ADDRESS":"忠孝街２５９之１號","OBJECTID":664798},"geometry":{"x":195501.27889500093,"y":2558285.4783660006}},{"attributes":{"ID":664826,"DIS_CODE":0,"TOWNNAME":"玉井區","LI":"望明里","LIN":"8鄰","STREET":" ","SECT":" ","MAREA":"公\u25A0","LANE":" ","ALLEY":" ","HOUSE_NO":"４１號","E_COORD97":193929.66002800001,"N_COORD97":2556597.5434500002,"ADDRESS":"公\u25A0４１號","OBJECTID":664799},"geometry":{"x":193929.66002800036,"y":2556597.5434450004}},{"attributes":{"ID":664827,"DIS_CODE":0,"TOWNNAME":"玉井區","LI":"望明里","LIN":"14鄰","STREET":" ","SECT":" ","MAREA":"望明","LANE":" ","ALLEY":" ","HOUSE_NO":"１４４之１號","E_COORD97":192706.94435100001,"N_COORD97":2556282.07033,"ADDRESS":"望明１４４之１號","OBJECTID":664800},"geometry":{"x":192706.94435099978,"y":2556282.0703249983}}]}