{"displayFieldName":"TOWNNAME","fieldAliases":{"ID":"ID","DIS_CODE":"DIS_CODE","TOWNNAME":"TOWNNAME","LI":"LI","LIN":"LIN","STREET":"STREET","SECT":"SECT","MAREA":"MAREA","LANE":"LANE","ALLEY":"ALLEY","HOUSE_NO":"HOUSE_NO","E_COORD97":"E_COORD97","N_COORD97":"N_COORD97","ADDRESS":"ADDRESS","OBJECTID":"OBJECTID"},"geometryType":"esriGeometryPoint","spatialReference":{"wkid":102443,"latestWkid":3826},"fields":[{"name":"ID","type":"esriFieldTypeDouble","alias":"ID"},{"name":"DIS_CODE","type":"esriFieldTypeInteger","alias":"DIS_CODE"},{"name":"TOWNNAME","type":"esriFieldTypeString","alias":"TOWNNAME","length":8},{"name":"LI","type":"esriFieldTypeString","alias":"LI","length":8},{"name":"LIN","type":"esriFieldTypeString","alias":"LIN","length":12},{"name":"STREET","type":"esriFieldTypeString","alias":"STREET","length":20},{"name":"SECT","type":"esriFieldTypeString","alias":"SECT","length":8},{"name":"MAREA","type":"esriFieldTypeString","alias":"MAREA","length":12},{"name":"LANE","type":"esriFieldTypeString","alias":"LANE","length":10},{"name":"ALLEY","type":"esriFieldTypeString","alias":"ALLEY","length":10},{"name":"HOUSE_NO","type":"esriFieldTypeString","alias":"HOUSE_NO","length":20},{"name":"E_COORD97","type":"esriFieldTypeDouble","alias":"E_COORD97"},{"name":"N_COORD97","type":"esriFieldTypeDouble","alias":"N_COORD97"},{"name":"ADDRESS","type":"esriFieldTypeString","alias":"ADDRESS","length":50},{"name":"OBJECTID","type":"esriFieldTypeOID","alias":"OBJECTID"}],"features":[{"attributes":{"ID":388825,"DIS_CODE":0,"TOWNNAME":"新營區","LI":"新東里","LIN":"28鄰","STREET":"東光街","SECT":" ","MAREA":" ","LANE":"８２巷","ALLEY":" ","HOUSE_NO":"１９號","E_COORD97":180665.06,"N_COORD97":2579650.29,"ADDRESS":"東光街８２巷１９號","OBJECTID":388801},"geometry":{"x":180665.05999999959,"y":2579650.2899999991}},{"attributes":{"ID":388826,"DIS_CODE":0,"TOWNNAME":"新營區","LI":"新東里","LIN":"28鄰","STREET":"東光街","SECT":" ","MAREA":" ","LANE":"８２巷","ALLEY":" ","HOUSE_NO":"２１號","E_COORD97":180671.39999999999,"N_COORD97":2579650.5,"ADDRESS":"東光街８２巷２１號","OBJECTID":388802},"geometry":{"x":180671.4000000013,"y":2579650.5000000037}},{"attributes":{"ID":388827,"DIS_CODE":0,"TOWNNAME":"新營區","LI":"新東里","LIN":"28鄰","STREET":"東興九街","SECT":" ","MAREA":" ","LANE":"１２巷","ALLEY":" ","HOUSE_NO":"６６號","E_COORD97":180625.56,"N_COORD97":2579835.5099999998,"ADDRESS":"東興九街１２巷６６號","OBJECTID":388803},"geometry":{"x":180625.55999999959,"y":2579835.5099999998}},{"attributes":{"ID":388828,"DIS_CODE":0,"TOWNNAME":"新化區","LI":"東榮里","LIN":"28鄰","STREET":"中興路","SECT":" ","MAREA":" ","LANE":"８２５巷","ALLEY":" ","HOUSE_NO":"３號","E_COORD97":179139.85339400001,"N_COORD97":2548214.0252,"ADDRESS":"中興路８２５巷３號","OBJECTID":388804},"geometry":{"x":179139.85339399893,"y":2548214.0251950007}},{"attributes":{"ID":388829,"DIS_CODE":0,"TOWNNAME":"新化區","LI":"東榮里","LIN":"28鄰","STREET":"中興路","SECT":" ","MAREA":" ","LANE":"８２５巷","ALLEY":" ","HOUSE_NO":"７號","E_COORD97":179147.26875399999,"N_COORD97":2548216.35353,"ADDRESS":"中興路８２５巷７號","OBJECTID":388805},"geometry":{"x":179147.26875399984,"y":2548216.3535270002}},{"attributes":{"ID":388830,"DIS_CODE":0,"TOWNNAME":"新化區","LI":"東榮里","LIN":"28鄰","STREET":"中興路","SECT":" ","MAREA":" ","LANE":"８２５巷","ALLEY":" ","HOUSE_NO":"１３號","E_COORD97":179155.531583,"N_COORD97":2548217.83519,"ADDRESS":"中興路８２５巷１３號","OBJECTID":388806},"geometry":{"x":179155.53158300091,"y":2548217.8351920005}},{"attributes":{"ID":388831,"DIS_CODE":0,"TOWNNAME":"安平區","LI":"育平里","LIN":"28鄰","STREET":"健康三街","SECT":" ","MAREA":" ","LANE":"１６５巷","ALLEY":" ","HOUSE_NO":"１６號","E_COORD97":164707.01000000001,"N_COORD97":2543229.4900000002,"ADDRESS":"健康三街１６５巷１６號","OBJECTID":388807},"geometry":{"x":164707.00999999978,"y":2543229.4900000021}},{"attributes":{"ID":388832,"DIS_CODE":0,"TOWNNAME":"安平區","LI":"平通里","LIN":"28鄰","STREET":"育平七街","SECT":" ","MAREA":" ","LANE":"８０巷","ALLEY":" ","HOUSE_NO":"８號","E_COORD97":164407.03673399999,"N_COORD97":2543808.6114400001,"ADDRESS":"育平七街８０巷８號","OBJECTID":388808},"geometry":{"x":164407.03673399985,"y":2543808.6114360001}},{"attributes":{"ID":388833,"DIS_CODE":0,"TOWNNAME":"善化區","LI":"坐駕里","LIN":"13鄰","STREET":"自立路","SECT":" ","MAREA":" ","LANE":" ","ALLEY":" ","HOUSE_NO":"７號","E_COORD97":178268.48999999999,"N_COORD97":2558661.5,"ADDRESS":"自立路７號","OBJECTID":388809},"geometry":{"x":178268.49000000115,"y":2558661.5000000019}},{"attributes":{"ID":388834,"DIS_CODE":0,"TOWNNAME":"永康區","LI":"\u25A0洲里","LIN":"28鄰","STREET":"洲尾街","SECT":" ","MAREA":" ","LANE":"１５２巷","ALLEY":" ","HOUSE_NO":"４６號","E_COORD97":171105.07999999999,"N_COORD97":2549052.1099999999,"ADDRESS":"洲尾街１５２巷４６號","OBJECTID":388810},"geometry":{"x":171105.08000000101,"y":2549052.1100000013}},{"attributes":{"ID":388835,"DIS_CODE":0,"TOWNNAME":"永康區","LI":"西勢里","LIN":"28鄰","STREET":"西勢路","SECT":" ","MAREA":" ","LANE":"１巷","ALLEY":" ","HOUSE_NO":"３９８號","E_COORD97":176935.35999999999,"N_COORD97":2546216.96,"ADDRESS":"西勢路１巷３９８號","OBJECTID":388811},"geometry":{"x":176935.36000000127,"y":2546216.9600000028}},{"attributes":{"ID":388836,"DIS_CODE":0,"TOWNNAME":"永康區","LI":"\u25A0洲里","LIN":"28鄰","STREET":"洲尾街","SECT":" ","MAREA":" ","LANE":"１５２巷","ALLEY":" ","HOUSE_NO":"４６之１號","E_COORD97":171107.23000000001,"N_COORD97":2549058.5099999998,"ADDRESS":"洲尾街１５２巷４６之１號","OBJECTID":388812},"geometry":{"x":171107.23000000045,"y":2549058.5099999979}},{"attributes":{"ID":388837,"DIS_CODE":0,"TOWNNAME":"永康區","LI":"\u25A0洲里","LIN":"28鄰","STREET":"洲尾街","SECT":" ","MAREA":" ","LANE":"１５２巷","ALLEY":" ","HOUSE_NO":"４６之５號","E_COORD97":171123.42999999999,"N_COORD97":2549057.3999999999,"ADDRESS":"洲尾街１５２巷４６之５號","OBJECTID":388813},"geometry":{"x":171123.4299999997,"y":2549057.4000000022}},{"attributes":{"ID":388838,"DIS_CODE":0,"TOWNNAME":"永康區","LI":"崑山里","LIN":"28鄰","STREET":"大灣路","SECT":" ","MAREA":" ","LANE":"９４２巷","ALLEY":" ","HOUSE_NO":"１８７號","E_COORD97":173721.35000000001,"N_COORD97":2544826.0099999998,"ADDRESS":"大灣路９４２巷１８７號","OBJECTID":388814},"geometry":{"x":173721.34999999963,"y":2544826.0099999998}},{"attributes":{"ID":388839,"DIS_CODE":0,"TOWNNAME":"永康區","LI":"\u25A0洲里","LIN":"28鄰","STREET":"洲尾街","SECT":" ","MAREA":" ","LANE":"１５２巷","ALLEY":" ","HOUSE_NO":"４６之２號","E_COORD97":171110.88,"N_COORD97":2549060.8700000001,"ADDRESS":"洲尾街１５２巷４６之２號","OBJECTID":388815},"geometry":{"x":171110.87999999989,"y":2549060.8700000048}},{"attributes":{"ID":388840,"DIS_CODE":0,"TOWNNAME":"中西區","LI":"大涼里","LIN":"28鄰","STREET":"中華西路","SECT":"二段","MAREA":" ","LANE":"２８巷","ALLEY":" ","HOUSE_NO":"８１號","E_COORD97":166834.01999999999,"N_COORD97":2543350.4700000002,"ADDRESS":"中華西路二段２８巷８１號","OBJECTID":388816},"geometry":{"x":166834.01999999955,"y":2543350.4700000044}},{"attributes":{"ID":388841,"DIS_CODE":0,"TOWNNAME":"永康區","LI":"崑山里","LIN":"28鄰","STREET":"大灣路","SECT":" ","MAREA":" ","LANE":"９４２巷","ALLEY":" ","HOUSE_NO":"１８７之１號","E_COORD97":173723.95000000001,"N_COORD97":2544831.21,"ADDRESS":"大灣路９４２巷１８７之１號","OBJECTID":388817},"geometry":{"x":173723.95000000112,"y":2544831.2100000028}},{"attributes":{"ID":388842,"DIS_CODE":0,"TOWNNAME":"永康區","LI":"\u25A0洲里","LIN":"28鄰","STREET":"洲尾街","SECT":" ","MAREA":" ","LANE":"１５２巷","ALLEY":" ","HOUSE_NO":"４６之３號","E_COORD97":171114.51999999999,"N_COORD97":2549063.2599999998,"ADDRESS":"洲尾街１５２巷４６之３號","OBJECTID":388818},"geometry":{"x":171114.51999999955,"y":2549063.2599999998}},{"attributes":{"ID":388843,"DIS_CODE":0,"TOWNNAME":"歸仁區","LI":"許厝里","LIN":"28鄰","STREET":"大仁街","SECT":" ","MAREA":" ","LANE":"２２巷","ALLEY":" ","HOUSE_NO":"１號","E_COORD97":177936.82000000001,"N_COORD97":2540795.5800000001,"ADDRESS":"大仁街２２巷１號","OBJECTID":388819},"geometry":{"x":177936.82000000216,"y":2540795.5800000001}},{"attributes":{"ID":388844,"DIS_CODE":0,"TOWNNAME":"歸仁區","LI":"歸仁里","LIN":"28鄰","STREET":"忠孝北路","SECT":" ","MAREA":" ","LANE":"８巷","ALLEY":" ","HOUSE_NO":"１２０號","E_COORD97":179136.56,"N_COORD97":2541099.5899999999,"ADDRESS":"忠孝北路８巷１２０號","OBJECTID":388820},"geometry":{"x":179136.56000000052,"y":2541099.5899999999}},{"attributes":{"ID":388845,"DIS_CODE":0,"TOWNNAME":"歸仁區","LI":"歸仁里","LIN":"28鄰","STREET":"忠孝北路","SECT":" ","MAREA":" ","LANE":"８巷","ALLEY":" ","HOUSE_NO":"１２８號","E_COORD97":179138.04999999999,"N_COORD97":2541110.5899999999,"ADDRESS":"忠孝北路８巷１２８號","OBJECTID":388821},"geometry":{"x":179138.04999999981,"y":2541110.5899999999}},{"attributes":{"ID":388846,"DIS_CODE":0,"TOWNNAME":"歸仁區","LI":"歸仁里","LIN":"28鄰","STREET":"忠孝北路","SECT":" ","MAREA":" ","LANE":"８巷","ALLEY":" ","HOUSE_NO":"１２６號","E_COORD97":179154.94,"N_COORD97":2541101.9700000002,"ADDRESS":"忠孝北路８巷１２６號","OBJECTID":388822},"geometry":{"x":179154.94000000227,"y":2541101.9700000007}},{"attributes":{"ID":388847,"DIS_CODE":0,"TOWNNAME":"歸仁區","LI":"歸仁里","LIN":"28鄰","STREET":"忠孝北路","SECT":" ","MAREA":" ","LANE":"８巷","ALLEY":" ","HOUSE_NO":"７２號","E_COORD97":178994.67000000001,"N_COORD97":2540858.5499999998,"ADDRESS":"忠孝北路８巷７２號","OBJECTID":388823},"geometry":{"x":178994.66999999993,"y":2540858.5500000026}},{"attributes":{"ID":388848,"DIS_CODE":0,"TOWNNAME":"歸仁區","LI":"許厝里","LIN":"28鄰","STREET":"大仁街","SECT":" ","MAREA":" ","LANE":"２２巷","ALLEY":" ","HOUSE_NO":"１５號","E_COORD97":177933.85999999999,"N_COORD97":2540765.9500000002,"ADDRESS":"大仁街２２巷１５號","OBJECTID":388824},"geometry":{"x":177933.86000000127,"y":2540765.9500000011}},{"attributes":{"ID":388849,"DIS_CODE":0,"TOWNNAME":"南區","LI":"文華里","LIN":"28鄰","STREET":"文南路","SECT":" ","MAREA":" ","LANE":"３４２巷","ALLEY":" ","HOUSE_NO":"２號","E_COORD97":167003.84,"N_COORD97":2543153.0699999998,"ADDRESS":"文南路３４２巷２號","OBJECTID":388825},"geometry":{"x":167003.84000000171,"y":2543153.0700000022}},{"attributes":{"ID":388850,"DIS_CODE":0,"TOWNNAME":"南區","LI":"文華里","LIN":"28鄰","STREET":"文南路","SECT":" ","MAREA":" ","LANE":"３４２巷","ALLEY":" ","HOUSE_NO":"６號","E_COORD97":167003.12,"N_COORD97":2543141.8500000001,"ADDRESS":"文南路３４２巷６號","OBJECTID":388826},"geometry":{"x":167003.12000000011,"y":2543141.8499999996}},{"attributes":{"ID":388851,"DIS_CODE":0,"TOWNNAME":"南區","LI":"文華里","LIN":"28鄰","STREET":"文南路","SECT":" ","MAREA":" ","LANE":"３４２巷","ALLEY":" ","HOUSE_NO":"８號","E_COORD97":167001.95000000001,"N_COORD97":2543131.6200000001,"ADDRESS":"文南路３４２巷８號","OBJECTID":388827},"geometry":{"x":167001.95000000112,"y":2543131.620000001}},{"attributes":{"ID":388852,"DIS_CODE":0,"TOWNNAME":"南區","LI":"文華里","LIN":"28鄰","STREET":"文南路","SECT":" ","MAREA":" ","LANE":"３４２巷","ALLEY":" ","HOUSE_NO":"１０號","E_COORD97":167015.07000000001,"N_COORD97":2543130.1000000001,"ADDRESS":"文南路３４２巷１０號","OBJECTID":388828},"geometry":{"x":167015.07000000123,"y":2543130.0999999996}},{"attributes":{"ID":388853,"DIS_CODE":0,"TOWNNAME":"南區","LI":"文華里","LIN":"28鄰","STREET":"文南路","SECT":" ","MAREA":" ","LANE":"３４２巷","ALLEY":" ","HOUSE_NO":"１２號","E_COORD97":167016.32999999999,"N_COORD97":2543139.3399999999,"ADDRESS":"文南路３４２巷１２號","OBJECTID":388829},"geometry":{"x":167016.33000000101,"y":2543139.3399999999}},{"attributes":{"ID":388854,"DIS_CODE":0,"TOWNNAME":"南區","LI":"文華里","LIN":"28鄰","STREET":"文南路","SECT":" ","MAREA":" ","LANE":"３４２巷","ALLEY":" ","HOUSE_NO":"１４號","E_COORD97":167018.84,"N_COORD97":2543148.04,"ADDRESS":"文南路３４２巷１４號","OBJECTID":388830},"geometry":{"x":167018.83999999985,"y":2543148.0399999991}},{"attributes":{"ID":388855,"DIS_CODE":0,"TOWNNAME":"南區","LI":"文華里","LIN":"28鄰","STREET":"文南路","SECT":" ","MAREA":" ","LANE":"３４２巷","ALLEY":" ","HOUSE_NO":"１６號","E_COORD97":167032,"N_COORD97":2543149.6499999999,"ADDRESS":"文南路３４２巷１６號","OBJECTID":388831},"geometry":{"x":167032.00000000093,"y":2543149.6500000022}},{"attributes":{"ID":388856,"DIS_CODE":0,"TOWNNAME":"南區","LI":"文華里","LIN":"28鄰","STREET":"文南路","SECT":" ","MAREA":" ","LANE":"３４２巷","ALLEY":" ","HOUSE_NO":"１８號","E_COORD97":167036.76000000001,"N_COORD97":2543148.8500000001,"ADDRESS":"文南路３４２巷１８號","OBJECTID":388832},"geometry":{"x":167036.76000000071,"y":2543148.8499999996}},{"attributes":{"ID":388857,"DIS_CODE":0,"TOWNNAME":"南區","LI":"文華里","LIN":"28鄰","STREET":"文南路","SECT":" ","MAREA":" ","LANE":"３４２巷","ALLEY":" ","HOUSE_NO":"２０號","E_COORD97":167040.79999999999,"N_COORD97":2543148.04,"ADDRESS":"文南路３４２巷２０號","OBJECTID":388833},"geometry":{"x":167040.79999999981,"y":2543148.0399999991}},{"attributes":{"ID":388858,"DIS_CODE":0,"TOWNNAME":"南區","LI":"文華里","LIN":"28鄰","STREET":"文南路","SECT":" ","MAREA":" ","LANE":"３４２巷","ALLEY":" ","HOUSE_NO":"２２號","E_COORD97":167045.20000000001,"N_COORD97":2543147.5,"ADDRESS":"文南路３４２巷２２號","OBJECTID":388834},"geometry":{"x":167045.20000000019,"y":2543147.5000000019}},{"attributes":{"ID":388859,"DIS_CODE":0,"TOWNNAME":"南區","LI":"文華里","LIN":"28鄰","STREET":"文南路","SECT":" ","MAREA":" ","LANE":"３４２巷","ALLEY":" ","HOUSE_NO":"２４號","E_COORD97":167049.34,"N_COORD97":2543146.6000000001,"ADDRESS":"文南路３４２巷２４號","OBJECTID":388835},"geometry":{"x":167049.33999999985,"y":2543146.6000000015}},{"attributes":{"ID":388860,"DIS_CODE":0,"TOWNNAME":"南區","LI":"文華里","LIN":"28鄰","STREET":"文南路","SECT":" ","MAREA":" ","LANE":"３４２巷","ALLEY":" ","HOUSE_NO":"２６號","E_COORD97":167053.64999999999,"N_COORD97":2543145.6200000001,"ADDRESS":"文南路３４２巷２６號","OBJECTID":388836},"geometry":{"x":167053.6500000013,"y":2543145.620000001}},{"attributes":{"ID":388861,"DIS_CODE":0,"TOWNNAME":"南區","LI":"文華里","LIN":"28鄰","STREET":"文南路","SECT":" ","MAREA":" ","LANE":"３４２巷","ALLEY":" ","HOUSE_NO":"２８號","E_COORD97":167057.42000000001,"N_COORD97":2543144.7200000002,"ADDRESS":"文南路３４２巷２８號","OBJECTID":388837},"geometry":{"x":167057.41999999993,"y":2543144.7200000007}},{"attributes":{"ID":388862,"DIS_CODE":0,"TOWNNAME":"南區","LI":"文華里","LIN":"28鄰","STREET":"文南路","SECT":" ","MAREA":" ","LANE":"３４２巷","ALLEY":" ","HOUSE_NO":"３０號","E_COORD97":167062,"N_COORD97":2543143.6400000001,"ADDRESS":"文南路３４２巷３０號","OBJECTID":388838},"geometry":{"x":167062,"y":2543143.6400000025}},{"attributes":{"ID":388863,"DIS_CODE":0,"TOWNNAME":"南區","LI":"文華里","LIN":"28鄰","STREET":"文南路","SECT":" ","MAREA":" ","LANE":"３４２巷","ALLEY":" ","HOUSE_NO":"３２號","E_COORD97":167067.29999999999,"N_COORD97":2543142.48,"ADDRESS":"文南路３４２巷３２號","OBJECTID":388839},"geometry":{"x":167067.30000000075,"y":2543142.4800000004}},{"attributes":{"ID":388864,"DIS_CODE":0,"TOWNNAME":"南區","LI":"文華里","LIN":"28鄰","STREET":"文南路","SECT":" ","MAREA":" ","LANE":"３４２巷","ALLEY":" ","HOUSE_NO":"３４號","E_COORD97":167072.60000000001,"N_COORD97":2543141.21,"ADDRESS":"文南路３４２巷３４號","OBJECTID":388840},"geometry":{"x":167072.59999999963,"y":2543141.2100000009}},{"attributes":{"ID":388865,"DIS_CODE":0,"TOWNNAME":"南區","LI":"文華里","LIN":"28鄰","STREET":"文南路","SECT":" ","MAREA":" ","LANE":"３４２巷","ALLEY":" ","HOUSE_NO":"３６號","E_COORD97":167078.17000000001,"N_COORD97":2543139.96,"ADDRESS":"文南路３４２巷３６號","OBJECTID":388841},"geometry":{"x":167078.17000000086,"y":2543139.9600000009}},{"attributes":{"ID":388866,"DIS_CODE":0,"TOWNNAME":"南區","LI":"文華里","LIN":"28鄰","STREET":"文南路","SECT":" ","MAREA":" ","LANE":"３４２巷","ALLEY":" ","HOUSE_NO":"３８號","E_COORD97":167083.38,"N_COORD97":2543138.8900000001,"ADDRESS":"文南路３４２巷３８號","OBJECTID":388842},"geometry":{"x":167083.38000000175,"y":2543138.8900000025}},{"attributes":{"ID":388867,"DIS_CODE":0,"TOWNNAME":"南區","LI":"文華里","LIN":"28鄰","STREET":"文南路","SECT":" ","MAREA":" ","LANE":"３４２巷","ALLEY":" ","HOUSE_NO":"４０號","E_COORD97":167088.41,"N_COORD97":2543137.8100000001,"ADDRESS":"文南路３４２巷４０號","OBJECTID":388843},"geometry":{"x":167088.41000000201,"y":2543137.8100000042}},{"attributes":{"ID":388868,"DIS_CODE":0,"TOWNNAME":"南區","LI":"文華里","LIN":"28鄰","STREET":"文南路","SECT":" ","MAREA":" ","LANE":"３４２巷","ALLEY":" ","HOUSE_NO":"４２號","E_COORD97":167093.79999999999,"N_COORD97":2543136.3700000001,"ADDRESS":"文南路３４２巷４２號","OBJECTID":388844},"geometry":{"x":167093.79999999981,"y":2543136.370000001}},{"attributes":{"ID":388869,"DIS_CODE":0,"TOWNNAME":"南區","LI":"文華里","LIN":"28鄰","STREET":"文南路","SECT":" ","MAREA":" ","LANE":"３４２巷","ALLEY":" ","HOUSE_NO":"４６號","E_COORD97":167098.47,"N_COORD97":2543136.0099999998,"ADDRESS":"文南路３４２巷４６號","OBJECTID":388845},"geometry":{"x":167098.47000000067,"y":2543136.0100000016}},{"attributes":{"ID":388870,"DIS_CODE":0,"TOWNNAME":"佳里區","LI":"六安里","LIN":"28鄰","STREET":"進學路","SECT":" ","MAREA":" ","LANE":"２５０巷","ALLEY":" ","HOUSE_NO":"９號","E_COORD97":165620.54999999999,"N_COORD97":2562794.2799999998,"ADDRESS":"進學路２５０巷９號","OBJECTID":388846},"geometry":{"x":165620.54999999981,"y":2562794.2800000031}},{"attributes":{"ID":388871,"DIS_CODE":0,"TOWNNAME":"中西區","LI":"大涼里","LIN":"28鄰","STREET":"中華西路","SECT":"二段","MAREA":" ","LANE":"２８巷","ALLEY":" ","HOUSE_NO":"７９號","E_COORD97":166828.53,"N_COORD97":2543351.54,"ADDRESS":"中華西路二段２８巷７９號","OBJECTID":388847},"geometry":{"x":166828.53000000212,"y":2543351.5399999972}},{"attributes":{"ID":388872,"DIS_CODE":0,"TOWNNAME":"中西區","LI":"大涼里","LIN":"28鄰","STREET":"永華一街","SECT":" ","MAREA":" ","LANE":"８５巷","ALLEY":" ","HOUSE_NO":"１號","E_COORD97":166868.13,"N_COORD97":2543473.2200000002,"ADDRESS":"永華一街８５巷１號","OBJECTID":388848},"geometry":{"x":166868.13000000175,"y":2543473.2200000007}},{"attributes":{"ID":388873,"DIS_CODE":0,"TOWNNAME":"永康區","LI":"永康里","LIN":"28鄰","STREET":"永平街","SECT":" ","MAREA":" ","LANE":"４６９巷","ALLEY":" ","HOUSE_NO":"２２號","E_COORD97":174164.35000000001,"N_COORD97":2546895.6200000001,"ADDRESS":"永平街４６９巷２２號","OBJECTID":388849},"geometry":{"x":174164.35000000056,"y":2546895.620000001}},{"attributes":{"ID":388874,"DIS_CODE":0,"TOWNNAME":"永康區","LI":"永康里","LIN":"28鄰","STREET":"永康街","SECT":" ","MAREA":" ","LANE":"３１０巷","ALLEY":" ","HOUSE_NO":"４０號","E_COORD97":174215.98999999999,"N_COORD97":2546944.7200000002,"ADDRESS":"永康街３１０巷４０號","OBJECTID":388850},"geometry":{"x":174215.99000000022,"y":2546944.7200000007}},{"attributes":{"ID":388875,"DIS_CODE":0,"TOWNNAME":"永康區","LI":"永康里","LIN":"28鄰","STREET":"永平街","SECT":" ","MAREA":" ","LANE":"４６９巷","ALLEY":" ","HOUSE_NO":"２７號","E_COORD97":174161.48999999999,"N_COORD97":2546918.9700000002,"ADDRESS":"永平街４６９巷２７號","OBJECTID":388851},"geometry":{"x":174161.49000000022,"y":2546918.9700000007}},{"attributes":{"ID":388876,"DIS_CODE":0,"TOWNNAME":"永康區","LI":"甲頂里","LIN":"28鄰","STREET":"中央路","SECT":" ","MAREA":" ","LANE":"２３巷","ALLEY":" ","HOUSE_NO":"２４號","E_COORD97":169532.79999999999,"N_COORD97":2546986.1000000001,"ADDRESS":"中央路２３巷２４號","OBJECTID":388852},"geometry":{"x":169532.79999999981,"y":2546986.0999999978}},{"attributes":{"ID":388877,"DIS_CODE":0,"TOWNNAME":"永康區","LI":"甲頂里","LIN":"28鄰","STREET":"中央路","SECT":" ","MAREA":" ","LANE":"２３巷","ALLEY":" ","HOUSE_NO":"５２號","E_COORD97":169450.85000000001,"N_COORD97":2546950.77,"ADDRESS":"中央路２３巷５２號","OBJECTID":388853},"geometry":{"x":169450.84999999963,"y":2546950.7699999996}},{"attributes":{"ID":388878,"DIS_CODE":0,"TOWNNAME":"永康區","LI":"永康里","LIN":"28鄰","STREET":"永平街","SECT":" ","MAREA":" ","LANE":"４６９巷","ALLEY":" ","HOUSE_NO":"８號","E_COORD97":174151.10000000001,"N_COORD97":2546869.1299999999,"ADDRESS":"永平街４６９巷８號","OBJECTID":388854},"geometry":{"x":174151.10000000056,"y":2546869.129999999}},{"attributes":{"ID":388879,"DIS_CODE":0,"TOWNNAME":"安南區","LI":"州北里","LIN":"28鄰","STREET":"安和路","SECT":"五段","MAREA":" ","LANE":"２７６巷","ALLEY":" ","HOUSE_NO":"１２號","E_COORD97":169803.22,"N_COORD97":2552049.96,"ADDRESS":"安和路五段２７６巷１２號","OBJECTID":388855},"geometry":{"x":169803.21999999881,"y":2552049.9600000009}},{"attributes":{"ID":388880,"DIS_CODE":0,"TOWNNAME":"安南區","LI":"州北里","LIN":"28鄰","STREET":"安和路","SECT":"五段","MAREA":" ","LANE":"２７６巷","ALLEY":" ","HOUSE_NO":"１３號","E_COORD97":169778.22,"N_COORD97":2552080.1200000001,"ADDRESS":"安和路五段２７６巷１３號","OBJECTID":388856},"geometry":{"x":169778.22000000067,"y":2552080.1200000048}},{"attributes":{"ID":388881,"DIS_CODE":0,"TOWNNAME":"安南區","LI":"州北里","LIN":"28鄰","STREET":"安和路","SECT":"五段","MAREA":" ","LANE":"２７６巷","ALLEY":" ","HOUSE_NO":"１５號","E_COORD97":169776.82000000001,"N_COORD97":2552084.29,"ADDRESS":"安和路五段２７６巷１５號","OBJECTID":388857},"geometry":{"x":169776.82000000123,"y":2552084.290000001}},{"attributes":{"ID":388882,"DIS_CODE":0,"TOWNNAME":"安南區","LI":"州北里","LIN":"28鄰","STREET":"安和路","SECT":"五段","MAREA":" ","LANE":"２７６巷","ALLEY":" ","HOUSE_NO":"１７號","E_COORD97":169773.87,"N_COORD97":2552087.9300000002,"ADDRESS":"安和路五段２７６巷１７號","OBJECTID":388858},"geometry":{"x":169773.87000000197,"y":2552087.9300000016}},{"attributes":{"ID":388883,"DIS_CODE":0,"TOWNNAME":"安南區","LI":"州北里","LIN":"28鄰","STREET":"安和路","SECT":"五段","MAREA":" ","LANE":"２７６巷","ALLEY":" ","HOUSE_NO":"１９號","E_COORD97":169772.29999999999,"N_COORD97":2552093.1499999999,"ADDRESS":"安和路五段２７６巷１９號","OBJECTID":388859},"geometry":{"x":169772.30000000168,"y":2552093.1500000022}},{"attributes":{"ID":388884,"DIS_CODE":0,"TOWNNAME":"安南區","LI":"州北里","LIN":"28鄰","STREET":"安和路","SECT":"五段","MAREA":" ","LANE":"２７６巷","ALLEY":" ","HOUSE_NO":"２１號","E_COORD97":169767.84,"N_COORD97":2552085.5299999998,"ADDRESS":"安和路五段２７６巷２１號","OBJECTID":388860},"geometry":{"x":169767.84000000078,"y":2552085.5300000031}},{"attributes":{"ID":388885,"DIS_CODE":0,"TOWNNAME":"安南區","LI":"州北里","LIN":"28鄰","STREET":"安和路","SECT":"五段","MAREA":" ","LANE":"２７６巷","ALLEY":" ","HOUSE_NO":"２３號","E_COORD97":169763.42999999999,"N_COORD97":2552083.5,"ADDRESS":"安和路五段２７６巷２３號","OBJECTID":388861},"geometry":{"x":169763.43000000063,"y":2552083.5000000019}},{"attributes":{"ID":388886,"DIS_CODE":0,"TOWNNAME":"安南區","LI":"州北里","LIN":"28鄰","STREET":"安和路","SECT":"五段","MAREA":" ","LANE":"２７６巷","ALLEY":" ","HOUSE_NO":"２５號","E_COORD97":169752.78,"N_COORD97":2552108.25,"ADDRESS":"安和路五段２７６巷２５號","OBJECTID":388862},"geometry":{"x":169752.78000000119,"y":2552108.25}},{"attributes":{"ID":388887,"DIS_CODE":0,"TOWNNAME":"安南區","LI":"州北里","LIN":"28鄰","STREET":"安和路","SECT":"五段","MAREA":" ","LANE":"２７６巷","ALLEY":" ","HOUSE_NO":"２７號","E_COORD97":169756.91,"N_COORD97":2552109.8599999999,"ADDRESS":"安和路五段２７６巷２７號","OBJECTID":388863},"geometry":{"x":169756.91000000108,"y":2552109.8599999994}},{"attributes":{"ID":388888,"DIS_CODE":0,"TOWNNAME":"安南區","LI":"州北里","LIN":"28鄰","STREET":"安和路","SECT":"五段","MAREA":" ","LANE":"２７６巷","ALLEY":" ","HOUSE_NO":"２９號","E_COORD97":169769.69,"N_COORD97":2552101.8300000001,"ADDRESS":"安和路五段２７６巷２９號","OBJECTID":388864},"geometry":{"x":169769.69000000041,"y":2552101.8300000019}},{"attributes":{"ID":388889,"DIS_CODE":0,"TOWNNAME":"安南區","LI":"州北里","LIN":"28鄰","STREET":"安和路","SECT":"五段","MAREA":" ","LANE":"２７６巷","ALLEY":" ","HOUSE_NO":"２號","E_COORD97":169782.57999999999,"N_COORD97":2552040.6299999999,"ADDRESS":"安和路五段２７６巷２號","OBJECTID":388865},"geometry":{"x":169782.58000000194,"y":2552040.6300000027}},{"attributes":{"ID":388890,"DIS_CODE":0,"TOWNNAME":"安南區","LI":"州北里","LIN":"28鄰","STREET":"安和路","SECT":"五段","MAREA":" ","LANE":"２７６巷","ALLEY":" ","HOUSE_NO":"３１號","E_COORD97":169768.48000000001,"N_COORD97":2552106.1800000002,"ADDRESS":"安和路五段２７６巷３１號","OBJECTID":388866},"geometry":{"x":169768.48000000231,"y":2552106.1800000016}},{"attributes":{"ID":388891,"DIS_CODE":0,"TOWNNAME":"安南區","LI":"州北里","LIN":"28鄰","STREET":"安和路","SECT":"五段","MAREA":" ","LANE":"２７６巷","ALLEY":" ","HOUSE_NO":"３３號","E_COORD97":169766.04000000001,"N_COORD97":2552110,"ADDRESS":"安和路五段２７６巷３３號","OBJECTID":388867},"geometry":{"x":169766.04000000097,"y":2552110}},{"attributes":{"ID":388892,"DIS_CODE":0,"TOWNNAME":"安南區","LI":"州北里","LIN":"28鄰","STREET":"安和路","SECT":"五段","MAREA":" ","LANE":"２７６巷","ALLEY":" ","HOUSE_NO":"３５號","E_COORD97":169764.13,"N_COORD97":2552114.3399999999,"ADDRESS":"安和路五段２７６巷３５號","OBJECTID":388868},"geometry":{"x":169764.13000000082,"y":2552114.3399999999}},{"attributes":{"ID":388893,"DIS_CODE":0,"TOWNNAME":"安南區","LI":"州北里","LIN":"28鄰","STREET":"安和路","SECT":"五段","MAREA":" ","LANE":"２７６巷","ALLEY":" ","HOUSE_NO":"３７號","E_COORD97":169762.20999999999,"N_COORD97":2552118.3399999999,"ADDRESS":"安和路五段２７６巷３７號","OBJECTID":388869},"geometry":{"x":169762.20999999996,"y":2552118.3400000017}},{"attributes":{"ID":388894,"DIS_CODE":0,"TOWNNAME":"安南區","LI":"州北里","LIN":"28鄰","STREET":"安和路","SECT":"五段","MAREA":" ","LANE":"２７６巷","ALLEY":" ","HOUSE_NO":"３９號","E_COORD97":169756.82000000001,"N_COORD97":2552120.25,"ADDRESS":"安和路五段２７６巷３９號","OBJECTID":388870},"geometry":{"x":169756.8200000003,"y":2552120.2500000019}},{"attributes":{"ID":388895,"DIS_CODE":0,"TOWNNAME":"安南區","LI":"州北里","LIN":"28鄰","STREET":"安和路","SECT":"五段","MAREA":" ","LANE":"２７６巷","ALLEY":" ","HOUSE_NO":"３號","E_COORD97":169775.89000000001,"N_COORD97":2552066.7799999998,"ADDRESS":"安和路五段２７６巷３號","OBJECTID":388871},"geometry":{"x":169775.88999999966,"y":2552066.7799999975}},{"attributes":{"ID":388896,"DIS_CODE":0,"TOWNNAME":"安南區","LI":"州北里","LIN":"28鄰","STREET":"安和路","SECT":"五段","MAREA":" ","LANE":"２７６巷","ALLEY":" ","HOUSE_NO":"４１號","E_COORD97":169754.91,"N_COORD97":2552124.5899999999,"ADDRESS":"安和路五段２７６巷４１號","OBJECTID":388872},"geometry":{"x":169754.90999999922,"y":2552124.5900000017}},{"attributes":{"ID":388897,"DIS_CODE":0,"TOWNNAME":"安南區","LI":"州北里","LIN":"28鄰","STREET":"安和路","SECT":"五段","MAREA":" ","LANE":"２７６巷","ALLEY":" ","HOUSE_NO":"４３號","E_COORD97":169752.82000000001,"N_COORD97":2552128.2400000002,"ADDRESS":"安和路五段２７６巷４３號","OBJECTID":388873},"geometry":{"x":169752.82000000123,"y":2552128.2400000002}},{"attributes":{"ID":388898,"DIS_CODE":0,"TOWNNAME":"安南區","LI":"州北里","LIN":"28鄰","STREET":"安和路","SECT":"五段","MAREA":" ","LANE":"２７６巷","ALLEY":" ","HOUSE_NO":"４５號","E_COORD97":169754.89999999999,"N_COORD97":2552133.5499999998,"ADDRESS":"安和路五段２７６巷４５號","OBJECTID":388874},"geometry":{"x":169754.90000000037,"y":2552133.5500000007}},{"attributes":{"ID":388899,"DIS_CODE":0,"TOWNNAME":"安南區","LI":"州北里","LIN":"28鄰","STREET":"安和路","SECT":"五段","MAREA":" ","LANE":"２７６巷","ALLEY":" ","HOUSE_NO":"４７號","E_COORD97":169752.98999999999,"N_COORD97":2552138.5899999999,"ADDRESS":"安和路五段２７６巷４７號","OBJECTID":388875},"geometry":{"x":169752.99000000115,"y":2552138.5899999999}},{"attributes":{"ID":388900,"DIS_CODE":0,"TOWNNAME":"安南區","LI":"州北里","LIN":"28鄰","STREET":"安和路","SECT":"五段","MAREA":" ","LANE":"２７６巷","ALLEY":" ","HOUSE_NO":"４９號","E_COORD97":169750.56,"N_COORD97":2552142.9300000002,"ADDRESS":"安和路五段２７６巷４９號","OBJECTID":388876},"geometry":{"x":169750.56000000052,"y":2552142.9299999997}},{"attributes":{"ID":388901,"DIS_CODE":0,"TOWNNAME":"安南區","LI":"州北里","LIN":"28鄰","STREET":"安和路","SECT":"五段","MAREA":" ","LANE":"２７６巷","ALLEY":" ","HOUSE_NO":"４號","E_COORD97":169786.76000000001,"N_COORD97":2552042.4399999999,"ADDRESS":"安和路五段２７６巷４號","OBJECTID":388877},"geometry":{"x":169786.76000000071,"y":2552042.4400000032}},{"attributes":{"ID":388902,"DIS_CODE":0,"TOWNNAME":"安南區","LI":"州北里","LIN":"28鄰","STREET":"安和路","SECT":"五段","MAREA":" ","LANE":"２７６巷","ALLEY":" ","HOUSE_NO":"５１號","E_COORD97":169748.47,"N_COORD97":2552147.4500000002,"ADDRESS":"安和路五段２７６巷５１號","OBJECTID":388878},"geometry":{"x":169748.46999999974,"y":2552147.4500000011}},{"attributes":{"ID":388903,"DIS_CODE":0,"TOWNNAME":"安南區","LI":"州北里","LIN":"28鄰","STREET":"安和路","SECT":"五段","MAREA":" ","LANE":"２７６巷","ALLEY":" ","HOUSE_NO":"５３號","E_COORD97":169745.85999999999,"N_COORD97":2552152.3100000001,"ADDRESS":"安和路五段２７６巷５３號","OBJECTID":388879},"geometry":{"x":169745.86000000127,"y":2552152.3100000005}},{"attributes":{"ID":388904,"DIS_CODE":0,"TOWNNAME":"永康區","LI":"\u25A0洲里","LIN":"25鄰","STREET":"國聖街","SECT":" ","MAREA":" ","LANE":"１６７巷","ALLEY":" ","HOUSE_NO":"２號","E_COORD97":170675.78,"N_COORD97":2548295.75,"ADDRESS":"國聖街１６７巷２號","OBJECTID":388880},"geometry":{"x":170675.78000000026,"y":2548295.7500000019}},{"attributes":{"ID":388905,"DIS_CODE":0,"TOWNNAME":"安南區","LI":"州北里","LIN":"28鄰","STREET":"安和路","SECT":"五段","MAREA":" ","LANE":"２７６巷","ALLEY":" ","HOUSE_NO":"５５號","E_COORD97":169745.16,"N_COORD97":2552158.46,"ADDRESS":"安和路五段２７６巷５５號","OBJECTID":388881},"geometry":{"x":169745.16000000108,"y":2552158.4600000009}},{"attributes":{"ID":388906,"DIS_CODE":0,"TOWNNAME":"安南區","LI":"州北里","LIN":"28鄰","STREET":"安和路","SECT":"五段","MAREA":" ","LANE":"２７６巷","ALLEY":" ","HOUSE_NO":"５號","E_COORD97":169787.62,"N_COORD97":2552063.02,"ADDRESS":"安和路五段２７６巷５號","OBJECTID":388882},"geometry":{"x":169787.62000000104,"y":2552063.0200000014}},{"attributes":{"ID":388907,"DIS_CODE":0,"TOWNNAME":"安南區","LI":"州北里","LIN":"28鄰","STREET":"安和路","SECT":"五段","MAREA":" ","LANE":"２７６巷","ALLEY":" ","HOUSE_NO":"６號","E_COORD97":169790.67000000001,"N_COORD97":2552043.9700000002,"ADDRESS":"安和路五段２７６巷６號","OBJECTID":388883},"geometry":{"x":169790.67000000086,"y":2552043.9700000025}},{"attributes":{"ID":388908,"DIS_CODE":0,"TOWNNAME":"安南區","LI":"州北里","LIN":"28鄰","STREET":"安和路","SECT":"五段","MAREA":" ","LANE":"２７６巷","ALLEY":" ","HOUSE_NO":"７１號","E_COORD97":169779.67999999999,"N_COORD97":2552234.04,"ADDRESS":"安和路五段２７６巷７１號","OBJECTID":388884},"geometry":{"x":169779.6799999997,"y":2552234.0399999991}},{"attributes":{"ID":388909,"DIS_CODE":0,"TOWNNAME":"安南區","LI":"州北里","LIN":"28鄰","STREET":"安和路","SECT":"五段","MAREA":" ","LANE":"２７６巷","ALLEY":" ","HOUSE_NO":"７３號","E_COORD97":169784.04000000001,"N_COORD97":2552233.8900000001,"ADDRESS":"安和路五段２７６巷７３號","OBJECTID":388885},"geometry":{"x":169784.04000000004,"y":2552233.8900000043}},{"attributes":{"ID":388910,"DIS_CODE":0,"TOWNNAME":"安南區","LI":"州北里","LIN":"28鄰","STREET":"安和路","SECT":"五段","MAREA":" ","LANE":"２７６巷","ALLEY":" ","HOUSE_NO":"７７號","E_COORD97":169791.98999999999,"N_COORD97":2552235.3900000001,"ADDRESS":"安和路五段２７６巷７７號","OBJECTID":388886},"geometry":{"x":169791.99000000115,"y":2552235.3900000025}},{"attributes":{"ID":388911,"DIS_CODE":0,"TOWNNAME":"安南區","LI":"州北里","LIN":"28鄰","STREET":"安和路","SECT":"五段","MAREA":" ","LANE":"２７６巷","ALLEY":" ","HOUSE_NO":"７號","E_COORD97":169784.48999999999,"N_COORD97":2552068.4100000001,"ADDRESS":"安和路五段２７６巷７號","OBJECTID":388887},"geometry":{"x":169784.49000000022,"y":2552068.410000002}},{"attributes":{"ID":388912,"DIS_CODE":0,"TOWNNAME":"安南區","LI":"州北里","LIN":"28鄰","STREET":"安和路","SECT":"五段","MAREA":" ","LANE":"２７６巷","ALLEY":" ","HOUSE_NO":"８號","E_COORD97":169794.42999999999,"N_COORD97":2552046.48,"ADDRESS":"安和路五段２７６巷８號","OBJECTID":388888},"geometry":{"x":169794.4299999997,"y":2552046.4800000042}},{"attributes":{"ID":388913,"DIS_CODE":0,"TOWNNAME":"安南區","LI":"州北里","LIN":"28鄰","STREET":"安和路","SECT":"五段","MAREA":" ","LANE":"２７６巷","ALLEY":" ","HOUSE_NO":"９號","E_COORD97":169781.35000000001,"N_COORD97":2552071.54,"ADDRESS":"安和路五段２７６巷９號","OBJECTID":388889},"geometry":{"x":169781.34999999963,"y":2552071.5399999972}},{"attributes":{"ID":388914,"DIS_CODE":0,"TOWNNAME":"南區","LI":"光明里","LIN":"28鄰","STREET":"新建路","SECT":" ","MAREA":" ","LANE":"２７巷","ALLEY":" ","HOUSE_NO":"１３號","E_COORD97":166536.75,"N_COORD97":2541296.79,"ADDRESS":"新建路２７巷１３號","OBJECTID":388890},"geometry":{"x":166536.75000000186,"y":2541296.790000001}},{"attributes":{"ID":388915,"DIS_CODE":0,"TOWNNAME":"南區","LI":"光明里","LIN":"28鄰","STREET":"新建路","SECT":" ","MAREA":" ","LANE":"２７巷","ALLEY":" ","HOUSE_NO":"１５號","E_COORD97":166543.17000000001,"N_COORD97":2541296.6499999999,"ADDRESS":"新建路２７巷１５號","OBJECTID":388891},"geometry":{"x":166543.16999999993,"y":2541296.6500000004}},{"attributes":{"ID":388916,"DIS_CODE":0,"TOWNNAME":"南區","LI":"光明里","LIN":"28鄰","STREET":"新建路","SECT":" ","MAREA":" ","LANE":"２７巷","ALLEY":" ","HOUSE_NO":"１７號","E_COORD97":166551.73999999999,"N_COORD97":2541297.0800000001,"ADDRESS":"新建路２７巷１７號","OBJECTID":388892},"geometry":{"x":166551.74000000022,"y":2541297.0800000001}},{"attributes":{"ID":388917,"DIS_CODE":0,"TOWNNAME":"南區","LI":"光明里","LIN":"28鄰","STREET":"新建路","SECT":" ","MAREA":" ","LANE":"２７巷","ALLEY":" ","HOUSE_NO":"１９號","E_COORD97":166557.59,"N_COORD97":2541296.2200000002,"ADDRESS":"新建路２７巷１９號","OBJECTID":388893},"geometry":{"x":166557.58999999985,"y":2541296.2200000007}},{"attributes":{"ID":388918,"DIS_CODE":0,"TOWNNAME":"善化區","LI":"光文里","LIN":"13鄰","STREET":"樹人路","SECT":" ","MAREA":" ","LANE":" ","ALLEY":" ","HOUSE_NO":"７４號","E_COORD97":178368.98000000001,"N_COORD97":2559103.5,"ADDRESS":"樹人路７４號","OBJECTID":388894},"geometry":{"x":178368.98000000045,"y":2559103.5}},{"attributes":{"ID":388919,"DIS_CODE":0,"TOWNNAME":"南區","LI":"光明里","LIN":"28鄰","STREET":"新建路","SECT":" ","MAREA":" ","LANE":"２７巷","ALLEY":" ","HOUSE_NO":"２１號","E_COORD97":166565.44,"N_COORD97":2541297.2200000002,"ADDRESS":"新建路２７巷２１號","OBJECTID":388895},"geometry":{"x":166565.44000000134,"y":2541297.2200000007}},{"attributes":{"ID":388920,"DIS_CODE":0,"TOWNNAME":"南區","LI":"光明里","LIN":"28鄰","STREET":"新建路","SECT":" ","MAREA":" ","LANE":"２７巷","ALLEY":" ","HOUSE_NO":"２３號","E_COORD97":166572.57999999999,"N_COORD97":2541296.9399999999,"ADDRESS":"新建路２７巷２３號","OBJECTID":388896},"geometry":{"x":166572.58000000101,"y":2541296.9399999995}},{"attributes":{"ID":388921,"DIS_CODE":0,"TOWNNAME":"南區","LI":"光明里","LIN":"28鄰","STREET":"新建路","SECT":" ","MAREA":" ","LANE":"２７巷","ALLEY":" ","HOUSE_NO":"２５號","E_COORD97":166580,"N_COORD97":2541296.3700000001,"ADDRESS":"新建路２７巷２５號","OBJECTID":388897},"geometry":{"x":166580,"y":2541296.370000001}},{"attributes":{"ID":388922,"DIS_CODE":0,"TOWNNAME":"南區","LI":"光明里","LIN":"28鄰","STREET":"新建路","SECT":" ","MAREA":" ","LANE":"２７巷","ALLEY":" ","HOUSE_NO":"２７號","E_COORD97":166586.57000000001,"N_COORD97":2541296.5099999998,"ADDRESS":"新建路２７巷２７號","OBJECTID":388898},"geometry":{"x":166586.57000000123,"y":2541296.5099999998}},{"attributes":{"ID":388923,"DIS_CODE":0,"TOWNNAME":"南區","LI":"光明里","LIN":"28鄰","STREET":"新建路","SECT":" ","MAREA":" ","LANE":"２７巷","ALLEY":" ","HOUSE_NO":"８號","E_COORD97":166560.09,"N_COORD97":2541272.77,"ADDRESS":"新建路２７巷８號","OBJECTID":388899},"geometry":{"x":166560.09000000078,"y":2541272.7700000014}},{"attributes":{"ID":388924,"DIS_CODE":0,"TOWNNAME":"東區","LI":"大同里","LIN":"28鄰","STREET":"大同路","SECT":"一段","MAREA":" ","LANE":"２７５巷","ALLEY":" ","HOUSE_NO":"６４號","E_COORD97":169333.54999999999,"N_COORD97":2542529.3999999999,"ADDRESS":"大同路一段２７５巷６４號","OBJECTID":388900},"geometry":{"x":169333.55000000075,"y":2542529.4000000004}},{"attributes":{"ID":388925,"DIS_CODE":0,"TOWNNAME":"中西區","LI":"大涼里","LIN":"1鄰","STREET":"金華路","SECT":"三段","MAREA":" ","LANE":"１８９巷","ALLEY":" ","HOUSE_NO":"５號","E_COORD97":167279.26000000001,"N_COORD97":2543828.3700000001,"ADDRESS":"金華路三段１８９巷５號","OBJECTID":388901},"geometry":{"x":167279.26000000071,"y":2543828.370000001}},{"attributes":{"ID":388926,"DIS_CODE":0,"TOWNNAME":"中西區","LI":"大涼里","LIN":"1鄰","STREET":"金華路","SECT":"三段","MAREA":" ","LANE":"１８９巷","ALLEY":" ","HOUSE_NO":"９號","E_COORD97":167272.14000000001,"N_COORD97":2543829.79,"ADDRESS":"金華路三段１８９巷９號","OBJECTID":388902},"geometry":{"x":167272.13999999966,"y":2543829.7899999991}},{"attributes":{"ID":388927,"DIS_CODE":0,"TOWNNAME":"仁德區","LI":"上崙里","LIN":"28鄰","STREET":"上崙街","SECT":" ","MAREA":" ","LANE":"４０１巷","ALLEY":" ","HOUSE_NO":"７９號","E_COORD97":173083.91,"N_COORD97":2537524.25,"ADDRESS":"上崙街４０１巷７９號","OBJECTID":388903},"geometry":{"x":173083.91000000015,"y":2537524.2500000019}},{"attributes":{"ID":388928,"DIS_CODE":0,"TOWNNAME":"仁德區","LI":"成功里","LIN":"28鄰","STREET":"成功一街","SECT":" ","MAREA":" ","LANE":"１６巷","ALLEY":" ","HOUSE_NO":"１４號","E_COORD97":170499,"N_COORD97":2540182.7599999998,"ADDRESS":"成功一街１６巷１４號","OBJECTID":388904},"geometry":{"x":170499.00000000093,"y":2540182.7599999998}},{"attributes":{"ID":388929,"DIS_CODE":0,"TOWNNAME":"仁德區","LI":"成功里","LIN":"28鄰","STREET":"成功一街","SECT":" ","MAREA":" ","LANE":"１０巷","ALLEY":" ","HOUSE_NO":"４號","E_COORD97":170535.45000000001,"N_COORD97":2540199.77,"ADDRESS":"成功一街１０巷４號","OBJECTID":388905},"geometry":{"x":170535.45000000019,"y":2540199.7699999996}},{"attributes":{"ID":388930,"DIS_CODE":0,"TOWNNAME":"仁德區","LI":"上崙里","LIN":"28鄰","STREET":"上崙街","SECT":" ","MAREA":" ","LANE":"４０１巷","ALLEY":" ","HOUSE_NO":"８９號","E_COORD97":173061.98000000001,"N_COORD97":2537524,"ADDRESS":"上崙街４０１巷８９號","OBJECTID":388906},"geometry":{"x":173061.98000000045,"y":2537524}},{"attributes":{"ID":388931,"DIS_CODE":0,"TOWNNAME":"仁德區","LI":"成功里","LIN":"28鄰","STREET":"成功一街","SECT":" ","MAREA":" ","LANE":"１０巷","ALLEY":" ","HOUSE_NO":"９號","E_COORD97":170503.45000000001,"N_COORD97":2540196.77,"ADDRESS":"成功一街１０巷９號","OBJECTID":388907},"geometry":{"x":170503.45000000019,"y":2540196.7699999996}},{"attributes":{"ID":388932,"DIS_CODE":0,"TOWNNAME":"仁德區","LI":"上崙里","LIN":"28鄰","STREET":"上崙街","SECT":" ","MAREA":" ","LANE":"４５９巷","ALLEY":" ","HOUSE_NO":"２３號","E_COORD97":172957.20999999999,"N_COORD97":2537557.7400000002,"ADDRESS":"上崙街４５９巷２３號","OBJECTID":388908},"geometry":{"x":172957.21000000089,"y":2537557.7400000021}},{"attributes":{"ID":388933,"DIS_CODE":0,"TOWNNAME":"仁德區","LI":"後壁里","LIN":"28鄰","STREET":"德洋路","SECT":" ","MAREA":" ","LANE":"２５巷","ALLEY":" ","HOUSE_NO":"８號","E_COORD97":173127.88,"N_COORD97":2538971.77,"ADDRESS":"德洋路２５巷８號","OBJECTID":388909},"geometry":{"x":173127.87999999989,"y":2538971.7700000014}},{"attributes":{"ID":388934,"DIS_CODE":0,"TOWNNAME":"永康區","LI":"永康里","LIN":"28鄰","STREET":"永康街","SECT":" ","MAREA":" ","LANE":"３１０巷","ALLEY":" ","HOUSE_NO":"５０號","E_COORD97":174218.10999999999,"N_COORD97":2546929.2200000002,"ADDRESS":"永康街３１０巷５０號","OBJECTID":388910},"geometry":{"x":174218.11000000127,"y":2546929.2200000044}},{"attributes":{"ID":388935,"DIS_CODE":0,"TOWNNAME":"永康區","LI":"甲頂里","LIN":"28鄰","STREET":"中央路","SECT":" ","MAREA":" ","LANE":"２３巷","ALLEY":" ","HOUSE_NO":"３２號","E_COORD97":169503.01999999999,"N_COORD97":2546968.4199999999,"ADDRESS":"中央路２３巷３２號","OBJECTID":388911},"geometry":{"x":169503.02000000048,"y":2546968.4200000018}},{"attributes":{"ID":388936,"DIS_CODE":0,"TOWNNAME":"永康區","LI":"甲頂里","LIN":"28鄰","STREET":"中央路","SECT":" ","MAREA":" ","LANE":"２３巷","ALLEY":" ","HOUSE_NO":"４號","E_COORD97":169593.88,"N_COORD97":2547006.4199999999,"ADDRESS":"中央路２３巷４號","OBJECTID":388912},"geometry":{"x":169593.88000000175,"y":2547006.4200000018}},{"attributes":{"ID":388937,"DIS_CODE":0,"TOWNNAME":"永康區","LI":"永康里","LIN":"28鄰","STREET":"永康街","SECT":" ","MAREA":" ","LANE":"３１０巷","ALLEY":" ","HOUSE_NO":"３６號","E_COORD97":174214.98999999999,"N_COORD97":2546953.7200000002,"ADDRESS":"永康街３１０巷３６號","OBJECTID":388913},"geometry":{"x":174214.99000000115,"y":2546953.7200000025}},{"attributes":{"ID":388938,"DIS_CODE":0,"TOWNNAME":"永康區","LI":"復華里","LIN":"28鄰","STREET":"復華八街","SECT":" ","MAREA":" ","LANE":"４５巷","ALLEY":" ","HOUSE_NO":"６號","E_COORD97":172760.57999999999,"N_COORD97":2546347.0099999998,"ADDRESS":"復華八街４５巷６號","OBJECTID":388914},"geometry":{"x":172760.58000000007,"y":2546347.0100000016}},{"attributes":{"ID":388939,"DIS_CODE":0,"TOWNNAME":"永康區","LI":"五王里","LIN":"28鄰","STREET":"中山東路","SECT":" ","MAREA":" ","LANE":"６８巷","ALLEY":" ","HOUSE_NO":"５２號","E_COORD97":171598.54999999999,"N_COORD97":2545972.21,"ADDRESS":"中山東路６８巷５２號","OBJECTID":388915},"geometry":{"x":171598.55000000075,"y":2545972.2100000009}},{"attributes":{"ID":388940,"DIS_CODE":0,"TOWNNAME":"永康區","LI":"永康里","LIN":"28鄰","STREET":"永大路","SECT":"二段","MAREA":" ","LANE":"８３１巷","ALLEY":" ","HOUSE_NO":"３６號","E_COORD97":174184.5,"N_COORD97":2546937.1400000001,"ADDRESS":"永大路二段８３１巷３６號","OBJECTID":388916},"geometry":{"x":174184.50000000093,"y":2546937.1400000025}},{"attributes":{"ID":388941,"DIS_CODE":0,"TOWNNAME":"永康區","LI":"\u25A0洲里","LIN":"11鄰","STREET":"\u25A0行路","SECT":" ","MAREA":" ","LANE":"１７４巷","ALLEY":" ","HOUSE_NO":"２號","E_COORD97":171388.01000000001,"N_COORD97":2549248.25,"ADDRESS":"\u25A0行路１７４巷２號","OBJECTID":388917},"geometry":{"x":171388.00999999885,"y":2549248.2500000019}},{"attributes":{"ID":388942,"DIS_CODE":0,"TOWNNAME":"永康區","LI":"復興里","LIN":"28鄰","STREET":"興國街","SECT":" ","MAREA":" ","LANE":"１６２巷","ALLEY":" ","HOUSE_NO":"３號","E_COORD97":172374.62,"N_COORD97":2544882.75,"ADDRESS":"興國街１６２巷３號","OBJECTID":388918},"geometry":{"x":172374.62000000104,"y":2544882.75}},{"attributes":{"ID":388943,"DIS_CODE":0,"TOWNNAME":"永康區","LI":"二王里","LIN":"28鄰","STREET":"中山南路","SECT":" ","MAREA":" ","LANE":"５４４巷","ALLEY":" ","HOUSE_NO":"５０號","E_COORD97":172313.89999999999,"N_COORD97":2546459.4199999999,"ADDRESS":"中山南路５４４巷５０號","OBJECTID":388919},"geometry":{"x":172313.9000000013,"y":2546459.4200000018}},{"attributes":{"ID":388944,"DIS_CODE":0,"TOWNNAME":"永康區","LI":"復國里","LIN":"28鄰","STREET":"復華二街","SECT":" ","MAREA":" ","LANE":"１２巷","ALLEY":" ","HOUSE_NO":"１６號","E_COORD97":172620.37,"N_COORD97":2545389.2799999998,"ADDRESS":"復華二街１２巷１６號","OBJECTID":388920},"geometry":{"x":172620.37000000104,"y":2545389.2800000012}},{"attributes":{"ID":388945,"DIS_CODE":0,"TOWNNAME":"東區","LI":"東光里","LIN":"28鄰","STREET":"東寧路","SECT":" ","MAREA":" ","LANE":"２０１巷","ALLEY":" ","HOUSE_NO":"１０２號","E_COORD97":170685.07999999999,"N_COORD97":2543812.3100000001,"ADDRESS":"東寧路２０１巷１０２號","OBJECTID":388921},"geometry":{"x":170685.08000000101,"y":2543812.3099999987}},{"attributes":{"ID":388946,"DIS_CODE":0,"TOWNNAME":"東區","LI":"東光里","LIN":"28鄰","STREET":"東寧路","SECT":" ","MAREA":" ","LANE":"２０１巷","ALLEY":" ","HOUSE_NO":"１０４號","E_COORD97":170686.32000000001,"N_COORD97":2543816.7599999998,"ADDRESS":"東寧路２０１巷１０４號","OBJECTID":388922},"geometry":{"x":170686.31999999937,"y":2543816.7600000016}},{"attributes":{"ID":388947,"DIS_CODE":0,"TOWNNAME":"東區","LI":"東光里","LIN":"28鄰","STREET":"東寧路","SECT":" ","MAREA":" ","LANE":"２０１巷","ALLEY":" ","HOUSE_NO":"１０６號","E_COORD97":170687.20999999999,"N_COORD97":2543821.21,"ADDRESS":"東寧路２０１巷１０６號","OBJECTID":388923},"geometry":{"x":170687.21000000089,"y":2543821.2100000028}},{"attributes":{"ID":388948,"DIS_CODE":0,"TOWNNAME":"東區","LI":"東光里","LIN":"28鄰","STREET":"東寧路","SECT":" ","MAREA":" ","LANE":"２０１巷","ALLEY":" ","HOUSE_NO":"１０８號","E_COORD97":170687.57000000001,"N_COORD97":2543825.6600000001,"ADDRESS":"東寧路２０１巷１０８號","OBJECTID":388924},"geometry":{"x":170687.5700000003,"y":2543825.6600000001}},{"attributes":{"ID":388949,"DIS_CODE":0,"TOWNNAME":"東區","LI":"東光里","LIN":"28鄰","STREET":"東寧路","SECT":" ","MAREA":" ","LANE":"２０１巷","ALLEY":" ","HOUSE_NO":"１１０號","E_COORD97":170689.35000000001,"N_COORD97":2543829.21,"ADDRESS":"東寧路２０１巷１１０號","OBJECTID":388925},"geometry":{"x":170689.35000000056,"y":2543829.2100000009}},{"attributes":{"ID":388950,"DIS_CODE":0,"TOWNNAME":"東區","LI":"東光里","LIN":"28鄰","STREET":"東寧路","SECT":" ","MAREA":" ","LANE":"２０１巷","ALLEY":" ","HOUSE_NO":"１１２號","E_COORD97":170690.23999999999,"N_COORD97":2543833.1299999999,"ADDRESS":"東寧路２０１巷１１２號","OBJECTID":388926},"geometry":{"x":170690.24000000209,"y":2543833.1300000008}},{"attributes":{"ID":388951,"DIS_CODE":0,"TOWNNAME":"東區","LI":"東光里","LIN":"28鄰","STREET":"東寧路","SECT":" ","MAREA":" ","LANE":"２０１巷","ALLEY":" ","HOUSE_NO":"１１６號","E_COORD97":170692.91,"N_COORD97":2543842.02,"ADDRESS":"東寧路２０１巷１１６號","OBJECTID":388927},"geometry":{"x":170692.91000000108,"y":2543842.0200000014}},{"attributes":{"ID":388952,"DIS_CODE":0,"TOWNNAME":"東區","LI":"東光里","LIN":"28鄰","STREET":"東寧路","SECT":" ","MAREA":" ","LANE":"２０１巷","ALLEY":" ","HOUSE_NO":"１１８號","E_COORD97":170693.45000000001,"N_COORD97":2543847.0099999998,"ADDRESS":"東寧路２０１巷１１８號","OBJECTID":388928},"geometry":{"x":170693.45000000019,"y":2543847.0099999998}},{"attributes":{"ID":388953,"DIS_CODE":0,"TOWNNAME":"東區","LI":"東光里","LIN":"28鄰","STREET":"東寧路","SECT":" ","MAREA":" ","LANE":"２０１巷","ALLEY":" ","HOUSE_NO":"１２０號","E_COORD97":170693.79999999999,"N_COORD97":2543850.9199999999,"ADDRESS":"東寧路２０１巷１２０號","OBJECTID":388929},"geometry":{"x":170693.79999999981,"y":2543850.9199999999}},{"attributes":{"ID":388954,"DIS_CODE":0,"TOWNNAME":"東區","LI":"東光里","LIN":"28鄰","STREET":"東寧路","SECT":" ","MAREA":" ","LANE":"２０１巷","ALLEY":" ","HOUSE_NO":"１２２號","E_COORD97":170694.13,"N_COORD97":2543856.0800000001,"ADDRESS":"東寧路２０１巷１２２號","OBJECTID":388930},"geometry":{"x":170694.13000000175,"y":2543856.0800000001}},{"attributes":{"ID":388955,"DIS_CODE":0,"TOWNNAME":"仁德區","LI":"仁義里","LIN":"52鄰","STREET":"仁義三街","SECT":" ","MAREA":" ","LANE":"１４巷","ALLEY":" ","HOUSE_NO":"７號","E_COORD97":173440.70000000001,"N_COORD97":2541054.27,"ADDRESS":"仁義三街１４巷７號","OBJECTID":388931},"geometry":{"x":173440.70000000112,"y":2541054.2699999996}},{"attributes":{"ID":388956,"DIS_CODE":0,"TOWNNAME":"東區","LI":"東光里","LIN":"28鄰","STREET":"東寧路","SECT":" ","MAREA":" ","LANE":"２０１巷","ALLEY":" ","HOUSE_NO":"１２４號","E_COORD97":170695.23000000001,"N_COORD97":2543861.0600000001,"ADDRESS":"東寧路２０１巷１２４號","OBJECTID":388932},"geometry":{"x":170695.23000000045,"y":2543861.0600000005}},{"attributes":{"ID":388957,"DIS_CODE":0,"TOWNNAME":"東區","LI":"東光里","LIN":"28鄰","STREET":"東寧路","SECT":" ","MAREA":" ","LANE":"２０１巷","ALLEY":" ","HOUSE_NO":"１２６號","E_COORD97":170695.60000000001,"N_COORD97":2543865.2999999998,"ADDRESS":"東寧路２０１巷１２６號","OBJECTID":388933},"geometry":{"x":170695.5999999987,"y":2543865.3000000026}},{"attributes":{"ID":388958,"DIS_CODE":0,"TOWNNAME":"東區","LI":"東光里","LIN":"28鄰","STREET":"東寧路","SECT":" ","MAREA":" ","LANE":"２０１巷","ALLEY":" ","HOUSE_NO":"１２８號","E_COORD97":170697.45000000001,"N_COORD97":2543869.3599999999,"ADDRESS":"東寧路２０１巷１２８號","OBJECTID":388934},"geometry":{"x":170697.45000000112,"y":2543869.3600000013}},{"attributes":{"ID":388959,"DIS_CODE":0,"TOWNNAME":"東區","LI":"東光里","LIN":"28鄰","STREET":"東寧路","SECT":" ","MAREA":" ","LANE":"２０１巷","ALLEY":" ","HOUSE_NO":"１３０號","E_COORD97":170698.37,"N_COORD97":2543874.52,"ADDRESS":"東寧路２０１巷１３０號","OBJECTID":388935},"geometry":{"x":170698.37000000104,"y":2543874.5200000033}},{"attributes":{"ID":388960,"DIS_CODE":0,"TOWNNAME":"東區","LI":"東光里","LIN":"28鄰","STREET":"東寧路","SECT":" ","MAREA":" ","LANE":"２０１巷","ALLEY":" ","HOUSE_NO":"１３２號","E_COORD97":170698.73999999999,"N_COORD97":2543879.1299999999,"ADDRESS":"東寧路２０１巷１３２號","OBJECTID":388936},"geometry":{"x":170698.74000000209,"y":2543879.129999999}},{"attributes":{"ID":388961,"DIS_CODE":0,"TOWNNAME":"東區","LI":"東光里","LIN":"28鄰","STREET":"東寧路","SECT":" ","MAREA":" ","LANE":"２０１巷","ALLEY":" ","HOUSE_NO":"１３４號","E_COORD97":170699.29000000001,"N_COORD97":2543884.1099999999,"ADDRESS":"東寧路２０１巷１３４號","OBJECTID":388937},"geometry":{"x":170699.29000000004,"y":2543884.1100000031}},{"attributes":{"ID":388962,"DIS_CODE":0,"TOWNNAME":"東區","LI":"東光里","LIN":"28鄰","STREET":"東寧路","SECT":" ","MAREA":" ","LANE":"２０１巷","ALLEY":" ","HOUSE_NO":"１３６號","E_COORD97":170700.59,"N_COORD97":2543888.3500000001,"ADDRESS":"東寧路２０１巷１３６號","OBJECTID":388938},"geometry":{"x":170700.58999999985,"y":2543888.3499999996}},{"attributes":{"ID":388963,"DIS_CODE":0,"TOWNNAME":"東區","LI":"東光里","LIN":"28鄰","STREET":"東寧路","SECT":" ","MAREA":" ","LANE":"２０１巷","ALLEY":" ","HOUSE_NO":"１３８號","E_COORD97":170701.14000000001,"N_COORD97":2543892.96,"ADDRESS":"東寧路２０１巷１３８號","OBJECTID":388939},"geometry":{"x":170701.1400000006,"y":2543892.9600000009}},{"attributes":{"ID":388964,"DIS_CODE":0,"TOWNNAME":"東區","LI":"東光里","LIN":"28鄰","STREET":"東寧路","SECT":" ","MAREA":" ","LANE":"２０１巷","ALLEY":" ","HOUSE_NO":"１４０號","E_COORD97":170702.42999999999,"N_COORD97":2543896.6499999999,"ADDRESS":"東寧路２０１巷１４０號","OBJECTID":388940},"geometry":{"x":170702.43000000063,"y":2543896.6500000004}},{"attributes":{"ID":388965,"DIS_CODE":0,"TOWNNAME":"東區","LI":"東光里","LIN":"28鄰","STREET":"東寧路","SECT":" ","MAREA":" ","LANE":"２０１巷","ALLEY":" ","HOUSE_NO":"１４２號","E_COORD97":170705.69,"N_COORD97":2543901,"ADDRESS":"東寧路２０１巷１４２號","OBJECTID":388941},"geometry":{"x":170705.69000000041,"y":2543901}},{"attributes":{"ID":388966,"DIS_CODE":0,"TOWNNAME":"東區","LI":"東光里","LIN":"28鄰","STREET":"東寧路","SECT":" ","MAREA":" ","LANE":"２０１巷","ALLEY":" ","HOUSE_NO":"１４４號","E_COORD97":170704.82999999999,"N_COORD97":2543906.79,"ADDRESS":"東寧路２０１巷１４４號","OBJECTID":388942},"geometry":{"x":170704.83000000194,"y":2543906.790000001}},{"attributes":{"ID":388967,"DIS_CODE":0,"TOWNNAME":"東區","LI":"東光里","LIN":"28鄰","STREET":"東寧路","SECT":" ","MAREA":" ","LANE":"２０１巷","ALLEY":" ","HOUSE_NO":"１５０號","E_COORD97":170706.88,"N_COORD97":2543913.0299999998,"ADDRESS":"東寧路２０１巷１５０號","OBJECTID":388943},"geometry":{"x":170706.87999999989,"y":2543913.0300000012}},{"attributes":{"ID":388968,"DIS_CODE":0,"TOWNNAME":"東區","LI":"東光里","LIN":"28鄰","STREET":"東寧路","SECT":" ","MAREA":" ","LANE":"２０１巷","ALLEY":" ","HOUSE_NO":"１５２號","E_COORD97":170711.35000000001,"N_COORD97":2543918.5800000001,"ADDRESS":"東寧路２０１巷１５２號","OBJECTID":388944},"geometry":{"x":170711.35000000056,"y":2543918.5800000038}},{"attributes":{"ID":388969,"DIS_CODE":0,"TOWNNAME":"東區","LI":"東光里","LIN":"28鄰","STREET":"東寧路","SECT":" ","MAREA":" ","LANE":"２０１巷","ALLEY":" ","HOUSE_NO":"１５４號","E_COORD97":170712.20000000001,"N_COORD97":2543923.1299999999,"ADDRESS":"東寧路２０１巷１５４號","OBJECTID":388945},"geometry":{"x":170712.20000000019,"y":2543923.129999999}},{"attributes":{"ID":388970,"DIS_CODE":0,"TOWNNAME":"東區","LI":"東光里","LIN":"28鄰","STREET":"東寧路","SECT":" ","MAREA":" ","LANE":"２０１巷","ALLEY":" ","HOUSE_NO":"１５６號","E_COORD97":170711.82999999999,"N_COORD97":2543928.1600000001,"ADDRESS":"東寧路２０１巷１５６號","OBJECTID":388946},"geometry":{"x":170711.83000000101,"y":2543928.1599999983}},{"attributes":{"ID":388971,"DIS_CODE":0,"TOWNNAME":"東區","LI":"東光里","LIN":"28鄰","STREET":"東寧路","SECT":" ","MAREA":" ","LANE":"２０１巷","ALLEY":" ","HOUSE_NO":"１５８號","E_COORD97":170713.25,"N_COORD97":2543932.6499999999,"ADDRESS":"東寧路２０１巷１５８號","OBJECTID":388947},"geometry":{"x":170713.25,"y":2543932.6500000022}},{"attributes":{"ID":388972,"DIS_CODE":0,"TOWNNAME":"中西區","LI":"安海里","LIN":"21鄰","STREET":"民生路","SECT":"二段","MAREA":" ","LANE":"４６３巷","ALLEY":" ","HOUSE_NO":"１３號","E_COORD97":166756.35000000001,"N_COORD97":2544207.9399999999,"ADDRESS":"民生路二段４６３巷１３號","OBJECTID":388948},"geometry":{"x":166756.35000000056,"y":2544207.9400000013}},{"attributes":{"ID":388973,"DIS_CODE":0,"TOWNNAME":"中西區","LI":"安海里","LIN":"21鄰","STREET":"民生路","SECT":"二段","MAREA":" ","LANE":"４６３巷","ALLEY":" ","HOUSE_NO":"３號","E_COORD97":166762.47,"N_COORD97":2544225.4100000001,"ADDRESS":"民生路二段４６３巷３號","OBJECTID":388949},"geometry":{"x":166762.47000000067,"y":2544225.410000002}},{"attributes":{"ID":388974,"DIS_CODE":0,"TOWNNAME":"中西區","LI":"安海里","LIN":"21鄰","STREET":"民生路","SECT":"二段","MAREA":" ","LANE":"４６３巷","ALLEY":" ","HOUSE_NO":"１１號","E_COORD97":166759.41,"N_COORD97":2544213.1800000002,"ADDRESS":"民生路二段４６３巷１１號","OBJECTID":388950},"geometry":{"x":166759.41000000015,"y":2544213.1800000016}},{"attributes":{"ID":388975,"DIS_CODE":0,"TOWNNAME":"中西區","LI":"安海里","LIN":"21鄰","STREET":"民生路","SECT":"二段","MAREA":" ","LANE":"４６３巷","ALLEY":" ","HOUSE_NO":"１號","E_COORD97":166762.91,"N_COORD97":2544228.46,"ADDRESS":"民生路二段４６３巷１號","OBJECTID":388951},"geometry":{"x":166762.90999999922,"y":2544228.4600000009}},{"attributes":{"ID":388976,"DIS_CODE":0,"TOWNNAME":"中西區","LI":"安海里","LIN":"21鄰","STREET":"民生路","SECT":"二段","MAREA":" ","LANE":"４６３巷","ALLEY":" ","HOUSE_NO":"５號","E_COORD97":166762.47,"N_COORD97":2544222.3500000001,"ADDRESS":"民生路二段４６３巷５號","OBJECTID":388952},"geometry":{"x":166762.47000000067,"y":2544222.3500000015}},{"attributes":{"ID":388977,"DIS_CODE":0,"TOWNNAME":"中西區","LI":"安海里","LIN":"21鄰","STREET":"民生路","SECT":"二段","MAREA":" ","LANE":"４６３巷","ALLEY":" ","HOUSE_NO":"７號","E_COORD97":166761.60000000001,"N_COORD97":2544219.29,"ADDRESS":"民生路二段４６３巷７號","OBJECTID":388953},"geometry":{"x":166761.60000000056,"y":2544219.290000001}},{"attributes":{"ID":388978,"DIS_CODE":0,"TOWNNAME":"中西區","LI":"安海里","LIN":"21鄰","STREET":"民生路","SECT":"二段","MAREA":" ","LANE":"４６３巷","ALLEY":" ","HOUSE_NO":"９號","E_COORD97":166760.28,"N_COORD97":2544215.7999999998,"ADDRESS":"民生路二段４６３巷９號","OBJECTID":388954},"geometry":{"x":166760.28000000026,"y":2544215.8000000007}},{"attributes":{"ID":388979,"DIS_CODE":0,"TOWNNAME":"中西區","LI":"文賢里","LIN":"9鄰","STREET":"和善街","SECT":" ","MAREA":" ","LANE":"９１巷","ALLEY":" ","HOUSE_NO":"２２號","E_COORD97":166906.57000000001,"N_COORD97":2544723.0800000001,"ADDRESS":"和善街９１巷２２號","OBJECTID":388955},"geometry":{"x":166906.57000000123,"y":2544723.0800000019}},{"attributes":{"ID":388980,"DIS_CODE":0,"TOWNNAME":"東區","LI":"東光里","LIN":"28鄰","STREET":"東寧路","SECT":" ","MAREA":" ","LANE":"２０１巷","ALLEY":" ","HOUSE_NO":"１６０號","E_COORD97":170710.57999999999,"N_COORD97":2543937.3500000001,"ADDRESS":"東寧路２０１巷１６０號","OBJECTID":388956},"geometry":{"x":170710.58000000101,"y":2543937.3500000015}},{"attributes":{"ID":388981,"DIS_CODE":0,"TOWNNAME":"東區","LI":"東光里","LIN":"28鄰","STREET":"東寧路","SECT":" ","MAREA":" ","LANE":"２０１巷","ALLEY":" ","HOUSE_NO":"１６２號","E_COORD97":170711.92999999999,"N_COORD97":2543942.3999999999,"ADDRESS":"東寧路２０１巷１６２號","OBJECTID":388957},"geometry":{"x":170711.9299999997,"y":2543942.4000000004}},{"attributes":{"ID":388982,"DIS_CODE":0,"TOWNNAME":"佳里區","LI":"建南里","LIN":"9鄰","STREET":"中和街","SECT":" ","MAREA":" ","LANE":"１８巷","ALLEY":" ","HOUSE_NO":"２５號","E_COORD97":165661.23902099999,"N_COORD97":2562131.9405299998,"ADDRESS":"中和街１８巷２５號","OBJECTID":388958},"geometry":{"x":165661.23902100045,"y":2562131.9405280035}},{"attributes":{"ID":388983,"DIS_CODE":0,"TOWNNAME":"東區","LI":"東光里","LIN":"28鄰","STREET":"東寧路","SECT":" ","MAREA":" ","LANE":"２０１巷","ALLEY":" ","HOUSE_NO":"１６４號","E_COORD97":170712.76999999999,"N_COORD97":2543945.7599999998,"ADDRESS":"東寧路２０１巷１６４號","OBJECTID":388959},"geometry":{"x":170712.76999999955,"y":2543945.7600000016}},{"attributes":{"ID":388984,"DIS_CODE":0,"TOWNNAME":"東區","LI":"東光里","LIN":"28鄰","STREET":"東寧路","SECT":" ","MAREA":" ","LANE":"２０１巷","ALLEY":" ","HOUSE_NO":"１６６號","E_COORD97":170713.60999999999,"N_COORD97":2543950.2999999998,"ADDRESS":"東寧路２０１巷１６６號","OBJECTID":388960},"geometry":{"x":170713.61000000127,"y":2543950.3000000007}},{"attributes":{"ID":388985,"DIS_CODE":0,"TOWNNAME":"東區","LI":"東光里","LIN":"28鄰","STREET":"東寧路","SECT":" ","MAREA":" ","LANE":"２０１巷","ALLEY":" ","HOUSE_NO":"１６８號","E_COORD97":170714.79000000001,"N_COORD97":2543955.0099999998,"ADDRESS":"東寧路２０１巷１６８號","OBJECTID":388961},"geometry":{"x":170714.79000000004,"y":2543955.0099999998}},{"attributes":{"ID":388986,"DIS_CODE":0,"TOWNNAME":"東區","LI":"東光里","LIN":"28鄰","STREET":"東寧路","SECT":" ","MAREA":" ","LANE":"２０１巷","ALLEY":" ","HOUSE_NO":"１７０號","E_COORD97":170715.63,"N_COORD97":2543958.71,"ADDRESS":"東寧路２０１巷１７０號","OBJECTID":388962},"geometry":{"x":170715.62999999989,"y":2543958.7100000009}},{"attributes":{"ID":388987,"DIS_CODE":0,"TOWNNAME":"東區","LI":"東光里","LIN":"28鄰","STREET":"東寧路","SECT":" ","MAREA":" ","LANE":"２０１巷","ALLEY":" ","HOUSE_NO":"１７２號","E_COORD97":170715.63,"N_COORD97":2543963.4199999999,"ADDRESS":"東寧路２０１巷１７２號","OBJECTID":388963},"geometry":{"x":170715.62999999989,"y":2543963.4199999981}},{"attributes":{"ID":388988,"DIS_CODE":0,"TOWNNAME":"東區","LI":"東光里","LIN":"28鄰","STREET":"東寧路","SECT":" ","MAREA":" ","LANE":"２０１巷","ALLEY":" ","HOUSE_NO":"１７４號","E_COORD97":170717.32000000001,"N_COORD97":2543968.4700000002,"ADDRESS":"東寧路２０１巷１７４號","OBJECTID":388964},"geometry":{"x":170717.32000000123,"y":2543968.4700000025}},{"attributes":{"ID":388989,"DIS_CODE":0,"TOWNNAME":"東區","LI":"東光里","LIN":"28鄰","STREET":"東寧路","SECT":" ","MAREA":" ","LANE":"２０１巷","ALLEY":" ","HOUSE_NO":"１７６號","E_COORD97":170717.82000000001,"N_COORD97":2543972.6699999999,"ADDRESS":"東寧路２０１巷１７６號","OBJECTID":388965},"geometry":{"x":170717.8200000003,"y":2543972.6700000018}},{"attributes":{"ID":388990,"DIS_CODE":0,"TOWNNAME":"東區","LI":"東光里","LIN":"28鄰","STREET":"東寧路","SECT":" ","MAREA":" ","LANE":"２０１巷","ALLEY":" ","HOUSE_NO":"１７８號","E_COORD97":170719.34,"N_COORD97":2543976.9199999999,"ADDRESS":"東寧路２０１巷１７８號","OBJECTID":388966},"geometry":{"x":170719.33999999985,"y":2543976.9199999999}},{"attributes":{"ID":388991,"DIS_CODE":0,"TOWNNAME":"東區","LI":"東光里","LIN":"28鄰","STREET":"東寧路","SECT":" ","MAREA":" ","LANE":"２０１巷","ALLEY":" ","HOUSE_NO":"１８０號","E_COORD97":170720.04999999999,"N_COORD97":2543980.77,"ADDRESS":"東寧路２０１巷１８０號","OBJECTID":388967},"geometry":{"x":170720.05000000168,"y":2543980.7699999996}},{"attributes":{"ID":388992,"DIS_CODE":0,"TOWNNAME":"東區","LI":"東光里","LIN":"28鄰","STREET":"東寧路","SECT":" ","MAREA":" ","LANE":"２０１巷","ALLEY":" ","HOUSE_NO":"１８２號","E_COORD97":170720.32999999999,"N_COORD97":2543985.04,"ADDRESS":"東寧路２０１巷１８２號","OBJECTID":388968},"geometry":{"x":170720.33000000101,"y":2543985.0399999991}},{"attributes":{"ID":388993,"DIS_CODE":0,"TOWNNAME":"新市區","LI":"港墘里","LIN":"28鄰","STREET":"華美街","SECT":" ","MAREA":" ","LANE":"６１巷","ALLEY":" ","HOUSE_NO":"２１號","E_COORD97":178093.20000000001,"N_COORD97":2553020.7999999998,"ADDRESS":"華美街６１巷２１號","OBJECTID":388969},"geometry":{"x":178093.20000000019,"y":2553020.7999999989}},{"attributes":{"ID":388994,"DIS_CODE":0,"TOWNNAME":"新市區","LI":"港墘里","LIN":"28鄰","STREET":"華美街","SECT":" ","MAREA":" ","LANE":"６１巷","ALLEY":" ","HOUSE_NO":"２０號","E_COORD97":178094.29000000001,"N_COORD97":2553038.2999999998,"ADDRESS":"華美街６１巷２０號","OBJECTID":388970},"geometry":{"x":178094.2900000019,"y":2553038.3000000026}},{"attributes":{"ID":388995,"DIS_CODE":0,"TOWNNAME":"新市區","LI":"港墘里","LIN":"28鄰","STREET":"華美街","SECT":" ","MAREA":" ","LANE":"６１巷","ALLEY":" ","HOUSE_NO":"１號","E_COORD97":178137.14999999999,"N_COORD97":2553008.7999999998,"ADDRESS":"華美街６１巷１號","OBJECTID":388971},"geometry":{"x":178137.1500000013,"y":2553008.8000000026}},{"attributes":{"ID":388996,"DIS_CODE":0,"TOWNNAME":"新市區","LI":"新市里","LIN":"28鄰","STREET":"復興路","SECT":" ","MAREA":" ","LANE":"６２巷","ALLEY":" ","HOUSE_NO":"１６號","E_COORD97":177874.26000000001,"N_COORD97":2553473.5299999998,"ADDRESS":"復興路６２巷１６號","OBJECTID":388972},"geometry":{"x":177874.26000000071,"y":2553473.5300000012}},{"attributes":{"ID":388997,"DIS_CODE":0,"TOWNNAME":"新市區","LI":"港墘里","LIN":"28鄰","STREET":"華美街","SECT":" ","MAREA":" ","LANE":"６１巷","ALLEY":" ","HOUSE_NO":"５號","E_COORD97":178125.76000000001,"N_COORD97":2553013.2999999998,"ADDRESS":"華美街６１巷５號","OBJECTID":388973},"geometry":{"x":178125.75999999978,"y":2553013.3000000007}},{"attributes":{"ID":388998,"DIS_CODE":0,"TOWNNAME":"新市區","LI":"港墘里","LIN":"28鄰","STREET":"華美街","SECT":" ","MAREA":" ","LANE":"６１巷","ALLEY":" ","HOUSE_NO":"８號","E_COORD97":178117.60000000001,"N_COORD97":2553032.7999999998,"ADDRESS":"華美街６１巷８號","OBJECTID":388974},"geometry":{"x":178117.60000000056,"y":2553032.8000000026}},{"attributes":{"ID":388999,"DIS_CODE":0,"TOWNNAME":"永康區","LI":"埔園里","LIN":"28鄰","STREET":"埔園街","SECT":" ","MAREA":" ","LANE":"２０３巷","ALLEY":" ","HOUSE_NO":"６號","E_COORD97":173723.34,"N_COORD97":2548226.7400000002,"ADDRESS":"埔園街２０３巷６號","OBJECTID":388975},"geometry":{"x":173723.33999999985,"y":2548226.7399999984}},{"attributes":{"ID":389000,"DIS_CODE":0,"TOWNNAME":"永康區","LI":"崑山里","LIN":"28鄰","STREET":"大灣路","SECT":" ","MAREA":" ","LANE":"９４２巷","ALLEY":" ","HOUSE_NO":"２５３號","E_COORD97":173776.60999999999,"N_COORD97":2544947.9900000002,"ADDRESS":"大灣路９４２巷２５３號","OBJECTID":388976},"geometry":{"x":173776.6100000022,"y":2544947.9900000021}},{"attributes":{"ID":389001,"DIS_CODE":0,"TOWNNAME":"永康區","LI":"埔園里","LIN":"28鄰","STREET":"埔園街","SECT":" ","MAREA":" ","LANE":"２４２巷","ALLEY":" ","HOUSE_NO":"３０號","E_COORD97":173707.64000000001,"N_COORD97":2548293,"ADDRESS":"埔園街２４２巷３０號","OBJECTID":388977},"geometry":{"x":173707.63999999966,"y":2548293.0000000037}},{"attributes":{"ID":389002,"DIS_CODE":0,"TOWNNAME":"永康區","LI":"埔園里","LIN":"28鄰","STREET":"埔園街","SECT":" ","MAREA":" ","LANE":"２４２巷","ALLEY":" ","HOUSE_NO":"３２號","E_COORD97":173716.29000000001,"N_COORD97":2548293,"ADDRESS":"埔園街２４２巷３２號","OBJECTID":388978},"geometry":{"x":173716.29000000097,"y":2548293.0000000037}},{"attributes":{"ID":389003,"DIS_CODE":0,"TOWNNAME":"永康區","LI":"崑山里","LIN":"28鄰","STREET":"大灣路","SECT":" ","MAREA":" ","LANE":"９４２巷","ALLEY":" ","HOUSE_NO":"２４３號","E_COORD97":173768.63,"N_COORD97":2544928.4900000002,"ADDRESS":"大灣路９４２巷２４３號","OBJECTID":388979},"geometry":{"x":173768.62999999989,"y":2544928.4900000002}},{"attributes":{"ID":389004,"DIS_CODE":0,"TOWNNAME":"永康區","LI":"崑山里","LIN":"28鄰","STREET":"大灣路","SECT":" ","MAREA":" ","LANE":"９４２巷","ALLEY":" ","HOUSE_NO":"２３９號","E_COORD97":173765.76000000001,"N_COORD97":2544920.7400000002,"ADDRESS":"大灣路９４２巷２３９號","OBJECTID":388980},"geometry":{"x":173765.75999999978,"y":2544920.7400000002}},{"attributes":{"ID":389005,"DIS_CODE":0,"TOWNNAME":"永康區","LI":"崑山里","LIN":"28鄰","STREET":"大灣路","SECT":" ","MAREA":" ","LANE":"９４２巷","ALLEY":" ","HOUSE_NO":"２２９號","E_COORD97":173759.17999999999,"N_COORD97":2544901.25,"ADDRESS":"大灣路９４２巷２２９號","OBJECTID":388981},"geometry":{"x":173759.18000000063,"y":2544901.2500000019}},{"attributes":{"ID":389006,"DIS_CODE":0,"TOWNNAME":"永康區","LI":"崑山里","LIN":"28鄰","STREET":"大灣路","SECT":" ","MAREA":" ","LANE":"９４２巷","ALLEY":" ","HOUSE_NO":"２３１號","E_COORD97":173760.38,"N_COORD97":2544905.2400000002,"ADDRESS":"大灣路９４２巷２３１號","OBJECTID":388982},"geometry":{"x":173760.37999999989,"y":2544905.2400000021}},{"attributes":{"ID":389007,"DIS_CODE":0,"TOWNNAME":"永康區","LI":"崑山里","LIN":"28鄰","STREET":"大灣路","SECT":" ","MAREA":" ","LANE":"９４２巷","ALLEY":" ","HOUSE_NO":"２５１號","E_COORD97":173774.69,"N_COORD97":2544943.9900000002,"ADDRESS":"大灣路９４２巷２５１號","OBJECTID":388983},"geometry":{"x":173774.69000000134,"y":2544943.9900000021}},{"attributes":{"ID":389008,"DIS_CODE":0,"TOWNNAME":"永康區","LI":"崑山里","LIN":"28鄰","STREET":"大灣路","SECT":" ","MAREA":" ","LANE":"９４２巷","ALLEY":" ","HOUSE_NO":"２４５號","E_COORD97":173769.64999999999,"N_COORD97":2544932.4900000002,"ADDRESS":"大灣路９４２巷２４５號","OBJECTID":388984},"geometry":{"x":173769.6500000013,"y":2544932.4900000002}},{"attributes":{"ID":389009,"DIS_CODE":0,"TOWNNAME":"永康區","LI":"崑山里","LIN":"28鄰","STREET":"大灣路","SECT":" ","MAREA":" ","LANE":"９４２巷","ALLEY":" ","HOUSE_NO":"２４９號","E_COORD97":173772.59,"N_COORD97":2544940.4900000002,"ADDRESS":"大灣路９４２巷２４９號","OBJECTID":388985},"geometry":{"x":173772.58999999985,"y":2544940.4900000021}},{"attributes":{"ID":389010,"DIS_CODE":0,"TOWNNAME":"永康區","LI":"東灣里","LIN":"28鄰","STREET":"民族路","SECT":" ","MAREA":" ","LANE":"１４５巷","ALLEY":" ","HOUSE_NO":"２３號","E_COORD97":175265.70000000001,"N_COORD97":2544768.3700000001,"ADDRESS":"民族路１４５巷２３號","OBJECTID":388986},"geometry":{"x":175265.69999999925,"y":2544768.370000001}},{"attributes":{"ID":389011,"DIS_CODE":0,"TOWNNAME":"永康區","LI":"東灣里","LIN":"28鄰","STREET":"民族路","SECT":" ","MAREA":" ","LANE":"１４５巷","ALLEY":" ","HOUSE_NO":"３５號","E_COORD97":175239,"N_COORD97":2544754.3500000001,"ADDRESS":"民族路１４５巷３５號","OBJECTID":388987},"geometry":{"x":175239.00000000093,"y":2544754.3500000015}},{"attributes":{"ID":389012,"DIS_CODE":0,"TOWNNAME":"仁德區","LI":"後壁里","LIN":"28鄰","STREET":"德洋路","SECT":" ","MAREA":" ","LANE":"３９巷","ALLEY":" ","HOUSE_NO":"７號","E_COORD97":173061.53,"N_COORD97":2538958.27,"ADDRESS":"德洋路３９巷７號","OBJECTID":388988},"geometry":{"x":173061.52999999933,"y":2538958.2700000014}},{"attributes":{"ID":389013,"DIS_CODE":0,"TOWNNAME":"仁德區","LI":"後壁里","LIN":"28鄰","STREET":"德洋路","SECT":" ","MAREA":" ","LANE":"２５巷","ALLEY":" ","HOUSE_NO":"１６號","E_COORD97":173111.48999999999,"N_COORD97":2538972.27,"ADDRESS":"德洋路２５巷１６號","OBJECTID":388989},"geometry":{"x":173111.49000000115,"y":2538972.2699999996}},{"attributes":{"ID":389014,"DIS_CODE":0,"TOWNNAME":"仁德區","LI":"後壁里","LIN":"28鄰","STREET":"德洋路","SECT":" ","MAREA":" ","LANE":"３９巷","ALLEY":" ","HOUSE_NO":"１２號","E_COORD97":173101.81,"N_COORD97":2538994.52,"ADDRESS":"德洋路３９巷１２號","OBJECTID":388990},"geometry":{"x":173101.81000000052,"y":2538994.5199999996}},{"attributes":{"ID":389015,"DIS_CODE":0,"TOWNNAME":"仁德區","LI":"上崙里","LIN":"28鄰","STREET":"上崙街","SECT":" ","MAREA":" ","LANE":"４０１巷","ALLEY":" ","HOUSE_NO":"９１號","E_COORD97":173056.39999999999,"N_COORD97":2537523.25,"ADDRESS":"上崙街４０１巷９１號","OBJECTID":388991},"geometry":{"x":173056.4000000013,"y":2537523.2500000037}},{"attributes":{"ID":389016,"DIS_CODE":0,"TOWNNAME":"仁德區","LI":"上崙里","LIN":"28鄰","STREET":"上崙街","SECT":" ","MAREA":" ","LANE":"４０１巷","ALLEY":" ","HOUSE_NO":"８１號","E_COORD97":173079.60999999999,"N_COORD97":2537524.5,"ADDRESS":"上崙街４０１巷８１號","OBJECTID":388992},"geometry":{"x":173079.61000000034,"y":2537524.5}},{"attributes":{"ID":389017,"DIS_CODE":0,"TOWNNAME":"新營區","LI":"大宏里","LIN":"22鄰","STREET":"開元路","SECT":" ","MAREA":" ","LANE":"７０巷","ALLEY":" ","HOUSE_NO":"１４號","E_COORD97":181128.63,"N_COORD97":2578918.48,"ADDRESS":"開元路７０巷１４號","OBJECTID":388993},"geometry":{"x":181128.63000000082,"y":2578918.4799999986}},{"attributes":{"ID":389018,"DIS_CODE":0,"TOWNNAME":"佳里區","LI":"安西里","LIN":"45鄰","STREET":"文化路","SECT":" ","MAREA":" ","LANE":"６１２巷","ALLEY":" ","HOUSE_NO":"９號","E_COORD97":164654.60000000001,"N_COORD97":2562641.2400000002,"ADDRESS":"文化路６１２巷９號","OBJECTID":388994},"geometry":{"x":164654.60000000056,"y":2562641.2400000002}},{"attributes":{"ID":389019,"DIS_CODE":0,"TOWNNAME":"永康區","LI":"\u25A0洲里","LIN":"10鄰","STREET":"\u25A0行路","SECT":" ","MAREA":" ","LANE":"１４６巷","ALLEY":" ","HOUSE_NO":"４號","E_COORD97":171433.72,"N_COORD97":2549246.1899999999,"ADDRESS":"\u25A0行路１４６巷４號","OBJECTID":388995},"geometry":{"x":171433.71999999974,"y":2549246.1899999995}},{"attributes":{"ID":389020,"DIS_CODE":0,"TOWNNAME":"安南區","LI":"新順里","LIN":"1鄰","STREET":"培安二街","SECT":" ","MAREA":" ","LANE":"１４巷","ALLEY":" ","HOUSE_NO":"１號","E_COORD97":169416.78,"N_COORD97":2549648.9199999999,"ADDRESS":"培安二街１４巷１號","OBJECTID":388996},"geometry":{"x":169416.78000000026,"y":2549648.9199999999}},{"attributes":{"ID":389021,"DIS_CODE":0,"TOWNNAME":"北區","LI":"文成里","LIN":"1鄰","STREET":"和緯路","SECT":"三段","MAREA":" ","LANE":"３０３巷","ALLEY":" ","HOUSE_NO":"１號","E_COORD97":167638.73000000001,"N_COORD97":2545604.3399999999,"ADDRESS":"和緯路三段３０３巷１號","OBJECTID":388997},"geometry":{"x":167638.73000000045,"y":2545604.3399999999}},{"attributes":{"ID":389022,"DIS_CODE":0,"TOWNNAME":"北區","LI":"文成里","LIN":"1鄰","STREET":"和緯路","SECT":"三段","MAREA":" ","LANE":"３０３巷","ALLEY":" ","HOUSE_NO":"３號","E_COORD97":167640.63,"N_COORD97":2545599.1099999999,"ADDRESS":"和緯路三段３０３巷３號","OBJECTID":388998},"geometry":{"x":167640.62999999989,"y":2545599.1099999994}},{"attributes":{"ID":389023,"DIS_CODE":0,"TOWNNAME":"中西區","LI":"郡西里","LIN":"1鄰","STREET":"海安路","SECT":"一段","MAREA":" ","LANE":" ","ALLEY":" ","HOUSE_NO":"１３號","E_COORD97":167424.28,"N_COORD97":2543191.7599999998,"ADDRESS":"海安路一段１３號","OBJECTID":388999},"geometry":{"x":167424.28000000026,"y":2543191.7600000035}},{"attributes":{"ID":389024,"DIS_CODE":0,"TOWNNAME":"中西區","LI":"郡西里","LIN":"1鄰","STREET":"海安路","SECT":"一段","MAREA":" ","LANE":" ","ALLEY":" ","HOUSE_NO":"１５號","E_COORD97":167425.38,"N_COORD97":2543197.4199999999,"ADDRESS":"海安路一段１５號","OBJECTID":389000},"geometry":{"x":167425.37999999989,"y":2543197.4200000037}}]}