{"displayFieldName":"TOWNNAME","fieldAliases":{"ID":"ID","DIS_CODE":"DIS_CODE","TOWNNAME":"TOWNNAME","LI":"LI","LIN":"LIN","STREET":"STREET","SECT":"SECT","MAREA":"MAREA","LANE":"LANE","ALLEY":"ALLEY","HOUSE_NO":"HOUSE_NO","E_COORD97":"E_COORD97","N_COORD97":"N_COORD97","ADDRESS":"ADDRESS","OBJECTID":"OBJECTID"},"geometryType":"esriGeometryPoint","spatialReference":{"wkid":102443,"latestWkid":3826},"fields":[{"name":"ID","type":"esriFieldTypeDouble","alias":"ID"},{"name":"DIS_CODE","type":"esriFieldTypeInteger","alias":"DIS_CODE"},{"name":"TOWNNAME","type":"esriFieldTypeString","alias":"TOWNNAME","length":8},{"name":"LI","type":"esriFieldTypeString","alias":"LI","length":8},{"name":"LIN","type":"esriFieldTypeString","alias":"LIN","length":12},{"name":"STREET","type":"esriFieldTypeString","alias":"STREET","length":20},{"name":"SECT","type":"esriFieldTypeString","alias":"SECT","length":8},{"name":"MAREA","type":"esriFieldTypeString","alias":"MAREA","length":12},{"name":"LANE","type":"esriFieldTypeString","alias":"LANE","length":10},{"name":"ALLEY","type":"esriFieldTypeString","alias":"ALLEY","length":10},{"name":"HOUSE_NO","type":"esriFieldTypeString","alias":"HOUSE_NO","length":20},{"name":"E_COORD97","type":"esriFieldTypeDouble","alias":"E_COORD97"},{"name":"N_COORD97","type":"esriFieldTypeDouble","alias":"N_COORD97"},{"name":"ADDRESS","type":"esriFieldTypeString","alias":"ADDRESS","length":50},{"name":"OBJECTID","type":"esriFieldTypeOID","alias":"OBJECTID"}],"features":[{"attributes":{"ID":604228,"DIS_CODE":0,"TOWNNAME":"東區","LI":"富強里","LIN":"22鄰","STREET":"富強三街","SECT":" ","MAREA":" ","LANE":" ","ALLEY":" ","HOUSE_NO":"５號七樓","E_COORD97":170989.17999999999,"N_COORD97":2542555.3500000001,"ADDRESS":"富強三街５號七樓","OBJECTID":604201},"geometry":{"x":170989.18000000063,"y":2542555.3499999996}},{"attributes":{"ID":604229,"DIS_CODE":0,"TOWNNAME":"東區","LI":"富強里","LIN":"22鄰","STREET":"富強三街","SECT":" ","MAREA":" ","LANE":" ","ALLEY":" ","HOUSE_NO":"５號八樓","E_COORD97":170989.17999999999,"N_COORD97":2542555.3500000001,"ADDRESS":"富強三街５號八樓","OBJECTID":604202},"geometry":{"x":170989.18000000063,"y":2542555.3499999996}},{"attributes":{"ID":604230,"DIS_CODE":0,"TOWNNAME":"東區","LI":"富強里","LIN":"22鄰","STREET":"富強三街","SECT":" ","MAREA":" ","LANE":" ","ALLEY":" ","HOUSE_NO":"５號九樓","E_COORD97":170989.17999999999,"N_COORD97":2542555.3500000001,"ADDRESS":"富強三街５號九樓","OBJECTID":604203},"geometry":{"x":170989.18000000063,"y":2542555.3499999996}},{"attributes":{"ID":604231,"DIS_CODE":0,"TOWNNAME":"東區","LI":"富強里","LIN":"22鄰","STREET":"富強三街","SECT":" ","MAREA":" ","LANE":" ","ALLEY":" ","HOUSE_NO":"７號二樓","E_COORD97":170981.57000000001,"N_COORD97":2542547.3700000001,"ADDRESS":"富強三街７號二樓","OBJECTID":604204},"geometry":{"x":170981.57000000123,"y":2542547.370000001}},{"attributes":{"ID":604232,"DIS_CODE":0,"TOWNNAME":"東區","LI":"富強里","LIN":"22鄰","STREET":"富強三街","SECT":" ","MAREA":" ","LANE":" ","ALLEY":" ","HOUSE_NO":"７號三樓","E_COORD97":170981.57000000001,"N_COORD97":2542547.3700000001,"ADDRESS":"富強三街７號三樓","OBJECTID":604205},"geometry":{"x":170981.57000000123,"y":2542547.370000001}},{"attributes":{"ID":604233,"DIS_CODE":0,"TOWNNAME":"東區","LI":"富強里","LIN":"22鄰","STREET":"富強三街","SECT":" ","MAREA":" ","LANE":" ","ALLEY":" ","HOUSE_NO":"７號四樓","E_COORD97":170981.57000000001,"N_COORD97":2542547.3700000001,"ADDRESS":"富強三街７號四樓","OBJECTID":604206},"geometry":{"x":170981.57000000123,"y":2542547.370000001}},{"attributes":{"ID":604234,"DIS_CODE":0,"TOWNNAME":"東區","LI":"富強里","LIN":"22鄰","STREET":"富強三街","SECT":" ","MAREA":" ","LANE":" ","ALLEY":" ","HOUSE_NO":"７號五樓","E_COORD97":170981.57000000001,"N_COORD97":2542547.3700000001,"ADDRESS":"富強三街７號五樓","OBJECTID":604207},"geometry":{"x":170981.57000000123,"y":2542547.370000001}},{"attributes":{"ID":604235,"DIS_CODE":0,"TOWNNAME":"東區","LI":"富強里","LIN":"22鄰","STREET":"富強三街","SECT":" ","MAREA":" ","LANE":" ","ALLEY":" ","HOUSE_NO":"７號六樓","E_COORD97":170981.57000000001,"N_COORD97":2542547.3700000001,"ADDRESS":"富強三街７號六樓","OBJECTID":604208},"geometry":{"x":170981.57000000123,"y":2542547.370000001}},{"attributes":{"ID":604236,"DIS_CODE":0,"TOWNNAME":"東區","LI":"富強里","LIN":"22鄰","STREET":"富強三街","SECT":" ","MAREA":" ","LANE":" ","ALLEY":" ","HOUSE_NO":"７號七樓","E_COORD97":170981.57000000001,"N_COORD97":2542547.3700000001,"ADDRESS":"富強三街７號七樓","OBJECTID":604209},"geometry":{"x":170981.57000000123,"y":2542547.370000001}},{"attributes":{"ID":604237,"DIS_CODE":0,"TOWNNAME":"東區","LI":"富強里","LIN":"22鄰","STREET":"富強三街","SECT":" ","MAREA":" ","LANE":" ","ALLEY":" ","HOUSE_NO":"７號八樓","E_COORD97":170981.57000000001,"N_COORD97":2542547.3700000001,"ADDRESS":"富強三街７號八樓","OBJECTID":604210},"geometry":{"x":170981.57000000123,"y":2542547.370000001}},{"attributes":{"ID":604238,"DIS_CODE":0,"TOWNNAME":"東區","LI":"富強里","LIN":"22鄰","STREET":"富強三街","SECT":" ","MAREA":" ","LANE":" ","ALLEY":" ","HOUSE_NO":"７號九樓","E_COORD97":170981.57000000001,"N_COORD97":2542547.3700000001,"ADDRESS":"富強三街７號九樓","OBJECTID":604211},"geometry":{"x":170981.57000000123,"y":2542547.370000001}},{"attributes":{"ID":604239,"DIS_CODE":0,"TOWNNAME":"東區","LI":"富強里","LIN":"22鄰","STREET":"富強三街","SECT":" ","MAREA":" ","LANE":" ","ALLEY":" ","HOUSE_NO":"９號二樓","E_COORD97":170973.22,"N_COORD97":2542536.9700000002,"ADDRESS":"富強三街９號二樓","OBJECTID":604212},"geometry":{"x":170973.22000000067,"y":2542536.9700000044}},{"attributes":{"ID":604240,"DIS_CODE":0,"TOWNNAME":"東區","LI":"富強里","LIN":"22鄰","STREET":"富強三街","SECT":" ","MAREA":" ","LANE":" ","ALLEY":" ","HOUSE_NO":"９號三樓","E_COORD97":170973.22,"N_COORD97":2542536.9700000002,"ADDRESS":"富強三街９號三樓","OBJECTID":604213},"geometry":{"x":170973.22000000067,"y":2542536.9700000044}},{"attributes":{"ID":604241,"DIS_CODE":0,"TOWNNAME":"東區","LI":"富強里","LIN":"22鄰","STREET":"富強三街","SECT":" ","MAREA":" ","LANE":" ","ALLEY":" ","HOUSE_NO":"９號四樓","E_COORD97":170973.22,"N_COORD97":2542536.9700000002,"ADDRESS":"富強三街９號四樓","OBJECTID":604214},"geometry":{"x":170973.22000000067,"y":2542536.9700000044}},{"attributes":{"ID":604242,"DIS_CODE":0,"TOWNNAME":"東區","LI":"富強里","LIN":"22鄰","STREET":"富強三街","SECT":" ","MAREA":" ","LANE":" ","ALLEY":" ","HOUSE_NO":"９號五樓","E_COORD97":170973.22,"N_COORD97":2542536.9700000002,"ADDRESS":"富強三街９號五樓","OBJECTID":604215},"geometry":{"x":170973.22000000067,"y":2542536.9700000044}},{"attributes":{"ID":604243,"DIS_CODE":0,"TOWNNAME":"東區","LI":"富強里","LIN":"22鄰","STREET":"富強三街","SECT":" ","MAREA":" ","LANE":" ","ALLEY":" ","HOUSE_NO":"９號六樓","E_COORD97":170973.22,"N_COORD97":2542536.9700000002,"ADDRESS":"富強三街９號六樓","OBJECTID":604216},"geometry":{"x":170973.22000000067,"y":2542536.9700000044}},{"attributes":{"ID":604244,"DIS_CODE":0,"TOWNNAME":"東區","LI":"富強里","LIN":"22鄰","STREET":"富強三街","SECT":" ","MAREA":" ","LANE":" ","ALLEY":" ","HOUSE_NO":"９號七樓","E_COORD97":170973.22,"N_COORD97":2542536.9700000002,"ADDRESS":"富強三街９號七樓","OBJECTID":604217},"geometry":{"x":170973.22000000067,"y":2542536.9700000044}},{"attributes":{"ID":604245,"DIS_CODE":0,"TOWNNAME":"東區","LI":"富強里","LIN":"22鄰","STREET":"富強三街","SECT":" ","MAREA":" ","LANE":" ","ALLEY":" ","HOUSE_NO":"９號八樓","E_COORD97":170973.22,"N_COORD97":2542536.9700000002,"ADDRESS":"富強三街９號八樓","OBJECTID":604218},"geometry":{"x":170973.22000000067,"y":2542536.9700000044}},{"attributes":{"ID":604246,"DIS_CODE":0,"TOWNNAME":"東區","LI":"富強里","LIN":"22鄰","STREET":"富強三街","SECT":" ","MAREA":" ","LANE":" ","ALLEY":" ","HOUSE_NO":"９號九樓","E_COORD97":170973.22,"N_COORD97":2542536.9700000002,"ADDRESS":"富強三街９號九樓","OBJECTID":604219},"geometry":{"x":170973.22000000067,"y":2542536.9700000044}},{"attributes":{"ID":604247,"DIS_CODE":0,"TOWNNAME":"南區","LI":"郡南里","LIN":"22鄰","STREET":"永興二街","SECT":" ","MAREA":" ","LANE":" ","ALLEY":" ","HOUSE_NO":"２１號八樓之２","E_COORD97":167250.67999999999,"N_COORD97":2540643.5299999998,"ADDRESS":"永興二街２１號八樓之２","OBJECTID":604220},"geometry":{"x":167250.68000000156,"y":2540643.5300000012}},{"attributes":{"ID":604248,"DIS_CODE":0,"TOWNNAME":"南區","LI":"新興里","LIN":"22鄰","STREET":"金華路","SECT":"二段","MAREA":" ","LANE":" ","ALLEY":" ","HOUSE_NO":"５８號三樓","E_COORD97":167098.59,"N_COORD97":2541937.2000000002,"ADDRESS":"金華路二段５８號三樓","OBJECTID":604221},"geometry":{"x":167098.58999999985,"y":2541937.200000003}},{"attributes":{"ID":604249,"DIS_CODE":0,"TOWNNAME":"南區","LI":"郡南里","LIN":"22鄰","STREET":"永興二街","SECT":" ","MAREA":" ","LANE":" ","ALLEY":" ","HOUSE_NO":"２１號二樓之１","E_COORD97":167252.29000000001,"N_COORD97":2540643.0600000001,"ADDRESS":"永興二街２１號二樓之１","OBJECTID":604222},"geometry":{"x":167252.29000000097,"y":2540643.0600000005}},{"attributes":{"ID":604250,"DIS_CODE":0,"TOWNNAME":"東區","LI":"忠孝里","LIN":"22鄰","STREET":"崇明七街","SECT":" ","MAREA":" ","LANE":" ","ALLEY":" ","HOUSE_NO":"３１號二樓之３","E_COORD97":169679.54000000001,"N_COORD97":2542163.5699999998,"ADDRESS":"崇明七街３１號二樓之３","OBJECTID":604223},"geometry":{"x":169679.5400000019,"y":2542163.5700000022}},{"attributes":{"ID":604251,"DIS_CODE":0,"TOWNNAME":"東區","LI":"忠孝里","LIN":"22鄰","STREET":"崇明七街","SECT":" ","MAREA":" ","LANE":" ","ALLEY":" ","HOUSE_NO":"３１號三樓之１","E_COORD97":169679.54000000001,"N_COORD97":2542163.5699999998,"ADDRESS":"崇明七街３１號三樓之１","OBJECTID":604224},"geometry":{"x":169679.5400000019,"y":2542163.5700000022}},{"attributes":{"ID":604252,"DIS_CODE":0,"TOWNNAME":"東區","LI":"忠孝里","LIN":"22鄰","STREET":"崇明七街","SECT":" ","MAREA":" ","LANE":" ","ALLEY":" ","HOUSE_NO":"３１號三樓之２","E_COORD97":169679.54000000001,"N_COORD97":2542163.5699999998,"ADDRESS":"崇明七街３１號三樓之２","OBJECTID":604225},"geometry":{"x":169679.5400000019,"y":2542163.5700000022}},{"attributes":{"ID":604253,"DIS_CODE":0,"TOWNNAME":"東區","LI":"忠孝里","LIN":"22鄰","STREET":"崇明七街","SECT":" ","MAREA":" ","LANE":" ","ALLEY":" ","HOUSE_NO":"３１號三樓之３","E_COORD97":169679.54000000001,"N_COORD97":2542163.5699999998,"ADDRESS":"崇明七街３１號三樓之３","OBJECTID":604226},"geometry":{"x":169679.5400000019,"y":2542163.5700000022}},{"attributes":{"ID":604254,"DIS_CODE":0,"TOWNNAME":"東區","LI":"忠孝里","LIN":"22鄰","STREET":"崇明七街","SECT":" ","MAREA":" ","LANE":" ","ALLEY":" ","HOUSE_NO":"３１號四樓之１","E_COORD97":169679.54000000001,"N_COORD97":2542163.5699999998,"ADDRESS":"崇明七街３１號四樓之１","OBJECTID":604227},"geometry":{"x":169679.5400000019,"y":2542163.5700000022}},{"attributes":{"ID":604255,"DIS_CODE":0,"TOWNNAME":"東區","LI":"忠孝里","LIN":"22鄰","STREET":"崇明七街","SECT":" ","MAREA":" ","LANE":" ","ALLEY":" ","HOUSE_NO":"３１號四樓之２","E_COORD97":169679.54000000001,"N_COORD97":2542163.5699999998,"ADDRESS":"崇明七街３１號四樓之２","OBJECTID":604228},"geometry":{"x":169679.5400000019,"y":2542163.5700000022}},{"attributes":{"ID":604256,"DIS_CODE":0,"TOWNNAME":"東區","LI":"忠孝里","LIN":"22鄰","STREET":"崇明七街","SECT":" ","MAREA":" ","LANE":" ","ALLEY":" ","HOUSE_NO":"３１號四樓之３","E_COORD97":169679.54000000001,"N_COORD97":2542163.5699999998,"ADDRESS":"崇明七街３１號四樓之３","OBJECTID":604229},"geometry":{"x":169679.5400000019,"y":2542163.5700000022}},{"attributes":{"ID":604257,"DIS_CODE":0,"TOWNNAME":"東區","LI":"忠孝里","LIN":"22鄰","STREET":"崇明七街","SECT":" ","MAREA":" ","LANE":" ","ALLEY":" ","HOUSE_NO":"３１號二樓之１","E_COORD97":169679.54000000001,"N_COORD97":2542163.5699999998,"ADDRESS":"崇明七街３１號二樓之１","OBJECTID":604230},"geometry":{"x":169679.5400000019,"y":2542163.5700000022}},{"attributes":{"ID":604258,"DIS_CODE":0,"TOWNNAME":"永康區","LI":"尚頂里","LIN":"22鄰","STREET":"大武街","SECT":" ","MAREA":" ","LANE":" ","ALLEY":" ","HOUSE_NO":"６２號八樓之１","E_COORD97":170390.16,"N_COORD97":2546803.54,"ADDRESS":"大武街６２號八樓之１","OBJECTID":604231},"geometry":{"x":170390.16000000015,"y":2546803.540000001}},{"attributes":{"ID":604259,"DIS_CODE":0,"TOWNNAME":"永康區","LI":"尚頂里","LIN":"22鄰","STREET":"大武街","SECT":" ","MAREA":" ","LANE":" ","ALLEY":" ","HOUSE_NO":"６２號十六樓之２","E_COORD97":170391.54999999999,"N_COORD97":2546803.54,"ADDRESS":"大武街６２號十六樓之２","OBJECTID":604232},"geometry":{"x":170391.55000000075,"y":2546803.540000001}},{"attributes":{"ID":604260,"DIS_CODE":0,"TOWNNAME":"永康區","LI":"尚頂里","LIN":"22鄰","STREET":"大武街","SECT":" ","MAREA":" ","LANE":" ","ALLEY":" ","HOUSE_NO":"６２號七樓之１","E_COORD97":170390.16,"N_COORD97":2546803.54,"ADDRESS":"大武街６２號七樓之１","OBJECTID":604233},"geometry":{"x":170390.16000000015,"y":2546803.540000001}},{"attributes":{"ID":604261,"DIS_CODE":0,"TOWNNAME":"永康區","LI":"尚頂里","LIN":"22鄰","STREET":"大武街","SECT":" ","MAREA":" ","LANE":" ","ALLEY":" ","HOUSE_NO":"６２號六樓之１","E_COORD97":170390.16,"N_COORD97":2546803.54,"ADDRESS":"大武街６２號六樓之１","OBJECTID":604234},"geometry":{"x":170390.16000000015,"y":2546803.540000001}},{"attributes":{"ID":604262,"DIS_CODE":0,"TOWNNAME":"永康區","LI":"尚頂里","LIN":"22鄰","STREET":"大武街","SECT":" ","MAREA":" ","LANE":" ","ALLEY":" ","HOUSE_NO":"６２號十樓之１","E_COORD97":170390.16,"N_COORD97":2546803.54,"ADDRESS":"大武街６２號十樓之１","OBJECTID":604235},"geometry":{"x":170390.16000000015,"y":2546803.540000001}},{"attributes":{"ID":604263,"DIS_CODE":0,"TOWNNAME":"永康區","LI":"尚頂里","LIN":"22鄰","STREET":"大武街","SECT":" ","MAREA":" ","LANE":" ","ALLEY":" ","HOUSE_NO":"６２號十樓之２","E_COORD97":170390.29999999999,"N_COORD97":2546803.54,"ADDRESS":"大武街６２號十樓之２","OBJECTID":604236},"geometry":{"x":170390.29999999981,"y":2546803.540000001}},{"attributes":{"ID":604264,"DIS_CODE":0,"TOWNNAME":"永康區","LI":"尚頂里","LIN":"22鄰","STREET":"大武街","SECT":" ","MAREA":" ","LANE":" ","ALLEY":" ","HOUSE_NO":"６２號五樓之１","E_COORD97":170390.16,"N_COORD97":2546803.54,"ADDRESS":"大武街６２號五樓之１","OBJECTID":604237},"geometry":{"x":170390.16000000015,"y":2546803.540000001}},{"attributes":{"ID":604265,"DIS_CODE":0,"TOWNNAME":"永康區","LI":"尚頂里","LIN":"22鄰","STREET":"大武街","SECT":" ","MAREA":" ","LANE":" ","ALLEY":" ","HOUSE_NO":"６２號五樓之２","E_COORD97":170390.29999999999,"N_COORD97":2546803.54,"ADDRESS":"大武街６２號五樓之２","OBJECTID":604238},"geometry":{"x":170390.29999999981,"y":2546803.540000001}},{"attributes":{"ID":604266,"DIS_CODE":0,"TOWNNAME":"永康區","LI":"尚頂里","LIN":"22鄰","STREET":"大武街","SECT":" ","MAREA":" ","LANE":" ","ALLEY":" ","HOUSE_NO":"６２號三樓之２","E_COORD97":170390.29999999999,"N_COORD97":2546803.54,"ADDRESS":"大武街６２號三樓之２","OBJECTID":604239},"geometry":{"x":170390.29999999981,"y":2546803.540000001}},{"attributes":{"ID":604267,"DIS_CODE":0,"TOWNNAME":"永康區","LI":"尚頂里","LIN":"22鄰","STREET":"大武街","SECT":" ","MAREA":" ","LANE":" ","ALLEY":" ","HOUSE_NO":"７２號十五樓之１","E_COORD97":170399.72,"N_COORD97":2546807.29,"ADDRESS":"大武街７２號十五樓之１","OBJECTID":604240},"geometry":{"x":170399.71999999974,"y":2546807.2899999991}},{"attributes":{"ID":604268,"DIS_CODE":0,"TOWNNAME":"永康區","LI":"龍潭里","LIN":"22鄰","STREET":"龍安街","SECT":" ","MAREA":" ","LANE":" ","ALLEY":" ","HOUSE_NO":"２６７號四樓之２","E_COORD97":174802.26999999999,"N_COORD97":2548629.6899999999,"ADDRESS":"龍安街２６７號四樓之２","OBJECTID":604241},"geometry":{"x":174802.27000000048,"y":2548629.6899999976}},{"attributes":{"ID":604269,"DIS_CODE":0,"TOWNNAME":"永康區","LI":"龍潭里","LIN":"22鄰","STREET":"龍安街","SECT":" ","MAREA":" ","LANE":" ","ALLEY":" ","HOUSE_NO":"２５３號五樓之１","E_COORD97":174768.17999999999,"N_COORD97":2548600.5499999998,"ADDRESS":"龍安街２５３號五樓之１","OBJECTID":604242},"geometry":{"x":174768.1799999997,"y":2548600.5500000007}},{"attributes":{"ID":604270,"DIS_CODE":0,"TOWNNAME":"永康區","LI":"龍潭里","LIN":"22鄰","STREET":"龍安街","SECT":" ","MAREA":" ","LANE":" ","ALLEY":" ","HOUSE_NO":"２６７號二樓之３","E_COORD97":174802.23000000001,"N_COORD97":2548629.6899999999,"ADDRESS":"龍安街２６７號二樓之３","OBJECTID":604243},"geometry":{"x":174802.23000000138,"y":2548629.6899999976}},{"attributes":{"ID":604271,"DIS_CODE":0,"TOWNNAME":"永康區","LI":"龍潭里","LIN":"22鄰","STREET":"龍安街","SECT":" ","MAREA":" ","LANE":" ","ALLEY":" ","HOUSE_NO":"２５３號七樓之２","E_COORD97":174768.31,"N_COORD97":2548600.5499999998,"ADDRESS":"龍安街２５３號七樓之２","OBJECTID":604244},"geometry":{"x":174768.31000000052,"y":2548600.5500000007}},{"attributes":{"ID":604272,"DIS_CODE":0,"TOWNNAME":"永康區","LI":"龍潭里","LIN":"22鄰","STREET":"龍安街","SECT":" ","MAREA":" ","LANE":" ","ALLEY":" ","HOUSE_NO":"２５３號八樓之３","E_COORD97":174768.26999999999,"N_COORD97":2548600.5499999998,"ADDRESS":"龍安街２５３號八樓之３","OBJECTID":604245},"geometry":{"x":174768.27000000048,"y":2548600.5500000007}},{"attributes":{"ID":604273,"DIS_CODE":0,"TOWNNAME":"永康區","LI":"龍潭里","LIN":"22鄰","STREET":"龍安街","SECT":" ","MAREA":" ","LANE":" ","ALLEY":" ","HOUSE_NO":"２５３號二樓之１","E_COORD97":174768.17999999999,"N_COORD97":2548600.5499999998,"ADDRESS":"龍安街２５３號二樓之１","OBJECTID":604246},"geometry":{"x":174768.1799999997,"y":2548600.5500000007}},{"attributes":{"ID":604274,"DIS_CODE":0,"TOWNNAME":"永康區","LI":"龍潭里","LIN":"22鄰","STREET":"龍安街","SECT":" ","MAREA":" ","LANE":" ","ALLEY":" ","HOUSE_NO":"２５１號五樓之４","E_COORD97":174751.20000000001,"N_COORD97":2548624.6400000001,"ADDRESS":"龍安街２５１號五樓之４","OBJECTID":604247},"geometry":{"x":174751.20000000112,"y":2548624.6400000043}},{"attributes":{"ID":604275,"DIS_CODE":0,"TOWNNAME":"永康區","LI":"龍潭里","LIN":"22鄰","STREET":"龍安街","SECT":" ","MAREA":" ","LANE":" ","ALLEY":" ","HOUSE_NO":"２５１號四樓之２","E_COORD97":174751.31,"N_COORD97":2548624.6400000001,"ADDRESS":"龍安街２５１號四樓之２","OBJECTID":604248},"geometry":{"x":174751.31000000052,"y":2548624.6400000043}},{"attributes":{"ID":604276,"DIS_CODE":0,"TOWNNAME":"永康區","LI":"龍潭里","LIN":"22鄰","STREET":"龍安街","SECT":" ","MAREA":" ","LANE":" ","ALLEY":" ","HOUSE_NO":"２５１號四樓之１","E_COORD97":174751.17000000001,"N_COORD97":2548624.6400000001,"ADDRESS":"龍安街２５１號四樓之１","OBJECTID":604249},"geometry":{"x":174751.17000000086,"y":2548624.6400000043}},{"attributes":{"ID":604277,"DIS_CODE":0,"TOWNNAME":"永康區","LI":"龍潭里","LIN":"22鄰","STREET":"龍安街","SECT":" ","MAREA":" ","LANE":" ","ALLEY":" ","HOUSE_NO":"２５１號二樓之１","E_COORD97":174751.17000000001,"N_COORD97":2548624.6400000001,"ADDRESS":"龍安街２５１號二樓之１","OBJECTID":604250},"geometry":{"x":174751.17000000086,"y":2548624.6400000043}},{"attributes":{"ID":604278,"DIS_CODE":0,"TOWNNAME":"永康區","LI":"龍潭里","LIN":"22鄰","STREET":"龍安街","SECT":" ","MAREA":" ","LANE":" ","ALLEY":" ","HOUSE_NO":"２５１號七樓之３","E_COORD97":174751.26999999999,"N_COORD97":2548624.6400000001,"ADDRESS":"龍安街２５１號七樓之３","OBJECTID":604251},"geometry":{"x":174751.27000000048,"y":2548624.6400000043}},{"attributes":{"ID":604279,"DIS_CODE":0,"TOWNNAME":"永康區","LI":"龍潭里","LIN":"22鄰","STREET":"龍安街","SECT":" ","MAREA":" ","LANE":" ","ALLEY":" ","HOUSE_NO":"２５１號六樓之４","E_COORD97":174751.20000000001,"N_COORD97":2548624.6400000001,"ADDRESS":"龍安街２５１號六樓之４","OBJECTID":604252},"geometry":{"x":174751.20000000112,"y":2548624.6400000043}},{"attributes":{"ID":604280,"DIS_CODE":0,"TOWNNAME":"永康區","LI":"龍潭里","LIN":"22鄰","STREET":"龍安街","SECT":" ","MAREA":" ","LANE":" ","ALLEY":" ","HOUSE_NO":"２５１號六樓之２","E_COORD97":174751.31,"N_COORD97":2548624.6400000001,"ADDRESS":"龍安街２５１號六樓之２","OBJECTID":604253},"geometry":{"x":174751.31000000052,"y":2548624.6400000043}},{"attributes":{"ID":604281,"DIS_CODE":0,"TOWNNAME":"永康區","LI":"龍潭里","LIN":"22鄰","STREET":"龍安街","SECT":" ","MAREA":" ","LANE":" ","ALLEY":" ","HOUSE_NO":"２５１號一樓之１","E_COORD97":174751.17000000001,"N_COORD97":2548624.6400000001,"ADDRESS":"龍安街２５１號一樓之１","OBJECTID":604254},"geometry":{"x":174751.17000000086,"y":2548624.6400000043}},{"attributes":{"ID":604282,"DIS_CODE":0,"TOWNNAME":"永康區","LI":"龍潭里","LIN":"22鄰","STREET":"龍安街","SECT":" ","MAREA":" ","LANE":" ","ALLEY":" ","HOUSE_NO":"２５１號七樓之４","E_COORD97":174751.20000000001,"N_COORD97":2548624.6400000001,"ADDRESS":"龍安街２５１號七樓之４","OBJECTID":604255},"geometry":{"x":174751.20000000112,"y":2548624.6400000043}},{"attributes":{"ID":604283,"DIS_CODE":0,"TOWNNAME":"中西區","LI":"永華里","LIN":"22鄰","STREET":"忠義路","SECT":"二段","MAREA":" ","LANE":" ","ALLEY":" ","HOUSE_NO":"３２號五樓之２","E_COORD97":168288.37,"N_COORD97":2543672.1000000001,"ADDRESS":"忠義路二段３２號五樓之２","OBJECTID":604256},"geometry":{"x":168288.37000000011,"y":2543672.1000000015}},{"attributes":{"ID":604284,"DIS_CODE":0,"TOWNNAME":"中西區","LI":"永華里","LIN":"22鄰","STREET":"忠義路","SECT":"二段","MAREA":" ","LANE":" ","ALLEY":" ","HOUSE_NO":"３２號五樓之３","E_COORD97":168288.37,"N_COORD97":2543672.1000000001,"ADDRESS":"忠義路二段３２號五樓之３","OBJECTID":604257},"geometry":{"x":168288.37000000011,"y":2543672.1000000015}},{"attributes":{"ID":604285,"DIS_CODE":0,"TOWNNAME":"永康區","LI":"網寮里","LIN":"22鄰","STREET":"永勝街","SECT":" ","MAREA":" ","LANE":" ","ALLEY":" ","HOUSE_NO":"３０號","E_COORD97":173640.07999999999,"N_COORD97":2546219.4300000002,"ADDRESS":"永勝街３０號","OBJECTID":604258},"geometry":{"x":173640.08000000007,"y":2546219.4300000016}},{"attributes":{"ID":604286,"DIS_CODE":0,"TOWNNAME":"中西區","LI":"永華里","LIN":"22鄰","STREET":"忠義路","SECT":"二段","MAREA":" ","LANE":" ","ALLEY":" ","HOUSE_NO":"３２號五樓之４","E_COORD97":168288.37,"N_COORD97":2543672.1000000001,"ADDRESS":"忠義路二段３２號五樓之４","OBJECTID":604259},"geometry":{"x":168288.37000000011,"y":2543672.1000000015}},{"attributes":{"ID":604287,"DIS_CODE":0,"TOWNNAME":"中西區","LI":"永華里","LIN":"22鄰","STREET":"忠義路","SECT":"二段","MAREA":" ","LANE":" ","ALLEY":" ","HOUSE_NO":"３２號五樓之５","E_COORD97":168288.37,"N_COORD97":2543672.1000000001,"ADDRESS":"忠義路二段３２號五樓之５","OBJECTID":604260},"geometry":{"x":168288.37000000011,"y":2543672.1000000015}},{"attributes":{"ID":604288,"DIS_CODE":0,"TOWNNAME":"中西區","LI":"永華里","LIN":"22鄰","STREET":"忠義路","SECT":"二段","MAREA":" ","LANE":" ","ALLEY":" ","HOUSE_NO":"３２號六樓之１","E_COORD97":168288.37,"N_COORD97":2543672.1000000001,"ADDRESS":"忠義路二段３２號六樓之１","OBJECTID":604261},"geometry":{"x":168288.37000000011,"y":2543672.1000000015}},{"attributes":{"ID":604289,"DIS_CODE":0,"TOWNNAME":"中西區","LI":"永華里","LIN":"22鄰","STREET":"忠義路","SECT":"二段","MAREA":" ","LANE":" ","ALLEY":" ","HOUSE_NO":"３２號六樓之２","E_COORD97":168288.37,"N_COORD97":2543672.1000000001,"ADDRESS":"忠義路二段３２號六樓之２","OBJECTID":604262},"geometry":{"x":168288.37000000011,"y":2543672.1000000015}},{"attributes":{"ID":604290,"DIS_CODE":0,"TOWNNAME":"中西區","LI":"永華里","LIN":"22鄰","STREET":"忠義路","SECT":"二段","MAREA":" ","LANE":" ","ALLEY":" ","HOUSE_NO":"３２號六樓之３","E_COORD97":168288.37,"N_COORD97":2543672.1000000001,"ADDRESS":"忠義路二段３２號六樓之３","OBJECTID":604263},"geometry":{"x":168288.37000000011,"y":2543672.1000000015}},{"attributes":{"ID":604291,"DIS_CODE":0,"TOWNNAME":"中西區","LI":"永華里","LIN":"22鄰","STREET":"忠義路","SECT":"二段","MAREA":" ","LANE":" ","ALLEY":" ","HOUSE_NO":"３２號六樓之４","E_COORD97":168288.37,"N_COORD97":2543672.1000000001,"ADDRESS":"忠義路二段３２號六樓之４","OBJECTID":604264},"geometry":{"x":168288.37000000011,"y":2543672.1000000015}},{"attributes":{"ID":604292,"DIS_CODE":0,"TOWNNAME":"中西區","LI":"永華里","LIN":"22鄰","STREET":"忠義路","SECT":"二段","MAREA":" ","LANE":" ","ALLEY":" ","HOUSE_NO":"３２號六樓之５","E_COORD97":168288.37,"N_COORD97":2543672.1000000001,"ADDRESS":"忠義路二段３２號六樓之５","OBJECTID":604265},"geometry":{"x":168288.37000000011,"y":2543672.1000000015}},{"attributes":{"ID":604293,"DIS_CODE":0,"TOWNNAME":"中西區","LI":"永華里","LIN":"22鄰","STREET":"忠義路","SECT":"二段","MAREA":" ","LANE":" ","ALLEY":" ","HOUSE_NO":"３２號四樓之１","E_COORD97":168288.37,"N_COORD97":2543672.1000000001,"ADDRESS":"忠義路二段３２號四樓之１","OBJECTID":604266},"geometry":{"x":168288.37000000011,"y":2543672.1000000015}},{"attributes":{"ID":604294,"DIS_CODE":0,"TOWNNAME":"中西區","LI":"永華里","LIN":"22鄰","STREET":"忠義路","SECT":"二段","MAREA":" ","LANE":" ","ALLEY":" ","HOUSE_NO":"３２號四樓之２","E_COORD97":168288.37,"N_COORD97":2543672.1000000001,"ADDRESS":"忠義路二段３２號四樓之２","OBJECTID":604267},"geometry":{"x":168288.37000000011,"y":2543672.1000000015}},{"attributes":{"ID":604295,"DIS_CODE":0,"TOWNNAME":"中西區","LI":"永華里","LIN":"22鄰","STREET":"忠義路","SECT":"二段","MAREA":" ","LANE":" ","ALLEY":" ","HOUSE_NO":"５４號七樓之１","E_COORD97":168313.07999999999,"N_COORD97":2543736.7200000002,"ADDRESS":"忠義路二段５４號七樓之１","OBJECTID":604268},"geometry":{"x":168313.08000000101,"y":2543736.7200000025}},{"attributes":{"ID":604296,"DIS_CODE":0,"TOWNNAME":"中西區","LI":"永華里","LIN":"22鄰","STREET":"忠義路","SECT":"二段","MAREA":" ","LANE":" ","ALLEY":" ","HOUSE_NO":"５４號七樓之２","E_COORD97":168313.07999999999,"N_COORD97":2543736.7200000002,"ADDRESS":"忠義路二段５４號七樓之２","OBJECTID":604269},"geometry":{"x":168313.08000000101,"y":2543736.7200000025}},{"attributes":{"ID":604297,"DIS_CODE":0,"TOWNNAME":"中西區","LI":"永華里","LIN":"22鄰","STREET":"忠義路","SECT":"二段","MAREA":" ","LANE":" ","ALLEY":" ","HOUSE_NO":"５４號九樓之１","E_COORD97":168313.07999999999,"N_COORD97":2543736.7200000002,"ADDRESS":"忠義路二段５４號九樓之１","OBJECTID":604270},"geometry":{"x":168313.08000000101,"y":2543736.7200000025}},{"attributes":{"ID":604298,"DIS_CODE":0,"TOWNNAME":"中西區","LI":"永華里","LIN":"22鄰","STREET":"忠義路","SECT":"二段","MAREA":" ","LANE":" ","ALLEY":" ","HOUSE_NO":"５４號九樓之２","E_COORD97":168313.07999999999,"N_COORD97":2543736.7200000002,"ADDRESS":"忠義路二段５４號九樓之２","OBJECTID":604271},"geometry":{"x":168313.08000000101,"y":2543736.7200000025}},{"attributes":{"ID":604299,"DIS_CODE":0,"TOWNNAME":"中西區","LI":"永華里","LIN":"22鄰","STREET":"忠義路","SECT":"二段","MAREA":" ","LANE":" ","ALLEY":" ","HOUSE_NO":"５４號二樓","E_COORD97":168313.07999999999,"N_COORD97":2543736.7200000002,"ADDRESS":"忠義路二段５４號二樓","OBJECTID":604272},"geometry":{"x":168313.08000000101,"y":2543736.7200000025}},{"attributes":{"ID":604300,"DIS_CODE":0,"TOWNNAME":"中西區","LI":"永華里","LIN":"22鄰","STREET":"忠義路","SECT":"二段","MAREA":" ","LANE":" ","ALLEY":" ","HOUSE_NO":"５４號八樓之１","E_COORD97":168313.07999999999,"N_COORD97":2543736.7200000002,"ADDRESS":"忠義路二段５４號八樓之１","OBJECTID":604273},"geometry":{"x":168313.08000000101,"y":2543736.7200000025}},{"attributes":{"ID":604301,"DIS_CODE":0,"TOWNNAME":"中西區","LI":"永華里","LIN":"22鄰","STREET":"忠義路","SECT":"二段","MAREA":" ","LANE":" ","ALLEY":" ","HOUSE_NO":"５４號八樓之２","E_COORD97":168313.07999999999,"N_COORD97":2543736.7200000002,"ADDRESS":"忠義路二段５４號八樓之２","OBJECTID":604274},"geometry":{"x":168313.08000000101,"y":2543736.7200000025}},{"attributes":{"ID":604302,"DIS_CODE":0,"TOWNNAME":"中西區","LI":"永華里","LIN":"22鄰","STREET":"忠義路","SECT":"二段","MAREA":" ","LANE":" ","ALLEY":" ","HOUSE_NO":"５４號十樓之１","E_COORD97":168313.07999999999,"N_COORD97":2543736.7200000002,"ADDRESS":"忠義路二段５４號十樓之１","OBJECTID":604275},"geometry":{"x":168313.08000000101,"y":2543736.7200000025}},{"attributes":{"ID":604303,"DIS_CODE":0,"TOWNNAME":"中西區","LI":"永華里","LIN":"22鄰","STREET":"忠義路","SECT":"二段","MAREA":" ","LANE":" ","ALLEY":" ","HOUSE_NO":"５４號十樓之２","E_COORD97":168313.07999999999,"N_COORD97":2543736.7200000002,"ADDRESS":"忠義路二段５４號十樓之２","OBJECTID":604276},"geometry":{"x":168313.08000000101,"y":2543736.7200000025}},{"attributes":{"ID":604304,"DIS_CODE":0,"TOWNNAME":"中西區","LI":"永華里","LIN":"22鄰","STREET":"忠義路","SECT":"二段","MAREA":" ","LANE":" ","ALLEY":" ","HOUSE_NO":"５４號三樓之１","E_COORD97":168313.07999999999,"N_COORD97":2543736.7200000002,"ADDRESS":"忠義路二段５４號三樓之１","OBJECTID":604277},"geometry":{"x":168313.08000000101,"y":2543736.7200000025}},{"attributes":{"ID":604305,"DIS_CODE":0,"TOWNNAME":"中西區","LI":"永華里","LIN":"22鄰","STREET":"忠義路","SECT":"二段","MAREA":" ","LANE":" ","ALLEY":" ","HOUSE_NO":"５４號三樓之２","E_COORD97":168313.07999999999,"N_COORD97":2543736.7200000002,"ADDRESS":"忠義路二段５４號三樓之２","OBJECTID":604278},"geometry":{"x":168313.08000000101,"y":2543736.7200000025}},{"attributes":{"ID":604306,"DIS_CODE":0,"TOWNNAME":"中西區","LI":"永華里","LIN":"22鄰","STREET":"忠義路","SECT":"二段","MAREA":" ","LANE":" ","ALLEY":" ","HOUSE_NO":"５４號五樓之１","E_COORD97":168313.07999999999,"N_COORD97":2543736.7200000002,"ADDRESS":"忠義路二段５４號五樓之１","OBJECTID":604279},"geometry":{"x":168313.08000000101,"y":2543736.7200000025}},{"attributes":{"ID":604307,"DIS_CODE":0,"TOWNNAME":"中西區","LI":"永華里","LIN":"22鄰","STREET":"忠義路","SECT":"二段","MAREA":" ","LANE":" ","ALLEY":" ","HOUSE_NO":"５４號五樓之２","E_COORD97":168313.07999999999,"N_COORD97":2543736.7200000002,"ADDRESS":"忠義路二段５４號五樓之２","OBJECTID":604280},"geometry":{"x":168313.08000000101,"y":2543736.7200000025}},{"attributes":{"ID":604308,"DIS_CODE":0,"TOWNNAME":"中西區","LI":"永華里","LIN":"22鄰","STREET":"忠義路","SECT":"二段","MAREA":" ","LANE":" ","ALLEY":" ","HOUSE_NO":"５４號六樓之１","E_COORD97":168313.07999999999,"N_COORD97":2543736.7200000002,"ADDRESS":"忠義路二段５４號六樓之１","OBJECTID":604281},"geometry":{"x":168313.08000000101,"y":2543736.7200000025}},{"attributes":{"ID":604309,"DIS_CODE":0,"TOWNNAME":"中西區","LI":"永華里","LIN":"22鄰","STREET":"忠義路","SECT":"二段","MAREA":" ","LANE":" ","ALLEY":" ","HOUSE_NO":"５４號六樓之２","E_COORD97":168313.07999999999,"N_COORD97":2543736.7200000002,"ADDRESS":"忠義路二段５４號六樓之２","OBJECTID":604282},"geometry":{"x":168313.08000000101,"y":2543736.7200000025}},{"attributes":{"ID":604310,"DIS_CODE":0,"TOWNNAME":"中西區","LI":"永華里","LIN":"22鄰","STREET":"忠義路","SECT":"二段","MAREA":" ","LANE":" ","ALLEY":" ","HOUSE_NO":"５４號四樓之１","E_COORD97":168313.07999999999,"N_COORD97":2543736.7200000002,"ADDRESS":"忠義路二段５４號四樓之１","OBJECTID":604283},"geometry":{"x":168313.08000000101,"y":2543736.7200000025}},{"attributes":{"ID":604311,"DIS_CODE":0,"TOWNNAME":"中西區","LI":"永華里","LIN":"22鄰","STREET":"忠義路","SECT":"二段","MAREA":" ","LANE":" ","ALLEY":" ","HOUSE_NO":"５４號四樓之２","E_COORD97":168313.07999999999,"N_COORD97":2543736.7200000002,"ADDRESS":"忠義路二段５４號四樓之２","OBJECTID":604284},"geometry":{"x":168313.08000000101,"y":2543736.7200000025}},{"attributes":{"ID":604312,"DIS_CODE":0,"TOWNNAME":"永康區","LI":"龍潭里","LIN":"22鄰","STREET":"龍安街","SECT":" ","MAREA":" ","LANE":" ","ALLEY":" ","HOUSE_NO":"２５３號六樓之３","E_COORD97":174768.26999999999,"N_COORD97":2548600.5499999998,"ADDRESS":"龍安街２５３號六樓之３","OBJECTID":604285},"geometry":{"x":174768.27000000048,"y":2548600.5500000007}},{"attributes":{"ID":604313,"DIS_CODE":0,"TOWNNAME":"永康區","LI":"龍潭里","LIN":"22鄰","STREET":"龍安街","SECT":" ","MAREA":" ","LANE":" ","ALLEY":" ","HOUSE_NO":"２５３號四樓之２","E_COORD97":174768.31,"N_COORD97":2548600.5499999998,"ADDRESS":"龍安街２５３號四樓之２","OBJECTID":604286},"geometry":{"x":174768.31000000052,"y":2548600.5500000007}},{"attributes":{"ID":604314,"DIS_CODE":0,"TOWNNAME":"永康區","LI":"龍潭里","LIN":"22鄰","STREET":"龍安街","SECT":" ","MAREA":" ","LANE":" ","ALLEY":" ","HOUSE_NO":"２５３號五樓之２","E_COORD97":174768.31,"N_COORD97":2548600.5499999998,"ADDRESS":"龍安街２５３號五樓之２","OBJECTID":604287},"geometry":{"x":174768.31000000052,"y":2548600.5500000007}},{"attributes":{"ID":604315,"DIS_CODE":0,"TOWNNAME":"永康區","LI":"龍潭里","LIN":"22鄰","STREET":"龍安街","SECT":" ","MAREA":" ","LANE":" ","ALLEY":" ","HOUSE_NO":"２５３號七樓之３","E_COORD97":174768.26999999999,"N_COORD97":2548600.5499999998,"ADDRESS":"龍安街２５３號七樓之３","OBJECTID":604288},"geometry":{"x":174768.27000000048,"y":2548600.5500000007}},{"attributes":{"ID":604316,"DIS_CODE":0,"TOWNNAME":"永康區","LI":"龍潭里","LIN":"22鄰","STREET":"龍安街","SECT":" ","MAREA":" ","LANE":" ","ALLEY":" ","HOUSE_NO":"２６７號四樓之１","E_COORD97":174802.13,"N_COORD97":2548629.6899999999,"ADDRESS":"龍安街２６７號四樓之１","OBJECTID":604289},"geometry":{"x":174802.13000000082,"y":2548629.6899999976}},{"attributes":{"ID":604317,"DIS_CODE":0,"TOWNNAME":"永康區","LI":"龍潭里","LIN":"22鄰","STREET":"龍安街","SECT":" ","MAREA":" ","LANE":" ","ALLEY":" ","HOUSE_NO":"２５３號三樓之３","E_COORD97":174768.26999999999,"N_COORD97":2548600.5499999998,"ADDRESS":"龍安街２５３號三樓之３","OBJECTID":604290},"geometry":{"x":174768.27000000048,"y":2548600.5500000007}},{"attributes":{"ID":604318,"DIS_CODE":0,"TOWNNAME":"永康區","LI":"龍潭里","LIN":"22鄰","STREET":"龍安街","SECT":" ","MAREA":" ","LANE":" ","ALLEY":" ","HOUSE_NO":"２６７號八樓之２","E_COORD97":174802.26999999999,"N_COORD97":2548629.6899999999,"ADDRESS":"龍安街２６７號八樓之２","OBJECTID":604291},"geometry":{"x":174802.27000000048,"y":2548629.6899999976}},{"attributes":{"ID":604319,"DIS_CODE":0,"TOWNNAME":"永康區","LI":"龍潭里","LIN":"22鄰","STREET":"龍安街","SECT":" ","MAREA":" ","LANE":" ","ALLEY":" ","HOUSE_NO":"２６７號二樓之１","E_COORD97":174802.13,"N_COORD97":2548629.6899999999,"ADDRESS":"龍安街２６７號二樓之１","OBJECTID":604292},"geometry":{"x":174802.13000000082,"y":2548629.6899999976}},{"attributes":{"ID":604320,"DIS_CODE":0,"TOWNNAME":"永康區","LI":"龍潭里","LIN":"22鄰","STREET":"龍安街","SECT":" ","MAREA":" ","LANE":" ","ALLEY":" ","HOUSE_NO":"２６７號七樓之２","E_COORD97":174802.26999999999,"N_COORD97":2548629.6899999999,"ADDRESS":"龍安街２６７號七樓之２","OBJECTID":604293},"geometry":{"x":174802.27000000048,"y":2548629.6899999976}},{"attributes":{"ID":604321,"DIS_CODE":0,"TOWNNAME":"永康區","LI":"龍潭里","LIN":"22鄰","STREET":"龍安街","SECT":" ","MAREA":" ","LANE":" ","ALLEY":" ","HOUSE_NO":"２５３號三樓之１","E_COORD97":174768.17999999999,"N_COORD97":2548600.5499999998,"ADDRESS":"龍安街２５３號三樓之１","OBJECTID":604294},"geometry":{"x":174768.1799999997,"y":2548600.5500000007}},{"attributes":{"ID":604322,"DIS_CODE":0,"TOWNNAME":"永康區","LI":"龍潭里","LIN":"22鄰","STREET":"龍安街","SECT":" ","MAREA":" ","LANE":" ","ALLEY":" ","HOUSE_NO":"２５３號八樓之２","E_COORD97":174768.31,"N_COORD97":2548600.5499999998,"ADDRESS":"龍安街２５３號八樓之２","OBJECTID":604295},"geometry":{"x":174768.31000000052,"y":2548600.5500000007}},{"attributes":{"ID":604323,"DIS_CODE":0,"TOWNNAME":"安南區","LI":"新順里","LIN":"16鄰","STREET":"頂安街","SECT":" ","MAREA":" ","LANE":" ","ALLEY":" ","HOUSE_NO":"４２號","E_COORD97":169600.06,"N_COORD97":2549347.3399999999,"ADDRESS":"頂安街４２號","OBJECTID":604296},"geometry":{"x":169600.05999999959,"y":2549347.3399999999}},{"attributes":{"ID":604324,"DIS_CODE":0,"TOWNNAME":"永康區","LI":"龍潭里","LIN":"22鄰","STREET":"龍安街","SECT":" ","MAREA":" ","LANE":" ","ALLEY":" ","HOUSE_NO":"２６７號三樓之３","E_COORD97":174802.23000000001,"N_COORD97":2548629.6899999999,"ADDRESS":"龍安街２６７號三樓之３","OBJECTID":604297},"geometry":{"x":174802.23000000138,"y":2548629.6899999976}},{"attributes":{"ID":604325,"DIS_CODE":0,"TOWNNAME":"永康區","LI":"龍潭里","LIN":"22鄰","STREET":"龍安街","SECT":" ","MAREA":" ","LANE":" ","ALLEY":" ","HOUSE_NO":"２６７號七樓之３","E_COORD97":174802.23000000001,"N_COORD97":2548629.6899999999,"ADDRESS":"龍安街２６７號七樓之３","OBJECTID":604298},"geometry":{"x":174802.23000000138,"y":2548629.6899999976}},{"attributes":{"ID":604326,"DIS_CODE":0,"TOWNNAME":"永康區","LI":"龍潭里","LIN":"22鄰","STREET":"龍安街","SECT":" ","MAREA":" ","LANE":" ","ALLEY":" ","HOUSE_NO":"２６７號五樓之１","E_COORD97":174802.13,"N_COORD97":2548629.6899999999,"ADDRESS":"龍安街２６７號五樓之１","OBJECTID":604299},"geometry":{"x":174802.13000000082,"y":2548629.6899999976}},{"attributes":{"ID":604327,"DIS_CODE":0,"TOWNNAME":"永康區","LI":"龍潭里","LIN":"22鄰","STREET":"龍安街","SECT":" ","MAREA":" ","LANE":" ","ALLEY":" ","HOUSE_NO":"２５１號七樓之１","E_COORD97":174751.17000000001,"N_COORD97":2548624.6400000001,"ADDRESS":"龍安街２５１號七樓之１","OBJECTID":604300},"geometry":{"x":174751.17000000086,"y":2548624.6400000043}},{"attributes":{"ID":604328,"DIS_CODE":0,"TOWNNAME":"永康區","LI":"龍潭里","LIN":"22鄰","STREET":"龍安街","SECT":" ","MAREA":" ","LANE":" ","ALLEY":" ","HOUSE_NO":"２５３號二樓之２","E_COORD97":174768.31,"N_COORD97":2548600.5499999998,"ADDRESS":"龍安街２５３號二樓之２","OBJECTID":604301},"geometry":{"x":174768.31000000052,"y":2548600.5500000007}},{"attributes":{"ID":604329,"DIS_CODE":0,"TOWNNAME":"永康區","LI":"龍潭里","LIN":"22鄰","STREET":"龍安街","SECT":" ","MAREA":" ","LANE":" ","ALLEY":" ","HOUSE_NO":"２６７號六樓之２","E_COORD97":174802.26999999999,"N_COORD97":2548629.6899999999,"ADDRESS":"龍安街２６７號六樓之２","OBJECTID":604302},"geometry":{"x":174802.27000000048,"y":2548629.6899999976}},{"attributes":{"ID":604330,"DIS_CODE":0,"TOWNNAME":"永康區","LI":"龍潭里","LIN":"22鄰","STREET":"龍安街","SECT":" ","MAREA":" ","LANE":" ","ALLEY":" ","HOUSE_NO":"２６７號三樓之２","E_COORD97":174802.26999999999,"N_COORD97":2548629.6899999999,"ADDRESS":"龍安街２６７號三樓之２","OBJECTID":604303},"geometry":{"x":174802.27000000048,"y":2548629.6899999976}},{"attributes":{"ID":604331,"DIS_CODE":0,"TOWNNAME":"永康區","LI":"龍潭里","LIN":"22鄰","STREET":"龍安街","SECT":" ","MAREA":" ","LANE":" ","ALLEY":" ","HOUSE_NO":"２５１號一樓之２","E_COORD97":174751.31,"N_COORD97":2548624.6400000001,"ADDRESS":"龍安街２５１號一樓之２","OBJECTID":604304},"geometry":{"x":174751.31000000052,"y":2548624.6400000043}},{"attributes":{"ID":604332,"DIS_CODE":0,"TOWNNAME":"永康區","LI":"龍潭里","LIN":"22鄰","STREET":"龍安街","SECT":" ","MAREA":" ","LANE":" ","ALLEY":" ","HOUSE_NO":"２５１號二樓之４","E_COORD97":174751.20000000001,"N_COORD97":2548624.6400000001,"ADDRESS":"龍安街２５１號二樓之４","OBJECTID":604305},"geometry":{"x":174751.20000000112,"y":2548624.6400000043}},{"attributes":{"ID":604333,"DIS_CODE":0,"TOWNNAME":"永康區","LI":"龍潭里","LIN":"22鄰","STREET":"龍安街","SECT":" ","MAREA":" ","LANE":" ","ALLEY":" ","HOUSE_NO":"２６７號四樓之３","E_COORD97":174802.23000000001,"N_COORD97":2548629.6899999999,"ADDRESS":"龍安街２６７號四樓之３","OBJECTID":604306},"geometry":{"x":174802.23000000138,"y":2548629.6899999976}},{"attributes":{"ID":604334,"DIS_CODE":0,"TOWNNAME":"永康區","LI":"龍潭里","LIN":"22鄰","STREET":"龍安街","SECT":" ","MAREA":" ","LANE":" ","ALLEY":" ","HOUSE_NO":"２６７號三樓之１","E_COORD97":174802.13,"N_COORD97":2548629.6899999999,"ADDRESS":"龍安街２６７號三樓之１","OBJECTID":604307},"geometry":{"x":174802.13000000082,"y":2548629.6899999976}},{"attributes":{"ID":604335,"DIS_CODE":0,"TOWNNAME":"永康區","LI":"龍潭里","LIN":"22鄰","STREET":"龍安街","SECT":" ","MAREA":" ","LANE":" ","ALLEY":" ","HOUSE_NO":"２６７號二樓之２","E_COORD97":174802.26999999999,"N_COORD97":2548629.6899999999,"ADDRESS":"龍安街２６７號二樓之２","OBJECTID":604308},"geometry":{"x":174802.27000000048,"y":2548629.6899999976}},{"attributes":{"ID":604336,"DIS_CODE":0,"TOWNNAME":"永康區","LI":"龍潭里","LIN":"22鄰","STREET":"龍安街","SECT":" ","MAREA":" ","LANE":" ","ALLEY":" ","HOUSE_NO":"２６７號六樓之３","E_COORD97":174802.23000000001,"N_COORD97":2548629.6899999999,"ADDRESS":"龍安街２６７號六樓之３","OBJECTID":604309},"geometry":{"x":174802.23000000138,"y":2548629.6899999976}},{"attributes":{"ID":604337,"DIS_CODE":0,"TOWNNAME":"永康區","LI":"龍潭里","LIN":"22鄰","STREET":"龍安街","SECT":" ","MAREA":" ","LANE":" ","ALLEY":" ","HOUSE_NO":"２６７號五樓之３","E_COORD97":174802.23000000001,"N_COORD97":2548629.6899999999,"ADDRESS":"龍安街２６７號五樓之３","OBJECTID":604310},"geometry":{"x":174802.23000000138,"y":2548629.6899999976}},{"attributes":{"ID":604338,"DIS_CODE":0,"TOWNNAME":"永康區","LI":"龍潭里","LIN":"22鄰","STREET":"龍安街","SECT":" ","MAREA":" ","LANE":" ","ALLEY":" ","HOUSE_NO":"２６７號五樓之２","E_COORD97":174802.26999999999,"N_COORD97":2548629.6899999999,"ADDRESS":"龍安街２６７號五樓之２","OBJECTID":604311},"geometry":{"x":174802.27000000048,"y":2548629.6899999976}},{"attributes":{"ID":604339,"DIS_CODE":0,"TOWNNAME":"永康區","LI":"龍潭里","LIN":"22鄰","STREET":"龍安街","SECT":" ","MAREA":" ","LANE":" ","ALLEY":" ","HOUSE_NO":"２５１號八樓之１","E_COORD97":174751.17000000001,"N_COORD97":2548624.6400000001,"ADDRESS":"龍安街２５１號八樓之１","OBJECTID":604312},"geometry":{"x":174751.17000000086,"y":2548624.6400000043}},{"attributes":{"ID":604340,"DIS_CODE":0,"TOWNNAME":"東區","LI":"虎尾里","LIN":"22鄰","STREET":"東成街","SECT":" ","MAREA":" ","LANE":" ","ALLEY":" ","HOUSE_NO":"１７４號三樓","E_COORD97":171727.35000000001,"N_COORD97":2542294.6600000001,"ADDRESS":"東成街１７４號三樓","OBJECTID":604313},"geometry":{"x":171727.34999999963,"y":2542294.660000002}},{"attributes":{"ID":604341,"DIS_CODE":0,"TOWNNAME":"東區","LI":"虎尾里","LIN":"22鄰","STREET":"東成街","SECT":" ","MAREA":" ","LANE":" ","ALLEY":" ","HOUSE_NO":"１７４號五樓","E_COORD97":171727.35000000001,"N_COORD97":2542294.6600000001,"ADDRESS":"東成街１７４號五樓","OBJECTID":604314},"geometry":{"x":171727.34999999963,"y":2542294.660000002}},{"attributes":{"ID":604342,"DIS_CODE":0,"TOWNNAME":"東區","LI":"虎尾里","LIN":"22鄰","STREET":"東成街","SECT":" ","MAREA":" ","LANE":" ","ALLEY":" ","HOUSE_NO":"１７４號四樓","E_COORD97":171727.35000000001,"N_COORD97":2542294.6600000001,"ADDRESS":"東成街１７４號四樓","OBJECTID":604315},"geometry":{"x":171727.34999999963,"y":2542294.660000002}},{"attributes":{"ID":604343,"DIS_CODE":0,"TOWNNAME":"東區","LI":"虎尾里","LIN":"22鄰","STREET":"東成街","SECT":" ","MAREA":" ","LANE":" ","ALLEY":" ","HOUSE_NO":"１７６號二樓","E_COORD97":171736.20999999999,"N_COORD97":2542294.6600000001,"ADDRESS":"東成街１７６號二樓","OBJECTID":604316},"geometry":{"x":171736.21000000183,"y":2542294.660000002}},{"attributes":{"ID":604344,"DIS_CODE":0,"TOWNNAME":"東區","LI":"虎尾里","LIN":"22鄰","STREET":"東成街","SECT":" ","MAREA":" ","LANE":" ","ALLEY":" ","HOUSE_NO":"１７６號五樓","E_COORD97":171736.20999999999,"N_COORD97":2542294.6600000001,"ADDRESS":"東成街１７６號五樓","OBJECTID":604317},"geometry":{"x":171736.21000000183,"y":2542294.660000002}},{"attributes":{"ID":604345,"DIS_CODE":0,"TOWNNAME":"東區","LI":"虎尾里","LIN":"22鄰","STREET":"東成街","SECT":" ","MAREA":" ","LANE":" ","ALLEY":" ","HOUSE_NO":"１７６號四樓","E_COORD97":171736.20999999999,"N_COORD97":2542294.6600000001,"ADDRESS":"東成街１７６號四樓","OBJECTID":604318},"geometry":{"x":171736.21000000183,"y":2542294.660000002}},{"attributes":{"ID":604346,"DIS_CODE":0,"TOWNNAME":"東區","LI":"虎尾里","LIN":"22鄰","STREET":"東成街","SECT":" ","MAREA":" ","LANE":" ","ALLEY":" ","HOUSE_NO":"１７８號二樓","E_COORD97":171745.07000000001,"N_COORD97":2542294.9399999999,"ADDRESS":"東成街１７８號二樓","OBJECTID":604319},"geometry":{"x":171745.07000000123,"y":2542294.9400000032}},{"attributes":{"ID":604347,"DIS_CODE":0,"TOWNNAME":"東區","LI":"虎尾里","LIN":"22鄰","STREET":"東成街","SECT":" ","MAREA":" ","LANE":" ","ALLEY":" ","HOUSE_NO":"１７８號五樓","E_COORD97":171745.07000000001,"N_COORD97":2542294.9399999999,"ADDRESS":"東成街１７８號五樓","OBJECTID":604320},"geometry":{"x":171745.07000000123,"y":2542294.9400000032}},{"attributes":{"ID":604348,"DIS_CODE":0,"TOWNNAME":"永康區","LI":"復華里","LIN":"22鄰","STREET":"復華七街","SECT":" ","MAREA":" ","LANE":" ","ALLEY":" ","HOUSE_NO":"１１９號","E_COORD97":172847.51999999999,"N_COORD97":2546182.27,"ADDRESS":"復華七街１１９號","OBJECTID":604321},"geometry":{"x":172847.52000000048,"y":2546182.2700000014}},{"attributes":{"ID":604349,"DIS_CODE":0,"TOWNNAME":"東區","LI":"虎尾里","LIN":"22鄰","STREET":"東成街","SECT":" ","MAREA":" ","LANE":" ","ALLEY":" ","HOUSE_NO":"１７８號四樓","E_COORD97":171745.07000000001,"N_COORD97":2542294.9399999999,"ADDRESS":"東成街１７８號四樓","OBJECTID":604322},"geometry":{"x":171745.07000000123,"y":2542294.9400000032}},{"attributes":{"ID":604350,"DIS_CODE":0,"TOWNNAME":"東區","LI":"虎尾里","LIN":"22鄰","STREET":"東成街","SECT":" ","MAREA":" ","LANE":" ","ALLEY":" ","HOUSE_NO":"１８０號三樓","E_COORD97":171752.01000000001,"N_COORD97":2542295.0299999998,"ADDRESS":"東成街１８０號三樓","OBJECTID":604323},"geometry":{"x":171752.00999999978,"y":2542295.0300000012}},{"attributes":{"ID":604351,"DIS_CODE":0,"TOWNNAME":"東區","LI":"虎尾里","LIN":"22鄰","STREET":"東成街","SECT":" ","MAREA":" ","LANE":" ","ALLEY":" ","HOUSE_NO":"１８０號五樓","E_COORD97":171752.01000000001,"N_COORD97":2542295.0299999998,"ADDRESS":"東成街１８０號五樓","OBJECTID":604324},"geometry":{"x":171752.00999999978,"y":2542295.0300000012}},{"attributes":{"ID":604352,"DIS_CODE":0,"TOWNNAME":"東區","LI":"虎尾里","LIN":"22鄰","STREET":"東成街","SECT":" ","MAREA":" ","LANE":" ","ALLEY":" ","HOUSE_NO":"１８０號四樓","E_COORD97":171752.01000000001,"N_COORD97":2542295.0299999998,"ADDRESS":"東成街１８０號四樓","OBJECTID":604325},"geometry":{"x":171752.00999999978,"y":2542295.0300000012}},{"attributes":{"ID":604353,"DIS_CODE":0,"TOWNNAME":"東區","LI":"虎尾里","LIN":"22鄰","STREET":"東成街","SECT":" ","MAREA":" ","LANE":" ","ALLEY":" ","HOUSE_NO":"１７８號三樓","E_COORD97":171745.07000000001,"N_COORD97":2542294.9399999999,"ADDRESS":"東成街１７８號三樓","OBJECTID":604326},"geometry":{"x":171745.07000000123,"y":2542294.9400000032}},{"attributes":{"ID":604354,"DIS_CODE":0,"TOWNNAME":"東區","LI":"虎尾里","LIN":"22鄰","STREET":"東成街","SECT":" ","MAREA":" ","LANE":" ","ALLEY":" ","HOUSE_NO":"１７４號二樓","E_COORD97":171727.35000000001,"N_COORD97":2542294.6600000001,"ADDRESS":"東成街１７４號二樓","OBJECTID":604327},"geometry":{"x":171727.34999999963,"y":2542294.660000002}},{"attributes":{"ID":604355,"DIS_CODE":0,"TOWNNAME":"東區","LI":"虎尾里","LIN":"22鄰","STREET":"東成街","SECT":" ","MAREA":" ","LANE":" ","ALLEY":" ","HOUSE_NO":"１７６號三樓","E_COORD97":171736.20999999999,"N_COORD97":2542294.6600000001,"ADDRESS":"東成街１７６號三樓","OBJECTID":604328},"geometry":{"x":171736.21000000183,"y":2542294.660000002}},{"attributes":{"ID":604356,"DIS_CODE":0,"TOWNNAME":"東區","LI":"虎尾里","LIN":"22鄰","STREET":"東成街","SECT":" ","MAREA":" ","LANE":" ","ALLEY":" ","HOUSE_NO":"１８０號二樓","E_COORD97":171752.01000000001,"N_COORD97":2542295.0299999998,"ADDRESS":"東成街１８０號二樓","OBJECTID":604329},"geometry":{"x":171752.00999999978,"y":2542295.0300000012}},{"attributes":{"ID":604357,"DIS_CODE":0,"TOWNNAME":"永康區","LI":"龍潭里","LIN":"22鄰","STREET":"龍安街","SECT":" ","MAREA":" ","LANE":" ","ALLEY":" ","HOUSE_NO":"２５３號七樓之１","E_COORD97":174768.17999999999,"N_COORD97":2548600.5499999998,"ADDRESS":"龍安街２５３號七樓之１","OBJECTID":604330},"geometry":{"x":174768.1799999997,"y":2548600.5500000007}},{"attributes":{"ID":604358,"DIS_CODE":0,"TOWNNAME":"中西區","LI":"法華里","LIN":"22鄰","STREET":"健康路","SECT":"一段","MAREA":" ","LANE":" ","ALLEY":" ","HOUSE_NO":"１７２號三樓","E_COORD97":168689.03,"N_COORD97":2542451.6600000001,"ADDRESS":"健康路一段１７２號三樓","OBJECTID":604331},"geometry":{"x":168689.03000000026,"y":2542451.660000002}},{"attributes":{"ID":604359,"DIS_CODE":0,"TOWNNAME":"中西區","LI":"法華里","LIN":"22鄰","STREET":"健康路","SECT":"一段","MAREA":" ","LANE":" ","ALLEY":" ","HOUSE_NO":"１７２號五樓","E_COORD97":168689.03,"N_COORD97":2542451.6600000001,"ADDRESS":"健康路一段１７２號五樓","OBJECTID":604332},"geometry":{"x":168689.03000000026,"y":2542451.660000002}},{"attributes":{"ID":604360,"DIS_CODE":0,"TOWNNAME":"中西區","LI":"法華里","LIN":"22鄰","STREET":"健康路","SECT":"一段","MAREA":" ","LANE":" ","ALLEY":" ","HOUSE_NO":"１７２號六樓","E_COORD97":168689.03,"N_COORD97":2542451.6600000001,"ADDRESS":"健康路一段１７２號六樓","OBJECTID":604333},"geometry":{"x":168689.03000000026,"y":2542451.660000002}},{"attributes":{"ID":604361,"DIS_CODE":0,"TOWNNAME":"中西區","LI":"法華里","LIN":"22鄰","STREET":"健康路","SECT":"一段","MAREA":" ","LANE":" ","ALLEY":" ","HOUSE_NO":"１７２號四樓","E_COORD97":168689.03,"N_COORD97":2542451.6600000001,"ADDRESS":"健康路一段１７２號四樓","OBJECTID":604334},"geometry":{"x":168689.03000000026,"y":2542451.660000002}},{"attributes":{"ID":604362,"DIS_CODE":0,"TOWNNAME":"中西區","LI":"法華里","LIN":"22鄰","STREET":"健康路","SECT":"一段","MAREA":" ","LANE":" ","ALLEY":" ","HOUSE_NO":"１７４號三樓","E_COORD97":168682.07999999999,"N_COORD97":2542453.6400000001,"ADDRESS":"健康路一段１７４號三樓","OBJECTID":604335},"geometry":{"x":168682.08000000007,"y":2542453.6400000006}},{"attributes":{"ID":604363,"DIS_CODE":0,"TOWNNAME":"中西區","LI":"法華里","LIN":"22鄰","STREET":"健康路","SECT":"一段","MAREA":" ","LANE":" ","ALLEY":" ","HOUSE_NO":"１７４號五樓","E_COORD97":168682.07999999999,"N_COORD97":2542453.6400000001,"ADDRESS":"健康路一段１７４號五樓","OBJECTID":604336},"geometry":{"x":168682.08000000007,"y":2542453.6400000006}},{"attributes":{"ID":604364,"DIS_CODE":0,"TOWNNAME":"中西區","LI":"法華里","LIN":"22鄰","STREET":"健康路","SECT":"一段","MAREA":" ","LANE":" ","ALLEY":" ","HOUSE_NO":"１７４號六樓","E_COORD97":168682.07999999999,"N_COORD97":2542453.6400000001,"ADDRESS":"健康路一段１７４號六樓","OBJECTID":604337},"geometry":{"x":168682.08000000007,"y":2542453.6400000006}},{"attributes":{"ID":604365,"DIS_CODE":0,"TOWNNAME":"永康區","LI":"大橋里","LIN":"22鄰","STREET":"大橋一街","SECT":" ","MAREA":" ","LANE":" ","ALLEY":" ","HOUSE_NO":"１４５號六樓","E_COORD97":171063.64999999999,"N_COORD97":2546511.0099999998,"ADDRESS":"大橋一街１４５號六樓","OBJECTID":604338},"geometry":{"x":171063.65000000037,"y":2546511.0099999998}},{"attributes":{"ID":604366,"DIS_CODE":0,"TOWNNAME":"安南區","LI":"溪北里","LIN":"22鄰","STREET":"敬安街","SECT":" ","MAREA":" ","LANE":" ","ALLEY":" ","HOUSE_NO":"１５號七樓","E_COORD97":169152.56,"N_COORD97":2547527.25,"ADDRESS":"敬安街１５號七樓","OBJECTID":604339},"geometry":{"x":169152.55999999959,"y":2547527.25}},{"attributes":{"ID":604367,"DIS_CODE":0,"TOWNNAME":"安南區","LI":"鳳凰里","LIN":"22鄰","STREET":"安中路","SECT":"一段","MAREA":" ","LANE":" ","ALLEY":" ","HOUSE_NO":"８２０號八樓","E_COORD97":167469.92999999999,"N_COORD97":2549347.3500000001,"ADDRESS":"安中路一段８２０號八樓","OBJECTID":604340},"geometry":{"x":167469.93000000063,"y":2549347.3499999996}},{"attributes":{"ID":604368,"DIS_CODE":0,"TOWNNAME":"安南區","LI":"鳳凰里","LIN":"22鄰","STREET":"安中路","SECT":"一段","MAREA":" ","LANE":" ","ALLEY":" ","HOUSE_NO":"８２０號四樓","E_COORD97":167469.92999999999,"N_COORD97":2549347.3500000001,"ADDRESS":"安中路一段８２０號四樓","OBJECTID":604341},"geometry":{"x":167469.93000000063,"y":2549347.3499999996}},{"attributes":{"ID":604369,"DIS_CODE":0,"TOWNNAME":"安南區","LI":"鳳凰里","LIN":"22鄰","STREET":"安中路","SECT":"一段","MAREA":" ","LANE":" ","ALLEY":" ","HOUSE_NO":"８２０號六樓","E_COORD97":167469.92999999999,"N_COORD97":2549347.3500000001,"ADDRESS":"安中路一段８２０號六樓","OBJECTID":604342},"geometry":{"x":167469.93000000063,"y":2549347.3499999996}},{"attributes":{"ID":604370,"DIS_CODE":0,"TOWNNAME":"安南區","LI":"鳳凰里","LIN":"22鄰","STREET":"安中路","SECT":"一段","MAREA":" ","LANE":" ","ALLEY":" ","HOUSE_NO":"８２０號十樓","E_COORD97":167469.92999999999,"N_COORD97":2549347.3500000001,"ADDRESS":"安中路一段８２０號十樓","OBJECTID":604343},"geometry":{"x":167469.93000000063,"y":2549347.3499999996}},{"attributes":{"ID":604371,"DIS_CODE":0,"TOWNNAME":"安南區","LI":"鳳凰里","LIN":"22鄰","STREET":"安中路","SECT":"一段","MAREA":" ","LANE":" ","ALLEY":" ","HOUSE_NO":"８２０號十二樓","E_COORD97":167469.92999999999,"N_COORD97":2549347.3500000001,"ADDRESS":"安中路一段８２０號十二樓","OBJECTID":604344},"geometry":{"x":167469.93000000063,"y":2549347.3499999996}},{"attributes":{"ID":604372,"DIS_CODE":0,"TOWNNAME":"安南區","LI":"鳳凰里","LIN":"22鄰","STREET":"安中路","SECT":"一段","MAREA":" ","LANE":" ","ALLEY":" ","HOUSE_NO":"８２０號十四樓","E_COORD97":167469.92999999999,"N_COORD97":2549347.3500000001,"ADDRESS":"安中路一段８２０號十四樓","OBJECTID":604345},"geometry":{"x":167469.93000000063,"y":2549347.3499999996}},{"attributes":{"ID":604373,"DIS_CODE":0,"TOWNNAME":"安南區","LI":"鳳凰里","LIN":"22鄰","STREET":"安中路","SECT":"一段","MAREA":" ","LANE":" ","ALLEY":" ","HOUSE_NO":"８２０號十六樓","E_COORD97":167469.92999999999,"N_COORD97":2549347.3500000001,"ADDRESS":"安中路一段８２０號十六樓","OBJECTID":604346},"geometry":{"x":167469.93000000063,"y":2549347.3499999996}},{"attributes":{"ID":604374,"DIS_CODE":0,"TOWNNAME":"安南區","LI":"鳳凰里","LIN":"22鄰","STREET":"安中路","SECT":"一段","MAREA":" ","LANE":" ","ALLEY":" ","HOUSE_NO":"８２２號四樓","E_COORD97":167466.73999999999,"N_COORD97":2549349.71,"ADDRESS":"安中路一段８２２號四樓","OBJECTID":604347},"geometry":{"x":167466.74000000115,"y":2549349.7100000009}},{"attributes":{"ID":604375,"DIS_CODE":0,"TOWNNAME":"安南區","LI":"鳳凰里","LIN":"22鄰","STREET":"安中路","SECT":"一段","MAREA":" ","LANE":" ","ALLEY":" ","HOUSE_NO":"８２２號五樓","E_COORD97":167466.73999999999,"N_COORD97":2549349.71,"ADDRESS":"安中路一段８２２號五樓","OBJECTID":604348},"geometry":{"x":167466.74000000115,"y":2549349.7100000009}},{"attributes":{"ID":604376,"DIS_CODE":0,"TOWNNAME":"安南區","LI":"鳳凰里","LIN":"22鄰","STREET":"安中路","SECT":"一段","MAREA":" ","LANE":" ","ALLEY":" ","HOUSE_NO":"８２２號七樓","E_COORD97":167466.73999999999,"N_COORD97":2549349.71,"ADDRESS":"安中路一段８２２號七樓","OBJECTID":604349},"geometry":{"x":167466.74000000115,"y":2549349.7100000009}},{"attributes":{"ID":604377,"DIS_CODE":0,"TOWNNAME":"安南區","LI":"鳳凰里","LIN":"22鄰","STREET":"安中路","SECT":"一段","MAREA":" ","LANE":" ","ALLEY":" ","HOUSE_NO":"８２２號九樓","E_COORD97":167466.73999999999,"N_COORD97":2549349.71,"ADDRESS":"安中路一段８２２號九樓","OBJECTID":604350},"geometry":{"x":167466.74000000115,"y":2549349.7100000009}},{"attributes":{"ID":604378,"DIS_CODE":0,"TOWNNAME":"安南區","LI":"鳳凰里","LIN":"22鄰","STREET":"安中路","SECT":"一段","MAREA":" ","LANE":" ","ALLEY":" ","HOUSE_NO":"８２２號十一樓","E_COORD97":167466.73999999999,"N_COORD97":2549349.71,"ADDRESS":"安中路一段８２２號十一樓","OBJECTID":604351},"geometry":{"x":167466.74000000115,"y":2549349.7100000009}},{"attributes":{"ID":604379,"DIS_CODE":0,"TOWNNAME":"安南區","LI":"鳳凰里","LIN":"22鄰","STREET":"安中路","SECT":"一段","MAREA":" ","LANE":" ","ALLEY":" ","HOUSE_NO":"８２２號十三樓","E_COORD97":167466.73999999999,"N_COORD97":2549349.71,"ADDRESS":"安中路一段８２２號十三樓","OBJECTID":604352},"geometry":{"x":167466.74000000115,"y":2549349.7100000009}},{"attributes":{"ID":604380,"DIS_CODE":0,"TOWNNAME":"安南區","LI":"鳳凰里","LIN":"22鄰","STREET":"安中路","SECT":"一段","MAREA":" ","LANE":" ","ALLEY":" ","HOUSE_NO":"８２２號十五樓","E_COORD97":167466.73999999999,"N_COORD97":2549349.71,"ADDRESS":"安中路一段８２２號十五樓","OBJECTID":604353},"geometry":{"x":167466.74000000115,"y":2549349.7100000009}},{"attributes":{"ID":604381,"DIS_CODE":0,"TOWNNAME":"安南區","LI":"鳳凰里","LIN":"22鄰","STREET":"安中路","SECT":"一段","MAREA":" ","LANE":" ","ALLEY":" ","HOUSE_NO":"８２６號四樓","E_COORD97":167460.97,"N_COORD97":2549353.4199999999,"ADDRESS":"安中路一段８２６號四樓","OBJECTID":604354},"geometry":{"x":167460.97000000067,"y":2549353.4199999999}},{"attributes":{"ID":604382,"DIS_CODE":0,"TOWNNAME":"安南區","LI":"鳳凰里","LIN":"22鄰","STREET":"安中路","SECT":"一段","MAREA":" ","LANE":" ","ALLEY":" ","HOUSE_NO":"８２６號六樓","E_COORD97":167460.97,"N_COORD97":2549353.4199999999,"ADDRESS":"安中路一段８２６號六樓","OBJECTID":604355},"geometry":{"x":167460.97000000067,"y":2549353.4199999999}},{"attributes":{"ID":604383,"DIS_CODE":0,"TOWNNAME":"安南區","LI":"鳳凰里","LIN":"22鄰","STREET":"安中路","SECT":"一段","MAREA":" ","LANE":" ","ALLEY":" ","HOUSE_NO":"８２６號八樓","E_COORD97":167460.97,"N_COORD97":2549353.4199999999,"ADDRESS":"安中路一段８２６號八樓","OBJECTID":604356},"geometry":{"x":167460.97000000067,"y":2549353.4199999999}},{"attributes":{"ID":604384,"DIS_CODE":0,"TOWNNAME":"安南區","LI":"鳳凰里","LIN":"22鄰","STREET":"安中路","SECT":"一段","MAREA":" ","LANE":" ","ALLEY":" ","HOUSE_NO":"８２６號十樓","E_COORD97":167460.97,"N_COORD97":2549353.4199999999,"ADDRESS":"安中路一段８２６號十樓","OBJECTID":604357},"geometry":{"x":167460.97000000067,"y":2549353.4199999999}},{"attributes":{"ID":604385,"DIS_CODE":0,"TOWNNAME":"安南區","LI":"鳳凰里","LIN":"22鄰","STREET":"安中路","SECT":"一段","MAREA":" ","LANE":" ","ALLEY":" ","HOUSE_NO":"８２６號十二樓","E_COORD97":167460.97,"N_COORD97":2549353.4199999999,"ADDRESS":"安中路一段８２６號十二樓","OBJECTID":604358},"geometry":{"x":167460.97000000067,"y":2549353.4199999999}},{"attributes":{"ID":604386,"DIS_CODE":0,"TOWNNAME":"安南區","LI":"鳳凰里","LIN":"22鄰","STREET":"安中路","SECT":"一段","MAREA":" ","LANE":" ","ALLEY":" ","HOUSE_NO":"８２６號十四樓","E_COORD97":167460.97,"N_COORD97":2549353.4199999999,"ADDRESS":"安中路一段８２６號十四樓","OBJECTID":604359},"geometry":{"x":167460.97000000067,"y":2549353.4199999999}},{"attributes":{"ID":604387,"DIS_CODE":0,"TOWNNAME":"安南區","LI":"鳳凰里","LIN":"22鄰","STREET":"安中路","SECT":"一段","MAREA":" ","LANE":" ","ALLEY":" ","HOUSE_NO":"８２６號十六樓","E_COORD97":167460.97,"N_COORD97":2549353.4199999999,"ADDRESS":"安中路一段８２６號十六樓","OBJECTID":604360},"geometry":{"x":167460.97000000067,"y":2549353.4199999999}},{"attributes":{"ID":604388,"DIS_CODE":0,"TOWNNAME":"安南區","LI":"鳳凰里","LIN":"22鄰","STREET":"安中路","SECT":"一段","MAREA":" ","LANE":" ","ALLEY":" ","HOUSE_NO":"８２８號四樓","E_COORD97":167457.88,"N_COORD97":2549355.4700000002,"ADDRESS":"安中路一段８２８號四樓","OBJECTID":604361},"geometry":{"x":167457.88000000175,"y":2549355.4700000025}},{"attributes":{"ID":604389,"DIS_CODE":0,"TOWNNAME":"安南區","LI":"鳳凰里","LIN":"22鄰","STREET":"安中路","SECT":"一段","MAREA":" ","LANE":" ","ALLEY":" ","HOUSE_NO":"８２８號五樓","E_COORD97":167457.88,"N_COORD97":2549355.4700000002,"ADDRESS":"安中路一段８２８號五樓","OBJECTID":604362},"geometry":{"x":167457.88000000175,"y":2549355.4700000025}},{"attributes":{"ID":604390,"DIS_CODE":0,"TOWNNAME":"安南區","LI":"鳳凰里","LIN":"22鄰","STREET":"安中路","SECT":"一段","MAREA":" ","LANE":" ","ALLEY":" ","HOUSE_NO":"８２８號七樓","E_COORD97":167457.88,"N_COORD97":2549355.4700000002,"ADDRESS":"安中路一段８２８號七樓","OBJECTID":604363},"geometry":{"x":167457.88000000175,"y":2549355.4700000025}},{"attributes":{"ID":604391,"DIS_CODE":0,"TOWNNAME":"安南區","LI":"鳳凰里","LIN":"22鄰","STREET":"安中路","SECT":"一段","MAREA":" ","LANE":" ","ALLEY":" ","HOUSE_NO":"８２８號九樓","E_COORD97":167457.88,"N_COORD97":2549355.4700000002,"ADDRESS":"安中路一段８２８號九樓","OBJECTID":604364},"geometry":{"x":167457.88000000175,"y":2549355.4700000025}},{"attributes":{"ID":604392,"DIS_CODE":0,"TOWNNAME":"安南區","LI":"鳳凰里","LIN":"22鄰","STREET":"安中路","SECT":"一段","MAREA":" ","LANE":" ","ALLEY":" ","HOUSE_NO":"８２８號十一樓","E_COORD97":167457.88,"N_COORD97":2549355.4700000002,"ADDRESS":"安中路一段８２８號十一樓","OBJECTID":604365},"geometry":{"x":167457.88000000175,"y":2549355.4700000025}},{"attributes":{"ID":604393,"DIS_CODE":0,"TOWNNAME":"安南區","LI":"鳳凰里","LIN":"22鄰","STREET":"安中路","SECT":"一段","MAREA":" ","LANE":" ","ALLEY":" ","HOUSE_NO":"８２８號十三樓","E_COORD97":167457.88,"N_COORD97":2549355.4700000002,"ADDRESS":"安中路一段８２８號十三樓","OBJECTID":604366},"geometry":{"x":167457.88000000175,"y":2549355.4700000025}},{"attributes":{"ID":604394,"DIS_CODE":0,"TOWNNAME":"安南區","LI":"鳳凰里","LIN":"22鄰","STREET":"安中路","SECT":"一段","MAREA":" ","LANE":" ","ALLEY":" ","HOUSE_NO":"８２８號十五樓","E_COORD97":167457.88,"N_COORD97":2549355.4700000002,"ADDRESS":"安中路一段８２８號十五樓","OBJECTID":604367},"geometry":{"x":167457.88000000175,"y":2549355.4700000025}},{"attributes":{"ID":604395,"DIS_CODE":0,"TOWNNAME":"安南區","LI":"鳳凰里","LIN":"22鄰","STREET":"安中路","SECT":"一段","MAREA":" ","LANE":" ","ALLEY":" ","HOUSE_NO":"８２８號十七樓","E_COORD97":167457.88,"N_COORD97":2549355.4700000002,"ADDRESS":"安中路一段８２８號十七樓","OBJECTID":604368},"geometry":{"x":167457.88000000175,"y":2549355.4700000025}},{"attributes":{"ID":604396,"DIS_CODE":0,"TOWNNAME":"安南區","LI":"新順里","LIN":"22鄰","STREET":"安豐六街","SECT":" ","MAREA":" ","LANE":" ","ALLEY":" ","HOUSE_NO":"２１號","E_COORD97":169308.60999999999,"N_COORD97":2549703.8599999999,"ADDRESS":"安豐六街２１號","OBJECTID":604369},"geometry":{"x":169308.61000000127,"y":2549703.8600000013}},{"attributes":{"ID":604397,"DIS_CODE":0,"TOWNNAME":"安南區","LI":"新順里","LIN":"22鄰","STREET":"安豐六街","SECT":" ","MAREA":" ","LANE":" ","ALLEY":" ","HOUSE_NO":"１９號","E_COORD97":169304.16,"N_COORD97":2549703.73,"ADDRESS":"安豐六街１９號","OBJECTID":604370},"geometry":{"x":169304.16000000201,"y":2549703.7300000023}},{"attributes":{"ID":604398,"DIS_CODE":0,"TOWNNAME":"安南區","LI":"新順里","LIN":"22鄰","STREET":"安豐六街","SECT":" ","MAREA":" ","LANE":" ","ALLEY":" ","HOUSE_NO":"１７號","E_COORD97":169300.48000000001,"N_COORD97":2549703.8599999999,"ADDRESS":"安豐六街１７號","OBJECTID":604371},"geometry":{"x":169300.48000000231,"y":2549703.8600000013}},{"attributes":{"ID":604399,"DIS_CODE":0,"TOWNNAME":"安南區","LI":"鳳凰里","LIN":"22鄰","STREET":"安中路","SECT":"一段","MAREA":" ","LANE":" ","ALLEY":" ","HOUSE_NO":"８３０號四樓","E_COORD97":167450.39999999999,"N_COORD97":2549359.6699999999,"ADDRESS":"安中路一段８３０號四樓","OBJECTID":604372},"geometry":{"x":167450.4000000013,"y":2549359.6700000037}},{"attributes":{"ID":604400,"DIS_CODE":0,"TOWNNAME":"安南區","LI":"鳳凰里","LIN":"22鄰","STREET":"安中路","SECT":"一段","MAREA":" ","LANE":" ","ALLEY":" ","HOUSE_NO":"８３０號六樓","E_COORD97":167450.39999999999,"N_COORD97":2549359.6699999999,"ADDRESS":"安中路一段８３０號六樓","OBJECTID":604373},"geometry":{"x":167450.4000000013,"y":2549359.6700000037}},{"attributes":{"ID":604401,"DIS_CODE":0,"TOWNNAME":"安南區","LI":"鳳凰里","LIN":"22鄰","STREET":"安中路","SECT":"一段","MAREA":" ","LANE":" ","ALLEY":" ","HOUSE_NO":"８３０號八樓","E_COORD97":167450.39999999999,"N_COORD97":2549359.6699999999,"ADDRESS":"安中路一段８３０號八樓","OBJECTID":604374},"geometry":{"x":167450.4000000013,"y":2549359.6700000037}},{"attributes":{"ID":604402,"DIS_CODE":0,"TOWNNAME":"安南區","LI":"鳳凰里","LIN":"22鄰","STREET":"安中路","SECT":"一段","MAREA":" ","LANE":" ","ALLEY":" ","HOUSE_NO":"８３０號十樓","E_COORD97":167450.39999999999,"N_COORD97":2549359.6699999999,"ADDRESS":"安中路一段８３０號十樓","OBJECTID":604375},"geometry":{"x":167450.4000000013,"y":2549359.6700000037}},{"attributes":{"ID":604403,"DIS_CODE":0,"TOWNNAME":"安南區","LI":"鳳凰里","LIN":"22鄰","STREET":"安中路","SECT":"一段","MAREA":" ","LANE":" ","ALLEY":" ","HOUSE_NO":"８３０號十二樓","E_COORD97":167450.39999999999,"N_COORD97":2549359.6699999999,"ADDRESS":"安中路一段８３０號十二樓","OBJECTID":604376},"geometry":{"x":167450.4000000013,"y":2549359.6700000037}},{"attributes":{"ID":604404,"DIS_CODE":0,"TOWNNAME":"安南區","LI":"鳳凰里","LIN":"22鄰","STREET":"安中路","SECT":"一段","MAREA":" ","LANE":" ","ALLEY":" ","HOUSE_NO":"８３０號十四樓","E_COORD97":167450.39999999999,"N_COORD97":2549359.6699999999,"ADDRESS":"安中路一段８３０號十四樓","OBJECTID":604377},"geometry":{"x":167450.4000000013,"y":2549359.6700000037}},{"attributes":{"ID":604405,"DIS_CODE":0,"TOWNNAME":"安南區","LI":"鳳凰里","LIN":"22鄰","STREET":"安中路","SECT":"一段","MAREA":" ","LANE":" ","ALLEY":" ","HOUSE_NO":"８３０號十六樓","E_COORD97":167450.39999999999,"N_COORD97":2549359.6699999999,"ADDRESS":"安中路一段８３０號十六樓","OBJECTID":604378},"geometry":{"x":167450.4000000013,"y":2549359.6700000037}},{"attributes":{"ID":604406,"DIS_CODE":0,"TOWNNAME":"安南區","LI":"鳳凰里","LIN":"22鄰","STREET":"安中路","SECT":"一段","MAREA":" ","LANE":" ","ALLEY":" ","HOUSE_NO":"８３２號四樓","E_COORD97":167447.62,"N_COORD97":2549361.8300000001,"ADDRESS":"安中路一段８３２號四樓","OBJECTID":604379},"geometry":{"x":167447.62000000011,"y":2549361.8300000038}},{"attributes":{"ID":604407,"DIS_CODE":0,"TOWNNAME":"安南區","LI":"鳳凰里","LIN":"22鄰","STREET":"安中路","SECT":"一段","MAREA":" ","LANE":" ","ALLEY":" ","HOUSE_NO":"８３２號五樓","E_COORD97":167447.62,"N_COORD97":2549361.8300000001,"ADDRESS":"安中路一段８３２號五樓","OBJECTID":604380},"geometry":{"x":167447.62000000011,"y":2549361.8300000038}},{"attributes":{"ID":604408,"DIS_CODE":0,"TOWNNAME":"安南區","LI":"鳳凰里","LIN":"22鄰","STREET":"安中路","SECT":"一段","MAREA":" ","LANE":" ","ALLEY":" ","HOUSE_NO":"８３２號七樓","E_COORD97":167447.62,"N_COORD97":2549361.8300000001,"ADDRESS":"安中路一段８３２號七樓","OBJECTID":604381},"geometry":{"x":167447.62000000011,"y":2549361.8300000038}},{"attributes":{"ID":604409,"DIS_CODE":0,"TOWNNAME":"安南區","LI":"鳳凰里","LIN":"22鄰","STREET":"安中路","SECT":"一段","MAREA":" ","LANE":" ","ALLEY":" ","HOUSE_NO":"８３２號九樓","E_COORD97":167447.62,"N_COORD97":2549361.8300000001,"ADDRESS":"安中路一段８３２號九樓","OBJECTID":604382},"geometry":{"x":167447.62000000011,"y":2549361.8300000038}},{"attributes":{"ID":604410,"DIS_CODE":0,"TOWNNAME":"安南區","LI":"鳳凰里","LIN":"22鄰","STREET":"安中路","SECT":"一段","MAREA":" ","LANE":" ","ALLEY":" ","HOUSE_NO":"８３２號十一樓","E_COORD97":167447.62,"N_COORD97":2549361.8300000001,"ADDRESS":"安中路一段８３２號十一樓","OBJECTID":604383},"geometry":{"x":167447.62000000011,"y":2549361.8300000038}},{"attributes":{"ID":604411,"DIS_CODE":0,"TOWNNAME":"安南區","LI":"鳳凰里","LIN":"22鄰","STREET":"安中路","SECT":"一段","MAREA":" ","LANE":" ","ALLEY":" ","HOUSE_NO":"８３２號十三樓","E_COORD97":167447.62,"N_COORD97":2549361.8300000001,"ADDRESS":"安中路一段８３２號十三樓","OBJECTID":604384},"geometry":{"x":167447.62000000011,"y":2549361.8300000038}},{"attributes":{"ID":604412,"DIS_CODE":0,"TOWNNAME":"安南區","LI":"鳳凰里","LIN":"22鄰","STREET":"安中路","SECT":"一段","MAREA":" ","LANE":" ","ALLEY":" ","HOUSE_NO":"８３２號十五樓","E_COORD97":167447.62,"N_COORD97":2549361.8300000001,"ADDRESS":"安中路一段８３２號十五樓","OBJECTID":604385},"geometry":{"x":167447.62000000011,"y":2549361.8300000038}},{"attributes":{"ID":604413,"DIS_CODE":0,"TOWNNAME":"安南區","LI":"鳳凰里","LIN":"22鄰","STREET":"安中路","SECT":"一段","MAREA":" ","LANE":" ","ALLEY":" ","HOUSE_NO":"８３２號十七樓","E_COORD97":167447.62,"N_COORD97":2549361.8300000001,"ADDRESS":"安中路一段８３２號十七樓","OBJECTID":604386},"geometry":{"x":167447.62000000011,"y":2549361.8300000038}},{"attributes":{"ID":604414,"DIS_CODE":0,"TOWNNAME":"安南區","LI":"鳳凰里","LIN":"22鄰","STREET":"安中路","SECT":"一段","MAREA":" ","LANE":" ","ALLEY":" ","HOUSE_NO":"８３６號六樓","E_COORD97":167442.78,"N_COORD97":2549365.23,"ADDRESS":"安中路一段８３６號六樓","OBJECTID":604387},"geometry":{"x":167442.78000000119,"y":2549365.2300000004}},{"attributes":{"ID":604415,"DIS_CODE":0,"TOWNNAME":"安南區","LI":"鳳凰里","LIN":"22鄰","STREET":"安中路","SECT":"一段","MAREA":" ","LANE":" ","ALLEY":" ","HOUSE_NO":"８３６號八樓","E_COORD97":167442.78,"N_COORD97":2549365.23,"ADDRESS":"安中路一段８３６號八樓","OBJECTID":604388},"geometry":{"x":167442.78000000119,"y":2549365.2300000004}},{"attributes":{"ID":604416,"DIS_CODE":0,"TOWNNAME":"安南區","LI":"鳳凰里","LIN":"22鄰","STREET":"安中路","SECT":"一段","MAREA":" ","LANE":" ","ALLEY":" ","HOUSE_NO":"８３６號十樓","E_COORD97":167442.78,"N_COORD97":2549365.23,"ADDRESS":"安中路一段８３６號十樓","OBJECTID":604389},"geometry":{"x":167442.78000000119,"y":2549365.2300000004}},{"attributes":{"ID":604417,"DIS_CODE":0,"TOWNNAME":"安南區","LI":"鳳凰里","LIN":"22鄰","STREET":"安中路","SECT":"一段","MAREA":" ","LANE":" ","ALLEY":" ","HOUSE_NO":"８３６號十二樓","E_COORD97":167442.78,"N_COORD97":2549365.23,"ADDRESS":"安中路一段８３６號十二樓","OBJECTID":604390},"geometry":{"x":167442.78000000119,"y":2549365.2300000004}},{"attributes":{"ID":604418,"DIS_CODE":0,"TOWNNAME":"安南區","LI":"鳳凰里","LIN":"22鄰","STREET":"安中路","SECT":"一段","MAREA":" ","LANE":" ","ALLEY":" ","HOUSE_NO":"８３６號十四樓","E_COORD97":167442.78,"N_COORD97":2549365.23,"ADDRESS":"安中路一段８３６號十四樓","OBJECTID":604391},"geometry":{"x":167442.78000000119,"y":2549365.2300000004}},{"attributes":{"ID":604419,"DIS_CODE":0,"TOWNNAME":"安南區","LI":"鳳凰里","LIN":"22鄰","STREET":"安中路","SECT":"一段","MAREA":" ","LANE":" ","ALLEY":" ","HOUSE_NO":"８３６號十六樓","E_COORD97":167442.78,"N_COORD97":2549365.23,"ADDRESS":"安中路一段８３６號十六樓","OBJECTID":604392},"geometry":{"x":167442.78000000119,"y":2549365.2300000004}},{"attributes":{"ID":604420,"DIS_CODE":0,"TOWNNAME":"安南區","LI":"鳳凰里","LIN":"22鄰","STREET":"安中路","SECT":"一段","MAREA":" ","LANE":" ","ALLEY":" ","HOUSE_NO":"８３８號四樓","E_COORD97":167439.07000000001,"N_COORD97":2549367.5899999999,"ADDRESS":"安中路一段８３８號四樓","OBJECTID":604393},"geometry":{"x":167439.07000000123,"y":2549367.5900000017}},{"attributes":{"ID":604421,"DIS_CODE":0,"TOWNNAME":"安南區","LI":"鳳凰里","LIN":"22鄰","STREET":"安中路","SECT":"一段","MAREA":" ","LANE":" ","ALLEY":" ","HOUSE_NO":"８３８號五樓","E_COORD97":167439.07000000001,"N_COORD97":2549367.5899999999,"ADDRESS":"安中路一段８３８號五樓","OBJECTID":604394},"geometry":{"x":167439.07000000123,"y":2549367.5900000017}},{"attributes":{"ID":604422,"DIS_CODE":0,"TOWNNAME":"安南區","LI":"鳳凰里","LIN":"22鄰","STREET":"安中路","SECT":"一段","MAREA":" ","LANE":" ","ALLEY":" ","HOUSE_NO":"８３８號七樓","E_COORD97":167439.07000000001,"N_COORD97":2549367.5899999999,"ADDRESS":"安中路一段８３８號七樓","OBJECTID":604395},"geometry":{"x":167439.07000000123,"y":2549367.5900000017}},{"attributes":{"ID":604423,"DIS_CODE":0,"TOWNNAME":"安南區","LI":"鳳凰里","LIN":"22鄰","STREET":"安中路","SECT":"一段","MAREA":" ","LANE":" ","ALLEY":" ","HOUSE_NO":"８３８號九樓","E_COORD97":167439.07000000001,"N_COORD97":2549367.5899999999,"ADDRESS":"安中路一段８３８號九樓","OBJECTID":604396},"geometry":{"x":167439.07000000123,"y":2549367.5900000017}},{"attributes":{"ID":604424,"DIS_CODE":0,"TOWNNAME":"安南區","LI":"鳳凰里","LIN":"22鄰","STREET":"安中路","SECT":"一段","MAREA":" ","LANE":" ","ALLEY":" ","HOUSE_NO":"８３８號十一樓","E_COORD97":167439.07000000001,"N_COORD97":2549367.5899999999,"ADDRESS":"安中路一段８３８號十一樓","OBJECTID":604397},"geometry":{"x":167439.07000000123,"y":2549367.5900000017}},{"attributes":{"ID":604425,"DIS_CODE":0,"TOWNNAME":"安南區","LI":"鳳凰里","LIN":"22鄰","STREET":"安中路","SECT":"一段","MAREA":" ","LANE":" ","ALLEY":" ","HOUSE_NO":"８３８號十三樓","E_COORD97":167439.07000000001,"N_COORD97":2549367.5899999999,"ADDRESS":"安中路一段８３８號十三樓","OBJECTID":604398},"geometry":{"x":167439.07000000123,"y":2549367.5900000017}},{"attributes":{"ID":604426,"DIS_CODE":0,"TOWNNAME":"安南區","LI":"鳳凰里","LIN":"22鄰","STREET":"安中路","SECT":"一段","MAREA":" ","LANE":" ","ALLEY":" ","HOUSE_NO":"８３８號十五樓","E_COORD97":167439.07000000001,"N_COORD97":2549367.5899999999,"ADDRESS":"安中路一段８３８號十五樓","OBJECTID":604399},"geometry":{"x":167439.07000000123,"y":2549367.5900000017}},{"attributes":{"ID":604427,"DIS_CODE":0,"TOWNNAME":"安南區","LI":"鳳凰里","LIN":"22鄰","STREET":"安中路","SECT":"一段","MAREA":" ","LANE":" ","ALLEY":" ","HOUSE_NO":"８３８號十七樓","E_COORD97":167439.07000000001,"N_COORD97":2549367.5899999999,"ADDRESS":"安中路一段８３８號十七樓","OBJECTID":604400},"geometry":{"x":167439.07000000123,"y":2549367.5900000017}}]}