{"displayFieldName":"TOWNNAME","fieldAliases":{"ID":"ID","DIS_CODE":"DIS_CODE","TOWNNAME":"TOWNNAME","LI":"LI","LIN":"LIN","STREET":"STREET","SECT":"SECT","MAREA":"MAREA","LANE":"LANE","ALLEY":"ALLEY","HOUSE_NO":"HOUSE_NO","E_COORD97":"E_COORD97","N_COORD97":"N_COORD97","ADDRESS":"ADDRESS","OBJECTID":"OBJECTID"},"geometryType":"esriGeometryPoint","spatialReference":{"wkid":102443,"latestWkid":3826},"fields":[{"name":"ID","type":"esriFieldTypeDouble","alias":"ID"},{"name":"DIS_CODE","type":"esriFieldTypeInteger","alias":"DIS_CODE"},{"name":"TOWNNAME","type":"esriFieldTypeString","alias":"TOWNNAME","length":8},{"name":"LI","type":"esriFieldTypeString","alias":"LI","length":8},{"name":"LIN","type":"esriFieldTypeString","alias":"LIN","length":12},{"name":"STREET","type":"esriFieldTypeString","alias":"STREET","length":20},{"name":"SECT","type":"esriFieldTypeString","alias":"SECT","length":8},{"name":"MAREA","type":"esriFieldTypeString","alias":"MAREA","length":12},{"name":"LANE","type":"esriFieldTypeString","alias":"LANE","length":10},{"name":"ALLEY","type":"esriFieldTypeString","alias":"ALLEY","length":10},{"name":"HOUSE_NO","type":"esriFieldTypeString","alias":"HOUSE_NO","length":20},{"name":"E_COORD97","type":"esriFieldTypeDouble","alias":"E_COORD97"},{"name":"N_COORD97","type":"esriFieldTypeDouble","alias":"N_COORD97"},{"name":"ADDRESS","type":"esriFieldTypeString","alias":"ADDRESS","length":50},{"name":"OBJECTID","type":"esriFieldTypeOID","alias":"OBJECTID"}],"features":[{"attributes":{"ID":327210,"DIS_CODE":0,"TOWNNAME":"善化區","LI":"嘉南里","LIN":"13鄰","STREET":" ","SECT":" ","MAREA":"茄拔","LANE":" ","ALLEY":" ","HOUSE_NO":"３２０號之１","E_COORD97":180840.66,"N_COORD97":2559540.77,"ADDRESS":"茄拔３２０號之１","OBJECTID":327201},"geometry":{"x":180840.66000000108,"y":2559540.7700000014}},{"attributes":{"ID":327211,"DIS_CODE":0,"TOWNNAME":"善化區","LI":"田寮里","LIN":"4鄰","STREET":" ","SECT":" ","MAREA":"六分寮","LANE":" ","ALLEY":" ","HOUSE_NO":"５３之１號","E_COORD97":178418.76999999999,"N_COORD97":2561131.27,"ADDRESS":"六分寮５３之１號","OBJECTID":327202},"geometry":{"x":178418.76999999955,"y":2561131.2700000014}},{"attributes":{"ID":327212,"DIS_CODE":0,"TOWNNAME":"善化區","LI":"東昌里","LIN":"4鄰","STREET":" ","SECT":" ","MAREA":"東勢寮","LANE":" ","ALLEY":" ","HOUSE_NO":"４４號之５","E_COORD97":180721.23999999999,"N_COORD97":2561949.77,"ADDRESS":"東勢寮４４號之５","OBJECTID":327203},"geometry":{"x":180721.24000000115,"y":2561949.7699999996}},{"attributes":{"ID":327213,"DIS_CODE":0,"TOWNNAME":"善化區","LI":"嘉北里","LIN":"4鄰","STREET":" ","SECT":" ","MAREA":"茄拔","LANE":" ","ALLEY":" ","HOUSE_NO":"３８號之１０","E_COORD97":181107.84,"N_COORD97":2559670.77,"ADDRESS":"茄拔３８號之１０","OBJECTID":327204},"geometry":{"x":181107.84000000171,"y":2559670.7699999996}},{"attributes":{"ID":327214,"DIS_CODE":0,"TOWNNAME":"善化區","LI":"溪美里","LIN":"14鄰","STREET":" ","SECT":" ","MAREA":"溪尾","LANE":" ","ALLEY":" ","HOUSE_NO":"１２４號","E_COORD97":176864.88,"N_COORD97":2561335.77,"ADDRESS":"溪尾１２４號","OBJECTID":327205},"geometry":{"x":176864.88000000082,"y":2561335.7699999996}},{"attributes":{"ID":327215,"DIS_CODE":0,"TOWNNAME":"善化區","LI":"牛庄里","LIN":"14鄰","STREET":" ","SECT":" ","MAREA":"牛庄","LANE":" ","ALLEY":" ","HOUSE_NO":"１４５號之１２","E_COORD97":179868.01999999999,"N_COORD97":2559698.02,"ADDRESS":"牛庄１４５號之１２","OBJECTID":327206},"geometry":{"x":179868.01999999955,"y":2559698.0200000014}},{"attributes":{"ID":327216,"DIS_CODE":0,"TOWNNAME":"善化區","LI":"文昌里","LIN":"17鄰","STREET":" ","SECT":" ","MAREA":"益民寮","LANE":" ","ALLEY":" ","HOUSE_NO":"１０７號","E_COORD97":178562.79999999999,"N_COORD97":2557406.2599999998,"ADDRESS":"益民寮１０７號","OBJECTID":327207},"geometry":{"x":178562.79999999981,"y":2557406.2599999998}},{"attributes":{"ID":327217,"DIS_CODE":0,"TOWNNAME":"善化區","LI":"嘉北里","LIN":"4鄰","STREET":" ","SECT":" ","MAREA":"茄拔","LANE":" ","ALLEY":" ","HOUSE_NO":"３８號之１４","E_COORD97":181124.23000000001,"N_COORD97":2559670.02,"ADDRESS":"茄拔３８號之１４","OBJECTID":327208},"geometry":{"x":181124.23000000045,"y":2559670.0199999977}},{"attributes":{"ID":327218,"DIS_CODE":0,"TOWNNAME":"善化區","LI":"胡家里","LIN":" ","STREET":" ","SECT":" ","MAREA":"胡厝寮","LANE":" ","ALLEY":" ","HOUSE_NO":"２１１之２號","E_COORD97":175265.17999999999,"N_COORD97":2560380.52,"ADDRESS":"胡厝寮２１１之２號","OBJECTID":327209},"geometry":{"x":175265.1799999997,"y":2560380.5200000014}},{"attributes":{"ID":327219,"DIS_CODE":0,"TOWNNAME":"善化區","LI":"嘉南里","LIN":"13鄰","STREET":" ","SECT":" ","MAREA":"茄拔","LANE":" ","ALLEY":" ","HOUSE_NO":"３１９號之８","E_COORD97":180821.34,"N_COORD97":2559535.77,"ADDRESS":"茄拔３１９號之８","OBJECTID":327210},"geometry":{"x":180821.34000000171,"y":2559535.7699999996}},{"attributes":{"ID":327220,"DIS_CODE":0,"TOWNNAME":"善化區","LI":"胡厝里","LIN":"20鄰","STREET":" ","SECT":" ","MAREA":"西衛","LANE":" ","ALLEY":" ","HOUSE_NO":"３２號之５","E_COORD97":174173.01999999999,"N_COORD97":2559302.52,"ADDRESS":"西衛３２號之５","OBJECTID":327211},"geometry":{"x":174173.02000000142,"y":2559302.5199999996}},{"attributes":{"ID":327221,"DIS_CODE":0,"TOWNNAME":"善化區","LI":"田寮里","LIN":"4鄰","STREET":" ","SECT":" ","MAREA":"六分寮","LANE":" ","ALLEY":" ","HOUSE_NO":"５０號","E_COORD97":178399.67999999999,"N_COORD97":2561238.25,"ADDRESS":"六分寮５０號","OBJECTID":327212},"geometry":{"x":178399.6799999997,"y":2561238.25}},{"attributes":{"ID":327222,"DIS_CODE":0,"TOWNNAME":"白河區","LI":"白河里","LIN":" ","STREET":" ","SECT":" ","MAREA":" ","LANE":"市場四巷","ALLEY":" ","HOUSE_NO":"２５號","E_COORD97":190240.92999999999,"N_COORD97":2583053.1400000001,"ADDRESS":"市場四巷２５號","OBJECTID":327213},"geometry":{"x":190240.93000000063,"y":2583053.1400000006}},{"attributes":{"ID":327223,"DIS_CODE":0,"TOWNNAME":"善化區","LI":"嘉北里","LIN":"13鄰","STREET":" ","SECT":" ","MAREA":"茄拔","LANE":" ","ALLEY":" ","HOUSE_NO":"３５２之１０號","E_COORD97":180627.59,"N_COORD97":2559770.02,"ADDRESS":"茄拔３５２之１０號","OBJECTID":327214},"geometry":{"x":180627.58999999985,"y":2559770.0200000014}},{"attributes":{"ID":327224,"DIS_CODE":0,"TOWNNAME":"善化區","LI":"小新里","LIN":" ","STREET":" ","SECT":" ","MAREA":"小新營","LANE":" ","ALLEY":" ","HOUSE_NO":"９４之３號","E_COORD97":179463.890216,"N_COORD97":2558266.6057600002,"ADDRESS":"小新營９４之３號","OBJECTID":327215},"geometry":{"x":179463.89021600038,"y":2558266.6057629995}},{"attributes":{"ID":327225,"DIS_CODE":0,"TOWNNAME":"善化區","LI":"六分里","LIN":"4鄰","STREET":" ","SECT":" ","MAREA":"東勢宅","LANE":" ","ALLEY":" ","HOUSE_NO":"１６號之１","E_COORD97":177829.79000000001,"N_COORD97":2561126.02,"ADDRESS":"東勢宅１６號之１","OBJECTID":327216},"geometry":{"x":177829.78999999911,"y":2561126.0200000014}},{"attributes":{"ID":327226,"DIS_CODE":0,"TOWNNAME":"安平區","LI":"平通里","LIN":"15鄰","STREET":"健康三街","SECT":" ","MAREA":" ","LANE":"４６０巷","ALLEY":" ","HOUSE_NO":"１０號五樓","E_COORD97":164872.29000000001,"N_COORD97":2543880.1600000001,"ADDRESS":"健康三街４６０巷１０號五樓","OBJECTID":327217},"geometry":{"x":164872.29000000097,"y":2543880.1600000001}},{"attributes":{"ID":327227,"DIS_CODE":0,"TOWNNAME":"善化區","LI":"六分里","LIN":"4鄰","STREET":" ","SECT":" ","MAREA":"東勢宅","LANE":" ","ALLEY":" ","HOUSE_NO":"１５號之５","E_COORD97":177775.37,"N_COORD97":2561165.0099999998,"ADDRESS":"東勢宅１５號之５","OBJECTID":327218},"geometry":{"x":177775.37000000104,"y":2561165.0099999998}},{"attributes":{"ID":327228,"DIS_CODE":0,"TOWNNAME":"安平區","LI":"平通里","LIN":"15鄰","STREET":"健康三街","SECT":" ","MAREA":" ","LANE":"４６０巷","ALLEY":" ","HOUSE_NO":"１０號六樓","E_COORD97":164872.29000000001,"N_COORD97":2543880.1600000001,"ADDRESS":"健康三街４６０巷１０號六樓","OBJECTID":327219},"geometry":{"x":164872.29000000097,"y":2543880.1600000001}},{"attributes":{"ID":327229,"DIS_CODE":0,"TOWNNAME":"善化區","LI":"六分里","LIN":"4鄰","STREET":" ","SECT":" ","MAREA":"東勢宅","LANE":" ","ALLEY":" ","HOUSE_NO":"１７號","E_COORD97":177815.85000000001,"N_COORD97":2561106.0099999998,"ADDRESS":"東勢宅１７號","OBJECTID":327220},"geometry":{"x":177815.85000000056,"y":2561106.0100000016}},{"attributes":{"ID":327230,"DIS_CODE":0,"TOWNNAME":"安平區","LI":"平通里","LIN":"15鄰","STREET":"健康三街","SECT":" ","MAREA":" ","LANE":"４６０巷","ALLEY":" ","HOUSE_NO":"１０號四樓","E_COORD97":164872.29000000001,"N_COORD97":2543880.1600000001,"ADDRESS":"健康三街４６０巷１０號四樓","OBJECTID":327221},"geometry":{"x":164872.29000000097,"y":2543880.1600000001}},{"attributes":{"ID":327231,"DIS_CODE":0,"TOWNNAME":"安平區","LI":"平通里","LIN":"15鄰","STREET":"健康三街","SECT":" ","MAREA":" ","LANE":"４６０巷","ALLEY":" ","HOUSE_NO":"１２號二樓","E_COORD97":164879.23000000001,"N_COORD97":2543889.5800000001,"ADDRESS":"健康三街４６０巷１２號二樓","OBJECTID":327222},"geometry":{"x":164879.23000000045,"y":2543889.5800000019}},{"attributes":{"ID":327232,"DIS_CODE":0,"TOWNNAME":"安平區","LI":"平通里","LIN":"15鄰","STREET":"健康三街","SECT":" ","MAREA":" ","LANE":"４６０巷","ALLEY":" ","HOUSE_NO":"１２號三樓","E_COORD97":164879.23000000001,"N_COORD97":2543889.5800000001,"ADDRESS":"健康三街４６０巷１２號三樓","OBJECTID":327223},"geometry":{"x":164879.23000000045,"y":2543889.5800000019}},{"attributes":{"ID":327233,"DIS_CODE":0,"TOWNNAME":"安平區","LI":"平通里","LIN":"15鄰","STREET":"健康三街","SECT":" ","MAREA":" ","LANE":"４６０巷","ALLEY":" ","HOUSE_NO":"１２號五樓","E_COORD97":164879.23000000001,"N_COORD97":2543889.5800000001,"ADDRESS":"健康三街４６０巷１２號五樓","OBJECTID":327224},"geometry":{"x":164879.23000000045,"y":2543889.5800000019}},{"attributes":{"ID":327234,"DIS_CODE":0,"TOWNNAME":"善化區","LI":"六分里","LIN":"4鄰","STREET":" ","SECT":" ","MAREA":"東勢宅","LANE":" ","ALLEY":" ","HOUSE_NO":"２１號","E_COORD97":177822.57000000001,"N_COORD97":2561030.5099999998,"ADDRESS":"東勢宅２１號","OBJECTID":327225},"geometry":{"x":177822.5700000003,"y":2561030.5100000016}},{"attributes":{"ID":327235,"DIS_CODE":0,"TOWNNAME":"善化區","LI":"六分里","LIN":"4鄰","STREET":" ","SECT":" ","MAREA":"東勢宅","LANE":" ","ALLEY":" ","HOUSE_NO":"１５號","E_COORD97":177847.16,"N_COORD97":2561147.0099999998,"ADDRESS":"東勢宅１５號","OBJECTID":327226},"geometry":{"x":177847.16000000015,"y":2561147.0100000016}},{"attributes":{"ID":327236,"DIS_CODE":0,"TOWNNAME":"安平區","LI":"平通里","LIN":"15鄰","STREET":"健康三街","SECT":" ","MAREA":" ","LANE":"４６０巷","ALLEY":" ","HOUSE_NO":"１２號六樓","E_COORD97":164879.23000000001,"N_COORD97":2543889.5800000001,"ADDRESS":"健康三街４６０巷１２號六樓","OBJECTID":327227},"geometry":{"x":164879.23000000045,"y":2543889.5800000019}},{"attributes":{"ID":327237,"DIS_CODE":0,"TOWNNAME":"安平區","LI":"平通里","LIN":"15鄰","STREET":"健康三街","SECT":" ","MAREA":" ","LANE":"４６０巷","ALLEY":" ","HOUSE_NO":"１２號四樓","E_COORD97":164879.23000000001,"N_COORD97":2543889.5800000001,"ADDRESS":"健康三街４６０巷１２號四樓","OBJECTID":327228},"geometry":{"x":164879.23000000045,"y":2543889.5800000019}},{"attributes":{"ID":327238,"DIS_CODE":0,"TOWNNAME":"善化區","LI":"田寮里","LIN":"14鄰","STREET":" ","SECT":" ","MAREA":"六分寮","LANE":" ","ALLEY":" ","HOUSE_NO":"１４９之４號","E_COORD97":178679.70999999999,"N_COORD97":2561453.02,"ADDRESS":"六分寮１４９之４號","OBJECTID":327229},"geometry":{"x":178679.71000000183,"y":2561453.0199999996}},{"attributes":{"ID":327239,"DIS_CODE":0,"TOWNNAME":"安平區","LI":"平通里","LIN":"15鄰","STREET":"健康三街","SECT":" ","MAREA":" ","LANE":"４６０巷","ALLEY":" ","HOUSE_NO":"６號二樓","E_COORD97":164862.14000000001,"N_COORD97":2543891.3500000001,"ADDRESS":"健康三街４６０巷６號二樓","OBJECTID":327230},"geometry":{"x":164862.13999999966,"y":2543891.3499999996}},{"attributes":{"ID":327240,"DIS_CODE":0,"TOWNNAME":"善化區","LI":"田寮里","LIN":"13鄰","STREET":" ","SECT":" ","MAREA":"六分寮","LANE":" ","ALLEY":" ","HOUSE_NO":"１４１之１９號","E_COORD97":178684.95000000001,"N_COORD97":2561281.02,"ADDRESS":"六分寮１４１之１９號","OBJECTID":327231},"geometry":{"x":178684.94999999925,"y":2561281.0200000014}},{"attributes":{"ID":327241,"DIS_CODE":0,"TOWNNAME":"善化區","LI":"文昌里","LIN":"17鄰","STREET":" ","SECT":" ","MAREA":"益民寮","LANE":" ","ALLEY":" ","HOUSE_NO":"２１號","E_COORD97":177612.79000000001,"N_COORD97":2557103.5099999998,"ADDRESS":"益民寮２１號","OBJECTID":327232},"geometry":{"x":177612.78999999911,"y":2557103.5099999998}},{"attributes":{"ID":327242,"DIS_CODE":0,"TOWNNAME":"善化區","LI":"文昌里","LIN":"17鄰","STREET":" ","SECT":" ","MAREA":"益民寮","LANE":" ","ALLEY":" ","HOUSE_NO":"２２之９號","E_COORD97":177688.62,"N_COORD97":2557196.77,"ADDRESS":"益民寮２２之９號","OBJECTID":327233},"geometry":{"x":177688.61999999918,"y":2557196.7699999977}},{"attributes":{"ID":327243,"DIS_CODE":0,"TOWNNAME":"善化區","LI":"六分里","LIN":"4鄰","STREET":" ","SECT":" ","MAREA":"東勢宅","LANE":" ","ALLEY":" ","HOUSE_NO":"１５號之１","E_COORD97":177832.41,"N_COORD97":2561162.52,"ADDRESS":"東勢宅１５號之１","OBJECTID":327234},"geometry":{"x":177832.41000000015,"y":2561162.5200000014}},{"attributes":{"ID":327244,"DIS_CODE":0,"TOWNNAME":"安平區","LI":"平通里","LIN":"15鄰","STREET":"健康三街","SECT":" ","MAREA":" ","LANE":"４６０巷","ALLEY":" ","HOUSE_NO":"６號三樓","E_COORD97":164862.14000000001,"N_COORD97":2543891.3500000001,"ADDRESS":"健康三街４６０巷６號三樓","OBJECTID":327235},"geometry":{"x":164862.13999999966,"y":2543891.3499999996}},{"attributes":{"ID":327245,"DIS_CODE":0,"TOWNNAME":"善化區","LI":"六分里","LIN":"4鄰","STREET":" ","SECT":" ","MAREA":"東勢宅","LANE":" ","ALLEY":" ","HOUSE_NO":"１６之３號","E_COORD97":177803.82999999999,"N_COORD97":2561115.27,"ADDRESS":"東勢宅１６之３號","OBJECTID":327236},"geometry":{"x":177803.83000000007,"y":2561115.2699999996}},{"attributes":{"ID":327246,"DIS_CODE":0,"TOWNNAME":"安平區","LI":"平通里","LIN":"15鄰","STREET":"健康三街","SECT":" ","MAREA":" ","LANE":"４６０巷","ALLEY":" ","HOUSE_NO":"６號五樓","E_COORD97":164862.14000000001,"N_COORD97":2543891.3500000001,"ADDRESS":"健康三街４６０巷６號五樓","OBJECTID":327237},"geometry":{"x":164862.13999999966,"y":2543891.3499999996}},{"attributes":{"ID":327247,"DIS_CODE":0,"TOWNNAME":"善化區","LI":"六分里","LIN":"4鄰","STREET":" ","SECT":" ","MAREA":"東勢宅","LANE":" ","ALLEY":" ","HOUSE_NO":"２０號","E_COORD97":177822.75,"N_COORD97":2561049.7599999998,"ADDRESS":"東勢宅２０號","OBJECTID":327238},"geometry":{"x":177822.75,"y":2561049.7600000016}},{"attributes":{"ID":327248,"DIS_CODE":0,"TOWNNAME":"安平區","LI":"平通里","LIN":"15鄰","STREET":"健康三街","SECT":" ","MAREA":" ","LANE":"４６０巷","ALLEY":" ","HOUSE_NO":"６號六樓","E_COORD97":164862.14000000001,"N_COORD97":2543891.3500000001,"ADDRESS":"健康三街４６０巷６號六樓","OBJECTID":327239},"geometry":{"x":164862.13999999966,"y":2543891.3499999996}},{"attributes":{"ID":327249,"DIS_CODE":0,"TOWNNAME":"新營區","LI":"民榮里","LIN":"17鄰","STREET":"新榮四街","SECT":" ","MAREA":" ","LANE":" ","ALLEY":" ","HOUSE_NO":"８０號","E_COORD97":178465.47,"N_COORD97":2577652.29,"ADDRESS":"新榮四街８０號","OBJECTID":327240},"geometry":{"x":178465.46999999974,"y":2577652.2899999991}},{"attributes":{"ID":327250,"DIS_CODE":0,"TOWNNAME":"善化區","LI":"六分里","LIN":"4鄰","STREET":" ","SECT":" ","MAREA":"東勢宅","LANE":" ","ALLEY":" ","HOUSE_NO":"１５號之３","E_COORD97":177836.75,"N_COORD97":2561163.27,"ADDRESS":"東勢宅１５號之３","OBJECTID":327241},"geometry":{"x":177836.75,"y":2561163.2699999996}},{"attributes":{"ID":327251,"DIS_CODE":0,"TOWNNAME":"善化區","LI":"小新里","LIN":"20鄰","STREET":" ","SECT":" ","MAREA":"小新營","LANE":" ","ALLEY":" ","HOUSE_NO":"３７８號","E_COORD97":180212.95999999999,"N_COORD97":2557102.5,"ADDRESS":"小新營３７８號","OBJECTID":327242},"geometry":{"x":180212.95999999996,"y":2557102.5000000019}},{"attributes":{"ID":327252,"DIS_CODE":0,"TOWNNAME":"善化區","LI":"小新里","LIN":"20鄰","STREET":" ","SECT":" ","MAREA":" ","LANE":"苗圃巷","ALLEY":" ","HOUSE_NO":"２號","E_COORD97":180604.45999999999,"N_COORD97":2556860,"ADDRESS":"苗圃巷２號","OBJECTID":327243},"geometry":{"x":180604.46000000089,"y":2556859.9999999981}},{"attributes":{"ID":327253,"DIS_CODE":0,"TOWNNAME":"善化區","LI":"六德里","LIN":"13鄰","STREET":" ","SECT":" ","MAREA":"六分寮","LANE":" ","ALLEY":" ","HOUSE_NO":"３０６號之１４","E_COORD97":178572.67999999999,"N_COORD97":2561526.27,"ADDRESS":"六分寮３０６號之１４","OBJECTID":327244},"geometry":{"x":178572.67999999877,"y":2561526.2699999977}},{"attributes":{"ID":327254,"DIS_CODE":0,"TOWNNAME":"安平區","LI":"平通里","LIN":"15鄰","STREET":"健康三街","SECT":" ","MAREA":" ","LANE":"４６０巷","ALLEY":" ","HOUSE_NO":"６號四樓","E_COORD97":164862.14000000001,"N_COORD97":2543891.3500000001,"ADDRESS":"健康三街４６０巷６號四樓","OBJECTID":327245},"geometry":{"x":164862.13999999966,"y":2543891.3499999996}},{"attributes":{"ID":327255,"DIS_CODE":0,"TOWNNAME":"善化區","LI":"田寮里","LIN":"13鄰","STREET":" ","SECT":" ","MAREA":"六分寮","LANE":" ","ALLEY":" ","HOUSE_NO":"１４３號之１２","E_COORD97":178756.04999999999,"N_COORD97":2561227.27,"ADDRESS":"六分寮１４３號之１２","OBJECTID":327246},"geometry":{"x":178756.04999999981,"y":2561227.2699999996}},{"attributes":{"ID":327256,"DIS_CODE":0,"TOWNNAME":"安平區","LI":"平通里","LIN":"15鄰","STREET":"健康三街","SECT":" ","MAREA":" ","LANE":"４６０巷","ALLEY":" ","HOUSE_NO":"８號二樓","E_COORD97":164865.44,"N_COORD97":2543881.5299999998,"ADDRESS":"健康三街４６０巷８號二樓","OBJECTID":327247},"geometry":{"x":164865.44000000041,"y":2543881.5300000012}},{"attributes":{"ID":327257,"DIS_CODE":0,"TOWNNAME":"善化區","LI":"小新里","LIN":"20鄰","STREET":" ","SECT":" ","MAREA":"小新營","LANE":" ","ALLEY":" ","HOUSE_NO":"１６６號之１１","E_COORD97":180115.54999999999,"N_COORD97":2558245.77,"ADDRESS":"小新營１６６號之１１","OBJECTID":327248},"geometry":{"x":180115.54999999981,"y":2558245.7700000014}},{"attributes":{"ID":327258,"DIS_CODE":0,"TOWNNAME":"安平區","LI":"平通里","LIN":"15鄰","STREET":"健康三街","SECT":" ","MAREA":" ","LANE":"４６０巷","ALLEY":" ","HOUSE_NO":"８號三樓","E_COORD97":164865.44,"N_COORD97":2543881.5299999998,"ADDRESS":"健康三街４６０巷８號三樓","OBJECTID":327249},"geometry":{"x":164865.44000000041,"y":2543881.5300000012}},{"attributes":{"ID":327259,"DIS_CODE":0,"TOWNNAME":"善化區","LI":"小新里","LIN":"13鄰","STREET":" ","SECT":" ","MAREA":"小新營","LANE":" ","ALLEY":" ","HOUSE_NO":"１０７號","E_COORD97":179715.29999999999,"N_COORD97":2558100,"ADDRESS":"小新營１０７號","OBJECTID":327250},"geometry":{"x":179715.30000000075,"y":2558100}},{"attributes":{"ID":327260,"DIS_CODE":0,"TOWNNAME":"善化區","LI":"六分里","LIN":" ","STREET":" ","SECT":" ","MAREA":"東勢宅","LANE":" ","ALLEY":" ","HOUSE_NO":"３５之８號","E_COORD97":177765.69,"N_COORD97":2560953.52,"ADDRESS":"東勢宅３５之８號","OBJECTID":327251},"geometry":{"x":177765.69000000041,"y":2560953.5199999996}},{"attributes":{"ID":327261,"DIS_CODE":0,"TOWNNAME":"善化區","LI":"六分里","LIN":" ","STREET":" ","SECT":" ","MAREA":"東勢宅","LANE":" ","ALLEY":" ","HOUSE_NO":"５３之３號","E_COORD97":177705.48999999999,"N_COORD97":2560336.02,"ADDRESS":"東勢宅５３之３號","OBJECTID":327252},"geometry":{"x":177705.49000000115,"y":2560336.0200000014}},{"attributes":{"ID":327262,"DIS_CODE":0,"TOWNNAME":"安平區","LI":"平通里","LIN":"15鄰","STREET":"健康三街","SECT":" ","MAREA":" ","LANE":"４６０巷","ALLEY":" ","HOUSE_NO":"８號五樓","E_COORD97":164865.44,"N_COORD97":2543881.5299999998,"ADDRESS":"健康三街４６０巷８號五樓","OBJECTID":327253},"geometry":{"x":164865.44000000041,"y":2543881.5300000012}},{"attributes":{"ID":327263,"DIS_CODE":0,"TOWNNAME":"安平區","LI":"平通里","LIN":"15鄰","STREET":"健康三街","SECT":" ","MAREA":" ","LANE":"４６０巷","ALLEY":" ","HOUSE_NO":"８號六樓","E_COORD97":164865.44,"N_COORD97":2543881.5299999998,"ADDRESS":"健康三街４６０巷８號六樓","OBJECTID":327254},"geometry":{"x":164865.44000000041,"y":2543881.5300000012}},{"attributes":{"ID":327264,"DIS_CODE":0,"TOWNNAME":"安平區","LI":"平通里","LIN":"15鄰","STREET":"健康三街","SECT":" ","MAREA":" ","LANE":"４６０巷","ALLEY":" ","HOUSE_NO":"８號四樓","E_COORD97":164865.44,"N_COORD97":2543881.5299999998,"ADDRESS":"健康三街４６０巷８號四樓","OBJECTID":327255},"geometry":{"x":164865.44000000041,"y":2543881.5300000012}},{"attributes":{"ID":327265,"DIS_CODE":0,"TOWNNAME":"北區","LI":"長榮里","LIN":"15鄰","STREET":"長榮路","SECT":"五段","MAREA":" ","LANE":"４１巷","ALLEY":" ","HOUSE_NO":"６８號二樓之１","E_COORD97":169876.17999999999,"N_COORD97":2545602.8300000001,"ADDRESS":"長榮路五段４１巷６８號二樓之１","OBJECTID":327256},"geometry":{"x":169876.1799999997,"y":2545602.8300000019}},{"attributes":{"ID":327266,"DIS_CODE":0,"TOWNNAME":"北區","LI":"長榮里","LIN":"15鄰","STREET":"長榮路","SECT":"五段","MAREA":" ","LANE":"４１巷","ALLEY":" ","HOUSE_NO":"６８號二樓之２","E_COORD97":169876.17999999999,"N_COORD97":2545602.8300000001,"ADDRESS":"長榮路五段４１巷６８號二樓之２","OBJECTID":327257},"geometry":{"x":169876.1799999997,"y":2545602.8300000019}},{"attributes":{"ID":327267,"DIS_CODE":0,"TOWNNAME":"北區","LI":"長榮里","LIN":"15鄰","STREET":"長榮路","SECT":"五段","MAREA":" ","LANE":"４１巷","ALLEY":" ","HOUSE_NO":"６８號三樓之１","E_COORD97":169876.17999999999,"N_COORD97":2545602.8300000001,"ADDRESS":"長榮路五段４１巷６８號三樓之１","OBJECTID":327258},"geometry":{"x":169876.1799999997,"y":2545602.8300000019}},{"attributes":{"ID":327268,"DIS_CODE":0,"TOWNNAME":"北區","LI":"長榮里","LIN":"15鄰","STREET":"長榮路","SECT":"五段","MAREA":" ","LANE":"４１巷","ALLEY":" ","HOUSE_NO":"６８號三樓之２","E_COORD97":169876.17999999999,"N_COORD97":2545602.8300000001,"ADDRESS":"長榮路五段４１巷６８號三樓之２","OBJECTID":327259},"geometry":{"x":169876.1799999997,"y":2545602.8300000019}},{"attributes":{"ID":327269,"DIS_CODE":0,"TOWNNAME":"善化區","LI":"六德里","LIN":"13鄰","STREET":" ","SECT":" ","MAREA":"六分寮","LANE":" ","ALLEY":" ","HOUSE_NO":"３０９之２號","E_COORD97":178551.44,"N_COORD97":2561481.02,"ADDRESS":"六分寮３０９之２號","OBJECTID":327260},"geometry":{"x":178551.44000000227,"y":2561481.0200000014}},{"attributes":{"ID":327270,"DIS_CODE":0,"TOWNNAME":"善化區","LI":"小新里","LIN":"20鄰","STREET":" ","SECT":" ","MAREA":"小新營","LANE":" ","ALLEY":" ","HOUSE_NO":"１６６之１３號","E_COORD97":180111.16,"N_COORD97":2558254.77,"ADDRESS":"小新營１６６之１３號","OBJECTID":327261},"geometry":{"x":180111.16000000108,"y":2558254.7700000033}},{"attributes":{"ID":327271,"DIS_CODE":0,"TOWNNAME":"白河區","LI":"白河里","LIN":" ","STREET":" ","SECT":" ","MAREA":" ","LANE":"市場四巷","ALLEY":" ","HOUSE_NO":"２７號","E_COORD97":190243.79000000001,"N_COORD97":2583052.1400000001,"ADDRESS":"市場四巷２７號","OBJECTID":327262},"geometry":{"x":190243.7900000019,"y":2583052.1400000025}},{"attributes":{"ID":327272,"DIS_CODE":0,"TOWNNAME":"北區","LI":"長榮里","LIN":"15鄰","STREET":"長榮路","SECT":"五段","MAREA":" ","LANE":"４１巷","ALLEY":" ","HOUSE_NO":"６８號四樓之１","E_COORD97":169876.17999999999,"N_COORD97":2545602.8300000001,"ADDRESS":"長榮路五段４１巷６８號四樓之１","OBJECTID":327263},"geometry":{"x":169876.1799999997,"y":2545602.8300000019}},{"attributes":{"ID":327273,"DIS_CODE":0,"TOWNNAME":"北區","LI":"長榮里","LIN":"15鄰","STREET":"長榮路","SECT":"五段","MAREA":" ","LANE":"４１巷","ALLEY":" ","HOUSE_NO":"６８號四樓之２","E_COORD97":169876.17999999999,"N_COORD97":2545602.8300000001,"ADDRESS":"長榮路五段４１巷６８號四樓之２","OBJECTID":327264},"geometry":{"x":169876.1799999997,"y":2545602.8300000019}},{"attributes":{"ID":327274,"DIS_CODE":0,"TOWNNAME":"善化區","LI":"小新里","LIN":"13鄰","STREET":" ","SECT":" ","MAREA":"小新營","LANE":" ","ALLEY":" ","HOUSE_NO":"１０７號之５","E_COORD97":179680.48999999999,"N_COORD97":2557989.77,"ADDRESS":"小新營１０７號之５","OBJECTID":327265},"geometry":{"x":179680.49000000115,"y":2557989.7699999996}},{"attributes":{"ID":327275,"DIS_CODE":0,"TOWNNAME":"善化區","LI":"小新里","LIN":"13鄰","STREET":" ","SECT":" ","MAREA":"小新營","LANE":" ","ALLEY":" ","HOUSE_NO":"１０９之１號","E_COORD97":179752.59112,"N_COORD97":2558102.5641899998,"ADDRESS":"小新營１０９之１號","OBJECTID":327266},"geometry":{"x":179752.59112000093,"y":2558102.5641850047}},{"attributes":{"ID":327276,"DIS_CODE":0,"TOWNNAME":"北區","LI":"長榮里","LIN":"15鄰","STREET":"長榮路","SECT":"五段","MAREA":" ","LANE":"４１巷","ALLEY":" ","HOUSE_NO":"６８號四樓之３","E_COORD97":169876.17999999999,"N_COORD97":2545602.8300000001,"ADDRESS":"長榮路五段４１巷６８號四樓之３","OBJECTID":327267},"geometry":{"x":169876.1799999997,"y":2545602.8300000019}},{"attributes":{"ID":327277,"DIS_CODE":0,"TOWNNAME":"善化區","LI":"小新里","LIN":"13鄰","STREET":" ","SECT":" ","MAREA":"小新營","LANE":" ","ALLEY":" ","HOUSE_NO":"１０７號之１","E_COORD97":179701.76000000001,"N_COORD97":2558068.2599999998,"ADDRESS":"小新營１０７號之１","OBJECTID":327268},"geometry":{"x":179701.76000000071,"y":2558068.2599999998}},{"attributes":{"ID":327278,"DIS_CODE":0,"TOWNNAME":"北區","LI":"長榮里","LIN":"15鄰","STREET":"長榮路","SECT":"五段","MAREA":" ","LANE":"４１巷","ALLEY":" ","HOUSE_NO":"６８號四樓之５","E_COORD97":169876.17999999999,"N_COORD97":2545602.8300000001,"ADDRESS":"長榮路五段４１巷６８號四樓之５","OBJECTID":327269},"geometry":{"x":169876.1799999997,"y":2545602.8300000019}},{"attributes":{"ID":327279,"DIS_CODE":0,"TOWNNAME":"善化區","LI":"六德里","LIN":"13鄰","STREET":" ","SECT":" ","MAREA":"六分寮","LANE":" ","ALLEY":" ","HOUSE_NO":"３０６號之６","E_COORD97":178581.19,"N_COORD97":2561537.52,"ADDRESS":"六分寮３０６號之６","OBJECTID":327270},"geometry":{"x":178581.19000000041,"y":2561537.5199999996}},{"attributes":{"ID":327280,"DIS_CODE":0,"TOWNNAME":"善化區","LI":"小新里","LIN":"20鄰","STREET":" ","SECT":" ","MAREA":"小新營","LANE":" ","ALLEY":" ","HOUSE_NO":"１６６號之１６","E_COORD97":180109.95999999999,"N_COORD97":2558269.52,"ADDRESS":"小新營１６６號之１６","OBJECTID":327271},"geometry":{"x":180109.95999999996,"y":2558269.5199999996}},{"attributes":{"ID":327281,"DIS_CODE":0,"TOWNNAME":"善化區","LI":"什乃里","LIN":"5鄰","STREET":" ","SECT":" ","MAREA":"什乃","LANE":" ","ALLEY":" ","HOUSE_NO":"４０號","E_COORD97":176133.14999999999,"N_COORD97":2560468.5,"ADDRESS":"什乃４０號","OBJECTID":327272},"geometry":{"x":176133.1500000013,"y":2560468.5000000019}},{"attributes":{"ID":327282,"DIS_CODE":0,"TOWNNAME":"北區","LI":"長榮里","LIN":"15鄰","STREET":"長榮路","SECT":"五段","MAREA":" ","LANE":"４１巷","ALLEY":" ","HOUSE_NO":"６８號五樓之１","E_COORD97":169876.17999999999,"N_COORD97":2545602.8300000001,"ADDRESS":"長榮路五段４１巷６８號五樓之１","OBJECTID":327273},"geometry":{"x":169876.1799999997,"y":2545602.8300000019}},{"attributes":{"ID":327283,"DIS_CODE":0,"TOWNNAME":"北區","LI":"長榮里","LIN":"15鄰","STREET":"長榮路","SECT":"五段","MAREA":" ","LANE":"４１巷","ALLEY":" ","HOUSE_NO":"６８號五樓之２","E_COORD97":169876.17999999999,"N_COORD97":2545602.8300000001,"ADDRESS":"長榮路五段４１巷６８號五樓之２","OBJECTID":327274},"geometry":{"x":169876.1799999997,"y":2545602.8300000019}},{"attributes":{"ID":327284,"DIS_CODE":0,"TOWNNAME":"北區","LI":"長榮里","LIN":"15鄰","STREET":"長榮路","SECT":"五段","MAREA":" ","LANE":"４１巷","ALLEY":" ","HOUSE_NO":"６８號五樓之３","E_COORD97":169876.17999999999,"N_COORD97":2545602.8300000001,"ADDRESS":"長榮路五段４１巷６８號五樓之３","OBJECTID":327275},"geometry":{"x":169876.1799999997,"y":2545602.8300000019}},{"attributes":{"ID":327285,"DIS_CODE":0,"TOWNNAME":"白河區","LI":"白河里","LIN":" ","STREET":" ","SECT":" ","MAREA":" ","LANE":"市場四巷","ALLEY":" ","HOUSE_NO":"２６號","E_COORD97":190240.73000000001,"N_COORD97":2583048.4399999999,"ADDRESS":"市場四巷２６號","OBJECTID":327276},"geometry":{"x":190240.73000000045,"y":2583048.4400000013}},{"attributes":{"ID":327286,"DIS_CODE":0,"TOWNNAME":"北區","LI":"長榮里","LIN":"15鄰","STREET":"長榮路","SECT":"五段","MAREA":" ","LANE":"４１巷","ALLEY":" ","HOUSE_NO":"６８號五樓之５","E_COORD97":169876.17999999999,"N_COORD97":2545602.8300000001,"ADDRESS":"長榮路五段４１巷６８號五樓之５","OBJECTID":327277},"geometry":{"x":169876.1799999997,"y":2545602.8300000019}},{"attributes":{"ID":327287,"DIS_CODE":0,"TOWNNAME":"北區","LI":"長榮里","LIN":"15鄰","STREET":"長榮路","SECT":"五段","MAREA":" ","LANE":"４１巷","ALLEY":" ","HOUSE_NO":"６８號六樓之１","E_COORD97":169876.17999999999,"N_COORD97":2545602.8300000001,"ADDRESS":"長榮路五段４１巷６８號六樓之１","OBJECTID":327278},"geometry":{"x":169876.1799999997,"y":2545602.8300000019}},{"attributes":{"ID":327288,"DIS_CODE":0,"TOWNNAME":"新營區","LI":"民榮里","LIN":"17鄰","STREET":"新榮四街","SECT":" ","MAREA":" ","LANE":" ","ALLEY":" ","HOUSE_NO":"８１號","E_COORD97":178471.20999999999,"N_COORD97":2577683.9900000002,"ADDRESS":"新榮四街８１號","OBJECTID":327279},"geometry":{"x":178471.21000000183,"y":2577683.9899999984}},{"attributes":{"ID":327289,"DIS_CODE":0,"TOWNNAME":"善化區","LI":"小新里","LIN":"4鄰","STREET":" ","SECT":" ","MAREA":"小新營","LANE":" ","ALLEY":" ","HOUSE_NO":"３５號","E_COORD97":179753.69,"N_COORD97":2558349.5,"ADDRESS":"小新營３５號","OBJECTID":327280},"geometry":{"x":179753.69000000134,"y":2558349.5000000019}},{"attributes":{"ID":327290,"DIS_CODE":0,"TOWNNAME":"善化區","LI":"田寮里","LIN":"13鄰","STREET":" ","SECT":" ","MAREA":"六分寮","LANE":" ","ALLEY":" ","HOUSE_NO":"１４１號之８","E_COORD97":178691.95999999999,"N_COORD97":2561232.77,"ADDRESS":"六分寮１４１號之８","OBJECTID":327281},"geometry":{"x":178691.96000000089,"y":2561232.7700000014}},{"attributes":{"ID":327291,"DIS_CODE":0,"TOWNNAME":"善化區","LI":"小新里","LIN":"13鄰","STREET":" ","SECT":" ","MAREA":"小新營","LANE":" ","ALLEY":" ","HOUSE_NO":"１０６之１３號","E_COORD97":179651.98000000001,"N_COORD97":2558107.02,"ADDRESS":"小新營１０６之１３號","OBJECTID":327282},"geometry":{"x":179651.98000000138,"y":2558107.0199999977}},{"attributes":{"ID":327292,"DIS_CODE":0,"TOWNNAME":"善化區","LI":"小新里","LIN":"20鄰","STREET":" ","SECT":" ","MAREA":"小新營","LANE":" ","ALLEY":" ","HOUSE_NO":"３３８號","E_COORD97":180247.95000000001,"N_COORD97":2558090.5,"ADDRESS":"小新營３３８號","OBJECTID":327283},"geometry":{"x":180247.95000000205,"y":2558090.5}},{"attributes":{"ID":327293,"DIS_CODE":0,"TOWNNAME":"善化區","LI":"文昌里","LIN":"20鄰","STREET":"中正路","SECT":" ","MAREA":" ","LANE":"２１２巷","ALLEY":" ","HOUSE_NO":"２５號","E_COORD97":177752.79999999999,"N_COORD97":2558286.25,"ADDRESS":"中正路２１２巷２５號","OBJECTID":327284},"geometry":{"x":177752.79999999981,"y":2558286.2500000019}},{"attributes":{"ID":327294,"DIS_CODE":0,"TOWNNAME":"善化區","LI":"牛庄里","LIN":"13鄰","STREET":" ","SECT":" ","MAREA":"牛庄","LANE":" ","ALLEY":" ","HOUSE_NO":"１號之１","E_COORD97":180105.39999999999,"N_COORD97":2559718.52,"ADDRESS":"牛庄１號之１","OBJECTID":327285},"geometry":{"x":180105.40000000037,"y":2559718.5200000014}},{"attributes":{"ID":327295,"DIS_CODE":0,"TOWNNAME":"善化區","LI":"文正里","LIN":"14鄰","STREET":"陽明路","SECT":" ","MAREA":" ","LANE":"５７巷","ALLEY":" ","HOUSE_NO":"７８號","E_COORD97":176167.34,"N_COORD97":2559283.2599999998,"ADDRESS":"陽明路５７巷７８號","OBJECTID":327286},"geometry":{"x":176167.33999999985,"y":2559283.2600000016}},{"attributes":{"ID":327296,"DIS_CODE":0,"TOWNNAME":"安南區","LI":"新順里","LIN":"4鄰","STREET":"慶安路","SECT":" ","MAREA":" ","LANE":" ","ALLEY":" ","HOUSE_NO":"２５５號","E_COORD97":169413.5,"N_COORD97":2549485.5499999998,"ADDRESS":"慶安路２５５號","OBJECTID":327287},"geometry":{"x":169413.50000000186,"y":2549485.5500000007}},{"attributes":{"ID":327297,"DIS_CODE":0,"TOWNNAME":"北區","LI":"長榮里","LIN":"15鄰","STREET":"長榮路","SECT":"五段","MAREA":" ","LANE":"４１巷","ALLEY":" ","HOUSE_NO":"６８號六樓之２","E_COORD97":169876.17999999999,"N_COORD97":2545602.8300000001,"ADDRESS":"長榮路五段４１巷６８號六樓之２","OBJECTID":327288},"geometry":{"x":169876.1799999997,"y":2545602.8300000019}},{"attributes":{"ID":327298,"DIS_CODE":0,"TOWNNAME":"善化區","LI":"什乃里","LIN":"4鄰","STREET":" ","SECT":" ","MAREA":"什乃","LANE":" ","ALLEY":" ","HOUSE_NO":"３９號","E_COORD97":176108.92999999999,"N_COORD97":2560470.5,"ADDRESS":"什乃３９號","OBJECTID":327289},"geometry":{"x":176108.9299999997,"y":2560470.5}},{"attributes":{"ID":327299,"DIS_CODE":0,"TOWNNAME":"北區","LI":"長榮里","LIN":"15鄰","STREET":"長榮路","SECT":"五段","MAREA":" ","LANE":"４１巷","ALLEY":" ","HOUSE_NO":"６８號六樓之３","E_COORD97":169876.17999999999,"N_COORD97":2545602.8300000001,"ADDRESS":"長榮路五段４１巷６８號六樓之３","OBJECTID":327290},"geometry":{"x":169876.1799999997,"y":2545602.8300000019}},{"attributes":{"ID":327300,"DIS_CODE":0,"TOWNNAME":"北區","LI":"長榮里","LIN":"15鄰","STREET":"長榮路","SECT":"五段","MAREA":" ","LANE":"４１巷","ALLEY":" ","HOUSE_NO":"６８號六樓之５","E_COORD97":169876.17999999999,"N_COORD97":2545602.8300000001,"ADDRESS":"長榮路五段４１巷６８號六樓之５","OBJECTID":327291},"geometry":{"x":169876.1799999997,"y":2545602.8300000019}},{"attributes":{"ID":327301,"DIS_CODE":0,"TOWNNAME":"善化區","LI":"胡家里","LIN":"4鄰","STREET":" ","SECT":" ","MAREA":"胡厝寮","LANE":" ","ALLEY":" ","HOUSE_NO":"３０之４號","E_COORD97":175459.92000000001,"N_COORD97":2560439.2599999998,"ADDRESS":"胡厝寮３０之４號","OBJECTID":327292},"geometry":{"x":175459.91999999993,"y":2560439.2600000016}},{"attributes":{"ID":327302,"DIS_CODE":0,"TOWNNAME":"北區","LI":"長榮里","LIN":"15鄰","STREET":"長榮路","SECT":"五段","MAREA":" ","LANE":"４１巷","ALLEY":" ","HOUSE_NO":"６８號七樓之１","E_COORD97":169876.17999999999,"N_COORD97":2545602.8300000001,"ADDRESS":"長榮路五段４１巷６８號七樓之１","OBJECTID":327293},"geometry":{"x":169876.1799999997,"y":2545602.8300000019}},{"attributes":{"ID":327303,"DIS_CODE":0,"TOWNNAME":"北區","LI":"長榮里","LIN":"15鄰","STREET":"長榮路","SECT":"五段","MAREA":" ","LANE":"４１巷","ALLEY":" ","HOUSE_NO":"６８號七樓之２","E_COORD97":169876.17999999999,"N_COORD97":2545602.8300000001,"ADDRESS":"長榮路五段４１巷６８號七樓之２","OBJECTID":327294},"geometry":{"x":169876.1799999997,"y":2545602.8300000019}},{"attributes":{"ID":327304,"DIS_CODE":0,"TOWNNAME":"北區","LI":"長榮里","LIN":"15鄰","STREET":"長榮路","SECT":"五段","MAREA":" ","LANE":"４１巷","ALLEY":" ","HOUSE_NO":"６８號七樓之３","E_COORD97":169876.17999999999,"N_COORD97":2545602.8300000001,"ADDRESS":"長榮路五段４１巷６８號七樓之３","OBJECTID":327295},"geometry":{"x":169876.1799999997,"y":2545602.8300000019}},{"attributes":{"ID":327305,"DIS_CODE":0,"TOWNNAME":"善化區","LI":"牛庄里","LIN":"13鄰","STREET":" ","SECT":" ","MAREA":"牛庄","LANE":" ","ALLEY":" ","HOUSE_NO":"１號之９","E_COORD97":180074.37,"N_COORD97":2559739.77,"ADDRESS":"牛庄１號之９","OBJECTID":327296},"geometry":{"x":180074.37000000104,"y":2559739.7700000033}},{"attributes":{"ID":327306,"DIS_CODE":0,"TOWNNAME":"北區","LI":"長榮里","LIN":"15鄰","STREET":"長榮路","SECT":"五段","MAREA":" ","LANE":"４１巷","ALLEY":" ","HOUSE_NO":"６８號七樓之５","E_COORD97":169876.17999999999,"N_COORD97":2545602.8300000001,"ADDRESS":"長榮路五段４１巷６８號七樓之５","OBJECTID":327297},"geometry":{"x":169876.1799999997,"y":2545602.8300000019}},{"attributes":{"ID":327307,"DIS_CODE":0,"TOWNNAME":"北區","LI":"長榮里","LIN":"15鄰","STREET":"長榮路","SECT":"五段","MAREA":" ","LANE":"４１巷","ALLEY":" ","HOUSE_NO":"６８號八樓之１","E_COORD97":169876.17999999999,"N_COORD97":2545602.8300000001,"ADDRESS":"長榮路五段４１巷６８號八樓之１","OBJECTID":327298},"geometry":{"x":169876.1799999997,"y":2545602.8300000019}},{"attributes":{"ID":327308,"DIS_CODE":0,"TOWNNAME":"新營區","LI":"民榮里","LIN":"17鄰","STREET":"新榮四街","SECT":" ","MAREA":" ","LANE":" ","ALLEY":" ","HOUSE_NO":"８２號","E_COORD97":178471.06,"N_COORD97":2577647.73,"ADDRESS":"新榮四街８２號","OBJECTID":327299},"geometry":{"x":178471.05999999959,"y":2577647.7300000004}},{"attributes":{"ID":327309,"DIS_CODE":0,"TOWNNAME":"新營區","LI":"民榮里","LIN":"17鄰","STREET":"新榮四街","SECT":" ","MAREA":" ","LANE":" ","ALLEY":" ","HOUSE_NO":"８３號","E_COORD97":178479.45000000001,"N_COORD97":2577677.79,"ADDRESS":"新榮四街８３號","OBJECTID":327300},"geometry":{"x":178479.45000000019,"y":2577677.7900000028}},{"attributes":{"ID":327310,"DIS_CODE":0,"TOWNNAME":"善化區","LI":"小新里","LIN":"4鄰","STREET":" ","SECT":" ","MAREA":"小新營","LANE":" ","ALLEY":" ","HOUSE_NO":"３０號","E_COORD97":179800.01000000001,"N_COORD97":2558329.25,"ADDRESS":"小新營３０號","OBJECTID":327301},"geometry":{"x":179800.01000000071,"y":2558329.25}},{"attributes":{"ID":327311,"DIS_CODE":0,"TOWNNAME":"白河區","LI":"白河里","LIN":" ","STREET":" ","SECT":" ","MAREA":" ","LANE":"市場四巷","ALLEY":" ","HOUSE_NO":"２８號","E_COORD97":190243.98999999999,"N_COORD97":2583047.4199999999,"ADDRESS":"市場四巷２８號","OBJECTID":327302},"geometry":{"x":190243.99000000022,"y":2583047.4199999999}},{"attributes":{"ID":327312,"DIS_CODE":0,"TOWNNAME":"善化區","LI":"光文里","LIN":"4鄰","STREET":" ","SECT":" ","MAREA":"北子店","LANE":"１６０巷","ALLEY":" ","HOUSE_NO":"２號","E_COORD97":179418.45999999999,"N_COORD97":2559621,"ADDRESS":"北子店１６０巷２號","OBJECTID":327303},"geometry":{"x":179418.45999999996,"y":2559621.0000000019}},{"attributes":{"ID":327313,"DIS_CODE":0,"TOWNNAME":"安南區","LI":"四草里","LIN":"4鄰","STREET":"大眾路","SECT":" ","MAREA":" ","LANE":" ","ALLEY":" ","HOUSE_NO":"５９９號","E_COORD97":160743.95000000001,"N_COORD97":2546486.8100000001,"ADDRESS":"大眾路５９９號","OBJECTID":327304},"geometry":{"x":160743.95000000112,"y":2546486.8100000005}},{"attributes":{"ID":327314,"DIS_CODE":0,"TOWNNAME":"安南區","LI":"佃東里","LIN":"13鄰","STREET":"公學路","SECT":"四段","MAREA":" ","LANE":"１２２巷","ALLEY":" ","HOUSE_NO":"４號之１","E_COORD97":165619.85999999999,"N_COORD97":2552105.8700000001,"ADDRESS":"公學路四段１２２巷４號之１","OBJECTID":327305},"geometry":{"x":165619.86000000127,"y":2552105.8700000029}},{"attributes":{"ID":327315,"DIS_CODE":0,"TOWNNAME":"安南區","LI":"海東里","LIN":"7鄰","STREET":"海佃路","SECT":"二段","MAREA":" ","LANE":"４８３巷","ALLEY":" ","HOUSE_NO":"９８號","E_COORD97":166417.95999999999,"N_COORD97":2549036.98,"ADDRESS":"海佃路二段４８３巷９８號","OBJECTID":327306},"geometry":{"x":166417.95999999996,"y":2549036.9800000023}},{"attributes":{"ID":327316,"DIS_CODE":0,"TOWNNAME":"安南區","LI":"梅花里","LIN":"21鄰","STREET":"同安路","SECT":" ","MAREA":" ","LANE":"３２２巷","ALLEY":" ","HOUSE_NO":"１０號","E_COORD97":167259.09,"N_COORD97":2549205.3799999999,"ADDRESS":"同安路３２２巷１０號","OBJECTID":327307},"geometry":{"x":167259.08999999985,"y":2549205.3800000008}},{"attributes":{"ID":327317,"DIS_CODE":0,"TOWNNAME":"安南區","LI":"梅花里","LIN":"21鄰","STREET":"同安路","SECT":" ","MAREA":" ","LANE":"３２２巷","ALLEY":" ","HOUSE_NO":"１２號","E_COORD97":167262.70000000001,"N_COORD97":2549202.6099999999,"ADDRESS":"同安路３２２巷１２號","OBJECTID":327308},"geometry":{"x":167262.70000000019,"y":2549202.6099999994}},{"attributes":{"ID":327318,"DIS_CODE":0,"TOWNNAME":"安南區","LI":"梅花里","LIN":"21鄰","STREET":"同安路","SECT":" ","MAREA":" ","LANE":"３２２巷","ALLEY":" ","HOUSE_NO":"２號","E_COORD97":167246.32000000001,"N_COORD97":2549211.3300000001,"ADDRESS":"同安路３２２巷２號","OBJECTID":327309},"geometry":{"x":167246.3200000003,"y":2549211.3300000001}},{"attributes":{"ID":327319,"DIS_CODE":0,"TOWNNAME":"安南區","LI":"梅花里","LIN":"21鄰","STREET":"同安路","SECT":" ","MAREA":" ","LANE":"３２２巷","ALLEY":" ","HOUSE_NO":"６號","E_COORD97":167250.79000000001,"N_COORD97":2549208.9900000002,"ADDRESS":"同安路３２２巷６號","OBJECTID":327310},"geometry":{"x":167250.79000000097,"y":2549208.9900000021}},{"attributes":{"ID":327320,"DIS_CODE":0,"TOWNNAME":"安南區","LI":"梅花里","LIN":"21鄰","STREET":"同安路","SECT":" ","MAREA":" ","LANE":"３２２巷","ALLEY":" ","HOUSE_NO":"８號","E_COORD97":167254.19,"N_COORD97":2549206.6499999999,"ADDRESS":"同安路３２２巷８號","OBJECTID":327311},"geometry":{"x":167254.19000000041,"y":2549206.6500000004}},{"attributes":{"ID":327321,"DIS_CODE":0,"TOWNNAME":"安南區","LI":"理想里","LIN":"13鄰","STREET":"海佃路","SECT":"二段","MAREA":" ","LANE":" ","ALLEY":" ","HOUSE_NO":"１０６號之３","E_COORD97":167018.42000000001,"N_COORD97":2548029.02,"ADDRESS":"海佃路二段１０６號之３","OBJECTID":327312},"geometry":{"x":167018.41999999993,"y":2548029.0200000014}},{"attributes":{"ID":327322,"DIS_CODE":0,"TOWNNAME":"安南區","LI":"城南里","LIN":"13鄰","STREET":"城西街","SECT":"二段","MAREA":" ","LANE":"２３３巷","ALLEY":" ","HOUSE_NO":"１５號","E_COORD97":159779.32000000001,"N_COORD97":2550917,"ADDRESS":"城西街二段２３３巷１５號","OBJECTID":327313},"geometry":{"x":159779.3200000003,"y":2550917.0000000037}},{"attributes":{"ID":327323,"DIS_CODE":0,"TOWNNAME":"安南區","LI":"海東里","LIN":"17鄰","STREET":"同安路","SECT":" ","MAREA":" ","LANE":"３８７巷","ALLEY":" ","HOUSE_NO":"５０號","E_COORD97":167231.29000000001,"N_COORD97":2549375.23,"ADDRESS":"同安路３８７巷５０號","OBJECTID":327314},"geometry":{"x":167231.29000000004,"y":2549375.2300000004}},{"attributes":{"ID":327324,"DIS_CODE":0,"TOWNNAME":"安南區","LI":"安順里","LIN":"15鄰","STREET":"育安街","SECT":" ","MAREA":" ","LANE":" ","ALLEY":" ","HOUSE_NO":"２１１號","E_COORD97":169575.32000000001,"N_COORD97":2550118.3799999999,"ADDRESS":"育安街２１１號","OBJECTID":327315},"geometry":{"x":169575.3200000003,"y":2550118.379999999}},{"attributes":{"ID":327325,"DIS_CODE":0,"TOWNNAME":"安南區","LI":"梅花里","LIN":"21鄰","STREET":"同安路","SECT":" ","MAREA":" ","LANE":" ","ALLEY":" ","HOUSE_NO":"２９２號","E_COORD97":167218.79999999999,"N_COORD97":2549194.77,"ADDRESS":"同安路２９２號","OBJECTID":327316},"geometry":{"x":167218.79999999981,"y":2549194.7699999996}},{"attributes":{"ID":327326,"DIS_CODE":0,"TOWNNAME":"安南區","LI":"佃東里","LIN":"14鄰","STREET":"公學路","SECT":"三段","MAREA":" ","LANE":" ","ALLEY":" ","HOUSE_NO":"３５０號之１","E_COORD97":166285.53,"N_COORD97":2552113.8300000001,"ADDRESS":"公學路三段３５０號之１","OBJECTID":327317},"geometry":{"x":166285.53000000026,"y":2552113.8300000001}},{"attributes":{"ID":327327,"DIS_CODE":0,"TOWNNAME":"安南區","LI":"淵東里","LIN":"14鄰","STREET":"本原街","SECT":"三段","MAREA":" ","LANE":" ","ALLEY":" ","HOUSE_NO":"１１３號","E_COORD97":165608.92999999999,"N_COORD97":2550349.4100000001,"ADDRESS":"本原街三段１１３號","OBJECTID":327318},"geometry":{"x":165608.9299999997,"y":2550349.410000002}},{"attributes":{"ID":327328,"DIS_CODE":0,"TOWNNAME":"安南區","LI":"城東里","LIN":"14鄰","STREET":"城北路","SECT":" ","MAREA":" ","LANE":" ","ALLEY":" ","HOUSE_NO":"３６２號之１","E_COORD97":160928.42000000001,"N_COORD97":2552002.7599999998,"ADDRESS":"城北路３６２號之１","OBJECTID":327319},"geometry":{"x":160928.42000000086,"y":2552002.7599999998}},{"attributes":{"ID":327329,"DIS_CODE":0,"TOWNNAME":"安南區","LI":"淵東里","LIN":"5鄰","STREET":"本原街","SECT":"三段","MAREA":" ","LANE":" ","ALLEY":" ","HOUSE_NO":"１７０號之１","E_COORD97":165502.63,"N_COORD97":2550363.6499999999,"ADDRESS":"本原街三段１７０號之１","OBJECTID":327320},"geometry":{"x":165502.62999999989,"y":2550363.6500000041}},{"attributes":{"ID":327330,"DIS_CODE":0,"TOWNNAME":"安南區","LI":"新順里","LIN":"13鄰","STREET":"開安路","SECT":" ","MAREA":" ","LANE":" ","ALLEY":" ","HOUSE_NO":"１號","E_COORD97":170222.07999999999,"N_COORD97":2549450.9500000002,"ADDRESS":"開安路１號","OBJECTID":327321},"geometry":{"x":170222.08000000101,"y":2549450.9499999993}},{"attributes":{"ID":327331,"DIS_CODE":0,"TOWNNAME":"白河區","LI":"永安里","LIN":"4鄰","STREET":"九龍街","SECT":" ","MAREA":" ","LANE":" ","ALLEY":" ","HOUSE_NO":"８９號","E_COORD97":190017.06,"N_COORD97":2583038.6600000001,"ADDRESS":"九龍街８９號","OBJECTID":327322},"geometry":{"x":190017.05999999959,"y":2583038.6600000001}},{"attributes":{"ID":327332,"DIS_CODE":0,"TOWNNAME":"東區","LI":"中西里","LIN":"13鄰","STREET":"東寧路","SECT":" ","MAREA":" ","LANE":" ","ALLEY":" ","HOUSE_NO":"２８號","E_COORD97":170023.39999999999,"N_COORD97":2543618.5899999999,"ADDRESS":"東寧路２８號","OBJECTID":327323},"geometry":{"x":170023.4000000013,"y":2543618.5899999999}},{"attributes":{"ID":327333,"DIS_CODE":0,"TOWNNAME":"東區","LI":"中西里","LIN":"13鄰","STREET":"東寧路","SECT":" ","MAREA":" ","LANE":" ","ALLEY":" ","HOUSE_NO":"２８號之１","E_COORD97":170028.95000000001,"N_COORD97":2543616.6099999999,"ADDRESS":"東寧路２８號之１","OBJECTID":327324},"geometry":{"x":170028.95000000019,"y":2543616.6100000013}},{"attributes":{"ID":327334,"DIS_CODE":0,"TOWNNAME":"東區","LI":"中西里","LIN":"13鄰","STREET":"東寧路","SECT":" ","MAREA":" ","LANE":" ","ALLEY":" ","HOUSE_NO":"２８號之２","E_COORD97":170033.35000000001,"N_COORD97":2543616.1099999999,"ADDRESS":"東寧路２８號之２","OBJECTID":327325},"geometry":{"x":170033.35000000056,"y":2543616.1100000031}},{"attributes":{"ID":327335,"DIS_CODE":0,"TOWNNAME":"白河區","LI":"白河里","LIN":" ","STREET":" ","SECT":" ","MAREA":" ","LANE":"市場四巷","ALLEY":" ","HOUSE_NO":"３６號","E_COORD97":190255.16,"N_COORD97":2583044.25,"ADDRESS":"市場四巷３６號","OBJECTID":327326},"geometry":{"x":190255.16000000108,"y":2583044.25}},{"attributes":{"ID":327336,"DIS_CODE":0,"TOWNNAME":"官田區","LI":"官田里","LIN":"1鄰","STREET":" ","SECT":" ","MAREA":"官田","LANE":" ","ALLEY":" ","HOUSE_NO":"９號","E_COORD97":182577.32999999999,"N_COORD97":2565324.1499999999,"ADDRESS":"官田９號","OBJECTID":327327},"geometry":{"x":182577.33000000007,"y":2565324.1500000004}},{"attributes":{"ID":327337,"DIS_CODE":0,"TOWNNAME":"白河區","LI":"白河里","LIN":" ","STREET":" ","SECT":" ","MAREA":" ","LANE":"市場四巷","ALLEY":" ","HOUSE_NO":"２９號","E_COORD97":190246.35000000001,"N_COORD97":2583051.3500000001,"ADDRESS":"市場四巷２９號","OBJECTID":327328},"geometry":{"x":190246.35000000149,"y":2583051.3499999978}},{"attributes":{"ID":327338,"DIS_CODE":0,"TOWNNAME":"安南區","LI":"溪頂里","LIN":"5鄰","STREET":"府安路","SECT":"四段","MAREA":" ","LANE":"１３２巷","ALLEY":" ","HOUSE_NO":"１號","E_COORD97":168912.88,"N_COORD97":2547286.04,"ADDRESS":"府安路四段１３２巷１號","OBJECTID":327329},"geometry":{"x":168912.88000000082,"y":2547286.040000001}},{"attributes":{"ID":327339,"DIS_CODE":0,"TOWNNAME":"白河區","LI":"甘宅里","LIN":" ","STREET":" ","SECT":" ","MAREA":"甘宅","LANE":" ","ALLEY":" ","HOUSE_NO":"９８之１號","E_COORD97":191815.70999999999,"N_COORD97":2586803.6899999999,"ADDRESS":"甘宅９８之１號","OBJECTID":327330},"geometry":{"x":191815.71000000183,"y":2586803.6900000013}},{"attributes":{"ID":327340,"DIS_CODE":0,"TOWNNAME":"新營區","LI":"舊部里","LIN":" ","STREET":" ","SECT":" ","MAREA":"舊部","LANE":" ","ALLEY":" ","HOUSE_NO":"３號","E_COORD97":176940.95999999999,"N_COORD97":2575380.29,"ADDRESS":"舊部３號","OBJECTID":327331},"geometry":{"x":176940.96000000089,"y":2575380.290000001}},{"attributes":{"ID":327341,"DIS_CODE":0,"TOWNNAME":"白河區","LI":"白河里","LIN":" ","STREET":" ","SECT":" ","MAREA":" ","LANE":"市場四巷","ALLEY":" ","HOUSE_NO":"３４號","E_COORD97":190252.91,"N_COORD97":2583044.8500000001,"ADDRESS":"市場四巷３４號","OBJECTID":327332},"geometry":{"x":190252.91000000015,"y":2583044.8500000034}},{"attributes":{"ID":327342,"DIS_CODE":0,"TOWNNAME":"北區","LI":"大豐里","LIN":"20鄰","STREET":"大興街","SECT":" ","MAREA":" ","LANE":"２３３巷","ALLEY":" ","HOUSE_NO":"５６號六樓之３","E_COORD97":166846.79999999999,"N_COORD97":2545498.4500000002,"ADDRESS":"大興街２３３巷５６號六樓之３","OBJECTID":327333},"geometry":{"x":166846.80000000075,"y":2545498.4499999974}},{"attributes":{"ID":327343,"DIS_CODE":0,"TOWNNAME":"北區","LI":"大豐里","LIN":"20鄰","STREET":"大興街","SECT":" ","MAREA":" ","LANE":"２３３巷","ALLEY":" ","HOUSE_NO":"５６號七樓之１","E_COORD97":166846.79999999999,"N_COORD97":2545498.4500000002,"ADDRESS":"大興街２３３巷５６號七樓之１","OBJECTID":327334},"geometry":{"x":166846.80000000075,"y":2545498.4499999974}},{"attributes":{"ID":327344,"DIS_CODE":0,"TOWNNAME":"北區","LI":"大豐里","LIN":"20鄰","STREET":"大興街","SECT":" ","MAREA":" ","LANE":"２３３巷","ALLEY":" ","HOUSE_NO":"５６號七樓之２","E_COORD97":166846.79999999999,"N_COORD97":2545498.4500000002,"ADDRESS":"大興街２３３巷５６號七樓之２","OBJECTID":327335},"geometry":{"x":166846.80000000075,"y":2545498.4499999974}},{"attributes":{"ID":327345,"DIS_CODE":0,"TOWNNAME":"北區","LI":"大豐里","LIN":"20鄰","STREET":"大興街","SECT":" ","MAREA":" ","LANE":"２３３巷","ALLEY":" ","HOUSE_NO":"５６號七樓之３","E_COORD97":166846.79999999999,"N_COORD97":2545498.4500000002,"ADDRESS":"大興街２３３巷５６號七樓之３","OBJECTID":327336},"geometry":{"x":166846.80000000075,"y":2545498.4499999974}},{"attributes":{"ID":327346,"DIS_CODE":0,"TOWNNAME":"北區","LI":"長榮里","LIN":"15鄰","STREET":"長榮路","SECT":"五段","MAREA":" ","LANE":"４１巷","ALLEY":" ","HOUSE_NO":"６８號八樓之２","E_COORD97":169876.17999999999,"N_COORD97":2545602.8300000001,"ADDRESS":"長榮路五段４１巷６８號八樓之２","OBJECTID":327337},"geometry":{"x":169876.1799999997,"y":2545602.8300000019}},{"attributes":{"ID":327347,"DIS_CODE":0,"TOWNNAME":"北區","LI":"長榮里","LIN":"15鄰","STREET":"長榮路","SECT":"五段","MAREA":" ","LANE":"４１巷","ALLEY":" ","HOUSE_NO":"６８號八樓之３","E_COORD97":169876.17999999999,"N_COORD97":2545602.8300000001,"ADDRESS":"長榮路五段４１巷６８號八樓之３","OBJECTID":327338},"geometry":{"x":169876.1799999997,"y":2545602.8300000019}},{"attributes":{"ID":327348,"DIS_CODE":0,"TOWNNAME":"北區","LI":"長榮里","LIN":"15鄰","STREET":"長榮路","SECT":"五段","MAREA":" ","LANE":"４１巷","ALLEY":" ","HOUSE_NO":"６８號八樓之５","E_COORD97":169876.17999999999,"N_COORD97":2545602.8300000001,"ADDRESS":"長榮路五段４１巷６８號八樓之５","OBJECTID":327339},"geometry":{"x":169876.1799999997,"y":2545602.8300000019}},{"attributes":{"ID":327349,"DIS_CODE":0,"TOWNNAME":"北區","LI":"長榮里","LIN":"15鄰","STREET":"長榮路","SECT":"五段","MAREA":" ","LANE":"４１巷","ALLEY":" ","HOUSE_NO":"６８號九樓之１","E_COORD97":169876.17999999999,"N_COORD97":2545602.8300000001,"ADDRESS":"長榮路五段４１巷６８號九樓之１","OBJECTID":327340},"geometry":{"x":169876.1799999997,"y":2545602.8300000019}},{"attributes":{"ID":327350,"DIS_CODE":0,"TOWNNAME":"北區","LI":"長榮里","LIN":"15鄰","STREET":"長榮路","SECT":"五段","MAREA":" ","LANE":"４１巷","ALLEY":" ","HOUSE_NO":"６８號九樓之２","E_COORD97":169876.17999999999,"N_COORD97":2545602.8300000001,"ADDRESS":"長榮路五段４１巷６８號九樓之２","OBJECTID":327341},"geometry":{"x":169876.1799999997,"y":2545602.8300000019}},{"attributes":{"ID":327351,"DIS_CODE":0,"TOWNNAME":"新營區","LI":"民榮里","LIN":"17鄰","STREET":"新榮四街","SECT":" ","MAREA":" ","LANE":" ","ALLEY":" ","HOUSE_NO":"８５號","E_COORD97":178483.78,"N_COORD97":2577672.9500000002,"ADDRESS":"新榮四街８５號","OBJECTID":327342},"geometry":{"x":178483.78000000026,"y":2577672.9499999993}},{"attributes":{"ID":327352,"DIS_CODE":0,"TOWNNAME":"新營區","LI":"民榮里","LIN":"17鄰","STREET":"新榮四街","SECT":" ","MAREA":" ","LANE":" ","ALLEY":" ","HOUSE_NO":"８６號","E_COORD97":178476.82999999999,"N_COORD97":2577643.0699999998,"ADDRESS":"新榮四街８６號","OBJECTID":327343},"geometry":{"x":178476.83000000007,"y":2577643.070000004}},{"attributes":{"ID":327353,"DIS_CODE":0,"TOWNNAME":"新營區","LI":"民榮里","LIN":"17鄰","STREET":"新榮四街","SECT":" ","MAREA":" ","LANE":" ","ALLEY":" ","HOUSE_NO":"８７號","E_COORD97":178489.56,"N_COORD97":2577668.71,"ADDRESS":"新榮四街８７號","OBJECTID":327344},"geometry":{"x":178489.55999999959,"y":2577668.7100000009}},{"attributes":{"ID":327354,"DIS_CODE":0,"TOWNNAME":"新營區","LI":"民榮里","LIN":"17鄰","STREET":"新榮四街","SECT":" ","MAREA":" ","LANE":" ","ALLEY":" ","HOUSE_NO":"８８號","E_COORD97":178482.42000000001,"N_COORD97":2577639.6299999999,"ADDRESS":"新榮四街８８號","OBJECTID":327345},"geometry":{"x":178482.41999999993,"y":2577639.629999999}},{"attributes":{"ID":327355,"DIS_CODE":0,"TOWNNAME":"新營區","LI":"民榮里","LIN":"17鄰","STREET":"新榮四街","SECT":" ","MAREA":" ","LANE":" ","ALLEY":" ","HOUSE_NO":"８９號","E_COORD97":178494.91,"N_COORD97":2577665.1400000001,"ADDRESS":"新榮四街８９號","OBJECTID":327346},"geometry":{"x":178494.91000000015,"y":2577665.1400000006}},{"attributes":{"ID":327356,"DIS_CODE":0,"TOWNNAME":"新營區","LI":"民榮里","LIN":"17鄰","STREET":"新榮四街","SECT":" ","MAREA":" ","LANE":" ","ALLEY":" ","HOUSE_NO":"９０號","E_COORD97":178488.98000000001,"N_COORD97":2577634.27,"ADDRESS":"新榮四街９０號","OBJECTID":327347},"geometry":{"x":178488.98000000138,"y":2577634.2700000033}},{"attributes":{"ID":327357,"DIS_CODE":0,"TOWNNAME":"安南區","LI":"原佃里","LIN":"1鄰","STREET":"本原街","SECT":"一段","MAREA":" ","LANE":"９７巷","ALLEY":" ","HOUSE_NO":"２３２號之３","E_COORD97":167768.45000000001,"N_COORD97":2549695.8999999999,"ADDRESS":"本原街一段９７巷２３２號之３","OBJECTID":327348},"geometry":{"x":167768.45000000112,"y":2549695.9000000004}},{"attributes":{"ID":327358,"DIS_CODE":0,"TOWNNAME":"安南區","LI":"淵西里","LIN":"12鄰","STREET":"安中路","SECT":"四段","MAREA":" ","LANE":"２４０巷","ALLEY":" ","HOUSE_NO":"１０號","E_COORD97":164712.76000000001,"N_COORD97":2550164.5499999998,"ADDRESS":"安中路四段２４０巷１０號","OBJECTID":327349},"geometry":{"x":164712.76000000071,"y":2550164.5500000045}},{"attributes":{"ID":327359,"DIS_CODE":0,"TOWNNAME":"安南區","LI":"淵西里","LIN":"12鄰","STREET":"安中路","SECT":"四段","MAREA":" ","LANE":"２４０巷","ALLEY":" ","HOUSE_NO":"１２號","E_COORD97":164713.79999999999,"N_COORD97":2550168.4900000002,"ADDRESS":"安中路四段２４０巷１２號","OBJECTID":327350},"geometry":{"x":164713.79999999888,"y":2550168.4900000021}},{"attributes":{"ID":327360,"DIS_CODE":0,"TOWNNAME":"安南區","LI":"淵西里","LIN":"12鄰","STREET":"安中路","SECT":"四段","MAREA":" ","LANE":"２４０巷","ALLEY":" ","HOUSE_NO":"１４號","E_COORD97":164715.67000000001,"N_COORD97":2550172.02,"ADDRESS":"安中路四段２４０巷１４號","OBJECTID":327351},"geometry":{"x":164715.67000000086,"y":2550172.0200000014}},{"attributes":{"ID":327361,"DIS_CODE":0,"TOWNNAME":"安南區","LI":"安慶里","LIN":"4鄰","STREET":"長溪路","SECT":"一段","MAREA":" ","LANE":"１６８巷","ALLEY":" ","HOUSE_NO":"６２號","E_COORD97":169078.39000000001,"N_COORD97":2548695.9399999999,"ADDRESS":"長溪路一段１６８巷６２號","OBJECTID":327352},"geometry":{"x":169078.3900000006,"y":2548695.9400000032}},{"attributes":{"ID":327362,"DIS_CODE":0,"TOWNNAME":"安南區","LI":"安慶里","LIN":"4鄰","STREET":"長溪路","SECT":"一段","MAREA":" ","LANE":"１６８巷","ALLEY":" ","HOUSE_NO":"６４號","E_COORD97":169079.62,"N_COORD97":2548699.5299999998,"ADDRESS":"長溪路一段１６８巷６４號","OBJECTID":327353},"geometry":{"x":169079.62000000104,"y":2548699.5300000012}},{"attributes":{"ID":327363,"DIS_CODE":0,"TOWNNAME":"安南區","LI":"安慶里","LIN":"4鄰","STREET":"長溪路","SECT":"一段","MAREA":" ","LANE":"１６８巷","ALLEY":" ","HOUSE_NO":"６６號","E_COORD97":169079.62,"N_COORD97":2548703.9100000001,"ADDRESS":"長溪路一段１６８巷６６號","OBJECTID":327354},"geometry":{"x":169079.62000000104,"y":2548703.9100000039}},{"attributes":{"ID":327364,"DIS_CODE":0,"TOWNNAME":"安南區","LI":"安慶里","LIN":"4鄰","STREET":"長溪路","SECT":"一段","MAREA":" ","LANE":"１６８巷","ALLEY":" ","HOUSE_NO":"６８號","E_COORD97":169080.19,"N_COORD97":2548707.73,"ADDRESS":"長溪路一段１６８巷６８號","OBJECTID":327355},"geometry":{"x":169080.19000000041,"y":2548707.7300000004}},{"attributes":{"ID":327365,"DIS_CODE":0,"TOWNNAME":"安南區","LI":"海東里","LIN":"20鄰","STREET":"海佃路","SECT":"二段","MAREA":" ","LANE":" ","ALLEY":" ","HOUSE_NO":"２３５號之５","E_COORD97":166845.17999999999,"N_COORD97":2548495.52,"ADDRESS":"海佃路二段２３５號之５","OBJECTID":327356},"geometry":{"x":166845.1799999997,"y":2548495.5200000033}},{"attributes":{"ID":327366,"DIS_CODE":0,"TOWNNAME":"安南區","LI":"新順里","LIN":"14鄰","STREET":"永安路","SECT":" ","MAREA":" ","LANE":" ","ALLEY":" ","HOUSE_NO":"８號","E_COORD97":169886.64999999999,"N_COORD97":2549572.6899999999,"ADDRESS":"永安路８號","OBJECTID":327357},"geometry":{"x":169886.6500000013,"y":2549572.6900000032}},{"attributes":{"ID":327367,"DIS_CODE":0,"TOWNNAME":"安南區","LI":"海東里","LIN":"17鄰","STREET":"同安路","SECT":" ","MAREA":" ","LANE":" ","ALLEY":" ","HOUSE_NO":"３４５號","E_COORD97":167229.51000000001,"N_COORD97":2549257.5899999999,"ADDRESS":"同安路３４５號","OBJECTID":327358},"geometry":{"x":167229.50999999978,"y":2549257.5899999999}},{"attributes":{"ID":327368,"DIS_CODE":0,"TOWNNAME":"安南區","LI":"州北里","LIN":"17鄰","STREET":"安和路","SECT":"六段","MAREA":" ","LANE":" ","ALLEY":" ","HOUSE_NO":"６１號之８","E_COORD97":169524.48000000001,"N_COORD97":2552475.2599999998,"ADDRESS":"安和路六段６１號之８","OBJECTID":327359},"geometry":{"x":169524.48000000138,"y":2552475.2600000016}},{"attributes":{"ID":327369,"DIS_CODE":0,"TOWNNAME":"安南區","LI":"原佃里","LIN":"1鄰","STREET":"怡安路","SECT":"二段","MAREA":" ","LANE":" ","ALLEY":" ","HOUSE_NO":"４６８號之８","E_COORD97":167542.25,"N_COORD97":2549475.0099999998,"ADDRESS":"怡安路二段４６８號之８","OBJECTID":327360},"geometry":{"x":167542.25000000093,"y":2549475.0099999998}},{"attributes":{"ID":327370,"DIS_CODE":0,"TOWNNAME":"安南區","LI":"新順里","LIN":"17鄰","STREET":"頂安街","SECT":" ","MAREA":" ","LANE":" ","ALLEY":" ","HOUSE_NO":"４７號","E_COORD97":169549.67999999999,"N_COORD97":2549334.4900000002,"ADDRESS":"頂安街４７號","OBJECTID":327361},"geometry":{"x":169549.68000000063,"y":2549334.4900000021}},{"attributes":{"ID":327371,"DIS_CODE":0,"TOWNNAME":"東區","LI":"中西里","LIN":"13鄰","STREET":"東寧路","SECT":" ","MAREA":" ","LANE":" ","ALLEY":" ","HOUSE_NO":"２８號之３","E_COORD97":170037.75,"N_COORD97":2543616.0099999998,"ADDRESS":"東寧路２８號之３","OBJECTID":327362},"geometry":{"x":170037.75000000093,"y":2543616.0099999998}},{"attributes":{"ID":327372,"DIS_CODE":0,"TOWNNAME":"東區","LI":"中西里","LIN":"13鄰","STREET":"東寧路","SECT":" ","MAREA":" ","LANE":" ","ALLEY":" ","HOUSE_NO":"３０號","E_COORD97":170043.04999999999,"N_COORD97":2543615.21,"ADDRESS":"東寧路３０號","OBJECTID":327363},"geometry":{"x":170043.04999999981,"y":2543615.2100000028}},{"attributes":{"ID":327373,"DIS_CODE":0,"TOWNNAME":"東區","LI":"中西里","LIN":"13鄰","STREET":"東寧路","SECT":" ","MAREA":" ","LANE":" ","ALLEY":" ","HOUSE_NO":"３０號之１","E_COORD97":170048.25,"N_COORD97":2543615.1099999999,"ADDRESS":"東寧路３０號之１","OBJECTID":327364},"geometry":{"x":170048.25000000093,"y":2543615.1099999994}},{"attributes":{"ID":327374,"DIS_CODE":0,"TOWNNAME":"東區","LI":"中西里","LIN":"13鄰","STREET":"東寧路","SECT":" ","MAREA":" ","LANE":" ","ALLEY":" ","HOUSE_NO":"３０號之２","E_COORD97":170052.45000000001,"N_COORD97":2543614.9100000001,"ADDRESS":"東寧路３０號之２","OBJECTID":327365},"geometry":{"x":170052.45000000019,"y":2543614.9100000039}},{"attributes":{"ID":327375,"DIS_CODE":0,"TOWNNAME":"東區","LI":"中西里","LIN":"13鄰","STREET":"東寧路","SECT":" ","MAREA":" ","LANE":" ","ALLEY":" ","HOUSE_NO":"３０號之３","E_COORD97":170056.75,"N_COORD97":2543614.9100000001,"ADDRESS":"東寧路３０號之３","OBJECTID":327366},"geometry":{"x":170056.75000000093,"y":2543614.9100000039}},{"attributes":{"ID":327376,"DIS_CODE":0,"TOWNNAME":"東區","LI":"中西里","LIN":"17鄰","STREET":"林森路","SECT":"二段","MAREA":" ","LANE":" ","ALLEY":" ","HOUSE_NO":"７９號","E_COORD97":170347.23999999999,"N_COORD97":2543208.02,"ADDRESS":"林森路二段７９號","OBJECTID":327367},"geometry":{"x":170347.24000000022,"y":2543208.0200000014}},{"attributes":{"ID":327377,"DIS_CODE":0,"TOWNNAME":"白河區","LI":"甘宅里","LIN":" ","STREET":" ","SECT":" ","MAREA":"甘宅","LANE":" ","ALLEY":" ","HOUSE_NO":"９８之３號","E_COORD97":192030.31,"N_COORD97":2586927.3100000001,"ADDRESS":"甘宅９８之３號","OBJECTID":327368},"geometry":{"x":192030.31000000052,"y":2586927.3100000005}},{"attributes":{"ID":327378,"DIS_CODE":0,"TOWNNAME":"白河區","LI":"甘宅里","LIN":" ","STREET":" ","SECT":" ","MAREA":"甘宅","LANE":" ","ALLEY":" ","HOUSE_NO":"９８之６號","E_COORD97":192026.82999999999,"N_COORD97":2586916.0899999999,"ADDRESS":"甘宅９８之６號","OBJECTID":327369},"geometry":{"x":192026.83000000194,"y":2586916.0900000017}},{"attributes":{"ID":327379,"DIS_CODE":0,"TOWNNAME":"白河區","LI":"白河里","LIN":" ","STREET":" ","SECT":" ","MAREA":" ","LANE":"市場四巷","ALLEY":" ","HOUSE_NO":"１７號","E_COORD97":190227.28,"N_COORD97":2583056.4900000002,"ADDRESS":"市場四巷１７號","OBJECTID":327370},"geometry":{"x":190227.28000000119,"y":2583056.4900000002}},{"attributes":{"ID":327380,"DIS_CODE":0,"TOWNNAME":"白河區","LI":"白河里","LIN":" ","STREET":" ","SECT":" ","MAREA":" ","LANE":"市場四巷","ALLEY":" ","HOUSE_NO":"１９號","E_COORD97":190229.79999999999,"N_COORD97":2583055.7999999998,"ADDRESS":"市場四巷１９號","OBJECTID":327371},"geometry":{"x":190229.79999999888,"y":2583055.8000000007}},{"attributes":{"ID":327381,"DIS_CODE":0,"TOWNNAME":"白河區","LI":"白河里","LIN":" ","STREET":" ","SECT":" ","MAREA":" ","LANE":"市場四巷","ALLEY":" ","HOUSE_NO":"１號","E_COORD97":190203.78,"N_COORD97":2583063.9900000002,"ADDRESS":"市場四巷１號","OBJECTID":327372},"geometry":{"x":190203.78000000119,"y":2583063.9900000002}},{"attributes":{"ID":327382,"DIS_CODE":0,"TOWNNAME":"白河區","LI":"白河里","LIN":" ","STREET":" ","SECT":" ","MAREA":" ","LANE":"市場四巷","ALLEY":" ","HOUSE_NO":"２１號","E_COORD97":190235.84,"N_COORD97":2583054.8700000001,"ADDRESS":"市場四巷２１號","OBJECTID":327373},"geometry":{"x":190235.83999999985,"y":2583054.870000001}},{"attributes":{"ID":327383,"DIS_CODE":0,"TOWNNAME":"白河區","LI":"白河里","LIN":" ","STREET":" ","SECT":" ","MAREA":" ","LANE":"市場四巷","ALLEY":" ","HOUSE_NO":"３０號","E_COORD97":190247.28,"N_COORD97":2583046.5099999998,"ADDRESS":"市場四巷３０號","OBJECTID":327374},"geometry":{"x":190247.28000000026,"y":2583046.5099999998}},{"attributes":{"ID":327384,"DIS_CODE":0,"TOWNNAME":"北區","LI":"長榮里","LIN":"15鄰","STREET":"長榮路","SECT":"五段","MAREA":" ","LANE":"４１巷","ALLEY":" ","HOUSE_NO":"６８號九樓之３","E_COORD97":169876.17999999999,"N_COORD97":2545602.8300000001,"ADDRESS":"長榮路五段４１巷６８號九樓之３","OBJECTID":327375},"geometry":{"x":169876.1799999997,"y":2545602.8300000019}},{"attributes":{"ID":327385,"DIS_CODE":0,"TOWNNAME":"白河區","LI":"白河里","LIN":" ","STREET":" ","SECT":" ","MAREA":" ","LANE":"市場四巷","ALLEY":" ","HOUSE_NO":"３１號","E_COORD97":190248.60999999999,"N_COORD97":2583050.5499999998,"ADDRESS":"市場四巷３１號","OBJECTID":327376},"geometry":{"x":190248.6100000022,"y":2583050.5500000007}},{"attributes":{"ID":327386,"DIS_CODE":0,"TOWNNAME":"白河區","LI":"白河里","LIN":" ","STREET":" ","SECT":" ","MAREA":" ","LANE":"市場四巷","ALLEY":" ","HOUSE_NO":"３２號","E_COORD97":190250.32000000001,"N_COORD97":2583045.7000000002,"ADDRESS":"市場四巷３２號","OBJECTID":327377},"geometry":{"x":190250.3200000003,"y":2583045.7000000011}},{"attributes":{"ID":327387,"DIS_CODE":0,"TOWNNAME":"白河區","LI":"白河里","LIN":" ","STREET":" ","SECT":" ","MAREA":" ","LANE":"市場四巷","ALLEY":" ","HOUSE_NO":"３號","E_COORD97":190206.17000000001,"N_COORD97":2583063.1600000001,"ADDRESS":"市場四巷３號","OBJECTID":327378},"geometry":{"x":190206.17000000086,"y":2583063.1600000001}},{"attributes":{"ID":327388,"DIS_CODE":0,"TOWNNAME":"白河區","LI":"白河里","LIN":" ","STREET":" ","SECT":" ","MAREA":" ","LANE":"市場四巷","ALLEY":" ","HOUSE_NO":"５號","E_COORD97":190208.85999999999,"N_COORD97":2583062.2599999998,"ADDRESS":"市場四巷５號","OBJECTID":327379},"geometry":{"x":190208.86000000034,"y":2583062.2599999979}},{"attributes":{"ID":327389,"DIS_CODE":0,"TOWNNAME":"白河區","LI":"白河里","LIN":" ","STREET":" ","SECT":" ","MAREA":" ","LANE":"市場四巷","ALLEY":" ","HOUSE_NO":"７號","E_COORD97":190211.72,"N_COORD97":2583061.2599999998,"ADDRESS":"市場四巷７號","OBJECTID":327380},"geometry":{"x":190211.7200000016,"y":2583061.2599999998}},{"attributes":{"ID":327390,"DIS_CODE":0,"TOWNNAME":"白河區","LI":"白河里","LIN":" ","STREET":" ","SECT":" ","MAREA":" ","LANE":"市場四巷","ALLEY":" ","HOUSE_NO":"９號","E_COORD97":190214.28,"N_COORD97":2583060.46,"ADDRESS":"市場四巷９號","OBJECTID":327381},"geometry":{"x":190214.28000000119,"y":2583060.4600000028}},{"attributes":{"ID":327391,"DIS_CODE":0,"TOWNNAME":"北區","LI":"長榮里","LIN":"15鄰","STREET":"長榮路","SECT":"五段","MAREA":" ","LANE":"４１巷","ALLEY":" ","HOUSE_NO":"６８號九樓之５","E_COORD97":169876.17999999999,"N_COORD97":2545602.8300000001,"ADDRESS":"長榮路五段４１巷６８號九樓之５","OBJECTID":327382},"geometry":{"x":169876.1799999997,"y":2545602.8300000019}},{"attributes":{"ID":327392,"DIS_CODE":0,"TOWNNAME":"北區","LI":"長榮里","LIN":"15鄰","STREET":"長榮路","SECT":"五段","MAREA":" ","LANE":"４１巷","ALLEY":" ","HOUSE_NO":"６８號十樓之１","E_COORD97":169876.17999999999,"N_COORD97":2545602.8300000001,"ADDRESS":"長榮路五段４１巷６８號十樓之１","OBJECTID":327383},"geometry":{"x":169876.1799999997,"y":2545602.8300000019}},{"attributes":{"ID":327393,"DIS_CODE":0,"TOWNNAME":"北區","LI":"長榮里","LIN":"15鄰","STREET":"長榮路","SECT":"五段","MAREA":" ","LANE":"４１巷","ALLEY":" ","HOUSE_NO":"６８號十樓之２","E_COORD97":169876.17999999999,"N_COORD97":2545602.8300000001,"ADDRESS":"長榮路五段４１巷６８號十樓之２","OBJECTID":327384},"geometry":{"x":169876.1799999997,"y":2545602.8300000019}},{"attributes":{"ID":327394,"DIS_CODE":0,"TOWNNAME":"北區","LI":"長榮里","LIN":"15鄰","STREET":"長榮路","SECT":"五段","MAREA":" ","LANE":"４１巷","ALLEY":" ","HOUSE_NO":"６８號十樓之３","E_COORD97":169876.17999999999,"N_COORD97":2545602.8300000001,"ADDRESS":"長榮路五段４１巷６８號十樓之３","OBJECTID":327385},"geometry":{"x":169876.1799999997,"y":2545602.8300000019}},{"attributes":{"ID":327395,"DIS_CODE":0,"TOWNNAME":"仁德區","LI":"仁愛里","LIN":"4鄰","STREET":" ","SECT":" ","MAREA":"仁愛","LANE":" ","ALLEY":" ","HOUSE_NO":"６６號","E_COORD97":170345.06849999999,"N_COORD97":2539990.5270600002,"ADDRESS":"仁愛６６號","OBJECTID":327386},"geometry":{"x":170345.06850000005,"y":2539990.5270580035}},{"attributes":{"ID":327396,"DIS_CODE":0,"TOWNNAME":"北區","LI":"長榮里","LIN":"15鄰","STREET":"長榮路","SECT":"五段","MAREA":" ","LANE":"４１巷","ALLEY":" ","HOUSE_NO":"６８號十樓之５","E_COORD97":169876.17999999999,"N_COORD97":2545602.8300000001,"ADDRESS":"長榮路五段４１巷６８號十樓之５","OBJECTID":327387},"geometry":{"x":169876.1799999997,"y":2545602.8300000019}},{"attributes":{"ID":327397,"DIS_CODE":0,"TOWNNAME":"新營區","LI":"民榮里","LIN":"17鄰","STREET":"新榮四街","SECT":" ","MAREA":" ","LANE":" ","ALLEY":" ","HOUSE_NO":"９１號","E_COORD97":178501.26000000001,"N_COORD97":2577660.0499999998,"ADDRESS":"新榮四街９１號","OBJECTID":327388},"geometry":{"x":178501.26000000071,"y":2577660.0500000007}},{"attributes":{"ID":327398,"DIS_CODE":0,"TOWNNAME":"白河區","LI":"竹門里","LIN":" ","STREET":" ","SECT":" ","MAREA":"竹子門","LANE":" ","ALLEY":" ","HOUSE_NO":"１０５之１號","E_COORD97":193390.07999999999,"N_COORD97":2586141.8300000001,"ADDRESS":"竹子門１０５之１號","OBJECTID":327389},"geometry":{"x":193390.08000000101,"y":2586141.8300000019}},{"attributes":{"ID":327399,"DIS_CODE":0,"TOWNNAME":"白河區","LI":"竹門里","LIN":" ","STREET":" ","SECT":" ","MAREA":"竹子門","LANE":" ","ALLEY":" ","HOUSE_NO":"１０７之１號","E_COORD97":193363.44,"N_COORD97":2586139.9399999999,"ADDRESS":"竹子門１０７之１號","OBJECTID":327390},"geometry":{"x":193363.44000000041,"y":2586139.9400000013}},{"attributes":{"ID":327400,"DIS_CODE":0,"TOWNNAME":"白河區","LI":"竹門里","LIN":" ","STREET":" ","SECT":" ","MAREA":"竹子門","LANE":" ","ALLEY":" ","HOUSE_NO":"１０７之２號","E_COORD97":193359.23999999999,"N_COORD97":2586139.8500000001,"ADDRESS":"竹子門１０７之２號","OBJECTID":327391},"geometry":{"x":193359.24000000022,"y":2586139.8499999996}},{"attributes":{"ID":327401,"DIS_CODE":0,"TOWNNAME":"白河區","LI":"竹門里","LIN":" ","STREET":" ","SECT":" ","MAREA":"竹子門","LANE":" ","ALLEY":" ","HOUSE_NO":"１０７之３號","E_COORD97":193355.25,"N_COORD97":2586139.6800000002,"ADDRESS":"竹子門１０７之３號","OBJECTID":327392},"geometry":{"x":193355.25000000093,"y":2586139.6800000016}},{"attributes":{"ID":327402,"DIS_CODE":0,"TOWNNAME":"將軍區","LI":"嘉昌里","LIN":"20鄰","STREET":" ","SECT":" ","MAREA":"昌平","LANE":" ","ALLEY":" ","HOUSE_NO":"７５號","E_COORD97":163381.17999999999,"N_COORD97":2567229.04,"ADDRESS":"昌平７５號","OBJECTID":327393},"geometry":{"x":163381.18000000063,"y":2567229.0399999991}},{"attributes":{"ID":327403,"DIS_CODE":0,"TOWNNAME":"白河區","LI":"竹門里","LIN":" ","STREET":" ","SECT":" ","MAREA":"竹子門","LANE":" ","ALLEY":" ","HOUSE_NO":"１２５之３號","E_COORD97":193219.45000000001,"N_COORD97":2586035.8199999998,"ADDRESS":"竹子門１２５之３號","OBJECTID":327394},"geometry":{"x":193219.44999999925,"y":2586035.8199999984}},{"attributes":{"ID":327404,"DIS_CODE":0,"TOWNNAME":"白河區","LI":"竹門里","LIN":" ","STREET":" ","SECT":" ","MAREA":"竹子門","LANE":" ","ALLEY":" ","HOUSE_NO":"４０號","E_COORD97":193557.12,"N_COORD97":2586125.8599999999,"ADDRESS":"竹子門４０號","OBJECTID":327395},"geometry":{"x":193557.12000000011,"y":2586125.8599999994}},{"attributes":{"ID":327405,"DIS_CODE":0,"TOWNNAME":"白河區","LI":"仙草里","LIN":"8鄰","STREET":" ","SECT":" ","MAREA":"岩前","LANE":" ","ALLEY":" ","HOUSE_NO":"１３之１號","E_COORD97":195916.94,"N_COORD97":2582182,"ADDRESS":"岩前１３之１號","OBJECTID":327396},"geometry":{"x":195916.94000000227,"y":2582182}},{"attributes":{"ID":327406,"DIS_CODE":0,"TOWNNAME":"白河區","LI":"大林里","LIN":" ","STREET":" ","SECT":" ","MAREA":"杭內","LANE":" ","ALLEY":" ","HOUSE_NO":"１８號","E_COORD97":195461.10000000001,"N_COORD97":2581210.7999999998,"ADDRESS":"杭內１８號","OBJECTID":327397},"geometry":{"x":195461.10000000056,"y":2581210.8000000007}},{"attributes":{"ID":327407,"DIS_CODE":0,"TOWNNAME":"白河區","LI":"仙草里","LIN":" ","STREET":" ","SECT":" ","MAREA":"杭內","LANE":" ","ALLEY":" ","HOUSE_NO":"３０號","E_COORD97":196198.87,"N_COORD97":2581515.8999999999,"ADDRESS":"杭內３０號","OBJECTID":327398},"geometry":{"x":196198.87000000104,"y":2581515.8999999985}},{"attributes":{"ID":327408,"DIS_CODE":0,"TOWNNAME":"北區","LI":"長榮里","LIN":"15鄰","STREET":"長榮路","SECT":"五段","MAREA":" ","LANE":"４１巷","ALLEY":" ","HOUSE_NO":"６８號十一樓之１","E_COORD97":169876.17999999999,"N_COORD97":2545602.8300000001,"ADDRESS":"長榮路五段４１巷６８號十一樓之１","OBJECTID":327399},"geometry":{"x":169876.1799999997,"y":2545602.8300000019}},{"attributes":{"ID":327409,"DIS_CODE":0,"TOWNNAME":"白河區","LI":"廣安里","LIN":" ","STREET":" ","SECT":" ","MAREA":"枋子林","LANE":" ","ALLEY":" ","HOUSE_NO":"１０之１１號","E_COORD97":189356.51999999999,"N_COORD97":2587216.4900000002,"ADDRESS":"枋子林１０之１１號","OBJECTID":327400},"geometry":{"x":189356.51999999955,"y":2587216.4900000002}}]}