{"displayFieldName":"TOWNNAME","fieldAliases":{"ID":"ID","DIS_CODE":"DIS_CODE","TOWNNAME":"TOWNNAME","LI":"LI","LIN":"LIN","STREET":"STREET","SECT":"SECT","MAREA":"MAREA","LANE":"LANE","ALLEY":"ALLEY","HOUSE_NO":"HOUSE_NO","E_COORD97":"E_COORD97","N_COORD97":"N_COORD97","ADDRESS":"ADDRESS","OBJECTID":"OBJECTID"},"geometryType":"esriGeometryPoint","spatialReference":{"wkid":102443,"latestWkid":3826},"fields":[{"name":"ID","type":"esriFieldTypeDouble","alias":"ID"},{"name":"DIS_CODE","type":"esriFieldTypeInteger","alias":"DIS_CODE"},{"name":"TOWNNAME","type":"esriFieldTypeString","alias":"TOWNNAME","length":8},{"name":"LI","type":"esriFieldTypeString","alias":"LI","length":8},{"name":"LIN","type":"esriFieldTypeString","alias":"LIN","length":12},{"name":"STREET","type":"esriFieldTypeString","alias":"STREET","length":20},{"name":"SECT","type":"esriFieldTypeString","alias":"SECT","length":8},{"name":"MAREA","type":"esriFieldTypeString","alias":"MAREA","length":12},{"name":"LANE","type":"esriFieldTypeString","alias":"LANE","length":10},{"name":"ALLEY","type":"esriFieldTypeString","alias":"ALLEY","length":10},{"name":"HOUSE_NO","type":"esriFieldTypeString","alias":"HOUSE_NO","length":20},{"name":"E_COORD97","type":"esriFieldTypeDouble","alias":"E_COORD97"},{"name":"N_COORD97","type":"esriFieldTypeDouble","alias":"N_COORD97"},{"name":"ADDRESS","type":"esriFieldTypeString","alias":"ADDRESS","length":50},{"name":"OBJECTID","type":"esriFieldTypeOID","alias":"OBJECTID"}],"features":[{"attributes":{"ID":339610,"DIS_CODE":0,"TOWNNAME":"北區","LI":"成功里","LIN":"1鄰","STREET":"北安路","SECT":"一段","MAREA":" ","LANE":"９４巷","ALLEY":" ","HOUSE_NO":"２８號","E_COORD97":169137.81,"N_COORD97":2546429.3199999998,"ADDRESS":"北安路一段９４巷２８號","OBJECTID":339601},"geometry":{"x":169137.80999999959,"y":2546429.3199999984}},{"attributes":{"ID":339611,"DIS_CODE":0,"TOWNNAME":"新市區","LI":"新市里","LIN":"8鄰","STREET":"中正路","SECT":" ","MAREA":" ","LANE":" ","ALLEY":" ","HOUSE_NO":"２６７之２號","E_COORD97":177516.48999999999,"N_COORD97":2553213.7999999998,"ADDRESS":"中正路２６７之２號","OBJECTID":339602},"geometry":{"x":177516.49000000022,"y":2553213.8000000007}},{"attributes":{"ID":339612,"DIS_CODE":0,"TOWNNAME":"後壁區","LI":"福安里","LIN":"5鄰","STREET":" ","SECT":" ","MAREA":"下寮","LANE":" ","ALLEY":" ","HOUSE_NO":"５２號之６","E_COORD97":184419.34,"N_COORD97":2580759.8500000001,"ADDRESS":"下寮５２號之６","OBJECTID":339603},"geometry":{"x":184419.34000000078,"y":2580759.8500000034}},{"attributes":{"ID":339613,"DIS_CODE":0,"TOWNNAME":"後壁區","LI":"福安里","LIN":"5鄰","STREET":" ","SECT":" ","MAREA":"下寮","LANE":" ","ALLEY":" ","HOUSE_NO":"５２號之７","E_COORD97":184468.73999999999,"N_COORD97":2580731.98,"ADDRESS":"下寮５２號之７","OBJECTID":339604},"geometry":{"x":184468.74000000209,"y":2580731.9800000004}},{"attributes":{"ID":339614,"DIS_CODE":0,"TOWNNAME":"後壁區","LI":"嘉苳里","LIN":"5鄰","STREET":" ","SECT":" ","MAREA":"下茄苳","LANE":" ","ALLEY":" ","HOUSE_NO":"５８號之１１","E_COORD97":185002.89999999999,"N_COORD97":2583163.2599999998,"ADDRESS":"下茄苳５８號之１１","OBJECTID":339605},"geometry":{"x":185002.90000000037,"y":2583163.2599999998}},{"attributes":{"ID":339615,"DIS_CODE":0,"TOWNNAME":"北區","LI":"成功里","LIN":"1鄰","STREET":"北安路","SECT":"一段","MAREA":" ","LANE":"９４巷","ALLEY":" ","HOUSE_NO":"２號","E_COORD97":169085.29999999999,"N_COORD97":2546359.0800000001,"ADDRESS":"北安路一段９４巷２號","OBJECTID":339606},"geometry":{"x":169085.29999999981,"y":2546359.0800000001}},{"attributes":{"ID":339616,"DIS_CODE":0,"TOWNNAME":"北區","LI":"成功里","LIN":"1鄰","STREET":"北安路","SECT":"一段","MAREA":" ","LANE":"９４巷","ALLEY":" ","HOUSE_NO":"３０號","E_COORD97":169141.66,"N_COORD97":2546432.2000000002,"ADDRESS":"北安路一段９４巷３０號","OBJECTID":339607},"geometry":{"x":169141.66000000108,"y":2546432.1999999993}},{"attributes":{"ID":339617,"DIS_CODE":0,"TOWNNAME":"後壁區","LI":"嘉苳里","LIN":"5鄰","STREET":" ","SECT":" ","MAREA":"下茄苳","LANE":" ","ALLEY":" ","HOUSE_NO":"５８號之１２","E_COORD97":184998.47,"N_COORD97":2583160.8799999999,"ADDRESS":"下茄苳５８號之１２","OBJECTID":339608},"geometry":{"x":184998.46999999974,"y":2583160.879999999}},{"attributes":{"ID":339618,"DIS_CODE":0,"TOWNNAME":"北區","LI":"成功里","LIN":"1鄰","STREET":"北安路","SECT":"一段","MAREA":" ","LANE":"９４巷","ALLEY":" ","HOUSE_NO":"３２號","E_COORD97":169146,"N_COORD97":2546436.0499999998,"ADDRESS":"北安路一段９４巷３２號","OBJECTID":339609},"geometry":{"x":169146.00000000093,"y":2546436.0500000026}},{"attributes":{"ID":339619,"DIS_CODE":0,"TOWNNAME":"永康區","LI":"\u25A0行里","LIN":"42鄰","STREET":"永安二街","SECT":" ","MAREA":" ","LANE":"２５巷","ALLEY":" ","HOUSE_NO":"２９號","E_COORD97":172471.51999999999,"N_COORD97":2549563.5699999998,"ADDRESS":"永安二街２５巷２９號","OBJECTID":339610},"geometry":{"x":172471.52000000048,"y":2549563.5700000003}},{"attributes":{"ID":339620,"DIS_CODE":0,"TOWNNAME":"北區","LI":"成功里","LIN":"1鄰","STREET":"北安路","SECT":"一段","MAREA":" ","LANE":"９４巷","ALLEY":" ","HOUSE_NO":"３４號","E_COORD97":169149.37,"N_COORD97":2546441.8199999998,"ADDRESS":"北安路一段９４巷３４號","OBJECTID":339611},"geometry":{"x":169149.37000000011,"y":2546441.8200000003}},{"attributes":{"ID":339621,"DIS_CODE":0,"TOWNNAME":"北區","LI":"成功里","LIN":"1鄰","STREET":"北安路","SECT":"一段","MAREA":" ","LANE":"９４巷","ALLEY":" ","HOUSE_NO":"３６號","E_COORD97":169154.67000000001,"N_COORD97":2546446.1499999999,"ADDRESS":"北安路一段９４巷３６號","OBJECTID":339612},"geometry":{"x":169154.67000000179,"y":2546446.1500000004}},{"attributes":{"ID":339622,"DIS_CODE":0,"TOWNNAME":"新市區","LI":"永就里","LIN":"8鄰","STREET":"中華路","SECT":" ","MAREA":" ","LANE":" ","ALLEY":" ","HOUSE_NO":"１１０號","E_COORD97":177665.45000000001,"N_COORD97":2551602.25,"ADDRESS":"中華路１１０號","OBJECTID":339613},"geometry":{"x":177665.45000000019,"y":2551602.25}},{"attributes":{"ID":339623,"DIS_CODE":0,"TOWNNAME":"後壁區","LI":"嘉苳里","LIN":"5鄰","STREET":" ","SECT":" ","MAREA":"下茄苳","LANE":" ","ALLEY":" ","HOUSE_NO":"６２號之３","E_COORD97":184992.01999999999,"N_COORD97":2583333.1200000001,"ADDRESS":"下茄苳６２號之３","OBJECTID":339614},"geometry":{"x":184992.02000000048,"y":2583333.1200000029}},{"attributes":{"ID":339624,"DIS_CODE":0,"TOWNNAME":"後壁區","LI":"嘉田里","LIN":"5鄰","STREET":" ","SECT":" ","MAREA":"上茄苳","LANE":" ","ALLEY":" ","HOUSE_NO":"４２號之５","E_COORD97":186817.64999999999,"N_COORD97":2587119.5299999998,"ADDRESS":"上茄苳４２號之５","OBJECTID":339615},"geometry":{"x":186817.6500000013,"y":2587119.5300000012}},{"attributes":{"ID":339625,"DIS_CODE":0,"TOWNNAME":"後壁區","LI":"土溝里","LIN":"5鄰","STREET":" ","SECT":" ","MAREA":"土溝","LANE":" ","ALLEY":" ","HOUSE_NO":"４５號之２","E_COORD97":186830,"N_COORD97":2585591.29,"ADDRESS":"土溝４５號之２","OBJECTID":339616},"geometry":{"x":186830.00000000186,"y":2585591.290000001}},{"attributes":{"ID":339626,"DIS_CODE":0,"TOWNNAME":"後壁區","LI":"土溝里","LIN":"5鄰","STREET":" ","SECT":" ","MAREA":"土溝","LANE":" ","ALLEY":" ","HOUSE_NO":"４５號之３","E_COORD97":186831.76999999999,"N_COORD97":2585623.8599999999,"ADDRESS":"土溝４５號之３","OBJECTID":339617},"geometry":{"x":186831.77000000048,"y":2585623.8599999994}},{"attributes":{"ID":339627,"DIS_CODE":0,"TOWNNAME":"後壁區","LI":"土溝里","LIN":"5鄰","STREET":" ","SECT":" ","MAREA":"土溝","LANE":" ","ALLEY":" ","HOUSE_NO":"４５號之５","E_COORD97":186832.06,"N_COORD97":2585580.5,"ADDRESS":"土溝４５號之５","OBJECTID":339618},"geometry":{"x":186832.05999999959,"y":2585580.5000000019}},{"attributes":{"ID":339628,"DIS_CODE":0,"TOWNNAME":"後壁區","LI":"土溝里","LIN":"5鄰","STREET":" ","SECT":" ","MAREA":"土溝","LANE":" ","ALLEY":" ","HOUSE_NO":"４６號之１０","E_COORD97":186907.22,"N_COORD97":2585504.1699999999,"ADDRESS":"土溝４６號之１０","OBJECTID":339619},"geometry":{"x":186907.21999999974,"y":2585504.1700000037}},{"attributes":{"ID":339629,"DIS_CODE":0,"TOWNNAME":"東區","LI":"關聖里","LIN":"5鄰","STREET":"裕農路","SECT":" ","MAREA":" ","LANE":"６６８巷","ALLEY":" ","HOUSE_NO":"３０號","E_COORD97":171730.79999999999,"N_COORD97":2543060.7200000002,"ADDRESS":"裕農路６６８巷３０號","OBJECTID":339620},"geometry":{"x":171730.80000000075,"y":2543060.7200000044}},{"attributes":{"ID":339630,"DIS_CODE":0,"TOWNNAME":"後壁區","LI":"土溝里","LIN":"5鄰","STREET":" ","SECT":" ","MAREA":"土溝","LANE":" ","ALLEY":" ","HOUSE_NO":"４６號之５","E_COORD97":186924.44,"N_COORD97":2585538.7799999998,"ADDRESS":"土溝４６號之５","OBJECTID":339621},"geometry":{"x":186924.44000000134,"y":2585538.7799999993}},{"attributes":{"ID":339631,"DIS_CODE":0,"TOWNNAME":"東區","LI":"崇善里","LIN":"5鄰","STREET":"崇善五街","SECT":" ","MAREA":" ","LANE":"６８巷","ALLEY":" ","HOUSE_NO":"１４號","E_COORD97":171149.5,"N_COORD97":2541570.71,"ADDRESS":"崇善五街６８巷１４號","OBJECTID":339622},"geometry":{"x":171149.50000000186,"y":2541570.7100000028}},{"attributes":{"ID":339632,"DIS_CODE":0,"TOWNNAME":"新市區","LI":"永就里","LIN":"8鄰","STREET":"中華路","SECT":" ","MAREA":" ","LANE":" ","ALLEY":" ","HOUSE_NO":"７０號","E_COORD97":177601.35000000001,"N_COORD97":2551661.25,"ADDRESS":"中華路７０號","OBJECTID":339623},"geometry":{"x":177601.34999999963,"y":2551661.2500000037}},{"attributes":{"ID":339633,"DIS_CODE":0,"TOWNNAME":"安南區","LI":"總頭里","LIN":"8鄰","STREET":"長溪路","SECT":"二段","MAREA":" ","LANE":" ","ALLEY":" ","HOUSE_NO":"６３２號","E_COORD97":168217.48000000001,"N_COORD97":2550792.3799999999,"ADDRESS":"長溪路二段６３２號","OBJECTID":339624},"geometry":{"x":168217.48000000138,"y":2550792.3800000008}},{"attributes":{"ID":339634,"DIS_CODE":0,"TOWNNAME":"後壁區","LI":"新嘉里","LIN":"5鄰","STREET":" ","SECT":" ","MAREA":"白沙屯","LANE":" ","ALLEY":" ","HOUSE_NO":"５２號","E_COORD97":179622.73000000001,"N_COORD97":2585756.3399999999,"ADDRESS":"白沙屯５２號","OBJECTID":339625},"geometry":{"x":179622.73000000138,"y":2585756.3399999999}},{"attributes":{"ID":339635,"DIS_CODE":0,"TOWNNAME":"後壁區","LI":"新嘉里","LIN":"5鄰","STREET":" ","SECT":" ","MAREA":"白沙屯","LANE":" ","ALLEY":" ","HOUSE_NO":"５４號","E_COORD97":179628.91,"N_COORD97":2585808.1800000002,"ADDRESS":"白沙屯５４號","OBJECTID":339626},"geometry":{"x":179628.91000000015,"y":2585808.1799999997}},{"attributes":{"ID":339636,"DIS_CODE":0,"TOWNNAME":"後壁區","LI":"新嘉里","LIN":"5鄰","STREET":" ","SECT":" ","MAREA":"白沙屯","LANE":" ","ALLEY":" ","HOUSE_NO":"５６號","E_COORD97":179614.01000000001,"N_COORD97":2585788.8300000001,"ADDRESS":"白沙屯５６號","OBJECTID":339627},"geometry":{"x":179614.00999999978,"y":2585788.8300000019}},{"attributes":{"ID":339637,"DIS_CODE":0,"TOWNNAME":"後壁區","LI":"新嘉里","LIN":"5鄰","STREET":" ","SECT":" ","MAREA":"白沙屯","LANE":" ","ALLEY":" ","HOUSE_NO":"５８號","E_COORD97":179608.76000000001,"N_COORD97":2585806.7999999998,"ADDRESS":"白沙屯５８號","OBJECTID":339628},"geometry":{"x":179608.76000000071,"y":2585806.8000000026}},{"attributes":{"ID":339638,"DIS_CODE":0,"TOWNNAME":"後壁區","LI":"新嘉里","LIN":"5鄰","STREET":" ","SECT":" ","MAREA":"白沙屯","LANE":" ","ALLEY":" ","HOUSE_NO":"５９號","E_COORD97":179643.62,"N_COORD97":2585794.3599999999,"ADDRESS":"白沙屯５９號","OBJECTID":339629},"geometry":{"x":179643.62000000104,"y":2585794.3600000013}},{"attributes":{"ID":339639,"DIS_CODE":0,"TOWNNAME":"仁德區","LI":"新田里","LIN":"5鄰","STREET":"勝利二街","SECT":" ","MAREA":" ","LANE":"１９巷","ALLEY":" ","HOUSE_NO":"８號","E_COORD97":174917.20000000001,"N_COORD97":2539334.5,"ADDRESS":"勝利二街１９巷８號","OBJECTID":339630},"geometry":{"x":174917.20000000112,"y":2539334.5}},{"attributes":{"ID":339640,"DIS_CODE":0,"TOWNNAME":"仁德區","LI":"保安里","LIN":"5鄰","STREET":"中正路","SECT":"一段","MAREA":" ","LANE":"１８２巷","ALLEY":" ","HOUSE_NO":"１７號","E_COORD97":171601.37,"N_COORD97":2535715.77,"ADDRESS":"中正路一段１８２巷１７號","OBJECTID":339631},"geometry":{"x":171601.37000000197,"y":2535715.7700000033}},{"attributes":{"ID":339641,"DIS_CODE":0,"TOWNNAME":"仁德區","LI":"後壁里","LIN":"5鄰","STREET":"德善路","SECT":" ","MAREA":" ","LANE":"１３９巷","ALLEY":" ","HOUSE_NO":"９號","E_COORD97":173453.03,"N_COORD97":2538907.7599999998,"ADDRESS":"德善路１３９巷９號","OBJECTID":339632},"geometry":{"x":173453.03000000026,"y":2538907.7600000016}},{"attributes":{"ID":339642,"DIS_CODE":0,"TOWNNAME":"仁德區","LI":"成功里","LIN":"5鄰","STREET":"成功三街","SECT":" ","MAREA":" ","LANE":"１３巷","ALLEY":" ","HOUSE_NO":"１號","E_COORD97":171178.29000000001,"N_COORD97":2540011.02,"ADDRESS":"成功三街１３巷１號","OBJECTID":339633},"geometry":{"x":171178.29000000097,"y":2540011.0200000014}},{"attributes":{"ID":339643,"DIS_CODE":0,"TOWNNAME":"仁德區","LI":"保安里","LIN":"5鄰","STREET":"中正路","SECT":"一段","MAREA":" ","LANE":"１８２巷","ALLEY":" ","HOUSE_NO":"２５號","E_COORD97":171616.13,"N_COORD97":2535708.27,"ADDRESS":"中正路一段１８２巷２５號","OBJECTID":339634},"geometry":{"x":171616.12999999896,"y":2535708.2699999996}},{"attributes":{"ID":339644,"DIS_CODE":0,"TOWNNAME":"安南區","LI":"理想里","LIN":"5鄰","STREET":"海佃路","SECT":"二段","MAREA":" ","LANE":"３４２巷","ALLEY":" ","HOUSE_NO":"３１號","E_COORD97":166944.63,"N_COORD97":2548561.4199999999,"ADDRESS":"海佃路二段３４２巷３１號","OBJECTID":339635},"geometry":{"x":166944.63000000082,"y":2548561.4200000018}},{"attributes":{"ID":339645,"DIS_CODE":0,"TOWNNAME":"北區","LI":"成功里","LIN":"1鄰","STREET":"北安路","SECT":"一段","MAREA":" ","LANE":"９４巷","ALLEY":" ","HOUSE_NO":"６號","E_COORD97":169092.53,"N_COORD97":2546369.1800000002,"ADDRESS":"北安路一段９４巷６號","OBJECTID":339636},"geometry":{"x":169092.53000000026,"y":2546369.1800000016}},{"attributes":{"ID":339646,"DIS_CODE":0,"TOWNNAME":"安南區","LI":"理想里","LIN":"5鄰","STREET":"海佃路","SECT":"二段","MAREA":" ","LANE":"３４２巷","ALLEY":" ","HOUSE_NO":"３３號","E_COORD97":166948.35999999999,"N_COORD97":2548557.3700000001,"ADDRESS":"海佃路二段３４２巷３３號","OBJECTID":339637},"geometry":{"x":166948.3600000022,"y":2548557.3700000029}},{"attributes":{"ID":339647,"DIS_CODE":0,"TOWNNAME":"安南區","LI":"理想里","LIN":"5鄰","STREET":"海佃路","SECT":"二段","MAREA":" ","LANE":"３４２巷","ALLEY":" ","HOUSE_NO":"３５號","E_COORD97":166953.07000000001,"N_COORD97":2548554.54,"ADDRESS":"海佃路二段３４２巷３５號","OBJECTID":339638},"geometry":{"x":166953.0700000003,"y":2548554.5399999991}},{"attributes":{"ID":339648,"DIS_CODE":0,"TOWNNAME":"安南區","LI":"理想里","LIN":"5鄰","STREET":"海佃路","SECT":"二段","MAREA":" ","LANE":"３４２巷","ALLEY":" ","HOUSE_NO":"３７號","E_COORD97":166955,"N_COORD97":2548549.8399999999,"ADDRESS":"海佃路二段３４２巷３７號","OBJECTID":339639},"geometry":{"x":166955,"y":2548549.8399999999}},{"attributes":{"ID":339649,"DIS_CODE":0,"TOWNNAME":"北區","LI":"成功里","LIN":"1鄰","STREET":"北安路","SECT":"一段","MAREA":" ","LANE":"９４巷","ALLEY":" ","HOUSE_NO":"３８號","E_COORD97":169158.04000000001,"N_COORD97":2546450.48,"ADDRESS":"北安路一段９４巷３８號","OBJECTID":339640},"geometry":{"x":169158.04000000097,"y":2546450.4800000023}},{"attributes":{"ID":339650,"DIS_CODE":0,"TOWNNAME":"北區","LI":"成功里","LIN":"1鄰","STREET":"北安路","SECT":"一段","MAREA":" ","LANE":"９４巷","ALLEY":" ","HOUSE_NO":"４０號","E_COORD97":169163.34,"N_COORD97":2546455.7599999998,"ADDRESS":"北安路一段９４巷４０號","OBJECTID":339641},"geometry":{"x":169163.33999999985,"y":2546455.7599999998}},{"attributes":{"ID":339651,"DIS_CODE":0,"TOWNNAME":"北區","LI":"成功里","LIN":"1鄰","STREET":"北安路","SECT":"一段","MAREA":" ","LANE":"９４巷","ALLEY":" ","HOUSE_NO":"４２號","E_COORD97":169164.29999999999,"N_COORD97":2546462.0299999998,"ADDRESS":"北安路一段９４巷４２號","OBJECTID":339642},"geometry":{"x":169164.30000000075,"y":2546462.0300000012}},{"attributes":{"ID":339652,"DIS_CODE":0,"TOWNNAME":"北區","LI":"成功里","LIN":"1鄰","STREET":"北安路","SECT":"一段","MAREA":" ","LANE":"９４巷","ALLEY":" ","HOUSE_NO":"４４號","E_COORD97":169169.60000000001,"N_COORD97":2546466.3599999999,"ADDRESS":"北安路一段９４巷４４號","OBJECTID":339643},"geometry":{"x":169169.59999999963,"y":2546466.3600000013}},{"attributes":{"ID":339653,"DIS_CODE":0,"TOWNNAME":"北區","LI":"成功里","LIN":"1鄰","STREET":"北安路","SECT":"一段","MAREA":" ","LANE":"９４巷","ALLEY":" ","HOUSE_NO":"４６號","E_COORD97":169172.97,"N_COORD97":2546471.1699999999,"ADDRESS":"北安路一段９４巷４６號","OBJECTID":339644},"geometry":{"x":169172.97000000067,"y":2546471.1700000018}},{"attributes":{"ID":339654,"DIS_CODE":0,"TOWNNAME":"安南區","LI":"城中里","LIN":"8鄰","STREET":"青砂街","SECT":"一段","MAREA":" ","LANE":" ","ALLEY":" ","HOUSE_NO":"６２號","E_COORD97":160677.48000000001,"N_COORD97":2551526.8500000001,"ADDRESS":"青砂街一段６２號","OBJECTID":339645},"geometry":{"x":160677.48000000138,"y":2551526.8499999996}},{"attributes":{"ID":339655,"DIS_CODE":0,"TOWNNAME":"佳里區","LI":"六安里","LIN":"8鄰","STREET":"六合街","SECT":" ","MAREA":" ","LANE":" ","ALLEY":" ","HOUSE_NO":"２８號","E_COORD97":165990.35999999999,"N_COORD97":2562886.52,"ADDRESS":"六合街２８號","OBJECTID":339646},"geometry":{"x":165990.36000000034,"y":2562886.5199999996}},{"attributes":{"ID":339656,"DIS_CODE":0,"TOWNNAME":"永康區","LI":"西勢里","LIN":"8鄰","STREET":"富強路","SECT":"一段","MAREA":" ","LANE":" ","ALLEY":" ","HOUSE_NO":"２９６號","E_COORD97":175739,"N_COORD97":2546631.5299999998,"ADDRESS":"富強路一段２９６號","OBJECTID":339647},"geometry":{"x":175739.00000000093,"y":2546631.5300000012}},{"attributes":{"ID":339657,"DIS_CODE":0,"TOWNNAME":"永康區","LI":"東灣里","LIN":"8鄰","STREET":"大灣路","SECT":" ","MAREA":" ","LANE":" ","ALLEY":" ","HOUSE_NO":"４５８號","E_COORD97":174746,"N_COORD97":2544935.4900000002,"ADDRESS":"大灣路４５８號","OBJECTID":339648},"geometry":{"x":174746,"y":2544935.4900000002}},{"attributes":{"ID":339658,"DIS_CODE":0,"TOWNNAME":"永康區","LI":"南灣里","LIN":"8鄰","STREET":"南興路","SECT":" ","MAREA":" ","LANE":" ","ALLEY":" ","HOUSE_NO":"２６號","E_COORD97":174213.66,"N_COORD97":2543942.25,"ADDRESS":"南興路２６號","OBJECTID":339649},"geometry":{"x":174213.66000000108,"y":2543942.2500000019}},{"attributes":{"ID":339659,"DIS_CODE":0,"TOWNNAME":"永康區","LI":"南灣里","LIN":"8鄰","STREET":"南興路","SECT":" ","MAREA":" ","LANE":" ","ALLEY":" ","HOUSE_NO":"２８號","E_COORD97":174190.69,"N_COORD97":2543951,"ADDRESS":"南興路２８號","OBJECTID":339650},"geometry":{"x":174190.69000000041,"y":2543951.0000000019}},{"attributes":{"ID":339660,"DIS_CODE":0,"TOWNNAME":"永康區","LI":"南灣里","LIN":"8鄰","STREET":"南興路","SECT":" ","MAREA":" ","LANE":" ","ALLEY":" ","HOUSE_NO":"３８號","E_COORD97":174228.64000000001,"N_COORD97":2544080.98,"ADDRESS":"南興路３８號","OBJECTID":339651},"geometry":{"x":174228.6400000006,"y":2544080.9800000004}},{"attributes":{"ID":339661,"DIS_CODE":0,"TOWNNAME":"永康區","LI":"南灣里","LIN":"8鄰","STREET":"南興路","SECT":" ","MAREA":" ","LANE":" ","ALLEY":" ","HOUSE_NO":"１０號","E_COORD97":174189.17000000001,"N_COORD97":2543892.9900000002,"ADDRESS":"南興路１０號","OBJECTID":339652},"geometry":{"x":174189.16999999993,"y":2543892.9900000021}},{"attributes":{"ID":339662,"DIS_CODE":0,"TOWNNAME":"永康區","LI":"東灣里","LIN":"8鄰","STREET":"大灣路","SECT":" ","MAREA":" ","LANE":" ","ALLEY":" ","HOUSE_NO":"４６０號","E_COORD97":174741.14999999999,"N_COORD97":2544930.7400000002,"ADDRESS":"大灣路４６０號","OBJECTID":339653},"geometry":{"x":174741.1500000013,"y":2544930.7400000002}},{"attributes":{"ID":339663,"DIS_CODE":0,"TOWNNAME":"永康區","LI":"南灣里","LIN":"8鄰","STREET":"南興路","SECT":" ","MAREA":" ","LANE":" ","ALLEY":" ","HOUSE_NO":"７８號","E_COORD97":174266.44,"N_COORD97":2544252.9100000001,"ADDRESS":"南興路７８號","OBJECTID":339654},"geometry":{"x":174266.44000000134,"y":2544252.910000002}},{"attributes":{"ID":339664,"DIS_CODE":0,"TOWNNAME":"安南區","LI":"理想里","LIN":"5鄰","STREET":"海佃路","SECT":"二段","MAREA":" ","LANE":"３４２巷","ALLEY":" ","HOUSE_NO":"４１號","E_COORD97":166965.79999999999,"N_COORD97":2548544.4399999999,"ADDRESS":"海佃路二段３４２巷４１號","OBJECTID":339655},"geometry":{"x":166965.80000000075,"y":2548544.4400000013}},{"attributes":{"ID":339665,"DIS_CODE":0,"TOWNNAME":"安南區","LI":"理想里","LIN":"5鄰","STREET":"海佃路","SECT":"二段","MAREA":" ","LANE":"３４２巷","ALLEY":" ","HOUSE_NO":"４５號","E_COORD97":166974.75,"N_COORD97":2548537.6200000001,"ADDRESS":"海佃路二段３４２巷４５號","OBJECTID":339656},"geometry":{"x":166974.75000000093,"y":2548537.6200000029}},{"attributes":{"ID":339666,"DIS_CODE":0,"TOWNNAME":"安南區","LI":"理想里","LIN":"5鄰","STREET":"海佃路","SECT":"二段","MAREA":" ","LANE":"３４２巷","ALLEY":" ","HOUSE_NO":"４９號","E_COORD97":166984.20999999999,"N_COORD97":2548529.04,"ADDRESS":"海佃路二段３４２巷４９號","OBJECTID":339657},"geometry":{"x":166984.20999999996,"y":2548529.0400000028}},{"attributes":{"ID":339667,"DIS_CODE":0,"TOWNNAME":"安南區","LI":"理想里","LIN":"5鄰","STREET":"海佃路","SECT":"二段","MAREA":" ","LANE":"３４２巷","ALLEY":" ","HOUSE_NO":"５１號","E_COORD97":166987.17000000001,"N_COORD97":2548526.0099999998,"ADDRESS":"海佃路二段３４２巷５１號","OBJECTID":339658},"geometry":{"x":166987.17000000086,"y":2548526.0099999998}},{"attributes":{"ID":339668,"DIS_CODE":0,"TOWNNAME":"安南區","LI":"理想里","LIN":"5鄰","STREET":"海佃路","SECT":"二段","MAREA":" ","LANE":"３４２巷","ALLEY":" ","HOUSE_NO":"５３號","E_COORD97":166990.97,"N_COORD97":2548522.8599999999,"ADDRESS":"海佃路二段３４２巷５３號","OBJECTID":339659},"geometry":{"x":166990.9700000016,"y":2548522.8599999994}},{"attributes":{"ID":339669,"DIS_CODE":0,"TOWNNAME":"安南區","LI":"理想里","LIN":"5鄰","STREET":"海佃路","SECT":"二段","MAREA":" ","LANE":"３４２巷","ALLEY":" ","HOUSE_NO":"５５號","E_COORD97":166994.89000000001,"N_COORD97":2548521.3199999998,"ADDRESS":"海佃路二段３４２巷５５號","OBJECTID":339660},"geometry":{"x":166994.89000000153,"y":2548521.320000004}},{"attributes":{"ID":339670,"DIS_CODE":0,"TOWNNAME":"安南區","LI":"理想里","LIN":"5鄰","STREET":"海佃路","SECT":"二段","MAREA":" ","LANE":"３４２巷","ALLEY":" ","HOUSE_NO":"５９號","E_COORD97":167005.14000000001,"N_COORD97":2548513.21,"ADDRESS":"海佃路二段３４２巷５９號","OBJECTID":339661},"geometry":{"x":167005.14000000153,"y":2548513.2100000028}},{"attributes":{"ID":339671,"DIS_CODE":0,"TOWNNAME":"安南區","LI":"理想里","LIN":"5鄰","STREET":"海佃路","SECT":"二段","MAREA":" ","LANE":"３４２巷","ALLEY":" ","HOUSE_NO":"６１號","E_COORD97":167008.92999999999,"N_COORD97":2548510.77,"ADDRESS":"海佃路二段３４２巷６１號","OBJECTID":339662},"geometry":{"x":167008.93000000063,"y":2548510.7700000033}},{"attributes":{"ID":339672,"DIS_CODE":0,"TOWNNAME":"安南區","LI":"理想里","LIN":"5鄰","STREET":"海佃路","SECT":"二段","MAREA":" ","LANE":"３４２巷","ALLEY":" ","HOUSE_NO":"６３號","E_COORD97":167012.54000000001,"N_COORD97":2548507.29,"ADDRESS":"海佃路二段３４２巷６３號","OBJECTID":339663},"geometry":{"x":167012.54000000004,"y":2548507.290000001}},{"attributes":{"ID":339673,"DIS_CODE":0,"TOWNNAME":"北區","LI":"成功里","LIN":"1鄰","STREET":"北安路","SECT":"一段","MAREA":" ","LANE":"９４巷","ALLEY":" ","HOUSE_NO":"４８號","E_COORD97":169177.29999999999,"N_COORD97":2546476.46,"ADDRESS":"北安路一段９４巷４８號","OBJECTID":339664},"geometry":{"x":169177.30000000168,"y":2546476.459999999}},{"attributes":{"ID":339674,"DIS_CODE":0,"TOWNNAME":"北區","LI":"成功里","LIN":"1鄰","STREET":"北安路","SECT":"一段","MAREA":" ","LANE":"９４巷","ALLEY":" ","HOUSE_NO":"４號","E_COORD97":169089.16,"N_COORD97":2546364.3700000001,"ADDRESS":"北安路一段９４巷４號","OBJECTID":339665},"geometry":{"x":169089.16000000108,"y":2546364.370000001}},{"attributes":{"ID":339675,"DIS_CODE":0,"TOWNNAME":"北區","LI":"成功里","LIN":"1鄰","STREET":"北安路","SECT":"一段","MAREA":" ","LANE":"９４巷","ALLEY":" ","HOUSE_NO":"５０號","E_COORD97":169181.16,"N_COORD97":2546480.3100000001,"ADDRESS":"北安路一段９４巷５０號","OBJECTID":339666},"geometry":{"x":169181.16000000108,"y":2546480.3100000005}},{"attributes":{"ID":339676,"DIS_CODE":0,"TOWNNAME":"北區","LI":"成功里","LIN":"1鄰","STREET":"北安路","SECT":"一段","MAREA":" ","LANE":"９４巷","ALLEY":" ","HOUSE_NO":"５２號","E_COORD97":169186.45999999999,"N_COORD97":2546484.1600000001,"ADDRESS":"北安路一段９４巷５２號","OBJECTID":339667},"geometry":{"x":169186.45999999903,"y":2546484.1600000001}},{"attributes":{"ID":339677,"DIS_CODE":0,"TOWNNAME":"北區","LI":"成功里","LIN":"1鄰","STREET":"北安路","SECT":"一段","MAREA":" ","LANE":"９４巷","ALLEY":" ","HOUSE_NO":"８號","E_COORD97":169096.38,"N_COORD97":2546374.4700000002,"ADDRESS":"北安路一段９４巷８號","OBJECTID":339668},"geometry":{"x":169096.37999999989,"y":2546374.4699999988}},{"attributes":{"ID":339678,"DIS_CODE":0,"TOWNNAME":"鹽水區","LI":"三生里","LIN":"1鄰","STREET":"三福路","SECT":" ","MAREA":" ","LANE":"２４巷","ALLEY":" ","HOUSE_NO":"１１號","E_COORD97":175067.88,"N_COORD97":2580028.4100000001,"ADDRESS":"三福路２４巷１１號","OBJECTID":339669},"geometry":{"x":175067.88000000082,"y":2580028.410000002}},{"attributes":{"ID":339679,"DIS_CODE":0,"TOWNNAME":"鹽水區","LI":"三生里","LIN":"1鄰","STREET":"三福路","SECT":" ","MAREA":" ","LANE":"２４巷","ALLEY":" ","HOUSE_NO":"１２號","E_COORD97":175067.64000000001,"N_COORD97":2580033.4300000002,"ADDRESS":"三福路２４巷１２號","OBJECTID":339670},"geometry":{"x":175067.6400000006,"y":2580033.4299999978}},{"attributes":{"ID":339680,"DIS_CODE":0,"TOWNNAME":"鹽水區","LI":"三生里","LIN":"1鄰","STREET":"三福路","SECT":" ","MAREA":" ","LANE":"２４巷","ALLEY":" ","HOUSE_NO":"１３號","E_COORD97":175067.41,"N_COORD97":2580038.46,"ADDRESS":"三福路２４巷１３號","OBJECTID":339671},"geometry":{"x":175067.41000000015,"y":2580038.4600000028}},{"attributes":{"ID":339681,"DIS_CODE":0,"TOWNNAME":"鹽水區","LI":"三生里","LIN":"1鄰","STREET":"三福路","SECT":" ","MAREA":" ","LANE":"２４巷","ALLEY":" ","HOUSE_NO":"１４號","E_COORD97":175067.17999999999,"N_COORD97":2580043.48,"ADDRESS":"三福路２４巷１４號","OBJECTID":339672},"geometry":{"x":175067.18000000156,"y":2580043.4800000004}},{"attributes":{"ID":339682,"DIS_CODE":0,"TOWNNAME":"鹽水區","LI":"三生里","LIN":"1鄰","STREET":"三福路","SECT":" ","MAREA":" ","LANE":"２４巷","ALLEY":" ","HOUSE_NO":"１５號","E_COORD97":175066.95000000001,"N_COORD97":2580048.5,"ADDRESS":"三福路２４巷１５號","OBJECTID":339673},"geometry":{"x":175066.95000000019,"y":2580048.5000000019}},{"attributes":{"ID":339683,"DIS_CODE":0,"TOWNNAME":"鹽水區","LI":"三生里","LIN":"1鄰","STREET":"三福路","SECT":" ","MAREA":" ","LANE":"２４巷","ALLEY":" ","HOUSE_NO":"１６號","E_COORD97":175066.72,"N_COORD97":2580053.5299999998,"ADDRESS":"三福路２４巷１６號","OBJECTID":339674},"geometry":{"x":175066.71999999974,"y":2580053.5300000012}},{"attributes":{"ID":339684,"DIS_CODE":0,"TOWNNAME":"鹽水區","LI":"三生里","LIN":"1鄰","STREET":"三福路","SECT":" ","MAREA":" ","LANE":"２４巷","ALLEY":" ","HOUSE_NO":"１７號","E_COORD97":175066.48000000001,"N_COORD97":2580058.5499999998,"ADDRESS":"三福路２４巷１７號","OBJECTID":339675},"geometry":{"x":175066.48000000138,"y":2580058.5500000026}},{"attributes":{"ID":339685,"DIS_CODE":0,"TOWNNAME":"永康區","LI":"東灣里","LIN":"8鄰","STREET":"大灣路","SECT":" ","MAREA":" ","LANE":" ","ALLEY":" ","HOUSE_NO":"４４２號","E_COORD97":174757.59,"N_COORD97":2544961.5600000001,"ADDRESS":"大灣路４４２號","OBJECTID":339676},"geometry":{"x":174757.58999999892,"y":2544961.5600000024}},{"attributes":{"ID":339686,"DIS_CODE":0,"TOWNNAME":"永康區","LI":"南灣里","LIN":"8鄰","STREET":"南興路","SECT":" ","MAREA":" ","LANE":" ","ALLEY":" ","HOUSE_NO":"２０號之１","E_COORD97":174189.01000000001,"N_COORD97":2543940.5499999998,"ADDRESS":"南興路２０號之１","OBJECTID":339677},"geometry":{"x":174189.01000000071,"y":2543940.5500000026}},{"attributes":{"ID":339687,"DIS_CODE":0,"TOWNNAME":"永康區","LI":"東灣里","LIN":"8鄰","STREET":"大灣路","SECT":" ","MAREA":" ","LANE":" ","ALLEY":" ","HOUSE_NO":"４４８號","E_COORD97":174752.75,"N_COORD97":2544950.7999999998,"ADDRESS":"大灣路４４８號","OBJECTID":339678},"geometry":{"x":174752.75,"y":2544950.8000000007}},{"attributes":{"ID":339688,"DIS_CODE":0,"TOWNNAME":"永康區","LI":"東灣里","LIN":"8鄰","STREET":"大灣路","SECT":" ","MAREA":" ","LANE":" ","ALLEY":" ","HOUSE_NO":"４５６號","E_COORD97":174747.60999999999,"N_COORD97":2544938.9900000002,"ADDRESS":"大灣路４５６號","OBJECTID":339679},"geometry":{"x":174747.61000000034,"y":2544938.9900000002}},{"attributes":{"ID":339689,"DIS_CODE":0,"TOWNNAME":"永康區","LI":"南灣里","LIN":"8鄰","STREET":"大灣東路","SECT":" ","MAREA":" ","LANE":" ","ALLEY":" ","HOUSE_NO":"９０號","E_COORD97":174396.12,"N_COORD97":2544275,"ADDRESS":"大灣東路９０號","OBJECTID":339680},"geometry":{"x":174396.12000000011,"y":2544275.0000000037}},{"attributes":{"ID":339690,"DIS_CODE":0,"TOWNNAME":"永康區","LI":"南灣里","LIN":"8鄰","STREET":"南興路","SECT":" ","MAREA":" ","LANE":" ","ALLEY":" ","HOUSE_NO":"５０號","E_COORD97":174241.16,"N_COORD97":2544152,"ADDRESS":"南興路５０號","OBJECTID":339681},"geometry":{"x":174241.16000000108,"y":2544152}},{"attributes":{"ID":339691,"DIS_CODE":0,"TOWNNAME":"永康區","LI":"南灣里","LIN":"8鄰","STREET":"南興路","SECT":" ","MAREA":" ","LANE":" ","ALLEY":" ","HOUSE_NO":"５０號之９","E_COORD97":174237.17999999999,"N_COORD97":2544123.29,"ADDRESS":"南興路５０號之９","OBJECTID":339682},"geometry":{"x":174237.18000000063,"y":2544123.2900000028}},{"attributes":{"ID":339692,"DIS_CODE":0,"TOWNNAME":"永康區","LI":"南灣里","LIN":"8鄰","STREET":"大灣東路","SECT":" ","MAREA":" ","LANE":" ","ALLEY":" ","HOUSE_NO":"７８號","E_COORD97":174359.92999999999,"N_COORD97":2544337.25,"ADDRESS":"大灣東路７８號","OBJECTID":339683},"geometry":{"x":174359.9299999997,"y":2544337.25}},{"attributes":{"ID":339693,"DIS_CODE":0,"TOWNNAME":"永康區","LI":"南灣里","LIN":"8鄰","STREET":"大灣東路","SECT":" ","MAREA":" ","LANE":" ","ALLEY":" ","HOUSE_NO":"９２號","E_COORD97":174389.23999999999,"N_COORD97":2544293.9900000002,"ADDRESS":"大灣東路９２號","OBJECTID":339684},"geometry":{"x":174389.24000000209,"y":2544293.9900000021}},{"attributes":{"ID":339694,"DIS_CODE":0,"TOWNNAME":"永康區","LI":"南灣里","LIN":"8鄰","STREET":"南興路","SECT":" ","MAREA":" ","LANE":" ","ALLEY":" ","HOUSE_NO":"５０號之１０","E_COORD97":174236.60000000001,"N_COORD97":2544115.29,"ADDRESS":"南興路５０號之１０","OBJECTID":339685},"geometry":{"x":174236.59999999963,"y":2544115.2899999991}},{"attributes":{"ID":339695,"DIS_CODE":0,"TOWNNAME":"永康區","LI":"南灣里","LIN":"8鄰","STREET":"大灣東路","SECT":" ","MAREA":" ","LANE":" ","ALLEY":" ","HOUSE_NO":"９６號","E_COORD97":174381.97,"N_COORD97":2544315.7400000002,"ADDRESS":"大灣東路９６號","OBJECTID":339686},"geometry":{"x":174381.9700000016,"y":2544315.7400000021}},{"attributes":{"ID":339696,"DIS_CODE":0,"TOWNNAME":"永康區","LI":"中興里","LIN":"5鄰","STREET":"中華路","SECT":" ","MAREA":" ","LANE":"２１４巷","ALLEY":" ","HOUSE_NO":"８號","E_COORD97":171720.59,"N_COORD97":2545048.2400000002,"ADDRESS":"中華路２１４巷８號","OBJECTID":339687},"geometry":{"x":171720.59000000078,"y":2545048.2400000021}},{"attributes":{"ID":339697,"DIS_CODE":0,"TOWNNAME":"永康區","LI":"大灣里","LIN":"5鄰","STREET":"大同街","SECT":" ","MAREA":" ","LANE":"１５３巷","ALLEY":" ","HOUSE_NO":"１６號","E_COORD97":174795.10000000001,"N_COORD97":2545615.3999999999,"ADDRESS":"大同街１５３巷１６號","OBJECTID":339688},"geometry":{"x":174795.10000000056,"y":2545615.4000000041}},{"attributes":{"ID":339698,"DIS_CODE":0,"TOWNNAME":"永康區","LI":"大灣里","LIN":"5鄰","STREET":"大同街","SECT":" ","MAREA":" ","LANE":"１５３巷","ALLEY":" ","HOUSE_NO":"２號","E_COORD97":174835.39999999999,"N_COORD97":2545595.04,"ADDRESS":"大同街１５３巷２號","OBJECTID":339689},"geometry":{"x":174835.40000000037,"y":2545595.0399999991}},{"attributes":{"ID":339699,"DIS_CODE":0,"TOWNNAME":"永康區","LI":"大橋里","LIN":"5鄰","STREET":"大橋三街","SECT":" ","MAREA":" ","LANE":"１９９巷","ALLEY":" ","HOUSE_NO":"７號之３","E_COORD97":170816.17000000001,"N_COORD97":2546814.3100000001,"ADDRESS":"大橋三街１９９巷７號之３","OBJECTID":339690},"geometry":{"x":170816.17000000086,"y":2546814.3100000024}},{"attributes":{"ID":339700,"DIS_CODE":0,"TOWNNAME":"永康區","LI":"中興里","LIN":"5鄰","STREET":"中華路","SECT":" ","MAREA":" ","LANE":"２１４巷","ALLEY":" ","HOUSE_NO":"４６號","E_COORD97":171811.23000000001,"N_COORD97":2545055.7400000002,"ADDRESS":"中華路２１４巷４６號","OBJECTID":339691},"geometry":{"x":171811.23000000231,"y":2545055.7400000002}},{"attributes":{"ID":339701,"DIS_CODE":0,"TOWNNAME":"永康區","LI":"中興里","LIN":"5鄰","STREET":"中華路","SECT":" ","MAREA":" ","LANE":"２１４巷","ALLEY":" ","HOUSE_NO":"６８號","E_COORD97":171879.26999999999,"N_COORD97":2545059.27,"ADDRESS":"中華路２１４巷６８號","OBJECTID":339692},"geometry":{"x":171879.26999999862,"y":2545059.2700000033}},{"attributes":{"ID":339702,"DIS_CODE":0,"TOWNNAME":"永康區","LI":"中興里","LIN":"5鄰","STREET":"中華路","SECT":" ","MAREA":" ","LANE":"２１４巷","ALLEY":" ","HOUSE_NO":"５６號","E_COORD97":171826.76999999999,"N_COORD97":2545057.4900000002,"ADDRESS":"中華路２１４巷５６號","OBJECTID":339693},"geometry":{"x":171826.76999999862,"y":2545057.4900000002}},{"attributes":{"ID":339703,"DIS_CODE":0,"TOWNNAME":"鹽水區","LI":"三生里","LIN":"1鄰","STREET":"三福路","SECT":" ","MAREA":" ","LANE":"２４巷","ALLEY":" ","HOUSE_NO":"１８號","E_COORD97":175066.25,"N_COORD97":2580063.5699999998,"ADDRESS":"三福路２４巷１８號","OBJECTID":339694},"geometry":{"x":175066.25,"y":2580063.5699999984}},{"attributes":{"ID":339704,"DIS_CODE":0,"TOWNNAME":"鹽水區","LI":"三生里","LIN":"1鄰","STREET":"三福路","SECT":" ","MAREA":" ","LANE":"２４巷","ALLEY":" ","HOUSE_NO":"１９號","E_COORD97":175066.01999999999,"N_COORD97":2580068.6000000001,"ADDRESS":"三福路２４巷１９號","OBJECTID":339695},"geometry":{"x":175066.01999999955,"y":2580068.5999999996}},{"attributes":{"ID":339705,"DIS_CODE":0,"TOWNNAME":"鹽水區","LI":"武廟里","LIN":"1鄰","STREET":"三福路","SECT":" ","MAREA":" ","LANE":"２４巷","ALLEY":" ","HOUSE_NO":"１號之１","E_COORD97":175049.47,"N_COORD97":2580040.6400000001,"ADDRESS":"三福路２４巷１號之１","OBJECTID":339696},"geometry":{"x":175049.46999999974,"y":2580040.6400000025}},{"attributes":{"ID":339706,"DIS_CODE":0,"TOWNNAME":"鹽水區","LI":"武廟里","LIN":"1鄰","STREET":"三福路","SECT":" ","MAREA":" ","LANE":"２４巷","ALLEY":" ","HOUSE_NO":"１號之２","E_COORD97":175049.01999999999,"N_COORD97":2580044.8500000001,"ADDRESS":"三福路２４巷１號之２","OBJECTID":339697},"geometry":{"x":175049.01999999955,"y":2580044.8500000015}},{"attributes":{"ID":339707,"DIS_CODE":0,"TOWNNAME":"鹽水區","LI":"武廟里","LIN":"1鄰","STREET":"三福路","SECT":" ","MAREA":" ","LANE":"２４巷","ALLEY":" ","HOUSE_NO":"１號","E_COORD97":175050.09,"N_COORD97":2580035.71,"ADDRESS":"三福路２４巷１號","OBJECTID":339698},"geometry":{"x":175050.08999999985,"y":2580035.7100000009}},{"attributes":{"ID":339708,"DIS_CODE":0,"TOWNNAME":"鹽水區","LI":"三生里","LIN":"1鄰","STREET":"三福路","SECT":" ","MAREA":" ","LANE":"２４巷","ALLEY":" ","HOUSE_NO":"２０號","E_COORD97":175065.79000000001,"N_COORD97":2580073.6200000001,"ADDRESS":"三福路２４巷２０號","OBJECTID":339699},"geometry":{"x":175065.79000000097,"y":2580073.620000001}},{"attributes":{"ID":339709,"DIS_CODE":0,"TOWNNAME":"鹽水區","LI":"三生里","LIN":"1鄰","STREET":"三福路","SECT":" ","MAREA":" ","LANE":"２４巷","ALLEY":" ","HOUSE_NO":"２１號","E_COORD97":175065.54999999999,"N_COORD97":2580078.6400000001,"ADDRESS":"三福路２４巷２１號","OBJECTID":339700},"geometry":{"x":175065.55000000075,"y":2580078.6400000025}},{"attributes":{"ID":339710,"DIS_CODE":0,"TOWNNAME":"鹽水區","LI":"三生里","LIN":"1鄰","STREET":"三福路","SECT":" ","MAREA":" ","LANE":"２４巷","ALLEY":" ","HOUSE_NO":"２３號","E_COORD97":175065.09,"N_COORD97":2580088.6899999999,"ADDRESS":"三福路２４巷２３號","OBJECTID":339701},"geometry":{"x":175065.09000000078,"y":2580088.6899999995}},{"attributes":{"ID":339711,"DIS_CODE":0,"TOWNNAME":"鹽水區","LI":"武廟里","LIN":"1鄰","STREET":"三福路","SECT":" ","MAREA":" ","LANE":"２４巷","ALLEY":" ","HOUSE_NO":"２號之１","E_COORD97":175048.14000000001,"N_COORD97":2580059.1499999999,"ADDRESS":"三福路２４巷２號之１","OBJECTID":339702},"geometry":{"x":175048.13999999966,"y":2580059.1500000004}},{"attributes":{"ID":339712,"DIS_CODE":0,"TOWNNAME":"鹽水區","LI":"武廟里","LIN":"1鄰","STREET":"三福路","SECT":" ","MAREA":" ","LANE":"２４巷","ALLEY":" ","HOUSE_NO":"２號","E_COORD97":175048.26000000001,"N_COORD97":2580053.8999999999,"ADDRESS":"三福路２４巷２號","OBJECTID":339703},"geometry":{"x":175048.26000000071,"y":2580053.9000000004}},{"attributes":{"ID":339713,"DIS_CODE":0,"TOWNNAME":"鹽水區","LI":"武廟里","LIN":"1鄰","STREET":"三福路","SECT":" ","MAREA":" ","LANE":"２４巷","ALLEY":" ","HOUSE_NO":"３號","E_COORD97":175045.92000000001,"N_COORD97":2580065.3999999999,"ADDRESS":"三福路２４巷３號","OBJECTID":339704},"geometry":{"x":175045.92000000086,"y":2580065.4000000022}},{"attributes":{"ID":339714,"DIS_CODE":0,"TOWNNAME":"鹽水區","LI":"武廟里","LIN":"1鄰","STREET":"三福路","SECT":" ","MAREA":" ","LANE":"２４巷","ALLEY":" ","HOUSE_NO":"４號","E_COORD97":175045.73000000001,"N_COORD97":2580070.21,"ADDRESS":"三福路２４巷４號","OBJECTID":339705},"geometry":{"x":175045.73000000138,"y":2580070.2100000046}},{"attributes":{"ID":339715,"DIS_CODE":0,"TOWNNAME":"鹽水區","LI":"武廟里","LIN":"1鄰","STREET":"三福路","SECT":" ","MAREA":" ","LANE":"２４巷","ALLEY":" ","HOUSE_NO":"５號","E_COORD97":175048.59,"N_COORD97":2580076.2599999998,"ADDRESS":"三福路２４巷５號","OBJECTID":339706},"geometry":{"x":175048.58999999985,"y":2580076.2600000016}},{"attributes":{"ID":339716,"DIS_CODE":0,"TOWNNAME":"鹽水區","LI":"武廟里","LIN":"1鄰","STREET":"三福路","SECT":" ","MAREA":" ","LANE":"２４巷","ALLEY":" ","HOUSE_NO":"６號","E_COORD97":175049.54000000001,"N_COORD97":2580081.7200000002,"ADDRESS":"三福路２４巷６號","OBJECTID":339707},"geometry":{"x":175049.54000000004,"y":2580081.7200000025}},{"attributes":{"ID":339717,"DIS_CODE":0,"TOWNNAME":"鹽水區","LI":"武廟里","LIN":"1鄰","STREET":"三福路","SECT":" ","MAREA":" ","LANE":"２４巷","ALLEY":" ","HOUSE_NO":"８號","E_COORD97":175048.25,"N_COORD97":2580094.3300000001,"ADDRESS":"三福路２４巷８號","OBJECTID":339708},"geometry":{"x":175048.25000000186,"y":2580094.3300000001}},{"attributes":{"ID":339718,"DIS_CODE":0,"TOWNNAME":"永康區","LI":"南灣里","LIN":"8鄰","STREET":"南興路","SECT":" ","MAREA":" ","LANE":" ","ALLEY":" ","HOUSE_NO":"７２號","E_COORD97":174261.42000000001,"N_COORD97":2544232.9199999999,"ADDRESS":"南興路７２號","OBJECTID":339709},"geometry":{"x":174261.41999999993,"y":2544232.9200000018}},{"attributes":{"ID":339719,"DIS_CODE":0,"TOWNNAME":"永康區","LI":"南灣里","LIN":"8鄰","STREET":"大灣東路","SECT":" ","MAREA":" ","LANE":" ","ALLEY":" ","HOUSE_NO":"１５８號","E_COORD97":174554.04000000001,"N_COORD97":2544400.0600000001,"ADDRESS":"大灣東路１５８號","OBJECTID":339710},"geometry":{"x":174554.04000000004,"y":2544400.0600000005}},{"attributes":{"ID":339720,"DIS_CODE":0,"TOWNNAME":"永康區","LI":"南灣里","LIN":"8鄰","STREET":"大灣東路","SECT":" ","MAREA":" ","LANE":" ","ALLEY":" ","HOUSE_NO":"５６號","E_COORD97":174323.62,"N_COORD97":2544333.75,"ADDRESS":"大灣東路５６號","OBJECTID":339711},"geometry":{"x":174323.62000000011,"y":2544333.75}},{"attributes":{"ID":339721,"DIS_CODE":0,"TOWNNAME":"佳里區","LI":"安西里","LIN":"8鄰","STREET":"民生街","SECT":" ","MAREA":" ","LANE":" ","ALLEY":" ","HOUSE_NO":"４號","E_COORD97":165625.32999999999,"N_COORD97":2562529.8500000001,"ADDRESS":"民生街４號","OBJECTID":339712},"geometry":{"x":165625.33000000007,"y":2562529.8500000015}},{"attributes":{"ID":339722,"DIS_CODE":0,"TOWNNAME":"佳里區","LI":"安西里","LIN":"8鄰","STREET":"民生街","SECT":" ","MAREA":" ","LANE":" ","ALLEY":" ","HOUSE_NO":"６號","E_COORD97":165625.51000000001,"N_COORD97":2562534.9300000002,"ADDRESS":"民生街６號","OBJECTID":339713},"geometry":{"x":165625.50999999978,"y":2562534.9299999997}},{"attributes":{"ID":339723,"DIS_CODE":0,"TOWNNAME":"安南區","LI":"國安里","LIN":"8鄰","STREET":"郡安路","SECT":"六段","MAREA":" ","LANE":" ","ALLEY":" ","HOUSE_NO":"１０７號","E_COORD97":166480,"N_COORD97":2547522.2599999998,"ADDRESS":"郡安路六段１０７號","OBJECTID":339714},"geometry":{"x":166480,"y":2547522.2600000016}},{"attributes":{"ID":339724,"DIS_CODE":0,"TOWNNAME":"安南區","LI":"國安里","LIN":"8鄰","STREET":"郡安路","SECT":"六段","MAREA":" ","LANE":" ","ALLEY":" ","HOUSE_NO":"１０８號","E_COORD97":166476.98999999999,"N_COORD97":2547517,"ADDRESS":"郡安路六段１０８號","OBJECTID":339715},"geometry":{"x":166476.99000000022,"y":2547517.0000000019}},{"attributes":{"ID":339725,"DIS_CODE":0,"TOWNNAME":"永康區","LI":"大橋里","LIN":"5鄰","STREET":"大橋五街","SECT":" ","MAREA":" ","LANE":" ","ALLEY":" ","HOUSE_NO":"２號","E_COORD97":170765.39999999999,"N_COORD97":2546837.4900000002,"ADDRESS":"大橋五街２號","OBJECTID":339716},"geometry":{"x":170765.40000000037,"y":2546837.4900000002}},{"attributes":{"ID":339726,"DIS_CODE":0,"TOWNNAME":"關廟區","LI":"五甲里","LIN":"1鄰","STREET":"旺萊路","SECT":" ","MAREA":" ","LANE":"１０１巷","ALLEY":" ","HOUSE_NO":"１８號","E_COORD97":181641.69,"N_COORD97":2539303.25,"ADDRESS":"旺萊路１０１巷１８號","OBJECTID":339717},"geometry":{"x":181641.69000000227,"y":2539303.2500000037}},{"attributes":{"ID":339727,"DIS_CODE":0,"TOWNNAME":"關廟區","LI":"下湖里","LIN":"1鄰","STREET":"關新路","SECT":"一段","MAREA":" ","LANE":"１３５巷","ALLEY":" ","HOUSE_NO":"１００號","E_COORD97":179346.29000000001,"N_COORD97":2542062.2999999998,"ADDRESS":"關新路一段１３５巷１００號","OBJECTID":339718},"geometry":{"x":179346.29000000004,"y":2542062.3000000007}},{"attributes":{"ID":339728,"DIS_CODE":0,"TOWNNAME":"關廟區","LI":"下湖里","LIN":"1鄰","STREET":"關新路","SECT":"一段","MAREA":" ","LANE":"１８２巷","ALLEY":" ","HOUSE_NO":"２５號","E_COORD97":179760.54000000001,"N_COORD97":2542319.2999999998,"ADDRESS":"關新路一段１８２巷２５號","OBJECTID":339719},"geometry":{"x":179760.54000000004,"y":2542319.3000000026}},{"attributes":{"ID":339729,"DIS_CODE":0,"TOWNNAME":"關廟區","LI":"松腳里","LIN":"1鄰","STREET":"松柏街","SECT":" ","MAREA":" ","LANE":"１９巷","ALLEY":" ","HOUSE_NO":"２號","E_COORD97":181922.82000000001,"N_COORD97":2539660.25,"ADDRESS":"松柏街１９巷２號","OBJECTID":339720},"geometry":{"x":181922.82000000123,"y":2539660.2500000019}},{"attributes":{"ID":339730,"DIS_CODE":0,"TOWNNAME":"關廟區","LI":"深坑里","LIN":"1鄰","STREET":"南雄路","SECT":"一段","MAREA":" ","LANE":"２６６巷","ALLEY":" ","HOUSE_NO":"２６號","E_COORD97":181920.47,"N_COORD97":2537437.2999999998,"ADDRESS":"南雄路一段２６６巷２６號","OBJECTID":339721},"geometry":{"x":181920.4700000016,"y":2537437.3000000007}},{"attributes":{"ID":339731,"DIS_CODE":0,"TOWNNAME":"關廟區","LI":"北勢里","LIN":"1鄰","STREET":"中正路","SECT":" ","MAREA":" ","LANE":"９０８巷","ALLEY":" ","HOUSE_NO":"２８號","E_COORD97":181231.60999999999,"N_COORD97":2540358.25,"ADDRESS":"中正路９０８巷２８號","OBJECTID":339722},"geometry":{"x":181231.61000000034,"y":2540358.2500000019}},{"attributes":{"ID":339732,"DIS_CODE":0,"TOWNNAME":"關廟區","LI":"北勢里","LIN":"1鄰","STREET":"中正路","SECT":" ","MAREA":" ","LANE":"９０８巷","ALLEY":" ","HOUSE_NO":"２６號","E_COORD97":181230.81,"N_COORD97":2540354.25,"ADDRESS":"中正路９０８巷２６號","OBJECTID":339723},"geometry":{"x":181230.80999999959,"y":2540354.2500000037}},{"attributes":{"ID":339733,"DIS_CODE":0,"TOWNNAME":"關廟區","LI":"北花里","LIN":"1鄰","STREET":"成功路","SECT":" ","MAREA":" ","LANE":"１６巷","ALLEY":" ","HOUSE_NO":"３號","E_COORD97":181799.62,"N_COORD97":2540436.27,"ADDRESS":"成功路１６巷３號","OBJECTID":339724},"geometry":{"x":181799.62000000197,"y":2540436.2700000014}},{"attributes":{"ID":339734,"DIS_CODE":0,"TOWNNAME":"關廟區","LI":"北花里","LIN":"1鄰","STREET":"成功路","SECT":" ","MAREA":" ","LANE":"２０巷","ALLEY":" ","HOUSE_NO":"８號","E_COORD97":181814.22,"N_COORD97":2540451.27,"ADDRESS":"成功路２０巷８號","OBJECTID":339725},"geometry":{"x":181814.22000000067,"y":2540451.2699999996}},{"attributes":{"ID":339735,"DIS_CODE":0,"TOWNNAME":"關廟區","LI":"北勢里","LIN":"1鄰","STREET":"中正路","SECT":" ","MAREA":" ","LANE":"９０８巷","ALLEY":" ","HOUSE_NO":"１０號","E_COORD97":181233.20999999999,"N_COORD97":2540304.25,"ADDRESS":"中正路９０８巷１０號","OBJECTID":339726},"geometry":{"x":181233.21000000089,"y":2540304.2500000019}},{"attributes":{"ID":339736,"DIS_CODE":0,"TOWNNAME":"關廟區","LI":"深坑里","LIN":"1鄰","STREET":"南雄路","SECT":"一段","MAREA":" ","LANE":"１９５巷","ALLEY":" ","HOUSE_NO":"３５號","E_COORD97":182067.32000000001,"N_COORD97":2536950.2999999998,"ADDRESS":"南雄路一段１９５巷３５號","OBJECTID":339727},"geometry":{"x":182067.3200000003,"y":2536950.3000000007}},{"attributes":{"ID":339737,"DIS_CODE":0,"TOWNNAME":"關廟區","LI":"深坑里","LIN":"1鄰","STREET":"南雄路","SECT":"一段","MAREA":" ","LANE":"２６６巷","ALLEY":" ","HOUSE_NO":"３８號","E_COORD97":181908.97,"N_COORD97":2537455.2999999998,"ADDRESS":"南雄路一段２６６巷３８號","OBJECTID":339728},"geometry":{"x":181908.97000000067,"y":2537455.3000000007}},{"attributes":{"ID":339738,"DIS_CODE":0,"TOWNNAME":"關廟區","LI":"北花里","LIN":"1鄰","STREET":"成功路","SECT":" ","MAREA":" ","LANE":"１６巷","ALLEY":" ","HOUSE_NO":"７號","E_COORD97":181814.22,"N_COORD97":2540420.27,"ADDRESS":"成功路１６巷７號","OBJECTID":339729},"geometry":{"x":181814.22000000067,"y":2540420.2699999996}},{"attributes":{"ID":339739,"DIS_CODE":0,"TOWNNAME":"關廟區","LI":"深坑里","LIN":"1鄰","STREET":"南雄路","SECT":"一段","MAREA":" ","LANE":"２６６巷","ALLEY":" ","HOUSE_NO":"２０號","E_COORD97":181915.07000000001,"N_COORD97":2537425.2999999998,"ADDRESS":"南雄路一段２６６巷２０號","OBJECTID":339730},"geometry":{"x":181915.0700000003,"y":2537425.3000000045}},{"attributes":{"ID":339740,"DIS_CODE":0,"TOWNNAME":"關廟區","LI":"北花里","LIN":"1鄰","STREET":"成功路","SECT":" ","MAREA":" ","LANE":"１６巷","ALLEY":" ","HOUSE_NO":"１號","E_COORD97":181794.22,"N_COORD97":2540416.27,"ADDRESS":"成功路１６巷１號","OBJECTID":339731},"geometry":{"x":181794.22000000067,"y":2540416.2700000014}},{"attributes":{"ID":339741,"DIS_CODE":0,"TOWNNAME":"關廟區","LI":"北勢里","LIN":"1鄰","STREET":"中正路","SECT":" ","MAREA":" ","LANE":"９０８巷","ALLEY":" ","HOUSE_NO":"２０號","E_COORD97":181231.20999999999,"N_COORD97":2540343.25,"ADDRESS":"中正路９０８巷２０號","OBJECTID":339732},"geometry":{"x":181231.21000000089,"y":2540343.25}},{"attributes":{"ID":339742,"DIS_CODE":0,"TOWNNAME":"關廟區","LI":"北花里","LIN":"1鄰","STREET":"成功路","SECT":" ","MAREA":" ","LANE":"２０巷","ALLEY":" ","HOUSE_NO":"１號","E_COORD97":181787.32000000001,"N_COORD97":2540417.27,"ADDRESS":"成功路２０巷１號","OBJECTID":339733},"geometry":{"x":181787.32000000123,"y":2540417.2699999996}},{"attributes":{"ID":339743,"DIS_CODE":0,"TOWNNAME":"關廟區","LI":"布袋里","LIN":"1鄰","STREET":"南雄路","SECT":"一段","MAREA":" ","LANE":"１９５巷","ALLEY":" ","HOUSE_NO":"１６８號","E_COORD97":182032.64000000001,"N_COORD97":2536376.25,"ADDRESS":"南雄路一段１９５巷１６８號","OBJECTID":339734},"geometry":{"x":182032.63999999966,"y":2536376.25}},{"attributes":{"ID":339744,"DIS_CODE":0,"TOWNNAME":"關廟區","LI":"北花里","LIN":"1鄰","STREET":"成功路","SECT":" ","MAREA":" ","LANE":"１６巷","ALLEY":" ","HOUSE_NO":"５號","E_COORD97":181810.01999999999,"N_COORD97":2540440.27,"ADDRESS":"成功路１６巷５號","OBJECTID":339735},"geometry":{"x":181810.02000000048,"y":2540440.2699999996}},{"attributes":{"ID":339745,"DIS_CODE":0,"TOWNNAME":"關廟區","LI":"北花里","LIN":"1鄰","STREET":"成功路","SECT":" ","MAREA":" ","LANE":"２０巷","ALLEY":" ","HOUSE_NO":"９號","E_COORD97":181790.42000000001,"N_COORD97":2540467.27,"ADDRESS":"成功路２０巷９號","OBJECTID":339736},"geometry":{"x":181790.41999999899,"y":2540467.2699999996}},{"attributes":{"ID":339746,"DIS_CODE":0,"TOWNNAME":"關廟區","LI":"深坑里","LIN":"1鄰","STREET":"南雄路","SECT":"一段","MAREA":" ","LANE":"２６６巷","ALLEY":" ","HOUSE_NO":"３６號","E_COORD97":181911.97,"N_COORD97":2537452.2999999998,"ADDRESS":"南雄路一段２６６巷３６號","OBJECTID":339737},"geometry":{"x":181911.96999999881,"y":2537452.2999999989}},{"attributes":{"ID":339747,"DIS_CODE":0,"TOWNNAME":"關廟區","LI":"深坑里","LIN":"1鄰","STREET":"南雄路","SECT":"一段","MAREA":" ","LANE":"２６６巷","ALLEY":" ","HOUSE_NO":"２８號","E_COORD97":181918.57000000001,"N_COORD97":2537440.2999999998,"ADDRESS":"南雄路一段２６６巷２８號","OBJECTID":339738},"geometry":{"x":181918.5700000003,"y":2537440.3000000026}},{"attributes":{"ID":339748,"DIS_CODE":0,"TOWNNAME":"關廟區","LI":"南花里","LIN":"1鄰","STREET":"四維街","SECT":" ","MAREA":" ","LANE":"２６０巷","ALLEY":" ","HOUSE_NO":"６號","E_COORD97":181889.576588,"N_COORD97":2540010.6568900002,"ADDRESS":"四維街２６０巷６號","OBJECTID":339739},"geometry":{"x":181889.57658800017,"y":2540010.6568890009}},{"attributes":{"ID":339749,"DIS_CODE":0,"TOWNNAME":"關廟區","LI":"埤頭里","LIN":"1鄰","STREET":"關新路","SECT":"一段","MAREA":" ","LANE":"６６５巷","ALLEY":" ","HOUSE_NO":"３０號","E_COORD97":179078.72,"N_COORD97":2543562.2999999998,"ADDRESS":"關新路一段６６５巷３０號","OBJECTID":339740},"geometry":{"x":179078.71999999974,"y":2543562.3000000026}},{"attributes":{"ID":339750,"DIS_CODE":0,"TOWNNAME":"關廟區","LI":"下湖里","LIN":"1鄰","STREET":"保東一街","SECT":" ","MAREA":" ","LANE":"６００巷","ALLEY":" ","HOUSE_NO":"３７號","E_COORD97":178048.94,"N_COORD97":2542624.2999999998,"ADDRESS":"保東一街６００巷３７號","OBJECTID":339741},"geometry":{"x":178048.94000000041,"y":2542624.3000000026}},{"attributes":{"ID":339751,"DIS_CODE":0,"TOWNNAME":"關廟區","LI":"五甲里","LIN":"1鄰","STREET":"和平路","SECT":" ","MAREA":" ","LANE":"１１巷","ALLEY":" ","HOUSE_NO":"７號","E_COORD97":181669.48999999999,"N_COORD97":2539307.25,"ADDRESS":"和平路１１巷７號","OBJECTID":339742},"geometry":{"x":181669.49000000022,"y":2539307.2500000019}},{"attributes":{"ID":339752,"DIS_CODE":0,"TOWNNAME":"關廟區","LI":"五甲里","LIN":"1鄰","STREET":"和平路","SECT":" ","MAREA":" ","LANE":"１１巷","ALLEY":" ","HOUSE_NO":"９號","E_COORD97":181691.79000000001,"N_COORD97":2539331.25,"ADDRESS":"和平路１１巷９號","OBJECTID":339743},"geometry":{"x":181691.79000000097,"y":2539331.2500000019}},{"attributes":{"ID":339753,"DIS_CODE":0,"TOWNNAME":"關廟區","LI":"下湖里","LIN":"1鄰","STREET":"南雄路","SECT":"二段","MAREA":" ","LANE":"８７５巷","ALLEY":" ","HOUSE_NO":"７５號","E_COORD97":180202.34,"N_COORD97":2541245.2999999998,"ADDRESS":"南雄路二段８７５巷７５號","OBJECTID":339744},"geometry":{"x":180202.33999999985,"y":2541245.3000000007}},{"attributes":{"ID":339754,"DIS_CODE":0,"TOWNNAME":"關廟區","LI":"下湖里","LIN":"1鄰","STREET":"下湖二街","SECT":" ","MAREA":" ","LANE":"１６巷","ALLEY":" ","HOUSE_NO":"１３號","E_COORD97":179425.89000000001,"N_COORD97":2542881.25,"ADDRESS":"下湖二街１６巷１３號","OBJECTID":339745},"geometry":{"x":179425.8900000006,"y":2542881.2500000019}},{"attributes":{"ID":339755,"DIS_CODE":0,"TOWNNAME":"關廟區","LI":"下湖里","LIN":"1鄰","STREET":"下湖二街","SECT":" ","MAREA":" ","LANE":"１６巷","ALLEY":" ","HOUSE_NO":"１５號","E_COORD97":179451.79000000001,"N_COORD97":2542884.2999999998,"ADDRESS":"下湖二街１６巷１５號","OBJECTID":339746},"geometry":{"x":179451.79000000004,"y":2542884.3000000026}},{"attributes":{"ID":339756,"DIS_CODE":0,"TOWNNAME":"北區","LI":"成德里","LIN":"1鄰","STREET":"西門路","SECT":"四段","MAREA":" ","LANE":"１巷","ALLEY":" ","HOUSE_NO":"２２之６號","E_COORD97":168513.04999999999,"N_COORD97":2545218.9300000002,"ADDRESS":"西門路四段１巷２２之６號","OBJECTID":339747},"geometry":{"x":168513.05000000075,"y":2545218.9300000016}},{"attributes":{"ID":339757,"DIS_CODE":0,"TOWNNAME":"北區","LI":"成德里","LIN":"1鄰","STREET":"西門路","SECT":"四段","MAREA":" ","LANE":"１巷","ALLEY":" ","HOUSE_NO":"２２號之１","E_COORD97":168521.03,"N_COORD97":2545214.8599999999,"ADDRESS":"西門路四段１巷２２號之１","OBJECTID":339748},"geometry":{"x":168521.03000000119,"y":2545214.8600000031}},{"attributes":{"ID":339758,"DIS_CODE":0,"TOWNNAME":"北區","LI":"成德里","LIN":"1鄰","STREET":"西門路","SECT":"四段","MAREA":" ","LANE":"１巷","ALLEY":" ","HOUSE_NO":"５２號","E_COORD97":168473.67999999999,"N_COORD97":2545245.77,"ADDRESS":"西門路四段１巷５２號","OBJECTID":339749},"geometry":{"x":168473.6799999997,"y":2545245.7700000033}},{"attributes":{"ID":339759,"DIS_CODE":0,"TOWNNAME":"北區","LI":"成德里","LIN":"1鄰","STREET":"西門路","SECT":"四段","MAREA":" ","LANE":"１巷","ALLEY":" ","HOUSE_NO":"５４號","E_COORD97":168470.48999999999,"N_COORD97":2545249.3100000001,"ADDRESS":"西門路四段１巷５４號","OBJECTID":339750},"geometry":{"x":168470.49000000022,"y":2545249.3100000005}},{"attributes":{"ID":339760,"DIS_CODE":0,"TOWNNAME":"北區","LI":"成德里","LIN":"1鄰","STREET":"西門路","SECT":"四段","MAREA":" ","LANE":"１巷","ALLEY":" ","HOUSE_NO":"５４號之１７","E_COORD97":168416.40641200001,"N_COORD97":2545281.6001800001,"ADDRESS":"西門路四段１巷５４號之１７","OBJECTID":339751},"geometry":{"x":168416.40641200077,"y":2545281.6001800019}},{"attributes":{"ID":339761,"DIS_CODE":0,"TOWNNAME":"北區","LI":"成德里","LIN":"1鄰","STREET":"西門路","SECT":"四段","MAREA":" ","LANE":"１巷","ALLEY":" ","HOUSE_NO":"５６號","E_COORD97":168408.358263,"N_COORD97":2545286.8918400002,"ADDRESS":"西門路四段１巷５６號","OBJECTID":339752},"geometry":{"x":168408.35826299991,"y":2545286.8918440025}},{"attributes":{"ID":339762,"DIS_CODE":0,"TOWNNAME":"北區","LI":"成德里","LIN":"1鄰","STREET":"西門路","SECT":"四段","MAREA":" ","LANE":"１巷","ALLEY":" ","HOUSE_NO":"８號之１","E_COORD97":168552.41,"N_COORD97":2545198.5600000001,"ADDRESS":"西門路四段１巷８號之１","OBJECTID":339753},"geometry":{"x":168552.41000000015,"y":2545198.5600000024}},{"attributes":{"ID":339763,"DIS_CODE":0,"TOWNNAME":"北區","LI":"成德里","LIN":"1鄰","STREET":"西門路","SECT":"四段","MAREA":" ","LANE":"７巷","ALLEY":" ","HOUSE_NO":"１０１號","E_COORD97":168341.76999999999,"N_COORD97":2545352.9300000002,"ADDRESS":"西門路四段７巷１０１號","OBJECTID":339754},"geometry":{"x":168341.77000000048,"y":2545352.9299999997}},{"attributes":{"ID":339764,"DIS_CODE":0,"TOWNNAME":"北區","LI":"成德里","LIN":"1鄰","STREET":"西門路","SECT":"四段","MAREA":" ","LANE":"７巷","ALLEY":" ","HOUSE_NO":"１１號","E_COORD97":168559.67999999999,"N_COORD97":2545211.8999999999,"ADDRESS":"西門路四段７巷１１號","OBJECTID":339755},"geometry":{"x":168559.68000000063,"y":2545211.9000000041}},{"attributes":{"ID":339765,"DIS_CODE":0,"TOWNNAME":"北區","LI":"成德里","LIN":"1鄰","STREET":"西門路","SECT":"四段","MAREA":" ","LANE":"７巷","ALLEY":" ","HOUSE_NO":"１３號","E_COORD97":168555.78,"N_COORD97":2545213.8500000001,"ADDRESS":"西門路四段７巷１３號","OBJECTID":339756},"geometry":{"x":168555.78000000212,"y":2545213.8499999996}},{"attributes":{"ID":339766,"DIS_CODE":0,"TOWNNAME":"北區","LI":"成德里","LIN":"1鄰","STREET":"西門路","SECT":"四段","MAREA":" ","LANE":"７巷","ALLEY":" ","HOUSE_NO":"１５號","E_COORD97":168551.88,"N_COORD97":2545215.27,"ADDRESS":"西門路四段７巷１５號","OBJECTID":339757},"geometry":{"x":168551.88000000082,"y":2545215.2700000033}},{"attributes":{"ID":339767,"DIS_CODE":0,"TOWNNAME":"北區","LI":"成德里","LIN":"1鄰","STREET":"西門路","SECT":"四段","MAREA":" ","LANE":"７巷","ALLEY":" ","HOUSE_NO":"１７號","E_COORD97":168547.79999999999,"N_COORD97":2545218.4500000002,"ADDRESS":"西門路四段７巷１７號","OBJECTID":339758},"geometry":{"x":168547.79999999981,"y":2545218.4500000011}},{"attributes":{"ID":339768,"DIS_CODE":0,"TOWNNAME":"北區","LI":"成德里","LIN":"1鄰","STREET":"西門路","SECT":"四段","MAREA":" ","LANE":"７巷","ALLEY":" ","HOUSE_NO":"１９號","E_COORD97":168543.72,"N_COORD97":2545220.0499999998,"ADDRESS":"西門路四段７巷１９號","OBJECTID":339759},"geometry":{"x":168543.71999999881,"y":2545220.0500000007}},{"attributes":{"ID":339769,"DIS_CODE":0,"TOWNNAME":"北區","LI":"成德里","LIN":"1鄰","STREET":"西門路","SECT":"四段","MAREA":" ","LANE":"７巷","ALLEY":" ","HOUSE_NO":"１號","E_COORD97":168580.07999999999,"N_COORD97":2545202.8700000001,"ADDRESS":"西門路四段７巷１號","OBJECTID":339760},"geometry":{"x":168580.08000000007,"y":2545202.8700000048}},{"attributes":{"ID":339770,"DIS_CODE":0,"TOWNNAME":"北區","LI":"成德里","LIN":"1鄰","STREET":"西門路","SECT":"四段","MAREA":" ","LANE":"７巷","ALLEY":" ","HOUSE_NO":"２１號","E_COORD97":168540,"N_COORD97":2545221.6400000001,"ADDRESS":"西門路四段７巷２１號","OBJECTID":339761},"geometry":{"x":168540,"y":2545221.6400000025}},{"attributes":{"ID":339771,"DIS_CODE":0,"TOWNNAME":"北區","LI":"成德里","LIN":"1鄰","STREET":"西門路","SECT":"四段","MAREA":" ","LANE":"７巷","ALLEY":" ","HOUSE_NO":"２３號","E_COORD97":168535.92000000001,"N_COORD97":2545223.9399999999,"ADDRESS":"西門路四段７巷２３號","OBJECTID":339762},"geometry":{"x":168535.92000000179,"y":2545223.9399999995}},{"attributes":{"ID":339772,"DIS_CODE":0,"TOWNNAME":"北區","LI":"成德里","LIN":"1鄰","STREET":"西門路","SECT":"四段","MAREA":" ","LANE":"７巷","ALLEY":" ","HOUSE_NO":"２５號","E_COORD97":168532.01999999999,"N_COORD97":2545226.0699999998,"ADDRESS":"西門路四段７巷２５號","OBJECTID":339763},"geometry":{"x":168532.02000000048,"y":2545226.0700000003}},{"attributes":{"ID":339773,"DIS_CODE":0,"TOWNNAME":"北區","LI":"成德里","LIN":"1鄰","STREET":"西門路","SECT":"四段","MAREA":" ","LANE":"７巷","ALLEY":" ","HOUSE_NO":"２７號","E_COORD97":168527.59,"N_COORD97":2545227.6600000001,"ADDRESS":"西門路四段７巷２７號","OBJECTID":339764},"geometry":{"x":168527.58999999985,"y":2545227.660000002}},{"attributes":{"ID":339774,"DIS_CODE":0,"TOWNNAME":"北區","LI":"光武里","LIN":"15鄰","STREET":"北門路","SECT":"二段","MAREA":" ","LANE":"５７７巷","ALLEY":" ","HOUSE_NO":"２２號","E_COORD97":169576.16,"N_COORD97":2545799.7999999998,"ADDRESS":"北門路二段５７７巷２２號","OBJECTID":339765},"geometry":{"x":169576.16000000015,"y":2545799.8000000045}},{"attributes":{"ID":339775,"DIS_CODE":0,"TOWNNAME":"北區","LI":"光武里","LIN":"15鄰","STREET":"北門路","SECT":"二段","MAREA":" ","LANE":"５７７巷","ALLEY":" ","HOUSE_NO":"２２之１號","E_COORD97":169585.04999999999,"N_COORD97":2545797.5800000001,"ADDRESS":"北門路二段５７７巷２２之１號","OBJECTID":339766},"geometry":{"x":169585.04999999981,"y":2545797.5800000019}},{"attributes":{"ID":339776,"DIS_CODE":0,"TOWNNAME":"北區","LI":"光武里","LIN":"15鄰","STREET":"北門路","SECT":"二段","MAREA":" ","LANE":"５７７巷","ALLEY":" ","HOUSE_NO":"２６號","E_COORD97":169557.42999999999,"N_COORD97":2545798.21,"ADDRESS":"北門路二段５７７巷２６號","OBJECTID":339767},"geometry":{"x":169557.4299999997,"y":2545798.2100000028}},{"attributes":{"ID":339777,"DIS_CODE":0,"TOWNNAME":"北區","LI":"成德里","LIN":"1鄰","STREET":"西門路","SECT":"四段","MAREA":" ","LANE":"７巷","ALLEY":" ","HOUSE_NO":"２９號","E_COORD97":168523.69,"N_COORD97":2545229.6099999999,"ADDRESS":"西門路四段７巷２９號","OBJECTID":339768},"geometry":{"x":168523.69000000041,"y":2545229.6099999975}},{"attributes":{"ID":339778,"DIS_CODE":0,"TOWNNAME":"北區","LI":"成德里","LIN":"1鄰","STREET":"西門路","SECT":"四段","MAREA":" ","LANE":"７巷","ALLEY":" ","HOUSE_NO":"３１號","E_COORD97":168519.95999999999,"N_COORD97":2545232.4500000002,"ADDRESS":"西門路四段７巷３１號","OBJECTID":339769},"geometry":{"x":168519.95999999996,"y":2545232.4500000011}},{"attributes":{"ID":339779,"DIS_CODE":0,"TOWNNAME":"將軍區","LI":"仁和里","LIN":"18鄰","STREET":" ","SECT":" ","MAREA":"和巷","LANE":" ","ALLEY":" ","HOUSE_NO":"６１號","E_COORD97":163945.01000000001,"N_COORD97":2569347.8100000001,"ADDRESS":"和巷６１號","OBJECTID":339770},"geometry":{"x":163945.01000000071,"y":2569347.8100000005}},{"attributes":{"ID":339780,"DIS_CODE":0,"TOWNNAME":"北區","LI":"成德里","LIN":"1鄰","STREET":"西門路","SECT":"四段","MAREA":" ","LANE":"７巷","ALLEY":" ","HOUSE_NO":"３３號","E_COORD97":168515.53,"N_COORD97":2545234.2200000002,"ADDRESS":"西門路四段７巷３３號","OBJECTID":339771},"geometry":{"x":168515.53000000119,"y":2545234.2200000025}},{"attributes":{"ID":339781,"DIS_CODE":0,"TOWNNAME":"北區","LI":"成德里","LIN":"1鄰","STREET":"西門路","SECT":"四段","MAREA":" ","LANE":"７巷","ALLEY":" ","HOUSE_NO":"３５號","E_COORD97":168511.63,"N_COORD97":2545235.9900000002,"ADDRESS":"西門路四段７巷３５號","OBJECTID":339772},"geometry":{"x":168511.62999999989,"y":2545235.9900000021}},{"attributes":{"ID":339782,"DIS_CODE":0,"TOWNNAME":"北區","LI":"成德里","LIN":"1鄰","STREET":"西門路","SECT":"四段","MAREA":" ","LANE":"７巷","ALLEY":" ","HOUSE_NO":"３７號","E_COORD97":168507.37,"N_COORD97":2545239,"ADDRESS":"西門路四段７巷３７號","OBJECTID":339773},"geometry":{"x":168507.37000000011,"y":2545239.0000000019}},{"attributes":{"ID":339783,"DIS_CODE":0,"TOWNNAME":"北區","LI":"成德里","LIN":"1鄰","STREET":"西門路","SECT":"四段","MAREA":" ","LANE":"７巷","ALLEY":" ","HOUSE_NO":"３９號","E_COORD97":168503.82999999999,"N_COORD97":2545241.8399999999,"ADDRESS":"西門路四段７巷３９號","OBJECTID":339774},"geometry":{"x":168503.83000000007,"y":2545241.8399999999}},{"attributes":{"ID":339784,"DIS_CODE":0,"TOWNNAME":"北區","LI":"成德里","LIN":"1鄰","STREET":"西門路","SECT":"四段","MAREA":" ","LANE":"７巷","ALLEY":" ","HOUSE_NO":"３號","E_COORD97":168576,"N_COORD97":2545205.1699999999,"ADDRESS":"西門路四段７巷３號","OBJECTID":339775},"geometry":{"x":168575.99999999907,"y":2545205.1699999999}},{"attributes":{"ID":339785,"DIS_CODE":0,"TOWNNAME":"北區","LI":"成德里","LIN":"1鄰","STREET":"西門路","SECT":"四段","MAREA":" ","LANE":"７巷","ALLEY":" ","HOUSE_NO":"４１號","E_COORD97":168499.75,"N_COORD97":2545243.96,"ADDRESS":"西門路四段７巷４１號","OBJECTID":339776},"geometry":{"x":168499.75000000186,"y":2545243.9600000028}},{"attributes":{"ID":339786,"DIS_CODE":0,"TOWNNAME":"北區","LI":"成德里","LIN":"1鄰","STREET":"西門路","SECT":"四段","MAREA":" ","LANE":"７巷","ALLEY":" ","HOUSE_NO":"４３號","E_COORD97":168495.67000000001,"N_COORD97":2545246.2599999998,"ADDRESS":"西門路四段７巷４３號","OBJECTID":339777},"geometry":{"x":168495.67000000086,"y":2545246.2600000035}},{"attributes":{"ID":339787,"DIS_CODE":0,"TOWNNAME":"北區","LI":"成德里","LIN":"1鄰","STREET":"西門路","SECT":"四段","MAREA":" ","LANE":"７巷","ALLEY":" ","HOUSE_NO":"４５號","E_COORD97":168491.23999999999,"N_COORD97":2545248.4199999999,"ADDRESS":"西門路四段７巷４５號","OBJECTID":339778},"geometry":{"x":168491.24000000022,"y":2545248.4199999981}},{"attributes":{"ID":339788,"DIS_CODE":0,"TOWNNAME":"北區","LI":"成德里","LIN":"1鄰","STREET":"西門路","SECT":"四段","MAREA":" ","LANE":"７巷","ALLEY":" ","HOUSE_NO":"４７號","E_COORD97":168488.39999999999,"N_COORD97":2545250.8999999999,"ADDRESS":"西門路四段７巷４７號","OBJECTID":339779},"geometry":{"x":168488.40000000037,"y":2545250.9000000022}},{"attributes":{"ID":339789,"DIS_CODE":0,"TOWNNAME":"北區","LI":"成德里","LIN":"1鄰","STREET":"西門路","SECT":"四段","MAREA":" ","LANE":"７巷","ALLEY":" ","HOUSE_NO":"４９號","E_COORD97":168484.32000000001,"N_COORD97":2545254.27,"ADDRESS":"西門路四段７巷４９號","OBJECTID":339780},"geometry":{"x":168484.32000000216,"y":2545254.2700000014}},{"attributes":{"ID":339790,"DIS_CODE":0,"TOWNNAME":"北區","LI":"成德里","LIN":"1鄰","STREET":"西門路","SECT":"四段","MAREA":" ","LANE":"７巷","ALLEY":" ","HOUSE_NO":"５１號","E_COORD97":168480.95000000001,"N_COORD97":2545256.3900000001,"ADDRESS":"西門路四段７巷５１號","OBJECTID":339781},"geometry":{"x":168480.95000000019,"y":2545256.3900000043}},{"attributes":{"ID":339791,"DIS_CODE":0,"TOWNNAME":"北區","LI":"成德里","LIN":"1鄰","STREET":"西門路","SECT":"四段","MAREA":" ","LANE":"７巷","ALLEY":" ","HOUSE_NO":"５３號","E_COORD97":168476.51999999999,"N_COORD97":2545258.52,"ADDRESS":"西門路四段７巷５３號","OBJECTID":339782},"geometry":{"x":168476.51999999955,"y":2545258.5200000014}},{"attributes":{"ID":339792,"DIS_CODE":0,"TOWNNAME":"北區","LI":"成德里","LIN":"1鄰","STREET":"西門路","SECT":"四段","MAREA":" ","LANE":"７巷","ALLEY":" ","HOUSE_NO":"５５號","E_COORD97":168472.79000000001,"N_COORD97":2545260.29,"ADDRESS":"西門路四段７巷５５號","OBJECTID":339783},"geometry":{"x":168472.79000000097,"y":2545260.290000001}},{"attributes":{"ID":339793,"DIS_CODE":0,"TOWNNAME":"北區","LI":"成德里","LIN":"1鄰","STREET":"西門路","SECT":"四段","MAREA":" ","LANE":"７巷","ALLEY":" ","HOUSE_NO":"５７號","E_COORD97":168469.25,"N_COORD97":2545263.1299999999,"ADDRESS":"西門路四段７巷５７號","OBJECTID":339784},"geometry":{"x":168469.25000000186,"y":2545263.1300000027}},{"attributes":{"ID":339794,"DIS_CODE":0,"TOWNNAME":"北區","LI":"成德里","LIN":"1鄰","STREET":"西門路","SECT":"四段","MAREA":" ","LANE":"７巷","ALLEY":" ","HOUSE_NO":"５９號","E_COORD97":168465.88,"N_COORD97":2545266.1400000001,"ADDRESS":"西門路四段７巷５９號","OBJECTID":339785},"geometry":{"x":168465.87999999989,"y":2545266.1400000025}},{"attributes":{"ID":339795,"DIS_CODE":0,"TOWNNAME":"北區","LI":"成德里","LIN":"1鄰","STREET":"西門路","SECT":"四段","MAREA":" ","LANE":"７巷","ALLEY":" ","HOUSE_NO":"５號","E_COORD97":168572.26999999999,"N_COORD97":2545206.9399999999,"ADDRESS":"西門路四段７巷５號","OBJECTID":339786},"geometry":{"x":168572.27000000048,"y":2545206.9399999995}},{"attributes":{"ID":339796,"DIS_CODE":0,"TOWNNAME":"北區","LI":"成德里","LIN":"1鄰","STREET":"西門路","SECT":"四段","MAREA":" ","LANE":"７巷","ALLEY":" ","HOUSE_NO":"６１號","E_COORD97":168461.98000000001,"N_COORD97":2545268.0899999999,"ADDRESS":"西門路四段７巷６１號","OBJECTID":339787},"geometry":{"x":168461.98000000138,"y":2545268.0900000017}},{"attributes":{"ID":339797,"DIS_CODE":0,"TOWNNAME":"北區","LI":"成德里","LIN":"1鄰","STREET":"西門路","SECT":"四段","MAREA":" ","LANE":"７巷","ALLEY":" ","HOUSE_NO":"６３號","E_COORD97":168458.42999999999,"N_COORD97":2545270.7400000002,"ADDRESS":"西門路四段７巷６３號","OBJECTID":339788},"geometry":{"x":168458.4299999997,"y":2545270.7400000039}},{"attributes":{"ID":339798,"DIS_CODE":0,"TOWNNAME":"北區","LI":"成德里","LIN":"1鄰","STREET":"西門路","SECT":"四段","MAREA":" ","LANE":"７巷","ALLEY":" ","HOUSE_NO":"６５號","E_COORD97":168454.70999999999,"N_COORD97":2545273.75,"ADDRESS":"西門路四段７巷６５號","OBJECTID":339789},"geometry":{"x":168454.71000000089,"y":2545273.7500000037}},{"attributes":{"ID":339799,"DIS_CODE":0,"TOWNNAME":"北區","LI":"成德里","LIN":"1鄰","STREET":"西門路","SECT":"四段","MAREA":" ","LANE":"７巷","ALLEY":" ","HOUSE_NO":"６７號","E_COORD97":168450.98000000001,"N_COORD97":2545275.1699999999,"ADDRESS":"西門路四段７巷６７號","OBJECTID":339790},"geometry":{"x":168450.98000000045,"y":2545275.1700000018}},{"attributes":{"ID":339800,"DIS_CODE":0,"TOWNNAME":"北區","LI":"成德里","LIN":"1鄰","STREET":"西門路","SECT":"四段","MAREA":" ","LANE":"７巷","ALLEY":" ","HOUSE_NO":"６９號","E_COORD97":168446.01999999999,"N_COORD97":2545279.0699999998,"ADDRESS":"西門路四段７巷６９號","OBJECTID":339791},"geometry":{"x":168446.01999999955,"y":2545279.0700000022}},{"attributes":{"ID":339801,"DIS_CODE":0,"TOWNNAME":"北區","LI":"成德里","LIN":"1鄰","STREET":"西門路","SECT":"四段","MAREA":" ","LANE":"７巷","ALLEY":" ","HOUSE_NO":"７１號","E_COORD97":168442.47,"N_COORD97":2545282.2599999998,"ADDRESS":"西門路四段７巷７１號","OBJECTID":339792},"geometry":{"x":168442.47000000067,"y":2545282.2599999998}},{"attributes":{"ID":339802,"DIS_CODE":0,"TOWNNAME":"北區","LI":"成德里","LIN":"1鄰","STREET":"西門路","SECT":"四段","MAREA":" ","LANE":"７巷","ALLEY":" ","HOUSE_NO":"７３號","E_COORD97":168439.10000000001,"N_COORD97":2545284.2000000002,"ADDRESS":"西門路四段７巷７３號","OBJECTID":339793},"geometry":{"x":168439.09999999963,"y":2545284.2000000011}},{"attributes":{"ID":339803,"DIS_CODE":0,"TOWNNAME":"北區","LI":"成德里","LIN":"1鄰","STREET":"西門路","SECT":"四段","MAREA":" ","LANE":"７巷","ALLEY":" ","HOUSE_NO":"７５號","E_COORD97":168435.54999999999,"N_COORD97":2545287.75,"ADDRESS":"西門路四段７巷７５號","OBJECTID":339794},"geometry":{"x":168435.55000000075,"y":2545287.7500000019}},{"attributes":{"ID":339804,"DIS_CODE":0,"TOWNNAME":"北區","LI":"成德里","LIN":"1鄰","STREET":"西門路","SECT":"四段","MAREA":" ","LANE":"７巷","ALLEY":" ","HOUSE_NO":"７７號","E_COORD97":168431.64999999999,"N_COORD97":2545289.1600000001,"ADDRESS":"西門路四段７巷７７號","OBJECTID":339795},"geometry":{"x":168431.6500000013,"y":2545289.160000002}},{"attributes":{"ID":339805,"DIS_CODE":0,"TOWNNAME":"北區","LI":"成德里","LIN":"1鄰","STREET":"西門路","SECT":"四段","MAREA":" ","LANE":"７巷","ALLEY":" ","HOUSE_NO":"７９號","E_COORD97":168428.28,"N_COORD97":2545293.2400000002,"ADDRESS":"西門路四段７巷７９號","OBJECTID":339796},"geometry":{"x":168428.28000000026,"y":2545293.2400000002}},{"attributes":{"ID":339806,"DIS_CODE":0,"TOWNNAME":"北區","LI":"成德里","LIN":"1鄰","STREET":"西門路","SECT":"四段","MAREA":" ","LANE":"７巷","ALLEY":" ","HOUSE_NO":"７號","E_COORD97":168568.20000000001,"N_COORD97":2545209.2400000002,"ADDRESS":"西門路四段７巷７號","OBJECTID":339797},"geometry":{"x":168568.20000000205,"y":2545209.2399999984}},{"attributes":{"ID":339807,"DIS_CODE":0,"TOWNNAME":"北區","LI":"成德里","LIN":"1鄰","STREET":"西門路","SECT":"四段","MAREA":" ","LANE":"７巷","ALLEY":" ","HOUSE_NO":"８１號","E_COORD97":168380.09,"N_COORD97":2545326.25,"ADDRESS":"西門路四段７巷８１號","OBJECTID":339798},"geometry":{"x":168380.08999999985,"y":2545326.25}},{"attributes":{"ID":339808,"DIS_CODE":0,"TOWNNAME":"北區","LI":"成德里","LIN":"1鄰","STREET":"西門路","SECT":"四段","MAREA":" ","LANE":"７巷","ALLEY":" ","HOUSE_NO":"８３號","E_COORD97":168375.60999999999,"N_COORD97":2545328.8999999999,"ADDRESS":"西門路四段７巷８３號","OBJECTID":339799},"geometry":{"x":168375.6100000022,"y":2545328.9000000022}},{"attributes":{"ID":339809,"DIS_CODE":0,"TOWNNAME":"北區","LI":"光武里","LIN":"8鄰","STREET":"北門路","SECT":"二段","MAREA":" ","LANE":"５７７巷","ALLEY":" ","HOUSE_NO":"３號","E_COORD97":169644.57999999999,"N_COORD97":2545745.27,"ADDRESS":"北門路二段５７７巷３號","OBJECTID":339800},"geometry":{"x":169644.58000000007,"y":2545745.2700000014}}]}