{"displayFieldName":"TOWNNAME","fieldAliases":{"ID":"ID","DIS_CODE":"DIS_CODE","TOWNNAME":"TOWNNAME","LI":"LI","LIN":"LIN","STREET":"STREET","SECT":"SECT","MAREA":"MAREA","LANE":"LANE","ALLEY":"ALLEY","HOUSE_NO":"HOUSE_NO","E_COORD97":"E_COORD97","N_COORD97":"N_COORD97","ADDRESS":"ADDRESS","OBJECTID":"OBJECTID"},"geometryType":"esriGeometryPoint","spatialReference":{"wkid":102443,"latestWkid":3826},"fields":[{"name":"ID","type":"esriFieldTypeDouble","alias":"ID"},{"name":"DIS_CODE","type":"esriFieldTypeInteger","alias":"DIS_CODE"},{"name":"TOWNNAME","type":"esriFieldTypeString","alias":"TOWNNAME","length":8},{"name":"LI","type":"esriFieldTypeString","alias":"LI","length":8},{"name":"LIN","type":"esriFieldTypeString","alias":"LIN","length":12},{"name":"STREET","type":"esriFieldTypeString","alias":"STREET","length":20},{"name":"SECT","type":"esriFieldTypeString","alias":"SECT","length":8},{"name":"MAREA","type":"esriFieldTypeString","alias":"MAREA","length":12},{"name":"LANE","type":"esriFieldTypeString","alias":"LANE","length":10},{"name":"ALLEY","type":"esriFieldTypeString","alias":"ALLEY","length":10},{"name":"HOUSE_NO","type":"esriFieldTypeString","alias":"HOUSE_NO","length":20},{"name":"E_COORD97","type":"esriFieldTypeDouble","alias":"E_COORD97"},{"name":"N_COORD97","type":"esriFieldTypeDouble","alias":"N_COORD97"},{"name":"ADDRESS","type":"esriFieldTypeString","alias":"ADDRESS","length":50},{"name":"OBJECTID","type":"esriFieldTypeOID","alias":"OBJECTID"}],"features":[{"attributes":{"ID":31201,"DIS_CODE":0,"TOWNNAME":"後壁區","LI":"福安里","LIN":"14鄰","STREET":" ","SECT":" ","MAREA":"下寮","LANE":" ","ALLEY":" ","HOUSE_NO":"１６６號","E_COORD97":183934.39000000001,"N_COORD97":2580971.8500000001,"ADDRESS":"下寮１６６號","OBJECTID":31201},"geometry":{"x":183934.38999999966,"y":2580971.8499999996}},{"attributes":{"ID":31202,"DIS_CODE":0,"TOWNNAME":"後壁區","LI":"福安里","LIN":"14鄰","STREET":" ","SECT":" ","MAREA":"下寮","LANE":" ","ALLEY":" ","HOUSE_NO":"１６７號之２","E_COORD97":183928.94,"N_COORD97":2580919.7200000002,"ADDRESS":"下寮１６７號之２","OBJECTID":31202},"geometry":{"x":183928.94000000134,"y":2580919.7200000007}},{"attributes":{"ID":31203,"DIS_CODE":0,"TOWNNAME":"南區","LI":"佛壇里","LIN":"17鄰","STREET":"興南街","SECT":" ","MAREA":" ","LANE":"１０１巷","ALLEY":"１２弄","HOUSE_NO":"４３號","E_COORD97":166143.59,"N_COORD97":2535695,"ADDRESS":"興南街１０１巷１２弄４３號","OBJECTID":31203},"geometry":{"x":166143.58999999985,"y":2535695.0000000019}},{"attributes":{"ID":31204,"DIS_CODE":0,"TOWNNAME":"仁德區","LI":"成功里","LIN":"14鄰","STREET":"全福路","SECT":" ","MAREA":" ","LANE":" ","ALLEY":" ","HOUSE_NO":"４３號","E_COORD97":170935.03,"N_COORD97":2539323.9900000002,"ADDRESS":"全福路４３號","OBJECTID":31204},"geometry":{"x":170935.03000000026,"y":2539323.9900000002}},{"attributes":{"ID":31205,"DIS_CODE":0,"TOWNNAME":"後壁區","LI":"土溝里","LIN":"14鄰","STREET":" ","SECT":" ","MAREA":"土溝","LANE":" ","ALLEY":" ","HOUSE_NO":"１３９號","E_COORD97":188704.45999999999,"N_COORD97":2585748.2599999998,"ADDRESS":"土溝１３９號","OBJECTID":31205},"geometry":{"x":188704.45999999996,"y":2585748.2600000016}},{"attributes":{"ID":31206,"DIS_CODE":0,"TOWNNAME":"南區","LI":"佛壇里","LIN":"17鄰","STREET":"興南街","SECT":" ","MAREA":" ","LANE":"１０１巷","ALLEY":"１２弄","HOUSE_NO":"４６號","E_COORD97":166138.98999999999,"N_COORD97":2535711.5099999998,"ADDRESS":"興南街１０１巷１２弄４６號","OBJECTID":31206},"geometry":{"x":166138.99000000115,"y":2535711.5100000016}},{"attributes":{"ID":31207,"DIS_CODE":0,"TOWNNAME":"南區","LI":"佛壇里","LIN":"17鄰","STREET":"興南街","SECT":" ","MAREA":" ","LANE":"１０１巷","ALLEY":"１２弄","HOUSE_NO":"４８號","E_COORD97":166135.01999999999,"N_COORD97":2535709.4500000002,"ADDRESS":"興南街１０１巷１２弄４８號","OBJECTID":31207},"geometry":{"x":166135.02000000048,"y":2535709.4499999993}},{"attributes":{"ID":31208,"DIS_CODE":0,"TOWNNAME":"安南區","LI":"佃東里","LIN":"17鄰","STREET":"公學路","SECT":"四段","MAREA":" ","LANE":"５４巷","ALLEY":"３４弄","HOUSE_NO":"１０號","E_COORD97":165845.45999999999,"N_COORD97":2552130.8399999999,"ADDRESS":"公學路四段５４巷３４弄１０號","OBJECTID":31208},"geometry":{"x":165845.46000000183,"y":2552130.8399999999}},{"attributes":{"ID":31209,"DIS_CODE":0,"TOWNNAME":"安南區","LI":"佃東里","LIN":"17鄰","STREET":"公學路","SECT":"四段","MAREA":" ","LANE":"５４巷","ALLEY":"３４弄","HOUSE_NO":"１１號","E_COORD97":165844.92000000001,"N_COORD97":2552184.1600000001,"ADDRESS":"公學路四段５４巷３４弄１１號","OBJECTID":31209},"geometry":{"x":165844.91999999993,"y":2552184.1600000039}},{"attributes":{"ID":31210,"DIS_CODE":0,"TOWNNAME":"安南區","LI":"佃東里","LIN":"17鄰","STREET":"公學路","SECT":"四段","MAREA":" ","LANE":"５４巷","ALLEY":"３４弄","HOUSE_NO":"１２號","E_COORD97":165843.76999999999,"N_COORD97":2552126.7200000002,"ADDRESS":"公學路四段５４巷３４弄１２號","OBJECTID":31210},"geometry":{"x":165843.76999999955,"y":2552126.7200000044}},{"attributes":{"ID":31211,"DIS_CODE":0,"TOWNNAME":"安南區","LI":"佃東里","LIN":"17鄰","STREET":"公學路","SECT":"四段","MAREA":" ","LANE":"５４巷","ALLEY":"３４弄","HOUSE_NO":"１３號","E_COORD97":165845.39000000001,"N_COORD97":2552191.1099999999,"ADDRESS":"公學路四段５４巷３４弄１３號","OBJECTID":31211},"geometry":{"x":165845.38999999873,"y":2552191.1100000013}},{"attributes":{"ID":31212,"DIS_CODE":0,"TOWNNAME":"新市區","LI":"新市里","LIN":"8鄰","STREET":"民生路","SECT":" ","MAREA":" ","LANE":"２巷","ALLEY":"１２弄","HOUSE_NO":"６號","E_COORD97":177426.64000000001,"N_COORD97":2553163.1899999999,"ADDRESS":"民生路２巷１２弄６號","OBJECTID":31212},"geometry":{"x":177426.63999999966,"y":2553163.1900000013}},{"attributes":{"ID":31213,"DIS_CODE":0,"TOWNNAME":"安南區","LI":"佃東里","LIN":"17鄰","STREET":"公學路","SECT":"四段","MAREA":" ","LANE":"５４巷","ALLEY":"３４弄","HOUSE_NO":"１４號","E_COORD97":165843.95000000001,"N_COORD97":2552121.6600000001,"ADDRESS":"公學路四段５４巷３４弄１４號","OBJECTID":31213},"geometry":{"x":165843.95000000205,"y":2552121.6600000001}},{"attributes":{"ID":31214,"DIS_CODE":0,"TOWNNAME":"安南區","LI":"佃東里","LIN":"17鄰","STREET":"公學路","SECT":"四段","MAREA":" ","LANE":"５４巷","ALLEY":"３４弄","HOUSE_NO":"１５號","E_COORD97":165855.35000000001,"N_COORD97":2552200.3799999999,"ADDRESS":"公學路四段５４巷３４弄１５號","OBJECTID":31214},"geometry":{"x":165855.34999999963,"y":2552200.379999999}},{"attributes":{"ID":31215,"DIS_CODE":0,"TOWNNAME":"安南區","LI":"佃東里","LIN":"17鄰","STREET":"公學路","SECT":"四段","MAREA":" ","LANE":"５４巷","ALLEY":"３４弄","HOUSE_NO":"１６號","E_COORD97":165842.26999999999,"N_COORD97":2552116.7799999998,"ADDRESS":"公學路四段５４巷３４弄１６號","OBJECTID":31215},"geometry":{"x":165842.26999999955,"y":2552116.7799999993}},{"attributes":{"ID":31216,"DIS_CODE":0,"TOWNNAME":"後壁區","LI":"土溝里","LIN":"14鄰","STREET":" ","SECT":" ","MAREA":"土溝","LANE":" ","ALLEY":" ","HOUSE_NO":"１４０號","E_COORD97":188726.45000000001,"N_COORD97":2585765.21,"ADDRESS":"土溝１４０號","OBJECTID":31216},"geometry":{"x":188726.45000000112,"y":2585765.2100000009}},{"attributes":{"ID":31217,"DIS_CODE":0,"TOWNNAME":"安南區","LI":"佃東里","LIN":"17鄰","STREET":"公學路","SECT":"四段","MAREA":" ","LANE":"５４巷","ALLEY":"３４弄","HOUSE_NO":"１號","E_COORD97":165843.47,"N_COORD97":2552159.9300000002,"ADDRESS":"公學路四段５４巷３４弄１號","OBJECTID":31217},"geometry":{"x":165843.4700000016,"y":2552159.9299999997}},{"attributes":{"ID":31218,"DIS_CODE":0,"TOWNNAME":"安南區","LI":"佃東里","LIN":"17鄰","STREET":"公學路","SECT":"四段","MAREA":" ","LANE":"５４巷","ALLEY":"３４弄","HOUSE_NO":"２號","E_COORD97":165843.76999999999,"N_COORD97":2552147.7200000002,"ADDRESS":"公學路四段５４巷３４弄２號","OBJECTID":31218},"geometry":{"x":165843.76999999955,"y":2552147.7200000025}},{"attributes":{"ID":31219,"DIS_CODE":0,"TOWNNAME":"安南區","LI":"佃東里","LIN":"17鄰","STREET":"公學路","SECT":"四段","MAREA":" ","LANE":"５４巷","ALLEY":"３４弄","HOUSE_NO":"３號","E_COORD97":165842.81,"N_COORD97":2552165.0699999998,"ADDRESS":"公學路四段５４巷３４弄３號","OBJECTID":31219},"geometry":{"x":165842.81000000052,"y":2552165.0700000022}},{"attributes":{"ID":31220,"DIS_CODE":0,"TOWNNAME":"安南區","LI":"佃東里","LIN":"17鄰","STREET":"公學路","SECT":"四段","MAREA":" ","LANE":"５４巷","ALLEY":"３４弄","HOUSE_NO":"４號","E_COORD97":165844.32999999999,"N_COORD97":2552143.5899999999,"ADDRESS":"公學路四段５４巷３４弄４號","OBJECTID":31220},"geometry":{"x":165844.33000000007,"y":2552143.5900000036}},{"attributes":{"ID":31221,"DIS_CODE":0,"TOWNNAME":"安南區","LI":"佃東里","LIN":"17鄰","STREET":"公學路","SECT":"四段","MAREA":" ","LANE":"５４巷","ALLEY":"３４弄","HOUSE_NO":"５號","E_COORD97":165844,"N_COORD97":2552170.0699999998,"ADDRESS":"公學路四段５４巷３４弄５號","OBJECTID":31221},"geometry":{"x":165844.00000000093,"y":2552170.0700000003}},{"attributes":{"ID":31222,"DIS_CODE":0,"TOWNNAME":"安南區","LI":"佃東里","LIN":"17鄰","STREET":"公學路","SECT":"四段","MAREA":" ","LANE":"５４巷","ALLEY":"３４弄","HOUSE_NO":"６號","E_COORD97":165843.95000000001,"N_COORD97":2552139.4700000002,"ADDRESS":"公學路四段５４巷３４弄６號","OBJECTID":31222},"geometry":{"x":165843.95000000205,"y":2552139.4700000025}},{"attributes":{"ID":31223,"DIS_CODE":0,"TOWNNAME":"仁德區","LI":"成功里","LIN":"14鄰","STREET":"全福路","SECT":" ","MAREA":" ","LANE":" ","ALLEY":" ","HOUSE_NO":"６５號","E_COORD97":170981.59,"N_COORD97":2539319.9900000002,"ADDRESS":"全福路６５號","OBJECTID":31223},"geometry":{"x":170981.59000000078,"y":2539319.9900000021}},{"attributes":{"ID":31224,"DIS_CODE":0,"TOWNNAME":"後壁區","LI":"嘉苳里","LIN":"14鄰","STREET":" ","SECT":" ","MAREA":"本協","LANE":" ","ALLEY":" ","HOUSE_NO":"３８號之１","E_COORD97":186991.89999999999,"N_COORD97":2583559.4399999999,"ADDRESS":"本協３８號之１","OBJECTID":31224},"geometry":{"x":186991.89999999944,"y":2583559.4400000032}},{"attributes":{"ID":31225,"DIS_CODE":0,"TOWNNAME":"後壁區","LI":"嘉苳里","LIN":"14鄰","STREET":" ","SECT":" ","MAREA":"本協","LANE":" ","ALLEY":" ","HOUSE_NO":"３８號","E_COORD97":186981.38,"N_COORD97":2583567.3599999999,"ADDRESS":"本協３８號","OBJECTID":31225},"geometry":{"x":186981.38000000175,"y":2583567.3600000013}},{"attributes":{"ID":31226,"DIS_CODE":0,"TOWNNAME":"後壁區","LI":"嘉苳里","LIN":"14鄰","STREET":" ","SECT":" ","MAREA":"本協","LANE":" ","ALLEY":" ","HOUSE_NO":"３９號","E_COORD97":186957.92999999999,"N_COORD97":2583502.8900000001,"ADDRESS":"本協３９號","OBJECTID":31226},"geometry":{"x":186957.93000000063,"y":2583502.8900000006}},{"attributes":{"ID":31227,"DIS_CODE":0,"TOWNNAME":"後壁區","LI":"新嘉里","LIN":"14鄰","STREET":" ","SECT":" ","MAREA":"白沙屯","LANE":" ","ALLEY":" ","HOUSE_NO":"１５４號之１","E_COORD97":179552.14999999999,"N_COORD97":2585413.2999999998,"ADDRESS":"白沙屯１５４號之１","OBJECTID":31227},"geometry":{"x":179552.1500000013,"y":2585413.3000000026}},{"attributes":{"ID":31228,"DIS_CODE":0,"TOWNNAME":"安南區","LI":"佃東里","LIN":"17鄰","STREET":"公學路","SECT":"四段","MAREA":" ","LANE":"５４巷","ALLEY":"３４弄","HOUSE_NO":"７號","E_COORD97":165844,"N_COORD97":2552175.2000000002,"ADDRESS":"公學路四段５４巷３４弄７號","OBJECTID":31228},"geometry":{"x":165844.00000000093,"y":2552175.1999999993}},{"attributes":{"ID":31229,"DIS_CODE":0,"TOWNNAME":"後壁區","LI":"新嘉里","LIN":"14鄰","STREET":" ","SECT":" ","MAREA":"白沙屯","LANE":" ","ALLEY":" ","HOUSE_NO":"１５４號之２","E_COORD97":179592.98000000001,"N_COORD97":2585399.6000000001,"ADDRESS":"白沙屯１５４號之２","OBJECTID":31229},"geometry":{"x":179592.98000000045,"y":2585399.6000000034}},{"attributes":{"ID":31230,"DIS_CODE":0,"TOWNNAME":"安南區","LI":"佃東里","LIN":"17鄰","STREET":"公學路","SECT":"四段","MAREA":" ","LANE":"５４巷","ALLEY":"３４弄","HOUSE_NO":"８號","E_COORD97":165844.14000000001,"N_COORD97":2552134.5899999999,"ADDRESS":"公學路四段５４巷３４弄８號","OBJECTID":31230},"geometry":{"x":165844.1400000006,"y":2552134.5900000017}},{"attributes":{"ID":31231,"DIS_CODE":0,"TOWNNAME":"後壁區","LI":"新嘉里","LIN":"14鄰","STREET":" ","SECT":" ","MAREA":"白沙屯","LANE":" ","ALLEY":" ","HOUSE_NO":"１５４號","E_COORD97":179585.01999999999,"N_COORD97":2585410.71,"ADDRESS":"白沙屯１５４號","OBJECTID":31231},"geometry":{"x":179585.01999999955,"y":2585410.7100000028}},{"attributes":{"ID":31232,"DIS_CODE":0,"TOWNNAME":"後壁區","LI":"新嘉里","LIN":"14鄰","STREET":" ","SECT":" ","MAREA":"白沙屯","LANE":" ","ALLEY":" ","HOUSE_NO":"１５５號之１","E_COORD97":179567.87,"N_COORD97":2585302.4300000002,"ADDRESS":"白沙屯１５５號之１","OBJECTID":31232},"geometry":{"x":179567.87000000011,"y":2585302.4300000034}},{"attributes":{"ID":31233,"DIS_CODE":0,"TOWNNAME":"後壁區","LI":"新嘉里","LIN":"14鄰","STREET":" ","SECT":" ","MAREA":"白沙屯","LANE":" ","ALLEY":" ","HOUSE_NO":"１５５號","E_COORD97":179582.12,"N_COORD97":2585432.0299999998,"ADDRESS":"白沙屯１５５號","OBJECTID":31233},"geometry":{"x":179582.11999999918,"y":2585432.0299999993}},{"attributes":{"ID":31234,"DIS_CODE":0,"TOWNNAME":"安南區","LI":"佃東里","LIN":"17鄰","STREET":"公學路","SECT":"四段","MAREA":" ","LANE":"５４巷","ALLEY":"３４弄","HOUSE_NO":"９號","E_COORD97":165844.66,"N_COORD97":2552179.6800000002,"ADDRESS":"公學路四段５４巷３４弄９號","OBJECTID":31234},"geometry":{"x":165844.66000000108,"y":2552179.6799999997}},{"attributes":{"ID":31235,"DIS_CODE":0,"TOWNNAME":"新市區","LI":"大社里","LIN":"8鄰","STREET":" ","SECT":" ","MAREA":"大社","LANE":" ","ALLEY":" ","HOUSE_NO":"２７６號","E_COORD97":180358.64999999999,"N_COORD97":2554458,"ADDRESS":"大社２７６號","OBJECTID":31235},"geometry":{"x":180358.65000000224,"y":2554458.0000000019}},{"attributes":{"ID":31236,"DIS_CODE":0,"TOWNNAME":"新市區","LI":"三舍里","LIN":"8鄰","STREET":" ","SECT":" ","MAREA":"三舍","LANE":" ","ALLEY":" ","HOUSE_NO":"１８２之７號","E_COORD97":177400.59,"N_COORD97":2554892.7999999998,"ADDRESS":"三舍１８２之７號","OBJECTID":31236},"geometry":{"x":177400.59000000171,"y":2554892.8000000045}},{"attributes":{"ID":31237,"DIS_CODE":0,"TOWNNAME":"善化區","LI":"坐駕里","LIN":"17鄰","STREET":"興華路","SECT":" ","MAREA":" ","LANE":"２６１巷","ALLEY":"２弄","HOUSE_NO":"３０號","E_COORD97":177974.51999999999,"N_COORD97":2558491.75,"ADDRESS":"興華路２６１巷２弄３０號","OBJECTID":31237},"geometry":{"x":177974.51999999955,"y":2558491.75}},{"attributes":{"ID":31238,"DIS_CODE":0,"TOWNNAME":"仁德區","LI":"土庫里","LIN":"17鄰","STREET":"土庫一街","SECT":" ","MAREA":" ","LANE":"２２巷","ALLEY":"１５弄","HOUSE_NO":"１７號","E_COORD97":174567.63,"N_COORD97":2543060.9900000002,"ADDRESS":"土庫一街２２巷１５弄１７號","OBJECTID":31238},"geometry":{"x":174567.63000000175,"y":2543060.9900000002}},{"attributes":{"ID":31239,"DIS_CODE":0,"TOWNNAME":"仁德區","LI":"土庫里","LIN":"17鄰","STREET":"土庫一街","SECT":" ","MAREA":" ","LANE":"２２巷","ALLEY":"１３弄","HOUSE_NO":"７號","E_COORD97":174521.87,"N_COORD97":2543059.9900000002,"ADDRESS":"土庫一街２２巷１３弄７號","OBJECTID":31239},"geometry":{"x":174521.87000000011,"y":2543059.9900000002}},{"attributes":{"ID":31240,"DIS_CODE":0,"TOWNNAME":"東區","LI":"富強里","LIN":"17鄰","STREET":"裕農路","SECT":" ","MAREA":" ","LANE":"２８８巷","ALLEY":"１２４弄","HOUSE_NO":"１１號","E_COORD97":171049,"N_COORD97":2542927.3799999999,"ADDRESS":"裕農路２８８巷１２４弄１１號","OBJECTID":31240},"geometry":{"x":171049,"y":2542927.379999999}},{"attributes":{"ID":31241,"DIS_CODE":0,"TOWNNAME":"東區","LI":"富強里","LIN":"17鄰","STREET":"裕農路","SECT":" ","MAREA":" ","LANE":"２８８巷","ALLEY":"１２４弄","HOUSE_NO":"１２號","E_COORD97":171025.76000000001,"N_COORD97":2542924.79,"ADDRESS":"裕農路２８８巷１２４弄１２號","OBJECTID":31241},"geometry":{"x":171025.76000000071,"y":2542924.7899999991}},{"attributes":{"ID":31242,"DIS_CODE":0,"TOWNNAME":"東區","LI":"富強里","LIN":"17鄰","STREET":"裕農路","SECT":" ","MAREA":" ","LANE":"２８８巷","ALLEY":"１２４弄","HOUSE_NO":"１５號","E_COORD97":171051.19,"N_COORD97":2542915.3599999999,"ADDRESS":"裕農路２８８巷１２４弄１５號","OBJECTID":31242},"geometry":{"x":171051.19000000041,"y":2542915.3599999994}},{"attributes":{"ID":31243,"DIS_CODE":0,"TOWNNAME":"東區","LI":"富強里","LIN":"17鄰","STREET":"裕農路","SECT":" ","MAREA":" ","LANE":"２８８巷","ALLEY":"１２４弄","HOUSE_NO":"１８號","E_COORD97":171025.48999999999,"N_COORD97":2542913.23,"ADDRESS":"裕農路２８８巷１２４弄１８號","OBJECTID":31243},"geometry":{"x":171025.49000000022,"y":2542913.2300000004}},{"attributes":{"ID":31244,"DIS_CODE":0,"TOWNNAME":"東區","LI":"富強里","LIN":"17鄰","STREET":"裕農路","SECT":" ","MAREA":" ","LANE":"２８８巷","ALLEY":"１２４弄","HOUSE_NO":"１號","E_COORD97":171043.60000000001,"N_COORD97":2542939.21,"ADDRESS":"裕農路２８８巷１２４弄１號","OBJECTID":31244},"geometry":{"x":171043.60000000056,"y":2542939.2100000028}},{"attributes":{"ID":31245,"DIS_CODE":0,"TOWNNAME":"東區","LI":"富強里","LIN":"17鄰","STREET":"裕農路","SECT":" ","MAREA":" ","LANE":"２８８巷","ALLEY":"１２４弄","HOUSE_NO":"２２號","E_COORD97":171025.82999999999,"N_COORD97":2542907.7000000002,"ADDRESS":"裕農路２８８巷１２４弄２２號","OBJECTID":31245},"geometry":{"x":171025.83000000101,"y":2542907.7000000011}},{"attributes":{"ID":31246,"DIS_CODE":0,"TOWNNAME":"東區","LI":"富強里","LIN":"17鄰","STREET":"裕農路","SECT":" ","MAREA":" ","LANE":"２８８巷","ALLEY":"１２４弄","HOUSE_NO":"２６號","E_COORD97":171026.51000000001,"N_COORD97":2542901.4900000002,"ADDRESS":"裕農路２８８巷１２４弄２６號","OBJECTID":31246},"geometry":{"x":171026.50999999978,"y":2542901.4900000002}},{"attributes":{"ID":31247,"DIS_CODE":0,"TOWNNAME":"東區","LI":"富強里","LIN":"17鄰","STREET":"裕農路","SECT":" ","MAREA":" ","LANE":"２８８巷","ALLEY":"１２４弄","HOUSE_NO":"２７號","E_COORD97":171052.60000000001,"N_COORD97":2542894.2599999998,"ADDRESS":"裕農路２８８巷１２４弄２７號","OBJECTID":31247},"geometry":{"x":171052.59999999963,"y":2542894.2600000016}},{"attributes":{"ID":31248,"DIS_CODE":0,"TOWNNAME":"仁德區","LI":"成功里","LIN":"14鄰","STREET":"全福路","SECT":" ","MAREA":" ","LANE":" ","ALLEY":" ","HOUSE_NO":"３２號","E_COORD97":170903.48999999999,"N_COORD97":2539308.5,"ADDRESS":"全福路３２號","OBJECTID":31248},"geometry":{"x":170903.49000000022,"y":2539308.5000000037}},{"attributes":{"ID":31249,"DIS_CODE":0,"TOWNNAME":"仁德區","LI":"成功里","LIN":"14鄰","STREET":"全福路","SECT":" ","MAREA":" ","LANE":" ","ALLEY":" ","HOUSE_NO":"５０號","E_COORD97":170942.06,"N_COORD97":2539305.5,"ADDRESS":"全福路５０號","OBJECTID":31249},"geometry":{"x":170942.06000000052,"y":2539305.5000000019}},{"attributes":{"ID":31250,"DIS_CODE":0,"TOWNNAME":"仁德區","LI":"成功里","LIN":"14鄰","STREET":"全福路","SECT":" ","MAREA":" ","LANE":" ","ALLEY":" ","HOUSE_NO":"６９號","E_COORD97":170989.73000000001,"N_COORD97":2539319.4900000002,"ADDRESS":"全福路６９號","OBJECTID":31250},"geometry":{"x":170989.73000000138,"y":2539319.4900000021}},{"attributes":{"ID":31251,"DIS_CODE":0,"TOWNNAME":"仁德區","LI":"成功里","LIN":"14鄰","STREET":"全福路","SECT":" ","MAREA":" ","LANE":" ","ALLEY":" ","HOUSE_NO":"５２號","E_COORD97":170946.42000000001,"N_COORD97":2539305.25,"ADDRESS":"全福路５２號","OBJECTID":31251},"geometry":{"x":170946.42000000179,"y":2539305.25}},{"attributes":{"ID":31252,"DIS_CODE":0,"TOWNNAME":"仁德區","LI":"保安里","LIN":"14鄰","STREET":"文賢路","SECT":"一段","MAREA":" ","LANE":" ","ALLEY":" ","HOUSE_NO":"６１９號","E_COORD97":171146.87,"N_COORD97":2536721.0699999998,"ADDRESS":"文賢路一段６１９號","OBJECTID":31252},"geometry":{"x":171146.86999999918,"y":2536721.0699999984}},{"attributes":{"ID":31253,"DIS_CODE":0,"TOWNNAME":"歸仁區","LI":"南保里","LIN":"35鄰","STREET":"民權八街","SECT":" ","MAREA":" ","LANE":" ","ALLEY":" ","HOUSE_NO":"７９號","E_COORD97":176715.20999999999,"N_COORD97":2541021.25,"ADDRESS":"民權八街７９號","OBJECTID":31253},"geometry":{"x":176715.21000000089,"y":2541021.25}},{"attributes":{"ID":31254,"DIS_CODE":0,"TOWNNAME":"歸仁區","LI":"南保里","LIN":"5鄰","STREET":"文化街","SECT":"三段","MAREA":" ","LANE":" ","ALLEY":" ","HOUSE_NO":"２２號","E_COORD97":176936.07000000001,"N_COORD97":2541248.2599999998,"ADDRESS":"文化街三段２２號","OBJECTID":31254},"geometry":{"x":176936.0700000003,"y":2541248.2599999998}},{"attributes":{"ID":31255,"DIS_CODE":0,"TOWNNAME":"東區","LI":"富強里","LIN":"17鄰","STREET":"裕農路","SECT":" ","MAREA":" ","LANE":"２８８巷","ALLEY":"１２４弄","HOUSE_NO":"２８號","E_COORD97":171025.97,"N_COORD97":2542897.8700000001,"ADDRESS":"裕農路２８８巷１２４弄２８號","OBJECTID":31255},"geometry":{"x":171025.97000000067,"y":2542897.8700000029}},{"attributes":{"ID":31256,"DIS_CODE":0,"TOWNNAME":"楠西區","LI":"楠西里","LIN":"18鄰","STREET":"中正路","SECT":" ","MAREA":" ","LANE":" ","ALLEY":" ","HOUSE_NO":"７０號","E_COORD97":197212.01000000001,"N_COORD97":2564058.25,"ADDRESS":"中正路７０號","OBJECTID":31256},"geometry":{"x":197212.00999999978,"y":2564058.25}},{"attributes":{"ID":31257,"DIS_CODE":0,"TOWNNAME":"東區","LI":"富強里","LIN":"17鄰","STREET":"裕農路","SECT":" ","MAREA":" ","LANE":"２８８巷","ALLEY":"１２４弄","HOUSE_NO":"３２號","E_COORD97":171026.79000000001,"N_COORD97":2542888.6499999999,"ADDRESS":"裕農路２８８巷１２４弄３２號","OBJECTID":31257},"geometry":{"x":171026.79000000004,"y":2542888.6500000022}},{"attributes":{"ID":31258,"DIS_CODE":0,"TOWNNAME":"楠西區","LI":"楠西里","LIN":"17鄰","STREET":"中正路","SECT":" ","MAREA":" ","LANE":" ","ALLEY":" ","HOUSE_NO":"９７號","E_COORD97":197258.31,"N_COORD97":2563980.25,"ADDRESS":"中正路９７號","OBJECTID":31258},"geometry":{"x":197258.31000000052,"y":2563980.25}},{"attributes":{"ID":31259,"DIS_CODE":0,"TOWNNAME":"楠西區","LI":"東勢里","LIN":"13鄰","STREET":"信義路","SECT":" ","MAREA":" ","LANE":" ","ALLEY":" ","HOUSE_NO":"１５５號","E_COORD97":197644.67000000001,"N_COORD97":2563798.27,"ADDRESS":"信義路１５５號","OBJECTID":31259},"geometry":{"x":197644.67000000086,"y":2563798.2700000033}},{"attributes":{"ID":31260,"DIS_CODE":0,"TOWNNAME":"楠西區","LI":"東勢里","LIN":"14鄰","STREET":"茄拔路","SECT":" ","MAREA":" ","LANE":" ","ALLEY":" ","HOUSE_NO":"１７５號","E_COORD97":197425.01999999999,"N_COORD97":2563781.2000000002,"ADDRESS":"茄拔路１７５號","OBJECTID":31260},"geometry":{"x":197425.02000000048,"y":2563781.200000003}},{"attributes":{"ID":31261,"DIS_CODE":0,"TOWNNAME":"山上區","LI":"新莊里","LIN":"8鄰","STREET":" ","SECT":" ","MAREA":"大庄","LANE":" ","ALLEY":" ","HOUSE_NO":"３０之２號","E_COORD97":183843.95999999999,"N_COORD97":2554857.2999999998,"ADDRESS":"大庄３０之２號","OBJECTID":31261},"geometry":{"x":183843.96000000089,"y":2554857.3000000007}},{"attributes":{"ID":31262,"DIS_CODE":0,"TOWNNAME":"東區","LI":"富強里","LIN":"17鄰","STREET":"裕農路","SECT":" ","MAREA":" ","LANE":"２８８巷","ALLEY":"１２４弄","HOUSE_NO":"３３號","E_COORD97":171053.12,"N_COORD97":2542884.3500000001,"ADDRESS":"裕農路２８８巷１２４弄３３號","OBJECTID":31262},"geometry":{"x":171053.12000000011,"y":2542884.3499999996}},{"attributes":{"ID":31263,"DIS_CODE":0,"TOWNNAME":"新市區","LI":"三舍里","LIN":"8鄰","STREET":" ","SECT":" ","MAREA":"三舍","LANE":" ","ALLEY":" ","HOUSE_NO":"１８３之６號","E_COORD97":177368.95999999999,"N_COORD97":2554882.0499999998,"ADDRESS":"三舍１８３之６號","OBJECTID":31263},"geometry":{"x":177368.95999999996,"y":2554882.0500000026}},{"attributes":{"ID":31264,"DIS_CODE":0,"TOWNNAME":"東區","LI":"富強里","LIN":"17鄰","STREET":"裕農路","SECT":" ","MAREA":" ","LANE":"２８８巷","ALLEY":"１２４弄","HOUSE_NO":"３４號","E_COORD97":171027.67000000001,"N_COORD97":2542885.5099999998,"ADDRESS":"裕農路２８８巷１２４弄３４號","OBJECTID":31264},"geometry":{"x":171027.66999999899,"y":2542885.5100000016}},{"attributes":{"ID":31265,"DIS_CODE":0,"TOWNNAME":"東區","LI":"富強里","LIN":"17鄰","STREET":"裕農路","SECT":" ","MAREA":" ","LANE":"２８８巷","ALLEY":"１２４弄","HOUSE_NO":"３６號","E_COORD97":171027.20000000001,"N_COORD97":2542882.71,"ADDRESS":"裕農路２８８巷１２４弄３６號","OBJECTID":31265},"geometry":{"x":171027.20000000019,"y":2542882.7100000028}},{"attributes":{"ID":31266,"DIS_CODE":0,"TOWNNAME":"東區","LI":"富強里","LIN":"17鄰","STREET":"裕農路","SECT":" ","MAREA":" ","LANE":"２８８巷","ALLEY":"１２４弄","HOUSE_NO":"３９號","E_COORD97":171054.48999999999,"N_COORD97":2542875.48,"ADDRESS":"裕農路２８８巷１２４弄３９號","OBJECTID":31266},"geometry":{"x":171054.49000000022,"y":2542875.4800000042}},{"attributes":{"ID":31267,"DIS_CODE":0,"TOWNNAME":"東區","LI":"富強里","LIN":"17鄰","STREET":"裕農路","SECT":" ","MAREA":" ","LANE":"２８８巷","ALLEY":"１２４弄","HOUSE_NO":"３號","E_COORD97":171044.37,"N_COORD97":2542935.48,"ADDRESS":"裕農路２８８巷１２４弄３號","OBJECTID":31267},"geometry":{"x":171044.37000000104,"y":2542935.4800000004}},{"attributes":{"ID":31268,"DIS_CODE":0,"TOWNNAME":"東區","LI":"富強里","LIN":"17鄰","STREET":"裕農路","SECT":" ","MAREA":" ","LANE":"２８８巷","ALLEY":"１２４弄","HOUSE_NO":"４０號","E_COORD97":171028.42999999999,"N_COORD97":2542876.8399999999,"ADDRESS":"裕農路２８８巷１２４弄４０號","OBJECTID":31268},"geometry":{"x":171028.4299999997,"y":2542876.8400000017}},{"attributes":{"ID":31269,"DIS_CODE":0,"TOWNNAME":"永康區","LI":"西灣里","LIN":"17鄰","STREET":"民族路","SECT":" ","MAREA":" ","LANE":"５１３巷","ALLEY":"１弄","HOUSE_NO":"５號","E_COORD97":174526.66,"N_COORD97":2545432.5299999998,"ADDRESS":"民族路５１３巷１弄５號","OBJECTID":31269},"geometry":{"x":174526.66000000015,"y":2545432.5299999993}},{"attributes":{"ID":31270,"DIS_CODE":0,"TOWNNAME":"東區","LI":"富強里","LIN":"17鄰","STREET":"裕農路","SECT":" ","MAREA":" ","LANE":"２８８巷","ALLEY":"１２４弄","HOUSE_NO":"４５號","E_COORD97":171051.09,"N_COORD97":2542866.73,"ADDRESS":"裕農路２８８巷１２４弄４５號","OBJECTID":31270},"geometry":{"x":171051.09000000078,"y":2542866.7300000004}},{"attributes":{"ID":31271,"DIS_CODE":0,"TOWNNAME":"永康區","LI":"復華里","LIN":"31鄰","STREET":"復華八街","SECT":" ","MAREA":" ","LANE":"５１巷","ALLEY":"６１弄","HOUSE_NO":"１０號","E_COORD97":172597.23934500001,"N_COORD97":2546416.6114500002,"ADDRESS":"復華八街５１巷６１弄１０號","OBJECTID":31271},"geometry":{"x":172597.23934500013,"y":2546416.611448003}},{"attributes":{"ID":31272,"DIS_CODE":0,"TOWNNAME":"東區","LI":"富強里","LIN":"17鄰","STREET":"裕農路","SECT":" ","MAREA":" ","LANE":"２８８巷","ALLEY":"１２４弄","HOUSE_NO":"４６號","E_COORD97":171031.56,"N_COORD97":2542865.5299999998,"ADDRESS":"裕農路２８８巷１２４弄４６號","OBJECTID":31272},"geometry":{"x":171031.56000000145,"y":2542865.5299999993}},{"attributes":{"ID":31273,"DIS_CODE":0,"TOWNNAME":"東區","LI":"富強里","LIN":"17鄰","STREET":"裕農路","SECT":" ","MAREA":" ","LANE":"２８８巷","ALLEY":"１２４弄","HOUSE_NO":"４９號","E_COORD97":171047.70000000001,"N_COORD97":2542861.3300000001,"ADDRESS":"裕農路２８８巷１２４弄４９號","OBJECTID":31273},"geometry":{"x":171047.70000000019,"y":2542861.3300000001}},{"attributes":{"ID":31274,"DIS_CODE":0,"TOWNNAME":"東區","LI":"富強里","LIN":"17鄰","STREET":"裕農路","SECT":" ","MAREA":" ","LANE":"２８８巷","ALLEY":"１２４弄","HOUSE_NO":"４號","E_COORD97":171028.29000000001,"N_COORD97":2542934.3399999999,"ADDRESS":"裕農路２８８巷１２４弄４號","OBJECTID":31274},"geometry":{"x":171028.29000000004,"y":2542934.3400000017}},{"attributes":{"ID":31275,"DIS_CODE":0,"TOWNNAME":"東區","LI":"富強里","LIN":"17鄰","STREET":"裕農路","SECT":" ","MAREA":" ","LANE":"２８８巷","ALLEY":"１２４弄","HOUSE_NO":"５０號","E_COORD97":171037.84,"N_COORD97":2542866.5299999998,"ADDRESS":"裕農路２８８巷１２４弄５０號","OBJECTID":31275},"geometry":{"x":171037.83999999985,"y":2542866.5299999993}},{"attributes":{"ID":31276,"DIS_CODE":0,"TOWNNAME":"東區","LI":"富強里","LIN":"17鄰","STREET":"裕農路","SECT":" ","MAREA":" ","LANE":"２８８巷","ALLEY":"１２４弄","HOUSE_NO":"５１號","E_COORD97":171048.79000000001,"N_COORD97":2542857.75,"ADDRESS":"裕農路２８８巷１２４弄５１號","OBJECTID":31276},"geometry":{"x":171048.79000000004,"y":2542857.7500000019}},{"attributes":{"ID":31277,"DIS_CODE":0,"TOWNNAME":"東區","LI":"富強里","LIN":"17鄰","STREET":"裕農路","SECT":" ","MAREA":" ","LANE":"２８８巷","ALLEY":"１２４弄","HOUSE_NO":"５２號","E_COORD97":171034.54999999999,"N_COORD97":2542860.5299999998,"ADDRESS":"裕農路２８８巷１２４弄５２號","OBJECTID":31277},"geometry":{"x":171034.54999999981,"y":2542860.5300000031}},{"attributes":{"ID":31278,"DIS_CODE":0,"TOWNNAME":"東區","LI":"富強里","LIN":"17鄰","STREET":"裕農路","SECT":" ","MAREA":" ","LANE":"２８８巷","ALLEY":"１２４弄","HOUSE_NO":"５４號","E_COORD97":171035.14999999999,"N_COORD97":2542856.4500000002,"ADDRESS":"裕農路２８８巷１２４弄５４號","OBJECTID":31278},"geometry":{"x":171035.15000000224,"y":2542856.4499999993}},{"attributes":{"ID":31279,"DIS_CODE":0,"TOWNNAME":"東區","LI":"富強里","LIN":"17鄰","STREET":"裕農路","SECT":" ","MAREA":" ","LANE":"２８８巷","ALLEY":"１２４弄","HOUSE_NO":"５５號","E_COORD97":171049.19,"N_COORD97":2542849.5899999999,"ADDRESS":"裕農路２８８巷１２４弄５５號","OBJECTID":31279},"geometry":{"x":171049.19000000134,"y":2542849.5899999999}},{"attributes":{"ID":31280,"DIS_CODE":0,"TOWNNAME":"東區","LI":"富強里","LIN":"17鄰","STREET":"裕農路","SECT":" ","MAREA":" ","LANE":"２８８巷","ALLEY":"１２４弄","HOUSE_NO":"５６號","E_COORD97":171035.75,"N_COORD97":2542852.9700000002,"ADDRESS":"裕農路２８８巷１２４弄５６號","OBJECTID":31280},"geometry":{"x":171035.75000000186,"y":2542852.9700000025}},{"attributes":{"ID":31281,"DIS_CODE":0,"TOWNNAME":"東區","LI":"富強里","LIN":"17鄰","STREET":"裕農路","SECT":" ","MAREA":" ","LANE":"２８８巷","ALLEY":"１２４弄","HOUSE_NO":"５８號","E_COORD97":171035.75,"N_COORD97":2542848.3900000001,"ADDRESS":"裕農路２８８巷１２４弄５８號","OBJECTID":31281},"geometry":{"x":171035.75000000186,"y":2542848.3900000006}},{"attributes":{"ID":31282,"DIS_CODE":0,"TOWNNAME":"東區","LI":"富強里","LIN":"17鄰","STREET":"裕農路","SECT":" ","MAREA":" ","LANE":"２８８巷","ALLEY":"１２４弄","HOUSE_NO":"６號","E_COORD97":171028.97,"N_COORD97":2542929.98,"ADDRESS":"裕農路２８８巷１２４弄６號","OBJECTID":31282},"geometry":{"x":171028.9700000016,"y":2542929.9800000042}},{"attributes":{"ID":31283,"DIS_CODE":0,"TOWNNAME":"東區","LI":"富強里","LIN":"17鄰","STREET":"裕農路","SECT":" ","MAREA":" ","LANE":"２８８巷","ALLEY":"１２４弄","HOUSE_NO":"７號","E_COORD97":171041.13,"N_COORD97":2542925.8199999998,"ADDRESS":"裕農路２８８巷１２４弄７號","OBJECTID":31283},"geometry":{"x":171041.12999999989,"y":2542925.8200000003}},{"attributes":{"ID":31284,"DIS_CODE":0,"TOWNNAME":"東區","LI":"富強里","LIN":"17鄰","STREET":"裕農路","SECT":" ","MAREA":" ","LANE":"２８８巷","ALLEY":"１２４弄","HOUSE_NO":"９號","E_COORD97":171046.04999999999,"N_COORD97":2542926.23,"ADDRESS":"裕農路２８８巷１２４弄９號","OBJECTID":31284},"geometry":{"x":171046.05000000075,"y":2542926.2300000023}},{"attributes":{"ID":31285,"DIS_CODE":0,"TOWNNAME":"仁德區","LI":"新田里","LIN":"14鄰","STREET":"中正路","SECT":"二段","MAREA":" ","LANE":" ","ALLEY":" ","HOUSE_NO":"４９０號","E_COORD97":173343.81,"N_COORD97":2539438.52,"ADDRESS":"中正路二段４９０號","OBJECTID":31285},"geometry":{"x":173343.81000000145,"y":2539438.5199999996}},{"attributes":{"ID":31286,"DIS_CODE":0,"TOWNNAME":"仁德區","LI":"新田里","LIN":"14鄰","STREET":"中正路","SECT":"二段","MAREA":" ","LANE":" ","ALLEY":" ","HOUSE_NO":"４９２號","E_COORD97":173345.54000000001,"N_COORD97":2539442.27,"ADDRESS":"中正路二段４９２號","OBJECTID":31286},"geometry":{"x":173345.54000000004,"y":2539442.2700000014}},{"attributes":{"ID":31287,"DIS_CODE":0,"TOWNNAME":"新市區","LI":"永就里","LIN":"8鄰","STREET":" ","SECT":" ","MAREA":"永就","LANE":" ","ALLEY":" ","HOUSE_NO":"８６之４號","E_COORD97":177521.87,"N_COORD97":2551547.7999999998,"ADDRESS":"永就８６之４號","OBJECTID":31287},"geometry":{"x":177521.87000000011,"y":2551547.8000000026}},{"attributes":{"ID":31288,"DIS_CODE":0,"TOWNNAME":"永康區","LI":"甲頂里","LIN":"17鄰","STREET":"中正南路","SECT":" ","MAREA":" ","LANE":"５２巷","ALLEY":"４６弄","HOUSE_NO":"１０號","E_COORD97":169838.38,"N_COORD97":2546690.7999999998,"ADDRESS":"中正南路５２巷４６弄１０號","OBJECTID":31288},"geometry":{"x":169838.38000000082,"y":2546690.8000000007}},{"attributes":{"ID":31289,"DIS_CODE":0,"TOWNNAME":"永康區","LI":"安康里","LIN":"17鄰","STREET":"中華路","SECT":" ","MAREA":" ","LANE":"６１９巷","ALLEY":"２２弄","HOUSE_NO":"８號","E_COORD97":170994.35000000001,"N_COORD97":2546113.5,"ADDRESS":"中華路６１９巷２２弄８號","OBJECTID":31289},"geometry":{"x":170994.35000000056,"y":2546113.5000000019}},{"attributes":{"ID":31290,"DIS_CODE":0,"TOWNNAME":"永康區","LI":"甲頂里","LIN":"17鄰","STREET":"中正南路","SECT":" ","MAREA":" ","LANE":"５２巷","ALLEY":"４６弄","HOUSE_NO":"２０號","E_COORD97":169879,"N_COORD97":2546696.0499999998,"ADDRESS":"中正南路５２巷４６弄２０號","OBJECTID":31290},"geometry":{"x":169879,"y":2546696.0499999989}},{"attributes":{"ID":31291,"DIS_CODE":0,"TOWNNAME":"永康區","LI":"安康里","LIN":"17鄰","STREET":"中華路","SECT":" ","MAREA":" ","LANE":"６１９巷","ALLEY":"２２弄","HOUSE_NO":"１２號","E_COORD97":170991.45999999999,"N_COORD97":2546120.75,"ADDRESS":"中華路６１９巷２２弄１２號","OBJECTID":31291},"geometry":{"x":170991.45999999996,"y":2546120.75}},{"attributes":{"ID":31292,"DIS_CODE":0,"TOWNNAME":"永康區","LI":"甲頂里","LIN":"17鄰","STREET":"中正南路","SECT":" ","MAREA":" ","LANE":"５２巷","ALLEY":"４６弄","HOUSE_NO":"１３號","E_COORD97":169850.91,"N_COORD97":2546692.5499999998,"ADDRESS":"中正南路５２巷４６弄１３號","OBJECTID":31292},"geometry":{"x":169850.91000000015,"y":2546692.5500000007}},{"attributes":{"ID":31293,"DIS_CODE":0,"TOWNNAME":"永康區","LI":"西勢里","LIN":"17鄰","STREET":"富強路","SECT":"一段","MAREA":" ","LANE":"２５４巷","ALLEY":"１６弄","HOUSE_NO":"１４號","E_COORD97":175704.25,"N_COORD97":2546420.6400000001,"ADDRESS":"富強路一段２５４巷１６弄１４號","OBJECTID":31293},"geometry":{"x":175704.24999999907,"y":2546420.6400000006}},{"attributes":{"ID":31294,"DIS_CODE":0,"TOWNNAME":"永康區","LI":"甲頂里","LIN":"17鄰","STREET":"中正南路","SECT":" ","MAREA":" ","LANE":"５２巷","ALLEY":"４６弄","HOUSE_NO":"４號","E_COORD97":169833.54999999999,"N_COORD97":2546742.0600000001,"ADDRESS":"中正南路５２巷４６弄４號","OBJECTID":31294},"geometry":{"x":169833.55000000075,"y":2546742.0600000005}},{"attributes":{"ID":31295,"DIS_CODE":0,"TOWNNAME":"永康區","LI":"甲頂里","LIN":"17鄰","STREET":"中正南路","SECT":" ","MAREA":" ","LANE":"５２巷","ALLEY":"４６弄","HOUSE_NO":"１２號","E_COORD97":169846.70999999999,"N_COORD97":2546692.0499999998,"ADDRESS":"中正南路５２巷４６弄１２號","OBJECTID":31295},"geometry":{"x":169846.71000000089,"y":2546692.0500000007}},{"attributes":{"ID":31296,"DIS_CODE":0,"TOWNNAME":"永康區","LI":"安康里","LIN":"17鄰","STREET":"中華路","SECT":" ","MAREA":" ","LANE":"６１９巷","ALLEY":"２２弄","HOUSE_NO":"１０號","E_COORD97":170993.56,"N_COORD97":2546117.25,"ADDRESS":"中華路６１９巷２２弄１０號","OBJECTID":31296},"geometry":{"x":170993.55999999959,"y":2546117.25}},{"attributes":{"ID":31297,"DIS_CODE":0,"TOWNNAME":"新市區","LI":"社內里","LIN":"8鄰","STREET":" ","SECT":" ","MAREA":"社內","LANE":" ","ALLEY":" ","HOUSE_NO":"７６之６０號","E_COORD97":176597.5,"N_COORD97":2553154.2999999998,"ADDRESS":"社內７６之６０號","OBJECTID":31297},"geometry":{"x":176597.5,"y":2553154.3000000026}},{"attributes":{"ID":31298,"DIS_CODE":0,"TOWNNAME":"永康區","LI":"甲頂里","LIN":"17鄰","STREET":"中正南路","SECT":" ","MAREA":" ","LANE":"５２巷","ALLEY":"４６弄","HOUSE_NO":"１７號","E_COORD97":169866.34,"N_COORD97":2546694.2999999998,"ADDRESS":"中正南路５２巷４６弄１７號","OBJECTID":31298},"geometry":{"x":169866.33999999985,"y":2546694.3000000007}},{"attributes":{"ID":31299,"DIS_CODE":0,"TOWNNAME":"永康區","LI":"甲頂里","LIN":"17鄰","STREET":"中正南路","SECT":" ","MAREA":" ","LANE":"５２巷","ALLEY":"４６弄","HOUSE_NO":"１號","E_COORD97":169834.10000000001,"N_COORD97":2546756.3100000001,"ADDRESS":"中正南路５２巷４６弄１號","OBJECTID":31299},"geometry":{"x":169834.09999999963,"y":2546756.3100000024}},{"attributes":{"ID":31300,"DIS_CODE":0,"TOWNNAME":"白河區","LI":"蓮潭里","LIN":"4鄰","STREET":" ","SECT":" ","MAREA":"山子腳","LANE":" ","ALLEY":" ","HOUSE_NO":"５號","E_COORD97":189256.64999999999,"N_COORD97":2588321.9399999999,"ADDRESS":"山子腳５號","OBJECTID":31300},"geometry":{"x":189256.64999999944,"y":2588321.9399999995}},{"attributes":{"ID":31301,"DIS_CODE":0,"TOWNNAME":"東區","LI":"富強里","LIN":"17鄰","STREET":"裕農路","SECT":" ","MAREA":" ","LANE":"２８８巷","ALLEY":"１２４弄","HOUSE_NO":"１７號","E_COORD97":171051.70000000001,"N_COORD97":2542912.6600000001,"ADDRESS":"裕農路２８８巷１２４弄１７號","OBJECTID":31301},"geometry":{"x":171051.70000000205,"y":2542912.660000002}},{"attributes":{"ID":31302,"DIS_CODE":0,"TOWNNAME":"東區","LI":"富強里","LIN":"17鄰","STREET":"裕農路","SECT":" ","MAREA":" ","LANE":"２８８巷","ALLEY":"１２４弄","HOUSE_NO":"１９號","E_COORD97":171051.95999999999,"N_COORD97":2542909.5699999998,"ADDRESS":"裕農路２８８巷１２４弄１９號","OBJECTID":31302},"geometry":{"x":171051.96000000089,"y":2542909.5700000022}},{"attributes":{"ID":31303,"DIS_CODE":0,"TOWNNAME":"東區","LI":"富強里","LIN":"17鄰","STREET":"裕農路","SECT":" ","MAREA":" ","LANE":"２８８巷","ALLEY":"１２４弄","HOUSE_NO":"２１號","E_COORD97":171051.82999999999,"N_COORD97":2542906.5,"ADDRESS":"裕農路２８８巷１２４弄２１號","OBJECTID":31303},"geometry":{"x":171051.83000000007,"y":2542906.5000000019}},{"attributes":{"ID":31304,"DIS_CODE":0,"TOWNNAME":"東區","LI":"富強里","LIN":"17鄰","STREET":"裕農路","SECT":" ","MAREA":" ","LANE":"２８８巷","ALLEY":"１２４弄","HOUSE_NO":"２３號","E_COORD97":171052.35000000001,"N_COORD97":2542902.6400000001,"ADDRESS":"裕農路２８８巷１２４弄２３號","OBJECTID":31304},"geometry":{"x":171052.35000000056,"y":2542902.6400000025}},{"attributes":{"ID":31305,"DIS_CODE":0,"TOWNNAME":"東區","LI":"富強里","LIN":"17鄰","STREET":"裕農路","SECT":" ","MAREA":" ","LANE":"２８８巷","ALLEY":"１２４弄","HOUSE_NO":"２５號","E_COORD97":171052.22,"N_COORD97":2542899.1699999999,"ADDRESS":"裕農路２８８巷１２４弄２５號","OBJECTID":31305},"geometry":{"x":171052.21999999974,"y":2542899.1699999999}},{"attributes":{"ID":31306,"DIS_CODE":0,"TOWNNAME":"東區","LI":"富強里","LIN":"17鄰","STREET":"裕農路","SECT":" ","MAREA":" ","LANE":"２８８巷","ALLEY":"１２４弄","HOUSE_NO":"２９號","E_COORD97":171052.60000000001,"N_COORD97":2542890.6499999999,"ADDRESS":"裕農路２８８巷１２４弄２９號","OBJECTID":31306},"geometry":{"x":171052.59999999963,"y":2542890.6500000004}},{"attributes":{"ID":31307,"DIS_CODE":0,"TOWNNAME":"東區","LI":"富強里","LIN":"17鄰","STREET":"裕農路","SECT":" ","MAREA":" ","LANE":"２８８巷","ALLEY":"１２４弄","HOUSE_NO":"８號","E_COORD97":171033.89000000001,"N_COORD97":2542925.8199999998,"ADDRESS":"裕農路２８８巷１２４弄８號","OBJECTID":31307},"geometry":{"x":171033.88999999966,"y":2542925.8200000003}},{"attributes":{"ID":31308,"DIS_CODE":0,"TOWNNAME":"東區","LI":"富強里","LIN":"17鄰","STREET":"裕農路","SECT":" ","MAREA":" ","LANE":"２８８巷","ALLEY":"１２４弄","HOUSE_NO":"３０號","E_COORD97":171026.92000000001,"N_COORD97":2542892.2000000002,"ADDRESS":"裕農路２８８巷１２４弄３０號","OBJECTID":31308},"geometry":{"x":171026.92000000086,"y":2542892.1999999993}},{"attributes":{"ID":31309,"DIS_CODE":0,"TOWNNAME":"東區","LI":"富強里","LIN":"17鄰","STREET":"裕農路","SECT":" ","MAREA":" ","LANE":"２８８巷","ALLEY":"１２４弄","HOUSE_NO":"２０號","E_COORD97":171025.35000000001,"N_COORD97":2542910.5699999998,"ADDRESS":"裕農路２８８巷１２４弄２０號","OBJECTID":31309},"geometry":{"x":171025.35000000056,"y":2542910.5700000003}},{"attributes":{"ID":31310,"DIS_CODE":0,"TOWNNAME":"東區","LI":"富強里","LIN":"17鄰","STREET":"裕農路","SECT":" ","MAREA":" ","LANE":"２８８巷","ALLEY":"１２４弄","HOUSE_NO":"５號","E_COORD97":171044.37,"N_COORD97":2542931.6200000001,"ADDRESS":"裕農路２８８巷１２４弄５號","OBJECTID":31310},"geometry":{"x":171044.37000000104,"y":2542931.620000001}},{"attributes":{"ID":31311,"DIS_CODE":0,"TOWNNAME":"東區","LI":"富強里","LIN":"17鄰","STREET":"裕農路","SECT":" ","MAREA":" ","LANE":"２８８巷","ALLEY":"１２４弄","HOUSE_NO":"１３號","E_COORD97":171051.06,"N_COORD97":2542918.5699999998,"ADDRESS":"裕農路２８８巷１２４弄１３號","OBJECTID":31311},"geometry":{"x":171051.05999999959,"y":2542918.5699999984}},{"attributes":{"ID":31312,"DIS_CODE":0,"TOWNNAME":"新市區","LI":"永就里","LIN":"8鄰","STREET":" ","SECT":" ","MAREA":"永就","LANE":" ","ALLEY":" ","HOUSE_NO":"８８之１號","E_COORD97":177553.20000000001,"N_COORD97":2551480.0499999998,"ADDRESS":"永就８８之１號","OBJECTID":31312},"geometry":{"x":177553.20000000112,"y":2551480.0500000045}},{"attributes":{"ID":31313,"DIS_CODE":0,"TOWNNAME":"新市區","LI":"社內里","LIN":"8鄰","STREET":" ","SECT":" ","MAREA":"社內","LANE":" ","ALLEY":" ","HOUSE_NO":"７７之１２號","E_COORD97":176611.72,"N_COORD97":2553033.5499999998,"ADDRESS":"社內７７之１２號","OBJECTID":31313},"geometry":{"x":176611.72000000067,"y":2553033.5500000026}},{"attributes":{"ID":31314,"DIS_CODE":0,"TOWNNAME":"新市區","LI":"社內里","LIN":"8鄰","STREET":" ","SECT":" ","MAREA":"社內","LANE":" ","ALLEY":" ","HOUSE_NO":"７７之１號","E_COORD97":176603.01000000001,"N_COORD97":2553018.2999999998,"ADDRESS":"社內７７之１號","OBJECTID":31314},"geometry":{"x":176603.01000000071,"y":2553018.3000000026}},{"attributes":{"ID":31315,"DIS_CODE":0,"TOWNNAME":"東區","LI":"富強里","LIN":"17鄰","STREET":"裕農路","SECT":" ","MAREA":" ","LANE":"２８８巷","ALLEY":"１２４弄","HOUSE_NO":"３８號","E_COORD97":171027.67000000001,"N_COORD97":2542879.71,"ADDRESS":"裕農路２８８巷１２４弄３８號","OBJECTID":31315},"geometry":{"x":171027.66999999899,"y":2542879.7100000009}},{"attributes":{"ID":31316,"DIS_CODE":0,"TOWNNAME":"東區","LI":"富強里","LIN":"17鄰","STREET":"裕農路","SECT":" ","MAREA":" ","LANE":"２８８巷","ALLEY":"１２４弄","HOUSE_NO":"４２號","E_COORD97":171028.01999999999,"N_COORD97":2542873.4900000002,"ADDRESS":"裕農路２８８巷１２４弄４２號","OBJECTID":31316},"geometry":{"x":171028.01999999955,"y":2542873.4900000021}},{"attributes":{"ID":31317,"DIS_CODE":0,"TOWNNAME":"歸仁區","LI":"後市里","LIN":"11鄰","STREET":"民權七街","SECT":" ","MAREA":" ","LANE":" ","ALLEY":" ","HOUSE_NO":"１３號","E_COORD97":177029.98999999999,"N_COORD97":2540732.25,"ADDRESS":"民權七街１３號","OBJECTID":31317},"geometry":{"x":177029.99000000022,"y":2540732.25}},{"attributes":{"ID":31318,"DIS_CODE":0,"TOWNNAME":"東區","LI":"富強里","LIN":"17鄰","STREET":"裕農路","SECT":" ","MAREA":" ","LANE":"２８８巷","ALLEY":"１２４弄","HOUSE_NO":"４８號","E_COORD97":171033.95000000001,"N_COORD97":2542864.2400000002,"ADDRESS":"裕農路２８８巷１２４弄４８號","OBJECTID":31318},"geometry":{"x":171033.95000000019,"y":2542864.2400000021}},{"attributes":{"ID":31319,"DIS_CODE":0,"TOWNNAME":"新市區","LI":"社內里","LIN":"8鄰","STREET":" ","SECT":" ","MAREA":"社內","LANE":" ","ALLEY":" ","HOUSE_NO":"８５之９號","E_COORD97":176546.10999999999,"N_COORD97":2552994.7999999998,"ADDRESS":"社內８５之９號","OBJECTID":31319},"geometry":{"x":176546.11000000034,"y":2552994.8000000026}},{"attributes":{"ID":31320,"DIS_CODE":0,"TOWNNAME":"新市區","LI":"社內里","LIN":"8鄰","STREET":" ","SECT":" ","MAREA":"社內","LANE":" ","ALLEY":" ","HOUSE_NO":"７７之５號","E_COORD97":176582.56,"N_COORD97":2553021.7999999998,"ADDRESS":"社內７７之５號","OBJECTID":31320},"geometry":{"x":176582.55999999959,"y":2553021.8000000026}},{"attributes":{"ID":31321,"DIS_CODE":0,"TOWNNAME":"山上區","LI":"新莊里","LIN":"8鄰","STREET":" ","SECT":" ","MAREA":"大庄","LANE":" ","ALLEY":" ","HOUSE_NO":"２７號之２","E_COORD97":183784.32999999999,"N_COORD97":2554823.2999999998,"ADDRESS":"大庄２７號之２","OBJECTID":31321},"geometry":{"x":183784.33000000007,"y":2554823.3000000007}},{"attributes":{"ID":31322,"DIS_CODE":0,"TOWNNAME":"山上區","LI":"新莊里","LIN":"8鄰","STREET":" ","SECT":" ","MAREA":"大庄","LANE":" ","ALLEY":" ","HOUSE_NO":"２３號","E_COORD97":183735.35999999999,"N_COORD97":2554843.25,"ADDRESS":"大庄２３號","OBJECTID":31322},"geometry":{"x":183735.36000000034,"y":2554843.25}},{"attributes":{"ID":31323,"DIS_CODE":0,"TOWNNAME":"山上區","LI":"新莊里","LIN":"8鄰","STREET":" ","SECT":" ","MAREA":"大庄","LANE":" ","ALLEY":" ","HOUSE_NO":"２５號之６","E_COORD97":183765,"N_COORD97":2554791.2999999998,"ADDRESS":"大庄２５號之６","OBJECTID":31323},"geometry":{"x":183765.00000000186,"y":2554791.3000000026}},{"attributes":{"ID":31324,"DIS_CODE":0,"TOWNNAME":"東區","LI":"富強里","LIN":"17鄰","STREET":"裕農路","SECT":" ","MAREA":" ","LANE":"２８８巷","ALLEY":"１２４弄","HOUSE_NO":"５３號","E_COORD97":171049.19,"N_COORD97":2542853.5699999998,"ADDRESS":"裕農路２８８巷１２４弄５３號","OBJECTID":31324},"geometry":{"x":171049.19000000134,"y":2542853.5700000003}},{"attributes":{"ID":31325,"DIS_CODE":0,"TOWNNAME":"東區","LI":"崇誨里","LIN":"17鄰","STREET":"林森路","SECT":"二段","MAREA":" ","LANE":"１９２巷","ALLEY":"３６弄","HOUSE_NO":"１０號","E_COORD97":170614.20999999999,"N_COORD97":2543314.5899999999,"ADDRESS":"林森路二段１９２巷３６弄１０號","OBJECTID":31325},"geometry":{"x":170614.21000000089,"y":2543314.5899999999}},{"attributes":{"ID":31326,"DIS_CODE":0,"TOWNNAME":"東區","LI":"崇誨里","LIN":"17鄰","STREET":"林森路","SECT":"二段","MAREA":" ","LANE":"１９２巷","ALLEY":"３６弄","HOUSE_NO":"１２號","E_COORD97":170615.57000000001,"N_COORD97":2543311.1899999999,"ADDRESS":"林森路二段１９２巷３６弄１２號","OBJECTID":31326},"geometry":{"x":170615.57000000123,"y":2543311.1900000013}},{"attributes":{"ID":31327,"DIS_CODE":0,"TOWNNAME":"山上區","LI":"南洲里","LIN":"8鄰","STREET":" ","SECT":" ","MAREA":"南洲","LANE":" ","ALLEY":" ","HOUSE_NO":"１９９號","E_COORD97":183757.64000000001,"N_COORD97":2555642.25,"ADDRESS":"南洲１９９號","OBJECTID":31327},"geometry":{"x":183757.6400000006,"y":2555642.2500000019}},{"attributes":{"ID":31328,"DIS_CODE":0,"TOWNNAME":"東區","LI":"崇誨里","LIN":"17鄰","STREET":"林森路","SECT":"二段","MAREA":" ","LANE":"１９２巷","ALLEY":"３６弄","HOUSE_NO":"１６號","E_COORD97":170617.39000000001,"N_COORD97":2543304.3999999999,"ADDRESS":"林森路二段１９２巷３６弄１６號","OBJECTID":31328},"geometry":{"x":170617.38999999873,"y":2543304.4000000022}},{"attributes":{"ID":31329,"DIS_CODE":0,"TOWNNAME":"東區","LI":"崇誨里","LIN":"17鄰","STREET":"林森路","SECT":"二段","MAREA":" ","LANE":"１９２巷","ALLEY":"３６弄","HOUSE_NO":"１號","E_COORD97":170628.26999999999,"N_COORD97":2543328.3199999998,"ADDRESS":"林森路二段１９２巷３６弄１號","OBJECTID":31329},"geometry":{"x":170628.26999999862,"y":2543328.3200000022}},{"attributes":{"ID":31330,"DIS_CODE":0,"TOWNNAME":"東區","LI":"崇誨里","LIN":"17鄰","STREET":"林森路","SECT":"二段","MAREA":" ","LANE":"１９２巷","ALLEY":"３６弄","HOUSE_NO":"２２號","E_COORD97":170624.46251899999,"N_COORD97":2543289.9113400001,"ADDRESS":"林森路二段１９２巷３６弄２２號","OBJECTID":31330},"geometry":{"x":170624.46251900122,"y":2543289.9113410022}},{"attributes":{"ID":31331,"DIS_CODE":0,"TOWNNAME":"山上區","LI":"山上里","LIN":"8鄰","STREET":" ","SECT":" ","MAREA":"山上","LANE":" ","ALLEY":" ","HOUSE_NO":"１３７號","E_COORD97":184182.10999999999,"N_COORD97":2555756.25,"ADDRESS":"山上１３７號","OBJECTID":31331},"geometry":{"x":184182.11000000127,"y":2555756.25}},{"attributes":{"ID":31332,"DIS_CODE":0,"TOWNNAME":"東區","LI":"崇誨里","LIN":"17鄰","STREET":"林森路","SECT":"二段","MAREA":" ","LANE":"１９２巷","ALLEY":"３６弄","HOUSE_NO":"４號","E_COORD97":170611.26000000001,"N_COORD97":2543325.2400000002,"ADDRESS":"林森路二段１９２巷３６弄４號","OBJECTID":31332},"geometry":{"x":170611.25999999978,"y":2543325.2400000021}},{"attributes":{"ID":31333,"DIS_CODE":0,"TOWNNAME":"東區","LI":"崇誨里","LIN":"17鄰","STREET":"林森路","SECT":"二段","MAREA":" ","LANE":"１９２巷","ALLEY":"５０弄","HOUSE_NO":"１０號","E_COORD97":170647.78,"N_COORD97":2543306.5499999998,"ADDRESS":"林森路二段１９２巷５０弄１０號","OBJECTID":31333},"geometry":{"x":170647.78000000212,"y":2543306.5500000026}},{"attributes":{"ID":31334,"DIS_CODE":0,"TOWNNAME":"東區","LI":"崇誨里","LIN":"17鄰","STREET":"林森路","SECT":"二段","MAREA":" ","LANE":"１９２巷","ALLEY":"５０弄","HOUSE_NO":"１２號","E_COORD97":170648.91,"N_COORD97":2543302.2400000002,"ADDRESS":"林森路二段１９２巷５０弄１２號","OBJECTID":31334},"geometry":{"x":170648.91000000108,"y":2543302.2400000021}},{"attributes":{"ID":31335,"DIS_CODE":0,"TOWNNAME":"永康區","LI":"大橋里","LIN":"14鄰","STREET":"大橋一街","SECT":" ","MAREA":" ","LANE":"７３巷","ALLEY":" ","HOUSE_NO":"１號","E_COORD97":170911.34,"N_COORD97":2546442.75,"ADDRESS":"大橋一街７３巷１號","OBJECTID":31335},"geometry":{"x":170911.34000000171,"y":2546442.75}},{"attributes":{"ID":31336,"DIS_CODE":0,"TOWNNAME":"山上區","LI":"新莊里","LIN":"8鄰","STREET":" ","SECT":" ","MAREA":"大庄","LANE":" ","ALLEY":" ","HOUSE_NO":"２０之１號","E_COORD97":183729.95999999999,"N_COORD97":2554790.2999999998,"ADDRESS":"大庄２０之１號","OBJECTID":31336},"geometry":{"x":183729.96000000089,"y":2554790.3000000007}},{"attributes":{"ID":31337,"DIS_CODE":0,"TOWNNAME":"安南區","LI":"理想里","LIN":"14鄰","STREET":"大安街","SECT":" ","MAREA":" ","LANE":" ","ALLEY":" ","HOUSE_NO":"９９號","E_COORD97":167236.89999999999,"N_COORD97":2548094.5699999998,"ADDRESS":"大安街９９號","OBJECTID":31337},"geometry":{"x":167236.9000000013,"y":2548094.5700000003}},{"attributes":{"ID":31338,"DIS_CODE":0,"TOWNNAME":"山上區","LI":"南洲里","LIN":"8鄰","STREET":" ","SECT":" ","MAREA":"南洲","LANE":" ","ALLEY":" ","HOUSE_NO":"１９３號","E_COORD97":183799.14000000001,"N_COORD97":2555592.25,"ADDRESS":"南洲１９３號","OBJECTID":31338},"geometry":{"x":183799.13999999873,"y":2555592.25}},{"attributes":{"ID":31339,"DIS_CODE":0,"TOWNNAME":"山上區","LI":"新莊里","LIN":"8鄰","STREET":" ","SECT":" ","MAREA":"大庄","LANE":" ","ALLEY":" ","HOUSE_NO":"２７號之１","E_COORD97":183788.79000000001,"N_COORD97":2554848.2999999998,"ADDRESS":"大庄２７號之１","OBJECTID":31339},"geometry":{"x":183788.79000000097,"y":2554848.2999999989}},{"attributes":{"ID":31340,"DIS_CODE":0,"TOWNNAME":"歸仁區","LI":"南興里","LIN":"40鄰","STREET":"民生六街","SECT":" ","MAREA":" ","LANE":" ","ALLEY":" ","HOUSE_NO":"２５號","E_COORD97":176159.29000000001,"N_COORD97":2540841.29,"ADDRESS":"民生六街２５號","OBJECTID":31340},"geometry":{"x":176159.29000000004,"y":2540841.2900000028}},{"attributes":{"ID":31341,"DIS_CODE":0,"TOWNNAME":"山上區","LI":"新莊里","LIN":"8鄰","STREET":" ","SECT":" ","MAREA":"大庄","LANE":" ","ALLEY":" ","HOUSE_NO":"２６之３號","E_COORD97":183823.16,"N_COORD97":2554779.2999999998,"ADDRESS":"大庄２６之３號","OBJECTID":31341},"geometry":{"x":183823.16000000015,"y":2554779.3000000007}},{"attributes":{"ID":31342,"DIS_CODE":0,"TOWNNAME":"歸仁區","LI":"後市里","LIN":"24鄰","STREET":"文化街","SECT":"二段","MAREA":" ","LANE":" ","ALLEY":" ","HOUSE_NO":"２５號","E_COORD97":177544.64000000001,"N_COORD97":2541085.2599999998,"ADDRESS":"文化街二段２５號","OBJECTID":31342},"geometry":{"x":177544.6400000006,"y":2541085.2599999998}},{"attributes":{"ID":31343,"DIS_CODE":0,"TOWNNAME":"永康區","LI":"王行里","LIN":"14鄰","STREET":"興工路","SECT":" ","MAREA":" ","LANE":" ","ALLEY":" ","HOUSE_NO":"１７號之１","E_COORD97":175251.17999999999,"N_COORD97":2549765.9500000002,"ADDRESS":"興工路１７號之１","OBJECTID":31343},"geometry":{"x":175251.1799999997,"y":2549765.9499999993}},{"attributes":{"ID":31344,"DIS_CODE":0,"TOWNNAME":"永康區","LI":"王行里","LIN":"14鄰","STREET":"興工路","SECT":" ","MAREA":" ","LANE":" ","ALLEY":" ","HOUSE_NO":"１１號","E_COORD97":175397.14000000001,"N_COORD97":2549612.5899999999,"ADDRESS":"興工路１１號","OBJECTID":31344},"geometry":{"x":175397.13999999966,"y":2549612.5899999999}},{"attributes":{"ID":31345,"DIS_CODE":0,"TOWNNAME":"永康區","LI":"中興里","LIN":"14鄰","STREET":"中山東路","SECT":" ","MAREA":" ","LANE":" ","ALLEY":" ","HOUSE_NO":"３３７號","E_COORD97":171913.76999999999,"N_COORD97":2545286,"ADDRESS":"中山東路３３７號","OBJECTID":31345},"geometry":{"x":171913.77000000048,"y":2545286.0000000019}},{"attributes":{"ID":31346,"DIS_CODE":0,"TOWNNAME":"永康區","LI":"中興里","LIN":"14鄰","STREET":"中山東路","SECT":" ","MAREA":" ","LANE":" ","ALLEY":" ","HOUSE_NO":"３４３號","E_COORD97":171917.13,"N_COORD97":2545273,"ADDRESS":"中山東路３４３號","OBJECTID":31346},"geometry":{"x":171917.13000000082,"y":2545273.0000000019}},{"attributes":{"ID":31347,"DIS_CODE":0,"TOWNNAME":"永康區","LI":"王行里","LIN":"14鄰","STREET":"興工路","SECT":" ","MAREA":" ","LANE":" ","ALLEY":" ","HOUSE_NO":"１９號之１","E_COORD97":175240.44,"N_COORD97":2549803.1499999999,"ADDRESS":"興工路１９號之１","OBJECTID":31347},"geometry":{"x":175240.44000000041,"y":2549803.1500000004}},{"attributes":{"ID":31348,"DIS_CODE":0,"TOWNNAME":"永康區","LI":"中興里","LIN":"14鄰","STREET":"中山東路","SECT":" ","MAREA":" ","LANE":" ","ALLEY":" ","HOUSE_NO":"３３９號","E_COORD97":171914.70000000001,"N_COORD97":2545280.75,"ADDRESS":"中山東路３３９號","OBJECTID":31348},"geometry":{"x":171914.70000000112,"y":2545280.7500000019}},{"attributes":{"ID":31349,"DIS_CODE":0,"TOWNNAME":"東區","LI":"崇誨里","LIN":"17鄰","STREET":"林森路","SECT":"二段","MAREA":" ","LANE":"１９２巷","ALLEY":"５０弄","HOUSE_NO":"１４號","E_COORD97":170650.26999999999,"N_COORD97":2543294.6499999999,"ADDRESS":"林森路二段１９２巷５０弄１４號","OBJECTID":31349},"geometry":{"x":170650.26999999862,"y":2543294.6500000041}},{"attributes":{"ID":31350,"DIS_CODE":0,"TOWNNAME":"東區","LI":"崇誨里","LIN":"17鄰","STREET":"林森路","SECT":"二段","MAREA":" ","LANE":"１９２巷","ALLEY":"３６弄","HOUSE_NO":"８號","E_COORD97":170612.85000000001,"N_COORD97":2543318.1099999999,"ADDRESS":"林森路二段１９２巷３６弄８號","OBJECTID":31350},"geometry":{"x":170612.85000000056,"y":2543318.1100000013}},{"attributes":{"ID":31351,"DIS_CODE":0,"TOWNNAME":"東區","LI":"崇誨里","LIN":"17鄰","STREET":"林森路","SECT":"二段","MAREA":" ","LANE":"１９２巷","ALLEY":"３６弄","HOUSE_NO":"１４號","E_COORD97":170616.48000000001,"N_COORD97":2543307.3399999999,"ADDRESS":"林森路二段１９２巷３６弄１４號","OBJECTID":31351},"geometry":{"x":170616.48000000138,"y":2543307.3400000017}},{"attributes":{"ID":31352,"DIS_CODE":0,"TOWNNAME":"山上區","LI":"新莊里","LIN":"8鄰","STREET":" ","SECT":" ","MAREA":"大庄","LANE":" ","ALLEY":" ","HOUSE_NO":"２０之９號","E_COORD97":183761.56,"N_COORD97":2554768.2999999998,"ADDRESS":"大庄２０之９號","OBJECTID":31352},"geometry":{"x":183761.56000000052,"y":2554768.3000000026}},{"attributes":{"ID":31353,"DIS_CODE":0,"TOWNNAME":"善化區","LI":"牛庄里","LIN":"8鄰","STREET":" ","SECT":" ","MAREA":"牛庄","LANE":" ","ALLEY":" ","HOUSE_NO":"９６之１３號","E_COORD97":180017.01999999999,"N_COORD97":2560181.27,"ADDRESS":"牛庄９６之１３號","OBJECTID":31353},"geometry":{"x":180017.02000000048,"y":2560181.2700000014}},{"attributes":{"ID":31354,"DIS_CODE":0,"TOWNNAME":"東區","LI":"崇誨里","LIN":"17鄰","STREET":"林森路","SECT":"二段","MAREA":" ","LANE":"１９２巷","ALLEY":"５０弄","HOUSE_NO":"２４號","E_COORD97":170657.31,"N_COORD97":2543270.75,"ADDRESS":"林森路二段１９２巷５０弄２４號","OBJECTID":31354},"geometry":{"x":170657.31000000052,"y":2543270.7500000019}},{"attributes":{"ID":31355,"DIS_CODE":0,"TOWNNAME":"東區","LI":"崇誨里","LIN":"17鄰","STREET":"林森路","SECT":"二段","MAREA":" ","LANE":"１９２巷","ALLEY":"５０弄","HOUSE_NO":"２８號","E_COORD97":170659.57000000001,"N_COORD97":2543261.6800000002,"ADDRESS":"林森路二段１９２巷５０弄２８號","OBJECTID":31355},"geometry":{"x":170659.57000000123,"y":2543261.6799999997}},{"attributes":{"ID":31356,"DIS_CODE":0,"TOWNNAME":"善化區","LI":"胡厝里","LIN":"8鄰","STREET":" ","SECT":" ","MAREA":"胡厝寮","LANE":" ","ALLEY":" ","HOUSE_NO":"２０６號","E_COORD97":175319.09,"N_COORD97":2560413.75,"ADDRESS":"胡厝寮２０６號","OBJECTID":31356},"geometry":{"x":175319.09000000078,"y":2560413.75}},{"attributes":{"ID":31357,"DIS_CODE":0,"TOWNNAME":"善化區","LI":"牛庄里","LIN":"8鄰","STREET":" ","SECT":" ","MAREA":"牛庄","LANE":" ","ALLEY":" ","HOUSE_NO":"９０號","E_COORD97":180087.10000000001,"N_COORD97":2560101.75,"ADDRESS":"牛庄９０號","OBJECTID":31357},"geometry":{"x":180087.10000000149,"y":2560101.75}},{"attributes":{"ID":31358,"DIS_CODE":0,"TOWNNAME":"東區","LI":"崇誨里","LIN":"17鄰","STREET":"林森路","SECT":"二段","MAREA":" ","LANE":"１９２巷","ALLEY":"５０弄","HOUSE_NO":"２號之１","E_COORD97":170640.98000000001,"N_COORD97":2543327.52,"ADDRESS":"林森路二段１９２巷５０弄２號之１","OBJECTID":31358},"geometry":{"x":170640.98000000045,"y":2543327.5199999996}},{"attributes":{"ID":31359,"DIS_CODE":0,"TOWNNAME":"東區","LI":"崇誨里","LIN":"17鄰","STREET":"林森路","SECT":"二段","MAREA":" ","LANE":"１９２巷","ALLEY":"５０弄","HOUSE_NO":"４號","E_COORD97":170642.45000000001,"N_COORD97":2543322.8799999999,"ADDRESS":"林森路二段１９２巷５０弄４號","OBJECTID":31359},"geometry":{"x":170642.45000000019,"y":2543322.8800000008}},{"attributes":{"ID":31360,"DIS_CODE":0,"TOWNNAME":"永康區","LI":"西灣里","LIN":"17鄰","STREET":"民族路","SECT":" ","MAREA":" ","LANE":"５１３巷","ALLEY":"１弄","HOUSE_NO":"７號","E_COORD97":174543.03,"N_COORD97":2545423.2799999998,"ADDRESS":"民族路５１３巷１弄７號","OBJECTID":31360},"geometry":{"x":174543.03000000026,"y":2545423.2800000012}},{"attributes":{"ID":31361,"DIS_CODE":0,"TOWNNAME":"永康區","LI":"西灣里","LIN":"17鄰","STREET":"民族路","SECT":" ","MAREA":" ","LANE":"５１３巷","ALLEY":"１弄","HOUSE_NO":"６號","E_COORD97":174533.20999999999,"N_COORD97":2545428.0299999998,"ADDRESS":"民族路５１３巷１弄６號","OBJECTID":31361},"geometry":{"x":174533.21000000183,"y":2545428.0300000012}},{"attributes":{"ID":31362,"DIS_CODE":0,"TOWNNAME":"永康區","LI":"尚頂里","LIN":"17鄰","STREET":"中正南路","SECT":" ","MAREA":" ","LANE":"２２０巷","ALLEY":"３０弄","HOUSE_NO":"４６號","E_COORD97":170232.63,"N_COORD97":2547175.1499999999,"ADDRESS":"中正南路２２０巷３０弄４６號","OBJECTID":31362},"geometry":{"x":170232.62999999989,"y":2547175.1500000004}},{"attributes":{"ID":31363,"DIS_CODE":0,"TOWNNAME":"永康區","LI":"\u25A0行里","LIN":"17鄰","STREET":"中正路","SECT":" ","MAREA":" ","LANE":"６３５巷","ALLEY":"１７弄","HOUSE_NO":"２號","E_COORD97":171741.48000000001,"N_COORD97":2548853.6699999999,"ADDRESS":"中正路６３５巷１７弄２號","OBJECTID":31363},"geometry":{"x":171741.47999999952,"y":2548853.6699999999}},{"attributes":{"ID":31364,"DIS_CODE":0,"TOWNNAME":"永康區","LI":"\u25A0行里","LIN":"17鄰","STREET":"中正路","SECT":" ","MAREA":" ","LANE":"６３５巷","ALLEY":"１７弄","HOUSE_NO":"１２號","E_COORD97":171779.29000000001,"N_COORD97":2548825.3900000001,"ADDRESS":"中正路６３５巷１７弄１２號","OBJECTID":31364},"geometry":{"x":171779.29000000004,"y":2548825.3900000006}},{"attributes":{"ID":31365,"DIS_CODE":0,"TOWNNAME":"永康區","LI":"\u25A0行里","LIN":"17鄰","STREET":"中正路","SECT":" ","MAREA":" ","LANE":"６３５巷","ALLEY":"１７弄","HOUSE_NO":"９號","E_COORD97":171768.13,"N_COORD97":2548834.1400000001,"ADDRESS":"中正路６３５巷１７弄９號","OBJECTID":31365},"geometry":{"x":171768.12999999989,"y":2548834.1400000006}},{"attributes":{"ID":31366,"DIS_CODE":0,"TOWNNAME":"永康區","LI":"\u25A0行里","LIN":"17鄰","STREET":"中正路","SECT":" ","MAREA":" ","LANE":"６３５巷","ALLEY":"１７弄","HOUSE_NO":"１３號","E_COORD97":171782.84,"N_COORD97":2548822.1400000001,"ADDRESS":"中正路６３５巷１７弄１３號","OBJECTID":31366},"geometry":{"x":171782.84000000078,"y":2548822.1400000025}},{"attributes":{"ID":31367,"DIS_CODE":0,"TOWNNAME":"仁德區","LI":"土庫里","LIN":"17鄰","STREET":"土庫一街","SECT":" ","MAREA":" ","LANE":"２２巷","ALLEY":"１５弄","HOUSE_NO":"３號","E_COORD97":174492.09,"N_COORD97":2543043.7400000002,"ADDRESS":"土庫一街２２巷１５弄３號","OBJECTID":31367},"geometry":{"x":174492.09000000078,"y":2543043.7400000021}},{"attributes":{"ID":31368,"DIS_CODE":0,"TOWNNAME":"仁德區","LI":"土庫里","LIN":"17鄰","STREET":"土庫一街","SECT":" ","MAREA":" ","LANE":"２２巷","ALLEY":"２３弄","HOUSE_NO":"８號","E_COORD97":174514.42999999999,"N_COORD97":2543013.5,"ADDRESS":"土庫一街２２巷２３弄８號","OBJECTID":31368},"geometry":{"x":174514.43000000156,"y":2543013.5}},{"attributes":{"ID":31369,"DIS_CODE":0,"TOWNNAME":"仁德區","LI":"土庫里","LIN":"17鄰","STREET":"土庫一街","SECT":" ","MAREA":" ","LANE":"２２巷","ALLEY":"１３弄","HOUSE_NO":"１１號","E_COORD97":174535.13,"N_COORD97":2543063.4900000002,"ADDRESS":"土庫一街２２巷１３弄１１號","OBJECTID":31369},"geometry":{"x":174535.12999999989,"y":2543063.4900000002}},{"attributes":{"ID":31370,"DIS_CODE":0,"TOWNNAME":"仁德區","LI":"土庫里","LIN":"17鄰","STREET":"土庫一街","SECT":" ","MAREA":" ","LANE":"２２巷","ALLEY":"１５弄","HOUSE_NO":"１號","E_COORD97":174483.59,"N_COORD97":2543041.9900000002,"ADDRESS":"土庫一街２２巷１５弄１號","OBJECTID":31370},"geometry":{"x":174483.59000000078,"y":2543041.9900000021}},{"attributes":{"ID":31371,"DIS_CODE":0,"TOWNNAME":"仁德區","LI":"土庫里","LIN":"17鄰","STREET":"土庫一街","SECT":" ","MAREA":" ","LANE":"２２巷","ALLEY":"１３弄","HOUSE_NO":"５號","E_COORD97":174513.88,"N_COORD97":2543057.9900000002,"ADDRESS":"土庫一街２２巷１３弄５號","OBJECTID":31371},"geometry":{"x":174513.88000000082,"y":2543057.9900000002}},{"attributes":{"ID":31372,"DIS_CODE":0,"TOWNNAME":"仁德區","LI":"土庫里","LIN":"17鄰","STREET":"土庫一街","SECT":" ","MAREA":" ","LANE":"２２巷","ALLEY":"１５弄","HOUSE_NO":"１３號","E_COORD97":174548.67999999999,"N_COORD97":2543055.9900000002,"ADDRESS":"土庫一街２２巷１５弄１３號","OBJECTID":31372},"geometry":{"x":174548.68000000063,"y":2543055.9900000021}},{"attributes":{"ID":31373,"DIS_CODE":0,"TOWNNAME":"安南區","LI":"頂安里","LIN":"17鄰","STREET":"安中路","SECT":"一段","MAREA":" ","LANE":"３８８巷","ALLEY":"２１弄","HOUSE_NO":"１０號","E_COORD97":168363.73000000001,"N_COORD97":2548902.8799999999,"ADDRESS":"安中路一段３８８巷２１弄１０號","OBJECTID":31373},"geometry":{"x":168363.73000000138,"y":2548902.8800000027}},{"attributes":{"ID":31374,"DIS_CODE":0,"TOWNNAME":"安南區","LI":"頂安里","LIN":"17鄰","STREET":"安中路","SECT":"一段","MAREA":" ","LANE":"３８８巷","ALLEY":"２１弄","HOUSE_NO":"１２號","E_COORD97":168359.69,"N_COORD97":2548909.8900000001,"ADDRESS":"安中路一段３８８巷２１弄１２號","OBJECTID":31374},"geometry":{"x":168359.69000000041,"y":2548909.8900000006}},{"attributes":{"ID":31375,"DIS_CODE":0,"TOWNNAME":"永康區","LI":"中興里","LIN":"14鄰","STREET":"中山東路","SECT":" ","MAREA":" ","LANE":" ","ALLEY":" ","HOUSE_NO":"３５１號","E_COORD97":171920.5,"N_COORD97":2545256.4900000002,"ADDRESS":"中山東路３５１號","OBJECTID":31375},"geometry":{"x":171920.5,"y":2545256.4900000021}},{"attributes":{"ID":31376,"DIS_CODE":0,"TOWNNAME":"歸仁區","LI":"南興里","LIN":"31鄰","STREET":"保興街","SECT":" ","MAREA":" ","LANE":" ","ALLEY":" ","HOUSE_NO":"４７號","E_COORD97":176492.42000000001,"N_COORD97":2541040.25,"ADDRESS":"保興街４７號","OBJECTID":31376},"geometry":{"x":176492.41999999993,"y":2541040.2500000019}},{"attributes":{"ID":31377,"DIS_CODE":0,"TOWNNAME":"永康區","LI":"三民里","LIN":"14鄰","STREET":"和平路","SECT":" ","MAREA":" ","LANE":" ","ALLEY":" ","HOUSE_NO":"１９２之１號","E_COORD97":174818.16,"N_COORD97":2550553.7400000002,"ADDRESS":"和平路１９２之１號","OBJECTID":31377},"geometry":{"x":174818.16000000015,"y":2550553.7400000021}},{"attributes":{"ID":31378,"DIS_CODE":0,"TOWNNAME":"永康區","LI":"埔園里","LIN":"14鄰","STREET":"中山路","SECT":" ","MAREA":" ","LANE":" ","ALLEY":" ","HOUSE_NO":"３０３號","E_COORD97":173620.29999999999,"N_COORD97":2548209,"ADDRESS":"中山路３０３號","OBJECTID":31378},"geometry":{"x":173620.29999999888,"y":2548209.0000000019}},{"attributes":{"ID":31379,"DIS_CODE":0,"TOWNNAME":"安南區","LI":"頂安里","LIN":"17鄰","STREET":"安中路","SECT":"一段","MAREA":" ","LANE":"３８８巷","ALLEY":"２１弄","HOUSE_NO":"１６號","E_COORD97":168353.84,"N_COORD97":2548904.8999999999,"ADDRESS":"安中路一段３８８巷２１弄１６號","OBJECTID":31379},"geometry":{"x":168353.84000000078,"y":2548904.9000000022}},{"attributes":{"ID":31380,"DIS_CODE":0,"TOWNNAME":"善化區","LI":"六德里","LIN":"8鄰","STREET":" ","SECT":" ","MAREA":"六分寮","LANE":" ","ALLEY":" ","HOUSE_NO":"２６５號之２","E_COORD97":178660.57999999999,"N_COORD97":2561539.27,"ADDRESS":"六分寮２６５號之２","OBJECTID":31380},"geometry":{"x":178660.58000000101,"y":2561539.2699999996}},{"attributes":{"ID":31381,"DIS_CODE":0,"TOWNNAME":"白河區","LI":"永安里","LIN":"17鄰","STREET":"七賢街","SECT":" ","MAREA":" ","LANE":"４５巷","ALLEY":"１２弄","HOUSE_NO":"１０號","E_COORD97":189922.39000000001,"N_COORD97":2582875.3599999999,"ADDRESS":"七賢街４５巷１２弄１０號","OBJECTID":31381},"geometry":{"x":189922.39000000153,"y":2582875.3600000013}},{"attributes":{"ID":31382,"DIS_CODE":0,"TOWNNAME":"白河區","LI":"永安里","LIN":"17鄰","STREET":"七賢街","SECT":" ","MAREA":" ","LANE":"４５巷","ALLEY":"１２弄","HOUSE_NO":"１１號","E_COORD97":189930.84,"N_COORD97":2582859.54,"ADDRESS":"七賢街４５巷１２弄１１號","OBJECTID":31382},"geometry":{"x":189930.83999999985,"y":2582859.5399999991}},{"attributes":{"ID":31383,"DIS_CODE":0,"TOWNNAME":"白河區","LI":"永安里","LIN":"17鄰","STREET":"七賢街","SECT":" ","MAREA":" ","LANE":"４５巷","ALLEY":"１２弄","HOUSE_NO":"１３號","E_COORD97":189927.13,"N_COORD97":2582860.1699999999,"ADDRESS":"七賢街４５巷１２弄１３號","OBJECTID":31383},"geometry":{"x":189927.12999999989,"y":2582860.1700000018}},{"attributes":{"ID":31384,"DIS_CODE":0,"TOWNNAME":"白河區","LI":"永安里","LIN":"17鄰","STREET":"七賢街","SECT":" ","MAREA":" ","LANE":"４５巷","ALLEY":"１２弄","HOUSE_NO":"１５號","E_COORD97":189922.79999999999,"N_COORD97":2582860.21,"ADDRESS":"七賢街４５巷１２弄１５號","OBJECTID":31384},"geometry":{"x":189922.79999999981,"y":2582860.2100000009}},{"attributes":{"ID":31385,"DIS_CODE":0,"TOWNNAME":"白河區","LI":"永安里","LIN":"17鄰","STREET":"七賢街","SECT":" ","MAREA":" ","LANE":"４５巷","ALLEY":"１２弄","HOUSE_NO":"１７號","E_COORD97":189918.64999999999,"N_COORD97":2582861.1400000001,"ADDRESS":"七賢街４５巷１２弄１７號","OBJECTID":31385},"geometry":{"x":189918.6500000013,"y":2582861.1400000025}},{"attributes":{"ID":31386,"DIS_CODE":0,"TOWNNAME":"白河區","LI":"永安里","LIN":"17鄰","STREET":"七賢街","SECT":" ","MAREA":" ","LANE":"４５巷","ALLEY":"１２弄","HOUSE_NO":"１９號","E_COORD97":189914.51999999999,"N_COORD97":2582861.5,"ADDRESS":"七賢街４５巷１２弄１９號","OBJECTID":31386},"geometry":{"x":189914.52000000142,"y":2582861.5000000019}},{"attributes":{"ID":31387,"DIS_CODE":0,"TOWNNAME":"白河區","LI":"永安里","LIN":"17鄰","STREET":"七賢街","SECT":" ","MAREA":" ","LANE":"４５巷","ALLEY":"１２弄","HOUSE_NO":"２１號","E_COORD97":189910.44,"N_COORD97":2582862.0299999998,"ADDRESS":"七賢街４５巷１２弄２１號","OBJECTID":31387},"geometry":{"x":189910.44000000041,"y":2582862.0299999993}},{"attributes":{"ID":31388,"DIS_CODE":0,"TOWNNAME":"白河區","LI":"永安里","LIN":"17鄰","STREET":"七賢街","SECT":" ","MAREA":" ","LANE":"４５巷","ALLEY":"１２弄","HOUSE_NO":"２號","E_COORD97":189940.04999999999,"N_COORD97":2582873.6099999999,"ADDRESS":"七賢街４５巷１２弄２號","OBJECTID":31388},"geometry":{"x":189940.05000000168,"y":2582873.6100000013}},{"attributes":{"ID":31389,"DIS_CODE":0,"TOWNNAME":"白河區","LI":"永安里","LIN":"17鄰","STREET":"七賢街","SECT":" ","MAREA":" ","LANE":"４５巷","ALLEY":"１２弄","HOUSE_NO":"４號","E_COORD97":189935.79999999999,"N_COORD97":2582873.77,"ADDRESS":"七賢街４５巷１２弄４號","OBJECTID":31389},"geometry":{"x":189935.79999999981,"y":2582873.7700000014}},{"attributes":{"ID":31390,"DIS_CODE":0,"TOWNNAME":"白河區","LI":"永安里","LIN":"17鄰","STREET":"七賢街","SECT":" ","MAREA":" ","LANE":"４５巷","ALLEY":"１２弄","HOUSE_NO":"５號","E_COORD97":189944.12,"N_COORD97":2582858.3300000001,"ADDRESS":"七賢街４５巷１２弄５號","OBJECTID":31390},"geometry":{"x":189944.12000000011,"y":2582858.3300000001}},{"attributes":{"ID":31391,"DIS_CODE":0,"TOWNNAME":"善化區","LI":"胡厝里","LIN":"8鄰","STREET":" ","SECT":" ","MAREA":"胡厝寮","LANE":" ","ALLEY":" ","HOUSE_NO":"２０８號之２","E_COORD97":175286.25,"N_COORD97":2560364.27,"ADDRESS":"胡厝寮２０８號之２","OBJECTID":31391},"geometry":{"x":175286.25000000093,"y":2560364.2700000014}},{"attributes":{"ID":31392,"DIS_CODE":0,"TOWNNAME":"新化區","LI":"礁坑里","LIN":"8鄰","STREET":" ","SECT":" ","MAREA":"三十六崙","LANE":" ","ALLEY":" ","HOUSE_NO":"６１號","E_COORD97":185151.82000000001,"N_COORD97":2548969.25,"ADDRESS":"三十六崙６１號","OBJECTID":31392},"geometry":{"x":185151.82000000123,"y":2548969.2500000037}},{"attributes":{"ID":31393,"DIS_CODE":0,"TOWNNAME":"新化區","LI":"\u25A0拔里","LIN":"8鄰","STREET":" ","SECT":" ","MAREA":"\u25A0拔林","LANE":" ","ALLEY":" ","HOUSE_NO":"３０２號","E_COORD97":183484.42000000001,"N_COORD97":2551933.25,"ADDRESS":"\u25A0拔林３０２號","OBJECTID":31393},"geometry":{"x":183484.42000000086,"y":2551933.2500000019}},{"attributes":{"ID":31394,"DIS_CODE":0,"TOWNNAME":"新化區","LI":"唪口里","LIN":"8鄰","STREET":" ","SECT":" ","MAREA":"唪口","LANE":" ","ALLEY":" ","HOUSE_NO":"９２號之１０","E_COORD97":177956.69,"N_COORD97":2549174.2599999998,"ADDRESS":"唪口９２號之１０","OBJECTID":31394},"geometry":{"x":177956.69000000134,"y":2549174.2599999998}},{"attributes":{"ID":31395,"DIS_CODE":0,"TOWNNAME":"白河區","LI":"永安里","LIN":"17鄰","STREET":"七賢街","SECT":" ","MAREA":" ","LANE":"４５巷","ALLEY":"１２弄","HOUSE_NO":"６號","E_COORD97":189931.17999999999,"N_COORD97":2582874.27,"ADDRESS":"七賢街４５巷１２弄６號","OBJECTID":31395},"geometry":{"x":189931.18000000063,"y":2582874.2699999996}},{"attributes":{"ID":31396,"DIS_CODE":0,"TOWNNAME":"白河區","LI":"永安里","LIN":"17鄰","STREET":"七賢街","SECT":" ","MAREA":" ","LANE":"４５巷","ALLEY":"１２弄","HOUSE_NO":"７號","E_COORD97":189939.48999999999,"N_COORD97":2582858.8100000001,"ADDRESS":"七賢街４５巷１２弄７號","OBJECTID":31396},"geometry":{"x":189939.49000000115,"y":2582858.8100000005}},{"attributes":{"ID":31397,"DIS_CODE":0,"TOWNNAME":"白河區","LI":"永安里","LIN":"17鄰","STREET":"七賢街","SECT":" ","MAREA":" ","LANE":"４５巷","ALLEY":"１２弄","HOUSE_NO":"８號","E_COORD97":189926.97,"N_COORD97":2582874.8999999999,"ADDRESS":"七賢街４５巷１２弄８號","OBJECTID":31397},"geometry":{"x":189926.9700000016,"y":2582874.9000000004}},{"attributes":{"ID":31398,"DIS_CODE":0,"TOWNNAME":"白河區","LI":"永安里","LIN":"17鄰","STREET":"七賢街","SECT":" ","MAREA":" ","LANE":"４５巷","ALLEY":"１２弄","HOUSE_NO":"９號","E_COORD97":189935.23999999999,"N_COORD97":2582859.2200000002,"ADDRESS":"七賢街４５巷１２弄９號","OBJECTID":31398},"geometry":{"x":189935.24000000022,"y":2582859.2200000007}},{"attributes":{"ID":31399,"DIS_CODE":0,"TOWNNAME":"永康區","LI":"\u25A0洲里","LIN":"17鄰","STREET":"中正南路","SECT":" ","MAREA":" ","LANE":"７４３巷","ALLEY":"２弄","HOUSE_NO":"７號之１","E_COORD97":171621.32000000001,"N_COORD97":2548955.9700000002,"ADDRESS":"中正南路７４３巷２弄７號之１","OBJECTID":31399},"geometry":{"x":171621.32000000123,"y":2548955.9700000025}},{"attributes":{"ID":31400,"DIS_CODE":0,"TOWNNAME":"歸仁區","LI":"六甲里","LIN":"14鄰","STREET":"六甲路","SECT":" ","MAREA":" ","LANE":" ","ALLEY":" ","HOUSE_NO":"２６９號","E_COORD97":175862.17000000001,"N_COORD97":2539210.25,"ADDRESS":"六甲路２６９號","OBJECTID":31400},"geometry":{"x":175862.16999999993,"y":2539210.25}}]}