{"displayFieldName":"TOWNNAME","fieldAliases":{"ID":"ID","DIS_CODE":"DIS_CODE","TOWNNAME":"TOWNNAME","LI":"LI","LIN":"LIN","STREET":"STREET","SECT":"SECT","MAREA":"MAREA","LANE":"LANE","ALLEY":"ALLEY","HOUSE_NO":"HOUSE_NO","E_COORD97":"E_COORD97","N_COORD97":"N_COORD97","ADDRESS":"ADDRESS","OBJECTID":"OBJECTID"},"geometryType":"esriGeometryPoint","spatialReference":{"wkid":102443,"latestWkid":3826},"fields":[{"name":"ID","type":"esriFieldTypeDouble","alias":"ID"},{"name":"DIS_CODE","type":"esriFieldTypeInteger","alias":"DIS_CODE"},{"name":"TOWNNAME","type":"esriFieldTypeString","alias":"TOWNNAME","length":8},{"name":"LI","type":"esriFieldTypeString","alias":"LI","length":8},{"name":"LIN","type":"esriFieldTypeString","alias":"LIN","length":12},{"name":"STREET","type":"esriFieldTypeString","alias":"STREET","length":20},{"name":"SECT","type":"esriFieldTypeString","alias":"SECT","length":8},{"name":"MAREA","type":"esriFieldTypeString","alias":"MAREA","length":12},{"name":"LANE","type":"esriFieldTypeString","alias":"LANE","length":10},{"name":"ALLEY","type":"esriFieldTypeString","alias":"ALLEY","length":10},{"name":"HOUSE_NO","type":"esriFieldTypeString","alias":"HOUSE_NO","length":20},{"name":"E_COORD97","type":"esriFieldTypeDouble","alias":"E_COORD97"},{"name":"N_COORD97","type":"esriFieldTypeDouble","alias":"N_COORD97"},{"name":"ADDRESS","type":"esriFieldTypeString","alias":"ADDRESS","length":50},{"name":"OBJECTID","type":"esriFieldTypeOID","alias":"OBJECTID"}],"features":[{"attributes":{"ID":300009,"DIS_CODE":0,"TOWNNAME":"善化區","LI":"光文里","LIN":"14鄰","STREET":"大成路","SECT":" ","MAREA":" ","LANE":" ","ALLEY":" ","HOUSE_NO":"１６６號","E_COORD97":178467.95999999999,"N_COORD97":2558892.25,"ADDRESS":"大成路１６６號","OBJECTID":300001},"geometry":{"x":178467.96000000089,"y":2558892.25}},{"attributes":{"ID":300010,"DIS_CODE":0,"TOWNNAME":"北區","LI":"永祥里","LIN":"8鄰","STREET":"實踐街","SECT":" ","MAREA":" ","LANE":"７１巷","ALLEY":" ","HOUSE_NO":"７７號","E_COORD97":169974.82999999999,"N_COORD97":2546248.3999999999,"ADDRESS":"實踐街７１巷７７號","OBJECTID":300002},"geometry":{"x":169974.83000000101,"y":2546248.4000000004}},{"attributes":{"ID":300011,"DIS_CODE":0,"TOWNNAME":"北區","LI":"永祥里","LIN":"8鄰","STREET":"實踐街","SECT":" ","MAREA":" ","LANE":"７１巷","ALLEY":" ","HOUSE_NO":"７９號","E_COORD97":169975.89999999999,"N_COORD97":2546252.75,"ADDRESS":"實踐街７１巷７９號","OBJECTID":300003},"geometry":{"x":169975.9000000013,"y":2546252.75}},{"attributes":{"ID":300012,"DIS_CODE":0,"TOWNNAME":"北區","LI":"永祥里","LIN":"8鄰","STREET":"實踐街","SECT":" ","MAREA":" ","LANE":"７１巷","ALLEY":" ","HOUSE_NO":"８５號","E_COORD97":169979.10000000001,"N_COORD97":2546266.54,"ADDRESS":"實踐街７１巷８５號","OBJECTID":300004},"geometry":{"x":169979.10000000056,"y":2546266.5399999991}},{"attributes":{"ID":300013,"DIS_CODE":0,"TOWNNAME":"北區","LI":"永祥里","LIN":"8鄰","STREET":"實踐街","SECT":" ","MAREA":" ","LANE":"７１巷","ALLEY":" ","HOUSE_NO":"８７號","E_COORD97":169979.92999999999,"N_COORD97":2546269.9500000002,"ADDRESS":"實踐街７１巷８７號","OBJECTID":300005},"geometry":{"x":169979.93000000156,"y":2546269.9499999993}},{"attributes":{"ID":300014,"DIS_CODE":0,"TOWNNAME":"北區","LI":"永祥里","LIN":"8鄰","STREET":"實踐街","SECT":" ","MAREA":" ","LANE":"７１巷","ALLEY":" ","HOUSE_NO":"９１號","E_COORD97":169983.54999999999,"N_COORD97":2546285.9199999999,"ADDRESS":"實踐街７１巷９１號","OBJECTID":300006},"geometry":{"x":169983.54999999981,"y":2546285.9199999981}},{"attributes":{"ID":300015,"DIS_CODE":0,"TOWNNAME":"北區","LI":"永祥里","LIN":"8鄰","STREET":"實踐街","SECT":" ","MAREA":" ","LANE":"７１巷","ALLEY":" ","HOUSE_NO":"９３號","E_COORD97":169984.70000000001,"N_COORD97":2546295.7999999998,"ADDRESS":"實踐街７１巷９３號","OBJECTID":300007},"geometry":{"x":169984.70000000019,"y":2546295.8000000026}},{"attributes":{"ID":300016,"DIS_CODE":0,"TOWNNAME":"北區","LI":"永祥里","LIN":"8鄰","STREET":"實踐街","SECT":" ","MAREA":" ","LANE":"７１巷","ALLEY":" ","HOUSE_NO":"９７號","E_COORD97":169986.17999999999,"N_COORD97":2546307.6400000001,"ADDRESS":"實踐街７１巷９７號","OBJECTID":300008},"geometry":{"x":169986.1799999997,"y":2546307.6400000006}},{"attributes":{"ID":300017,"DIS_CODE":0,"TOWNNAME":"北區","LI":"永祥里","LIN":"8鄰","STREET":"實踐街","SECT":" ","MAREA":" ","LANE":"７１巷","ALLEY":" ","HOUSE_NO":"９９號","E_COORD97":169987.82000000001,"N_COORD97":2546315.5299999998,"ADDRESS":"實踐街７１巷９９號","OBJECTID":300009},"geometry":{"x":169987.8200000003,"y":2546315.5300000012}},{"attributes":{"ID":300018,"DIS_CODE":0,"TOWNNAME":"安平區","LI":"平通里","LIN":"8鄰","STREET":"國平路","SECT":" ","MAREA":" ","LANE":"５９１巷","ALLEY":" ","HOUSE_NO":"８５號之１","E_COORD97":164937.07000000001,"N_COORD97":2544136.2200000002,"ADDRESS":"國平路５９１巷８５號之１","OBJECTID":300010},"geometry":{"x":164937.07000000123,"y":2544136.2200000025}},{"attributes":{"ID":300019,"DIS_CODE":0,"TOWNNAME":"安平區","LI":"億載里","LIN":"8鄰","STREET":"永華十一街","SECT":" ","MAREA":" ","LANE":"４９巷","ALLEY":" ","HOUSE_NO":"４０號","E_COORD97":163971.76999999999,"N_COORD97":2543485.6499999999,"ADDRESS":"永華十一街４９巷４０號","OBJECTID":300011},"geometry":{"x":163971.77000000048,"y":2543485.6500000022}},{"attributes":{"ID":300020,"DIS_CODE":0,"TOWNNAME":"安平區","LI":"億載里","LIN":"8鄰","STREET":"永華十一街","SECT":" ","MAREA":" ","LANE":"４９巷","ALLEY":" ","HOUSE_NO":"３２號","E_COORD97":163986.95999999999,"N_COORD97":2543486.9500000002,"ADDRESS":"永華十一街４９巷３２號","OBJECTID":300012},"geometry":{"x":163986.95999999996,"y":2543486.9499999993}},{"attributes":{"ID":300021,"DIS_CODE":0,"TOWNNAME":"安平區","LI":"億載里","LIN":"8鄰","STREET":"永華十一街","SECT":" ","MAREA":" ","LANE":"４９巷","ALLEY":" ","HOUSE_NO":"３０號","E_COORD97":163989.34,"N_COORD97":2543487.1099999999,"ADDRESS":"永華十一街４９巷３０號","OBJECTID":300013},"geometry":{"x":163989.33999999985,"y":2543487.1100000031}},{"attributes":{"ID":300022,"DIS_CODE":0,"TOWNNAME":"安平區","LI":"億載里","LIN":"8鄰","STREET":"永華十一街","SECT":" ","MAREA":" ","LANE":"４９巷","ALLEY":" ","HOUSE_NO":"２８號","E_COORD97":163993.54999999999,"N_COORD97":2543487.75,"ADDRESS":"永華十一街４９巷２８號","OBJECTID":300014},"geometry":{"x":163993.55000000168,"y":2543487.7500000019}},{"attributes":{"ID":300023,"DIS_CODE":0,"TOWNNAME":"安平區","LI":"億載里","LIN":"8鄰","STREET":"永華十一街","SECT":" ","MAREA":" ","LANE":"４９巷","ALLEY":" ","HOUSE_NO":"２６號","E_COORD97":163997.37,"N_COORD97":2543488.1299999999,"ADDRESS":"永華十一街４９巷２６號","OBJECTID":300015},"geometry":{"x":163997.37000000104,"y":2543488.1300000008}},{"attributes":{"ID":300024,"DIS_CODE":0,"TOWNNAME":"東山區","LI":"聖賢里","LIN":"4鄰","STREET":" ","SECT":" ","MAREA":"北勢寮","LANE":" ","ALLEY":" ","HOUSE_NO":"３９號之６","E_COORD97":184862.87,"N_COORD97":2579625.71,"ADDRESS":"北勢寮３９號之６","OBJECTID":300016},"geometry":{"x":184862.87000000197,"y":2579625.7100000009}},{"attributes":{"ID":300025,"DIS_CODE":0,"TOWNNAME":"東山區","LI":"聖賢里","LIN":"4鄰","STREET":" ","SECT":" ","MAREA":"北勢寮","LANE":" ","ALLEY":" ","HOUSE_NO":"３９號","E_COORD97":184936.23000000001,"N_COORD97":2579645.6800000002,"ADDRESS":"北勢寮３９號","OBJECTID":300017},"geometry":{"x":184936.23000000045,"y":2579645.6800000034}},{"attributes":{"ID":300026,"DIS_CODE":0,"TOWNNAME":"東山區","LI":"聖賢里","LIN":"4鄰","STREET":" ","SECT":" ","MAREA":"北勢寮","LANE":" ","ALLEY":" ","HOUSE_NO":"４０號之１０","E_COORD97":184902.57999999999,"N_COORD97":2579580.1299999999,"ADDRESS":"北勢寮４０號之１０","OBJECTID":300018},"geometry":{"x":184902.58000000101,"y":2579580.129999999}},{"attributes":{"ID":300027,"DIS_CODE":0,"TOWNNAME":"東山區","LI":"聖賢里","LIN":"4鄰","STREET":" ","SECT":" ","MAREA":"北勢寮","LANE":" ","ALLEY":" ","HOUSE_NO":"４０號之１１","E_COORD97":184892.12,"N_COORD97":2579588.1600000001,"ADDRESS":"北勢寮４０號之１１","OBJECTID":300019},"geometry":{"x":184892.12000000104,"y":2579588.1599999983}},{"attributes":{"ID":300028,"DIS_CODE":0,"TOWNNAME":"東山區","LI":"聖賢里","LIN":"4鄰","STREET":" ","SECT":" ","MAREA":"北勢寮","LANE":" ","ALLEY":" ","HOUSE_NO":"４０號之１２","E_COORD97":184887.04999999999,"N_COORD97":2579587.98,"ADDRESS":"北勢寮４０號之１２","OBJECTID":300020},"geometry":{"x":184887.05000000075,"y":2579587.9800000023}},{"attributes":{"ID":300029,"DIS_CODE":0,"TOWNNAME":"東山區","LI":"聖賢里","LIN":"4鄰","STREET":" ","SECT":" ","MAREA":"北勢寮","LANE":" ","ALLEY":" ","HOUSE_NO":"４０號之１","E_COORD97":184914.89000000001,"N_COORD97":2579596.0899999999,"ADDRESS":"北勢寮４０號之１","OBJECTID":300021},"geometry":{"x":184914.8900000006,"y":2579596.0900000017}},{"attributes":{"ID":300030,"DIS_CODE":0,"TOWNNAME":"東山區","LI":"聖賢里","LIN":"4鄰","STREET":" ","SECT":" ","MAREA":"北勢寮","LANE":" ","ALLEY":" ","HOUSE_NO":"４０號之２","E_COORD97":184914.60999999999,"N_COORD97":2579580.1400000001,"ADDRESS":"北勢寮４０號之２","OBJECTID":300022},"geometry":{"x":184914.61000000127,"y":2579580.1400000025}},{"attributes":{"ID":300031,"DIS_CODE":0,"TOWNNAME":"安平區","LI":"平通里","LIN":"8鄰","STREET":"平通路","SECT":" ","MAREA":" ","LANE":"５８０巷","ALLEY":" ","HOUSE_NO":"１２１號","E_COORD97":164964.5,"N_COORD97":2544164.3100000001,"ADDRESS":"平通路５８０巷１２１號","OBJECTID":300023},"geometry":{"x":164964.5,"y":2544164.3100000005}},{"attributes":{"ID":300032,"DIS_CODE":0,"TOWNNAME":"新營區","LI":"忠政里","LIN":"8鄰","STREET":"中正路","SECT":" ","MAREA":" ","LANE":"３７巷","ALLEY":" ","HOUSE_NO":"７６號","E_COORD97":179945.45000000001,"N_COORD97":2579178.75,"ADDRESS":"中正路３７巷７６號","OBJECTID":300024},"geometry":{"x":179945.45000000019,"y":2579178.7500000019}},{"attributes":{"ID":300033,"DIS_CODE":0,"TOWNNAME":"新營區","LI":"忠政里","LIN":"8鄰","STREET":"中正路","SECT":" ","MAREA":" ","LANE":"３７巷","ALLEY":" ","HOUSE_NO":"１２６號之１","E_COORD97":179969.07000000001,"N_COORD97":2579136.6299999999,"ADDRESS":"中正路３７巷１２６號之１","OBJECTID":300025},"geometry":{"x":179969.0700000003,"y":2579136.6300000027}},{"attributes":{"ID":300034,"DIS_CODE":0,"TOWNNAME":"新營區","LI":"南紙里","LIN":"8鄰","STREET":"太子路","SECT":" ","MAREA":" ","LANE":"１３９巷","ALLEY":" ","HOUSE_NO":"９２號","E_COORD97":177990.31,"N_COORD97":2577606.6800000002,"ADDRESS":"太子路１３９巷９２號","OBJECTID":300026},"geometry":{"x":177990.31000000145,"y":2577606.6799999997}},{"attributes":{"ID":300035,"DIS_CODE":0,"TOWNNAME":"南區","LI":"新興里","LIN":"8鄰","STREET":"健康路","SECT":"二段","MAREA":" ","LANE":"７３巷","ALLEY":" ","HOUSE_NO":"１０號","E_COORD97":167521.20000000001,"N_COORD97":2542409.3799999999,"ADDRESS":"健康路二段７３巷１０號","OBJECTID":300027},"geometry":{"x":167521.20000000112,"y":2542409.379999999}},{"attributes":{"ID":300036,"DIS_CODE":0,"TOWNNAME":"麻豆區","LI":"埤頭里","LIN":"4鄰","STREET":" ","SECT":" ","MAREA":"埤頭","LANE":" ","ALLEY":" ","HOUSE_NO":"３３號之４８","E_COORD97":170737.31,"N_COORD97":2565861.75,"ADDRESS":"埤頭３３號之４８","OBJECTID":300028},"geometry":{"x":170737.31000000052,"y":2565861.75}},{"attributes":{"ID":300037,"DIS_CODE":0,"TOWNNAME":"南區","LI":"新興里","LIN":"8鄰","STREET":"健康路","SECT":"二段","MAREA":" ","LANE":"７３巷","ALLEY":" ","HOUSE_NO":"１１號","E_COORD97":167543.53,"N_COORD97":2542384.9700000002,"ADDRESS":"健康路二段７３巷１１號","OBJECTID":300029},"geometry":{"x":167543.53000000026,"y":2542384.9700000025}},{"attributes":{"ID":300038,"DIS_CODE":0,"TOWNNAME":"南區","LI":"新興里","LIN":"8鄰","STREET":"健康路","SECT":"二段","MAREA":" ","LANE":"７３巷","ALLEY":" ","HOUSE_NO":"１２號","E_COORD97":167521.70999999999,"N_COORD97":2542404.0800000001,"ADDRESS":"健康路二段７３巷１２號","OBJECTID":300030},"geometry":{"x":167521.70999999996,"y":2542404.0800000019}},{"attributes":{"ID":300039,"DIS_CODE":0,"TOWNNAME":"南區","LI":"新興里","LIN":"8鄰","STREET":"健康路","SECT":"二段","MAREA":" ","LANE":"７３巷","ALLEY":" ","HOUSE_NO":"１３號","E_COORD97":167544.04999999999,"N_COORD97":2542381.8500000001,"ADDRESS":"健康路二段７３巷１３號","OBJECTID":300031},"geometry":{"x":167544.04999999981,"y":2542381.8500000015}},{"attributes":{"ID":300040,"DIS_CODE":0,"TOWNNAME":"麻豆區","LI":"麻口里","LIN":"4鄰","STREET":" ","SECT":" ","MAREA":"麻豆口","LANE":" ","ALLEY":" ","HOUSE_NO":"１９號之５","E_COORD97":170119.73999999999,"N_COORD97":2564230.3300000001,"ADDRESS":"麻豆口１９號之５","OBJECTID":300032},"geometry":{"x":170119.74000000115,"y":2564230.3300000019}},{"attributes":{"ID":300041,"DIS_CODE":0,"TOWNNAME":"南區","LI":"新興里","LIN":"8鄰","STREET":"健康路","SECT":"二段","MAREA":" ","LANE":"７３巷","ALLEY":" ","HOUSE_NO":"１４號","E_COORD97":167521.79000000001,"N_COORD97":2542400.04,"ADDRESS":"健康路二段７３巷１４號","OBJECTID":300033},"geometry":{"x":167521.79000000097,"y":2542400.040000001}},{"attributes":{"ID":300042,"DIS_CODE":0,"TOWNNAME":"南區","LI":"新興里","LIN":"8鄰","STREET":"健康路","SECT":"二段","MAREA":" ","LANE":"７３巷","ALLEY":" ","HOUSE_NO":"１５號","E_COORD97":167539.32999999999,"N_COORD97":2542377.2999999998,"ADDRESS":"健康路二段７３巷１５號","OBJECTID":300034},"geometry":{"x":167539.33000000007,"y":2542377.3000000007}},{"attributes":{"ID":300043,"DIS_CODE":0,"TOWNNAME":"南區","LI":"新興里","LIN":"8鄰","STREET":"健康路","SECT":"二段","MAREA":" ","LANE":"７３巷","ALLEY":" ","HOUSE_NO":"１６號","E_COORD97":167521.12,"N_COORD97":2542395.3599999999,"ADDRESS":"健康路二段７３巷１６號","OBJECTID":300035},"geometry":{"x":167521.12000000104,"y":2542395.3600000013}},{"attributes":{"ID":300044,"DIS_CODE":0,"TOWNNAME":"南區","LI":"新興里","LIN":"8鄰","STREET":"健康路","SECT":"二段","MAREA":" ","LANE":"７３巷","ALLEY":" ","HOUSE_NO":"１７號","E_COORD97":167539.16,"N_COORD97":2542374.4399999999,"ADDRESS":"健康路二段７３巷１７號","OBJECTID":300036},"geometry":{"x":167539.16000000015,"y":2542374.4400000013}},{"attributes":{"ID":300045,"DIS_CODE":0,"TOWNNAME":"南區","LI":"新興里","LIN":"8鄰","STREET":"健康路","SECT":"二段","MAREA":" ","LANE":"７３巷","ALLEY":" ","HOUSE_NO":"１８號","E_COORD97":167521.70999999999,"N_COORD97":2542389.9700000002,"ADDRESS":"健康路二段７３巷１８號","OBJECTID":300037},"geometry":{"x":167521.70999999996,"y":2542389.9700000007}},{"attributes":{"ID":300046,"DIS_CODE":0,"TOWNNAME":"南區","LI":"新興里","LIN":"8鄰","STREET":"健康路","SECT":"二段","MAREA":" ","LANE":"７３巷","ALLEY":" ","HOUSE_NO":"１９號","E_COORD97":167550.62,"N_COORD97":2542375.0299999998,"ADDRESS":"健康路二段７３巷１９號","OBJECTID":300038},"geometry":{"x":167550.62000000104,"y":2542375.0299999993}},{"attributes":{"ID":300047,"DIS_CODE":0,"TOWNNAME":"南區","LI":"新興里","LIN":"8鄰","STREET":"健康路","SECT":"二段","MAREA":" ","LANE":"７３巷","ALLEY":" ","HOUSE_NO":"１號","E_COORD97":167548.35000000001,"N_COORD97":2542417.9700000002,"ADDRESS":"健康路二段７３巷１號","OBJECTID":300039},"geometry":{"x":167548.35000000056,"y":2542417.9699999988}},{"attributes":{"ID":300048,"DIS_CODE":0,"TOWNNAME":"南區","LI":"新興里","LIN":"8鄰","STREET":"健康路","SECT":"二段","MAREA":" ","LANE":"７３巷","ALLEY":" ","HOUSE_NO":"２０號","E_COORD97":167521.88,"N_COORD97":2542384.8399999999,"ADDRESS":"健康路二段７３巷２０號","OBJECTID":300040},"geometry":{"x":167521.87999999989,"y":2542384.8400000017}},{"attributes":{"ID":300049,"DIS_CODE":0,"TOWNNAME":"南區","LI":"新興里","LIN":"8鄰","STREET":"健康路","SECT":"二段","MAREA":" ","LANE":"７３巷","ALLEY":" ","HOUSE_NO":"２２號","E_COORD97":167521.54000000001,"N_COORD97":2542381.0099999998,"ADDRESS":"健康路二段７３巷２２號","OBJECTID":300041},"geometry":{"x":167521.5400000019,"y":2542381.0100000016}},{"attributes":{"ID":300050,"DIS_CODE":0,"TOWNNAME":"南區","LI":"新興里","LIN":"8鄰","STREET":"健康路","SECT":"二段","MAREA":" ","LANE":"７３巷","ALLEY":" ","HOUSE_NO":"２４號","E_COORD97":167521.88,"N_COORD97":2542375.7000000002,"ADDRESS":"健康路二段７３巷２４號","OBJECTID":300042},"geometry":{"x":167521.87999999989,"y":2542375.7000000011}},{"attributes":{"ID":300051,"DIS_CODE":0,"TOWNNAME":"南區","LI":"新興里","LIN":"8鄰","STREET":"健康路","SECT":"二段","MAREA":" ","LANE":"７３巷","ALLEY":" ","HOUSE_NO":"５號","E_COORD97":167544.64000000001,"N_COORD97":2542405.1299999999,"ADDRESS":"健康路二段７３巷５號","OBJECTID":300043},"geometry":{"x":167544.6400000006,"y":2542405.1300000027}},{"attributes":{"ID":300052,"DIS_CODE":0,"TOWNNAME":"南區","LI":"新興里","LIN":"8鄰","STREET":"健康路","SECT":"二段","MAREA":" ","LANE":"７３巷","ALLEY":" ","HOUSE_NO":"６號","E_COORD97":167519.76999999999,"N_COORD97":2542420.2400000002,"ADDRESS":"健康路二段７３巷６號","OBJECTID":300044},"geometry":{"x":167519.77000000048,"y":2542420.2400000021}},{"attributes":{"ID":300053,"DIS_CODE":0,"TOWNNAME":"南區","LI":"新興里","LIN":"8鄰","STREET":"健康路","SECT":"二段","MAREA":" ","LANE":"７３巷","ALLEY":" ","HOUSE_NO":"７號","E_COORD97":167544.47,"N_COORD97":2542396.8399999999,"ADDRESS":"健康路二段７３巷７號","OBJECTID":300045},"geometry":{"x":167544.47000000067,"y":2542396.8399999999}},{"attributes":{"ID":300054,"DIS_CODE":0,"TOWNNAME":"麻豆區","LI":"麻口里","LIN":"4鄰","STREET":" ","SECT":" ","MAREA":"麻豆口","LANE":" ","ALLEY":" ","HOUSE_NO":"１０號之６","E_COORD97":170449.75,"N_COORD97":2564192.1899999999,"ADDRESS":"麻豆口１０號之６","OBJECTID":300046},"geometry":{"x":170449.75000000093,"y":2564192.1900000013}},{"attributes":{"ID":300055,"DIS_CODE":0,"TOWNNAME":"北區","LI":"光武里","LIN":"4鄰","STREET":"長榮路","SECT":"五段","MAREA":" ","LANE":"３８３巷","ALLEY":" ","HOUSE_NO":"１３號","E_COORD97":169554.78,"N_COORD97":2545896.6200000001,"ADDRESS":"長榮路五段３８３巷１３號","OBJECTID":300047},"geometry":{"x":169554.78000000119,"y":2545896.6200000029}},{"attributes":{"ID":300056,"DIS_CODE":0,"TOWNNAME":"北區","LI":"光武里","LIN":"4鄰","STREET":"長榮路","SECT":"五段","MAREA":" ","LANE":"３８３巷","ALLEY":" ","HOUSE_NO":"１５號","E_COORD97":169553.60999999999,"N_COORD97":2545893.0800000001,"ADDRESS":"長榮路五段３８３巷１５號","OBJECTID":300048},"geometry":{"x":169553.61000000034,"y":2545893.0800000019}},{"attributes":{"ID":300057,"DIS_CODE":0,"TOWNNAME":"北區","LI":"光武里","LIN":"4鄰","STREET":"長榮路","SECT":"五段","MAREA":" ","LANE":"３８３巷","ALLEY":" ","HOUSE_NO":"１７號","E_COORD97":169552.98999999999,"N_COORD97":2545891.2000000002,"ADDRESS":"長榮路五段３８３巷１７號","OBJECTID":300049},"geometry":{"x":169552.99000000115,"y":2545891.2000000011}},{"attributes":{"ID":300058,"DIS_CODE":0,"TOWNNAME":"南區","LI":"新興里","LIN":"8鄰","STREET":"健康路","SECT":"二段","MAREA":" ","LANE":"７３巷","ALLEY":" ","HOUSE_NO":"８號","E_COORD97":167521.37,"N_COORD97":2542413.6800000002,"ADDRESS":"健康路二段７３巷８號","OBJECTID":300050},"geometry":{"x":167521.37000000104,"y":2542413.6800000016}},{"attributes":{"ID":300059,"DIS_CODE":0,"TOWNNAME":"北區","LI":"東興里","LIN":"8鄰","STREET":"小東路","SECT":" ","MAREA":" ","LANE":"３９３巷","ALLEY":" ","HOUSE_NO":"１０號","E_COORD97":171288.29999999999,"N_COORD97":2544433.2599999998,"ADDRESS":"小東路３９３巷１０號","OBJECTID":300051},"geometry":{"x":171288.30000000075,"y":2544433.2600000016}},{"attributes":{"ID":300060,"DIS_CODE":0,"TOWNNAME":"北區","LI":"東興里","LIN":"8鄰","STREET":"小東路","SECT":" ","MAREA":" ","LANE":"３９３巷","ALLEY":" ","HOUSE_NO":"１１號","E_COORD97":171264.94,"N_COORD97":2544433.1499999999,"ADDRESS":"小東路３９３巷１１號","OBJECTID":300052},"geometry":{"x":171264.94000000041,"y":2544433.1500000004}},{"attributes":{"ID":300061,"DIS_CODE":0,"TOWNNAME":"北區","LI":"東興里","LIN":"8鄰","STREET":"小東路","SECT":" ","MAREA":" ","LANE":"３９３巷","ALLEY":" ","HOUSE_NO":"１３號","E_COORD97":171279.23999999999,"N_COORD97":2544435.1899999999,"ADDRESS":"小東路３９３巷１３號","OBJECTID":300053},"geometry":{"x":171279.24000000115,"y":2544435.1899999995}},{"attributes":{"ID":300062,"DIS_CODE":0,"TOWNNAME":"北區","LI":"東興里","LIN":"8鄰","STREET":"小東路","SECT":" ","MAREA":" ","LANE":"３９３巷","ALLEY":" ","HOUSE_NO":"１號","E_COORD97":171266.67000000001,"N_COORD97":2544378.1400000001,"ADDRESS":"小東路３９３巷１號","OBJECTID":300054},"geometry":{"x":171266.66999999899,"y":2544378.1400000025}},{"attributes":{"ID":300063,"DIS_CODE":0,"TOWNNAME":"北區","LI":"東興里","LIN":"8鄰","STREET":"小東路","SECT":" ","MAREA":" ","LANE":"３９３巷","ALLEY":" ","HOUSE_NO":"２號","E_COORD97":171284.14000000001,"N_COORD97":2544387.4700000002,"ADDRESS":"小東路３９３巷２號","OBJECTID":300055},"geometry":{"x":171284.1400000006,"y":2544387.4700000007}},{"attributes":{"ID":300064,"DIS_CODE":0,"TOWNNAME":"北區","LI":"東興里","LIN":"8鄰","STREET":"小東路","SECT":" ","MAREA":" ","LANE":"３９３巷","ALLEY":" ","HOUSE_NO":"４號","E_COORD97":171286.26000000001,"N_COORD97":2544400.1600000001,"ADDRESS":"小東路３９３巷４號","OBJECTID":300056},"geometry":{"x":171286.25999999885,"y":2544400.160000002}},{"attributes":{"ID":300065,"DIS_CODE":0,"TOWNNAME":"北區","LI":"東興里","LIN":"8鄰","STREET":"小東路","SECT":" ","MAREA":" ","LANE":"３９３巷","ALLEY":" ","HOUSE_NO":"５號","E_COORD97":171269.69,"N_COORD97":2544390.8700000001,"ADDRESS":"小東路３９３巷５號","OBJECTID":300057},"geometry":{"x":171269.69000000134,"y":2544390.870000001}},{"attributes":{"ID":300066,"DIS_CODE":0,"TOWNNAME":"北區","LI":"東興里","LIN":"8鄰","STREET":"小東路","SECT":" ","MAREA":" ","LANE":"３９３巷","ALLEY":" ","HOUSE_NO":"６號","E_COORD97":171288.01000000001,"N_COORD97":2544413.5899999999,"ADDRESS":"小東路３９３巷６號","OBJECTID":300058},"geometry":{"x":171288.01000000164,"y":2544413.5900000036}},{"attributes":{"ID":300067,"DIS_CODE":0,"TOWNNAME":"北區","LI":"東興里","LIN":"8鄰","STREET":"小東路","SECT":" ","MAREA":" ","LANE":"３９３巷","ALLEY":" ","HOUSE_NO":"７號","E_COORD97":171263.57000000001,"N_COORD97":2544399.46,"ADDRESS":"小東路３９３巷７號","OBJECTID":300059},"geometry":{"x":171263.57000000123,"y":2544399.4600000028}},{"attributes":{"ID":300068,"DIS_CODE":0,"TOWNNAME":"北區","LI":"東興里","LIN":"8鄰","STREET":"小東路","SECT":" ","MAREA":" ","LANE":"３９３巷","ALLEY":" ","HOUSE_NO":"８號","E_COORD97":171289.07999999999,"N_COORD97":2544422.9199999999,"ADDRESS":"小東路３９３巷８號","OBJECTID":300060},"geometry":{"x":171289.08000000007,"y":2544422.9200000018}},{"attributes":{"ID":300069,"DIS_CODE":0,"TOWNNAME":"善化區","LI":"文正里","LIN":"14鄰","STREET":"陽明路","SECT":" ","MAREA":" ","LANE":" ","ALLEY":" ","HOUSE_NO":"２１９號","E_COORD97":176134.60999999999,"N_COORD97":2559664.5099999998,"ADDRESS":"陽明路２１９號","OBJECTID":300061},"geometry":{"x":176134.6100000022,"y":2559664.5100000016}},{"attributes":{"ID":300070,"DIS_CODE":0,"TOWNNAME":"善化區","LI":"文正里","LIN":"14鄰","STREET":"陽明路","SECT":" ","MAREA":" ","LANE":" ","ALLEY":" ","HOUSE_NO":"９７號之１","E_COORD97":174557.45000000001,"N_COORD97":2558823.52,"ADDRESS":"陽明路９７號之１","OBJECTID":300062},"geometry":{"x":174557.45000000112,"y":2558823.5200000014}},{"attributes":{"ID":300071,"DIS_CODE":0,"TOWNNAME":"善化區","LI":"文正里","LIN":"14鄰","STREET":"陽明路","SECT":" ","MAREA":" ","LANE":" ","ALLEY":" ","HOUSE_NO":"１８３號之１","E_COORD97":176241.66,"N_COORD97":2559531.52,"ADDRESS":"陽明路１８３號之１","OBJECTID":300063},"geometry":{"x":176241.66000000015,"y":2559531.5200000014}},{"attributes":{"ID":300072,"DIS_CODE":0,"TOWNNAME":"善化區","LI":"文正里","LIN":"14鄰","STREET":"陽明路","SECT":" ","MAREA":" ","LANE":" ","ALLEY":" ","HOUSE_NO":"２２１號","E_COORD97":176131.26999999999,"N_COORD97":2559667.7599999998,"ADDRESS":"陽明路２２１號","OBJECTID":300064},"geometry":{"x":176131.27000000048,"y":2559667.7599999998}},{"attributes":{"ID":300073,"DIS_CODE":0,"TOWNNAME":"麻豆區","LI":"麻口里","LIN":"4鄰","STREET":" ","SECT":" ","MAREA":"麻豆口","LANE":" ","ALLEY":" ","HOUSE_NO":"１９號之１","E_COORD97":170145.29999999999,"N_COORD97":2564232.2400000002,"ADDRESS":"麻豆口１９號之１","OBJECTID":300065},"geometry":{"x":170145.30000000168,"y":2564232.2400000002}},{"attributes":{"ID":300074,"DIS_CODE":0,"TOWNNAME":"麻豆區","LI":"麻口里","LIN":"4鄰","STREET":" ","SECT":" ","MAREA":"麻豆口","LANE":" ","ALLEY":" ","HOUSE_NO":"１９號之２","E_COORD97":170140.76000000001,"N_COORD97":2564231.8199999998,"ADDRESS":"麻豆口１９號之２","OBJECTID":300066},"geometry":{"x":170140.76000000071,"y":2564231.8200000003}},{"attributes":{"ID":300075,"DIS_CODE":0,"TOWNNAME":"麻豆區","LI":"麻口里","LIN":"4鄰","STREET":" ","SECT":" ","MAREA":"麻豆口","LANE":" ","ALLEY":" ","HOUSE_NO":"１９號之６","E_COORD97":170122.82000000001,"N_COORD97":2564273.3199999998,"ADDRESS":"麻豆口１９號之６","OBJECTID":300067},"geometry":{"x":170122.8200000003,"y":2564273.320000004}},{"attributes":{"ID":300076,"DIS_CODE":0,"TOWNNAME":"麻豆區","LI":"麻口里","LIN":"4鄰","STREET":" ","SECT":" ","MAREA":"麻豆口","LANE":" ","ALLEY":" ","HOUSE_NO":"１９號","E_COORD97":170127.53,"N_COORD97":2564246.7000000002,"ADDRESS":"麻豆口１９號","OBJECTID":300068},"geometry":{"x":170127.53000000119,"y":2564246.7000000011}},{"attributes":{"ID":300077,"DIS_CODE":0,"TOWNNAME":"北區","LI":"大山里","LIN":"4鄰","STREET":"精忠街","SECT":" ","MAREA":" ","LANE":"２８巷","ALLEY":" ","HOUSE_NO":"７０號","E_COORD97":169375.39000000001,"N_COORD97":2545540.6400000001,"ADDRESS":"精忠街２８巷７０號","OBJECTID":300069},"geometry":{"x":169375.3900000006,"y":2545540.6400000025}},{"attributes":{"ID":300078,"DIS_CODE":0,"TOWNNAME":"北區","LI":"大山里","LIN":"4鄰","STREET":"精忠街","SECT":" ","MAREA":" ","LANE":"２８巷","ALLEY":" ","HOUSE_NO":"７２號","E_COORD97":169371.03,"N_COORD97":2545541.48,"ADDRESS":"精忠街２８巷７２號","OBJECTID":300070},"geometry":{"x":169371.03000000026,"y":2545541.4800000023}},{"attributes":{"ID":300079,"DIS_CODE":0,"TOWNNAME":"安平區","LI":"石門里","LIN":"4鄰","STREET":"安北路","SECT":" ","MAREA":" ","LANE":"１６巷","ALLEY":" ","HOUSE_NO":"７號","E_COORD97":164709.26999999999,"N_COORD97":2544510.5499999998,"ADDRESS":"安北路１６巷７號","OBJECTID":300071},"geometry":{"x":164709.27000000048,"y":2544510.5500000026}},{"attributes":{"ID":300080,"DIS_CODE":0,"TOWNNAME":"安平區","LI":"石門里","LIN":"4鄰","STREET":"安北路","SECT":" ","MAREA":" ","LANE":"１６巷","ALLEY":" ","HOUSE_NO":"９號","E_COORD97":164715.72,"N_COORD97":2544513.6400000001,"ADDRESS":"安北路１６巷９號","OBJECTID":300072},"geometry":{"x":164715.71999999974,"y":2544513.6400000025}},{"attributes":{"ID":300081,"DIS_CODE":0,"TOWNNAME":"安平區","LI":"海頭里","LIN":"4鄰","STREET":"中興街","SECT":" ","MAREA":" ","LANE":"１８巷","ALLEY":" ","HOUSE_NO":"１１號","E_COORD97":164246.590409,"N_COORD97":2544725.9154400001,"ADDRESS":"中興街１８巷１１號","OBJECTID":300073},"geometry":{"x":164246.5904090004,"y":2544725.9154410027}},{"attributes":{"ID":300082,"DIS_CODE":0,"TOWNNAME":"安平區","LI":"海頭里","LIN":"4鄰","STREET":"中興街","SECT":" ","MAREA":" ","LANE":"１８巷","ALLEY":" ","HOUSE_NO":"１５號","E_COORD97":164247.649947,"N_COORD97":2544735.44044,"ADDRESS":"中興街１８巷１５號","OBJECTID":300074},"geometry":{"x":164247.64994700067,"y":2544735.440436}},{"attributes":{"ID":300083,"DIS_CODE":0,"TOWNNAME":"安平區","LI":"海頭里","LIN":"4鄰","STREET":"中興街","SECT":" ","MAREA":" ","LANE":"１８巷","ALLEY":" ","HOUSE_NO":"３號","E_COORD97":164237.56,"N_COORD97":2544705.3199999998,"ADDRESS":"中興街１８巷３號","OBJECTID":300075},"geometry":{"x":164237.56000000052,"y":2544705.3200000022}},{"attributes":{"ID":300084,"DIS_CODE":0,"TOWNNAME":"安平區","LI":"海頭里","LIN":"4鄰","STREET":"中興街","SECT":" ","MAREA":" ","LANE":"１８巷","ALLEY":" ","HOUSE_NO":"５號","E_COORD97":164240.01000000001,"N_COORD97":2544710.6400000001,"ADDRESS":"中興街１８巷５號","OBJECTID":300076},"geometry":{"x":164240.01000000071,"y":2544710.6400000006}},{"attributes":{"ID":300085,"DIS_CODE":0,"TOWNNAME":"北區","LI":"東興里","LIN":"8鄰","STREET":"小東路","SECT":" ","MAREA":" ","LANE":"３９３巷","ALLEY":" ","HOUSE_NO":"９號","E_COORD97":171264.45000000001,"N_COORD97":2544415.3100000001,"ADDRESS":"小東路３９３巷９號","OBJECTID":300077},"geometry":{"x":171264.45000000019,"y":2544415.3100000005}},{"attributes":{"ID":300086,"DIS_CODE":0,"TOWNNAME":"北區","LI":"中樓里","LIN":"8鄰","STREET":"東豐路","SECT":" ","MAREA":" ","LANE":"８５巷","ALLEY":" ","HOUSE_NO":"２號","E_COORD97":169672.64000000001,"N_COORD97":2544947.9100000001,"ADDRESS":"東豐路８５巷２號","OBJECTID":300078},"geometry":{"x":169672.63999999966,"y":2544947.910000002}},{"attributes":{"ID":300087,"DIS_CODE":0,"TOWNNAME":"北區","LI":"中樓里","LIN":"8鄰","STREET":"東豐路","SECT":" ","MAREA":" ","LANE":"８５巷","ALLEY":" ","HOUSE_NO":"５號","E_COORD97":169665.32000000001,"N_COORD97":2544973.2000000002,"ADDRESS":"東豐路８５巷５號","OBJECTID":300079},"geometry":{"x":169665.3200000003,"y":2544973.1999999993}},{"attributes":{"ID":300088,"DIS_CODE":0,"TOWNNAME":"北區","LI":"中樓里","LIN":"8鄰","STREET":"東豐路","SECT":" ","MAREA":" ","LANE":"８５巷","ALLEY":" ","HOUSE_NO":"６號","E_COORD97":169690.35000000001,"N_COORD97":2544955.1800000002,"ADDRESS":"東豐路８５巷６號","OBJECTID":300080},"geometry":{"x":169690.3499999987,"y":2544955.1800000034}},{"attributes":{"ID":300089,"DIS_CODE":0,"TOWNNAME":"善化區","LI":"文正里","LIN":"14鄰","STREET":"陽明路","SECT":" ","MAREA":" ","LANE":" ","ALLEY":" ","HOUSE_NO":"２５５號","E_COORD97":176086.34,"N_COORD97":2559756.5099999998,"ADDRESS":"陽明路２５５號","OBJECTID":300081},"geometry":{"x":176086.33999999985,"y":2559756.5100000016}},{"attributes":{"ID":300090,"DIS_CODE":0,"TOWNNAME":"善化區","LI":"文正里","LIN":"14鄰","STREET":"陽明路","SECT":" ","MAREA":" ","LANE":" ","ALLEY":" ","HOUSE_NO":"１６１號","E_COORD97":176273.64000000001,"N_COORD97":2559536.2599999998,"ADDRESS":"陽明路１６１號","OBJECTID":300082},"geometry":{"x":176273.63999999966,"y":2559536.2599999998}},{"attributes":{"ID":300091,"DIS_CODE":0,"TOWNNAME":"善化區","LI":"文正里","LIN":"14鄰","STREET":"陽明路","SECT":" ","MAREA":" ","LANE":" ","ALLEY":" ","HOUSE_NO":"２５３號","E_COORD97":176078.12,"N_COORD97":2559709.5099999998,"ADDRESS":"陽明路２５３號","OBJECTID":300083},"geometry":{"x":176078.12000000011,"y":2559709.5100000016}},{"attributes":{"ID":300092,"DIS_CODE":0,"TOWNNAME":"善化區","LI":"文正里","LIN":"14鄰","STREET":"陽明路","SECT":" ","MAREA":" ","LANE":" ","ALLEY":" ","HOUSE_NO":"９７號","E_COORD97":176435.51999999999,"N_COORD97":2559393.0099999998,"ADDRESS":"陽明路９７號","OBJECTID":300084},"geometry":{"x":176435.51999999955,"y":2559393.0100000016}},{"attributes":{"ID":300093,"DIS_CODE":0,"TOWNNAME":"善化區","LI":"文正里","LIN":"14鄰","STREET":"陽明路","SECT":" ","MAREA":" ","LANE":" ","ALLEY":" ","HOUSE_NO":"２７１號","E_COORD97":175984.26000000001,"N_COORD97":2559784.2599999998,"ADDRESS":"陽明路２７１號","OBJECTID":300085},"geometry":{"x":175984.26000000071,"y":2559784.2600000035}},{"attributes":{"ID":300094,"DIS_CODE":0,"TOWNNAME":"善化區","LI":"文正里","LIN":"14鄰","STREET":"陽明路","SECT":" ","MAREA":" ","LANE":" ","ALLEY":" ","HOUSE_NO":"８７之１號","E_COORD97":176435,"N_COORD97":2559368.77,"ADDRESS":"陽明路８７之１號","OBJECTID":300086},"geometry":{"x":176435.00000000186,"y":2559368.7699999996}},{"attributes":{"ID":300095,"DIS_CODE":0,"TOWNNAME":"善化區","LI":"文正里","LIN":"14鄰","STREET":"陽明路","SECT":" ","MAREA":" ","LANE":" ","ALLEY":" ","HOUSE_NO":"２５１號","E_COORD97":176083.12,"N_COORD97":2559701.0099999998,"ADDRESS":"陽明路２５１號","OBJECTID":300087},"geometry":{"x":176083.12000000011,"y":2559701.0100000035}},{"attributes":{"ID":300096,"DIS_CODE":0,"TOWNNAME":"善化區","LI":"文正里","LIN":"14鄰","STREET":"陽明路","SECT":" ","MAREA":" ","LANE":" ","ALLEY":" ","HOUSE_NO":"１８３號","E_COORD97":176227.79999999999,"N_COORD97":2559580.7599999998,"ADDRESS":"陽明路１８３號","OBJECTID":300088},"geometry":{"x":176227.80000000075,"y":2559580.7600000035}},{"attributes":{"ID":300097,"DIS_CODE":0,"TOWNNAME":"北區","LI":"中樓里","LIN":"8鄰","STREET":"東豐路","SECT":" ","MAREA":" ","LANE":"８５巷","ALLEY":" ","HOUSE_NO":"７號","E_COORD97":169672.81,"N_COORD97":2544974.8900000001,"ADDRESS":"東豐路８５巷７號","OBJECTID":300089},"geometry":{"x":169672.81000000052,"y":2544974.8900000043}},{"attributes":{"ID":300098,"DIS_CODE":0,"TOWNNAME":"北區","LI":"中樓里","LIN":"8鄰","STREET":"東豐路","SECT":" ","MAREA":" ","LANE":"８５巷","ALLEY":" ","HOUSE_NO":"８號","E_COORD97":169694.45999999999,"N_COORD97":2544956.3399999999,"ADDRESS":"東豐路８５巷８號","OBJECTID":300090},"geometry":{"x":169694.45999999996,"y":2544956.3399999999}},{"attributes":{"ID":300099,"DIS_CODE":0,"TOWNNAME":"北區","LI":"中樓里","LIN":"8鄰","STREET":"東豐路","SECT":" ","MAREA":" ","LANE":"８５巷","ALLEY":" ","HOUSE_NO":"９號","E_COORD97":169667.85000000001,"N_COORD97":2544958.1000000001,"ADDRESS":"東豐路８５巷９號","OBJECTID":300091},"geometry":{"x":169667.84999999963,"y":2544958.0999999996}},{"attributes":{"ID":300100,"DIS_CODE":0,"TOWNNAME":"北區","LI":"中樓里","LIN":"8鄰","STREET":"東豐路","SECT":" ","MAREA":" ","LANE":"８５巷","ALLEY":" ","HOUSE_NO":"１５號","E_COORD97":169681.35000000001,"N_COORD97":2544979.6699999999,"ADDRESS":"東豐路８５巷１５號","OBJECTID":300092},"geometry":{"x":169681.34999999963,"y":2544979.6700000018}},{"attributes":{"ID":300101,"DIS_CODE":0,"TOWNNAME":"北區","LI":"中樓里","LIN":"8鄰","STREET":"東豐路","SECT":" ","MAREA":" ","LANE":"８５巷","ALLEY":" ","HOUSE_NO":"１７號","E_COORD97":169679.98000000001,"N_COORD97":2544985.8500000001,"ADDRESS":"東豐路８５巷１７號","OBJECTID":300093},"geometry":{"x":169679.98000000045,"y":2544985.8500000015}},{"attributes":{"ID":300102,"DIS_CODE":0,"TOWNNAME":"北區","LI":"中樓里","LIN":"8鄰","STREET":"東豐路","SECT":" ","MAREA":" ","LANE":"８５巷","ALLEY":" ","HOUSE_NO":"１８號","E_COORD97":169724.42000000001,"N_COORD97":2544950.75,"ADDRESS":"東豐路８５巷１８號","OBJECTID":300094},"geometry":{"x":169724.42000000086,"y":2544950.75}},{"attributes":{"ID":300103,"DIS_CODE":0,"TOWNNAME":"北區","LI":"中樓里","LIN":"8鄰","STREET":"東豐路","SECT":" ","MAREA":" ","LANE":"８５巷","ALLEY":" ","HOUSE_NO":"１９號","E_COORD97":169674.98999999999,"N_COORD97":2544992.2200000002,"ADDRESS":"東豐路８５巷１９號","OBJECTID":300095},"geometry":{"x":169674.99000000209,"y":2544992.2200000007}},{"attributes":{"ID":300104,"DIS_CODE":0,"TOWNNAME":"北區","LI":"中樓里","LIN":"8鄰","STREET":"東豐路","SECT":" ","MAREA":" ","LANE":"８５巷","ALLEY":" ","HOUSE_NO":"２０號","E_COORD97":169723.42000000001,"N_COORD97":2544954.1200000001,"ADDRESS":"東豐路８５巷２０號","OBJECTID":300096},"geometry":{"x":169723.41999999993,"y":2544954.1200000029}},{"attributes":{"ID":300105,"DIS_CODE":0,"TOWNNAME":"北區","LI":"中樓里","LIN":"8鄰","STREET":"東豐路","SECT":" ","MAREA":" ","LANE":"８５巷","ALLEY":" ","HOUSE_NO":"２１號","E_COORD97":169670.38,"N_COORD97":2545013.5899999999,"ADDRESS":"東豐路８５巷２１號","OBJECTID":300097},"geometry":{"x":169670.38000000082,"y":2545013.5900000036}},{"attributes":{"ID":300106,"DIS_CODE":0,"TOWNNAME":"北區","LI":"中樓里","LIN":"8鄰","STREET":"東豐路","SECT":" ","MAREA":" ","LANE":"８５巷","ALLEY":" ","HOUSE_NO":"２２號","E_COORD97":169720.29999999999,"N_COORD97":2544965.0499999998,"ADDRESS":"東豐路８５巷２２號","OBJECTID":300098},"geometry":{"x":169720.30000000075,"y":2544965.0500000026}},{"attributes":{"ID":300107,"DIS_CODE":0,"TOWNNAME":"北區","LI":"中樓里","LIN":"8鄰","STREET":"東豐路","SECT":" ","MAREA":" ","LANE":"８５巷","ALLEY":" ","HOUSE_NO":"２３號","E_COORD97":169675.98999999999,"N_COORD97":2545015.4399999999,"ADDRESS":"東豐路８５巷２３號","OBJECTID":300099},"geometry":{"x":169675.99000000022,"y":2545015.4400000013}},{"attributes":{"ID":300108,"DIS_CODE":0,"TOWNNAME":"北區","LI":"中樓里","LIN":"8鄰","STREET":"東豐路","SECT":" ","MAREA":" ","LANE":"８５巷","ALLEY":" ","HOUSE_NO":"２４號","E_COORD97":169725.67000000001,"N_COORD97":2544967.79,"ADDRESS":"東豐路８５巷２４號","OBJECTID":300100},"geometry":{"x":169725.66999999993,"y":2544967.790000001}},{"attributes":{"ID":300109,"DIS_CODE":0,"TOWNNAME":"北區","LI":"中樓里","LIN":"8鄰","STREET":"東豐路","SECT":" ","MAREA":" ","LANE":"８５巷","ALLEY":" ","HOUSE_NO":"２５號","E_COORD97":169684.92999999999,"N_COORD97":2544996.3799999999,"ADDRESS":"東豐路８５巷２５號","OBJECTID":300101},"geometry":{"x":169684.93000000156,"y":2544996.379999999}},{"attributes":{"ID":300110,"DIS_CODE":0,"TOWNNAME":"北區","LI":"中樓里","LIN":"8鄰","STREET":"東豐路","SECT":" ","MAREA":" ","LANE":"８５巷","ALLEY":" ","HOUSE_NO":"２６號","E_COORD97":169729.14999999999,"N_COORD97":2544969.79,"ADDRESS":"東豐路８５巷２６號","OBJECTID":300102},"geometry":{"x":169729.15000000037,"y":2544969.7899999991}},{"attributes":{"ID":300111,"DIS_CODE":0,"TOWNNAME":"北區","LI":"中樓里","LIN":"8鄰","STREET":"東豐路","SECT":" ","MAREA":" ","LANE":"８５巷","ALLEY":" ","HOUSE_NO":"２９號","E_COORD97":169688.73000000001,"N_COORD97":2544983.8500000001,"ADDRESS":"東豐路８５巷２９號","OBJECTID":300103},"geometry":{"x":169688.73000000231,"y":2544983.8499999996}},{"attributes":{"ID":300112,"DIS_CODE":0,"TOWNNAME":"北區","LI":"中樓里","LIN":"8鄰","STREET":"東豐路","SECT":" ","MAREA":" ","LANE":"８５巷","ALLEY":" ","HOUSE_NO":"３１號","E_COORD97":169697.48000000001,"N_COORD97":2544966.46,"ADDRESS":"東豐路８５巷３１號","OBJECTID":300104},"geometry":{"x":169697.48000000138,"y":2544966.4600000009}},{"attributes":{"ID":300113,"DIS_CODE":0,"TOWNNAME":"北區","LI":"中樓里","LIN":"8鄰","STREET":"東豐路","SECT":" ","MAREA":" ","LANE":"８５巷","ALLEY":" ","HOUSE_NO":"３３號","E_COORD97":169702.07999999999,"N_COORD97":2544968.7799999998,"ADDRESS":"東豐路８５巷３３號","OBJECTID":300105},"geometry":{"x":169702.08000000007,"y":2544968.7800000012}},{"attributes":{"ID":300114,"DIS_CODE":0,"TOWNNAME":"北區","LI":"中樓里","LIN":"8鄰","STREET":"東豐路","SECT":" ","MAREA":" ","LANE":"８５巷","ALLEY":" ","HOUSE_NO":"３５號","E_COORD97":169706.09,"N_COORD97":2544970.04,"ADDRESS":"東豐路８５巷３５號","OBJECTID":300106},"geometry":{"x":169706.09000000171,"y":2544970.040000001}},{"attributes":{"ID":300115,"DIS_CODE":0,"TOWNNAME":"北區","LI":"中樓里","LIN":"8鄰","STREET":"東豐路","SECT":" ","MAREA":" ","LANE":"８５巷","ALLEY":" ","HOUSE_NO":"４５號","E_COORD97":169705.29000000001,"N_COORD97":2544996.6200000001,"ADDRESS":"東豐路８５巷４５號","OBJECTID":300107},"geometry":{"x":169705.29000000097,"y":2544996.620000001}},{"attributes":{"ID":300116,"DIS_CODE":0,"TOWNNAME":"北區","LI":"中樓里","LIN":"8鄰","STREET":"東豐路","SECT":" ","MAREA":" ","LANE":"８５巷","ALLEY":" ","HOUSE_NO":"４７號","E_COORD97":169701.85000000001,"N_COORD97":2545002.7799999998,"ADDRESS":"東豐路８５巷４７號","OBJECTID":300108},"geometry":{"x":169701.84999999963,"y":2545002.7800000012}},{"attributes":{"ID":300117,"DIS_CODE":0,"TOWNNAME":"北區","LI":"中樓里","LIN":"8鄰","STREET":"東豐路","SECT":" ","MAREA":" ","LANE":"８５巷","ALLEY":" ","HOUSE_NO":"５７號","E_COORD97":169711.38,"N_COORD97":2545006.0299999998,"ADDRESS":"東豐路８５巷５７號","OBJECTID":300109},"geometry":{"x":169711.38000000082,"y":2545006.0299999993}},{"attributes":{"ID":300118,"DIS_CODE":0,"TOWNNAME":"北區","LI":"中樓里","LIN":"8鄰","STREET":"東豐路","SECT":" ","MAREA":" ","LANE":"８５巷","ALLEY":" ","HOUSE_NO":"６７號","E_COORD97":169727.48999999999,"N_COORD97":2544985.8100000001,"ADDRESS":"東豐路８５巷６７號","OBJECTID":300110},"geometry":{"x":169727.49000000209,"y":2544985.8100000042}},{"attributes":{"ID":300119,"DIS_CODE":0,"TOWNNAME":"北區","LI":"中樓里","LIN":"8鄰","STREET":"東豐路","SECT":" ","MAREA":" ","LANE":"８５巷","ALLEY":" ","HOUSE_NO":"７５號","E_COORD97":169741.17000000001,"N_COORD97":2544999.7799999998,"ADDRESS":"東豐路８５巷７５號","OBJECTID":300111},"geometry":{"x":169741.17000000179,"y":2544999.7799999993}},{"attributes":{"ID":300120,"DIS_CODE":0,"TOWNNAME":"北區","LI":"玉皇里","LIN":"8鄰","STREET":"公園路","SECT":" ","MAREA":" ","LANE":"２３９巷","ALLEY":" ","HOUSE_NO":"１號","E_COORD97":168793.82999999999,"N_COORD97":2544538.96,"ADDRESS":"公園路２３９巷１號","OBJECTID":300112},"geometry":{"x":168793.83000000007,"y":2544538.9600000028}},{"attributes":{"ID":300121,"DIS_CODE":0,"TOWNNAME":"北區","LI":"玉皇里","LIN":"8鄰","STREET":"公園路","SECT":" ","MAREA":" ","LANE":"２３９巷","ALLEY":" ","HOUSE_NO":"３號","E_COORD97":168783.92999999999,"N_COORD97":2544533.5800000001,"ADDRESS":"公園路２３９巷３號","OBJECTID":300113},"geometry":{"x":168783.9299999997,"y":2544533.5800000019}},{"attributes":{"ID":300122,"DIS_CODE":0,"TOWNNAME":"鹽水區","LI":"義稠里","LIN":"4鄰","STREET":" ","SECT":" ","MAREA":"義稠","LANE":" ","ALLEY":" ","HOUSE_NO":"６３號","E_COORD97":174104.16,"N_COORD97":2580617.77,"ADDRESS":"義稠６３號","OBJECTID":300114},"geometry":{"x":174104.16000000015,"y":2580617.7700000033}},{"attributes":{"ID":300123,"DIS_CODE":0,"TOWNNAME":"北區","LI":"玉皇里","LIN":"8鄰","STREET":"公園路","SECT":" ","MAREA":" ","LANE":"２３９巷","ALLEY":" ","HOUSE_NO":"２６號","E_COORD97":168792.29999999999,"N_COORD97":2544555.7999999998,"ADDRESS":"公園路２３９巷２６號","OBJECTID":300115},"geometry":{"x":168792.29999999981,"y":2544555.8000000026}},{"attributes":{"ID":300124,"DIS_CODE":0,"TOWNNAME":"善化區","LI":"胡家里","LIN":"4鄰","STREET":" ","SECT":" ","MAREA":"胡厝寮","LANE":" ","ALLEY":" ","HOUSE_NO":"３１６之１５號","E_COORD97":175425.16,"N_COORD97":2560199.02,"ADDRESS":"胡厝寮３１６之１５號","OBJECTID":300116},"geometry":{"x":175425.16000000015,"y":2560199.0200000033}},{"attributes":{"ID":300125,"DIS_CODE":0,"TOWNNAME":"善化區","LI":"胡厝里","LIN":"4鄰","STREET":" ","SECT":" ","MAREA":"胡厝寮","LANE":" ","ALLEY":" ","HOUSE_NO":"１８１號之２","E_COORD97":175201.45999999999,"N_COORD97":2560525.77,"ADDRESS":"胡厝寮１８１號之２","OBJECTID":300117},"geometry":{"x":175201.46000000089,"y":2560525.7699999996}},{"attributes":{"ID":300126,"DIS_CODE":0,"TOWNNAME":"北區","LI":"新勝里","LIN":"4鄰","STREET":"北園街","SECT":" ","MAREA":" ","LANE":"５３巷","ALLEY":" ","HOUSE_NO":"１０號","E_COORD97":170333.51000000001,"N_COORD97":2545573.6499999999,"ADDRESS":"北園街５３巷１０號","OBJECTID":300118},"geometry":{"x":170333.50999999978,"y":2545573.6500000022}},{"attributes":{"ID":300127,"DIS_CODE":0,"TOWNNAME":"北區","LI":"玉皇里","LIN":"8鄰","STREET":"成功路","SECT":" ","MAREA":" ","LANE":"６８巷","ALLEY":" ","HOUSE_NO":"６６號","E_COORD97":168757.81,"N_COORD97":2544531.21,"ADDRESS":"成功路６８巷６６號","OBJECTID":300119},"geometry":{"x":168757.80999999959,"y":2544531.2100000009}},{"attributes":{"ID":300128,"DIS_CODE":0,"TOWNNAME":"北區","LI":"玉皇里","LIN":"8鄰","STREET":"成功路","SECT":" ","MAREA":" ","LANE":"６８巷","ALLEY":" ","HOUSE_NO":"６８號","E_COORD97":168760.23000000001,"N_COORD97":2544533.4300000002,"ADDRESS":"成功路６８巷６８號","OBJECTID":300120},"geometry":{"x":168760.23000000138,"y":2544533.4300000016}},{"attributes":{"ID":300129,"DIS_CODE":0,"TOWNNAME":"北區","LI":"玉皇里","LIN":"8鄰","STREET":"成功路","SECT":" ","MAREA":" ","LANE":"６８巷","ALLEY":" ","HOUSE_NO":"７０號","E_COORD97":168765.01000000001,"N_COORD97":2544538.8900000001,"ADDRESS":"成功路６８巷７０號","OBJECTID":300121},"geometry":{"x":168765.00999999978,"y":2544538.8900000025}},{"attributes":{"ID":300130,"DIS_CODE":0,"TOWNNAME":"北區","LI":"玉皇里","LIN":"8鄰","STREET":"成功路","SECT":" ","MAREA":" ","LANE":"６８巷","ALLEY":" ","HOUSE_NO":"７２號","E_COORD97":168782.72,"N_COORD97":2544547.25,"ADDRESS":"成功路６８巷７２號","OBJECTID":300122},"geometry":{"x":168782.71999999881,"y":2544547.25}},{"attributes":{"ID":300131,"DIS_CODE":0,"TOWNNAME":"北區","LI":"玉皇里","LIN":"8鄰","STREET":"成功路","SECT":" ","MAREA":" ","LANE":"６８巷","ALLEY":" ","HOUSE_NO":"７４號","E_COORD97":168772.22,"N_COORD97":2544551.5499999998,"ADDRESS":"成功路６８巷７４號","OBJECTID":300123},"geometry":{"x":168772.21999999974,"y":2544551.5500000026}},{"attributes":{"ID":300132,"DIS_CODE":0,"TOWNNAME":"北區","LI":"玉皇里","LIN":"8鄰","STREET":"成功路","SECT":" ","MAREA":" ","LANE":"６８巷","ALLEY":" ","HOUSE_NO":"７６號","E_COORD97":168777.51999999999,"N_COORD97":2544559.2799999998,"ADDRESS":"成功路６８巷７６號","OBJECTID":300124},"geometry":{"x":168777.52000000048,"y":2544559.2799999993}},{"attributes":{"ID":300133,"DIS_CODE":0,"TOWNNAME":"北區","LI":"玉皇里","LIN":"8鄰","STREET":"成功路","SECT":" ","MAREA":" ","LANE":"６８巷","ALLEY":" ","HOUSE_NO":"７８號","E_COORD97":168781.76999999999,"N_COORD97":2544567.6299999999,"ADDRESS":"成功路６８巷７８號","OBJECTID":300125},"geometry":{"x":168781.76999999955,"y":2544567.629999999}},{"attributes":{"ID":300134,"DIS_CODE":0,"TOWNNAME":"善化區","LI":"文正里","LIN":"14鄰","STREET":"陽明路","SECT":" ","MAREA":" ","LANE":" ","ALLEY":" ","HOUSE_NO":"２１５號","E_COORD97":176140.73999999999,"N_COORD97":2559658.7599999998,"ADDRESS":"陽明路２１５號","OBJECTID":300126},"geometry":{"x":176140.74000000115,"y":2559658.7600000035}},{"attributes":{"ID":300135,"DIS_CODE":0,"TOWNNAME":"鹽水區","LI":"橋南里","LIN":"4鄰","STREET":"行昌路","SECT":" ","MAREA":" ","LANE":"６７巷","ALLEY":" ","HOUSE_NO":"１３號","E_COORD97":175290.67000000001,"N_COORD97":2579391.5699999998,"ADDRESS":"行昌路６７巷１３號","OBJECTID":300127},"geometry":{"x":175290.66999999993,"y":2579391.5700000003}},{"attributes":{"ID":300136,"DIS_CODE":0,"TOWNNAME":"鹽水區","LI":"橋南里","LIN":"4鄰","STREET":"行昌路","SECT":" ","MAREA":" ","LANE":"６７巷","ALLEY":" ","HOUSE_NO":"１５號","E_COORD97":175290.92999999999,"N_COORD97":2579386.2999999998,"ADDRESS":"行昌路６７巷１５號","OBJECTID":300128},"geometry":{"x":175290.93000000156,"y":2579386.3000000026}},{"attributes":{"ID":300137,"DIS_CODE":0,"TOWNNAME":"鹽水區","LI":"橋南里","LIN":"4鄰","STREET":"行昌路","SECT":" ","MAREA":" ","LANE":"６７巷","ALLEY":" ","HOUSE_NO":"１７號","E_COORD97":175293,"N_COORD97":2579381.52,"ADDRESS":"行昌路６７巷１７號","OBJECTID":300129},"geometry":{"x":175293.00000000093,"y":2579381.5199999996}},{"attributes":{"ID":300138,"DIS_CODE":0,"TOWNNAME":"鹽水區","LI":"橋南里","LIN":"4鄰","STREET":"行昌路","SECT":" ","MAREA":" ","LANE":"６７巷","ALLEY":" ","HOUSE_NO":"１號","E_COORD97":175301.42000000001,"N_COORD97":2579434.9300000002,"ADDRESS":"行昌路６７巷１號","OBJECTID":300130},"geometry":{"x":175301.42000000179,"y":2579434.9300000016}},{"attributes":{"ID":300139,"DIS_CODE":0,"TOWNNAME":"鹽水區","LI":"橋南里","LIN":"4鄰","STREET":"行昌路","SECT":" ","MAREA":" ","LANE":"６７巷","ALLEY":" ","HOUSE_NO":"２號","E_COORD97":175250.54999999999,"N_COORD97":2579409.3700000001,"ADDRESS":"行昌路６７巷２號","OBJECTID":300131},"geometry":{"x":175250.54999999981,"y":2579409.3700000029}},{"attributes":{"ID":300140,"DIS_CODE":0,"TOWNNAME":"鹽水區","LI":"橋南里","LIN":"4鄰","STREET":"行昌路","SECT":" ","MAREA":" ","LANE":"６７巷","ALLEY":" ","HOUSE_NO":"３號","E_COORD97":175269.17999999999,"N_COORD97":2579417.2400000002,"ADDRESS":"行昌路６７巷３號","OBJECTID":300132},"geometry":{"x":175269.18000000063,"y":2579417.2400000002}},{"attributes":{"ID":300141,"DIS_CODE":0,"TOWNNAME":"善化區","LI":"胡厝里","LIN":" ","STREET":" ","SECT":" ","MAREA":"西衛","LANE":" ","ALLEY":" ","HOUSE_NO":"１之１號","E_COORD97":174432.48000000001,"N_COORD97":2558811.52,"ADDRESS":"西衛１之１號","OBJECTID":300133},"geometry":{"x":174432.48000000138,"y":2558811.5199999996}},{"attributes":{"ID":300142,"DIS_CODE":0,"TOWNNAME":"鹽水區","LI":"橋南里","LIN":"4鄰","STREET":"行昌路","SECT":" ","MAREA":" ","LANE":"６７巷","ALLEY":" ","HOUSE_NO":"５號","E_COORD97":175281.35999999999,"N_COORD97":2579412.52,"ADDRESS":"行昌路６７巷５號","OBJECTID":300134},"geometry":{"x":175281.36000000034,"y":2579412.5200000033}},{"attributes":{"ID":300143,"DIS_CODE":0,"TOWNNAME":"鹽水區","LI":"橋南里","LIN":"4鄰","STREET":"行昌路","SECT":" ","MAREA":" ","LANE":"６７巷","ALLEY":" ","HOUSE_NO":"６號","E_COORD97":175249.20999999999,"N_COORD97":2579401.1400000001,"ADDRESS":"行昌路６７巷６號","OBJECTID":300135},"geometry":{"x":175249.21000000089,"y":2579401.1400000006}},{"attributes":{"ID":300144,"DIS_CODE":0,"TOWNNAME":"鹽水區","LI":"橋南里","LIN":"4鄰","STREET":"行昌路","SECT":" ","MAREA":" ","LANE":"６７巷","ALLEY":" ","HOUSE_NO":"７號","E_COORD97":175279.01000000001,"N_COORD97":2579403.0299999998,"ADDRESS":"行昌路６７巷７號","OBJECTID":300136},"geometry":{"x":175279.01000000071,"y":2579403.0300000012}},{"attributes":{"ID":300145,"DIS_CODE":0,"TOWNNAME":"鹽水區","LI":"橋南里","LIN":"4鄰","STREET":"行昌路","SECT":" ","MAREA":" ","LANE":"６８巷","ALLEY":" ","HOUSE_NO":"２號","E_COORD97":175197.45000000001,"N_COORD97":2579445,"ADDRESS":"行昌路６８巷２號","OBJECTID":300137},"geometry":{"x":175197.45000000019,"y":2579445.0000000019}},{"attributes":{"ID":300146,"DIS_CODE":0,"TOWNNAME":"鹽水區","LI":"橋南里","LIN":"4鄰","STREET":"行昌路","SECT":" ","MAREA":" ","LANE":"６８巷","ALLEY":" ","HOUSE_NO":"６號","E_COORD97":175196.26000000001,"N_COORD97":2579449.4300000002,"ADDRESS":"行昌路６８巷６號","OBJECTID":300138},"geometry":{"x":175196.26000000071,"y":2579449.4299999997}},{"attributes":{"ID":300147,"DIS_CODE":0,"TOWNNAME":"善化區","LI":"坐駕里","LIN":"17鄰","STREET":"興華路","SECT":" ","MAREA":" ","LANE":"３０７巷","ALLEY":" ","HOUSE_NO":"６號","E_COORD97":177790.14999999999,"N_COORD97":2558454.75,"ADDRESS":"興華路３０７巷６號","OBJECTID":300139},"geometry":{"x":177790.15000000037,"y":2558454.75}},{"attributes":{"ID":300148,"DIS_CODE":0,"TOWNNAME":"北區","LI":"玉皇里","LIN":"8鄰","STREET":"成功路","SECT":" ","MAREA":" ","LANE":"６８巷","ALLEY":" ","HOUSE_NO":"７８號之１","E_COORD97":168784.07999999999,"N_COORD97":2544571.73,"ADDRESS":"成功路６８巷７８號之１","OBJECTID":300140},"geometry":{"x":168784.08000000194,"y":2544571.7300000004}},{"attributes":{"ID":300149,"DIS_CODE":0,"TOWNNAME":"北區","LI":"三德里","LIN":"8鄰","STREET":"公園南路","SECT":" ","MAREA":" ","LANE":"２３３巷","ALLEY":" ","HOUSE_NO":"２９號","E_COORD97":168502.25,"N_COORD97":2544652.5099999998,"ADDRESS":"公園南路２３３巷２９號","OBJECTID":300141},"geometry":{"x":168502.25000000093,"y":2544652.5100000016}},{"attributes":{"ID":300150,"DIS_CODE":0,"TOWNNAME":"北區","LI":"三德里","LIN":"8鄰","STREET":"公園南路","SECT":" ","MAREA":" ","LANE":"２３３巷","ALLEY":" ","HOUSE_NO":"４１之１號","E_COORD97":168497.32999999999,"N_COORD97":2544637.6800000002,"ADDRESS":"公園南路２３３巷４１之１號","OBJECTID":300142},"geometry":{"x":168497.33000000007,"y":2544637.6800000016}},{"attributes":{"ID":300151,"DIS_CODE":0,"TOWNNAME":"北區","LI":"三德里","LIN":"8鄰","STREET":"公園南路","SECT":" ","MAREA":" ","LANE":"２３３巷","ALLEY":" ","HOUSE_NO":"４１號","E_COORD97":168499.04999999999,"N_COORD97":2544641.96,"ADDRESS":"公園南路２３３巷４１號","OBJECTID":300143},"geometry":{"x":168499.04999999981,"y":2544641.9600000009}},{"attributes":{"ID":300152,"DIS_CODE":0,"TOWNNAME":"北區","LI":"三德里","LIN":"8鄰","STREET":"北華街","SECT":" ","MAREA":" ","LANE":"１７０巷","ALLEY":" ","HOUSE_NO":"１１號","E_COORD97":168514.73999999999,"N_COORD97":2544628.8500000001,"ADDRESS":"北華街１７０巷１１號","OBJECTID":300144},"geometry":{"x":168514.74000000022,"y":2544628.8500000015}},{"attributes":{"ID":300153,"DIS_CODE":0,"TOWNNAME":"北區","LI":"三德里","LIN":"8鄰","STREET":"北華街","SECT":" ","MAREA":" ","LANE":"１７０巷","ALLEY":" ","HOUSE_NO":"１５號","E_COORD97":168518.26000000001,"N_COORD97":2544634.2799999998,"ADDRESS":"北華街１７０巷１５號","OBJECTID":300145},"geometry":{"x":168518.26000000164,"y":2544634.2799999993}},{"attributes":{"ID":300154,"DIS_CODE":0,"TOWNNAME":"善化區","LI":"文正里","LIN":"14鄰","STREET":"興農路","SECT":" ","MAREA":" ","LANE":" ","ALLEY":" ","HOUSE_NO":"１８６號","E_COORD97":176043.07000000001,"N_COORD97":2559113.7599999998,"ADDRESS":"興農路１８６號","OBJECTID":300146},"geometry":{"x":176043.0700000003,"y":2559113.7600000016}},{"attributes":{"ID":300155,"DIS_CODE":0,"TOWNNAME":"善化區","LI":"文正里","LIN":"14鄰","STREET":"興農路","SECT":" ","MAREA":" ","LANE":" ","ALLEY":" ","HOUSE_NO":"２５６號","E_COORD97":175792.57000000001,"N_COORD97":2559073.2599999998,"ADDRESS":"興農路２５６號","OBJECTID":300147},"geometry":{"x":175792.57000000123,"y":2559073.2600000016}},{"attributes":{"ID":300156,"DIS_CODE":0,"TOWNNAME":"善化區","LI":"胡厝里","LIN":" ","STREET":" ","SECT":" ","MAREA":"西衛","LANE":" ","ALLEY":" ","HOUSE_NO":"１之１號","E_COORD97":174436.92000000001,"N_COORD97":2558812.2999999998,"ADDRESS":"西衛１之１號","OBJECTID":300148},"geometry":{"x":174436.92000000179,"y":2558812.3000000026}},{"attributes":{"ID":300157,"DIS_CODE":0,"TOWNNAME":"善化區","LI":"文正里","LIN":"14鄰","STREET":"興農路","SECT":" ","MAREA":" ","LANE":" ","ALLEY":" ","HOUSE_NO":"２３２號","E_COORD97":175906.76999999999,"N_COORD97":2559096.0099999998,"ADDRESS":"興農路２３２號","OBJECTID":300149},"geometry":{"x":175906.76999999955,"y":2559096.0099999998}},{"attributes":{"ID":300158,"DIS_CODE":0,"TOWNNAME":"善化區","LI":"文昌里","LIN":"14鄰","STREET":"新興街","SECT":" ","MAREA":" ","LANE":" ","ALLEY":" ","HOUSE_NO":"５號","E_COORD97":177617.98999999999,"N_COORD97":2558961.5,"ADDRESS":"新興街５號","OBJECTID":300150},"geometry":{"x":177617.99000000022,"y":2558961.5}},{"attributes":{"ID":300159,"DIS_CODE":0,"TOWNNAME":"善化區","LI":"文正里","LIN":"14鄰","STREET":"興農路","SECT":" ","MAREA":" ","LANE":" ","ALLEY":" ","HOUSE_NO":"２２６號之１","E_COORD97":175915.57000000001,"N_COORD97":2559089.27,"ADDRESS":"興農路２２６號之１","OBJECTID":300151},"geometry":{"x":175915.5700000003,"y":2559089.2700000014}},{"attributes":{"ID":300160,"DIS_CODE":0,"TOWNNAME":"善化區","LI":"文正里","LIN":"14鄰","STREET":"興農路","SECT":" ","MAREA":" ","LANE":" ","ALLEY":" ","HOUSE_NO":"２６８號","E_COORD97":175703.67000000001,"N_COORD97":2559068.2599999998,"ADDRESS":"興農路２６８號","OBJECTID":300152},"geometry":{"x":175703.67000000086,"y":2559068.2599999998}},{"attributes":{"ID":300161,"DIS_CODE":0,"TOWNNAME":"善化區","LI":"文正里","LIN":"14鄰","STREET":"興農路","SECT":" ","MAREA":" ","LANE":" ","ALLEY":" ","HOUSE_NO":"５２號","E_COORD97":176472.42999999999,"N_COORD97":2559175.2599999998,"ADDRESS":"興農路５２號","OBJECTID":300153},"geometry":{"x":176472.43000000156,"y":2559175.2600000016}},{"attributes":{"ID":300162,"DIS_CODE":0,"TOWNNAME":"善化區","LI":"文昌里","LIN":"14鄰","STREET":"新興街","SECT":" ","MAREA":" ","LANE":" ","ALLEY":" ","HOUSE_NO":"２１號","E_COORD97":177584.62,"N_COORD97":2558951.25,"ADDRESS":"新興街２１號","OBJECTID":300154},"geometry":{"x":177584.62000000011,"y":2558951.2500000019}},{"attributes":{"ID":300163,"DIS_CODE":0,"TOWNNAME":"善化區","LI":"文昌里","LIN":"14鄰","STREET":"新興街","SECT":" ","MAREA":" ","LANE":" ","ALLEY":" ","HOUSE_NO":"１號","E_COORD97":177628.79000000001,"N_COORD97":2558963.5,"ADDRESS":"新興街１號","OBJECTID":300155},"geometry":{"x":177628.79000000097,"y":2558963.5000000019}},{"attributes":{"ID":300164,"DIS_CODE":0,"TOWNNAME":"善化區","LI":"文正里","LIN":"14鄰","STREET":"興農路","SECT":" ","MAREA":" ","LANE":" ","ALLEY":" ","HOUSE_NO":"２５８號之１","E_COORD97":175785.41,"N_COORD97":2559086.52,"ADDRESS":"興農路２５８號之１","OBJECTID":300156},"geometry":{"x":175785.41000000108,"y":2559086.5199999996}},{"attributes":{"ID":300165,"DIS_CODE":0,"TOWNNAME":"善化區","LI":"文正里","LIN":"14鄰","STREET":"興農路","SECT":" ","MAREA":" ","LANE":" ","ALLEY":" ","HOUSE_NO":"２３８號之８","E_COORD97":175848.44,"N_COORD97":2559113.27,"ADDRESS":"興農路２３８號之８","OBJECTID":300157},"geometry":{"x":175848.44000000041,"y":2559113.2700000014}},{"attributes":{"ID":300166,"DIS_CODE":0,"TOWNNAME":"善化區","LI":"文正里","LIN":"14鄰","STREET":"興農路","SECT":" ","MAREA":" ","LANE":" ","ALLEY":" ","HOUSE_NO":"２３８號之３","E_COORD97":175854.42999999999,"N_COORD97":2559082.27,"ADDRESS":"興農路２３８號之３","OBJECTID":300158},"geometry":{"x":175854.43000000063,"y":2559082.2700000033}},{"attributes":{"ID":300167,"DIS_CODE":0,"TOWNNAME":"南區","LI":"松安里","LIN":"4鄰","STREET":"灣裡路","SECT":" ","MAREA":" ","LANE":"２８２巷","ALLEY":" ","HOUSE_NO":"３８號","E_COORD97":166020.19,"N_COORD97":2536335.4700000002,"ADDRESS":"灣裡路２８２巷３８號","OBJECTID":300159},"geometry":{"x":166020.19000000041,"y":2536335.4700000007}},{"attributes":{"ID":300168,"DIS_CODE":0,"TOWNNAME":"南區","LI":"松安里","LIN":"4鄰","STREET":"灣裡路","SECT":" ","MAREA":" ","LANE":"２８２巷","ALLEY":" ","HOUSE_NO":"４８號","E_COORD97":166020.57999999999,"N_COORD97":2536318.1299999999,"ADDRESS":"灣裡路２８２巷４８號","OBJECTID":300160},"geometry":{"x":166020.58000000007,"y":2536318.129999999}},{"attributes":{"ID":300169,"DIS_CODE":0,"TOWNNAME":"善化區","LI":"胡家里","LIN":"13鄰","STREET":" ","SECT":" ","MAREA":"胡厝寮","LANE":" ","ALLEY":" ","HOUSE_NO":"６７號之６","E_COORD97":175338.98999999999,"N_COORD97":2560709.27,"ADDRESS":"胡厝寮６７號之６","OBJECTID":300161},"geometry":{"x":175338.99000000115,"y":2560709.2700000033}},{"attributes":{"ID":300170,"DIS_CODE":0,"TOWNNAME":"北區","LI":"三德里","LIN":"8鄰","STREET":"北華街","SECT":" ","MAREA":" ","LANE":"１７０巷","ALLEY":" ","HOUSE_NO":"１５號之１","E_COORD97":168522.26000000001,"N_COORD97":2544642.9100000001,"ADDRESS":"北華街１７０巷１５號之１","OBJECTID":300162},"geometry":{"x":168522.26000000071,"y":2544642.910000002}},{"attributes":{"ID":300171,"DIS_CODE":0,"TOWNNAME":"善化區","LI":"嘉北里","LIN":"4鄰","STREET":" ","SECT":" ","MAREA":"茄拔","LANE":" ","ALLEY":" ","HOUSE_NO":"３１號","E_COORD97":181114.42000000001,"N_COORD97":2559754.7599999998,"ADDRESS":"茄拔３１號","OBJECTID":300163},"geometry":{"x":181114.42000000086,"y":2559754.7600000016}},{"attributes":{"ID":300172,"DIS_CODE":0,"TOWNNAME":"善化區","LI":"東隆里","LIN":"4鄰","STREET":" ","SECT":" ","MAREA":"東勢寮","LANE":" ","ALLEY":" ","HOUSE_NO":"１６９之２號","E_COORD97":180137.5,"N_COORD97":2562004.27,"ADDRESS":"東勢寮１６９之２號","OBJECTID":300164},"geometry":{"x":180137.50000000093,"y":2562004.2699999977}},{"attributes":{"ID":300173,"DIS_CODE":0,"TOWNNAME":"善化區","LI":"嘉北里","LIN":"4鄰","STREET":" ","SECT":" ","MAREA":"茄拔","LANE":" ","ALLEY":" ","HOUSE_NO":"２９號之２","E_COORD97":181088.76000000001,"N_COORD97":2559792.27,"ADDRESS":"茄拔２９號之２","OBJECTID":300165},"geometry":{"x":181088.76000000071,"y":2559792.2700000014}},{"attributes":{"ID":300174,"DIS_CODE":0,"TOWNNAME":"鹽水區","LI":"義稠里","LIN":"4鄰","STREET":" ","SECT":" ","MAREA":"義稠","LANE":" ","ALLEY":" ","HOUSE_NO":"６１號之４","E_COORD97":174082.06,"N_COORD97":2580664.3900000001,"ADDRESS":"義稠６１號之４","OBJECTID":300166},"geometry":{"x":174082.05999999959,"y":2580664.3900000006}},{"attributes":{"ID":300175,"DIS_CODE":0,"TOWNNAME":"鹽水區","LI":"義稠里","LIN":"4鄰","STREET":" ","SECT":" ","MAREA":"義稠","LANE":" ","ALLEY":" ","HOUSE_NO":"６１之５號","E_COORD97":174084.07000000001,"N_COORD97":2580661.3399999999,"ADDRESS":"義稠６１之５號","OBJECTID":300167},"geometry":{"x":174084.07000000123,"y":2580661.339999998}},{"attributes":{"ID":300176,"DIS_CODE":0,"TOWNNAME":"鹽水區","LI":"義稠里","LIN":"4鄰","STREET":" ","SECT":" ","MAREA":"義稠","LANE":" ","ALLEY":" ","HOUSE_NO":"６１號之６","E_COORD97":174086.20999999999,"N_COORD97":2580658.04,"ADDRESS":"義稠６１號之６","OBJECTID":300168},"geometry":{"x":174086.21000000089,"y":2580658.0399999991}},{"attributes":{"ID":300177,"DIS_CODE":0,"TOWNNAME":"鹽水區","LI":"義稠里","LIN":"4鄰","STREET":" ","SECT":" ","MAREA":"義稠","LANE":" ","ALLEY":" ","HOUSE_NO":"６１號之７","E_COORD97":174087.51000000001,"N_COORD97":2580654.5800000001,"ADDRESS":"義稠６１號之７","OBJECTID":300169},"geometry":{"x":174087.51000000071,"y":2580654.5800000019}},{"attributes":{"ID":300178,"DIS_CODE":0,"TOWNNAME":"鹽水區","LI":"義稠里","LIN":"4鄰","STREET":" ","SECT":" ","MAREA":"義稠","LANE":" ","ALLEY":" ","HOUSE_NO":"６１號","E_COORD97":174074.06,"N_COORD97":2580678.3900000001,"ADDRESS":"義稠６１號","OBJECTID":300170},"geometry":{"x":174074.05999999959,"y":2580678.3900000006}},{"attributes":{"ID":300179,"DIS_CODE":0,"TOWNNAME":"鹽水區","LI":"義稠里","LIN":"4鄰","STREET":" ","SECT":" ","MAREA":"義稠","LANE":" ","ALLEY":" ","HOUSE_NO":"６２號","E_COORD97":174099.73999999999,"N_COORD97":2580640.7599999998,"ADDRESS":"義稠６２號","OBJECTID":300171},"geometry":{"x":174099.74000000115,"y":2580640.7599999998}},{"attributes":{"ID":300180,"DIS_CODE":0,"TOWNNAME":"北區","LI":"三德里","LIN":"8鄰","STREET":"北華街","SECT":" ","MAREA":" ","LANE":"１７０巷","ALLEY":" ","HOUSE_NO":"１７號","E_COORD97":168514.76999999999,"N_COORD97":2544649.02,"ADDRESS":"北華街１７０巷１７號","OBJECTID":300172},"geometry":{"x":168514.77000000048,"y":2544649.0200000014}},{"attributes":{"ID":300181,"DIS_CODE":0,"TOWNNAME":"北區","LI":"三德里","LIN":"8鄰","STREET":"北華街","SECT":" ","MAREA":" ","LANE":"１７０巷","ALLEY":" ","HOUSE_NO":"１７號之１","E_COORD97":168510.32000000001,"N_COORD97":2544652.0600000001,"ADDRESS":"北華街１７０巷１７號之１","OBJECTID":300173},"geometry":{"x":168510.32000000123,"y":2544652.0600000024}},{"attributes":{"ID":300182,"DIS_CODE":0,"TOWNNAME":"北區","LI":"三德里","LIN":"8鄰","STREET":"北華街","SECT":" ","MAREA":" ","LANE":"１７０巷","ALLEY":" ","HOUSE_NO":"３３號","E_COORD97":168509.62,"N_COORD97":2544662.4500000002,"ADDRESS":"北華街１７０巷３３號","OBJECTID":300174},"geometry":{"x":168509.62000000104,"y":2544662.4500000011}},{"attributes":{"ID":300183,"DIS_CODE":0,"TOWNNAME":"善化區","LI":"文正里","LIN":"14鄰","STREET":"興農路","SECT":" ","MAREA":" ","LANE":" ","ALLEY":" ","HOUSE_NO":"２３８之１號","E_COORD97":175844.95999999999,"N_COORD97":2559082.27,"ADDRESS":"興農路２３８之１號","OBJECTID":300175},"geometry":{"x":175844.95999999996,"y":2559082.2700000033}},{"attributes":{"ID":300184,"DIS_CODE":0,"TOWNNAME":"善化區","LI":"文正里","LIN":"14鄰","STREET":"興農路","SECT":" ","MAREA":" ","LANE":" ","ALLEY":" ","HOUSE_NO":"２３８號之１１","E_COORD97":175784.85000000001,"N_COORD97":2559198.02,"ADDRESS":"興農路２３８號之１１","OBJECTID":300176},"geometry":{"x":175784.85000000056,"y":2559198.0199999996}},{"attributes":{"ID":300185,"DIS_CODE":0,"TOWNNAME":"北區","LI":"正風里","LIN":"4鄰","STREET":"公園路","SECT":" ","MAREA":" ","LANE":"９３４巷","ALLEY":" ","HOUSE_NO":"１６號","E_COORD97":169445.19,"N_COORD97":2546185.2799999998,"ADDRESS":"公園路９３４巷１６號","OBJECTID":300177},"geometry":{"x":169445.19000000134,"y":2546185.2800000012}},{"attributes":{"ID":300186,"DIS_CODE":0,"TOWNNAME":"北區","LI":"正風里","LIN":"4鄰","STREET":"公園路","SECT":" ","MAREA":" ","LANE":"９３４巷","ALLEY":" ","HOUSE_NO":"１８號","E_COORD97":169447.94,"N_COORD97":2546184.04,"ADDRESS":"公園路９３４巷１８號","OBJECTID":300178},"geometry":{"x":169447.94000000041,"y":2546184.040000001}},{"attributes":{"ID":300187,"DIS_CODE":0,"TOWNNAME":"北區","LI":"三德里","LIN":"8鄰","STREET":"北華街","SECT":" ","MAREA":" ","LANE":"１７０巷","ALLEY":" ","HOUSE_NO":"３５號","E_COORD97":168512.82000000001,"N_COORD97":2544661.1699999999,"ADDRESS":"北華街１７０巷３５號","OBJECTID":300179},"geometry":{"x":168512.8200000003,"y":2544661.1700000018}},{"attributes":{"ID":300188,"DIS_CODE":0,"TOWNNAME":"北區","LI":"三德里","LIN":"8鄰","STREET":"北華街","SECT":" ","MAREA":" ","LANE":"１７０巷","ALLEY":" ","HOUSE_NO":"３７號","E_COORD97":168515.85999999999,"N_COORD97":2544659.4100000001,"ADDRESS":"北華街１７０巷３７號","OBJECTID":300180},"geometry":{"x":168515.86000000034,"y":2544659.410000002}},{"attributes":{"ID":300189,"DIS_CODE":0,"TOWNNAME":"北區","LI":"三德里","LIN":"8鄰","STREET":"北華街","SECT":" ","MAREA":" ","LANE":"１７０巷","ALLEY":" ","HOUSE_NO":"３９號","E_COORD97":168519.22,"N_COORD97":2544657.8100000001,"ADDRESS":"北華街１７０巷３９號","OBJECTID":300181},"geometry":{"x":168519.21999999974,"y":2544657.8100000024}},{"attributes":{"ID":300190,"DIS_CODE":0,"TOWNNAME":"北區","LI":"三德里","LIN":"8鄰","STREET":"北華街","SECT":" ","MAREA":" ","LANE":"１７０巷","ALLEY":" ","HOUSE_NO":"４１號","E_COORD97":168521.79000000001,"N_COORD97":2544653.98,"ADDRESS":"北華街１７０巷４１號","OBJECTID":300182},"geometry":{"x":168521.79000000097,"y":2544653.9800000004}},{"attributes":{"ID":300191,"DIS_CODE":0,"TOWNNAME":"北區","LI":"三德里","LIN":"8鄰","STREET":"北華街","SECT":" ","MAREA":" ","LANE":"１７０巷","ALLEY":" ","HOUSE_NO":"４３號","E_COORD97":168524.82999999999,"N_COORD97":2544652.2200000002,"ADDRESS":"北華街１７０巷４３號","OBJECTID":300183},"geometry":{"x":168524.83000000194,"y":2544652.2200000025}},{"attributes":{"ID":300192,"DIS_CODE":0,"TOWNNAME":"北區","LI":"三德里","LIN":"8鄰","STREET":"北華街","SECT":" ","MAREA":" ","LANE":"１７０巷","ALLEY":" ","HOUSE_NO":"４５號","E_COORD97":168528.82999999999,"N_COORD97":2544649.98,"ADDRESS":"北華街１７０巷４５號","OBJECTID":300184},"geometry":{"x":168528.83000000101,"y":2544649.9800000023}},{"attributes":{"ID":300193,"DIS_CODE":0,"TOWNNAME":"北區","LI":"三德里","LIN":"8鄰","STREET":"北華街","SECT":" ","MAREA":" ","LANE":"１７０巷","ALLEY":" ","HOUSE_NO":"４７號","E_COORD97":168532.67000000001,"N_COORD97":2544660.21,"ADDRESS":"北華街１７０巷４７號","OBJECTID":300185},"geometry":{"x":168532.67000000086,"y":2544660.2100000009}},{"attributes":{"ID":300194,"DIS_CODE":0,"TOWNNAME":"北區","LI":"三德里","LIN":"8鄰","STREET":"北華街","SECT":" ","MAREA":" ","LANE":"１７０巷","ALLEY":" ","HOUSE_NO":"４９號","E_COORD97":168524.88,"N_COORD97":2544669.7400000002,"ADDRESS":"北華街１７０巷４９號","OBJECTID":300186},"geometry":{"x":168524.88000000082,"y":2544669.7400000002}},{"attributes":{"ID":300195,"DIS_CODE":0,"TOWNNAME":"北區","LI":"三德里","LIN":"8鄰","STREET":"北華街","SECT":" ","MAREA":" ","LANE":"１７０巷","ALLEY":" ","HOUSE_NO":"４９號之１６","E_COORD97":168526.48999999999,"N_COORD97":2544673.5800000001,"ADDRESS":"北華街１７０巷４９號之１６","OBJECTID":300187},"geometry":{"x":168526.49000000022,"y":2544673.5800000001}},{"attributes":{"ID":300196,"DIS_CODE":0,"TOWNNAME":"北區","LI":"三德里","LIN":"8鄰","STREET":"北華街","SECT":" ","MAREA":" ","LANE":"１７０巷","ALLEY":" ","HOUSE_NO":"４９號之１７","E_COORD97":168527.60999999999,"N_COORD97":2544677.5800000001,"ADDRESS":"北華街１７０巷４９號之１７","OBJECTID":300188},"geometry":{"x":168527.61000000034,"y":2544677.5800000001}},{"attributes":{"ID":300197,"DIS_CODE":0,"TOWNNAME":"北區","LI":"三德里","LIN":"8鄰","STREET":"北華街","SECT":" ","MAREA":" ","LANE":"１７０巷","ALLEY":" ","HOUSE_NO":"４９號之１８","E_COORD97":168527.76999999999,"N_COORD97":2544682.0499999998,"ADDRESS":"北華街１７０巷４９號之１８","OBJECTID":300189},"geometry":{"x":168527.76999999955,"y":2544682.0500000007}},{"attributes":{"ID":300198,"DIS_CODE":0,"TOWNNAME":"善化區","LI":"胡家里","LIN":"13鄰","STREET":" ","SECT":" ","MAREA":"胡厝寮","LANE":" ","ALLEY":" ","HOUSE_NO":"６５號","E_COORD97":175368.35999999999,"N_COORD97":2560731.25,"ADDRESS":"胡厝寮６５號","OBJECTID":300190},"geometry":{"x":175368.3600000022,"y":2560731.2500000019}},{"attributes":{"ID":300199,"DIS_CODE":0,"TOWNNAME":"北區","LI":"三德里","LIN":"8鄰","STREET":"北華街","SECT":" ","MAREA":" ","LANE":"１７０巷","ALLEY":" ","HOUSE_NO":"５１號","E_COORD97":168539.32999999999,"N_COORD97":2544692.9700000002,"ADDRESS":"北華街１７０巷５１號","OBJECTID":300191},"geometry":{"x":168539.33000000007,"y":2544692.9700000044}},{"attributes":{"ID":300200,"DIS_CODE":0,"TOWNNAME":"北區","LI":"三德里","LIN":"8鄰","STREET":"北華街","SECT":" ","MAREA":" ","LANE":"１７０巷","ALLEY":" ","HOUSE_NO":"５３號","E_COORD97":168540.89999999999,"N_COORD97":2544697.04,"ADDRESS":"北華街１７０巷５３號","OBJECTID":300192},"geometry":{"x":168540.90000000037,"y":2544697.0399999991}},{"attributes":{"ID":300201,"DIS_CODE":0,"TOWNNAME":"北區","LI":"三德里","LIN":"8鄰","STREET":"北華街","SECT":" ","MAREA":" ","LANE":"１７０巷","ALLEY":" ","HOUSE_NO":"５５號","E_COORD97":168543.09,"N_COORD97":2544702.0600000001,"ADDRESS":"北華街１７０巷５５號","OBJECTID":300193},"geometry":{"x":168543.09000000171,"y":2544702.0600000005}},{"attributes":{"ID":300202,"DIS_CODE":0,"TOWNNAME":"北區","LI":"三德里","LIN":"8鄰","STREET":"北華街","SECT":" ","MAREA":" ","LANE":"１７０巷","ALLEY":" ","HOUSE_NO":"７號","E_COORD97":168509.78,"N_COORD97":2544620.0499999998,"ADDRESS":"北華街１７０巷７號","OBJECTID":300194},"geometry":{"x":168509.78000000026,"y":2544620.0500000007}},{"attributes":{"ID":300203,"DIS_CODE":0,"TOWNNAME":"北區","LI":"五福里","LIN":"8鄰","STREET":"自強街","SECT":" ","MAREA":" ","LANE":"６２巷","ALLEY":" ","HOUSE_NO":"１０號","E_COORD97":168285.41,"N_COORD97":2544535.7799999998,"ADDRESS":"自強街６２巷１０號","OBJECTID":300195},"geometry":{"x":168285.41000000108,"y":2544535.7799999993}},{"attributes":{"ID":300204,"DIS_CODE":0,"TOWNNAME":"北區","LI":"五福里","LIN":"8鄰","STREET":"自強街","SECT":" ","MAREA":" ","LANE":"６２巷","ALLEY":" ","HOUSE_NO":"２號","E_COORD97":168298.38,"N_COORD97":2544549.3199999998,"ADDRESS":"自強街６２巷２號","OBJECTID":300196},"geometry":{"x":168298.37999999989,"y":2544549.3200000022}},{"attributes":{"ID":300205,"DIS_CODE":0,"TOWNNAME":"北區","LI":"五福里","LIN":"8鄰","STREET":"自強街","SECT":" ","MAREA":" ","LANE":"６２巷","ALLEY":" ","HOUSE_NO":"２號之１","E_COORD97":168296.67000000001,"N_COORD97":2544543.3399999999,"ADDRESS":"自強街６２巷２號之１","OBJECTID":300197},"geometry":{"x":168296.66999999993,"y":2544543.3399999999}},{"attributes":{"ID":300206,"DIS_CODE":0,"TOWNNAME":"北區","LI":"五福里","LIN":"8鄰","STREET":"自強街","SECT":" ","MAREA":" ","LANE":"６２巷","ALLEY":" ","HOUSE_NO":"４號","E_COORD97":168295.67999999999,"N_COORD97":2544537.7799999998,"ADDRESS":"自強街６２巷４號","OBJECTID":300198},"geometry":{"x":168295.6799999997,"y":2544537.7800000012}},{"attributes":{"ID":300207,"DIS_CODE":0,"TOWNNAME":"北區","LI":"五福里","LIN":"8鄰","STREET":"自強街","SECT":" ","MAREA":" ","LANE":"６２巷","ALLEY":" ","HOUSE_NO":"６號","E_COORD97":168295.95999999999,"N_COORD97":2544531.3700000001,"ADDRESS":"自強街６２巷６號","OBJECTID":300199},"geometry":{"x":168295.95999999996,"y":2544531.3700000048}},{"attributes":{"ID":300208,"DIS_CODE":0,"TOWNNAME":"北區","LI":"五福里","LIN":"8鄰","STREET":"自強街","SECT":" ","MAREA":" ","LANE":"６２巷","ALLEY":" ","HOUSE_NO":"８號","E_COORD97":168291.67999999999,"N_COORD97":2544533.0800000001,"ADDRESS":"自強街６２巷８號","OBJECTID":300200},"geometry":{"x":168291.68000000063,"y":2544533.0800000019}}]}