{"displayFieldName":"TOWNNAME","fieldAliases":{"ID":"ID","DIS_CODE":"DIS_CODE","TOWNNAME":"TOWNNAME","LI":"LI","LIN":"LIN","STREET":"STREET","SECT":"SECT","MAREA":"MAREA","LANE":"LANE","ALLEY":"ALLEY","HOUSE_NO":"HOUSE_NO","E_COORD97":"E_COORD97","N_COORD97":"N_COORD97","ADDRESS":"ADDRESS","OBJECTID":"OBJECTID"},"geometryType":"esriGeometryPoint","spatialReference":{"wkid":102443,"latestWkid":3826},"fields":[{"name":"ID","type":"esriFieldTypeDouble","alias":"ID"},{"name":"DIS_CODE","type":"esriFieldTypeInteger","alias":"DIS_CODE"},{"name":"TOWNNAME","type":"esriFieldTypeString","alias":"TOWNNAME","length":8},{"name":"LI","type":"esriFieldTypeString","alias":"LI","length":8},{"name":"LIN","type":"esriFieldTypeString","alias":"LIN","length":12},{"name":"STREET","type":"esriFieldTypeString","alias":"STREET","length":20},{"name":"SECT","type":"esriFieldTypeString","alias":"SECT","length":8},{"name":"MAREA","type":"esriFieldTypeString","alias":"MAREA","length":12},{"name":"LANE","type":"esriFieldTypeString","alias":"LANE","length":10},{"name":"ALLEY","type":"esriFieldTypeString","alias":"ALLEY","length":10},{"name":"HOUSE_NO","type":"esriFieldTypeString","alias":"HOUSE_NO","length":20},{"name":"E_COORD97","type":"esriFieldTypeDouble","alias":"E_COORD97"},{"name":"N_COORD97","type":"esriFieldTypeDouble","alias":"N_COORD97"},{"name":"ADDRESS","type":"esriFieldTypeString","alias":"ADDRESS","length":50},{"name":"OBJECTID","type":"esriFieldTypeOID","alias":"OBJECTID"}],"features":[{"attributes":{"ID":11201,"DIS_CODE":0,"TOWNNAME":"鹽水區","LI":"岸內里","LIN":"7鄰","STREET":" ","SECT":" ","MAREA":"松子腳","LANE":" ","ALLEY":" ","HOUSE_NO":"３０４號","E_COORD97":174650.70999999999,"N_COORD97":2580397.25,"ADDRESS":"松子腳３０４號","OBJECTID":11201},"geometry":{"x":174650.71000000089,"y":2580397.25}},{"attributes":{"ID":11202,"DIS_CODE":0,"TOWNNAME":"鹽水區","LI":"岸內里","LIN":"7鄰","STREET":" ","SECT":" ","MAREA":"松子腳","LANE":" ","ALLEY":" ","HOUSE_NO":"３０５號","E_COORD97":174650.73999999999,"N_COORD97":2580401.3599999999,"ADDRESS":"松子腳３０５號","OBJECTID":11202},"geometry":{"x":174650.74000000115,"y":2580401.3600000013}},{"attributes":{"ID":11203,"DIS_CODE":0,"TOWNNAME":"鹽水區","LI":"岸內里","LIN":"7鄰","STREET":" ","SECT":" ","MAREA":"松子腳","LANE":" ","ALLEY":" ","HOUSE_NO":"３０６號","E_COORD97":174650.76000000001,"N_COORD97":2580405.4700000002,"ADDRESS":"松子腳３０６號","OBJECTID":11203},"geometry":{"x":174650.75999999978,"y":2580405.4700000025}},{"attributes":{"ID":11204,"DIS_CODE":0,"TOWNNAME":"鹽水區","LI":"岸內里","LIN":"7鄰","STREET":" ","SECT":" ","MAREA":"松子腳","LANE":" ","ALLEY":" ","HOUSE_NO":"３０７號","E_COORD97":174650.78,"N_COORD97":2580409.5699999998,"ADDRESS":"松子腳３０７號","OBJECTID":11204},"geometry":{"x":174650.78000000119,"y":2580409.570000004}},{"attributes":{"ID":11205,"DIS_CODE":0,"TOWNNAME":"鹽水區","LI":"岸內里","LIN":"7鄰","STREET":" ","SECT":" ","MAREA":"松子腳","LANE":" ","ALLEY":" ","HOUSE_NO":"３０８號之１","E_COORD97":174666.17999999999,"N_COORD97":2580426.6200000001,"ADDRESS":"松子腳３０８號之１","OBJECTID":11205},"geometry":{"x":174666.18000000063,"y":2580426.620000001}},{"attributes":{"ID":11206,"DIS_CODE":0,"TOWNNAME":"六甲區","LI":"中社里","LIN":"13鄰","STREET":" ","SECT":" ","MAREA":"港子頭","LANE":" ","ALLEY":" ","HOUSE_NO":"２９號","E_COORD97":180944.39000000001,"N_COORD97":2571350.3700000001,"ADDRESS":"港子頭２９號","OBJECTID":11206},"geometry":{"x":180944.38999999966,"y":2571350.3700000029}},{"attributes":{"ID":11207,"DIS_CODE":0,"TOWNNAME":"六甲區","LI":"中社里","LIN":"13鄰","STREET":" ","SECT":" ","MAREA":"港子頭","LANE":" ","ALLEY":" ","HOUSE_NO":"３０號","E_COORD97":180936.09,"N_COORD97":2571330.79,"ADDRESS":"港子頭３０號","OBJECTID":11207},"geometry":{"x":180936.08999999985,"y":2571330.7900000028}},{"attributes":{"ID":11208,"DIS_CODE":0,"TOWNNAME":"六甲區","LI":"中社里","LIN":"13鄰","STREET":" ","SECT":" ","MAREA":"港子頭","LANE":" ","ALLEY":" ","HOUSE_NO":"３１號","E_COORD97":180937.14000000001,"N_COORD97":2571303.7000000002,"ADDRESS":"港子頭３１號","OBJECTID":11208},"geometry":{"x":180937.13999999966,"y":2571303.6999999993}},{"attributes":{"ID":11209,"DIS_CODE":0,"TOWNNAME":"六甲區","LI":"中社里","LIN":"13鄰","STREET":" ","SECT":" ","MAREA":"港子頭","LANE":" ","ALLEY":" ","HOUSE_NO":"３２號","E_COORD97":180926.78,"N_COORD97":2571309.3700000001,"ADDRESS":"港子頭３２號","OBJECTID":11209},"geometry":{"x":180926.78000000026,"y":2571309.3700000029}},{"attributes":{"ID":11210,"DIS_CODE":0,"TOWNNAME":"六甲區","LI":"中社里","LIN":"13鄰","STREET":" ","SECT":" ","MAREA":"港子頭","LANE":" ","ALLEY":" ","HOUSE_NO":"３３號","E_COORD97":180925.98999999999,"N_COORD97":2571293.2000000002,"ADDRESS":"港子頭３３號","OBJECTID":11210},"geometry":{"x":180925.99000000115,"y":2571293.1999999993}},{"attributes":{"ID":11211,"DIS_CODE":0,"TOWNNAME":"六甲區","LI":"中社里","LIN":"13鄰","STREET":" ","SECT":" ","MAREA":"港子頭","LANE":" ","ALLEY":" ","HOUSE_NO":"３４號","E_COORD97":180924.22,"N_COORD97":2571268.98,"ADDRESS":"港子頭３４號","OBJECTID":11211},"geometry":{"x":180924.22000000067,"y":2571268.9800000004}},{"attributes":{"ID":11212,"DIS_CODE":0,"TOWNNAME":"六甲區","LI":"中社里","LIN":"13鄰","STREET":" ","SECT":" ","MAREA":"港子頭","LANE":" ","ALLEY":" ","HOUSE_NO":"３５號","E_COORD97":180880.23000000001,"N_COORD97":2571295.5699999998,"ADDRESS":"港子頭３５號","OBJECTID":11212},"geometry":{"x":180880.22999999952,"y":2571295.5700000003}},{"attributes":{"ID":11213,"DIS_CODE":0,"TOWNNAME":"六甲區","LI":"中社里","LIN":"13鄰","STREET":" ","SECT":" ","MAREA":"港子頭","LANE":" ","ALLEY":" ","HOUSE_NO":"３６號","E_COORD97":180910.63,"N_COORD97":2571322.2799999998,"ADDRESS":"港子頭３６號","OBJECTID":11213},"geometry":{"x":180910.62999999989,"y":2571322.2800000012}},{"attributes":{"ID":11214,"DIS_CODE":0,"TOWNNAME":"六甲區","LI":"中社里","LIN":"13鄰","STREET":" ","SECT":" ","MAREA":"港子頭","LANE":" ","ALLEY":" ","HOUSE_NO":"３７之１０號","E_COORD97":180878.69,"N_COORD97":2571341.7200000002,"ADDRESS":"港子頭３７之１０號","OBJECTID":11214},"geometry":{"x":180878.69000000041,"y":2571341.7200000007}},{"attributes":{"ID":11215,"DIS_CODE":0,"TOWNNAME":"六甲區","LI":"中社里","LIN":"13鄰","STREET":" ","SECT":" ","MAREA":"港子頭","LANE":" ","ALLEY":" ","HOUSE_NO":"３７號之１１","E_COORD97":180879.62,"N_COORD97":2571337.46,"ADDRESS":"港子頭３７號之１１","OBJECTID":11215},"geometry":{"x":180879.62000000104,"y":2571337.4600000009}},{"attributes":{"ID":11216,"DIS_CODE":0,"TOWNNAME":"六甲區","LI":"中社里","LIN":"13鄰","STREET":" ","SECT":" ","MAREA":"港子頭","LANE":" ","ALLEY":" ","HOUSE_NO":"３７號之１２","E_COORD97":180881.19,"N_COORD97":2571332.8799999999,"ADDRESS":"港子頭３７號之１２","OBJECTID":11216},"geometry":{"x":180881.19000000134,"y":2571332.879999999}},{"attributes":{"ID":11217,"DIS_CODE":0,"TOWNNAME":"六甲區","LI":"六甲里","LIN":"13鄰","STREET":"建國街","SECT":" ","MAREA":" ","LANE":" ","ALLEY":" ","HOUSE_NO":"２號","E_COORD97":183777.10999999999,"N_COORD97":2569871.8799999999,"ADDRESS":"建國街２號","OBJECTID":11217},"geometry":{"x":183777.11000000127,"y":2569871.879999999}},{"attributes":{"ID":11218,"DIS_CODE":0,"TOWNNAME":"六甲區","LI":"中社里","LIN":"13鄰","STREET":" ","SECT":" ","MAREA":"港子頭","LANE":" ","ALLEY":" ","HOUSE_NO":"３７號之１３","E_COORD97":180882.28,"N_COORD97":2571328.98,"ADDRESS":"港子頭３７號之１３","OBJECTID":11218},"geometry":{"x":180882.28000000119,"y":2571328.9800000023}},{"attributes":{"ID":11219,"DIS_CODE":0,"TOWNNAME":"六甲區","LI":"中社里","LIN":"13鄰","STREET":" ","SECT":" ","MAREA":"港子頭","LANE":" ","ALLEY":" ","HOUSE_NO":"３７號之１４","E_COORD97":180883.42000000001,"N_COORD97":2571324.2599999998,"ADDRESS":"港子頭３７號之１４","OBJECTID":11219},"geometry":{"x":180883.41999999993,"y":2571324.2599999998}},{"attributes":{"ID":11220,"DIS_CODE":0,"TOWNNAME":"六甲區","LI":"中社里","LIN":"13鄰","STREET":" ","SECT":" ","MAREA":"港子頭","LANE":" ","ALLEY":" ","HOUSE_NO":"３７號之１５","E_COORD97":180883.98999999999,"N_COORD97":2571320.04,"ADDRESS":"港子頭３７號之１５","OBJECTID":11220},"geometry":{"x":180883.99000000115,"y":2571320.040000001}},{"attributes":{"ID":11221,"DIS_CODE":0,"TOWNNAME":"六甲區","LI":"中社里","LIN":"13鄰","STREET":" ","SECT":" ","MAREA":"港子頭","LANE":" ","ALLEY":" ","HOUSE_NO":"３７號之１６","E_COORD97":180885.56,"N_COORD97":2571315.7799999998,"ADDRESS":"港子頭３７號之１６","OBJECTID":11221},"geometry":{"x":180885.55999999959,"y":2571315.7800000012}},{"attributes":{"ID":11222,"DIS_CODE":0,"TOWNNAME":"東區","LI":"仁和里","LIN":"13鄰","STREET":"仁和路","SECT":" ","MAREA":" ","LANE":"１３９巷","ALLEY":"５１弄","HOUSE_NO":"４５號之１","E_COORD97":171703.79000000001,"N_COORD97":2541267.6200000001,"ADDRESS":"仁和路１３９巷５１弄４５號之１","OBJECTID":11222},"geometry":{"x":171703.79000000097,"y":2541267.620000001}},{"attributes":{"ID":11223,"DIS_CODE":0,"TOWNNAME":"東區","LI":"仁和里","LIN":"13鄰","STREET":"仁和路","SECT":" ","MAREA":" ","LANE":"１３９巷","ALLEY":"５１弄","HOUSE_NO":"４５號之２","E_COORD97":171698.89999999999,"N_COORD97":2541265.6099999999,"ADDRESS":"仁和路１３９巷５１弄４５號之２","OBJECTID":11223},"geometry":{"x":171698.90000000037,"y":2541265.6099999994}},{"attributes":{"ID":11224,"DIS_CODE":0,"TOWNNAME":"東區","LI":"仁和里","LIN":"13鄰","STREET":"仁和路","SECT":" ","MAREA":" ","LANE":"１３９巷","ALLEY":"５１弄","HOUSE_NO":"４５號之３","E_COORD97":171695.16,"N_COORD97":2541267.6200000001,"ADDRESS":"仁和路１３９巷５１弄４５號之３","OBJECTID":11224},"geometry":{"x":171695.16000000015,"y":2541267.620000001}},{"attributes":{"ID":11225,"DIS_CODE":0,"TOWNNAME":"永康區","LI":"西橋里","LIN":"13鄰","STREET":"大橋三街","SECT":" ","MAREA":" ","LANE":"１０巷","ALLEY":"６弄","HOUSE_NO":"６號","E_COORD97":170508.45000000001,"N_COORD97":2546338.25,"ADDRESS":"大橋三街１０巷６弄６號","OBJECTID":11225},"geometry":{"x":170508.45000000019,"y":2546338.2500000037}},{"attributes":{"ID":11226,"DIS_CODE":0,"TOWNNAME":"永康區","LI":"西橋里","LIN":"13鄰","STREET":"大橋一街","SECT":" ","MAREA":" ","LANE":"３１巷","ALLEY":"２５弄","HOUSE_NO":"７號","E_COORD97":170555.39000000001,"N_COORD97":2546282.9900000002,"ADDRESS":"大橋一街３１巷２５弄７號","OBJECTID":11226},"geometry":{"x":170555.3900000006,"y":2546282.9900000021}},{"attributes":{"ID":11227,"DIS_CODE":0,"TOWNNAME":"永康區","LI":"西橋里","LIN":"13鄰","STREET":"大橋三街","SECT":" ","MAREA":" ","LANE":"１０巷","ALLEY":"６弄","HOUSE_NO":"２號","E_COORD97":170514.26000000001,"N_COORD97":2546347.25,"ADDRESS":"大橋三街１０巷６弄２號","OBJECTID":11227},"geometry":{"x":170514.25999999978,"y":2546347.25}},{"attributes":{"ID":11228,"DIS_CODE":0,"TOWNNAME":"永康區","LI":"西橋里","LIN":"13鄰","STREET":"大橋三街","SECT":" ","MAREA":" ","LANE":"１０巷","ALLEY":"６弄","HOUSE_NO":"４號","E_COORD97":170510.69,"N_COORD97":2546341.5,"ADDRESS":"大橋三街１０巷６弄４號","OBJECTID":11228},"geometry":{"x":170510.69000000041,"y":2546341.5000000019}},{"attributes":{"ID":11229,"DIS_CODE":0,"TOWNNAME":"南區","LI":"府南里","LIN":"13鄰","STREET":"永成路","SECT":"三段","MAREA":" ","LANE":"３７２巷","ALLEY":"５１弄","HOUSE_NO":"１６號","E_COORD97":167640.909659,"N_COORD97":2541039.2845800002,"ADDRESS":"永成路三段３７２巷５１弄１６號","OBJECTID":11229},"geometry":{"x":167640.90965900198,"y":2541039.284581}},{"attributes":{"ID":11230,"DIS_CODE":0,"TOWNNAME":"永康區","LI":"西橋里","LIN":"13鄰","STREET":"大橋一街","SECT":" ","MAREA":" ","LANE":"３１巷","ALLEY":"２５弄","HOUSE_NO":"１０號","E_COORD97":170555.23999999999,"N_COORD97":2546293.2400000002,"ADDRESS":"大橋一街３１巷２５弄１０號","OBJECTID":11230},"geometry":{"x":170555.24000000115,"y":2546293.2400000002}},{"attributes":{"ID":11231,"DIS_CODE":0,"TOWNNAME":"永康區","LI":"西橋里","LIN":"13鄰","STREET":"大橋三街","SECT":" ","MAREA":" ","LANE":"１０巷","ALLEY":"６弄","HOUSE_NO":"１號","E_COORD97":170515.32000000001,"N_COORD97":2546332.25,"ADDRESS":"大橋三街１０巷６弄１號","OBJECTID":11231},"geometry":{"x":170515.32000000216,"y":2546332.2500000019}},{"attributes":{"ID":11232,"DIS_CODE":0,"TOWNNAME":"永康區","LI":"西橋里","LIN":"13鄰","STREET":"大橋一街","SECT":" ","MAREA":" ","LANE":"３１巷","ALLEY":"２５弄","HOUSE_NO":"１３號","E_COORD97":170545.04000000001,"N_COORD97":2546276.4900000002,"ADDRESS":"大橋一街３１巷２５弄１３號","OBJECTID":11232},"geometry":{"x":170545.04000000004,"y":2546276.4900000021}},{"attributes":{"ID":11233,"DIS_CODE":0,"TOWNNAME":"永康區","LI":"西橋里","LIN":"13鄰","STREET":"大橋一街","SECT":" ","MAREA":" ","LANE":"３１巷","ALLEY":"２５弄","HOUSE_NO":"１號","E_COORD97":170566.94,"N_COORD97":2546289.4900000002,"ADDRESS":"大橋一街３１巷２５弄１號","OBJECTID":11233},"geometry":{"x":170566.93999999948,"y":2546289.4900000039}},{"attributes":{"ID":11234,"DIS_CODE":0,"TOWNNAME":"永康區","LI":"西橋里","LIN":"13鄰","STREET":"大橋三街","SECT":" ","MAREA":" ","LANE":"１０巷","ALLEY":"６弄","HOUSE_NO":"１０號","E_COORD97":170504.48999999999,"N_COORD97":2546331.25,"ADDRESS":"大橋三街１０巷６弄１０號","OBJECTID":11234},"geometry":{"x":170504.49000000115,"y":2546331.2499999981}},{"attributes":{"ID":11235,"DIS_CODE":0,"TOWNNAME":"永康區","LI":"西橋里","LIN":"13鄰","STREET":"大橋三街","SECT":" ","MAREA":" ","LANE":"１０巷","ALLEY":"６弄","HOUSE_NO":"１４號","E_COORD97":170499.73000000001,"N_COORD97":2546323.75,"ADDRESS":"大橋三街１０巷６弄１４號","OBJECTID":11235},"geometry":{"x":170499.73000000138,"y":2546323.75}},{"attributes":{"ID":11236,"DIS_CODE":0,"TOWNNAME":"安南區","LI":"安東里","LIN":"13鄰","STREET":"安和路","SECT":"一段","MAREA":" ","LANE":"２２０巷","ALLEY":"７６弄","HOUSE_NO":"５號","E_COORD97":169537.23999999999,"N_COORD97":2548018.25,"ADDRESS":"安和路一段２２０巷７６弄５號","OBJECTID":11236},"geometry":{"x":169537.24000000022,"y":2548018.25}},{"attributes":{"ID":11237,"DIS_CODE":0,"TOWNNAME":"安南區","LI":"安西里","LIN":"13鄰","STREET":"安和路","SECT":"一段","MAREA":" ","LANE":"１５９巷","ALLEY":"７５弄","HOUSE_NO":"３號","E_COORD97":169194.48999999999,"N_COORD97":2547820.8799999999,"ADDRESS":"安和路一段１５９巷７５弄３號","OBJECTID":11237},"geometry":{"x":169194.49000000022,"y":2547820.879999999}},{"attributes":{"ID":11238,"DIS_CODE":0,"TOWNNAME":"安南區","LI":"安西里","LIN":"13鄰","STREET":"安和路","SECT":"一段","MAREA":" ","LANE":"１５９巷","ALLEY":"７５弄","HOUSE_NO":"５號","E_COORD97":169191.35999999999,"N_COORD97":2547818.1400000001,"ADDRESS":"安和路一段１５９巷７５弄５號","OBJECTID":11238},"geometry":{"x":169191.36000000127,"y":2547818.1400000025}},{"attributes":{"ID":11239,"DIS_CODE":0,"TOWNNAME":"安南區","LI":"安西里","LIN":"13鄰","STREET":"安和路","SECT":"一段","MAREA":" ","LANE":"１５９巷","ALLEY":"７５弄","HOUSE_NO":"７號","E_COORD97":169188.23000000001,"N_COORD97":2547816.1899999999,"ADDRESS":"安和路一段１５９巷７５弄７號","OBJECTID":11239},"geometry":{"x":169188.23000000045,"y":2547816.1900000032}},{"attributes":{"ID":11240,"DIS_CODE":0,"TOWNNAME":"安南區","LI":"溪北里","LIN":"13鄰","STREET":"府安路","SECT":"四段","MAREA":" ","LANE":"９１巷","ALLEY":"２２弄","HOUSE_NO":"３７號","E_COORD97":169211.57000000001,"N_COORD97":2547400.6200000001,"ADDRESS":"府安路四段９１巷２２弄３７號","OBJECTID":11240},"geometry":{"x":169211.57000000216,"y":2547400.620000001}},{"attributes":{"ID":11241,"DIS_CODE":0,"TOWNNAME":"東區","LI":"大學里","LIN":"13鄰","STREET":"長榮路","SECT":"三段","MAREA":" ","LANE":"６６巷","ALLEY":"１０弄","HOUSE_NO":"１０號","E_COORD97":170298.29000000001,"N_COORD97":2543783.8999999999,"ADDRESS":"長榮路三段６６巷１０弄１０號","OBJECTID":11241},"geometry":{"x":170298.2900000019,"y":2543783.9000000004}},{"attributes":{"ID":11242,"DIS_CODE":0,"TOWNNAME":"六甲區","LI":"中社里","LIN":"13鄰","STREET":" ","SECT":" ","MAREA":"港子頭","LANE":" ","ALLEY":" ","HOUSE_NO":"３７號之７","E_COORD97":180863.70999999999,"N_COORD97":2571309.7400000002,"ADDRESS":"港子頭３７號之７","OBJECTID":11242},"geometry":{"x":180863.71000000089,"y":2571309.7400000021}},{"attributes":{"ID":11243,"DIS_CODE":0,"TOWNNAME":"六甲區","LI":"中社里","LIN":"13鄰","STREET":" ","SECT":" ","MAREA":"港子頭","LANE":" ","ALLEY":" ","HOUSE_NO":"３７號之８","E_COORD97":180863.82999999999,"N_COORD97":2571305.0899999999,"ADDRESS":"港子頭３７號之８","OBJECTID":11243},"geometry":{"x":180863.83000000007,"y":2571305.0899999999}},{"attributes":{"ID":11244,"DIS_CODE":0,"TOWNNAME":"六甲區","LI":"中社里","LIN":"13鄰","STREET":" ","SECT":" ","MAREA":"港子頭","LANE":" ","ALLEY":" ","HOUSE_NO":"３７號之９","E_COORD97":180876.95000000001,"N_COORD97":2571345.9700000002,"ADDRESS":"港子頭３７號之９","OBJECTID":11244},"geometry":{"x":180876.95000000205,"y":2571345.9700000025}},{"attributes":{"ID":11245,"DIS_CODE":0,"TOWNNAME":"六甲區","LI":"中社里","LIN":"13鄰","STREET":" ","SECT":" ","MAREA":"港子頭","LANE":" ","ALLEY":" ","HOUSE_NO":"３８號","E_COORD97":180916.56,"N_COORD97":2571348.7200000002,"ADDRESS":"港子頭３８號","OBJECTID":11245},"geometry":{"x":180916.56000000052,"y":2571348.7200000007}},{"attributes":{"ID":11246,"DIS_CODE":0,"TOWNNAME":"六甲區","LI":"中社里","LIN":"13鄰","STREET":" ","SECT":" ","MAREA":"港子頭","LANE":" ","ALLEY":" ","HOUSE_NO":"３９號","E_COORD97":180909.76999999999,"N_COORD97":2571365.3399999999,"ADDRESS":"港子頭３９號","OBJECTID":11246},"geometry":{"x":180909.77000000142,"y":2571365.3400000036}},{"attributes":{"ID":11247,"DIS_CODE":0,"TOWNNAME":"東區","LI":"大學里","LIN":"13鄰","STREET":"長榮路","SECT":"三段","MAREA":" ","LANE":"６６巷","ALLEY":"１０弄","HOUSE_NO":"１２號","E_COORD97":170302.41,"N_COORD97":2543783.98,"ADDRESS":"長榮路三段６６巷１０弄１２號","OBJECTID":11247},"geometry":{"x":170302.40999999922,"y":2543783.9799999986}},{"attributes":{"ID":11248,"DIS_CODE":0,"TOWNNAME":"東區","LI":"大學里","LIN":"13鄰","STREET":"長榮路","SECT":"三段","MAREA":" ","LANE":"６６巷","ALLEY":"１０弄","HOUSE_NO":"１６號","E_COORD97":170298.10999999999,"N_COORD97":2543772.4399999999,"ADDRESS":"長榮路三段６６巷１０弄１６號","OBJECTID":11248},"geometry":{"x":170298.1100000022,"y":2543772.4399999995}},{"attributes":{"ID":11249,"DIS_CODE":0,"TOWNNAME":"東區","LI":"大學里","LIN":"13鄰","STREET":"長榮路","SECT":"三段","MAREA":" ","LANE":"６６巷","ALLEY":"１０弄","HOUSE_NO":"１８號","E_COORD97":170293.32999999999,"N_COORD97":2543772.4399999999,"ADDRESS":"長榮路三段６６巷１０弄１８號","OBJECTID":11249},"geometry":{"x":170293.33000000101,"y":2543772.4399999995}},{"attributes":{"ID":11250,"DIS_CODE":0,"TOWNNAME":"東區","LI":"大學里","LIN":"13鄰","STREET":"長榮路","SECT":"三段","MAREA":" ","LANE":"６６巷","ALLEY":"１０弄","HOUSE_NO":"２０號","E_COORD97":170288.39999999999,"N_COORD97":2543772.2799999998,"ADDRESS":"長榮路三段６６巷１０弄２０號","OBJECTID":11250},"geometry":{"x":170288.4000000013,"y":2543772.2800000012}},{"attributes":{"ID":11251,"DIS_CODE":0,"TOWNNAME":"東區","LI":"大學里","LIN":"13鄰","STREET":"長榮路","SECT":"三段","MAREA":" ","LANE":"６６巷","ALLEY":"１０弄","HOUSE_NO":"２２號","E_COORD97":170283,"N_COORD97":2543772.4399999999,"ADDRESS":"長榮路三段６６巷１０弄２２號","OBJECTID":11251},"geometry":{"x":170282.99999999907,"y":2543772.4399999995}},{"attributes":{"ID":11252,"DIS_CODE":0,"TOWNNAME":"東區","LI":"大學里","LIN":"13鄰","STREET":"長榮路","SECT":"三段","MAREA":" ","LANE":"６６巷","ALLEY":"１０弄","HOUSE_NO":"２４號","E_COORD97":170276.29999999999,"N_COORD97":2543772.5899999999,"ADDRESS":"長榮路三段６６巷１０弄２４號","OBJECTID":11252},"geometry":{"x":170276.30000000075,"y":2543772.5900000036}},{"attributes":{"ID":11253,"DIS_CODE":0,"TOWNNAME":"東區","LI":"大學里","LIN":"13鄰","STREET":"長榮路","SECT":"三段","MAREA":" ","LANE":"６６巷","ALLEY":"１０弄","HOUSE_NO":"２６號","E_COORD97":170276.29999999999,"N_COORD97":2543750.29,"ADDRESS":"長榮路三段６６巷１０弄２６號","OBJECTID":11253},"geometry":{"x":170276.30000000075,"y":2543750.2900000028}},{"attributes":{"ID":11254,"DIS_CODE":0,"TOWNNAME":"東區","LI":"大學里","LIN":"13鄰","STREET":"長榮路","SECT":"三段","MAREA":" ","LANE":"６６巷","ALLEY":"１０弄","HOUSE_NO":"２８號","E_COORD97":170281,"N_COORD97":2543750.6000000001,"ADDRESS":"長榮路三段６６巷１０弄２８號","OBJECTID":11254},"geometry":{"x":170281,"y":2543750.5999999996}},{"attributes":{"ID":11255,"DIS_CODE":0,"TOWNNAME":"東區","LI":"大學里","LIN":"13鄰","STREET":"長榮路","SECT":"三段","MAREA":" ","LANE":"６６巷","ALLEY":"１０弄","HOUSE_NO":"２號","E_COORD97":170275.98999999999,"N_COORD97":2543784.2400000002,"ADDRESS":"長榮路三段６６巷１０弄２號","OBJECTID":11255},"geometry":{"x":170275.99000000022,"y":2543784.2400000002}},{"attributes":{"ID":11256,"DIS_CODE":0,"TOWNNAME":"東區","LI":"大學里","LIN":"13鄰","STREET":"長榮路","SECT":"三段","MAREA":" ","LANE":"６６巷","ALLEY":"１０弄","HOUSE_NO":"３０號","E_COORD97":170286.47,"N_COORD97":2543750.0600000001,"ADDRESS":"長榮路三段６６巷１０弄３０號","OBJECTID":11256},"geometry":{"x":170286.4700000016,"y":2543750.0600000024}},{"attributes":{"ID":11257,"DIS_CODE":0,"TOWNNAME":"東區","LI":"大學里","LIN":"13鄰","STREET":"長榮路","SECT":"三段","MAREA":" ","LANE":"６６巷","ALLEY":"１０弄","HOUSE_NO":"３２號","E_COORD97":170291.63,"N_COORD97":2543750.6000000001,"ADDRESS":"長榮路三段６６巷１０弄３２號","OBJECTID":11257},"geometry":{"x":170291.62999999989,"y":2543750.5999999996}},{"attributes":{"ID":11258,"DIS_CODE":0,"TOWNNAME":"東區","LI":"大學里","LIN":"13鄰","STREET":"長榮路","SECT":"三段","MAREA":" ","LANE":"６６巷","ALLEY":"１０弄","HOUSE_NO":"３４號","E_COORD97":170296.26000000001,"N_COORD97":2543750.0600000001,"ADDRESS":"長榮路三段６６巷１０弄３４號","OBJECTID":11258},"geometry":{"x":170296.25999999885,"y":2543750.0600000024}},{"attributes":{"ID":11259,"DIS_CODE":0,"TOWNNAME":"東區","LI":"大學里","LIN":"13鄰","STREET":"長榮路","SECT":"三段","MAREA":" ","LANE":"６６巷","ALLEY":"１０弄","HOUSE_NO":"３６號","E_COORD97":170300.88,"N_COORD97":2543750.1400000001,"ADDRESS":"長榮路三段６６巷１０弄３６號","OBJECTID":11259},"geometry":{"x":170300.88000000175,"y":2543750.1400000025}},{"attributes":{"ID":11260,"DIS_CODE":0,"TOWNNAME":"東區","LI":"大學里","LIN":"13鄰","STREET":"長榮路","SECT":"三段","MAREA":" ","LANE":"６６巷","ALLEY":"１０弄","HOUSE_NO":"３８號","E_COORD97":170278,"N_COORD97":2543738.96,"ADDRESS":"長榮路三段６６巷１０弄３８號","OBJECTID":11260},"geometry":{"x":170278.00000000186,"y":2543738.9600000028}},{"attributes":{"ID":11261,"DIS_CODE":0,"TOWNNAME":"東區","LI":"大學里","LIN":"13鄰","STREET":"長榮路","SECT":"三段","MAREA":" ","LANE":"６６巷","ALLEY":"１０弄","HOUSE_NO":"４０號","E_COORD97":170282.09,"N_COORD97":2543739.0299999998,"ADDRESS":"長榮路三段６６巷１０弄４０號","OBJECTID":11261},"geometry":{"x":170282.08999999985,"y":2543739.0300000012}},{"attributes":{"ID":11262,"DIS_CODE":0,"TOWNNAME":"東區","LI":"大學里","LIN":"13鄰","STREET":"長榮路","SECT":"三段","MAREA":" ","LANE":"６６巷","ALLEY":"１０弄","HOUSE_NO":"４２號","E_COORD97":170288.17000000001,"N_COORD97":2543738.73,"ADDRESS":"長榮路三段６６巷１０弄４２號","OBJECTID":11262},"geometry":{"x":170288.16999999993,"y":2543738.7300000023}},{"attributes":{"ID":11263,"DIS_CODE":0,"TOWNNAME":"東區","LI":"大學里","LIN":"13鄰","STREET":"長榮路","SECT":"三段","MAREA":" ","LANE":"６６巷","ALLEY":"１０弄","HOUSE_NO":"４４號","E_COORD97":170292.57000000001,"N_COORD97":2543738.7999999998,"ADDRESS":"長榮路三段６６巷１０弄４４號","OBJECTID":11263},"geometry":{"x":170292.5700000003,"y":2543738.8000000026}},{"attributes":{"ID":11264,"DIS_CODE":0,"TOWNNAME":"東區","LI":"大學里","LIN":"13鄰","STREET":"長榮路","SECT":"三段","MAREA":" ","LANE":"６６巷","ALLEY":"１０弄","HOUSE_NO":"４６號","E_COORD97":170298.12,"N_COORD97":2543738.4199999999,"ADDRESS":"長榮路三段６６巷１０弄４６號","OBJECTID":11264},"geometry":{"x":170298.12000000104,"y":2543738.4199999999}},{"attributes":{"ID":11265,"DIS_CODE":0,"TOWNNAME":"東區","LI":"大學里","LIN":"13鄰","STREET":"長榮路","SECT":"三段","MAREA":" ","LANE":"６６巷","ALLEY":"１０弄","HOUSE_NO":"４８號","E_COORD97":170302.12,"N_COORD97":2543738.6499999999,"ADDRESS":"長榮路三段６６巷１０弄４８號","OBJECTID":11265},"geometry":{"x":170302.12000000011,"y":2543738.6499999985}},{"attributes":{"ID":11266,"DIS_CODE":0,"TOWNNAME":"東區","LI":"大學里","LIN":"13鄰","STREET":"長榮路","SECT":"三段","MAREA":" ","LANE":"６６巷","ALLEY":"１０弄","HOUSE_NO":"６號","E_COORD97":170288.35000000001,"N_COORD97":2543784.0699999998,"ADDRESS":"長榮路三段６６巷１０弄６號","OBJECTID":11266},"geometry":{"x":170288.34999999963,"y":2543784.0700000022}},{"attributes":{"ID":11267,"DIS_CODE":0,"TOWNNAME":"新營區","LI":"土庫里","LIN":"13鄰","STREET":" ","SECT":" ","MAREA":"土庫","LANE":" ","ALLEY":" ","HOUSE_NO":"１０７號","E_COORD97":183387.13,"N_COORD97":2579800.7599999998,"ADDRESS":"土庫１０７號","OBJECTID":11267},"geometry":{"x":183387.12999999989,"y":2579800.7599999979}},{"attributes":{"ID":11268,"DIS_CODE":0,"TOWNNAME":"新營區","LI":"土庫里","LIN":"13鄰","STREET":" ","SECT":" ","MAREA":"土庫","LANE":" ","ALLEY":" ","HOUSE_NO":"１０８號","E_COORD97":183370.66,"N_COORD97":2579776.4700000002,"ADDRESS":"土庫１０８號","OBJECTID":11268},"geometry":{"x":183370.65999999922,"y":2579776.4699999988}},{"attributes":{"ID":11269,"DIS_CODE":0,"TOWNNAME":"新營區","LI":"太南里","LIN":"13鄰","STREET":" ","SECT":" ","MAREA":"太子宮","LANE":" ","ALLEY":" ","HOUSE_NO":"２７５號","E_COORD97":176106.19,"N_COORD97":2576742.1800000002,"ADDRESS":"太子宮２７５號","OBJECTID":11269},"geometry":{"x":176106.19000000041,"y":2576742.1799999997}},{"attributes":{"ID":11270,"DIS_CODE":0,"TOWNNAME":"新營區","LI":"太南里","LIN":"13鄰","STREET":" ","SECT":" ","MAREA":"太子宮","LANE":" ","ALLEY":" ","HOUSE_NO":"２７９之４號","E_COORD97":176095.92000000001,"N_COORD97":2576643.73,"ADDRESS":"太子宮２７９之４號","OBJECTID":11270},"geometry":{"x":176095.91999999993,"y":2576643.7300000004}},{"attributes":{"ID":11271,"DIS_CODE":0,"TOWNNAME":"鹽水區","LI":"岸內里","LIN":"7鄰","STREET":" ","SECT":" ","MAREA":"松子腳","LANE":" ","ALLEY":" ","HOUSE_NO":"３０８號之２","E_COORD97":174669.87,"N_COORD97":2580426.4199999999,"ADDRESS":"松子腳３０８號之２","OBJECTID":11271},"geometry":{"x":174669.87000000104,"y":2580426.4199999999}},{"attributes":{"ID":11272,"DIS_CODE":0,"TOWNNAME":"鹽水區","LI":"岸內里","LIN":"7鄰","STREET":" ","SECT":" ","MAREA":"松子腳","LANE":" ","ALLEY":" ","HOUSE_NO":"３０８號之３","E_COORD97":174673.64999999999,"N_COORD97":2580426.4100000001,"ADDRESS":"松子腳３０８號之３","OBJECTID":11272},"geometry":{"x":174673.6500000013,"y":2580426.4100000001}},{"attributes":{"ID":11273,"DIS_CODE":0,"TOWNNAME":"鹽水區","LI":"岸內里","LIN":"7鄰","STREET":" ","SECT":" ","MAREA":"松子腳","LANE":" ","ALLEY":" ","HOUSE_NO":"３０８號","E_COORD97":174651.42999999999,"N_COORD97":2580419.02,"ADDRESS":"松子腳３０８號","OBJECTID":11273},"geometry":{"x":174651.4299999997,"y":2580419.0199999996}},{"attributes":{"ID":11274,"DIS_CODE":0,"TOWNNAME":"新營區","LI":"太南里","LIN":"13鄰","STREET":" ","SECT":" ","MAREA":"太子宮","LANE":" ","ALLEY":" ","HOUSE_NO":"２７７之２號","E_COORD97":176107.37,"N_COORD97":2576683.54,"ADDRESS":"太子宮２７７之２號","OBJECTID":11274},"geometry":{"x":176107.37000000104,"y":2576683.540000001}},{"attributes":{"ID":11275,"DIS_CODE":0,"TOWNNAME":"新營區","LI":"太南里","LIN":"13鄰","STREET":" ","SECT":" ","MAREA":"太子宮","LANE":" ","ALLEY":" ","HOUSE_NO":"２７９之５號","E_COORD97":176097.95000000001,"N_COORD97":2576639.29,"ADDRESS":"太子宮２７９之５號","OBJECTID":11275},"geometry":{"x":176097.95000000019,"y":2576639.2899999991}},{"attributes":{"ID":11276,"DIS_CODE":0,"TOWNNAME":"新營區","LI":"太南里","LIN":"13鄰","STREET":" ","SECT":" ","MAREA":"太子宮","LANE":" ","ALLEY":" ","HOUSE_NO":"２７２號","E_COORD97":176117.60000000001,"N_COORD97":2576774.2400000002,"ADDRESS":"太子宮２７２號","OBJECTID":11276},"geometry":{"x":176117.60000000056,"y":2576774.2400000021}},{"attributes":{"ID":11277,"DIS_CODE":0,"TOWNNAME":"新營區","LI":"太南里","LIN":"13鄰","STREET":" ","SECT":" ","MAREA":"太子宮","LANE":" ","ALLEY":" ","HOUSE_NO":"２７４之１號","E_COORD97":176174.14000000001,"N_COORD97":2576737.4700000002,"ADDRESS":"太子宮２７４之１號","OBJECTID":11277},"geometry":{"x":176174.13999999966,"y":2576737.4700000007}},{"attributes":{"ID":11278,"DIS_CODE":0,"TOWNNAME":"歸仁區","LI":"武東里","LIN":"13鄰","STREET":" ","SECT":" ","MAREA":"明德新村","LANE":" ","ALLEY":" ","HOUSE_NO":"２３３號","E_COORD97":175101.23999999999,"N_COORD97":2536091.27,"ADDRESS":"明德新村２３３號","OBJECTID":11278},"geometry":{"x":175101.24000000209,"y":2536091.2699999996}},{"attributes":{"ID":11279,"DIS_CODE":0,"TOWNNAME":"東區","LI":"大學里","LIN":"13鄰","STREET":"長榮路","SECT":"三段","MAREA":" ","LANE":"６６巷","ALLEY":"１０弄","HOUSE_NO":"８號","E_COORD97":170293.75,"N_COORD97":2543783.8100000001,"ADDRESS":"長榮路三段６６巷１０弄８號","OBJECTID":11279},"geometry":{"x":170293.75000000093,"y":2543783.8100000005}},{"attributes":{"ID":11280,"DIS_CODE":0,"TOWNNAME":"東區","LI":"仁和里","LIN":"13鄰","STREET":"仁和路","SECT":" ","MAREA":" ","LANE":"１３９巷","ALLEY":"５１弄","HOUSE_NO":"４５號之７","E_COORD97":171694.29000000001,"N_COORD97":2541245.77,"ADDRESS":"仁和路１３９巷５１弄４５號之７","OBJECTID":11280},"geometry":{"x":171694.29000000004,"y":2541245.7700000014}},{"attributes":{"ID":11281,"DIS_CODE":0,"TOWNNAME":"東區","LI":"仁和里","LIN":"13鄰","STREET":"仁和路","SECT":" ","MAREA":" ","LANE":"１３９巷","ALLEY":"５１弄","HOUSE_NO":"４５號之８","E_COORD97":171695.16,"N_COORD97":2541241.7400000002,"ADDRESS":"仁和路１３９巷５１弄４５號之８","OBJECTID":11281},"geometry":{"x":171695.16000000015,"y":2541241.7400000002}},{"attributes":{"ID":11282,"DIS_CODE":0,"TOWNNAME":"東區","LI":"仁和里","LIN":"13鄰","STREET":"仁和路","SECT":" ","MAREA":" ","LANE":"１３９巷","ALLEY":"５１弄","HOUSE_NO":"４５號之９","E_COORD97":171694.29000000001,"N_COORD97":2541237.1400000001,"ADDRESS":"仁和路１３９巷５１弄４５號之９","OBJECTID":11282},"geometry":{"x":171694.29000000004,"y":2541237.1400000043}},{"attributes":{"ID":11283,"DIS_CODE":0,"TOWNNAME":"東區","LI":"仁和里","LIN":"13鄰","STREET":"仁和路","SECT":" ","MAREA":" ","LANE":"１３９巷","ALLEY":"５１弄","HOUSE_NO":"４５號之１１","E_COORD97":171695.16,"N_COORD97":2541229.0899999999,"ADDRESS":"仁和路１３９巷５１弄４５號之１１","OBJECTID":11283},"geometry":{"x":171695.16000000015,"y":2541229.0899999999}},{"attributes":{"ID":11284,"DIS_CODE":0,"TOWNNAME":"東區","LI":"仁和里","LIN":"13鄰","STREET":"仁和路","SECT":" ","MAREA":" ","LANE":"１３９巷","ALLEY":"５１弄","HOUSE_NO":"４５號之１２","E_COORD97":171695.16,"N_COORD97":2541223.0600000001,"ADDRESS":"仁和路１３９巷５１弄４５號之１２","OBJECTID":11284},"geometry":{"x":171695.16000000015,"y":2541223.0600000005}},{"attributes":{"ID":11285,"DIS_CODE":0,"TOWNNAME":"東區","LI":"仁和里","LIN":"13鄰","STREET":"仁和路","SECT":" ","MAREA":" ","LANE":"１３９巷","ALLEY":"５１弄","HOUSE_NO":"４５號之１３","E_COORD97":171694.57999999999,"N_COORD97":2541216.73,"ADDRESS":"仁和路１３９巷５１弄４５號之１３","OBJECTID":11285},"geometry":{"x":171694.58000000007,"y":2541216.7300000023}},{"attributes":{"ID":11286,"DIS_CODE":0,"TOWNNAME":"東區","LI":"仁和里","LIN":"13鄰","STREET":"仁和路","SECT":" ","MAREA":" ","LANE":"１３９巷","ALLEY":"５１弄","HOUSE_NO":"４５號之１４","E_COORD97":171684.79000000001,"N_COORD97":2541215.0099999998,"ADDRESS":"仁和路１３９巷５１弄４５號之１４","OBJECTID":11286},"geometry":{"x":171684.7900000019,"y":2541215.0100000016}},{"attributes":{"ID":11287,"DIS_CODE":0,"TOWNNAME":"東區","LI":"仁和里","LIN":"13鄰","STREET":"仁和路","SECT":" ","MAREA":" ","LANE":"１３９巷","ALLEY":"５１弄","HOUSE_NO":"４５號之１５","E_COORD97":171677.31,"N_COORD97":2541218.46,"ADDRESS":"仁和路１３９巷５１弄４５號之１５","OBJECTID":11287},"geometry":{"x":171677.30999999866,"y":2541218.4600000046}},{"attributes":{"ID":11288,"DIS_CODE":0,"TOWNNAME":"鹽水區","LI":"岸內里","LIN":"7鄰","STREET":" ","SECT":" ","MAREA":"松子腳","LANE":" ","ALLEY":" ","HOUSE_NO":"３０９號","E_COORD97":174651.34,"N_COORD97":2580423.5499999998,"ADDRESS":"松子腳３０９號","OBJECTID":11288},"geometry":{"x":174651.34000000078,"y":2580423.5499999989}},{"attributes":{"ID":11289,"DIS_CODE":0,"TOWNNAME":"東區","LI":"仁和里","LIN":"13鄰","STREET":"仁和路","SECT":" ","MAREA":" ","LANE":"１３９巷","ALLEY":"５１弄","HOUSE_NO":"４５號之１６","E_COORD97":171676.73999999999,"N_COORD97":2541225.3599999999,"ADDRESS":"仁和路１３９巷５１弄４５號之１６","OBJECTID":11289},"geometry":{"x":171676.74000000022,"y":2541225.3600000013}},{"attributes":{"ID":11290,"DIS_CODE":0,"TOWNNAME":"新營區","LI":"興安里","LIN":"13鄰","STREET":"延平路","SECT":" ","MAREA":" ","LANE":" ","ALLEY":" ","HOUSE_NO":"７３號","E_COORD97":179790.26999999999,"N_COORD97":2577727.6200000001,"ADDRESS":"延平路７３號","OBJECTID":11290},"geometry":{"x":179790.26999999955,"y":2577727.620000001}},{"attributes":{"ID":11291,"DIS_CODE":0,"TOWNNAME":"新營區","LI":"大宏里","LIN":"13鄰","STREET":"中正路","SECT":" ","MAREA":" ","LANE":" ","ALLEY":" ","HOUSE_NO":"４號","E_COORD97":180077.60000000001,"N_COORD97":2578392.9300000002,"ADDRESS":"中正路４號","OBJECTID":11291},"geometry":{"x":180077.60000000056,"y":2578392.9300000034}},{"attributes":{"ID":11292,"DIS_CODE":0,"TOWNNAME":"新營區","LI":"民生里","LIN":"13鄰","STREET":"民治路","SECT":" ","MAREA":" ","LANE":" ","ALLEY":" ","HOUSE_NO":"３２７號","E_COORD97":178701.37,"N_COORD97":2578196.8399999999,"ADDRESS":"民治路３２７號","OBJECTID":11292},"geometry":{"x":178701.37000000104,"y":2578196.8400000036}},{"attributes":{"ID":11293,"DIS_CODE":0,"TOWNNAME":"鹽水區","LI":"岸內里","LIN":"7鄰","STREET":" ","SECT":" ","MAREA":"松子腳","LANE":" ","ALLEY":" ","HOUSE_NO":"３１０號","E_COORD97":174651.26000000001,"N_COORD97":2580428.0899999999,"ADDRESS":"松子腳３１０號","OBJECTID":11293},"geometry":{"x":174651.26000000164,"y":2580428.0899999999}},{"attributes":{"ID":11294,"DIS_CODE":0,"TOWNNAME":"鹽水區","LI":"岸內里","LIN":"7鄰","STREET":" ","SECT":" ","MAREA":"松子腳","LANE":" ","ALLEY":" ","HOUSE_NO":"３１１號","E_COORD97":174651.17999999999,"N_COORD97":2580432.6200000001,"ADDRESS":"松子腳３１１號","OBJECTID":11294},"geometry":{"x":174651.1799999997,"y":2580432.620000001}},{"attributes":{"ID":11295,"DIS_CODE":0,"TOWNNAME":"後壁區","LI":"頂安里","LIN":"7鄰","STREET":" ","SECT":" ","MAREA":"頂寮","LANE":" ","ALLEY":" ","HOUSE_NO":"８３號之２","E_COORD97":183719.38,"N_COORD97":2581378.7200000002,"ADDRESS":"頂寮８３號之２","OBJECTID":11295},"geometry":{"x":183719.37999999989,"y":2581378.7200000044}},{"attributes":{"ID":11296,"DIS_CODE":0,"TOWNNAME":"新營區","LI":"永生里","LIN":"13鄰","STREET":"中山路","SECT":" ","MAREA":" ","LANE":" ","ALLEY":" ","HOUSE_NO":"２２１號","E_COORD97":179885.85000000001,"N_COORD97":2577982.9900000002,"ADDRESS":"中山路２２１號","OBJECTID":11296},"geometry":{"x":179885.85000000056,"y":2577982.9900000021}},{"attributes":{"ID":11297,"DIS_CODE":0,"TOWNNAME":"七股區","LI":"?榔里","LIN":"7鄰","STREET":" ","SECT":" ","MAREA":"?榔","LANE":" ","ALLEY":" ","HOUSE_NO":"５９號","E_COORD97":162309,"N_COORD97":2555302.27,"ADDRESS":"?榔５９號","OBJECTID":11297},"geometry":{"x":162309.00000000186,"y":2555302.2700000014}},{"attributes":{"ID":11298,"DIS_CODE":0,"TOWNNAME":"七股區","LI":"?榔里","LIN":"7鄰","STREET":" ","SECT":" ","MAREA":"?榔","LANE":" ","ALLEY":" ","HOUSE_NO":"６０號之３","E_COORD97":162310.45999999999,"N_COORD97":2555356.6800000002,"ADDRESS":"?榔６０號之３","OBJECTID":11298},"geometry":{"x":162310.45999999996,"y":2555356.6800000034}},{"attributes":{"ID":11299,"DIS_CODE":0,"TOWNNAME":"新營區","LI":"新南里","LIN":"13鄰","STREET":"長榮路","SECT":"二段","MAREA":" ","LANE":" ","ALLEY":" ","HOUSE_NO":"７６１號","E_COORD97":178497.60999999999,"N_COORD97":2579226.6499999999,"ADDRESS":"長榮路二段７６１號","OBJECTID":11299},"geometry":{"x":178497.6100000022,"y":2579226.6500000022}},{"attributes":{"ID":11300,"DIS_CODE":0,"TOWNNAME":"七股區","LI":"?榔里","LIN":"7鄰","STREET":" ","SECT":" ","MAREA":"?榔","LANE":" ","ALLEY":" ","HOUSE_NO":"６０號之４","E_COORD97":162294.76000000001,"N_COORD97":2555360.23,"ADDRESS":"?榔６０號之４","OBJECTID":11300},"geometry":{"x":162294.75999999978,"y":2555360.2300000004}},{"attributes":{"ID":11301,"DIS_CODE":0,"TOWNNAME":"新營區","LI":"埤寮里","LIN":"13鄰","STREET":"中正路","SECT":" ","MAREA":" ","LANE":" ","ALLEY":" ","HOUSE_NO":"４７３號","E_COORD97":180048.89000000001,"N_COORD97":2580446.2999999998,"ADDRESS":"中正路４７３號","OBJECTID":11301},"geometry":{"x":180048.88999999966,"y":2580446.3000000026}},{"attributes":{"ID":11302,"DIS_CODE":0,"TOWNNAME":"仁德區","LI":"一甲里","LIN":"20鄰","STREET":"太乙六街","SECT":" ","MAREA":" ","LANE":" ","ALLEY":" ","HOUSE_NO":"７６號","E_COORD97":173184.66,"N_COORD97":2542245.75,"ADDRESS":"太乙六街７６號","OBJECTID":11302},"geometry":{"x":173184.66000000108,"y":2542245.7499999981}},{"attributes":{"ID":11303,"DIS_CODE":0,"TOWNNAME":"仁德區","LI":"上崙里","LIN":"20鄰","STREET":"上崙街","SECT":" ","MAREA":" ","LANE":" ","ALLEY":" ","HOUSE_NO":"３４號","E_COORD97":173692.82000000001,"N_COORD97":2538090.2400000002,"ADDRESS":"上崙街３４號","OBJECTID":11303},"geometry":{"x":173692.82000000123,"y":2538090.2400000021}},{"attributes":{"ID":11304,"DIS_CODE":0,"TOWNNAME":"仁德區","LI":"一甲里","LIN":"20鄰","STREET":"太乙六街","SECT":" ","MAREA":" ","LANE":" ","ALLEY":" ","HOUSE_NO":"１００號","E_COORD97":173129.01000000001,"N_COORD97":2542126.25,"ADDRESS":"太乙六街１００號","OBJECTID":11304},"geometry":{"x":173129.01000000164,"y":2542126.25}},{"attributes":{"ID":11305,"DIS_CODE":0,"TOWNNAME":"東區","LI":"仁和里","LIN":"13鄰","STREET":"仁和路","SECT":" ","MAREA":" ","LANE":"１３９巷","ALLEY":"５１弄","HOUSE_NO":"４５號之１７","E_COORD97":171675.87,"N_COORD97":2541235.71,"ADDRESS":"仁和路１３９巷５１弄４５號之１７","OBJECTID":11305},"geometry":{"x":171675.87000000197,"y":2541235.7100000009}},{"attributes":{"ID":11306,"DIS_CODE":0,"TOWNNAME":"歸仁區","LI":"武東里","LIN":"13鄰","STREET":" ","SECT":" ","MAREA":"明德新村","LANE":" ","ALLEY":" ","HOUSE_NO":"２０１號","E_COORD97":175071.64000000001,"N_COORD97":2536116.27,"ADDRESS":"明德新村２０１號","OBJECTID":11306},"geometry":{"x":175071.63999999966,"y":2536116.2700000014}},{"attributes":{"ID":11307,"DIS_CODE":0,"TOWNNAME":"七股區","LI":"?榔里","LIN":"7鄰","STREET":" ","SECT":" ","MAREA":"?榔","LANE":" ","ALLEY":" ","HOUSE_NO":"６１號之７","E_COORD97":162269.29999999999,"N_COORD97":2555261.8399999999,"ADDRESS":"?榔６１號之７","OBJECTID":11307},"geometry":{"x":162269.29999999888,"y":2555261.8400000017}},{"attributes":{"ID":11308,"DIS_CODE":0,"TOWNNAME":"東區","LI":"仁和里","LIN":"13鄰","STREET":"仁和路","SECT":" ","MAREA":" ","LANE":"１３９巷","ALLEY":"５１弄","HOUSE_NO":"４５號之１８","E_COORD97":171675.29999999999,"N_COORD97":2541241.7400000002,"ADDRESS":"仁和路１３９巷５１弄４５號之１８","OBJECTID":11308},"geometry":{"x":171675.29999999981,"y":2541241.7400000002}},{"attributes":{"ID":11309,"DIS_CODE":0,"TOWNNAME":"東區","LI":"仁和里","LIN":"13鄰","STREET":"仁和路","SECT":" ","MAREA":" ","LANE":"１３９巷","ALLEY":"５１弄","HOUSE_NO":"４５號之１９","E_COORD97":171675.01000000001,"N_COORD97":2541246.6299999999,"ADDRESS":"仁和路１３９巷５１弄４５號之１９","OBJECTID":11309},"geometry":{"x":171675.01000000071,"y":2541246.6300000008}},{"attributes":{"ID":11310,"DIS_CODE":0,"TOWNNAME":"七股區","LI":"?榔里","LIN":"7鄰","STREET":" ","SECT":" ","MAREA":"?榔","LANE":" ","ALLEY":" ","HOUSE_NO":"６０號","E_COORD97":162304.57999999999,"N_COORD97":2555266.75,"ADDRESS":"?榔６０號","OBJECTID":11310},"geometry":{"x":162304.58000000007,"y":2555266.75}},{"attributes":{"ID":11311,"DIS_CODE":0,"TOWNNAME":"七股區","LI":"?榔里","LIN":"7鄰","STREET":" ","SECT":" ","MAREA":"?榔","LANE":" ","ALLEY":" ","HOUSE_NO":"６１號之１０","E_COORD97":162266.32999999999,"N_COORD97":2555273.1899999999,"ADDRESS":"?榔６１號之１０","OBJECTID":11311},"geometry":{"x":162266.33000000101,"y":2555273.1900000013}},{"attributes":{"ID":11312,"DIS_CODE":0,"TOWNNAME":"七股區","LI":"?榔里","LIN":"7鄰","STREET":" ","SECT":" ","MAREA":"?榔","LANE":" ","ALLEY":" ","HOUSE_NO":"６１號之１１","E_COORD97":162247.67000000001,"N_COORD97":2555236.4100000001,"ADDRESS":"?榔６１號之１１","OBJECTID":11312},"geometry":{"x":162247.66999999993,"y":2555236.4100000001}},{"attributes":{"ID":11313,"DIS_CODE":0,"TOWNNAME":"東區","LI":"仁和里","LIN":"13鄰","STREET":"仁和路","SECT":" ","MAREA":" ","LANE":"１３９巷","ALLEY":"５１弄","HOUSE_NO":"４５號之２１","E_COORD97":171680.76999999999,"N_COORD97":2541267.9100000001,"ADDRESS":"仁和路１３９巷５１弄４５號之２１","OBJECTID":11313},"geometry":{"x":171680.76999999955,"y":2541267.9100000001}},{"attributes":{"ID":11314,"DIS_CODE":0,"TOWNNAME":"七股區","LI":"?榔里","LIN":"7鄰","STREET":" ","SECT":" ","MAREA":"?榔","LANE":" ","ALLEY":" ","HOUSE_NO":"６１號之１２","E_COORD97":162251.97,"N_COORD97":2555237.3599999999,"ADDRESS":"?榔６１號之１２","OBJECTID":11314},"geometry":{"x":162251.97000000067,"y":2555237.3600000013}},{"attributes":{"ID":11315,"DIS_CODE":0,"TOWNNAME":"七股區","LI":"?榔里","LIN":"7鄰","STREET":" ","SECT":" ","MAREA":"?榔","LANE":" ","ALLEY":" ","HOUSE_NO":"６１號之１３","E_COORD97":162256.09,"N_COORD97":2555238.0800000001,"ADDRESS":"?榔６１號之１３","OBJECTID":11315},"geometry":{"x":162256.09000000078,"y":2555238.0800000001}},{"attributes":{"ID":11316,"DIS_CODE":0,"TOWNNAME":"七股區","LI":"?榔里","LIN":"7鄰","STREET":" ","SECT":" ","MAREA":"?榔","LANE":" ","ALLEY":" ","HOUSE_NO":"６１號之１４","E_COORD97":162260.39999999999,"N_COORD97":2555239.1200000001,"ADDRESS":"?榔６１號之１４","OBJECTID":11316},"geometry":{"x":162260.40000000037,"y":2555239.120000001}},{"attributes":{"ID":11317,"DIS_CODE":0,"TOWNNAME":"東區","LI":"仁和里","LIN":"13鄰","STREET":"仁和路","SECT":" ","MAREA":" ","LANE":"１３９巷","ALLEY":"５１弄","HOUSE_NO":"４５號之２４","E_COORD97":171668.67999999999,"N_COORD97":2541265.6099999999,"ADDRESS":"仁和路１３９巷５１弄４５號之２４","OBJECTID":11317},"geometry":{"x":171668.68000000063,"y":2541265.6099999994}},{"attributes":{"ID":11318,"DIS_CODE":0,"TOWNNAME":"東區","LI":"仁和里","LIN":"13鄰","STREET":"仁和路","SECT":" ","MAREA":" ","LANE":"１３９巷","ALLEY":"５１弄","HOUSE_NO":"４５號之２５","E_COORD97":171664.07000000001,"N_COORD97":2541264.1699999999,"ADDRESS":"仁和路１３９巷５１弄４５號之２５","OBJECTID":11318},"geometry":{"x":171664.0700000003,"y":2541264.1700000018}},{"attributes":{"ID":11319,"DIS_CODE":0,"TOWNNAME":"永康區","LI":"尚頂里","LIN":"13鄰","STREET":"正南一街","SECT":" ","MAREA":" ","LANE":"１０７巷","ALLEY":"１３弄","HOUSE_NO":"９號","E_COORD97":170957.84,"N_COORD97":2547137.75,"ADDRESS":"正南一街１０７巷１３弄９號","OBJECTID":11319},"geometry":{"x":170957.84000000078,"y":2547137.75}},{"attributes":{"ID":11320,"DIS_CODE":0,"TOWNNAME":"永康區","LI":"西灣里","LIN":"13鄰","STREET":"民族路","SECT":" ","MAREA":" ","LANE":"４６５巷","ALLEY":"１２弄","HOUSE_NO":"１號","E_COORD97":174613.82000000001,"N_COORD97":2545356.9500000002,"ADDRESS":"民族路４６５巷１２弄１號","OBJECTID":11320},"geometry":{"x":174613.8200000003,"y":2545356.9500000011}},{"attributes":{"ID":11321,"DIS_CODE":0,"TOWNNAME":"永康區","LI":"尚頂里","LIN":"13鄰","STREET":"正南一街","SECT":" ","MAREA":" ","LANE":"１０７巷","ALLEY":"１３弄","HOUSE_NO":"２０號","E_COORD97":170964.37,"N_COORD97":2547109.7400000002,"ADDRESS":"正南一街１０７巷１３弄２０號","OBJECTID":11321},"geometry":{"x":170964.37000000104,"y":2547109.7400000021}},{"attributes":{"ID":11322,"DIS_CODE":0,"TOWNNAME":"永康區","LI":"尚頂里","LIN":"13鄰","STREET":"正南一街","SECT":" ","MAREA":" ","LANE":"１０７巷","ALLEY":"１３弄","HOUSE_NO":"１號","E_COORD97":170929.32999999999,"N_COORD97":2547161.5,"ADDRESS":"正南一街１０７巷１３弄１號","OBJECTID":11322},"geometry":{"x":170929.33000000101,"y":2547161.5000000019}},{"attributes":{"ID":11323,"DIS_CODE":0,"TOWNNAME":"永康區","LI":"尚頂里","LIN":"13鄰","STREET":"正南一街","SECT":" ","MAREA":" ","LANE":"１０７巷","ALLEY":"１３弄","HOUSE_NO":"２３號","E_COORD97":171001.92999999999,"N_COORD97":2547101.4900000002,"ADDRESS":"正南一街１０７巷１３弄２３號","OBJECTID":11323},"geometry":{"x":171001.92999999877,"y":2547101.4900000002}},{"attributes":{"ID":11324,"DIS_CODE":0,"TOWNNAME":"永康區","LI":"尚頂里","LIN":"13鄰","STREET":"正南一街","SECT":" ","MAREA":" ","LANE":"１０７巷","ALLEY":"１３弄","HOUSE_NO":"２１號","E_COORD97":170995.94,"N_COORD97":2547106.9900000002,"ADDRESS":"正南一街１０７巷１３弄２１號","OBJECTID":11324},"geometry":{"x":170995.94000000227,"y":2547106.9900000021}},{"attributes":{"ID":11325,"DIS_CODE":0,"TOWNNAME":"歸仁區","LI":"八甲里","LIN":"13鄰","STREET":"大明二街","SECT":" ","MAREA":" ","LANE":" ","ALLEY":" ","HOUSE_NO":"１０號","E_COORD97":178067.92000000001,"N_COORD97":2541872.6099999999,"ADDRESS":"大明二街１０號","OBJECTID":11325},"geometry":{"x":178067.92000000179,"y":2541872.6099999994}},{"attributes":{"ID":11326,"DIS_CODE":0,"TOWNNAME":"歸仁區","LI":"大潭里","LIN":"13鄰","STREET":"長榮路","SECT":"一段","MAREA":" ","LANE":" ","ALLEY":" ","HOUSE_NO":"７５號","E_COORD97":174826.92000000001,"N_COORD97":2534545.2799999998,"ADDRESS":"長榮路一段７５號","OBJECTID":11326},"geometry":{"x":174826.92000000086,"y":2534545.2799999975}},{"attributes":{"ID":11327,"DIS_CODE":0,"TOWNNAME":"歸仁區","LI":"大廟里","LIN":"13鄰","STREET":"大廟六街","SECT":" ","MAREA":" ","LANE":" ","ALLEY":" ","HOUSE_NO":"１００號","E_COORD97":176160.92000000001,"N_COORD97":2544252.25,"ADDRESS":"大廟六街１００號","OBJECTID":11327},"geometry":{"x":176160.92000000179,"y":2544252.25}},{"attributes":{"ID":11328,"DIS_CODE":0,"TOWNNAME":"歸仁區","LI":"八甲里","LIN":"13鄰","STREET":"大明街","SECT":" ","MAREA":" ","LANE":" ","ALLEY":" ","HOUSE_NO":"８７號","E_COORD97":177959.07000000001,"N_COORD97":2541892.6099999999,"ADDRESS":"大明街８７號","OBJECTID":11328},"geometry":{"x":177959.07000000123,"y":2541892.6099999994}},{"attributes":{"ID":11329,"DIS_CODE":0,"TOWNNAME":"歸仁區","LI":"七甲里","LIN":"13鄰","STREET":"南丁路","SECT":" ","MAREA":" ","LANE":" ","ALLEY":" ","HOUSE_NO":"４８６號","E_COORD97":176063.69,"N_COORD97":2542876.25,"ADDRESS":"南丁路４８６號","OBJECTID":11329},"geometry":{"x":176063.69000000134,"y":2542876.25}},{"attributes":{"ID":11330,"DIS_CODE":0,"TOWNNAME":"歸仁區","LI":"八甲里","LIN":"13鄰","STREET":"大明街","SECT":" ","MAREA":" ","LANE":" ","ALLEY":" ","HOUSE_NO":"８９號","E_COORD97":177964.17000000001,"N_COORD97":2541891.6099999999,"ADDRESS":"大明街８９號","OBJECTID":11330},"geometry":{"x":177964.16999999993,"y":2541891.6100000013}},{"attributes":{"ID":11331,"DIS_CODE":0,"TOWNNAME":"歸仁區","LI":"八甲里","LIN":"13鄰","STREET":"大明街","SECT":" ","MAREA":" ","LANE":" ","ALLEY":" ","HOUSE_NO":"１１１號","E_COORD97":178051.42000000001,"N_COORD97":2541855.6099999999,"ADDRESS":"大明街１１１號","OBJECTID":11331},"geometry":{"x":178051.42000000086,"y":2541855.6099999994}},{"attributes":{"ID":11332,"DIS_CODE":0,"TOWNNAME":"歸仁區","LI":"七甲里","LIN":"13鄰","STREET":"南丁路","SECT":" ","MAREA":" ","LANE":" ","ALLEY":" ","HOUSE_NO":"４０１號","E_COORD97":176050.81,"N_COORD97":2542608.25,"ADDRESS":"南丁路４０１號","OBJECTID":11332},"geometry":{"x":176050.80999999959,"y":2542608.25}},{"attributes":{"ID":11333,"DIS_CODE":0,"TOWNNAME":"歸仁區","LI":"七甲里","LIN":"13鄰","STREET":"南丁路","SECT":" ","MAREA":" ","LANE":" ","ALLEY":" ","HOUSE_NO":"４７０號","E_COORD97":176066.48999999999,"N_COORD97":2542816.25,"ADDRESS":"南丁路４７０號","OBJECTID":11333},"geometry":{"x":176066.49000000115,"y":2542816.2500000019}},{"attributes":{"ID":11334,"DIS_CODE":0,"TOWNNAME":"七股區","LI":"?榔里","LIN":"7鄰","STREET":" ","SECT":" ","MAREA":"?榔","LANE":" ","ALLEY":" ","HOUSE_NO":"６１號之１５","E_COORD97":162249.42999999999,"N_COORD97":2555251.9199999999,"ADDRESS":"?榔６１號之１５","OBJECTID":11334},"geometry":{"x":162249.4299999997,"y":2555251.9200000018}},{"attributes":{"ID":11335,"DIS_CODE":0,"TOWNNAME":"永康區","LI":"尚頂里","LIN":"13鄰","STREET":"正南一街","SECT":" ","MAREA":" ","LANE":"１０７巷","ALLEY":"１３弄","HOUSE_NO":"１８號","E_COORD97":170957.75,"N_COORD97":2547115.2400000002,"ADDRESS":"正南一街１０７巷１３弄１８號","OBJECTID":11335},"geometry":{"x":170957.75000000186,"y":2547115.2400000021}},{"attributes":{"ID":11336,"DIS_CODE":0,"TOWNNAME":"永康區","LI":"尚頂里","LIN":"13鄰","STREET":"正南一街","SECT":" ","MAREA":" ","LANE":"１０７巷","ALLEY":"１３弄","HOUSE_NO":"１５號","E_COORD97":170977.37,"N_COORD97":2547121.9900000002,"ADDRESS":"正南一街１０７巷１３弄１５號","OBJECTID":11336},"geometry":{"x":170977.36999999918,"y":2547121.9900000002}},{"attributes":{"ID":11337,"DIS_CODE":0,"TOWNNAME":"永康區","LI":"尚頂里","LIN":"13鄰","STREET":"正南一街","SECT":" ","MAREA":" ","LANE":"１０７巷","ALLEY":"１３弄","HOUSE_NO":"８號","E_COORD97":170936.42000000001,"N_COORD97":2547132.75,"ADDRESS":"正南一街１０７巷１３弄８號","OBJECTID":11337},"geometry":{"x":170936.42000000086,"y":2547132.7500000019}},{"attributes":{"ID":11338,"DIS_CODE":0,"TOWNNAME":"北區","LI":"六甲里","LIN":"13鄰","STREET":"和緯路","SECT":"二段","MAREA":" ","LANE":" ","ALLEY":" ","HOUSE_NO":"５３號","E_COORD97":168968.14000000001,"N_COORD97":2545726.02,"ADDRESS":"和緯路二段５３號","OBJECTID":11338},"geometry":{"x":168968.14000000153,"y":2545726.0200000014}},{"attributes":{"ID":11339,"DIS_CODE":0,"TOWNNAME":"北區","LI":"六甲里","LIN":"13鄰","STREET":"和緯路","SECT":"二段","MAREA":" ","LANE":" ","ALLEY":" ","HOUSE_NO":"５５號","E_COORD97":168961.01000000001,"N_COORD97":2545728.1099999999,"ADDRESS":"和緯路二段５５號","OBJECTID":11339},"geometry":{"x":168961.01000000071,"y":2545728.1100000031}},{"attributes":{"ID":11340,"DIS_CODE":0,"TOWNNAME":"柳營區","LI":"光福里","LIN":"13鄰","STREET":" ","SECT":" ","MAREA":"柳營","LANE":" ","ALLEY":" ","HOUSE_NO":"２５６號","E_COORD97":179674.29999999999,"N_COORD97":2575311.8700000001,"ADDRESS":"柳營２５６號","OBJECTID":11340},"geometry":{"x":179674.30000000075,"y":2575311.870000001}},{"attributes":{"ID":11341,"DIS_CODE":0,"TOWNNAME":"柳營區","LI":"東昇里","LIN":"13鄰","STREET":" ","SECT":" ","MAREA":"柳營","LANE":" ","ALLEY":" ","HOUSE_NO":"４７１之２０號","E_COORD97":180335.44,"N_COORD97":2575111.9900000002,"ADDRESS":"柳營４７１之２０號","OBJECTID":11341},"geometry":{"x":180335.44000000134,"y":2575111.9900000021}},{"attributes":{"ID":11342,"DIS_CODE":0,"TOWNNAME":"柳營區","LI":"東昇里","LIN":"13鄰","STREET":" ","SECT":" ","MAREA":"柳營","LANE":" ","ALLEY":" ","HOUSE_NO":"４７１之２１號","E_COORD97":180335.20000000001,"N_COORD97":2575107.6200000001,"ADDRESS":"柳營４７１之２１號","OBJECTID":11342},"geometry":{"x":180335.20000000112,"y":2575107.6200000048}},{"attributes":{"ID":11343,"DIS_CODE":0,"TOWNNAME":"柳營區","LI":"東昇里","LIN":"13鄰","STREET":" ","SECT":" ","MAREA":"柳營","LANE":" ","ALLEY":" ","HOUSE_NO":"４７１之２２號","E_COORD97":180334.97,"N_COORD97":2575103.25,"ADDRESS":"柳營４７１之２２號","OBJECTID":11343},"geometry":{"x":180334.96999999974,"y":2575103.2500000019}},{"attributes":{"ID":11344,"DIS_CODE":0,"TOWNNAME":"柳營區","LI":"東昇里","LIN":"13鄰","STREET":" ","SECT":" ","MAREA":"柳營","LANE":" ","ALLEY":" ","HOUSE_NO":"４７１之２３號","E_COORD97":180334.73000000001,"N_COORD97":2575098.8799999999,"ADDRESS":"柳營４７１之２３號","OBJECTID":11344},"geometry":{"x":180334.73000000138,"y":2575098.879999999}},{"attributes":{"ID":11345,"DIS_CODE":0,"TOWNNAME":"柳營區","LI":"東昇里","LIN":"13鄰","STREET":" ","SECT":" ","MAREA":"柳營","LANE":" ","ALLEY":" ","HOUSE_NO":"４７１之２４號","E_COORD97":180310.60000000001,"N_COORD97":2575099.7599999998,"ADDRESS":"柳營４７１之２４號","OBJECTID":11345},"geometry":{"x":180310.59999999963,"y":2575099.7600000016}},{"attributes":{"ID":11346,"DIS_CODE":0,"TOWNNAME":"柳營區","LI":"東昇里","LIN":"13鄰","STREET":" ","SECT":" ","MAREA":"柳營","LANE":" ","ALLEY":" ","HOUSE_NO":"４７１之２５號","E_COORD97":180310.72,"N_COORD97":2575104.0800000001,"ADDRESS":"柳營４７１之２５號","OBJECTID":11346},"geometry":{"x":180310.72000000067,"y":2575104.0800000019}},{"attributes":{"ID":11347,"DIS_CODE":0,"TOWNNAME":"柳營區","LI":"東昇里","LIN":"13鄰","STREET":" ","SECT":" ","MAREA":"柳營","LANE":" ","ALLEY":" ","HOUSE_NO":"４７１之２６號","E_COORD97":180310.42999999999,"N_COORD97":2575108.3399999999,"ADDRESS":"柳營４７１之２６號","OBJECTID":11347},"geometry":{"x":180310.43000000156,"y":2575108.3400000036}},{"attributes":{"ID":11348,"DIS_CODE":0,"TOWNNAME":"柳營區","LI":"東昇里","LIN":"13鄰","STREET":" ","SECT":" ","MAREA":"柳營","LANE":" ","ALLEY":" ","HOUSE_NO":"４７１之２７號","E_COORD97":180310.35000000001,"N_COORD97":2575112.6200000001,"ADDRESS":"柳營４７１之２７號","OBJECTID":11348},"geometry":{"x":180310.34999999963,"y":2575112.620000001}},{"attributes":{"ID":11349,"DIS_CODE":0,"TOWNNAME":"柳營區","LI":"東昇里","LIN":"13鄰","STREET":" ","SECT":" ","MAREA":"柳營","LANE":" ","ALLEY":" ","HOUSE_NO":"４７１號之２７","E_COORD97":180310.35000000001,"N_COORD97":2575112.6200000001,"ADDRESS":"柳營４７１號之２７","OBJECTID":11349},"geometry":{"x":180310.34999999963,"y":2575112.620000001}},{"attributes":{"ID":11350,"DIS_CODE":0,"TOWNNAME":"柳營區","LI":"東昇里","LIN":"13鄰","STREET":" ","SECT":" ","MAREA":"柳營","LANE":" ","ALLEY":" ","HOUSE_NO":"４７９之１５號","E_COORD97":180352.85000000001,"N_COORD97":2575092.48,"ADDRESS":"柳營４７９之１５號","OBJECTID":11350},"geometry":{"x":180352.84999999963,"y":2575092.4800000023}},{"attributes":{"ID":11351,"DIS_CODE":0,"TOWNNAME":"七股區","LI":"?榔里","LIN":"7鄰","STREET":" ","SECT":" ","MAREA":"?榔","LANE":" ","ALLEY":" ","HOUSE_NO":"６１號之１６","E_COORD97":162249.95000000001,"N_COORD97":2555257.7000000002,"ADDRESS":"?榔６１號之１６","OBJECTID":11351},"geometry":{"x":162249.95000000019,"y":2555257.700000003}},{"attributes":{"ID":11352,"DIS_CODE":0,"TOWNNAME":"七股區","LI":"?榔里","LIN":"7鄰","STREET":" ","SECT":" ","MAREA":"?榔","LANE":" ","ALLEY":" ","HOUSE_NO":"６１號之１","E_COORD97":162274.91,"N_COORD97":2555238.02,"ADDRESS":"?榔６１號之１","OBJECTID":11352},"geometry":{"x":162274.91000000108,"y":2555238.0199999996}},{"attributes":{"ID":11353,"DIS_CODE":0,"TOWNNAME":"七股區","LI":"?榔里","LIN":"7鄰","STREET":" ","SECT":" ","MAREA":"?榔","LANE":" ","ALLEY":" ","HOUSE_NO":"６１號之２","E_COORD97":162273.97,"N_COORD97":2555241.9900000002,"ADDRESS":"?榔６１號之２","OBJECTID":11353},"geometry":{"x":162273.97000000067,"y":2555241.9900000002}},{"attributes":{"ID":11354,"DIS_CODE":0,"TOWNNAME":"柳營區","LI":"光福里","LIN":"13鄰","STREET":"柳營路","SECT":"二段","MAREA":" ","LANE":" ","ALLEY":" ","HOUSE_NO":"１０６號","E_COORD97":179627.48000000001,"N_COORD97":2575332.3399999999,"ADDRESS":"柳營路二段１０６號","OBJECTID":11354},"geometry":{"x":179627.48000000045,"y":2575332.3400000017}},{"attributes":{"ID":11355,"DIS_CODE":0,"TOWNNAME":"柳營區","LI":"光福里","LIN":"13鄰","STREET":"柳營路","SECT":"二段","MAREA":" ","LANE":" ","ALLEY":" ","HOUSE_NO":"１１０號","E_COORD97":179624.22,"N_COORD97":2575345.9399999999,"ADDRESS":"柳營路二段１１０號","OBJECTID":11355},"geometry":{"x":179624.22000000067,"y":2575345.9400000013}},{"attributes":{"ID":11356,"DIS_CODE":0,"TOWNNAME":"柳營區","LI":"光福里","LIN":"13鄰","STREET":"柳營路","SECT":"二段","MAREA":" ","LANE":" ","ALLEY":" ","HOUSE_NO":"１２２號","E_COORD97":179616.91,"N_COORD97":2575364.0899999999,"ADDRESS":"柳營路二段１２２號","OBJECTID":11356},"geometry":{"x":179616.91000000015,"y":2575364.0900000036}},{"attributes":{"ID":11357,"DIS_CODE":0,"TOWNNAME":"柳營區","LI":"人和里","LIN":"13鄰","STREET":" ","SECT":" ","MAREA":"橋南","LANE":" ","ALLEY":" ","HOUSE_NO":"２１５之１號","E_COORD97":179451.72,"N_COORD97":2576658.4900000002,"ADDRESS":"橋南２１５之１號","OBJECTID":11357},"geometry":{"x":179451.71999999974,"y":2576658.4900000021}},{"attributes":{"ID":11358,"DIS_CODE":0,"TOWNNAME":"柳營區","LI":"人和里","LIN":"13鄰","STREET":" ","SECT":" ","MAREA":"橋南","LANE":" ","ALLEY":" ","HOUSE_NO":"２１５號之２","E_COORD97":179468.32000000001,"N_COORD97":2576615.5600000001,"ADDRESS":"橋南２１５號之２","OBJECTID":11358},"geometry":{"x":179468.32000000123,"y":2576615.5600000005}},{"attributes":{"ID":11359,"DIS_CODE":0,"TOWNNAME":"柳營區","LI":"人和里","LIN":"13鄰","STREET":" ","SECT":" ","MAREA":"橋南","LANE":" ","ALLEY":" ","HOUSE_NO":"２１５之５號","E_COORD97":179417.31,"N_COORD97":2576675.1699999999,"ADDRESS":"橋南２１５之５號","OBJECTID":11359},"geometry":{"x":179417.30999999959,"y":2576675.1699999999}},{"attributes":{"ID":11360,"DIS_CODE":0,"TOWNNAME":"柳營區","LI":"人和里","LIN":"13鄰","STREET":" ","SECT":" ","MAREA":"橋南","LANE":" ","ALLEY":" ","HOUSE_NO":"２１５號之５","E_COORD97":179417.31,"N_COORD97":2576675.1699999999,"ADDRESS":"橋南２１５號之５","OBJECTID":11360},"geometry":{"x":179417.30999999959,"y":2576675.1699999999}},{"attributes":{"ID":11361,"DIS_CODE":0,"TOWNNAME":"柳營區","LI":"人和里","LIN":"13鄰","STREET":" ","SECT":" ","MAREA":"橋南","LANE":" ","ALLEY":" ","HOUSE_NO":"２１５之６號","E_COORD97":179416.23000000001,"N_COORD97":2576720.0099999998,"ADDRESS":"橋南２１５之６號","OBJECTID":11361},"geometry":{"x":179416.23000000138,"y":2576720.0099999998}},{"attributes":{"ID":11362,"DIS_CODE":0,"TOWNNAME":"柳營區","LI":"人和里","LIN":"13鄰","STREET":" ","SECT":" ","MAREA":"橋南","LANE":" ","ALLEY":" ","HOUSE_NO":"２１５之７號","E_COORD97":179398.19,"N_COORD97":2576618.71,"ADDRESS":"橋南２１５之７號","OBJECTID":11362},"geometry":{"x":179398.19000000041,"y":2576618.709999999}},{"attributes":{"ID":11363,"DIS_CODE":0,"TOWNNAME":"柳營區","LI":"人和里","LIN":"13鄰","STREET":" ","SECT":" ","MAREA":"橋南","LANE":" ","ALLEY":" ","HOUSE_NO":"２１５號","E_COORD97":179437.03,"N_COORD97":2576621.8799999999,"ADDRESS":"橋南２１５號","OBJECTID":11363},"geometry":{"x":179437.03000000026,"y":2576621.879999999}},{"attributes":{"ID":11364,"DIS_CODE":0,"TOWNNAME":"柳營區","LI":"人和里","LIN":"13鄰","STREET":" ","SECT":" ","MAREA":"橋南","LANE":" ","ALLEY":" ","HOUSE_NO":"２１６之３號","E_COORD97":179441.54999999999,"N_COORD97":2576594.5299999998,"ADDRESS":"橋南２１６之３號","OBJECTID":11364},"geometry":{"x":179441.54999999981,"y":2576594.5299999975}},{"attributes":{"ID":11365,"DIS_CODE":0,"TOWNNAME":"柳營區","LI":"人和里","LIN":"13鄰","STREET":" ","SECT":" ","MAREA":"橋南","LANE":" ","ALLEY":" ","HOUSE_NO":"２１６號","E_COORD97":179473.20000000001,"N_COORD97":2576584.5899999999,"ADDRESS":"橋南２１６號","OBJECTID":11365},"geometry":{"x":179473.19999999925,"y":2576584.5900000036}},{"attributes":{"ID":11366,"DIS_CODE":0,"TOWNNAME":"柳營區","LI":"人和里","LIN":"13鄰","STREET":" ","SECT":" ","MAREA":"橋南","LANE":" ","ALLEY":" ","HOUSE_NO":"２１７之１５號","E_COORD97":179534.06,"N_COORD97":2576489.6600000001,"ADDRESS":"橋南２１７之１５號","OBJECTID":11366},"geometry":{"x":179534.05999999959,"y":2576489.6600000039}},{"attributes":{"ID":11367,"DIS_CODE":0,"TOWNNAME":"柳營區","LI":"人和里","LIN":"13鄰","STREET":" ","SECT":" ","MAREA":"橋南","LANE":" ","ALLEY":" ","HOUSE_NO":"２１７之１８號","E_COORD97":179527.42000000001,"N_COORD97":2576368.7400000002,"ADDRESS":"橋南２１７之１８號","OBJECTID":11367},"geometry":{"x":179527.42000000179,"y":2576368.7400000021}},{"attributes":{"ID":11368,"DIS_CODE":0,"TOWNNAME":"柳營區","LI":"人和里","LIN":"13鄰","STREET":" ","SECT":" ","MAREA":"橋南","LANE":" ","ALLEY":" ","HOUSE_NO":"２１７號之１８","E_COORD97":179527.42000000001,"N_COORD97":2576368.7400000002,"ADDRESS":"橋南２１７號之１８","OBJECTID":11368},"geometry":{"x":179527.42000000179,"y":2576368.7400000021}},{"attributes":{"ID":11369,"DIS_CODE":0,"TOWNNAME":"柳營區","LI":"人和里","LIN":"13鄰","STREET":" ","SECT":" ","MAREA":"橋南","LANE":" ","ALLEY":" ","HOUSE_NO":"２１７之２０號","E_COORD97":179502.01999999999,"N_COORD97":2576350.1600000001,"ADDRESS":"橋南２１７之２０號","OBJECTID":11369},"geometry":{"x":179502.01999999955,"y":2576350.1600000001}},{"attributes":{"ID":11370,"DIS_CODE":0,"TOWNNAME":"七股區","LI":"?榔里","LIN":"7鄰","STREET":" ","SECT":" ","MAREA":"?榔","LANE":" ","ALLEY":" ","HOUSE_NO":"６１號之３","E_COORD97":162273.04000000001,"N_COORD97":2555245.96,"ADDRESS":"?榔６１號之３","OBJECTID":11370},"geometry":{"x":162273.03999999911,"y":2555245.9600000009}},{"attributes":{"ID":11371,"DIS_CODE":0,"TOWNNAME":"七股區","LI":"?榔里","LIN":"7鄰","STREET":" ","SECT":" ","MAREA":"?榔","LANE":" ","ALLEY":" ","HOUSE_NO":"６１號之４","E_COORD97":162272.10000000001,"N_COORD97":2555249.9300000002,"ADDRESS":"?榔６１號之４","OBJECTID":11371},"geometry":{"x":162272.09999999963,"y":2555249.9300000034}},{"attributes":{"ID":11372,"DIS_CODE":0,"TOWNNAME":"七股區","LI":"?榔里","LIN":"7鄰","STREET":" ","SECT":" ","MAREA":"?榔","LANE":" ","ALLEY":" ","HOUSE_NO":"６１號之５","E_COORD97":162271.17000000001,"N_COORD97":2555253.8999999999,"ADDRESS":"?榔６１號之５","OBJECTID":11372},"geometry":{"x":162271.17000000086,"y":2555253.9000000004}},{"attributes":{"ID":11373,"DIS_CODE":0,"TOWNNAME":"七股區","LI":"?榔里","LIN":"7鄰","STREET":" ","SECT":" ","MAREA":"?榔","LANE":" ","ALLEY":" ","HOUSE_NO":"６１號之６","E_COORD97":162270.23999999999,"N_COORD97":2555257.8700000001,"ADDRESS":"?榔６１號之６","OBJECTID":11373},"geometry":{"x":162270.24000000209,"y":2555257.870000001}},{"attributes":{"ID":11374,"DIS_CODE":0,"TOWNNAME":"七股區","LI":"?榔里","LIN":"7鄰","STREET":" ","SECT":" ","MAREA":"?榔","LANE":" ","ALLEY":" ","HOUSE_NO":"６１號之８","E_COORD97":162268.37,"N_COORD97":2555265.8100000001,"ADDRESS":"?榔６１號之８","OBJECTID":11374},"geometry":{"x":162268.37000000104,"y":2555265.8100000024}},{"attributes":{"ID":11375,"DIS_CODE":0,"TOWNNAME":"七股區","LI":"?榔里","LIN":"7鄰","STREET":" ","SECT":" ","MAREA":"?榔","LANE":" ","ALLEY":" ","HOUSE_NO":"６１號之９","E_COORD97":162267.35999999999,"N_COORD97":2555268.9300000002,"ADDRESS":"?榔６１號之９","OBJECTID":11375},"geometry":{"x":162267.36000000034,"y":2555268.9299999997}},{"attributes":{"ID":11376,"DIS_CODE":0,"TOWNNAME":"七股區","LI":"?榔里","LIN":"7鄰","STREET":" ","SECT":" ","MAREA":"?榔","LANE":" ","ALLEY":" ","HOUSE_NO":"６１號","E_COORD97":162287.84,"N_COORD97":2555253.4399999999,"ADDRESS":"?榔６１號","OBJECTID":11376},"geometry":{"x":162287.84000000171,"y":2555253.4400000013}},{"attributes":{"ID":11377,"DIS_CODE":0,"TOWNNAME":"安平區","LI":"文平里","LIN":"15鄰","STREET":"建平五街","SECT":" ","MAREA":" ","LANE":" ","ALLEY":" ","HOUSE_NO":"５９號之４","E_COORD97":165989.5061,"N_COORD97":2543119.0753500001,"ADDRESS":"建平五街５９號之４","OBJECTID":11377},"geometry":{"x":165989.50609999988,"y":2543119.0753500015}},{"attributes":{"ID":11378,"DIS_CODE":0,"TOWNNAME":"柳營區","LI":"東昇里","LIN":"13鄰","STREET":"康樂街","SECT":" ","MAREA":" ","LANE":" ","ALLEY":" ","HOUSE_NO":"６９號","E_COORD97":180370.89999999999,"N_COORD97":2575125.4300000002,"ADDRESS":"康樂街６９號","OBJECTID":11378},"geometry":{"x":180370.9000000013,"y":2575125.4300000016}},{"attributes":{"ID":11379,"DIS_CODE":0,"TOWNNAME":"柳營區","LI":"人和里","LIN":"13鄰","STREET":" ","SECT":" ","MAREA":"橋南","LANE":" ","ALLEY":" ","HOUSE_NO":"２１７號","E_COORD97":179468.37,"N_COORD97":2576542.4900000002,"ADDRESS":"橋南２１７號","OBJECTID":11379},"geometry":{"x":179468.37000000011,"y":2576542.4900000021}},{"attributes":{"ID":11380,"DIS_CODE":0,"TOWNNAME":"柳營區","LI":"人和里","LIN":"13鄰","STREET":" ","SECT":" ","MAREA":"橋南","LANE":" ","ALLEY":" ","HOUSE_NO":"２１８號","E_COORD97":179403.01000000001,"N_COORD97":2576585.1800000002,"ADDRESS":"橋南２１８號","OBJECTID":11380},"geometry":{"x":179403.01000000164,"y":2576585.1800000016}},{"attributes":{"ID":11381,"DIS_CODE":0,"TOWNNAME":"柳營區","LI":"人和里","LIN":"13鄰","STREET":" ","SECT":" ","MAREA":"橋南","LANE":" ","ALLEY":" ","HOUSE_NO":"２１９之１０號","E_COORD97":179353.59,"N_COORD97":2576586.9199999999,"ADDRESS":"橋南２１９之１０號","OBJECTID":11381},"geometry":{"x":179353.59000000078,"y":2576586.9200000018}},{"attributes":{"ID":11382,"DIS_CODE":0,"TOWNNAME":"永康區","LI":"尚頂里","LIN":"13鄰","STREET":"正南一街","SECT":" ","MAREA":" ","LANE":"１０７巷","ALLEY":"１３弄","HOUSE_NO":"１６號","E_COORD97":170952.82000000001,"N_COORD97":2547119.7400000002,"ADDRESS":"正南一街１０７巷１３弄１６號","OBJECTID":11382},"geometry":{"x":170952.82000000123,"y":2547119.7400000021}},{"attributes":{"ID":11383,"DIS_CODE":0,"TOWNNAME":"永康區","LI":"大橋里","LIN":"13鄰","STREET":"大橋二街","SECT":" ","MAREA":" ","LANE":"２３９巷","ALLEY":"２２弄","HOUSE_NO":"２號","E_COORD97":171095.26000000001,"N_COORD97":2546856.5,"ADDRESS":"大橋二街２３９巷２２弄２號","OBJECTID":11383},"geometry":{"x":171095.26000000071,"y":2546856.5000000019}},{"attributes":{"ID":11384,"DIS_CODE":0,"TOWNNAME":"安南區","LI":"溪北里","LIN":"13鄰","STREET":"府安路","SECT":"四段","MAREA":" ","LANE":"３４巷","ALLEY":"４２弄","HOUSE_NO":"１３號","E_COORD97":169369.39999999999,"N_COORD97":2547436.8199999998,"ADDRESS":"府安路四段３４巷４２弄１３號","OBJECTID":11384},"geometry":{"x":169369.4000000013,"y":2547436.8200000022}},{"attributes":{"ID":11385,"DIS_CODE":0,"TOWNNAME":"安南區","LI":"溪北里","LIN":"13鄰","STREET":"府安路","SECT":"四段","MAREA":" ","LANE":"３４巷","ALLEY":"４２弄","HOUSE_NO":"１５號","E_COORD97":169373.34,"N_COORD97":2547439.9100000001,"ADDRESS":"府安路四段３４巷４２弄１５號","OBJECTID":11385},"geometry":{"x":169373.33999999985,"y":2547439.910000002}},{"attributes":{"ID":11386,"DIS_CODE":0,"TOWNNAME":"安南區","LI":"溪北里","LIN":"13鄰","STREET":"府安路","SECT":"四段","MAREA":" ","LANE":"３４巷","ALLEY":"４２弄","HOUSE_NO":"１９號","E_COORD97":169380.37,"N_COORD97":2547443.0899999999,"ADDRESS":"府安路四段３４巷４２弄１９號","OBJECTID":11386},"geometry":{"x":169380.37000000011,"y":2547443.0899999999}},{"attributes":{"ID":11387,"DIS_CODE":0,"TOWNNAME":"安南區","LI":"溪北里","LIN":"13鄰","STREET":"府安路","SECT":"四段","MAREA":" ","LANE":"３４巷","ALLEY":"４２弄","HOUSE_NO":"１號","E_COORD97":169347.5,"N_COORD97":2547426.5600000001,"ADDRESS":"府安路四段３４巷４２弄１號","OBJECTID":11387},"geometry":{"x":169347.50000000186,"y":2547426.5600000024}},{"attributes":{"ID":11388,"DIS_CODE":0,"TOWNNAME":"七股區","LI":"?榔里","LIN":"7鄰","STREET":" ","SECT":" ","MAREA":"?榔","LANE":" ","ALLEY":" ","HOUSE_NO":"６４號之９","E_COORD97":162224.66,"N_COORD97":2555190.54,"ADDRESS":"?榔６４號之９","OBJECTID":11388},"geometry":{"x":162224.66000000015,"y":2555190.5399999991}},{"attributes":{"ID":11389,"DIS_CODE":0,"TOWNNAME":"安南區","LI":"溪北里","LIN":"13鄰","STREET":"府安路","SECT":"四段","MAREA":" ","LANE":"３４巷","ALLEY":"４２弄","HOUSE_NO":"５號","E_COORD97":169355.53,"N_COORD97":2547429.6099999999,"ADDRESS":"府安路四段３４巷４２弄５號","OBJECTID":11389},"geometry":{"x":169355.53000000026,"y":2547429.6099999994}},{"attributes":{"ID":11390,"DIS_CODE":0,"TOWNNAME":"安南區","LI":"溪北里","LIN":"13鄰","STREET":"府安路","SECT":"四段","MAREA":" ","LANE":"３４巷","ALLEY":"４２弄","HOUSE_NO":"７號","E_COORD97":169359.28,"N_COORD97":2547431.1000000001,"ADDRESS":"府安路四段３４巷４２弄７號","OBJECTID":11390},"geometry":{"x":169359.28000000212,"y":2547431.1000000015}},{"attributes":{"ID":11391,"DIS_CODE":0,"TOWNNAME":"安南區","LI":"溪北里","LIN":"13鄰","STREET":"府安路","SECT":"四段","MAREA":" ","LANE":"３４巷","ALLEY":"４２弄","HOUSE_NO":"９號","E_COORD97":169362.09,"N_COORD97":2547432.7000000002,"ADDRESS":"府安路四段３４巷４２弄９號","OBJECTID":11391},"geometry":{"x":169362.09000000078,"y":2547432.700000003}},{"attributes":{"ID":11392,"DIS_CODE":0,"TOWNNAME":"安南區","LI":"溪北里","LIN":"13鄰","STREET":"府安路","SECT":"四段","MAREA":" ","LANE":"９１巷","ALLEY":"２２弄","HOUSE_NO":"１５號","E_COORD97":169166.03,"N_COORD97":2547394.98,"ADDRESS":"府安路四段９１巷２２弄１５號","OBJECTID":11392},"geometry":{"x":169166.03000000212,"y":2547394.9800000042}},{"attributes":{"ID":11393,"DIS_CODE":0,"TOWNNAME":"安南區","LI":"溪北里","LIN":"13鄰","STREET":"府安路","SECT":"四段","MAREA":" ","LANE":"９１巷","ALLEY":"２２弄","HOUSE_NO":"１７號","E_COORD97":169172.60999999999,"N_COORD97":2547395.8599999999,"ADDRESS":"府安路四段９１巷２２弄１７號","OBJECTID":11393},"geometry":{"x":169172.61000000127,"y":2547395.8600000013}},{"attributes":{"ID":11394,"DIS_CODE":0,"TOWNNAME":"柳營區","LI":"人和里","LIN":"13鄰","STREET":" ","SECT":" ","MAREA":"橋南","LANE":" ","ALLEY":" ","HOUSE_NO":"２１９之１號","E_COORD97":179404.34,"N_COORD97":2576595.7000000002,"ADDRESS":"橋南２１９之１號","OBJECTID":11394},"geometry":{"x":179404.34000000078,"y":2576595.6999999993}},{"attributes":{"ID":11395,"DIS_CODE":0,"TOWNNAME":"安南區","LI":"溪北里","LIN":"13鄰","STREET":"府安路","SECT":"四段","MAREA":" ","LANE":"９１巷","ALLEY":"２２弄","HOUSE_NO":"１９號","E_COORD97":169176.07000000001,"N_COORD97":2547396.7200000002,"ADDRESS":"府安路四段９１巷２２弄１９號","OBJECTID":11395},"geometry":{"x":169176.07000000216,"y":2547396.7199999988}},{"attributes":{"ID":11396,"DIS_CODE":0,"TOWNNAME":"安南區","LI":"溪北里","LIN":"13鄰","STREET":"府安路","SECT":"四段","MAREA":" ","LANE":"９１巷","ALLEY":"２２弄","HOUSE_NO":"２１號","E_COORD97":169180.42000000001,"N_COORD97":2547397.5299999998,"ADDRESS":"府安路四段９１巷２２弄２１號","OBJECTID":11396},"geometry":{"x":169180.42000000086,"y":2547397.5300000012}},{"attributes":{"ID":11397,"DIS_CODE":0,"TOWNNAME":"安南區","LI":"溪北里","LIN":"13鄰","STREET":"府安路","SECT":"四段","MAREA":" ","LANE":"９１巷","ALLEY":"２２弄","HOUSE_NO":"２５號","E_COORD97":169188.32999999999,"N_COORD97":2547398.2999999998,"ADDRESS":"府安路四段９１巷２２弄２５號","OBJECTID":11397},"geometry":{"x":169188.33000000101,"y":2547398.3000000007}},{"attributes":{"ID":11398,"DIS_CODE":0,"TOWNNAME":"安南區","LI":"溪北里","LIN":"13鄰","STREET":"府安路","SECT":"四段","MAREA":" ","LANE":"９１巷","ALLEY":"２２弄","HOUSE_NO":"２７號","E_COORD97":169191.92000000001,"N_COORD97":2547398.6499999999,"ADDRESS":"府安路四段９１巷２２弄２７號","OBJECTID":11398},"geometry":{"x":169191.92000000179,"y":2547398.6500000022}},{"attributes":{"ID":11399,"DIS_CODE":0,"TOWNNAME":"安南區","LI":"溪北里","LIN":"13鄰","STREET":"府安路","SECT":"四段","MAREA":" ","LANE":"９１巷","ALLEY":"２２弄","HOUSE_NO":"２９號","E_COORD97":169196.54999999999,"N_COORD97":2547398.75,"ADDRESS":"府安路四段９１巷２２弄２９號","OBJECTID":11399},"geometry":{"x":169196.55000000075,"y":2547398.75}},{"attributes":{"ID":11400,"DIS_CODE":0,"TOWNNAME":"七股區","LI":"?榔里","LIN":"7鄰","STREET":" ","SECT":" ","MAREA":"?榔","LANE":" ","ALLEY":" ","HOUSE_NO":"６２號之１","E_COORD97":162292.17000000001,"N_COORD97":2555229.1299999999,"ADDRESS":"?榔６２號之１","OBJECTID":11400},"geometry":{"x":162292.16999999993,"y":2555229.1300000008}}]}