{"displayFieldName":"TOWNNAME","fieldAliases":{"ID":"ID","DIS_CODE":"DIS_CODE","TOWNNAME":"TOWNNAME","LI":"LI","LIN":"LIN","STREET":"STREET","SECT":"SECT","MAREA":"MAREA","LANE":"LANE","ALLEY":"ALLEY","HOUSE_NO":"HOUSE_NO","E_COORD97":"E_COORD97","N_COORD97":"N_COORD97","ADDRESS":"ADDRESS","OBJECTID":"OBJECTID"},"geometryType":"esriGeometryPoint","spatialReference":{"wkid":102443,"latestWkid":3826},"fields":[{"name":"ID","type":"esriFieldTypeDouble","alias":"ID"},{"name":"DIS_CODE","type":"esriFieldTypeInteger","alias":"DIS_CODE"},{"name":"TOWNNAME","type":"esriFieldTypeString","alias":"TOWNNAME","length":8},{"name":"LI","type":"esriFieldTypeString","alias":"LI","length":8},{"name":"LIN","type":"esriFieldTypeString","alias":"LIN","length":12},{"name":"STREET","type":"esriFieldTypeString","alias":"STREET","length":20},{"name":"SECT","type":"esriFieldTypeString","alias":"SECT","length":8},{"name":"MAREA","type":"esriFieldTypeString","alias":"MAREA","length":12},{"name":"LANE","type":"esriFieldTypeString","alias":"LANE","length":10},{"name":"ALLEY","type":"esriFieldTypeString","alias":"ALLEY","length":10},{"name":"HOUSE_NO","type":"esriFieldTypeString","alias":"HOUSE_NO","length":20},{"name":"E_COORD97","type":"esriFieldTypeDouble","alias":"E_COORD97"},{"name":"N_COORD97","type":"esriFieldTypeDouble","alias":"N_COORD97"},{"name":"ADDRESS","type":"esriFieldTypeString","alias":"ADDRESS","length":50},{"name":"OBJECTID","type":"esriFieldTypeOID","alias":"OBJECTID"}],"features":[{"attributes":{"ID":321210,"DIS_CODE":0,"TOWNNAME":"山上區","LI":"明和里","LIN":" ","STREET":" ","SECT":" ","MAREA":"北勢洲","LANE":" ","ALLEY":" ","HOUSE_NO":"２４之１號","E_COORD97":182133.44,"N_COORD97":2556902.2999999998,"ADDRESS":"北勢洲２４之１號","OBJECTID":321201},"geometry":{"x":182133.44000000227,"y":2556902.3000000007}},{"attributes":{"ID":321211,"DIS_CODE":0,"TOWNNAME":"永康區","LI":"中華里","LIN":"15鄰","STREET":"忠義街","SECT":" ","MAREA":" ","LANE":"６０巷","ALLEY":" ","HOUSE_NO":"３號八樓之７","E_COORD97":171785.20000000001,"N_COORD97":2544541.1200000001,"ADDRESS":"忠義街６０巷３號八樓之７","OBJECTID":321202},"geometry":{"x":171785.20000000019,"y":2544541.1200000029}},{"attributes":{"ID":321212,"DIS_CODE":0,"TOWNNAME":"山上區","LI":"南洲里","LIN":"20鄰","STREET":" ","SECT":" ","MAREA":"南洲","LANE":" ","ALLEY":" ","HOUSE_NO":"３２７號之１","E_COORD97":183618.57000000001,"N_COORD97":2555930.2999999998,"ADDRESS":"南洲３２７號之１","OBJECTID":321203},"geometry":{"x":183618.5700000003,"y":2555930.3000000026}},{"attributes":{"ID":321213,"DIS_CODE":0,"TOWNNAME":"永康區","LI":"中華里","LIN":"15鄰","STREET":"忠義街","SECT":" ","MAREA":" ","LANE":"６０巷","ALLEY":" ","HOUSE_NO":"３號十二樓之１６","E_COORD97":171787.73000000001,"N_COORD97":2544541.1200000001,"ADDRESS":"忠義街６０巷３號十二樓之１６","OBJECTID":321204},"geometry":{"x":171787.73000000138,"y":2544541.1200000029}},{"attributes":{"ID":321214,"DIS_CODE":0,"TOWNNAME":"西港區","LI":"永樂里","LIN":"8鄰","STREET":" ","SECT":" ","MAREA":"大塭寮","LANE":" ","ALLEY":" ","HOUSE_NO":"６６號之７","E_COORD97":165938.62,"N_COORD97":2556227.8500000001,"ADDRESS":"大塭寮６６號之７","OBJECTID":321205},"geometry":{"x":165938.62000000011,"y":2556227.8500000015}},{"attributes":{"ID":321215,"DIS_CODE":0,"TOWNNAME":"新市區","LI":"永就里","LIN":"4鄰","STREET":" ","SECT":" ","MAREA":"永就","LANE":" ","ALLEY":" ","HOUSE_NO":"４６之３號","E_COORD97":178639.67999999999,"N_COORD97":2551572.7999999998,"ADDRESS":"永就４６之３號","OBJECTID":321206},"geometry":{"x":178639.68000000063,"y":2551572.8000000007}},{"attributes":{"ID":321216,"DIS_CODE":0,"TOWNNAME":"西港區","LI":"南海里","LIN":"20鄰","STREET":" ","SECT":" ","MAREA":"中港","LANE":" ","ALLEY":" ","HOUSE_NO":"２８號之１","E_COORD97":167488.92999999999,"N_COORD97":2556533.1499999999,"ADDRESS":"中港２８號之１","OBJECTID":321207},"geometry":{"x":167488.9299999997,"y":2556533.1500000004}},{"attributes":{"ID":321217,"DIS_CODE":0,"TOWNNAME":"西港區","LI":"永樂里","LIN":"11鄰","STREET":" ","SECT":" ","MAREA":"大塭寮","LANE":" ","ALLEY":" ","HOUSE_NO":"９４號","E_COORD97":165757.29000000001,"N_COORD97":2556202.96,"ADDRESS":"大塭寮９４號","OBJECTID":321208},"geometry":{"x":165757.29000000097,"y":2556202.9600000009}},{"attributes":{"ID":321218,"DIS_CODE":0,"TOWNNAME":"西港區","LI":"永樂里","LIN":"11鄰","STREET":" ","SECT":" ","MAREA":"大塭寮","LANE":" ","ALLEY":" ","HOUSE_NO":"９６號","E_COORD97":165731.12,"N_COORD97":2556208.6699999999,"ADDRESS":"大塭寮９６號","OBJECTID":321209},"geometry":{"x":165731.12000000104,"y":2556208.6700000018}},{"attributes":{"ID":321219,"DIS_CODE":0,"TOWNNAME":"永康區","LI":"中華里","LIN":"15鄰","STREET":"忠義街","SECT":" ","MAREA":" ","LANE":"６０巷","ALLEY":" ","HOUSE_NO":"１號十樓之６","E_COORD97":171785.23000000001,"N_COORD97":2544541.1200000001,"ADDRESS":"忠義街６０巷１號十樓之６","OBJECTID":321210},"geometry":{"x":171785.23000000045,"y":2544541.1200000029}},{"attributes":{"ID":321220,"DIS_CODE":0,"TOWNNAME":"永康區","LI":"中華里","LIN":"15鄰","STREET":"忠義街","SECT":" ","MAREA":" ","LANE":"６０巷","ALLEY":" ","HOUSE_NO":"１號六樓之６","E_COORD97":171785.23000000001,"N_COORD97":2544541.1200000001,"ADDRESS":"忠義街６０巷１號六樓之６","OBJECTID":321211},"geometry":{"x":171785.23000000045,"y":2544541.1200000029}},{"attributes":{"ID":321221,"DIS_CODE":0,"TOWNNAME":"安平區","LI":"育平里","LIN":"17鄰","STREET":"育平路","SECT":" ","MAREA":" ","LANE":" ","ALLEY":" ","HOUSE_NO":"２１２號十六樓之３５","E_COORD97":164690.60999999999,"N_COORD97":2543415.9199999999,"ADDRESS":"育平路２１２號十六樓之３５","OBJECTID":321212},"geometry":{"x":164690.61000000127,"y":2543415.9200000018}},{"attributes":{"ID":321222,"DIS_CODE":0,"TOWNNAME":"東區","LI":"大同里","LIN":"1鄰","STREET":"東門路","SECT":"一段","MAREA":" ","LANE":" ","ALLEY":" ","HOUSE_NO":"２４號","E_COORD97":169246.92999999999,"N_COORD97":2543220.75,"ADDRESS":"東門路一段２４號","OBJECTID":321213},"geometry":{"x":169246.9299999997,"y":2543220.75}},{"attributes":{"ID":321223,"DIS_CODE":0,"TOWNNAME":"新市區","LI":"三舍里","LIN":"4鄰","STREET":" ","SECT":" ","MAREA":"三舍","LANE":" ","ALLEY":" ","HOUSE_NO":"１０２之２號","E_COORD97":178054.89999999999,"N_COORD97":2554663.5499999998,"ADDRESS":"三舍１０２之２號","OBJECTID":321214},"geometry":{"x":178054.90000000224,"y":2554663.5499999989}},{"attributes":{"ID":321224,"DIS_CODE":0,"TOWNNAME":"山上區","LI":"明和里","LIN":" ","STREET":" ","SECT":" ","MAREA":"北勢洲","LANE":" ","ALLEY":" ","HOUSE_NO":"２３之１號","E_COORD97":182481.44,"N_COORD97":2557064.2999999998,"ADDRESS":"北勢洲２３之１號","OBJECTID":321215},"geometry":{"x":182481.44000000134,"y":2557064.3000000007}},{"attributes":{"ID":321225,"DIS_CODE":0,"TOWNNAME":"新市區","LI":"大營里","LIN":"5鄰","STREET":" ","SECT":" ","MAREA":"大營","LANE":" ","ALLEY":" ","HOUSE_NO":"８０之１號","E_COORD97":179606.64999999999,"N_COORD97":2555434.7999999998,"ADDRESS":"大營８０之１號","OBJECTID":321216},"geometry":{"x":179606.6500000013,"y":2555434.7999999989}},{"attributes":{"ID":321226,"DIS_CODE":0,"TOWNNAME":"永康區","LI":"中華里","LIN":"15鄰","STREET":"忠義街","SECT":" ","MAREA":" ","LANE":"６０巷","ALLEY":" ","HOUSE_NO":"１號十四樓之９","E_COORD97":171786.45999999999,"N_COORD97":2544541.1200000001,"ADDRESS":"忠義街６０巷１號十四樓之９","OBJECTID":321217},"geometry":{"x":171786.45999999996,"y":2544541.1200000029}},{"attributes":{"ID":321227,"DIS_CODE":0,"TOWNNAME":"永康區","LI":"中華里","LIN":"15鄰","STREET":"忠義街","SECT":" ","MAREA":" ","LANE":"６０巷","ALLEY":" ","HOUSE_NO":"１號十二樓之１","E_COORD97":171786.38,"N_COORD97":2544541.1200000001,"ADDRESS":"忠義街６０巷１號十二樓之１","OBJECTID":321218},"geometry":{"x":171786.38000000082,"y":2544541.1200000029}},{"attributes":{"ID":321228,"DIS_CODE":0,"TOWNNAME":"新市區","LI":"大營里","LIN":"17鄰","STREET":" ","SECT":" ","MAREA":"大營","LANE":" ","ALLEY":" ","HOUSE_NO":"３１３之６號","E_COORD97":179460.12,"N_COORD97":2555399.7999999998,"ADDRESS":"大營３１３之６號","OBJECTID":321219},"geometry":{"x":179460.11999999918,"y":2555399.8000000007}},{"attributes":{"ID":321229,"DIS_CODE":0,"TOWNNAME":"永康區","LI":"中華里","LIN":"15鄰","STREET":"忠義街","SECT":" ","MAREA":" ","LANE":"６０巷","ALLEY":" ","HOUSE_NO":"３號十四樓之７","E_COORD97":171786.45000000001,"N_COORD97":2544541.1200000001,"ADDRESS":"忠義街６０巷３號十四樓之７","OBJECTID":321220},"geometry":{"x":171786.45000000112,"y":2544541.1200000029}},{"attributes":{"ID":321230,"DIS_CODE":0,"TOWNNAME":"永康區","LI":"中華里","LIN":"15鄰","STREET":"忠義街","SECT":" ","MAREA":" ","LANE":"６０巷","ALLEY":" ","HOUSE_NO":"３號九樓之１１","E_COORD97":171786.38,"N_COORD97":2544541.1200000001,"ADDRESS":"忠義街６０巷３號九樓之１１","OBJECTID":321221},"geometry":{"x":171786.38000000082,"y":2544541.1200000029}},{"attributes":{"ID":321231,"DIS_CODE":0,"TOWNNAME":"新市區","LI":"三舍里","LIN":"7鄰","STREET":" ","SECT":" ","MAREA":"三舍","LANE":" ","ALLEY":" ","HOUSE_NO":"１７４之２號","E_COORD97":177489.92000000001,"N_COORD97":2554843.0499999998,"ADDRESS":"三舍１７４之２號","OBJECTID":321222},"geometry":{"x":177489.92000000179,"y":2554843.0500000007}},{"attributes":{"ID":321232,"DIS_CODE":0,"TOWNNAME":"新市區","LI":"新和里","LIN":"36鄰","STREET":"華興街","SECT":" ","MAREA":" ","LANE":" ","ALLEY":" ","HOUSE_NO":"８５之１號","E_COORD97":177554.14999999999,"N_COORD97":2552966.5,"ADDRESS":"華興街８５之１號","OBJECTID":321223},"geometry":{"x":177554.15000000037,"y":2552966.5}},{"attributes":{"ID":321233,"DIS_CODE":0,"TOWNNAME":"永康區","LI":"中華里","LIN":"15鄰","STREET":"忠義街","SECT":" ","MAREA":" ","LANE":"６０巷","ALLEY":" ","HOUSE_NO":"３號十五樓之２","E_COORD97":171786.51000000001,"N_COORD97":2544541.1200000001,"ADDRESS":"忠義街６０巷３號十五樓之２","OBJECTID":321224},"geometry":{"x":171786.51000000164,"y":2544541.1200000029}},{"attributes":{"ID":321234,"DIS_CODE":0,"TOWNNAME":"新市區","LI":"永就里","LIN":"8鄰","STREET":" ","SECT":" ","MAREA":"永就","LANE":" ","ALLEY":" ","HOUSE_NO":"８３之１號","E_COORD97":177606.67000000001,"N_COORD97":2551578.5499999998,"ADDRESS":"永就８３之１號","OBJECTID":321225},"geometry":{"x":177606.66999999993,"y":2551578.5500000045}},{"attributes":{"ID":321235,"DIS_CODE":0,"TOWNNAME":"新市區","LI":"永就里","LIN":"8鄰","STREET":" ","SECT":" ","MAREA":"永就","LANE":" ","ALLEY":" ","HOUSE_NO":"８７之４號","E_COORD97":177577.42000000001,"N_COORD97":2551507.5499999998,"ADDRESS":"永就８７之４號","OBJECTID":321226},"geometry":{"x":177577.41999999993,"y":2551507.5500000026}},{"attributes":{"ID":321236,"DIS_CODE":0,"TOWNNAME":"新市區","LI":"大洲里","LIN":"3鄰","STREET":" ","SECT":" ","MAREA":"大洲","LANE":" ","ALLEY":" ","HOUSE_NO":"２８之５號","E_COORD97":174331.140916,"N_COORD97":2552408.5948299998,"ADDRESS":"大洲２８之５號","OBJECTID":321227},"geometry":{"x":174331.14091600105,"y":2552408.5948330015}},{"attributes":{"ID":321237,"DIS_CODE":0,"TOWNNAME":"山上區","LI":"玉\u25A0里","LIN":"3鄰","STREET":" ","SECT":" ","MAREA":"蚵\u25A0潭","LANE":" ","ALLEY":" ","HOUSE_NO":"３５之１號","E_COORD97":187414.92000000001,"N_COORD97":2555572.2999999998,"ADDRESS":"蚵\u25A0潭３５之１號","OBJECTID":321228},"geometry":{"x":187414.91999999993,"y":2555572.3000000026}},{"attributes":{"ID":321238,"DIS_CODE":0,"TOWNNAME":"山上區","LI":"山上里","LIN":" ","STREET":" ","SECT":" ","MAREA":"山上","LANE":" ","ALLEY":" ","HOUSE_NO":"１１４號","E_COORD97":184232.70999999999,"N_COORD97":2555732.25,"ADDRESS":"山上１１４號","OBJECTID":321229},"geometry":{"x":184232.70999999996,"y":2555732.25}},{"attributes":{"ID":321239,"DIS_CODE":0,"TOWNNAME":"山上區","LI":"玉\u25A0里","LIN":"3鄰","STREET":" ","SECT":" ","MAREA":"蚵\u25A0潭","LANE":" ","ALLEY":" ","HOUSE_NO":"３７之３號","E_COORD97":187380.62,"N_COORD97":2555495.2999999998,"ADDRESS":"蚵\u25A0潭３７之３號","OBJECTID":321230},"geometry":{"x":187380.62000000104,"y":2555495.3000000007}},{"attributes":{"ID":321240,"DIS_CODE":0,"TOWNNAME":"仁德區","LI":"中生里","LIN":" ","STREET":" ","SECT":" ","MAREA":"中生村","LANE":" ","ALLEY":" ","HOUSE_NO":"２２９號","E_COORD97":173139.92999999999,"N_COORD97":2533958.4900000002,"ADDRESS":"中生村２２９號","OBJECTID":321231},"geometry":{"x":173139.93000000063,"y":2533958.4900000039}},{"attributes":{"ID":321241,"DIS_CODE":0,"TOWNNAME":"山上區","LI":"山上里","LIN":"13鄰","STREET":" ","SECT":" ","MAREA":"山上","LANE":" ","ALLEY":" ","HOUSE_NO":"２０１之６號","E_COORD97":184035.31,"N_COORD97":2555518.2999999998,"ADDRESS":"山上２０１之６號","OBJECTID":321232},"geometry":{"x":184035.31000000145,"y":2555518.3000000007}},{"attributes":{"ID":321242,"DIS_CODE":0,"TOWNNAME":"西港區","LI":"港東里","LIN":"11鄰","STREET":" ","SECT":" ","MAREA":"烏竹林","LANE":" ","ALLEY":" ","HOUSE_NO":"５１之１號","E_COORD97":169793.85999999999,"N_COORD97":2558111.46,"ADDRESS":"烏竹林５１之１號","OBJECTID":321233},"geometry":{"x":169793.86000000034,"y":2558111.4600000009}},{"attributes":{"ID":321243,"DIS_CODE":0,"TOWNNAME":"西港區","LI":"金砂里","LIN":"7鄰","STREET":" ","SECT":" ","MAREA":"砂凹子","LANE":" ","ALLEY":" ","HOUSE_NO":"３７之１４號","E_COORD97":168965.53,"N_COORD97":2561858.7000000002,"ADDRESS":"砂凹子３７之１４號","OBJECTID":321234},"geometry":{"x":168965.53000000026,"y":2561858.6999999974}},{"attributes":{"ID":321244,"DIS_CODE":0,"TOWNNAME":"西港區","LI":"新復里","LIN":"4鄰","STREET":" ","SECT":" ","MAREA":"新港","LANE":" ","ALLEY":" ","HOUSE_NO":"３１之１２號","E_COORD97":166222.85000000001,"N_COORD97":2556484.0899999999,"ADDRESS":"新港３１之１２號","OBJECTID":321235},"geometry":{"x":166222.85000000056,"y":2556484.0900000017}},{"attributes":{"ID":321245,"DIS_CODE":0,"TOWNNAME":"西港區","LI":"金砂里","LIN":"6鄰","STREET":" ","SECT":" ","MAREA":"砂凹子","LANE":" ","ALLEY":" ","HOUSE_NO":"２５之５號","E_COORD97":168698.48999999999,"N_COORD97":2561834.4300000002,"ADDRESS":"砂凹子２５之５號","OBJECTID":321236},"geometry":{"x":168698.49000000209,"y":2561834.4300000016}},{"attributes":{"ID":321246,"DIS_CODE":0,"TOWNNAME":"西港區","LI":"新復里","LIN":"6鄰","STREET":" ","SECT":" ","MAREA":"新港","LANE":" ","ALLEY":" ","HOUSE_NO":"５１之１號","E_COORD97":166452.95000000001,"N_COORD97":2556492.5499999998,"ADDRESS":"新港５１之１號","OBJECTID":321237},"geometry":{"x":166452.95000000112,"y":2556492.5500000026}},{"attributes":{"ID":321247,"DIS_CODE":0,"TOWNNAME":"西港區","LI":"港東里","LIN":"1鄰","STREET":" ","SECT":" ","MAREA":"\u25A0張\u25A0","LANE":" ","ALLEY":" ","HOUSE_NO":"６號之８","E_COORD97":169306.67999999999,"N_COORD97":2557764.6499999999,"ADDRESS":"\u25A0張\u25A0６號之８","OBJECTID":321238},"geometry":{"x":169306.6799999997,"y":2557764.6499999985}},{"attributes":{"ID":321248,"DIS_CODE":0,"TOWNNAME":"仁德區","LI":"後壁里","LIN":" ","STREET":"德洋二街","SECT":" ","MAREA":" ","LANE":"５巷","ALLEY":" ","HOUSE_NO":"２號","E_COORD97":172495.39999999999,"N_COORD97":2539370.52,"ADDRESS":"德洋二街５巷２號","OBJECTID":321239},"geometry":{"x":172495.4000000013,"y":2539370.5199999996}},{"attributes":{"ID":321249,"DIS_CODE":0,"TOWNNAME":"東區","LI":"大同里","LIN":"1鄰","STREET":"東門路","SECT":"一段","MAREA":" ","LANE":" ","ALLEY":" ","HOUSE_NO":"２６號","E_COORD97":169250.23000000001,"N_COORD97":2543217.3500000001,"ADDRESS":"東門路一段２６號","OBJECTID":321240},"geometry":{"x":169250.23000000138,"y":2543217.3499999996}},{"attributes":{"ID":321250,"DIS_CODE":0,"TOWNNAME":"東區","LI":"大同里","LIN":"1鄰","STREET":"大同路","SECT":"一段","MAREA":" ","LANE":" ","ALLEY":" ","HOUSE_NO":"３號","E_COORD97":169203.23000000001,"N_COORD97":2543235.27,"ADDRESS":"大同路一段３號","OBJECTID":321241},"geometry":{"x":169203.23000000045,"y":2543235.2700000033}},{"attributes":{"ID":321251,"DIS_CODE":0,"TOWNNAME":"東區","LI":"大同里","LIN":"1鄰","STREET":"大同路","SECT":"一段","MAREA":" ","LANE":" ","ALLEY":" ","HOUSE_NO":"５號","E_COORD97":169200.34,"N_COORD97":2543229.9500000002,"ADDRESS":"大同路一段５號","OBJECTID":321242},"geometry":{"x":169200.33999999985,"y":2543229.9499999993}},{"attributes":{"ID":321252,"DIS_CODE":0,"TOWNNAME":"永康區","LI":"中華里","LIN":"15鄰","STREET":"忠義街","SECT":" ","MAREA":" ","LANE":"６０巷","ALLEY":" ","HOUSE_NO":"１號十三樓之８","E_COORD97":171786.51999999999,"N_COORD97":2544541.1200000001,"ADDRESS":"忠義街６０巷１號十三樓之８","OBJECTID":321243},"geometry":{"x":171786.52000000048,"y":2544541.1200000029}},{"attributes":{"ID":321253,"DIS_CODE":0,"TOWNNAME":"西港區","LI":"檨林里","LIN":" ","STREET":" ","SECT":" ","MAREA":"三合寮","LANE":" ","ALLEY":" ","HOUSE_NO":"４號","E_COORD97":170784.19,"N_COORD97":2559583.3999999999,"ADDRESS":"三合寮４號","OBJECTID":321244},"geometry":{"x":170784.19000000134,"y":2559583.4000000004}},{"attributes":{"ID":321254,"DIS_CODE":0,"TOWNNAME":"永康區","LI":"中華里","LIN":"15鄰","STREET":"忠義街","SECT":" ","MAREA":" ","LANE":"６０巷","ALLEY":" ","HOUSE_NO":"１號八樓之１２","E_COORD97":171786.51000000001,"N_COORD97":2544541.1200000001,"ADDRESS":"忠義街６０巷１號八樓之１２","OBJECTID":321245},"geometry":{"x":171786.51000000164,"y":2544541.1200000029}},{"attributes":{"ID":321255,"DIS_CODE":0,"TOWNNAME":"西港區","LI":"竹林里","LIN":" ","STREET":" ","SECT":" ","MAREA":"大竹林","LANE":" ","ALLEY":" ","HOUSE_NO":"８８之７號","E_COORD97":166635.44,"N_COORD97":2558025.4700000002,"ADDRESS":"大竹林８８之７號","OBJECTID":321246},"geometry":{"x":166635.44000000041,"y":2558025.4700000025}},{"attributes":{"ID":321256,"DIS_CODE":0,"TOWNNAME":"西港區","LI":"竹林里","LIN":" ","STREET":" ","SECT":" ","MAREA":"大竹林","LANE":" ","ALLEY":" ","HOUSE_NO":"８８之８號","E_COORD97":166638.39999999999,"N_COORD97":2558027.0800000001,"ADDRESS":"大竹林８８之８號","OBJECTID":321247},"geometry":{"x":166638.4000000013,"y":2558027.0800000019}},{"attributes":{"ID":321257,"DIS_CODE":0,"TOWNNAME":"西港區","LI":"竹林里","LIN":" ","STREET":" ","SECT":" ","MAREA":"大竹林","LANE":" ","ALLEY":" ","HOUSE_NO":"８８號","E_COORD97":166651.92000000001,"N_COORD97":2557977.5899999999,"ADDRESS":"大竹林８８號","OBJECTID":321248},"geometry":{"x":166651.91999999993,"y":2557977.5899999999}},{"attributes":{"ID":321258,"DIS_CODE":0,"TOWNNAME":"東區","LI":"大同里","LIN":"1鄰","STREET":"大同路","SECT":"一段","MAREA":" ","LANE":" ","ALLEY":" ","HOUSE_NO":"７號","E_COORD97":169198.19,"N_COORD97":2543226.5,"ADDRESS":"大同路一段７號","OBJECTID":321249},"geometry":{"x":169198.19000000134,"y":2543226.5}},{"attributes":{"ID":321259,"DIS_CODE":0,"TOWNNAME":"下營區","LI":"新興里","LIN":"19鄰","STREET":"中山路","SECT":"一段","MAREA":" ","LANE":" ","ALLEY":" ","HOUSE_NO":"２９６號","E_COORD97":175026.34023199999,"N_COORD97":2570740.2593700001,"ADDRESS":"中山路一段２９６號","OBJECTID":321250},"geometry":{"x":175026.34023200069,"y":2570740.259374002}},{"attributes":{"ID":321260,"DIS_CODE":0,"TOWNNAME":"西港區","LI":"竹林里","LIN":" ","STREET":" ","SECT":" ","MAREA":"大竹林","LANE":" ","ALLEY":" ","HOUSE_NO":"９２之２號","E_COORD97":166649.32000000001,"N_COORD97":2557895.6000000001,"ADDRESS":"大竹林９２之２號","OBJECTID":321251},"geometry":{"x":166649.32000000123,"y":2557895.5999999996}},{"attributes":{"ID":321261,"DIS_CODE":0,"TOWNNAME":"西港區","LI":"永樂里","LIN":" ","STREET":" ","SECT":" ","MAREA":"大塭寮","LANE":" ","ALLEY":" ","HOUSE_NO":"１０號","E_COORD97":165738.25,"N_COORD97":2556379.7000000002,"ADDRESS":"大塭寮１０號","OBJECTID":321252},"geometry":{"x":165738.24999999907,"y":2556379.6999999993}},{"attributes":{"ID":321262,"DIS_CODE":0,"TOWNNAME":"西港區","LI":"永樂里","LIN":" ","STREET":" ","SECT":" ","MAREA":"大塭寮","LANE":" ","ALLEY":" ","HOUSE_NO":"１１３號","E_COORD97":165595.69,"N_COORD97":2556197.4199999999,"ADDRESS":"大塭寮１１３號","OBJECTID":321253},"geometry":{"x":165595.69000000134,"y":2556197.4200000018}},{"attributes":{"ID":321263,"DIS_CODE":0,"TOWNNAME":"西港區","LI":"永樂里","LIN":" ","STREET":" ","SECT":" ","MAREA":"大塭寮","LANE":" ","ALLEY":" ","HOUSE_NO":"１１８號","E_COORD97":165737.45999999999,"N_COORD97":2556170.0600000001,"ADDRESS":"大塭寮１１８號","OBJECTID":321254},"geometry":{"x":165737.46000000089,"y":2556170.0600000024}},{"attributes":{"ID":321264,"DIS_CODE":0,"TOWNNAME":"西港區","LI":"永樂里","LIN":" ","STREET":" ","SECT":" ","MAREA":"大塭寮","LANE":" ","ALLEY":" ","HOUSE_NO":"１２１之１號","E_COORD97":165829.85999999999,"N_COORD97":2556153.6299999999,"ADDRESS":"大塭寮１２１之１號","OBJECTID":321255},"geometry":{"x":165829.86000000127,"y":2556153.6300000008}},{"attributes":{"ID":321265,"DIS_CODE":0,"TOWNNAME":"西港區","LI":"永樂里","LIN":" ","STREET":" ","SECT":" ","MAREA":"大塭寮","LANE":" ","ALLEY":" ","HOUSE_NO":"１３６號","E_COORD97":165467.85999999999,"N_COORD97":2554151.3999999999,"ADDRESS":"大塭寮１３６號","OBJECTID":321256},"geometry":{"x":165467.86000000034,"y":2554151.4000000004}},{"attributes":{"ID":321266,"DIS_CODE":0,"TOWNNAME":"西港區","LI":"永樂里","LIN":" ","STREET":" ","SECT":" ","MAREA":"大塭寮","LANE":" ","ALLEY":" ","HOUSE_NO":"１４３號","E_COORD97":165471.64999999999,"N_COORD97":2554020.4100000001,"ADDRESS":"大塭寮１４３號","OBJECTID":321257},"geometry":{"x":165471.65000000224,"y":2554020.410000002}},{"attributes":{"ID":321267,"DIS_CODE":0,"TOWNNAME":"西港區","LI":"永樂里","LIN":" ","STREET":" ","SECT":" ","MAREA":"大塭寮","LANE":" ","ALLEY":" ","HOUSE_NO":"３之１號","E_COORD97":165872.81,"N_COORD97":2556341.9300000002,"ADDRESS":"大塭寮３之１號","OBJECTID":321258},"geometry":{"x":165872.80999999959,"y":2556341.9300000016}},{"attributes":{"ID":321268,"DIS_CODE":0,"TOWNNAME":"西港區","LI":"永樂里","LIN":" ","STREET":" ","SECT":" ","MAREA":"大塭寮","LANE":" ","ALLEY":" ","HOUSE_NO":"４５之５號","E_COORD97":166084.5,"N_COORD97":2556168.6099999999,"ADDRESS":"大塭寮４５之５號","OBJECTID":321259},"geometry":{"x":166084.50000000093,"y":2556168.6100000013}},{"attributes":{"ID":321269,"DIS_CODE":0,"TOWNNAME":"西港區","LI":"永樂里","LIN":" ","STREET":" ","SECT":" ","MAREA":"大塭寮","LANE":" ","ALLEY":" ","HOUSE_NO":"５３號","E_COORD97":166020.78,"N_COORD97":2556141.54,"ADDRESS":"大塭寮５３號","OBJECTID":321260},"geometry":{"x":166020.78000000026,"y":2556141.540000001}},{"attributes":{"ID":321270,"DIS_CODE":0,"TOWNNAME":"西港區","LI":"永樂里","LIN":" ","STREET":" ","SECT":" ","MAREA":"大塭寮","LANE":" ","ALLEY":" ","HOUSE_NO":"５９之１１號","E_COORD97":165890.63,"N_COORD97":2556099.4100000001,"ADDRESS":"大塭寮５９之１１號","OBJECTID":321261},"geometry":{"x":165890.63000000082,"y":2556099.410000002}},{"attributes":{"ID":321271,"DIS_CODE":0,"TOWNNAME":"西港區","LI":"永樂里","LIN":" ","STREET":" ","SECT":" ","MAREA":"大塭寮","LANE":" ","ALLEY":" ","HOUSE_NO":"５９之１３號","E_COORD97":165890.10000000001,"N_COORD97":2556090.6499999999,"ADDRESS":"大塭寮５９之１３號","OBJECTID":321262},"geometry":{"x":165890.10000000056,"y":2556090.6500000022}},{"attributes":{"ID":321272,"DIS_CODE":0,"TOWNNAME":"西港區","LI":"永樂里","LIN":" ","STREET":" ","SECT":" ","MAREA":"大塭寮","LANE":" ","ALLEY":" ","HOUSE_NO":"５９號","E_COORD97":165894.85999999999,"N_COORD97":2556143.7400000002,"ADDRESS":"大塭寮５９號","OBJECTID":321263},"geometry":{"x":165894.86000000034,"y":2556143.7400000021}},{"attributes":{"ID":321273,"DIS_CODE":0,"TOWNNAME":"西港區","LI":"慶安里","LIN":" ","STREET":"中山路","SECT":" ","MAREA":" ","LANE":"２４３巷","ALLEY":" ","HOUSE_NO":"１０號","E_COORD97":168377.57000000001,"N_COORD97":2557869.6800000002,"ADDRESS":"中山路２４３巷１０號","OBJECTID":321264},"geometry":{"x":168377.57000000216,"y":2557869.6800000016}},{"attributes":{"ID":321274,"DIS_CODE":0,"TOWNNAME":"西港區","LI":"慶安里","LIN":" ","STREET":" ","SECT":" ","MAREA":"中州","LANE":" ","ALLEY":" ","HOUSE_NO":"２０之１４１號","E_COORD97":166958.41,"N_COORD97":2560262.1000000001,"ADDRESS":"中州２０之１４１號","OBJECTID":321265},"geometry":{"x":166958.41000000108,"y":2560262.0999999996}},{"attributes":{"ID":321275,"DIS_CODE":0,"TOWNNAME":"西港區","LI":"西港里","LIN":" ","STREET":" ","SECT":" ","MAREA":"中州","LANE":" ","ALLEY":" ","HOUSE_NO":"２２號","E_COORD97":167754.34,"N_COORD97":2559718.3399999999,"ADDRESS":"中州２２號","OBJECTID":321266},"geometry":{"x":167754.33999999985,"y":2559718.3399999999}},{"attributes":{"ID":321276,"DIS_CODE":0,"TOWNNAME":"西港區","LI":"西港里","LIN":" ","STREET":" ","SECT":" ","MAREA":"中州","LANE":" ","ALLEY":" ","HOUSE_NO":"２４之２３號","E_COORD97":167745.19,"N_COORD97":2559779.5800000001,"ADDRESS":"中州２４之２３號","OBJECTID":321267},"geometry":{"x":167745.19000000134,"y":2559779.5800000019}},{"attributes":{"ID":321277,"DIS_CODE":0,"TOWNNAME":"西港區","LI":"慶安里","LIN":" ","STREET":" ","SECT":" ","MAREA":"中州","LANE":" ","ALLEY":" ","HOUSE_NO":"２６之１４號","E_COORD97":167794.89000000001,"N_COORD97":2557982.5899999999,"ADDRESS":"中州２６之１４號","OBJECTID":321268},"geometry":{"x":167794.88999999873,"y":2557982.5900000017}},{"attributes":{"ID":321278,"DIS_CODE":0,"TOWNNAME":"西港區","LI":"慶安里","LIN":" ","STREET":" ","SECT":" ","MAREA":"中州","LANE":" ","ALLEY":" ","HOUSE_NO":"２８之１號","E_COORD97":167448.64000000001,"N_COORD97":2558184.4100000001,"ADDRESS":"中州２８之１號","OBJECTID":321269},"geometry":{"x":167448.63999999966,"y":2558184.410000002}},{"attributes":{"ID":321279,"DIS_CODE":0,"TOWNNAME":"西港區","LI":"慶安里","LIN":" ","STREET":" ","SECT":" ","MAREA":"中州","LANE":" ","ALLEY":" ","HOUSE_NO":"３８號","E_COORD97":167212.42000000001,"N_COORD97":2558193.6899999999,"ADDRESS":"中州３８號","OBJECTID":321270},"geometry":{"x":167212.42000000086,"y":2558193.6899999995}},{"attributes":{"ID":321280,"DIS_CODE":0,"TOWNNAME":"西港區","LI":"慶安里","LIN":" ","STREET":" ","SECT":" ","MAREA":"中州","LANE":" ","ALLEY":" ","HOUSE_NO":"８６之７號","E_COORD97":167496.51999999999,"N_COORD97":2557942.04,"ADDRESS":"中州８６之７號","OBJECTID":321271},"geometry":{"x":167496.51999999955,"y":2557942.040000001}},{"attributes":{"ID":321281,"DIS_CODE":0,"TOWNNAME":"西港區","LI":"南海里","LIN":" ","STREET":" ","SECT":" ","MAREA":"中港","LANE":" ","ALLEY":" ","HOUSE_NO":"２０之２號","E_COORD97":167313.44,"N_COORD97":2556530.7999999998,"ADDRESS":"中港２０之２號","OBJECTID":321272},"geometry":{"x":167313.44000000041,"y":2556530.8000000026}},{"attributes":{"ID":321282,"DIS_CODE":0,"TOWNNAME":"西港區","LI":"南海里","LIN":" ","STREET":" ","SECT":" ","MAREA":"中港","LANE":" ","ALLEY":" ","HOUSE_NO":"３２號","E_COORD97":167550.89000000001,"N_COORD97":2556569.9199999999,"ADDRESS":"中港３２號","OBJECTID":321273},"geometry":{"x":167550.89000000153,"y":2556569.9200000018}},{"attributes":{"ID":321283,"DIS_CODE":0,"TOWNNAME":"西港區","LI":"南海里","LIN":" ","STREET":" ","SECT":" ","MAREA":"中港","LANE":" ","ALLEY":" ","HOUSE_NO":"４２號","E_COORD97":167602.79999999999,"N_COORD97":2556549.8500000001,"ADDRESS":"中港４２號","OBJECTID":321274},"geometry":{"x":167602.80000000075,"y":2556549.8500000015}},{"attributes":{"ID":321284,"DIS_CODE":0,"TOWNNAME":"安平區","LI":"育平里","LIN":"17鄰","STREET":"育平路","SECT":" ","MAREA":" ","LANE":" ","ALLEY":" ","HOUSE_NO":"２１２號十六樓之３７","E_COORD97":164690.60999999999,"N_COORD97":2543415.9199999999,"ADDRESS":"育平路２１２號十六樓之３７","OBJECTID":321275},"geometry":{"x":164690.61000000127,"y":2543415.9200000018}},{"attributes":{"ID":321285,"DIS_CODE":0,"TOWNNAME":"西港區","LI":"南海里","LIN":" ","STREET":" ","SECT":" ","MAREA":"中港","LANE":" ","ALLEY":" ","HOUSE_NO":"４３號","E_COORD97":167663.81,"N_COORD97":2556526.96,"ADDRESS":"中港４３號","OBJECTID":321276},"geometry":{"x":167663.81000000052,"y":2556526.9600000028}},{"attributes":{"ID":321286,"DIS_CODE":0,"TOWNNAME":"西港區","LI":"檨林里","LIN":" ","STREET":" ","SECT":" ","MAREA":"太西","LANE":" ","ALLEY":" ","HOUSE_NO":"２２１之２４號","E_COORD97":170491.62,"N_COORD97":2560394.6400000001,"ADDRESS":"太西２２１之２４號","OBJECTID":321277},"geometry":{"x":170491.62000000104,"y":2560394.6400000006}},{"attributes":{"ID":321287,"DIS_CODE":0,"TOWNNAME":"西港區","LI":"檨林里","LIN":" ","STREET":" ","SECT":" ","MAREA":"太西","LANE":" ","ALLEY":" ","HOUSE_NO":"２６號","E_COORD97":171023.53,"N_COORD97":2560182.5800000001,"ADDRESS":"太西２６號","OBJECTID":321278},"geometry":{"x":171023.53000000026,"y":2560182.5800000038}},{"attributes":{"ID":321288,"DIS_CODE":0,"TOWNNAME":"西港區","LI":"檨林里","LIN":" ","STREET":" ","SECT":" ","MAREA":"太西","LANE":" ","ALLEY":" ","HOUSE_NO":"２８號","E_COORD97":170991.26999999999,"N_COORD97":2560175.54,"ADDRESS":"太西２８號","OBJECTID":321279},"geometry":{"x":170991.27000000048,"y":2560175.540000001}},{"attributes":{"ID":321289,"DIS_CODE":0,"TOWNNAME":"西港區","LI":"檨林里","LIN":" ","STREET":" ","SECT":" ","MAREA":"太西","LANE":" ","ALLEY":" ","HOUSE_NO":"２之３８號","E_COORD97":170954.57000000001,"N_COORD97":2560325.7799999998,"ADDRESS":"太西２之３８號","OBJECTID":321280},"geometry":{"x":170954.57000000123,"y":2560325.7799999975}},{"attributes":{"ID":321290,"DIS_CODE":0,"TOWNNAME":"西港區","LI":"檨林里","LIN":" ","STREET":" ","SECT":" ","MAREA":"太西","LANE":" ","ALLEY":" ","HOUSE_NO":"３５０號","E_COORD97":170778.53,"N_COORD97":2560565.8500000001,"ADDRESS":"太西３５０號","OBJECTID":321281},"geometry":{"x":170778.53000000119,"y":2560565.8499999996}},{"attributes":{"ID":321291,"DIS_CODE":0,"TOWNNAME":"永康區","LI":"中華里","LIN":"15鄰","STREET":"忠義街","SECT":" ","MAREA":" ","LANE":"６０巷","ALLEY":" ","HOUSE_NO":"１號六樓之１２","E_COORD97":171786.51000000001,"N_COORD97":2544541.1200000001,"ADDRESS":"忠義街６０巷１號六樓之１２","OBJECTID":321282},"geometry":{"x":171786.51000000164,"y":2544541.1200000029}},{"attributes":{"ID":321292,"DIS_CODE":0,"TOWNNAME":"西港區","LI":"營西里","LIN":" ","STREET":" ","SECT":" ","MAREA":"後營","LANE":" ","ALLEY":" ","HOUSE_NO":"４２３之１號","E_COORD97":169713.54000000001,"N_COORD97":2559833.1800000002,"ADDRESS":"後營４２３之１號","OBJECTID":321283},"geometry":{"x":169713.54000000097,"y":2559833.1800000016}},{"attributes":{"ID":321293,"DIS_CODE":0,"TOWNNAME":"西港區","LI":"營西里","LIN":" ","STREET":" ","SECT":" ","MAREA":"後營","LANE":" ","ALLEY":" ","HOUSE_NO":"４２４號","E_COORD97":169710.69,"N_COORD97":2559812.8199999998,"ADDRESS":"後營４２４號","OBJECTID":321284},"geometry":{"x":169710.69000000041,"y":2559812.8200000022}},{"attributes":{"ID":321294,"DIS_CODE":0,"TOWNNAME":"西港區","LI":"營西里","LIN":" ","STREET":" ","SECT":" ","MAREA":"後營","LANE":" ","ALLEY":" ","HOUSE_NO":"４３８號","E_COORD97":169659.91,"N_COORD97":2559734.9399999999,"ADDRESS":"後營４３８號","OBJECTID":321285},"geometry":{"x":169659.91000000015,"y":2559734.9399999976}},{"attributes":{"ID":321295,"DIS_CODE":0,"TOWNNAME":"下營區","LI":"下營里","LIN":"7鄰","STREET":"民生街","SECT":" ","MAREA":" ","LANE":" ","ALLEY":" ","HOUSE_NO":"４０號","E_COORD97":174468.43007900001,"N_COORD97":2570421.2294899998,"ADDRESS":"民生街４０號","OBJECTID":321286},"geometry":{"x":174468.43007900007,"y":2570421.2294930015}},{"attributes":{"ID":321296,"DIS_CODE":0,"TOWNNAME":"歸仁區","LI":"武東里","LIN":"11鄰","STREET":"明德路","SECT":" ","MAREA":" ","LANE":" ","ALLEY":" ","HOUSE_NO":"６１號","E_COORD97":175431.40224600001,"N_COORD97":2536186.1260099998,"ADDRESS":"明德路６１號","OBJECTID":321287},"geometry":{"x":175431.40224600025,"y":2536186.1260130033}},{"attributes":{"ID":321297,"DIS_CODE":0,"TOWNNAME":"永康區","LI":"中華里","LIN":"15鄰","STREET":"忠義街","SECT":" ","MAREA":" ","LANE":"６０巷","ALLEY":" ","HOUSE_NO":"１號六樓之２","E_COORD97":171785.26000000001,"N_COORD97":2544541.1200000001,"ADDRESS":"忠義街６０巷１號六樓之２","OBJECTID":321288},"geometry":{"x":171785.26000000071,"y":2544541.1200000029}},{"attributes":{"ID":321298,"DIS_CODE":0,"TOWNNAME":"永康區","LI":"中華里","LIN":"15鄰","STREET":"忠義街","SECT":" ","MAREA":" ","LANE":"６０巷","ALLEY":" ","HOUSE_NO":"３號十三樓之３","E_COORD97":171786.47,"N_COORD97":2544541.1200000001,"ADDRESS":"忠義街６０巷３號十三樓之３","OBJECTID":321289},"geometry":{"x":171786.46999999974,"y":2544541.1200000029}},{"attributes":{"ID":321299,"DIS_CODE":0,"TOWNNAME":"西港區","LI":"新復里","LIN":" ","STREET":" ","SECT":" ","MAREA":"溪埔寮","LANE":" ","ALLEY":" ","HOUSE_NO":"１９之４號","E_COORD97":166489.04000000001,"N_COORD97":2553912.6499999999,"ADDRESS":"溪埔寮１９之４號","OBJECTID":321290},"geometry":{"x":166489.0400000019,"y":2553912.6500000004}},{"attributes":{"ID":321300,"DIS_CODE":0,"TOWNNAME":"西港區","LI":"新復里","LIN":" ","STREET":" ","SECT":" ","MAREA":"溪埔寮","LANE":" ","ALLEY":" ","HOUSE_NO":"２４之２號","E_COORD97":166616.95999999999,"N_COORD97":2553937.6099999999,"ADDRESS":"溪埔寮２４之２號","OBJECTID":321291},"geometry":{"x":166616.96000000089,"y":2553937.6100000013}},{"attributes":{"ID":321301,"DIS_CODE":0,"TOWNNAME":"西港區","LI":"新復里","LIN":" ","STREET":" ","SECT":" ","MAREA":"溪埔寮","LANE":" ","ALLEY":" ","HOUSE_NO":"３２之２號","E_COORD97":166618.26000000001,"N_COORD97":2553892.6000000001,"ADDRESS":"溪埔寮３２之２號","OBJECTID":321292},"geometry":{"x":166618.26000000071,"y":2553892.6000000034}},{"attributes":{"ID":321302,"DIS_CODE":0,"TOWNNAME":"西港區","LI":"慶安里","LIN":" ","STREET":"新興街","SECT":" ","MAREA":" ","LANE":"１０６巷","ALLEY":" ","HOUSE_NO":"１１號","E_COORD97":168259.89999999999,"N_COORD97":2558241.6499999999,"ADDRESS":"新興街１０６巷１１號","OBJECTID":321293},"geometry":{"x":168259.90000000037,"y":2558241.6500000004}},{"attributes":{"ID":321303,"DIS_CODE":0,"TOWNNAME":"永康區","LI":"中華里","LIN":"15鄰","STREET":"忠義街","SECT":" ","MAREA":" ","LANE":"６０巷","ALLEY":" ","HOUSE_NO":"１號九樓之１５","E_COORD97":171786.53,"N_COORD97":2544541.1200000001,"ADDRESS":"忠義街６０巷１號九樓之１５","OBJECTID":321294},"geometry":{"x":171786.53000000026,"y":2544541.1200000029}},{"attributes":{"ID":321304,"DIS_CODE":0,"TOWNNAME":"永康區","LI":"中華里","LIN":"15鄰","STREET":"忠義街","SECT":" ","MAREA":" ","LANE":"６０巷","ALLEY":" ","HOUSE_NO":"１號十一樓之４","E_COORD97":171786.39999999999,"N_COORD97":2544541.1200000001,"ADDRESS":"忠義街６０巷１號十一樓之４","OBJECTID":321295},"geometry":{"x":171786.4000000013,"y":2544541.1200000029}},{"attributes":{"ID":321305,"DIS_CODE":0,"TOWNNAME":"永康區","LI":"中華里","LIN":"15鄰","STREET":"忠義街","SECT":" ","MAREA":" ","LANE":"６０巷","ALLEY":" ","HOUSE_NO":"３號十二樓之１０","E_COORD97":171787.67999999999,"N_COORD97":2544541.1200000001,"ADDRESS":"忠義街６０巷３號十二樓之１０","OBJECTID":321296},"geometry":{"x":171787.68000000063,"y":2544541.1200000029}},{"attributes":{"ID":321306,"DIS_CODE":0,"TOWNNAME":"永康區","LI":"中華里","LIN":"15鄰","STREET":"忠義街","SECT":" ","MAREA":" ","LANE":"６０巷","ALLEY":" ","HOUSE_NO":"１號九樓之８","E_COORD97":171785.26999999999,"N_COORD97":2544541.1200000001,"ADDRESS":"忠義街６０巷１號九樓之８","OBJECTID":321297},"geometry":{"x":171785.27000000048,"y":2544541.1200000029}},{"attributes":{"ID":321307,"DIS_CODE":0,"TOWNNAME":"永康區","LI":"中華里","LIN":"15鄰","STREET":"忠義街","SECT":" ","MAREA":" ","LANE":"６０巷","ALLEY":" ","HOUSE_NO":"１號九樓之３","E_COORD97":171785.22,"N_COORD97":2544541.1200000001,"ADDRESS":"忠義街６０巷１號九樓之３","OBJECTID":321298},"geometry":{"x":171785.22000000067,"y":2544541.1200000029}},{"attributes":{"ID":321308,"DIS_CODE":0,"TOWNNAME":"永康區","LI":"中華里","LIN":"15鄰","STREET":"忠義街","SECT":" ","MAREA":" ","LANE":"６０巷","ALLEY":" ","HOUSE_NO":"３號七樓之２","E_COORD97":171785.26000000001,"N_COORD97":2544541.1200000001,"ADDRESS":"忠義街６０巷３號七樓之２","OBJECTID":321299},"geometry":{"x":171785.26000000071,"y":2544541.1200000029}},{"attributes":{"ID":321309,"DIS_CODE":0,"TOWNNAME":"永康區","LI":"中華里","LIN":"15鄰","STREET":"忠義街","SECT":" ","MAREA":" ","LANE":"６０巷","ALLEY":" ","HOUSE_NO":"３號十四樓之１１","E_COORD97":171787.63,"N_COORD97":2544541.1200000001,"ADDRESS":"忠義街６０巷３號十四樓之１１","OBJECTID":321300},"geometry":{"x":171787.63000000082,"y":2544541.1200000029}},{"attributes":{"ID":321310,"DIS_CODE":0,"TOWNNAME":"永康區","LI":"中華里","LIN":"15鄰","STREET":"忠義街","SECT":" ","MAREA":" ","LANE":"６０巷","ALLEY":" ","HOUSE_NO":"３號十樓之４","E_COORD97":171785.14999999999,"N_COORD97":2544541.1200000001,"ADDRESS":"忠義街６０巷３號十樓之４","OBJECTID":321301},"geometry":{"x":171785.1500000013,"y":2544541.1200000029}},{"attributes":{"ID":321311,"DIS_CODE":0,"TOWNNAME":"永康區","LI":"中華里","LIN":"15鄰","STREET":"忠義街","SECT":" ","MAREA":" ","LANE":"６０巷","ALLEY":" ","HOUSE_NO":"１號十一樓之２","E_COORD97":171786.51000000001,"N_COORD97":2544541.1200000001,"ADDRESS":"忠義街６０巷１號十一樓之２","OBJECTID":321302},"geometry":{"x":171786.51000000164,"y":2544541.1200000029}},{"attributes":{"ID":321312,"DIS_CODE":0,"TOWNNAME":"西港區","LI":"新復里","LIN":" ","STREET":" ","SECT":" ","MAREA":"溪埔寮","LANE":" ","ALLEY":" ","HOUSE_NO":"３６號","E_COORD97":166611.17999999999,"N_COORD97":2554164.1299999999,"ADDRESS":"溪埔寮３６號","OBJECTID":321303},"geometry":{"x":166611.1799999997,"y":2554164.1300000008}},{"attributes":{"ID":321313,"DIS_CODE":0,"TOWNNAME":"西港區","LI":"新復里","LIN":" ","STREET":" ","SECT":" ","MAREA":"溪埔寮","LANE":" ","ALLEY":" ","HOUSE_NO":"３９之１號","E_COORD97":167043.12,"N_COORD97":2555070.0600000001,"ADDRESS":"溪埔寮３９之１號","OBJECTID":321304},"geometry":{"x":167043.12000000104,"y":2555070.0599999987}},{"attributes":{"ID":321314,"DIS_CODE":0,"TOWNNAME":"西港區","LI":"新復里","LIN":" ","STREET":" ","SECT":" ","MAREA":"溪埔寮","LANE":" ","ALLEY":" ","HOUSE_NO":"４３之１號","E_COORD97":167205.54999999999,"N_COORD97":2555118.9300000002,"ADDRESS":"溪埔寮４３之１號","OBJECTID":321305},"geometry":{"x":167205.54999999981,"y":2555118.9300000016}},{"attributes":{"ID":321315,"DIS_CODE":0,"TOWNNAME":"西港區","LI":"新復里","LIN":"8鄰","STREET":" ","SECT":" ","MAREA":"溪埔寮","LANE":" ","ALLEY":" ","HOUSE_NO":"１之４６號","E_COORD97":166422.51180499999,"N_COORD97":2554780.3322000001,"ADDRESS":"溪埔寮１之４６號","OBJECTID":321306},"geometry":{"x":166422.51180500071,"y":2554780.3322050013}},{"attributes":{"ID":321316,"DIS_CODE":0,"TOWNNAME":"西港區","LI":"劉厝里","LIN":" ","STREET":" ","SECT":" ","MAREA":"劉厝","LANE":" ","ALLEY":" ","HOUSE_NO":"２０之１８號","E_COORD97":165574.78,"N_COORD97":2559030.4700000002,"ADDRESS":"劉厝２０之１８號","OBJECTID":321307},"geometry":{"x":165574.78000000119,"y":2559030.4700000007}},{"attributes":{"ID":321317,"DIS_CODE":0,"TOWNNAME":"西港區","LI":"劉厝里","LIN":" ","STREET":" ","SECT":" ","MAREA":"劉厝","LANE":" ","ALLEY":" ","HOUSE_NO":"２９之９號","E_COORD97":166205.56,"N_COORD97":2558510.9199999999,"ADDRESS":"劉厝２９之９號","OBJECTID":321308},"geometry":{"x":166205.56000000052,"y":2558510.9199999999}},{"attributes":{"ID":321318,"DIS_CODE":0,"TOWNNAME":"安平區","LI":"育平里","LIN":"17鄰","STREET":"育平路","SECT":" ","MAREA":" ","LANE":" ","ALLEY":" ","HOUSE_NO":"２１２號十四樓之２３","E_COORD97":164690.60999999999,"N_COORD97":2543415.9199999999,"ADDRESS":"育平路２１２號十四樓之２３","OBJECTID":321309},"geometry":{"x":164690.61000000127,"y":2543415.9200000018}},{"attributes":{"ID":321319,"DIS_CODE":0,"TOWNNAME":"西港區","LI":"劉厝里","LIN":" ","STREET":" ","SECT":" ","MAREA":"劉厝","LANE":" ","ALLEY":" ","HOUSE_NO":"３０之４號","E_COORD97":165833.51000000001,"N_COORD97":2558677.9199999999,"ADDRESS":"劉厝３０之４號","OBJECTID":321310},"geometry":{"x":165833.51000000071,"y":2558677.9200000037}},{"attributes":{"ID":321320,"DIS_CODE":0,"TOWNNAME":"西港區","LI":"劉厝里","LIN":" ","STREET":" ","SECT":" ","MAREA":"劉厝","LANE":" ","ALLEY":" ","HOUSE_NO":"３１之１號","E_COORD97":167639.69,"N_COORD97":2559114.0499999998,"ADDRESS":"劉厝３１之１號","OBJECTID":321311},"geometry":{"x":167639.69000000134,"y":2559114.0500000007}},{"attributes":{"ID":321321,"DIS_CODE":0,"TOWNNAME":"西港區","LI":"劉厝里","LIN":" ","STREET":" ","SECT":" ","MAREA":"劉厝","LANE":" ","ALLEY":" ","HOUSE_NO":"３２號","E_COORD97":165801.67000000001,"N_COORD97":2558631.54,"ADDRESS":"劉厝３２號","OBJECTID":321312},"geometry":{"x":165801.67000000086,"y":2558631.5399999991}},{"attributes":{"ID":321322,"DIS_CODE":0,"TOWNNAME":"西港區","LI":"劉厝里","LIN":" ","STREET":" ","SECT":" ","MAREA":"劉厝","LANE":" ","ALLEY":" ","HOUSE_NO":"３５之１號","E_COORD97":165763.62,"N_COORD97":2558684.0099999998,"ADDRESS":"劉厝３５之１號","OBJECTID":321313},"geometry":{"x":165763.62000000104,"y":2558684.0100000035}},{"attributes":{"ID":321323,"DIS_CODE":0,"TOWNNAME":"西港區","LI":"劉厝里","LIN":" ","STREET":" ","SECT":" ","MAREA":"劉厝","LANE":" ","ALLEY":" ","HOUSE_NO":"３７之１號","E_COORD97":165739.32000000001,"N_COORD97":2558737.5699999998,"ADDRESS":"劉厝３７之１號","OBJECTID":321314},"geometry":{"x":165739.3200000003,"y":2558737.5700000003}},{"attributes":{"ID":321324,"DIS_CODE":0,"TOWNNAME":"西港區","LI":"劉厝里","LIN":" ","STREET":" ","SECT":" ","MAREA":"劉厝","LANE":" ","ALLEY":" ","HOUSE_NO":"４９之１號","E_COORD97":165839.48999999999,"N_COORD97":2558759.5099999998,"ADDRESS":"劉厝４９之１號","OBJECTID":321315},"geometry":{"x":165839.49000000115,"y":2558759.5100000016}},{"attributes":{"ID":321325,"DIS_CODE":0,"TOWNNAME":"西港區","LI":"劉厝里","LIN":" ","STREET":" ","SECT":" ","MAREA":"劉厝","LANE":" ","ALLEY":" ","HOUSE_NO":"５０號","E_COORD97":165857.79999999999,"N_COORD97":2558705.3199999998,"ADDRESS":"劉厝５０號","OBJECTID":321316},"geometry":{"x":165857.79999999981,"y":2558705.3200000003}},{"attributes":{"ID":321326,"DIS_CODE":0,"TOWNNAME":"西港區","LI":"劉厝里","LIN":" ","STREET":" ","SECT":" ","MAREA":"劉厝","LANE":" ","ALLEY":" ","HOUSE_NO":"６１之２號","E_COORD97":166003.28,"N_COORD97":2558749.5,"ADDRESS":"劉厝６１之２號","OBJECTID":321317},"geometry":{"x":166003.28000000119,"y":2558749.5000000019}},{"attributes":{"ID":321327,"DIS_CODE":0,"TOWNNAME":"西港區","LI":"劉厝里","LIN":" ","STREET":" ","SECT":" ","MAREA":"劉厝","LANE":" ","ALLEY":" ","HOUSE_NO":"６３之２１號","E_COORD97":166800.67000000001,"N_COORD97":2558889.3599999999,"ADDRESS":"劉厝６３之２１號","OBJECTID":321318},"geometry":{"x":166800.67000000086,"y":2558889.3600000013}},{"attributes":{"ID":321328,"DIS_CODE":0,"TOWNNAME":"西港區","LI":"劉厝里","LIN":" ","STREET":" ","SECT":" ","MAREA":"劉厝","LANE":" ","ALLEY":" ","HOUSE_NO":"６３之９號","E_COORD97":166434.04000000001,"N_COORD97":2558739.7799999998,"ADDRESS":"劉厝６３之９號","OBJECTID":321319},"geometry":{"x":166434.04000000004,"y":2558739.7800000012}},{"attributes":{"ID":321329,"DIS_CODE":0,"TOWNNAME":"永康區","LI":"中華里","LIN":"15鄰","STREET":"忠義街","SECT":" ","MAREA":" ","LANE":"６０巷","ALLEY":" ","HOUSE_NO":"３號八樓之１","E_COORD97":171785.13,"N_COORD97":2544541.1200000001,"ADDRESS":"忠義街６０巷３號八樓之１","OBJECTID":321320},"geometry":{"x":171785.12999999989,"y":2544541.1200000029}},{"attributes":{"ID":321330,"DIS_CODE":0,"TOWNNAME":"歸仁區","LI":"武東里","LIN":"11鄰","STREET":"明德路","SECT":" ","MAREA":" ","LANE":" ","ALLEY":" ","HOUSE_NO":"４７號","E_COORD97":175435.001334,"N_COORD97":2536145.4860399999,"ADDRESS":"明德路４７號","OBJECTID":321321},"geometry":{"x":175435.00133400131,"y":2536145.4860350005}},{"attributes":{"ID":321331,"DIS_CODE":0,"TOWNNAME":"西港區","LI":"劉厝里","LIN":" ","STREET":" ","SECT":" ","MAREA":"劉厝","LANE":" ","ALLEY":" ","HOUSE_NO":"７之２號","E_COORD97":165661.67000000001,"N_COORD97":2558517.3300000001,"ADDRESS":"劉厝７之２號","OBJECTID":321322},"geometry":{"x":165661.66999999993,"y":2558517.3300000019}},{"attributes":{"ID":321332,"DIS_CODE":0,"TOWNNAME":"西港區","LI":"劉厝里","LIN":"8鄰","STREET":" ","SECT":" ","MAREA":"劉厝","LANE":" ","ALLEY":" ","HOUSE_NO":"５３號","E_COORD97":165918.42999999999,"N_COORD97":2558735.4700000002,"ADDRESS":"劉厝５３號","OBJECTID":321323},"geometry":{"x":165918.43000000063,"y":2558735.4700000007}},{"attributes":{"ID":321333,"DIS_CODE":0,"TOWNNAME":"永康區","LI":"中華里","LIN":"15鄰","STREET":"忠義街","SECT":" ","MAREA":" ","LANE":"６０巷","ALLEY":" ","HOUSE_NO":"１號十一樓之１３","E_COORD97":171787.72,"N_COORD97":2544541.1200000001,"ADDRESS":"忠義街６０巷１號十一樓之１３","OBJECTID":321324},"geometry":{"x":171787.71999999974,"y":2544541.1200000029}},{"attributes":{"ID":321334,"DIS_CODE":0,"TOWNNAME":"西港區","LI":"港東里","LIN":" ","STREET":" ","SECT":" ","MAREA":"\u25A0張\u25A0","LANE":" ","ALLEY":" ","HOUSE_NO":"１３之２４號","E_COORD97":169339.01000000001,"N_COORD97":2557891.3199999998,"ADDRESS":"\u25A0張\u25A0１３之２４號","OBJECTID":321325},"geometry":{"x":169339.01000000071,"y":2557891.3200000003}},{"attributes":{"ID":321335,"DIS_CODE":0,"TOWNNAME":"下營區","LI":"下營里","LIN":"7鄰","STREET":"民生街","SECT":" ","MAREA":" ","LANE":" ","ALLEY":" ","HOUSE_NO":"４２號","E_COORD97":174465.25255500001,"N_COORD97":2570421.12366,"ADDRESS":"民生街４２號","OBJECTID":321326},"geometry":{"x":174465.25255500153,"y":2570421.12366}},{"attributes":{"ID":321336,"DIS_CODE":0,"TOWNNAME":"大內區","LI":"石城里","LIN":" ","STREET":" ","SECT":" ","MAREA":"石子瀨","LANE":" ","ALLEY":" ","HOUSE_NO":"３５之７號","E_COORD97":183794.72,"N_COORD97":2558034.2999999998,"ADDRESS":"石子瀨３５之７號","OBJECTID":321327},"geometry":{"x":183794.71999999974,"y":2558034.3000000007}},{"attributes":{"ID":321337,"DIS_CODE":0,"TOWNNAME":"大內區","LI":"曲溪里","LIN":" ","STREET":" ","SECT":" ","MAREA":"二重溪","LANE":" ","ALLEY":" ","HOUSE_NO":"７０之６號","E_COORD97":187330.39000000001,"N_COORD97":2557771.3100000001,"ADDRESS":"二重溪７０之６號","OBJECTID":321328},"geometry":{"x":187330.39000000153,"y":2557771.3100000024}},{"attributes":{"ID":321338,"DIS_CODE":0,"TOWNNAME":"歸仁區","LI":"南興里","LIN":"22鄰","STREET":"南興街","SECT":" ","MAREA":" ","LANE":" ","ALLEY":" ","HOUSE_NO":"３１０號六樓之２","E_COORD97":175522.876223,"N_COORD97":2541261.7943299999,"ADDRESS":"南興街３１０號六樓之２","OBJECTID":321329},"geometry":{"x":175522.87622300163,"y":2541261.7943319995}},{"attributes":{"ID":321339,"DIS_CODE":0,"TOWNNAME":"新市區","LI":"大洲里","LIN":"5鄰","STREET":" ","SECT":" ","MAREA":"大洲","LANE":" ","ALLEY":" ","HOUSE_NO":"４５之１０號","E_COORD97":174170.52024000001,"N_COORD97":2552509.3481100001,"ADDRESS":"大洲４５之１０號","OBJECTID":321330},"geometry":{"x":174170.52024000138,"y":2552509.3481120002}},{"attributes":{"ID":321340,"DIS_CODE":0,"TOWNNAME":"永康區","LI":"中華里","LIN":"15鄰","STREET":"忠義街","SECT":" ","MAREA":" ","LANE":"６０巷","ALLEY":" ","HOUSE_NO":"１號十二樓之８","E_COORD97":171786.51999999999,"N_COORD97":2544541.1200000001,"ADDRESS":"忠義街６０巷１號十二樓之８","OBJECTID":321331},"geometry":{"x":171786.52000000048,"y":2544541.1200000029}},{"attributes":{"ID":321341,"DIS_CODE":0,"TOWNNAME":"永康區","LI":"中華里","LIN":"15鄰","STREET":"忠義街","SECT":" ","MAREA":" ","LANE":"６０巷","ALLEY":" ","HOUSE_NO":"３號七樓之１３","E_COORD97":171786.47,"N_COORD97":2544541.1200000001,"ADDRESS":"忠義街６０巷３號七樓之１３","OBJECTID":321332},"geometry":{"x":171786.46999999974,"y":2544541.1200000029}},{"attributes":{"ID":321342,"DIS_CODE":0,"TOWNNAME":"永康區","LI":"中華里","LIN":"15鄰","STREET":"忠義街","SECT":" ","MAREA":" ","LANE":"６０巷","ALLEY":" ","HOUSE_NO":"３號九樓之１２","E_COORD97":171786.51000000001,"N_COORD97":2544541.1200000001,"ADDRESS":"忠義街６０巷３號九樓之１２","OBJECTID":321333},"geometry":{"x":171786.51000000164,"y":2544541.1200000029}},{"attributes":{"ID":321343,"DIS_CODE":0,"TOWNNAME":"永康區","LI":"中華里","LIN":"15鄰","STREET":"忠義街","SECT":" ","MAREA":" ","LANE":"６０巷","ALLEY":" ","HOUSE_NO":"３號十四樓之２","E_COORD97":171786.51000000001,"N_COORD97":2544541.1200000001,"ADDRESS":"忠義街６０巷３號十四樓之２","OBJECTID":321334},"geometry":{"x":171786.51000000164,"y":2544541.1200000029}},{"attributes":{"ID":321344,"DIS_CODE":0,"TOWNNAME":"大內區","LI":"二溪里","LIN":"9鄰","STREET":" ","SECT":" ","MAREA":"二重溪","LANE":" ","ALLEY":" ","HOUSE_NO":"２３２號","E_COORD97":188776.44,"N_COORD97":2560370.3100000001,"ADDRESS":"二重溪２３２之２號","OBJECTID":321335},"geometry":{"x":188776.44000000041,"y":2560370.3100000005}},{"attributes":{"ID":321345,"DIS_CODE":0,"TOWNNAME":"永康區","LI":"中華里","LIN":"15鄰","STREET":"忠義街","SECT":" ","MAREA":" ","LANE":"６０巷","ALLEY":" ","HOUSE_NO":"１號十一樓之１０","E_COORD97":171787.67999999999,"N_COORD97":2544541.1200000001,"ADDRESS":"忠義街６０巷１號十一樓之１０","OBJECTID":321336},"geometry":{"x":171787.68000000063,"y":2544541.1200000029}},{"attributes":{"ID":321346,"DIS_CODE":0,"TOWNNAME":"新市區","LI":"潭頂里","LIN":" ","STREET":" ","SECT":" ","MAREA":"潭頂","LANE":" ","ALLEY":" ","HOUSE_NO":"１９２號","E_COORD97":180894.84,"N_COORD97":2552934.5,"ADDRESS":"潭頂１９２號","OBJECTID":321337},"geometry":{"x":180894.84000000078,"y":2552934.5000000019}},{"attributes":{"ID":321347,"DIS_CODE":0,"TOWNNAME":"新市區","LI":"社內里","LIN":"15鄰","STREET":" ","SECT":" ","MAREA":"社內","LANE":" ","ALLEY":" ","HOUSE_NO":"１５５號","E_COORD97":176296.84,"N_COORD97":2553116.6699999999,"ADDRESS":"社內１５５號","OBJECTID":321338},"geometry":{"x":176296.84000000171,"y":2553116.6700000018}},{"attributes":{"ID":321348,"DIS_CODE":0,"TOWNNAME":"新市區","LI":"三舍里","LIN":"4鄰","STREET":" ","SECT":" ","MAREA":"三舍","LANE":" ","ALLEY":" ","HOUSE_NO":"１０３之１號","E_COORD97":178123.39999999999,"N_COORD97":2554683.0499999998,"ADDRESS":"三舍１０３之１號","OBJECTID":321339},"geometry":{"x":178123.4000000013,"y":2554683.0500000007}},{"attributes":{"ID":321349,"DIS_CODE":0,"TOWNNAME":"安定區","LI":"港南里","LIN":"21鄰","STREET":" ","SECT":" ","MAREA":"港口","LANE":" ","ALLEY":" ","HOUSE_NO":"１６０號","E_COORD97":171424.587073,"N_COORD97":2554547.8275000001,"ADDRESS":"港口１６０號","OBJECTID":321340},"geometry":{"x":171424.58707300108,"y":2554547.8275010008}},{"attributes":{"ID":321350,"DIS_CODE":0,"TOWNNAME":"安定區","LI":"蘇林里","LIN":"21鄰","STREET":" ","SECT":" ","MAREA":"蘇厝","LANE":" ","ALLEY":" ","HOUSE_NO":"２０７號","E_COORD97":173268.582318,"N_COORD97":2558880.2998500001,"ADDRESS":"蘇厝２０７號","OBJECTID":321341},"geometry":{"x":173268.58231799956,"y":2558880.2998480015}},{"attributes":{"ID":321351,"DIS_CODE":0,"TOWNNAME":"永康區","LI":"中華里","LIN":"15鄰","STREET":"忠義街","SECT":" ","MAREA":" ","LANE":"６０巷","ALLEY":" ","HOUSE_NO":"１號九樓之１４","E_COORD97":171786.39999999999,"N_COORD97":2544541.1200000001,"ADDRESS":"忠義街６０巷１號九樓之１４","OBJECTID":321342},"geometry":{"x":171786.4000000013,"y":2544541.1200000029}},{"attributes":{"ID":321352,"DIS_CODE":0,"TOWNNAME":"永康區","LI":"中華里","LIN":"15鄰","STREET":"忠義街","SECT":" ","MAREA":" ","LANE":"６０巷","ALLEY":" ","HOUSE_NO":"１號八樓之６","E_COORD97":171785.23000000001,"N_COORD97":2544541.1200000001,"ADDRESS":"忠義街６０巷１號八樓之６","OBJECTID":321343},"geometry":{"x":171785.23000000045,"y":2544541.1200000029}},{"attributes":{"ID":321353,"DIS_CODE":0,"TOWNNAME":"永康區","LI":"中華里","LIN":"15鄰","STREET":"忠義街","SECT":" ","MAREA":" ","LANE":"６０巷","ALLEY":" ","HOUSE_NO":"１號十二樓之３","E_COORD97":171786.47,"N_COORD97":2544541.1200000001,"ADDRESS":"忠義街６０巷１號十二樓之３","OBJECTID":321344},"geometry":{"x":171786.46999999974,"y":2544541.1200000029}},{"attributes":{"ID":321354,"DIS_CODE":0,"TOWNNAME":"南區","LI":"南華里","LIN":"5鄰","STREET":"中華南路","SECT":"二段","MAREA":" ","LANE":" ","ALLEY":" ","HOUSE_NO":"３９４號","E_COORD97":166427.42000000001,"N_COORD97":2540298.6299999999,"ADDRESS":"中華南路二段３９４號","OBJECTID":321345},"geometry":{"x":166427.42000000086,"y":2540298.629999999}},{"attributes":{"ID":321355,"DIS_CODE":0,"TOWNNAME":"新市區","LI":"大洲里","LIN":"5鄰","STREET":" ","SECT":" ","MAREA":"大洲","LANE":" ","ALLEY":" ","HOUSE_NO":"４５之１號","E_COORD97":174192.44578499999,"N_COORD97":2552356.33972,"ADDRESS":"大洲４５之１號","OBJECTID":321346},"geometry":{"x":174192.44578500092,"y":2552356.3397199996}},{"attributes":{"ID":321356,"DIS_CODE":0,"TOWNNAME":"新市區","LI":"港墘里","LIN":" ","STREET":" ","SECT":" ","MAREA":"崙頂","LANE":" ","ALLEY":" ","HOUSE_NO":"８１之１號","E_COORD97":178751.07000000001,"N_COORD97":2552674.2999999998,"ADDRESS":"崙頂８１之１號","OBJECTID":321347},"geometry":{"x":178751.07000000123,"y":2552674.3000000007}},{"attributes":{"ID":321357,"DIS_CODE":0,"TOWNNAME":"新市區","LI":"永就里","LIN":"5鄰","STREET":" ","SECT":" ","MAREA":"永就","LANE":" ","ALLEY":" ","HOUSE_NO":"４９之５號","E_COORD97":178372.67000000001,"N_COORD97":2551446.0499999998,"ADDRESS":"永就４９之５號","OBJECTID":321348},"geometry":{"x":178372.66999999993,"y":2551446.0499999989}},{"attributes":{"ID":321358,"DIS_CODE":0,"TOWNNAME":"新市區","LI":"大社里","LIN":"25鄰","STREET":" ","SECT":" ","MAREA":"大社","LANE":" ","ALLEY":" ","HOUSE_NO":"９１８之１９號","E_COORD97":179925.48000000001,"N_COORD97":2554039.0499999998,"ADDRESS":"大社９１８之１９號","OBJECTID":321349},"geometry":{"x":179925.48000000045,"y":2554039.0500000007}},{"attributes":{"ID":321359,"DIS_CODE":0,"TOWNNAME":"新市區","LI":"社內里","LIN":"1鄰","STREET":" ","SECT":" ","MAREA":"社內","LANE":" ","ALLEY":" ","HOUSE_NO":"６之１０號","E_COORD97":176845.12,"N_COORD97":2553014.0499999998,"ADDRESS":"社內６之１０號","OBJECTID":321350},"geometry":{"x":176845.12000000104,"y":2553014.0500000026}},{"attributes":{"ID":321360,"DIS_CODE":0,"TOWNNAME":"新市區","LI":"大社里","LIN":"25鄰","STREET":" ","SECT":" ","MAREA":"大社","LANE":" ","ALLEY":" ","HOUSE_NO":"９１８之３號","E_COORD97":179946.48000000001,"N_COORD97":2554033.5499999998,"ADDRESS":"大社９１８之３號","OBJECTID":321351},"geometry":{"x":179946.48000000138,"y":2554033.5500000026}},{"attributes":{"ID":321361,"DIS_CODE":0,"TOWNNAME":"新市區","LI":"大社里","LIN":"25鄰","STREET":" ","SECT":" ","MAREA":"大社","LANE":" ","ALLEY":" ","HOUSE_NO":"９１８之１３號","E_COORD97":179926.59,"N_COORD97":2554073.7999999998,"ADDRESS":"大社９１８之１３號","OBJECTID":321352},"geometry":{"x":179926.59000000078,"y":2554073.8000000007}},{"attributes":{"ID":321362,"DIS_CODE":0,"TOWNNAME":"新市區","LI":"新市里","LIN":" ","STREET":"復興路","SECT":" ","MAREA":" ","LANE":"６２巷","ALLEY":" ","HOUSE_NO":"９之８號","E_COORD97":177916.95000000001,"N_COORD97":2553489.5499999998,"ADDRESS":"復興路６２巷９之８號","OBJECTID":321353},"geometry":{"x":177916.95000000019,"y":2553489.5500000007}},{"attributes":{"ID":321363,"DIS_CODE":0,"TOWNNAME":"新市區","LI":"大營里","LIN":" ","STREET":" ","SECT":" ","MAREA":"大營","LANE":" ","ALLEY":" ","HOUSE_NO":"２９６之１６號","E_COORD97":179136.70000000001,"N_COORD97":2555401.2999999998,"ADDRESS":"大營２９６之１６號","OBJECTID":321354},"geometry":{"x":179136.70000000112,"y":2555401.3000000045}},{"attributes":{"ID":321364,"DIS_CODE":0,"TOWNNAME":"新市區","LI":"三舍里","LIN":" ","STREET":" ","SECT":" ","MAREA":"三舍","LANE":" ","ALLEY":" ","HOUSE_NO":"２１之１號","E_COORD97":177777.31,"N_COORD97":2554335.0499999998,"ADDRESS":"三舍２１之１號","OBJECTID":321355},"geometry":{"x":177777.31000000052,"y":2554335.0500000045}},{"attributes":{"ID":321365,"DIS_CODE":0,"TOWNNAME":"新市區","LI":"大社里","LIN":" ","STREET":" ","SECT":" ","MAREA":"大社","LANE":" ","ALLEY":" ","HOUSE_NO":"２０４號","E_COORD97":180077.48999999999,"N_COORD97":2554404.5,"ADDRESS":"大社２０４號","OBJECTID":321356},"geometry":{"x":180077.49000000022,"y":2554404.5}},{"attributes":{"ID":321366,"DIS_CODE":0,"TOWNNAME":"新市區","LI":"新市里","LIN":" ","STREET":"復興路","SECT":" ","MAREA":" ","LANE":"６２巷","ALLEY":" ","HOUSE_NO":"９之２９號","E_COORD97":177947.79000000001,"N_COORD97":2553510.2999999998,"ADDRESS":"復興路６２巷９之２９號","OBJECTID":321357},"geometry":{"x":177947.79000000004,"y":2553510.3000000026}},{"attributes":{"ID":321367,"DIS_CODE":0,"TOWNNAME":"新市區","LI":"三舍里","LIN":" ","STREET":" ","SECT":" ","MAREA":"三舍","LANE":" ","ALLEY":" ","HOUSE_NO":"１２３號","E_COORD97":177883.04000000001,"N_COORD97":2554576.75,"ADDRESS":"三舍１２３號","OBJECTID":321358},"geometry":{"x":177883.04000000097,"y":2554576.7500000037}},{"attributes":{"ID":321368,"DIS_CODE":0,"TOWNNAME":"新市區","LI":"三舍里","LIN":" ","STREET":" ","SECT":" ","MAREA":"三舍","LANE":" ","ALLEY":" ","HOUSE_NO":"３８號","E_COORD97":177923.60000000001,"N_COORD97":2554342.75,"ADDRESS":"三舍３８號","OBJECTID":321359},"geometry":{"x":177923.59999999963,"y":2554342.7500000037}},{"attributes":{"ID":321369,"DIS_CODE":0,"TOWNNAME":"安平區","LI":"育平里","LIN":"17鄰","STREET":"育平路","SECT":" ","MAREA":" ","LANE":" ","ALLEY":" ","HOUSE_NO":"２１２號十樓之３１","E_COORD97":164690.60999999999,"N_COORD97":2543415.9199999999,"ADDRESS":"育平路２１２號十樓之３１","OBJECTID":321360},"geometry":{"x":164690.61000000127,"y":2543415.9200000018}},{"attributes":{"ID":321370,"DIS_CODE":0,"TOWNNAME":"新市區","LI":"大社里","LIN":" ","STREET":" ","SECT":" ","MAREA":"大庄","LANE":" ","ALLEY":" ","HOUSE_NO":"６０號","E_COORD97":182943.28,"N_COORD97":2554296.25,"ADDRESS":"大庄６０號","OBJECTID":321361},"geometry":{"x":182943.28000000119,"y":2554296.2500000019}},{"attributes":{"ID":321371,"DIS_CODE":0,"TOWNNAME":"安平區","LI":"育平里","LIN":"17鄰","STREET":"育平路","SECT":" ","MAREA":" ","LANE":" ","ALLEY":" ","HOUSE_NO":"２１２號十樓之３３","E_COORD97":164690.60999999999,"N_COORD97":2543415.9199999999,"ADDRESS":"育平路２１２號十樓之３３","OBJECTID":321362},"geometry":{"x":164690.61000000127,"y":2543415.9200000018}},{"attributes":{"ID":321372,"DIS_CODE":0,"TOWNNAME":"新市區","LI":"大洲里","LIN":"6鄰","STREET":" ","SECT":" ","MAREA":"大洲","LANE":" ","ALLEY":" ","HOUSE_NO":"５４號","E_COORD97":174098.36190600001,"N_COORD97":2552296.0147500001,"ADDRESS":"大洲５４號","OBJECTID":321363},"geometry":{"x":174098.36190600041,"y":2552296.0147520006}},{"attributes":{"ID":321373,"DIS_CODE":0,"TOWNNAME":"新市區","LI":"大社里","LIN":" ","STREET":" ","SECT":" ","MAREA":"大社","LANE":" ","ALLEY":" ","HOUSE_NO":"５９０之３１號","E_COORD97":179336.17000000001,"N_COORD97":2554404.2999999998,"ADDRESS":"大社５９０之３１號","OBJECTID":321364},"geometry":{"x":179336.17000000086,"y":2554404.3000000045}},{"attributes":{"ID":321374,"DIS_CODE":0,"TOWNNAME":"新市區","LI":"新市里","LIN":" ","STREET":"復興路","SECT":" ","MAREA":" ","LANE":"６２巷","ALLEY":" ","HOUSE_NO":"９之２８號","E_COORD97":177935.60000000001,"N_COORD97":2553509.7999999998,"ADDRESS":"復興路６２巷９之２８號","OBJECTID":321365},"geometry":{"x":177935.59999999963,"y":2553509.8000000026}},{"attributes":{"ID":321375,"DIS_CODE":0,"TOWNNAME":"新市區","LI":"大社里","LIN":"18鄰","STREET":" ","SECT":" ","MAREA":"大社","LANE":" ","ALLEY":" ","HOUSE_NO":"７６３之３號","E_COORD97":180007.26999999999,"N_COORD97":2554142.0499999998,"ADDRESS":"大社７６３之３號","OBJECTID":321366},"geometry":{"x":180007.26999999955,"y":2554142.0500000026}},{"attributes":{"ID":321376,"DIS_CODE":0,"TOWNNAME":"新市區","LI":"大營里","LIN":"15鄰","STREET":" ","SECT":" ","MAREA":"大營","LANE":" ","ALLEY":" ","HOUSE_NO":"２８１之２１號","E_COORD97":179060.57000000001,"N_COORD97":2555497.0499999998,"ADDRESS":"大營２８１之２１號","OBJECTID":321367},"geometry":{"x":179060.56999999937,"y":2555497.0500000007}},{"attributes":{"ID":321377,"DIS_CODE":0,"TOWNNAME":"仁德區","LI":"保安里","LIN":" ","STREET":"文賢路","SECT":"一段","MAREA":" ","LANE":"５５４巷","ALLEY":" ","HOUSE_NO":"１３號","E_COORD97":171040.60000000001,"N_COORD97":2536868.3199999998,"ADDRESS":"文賢路一段５５４巷１３號","OBJECTID":321368},"geometry":{"x":171040.60000000056,"y":2536868.3200000003}},{"attributes":{"ID":321378,"DIS_CODE":0,"TOWNNAME":"永康區","LI":"中華里","LIN":"15鄰","STREET":"忠義街","SECT":" ","MAREA":" ","LANE":"６０巷","ALLEY":" ","HOUSE_NO":"１號十五樓之１６","E_COORD97":171787.73000000001,"N_COORD97":2544541.1200000001,"ADDRESS":"忠義街６０巷１號十五樓之１６","OBJECTID":321369},"geometry":{"x":171787.73000000138,"y":2544541.1200000029}},{"attributes":{"ID":321379,"DIS_CODE":0,"TOWNNAME":"新市區","LI":"大營里","LIN":"15鄰","STREET":" ","SECT":" ","MAREA":"大營","LANE":" ","ALLEY":" ","HOUSE_NO":"２８２之２號","E_COORD97":179037.23000000001,"N_COORD97":2555428.7999999998,"ADDRESS":"大營２８２之２號","OBJECTID":321370},"geometry":{"x":179037.23000000045,"y":2555428.8000000026}},{"attributes":{"ID":321380,"DIS_CODE":0,"TOWNNAME":"新市區","LI":"潭頂里","LIN":" ","STREET":" ","SECT":" ","MAREA":"潭頂","LANE":" ","ALLEY":" ","HOUSE_NO":"１４５號","E_COORD97":180865.22,"N_COORD97":2552870,"ADDRESS":"潭頂１４５號","OBJECTID":321371},"geometry":{"x":180865.22000000067,"y":2552870.0000000037}},{"attributes":{"ID":321381,"DIS_CODE":0,"TOWNNAME":"永康區","LI":"中華里","LIN":"15鄰","STREET":"忠義街","SECT":" ","MAREA":" ","LANE":"６０巷","ALLEY":" ","HOUSE_NO":"１號八樓之２","E_COORD97":171785.26000000001,"N_COORD97":2544541.1200000001,"ADDRESS":"忠義街６０巷１號八樓之２","OBJECTID":321372},"geometry":{"x":171785.26000000071,"y":2544541.1200000029}},{"attributes":{"ID":321382,"DIS_CODE":0,"TOWNNAME":"後壁區","LI":"嘉苳里","LIN":"5鄰","STREET":" ","SECT":" ","MAREA":"下茄苳","LANE":" ","ALLEY":" ","HOUSE_NO":"５８號之１９","E_COORD97":184967.23000000001,"N_COORD97":2583145.6000000001,"ADDRESS":"下茄苳５８號之１９","OBJECTID":321373},"geometry":{"x":184967.23000000045,"y":2583145.6000000015}},{"attributes":{"ID":321383,"DIS_CODE":0,"TOWNNAME":"永康區","LI":"中華里","LIN":"15鄰","STREET":"忠義街","SECT":" ","MAREA":" ","LANE":"６０巷","ALLEY":" ","HOUSE_NO":"３號七樓之７","E_COORD97":171785.20000000001,"N_COORD97":2544541.1200000001,"ADDRESS":"忠義街６０巷３號七樓之７","OBJECTID":321374},"geometry":{"x":171785.20000000019,"y":2544541.1200000029}},{"attributes":{"ID":321384,"DIS_CODE":0,"TOWNNAME":"永康區","LI":"中華里","LIN":"15鄰","STREET":"忠義街","SECT":" ","MAREA":" ","LANE":"６０巷","ALLEY":" ","HOUSE_NO":"１號十樓之５","E_COORD97":171785.28,"N_COORD97":2544541.1200000001,"ADDRESS":"忠義街６０巷１號十樓之５","OBJECTID":321375},"geometry":{"x":171785.28000000119,"y":2544541.1200000029}},{"attributes":{"ID":321385,"DIS_CODE":0,"TOWNNAME":"永康區","LI":"中華里","LIN":"15鄰","STREET":"忠義街","SECT":" ","MAREA":" ","LANE":"６０巷","ALLEY":" ","HOUSE_NO":"１號十二樓之１５","E_COORD97":171787.78,"N_COORD97":2544541.1200000001,"ADDRESS":"忠義街６０巷１號十二樓之１５","OBJECTID":321376},"geometry":{"x":171787.78000000026,"y":2544541.1200000029}},{"attributes":{"ID":321386,"DIS_CODE":0,"TOWNNAME":"安平區","LI":"育平里","LIN":"17鄰","STREET":"育平路","SECT":" ","MAREA":" ","LANE":" ","ALLEY":" ","HOUSE_NO":"２１２號十樓之３５","E_COORD97":164690.60999999999,"N_COORD97":2543415.9199999999,"ADDRESS":"育平路２１２號十樓之３５","OBJECTID":321377},"geometry":{"x":164690.61000000127,"y":2543415.9200000018}},{"attributes":{"ID":321387,"DIS_CODE":0,"TOWNNAME":"安平區","LI":"育平里","LIN":"17鄰","STREET":"育平路","SECT":" ","MAREA":" ","LANE":" ","ALLEY":" ","HOUSE_NO":"２１２號十樓之３７","E_COORD97":164690.60999999999,"N_COORD97":2543415.9199999999,"ADDRESS":"育平路２１２號十樓之３７","OBJECTID":321378},"geometry":{"x":164690.61000000127,"y":2543415.9200000018}},{"attributes":{"ID":321388,"DIS_CODE":0,"TOWNNAME":"新市區","LI":"港墘里","LIN":" ","STREET":"華美街","SECT":" ","MAREA":" ","LANE":" ","ALLEY":" ","HOUSE_NO":"５０號","E_COORD97":178188.56,"N_COORD97":2552996.0499999998,"ADDRESS":"華美街５０號","OBJECTID":321379},"geometry":{"x":178188.55999999866,"y":2552996.0500000026}},{"attributes":{"ID":321389,"DIS_CODE":0,"TOWNNAME":"仁德區","LI":"仁愛里","LIN":"3鄰","STREET":" ","SECT":" ","MAREA":"仁愛","LANE":" ","ALLEY":" ","HOUSE_NO":"４９號","E_COORD97":170313.192209,"N_COORD97":2540058.6836899999,"ADDRESS":"仁愛４９號","OBJECTID":321380},"geometry":{"x":170313.19220899977,"y":2540058.6836880017}},{"attributes":{"ID":321390,"DIS_CODE":0,"TOWNNAME":"仁德區","LI":"仁愛里","LIN":"3鄰","STREET":" ","SECT":" ","MAREA":"仁愛","LANE":" ","ALLEY":" ","HOUSE_NO":"５０號","E_COORD97":170309.802532,"N_COORD97":2540058.6836899999,"ADDRESS":"仁愛５０號","OBJECTID":321381},"geometry":{"x":170309.8025320014,"y":2540058.6836880017}},{"attributes":{"ID":321391,"DIS_CODE":0,"TOWNNAME":"仁德區","LI":"仁愛里","LIN":"3鄰","STREET":" ","SECT":" ","MAREA":"仁愛","LANE":" ","ALLEY":" ","HOUSE_NO":"５１號","E_COORD97":170294.86676999999,"N_COORD97":2540058.0486900001,"ADDRESS":"仁愛５１號","OBJECTID":321382},"geometry":{"x":170294.8667700002,"y":2540058.0486880019}},{"attributes":{"ID":321392,"DIS_CODE":0,"TOWNNAME":"仁德區","LI":"中生里","LIN":" ","STREET":" ","SECT":" ","MAREA":"中洲","LANE":" ","ALLEY":" ","HOUSE_NO":"２４８之２號","E_COORD97":173234.92999999999,"N_COORD97":2533972.79,"ADDRESS":"中洲２４８之２號","OBJECTID":321383},"geometry":{"x":173234.93000000063,"y":2533972.790000001}},{"attributes":{"ID":321393,"DIS_CODE":0,"TOWNNAME":"安南區","LI":"海東里","LIN":"21鄰","STREET":"海東二街","SECT":" ","MAREA":" ","LANE":" ","ALLEY":" ","HOUSE_NO":"５１號","E_COORD97":166884.85701099999,"N_COORD97":2547894.1294100001,"ADDRESS":"海東二街５１號","OBJECTID":321384},"geometry":{"x":166884.85701100063,"y":2547894.1294140015}},{"attributes":{"ID":321394,"DIS_CODE":0,"TOWNNAME":"仁德區","LI":"上崙里","LIN":" ","STREET":"德崙路","SECT":" ","MAREA":" ","LANE":"３７０巷","ALLEY":" ","HOUSE_NO":"１號","E_COORD97":174008.20999999999,"N_COORD97":2538097.7599999998,"ADDRESS":"德崙路３７０巷１號","OBJECTID":321385},"geometry":{"x":174008.21000000089,"y":2538097.7599999998}},{"attributes":{"ID":321395,"DIS_CODE":0,"TOWNNAME":"仁德區","LI":"成功里","LIN":" ","STREET":"成功三街","SECT":" ","MAREA":" ","LANE":"１３巷","ALLEY":" ","HOUSE_NO":"５號","E_COORD97":171194.10000000001,"N_COORD97":2540011.77,"ADDRESS":"成功三街１３巷５號","OBJECTID":321386},"geometry":{"x":171194.10000000149,"y":2540011.7700000014}},{"attributes":{"ID":321396,"DIS_CODE":0,"TOWNNAME":"仁德區","LI":"上崙里","LIN":" ","STREET":"德崙路","SECT":" ","MAREA":" ","LANE":"４４２巷","ALLEY":" ","HOUSE_NO":"９號","E_COORD97":174160.82000000001,"N_COORD97":2538054.27,"ADDRESS":"德崙路４４２巷９號","OBJECTID":321387},"geometry":{"x":174160.8200000003,"y":2538054.2699999996}},{"attributes":{"ID":321397,"DIS_CODE":0,"TOWNNAME":"永康區","LI":"中華里","LIN":"15鄰","STREET":"忠義街","SECT":" ","MAREA":" ","LANE":"６０巷","ALLEY":" ","HOUSE_NO":"３號十五樓之９","E_COORD97":171786.45999999999,"N_COORD97":2544541.1200000001,"ADDRESS":"忠義街６０巷３號十五樓之９","OBJECTID":321388},"geometry":{"x":171786.45999999996,"y":2544541.1200000029}},{"attributes":{"ID":321398,"DIS_CODE":0,"TOWNNAME":"新市區","LI":"新和里","LIN":"8鄰","STREET":"仁愛街","SECT":" ","MAREA":" ","LANE":" ","ALLEY":" ","HOUSE_NO":"１０７號","E_COORD97":177545.16272699999,"N_COORD97":2552553.9571699998,"ADDRESS":"仁愛街１０７號","OBJECTID":321389},"geometry":{"x":177545.16272700205,"y":2552553.9571690001}},{"attributes":{"ID":321399,"DIS_CODE":0,"TOWNNAME":"永康區","LI":"中華里","LIN":"15鄰","STREET":"忠義街","SECT":" ","MAREA":" ","LANE":"６０巷","ALLEY":" ","HOUSE_NO":"１號八樓之１５","E_COORD97":171786.53,"N_COORD97":2544541.1200000001,"ADDRESS":"忠義街６０巷１號八樓之１５","OBJECTID":321390},"geometry":{"x":171786.53000000026,"y":2544541.1200000029}},{"attributes":{"ID":321400,"DIS_CODE":0,"TOWNNAME":"永康區","LI":"中華里","LIN":"15鄰","STREET":"忠義街","SECT":" ","MAREA":" ","LANE":"６０巷","ALLEY":" ","HOUSE_NO":"１號十二樓之５","E_COORD97":171786.53,"N_COORD97":2544541.1200000001,"ADDRESS":"忠義街６０巷１號十二樓之５","OBJECTID":321391},"geometry":{"x":171786.53000000026,"y":2544541.1200000029}},{"attributes":{"ID":321401,"DIS_CODE":0,"TOWNNAME":"永康區","LI":"中華里","LIN":"15鄰","STREET":"忠義街","SECT":" ","MAREA":" ","LANE":"６０巷","ALLEY":" ","HOUSE_NO":"１號六樓之１６","E_COORD97":171786.48000000001,"N_COORD97":2544541.1200000001,"ADDRESS":"忠義街６０巷１號六樓之１６","OBJECTID":321392},"geometry":{"x":171786.48000000138,"y":2544541.1200000029}},{"attributes":{"ID":321402,"DIS_CODE":0,"TOWNNAME":"安平區","LI":"育平里","LIN":"17鄰","STREET":"育平路","SECT":" ","MAREA":" ","LANE":" ","ALLEY":" ","HOUSE_NO":"２１２號五樓之２３","E_COORD97":164690.60999999999,"N_COORD97":2543415.9199999999,"ADDRESS":"育平路２１２號五樓之２３","OBJECTID":321393},"geometry":{"x":164690.61000000127,"y":2543415.9200000018}},{"attributes":{"ID":321403,"DIS_CODE":0,"TOWNNAME":"安平區","LI":"育平里","LIN":"17鄰","STREET":"育平路","SECT":" ","MAREA":" ","LANE":" ","ALLEY":" ","HOUSE_NO":"２１２號五樓之２５","E_COORD97":164690.60999999999,"N_COORD97":2543415.9199999999,"ADDRESS":"育平路２１２號五樓之２５","OBJECTID":321394},"geometry":{"x":164690.61000000127,"y":2543415.9200000018}},{"attributes":{"ID":321404,"DIS_CODE":0,"TOWNNAME":"安平區","LI":"育平里","LIN":"17鄰","STREET":"育平路","SECT":" ","MAREA":" ","LANE":" ","ALLEY":" ","HOUSE_NO":"２１２號五樓之２７","E_COORD97":164690.60999999999,"N_COORD97":2543415.9199999999,"ADDRESS":"育平路２１２號五樓之２７","OBJECTID":321395},"geometry":{"x":164690.61000000127,"y":2543415.9200000018}},{"attributes":{"ID":321405,"DIS_CODE":0,"TOWNNAME":"仁德區","LI":"太子里","LIN":"27鄰","STREET":"大發路","SECT":" ","MAREA":" ","LANE":" ","ALLEY":" ","HOUSE_NO":"４４２號","E_COORD97":173353.70000000001,"N_COORD97":2543425.5499999998,"ADDRESS":"大發路４４２號","OBJECTID":321396},"geometry":{"x":173353.70000000205,"y":2543425.5500000026}},{"attributes":{"ID":321406,"DIS_CODE":0,"TOWNNAME":"仁德區","LI":"中生里","LIN":" ","STREET":" ","SECT":" ","MAREA":"中洲","LANE":" ","ALLEY":" ","HOUSE_NO":"２３９之２號","E_COORD97":173175.51000000001,"N_COORD97":2533991.0499999998,"ADDRESS":"中洲２３９之２號","OBJECTID":321397},"geometry":{"x":173175.51000000071,"y":2533991.0500000007}},{"attributes":{"ID":321407,"DIS_CODE":0,"TOWNNAME":"歸仁區","LI":"崙頂里","LIN":"21鄰","STREET":"大成路","SECT":" ","MAREA":" ","LANE":" ","ALLEY":" ","HOUSE_NO":"１９２號","E_COORD97":177766.01612499999,"N_COORD97":2540153.89176,"ADDRESS":"大成路１９２號","OBJECTID":321398},"geometry":{"x":177766.01612500008,"y":2540153.8917580005}},{"attributes":{"ID":321408,"DIS_CODE":0,"TOWNNAME":"仁德區","LI":"土庫里","LIN":" ","STREET":"土庫路","SECT":" ","MAREA":" ","LANE":"１８５巷","ALLEY":" ","HOUSE_NO":"４號","E_COORD97":174342.91,"N_COORD97":2542939.4900000002,"ADDRESS":"土庫路１８５巷４號","OBJECTID":321399},"geometry":{"x":174342.91000000108,"y":2542939.4899999984}},{"attributes":{"ID":321409,"DIS_CODE":0,"TOWNNAME":"仁德區","LI":"仁愛里","LIN":" ","STREET":" ","SECT":" ","MAREA":"仁愛","LANE":" ","ALLEY":" ","HOUSE_NO":"２７０之２８號","E_COORD97":169668.32000000001,"N_COORD97":2539180.5499999998,"ADDRESS":"仁愛２７０之２８號","OBJECTID":321400},"geometry":{"x":169668.32000000123,"y":2539180.5500000026}}]}