{"displayFieldName":"TOWNNAME","fieldAliases":{"ID":"ID","DIS_CODE":"DIS_CODE","TOWNNAME":"TOWNNAME","LI":"LI","LIN":"LIN","STREET":"STREET","SECT":"SECT","MAREA":"MAREA","LANE":"LANE","ALLEY":"ALLEY","HOUSE_NO":"HOUSE_NO","E_COORD97":"E_COORD97","N_COORD97":"N_COORD97","ADDRESS":"ADDRESS","OBJECTID":"OBJECTID"},"geometryType":"esriGeometryPoint","spatialReference":{"wkid":102443,"latestWkid":3826},"fields":[{"name":"ID","type":"esriFieldTypeDouble","alias":"ID"},{"name":"DIS_CODE","type":"esriFieldTypeInteger","alias":"DIS_CODE"},{"name":"TOWNNAME","type":"esriFieldTypeString","alias":"TOWNNAME","length":8},{"name":"LI","type":"esriFieldTypeString","alias":"LI","length":8},{"name":"LIN","type":"esriFieldTypeString","alias":"LIN","length":12},{"name":"STREET","type":"esriFieldTypeString","alias":"STREET","length":20},{"name":"SECT","type":"esriFieldTypeString","alias":"SECT","length":8},{"name":"MAREA","type":"esriFieldTypeString","alias":"MAREA","length":12},{"name":"LANE","type":"esriFieldTypeString","alias":"LANE","length":10},{"name":"ALLEY","type":"esriFieldTypeString","alias":"ALLEY","length":10},{"name":"HOUSE_NO","type":"esriFieldTypeString","alias":"HOUSE_NO","length":20},{"name":"E_COORD97","type":"esriFieldTypeDouble","alias":"E_COORD97"},{"name":"N_COORD97","type":"esriFieldTypeDouble","alias":"N_COORD97"},{"name":"ADDRESS","type":"esriFieldTypeString","alias":"ADDRESS","length":50},{"name":"OBJECTID","type":"esriFieldTypeOID","alias":"OBJECTID"}],"features":[{"attributes":{"ID":618028,"DIS_CODE":0,"TOWNNAME":"麻豆區","LI":"東角里","LIN":"2鄰","STREET":"文昌路","SECT":" ","MAREA":" ","LANE":" ","ALLEY":" ","HOUSE_NO":"６號之２四\u25A0之２","E_COORD97":173453.85000000001,"N_COORD97":2564914.79,"ADDRESS":"文昌路６號之２四\u25A0之２","OBJECTID":618001},"geometry":{"x":173453.85000000149,"y":2564914.7899999991}},{"attributes":{"ID":618029,"DIS_CODE":0,"TOWNNAME":"麻豆區","LI":"東角里","LIN":"2鄰","STREET":"文昌路","SECT":" ","MAREA":" ","LANE":" ","ALLEY":" ","HOUSE_NO":"６號之２四\u25A0之３","E_COORD97":173453.85000000001,"N_COORD97":2564914.79,"ADDRESS":"文昌路６號之２四\u25A0之３","OBJECTID":618002},"geometry":{"x":173453.85000000149,"y":2564914.7899999991}},{"attributes":{"ID":618030,"DIS_CODE":0,"TOWNNAME":"永康區","LI":"尚頂里","LIN":"26鄰","STREET":"南台街","SECT":" ","MAREA":" ","LANE":" ","ALLEY":" ","HOUSE_NO":"１８號","E_COORD97":170451.23999999999,"N_COORD97":2546968.75,"ADDRESS":"南台街１８號","OBJECTID":618003},"geometry":{"x":170451.24000000209,"y":2546968.7500000037}},{"attributes":{"ID":618031,"DIS_CODE":0,"TOWNNAME":"永康區","LI":"永康里","LIN":"41鄰","STREET":"永大三路","SECT":" ","MAREA":" ","LANE":" ","ALLEY":" ","HOUSE_NO":"５５號","E_COORD97":174219.13,"N_COORD97":2546644.4300000002,"ADDRESS":"永大三路５５號","OBJECTID":618004},"geometry":{"x":174219.13000000082,"y":2546644.4299999997}},{"attributes":{"ID":618032,"DIS_CODE":0,"TOWNNAME":"麻豆區","LI":"東角里","LIN":"2鄰","STREET":"文昌路","SECT":" ","MAREA":" ","LANE":" ","ALLEY":" ","HOUSE_NO":"６號之７","E_COORD97":173475.72,"N_COORD97":2564891.0899999999,"ADDRESS":"文昌路６號之７","OBJECTID":618005},"geometry":{"x":173475.72000000067,"y":2564891.089999998}},{"attributes":{"ID":618033,"DIS_CODE":0,"TOWNNAME":"中西區","LI":"青年里","LIN":"2鄰","STREET":"興華街","SECT":" ","MAREA":" ","LANE":" ","ALLEY":" ","HOUSE_NO":"３７號","E_COORD97":169132.23999999999,"N_COORD97":2543677.8100000001,"ADDRESS":"興華街３７號","OBJECTID":618006},"geometry":{"x":169132.24000000022,"y":2543677.8100000024}},{"attributes":{"ID":618034,"DIS_CODE":0,"TOWNNAME":"中西區","LI":"青年里","LIN":"2鄰","STREET":"興華街","SECT":" ","MAREA":" ","LANE":" ","ALLEY":" ","HOUSE_NO":"４１號","E_COORD97":169140.14000000001,"N_COORD97":2543686.8700000001,"ADDRESS":"興華街４１號","OBJECTID":618007},"geometry":{"x":169140.13999999966,"y":2543686.870000001}},{"attributes":{"ID":618035,"DIS_CODE":0,"TOWNNAME":"中西區","LI":"郡王里","LIN":"2鄰","STREET":"樹林街","SECT":"二段","MAREA":" ","LANE":" ","ALLEY":" ","HOUSE_NO":"１０２號","E_COORD97":168870.85000000001,"N_COORD97":2543011.3900000001,"ADDRESS":"樹林街二段１０２號","OBJECTID":618008},"geometry":{"x":168870.84999999963,"y":2543011.3900000006}},{"attributes":{"ID":618036,"DIS_CODE":0,"TOWNNAME":"中西區","LI":"郡王里","LIN":"2鄰","STREET":"樹林街","SECT":"二段","MAREA":" ","LANE":" ","ALLEY":" ","HOUSE_NO":"１００號","E_COORD97":168874.98000000001,"N_COORD97":2543005.3599999999,"ADDRESS":"樹林街二段１００號","OBJECTID":618009},"geometry":{"x":168874.98000000231,"y":2543005.3600000013}},{"attributes":{"ID":618037,"DIS_CODE":0,"TOWNNAME":"中西區","LI":"郡王里","LIN":"2鄰","STREET":"樹林街","SECT":"二段","MAREA":" ","LANE":" ","ALLEY":" ","HOUSE_NO":"１０４號","E_COORD97":168865.03,"N_COORD97":2543012.2400000002,"ADDRESS":"樹林街二段１０４號","OBJECTID":618010},"geometry":{"x":168865.03000000119,"y":2543012.2400000002}},{"attributes":{"ID":618038,"DIS_CODE":0,"TOWNNAME":"中西區","LI":"郡王里","LIN":"2鄰","STREET":"樹林街","SECT":"二段","MAREA":" ","LANE":" ","ALLEY":" ","HOUSE_NO":"１０６號","E_COORD97":168861.42999999999,"N_COORD97":2543015.9399999999,"ADDRESS":"樹林街二段１０６號","OBJECTID":618011},"geometry":{"x":168861.43000000063,"y":2543015.9399999995}},{"attributes":{"ID":618039,"DIS_CODE":0,"TOWNNAME":"中西區","LI":"郡王里","LIN":"2鄰","STREET":"樹林街","SECT":"二段","MAREA":" ","LANE":" ","ALLEY":" ","HOUSE_NO":"１０８號","E_COORD97":168853.38,"N_COORD97":2543019.8500000001,"ADDRESS":"樹林街二段１０８號","OBJECTID":618012},"geometry":{"x":168853.38000000082,"y":2543019.8499999996}},{"attributes":{"ID":618040,"DIS_CODE":0,"TOWNNAME":"中西區","LI":"郡王里","LIN":"2鄰","STREET":"樹林街","SECT":"二段","MAREA":" ","LANE":" ","ALLEY":" ","HOUSE_NO":"１１０號","E_COORD97":168854.01000000001,"N_COORD97":2543013.1899999999,"ADDRESS":"樹林街二段１１０號","OBJECTID":618013},"geometry":{"x":168854.01000000071,"y":2543013.1900000013}},{"attributes":{"ID":618041,"DIS_CODE":0,"TOWNNAME":"中西區","LI":"郡王里","LIN":"2鄰","STREET":"樹林街","SECT":"二段","MAREA":" ","LANE":" ","ALLEY":" ","HOUSE_NO":"１１２號","E_COORD97":168864.07000000001,"N_COORD97":2542990.4199999999,"ADDRESS":"樹林街二段１１２號","OBJECTID":618014},"geometry":{"x":168864.07000000216,"y":2542990.4199999981}},{"attributes":{"ID":618042,"DIS_CODE":0,"TOWNNAME":"中西區","LI":"郡王里","LIN":"2鄰","STREET":"樹林街","SECT":"二段","MAREA":" ","LANE":" ","ALLEY":" ","HOUSE_NO":"１１４號","E_COORD97":168859.03,"N_COORD97":2542989.4399999999,"ADDRESS":"樹林街二段１１４號","OBJECTID":618015},"geometry":{"x":168859.03000000026,"y":2542989.4399999995}},{"attributes":{"ID":618043,"DIS_CODE":0,"TOWNNAME":"中西區","LI":"郡王里","LIN":"2鄰","STREET":"樹林街","SECT":"二段","MAREA":" ","LANE":" ","ALLEY":" ","HOUSE_NO":"１１６號","E_COORD97":168851.60999999999,"N_COORD97":2542989.1600000001,"ADDRESS":"樹林街二段１１６號","OBJECTID":618016},"geometry":{"x":168851.61000000034,"y":2542989.1600000039}},{"attributes":{"ID":618044,"DIS_CODE":0,"TOWNNAME":"中西區","LI":"郡王里","LIN":"2鄰","STREET":"樹林街","SECT":"二段","MAREA":" ","LANE":" ","ALLEY":" ","HOUSE_NO":"１１８號","E_COORD97":168847.26999999999,"N_COORD97":2542990.98,"ADDRESS":"樹林街二段１１８號","OBJECTID":618017},"geometry":{"x":168847.27000000048,"y":2542990.9800000042}},{"attributes":{"ID":618045,"DIS_CODE":0,"TOWNNAME":"中西區","LI":"郡王里","LIN":"2鄰","STREET":"樹林街","SECT":"二段","MAREA":" ","LANE":" ","ALLEY":" ","HOUSE_NO":"１２２號","E_COORD97":168842.51000000001,"N_COORD97":2542995.73,"ADDRESS":"樹林街二段１２２號","OBJECTID":618018},"geometry":{"x":168842.51000000071,"y":2542995.7299999986}},{"attributes":{"ID":618046,"DIS_CODE":0,"TOWNNAME":"中西區","LI":"郡王里","LIN":"2鄰","STREET":"樹林街","SECT":"二段","MAREA":" ","LANE":" ","ALLEY":" ","HOUSE_NO":"１２４號","E_COORD97":168847.79999999999,"N_COORD97":2543023.0800000001,"ADDRESS":"樹林街二段１２４號","OBJECTID":618019},"geometry":{"x":168847.79999999981,"y":2543023.0800000001}},{"attributes":{"ID":618047,"DIS_CODE":0,"TOWNNAME":"中西區","LI":"郡王里","LIN":"2鄰","STREET":"樹林街","SECT":"二段","MAREA":" ","LANE":" ","ALLEY":" ","HOUSE_NO":"１２６號","E_COORD97":168844.12,"N_COORD97":2543020.6099999999,"ADDRESS":"樹林街二段１２６號","OBJECTID":618020},"geometry":{"x":168844.12000000011,"y":2543020.6100000013}},{"attributes":{"ID":618048,"DIS_CODE":0,"TOWNNAME":"中西區","LI":"永華里","LIN":"2鄰","STREET":"府前路","SECT":"一段","MAREA":" ","LANE":" ","ALLEY":" ","HOUSE_NO":"１７８號","E_COORD97":168610.42999999999,"N_COORD97":2543305.0699999998,"ADDRESS":"府前路一段１７８號","OBJECTID":618021},"geometry":{"x":168610.43000000063,"y":2543305.0699999984}},{"attributes":{"ID":618049,"DIS_CODE":0,"TOWNNAME":"中西區","LI":"永華里","LIN":"2鄰","STREET":"府前路","SECT":"一段","MAREA":" ","LANE":" ","ALLEY":" ","HOUSE_NO":"１８０號","E_COORD97":168582.76000000001,"N_COORD97":2543302.29,"ADDRESS":"府前路一段１８０號","OBJECTID":618022},"geometry":{"x":168582.76000000071,"y":2543302.2899999991}},{"attributes":{"ID":618050,"DIS_CODE":0,"TOWNNAME":"中西區","LI":"永華里","LIN":"2鄰","STREET":"府前路","SECT":"一段","MAREA":" ","LANE":" ","ALLEY":" ","HOUSE_NO":"１８０號之１","E_COORD97":168574.73999999999,"N_COORD97":2543302.6600000001,"ADDRESS":"府前路一段１８０號之１","OBJECTID":618023},"geometry":{"x":168574.74000000209,"y":2543302.660000002}},{"attributes":{"ID":618051,"DIS_CODE":0,"TOWNNAME":"中西區","LI":"永華里","LIN":"2鄰","STREET":"府前路","SECT":"一段","MAREA":" ","LANE":" ","ALLEY":" ","HOUSE_NO":"１８６號","E_COORD97":168558.31,"N_COORD97":2543300.6600000001,"ADDRESS":"府前路一段１８６號","OBJECTID":618024},"geometry":{"x":168558.31000000145,"y":2543300.6600000001}},{"attributes":{"ID":618052,"DIS_CODE":0,"TOWNNAME":"中西區","LI":"永華里","LIN":"2鄰","STREET":"府前路","SECT":"一段","MAREA":" ","LANE":" ","ALLEY":" ","HOUSE_NO":"１８８號","E_COORD97":168553.92999999999,"N_COORD97":2543301.4700000002,"ADDRESS":"府前路一段１８８號","OBJECTID":618025},"geometry":{"x":168553.9299999997,"y":2543301.4700000007}},{"attributes":{"ID":618053,"DIS_CODE":0,"TOWNNAME":"中西區","LI":"永華里","LIN":"2鄰","STREET":"府前路","SECT":"一段","MAREA":" ","LANE":" ","ALLEY":" ","HOUSE_NO":"１９０號","E_COORD97":168549.03,"N_COORD97":2543301.8399999999,"ADDRESS":"府前路一段１９０號","OBJECTID":618026},"geometry":{"x":168549.03000000212,"y":2543301.8399999999}},{"attributes":{"ID":618054,"DIS_CODE":0,"TOWNNAME":"中西區","LI":"永華里","LIN":"2鄰","STREET":"府前路","SECT":"一段","MAREA":" ","LANE":" ","ALLEY":" ","HOUSE_NO":"１９２號","E_COORD97":168544.20000000001,"N_COORD97":2543301.8399999999,"ADDRESS":"府前路一段１９２號","OBJECTID":618027},"geometry":{"x":168544.20000000019,"y":2543301.8399999999}},{"attributes":{"ID":618055,"DIS_CODE":0,"TOWNNAME":"中西區","LI":"永華里","LIN":"2鄰","STREET":"府前路","SECT":"一段","MAREA":" ","LANE":" ","ALLEY":" ","HOUSE_NO":"１９４號","E_COORD97":168539,"N_COORD97":2543302.0600000001,"ADDRESS":"府前路一段１９４號","OBJECTID":618028},"geometry":{"x":168539.00000000093,"y":2543302.0599999987}},{"attributes":{"ID":618056,"DIS_CODE":0,"TOWNNAME":"永康區","LI":"西灣里","LIN":"39鄰","STREET":"永華路","SECT":" ","MAREA":" ","LANE":" ","ALLEY":" ","HOUSE_NO":"２２０號","E_COORD97":174112.23000000001,"N_COORD97":2545502.1000000001,"ADDRESS":"永華路２２０號","OBJECTID":618029},"geometry":{"x":174112.23000000138,"y":2545502.1000000015}},{"attributes":{"ID":618057,"DIS_CODE":0,"TOWNNAME":"永康區","LI":"尚頂里","LIN":"7鄰","STREET":"尚頂路","SECT":" ","MAREA":" ","LANE":" ","ALLEY":" ","HOUSE_NO":"１１０號","E_COORD97":171009.75,"N_COORD97":2547679.5,"ADDRESS":"尚頂路１１０號","OBJECTID":618030},"geometry":{"x":171009.75,"y":2547679.5000000019}},{"attributes":{"ID":618058,"DIS_CODE":0,"TOWNNAME":"永康區","LI":"西灣里","LIN":"28鄰","STREET":"永大路","SECT":"二段","MAREA":" ","LANE":" ","ALLEY":" ","HOUSE_NO":"７７０號","E_COORD97":174550.20999999999,"N_COORD97":2545953.7999999998,"ADDRESS":"永大路二段７７０號","OBJECTID":618031},"geometry":{"x":174550.21000000183,"y":2545953.8000000026}},{"attributes":{"ID":618059,"DIS_CODE":0,"TOWNNAME":"中西區","LI":"青年里","LIN":"2鄰","STREET":"衛民街","SECT":" ","MAREA":" ","LANE":" ","ALLEY":" ","HOUSE_NO":"３５號","E_COORD97":169133.82000000001,"N_COORD97":2543692.7799999998,"ADDRESS":"衛民街３５號","OBJECTID":618032},"geometry":{"x":169133.82000000123,"y":2543692.7800000031}},{"attributes":{"ID":618060,"DIS_CODE":0,"TOWNNAME":"中西區","LI":"青年里","LIN":"2鄰","STREET":"衛民街","SECT":" ","MAREA":" ","LANE":" ","ALLEY":" ","HOUSE_NO":"３７號","E_COORD97":169130.26999999999,"N_COORD97":2543694.7599999998,"ADDRESS":"衛民街３７號","OBJECTID":618033},"geometry":{"x":169130.27000000048,"y":2543694.7600000016}},{"attributes":{"ID":618061,"DIS_CODE":0,"TOWNNAME":"中西區","LI":"青年里","LIN":"2鄰","STREET":"衛民街","SECT":" ","MAREA":" ","LANE":" ","ALLEY":" ","HOUSE_NO":"３９號","E_COORD97":169127.51000000001,"N_COORD97":2543695.54,"ADDRESS":"衛民街３９號","OBJECTID":618034},"geometry":{"x":169127.51000000071,"y":2543695.540000001}},{"attributes":{"ID":618062,"DIS_CODE":0,"TOWNNAME":"中西區","LI":"青年里","LIN":"2鄰","STREET":"衛民街","SECT":" ","MAREA":" ","LANE":" ","ALLEY":" ","HOUSE_NO":"４３號","E_COORD97":169109.73999999999,"N_COORD97":2543680.96,"ADDRESS":"衛民街４３號","OBJECTID":618035},"geometry":{"x":169109.74000000022,"y":2543680.9600000028}},{"attributes":{"ID":618063,"DIS_CODE":0,"TOWNNAME":"中西區","LI":"青年里","LIN":"2鄰","STREET":"衛民街","SECT":" ","MAREA":" ","LANE":" ","ALLEY":" ","HOUSE_NO":"４５號","E_COORD97":169113.29000000001,"N_COORD97":2543684.5099999998,"ADDRESS":"衛民街４５號","OBJECTID":618036},"geometry":{"x":169113.2900000019,"y":2543684.5099999998}},{"attributes":{"ID":618064,"DIS_CODE":0,"TOWNNAME":"中西區","LI":"青年里","LIN":"2鄰","STREET":"衛民街","SECT":" ","MAREA":" ","LANE":" ","ALLEY":" ","HOUSE_NO":"４７號","E_COORD97":169113.29000000001,"N_COORD97":2543690.0299999998,"ADDRESS":"衛民街４７號","OBJECTID":618037},"geometry":{"x":169113.2900000019,"y":2543690.0299999993}},{"attributes":{"ID":618065,"DIS_CODE":0,"TOWNNAME":"中西區","LI":"青年里","LIN":"2鄰","STREET":"衛民街","SECT":" ","MAREA":" ","LANE":" ","ALLEY":" ","HOUSE_NO":"４９號","E_COORD97":169119.22,"N_COORD97":2543698.2999999998,"ADDRESS":"衛民街４９號","OBJECTID":618038},"geometry":{"x":169119.22000000067,"y":2543698.3000000026}},{"attributes":{"ID":618066,"DIS_CODE":0,"TOWNNAME":"中西區","LI":"青年里","LIN":"2鄰","STREET":"興華街","SECT":" ","MAREA":" ","LANE":" ","ALLEY":" ","HOUSE_NO":"１７號","E_COORD97":169074.60000000001,"N_COORD97":2543638.3900000001,"ADDRESS":"興華街１７號","OBJECTID":618039},"geometry":{"x":169074.59999999963,"y":2543638.3900000006}},{"attributes":{"ID":618067,"DIS_CODE":0,"TOWNNAME":"永康區","LI":"中興里","LIN":"2鄰","STREET":"中山東路","SECT":" ","MAREA":" ","LANE":" ","ALLEY":" ","HOUSE_NO":"４５１號","E_COORD97":171982.56,"N_COORD97":2544975,"ADDRESS":"中山東路４５１號","OBJECTID":618040},"geometry":{"x":171982.56000000145,"y":2544975.0000000019}},{"attributes":{"ID":618068,"DIS_CODE":0,"TOWNNAME":"永康區","LI":"大橋里","LIN":"2鄰","STREET":"大橋三街","SECT":" ","MAREA":" ","LANE":" ","ALLEY":" ","HOUSE_NO":"９０號","E_COORD97":170672.39999999999,"N_COORD97":2546605.7400000002,"ADDRESS":"大橋三街９０號","OBJECTID":618041},"geometry":{"x":170672.40000000224,"y":2546605.7400000002}},{"attributes":{"ID":618069,"DIS_CODE":0,"TOWNNAME":"永康區","LI":"中興里","LIN":"2鄰","STREET":"中山東路","SECT":" ","MAREA":" ","LANE":" ","ALLEY":" ","HOUSE_NO":"４４３號","E_COORD97":171980.10000000001,"N_COORD97":2544994.75,"ADDRESS":"中山東路４４３號","OBJECTID":618042},"geometry":{"x":171980.09999999963,"y":2544994.75}},{"attributes":{"ID":618070,"DIS_CODE":0,"TOWNNAME":"東區","LI":"和平里","LIN":"2鄰","STREET":"東門路","SECT":"三段","MAREA":" ","LANE":" ","ALLEY":" ","HOUSE_NO":"１００號","E_COORD97":171252.5,"N_COORD97":2542171.0800000001,"ADDRESS":"東門路三段１００號","OBJECTID":618043},"geometry":{"x":171252.5,"y":2542171.0800000001}},{"attributes":{"ID":618071,"DIS_CODE":0,"TOWNNAME":"東區","LI":"和平里","LIN":"2鄰","STREET":"東門路","SECT":"三段","MAREA":" ","LANE":" ","ALLEY":" ","HOUSE_NO":"１０４號","E_COORD97":171268.57999999999,"N_COORD97":2542155.4300000002,"ADDRESS":"東門路三段１０４號","OBJECTID":618044},"geometry":{"x":171268.58000000007,"y":2542155.4299999997}},{"attributes":{"ID":618072,"DIS_CODE":0,"TOWNNAME":"東區","LI":"和平里","LIN":"2鄰","STREET":"東門路","SECT":"三段","MAREA":" ","LANE":" ","ALLEY":" ","HOUSE_NO":"１０６號","E_COORD97":171274.92999999999,"N_COORD97":2542150.8399999999,"ADDRESS":"東門路三段１０６號","OBJECTID":618045},"geometry":{"x":171274.93000000156,"y":2542150.8400000017}},{"attributes":{"ID":618073,"DIS_CODE":0,"TOWNNAME":"東區","LI":"和平里","LIN":"2鄰","STREET":"東門路","SECT":"三段","MAREA":" ","LANE":" ","ALLEY":" ","HOUSE_NO":"１０８號","E_COORD97":171282.89999999999,"N_COORD97":2542146.1200000001,"ADDRESS":"東門路三段１０８號","OBJECTID":618046},"geometry":{"x":171282.9000000013,"y":2542146.1199999992}},{"attributes":{"ID":618074,"DIS_CODE":0,"TOWNNAME":"東區","LI":"和平里","LIN":"2鄰","STREET":"東門路","SECT":"三段","MAREA":" ","LANE":" ","ALLEY":" ","HOUSE_NO":"１１０號","E_COORD97":171290.19,"N_COORD97":2542140.9900000002,"ADDRESS":"東門路三段１１０號","OBJECTID":618047},"geometry":{"x":171290.19000000041,"y":2542140.9900000021}},{"attributes":{"ID":618075,"DIS_CODE":0,"TOWNNAME":"東區","LI":"龍山里","LIN":"2鄰","STREET":"崇仁街","SECT":" ","MAREA":" ","LANE":" ","ALLEY":" ","HOUSE_NO":"１１號","E_COORD97":170323.31,"N_COORD97":2542781.3999999999,"ADDRESS":"崇仁街１１號","OBJECTID":618048},"geometry":{"x":170323.31000000052,"y":2542781.4000000022}},{"attributes":{"ID":618076,"DIS_CODE":0,"TOWNNAME":"東區","LI":"東明里","LIN":"2鄰","STREET":"東興路","SECT":" ","MAREA":" ","LANE":" ","ALLEY":" ","HOUSE_NO":"６３號","E_COORD97":170920.54999999999,"N_COORD97":2543505.1600000001,"ADDRESS":"東興路６３號","OBJECTID":618049},"geometry":{"x":170920.55000000075,"y":2543505.160000002}},{"attributes":{"ID":618077,"DIS_CODE":0,"TOWNNAME":"永康區","LI":"南灣里","LIN":"31鄰","STREET":"大安街","SECT":" ","MAREA":" ","LANE":" ","ALLEY":" ","HOUSE_NO":"３５號","E_COORD97":174433.87,"N_COORD97":2544823.1899999999,"ADDRESS":"大安街３５號","OBJECTID":618050},"geometry":{"x":174433.86999999918,"y":2544823.1900000013}},{"attributes":{"ID":618078,"DIS_CODE":0,"TOWNNAME":"永康區","LI":"尚頂里","LIN":"30鄰","STREET":"中正南路","SECT":" ","MAREA":" ","LANE":" ","ALLEY":" ","HOUSE_NO":"２２５號","E_COORD97":170020.35000000001,"N_COORD97":2547285.9900000002,"ADDRESS":"中正南路２２５號","OBJECTID":618051},"geometry":{"x":170020.34999999963,"y":2547285.9900000039}},{"attributes":{"ID":618079,"DIS_CODE":0,"TOWNNAME":"永康區","LI":"尚頂里","LIN":"16鄰","STREET":"中正南路","SECT":" ","MAREA":" ","LANE":" ","ALLEY":" ","HOUSE_NO":"２３６號","E_COORD97":170239.04000000001,"N_COORD97":2547424.2400000002,"ADDRESS":"中正南路２３６號","OBJECTID":618052},"geometry":{"x":170239.04000000097,"y":2547424.2400000021}},{"attributes":{"ID":618080,"DIS_CODE":0,"TOWNNAME":"中西區","LI":"文賢里","LIN":"2鄰","STREET":"文和街","SECT":" ","MAREA":" ","LANE":" ","ALLEY":" ","HOUSE_NO":"２０號","E_COORD97":167269.26000000001,"N_COORD97":2544974.5600000001,"ADDRESS":"文和街２０號","OBJECTID":618053},"geometry":{"x":167269.26000000071,"y":2544974.5600000024}},{"attributes":{"ID":618081,"DIS_CODE":0,"TOWNNAME":"東區","LI":"泉南里","LIN":"2鄰","STREET":"府東街","SECT":" ","MAREA":" ","LANE":" ","ALLEY":" ","HOUSE_NO":"２４０號","E_COORD97":169351.57999999999,"N_COORD97":2543124.3700000001,"ADDRESS":"府東街２４０號","OBJECTID":618054},"geometry":{"x":169351.58000000007,"y":2543124.3700000048}},{"attributes":{"ID":618082,"DIS_CODE":0,"TOWNNAME":"東區","LI":"泉南里","LIN":"2鄰","STREET":"府東街","SECT":" ","MAREA":" ","LANE":" ","ALLEY":" ","HOUSE_NO":"２２１號","E_COORD97":169347.76000000001,"N_COORD97":2543078.27,"ADDRESS":"府東街２２１號","OBJECTID":618055},"geometry":{"x":169347.76000000071,"y":2543078.2699999996}},{"attributes":{"ID":618083,"DIS_CODE":0,"TOWNNAME":"東區","LI":"泉南里","LIN":"2鄰","STREET":"府東街","SECT":" ","MAREA":" ","LANE":" ","ALLEY":" ","HOUSE_NO":"２４６號","E_COORD97":169332.85999999999,"N_COORD97":2543139.8399999999,"ADDRESS":"府東街２４６號","OBJECTID":618056},"geometry":{"x":169332.86000000034,"y":2543139.8399999999}},{"attributes":{"ID":618084,"DIS_CODE":0,"TOWNNAME":"東區","LI":"泉南里","LIN":"2鄰","STREET":"府東街","SECT":" ","MAREA":" ","LANE":" ","ALLEY":" ","HOUSE_NO":"２５０號","E_COORD97":169327.63,"N_COORD97":2543141.0800000001,"ADDRESS":"府東街２５０號","OBJECTID":618057},"geometry":{"x":169327.62999999896,"y":2543141.0800000001}},{"attributes":{"ID":618085,"DIS_CODE":0,"TOWNNAME":"東區","LI":"圍下里","LIN":"2鄰","STREET":"青年路","SECT":" ","MAREA":" ","LANE":" ","ALLEY":" ","HOUSE_NO":"４２２號","E_COORD97":169696.98000000001,"N_COORD97":2543515.2000000002,"ADDRESS":"青年路４２２號","OBJECTID":618058},"geometry":{"x":169696.98000000045,"y":2543515.2000000011}},{"attributes":{"ID":618086,"DIS_CODE":0,"TOWNNAME":"東區","LI":"東明里","LIN":"2鄰","STREET":"怡東路","SECT":" ","MAREA":" ","LANE":" ","ALLEY":" ","HOUSE_NO":"３０號","E_COORD97":170829.95000000001,"N_COORD97":2543505.0800000001,"ADDRESS":"怡東路３０號","OBJECTID":618059},"geometry":{"x":170829.95000000112,"y":2543505.0800000038}},{"attributes":{"ID":618087,"DIS_CODE":0,"TOWNNAME":"東區","LI":"東明里","LIN":"2鄰","STREET":"怡東路","SECT":" ","MAREA":" ","LANE":" ","ALLEY":" ","HOUSE_NO":"３２號","E_COORD97":170831.53,"N_COORD97":2543520.9500000002,"ADDRESS":"怡東路３２號","OBJECTID":618060},"geometry":{"x":170831.53000000119,"y":2543520.9499999993}},{"attributes":{"ID":618088,"DIS_CODE":0,"TOWNNAME":"永康區","LI":"五王里","LIN":"2鄰","STREET":"成功路","SECT":" ","MAREA":" ","LANE":" ","ALLEY":" ","HOUSE_NO":"４９號","E_COORD97":171493.56,"N_COORD97":2545487.6600000001,"ADDRESS":"成功路４９號","OBJECTID":618061},"geometry":{"x":171493.55999999959,"y":2545487.6600000001}},{"attributes":{"ID":618089,"DIS_CODE":0,"TOWNNAME":"中西區","LI":"文賢里","LIN":"2鄰","STREET":"文和街","SECT":" ","MAREA":" ","LANE":" ","ALLEY":" ","HOUSE_NO":"２６號","E_COORD97":167257.42000000001,"N_COORD97":2544963.0600000001,"ADDRESS":"文和街２６號","OBJECTID":618062},"geometry":{"x":167257.41999999993,"y":2544963.0600000005}},{"attributes":{"ID":618090,"DIS_CODE":0,"TOWNNAME":"永康區","LI":"大灣里","LIN":"2鄰","STREET":"大安街","SECT":" ","MAREA":" ","LANE":" ","ALLEY":" ","HOUSE_NO":"３５０號","E_COORD97":174668.81,"N_COORD97":2545640.8799999999,"ADDRESS":"大安街３５０號","OBJECTID":618063},"geometry":{"x":174668.80999999959,"y":2545640.879999999}},{"attributes":{"ID":618091,"DIS_CODE":0,"TOWNNAME":"中西區","LI":"西賢里","LIN":"2鄰","STREET":"湖美街","SECT":" ","MAREA":" ","LANE":" ","ALLEY":" ","HOUSE_NO":"６１號","E_COORD97":165897.32000000001,"N_COORD97":2544593.9500000002,"ADDRESS":"湖美街６１號","OBJECTID":618064},"geometry":{"x":165897.3200000003,"y":2544593.9500000011}},{"attributes":{"ID":618092,"DIS_CODE":0,"TOWNNAME":"中西區","LI":"文賢里","LIN":"2鄰","STREET":"文和街","SECT":" ","MAREA":" ","LANE":" ","ALLEY":" ","HOUSE_NO":"３２號","E_COORD97":167247.78,"N_COORD97":2544953.2999999998,"ADDRESS":"文和街３２號","OBJECTID":618065},"geometry":{"x":167247.78000000119,"y":2544953.3000000026}},{"attributes":{"ID":618093,"DIS_CODE":0,"TOWNNAME":"善化區","LI":"南關里","LIN":"2鄰","STREET":"平等路","SECT":" ","MAREA":" ","LANE":" ","ALLEY":" ","HOUSE_NO":"５４號","E_COORD97":177191.51999999999,"N_COORD97":2558972.75,"ADDRESS":"平等路５４號","OBJECTID":618066},"geometry":{"x":177191.51999999955,"y":2558972.75}},{"attributes":{"ID":618094,"DIS_CODE":0,"TOWNNAME":"中西區","LI":"文賢里","LIN":"2鄰","STREET":"文和街","SECT":" ","MAREA":" ","LANE":" ","ALLEY":" ","HOUSE_NO":"３６號","E_COORD97":167239.78,"N_COORD97":2544948.7400000002,"ADDRESS":"文和街３６號","OBJECTID":618067},"geometry":{"x":167239.78000000026,"y":2544948.7400000021}},{"attributes":{"ID":618095,"DIS_CODE":0,"TOWNNAME":"永康區","LI":"南灣里","LIN":"39鄰","STREET":"南灣街","SECT":" ","MAREA":" ","LANE":" ","ALLEY":" ","HOUSE_NO":"１１８號","E_COORD97":174357.98999999999,"N_COORD97":2545006.9900000002,"ADDRESS":"南灣街１１８號","OBJECTID":618068},"geometry":{"x":174357.99000000022,"y":2545006.9900000002}},{"attributes":{"ID":618096,"DIS_CODE":0,"TOWNNAME":"永康區","LI":"東灣里","LIN":"13鄰","STREET":"大灣路","SECT":" ","MAREA":" ","LANE":" ","ALLEY":" ","HOUSE_NO":"３４７號","E_COORD97":174772.73000000001,"N_COORD97":2544927.4500000002,"ADDRESS":"大灣路３４７號","OBJECTID":618069},"geometry":{"x":174772.73000000231,"y":2544927.4499999993}},{"attributes":{"ID":618097,"DIS_CODE":0,"TOWNNAME":"永康區","LI":"東橋里","LIN":"22鄰","STREET":"自強路","SECT":" ","MAREA":" ","LANE":" ","ALLEY":" ","HOUSE_NO":"１號","E_COORD97":172914.73000000001,"N_COORD97":2547371.75,"ADDRESS":"自強路１號","OBJECTID":618070},"geometry":{"x":172914.73000000231,"y":2547371.75}},{"attributes":{"ID":618098,"DIS_CODE":0,"TOWNNAME":"中西區","LI":"西賢里","LIN":"2鄰","STREET":"西賢街","SECT":" ","MAREA":" ","LANE":" ","ALLEY":" ","HOUSE_NO":"９８號","E_COORD97":165829.44,"N_COORD97":2544689.6099999999,"ADDRESS":"西賢街９８號","OBJECTID":618071},"geometry":{"x":165829.44000000134,"y":2544689.6099999994}},{"attributes":{"ID":618099,"DIS_CODE":0,"TOWNNAME":"中西區","LI":"西湖里","LIN":"2鄰","STREET":"中華西路","SECT":"二段","MAREA":" ","LANE":" ","ALLEY":" ","HOUSE_NO":"５８１號","E_COORD97":166606.22,"N_COORD97":2544488.9100000001,"ADDRESS":"中華西路二段５８１號","OBJECTID":618072},"geometry":{"x":166606.2200000016,"y":2544488.9100000001}},{"attributes":{"ID":618100,"DIS_CODE":0,"TOWNNAME":"中西區","LI":"元安里","LIN":"2鄰","STREET":"國華街","SECT":"二段","MAREA":" ","LANE":" ","ALLEY":" ","HOUSE_NO":"２３號","E_COORD97":167575.06,"N_COORD97":2543186.8399999999,"ADDRESS":"國華街二段２３號","OBJECTID":618073},"geometry":{"x":167575.06000000145,"y":2543186.8399999999}},{"attributes":{"ID":618101,"DIS_CODE":0,"TOWNNAME":"中西區","LI":"元安里","LIN":"2鄰","STREET":"國華街","SECT":"二段","MAREA":" ","LANE":" ","ALLEY":" ","HOUSE_NO":"２５號","E_COORD97":167575.45999999999,"N_COORD97":2543193.7200000002,"ADDRESS":"國華街二段２５號","OBJECTID":618074},"geometry":{"x":167575.45999999996,"y":2543193.7200000025}},{"attributes":{"ID":618102,"DIS_CODE":0,"TOWNNAME":"中西區","LI":"元安里","LIN":"2鄰","STREET":"國華街","SECT":"二段","MAREA":" ","LANE":" ","ALLEY":" ","HOUSE_NO":"２９號","E_COORD97":167574.82999999999,"N_COORD97":2543200.6200000001,"ADDRESS":"國華街二段２９號","OBJECTID":618075},"geometry":{"x":167574.83000000007,"y":2543200.6200000048}},{"attributes":{"ID":618103,"DIS_CODE":0,"TOWNNAME":"中西區","LI":"元安里","LIN":"2鄰","STREET":"國華街","SECT":"二段","MAREA":" ","LANE":" ","ALLEY":" ","HOUSE_NO":"３１號","E_COORD97":167592.20000000001,"N_COORD97":2543199.9399999999,"ADDRESS":"國華街二段３１號","OBJECTID":618076},"geometry":{"x":167592.20000000112,"y":2543199.9399999995}},{"attributes":{"ID":618104,"DIS_CODE":0,"TOWNNAME":"中西區","LI":"元安里","LIN":"2鄰","STREET":"國華街","SECT":"二段","MAREA":" ","LANE":" ","ALLEY":" ","HOUSE_NO":"３３號","E_COORD97":167591.01999999999,"N_COORD97":2543210.4100000001,"ADDRESS":"國華街二段３３號","OBJECTID":618077},"geometry":{"x":167591.02000000048,"y":2543210.4100000001}},{"attributes":{"ID":618105,"DIS_CODE":0,"TOWNNAME":"中西區","LI":"元安里","LIN":"2鄰","STREET":"國華街","SECT":"二段","MAREA":" ","LANE":" ","ALLEY":" ","HOUSE_NO":"３５號","E_COORD97":167593.25,"N_COORD97":2543215.27,"ADDRESS":"國華街二段３５號","OBJECTID":618078},"geometry":{"x":167593.25000000093,"y":2543215.2700000033}},{"attributes":{"ID":618106,"DIS_CODE":0,"TOWNNAME":"中西區","LI":"元安里","LIN":"2鄰","STREET":"國華街","SECT":"二段","MAREA":" ","LANE":" ","ALLEY":" ","HOUSE_NO":"３７號","E_COORD97":167592.45000000001,"N_COORD97":2543221.5499999998,"ADDRESS":"國華街二段３７號","OBJECTID":618079},"geometry":{"x":167592.45000000112,"y":2543221.5500000026}},{"attributes":{"ID":618107,"DIS_CODE":0,"TOWNNAME":"中西區","LI":"元安里","LIN":"2鄰","STREET":"國華街","SECT":"二段","MAREA":" ","LANE":" ","ALLEY":" ","HOUSE_NO":"３９號","E_COORD97":167575.32999999999,"N_COORD97":2543219.8700000001,"ADDRESS":"國華街二段３９號","OBJECTID":618080},"geometry":{"x":167575.32999999914,"y":2543219.8700000029}},{"attributes":{"ID":618108,"DIS_CODE":0,"TOWNNAME":"中西區","LI":"文賢里","LIN":"2鄰","STREET":"文和街","SECT":" ","MAREA":" ","LANE":" ","ALLEY":" ","HOUSE_NO":"６６號","E_COORD97":167190.94,"N_COORD97":2544896.96,"ADDRESS":"文和街６６號","OBJECTID":618081},"geometry":{"x":167190.94000000134,"y":2544896.9600000046}},{"attributes":{"ID":618109,"DIS_CODE":0,"TOWNNAME":"中西區","LI":"文賢里","LIN":"2鄰","STREET":"文和街","SECT":" ","MAREA":" ","LANE":" ","ALLEY":" ","HOUSE_NO":"７８號","E_COORD97":167169.45000000001,"N_COORD97":2544882.52,"ADDRESS":"文和街７８號","OBJECTID":618082},"geometry":{"x":167169.45000000019,"y":2544882.5200000014}},{"attributes":{"ID":618110,"DIS_CODE":0,"TOWNNAME":"中西區","LI":"普濟里","LIN":"2鄰","STREET":"西門路","SECT":"二段","MAREA":" ","LANE":" ","ALLEY":" ","HOUSE_NO":"３５１號","E_COORD97":167954.26999999999,"N_COORD97":2544283.7999999998,"ADDRESS":"西門路二段３５１號","OBJECTID":618083},"geometry":{"x":167954.26999999955,"y":2544283.7999999989}},{"attributes":{"ID":618111,"DIS_CODE":0,"TOWNNAME":"中西區","LI":"普濟里","LIN":"2鄰","STREET":"西門路","SECT":"二段","MAREA":" ","LANE":" ","ALLEY":" ","HOUSE_NO":"３５１號底二層","E_COORD97":167954.26999999999,"N_COORD97":2544283.7999999998,"ADDRESS":"西門路二段３５１號底二層","OBJECTID":618084},"geometry":{"x":167954.26999999955,"y":2544283.7999999989}},{"attributes":{"ID":618112,"DIS_CODE":0,"TOWNNAME":"中西區","LI":"普濟里","LIN":"2鄰","STREET":"西門路","SECT":"二段","MAREA":" ","LANE":" ","ALLEY":" ","HOUSE_NO":"３５１號底層","E_COORD97":167954.26999999999,"N_COORD97":2544283.7999999998,"ADDRESS":"西門路二段３５１號底層","OBJECTID":618085},"geometry":{"x":167954.26999999955,"y":2544283.7999999989}},{"attributes":{"ID":618113,"DIS_CODE":0,"TOWNNAME":"中西區","LI":"普濟里","LIN":"2鄰","STREET":"西門路","SECT":"二段","MAREA":" ","LANE":" ","ALLEY":" ","HOUSE_NO":"３５３號","E_COORD97":167954.91,"N_COORD97":2544292.8399999999,"ADDRESS":"西門路二段３５３號","OBJECTID":618086},"geometry":{"x":167954.91000000108,"y":2544292.839999998}},{"attributes":{"ID":618114,"DIS_CODE":0,"TOWNNAME":"中西區","LI":"普濟里","LIN":"2鄰","STREET":"西門路","SECT":"二段","MAREA":" ","LANE":" ","ALLEY":" ","HOUSE_NO":"３５５號","E_COORD97":167961.85999999999,"N_COORD97":2544294.2999999998,"ADDRESS":"西門路二段３５５號","OBJECTID":618087},"geometry":{"x":167961.86000000034,"y":2544294.3000000045}},{"attributes":{"ID":618115,"DIS_CODE":0,"TOWNNAME":"中西區","LI":"普濟里","LIN":"2鄰","STREET":"西門路","SECT":"二段","MAREA":" ","LANE":" ","ALLEY":" ","HOUSE_NO":"３５７號","E_COORD97":167971.88,"N_COORD97":2544291.8700000001,"ADDRESS":"西門路二段３５７號","OBJECTID":618088},"geometry":{"x":167971.88000000082,"y":2544291.8700000029}},{"attributes":{"ID":618116,"DIS_CODE":0,"TOWNNAME":"中西區","LI":"普濟里","LIN":"2鄰","STREET":"西門路","SECT":"二段","MAREA":" ","LANE":" ","ALLEY":" ","HOUSE_NO":"３５９號","E_COORD97":167976.09,"N_COORD97":2544294.7799999998,"ADDRESS":"西門路二段３５９號","OBJECTID":618089},"geometry":{"x":167976.08999999985,"y":2544294.7799999993}},{"attributes":{"ID":618117,"DIS_CODE":0,"TOWNNAME":"中西區","LI":"普濟里","LIN":"2鄰","STREET":"西門路","SECT":"二段","MAREA":" ","LANE":" ","ALLEY":" ","HOUSE_NO":"３６１號","E_COORD97":167990.69,"N_COORD97":2544302.54,"ADDRESS":"西門路二段３６１號","OBJECTID":618090},"geometry":{"x":167990.69000000134,"y":2544302.540000001}},{"attributes":{"ID":618118,"DIS_CODE":0,"TOWNNAME":"中西區","LI":"普濟里","LIN":"2鄰","STREET":"西門路","SECT":"二段","MAREA":" ","LANE":" ","ALLEY":" ","HOUSE_NO":"３６３號","E_COORD97":167995.48000000001,"N_COORD97":2544295.1000000001,"ADDRESS":"西門路二段３６３號","OBJECTID":618091},"geometry":{"x":167995.48000000138,"y":2544295.1000000015}},{"attributes":{"ID":618119,"DIS_CODE":0,"TOWNNAME":"中西區","LI":"藥王里","LIN":"2鄰","STREET":"民族路","SECT":"三段","MAREA":" ","LANE":" ","ALLEY":" ","HOUSE_NO":"１７５號","E_COORD97":167469.01999999999,"N_COORD97":2544403.6899999999,"ADDRESS":"民族路三段１７５號","OBJECTID":618092},"geometry":{"x":167469.02000000048,"y":2544403.6900000013}},{"attributes":{"ID":618120,"DIS_CODE":0,"TOWNNAME":"中西區","LI":"藥王里","LIN":"2鄰","STREET":"民族路","SECT":"三段","MAREA":" ","LANE":" ","ALLEY":" ","HOUSE_NO":"１７７號","E_COORD97":167467.81,"N_COORD97":2544410.2200000002,"ADDRESS":"民族路三段１７７號","OBJECTID":618093},"geometry":{"x":167467.80999999959,"y":2544410.2200000044}},{"attributes":{"ID":618121,"DIS_CODE":0,"TOWNNAME":"中西區","LI":"藥王里","LIN":"2鄰","STREET":"民族路","SECT":"三段","MAREA":" ","LANE":" ","ALLEY":" ","HOUSE_NO":"１７９號","E_COORD97":167462.97,"N_COORD97":2544410.9500000002,"ADDRESS":"民族路三段１７９號","OBJECTID":618094},"geometry":{"x":167462.97000000067,"y":2544410.9500000011}},{"attributes":{"ID":618122,"DIS_CODE":0,"TOWNNAME":"中西區","LI":"藥王里","LIN":"2鄰","STREET":"民族路","SECT":"三段","MAREA":" ","LANE":" ","ALLEY":" ","HOUSE_NO":"１８１號","E_COORD97":167458.85000000001,"N_COORD97":2544411.4300000002,"ADDRESS":"民族路三段１８１號","OBJECTID":618095},"geometry":{"x":167458.84999999963,"y":2544411.4300000016}},{"attributes":{"ID":618123,"DIS_CODE":0,"TOWNNAME":"永康區","LI":"東灣里","LIN":"13鄰","STREET":"大灣路","SECT":" ","MAREA":" ","LANE":" ","ALLEY":" ","HOUSE_NO":"３４３號","E_COORD97":174775.87,"N_COORD97":2544934.98,"ADDRESS":"大灣路３４３號","OBJECTID":618096},"geometry":{"x":174775.87000000011,"y":2544934.9800000023}},{"attributes":{"ID":618124,"DIS_CODE":0,"TOWNNAME":"永康區","LI":"東灣里","LIN":"13鄰","STREET":"大灣路","SECT":" ","MAREA":" ","LANE":" ","ALLEY":" ","HOUSE_NO":"３６７號","E_COORD97":174755,"N_COORD97":2544892.1600000001,"ADDRESS":"大灣路３６７號","OBJECTID":618097},"geometry":{"x":174755.00000000186,"y":2544892.160000002}},{"attributes":{"ID":618125,"DIS_CODE":0,"TOWNNAME":"永康區","LI":"尚頂里","LIN":"34鄰","STREET":"國聖街","SECT":" ","MAREA":" ","LANE":" ","ALLEY":" ","HOUSE_NO":"９３號","E_COORD97":170451.45999999999,"N_COORD97":2548059.7400000002,"ADDRESS":"國聖街９３號","OBJECTID":618098},"geometry":{"x":170451.46000000089,"y":2548059.7400000002}},{"attributes":{"ID":618126,"DIS_CODE":0,"TOWNNAME":"永康區","LI":"東灣里","LIN":"8鄰","STREET":"大灣路","SECT":" ","MAREA":" ","LANE":" ","ALLEY":" ","HOUSE_NO":"４４０號","E_COORD97":174760.70999999999,"N_COORD97":2544965.7599999998,"ADDRESS":"大灣路４４０號","OBJECTID":618099},"geometry":{"x":174760.71000000089,"y":2544965.7600000016}},{"attributes":{"ID":618127,"DIS_CODE":0,"TOWNNAME":"永康區","LI":"建國里","LIN":"1鄰","STREET":"復興路","SECT":" ","MAREA":" ","LANE":" ","ALLEY":" ","HOUSE_NO":"４８號","E_COORD97":173021.81,"N_COORD97":2544343.5299999998,"ADDRESS":"復興路４８號","OBJECTID":618100},"geometry":{"x":173021.81000000145,"y":2544343.5300000012}},{"attributes":{"ID":618128,"DIS_CODE":0,"TOWNNAME":"永康區","LI":"尚頂里","LIN":"21鄰","STREET":"南台街","SECT":" ","MAREA":" ","LANE":" ","ALLEY":" ","HOUSE_NO":"９號","E_COORD97":170458.45000000001,"N_COORD97":2546945.75,"ADDRESS":"南台街９號","OBJECTID":618101},"geometry":{"x":170458.45000000112,"y":2546945.7500000019}},{"attributes":{"ID":618129,"DIS_CODE":0,"TOWNNAME":"永康區","LI":"東橋里","LIN":"22鄰","STREET":"自強路","SECT":" ","MAREA":" ","LANE":" ","ALLEY":" ","HOUSE_NO":"１７號","E_COORD97":172691.89000000001,"N_COORD97":2547175,"ADDRESS":"自強路１７號","OBJECTID":618102},"geometry":{"x":172691.88999999966,"y":2547175.0000000019}},{"attributes":{"ID":618130,"DIS_CODE":0,"TOWNNAME":"中西區","LI":"藥王里","LIN":"2鄰","STREET":"大福街","SECT":" ","MAREA":" ","LANE":" ","ALLEY":" ","HOUSE_NO":"４０號","E_COORD97":167352.35999999999,"N_COORD97":2544415.6499999999,"ADDRESS":"大福街４０號","OBJECTID":618103},"geometry":{"x":167352.36000000127,"y":2544415.6500000004}},{"attributes":{"ID":618131,"DIS_CODE":0,"TOWNNAME":"東區","LI":"龍山里","LIN":"2鄰","STREET":"崇仁街","SECT":" ","MAREA":" ","LANE":" ","ALLEY":" ","HOUSE_NO":"２１號","E_COORD97":170346.75,"N_COORD97":2542764.02,"ADDRESS":"崇仁街２１號","OBJECTID":618104},"geometry":{"x":170346.75,"y":2542764.0200000014}},{"attributes":{"ID":618132,"DIS_CODE":0,"TOWNNAME":"永康區","LI":"尚頂里","LIN":"34鄰","STREET":"中正南路","SECT":" ","MAREA":" ","LANE":" ","ALLEY":" ","HOUSE_NO":"３７９號","E_COORD97":170605.19,"N_COORD97":2547862.0600000001,"ADDRESS":"中正南路３７９號","OBJECTID":618105},"geometry":{"x":170605.19000000134,"y":2547862.0599999987}},{"attributes":{"ID":618133,"DIS_CODE":0,"TOWNNAME":"永康區","LI":"五王里","LIN":"2鄰","STREET":"成功路","SECT":" ","MAREA":" ","LANE":" ","ALLEY":" ","HOUSE_NO":"３３號","E_COORD97":171511.12,"N_COORD97":2545457.3999999999,"ADDRESS":"成功路３３號","OBJECTID":618106},"geometry":{"x":171511.12000000011,"y":2545457.4000000022}},{"attributes":{"ID":618134,"DIS_CODE":0,"TOWNNAME":"永康區","LI":"南灣里","LIN":"40鄰","STREET":"南灣街","SECT":" ","MAREA":" ","LANE":" ","ALLEY":" ","HOUSE_NO":"１３０號","E_COORD97":174319.35999999999,"N_COORD97":2545011.8900000001,"ADDRESS":"南灣街１３０號","OBJECTID":618107},"geometry":{"x":174319.36000000127,"y":2545011.8900000006}},{"attributes":{"ID":618135,"DIS_CODE":0,"TOWNNAME":"佳里區","LI":"安西里","LIN":"31鄰","STREET":"光明街","SECT":" ","MAREA":" ","LANE":" ","ALLEY":" ","HOUSE_NO":"１８號","E_COORD97":165131.07000000001,"N_COORD97":2562945.79,"ADDRESS":"光明街１８號","OBJECTID":618108},"geometry":{"x":165131.0700000003,"y":2562945.7899999991}},{"attributes":{"ID":618136,"DIS_CODE":0,"TOWNNAME":"仁德區","LI":"保安里","LIN":"2鄰","STREET":"文賢路","SECT":"一段","MAREA":" ","LANE":" ","ALLEY":" ","HOUSE_NO":"５０８之２２號","E_COORD97":170947.82000000001,"N_COORD97":2537044.5699999998,"ADDRESS":"文賢路一段５０８之２２號","OBJECTID":618109},"geometry":{"x":170947.82000000123,"y":2537044.5700000022}},{"attributes":{"ID":618137,"DIS_CODE":0,"TOWNNAME":"東區","LI":"東智里","LIN":"2鄰","STREET":"長東街","SECT":" ","MAREA":" ","LANE":" ","ALLEY":" ","HOUSE_NO":"１００號地下層","E_COORD97":171007.89000000001,"N_COORD97":2540353.27,"ADDRESS":"長東街１００號地下層","OBJECTID":618110},"geometry":{"x":171007.8900000006,"y":2540353.2699999996}},{"attributes":{"ID":618138,"DIS_CODE":0,"TOWNNAME":"東區","LI":"東智里","LIN":"2鄰","STREET":"長東街","SECT":" ","MAREA":" ","LANE":" ","ALLEY":" ","HOUSE_NO":"１００號之４地下層","E_COORD97":170962.14000000001,"N_COORD97":2540349.04,"ADDRESS":"長東街１００號之４地下層","OBJECTID":618111},"geometry":{"x":170962.1400000006,"y":2540349.040000001}},{"attributes":{"ID":618139,"DIS_CODE":0,"TOWNNAME":"東區","LI":"東智里","LIN":"2鄰","STREET":"長東街","SECT":" ","MAREA":" ","LANE":" ","ALLEY":" ","HOUSE_NO":"１００號之５地下層","E_COORD97":170957.48000000001,"N_COORD97":2540345.1000000001,"ADDRESS":"長東街１００號之５地下層","OBJECTID":618112},"geometry":{"x":170957.48000000138,"y":2540345.1000000015}},{"attributes":{"ID":618140,"DIS_CODE":0,"TOWNNAME":"東區","LI":"路東里","LIN":"2鄰","STREET":"大同路","SECT":"二段","MAREA":" ","LANE":" ","ALLEY":" ","HOUSE_NO":"７３號","E_COORD97":169337.76000000001,"N_COORD97":2542196.6099999999,"ADDRESS":"大同路二段７３號","OBJECTID":618113},"geometry":{"x":169337.75999999978,"y":2542196.6100000013}},{"attributes":{"ID":618141,"DIS_CODE":0,"TOWNNAME":"東區","LI":"路東里","LIN":"2鄰","STREET":"大同路","SECT":"二段","MAREA":" ","LANE":" ","ALLEY":" ","HOUSE_NO":"７５號","E_COORD97":169339.44,"N_COORD97":2542192.2400000002,"ADDRESS":"大同路二段７５號","OBJECTID":618114},"geometry":{"x":169339.44000000041,"y":2542192.2400000039}},{"attributes":{"ID":618142,"DIS_CODE":0,"TOWNNAME":"東區","LI":"後甲里","LIN":"2鄰","STREET":"建東街","SECT":" ","MAREA":" ","LANE":" ","ALLEY":" ","HOUSE_NO":"６號","E_COORD97":171802.20999999999,"N_COORD97":2543286.5600000001,"ADDRESS":"建東街６號","OBJECTID":618115},"geometry":{"x":171802.21000000183,"y":2543286.5600000024}},{"attributes":{"ID":618143,"DIS_CODE":0,"TOWNNAME":"東區","LI":"後甲里","LIN":"2鄰","STREET":"建東街","SECT":" ","MAREA":" ","LANE":" ","ALLEY":" ","HOUSE_NO":"４號","E_COORD97":171803.26999999999,"N_COORD97":2543282.3199999998,"ADDRESS":"建東街４號","OBJECTID":618116},"geometry":{"x":171803.27000000048,"y":2543282.3200000003}},{"attributes":{"ID":618144,"DIS_CODE":0,"TOWNNAME":"東區","LI":"自強里","LIN":"2鄰","STREET":"富農街","SECT":"一段","MAREA":" ","LANE":" ","ALLEY":" ","HOUSE_NO":"１３３號","E_COORD97":171531.34,"N_COORD97":2542488.3399999999,"ADDRESS":"富農街一段１３３號","OBJECTID":618117},"geometry":{"x":171531.33999999985,"y":2542488.3399999999}},{"attributes":{"ID":618145,"DIS_CODE":0,"TOWNNAME":"東區","LI":"自強里","LIN":"2鄰","STREET":"富農街","SECT":"一段","MAREA":" ","LANE":" ","ALLEY":" ","HOUSE_NO":"１３５號","E_COORD97":171531.63,"N_COORD97":2542492.9199999999,"ADDRESS":"富農街一段１３５號","OBJECTID":618118},"geometry":{"x":171531.63000000082,"y":2542492.9200000018}},{"attributes":{"ID":618146,"DIS_CODE":0,"TOWNNAME":"東區","LI":"自強里","LIN":"2鄰","STREET":"富農街","SECT":"一段","MAREA":" ","LANE":" ","ALLEY":" ","HOUSE_NO":"１３７號","E_COORD97":171531.48999999999,"N_COORD97":2542496.3599999999,"ADDRESS":"富農街一段１３７號","OBJECTID":618119},"geometry":{"x":171531.49000000115,"y":2542496.3600000013}},{"attributes":{"ID":618147,"DIS_CODE":0,"TOWNNAME":"東區","LI":"莊敬里","LIN":"2鄰","STREET":"東興路","SECT":" ","MAREA":" ","LANE":" ","ALLEY":" ","HOUSE_NO":"３８４號","E_COORD97":171035.45000000001,"N_COORD97":2544276.9900000002,"ADDRESS":"東興路３８４號","OBJECTID":618120},"geometry":{"x":171035.45000000112,"y":2544276.9900000021}},{"attributes":{"ID":618148,"DIS_CODE":0,"TOWNNAME":"東區","LI":"莊敬里","LIN":"2鄰","STREET":"東興路","SECT":" ","MAREA":" ","LANE":" ","ALLEY":" ","HOUSE_NO":"３８６號","E_COORD97":171033.64999999999,"N_COORD97":2544283.0299999998,"ADDRESS":"東興路３８６號","OBJECTID":618121},"geometry":{"x":171033.6500000013,"y":2544283.0299999993}},{"attributes":{"ID":618149,"DIS_CODE":0,"TOWNNAME":"東區","LI":"莊敬里","LIN":"2鄰","STREET":"東興路","SECT":" ","MAREA":" ","LANE":" ","ALLEY":" ","HOUSE_NO":"３８８號","E_COORD97":171033.38,"N_COORD97":2544288.3399999999,"ADDRESS":"東興路３８８號","OBJECTID":618122},"geometry":{"x":171033.38000000082,"y":2544288.3399999999}},{"attributes":{"ID":618150,"DIS_CODE":0,"TOWNNAME":"白河區","LI":"永安里","LIN":"2鄰","STREET":"中正路","SECT":" ","MAREA":" ","LANE":" ","ALLEY":" ","HOUSE_NO":"２５號","E_COORD97":190152.44,"N_COORD97":2583105.8500000001,"ADDRESS":"中正路２５號","OBJECTID":618123},"geometry":{"x":190152.44000000041,"y":2583105.8500000034}},{"attributes":{"ID":618151,"DIS_CODE":0,"TOWNNAME":"白河區","LI":"永安里","LIN":"2鄰","STREET":"中正路","SECT":" ","MAREA":" ","LANE":" ","ALLEY":" ","HOUSE_NO":"１５號","E_COORD97":190176.19,"N_COORD97":2583103.5899999999,"ADDRESS":"中正路１５號","OBJECTID":618124},"geometry":{"x":190176.19000000041,"y":2583103.5899999999}},{"attributes":{"ID":618152,"DIS_CODE":0,"TOWNNAME":"仁德區","LI":"田厝里","LIN":"2鄰","STREET":"保安路","SECT":"二段","MAREA":" ","LANE":" ","ALLEY":" ","HOUSE_NO":"６２０號","E_COORD97":172753.82999999999,"N_COORD97":2537582.5600000001,"ADDRESS":"保安路二段６２０號","OBJECTID":618125},"geometry":{"x":172753.83000000007,"y":2537582.5600000042}},{"attributes":{"ID":618153,"DIS_CODE":0,"TOWNNAME":"官田區","LI":"隆田里","LIN":"2鄰","STREET":"新生街","SECT":" ","MAREA":" ","LANE":" ","ALLEY":" ","HOUSE_NO":"２２號","E_COORD97":180272,"N_COORD97":2565657.3300000001,"ADDRESS":"新生街２２號","OBJECTID":618126},"geometry":{"x":180272.00000000093,"y":2565657.3300000019}},{"attributes":{"ID":618154,"DIS_CODE":0,"TOWNNAME":"官田區","LI":"隆田里","LIN":"2鄰","STREET":"新生街","SECT":" ","MAREA":" ","LANE":" ","ALLEY":" ","HOUSE_NO":"２４號","E_COORD97":180272.12,"N_COORD97":2565653.1699999999,"ADDRESS":"新生街２４號","OBJECTID":618127},"geometry":{"x":180272.12000000197,"y":2565653.1699999999}},{"attributes":{"ID":618155,"DIS_CODE":0,"TOWNNAME":"官田區","LI":"隆田里","LIN":"2鄰","STREET":"新生街","SECT":" ","MAREA":" ","LANE":" ","ALLEY":" ","HOUSE_NO":"２６號","E_COORD97":180272.73999999999,"N_COORD97":2565649.3199999998,"ADDRESS":"新生街２６號","OBJECTID":618128},"geometry":{"x":180272.74000000022,"y":2565649.3200000003}},{"attributes":{"ID":618156,"DIS_CODE":0,"TOWNNAME":"官田區","LI":"隆田里","LIN":"2鄰","STREET":"新生街","SECT":" ","MAREA":" ","LANE":" ","ALLEY":" ","HOUSE_NO":"２８號","E_COORD97":180272.82000000001,"N_COORD97":2565645.3100000001,"ADDRESS":"新生街２８號","OBJECTID":618129},"geometry":{"x":180272.82000000216,"y":2565645.3100000005}},{"attributes":{"ID":618157,"DIS_CODE":0,"TOWNNAME":"官田區","LI":"隆田里","LIN":"2鄰","STREET":"新生街","SECT":" ","MAREA":" ","LANE":" ","ALLEY":" ","HOUSE_NO":"３０號","E_COORD97":180266.73999999999,"N_COORD97":2565635.8999999999,"ADDRESS":"新生街３０號","OBJECTID":618130},"geometry":{"x":180266.74000000115,"y":2565635.9000000022}},{"attributes":{"ID":618158,"DIS_CODE":0,"TOWNNAME":"官田區","LI":"隆田里","LIN":"2鄰","STREET":"新生街","SECT":" ","MAREA":" ","LANE":" ","ALLEY":" ","HOUSE_NO":"３２號","E_COORD97":180267.10000000001,"N_COORD97":2565630.7000000002,"ADDRESS":"新生街３２號","OBJECTID":618131},"geometry":{"x":180267.10000000056,"y":2565630.6999999993}},{"attributes":{"ID":618159,"DIS_CODE":0,"TOWNNAME":"官田區","LI":"隆田里","LIN":"2鄰","STREET":"新生街","SECT":" ","MAREA":" ","LANE":" ","ALLEY":" ","HOUSE_NO":"３６號","E_COORD97":180267.70000000001,"N_COORD97":2565626.1299999999,"ADDRESS":"新生街３６號","OBJECTID":618132},"geometry":{"x":180267.70000000019,"y":2565626.1300000008}},{"attributes":{"ID":618160,"DIS_CODE":0,"TOWNNAME":"官田區","LI":"隆田里","LIN":"2鄰","STREET":"新生街","SECT":" ","MAREA":" ","LANE":" ","ALLEY":" ","HOUSE_NO":"３８號","E_COORD97":180267.42999999999,"N_COORD97":2565620.5600000001,"ADDRESS":"新生街３８號","OBJECTID":618133},"geometry":{"x":180267.4299999997,"y":2565620.5600000005}},{"attributes":{"ID":618161,"DIS_CODE":0,"TOWNNAME":"官田區","LI":"隆田里","LIN":"2鄰","STREET":"新生街","SECT":" ","MAREA":" ","LANE":" ","ALLEY":" ","HOUSE_NO":"４３號","E_COORD97":180290.79000000001,"N_COORD97":2565572.8799999999,"ADDRESS":"新生街４３號","OBJECTID":618134},"geometry":{"x":180290.79000000004,"y":2565572.879999999}},{"attributes":{"ID":618162,"DIS_CODE":0,"TOWNNAME":"新市區","LI":"新市里","LIN":"2鄰","STREET":"光華街","SECT":" ","MAREA":" ","LANE":" ","ALLEY":" ","HOUSE_NO":"１６１號","E_COORD97":177801.70000000001,"N_COORD97":2553034.1600000001,"ADDRESS":"光華街１６１號","OBJECTID":618135},"geometry":{"x":177801.69999999925,"y":2553034.1600000001}},{"attributes":{"ID":618163,"DIS_CODE":0,"TOWNNAME":"新市區","LI":"新市里","LIN":"2鄰","STREET":"光華街","SECT":" ","MAREA":" ","LANE":" ","ALLEY":" ","HOUSE_NO":"１６３號","E_COORD97":177801.95999999999,"N_COORD97":2553043.2400000002,"ADDRESS":"光華街１６３號","OBJECTID":618136},"geometry":{"x":177801.96000000089,"y":2553043.2400000002}},{"attributes":{"ID":618164,"DIS_CODE":0,"TOWNNAME":"東區","LI":"富裕里","LIN":"2鄰","STREET":"東門路","SECT":"二段","MAREA":" ","LANE":" ","ALLEY":" ","HOUSE_NO":"２０１號","E_COORD97":170506.04999999999,"N_COORD97":2542806.5299999998,"ADDRESS":"東門路二段２０１號","OBJECTID":618137},"geometry":{"x":170506.04999999981,"y":2542806.5300000012}},{"attributes":{"ID":618165,"DIS_CODE":0,"TOWNNAME":"東區","LI":"東門里","LIN":"2鄰","STREET":"北門路","SECT":"一段","MAREA":" ","LANE":" ","ALLEY":" ","HOUSE_NO":"８號","E_COORD97":169171.84,"N_COORD97":2543359.1299999999,"ADDRESS":"北門路一段８號","OBJECTID":618138},"geometry":{"x":169171.83999999985,"y":2543359.1300000008}},{"attributes":{"ID":618166,"DIS_CODE":0,"TOWNNAME":"東區","LI":"大學里","LIN":"2鄰","STREET":"長榮路","SECT":"三段","MAREA":" ","LANE":" ","ALLEY":" ","HOUSE_NO":"８２號","E_COORD97":170247.98999999999,"N_COORD97":2543854.1499999999,"ADDRESS":"長榮路三段８２號","OBJECTID":618139},"geometry":{"x":170247.99000000115,"y":2543854.1500000041}},{"attributes":{"ID":618167,"DIS_CODE":0,"TOWNNAME":"東區","LI":"大學里","LIN":"2鄰","STREET":"長榮路","SECT":"三段","MAREA":" ","LANE":" ","ALLEY":" ","HOUSE_NO":"８４號","E_COORD97":170262.97,"N_COORD97":2543853.8100000001,"ADDRESS":"長榮路三段８４號","OBJECTID":618140},"geometry":{"x":170262.97000000067,"y":2543853.8100000024}},{"attributes":{"ID":618168,"DIS_CODE":0,"TOWNNAME":"中西區","LI":"民權里","LIN":"2鄰","STREET":"忠明街","SECT":" ","MAREA":" ","LANE":" ","ALLEY":" ","HOUSE_NO":"３５號","E_COORD97":167592.10264699999,"N_COORD97":2544097.3200099999,"ADDRESS":"忠明街３５號","OBJECTID":618141},"geometry":{"x":167592.10264700186,"y":2544097.3200130034}},{"attributes":{"ID":618169,"DIS_CODE":0,"TOWNNAME":"永康區","LI":"南灣里","LIN":"37鄰","STREET":"南灣街","SECT":" ","MAREA":" ","LANE":" ","ALLEY":" ","HOUSE_NO":"１０４號","E_COORD97":174391.39999999999,"N_COORD97":2544974.29,"ADDRESS":"南灣街１０４號","OBJECTID":618142},"geometry":{"x":174391.40000000037,"y":2544974.2900000028}},{"attributes":{"ID":618170,"DIS_CODE":0,"TOWNNAME":"中西區","LI":"民權里","LIN":"2鄰","STREET":"忠明街","SECT":" ","MAREA":" ","LANE":" ","ALLEY":" ","HOUSE_NO":"３７號","E_COORD97":167588.50327099999,"N_COORD97":2544097.7433500001,"ADDRESS":"忠明街３７號","OBJECTID":618143},"geometry":{"x":167588.50327100232,"y":2544097.743346002}},{"attributes":{"ID":618171,"DIS_CODE":0,"TOWNNAME":"中西區","LI":"民權里","LIN":"2鄰","STREET":"忠明街","SECT":" ","MAREA":" ","LANE":" ","ALLEY":" ","HOUSE_NO":"３９號","E_COORD97":167585.11562200001,"N_COORD97":2544099.4366799998,"ADDRESS":"忠明街３９號","OBJECTID":618144},"geometry":{"x":167585.11562199984,"y":2544099.436679}},{"attributes":{"ID":618172,"DIS_CODE":0,"TOWNNAME":"中西區","LI":"民權里","LIN":"2鄰","STREET":"忠明街","SECT":" ","MAREA":" ","LANE":" ","ALLEY":" ","HOUSE_NO":"４１號","E_COORD97":167581.51624600001,"N_COORD97":2544100.4950100002,"ADDRESS":"忠明街４１號","OBJECTID":618145},"geometry":{"x":167581.5162460003,"y":2544100.4950110018}},{"attributes":{"ID":618173,"DIS_CODE":0,"TOWNNAME":"中西區","LI":"民權里","LIN":"2鄰","STREET":"忠明街","SECT":" ","MAREA":" ","LANE":" ","ALLEY":" ","HOUSE_NO":"４３號","E_COORD97":167578.128597,"N_COORD97":2544101.5533400001,"ADDRESS":"忠明街４３號","OBJECTID":618146},"geometry":{"x":167578.12859700061,"y":2544101.5533440001}},{"attributes":{"ID":618174,"DIS_CODE":0,"TOWNNAME":"中西區","LI":"民權里","LIN":"2鄰","STREET":"忠明街","SECT":" ","MAREA":" ","LANE":" ","ALLEY":" ","HOUSE_NO":"４７號","E_COORD97":167570.50638899999,"N_COORD97":2544103.67001,"ADDRESS":"忠明街４７號","OBJECTID":618147},"geometry":{"x":167570.50638899859,"y":2544103.6700100023}},{"attributes":{"ID":618175,"DIS_CODE":0,"TOWNNAME":"中西區","LI":"民權里","LIN":"2鄰","STREET":"忠明街","SECT":" ","MAREA":" ","LANE":" ","ALLEY":" ","HOUSE_NO":"４９號","E_COORD97":167566.69528399999,"N_COORD97":2544105.3633400002,"ADDRESS":"忠明街４９號","OBJECTID":618148},"geometry":{"x":167566.69528400153,"y":2544105.3633420002}},{"attributes":{"ID":618176,"DIS_CODE":0,"TOWNNAME":"中西區","LI":"民權里","LIN":"2鄰","STREET":"忠明街","SECT":" ","MAREA":" ","LANE":" ","ALLEY":" ","HOUSE_NO":"５１號","E_COORD97":167563.51936400001,"N_COORD97":2544105.9983399999,"ADDRESS":"忠明街５１號","OBJECTID":618149},"geometry":{"x":167563.51936399937,"y":2544105.9983419999}},{"attributes":{"ID":618177,"DIS_CODE":0,"TOWNNAME":"中西區","LI":"民權里","LIN":"2鄰","STREET":"忠明街","SECT":" ","MAREA":" ","LANE":" ","ALLEY":" ","HOUSE_NO":"５３號","E_COORD97":167559.70825900001,"N_COORD97":2544107.6916700001,"ADDRESS":"忠明街５３號","OBJECTID":618150},"geometry":{"x":167559.70825900231,"y":2544107.6916740034}},{"attributes":{"ID":618178,"DIS_CODE":0,"TOWNNAME":"中西區","LI":"民權里","LIN":"2鄰","STREET":"忠明街","SECT":" ","MAREA":" ","LANE":" ","ALLEY":" ","HOUSE_NO":"５５號","E_COORD97":167556.320611,"N_COORD97":2544108.53834,"ADDRESS":"忠明街５５號","OBJECTID":618151},"geometry":{"x":167556.32061100099,"y":2544108.5383400004}},{"attributes":{"ID":618179,"DIS_CODE":0,"TOWNNAME":"中西區","LI":"民權里","LIN":"2鄰","STREET":"忠明街","SECT":" ","MAREA":" ","LANE":" ","ALLEY":" ","HOUSE_NO":"５７號","E_COORD97":167551.662595,"N_COORD97":2544109.5966699999,"ADDRESS":"忠明街５７號","OBJECTID":618152},"geometry":{"x":167551.66259500012,"y":2544109.5966730025}},{"attributes":{"ID":618180,"DIS_CODE":0,"TOWNNAME":"中西區","LI":"民權里","LIN":"2鄰","STREET":"康樂街","SECT":" ","MAREA":" ","LANE":" ","ALLEY":" ","HOUSE_NO":"１８２號","E_COORD97":167539.57999999999,"N_COORD97":2544115.2999999998,"ADDRESS":"康樂街１８２號","OBJECTID":618153},"geometry":{"x":167539.58000000007,"y":2544115.3000000026}},{"attributes":{"ID":618181,"DIS_CODE":0,"TOWNNAME":"中西區","LI":"民權里","LIN":"2鄰","STREET":"康樂街","SECT":" ","MAREA":" ","LANE":" ","ALLEY":" ","HOUSE_NO":"１８４號","E_COORD97":167542.69,"N_COORD97":2544120.23,"ADDRESS":"康樂街１８４號","OBJECTID":618154},"geometry":{"x":167542.69000000041,"y":2544120.2300000004}},{"attributes":{"ID":618182,"DIS_CODE":0,"TOWNNAME":"中西區","LI":"協進里","LIN":"2鄰","STREET":"西寧街","SECT":" ","MAREA":" ","LANE":" ","ALLEY":" ","HOUSE_NO":"１７號","E_COORD97":167165.94,"N_COORD97":2544197.8700000001,"ADDRESS":"西寧街１７號","OBJECTID":618155},"geometry":{"x":167165.94000000041,"y":2544197.870000001}},{"attributes":{"ID":618183,"DIS_CODE":0,"TOWNNAME":"中西區","LI":"協進里","LIN":"2鄰","STREET":"民生路","SECT":"二段","MAREA":" ","LANE":" ","ALLEY":" ","HOUSE_NO":"２３２號","E_COORD97":167224.5,"N_COORD97":2544147.4700000002,"ADDRESS":"民生路二段２３２號","OBJECTID":618156},"geometry":{"x":167224.5,"y":2544147.4700000044}},{"attributes":{"ID":618184,"DIS_CODE":0,"TOWNNAME":"中西區","LI":"協進里","LIN":"2鄰","STREET":"民生路","SECT":"二段","MAREA":" ","LANE":" ","ALLEY":" ","HOUSE_NO":"２３４號","E_COORD97":167215.70999999999,"N_COORD97":2544149.5600000001,"ADDRESS":"民生路二段２３４號","OBJECTID":618157},"geometry":{"x":167215.71000000089,"y":2544149.5600000005}},{"attributes":{"ID":618185,"DIS_CODE":0,"TOWNNAME":"新化區","LI":"觀音里","LIN":"2鄰","STREET":"中山路","SECT":" ","MAREA":" ","LANE":" ","ALLEY":" ","HOUSE_NO":"２６４號","E_COORD97":179040.20999999999,"N_COORD97":2548437.25,"ADDRESS":"中山路２６４號","OBJECTID":618158},"geometry":{"x":179040.20999999996,"y":2548437.2500000019}},{"attributes":{"ID":618186,"DIS_CODE":0,"TOWNNAME":"永康區","LI":"南灣里","LIN":"10鄰","STREET":"南興路","SECT":" ","MAREA":" ","LANE":" ","ALLEY":" ","HOUSE_NO":"１５號之１０","E_COORD97":174128.72,"N_COORD97":2544127.0499999998,"ADDRESS":"南興路１５號之１０","OBJECTID":618159},"geometry":{"x":174128.71999999974,"y":2544127.0500000026}},{"attributes":{"ID":618187,"DIS_CODE":0,"TOWNNAME":"新化區","LI":"豐榮里","LIN":"2鄰","STREET":"大智路","SECT":" ","MAREA":" ","LANE":" ","ALLEY":" ","HOUSE_NO":"１０６號","E_COORD97":178075.13,"N_COORD97":2548146.25,"ADDRESS":"大智路１０６號","OBJECTID":618160},"geometry":{"x":178075.13000000082,"y":2548146.2500000019}},{"attributes":{"ID":618188,"DIS_CODE":0,"TOWNNAME":"東區","LI":"小東里","LIN":"2鄰","STREET":"小東路","SECT":" ","MAREA":" ","LANE":" ","ALLEY":" ","HOUSE_NO":"２４６號","E_COORD97":170975.62,"N_COORD97":2544401.9300000002,"ADDRESS":"小東路２４６號","OBJECTID":618161},"geometry":{"x":170975.62000000011,"y":2544401.9300000016}},{"attributes":{"ID":618189,"DIS_CODE":0,"TOWNNAME":"東區","LI":"復興里","LIN":"2鄰","STREET":"富農街","SECT":"一段","MAREA":" ","LANE":" ","ALLEY":" ","HOUSE_NO":"２７４號","E_COORD97":171605.42000000001,"N_COORD97":2542684.7999999998,"ADDRESS":"富農街一段２７４號","OBJECTID":618162},"geometry":{"x":171605.41999999993,"y":2542684.8000000026}},{"attributes":{"ID":618190,"DIS_CODE":0,"TOWNNAME":"東區","LI":"復興里","LIN":"2鄰","STREET":"富農街","SECT":"一段","MAREA":" ","LANE":" ","ALLEY":" ","HOUSE_NO":"２７０號","E_COORD97":171604.39999999999,"N_COORD97":2542675.9500000002,"ADDRESS":"富農街一段２７０號","OBJECTID":618163},"geometry":{"x":171604.40000000037,"y":2542675.9500000011}},{"attributes":{"ID":618191,"DIS_CODE":0,"TOWNNAME":"東區","LI":"復興里","LIN":"2鄰","STREET":"富農街","SECT":"一段","MAREA":" ","LANE":" ","ALLEY":" ","HOUSE_NO":"２７６號","E_COORD97":171605.76000000001,"N_COORD97":2542688.5499999998,"ADDRESS":"富農街一段２７６號","OBJECTID":618164},"geometry":{"x":171605.76000000071,"y":2542688.5500000007}},{"attributes":{"ID":618192,"DIS_CODE":0,"TOWNNAME":"東區","LI":"復興里","LIN":"2鄰","STREET":"富農街","SECT":"一段","MAREA":" ","LANE":" ","ALLEY":" ","HOUSE_NO":"２７８號","E_COORD97":171607.79999999999,"N_COORD97":2542696.04,"ADDRESS":"富農街一段２７８號","OBJECTID":618165},"geometry":{"x":171607.79999999981,"y":2542696.0399999991}},{"attributes":{"ID":618193,"DIS_CODE":0,"TOWNNAME":"東區","LI":"復興里","LIN":"2鄰","STREET":"富農街","SECT":"一段","MAREA":" ","LANE":" ","ALLEY":" ","HOUSE_NO":"２７８號地下一層","E_COORD97":171607.79999999999,"N_COORD97":2542696.04,"ADDRESS":"富農街一段２７８號地下一層","OBJECTID":618166},"geometry":{"x":171607.79999999981,"y":2542696.0399999991}},{"attributes":{"ID":618194,"DIS_CODE":0,"TOWNNAME":"東區","LI":"復興里","LIN":"2鄰","STREET":"富農街","SECT":"一段","MAREA":" ","LANE":" ","ALLEY":" ","HOUSE_NO":"２８０號","E_COORD97":171608.14999999999,"N_COORD97":2542701.48,"ADDRESS":"富農街一段２８０號","OBJECTID":618167},"geometry":{"x":171608.15000000224,"y":2542701.4800000004}},{"attributes":{"ID":618195,"DIS_CODE":0,"TOWNNAME":"東區","LI":"復興里","LIN":"2鄰","STREET":"富農街","SECT":"一段","MAREA":" ","LANE":" ","ALLEY":" ","HOUSE_NO":"２８２號","E_COORD97":171609.85000000001,"N_COORD97":2542705.5699999998,"ADDRESS":"富農街一段２８２號","OBJECTID":618168},"geometry":{"x":171609.85000000056,"y":2542705.5700000022}},{"attributes":{"ID":618196,"DIS_CODE":0,"TOWNNAME":"東區","LI":"復興里","LIN":"2鄰","STREET":"富農街","SECT":"一段","MAREA":" ","LANE":" ","ALLEY":" ","HOUSE_NO":"２８４之１號","E_COORD97":171634.32000000001,"N_COORD97":2542696.73,"ADDRESS":"富農街一段２８４之１號","OBJECTID":618169},"geometry":{"x":171634.32000000123,"y":2542696.7300000004}},{"attributes":{"ID":618197,"DIS_CODE":0,"TOWNNAME":"東區","LI":"復興里","LIN":"2鄰","STREET":"富農街","SECT":"一段","MAREA":" ","LANE":" ","ALLEY":" ","HOUSE_NO":"２８４之２號","E_COORD97":171633.64000000001,"N_COORD97":2542704.2200000002,"ADDRESS":"富農街一段２８４之２號","OBJECTID":618170},"geometry":{"x":171633.6400000006,"y":2542704.2200000007}},{"attributes":{"ID":618198,"DIS_CODE":0,"TOWNNAME":"東區","LI":"復興里","LIN":"2鄰","STREET":"富農街","SECT":"一段","MAREA":" ","LANE":" ","ALLEY":" ","HOUSE_NO":"２８４號","E_COORD97":171610.53,"N_COORD97":2542709.6600000001,"ADDRESS":"富農街一段２８４號","OBJECTID":618171},"geometry":{"x":171610.53000000212,"y":2542709.6600000001}},{"attributes":{"ID":618199,"DIS_CODE":0,"TOWNNAME":"東區","LI":"復興里","LIN":"2鄰","STREET":"富農街","SECT":"一段","MAREA":" ","LANE":" ","ALLEY":" ","HOUSE_NO":"２８６號","E_COORD97":171612.92000000001,"N_COORD97":2542717.1400000001,"ADDRESS":"富農街一段２８６號","OBJECTID":618172},"geometry":{"x":171612.92000000086,"y":2542717.1400000006}},{"attributes":{"ID":618200,"DIS_CODE":0,"TOWNNAME":"東區","LI":"復興里","LIN":"2鄰","STREET":"富農街","SECT":"一段","MAREA":" ","LANE":" ","ALLEY":" ","HOUSE_NO":"２８８號","E_COORD97":171614.28,"N_COORD97":2542720.8900000001,"ADDRESS":"富農街一段２８８號","OBJECTID":618173},"geometry":{"x":171614.28000000119,"y":2542720.8900000025}},{"attributes":{"ID":618201,"DIS_CODE":0,"TOWNNAME":"東區","LI":"復興里","LIN":"2鄰","STREET":"富農街","SECT":"一段","MAREA":" ","LANE":" ","ALLEY":" ","HOUSE_NO":"２９０之１號","E_COORD97":171616.67000000001,"N_COORD97":2542728.3799999999,"ADDRESS":"富農街一段２９０之１號","OBJECTID":618174},"geometry":{"x":171616.67000000086,"y":2542728.379999999}},{"attributes":{"ID":618202,"DIS_CODE":0,"TOWNNAME":"東區","LI":"復興里","LIN":"2鄰","STREET":"富農街","SECT":"一段","MAREA":" ","LANE":" ","ALLEY":" ","HOUSE_NO":"２９０之２號","E_COORD97":171618.03,"N_COORD97":2542732.1200000001,"ADDRESS":"富農街一段２９０之２號","OBJECTID":618175},"geometry":{"x":171618.03000000119,"y":2542732.120000001}},{"attributes":{"ID":618203,"DIS_CODE":0,"TOWNNAME":"東區","LI":"復興里","LIN":"2鄰","STREET":"富農街","SECT":"一段","MAREA":" ","LANE":" ","ALLEY":" ","HOUSE_NO":"２９０之３號","E_COORD97":171619.39999999999,"N_COORD97":2542736.8900000001,"ADDRESS":"富農街一段２９０之３號","OBJECTID":618176},"geometry":{"x":171619.40000000037,"y":2542736.8900000006}},{"attributes":{"ID":618204,"DIS_CODE":0,"TOWNNAME":"東區","LI":"復興里","LIN":"2鄰","STREET":"富農街","SECT":"一段","MAREA":" ","LANE":" ","ALLEY":" ","HOUSE_NO":"２９０之５號","E_COORD97":171620.03,"N_COORD97":2542741.2599999998,"ADDRESS":"富農街一段２９０之５號","OBJECTID":618177},"geometry":{"x":171620.03000000026,"y":2542741.2600000016}},{"attributes":{"ID":618205,"DIS_CODE":0,"TOWNNAME":"東區","LI":"復興里","LIN":"2鄰","STREET":"富農街","SECT":"一段","MAREA":" ","LANE":" ","ALLEY":" ","HOUSE_NO":"２９０之６號","E_COORD97":171623.09,"N_COORD97":2542746.3700000001,"ADDRESS":"富農街一段２９０之６號","OBJECTID":618178},"geometry":{"x":171623.08999999985,"y":2542746.370000001}},{"attributes":{"ID":618206,"DIS_CODE":0,"TOWNNAME":"東區","LI":"復興里","LIN":"2鄰","STREET":"富農街","SECT":"一段","MAREA":" ","LANE":" ","ALLEY":" ","HOUSE_NO":"２９０之７號","E_COORD97":171627.19,"N_COORD97":2542762.71,"ADDRESS":"富農街一段２９０之７號","OBJECTID":618179},"geometry":{"x":171627.19000000134,"y":2542762.7100000046}},{"attributes":{"ID":618207,"DIS_CODE":0,"TOWNNAME":"東區","LI":"復興里","LIN":"2鄰","STREET":"富農街","SECT":"一段","MAREA":" ","LANE":" ","ALLEY":" ","HOUSE_NO":"２９０號","E_COORD97":171615.64999999999,"N_COORD97":2542724.6299999999,"ADDRESS":"富農街一段２９０號","OBJECTID":618180},"geometry":{"x":171615.6500000013,"y":2542724.6300000008}},{"attributes":{"ID":618208,"DIS_CODE":0,"TOWNNAME":"永康區","LI":"建國里","LIN":"2鄰","STREET":"復興路","SECT":" ","MAREA":" ","LANE":" ","ALLEY":" ","HOUSE_NO":"９４號","E_COORD97":172817.95000000001,"N_COORD97":2544344.6400000001,"ADDRESS":"復興路９４號","OBJECTID":618181},"geometry":{"x":172817.95000000205,"y":2544344.6400000006}},{"attributes":{"ID":618209,"DIS_CODE":0,"TOWNNAME":"中西區","LI":"西賢里","LIN":"2鄰","STREET":"湖美街","SECT":" ","MAREA":" ","LANE":" ","ALLEY":" ","HOUSE_NO":"６７之５號","E_COORD97":165872.01000000001,"N_COORD97":2544595.4900000002,"ADDRESS":"湖美街６７之５號","OBJECTID":618182},"geometry":{"x":165872.01000000164,"y":2544595.4900000021}},{"attributes":{"ID":618210,"DIS_CODE":0,"TOWNNAME":"永康區","LI":"尚頂里","LIN":"2鄰","STREET":"中正二街","SECT":" ","MAREA":" ","LANE":" ","ALLEY":" ","HOUSE_NO":"１４５號","E_COORD97":171209.63,"N_COORD97":2547626.2799999998,"ADDRESS":"中正二街１４５號","OBJECTID":618183},"geometry":{"x":171209.63000000082,"y":2547626.2800000012}},{"attributes":{"ID":618211,"DIS_CODE":0,"TOWNNAME":"永康區","LI":"五王里","LIN":"2鄰","STREET":"中華二路","SECT":" ","MAREA":" ","LANE":" ","ALLEY":" ","HOUSE_NO":"２４０號","E_COORD97":171511.32000000001,"N_COORD97":2545440.4900000002,"ADDRESS":"中華二路２４０號","OBJECTID":618184},"geometry":{"x":171511.3200000003,"y":2545440.4900000002}},{"attributes":{"ID":618212,"DIS_CODE":0,"TOWNNAME":"東區","LI":"富裕里","LIN":"2鄰","STREET":"東門路","SECT":"二段","MAREA":" ","LANE":" ","ALLEY":" ","HOUSE_NO":"２２７號","E_COORD97":170556.87,"N_COORD97":2542769.5,"ADDRESS":"東門路二段２２７號","OBJECTID":618185},"geometry":{"x":170556.87000000011,"y":2542769.5}},{"attributes":{"ID":618213,"DIS_CODE":0,"TOWNNAME":"永康區","LI":"南灣里","LIN":"9鄰","STREET":"大灣路","SECT":" ","MAREA":" ","LANE":" ","ALLEY":" ","HOUSE_NO":"６２９號","E_COORD97":174177.79000000001,"N_COORD97":2544514.2599999998,"ADDRESS":"大灣路６２９號","OBJECTID":618186},"geometry":{"x":174177.79000000004,"y":2544514.2600000016}},{"attributes":{"ID":618214,"DIS_CODE":0,"TOWNNAME":"永康區","LI":"東灣里","LIN":"16鄰","STREET":"大灣三街","SECT":" ","MAREA":" ","LANE":" ","ALLEY":" ","HOUSE_NO":"６０號","E_COORD97":174909.51999999999,"N_COORD97":2544957.9199999999,"ADDRESS":"大灣三街６０號","OBJECTID":618187},"geometry":{"x":174909.52000000048,"y":2544957.9200000018}},{"attributes":{"ID":618215,"DIS_CODE":0,"TOWNNAME":"東區","LI":"和平里","LIN":"2鄰","STREET":"東門路","SECT":"三段","MAREA":" ","LANE":" ","ALLEY":" ","HOUSE_NO":"１３６號","E_COORD97":171324.70999999999,"N_COORD97":2542112.5699999998,"ADDRESS":"東門路三段１３６號","OBJECTID":618188},"geometry":{"x":171324.71000000089,"y":2542112.5700000022}},{"attributes":{"ID":618216,"DIS_CODE":0,"TOWNNAME":"東區","LI":"和平里","LIN":"2鄰","STREET":"東門路","SECT":"三段","MAREA":" ","LANE":" ","ALLEY":" ","HOUSE_NO":"２１２號","E_COORD97":171468.23000000001,"N_COORD97":2541996.5499999998,"ADDRESS":"東門路三段２１２號","OBJECTID":618189},"geometry":{"x":171468.23000000045,"y":2541996.5500000007}},{"attributes":{"ID":618217,"DIS_CODE":0,"TOWNNAME":"東區","LI":"和平里","LIN":"2鄰","STREET":"東門路","SECT":"三段","MAREA":" ","LANE":" ","ALLEY":" ","HOUSE_NO":"２２０號","E_COORD97":171499.79999999999,"N_COORD97":2541970.6299999999,"ADDRESS":"東門路三段２２０號","OBJECTID":618190},"geometry":{"x":171499.80000000168,"y":2541970.629999999}},{"attributes":{"ID":618218,"DIS_CODE":0,"TOWNNAME":"東區","LI":"富裕里","LIN":"2鄰","STREET":"東門路","SECT":"二段","MAREA":" ","LANE":" ","ALLEY":" ","HOUSE_NO":"２４５號","E_COORD97":170592.64999999999,"N_COORD97":2542738.0099999998,"ADDRESS":"東門路二段２４５號","OBJECTID":618191},"geometry":{"x":170592.64999999944,"y":2542738.0099999998}},{"attributes":{"ID":618219,"DIS_CODE":0,"TOWNNAME":"東區","LI":"富裕里","LIN":"2鄰","STREET":"東門路","SECT":"二段","MAREA":" ","LANE":" ","ALLEY":" ","HOUSE_NO":"２５１號","E_COORD97":170602.01000000001,"N_COORD97":2542731.8100000001,"ADDRESS":"東門路二段２５１號","OBJECTID":618192},"geometry":{"x":170602.01000000071,"y":2542731.8100000024}},{"attributes":{"ID":618220,"DIS_CODE":0,"TOWNNAME":"東區","LI":"富裕里","LIN":"2鄰","STREET":"東門路","SECT":"二段","MAREA":" ","LANE":" ","ALLEY":" ","HOUSE_NO":"２５３號","E_COORD97":170606.14999999999,"N_COORD97":2542728.3799999999,"ADDRESS":"東門路二段２５３號","OBJECTID":618193},"geometry":{"x":170606.15000000037,"y":2542728.379999999}},{"attributes":{"ID":618221,"DIS_CODE":0,"TOWNNAME":"東區","LI":"富裕里","LIN":"2鄰","STREET":"東門路","SECT":"二段","MAREA":" ","LANE":" ","ALLEY":" ","HOUSE_NO":"２４７號","E_COORD97":170595.06,"N_COORD97":2542736.3500000001,"ADDRESS":"東門路二段２４７號","OBJECTID":618194},"geometry":{"x":170595.05999999959,"y":2542736.3499999978}},{"attributes":{"ID":618222,"DIS_CODE":0,"TOWNNAME":"東區","LI":"富裕里","LIN":"2鄰","STREET":"東門路","SECT":"二段","MAREA":" ","LANE":" ","ALLEY":" ","HOUSE_NO":"２４９號","E_COORD97":170598.72,"N_COORD97":2542734.23,"ADDRESS":"東門路二段２４９號","OBJECTID":618195},"geometry":{"x":170598.72000000067,"y":2542734.2300000004}},{"attributes":{"ID":618223,"DIS_CODE":0,"TOWNNAME":"永康區","LI":"東灣里","LIN":"25鄰","STREET":"大灣二街","SECT":" ","MAREA":" ","LANE":" ","ALLEY":" ","HOUSE_NO":"６３號","E_COORD97":174841.70999999999,"N_COORD97":2544734.5099999998,"ADDRESS":"大灣二街６３號","OBJECTID":618196},"geometry":{"x":174841.71000000183,"y":2544734.5099999998}},{"attributes":{"ID":618224,"DIS_CODE":0,"TOWNNAME":"永康區","LI":"南灣里","LIN":"32鄰","STREET":"大灣一街","SECT":" ","MAREA":" ","LANE":" ","ALLEY":" ","HOUSE_NO":"３３號","E_COORD97":174279.69,"N_COORD97":2544797.5899999999,"ADDRESS":"大灣一街３３號","OBJECTID":618197},"geometry":{"x":174279.69000000134,"y":2544797.5900000017}},{"attributes":{"ID":618225,"DIS_CODE":0,"TOWNNAME":"永康區","LI":"蔦松里","LIN":"2鄰","STREET":"中正北路","SECT":" ","MAREA":" ","LANE":" ","ALLEY":" ","HOUSE_NO":"５２９號","E_COORD97":173903.29000000001,"N_COORD97":2549193.73,"ADDRESS":"中正北路５２９號","OBJECTID":618198},"geometry":{"x":173903.29000000004,"y":2549193.7300000042}},{"attributes":{"ID":618226,"DIS_CODE":0,"TOWNNAME":"永康區","LI":"蔦松里","LIN":"2鄰","STREET":"中正北路","SECT":" ","MAREA":" ","LANE":" ","ALLEY":" ","HOUSE_NO":"５３９號","E_COORD97":173918.62,"N_COORD97":2549218.2400000002,"ADDRESS":"中正北路５３９號","OBJECTID":618199},"geometry":{"x":173918.62000000197,"y":2549218.2400000021}},{"attributes":{"ID":618227,"DIS_CODE":0,"TOWNNAME":"安南區","LI":"城北里","LIN":"2鄰","STREET":"城北路","SECT":" ","MAREA":" ","LANE":" ","ALLEY":" ","HOUSE_NO":"７８號","E_COORD97":160980.44,"N_COORD97":2551557.04,"ADDRESS":"城北路７８號","OBJECTID":618200},"geometry":{"x":160980.44000000041,"y":2551557.040000001}}]}