{"displayFieldName":"TOWNNAME","fieldAliases":{"ID":"ID","DIS_CODE":"DIS_CODE","TOWNNAME":"TOWNNAME","LI":"LI","LIN":"LIN","STREET":"STREET","SECT":"SECT","MAREA":"MAREA","LANE":"LANE","ALLEY":"ALLEY","HOUSE_NO":"HOUSE_NO","E_COORD97":"E_COORD97","N_COORD97":"N_COORD97","ADDRESS":"ADDRESS","OBJECTID":"OBJECTID"},"geometryType":"esriGeometryPoint","spatialReference":{"wkid":102443,"latestWkid":3826},"fields":[{"name":"ID","type":"esriFieldTypeDouble","alias":"ID"},{"name":"DIS_CODE","type":"esriFieldTypeInteger","alias":"DIS_CODE"},{"name":"TOWNNAME","type":"esriFieldTypeString","alias":"TOWNNAME","length":8},{"name":"LI","type":"esriFieldTypeString","alias":"LI","length":8},{"name":"LIN","type":"esriFieldTypeString","alias":"LIN","length":12},{"name":"STREET","type":"esriFieldTypeString","alias":"STREET","length":20},{"name":"SECT","type":"esriFieldTypeString","alias":"SECT","length":8},{"name":"MAREA","type":"esriFieldTypeString","alias":"MAREA","length":12},{"name":"LANE","type":"esriFieldTypeString","alias":"LANE","length":10},{"name":"ALLEY","type":"esriFieldTypeString","alias":"ALLEY","length":10},{"name":"HOUSE_NO","type":"esriFieldTypeString","alias":"HOUSE_NO","length":20},{"name":"E_COORD97","type":"esriFieldTypeDouble","alias":"E_COORD97"},{"name":"N_COORD97","type":"esriFieldTypeDouble","alias":"N_COORD97"},{"name":"ADDRESS","type":"esriFieldTypeString","alias":"ADDRESS","length":50},{"name":"OBJECTID","type":"esriFieldTypeOID","alias":"OBJECTID"}],"features":[{"attributes":{"ID":185202,"DIS_CODE":0,"TOWNNAME":"山上區","LI":"山上里","LIN":"10鄰","STREET":" ","SECT":" ","MAREA":"山上","LANE":" ","ALLEY":" ","HOUSE_NO":"１６５號","E_COORD97":184232.41,"N_COORD97":2555668.25,"ADDRESS":"山上１６５號","OBJECTID":185201},"geometry":{"x":184232.41000000108,"y":2555668.2499999981}},{"attributes":{"ID":185203,"DIS_CODE":0,"TOWNNAME":"新營區","LI":"新南里","LIN":"25鄰","STREET":"復興路","SECT":" ","MAREA":" ","LANE":"６２０巷","ALLEY":"３８弄","HOUSE_NO":"４３號","E_COORD97":178151.50876200001,"N_COORD97":2578470.3605499999,"ADDRESS":"復興路６２０巷３８弄４３號","OBJECTID":185202},"geometry":{"x":178151.50876200013,"y":2578470.3605450001}},{"attributes":{"ID":185204,"DIS_CODE":0,"TOWNNAME":"永康區","LI":"復國里","LIN":"22鄰","STREET":"復華六街","SECT":" ","MAREA":" ","LANE":"９３巷","ALLEY":"１１弄","HOUSE_NO":"２號","E_COORD97":172622.54288699999,"N_COORD97":2545771.0214800001,"ADDRESS":"復華六街９３巷１１弄２號","OBJECTID":185203},"geometry":{"x":172622.54288700037,"y":2545771.0214830004}},{"attributes":{"ID":185205,"DIS_CODE":0,"TOWNNAME":"新營區","LI":"新南里","LIN":"25鄰","STREET":"復興路","SECT":" ","MAREA":" ","LANE":"６２０巷","ALLEY":"６４弄","HOUSE_NO":"１７號","E_COORD97":178106.37784900001,"N_COORD97":2578515.1280200002,"ADDRESS":"復興路６２０巷６４弄１７號","OBJECTID":185204},"geometry":{"x":178106.37784899957,"y":2578515.128021}},{"attributes":{"ID":185206,"DIS_CODE":0,"TOWNNAME":"新營區","LI":"新南里","LIN":"25鄰","STREET":"復興路","SECT":" ","MAREA":" ","LANE":"６２０巷","ALLEY":"６４弄","HOUSE_NO":"１９號","E_COORD97":178110.61549299999,"N_COORD97":2578515.76302,"ADDRESS":"復興路６２０巷６４弄１９號","OBJECTID":185205},"geometry":{"x":178110.61549299955,"y":2578515.7630199995}},{"attributes":{"ID":185207,"DIS_CODE":0,"TOWNNAME":"新營區","LI":"新南里","LIN":"25鄰","STREET":"復興路","SECT":" ","MAREA":" ","LANE":"６２０巷","ALLEY":"６４弄","HOUSE_NO":"２１號","E_COORD97":178113.369962,"N_COORD97":2578515.76302,"ADDRESS":"復興路６２０巷６４弄２１號","OBJECTID":185206},"geometry":{"x":178113.36996200029,"y":2578515.7630199995}},{"attributes":{"ID":185208,"DIS_CODE":0,"TOWNNAME":"新營區","LI":"新南里","LIN":"25鄰","STREET":"復興路","SECT":" ","MAREA":" ","LANE":"６２０巷","ALLEY":"６４弄","HOUSE_NO":"２３號","E_COORD97":178115.70066599999,"N_COORD97":2578515.9746900001,"ADDRESS":"復興路６２０巷６４弄２３號","OBJECTID":185207},"geometry":{"x":178115.70066600014,"y":2578515.9746870007}},{"attributes":{"ID":185209,"DIS_CODE":0,"TOWNNAME":"新營區","LI":"新南里","LIN":"25鄰","STREET":"復興路","SECT":" ","MAREA":" ","LANE":"６２０巷","ALLEY":"６４弄","HOUSE_NO":"２５號","E_COORD97":178117.60760600001,"N_COORD97":2578515.3396899998,"ADDRESS":"復興路６２０巷６４弄２５號","OBJECTID":185208},"geometry":{"x":178117.60760600027,"y":2578515.339687001}},{"attributes":{"ID":185210,"DIS_CODE":0,"TOWNNAME":"南區","LI":"喜北里","LIN":"10鄰","STREET":"喜樹路","SECT":" ","MAREA":" ","LANE":" ","ALLEY":" ","HOUSE_NO":"１５０號","E_COORD97":165871.42999999999,"N_COORD97":2538265.7799999998,"ADDRESS":"喜樹路１５０號","OBJECTID":185209},"geometry":{"x":165871.43000000063,"y":2538265.7800000012}},{"attributes":{"ID":185211,"DIS_CODE":0,"TOWNNAME":"南區","LI":"喜北里","LIN":"10鄰","STREET":"喜樹路","SECT":" ","MAREA":" ","LANE":" ","ALLEY":" ","HOUSE_NO":"１５２號","E_COORD97":165871.64000000001,"N_COORD97":2538261.1600000001,"ADDRESS":"喜樹路１５２號","OBJECTID":185210},"geometry":{"x":165871.6400000006,"y":2538261.160000002}},{"attributes":{"ID":185212,"DIS_CODE":0,"TOWNNAME":"南區","LI":"喜北里","LIN":"10鄰","STREET":"喜樹路","SECT":" ","MAREA":" ","LANE":" ","ALLEY":" ","HOUSE_NO":"１５４號","E_COORD97":165872.04000000001,"N_COORD97":2538255.6800000002,"ADDRESS":"喜樹路１５４號","OBJECTID":185211},"geometry":{"x":165872.0400000019,"y":2538255.6800000034}},{"attributes":{"ID":185213,"DIS_CODE":0,"TOWNNAME":"南區","LI":"喜北里","LIN":"10鄰","STREET":"喜樹路","SECT":" ","MAREA":" ","LANE":" ","ALLEY":" ","HOUSE_NO":"１５６號","E_COORD97":165871.42000000001,"N_COORD97":2538250.7999999998,"ADDRESS":"喜樹路１５６號","OBJECTID":185212},"geometry":{"x":165871.42000000086,"y":2538250.8000000026}},{"attributes":{"ID":185214,"DIS_CODE":0,"TOWNNAME":"南區","LI":"喜北里","LIN":"10鄰","STREET":"喜樹路","SECT":" ","MAREA":" ","LANE":" ","ALLEY":" ","HOUSE_NO":"１５８號","E_COORD97":165872.17000000001,"N_COORD97":2538246.3199999998,"ADDRESS":"喜樹路１５８號","OBJECTID":185213},"geometry":{"x":165872.16999999993,"y":2538246.3200000022}},{"attributes":{"ID":185215,"DIS_CODE":0,"TOWNNAME":"東區","LI":"大福里","LIN":"26鄰","STREET":"榮譽街","SECT":" ","MAREA":" ","LANE":" ","ALLEY":" ","HOUSE_NO":"５２號","E_COORD97":169660.31,"N_COORD97":2541647.4100000001,"ADDRESS":"榮譽街５２號","OBJECTID":185214},"geometry":{"x":169660.31000000052,"y":2541647.4100000001}},{"attributes":{"ID":185216,"DIS_CODE":0,"TOWNNAME":"新營區","LI":"新南里","LIN":"25鄰","STREET":"復興路","SECT":" ","MAREA":" ","LANE":"６２０巷","ALLEY":"６４弄","HOUSE_NO":"２７號","E_COORD97":178120.78584,"N_COORD97":2578515.9746900001,"ADDRESS":"復興路６２０巷６４弄２７號","OBJECTID":185215},"geometry":{"x":178120.78584000096,"y":2578515.9746870007}},{"attributes":{"ID":185217,"DIS_CODE":0,"TOWNNAME":"新營區","LI":"新南里","LIN":"25鄰","STREET":"復興路","SECT":" ","MAREA":" ","LANE":"６２０巷","ALLEY":"６４弄","HOUSE_NO":"２９號","E_COORD97":178122.90466199999,"N_COORD97":2578516.3980200002,"ADDRESS":"復興路６２０巷６４弄２９號","OBJECTID":185216},"geometry":{"x":178122.90466200095,"y":2578516.3980199993}},{"attributes":{"ID":185218,"DIS_CODE":0,"TOWNNAME":"新營區","LI":"新南里","LIN":"25鄰","STREET":"復興路","SECT":" ","MAREA":" ","LANE":"６２０巷","ALLEY":"６４弄","HOUSE_NO":"３１號","E_COORD97":178126.294777,"N_COORD97":2578515.9746900001,"ADDRESS":"復興路６２０巷６４弄３１號","OBJECTID":185217},"geometry":{"x":178126.29477700032,"y":2578515.9746870007}},{"attributes":{"ID":185219,"DIS_CODE":0,"TOWNNAME":"新營區","LI":"新南里","LIN":"25鄰","STREET":"復興路","SECT":" ","MAREA":" ","LANE":"６２０巷","ALLEY":"６４弄","HOUSE_NO":"３３號","E_COORD97":178129.04924600001,"N_COORD97":2578516.1863500001,"ADDRESS":"復興路６２０巷６４弄３３號","OBJECTID":185218},"geometry":{"x":178129.04924600013,"y":2578516.1863530036}},{"attributes":{"ID":185220,"DIS_CODE":0,"TOWNNAME":"永康區","LI":"西勢里","LIN":"20鄰","STREET":"富強路","SECT":"一段","MAREA":" ","LANE":"１８５巷","ALLEY":"２弄","HOUSE_NO":"２９號","E_COORD97":175596.76000000001,"N_COORD97":2546462.77,"ADDRESS":"富強路一段１８５巷２弄２９號","OBJECTID":185219},"geometry":{"x":175596.75999999978,"y":2546462.7699999977}},{"attributes":{"ID":185221,"DIS_CODE":0,"TOWNNAME":"永康區","LI":"正強里","LIN":"20鄰","STREET":"中山南路","SECT":" ","MAREA":" ","LANE":"４７１巷","ALLEY":"２７弄","HOUSE_NO":"１０號","E_COORD97":173144.70999999999,"N_COORD97":2547207.3700000001,"ADDRESS":"中山南路４７１巷２７弄１０號","OBJECTID":185220},"geometry":{"x":173144.70999999903,"y":2547207.3700000029}},{"attributes":{"ID":185222,"DIS_CODE":0,"TOWNNAME":"永康區","LI":"龍潭里","LIN":"36鄰","STREET":"中山北路","SECT":" ","MAREA":" ","LANE":"１６４巷","ALLEY":"１６０弄","HOUSE_NO":"４號","E_COORD97":174678.29000000001,"N_COORD97":2547399.77,"ADDRESS":"中山北路１６４巷１６０弄４號","OBJECTID":185221},"geometry":{"x":174678.29000000004,"y":2547399.7700000014}},{"attributes":{"ID":185223,"DIS_CODE":0,"TOWNNAME":"永康區","LI":"復華里","LIN":"36鄰","STREET":"復華七街","SECT":" ","MAREA":" ","LANE":"３９巷","ALLEY":"９弄","HOUSE_NO":"５號","E_COORD97":172603.85999999999,"N_COORD97":2546009.2799999998,"ADDRESS":"復華七街３９巷９弄５號","OBJECTID":185222},"geometry":{"x":172603.86000000127,"y":2546009.2800000012}},{"attributes":{"ID":185224,"DIS_CODE":0,"TOWNNAME":"永康區","LI":"復華里","LIN":"36鄰","STREET":"復華七街","SECT":" ","MAREA":" ","LANE":"３９巷","ALLEY":"９弄","HOUSE_NO":"３號","E_COORD97":172608.17000000001,"N_COORD97":2546010.2799999998,"ADDRESS":"復華七街３９巷９弄３號","OBJECTID":185223},"geometry":{"x":172608.17000000086,"y":2546010.2799999993}},{"attributes":{"ID":185225,"DIS_CODE":0,"TOWNNAME":"永康區","LI":"復華里","LIN":"36鄰","STREET":"復華七街","SECT":" ","MAREA":" ","LANE":"３９巷","ALLEY":"９弄","HOUSE_NO":"７號","E_COORD97":172599.66,"N_COORD97":2546009.5299999998,"ADDRESS":"復華七街３９巷９弄７號","OBJECTID":185224},"geometry":{"x":172599.66000000201,"y":2546009.5299999993}},{"attributes":{"ID":185226,"DIS_CODE":0,"TOWNNAME":"中西區","LI":"西湖里","LIN":"36鄰","STREET":"頂美三街","SECT":" ","MAREA":" ","LANE":"１２１巷","ALLEY":"３１弄","HOUSE_NO":"２５號","E_COORD97":166519.73999999999,"N_COORD97":2544745.0699999998,"ADDRESS":"頂美三街１２１巷３１弄２５號","OBJECTID":185225},"geometry":{"x":166519.74000000022,"y":2544745.0700000003}},{"attributes":{"ID":185227,"DIS_CODE":0,"TOWNNAME":"仁德區","LI":"太子里","LIN":"36鄰","STREET":"長興一街","SECT":" ","MAREA":" ","LANE":"８６巷","ALLEY":"２弄","HOUSE_NO":"７號","E_COORD97":174454.12,"N_COORD97":2543853.0099999998,"ADDRESS":"長興一街８６巷２弄７號","OBJECTID":185226},"geometry":{"x":174454.12000000011,"y":2543853.0099999998}},{"attributes":{"ID":185228,"DIS_CODE":0,"TOWNNAME":"永康區","LI":"龍潭里","LIN":"36鄰","STREET":"中山北路","SECT":" ","MAREA":" ","LANE":"１６４巷","ALLEY":"１５８弄","HOUSE_NO":"４號","E_COORD97":174632.32000000001,"N_COORD97":2547397.2000000002,"ADDRESS":"中山北路１６４巷１５８弄４號","OBJECTID":185227},"geometry":{"x":174632.3200000003,"y":2547397.2000000011}},{"attributes":{"ID":185229,"DIS_CODE":0,"TOWNNAME":"仁德區","LI":"仁德里","LIN":"39鄰","STREET":"文宏路","SECT":" ","MAREA":" ","LANE":" ","ALLEY":" ","HOUSE_NO":"１４８號","E_COORD97":172428.34,"N_COORD97":2541820.0699999998,"ADDRESS":"文宏路１４８號","OBJECTID":185228},"geometry":{"x":172428.33999999892,"y":2541820.0699999984}},{"attributes":{"ID":185230,"DIS_CODE":0,"TOWNNAME":"仁德區","LI":"仁德里","LIN":"18鄰","STREET":"民安路","SECT":"一段","MAREA":" ","LANE":" ","ALLEY":" ","HOUSE_NO":"８９號","E_COORD97":172063.42999999999,"N_COORD97":2539997.3199999998,"ADDRESS":"民安路一段８９號","OBJECTID":185229},"geometry":{"x":172063.43000000063,"y":2539997.3200000003}},{"attributes":{"ID":185231,"DIS_CODE":0,"TOWNNAME":"北門區","LI":"永隆里","LIN":"11鄰","STREET":" ","SECT":" ","MAREA":"港北","LANE":" ","ALLEY":" ","HOUSE_NO":"５號","E_COORD97":160232.39000000001,"N_COORD97":2574538.48,"ADDRESS":"港北５號","OBJECTID":185230},"geometry":{"x":160232.38999999966,"y":2574538.4800000042}},{"attributes":{"ID":185232,"DIS_CODE":0,"TOWNNAME":"北門區","LI":"永隆里","LIN":"11鄰","STREET":" ","SECT":" ","MAREA":"港北","LANE":" ","ALLEY":" ","HOUSE_NO":"６號","E_COORD97":160240.14999999999,"N_COORD97":2574555.0299999998,"ADDRESS":"港北６號","OBJECTID":185231},"geometry":{"x":160240.15000000224,"y":2574555.0300000012}},{"attributes":{"ID":185233,"DIS_CODE":0,"TOWNNAME":"北門區","LI":"永隆里","LIN":"11鄰","STREET":" ","SECT":" ","MAREA":"港北","LANE":" ","ALLEY":" ","HOUSE_NO":"７號","E_COORD97":160216.26000000001,"N_COORD97":2574544.1800000002,"ADDRESS":"港北７號","OBJECTID":185232},"geometry":{"x":160216.25999999978,"y":2574544.1800000016}},{"attributes":{"ID":185234,"DIS_CODE":0,"TOWNNAME":"北門區","LI":"錦湖里","LIN":"11鄰","STREET":" ","SECT":" ","MAREA":"渡子頭","LANE":" ","ALLEY":" ","HOUSE_NO":"１０６號","E_COORD97":164948.01999999999,"N_COORD97":2577651.9900000002,"ADDRESS":"渡子頭１０６號","OBJECTID":185233},"geometry":{"x":164948.02000000048,"y":2577651.9900000021}},{"attributes":{"ID":185235,"DIS_CODE":0,"TOWNNAME":"北門區","LI":"錦湖里","LIN":"11鄰","STREET":" ","SECT":" ","MAREA":"渡子頭","LANE":" ","ALLEY":" ","HOUSE_NO":"１０７號","E_COORD97":164966.19,"N_COORD97":2577648.6699999999,"ADDRESS":"渡子頭１０７號","OBJECTID":185234},"geometry":{"x":164966.19000000227,"y":2577648.6700000037}},{"attributes":{"ID":185236,"DIS_CODE":0,"TOWNNAME":"北門區","LI":"錦湖里","LIN":"11鄰","STREET":" ","SECT":" ","MAREA":"渡子頭","LANE":" ","ALLEY":" ","HOUSE_NO":"１０８號","E_COORD97":164983.23999999999,"N_COORD97":2577624.2799999998,"ADDRESS":"渡子頭１０８號","OBJECTID":185235},"geometry":{"x":164983.24000000115,"y":2577624.2800000012}},{"attributes":{"ID":185237,"DIS_CODE":0,"TOWNNAME":"永康區","LI":"復華里","LIN":"36鄰","STREET":"復華七街","SECT":" ","MAREA":" ","LANE":"３９巷","ALLEY":"９弄","HOUSE_NO":"２號","E_COORD97":172594.44,"N_COORD97":2546026.6400000001,"ADDRESS":"復華七街３９巷９弄２號","OBJECTID":185236},"geometry":{"x":172594.43999999948,"y":2546026.6400000006}},{"attributes":{"ID":185238,"DIS_CODE":0,"TOWNNAME":"永康區","LI":"烏竹里","LIN":"10鄰","STREET":"竹園二街","SECT":" ","MAREA":" ","LANE":" ","ALLEY":" ","HOUSE_NO":"１５５號","E_COORD97":174531.85000000001,"N_COORD97":2549258.4900000002,"ADDRESS":"竹園二街１５５號","OBJECTID":185237},"geometry":{"x":174531.85000000149,"y":2549258.4900000002}},{"attributes":{"ID":185239,"DIS_CODE":0,"TOWNNAME":"永康區","LI":"烏竹里","LIN":"10鄰","STREET":"竹園二街","SECT":" ","MAREA":" ","LANE":" ","ALLEY":" ","HOUSE_NO":"１４２號","E_COORD97":174533.14999999999,"N_COORD97":2549236.0699999998,"ADDRESS":"竹園二街１４２號","OBJECTID":185238},"geometry":{"x":174533.1500000013,"y":2549236.0700000022}},{"attributes":{"ID":185240,"DIS_CODE":0,"TOWNNAME":"永康區","LI":"烏竹里","LIN":"10鄰","STREET":"竹園二街","SECT":" ","MAREA":" ","LANE":" ","ALLEY":" ","HOUSE_NO":"１２６號","E_COORD97":174505.20000000001,"N_COORD97":2549220.5699999998,"ADDRESS":"竹園二街１２６號","OBJECTID":185239},"geometry":{"x":174505.20000000112,"y":2549220.5700000003}},{"attributes":{"ID":185241,"DIS_CODE":0,"TOWNNAME":"永康區","LI":"龍潭里","LIN":"36鄰","STREET":"中山北路","SECT":" ","MAREA":" ","LANE":"１６４巷","ALLEY":"１５８弄","HOUSE_NO":"７號","E_COORD97":174647.35999999999,"N_COORD97":2547382.0499999998,"ADDRESS":"中山北路１６４巷１５８弄７號","OBJECTID":185240},"geometry":{"x":174647.36000000034,"y":2547382.0500000026}},{"attributes":{"ID":185242,"DIS_CODE":0,"TOWNNAME":"永康區","LI":"龍潭里","LIN":"36鄰","STREET":"中山北路","SECT":" ","MAREA":" ","LANE":"１６４巷","ALLEY":"１６０弄","HOUSE_NO":"１號","E_COORD97":174695.95000000001,"N_COORD97":2547405.9900000002,"ADDRESS":"中山北路１６４巷１６０弄１號","OBJECTID":185241},"geometry":{"x":174695.95000000019,"y":2547405.9900000021}},{"attributes":{"ID":185243,"DIS_CODE":0,"TOWNNAME":"永康區","LI":"龍潭里","LIN":"36鄰","STREET":"中山北路","SECT":" ","MAREA":" ","LANE":"１６４巷","ALLEY":"１５８弄","HOUSE_NO":"１４號","E_COORD97":174634.62,"N_COORD97":2547364.71,"ADDRESS":"中山北路１６４巷１５８弄１４號","OBJECTID":185242},"geometry":{"x":174634.62000000104,"y":2547364.7100000028}},{"attributes":{"ID":185244,"DIS_CODE":0,"TOWNNAME":"永康區","LI":"二王里","LIN":"36鄰","STREET":"中山南路","SECT":" ","MAREA":" ","LANE":"４９０巷","ALLEY":"５７弄","HOUSE_NO":"１５號","E_COORD97":172271.26999999999,"N_COORD97":2546403.8300000001,"ADDRESS":"中山南路４９０巷５７弄１５號","OBJECTID":185243},"geometry":{"x":172271.27000000048,"y":2546403.8300000001}},{"attributes":{"ID":185245,"DIS_CODE":0,"TOWNNAME":"永康區","LI":"二王里","LIN":"36鄰","STREET":"中山南路","SECT":" ","MAREA":" ","LANE":"４９０巷","ALLEY":"４１弄","HOUSE_NO":"２號","E_COORD97":172242.14000000001,"N_COORD97":2546374.5499999998,"ADDRESS":"中山南路４９０巷４１弄２號","OBJECTID":185244},"geometry":{"x":172242.1400000006,"y":2546374.5500000026}},{"attributes":{"ID":185246,"DIS_CODE":0,"TOWNNAME":"永康區","LI":"二王里","LIN":"36鄰","STREET":"中山南路","SECT":" ","MAREA":" ","LANE":"４９０巷","ALLEY":"５７弄","HOUSE_NO":"１號","E_COORD97":172259.42999999999,"N_COORD97":2546373.3300000001,"ADDRESS":"中山南路４９０巷５７弄１號","OBJECTID":185245},"geometry":{"x":172259.4299999997,"y":2546373.3300000001}},{"attributes":{"ID":185247,"DIS_CODE":0,"TOWNNAME":"永康區","LI":"二王里","LIN":"36鄰","STREET":"中山南路","SECT":" ","MAREA":" ","LANE":"４９０巷","ALLEY":"４１弄","HOUSE_NO":"６號","E_COORD97":172247.13,"N_COORD97":2546384.2999999998,"ADDRESS":"中山南路４９０巷４１弄６號","OBJECTID":185246},"geometry":{"x":172247.13000000082,"y":2546384.3000000026}},{"attributes":{"ID":185248,"DIS_CODE":0,"TOWNNAME":"永康區","LI":"二王里","LIN":"36鄰","STREET":"中山南路","SECT":" ","MAREA":" ","LANE":"４９０巷","ALLEY":"４１弄","HOUSE_NO":"１２號","E_COORD97":172251.62,"N_COORD97":2546401.7999999998,"ADDRESS":"中山南路４９０巷４１弄１２號","OBJECTID":185247},"geometry":{"x":172251.62000000011,"y":2546401.8000000007}},{"attributes":{"ID":185249,"DIS_CODE":0,"TOWNNAME":"永康區","LI":"二王里","LIN":"36鄰","STREET":"中山南路","SECT":" ","MAREA":" ","LANE":"４９０巷","ALLEY":"５７弄","HOUSE_NO":"９號","E_COORD97":172265.67999999999,"N_COORD97":2546391.0800000001,"ADDRESS":"中山南路４９０巷５７弄９號","OBJECTID":185248},"geometry":{"x":172265.68000000063,"y":2546391.0800000019}},{"attributes":{"ID":185250,"DIS_CODE":0,"TOWNNAME":"永康區","LI":"二王里","LIN":"36鄰","STREET":"中山南路","SECT":" ","MAREA":" ","LANE":"４９０巷","ALLEY":"５７弄","HOUSE_NO":"７號","E_COORD97":172264.09,"N_COORD97":2546386.5800000001,"ADDRESS":"中山南路４９０巷５７弄７號","OBJECTID":185249},"geometry":{"x":172264.09000000171,"y":2546386.5800000001}},{"attributes":{"ID":185251,"DIS_CODE":0,"TOWNNAME":"北門區","LI":"錦湖里","LIN":"11鄰","STREET":" ","SECT":" ","MAREA":"渡子頭","LANE":" ","ALLEY":" ","HOUSE_NO":"１０９號之１","E_COORD97":164992.35000000001,"N_COORD97":2577613.4300000002,"ADDRESS":"渡子頭１０９號之１","OBJECTID":185250},"geometry":{"x":164992.34999999963,"y":2577613.4300000016}},{"attributes":{"ID":185252,"DIS_CODE":0,"TOWNNAME":"北門區","LI":"錦湖里","LIN":"11鄰","STREET":" ","SECT":" ","MAREA":"渡子頭","LANE":" ","ALLEY":" ","HOUSE_NO":"１１０號之１","E_COORD97":165025.78,"N_COORD97":2577618.3999999999,"ADDRESS":"渡子頭１１０號之１","OBJECTID":185251},"geometry":{"x":165025.78000000026,"y":2577618.4000000022}},{"attributes":{"ID":185253,"DIS_CODE":0,"TOWNNAME":"永康區","LI":"二王里","LIN":"36鄰","STREET":"中山南路","SECT":" ","MAREA":" ","LANE":"４９０巷","ALLEY":"５７弄","HOUSE_NO":"１３號","E_COORD97":172269.57000000001,"N_COORD97":2546399.3300000001,"ADDRESS":"中山南路４９０巷５７弄１３號","OBJECTID":185252},"geometry":{"x":172269.5700000003,"y":2546399.3300000019}},{"attributes":{"ID":185254,"DIS_CODE":0,"TOWNNAME":"永康區","LI":"二王里","LIN":"36鄰","STREET":"中山南路","SECT":" ","MAREA":" ","LANE":"４９０巷","ALLEY":"５７弄","HOUSE_NO":"４號","E_COORD97":172273.79999999999,"N_COORD97":2546378.9399999999,"ADDRESS":"中山南路４９０巷５７弄４號","OBJECTID":185253},"geometry":{"x":172273.79999999981,"y":2546378.9399999995}},{"attributes":{"ID":185255,"DIS_CODE":0,"TOWNNAME":"永康區","LI":"二王里","LIN":"36鄰","STREET":"中山南路","SECT":" ","MAREA":" ","LANE":"４９０巷","ALLEY":"４１弄","HOUSE_NO":"１４號","E_COORD97":172253.51999999999,"N_COORD97":2546407.0600000001,"ADDRESS":"中山南路４９０巷４１弄１４號","OBJECTID":185254},"geometry":{"x":172253.51999999955,"y":2546407.0600000005}},{"attributes":{"ID":185256,"DIS_CODE":0,"TOWNNAME":"永康區","LI":"二王里","LIN":"36鄰","STREET":"中山南路","SECT":" ","MAREA":" ","LANE":"４９０巷","ALLEY":"４１弄","HOUSE_NO":"４號","E_COORD97":172244.14999999999,"N_COORD97":2546379.5499999998,"ADDRESS":"中山南路４９０巷４１弄４號","OBJECTID":185255},"geometry":{"x":172244.1500000013,"y":2546379.5500000007}},{"attributes":{"ID":185257,"DIS_CODE":0,"TOWNNAME":"永康區","LI":"二王里","LIN":"36鄰","STREET":"中山南路","SECT":" ","MAREA":" ","LANE":"４９０巷","ALLEY":"５７弄","HOUSE_NO":"３號","E_COORD97":172260.92999999999,"N_COORD97":2546377.5800000001,"ADDRESS":"中山南路４９０巷５７弄３號","OBJECTID":185256},"geometry":{"x":172260.9299999997,"y":2546377.5800000019}},{"attributes":{"ID":185258,"DIS_CODE":0,"TOWNNAME":"北門區","LI":"錦湖里","LIN":"11鄰","STREET":" ","SECT":" ","MAREA":"渡子頭","LANE":" ","ALLEY":" ","HOUSE_NO":"１１０號之２","E_COORD97":165005.03,"N_COORD97":2577630.0499999998,"ADDRESS":"渡子頭１１０號之２","OBJECTID":185257},"geometry":{"x":165005.03000000119,"y":2577630.0500000045}},{"attributes":{"ID":185259,"DIS_CODE":0,"TOWNNAME":"永康區","LI":"西灣里","LIN":"36鄰","STREET":"國光八街","SECT":" ","MAREA":" ","LANE":"８７巷","ALLEY":"２２弄","HOUSE_NO":"１７號","E_COORD97":174202.26000000001,"N_COORD97":2545694.9700000002,"ADDRESS":"國光八街８７巷２２弄１７號","OBJECTID":185258},"geometry":{"x":174202.26000000071,"y":2545694.9700000007}},{"attributes":{"ID":185260,"DIS_CODE":0,"TOWNNAME":"永康區","LI":"二王里","LIN":"36鄰","STREET":"中山南路","SECT":" ","MAREA":" ","LANE":"４９０巷","ALLEY":"５７弄","HOUSE_NO":"１２號","E_COORD97":172281.5,"N_COORD97":2546396.9500000002,"ADDRESS":"中山南路４９０巷５７弄１２號","OBJECTID":185259},"geometry":{"x":172281.5,"y":2546396.950000003}},{"attributes":{"ID":185261,"DIS_CODE":0,"TOWNNAME":"永康區","LI":"二王里","LIN":"36鄰","STREET":"中山南路","SECT":" ","MAREA":" ","LANE":"４９０巷","ALLEY":"４１弄","HOUSE_NO":"１６號","E_COORD97":172255.12,"N_COORD97":2546412.3100000001,"ADDRESS":"中山南路４９０巷４１弄１６號","OBJECTID":185260},"geometry":{"x":172255.12000000011,"y":2546412.3100000005}},{"attributes":{"ID":185262,"DIS_CODE":0,"TOWNNAME":"北門區","LI":"錦湖里","LIN":"11鄰","STREET":" ","SECT":" ","MAREA":"渡子頭","LANE":" ","ALLEY":" ","HOUSE_NO":"１１０號","E_COORD97":165022.01999999999,"N_COORD97":2577605.5600000001,"ADDRESS":"渡子頭１１０號","OBJECTID":185261},"geometry":{"x":165022.01999999955,"y":2577605.5600000005}},{"attributes":{"ID":185263,"DIS_CODE":0,"TOWNNAME":"北門區","LI":"錦湖里","LIN":"11鄰","STREET":" ","SECT":" ","MAREA":"渡子頭","LANE":" ","ALLEY":" ","HOUSE_NO":"１１２號之２","E_COORD97":164932.48999999999,"N_COORD97":2577689.2200000002,"ADDRESS":"渡子頭１１２號之２","OBJECTID":185262},"geometry":{"x":164932.49000000115,"y":2577689.2200000007}},{"attributes":{"ID":185264,"DIS_CODE":0,"TOWNNAME":"北門區","LI":"錦湖里","LIN":"11鄰","STREET":" ","SECT":" ","MAREA":"渡子頭","LANE":" ","ALLEY":" ","HOUSE_NO":"１１２號","E_COORD97":164934.59,"N_COORD97":2577672.5499999998,"ADDRESS":"渡子頭１１２號","OBJECTID":185263},"geometry":{"x":164934.59000000078,"y":2577672.5500000007}},{"attributes":{"ID":185265,"DIS_CODE":0,"TOWNNAME":"北門區","LI":"錦湖里","LIN":"11鄰","STREET":" ","SECT":" ","MAREA":"渡子頭","LANE":" ","ALLEY":" ","HOUSE_NO":"１１３號","E_COORD97":164918.37,"N_COORD97":2577677.3399999999,"ADDRESS":"渡子頭１１３號","OBJECTID":185264},"geometry":{"x":164918.37000000011,"y":2577677.3399999999}},{"attributes":{"ID":185266,"DIS_CODE":0,"TOWNNAME":"北門區","LI":"錦湖里","LIN":"11鄰","STREET":" ","SECT":" ","MAREA":"渡子頭","LANE":" ","ALLEY":" ","HOUSE_NO":"１１４號之１","E_COORD97":165031.57000000001,"N_COORD97":2577608.23,"ADDRESS":"渡子頭１１４號之１","OBJECTID":185265},"geometry":{"x":165031.57000000123,"y":2577608.2300000042}},{"attributes":{"ID":185267,"DIS_CODE":0,"TOWNNAME":"北門區","LI":"錦湖里","LIN":"11鄰","STREET":" ","SECT":" ","MAREA":"渡子頭","LANE":" ","ALLEY":" ","HOUSE_NO":"１１４之２號","E_COORD97":165081.79999999999,"N_COORD97":2577649.2000000002,"ADDRESS":"渡子頭１１４之２號","OBJECTID":185266},"geometry":{"x":165081.80000000168,"y":2577649.2000000011}},{"attributes":{"ID":185268,"DIS_CODE":0,"TOWNNAME":"永康區","LI":"二王里","LIN":"36鄰","STREET":"中山南路","SECT":" ","MAREA":" ","LANE":"４９０巷","ALLEY":"５７弄","HOUSE_NO":"５號","E_COORD97":172262.26999999999,"N_COORD97":2546382.3300000001,"ADDRESS":"中山南路４９０巷５７弄５號","OBJECTID":185267},"geometry":{"x":172262.26999999955,"y":2546382.3300000019}},{"attributes":{"ID":185269,"DIS_CODE":0,"TOWNNAME":"仁德區","LI":"太子里","LIN":"36鄰","STREET":"長興一街","SECT":" ","MAREA":" ","LANE":"４０巷","ALLEY":"１９弄","HOUSE_NO":"４號","E_COORD97":174509.53,"N_COORD97":2543871.75,"ADDRESS":"長興一街４０巷１９弄４號","OBJECTID":185268},"geometry":{"x":174509.53000000119,"y":2543871.75}},{"attributes":{"ID":185270,"DIS_CODE":0,"TOWNNAME":"仁德區","LI":"後壁里","LIN":"36鄰","STREET":"民安路","SECT":"一段","MAREA":" ","LANE":"３１０巷","ALLEY":"３１弄","HOUSE_NO":"６號","E_COORD97":172775.48999999999,"N_COORD97":2539391.9500000002,"ADDRESS":"民安路一段３１０巷３１弄６號","OBJECTID":185269},"geometry":{"x":172775.49000000209,"y":2539391.9499999993}},{"attributes":{"ID":185271,"DIS_CODE":0,"TOWNNAME":"仁德區","LI":"後壁里","LIN":"36鄰","STREET":"民安路","SECT":"一段","MAREA":" ","LANE":"３１０巷","ALLEY":"３０弄","HOUSE_NO":"１號","E_COORD97":172781.26999999999,"N_COORD97":2539453.9399999999,"ADDRESS":"民安路一段３１０巷３０弄１號","OBJECTID":185270},"geometry":{"x":172781.27000000142,"y":2539453.9400000032}},{"attributes":{"ID":185272,"DIS_CODE":0,"TOWNNAME":"仁德區","LI":"後壁里","LIN":"36鄰","STREET":"民安路","SECT":"一段","MAREA":" ","LANE":"３１０巷","ALLEY":"３２弄","HOUSE_NO":"５號","E_COORD97":172756.54999999999,"N_COORD97":2539437.1899999999,"ADDRESS":"民安路一段３１０巷３２弄５號","OBJECTID":185271},"geometry":{"x":172756.55000000075,"y":2539437.1899999995}},{"attributes":{"ID":185273,"DIS_CODE":0,"TOWNNAME":"仁德區","LI":"後壁里","LIN":"36鄰","STREET":"民安路","SECT":"一段","MAREA":" ","LANE":"３１０巷","ALLEY":"３２弄","HOUSE_NO":"１０號","E_COORD97":172749.37,"N_COORD97":2539473.2000000002,"ADDRESS":"民安路一段３１０巷３２弄１０號","OBJECTID":185272},"geometry":{"x":172749.37000000104,"y":2539473.2000000011}},{"attributes":{"ID":185274,"DIS_CODE":0,"TOWNNAME":"仁德區","LI":"後壁里","LIN":"36鄰","STREET":"民安路","SECT":"一段","MAREA":" ","LANE":"３１０巷","ALLEY":"３２弄","HOUSE_NO":"１號","E_COORD97":172768.14999999999,"N_COORD97":2539429.6899999999,"ADDRESS":"民安路一段３１０巷３２弄１號","OBJECTID":185273},"geometry":{"x":172768.1500000013,"y":2539429.6900000013}},{"attributes":{"ID":185275,"DIS_CODE":0,"TOWNNAME":"仁德區","LI":"後壁里","LIN":"36鄰","STREET":"民安路","SECT":"一段","MAREA":" ","LANE":"３１０巷","ALLEY":"３２弄","HOUSE_NO":"１３號","E_COORD97":172735.04000000001,"N_COORD97":2539453.6899999999,"ADDRESS":"民安路一段３１０巷３２弄１３號","OBJECTID":185274},"geometry":{"x":172735.04000000004,"y":2539453.6900000013}},{"attributes":{"ID":185276,"DIS_CODE":0,"TOWNNAME":"永康區","LI":"北灣里","LIN":"36鄰","STREET":"大灣路","SECT":" ","MAREA":" ","LANE":"４０巷","ALLEY":"１２０弄","HOUSE_NO":"１０號","E_COORD97":174950.89999999999,"N_COORD97":2546275.0499999998,"ADDRESS":"大灣路４０巷１２０弄１０號","OBJECTID":185275},"geometry":{"x":174950.90000000037,"y":2546275.0500000007}},{"attributes":{"ID":185277,"DIS_CODE":0,"TOWNNAME":"永康區","LI":"北灣里","LIN":"36鄰","STREET":"大灣路","SECT":" ","MAREA":" ","LANE":"４０巷","ALLEY":"１８２弄","HOUSE_NO":"１７號","E_COORD97":174850.76999999999,"N_COORD97":2546409.6600000001,"ADDRESS":"大灣路４０巷１８２弄１７號","OBJECTID":185276},"geometry":{"x":174850.76999999955,"y":2546409.6600000001}},{"attributes":{"ID":185278,"DIS_CODE":0,"TOWNNAME":"永康區","LI":"北灣里","LIN":"36鄰","STREET":"大灣路","SECT":" ","MAREA":" ","LANE":"４０巷","ALLEY":"１２０弄","HOUSE_NO":"４號","E_COORD97":174940.89000000001,"N_COORD97":2546266.2999999998,"ADDRESS":"大灣路４０巷１２０弄４號","OBJECTID":185277},"geometry":{"x":174940.8900000006,"y":2546266.3000000007}},{"attributes":{"ID":185279,"DIS_CODE":0,"TOWNNAME":"永康區","LI":"北灣里","LIN":"36鄰","STREET":"大灣路","SECT":" ","MAREA":" ","LANE":"４０巷","ALLEY":"１８２弄","HOUSE_NO":"１５號","E_COORD97":174842.45999999999,"N_COORD97":2546400.1800000002,"ADDRESS":"大灣路４０巷１８２弄１５號","OBJECTID":185278},"geometry":{"x":174842.46000000089,"y":2546400.1800000016}},{"attributes":{"ID":185280,"DIS_CODE":0,"TOWNNAME":"永康區","LI":"北灣里","LIN":"36鄰","STREET":"大灣路","SECT":" ","MAREA":" ","LANE":"４０巷","ALLEY":"１８２弄","HOUSE_NO":"３２之２號","E_COORD97":174865.14999999999,"N_COORD97":2546387.6699999999,"ADDRESS":"大灣路４０巷１８２弄３２之２號","OBJECTID":185279},"geometry":{"x":174865.1500000013,"y":2546387.6700000018}},{"attributes":{"ID":185281,"DIS_CODE":0,"TOWNNAME":"永康區","LI":"北灣里","LIN":"36鄰","STREET":"大灣路","SECT":" ","MAREA":" ","LANE":"４０巷","ALLEY":"１８２弄","HOUSE_NO":"３６之１號","E_COORD97":174871.16,"N_COORD97":2546404.7400000002,"ADDRESS":"大灣路４０巷１８２弄３６之１號","OBJECTID":185280},"geometry":{"x":174871.16000000201,"y":2546404.7400000002}},{"attributes":{"ID":185282,"DIS_CODE":0,"TOWNNAME":"永康區","LI":"北灣里","LIN":"36鄰","STREET":"大灣路","SECT":" ","MAREA":" ","LANE":"４０巷","ALLEY":"１８２弄","HOUSE_NO":"８號","E_COORD97":174840.42000000001,"N_COORD97":2546364.0800000001,"ADDRESS":"大灣路４０巷１８２弄８號","OBJECTID":185281},"geometry":{"x":174840.42000000086,"y":2546364.0800000019}},{"attributes":{"ID":185283,"DIS_CODE":0,"TOWNNAME":"永康區","LI":"北灣里","LIN":"36鄰","STREET":"大灣路","SECT":" ","MAREA":" ","LANE":"４０巷","ALLEY":"１８２弄","HOUSE_NO":"３２之１號","E_COORD97":174861.85999999999,"N_COORD97":2546390.6699999999,"ADDRESS":"大灣路４０巷１８２弄３２之１號","OBJECTID":185282},"geometry":{"x":174861.86000000127,"y":2546390.6700000018}},{"attributes":{"ID":185284,"DIS_CODE":0,"TOWNNAME":"永康區","LI":"北灣里","LIN":"36鄰","STREET":"大灣路","SECT":" ","MAREA":" ","LANE":"４０巷","ALLEY":"１８２弄","HOUSE_NO":"９號","E_COORD97":174830.16,"N_COORD97":2546388.9300000002,"ADDRESS":"大灣路４０巷１８２弄９號","OBJECTID":185283},"geometry":{"x":174830.16000000015,"y":2546388.9300000016}},{"attributes":{"ID":185285,"DIS_CODE":0,"TOWNNAME":"永康區","LI":"北灣里","LIN":"36鄰","STREET":"大灣路","SECT":" ","MAREA":" ","LANE":"４０巷","ALLEY":"１８２弄","HOUSE_NO":"１２號","E_COORD97":174848.03,"N_COORD97":2546358.0800000001,"ADDRESS":"大灣路４０巷１８２弄１２號","OBJECTID":185284},"geometry":{"x":174848.03000000026,"y":2546358.0800000001}},{"attributes":{"ID":185286,"DIS_CODE":0,"TOWNNAME":"東區","LI":"泉南里","LIN":"36鄰","STREET":"林森路","SECT":"一段","MAREA":" ","LANE":"１５３巷","ALLEY":"５弄","HOUSE_NO":"２號","E_COORD97":169510.39999999999,"N_COORD97":2542660.6099999999,"ADDRESS":"林森路一段１５３巷５弄２號","OBJECTID":185285},"geometry":{"x":169510.40000000037,"y":2542660.6100000013}},{"attributes":{"ID":185287,"DIS_CODE":0,"TOWNNAME":"永康區","LI":"北灣里","LIN":"36鄰","STREET":"大灣路","SECT":" ","MAREA":" ","LANE":"４０巷","ALLEY":"１８２弄","HOUSE_NO":"３６之２號","E_COORD97":174874.35999999999,"N_COORD97":2546401.98,"ADDRESS":"大灣路４０巷１８２弄３６之２號","OBJECTID":185286},"geometry":{"x":174874.36000000034,"y":2546401.9800000023}},{"attributes":{"ID":185288,"DIS_CODE":0,"TOWNNAME":"永康區","LI":"北灣里","LIN":"36鄰","STREET":"大灣路","SECT":" ","MAREA":" ","LANE":"４０巷","ALLEY":"１２０弄","HOUSE_NO":"２號","E_COORD97":174937.59,"N_COORD97":2546263.0499999998,"ADDRESS":"大灣路４０巷１２０弄２號","OBJECTID":185287},"geometry":{"x":174937.59000000078,"y":2546263.0500000026}},{"attributes":{"ID":185289,"DIS_CODE":0,"TOWNNAME":"永康區","LI":"北灣里","LIN":"36鄰","STREET":"大灣路","SECT":" ","MAREA":" ","LANE":"４０巷","ALLEY":"１５８弄","HOUSE_NO":"１號","E_COORD97":174853.32999999999,"N_COORD97":2546342.5299999998,"ADDRESS":"大灣路４０巷１５８弄１號","OBJECTID":185288},"geometry":{"x":174853.33000000101,"y":2546342.5300000031}},{"attributes":{"ID":185290,"DIS_CODE":0,"TOWNNAME":"山上區","LI":"明和里","LIN":"10鄰","STREET":" ","SECT":" ","MAREA":"明和","LANE":" ","ALLEY":" ","HOUSE_NO":"１７０號","E_COORD97":183284.64000000001,"N_COORD97":2556217.25,"ADDRESS":"明和１７０號","OBJECTID":185289},"geometry":{"x":183284.6400000006,"y":2556217.25}},{"attributes":{"ID":185291,"DIS_CODE":0,"TOWNNAME":"北門區","LI":"錦湖里","LIN":"11鄰","STREET":" ","SECT":" ","MAREA":"渡子頭","LANE":" ","ALLEY":" ","HOUSE_NO":"１１４號","E_COORD97":165050,"N_COORD97":2577621.3399999999,"ADDRESS":"渡子頭１１４號","OBJECTID":185290},"geometry":{"x":165049.99999999907,"y":2577621.3400000017}},{"attributes":{"ID":185292,"DIS_CODE":0,"TOWNNAME":"北門區","LI":"錦湖里","LIN":"11鄰","STREET":" ","SECT":" ","MAREA":"渡子頭","LANE":" ","ALLEY":" ","HOUSE_NO":"１１５號","E_COORD97":165022.29999999999,"N_COORD97":2577639.8700000001,"ADDRESS":"渡子頭１１５號","OBJECTID":185291},"geometry":{"x":165022.29999999888,"y":2577639.8700000029}},{"attributes":{"ID":185293,"DIS_CODE":0,"TOWNNAME":"新市區","LI":"豐華里","LIN":"11鄰","STREET":" ","SECT":" ","MAREA":"豐華","LANE":" ","ALLEY":" ","HOUSE_NO":"４７之９０號","E_COORD97":174188.32000000001,"N_COORD97":2554500.7999999998,"ADDRESS":"豐華４７之９０號","OBJECTID":185292},"geometry":{"x":174188.3200000003,"y":2554500.8000000026}},{"attributes":{"ID":185294,"DIS_CODE":0,"TOWNNAME":"新市區","LI":"潭頂里","LIN":"11鄰","STREET":" ","SECT":" ","MAREA":"潭頂","LANE":" ","ALLEY":" ","HOUSE_NO":"３６２號","E_COORD97":180628.95000000001,"N_COORD97":2552907.75,"ADDRESS":"潭頂３６２號","OBJECTID":185293},"geometry":{"x":180628.95000000019,"y":2552907.75}},{"attributes":{"ID":185295,"DIS_CODE":0,"TOWNNAME":"新市區","LI":"社內里","LIN":"11鄰","STREET":" ","SECT":" ","MAREA":"社內","LANE":" ","ALLEY":" ","HOUSE_NO":"１１７號","E_COORD97":176499.75,"N_COORD97":2552744.5,"ADDRESS":"社內１１７號","OBJECTID":185294},"geometry":{"x":176499.75000000093,"y":2552744.5000000037}},{"attributes":{"ID":185296,"DIS_CODE":0,"TOWNNAME":"新市區","LI":"港墘里","LIN":"11鄰","STREET":" ","SECT":" ","MAREA":"崙頂","LANE":" ","ALLEY":" ","HOUSE_NO":"３２號","E_COORD97":178850.17000000001,"N_COORD97":2552594.5,"ADDRESS":"崙頂３２號","OBJECTID":185295},"geometry":{"x":178850.17000000086,"y":2552594.5}},{"attributes":{"ID":185297,"DIS_CODE":0,"TOWNNAME":"新市區","LI":"豐華里","LIN":"11鄰","STREET":" ","SECT":" ","MAREA":"豐華","LANE":" ","ALLEY":" ","HOUSE_NO":"４７之６７號","E_COORD97":174168.79000000001,"N_COORD97":2554478.5499999998,"ADDRESS":"豐華４７之６７號","OBJECTID":185296},"geometry":{"x":174168.79000000097,"y":2554478.5500000026}},{"attributes":{"ID":185298,"DIS_CODE":0,"TOWNNAME":"新市區","LI":"永就里","LIN":"10鄰","STREET":" ","SECT":" ","MAREA":"永就","LANE":" ","ALLEY":" ","HOUSE_NO":"１０７之１號","E_COORD97":177474.04000000001,"N_COORD97":2551537.2999999998,"ADDRESS":"永就１０７之１號","OBJECTID":185297},"geometry":{"x":177474.04000000097,"y":2551537.3000000026}},{"attributes":{"ID":185299,"DIS_CODE":0,"TOWNNAME":"新市區","LI":"豐華里","LIN":"10鄰","STREET":" ","SECT":" ","MAREA":"豐華","LANE":" ","ALLEY":" ","HOUSE_NO":"４７之１２號","E_COORD97":174113.42999999999,"N_COORD97":2554448.5499999998,"ADDRESS":"豐華４７之１２號","OBJECTID":185298},"geometry":{"x":174113.43000000063,"y":2554448.5500000007}},{"attributes":{"ID":185300,"DIS_CODE":0,"TOWNNAME":"新市區","LI":"永就里","LIN":"10鄰","STREET":" ","SECT":" ","MAREA":"永就","LANE":" ","ALLEY":" ","HOUSE_NO":"１０８之３號","E_COORD97":177460.56,"N_COORD97":2551567.5499999998,"ADDRESS":"永就１０８之３號","OBJECTID":185299},"geometry":{"x":177460.56000000052,"y":2551567.5500000007}},{"attributes":{"ID":185301,"DIS_CODE":0,"TOWNNAME":"新市區","LI":"社內里","LIN":"10鄰","STREET":" ","SECT":" ","MAREA":"社內","LANE":" ","ALLEY":" ","HOUSE_NO":"１０３之１７號","E_COORD97":176289.03,"N_COORD97":2552860.2999999998,"ADDRESS":"社內１０３之１７號","OBJECTID":185300},"geometry":{"x":176289.03000000026,"y":2552860.3000000007}},{"attributes":{"ID":185302,"DIS_CODE":0,"TOWNNAME":"山上區","LI":"山上里","LIN":"10鄰","STREET":" ","SECT":" ","MAREA":"山上","LANE":" ","ALLEY":" ","HOUSE_NO":"１６７號","E_COORD97":184226.60999999999,"N_COORD97":2555652.25,"ADDRESS":"山上１６７號","OBJECTID":185301},"geometry":{"x":184226.61000000034,"y":2555652.2500000019}},{"attributes":{"ID":185303,"DIS_CODE":0,"TOWNNAME":"仁德區","LI":"太子里","LIN":"27鄰","STREET":"太子路","SECT":" ","MAREA":" ","LANE":" ","ALLEY":" ","HOUSE_NO":"４５４號","E_COORD97":173419.724992,"N_COORD97":2543559.9224100001,"ADDRESS":"太子路４５４號","OBJECTID":185302},"geometry":{"x":173419.72499199957,"y":2543559.9224130008}},{"attributes":{"ID":185304,"DIS_CODE":0,"TOWNNAME":"永康區","LI":"北灣里","LIN":"36鄰","STREET":"大灣路","SECT":" ","MAREA":" ","LANE":"４０巷","ALLEY":"１８２弄","HOUSE_NO":"２８號","E_COORD97":174845.48000000001,"N_COORD97":2546374.3300000001,"ADDRESS":"大灣路４０巷１８２弄２８號","OBJECTID":185303},"geometry":{"x":174845.48000000231,"y":2546374.3300000001}},{"attributes":{"ID":185305,"DIS_CODE":0,"TOWNNAME":"永康區","LI":"北灣里","LIN":"36鄰","STREET":"大灣路","SECT":" ","MAREA":" ","LANE":"４０巷","ALLEY":"１８２弄","HOUSE_NO":"３６之３號","E_COORD97":174877.76999999999,"N_COORD97":2546398.98,"ADDRESS":"大灣路４０巷１８２弄３６之３號","OBJECTID":185304},"geometry":{"x":174877.76999999955,"y":2546398.9800000023}},{"attributes":{"ID":185306,"DIS_CODE":0,"TOWNNAME":"山上區","LI":"山上里","LIN":"10鄰","STREET":" ","SECT":" ","MAREA":"山上","LANE":" ","ALLEY":" ","HOUSE_NO":"１６１號","E_COORD97":184223.01000000001,"N_COORD97":2555686.25,"ADDRESS":"山上１６１號","OBJECTID":185305},"geometry":{"x":184223.01000000071,"y":2555686.2500000019}},{"attributes":{"ID":185307,"DIS_CODE":0,"TOWNNAME":"善化區","LI":"什乃里","LIN":"10鄰","STREET":" ","SECT":" ","MAREA":"什乃","LANE":" ","ALLEY":" ","HOUSE_NO":"９０號","E_COORD97":176083.14999999999,"N_COORD97":2560345.5,"ADDRESS":"什乃９０號","OBJECTID":185306},"geometry":{"x":176083.15000000037,"y":2560345.5000000037}},{"attributes":{"ID":185308,"DIS_CODE":0,"TOWNNAME":"新市區","LI":"潭頂里","LIN":"11鄰","STREET":" ","SECT":" ","MAREA":"潭頂","LANE":" ","ALLEY":" ","HOUSE_NO":"３７７之１１號","E_COORD97":180578.98000000001,"N_COORD97":2552965.7999999998,"ADDRESS":"潭頂３７７之１１號","OBJECTID":185307},"geometry":{"x":180578.98000000138,"y":2552965.8000000007}},{"attributes":{"ID":185309,"DIS_CODE":0,"TOWNNAME":"新市區","LI":"大社里","LIN":"11鄰","STREET":" ","SECT":" ","MAREA":"大社","LANE":" ","ALLEY":" ","HOUSE_NO":"３８６之２號","E_COORD97":180053.20000000001,"N_COORD97":2554727.0499999998,"ADDRESS":"大社３８６之２號","OBJECTID":185308},"geometry":{"x":180053.20000000112,"y":2554727.0500000007}},{"attributes":{"ID":185310,"DIS_CODE":0,"TOWNNAME":"永康區","LI":"北灣里","LIN":"36鄰","STREET":"大灣路","SECT":" ","MAREA":" ","LANE":"４０巷","ALLEY":"１５８弄","HOUSE_NO":"２５號","E_COORD97":174902.26000000001,"N_COORD97":2546388.3300000001,"ADDRESS":"大灣路４０巷１５８弄２５號","OBJECTID":185309},"geometry":{"x":174902.26000000164,"y":2546388.3299999982}},{"attributes":{"ID":185311,"DIS_CODE":0,"TOWNNAME":"永康區","LI":"北灣里","LIN":"36鄰","STREET":"大灣路","SECT":" ","MAREA":" ","LANE":"４０巷","ALLEY":"１８２弄","HOUSE_NO":"３２之３號","E_COORD97":174867.81,"N_COORD97":2546384.4199999999,"ADDRESS":"大灣路４０巷１８２弄３２之３號","OBJECTID":185310},"geometry":{"x":174867.81000000145,"y":2546384.4200000037}},{"attributes":{"ID":185312,"DIS_CODE":0,"TOWNNAME":"新市區","LI":"大社里","LIN":"11鄰","STREET":" ","SECT":" ","MAREA":"大社","LANE":" ","ALLEY":" ","HOUSE_NO":"３９１之２號","E_COORD97":180113.45999999999,"N_COORD97":2554645.7999999998,"ADDRESS":"大社３９１之２號","OBJECTID":185311},"geometry":{"x":180113.45999999996,"y":2554645.8000000026}},{"attributes":{"ID":185313,"DIS_CODE":0,"TOWNNAME":"新市區","LI":"大社里","LIN":"11鄰","STREET":" ","SECT":" ","MAREA":"大社","LANE":" ","ALLEY":" ","HOUSE_NO":"３９３之１號","E_COORD97":180139.37,"N_COORD97":2554661.0499999998,"ADDRESS":"大社３９３之１號","OBJECTID":185312},"geometry":{"x":180139.37000000011,"y":2554661.0500000026}},{"attributes":{"ID":185314,"DIS_CODE":0,"TOWNNAME":"新市區","LI":"大營里","LIN":"11鄰","STREET":" ","SECT":" ","MAREA":"大營","LANE":" ","ALLEY":" ","HOUSE_NO":"２３８號","E_COORD97":179177.45999999999,"N_COORD97":2555623.75,"ADDRESS":"大營２３８號","OBJECTID":185313},"geometry":{"x":179177.45999999996,"y":2555623.75}},{"attributes":{"ID":185315,"DIS_CODE":0,"TOWNNAME":"新市區","LI":"大營里","LIN":"11鄰","STREET":" ","SECT":" ","MAREA":"大營","LANE":" ","ALLEY":" ","HOUSE_NO":"２３５號","E_COORD97":179273.04000000001,"N_COORD97":2555687,"ADDRESS":"大營２３５號","OBJECTID":185314},"geometry":{"x":179273.04000000097,"y":2555686.9999999981}},{"attributes":{"ID":185316,"DIS_CODE":0,"TOWNNAME":"永康區","LI":"北灣里","LIN":"36鄰","STREET":"大灣路","SECT":" ","MAREA":" ","LANE":"４０巷","ALLEY":"１８２弄","HOUSE_NO":"３６之６號","E_COORD97":174883.92000000001,"N_COORD97":2546393.23,"ADDRESS":"大灣路４０巷１８２弄３６之６號","OBJECTID":185315},"geometry":{"x":174883.91999999993,"y":2546393.2300000042}},{"attributes":{"ID":185317,"DIS_CODE":0,"TOWNNAME":"永康區","LI":"北灣里","LIN":"36鄰","STREET":"大灣路","SECT":" ","MAREA":" ","LANE":"４０巷","ALLEY":"１２０弄","HOUSE_NO":"８號","E_COORD97":174946.84,"N_COORD97":2546272.2999999998,"ADDRESS":"大灣路４０巷１２０弄８號","OBJECTID":185316},"geometry":{"x":174946.83999999985,"y":2546272.3000000026}},{"attributes":{"ID":185318,"DIS_CODE":0,"TOWNNAME":"永康區","LI":"北灣里","LIN":"36鄰","STREET":"大灣路","SECT":" ","MAREA":" ","LANE":"４０巷","ALLEY":"１５８弄","HOUSE_NO":"３號","E_COORD97":174857.97,"N_COORD97":2546344.2799999998,"ADDRESS":"大灣路４０巷１５８弄３號","OBJECTID":185317},"geometry":{"x":174857.96999999974,"y":2546344.2800000031}},{"attributes":{"ID":185319,"DIS_CODE":0,"TOWNNAME":"永康區","LI":"北灣里","LIN":"36鄰","STREET":"大灣路","SECT":" ","MAREA":" ","LANE":"４０巷","ALLEY":"１８２弄","HOUSE_NO":"３０號","E_COORD97":174842.14000000001,"N_COORD97":2546377.3300000001,"ADDRESS":"大灣路４０巷１８２弄３０號","OBJECTID":185318},"geometry":{"x":174842.1400000006,"y":2546377.3300000001}},{"attributes":{"ID":185320,"DIS_CODE":0,"TOWNNAME":"永康區","LI":"北灣里","LIN":"36鄰","STREET":"大灣路","SECT":" ","MAREA":" ","LANE":"４０巷","ALLEY":"１８２弄","HOUSE_NO":"２６號","E_COORD97":174849.03,"N_COORD97":2546371.0800000001,"ADDRESS":"大灣路４０巷１８２弄２６號","OBJECTID":185319},"geometry":{"x":174849.03000000119,"y":2546371.0800000019}},{"attributes":{"ID":185321,"DIS_CODE":0,"TOWNNAME":"新市區","LI":"大營里","LIN":"11鄰","STREET":" ","SECT":" ","MAREA":"大營","LANE":" ","ALLEY":" ","HOUSE_NO":"２３４號","E_COORD97":179275.84,"N_COORD97":2555647,"ADDRESS":"大營２３４號","OBJECTID":185320},"geometry":{"x":179275.84000000078,"y":2555647.0000000019}},{"attributes":{"ID":185322,"DIS_CODE":0,"TOWNNAME":"新市區","LI":"大營里","LIN":"11鄰","STREET":" ","SECT":" ","MAREA":"大營","LANE":" ","ALLEY":" ","HOUSE_NO":"２３６之１０號","E_COORD97":179186.95000000001,"N_COORD97":2555681.7999999998,"ADDRESS":"大營２３６之１０號","OBJECTID":185321},"geometry":{"x":179186.95000000112,"y":2555681.8000000007}},{"attributes":{"ID":185323,"DIS_CODE":0,"TOWNNAME":"新市區","LI":"大營里","LIN":"11鄰","STREET":" ","SECT":" ","MAREA":"大營","LANE":" ","ALLEY":" ","HOUSE_NO":"２３８之１號","E_COORD97":179176.01999999999,"N_COORD97":2555623.5499999998,"ADDRESS":"大營２３８之１號","OBJECTID":185322},"geometry":{"x":179176.02000000048,"y":2555623.5500000026}},{"attributes":{"ID":185324,"DIS_CODE":0,"TOWNNAME":"新市區","LI":"大營里","LIN":"11鄰","STREET":" ","SECT":" ","MAREA":"大營","LANE":" ","ALLEY":" ","HOUSE_NO":"２３１號","E_COORD97":179325.20000000001,"N_COORD97":2555676.25,"ADDRESS":"大營２３１號","OBJECTID":185323},"geometry":{"x":179325.20000000019,"y":2555676.2500000019}},{"attributes":{"ID":185325,"DIS_CODE":0,"TOWNNAME":"新市區","LI":"大營里","LIN":"11鄰","STREET":" ","SECT":" ","MAREA":"大營","LANE":" ","ALLEY":" ","HOUSE_NO":"２３４之１３號","E_COORD97":179251.01999999999,"N_COORD97":2555653.5499999998,"ADDRESS":"大營２３４之１３號","OBJECTID":185324},"geometry":{"x":179251.01999999955,"y":2555653.5499999989}},{"attributes":{"ID":185326,"DIS_CODE":0,"TOWNNAME":"新市區","LI":"大營里","LIN":"11鄰","STREET":" ","SECT":" ","MAREA":"大營","LANE":" ","ALLEY":" ","HOUSE_NO":"２３８之２號","E_COORD97":179167.26999999999,"N_COORD97":2555629.0499999998,"ADDRESS":"大營２３８之２號","OBJECTID":185325},"geometry":{"x":179167.27000000048,"y":2555629.0500000007}},{"attributes":{"ID":185327,"DIS_CODE":0,"TOWNNAME":"新市區","LI":"大營里","LIN":"11鄰","STREET":" ","SECT":" ","MAREA":"大營","LANE":" ","ALLEY":" ","HOUSE_NO":"２３６之７號","E_COORD97":179238.73999999999,"N_COORD97":2555631.2999999998,"ADDRESS":"大營２３６之７號","OBJECTID":185326},"geometry":{"x":179238.74000000022,"y":2555631.3000000007}},{"attributes":{"ID":185328,"DIS_CODE":0,"TOWNNAME":"新市區","LI":"大社里","LIN":"11鄰","STREET":" ","SECT":" ","MAREA":"大社","LANE":" ","ALLEY":" ","HOUSE_NO":"３８３號","E_COORD97":180068.39999999999,"N_COORD97":2554686,"ADDRESS":"大社３８３號","OBJECTID":185327},"geometry":{"x":180068.40000000037,"y":2554686}},{"attributes":{"ID":185329,"DIS_CODE":0,"TOWNNAME":"新市區","LI":"大社里","LIN":"11鄰","STREET":" ","SECT":" ","MAREA":"大社","LANE":" ","ALLEY":" ","HOUSE_NO":"３８１號","E_COORD97":180074.70000000001,"N_COORD97":2554653.25,"ADDRESS":"大社３８１號","OBJECTID":185328},"geometry":{"x":180074.70000000019,"y":2554653.25}},{"attributes":{"ID":185330,"DIS_CODE":0,"TOWNNAME":"新市區","LI":"潭頂里","LIN":"11鄰","STREET":" ","SECT":" ","MAREA":"潭頂","LANE":" ","ALLEY":" ","HOUSE_NO":"３６７號","E_COORD97":180624.92000000001,"N_COORD97":2552943.25,"ADDRESS":"潭頂３６７號","OBJECTID":185329},"geometry":{"x":180624.92000000086,"y":2552943.2500000019}},{"attributes":{"ID":185331,"DIS_CODE":0,"TOWNNAME":"新市區","LI":"豐華里","LIN":"11鄰","STREET":" ","SECT":" ","MAREA":"豐華","LANE":" ","ALLEY":" ","HOUSE_NO":"４７之６４號","E_COORD97":174164.23000000001,"N_COORD97":2554466.2999999998,"ADDRESS":"豐華４７之６４號","OBJECTID":185330},"geometry":{"x":174164.23000000138,"y":2554466.3000000026}},{"attributes":{"ID":185332,"DIS_CODE":0,"TOWNNAME":"新市區","LI":"豐華里","LIN":"11鄰","STREET":" ","SECT":" ","MAREA":"豐華","LANE":" ","ALLEY":" ","HOUSE_NO":"４７之６５號","E_COORD97":174165.82000000001,"N_COORD97":2554470.2999999998,"ADDRESS":"豐華４７之６５號","OBJECTID":185331},"geometry":{"x":174165.8200000003,"y":2554470.3000000026}},{"attributes":{"ID":185333,"DIS_CODE":0,"TOWNNAME":"新市區","LI":"豐華里","LIN":"11鄰","STREET":" ","SECT":" ","MAREA":"豐華","LANE":" ","ALLEY":" ","HOUSE_NO":"４７之８３號","E_COORD97":174194.04000000001,"N_COORD97":2554456.0499999998,"ADDRESS":"豐華４７之８３號","OBJECTID":185332},"geometry":{"x":174194.04000000097,"y":2554456.0500000007}},{"attributes":{"ID":185334,"DIS_CODE":0,"TOWNNAME":"新市區","LI":"豐華里","LIN":"11鄰","STREET":" ","SECT":" ","MAREA":"豐華","LANE":" ","ALLEY":" ","HOUSE_NO":"４７之９５號","E_COORD97":174209.51000000001,"N_COORD97":2554507.5499999998,"ADDRESS":"豐華４７之９５號","OBJECTID":185333},"geometry":{"x":174209.51000000071,"y":2554507.5499999989}},{"attributes":{"ID":185335,"DIS_CODE":0,"TOWNNAME":"山上區","LI":"南洲里","LIN":"10鄰","STREET":" ","SECT":" ","MAREA":"南洲","LANE":" ","ALLEY":" ","HOUSE_NO":"３１之５號","E_COORD97":183719.73000000001,"N_COORD97":2555409.4300000002,"ADDRESS":"南洲３１之５號","OBJECTID":185334},"geometry":{"x":183719.72999999952,"y":2555409.4300000034}},{"attributes":{"ID":185336,"DIS_CODE":0,"TOWNNAME":"善化區","LI":"東隆里","LIN":"10鄰","STREET":" ","SECT":" ","MAREA":"東勢寮","LANE":" ","ALLEY":" ","HOUSE_NO":"２９３號","E_COORD97":179858.10999999999,"N_COORD97":2561072.0099999998,"ADDRESS":"東勢寮２９３號","OBJECTID":185335},"geometry":{"x":179858.11000000034,"y":2561072.0100000016}},{"attributes":{"ID":185337,"DIS_CODE":0,"TOWNNAME":"善化區","LI":"什乃里","LIN":"10鄰","STREET":" ","SECT":" ","MAREA":"什乃","LANE":" ","ALLEY":" ","HOUSE_NO":"９４之１１號","E_COORD97":176229.20000000001,"N_COORD97":2560226.77,"ADDRESS":"什乃９４之１１號","OBJECTID":185336},"geometry":{"x":176229.20000000112,"y":2560226.7699999996}},{"attributes":{"ID":185338,"DIS_CODE":0,"TOWNNAME":"善化區","LI":"六分里","LIN":"10鄰","STREET":" ","SECT":" ","MAREA":"溪底寮","LANE":" ","ALLEY":" ","HOUSE_NO":"６７號","E_COORD97":175334.62,"N_COORD97":2562691.02,"ADDRESS":"溪底寮６７號","OBJECTID":185337},"geometry":{"x":175334.62000000104,"y":2562691.0200000033}},{"attributes":{"ID":185339,"DIS_CODE":0,"TOWNNAME":"善化區","LI":"小新里","LIN":"10鄰","STREET":" ","SECT":" ","MAREA":"小新營","LANE":" ","ALLEY":" ","HOUSE_NO":"７６號之５","E_COORD97":179565.38,"N_COORD97":2558228.02,"ADDRESS":"小新營７６號之５","OBJECTID":185338},"geometry":{"x":179565.38000000082,"y":2558228.0199999996}},{"attributes":{"ID":185340,"DIS_CODE":0,"TOWNNAME":"善化區","LI":"什乃里","LIN":"10鄰","STREET":" ","SECT":" ","MAREA":"什乃","LANE":" ","ALLEY":" ","HOUSE_NO":"８５號","E_COORD97":176087.01000000001,"N_COORD97":2560360.5,"ADDRESS":"什乃８５號","OBJECTID":185339},"geometry":{"x":176087.00999999978,"y":2560360.5000000019}},{"attributes":{"ID":185341,"DIS_CODE":0,"TOWNNAME":"善化區","LI":"胡厝里","LIN":"10鄰","STREET":" ","SECT":" ","MAREA":"百二甲","LANE":" ","ALLEY":" ","HOUSE_NO":"４號之１","E_COORD97":175269.22,"N_COORD97":2560007.77,"ADDRESS":"百二甲４號之１","OBJECTID":185340},"geometry":{"x":175269.22000000067,"y":2560007.7700000033}},{"attributes":{"ID":185342,"DIS_CODE":0,"TOWNNAME":"新市區","LI":"豐華里","LIN":"11鄰","STREET":" ","SECT":" ","MAREA":"豐華","LANE":" ","ALLEY":" ","HOUSE_NO":"４７之６０號","E_COORD97":174158.62,"N_COORD97":2554450.2999999998,"ADDRESS":"豐華４７之６０號","OBJECTID":185341},"geometry":{"x":174158.62000000011,"y":2554450.3000000007}},{"attributes":{"ID":185343,"DIS_CODE":0,"TOWNNAME":"新市區","LI":"豐華里","LIN":"11鄰","STREET":" ","SECT":" ","MAREA":"豐華","LANE":" ","ALLEY":" ","HOUSE_NO":"４７之７９號","E_COORD97":174188.59,"N_COORD97":2554440.0499999998,"ADDRESS":"豐華４７之７９號","OBJECTID":185342},"geometry":{"x":174188.59000000078,"y":2554440.0500000045}},{"attributes":{"ID":185344,"DIS_CODE":0,"TOWNNAME":"永康區","LI":"北灣里","LIN":"36鄰","STREET":"大灣路","SECT":" ","MAREA":" ","LANE":"４０巷","ALLEY":"１８２弄","HOUSE_NO":"３２號","E_COORD97":174856.45000000001,"N_COORD97":2546393.6200000001,"ADDRESS":"大灣路４０巷１８２弄３２號","OBJECTID":185343},"geometry":{"x":174856.45000000019,"y":2546393.620000001}},{"attributes":{"ID":185345,"DIS_CODE":0,"TOWNNAME":"永康區","LI":"北灣里","LIN":"36鄰","STREET":"大灣路","SECT":" ","MAREA":" ","LANE":"４０巷","ALLEY":"１８２弄","HOUSE_NO":"７號","E_COORD97":174826.79999999999,"N_COORD97":2546384.9300000002,"ADDRESS":"大灣路４０巷１８２弄７號","OBJECTID":185344},"geometry":{"x":174826.79999999981,"y":2546384.9300000016}},{"attributes":{"ID":185346,"DIS_CODE":0,"TOWNNAME":"永康區","LI":"北灣里","LIN":"36鄰","STREET":"大灣路","SECT":" ","MAREA":" ","LANE":"４０巷","ALLEY":"１８２弄","HOUSE_NO":"２０號","E_COORD97":174855.42000000001,"N_COORD97":2546365.3300000001,"ADDRESS":"大灣路４０巷１８２弄２０號","OBJECTID":185345},"geometry":{"x":174855.41999999899,"y":2546365.3300000019}},{"attributes":{"ID":185347,"DIS_CODE":0,"TOWNNAME":"新市區","LI":"豐華里","LIN":"11鄰","STREET":" ","SECT":" ","MAREA":"豐華","LANE":" ","ALLEY":" ","HOUSE_NO":"４７之９３號","E_COORD97":174200.89999999999,"N_COORD97":2554504.7999999998,"ADDRESS":"豐華４７之９３號","OBJECTID":185346},"geometry":{"x":174200.9000000013,"y":2554504.8000000007}},{"attributes":{"ID":185348,"DIS_CODE":0,"TOWNNAME":"新市區","LI":"豐華里","LIN":"11鄰","STREET":" ","SECT":" ","MAREA":"豐華","LANE":" ","ALLEY":" ","HOUSE_NO":"４７之９１號","E_COORD97":174192.32000000001,"N_COORD97":2554501.7999999998,"ADDRESS":"豐華４７之９１號","OBJECTID":185347},"geometry":{"x":174192.32000000123,"y":2554501.8000000007}},{"attributes":{"ID":185349,"DIS_CODE":0,"TOWNNAME":"新市區","LI":"豐華里","LIN":"11鄰","STREET":" ","SECT":" ","MAREA":"豐華","LANE":" ","ALLEY":" ","HOUSE_NO":"４７之６１號","E_COORD97":174159.92999999999,"N_COORD97":2554454.2999999998,"ADDRESS":"豐華４７之６１號","OBJECTID":185348},"geometry":{"x":174159.9299999997,"y":2554454.3000000007}},{"attributes":{"ID":185350,"DIS_CODE":0,"TOWNNAME":"新市區","LI":"豐華里","LIN":"11鄰","STREET":" ","SECT":" ","MAREA":"豐華","LANE":" ","ALLEY":" ","HOUSE_NO":"４７之５８號","E_COORD97":174156.26000000001,"N_COORD97":2554442.0499999998,"ADDRESS":"豐華４７之５８號","OBJECTID":185349},"geometry":{"x":174156.25999999885,"y":2554442.0500000007}},{"attributes":{"ID":185351,"DIS_CODE":0,"TOWNNAME":"新市區","LI":"豐華里","LIN":"11鄰","STREET":" ","SECT":" ","MAREA":"豐華","LANE":" ","ALLEY":" ","HOUSE_NO":"４７之８７號","E_COORD97":174200.31,"N_COORD97":2554471.7999999998,"ADDRESS":"豐華４７之８７號","OBJECTID":185350},"geometry":{"x":174200.31000000052,"y":2554471.8000000007}},{"attributes":{"ID":185352,"DIS_CODE":0,"TOWNNAME":"新市區","LI":"豐華里","LIN":"11鄰","STREET":" ","SECT":" ","MAREA":"豐華","LANE":" ","ALLEY":" ","HOUSE_NO":"４７之８８號","E_COORD97":174201.92999999999,"N_COORD97":2554476.0499999998,"ADDRESS":"豐華４７之８８號","OBJECTID":185351},"geometry":{"x":174201.9299999997,"y":2554476.0500000007}},{"attributes":{"ID":185353,"DIS_CODE":0,"TOWNNAME":"新市區","LI":"豐華里","LIN":"11鄰","STREET":" ","SECT":" ","MAREA":"豐華","LANE":" ","ALLEY":" ","HOUSE_NO":"４７之７４號","E_COORD97":174181.12,"N_COORD97":2554418.7999999998,"ADDRESS":"豐華４７之７４號","OBJECTID":185352},"geometry":{"x":174181.12000000011,"y":2554418.8000000026}},{"attributes":{"ID":185354,"DIS_CODE":0,"TOWNNAME":"新市區","LI":"豐華里","LIN":"11鄰","STREET":" ","SECT":" ","MAREA":"豐華","LANE":" ","ALLEY":" ","HOUSE_NO":"４７之５４號","E_COORD97":174149.62,"N_COORD97":2554426.0499999998,"ADDRESS":"豐華４７之５４號","OBJECTID":185353},"geometry":{"x":174149.62000000104,"y":2554426.0500000007}},{"attributes":{"ID":185355,"DIS_CODE":0,"TOWNNAME":"新市區","LI":"豐華里","LIN":"11鄰","STREET":" ","SECT":" ","MAREA":"豐華","LANE":" ","ALLEY":" ","HOUSE_NO":"４７之６６號","E_COORD97":174167.42999999999,"N_COORD97":2554474.5499999998,"ADDRESS":"豐華４７之６６號","OBJECTID":185354},"geometry":{"x":174167.43000000063,"y":2554474.5500000026}},{"attributes":{"ID":185356,"DIS_CODE":0,"TOWNNAME":"新市區","LI":"豐華里","LIN":"11鄰","STREET":" ","SECT":" ","MAREA":"豐華","LANE":" ","ALLEY":" ","HOUSE_NO":"４７之７２號","E_COORD97":174178.64999999999,"N_COORD97":2554411.2999999998,"ADDRESS":"豐華４７之７２號","OBJECTID":185355},"geometry":{"x":174178.6500000013,"y":2554411.3000000045}},{"attributes":{"ID":185357,"DIS_CODE":0,"TOWNNAME":"新市區","LI":"豐華里","LIN":"11鄰","STREET":" ","SECT":" ","MAREA":"豐華","LANE":" ","ALLEY":" ","HOUSE_NO":"４７之９７號","E_COORD97":174218.12,"N_COORD97":2554510.7999999998,"ADDRESS":"豐華４７之９７號","OBJECTID":185356},"geometry":{"x":174218.12000000011,"y":2554510.8000000026}},{"attributes":{"ID":185358,"DIS_CODE":0,"TOWNNAME":"永康區","LI":"北灣里","LIN":"36鄰","STREET":"大灣路","SECT":" ","MAREA":" ","LANE":"４０巷","ALLEY":"１８２弄","HOUSE_NO":"３２之５號","E_COORD97":174870.89000000001,"N_COORD97":2546381.6699999999,"ADDRESS":"大灣路４０巷１８２弄３２之５號","OBJECTID":185357},"geometry":{"x":174870.8900000006,"y":2546381.6699999999}},{"attributes":{"ID":185359,"DIS_CODE":0,"TOWNNAME":"永康區","LI":"北灣里","LIN":"36鄰","STREET":"大灣路","SECT":" ","MAREA":" ","LANE":"４０巷","ALLEY":"１８２弄","HOUSE_NO":"３２之６號","E_COORD97":174873.78,"N_COORD97":2546379.1699999999,"ADDRESS":"大灣路４０巷１８２弄３２之６號","OBJECTID":185358},"geometry":{"x":174873.78000000212,"y":2546379.1699999981}},{"attributes":{"ID":185360,"DIS_CODE":0,"TOWNNAME":"善化區","LI":"溪美里","LIN":"10鄰","STREET":" ","SECT":" ","MAREA":"溪尾","LANE":" ","ALLEY":" ","HOUSE_NO":"９７之５號","E_COORD97":176722.85000000001,"N_COORD97":2561403.27,"ADDRESS":"溪尾９７之５號","OBJECTID":185359},"geometry":{"x":176722.85000000056,"y":2561403.2699999996}},{"attributes":{"ID":185361,"DIS_CODE":0,"TOWNNAME":"善化區","LI":"文昌里","LIN":"10鄰","STREET":"大同路","SECT":" ","MAREA":" ","LANE":" ","ALLEY":" ","HOUSE_NO":"２４９號","E_COORD97":177389.60000000001,"N_COORD97":2558816.25,"ADDRESS":"大同路２４９號","OBJECTID":185360},"geometry":{"x":177389.59999999963,"y":2558816.2500000019}},{"attributes":{"ID":185362,"DIS_CODE":0,"TOWNNAME":"善化區","LI":"胡家里","LIN":"10鄰","STREET":" ","SECT":" ","MAREA":"胡厝寮","LANE":" ","ALLEY":" ","HOUSE_NO":"８７號","E_COORD97":175329.54999999999,"N_COORD97":2560618.75,"ADDRESS":"胡厝寮８７號","OBJECTID":185361},"geometry":{"x":175329.55000000075,"y":2560618.7500000019}},{"attributes":{"ID":185363,"DIS_CODE":0,"TOWNNAME":"善化區","LI":"溪美里","LIN":"10鄰","STREET":" ","SECT":" ","MAREA":"溪尾","LANE":" ","ALLEY":" ","HOUSE_NO":"９７號之１","E_COORD97":176729.41,"N_COORD97":2561374.77,"ADDRESS":"溪尾９７號之１","OBJECTID":185362},"geometry":{"x":176729.41000000108,"y":2561374.7700000014}},{"attributes":{"ID":185364,"DIS_CODE":0,"TOWNNAME":"善化區","LI":"胡厝里","LIN":"10鄰","STREET":" ","SECT":" ","MAREA":"百二甲","LANE":" ","ALLEY":" ","HOUSE_NO":"２號之４","E_COORD97":175417.87,"N_COORD97":2560130.27,"ADDRESS":"百二甲２號之４","OBJECTID":185363},"geometry":{"x":175417.87000000104,"y":2560130.2700000014}},{"attributes":{"ID":185365,"DIS_CODE":0,"TOWNNAME":"永康區","LI":"北灣里","LIN":"36鄰","STREET":"大灣路","SECT":" ","MAREA":" ","LANE":"４０巷","ALLEY":"１５８弄","HOUSE_NO":"２３號","E_COORD97":174898.85999999999,"N_COORD97":2546385.5800000001,"ADDRESS":"大灣路４０巷１５８弄２３號","OBJECTID":185364},"geometry":{"x":174898.8600000022,"y":2546385.5800000001}},{"attributes":{"ID":185366,"DIS_CODE":0,"TOWNNAME":"善化區","LI":"溪美里","LIN":"10鄰","STREET":" ","SECT":" ","MAREA":"溪尾","LANE":" ","ALLEY":" ","HOUSE_NO":"９７之１０號","E_COORD97":176746.70000000001,"N_COORD97":2561406.77,"ADDRESS":"溪尾９７之１０號","OBJECTID":185365},"geometry":{"x":176746.70000000019,"y":2561406.7699999996}},{"attributes":{"ID":185367,"DIS_CODE":0,"TOWNNAME":"永康區","LI":"北灣里","LIN":"36鄰","STREET":"大灣路","SECT":" ","MAREA":" ","LANE":"４０巷","ALLEY":"１３０弄","HOUSE_NO":"１２號","E_COORD97":174942.67999999999,"N_COORD97":2546309.1699999999,"ADDRESS":"大灣路４０巷１３０弄１２號","OBJECTID":185366},"geometry":{"x":174942.6799999997,"y":2546309.1700000018}},{"attributes":{"ID":185368,"DIS_CODE":0,"TOWNNAME":"善化區","LI":"什乃里","LIN":"10鄰","STREET":" ","SECT":" ","MAREA":"什乃","LANE":" ","ALLEY":" ","HOUSE_NO":"９１號","E_COORD97":176034.62,"N_COORD97":2560337.75,"ADDRESS":"什乃９１號","OBJECTID":185367},"geometry":{"x":176034.62000000104,"y":2560337.7500000019}},{"attributes":{"ID":185369,"DIS_CODE":0,"TOWNNAME":"永康區","LI":"北灣里","LIN":"36鄰","STREET":"大灣路","SECT":" ","MAREA":" ","LANE":"４０巷","ALLEY":"１５８弄","HOUSE_NO":"１９號","E_COORD97":174885.23000000001,"N_COORD97":2546372.27,"ADDRESS":"大灣路４０巷１５８弄１９號","OBJECTID":185368},"geometry":{"x":174885.23000000138,"y":2546372.2700000014}},{"attributes":{"ID":185370,"DIS_CODE":0,"TOWNNAME":"善化區","LI":"東隆里","LIN":"10鄰","STREET":" ","SECT":" ","MAREA":"東勢寮","LANE":" ","ALLEY":" ","HOUSE_NO":"２７７號","E_COORD97":179933.73000000001,"N_COORD97":2561261.5099999998,"ADDRESS":"東勢寮２７７號","OBJECTID":185369},"geometry":{"x":179933.73000000045,"y":2561261.5100000016}},{"attributes":{"ID":185371,"DIS_CODE":0,"TOWNNAME":"善化區","LI":"溪美里","LIN":"10鄰","STREET":" ","SECT":" ","MAREA":"溪尾","LANE":" ","ALLEY":" ","HOUSE_NO":"９５號","E_COORD97":176756.92999999999,"N_COORD97":2561409.27,"ADDRESS":"溪尾９５號","OBJECTID":185370},"geometry":{"x":176756.9299999997,"y":2561409.2700000014}},{"attributes":{"ID":185372,"DIS_CODE":0,"TOWNNAME":"永康區","LI":"北灣里","LIN":"36鄰","STREET":"大灣路","SECT":" ","MAREA":" ","LANE":"４０巷","ALLEY":"１２０弄","HOUSE_NO":"１２號","E_COORD97":174953.64000000001,"N_COORD97":2546278.04,"ADDRESS":"大灣路４０巷１２０弄１２號","OBJECTID":185371},"geometry":{"x":174953.63999999873,"y":2546278.040000001}},{"attributes":{"ID":185373,"DIS_CODE":0,"TOWNNAME":"永康區","LI":"北灣里","LIN":"36鄰","STREET":"大灣路","SECT":" ","MAREA":" ","LANE":"４０巷","ALLEY":"１２０弄","HOUSE_NO":"１４號","E_COORD97":174956.59,"N_COORD97":2546281.0499999998,"ADDRESS":"大灣路４０巷１２０弄１４號","OBJECTID":185372},"geometry":{"x":174956.59000000078,"y":2546281.0500000007}},{"attributes":{"ID":185374,"DIS_CODE":0,"TOWNNAME":"永康區","LI":"北灣里","LIN":"36鄰","STREET":"大灣路","SECT":" ","MAREA":" ","LANE":"４０巷","ALLEY":"１８２弄","HOUSE_NO":"１１號","E_COORD97":174834.75,"N_COORD97":2546392.4300000002,"ADDRESS":"大灣路４０巷１８２弄１１號","OBJECTID":185373},"geometry":{"x":174834.75000000186,"y":2546392.4300000016}},{"attributes":{"ID":185375,"DIS_CODE":0,"TOWNNAME":"善化區","LI":"胡厝里","LIN":"10鄰","STREET":" ","SECT":" ","MAREA":"百二甲","LANE":" ","ALLEY":" ","HOUSE_NO":"２號之１０","E_COORD97":175435.01999999999,"N_COORD97":2560051.27,"ADDRESS":"百二甲２號之１０","OBJECTID":185374},"geometry":{"x":175435.02000000048,"y":2560051.2699999996}},{"attributes":{"ID":185376,"DIS_CODE":0,"TOWNNAME":"仁德區","LI":"土庫里","LIN":"10鄰","STREET":"土庫路","SECT":" ","MAREA":" ","LANE":" ","ALLEY":" ","HOUSE_NO":"４９號","E_COORD97":174222.48999999999,"N_COORD97":2543348.4900000002,"ADDRESS":"土庫路４９號","OBJECTID":185375},"geometry":{"x":174222.49000000022,"y":2543348.4900000002}},{"attributes":{"ID":185377,"DIS_CODE":0,"TOWNNAME":"仁德區","LI":"二行里","LIN":"10鄰","STREET":"行大街","SECT":" ","MAREA":" ","LANE":" ","ALLEY":" ","HOUSE_NO":"１２６號","E_COORD97":170122.73000000001,"N_COORD97":2535115,"ADDRESS":"行大街１２６號","OBJECTID":185376},"geometry":{"x":170122.73000000231,"y":2535115.0000000019}},{"attributes":{"ID":185378,"DIS_CODE":0,"TOWNNAME":"永康區","LI":"北灣里","LIN":"36鄰","STREET":"大灣路","SECT":" ","MAREA":" ","LANE":"４０巷","ALLEY":"１８２弄","HOUSE_NO":"１３號","E_COORD97":174838.75,"N_COORD97":2546396.6800000002,"ADDRESS":"大灣路４０巷１８２弄１３號","OBJECTID":185377},"geometry":{"x":174838.75000000093,"y":2546396.6800000016}},{"attributes":{"ID":185379,"DIS_CODE":0,"TOWNNAME":"永康區","LI":"北灣里","LIN":"36鄰","STREET":"大灣路","SECT":" ","MAREA":" ","LANE":"４０巷","ALLEY":"２０８弄","HOUSE_NO":"１號","E_COORD97":174759.54000000001,"N_COORD97":2546411.3500000001,"ADDRESS":"大灣路４０巷２０８弄１號","OBJECTID":185378},"geometry":{"x":174759.54000000004,"y":2546411.3499999996}},{"attributes":{"ID":185380,"DIS_CODE":0,"TOWNNAME":"仁德區","LI":"中洲里","LIN":"10鄰","STREET":" ","SECT":" ","MAREA":"中洲","LANE":" ","ALLEY":" ","HOUSE_NO":"３０９號之１０","E_COORD97":173813.14999999999,"N_COORD97":2534061.79,"ADDRESS":"中洲３０９號之１０","OBJECTID":185379},"geometry":{"x":173813.15000000037,"y":2534061.790000001}},{"attributes":{"ID":185381,"DIS_CODE":0,"TOWNNAME":"仁德區","LI":"中洲里","LIN":"10鄰","STREET":" ","SECT":" ","MAREA":"中洲","LANE":" ","ALLEY":" ","HOUSE_NO":"３１８號之１３","E_COORD97":173391.13,"N_COORD97":2533994.0499999998,"ADDRESS":"中洲３１８號之１３","OBJECTID":185380},"geometry":{"x":173391.13000000175,"y":2533994.0500000026}},{"attributes":{"ID":185382,"DIS_CODE":0,"TOWNNAME":"仁德區","LI":"中洲里","LIN":"10鄰","STREET":" ","SECT":" ","MAREA":"中洲","LANE":" ","ALLEY":" ","HOUSE_NO":"３０７號之３","E_COORD97":173380.62,"N_COORD97":2533957.79,"ADDRESS":"中洲３０７號之３","OBJECTID":185381},"geometry":{"x":173380.62000000011,"y":2533957.7899999991}},{"attributes":{"ID":185383,"DIS_CODE":0,"TOWNNAME":"仁德區","LI":"中洲里","LIN":"10鄰","STREET":" ","SECT":" ","MAREA":"中洲","LANE":" ","ALLEY":" ","HOUSE_NO":"３１６號之１７","E_COORD97":173301.45000000001,"N_COORD97":2534076.54,"ADDRESS":"中洲３１６號之１７","OBJECTID":185382},"geometry":{"x":173301.45000000112,"y":2534076.540000001}},{"attributes":{"ID":185384,"DIS_CODE":0,"TOWNNAME":"仁德區","LI":"中洲里","LIN":"10鄰","STREET":" ","SECT":" ","MAREA":"中洲","LANE":" ","ALLEY":" ","HOUSE_NO":"３１７號之２７","E_COORD97":173457.37,"N_COORD97":2534004.5499999998,"ADDRESS":"中洲３１７號之２７","OBJECTID":185383},"geometry":{"x":173457.37000000011,"y":2534004.5500000007}},{"attributes":{"ID":185385,"DIS_CODE":0,"TOWNNAME":"新化區","LI":"唪口里","LIN":"10鄰","STREET":" ","SECT":" ","MAREA":"唪口","LANE":" ","ALLEY":" ","HOUSE_NO":"１５２號","E_COORD97":177611.95000000001,"N_COORD97":2548992.25,"ADDRESS":"唪口１５２號","OBJECTID":185384},"geometry":{"x":177611.95000000205,"y":2548992.25}},{"attributes":{"ID":185386,"DIS_CODE":0,"TOWNNAME":"新市區","LI":"豐華里","LIN":"11鄰","STREET":" ","SECT":" ","MAREA":"豐華","LANE":" ","ALLEY":" ","HOUSE_NO":"４７之５５號","E_COORD97":174150.98000000001,"N_COORD97":2554430.2999999998,"ADDRESS":"豐華４７之５５號","OBJECTID":185385},"geometry":{"x":174150.98000000138,"y":2554430.3000000007}},{"attributes":{"ID":185387,"DIS_CODE":0,"TOWNNAME":"永康區","LI":"北灣里","LIN":"36鄰","STREET":"大灣路","SECT":" ","MAREA":" ","LANE":"４０巷","ALLEY":"２０８弄","HOUSE_NO":"３號","E_COORD97":174765.14999999999,"N_COORD97":2546414.0299999998,"ADDRESS":"大灣路４０巷２０８弄３號","OBJECTID":185386},"geometry":{"x":174765.1500000013,"y":2546414.0300000012}},{"attributes":{"ID":185388,"DIS_CODE":0,"TOWNNAME":"新市區","LI":"豐華里","LIN":"11鄰","STREET":" ","SECT":" ","MAREA":"豐華","LANE":" ","ALLEY":" ","HOUSE_NO":"４７之５７號","E_COORD97":174154.34,"N_COORD97":2554438.0499999998,"ADDRESS":"豐華４７之５７號","OBJECTID":185387},"geometry":{"x":174154.34000000078,"y":2554438.0500000026}},{"attributes":{"ID":185389,"DIS_CODE":0,"TOWNNAME":"新市區","LI":"豐華里","LIN":"11鄰","STREET":" ","SECT":" ","MAREA":"豐華","LANE":" ","ALLEY":" ","HOUSE_NO":"４７之５９號","E_COORD97":174157.54000000001,"N_COORD97":2554446.2999999998,"ADDRESS":"豐華４７之５９號","OBJECTID":185388},"geometry":{"x":174157.54000000004,"y":2554446.3000000026}},{"attributes":{"ID":185390,"DIS_CODE":0,"TOWNNAME":"新市區","LI":"豐華里","LIN":"11鄰","STREET":" ","SECT":" ","MAREA":"豐華","LANE":" ","ALLEY":" ","HOUSE_NO":"４７之６８號","E_COORD97":174170.23000000001,"N_COORD97":2554482.5499999998,"ADDRESS":"豐華４７之６８號","OBJECTID":185389},"geometry":{"x":174170.23000000045,"y":2554482.5500000007}},{"attributes":{"ID":185391,"DIS_CODE":0,"TOWNNAME":"新市區","LI":"豐華里","LIN":"11鄰","STREET":" ","SECT":" ","MAREA":"豐華","LANE":" ","ALLEY":" ","HOUSE_NO":"４７之５６號","E_COORD97":174152.73000000001,"N_COORD97":2554434.0499999998,"ADDRESS":"豐華４７之５６號","OBJECTID":185390},"geometry":{"x":174152.73000000138,"y":2554434.0500000026}},{"attributes":{"ID":185392,"DIS_CODE":0,"TOWNNAME":"新市區","LI":"潭頂里","LIN":"11鄰","STREET":" ","SECT":" ","MAREA":"潭頂","LANE":" ","ALLEY":" ","HOUSE_NO":"３７５之６號","E_COORD97":180594.59,"N_COORD97":2553049.0499999998,"ADDRESS":"潭頂３７５之６號","OBJECTID":185391},"geometry":{"x":180594.59000000078,"y":2553049.0500000007}},{"attributes":{"ID":185393,"DIS_CODE":0,"TOWNNAME":"新市區","LI":"豐華里","LIN":"11鄰","STREET":" ","SECT":" ","MAREA":"豐華","LANE":" ","ALLEY":" ","HOUSE_NO":"４７之９２號","E_COORD97":174196.62,"N_COORD97":2554503.2999999998,"ADDRESS":"豐華４７之９２號","OBJECTID":185392},"geometry":{"x":174196.62000000197,"y":2554503.3000000026}},{"attributes":{"ID":185394,"DIS_CODE":0,"TOWNNAME":"新市區","LI":"潭頂里","LIN":"11鄰","STREET":" ","SECT":" ","MAREA":"潭頂","LANE":" ","ALLEY":" ","HOUSE_NO":"３７５之８號","E_COORD97":180594.89000000001,"N_COORD97":2553054.2999999998,"ADDRESS":"潭頂３７５之８號","OBJECTID":185393},"geometry":{"x":180594.88999999966,"y":2553054.3000000007}},{"attributes":{"ID":185395,"DIS_CODE":0,"TOWNNAME":"新市區","LI":"潭頂里","LIN":"11鄰","STREET":" ","SECT":" ","MAREA":"潭頂","LANE":" ","ALLEY":" ","HOUSE_NO":"３７４之１２號","E_COORD97":180618.75,"N_COORD97":2553025.2999999998,"ADDRESS":"潭頂３７４之１２號","OBJECTID":185394},"geometry":{"x":180618.75000000186,"y":2553025.3000000026}},{"attributes":{"ID":185396,"DIS_CODE":0,"TOWNNAME":"永康區","LI":"北灣里","LIN":"36鄰","STREET":"大灣路","SECT":" ","MAREA":" ","LANE":"４０巷","ALLEY":"２０８弄","HOUSE_NO":"５號","E_COORD97":174768.07999999999,"N_COORD97":2546417.2000000002,"ADDRESS":"大灣路４０巷２０８弄５號","OBJECTID":185395},"geometry":{"x":174768.08000000194,"y":2546417.2000000011}},{"attributes":{"ID":185397,"DIS_CODE":0,"TOWNNAME":"永康區","LI":"北灣里","LIN":"36鄰","STREET":"大灣路","SECT":" ","MAREA":" ","LANE":"４０巷","ALLEY":"２０８弄","HOUSE_NO":"９號","E_COORD97":174773.92000000001,"N_COORD97":2546423.54,"ADDRESS":"大灣路４０巷２０８弄９號","OBJECTID":185396},"geometry":{"x":174773.91999999993,"y":2546423.5400000028}},{"attributes":{"ID":185398,"DIS_CODE":0,"TOWNNAME":"新市區","LI":"豐華里","LIN":"11鄰","STREET":" ","SECT":" ","MAREA":"豐華","LANE":" ","ALLEY":" ","HOUSE_NO":"４７之７７號","E_COORD97":174185.45999999999,"N_COORD97":2554431.29,"ADDRESS":"豐華４７之７７號","OBJECTID":185397},"geometry":{"x":174185.45999999996,"y":2554431.290000001}},{"attributes":{"ID":185399,"DIS_CODE":0,"TOWNNAME":"新市區","LI":"豐華里","LIN":"11鄰","STREET":" ","SECT":" ","MAREA":"豐華","LANE":" ","ALLEY":" ","HOUSE_NO":"４７之７１號","E_COORD97":174176.09,"N_COORD97":2554407.0499999998,"ADDRESS":"豐華４７之７１號","OBJECTID":185398},"geometry":{"x":174176.08999999892,"y":2554407.0500000026}},{"attributes":{"ID":185400,"DIS_CODE":0,"TOWNNAME":"新市區","LI":"豐華里","LIN":"11鄰","STREET":" ","SECT":" ","MAREA":"豐華","LANE":" ","ALLEY":" ","HOUSE_NO":"４７之６３號","E_COORD97":174163.04000000001,"N_COORD97":2554462.2999999998,"ADDRESS":"豐華４７之６３號","OBJECTID":185399},"geometry":{"x":174163.04000000004,"y":2554462.3000000026}},{"attributes":{"ID":185401,"DIS_CODE":0,"TOWNNAME":"官田區","LI":"湖山里","LIN":"11鄰","STREET":" ","SECT":" ","MAREA":"烏山頭","LANE":" ","ALLEY":" ","HOUSE_NO":"６２號","E_COORD97":183502.32000000001,"N_COORD97":2567758.6200000001,"ADDRESS":"烏山頭６２號","OBJECTID":185400},"geometry":{"x":183502.32000000123,"y":2567758.6200000029}}]}