{"displayFieldName":"TOWNNAME","fieldAliases":{"ID":"ID","DIS_CODE":"DIS_CODE","TOWNNAME":"TOWNNAME","LI":"LI","LIN":"LIN","STREET":"STREET","SECT":"SECT","MAREA":"MAREA","LANE":"LANE","ALLEY":"ALLEY","HOUSE_NO":"HOUSE_NO","E_COORD97":"E_COORD97","N_COORD97":"N_COORD97","ADDRESS":"ADDRESS","OBJECTID":"OBJECTID"},"geometryType":"esriGeometryPoint","spatialReference":{"wkid":102443,"latestWkid":3826},"fields":[{"name":"ID","type":"esriFieldTypeDouble","alias":"ID"},{"name":"DIS_CODE","type":"esriFieldTypeInteger","alias":"DIS_CODE"},{"name":"TOWNNAME","type":"esriFieldTypeString","alias":"TOWNNAME","length":8},{"name":"LI","type":"esriFieldTypeString","alias":"LI","length":8},{"name":"LIN","type":"esriFieldTypeString","alias":"LIN","length":12},{"name":"STREET","type":"esriFieldTypeString","alias":"STREET","length":20},{"name":"SECT","type":"esriFieldTypeString","alias":"SECT","length":8},{"name":"MAREA","type":"esriFieldTypeString","alias":"MAREA","length":12},{"name":"LANE","type":"esriFieldTypeString","alias":"LANE","length":10},{"name":"ALLEY","type":"esriFieldTypeString","alias":"ALLEY","length":10},{"name":"HOUSE_NO","type":"esriFieldTypeString","alias":"HOUSE_NO","length":20},{"name":"E_COORD97","type":"esriFieldTypeDouble","alias":"E_COORD97"},{"name":"N_COORD97","type":"esriFieldTypeDouble","alias":"N_COORD97"},{"name":"ADDRESS","type":"esriFieldTypeString","alias":"ADDRESS","length":50},{"name":"OBJECTID","type":"esriFieldTypeOID","alias":"OBJECTID"}],"features":[{"attributes":{"ID":367011,"DIS_CODE":0,"TOWNNAME":"安南區","LI":"淵東里","LIN":"13鄰","STREET":"本原街","SECT":"三段","MAREA":" ","LANE":" ","ALLEY":" ","HOUSE_NO":"１２４號","E_COORD97":165607.54999999999,"N_COORD97":2550383.4900000002,"ADDRESS":"本原街三段１２４號","OBJECTID":367001},"geometry":{"x":165607.55000000075,"y":2550383.4900000002}},{"attributes":{"ID":367012,"DIS_CODE":0,"TOWNNAME":"學甲區","LI":"三慶里","LIN":"5鄰","STREET":" ","SECT":" ","MAREA":"頂洲","LANE":" ","ALLEY":" ","HOUSE_NO":"５９號","E_COORD97":168625.31,"N_COORD97":2576385.1099999999,"ADDRESS":"頂洲５９號","OBJECTID":367002},"geometry":{"x":168625.30999999959,"y":2576385.1100000013}},{"attributes":{"ID":367013,"DIS_CODE":0,"TOWNNAME":"安南區","LI":"安富里","LIN":"13鄰","STREET":"安富街","SECT":" ","MAREA":" ","LANE":"２５１巷","ALLEY":" ","HOUSE_NO":"４４號","E_COORD97":167542.20000000001,"N_COORD97":2547329.1099999999,"ADDRESS":"安富街２５１巷４４號","OBJECTID":367003},"geometry":{"x":167542.20000000019,"y":2547329.1100000013}},{"attributes":{"ID":367014,"DIS_CODE":0,"TOWNNAME":"安南區","LI":"安西里","LIN":"13鄰","STREET":"安和路","SECT":"一段","MAREA":" ","LANE":"１５９巷","ALLEY":" ","HOUSE_NO":"４５號","E_COORD97":169242.12,"N_COORD97":2547793.9100000001,"ADDRESS":"安和路一段１５９巷４５號","OBJECTID":367004},"geometry":{"x":169242.12000000104,"y":2547793.9100000001}},{"attributes":{"ID":367015,"DIS_CODE":0,"TOWNNAME":"安南區","LI":"安西里","LIN":"13鄰","STREET":"安和路","SECT":"一段","MAREA":" ","LANE":"１５９巷","ALLEY":" ","HOUSE_NO":"４７號","E_COORD97":169238.98999999999,"N_COORD97":2547797.04,"ADDRESS":"安和路一段１５９巷４７號","OBJECTID":367005},"geometry":{"x":169238.99000000022,"y":2547797.040000001}},{"attributes":{"ID":367016,"DIS_CODE":0,"TOWNNAME":"安南區","LI":"安西里","LIN":"13鄰","STREET":"安和路","SECT":"一段","MAREA":" ","LANE":"１５９巷","ALLEY":" ","HOUSE_NO":"５１號","E_COORD97":169231.94,"N_COORD97":2547803.6800000002,"ADDRESS":"安和路一段１５９巷５１號","OBJECTID":367006},"geometry":{"x":169231.94000000134,"y":2547803.6800000016}},{"attributes":{"ID":367017,"DIS_CODE":0,"TOWNNAME":"安南區","LI":"安西里","LIN":"13鄰","STREET":"安和路","SECT":"一段","MAREA":" ","LANE":"１５９巷","ALLEY":" ","HOUSE_NO":"５５號","E_COORD97":169226.57999999999,"N_COORD97":2547811.1099999999,"ADDRESS":"安和路一段１５９巷５５號","OBJECTID":367007},"geometry":{"x":169226.58000000194,"y":2547811.1100000013}},{"attributes":{"ID":367018,"DIS_CODE":0,"TOWNNAME":"東區","LI":"東安里","LIN":"12鄰","STREET":"長榮路","SECT":"二段","MAREA":" ","LANE":"３２巷","ALLEY":" ","HOUSE_NO":"１４２號四樓之１５","E_COORD97":170189.10999999999,"N_COORD97":2543127.1099999999,"ADDRESS":"長榮路二段３２巷１４２號四樓之１５","OBJECTID":367008},"geometry":{"x":170189.11000000034,"y":2543127.1099999994}},{"attributes":{"ID":367019,"DIS_CODE":0,"TOWNNAME":"東區","LI":"東安里","LIN":"12鄰","STREET":"長榮路","SECT":"二段","MAREA":" ","LANE":"３２巷","ALLEY":" ","HOUSE_NO":"１４２號五樓","E_COORD97":170189.10999999999,"N_COORD97":2543127.1099999999,"ADDRESS":"長榮路二段３２巷１４２號五樓","OBJECTID":367009},"geometry":{"x":170189.11000000034,"y":2543127.1099999994}},{"attributes":{"ID":367020,"DIS_CODE":0,"TOWNNAME":"東區","LI":"東安里","LIN":"12鄰","STREET":"長榮路","SECT":"二段","MAREA":" ","LANE":"３２巷","ALLEY":" ","HOUSE_NO":"１４２號五樓之２","E_COORD97":170189.10999999999,"N_COORD97":2543127.1099999999,"ADDRESS":"長榮路二段３２巷１４２號五樓之２","OBJECTID":367010},"geometry":{"x":170189.11000000034,"y":2543127.1099999994}},{"attributes":{"ID":367021,"DIS_CODE":0,"TOWNNAME":"東區","LI":"東安里","LIN":"12鄰","STREET":"長榮路","SECT":"二段","MAREA":" ","LANE":"３２巷","ALLEY":" ","HOUSE_NO":"１４２號五樓之３","E_COORD97":170189.10999999999,"N_COORD97":2543127.1099999999,"ADDRESS":"長榮路二段３２巷１４２號五樓之３","OBJECTID":367011},"geometry":{"x":170189.11000000034,"y":2543127.1099999994}},{"attributes":{"ID":367022,"DIS_CODE":0,"TOWNNAME":"東區","LI":"東安里","LIN":"12鄰","STREET":"長榮路","SECT":"二段","MAREA":" ","LANE":"３２巷","ALLEY":" ","HOUSE_NO":"１４２號五樓之４","E_COORD97":170189.10999999999,"N_COORD97":2543127.1099999999,"ADDRESS":"長榮路二段３２巷１４２號五樓之４","OBJECTID":367012},"geometry":{"x":170189.11000000034,"y":2543127.1099999994}},{"attributes":{"ID":367023,"DIS_CODE":0,"TOWNNAME":"東區","LI":"東安里","LIN":"12鄰","STREET":"長榮路","SECT":"二段","MAREA":" ","LANE":"３２巷","ALLEY":" ","HOUSE_NO":"１４２號五樓之６","E_COORD97":170189.10999999999,"N_COORD97":2543127.1099999999,"ADDRESS":"長榮路二段３２巷１４２號五樓之６","OBJECTID":367013},"geometry":{"x":170189.11000000034,"y":2543127.1099999994}},{"attributes":{"ID":367024,"DIS_CODE":0,"TOWNNAME":"東區","LI":"東安里","LIN":"12鄰","STREET":"長榮路","SECT":"二段","MAREA":" ","LANE":"３２巷","ALLEY":" ","HOUSE_NO":"１４２號五樓之７","E_COORD97":170189.10999999999,"N_COORD97":2543127.1099999999,"ADDRESS":"長榮路二段３２巷１４２號五樓之７","OBJECTID":367014},"geometry":{"x":170189.11000000034,"y":2543127.1099999994}},{"attributes":{"ID":367025,"DIS_CODE":0,"TOWNNAME":"東區","LI":"東安里","LIN":"12鄰","STREET":"長榮路","SECT":"二段","MAREA":" ","LANE":"３２巷","ALLEY":" ","HOUSE_NO":"１４２號五樓之８","E_COORD97":170189.10999999999,"N_COORD97":2543127.1099999999,"ADDRESS":"長榮路二段３２巷１４２號五樓之８","OBJECTID":367015},"geometry":{"x":170189.11000000034,"y":2543127.1099999994}},{"attributes":{"ID":367026,"DIS_CODE":0,"TOWNNAME":"東區","LI":"東安里","LIN":"12鄰","STREET":"長榮路","SECT":"二段","MAREA":" ","LANE":"３２巷","ALLEY":" ","HOUSE_NO":"１４４號二樓之３","E_COORD97":170205.64000000001,"N_COORD97":2543123.4300000002,"ADDRESS":"長榮路二段３２巷１４４號二樓之３","OBJECTID":367016},"geometry":{"x":170205.64000000153,"y":2543123.4300000016}},{"attributes":{"ID":367027,"DIS_CODE":0,"TOWNNAME":"東區","LI":"東安里","LIN":"12鄰","STREET":"長榮路","SECT":"二段","MAREA":" ","LANE":"３２巷","ALLEY":" ","HOUSE_NO":"１４２號五樓之９","E_COORD97":170189.10999999999,"N_COORD97":2543127.1099999999,"ADDRESS":"長榮路二段３２巷１４２號五樓之９","OBJECTID":367017},"geometry":{"x":170189.11000000034,"y":2543127.1099999994}},{"attributes":{"ID":367028,"DIS_CODE":0,"TOWNNAME":"東區","LI":"東安里","LIN":"12鄰","STREET":"長榮路","SECT":"二段","MAREA":" ","LANE":"３２巷","ALLEY":" ","HOUSE_NO":"１４２號五樓之１０","E_COORD97":170189.10999999999,"N_COORD97":2543127.1099999999,"ADDRESS":"長榮路二段３２巷１４２號五樓之１０","OBJECTID":367018},"geometry":{"x":170189.11000000034,"y":2543127.1099999994}},{"attributes":{"ID":367029,"DIS_CODE":0,"TOWNNAME":"東區","LI":"東安里","LIN":"12鄰","STREET":"長榮路","SECT":"二段","MAREA":" ","LANE":"３２巷","ALLEY":" ","HOUSE_NO":"１４２號五樓之１１","E_COORD97":170189.10999999999,"N_COORD97":2543127.1099999999,"ADDRESS":"長榮路二段３２巷１４２號五樓之１１","OBJECTID":367019},"geometry":{"x":170189.11000000034,"y":2543127.1099999994}},{"attributes":{"ID":367030,"DIS_CODE":0,"TOWNNAME":"東區","LI":"東安里","LIN":"12鄰","STREET":"長榮路","SECT":"二段","MAREA":" ","LANE":"３２巷","ALLEY":" ","HOUSE_NO":"１４２號五樓之１２","E_COORD97":170189.10999999999,"N_COORD97":2543127.1099999999,"ADDRESS":"長榮路二段３２巷１４２號五樓之１２","OBJECTID":367020},"geometry":{"x":170189.11000000034,"y":2543127.1099999994}},{"attributes":{"ID":367031,"DIS_CODE":0,"TOWNNAME":"東區","LI":"東安里","LIN":"12鄰","STREET":"長榮路","SECT":"二段","MAREA":" ","LANE":"３２巷","ALLEY":" ","HOUSE_NO":"１４２號五樓之１３","E_COORD97":170189.10999999999,"N_COORD97":2543127.1099999999,"ADDRESS":"長榮路二段３２巷１４２號五樓之１３","OBJECTID":367021},"geometry":{"x":170189.11000000034,"y":2543127.1099999994}},{"attributes":{"ID":367032,"DIS_CODE":0,"TOWNNAME":"安南區","LI":"淵東里","LIN":"13鄰","STREET":"本原街","SECT":"三段","MAREA":" ","LANE":" ","ALLEY":" ","HOUSE_NO":"１２６號","E_COORD97":165602.70999999999,"N_COORD97":2550382.1699999999,"ADDRESS":"本原街三段１２６號","OBJECTID":367022},"geometry":{"x":165602.70999999996,"y":2550382.1699999999}},{"attributes":{"ID":367033,"DIS_CODE":0,"TOWNNAME":"安南區","LI":"淵東里","LIN":"13鄰","STREET":"本原街","SECT":"三段","MAREA":" ","LANE":" ","ALLEY":" ","HOUSE_NO":"１２８號","E_COORD97":165598.53,"N_COORD97":2550380.2000000002,"ADDRESS":"本原街三段１２８號","OBJECTID":367023},"geometry":{"x":165598.53000000119,"y":2550380.2000000011}},{"attributes":{"ID":367034,"DIS_CODE":0,"TOWNNAME":"安南區","LI":"淵東里","LIN":"13鄰","STREET":"本原街","SECT":"三段","MAREA":" ","LANE":" ","ALLEY":" ","HOUSE_NO":"１２號","E_COORD97":165743.51999999999,"N_COORD97":2550462.52,"ADDRESS":"本原街三段１２號","OBJECTID":367024},"geometry":{"x":165743.52000000048,"y":2550462.5200000014}},{"attributes":{"ID":367035,"DIS_CODE":0,"TOWNNAME":"安南區","LI":"淵東里","LIN":"13鄰","STREET":"本原街","SECT":"三段","MAREA":" ","LANE":" ","ALLEY":" ","HOUSE_NO":"３２號","E_COORD97":165699.42999999999,"N_COORD97":2550430.6000000001,"ADDRESS":"本原街三段３２號","OBJECTID":367025},"geometry":{"x":165699.43000000156,"y":2550430.5999999996}},{"attributes":{"ID":367036,"DIS_CODE":0,"TOWNNAME":"安南區","LI":"淵東里","LIN":"13鄰","STREET":"本原街","SECT":"三段","MAREA":" ","LANE":" ","ALLEY":" ","HOUSE_NO":"３４號","E_COORD97":165695.04999999999,"N_COORD97":2550428.2999999998,"ADDRESS":"本原街三段３４號","OBJECTID":367026},"geometry":{"x":165695.04999999981,"y":2550428.3000000026}},{"attributes":{"ID":367037,"DIS_CODE":0,"TOWNNAME":"安南區","LI":"淵東里","LIN":"13鄰","STREET":"本原街","SECT":"三段","MAREA":" ","LANE":" ","ALLEY":" ","HOUSE_NO":"３６號","E_COORD97":165691.13,"N_COORD97":2550427.3799999999,"ADDRESS":"本原街三段３６號","OBJECTID":367027},"geometry":{"x":165691.12999999989,"y":2550427.379999999}},{"attributes":{"ID":367038,"DIS_CODE":0,"TOWNNAME":"安南區","LI":"安西里","LIN":"13鄰","STREET":"安和路","SECT":"一段","MAREA":" ","LANE":"１５９巷","ALLEY":" ","HOUSE_NO":"５７號","E_COORD97":169223.45000000001,"N_COORD97":2547814.23,"ADDRESS":"安和路一段１５９巷５７號","OBJECTID":367028},"geometry":{"x":169223.45000000019,"y":2547814.2300000023}},{"attributes":{"ID":367039,"DIS_CODE":0,"TOWNNAME":"安南區","LI":"安西里","LIN":"13鄰","STREET":"安和路","SECT":"一段","MAREA":" ","LANE":"１５９巷","ALLEY":" ","HOUSE_NO":"５９號","E_COORD97":169219.54000000001,"N_COORD97":2547816.9700000002,"ADDRESS":"安和路一段１５９巷５９號","OBJECTID":367029},"geometry":{"x":169219.54000000004,"y":2547816.9700000025}},{"attributes":{"ID":367040,"DIS_CODE":0,"TOWNNAME":"安南區","LI":"安西里","LIN":"13鄰","STREET":"安和路","SECT":"一段","MAREA":" ","LANE":"１５９巷","ALLEY":" ","HOUSE_NO":"６１號","E_COORD97":169216.41,"N_COORD97":2547820.4900000002,"ADDRESS":"安和路一段１５９巷６１號","OBJECTID":367030},"geometry":{"x":169216.41000000108,"y":2547820.4900000002}},{"attributes":{"ID":367041,"DIS_CODE":0,"TOWNNAME":"安南區","LI":"淵西里","LIN":"13鄰","STREET":"安中路","SECT":"四段","MAREA":" ","LANE":"２１０巷","ALLEY":" ","HOUSE_NO":"６７號之２","E_COORD97":164891.01999999999,"N_COORD97":2550222.71,"ADDRESS":"安中路四段２１０巷６７號之２","OBJECTID":367031},"geometry":{"x":164891.01999999955,"y":2550222.7100000028}},{"attributes":{"ID":367042,"DIS_CODE":0,"TOWNNAME":"安南區","LI":"梅花里","LIN":"13鄰","STREET":"安中路","SECT":"一段","MAREA":" ","LANE":"７０３巷","ALLEY":" ","HOUSE_NO":"１４號","E_COORD97":167536.85000000001,"N_COORD97":2549239.77,"ADDRESS":"安中路一段７０３巷１４號","OBJECTID":367032},"geometry":{"x":167536.84999999963,"y":2549239.7700000033}},{"attributes":{"ID":367043,"DIS_CODE":0,"TOWNNAME":"安南區","LI":"鳳凰里","LIN":"13鄰","STREET":"安中路","SECT":"一段","MAREA":" ","LANE":"７０２巷","ALLEY":" ","HOUSE_NO":"１７號之３","E_COORD97":167687.22,"N_COORD97":2549392.3900000001,"ADDRESS":"安中路一段７０２巷１７號之３","OBJECTID":367033},"geometry":{"x":167687.21999999974,"y":2549392.3899999987}},{"attributes":{"ID":367044,"DIS_CODE":0,"TOWNNAME":"安南區","LI":"鳳凰里","LIN":"13鄰","STREET":"安中路","SECT":"一段","MAREA":" ","LANE":"７０２巷","ALLEY":" ","HOUSE_NO":"２１號之２","E_COORD97":167699.47,"N_COORD97":2549367.5800000001,"ADDRESS":"安中路一段７０２巷２１號之２","OBJECTID":367034},"geometry":{"x":167699.46999999881,"y":2549367.5800000019}},{"attributes":{"ID":367045,"DIS_CODE":0,"TOWNNAME":"安南區","LI":"頂安里","LIN":"13鄰","STREET":"安中路","SECT":"一段","MAREA":" ","LANE":"３５４巷","ALLEY":" ","HOUSE_NO":"１５號","E_COORD97":168468.17999999999,"N_COORD97":2548781.5899999999,"ADDRESS":"安中路一段３５４巷１５號","OBJECTID":367035},"geometry":{"x":168468.18000000063,"y":2548781.5900000017}},{"attributes":{"ID":367046,"DIS_CODE":0,"TOWNNAME":"安南區","LI":"頂安里","LIN":"13鄰","STREET":"安中路","SECT":"一段","MAREA":" ","LANE":"３５４巷","ALLEY":" ","HOUSE_NO":"２２號之１","E_COORD97":168460.79000000001,"N_COORD97":2548781.5899999999,"ADDRESS":"安中路一段３５４巷２２號之１","OBJECTID":367036},"geometry":{"x":168460.79000000097,"y":2548781.5900000017}},{"attributes":{"ID":367047,"DIS_CODE":0,"TOWNNAME":"安南區","LI":"頂安里","LIN":"13鄰","STREET":"安中路","SECT":"一段","MAREA":" ","LANE":"３５４巷","ALLEY":" ","HOUSE_NO":"２６號","E_COORD97":168452.23000000001,"N_COORD97":2548785.2799999998,"ADDRESS":"安中路一段３５４巷２６號","OBJECTID":367037},"geometry":{"x":168452.23000000045,"y":2548785.2800000031}},{"attributes":{"ID":367048,"DIS_CODE":0,"TOWNNAME":"安南區","LI":"頂安里","LIN":"13鄰","STREET":"安中路","SECT":"一段","MAREA":" ","LANE":"３５４巷","ALLEY":" ","HOUSE_NO":"２８號","E_COORD97":168448.54000000001,"N_COORD97":2548786.6299999999,"ADDRESS":"安中路一段３５４巷２８號","OBJECTID":367038},"geometry":{"x":168448.54000000004,"y":2548786.6300000008}},{"attributes":{"ID":367049,"DIS_CODE":0,"TOWNNAME":"東區","LI":"東安里","LIN":"12鄰","STREET":"長榮路","SECT":"二段","MAREA":" ","LANE":"３２巷","ALLEY":" ","HOUSE_NO":"１４２號五樓之１４","E_COORD97":170189.10999999999,"N_COORD97":2543127.1099999999,"ADDRESS":"長榮路二段３２巷１４２號五樓之１４","OBJECTID":367039},"geometry":{"x":170189.11000000034,"y":2543127.1099999994}},{"attributes":{"ID":367050,"DIS_CODE":0,"TOWNNAME":"安南區","LI":"淵東里","LIN":"13鄰","STREET":"本原街","SECT":"三段","MAREA":" ","LANE":" ","ALLEY":" ","HOUSE_NO":"３８號","E_COORD97":165686.04999999999,"N_COORD97":2550426,"ADDRESS":"本原街三段３８號","OBJECTID":367040},"geometry":{"x":165686.05000000075,"y":2550426.0000000019}},{"attributes":{"ID":367051,"DIS_CODE":0,"TOWNNAME":"安南區","LI":"淵東里","LIN":"13鄰","STREET":"本原街","SECT":"三段","MAREA":" ","LANE":" ","ALLEY":" ","HOUSE_NO":"４０號","E_COORD97":165682.59,"N_COORD97":2550424.6200000001,"ADDRESS":"本原街三段４０號","OBJECTID":367041},"geometry":{"x":165682.58999999985,"y":2550424.620000001}},{"attributes":{"ID":367052,"DIS_CODE":0,"TOWNNAME":"安南區","LI":"淵東里","LIN":"13鄰","STREET":"本原街","SECT":"三段","MAREA":" ","LANE":" ","ALLEY":" ","HOUSE_NO":"４２號","E_COORD97":165678.44,"N_COORD97":2550422.54,"ADDRESS":"本原街三段４２號","OBJECTID":367042},"geometry":{"x":165678.44000000134,"y":2550422.5399999991}},{"attributes":{"ID":367053,"DIS_CODE":0,"TOWNNAME":"安南區","LI":"淵東里","LIN":"13鄰","STREET":"本原街","SECT":"三段","MAREA":" ","LANE":" ","ALLEY":" ","HOUSE_NO":"４４號","E_COORD97":165674.51999999999,"N_COORD97":2550420.7000000002,"ADDRESS":"本原街三段４４號","OBJECTID":367043},"geometry":{"x":165674.51999999955,"y":2550420.7000000011}},{"attributes":{"ID":367054,"DIS_CODE":0,"TOWNNAME":"安南區","LI":"淵東里","LIN":"13鄰","STREET":"本原街","SECT":"三段","MAREA":" ","LANE":" ","ALLEY":" ","HOUSE_NO":"４６號","E_COORD97":165670.60000000001,"N_COORD97":2550419.0899999999,"ADDRESS":"本原街三段４６號","OBJECTID":367044},"geometry":{"x":165670.59999999963,"y":2550419.0900000017}},{"attributes":{"ID":367055,"DIS_CODE":0,"TOWNNAME":"安南區","LI":"淵東里","LIN":"13鄰","STREET":"本原街","SECT":"三段","MAREA":" ","LANE":" ","ALLEY":" ","HOUSE_NO":"４８號","E_COORD97":165666.67999999999,"N_COORD97":2550417.71,"ADDRESS":"本原街三段４８號","OBJECTID":367045},"geometry":{"x":165666.6799999997,"y":2550417.7100000009}},{"attributes":{"ID":367056,"DIS_CODE":0,"TOWNNAME":"安南區","LI":"淵東里","LIN":"13鄰","STREET":"本原街","SECT":"三段","MAREA":" ","LANE":" ","ALLEY":" ","HOUSE_NO":"５０號","E_COORD97":165662.29999999999,"N_COORD97":2550416.5600000001,"ADDRESS":"本原街三段５０號","OBJECTID":367046},"geometry":{"x":165662.30000000075,"y":2550416.5600000024}},{"attributes":{"ID":367057,"DIS_CODE":0,"TOWNNAME":"安南區","LI":"淵東里","LIN":"13鄰","STREET":"本原街","SECT":"三段","MAREA":" ","LANE":" ","ALLEY":" ","HOUSE_NO":"５２號","E_COORD97":165658.14999999999,"N_COORD97":2550414.71,"ADDRESS":"本原街三段５２號","OBJECTID":367047},"geometry":{"x":165658.15000000224,"y":2550414.7100000046}},{"attributes":{"ID":367058,"DIS_CODE":0,"TOWNNAME":"安南區","LI":"淵東里","LIN":"13鄰","STREET":"本原街","SECT":"三段","MAREA":" ","LANE":" ","ALLEY":" ","HOUSE_NO":"５４號","E_COORD97":165653.53,"N_COORD97":2550412.8700000001,"ADDRESS":"本原街三段５４號","OBJECTID":367048},"geometry":{"x":165653.52999999933,"y":2550412.870000001}},{"attributes":{"ID":367059,"DIS_CODE":0,"TOWNNAME":"安南區","LI":"淵東里","LIN":"13鄰","STREET":"本原街","SECT":"三段","MAREA":" ","LANE":" ","ALLEY":" ","HOUSE_NO":"５８號","E_COORD97":165639.92999999999,"N_COORD97":2550406.4199999999,"ADDRESS":"本原街三段５８號","OBJECTID":367049},"geometry":{"x":165639.9299999997,"y":2550406.4200000018}},{"attributes":{"ID":367060,"DIS_CODE":0,"TOWNNAME":"安南區","LI":"淵東里","LIN":"13鄰","STREET":"本原街","SECT":"三段","MAREA":" ","LANE":" ","ALLEY":" ","HOUSE_NO":"６０號","E_COORD97":165636.23999999999,"N_COORD97":2550405.5,"ADDRESS":"本原街三段６０號","OBJECTID":367050},"geometry":{"x":165636.24000000022,"y":2550405.5000000019}},{"attributes":{"ID":367061,"DIS_CODE":0,"TOWNNAME":"安南區","LI":"淵東里","LIN":"13鄰","STREET":"本原街","SECT":"三段","MAREA":" ","LANE":" ","ALLEY":" ","HOUSE_NO":"６４號","E_COORD97":165623.37,"N_COORD97":2550389.8500000001,"ADDRESS":"本原街三段６４號","OBJECTID":367051},"geometry":{"x":165623.37000000011,"y":2550389.8500000015}},{"attributes":{"ID":367062,"DIS_CODE":0,"TOWNNAME":"安南區","LI":"淵東里","LIN":"13鄰","STREET":"本原街","SECT":"三段","MAREA":" ","LANE":" ","ALLEY":" ","HOUSE_NO":"１３２號","E_COORD97":165587.32999999999,"N_COORD97":2550380.2000000002,"ADDRESS":"本原街三段１３２號","OBJECTID":367052},"geometry":{"x":165587.33000000101,"y":2550380.2000000011}},{"attributes":{"ID":367063,"DIS_CODE":0,"TOWNNAME":"安南區","LI":"城東里","LIN":"13鄰","STREET":"安中路","SECT":"六段","MAREA":" ","LANE":" ","ALLEY":" ","HOUSE_NO":"８５０號","E_COORD97":160636.35000000001,"N_COORD97":2551850.3599999999,"ADDRESS":"安中路六段８５０號","OBJECTID":367053},"geometry":{"x":160636.3499999987,"y":2551850.3600000013}},{"attributes":{"ID":367064,"DIS_CODE":0,"TOWNNAME":"東區","LI":"東安里","LIN":"12鄰","STREET":"長榮路","SECT":"二段","MAREA":" ","LANE":"３２巷","ALLEY":" ","HOUSE_NO":"１４２號五樓之１５","E_COORD97":170189.10999999999,"N_COORD97":2543127.1099999999,"ADDRESS":"長榮路二段３２巷１４２號五樓之１５","OBJECTID":367054},"geometry":{"x":170189.11000000034,"y":2543127.1099999994}},{"attributes":{"ID":367065,"DIS_CODE":0,"TOWNNAME":"東區","LI":"東安里","LIN":"12鄰","STREET":"長榮路","SECT":"二段","MAREA":" ","LANE":"３２巷","ALLEY":" ","HOUSE_NO":"１４４號二樓","E_COORD97":170205.64000000001,"N_COORD97":2543123.4300000002,"ADDRESS":"長榮路二段３２巷１４４號二樓","OBJECTID":367055},"geometry":{"x":170205.64000000153,"y":2543123.4300000016}},{"attributes":{"ID":367066,"DIS_CODE":0,"TOWNNAME":"東區","LI":"東安里","LIN":"12鄰","STREET":"長榮路","SECT":"二段","MAREA":" ","LANE":"３２巷","ALLEY":" ","HOUSE_NO":"１４４號二樓之１","E_COORD97":170205.64000000001,"N_COORD97":2543123.4300000002,"ADDRESS":"長榮路二段３２巷１４４號二樓之１","OBJECTID":367056},"geometry":{"x":170205.64000000153,"y":2543123.4300000016}},{"attributes":{"ID":367067,"DIS_CODE":0,"TOWNNAME":"東區","LI":"東安里","LIN":"12鄰","STREET":"長榮路","SECT":"二段","MAREA":" ","LANE":"３２巷","ALLEY":" ","HOUSE_NO":"１４４號二樓之２","E_COORD97":170205.64000000001,"N_COORD97":2543123.4300000002,"ADDRESS":"長榮路二段３２巷１４４號二樓之２","OBJECTID":367057},"geometry":{"x":170205.64000000153,"y":2543123.4300000016}},{"attributes":{"ID":367068,"DIS_CODE":0,"TOWNNAME":"永康區","LI":"埔園里","LIN":"32鄰","STREET":"龍埔街","SECT":" ","MAREA":" ","LANE":"２８３巷","ALLEY":" ","HOUSE_NO":"４０號","E_COORD97":174024.60000000001,"N_COORD97":2548230.7400000002,"ADDRESS":"龍埔街２８３巷４０號","OBJECTID":367058},"geometry":{"x":174024.59999999963,"y":2548230.7400000021}},{"attributes":{"ID":367069,"DIS_CODE":0,"TOWNNAME":"永康區","LI":"烏竹里","LIN":"12鄰","STREET":"竹園二街","SECT":" ","MAREA":" ","LANE":"１６０巷","ALLEY":" ","HOUSE_NO":"２８號","E_COORD97":174577.39999999999,"N_COORD97":2549228.6499999999,"ADDRESS":"竹園二街１６０巷２８號","OBJECTID":367059},"geometry":{"x":174577.40000000037,"y":2549228.6500000022}},{"attributes":{"ID":367070,"DIS_CODE":0,"TOWNNAME":"東區","LI":"東安里","LIN":"12鄰","STREET":"長榮路","SECT":"二段","MAREA":" ","LANE":"３２巷","ALLEY":" ","HOUSE_NO":"１４４號二樓之４","E_COORD97":170205.64000000001,"N_COORD97":2543123.4300000002,"ADDRESS":"長榮路二段３２巷１４４號二樓之４","OBJECTID":367060},"geometry":{"x":170205.64000000153,"y":2543123.4300000016}},{"attributes":{"ID":367071,"DIS_CODE":0,"TOWNNAME":"東區","LI":"東安里","LIN":"12鄰","STREET":"長榮路","SECT":"二段","MAREA":" ","LANE":"３２巷","ALLEY":" ","HOUSE_NO":"１４４號二樓之７","E_COORD97":170205.64000000001,"N_COORD97":2543123.4300000002,"ADDRESS":"長榮路二段３２巷１４４號二樓之７","OBJECTID":367061},"geometry":{"x":170205.64000000153,"y":2543123.4300000016}},{"attributes":{"ID":367072,"DIS_CODE":0,"TOWNNAME":"東區","LI":"東安里","LIN":"12鄰","STREET":"長榮路","SECT":"二段","MAREA":" ","LANE":"３２巷","ALLEY":" ","HOUSE_NO":"１４４號二樓之８","E_COORD97":170205.64000000001,"N_COORD97":2543123.4300000002,"ADDRESS":"長榮路二段３２巷１４４號二樓之８","OBJECTID":367062},"geometry":{"x":170205.64000000153,"y":2543123.4300000016}},{"attributes":{"ID":367073,"DIS_CODE":0,"TOWNNAME":"東區","LI":"東安里","LIN":"12鄰","STREET":"長榮路","SECT":"二段","MAREA":" ","LANE":"３２巷","ALLEY":" ","HOUSE_NO":"１４４號二樓之９","E_COORD97":170205.64000000001,"N_COORD97":2543123.4300000002,"ADDRESS":"長榮路二段３２巷１４４號二樓之９","OBJECTID":367063},"geometry":{"x":170205.64000000153,"y":2543123.4300000016}},{"attributes":{"ID":367074,"DIS_CODE":0,"TOWNNAME":"東區","LI":"東安里","LIN":"12鄰","STREET":"長榮路","SECT":"二段","MAREA":" ","LANE":"３２巷","ALLEY":" ","HOUSE_NO":"１４４號四樓之７","E_COORD97":170205.64000000001,"N_COORD97":2543123.4300000002,"ADDRESS":"長榮路二段３２巷１４４號四樓之７","OBJECTID":367064},"geometry":{"x":170205.64000000153,"y":2543123.4300000016}},{"attributes":{"ID":367075,"DIS_CODE":0,"TOWNNAME":"東區","LI":"東安里","LIN":"12鄰","STREET":"長榮路","SECT":"二段","MAREA":" ","LANE":"３２巷","ALLEY":" ","HOUSE_NO":"１４４號四樓之８","E_COORD97":170205.64000000001,"N_COORD97":2543123.4300000002,"ADDRESS":"長榮路二段３２巷１４４號四樓之８","OBJECTID":367065},"geometry":{"x":170205.64000000153,"y":2543123.4300000016}},{"attributes":{"ID":367076,"DIS_CODE":0,"TOWNNAME":"東區","LI":"東安里","LIN":"12鄰","STREET":"長榮路","SECT":"二段","MAREA":" ","LANE":"３２巷","ALLEY":" ","HOUSE_NO":"１４４號四樓之９","E_COORD97":170205.64000000001,"N_COORD97":2543123.4300000002,"ADDRESS":"長榮路二段３２巷１４４號四樓之９","OBJECTID":367066},"geometry":{"x":170205.64000000153,"y":2543123.4300000016}},{"attributes":{"ID":367077,"DIS_CODE":0,"TOWNNAME":"東區","LI":"東安里","LIN":"12鄰","STREET":"長榮路","SECT":"二段","MAREA":" ","LANE":"３２巷","ALLEY":" ","HOUSE_NO":"１４４號五樓","E_COORD97":170205.64000000001,"N_COORD97":2543123.4300000002,"ADDRESS":"長榮路二段３２巷１４４號五樓","OBJECTID":367067},"geometry":{"x":170205.64000000153,"y":2543123.4300000016}},{"attributes":{"ID":367078,"DIS_CODE":0,"TOWNNAME":"東區","LI":"東安里","LIN":"12鄰","STREET":"長榮路","SECT":"二段","MAREA":" ","LANE":"３２巷","ALLEY":" ","HOUSE_NO":"１４４號五樓之１","E_COORD97":170205.64000000001,"N_COORD97":2543123.4300000002,"ADDRESS":"長榮路二段３２巷１４４號五樓之１","OBJECTID":367068},"geometry":{"x":170205.64000000153,"y":2543123.4300000016}},{"attributes":{"ID":367079,"DIS_CODE":0,"TOWNNAME":"東區","LI":"東安里","LIN":"12鄰","STREET":"長榮路","SECT":"二段","MAREA":" ","LANE":"３２巷","ALLEY":" ","HOUSE_NO":"１４４號五樓之３","E_COORD97":170205.64000000001,"N_COORD97":2543123.4300000002,"ADDRESS":"長榮路二段３２巷１４４號五樓之３","OBJECTID":367069},"geometry":{"x":170205.64000000153,"y":2543123.4300000016}},{"attributes":{"ID":367080,"DIS_CODE":0,"TOWNNAME":"東區","LI":"東安里","LIN":"12鄰","STREET":"長榮路","SECT":"二段","MAREA":" ","LANE":"３２巷","ALLEY":" ","HOUSE_NO":"１４４號五樓之４","E_COORD97":170205.64000000001,"N_COORD97":2543123.4300000002,"ADDRESS":"長榮路二段３２巷１４４號五樓之４","OBJECTID":367070},"geometry":{"x":170205.64000000153,"y":2543123.4300000016}},{"attributes":{"ID":367081,"DIS_CODE":0,"TOWNNAME":"東區","LI":"東安里","LIN":"12鄰","STREET":"長榮路","SECT":"二段","MAREA":" ","LANE":"３２巷","ALLEY":" ","HOUSE_NO":"１４４號五樓之６","E_COORD97":170205.64000000001,"N_COORD97":2543123.4300000002,"ADDRESS":"長榮路二段３２巷１４４號五樓之６","OBJECTID":367071},"geometry":{"x":170205.64000000153,"y":2543123.4300000016}},{"attributes":{"ID":367082,"DIS_CODE":0,"TOWNNAME":"東區","LI":"東安里","LIN":"12鄰","STREET":"長榮路","SECT":"二段","MAREA":" ","LANE":"３２巷","ALLEY":" ","HOUSE_NO":"１４４號五樓之７","E_COORD97":170205.64000000001,"N_COORD97":2543123.4300000002,"ADDRESS":"長榮路二段３２巷１４４號五樓之７","OBJECTID":367072},"geometry":{"x":170205.64000000153,"y":2543123.4300000016}},{"attributes":{"ID":367083,"DIS_CODE":0,"TOWNNAME":"東區","LI":"東安里","LIN":"12鄰","STREET":"長榮路","SECT":"二段","MAREA":" ","LANE":"３２巷","ALLEY":" ","HOUSE_NO":"１４４號五樓之８","E_COORD97":170205.64000000001,"N_COORD97":2543123.4300000002,"ADDRESS":"長榮路二段３２巷１４４號五樓之８","OBJECTID":367073},"geometry":{"x":170205.64000000153,"y":2543123.4300000016}},{"attributes":{"ID":367084,"DIS_CODE":0,"TOWNNAME":"東區","LI":"東安里","LIN":"12鄰","STREET":"長榮路","SECT":"二段","MAREA":" ","LANE":"３２巷","ALLEY":" ","HOUSE_NO":"１４４號五樓之９","E_COORD97":170205.64000000001,"N_COORD97":2543123.4300000002,"ADDRESS":"長榮路二段３２巷１４４號五樓之９","OBJECTID":367074},"geometry":{"x":170205.64000000153,"y":2543123.4300000016}},{"attributes":{"ID":367085,"DIS_CODE":0,"TOWNNAME":"東區","LI":"東安里","LIN":"12鄰","STREET":"長榮路","SECT":"二段","MAREA":" ","LANE":"３２巷","ALLEY":" ","HOUSE_NO":"１４４號五樓之２","E_COORD97":170205.64000000001,"N_COORD97":2543123.4300000002,"ADDRESS":"長榮路二段３２巷１４４號五樓之２","OBJECTID":367075},"geometry":{"x":170205.64000000153,"y":2543123.4300000016}},{"attributes":{"ID":367086,"DIS_CODE":0,"TOWNNAME":"東區","LI":"東安里","LIN":"12鄰","STREET":"長榮路","SECT":"二段","MAREA":" ","LANE":"３２巷","ALLEY":" ","HOUSE_NO":"１４２號四樓","E_COORD97":170189.10999999999,"N_COORD97":2543127.1099999999,"ADDRESS":"長榮路二段３２巷１４２號四樓","OBJECTID":367076},"geometry":{"x":170189.11000000034,"y":2543127.1099999994}},{"attributes":{"ID":367087,"DIS_CODE":0,"TOWNNAME":"永康區","LI":"埔園里","LIN":"1鄰","STREET":"埔聖街","SECT":" ","MAREA":" ","LANE":"１３巷","ALLEY":" ","HOUSE_NO":"３號","E_COORD97":173869.62,"N_COORD97":2547598.7400000002,"ADDRESS":"埔聖街１３巷３號","OBJECTID":367077},"geometry":{"x":173869.62000000104,"y":2547598.7400000002}},{"attributes":{"ID":367088,"DIS_CODE":0,"TOWNNAME":"東區","LI":"崇學里","LIN":"12鄰","STREET":"崇明十街","SECT":" ","MAREA":" ","LANE":"７０巷","ALLEY":" ","HOUSE_NO":"２６號三樓","E_COORD97":170250.29999999999,"N_COORD97":2541824.5600000001,"ADDRESS":"崇明十街７０巷２６號三樓","OBJECTID":367078},"geometry":{"x":170250.29999999888,"y":2541824.5600000024}},{"attributes":{"ID":367089,"DIS_CODE":0,"TOWNNAME":"東區","LI":"崇學里","LIN":"12鄰","STREET":"崇明十街","SECT":" ","MAREA":" ","LANE":"７０巷","ALLEY":" ","HOUSE_NO":"２６號五樓","E_COORD97":170250.29999999999,"N_COORD97":2541824.5600000001,"ADDRESS":"崇明十街７０巷２６號五樓","OBJECTID":367079},"geometry":{"x":170250.29999999888,"y":2541824.5600000024}},{"attributes":{"ID":367090,"DIS_CODE":0,"TOWNNAME":"東區","LI":"崇學里","LIN":"12鄰","STREET":"崇明十街","SECT":" ","MAREA":" ","LANE":"７０巷","ALLEY":" ","HOUSE_NO":"２８號二樓","E_COORD97":170254.34,"N_COORD97":2541820.02,"ADDRESS":"崇明十街７０巷２８號二樓","OBJECTID":367080},"geometry":{"x":170254.34000000078,"y":2541820.0200000033}},{"attributes":{"ID":367091,"DIS_CODE":0,"TOWNNAME":"東區","LI":"崇學里","LIN":"12鄰","STREET":"崇明十街","SECT":" ","MAREA":" ","LANE":"７０巷","ALLEY":" ","HOUSE_NO":"２８號三樓","E_COORD97":170254.34,"N_COORD97":2541820.02,"ADDRESS":"崇明十街７０巷２８號三樓","OBJECTID":367081},"geometry":{"x":170254.34000000078,"y":2541820.0200000033}},{"attributes":{"ID":367092,"DIS_CODE":0,"TOWNNAME":"後壁區","LI":"福安里","LIN":"13鄰","STREET":" ","SECT":" ","MAREA":"下寮","LANE":" ","ALLEY":" ","HOUSE_NO":"１３６之１號","E_COORD97":184056.53,"N_COORD97":2580875.1200000001,"ADDRESS":"下寮１３６之１號","OBJECTID":367082},"geometry":{"x":184056.52999999933,"y":2580875.1200000029}},{"attributes":{"ID":367093,"DIS_CODE":0,"TOWNNAME":"後壁區","LI":"福安里","LIN":"13鄰","STREET":" ","SECT":" ","MAREA":"下寮","LANE":" ","ALLEY":" ","HOUSE_NO":"１３６號之１","E_COORD97":184056.53,"N_COORD97":2580875.1200000001,"ADDRESS":"下寮１３６號之１","OBJECTID":367083},"geometry":{"x":184056.52999999933,"y":2580875.1200000029}},{"attributes":{"ID":367094,"DIS_CODE":0,"TOWNNAME":"後壁區","LI":"福安里","LIN":"13鄰","STREET":" ","SECT":" ","MAREA":"下寮","LANE":" ","ALLEY":" ","HOUSE_NO":"１３６號","E_COORD97":184065.47,"N_COORD97":2580879.6299999999,"ADDRESS":"下寮１３６號","OBJECTID":367084},"geometry":{"x":184065.47000000067,"y":2580879.6300000008}},{"attributes":{"ID":367095,"DIS_CODE":0,"TOWNNAME":"後壁區","LI":"福安里","LIN":"13鄰","STREET":" ","SECT":" ","MAREA":"下寮","LANE":" ","ALLEY":" ","HOUSE_NO":"１３７號之１","E_COORD97":184072.78,"N_COORD97":2580874.9700000002,"ADDRESS":"下寮１３７號之１","OBJECTID":367085},"geometry":{"x":184072.78000000026,"y":2580874.9699999988}},{"attributes":{"ID":367096,"DIS_CODE":0,"TOWNNAME":"後壁區","LI":"福安里","LIN":"13鄰","STREET":" ","SECT":" ","MAREA":"下寮","LANE":" ","ALLEY":" ","HOUSE_NO":"１３８號","E_COORD97":184081.95999999999,"N_COORD97":2580890.48,"ADDRESS":"下寮１３８號","OBJECTID":367086},"geometry":{"x":184081.95999999996,"y":2580890.4800000004}},{"attributes":{"ID":367097,"DIS_CODE":0,"TOWNNAME":"東區","LI":"崇學里","LIN":"12鄰","STREET":"崇明十街","SECT":" ","MAREA":" ","LANE":"７０巷","ALLEY":" ","HOUSE_NO":"２８號五樓","E_COORD97":170254.34,"N_COORD97":2541820.02,"ADDRESS":"崇明十街７０巷２８號五樓","OBJECTID":367087},"geometry":{"x":170254.34000000078,"y":2541820.0200000033}},{"attributes":{"ID":367098,"DIS_CODE":0,"TOWNNAME":"東區","LI":"崇學里","LIN":"12鄰","STREET":"崇明十街","SECT":" ","MAREA":" ","LANE":"７０巷","ALLEY":" ","HOUSE_NO":"２６號四樓","E_COORD97":170250.29999999999,"N_COORD97":2541824.5600000001,"ADDRESS":"崇明十街７０巷２６號四樓","OBJECTID":367088},"geometry":{"x":170250.29999999888,"y":2541824.5600000024}},{"attributes":{"ID":367099,"DIS_CODE":0,"TOWNNAME":"後壁區","LI":"長安里","LIN":"13鄰","STREET":" ","SECT":" ","MAREA":"中寮","LANE":" ","ALLEY":" ","HOUSE_NO":"１７８號之１","E_COORD97":184146.69,"N_COORD97":2581536.21,"ADDRESS":"中寮１７８號之１","OBJECTID":367089},"geometry":{"x":184146.69000000041,"y":2581536.2100000028}},{"attributes":{"ID":367100,"DIS_CODE":0,"TOWNNAME":"後壁區","LI":"長安里","LIN":"13鄰","STREET":" ","SECT":" ","MAREA":"中寮","LANE":" ","ALLEY":" ","HOUSE_NO":"２０４號","E_COORD97":184127.29999999999,"N_COORD97":2581430.5499999998,"ADDRESS":"中寮２０４號","OBJECTID":367090},"geometry":{"x":184127.30000000168,"y":2581430.5499999989}},{"attributes":{"ID":367101,"DIS_CODE":0,"TOWNNAME":"後壁區","LI":"嘉苳里","LIN":"13鄰","STREET":" ","SECT":" ","MAREA":"本協","LANE":" ","ALLEY":" ","HOUSE_NO":"３２號","E_COORD97":187029.48000000001,"N_COORD97":2583515.9300000002,"ADDRESS":"本協３２號","OBJECTID":367091},"geometry":{"x":187029.48000000138,"y":2583515.9300000016}},{"attributes":{"ID":367102,"DIS_CODE":0,"TOWNNAME":"仁德區","LI":"太子里","LIN":"13鄰","STREET":"長興二街","SECT":" ","MAREA":" ","LANE":"２６巷","ALLEY":" ","HOUSE_NO":"５號","E_COORD97":174389.12,"N_COORD97":2543730.0099999998,"ADDRESS":"長興二街２６巷５號","OBJECTID":367092},"geometry":{"x":174389.12000000011,"y":2543730.0100000016}},{"attributes":{"ID":367103,"DIS_CODE":0,"TOWNNAME":"仁德區","LI":"仁義里","LIN":"13鄰","STREET":"中山路","SECT":" ","MAREA":" ","LANE":"１２４巷","ALLEY":" ","HOUSE_NO":"１１號","E_COORD97":174623.23999999999,"N_COORD97":2541213.7400000002,"ADDRESS":"中山路１２４巷１１號","OBJECTID":367093},"geometry":{"x":174623.24000000209,"y":2541213.7400000021}},{"attributes":{"ID":367104,"DIS_CODE":0,"TOWNNAME":"後壁區","LI":"嘉苳里","LIN":"13鄰","STREET":" ","SECT":" ","MAREA":"本協","LANE":" ","ALLEY":" ","HOUSE_NO":"３３號之１","E_COORD97":186985.81,"N_COORD97":2583546.5899999999,"ADDRESS":"本協３３號之１","OBJECTID":367094},"geometry":{"x":186985.81000000052,"y":2583546.5900000017}},{"attributes":{"ID":367105,"DIS_CODE":0,"TOWNNAME":"後壁區","LI":"嘉苳里","LIN":"13鄰","STREET":" ","SECT":" ","MAREA":"本協","LANE":" ","ALLEY":" ","HOUSE_NO":"３３號","E_COORD97":186994.23000000001,"N_COORD97":2583522.1299999999,"ADDRESS":"本協３３號","OBJECTID":367095},"geometry":{"x":186994.23000000045,"y":2583522.129999999}},{"attributes":{"ID":367106,"DIS_CODE":0,"TOWNNAME":"後壁區","LI":"嘉苳里","LIN":"13鄰","STREET":" ","SECT":" ","MAREA":"本協","LANE":" ","ALLEY":" ","HOUSE_NO":"３４號","E_COORD97":186999.37,"N_COORD97":2583505.7200000002,"ADDRESS":"本協３４號","OBJECTID":367096},"geometry":{"x":186999.37000000104,"y":2583505.7200000025}},{"attributes":{"ID":367107,"DIS_CODE":0,"TOWNNAME":"安南區","LI":"城東里","LIN":"13鄰","STREET":"安中路","SECT":"六段","MAREA":" ","LANE":" ","ALLEY":" ","HOUSE_NO":"８５６號","E_COORD97":160628.44,"N_COORD97":2551873.5699999998,"ADDRESS":"安中路六段８５６號","OBJECTID":367097},"geometry":{"x":160628.44000000134,"y":2551873.5700000022}},{"attributes":{"ID":367108,"DIS_CODE":0,"TOWNNAME":"後壁區","LI":"新嘉里","LIN":"13鄰","STREET":" ","SECT":" ","MAREA":"白沙屯","LANE":" ","ALLEY":" ","HOUSE_NO":"１３０號之１０","E_COORD97":179863.76000000001,"N_COORD97":2585232.7799999998,"ADDRESS":"白沙屯１３０號之１０","OBJECTID":367098},"geometry":{"x":179863.75999999978,"y":2585232.7800000012}},{"attributes":{"ID":367109,"DIS_CODE":0,"TOWNNAME":"後壁區","LI":"新嘉里","LIN":"13鄰","STREET":" ","SECT":" ","MAREA":"白沙屯","LANE":" ","ALLEY":" ","HOUSE_NO":"１３０號之１１","E_COORD97":179819.76000000001,"N_COORD97":2585177.6000000001,"ADDRESS":"白沙屯１３０號之１１","OBJECTID":367099},"geometry":{"x":179819.75999999978,"y":2585177.5999999996}},{"attributes":{"ID":367110,"DIS_CODE":0,"TOWNNAME":"後壁區","LI":"新嘉里","LIN":"13鄰","STREET":" ","SECT":" ","MAREA":"白沙屯","LANE":" ","ALLEY":" ","HOUSE_NO":"１３０號之１３","E_COORD97":179802.26999999999,"N_COORD97":2585196.4199999999,"ADDRESS":"白沙屯１３０號之１３","OBJECTID":367100},"geometry":{"x":179802.26999999955,"y":2585196.4199999999}},{"attributes":{"ID":367111,"DIS_CODE":0,"TOWNNAME":"後壁區","LI":"新嘉里","LIN":"13鄰","STREET":" ","SECT":" ","MAREA":"白沙屯","LANE":" ","ALLEY":" ","HOUSE_NO":"１３０號之１６","E_COORD97":179967.37,"N_COORD97":2585190.46,"ADDRESS":"白沙屯１３０號之１６","OBJECTID":367101},"geometry":{"x":179967.37000000104,"y":2585190.4600000009}},{"attributes":{"ID":367112,"DIS_CODE":0,"TOWNNAME":"安南區","LI":"新順里","LIN":"13鄰","STREET":"開安路","SECT":" ","MAREA":" ","LANE":" ","ALLEY":" ","HOUSE_NO":"４３號","E_COORD97":170317.85000000001,"N_COORD97":2549622.8500000001,"ADDRESS":"開安路４３號","OBJECTID":367102},"geometry":{"x":170317.85000000056,"y":2549622.8500000015}},{"attributes":{"ID":367113,"DIS_CODE":0,"TOWNNAME":"善化區","LI":"光文里","LIN":"12鄰","STREET":"民權路","SECT":" ","MAREA":" ","LANE":"４１巷","ALLEY":" ","HOUSE_NO":"１號","E_COORD97":178698.69,"N_COORD97":2559056.7000000002,"ADDRESS":"民權路４１巷１號","OBJECTID":367103},"geometry":{"x":178698.69000000041,"y":2559056.7000000011}},{"attributes":{"ID":367114,"DIS_CODE":0,"TOWNNAME":"東區","LI":"崇學里","LIN":"12鄰","STREET":"崇明十街","SECT":" ","MAREA":" ","LANE":"７０巷","ALLEY":" ","HOUSE_NO":"２８號四樓","E_COORD97":170254.34,"N_COORD97":2541820.02,"ADDRESS":"崇明十街７０巷２８號四樓","OBJECTID":367104},"geometry":{"x":170254.34000000078,"y":2541820.0200000033}},{"attributes":{"ID":367115,"DIS_CODE":0,"TOWNNAME":"東區","LI":"崇學里","LIN":"12鄰","STREET":"崇明十街","SECT":" ","MAREA":" ","LANE":"７０巷","ALLEY":" ","HOUSE_NO":"２８號六樓","E_COORD97":170254.34,"N_COORD97":2541820.02,"ADDRESS":"崇明十街７０巷２８號六樓","OBJECTID":367105},"geometry":{"x":170254.34000000078,"y":2541820.0200000033}},{"attributes":{"ID":367116,"DIS_CODE":0,"TOWNNAME":"東區","LI":"崇學里","LIN":"12鄰","STREET":"崇明十街","SECT":" ","MAREA":" ","LANE":"７０巷","ALLEY":" ","HOUSE_NO":"２６號六樓","E_COORD97":170250.29999999999,"N_COORD97":2541824.5600000001,"ADDRESS":"崇明十街７０巷２６號六樓","OBJECTID":367106},"geometry":{"x":170250.29999999888,"y":2541824.5600000024}},{"attributes":{"ID":367117,"DIS_CODE":0,"TOWNNAME":"永康區","LI":"東灣里","LIN":"30鄰","STREET":"大灣一街","SECT":" ","MAREA":" ","LANE":"３６０巷","ALLEY":" ","HOUSE_NO":"９號","E_COORD97":175184.82000000001,"N_COORD97":2544783.1099999999,"ADDRESS":"大灣一街３６０巷９號","OBJECTID":367107},"geometry":{"x":175184.8200000003,"y":2544783.1100000013}},{"attributes":{"ID":367118,"DIS_CODE":0,"TOWNNAME":"永康區","LI":"東灣里","LIN":"20鄰","STREET":"大灣三街","SECT":" ","MAREA":" ","LANE":"７３巷","ALLEY":" ","HOUSE_NO":"２３號","E_COORD97":174857.26999999999,"N_COORD97":2544887.9500000002,"ADDRESS":"大灣三街７３巷２３號","OBJECTID":367108},"geometry":{"x":174857.26999999955,"y":2544887.9499999993}},{"attributes":{"ID":367119,"DIS_CODE":0,"TOWNNAME":"南區","LI":"省躬里","LIN":"12鄰","STREET":"省躬二街","SECT":" ","MAREA":" ","LANE":"１６巷","ALLEY":" ","HOUSE_NO":"７號","E_COORD97":165708.79999999999,"N_COORD97":2537026.5899999999,"ADDRESS":"省躬二街１６巷７號","OBJECTID":367109},"geometry":{"x":165708.79999999981,"y":2537026.5900000017}},{"attributes":{"ID":367120,"DIS_CODE":0,"TOWNNAME":"永康區","LI":"東灣里","LIN":"20鄰","STREET":"大灣三街","SECT":" ","MAREA":" ","LANE":"７３巷","ALLEY":" ","HOUSE_NO":"３７號","E_COORD97":174847.95000000001,"N_COORD97":2544874.7599999998,"ADDRESS":"大灣三街７３巷３７號","OBJECTID":367110},"geometry":{"x":174847.95000000112,"y":2544874.7600000016}},{"attributes":{"ID":367121,"DIS_CODE":0,"TOWNNAME":"永康區","LI":"東灣里","LIN":"2鄰","STREET":"大灣路","SECT":" ","MAREA":" ","LANE":"４３６巷","ALLEY":" ","HOUSE_NO":"４３號","E_COORD97":174636.01000000001,"N_COORD97":2544962.75,"ADDRESS":"大灣路４３６巷４３號","OBJECTID":367111},"geometry":{"x":174636.01000000164,"y":2544962.7500000019}},{"attributes":{"ID":367122,"DIS_CODE":0,"TOWNNAME":"中西區","LI":"郡王里","LIN":"12鄰","STREET":"建業街","SECT":" ","MAREA":" ","LANE":"３７巷","ALLEY":" ","HOUSE_NO":"２號一樓之１","E_COORD97":168515.38,"N_COORD97":2543115.9399999999,"ADDRESS":"建業街３７巷２號一樓之１","OBJECTID":367112},"geometry":{"x":168515.37999999989,"y":2543115.9400000013}},{"attributes":{"ID":367123,"DIS_CODE":0,"TOWNNAME":"中西區","LI":"郡王里","LIN":"12鄰","STREET":"建業街","SECT":" ","MAREA":" ","LANE":"３７巷","ALLEY":" ","HOUSE_NO":"２號一樓之２","E_COORD97":168500.20999999999,"N_COORD97":2543116.04,"ADDRESS":"建業街３７巷２號一樓之２","OBJECTID":367113},"geometry":{"x":168500.21000000089,"y":2543116.040000001}},{"attributes":{"ID":367124,"DIS_CODE":0,"TOWNNAME":"中西區","LI":"郡王里","LIN":"12鄰","STREET":"建業街","SECT":" ","MAREA":" ","LANE":"３７巷","ALLEY":" ","HOUSE_NO":"２號一樓之３","E_COORD97":168489.07999999999,"N_COORD97":2543118.1200000001,"ADDRESS":"建業街３７巷２號一樓之３","OBJECTID":367114},"geometry":{"x":168489.07999999914,"y":2543118.120000001}},{"attributes":{"ID":367125,"DIS_CODE":0,"TOWNNAME":"中西區","LI":"郡王里","LIN":"12鄰","STREET":"建業街","SECT":" ","MAREA":" ","LANE":"３７巷","ALLEY":" ","HOUSE_NO":"２號一樓之４","E_COORD97":168476.48999999999,"N_COORD97":2543117.23,"ADDRESS":"建業街３７巷２號一樓之４","OBJECTID":367115},"geometry":{"x":168476.49000000209,"y":2543117.2300000004}},{"attributes":{"ID":367126,"DIS_CODE":0,"TOWNNAME":"中西區","LI":"郡王里","LIN":"12鄰","STREET":"建業街","SECT":" ","MAREA":" ","LANE":"３７巷","ALLEY":" ","HOUSE_NO":"２號一樓之５","E_COORD97":168474.39999999999,"N_COORD97":2543100,"ADDRESS":"建業街３７巷２號一樓之５","OBJECTID":367116},"geometry":{"x":168474.4000000013,"y":2543100.0000000019}},{"attributes":{"ID":367127,"DIS_CODE":0,"TOWNNAME":"中西區","LI":"郡王里","LIN":"12鄰","STREET":"建業街","SECT":" ","MAREA":" ","LANE":"３７巷","ALLEY":" ","HOUSE_NO":"２號一樓之６","E_COORD97":168488.67999999999,"N_COORD97":2543100.4900000002,"ADDRESS":"建業街３７巷２號一樓之６","OBJECTID":367117},"geometry":{"x":168488.68000000063,"y":2543100.4900000021}},{"attributes":{"ID":367128,"DIS_CODE":0,"TOWNNAME":"中西區","LI":"郡王里","LIN":"12鄰","STREET":"建業街","SECT":" ","MAREA":" ","LANE":"３７巷","ALLEY":" ","HOUSE_NO":"２號一樓之７","E_COORD97":168500.29000000001,"N_COORD97":2543100.79,"ADDRESS":"建業街３７巷２號一樓之７","OBJECTID":367118},"geometry":{"x":168500.29000000097,"y":2543100.790000001}},{"attributes":{"ID":367129,"DIS_CODE":0,"TOWNNAME":"中西區","LI":"郡王里","LIN":"12鄰","STREET":"建業街","SECT":" ","MAREA":" ","LANE":"３７巷","ALLEY":" ","HOUSE_NO":"２號二樓之１","E_COORD97":168515.38,"N_COORD97":2543115.9399999999,"ADDRESS":"建業街３７巷２號二樓之１","OBJECTID":367119},"geometry":{"x":168515.37999999989,"y":2543115.9400000013}},{"attributes":{"ID":367130,"DIS_CODE":0,"TOWNNAME":"中西區","LI":"郡王里","LIN":"12鄰","STREET":"建業街","SECT":" ","MAREA":" ","LANE":"３７巷","ALLEY":" ","HOUSE_NO":"２號二樓之２","E_COORD97":168500.20999999999,"N_COORD97":2543116.04,"ADDRESS":"建業街３７巷２號二樓之２","OBJECTID":367120},"geometry":{"x":168500.21000000089,"y":2543116.040000001}},{"attributes":{"ID":367131,"DIS_CODE":0,"TOWNNAME":"中西區","LI":"郡王里","LIN":"12鄰","STREET":"建業街","SECT":" ","MAREA":" ","LANE":"３７巷","ALLEY":" ","HOUSE_NO":"２號二樓之３","E_COORD97":168489.07999999999,"N_COORD97":2543118.1200000001,"ADDRESS":"建業街３７巷２號二樓之３","OBJECTID":367121},"geometry":{"x":168489.07999999914,"y":2543118.120000001}},{"attributes":{"ID":367132,"DIS_CODE":0,"TOWNNAME":"中西區","LI":"郡王里","LIN":"12鄰","STREET":"建業街","SECT":" ","MAREA":" ","LANE":"３７巷","ALLEY":" ","HOUSE_NO":"２號二樓之４","E_COORD97":168476.48999999999,"N_COORD97":2543117.23,"ADDRESS":"建業街３７巷２號二樓之４","OBJECTID":367122},"geometry":{"x":168476.49000000209,"y":2543117.2300000004}},{"attributes":{"ID":367133,"DIS_CODE":0,"TOWNNAME":"安南區","LI":"理想里","LIN":"13鄰","STREET":"大安街","SECT":" ","MAREA":" ","LANE":"５９巷","ALLEY":" ","HOUSE_NO":"９號","E_COORD97":167148.39999999999,"N_COORD97":2548021.4500000002,"ADDRESS":"大安街５９巷９號","OBJECTID":367123},"geometry":{"x":167148.4000000013,"y":2548021.4500000011}},{"attributes":{"ID":367134,"DIS_CODE":0,"TOWNNAME":"安南區","LI":"理想里","LIN":"13鄰","STREET":"大安街","SECT":" ","MAREA":" ","LANE":"５９巷","ALLEY":" ","HOUSE_NO":"７號","E_COORD97":167152.72,"N_COORD97":2548019.0099999998,"ADDRESS":"大安街５９巷７號","OBJECTID":367124},"geometry":{"x":167152.72000000067,"y":2548019.0100000016}},{"attributes":{"ID":367135,"DIS_CODE":0,"TOWNNAME":"安南區","LI":"海東里","LIN":"13鄰","STREET":"海環街","SECT":" ","MAREA":" ","LANE":"６巷","ALLEY":" ","HOUSE_NO":"６號","E_COORD97":166711.22,"N_COORD97":2548931.7400000002,"ADDRESS":"海環街６巷６號","OBJECTID":367125},"geometry":{"x":166711.21999999881,"y":2548931.7400000002}},{"attributes":{"ID":367136,"DIS_CODE":0,"TOWNNAME":"安南區","LI":"海東里","LIN":"13鄰","STREET":"海佃路","SECT":"二段","MAREA":" ","LANE":"４１７巷","ALLEY":" ","HOUSE_NO":"５號","E_COORD97":166696.94,"N_COORD97":2548971.29,"ADDRESS":"海佃路二段４１７巷５號","OBJECTID":367126},"geometry":{"x":166696.94000000227,"y":2548971.2900000028}},{"attributes":{"ID":367137,"DIS_CODE":0,"TOWNNAME":"永康區","LI":"中興里","LIN":"13鄰","STREET":"中興街","SECT":" ","MAREA":" ","LANE":"５５巷","ALLEY":" ","HOUSE_NO":"８號","E_COORD97":172043.39999999999,"N_COORD97":2545247.0899999999,"ADDRESS":"中興街５５巷８號","OBJECTID":367127},"geometry":{"x":172043.40000000037,"y":2545247.0899999999}},{"attributes":{"ID":367138,"DIS_CODE":0,"TOWNNAME":"永康區","LI":"中興里","LIN":"13鄰","STREET":"中興街","SECT":" ","MAREA":" ","LANE":"５５巷","ALLEY":" ","HOUSE_NO":"１０號","E_COORD97":172037.81,"N_COORD97":2545245.8399999999,"ADDRESS":"中興街５５巷１０號","OBJECTID":367128},"geometry":{"x":172037.80999999959,"y":2545245.8400000036}},{"attributes":{"ID":367139,"DIS_CODE":0,"TOWNNAME":"永康區","LI":"中興里","LIN":"13鄰","STREET":"中興街","SECT":" ","MAREA":" ","LANE":"５５巷","ALLEY":" ","HOUSE_NO":"３號","E_COORD97":172058.26999999999,"N_COORD97":2545240.3900000001,"ADDRESS":"中興街５５巷３號","OBJECTID":367129},"geometry":{"x":172058.26999999955,"y":2545240.3900000025}},{"attributes":{"ID":367140,"DIS_CODE":0,"TOWNNAME":"永康區","LI":"中興里","LIN":"13鄰","STREET":"中興街","SECT":" ","MAREA":" ","LANE":"５５巷","ALLEY":" ","HOUSE_NO":"１２號","E_COORD97":172030.95000000001,"N_COORD97":2545244.5899999999,"ADDRESS":"中興街５５巷１２號","OBJECTID":367130},"geometry":{"x":172030.95000000019,"y":2545244.5900000017}},{"attributes":{"ID":367141,"DIS_CODE":0,"TOWNNAME":"中西區","LI":"郡王里","LIN":"12鄰","STREET":"建業街","SECT":" ","MAREA":" ","LANE":"３７巷","ALLEY":" ","HOUSE_NO":"２號二樓之５","E_COORD97":168474.39999999999,"N_COORD97":2543100,"ADDRESS":"建業街３７巷２號二樓之５","OBJECTID":367131},"geometry":{"x":168474.4000000013,"y":2543100.0000000019}},{"attributes":{"ID":367142,"DIS_CODE":0,"TOWNNAME":"善化區","LI":"西關里","LIN":"13鄰","STREET":"中山路","SECT":" ","MAREA":" ","LANE":" ","ALLEY":" ","HOUSE_NO":"５９９號之１２","E_COORD97":176717.73000000001,"N_COORD97":2559184.27,"ADDRESS":"中山路５９９號之１２","OBJECTID":367132},"geometry":{"x":176717.73000000138,"y":2559184.2700000014}},{"attributes":{"ID":367143,"DIS_CODE":0,"TOWNNAME":"善化區","LI":"坐駕里","LIN":"13鄰","STREET":"自強路","SECT":" ","MAREA":" ","LANE":" ","ALLEY":" ","HOUSE_NO":"５５號","E_COORD97":178195.04000000001,"N_COORD97":2558732.5,"ADDRESS":"自強路５５號","OBJECTID":367133},"geometry":{"x":178195.04000000097,"y":2558732.5000000019}},{"attributes":{"ID":367144,"DIS_CODE":0,"TOWNNAME":"善化區","LI":"文正里","LIN":"13鄰","STREET":"中山路","SECT":" ","MAREA":" ","LANE":" ","ALLEY":" ","HOUSE_NO":"５６２號之１","E_COORD97":176823.64999999999,"N_COORD97":2559249.27,"ADDRESS":"中山路５６２號之１","OBJECTID":367134},"geometry":{"x":176823.65000000037,"y":2559249.2700000014}},{"attributes":{"ID":367145,"DIS_CODE":0,"TOWNNAME":"善化區","LI":"文正里","LIN":"13鄰","STREET":"陽明路","SECT":" ","MAREA":" ","LANE":" ","ALLEY":" ","HOUSE_NO":"７０號","E_COORD97":176519.70000000001,"N_COORD97":2559341.7599999998,"ADDRESS":"陽明路７０號","OBJECTID":367135},"geometry":{"x":176519.70000000019,"y":2559341.7599999998}},{"attributes":{"ID":367146,"DIS_CODE":0,"TOWNNAME":"善化區","LI":"光文里","LIN":"13鄰","STREET":"仁愛路","SECT":" ","MAREA":" ","LANE":" ","ALLEY":" ","HOUSE_NO":"７７號","E_COORD97":178488.92000000001,"N_COORD97":2559080.5099999998,"ADDRESS":"仁愛路７７號","OBJECTID":367136},"geometry":{"x":178488.92000000086,"y":2559080.5100000035}},{"attributes":{"ID":367147,"DIS_CODE":0,"TOWNNAME":"善化區","LI":"文正里","LIN":"13鄰","STREET":"陽明路","SECT":" ","MAREA":" ","LANE":" ","ALLEY":" ","HOUSE_NO":"９６號之５","E_COORD97":176488.31,"N_COORD97":2559403.52,"ADDRESS":"陽明路９６號之５","OBJECTID":367137},"geometry":{"x":176488.31000000145,"y":2559403.5200000014}},{"attributes":{"ID":367148,"DIS_CODE":0,"TOWNNAME":"善化區","LI":"文正里","LIN":"13鄰","STREET":"陽明路","SECT":" ","MAREA":" ","LANE":" ","ALLEY":" ","HOUSE_NO":"９６號之７","E_COORD97":176498.01999999999,"N_COORD97":2559405.52,"ADDRESS":"陽明路９６號之７","OBJECTID":367138},"geometry":{"x":176498.01999999955,"y":2559405.5199999977}},{"attributes":{"ID":367149,"DIS_CODE":0,"TOWNNAME":"善化區","LI":"文正里","LIN":"13鄰","STREET":"陽明路","SECT":" ","MAREA":" ","LANE":" ","ALLEY":" ","HOUSE_NO":"８６號","E_COORD97":176484.60000000001,"N_COORD97":2559374.5099999998,"ADDRESS":"陽明路８６號","OBJECTID":367139},"geometry":{"x":176484.59999999963,"y":2559374.5099999998}},{"attributes":{"ID":367150,"DIS_CODE":0,"TOWNNAME":"永康區","LI":"王行里","LIN":"13鄰","STREET":"王行路","SECT":" ","MAREA":" ","LANE":"１０１８巷","ALLEY":" ","HOUSE_NO":"４５號","E_COORD97":175799.67999999999,"N_COORD97":2550200.4900000002,"ADDRESS":"王行路１０１８巷４５號","OBJECTID":367140},"geometry":{"x":175799.68000000063,"y":2550200.4900000002}},{"attributes":{"ID":367151,"DIS_CODE":0,"TOWNNAME":"永康區","LI":"中興里","LIN":"13鄰","STREET":"中興街","SECT":" ","MAREA":" ","LANE":"５５巷","ALLEY":" ","HOUSE_NO":"１１號","E_COORD97":172031.79999999999,"N_COORD97":2545234.3900000001,"ADDRESS":"中興街５５巷１１號","OBJECTID":367141},"geometry":{"x":172031.79999999981,"y":2545234.3900000006}},{"attributes":{"ID":367152,"DIS_CODE":0,"TOWNNAME":"永康區","LI":"王行里","LIN":"13鄰","STREET":"王行路","SECT":" ","MAREA":" ","LANE":"１０１８巷","ALLEY":" ","HOUSE_NO":"３３號","E_COORD97":175824.57000000001,"N_COORD97":2550202.9900000002,"ADDRESS":"王行路１０１８巷３３號","OBJECTID":367142},"geometry":{"x":175824.57000000216,"y":2550202.9900000021}},{"attributes":{"ID":367153,"DIS_CODE":0,"TOWNNAME":"永康區","LI":"大灣里","LIN":"13鄰","STREET":"大灣六街","SECT":" ","MAREA":" ","LANE":"５９巷","ALLEY":" ","HOUSE_NO":"５號","E_COORD97":175055.51000000001,"N_COORD97":2545241.6600000001,"ADDRESS":"大灣六街５９巷５號","OBJECTID":367143},"geometry":{"x":175055.51000000071,"y":2545241.660000002}},{"attributes":{"ID":367154,"DIS_CODE":0,"TOWNNAME":"永康區","LI":"大橋里","LIN":"13鄰","STREET":"大橋一街","SECT":" ","MAREA":" ","LANE":"２４７巷","ALLEY":" ","HOUSE_NO":"７７號","E_COORD97":171160.72,"N_COORD97":2546857.0899999999,"ADDRESS":"大橋一街２４７巷７７號","OBJECTID":367144},"geometry":{"x":171160.71999999974,"y":2546857.0899999999}},{"attributes":{"ID":367155,"DIS_CODE":0,"TOWNNAME":"永康區","LI":"大橋里","LIN":"13鄰","STREET":"大橋二街","SECT":" ","MAREA":" ","LANE":"２３９巷","ALLEY":" ","HOUSE_NO":"１０號","E_COORD97":171119.92000000001,"N_COORD97":2546849.6600000001,"ADDRESS":"大橋二街２３９巷１０號","OBJECTID":367145},"geometry":{"x":171119.92000000086,"y":2546849.6600000001}},{"attributes":{"ID":367156,"DIS_CODE":0,"TOWNNAME":"中西區","LI":"郡王里","LIN":"12鄰","STREET":"建業街","SECT":" ","MAREA":" ","LANE":"３７巷","ALLEY":" ","HOUSE_NO":"２號二樓之６","E_COORD97":168488.67999999999,"N_COORD97":2543100.4900000002,"ADDRESS":"建業街３７巷２號二樓之６","OBJECTID":367146},"geometry":{"x":168488.68000000063,"y":2543100.4900000021}},{"attributes":{"ID":367157,"DIS_CODE":0,"TOWNNAME":"中西區","LI":"郡王里","LIN":"12鄰","STREET":"建業街","SECT":" ","MAREA":" ","LANE":"３７巷","ALLEY":" ","HOUSE_NO":"２號二樓之７","E_COORD97":168500.29000000001,"N_COORD97":2543100.79,"ADDRESS":"建業街３７巷２號二樓之７","OBJECTID":367147},"geometry":{"x":168500.29000000097,"y":2543100.790000001}},{"attributes":{"ID":367158,"DIS_CODE":0,"TOWNNAME":"中西區","LI":"郡王里","LIN":"12鄰","STREET":"建業街","SECT":" ","MAREA":" ","LANE":"３７巷","ALLEY":" ","HOUSE_NO":"２號二樓之８","E_COORD97":168515.26000000001,"N_COORD97":2543100.29,"ADDRESS":"建業街３７巷２號二樓之８","OBJECTID":367148},"geometry":{"x":168515.26000000071,"y":2543100.290000001}},{"attributes":{"ID":367159,"DIS_CODE":0,"TOWNNAME":"中西區","LI":"郡王里","LIN":"12鄰","STREET":"建業街","SECT":" ","MAREA":" ","LANE":"３７巷","ALLEY":" ","HOUSE_NO":"２號三樓之１","E_COORD97":168515.38,"N_COORD97":2543115.9399999999,"ADDRESS":"建業街３７巷２號三樓之１","OBJECTID":367149},"geometry":{"x":168515.37999999989,"y":2543115.9400000013}},{"attributes":{"ID":367160,"DIS_CODE":0,"TOWNNAME":"中西區","LI":"郡王里","LIN":"12鄰","STREET":"建業街","SECT":" ","MAREA":" ","LANE":"３７巷","ALLEY":" ","HOUSE_NO":"２號三樓之２","E_COORD97":168500.20999999999,"N_COORD97":2543116.04,"ADDRESS":"建業街３７巷２號三樓之２","OBJECTID":367150},"geometry":{"x":168500.21000000089,"y":2543116.040000001}},{"attributes":{"ID":367161,"DIS_CODE":0,"TOWNNAME":"中西區","LI":"郡王里","LIN":"12鄰","STREET":"建業街","SECT":" ","MAREA":" ","LANE":"３７巷","ALLEY":" ","HOUSE_NO":"２號三樓之３","E_COORD97":168489.07999999999,"N_COORD97":2543118.1200000001,"ADDRESS":"建業街３７巷２號三樓之３","OBJECTID":367151},"geometry":{"x":168489.07999999914,"y":2543118.120000001}},{"attributes":{"ID":367162,"DIS_CODE":0,"TOWNNAME":"中西區","LI":"郡王里","LIN":"12鄰","STREET":"建業街","SECT":" ","MAREA":" ","LANE":"３７巷","ALLEY":" ","HOUSE_NO":"２號三樓之４","E_COORD97":168476.48999999999,"N_COORD97":2543117.23,"ADDRESS":"建業街３７巷２號三樓之４","OBJECTID":367152},"geometry":{"x":168476.49000000209,"y":2543117.2300000004}},{"attributes":{"ID":367163,"DIS_CODE":0,"TOWNNAME":"中西區","LI":"郡王里","LIN":"12鄰","STREET":"建業街","SECT":" ","MAREA":" ","LANE":"３７巷","ALLEY":" ","HOUSE_NO":"２號三樓之５","E_COORD97":168474.39999999999,"N_COORD97":2543100,"ADDRESS":"建業街３７巷２號三樓之５","OBJECTID":367153},"geometry":{"x":168474.4000000013,"y":2543100.0000000019}},{"attributes":{"ID":367164,"DIS_CODE":0,"TOWNNAME":"中西區","LI":"郡王里","LIN":"12鄰","STREET":"建業街","SECT":" ","MAREA":" ","LANE":"３７巷","ALLEY":" ","HOUSE_NO":"２號三樓之６","E_COORD97":168488.67999999999,"N_COORD97":2543100.4900000002,"ADDRESS":"建業街３７巷２號三樓之６","OBJECTID":367154},"geometry":{"x":168488.68000000063,"y":2543100.4900000021}},{"attributes":{"ID":367165,"DIS_CODE":0,"TOWNNAME":"中西區","LI":"郡王里","LIN":"12鄰","STREET":"建業街","SECT":" ","MAREA":" ","LANE":"３７巷","ALLEY":" ","HOUSE_NO":"２號三樓之７","E_COORD97":168500.29000000001,"N_COORD97":2543100.79,"ADDRESS":"建業街３７巷２號三樓之７","OBJECTID":367155},"geometry":{"x":168500.29000000097,"y":2543100.790000001}},{"attributes":{"ID":367166,"DIS_CODE":0,"TOWNNAME":"中西區","LI":"郡王里","LIN":"12鄰","STREET":"建業街","SECT":" ","MAREA":" ","LANE":"３７巷","ALLEY":" ","HOUSE_NO":"２號三樓之８","E_COORD97":168515.26000000001,"N_COORD97":2543100.29,"ADDRESS":"建業街３７巷２號三樓之８","OBJECTID":367156},"geometry":{"x":168515.26000000071,"y":2543100.290000001}},{"attributes":{"ID":367167,"DIS_CODE":0,"TOWNNAME":"中西區","LI":"郡王里","LIN":"12鄰","STREET":"建業街","SECT":" ","MAREA":" ","LANE":"３７巷","ALLEY":" ","HOUSE_NO":"２號五樓之１","E_COORD97":168515.38,"N_COORD97":2543115.9399999999,"ADDRESS":"建業街３７巷２號五樓之１","OBJECTID":367157},"geometry":{"x":168515.37999999989,"y":2543115.9400000013}},{"attributes":{"ID":367168,"DIS_CODE":0,"TOWNNAME":"中西區","LI":"郡王里","LIN":"12鄰","STREET":"建業街","SECT":" ","MAREA":" ","LANE":"３７巷","ALLEY":" ","HOUSE_NO":"２號五樓之２","E_COORD97":168500.20999999999,"N_COORD97":2543116.04,"ADDRESS":"建業街３７巷２號五樓之２","OBJECTID":367158},"geometry":{"x":168500.21000000089,"y":2543116.040000001}},{"attributes":{"ID":367169,"DIS_CODE":0,"TOWNNAME":"中西區","LI":"郡王里","LIN":"12鄰","STREET":"建業街","SECT":" ","MAREA":" ","LANE":"３７巷","ALLEY":" ","HOUSE_NO":"２號五樓之３","E_COORD97":168489.07999999999,"N_COORD97":2543118.1200000001,"ADDRESS":"建業街３７巷２號五樓之３","OBJECTID":367159},"geometry":{"x":168489.07999999914,"y":2543118.120000001}},{"attributes":{"ID":367170,"DIS_CODE":0,"TOWNNAME":"中西區","LI":"郡王里","LIN":"12鄰","STREET":"建業街","SECT":" ","MAREA":" ","LANE":"３７巷","ALLEY":" ","HOUSE_NO":"２號五樓之４","E_COORD97":168476.48999999999,"N_COORD97":2543117.23,"ADDRESS":"建業街３７巷２號五樓之４","OBJECTID":367160},"geometry":{"x":168476.49000000209,"y":2543117.2300000004}},{"attributes":{"ID":367171,"DIS_CODE":0,"TOWNNAME":"中西區","LI":"郡王里","LIN":"12鄰","STREET":"建業街","SECT":" ","MAREA":" ","LANE":"３７巷","ALLEY":" ","HOUSE_NO":"２號五樓之５","E_COORD97":168474.39999999999,"N_COORD97":2543100,"ADDRESS":"建業街３７巷２號五樓之５","OBJECTID":367161},"geometry":{"x":168474.4000000013,"y":2543100.0000000019}},{"attributes":{"ID":367172,"DIS_CODE":0,"TOWNNAME":"永康區","LI":"埔園里","LIN":"20鄰","STREET":"四維街","SECT":" ","MAREA":" ","LANE":"１０２巷","ALLEY":" ","HOUSE_NO":"２７號","E_COORD97":173452.07999999999,"N_COORD97":2548244.75,"ADDRESS":"四維街１０２巷２７號","OBJECTID":367162},"geometry":{"x":173452.08000000007,"y":2548244.7500000019}},{"attributes":{"ID":367173,"DIS_CODE":0,"TOWNNAME":"永康區","LI":"埔園里","LIN":"13鄰","STREET":"中山路","SECT":" ","MAREA":" ","LANE":"２０７巷","ALLEY":" ","HOUSE_NO":"２５號","E_COORD97":173608.37,"N_COORD97":2548105.5,"ADDRESS":"中山路２０７巷２５號","OBJECTID":367163},"geometry":{"x":173608.37000000197,"y":2548105.5}},{"attributes":{"ID":367174,"DIS_CODE":0,"TOWNNAME":"善化區","LI":"文正里","LIN":"13鄰","STREET":"陽明路","SECT":" ","MAREA":" ","LANE":" ","ALLEY":" ","HOUSE_NO":"２８０號","E_COORD97":176040.78,"N_COORD97":2559782.5099999998,"ADDRESS":"陽明路２８０號","OBJECTID":367164},"geometry":{"x":176040.78000000119,"y":2559782.5100000035}},{"attributes":{"ID":367175,"DIS_CODE":0,"TOWNNAME":"善化區","LI":"文正里","LIN":"13鄰","STREET":"陽明路","SECT":" ","MAREA":" ","LANE":" ","ALLEY":" ","HOUSE_NO":"１００號","E_COORD97":176456.22,"N_COORD97":2559400.2599999998,"ADDRESS":"陽明路１００號","OBJECTID":367165},"geometry":{"x":176456.21999999974,"y":2559400.2599999998}},{"attributes":{"ID":367176,"DIS_CODE":0,"TOWNNAME":"善化區","LI":"文正里","LIN":"13鄰","STREET":"陽明路","SECT":" ","MAREA":" ","LANE":" ","ALLEY":" ","HOUSE_NO":"９６號之６","E_COORD97":176493.12,"N_COORD97":2559404.52,"ADDRESS":"陽明路９６號之６","OBJECTID":367166},"geometry":{"x":176493.12000000011,"y":2559404.5199999996}},{"attributes":{"ID":367177,"DIS_CODE":0,"TOWNNAME":"善化區","LI":"文正里","LIN":"13鄰","STREET":"陽明路","SECT":" ","MAREA":" ","LANE":" ","ALLEY":" ","HOUSE_NO":"９０號","E_COORD97":176477.81,"N_COORD97":2559381.2599999998,"ADDRESS":"陽明路９０號","OBJECTID":367167},"geometry":{"x":176477.80999999959,"y":2559381.2600000016}},{"attributes":{"ID":367178,"DIS_CODE":0,"TOWNNAME":"善化區","LI":"文正里","LIN":"13鄰","STREET":"陽明路","SECT":" ","MAREA":" ","LANE":" ","ALLEY":" ","HOUSE_NO":"９２號之３","E_COORD97":176504.22,"N_COORD97":2559393.27,"ADDRESS":"陽明路９２號之３","OBJECTID":367168},"geometry":{"x":176504.21999999974,"y":2559393.2699999996}},{"attributes":{"ID":367179,"DIS_CODE":0,"TOWNNAME":"善化區","LI":"文正里","LIN":"13鄰","STREET":"陽明路","SECT":" ","MAREA":" ","LANE":" ","ALLEY":" ","HOUSE_NO":"９２號之１","E_COORD97":176495.20999999999,"N_COORD97":2559393.02,"ADDRESS":"陽明路９２號之１","OBJECTID":367169},"geometry":{"x":176495.21000000089,"y":2559393.0200000014}},{"attributes":{"ID":367180,"DIS_CODE":0,"TOWNNAME":"善化區","LI":"文正里","LIN":"13鄰","STREET":"陽明路","SECT":" ","MAREA":" ","LANE":" ","ALLEY":" ","HOUSE_NO":"９２號之２","E_COORD97":176499.81,"N_COORD97":2559393.02,"ADDRESS":"陽明路９２號之２","OBJECTID":367170},"geometry":{"x":176499.80999999959,"y":2559393.0200000014}},{"attributes":{"ID":367181,"DIS_CODE":0,"TOWNNAME":"安南區","LI":"溪東里","LIN":"13鄰","STREET":"府安路","SECT":"五段","MAREA":" ","LANE":"１１巷","ALLEY":" ","HOUSE_NO":"６８號","E_COORD97":168455.79000000001,"N_COORD97":2547401.3399999999,"ADDRESS":"府安路五段１１巷６８號","OBJECTID":367171},"geometry":{"x":168455.79000000097,"y":2547401.3399999999}},{"attributes":{"ID":367182,"DIS_CODE":0,"TOWNNAME":"安南區","LI":"溪東里","LIN":"13鄰","STREET":"府安路","SECT":"五段","MAREA":" ","LANE":"１１巷","ALLEY":" ","HOUSE_NO":"７０號","E_COORD97":168462.79000000001,"N_COORD97":2547402.0800000001,"ADDRESS":"府安路五段１１巷７０號","OBJECTID":367172},"geometry":{"x":168462.79000000097,"y":2547402.0800000019}},{"attributes":{"ID":367183,"DIS_CODE":0,"TOWNNAME":"安南區","LI":"溪東里","LIN":"13鄰","STREET":"府安路","SECT":"五段","MAREA":" ","LANE":"１１巷","ALLEY":" ","HOUSE_NO":"７４號","E_COORD97":168476.17000000001,"N_COORD97":2547403.27,"ADDRESS":"府安路五段１１巷７４號","OBJECTID":367173},"geometry":{"x":168476.16999999993,"y":2547403.2700000014}},{"attributes":{"ID":367184,"DIS_CODE":0,"TOWNNAME":"安南區","LI":"溪東里","LIN":"13鄰","STREET":"府安路","SECT":"五段","MAREA":" ","LANE":"１１巷","ALLEY":" ","HOUSE_NO":"７６號","E_COORD97":168472.59,"N_COORD97":2547423.5699999998,"ADDRESS":"府安路五段１１巷７６號","OBJECTID":367174},"geometry":{"x":168472.59000000078,"y":2547423.5700000003}},{"attributes":{"ID":367185,"DIS_CODE":0,"TOWNNAME":"安南區","LI":"溪東里","LIN":"13鄰","STREET":"府安路","SECT":"五段","MAREA":" ","LANE":"１１巷","ALLEY":" ","HOUSE_NO":"７８號","E_COORD97":168466.79000000001,"N_COORD97":2547422.98,"ADDRESS":"府安路五段１１巷７８號","OBJECTID":367175},"geometry":{"x":168466.79000000004,"y":2547422.9800000023}},{"attributes":{"ID":367186,"DIS_CODE":0,"TOWNNAME":"安南區","LI":"溪東里","LIN":"13鄰","STREET":"府安路","SECT":"五段","MAREA":" ","LANE":"１１巷","ALLEY":" ","HOUSE_NO":"８０號","E_COORD97":168461.29000000001,"N_COORD97":2547422.23,"ADDRESS":"府安路五段１１巷８０號","OBJECTID":367176},"geometry":{"x":168461.29000000097,"y":2547422.2300000004}},{"attributes":{"ID":367187,"DIS_CODE":0,"TOWNNAME":"安南區","LI":"溪東里","LIN":"13鄰","STREET":"府安路","SECT":"五段","MAREA":" ","LANE":"１１巷","ALLEY":" ","HOUSE_NO":"８２號","E_COORD97":168454,"N_COORD97":2547421.9399999999,"ADDRESS":"府安路五段１１巷８２號","OBJECTID":367177},"geometry":{"x":168454.00000000186,"y":2547421.9400000013}},{"attributes":{"ID":367188,"DIS_CODE":0,"TOWNNAME":"永康區","LI":"埔園里","LIN":"17鄰","STREET":"中山路","SECT":" ","MAREA":" ","LANE":"３８３巷","ALLEY":" ","HOUSE_NO":"９號","E_COORD97":173453.76999999999,"N_COORD97":2548500.75,"ADDRESS":"中山路３８３巷９號","OBJECTID":367178},"geometry":{"x":173453.76999999955,"y":2548500.75}},{"attributes":{"ID":367189,"DIS_CODE":0,"TOWNNAME":"中西區","LI":"郡王里","LIN":"12鄰","STREET":"建業街","SECT":" ","MAREA":" ","LANE":"３７巷","ALLEY":" ","HOUSE_NO":"２號五樓之６","E_COORD97":168488.67999999999,"N_COORD97":2543100.4900000002,"ADDRESS":"建業街３７巷２號五樓之６","OBJECTID":367179},"geometry":{"x":168488.68000000063,"y":2543100.4900000021}},{"attributes":{"ID":367190,"DIS_CODE":0,"TOWNNAME":"中西區","LI":"郡王里","LIN":"12鄰","STREET":"建業街","SECT":" ","MAREA":" ","LANE":"３７巷","ALLEY":" ","HOUSE_NO":"２號五樓之７","E_COORD97":168500.29000000001,"N_COORD97":2543100.79,"ADDRESS":"建業街３７巷２號五樓之７","OBJECTID":367180},"geometry":{"x":168500.29000000097,"y":2543100.790000001}},{"attributes":{"ID":367191,"DIS_CODE":0,"TOWNNAME":"中西區","LI":"郡王里","LIN":"12鄰","STREET":"建業街","SECT":" ","MAREA":" ","LANE":"３７巷","ALLEY":" ","HOUSE_NO":"２號五樓之８","E_COORD97":168515.26000000001,"N_COORD97":2543100.29,"ADDRESS":"建業街３７巷２號五樓之８","OBJECTID":367181},"geometry":{"x":168515.26000000071,"y":2543100.290000001}},{"attributes":{"ID":367192,"DIS_CODE":0,"TOWNNAME":"中西區","LI":"郡王里","LIN":"12鄰","STREET":"建業街","SECT":" ","MAREA":" ","LANE":"３７巷","ALLEY":" ","HOUSE_NO":"２號四樓之１","E_COORD97":168515.38,"N_COORD97":2543115.9399999999,"ADDRESS":"建業街３７巷２號四樓之１","OBJECTID":367182},"geometry":{"x":168515.37999999989,"y":2543115.9400000013}},{"attributes":{"ID":367193,"DIS_CODE":0,"TOWNNAME":"中西區","LI":"郡王里","LIN":"12鄰","STREET":"建業街","SECT":" ","MAREA":" ","LANE":"３７巷","ALLEY":" ","HOUSE_NO":"２號四樓之２","E_COORD97":168500.20999999999,"N_COORD97":2543116.04,"ADDRESS":"建業街３７巷２號四樓之２","OBJECTID":367183},"geometry":{"x":168500.21000000089,"y":2543116.040000001}},{"attributes":{"ID":367194,"DIS_CODE":0,"TOWNNAME":"善化區","LI":"文正里","LIN":"13鄰","STREET":"陽明路","SECT":" ","MAREA":" ","LANE":" ","ALLEY":" ","HOUSE_NO":"９６號之８","E_COORD97":176502.60999999999,"N_COORD97":2559406.27,"ADDRESS":"陽明路９６號之８","OBJECTID":367184},"geometry":{"x":176502.61000000127,"y":2559406.2699999996}},{"attributes":{"ID":367195,"DIS_CODE":0,"TOWNNAME":"善化區","LI":"文正里","LIN":"13鄰","STREET":"陽明路","SECT":" ","MAREA":" ","LANE":" ","ALLEY":" ","HOUSE_NO":"９２號之５","E_COORD97":176509.42000000001,"N_COORD97":2559393.27,"ADDRESS":"陽明路９２號之５","OBJECTID":367185},"geometry":{"x":176509.41999999993,"y":2559393.2699999996}},{"attributes":{"ID":367196,"DIS_CODE":0,"TOWNNAME":"善化區","LI":"文正里","LIN":"13鄰","STREET":"陽明路","SECT":" ","MAREA":" ","LANE":" ","ALLEY":" ","HOUSE_NO":"２６２號","E_COORD97":176088.67000000001,"N_COORD97":2559741.0099999998,"ADDRESS":"陽明路２６２號","OBJECTID":367186},"geometry":{"x":176088.67000000086,"y":2559741.0099999998}},{"attributes":{"ID":367197,"DIS_CODE":0,"TOWNNAME":"善化區","LI":"文正里","LIN":"13鄰","STREET":"陽明路","SECT":" ","MAREA":" ","LANE":" ","ALLEY":" ","HOUSE_NO":"９６號之３","E_COORD97":176483.70999999999,"N_COORD97":2559403.02,"ADDRESS":"陽明路９６號之３","OBJECTID":367187},"geometry":{"x":176483.70999999996,"y":2559403.0200000014}},{"attributes":{"ID":367198,"DIS_CODE":0,"TOWNNAME":"善化區","LI":"文正里","LIN":"13鄰","STREET":"陽明路","SECT":" ","MAREA":" ","LANE":" ","ALLEY":" ","HOUSE_NO":"９６號","E_COORD97":176465.10000000001,"N_COORD97":2559395.7599999998,"ADDRESS":"陽明路９６號","OBJECTID":367188},"geometry":{"x":176465.10000000056,"y":2559395.7600000016}},{"attributes":{"ID":367199,"DIS_CODE":0,"TOWNNAME":"善化區","LI":"文正里","LIN":"13鄰","STREET":"陽明路","SECT":" ","MAREA":" ","LANE":" ","ALLEY":" ","HOUSE_NO":"９８號","E_COORD97":176459.35000000001,"N_COORD97":2559397.2599999998,"ADDRESS":"陽明路９８號","OBJECTID":367189},"geometry":{"x":176459.35000000149,"y":2559397.2599999998}},{"attributes":{"ID":367200,"DIS_CODE":0,"TOWNNAME":"善化區","LI":"文正里","LIN":"13鄰","STREET":"陽明路","SECT":" ","MAREA":" ","LANE":" ","ALLEY":" ","HOUSE_NO":"９２號","E_COORD97":176474.01000000001,"N_COORD97":2559384.5099999998,"ADDRESS":"陽明路９２號","OBJECTID":367190},"geometry":{"x":176474.01000000071,"y":2559384.5099999998}},{"attributes":{"ID":367201,"DIS_CODE":0,"TOWNNAME":"善化區","LI":"文正里","LIN":"13鄰","STREET":"中山路","SECT":" ","MAREA":" ","LANE":" ","ALLEY":" ","HOUSE_NO":"５６２之３號","E_COORD97":176809.92000000001,"N_COORD97":2559257.27,"ADDRESS":"中山路５６２之３號","OBJECTID":367191},"geometry":{"x":176809.91999999993,"y":2559257.2699999996}},{"attributes":{"ID":367202,"DIS_CODE":0,"TOWNNAME":"永康區","LI":"崑山里","LIN":"13鄰","STREET":"大灣路","SECT":" ","MAREA":" ","LANE":"１０２０巷","ALLEY":" ","HOUSE_NO":"４號","E_COORD97":173437.5,"N_COORD97":2544422.1099999999,"ADDRESS":"大灣路１０２０巷４號","OBJECTID":367192},"geometry":{"x":173437.5,"y":2544422.1099999994}},{"attributes":{"ID":367203,"DIS_CODE":0,"TOWNNAME":"永康區","LI":"勝利里","LIN":"13鄰","STREET":"勝利街","SECT":" ","MAREA":" ","LANE":"７５巷","ALLEY":" ","HOUSE_NO":"４號","E_COORD97":171334.92000000001,"N_COORD97":2544743,"ADDRESS":"勝利街７５巷４號","OBJECTID":367193},"geometry":{"x":171334.92000000086,"y":2544743.0000000037}},{"attributes":{"ID":367204,"DIS_CODE":0,"TOWNNAME":"永康區","LI":"甲頂里","LIN":"13鄰","STREET":"大武街","SECT":" ","MAREA":" ","LANE":"２巷","ALLEY":" ","HOUSE_NO":"５６號","E_COORD97":170373.92000000001,"N_COORD97":2546526.8199999998,"ADDRESS":"大武街２巷５６號","OBJECTID":367194},"geometry":{"x":170373.92000000086,"y":2546526.8200000003}},{"attributes":{"ID":367205,"DIS_CODE":0,"TOWNNAME":"中西區","LI":"郡王里","LIN":"12鄰","STREET":"建業街","SECT":" ","MAREA":" ","LANE":"３７巷","ALLEY":" ","HOUSE_NO":"２號四樓之３","E_COORD97":168489.07999999999,"N_COORD97":2543118.1200000001,"ADDRESS":"建業街３７巷２號四樓之３","OBJECTID":367195},"geometry":{"x":168489.07999999914,"y":2543118.120000001}},{"attributes":{"ID":367206,"DIS_CODE":0,"TOWNNAME":"中西區","LI":"郡王里","LIN":"12鄰","STREET":"建業街","SECT":" ","MAREA":" ","LANE":"３７巷","ALLEY":" ","HOUSE_NO":"２號四樓之４","E_COORD97":168476.48999999999,"N_COORD97":2543117.23,"ADDRESS":"建業街３７巷２號四樓之４","OBJECTID":367196},"geometry":{"x":168476.49000000209,"y":2543117.2300000004}},{"attributes":{"ID":367207,"DIS_CODE":0,"TOWNNAME":"中西區","LI":"郡王里","LIN":"12鄰","STREET":"建業街","SECT":" ","MAREA":" ","LANE":"３７巷","ALLEY":" ","HOUSE_NO":"２號四樓之５","E_COORD97":168474.39999999999,"N_COORD97":2543100,"ADDRESS":"建業街３７巷２號四樓之５","OBJECTID":367197},"geometry":{"x":168474.4000000013,"y":2543100.0000000019}},{"attributes":{"ID":367208,"DIS_CODE":0,"TOWNNAME":"中西區","LI":"郡王里","LIN":"12鄰","STREET":"建業街","SECT":" ","MAREA":" ","LANE":"３７巷","ALLEY":" ","HOUSE_NO":"２號四樓之６","E_COORD97":168488.67999999999,"N_COORD97":2543100.4900000002,"ADDRESS":"建業街３７巷２號四樓之６","OBJECTID":367198},"geometry":{"x":168488.68000000063,"y":2543100.4900000021}},{"attributes":{"ID":367209,"DIS_CODE":0,"TOWNNAME":"中西區","LI":"郡王里","LIN":"12鄰","STREET":"建業街","SECT":" ","MAREA":" ","LANE":"３７巷","ALLEY":" ","HOUSE_NO":"２號四樓之７","E_COORD97":168500.29000000001,"N_COORD97":2543100.79,"ADDRESS":"建業街３７巷２號四樓之７","OBJECTID":367199},"geometry":{"x":168500.29000000097,"y":2543100.790000001}},{"attributes":{"ID":367210,"DIS_CODE":0,"TOWNNAME":"中西區","LI":"郡王里","LIN":"12鄰","STREET":"建業街","SECT":" ","MAREA":" ","LANE":"３７巷","ALLEY":" ","HOUSE_NO":"２號四樓之８","E_COORD97":168515.26000000001,"N_COORD97":2543100.29,"ADDRESS":"建業街３７巷２號四樓之８","OBJECTID":367200},"geometry":{"x":168515.26000000071,"y":2543100.290000001}}]}