{"displayFieldName":"TOWNNAME","fieldAliases":{"ID":"ID","DIS_CODE":"DIS_CODE","TOWNNAME":"TOWNNAME","LI":"LI","LIN":"LIN","STREET":"STREET","SECT":"SECT","MAREA":"MAREA","LANE":"LANE","ALLEY":"ALLEY","HOUSE_NO":"HOUSE_NO","E_COORD97":"E_COORD97","N_COORD97":"N_COORD97","ADDRESS":"ADDRESS","OBJECTID":"OBJECTID"},"geometryType":"esriGeometryPoint","spatialReference":{"wkid":102443,"latestWkid":3826},"fields":[{"name":"ID","type":"esriFieldTypeDouble","alias":"ID"},{"name":"DIS_CODE","type":"esriFieldTypeInteger","alias":"DIS_CODE"},{"name":"TOWNNAME","type":"esriFieldTypeString","alias":"TOWNNAME","length":8},{"name":"LI","type":"esriFieldTypeString","alias":"LI","length":8},{"name":"LIN","type":"esriFieldTypeString","alias":"LIN","length":12},{"name":"STREET","type":"esriFieldTypeString","alias":"STREET","length":20},{"name":"SECT","type":"esriFieldTypeString","alias":"SECT","length":8},{"name":"MAREA","type":"esriFieldTypeString","alias":"MAREA","length":12},{"name":"LANE","type":"esriFieldTypeString","alias":"LANE","length":10},{"name":"ALLEY","type":"esriFieldTypeString","alias":"ALLEY","length":10},{"name":"HOUSE_NO","type":"esriFieldTypeString","alias":"HOUSE_NO","length":20},{"name":"E_COORD97","type":"esriFieldTypeDouble","alias":"E_COORD97"},{"name":"N_COORD97","type":"esriFieldTypeDouble","alias":"N_COORD97"},{"name":"ADDRESS","type":"esriFieldTypeString","alias":"ADDRESS","length":50},{"name":"OBJECTID","type":"esriFieldTypeOID","alias":"OBJECTID"}],"features":[{"attributes":{"ID":215002,"DIS_CODE":0,"TOWNNAME":"永康區","LI":"西灣里","LIN":"28鄰","STREET":"公園路","SECT":" ","MAREA":" ","LANE":"７巷","ALLEY":"３０弄","HOUSE_NO":"２之１號","E_COORD97":174465.76000000001,"N_COORD97":2545930.0299999998,"ADDRESS":"公園路７巷３０弄２之１號","OBJECTID":215001},"geometry":{"x":174465.75999999978,"y":2545930.0300000012}},{"attributes":{"ID":215003,"DIS_CODE":0,"TOWNNAME":"南區","LI":"明亮里","LIN":"28鄰","STREET":"金華路","SECT":"一段","MAREA":" ","LANE":"４８４巷","ALLEY":"２４０弄","HOUSE_NO":"１號","E_COORD97":167461.45000000001,"N_COORD97":2541042.6499999999,"ADDRESS":"金華路一段４８４巷２４０弄１號","OBJECTID":215002},"geometry":{"x":167461.45000000112,"y":2541042.6500000004}},{"attributes":{"ID":215004,"DIS_CODE":0,"TOWNNAME":"南區","LI":"明亮里","LIN":"28鄰","STREET":"金華路","SECT":"一段","MAREA":" ","LANE":"４８４巷","ALLEY":"２４０弄","HOUSE_NO":"２號","E_COORD97":167456.09,"N_COORD97":2541057.8999999999,"ADDRESS":"金華路一段４８４巷２４０弄２號","OBJECTID":215003},"geometry":{"x":167456.08999999985,"y":2541057.9000000004}},{"attributes":{"ID":215005,"DIS_CODE":0,"TOWNNAME":"南區","LI":"明亮里","LIN":"28鄰","STREET":"金華路","SECT":"一段","MAREA":" ","LANE":"４８４巷","ALLEY":"２４０弄","HOUSE_NO":"３號","E_COORD97":167456.89999999999,"N_COORD97":2541041.0499999998,"ADDRESS":"金華路一段４８４巷２４０弄３號","OBJECTID":215004},"geometry":{"x":167456.9000000013,"y":2541041.0500000045}},{"attributes":{"ID":215006,"DIS_CODE":0,"TOWNNAME":"南區","LI":"明亮里","LIN":"28鄰","STREET":"金華路","SECT":"一段","MAREA":" ","LANE":"４８４巷","ALLEY":"２４０弄","HOUSE_NO":"５號","E_COORD97":167452.07000000001,"N_COORD97":2541037.0299999998,"ADDRESS":"金華路一段４８４巷２４０弄５號","OBJECTID":215005},"geometry":{"x":167452.07000000216,"y":2541037.0300000012}},{"attributes":{"ID":215007,"DIS_CODE":0,"TOWNNAME":"南區","LI":"明亮里","LIN":"28鄰","STREET":"金華路","SECT":"一段","MAREA":" ","LANE":"４８４巷","ALLEY":"２４０弄","HOUSE_NO":"６號","E_COORD97":167445.64999999999,"N_COORD97":2541054.1499999999,"ADDRESS":"金華路一段４８４巷２４０弄６號","OBJECTID":215006},"geometry":{"x":167445.65000000037,"y":2541054.1500000022}},{"attributes":{"ID":215008,"DIS_CODE":0,"TOWNNAME":"南區","LI":"明亮里","LIN":"28鄰","STREET":"金華路","SECT":"一段","MAREA":" ","LANE":"４８４巷","ALLEY":"２４０弄","HOUSE_NO":"７號","E_COORD97":167448.06,"N_COORD97":2541035.1600000001,"ADDRESS":"金華路一段４８４巷２４０弄７號","OBJECTID":215007},"geometry":{"x":167448.06000000145,"y":2541035.1600000001}},{"attributes":{"ID":215009,"DIS_CODE":0,"TOWNNAME":"安南區","LI":"溪北里","LIN":"9鄰","STREET":"府安路","SECT":"四段","MAREA":" ","LANE":" ","ALLEY":" ","HOUSE_NO":"２９號","E_COORD97":169410.01999999999,"N_COORD97":2547322.27,"ADDRESS":"府安路四段２９號","OBJECTID":215008},"geometry":{"x":169410.02000000048,"y":2547322.2700000014}},{"attributes":{"ID":215010,"DIS_CODE":0,"TOWNNAME":"北門區","LI":"永隆里","LIN":"2鄰","STREET":" ","SECT":" ","MAREA":"北門","LANE":" ","ALLEY":" ","HOUSE_NO":"２２號","E_COORD97":160336.48999999999,"N_COORD97":2574370.2999999998,"ADDRESS":"北門２２號","OBJECTID":215009},"geometry":{"x":160336.49000000115,"y":2574370.3000000045}},{"attributes":{"ID":215011,"DIS_CODE":0,"TOWNNAME":"南區","LI":"明亮里","LIN":"28鄰","STREET":"金華路","SECT":"一段","MAREA":" ","LANE":"４８４巷","ALLEY":"２４０弄","HOUSE_NO":"８號","E_COORD97":167441.35999999999,"N_COORD97":2541052.2799999998,"ADDRESS":"金華路一段４８４巷２４０弄８號","OBJECTID":215010},"geometry":{"x":167441.36000000034,"y":2541052.2800000012}},{"attributes":{"ID":215012,"DIS_CODE":0,"TOWNNAME":"南區","LI":"明亮里","LIN":"28鄰","STREET":"金華路","SECT":"一段","MAREA":" ","LANE":"４８４巷","ALLEY":"２４０弄","HOUSE_NO":"９號","E_COORD97":167442.16,"N_COORD97":2541032.2200000002,"ADDRESS":"金華路一段４８４巷２４０弄９號","OBJECTID":215011},"geometry":{"x":167442.16000000015,"y":2541032.2200000007}},{"attributes":{"ID":215013,"DIS_CODE":0,"TOWNNAME":"南區","LI":"明亮里","LIN":"28鄰","STREET":"金華路","SECT":"一段","MAREA":" ","LANE":"４８４巷","ALLEY":"２４０弄","HOUSE_NO":"１０號","E_COORD97":167436.26999999999,"N_COORD97":2541049.8700000001,"ADDRESS":"金華路一段４８４巷２４０弄１０號","OBJECTID":215012},"geometry":{"x":167436.27000000142,"y":2541049.8700000029}},{"attributes":{"ID":215014,"DIS_CODE":0,"TOWNNAME":"南區","LI":"明亮里","LIN":"28鄰","STREET":"金華路","SECT":"一段","MAREA":" ","LANE":"４８４巷","ALLEY":"２４０弄","HOUSE_NO":"１１號","E_COORD97":167437.60999999999,"N_COORD97":2541030.8799999999,"ADDRESS":"金華路一段４８４巷２４０弄１１號","OBJECTID":215013},"geometry":{"x":167437.61000000034,"y":2541030.8800000008}},{"attributes":{"ID":215015,"DIS_CODE":0,"TOWNNAME":"南區","LI":"明亮里","LIN":"28鄰","STREET":"金華路","SECT":"一段","MAREA":" ","LANE":"４８４巷","ALLEY":"２４０弄","HOUSE_NO":"１２號","E_COORD97":167430.91,"N_COORD97":2541048,"ADDRESS":"金華路一段４８４巷２４０弄１２號","OBJECTID":215014},"geometry":{"x":167430.91000000201,"y":2541048.0000000019}},{"attributes":{"ID":215016,"DIS_CODE":0,"TOWNNAME":"永康區","LI":"二王里","LIN":"47鄰","STREET":"南工街","SECT":" ","MAREA":" ","LANE":"２２６巷","ALLEY":"１弄","HOUSE_NO":"３號","E_COORD97":171967.95999999999,"N_COORD97":2546026.4300000002,"ADDRESS":"南工街２２６巷１弄３號","OBJECTID":215015},"geometry":{"x":171967.95999999996,"y":2546026.4299999997}},{"attributes":{"ID":215017,"DIS_CODE":0,"TOWNNAME":"南區","LI":"明亮里","LIN":"28鄰","STREET":"金華路","SECT":"一段","MAREA":" ","LANE":"４８４巷","ALLEY":"２４０弄","HOUSE_NO":"１３號","E_COORD97":167432.79000000001,"N_COORD97":2541027.9399999999,"ADDRESS":"金華路一段４８４巷２４０弄１３號","OBJECTID":215016},"geometry":{"x":167432.79000000004,"y":2541027.9400000013}},{"attributes":{"ID":215018,"DIS_CODE":0,"TOWNNAME":"南區","LI":"明亮里","LIN":"28鄰","STREET":"金華路","SECT":"一段","MAREA":" ","LANE":"４８４巷","ALLEY":"２４０弄","HOUSE_NO":"１４號","E_COORD97":167426.35999999999,"N_COORD97":2541045.5899999999,"ADDRESS":"金華路一段４８４巷２４０弄１４號","OBJECTID":215017},"geometry":{"x":167426.3600000022,"y":2541045.5899999999}},{"attributes":{"ID":215019,"DIS_CODE":0,"TOWNNAME":"南區","LI":"明亮里","LIN":"28鄰","STREET":"金華路","SECT":"一段","MAREA":" ","LANE":"４８４巷","ALLEY":"２４０弄","HOUSE_NO":"１５號","E_COORD97":167429.04000000001,"N_COORD97":2541025.5299999998,"ADDRESS":"金華路一段４８４巷２４０弄１５號","OBJECTID":215018},"geometry":{"x":167429.04000000097,"y":2541025.5299999993}},{"attributes":{"ID":215020,"DIS_CODE":0,"TOWNNAME":"關廟區","LI":"新埔里","LIN":"9鄰","STREET":"新埔二街","SECT":" ","MAREA":" ","LANE":"７２巷","ALLEY":" ","HOUSE_NO":"９８號","E_COORD97":181836.78791000001,"N_COORD97":2541502.9391999999,"ADDRESS":"新埔二街７２巷９８號","OBJECTID":215019},"geometry":{"x":181836.78791000228,"y":2541502.9392000008}},{"attributes":{"ID":215021,"DIS_CODE":0,"TOWNNAME":"北門區","LI":"永隆里","LIN":"2鄰","STREET":" ","SECT":" ","MAREA":"北門","LANE":" ","ALLEY":" ","HOUSE_NO":"２３號","E_COORD97":160338.17000000001,"N_COORD97":2574373.2400000002,"ADDRESS":"北門２３號","OBJECTID":215020},"geometry":{"x":160338.17000000086,"y":2574373.2400000002}},{"attributes":{"ID":215022,"DIS_CODE":0,"TOWNNAME":"北門區","LI":"永隆里","LIN":"2鄰","STREET":" ","SECT":" ","MAREA":"北門","LANE":" ","ALLEY":" ","HOUSE_NO":"２４號","E_COORD97":160340.04999999999,"N_COORD97":2574376.77,"ADDRESS":"北門２４號","OBJECTID":215021},"geometry":{"x":160340.04999999981,"y":2574376.7700000014}},{"attributes":{"ID":215023,"DIS_CODE":0,"TOWNNAME":"北門區","LI":"永隆里","LIN":"2鄰","STREET":" ","SECT":" ","MAREA":"北門","LANE":" ","ALLEY":" ","HOUSE_NO":"２６號","E_COORD97":160349.19,"N_COORD97":2574387,"ADDRESS":"北門２６號","OBJECTID":215022},"geometry":{"x":160349.19000000134,"y":2574387}},{"attributes":{"ID":215024,"DIS_CODE":0,"TOWNNAME":"北門區","LI":"永隆里","LIN":"2鄰","STREET":" ","SECT":" ","MAREA":"北門","LANE":" ","ALLEY":" ","HOUSE_NO":"２７號","E_COORD97":160353.37,"N_COORD97":2574391.23,"ADDRESS":"北門２７號","OBJECTID":215023},"geometry":{"x":160353.37000000011,"y":2574391.2300000023}},{"attributes":{"ID":215025,"DIS_CODE":0,"TOWNNAME":"北門區","LI":"永隆里","LIN":"2鄰","STREET":" ","SECT":" ","MAREA":"北門","LANE":" ","ALLEY":" ","HOUSE_NO":"２８號","E_COORD97":160357.89000000001,"N_COORD97":2574397.3599999999,"ADDRESS":"北門２８號","OBJECTID":215024},"geometry":{"x":160357.88999999966,"y":2574397.3599999994}},{"attributes":{"ID":215026,"DIS_CODE":0,"TOWNNAME":"南區","LI":"明亮里","LIN":"28鄰","STREET":"金華路","SECT":"一段","MAREA":" ","LANE":"４８４巷","ALLEY":"２４０弄","HOUSE_NO":"１６號","E_COORD97":167422.60999999999,"N_COORD97":2541042.6499999999,"ADDRESS":"金華路一段４８４巷２４０弄１６號","OBJECTID":215025},"geometry":{"x":167422.61000000034,"y":2541042.6500000004}},{"attributes":{"ID":215027,"DIS_CODE":0,"TOWNNAME":"善化區","LI":"什乃里","LIN":"9鄰","STREET":" ","SECT":" ","MAREA":"什乃","LANE":" ","ALLEY":" ","HOUSE_NO":"７４號","E_COORD97":176100.09,"N_COORD97":2560379.25,"ADDRESS":"什乃７４號","OBJECTID":215026},"geometry":{"x":176100.08999999985,"y":2560379.2500000019}},{"attributes":{"ID":215028,"DIS_CODE":0,"TOWNNAME":"南區","LI":"明亮里","LIN":"28鄰","STREET":"金華路","SECT":"一段","MAREA":" ","LANE":"４８４巷","ALLEY":"２４０弄","HOUSE_NO":"１７號","E_COORD97":167423.41,"N_COORD97":2541023.1200000001,"ADDRESS":"金華路一段４８４巷２４０弄１７號","OBJECTID":215027},"geometry":{"x":167423.41000000015,"y":2541023.120000001}},{"attributes":{"ID":215029,"DIS_CODE":0,"TOWNNAME":"南區","LI":"明亮里","LIN":"28鄰","STREET":"金華路","SECT":"一段","MAREA":" ","LANE":"４８４巷","ALLEY":"２４０弄","HOUSE_NO":"１８號","E_COORD97":167417.25,"N_COORD97":2541040.2400000002,"ADDRESS":"金華路一段４８４巷２４０弄１８號","OBJECTID":215028},"geometry":{"x":167417.25000000093,"y":2541040.2400000021}},{"attributes":{"ID":215030,"DIS_CODE":0,"TOWNNAME":"善化區","LI":"六分里","LIN":"9鄰","STREET":" ","SECT":" ","MAREA":"溪底寮","LANE":" ","ALLEY":" ","HOUSE_NO":"２３號","E_COORD97":177556.16,"N_COORD97":2561824.52,"ADDRESS":"溪底寮２３號","OBJECTID":215029},"geometry":{"x":177556.15999999922,"y":2561824.5200000014}},{"attributes":{"ID":215031,"DIS_CODE":0,"TOWNNAME":"善化區","LI":"什乃里","LIN":"9鄰","STREET":" ","SECT":" ","MAREA":"什乃","LANE":" ","ALLEY":" ","HOUSE_NO":"７９號之４","E_COORD97":176184.38,"N_COORD97":2560366.52,"ADDRESS":"什乃７９號之４","OBJECTID":215030},"geometry":{"x":176184.37999999989,"y":2560366.5200000014}},{"attributes":{"ID":215032,"DIS_CODE":0,"TOWNNAME":"善化區","LI":"六分里","LIN":"9鄰","STREET":" ","SECT":" ","MAREA":"溪底寮","LANE":" ","ALLEY":" ","HOUSE_NO":"２５號","E_COORD97":177538.16,"N_COORD97":2561880.52,"ADDRESS":"溪底寮２５號","OBJECTID":215031},"geometry":{"x":177538.16000000108,"y":2561880.5199999977}},{"attributes":{"ID":215033,"DIS_CODE":0,"TOWNNAME":"善化區","LI":"六德里","LIN":"9鄰","STREET":" ","SECT":" ","MAREA":"六分寮","LANE":" ","ALLEY":" ","HOUSE_NO":"２７０號","E_COORD97":178607.5,"N_COORD97":2561667.25,"ADDRESS":"六分寮２７０號","OBJECTID":215032},"geometry":{"x":178607.5,"y":2561667.2500000019}},{"attributes":{"ID":215034,"DIS_CODE":0,"TOWNNAME":"善化區","LI":"什乃里","LIN":"9鄰","STREET":" ","SECT":" ","MAREA":"什乃","LANE":" ","ALLEY":" ","HOUSE_NO":"７９號之１","E_COORD97":176187.82999999999,"N_COORD97":2560348.27,"ADDRESS":"什乃７９號之１","OBJECTID":215033},"geometry":{"x":176187.83000000101,"y":2560348.2700000014}},{"attributes":{"ID":215035,"DIS_CODE":0,"TOWNNAME":"善化區","LI":"田寮里","LIN":"9鄰","STREET":" ","SECT":" ","MAREA":"六分寮","LANE":" ","ALLEY":" ","HOUSE_NO":"１００號之２","E_COORD97":178610.79000000001,"N_COORD97":2561490.02,"ADDRESS":"六分寮１００號之２","OBJECTID":215034},"geometry":{"x":178610.79000000004,"y":2561490.0199999996}},{"attributes":{"ID":215036,"DIS_CODE":0,"TOWNNAME":"南區","LI":"明亮里","LIN":"28鄰","STREET":"金華路","SECT":"一段","MAREA":" ","LANE":"４８４巷","ALLEY":"２４０弄","HOUSE_NO":"１９號","E_COORD97":167419.92999999999,"N_COORD97":2541020.7200000002,"ADDRESS":"金華路一段４８４巷２４０弄１９號","OBJECTID":215035},"geometry":{"x":167419.9299999997,"y":2541020.7200000025}},{"attributes":{"ID":215037,"DIS_CODE":0,"TOWNNAME":"善化區","LI":"六德里","LIN":"9鄰","STREET":" ","SECT":" ","MAREA":"六分寮","LANE":" ","ALLEY":" ","HOUSE_NO":"２７２號","E_COORD97":178566.48000000001,"N_COORD97":2561676.5,"ADDRESS":"六分寮２７２號","OBJECTID":215036},"geometry":{"x":178566.48000000231,"y":2561676.5}},{"attributes":{"ID":215038,"DIS_CODE":0,"TOWNNAME":"善化區","LI":"六德里","LIN":"9鄰","STREET":" ","SECT":" ","MAREA":"六分寮","LANE":" ","ALLEY":" ","HOUSE_NO":"２６９號","E_COORD97":178614.64999999999,"N_COORD97":2561637.75,"ADDRESS":"六分寮２６９號","OBJECTID":215037},"geometry":{"x":178614.6500000013,"y":2561637.75}},{"attributes":{"ID":215039,"DIS_CODE":0,"TOWNNAME":"善化區","LI":"田寮里","LIN":"9鄰","STREET":" ","SECT":" ","MAREA":"六分寮","LANE":" ","ALLEY":" ","HOUSE_NO":"１００號之１","E_COORD97":178604.89999999999,"N_COORD97":2561490.02,"ADDRESS":"六分寮１００號之１","OBJECTID":215038},"geometry":{"x":178604.9000000013,"y":2561490.0199999996}},{"attributes":{"ID":215040,"DIS_CODE":0,"TOWNNAME":"善化區","LI":"胡家里","LIN":"9鄰","STREET":" ","SECT":" ","MAREA":"胡厝寮","LANE":" ","ALLEY":" ","HOUSE_NO":"３５號之３","E_COORD97":175383.04999999999,"N_COORD97":2560466.52,"ADDRESS":"胡厝寮３５號之３","OBJECTID":215039},"geometry":{"x":175383.04999999981,"y":2560466.5199999996}},{"attributes":{"ID":215041,"DIS_CODE":0,"TOWNNAME":"善化區","LI":"田寮里","LIN":"9鄰","STREET":" ","SECT":" ","MAREA":"六分寮","LANE":" ","ALLEY":" ","HOUSE_NO":"１００號之３","E_COORD97":178615,"N_COORD97":2561490.02,"ADDRESS":"六分寮１００號之３","OBJECTID":215040},"geometry":{"x":178615.00000000186,"y":2561490.0199999996}},{"attributes":{"ID":215042,"DIS_CODE":0,"TOWNNAME":"善化區","LI":"六分里","LIN":"9鄰","STREET":" ","SECT":" ","MAREA":"溪底寮","LANE":" ","ALLEY":" ","HOUSE_NO":"２０號之１","E_COORD97":177614.51000000001,"N_COORD97":2561820.52,"ADDRESS":"溪底寮２０號之１","OBJECTID":215041},"geometry":{"x":177614.51000000164,"y":2561820.5200000014}},{"attributes":{"ID":215043,"DIS_CODE":0,"TOWNNAME":"善化區","LI":"六德里","LIN":"9鄰","STREET":" ","SECT":" ","MAREA":"六分寮","LANE":" ","ALLEY":" ","HOUSE_NO":"２７５號","E_COORD97":178614.16,"N_COORD97":2561600.25,"ADDRESS":"六分寮２７５號","OBJECTID":215042},"geometry":{"x":178614.16000000201,"y":2561600.25}},{"attributes":{"ID":215044,"DIS_CODE":0,"TOWNNAME":"善化區","LI":"小新里","LIN":"9鄰","STREET":" ","SECT":" ","MAREA":"小新營","LANE":" ","ALLEY":" ","HOUSE_NO":"７３號之８","E_COORD97":179597.01999999999,"N_COORD97":2558317.27,"ADDRESS":"小新營７３號之８","OBJECTID":215043},"geometry":{"x":179597.01999999955,"y":2558317.2700000014}},{"attributes":{"ID":215045,"DIS_CODE":0,"TOWNNAME":"善化區","LI":"六德里","LIN":"9鄰","STREET":" ","SECT":" ","MAREA":"六分寮","LANE":" ","ALLEY":" ","HOUSE_NO":"２７２號之１","E_COORD97":178563.39000000001,"N_COORD97":2561674.27,"ADDRESS":"六分寮２７２號之１","OBJECTID":215044},"geometry":{"x":178563.3900000006,"y":2561674.2699999996}},{"attributes":{"ID":215046,"DIS_CODE":0,"TOWNNAME":"善化區","LI":"小新里","LIN":"9鄰","STREET":" ","SECT":" ","MAREA":"小新營","LANE":" ","ALLEY":" ","HOUSE_NO":"７３號","E_COORD97":179575.22,"N_COORD97":2558254,"ADDRESS":"小新營７３號","OBJECTID":215045},"geometry":{"x":179575.22000000067,"y":2558254.0000000019}},{"attributes":{"ID":215047,"DIS_CODE":0,"TOWNNAME":"善化區","LI":"小新里","LIN":"9鄰","STREET":" ","SECT":" ","MAREA":"小新營","LANE":" ","ALLEY":" ","HOUSE_NO":"７２號","E_COORD97":179596.76000000001,"N_COORD97":2558265,"ADDRESS":"小新營７２號","OBJECTID":215046},"geometry":{"x":179596.76000000071,"y":2558265.0000000019}},{"attributes":{"ID":215048,"DIS_CODE":0,"TOWNNAME":"善化區","LI":"小新里","LIN":"9鄰","STREET":" ","SECT":" ","MAREA":"小新營","LANE":" ","ALLEY":" ","HOUSE_NO":"７３號之１６","E_COORD97":179538.20999999999,"N_COORD97":2558342.02,"ADDRESS":"小新營７３號之１６","OBJECTID":215047},"geometry":{"x":179538.21000000089,"y":2558342.0200000014}},{"attributes":{"ID":215049,"DIS_CODE":0,"TOWNNAME":"善化區","LI":"小新里","LIN":"9鄰","STREET":" ","SECT":" ","MAREA":"小新營","LANE":" ","ALLEY":" ","HOUSE_NO":"６９號之１","E_COORD97":179677.14999999999,"N_COORD97":2558284.27,"ADDRESS":"小新營６９號之１","OBJECTID":215048},"geometry":{"x":179677.14999999944,"y":2558284.2699999996}},{"attributes":{"ID":215050,"DIS_CODE":0,"TOWNNAME":"善化區","LI":"小新里","LIN":"9鄰","STREET":" ","SECT":" ","MAREA":"小新營","LANE":" ","ALLEY":" ","HOUSE_NO":"６２號","E_COORD97":179645.10999999999,"N_COORD97":2558308.75,"ADDRESS":"小新營６２號","OBJECTID":215049},"geometry":{"x":179645.11000000034,"y":2558308.75}},{"attributes":{"ID":215051,"DIS_CODE":0,"TOWNNAME":"善化區","LI":"小新里","LIN":"9鄰","STREET":" ","SECT":" ","MAREA":"小新營","LANE":" ","ALLEY":" ","HOUSE_NO":"６９號之２","E_COORD97":179672.70999999999,"N_COORD97":2558283.27,"ADDRESS":"小新營６９號之２","OBJECTID":215050},"geometry":{"x":179672.70999999996,"y":2558283.2700000014}},{"attributes":{"ID":215052,"DIS_CODE":0,"TOWNNAME":"善化區","LI":"小新里","LIN":"9鄰","STREET":" ","SECT":" ","MAREA":"小新營","LANE":" ","ALLEY":" ","HOUSE_NO":"７２號之６","E_COORD97":179650.35857400001,"N_COORD97":2558201.7716799998,"ADDRESS":"小新營７２號之６","OBJECTID":215051},"geometry":{"x":179650.35857400112,"y":2558201.7716820017}},{"attributes":{"ID":215053,"DIS_CODE":0,"TOWNNAME":"南區","LI":"明亮里","LIN":"28鄰","STREET":"金華路","SECT":"一段","MAREA":" ","LANE":"４８４巷","ALLEY":"２４０弄","HOUSE_NO":"２０號","E_COORD97":167412.97,"N_COORD97":2541037.5699999998,"ADDRESS":"金華路一段４８４巷２４０弄２０號","OBJECTID":215052},"geometry":{"x":167412.96999999881,"y":2541037.5700000022}},{"attributes":{"ID":215054,"DIS_CODE":0,"TOWNNAME":"東區","LI":"崇德里","LIN":"10鄰","STREET":"崇德路","SECT":" ","MAREA":" ","LANE":" ","ALLEY":" ","HOUSE_NO":"５６１號","E_COORD97":170805.22,"N_COORD97":2541516.9700000002,"ADDRESS":"崇德路５６１號","OBJECTID":215053},"geometry":{"x":170805.2200000016,"y":2541516.9700000025}},{"attributes":{"ID":215055,"DIS_CODE":0,"TOWNNAME":"東區","LI":"文聖里","LIN":"9鄰","STREET":"裕興街","SECT":" ","MAREA":" ","LANE":" ","ALLEY":" ","HOUSE_NO":"９７號","E_COORD97":172118.07000000001,"N_COORD97":2542672.1800000002,"ADDRESS":"裕興街９７號","OBJECTID":215054},"geometry":{"x":172118.0700000003,"y":2542672.1799999997}},{"attributes":{"ID":215056,"DIS_CODE":0,"TOWNNAME":"東區","LI":"裕聖里","LIN":"17鄰","STREET":"裕敬二街","SECT":" ","MAREA":" ","LANE":" ","ALLEY":" ","HOUSE_NO":"８號","E_COORD97":172649.54999999999,"N_COORD97":2542210.8599999999,"ADDRESS":"裕敬二街８號","OBJECTID":215055},"geometry":{"x":172649.55000000075,"y":2542210.8600000031}},{"attributes":{"ID":215057,"DIS_CODE":0,"TOWNNAME":"南區","LI":"明亮里","LIN":"28鄰","STREET":"金華路","SECT":"一段","MAREA":" ","LANE":"４８４巷","ALLEY":"２４０弄","HOUSE_NO":"２１號","E_COORD97":167415.38,"N_COORD97":2541017.5099999998,"ADDRESS":"金華路一段４８４巷２４０弄２１號","OBJECTID":215056},"geometry":{"x":167415.37999999989,"y":2541017.5100000016}},{"attributes":{"ID":215058,"DIS_CODE":0,"TOWNNAME":"南區","LI":"明亮里","LIN":"28鄰","STREET":"金華路","SECT":"一段","MAREA":" ","LANE":"４８４巷","ALLEY":"２４０弄","HOUSE_NO":"２２號","E_COORD97":167407.34,"N_COORD97":2541034.0899999999,"ADDRESS":"金華路一段４８４巷２４０弄２２號","OBJECTID":215057},"geometry":{"x":167407.34000000171,"y":2541034.0900000017}},{"attributes":{"ID":215059,"DIS_CODE":0,"TOWNNAME":"南區","LI":"明亮里","LIN":"28鄰","STREET":"金華路","SECT":"一段","MAREA":" ","LANE":"４８４巷","ALLEY":"２４０弄","HOUSE_NO":"２３號","E_COORD97":167410.56,"N_COORD97":2541016.1699999999,"ADDRESS":"金華路一段４８４巷２４０弄２３號","OBJECTID":215058},"geometry":{"x":167410.55999999866,"y":2541016.1700000018}},{"attributes":{"ID":215060,"DIS_CODE":0,"TOWNNAME":"南區","LI":"明亮里","LIN":"28鄰","STREET":"金華路","SECT":"一段","MAREA":" ","LANE":"４８４巷","ALLEY":"２４０弄","HOUSE_NO":"２４號","E_COORD97":167402.51999999999,"N_COORD97":2541032.4900000002,"ADDRESS":"金華路一段４８４巷２４０弄２４號","OBJECTID":215059},"geometry":{"x":167402.52000000142,"y":2541032.4900000021}},{"attributes":{"ID":215061,"DIS_CODE":0,"TOWNNAME":"南區","LI":"明亮里","LIN":"28鄰","STREET":"金華路","SECT":"一段","MAREA":" ","LANE":"４８４巷","ALLEY":"２４０弄","HOUSE_NO":"２５號","E_COORD97":167405.20000000001,"N_COORD97":2541012.1600000001,"ADDRESS":"金華路一段４８４巷２４０弄２５號","OBJECTID":215060},"geometry":{"x":167405.20000000205,"y":2541012.1600000001}},{"attributes":{"ID":215062,"DIS_CODE":0,"TOWNNAME":"南區","LI":"明亮里","LIN":"28鄰","STREET":"金華路","SECT":"一段","MAREA":" ","LANE":"４８４巷","ALLEY":"２４０弄","HOUSE_NO":"２６號","E_COORD97":167396.35999999999,"N_COORD97":2541029.0099999998,"ADDRESS":"金華路一段４８４巷２４０弄２６號","OBJECTID":215061},"geometry":{"x":167396.36000000127,"y":2541029.0099999998}},{"attributes":{"ID":215063,"DIS_CODE":0,"TOWNNAME":"南區","LI":"明亮里","LIN":"28鄰","STREET":"金華路","SECT":"一段","MAREA":" ","LANE":"４８４巷","ALLEY":"２４０弄","HOUSE_NO":"２７號","E_COORD97":167401.17999999999,"N_COORD97":2541011.3500000001,"ADDRESS":"金華路一段４８４巷２４０弄２７號","OBJECTID":215062},"geometry":{"x":167401.1799999997,"y":2541011.3500000015}},{"attributes":{"ID":215064,"DIS_CODE":0,"TOWNNAME":"南區","LI":"明亮里","LIN":"28鄰","STREET":"金華路","SECT":"一段","MAREA":" ","LANE":"４８４巷","ALLEY":"２４０弄","HOUSE_NO":"２８號","E_COORD97":167391.26999999999,"N_COORD97":2541026.6000000001,"ADDRESS":"金華路一段４８４巷２４０弄２８號","OBJECTID":215063},"geometry":{"x":167391.27000000048,"y":2541026.6000000015}},{"attributes":{"ID":215065,"DIS_CODE":0,"TOWNNAME":"南區","LI":"明亮里","LIN":"28鄰","STREET":"金華路","SECT":"一段","MAREA":" ","LANE":"４８４巷","ALLEY":"２４０弄","HOUSE_NO":"２９號","E_COORD97":167396.35999999999,"N_COORD97":2541007.8799999999,"ADDRESS":"金華路一段４８４巷２４０弄２９號","OBJECTID":215064},"geometry":{"x":167396.36000000127,"y":2541007.8800000008}},{"attributes":{"ID":215066,"DIS_CODE":0,"TOWNNAME":"官田區","LI":"社子里","LIN":"2鄰","STREET":" ","SECT":" ","MAREA":"社子","LANE":" ","ALLEY":" ","HOUSE_NO":"８號之８","E_COORD97":184369,"N_COORD97":2564636.2200000002,"ADDRESS":"社子８號之８","OBJECTID":215065},"geometry":{"x":184369.00000000093,"y":2564636.2200000007}},{"attributes":{"ID":215067,"DIS_CODE":0,"TOWNNAME":"南區","LI":"明亮里","LIN":"28鄰","STREET":"金華路","SECT":"一段","MAREA":" ","LANE":"４８４巷","ALLEY":"２４０弄","HOUSE_NO":"３０號","E_COORD97":167386.98000000001,"N_COORD97":2541023.9300000002,"ADDRESS":"金華路一段４８４巷２４０弄３０號","OBJECTID":215066},"geometry":{"x":167386.98000000138,"y":2541023.9300000034}},{"attributes":{"ID":215068,"DIS_CODE":0,"TOWNNAME":"南區","LI":"明亮里","LIN":"28鄰","STREET":"金華路","SECT":"一段","MAREA":" ","LANE":"４８４巷","ALLEY":"２４０弄","HOUSE_NO":"３１號","E_COORD97":167392.34,"N_COORD97":2541006,"ADDRESS":"金華路一段４８４巷２４０弄３１號","OBJECTID":215067},"geometry":{"x":167392.34000000078,"y":2541006}},{"attributes":{"ID":215069,"DIS_CODE":0,"TOWNNAME":"南區","LI":"明亮里","LIN":"28鄰","STREET":"金華路","SECT":"一段","MAREA":" ","LANE":"４８４巷","ALLEY":"２４０弄","HOUSE_NO":"３２號","E_COORD97":167380.29000000001,"N_COORD97":2541020.7200000002,"ADDRESS":"金華路一段４８４巷２４０弄３２號","OBJECTID":215068},"geometry":{"x":167380.29000000004,"y":2541020.7200000025}},{"attributes":{"ID":215070,"DIS_CODE":0,"TOWNNAME":"南區","LI":"明亮里","LIN":"28鄰","STREET":"金華路","SECT":"一段","MAREA":" ","LANE":"４８４巷","ALLEY":"２４０弄","HOUSE_NO":"３３號","E_COORD97":167386.72,"N_COORD97":2541003.0600000001,"ADDRESS":"金華路一段４８４巷２４０弄３３號","OBJECTID":215069},"geometry":{"x":167386.72000000067,"y":2541003.0600000005}},{"attributes":{"ID":215071,"DIS_CODE":0,"TOWNNAME":"南區","LI":"明亮里","LIN":"28鄰","STREET":"金華路","SECT":"一段","MAREA":" ","LANE":"４８４巷","ALLEY":"２４０弄","HOUSE_NO":"３４號","E_COORD97":167375.47,"N_COORD97":2541017.5099999998,"ADDRESS":"金華路一段４８４巷２４０弄３４號","OBJECTID":215070},"geometry":{"x":167375.46999999974,"y":2541017.5100000016}},{"attributes":{"ID":215072,"DIS_CODE":0,"TOWNNAME":"南區","LI":"明亮里","LIN":"28鄰","STREET":"金華路","SECT":"一段","MAREA":" ","LANE":"４８４巷","ALLEY":"２４０弄","HOUSE_NO":"３５號","E_COORD97":167382.97,"N_COORD97":2541001.1899999999,"ADDRESS":"金華路一段４８４巷２４０弄３５號","OBJECTID":215071},"geometry":{"x":167382.97000000067,"y":2541001.1899999995}},{"attributes":{"ID":215073,"DIS_CODE":0,"TOWNNAME":"南區","LI":"明亮里","LIN":"28鄰","STREET":"金華路","SECT":"一段","MAREA":" ","LANE":"４８４巷","ALLEY":"２４０弄","HOUSE_NO":"３９號","E_COORD97":167374.13,"N_COORD97":2540995.8399999999,"ADDRESS":"金華路一段４８４巷２４０弄３９號","OBJECTID":215072},"geometry":{"x":167374.12999999989,"y":2540995.8400000017}},{"attributes":{"ID":215074,"DIS_CODE":0,"TOWNNAME":"大內區","LI":"頭社里","LIN":"9鄰","STREET":" ","SECT":" ","MAREA":"頭社","LANE":" ","ALLEY":" ","HOUSE_NO":"１１３號","E_COORD97":185952.98999999999,"N_COORD97":2561533.25,"ADDRESS":"頭社１１３號","OBJECTID":215073},"geometry":{"x":185952.99000000022,"y":2561533.25}},{"attributes":{"ID":215075,"DIS_CODE":0,"TOWNNAME":"南區","LI":"明亮里","LIN":"28鄰","STREET":"金華路","SECT":"一段","MAREA":" ","LANE":"４８４巷","ALLEY":"２４０弄","HOUSE_NO":"４１號","E_COORD97":167367.67999999999,"N_COORD97":2540993.5499999998,"ADDRESS":"金華路一段４８４巷２４０弄４１號","OBJECTID":215074},"geometry":{"x":167367.68000000156,"y":2540993.5499999989}},{"attributes":{"ID":215076,"DIS_CODE":0,"TOWNNAME":"東區","LI":"崇成里","LIN":"9鄰","STREET":"崇德十三街","SECT":" ","MAREA":" ","LANE":" ","ALLEY":" ","HOUSE_NO":"４６之１號","E_COORD97":170973.44,"N_COORD97":2541280.25,"ADDRESS":"崇德十三街４６之１號","OBJECTID":215075},"geometry":{"x":170973.44000000041,"y":2541280.2500000019}},{"attributes":{"ID":215077,"DIS_CODE":0,"TOWNNAME":"永康區","LI":"東灣里","LIN":"28鄰","STREET":"民族路","SECT":" ","MAREA":" ","LANE":"１８１巷","ALLEY":"１弄","HOUSE_NO":"５號","E_COORD97":175256.54000000001,"N_COORD97":2544845.0899999999,"ADDRESS":"民族路１８１巷１弄５號","OBJECTID":215076},"geometry":{"x":175256.5400000019,"y":2544845.0900000017}},{"attributes":{"ID":215078,"DIS_CODE":0,"TOWNNAME":"東區","LI":"忠孝里","LIN":"9鄰","STREET":"榮譽街","SECT":" ","MAREA":" ","LANE":" ","ALLEY":" ","HOUSE_NO":"８８之１號","E_COORD97":169766.57999999999,"N_COORD97":2541684.9399999999,"ADDRESS":"榮譽街８８之１號","OBJECTID":215077},"geometry":{"x":169766.58000000007,"y":2541684.9400000032}},{"attributes":{"ID":215079,"DIS_CODE":0,"TOWNNAME":"東區","LI":"忠孝里","LIN":"9鄰","STREET":"榮譽街","SECT":" ","MAREA":" ","LANE":" ","ALLEY":" ","HOUSE_NO":"８８之２號","E_COORD97":169771.04000000001,"N_COORD97":2541689.6099999999,"ADDRESS":"榮譽街８８之２號","OBJECTID":215078},"geometry":{"x":169771.0400000019,"y":2541689.6099999994}},{"attributes":{"ID":215080,"DIS_CODE":0,"TOWNNAME":"安南區","LI":"\u25A0南里","LIN":"28鄰","STREET":"安昌街","SECT":" ","MAREA":" ","LANE":"３００巷","ALLEY":"５１弄","HOUSE_NO":"１５號","E_COORD97":170271.88,"N_COORD97":2552810.6499999999,"ADDRESS":"安昌街３００巷５１弄１５號","OBJECTID":215079},"geometry":{"x":170271.87999999896,"y":2552810.6500000004}},{"attributes":{"ID":215081,"DIS_CODE":0,"TOWNNAME":"大內區","LI":"環湖里","LIN":"9鄰","STREET":" ","SECT":" ","MAREA":"環湖","LANE":" ","ALLEY":" ","HOUSE_NO":"１２０號","E_COORD97":190304.69,"N_COORD97":2560755.25,"ADDRESS":"環湖１２０號","OBJECTID":215080},"geometry":{"x":190304.69000000134,"y":2560755.2500000019}},{"attributes":{"ID":215082,"DIS_CODE":0,"TOWNNAME":"安南區","LI":"\u25A0南里","LIN":"28鄰","STREET":"安昌街","SECT":" ","MAREA":" ","LANE":"３００巷","ALLEY":"５１弄","HOUSE_NO":"１７號","E_COORD97":170266.51000000001,"N_COORD97":2552812.8500000001,"ADDRESS":"安昌街３００巷５１弄１７號","OBJECTID":215081},"geometry":{"x":170266.51000000071,"y":2552812.8500000034}},{"attributes":{"ID":215083,"DIS_CODE":0,"TOWNNAME":"安南區","LI":"\u25A0南里","LIN":"28鄰","STREET":"安昌街","SECT":" ","MAREA":" ","LANE":"３００巷","ALLEY":"５１弄","HOUSE_NO":"１９號","E_COORD97":170262.10000000001,"N_COORD97":2552814.6400000001,"ADDRESS":"安昌街３００巷５１弄１９號","OBJECTID":215082},"geometry":{"x":170262.10000000056,"y":2552814.6400000006}},{"attributes":{"ID":215084,"DIS_CODE":0,"TOWNNAME":"安南區","LI":"\u25A0南里","LIN":"28鄰","STREET":"環福街","SECT":" ","MAREA":" ","LANE":"２２０巷","ALLEY":"２１弄","HOUSE_NO":"１６號","E_COORD97":170253.10000000001,"N_COORD97":2552752.1600000001,"ADDRESS":"環福街２２０巷２１弄１６號","OBJECTID":215083},"geometry":{"x":170253.09999999963,"y":2552752.1600000001}},{"attributes":{"ID":215085,"DIS_CODE":0,"TOWNNAME":"大內區","LI":"石湖里","LIN":"9鄰","STREET":" ","SECT":" ","MAREA":"石子瀨","LANE":" ","ALLEY":" ","HOUSE_NO":"３２０號之１","E_COORD97":183916.60000000001,"N_COORD97":2558356.2999999998,"ADDRESS":"石子瀨３２０號之１","OBJECTID":215084},"geometry":{"x":183916.60000000149,"y":2558356.3000000007}},{"attributes":{"ID":215086,"DIS_CODE":0,"TOWNNAME":"安南區","LI":"\u25A0南里","LIN":"28鄰","STREET":"環福街","SECT":" ","MAREA":" ","LANE":"２２０巷","ALLEY":"２１弄","HOUSE_NO":"６號","E_COORD97":170274.42999999999,"N_COORD97":2552744.29,"ADDRESS":"環福街２２０巷２１弄６號","OBJECTID":215085},"geometry":{"x":170274.4299999997,"y":2552744.2899999991}},{"attributes":{"ID":215087,"DIS_CODE":0,"TOWNNAME":"大內區","LI":"石湖里","LIN":"9鄰","STREET":" ","SECT":" ","MAREA":"石子瀨","LANE":" ","ALLEY":" ","HOUSE_NO":"３２０之２號","E_COORD97":183910.47,"N_COORD97":2558369.2999999998,"ADDRESS":"石子瀨３２０之２號","OBJECTID":215086},"geometry":{"x":183910.46999999974,"y":2558369.3000000026}},{"attributes":{"ID":215088,"DIS_CODE":0,"TOWNNAME":"大內區","LI":"石湖里","LIN":"9鄰","STREET":" ","SECT":" ","MAREA":"石子瀨","LANE":" ","ALLEY":" ","HOUSE_NO":"３１５號","E_COORD97":183896.97,"N_COORD97":2558407.25,"ADDRESS":"石子瀨３１５號","OBJECTID":215087},"geometry":{"x":183896.96999999974,"y":2558407.25}},{"attributes":{"ID":215089,"DIS_CODE":0,"TOWNNAME":"大內區","LI":"石湖里","LIN":"9鄰","STREET":" ","SECT":" ","MAREA":"石子瀨","LANE":" ","ALLEY":" ","HOUSE_NO":"３１２號","E_COORD97":183945.47,"N_COORD97":2558411.25,"ADDRESS":"石子瀨３１２號","OBJECTID":215088},"geometry":{"x":183945.46999999974,"y":2558411.2500000037}},{"attributes":{"ID":215090,"DIS_CODE":0,"TOWNNAME":"永康區","LI":"\u25A0行里","LIN":"9鄰","STREET":"中正路","SECT":" ","MAREA":" ","LANE":" ","ALLEY":" ","HOUSE_NO":"３４３號","E_COORD97":172470.26999999999,"N_COORD97":2548327.5699999998,"ADDRESS":"中正路３４３號","OBJECTID":215089},"geometry":{"x":172470.26999999955,"y":2548327.5700000022}},{"attributes":{"ID":215091,"DIS_CODE":0,"TOWNNAME":"麻豆區","LI":"油車里","LIN":"9鄰","STREET":" ","SECT":" ","MAREA":"油車","LANE":" ","ALLEY":" ","HOUSE_NO":"５５號","E_COORD97":172727.59,"N_COORD97":2565640.46,"ADDRESS":"油車５５號","OBJECTID":215090},"geometry":{"x":172727.59000000078,"y":2565640.4600000028}},{"attributes":{"ID":215092,"DIS_CODE":0,"TOWNNAME":"麻豆區","LI":"安正里","LIN":"9鄰","STREET":" ","SECT":" ","MAREA":"社子","LANE":" ","ALLEY":" ","HOUSE_NO":"２２號","E_COORD97":172019.97,"N_COORD97":2562295.5099999998,"ADDRESS":"社子２２號","OBJECTID":215091},"geometry":{"x":172019.96999999974,"y":2562295.5100000016}},{"attributes":{"ID":215093,"DIS_CODE":0,"TOWNNAME":"麻豆區","LI":"安正里","LIN":"9鄰","STREET":" ","SECT":" ","MAREA":"社子","LANE":" ","ALLEY":" ","HOUSE_NO":"２４號","E_COORD97":172014.95999999999,"N_COORD97":2562318.6200000001,"ADDRESS":"社子２４號","OBJECTID":215092},"geometry":{"x":172014.96000000089,"y":2562318.620000001}},{"attributes":{"ID":215094,"DIS_CODE":0,"TOWNNAME":"麻豆區","LI":"安正里","LIN":"9鄰","STREET":" ","SECT":" ","MAREA":"社子","LANE":" ","ALLEY":" ","HOUSE_NO":"２５號之１","E_COORD97":171993.67000000001,"N_COORD97":2562339.21,"ADDRESS":"社子２５號之１","OBJECTID":215093},"geometry":{"x":171993.66999999993,"y":2562339.2100000028}},{"attributes":{"ID":215095,"DIS_CODE":0,"TOWNNAME":"麻豆區","LI":"安正里","LIN":"9鄰","STREET":" ","SECT":" ","MAREA":"社子","LANE":" ","ALLEY":" ","HOUSE_NO":"２５號","E_COORD97":172016.23000000001,"N_COORD97":2562340.8199999998,"ADDRESS":"社子２５號","OBJECTID":215094},"geometry":{"x":172016.23000000231,"y":2562340.820000004}},{"attributes":{"ID":215096,"DIS_CODE":0,"TOWNNAME":"麻豆區","LI":"安正里","LIN":"9鄰","STREET":" ","SECT":" ","MAREA":"社子","LANE":" ","ALLEY":" ","HOUSE_NO":"２６號之１","E_COORD97":172045.75,"N_COORD97":2562323.8999999999,"ADDRESS":"社子２６號之１","OBJECTID":215095},"geometry":{"x":172045.75,"y":2562323.9000000022}},{"attributes":{"ID":215097,"DIS_CODE":0,"TOWNNAME":"麻豆區","LI":"安正里","LIN":"9鄰","STREET":" ","SECT":" ","MAREA":"社子","LANE":" ","ALLEY":" ","HOUSE_NO":"２６號之２","E_COORD97":172043.79999999999,"N_COORD97":2562348.1699999999,"ADDRESS":"社子２６號之２","OBJECTID":215096},"geometry":{"x":172043.79999999888,"y":2562348.1700000037}},{"attributes":{"ID":215098,"DIS_CODE":0,"TOWNNAME":"仁德區","LI":"上崙里","LIN":"28鄰","STREET":"中正路","SECT":"一段","MAREA":" ","LANE":"６６２巷","ALLEY":"２弄","HOUSE_NO":"１１號","E_COORD97":172895.04000000001,"N_COORD97":2537528.7799999998,"ADDRESS":"中正路一段６６２巷２弄１１號","OBJECTID":215097},"geometry":{"x":172895.04000000004,"y":2537528.7799999993}},{"attributes":{"ID":215099,"DIS_CODE":0,"TOWNNAME":"仁德區","LI":"上崙里","LIN":"28鄰","STREET":"中正路","SECT":"一段","MAREA":" ","LANE":"６６２巷","ALLEY":"２弄","HOUSE_NO":"１７號","E_COORD97":172896.85999999999,"N_COORD97":2537516.2799999998,"ADDRESS":"中正路一段６６２巷２弄１７號","OBJECTID":215098},"geometry":{"x":172896.86000000127,"y":2537516.2800000012}},{"attributes":{"ID":215100,"DIS_CODE":0,"TOWNNAME":"永康區","LI":"\u25A0行里","LIN":"9鄰","STREET":"中正路","SECT":" ","MAREA":" ","LANE":" ","ALLEY":" ","HOUSE_NO":"３２１號","E_COORD97":172548.67999999999,"N_COORD97":2548319,"ADDRESS":"中正路３２１號","OBJECTID":215099},"geometry":{"x":172548.68000000063,"y":2548319}},{"attributes":{"ID":215101,"DIS_CODE":0,"TOWNNAME":"仁德區","LI":"上崙里","LIN":"28鄰","STREET":"中正路","SECT":"一段","MAREA":" ","LANE":"６６２巷","ALLEY":"２弄","HOUSE_NO":"９號","E_COORD97":172892.98999999999,"N_COORD97":2537532.7799999998,"ADDRESS":"中正路一段６６２巷２弄９號","OBJECTID":215100},"geometry":{"x":172892.99000000115,"y":2537532.7800000012}},{"attributes":{"ID":215102,"DIS_CODE":0,"TOWNNAME":"仁德區","LI":"上崙里","LIN":"28鄰","STREET":"中正路","SECT":"一段","MAREA":" ","LANE":"６６２巷","ALLEY":"２弄","HOUSE_NO":"１９號","E_COORD97":172897.79000000001,"N_COORD97":2537512.0299999998,"ADDRESS":"中正路一段６６２巷２弄１９號","OBJECTID":215101},"geometry":{"x":172897.79000000004,"y":2537512.0300000012}},{"attributes":{"ID":215103,"DIS_CODE":0,"TOWNNAME":"仁德區","LI":"上崙里","LIN":"28鄰","STREET":"中正路","SECT":"一段","MAREA":" ","LANE":"６６２巷","ALLEY":"２弄","HOUSE_NO":"７號","E_COORD97":172892.39999999999,"N_COORD97":2537537.0299999998,"ADDRESS":"中正路一段６６２巷２弄７號","OBJECTID":215102},"geometry":{"x":172892.40000000037,"y":2537537.0299999993}},{"attributes":{"ID":215104,"DIS_CODE":0,"TOWNNAME":"麻豆區","LI":"安正里","LIN":"9鄰","STREET":" ","SECT":" ","MAREA":"社子","LANE":" ","ALLEY":" ","HOUSE_NO":"２６號之５","E_COORD97":172035.72,"N_COORD97":2562320.23,"ADDRESS":"社子２６號之５","OBJECTID":215103},"geometry":{"x":172035.71999999974,"y":2562320.2300000004}},{"attributes":{"ID":215105,"DIS_CODE":0,"TOWNNAME":"永康區","LI":"\u25A0行里","LIN":"9鄰","STREET":"中正路","SECT":" ","MAREA":" ","LANE":" ","ALLEY":" ","HOUSE_NO":"４０３號之５","E_COORD97":172343.26000000001,"N_COORD97":2548379.9300000002,"ADDRESS":"中正路４０３號之５","OBJECTID":215104},"geometry":{"x":172343.26000000071,"y":2548379.9299999997}},{"attributes":{"ID":215106,"DIS_CODE":0,"TOWNNAME":"仁德區","LI":"上崙里","LIN":"28鄰","STREET":"中正路","SECT":"一段","MAREA":" ","LANE":"６６２巷","ALLEY":"２弄","HOUSE_NO":"１３號","E_COORD97":172895.69,"N_COORD97":2537524.5299999998,"ADDRESS":"中正路一段６６２巷２弄１３號","OBJECTID":215105},"geometry":{"x":172895.69000000041,"y":2537524.5300000012}},{"attributes":{"ID":215107,"DIS_CODE":0,"TOWNNAME":"永康區","LI":"\u25A0行里","LIN":"9鄰","STREET":"中正路","SECT":" ","MAREA":" ","LANE":" ","ALLEY":" ","HOUSE_NO":"３８５號","E_COORD97":172426.23999999999,"N_COORD97":2548447.1299999999,"ADDRESS":"中正路３８５號","OBJECTID":215106},"geometry":{"x":172426.24000000209,"y":2548447.1300000008}},{"attributes":{"ID":215108,"DIS_CODE":0,"TOWNNAME":"永康區","LI":"\u25A0行里","LIN":"9鄰","STREET":"中正路","SECT":" ","MAREA":" ","LANE":" ","ALLEY":" ","HOUSE_NO":"３９３號","E_COORD97":172412.20999999999,"N_COORD97":2548461.54,"ADDRESS":"中正路３９３號","OBJECTID":215107},"geometry":{"x":172412.20999999996,"y":2548461.540000001}},{"attributes":{"ID":215109,"DIS_CODE":0,"TOWNNAME":"麻豆區","LI":"安正里","LIN":"9鄰","STREET":" ","SECT":" ","MAREA":"社子","LANE":" ","ALLEY":" ","HOUSE_NO":"２６號","E_COORD97":172061.14999999999,"N_COORD97":2562393.6299999999,"ADDRESS":"社子２６號","OBJECTID":215108},"geometry":{"x":172061.1500000013,"y":2562393.629999999}},{"attributes":{"ID":215110,"DIS_CODE":0,"TOWNNAME":"永康區","LI":"\u25A0行里","LIN":"9鄰","STREET":"中正路","SECT":" ","MAREA":" ","LANE":" ","ALLEY":" ","HOUSE_NO":"４０３號之１","E_COORD97":172360.97,"N_COORD97":2548447.73,"ADDRESS":"中正路４０３號之１","OBJECTID":215109},"geometry":{"x":172360.96999999974,"y":2548447.7300000042}},{"attributes":{"ID":215111,"DIS_CODE":0,"TOWNNAME":"北門區","LI":"永隆里","LIN":"2鄰","STREET":" ","SECT":" ","MAREA":"北門","LANE":" ","ALLEY":" ","HOUSE_NO":"２９號","E_COORD97":160366.10999999999,"N_COORD97":2574406.1400000001,"ADDRESS":"北門２９號","OBJECTID":215110},"geometry":{"x":160366.11000000127,"y":2574406.1400000025}},{"attributes":{"ID":215112,"DIS_CODE":0,"TOWNNAME":"北門區","LI":"永隆里","LIN":"2鄰","STREET":" ","SECT":" ","MAREA":"北門","LANE":" ","ALLEY":" ","HOUSE_NO":"３０號","E_COORD97":160382.94,"N_COORD97":2574411.2400000002,"ADDRESS":"北門３０號","OBJECTID":215111},"geometry":{"x":160382.94000000134,"y":2574411.2400000021}},{"attributes":{"ID":215113,"DIS_CODE":0,"TOWNNAME":"北門區","LI":"永隆里","LIN":"2鄰","STREET":" ","SECT":" ","MAREA":"北門","LANE":" ","ALLEY":" ","HOUSE_NO":"３１號","E_COORD97":160341.48000000001,"N_COORD97":2574460.3199999998,"ADDRESS":"北門３１號","OBJECTID":215112},"geometry":{"x":160341.48000000231,"y":2574460.3200000003}},{"attributes":{"ID":215114,"DIS_CODE":0,"TOWNNAME":"北門區","LI":"永隆里","LIN":"2鄰","STREET":" ","SECT":" ","MAREA":"北門","LANE":" ","ALLEY":" ","HOUSE_NO":"３５號","E_COORD97":160333.64000000001,"N_COORD97":2574412.8100000001,"ADDRESS":"北門３５號","OBJECTID":215113},"geometry":{"x":160333.63999999966,"y":2574412.8100000005}},{"attributes":{"ID":215115,"DIS_CODE":0,"TOWNNAME":"北門區","LI":"永隆里","LIN":"2鄰","STREET":" ","SECT":" ","MAREA":"北門","LANE":" ","ALLEY":" ","HOUSE_NO":"３６號","E_COORD97":160331.69,"N_COORD97":2574403.21,"ADDRESS":"北門３６號","OBJECTID":215114},"geometry":{"x":160331.69000000134,"y":2574403.2100000028}},{"attributes":{"ID":215116,"DIS_CODE":0,"TOWNNAME":"北門區","LI":"永隆里","LIN":"2鄰","STREET":" ","SECT":" ","MAREA":"北門","LANE":" ","ALLEY":" ","HOUSE_NO":"３７號","E_COORD97":160306.60999999999,"N_COORD97":2574386.9100000001,"ADDRESS":"北門３７號","OBJECTID":215115},"geometry":{"x":160306.6100000022,"y":2574386.910000002}},{"attributes":{"ID":215117,"DIS_CODE":0,"TOWNNAME":"北門區","LI":"永隆里","LIN":"2鄰","STREET":" ","SECT":" ","MAREA":"北門","LANE":" ","ALLEY":" ","HOUSE_NO":"３９號","E_COORD97":160326.12,"N_COORD97":2574378.4199999999,"ADDRESS":"北門３９號","OBJECTID":215116},"geometry":{"x":160326.12000000011,"y":2574378.4199999999}},{"attributes":{"ID":215118,"DIS_CODE":0,"TOWNNAME":"永康區","LI":"蔦松里","LIN":"9鄰","STREET":"中正北路","SECT":" ","MAREA":" ","LANE":" ","ALLEY":" ","HOUSE_NO":"８３１號","E_COORD97":174644.57000000001,"N_COORD97":2549879.9900000002,"ADDRESS":"中正北路８３１號","OBJECTID":215117},"geometry":{"x":174644.56999999937,"y":2549879.9900000039}},{"attributes":{"ID":215119,"DIS_CODE":0,"TOWNNAME":"永康區","LI":"蔦松里","LIN":"9鄰","STREET":"正北三路","SECT":" ","MAREA":" ","LANE":" ","ALLEY":" ","HOUSE_NO":"１３２號","E_COORD97":174393.89999999999,"N_COORD97":2550039,"ADDRESS":"正北三路１３２號","OBJECTID":215118},"geometry":{"x":174393.9000000013,"y":2550039.0000000037}},{"attributes":{"ID":215120,"DIS_CODE":0,"TOWNNAME":"永康區","LI":"蔦松里","LIN":"9鄰","STREET":"中正北路","SECT":" ","MAREA":" ","LANE":" ","ALLEY":" ","HOUSE_NO":"８５０號","E_COORD97":175143.04000000001,"N_COORD97":2550224.9900000002,"ADDRESS":"中正北路８５０號","OBJECTID":215119},"geometry":{"x":175143.0400000019,"y":2550224.9900000002}},{"attributes":{"ID":215121,"DIS_CODE":0,"TOWNNAME":"永康區","LI":"蔦松里","LIN":"9鄰","STREET":"正北三路","SECT":" ","MAREA":" ","LANE":" ","ALLEY":" ","HOUSE_NO":"１４２號","E_COORD97":174363.64999999999,"N_COORD97":2550073.75,"ADDRESS":"正北三路１４２號","OBJECTID":215120},"geometry":{"x":174363.6500000013,"y":2550073.75}},{"attributes":{"ID":215122,"DIS_CODE":0,"TOWNNAME":"永康區","LI":"蔦松里","LIN":"9鄰","STREET":"中正北路","SECT":" ","MAREA":" ","LANE":" ","ALLEY":" ","HOUSE_NO":"８２５號","E_COORD97":174512.70999999999,"N_COORD97":2549721.9199999999,"ADDRESS":"中正北路８２５號","OBJECTID":215121},"geometry":{"x":174512.70999999996,"y":2549721.9200000018}},{"attributes":{"ID":215123,"DIS_CODE":0,"TOWNNAME":"仁德區","LI":"上崙里","LIN":"28鄰","STREET":"中正路","SECT":"一段","MAREA":" ","LANE":"６６２巷","ALLEY":"２弄","HOUSE_NO":"２１號","E_COORD97":172898.82999999999,"N_COORD97":2537508.0299999998,"ADDRESS":"中正路一段６６２巷２弄２１號","OBJECTID":215122},"geometry":{"x":172898.83000000101,"y":2537508.0300000012}},{"attributes":{"ID":215124,"DIS_CODE":0,"TOWNNAME":"永康區","LI":"中華里","LIN":"6鄰","STREET":"小東路","SECT":" ","MAREA":" ","LANE":"６４７巷","ALLEY":"４２弄","HOUSE_NO":"１２號","E_COORD97":172013.37,"N_COORD97":2544516.46,"ADDRESS":"小東路６４７巷４２弄１２號","OBJECTID":215123},"geometry":{"x":172013.37000000104,"y":2544516.4600000009}},{"attributes":{"ID":215125,"DIS_CODE":0,"TOWNNAME":"仁德區","LI":"上崙里","LIN":"28鄰","STREET":"中正路","SECT":"一段","MAREA":" ","LANE":"６６２巷","ALLEY":"２弄","HOUSE_NO":"３號","E_COORD97":172892.45000000001,"N_COORD97":2537545.7799999998,"ADDRESS":"中正路一段６６２巷２弄３號","OBJECTID":215124},"geometry":{"x":172892.44999999925,"y":2537545.7799999975}},{"attributes":{"ID":215126,"DIS_CODE":0,"TOWNNAME":"永康區","LI":"蔦松里","LIN":"9鄰","STREET":"正北三路","SECT":" ","MAREA":" ","LANE":" ","ALLEY":" ","HOUSE_NO":"１２８號","E_COORD97":174407.01000000001,"N_COORD97":2550023.2400000002,"ADDRESS":"正北三路１２８號","OBJECTID":215125},"geometry":{"x":174407.00999999978,"y":2550023.2400000002}},{"attributes":{"ID":215127,"DIS_CODE":0,"TOWNNAME":"永康區","LI":"蔦松里","LIN":"9鄰","STREET":"正北三路","SECT":" ","MAREA":" ","LANE":" ","ALLEY":" ","HOUSE_NO":"１４６號","E_COORD97":174358.45000000001,"N_COORD97":2550079.75,"ADDRESS":"正北三路１４６號","OBJECTID":215126},"geometry":{"x":174358.45000000019,"y":2550079.75}},{"attributes":{"ID":215128,"DIS_CODE":0,"TOWNNAME":"仁德區","LI":"上崙里","LIN":"28鄰","STREET":"中正路","SECT":"一段","MAREA":" ","LANE":"６６２巷","ALLEY":"２弄","HOUSE_NO":"５號","E_COORD97":172894.44,"N_COORD97":2537542.2799999998,"ADDRESS":"中正路一段６６２巷２弄５號","OBJECTID":215127},"geometry":{"x":172894.43999999948,"y":2537542.2799999993}},{"attributes":{"ID":215129,"DIS_CODE":0,"TOWNNAME":"永康區","LI":"埔園里","LIN":" ","STREET":"八德街","SECT":" ","MAREA":" ","LANE":"３２６巷","ALLEY":"２９弄","HOUSE_NO":"２５號","E_COORD97":173593.79000000001,"N_COORD97":2548713.5899999999,"ADDRESS":"八德街３２６巷２９弄２５號","OBJECTID":215128},"geometry":{"x":173593.79000000097,"y":2548713.5900000017}},{"attributes":{"ID":215130,"DIS_CODE":0,"TOWNNAME":"永康區","LI":"復興里","LIN":" ","STREET":"復興路","SECT":" ","MAREA":" ","LANE":"２７７巷","ALLEY":"９４弄","HOUSE_NO":"８之１號","E_COORD97":172333.20000000001,"N_COORD97":2544022.1600000001,"ADDRESS":"復興路２７７巷９４弄８之１號","OBJECTID":215129},"geometry":{"x":172333.20000000205,"y":2544022.1600000001}},{"attributes":{"ID":215131,"DIS_CODE":0,"TOWNNAME":"新營區","LI":"新南里","LIN":"22鄰","STREET":"復興路","SECT":" ","MAREA":" ","LANE":"６２０巷","ALLEY":"１６弄","HOUSE_NO":"８５號","E_COORD97":178124.04000000001,"N_COORD97":2578372.3900000001,"ADDRESS":"復興路６２０巷１６弄８５號","OBJECTID":215130},"geometry":{"x":178124.04000000004,"y":2578372.3900000006}},{"attributes":{"ID":215132,"DIS_CODE":0,"TOWNNAME":"永康區","LI":"蔦松里","LIN":"9鄰","STREET":"中正北路","SECT":" ","MAREA":" ","LANE":" ","ALLEY":" ","HOUSE_NO":"７３５號","E_COORD97":174401.04999999999,"N_COORD97":2549647.5,"ADDRESS":"中正北路７３５號","OBJECTID":215131},"geometry":{"x":174401.05000000075,"y":2549647.5}},{"attributes":{"ID":215133,"DIS_CODE":0,"TOWNNAME":"新營區","LI":"新南里","LIN":"22鄰","STREET":"復興路","SECT":" ","MAREA":" ","LANE":"６２０巷","ALLEY":"１６弄","HOUSE_NO":"１３號","E_COORD97":178070.84,"N_COORD97":2578384.8300000001,"ADDRESS":"復興路６２０巷１６弄１３號","OBJECTID":215132},"geometry":{"x":178070.84000000078,"y":2578384.8300000019}},{"attributes":{"ID":215134,"DIS_CODE":0,"TOWNNAME":"永康區","LI":"\u25A0洲里","LIN":"18鄰","STREET":"中正南路","SECT":" ","MAREA":" ","LANE":"７７９巷","ALLEY":"２弄","HOUSE_NO":"１４號","E_COORD97":171721.98999999999,"N_COORD97":2549045.7400000002,"ADDRESS":"中正南路７７９巷２弄１４號","OBJECTID":215133},"geometry":{"x":171721.99000000022,"y":2549045.7400000002}},{"attributes":{"ID":215135,"DIS_CODE":0,"TOWNNAME":"北門區","LI":"保吉里","LIN":"2鄰","STREET":" ","SECT":" ","MAREA":"蚵寮","LANE":" ","ALLEY":" ","HOUSE_NO":"２０號","E_COORD97":161468.22,"N_COORD97":2575712.7200000002,"ADDRESS":"蚵寮２０號","OBJECTID":215134},"geometry":{"x":161468.22000000067,"y":2575712.7200000007}},{"attributes":{"ID":215136,"DIS_CODE":0,"TOWNNAME":"北門區","LI":"保吉里","LIN":"2鄰","STREET":" ","SECT":" ","MAREA":"蚵寮","LANE":" ","ALLEY":" ","HOUSE_NO":"２１號","E_COORD97":161469.29000000001,"N_COORD97":2575698,"ADDRESS":"蚵寮２１號","OBJECTID":215135},"geometry":{"x":161469.29000000004,"y":2575698.0000000019}},{"attributes":{"ID":215137,"DIS_CODE":0,"TOWNNAME":"北門區","LI":"保吉里","LIN":"2鄰","STREET":" ","SECT":" ","MAREA":"蚵寮","LANE":" ","ALLEY":" ","HOUSE_NO":"２２號","E_COORD97":161471.63,"N_COORD97":2575690.29,"ADDRESS":"蚵寮２２號","OBJECTID":215136},"geometry":{"x":161471.62999999989,"y":2575690.2899999991}},{"attributes":{"ID":215138,"DIS_CODE":0,"TOWNNAME":"北門區","LI":"保吉里","LIN":"2鄰","STREET":" ","SECT":" ","MAREA":"蚵寮","LANE":" ","ALLEY":" ","HOUSE_NO":"２３號","E_COORD97":161484.44,"N_COORD97":2575681.6200000001,"ADDRESS":"蚵寮２３號","OBJECTID":215137},"geometry":{"x":161484.44000000134,"y":2575681.6200000029}},{"attributes":{"ID":215139,"DIS_CODE":0,"TOWNNAME":"北門區","LI":"保吉里","LIN":"2鄰","STREET":" ","SECT":" ","MAREA":"蚵寮","LANE":" ","ALLEY":" ","HOUSE_NO":"２４號","E_COORD97":161482.76999999999,"N_COORD97":2575648.1299999999,"ADDRESS":"蚵寮２４號","OBJECTID":215138},"geometry":{"x":161482.77000000142,"y":2575648.1300000008}},{"attributes":{"ID":215140,"DIS_CODE":0,"TOWNNAME":"北門區","LI":"保吉里","LIN":"2鄰","STREET":" ","SECT":" ","MAREA":"蚵寮","LANE":" ","ALLEY":" ","HOUSE_NO":"１７號","E_COORD97":161458.92999999999,"N_COORD97":2575744.3300000001,"ADDRESS":"蚵寮１７號","OBJECTID":215139},"geometry":{"x":161458.93000000063,"y":2575744.3300000001}},{"attributes":{"ID":215141,"DIS_CODE":0,"TOWNNAME":"北門區","LI":"東壁里","LIN":"2鄰","STREET":" ","SECT":" ","MAREA":"蚵寮","LANE":" ","ALLEY":" ","HOUSE_NO":"５６４號","E_COORD97":161670.13,"N_COORD97":2576457.3399999999,"ADDRESS":"蚵寮５６４號","OBJECTID":215140},"geometry":{"x":161670.12999999989,"y":2576457.339999998}},{"attributes":{"ID":215142,"DIS_CODE":0,"TOWNNAME":"北門區","LI":"東壁里","LIN":"2鄰","STREET":" ","SECT":" ","MAREA":"蚵寮","LANE":" ","ALLEY":" ","HOUSE_NO":"５６５號","E_COORD97":161674.23999999999,"N_COORD97":2576440.6899999999,"ADDRESS":"蚵寮５６５號","OBJECTID":215141},"geometry":{"x":161674.24000000115,"y":2576440.6899999995}},{"attributes":{"ID":215143,"DIS_CODE":0,"TOWNNAME":"北門區","LI":"東壁里","LIN":"2鄰","STREET":" ","SECT":" ","MAREA":"蚵寮","LANE":" ","ALLEY":" ","HOUSE_NO":"５６６號","E_COORD97":161651.38,"N_COORD97":2576439.8900000001,"ADDRESS":"蚵寮５６６號","OBJECTID":215142},"geometry":{"x":161651.37999999989,"y":2576439.8900000006}},{"attributes":{"ID":215144,"DIS_CODE":0,"TOWNNAME":"北門區","LI":"東壁里","LIN":"2鄰","STREET":" ","SECT":" ","MAREA":"蚵寮","LANE":" ","ALLEY":" ","HOUSE_NO":"５６８之５號","E_COORD97":161623.45000000001,"N_COORD97":2576453.29,"ADDRESS":"蚵寮５６８之５號","OBJECTID":215143},"geometry":{"x":161623.45000000112,"y":2576453.2899999991}},{"attributes":{"ID":215145,"DIS_CODE":0,"TOWNNAME":"北門區","LI":"東壁里","LIN":"2鄰","STREET":" ","SECT":" ","MAREA":"蚵寮","LANE":" ","ALLEY":" ","HOUSE_NO":"５６８號","E_COORD97":161638.20999999999,"N_COORD97":2576434.2999999998,"ADDRESS":"蚵寮５６８號","OBJECTID":215144},"geometry":{"x":161638.21000000089,"y":2576434.3000000007}},{"attributes":{"ID":215146,"DIS_CODE":0,"TOWNNAME":"北門區","LI":"東壁里","LIN":"2鄰","STREET":" ","SECT":" ","MAREA":"蚵寮","LANE":" ","ALLEY":" ","HOUSE_NO":"５６９號","E_COORD97":161615.04000000001,"N_COORD97":2576417.4700000002,"ADDRESS":"蚵寮５６９號","OBJECTID":215145},"geometry":{"x":161615.04000000004,"y":2576417.4700000025}},{"attributes":{"ID":215147,"DIS_CODE":0,"TOWNNAME":"北門區","LI":"東壁里","LIN":"2鄰","STREET":" ","SECT":" ","MAREA":"蚵寮","LANE":" ","ALLEY":" ","HOUSE_NO":"５７０之３號","E_COORD97":161604.20999999999,"N_COORD97":2576439.4900000002,"ADDRESS":"蚵寮５７０之３號","OBJECTID":215146},"geometry":{"x":161604.21000000089,"y":2576439.4900000002}},{"attributes":{"ID":215148,"DIS_CODE":0,"TOWNNAME":"北門區","LI":"東壁里","LIN":"2鄰","STREET":" ","SECT":" ","MAREA":"蚵寮","LANE":" ","ALLEY":" ","HOUSE_NO":"５７０號","E_COORD97":161612.12,"N_COORD97":2576428.5,"ADDRESS":"蚵寮５７０號","OBJECTID":215147},"geometry":{"x":161612.12000000104,"y":2576428.5}},{"attributes":{"ID":215149,"DIS_CODE":0,"TOWNNAME":"北門區","LI":"東壁里","LIN":"2鄰","STREET":" ","SECT":" ","MAREA":"蚵寮","LANE":" ","ALLEY":" ","HOUSE_NO":"５７１號","E_COORD97":161602.56,"N_COORD97":2576463.8999999999,"ADDRESS":"蚵寮５７１號","OBJECTID":215148},"geometry":{"x":161602.55999999959,"y":2576463.9000000004}},{"attributes":{"ID":215150,"DIS_CODE":0,"TOWNNAME":"麻豆區","LI":"巷口里","LIN":"9鄰","STREET":"建南街","SECT":" ","MAREA":" ","LANE":" ","ALLEY":" ","HOUSE_NO":"１２４號","E_COORD97":173287.35000000001,"N_COORD97":2564253.5,"ADDRESS":"建南街１２４號","OBJECTID":215149},"geometry":{"x":173287.34999999963,"y":2564253.5}},{"attributes":{"ID":215151,"DIS_CODE":0,"TOWNNAME":"麻豆區","LI":"巷口里","LIN":"9鄰","STREET":"建南街","SECT":" ","MAREA":" ","LANE":" ","ALLEY":" ","HOUSE_NO":"１２６號","E_COORD97":173291.32999999999,"N_COORD97":2564253.8100000001,"ADDRESS":"建南街１２６號","OBJECTID":215150},"geometry":{"x":173291.33000000007,"y":2564253.8100000024}},{"attributes":{"ID":215152,"DIS_CODE":0,"TOWNNAME":"麻豆區","LI":"巷口里","LIN":"9鄰","STREET":"建南街","SECT":" ","MAREA":" ","LANE":" ","ALLEY":" ","HOUSE_NO":"１２８號","E_COORD97":173295.31,"N_COORD97":2564254.2200000002,"ADDRESS":"建南街１２８號","OBJECTID":215151},"geometry":{"x":173295.31000000052,"y":2564254.2200000025}},{"attributes":{"ID":215153,"DIS_CODE":0,"TOWNNAME":"仁德區","LI":"中洲里","LIN":"9鄰","STREET":" ","SECT":" ","MAREA":"中洲","LANE":" ","ALLEY":" ","HOUSE_NO":"３０６號之３","E_COORD97":173430.89000000001,"N_COORD97":2533876.5499999998,"ADDRESS":"中洲３０６號之３","OBJECTID":215152},"geometry":{"x":173430.88999999966,"y":2533876.5500000007}},{"attributes":{"ID":215154,"DIS_CODE":0,"TOWNNAME":"仁德區","LI":"中生里","LIN":"9鄰","STREET":" ","SECT":" ","MAREA":"中洲","LANE":" ","ALLEY":" ","HOUSE_NO":"１６８號","E_COORD97":173177.89999999999,"N_COORD97":2534103.5,"ADDRESS":"中洲１６８號","OBJECTID":215153},"geometry":{"x":173177.90000000224,"y":2534103.5}},{"attributes":{"ID":215155,"DIS_CODE":0,"TOWNNAME":"仁德區","LI":"中洲里","LIN":"9鄰","STREET":" ","SECT":" ","MAREA":"中洲","LANE":" ","ALLEY":" ","HOUSE_NO":"２９７號","E_COORD97":173368,"N_COORD97":2533905.25,"ADDRESS":"中洲２９７號","OBJECTID":215154},"geometry":{"x":173368,"y":2533905.25}},{"attributes":{"ID":215156,"DIS_CODE":0,"TOWNNAME":"北門區","LI":"東壁里","LIN":"2鄰","STREET":" ","SECT":" ","MAREA":"蚵寮","LANE":" ","ALLEY":" ","HOUSE_NO":"５７２號","E_COORD97":161594.32999999999,"N_COORD97":2576468.1400000001,"ADDRESS":"蚵寮５７２號","OBJECTID":215155},"geometry":{"x":161594.33000000007,"y":2576468.1400000025}},{"attributes":{"ID":215157,"DIS_CODE":0,"TOWNNAME":"北門區","LI":"東壁里","LIN":"2鄰","STREET":" ","SECT":" ","MAREA":"蚵寮","LANE":" ","ALLEY":" ","HOUSE_NO":"５７３號","E_COORD97":161592.91,"N_COORD97":2576476.0499999998,"ADDRESS":"蚵寮５７３號","OBJECTID":215156},"geometry":{"x":161592.91000000108,"y":2576476.0500000007}},{"attributes":{"ID":215158,"DIS_CODE":0,"TOWNNAME":"麻豆區","LI":"巷口里","LIN":"9鄰","STREET":"建南街","SECT":" ","MAREA":" ","LANE":" ","ALLEY":" ","HOUSE_NO":"１３０號","E_COORD97":173299.39000000001,"N_COORD97":2564254.8900000001,"ADDRESS":"建南街１３０號","OBJECTID":215157},"geometry":{"x":173299.39000000153,"y":2564254.8900000006}},{"attributes":{"ID":215159,"DIS_CODE":0,"TOWNNAME":"麻豆區","LI":"巷口里","LIN":"9鄰","STREET":"建南街","SECT":" ","MAREA":" ","LANE":" ","ALLEY":" ","HOUSE_NO":"１３４號","E_COORD97":173317.22,"N_COORD97":2564231.1600000001,"ADDRESS":"建南街１３４號","OBJECTID":215158},"geometry":{"x":173317.21999999974,"y":2564231.160000002}},{"attributes":{"ID":215160,"DIS_CODE":0,"TOWNNAME":"永康區","LI":"\u25A0洲里","LIN":"10鄰","STREET":"\u25A0行路","SECT":" ","MAREA":" ","LANE":"１４６巷","ALLEY":"６弄","HOUSE_NO":"３９號","E_COORD97":171443.12,"N_COORD97":2549303.4500000002,"ADDRESS":"\u25A0行路１４６巷６弄３９號","OBJECTID":215159},"geometry":{"x":171443.12000000011,"y":2549303.4500000011}},{"attributes":{"ID":215161,"DIS_CODE":0,"TOWNNAME":"永康區","LI":"\u25A0洲里","LIN":" ","STREET":"洲尾街","SECT":" ","MAREA":" ","LANE":"１９１巷","ALLEY":"１弄","HOUSE_NO":"５０號","E_COORD97":170810.98000000001,"N_COORD97":2548928.1400000001,"ADDRESS":"洲尾街１９１巷１弄５０號","OBJECTID":215160},"geometry":{"x":170810.98000000231,"y":2548928.1400000006}},{"attributes":{"ID":215162,"DIS_CODE":0,"TOWNNAME":"南區","LI":"竹溪里","LIN":"1鄰","STREET":"健康路","SECT":"二段","MAREA":" ","LANE":"五三三巷","ALLEY":"８弄","HOUSE_NO":"１０號","E_COORD97":166165.57000000001,"N_COORD97":2542546.27,"ADDRESS":"健康路二段五三三巷８弄１０號","OBJECTID":215161},"geometry":{"x":166165.57000000123,"y":2542546.2699999996}},{"attributes":{"ID":215163,"DIS_CODE":0,"TOWNNAME":"安南區","LI":"東和里","LIN":"1鄰","STREET":"長和路","SECT":"一段","MAREA":" ","LANE":"８４５巷","ALLEY":"２４弄","HOUSE_NO":"１２號","E_COORD97":170776.39999999999,"N_COORD97":2551396.5899999999,"ADDRESS":"長和路一段８４５巷２４弄１２號","OBJECTID":215162},"geometry":{"x":170776.4000000013,"y":2551396.5899999999}},{"attributes":{"ID":215164,"DIS_CODE":0,"TOWNNAME":"北區","LI":"文成里","LIN":"1鄰","STREET":"和緯路","SECT":"三段","MAREA":" ","LANE":"３０３巷","ALLEY":"１１弄","HOUSE_NO":"１２號","E_COORD97":167670.79999999999,"N_COORD97":2545566.5600000001,"ADDRESS":"和緯路三段３０３巷１１弄１２號","OBJECTID":215163},"geometry":{"x":167670.80000000075,"y":2545566.5600000005}},{"attributes":{"ID":215165,"DIS_CODE":0,"TOWNNAME":"北區","LI":"文成里","LIN":"1鄰","STREET":"和緯路","SECT":"三段","MAREA":" ","LANE":"３０３巷","ALLEY":"１１弄","HOUSE_NO":"１８號","E_COORD97":167682.54000000001,"N_COORD97":2545570.6899999999,"ADDRESS":"和緯路三段３０３巷１１弄１８號","OBJECTID":215164},"geometry":{"x":167682.5400000019,"y":2545570.6899999995}},{"attributes":{"ID":215166,"DIS_CODE":0,"TOWNNAME":"北區","LI":"文成里","LIN":"1鄰","STREET":"和緯路","SECT":"三段","MAREA":" ","LANE":"３０３巷","ALLEY":"１１弄","HOUSE_NO":"２０號","E_COORD97":167688.26000000001,"N_COORD97":2545573.3900000001,"ADDRESS":"和緯路三段３０３巷１１弄２０號","OBJECTID":215165},"geometry":{"x":167688.26000000071,"y":2545573.3900000006}},{"attributes":{"ID":215167,"DIS_CODE":0,"TOWNNAME":"安南區","LI":"布袋里","LIN":"1鄰","STREET":"長和路","SECT":"四段","MAREA":" ","LANE":"２３１巷","ALLEY":"１２８弄","HOUSE_NO":"２３號","E_COORD97":168774.35999999999,"N_COORD97":2551367.8500000001,"ADDRESS":"長和路四段２３１巷１２８弄２３號","OBJECTID":215166},"geometry":{"x":168774.36000000127,"y":2551367.8499999996}},{"attributes":{"ID":215168,"DIS_CODE":0,"TOWNNAME":"安南區","LI":"布袋里","LIN":"1鄰","STREET":"長和路","SECT":"四段","MAREA":" ","LANE":"２３１巷","ALLEY":"１２８弄","HOUSE_NO":"２５號","E_COORD97":168781.35000000001,"N_COORD97":2551366.21,"ADDRESS":"長和路四段２３１巷１２８弄２５號","OBJECTID":215167},"geometry":{"x":168781.34999999963,"y":2551366.2100000009}},{"attributes":{"ID":215169,"DIS_CODE":0,"TOWNNAME":"北門區","LI":"東壁里","LIN":"2鄰","STREET":" ","SECT":" ","MAREA":"蚵寮","LANE":" ","ALLEY":" ","HOUSE_NO":"５７４號","E_COORD97":161590.72,"N_COORD97":2576481.2799999998,"ADDRESS":"蚵寮５７４號","OBJECTID":215168},"geometry":{"x":161590.72000000067,"y":2576481.2800000031}},{"attributes":{"ID":215170,"DIS_CODE":0,"TOWNNAME":"安南區","LI":"布袋里","LIN":"1鄰","STREET":"長和路","SECT":"四段","MAREA":" ","LANE":"２３１巷","ALLEY":"１２８弄","HOUSE_NO":"２１號","E_COORD97":168756.35999999999,"N_COORD97":2551376.3199999998,"ADDRESS":"長和路四段２３１巷１２８弄２１號","OBJECTID":215169},"geometry":{"x":168756.36000000034,"y":2551376.320000004}},{"attributes":{"ID":215171,"DIS_CODE":0,"TOWNNAME":"北門區","LI":"東壁里","LIN":"2鄰","STREET":" ","SECT":" ","MAREA":"蚵寮","LANE":" ","ALLEY":" ","HOUSE_NO":"５７５號","E_COORD97":161589.48999999999,"N_COORD97":2576490.3599999999,"ADDRESS":"蚵寮５７５號","OBJECTID":215170},"geometry":{"x":161589.49000000115,"y":2576490.3599999994}},{"attributes":{"ID":215172,"DIS_CODE":0,"TOWNNAME":"永康區","LI":"\u25A0洲里","LIN":"34鄰","STREET":"洲尾街","SECT":" ","MAREA":" ","LANE":"１９１巷","ALLEY":"６弄","HOUSE_NO":"１１號","E_COORD97":170822.82999999999,"N_COORD97":2549021.8999999999,"ADDRESS":"洲尾街１９１巷６弄１１號","OBJECTID":215171},"geometry":{"x":170822.83000000007,"y":2549021.9000000004}},{"attributes":{"ID":215173,"DIS_CODE":0,"TOWNNAME":"北門區","LI":"東壁里","LIN":"2鄰","STREET":" ","SECT":" ","MAREA":"蚵寮","LANE":" ","ALLEY":" ","HOUSE_NO":"５７６之１號","E_COORD97":161581.57000000001,"N_COORD97":2576515.1400000001,"ADDRESS":"蚵寮５７６之１號","OBJECTID":215172},"geometry":{"x":161581.57000000216,"y":2576515.1400000025}},{"attributes":{"ID":215174,"DIS_CODE":0,"TOWNNAME":"北門區","LI":"東壁里","LIN":"2鄰","STREET":" ","SECT":" ","MAREA":"蚵寮","LANE":" ","ALLEY":" ","HOUSE_NO":"５７６號之１","E_COORD97":161581.57000000001,"N_COORD97":2576515.1400000001,"ADDRESS":"蚵寮５７６號之１","OBJECTID":215173},"geometry":{"x":161581.57000000216,"y":2576515.1400000025}},{"attributes":{"ID":215175,"DIS_CODE":0,"TOWNNAME":"北門區","LI":"東壁里","LIN":"2鄰","STREET":" ","SECT":" ","MAREA":"蚵寮","LANE":" ","ALLEY":" ","HOUSE_NO":"５７７號","E_COORD97":161583.97,"N_COORD97":2576525.3599999999,"ADDRESS":"蚵寮５７７號","OBJECTID":215174},"geometry":{"x":161583.97000000067,"y":2576525.3600000013}},{"attributes":{"ID":215176,"DIS_CODE":0,"TOWNNAME":"北門區","LI":"鯤江里","LIN":"2鄰","STREET":" ","SECT":" ","MAREA":"蚵寮","LANE":" ","ALLEY":" ","HOUSE_NO":"７９１號","E_COORD97":161814.14999999999,"N_COORD97":2576302.5499999998,"ADDRESS":"蚵寮７９１號","OBJECTID":215175},"geometry":{"x":161814.1500000013,"y":2576302.5500000026}},{"attributes":{"ID":215177,"DIS_CODE":0,"TOWNNAME":"北門區","LI":"鯤江里","LIN":"2鄰","STREET":" ","SECT":" ","MAREA":"蚵寮","LANE":" ","ALLEY":" ","HOUSE_NO":"７９２號","E_COORD97":161764.73000000001,"N_COORD97":2576226.98,"ADDRESS":"蚵寮７９２號","OBJECTID":215176},"geometry":{"x":161764.73000000045,"y":2576226.9800000023}},{"attributes":{"ID":215178,"DIS_CODE":0,"TOWNNAME":"北門區","LI":"鯤江里","LIN":"2鄰","STREET":" ","SECT":" ","MAREA":"蚵寮","LANE":" ","ALLEY":" ","HOUSE_NO":"７９３號","E_COORD97":161779.88,"N_COORD97":2576219.75,"ADDRESS":"蚵寮７９３號","OBJECTID":215177},"geometry":{"x":161779.88000000082,"y":2576219.75}},{"attributes":{"ID":215179,"DIS_CODE":0,"TOWNNAME":"北門區","LI":"鯤江里","LIN":"2鄰","STREET":" ","SECT":" ","MAREA":"蚵寮","LANE":" ","ALLEY":" ","HOUSE_NO":"７９４號","E_COORD97":161776.56,"N_COORD97":2576209.75,"ADDRESS":"蚵寮７９４號","OBJECTID":215178},"geometry":{"x":161776.56000000052,"y":2576209.75}},{"attributes":{"ID":215180,"DIS_CODE":0,"TOWNNAME":"永康區","LI":"\u25A0洲里","LIN":"10鄰","STREET":"\u25A0行路","SECT":" ","MAREA":" ","LANE":"１４６巷","ALLEY":"２０弄","HOUSE_NO":"８號","E_COORD97":171396.07999999999,"N_COORD97":2549310.4300000002,"ADDRESS":"\u25A0行路１４６巷２０弄８號","OBJECTID":215179},"geometry":{"x":171396.08000000007,"y":2549310.4300000016}},{"attributes":{"ID":215181,"DIS_CODE":0,"TOWNNAME":"北區","LI":"文成里","LIN":"1鄰","STREET":"和緯路","SECT":"三段","MAREA":" ","LANE":"３０３巷","ALLEY":"５弄","HOUSE_NO":"１１號","E_COORD97":167673.97,"N_COORD97":2545608.9500000002,"ADDRESS":"和緯路三段３０３巷５弄１１號","OBJECTID":215180},"geometry":{"x":167673.96999999974,"y":2545608.9499999993}},{"attributes":{"ID":215182,"DIS_CODE":0,"TOWNNAME":"仁德區","LI":"上崙里","LIN":"9鄰","STREET":"德善路","SECT":" ","MAREA":" ","LANE":" ","ALLEY":" ","HOUSE_NO":"３１９號","E_COORD97":173971.48999999999,"N_COORD97":2538499.0099999998,"ADDRESS":"德善路３１９號","OBJECTID":215181},"geometry":{"x":173971.49000000022,"y":2538499.0100000016}},{"attributes":{"ID":215183,"DIS_CODE":0,"TOWNNAME":"北區","LI":"文成里","LIN":"1鄰","STREET":"和緯路","SECT":"三段","MAREA":" ","LANE":"３０３巷","ALLEY":"５弄","HOUSE_NO":"１號","E_COORD97":167646.51000000001,"N_COORD97":2545598.9500000002,"ADDRESS":"和緯路三段３０３巷５弄１號","OBJECTID":215182},"geometry":{"x":167646.50999999978,"y":2545598.9499999993}},{"attributes":{"ID":215184,"DIS_CODE":0,"TOWNNAME":"北區","LI":"文成里","LIN":"1鄰","STREET":"和緯路","SECT":"三段","MAREA":" ","LANE":"３０３巷","ALLEY":"５弄","HOUSE_NO":"３號","E_COORD97":167651.42999999999,"N_COORD97":2545600.5299999998,"ADDRESS":"和緯路三段３０３巷５弄３號","OBJECTID":215183},"geometry":{"x":167651.43000000063,"y":2545600.5300000012}},{"attributes":{"ID":215185,"DIS_CODE":0,"TOWNNAME":"北區","LI":"文成里","LIN":"1鄰","STREET":"和緯路","SECT":"三段","MAREA":" ","LANE":"３０３巷","ALLEY":"５弄","HOUSE_NO":"５號","E_COORD97":167656.67000000001,"N_COORD97":2545602.6000000001,"ADDRESS":"和緯路三段３０３巷５弄５號","OBJECTID":215184},"geometry":{"x":167656.67000000086,"y":2545602.5999999996}},{"attributes":{"ID":215186,"DIS_CODE":0,"TOWNNAME":"北區","LI":"文成里","LIN":"1鄰","STREET":"和緯路","SECT":"三段","MAREA":" ","LANE":"３０３巷","ALLEY":"５弄","HOUSE_NO":"７號","E_COORD97":167662.54000000001,"N_COORD97":2545604.98,"ADDRESS":"和緯路三段３０３巷５弄７號","OBJECTID":215185},"geometry":{"x":167662.54000000097,"y":2545604.9800000042}},{"attributes":{"ID":215187,"DIS_CODE":0,"TOWNNAME":"北區","LI":"文成里","LIN":"1鄰","STREET":"和緯路","SECT":"三段","MAREA":" ","LANE":"３０３巷","ALLEY":"５弄","HOUSE_NO":"９號","E_COORD97":167668.41,"N_COORD97":2545607.52,"ADDRESS":"和緯路三段３０３巷５弄９號","OBJECTID":215186},"geometry":{"x":167668.41000000108,"y":2545607.5200000014}},{"attributes":{"ID":215188,"DIS_CODE":0,"TOWNNAME":"仁德區","LI":"大甲里","LIN":"9鄰","STREET":"行大一街","SECT":" ","MAREA":" ","LANE":" ","ALLEY":" ","HOUSE_NO":"２８０號","E_COORD97":169643.79000000001,"N_COORD97":2535073.7400000002,"ADDRESS":"行大一街２８０號","OBJECTID":215187},"geometry":{"x":169643.7900000019,"y":2535073.7400000021}},{"attributes":{"ID":215189,"DIS_CODE":0,"TOWNNAME":"北區","LI":"文成里","LIN":"1鄰","STREET":"和緯路","SECT":"三段","MAREA":" ","LANE":"３０３巷","ALLEY":"５弄","HOUSE_NO":"２號","E_COORD97":167649.67999999999,"N_COORD97":2545587.6800000002,"ADDRESS":"和緯路三段３０３巷５弄２號","OBJECTID":215188},"geometry":{"x":167649.68000000063,"y":2545587.6799999997}},{"attributes":{"ID":215190,"DIS_CODE":0,"TOWNNAME":"仁德區","LI":"中洲里","LIN":"9鄰","STREET":" ","SECT":" ","MAREA":"中洲","LANE":" ","ALLEY":" ","HOUSE_NO":"３００號","E_COORD97":173388.76999999999,"N_COORD97":2533971.9900000002,"ADDRESS":"中洲３００號","OBJECTID":215189},"geometry":{"x":173388.77000000048,"y":2533971.9900000039}},{"attributes":{"ID":215191,"DIS_CODE":0,"TOWNNAME":"北區","LI":"文成里","LIN":"1鄰","STREET":"和緯路","SECT":"三段","MAREA":" ","LANE":"３０３巷","ALLEY":"５弄","HOUSE_NO":"６號","E_COORD97":167655.07999999999,"N_COORD97":2545589.7400000002,"ADDRESS":"和緯路三段３０３巷５弄６號","OBJECTID":215190},"geometry":{"x":167655.08000000194,"y":2545589.7400000021}},{"attributes":{"ID":215192,"DIS_CODE":0,"TOWNNAME":"北區","LI":"文成里","LIN":"1鄰","STREET":"和緯路","SECT":"三段","MAREA":" ","LANE":"３０３巷","ALLEY":"５弄","HOUSE_NO":"８號","E_COORD97":167659.84,"N_COORD97":2545591.6400000001,"ADDRESS":"和緯路三段３０３巷５弄８號","OBJECTID":215191},"geometry":{"x":167659.84000000171,"y":2545591.6400000025}},{"attributes":{"ID":215193,"DIS_CODE":0,"TOWNNAME":"仁德區","LI":"上崙里","LIN":"9鄰","STREET":"民安路","SECT":"二段","MAREA":" ","LANE":" ","ALLEY":" ","HOUSE_NO":"４３６號","E_COORD97":174068.82000000001,"N_COORD97":2538682.8199999998,"ADDRESS":"民安路二段４３６號","OBJECTID":215192},"geometry":{"x":174068.82000000123,"y":2538682.8200000022}},{"attributes":{"ID":215194,"DIS_CODE":0,"TOWNNAME":"北區","LI":"文成里","LIN":"1鄰","STREET":"和緯路","SECT":"三段","MAREA":" ","LANE":"３０３巷","ALLEY":"５弄","HOUSE_NO":"１０號","E_COORD97":167664.92000000001,"N_COORD97":2545593.5499999998,"ADDRESS":"和緯路三段３０３巷５弄１０號","OBJECTID":215193},"geometry":{"x":167664.92000000086,"y":2545593.5500000007}},{"attributes":{"ID":215195,"DIS_CODE":0,"TOWNNAME":"仁德區","LI":"中洲里","LIN":"9鄰","STREET":" ","SECT":" ","MAREA":"中洲","LANE":" ","ALLEY":" ","HOUSE_NO":"３０６號之２","E_COORD97":173473.20999999999,"N_COORD97":2533638.29,"ADDRESS":"中洲３０６號之２","OBJECTID":215194},"geometry":{"x":173473.20999999996,"y":2533638.290000001}},{"attributes":{"ID":215196,"DIS_CODE":0,"TOWNNAME":"北區","LI":"文成里","LIN":"1鄰","STREET":"和緯路","SECT":"三段","MAREA":" ","LANE":"３０３巷","ALLEY":"５弄","HOUSE_NO":"１２號","E_COORD97":167670.64000000001,"N_COORD97":2545596.25,"ADDRESS":"和緯路三段３０３巷５弄１２號","OBJECTID":215195},"geometry":{"x":167670.63999999966,"y":2545596.2500000019}},{"attributes":{"ID":215197,"DIS_CODE":0,"TOWNNAME":"北區","LI":"文成里","LIN":"1鄰","STREET":"和緯路","SECT":"三段","MAREA":" ","LANE":"３０３巷","ALLEY":"５弄","HOUSE_NO":"１６號","E_COORD97":167676.03,"N_COORD97":2545599.4199999999,"ADDRESS":"和緯路三段３０３巷５弄１６號","OBJECTID":215196},"geometry":{"x":167676.03000000212,"y":2545599.4200000018}},{"attributes":{"ID":215198,"DIS_CODE":0,"TOWNNAME":"仁德區","LI":"中洲里","LIN":"9鄰","STREET":" ","SECT":" ","MAREA":"中洲","LANE":" ","ALLEY":" ","HOUSE_NO":"２９１號之２０","E_COORD97":173325.51000000001,"N_COORD97":2534024.2999999998,"ADDRESS":"中洲２９１號之２０","OBJECTID":215197},"geometry":{"x":173325.50999999978,"y":2534024.3000000007}},{"attributes":{"ID":215199,"DIS_CODE":0,"TOWNNAME":"北區","LI":"文成里","LIN":"1鄰","STREET":"和緯路","SECT":"三段","MAREA":" ","LANE":"３０３巷","ALLEY":"１１弄","HOUSE_NO":"１６號","E_COORD97":167676.67000000001,"N_COORD97":2545568.6200000001,"ADDRESS":"和緯路三段３０３巷１１弄１６號","OBJECTID":215198},"geometry":{"x":167676.67000000086,"y":2545568.6200000029}},{"attributes":{"ID":215200,"DIS_CODE":0,"TOWNNAME":"北門區","LI":"鯤江里","LIN":"2鄰","STREET":" ","SECT":" ","MAREA":"蚵寮","LANE":" ","ALLEY":" ","HOUSE_NO":"７９８號","E_COORD97":161746.45000000001,"N_COORD97":2576212.2999999998,"ADDRESS":"蚵寮７９８號","OBJECTID":215199},"geometry":{"x":161746.45000000019,"y":2576212.3000000026}},{"attributes":{"ID":215201,"DIS_CODE":0,"TOWNNAME":"南區","LI":"白雪里","LIN":"1鄰","STREET":"鹽埕路","SECT":" ","MAREA":" ","LANE":"２９１巷","ALLEY":"９４弄","HOUSE_NO":"１７號","E_COORD97":166632.70999999999,"N_COORD97":2541214.6000000001,"ADDRESS":"鹽埕路２９１巷９４弄１７號","OBJECTID":215200},"geometry":{"x":166632.71000000089,"y":2541214.5999999996}}]}