{"displayFieldName":"TOWNNAME","fieldAliases":{"ID":"ID","DIS_CODE":"DIS_CODE","TOWNNAME":"TOWNNAME","LI":"LI","LIN":"LIN","STREET":"STREET","SECT":"SECT","MAREA":"MAREA","LANE":"LANE","ALLEY":"ALLEY","HOUSE_NO":"HOUSE_NO","E_COORD97":"E_COORD97","N_COORD97":"N_COORD97","ADDRESS":"ADDRESS","OBJECTID":"OBJECTID"},"geometryType":"esriGeometryPoint","spatialReference":{"wkid":102443,"latestWkid":3826},"fields":[{"name":"ID","type":"esriFieldTypeDouble","alias":"ID"},{"name":"DIS_CODE","type":"esriFieldTypeInteger","alias":"DIS_CODE"},{"name":"TOWNNAME","type":"esriFieldTypeString","alias":"TOWNNAME","length":8},{"name":"LI","type":"esriFieldTypeString","alias":"LI","length":8},{"name":"LIN","type":"esriFieldTypeString","alias":"LIN","length":12},{"name":"STREET","type":"esriFieldTypeString","alias":"STREET","length":20},{"name":"SECT","type":"esriFieldTypeString","alias":"SECT","length":8},{"name":"MAREA","type":"esriFieldTypeString","alias":"MAREA","length":12},{"name":"LANE","type":"esriFieldTypeString","alias":"LANE","length":10},{"name":"ALLEY","type":"esriFieldTypeString","alias":"ALLEY","length":10},{"name":"HOUSE_NO","type":"esriFieldTypeString","alias":"HOUSE_NO","length":20},{"name":"E_COORD97","type":"esriFieldTypeDouble","alias":"E_COORD97"},{"name":"N_COORD97","type":"esriFieldTypeDouble","alias":"N_COORD97"},{"name":"ADDRESS","type":"esriFieldTypeString","alias":"ADDRESS","length":50},{"name":"OBJECTID","type":"esriFieldTypeOID","alias":"OBJECTID"}],"features":[{"attributes":{"ID":403225,"DIS_CODE":0,"TOWNNAME":"安南區","LI":"理想里","LIN":"11鄰","STREET":"海佃路","SECT":"二段","MAREA":" ","LANE":"１１８巷","ALLEY":" ","HOUSE_NO":"３０號","E_COORD97":167119.19,"N_COORD97":2548026.1699999999,"ADDRESS":"海佃路二段１１８巷３０號","OBJECTID":403201},"geometry":{"x":167119.19000000134,"y":2548026.1699999999}},{"attributes":{"ID":403226,"DIS_CODE":0,"TOWNNAME":"安南區","LI":"理想里","LIN":"11鄰","STREET":"海佃路","SECT":"二段","MAREA":" ","LANE":"１１８巷","ALLEY":" ","HOUSE_NO":"３號","E_COORD97":167052.42999999999,"N_COORD97":2548082.02,"ADDRESS":"海佃路二段１１８巷３號","OBJECTID":403202},"geometry":{"x":167052.43000000063,"y":2548082.0200000033}},{"attributes":{"ID":403227,"DIS_CODE":0,"TOWNNAME":"安南區","LI":"理想里","LIN":"11鄰","STREET":"海佃路","SECT":"二段","MAREA":" ","LANE":"１１８巷","ALLEY":" ","HOUSE_NO":"４號","E_COORD97":167044.81,"N_COORD97":2548067.8399999999,"ADDRESS":"海佃路二段１１８巷４號","OBJECTID":403203},"geometry":{"x":167044.81000000052,"y":2548067.8400000017}},{"attributes":{"ID":403228,"DIS_CODE":0,"TOWNNAME":"安南區","LI":"理想里","LIN":"11鄰","STREET":"海佃路","SECT":"二段","MAREA":" ","LANE":"１１８巷","ALLEY":" ","HOUSE_NO":"５號","E_COORD97":167058.72,"N_COORD97":2548078.02,"ADDRESS":"海佃路二段１１８巷５號","OBJECTID":403204},"geometry":{"x":167058.71999999881,"y":2548078.0199999996}},{"attributes":{"ID":403229,"DIS_CODE":0,"TOWNNAME":"安南區","LI":"理想里","LIN":"11鄰","STREET":"海佃路","SECT":"二段","MAREA":" ","LANE":"１１８巷","ALLEY":" ","HOUSE_NO":"６號","E_COORD97":167050.82000000001,"N_COORD97":2548065.5899999999,"ADDRESS":"海佃路二段１１８巷６號","OBJECTID":403205},"geometry":{"x":167050.82000000123,"y":2548065.5900000017}},{"attributes":{"ID":403230,"DIS_CODE":0,"TOWNNAME":"安南區","LI":"理想里","LIN":"11鄰","STREET":"海佃路","SECT":"二段","MAREA":" ","LANE":"１１８巷","ALLEY":" ","HOUSE_NO":"７號","E_COORD97":167064.82000000001,"N_COORD97":2548075.3599999999,"ADDRESS":"海佃路二段１１８巷７號","OBJECTID":403206},"geometry":{"x":167064.8200000003,"y":2548075.3599999994}},{"attributes":{"ID":403231,"DIS_CODE":0,"TOWNNAME":"安南區","LI":"理想里","LIN":"11鄰","STREET":"海佃路","SECT":"二段","MAREA":" ","LANE":"１１８巷","ALLEY":" ","HOUSE_NO":"８號","E_COORD97":167056.07999999999,"N_COORD97":2548060.3300000001,"ADDRESS":"海佃路二段１１８巷８號","OBJECTID":403207},"geometry":{"x":167056.08000000007,"y":2548060.3300000019}},{"attributes":{"ID":403232,"DIS_CODE":0,"TOWNNAME":"安南區","LI":"理想里","LIN":"11鄰","STREET":"海佃路","SECT":"二段","MAREA":" ","LANE":"１１８巷","ALLEY":" ","HOUSE_NO":"９號","E_COORD97":167069.95999999999,"N_COORD97":2548072.5,"ADDRESS":"海佃路二段１１８巷９號","OBJECTID":403208},"geometry":{"x":167069.96000000089,"y":2548072.5000000037}},{"attributes":{"ID":403233,"DIS_CODE":0,"TOWNNAME":"永康區","LI":"大灣里","LIN":"11鄰","STREET":"大灣路","SECT":" ","MAREA":" ","LANE":"２４０巷","ALLEY":" ","HOUSE_NO":"１１號","E_COORD97":174925.25,"N_COORD97":2545369.0800000001,"ADDRESS":"大灣路２４０巷１１號","OBJECTID":403209},"geometry":{"x":174925.25000000093,"y":2545369.0800000001}},{"attributes":{"ID":403234,"DIS_CODE":0,"TOWNNAME":"永康區","LI":"中興里","LIN":"11鄰","STREET":"中興街","SECT":" ","MAREA":" ","LANE":"３５巷","ALLEY":" ","HOUSE_NO":"３７號","E_COORD97":171991.62,"N_COORD97":2545166.25,"ADDRESS":"中興街３５巷３７號","OBJECTID":403210},"geometry":{"x":171991.62000000104,"y":2545166.2500000019}},{"attributes":{"ID":403235,"DIS_CODE":0,"TOWNNAME":"永康區","LI":"中興里","LIN":"11鄰","STREET":"中興街","SECT":" ","MAREA":" ","LANE":"３５巷","ALLEY":" ","HOUSE_NO":"３３號","E_COORD97":172002.07000000001,"N_COORD97":2545167.8700000001,"ADDRESS":"中興街３５巷３３號","OBJECTID":403211},"geometry":{"x":172002.07000000123,"y":2545167.870000001}},{"attributes":{"ID":403236,"DIS_CODE":0,"TOWNNAME":"永康區","LI":"中興里","LIN":"11鄰","STREET":"中興街","SECT":" ","MAREA":" ","LANE":"３５巷","ALLEY":" ","HOUSE_NO":"４９號","E_COORD97":171966.76999999999,"N_COORD97":2545161.3500000001,"ADDRESS":"中興街３５巷４９號","OBJECTID":403212},"geometry":{"x":171966.76999999955,"y":2545161.3500000015}},{"attributes":{"ID":403237,"DIS_CODE":0,"TOWNNAME":"永康區","LI":"大橋里","LIN":"11鄰","STREET":"大橋一街","SECT":" ","MAREA":" ","LANE":"１０３巷","ALLEY":" ","HOUSE_NO":"１３２號","E_COORD97":170854.78,"N_COORD97":2546698.7400000002,"ADDRESS":"大橋一街１０３巷１３２號","OBJECTID":403213},"geometry":{"x":170854.78000000119,"y":2546698.7400000021}},{"attributes":{"ID":403238,"DIS_CODE":0,"TOWNNAME":"永康區","LI":"中興里","LIN":"11鄰","STREET":"中興街","SECT":" ","MAREA":" ","LANE":"３５巷","ALLEY":" ","HOUSE_NO":"９號","E_COORD97":172051.97,"N_COORD97":2545180.7200000002,"ADDRESS":"中興街３５巷９號","OBJECTID":403214},"geometry":{"x":172051.97000000067,"y":2545180.7200000025}},{"attributes":{"ID":403239,"DIS_CODE":0,"TOWNNAME":"永康區","LI":"王行里","LIN":"11鄰","STREET":"王行路","SECT":" ","MAREA":" ","LANE":"８９８巷","ALLEY":" ","HOUSE_NO":"２１號","E_COORD97":175915.06,"N_COORD97":2550106.4199999999,"ADDRESS":"王行路８９８巷２１號","OBJECTID":403215},"geometry":{"x":175915.05999999959,"y":2550106.4199999999}},{"attributes":{"ID":403240,"DIS_CODE":0,"TOWNNAME":"永康區","LI":"中興里","LIN":"11鄰","STREET":"中興街","SECT":" ","MAREA":" ","LANE":"３５巷","ALLEY":" ","HOUSE_NO":"３１號","E_COORD97":172006.63,"N_COORD97":2545168.6200000001,"ADDRESS":"中興街３５巷３１號","OBJECTID":403216},"geometry":{"x":172006.63000000082,"y":2545168.6200000029}},{"attributes":{"ID":403241,"DIS_CODE":0,"TOWNNAME":"永康區","LI":"五王里","LIN":"11鄰","STREET":"中山東路","SECT":" ","MAREA":" ","LANE":"２１８巷","ALLEY":" ","HOUSE_NO":"３號","E_COORD97":171758.56,"N_COORD97":2545734.4900000002,"ADDRESS":"中山東路２１８巷３號","OBJECTID":403217},"geometry":{"x":171758.55999999959,"y":2545734.4900000021}},{"attributes":{"ID":403242,"DIS_CODE":0,"TOWNNAME":"永康區","LI":"安康里","LIN":"11鄰","STREET":"中華路","SECT":" ","MAREA":" ","LANE":"６１９巷","ALLEY":" ","HOUSE_NO":"２５號之４","E_COORD97":170981.17999999999,"N_COORD97":2546054.04,"ADDRESS":"中華路６１９巷２５號之４","OBJECTID":403218},"geometry":{"x":170981.1799999997,"y":2546054.0400000028}},{"attributes":{"ID":403243,"DIS_CODE":0,"TOWNNAME":"安南區","LI":"溪東里","LIN":"11鄰","STREET":"府安路","SECT":"五段","MAREA":" ","LANE":"１１巷","ALLEY":" ","HOUSE_NO":"３８號","E_COORD97":168469.62,"N_COORD97":2547328.0600000001,"ADDRESS":"府安路五段１１巷３８號","OBJECTID":403219},"geometry":{"x":168469.62000000011,"y":2547328.0600000024}},{"attributes":{"ID":403244,"DIS_CODE":0,"TOWNNAME":"安南區","LI":"溪東里","LIN":"11鄰","STREET":"府安路","SECT":"五段","MAREA":" ","LANE":"１１巷","ALLEY":" ","HOUSE_NO":"４０號","E_COORD97":168475.72,"N_COORD97":2547335.2599999998,"ADDRESS":"府安路五段１１巷４０號","OBJECTID":403220},"geometry":{"x":168475.71999999974,"y":2547335.2600000016}},{"attributes":{"ID":403245,"DIS_CODE":0,"TOWNNAME":"安南區","LI":"溪東里","LIN":"11鄰","STREET":"府安路","SECT":"五段","MAREA":" ","LANE":"１１巷","ALLEY":" ","HOUSE_NO":"４６號","E_COORD97":168473.13,"N_COORD97":2547353.9100000001,"ADDRESS":"府安路五段１１巷４６號","OBJECTID":403221},"geometry":{"x":168473.12999999989,"y":2547353.9100000001}},{"attributes":{"ID":403246,"DIS_CODE":0,"TOWNNAME":"安南區","LI":"溪東里","LIN":"11鄰","STREET":"府安路","SECT":"五段","MAREA":" ","LANE":"１１巷","ALLEY":" ","HOUSE_NO":"４８號","E_COORD97":168467.76999999999,"N_COORD97":2547348.5499999998,"ADDRESS":"府安路五段１１巷４８號","OBJECTID":403222},"geometry":{"x":168467.77000000048,"y":2547348.5500000026}},{"attributes":{"ID":403247,"DIS_CODE":0,"TOWNNAME":"中西區","LI":"西賢里","LIN":"11鄰","STREET":"西賢一街","SECT":" ","MAREA":" ","LANE":"１８２巷","ALLEY":" ","HOUSE_NO":"１０號","E_COORD97":165735.29999999999,"N_COORD97":2544800.46,"ADDRESS":"西賢一街１８２巷１０號","OBJECTID":403223},"geometry":{"x":165735.29999999981,"y":2544800.4600000009}},{"attributes":{"ID":403248,"DIS_CODE":0,"TOWNNAME":"中西區","LI":"西賢里","LIN":"11鄰","STREET":"西賢一街","SECT":" ","MAREA":" ","LANE":"１８２巷","ALLEY":" ","HOUSE_NO":"１２號","E_COORD97":165739.85000000001,"N_COORD97":2544799.8500000001,"ADDRESS":"西賢一街１８２巷１２號","OBJECTID":403224},"geometry":{"x":165739.84999999963,"y":2544799.8499999996}},{"attributes":{"ID":403249,"DIS_CODE":0,"TOWNNAME":"中西區","LI":"西賢里","LIN":"11鄰","STREET":"西賢一街","SECT":" ","MAREA":" ","LANE":"１８２巷","ALLEY":" ","HOUSE_NO":"１６號","E_COORD97":165743.34,"N_COORD97":2544799.8500000001,"ADDRESS":"西賢一街１８２巷１６號","OBJECTID":403225},"geometry":{"x":165743.34000000078,"y":2544799.8499999996}},{"attributes":{"ID":403250,"DIS_CODE":0,"TOWNNAME":"中西區","LI":"西賢里","LIN":"11鄰","STREET":"西賢一街","SECT":" ","MAREA":" ","LANE":"１８２巷","ALLEY":" ","HOUSE_NO":"１８號","E_COORD97":165747.73999999999,"N_COORD97":2544799.7000000002,"ADDRESS":"西賢一街１８２巷１８號","OBJECTID":403226},"geometry":{"x":165747.74000000115,"y":2544799.7000000011}},{"attributes":{"ID":403251,"DIS_CODE":0,"TOWNNAME":"中西區","LI":"西賢里","LIN":"11鄰","STREET":"西賢一街","SECT":" ","MAREA":" ","LANE":"１８２巷","ALLEY":" ","HOUSE_NO":"２０號","E_COORD97":165752.29000000001,"N_COORD97":2544799.8500000001,"ADDRESS":"西賢一街１８２巷２０號","OBJECTID":403227},"geometry":{"x":165752.29000000097,"y":2544799.8499999996}},{"attributes":{"ID":403252,"DIS_CODE":0,"TOWNNAME":"中西區","LI":"大涼里","LIN":"13鄰","STREET":"金城街","SECT":" ","MAREA":" ","LANE":" ","ALLEY":" ","HOUSE_NO":"４９號","E_COORD97":166905.42000000001,"N_COORD97":2543687.6499999999,"ADDRESS":"金城街４９號","OBJECTID":403228},"geometry":{"x":166905.42000000086,"y":2543687.6500000004}},{"attributes":{"ID":403253,"DIS_CODE":0,"TOWNNAME":"中西區","LI":"西賢里","LIN":"11鄰","STREET":"西賢一街","SECT":" ","MAREA":" ","LANE":"１８２巷","ALLEY":" ","HOUSE_NO":"２２號","E_COORD97":165756.23000000001,"N_COORD97":2544799.5499999998,"ADDRESS":"西賢一街１８２巷２２號","OBJECTID":403229},"geometry":{"x":165756.23000000138,"y":2544799.5500000007}},{"attributes":{"ID":403254,"DIS_CODE":0,"TOWNNAME":"中西區","LI":"西賢里","LIN":"11鄰","STREET":"西賢一街","SECT":" ","MAREA":" ","LANE":"１８２巷","ALLEY":" ","HOUSE_NO":"２６號","E_COORD97":165760.17000000001,"N_COORD97":2544799.8500000001,"ADDRESS":"西賢一街１８２巷２６號","OBJECTID":403230},"geometry":{"x":165760.16999999993,"y":2544799.8499999996}},{"attributes":{"ID":403255,"DIS_CODE":0,"TOWNNAME":"中西區","LI":"西賢里","LIN":"11鄰","STREET":"西賢一街","SECT":" ","MAREA":" ","LANE":"１８２巷","ALLEY":" ","HOUSE_NO":"２８號","E_COORD97":165765.17999999999,"N_COORD97":2544801.52,"ADDRESS":"西賢一街１８２巷２８號","OBJECTID":403231},"geometry":{"x":165765.1799999997,"y":2544801.5200000014}},{"attributes":{"ID":403256,"DIS_CODE":0,"TOWNNAME":"中西區","LI":"西賢里","LIN":"11鄰","STREET":"西賢一街","SECT":" ","MAREA":" ","LANE":"１８２巷","ALLEY":" ","HOUSE_NO":"２號","E_COORD97":165724.07000000001,"N_COORD97":2544800.6099999999,"ADDRESS":"西賢一街１８２巷２號","OBJECTID":403232},"geometry":{"x":165724.0700000003,"y":2544800.6100000013}},{"attributes":{"ID":403257,"DIS_CODE":0,"TOWNNAME":"中西區","LI":"西賢里","LIN":"11鄰","STREET":"西賢一街","SECT":" ","MAREA":" ","LANE":"１８２巷","ALLEY":" ","HOUSE_NO":"６號","E_COORD97":165727.70999999999,"N_COORD97":2544801.0600000001,"ADDRESS":"西賢一街１８２巷６號","OBJECTID":403233},"geometry":{"x":165727.70999999996,"y":2544801.0600000042}},{"attributes":{"ID":403258,"DIS_CODE":0,"TOWNNAME":"中西區","LI":"西賢里","LIN":"11鄰","STREET":"西賢一街","SECT":" ","MAREA":" ","LANE":"１８２巷","ALLEY":" ","HOUSE_NO":"８號","E_COORD97":165731.66,"N_COORD97":2544800.1499999999,"ADDRESS":"西賢一街１８２巷８號","OBJECTID":403234},"geometry":{"x":165731.66000000015,"y":2544800.1500000041}},{"attributes":{"ID":403259,"DIS_CODE":0,"TOWNNAME":"中西區","LI":"藥王里","LIN":"11鄰","STREET":"大新街","SECT":" ","MAREA":" ","LANE":"４７巷","ALLEY":" ","HOUSE_NO":"１０號","E_COORD97":167126.48000000001,"N_COORD97":2544439.8199999998,"ADDRESS":"大新街４７巷１０號","OBJECTID":403235},"geometry":{"x":167126.48000000045,"y":2544439.8200000022}},{"attributes":{"ID":403260,"DIS_CODE":0,"TOWNNAME":"中西區","LI":"藥王里","LIN":"11鄰","STREET":"大新街","SECT":" ","MAREA":" ","LANE":"４７巷","ALLEY":" ","HOUSE_NO":"１２號","E_COORD97":167122.20999999999,"N_COORD97":2544442.1699999999,"ADDRESS":"大新街４７巷１２號","OBJECTID":403236},"geometry":{"x":167122.21000000089,"y":2544442.1699999999}},{"attributes":{"ID":403261,"DIS_CODE":0,"TOWNNAME":"中西區","LI":"藥王里","LIN":"11鄰","STREET":"大新街","SECT":" ","MAREA":" ","LANE":"４７巷","ALLEY":" ","HOUSE_NO":"１４號","E_COORD97":167116.44,"N_COORD97":2544443.8700000001,"ADDRESS":"大新街４７巷１４號","OBJECTID":403237},"geometry":{"x":167116.44000000134,"y":2544443.8700000029}},{"attributes":{"ID":403262,"DIS_CODE":0,"TOWNNAME":"中西區","LI":"藥王里","LIN":"11鄰","STREET":"大新街","SECT":" ","MAREA":" ","LANE":"４７巷","ALLEY":" ","HOUSE_NO":"２號","E_COORD97":167145.70999999999,"N_COORD97":2544435.7599999998,"ADDRESS":"大新街４７巷２號","OBJECTID":403238},"geometry":{"x":167145.71000000089,"y":2544435.7600000035}},{"attributes":{"ID":403263,"DIS_CODE":0,"TOWNNAME":"中西區","LI":"藥王里","LIN":"11鄰","STREET":"大新街","SECT":" ","MAREA":" ","LANE":"４７巷","ALLEY":" ","HOUSE_NO":"４號","E_COORD97":167141.01000000001,"N_COORD97":2544436.6200000001,"ADDRESS":"大新街４７巷４號","OBJECTID":403239},"geometry":{"x":167141.00999999978,"y":2544436.620000001}},{"attributes":{"ID":403264,"DIS_CODE":0,"TOWNNAME":"中西區","LI":"藥王里","LIN":"11鄰","STREET":"大新街","SECT":" ","MAREA":" ","LANE":"４７巷","ALLEY":" ","HOUSE_NO":"６號","E_COORD97":167136.09,"N_COORD97":2544437.04,"ADDRESS":"大新街４７巷６號","OBJECTID":403240},"geometry":{"x":167136.09000000171,"y":2544437.040000001}},{"attributes":{"ID":403265,"DIS_CODE":0,"TOWNNAME":"中西區","LI":"藥王里","LIN":"11鄰","STREET":"大新街","SECT":" ","MAREA":" ","LANE":"４７巷","ALLEY":" ","HOUSE_NO":"８號","E_COORD97":167132.25,"N_COORD97":2544439.3900000001,"ADDRESS":"大新街４７巷８號","OBJECTID":403241},"geometry":{"x":167132.25000000093,"y":2544439.3900000043}},{"attributes":{"ID":403266,"DIS_CODE":0,"TOWNNAME":"中西區","LI":"藥王里","LIN":"11鄰","STREET":"大新街","SECT":" ","MAREA":" ","LANE":"５９巷","ALLEY":" ","HOUSE_NO":"１０號","E_COORD97":167136.31,"N_COORD97":2544462.6800000002,"ADDRESS":"大新街５９巷１０號","OBJECTID":403242},"geometry":{"x":167136.31000000052,"y":2544462.6799999997}},{"attributes":{"ID":403267,"DIS_CODE":0,"TOWNNAME":"中西區","LI":"藥王里","LIN":"11鄰","STREET":"大新街","SECT":" ","MAREA":" ","LANE":"５９巷","ALLEY":" ","HOUSE_NO":"１２號","E_COORD97":167131.60999999999,"N_COORD97":2544464.1699999999,"ADDRESS":"大新街５９巷１２號","OBJECTID":403243},"geometry":{"x":167131.61000000127,"y":2544464.1700000018}},{"attributes":{"ID":403268,"DIS_CODE":0,"TOWNNAME":"中西區","LI":"藥王里","LIN":"11鄰","STREET":"大新街","SECT":" ","MAREA":" ","LANE":"５９巷","ALLEY":" ","HOUSE_NO":"４號","E_COORD97":167149.54999999999,"N_COORD97":2544457.98,"ADDRESS":"大新街５９巷４號","OBJECTID":403244},"geometry":{"x":167149.54999999981,"y":2544457.9800000004}},{"attributes":{"ID":403269,"DIS_CODE":0,"TOWNNAME":"中西區","LI":"藥王里","LIN":"11鄰","STREET":"大新街","SECT":" ","MAREA":" ","LANE":"５９巷","ALLEY":" ","HOUSE_NO":"８號","E_COORD97":167140.14999999999,"N_COORD97":2544460.7599999998,"ADDRESS":"大新街５９巷８號","OBJECTID":403245},"geometry":{"x":167140.1500000013,"y":2544460.7600000016}},{"attributes":{"ID":403270,"DIS_CODE":0,"TOWNNAME":"中西區","LI":"藥王里","LIN":"11鄰","STREET":"大新街","SECT":" ","MAREA":" ","LANE":"７１巷","ALLEY":" ","HOUSE_NO":"１１號","E_COORD97":167136.31,"N_COORD97":2544476.98,"ADDRESS":"大新街７１巷１１號","OBJECTID":403246},"geometry":{"x":167136.31000000052,"y":2544476.9800000023}},{"attributes":{"ID":403271,"DIS_CODE":0,"TOWNNAME":"中西區","LI":"藥王里","LIN":"11鄰","STREET":"大新街","SECT":" ","MAREA":" ","LANE":"７１巷","ALLEY":" ","HOUSE_NO":"１號","E_COORD97":167158.73999999999,"N_COORD97":2544469.7200000002,"ADDRESS":"大新街７１巷１號","OBJECTID":403247},"geometry":{"x":167158.74000000022,"y":2544469.7200000007}},{"attributes":{"ID":403272,"DIS_CODE":0,"TOWNNAME":"中西區","LI":"藥王里","LIN":"11鄰","STREET":"大新街","SECT":" ","MAREA":" ","LANE":"７１巷","ALLEY":" ","HOUSE_NO":"２號","E_COORD97":167163.85999999999,"N_COORD97":2544487.23,"ADDRESS":"大新街７１巷２號","OBJECTID":403248},"geometry":{"x":167163.86000000127,"y":2544487.2300000004}},{"attributes":{"ID":403273,"DIS_CODE":0,"TOWNNAME":"中西區","LI":"藥王里","LIN":"11鄰","STREET":"大新街","SECT":" ","MAREA":" ","LANE":"７１巷","ALLEY":" ","HOUSE_NO":"３號","E_COORD97":167154.04000000001,"N_COORD97":2544471.2200000002,"ADDRESS":"大新街７１巷３號","OBJECTID":403249},"geometry":{"x":167154.04000000097,"y":2544471.2200000044}},{"attributes":{"ID":403274,"DIS_CODE":0,"TOWNNAME":"中西區","LI":"藥王里","LIN":"11鄰","STREET":"大新街","SECT":" ","MAREA":" ","LANE":"７１巷","ALLEY":" ","HOUSE_NO":"５號","E_COORD97":167149.34,"N_COORD97":2544471.8599999999,"ADDRESS":"大新街７１巷５號","OBJECTID":403250},"geometry":{"x":167149.33999999985,"y":2544471.8599999975}},{"attributes":{"ID":403275,"DIS_CODE":0,"TOWNNAME":"中西區","LI":"藥王里","LIN":"11鄰","STREET":"大新街","SECT":" ","MAREA":" ","LANE":"７１巷","ALLEY":" ","HOUSE_NO":"６號","E_COORD97":167157.45999999999,"N_COORD97":2544491.2799999998,"ADDRESS":"大新街７１巷６號","OBJECTID":403251},"geometry":{"x":167157.46000000183,"y":2544491.2799999993}},{"attributes":{"ID":403276,"DIS_CODE":0,"TOWNNAME":"中西區","LI":"藥王里","LIN":"11鄰","STREET":"大新街","SECT":" ","MAREA":" ","LANE":"７１巷","ALLEY":" ","HOUSE_NO":"７號","E_COORD97":167145.48999999999,"N_COORD97":2544473.9900000002,"ADDRESS":"大新街７１巷７號","OBJECTID":403252},"geometry":{"x":167145.49000000022,"y":2544473.9900000002}},{"attributes":{"ID":403277,"DIS_CODE":0,"TOWNNAME":"永康區","LI":"勝利里","LIN":"11鄰","STREET":"勝利街","SECT":" ","MAREA":" ","LANE":"７３巷","ALLEY":" ","HOUSE_NO":"２３號","E_COORD97":171254.62,"N_COORD97":2544715.5299999998,"ADDRESS":"勝利街７３巷２３號","OBJECTID":403253},"geometry":{"x":171254.62000000104,"y":2544715.5300000012}},{"attributes":{"ID":403278,"DIS_CODE":0,"TOWNNAME":"永康區","LI":"崑山里","LIN":"11鄰","STREET":"大灣路","SECT":" ","MAREA":" ","LANE":"１０２０巷","ALLEY":" ","HOUSE_NO":"１５號","E_COORD97":173367.48000000001,"N_COORD97":2544450.21,"ADDRESS":"大灣路１０２０巷１５號","OBJECTID":403254},"geometry":{"x":173367.48000000138,"y":2544450.2100000009}},{"attributes":{"ID":403279,"DIS_CODE":0,"TOWNNAME":"永康區","LI":"復華里","LIN":"11鄰","STREET":"國華街","SECT":" ","MAREA":" ","LANE":"１０２巷","ALLEY":" ","HOUSE_NO":"５６號","E_COORD97":172916.29000000001,"N_COORD97":2546108.8100000001,"ADDRESS":"國華街１０２巷５６號","OBJECTID":403255},"geometry":{"x":172916.29000000097,"y":2546108.8100000024}},{"attributes":{"ID":403280,"DIS_CODE":0,"TOWNNAME":"永康區","LI":"崑山里","LIN":"11鄰","STREET":"大灣路","SECT":" ","MAREA":" ","LANE":"１０９０巷","ALLEY":" ","HOUSE_NO":"３號","E_COORD97":173296.82000000001,"N_COORD97":2544395.9900000002,"ADDRESS":"大灣路１０９０巷３號","OBJECTID":403256},"geometry":{"x":173296.8200000003,"y":2544395.9900000002}},{"attributes":{"ID":403281,"DIS_CODE":0,"TOWNNAME":"永康區","LI":"崑山里","LIN":"11鄰","STREET":"大灣路","SECT":" ","MAREA":" ","LANE":"１０９０巷","ALLEY":" ","HOUSE_NO":"１號","E_COORD97":173296.79000000001,"N_COORD97":2544385.7400000002,"ADDRESS":"大灣路１０９０巷１號","OBJECTID":403257},"geometry":{"x":173296.79000000004,"y":2544385.7400000039}},{"attributes":{"ID":403282,"DIS_CODE":0,"TOWNNAME":"永康區","LI":"勝利里","LIN":"11鄰","STREET":"勝利街","SECT":" ","MAREA":" ","LANE":"７３巷","ALLEY":" ","HOUSE_NO":"２２號","E_COORD97":171270.54999999999,"N_COORD97":2544735.25,"ADDRESS":"勝利街７３巷２２號","OBJECTID":403258},"geometry":{"x":171270.54999999981,"y":2544735.2500000019}},{"attributes":{"ID":403283,"DIS_CODE":0,"TOWNNAME":"永康區","LI":"崑山里","LIN":"11鄰","STREET":"大灣路","SECT":" ","MAREA":" ","LANE":"１０９０巷","ALLEY":" ","HOUSE_NO":"５號","E_COORD97":173296.92999999999,"N_COORD97":2544406.4900000002,"ADDRESS":"大灣路１０９０巷５號","OBJECTID":403259},"geometry":{"x":173296.9299999997,"y":2544406.4900000002}},{"attributes":{"ID":403284,"DIS_CODE":0,"TOWNNAME":"永康區","LI":"復國里","LIN":"11鄰","STREET":"復國一路","SECT":" ","MAREA":" ","LANE":"２７６巷","ALLEY":" ","HOUSE_NO":"１７號","E_COORD97":172794.98000000001,"N_COORD97":2545459.77,"ADDRESS":"復國一路２７６巷１７號","OBJECTID":403260},"geometry":{"x":172794.98000000138,"y":2545459.7700000014}},{"attributes":{"ID":403285,"DIS_CODE":0,"TOWNNAME":"永康區","LI":"復華里","LIN":"11鄰","STREET":"國華街","SECT":" ","MAREA":" ","LANE":"１０２巷","ALLEY":" ","HOUSE_NO":"６０號","E_COORD97":172920.54000000001,"N_COORD97":2546115.5600000001,"ADDRESS":"國華街１０２巷６０號","OBJECTID":403261},"geometry":{"x":172920.53999999911,"y":2546115.5600000005}},{"attributes":{"ID":403286,"DIS_CODE":0,"TOWNNAME":"永康區","LI":"勝利里","LIN":"11鄰","STREET":"勝利街","SECT":" ","MAREA":" ","LANE":"７３巷","ALLEY":" ","HOUSE_NO":"１７號","E_COORD97":171255.28,"N_COORD97":2544727,"ADDRESS":"勝利街７３巷１７號","OBJECTID":403262},"geometry":{"x":171255.28000000119,"y":2544727.0000000019}},{"attributes":{"ID":403287,"DIS_CODE":0,"TOWNNAME":"永康區","LI":"崑山里","LIN":"11鄰","STREET":"大灣路","SECT":" ","MAREA":" ","LANE":"１０９０巷","ALLEY":" ","HOUSE_NO":"１３號","E_COORD97":173296.45999999999,"N_COORD97":2544453.5,"ADDRESS":"大灣路１０９０巷１３號","OBJECTID":403263},"geometry":{"x":173296.46000000089,"y":2544453.5}},{"attributes":{"ID":403288,"DIS_CODE":0,"TOWNNAME":"永康區","LI":"崑山里","LIN":"11鄰","STREET":"大灣路","SECT":" ","MAREA":" ","LANE":"１０４４巷","ALLEY":" ","HOUSE_NO":"９號","E_COORD97":173373.84,"N_COORD97":2544407.1800000002,"ADDRESS":"大灣路１０４４巷９號","OBJECTID":403264},"geometry":{"x":173373.83999999985,"y":2544407.1800000016}},{"attributes":{"ID":403289,"DIS_CODE":0,"TOWNNAME":"永康區","LI":"崑山里","LIN":"11鄰","STREET":"大灣路","SECT":" ","MAREA":" ","LANE":"１０２０巷","ALLEY":" ","HOUSE_NO":"３５號","E_COORD97":173350.34,"N_COORD97":2544456.6000000001,"ADDRESS":"大灣路１０２０巷３５號","OBJECTID":403265},"geometry":{"x":173350.33999999985,"y":2544456.5999999996}},{"attributes":{"ID":403290,"DIS_CODE":0,"TOWNNAME":"永康區","LI":"勝利里","LIN":"11鄰","STREET":"勝利街","SECT":" ","MAREA":" ","LANE":"７３巷","ALLEY":" ","HOUSE_NO":"２０號","E_COORD97":171277.22,"N_COORD97":2544733.75,"ADDRESS":"勝利街７３巷２０號","OBJECTID":403266},"geometry":{"x":171277.22000000067,"y":2544733.75}},{"attributes":{"ID":403291,"DIS_CODE":0,"TOWNNAME":"永康區","LI":"崑山里","LIN":"11鄰","STREET":"大灣路","SECT":" ","MAREA":" ","LANE":"１０４４巷","ALLEY":" ","HOUSE_NO":"１０號","E_COORD97":173380.70000000001,"N_COORD97":2544416.9900000002,"ADDRESS":"大灣路１０４４巷１０號","OBJECTID":403267},"geometry":{"x":173380.69999999925,"y":2544416.9900000002}},{"attributes":{"ID":403292,"DIS_CODE":0,"TOWNNAME":"永康區","LI":"復華里","LIN":"11鄰","STREET":"國華街","SECT":" ","MAREA":" ","LANE":"１０２巷","ALLEY":" ","HOUSE_NO":"５８號","E_COORD97":172918.10000000001,"N_COORD97":2546112.3100000001,"ADDRESS":"國華街１０２巷５８號","OBJECTID":403268},"geometry":{"x":172918.10000000149,"y":2546112.3100000024}},{"attributes":{"ID":403293,"DIS_CODE":0,"TOWNNAME":"永康區","LI":"復國里","LIN":"11鄰","STREET":"復國一路","SECT":" ","MAREA":" ","LANE":"２７６巷","ALLEY":" ","HOUSE_NO":"１２號","E_COORD97":172814.79999999999,"N_COORD97":2545405.1699999999,"ADDRESS":"復國一路２７６巷１２號","OBJECTID":403269},"geometry":{"x":172814.79999999981,"y":2545405.1699999999}},{"attributes":{"ID":403294,"DIS_CODE":0,"TOWNNAME":"永康區","LI":"崑山里","LIN":"11鄰","STREET":"大灣路","SECT":" ","MAREA":" ","LANE":"１０９０巷","ALLEY":" ","HOUSE_NO":"１８號","E_COORD97":173313.89000000001,"N_COORD97":2544472.8300000001,"ADDRESS":"大灣路１０９０巷１８號","OBJECTID":403270},"geometry":{"x":173313.88999999966,"y":2544472.8299999982}},{"attributes":{"ID":403295,"DIS_CODE":0,"TOWNNAME":"永康區","LI":"崑山里","LIN":"11鄰","STREET":"大灣路","SECT":" ","MAREA":" ","LANE":"１０４４巷","ALLEY":" ","HOUSE_NO":"３號","E_COORD97":173373.14000000001,"N_COORD97":2544390.9300000002,"ADDRESS":"大灣路１０４４巷３號","OBJECTID":403271},"geometry":{"x":173373.13999999966,"y":2544390.9300000016}},{"attributes":{"ID":403296,"DIS_CODE":0,"TOWNNAME":"永康區","LI":"勝利里","LIN":"11鄰","STREET":"勝利街","SECT":" ","MAREA":" ","LANE":"７３巷","ALLEY":" ","HOUSE_NO":"１９號","E_COORD97":171254.63,"N_COORD97":2544723,"ADDRESS":"勝利街７３巷１９號","OBJECTID":403272},"geometry":{"x":171254.62999999989,"y":2544723.0000000019}},{"attributes":{"ID":403297,"DIS_CODE":0,"TOWNNAME":"永康區","LI":"崑山里","LIN":"11鄰","STREET":"大灣路","SECT":" ","MAREA":" ","LANE":"１０４４巷","ALLEY":" ","HOUSE_NO":"１號","E_COORD97":173373.04000000001,"N_COORD97":2544384.6800000002,"ADDRESS":"大灣路１０４４巷１號","OBJECTID":403273},"geometry":{"x":173373.04000000004,"y":2544384.6799999997}},{"attributes":{"ID":403298,"DIS_CODE":0,"TOWNNAME":"永康區","LI":"崑山里","LIN":"11鄰","STREET":"大灣路","SECT":" ","MAREA":" ","LANE":"１０４４巷","ALLEY":" ","HOUSE_NO":"６號","E_COORD97":173380.62,"N_COORD97":2544409.3599999999,"ADDRESS":"大灣路１０４４巷６號","OBJECTID":403274},"geometry":{"x":173380.62000000011,"y":2544409.3600000013}},{"attributes":{"ID":403299,"DIS_CODE":0,"TOWNNAME":"永康區","LI":"崑山里","LIN":"11鄰","STREET":"大灣路","SECT":" ","MAREA":" ","LANE":"１０２０巷","ALLEY":" ","HOUSE_NO":"４２號","E_COORD97":173330.97,"N_COORD97":2544485.1299999999,"ADDRESS":"大灣路１０２０巷４２號","OBJECTID":403275},"geometry":{"x":173330.9700000016,"y":2544485.129999999}},{"attributes":{"ID":403300,"DIS_CODE":0,"TOWNNAME":"永康區","LI":"勝利里","LIN":"11鄰","STREET":"勝利街","SECT":" ","MAREA":" ","LANE":"７３巷","ALLEY":" ","HOUSE_NO":"２４號","E_COORD97":171263.66,"N_COORD97":2544737.5,"ADDRESS":"勝利街７３巷２４號","OBJECTID":403276},"geometry":{"x":171263.66000000201,"y":2544737.5000000019}},{"attributes":{"ID":403301,"DIS_CODE":0,"TOWNNAME":"永康區","LI":"復國里","LIN":"11鄰","STREET":"復國一路","SECT":" ","MAREA":" ","LANE":"２７６巷","ALLEY":" ","HOUSE_NO":"１１號","E_COORD97":172791.82999999999,"N_COORD97":2545444.52,"ADDRESS":"復國一路２７６巷１１號","OBJECTID":403277},"geometry":{"x":172791.83000000101,"y":2545444.5200000014}},{"attributes":{"ID":403302,"DIS_CODE":0,"TOWNNAME":"永康區","LI":"大橋里","LIN":"11鄰","STREET":"大橋三街","SECT":" ","MAREA":" ","LANE":"２６６巷","ALLEY":" ","HOUSE_NO":"８５號","E_COORD97":170961.84,"N_COORD97":2546755.1099999999,"ADDRESS":"大橋三街２６６巷８５號","OBJECTID":403278},"geometry":{"x":170961.83999999985,"y":2546755.1099999994}},{"attributes":{"ID":403303,"DIS_CODE":0,"TOWNNAME":"永康區","LI":"王行里","LIN":"11鄰","STREET":"王行路","SECT":" ","MAREA":" ","LANE":"８６６巷","ALLEY":" ","HOUSE_NO":"１３之１號","E_COORD97":175915.60000000001,"N_COORD97":2549967.7000000002,"ADDRESS":"王行路８６６巷１３之１號","OBJECTID":403279},"geometry":{"x":175915.60000000056,"y":2549967.6999999993}},{"attributes":{"ID":403304,"DIS_CODE":0,"TOWNNAME":"永康區","LI":"王行里","LIN":"11鄰","STREET":"王行路","SECT":" ","MAREA":" ","LANE":"８６６巷","ALLEY":" ","HOUSE_NO":"１３之２號","E_COORD97":175920.09,"N_COORD97":2549966.5299999998,"ADDRESS":"王行路８６６巷１３之２號","OBJECTID":403280},"geometry":{"x":175920.08999999985,"y":2549966.5299999975}},{"attributes":{"ID":403305,"DIS_CODE":0,"TOWNNAME":"永康區","LI":"王行里","LIN":"11鄰","STREET":"王行路","SECT":" ","MAREA":" ","LANE":"８６６巷","ALLEY":" ","HOUSE_NO":"１３之３號","E_COORD97":175925.06,"N_COORD97":2549965.9100000001,"ADDRESS":"王行路８６６巷１３之３號","OBJECTID":403281},"geometry":{"x":175925.05999999959,"y":2549965.910000002}},{"attributes":{"ID":403306,"DIS_CODE":0,"TOWNNAME":"永康區","LI":"王行里","LIN":"11鄰","STREET":"王行路","SECT":" ","MAREA":" ","LANE":"８６６巷","ALLEY":" ","HOUSE_NO":"１３之５號","E_COORD97":175930.14000000001,"N_COORD97":2549965.04,"ADDRESS":"王行路８６６巷１３之５號","OBJECTID":403282},"geometry":{"x":175930.14000000153,"y":2549965.0399999991}},{"attributes":{"ID":403307,"DIS_CODE":0,"TOWNNAME":"永康區","LI":"王行里","LIN":"11鄰","STREET":"王行路","SECT":" ","MAREA":" ","LANE":"８６６巷","ALLEY":" ","HOUSE_NO":"１３之６號","E_COORD97":175935.34,"N_COORD97":2549964.1800000002,"ADDRESS":"王行路８６６巷１３之６號","OBJECTID":403283},"geometry":{"x":175935.33999999985,"y":2549964.1800000016}},{"attributes":{"ID":403308,"DIS_CODE":0,"TOWNNAME":"永康區","LI":"王行里","LIN":"11鄰","STREET":"王行路","SECT":" ","MAREA":" ","LANE":"８６６巷","ALLEY":" ","HOUSE_NO":"１３之７號","E_COORD97":175940.45000000001,"N_COORD97":2549963.2200000002,"ADDRESS":"王行路８６６巷１３之７號","OBJECTID":403284},"geometry":{"x":175940.45000000205,"y":2549963.2199999988}},{"attributes":{"ID":403309,"DIS_CODE":0,"TOWNNAME":"安南區","LI":"淵西里","LIN":"11鄰","STREET":"安中路","SECT":"四段","MAREA":" ","LANE":"２９０巷","ALLEY":" ","HOUSE_NO":"１３６號","E_COORD97":164833.22,"N_COORD97":2550250.4500000002,"ADDRESS":"安中路四段２９０巷１３６號","OBJECTID":403285},"geometry":{"x":164833.22000000067,"y":2550250.4499999993}},{"attributes":{"ID":403310,"DIS_CODE":0,"TOWNNAME":"中西區","LI":"永福里","LIN":"11鄰","STREET":"永福路","SECT":"二段","MAREA":" ","LANE":"１５２巷","ALLEY":" ","HOUSE_NO":"１０號","E_COORD97":168182.04999999999,"N_COORD97":2543839.23,"ADDRESS":"永福路二段１５２巷１０號","OBJECTID":403286},"geometry":{"x":168182.04999999981,"y":2543839.2300000004}},{"attributes":{"ID":403311,"DIS_CODE":0,"TOWNNAME":"中西區","LI":"永福里","LIN":"11鄰","STREET":"永福路","SECT":"二段","MAREA":" ","LANE":"１５２巷","ALLEY":" ","HOUSE_NO":"１２號","E_COORD97":168222.26999999999,"N_COORD97":2543850.2799999998,"ADDRESS":"永福路二段１５２巷１２號","OBJECTID":403287},"geometry":{"x":168222.26999999955,"y":2543850.2800000012}},{"attributes":{"ID":403312,"DIS_CODE":0,"TOWNNAME":"中西區","LI":"永福里","LIN":"11鄰","STREET":"永福路","SECT":"二段","MAREA":" ","LANE":"１５２巷","ALLEY":" ","HOUSE_NO":"１４號","E_COORD97":168215.17999999999,"N_COORD97":2543852.0499999998,"ADDRESS":"永福路二段１５２巷１４號","OBJECTID":403288},"geometry":{"x":168215.18000000156,"y":2543852.0500000045}},{"attributes":{"ID":403313,"DIS_CODE":0,"TOWNNAME":"中西區","LI":"永福里","LIN":"11鄰","STREET":"永福路","SECT":"二段","MAREA":" ","LANE":"１５２巷","ALLEY":" ","HOUSE_NO":"１６號","E_COORD97":168209.59,"N_COORD97":2543853.6800000002,"ADDRESS":"永福路二段１５２巷１６號","OBJECTID":403289},"geometry":{"x":168209.59000000078,"y":2543853.6800000016}},{"attributes":{"ID":403314,"DIS_CODE":0,"TOWNNAME":"中西區","LI":"永福里","LIN":"11鄰","STREET":"永福路","SECT":"二段","MAREA":" ","LANE":"１５２巷","ALLEY":" ","HOUSE_NO":"１８號","E_COORD97":168206.35999999999,"N_COORD97":2543865.02,"ADDRESS":"永福路二段１５２巷１８號","OBJECTID":403290},"geometry":{"x":168206.36000000127,"y":2543865.0200000014}},{"attributes":{"ID":403315,"DIS_CODE":0,"TOWNNAME":"中西區","LI":"永福里","LIN":"11鄰","STREET":"永福路","SECT":"二段","MAREA":" ","LANE":"１５２巷","ALLEY":" ","HOUSE_NO":"２０號","E_COORD97":168213.67999999999,"N_COORD97":2543867.3100000001,"ADDRESS":"永福路二段１５２巷２０號","OBJECTID":403291},"geometry":{"x":168213.68000000063,"y":2543867.3100000024}},{"attributes":{"ID":403316,"DIS_CODE":0,"TOWNNAME":"中西區","LI":"永福里","LIN":"11鄰","STREET":"永福路","SECT":"二段","MAREA":" ","LANE":"１５２巷","ALLEY":" ","HOUSE_NO":"２２號","E_COORD97":168211.09,"N_COORD97":2543861.7400000002,"ADDRESS":"永福路二段１５２巷２２號","OBJECTID":403292},"geometry":{"x":168211.09000000078,"y":2543861.7400000021}},{"attributes":{"ID":403317,"DIS_CODE":0,"TOWNNAME":"中西區","LI":"萬昌里","LIN":"11鄰","STREET":"民權路","SECT":"一段","MAREA":" ","LANE":"１６巷","ALLEY":" ","HOUSE_NO":"２號","E_COORD97":169120.19,"N_COORD97":2543362.1400000001,"ADDRESS":"民權路一段１６巷２號","OBJECTID":403293},"geometry":{"x":169120.19000000134,"y":2543362.1400000006}},{"attributes":{"ID":403318,"DIS_CODE":0,"TOWNNAME":"中西區","LI":"萬昌里","LIN":"11鄰","STREET":"民權路","SECT":"一段","MAREA":" ","LANE":"１６巷","ALLEY":" ","HOUSE_NO":"６號","E_COORD97":169121.07999999999,"N_COORD97":2543365.1800000002,"ADDRESS":"民權路一段１６巷６號","OBJECTID":403294},"geometry":{"x":169121.08000000007,"y":2543365.1800000034}},{"attributes":{"ID":403319,"DIS_CODE":0,"TOWNNAME":"中西區","LI":"萬昌里","LIN":"11鄰","STREET":"民權路","SECT":"一段","MAREA":" ","LANE":"１６巷","ALLEY":" ","HOUSE_NO":"８號","E_COORD97":169133.45000000001,"N_COORD97":2543388.7000000002,"ADDRESS":"民權路一段１６巷８號","OBJECTID":403295},"geometry":{"x":169133.45000000112,"y":2543388.7000000011}},{"attributes":{"ID":403320,"DIS_CODE":0,"TOWNNAME":"中西區","LI":"公正里","LIN":"11鄰","STREET":"衛民街","SECT":" ","MAREA":" ","LANE":"９６巷","ALLEY":" ","HOUSE_NO":"１０號","E_COORD97":168981.16,"N_COORD97":2543750.4300000002,"ADDRESS":"衛民街９６巷１０號","OBJECTID":403296},"geometry":{"x":168981.16000000015,"y":2543750.4300000016}},{"attributes":{"ID":403321,"DIS_CODE":0,"TOWNNAME":"中西區","LI":"公正里","LIN":"11鄰","STREET":"衛民街","SECT":" ","MAREA":" ","LANE":"９６巷","ALLEY":" ","HOUSE_NO":"１２號","E_COORD97":168969.64000000001,"N_COORD97":2543751.1400000001,"ADDRESS":"衛民街９６巷１２號","OBJECTID":403297},"geometry":{"x":168969.63999999873,"y":2543751.1400000006}},{"attributes":{"ID":403322,"DIS_CODE":0,"TOWNNAME":"中西區","LI":"公正里","LIN":"11鄰","STREET":"衛民街","SECT":" ","MAREA":" ","LANE":"９６巷","ALLEY":" ","HOUSE_NO":"１４號","E_COORD97":168975.07999999999,"N_COORD97":2543751.29,"ADDRESS":"衛民街９６巷１４號","OBJECTID":403298},"geometry":{"x":168975.08000000007,"y":2543751.290000001}},{"attributes":{"ID":403323,"DIS_CODE":0,"TOWNNAME":"中西區","LI":"公正里","LIN":"11鄰","STREET":"衛民街","SECT":" ","MAREA":" ","LANE":"９６巷","ALLEY":" ","HOUSE_NO":"１６號","E_COORD97":168981.41,"N_COORD97":2543759.6200000001,"ADDRESS":"衛民街９６巷１６號","OBJECTID":403299},"geometry":{"x":168981.41000000015,"y":2543759.620000001}},{"attributes":{"ID":403324,"DIS_CODE":0,"TOWNNAME":"中西區","LI":"公正里","LIN":"11鄰","STREET":"衛民街","SECT":" ","MAREA":" ","LANE":"９６巷","ALLEY":" ","HOUSE_NO":"１８號","E_COORD97":168977.22,"N_COORD97":2543760.1000000001,"ADDRESS":"衛民街９６巷１８號","OBJECTID":403300},"geometry":{"x":168977.21999999974,"y":2543760.1000000015}},{"attributes":{"ID":403325,"DIS_CODE":0,"TOWNNAME":"中西區","LI":"公正里","LIN":"11鄰","STREET":"衛民街","SECT":" ","MAREA":" ","LANE":"９６巷","ALLEY":" ","HOUSE_NO":"２０號","E_COORD97":168972.92000000001,"N_COORD97":2543762.3500000001,"ADDRESS":"衛民街９６巷２０號","OBJECTID":403301},"geometry":{"x":168972.91999999993,"y":2543762.3499999996}},{"attributes":{"ID":403326,"DIS_CODE":0,"TOWNNAME":"中西區","LI":"公正里","LIN":"11鄰","STREET":"衛民街","SECT":" ","MAREA":" ","LANE":"９６巷","ALLEY":" ","HOUSE_NO":"２２號","E_COORD97":168968.35999999999,"N_COORD97":2543770.8300000001,"ADDRESS":"衛民街９６巷２２號","OBJECTID":403302},"geometry":{"x":168968.36000000034,"y":2543770.8300000001}},{"attributes":{"ID":403327,"DIS_CODE":0,"TOWNNAME":"中西區","LI":"公正里","LIN":"11鄰","STREET":"衛民街","SECT":" ","MAREA":" ","LANE":"９６巷","ALLEY":" ","HOUSE_NO":"２號","E_COORD97":168969.09,"N_COORD97":2543743.3100000001,"ADDRESS":"衛民街９６巷２號","OBJECTID":403303},"geometry":{"x":168969.09000000078,"y":2543743.3100000005}},{"attributes":{"ID":403328,"DIS_CODE":0,"TOWNNAME":"中西區","LI":"公正里","LIN":"11鄰","STREET":"衛民街","SECT":" ","MAREA":" ","LANE":"９６巷","ALLEY":" ","HOUSE_NO":"８號","E_COORD97":168977.73999999999,"N_COORD97":2543749.9199999999,"ADDRESS":"衛民街９６巷８號","OBJECTID":403304},"geometry":{"x":168977.74000000022,"y":2543749.9199999981}},{"attributes":{"ID":403329,"DIS_CODE":0,"TOWNNAME":"中西區","LI":"公正里","LIN":"11鄰","STREET":"衛民街","SECT":" ","MAREA":" ","LANE":"７０巷","ALLEY":" ","HOUSE_NO":"１６號","E_COORD97":169016.84,"N_COORD97":2543758.8900000001,"ADDRESS":"衛民街７０巷１６號","OBJECTID":403305},"geometry":{"x":169016.84000000078,"y":2543758.8900000025}},{"attributes":{"ID":403330,"DIS_CODE":0,"TOWNNAME":"中西區","LI":"公正里","LIN":"11鄰","STREET":"衛民街","SECT":" ","MAREA":" ","LANE":"７０巷","ALLEY":" ","HOUSE_NO":"４０號","E_COORD97":168985.60999999999,"N_COORD97":2543763.0800000001,"ADDRESS":"衛民街７０巷４０號","OBJECTID":403306},"geometry":{"x":168985.61000000034,"y":2543763.0800000019}},{"attributes":{"ID":403331,"DIS_CODE":0,"TOWNNAME":"安南區","LI":"海南里","LIN":"11鄰","STREET":"府安路","SECT":"七段","MAREA":" ","LANE":"１９巷","ALLEY":" ","HOUSE_NO":"１７號","E_COORD97":166022.42000000001,"N_COORD97":2546078.9700000002,"ADDRESS":"府安路七段１９巷１７號","OBJECTID":403307},"geometry":{"x":166022.42000000086,"y":2546078.9700000007}},{"attributes":{"ID":403332,"DIS_CODE":0,"TOWNNAME":"安南區","LI":"淵中里","LIN":"11鄰","STREET":"本原街","SECT":"三段","MAREA":" ","LANE":"２３４巷","ALLEY":" ","HOUSE_NO":"９號","E_COORD97":165326.53,"N_COORD97":2550277.5499999998,"ADDRESS":"本原街三段２３４巷９號","OBJECTID":403308},"geometry":{"x":165326.53000000212,"y":2550277.5500000026}},{"attributes":{"ID":403333,"DIS_CODE":0,"TOWNNAME":"安南區","LI":"淵西里","LIN":"11鄰","STREET":"安中路","SECT":"四段","MAREA":" ","LANE":"２９０巷","ALLEY":" ","HOUSE_NO":"９６號","E_COORD97":164765.75,"N_COORD97":2550255.02,"ADDRESS":"安中路四段２９０巷９６號","OBJECTID":403309},"geometry":{"x":164765.75000000093,"y":2550255.0200000033}},{"attributes":{"ID":403334,"DIS_CODE":0,"TOWNNAME":"安南區","LI":"淵西里","LIN":"11鄰","STREET":"安中路","SECT":"四段","MAREA":" ","LANE":"２９０巷","ALLEY":" ","HOUSE_NO":"１１０號","E_COORD97":164790.29999999999,"N_COORD97":2550267.0499999998,"ADDRESS":"安中路四段２９０巷１１０號","OBJECTID":403310},"geometry":{"x":164790.30000000168,"y":2550267.0500000026}},{"attributes":{"ID":403335,"DIS_CODE":0,"TOWNNAME":"安南區","LI":"淵西里","LIN":"11鄰","STREET":"安中路","SECT":"四段","MAREA":" ","LANE":"２９０巷","ALLEY":" ","HOUSE_NO":"１１８號","E_COORD97":164799.62,"N_COORD97":2550269.1000000001,"ADDRESS":"安中路四段２９０巷１１８號","OBJECTID":403311},"geometry":{"x":164799.62000000011,"y":2550269.1000000015}},{"attributes":{"ID":403336,"DIS_CODE":0,"TOWNNAME":"安南區","LI":"淵西里","LIN":"11鄰","STREET":"安中路","SECT":"四段","MAREA":" ","LANE":"２９０巷","ALLEY":" ","HOUSE_NO":"１２４號","E_COORD97":164804.16,"N_COORD97":2550259.3399999999,"ADDRESS":"安中路四段２９０巷１２４號","OBJECTID":403312},"geometry":{"x":164804.16000000108,"y":2550259.3399999999}},{"attributes":{"ID":403337,"DIS_CODE":0,"TOWNNAME":"安南區","LI":"淵西里","LIN":"11鄰","STREET":"安中路","SECT":"四段","MAREA":" ","LANE":"２９０巷","ALLEY":" ","HOUSE_NO":"１２８號","E_COORD97":164810.29999999999,"N_COORD97":2550252.98,"ADDRESS":"安中路四段２９０巷１２８號","OBJECTID":403313},"geometry":{"x":164810.29999999981,"y":2550252.9800000042}},{"attributes":{"ID":403338,"DIS_CODE":0,"TOWNNAME":"安南區","LI":"淵西里","LIN":"11鄰","STREET":"安中路","SECT":"四段","MAREA":" ","LANE":"２９０巷","ALLEY":" ","HOUSE_NO":"１５１號","E_COORD97":164830.97,"N_COORD97":2550268.4399999999,"ADDRESS":"安中路四段２９０巷１５１號","OBJECTID":403314},"geometry":{"x":164830.96999999974,"y":2550268.4399999995}},{"attributes":{"ID":403339,"DIS_CODE":0,"TOWNNAME":"安南區","LI":"淵西里","LIN":"11鄰","STREET":"安中路","SECT":"四段","MAREA":" ","LANE":"２９０巷","ALLEY":" ","HOUSE_NO":"１５３號","E_COORD97":164833.98000000001,"N_COORD97":2550269.9300000002,"ADDRESS":"安中路四段２９０巷１５３號","OBJECTID":403315},"geometry":{"x":164833.98000000138,"y":2550269.9300000016}},{"attributes":{"ID":403340,"DIS_CODE":0,"TOWNNAME":"安南區","LI":"淵西里","LIN":"11鄰","STREET":"安中路","SECT":"四段","MAREA":" ","LANE":"２９０巷","ALLEY":" ","HOUSE_NO":"１５５號","E_COORD97":164838.85000000001,"N_COORD97":2550267.6899999999,"ADDRESS":"安中路四段２９０巷１５５號","OBJECTID":403316},"geometry":{"x":164838.85000000149,"y":2550267.6900000032}},{"attributes":{"ID":403341,"DIS_CODE":0,"TOWNNAME":"安南區","LI":"淵西里","LIN":"11鄰","STREET":"安中路","SECT":"四段","MAREA":" ","LANE":"２９０巷","ALLEY":" ","HOUSE_NO":"１５７號","E_COORD97":164843.35999999999,"N_COORD97":2550267.6899999999,"ADDRESS":"安中路四段２９０巷１５７號","OBJECTID":403317},"geometry":{"x":164843.36000000127,"y":2550267.6900000032}},{"attributes":{"ID":403342,"DIS_CODE":0,"TOWNNAME":"安南區","LI":"溪心里","LIN":"11鄰","STREET":"海佃路","SECT":"三段","MAREA":" ","LANE":"４８巷","ALLEY":" ","HOUSE_NO":"１號","E_COORD97":166316.28,"N_COORD97":2549865.1899999999,"ADDRESS":"海佃路三段４８巷１號","OBJECTID":403318},"geometry":{"x":166316.28000000026,"y":2549865.1900000013}},{"attributes":{"ID":403343,"DIS_CODE":0,"TOWNNAME":"安南區","LI":"溪心里","LIN":"11鄰","STREET":"海佃路","SECT":"三段","MAREA":" ","LANE":"４８巷","ALLEY":" ","HOUSE_NO":"３號","E_COORD97":166318.23999999999,"N_COORD97":2549870.4500000002,"ADDRESS":"海佃路三段４８巷３號","OBJECTID":403319},"geometry":{"x":166318.24000000022,"y":2549870.4500000011}},{"attributes":{"ID":403344,"DIS_CODE":0,"TOWNNAME":"安南區","LI":"溪心里","LIN":"11鄰","STREET":"海佃路","SECT":"三段","MAREA":" ","LANE":"４８巷","ALLEY":" ","HOUSE_NO":"５號","E_COORD97":166321.23999999999,"N_COORD97":2549873.7400000002,"ADDRESS":"海佃路三段４８巷５號","OBJECTID":403320},"geometry":{"x":166321.24000000022,"y":2549873.7400000002}},{"attributes":{"ID":403345,"DIS_CODE":0,"TOWNNAME":"安南區","LI":"溪心里","LIN":"11鄰","STREET":"海佃路","SECT":"三段","MAREA":" ","LANE":"４８巷","ALLEY":" ","HOUSE_NO":"７號","E_COORD97":166323.64999999999,"N_COORD97":2549878.1099999999,"ADDRESS":"海佃路三段４８巷７號","OBJECTID":403321},"geometry":{"x":166323.65000000037,"y":2549878.1100000031}},{"attributes":{"ID":403346,"DIS_CODE":0,"TOWNNAME":"安南區","LI":"溪心里","LIN":"11鄰","STREET":"海佃路","SECT":"三段","MAREA":" ","LANE":"４８巷","ALLEY":" ","HOUSE_NO":"９號","E_COORD97":166327.35999999999,"N_COORD97":2549881.6800000002,"ADDRESS":"海佃路三段４８巷９號","OBJECTID":403322},"geometry":{"x":166327.36000000034,"y":2549881.6800000016}},{"attributes":{"ID":403347,"DIS_CODE":0,"TOWNNAME":"安南區","LI":"溪心里","LIN":"11鄰","STREET":"海佃路","SECT":"三段","MAREA":" ","LANE":"４８巷","ALLEY":" ","HOUSE_NO":"３７號","E_COORD97":166338.92000000001,"N_COORD97":2549909.1600000001,"ADDRESS":"海佃路三段４８巷３７號","OBJECTID":403323},"geometry":{"x":166338.92000000179,"y":2549909.1600000039}},{"attributes":{"ID":403348,"DIS_CODE":0,"TOWNNAME":"安南區","LI":"溪心里","LIN":"11鄰","STREET":"海佃路","SECT":"三段","MAREA":" ","LANE":"４８巷","ALLEY":" ","HOUSE_NO":"４５號","E_COORD97":166352.57999999999,"N_COORD97":2549926.02,"ADDRESS":"海佃路三段４８巷４５號","OBJECTID":403324},"geometry":{"x":166352.58000000007,"y":2549926.0199999977}},{"attributes":{"ID":403349,"DIS_CODE":0,"TOWNNAME":"安南區","LI":"溪北里","LIN":"11鄰","STREET":"府安路","SECT":"四段","MAREA":" ","LANE":"３４巷","ALLEY":" ","HOUSE_NO":"３５號","E_COORD97":169344,"N_COORD97":2547393.79,"ADDRESS":"府安路四段３４巷３５號","OBJECTID":403325},"geometry":{"x":169344.00000000186,"y":2547393.7899999991}},{"attributes":{"ID":403350,"DIS_CODE":0,"TOWNNAME":"安南區","LI":"總頭里","LIN":"11鄰","STREET":"長溪路","SECT":"二段","MAREA":" ","LANE":"５２３巷","ALLEY":" ","HOUSE_NO":"３４號","E_COORD97":168185.01000000001,"N_COORD97":2550519.7400000002,"ADDRESS":"長溪路二段５２３巷３４號","OBJECTID":403326},"geometry":{"x":168185.01000000071,"y":2550519.7400000021}},{"attributes":{"ID":403351,"DIS_CODE":0,"TOWNNAME":"安南區","LI":"總頭里","LIN":"11鄰","STREET":"長溪路","SECT":"二段","MAREA":" ","LANE":"５２３巷","ALLEY":" ","HOUSE_NO":"３６號","E_COORD97":168180.03,"N_COORD97":2550524.25,"ADDRESS":"長溪路二段５２３巷３６號","OBJECTID":403327},"geometry":{"x":168180.03000000119,"y":2550524.25}},{"attributes":{"ID":403352,"DIS_CODE":0,"TOWNNAME":"安南區","LI":"總頭里","LIN":"11鄰","STREET":"長溪路","SECT":"二段","MAREA":" ","LANE":"５２３巷","ALLEY":" ","HOUSE_NO":"４６號","E_COORD97":168155.62,"N_COORD97":2550528.2999999998,"ADDRESS":"長溪路二段５２３巷４６號","OBJECTID":403328},"geometry":{"x":168155.62000000104,"y":2550528.3000000007}},{"attributes":{"ID":403353,"DIS_CODE":0,"TOWNNAME":"永康區","LI":"\u25A0洲里","LIN":"11鄰","STREET":"\u25A0行路","SECT":" ","MAREA":" ","LANE":"１４６巷","ALLEY":" ","HOUSE_NO":"９號","E_COORD97":171402.62,"N_COORD97":2549261.1299999999,"ADDRESS":"\u25A0行路１４６巷９號","OBJECTID":403329},"geometry":{"x":171402.62000000011,"y":2549261.1300000008}},{"attributes":{"ID":403354,"DIS_CODE":0,"TOWNNAME":"永康區","LI":"龍潭里","LIN":"11鄰","STREET":"龍橋街","SECT":" ","MAREA":" ","LANE":"３巷","ALLEY":" ","HOUSE_NO":"９號","E_COORD97":174851.92999999999,"N_COORD97":2548288.02,"ADDRESS":"龍橋街３巷９號","OBJECTID":403330},"geometry":{"x":174851.93000000156,"y":2548288.0199999996}},{"attributes":{"ID":403355,"DIS_CODE":0,"TOWNNAME":"永康區","LI":"三合里","LIN":"11鄰","STREET":"南工街","SECT":" ","MAREA":" ","LANE":"２４７巷","ALLEY":" ","HOUSE_NO":"８０號","E_COORD97":171952.07999999999,"N_COORD97":2545726,"ADDRESS":"南工街２４７巷８０號","OBJECTID":403331},"geometry":{"x":171952.08000000007,"y":2545725.9999999981}},{"attributes":{"ID":403356,"DIS_CODE":0,"TOWNNAME":"永康區","LI":"\u25A0行里","LIN":"11鄰","STREET":"中正路","SECT":" ","MAREA":" ","LANE":"５１９巷","ALLEY":" ","HOUSE_NO":"１１號","E_COORD97":172160.01000000001,"N_COORD97":2548645.7400000002,"ADDRESS":"中正路５１９巷１１號","OBJECTID":403332},"geometry":{"x":172160.01000000071,"y":2548645.7400000002}},{"attributes":{"ID":403357,"DIS_CODE":0,"TOWNNAME":"永康區","LI":"中興里","LIN":"11鄰","STREET":"中興街","SECT":" ","MAREA":" ","LANE":"１１巷","ALLEY":" ","HOUSE_NO":"１０號","E_COORD97":172054.70999999999,"N_COORD97":2545123.9900000002,"ADDRESS":"中興街１１巷１０號","OBJECTID":403333},"geometry":{"x":172054.70999999903,"y":2545123.9900000021}},{"attributes":{"ID":403358,"DIS_CODE":0,"TOWNNAME":"永康區","LI":"西勢里","LIN":"11鄰","STREET":"廣盛街","SECT":" ","MAREA":" ","LANE":"１５３巷","ALLEY":" ","HOUSE_NO":"３６號","E_COORD97":176041.64000000001,"N_COORD97":2546644.77,"ADDRESS":"廣盛街１５３巷３６號","OBJECTID":403334},"geometry":{"x":176041.63999999966,"y":2546644.7699999996}},{"attributes":{"ID":403359,"DIS_CODE":0,"TOWNNAME":"永康區","LI":"烏竹里","LIN":"11鄰","STREET":"竹園二街","SECT":" ","MAREA":" ","LANE":"１６３巷","ALLEY":" ","HOUSE_NO":"８號","E_COORD97":174550.04000000001,"N_COORD97":2549287.4900000002,"ADDRESS":"竹園二街１６３巷８號","OBJECTID":403335},"geometry":{"x":174550.04000000097,"y":2549287.4900000021}},{"attributes":{"ID":403360,"DIS_CODE":0,"TOWNNAME":"永康區","LI":"崑山里","LIN":"11鄰","STREET":"大灣路","SECT":" ","MAREA":" ","LANE":"１０２０巷","ALLEY":" ","HOUSE_NO":"３號","E_COORD97":173431.01000000001,"N_COORD97":2544405.1699999999,"ADDRESS":"大灣路１０２０巷３號","OBJECTID":403336},"geometry":{"x":173431.01000000071,"y":2544405.1699999999}},{"attributes":{"ID":403361,"DIS_CODE":0,"TOWNNAME":"永康區","LI":"烏竹里","LIN":"11鄰","STREET":"竹園二街","SECT":" ","MAREA":" ","LANE":"２０２巷","ALLEY":" ","HOUSE_NO":"６號","E_COORD97":174638.16,"N_COORD97":2549298.0800000001,"ADDRESS":"竹園二街２０２巷６號","OBJECTID":403337},"geometry":{"x":174638.16000000015,"y":2549298.0800000001}},{"attributes":{"ID":403362,"DIS_CODE":0,"TOWNNAME":"安南區","LI":"新順里","LIN":"11鄰","STREET":"安豐五街","SECT":" ","MAREA":" ","LANE":"１８６巷","ALLEY":" ","HOUSE_NO":"３２號","E_COORD97":169792.79000000001,"N_COORD97":2549709.6600000001,"ADDRESS":"安豐五街１８６巷３２號","OBJECTID":403338},"geometry":{"x":169792.79000000004,"y":2549709.660000002}},{"attributes":{"ID":403363,"DIS_CODE":0,"TOWNNAME":"安南區","LI":"新順里","LIN":"11鄰","STREET":"安豐五街","SECT":" ","MAREA":" ","LANE":"１８６巷","ALLEY":" ","HOUSE_NO":"３６號","E_COORD97":169791.89999999999,"N_COORD97":2549706.23,"ADDRESS":"安豐五街１８６巷３６號","OBJECTID":403339},"geometry":{"x":169791.90000000037,"y":2549706.2300000023}},{"attributes":{"ID":403364,"DIS_CODE":0,"TOWNNAME":"安南區","LI":"新順里","LIN":"11鄰","STREET":"安豐五街","SECT":" ","MAREA":" ","LANE":"１８６巷","ALLEY":" ","HOUSE_NO":"３８號","E_COORD97":169790.70000000001,"N_COORD97":2549702.6499999999,"ADDRESS":"安豐五街１８６巷３８號","OBJECTID":403340},"geometry":{"x":169790.70000000112,"y":2549702.6500000041}},{"attributes":{"ID":403365,"DIS_CODE":0,"TOWNNAME":"安南區","LI":"新順里","LIN":"11鄰","STREET":"安豐五街","SECT":" ","MAREA":" ","LANE":"１８６巷","ALLEY":" ","HOUSE_NO":"４０號","E_COORD97":169789.81,"N_COORD97":2549699.5099999998,"ADDRESS":"安豐五街１８６巷４０號","OBJECTID":403341},"geometry":{"x":169789.81000000052,"y":2549699.5100000035}},{"attributes":{"ID":403366,"DIS_CODE":0,"TOWNNAME":"安南區","LI":"新順里","LIN":"11鄰","STREET":"安豐五街","SECT":" ","MAREA":" ","LANE":"１８６巷","ALLEY":" ","HOUSE_NO":"４２號","E_COORD97":169788.91,"N_COORD97":2549696.3700000001,"ADDRESS":"安豐五街１８６巷４２號","OBJECTID":403342},"geometry":{"x":169788.91000000201,"y":2549696.3700000029}},{"attributes":{"ID":403367,"DIS_CODE":0,"TOWNNAME":"安南區","LI":"新順里","LIN":"11鄰","STREET":"安豐五街","SECT":" ","MAREA":" ","LANE":"１８６巷","ALLEY":" ","HOUSE_NO":"４６號","E_COORD97":169788.01000000001,"N_COORD97":2549692.9399999999,"ADDRESS":"安豐五街１８６巷４６號","OBJECTID":403343},"geometry":{"x":169788.01000000071,"y":2549692.9400000032}},{"attributes":{"ID":403368,"DIS_CODE":0,"TOWNNAME":"安南區","LI":"新順里","LIN":"11鄰","STREET":"安豐五街","SECT":" ","MAREA":" ","LANE":"１８６巷","ALLEY":" ","HOUSE_NO":"４８號","E_COORD97":169786.82000000001,"N_COORD97":2549689.0600000001,"ADDRESS":"安豐五街１８６巷４８號","OBJECTID":403344},"geometry":{"x":169786.82000000123,"y":2549689.0600000005}},{"attributes":{"ID":403369,"DIS_CODE":0,"TOWNNAME":"安南區","LI":"新順里","LIN":"11鄰","STREET":"安豐五街","SECT":" ","MAREA":" ","LANE":"１８６巷","ALLEY":" ","HOUSE_NO":"５０號","E_COORD97":169785.92000000001,"N_COORD97":2549685.4700000002,"ADDRESS":"安豐五街１８６巷５０號","OBJECTID":403345},"geometry":{"x":169785.92000000086,"y":2549685.4700000007}},{"attributes":{"ID":403370,"DIS_CODE":0,"TOWNNAME":"安南區","LI":"新順里","LIN":"11鄰","STREET":"安豐五街","SECT":" ","MAREA":" ","LANE":"１８６巷","ALLEY":" ","HOUSE_NO":"５１號","E_COORD97":169800.10999999999,"N_COORD97":2549670.2400000002,"ADDRESS":"安豐五街１８６巷５１號","OBJECTID":403346},"geometry":{"x":169800.11000000127,"y":2549670.2400000002}},{"attributes":{"ID":403371,"DIS_CODE":0,"TOWNNAME":"安南區","LI":"新順里","LIN":"11鄰","STREET":"安豐五街","SECT":" ","MAREA":" ","LANE":"１８６巷","ALLEY":" ","HOUSE_NO":"５３號","E_COORD97":169798.76999999999,"N_COORD97":2549665.9100000001,"ADDRESS":"安豐五街１８６巷５３號","OBJECTID":403347},"geometry":{"x":169798.76999999955,"y":2549665.9100000001}},{"attributes":{"ID":403372,"DIS_CODE":0,"TOWNNAME":"安南區","LI":"新順里","LIN":"11鄰","STREET":"安豐五街","SECT":" ","MAREA":" ","LANE":"１８６巷","ALLEY":" ","HOUSE_NO":"５５號","E_COORD97":169796.97,"N_COORD97":2549661.5800000001,"ADDRESS":"安豐五街１８６巷５５號","OBJECTID":403348},"geometry":{"x":169796.97000000067,"y":2549661.5800000001}},{"attributes":{"ID":403373,"DIS_CODE":0,"TOWNNAME":"安南區","LI":"新順里","LIN":"11鄰","STREET":"安豐五街","SECT":" ","MAREA":" ","LANE":"１８６巷","ALLEY":" ","HOUSE_NO":"５７號","E_COORD97":169795.48000000001,"N_COORD97":2549656.6499999999,"ADDRESS":"安豐五街１８６巷５７號","OBJECTID":403349},"geometry":{"x":169795.48000000231,"y":2549656.6500000022}},{"attributes":{"ID":403374,"DIS_CODE":0,"TOWNNAME":"安南區","LI":"溪墘里","LIN":"11鄰","STREET":"海佃路","SECT":"一段","MAREA":" ","LANE":"２８４巷","ALLEY":" ","HOUSE_NO":"２號之３","E_COORD97":167153.28,"N_COORD97":2547431.6600000001,"ADDRESS":"海佃路一段２８４巷２號之３","OBJECTID":403350},"geometry":{"x":167153.28000000026,"y":2547431.660000002}},{"attributes":{"ID":403375,"DIS_CODE":0,"TOWNNAME":"安南區","LI":"布袋里","LIN":"11鄰","STREET":"長和路","SECT":"四段","MAREA":" ","LANE":"１６０巷","ALLEY":" ","HOUSE_NO":"６２號","E_COORD97":168970.84,"N_COORD97":2551851.77,"ADDRESS":"長和路四段１６０巷６２號","OBJECTID":403351},"geometry":{"x":168970.84000000078,"y":2551851.7700000014}},{"attributes":{"ID":403376,"DIS_CODE":0,"TOWNNAME":"安南區","LI":"新順里","LIN":"11鄰","STREET":"安和路","SECT":"三段","MAREA":" ","LANE":"１１５巷","ALLEY":" ","HOUSE_NO":"２５號","E_COORD97":169767.94,"N_COORD97":2549647.2999999998,"ADDRESS":"安和路三段１１５巷２５號","OBJECTID":403352},"geometry":{"x":169767.94000000041,"y":2549647.3000000007}},{"attributes":{"ID":403377,"DIS_CODE":0,"TOWNNAME":"安南區","LI":"新順里","LIN":"11鄰","STREET":"安和路","SECT":"三段","MAREA":" ","LANE":"１１５巷","ALLEY":" ","HOUSE_NO":"２７號","E_COORD97":169763.23999999999,"N_COORD97":2549648.7000000002,"ADDRESS":"安和路三段１１５巷２７號","OBJECTID":403353},"geometry":{"x":169763.24000000115,"y":2549648.6999999993}},{"attributes":{"ID":403378,"DIS_CODE":0,"TOWNNAME":"安南區","LI":"新順里","LIN":"11鄰","STREET":"安和路","SECT":"三段","MAREA":" ","LANE":"１１５巷","ALLEY":" ","HOUSE_NO":"３１號","E_COORD97":169751.54999999999,"N_COORD97":2549652.1299999999,"ADDRESS":"安和路三段１１５巷３１號","OBJECTID":403354},"geometry":{"x":169751.54999999981,"y":2549652.129999999}},{"attributes":{"ID":403379,"DIS_CODE":0,"TOWNNAME":"安南區","LI":"新順里","LIN":"11鄰","STREET":"安和路","SECT":"三段","MAREA":" ","LANE":"１１５巷","ALLEY":" ","HOUSE_NO":"３３號","E_COORD97":169746.09,"N_COORD97":2549654.0299999998,"ADDRESS":"安和路三段１１５巷３３號","OBJECTID":403355},"geometry":{"x":169746.08999999985,"y":2549654.0299999993}},{"attributes":{"ID":403380,"DIS_CODE":0,"TOWNNAME":"安南區","LI":"新順里","LIN":"11鄰","STREET":"安和路","SECT":"三段","MAREA":" ","LANE":"１１５巷","ALLEY":" ","HOUSE_NO":"３５號","E_COORD97":169740.25,"N_COORD97":2549655.6899999999,"ADDRESS":"安和路三段１１５巷３５號","OBJECTID":403356},"geometry":{"x":169740.25,"y":2549655.6899999995}},{"attributes":{"ID":403381,"DIS_CODE":0,"TOWNNAME":"仁德區","LI":"保安里","LIN":"11鄰","STREET":"文賢路","SECT":"一段","MAREA":" ","LANE":"８４７巷","ALLEY":" ","HOUSE_NO":"１８號","E_COORD97":171674,"N_COORD97":2535988.5699999998,"ADDRESS":"文賢路一段８４７巷１８號","OBJECTID":403357},"geometry":{"x":171674.00000000093,"y":2535988.5700000003}},{"attributes":{"ID":403382,"DIS_CODE":0,"TOWNNAME":"永康區","LI":"六合里","LIN":"11鄰","STREET":"六合路","SECT":" ","MAREA":" ","LANE":"６２巷","ALLEY":" ","HOUSE_NO":"１２號","E_COORD97":171229.82000000001,"N_COORD97":2545673.4900000002,"ADDRESS":"六合路６２巷１２號","OBJECTID":403358},"geometry":{"x":171229.8200000003,"y":2545673.4900000021}},{"attributes":{"ID":403383,"DIS_CODE":0,"TOWNNAME":"永康區","LI":"六合里","LIN":"11鄰","STREET":"六合路","SECT":" ","MAREA":" ","LANE":"６２巷","ALLEY":" ","HOUSE_NO":"１３號","E_COORD97":171233.82000000001,"N_COORD97":2545673.2400000002,"ADDRESS":"六合路６２巷１３號","OBJECTID":403359},"geometry":{"x":171233.8200000003,"y":2545673.2400000002}},{"attributes":{"ID":403384,"DIS_CODE":0,"TOWNNAME":"永康區","LI":"六合里","LIN":"11鄰","STREET":"六合路","SECT":" ","MAREA":" ","LANE":"６２巷","ALLEY":" ","HOUSE_NO":"１４號","E_COORD97":171237.98999999999,"N_COORD97":2545673.2400000002,"ADDRESS":"六合路６２巷１４號","OBJECTID":403360},"geometry":{"x":171237.99000000115,"y":2545673.2400000002}},{"attributes":{"ID":403385,"DIS_CODE":0,"TOWNNAME":"永康區","LI":"六合里","LIN":"11鄰","STREET":"六合路","SECT":" ","MAREA":" ","LANE":"６２巷","ALLEY":" ","HOUSE_NO":"１５號","E_COORD97":171241.98999999999,"N_COORD97":2545672.9900000002,"ADDRESS":"六合路６２巷１５號","OBJECTID":403361},"geometry":{"x":171241.99000000115,"y":2545672.9900000021}},{"attributes":{"ID":403386,"DIS_CODE":0,"TOWNNAME":"永康區","LI":"六合里","LIN":"11鄰","STREET":"六合路","SECT":" ","MAREA":" ","LANE":"６２巷","ALLEY":" ","HOUSE_NO":"１６號","E_COORD97":171246.39999999999,"N_COORD97":2545672.4900000002,"ADDRESS":"六合路６２巷１６號","OBJECTID":403362},"geometry":{"x":171246.40000000037,"y":2545672.4900000039}},{"attributes":{"ID":403387,"DIS_CODE":0,"TOWNNAME":"永康區","LI":"六合里","LIN":"11鄰","STREET":"六合路","SECT":" ","MAREA":" ","LANE":"６２巷","ALLEY":" ","HOUSE_NO":"１７號","E_COORD97":171251.20999999999,"N_COORD97":2545672.4900000002,"ADDRESS":"六合路６２巷１７號","OBJECTID":403363},"geometry":{"x":171251.20999999903,"y":2545672.4900000039}},{"attributes":{"ID":403388,"DIS_CODE":0,"TOWNNAME":"永康區","LI":"六合里","LIN":"11鄰","STREET":"六合路","SECT":" ","MAREA":" ","LANE":"６２巷","ALLEY":" ","HOUSE_NO":"１８號","E_COORD97":171256.45999999999,"N_COORD97":2545672.2400000002,"ADDRESS":"六合路６２巷１８號","OBJECTID":403364},"geometry":{"x":171256.46000000183,"y":2545672.2400000021}},{"attributes":{"ID":403389,"DIS_CODE":0,"TOWNNAME":"永康區","LI":"六合里","LIN":"11鄰","STREET":"六合路","SECT":" ","MAREA":" ","LANE":"６２巷","ALLEY":" ","HOUSE_NO":"１９號","E_COORD97":171260.79000000001,"N_COORD97":2545671.7400000002,"ADDRESS":"六合路６２巷１９號","OBJECTID":403365},"geometry":{"x":171260.79000000004,"y":2545671.7400000021}},{"attributes":{"ID":403390,"DIS_CODE":0,"TOWNNAME":"永康區","LI":"六合里","LIN":"11鄰","STREET":"六合路","SECT":" ","MAREA":" ","LANE":"６２巷","ALLEY":" ","HOUSE_NO":"１號","E_COORD97":171182.70000000001,"N_COORD97":2545675.2400000002,"ADDRESS":"六合路６２巷１號","OBJECTID":403366},"geometry":{"x":171182.70000000112,"y":2545675.2400000021}},{"attributes":{"ID":403391,"DIS_CODE":0,"TOWNNAME":"永康區","LI":"六合里","LIN":"11鄰","STREET":"六合路","SECT":" ","MAREA":" ","LANE":"６２巷","ALLEY":" ","HOUSE_NO":"２０號","E_COORD97":171265.32000000001,"N_COORD97":2545671.2400000002,"ADDRESS":"六合路６２巷２０號","OBJECTID":403367},"geometry":{"x":171265.32000000123,"y":2545671.2400000021}},{"attributes":{"ID":403392,"DIS_CODE":0,"TOWNNAME":"永康區","LI":"六合里","LIN":"11鄰","STREET":"六合路","SECT":" ","MAREA":" ","LANE":"６２巷","ALLEY":" ","HOUSE_NO":"２１號","E_COORD97":171271.70999999999,"N_COORD97":2545672.9900000002,"ADDRESS":"六合路６２巷２１號","OBJECTID":403368},"geometry":{"x":171271.71000000183,"y":2545672.9900000021}},{"attributes":{"ID":403393,"DIS_CODE":0,"TOWNNAME":"永康區","LI":"六合里","LIN":"11鄰","STREET":"六合路","SECT":" ","MAREA":" ","LANE":"６２巷","ALLEY":" ","HOUSE_NO":"２號","E_COORD97":171186.62,"N_COORD97":2545674.9900000002,"ADDRESS":"六合路６２巷２號","OBJECTID":403369},"geometry":{"x":171186.62000000104,"y":2545674.9900000002}},{"attributes":{"ID":403394,"DIS_CODE":0,"TOWNNAME":"永康區","LI":"六合里","LIN":"11鄰","STREET":"六合路","SECT":" ","MAREA":" ","LANE":"６２巷","ALLEY":" ","HOUSE_NO":"３號","E_COORD97":171190.98000000001,"N_COORD97":2545674.7400000002,"ADDRESS":"六合路６２巷３號","OBJECTID":403370},"geometry":{"x":171190.98000000138,"y":2545674.7400000021}},{"attributes":{"ID":403395,"DIS_CODE":0,"TOWNNAME":"永康區","LI":"六合里","LIN":"11鄰","STREET":"六合路","SECT":" ","MAREA":" ","LANE":"６２巷","ALLEY":" ","HOUSE_NO":"４號","E_COORD97":171195.42000000001,"N_COORD97":2545674.4900000002,"ADDRESS":"六合路６２巷４號","OBJECTID":403371},"geometry":{"x":171195.41999999993,"y":2545674.4900000002}},{"attributes":{"ID":403396,"DIS_CODE":0,"TOWNNAME":"永康區","LI":"六合里","LIN":"11鄰","STREET":"六合路","SECT":" ","MAREA":" ","LANE":"６２巷","ALLEY":" ","HOUSE_NO":"５號","E_COORD97":171199.60999999999,"N_COORD97":2545674.2400000002,"ADDRESS":"六合路６２巷５號","OBJECTID":403372},"geometry":{"x":171199.61000000034,"y":2545674.2400000039}},{"attributes":{"ID":403397,"DIS_CODE":0,"TOWNNAME":"永康區","LI":"六合里","LIN":"11鄰","STREET":"六合路","SECT":" ","MAREA":" ","LANE":"６２巷","ALLEY":" ","HOUSE_NO":"６號","E_COORD97":171204.07000000001,"N_COORD97":2545673.9900000002,"ADDRESS":"六合路６２巷６號","OBJECTID":403373},"geometry":{"x":171204.07000000123,"y":2545673.9900000002}},{"attributes":{"ID":403398,"DIS_CODE":0,"TOWNNAME":"永康區","LI":"六合里","LIN":"11鄰","STREET":"六合路","SECT":" ","MAREA":" ","LANE":"６２巷","ALLEY":" ","HOUSE_NO":"７號","E_COORD97":171208.42999999999,"N_COORD97":2545673.7400000002,"ADDRESS":"六合路６２巷７號","OBJECTID":403374},"geometry":{"x":171208.4299999997,"y":2545673.7399999984}},{"attributes":{"ID":403399,"DIS_CODE":0,"TOWNNAME":"永康區","LI":"六合里","LIN":"11鄰","STREET":"六合路","SECT":" ","MAREA":" ","LANE":"６２巷","ALLEY":" ","HOUSE_NO":"８號","E_COORD97":171212.87,"N_COORD97":2545673.4900000002,"ADDRESS":"六合路６２巷８號","OBJECTID":403375},"geometry":{"x":171212.87000000011,"y":2545673.4900000021}},{"attributes":{"ID":403400,"DIS_CODE":0,"TOWNNAME":"永康區","LI":"六合里","LIN":"11鄰","STREET":"六合路","SECT":" ","MAREA":" ","LANE":"６２巷","ALLEY":" ","HOUSE_NO":"９號","E_COORD97":171216.89999999999,"N_COORD97":2545673.4900000002,"ADDRESS":"六合路６２巷９號","OBJECTID":403376},"geometry":{"x":171216.9000000013,"y":2545673.4900000021}},{"attributes":{"ID":403401,"DIS_CODE":0,"TOWNNAME":"永康區","LI":"六合里","LIN":"11鄰","STREET":"六合路","SECT":" ","MAREA":" ","LANE":"６８巷","ALLEY":" ","HOUSE_NO":"１０號","E_COORD97":171208.44,"N_COORD97":2545697.6200000001,"ADDRESS":"六合路６８巷１０號","OBJECTID":403377},"geometry":{"x":171208.44000000134,"y":2545697.6200000029}},{"attributes":{"ID":403402,"DIS_CODE":0,"TOWNNAME":"永康區","LI":"六合里","LIN":"11鄰","STREET":"六合路","SECT":" ","MAREA":" ","LANE":"６８巷","ALLEY":" ","HOUSE_NO":"１２號","E_COORD97":171213.22,"N_COORD97":2545697.3700000001,"ADDRESS":"六合路６８巷１２號","OBJECTID":403378},"geometry":{"x":171213.21999999974,"y":2545697.370000001}},{"attributes":{"ID":403403,"DIS_CODE":0,"TOWNNAME":"永康區","LI":"六合里","LIN":"11鄰","STREET":"六合路","SECT":" ","MAREA":" ","LANE":"６８巷","ALLEY":" ","HOUSE_NO":"１４號","E_COORD97":171217.47,"N_COORD97":2545697.3700000001,"ADDRESS":"六合路６８巷１４號","OBJECTID":403379},"geometry":{"x":171217.47000000067,"y":2545697.370000001}},{"attributes":{"ID":403404,"DIS_CODE":0,"TOWNNAME":"永康區","LI":"六合里","LIN":"11鄰","STREET":"六合路","SECT":" ","MAREA":" ","LANE":"６８巷","ALLEY":" ","HOUSE_NO":"１６號","E_COORD97":171221.82999999999,"N_COORD97":2545697.3700000001,"ADDRESS":"六合路６８巷１６號","OBJECTID":403380},"geometry":{"x":171221.83000000194,"y":2545697.370000001}},{"attributes":{"ID":403405,"DIS_CODE":0,"TOWNNAME":"永康區","LI":"六合里","LIN":"11鄰","STREET":"六合路","SECT":" ","MAREA":" ","LANE":"６８巷","ALLEY":" ","HOUSE_NO":"１８號","E_COORD97":171226.19,"N_COORD97":2545697.1200000001,"ADDRESS":"六合路６８巷１８號","OBJECTID":403381},"geometry":{"x":171226.19000000041,"y":2545697.1200000029}},{"attributes":{"ID":403406,"DIS_CODE":0,"TOWNNAME":"永康區","LI":"六合里","LIN":"11鄰","STREET":"六合路","SECT":" ","MAREA":" ","LANE":"６８巷","ALLEY":" ","HOUSE_NO":"２０號","E_COORD97":171230.19,"N_COORD97":2545696.7200000002,"ADDRESS":"六合路６８巷２０號","OBJECTID":403382},"geometry":{"x":171230.19000000134,"y":2545696.7200000007}},{"attributes":{"ID":403407,"DIS_CODE":0,"TOWNNAME":"永康區","LI":"六合里","LIN":"11鄰","STREET":"六合路","SECT":" ","MAREA":" ","LANE":"６８巷","ALLEY":" ","HOUSE_NO":"２２號","E_COORD97":171234.84,"N_COORD97":2545696.2200000002,"ADDRESS":"六合路６８巷２２號","OBJECTID":403383},"geometry":{"x":171234.83999999985,"y":2545696.2200000025}},{"attributes":{"ID":403408,"DIS_CODE":0,"TOWNNAME":"永康區","LI":"六合里","LIN":"11鄰","STREET":"六合路","SECT":" ","MAREA":" ","LANE":"６８巷","ALLEY":" ","HOUSE_NO":"２４號","E_COORD97":171239.87,"N_COORD97":2545696.1099999999,"ADDRESS":"六合路６８巷２４號","OBJECTID":403384},"geometry":{"x":171239.87000000011,"y":2545696.1099999994}},{"attributes":{"ID":403409,"DIS_CODE":0,"TOWNNAME":"永康區","LI":"六合里","LIN":"11鄰","STREET":"六合路","SECT":" ","MAREA":" ","LANE":"６８巷","ALLEY":" ","HOUSE_NO":"２６號","E_COORD97":171244.5,"N_COORD97":2545696.1200000001,"ADDRESS":"六合路６８巷２６號","OBJECTID":403385},"geometry":{"x":171244.50000000093,"y":2545696.1200000048}},{"attributes":{"ID":403410,"DIS_CODE":0,"TOWNNAME":"永康區","LI":"六合里","LIN":"11鄰","STREET":"六合路","SECT":" ","MAREA":" ","LANE":"６８巷","ALLEY":" ","HOUSE_NO":"２８號","E_COORD97":171249,"N_COORD97":2545695.6200000001,"ADDRESS":"六合路６８巷２８號","OBJECTID":403386},"geometry":{"x":171249,"y":2545695.620000001}},{"attributes":{"ID":403411,"DIS_CODE":0,"TOWNNAME":"永康區","LI":"六合里","LIN":"11鄰","STREET":"六合路","SECT":" ","MAREA":" ","LANE":"６８巷","ALLEY":" ","HOUSE_NO":"２號","E_COORD97":171188.13,"N_COORD97":2545698.1200000001,"ADDRESS":"六合路６８巷２號","OBJECTID":403387},"geometry":{"x":171188.13000000082,"y":2545698.120000001}},{"attributes":{"ID":403412,"DIS_CODE":0,"TOWNNAME":"永康區","LI":"六合里","LIN":"11鄰","STREET":"六合路","SECT":" ","MAREA":" ","LANE":"６８巷","ALLEY":" ","HOUSE_NO":"３０號","E_COORD97":171254.41,"N_COORD97":2545695.3700000001,"ADDRESS":"六合路６８巷３０號","OBJECTID":403388},"geometry":{"x":171254.41000000015,"y":2545695.3700000029}},{"attributes":{"ID":403413,"DIS_CODE":0,"TOWNNAME":"永康區","LI":"六合里","LIN":"11鄰","STREET":"六合路","SECT":" ","MAREA":" ","LANE":"６８巷","ALLEY":" ","HOUSE_NO":"３２號","E_COORD97":171259.91,"N_COORD97":2545695.6200000001,"ADDRESS":"六合路６８巷３２號","OBJECTID":403389},"geometry":{"x":171259.91000000015,"y":2545695.620000001}},{"attributes":{"ID":403414,"DIS_CODE":0,"TOWNNAME":"永康區","LI":"六合里","LIN":"11鄰","STREET":"六合路","SECT":" ","MAREA":" ","LANE":"６８巷","ALLEY":" ","HOUSE_NO":"４０號","E_COORD97":171273.41,"N_COORD97":2545694.8700000001,"ADDRESS":"六合路６８巷４０號","OBJECTID":403390},"geometry":{"x":171273.41000000015,"y":2545694.8700000029}},{"attributes":{"ID":403415,"DIS_CODE":0,"TOWNNAME":"永康區","LI":"六合里","LIN":"11鄰","STREET":"六合路","SECT":" ","MAREA":" ","LANE":"６８巷","ALLEY":" ","HOUSE_NO":"４６號","E_COORD97":171283.60999999999,"N_COORD97":2545695.6200000001,"ADDRESS":"六合路６８巷４６號","OBJECTID":403391},"geometry":{"x":171283.61000000127,"y":2545695.620000001}},{"attributes":{"ID":403416,"DIS_CODE":0,"TOWNNAME":"永康區","LI":"六合里","LIN":"11鄰","STREET":"六合路","SECT":" ","MAREA":" ","LANE":"６８巷","ALLEY":" ","HOUSE_NO":"４８號","E_COORD97":171289.70000000001,"N_COORD97":2545695.6200000001,"ADDRESS":"六合路６８巷４８號","OBJECTID":403392},"geometry":{"x":171289.70000000112,"y":2545695.620000001}},{"attributes":{"ID":403417,"DIS_CODE":0,"TOWNNAME":"永康區","LI":"六合里","LIN":"11鄰","STREET":"六合路","SECT":" ","MAREA":" ","LANE":"６８巷","ALLEY":" ","HOUSE_NO":"６號","E_COORD97":171197.64000000001,"N_COORD97":2545698.1200000001,"ADDRESS":"六合路６８巷６號","OBJECTID":403393},"geometry":{"x":171197.6400000006,"y":2545698.120000001}},{"attributes":{"ID":403418,"DIS_CODE":0,"TOWNNAME":"永康區","LI":"六合里","LIN":"11鄰","STREET":"六合路","SECT":" ","MAREA":" ","LANE":"６８巷","ALLEY":" ","HOUSE_NO":"８號","E_COORD97":171202.51999999999,"N_COORD97":2545697.6200000001,"ADDRESS":"六合路６８巷８號","OBJECTID":403394},"geometry":{"x":171202.51999999955,"y":2545697.6200000029}},{"attributes":{"ID":403419,"DIS_CODE":0,"TOWNNAME":"仁德區","LI":"保安里","LIN":"11鄰","STREET":"文賢路","SECT":"一段","MAREA":" ","LANE":"８５３巷","ALLEY":" ","HOUSE_NO":"６號","E_COORD97":171671.12,"N_COORD97":2535940.3199999998,"ADDRESS":"文賢路一段８５３巷６號","OBJECTID":403395},"geometry":{"x":171671.12000000104,"y":2535940.3200000022}},{"attributes":{"ID":403420,"DIS_CODE":0,"TOWNNAME":"仁德區","LI":"田厝里","LIN":"10鄰","STREET":"田厝二街","SECT":" ","MAREA":" ","LANE":"８６巷","ALLEY":" ","HOUSE_NO":"３６號","E_COORD97":172390.35000000001,"N_COORD97":2537810.75,"ADDRESS":"田厝二街８６巷３６號","OBJECTID":403396},"geometry":{"x":172390.34999999963,"y":2537810.75}},{"attributes":{"ID":403421,"DIS_CODE":0,"TOWNNAME":"仁德區","LI":"成功里","LIN":"35鄰","STREET":"成功一街","SECT":" ","MAREA":" ","LANE":"６７巷","ALLEY":" ","HOUSE_NO":"１號","E_COORD97":170550.20000000001,"N_COORD97":2540056.2599999998,"ADDRESS":"成功一街６７巷１號","OBJECTID":403397},"geometry":{"x":170550.20000000112,"y":2540056.2600000016}},{"attributes":{"ID":403422,"DIS_CODE":0,"TOWNNAME":"仁德區","LI":"田厝里","LIN":"11鄰","STREET":"田厝二街","SECT":" ","MAREA":" ","LANE":"７１巷","ALLEY":" ","HOUSE_NO":"２０號","E_COORD97":172281.01999999999,"N_COORD97":2537680.7400000002,"ADDRESS":"田厝二街７１巷２０號","OBJECTID":403398},"geometry":{"x":172281.01999999862,"y":2537680.7400000021}},{"attributes":{"ID":403423,"DIS_CODE":0,"TOWNNAME":"仁德區","LI":"二行里","LIN":"11鄰","STREET":"行大街","SECT":" ","MAREA":" ","LANE":"１７２巷","ALLEY":" ","HOUSE_NO":"２號","E_COORD97":170020.31,"N_COORD97":2535131,"ADDRESS":"行大街１７２巷２號","OBJECTID":403399},"geometry":{"x":170020.31000000052,"y":2535131}},{"attributes":{"ID":403424,"DIS_CODE":0,"TOWNNAME":"仁德區","LI":"田厝里","LIN":"11鄰","STREET":"田厝二街","SECT":" ","MAREA":" ","LANE":"７１巷","ALLEY":" ","HOUSE_NO":"７號","E_COORD97":172333.92000000001,"N_COORD97":2537648.75,"ADDRESS":"田厝二街７１巷７號","OBJECTID":403400},"geometry":{"x":172333.92000000086,"y":2537648.7500000037}}]}