{"displayFieldName":"TOWNNAME","fieldAliases":{"ID":"ID","DIS_CODE":"DIS_CODE","TOWNNAME":"TOWNNAME","LI":"LI","LIN":"LIN","STREET":"STREET","SECT":"SECT","MAREA":"MAREA","LANE":"LANE","ALLEY":"ALLEY","HOUSE_NO":"HOUSE_NO","E_COORD97":"E_COORD97","N_COORD97":"N_COORD97","ADDRESS":"ADDRESS","OBJECTID":"OBJECTID"},"geometryType":"esriGeometryPoint","spatialReference":{"wkid":102443,"latestWkid":3826},"fields":[{"name":"ID","type":"esriFieldTypeDouble","alias":"ID"},{"name":"DIS_CODE","type":"esriFieldTypeInteger","alias":"DIS_CODE"},{"name":"TOWNNAME","type":"esriFieldTypeString","alias":"TOWNNAME","length":8},{"name":"LI","type":"esriFieldTypeString","alias":"LI","length":8},{"name":"LIN","type":"esriFieldTypeString","alias":"LIN","length":12},{"name":"STREET","type":"esriFieldTypeString","alias":"STREET","length":20},{"name":"SECT","type":"esriFieldTypeString","alias":"SECT","length":8},{"name":"MAREA","type":"esriFieldTypeString","alias":"MAREA","length":12},{"name":"LANE","type":"esriFieldTypeString","alias":"LANE","length":10},{"name":"ALLEY","type":"esriFieldTypeString","alias":"ALLEY","length":10},{"name":"HOUSE_NO","type":"esriFieldTypeString","alias":"HOUSE_NO","length":20},{"name":"E_COORD97","type":"esriFieldTypeDouble","alias":"E_COORD97"},{"name":"N_COORD97","type":"esriFieldTypeDouble","alias":"N_COORD97"},{"name":"ADDRESS","type":"esriFieldTypeString","alias":"ADDRESS","length":50},{"name":"OBJECTID","type":"esriFieldTypeOID","alias":"OBJECTID"}],"features":[{"attributes":{"ID":489626,"DIS_CODE":0,"TOWNNAME":"東區","LI":"富裕里","LIN":"13鄰","STREET":"裕豐街","SECT":" ","MAREA":" ","LANE":" ","ALLEY":" ","HOUSE_NO":"２９號二樓之８","E_COORD97":170679.91,"N_COORD97":2542758.5499999998,"ADDRESS":"裕豐街２９號二樓之８","OBJECTID":489601},"geometry":{"x":170679.91000000015,"y":2542758.5500000007}},{"attributes":{"ID":489627,"DIS_CODE":0,"TOWNNAME":"東區","LI":"富裕里","LIN":"13鄰","STREET":"裕豐街","SECT":" ","MAREA":" ","LANE":" ","ALLEY":" ","HOUSE_NO":"２９號三樓之４","E_COORD97":170679.91,"N_COORD97":2542758.5499999998,"ADDRESS":"裕豐街２９號三樓之４","OBJECTID":489602},"geometry":{"x":170679.91000000015,"y":2542758.5500000007}},{"attributes":{"ID":489628,"DIS_CODE":0,"TOWNNAME":"東區","LI":"富裕里","LIN":"13鄰","STREET":"裕豐街","SECT":" ","MAREA":" ","LANE":" ","ALLEY":" ","HOUSE_NO":"２９號三樓之５","E_COORD97":170679.91,"N_COORD97":2542758.5499999998,"ADDRESS":"裕豐街２９號三樓之５","OBJECTID":489603},"geometry":{"x":170679.91000000015,"y":2542758.5500000007}},{"attributes":{"ID":489629,"DIS_CODE":0,"TOWNNAME":"東區","LI":"富裕里","LIN":"13鄰","STREET":"裕豐街","SECT":" ","MAREA":" ","LANE":" ","ALLEY":" ","HOUSE_NO":"２９號三樓之７","E_COORD97":170679.91,"N_COORD97":2542758.5499999998,"ADDRESS":"裕豐街２９號三樓之７","OBJECTID":489604},"geometry":{"x":170679.91000000015,"y":2542758.5500000007}},{"attributes":{"ID":489630,"DIS_CODE":0,"TOWNNAME":"東區","LI":"富裕里","LIN":"13鄰","STREET":"裕豐街","SECT":" ","MAREA":" ","LANE":" ","ALLEY":" ","HOUSE_NO":"２９號五樓之１","E_COORD97":170679.91,"N_COORD97":2542758.5499999998,"ADDRESS":"裕豐街２９號五樓之１","OBJECTID":489605},"geometry":{"x":170679.91000000015,"y":2542758.5500000007}},{"attributes":{"ID":489631,"DIS_CODE":0,"TOWNNAME":"東區","LI":"富裕里","LIN":"13鄰","STREET":"裕豐街","SECT":" ","MAREA":" ","LANE":" ","ALLEY":" ","HOUSE_NO":"２９號五樓之１４","E_COORD97":170679.91,"N_COORD97":2542758.5499999998,"ADDRESS":"裕豐街２９號五樓之１４","OBJECTID":489606},"geometry":{"x":170679.91000000015,"y":2542758.5500000007}},{"attributes":{"ID":489632,"DIS_CODE":0,"TOWNNAME":"東區","LI":"富裕里","LIN":"13鄰","STREET":"裕豐街","SECT":" ","MAREA":" ","LANE":" ","ALLEY":" ","HOUSE_NO":"２９號五樓之２","E_COORD97":170679.91,"N_COORD97":2542758.5499999998,"ADDRESS":"裕豐街２９號五樓之２","OBJECTID":489607},"geometry":{"x":170679.91000000015,"y":2542758.5500000007}},{"attributes":{"ID":489633,"DIS_CODE":0,"TOWNNAME":"東區","LI":"富裕里","LIN":"13鄰","STREET":"裕豐街","SECT":" ","MAREA":" ","LANE":" ","ALLEY":" ","HOUSE_NO":"２９號五樓之９","E_COORD97":170679.91,"N_COORD97":2542758.5499999998,"ADDRESS":"裕豐街２９號五樓之９","OBJECTID":489608},"geometry":{"x":170679.91000000015,"y":2542758.5500000007}},{"attributes":{"ID":489634,"DIS_CODE":0,"TOWNNAME":"東區","LI":"富裕里","LIN":"13鄰","STREET":"裕豐街","SECT":" ","MAREA":" ","LANE":" ","ALLEY":" ","HOUSE_NO":"２９號四樓之１","E_COORD97":170679.91,"N_COORD97":2542758.5499999998,"ADDRESS":"裕豐街２９號四樓之１","OBJECTID":489609},"geometry":{"x":170679.91000000015,"y":2542758.5500000007}},{"attributes":{"ID":489635,"DIS_CODE":0,"TOWNNAME":"東區","LI":"富裕里","LIN":"13鄰","STREET":"裕豐街","SECT":" ","MAREA":" ","LANE":" ","ALLEY":" ","HOUSE_NO":"２９號四樓之１２","E_COORD97":170679.91,"N_COORD97":2542758.5499999998,"ADDRESS":"裕豐街２９號四樓之１２","OBJECTID":489610},"geometry":{"x":170679.91000000015,"y":2542758.5500000007}},{"attributes":{"ID":489636,"DIS_CODE":0,"TOWNNAME":"東區","LI":"富裕里","LIN":"13鄰","STREET":"裕豐街","SECT":" ","MAREA":" ","LANE":" ","ALLEY":" ","HOUSE_NO":"２９號四樓之２","E_COORD97":170679.91,"N_COORD97":2542758.5499999998,"ADDRESS":"裕豐街２９號四樓之２","OBJECTID":489611},"geometry":{"x":170679.91000000015,"y":2542758.5500000007}},{"attributes":{"ID":489637,"DIS_CODE":0,"TOWNNAME":"東區","LI":"富裕里","LIN":"13鄰","STREET":"裕豐街","SECT":" ","MAREA":" ","LANE":" ","ALLEY":" ","HOUSE_NO":"２９號二樓之１","E_COORD97":170679.91,"N_COORD97":2542758.5499999998,"ADDRESS":"裕豐街２９號二樓之１","OBJECTID":489612},"geometry":{"x":170679.91000000015,"y":2542758.5500000007}},{"attributes":{"ID":489638,"DIS_CODE":0,"TOWNNAME":"東區","LI":"富裕里","LIN":"13鄰","STREET":"裕豐街","SECT":" ","MAREA":" ","LANE":" ","ALLEY":" ","HOUSE_NO":"２９號二樓之３","E_COORD97":170679.91,"N_COORD97":2542758.5499999998,"ADDRESS":"裕豐街２９號二樓之３","OBJECTID":489613},"geometry":{"x":170679.91000000015,"y":2542758.5500000007}},{"attributes":{"ID":489639,"DIS_CODE":0,"TOWNNAME":"東區","LI":"富裕里","LIN":"13鄰","STREET":"裕豐街","SECT":" ","MAREA":" ","LANE":" ","ALLEY":" ","HOUSE_NO":"２９號二樓之４","E_COORD97":170679.91,"N_COORD97":2542758.5499999998,"ADDRESS":"裕豐街２９號二樓之４","OBJECTID":489614},"geometry":{"x":170679.91000000015,"y":2542758.5500000007}},{"attributes":{"ID":489640,"DIS_CODE":0,"TOWNNAME":"東區","LI":"富裕里","LIN":"13鄰","STREET":"裕豐街","SECT":" ","MAREA":" ","LANE":" ","ALLEY":" ","HOUSE_NO":"２９號二樓之５","E_COORD97":170679.91,"N_COORD97":2542758.5499999998,"ADDRESS":"裕豐街２９號二樓之５","OBJECTID":489615},"geometry":{"x":170679.91000000015,"y":2542758.5500000007}},{"attributes":{"ID":489641,"DIS_CODE":0,"TOWNNAME":"東區","LI":"富裕里","LIN":"13鄰","STREET":"裕豐街","SECT":" ","MAREA":" ","LANE":" ","ALLEY":" ","HOUSE_NO":"２９號二樓之６","E_COORD97":170679.91,"N_COORD97":2542758.5499999998,"ADDRESS":"裕豐街２９號二樓之６","OBJECTID":489616},"geometry":{"x":170679.91000000015,"y":2542758.5500000007}},{"attributes":{"ID":489642,"DIS_CODE":0,"TOWNNAME":"東區","LI":"富裕里","LIN":"13鄰","STREET":"裕豐街","SECT":" ","MAREA":" ","LANE":" ","ALLEY":" ","HOUSE_NO":"２９號二樓之７","E_COORD97":170679.91,"N_COORD97":2542758.5499999998,"ADDRESS":"裕豐街２９號二樓之７","OBJECTID":489617},"geometry":{"x":170679.91000000015,"y":2542758.5500000007}},{"attributes":{"ID":489643,"DIS_CODE":0,"TOWNNAME":"新營區","LI":"中營里","LIN":"14鄰","STREET":"東山路","SECT":" ","MAREA":" ","LANE":" ","ALLEY":" ","HOUSE_NO":"１９７號","E_COORD97":181931.04999999999,"N_COORD97":2578758.6299999999,"ADDRESS":"東山路１９７號","OBJECTID":489618},"geometry":{"x":181931.05000000075,"y":2578758.629999999}},{"attributes":{"ID":489644,"DIS_CODE":0,"TOWNNAME":"東區","LI":"富裕里","LIN":"13鄰","STREET":"裕豐街","SECT":" ","MAREA":" ","LANE":" ","ALLEY":" ","HOUSE_NO":"２９號二樓之９","E_COORD97":170679.91,"N_COORD97":2542758.5499999998,"ADDRESS":"裕豐街２９號二樓之９","OBJECTID":489619},"geometry":{"x":170679.91000000015,"y":2542758.5500000007}},{"attributes":{"ID":489645,"DIS_CODE":0,"TOWNNAME":"東區","LI":"富裕里","LIN":"13鄰","STREET":"裕豐街","SECT":" ","MAREA":" ","LANE":" ","ALLEY":" ","HOUSE_NO":"２９號二樓之１０","E_COORD97":170679.91,"N_COORD97":2542758.5499999998,"ADDRESS":"裕豐街２９號二樓之１０","OBJECTID":489620},"geometry":{"x":170679.91000000015,"y":2542758.5500000007}},{"attributes":{"ID":489646,"DIS_CODE":0,"TOWNNAME":"東區","LI":"富裕里","LIN":"13鄰","STREET":"裕豐街","SECT":" ","MAREA":" ","LANE":" ","ALLEY":" ","HOUSE_NO":"２９號二樓之１１","E_COORD97":170679.91,"N_COORD97":2542758.5499999998,"ADDRESS":"裕豐街２９號二樓之１１","OBJECTID":489621},"geometry":{"x":170679.91000000015,"y":2542758.5500000007}},{"attributes":{"ID":489647,"DIS_CODE":0,"TOWNNAME":"東區","LI":"富裕里","LIN":"13鄰","STREET":"裕豐街","SECT":" ","MAREA":" ","LANE":" ","ALLEY":" ","HOUSE_NO":"２９號二樓之１２","E_COORD97":170679.91,"N_COORD97":2542758.5499999998,"ADDRESS":"裕豐街２９號二樓之１２","OBJECTID":489622},"geometry":{"x":170679.91000000015,"y":2542758.5500000007}},{"attributes":{"ID":489648,"DIS_CODE":0,"TOWNNAME":"東區","LI":"富裕里","LIN":"13鄰","STREET":"裕豐街","SECT":" ","MAREA":" ","LANE":" ","ALLEY":" ","HOUSE_NO":"２９號三樓之１","E_COORD97":170679.91,"N_COORD97":2542758.5499999998,"ADDRESS":"裕豐街２９號三樓之１","OBJECTID":489623},"geometry":{"x":170679.91000000015,"y":2542758.5500000007}},{"attributes":{"ID":489649,"DIS_CODE":0,"TOWNNAME":"東區","LI":"富裕里","LIN":"13鄰","STREET":"裕豐街","SECT":" ","MAREA":" ","LANE":" ","ALLEY":" ","HOUSE_NO":"２９號三樓之２","E_COORD97":170679.91,"N_COORD97":2542758.5499999998,"ADDRESS":"裕豐街２９號三樓之２","OBJECTID":489624},"geometry":{"x":170679.91000000015,"y":2542758.5500000007}},{"attributes":{"ID":489650,"DIS_CODE":0,"TOWNNAME":"東區","LI":"富裕里","LIN":"13鄰","STREET":"裕豐街","SECT":" ","MAREA":" ","LANE":" ","ALLEY":" ","HOUSE_NO":"２９號三樓之３","E_COORD97":170679.91,"N_COORD97":2542758.5499999998,"ADDRESS":"裕豐街２９號三樓之３","OBJECTID":489625},"geometry":{"x":170679.91000000015,"y":2542758.5500000007}},{"attributes":{"ID":489651,"DIS_CODE":0,"TOWNNAME":"東區","LI":"富裕里","LIN":"13鄰","STREET":"裕豐街","SECT":" ","MAREA":" ","LANE":" ","ALLEY":" ","HOUSE_NO":"２９號三樓之６","E_COORD97":170679.91,"N_COORD97":2542758.5499999998,"ADDRESS":"裕豐街２９號三樓之６","OBJECTID":489626},"geometry":{"x":170679.91000000015,"y":2542758.5500000007}},{"attributes":{"ID":489652,"DIS_CODE":0,"TOWNNAME":"東區","LI":"富裕里","LIN":"13鄰","STREET":"裕豐街","SECT":" ","MAREA":" ","LANE":" ","ALLEY":" ","HOUSE_NO":"２９號三樓之８","E_COORD97":170679.91,"N_COORD97":2542758.5499999998,"ADDRESS":"裕豐街２９號三樓之８","OBJECTID":489627},"geometry":{"x":170679.91000000015,"y":2542758.5500000007}},{"attributes":{"ID":489653,"DIS_CODE":0,"TOWNNAME":"東區","LI":"富裕里","LIN":"13鄰","STREET":"裕豐街","SECT":" ","MAREA":" ","LANE":" ","ALLEY":" ","HOUSE_NO":"２９號三樓之９","E_COORD97":170679.91,"N_COORD97":2542758.5499999998,"ADDRESS":"裕豐街２９號三樓之９","OBJECTID":489628},"geometry":{"x":170679.91000000015,"y":2542758.5500000007}},{"attributes":{"ID":489654,"DIS_CODE":0,"TOWNNAME":"東區","LI":"富裕里","LIN":"13鄰","STREET":"裕豐街","SECT":" ","MAREA":" ","LANE":" ","ALLEY":" ","HOUSE_NO":"２９號三樓之１０","E_COORD97":170679.91,"N_COORD97":2542758.5499999998,"ADDRESS":"裕豐街２９號三樓之１０","OBJECTID":489629},"geometry":{"x":170679.91000000015,"y":2542758.5500000007}},{"attributes":{"ID":489655,"DIS_CODE":0,"TOWNNAME":"東區","LI":"富裕里","LIN":"13鄰","STREET":"裕豐街","SECT":" ","MAREA":" ","LANE":" ","ALLEY":" ","HOUSE_NO":"２９號三樓之１１","E_COORD97":170679.91,"N_COORD97":2542758.5499999998,"ADDRESS":"裕豐街２９號三樓之１１","OBJECTID":489630},"geometry":{"x":170679.91000000015,"y":2542758.5500000007}},{"attributes":{"ID":489656,"DIS_CODE":0,"TOWNNAME":"東區","LI":"富裕里","LIN":"13鄰","STREET":"裕豐街","SECT":" ","MAREA":" ","LANE":" ","ALLEY":" ","HOUSE_NO":"２９號三樓之１２","E_COORD97":170679.91,"N_COORD97":2542758.5499999998,"ADDRESS":"裕豐街２９號三樓之１２","OBJECTID":489631},"geometry":{"x":170679.91000000015,"y":2542758.5500000007}},{"attributes":{"ID":489657,"DIS_CODE":0,"TOWNNAME":"東區","LI":"富裕里","LIN":"13鄰","STREET":"裕豐街","SECT":" ","MAREA":" ","LANE":" ","ALLEY":" ","HOUSE_NO":"２９號四樓之３","E_COORD97":170679.91,"N_COORD97":2542758.5499999998,"ADDRESS":"裕豐街２９號四樓之３","OBJECTID":489632},"geometry":{"x":170679.91000000015,"y":2542758.5500000007}},{"attributes":{"ID":489658,"DIS_CODE":0,"TOWNNAME":"新營區","LI":"延平里","LIN":"4鄰","STREET":"成功街","SECT":" ","MAREA":" ","LANE":" ","ALLEY":" ","HOUSE_NO":"３２號","E_COORD97":179700.26740000001,"N_COORD97":2577844.4044499998,"ADDRESS":"成功街３２號","OBJECTID":489633},"geometry":{"x":179700.26740000024,"y":2577844.404449001}},{"attributes":{"ID":489659,"DIS_CODE":0,"TOWNNAME":"東區","LI":"富裕里","LIN":"13鄰","STREET":"裕豐街","SECT":" ","MAREA":" ","LANE":" ","ALLEY":" ","HOUSE_NO":"２９號四樓之４","E_COORD97":170679.91,"N_COORD97":2542758.5499999998,"ADDRESS":"裕豐街２９號四樓之４","OBJECTID":489634},"geometry":{"x":170679.91000000015,"y":2542758.5500000007}},{"attributes":{"ID":489660,"DIS_CODE":0,"TOWNNAME":"東區","LI":"富裕里","LIN":"13鄰","STREET":"裕豐街","SECT":" ","MAREA":" ","LANE":" ","ALLEY":" ","HOUSE_NO":"２９號四樓之５","E_COORD97":170679.91,"N_COORD97":2542758.5499999998,"ADDRESS":"裕豐街２９號四樓之５","OBJECTID":489635},"geometry":{"x":170679.91000000015,"y":2542758.5500000007}},{"attributes":{"ID":489661,"DIS_CODE":0,"TOWNNAME":"東區","LI":"富裕里","LIN":"13鄰","STREET":"裕豐街","SECT":" ","MAREA":" ","LANE":" ","ALLEY":" ","HOUSE_NO":"２９號四樓之６","E_COORD97":170679.91,"N_COORD97":2542758.5499999998,"ADDRESS":"裕豐街２９號四樓之６","OBJECTID":489636},"geometry":{"x":170679.91000000015,"y":2542758.5500000007}},{"attributes":{"ID":489662,"DIS_CODE":0,"TOWNNAME":"東區","LI":"富裕里","LIN":"13鄰","STREET":"裕豐街","SECT":" ","MAREA":" ","LANE":" ","ALLEY":" ","HOUSE_NO":"２９號四樓之７","E_COORD97":170679.91,"N_COORD97":2542758.5499999998,"ADDRESS":"裕豐街２９號四樓之７","OBJECTID":489637},"geometry":{"x":170679.91000000015,"y":2542758.5500000007}},{"attributes":{"ID":489663,"DIS_CODE":0,"TOWNNAME":"東區","LI":"富裕里","LIN":"13鄰","STREET":"裕豐街","SECT":" ","MAREA":" ","LANE":" ","ALLEY":" ","HOUSE_NO":"２９號四樓之８","E_COORD97":170679.91,"N_COORD97":2542758.5499999998,"ADDRESS":"裕豐街２９號四樓之８","OBJECTID":489638},"geometry":{"x":170679.91000000015,"y":2542758.5500000007}},{"attributes":{"ID":489664,"DIS_CODE":0,"TOWNNAME":"東區","LI":"富裕里","LIN":"13鄰","STREET":"裕豐街","SECT":" ","MAREA":" ","LANE":" ","ALLEY":" ","HOUSE_NO":"２９號四樓之９","E_COORD97":170679.91,"N_COORD97":2542758.5499999998,"ADDRESS":"裕豐街２９號四樓之９","OBJECTID":489639},"geometry":{"x":170679.91000000015,"y":2542758.5500000007}},{"attributes":{"ID":489665,"DIS_CODE":0,"TOWNNAME":"東區","LI":"富裕里","LIN":"13鄰","STREET":"裕豐街","SECT":" ","MAREA":" ","LANE":" ","ALLEY":" ","HOUSE_NO":"２９號四樓之１０","E_COORD97":170679.91,"N_COORD97":2542758.5499999998,"ADDRESS":"裕豐街２９號四樓之１０","OBJECTID":489640},"geometry":{"x":170679.91000000015,"y":2542758.5500000007}},{"attributes":{"ID":489666,"DIS_CODE":0,"TOWNNAME":"東區","LI":"富裕里","LIN":"13鄰","STREET":"裕豐街","SECT":" ","MAREA":" ","LANE":" ","ALLEY":" ","HOUSE_NO":"２９號四樓之１３","E_COORD97":170679.91,"N_COORD97":2542758.5499999998,"ADDRESS":"裕豐街２９號四樓之１３","OBJECTID":489641},"geometry":{"x":170679.91000000015,"y":2542758.5500000007}},{"attributes":{"ID":489667,"DIS_CODE":0,"TOWNNAME":"東區","LI":"富裕里","LIN":"13鄰","STREET":"裕豐街","SECT":" ","MAREA":" ","LANE":" ","ALLEY":" ","HOUSE_NO":"２９號四樓之１４","E_COORD97":170679.91,"N_COORD97":2542758.5499999998,"ADDRESS":"裕豐街２９號四樓之１４","OBJECTID":489642},"geometry":{"x":170679.91000000015,"y":2542758.5500000007}},{"attributes":{"ID":489668,"DIS_CODE":0,"TOWNNAME":"新營區","LI":"民權里","LIN":"12鄰","STREET":"仁愛街","SECT":" ","MAREA":" ","LANE":" ","ALLEY":" ","HOUSE_NO":"３４號","E_COORD97":179802.19,"N_COORD97":2578287.9300000002,"ADDRESS":"仁愛街３４號","OBJECTID":489643},"geometry":{"x":179802.19000000041,"y":2578287.9300000016}},{"attributes":{"ID":489669,"DIS_CODE":0,"TOWNNAME":"新營區","LI":"民權里","LIN":" ","STREET":"中華路","SECT":" ","MAREA":" ","LANE":" ","ALLEY":" ","HOUSE_NO":"２４之３號","E_COORD97":179788.03,"N_COORD97":2578228.2599999998,"ADDRESS":"中華路２４之３號","OBJECTID":489644},"geometry":{"x":179788.02999999933,"y":2578228.2600000016}},{"attributes":{"ID":489670,"DIS_CODE":0,"TOWNNAME":"新營區","LI":"王公里","LIN":"20鄰","STREET":"樂利街","SECT":" ","MAREA":" ","LANE":" ","ALLEY":" ","HOUSE_NO":"１２號","E_COORD97":180384.57999999999,"N_COORD97":2579257.5299999998,"ADDRESS":"樂利街１２號","OBJECTID":489645},"geometry":{"x":180384.58000000101,"y":2579257.5300000012}},{"attributes":{"ID":489671,"DIS_CODE":0,"TOWNNAME":"東區","LI":"富裕里","LIN":"13鄰","STREET":"裕豐街","SECT":" ","MAREA":" ","LANE":" ","ALLEY":" ","HOUSE_NO":"２９號五樓之３","E_COORD97":170679.91,"N_COORD97":2542758.5499999998,"ADDRESS":"裕豐街２９號五樓之３","OBJECTID":489646},"geometry":{"x":170679.91000000015,"y":2542758.5500000007}},{"attributes":{"ID":489672,"DIS_CODE":0,"TOWNNAME":"東區","LI":"富裕里","LIN":"13鄰","STREET":"裕豐街","SECT":" ","MAREA":" ","LANE":" ","ALLEY":" ","HOUSE_NO":"２９號五樓之４","E_COORD97":170679.91,"N_COORD97":2542758.5499999998,"ADDRESS":"裕豐街２９號五樓之４","OBJECTID":489647},"geometry":{"x":170679.91000000015,"y":2542758.5500000007}},{"attributes":{"ID":489673,"DIS_CODE":0,"TOWNNAME":"東區","LI":"富裕里","LIN":"13鄰","STREET":"裕豐街","SECT":" ","MAREA":" ","LANE":" ","ALLEY":" ","HOUSE_NO":"２９號五樓之５","E_COORD97":170679.91,"N_COORD97":2542758.5499999998,"ADDRESS":"裕豐街２９號五樓之５","OBJECTID":489648},"geometry":{"x":170679.91000000015,"y":2542758.5500000007}},{"attributes":{"ID":489674,"DIS_CODE":0,"TOWNNAME":"東區","LI":"富裕里","LIN":"13鄰","STREET":"裕豐街","SECT":" ","MAREA":" ","LANE":" ","ALLEY":" ","HOUSE_NO":"２９號五樓之６","E_COORD97":170679.91,"N_COORD97":2542758.5499999998,"ADDRESS":"裕豐街２９號五樓之６","OBJECTID":489649},"geometry":{"x":170679.91000000015,"y":2542758.5500000007}},{"attributes":{"ID":489675,"DIS_CODE":0,"TOWNNAME":"東區","LI":"富裕里","LIN":"13鄰","STREET":"裕豐街","SECT":" ","MAREA":" ","LANE":" ","ALLEY":" ","HOUSE_NO":"２９號五樓之７","E_COORD97":170679.91,"N_COORD97":2542758.5499999998,"ADDRESS":"裕豐街２９號五樓之７","OBJECTID":489650},"geometry":{"x":170679.91000000015,"y":2542758.5500000007}},{"attributes":{"ID":489676,"DIS_CODE":0,"TOWNNAME":"東區","LI":"富裕里","LIN":"13鄰","STREET":"裕豐街","SECT":" ","MAREA":" ","LANE":" ","ALLEY":" ","HOUSE_NO":"２９號五樓之８","E_COORD97":170679.91,"N_COORD97":2542758.5499999998,"ADDRESS":"裕豐街２９號五樓之８","OBJECTID":489651},"geometry":{"x":170679.91000000015,"y":2542758.5500000007}},{"attributes":{"ID":489677,"DIS_CODE":0,"TOWNNAME":"東區","LI":"富裕里","LIN":"13鄰","STREET":"裕豐街","SECT":" ","MAREA":" ","LANE":" ","ALLEY":" ","HOUSE_NO":"２９號五樓之１０","E_COORD97":170679.91,"N_COORD97":2542758.5499999998,"ADDRESS":"裕豐街２９號五樓之１０","OBJECTID":489652},"geometry":{"x":170679.91000000015,"y":2542758.5500000007}},{"attributes":{"ID":489678,"DIS_CODE":0,"TOWNNAME":"東區","LI":"富裕里","LIN":"13鄰","STREET":"裕豐街","SECT":" ","MAREA":" ","LANE":" ","ALLEY":" ","HOUSE_NO":"２９號五樓之１１","E_COORD97":170679.91,"N_COORD97":2542758.5499999998,"ADDRESS":"裕豐街２９號五樓之１１","OBJECTID":489653},"geometry":{"x":170679.91000000015,"y":2542758.5500000007}},{"attributes":{"ID":489679,"DIS_CODE":0,"TOWNNAME":"東區","LI":"富裕里","LIN":"13鄰","STREET":"裕豐街","SECT":" ","MAREA":" ","LANE":" ","ALLEY":" ","HOUSE_NO":"２９號五樓之１２","E_COORD97":170679.91,"N_COORD97":2542758.5499999998,"ADDRESS":"裕豐街２９號五樓之１２","OBJECTID":489654},"geometry":{"x":170679.91000000015,"y":2542758.5500000007}},{"attributes":{"ID":489680,"DIS_CODE":0,"TOWNNAME":"東區","LI":"富裕里","LIN":"13鄰","STREET":"裕豐街","SECT":" ","MAREA":" ","LANE":" ","ALLEY":" ","HOUSE_NO":"２９號五樓之１３","E_COORD97":170679.91,"N_COORD97":2542758.5499999998,"ADDRESS":"裕豐街２９號五樓之１３","OBJECTID":489655},"geometry":{"x":170679.91000000015,"y":2542758.5500000007}},{"attributes":{"ID":489681,"DIS_CODE":0,"TOWNNAME":"東區","LI":"富裕里","LIN":"13鄰","STREET":"裕豐街","SECT":" ","MAREA":" ","LANE":" ","ALLEY":" ","HOUSE_NO":"２９號四樓之１１","E_COORD97":170679.91,"N_COORD97":2542758.5499999998,"ADDRESS":"裕豐街２９號四樓之１１","OBJECTID":489656},"geometry":{"x":170679.91000000015,"y":2542758.5500000007}},{"attributes":{"ID":489682,"DIS_CODE":0,"TOWNNAME":"中西區","LI":"五妃里","LIN":"13鄰","STREET":"慶中街","SECT":" ","MAREA":" ","LANE":" ","ALLEY":" ","HOUSE_NO":"１８２號一樓","E_COORD97":168559.73000000001,"N_COORD97":2542759.75,"ADDRESS":"慶中街１８２號一樓","OBJECTID":489657},"geometry":{"x":168559.73000000231,"y":2542759.75}},{"attributes":{"ID":489683,"DIS_CODE":0,"TOWNNAME":"中西區","LI":"五妃里","LIN":"13鄰","STREET":"慶中街","SECT":" ","MAREA":" ","LANE":" ","ALLEY":" ","HOUSE_NO":"１８２號二樓之１","E_COORD97":168565.10000000001,"N_COORD97":2542755.04,"ADDRESS":"慶中街１８２號二樓之１","OBJECTID":489658},"geometry":{"x":168565.10000000056,"y":2542755.0400000028}},{"attributes":{"ID":489684,"DIS_CODE":0,"TOWNNAME":"中西區","LI":"五妃里","LIN":"13鄰","STREET":"慶中街","SECT":" ","MAREA":" ","LANE":" ","ALLEY":" ","HOUSE_NO":"１８２號二樓之２","E_COORD97":168565.10000000001,"N_COORD97":2542755.04,"ADDRESS":"慶中街１８２號二樓之２","OBJECTID":489659},"geometry":{"x":168565.10000000056,"y":2542755.0400000028}},{"attributes":{"ID":489685,"DIS_CODE":0,"TOWNNAME":"中西區","LI":"五妃里","LIN":"13鄰","STREET":"慶中街","SECT":" ","MAREA":" ","LANE":" ","ALLEY":" ","HOUSE_NO":"１８２號三樓之１","E_COORD97":168565.10000000001,"N_COORD97":2542755.04,"ADDRESS":"慶中街１８２號三樓之１","OBJECTID":489660},"geometry":{"x":168565.10000000056,"y":2542755.0400000028}},{"attributes":{"ID":489686,"DIS_CODE":0,"TOWNNAME":"中西區","LI":"五妃里","LIN":"13鄰","STREET":"慶中街","SECT":" ","MAREA":" ","LANE":" ","ALLEY":" ","HOUSE_NO":"１８２號三樓之２","E_COORD97":168565.10000000001,"N_COORD97":2542755.04,"ADDRESS":"慶中街１８２號三樓之２","OBJECTID":489661},"geometry":{"x":168565.10000000056,"y":2542755.0400000028}},{"attributes":{"ID":489687,"DIS_CODE":0,"TOWNNAME":"中西區","LI":"五妃里","LIN":"13鄰","STREET":"慶中街","SECT":" ","MAREA":" ","LANE":" ","ALLEY":" ","HOUSE_NO":"１８２號五樓之１","E_COORD97":168565.10000000001,"N_COORD97":2542755.04,"ADDRESS":"慶中街１８２號五樓之１","OBJECTID":489662},"geometry":{"x":168565.10000000056,"y":2542755.0400000028}},{"attributes":{"ID":489688,"DIS_CODE":0,"TOWNNAME":"中西區","LI":"五妃里","LIN":"13鄰","STREET":"慶中街","SECT":" ","MAREA":" ","LANE":" ","ALLEY":" ","HOUSE_NO":"１８２號五樓之２","E_COORD97":168565.10000000001,"N_COORD97":2542755.04,"ADDRESS":"慶中街１８２號五樓之２","OBJECTID":489663},"geometry":{"x":168565.10000000056,"y":2542755.0400000028}},{"attributes":{"ID":489689,"DIS_CODE":0,"TOWNNAME":"中西區","LI":"五妃里","LIN":"13鄰","STREET":"慶中街","SECT":" ","MAREA":" ","LANE":" ","ALLEY":" ","HOUSE_NO":"１８２號四樓之１","E_COORD97":168565.10000000001,"N_COORD97":2542755.04,"ADDRESS":"慶中街１８２號四樓之１","OBJECTID":489664},"geometry":{"x":168565.10000000056,"y":2542755.0400000028}},{"attributes":{"ID":489690,"DIS_CODE":0,"TOWNNAME":"中西區","LI":"五妃里","LIN":"13鄰","STREET":"慶中街","SECT":" ","MAREA":" ","LANE":" ","ALLEY":" ","HOUSE_NO":"１８２號四樓之２","E_COORD97":168565.10000000001,"N_COORD97":2542755.04,"ADDRESS":"慶中街１８２號四樓之２","OBJECTID":489665},"geometry":{"x":168565.10000000056,"y":2542755.0400000028}},{"attributes":{"ID":489691,"DIS_CODE":0,"TOWNNAME":"中西區","LI":"五妃里","LIN":"13鄰","STREET":"慶中街","SECT":" ","MAREA":" ","LANE":" ","ALLEY":" ","HOUSE_NO":"１８４號一樓","E_COORD97":168575.82000000001,"N_COORD97":2542759.1200000001,"ADDRESS":"慶中街１８４號一樓","OBJECTID":489666},"geometry":{"x":168575.81999999937,"y":2542759.120000001}},{"attributes":{"ID":489692,"DIS_CODE":0,"TOWNNAME":"中西區","LI":"五妃里","LIN":"13鄰","STREET":"慶中街","SECT":" ","MAREA":" ","LANE":" ","ALLEY":" ","HOUSE_NO":"１８４號二樓","E_COORD97":168575.82000000001,"N_COORD97":2542759.1200000001,"ADDRESS":"慶中街１８４號二樓","OBJECTID":489667},"geometry":{"x":168575.81999999937,"y":2542759.120000001}},{"attributes":{"ID":489693,"DIS_CODE":0,"TOWNNAME":"中西區","LI":"五妃里","LIN":"13鄰","STREET":"慶中街","SECT":" ","MAREA":" ","LANE":" ","ALLEY":" ","HOUSE_NO":"１８４號三樓","E_COORD97":168575.82000000001,"N_COORD97":2542759.1200000001,"ADDRESS":"慶中街１８４號三樓","OBJECTID":489668},"geometry":{"x":168575.81999999937,"y":2542759.120000001}},{"attributes":{"ID":489694,"DIS_CODE":0,"TOWNNAME":"中西區","LI":"五妃里","LIN":"13鄰","STREET":"慶中街","SECT":" ","MAREA":" ","LANE":" ","ALLEY":" ","HOUSE_NO":"１８４號五樓","E_COORD97":168575.82000000001,"N_COORD97":2542759.1200000001,"ADDRESS":"慶中街１８４號五樓","OBJECTID":489669},"geometry":{"x":168575.81999999937,"y":2542759.120000001}},{"attributes":{"ID":489695,"DIS_CODE":0,"TOWNNAME":"中西區","LI":"五妃里","LIN":"13鄰","STREET":"慶中街","SECT":" ","MAREA":" ","LANE":" ","ALLEY":" ","HOUSE_NO":"１８４號四樓","E_COORD97":168575.82000000001,"N_COORD97":2542759.1200000001,"ADDRESS":"慶中街１８４號四樓","OBJECTID":489670},"geometry":{"x":168575.81999999937,"y":2542759.120000001}},{"attributes":{"ID":489696,"DIS_CODE":0,"TOWNNAME":"中西區","LI":"五妃里","LIN":"13鄰","STREET":"慶中街","SECT":" ","MAREA":" ","LANE":" ","ALLEY":" ","HOUSE_NO":"１８６號一樓","E_COORD97":168582.84,"N_COORD97":2542758.1000000001,"ADDRESS":"慶中街１８６號一樓","OBJECTID":489671},"geometry":{"x":168582.84000000078,"y":2542758.0999999996}},{"attributes":{"ID":489697,"DIS_CODE":0,"TOWNNAME":"中西區","LI":"五妃里","LIN":"13鄰","STREET":"慶中街","SECT":" ","MAREA":" ","LANE":" ","ALLEY":" ","HOUSE_NO":"１８６號二樓","E_COORD97":168582.84,"N_COORD97":2542758.1000000001,"ADDRESS":"慶中街１８６號二樓","OBJECTID":489672},"geometry":{"x":168582.84000000078,"y":2542758.0999999996}},{"attributes":{"ID":489698,"DIS_CODE":0,"TOWNNAME":"中西區","LI":"五妃里","LIN":"13鄰","STREET":"慶中街","SECT":" ","MAREA":" ","LANE":" ","ALLEY":" ","HOUSE_NO":"１８６號三樓","E_COORD97":168582.84,"N_COORD97":2542758.1000000001,"ADDRESS":"慶中街１８６號三樓","OBJECTID":489673},"geometry":{"x":168582.84000000078,"y":2542758.0999999996}},{"attributes":{"ID":489699,"DIS_CODE":0,"TOWNNAME":"新營區","LI":"南興里","LIN":"13鄰","STREET":"南昌街","SECT":" ","MAREA":" ","LANE":" ","ALLEY":" ","HOUSE_NO":"１４３號","E_COORD97":179226.48000000001,"N_COORD97":2577651.6699999999,"ADDRESS":"南昌街１４３號","OBJECTID":489674},"geometry":{"x":179226.48000000138,"y":2577651.6699999999}},{"attributes":{"ID":489700,"DIS_CODE":0,"TOWNNAME":"新營區","LI":"王公里","LIN":"29鄰","STREET":"大公街","SECT":" ","MAREA":" ","LANE":" ","ALLEY":" ","HOUSE_NO":"５２號","E_COORD97":180254.48999999999,"N_COORD97":2579645.7400000002,"ADDRESS":"大公街５２號","OBJECTID":489675},"geometry":{"x":180254.49000000209,"y":2579645.7400000039}},{"attributes":{"ID":489701,"DIS_CODE":0,"TOWNNAME":"中西區","LI":"五妃里","LIN":"13鄰","STREET":"慶中街","SECT":" ","MAREA":" ","LANE":" ","ALLEY":" ","HOUSE_NO":"１８６號五樓","E_COORD97":168582.84,"N_COORD97":2542758.1000000001,"ADDRESS":"慶中街１８６號五樓","OBJECTID":489676},"geometry":{"x":168582.84000000078,"y":2542758.0999999996}},{"attributes":{"ID":489702,"DIS_CODE":0,"TOWNNAME":"中西區","LI":"五妃里","LIN":"13鄰","STREET":"慶中街","SECT":" ","MAREA":" ","LANE":" ","ALLEY":" ","HOUSE_NO":"１８６號四樓","E_COORD97":168582.84,"N_COORD97":2542758.1000000001,"ADDRESS":"慶中街１８６號四樓","OBJECTID":489677},"geometry":{"x":168582.84000000078,"y":2542758.0999999996}},{"attributes":{"ID":489703,"DIS_CODE":0,"TOWNNAME":"中西區","LI":"五妃里","LIN":"13鄰","STREET":"慶中街","SECT":" ","MAREA":" ","LANE":" ","ALLEY":" ","HOUSE_NO":"１８８號一樓","E_COORD97":168591.26999999999,"N_COORD97":2542758.2200000002,"ADDRESS":"慶中街１８８號一樓","OBJECTID":489678},"geometry":{"x":168591.27000000048,"y":2542758.2200000007}},{"attributes":{"ID":489704,"DIS_CODE":0,"TOWNNAME":"中西區","LI":"五妃里","LIN":"13鄰","STREET":"慶中街","SECT":" ","MAREA":" ","LANE":" ","ALLEY":" ","HOUSE_NO":"１８８號二樓","E_COORD97":168591.26999999999,"N_COORD97":2542758.2200000002,"ADDRESS":"慶中街１８８號二樓","OBJECTID":489679},"geometry":{"x":168591.27000000048,"y":2542758.2200000007}},{"attributes":{"ID":489705,"DIS_CODE":0,"TOWNNAME":"中西區","LI":"五妃里","LIN":"13鄰","STREET":"慶中街","SECT":" ","MAREA":" ","LANE":" ","ALLEY":" ","HOUSE_NO":"１８８號三樓","E_COORD97":168591.26999999999,"N_COORD97":2542758.2200000002,"ADDRESS":"慶中街１８８號三樓","OBJECTID":489680},"geometry":{"x":168591.27000000048,"y":2542758.2200000007}},{"attributes":{"ID":489706,"DIS_CODE":0,"TOWNNAME":"中西區","LI":"五妃里","LIN":"13鄰","STREET":"慶中街","SECT":" ","MAREA":" ","LANE":" ","ALLEY":" ","HOUSE_NO":"１８８號五樓","E_COORD97":168591.26999999999,"N_COORD97":2542758.2200000002,"ADDRESS":"慶中街１８８號五樓","OBJECTID":489681},"geometry":{"x":168591.27000000048,"y":2542758.2200000007}},{"attributes":{"ID":489707,"DIS_CODE":0,"TOWNNAME":"中西區","LI":"五妃里","LIN":"13鄰","STREET":"慶中街","SECT":" ","MAREA":" ","LANE":" ","ALLEY":" ","HOUSE_NO":"１８８號四樓","E_COORD97":168591.26999999999,"N_COORD97":2542758.2200000002,"ADDRESS":"慶中街１８８號四樓","OBJECTID":489682},"geometry":{"x":168591.27000000048,"y":2542758.2200000007}},{"attributes":{"ID":489708,"DIS_CODE":0,"TOWNNAME":"中西區","LI":"五妃里","LIN":"13鄰","STREET":"慶中街","SECT":" ","MAREA":" ","LANE":" ","ALLEY":" ","HOUSE_NO":"１９０號一樓","E_COORD97":168599.31,"N_COORD97":2542757.8399999999,"ADDRESS":"慶中街１９０號一樓","OBJECTID":489683},"geometry":{"x":168599.31000000052,"y":2542757.8400000017}},{"attributes":{"ID":489709,"DIS_CODE":0,"TOWNNAME":"中西區","LI":"五妃里","LIN":"13鄰","STREET":"慶中街","SECT":" ","MAREA":" ","LANE":" ","ALLEY":" ","HOUSE_NO":"１９０號二樓","E_COORD97":168599.31,"N_COORD97":2542757.8399999999,"ADDRESS":"慶中街１９０號二樓","OBJECTID":489684},"geometry":{"x":168599.31000000052,"y":2542757.8400000017}},{"attributes":{"ID":489710,"DIS_CODE":0,"TOWNNAME":"中西區","LI":"五妃里","LIN":"13鄰","STREET":"慶中街","SECT":" ","MAREA":" ","LANE":" ","ALLEY":" ","HOUSE_NO":"１９０號三樓","E_COORD97":168599.31,"N_COORD97":2542757.8399999999,"ADDRESS":"慶中街１９０號三樓","OBJECTID":489685},"geometry":{"x":168599.31000000052,"y":2542757.8400000017}},{"attributes":{"ID":489711,"DIS_CODE":0,"TOWNNAME":"中西區","LI":"五妃里","LIN":"13鄰","STREET":"慶中街","SECT":" ","MAREA":" ","LANE":" ","ALLEY":" ","HOUSE_NO":"１９０號五樓","E_COORD97":168599.31,"N_COORD97":2542757.8399999999,"ADDRESS":"慶中街１９０號五樓","OBJECTID":489686},"geometry":{"x":168599.31000000052,"y":2542757.8400000017}},{"attributes":{"ID":489712,"DIS_CODE":0,"TOWNNAME":"中西區","LI":"五妃里","LIN":"13鄰","STREET":"慶中街","SECT":" ","MAREA":" ","LANE":" ","ALLEY":" ","HOUSE_NO":"１９０號四樓","E_COORD97":168599.31,"N_COORD97":2542757.8399999999,"ADDRESS":"慶中街１９０號四樓","OBJECTID":489687},"geometry":{"x":168599.31000000052,"y":2542757.8400000017}},{"attributes":{"ID":489713,"DIS_CODE":0,"TOWNNAME":"中西區","LI":"五妃里","LIN":"13鄰","STREET":"慶中街","SECT":" ","MAREA":" ","LANE":" ","ALLEY":" ","HOUSE_NO":"１９２號一樓","E_COORD97":168583.35999999999,"N_COORD97":2542769.8300000001,"ADDRESS":"慶中街１９２號一樓","OBJECTID":489688},"geometry":{"x":168583.36000000034,"y":2542769.8300000001}},{"attributes":{"ID":489714,"DIS_CODE":0,"TOWNNAME":"善化區","LI":"坐駕里","LIN":"13鄰","STREET":"建國路","SECT":" ","MAREA":" ","LANE":" ","ALLEY":" ","HOUSE_NO":"６２號","E_COORD97":178033.75,"N_COORD97":2558692.7200000002,"ADDRESS":"建國路６２號","OBJECTID":489689},"geometry":{"x":178033.75000000093,"y":2558692.7200000007}},{"attributes":{"ID":489715,"DIS_CODE":0,"TOWNNAME":"中西區","LI":"五妃里","LIN":"13鄰","STREET":"慶中街","SECT":" ","MAREA":" ","LANE":" ","ALLEY":" ","HOUSE_NO":"１９２號二樓","E_COORD97":168583.35999999999,"N_COORD97":2542769.8300000001,"ADDRESS":"慶中街１９２號二樓","OBJECTID":489690},"geometry":{"x":168583.36000000034,"y":2542769.8300000001}},{"attributes":{"ID":489716,"DIS_CODE":0,"TOWNNAME":"中西區","LI":"五妃里","LIN":"13鄰","STREET":"慶中街","SECT":" ","MAREA":" ","LANE":" ","ALLEY":" ","HOUSE_NO":"１９２號三樓","E_COORD97":168583.35999999999,"N_COORD97":2542769.8300000001,"ADDRESS":"慶中街１９２號三樓","OBJECTID":489691},"geometry":{"x":168583.36000000034,"y":2542769.8300000001}},{"attributes":{"ID":489717,"DIS_CODE":0,"TOWNNAME":"中西區","LI":"五妃里","LIN":"13鄰","STREET":"慶中街","SECT":" ","MAREA":" ","LANE":" ","ALLEY":" ","HOUSE_NO":"１９２號五樓","E_COORD97":168583.35999999999,"N_COORD97":2542769.8300000001,"ADDRESS":"慶中街１９２號五樓","OBJECTID":489692},"geometry":{"x":168583.36000000034,"y":2542769.8300000001}},{"attributes":{"ID":489718,"DIS_CODE":0,"TOWNNAME":"中西區","LI":"五妃里","LIN":"13鄰","STREET":"慶中街","SECT":" ","MAREA":" ","LANE":" ","ALLEY":" ","HOUSE_NO":"１９２號四樓","E_COORD97":168583.35999999999,"N_COORD97":2542769.8300000001,"ADDRESS":"慶中街１９２號四樓","OBJECTID":489693},"geometry":{"x":168583.36000000034,"y":2542769.8300000001}},{"attributes":{"ID":489719,"DIS_CODE":0,"TOWNNAME":"中西區","LI":"五妃里","LIN":"13鄰","STREET":"慶中街","SECT":" ","MAREA":" ","LANE":" ","ALLEY":" ","HOUSE_NO":"１９４號一樓","E_COORD97":168570.72,"N_COORD97":2542772,"ADDRESS":"慶中街１９４號一樓","OBJECTID":489694},"geometry":{"x":168570.71999999974,"y":2542772}},{"attributes":{"ID":489720,"DIS_CODE":0,"TOWNNAME":"中西區","LI":"五妃里","LIN":"13鄰","STREET":"慶中街","SECT":" ","MAREA":" ","LANE":" ","ALLEY":" ","HOUSE_NO":"１９４號二樓","E_COORD97":168570.72,"N_COORD97":2542772,"ADDRESS":"慶中街１９４號二樓","OBJECTID":489695},"geometry":{"x":168570.71999999974,"y":2542772}},{"attributes":{"ID":489721,"DIS_CODE":0,"TOWNNAME":"中西區","LI":"五妃里","LIN":"13鄰","STREET":"慶中街","SECT":" ","MAREA":" ","LANE":" ","ALLEY":" ","HOUSE_NO":"１９４號三樓","E_COORD97":168570.72,"N_COORD97":2542772,"ADDRESS":"慶中街１９４號三樓","OBJECTID":489696},"geometry":{"x":168570.71999999974,"y":2542772}},{"attributes":{"ID":489722,"DIS_CODE":0,"TOWNNAME":"中西區","LI":"五妃里","LIN":"13鄰","STREET":"慶中街","SECT":" ","MAREA":" ","LANE":" ","ALLEY":" ","HOUSE_NO":"１９４號五樓","E_COORD97":168570.72,"N_COORD97":2542772,"ADDRESS":"慶中街１９４號五樓","OBJECTID":489697},"geometry":{"x":168570.71999999974,"y":2542772}},{"attributes":{"ID":489723,"DIS_CODE":0,"TOWNNAME":"中西區","LI":"五妃里","LIN":"13鄰","STREET":"慶中街","SECT":" ","MAREA":" ","LANE":" ","ALLEY":" ","HOUSE_NO":"１９４號四樓","E_COORD97":168570.72,"N_COORD97":2542772,"ADDRESS":"慶中街１９４號四樓","OBJECTID":489698},"geometry":{"x":168570.71999999974,"y":2542772}},{"attributes":{"ID":489724,"DIS_CODE":0,"TOWNNAME":"中西區","LI":"五妃里","LIN":"13鄰","STREET":"慶中街","SECT":" ","MAREA":" ","LANE":" ","ALLEY":" ","HOUSE_NO":"１９６號一樓","E_COORD97":168559.85999999999,"N_COORD97":2542771.7400000002,"ADDRESS":"慶中街１９６號一樓","OBJECTID":489699},"geometry":{"x":168559.86000000034,"y":2542771.7400000039}},{"attributes":{"ID":489725,"DIS_CODE":0,"TOWNNAME":"中西區","LI":"五妃里","LIN":"13鄰","STREET":"慶中街","SECT":" ","MAREA":" ","LANE":" ","ALLEY":" ","HOUSE_NO":"１９６號二樓","E_COORD97":168559.85999999999,"N_COORD97":2542771.7400000002,"ADDRESS":"慶中街１９６號二樓","OBJECTID":489700},"geometry":{"x":168559.86000000034,"y":2542771.7400000039}},{"attributes":{"ID":489726,"DIS_CODE":0,"TOWNNAME":"中西區","LI":"五妃里","LIN":"13鄰","STREET":"慶中街","SECT":" ","MAREA":" ","LANE":" ","ALLEY":" ","HOUSE_NO":"１９６號三樓","E_COORD97":168559.85999999999,"N_COORD97":2542771.7400000002,"ADDRESS":"慶中街１９６號三樓","OBJECTID":489701},"geometry":{"x":168559.86000000034,"y":2542771.7400000039}},{"attributes":{"ID":489727,"DIS_CODE":0,"TOWNNAME":"中西區","LI":"五妃里","LIN":"13鄰","STREET":"慶中街","SECT":" ","MAREA":" ","LANE":" ","ALLEY":" ","HOUSE_NO":"１９６號五樓","E_COORD97":168559.85999999999,"N_COORD97":2542771.7400000002,"ADDRESS":"慶中街１９６號五樓","OBJECTID":489702},"geometry":{"x":168559.86000000034,"y":2542771.7400000039}},{"attributes":{"ID":489728,"DIS_CODE":0,"TOWNNAME":"中西區","LI":"五妃里","LIN":"13鄰","STREET":"慶中街","SECT":" ","MAREA":" ","LANE":" ","ALLEY":" ","HOUSE_NO":"１９６號四樓","E_COORD97":168559.85999999999,"N_COORD97":2542771.7400000002,"ADDRESS":"慶中街１９６號四樓","OBJECTID":489703},"geometry":{"x":168559.86000000034,"y":2542771.7400000039}},{"attributes":{"ID":489729,"DIS_CODE":0,"TOWNNAME":"永康區","LI":"網寮里","LIN":"13鄰","STREET":"永勝街","SECT":" ","MAREA":" ","LANE":" ","ALLEY":" ","HOUSE_NO":"１７５號","E_COORD97":173324.51000000001,"N_COORD97":2546526.96,"ADDRESS":"永勝街１７５號","OBJECTID":489704},"geometry":{"x":173324.51000000071,"y":2546526.9600000009}},{"attributes":{"ID":489730,"DIS_CODE":0,"TOWNNAME":"永康區","LI":"復華里","LIN":"13鄰","STREET":"復國二路","SECT":" ","MAREA":" ","LANE":" ","ALLEY":" ","HOUSE_NO":"１９３號","E_COORD97":172975.87,"N_COORD97":2545959.52,"ADDRESS":"復國二路１９３號","OBJECTID":489705},"geometry":{"x":172975.87000000011,"y":2545959.5200000033}},{"attributes":{"ID":489731,"DIS_CODE":0,"TOWNNAME":"永康區","LI":"復國里","LIN":"13鄰","STREET":"復華三街","SECT":" ","MAREA":" ","LANE":" ","ALLEY":" ","HOUSE_NO":"５３號","E_COORD97":172802.66,"N_COORD97":2545538.0499999998,"ADDRESS":"復華三街５３號","OBJECTID":489706},"geometry":{"x":172802.66000000015,"y":2545538.0500000026}},{"attributes":{"ID":489732,"DIS_CODE":0,"TOWNNAME":"永康區","LI":"復國里","LIN":"13鄰","STREET":"復華三街","SECT":" ","MAREA":" ","LANE":" ","ALLEY":" ","HOUSE_NO":"２５號","E_COORD97":172864.62,"N_COORD97":2545534.52,"ADDRESS":"復華三街２５號","OBJECTID":489707},"geometry":{"x":172864.62000000104,"y":2545534.5199999996}},{"attributes":{"ID":489733,"DIS_CODE":0,"TOWNNAME":"永康區","LI":"復國里","LIN":"13鄰","STREET":"復華三街","SECT":" ","MAREA":" ","LANE":" ","ALLEY":" ","HOUSE_NO":"３５號","E_COORD97":172838.67000000001,"N_COORD97":2545535.4500000002,"ADDRESS":"復華三街３５號","OBJECTID":489708},"geometry":{"x":172838.67000000086,"y":2545535.4499999993}},{"attributes":{"ID":489734,"DIS_CODE":0,"TOWNNAME":"永康區","LI":"復國里","LIN":"13鄰","STREET":"復華三街","SECT":" ","MAREA":" ","LANE":" ","ALLEY":" ","HOUSE_NO":"２２號","E_COORD97":172898.37,"N_COORD97":2545547.77,"ADDRESS":"復華三街２２號","OBJECTID":489709},"geometry":{"x":172898.37000000104,"y":2545547.7700000033}},{"attributes":{"ID":489735,"DIS_CODE":0,"TOWNNAME":"新營區","LI":"民生里","LIN":"7鄰","STREET":"民生路","SECT":" ","MAREA":" ","LANE":" ","ALLEY":" ","HOUSE_NO":"１３號之１","E_COORD97":179373.29999999999,"N_COORD97":2578147.1699999999,"ADDRESS":"民生路１３號之１","OBJECTID":489710},"geometry":{"x":179373.29999999981,"y":2578147.1700000037}},{"attributes":{"ID":489736,"DIS_CODE":0,"TOWNNAME":"新營區","LI":"嘉芳里","LIN":"4鄰","STREET":"嘉芳街","SECT":" ","MAREA":" ","LANE":" ","ALLEY":" ","HOUSE_NO":"１９９號","E_COORD97":177036.29999999999,"N_COORD97":2578045.48,"ADDRESS":"嘉芳街１９９號","OBJECTID":489711},"geometry":{"x":177036.30000000168,"y":2578045.4800000023}},{"attributes":{"ID":489737,"DIS_CODE":0,"TOWNNAME":"新營區","LI":"新北里","LIN":"18鄰","STREET":"民生路","SECT":" ","MAREA":" ","LANE":" ","ALLEY":" ","HOUSE_NO":"１８１號","E_COORD97":179130.85999999999,"N_COORD97":2578832.6800000002,"ADDRESS":"民生路１８１號","OBJECTID":489712},"geometry":{"x":179130.86000000034,"y":2578832.6800000016}},{"attributes":{"ID":489738,"DIS_CODE":0,"TOWNNAME":"永康區","LI":"復國里","LIN":"13鄰","STREET":"復華三街","SECT":" ","MAREA":" ","LANE":" ","ALLEY":" ","HOUSE_NO":"４３號","E_COORD97":172822.94,"N_COORD97":2545536.5699999998,"ADDRESS":"復華三街４３號","OBJECTID":489713},"geometry":{"x":172822.94000000041,"y":2545536.5700000022}},{"attributes":{"ID":489739,"DIS_CODE":0,"TOWNNAME":"永康區","LI":"復興里","LIN":"13鄰","STREET":"復興路","SECT":" ","MAREA":" ","LANE":" ","ALLEY":" ","HOUSE_NO":"２９４號","E_COORD97":172340.07000000001,"N_COORD97":2544348.7799999998,"ADDRESS":"復興路２９４號","OBJECTID":489714},"geometry":{"x":172340.07000000123,"y":2544348.7800000012}},{"attributes":{"ID":489740,"DIS_CODE":0,"TOWNNAME":"永康區","LI":"復興里","LIN":"13鄰","STREET":"復興路","SECT":" ","MAREA":" ","LANE":" ","ALLEY":" ","HOUSE_NO":"２７８號","E_COORD97":172374.45000000001,"N_COORD97":2544347.7200000002,"ADDRESS":"復興路２７８號","OBJECTID":489715},"geometry":{"x":172374.45000000112,"y":2544347.7200000007}},{"attributes":{"ID":489741,"DIS_CODE":0,"TOWNNAME":"永康區","LI":"復國里","LIN":"13鄰","STREET":"復華三街","SECT":" ","MAREA":" ","LANE":" ","ALLEY":" ","HOUSE_NO":"４１號","E_COORD97":172826.54000000001,"N_COORD97":2545536.3199999998,"ADDRESS":"復華三街４１號","OBJECTID":489716},"geometry":{"x":172826.54000000004,"y":2545536.3200000003}},{"attributes":{"ID":489742,"DIS_CODE":0,"TOWNNAME":"永康區","LI":"大灣里","LIN":"13鄰","STREET":"中灣五街","SECT":" ","MAREA":" ","LANE":" ","ALLEY":" ","HOUSE_NO":"２７號","E_COORD97":175107.54999999999,"N_COORD97":2545255.3500000001,"ADDRESS":"中灣五街２７號","OBJECTID":489717},"geometry":{"x":175107.55000000075,"y":2545255.3499999978}},{"attributes":{"ID":489743,"DIS_CODE":0,"TOWNNAME":"新營區","LI":"南興里","LIN":" ","STREET":"延平路","SECT":" ","MAREA":" ","LANE":" ","ALLEY":" ","HOUSE_NO":"１３８之１號","E_COORD97":179735.39000000001,"N_COORD97":2577451.0800000001,"ADDRESS":"延平路１３８之１號","OBJECTID":489718},"geometry":{"x":179735.38999999966,"y":2577451.0800000019}},{"attributes":{"ID":489744,"DIS_CODE":0,"TOWNNAME":"永康區","LI":"三民里","LIN":"13鄰","STREET":"和平路","SECT":" ","MAREA":" ","LANE":" ","ALLEY":" ","HOUSE_NO":"２８７號之１","E_COORD97":174441.98000000001,"N_COORD97":2551243.0600000001,"ADDRESS":"和平路２８７號之１","OBJECTID":489719},"geometry":{"x":174441.98000000231,"y":2551243.0600000024}},{"attributes":{"ID":489745,"DIS_CODE":0,"TOWNNAME":"永康區","LI":"三民里","LIN":"13鄰","STREET":"和平路","SECT":" ","MAREA":" ","LANE":" ","ALLEY":" ","HOUSE_NO":"２８３號","E_COORD97":174472.09,"N_COORD97":2551243.9900000002,"ADDRESS":"和平路２８３號","OBJECTID":489720},"geometry":{"x":174472.08999999985,"y":2551243.9900000021}},{"attributes":{"ID":489746,"DIS_CODE":0,"TOWNNAME":"仁德區","LI":"成功里","LIN":"13鄰","STREET":"全福路","SECT":" ","MAREA":" ","LANE":" ","ALLEY":" ","HOUSE_NO":"１０號","E_COORD97":170839.48000000001,"N_COORD97":2539309.9900000002,"ADDRESS":"全福路１０號","OBJECTID":489721},"geometry":{"x":170839.48000000045,"y":2539309.9900000021}},{"attributes":{"ID":489747,"DIS_CODE":0,"TOWNNAME":"永康區","LI":"復國里","LIN":"13鄰","STREET":"復國二路","SECT":" ","MAREA":" ","LANE":" ","ALLEY":" ","HOUSE_NO":"１２２號","E_COORD97":172874.26000000001,"N_COORD97":2545500.5299999998,"ADDRESS":"復國二路１２２號","OBJECTID":489722},"geometry":{"x":172874.25999999978,"y":2545500.5299999993}},{"attributes":{"ID":489748,"DIS_CODE":0,"TOWNNAME":"仁德區","LI":"太子里","LIN":"13鄰","STREET":"長興二街","SECT":" ","MAREA":" ","LANE":" ","ALLEY":" ","HOUSE_NO":"３０號","E_COORD97":174389.23000000001,"N_COORD97":2543708.25,"ADDRESS":"長興二街３０號","OBJECTID":489723},"geometry":{"x":174389.23000000045,"y":2543708.2500000019}},{"attributes":{"ID":489749,"DIS_CODE":0,"TOWNNAME":"仁德區","LI":"太子里","LIN":"13鄰","STREET":"長興二街","SECT":" ","MAREA":" ","LANE":" ","ALLEY":" ","HOUSE_NO":"３６號","E_COORD97":174377.35000000001,"N_COORD97":2543707.5,"ADDRESS":"長興二街３６號","OBJECTID":489724},"geometry":{"x":174377.34999999963,"y":2543707.5}},{"attributes":{"ID":489750,"DIS_CODE":0,"TOWNNAME":"仁德區","LI":"保安里","LIN":"13鄰","STREET":"二仁路","SECT":"一段","MAREA":" ","LANE":" ","ALLEY":" ","HOUSE_NO":"１０２號","E_COORD97":170466.64999999999,"N_COORD97":2535863.2799999998,"ADDRESS":"二仁路一段１０２號","OBJECTID":489725},"geometry":{"x":170466.65000000037,"y":2535863.2799999993}},{"attributes":{"ID":489751,"DIS_CODE":0,"TOWNNAME":"仁德區","LI":"太子里","LIN":"13鄰","STREET":"長興二街","SECT":" ","MAREA":" ","LANE":" ","ALLEY":" ","HOUSE_NO":"３４號","E_COORD97":174381.04000000001,"N_COORD97":2543707.75,"ADDRESS":"長興二街３４號","OBJECTID":489726},"geometry":{"x":174381.04000000004,"y":2543707.7500000019}},{"attributes":{"ID":489752,"DIS_CODE":0,"TOWNNAME":"仁德區","LI":"太子里","LIN":"13鄰","STREET":"長興二街","SECT":" ","MAREA":" ","LANE":" ","ALLEY":" ","HOUSE_NO":"３２號","E_COORD97":174385,"N_COORD97":2543708,"ADDRESS":"長興二街３２號","OBJECTID":489727},"geometry":{"x":174385,"y":2543708}},{"attributes":{"ID":489753,"DIS_CODE":0,"TOWNNAME":"仁德區","LI":"成功里","LIN":"13鄰","STREET":"全福路","SECT":" ","MAREA":" ","LANE":" ","ALLEY":" ","HOUSE_NO":"１５號","E_COORD97":170851.12,"N_COORD97":2539324.9900000002,"ADDRESS":"全福路１５號","OBJECTID":489728},"geometry":{"x":170851.12000000104,"y":2539324.9900000002}},{"attributes":{"ID":489754,"DIS_CODE":0,"TOWNNAME":"仁德區","LI":"成功里","LIN":"13鄰","STREET":"全福路","SECT":" ","MAREA":" ","LANE":" ","ALLEY":" ","HOUSE_NO":"８號","E_COORD97":170833.78,"N_COORD97":2539310.7400000002,"ADDRESS":"全福路８號","OBJECTID":489729},"geometry":{"x":170833.78000000026,"y":2539310.7400000021}},{"attributes":{"ID":489755,"DIS_CODE":0,"TOWNNAME":"仁德區","LI":"保安里","LIN":"13鄰","STREET":"二仁路","SECT":"一段","MAREA":" ","LANE":" ","ALLEY":" ","HOUSE_NO":"６８號","E_COORD97":170518.76000000001,"N_COORD97":2535771.7799999998,"ADDRESS":"二仁路一段６８號","OBJECTID":489730},"geometry":{"x":170518.76000000071,"y":2535771.7799999993}},{"attributes":{"ID":489756,"DIS_CODE":0,"TOWNNAME":"仁德區","LI":"保安里","LIN":"13鄰","STREET":"二仁路","SECT":"一段","MAREA":" ","LANE":" ","ALLEY":" ","HOUSE_NO":"６４號","E_COORD97":170514.04000000001,"N_COORD97":2535753.2799999998,"ADDRESS":"二仁路一段６４號","OBJECTID":489731},"geometry":{"x":170514.04000000097,"y":2535753.2800000012}},{"attributes":{"ID":489757,"DIS_CODE":0,"TOWNNAME":"仁德區","LI":"保安里","LIN":"13鄰","STREET":"二仁路","SECT":"一段","MAREA":" ","LANE":" ","ALLEY":" ","HOUSE_NO":"７６號","E_COORD97":170496.10000000001,"N_COORD97":2535798.52,"ADDRESS":"二仁路一段７６號","OBJECTID":489732},"geometry":{"x":170496.10000000056,"y":2535798.5200000033}},{"attributes":{"ID":489758,"DIS_CODE":0,"TOWNNAME":"仁德區","LI":"太子里","LIN":"13鄰","STREET":"長興二街","SECT":" ","MAREA":" ","LANE":" ","ALLEY":" ","HOUSE_NO":"１６號","E_COORD97":174421.34,"N_COORD97":2543709.75,"ADDRESS":"長興二街１６號","OBJECTID":489733},"geometry":{"x":174421.33999999985,"y":2543709.75}},{"attributes":{"ID":489759,"DIS_CODE":0,"TOWNNAME":"中西區","LI":"光賢里","LIN":"13鄰","STREET":"民權路","SECT":"三段","MAREA":" ","LANE":" ","ALLEY":" ","HOUSE_NO":"４５０號","E_COORD97":166701.85000000001,"N_COORD97":2544428.1200000001,"ADDRESS":"民權路三段４５０號","OBJECTID":489734},"geometry":{"x":166701.85000000149,"y":2544428.1200000048}},{"attributes":{"ID":489760,"DIS_CODE":0,"TOWNNAME":"中西區","LI":"光賢里","LIN":"13鄰","STREET":"民權路","SECT":"三段","MAREA":" ","LANE":" ","ALLEY":" ","HOUSE_NO":"４５２號","E_COORD97":166697.48000000001,"N_COORD97":2544426.8399999999,"ADDRESS":"民權路三段４５２號","OBJECTID":489735},"geometry":{"x":166697.48000000138,"y":2544426.8400000017}},{"attributes":{"ID":489761,"DIS_CODE":0,"TOWNNAME":"中西區","LI":"光賢里","LIN":"13鄰","STREET":"民權路","SECT":"三段","MAREA":" ","LANE":" ","ALLEY":" ","HOUSE_NO":"４５４號","E_COORD97":166691.82000000001,"N_COORD97":2544425.5600000001,"ADDRESS":"民權路三段４５４號","OBJECTID":489736},"geometry":{"x":166691.8200000003,"y":2544425.5600000024}},{"attributes":{"ID":489762,"DIS_CODE":0,"TOWNNAME":"中西區","LI":"光賢里","LIN":"13鄰","STREET":"民權路","SECT":"三段","MAREA":" ","LANE":" ","ALLEY":" ","HOUSE_NO":"４５６號","E_COORD97":166687.20000000001,"N_COORD97":2544425.8100000001,"ADDRESS":"民權路三段４５６號","OBJECTID":489737},"geometry":{"x":166687.20000000112,"y":2544425.8100000005}},{"attributes":{"ID":489763,"DIS_CODE":0,"TOWNNAME":"中西區","LI":"光賢里","LIN":"13鄰","STREET":"民權路","SECT":"三段","MAREA":" ","LANE":" ","ALLEY":" ","HOUSE_NO":"４５８號","E_COORD97":166683.34,"N_COORD97":2544423.7599999998,"ADDRESS":"民權路三段４５８號","OBJECTID":489738},"geometry":{"x":166683.33999999892,"y":2544423.7600000016}},{"attributes":{"ID":489764,"DIS_CODE":0,"TOWNNAME":"中西區","LI":"光賢里","LIN":"13鄰","STREET":"民權路","SECT":"三段","MAREA":" ","LANE":" ","ALLEY":" ","HOUSE_NO":"４６０號","E_COORD97":166679.23000000001,"N_COORD97":2544421.71,"ADDRESS":"民權路三段４６０號","OBJECTID":489739},"geometry":{"x":166679.23000000045,"y":2544421.7100000028}},{"attributes":{"ID":489765,"DIS_CODE":0,"TOWNNAME":"中西區","LI":"光賢里","LIN":"13鄰","STREET":"民權路","SECT":"三段","MAREA":" ","LANE":" ","ALLEY":" ","HOUSE_NO":"４６２號","E_COORD97":166674.34,"N_COORD97":2544422.48,"ADDRESS":"民權路三段４６２號","OBJECTID":489740},"geometry":{"x":166674.33999999985,"y":2544422.4800000023}},{"attributes":{"ID":489766,"DIS_CODE":0,"TOWNNAME":"中西區","LI":"光賢里","LIN":"13鄰","STREET":"民權路","SECT":"三段","MAREA":" ","LANE":" ","ALLEY":" ","HOUSE_NO":"４６４號","E_COORD97":166672.54000000001,"N_COORD97":2544418.6200000001,"ADDRESS":"民權路三段４６４號","OBJECTID":489741},"geometry":{"x":166672.54000000097,"y":2544418.6200000029}},{"attributes":{"ID":489767,"DIS_CODE":0,"TOWNNAME":"中西區","LI":"光賢里","LIN":"13鄰","STREET":"西和路","SECT":" ","MAREA":" ","LANE":" ","ALLEY":" ","HOUSE_NO":"２１號之７","E_COORD97":166723.45000000001,"N_COORD97":2544460.9900000002,"ADDRESS":"西和路２１號之７","OBJECTID":489742},"geometry":{"x":166723.45000000019,"y":2544460.9900000002}},{"attributes":{"ID":489768,"DIS_CODE":0,"TOWNNAME":"善化區","LI":"西關里","LIN":"13鄰","STREET":"光復路","SECT":" ","MAREA":" ","LANE":" ","ALLEY":" ","HOUSE_NO":"６２９號（該建物係農","E_COORD97":176739.23000000001,"N_COORD97":2559155.8399999999,"ADDRESS":"光復路６２９號（該建物係農業設施不得設籍）","OBJECTID":489743},"geometry":{"x":176739.23000000138,"y":2559155.8399999999}},{"attributes":{"ID":489769,"DIS_CODE":0,"TOWNNAME":"善化區","LI":"坐駕里","LIN":"13鄰","STREET":"自強路","SECT":" ","MAREA":" ","LANE":" ","ALLEY":" ","HOUSE_NO":"８０號","E_COORD97":178121.35000000001,"N_COORD97":2558739.7200000002,"ADDRESS":"自強路８０號","OBJECTID":489744},"geometry":{"x":178121.35000000056,"y":2558739.7200000007}},{"attributes":{"ID":489770,"DIS_CODE":0,"TOWNNAME":"善化區","LI":"西關里","LIN":"13鄰","STREET":"興農路","SECT":" ","MAREA":" ","LANE":" ","ALLEY":" ","HOUSE_NO":"２５號","E_COORD97":176534.42000000001,"N_COORD97":2559137.3900000001,"ADDRESS":"興農路２５號","OBJECTID":489745},"geometry":{"x":176534.42000000086,"y":2559137.3900000025}},{"attributes":{"ID":489771,"DIS_CODE":0,"TOWNNAME":"善化區","LI":"坐駕里","LIN":"13鄰","STREET":"自強路","SECT":" ","MAREA":" ","LANE":" ","ALLEY":" ","HOUSE_NO":"１０２號","E_COORD97":178049.78,"N_COORD97":2558737.8900000001,"ADDRESS":"自強路１０２號","OBJECTID":489746},"geometry":{"x":178049.78000000026,"y":2558737.8900000025}},{"attributes":{"ID":489772,"DIS_CODE":0,"TOWNNAME":"善化區","LI":"坐駕里","LIN":"13鄰","STREET":"建國路","SECT":" ","MAREA":" ","LANE":" ","ALLEY":" ","HOUSE_NO":"４８號","E_COORD97":178045.42000000001,"N_COORD97":2558660.1099999999,"ADDRESS":"建國路４８號","OBJECTID":489747},"geometry":{"x":178045.41999999993,"y":2558660.1100000013}},{"attributes":{"ID":489773,"DIS_CODE":0,"TOWNNAME":"善化區","LI":"坐駕里","LIN":"13鄰","STREET":"建國路","SECT":" ","MAREA":" ","LANE":" ","ALLEY":" ","HOUSE_NO":"５０號","E_COORD97":178047.79999999999,"N_COORD97":2558665.79,"ADDRESS":"建國路５０號","OBJECTID":489748},"geometry":{"x":178047.79999999981,"y":2558665.790000001}},{"attributes":{"ID":489774,"DIS_CODE":0,"TOWNNAME":"善化區","LI":"坐駕里","LIN":"13鄰","STREET":"建國路","SECT":" ","MAREA":" ","LANE":" ","ALLEY":" ","HOUSE_NO":"５２號","E_COORD97":178050.17000000001,"N_COORD97":2558671.4700000002,"ADDRESS":"建國路５２號","OBJECTID":489749},"geometry":{"x":178050.16999999993,"y":2558671.4700000044}},{"attributes":{"ID":489775,"DIS_CODE":0,"TOWNNAME":"善化區","LI":"坐駕里","LIN":"13鄰","STREET":"建國路","SECT":" ","MAREA":" ","LANE":" ","ALLEY":" ","HOUSE_NO":"５６號","E_COORD97":178053.60999999999,"N_COORD97":2558677.04,"ADDRESS":"建國路５６號","OBJECTID":489750},"geometry":{"x":178053.6100000022,"y":2558677.040000001}},{"attributes":{"ID":489776,"DIS_CODE":0,"TOWNNAME":"中西區","LI":"保安里","LIN":"13鄰","STREET":"中正路","SECT":" ","MAREA":" ","LANE":" ","ALLEY":" ","HOUSE_NO":"２７５號","E_COORD97":167613.07999999999,"N_COORD97":2543739.5800000001,"ADDRESS":"中正路２７５號","OBJECTID":489751},"geometry":{"x":167613.08000000101,"y":2543739.5800000019}},{"attributes":{"ID":489777,"DIS_CODE":0,"TOWNNAME":"中西區","LI":"保安里","LIN":"13鄰","STREET":"中正路","SECT":" ","MAREA":" ","LANE":" ","ALLEY":" ","HOUSE_NO":"２７７號","E_COORD97":167608.16,"N_COORD97":2543740.3199999998,"ADDRESS":"中正路２７７號","OBJECTID":489752},"geometry":{"x":167608.16000000015,"y":2543740.3200000003}},{"attributes":{"ID":489778,"DIS_CODE":0,"TOWNNAME":"中西區","LI":"保安里","LIN":"13鄰","STREET":"中正路","SECT":" ","MAREA":" ","LANE":" ","ALLEY":" ","HOUSE_NO":"２７９號","E_COORD97":167603.98000000001,"N_COORD97":2543741.0600000001,"ADDRESS":"中正路２７９號","OBJECTID":489753},"geometry":{"x":167603.98000000138,"y":2543741.0600000024}},{"attributes":{"ID":489779,"DIS_CODE":0,"TOWNNAME":"中西區","LI":"保安里","LIN":"13鄰","STREET":"中正路","SECT":" ","MAREA":" ","LANE":" ","ALLEY":" ","HOUSE_NO":"２８１號","E_COORD97":167597.84,"N_COORD97":2543742.29,"ADDRESS":"中正路２８１號","OBJECTID":489754},"geometry":{"x":167597.84000000078,"y":2543742.2899999991}},{"attributes":{"ID":489780,"DIS_CODE":0,"TOWNNAME":"中西區","LI":"郡西里","LIN":"13鄰","STREET":"郡西路","SECT":" ","MAREA":" ","LANE":" ","ALLEY":" ","HOUSE_NO":"１０６號","E_COORD97":167431.09,"N_COORD97":2543421.3900000001,"ADDRESS":"郡西路１０６號","OBJECTID":489755},"geometry":{"x":167431.09000000171,"y":2543421.3900000006}},{"attributes":{"ID":489781,"DIS_CODE":0,"TOWNNAME":"中西區","LI":"郡西里","LIN":"13鄰","STREET":"郡西路","SECT":" ","MAREA":" ","LANE":" ","ALLEY":" ","HOUSE_NO":"１０８號","E_COORD97":167431.57999999999,"N_COORD97":2543425.29,"ADDRESS":"郡西路１０８號","OBJECTID":489756},"geometry":{"x":167431.58000000101,"y":2543425.290000001}},{"attributes":{"ID":489782,"DIS_CODE":0,"TOWNNAME":"中西區","LI":"郡西里","LIN":"13鄰","STREET":"郡西路","SECT":" ","MAREA":" ","LANE":" ","ALLEY":" ","HOUSE_NO":"１１０號","E_COORD97":167432.42999999999,"N_COORD97":2543428.9500000002,"ADDRESS":"郡西路１１０號","OBJECTID":489757},"geometry":{"x":167432.43000000063,"y":2543428.9499999993}},{"attributes":{"ID":489783,"DIS_CODE":0,"TOWNNAME":"中西區","LI":"郡西里","LIN":"13鄰","STREET":"郡西路","SECT":" ","MAREA":" ","LANE":" ","ALLEY":" ","HOUSE_NO":"１１２號","E_COORD97":167432.79999999999,"N_COORD97":2543432.6099999999,"ADDRESS":"郡西路１１２號","OBJECTID":489758},"geometry":{"x":167432.79999999981,"y":2543432.6099999994}},{"attributes":{"ID":489784,"DIS_CODE":0,"TOWNNAME":"南區","LI":"大恩里","LIN":"5鄰","STREET":"國民路","SECT":" ","MAREA":" ","LANE":" ","ALLEY":" ","HOUSE_NO":"１９號","E_COORD97":169529.47,"N_COORD97":2540871.1400000001,"ADDRESS":"國民路１９號","OBJECTID":489759},"geometry":{"x":169529.47000000067,"y":2540871.1400000043}},{"attributes":{"ID":489785,"DIS_CODE":0,"TOWNNAME":"新市區","LI":"新和里","LIN":"13鄰","STREET":"忠孝街","SECT":" ","MAREA":" ","LANE":" ","ALLEY":" ","HOUSE_NO":"８５號","E_COORD97":177671.82000000001,"N_COORD97":2552553,"ADDRESS":"忠孝街８５號","OBJECTID":489760},"geometry":{"x":177671.8200000003,"y":2552553}},{"attributes":{"ID":489786,"DIS_CODE":0,"TOWNNAME":"南區","LI":"南華里","LIN":"18鄰","STREET":"中華南路","SECT":"二段","MAREA":" ","LANE":" ","ALLEY":" ","HOUSE_NO":"２５２號","E_COORD97":166823.92999999999,"N_COORD97":2540261.9300000002,"ADDRESS":"中華南路二段２５２號","OBJECTID":489761},"geometry":{"x":166823.93000000063,"y":2540261.9300000016}},{"attributes":{"ID":489787,"DIS_CODE":0,"TOWNNAME":"南區","LI":"南華里","LIN":"18鄰","STREET":"中華南路","SECT":"二段","MAREA":" ","LANE":" ","ALLEY":" ","HOUSE_NO":"２５４號","E_COORD97":166816.63,"N_COORD97":2540259.0699999998,"ADDRESS":"中華南路二段２５４號","OBJECTID":489762},"geometry":{"x":166816.62999999989,"y":2540259.0700000022}},{"attributes":{"ID":489788,"DIS_CODE":0,"TOWNNAME":"南區","LI":"南華里","LIN":"18鄰","STREET":"中華南路","SECT":"二段","MAREA":" ","LANE":" ","ALLEY":" ","HOUSE_NO":"２５６號","E_COORD97":166811.54999999999,"N_COORD97":2540259.9900000002,"ADDRESS":"中華南路二段２５６號","OBJECTID":489763},"geometry":{"x":166811.55000000075,"y":2540259.9900000002}},{"attributes":{"ID":489789,"DIS_CODE":0,"TOWNNAME":"南區","LI":"南華里","LIN":"18鄰","STREET":"中華南路","SECT":"二段","MAREA":" ","LANE":" ","ALLEY":" ","HOUSE_NO":"２５８號","E_COORD97":166808.13,"N_COORD97":2540262.02,"ADDRESS":"中華南路二段２５８號","OBJECTID":489764},"geometry":{"x":166808.12999999989,"y":2540262.0199999996}},{"attributes":{"ID":489790,"DIS_CODE":0,"TOWNNAME":"南區","LI":"南華里","LIN":"18鄰","STREET":"中華南路","SECT":"二段","MAREA":" ","LANE":" ","ALLEY":" ","HOUSE_NO":"２６０號","E_COORD97":166802.95999999999,"N_COORD97":2540262.2999999998,"ADDRESS":"中華南路二段２６０號","OBJECTID":489765},"geometry":{"x":166802.95999999996,"y":2540262.3000000007}},{"attributes":{"ID":489791,"DIS_CODE":0,"TOWNNAME":"南區","LI":"南華里","LIN":"18鄰","STREET":"中華南路","SECT":"二段","MAREA":" ","LANE":" ","ALLEY":" ","HOUSE_NO":"２６２號","E_COORD97":166798.98000000001,"N_COORD97":2540263.8700000001,"ADDRESS":"中華南路二段２６２號","OBJECTID":489766},"geometry":{"x":166798.98000000138,"y":2540263.8700000029}},{"attributes":{"ID":489792,"DIS_CODE":0,"TOWNNAME":"新市區","LI":"港墘里","LIN":"13鄰","STREET":"中山路","SECT":" ","MAREA":" ","LANE":" ","ALLEY":" ","HOUSE_NO":"１０２號","E_COORD97":178395.42999999999,"N_COORD97":2552798.5,"ADDRESS":"中山路１０２號","OBJECTID":489767},"geometry":{"x":178395.43000000063,"y":2552798.5000000037}},{"attributes":{"ID":489793,"DIS_CODE":0,"TOWNNAME":"新市區","LI":"港墘里","LIN":"13鄰","STREET":"中山路","SECT":" ","MAREA":" ","LANE":" ","ALLEY":" ","HOUSE_NO":"１００號","E_COORD97":178396.87,"N_COORD97":2552802.25,"ADDRESS":"中山路１００號","OBJECTID":489768},"geometry":{"x":178396.87000000011,"y":2552802.25}},{"attributes":{"ID":489794,"DIS_CODE":0,"TOWNNAME":"新市區","LI":"永就里","LIN":"13鄰","STREET":"永華二街","SECT":" ","MAREA":" ","LANE":" ","ALLEY":" ","HOUSE_NO":"３７號","E_COORD97":177788.39999999999,"N_COORD97":2551093.25,"ADDRESS":"永華二街３７號","OBJECTID":489769},"geometry":{"x":177788.40000000037,"y":2551093.25}},{"attributes":{"ID":489795,"DIS_CODE":0,"TOWNNAME":"新市區","LI":"永就里","LIN":"13鄰","STREET":"永華二街","SECT":" ","MAREA":" ","LANE":" ","ALLEY":" ","HOUSE_NO":"３３號","E_COORD97":177771.62,"N_COORD97":2551087.5,"ADDRESS":"永華二街３３號","OBJECTID":489770},"geometry":{"x":177771.62000000011,"y":2551087.5000000019}},{"attributes":{"ID":489796,"DIS_CODE":0,"TOWNNAME":"南區","LI":"南華里","LIN":"18鄰","STREET":"中華南路","SECT":"二段","MAREA":" ","LANE":" ","ALLEY":" ","HOUSE_NO":"２６４號","E_COORD97":166793.98999999999,"N_COORD97":2540265.3500000001,"ADDRESS":"中華南路二段２６４號","OBJECTID":489771},"geometry":{"x":166793.99000000022,"y":2540265.3500000015}},{"attributes":{"ID":489797,"DIS_CODE":0,"TOWNNAME":"南區","LI":"南華里","LIN":"18鄰","STREET":"中華南路","SECT":"二段","MAREA":" ","LANE":" ","ALLEY":" ","HOUSE_NO":"２６６號","E_COORD97":166790.29999999999,"N_COORD97":2540266.8300000001,"ADDRESS":"中華南路二段２６６號","OBJECTID":489772},"geometry":{"x":166790.29999999981,"y":2540266.8300000019}},{"attributes":{"ID":489798,"DIS_CODE":0,"TOWNNAME":"南區","LI":"南華里","LIN":"18鄰","STREET":"中華南路","SECT":"二段","MAREA":" ","LANE":" ","ALLEY":" ","HOUSE_NO":"２６８號","E_COORD97":166785.23000000001,"N_COORD97":2540268.2999999998,"ADDRESS":"中華南路二段２６８號","OBJECTID":489773},"geometry":{"x":166785.23000000138,"y":2540268.3000000007}},{"attributes":{"ID":489799,"DIS_CODE":0,"TOWNNAME":"南區","LI":"南華里","LIN":"18鄰","STREET":"中華南路","SECT":"二段","MAREA":" ","LANE":" ","ALLEY":" ","HOUSE_NO":"２７０號","E_COORD97":166781.26000000001,"N_COORD97":2540269.6000000001,"ADDRESS":"中華南路二段２７０號","OBJECTID":489774},"geometry":{"x":166781.26000000071,"y":2540269.5999999996}},{"attributes":{"ID":489800,"DIS_CODE":0,"TOWNNAME":"南區","LI":"南華里","LIN":"18鄰","STREET":"中華南路","SECT":"二段","MAREA":" ","LANE":" ","ALLEY":" ","HOUSE_NO":"２７２號","E_COORD97":166776.35999999999,"N_COORD97":2540270.1499999999,"ADDRESS":"中華南路二段２７２號","OBJECTID":489775},"geometry":{"x":166776.36000000034,"y":2540270.1500000004}},{"attributes":{"ID":489801,"DIS_CODE":0,"TOWNNAME":"南區","LI":"南華里","LIN":"18鄰","STREET":"中華南路","SECT":"二段","MAREA":" ","LANE":" ","ALLEY":" ","HOUSE_NO":"２７４號","E_COORD97":166772.48000000001,"N_COORD97":2540271.2599999998,"ADDRESS":"中華南路二段２７４號","OBJECTID":489776},"geometry":{"x":166772.48000000045,"y":2540271.2599999998}},{"attributes":{"ID":489802,"DIS_CODE":0,"TOWNNAME":"南區","LI":"南華里","LIN":"18鄰","STREET":"中華南路","SECT":"二段","MAREA":" ","LANE":" ","ALLEY":" ","HOUSE_NO":"２７６號","E_COORD97":166767.48999999999,"N_COORD97":2540272.46,"ADDRESS":"中華南路二段２７６號","OBJECTID":489777},"geometry":{"x":166767.48999999929,"y":2540272.4600000046}},{"attributes":{"ID":489803,"DIS_CODE":0,"TOWNNAME":"歸仁區","LI":"許厝里","LIN":"15鄰","STREET":"中山路","SECT":"一段","MAREA":" ","LANE":"３８２巷","ALLEY":" ","HOUSE_NO":"８號","E_COORD97":178217.60999999999,"N_COORD97":2540750.5600000001,"ADDRESS":"中山路一段３８２巷８號","OBJECTID":489778},"geometry":{"x":178217.61000000034,"y":2540750.5600000024}},{"attributes":{"ID":489804,"DIS_CODE":0,"TOWNNAME":"南區","LI":"南華里","LIN":"18鄰","STREET":"中華南路","SECT":"二段","MAREA":" ","LANE":" ","ALLEY":" ","HOUSE_NO":"２７８號","E_COORD97":166763.89000000001,"N_COORD97":2540273.5699999998,"ADDRESS":"中華南路二段２７８號","OBJECTID":489779},"geometry":{"x":166763.88999999966,"y":2540273.5700000003}},{"attributes":{"ID":489805,"DIS_CODE":0,"TOWNNAME":"南區","LI":"南華里","LIN":"18鄰","STREET":"中華南路","SECT":"二段","MAREA":" ","LANE":" ","ALLEY":" ","HOUSE_NO":"２８０號","E_COORD97":166758.70999999999,"N_COORD97":2540274.2999999998,"ADDRESS":"中華南路二段２８０號","OBJECTID":489780},"geometry":{"x":166758.70999999996,"y":2540274.3000000026}},{"attributes":{"ID":489806,"DIS_CODE":0,"TOWNNAME":"南區","LI":"南華里","LIN":"18鄰","STREET":"中華南路","SECT":"二段","MAREA":" ","LANE":" ","ALLEY":" ","HOUSE_NO":"２８２號","E_COORD97":166754.64999999999,"N_COORD97":2540275.1400000001,"ADDRESS":"中華南路二段２８２號","OBJECTID":489781},"geometry":{"x":166754.65000000037,"y":2540275.1400000025}},{"attributes":{"ID":489807,"DIS_CODE":0,"TOWNNAME":"南區","LI":"南華里","LIN":"18鄰","STREET":"中華南路","SECT":"二段","MAREA":" ","LANE":" ","ALLEY":" ","HOUSE_NO":"２８４號","E_COORD97":166750.54000000001,"N_COORD97":2540275.48,"ADDRESS":"中華南路二段２８４號","OBJECTID":489782},"geometry":{"x":166750.54000000097,"y":2540275.4800000023}},{"attributes":{"ID":489808,"DIS_CODE":0,"TOWNNAME":"南區","LI":"南華里","LIN":"18鄰","STREET":"中華南路","SECT":"二段","MAREA":" ","LANE":" ","ALLEY":" ","HOUSE_NO":"２８６號","E_COORD97":166747.31,"N_COORD97":2540276.3999999999,"ADDRESS":"中華南路二段２８６號","OBJECTID":489783},"geometry":{"x":166747.30999999959,"y":2540276.4000000022}},{"attributes":{"ID":489809,"DIS_CODE":0,"TOWNNAME":"南區","LI":"南華里","LIN":"18鄰","STREET":"中華南路","SECT":"二段","MAREA":" ","LANE":" ","ALLEY":" ","HOUSE_NO":"２８８號","E_COORD97":166742.13,"N_COORD97":2540277.1400000001,"ADDRESS":"中華南路二段２８８號","OBJECTID":489784},"geometry":{"x":166742.12999999989,"y":2540277.1400000006}},{"attributes":{"ID":489810,"DIS_CODE":0,"TOWNNAME":"南區","LI":"南華里","LIN":"18鄰","STREET":"中華南路","SECT":"二段","MAREA":" ","LANE":" ","ALLEY":" ","HOUSE_NO":"２９０號","E_COORD97":166737.70000000001,"N_COORD97":2540278.3399999999,"ADDRESS":"中華南路二段２９０號","OBJECTID":489785},"geometry":{"x":166737.70000000112,"y":2540278.3399999999}},{"attributes":{"ID":489811,"DIS_CODE":0,"TOWNNAME":"新營區","LI":"太北里","LIN":"9鄰","STREET":" ","SECT":" ","MAREA":"太子宮","LANE":" ","ALLEY":" ","HOUSE_NO":"７５號之２","E_COORD97":176109.759525,"N_COORD97":2577064.8418399999,"ADDRESS":"太子宮７５號之２","OBJECTID":489786},"geometry":{"x":176109.75952500198,"y":2577064.8418430015}},{"attributes":{"ID":489812,"DIS_CODE":0,"TOWNNAME":"南區","LI":"南華里","LIN":"18鄰","STREET":"中華南路","SECT":"二段","MAREA":" ","LANE":" ","ALLEY":" ","HOUSE_NO":"２９２號","E_COORD97":166732.98000000001,"N_COORD97":2540279.2599999998,"ADDRESS":"中華南路二段２９２號","OBJECTID":489787},"geometry":{"x":166732.98000000138,"y":2540279.2600000035}},{"attributes":{"ID":489813,"DIS_CODE":0,"TOWNNAME":"南區","LI":"南華里","LIN":"18鄰","STREET":"中華南路","SECT":"二段","MAREA":" ","LANE":" ","ALLEY":" ","HOUSE_NO":"２９４號","E_COORD97":166729.92999999999,"N_COORD97":2540280.2799999998,"ADDRESS":"中華南路二段２９４號","OBJECTID":489788},"geometry":{"x":166729.9299999997,"y":2540280.2800000012}},{"attributes":{"ID":489814,"DIS_CODE":0,"TOWNNAME":"南區","LI":"南華里","LIN":"18鄰","STREET":"中華南路","SECT":"二段","MAREA":" ","LANE":" ","ALLEY":" ","HOUSE_NO":"２９６號","E_COORD97":166725.41,"N_COORD97":2540281.29,"ADDRESS":"中華南路二段２９６號","OBJECTID":489789},"geometry":{"x":166725.41000000015,"y":2540281.2899999991}},{"attributes":{"ID":489815,"DIS_CODE":0,"TOWNNAME":"南區","LI":"南華里","LIN":"18鄰","STREET":"中華南路","SECT":"二段","MAREA":" ","LANE":" ","ALLEY":" ","HOUSE_NO":"２９８號","E_COORD97":166721.89000000001,"N_COORD97":2540282.3999999999,"ADDRESS":"中華南路二段２９８號","OBJECTID":489790},"geometry":{"x":166721.89000000153,"y":2540282.4000000041}},{"attributes":{"ID":489816,"DIS_CODE":0,"TOWNNAME":"東區","LI":"崇善里","LIN":"13鄰","STREET":"崇善十街","SECT":" ","MAREA":" ","LANE":" ","ALLEY":" ","HOUSE_NO":"６２號","E_COORD97":171260.20999999999,"N_COORD97":2541339.23,"ADDRESS":"崇善十街６２號","OBJECTID":489791},"geometry":{"x":171260.21000000089,"y":2541339.2300000023}},{"attributes":{"ID":489817,"DIS_CODE":0,"TOWNNAME":"東區","LI":"崇善里","LIN":"13鄰","STREET":"崇善十街","SECT":" ","MAREA":" ","LANE":" ","ALLEY":" ","HOUSE_NO":"１４號","E_COORD97":171133.89999999999,"N_COORD97":2541272.5299999998,"ADDRESS":"崇善十街１４號","OBJECTID":489792},"geometry":{"x":171133.9000000013,"y":2541272.5299999993}},{"attributes":{"ID":489818,"DIS_CODE":0,"TOWNNAME":"東區","LI":"崇善里","LIN":"13鄰","STREET":"崇善十街","SECT":" ","MAREA":" ","LANE":" ","ALLEY":" ","HOUSE_NO":"１６號","E_COORD97":171140.57000000001,"N_COORD97":2541274.8999999999,"ADDRESS":"崇善十街１６號","OBJECTID":489793},"geometry":{"x":171140.5700000003,"y":2541274.9000000004}},{"attributes":{"ID":489819,"DIS_CODE":0,"TOWNNAME":"東區","LI":"崇善里","LIN":"13鄰","STREET":"崇善十街","SECT":" ","MAREA":" ","LANE":" ","ALLEY":" ","HOUSE_NO":"１８號","E_COORD97":171138.89999999999,"N_COORD97":2541266.3399999999,"ADDRESS":"崇善十街１８號","OBJECTID":489794},"geometry":{"x":171138.9000000013,"y":2541266.3400000017}},{"attributes":{"ID":489820,"DIS_CODE":0,"TOWNNAME":"東區","LI":"崇善里","LIN":"13鄰","STREET":"崇善十街","SECT":" ","MAREA":" ","LANE":" ","ALLEY":" ","HOUSE_NO":"１８號之１","E_COORD97":171140.81,"N_COORD97":2541261.8199999998,"ADDRESS":"崇善十街１８號之１","OBJECTID":489795},"geometry":{"x":171140.81000000052,"y":2541261.8200000003}},{"attributes":{"ID":489821,"DIS_CODE":0,"TOWNNAME":"東區","LI":"崇善里","LIN":"13鄰","STREET":"崇善十街","SECT":" ","MAREA":" ","LANE":" ","ALLEY":" ","HOUSE_NO":"１８號之２","E_COORD97":171142.23999999999,"N_COORD97":2541257.3100000001,"ADDRESS":"崇善十街１８號之２","OBJECTID":489796},"geometry":{"x":171142.24000000022,"y":2541257.3100000024}},{"attributes":{"ID":489822,"DIS_CODE":0,"TOWNNAME":"東區","LI":"崇善里","LIN":"13鄰","STREET":"崇善十街","SECT":" ","MAREA":" ","LANE":" ","ALLEY":" ","HOUSE_NO":"１８號之３","E_COORD97":171143.42999999999,"N_COORD97":2541253.2599999998,"ADDRESS":"崇善十街１８號之３","OBJECTID":489797},"geometry":{"x":171143.43000000063,"y":2541253.2600000016}},{"attributes":{"ID":489823,"DIS_CODE":0,"TOWNNAME":"東區","LI":"崇善里","LIN":"13鄰","STREET":"崇善十街","SECT":" ","MAREA":" ","LANE":" ","ALLEY":" ","HOUSE_NO":"１８號之４","E_COORD97":171161.98999999999,"N_COORD97":2541259.4500000002,"ADDRESS":"崇善十街１８號之４","OBJECTID":489798},"geometry":{"x":171161.99000000115,"y":2541259.4499999993}},{"attributes":{"ID":489824,"DIS_CODE":0,"TOWNNAME":"東區","LI":"崇善里","LIN":"13鄰","STREET":"崇善十街","SECT":" ","MAREA":" ","LANE":" ","ALLEY":" ","HOUSE_NO":"１８號之５","E_COORD97":171159.60999999999,"N_COORD97":2541263.0099999998,"ADDRESS":"崇善十街１８號之５","OBJECTID":489799},"geometry":{"x":171159.61000000127,"y":2541263.0099999998}},{"attributes":{"ID":489825,"DIS_CODE":0,"TOWNNAME":"東區","LI":"崇善里","LIN":"13鄰","STREET":"崇善十街","SECT":" ","MAREA":" ","LANE":" ","ALLEY":" ","HOUSE_NO":"１８號之６","E_COORD97":171158.66,"N_COORD97":2541266.8199999998,"ADDRESS":"崇善十街１８號之６","OBJECTID":489800},"geometry":{"x":171158.66000000201,"y":2541266.8200000022}}]}