{"displayFieldName":"TOWNNAME","fieldAliases":{"ID":"ID","DIS_CODE":"DIS_CODE","TOWNNAME":"TOWNNAME","LI":"LI","LIN":"LIN","STREET":"STREET","SECT":"SECT","MAREA":"MAREA","LANE":"LANE","ALLEY":"ALLEY","HOUSE_NO":"HOUSE_NO","E_COORD97":"E_COORD97","N_COORD97":"N_COORD97","ADDRESS":"ADDRESS","OBJECTID":"OBJECTID"},"geometryType":"esriGeometryPoint","spatialReference":{"wkid":102443,"latestWkid":3826},"fields":[{"name":"ID","type":"esriFieldTypeDouble","alias":"ID"},{"name":"DIS_CODE","type":"esriFieldTypeInteger","alias":"DIS_CODE"},{"name":"TOWNNAME","type":"esriFieldTypeString","alias":"TOWNNAME","length":8},{"name":"LI","type":"esriFieldTypeString","alias":"LI","length":8},{"name":"LIN","type":"esriFieldTypeString","alias":"LIN","length":12},{"name":"STREET","type":"esriFieldTypeString","alias":"STREET","length":20},{"name":"SECT","type":"esriFieldTypeString","alias":"SECT","length":8},{"name":"MAREA","type":"esriFieldTypeString","alias":"MAREA","length":12},{"name":"LANE","type":"esriFieldTypeString","alias":"LANE","length":10},{"name":"ALLEY","type":"esriFieldTypeString","alias":"ALLEY","length":10},{"name":"HOUSE_NO","type":"esriFieldTypeString","alias":"HOUSE_NO","length":20},{"name":"E_COORD97","type":"esriFieldTypeDouble","alias":"E_COORD97"},{"name":"N_COORD97","type":"esriFieldTypeDouble","alias":"N_COORD97"},{"name":"ADDRESS","type":"esriFieldTypeString","alias":"ADDRESS","length":50},{"name":"OBJECTID","type":"esriFieldTypeOID","alias":"OBJECTID"}],"features":[{"attributes":{"ID":405225,"DIS_CODE":0,"TOWNNAME":"安平區","LI":"怡平里","LIN":"27鄰","STREET":"永華六街","SECT":" ","MAREA":" ","LANE":"３５巷","ALLEY":" ","HOUSE_NO":"１號六樓之５","E_COORD97":165582.73000000001,"N_COORD97":2543618.5699999998,"ADDRESS":"永華六街３５巷１號六樓之５","OBJECTID":405201},"geometry":{"x":165582.73000000045,"y":2543618.5700000022}},{"attributes":{"ID":405226,"DIS_CODE":0,"TOWNNAME":"安平區","LI":"怡平里","LIN":"27鄰","STREET":"永華六街","SECT":" ","MAREA":" ","LANE":"３５巷","ALLEY":" ","HOUSE_NO":"１號六樓之６","E_COORD97":165582.73000000001,"N_COORD97":2543618.5699999998,"ADDRESS":"永華六街３５巷１號六樓之６","OBJECTID":405202},"geometry":{"x":165582.73000000045,"y":2543618.5700000022}},{"attributes":{"ID":405227,"DIS_CODE":0,"TOWNNAME":"安平區","LI":"怡平里","LIN":"27鄰","STREET":"永華六街","SECT":" ","MAREA":" ","LANE":"３５巷","ALLEY":" ","HOUSE_NO":"１號四樓之１","E_COORD97":165582.73000000001,"N_COORD97":2543618.5699999998,"ADDRESS":"永華六街３５巷１號四樓之１","OBJECTID":405203},"geometry":{"x":165582.73000000045,"y":2543618.5700000022}},{"attributes":{"ID":405228,"DIS_CODE":0,"TOWNNAME":"安平區","LI":"怡平里","LIN":"27鄰","STREET":"永華六街","SECT":" ","MAREA":" ","LANE":"３５巷","ALLEY":" ","HOUSE_NO":"１號四樓之２","E_COORD97":165582.73000000001,"N_COORD97":2543618.5699999998,"ADDRESS":"永華六街３５巷１號四樓之２","OBJECTID":405204},"geometry":{"x":165582.73000000045,"y":2543618.5700000022}},{"attributes":{"ID":405229,"DIS_CODE":0,"TOWNNAME":"安平區","LI":"怡平里","LIN":"27鄰","STREET":"永華六街","SECT":" ","MAREA":" ","LANE":"３５巷","ALLEY":" ","HOUSE_NO":"１號四樓之３","E_COORD97":165582.73000000001,"N_COORD97":2543618.5699999998,"ADDRESS":"永華六街３５巷１號四樓之３","OBJECTID":405205},"geometry":{"x":165582.73000000045,"y":2543618.5700000022}},{"attributes":{"ID":405230,"DIS_CODE":0,"TOWNNAME":"安平區","LI":"怡平里","LIN":"27鄰","STREET":"永華六街","SECT":" ","MAREA":" ","LANE":"３５巷","ALLEY":" ","HOUSE_NO":"１號四樓之５","E_COORD97":165582.73000000001,"N_COORD97":2543618.5699999998,"ADDRESS":"永華六街３５巷１號四樓之５","OBJECTID":405206},"geometry":{"x":165582.73000000045,"y":2543618.5700000022}},{"attributes":{"ID":405231,"DIS_CODE":0,"TOWNNAME":"安平區","LI":"怡平里","LIN":"27鄰","STREET":"永華六街","SECT":" ","MAREA":" ","LANE":"３５巷","ALLEY":" ","HOUSE_NO":"１號四樓之６","E_COORD97":165582.73000000001,"N_COORD97":2543618.5699999998,"ADDRESS":"永華六街３５巷１號四樓之６","OBJECTID":405207},"geometry":{"x":165582.73000000045,"y":2543618.5700000022}},{"attributes":{"ID":405232,"DIS_CODE":0,"TOWNNAME":"安平區","LI":"怡平里","LIN":"27鄰","STREET":"永華六街","SECT":" ","MAREA":" ","LANE":"３５巷","ALLEY":" ","HOUSE_NO":"１號四樓之７","E_COORD97":165582.73000000001,"N_COORD97":2543618.5699999998,"ADDRESS":"永華六街３５巷１號四樓之７","OBJECTID":405208},"geometry":{"x":165582.73000000045,"y":2543618.5700000022}},{"attributes":{"ID":405233,"DIS_CODE":0,"TOWNNAME":"新營區","LI":"新東里","LIN":"27鄰","STREET":"東光街","SECT":" ","MAREA":" ","LANE":"４０巷","ALLEY":" ","HOUSE_NO":"４５號四樓","E_COORD97":180704.92999999999,"N_COORD97":2579623.71,"ADDRESS":"東光街４０巷４５號四樓","OBJECTID":405209},"geometry":{"x":180704.9299999997,"y":2579623.7100000028}},{"attributes":{"ID":405234,"DIS_CODE":0,"TOWNNAME":"新營區","LI":"新東里","LIN":"27鄰","STREET":"東光街","SECT":" ","MAREA":" ","LANE":"４０巷","ALLEY":" ","HOUSE_NO":"４７號四樓","E_COORD97":180704.92999999999,"N_COORD97":2579623.71,"ADDRESS":"東光街４０巷４７號四樓","OBJECTID":405210},"geometry":{"x":180704.9299999997,"y":2579623.7100000028}},{"attributes":{"ID":405235,"DIS_CODE":0,"TOWNNAME":"新營區","LI":"新東里","LIN":"27鄰","STREET":"東光街","SECT":" ","MAREA":" ","LANE":"４０巷","ALLEY":" ","HOUSE_NO":"４７號六樓","E_COORD97":180704.92999999999,"N_COORD97":2579623.71,"ADDRESS":"東光街４０巷４７號六樓","OBJECTID":405211},"geometry":{"x":180704.9299999997,"y":2579623.7100000028}},{"attributes":{"ID":405236,"DIS_CODE":0,"TOWNNAME":"永康區","LI":"中興里","LIN":"27鄰","STREET":"中興街","SECT":" ","MAREA":" ","LANE":"６９巷","ALLEY":" ","HOUSE_NO":"２號","E_COORD97":172054.20999999999,"N_COORD97":2545300,"ADDRESS":"中興街６９巷２號","OBJECTID":405212},"geometry":{"x":172054.20999999996,"y":2545300.0000000019}},{"attributes":{"ID":405237,"DIS_CODE":0,"TOWNNAME":"新營區","LI":"新東里","LIN":"27鄰","STREET":"東光街","SECT":" ","MAREA":" ","LANE":"４０巷","ALLEY":" ","HOUSE_NO":"４７號二樓","E_COORD97":180704.92999999999,"N_COORD97":2579623.71,"ADDRESS":"東光街４０巷４７號二樓","OBJECTID":405213},"geometry":{"x":180704.9299999997,"y":2579623.7100000028}},{"attributes":{"ID":405238,"DIS_CODE":0,"TOWNNAME":"新營區","LI":"新東里","LIN":"27鄰","STREET":"東光街","SECT":" ","MAREA":" ","LANE":"４０巷","ALLEY":" ","HOUSE_NO":"４５號六樓","E_COORD97":180704.92999999999,"N_COORD97":2579623.71,"ADDRESS":"東光街４０巷４５號六樓","OBJECTID":405214},"geometry":{"x":180704.9299999997,"y":2579623.7100000028}},{"attributes":{"ID":405239,"DIS_CODE":0,"TOWNNAME":"新營區","LI":"新東里","LIN":"27鄰","STREET":"東光街","SECT":" ","MAREA":" ","LANE":"４０巷","ALLEY":" ","HOUSE_NO":"４３號五樓","E_COORD97":180706.82999999999,"N_COORD97":2579594.9100000001,"ADDRESS":"東光街４０巷４３號五樓","OBJECTID":405215},"geometry":{"x":180706.83000000101,"y":2579594.910000002}},{"attributes":{"ID":405240,"DIS_CODE":0,"TOWNNAME":"新營區","LI":"大宏里","LIN":"27鄰","STREET":"開元路","SECT":" ","MAREA":" ","LANE":"５９巷","ALLEY":" ","HOUSE_NO":"４０之１號十二樓","E_COORD97":180901.31,"N_COORD97":2578823.27,"ADDRESS":"開元路５９巷４０之１號十二樓","OBJECTID":405216},"geometry":{"x":180901.31000000052,"y":2578823.2699999996}},{"attributes":{"ID":405241,"DIS_CODE":0,"TOWNNAME":"新營區","LI":"大宏里","LIN":"27鄰","STREET":"開元路","SECT":" ","MAREA":" ","LANE":"５９巷","ALLEY":" ","HOUSE_NO":"４０之１號八樓","E_COORD97":180900.06,"N_COORD97":2578823.27,"ADDRESS":"開元路５９巷４０之１號八樓","OBJECTID":405217},"geometry":{"x":180900.06000000052,"y":2578823.2699999996}},{"attributes":{"ID":405242,"DIS_CODE":0,"TOWNNAME":"新營區","LI":"新東里","LIN":"27鄰","STREET":"東光街","SECT":" ","MAREA":" ","LANE":"４０巷","ALLEY":" ","HOUSE_NO":"４３號三樓","E_COORD97":180706.82999999999,"N_COORD97":2579594.9100000001,"ADDRESS":"東光街４０巷４３號三樓","OBJECTID":405218},"geometry":{"x":180706.83000000101,"y":2579594.910000002}},{"attributes":{"ID":405243,"DIS_CODE":0,"TOWNNAME":"南區","LI":"金華里","LIN":"27鄰","STREET":"惠南街","SECT":" ","MAREA":" ","LANE":"１４７巷","ALLEY":" ","HOUSE_NO":"１６號三樓","E_COORD97":166609.25,"N_COORD97":2542468.2599999998,"ADDRESS":"惠南街１４７巷１６號三樓","OBJECTID":405219},"geometry":{"x":166609.25,"y":2542468.2599999998}},{"attributes":{"ID":405244,"DIS_CODE":0,"TOWNNAME":"南區","LI":"金華里","LIN":"27鄰","STREET":"惠南街","SECT":" ","MAREA":" ","LANE":"１４７巷","ALLEY":" ","HOUSE_NO":"１６號五樓","E_COORD97":166609.25,"N_COORD97":2542468.2599999998,"ADDRESS":"惠南街１４７巷１６號五樓","OBJECTID":405220},"geometry":{"x":166609.25,"y":2542468.2599999998}},{"attributes":{"ID":405245,"DIS_CODE":0,"TOWNNAME":"南區","LI":"金華里","LIN":"27鄰","STREET":"惠南街","SECT":" ","MAREA":" ","LANE":"１４７巷","ALLEY":" ","HOUSE_NO":"１６號四樓","E_COORD97":166609.25,"N_COORD97":2542468.2599999998,"ADDRESS":"惠南街１４７巷１６號四樓","OBJECTID":405221},"geometry":{"x":166609.25,"y":2542468.2599999998}},{"attributes":{"ID":405246,"DIS_CODE":0,"TOWNNAME":"南區","LI":"金華里","LIN":"27鄰","STREET":"惠南街","SECT":" ","MAREA":" ","LANE":"１４７巷","ALLEY":" ","HOUSE_NO":"１８號二樓","E_COORD97":166597.29000000001,"N_COORD97":2542469.4500000002,"ADDRESS":"惠南街１４７巷１８號二樓","OBJECTID":405222},"geometry":{"x":166597.29000000004,"y":2542469.4499999993}},{"attributes":{"ID":405247,"DIS_CODE":0,"TOWNNAME":"南區","LI":"金華里","LIN":"27鄰","STREET":"惠南街","SECT":" ","MAREA":" ","LANE":"１４７巷","ALLEY":" ","HOUSE_NO":"１８號三樓","E_COORD97":166597.29000000001,"N_COORD97":2542469.4500000002,"ADDRESS":"惠南街１４７巷１８號三樓","OBJECTID":405223},"geometry":{"x":166597.29000000004,"y":2542469.4499999993}},{"attributes":{"ID":405248,"DIS_CODE":0,"TOWNNAME":"南區","LI":"金華里","LIN":"27鄰","STREET":"惠南街","SECT":" ","MAREA":" ","LANE":"１４７巷","ALLEY":" ","HOUSE_NO":"１８號五樓","E_COORD97":166597.29000000001,"N_COORD97":2542469.4500000002,"ADDRESS":"惠南街１４７巷１８號五樓","OBJECTID":405224},"geometry":{"x":166597.29000000004,"y":2542469.4499999993}},{"attributes":{"ID":405249,"DIS_CODE":0,"TOWNNAME":"南區","LI":"金華里","LIN":"27鄰","STREET":"惠南街","SECT":" ","MAREA":" ","LANE":"１４７巷","ALLEY":" ","HOUSE_NO":"１８號四樓","E_COORD97":166597.29000000001,"N_COORD97":2542469.4500000002,"ADDRESS":"惠南街１４７巷１８號四樓","OBJECTID":405225},"geometry":{"x":166597.29000000004,"y":2542469.4499999993}},{"attributes":{"ID":405250,"DIS_CODE":0,"TOWNNAME":"佳里區","LI":"安西里","LIN":"27鄰","STREET":"安西路","SECT":" ","MAREA":" ","LANE":"３４９巷","ALLEY":" ","HOUSE_NO":"６號","E_COORD97":165244.54999999999,"N_COORD97":2563098.6499999999,"ADDRESS":"安西路３４９巷６號","OBJECTID":405226},"geometry":{"x":165244.55000000168,"y":2563098.6500000022}},{"attributes":{"ID":405251,"DIS_CODE":0,"TOWNNAME":"南區","LI":"金華里","LIN":"27鄰","STREET":"健康路","SECT":"二段","MAREA":" ","LANE":"４０１巷","ALLEY":" ","HOUSE_NO":"１１號二樓","E_COORD97":166605.60999999999,"N_COORD97":2542430.73,"ADDRESS":"健康路二段４０１巷１１號二樓","OBJECTID":405227},"geometry":{"x":166605.61000000034,"y":2542430.7300000023}},{"attributes":{"ID":405252,"DIS_CODE":0,"TOWNNAME":"南區","LI":"金華里","LIN":"27鄰","STREET":"健康路","SECT":"二段","MAREA":" ","LANE":"４０１巷","ALLEY":" ","HOUSE_NO":"１１號三樓","E_COORD97":166605.60999999999,"N_COORD97":2542430.73,"ADDRESS":"健康路二段４０１巷１１號三樓","OBJECTID":405228},"geometry":{"x":166605.61000000034,"y":2542430.7300000023}},{"attributes":{"ID":405253,"DIS_CODE":0,"TOWNNAME":"南區","LI":"金華里","LIN":"27鄰","STREET":"健康路","SECT":"二段","MAREA":" ","LANE":"４０１巷","ALLEY":" ","HOUSE_NO":"１１號五樓","E_COORD97":166605.60999999999,"N_COORD97":2542430.73,"ADDRESS":"健康路二段４０１巷１１號五樓","OBJECTID":405229},"geometry":{"x":166605.61000000034,"y":2542430.7300000023}},{"attributes":{"ID":405254,"DIS_CODE":0,"TOWNNAME":"南區","LI":"金華里","LIN":"27鄰","STREET":"健康路","SECT":"二段","MAREA":" ","LANE":"４０１巷","ALLEY":" ","HOUSE_NO":"１１號四樓","E_COORD97":166605.60999999999,"N_COORD97":2542430.73,"ADDRESS":"健康路二段４０１巷１１號四樓","OBJECTID":405230},"geometry":{"x":166605.61000000034,"y":2542430.7300000023}},{"attributes":{"ID":405255,"DIS_CODE":0,"TOWNNAME":"南區","LI":"金華里","LIN":"27鄰","STREET":"健康路","SECT":"二段","MAREA":" ","LANE":"４０１巷","ALLEY":" ","HOUSE_NO":"１３號二樓","E_COORD97":166605.79000000001,"N_COORD97":2542422.1400000001,"ADDRESS":"健康路二段４０１巷１３號二樓","OBJECTID":405231},"geometry":{"x":166605.79000000004,"y":2542422.1400000006}},{"attributes":{"ID":405256,"DIS_CODE":0,"TOWNNAME":"南區","LI":"金華里","LIN":"27鄰","STREET":"健康路","SECT":"二段","MAREA":" ","LANE":"４０１巷","ALLEY":" ","HOUSE_NO":"１３號三樓","E_COORD97":166605.79000000001,"N_COORD97":2542422.1400000001,"ADDRESS":"健康路二段４０１巷１３號三樓","OBJECTID":405232},"geometry":{"x":166605.79000000004,"y":2542422.1400000006}},{"attributes":{"ID":405257,"DIS_CODE":0,"TOWNNAME":"南區","LI":"金華里","LIN":"27鄰","STREET":"健康路","SECT":"二段","MAREA":" ","LANE":"４０１巷","ALLEY":" ","HOUSE_NO":"１３號五樓","E_COORD97":166605.79000000001,"N_COORD97":2542422.1400000001,"ADDRESS":"健康路二段４０１巷１３號五樓","OBJECTID":405233},"geometry":{"x":166605.79000000004,"y":2542422.1400000006}},{"attributes":{"ID":405258,"DIS_CODE":0,"TOWNNAME":"南區","LI":"金華里","LIN":"27鄰","STREET":"健康路","SECT":"二段","MAREA":" ","LANE":"４０１巷","ALLEY":" ","HOUSE_NO":"１３號四樓","E_COORD97":166605.79000000001,"N_COORD97":2542422.1400000001,"ADDRESS":"健康路二段４０１巷１３號四樓","OBJECTID":405234},"geometry":{"x":166605.79000000004,"y":2542422.1400000006}},{"attributes":{"ID":405259,"DIS_CODE":0,"TOWNNAME":"南區","LI":"金華里","LIN":"27鄰","STREET":"健康路","SECT":"二段","MAREA":" ","LANE":"４０１巷","ALLEY":" ","HOUSE_NO":"１５號五樓","E_COORD97":166607.10000000001,"N_COORD97":2542413.9199999999,"ADDRESS":"健康路二段４０１巷１５號五樓","OBJECTID":405235},"geometry":{"x":166607.10000000056,"y":2542413.9199999999}},{"attributes":{"ID":405260,"DIS_CODE":0,"TOWNNAME":"南區","LI":"金華里","LIN":"27鄰","STREET":"健康路","SECT":"二段","MAREA":" ","LANE":"４０１巷","ALLEY":" ","HOUSE_NO":"１５號四樓","E_COORD97":166607.10000000001,"N_COORD97":2542413.9199999999,"ADDRESS":"健康路二段４０１巷１５號四樓","OBJECTID":405236},"geometry":{"x":166607.10000000056,"y":2542413.9199999999}},{"attributes":{"ID":405261,"DIS_CODE":0,"TOWNNAME":"南區","LI":"金華里","LIN":"27鄰","STREET":"健康路","SECT":"二段","MAREA":" ","LANE":"４０１巷","ALLEY":" ","HOUSE_NO":"１７號二樓","E_COORD97":166607.29000000001,"N_COORD97":2542403.6400000001,"ADDRESS":"健康路二段４０１巷１７號二樓","OBJECTID":405237},"geometry":{"x":166607.29000000004,"y":2542403.6400000025}},{"attributes":{"ID":405262,"DIS_CODE":0,"TOWNNAME":"南區","LI":"金華里","LIN":"27鄰","STREET":"健康路","SECT":"二段","MAREA":" ","LANE":"４０１巷","ALLEY":" ","HOUSE_NO":"１７號三樓","E_COORD97":166607.29000000001,"N_COORD97":2542403.6400000001,"ADDRESS":"健康路二段４０１巷１７號三樓","OBJECTID":405238},"geometry":{"x":166607.29000000004,"y":2542403.6400000025}},{"attributes":{"ID":405263,"DIS_CODE":0,"TOWNNAME":"南區","LI":"金華里","LIN":"27鄰","STREET":"健康路","SECT":"二段","MAREA":" ","LANE":"４０１巷","ALLEY":" ","HOUSE_NO":"１７號五樓","E_COORD97":166607.29000000001,"N_COORD97":2542403.6400000001,"ADDRESS":"健康路二段４０１巷１７號五樓","OBJECTID":405239},"geometry":{"x":166607.29000000004,"y":2542403.6400000025}},{"attributes":{"ID":405264,"DIS_CODE":0,"TOWNNAME":"南區","LI":"金華里","LIN":"27鄰","STREET":"健康路","SECT":"二段","MAREA":" ","LANE":"４０１巷","ALLEY":" ","HOUSE_NO":"１７號四樓","E_COORD97":166607.29000000001,"N_COORD97":2542403.6400000001,"ADDRESS":"健康路二段４０１巷１７號四樓","OBJECTID":405240},"geometry":{"x":166607.29000000004,"y":2542403.6400000025}},{"attributes":{"ID":405265,"DIS_CODE":0,"TOWNNAME":"南區","LI":"金華里","LIN":"27鄰","STREET":"健康路","SECT":"二段","MAREA":" ","LANE":"４０１巷","ALLEY":" ","HOUSE_NO":"１號二樓","E_COORD97":166604.98999999999,"N_COORD97":2542495,"ADDRESS":"健康路二段４０１巷１號二樓","OBJECTID":405241},"geometry":{"x":166604.99000000209,"y":2542494.9999999981}},{"attributes":{"ID":405266,"DIS_CODE":0,"TOWNNAME":"南區","LI":"金華里","LIN":"27鄰","STREET":"健康路","SECT":"二段","MAREA":" ","LANE":"４０１巷","ALLEY":" ","HOUSE_NO":"１號三樓","E_COORD97":166604.98999999999,"N_COORD97":2542495,"ADDRESS":"健康路二段４０１巷１號三樓","OBJECTID":405242},"geometry":{"x":166604.99000000209,"y":2542494.9999999981}},{"attributes":{"ID":405267,"DIS_CODE":0,"TOWNNAME":"南區","LI":"文華里","LIN":"27鄰","STREET":"南樂街","SECT":" ","MAREA":" ","LANE":"１０３巷","ALLEY":" ","HOUSE_NO":"９號","E_COORD97":166643.95000000001,"N_COORD97":2542952.4100000001,"ADDRESS":"南樂街１０３巷９號","OBJECTID":405243},"geometry":{"x":166643.95000000019,"y":2542952.4100000001}},{"attributes":{"ID":405268,"DIS_CODE":0,"TOWNNAME":"南區","LI":"金華里","LIN":"27鄰","STREET":"健康路","SECT":"二段","MAREA":" ","LANE":"４０１巷","ALLEY":" ","HOUSE_NO":"１號五樓","E_COORD97":166604.98999999999,"N_COORD97":2542495,"ADDRESS":"健康路二段４０１巷１號五樓","OBJECTID":405244},"geometry":{"x":166604.99000000209,"y":2542494.9999999981}},{"attributes":{"ID":405269,"DIS_CODE":0,"TOWNNAME":"南區","LI":"金華里","LIN":"27鄰","STREET":"健康路","SECT":"二段","MAREA":" ","LANE":"４０１巷","ALLEY":" ","HOUSE_NO":"１號四樓","E_COORD97":166604.98999999999,"N_COORD97":2542495,"ADDRESS":"健康路二段４０１巷１號四樓","OBJECTID":405245},"geometry":{"x":166604.99000000209,"y":2542494.9999999981}},{"attributes":{"ID":405270,"DIS_CODE":0,"TOWNNAME":"南區","LI":"金華里","LIN":"27鄰","STREET":"健康路","SECT":"二段","MAREA":" ","LANE":"４０１巷","ALLEY":" ","HOUSE_NO":"３號二樓","E_COORD97":166602.75,"N_COORD97":2542486.96,"ADDRESS":"健康路二段４０１巷３號二樓","OBJECTID":405246},"geometry":{"x":166602.74999999907,"y":2542486.9600000028}},{"attributes":{"ID":405271,"DIS_CODE":0,"TOWNNAME":"南區","LI":"金華里","LIN":"27鄰","STREET":"健康路","SECT":"二段","MAREA":" ","LANE":"４０１巷","ALLEY":" ","HOUSE_NO":"３號三樓","E_COORD97":166602.75,"N_COORD97":2542486.96,"ADDRESS":"健康路二段４０１巷３號三樓","OBJECTID":405247},"geometry":{"x":166602.74999999907,"y":2542486.9600000028}},{"attributes":{"ID":405272,"DIS_CODE":0,"TOWNNAME":"南區","LI":"金華里","LIN":"27鄰","STREET":"健康路","SECT":"二段","MAREA":" ","LANE":"４０１巷","ALLEY":" ","HOUSE_NO":"３號五樓","E_COORD97":166602.75,"N_COORD97":2542486.96,"ADDRESS":"健康路二段４０１巷３號五樓","OBJECTID":405248},"geometry":{"x":166602.74999999907,"y":2542486.9600000028}},{"attributes":{"ID":405273,"DIS_CODE":0,"TOWNNAME":"南區","LI":"金華里","LIN":"27鄰","STREET":"健康路","SECT":"二段","MAREA":" ","LANE":"４０１巷","ALLEY":" ","HOUSE_NO":"３號四樓","E_COORD97":166602.75,"N_COORD97":2542486.96,"ADDRESS":"健康路二段４０１巷３號四樓","OBJECTID":405249},"geometry":{"x":166602.74999999907,"y":2542486.9600000028}},{"attributes":{"ID":405274,"DIS_CODE":0,"TOWNNAME":"南區","LI":"金華里","LIN":"27鄰","STREET":"健康路","SECT":"二段","MAREA":" ","LANE":"４０１巷","ALLEY":" ","HOUSE_NO":"５號二樓","E_COORD97":166601.06,"N_COORD97":2542480.7999999998,"ADDRESS":"健康路二段４０１巷５號二樓","OBJECTID":405250},"geometry":{"x":166601.06000000052,"y":2542480.8000000026}},{"attributes":{"ID":405275,"DIS_CODE":0,"TOWNNAME":"南區","LI":"金華里","LIN":"27鄰","STREET":"健康路","SECT":"二段","MAREA":" ","LANE":"４０１巷","ALLEY":" ","HOUSE_NO":"５號三樓","E_COORD97":166601.06,"N_COORD97":2542480.7999999998,"ADDRESS":"健康路二段４０１巷５號三樓","OBJECTID":405251},"geometry":{"x":166601.06000000052,"y":2542480.8000000026}},{"attributes":{"ID":405276,"DIS_CODE":0,"TOWNNAME":"南區","LI":"金華里","LIN":"27鄰","STREET":"健康路","SECT":"二段","MAREA":" ","LANE":"４０１巷","ALLEY":" ","HOUSE_NO":"５號五樓","E_COORD97":166601.06,"N_COORD97":2542480.7999999998,"ADDRESS":"健康路二段４０１巷５號五樓","OBJECTID":405252},"geometry":{"x":166601.06000000052,"y":2542480.8000000026}},{"attributes":{"ID":405277,"DIS_CODE":0,"TOWNNAME":"南區","LI":"金華里","LIN":"27鄰","STREET":"健康路","SECT":"二段","MAREA":" ","LANE":"４０１巷","ALLEY":" ","HOUSE_NO":"５號四樓","E_COORD97":166601.06,"N_COORD97":2542480.7999999998,"ADDRESS":"健康路二段４０１巷５號四樓","OBJECTID":405253},"geometry":{"x":166601.06000000052,"y":2542480.8000000026}},{"attributes":{"ID":405278,"DIS_CODE":0,"TOWNNAME":"南區","LI":"金華里","LIN":"27鄰","STREET":"健康路","SECT":"二段","MAREA":" ","LANE":"４０１巷","ALLEY":" ","HOUSE_NO":"７號二樓","E_COORD97":166602.23999999999,"N_COORD97":2542446.98,"ADDRESS":"健康路二段４０１巷７號二樓","OBJECTID":405254},"geometry":{"x":166602.24000000115,"y":2542446.9800000004}},{"attributes":{"ID":405279,"DIS_CODE":0,"TOWNNAME":"南區","LI":"金華里","LIN":"27鄰","STREET":"健康路","SECT":"二段","MAREA":" ","LANE":"４０１巷","ALLEY":" ","HOUSE_NO":"７號三樓","E_COORD97":166602.23999999999,"N_COORD97":2542446.98,"ADDRESS":"健康路二段４０１巷７號三樓","OBJECTID":405255},"geometry":{"x":166602.24000000115,"y":2542446.9800000004}},{"attributes":{"ID":405280,"DIS_CODE":0,"TOWNNAME":"南區","LI":"金華里","LIN":"27鄰","STREET":"健康路","SECT":"二段","MAREA":" ","LANE":"４０１巷","ALLEY":" ","HOUSE_NO":"７號五樓","E_COORD97":166602.23999999999,"N_COORD97":2542446.98,"ADDRESS":"健康路二段４０１巷７號五樓","OBJECTID":405256},"geometry":{"x":166602.24000000115,"y":2542446.9800000004}},{"attributes":{"ID":405281,"DIS_CODE":0,"TOWNNAME":"南區","LI":"金華里","LIN":"27鄰","STREET":"健康路","SECT":"二段","MAREA":" ","LANE":"４０１巷","ALLEY":" ","HOUSE_NO":"７號四樓","E_COORD97":166602.23999999999,"N_COORD97":2542446.98,"ADDRESS":"健康路二段４０１巷７號四樓","OBJECTID":405257},"geometry":{"x":166602.24000000115,"y":2542446.9800000004}},{"attributes":{"ID":405282,"DIS_CODE":0,"TOWNNAME":"南區","LI":"金華里","LIN":"27鄰","STREET":"健康路","SECT":"二段","MAREA":" ","LANE":"４０１巷","ALLEY":" ","HOUSE_NO":"９號二樓","E_COORD97":166604.10999999999,"N_COORD97":2542436.71,"ADDRESS":"健康路二段４０１巷９號二樓","OBJECTID":405258},"geometry":{"x":166604.1100000022,"y":2542436.7100000009}},{"attributes":{"ID":405283,"DIS_CODE":0,"TOWNNAME":"南區","LI":"金華里","LIN":"27鄰","STREET":"健康路","SECT":"二段","MAREA":" ","LANE":"４０１巷","ALLEY":" ","HOUSE_NO":"９號三樓","E_COORD97":166604.10999999999,"N_COORD97":2542436.71,"ADDRESS":"健康路二段４０１巷９號三樓","OBJECTID":405259},"geometry":{"x":166604.1100000022,"y":2542436.7100000009}},{"attributes":{"ID":405284,"DIS_CODE":0,"TOWNNAME":"南區","LI":"金華里","LIN":"27鄰","STREET":"健康路","SECT":"二段","MAREA":" ","LANE":"４０１巷","ALLEY":" ","HOUSE_NO":"９號五樓","E_COORD97":166604.10999999999,"N_COORD97":2542436.71,"ADDRESS":"健康路二段４０１巷９號五樓","OBJECTID":405260},"geometry":{"x":166604.1100000022,"y":2542436.7100000009}},{"attributes":{"ID":405285,"DIS_CODE":0,"TOWNNAME":"南區","LI":"金華里","LIN":"27鄰","STREET":"健康路","SECT":"二段","MAREA":" ","LANE":"４０１巷","ALLEY":" ","HOUSE_NO":"９號四樓","E_COORD97":166604.10999999999,"N_COORD97":2542436.71,"ADDRESS":"健康路二段４０１巷９號四樓","OBJECTID":405261},"geometry":{"x":166604.1100000022,"y":2542436.7100000009}},{"attributes":{"ID":405286,"DIS_CODE":0,"TOWNNAME":"新營區","LI":"大宏里","LIN":"27鄰","STREET":"開元路","SECT":" ","MAREA":" ","LANE":"５９巷","ALLEY":" ","HOUSE_NO":"４０之２號四樓","E_COORD97":180900.06,"N_COORD97":2578823.27,"ADDRESS":"開元路５９巷４０之２號四樓","OBJECTID":405262},"geometry":{"x":180900.06000000052,"y":2578823.2699999996}},{"attributes":{"ID":405287,"DIS_CODE":0,"TOWNNAME":"新營區","LI":"南紙里","LIN":"27鄰","STREET":"復興路","SECT":" ","MAREA":" ","LANE":"６９３巷","ALLEY":" ","HOUSE_NO":"６號三樓","E_COORD97":177894.63,"N_COORD97":2578280.4900000002,"ADDRESS":"復興路６９３巷６號三樓","OBJECTID":405263},"geometry":{"x":177894.62999999989,"y":2578280.4900000002}},{"attributes":{"ID":405288,"DIS_CODE":0,"TOWNNAME":"新營區","LI":"南紙里","LIN":"27鄰","STREET":"復興路","SECT":" ","MAREA":" ","LANE":"６９３巷","ALLEY":" ","HOUSE_NO":"６號二樓之６","E_COORD97":177896.87,"N_COORD97":2578280.5299999998,"ADDRESS":"復興路６９３巷６號二樓之６","OBJECTID":405264},"geometry":{"x":177896.87000000011,"y":2578280.5300000012}},{"attributes":{"ID":405289,"DIS_CODE":0,"TOWNNAME":"新營區","LI":"大宏里","LIN":"27鄰","STREET":"開元路","SECT":" ","MAREA":" ","LANE":"５９巷","ALLEY":" ","HOUSE_NO":"４０之１號九樓","E_COORD97":180900.06,"N_COORD97":2578823.27,"ADDRESS":"開元路５９巷４０之１號九樓","OBJECTID":405265},"geometry":{"x":180900.06000000052,"y":2578823.2699999996}},{"attributes":{"ID":405290,"DIS_CODE":0,"TOWNNAME":"新營區","LI":"南紙里","LIN":"27鄰","STREET":"復興路","SECT":" ","MAREA":" ","LANE":"６９３巷","ALLEY":" ","HOUSE_NO":"６號二樓之７","E_COORD97":177896.84,"N_COORD97":2578280.5299999998,"ADDRESS":"復興路６９３巷６號二樓之７","OBJECTID":405266},"geometry":{"x":177896.83999999985,"y":2578280.5300000012}},{"attributes":{"ID":405291,"DIS_CODE":0,"TOWNNAME":"新營區","LI":"南紙里","LIN":"27鄰","STREET":"復興路","SECT":" ","MAREA":" ","LANE":"６９３巷","ALLEY":" ","HOUSE_NO":"６號二樓之９","E_COORD97":177896.84,"N_COORD97":2578280.5299999998,"ADDRESS":"復興路６９３巷６號二樓之９","OBJECTID":405267},"geometry":{"x":177896.83999999985,"y":2578280.5300000012}},{"attributes":{"ID":405292,"DIS_CODE":0,"TOWNNAME":"新營區","LI":"南紙里","LIN":"27鄰","STREET":"復興路","SECT":" ","MAREA":" ","LANE":"６９３巷","ALLEY":" ","HOUSE_NO":"６號二樓之１１","E_COORD97":177898.01000000001,"N_COORD97":2578280.5299999998,"ADDRESS":"復興路６９３巷６號二樓之１１","OBJECTID":405268},"geometry":{"x":177898.01000000071,"y":2578280.5300000012}},{"attributes":{"ID":405293,"DIS_CODE":0,"TOWNNAME":"新營區","LI":"南紙里","LIN":"27鄰","STREET":"復興路","SECT":" ","MAREA":" ","LANE":"６９３巷","ALLEY":" ","HOUSE_NO":"６號二樓之５","E_COORD97":177896.92000000001,"N_COORD97":2578280.5299999998,"ADDRESS":"復興路６９３巷６號二樓之５","OBJECTID":405269},"geometry":{"x":177896.92000000086,"y":2578280.5300000012}},{"attributes":{"ID":405294,"DIS_CODE":0,"TOWNNAME":"新營區","LI":"南紙里","LIN":"27鄰","STREET":"復興路","SECT":" ","MAREA":" ","LANE":"６９３巷","ALLEY":" ","HOUSE_NO":"６號二樓之１","E_COORD97":177896.76000000001,"N_COORD97":2578280.5299999998,"ADDRESS":"復興路６９３巷６號二樓之１","OBJECTID":405270},"geometry":{"x":177896.76000000071,"y":2578280.5300000012}},{"attributes":{"ID":405295,"DIS_CODE":0,"TOWNNAME":"永康區","LI":"正強里","LIN":"27鄰","STREET":"中正路","SECT":" ","MAREA":" ","LANE":"２０９巷","ALLEY":" ","HOUSE_NO":"１１號","E_COORD97":173141.92999999999,"N_COORD97":2547886.5,"ADDRESS":"中正路２０９巷１１號","OBJECTID":405271},"geometry":{"x":173141.93000000063,"y":2547886.5000000019}},{"attributes":{"ID":405296,"DIS_CODE":0,"TOWNNAME":"永康區","LI":"中興里","LIN":"18鄰","STREET":"中華路","SECT":" ","MAREA":" ","LANE":"２８６巷","ALLEY":" ","HOUSE_NO":"４５號","E_COORD97":171669.28,"N_COORD97":2545356.9900000002,"ADDRESS":"中華路２８６巷４５號","OBJECTID":405272},"geometry":{"x":171669.28000000026,"y":2545356.9900000039}},{"attributes":{"ID":405297,"DIS_CODE":0,"TOWNNAME":"永康區","LI":"五王里","LIN":"32鄰","STREET":"中華路","SECT":" ","MAREA":" ","LANE":"５７８巷","ALLEY":" ","HOUSE_NO":"２號","E_COORD97":171280.23999999999,"N_COORD97":2545927,"ADDRESS":"中華路５７８巷２號","OBJECTID":405273},"geometry":{"x":171280.24000000209,"y":2545927.0000000019}},{"attributes":{"ID":405298,"DIS_CODE":0,"TOWNNAME":"永康區","LI":"大橋里","LIN":"8鄰","STREET":"大橋三街","SECT":" ","MAREA":" ","LANE":"１９９巷","ALLEY":" ","HOUSE_NO":"８號","E_COORD97":170849.95000000001,"N_COORD97":2546821.25,"ADDRESS":"大橋三街１９９巷８號","OBJECTID":405274},"geometry":{"x":170849.95000000205,"y":2546821.2500000019}},{"attributes":{"ID":405299,"DIS_CODE":0,"TOWNNAME":"永康區","LI":"北灣里","LIN":"27鄰","STREET":"文賢街","SECT":" ","MAREA":" ","LANE":"１２２巷","ALLEY":" ","HOUSE_NO":"６０號","E_COORD97":175550.73999999999,"N_COORD97":2545496.8300000001,"ADDRESS":"文賢街１２２巷６０號","OBJECTID":405275},"geometry":{"x":175550.74000000115,"y":2545496.8300000038}},{"attributes":{"ID":405300,"DIS_CODE":0,"TOWNNAME":"永康區","LI":"龍潭里","LIN":"27鄰","STREET":"中山北路","SECT":" ","MAREA":" ","LANE":"４６１巷","ALLEY":" ","HOUSE_NO":"１８號","E_COORD97":175114.42999999999,"N_COORD97":2547819.6000000001,"ADDRESS":"中山北路４６１巷１８號","OBJECTID":405276},"geometry":{"x":175114.4299999997,"y":2547819.5999999996}},{"attributes":{"ID":405301,"DIS_CODE":0,"TOWNNAME":"永康區","LI":"大橋里","LIN":"5鄰","STREET":"大橋一街","SECT":" ","MAREA":" ","LANE":"１０３巷","ALLEY":" ","HOUSE_NO":"１９４號","E_COORD97":170799.39999999999,"N_COORD97":2546784.9900000002,"ADDRESS":"大橋一街１０３巷１９４號","OBJECTID":405277},"geometry":{"x":170799.40000000037,"y":2546784.9900000021}},{"attributes":{"ID":405302,"DIS_CODE":0,"TOWNNAME":"永康區","LI":"五王里","LIN":"41鄰","STREET":"中華路","SECT":" ","MAREA":" ","LANE":"５７８巷","ALLEY":" ","HOUSE_NO":"４７號","E_COORD97":171385.76999999999,"N_COORD97":2546003.5,"ADDRESS":"中華路５７８巷４７號","OBJECTID":405278},"geometry":{"x":171385.76999999955,"y":2546003.5}},{"attributes":{"ID":405303,"DIS_CODE":0,"TOWNNAME":"永康區","LI":"大灣里","LIN":"14鄰","STREET":"大灣路","SECT":" ","MAREA":" ","LANE":"２８８巷","ALLEY":" ","HOUSE_NO":"５號","E_COORD97":174890.32000000001,"N_COORD97":2545254.7400000002,"ADDRESS":"大灣路２８８巷５號","OBJECTID":405279},"geometry":{"x":174890.3200000003,"y":2545254.7400000021}},{"attributes":{"ID":405304,"DIS_CODE":0,"TOWNNAME":"永康區","LI":"大橋里","LIN":"10鄰","STREET":"大橋三街","SECT":" ","MAREA":" ","LANE":"２６６巷","ALLEY":" ","HOUSE_NO":"１１２號","E_COORD97":170913.5,"N_COORD97":2546743.75,"ADDRESS":"大橋三街２６６巷１１２號","OBJECTID":405280},"geometry":{"x":170913.5,"y":2546743.75}},{"attributes":{"ID":405305,"DIS_CODE":0,"TOWNNAME":"永康區","LI":"大灣里","LIN":"21鄰","STREET":"大灣路","SECT":" ","MAREA":" ","LANE":"３５６巷","ALLEY":" ","HOUSE_NO":"１５號","E_COORD97":174768.14999999999,"N_COORD97":2545133.3100000001,"ADDRESS":"大灣路３５６巷１５號","OBJECTID":405281},"geometry":{"x":174768.1500000013,"y":2545133.3100000005}},{"attributes":{"ID":405306,"DIS_CODE":0,"TOWNNAME":"永康區","LI":"五王里","LIN":"28鄰","STREET":"中山東路","SECT":" ","MAREA":" ","LANE":"６８巷","ALLEY":" ","HOUSE_NO":"２２號","E_COORD97":171641.89000000001,"N_COORD97":2545992.7200000002,"ADDRESS":"中山東路６８巷２２號","OBJECTID":405282},"geometry":{"x":171641.8900000006,"y":2545992.7200000007}},{"attributes":{"ID":405307,"DIS_CODE":0,"TOWNNAME":"佳里區","LI":"安西里","LIN":"27鄰","STREET":"忠孝路","SECT":" ","MAREA":" ","LANE":"２２９巷","ALLEY":" ","HOUSE_NO":"１１號","E_COORD97":165226.51000000001,"N_COORD97":2563107.0099999998,"ADDRESS":"忠孝路２２９巷１１號","OBJECTID":405283},"geometry":{"x":165226.51000000071,"y":2563107.0099999998}},{"attributes":{"ID":405308,"DIS_CODE":0,"TOWNNAME":"永康區","LI":"三合里","LIN":"22鄰","STREET":"南工街","SECT":" ","MAREA":" ","LANE":"３１１巷","ALLEY":" ","HOUSE_NO":"２３號","E_COORD97":171829.29999999999,"N_COORD97":2545985.7400000002,"ADDRESS":"南工街３１１巷２３號","OBJECTID":405284},"geometry":{"x":171829.30000000075,"y":2545985.7399999984}},{"attributes":{"ID":405309,"DIS_CODE":0,"TOWNNAME":"佳里區","LI":"安西里","LIN":"27鄰","STREET":"忠孝路","SECT":" ","MAREA":" ","LANE":"２２９巷","ALLEY":" ","HOUSE_NO":"１３號","E_COORD97":165224.42000000001,"N_COORD97":2563103.6299999999,"ADDRESS":"忠孝路２２９巷１３號","OBJECTID":405285},"geometry":{"x":165224.41999999993,"y":2563103.6300000008}},{"attributes":{"ID":405310,"DIS_CODE":0,"TOWNNAME":"佳里區","LI":"安西里","LIN":"27鄰","STREET":"忠孝路","SECT":" ","MAREA":" ","LANE":"２２９巷","ALLEY":" ","HOUSE_NO":"１５號","E_COORD97":165218.41,"N_COORD97":2563096.54,"ADDRESS":"忠孝路２２９巷１５號","OBJECTID":405286},"geometry":{"x":165218.41000000015,"y":2563096.5399999991}},{"attributes":{"ID":405311,"DIS_CODE":0,"TOWNNAME":"永康區","LI":"中興里","LIN":"5鄰","STREET":"中華路","SECT":" ","MAREA":" ","LANE":"２１４巷","ALLEY":" ","HOUSE_NO":"７９號","E_COORD97":171899.35999999999,"N_COORD97":2545117.4900000002,"ADDRESS":"中華路２１４巷７９號","OBJECTID":405287},"geometry":{"x":171899.36000000034,"y":2545117.4900000021}},{"attributes":{"ID":405312,"DIS_CODE":0,"TOWNNAME":"永康區","LI":"五王里","LIN":"4鄰","STREET":"中華二路","SECT":" ","MAREA":" ","LANE":"２０６巷","ALLEY":" ","HOUSE_NO":"４８號","E_COORD97":171611.39000000001,"N_COORD97":2545601.6299999999,"ADDRESS":"中華二路２０６巷４８號","OBJECTID":405288},"geometry":{"x":171611.3900000006,"y":2545601.629999999}},{"attributes":{"ID":405313,"DIS_CODE":0,"TOWNNAME":"永康區","LI":"五王里","LIN":"1鄰","STREET":"成功路","SECT":" ","MAREA":" ","LANE":"１３０巷","ALLEY":" ","HOUSE_NO":"４０號","E_COORD97":171557.66,"N_COORD97":2545546.0299999998,"ADDRESS":"成功路１３０巷４０號","OBJECTID":405289},"geometry":{"x":171557.66000000108,"y":2545546.0300000012}},{"attributes":{"ID":405314,"DIS_CODE":0,"TOWNNAME":"佳里區","LI":"安西里","LIN":"27鄰","STREET":"忠孝路","SECT":" ","MAREA":" ","LANE":"２２９巷","ALLEY":" ","HOUSE_NO":"１７號","E_COORD97":165216.07999999999,"N_COORD97":2563093.5,"ADDRESS":"忠孝路２２９巷１７號","OBJECTID":405290},"geometry":{"x":165216.08000000101,"y":2563093.5}},{"attributes":{"ID":405315,"DIS_CODE":0,"TOWNNAME":"佳里區","LI":"安西里","LIN":"27鄰","STREET":"忠孝路","SECT":" ","MAREA":" ","LANE":"２２９巷","ALLEY":" ","HOUSE_NO":"１９號","E_COORD97":165213.73000000001,"N_COORD97":2563090.3700000001,"ADDRESS":"忠孝路２２９巷１９號","OBJECTID":405291},"geometry":{"x":165213.73000000138,"y":2563090.3700000048}},{"attributes":{"ID":405316,"DIS_CODE":0,"TOWNNAME":"佳里區","LI":"安西里","LIN":"27鄰","STREET":"忠孝路","SECT":" ","MAREA":" ","LANE":"２２９巷","ALLEY":" ","HOUSE_NO":"２１號","E_COORD97":165211.60999999999,"N_COORD97":2563087.25,"ADDRESS":"忠孝路２２９巷２１號","OBJECTID":405292},"geometry":{"x":165211.61000000034,"y":2563087.2500000019}},{"attributes":{"ID":405317,"DIS_CODE":0,"TOWNNAME":"佳里區","LI":"安西里","LIN":"27鄰","STREET":"忠孝路","SECT":" ","MAREA":" ","LANE":"２２９巷","ALLEY":" ","HOUSE_NO":"２３號","E_COORD97":165209.66,"N_COORD97":2563084.2999999998,"ADDRESS":"忠孝路２２９巷２３號","OBJECTID":405293},"geometry":{"x":165209.66000000015,"y":2563084.3000000026}},{"attributes":{"ID":405318,"DIS_CODE":0,"TOWNNAME":"中西區","LI":"大涼里","LIN":"13鄰","STREET":"金城街","SECT":" ","MAREA":" ","LANE":" ","ALLEY":" ","HOUSE_NO":"６５號","E_COORD97":166872.32000000001,"N_COORD97":2543693.48,"ADDRESS":"金城街６５號","OBJECTID":405294},"geometry":{"x":166872.32000000216,"y":2543693.4800000023}},{"attributes":{"ID":405319,"DIS_CODE":0,"TOWNNAME":"佳里區","LI":"安西里","LIN":"27鄰","STREET":"忠孝路","SECT":" ","MAREA":" ","LANE":"２２９巷","ALLEY":" ","HOUSE_NO":"３１號","E_COORD97":165207.57999999999,"N_COORD97":2563067.7999999998,"ADDRESS":"忠孝路２２９巷３１號","OBJECTID":405295},"geometry":{"x":165207.58000000101,"y":2563067.8000000026}},{"attributes":{"ID":405320,"DIS_CODE":0,"TOWNNAME":"佳里區","LI":"安西里","LIN":"27鄰","STREET":"忠孝路","SECT":" ","MAREA":" ","LANE":"２２９巷","ALLEY":" ","HOUSE_NO":"３３號","E_COORD97":165207.14000000001,"N_COORD97":2563063.8300000001,"ADDRESS":"忠孝路２２９巷３３號","OBJECTID":405296},"geometry":{"x":165207.1400000006,"y":2563063.8300000019}},{"attributes":{"ID":405321,"DIS_CODE":0,"TOWNNAME":"佳里區","LI":"安西里","LIN":"27鄰","STREET":"忠孝路","SECT":" ","MAREA":" ","LANE":"２２９巷","ALLEY":" ","HOUSE_NO":"５號","E_COORD97":165233.04999999999,"N_COORD97":2563117.4300000002,"ADDRESS":"忠孝路２２９巷５號","OBJECTID":405297},"geometry":{"x":165233.05000000075,"y":2563117.4299999997}},{"attributes":{"ID":405322,"DIS_CODE":0,"TOWNNAME":"佳里區","LI":"安西里","LIN":"27鄰","STREET":"忠孝路","SECT":" ","MAREA":" ","LANE":"２２９巷","ALLEY":" ","HOUSE_NO":"６號","E_COORD97":165222.85000000001,"N_COORD97":2563132.6699999999,"ADDRESS":"忠孝路２２９巷６號","OBJECTID":405298},"geometry":{"x":165222.84999999963,"y":2563132.6700000018}},{"attributes":{"ID":405323,"DIS_CODE":0,"TOWNNAME":"佳里區","LI":"安西里","LIN":"27鄰","STREET":"忠孝路","SECT":" ","MAREA":" ","LANE":"２２９巷","ALLEY":" ","HOUSE_NO":"９號","E_COORD97":165228.79999999999,"N_COORD97":2563110.5099999998,"ADDRESS":"忠孝路２２９巷９號","OBJECTID":405299},"geometry":{"x":165228.79999999981,"y":2563110.5099999998}},{"attributes":{"ID":405324,"DIS_CODE":0,"TOWNNAME":"永康區","LI":"大橋里","LIN":"3鄰","STREET":"大橋三街","SECT":" ","MAREA":" ","LANE":"１２４巷","ALLEY":" ","HOUSE_NO":"２號","E_COORD97":170766.44,"N_COORD97":2546676.7400000002,"ADDRESS":"大橋三街１２４巷２號","OBJECTID":405300},"geometry":{"x":170766.44000000041,"y":2546676.7400000002}},{"attributes":{"ID":405325,"DIS_CODE":0,"TOWNNAME":"永康區","LI":"大橋里","LIN":"5鄰","STREET":"大橋一街","SECT":" ","MAREA":" ","LANE":"１０３巷","ALLEY":" ","HOUSE_NO":"２１０號","E_COORD97":170780,"N_COORD97":2546810.7400000002,"ADDRESS":"大橋一街１０３巷２１０號","OBJECTID":405301},"geometry":{"x":170780.00000000093,"y":2546810.7400000021}},{"attributes":{"ID":405326,"DIS_CODE":0,"TOWNNAME":"永康區","LI":"中興里","LIN":"4鄰","STREET":"中華路","SECT":" ","MAREA":" ","LANE":"２１２巷","ALLEY":" ","HOUSE_NO":"６０號","E_COORD97":171838.31,"N_COORD97":2545014.7599999998,"ADDRESS":"中華路２１２巷６０號","OBJECTID":405302},"geometry":{"x":171838.30999999959,"y":2545014.7599999998}},{"attributes":{"ID":405327,"DIS_CODE":0,"TOWNNAME":"永康區","LI":"五王里","LIN":"18鄰","STREET":"成功路","SECT":" ","MAREA":" ","LANE":"１８８巷","ALLEY":" ","HOUSE_NO":"１９號","E_COORD97":171463.01999999999,"N_COORD97":2545701.77,"ADDRESS":"成功路１８８巷１９號","OBJECTID":405303},"geometry":{"x":171463.02000000048,"y":2545701.7700000014}},{"attributes":{"ID":405328,"DIS_CODE":0,"TOWNNAME":"永康區","LI":"中興里","LIN":"14鄰","STREET":"中興街","SECT":" ","MAREA":" ","LANE":"６９巷","ALLEY":" ","HOUSE_NO":"４７號","E_COORD97":171934.29999999999,"N_COORD97":2545286.5299999998,"ADDRESS":"中興街６９巷４７號","OBJECTID":405304},"geometry":{"x":171934.30000000075,"y":2545286.5299999993}},{"attributes":{"ID":405329,"DIS_CODE":0,"TOWNNAME":"永康區","LI":"五王里","LIN":"37鄰","STREET":"中華路","SECT":" ","MAREA":" ","LANE":"５７８巷","ALLEY":" ","HOUSE_NO":"１５號之２８","E_COORD97":171276.10000000001,"N_COORD97":2545965.79,"ADDRESS":"中華路５７８巷１５號之２８","OBJECTID":405305},"geometry":{"x":171276.10000000056,"y":2545965.7899999991}},{"attributes":{"ID":405330,"DIS_CODE":0,"TOWNNAME":"新市區","LI":"港墘里","LIN":"27鄰","STREET":"華美街","SECT":" ","MAREA":" ","LANE":"４９巷","ALLEY":" ","HOUSE_NO":"２６號","E_COORD97":178061.84,"N_COORD97":2552982.0499999998,"ADDRESS":"華美街４９巷２６號","OBJECTID":405306},"geometry":{"x":178061.84000000078,"y":2552982.0500000045}},{"attributes":{"ID":405331,"DIS_CODE":0,"TOWNNAME":"新市區","LI":"港墘里","LIN":"27鄰","STREET":"華美街","SECT":" ","MAREA":" ","LANE":"４９巷","ALLEY":" ","HOUSE_NO":"３６號","E_COORD97":178041.04000000001,"N_COORD97":2552985.0499999998,"ADDRESS":"華美街４９巷３６號","OBJECTID":405307},"geometry":{"x":178041.04000000004,"y":2552985.0500000007}},{"attributes":{"ID":405332,"DIS_CODE":0,"TOWNNAME":"永康區","LI":"三合里","LIN":"22鄰","STREET":"南工街","SECT":" ","MAREA":" ","LANE":"３１１巷","ALLEY":" ","HOUSE_NO":"１２號","E_COORD97":171820.23000000001,"N_COORD97":2546017.3900000001,"ADDRESS":"南工街３１１巷１２號","OBJECTID":405308},"geometry":{"x":171820.23000000138,"y":2546017.3900000025}},{"attributes":{"ID":405333,"DIS_CODE":0,"TOWNNAME":"永康區","LI":"甲頂里","LIN":"27鄰","STREET":"中央路","SECT":" ","MAREA":" ","LANE":"２３巷","ALLEY":" ","HOUSE_NO":"２９號","E_COORD97":169526.66,"N_COORD97":2546961.5899999999,"ADDRESS":"中央路２３巷２９號","OBJECTID":405309},"geometry":{"x":169526.66000000108,"y":2546961.5899999999}},{"attributes":{"ID":405334,"DIS_CODE":0,"TOWNNAME":"永康區","LI":"甲頂里","LIN":"27鄰","STREET":"中央路","SECT":" ","MAREA":" ","LANE":"２３巷","ALLEY":" ","HOUSE_NO":"２１號","E_COORD97":169540.64000000001,"N_COORD97":2546966.4900000002,"ADDRESS":"中央路２３巷２１號","OBJECTID":405310},"geometry":{"x":169540.63999999966,"y":2546966.4900000002}},{"attributes":{"ID":405335,"DIS_CODE":0,"TOWNNAME":"永康區","LI":"永康里","LIN":"27鄰","STREET":"永康街","SECT":" ","MAREA":" ","LANE":"３１０巷","ALLEY":" ","HOUSE_NO":"３９號","E_COORD97":174233.47,"N_COORD97":2546934.0499999998,"ADDRESS":"永康街３１０巷３９號","OBJECTID":405311},"geometry":{"x":174233.47000000067,"y":2546934.0500000026}},{"attributes":{"ID":405336,"DIS_CODE":0,"TOWNNAME":"永康區","LI":"永康里","LIN":"27鄰","STREET":"永康街","SECT":" ","MAREA":" ","LANE":"３１０巷","ALLEY":" ","HOUSE_NO":"３１號","E_COORD97":174228.51999999999,"N_COORD97":2546948.7999999998,"ADDRESS":"永康街３１０巷３１號","OBJECTID":405312},"geometry":{"x":174228.51999999955,"y":2546948.8000000045}},{"attributes":{"ID":405337,"DIS_CODE":0,"TOWNNAME":"永康區","LI":"永康里","LIN":"27鄰","STREET":"永康街","SECT":" ","MAREA":" ","LANE":"３１０巷","ALLEY":" ","HOUSE_NO":"３５號","E_COORD97":174229.64999999999,"N_COORD97":2546940.5499999998,"ADDRESS":"永康街３１０巷３５號","OBJECTID":405313},"geometry":{"x":174229.6500000013,"y":2546940.5500000045}},{"attributes":{"ID":405338,"DIS_CODE":0,"TOWNNAME":"新營區","LI":"王公里","LIN":"27鄰","STREET":"民族路","SECT":" ","MAREA":" ","LANE":"３０２巷","ALLEY":" ","HOUSE_NO":"１９號","E_COORD97":180446.98000000001,"N_COORD97":2579694.6699999999,"ADDRESS":"民族路３０２巷１９號","OBJECTID":405314},"geometry":{"x":180446.98000000138,"y":2579694.6700000018}},{"attributes":{"ID":405339,"DIS_CODE":0,"TOWNNAME":"安平區","LI":"文平里","LIN":"27鄰","STREET":"永華二街","SECT":" ","MAREA":" ","LANE":"５９巷","ALLEY":" ","HOUSE_NO":"１９號","E_COORD97":166286.59,"N_COORD97":2542988.1400000001,"ADDRESS":"永華二街５９巷１９號","OBJECTID":405315},"geometry":{"x":166286.58999999985,"y":2542988.1400000025}},{"attributes":{"ID":405340,"DIS_CODE":0,"TOWNNAME":"安平區","LI":"文平里","LIN":"27鄰","STREET":"永華二街","SECT":" ","MAREA":" ","LANE":"５９巷","ALLEY":" ","HOUSE_NO":"１號","E_COORD97":166324.79999999999,"N_COORD97":2542982.8700000001,"ADDRESS":"永華二街５９巷１號","OBJECTID":405316},"geometry":{"x":166324.80000000075,"y":2542982.8700000029}},{"attributes":{"ID":405341,"DIS_CODE":0,"TOWNNAME":"安平區","LI":"文平里","LIN":"27鄰","STREET":"永華二街","SECT":" ","MAREA":" ","LANE":"５９巷","ALLEY":" ","HOUSE_NO":"２１號","E_COORD97":166282.17999999999,"N_COORD97":2542988.4300000002,"ADDRESS":"永華二街５９巷２１號","OBJECTID":405317},"geometry":{"x":166282.1799999997,"y":2542988.4300000016}},{"attributes":{"ID":405342,"DIS_CODE":0,"TOWNNAME":"安平區","LI":"文平里","LIN":"27鄰","STREET":"永華二街","SECT":" ","MAREA":" ","LANE":"５９巷","ALLEY":" ","HOUSE_NO":"２３號","E_COORD97":166278.04999999999,"N_COORD97":2542988.8100000001,"ADDRESS":"永華二街５９巷２３號","OBJECTID":405318},"geometry":{"x":166278.04999999981,"y":2542988.8100000042}},{"attributes":{"ID":405343,"DIS_CODE":0,"TOWNNAME":"安平區","LI":"文平里","LIN":"27鄰","STREET":"永華二街","SECT":" ","MAREA":" ","LANE":"５９巷","ALLEY":" ","HOUSE_NO":"２５號","E_COORD97":166273.84,"N_COORD97":2542989.3900000001,"ADDRESS":"永華二街５９巷２５號","OBJECTID":405319},"geometry":{"x":166273.84000000078,"y":2542989.3900000025}},{"attributes":{"ID":405344,"DIS_CODE":0,"TOWNNAME":"安平區","LI":"文平里","LIN":"27鄰","STREET":"永華二街","SECT":" ","MAREA":" ","LANE":"５９巷","ALLEY":" ","HOUSE_NO":"２７號","E_COORD97":166269.42999999999,"N_COORD97":2542989.5800000001,"ADDRESS":"永華二街５９巷２７號","OBJECTID":405320},"geometry":{"x":166269.43000000063,"y":2542989.5799999982}},{"attributes":{"ID":405345,"DIS_CODE":0,"TOWNNAME":"安平區","LI":"文平里","LIN":"27鄰","STREET":"永華二街","SECT":" ","MAREA":" ","LANE":"５９巷","ALLEY":" ","HOUSE_NO":"２９號","E_COORD97":166265.41,"N_COORD97":2542990.8199999998,"ADDRESS":"永華二街５９巷２９號","OBJECTID":405321},"geometry":{"x":166265.41000000108,"y":2542990.8200000003}},{"attributes":{"ID":405346,"DIS_CODE":0,"TOWNNAME":"安平區","LI":"文平里","LIN":"27鄰","STREET":"永華二街","SECT":" ","MAREA":" ","LANE":"５９巷","ALLEY":" ","HOUSE_NO":"３１號","E_COORD97":166261.38,"N_COORD97":2542991.21,"ADDRESS":"永華二街５９巷３１號","OBJECTID":405322},"geometry":{"x":166261.38000000082,"y":2542991.2100000028}},{"attributes":{"ID":405347,"DIS_CODE":0,"TOWNNAME":"安平區","LI":"文平里","LIN":"27鄰","STREET":"永華二街","SECT":" ","MAREA":" ","LANE":"５９巷","ALLEY":" ","HOUSE_NO":"３３號","E_COORD97":166256.87,"N_COORD97":2542991.21,"ADDRESS":"永華二街５９巷３３號","OBJECTID":405323},"geometry":{"x":166256.87000000104,"y":2542991.2100000028}},{"attributes":{"ID":405348,"DIS_CODE":0,"TOWNNAME":"安平區","LI":"文平里","LIN":"27鄰","STREET":"永華二街","SECT":" ","MAREA":" ","LANE":"５９巷","ALLEY":" ","HOUSE_NO":"３５號","E_COORD97":166252.35999999999,"N_COORD97":2542991.4900000002,"ADDRESS":"永華二街５９巷３５號","OBJECTID":405324},"geometry":{"x":166252.36000000127,"y":2542991.4900000021}},{"attributes":{"ID":405349,"DIS_CODE":0,"TOWNNAME":"安平區","LI":"文平里","LIN":"27鄰","STREET":"永華二街","SECT":" ","MAREA":" ","LANE":"５９巷","ALLEY":" ","HOUSE_NO":"３７號","E_COORD97":166248.34,"N_COORD97":2542992.3599999999,"ADDRESS":"永華二街５９巷３７號","OBJECTID":405325},"geometry":{"x":166248.34000000078,"y":2542992.3599999994}},{"attributes":{"ID":405350,"DIS_CODE":0,"TOWNNAME":"永康區","LI":"王行里","LIN":"10鄰","STREET":"王行路","SECT":" ","MAREA":" ","LANE":"１０１８巷","ALLEY":" ","HOUSE_NO":"３６號","E_COORD97":175824.28,"N_COORD97":2550216.2400000002,"ADDRESS":"王行路１０１８巷３６號","OBJECTID":405326},"geometry":{"x":175824.28000000026,"y":2550216.2400000002}},{"attributes":{"ID":405351,"DIS_CODE":0,"TOWNNAME":"永康區","LI":"中興里","LIN":"11鄰","STREET":"中興街","SECT":" ","MAREA":" ","LANE":"３５巷","ALLEY":" ","HOUSE_NO":"７號","E_COORD97":172055.95999999999,"N_COORD97":2545181.6499999999,"ADDRESS":"中興街３５巷７號","OBJECTID":405327},"geometry":{"x":172055.95999999996,"y":2545181.6500000004}},{"attributes":{"ID":405352,"DIS_CODE":0,"TOWNNAME":"永康區","LI":"中興里","LIN":"11鄰","STREET":"中興街","SECT":" ","MAREA":" ","LANE":"３５巷","ALLEY":" ","HOUSE_NO":"１１號","E_COORD97":172048.95999999999,"N_COORD97":2545179.8500000001,"ADDRESS":"中興街３５巷１１號","OBJECTID":405328},"geometry":{"x":172048.95999999996,"y":2545179.8499999996}},{"attributes":{"ID":405353,"DIS_CODE":0,"TOWNNAME":"永康區","LI":"中興里","LIN":"11鄰","STREET":"中興街","SECT":" ","MAREA":" ","LANE":"３５巷","ALLEY":" ","HOUSE_NO":"４５號","E_COORD97":171975.14999999999,"N_COORD97":2545163.1000000001,"ADDRESS":"中興街３５巷４５號","OBJECTID":405329},"geometry":{"x":171975.1500000013,"y":2545163.1000000015}},{"attributes":{"ID":405354,"DIS_CODE":0,"TOWNNAME":"安平區","LI":"文平里","LIN":"27鄰","STREET":"永華二街","SECT":" ","MAREA":" ","LANE":"５９巷","ALLEY":" ","HOUSE_NO":"３９號","E_COORD97":166244.20999999999,"N_COORD97":2542993.1200000001,"ADDRESS":"永華二街５９巷３９號","OBJECTID":405330},"geometry":{"x":166244.21000000089,"y":2542993.120000001}},{"attributes":{"ID":405355,"DIS_CODE":0,"TOWNNAME":"安平區","LI":"文平里","LIN":"27鄰","STREET":"永華二街","SECT":" ","MAREA":" ","LANE":"５９巷","ALLEY":" ","HOUSE_NO":"３號","E_COORD97":166321.14999999999,"N_COORD97":2542983.4399999999,"ADDRESS":"永華二街５９巷３號","OBJECTID":405331},"geometry":{"x":166321.1500000013,"y":2542983.4400000032}},{"attributes":{"ID":405356,"DIS_CODE":0,"TOWNNAME":"安平區","LI":"文平里","LIN":"27鄰","STREET":"永華二街","SECT":" ","MAREA":" ","LANE":"５９巷","ALLEY":" ","HOUSE_NO":"４１號","E_COORD97":166239.98999999999,"N_COORD97":2542993.6000000001,"ADDRESS":"永華二街５９巷４１號","OBJECTID":405332},"geometry":{"x":166239.99000000022,"y":2542993.6000000015}},{"attributes":{"ID":405357,"DIS_CODE":0,"TOWNNAME":"安平區","LI":"文平里","LIN":"27鄰","STREET":"永華二街","SECT":" ","MAREA":" ","LANE":"５９巷","ALLEY":" ","HOUSE_NO":"４３號","E_COORD97":166235.39000000001,"N_COORD97":2542993.98,"ADDRESS":"永華二街５９巷４３號","OBJECTID":405333},"geometry":{"x":166235.39000000153,"y":2542993.9799999986}},{"attributes":{"ID":405358,"DIS_CODE":0,"TOWNNAME":"安平區","LI":"文平里","LIN":"27鄰","STREET":"永華二街","SECT":" ","MAREA":" ","LANE":"５９巷","ALLEY":" ","HOUSE_NO":"４５號","E_COORD97":166231.26999999999,"N_COORD97":2542994.0800000001,"ADDRESS":"永華二街５９巷４５號","OBJECTID":405334},"geometry":{"x":166231.27000000048,"y":2542994.0800000019}},{"attributes":{"ID":405359,"DIS_CODE":0,"TOWNNAME":"安平區","LI":"文平里","LIN":"27鄰","STREET":"永華二街","SECT":" ","MAREA":" ","LANE":"５９巷","ALLEY":" ","HOUSE_NO":"４７號","E_COORD97":166227.04999999999,"N_COORD97":2542994.3700000001,"ADDRESS":"永華二街５９巷４７號","OBJECTID":405335},"geometry":{"x":166227.04999999981,"y":2542994.370000001}},{"attributes":{"ID":405360,"DIS_CODE":0,"TOWNNAME":"安平區","LI":"文平里","LIN":"27鄰","STREET":"永華二街","SECT":" ","MAREA":" ","LANE":"５９巷","ALLEY":" ","HOUSE_NO":"４９號","E_COORD97":166220.10999999999,"N_COORD97":2543001.79,"ADDRESS":"永華二街５９巷４９號","OBJECTID":405336},"geometry":{"x":166220.11000000127,"y":2543001.790000001}},{"attributes":{"ID":405361,"DIS_CODE":0,"TOWNNAME":"安平區","LI":"文平里","LIN":"27鄰","STREET":"永華二街","SECT":" ","MAREA":" ","LANE":"５９巷","ALLEY":" ","HOUSE_NO":"５１號","E_COORD97":166215.60000000001,"N_COORD97":2543002.27,"ADDRESS":"永華二街５９巷５１號","OBJECTID":405337},"geometry":{"x":166215.60000000056,"y":2543002.2700000014}},{"attributes":{"ID":405362,"DIS_CODE":0,"TOWNNAME":"安平區","LI":"文平里","LIN":"27鄰","STREET":"永華二街","SECT":" ","MAREA":" ","LANE":"５９巷","ALLEY":" ","HOUSE_NO":"５３號","E_COORD97":166211.95999999999,"N_COORD97":2543002.46,"ADDRESS":"永華二街５９巷５３號","OBJECTID":405338},"geometry":{"x":166211.96000000089,"y":2543002.4600000028}},{"attributes":{"ID":405363,"DIS_CODE":0,"TOWNNAME":"安平區","LI":"文平里","LIN":"27鄰","STREET":"永華二街","SECT":" ","MAREA":" ","LANE":"５９巷","ALLEY":" ","HOUSE_NO":"５５號","E_COORD97":166207.26000000001,"N_COORD97":2543002.6499999999,"ADDRESS":"永華二街５９巷５５號","OBJECTID":405339},"geometry":{"x":166207.25999999978,"y":2543002.6500000004}},{"attributes":{"ID":405364,"DIS_CODE":0,"TOWNNAME":"安平區","LI":"文平里","LIN":"27鄰","STREET":"永華二街","SECT":" ","MAREA":" ","LANE":"５９巷","ALLEY":" ","HOUSE_NO":"５７號","E_COORD97":166202.75,"N_COORD97":2543003.2200000002,"ADDRESS":"永華二街５９巷５７號","OBJECTID":405340},"geometry":{"x":166202.75000000186,"y":2543003.2200000044}},{"attributes":{"ID":405365,"DIS_CODE":0,"TOWNNAME":"安平區","LI":"文平里","LIN":"27鄰","STREET":"永華二街","SECT":" ","MAREA":" ","LANE":"５９巷","ALLEY":" ","HOUSE_NO":"５９號","E_COORD97":166198.14999999999,"N_COORD97":2543003.7999999998,"ADDRESS":"永華二街５９巷５９號","OBJECTID":405341},"geometry":{"x":166198.15000000037,"y":2543003.8000000026}},{"attributes":{"ID":405366,"DIS_CODE":0,"TOWNNAME":"安平區","LI":"文平里","LIN":"27鄰","STREET":"永華二街","SECT":" ","MAREA":" ","LANE":"５９巷","ALLEY":" ","HOUSE_NO":"５號","E_COORD97":166316.51000000001,"N_COORD97":2542984.1200000001,"ADDRESS":"永華二街５９巷５號","OBJECTID":405342},"geometry":{"x":166316.51000000071,"y":2542984.1200000029}},{"attributes":{"ID":405367,"DIS_CODE":0,"TOWNNAME":"安平區","LI":"文平里","LIN":"27鄰","STREET":"永華二街","SECT":" ","MAREA":" ","LANE":"５９巷","ALLEY":" ","HOUSE_NO":"７號","E_COORD97":166312.10000000001,"N_COORD97":2542984.21,"ADDRESS":"永華二街５９巷７號","OBJECTID":405343},"geometry":{"x":166312.10000000056,"y":2542984.2100000028}},{"attributes":{"ID":405368,"DIS_CODE":0,"TOWNNAME":"安平區","LI":"文平里","LIN":"27鄰","STREET":"永華二街","SECT":" ","MAREA":" ","LANE":"５９巷","ALLEY":" ","HOUSE_NO":"９號","E_COORD97":166307.97,"N_COORD97":2542985.0699999998,"ADDRESS":"永華二街５９巷９號","OBJECTID":405344},"geometry":{"x":166307.9700000016,"y":2542985.0700000003}},{"attributes":{"ID":405369,"DIS_CODE":0,"TOWNNAME":"安平區","LI":"建平里","LIN":"27鄰","STREET":"建平八街","SECT":" ","MAREA":" ","LANE":"１０８巷","ALLEY":" ","HOUSE_NO":"２９號","E_COORD97":165839.73999999999,"N_COORD97":2543660.9100000001,"ADDRESS":"建平八街１０８巷２９號","OBJECTID":405345},"geometry":{"x":165839.74000000022,"y":2543660.9100000001}},{"attributes":{"ID":405370,"DIS_CODE":0,"TOWNNAME":"永康區","LI":"五王里","LIN":"20鄰","STREET":"中華路","SECT":" ","MAREA":" ","LANE":"４０８巷","ALLEY":" ","HOUSE_NO":"１號","E_COORD97":171412.91,"N_COORD97":2545605.5,"ADDRESS":"中華路４０８巷１號","OBJECTID":405346},"geometry":{"x":171412.91000000201,"y":2545605.5000000019}},{"attributes":{"ID":405371,"DIS_CODE":0,"TOWNNAME":"永康區","LI":"中興里","LIN":"25鄰","STREET":"中華路","SECT":" ","MAREA":" ","LANE":"２１６巷","ALLEY":" ","HOUSE_NO":"３號之１１","E_COORD97":171762.42999999999,"N_COORD97":2545154.04,"ADDRESS":"中華路２１６巷３號之１１","OBJECTID":405347},"geometry":{"x":171762.4299999997,"y":2545154.0399999991}},{"attributes":{"ID":405372,"DIS_CODE":0,"TOWNNAME":"永康區","LI":"五王里","LIN":"39鄰","STREET":"中華路","SECT":" ","MAREA":" ","LANE":"５７８巷","ALLEY":" ","HOUSE_NO":"１７號之１２１","E_COORD97":171334.82000000001,"N_COORD97":2545989.54,"ADDRESS":"中華路５７８巷１７號之１２１","OBJECTID":405348},"geometry":{"x":171334.82000000123,"y":2545989.5400000028}},{"attributes":{"ID":405373,"DIS_CODE":0,"TOWNNAME":"永康區","LI":"五王里","LIN":"37鄰","STREET":"中華路","SECT":" ","MAREA":" ","LANE":"５７８巷","ALLEY":" ","HOUSE_NO":"１５號之５２","E_COORD97":171276.07999999999,"N_COORD97":2545965.79,"ADDRESS":"中華路５７８巷１５號之５２","OBJECTID":405349},"geometry":{"x":171276.08000000194,"y":2545965.7899999991}},{"attributes":{"ID":405374,"DIS_CODE":0,"TOWNNAME":"永康區","LI":"五王里","LIN":"28鄰","STREET":"中山東路","SECT":" ","MAREA":" ","LANE":"６８巷","ALLEY":" ","HOUSE_NO":"４２號","E_COORD97":171612.35000000001,"N_COORD97":2545978.71,"ADDRESS":"中山東路６８巷４２號","OBJECTID":405350},"geometry":{"x":171612.34999999963,"y":2545978.7100000009}},{"attributes":{"ID":405375,"DIS_CODE":0,"TOWNNAME":"永康區","LI":"大橋里","LIN":"11鄰","STREET":"大橋一街","SECT":" ","MAREA":" ","LANE":"１０３巷","ALLEY":" ","HOUSE_NO":"１３０號","E_COORD97":170868.87,"N_COORD97":2546690.4900000002,"ADDRESS":"大橋一街１０３巷１３０號","OBJECTID":405351},"geometry":{"x":170868.86999999918,"y":2546690.4900000021}},{"attributes":{"ID":405376,"DIS_CODE":0,"TOWNNAME":"新營區","LI":"王公里","LIN":"27鄰","STREET":"民族路","SECT":" ","MAREA":" ","LANE":"３０２巷","ALLEY":" ","HOUSE_NO":"５號","E_COORD97":180413.01000000001,"N_COORD97":2579692.6099999999,"ADDRESS":"民族路３０２巷５號","OBJECTID":405352},"geometry":{"x":180413.00999999978,"y":2579692.6099999994}},{"attributes":{"ID":405377,"DIS_CODE":0,"TOWNNAME":"新營區","LI":"王公里","LIN":"27鄰","STREET":"民族路","SECT":" ","MAREA":" ","LANE":"３０６巷","ALLEY":" ","HOUSE_NO":"１１號","E_COORD97":180445.04999999999,"N_COORD97":2579717.9399999999,"ADDRESS":"民族路３０６巷１１號","OBJECTID":405353},"geometry":{"x":180445.04999999981,"y":2579717.9400000032}},{"attributes":{"ID":405378,"DIS_CODE":0,"TOWNNAME":"新營區","LI":"王公里","LIN":"27鄰","STREET":"民族路","SECT":" ","MAREA":" ","LANE":"３０２巷","ALLEY":" ","HOUSE_NO":"１３號","E_COORD97":180432.66,"N_COORD97":2579693.6299999999,"ADDRESS":"民族路３０２巷１３號","OBJECTID":405354},"geometry":{"x":180432.66000000015,"y":2579693.6300000008}},{"attributes":{"ID":405379,"DIS_CODE":0,"TOWNNAME":"新營區","LI":"王公里","LIN":"27鄰","STREET":"民族路","SECT":" ","MAREA":" ","LANE":"３０２巷","ALLEY":" ","HOUSE_NO":"１號","E_COORD97":180402.76000000001,"N_COORD97":2579692.6600000001,"ADDRESS":"民族路３０２巷１號","OBJECTID":405355},"geometry":{"x":180402.75999999978,"y":2579692.6600000001}},{"attributes":{"ID":405380,"DIS_CODE":0,"TOWNNAME":"新營區","LI":"王公里","LIN":"27鄰","STREET":"民族路","SECT":" ","MAREA":" ","LANE":"３０２巷","ALLEY":" ","HOUSE_NO":"３１號","E_COORD97":180480.29000000001,"N_COORD97":2579698.1699999999,"ADDRESS":"民族路３０２巷３１號","OBJECTID":405356},"geometry":{"x":180480.29000000097,"y":2579698.1700000018}},{"attributes":{"ID":405381,"DIS_CODE":0,"TOWNNAME":"新營區","LI":"新東里","LIN":"27鄰","STREET":"東光街","SECT":" ","MAREA":" ","LANE":"４０巷","ALLEY":" ","HOUSE_NO":"２１號","E_COORD97":180663.67555000001,"N_COORD97":2579589.5954399998,"ADDRESS":"東光街４０巷２１號","OBJECTID":405357},"geometry":{"x":180663.67555000074,"y":2579589.5954400003}},{"attributes":{"ID":405382,"DIS_CODE":0,"TOWNNAME":"永康區","LI":"中興里","LIN":"5鄰","STREET":"中華路","SECT":" ","MAREA":" ","LANE":"２１４巷","ALLEY":" ","HOUSE_NO":"４４號","E_COORD97":171806.88,"N_COORD97":2545055.7400000002,"ADDRESS":"中華路２１４巷４４號","OBJECTID":405358},"geometry":{"x":171806.88000000082,"y":2545055.7400000002}},{"attributes":{"ID":405383,"DIS_CODE":0,"TOWNNAME":"永康區","LI":"中興里","LIN":"24鄰","STREET":"中華路","SECT":" ","MAREA":" ","LANE":"２１６巷","ALLEY":" ","HOUSE_NO":"１２號之４","E_COORD97":171714.89000000001,"N_COORD97":2545118.54,"ADDRESS":"中華路２１６巷１２號之４","OBJECTID":405359},"geometry":{"x":171714.8900000006,"y":2545118.540000001}},{"attributes":{"ID":405384,"DIS_CODE":0,"TOWNNAME":"南區","LI":"喜北里","LIN":"13鄰","STREET":"喜樹路","SECT":" ","MAREA":" ","LANE":"２０６巷","ALLEY":" ","HOUSE_NO":"９號","E_COORD97":165733.88,"N_COORD97":2538124.6499999999,"ADDRESS":"喜樹路２０６巷９號","OBJECTID":405360},"geometry":{"x":165733.88000000175,"y":2538124.6500000022}},{"attributes":{"ID":405385,"DIS_CODE":0,"TOWNNAME":"永康區","LI":"大灣里","LIN":"21鄰","STREET":"大灣路","SECT":" ","MAREA":" ","LANE":"３５６巷","ALLEY":" ","HOUSE_NO":"３５號","E_COORD97":174763.07999999999,"N_COORD97":2545203.4900000002,"ADDRESS":"大灣路３５６巷３５號","OBJECTID":405361},"geometry":{"x":174763.08000000194,"y":2545203.4900000002}},{"attributes":{"ID":405386,"DIS_CODE":0,"TOWNNAME":"永康區","LI":"大橋里","LIN":"21鄰","STREET":"大橋一街","SECT":" ","MAREA":" ","LANE":"２２３巷","ALLEY":" ","HOUSE_NO":"３１號","E_COORD97":171162.01999999999,"N_COORD97":2546722.5600000001,"ADDRESS":"大橋一街２２３巷３１號","OBJECTID":405362},"geometry":{"x":171162.01999999955,"y":2546722.5600000005}},{"attributes":{"ID":405387,"DIS_CODE":0,"TOWNNAME":"新營區","LI":"王公里","LIN":"27鄰","STREET":"民族路","SECT":" ","MAREA":" ","LANE":"３０８巷","ALLEY":" ","HOUSE_NO":"２０號","E_COORD97":180433.97,"N_COORD97":2579739.0299999998,"ADDRESS":"民族路３０８巷２０號","OBJECTID":405363},"geometry":{"x":180433.9700000016,"y":2579739.0300000012}},{"attributes":{"ID":405388,"DIS_CODE":0,"TOWNNAME":"新營區","LI":"王公里","LIN":"27鄰","STREET":"民族路","SECT":" ","MAREA":" ","LANE":"３０２巷","ALLEY":" ","HOUSE_NO":"１５號","E_COORD97":180437.76999999999,"N_COORD97":2579693.6099999999,"ADDRESS":"民族路３０２巷１５號","OBJECTID":405364},"geometry":{"x":180437.76999999955,"y":2579693.6100000013}},{"attributes":{"ID":405389,"DIS_CODE":0,"TOWNNAME":"新營區","LI":"新東里","LIN":"27鄰","STREET":"東光街","SECT":" ","MAREA":" ","LANE":"４０巷","ALLEY":" ","HOUSE_NO":"４５號","E_COORD97":180702.42999999999,"N_COORD97":2579623.7000000002,"ADDRESS":"東光街４０巷４５號","OBJECTID":405365},"geometry":{"x":180702.43000000063,"y":2579623.6999999993}},{"attributes":{"ID":405390,"DIS_CODE":0,"TOWNNAME":"新營區","LI":"王公里","LIN":"27鄰","STREET":"民族路","SECT":" ","MAREA":" ","LANE":"３０８巷","ALLEY":" ","HOUSE_NO":"３６號","E_COORD97":180469.28,"N_COORD97":2579731.7400000002,"ADDRESS":"民族路３０８巷３６號","OBJECTID":405366},"geometry":{"x":180469.28000000026,"y":2579731.7400000021}},{"attributes":{"ID":405391,"DIS_CODE":0,"TOWNNAME":"新營區","LI":"新東里","LIN":"27鄰","STREET":"東光街","SECT":" ","MAREA":" ","LANE":"１巷","ALLEY":" ","HOUSE_NO":"１０號","E_COORD97":180589.47,"N_COORD97":2579545.6000000001,"ADDRESS":"東光街１巷１０號","OBJECTID":405367},"geometry":{"x":180589.46999999974,"y":2579545.6000000015}},{"attributes":{"ID":405392,"DIS_CODE":0,"TOWNNAME":"新營區","LI":"新南里","LIN":"27鄰","STREET":"復興路","SECT":" ","MAREA":" ","LANE":"６２０巷","ALLEY":" ","HOUSE_NO":"６３號","E_COORD97":178048.10000000001,"N_COORD97":2578543.3100000001,"ADDRESS":"復興路６２０巷６３號","OBJECTID":405368},"geometry":{"x":178048.10000000056,"y":2578543.3099999987}},{"attributes":{"ID":405393,"DIS_CODE":0,"TOWNNAME":"六甲區","LI":"六甲里","LIN":"27鄰","STREET":"中山路","SECT":" ","MAREA":" ","LANE":"８０巷","ALLEY":" ","HOUSE_NO":"１０號","E_COORD97":183461.91,"N_COORD97":2570074.0299999998,"ADDRESS":"中山路８０巷１０號","OBJECTID":405369},"geometry":{"x":183461.91000000015,"y":2570074.0299999993}},{"attributes":{"ID":405394,"DIS_CODE":0,"TOWNNAME":"永康區","LI":"大灣里","LIN":"16鄰","STREET":"大灣路","SECT":" ","MAREA":" ","LANE":"３５６巷","ALLEY":" ","HOUSE_NO":"４號","E_COORD97":174825.60999999999,"N_COORD97":2545131.5899999999,"ADDRESS":"大灣路３５６巷４號","OBJECTID":405370},"geometry":{"x":174825.61000000034,"y":2545131.5899999999}},{"attributes":{"ID":405395,"DIS_CODE":0,"TOWNNAME":"六甲區","LI":"六甲里","LIN":"27鄰","STREET":"中山路","SECT":" ","MAREA":" ","LANE":"８０巷","ALLEY":" ","HOUSE_NO":"１２號","E_COORD97":183462.44,"N_COORD97":2570078.2599999998,"ADDRESS":"中山路８０巷１２號","OBJECTID":405371},"geometry":{"x":183462.44000000227,"y":2570078.2600000016}},{"attributes":{"ID":405396,"DIS_CODE":0,"TOWNNAME":"六甲區","LI":"六甲里","LIN":"27鄰","STREET":"中山路","SECT":" ","MAREA":" ","LANE":"８０巷","ALLEY":" ","HOUSE_NO":"１６號","E_COORD97":183464.28,"N_COORD97":2570087.79,"ADDRESS":"中山路８０巷１６號","OBJECTID":405372},"geometry":{"x":183464.28000000026,"y":2570087.790000001}},{"attributes":{"ID":405397,"DIS_CODE":0,"TOWNNAME":"六甲區","LI":"六甲里","LIN":"27鄰","STREET":"中山路","SECT":" ","MAREA":" ","LANE":"８０巷","ALLEY":" ","HOUSE_NO":"２２之１號","E_COORD97":183456.48999999999,"N_COORD97":2570110.9900000002,"ADDRESS":"中山路８０巷２２之１號","OBJECTID":405373},"geometry":{"x":183456.49000000022,"y":2570110.9900000021}},{"attributes":{"ID":405398,"DIS_CODE":0,"TOWNNAME":"六甲區","LI":"六甲里","LIN":"27鄰","STREET":"中山路","SECT":" ","MAREA":" ","LANE":"８０巷","ALLEY":" ","HOUSE_NO":"２２之２號","E_COORD97":183456.31,"N_COORD97":2570116.7999999998,"ADDRESS":"中山路８０巷２２之２號","OBJECTID":405374},"geometry":{"x":183456.31000000052,"y":2570116.8000000026}},{"attributes":{"ID":405399,"DIS_CODE":0,"TOWNNAME":"六甲區","LI":"六甲里","LIN":"27鄰","STREET":"中山路","SECT":" ","MAREA":" ","LANE":"８０巷","ALLEY":" ","HOUSE_NO":"２４號","E_COORD97":183479.23000000001,"N_COORD97":2570108.4500000002,"ADDRESS":"中山路８０巷２４號","OBJECTID":405375},"geometry":{"x":183479.23000000138,"y":2570108.4499999993}},{"attributes":{"ID":405400,"DIS_CODE":0,"TOWNNAME":"六甲區","LI":"六甲里","LIN":"27鄰","STREET":"中山路","SECT":" ","MAREA":" ","LANE":"８０巷","ALLEY":" ","HOUSE_NO":"２６號","E_COORD97":183483.5,"N_COORD97":2570115.0699999998,"ADDRESS":"中山路８０巷２６號","OBJECTID":405376},"geometry":{"x":183483.49999999907,"y":2570115.0700000003}},{"attributes":{"ID":405401,"DIS_CODE":0,"TOWNNAME":"六甲區","LI":"六甲里","LIN":"27鄰","STREET":"中山路","SECT":" ","MAREA":" ","LANE":"８０巷","ALLEY":" ","HOUSE_NO":"２８號","E_COORD97":183478.51000000001,"N_COORD97":2570126.2799999998,"ADDRESS":"中山路８０巷２８號","OBJECTID":405377},"geometry":{"x":183478.51000000071,"y":2570126.2799999993}},{"attributes":{"ID":405402,"DIS_CODE":0,"TOWNNAME":"六甲區","LI":"六甲里","LIN":"27鄰","STREET":"中山路","SECT":" ","MAREA":" ","LANE":"８０巷","ALLEY":" ","HOUSE_NO":"２號","E_COORD97":183463.22,"N_COORD97":2570052.0800000001,"ADDRESS":"中山路８０巷２號","OBJECTID":405378},"geometry":{"x":183463.2200000016,"y":2570052.0800000019}},{"attributes":{"ID":405403,"DIS_CODE":0,"TOWNNAME":"六甲區","LI":"六甲里","LIN":"27鄰","STREET":"中山路","SECT":" ","MAREA":" ","LANE":"８０巷","ALLEY":" ","HOUSE_NO":"３０號","E_COORD97":183468.92999999999,"N_COORD97":2570126.6800000002,"ADDRESS":"中山路８０巷３０號","OBJECTID":405379},"geometry":{"x":183468.93000000063,"y":2570126.6800000016}},{"attributes":{"ID":405404,"DIS_CODE":0,"TOWNNAME":"六甲區","LI":"六甲里","LIN":"27鄰","STREET":"中山路","SECT":" ","MAREA":" ","LANE":"８０巷","ALLEY":" ","HOUSE_NO":"３２號","E_COORD97":183462.60000000001,"N_COORD97":2570127.0499999998,"ADDRESS":"中山路８０巷３２號","OBJECTID":405380},"geometry":{"x":183462.60000000056,"y":2570127.0499999989}},{"attributes":{"ID":405405,"DIS_CODE":0,"TOWNNAME":"六甲區","LI":"六甲里","LIN":"27鄰","STREET":"中山路","SECT":" ","MAREA":" ","LANE":"８０巷","ALLEY":" ","HOUSE_NO":"３４號","E_COORD97":183447.63,"N_COORD97":2570133.5,"ADDRESS":"中山路８０巷３４號","OBJECTID":405381},"geometry":{"x":183447.63000000082,"y":2570133.5000000037}},{"attributes":{"ID":405406,"DIS_CODE":0,"TOWNNAME":"六甲區","LI":"六甲里","LIN":"27鄰","STREET":"中山路","SECT":" ","MAREA":" ","LANE":"８０巷","ALLEY":" ","HOUSE_NO":"６號","E_COORD97":183462.89000000001,"N_COORD97":2570060.1299999999,"ADDRESS":"中山路８０巷６號","OBJECTID":405382},"geometry":{"x":183462.88999999966,"y":2570060.1299999971}},{"attributes":{"ID":405407,"DIS_CODE":0,"TOWNNAME":"六甲區","LI":"六甲里","LIN":"27鄰","STREET":"中山路","SECT":" ","MAREA":" ","LANE":"８０巷","ALLEY":" ","HOUSE_NO":"８號","E_COORD97":183463.06,"N_COORD97":2570068.21,"ADDRESS":"中山路８０巷８號","OBJECTID":405383},"geometry":{"x":183463.06000000052,"y":2570068.2100000009}},{"attributes":{"ID":405408,"DIS_CODE":0,"TOWNNAME":"新營區","LI":"新東里","LIN":"27鄰","STREET":"東光街","SECT":" ","MAREA":" ","LANE":"１巷","ALLEY":" ","HOUSE_NO":"１２號","E_COORD97":180588.48999999999,"N_COORD97":2579554.4700000002,"ADDRESS":"東光街１巷１２號","OBJECTID":405384},"geometry":{"x":180588.49000000209,"y":2579554.4700000025}},{"attributes":{"ID":405409,"DIS_CODE":0,"TOWNNAME":"新營區","LI":"新東里","LIN":"27鄰","STREET":"東光街","SECT":" ","MAREA":" ","LANE":"４０巷","ALLEY":" ","HOUSE_NO":"４１號","E_COORD97":180704.32999999999,"N_COORD97":2579594.8999999999,"ADDRESS":"東光街４０巷４１號","OBJECTID":405385},"geometry":{"x":180704.33000000007,"y":2579594.9000000022}},{"attributes":{"ID":405410,"DIS_CODE":0,"TOWNNAME":"永康區","LI":"王行里","LIN":"13鄰","STREET":"王行路","SECT":" ","MAREA":" ","LANE":"１０１８巷","ALLEY":" ","HOUSE_NO":"２３號","E_COORD97":175842.88,"N_COORD97":2550188.3100000001,"ADDRESS":"王行路１０１８巷２３號","OBJECTID":405386},"geometry":{"x":175842.88000000082,"y":2550188.3100000005}},{"attributes":{"ID":405411,"DIS_CODE":0,"TOWNNAME":"南區","LI":"明亮里","LIN":"27鄰","STREET":"金華路","SECT":"一段","MAREA":" ","LANE":"４８４巷","ALLEY":" ","HOUSE_NO":"９４號","E_COORD97":167214.72,"N_COORD97":2541398.0299999998,"ADDRESS":"金華路一段４８４巷９４號","OBJECTID":405387},"geometry":{"x":167214.7200000016,"y":2541398.0299999993}},{"attributes":{"ID":405412,"DIS_CODE":0,"TOWNNAME":"永康區","LI":"三合里","LIN":"20鄰","STREET":"南工街","SECT":" ","MAREA":" ","LANE":"２６９巷","ALLEY":" ","HOUSE_NO":"７號","E_COORD97":171843.28,"N_COORD97":2545966.2400000002,"ADDRESS":"南工街２６９巷７號","OBJECTID":405388},"geometry":{"x":171843.28000000119,"y":2545966.2400000021}},{"attributes":{"ID":405413,"DIS_CODE":0,"TOWNNAME":"永康區","LI":"中興里","LIN":"24鄰","STREET":"中華路","SECT":" ","MAREA":" ","LANE":"２１６巷","ALLEY":" ","HOUSE_NO":"１２號之６","E_COORD97":171715.28,"N_COORD97":2545127.79,"ADDRESS":"中華路２１６巷１２號之６","OBJECTID":405389},"geometry":{"x":171715.28000000026,"y":2545127.790000001}},{"attributes":{"ID":405414,"DIS_CODE":0,"TOWNNAME":"永康區","LI":"大橋里","LIN":"15鄰","STREET":"大橋一街","SECT":" ","MAREA":" ","LANE":"１０３巷","ALLEY":" ","HOUSE_NO":"４３號","E_COORD97":170944.51999999999,"N_COORD97":2546518.52,"ADDRESS":"大橋一街１０３巷４３號","OBJECTID":405390},"geometry":{"x":170944.51999999955,"y":2546518.5199999996}},{"attributes":{"ID":405415,"DIS_CODE":0,"TOWNNAME":"永康區","LI":"五王里","LIN":"1鄰","STREET":"中華二路","SECT":" ","MAREA":" ","LANE":"２０６巷","ALLEY":" ","HOUSE_NO":"２６號","E_COORD97":171599.01999999999,"N_COORD97":2545534.4900000002,"ADDRESS":"中華二路２０６巷２６號","OBJECTID":405391},"geometry":{"x":171599.01999999955,"y":2545534.4900000021}},{"attributes":{"ID":405416,"DIS_CODE":0,"TOWNNAME":"南區","LI":"文華里","LIN":"27鄰","STREET":"南樂街","SECT":" ","MAREA":" ","LANE":"１０３巷","ALLEY":" ","HOUSE_NO":"１１號","E_COORD97":166643.42000000001,"N_COORD97":2542943.6099999999,"ADDRESS":"南樂街１０３巷１１號","OBJECTID":405392},"geometry":{"x":166643.41999999993,"y":2542943.6099999994}},{"attributes":{"ID":405417,"DIS_CODE":0,"TOWNNAME":"中西區","LI":"大涼里","LIN":"13鄰","STREET":"金城街","SECT":" ","MAREA":" ","LANE":" ","ALLEY":" ","HOUSE_NO":"７０號","E_COORD97":166844.07999999999,"N_COORD97":2543776.7599999998,"ADDRESS":"金城街７０號","OBJECTID":405393},"geometry":{"x":166844.08000000007,"y":2543776.7599999998}},{"attributes":{"ID":405418,"DIS_CODE":0,"TOWNNAME":"南區","LI":"文華里","LIN":"27鄰","STREET":"南樂街","SECT":" ","MAREA":" ","LANE":"１０３巷","ALLEY":" ","HOUSE_NO":"１２號","E_COORD97":166642.89000000001,"N_COORD97":2542938.79,"ADDRESS":"南樂街１０３巷１２號","OBJECTID":405394},"geometry":{"x":166642.8900000006,"y":2542938.7899999991}},{"attributes":{"ID":405419,"DIS_CODE":0,"TOWNNAME":"南區","LI":"文華里","LIN":"27鄰","STREET":"南樂街","SECT":" ","MAREA":" ","LANE":"１０３巷","ALLEY":" ","HOUSE_NO":"１３號","E_COORD97":166642.47,"N_COORD97":2542934.1099999999,"ADDRESS":"南樂街１０３巷１３號","OBJECTID":405395},"geometry":{"x":166642.47000000067,"y":2542934.1099999994}},{"attributes":{"ID":405420,"DIS_CODE":0,"TOWNNAME":"南區","LI":"文華里","LIN":"27鄰","STREET":"南樂街","SECT":" ","MAREA":" ","LANE":"１０３巷","ALLEY":" ","HOUSE_NO":"１４號","E_COORD97":166641.72,"N_COORD97":2542929.8799999999,"ADDRESS":"南樂街１０３巷１４號","OBJECTID":405396},"geometry":{"x":166641.71999999881,"y":2542929.8800000008}},{"attributes":{"ID":405421,"DIS_CODE":0,"TOWNNAME":"南區","LI":"文華里","LIN":"27鄰","STREET":"南樂街","SECT":" ","MAREA":" ","LANE":"１０３巷","ALLEY":" ","HOUSE_NO":"１５號","E_COORD97":166641.29999999999,"N_COORD97":2542925.9500000002,"ADDRESS":"南樂街１０３巷１５號","OBJECTID":405397},"geometry":{"x":166641.30000000168,"y":2542925.9500000011}},{"attributes":{"ID":405422,"DIS_CODE":0,"TOWNNAME":"南區","LI":"文華里","LIN":"27鄰","STREET":"南樂街","SECT":" ","MAREA":" ","LANE":"１０３巷","ALLEY":" ","HOUSE_NO":"１６號","E_COORD97":166640.76999999999,"N_COORD97":2542921.6099999999,"ADDRESS":"南樂街１０３巷１６號","OBJECTID":405398},"geometry":{"x":166640.76999999955,"y":2542921.6100000013}},{"attributes":{"ID":405423,"DIS_CODE":0,"TOWNNAME":"南區","LI":"文華里","LIN":"27鄰","STREET":"南樂街","SECT":" ","MAREA":" ","LANE":"１０３巷","ALLEY":" ","HOUSE_NO":"１７號","E_COORD97":166639.92000000001,"N_COORD97":2542916.8599999999,"ADDRESS":"南樂街１０３巷１７號","OBJECTID":405399},"geometry":{"x":166639.91999999993,"y":2542916.8600000013}},{"attributes":{"ID":405424,"DIS_CODE":0,"TOWNNAME":"南區","LI":"文華里","LIN":"27鄰","STREET":"南樂街","SECT":" ","MAREA":" ","LANE":"１０３巷","ALLEY":" ","HOUSE_NO":"１８號","E_COORD97":166639.70999999999,"N_COORD97":2542911.8700000001,"ADDRESS":"南樂街１０３巷１８號","OBJECTID":405400},"geometry":{"x":166639.70999999996,"y":2542911.8700000029}}]}