{"displayFieldName":"TOWNNAME","fieldAliases":{"ID":"ID","DIS_CODE":"DIS_CODE","TOWNNAME":"TOWNNAME","LI":"LI","LIN":"LIN","STREET":"STREET","SECT":"SECT","MAREA":"MAREA","LANE":"LANE","ALLEY":"ALLEY","HOUSE_NO":"HOUSE_NO","E_COORD97":"E_COORD97","N_COORD97":"N_COORD97","ADDRESS":"ADDRESS","OBJECTID":"OBJECTID"},"geometryType":"esriGeometryPoint","spatialReference":{"wkid":102443,"latestWkid":3826},"fields":[{"name":"ID","type":"esriFieldTypeDouble","alias":"ID"},{"name":"DIS_CODE","type":"esriFieldTypeInteger","alias":"DIS_CODE"},{"name":"TOWNNAME","type":"esriFieldTypeString","alias":"TOWNNAME","length":8},{"name":"LI","type":"esriFieldTypeString","alias":"LI","length":8},{"name":"LIN","type":"esriFieldTypeString","alias":"LIN","length":12},{"name":"STREET","type":"esriFieldTypeString","alias":"STREET","length":20},{"name":"SECT","type":"esriFieldTypeString","alias":"SECT","length":8},{"name":"MAREA","type":"esriFieldTypeString","alias":"MAREA","length":12},{"name":"LANE","type":"esriFieldTypeString","alias":"LANE","length":10},{"name":"ALLEY","type":"esriFieldTypeString","alias":"ALLEY","length":10},{"name":"HOUSE_NO","type":"esriFieldTypeString","alias":"HOUSE_NO","length":20},{"name":"E_COORD97","type":"esriFieldTypeDouble","alias":"E_COORD97"},{"name":"N_COORD97","type":"esriFieldTypeDouble","alias":"N_COORD97"},{"name":"ADDRESS","type":"esriFieldTypeString","alias":"ADDRESS","length":50},{"name":"OBJECTID","type":"esriFieldTypeOID","alias":"OBJECTID"}],"features":[{"attributes":{"ID":101201,"DIS_CODE":0,"TOWNNAME":"中西區","LI":"銀同里","LIN":"1鄰","STREET":"城隍街","SECT":" ","MAREA":" ","LANE":" ","ALLEY":" ","HOUSE_NO":"７之１號","E_COORD97":168803.98000000001,"N_COORD97":2543328.9199999999,"ADDRESS":"城隍街７之１號","OBJECTID":101201},"geometry":{"x":168803.98000000138,"y":2543328.9199999999}},{"attributes":{"ID":101202,"DIS_CODE":0,"TOWNNAME":"中西區","LI":"赤嵌里","LIN":"1鄰","STREET":"中山路","SECT":" ","MAREA":" ","LANE":" ","ALLEY":" ","HOUSE_NO":"１５５號","E_COORD97":169063.20000000001,"N_COORD97":2544086.71,"ADDRESS":"中山路１５５號","OBJECTID":101202},"geometry":{"x":169063.20000000205,"y":2544086.7100000009}},{"attributes":{"ID":101203,"DIS_CODE":0,"TOWNNAME":"中西區","LI":"赤嵌里","LIN":"1鄰","STREET":"中山路","SECT":" ","MAREA":" ","LANE":" ","ALLEY":" ","HOUSE_NO":"１５１號","E_COORD97":169026.04000000001,"N_COORD97":2544092.1299999999,"ADDRESS":"中山路１５１號","OBJECTID":101203},"geometry":{"x":169026.04000000004,"y":2544092.129999999}},{"attributes":{"ID":101204,"DIS_CODE":0,"TOWNNAME":"中西區","LI":"赤嵌里","LIN":"1鄰","STREET":"中山路","SECT":" ","MAREA":" ","LANE":" ","ALLEY":" ","HOUSE_NO":"１５３號","E_COORD97":169048.44,"N_COORD97":2544095.3399999999,"ADDRESS":"中山路１５３號","OBJECTID":101204},"geometry":{"x":169048.44000000134,"y":2544095.3399999999}},{"attributes":{"ID":101205,"DIS_CODE":0,"TOWNNAME":"永康區","LI":"尚頂里","LIN":"28鄰","STREET":"南台街","SECT":" ","MAREA":" ","LANE":"５４巷","ALLEY":"４１弄","HOUSE_NO":"２３號","E_COORD97":170239.76999999999,"N_COORD97":2547067.75,"ADDRESS":"南台街５４巷４１弄２３號","OBJECTID":101205},"geometry":{"x":170239.76999999955,"y":2547067.7500000019}},{"attributes":{"ID":101206,"DIS_CODE":0,"TOWNNAME":"永康區","LI":"西灣里","LIN":"50鄰","STREET":"大灣路","SECT":" ","MAREA":" ","LANE":"９４２巷","ALLEY":"５００弄","HOUSE_NO":"１０號","E_COORD97":173924.23000000001,"N_COORD97":2545827.54,"ADDRESS":"大灣路９４２巷５００弄１０號","OBJECTID":101206},"geometry":{"x":173924.23000000045,"y":2545827.540000001}},{"attributes":{"ID":101207,"DIS_CODE":0,"TOWNNAME":"永康區","LI":"西灣里","LIN":"14鄰","STREET":"民族路","SECT":" ","MAREA":" ","LANE":"４１５巷","ALLEY":"１８弄","HOUSE_NO":"２號","E_COORD97":174760.57999999999,"N_COORD97":2545316.02,"ADDRESS":"民族路４１５巷１８弄２號","OBJECTID":101207},"geometry":{"x":174760.58000000007,"y":2545316.0200000014}},{"attributes":{"ID":101208,"DIS_CODE":0,"TOWNNAME":"永康區","LI":"西勢里","LIN":"20鄰","STREET":"富強路","SECT":"一段","MAREA":" ","LANE":"１８５巷","ALLEY":"１０弄","HOUSE_NO":"２號","E_COORD97":175536.57999999999,"N_COORD97":2546452.5800000001,"ADDRESS":"富強路一段１８５巷１０弄２號","OBJECTID":101208},"geometry":{"x":175536.58000000101,"y":2546452.5800000019}},{"attributes":{"ID":101209,"DIS_CODE":0,"TOWNNAME":"永康區","LI":"尚頂里","LIN":"13鄰","STREET":"正南一街","SECT":" ","MAREA":" ","LANE":"１０７巷","ALLEY":"１３弄","HOUSE_NO":"１２號","E_COORD97":170945.57000000001,"N_COORD97":2547124.2400000002,"ADDRESS":"正南一街１０７巷１３弄１２號","OBJECTID":101209},"geometry":{"x":170945.5700000003,"y":2547124.2400000002}},{"attributes":{"ID":101210,"DIS_CODE":0,"TOWNNAME":"永康區","LI":"尚頂里","LIN":"15鄰","STREET":"中正南路","SECT":" ","MAREA":" ","LANE":"２４２巷","ALLEY":"４弄","HOUSE_NO":"９５號","E_COORD97":170574.87,"N_COORD97":2547386.5,"ADDRESS":"中正南路２４２巷４弄９５號","OBJECTID":101210},"geometry":{"x":170574.87000000011,"y":2547386.5}},{"attributes":{"ID":101211,"DIS_CODE":0,"TOWNNAME":"永康區","LI":"西勢里","LIN":"21鄰","STREET":"富強路","SECT":"一段","MAREA":" ","LANE":"９８巷","ALLEY":"５６弄","HOUSE_NO":"２１號","E_COORD97":175570.84,"N_COORD97":2546015.1499999999,"ADDRESS":"富強路一段９８巷５６弄２１號","OBJECTID":101211},"geometry":{"x":175570.83999999985,"y":2546015.1500000022}},{"attributes":{"ID":101212,"DIS_CODE":0,"TOWNNAME":"永康區","LI":"尚頂里","LIN":"13鄰","STREET":"正南一街","SECT":" ","MAREA":" ","LANE":"１０７巷","ALLEY":"１３弄","HOUSE_NO":"１１號","E_COORD97":170965.03,"N_COORD97":2547132.75,"ADDRESS":"正南一街１０７巷１３弄１１號","OBJECTID":101212},"geometry":{"x":170965.03000000119,"y":2547132.7500000019}},{"attributes":{"ID":101213,"DIS_CODE":0,"TOWNNAME":"永康區","LI":"西灣里","LIN":"33鄰","STREET":"公園路","SECT":" ","MAREA":" ","LANE":"１１７巷","ALLEY":"２弄","HOUSE_NO":"１０號","E_COORD97":174152.64999999999,"N_COORD97":2545904.4300000002,"ADDRESS":"公園路１１７巷２弄１０號","OBJECTID":101213},"geometry":{"x":174152.65000000224,"y":2545904.4299999997}},{"attributes":{"ID":101214,"DIS_CODE":0,"TOWNNAME":"永康區","LI":"西灣里","LIN":"33鄰","STREET":"公園路","SECT":" ","MAREA":" ","LANE":"１１７巷","ALLEY":"２弄","HOUSE_NO":"７號","E_COORD97":174159.03,"N_COORD97":2545891.0499999998,"ADDRESS":"公園路１１７巷２弄７號","OBJECTID":101214},"geometry":{"x":174159.03000000119,"y":2545891.0500000026}},{"attributes":{"ID":101215,"DIS_CODE":0,"TOWNNAME":"新化區","LI":"太平里","LIN":"4鄰","STREET":"民生路","SECT":" ","MAREA":" ","LANE":" ","ALLEY":" ","HOUSE_NO":"３２７號","E_COORD97":178890.41,"N_COORD97":2549218.25,"ADDRESS":"民生路３２７號","OBJECTID":101215},"geometry":{"x":178890.41000000201,"y":2549218.2500000019}},{"attributes":{"ID":101216,"DIS_CODE":0,"TOWNNAME":"新化區","LI":"全興里","LIN":"10鄰","STREET":" ","SECT":" ","MAREA":"竹子\u25A0","LANE":" ","ALLEY":" ","HOUSE_NO":"１７３號","E_COORD97":177473.73000000001,"N_COORD97":2547425.25,"ADDRESS":"竹子\u25A0１７３號","OBJECTID":101216},"geometry":{"x":177473.73000000138,"y":2547425.25}},{"attributes":{"ID":101217,"DIS_CODE":0,"TOWNNAME":"新化區","LI":"全興里","LIN":"10鄰","STREET":" ","SECT":" ","MAREA":"竹子\u25A0","LANE":" ","ALLEY":" ","HOUSE_NO":"１４４號","E_COORD97":177572.42999999999,"N_COORD97":2547579.25,"ADDRESS":"竹子\u25A0１４４號","OBJECTID":101217},"geometry":{"x":177572.4299999997,"y":2547579.2500000037}},{"attributes":{"ID":101218,"DIS_CODE":0,"TOWNNAME":"新化區","LI":"全興里","LIN":"10鄰","STREET":" ","SECT":" ","MAREA":"竹子\u25A0","LANE":" ","ALLEY":" ","HOUSE_NO":"１８４號","E_COORD97":177647.92999999999,"N_COORD97":2547594.25,"ADDRESS":"竹子\u25A0１８４號","OBJECTID":101218},"geometry":{"x":177647.93000000063,"y":2547594.2500000019}},{"attributes":{"ID":101219,"DIS_CODE":0,"TOWNNAME":"新化區","LI":"全興里","LIN":"10鄰","STREET":" ","SECT":" ","MAREA":"竹子\u25A0","LANE":" ","ALLEY":" ","HOUSE_NO":"１５５號","E_COORD97":177515.42999999999,"N_COORD97":2547567.25,"ADDRESS":"竹子\u25A0１５５號","OBJECTID":101219},"geometry":{"x":177515.43000000063,"y":2547567.25}},{"attributes":{"ID":101220,"DIS_CODE":0,"TOWNNAME":"新化區","LI":"全興里","LIN":"10鄰","STREET":" ","SECT":" ","MAREA":"竹子\u25A0","LANE":" ","ALLEY":" ","HOUSE_NO":"１５８號","E_COORD97":177537.53,"N_COORD97":2547541.25,"ADDRESS":"竹子\u25A0１５８號","OBJECTID":101220},"geometry":{"x":177537.53000000119,"y":2547541.25}},{"attributes":{"ID":101221,"DIS_CODE":0,"TOWNNAME":"新化區","LI":"全興里","LIN":"10鄰","STREET":" ","SECT":" ","MAREA":"竹子\u25A0","LANE":" ","ALLEY":" ","HOUSE_NO":"１８４號之７","E_COORD97":177670.17999999999,"N_COORD97":2547594.2599999998,"ADDRESS":"竹子\u25A0１８４號之７","OBJECTID":101221},"geometry":{"x":177670.1799999997,"y":2547594.2599999998}},{"attributes":{"ID":101222,"DIS_CODE":0,"TOWNNAME":"新化區","LI":"全興里","LIN":"10鄰","STREET":" ","SECT":" ","MAREA":"竹子\u25A0","LANE":" ","ALLEY":" ","HOUSE_NO":"１４２號之１","E_COORD97":177581.56,"N_COORD97":2547590.2599999998,"ADDRESS":"竹子\u25A0１４２號之１","OBJECTID":101222},"geometry":{"x":177581.55999999959,"y":2547590.2600000016}},{"attributes":{"ID":101223,"DIS_CODE":0,"TOWNNAME":"新化區","LI":"知義里","LIN":"10鄰","STREET":" ","SECT":" ","MAREA":"新和庄","LANE":" ","ALLEY":" ","HOUSE_NO":"２３８號","E_COORD97":181208.69,"N_COORD97":2547068.25,"ADDRESS":"新和庄２３８號","OBJECTID":101223},"geometry":{"x":181208.69000000041,"y":2547068.2500000019}},{"attributes":{"ID":101224,"DIS_CODE":0,"TOWNNAME":"新化區","LI":"唪口里","LIN":"10鄰","STREET":" ","SECT":" ","MAREA":"唪口","LANE":" ","ALLEY":" ","HOUSE_NO":"１４７號之１７","E_COORD97":177603.14000000001,"N_COORD97":2549223.2599999998,"ADDRESS":"唪口１４７號之１７","OBJECTID":101224},"geometry":{"x":177603.13999999966,"y":2549223.2600000035}},{"attributes":{"ID":101225,"DIS_CODE":0,"TOWNNAME":"新化區","LI":"山\u25A0里","LIN":"10鄰","STREET":" ","SECT":" ","MAREA":"五甲勢","LANE":" ","ALLEY":" ","HOUSE_NO":"４０號之１","E_COORD97":181636.41,"N_COORD97":2545791.2599999998,"ADDRESS":"五甲勢４０號之１","OBJECTID":101225},"geometry":{"x":181636.41000000015,"y":2545791.2599999998}},{"attributes":{"ID":101226,"DIS_CODE":0,"TOWNNAME":"永康區","LI":"西灣里","LIN":"33鄰","STREET":"公園路","SECT":" ","MAREA":" ","LANE":"１１７巷","ALLEY":"２弄","HOUSE_NO":"１４號","E_COORD97":174144.09,"N_COORD97":2545902.1800000002,"ADDRESS":"公園路１１７巷２弄１４號","OBJECTID":101226},"geometry":{"x":174144.09000000171,"y":2545902.1800000016}},{"attributes":{"ID":101227,"DIS_CODE":0,"TOWNNAME":"永康區","LI":"西勢里","LIN":"30鄰","STREET":"富強路","SECT":"一段","MAREA":" ","LANE":"２巷","ALLEY":"３１弄","HOUSE_NO":"７號","E_COORD97":175495.28,"N_COORD97":2545939.3700000001,"ADDRESS":"富強路一段２巷３１弄７號","OBJECTID":101227},"geometry":{"x":175495.28000000026,"y":2545939.3700000029}},{"attributes":{"ID":101228,"DIS_CODE":0,"TOWNNAME":"永康區","LI":"西勢里","LIN":"20鄰","STREET":"富強路","SECT":"一段","MAREA":" ","LANE":"１８５巷","ALLEY":"１０弄","HOUSE_NO":"１８號","E_COORD97":175550.85999999999,"N_COORD97":2546474.5699999998,"ADDRESS":"富強路一段１８５巷１０弄１８號","OBJECTID":101228},"geometry":{"x":175550.86000000034,"y":2546474.5700000003}},{"attributes":{"ID":101229,"DIS_CODE":0,"TOWNNAME":"永康區","LI":"西勢里","LIN":"30鄰","STREET":"富強路","SECT":"一段","MAREA":" ","LANE":"２巷","ALLEY":"３１弄","HOUSE_NO":"１３號","E_COORD97":175505.63,"N_COORD97":2545930.6299999999,"ADDRESS":"富強路一段２巷３１弄１３號","OBJECTID":101229},"geometry":{"x":175505.63000000082,"y":2545930.629999999}},{"attributes":{"ID":101230,"DIS_CODE":0,"TOWNNAME":"永康區","LI":"西勢里","LIN":"21鄰","STREET":"富強路","SECT":"一段","MAREA":" ","LANE":"９８巷","ALLEY":"５６弄","HOUSE_NO":"１９號","E_COORD97":175573.92999999999,"N_COORD97":2546018.3999999999,"ADDRESS":"富強路一段９８巷５６弄１９號","OBJECTID":101230},"geometry":{"x":175573.93000000156,"y":2546018.4000000004}},{"attributes":{"ID":101231,"DIS_CODE":0,"TOWNNAME":"永康區","LI":"尚頂里","LIN":"28鄰","STREET":"南台街","SECT":" ","MAREA":" ","LANE":"５４巷","ALLEY":"４１弄","HOUSE_NO":"２８號","E_COORD97":170261.57000000001,"N_COORD97":2547024.7400000002,"ADDRESS":"南台街５４巷４１弄２８號","OBJECTID":101231},"geometry":{"x":170261.57000000123,"y":2547024.7400000021}},{"attributes":{"ID":101232,"DIS_CODE":0,"TOWNNAME":"永康區","LI":"西勢里","LIN":"11鄰","STREET":"西勢路","SECT":" ","MAREA":" ","LANE":"１９９巷","ALLEY":"４９弄","HOUSE_NO":"５號","E_COORD97":175862.53,"N_COORD97":2546649.46,"ADDRESS":"西勢路１９９巷４９弄５號","OBJECTID":101232},"geometry":{"x":175862.53000000119,"y":2546649.459999999}},{"attributes":{"ID":101233,"DIS_CODE":0,"TOWNNAME":"永康區","LI":"西灣里","LIN":"49鄰","STREET":"永華路","SECT":" ","MAREA":" ","LANE":"２７３巷","ALLEY":"４弄","HOUSE_NO":"３０號","E_COORD97":174005.67999999999,"N_COORD97":2545879.5699999998,"ADDRESS":"永華路２７３巷４弄３０號","OBJECTID":101233},"geometry":{"x":174005.6799999997,"y":2545879.5700000022}},{"attributes":{"ID":101234,"DIS_CODE":0,"TOWNNAME":"永康區","LI":"西灣里","LIN":"32鄰","STREET":"國光八街","SECT":" ","MAREA":" ","LANE":"６０巷","ALLEY":"３弄","HOUSE_NO":"２４號","E_COORD97":174214.20000000001,"N_COORD97":2545820.6400000001,"ADDRESS":"國光八街６０巷３弄２４號","OBJECTID":101234},"geometry":{"x":174214.20000000019,"y":2545820.6399999987}},{"attributes":{"ID":101235,"DIS_CODE":0,"TOWNNAME":"永康區","LI":"西灣里","LIN":"46鄰","STREET":"永華路","SECT":" ","MAREA":" ","LANE":"２０１巷","ALLEY":"３２弄","HOUSE_NO":"３０號","E_COORD97":174034.10000000001,"N_COORD97":2545701.0800000001,"ADDRESS":"永華路２０１巷３２弄３０號","OBJECTID":101235},"geometry":{"x":174034.10000000056,"y":2545701.0800000001}},{"attributes":{"ID":101236,"DIS_CODE":0,"TOWNNAME":"永康區","LI":"西灣里","LIN":"33鄰","STREET":"公園路","SECT":" ","MAREA":" ","LANE":"１１７巷","ALLEY":"２弄","HOUSE_NO":"８號","E_COORD97":174156.01000000001,"N_COORD97":2545905.4300000002,"ADDRESS":"公園路１１７巷２弄８號","OBJECTID":101236},"geometry":{"x":174156.00999999978,"y":2545905.4299999997}},{"attributes":{"ID":101237,"DIS_CODE":0,"TOWNNAME":"永康區","LI":"西勢里","LIN":"21鄰","STREET":"富強路","SECT":"一段","MAREA":" ","LANE":"９８巷","ALLEY":"５６弄","HOUSE_NO":"１７號","E_COORD97":175576.95000000001,"N_COORD97":2546021.8999999999,"ADDRESS":"富強路一段９８巷５６弄１７號","OBJECTID":101237},"geometry":{"x":175576.95000000019,"y":2546021.9000000004}},{"attributes":{"ID":101238,"DIS_CODE":0,"TOWNNAME":"永康區","LI":"西灣里","LIN":"50鄰","STREET":"大灣路","SECT":" ","MAREA":" ","LANE":"９４２巷","ALLEY":"５００弄","HOUSE_NO":"９號","E_COORD97":173918.29999999999,"N_COORD97":2545840.9900000002,"ADDRESS":"大灣路９４２巷５００弄９號","OBJECTID":101238},"geometry":{"x":173918.29999999981,"y":2545840.9900000002}},{"attributes":{"ID":101239,"DIS_CODE":0,"TOWNNAME":"安南區","LI":"城南里","LIN":"1鄰","STREET":"城西街","SECT":"一段","MAREA":" ","LANE":" ","ALLEY":" ","HOUSE_NO":"９３之１號","E_COORD97":160653.17999999999,"N_COORD97":2551377.9500000002,"ADDRESS":"城西街一段９３之１號","OBJECTID":101239},"geometry":{"x":160653.18000000063,"y":2551377.9500000011}},{"attributes":{"ID":101240,"DIS_CODE":0,"TOWNNAME":"安南區","LI":"布袋里","LIN":"1鄰","STREET":"工明路","SECT":" ","MAREA":" ","LANE":" ","ALLEY":" ","HOUSE_NO":"９８號","E_COORD97":168986.73000000001,"N_COORD97":2551208.6400000001,"ADDRESS":"工明路９８號","OBJECTID":101240},"geometry":{"x":168986.73000000045,"y":2551208.6400000025}},{"attributes":{"ID":101241,"DIS_CODE":0,"TOWNNAME":"安南區","LI":"理想里","LIN":"1鄰","STREET":"海佃路","SECT":"二段","MAREA":" ","LANE":" ","ALLEY":" ","HOUSE_NO":"３６２之７號","E_COORD97":166862.64000000001,"N_COORD97":2548603.25,"ADDRESS":"海佃路二段３６２之７號","OBJECTID":101241},"geometry":{"x":166862.64000000153,"y":2548603.2500000019}},{"attributes":{"ID":101242,"DIS_CODE":0,"TOWNNAME":"安南區","LI":"理想里","LIN":"1鄰","STREET":"海佃路","SECT":"二段","MAREA":" ","LANE":" ","ALLEY":" ","HOUSE_NO":"３６２之８號","E_COORD97":166860.95000000001,"N_COORD97":2548607.27,"ADDRESS":"海佃路二段３６２之８號","OBJECTID":101242},"geometry":{"x":166860.94999999925,"y":2548607.2700000014}},{"attributes":{"ID":101243,"DIS_CODE":0,"TOWNNAME":"安南區","LI":"理想里","LIN":"1鄰","STREET":"海佃路","SECT":"二段","MAREA":" ","LANE":" ","ALLEY":" ","HOUSE_NO":"３６２之９號","E_COORD97":166858.20000000001,"N_COORD97":2548614.46,"ADDRESS":"海佃路二段３６２之９號","OBJECTID":101243},"geometry":{"x":166858.20000000112,"y":2548614.4600000009}},{"attributes":{"ID":101244,"DIS_CODE":0,"TOWNNAME":"安南區","LI":"理想里","LIN":"1鄰","STREET":"海佃路","SECT":"二段","MAREA":" ","LANE":" ","ALLEY":" ","HOUSE_NO":"３６２之１０號","E_COORD97":166855.23999999999,"N_COORD97":2548622.2999999998,"ADDRESS":"海佃路二段３６２之１０號","OBJECTID":101244},"geometry":{"x":166855.24000000022,"y":2548622.3000000007}},{"attributes":{"ID":101245,"DIS_CODE":0,"TOWNNAME":"新化區","LI":"太平里","LIN":"4鄰","STREET":"民生路","SECT":" ","MAREA":" ","LANE":" ","ALLEY":" ","HOUSE_NO":"２９７號","E_COORD97":178926.31,"N_COORD97":2549168.25,"ADDRESS":"民生路２９７號","OBJECTID":101245},"geometry":{"x":178926.31000000052,"y":2549168.25}},{"attributes":{"ID":101246,"DIS_CODE":0,"TOWNNAME":"新化區","LI":"唪口里","LIN":"4鄰","STREET":"大德路","SECT":" ","MAREA":" ","LANE":" ","ALLEY":" ","HOUSE_NO":"９０號之２１","E_COORD97":178117.45999999999,"N_COORD97":2549519.2599999998,"ADDRESS":"大德路９０號之２１","OBJECTID":101246},"geometry":{"x":178117.46000000089,"y":2549519.2600000016}},{"attributes":{"ID":101247,"DIS_CODE":0,"TOWNNAME":"新化區","LI":"東榮里","LIN":"25鄰","STREET":"中正路","SECT":" ","MAREA":" ","LANE":" ","ALLEY":" ","HOUSE_NO":"３０４號之１","E_COORD97":179174.54000000001,"N_COORD97":2547996.2599999998,"ADDRESS":"中正路３０４號之１","OBJECTID":101247},"geometry":{"x":179174.54000000097,"y":2547996.2600000016}},{"attributes":{"ID":101248,"DIS_CODE":0,"TOWNNAME":"新化區","LI":"東榮里","LIN":"25鄰","STREET":"中正路","SECT":" ","MAREA":" ","LANE":" ","ALLEY":" ","HOUSE_NO":"３０８號之１","E_COORD97":179169.14000000001,"N_COORD97":2548007.2599999998,"ADDRESS":"中正路３０８號之１","OBJECTID":101248},"geometry":{"x":179169.13999999966,"y":2548007.2600000016}},{"attributes":{"ID":101249,"DIS_CODE":0,"TOWNNAME":"新化區","LI":"太平里","LIN":"8鄰","STREET":"中正路","SECT":" ","MAREA":" ","LANE":" ","ALLEY":" ","HOUSE_NO":"６５０號","E_COORD97":178684.20999999999,"N_COORD97":2549384.25,"ADDRESS":"中正路６５０號","OBJECTID":101249},"geometry":{"x":178684.20999999996,"y":2549384.2500000019}},{"attributes":{"ID":101250,"DIS_CODE":0,"TOWNNAME":"新化區","LI":"清水里","LIN":"4鄰","STREET":"中山路","SECT":" ","MAREA":" ","LANE":" ","ALLEY":" ","HOUSE_NO":"４３８號","E_COORD97":178720.01000000001,"N_COORD97":2548418.25,"ADDRESS":"中山路４３８號","OBJECTID":101250},"geometry":{"x":178720.01000000071,"y":2548418.25}},{"attributes":{"ID":101251,"DIS_CODE":0,"TOWNNAME":"白河區","LI":"竹門里","LIN":"1鄰","STREET":" ","SECT":" ","MAREA":"竹子門","LANE":" ","ALLEY":" ","HOUSE_NO":"１５號","E_COORD97":193623.22,"N_COORD97":2585956.04,"ADDRESS":"竹子門１５號","OBJECTID":101251},"geometry":{"x":193623.22000000067,"y":2585956.040000001}},{"attributes":{"ID":101252,"DIS_CODE":0,"TOWNNAME":"新化區","LI":"唪口里","LIN":"10鄰","STREET":" ","SECT":" ","MAREA":"唪口","LANE":" ","ALLEY":" ","HOUSE_NO":"１５１號之５","E_COORD97":177624.91,"N_COORD97":2548985.2599999998,"ADDRESS":"唪口１５１號之５","OBJECTID":101252},"geometry":{"x":177624.91000000108,"y":2548985.2599999998}},{"attributes":{"ID":101253,"DIS_CODE":0,"TOWNNAME":"新化區","LI":"唪口里","LIN":"10鄰","STREET":" ","SECT":" ","MAREA":"唪口","LANE":" ","ALLEY":" ","HOUSE_NO":"１５５號之６","E_COORD97":177572,"N_COORD97":2548933.2599999998,"ADDRESS":"唪口１５５號之６","OBJECTID":101253},"geometry":{"x":177572,"y":2548933.2599999998}},{"attributes":{"ID":101254,"DIS_CODE":0,"TOWNNAME":"新化區","LI":"礁坑里","LIN":"10鄰","STREET":" ","SECT":" ","MAREA":"蔡厝仔","LANE":" ","ALLEY":" ","HOUSE_NO":"２６號","E_COORD97":184522.57000000001,"N_COORD97":2548764.25,"ADDRESS":"蔡厝仔２６號","OBJECTID":101254},"geometry":{"x":184522.57000000216,"y":2548764.25}},{"attributes":{"ID":101255,"DIS_CODE":0,"TOWNNAME":"新化區","LI":"礁坑里","LIN":"10鄰","STREET":" ","SECT":" ","MAREA":"蔡厝仔","LANE":" ","ALLEY":" ","HOUSE_NO":"２２號","E_COORD97":184546.57000000001,"N_COORD97":2548722.25,"ADDRESS":"蔡厝仔２２號","OBJECTID":101255},"geometry":{"x":184546.57000000123,"y":2548722.2500000019}},{"attributes":{"ID":101256,"DIS_CODE":0,"TOWNNAME":"新化區","LI":"礁坑里","LIN":"10鄰","STREET":" ","SECT":" ","MAREA":"蔡厝仔","LANE":" ","ALLEY":" ","HOUSE_NO":"２３號之１","E_COORD97":184534.39999999999,"N_COORD97":2548734.2599999998,"ADDRESS":"蔡厝仔２３號之１","OBJECTID":101256},"geometry":{"x":184534.4000000013,"y":2548734.2599999998}},{"attributes":{"ID":101257,"DIS_CODE":0,"TOWNNAME":"永康區","LI":"尚頂里","LIN":"15鄰","STREET":"中正南路","SECT":" ","MAREA":" ","LANE":"２４２巷","ALLEY":"４弄","HOUSE_NO":"９７號","E_COORD97":170574.07000000001,"N_COORD97":2547379.0099999998,"ADDRESS":"中正南路２４２巷４弄９７號","OBJECTID":101257},"geometry":{"x":170574.0700000003,"y":2547379.0099999998}},{"attributes":{"ID":101258,"DIS_CODE":0,"TOWNNAME":"安南區","LI":"新順里","LIN":"1鄰","STREET":"安豐六街","SECT":" ","MAREA":" ","LANE":" ","ALLEY":" ","HOUSE_NO":"５８號","E_COORD97":169400.29999999999,"N_COORD97":2549682.5899999999,"ADDRESS":"安豐六街５８號","OBJECTID":101258},"geometry":{"x":169400.29999999981,"y":2549682.5900000017}},{"attributes":{"ID":101259,"DIS_CODE":0,"TOWNNAME":"新化區","LI":"\u25A0拔里","LIN":"10鄰","STREET":" ","SECT":" ","MAREA":"牧場","LANE":" ","ALLEY":" ","HOUSE_NO":"８４號","E_COORD97":181866.73000000001,"N_COORD97":2551337.25,"ADDRESS":"牧場８４號","OBJECTID":101259},"geometry":{"x":181866.73000000045,"y":2551337.2500000019}},{"attributes":{"ID":101260,"DIS_CODE":0,"TOWNNAME":"新化區","LI":"礁坑里","LIN":"10鄰","STREET":" ","SECT":" ","MAREA":"蔡厝仔","LANE":" ","ALLEY":" ","HOUSE_NO":"３號","E_COORD97":184365.92000000001,"N_COORD97":2548752.25,"ADDRESS":"蔡厝仔３號","OBJECTID":101260},"geometry":{"x":184365.92000000086,"y":2548752.2500000037}},{"attributes":{"ID":101261,"DIS_CODE":0,"TOWNNAME":"新化區","LI":"全興里","LIN":"10鄰","STREET":" ","SECT":" ","MAREA":"竹子\u25A0","LANE":" ","ALLEY":" ","HOUSE_NO":"１３４號","E_COORD97":177572.73000000001,"N_COORD97":2547643.25,"ADDRESS":"竹子\u25A0１３４號","OBJECTID":101261},"geometry":{"x":177572.73000000045,"y":2547643.2499999981}},{"attributes":{"ID":101262,"DIS_CODE":0,"TOWNNAME":"新化區","LI":"全興里","LIN":"10鄰","STREET":" ","SECT":" ","MAREA":"竹子\u25A0","LANE":" ","ALLEY":" ","HOUSE_NO":"２２５號","E_COORD97":177820.73000000001,"N_COORD97":2547337.25,"ADDRESS":"竹子\u25A0２２５號","OBJECTID":101262},"geometry":{"x":177820.73000000138,"y":2547337.25}},{"attributes":{"ID":101263,"DIS_CODE":0,"TOWNNAME":"新化區","LI":"\u25A0拔里","LIN":"10鄰","STREET":" ","SECT":" ","MAREA":"牧場","LANE":" ","ALLEY":" ","HOUSE_NO":"８３號","E_COORD97":181879.82999999999,"N_COORD97":2551335.25,"ADDRESS":"牧場８３號","OBJECTID":101263},"geometry":{"x":181879.83000000101,"y":2551335.25}},{"attributes":{"ID":101264,"DIS_CODE":0,"TOWNNAME":"永康區","LI":"西灣里","LIN":"50鄰","STREET":"大灣路","SECT":" ","MAREA":" ","LANE":"９４２巷","ALLEY":"５００弄","HOUSE_NO":"１１號","E_COORD97":173923.39999999999,"N_COORD97":2545841.9900000002,"ADDRESS":"大灣路９４２巷５００弄１１號","OBJECTID":101264},"geometry":{"x":173923.40000000037,"y":2545841.9900000039}},{"attributes":{"ID":101265,"DIS_CODE":0,"TOWNNAME":"新化區","LI":"全興里","LIN":"10鄰","STREET":" ","SECT":" ","MAREA":"竹子\u25A0","LANE":" ","ALLEY":" ","HOUSE_NO":"１６１號之６","E_COORD97":177362.48000000001,"N_COORD97":2547363.2599999998,"ADDRESS":"竹子\u25A0１６１號之６","OBJECTID":101265},"geometry":{"x":177362.48000000045,"y":2547363.2600000016}},{"attributes":{"ID":101266,"DIS_CODE":0,"TOWNNAME":"新化區","LI":"\u25A0拔里","LIN":"10鄰","STREET":" ","SECT":" ","MAREA":"牧場","LANE":" ","ALLEY":" ","HOUSE_NO":"８８號之３","E_COORD97":181948.38,"N_COORD97":2551288.2599999998,"ADDRESS":"牧場８８號之３","OBJECTID":101266},"geometry":{"x":181948.38000000175,"y":2551288.2600000016}},{"attributes":{"ID":101267,"DIS_CODE":0,"TOWNNAME":"永康區","LI":"西橋里","LIN":"23鄰","STREET":"大橋三街","SECT":" ","MAREA":" ","LANE":"５７巷","ALLEY":"１９弄","HOUSE_NO":"３８號","E_COORD97":170449.45000000001,"N_COORD97":2546532.46,"ADDRESS":"大橋三街５７巷１９弄３８號","OBJECTID":101267},"geometry":{"x":170449.45000000019,"y":2546532.4600000028}},{"attributes":{"ID":101268,"DIS_CODE":0,"TOWNNAME":"永康區","LI":"西灣里","LIN":"50鄰","STREET":"大灣路","SECT":" ","MAREA":" ","LANE":"９４２巷","ALLEY":"５００弄","HOUSE_NO":"３９號","E_COORD97":173980.37,"N_COORD97":2545857.4900000002,"ADDRESS":"大灣路９４２巷５００弄３９號","OBJECTID":101268},"geometry":{"x":173980.37000000104,"y":2545857.4900000002}},{"attributes":{"ID":101269,"DIS_CODE":0,"TOWNNAME":"永康區","LI":"西灣里","LIN":"13鄰","STREET":"民族路","SECT":" ","MAREA":" ","LANE":"４６５巷","ALLEY":"１２弄","HOUSE_NO":"６號","E_COORD97":174602.29999999999,"N_COORD97":2545377.48,"ADDRESS":"民族路４６５巷１２弄６號","OBJECTID":101269},"geometry":{"x":174602.30000000075,"y":2545377.4800000042}},{"attributes":{"ID":101270,"DIS_CODE":0,"TOWNNAME":"永康區","LI":"尚頂里","LIN":"9鄰","STREET":"正南一街","SECT":" ","MAREA":" ","LANE":"１２９巷","ALLEY":"３８弄","HOUSE_NO":"２６號","E_COORD97":170745.19,"N_COORD97":2547242.6499999999,"ADDRESS":"正南一街１２９巷３８弄２６號","OBJECTID":101270},"geometry":{"x":170745.19000000227,"y":2547242.6500000022}},{"attributes":{"ID":101271,"DIS_CODE":0,"TOWNNAME":"永康區","LI":"東橋里","LIN":"9鄰","STREET":"中山南路","SECT":" ","MAREA":" ","LANE":"２３１巷","ALLEY":"２６弄","HOUSE_NO":"３號","E_COORD97":171565.12,"N_COORD97":2546317.7999999998,"ADDRESS":"中山南路２３１巷２６弄３號","OBJECTID":101271},"geometry":{"x":171565.12000000011,"y":2546317.8000000007}},{"attributes":{"ID":101272,"DIS_CODE":0,"TOWNNAME":"新化區","LI":"\u25A0拔里","LIN":"10鄰","STREET":" ","SECT":" ","MAREA":"牧場","LANE":" ","ALLEY":" ","HOUSE_NO":"９８號","E_COORD97":181869.73000000001,"N_COORD97":2551225.25,"ADDRESS":"牧場９８號","OBJECTID":101272},"geometry":{"x":181869.73000000045,"y":2551225.2500000019}},{"attributes":{"ID":101273,"DIS_CODE":0,"TOWNNAME":"永康區","LI":"東橋里","LIN":"9鄰","STREET":"中山南路","SECT":" ","MAREA":" ","LANE":"１９５巷","ALLEY":"２４弄","HOUSE_NO":"４號","E_COORD97":171533.89999999999,"N_COORD97":2546295.04,"ADDRESS":"中山南路１９５巷２４弄４號","OBJECTID":101273},"geometry":{"x":171533.9000000013,"y":2546295.040000001}},{"attributes":{"ID":101274,"DIS_CODE":0,"TOWNNAME":"永康區","LI":"尚頂里","LIN":"9鄰","STREET":"正南一街","SECT":" ","MAREA":" ","LANE":"１２９巷","ALLEY":"３８弄","HOUSE_NO":"２２號","E_COORD97":170747.32999999999,"N_COORD97":2547231.6800000002,"ADDRESS":"正南一街１２９巷３８弄２２號","OBJECTID":101274},"geometry":{"x":170747.33000000101,"y":2547231.6800000016}},{"attributes":{"ID":101275,"DIS_CODE":0,"TOWNNAME":"永康區","LI":"尚頂里","LIN":"9鄰","STREET":"正南一街","SECT":" ","MAREA":" ","LANE":"１２９巷","ALLEY":"３８弄","HOUSE_NO":"１７號","E_COORD97":170732.06,"N_COORD97":2547221.0699999998,"ADDRESS":"正南一街１２９巷３８弄１７號","OBJECTID":101275},"geometry":{"x":170732.06000000052,"y":2547221.0699999984}},{"attributes":{"ID":101276,"DIS_CODE":0,"TOWNNAME":"永康區","LI":"東橋里","LIN":"9鄰","STREET":"中山南路","SECT":" ","MAREA":" ","LANE":"１９５巷","ALLEY":"２４弄","HOUSE_NO":"２６號","E_COORD97":171550.16,"N_COORD97":2546336.7999999998,"ADDRESS":"中山南路１９５巷２４弄２６號","OBJECTID":101276},"geometry":{"x":171550.16000000201,"y":2546336.8000000026}},{"attributes":{"ID":101277,"DIS_CODE":0,"TOWNNAME":"永康區","LI":"東橋里","LIN":"9鄰","STREET":"中山南路","SECT":" ","MAREA":" ","LANE":"１９５巷","ALLEY":"２４弄","HOUSE_NO":"１０號","E_COORD97":171520.09,"N_COORD97":2546316.2999999998,"ADDRESS":"中山南路１９５巷２４弄１０號","OBJECTID":101277},"geometry":{"x":171520.09000000078,"y":2546316.3000000026}},{"attributes":{"ID":101278,"DIS_CODE":0,"TOWNNAME":"永康區","LI":"東橋里","LIN":"9鄰","STREET":"中山南路","SECT":" ","MAREA":" ","LANE":"１９５巷","ALLEY":"２４弄","HOUSE_NO":"２４號","E_COORD97":171545.56,"N_COORD97":2546334.2999999998,"ADDRESS":"中山南路１９５巷２４弄２４號","OBJECTID":101278},"geometry":{"x":171545.56000000052,"y":2546334.3000000007}},{"attributes":{"ID":101279,"DIS_CODE":0,"TOWNNAME":"永康區","LI":"西灣里","LIN":"42鄰","STREET":"大灣路","SECT":" ","MAREA":" ","LANE":"９４２巷","ALLEY":"４４９弄","HOUSE_NO":"２６號","E_COORD97":173855.51000000001,"N_COORD97":2545415.3500000001,"ADDRESS":"大灣路９４２巷４４９弄２６號","OBJECTID":101279},"geometry":{"x":173855.50999999978,"y":2545415.3500000015}},{"attributes":{"ID":101280,"DIS_CODE":0,"TOWNNAME":"永康區","LI":"西灣里","LIN":"46鄰","STREET":"永華路","SECT":" ","MAREA":" ","LANE":"２０１巷","ALLEY":"３２弄","HOUSE_NO":"３２號","E_COORD97":174030.10000000001,"N_COORD97":2545700.0800000001,"ADDRESS":"永華路２０１巷３２弄３２號","OBJECTID":101280},"geometry":{"x":174030.10000000149,"y":2545700.0800000019}},{"attributes":{"ID":101281,"DIS_CODE":0,"TOWNNAME":"永康區","LI":"西勢里","LIN":"7鄰","STREET":"富強路","SECT":"一段","MAREA":" ","LANE":"２７９巷","ALLEY":"７弄","HOUSE_NO":"２號","E_COORD97":175656.54999999999,"N_COORD97":2546600.1200000001,"ADDRESS":"富強路一段２７９巷７弄２號","OBJECTID":101281},"geometry":{"x":175656.55000000075,"y":2546600.120000001}},{"attributes":{"ID":101282,"DIS_CODE":0,"TOWNNAME":"永康區","LI":"尚頂里","LIN":"24鄰","STREET":"南台街","SECT":" ","MAREA":" ","LANE":"５４巷","ALLEY":"４５弄","HOUSE_NO":"２號","E_COORD97":170306.10000000001,"N_COORD97":2547128.2400000002,"ADDRESS":"南台街５４巷４５弄２號","OBJECTID":101282},"geometry":{"x":170306.10000000056,"y":2547128.2399999984}},{"attributes":{"ID":101283,"DIS_CODE":0,"TOWNNAME":"永康區","LI":"\u25A0行里","LIN":"34鄰","STREET":"中正北路","SECT":" ","MAREA":" ","LANE":"１７７巷","ALLEY":"２０弄","HOUSE_NO":"２８號","E_COORD97":172445.95000000001,"N_COORD97":2549245.23,"ADDRESS":"中正北路１７７巷２０弄２８號","OBJECTID":101283},"geometry":{"x":172445.95000000019,"y":2549245.2300000023}},{"attributes":{"ID":101284,"DIS_CODE":0,"TOWNNAME":"安南區","LI":"\u25A0南里","LIN":"9鄰","STREET":"安昌街","SECT":" ","MAREA":" ","LANE":"２７５巷","ALLEY":"５５弄","HOUSE_NO":"８之１８號","E_COORD97":169970.42000000001,"N_COORD97":2552637.7599999998,"ADDRESS":"安昌街２７５巷５５弄８之１８號","OBJECTID":101284},"geometry":{"x":169970.42000000086,"y":2552637.7600000016}},{"attributes":{"ID":101285,"DIS_CODE":0,"TOWNNAME":"安南區","LI":"\u25A0南里","LIN":"9鄰","STREET":"安昌街","SECT":" ","MAREA":" ","LANE":"２７５巷","ALLEY":"５５弄","HOUSE_NO":"８之１９號","E_COORD97":169972.20000000001,"N_COORD97":2552636.4900000002,"ADDRESS":"安昌街２７５巷５５弄８之１９號","OBJECTID":101285},"geometry":{"x":169972.20000000112,"y":2552636.4900000021}},{"attributes":{"ID":101286,"DIS_CODE":0,"TOWNNAME":"安南區","LI":"原佃里","LIN":"1鄰","STREET":"怡安路","SECT":"二段","MAREA":" ","LANE":"５１６巷","ALLEY":" ","HOUSE_NO":"１６８號","E_COORD97":167582.19,"N_COORD97":2549794.4199999999,"ADDRESS":"怡安路二段５１６巷１６８號","OBJECTID":101286},"geometry":{"x":167582.19000000134,"y":2549794.4199999999}},{"attributes":{"ID":101287,"DIS_CODE":0,"TOWNNAME":"永康區","LI":"大橋里","LIN":" ","STREET":"大橋一街","SECT":" ","MAREA":" ","LANE":"１０３巷","ALLEY":"６１弄","HOUSE_NO":"３８號","E_COORD97":170848.23000000001,"N_COORD97":2546596.3700000001,"ADDRESS":"大橋一街１０３巷６１弄３８號","OBJECTID":101287},"geometry":{"x":170848.23000000231,"y":2546596.3700000048}},{"attributes":{"ID":101288,"DIS_CODE":0,"TOWNNAME":"永康區","LI":"尚頂里","LIN":" ","STREET":"中正南路","SECT":" ","MAREA":" ","LANE":"２２０巷","ALLEY":"３０弄","HOUSE_NO":"４０號","E_COORD97":170236.70000000001,"N_COORD97":2547188.1800000002,"ADDRESS":"中正南路２２０巷３０弄４０號","OBJECTID":101288},"geometry":{"x":170236.70000000112,"y":2547188.1799999997}},{"attributes":{"ID":101289,"DIS_CODE":0,"TOWNNAME":"安南區","LI":"\u25A0南里","LIN":"9鄰","STREET":"安昌街","SECT":" ","MAREA":" ","LANE":"２７５巷","ALLEY":"５５弄","HOUSE_NO":"８之２０號","E_COORD97":169975.5,"N_COORD97":2552637.5,"ADDRESS":"安昌街２７５巷５５弄８之２０號","OBJECTID":101289},"geometry":{"x":169975.5,"y":2552637.5000000019}},{"attributes":{"ID":101290,"DIS_CODE":0,"TOWNNAME":"永康區","LI":"\u25A0行里","LIN":"41鄰","STREET":"永安路","SECT":" ","MAREA":" ","LANE":"１６５巷","ALLEY":"３０弄","HOUSE_NO":"１１號之５","E_COORD97":172448.85999999999,"N_COORD97":2549481.8100000001,"ADDRESS":"永安路１６５巷３０弄１１號之５","OBJECTID":101290},"geometry":{"x":172448.86000000034,"y":2549481.8100000024}},{"attributes":{"ID":101291,"DIS_CODE":0,"TOWNNAME":"安南區","LI":"原佃里","LIN":"9鄰","STREET":"本原街","SECT":"一段","MAREA":" ","LANE":"２８７巷","ALLEY":"１０２弄","HOUSE_NO":"１號","E_COORD97":167545.47,"N_COORD97":2550357.71,"ADDRESS":"本原街一段２８７巷１０２弄１號","OBJECTID":101291},"geometry":{"x":167545.47000000067,"y":2550357.7100000028}},{"attributes":{"ID":101292,"DIS_CODE":0,"TOWNNAME":"安南區","LI":"顯宮里","LIN":"1鄰","STREET":"顯宮二街","SECT":" ","MAREA":" ","LANE":" ","ALLEY":" ","HOUSE_NO":"８６號","E_COORD97":160483.39000000001,"N_COORD97":2548748.7400000002,"ADDRESS":"顯宮二街８６號","OBJECTID":101292},"geometry":{"x":160483.38999999966,"y":2548748.7400000002}},{"attributes":{"ID":101293,"DIS_CODE":0,"TOWNNAME":"白河區","LI":"甘宅里","LIN":"1鄰","STREET":" ","SECT":" ","MAREA":"甘宅","LANE":" ","ALLEY":" ","HOUSE_NO":"７號","E_COORD97":192594.01999999999,"N_COORD97":2586613.1899999999,"ADDRESS":"甘宅７號","OBJECTID":101293},"geometry":{"x":192594.01999999955,"y":2586613.1900000013}},{"attributes":{"ID":101294,"DIS_CODE":0,"TOWNNAME":"新化區","LI":"\u25A0拔里","LIN":"10鄰","STREET":" ","SECT":" ","MAREA":"牧場","LANE":" ","ALLEY":" ","HOUSE_NO":"８８號之１","E_COORD97":181920.56,"N_COORD97":2551292.2599999998,"ADDRESS":"牧場８８號之１","OBJECTID":101294},"geometry":{"x":181920.56000000052,"y":2551292.2600000016}},{"attributes":{"ID":101295,"DIS_CODE":0,"TOWNNAME":"新化區","LI":"\u25A0拔里","LIN":"10鄰","STREET":" ","SECT":" ","MAREA":"牧場","LANE":" ","ALLEY":" ","HOUSE_NO":"９３號","E_COORD97":181868.53,"N_COORD97":2551267.25,"ADDRESS":"牧場９３號","OBJECTID":101295},"geometry":{"x":181868.53000000119,"y":2551267.25}},{"attributes":{"ID":101296,"DIS_CODE":0,"TOWNNAME":"玉井區","LI":"層林里","LIN":"10鄰","STREET":" ","SECT":" ","MAREA":"層林","LANE":" ","ALLEY":" ","HOUSE_NO":"１１５之２號","E_COORD97":191601.81,"N_COORD97":2552999.8999999999,"ADDRESS":"層林１１５之２號","OBJECTID":101296},"geometry":{"x":191601.81000000052,"y":2552999.9000000041}},{"attributes":{"ID":101297,"DIS_CODE":0,"TOWNNAME":"新市區","LI":"永就里","LIN":"10鄰","STREET":" ","SECT":" ","MAREA":"永就","LANE":" ","ALLEY":" ","HOUSE_NO":"１３９之１７號","E_COORD97":177224.45000000001,"N_COORD97":2551404.5499999998,"ADDRESS":"永就１３９之１７號","OBJECTID":101297},"geometry":{"x":177224.45000000112,"y":2551404.5500000007}},{"attributes":{"ID":101298,"DIS_CODE":0,"TOWNNAME":"新市區","LI":"永就里","LIN":"10鄰","STREET":" ","SECT":" ","MAREA":"永就","LANE":" ","ALLEY":" ","HOUSE_NO":"１３９之３號","E_COORD97":177219.20000000001,"N_COORD97":2551390.5499999998,"ADDRESS":"永就１３９之３號","OBJECTID":101298},"geometry":{"x":177219.20000000112,"y":2551390.5500000007}},{"attributes":{"ID":101299,"DIS_CODE":0,"TOWNNAME":"新市區","LI":"永就里","LIN":"10鄰","STREET":" ","SECT":" ","MAREA":"永就","LANE":" ","ALLEY":" ","HOUSE_NO":"１１８之１號","E_COORD97":177442.09,"N_COORD97":2551498.5499999998,"ADDRESS":"永就１１８之１號","OBJECTID":101299},"geometry":{"x":177442.08999999985,"y":2551498.5500000026}},{"attributes":{"ID":101300,"DIS_CODE":0,"TOWNNAME":"安南區","LI":"安順里","LIN":"1鄰","STREET":"安和路","SECT":"三段","MAREA":" ","LANE":" ","ALLEY":" ","HOUSE_NO":"２４１號","E_COORD97":169924.35000000001,"N_COORD97":2550015.4700000002,"ADDRESS":"安和路三段２４１號","OBJECTID":101300},"geometry":{"x":169924.35000000149,"y":2550015.4700000007}},{"attributes":{"ID":101301,"DIS_CODE":0,"TOWNNAME":"安南區","LI":"安順里","LIN":"1鄰","STREET":"安和路","SECT":"三段","MAREA":" ","LANE":" ","ALLEY":" ","HOUSE_NO":"２４５號","E_COORD97":169926.82999999999,"N_COORD97":2550025.0099999998,"ADDRESS":"安和路三段２４５號","OBJECTID":101301},"geometry":{"x":169926.83000000101,"y":2550025.0100000035}},{"attributes":{"ID":101302,"DIS_CODE":0,"TOWNNAME":"新市區","LI":"三舍里","LIN":"10鄰","STREET":" ","SECT":" ","MAREA":"三舍","LANE":" ","ALLEY":" ","HOUSE_NO":"２１８之３０號","E_COORD97":177732.29000000001,"N_COORD97":2555908.2999999998,"ADDRESS":"三舍２１８之３０號","OBJECTID":101302},"geometry":{"x":177732.29000000097,"y":2555908.3000000007}},{"attributes":{"ID":101303,"DIS_CODE":0,"TOWNNAME":"新市區","LI":"永就里","LIN":"10鄰","STREET":" ","SECT":" ","MAREA":"永就","LANE":" ","ALLEY":" ","HOUSE_NO":"１３９之１１號","E_COORD97":177190.64999999999,"N_COORD97":2551379.5499999998,"ADDRESS":"永就１３９之１１號","OBJECTID":101303},"geometry":{"x":177190.6500000013,"y":2551379.5500000026}},{"attributes":{"ID":101304,"DIS_CODE":0,"TOWNNAME":"新市區","LI":"永就里","LIN":"10鄰","STREET":" ","SECT":" ","MAREA":"永就","LANE":" ","ALLEY":" ","HOUSE_NO":"１２０之１號","E_COORD97":177438.25,"N_COORD97":2551534.0499999998,"ADDRESS":"永就１２０之１號","OBJECTID":101304},"geometry":{"x":177438.25,"y":2551534.0500000007}},{"attributes":{"ID":101305,"DIS_CODE":0,"TOWNNAME":"新市區","LI":"永就里","LIN":"10鄰","STREET":" ","SECT":" ","MAREA":"永就","LANE":" ","ALLEY":" ","HOUSE_NO":"１２０之２號","E_COORD97":177433.84,"N_COORD97":2551532.5499999998,"ADDRESS":"永就１２０之２號","OBJECTID":101305},"geometry":{"x":177433.83999999985,"y":2551532.5500000026}},{"attributes":{"ID":101306,"DIS_CODE":0,"TOWNNAME":"新市區","LI":"永就里","LIN":"10鄰","STREET":" ","SECT":" ","MAREA":"永就","LANE":" ","ALLEY":" ","HOUSE_NO":"１３９之１２號","E_COORD97":177242.37,"N_COORD97":2551409.7999999998,"ADDRESS":"永就１３９之１２號","OBJECTID":101306},"geometry":{"x":177242.37000000011,"y":2551409.8000000007}},{"attributes":{"ID":101307,"DIS_CODE":0,"TOWNNAME":"新市區","LI":"永就里","LIN":"10鄰","STREET":" ","SECT":" ","MAREA":"永就","LANE":" ","ALLEY":" ","HOUSE_NO":"１３９之１８號","E_COORD97":177220.45000000001,"N_COORD97":2551402.7999999998,"ADDRESS":"永就１３９之１８號","OBJECTID":101307},"geometry":{"x":177220.45000000205,"y":2551402.8000000007}},{"attributes":{"ID":101308,"DIS_CODE":0,"TOWNNAME":"楠西區","LI":"照興里","LIN":"10鄰","STREET":" ","SECT":" ","MAREA":"興北","LANE":" ","ALLEY":" ","HOUSE_NO":"１３０號之１","E_COORD97":196705.75,"N_COORD97":2565147.2999999998,"ADDRESS":"興北１３０號之１","OBJECTID":101308},"geometry":{"x":196705.75,"y":2565147.3000000007}},{"attributes":{"ID":101309,"DIS_CODE":0,"TOWNNAME":"安南區","LI":"安順里","LIN":"1鄰","STREET":"安和路","SECT":"三段","MAREA":" ","LANE":" ","ALLEY":" ","HOUSE_NO":"２４７號","E_COORD97":169927.39999999999,"N_COORD97":2550028.2599999998,"ADDRESS":"安和路三段２４７號","OBJECTID":101309},"geometry":{"x":169927.40000000037,"y":2550028.2600000016}},{"attributes":{"ID":101310,"DIS_CODE":0,"TOWNNAME":"關廟區","LI":"深坑里","LIN":"10鄰","STREET":"深坑二街","SECT":" ","MAREA":" ","LANE":" ","ALLEY":" ","HOUSE_NO":"１０５號","E_COORD97":181772.26999999999,"N_COORD97":2537355.2999999998,"ADDRESS":"深坑二街１０５號","OBJECTID":101310},"geometry":{"x":181772.26999999955,"y":2537355.3000000026}},{"attributes":{"ID":101311,"DIS_CODE":0,"TOWNNAME":"楠西區","LI":"灣丘里","LIN":"10鄰","STREET":" ","SECT":" ","MAREA":"香蕉山","LANE":" ","ALLEY":" ","HOUSE_NO":"３１之１２號","E_COORD97":205053.94,"N_COORD97":2564987.2999999998,"ADDRESS":"香蕉山３１之１２號","OBJECTID":101311},"geometry":{"x":205053.94000000227,"y":2564987.3000000026}},{"attributes":{"ID":101312,"DIS_CODE":0,"TOWNNAME":"安南區","LI":"安順里","LIN":"1鄰","STREET":"安和路","SECT":"三段","MAREA":" ","LANE":" ","ALLEY":" ","HOUSE_NO":"２５１號","E_COORD97":169926.64000000001,"N_COORD97":2550035.5299999998,"ADDRESS":"安和路三段２５１號","OBJECTID":101312},"geometry":{"x":169926.6400000006,"y":2550035.5300000012}},{"attributes":{"ID":101313,"DIS_CODE":0,"TOWNNAME":"關廟區","LI":"埤頭里","LIN":"10鄰","STREET":"關新路","SECT":"二段","MAREA":" ","LANE":"５１巷","ALLEY":" ","HOUSE_NO":"３０號","E_COORD97":178989.76999999999,"N_COORD97":2544176.2999999998,"ADDRESS":"關新路二段５１巷３０號","OBJECTID":101313},"geometry":{"x":178989.77000000048,"y":2544176.3000000026}},{"attributes":{"ID":101314,"DIS_CODE":0,"TOWNNAME":"關廟區","LI":"埤頭里","LIN":"10鄰","STREET":"關新路","SECT":"二段","MAREA":" ","LANE":"５１巷","ALLEY":"１８弄","HOUSE_NO":"１０號","E_COORD97":179018.57000000001,"N_COORD97":2544218.2999999998,"ADDRESS":"關新路二段５１巷１８弄１０號","OBJECTID":101314},"geometry":{"x":179018.57000000123,"y":2544218.3000000007}},{"attributes":{"ID":101315,"DIS_CODE":0,"TOWNNAME":"關廟區","LI":"埤頭里","LIN":"10鄰","STREET":"關新路","SECT":"二段","MAREA":" ","LANE":"５１巷","ALLEY":"１８弄","HOUSE_NO":"１８號","E_COORD97":179002.47,"N_COORD97":2544232.2999999998,"ADDRESS":"關新路二段５１巷１８弄１８號","OBJECTID":101315},"geometry":{"x":179002.46999999974,"y":2544232.3000000007}},{"attributes":{"ID":101316,"DIS_CODE":0,"TOWNNAME":"關廟區","LI":"埤頭里","LIN":"10鄰","STREET":"關新路","SECT":"二段","MAREA":" ","LANE":"５１巷","ALLEY":" ","HOUSE_NO":"４０號","E_COORD97":178971.76999999999,"N_COORD97":2544176.2999999998,"ADDRESS":"關新路二段５１巷４０號","OBJECTID":101316},"geometry":{"x":178971.76999999955,"y":2544176.3000000026}},{"attributes":{"ID":101317,"DIS_CODE":0,"TOWNNAME":"關廟區","LI":"埤頭里","LIN":"10鄰","STREET":"關新路","SECT":"二段","MAREA":" ","LANE":"５１巷","ALLEY":"１８弄","HOUSE_NO":"１６號","E_COORD97":179018.57000000001,"N_COORD97":2544233.2999999998,"ADDRESS":"關新路二段５１巷１８弄１６號","OBJECTID":101317},"geometry":{"x":179018.57000000123,"y":2544233.3000000045}},{"attributes":{"ID":101318,"DIS_CODE":0,"TOWNNAME":"關廟區","LI":"埤頭里","LIN":"10鄰","STREET":"關新路","SECT":"二段","MAREA":" ","LANE":"５１巷","ALLEY":" ","HOUSE_NO":"１２號","E_COORD97":179048.17000000001,"N_COORD97":2544202.2999999998,"ADDRESS":"關新路二段５１巷１２號","OBJECTID":101318},"geometry":{"x":179048.17000000086,"y":2544202.3000000007}},{"attributes":{"ID":101319,"DIS_CODE":0,"TOWNNAME":"白河區","LI":"甘宅里","LIN":"1鄰","STREET":" ","SECT":" ","MAREA":"甘宅","LANE":" ","ALLEY":" ","HOUSE_NO":"９號","E_COORD97":192619.07000000001,"N_COORD97":2586603.48,"ADDRESS":"甘宅９號","OBJECTID":101319},"geometry":{"x":192619.07000000123,"y":2586603.4800000004}},{"attributes":{"ID":101320,"DIS_CODE":0,"TOWNNAME":"白河區","LI":"竹門里","LIN":"1鄰","STREET":" ","SECT":" ","MAREA":"竹子門","LANE":" ","ALLEY":" ","HOUSE_NO":"８之１號","E_COORD97":193626.14999999999,"N_COORD97":2585923.4700000002,"ADDRESS":"竹子門８之１號","OBJECTID":101320},"geometry":{"x":193626.15000000037,"y":2585923.4700000044}},{"attributes":{"ID":101321,"DIS_CODE":0,"TOWNNAME":"白河區","LI":"竹門里","LIN":"1鄰","STREET":" ","SECT":" ","MAREA":"竹子門","LANE":" ","ALLEY":" ","HOUSE_NO":"８之２號","E_COORD97":193642.10000000001,"N_COORD97":2585907.1099999999,"ADDRESS":"竹子門８之２號","OBJECTID":101321},"geometry":{"x":193642.10000000056,"y":2585907.1099999994}},{"attributes":{"ID":101322,"DIS_CODE":0,"TOWNNAME":"白河區","LI":"竹門里","LIN":"1鄰","STREET":" ","SECT":" ","MAREA":"竹子門","LANE":" ","ALLEY":" ","HOUSE_NO":"８之３號","E_COORD97":193624.70999999999,"N_COORD97":2585906.4399999999,"ADDRESS":"竹子門８之３號","OBJECTID":101322},"geometry":{"x":193624.71000000089,"y":2585906.4400000013}},{"attributes":{"ID":101323,"DIS_CODE":0,"TOWNNAME":"白河區","LI":"竹門里","LIN":"1鄰","STREET":" ","SECT":" ","MAREA":"竹子門","LANE":" ","ALLEY":" ","HOUSE_NO":"８號","E_COORD97":193610.14000000001,"N_COORD97":2585907.6699999999,"ADDRESS":"竹子門８號","OBJECTID":101323},"geometry":{"x":193610.1400000006,"y":2585907.6700000037}},{"attributes":{"ID":101324,"DIS_CODE":0,"TOWNNAME":"安南區","LI":"原佃里","LIN":"9鄰","STREET":"本原街","SECT":"一段","MAREA":" ","LANE":"２８７巷","ALLEY":"１０２弄","HOUSE_NO":"３號","E_COORD97":167545.73000000001,"N_COORD97":2550362.1499999999,"ADDRESS":"本原街一段２８７巷１０２弄３號","OBJECTID":101324},"geometry":{"x":167545.73000000045,"y":2550362.1500000004}},{"attributes":{"ID":101325,"DIS_CODE":0,"TOWNNAME":"白河區","LI":"竹門里","LIN":"1鄰","STREET":" ","SECT":" ","MAREA":"竹子門","LANE":" ","ALLEY":" ","HOUSE_NO":"１０號","E_COORD97":193572.48000000001,"N_COORD97":2585922.2200000002,"ADDRESS":"竹子門１０號","OBJECTID":101325},"geometry":{"x":193572.48000000138,"y":2585922.2200000025}},{"attributes":{"ID":101326,"DIS_CODE":0,"TOWNNAME":"白河區","LI":"竹門里","LIN":"1鄰","STREET":" ","SECT":" ","MAREA":"竹子門","LANE":" ","ALLEY":" ","HOUSE_NO":"１４號","E_COORD97":193619.35000000001,"N_COORD97":2585967.04,"ADDRESS":"竹子門１４號","OBJECTID":101326},"geometry":{"x":193619.34999999963,"y":2585967.040000001}},{"attributes":{"ID":101327,"DIS_CODE":0,"TOWNNAME":"白河區","LI":"竹門里","LIN":"1鄰","STREET":" ","SECT":" ","MAREA":"竹子門","LANE":" ","ALLEY":" ","HOUSE_NO":"１１之２號","E_COORD97":193613.35000000001,"N_COORD97":2585946.02,"ADDRESS":"竹子門１１之２號","OBJECTID":101327},"geometry":{"x":193613.35000000056,"y":2585946.0200000014}},{"attributes":{"ID":101328,"DIS_CODE":0,"TOWNNAME":"白河區","LI":"竹門里","LIN":"1鄰","STREET":" ","SECT":" ","MAREA":"竹子門","LANE":" ","ALLEY":" ","HOUSE_NO":"１１號","E_COORD97":193574.42999999999,"N_COORD97":2585946.9700000002,"ADDRESS":"竹子門１１號","OBJECTID":101328},"geometry":{"x":193574.4299999997,"y":2585946.9699999988}},{"attributes":{"ID":101329,"DIS_CODE":0,"TOWNNAME":"安南區","LI":"原佃里","LIN":"9鄰","STREET":"本原街","SECT":"一段","MAREA":" ","LANE":"２８７巷","ALLEY":"１０２弄","HOUSE_NO":"５號","E_COORD97":167546.60999999999,"N_COORD97":2550366.2200000002,"ADDRESS":"本原街一段２８７巷１０２弄５號","OBJECTID":101329},"geometry":{"x":167546.6099999994,"y":2550366.2200000007}},{"attributes":{"ID":101330,"DIS_CODE":0,"TOWNNAME":"安南區","LI":"原佃里","LIN":"9鄰","STREET":"本原街","SECT":"一段","MAREA":" ","LANE":"２８７巷","ALLEY":"１０２弄","HOUSE_NO":"７號","E_COORD97":167547.5,"N_COORD97":2550369.52,"ADDRESS":"本原街一段２８７巷１０２弄７號","OBJECTID":101330},"geometry":{"x":167547.50000000093,"y":2550369.5199999996}},{"attributes":{"ID":101331,"DIS_CODE":0,"TOWNNAME":"安南區","LI":"原佃里","LIN":"9鄰","STREET":"本原街","SECT":"一段","MAREA":" ","LANE":"２８７巷","ALLEY":"１０２弄","HOUSE_NO":"９號","E_COORD97":167547.88,"N_COORD97":2550373.71,"ADDRESS":"本原街一段２８７巷１０２弄９號","OBJECTID":101331},"geometry":{"x":167547.88000000175,"y":2550373.709999999}},{"attributes":{"ID":101332,"DIS_CODE":0,"TOWNNAME":"安南區","LI":"原佃里","LIN":"9鄰","STREET":"本原街","SECT":"一段","MAREA":" ","LANE":"２８７巷","ALLEY":"１０２弄","HOUSE_NO":"１１號","E_COORD97":167548.51999999999,"N_COORD97":2550378.1600000001,"ADDRESS":"本原街一段２８７巷１０２弄１１號","OBJECTID":101332},"geometry":{"x":167548.52000000048,"y":2550378.160000002}},{"attributes":{"ID":101333,"DIS_CODE":0,"TOWNNAME":"安南區","LI":"原佃里","LIN":"9鄰","STREET":"本原街","SECT":"一段","MAREA":" ","LANE":"２８７巷","ALLEY":"１０２弄","HOUSE_NO":"１３號","E_COORD97":167548.89999999999,"N_COORD97":2550382.73,"ADDRESS":"本原街一段２８７巷１０２弄１３號","OBJECTID":101333},"geometry":{"x":167548.9000000013,"y":2550382.7300000004}},{"attributes":{"ID":101334,"DIS_CODE":0,"TOWNNAME":"安南區","LI":"原佃里","LIN":"9鄰","STREET":"本原街","SECT":"一段","MAREA":" ","LANE":"２８７巷","ALLEY":"１０２弄","HOUSE_NO":"１５號","E_COORD97":167549.54000000001,"N_COORD97":2550386.79,"ADDRESS":"本原街一段２８７巷１０２弄１５號","OBJECTID":101334},"geometry":{"x":167549.54000000004,"y":2550386.7899999991}},{"attributes":{"ID":101335,"DIS_CODE":0,"TOWNNAME":"安南區","LI":"溪心里","LIN":"9鄰","STREET":"海環街","SECT":" ","MAREA":" ","LANE":"７１５巷","ALLEY":"４１弄","HOUSE_NO":"１９號","E_COORD97":166403.39000000001,"N_COORD97":2549334.4500000002,"ADDRESS":"海環街７１５巷４１弄１９號","OBJECTID":101335},"geometry":{"x":166403.3900000006,"y":2549334.4500000011}},{"attributes":{"ID":101336,"DIS_CODE":0,"TOWNNAME":"永康區","LI":"五王里","LIN":" ","STREET":"中華二路","SECT":" ","MAREA":" ","LANE":"２０６巷","ALLEY":"６８弄","HOUSE_NO":"８０號","E_COORD97":171703.60000000001,"N_COORD97":2545671,"ADDRESS":"中華二路２０６巷６８弄８０號","OBJECTID":101336},"geometry":{"x":171703.59999999963,"y":2545671}},{"attributes":{"ID":101337,"DIS_CODE":0,"TOWNNAME":"永康區","LI":"五王里","LIN":"4鄰","STREET":"中華二路","SECT":" ","MAREA":" ","LANE":"２０６巷","ALLEY":"３０弄","HOUSE_NO":"１１號","E_COORD97":171663.35000000001,"N_COORD97":2545584.5499999998,"ADDRESS":"中華二路２０６巷３０弄１１號","OBJECTID":101337},"geometry":{"x":171663.34999999963,"y":2545584.5500000026}},{"attributes":{"ID":101338,"DIS_CODE":0,"TOWNNAME":"安南區","LI":"\u25A0南里","LIN":"9鄰","STREET":"安昌街","SECT":" ","MAREA":" ","LANE":"２７５巷","ALLEY":"５５弄","HOUSE_NO":"８之２號","E_COORD97":169999.13,"N_COORD97":2552641.4399999999,"ADDRESS":"安昌街２７５巷５５弄８之２號","OBJECTID":101338},"geometry":{"x":169999.13000000175,"y":2552641.4399999995}},{"attributes":{"ID":101339,"DIS_CODE":0,"TOWNNAME":"永康區","LI":"永康里","LIN":"1鄰","STREET":"中山北路","SECT":" ","MAREA":" ","LANE":" ","ALLEY":" ","HOUSE_NO":"９９號","E_COORD97":174064.75,"N_COORD97":2547456.0499999998,"ADDRESS":"中山北路９９號","OBJECTID":101339},"geometry":{"x":174064.75,"y":2547456.0500000026}},{"attributes":{"ID":101340,"DIS_CODE":0,"TOWNNAME":"永康區","LI":"永康里","LIN":"1鄰","STREET":"中山北路","SECT":" ","MAREA":" ","LANE":" ","ALLEY":" ","HOUSE_NO":"８９號","E_COORD97":174050.45000000001,"N_COORD97":2547442.0699999998,"ADDRESS":"中山北路８９號","OBJECTID":101340},"geometry":{"x":174050.45000000205,"y":2547442.0700000022}},{"attributes":{"ID":101341,"DIS_CODE":0,"TOWNNAME":"安南區","LI":"\u25A0南里","LIN":"9鄰","STREET":"安昌街","SECT":" ","MAREA":" ","LANE":"２７５巷","ALLEY":"５５弄","HOUSE_NO":"８之３號","E_COORD97":169996.32999999999,"N_COORD97":2552642.3300000001,"ADDRESS":"安昌街２７５巷５５弄８之３號","OBJECTID":101341},"geometry":{"x":169996.33000000101,"y":2552642.3300000001}},{"attributes":{"ID":101342,"DIS_CODE":0,"TOWNNAME":"安南區","LI":"\u25A0南里","LIN":"9鄰","STREET":"安昌街","SECT":" ","MAREA":" ","LANE":"２７５巷","ALLEY":"５５弄","HOUSE_NO":"８之５號","E_COORD97":169994.29999999999,"N_COORD97":2552641.3100000001,"ADDRESS":"安昌街２７５巷５５弄８之５號","OBJECTID":101342},"geometry":{"x":169994.29999999888,"y":2552641.3100000042}},{"attributes":{"ID":101343,"DIS_CODE":0,"TOWNNAME":"永康區","LI":"永康里","LIN":"1鄰","STREET":"中山北路","SECT":" ","MAREA":" ","LANE":" ","ALLEY":" ","HOUSE_NO":"９１號","E_COORD97":174053.78,"N_COORD97":2547445.3199999998,"ADDRESS":"中山北路９１號","OBJECTID":101343},"geometry":{"x":174053.78000000119,"y":2547445.3200000003}},{"attributes":{"ID":101344,"DIS_CODE":0,"TOWNNAME":"安南區","LI":"\u25A0南里","LIN":"9鄰","STREET":"安昌街","SECT":" ","MAREA":" ","LANE":"２７５巷","ALLEY":"５５弄","HOUSE_NO":"８之６號","E_COORD97":169992.14000000001,"N_COORD97":2552642.46,"ADDRESS":"安昌街２７５巷５５弄８之６號","OBJECTID":101344},"geometry":{"x":169992.1400000006,"y":2552642.4600000009}},{"attributes":{"ID":101345,"DIS_CODE":0,"TOWNNAME":"永康區","LI":"六合里","LIN":"1鄰","STREET":"新興街","SECT":" ","MAREA":" ","LANE":" ","ALLEY":" ","HOUSE_NO":"２號","E_COORD97":170907.23000000001,"N_COORD97":2545758.6899999999,"ADDRESS":"新興街２號","OBJECTID":101345},"geometry":{"x":170907.23000000045,"y":2545758.6900000013}},{"attributes":{"ID":101346,"DIS_CODE":0,"TOWNNAME":"永康區","LI":"北灣里","LIN":"1鄰","STREET":"文賢街","SECT":" ","MAREA":" ","LANE":" ","ALLEY":" ","HOUSE_NO":"１９５號","E_COORD97":175356.60000000001,"N_COORD97":2545493.8100000001,"ADDRESS":"文賢街１９５號","OBJECTID":101346},"geometry":{"x":175356.60000000056,"y":2545493.8100000005}},{"attributes":{"ID":101347,"DIS_CODE":0,"TOWNNAME":"安南區","LI":"\u25A0南里","LIN":"9鄰","STREET":"安昌街","SECT":" ","MAREA":" ","LANE":"２７５巷","ALLEY":"５５弄","HOUSE_NO":"８之７號","E_COORD97":169990.23999999999,"N_COORD97":2552641.0600000001,"ADDRESS":"安昌街２７５巷５５弄８之７號","OBJECTID":101347},"geometry":{"x":169990.24000000209,"y":2552641.0600000005}},{"attributes":{"ID":101348,"DIS_CODE":0,"TOWNNAME":"永康區","LI":"永康里","LIN":"1鄰","STREET":"永埔街","SECT":" ","MAREA":" ","LANE":" ","ALLEY":" ","HOUSE_NO":"２１號","E_COORD97":173994.25,"N_COORD97":2547524.2999999998,"ADDRESS":"永埔街２１號","OBJECTID":101348},"geometry":{"x":173994.25000000093,"y":2547524.3000000007}},{"attributes":{"ID":101349,"DIS_CODE":0,"TOWNNAME":"安南區","LI":"\u25A0南里","LIN":"9鄰","STREET":"安昌街","SECT":" ","MAREA":" ","LANE":"２７５巷","ALLEY":"５５弄","HOUSE_NO":"８之８號","E_COORD97":169988.59,"N_COORD97":2552642.46,"ADDRESS":"安昌街２７５巷５５弄８之８號","OBJECTID":101349},"geometry":{"x":169988.58999999985,"y":2552642.4600000009}},{"attributes":{"ID":101350,"DIS_CODE":0,"TOWNNAME":"安南區","LI":"\u25A0南里","LIN":"9鄰","STREET":"安昌街","SECT":" ","MAREA":" ","LANE":"２７５巷","ALLEY":"５５弄","HOUSE_NO":"８之９號","E_COORD97":169986.94,"N_COORD97":2552641.0600000001,"ADDRESS":"安昌街２７５巷５５弄８之９號","OBJECTID":101350},"geometry":{"x":169986.94000000041,"y":2552641.0600000005}},{"attributes":{"ID":101351,"DIS_CODE":0,"TOWNNAME":"安南區","LI":"\u25A0南里","LIN":"9鄰","STREET":"安昌街","SECT":" ","MAREA":" ","LANE":"２７５巷","ALLEY":"５５弄","HOUSE_NO":"８之１０號","E_COORD97":169985.41,"N_COORD97":2552642.46,"ADDRESS":"安昌街２７５巷５５弄８之１０號","OBJECTID":101351},"geometry":{"x":169985.40999999922,"y":2552642.4600000009}},{"attributes":{"ID":101352,"DIS_CODE":0,"TOWNNAME":"安南區","LI":"\u25A0南里","LIN":"9鄰","STREET":"安昌街","SECT":" ","MAREA":" ","LANE":"２７５巷","ALLEY":"５５弄","HOUSE_NO":"８之１１號","E_COORD97":169983.25,"N_COORD97":2552641.0600000001,"ADDRESS":"安昌街２７５巷５５弄８之１１號","OBJECTID":101352},"geometry":{"x":169983.25000000093,"y":2552641.0600000005}},{"attributes":{"ID":101353,"DIS_CODE":0,"TOWNNAME":"安南區","LI":"\u25A0南里","LIN":"9鄰","STREET":"安昌街","SECT":" ","MAREA":" ","LANE":"２７５巷","ALLEY":"５５弄","HOUSE_NO":"８之１２號","E_COORD97":169980.07999999999,"N_COORD97":2552642.5800000001,"ADDRESS":"安昌街２７５巷５５弄８之１２號","OBJECTID":101353},"geometry":{"x":169980.08000000007,"y":2552642.5800000019}},{"attributes":{"ID":101354,"DIS_CODE":0,"TOWNNAME":"安南區","LI":"\u25A0南里","LIN":"9鄰","STREET":"安昌街","SECT":" ","MAREA":" ","LANE":"２７５巷","ALLEY":"５５弄","HOUSE_NO":"８之１３號","E_COORD97":169977.54000000001,"N_COORD97":2552640.9300000002,"ADDRESS":"安昌街２７５巷５５弄８之１３號","OBJECTID":101354},"geometry":{"x":169977.54000000004,"y":2552640.9300000016}},{"attributes":{"ID":101355,"DIS_CODE":0,"TOWNNAME":"白河區","LI":"竹門里","LIN":"1鄰","STREET":" ","SECT":" ","MAREA":"竹子門","LANE":" ","ALLEY":" ","HOUSE_NO":"３之１號","E_COORD97":193629.14000000001,"N_COORD97":2585843.4900000002,"ADDRESS":"竹子門３之１號","OBJECTID":101355},"geometry":{"x":193629.13999999966,"y":2585843.4900000002}},{"attributes":{"ID":101356,"DIS_CODE":0,"TOWNNAME":"白河區","LI":"竹門里","LIN":"1鄰","STREET":" ","SECT":" ","MAREA":"竹子門","LANE":" ","ALLEY":" ","HOUSE_NO":"３之３號","E_COORD97":193613.70000000001,"N_COORD97":2585840.2400000002,"ADDRESS":"竹子門３之３號","OBJECTID":101356},"geometry":{"x":193613.70000000112,"y":2585840.2400000021}},{"attributes":{"ID":101357,"DIS_CODE":0,"TOWNNAME":"白河區","LI":"竹門里","LIN":"1鄰","STREET":" ","SECT":" ","MAREA":"竹子門","LANE":" ","ALLEY":" ","HOUSE_NO":"３之５號","E_COORD97":193651.14000000001,"N_COORD97":2585817.3399999999,"ADDRESS":"竹子門３之５號","OBJECTID":101357},"geometry":{"x":193651.13999999966,"y":2585817.3399999999}},{"attributes":{"ID":101358,"DIS_CODE":0,"TOWNNAME":"白河區","LI":"竹門里","LIN":"1鄰","STREET":" ","SECT":" ","MAREA":"竹子門","LANE":" ","ALLEY":" ","HOUSE_NO":"３之６號","E_COORD97":193689.76000000001,"N_COORD97":2585747.48,"ADDRESS":"竹子門３之６號","OBJECTID":101358},"geometry":{"x":193689.75999999978,"y":2585747.4800000023}},{"attributes":{"ID":101359,"DIS_CODE":0,"TOWNNAME":"白河區","LI":"竹門里","LIN":"1鄰","STREET":" ","SECT":" ","MAREA":"竹子門","LANE":" ","ALLEY":" ","HOUSE_NO":"３號","E_COORD97":193636.53,"N_COORD97":2585844.1699999999,"ADDRESS":"竹子門３號","OBJECTID":101359},"geometry":{"x":193636.53000000119,"y":2585844.1700000018}},{"attributes":{"ID":101360,"DIS_CODE":0,"TOWNNAME":"白河區","LI":"竹門里","LIN":"1鄰","STREET":" ","SECT":" ","MAREA":"竹子門","LANE":" ","ALLEY":" ","HOUSE_NO":"７之１號","E_COORD97":193653.26000000001,"N_COORD97":2585877.7799999998,"ADDRESS":"竹子門７之１號","OBJECTID":101360},"geometry":{"x":193653.26000000071,"y":2585877.7799999993}},{"attributes":{"ID":101361,"DIS_CODE":0,"TOWNNAME":"白河區","LI":"竹門里","LIN":"1鄰","STREET":" ","SECT":" ","MAREA":"竹子門","LANE":" ","ALLEY":" ","HOUSE_NO":"７號","E_COORD97":193624.95999999999,"N_COORD97":2585882.9900000002,"ADDRESS":"竹子門７號","OBJECTID":101361},"geometry":{"x":193624.96000000089,"y":2585882.9900000021}},{"attributes":{"ID":101362,"DIS_CODE":0,"TOWNNAME":"關廟區","LI":"埤頭里","LIN":"10鄰","STREET":"關新路","SECT":"二段","MAREA":" ","LANE":"５１巷","ALLEY":" ","HOUSE_NO":"３９號","E_COORD97":178949.87,"N_COORD97":2544151.2999999998,"ADDRESS":"關新路二段５１巷３９號","OBJECTID":101362},"geometry":{"x":178949.87000000197,"y":2544151.3000000007}},{"attributes":{"ID":101363,"DIS_CODE":0,"TOWNNAME":"關廟區","LI":"布袋里","LIN":"10鄰","STREET":"長榮街","SECT":" ","MAREA":" ","LANE":" ","ALLEY":" ","HOUSE_NO":"２３５號","E_COORD97":182619.48999999999,"N_COORD97":2534195.2999999998,"ADDRESS":"長榮街２３５號","OBJECTID":101363},"geometry":{"x":182619.49000000115,"y":2534195.3000000026}},{"attributes":{"ID":101364,"DIS_CODE":0,"TOWNNAME":"關廟區","LI":"布袋里","LIN":"10鄰","STREET":"長榮街","SECT":" ","MAREA":" ","LANE":" ","ALLEY":" ","HOUSE_NO":"２５１號","E_COORD97":182583.79000000001,"N_COORD97":2534217.2999999998,"ADDRESS":"長榮街２５１號","OBJECTID":101364},"geometry":{"x":182583.79000000097,"y":2534217.3000000007}},{"attributes":{"ID":101365,"DIS_CODE":0,"TOWNNAME":"關廟區","LI":"布袋里","LIN":"10鄰","STREET":"長榮街","SECT":" ","MAREA":" ","LANE":"４６６巷","ALLEY":" ","HOUSE_NO":"３０號","E_COORD97":181502.09,"N_COORD97":2534691.2999999998,"ADDRESS":"長榮街４６６巷３０號","OBJECTID":101365},"geometry":{"x":181502.08999999985,"y":2534691.3000000007}},{"attributes":{"ID":101366,"DIS_CODE":0,"TOWNNAME":"關廟區","LI":"布袋里","LIN":"10鄰","STREET":"長榮街","SECT":" ","MAREA":" ","LANE":" ","ALLEY":" ","HOUSE_NO":"４５８號","E_COORD97":181570.27516200001,"N_COORD97":2534609.0798399998,"ADDRESS":"長榮街４５８號","OBJECTID":101366},"geometry":{"x":181570.27516200114,"y":2534609.0798439998}},{"attributes":{"ID":101367,"DIS_CODE":0,"TOWNNAME":"關廟區","LI":"深坑里","LIN":"10鄰","STREET":"南雄路","SECT":"一段","MAREA":" ","LANE":"３４７巷","ALLEY":" ","HOUSE_NO":"１８號","E_COORD97":181772.26999999999,"N_COORD97":2537444.2999999998,"ADDRESS":"南雄路一段３４７巷１８號","OBJECTID":101367},"geometry":{"x":181772.26999999955,"y":2537444.3000000007}},{"attributes":{"ID":101368,"DIS_CODE":0,"TOWNNAME":"關廟區","LI":"深坑里","LIN":"10鄰","STREET":"南雄路","SECT":"一段","MAREA":" ","LANE":"３３３巷","ALLEY":" ","HOUSE_NO":"８號","E_COORD97":181830.26999999999,"N_COORD97":2537411.2999999998,"ADDRESS":"南雄路一段３３３巷８號","OBJECTID":101368},"geometry":{"x":181830.27000000142,"y":2537411.3000000007}},{"attributes":{"ID":101369,"DIS_CODE":0,"TOWNNAME":"關廟區","LI":"深坑里","LIN":"10鄰","STREET":"南雄路","SECT":"一段","MAREA":" ","LANE":"３３３巷","ALLEY":" ","HOUSE_NO":"６號","E_COORD97":181833.67000000001,"N_COORD97":2537413.2999999998,"ADDRESS":"南雄路一段３３３巷６號","OBJECTID":101369},"geometry":{"x":181833.67000000086,"y":2537413.3000000026}},{"attributes":{"ID":101370,"DIS_CODE":0,"TOWNNAME":"關廟區","LI":"深坑里","LIN":"10鄰","STREET":"南雄路","SECT":"一段","MAREA":" ","LANE":"３４７巷","ALLEY":" ","HOUSE_NO":"１０號","E_COORD97":181785.37,"N_COORD97":2537452.2999999998,"ADDRESS":"南雄路一段３４７巷１０號","OBJECTID":101370},"geometry":{"x":181785.37000000011,"y":2537452.2999999989}},{"attributes":{"ID":101371,"DIS_CODE":0,"TOWNNAME":"關廟區","LI":"深坑里","LIN":"10鄰","STREET":"南雄路","SECT":"一段","MAREA":" ","LANE":"３３３巷","ALLEY":" ","HOUSE_NO":"２５號","E_COORD97":181791.47,"N_COORD97":2537374.2999999998,"ADDRESS":"南雄路一段３３３巷２５號","OBJECTID":101371},"geometry":{"x":181791.46999999974,"y":2537374.2999999989}},{"attributes":{"ID":101372,"DIS_CODE":0,"TOWNNAME":"關廟區","LI":"深坑里","LIN":"10鄰","STREET":"南雄路","SECT":"一段","MAREA":" ","LANE":"３３３巷","ALLEY":" ","HOUSE_NO":"２２號","E_COORD97":181803.37,"N_COORD97":2537395.2999999998,"ADDRESS":"南雄路一段３３３巷２２號","OBJECTID":101372},"geometry":{"x":181803.37000000104,"y":2537395.3000000026}},{"attributes":{"ID":101373,"DIS_CODE":0,"TOWNNAME":"關廟區","LI":"深坑里","LIN":"10鄰","STREET":"深坑二街","SECT":" ","MAREA":" ","LANE":" ","ALLEY":" ","HOUSE_NO":"１０７號","E_COORD97":181779.17000000001,"N_COORD97":2537347.2999999998,"ADDRESS":"深坑二街１０７號","OBJECTID":101373},"geometry":{"x":181779.17000000086,"y":2537347.3000000045}},{"attributes":{"ID":101374,"DIS_CODE":0,"TOWNNAME":"關廟區","LI":"深坑里","LIN":"10鄰","STREET":"南雄路","SECT":"一段","MAREA":" ","LANE":"３４７巷","ALLEY":" ","HOUSE_NO":"２號","E_COORD97":181817.97,"N_COORD97":2537445.2999999998,"ADDRESS":"南雄路一段３４７巷２號","OBJECTID":101374},"geometry":{"x":181817.97000000067,"y":2537445.3000000007}},{"attributes":{"ID":101375,"DIS_CODE":0,"TOWNNAME":"關廟區","LI":"埤頭里","LIN":"10鄰","STREET":"關新路","SECT":"二段","MAREA":" ","LANE":"５１巷","ALLEY":"６８弄","HOUSE_NO":"１６號","E_COORD97":178904.97,"N_COORD97":2544203.2999999998,"ADDRESS":"關新路二段５１巷６８弄１６號","OBJECTID":101375},"geometry":{"x":178904.97000000067,"y":2544203.3000000026}},{"attributes":{"ID":101376,"DIS_CODE":0,"TOWNNAME":"關廟區","LI":"深坑里","LIN":"10鄰","STREET":"南雄路","SECT":"一段","MAREA":" ","LANE":" ","ALLEY":" ","HOUSE_NO":"３２５號","E_COORD97":181863.26999999999,"N_COORD97":2537403.2999999998,"ADDRESS":"南雄路一段３２５號","OBJECTID":101376},"geometry":{"x":181863.26999999955,"y":2537403.3000000007}},{"attributes":{"ID":101377,"DIS_CODE":0,"TOWNNAME":"七股區","LI":"大潭里","LIN":"9鄰","STREET":" ","SECT":" ","MAREA":"台潭","LANE":" ","ALLEY":" ","HOUSE_NO":"９９號","E_COORD97":160945.47,"N_COORD97":2565513.7799999998,"ADDRESS":"台潭９９號","OBJECTID":101377},"geometry":{"x":160945.46999999974,"y":2565513.7800000012}},{"attributes":{"ID":101378,"DIS_CODE":0,"TOWNNAME":"南化區","LI":"北寮里","LIN":"10鄰","STREET":" ","SECT":" ","MAREA":"北寮","LANE":" ","ALLEY":" ","HOUSE_NO":"１４５之１號","E_COORD97":197990.04000000001,"N_COORD97":2553177.7999999998,"ADDRESS":"北寮１４５之１號","OBJECTID":101378},"geometry":{"x":197990.04000000004,"y":2553177.8000000026}},{"attributes":{"ID":101379,"DIS_CODE":0,"TOWNNAME":"佳里區","LI":"海澄里","LIN":"10鄰","STREET":" ","SECT":" ","MAREA":"番子寮","LANE":" ","ALLEY":" ","HOUSE_NO":"５６號之１","E_COORD97":164264.48999999999,"N_COORD97":2563800.7000000002,"ADDRESS":"番子寮５６號之１","OBJECTID":101379},"geometry":{"x":164264.49000000115,"y":2563800.6999999993}},{"attributes":{"ID":101380,"DIS_CODE":0,"TOWNNAME":"佳里區","LI":"海澄里","LIN":"10鄰","STREET":" ","SECT":" ","MAREA":"番子寮","LANE":" ","ALLEY":" ","HOUSE_NO":"５６號之２","E_COORD97":164256.87,"N_COORD97":2563779.4700000002,"ADDRESS":"番子寮５６號之２","OBJECTID":101380},"geometry":{"x":164256.87000000104,"y":2563779.4700000007}},{"attributes":{"ID":101381,"DIS_CODE":0,"TOWNNAME":"佳里區","LI":"海澄里","LIN":"10鄰","STREET":" ","SECT":" ","MAREA":"番子寮","LANE":" ","ALLEY":" ","HOUSE_NO":"５６號之３","E_COORD97":164253.16,"N_COORD97":2563782.0800000001,"ADDRESS":"番子寮５６號之３","OBJECTID":101381},"geometry":{"x":164253.16000000108,"y":2563782.0800000001}},{"attributes":{"ID":101382,"DIS_CODE":0,"TOWNNAME":"佳里區","LI":"海澄里","LIN":"10鄰","STREET":" ","SECT":" ","MAREA":"番子寮","LANE":" ","ALLEY":" ","HOUSE_NO":"５６號","E_COORD97":164266.32999999999,"N_COORD97":2563763.48,"ADDRESS":"番子寮５６號","OBJECTID":101382},"geometry":{"x":164266.32999999914,"y":2563763.4799999986}},{"attributes":{"ID":101383,"DIS_CODE":0,"TOWNNAME":"安定區","LI":"大同里","LIN":"10鄰","STREET":" ","SECT":" ","MAREA":"大同","LANE":" ","ALLEY":" ","HOUSE_NO":"１１５號","E_COORD97":170301.01999999999,"N_COORD97":2553820.25,"ADDRESS":"大同１１５號","OBJECTID":101383},"geometry":{"x":170301.01999999955,"y":2553820.25}},{"attributes":{"ID":101384,"DIS_CODE":0,"TOWNNAME":"安定區","LI":"港南里","LIN":"10鄰","STREET":" ","SECT":" ","MAREA":"港口","LANE":" ","ALLEY":" ","HOUSE_NO":"６９號之４","E_COORD97":171387.29999999999,"N_COORD97":2554393.2999999998,"ADDRESS":"港口６９號之４","OBJECTID":101384},"geometry":{"x":171387.29999999981,"y":2554393.3000000007}},{"attributes":{"ID":101385,"DIS_CODE":0,"TOWNNAME":"安定區","LI":"安定里","LIN":"10鄰","STREET":" ","SECT":" ","MAREA":"安定","LANE":" ","ALLEY":" ","HOUSE_NO":"９６號之１０","E_COORD97":172124.29999999999,"N_COORD97":2557728.3199999998,"ADDRESS":"安定９６號之１０","OBJECTID":101385},"geometry":{"x":172124.30000000075,"y":2557728.3200000003}},{"attributes":{"ID":101386,"DIS_CODE":0,"TOWNNAME":"安定區","LI":"蘇林里","LIN":"10鄰","STREET":" ","SECT":" ","MAREA":"蘇厝","LANE":" ","ALLEY":" ","HOUSE_NO":"１１１號之１９","E_COORD97":173703.79000000001,"N_COORD97":2558860.2999999998,"ADDRESS":"蘇厝１１１號之１９","OBJECTID":101386},"geometry":{"x":173703.7900000019,"y":2558860.3000000026}},{"attributes":{"ID":101387,"DIS_CODE":0,"TOWNNAME":"安定區","LI":"安定里","LIN":"10鄰","STREET":" ","SECT":" ","MAREA":"安定","LANE":" ","ALLEY":" ","HOUSE_NO":"１０３之１號","E_COORD97":172079.32000000001,"N_COORD97":2557730.3199999998,"ADDRESS":"安定１０３之１號","OBJECTID":101387},"geometry":{"x":172079.3200000003,"y":2557730.3200000022}},{"attributes":{"ID":101388,"DIS_CODE":0,"TOWNNAME":"安定區","LI":"安加里","LIN":"10鄰","STREET":" ","SECT":" ","MAREA":"安定","LANE":" ","ALLEY":" ","HOUSE_NO":"２５８之５６號","E_COORD97":172084.47,"N_COORD97":2556783.3199999998,"ADDRESS":"安定２５８之５６號","OBJECTID":101388},"geometry":{"x":172084.46999999974,"y":2556783.3200000003}},{"attributes":{"ID":101389,"DIS_CODE":0,"TOWNNAME":"安定區","LI":"蘇厝里","LIN":"10鄰","STREET":" ","SECT":" ","MAREA":"蘇厝","LANE":" ","ALLEY":" ","HOUSE_NO":"３７２號之４","E_COORD97":173124.98000000001,"N_COORD97":2558951.2999999998,"ADDRESS":"蘇厝３７２號之４","OBJECTID":101389},"geometry":{"x":173124.98000000231,"y":2558951.3000000026}},{"attributes":{"ID":101390,"DIS_CODE":0,"TOWNNAME":"安定區","LI":"港尾里","LIN":"10鄰","STREET":" ","SECT":" ","MAREA":"港子尾","LANE":" ","ALLEY":" ","HOUSE_NO":"５６之２０號","E_COORD97":171616.44,"N_COORD97":2555714.2999999998,"ADDRESS":"港子尾５６之２０號","OBJECTID":101390},"geometry":{"x":171616.44000000227,"y":2555714.3000000026}},{"attributes":{"ID":101391,"DIS_CODE":0,"TOWNNAME":"安定區","LI":"港口里","LIN":"10鄰","STREET":" ","SECT":" ","MAREA":"港口","LANE":" ","ALLEY":" ","HOUSE_NO":"３０３之２號","E_COORD97":171331.98999999999,"N_COORD97":2554724.2999999998,"ADDRESS":"港口３０３之２號","OBJECTID":101391},"geometry":{"x":171331.99000000022,"y":2554724.3000000026}},{"attributes":{"ID":101392,"DIS_CODE":0,"TOWNNAME":"安定區","LI":"港尾里","LIN":"10鄰","STREET":" ","SECT":" ","MAREA":"港子尾","LANE":" ","ALLEY":" ","HOUSE_NO":"５６號之８","E_COORD97":171635.26999999999,"N_COORD97":2555793.2999999998,"ADDRESS":"港子尾５６號之８","OBJECTID":101392},"geometry":{"x":171635.27000000142,"y":2555793.3000000007}},{"attributes":{"ID":101393,"DIS_CODE":0,"TOWNNAME":"安定區","LI":"六嘉里","LIN":"10鄰","STREET":" ","SECT":" ","MAREA":"六塊寮","LANE":" ","ALLEY":" ","HOUSE_NO":"８５之１０號","E_COORD97":170282.97,"N_COORD97":2553236.2999999998,"ADDRESS":"六塊寮８５之１０號","OBJECTID":101393},"geometry":{"x":170282.96999999881,"y":2553236.3000000026}},{"attributes":{"ID":101394,"DIS_CODE":0,"TOWNNAME":"安定區","LI":"管寮里","LIN":"10鄰","STREET":" ","SECT":" ","MAREA":"管寮","LANE":" ","ALLEY":" ","HOUSE_NO":"９１號","E_COORD97":169880.14000000001,"N_COORD97":2556340.25,"ADDRESS":"管寮９１號","OBJECTID":101394},"geometry":{"x":169880.14000000153,"y":2556340.2500000019}},{"attributes":{"ID":101395,"DIS_CODE":0,"TOWNNAME":"安定區","LI":"六嘉里","LIN":"10鄰","STREET":" ","SECT":" ","MAREA":"六塊寮","LANE":" ","ALLEY":" ","HOUSE_NO":"８３號之３","E_COORD97":170234.14999999999,"N_COORD97":2553208.2999999998,"ADDRESS":"六塊寮８１號之３","OBJECTID":101395},"geometry":{"x":170234.1500000013,"y":2553208.3000000026}},{"attributes":{"ID":101396,"DIS_CODE":0,"TOWNNAME":"安定區","LI":"中榮里","LIN":"10鄰","STREET":" ","SECT":" ","MAREA":"許中營","LANE":" ","ALLEY":" ","HOUSE_NO":"７８之８號","E_COORD97":172318.04000000001,"N_COORD97":2555185.2999999998,"ADDRESS":"許中營７８之８號","OBJECTID":101396},"geometry":{"x":172318.04000000004,"y":2555185.3000000026}},{"attributes":{"ID":101397,"DIS_CODE":0,"TOWNNAME":"安定區","LI":"蘇厝里","LIN":"10鄰","STREET":" ","SECT":" ","MAREA":"蘇厝","LANE":" ","ALLEY":" ","HOUSE_NO":"３７５號之１","E_COORD97":173150.85000000001,"N_COORD97":2558920.2999999998,"ADDRESS":"蘇厝３７５號之１","OBJECTID":101397},"geometry":{"x":173150.85000000056,"y":2558920.3000000045}},{"attributes":{"ID":101398,"DIS_CODE":0,"TOWNNAME":"安定區","LI":"蘇林里","LIN":"10鄰","STREET":" ","SECT":" ","MAREA":"蘇厝","LANE":" ","ALLEY":" ","HOUSE_NO":"１１２之３７號","E_COORD97":173915.57000000001,"N_COORD97":2558825.2999999998,"ADDRESS":"蘇厝１１２之３７號","OBJECTID":101398},"geometry":{"x":173915.5700000003,"y":2558825.3000000045}},{"attributes":{"ID":101399,"DIS_CODE":0,"TOWNNAME":"安定區","LI":"蘇林里","LIN":"10鄰","STREET":" ","SECT":" ","MAREA":"蘇厝","LANE":" ","ALLEY":" ","HOUSE_NO":"１１２號之１３","E_COORD97":173824.20000000001,"N_COORD97":2558793.2999999998,"ADDRESS":"蘇厝１１２號之１３","OBJECTID":101399},"geometry":{"x":173824.20000000019,"y":2558793.3000000007}},{"attributes":{"ID":101400,"DIS_CODE":0,"TOWNNAME":"安定區","LI":"安加里","LIN":"10鄰","STREET":" ","SECT":" ","MAREA":"安定","LANE":" ","ALLEY":" ","HOUSE_NO":"２６３號之２","E_COORD97":171661.98999999999,"N_COORD97":2557321.3199999998,"ADDRESS":"安定２６３號之２","OBJECTID":101400},"geometry":{"x":171661.99000000115,"y":2557321.3200000003}}]}