{"displayFieldName":"TOWNNAME","fieldAliases":{"ID":"ID","DIS_CODE":"DIS_CODE","TOWNNAME":"TOWNNAME","LI":"LI","LIN":"LIN","STREET":"STREET","SECT":"SECT","MAREA":"MAREA","LANE":"LANE","ALLEY":"ALLEY","HOUSE_NO":"HOUSE_NO","E_COORD97":"E_COORD97","N_COORD97":"N_COORD97","ADDRESS":"ADDRESS","OBJECTID":"OBJECTID"},"geometryType":"esriGeometryPoint","spatialReference":{"wkid":102443,"latestWkid":3826},"fields":[{"name":"ID","type":"esriFieldTypeDouble","alias":"ID"},{"name":"DIS_CODE","type":"esriFieldTypeInteger","alias":"DIS_CODE"},{"name":"TOWNNAME","type":"esriFieldTypeString","alias":"TOWNNAME","length":8},{"name":"LI","type":"esriFieldTypeString","alias":"LI","length":8},{"name":"LIN","type":"esriFieldTypeString","alias":"LIN","length":12},{"name":"STREET","type":"esriFieldTypeString","alias":"STREET","length":20},{"name":"SECT","type":"esriFieldTypeString","alias":"SECT","length":8},{"name":"MAREA","type":"esriFieldTypeString","alias":"MAREA","length":12},{"name":"LANE","type":"esriFieldTypeString","alias":"LANE","length":10},{"name":"ALLEY","type":"esriFieldTypeString","alias":"ALLEY","length":10},{"name":"HOUSE_NO","type":"esriFieldTypeString","alias":"HOUSE_NO","length":20},{"name":"E_COORD97","type":"esriFieldTypeDouble","alias":"E_COORD97"},{"name":"N_COORD97","type":"esriFieldTypeDouble","alias":"N_COORD97"},{"name":"ADDRESS","type":"esriFieldTypeString","alias":"ADDRESS","length":50},{"name":"OBJECTID","type":"esriFieldTypeOID","alias":"OBJECTID"}],"features":[{"attributes":{"ID":492028,"DIS_CODE":0,"TOWNNAME":"北區","LI":"安民里","LIN":"4鄰","STREET":"海安路","SECT":"三段","MAREA":" ","LANE":"５４巷","ALLEY":" ","HOUSE_NO":"２１號","E_COORD97":168007.54000000001,"N_COORD97":2544703.3300000001,"ADDRESS":"海安路三段５４巷２１號","OBJECTID":492001},"geometry":{"x":168007.54000000004,"y":2544703.3299999982}},{"attributes":{"ID":492029,"DIS_CODE":0,"TOWNNAME":"北區","LI":"和順里","LIN":"39鄰","STREET":"公園南路","SECT":" ","MAREA":" ","LANE":"３７０巷","ALLEY":" ","HOUSE_NO":"８２號七樓","E_COORD97":168263.01999999999,"N_COORD97":2544937.04,"ADDRESS":"公園南路３７０巷８２號七樓","OBJECTID":492002},"geometry":{"x":168263.01999999955,"y":2544937.0399999991}},{"attributes":{"ID":492030,"DIS_CODE":0,"TOWNNAME":"北區","LI":"和順里","LIN":"39鄰","STREET":"公園南路","SECT":" ","MAREA":" ","LANE":"３７０巷","ALLEY":" ","HOUSE_NO":"８２號九樓","E_COORD97":168263.01999999999,"N_COORD97":2544937.04,"ADDRESS":"公園南路３７０巷８２號九樓","OBJECTID":492003},"geometry":{"x":168263.01999999955,"y":2544937.0399999991}},{"attributes":{"ID":492031,"DIS_CODE":0,"TOWNNAME":"下營區","LI":"仁里里","LIN":"4鄰","STREET":"仁里街","SECT":" ","MAREA":" ","LANE":"４８巷","ALLEY":" ","HOUSE_NO":"８號","E_COORD97":174268.45000000001,"N_COORD97":2570236.54,"ADDRESS":"仁里街４８巷８號","OBJECTID":492004},"geometry":{"x":174268.45000000019,"y":2570236.5399999991}},{"attributes":{"ID":492032,"DIS_CODE":0,"TOWNNAME":"新營區","LI":"嘉芳里","LIN":" ","STREET":"復興路","SECT":" ","MAREA":" ","LANE":"１０７４巷","ALLEY":" ","HOUSE_NO":"２號十一樓","E_COORD97":176139.89999999999,"N_COORD97":2578918.04,"ADDRESS":"復興路１０７４巷２號十一樓","OBJECTID":492005},"geometry":{"x":176139.9000000013,"y":2578918.040000001}},{"attributes":{"ID":492033,"DIS_CODE":0,"TOWNNAME":"佳里區","LI":"安西里","LIN":"53鄰","STREET":"佳安西路","SECT":" ","MAREA":" ","LANE":"７巷","ALLEY":" ","HOUSE_NO":"７號","E_COORD97":163572.35000000001,"N_COORD97":2562227.02,"ADDRESS":"佳安西路７巷７號","OBJECTID":492006},"geometry":{"x":163572.34999999963,"y":2562227.0200000014}},{"attributes":{"ID":492034,"DIS_CODE":0,"TOWNNAME":"永康區","LI":"正強里","LIN":"32鄰","STREET":"四維街","SECT":" ","MAREA":" ","LANE":"２９巷","ALLEY":" ","HOUSE_NO":"４號","E_COORD97":173394.47,"N_COORD97":2548014.5800000001,"ADDRESS":"四維街２９巷４號","OBJECTID":492007},"geometry":{"x":173394.47000000067,"y":2548014.5800000019}},{"attributes":{"ID":492035,"DIS_CODE":0,"TOWNNAME":"北區","LI":"勝安里","LIN":"6鄰","STREET":"開元路","SECT":" ","MAREA":" ","LANE":"７３巷","ALLEY":" ","HOUSE_NO":"６２號三樓之２","E_COORD97":169853.01000000001,"N_COORD97":2545345.5,"ADDRESS":"開元路７３巷６２號三樓之２","OBJECTID":492008},"geometry":{"x":169853.01000000071,"y":2545345.5}},{"attributes":{"ID":492036,"DIS_CODE":0,"TOWNNAME":"北區","LI":"長榮里","LIN":"13鄰","STREET":"長榮路","SECT":"五段","MAREA":" ","LANE":"４１巷","ALLEY":" ","HOUSE_NO":"１３號十四樓之１","E_COORD97":170088.73999999999,"N_COORD97":2545386.5299999998,"ADDRESS":"長榮路五段４１巷１３號十四樓之１","OBJECTID":492009},"geometry":{"x":170088.74000000115,"y":2545386.5300000031}},{"attributes":{"ID":492037,"DIS_CODE":0,"TOWNNAME":"永康區","LI":"正強里","LIN":"15鄰","STREET":"正強街","SECT":" ","MAREA":" ","LANE":"７１巷","ALLEY":" ","HOUSE_NO":"３號","E_COORD97":173283.84,"N_COORD97":2547302.7400000002,"ADDRESS":"正強街７１巷３號","OBJECTID":492010},"geometry":{"x":173283.83999999985,"y":2547302.7400000021}},{"attributes":{"ID":492038,"DIS_CODE":0,"TOWNNAME":"中西區","LI":"保安里","LIN":"6鄰","STREET":"友愛街","SECT":" ","MAREA":" ","LANE":"２５１巷","ALLEY":" ","HOUSE_NO":"１０號","E_COORD97":167637.20000000001,"N_COORD97":2543596.8900000001,"ADDRESS":"友愛街２５１巷１０號","OBJECTID":492011},"geometry":{"x":167637.20000000019,"y":2543596.8900000006}},{"attributes":{"ID":492039,"DIS_CODE":0,"TOWNNAME":"下營區","LI":"後街里","LIN":"20鄰","STREET":"東興二街","SECT":" ","MAREA":" ","LANE":"８０巷","ALLEY":" ","HOUSE_NO":"１２號","E_COORD97":174630.91,"N_COORD97":2570949.8399999999,"ADDRESS":"東興二街８０巷１２號","OBJECTID":492012},"geometry":{"x":174630.91000000108,"y":2570949.8400000017}},{"attributes":{"ID":492040,"DIS_CODE":0,"TOWNNAME":"永康區","LI":"復國里","LIN":"4鄰","STREET":"復國一路","SECT":" ","MAREA":" ","LANE":"６８巷","ALLEY":" ","HOUSE_NO":"３７號","E_COORD97":172809.38,"N_COORD97":2544879.7799999998,"ADDRESS":"復國一路６８巷３７號","OBJECTID":492013},"geometry":{"x":172809.37999999989,"y":2544879.7800000012}},{"attributes":{"ID":492041,"DIS_CODE":0,"TOWNNAME":"麻豆區","LI":"中興里","LIN":"6鄰","STREET":"興國路","SECT":" ","MAREA":" ","LANE":"３８巷","ALLEY":" ","HOUSE_NO":"５號","E_COORD97":172896.29999999999,"N_COORD97":2564522.6200000001,"ADDRESS":"興國路３８巷５號","OBJECTID":492014},"geometry":{"x":172896.29999999981,"y":2564522.6199999992}},{"attributes":{"ID":492042,"DIS_CODE":0,"TOWNNAME":"新市區","LI":"港墘里","LIN":"4鄰","STREET":"三民街","SECT":" ","MAREA":" ","LANE":"７８巷","ALLEY":" ","HOUSE_NO":"３１號","E_COORD97":178483.84,"N_COORD97":2553543.79,"ADDRESS":"三民街７８巷３１號","OBJECTID":492015},"geometry":{"x":178483.84000000078,"y":2553543.7899999991}},{"attributes":{"ID":492043,"DIS_CODE":0,"TOWNNAME":"新營區","LI":"王公里","LIN":"27鄰","STREET":"民族路","SECT":" ","MAREA":" ","LANE":"３０８巷","ALLEY":" ","HOUSE_NO":"５２號","E_COORD97":180505.00558200001,"N_COORD97":2579733.9675599998,"ADDRESS":"民族路３０８巷５２號","OBJECTID":492016},"geometry":{"x":180505.00558200013,"y":2579733.967561001}},{"attributes":{"ID":492044,"DIS_CODE":0,"TOWNNAME":"六甲區","LI":"甲南里","LIN":"13鄰","STREET":"文化街","SECT":" ","MAREA":" ","LANE":"１６巷","ALLEY":" ","HOUSE_NO":"４號","E_COORD97":183891.73999999999,"N_COORD97":2569758.9500000002,"ADDRESS":"文化街１６巷４號","OBJECTID":492017},"geometry":{"x":183891.74000000022,"y":2569758.9499999993}},{"attributes":{"ID":492045,"DIS_CODE":0,"TOWNNAME":"六甲區","LI":"二甲里","LIN":"8鄰","STREET":"民權街","SECT":" ","MAREA":" ","LANE":"２８２巷","ALLEY":" ","HOUSE_NO":"３號","E_COORD97":182943.48999999999,"N_COORD97":2569826.2000000002,"ADDRESS":"民權街２８２巷３號","OBJECTID":492018},"geometry":{"x":182943.49000000115,"y":2569826.200000003}},{"attributes":{"ID":492046,"DIS_CODE":0,"TOWNNAME":"六甲區","LI":"二甲里","LIN":"8鄰","STREET":"民權街","SECT":" ","MAREA":" ","LANE":"２８２巷","ALLEY":" ","HOUSE_NO":"９號","E_COORD97":182948.19,"N_COORD97":2569846.1600000001,"ADDRESS":"民權街２８２巷９號","OBJECTID":492019},"geometry":{"x":182948.19000000041,"y":2569846.1600000001}},{"attributes":{"ID":492047,"DIS_CODE":0,"TOWNNAME":"六甲區","LI":"六甲里","LIN":"25鄰","STREET":"信義街","SECT":" ","MAREA":" ","LANE":"２１８巷","ALLEY":" ","HOUSE_NO":"７號","E_COORD97":183359.29999999999,"N_COORD97":2569754.0899999999,"ADDRESS":"信義街２１８巷７號","OBJECTID":492020},"geometry":{"x":183359.30000000168,"y":2569754.0900000017}},{"attributes":{"ID":492048,"DIS_CODE":0,"TOWNNAME":"新營區","LI":"新東里","LIN":"27鄰","STREET":"東光街","SECT":" ","MAREA":" ","LANE":"４０巷","ALLEY":" ","HOUSE_NO":"１５號","E_COORD97":180654.84104500001,"N_COORD97":2579588.0377199999,"ADDRESS":"東光街４０巷１５號","OBJECTID":492021},"geometry":{"x":180654.84104500059,"y":2579588.0377239995}},{"attributes":{"ID":492049,"DIS_CODE":0,"TOWNNAME":"新營區","LI":"民榮里","LIN":" ","STREET":"太子路","SECT":" ","MAREA":" ","LANE":"１９巷","ALLEY":" ","HOUSE_NO":"１之１號","E_COORD97":178440.01000000001,"N_COORD97":2578107.3500000001,"ADDRESS":"太子路１９巷１之１號","OBJECTID":492022},"geometry":{"x":178440.01000000164,"y":2578107.3499999996}},{"attributes":{"ID":492050,"DIS_CODE":0,"TOWNNAME":"新營區","LI":"護鎮里","LIN":"1鄰","STREET":"建國路","SECT":" ","MAREA":" ","LANE":"１９０巷","ALLEY":" ","HOUSE_NO":"１之２號","E_COORD97":179472.43976400001,"N_COORD97":2581083.7043400002,"ADDRESS":"建國路１９０巷１之２號","OBJECTID":492023},"geometry":{"x":179472.43976400141,"y":2581083.7043389976}},{"attributes":{"ID":492051,"DIS_CODE":0,"TOWNNAME":"新營區","LI":"埤寮里","LIN":"14鄰","STREET":"中正路","SECT":" ","MAREA":" ","LANE":"４３０巷","ALLEY":" ","HOUSE_NO":"１０８號","E_COORD97":180734.89000000001,"N_COORD97":2580409.8500000001,"ADDRESS":"中正路４３０巷１０８號","OBJECTID":492024},"geometry":{"x":180734.8900000006,"y":2580409.8499999996}},{"attributes":{"ID":492052,"DIS_CODE":0,"TOWNNAME":"新營區","LI":"民榮里","LIN":"26鄰","STREET":"復興路","SECT":" ","MAREA":" ","LANE":"３０５巷","ALLEY":" ","HOUSE_NO":"３４號","E_COORD97":178519.48999999999,"N_COORD97":2578073.6800000002,"ADDRESS":"復興路３０５巷３４號","OBJECTID":492025},"geometry":{"x":178519.49000000115,"y":2578073.6800000016}},{"attributes":{"ID":492053,"DIS_CODE":0,"TOWNNAME":"歸仁區","LI":"六甲里","LIN":"26鄰","STREET":"六甲路","SECT":" ","MAREA":" ","LANE":"２２６巷","ALLEY":" ","HOUSE_NO":"３２號","E_COORD97":175975.82000000001,"N_COORD97":2539247.25,"ADDRESS":"六甲路２２６巷３２號","OBJECTID":492026},"geometry":{"x":175975.82000000123,"y":2539247.25}},{"attributes":{"ID":492054,"DIS_CODE":0,"TOWNNAME":"柳營區","LI":"東昇里","LIN":"24鄰","STREET":"建業路","SECT":" ","MAREA":" ","LANE":"１２６巷","ALLEY":" ","HOUSE_NO":"５０號","E_COORD97":180281.70000000001,"N_COORD97":2575731.77,"ADDRESS":"建業路１２６巷５０號","OBJECTID":492027},"geometry":{"x":180281.70000000019,"y":2575731.7699999996}},{"attributes":{"ID":492055,"DIS_CODE":0,"TOWNNAME":"柳營區","LI":"大農里","LIN":"7鄰","STREET":"義士路","SECT":"一段","MAREA":" ","LANE":"２４７巷","ALLEY":" ","HOUSE_NO":"３６號","E_COORD97":186354.76999999999,"N_COORD97":2575736.8300000001,"ADDRESS":"義士路一段２４７巷３６號","OBJECTID":492028},"geometry":{"x":186354.77000000048,"y":2575736.8300000019}},{"attributes":{"ID":492056,"DIS_CODE":0,"TOWNNAME":"北區","LI":"玉皇里","LIN":"4鄰","STREET":"崇安街","SECT":" ","MAREA":" ","LANE":"６１巷","ALLEY":" ","HOUSE_NO":"２號","E_COORD97":168691.51999999999,"N_COORD97":2544572.3900000001,"ADDRESS":"崇安街６１巷２號","OBJECTID":492029},"geometry":{"x":168691.52000000048,"y":2544572.3900000025}},{"attributes":{"ID":492057,"DIS_CODE":0,"TOWNNAME":"歸仁區","LI":"大潭里","LIN":"18鄰","STREET":"中正南路","SECT":"三段","MAREA":" ","LANE":"２５０巷","ALLEY":" ","HOUSE_NO":"８號","E_COORD97":175138.5,"N_COORD97":2534759.2799999998,"ADDRESS":"中正南路三段２５０巷８號","OBJECTID":492030},"geometry":{"x":175138.50000000093,"y":2534759.2800000031}},{"attributes":{"ID":492058,"DIS_CODE":0,"TOWNNAME":"北區","LI":"成德里","LIN":"35鄰","STREET":"育德一街","SECT":" ","MAREA":" ","LANE":"２０８巷","ALLEY":" ","HOUSE_NO":"２０號","E_COORD97":168604.76000000001,"N_COORD97":2546198.0600000001,"ADDRESS":"育德一街２０８巷２０號","OBJECTID":492031},"geometry":{"x":168604.76000000071,"y":2546198.0600000024}},{"attributes":{"ID":492059,"DIS_CODE":0,"TOWNNAME":"北區","LI":"華興里","LIN":"6鄰","STREET":"林森路","SECT":"三段","MAREA":" ","LANE":"２７８巷","ALLEY":" ","HOUSE_NO":"１號","E_COORD97":170474.63,"N_COORD97":2545347.2999999998,"ADDRESS":"林森路三段２７８巷１號","OBJECTID":492032},"geometry":{"x":170474.62999999989,"y":2545347.3000000007}},{"attributes":{"ID":492060,"DIS_CODE":0,"TOWNNAME":"關廟區","LI":"關廟里","LIN":"4鄰","STREET":"中山路","SECT":"二段","MAREA":" ","LANE":"１７０巷","ALLEY":" ","HOUSE_NO":"１２號","E_COORD97":180788.10999999999,"N_COORD97":2540128.2799999998,"ADDRESS":"中山路二段１７０巷１２號","OBJECTID":492033},"geometry":{"x":180788.11000000127,"y":2540128.2799999993}},{"attributes":{"ID":492061,"DIS_CODE":0,"TOWNNAME":"歸仁區","LI":"看東里","LIN":"8鄰","STREET":"成功一街","SECT":" ","MAREA":" ","LANE":"１２７巷","ALLEY":" ","HOUSE_NO":"５號","E_COORD97":178552.21466200001,"N_COORD97":2539988.9610700002,"ADDRESS":"成功一街１２７巷５號","OBJECTID":492034},"geometry":{"x":178552.21466199961,"y":2539988.9610669985}},{"attributes":{"ID":492062,"DIS_CODE":0,"TOWNNAME":"關廟區","LI":"山西里","LIN":"18鄰","STREET":"崇明街","SECT":" ","MAREA":" ","LANE":"３３巷","ALLEY":" ","HOUSE_NO":"１號","E_COORD97":180990.12,"N_COORD97":2540710.25,"ADDRESS":"崇明街３３巷１號","OBJECTID":492035},"geometry":{"x":180990.12000000011,"y":2540710.2500000037}},{"attributes":{"ID":492063,"DIS_CODE":0,"TOWNNAME":"歸仁區","LI":"看東里","LIN":"8鄰","STREET":"成功一街","SECT":" ","MAREA":" ","LANE":"１２７巷","ALLEY":" ","HOUSE_NO":"１１號","E_COORD97":178568.32047800001,"N_COORD97":2540000.6027299999,"ADDRESS":"成功一街１２７巷１１號","OBJECTID":492036},"geometry":{"x":178568.32047799975,"y":2540000.6027269997}},{"attributes":{"ID":492064,"DIS_CODE":0,"TOWNNAME":"關廟區","LI":"山西里","LIN":"20鄰","STREET":"崇平路","SECT":" ","MAREA":" ","LANE":"１０７巷","ALLEY":" ","HOUSE_NO":"４０號","E_COORD97":180686.97,"N_COORD97":2540315.5099999998,"ADDRESS":"崇平路１０７巷４０號","OBJECTID":492037},"geometry":{"x":180686.97000000067,"y":2540315.5100000016}},{"attributes":{"ID":492065,"DIS_CODE":0,"TOWNNAME":"北區","LI":"開元里","LIN":"3鄰","STREET":"北園街","SECT":" ","MAREA":" ","LANE":"９９巷","ALLEY":" ","HOUSE_NO":"４號","E_COORD97":170314.89000000001,"N_COORD97":2545876.0499999998,"ADDRESS":"北園街９９巷４號","OBJECTID":492038},"geometry":{"x":170314.88999999966,"y":2545876.0500000045}},{"attributes":{"ID":492066,"DIS_CODE":0,"TOWNNAME":"新營區","LI":"民生里","LIN":"14鄰","STREET":"公園路","SECT":"一段","MAREA":" ","LANE":"１６０巷","ALLEY":" ","HOUSE_NO":"２１號","E_COORD97":178867.87,"N_COORD97":2578201.5699999998,"ADDRESS":"公園路一段１６０巷２１號","OBJECTID":492039},"geometry":{"x":178867.87000000011,"y":2578201.5700000003}},{"attributes":{"ID":492067,"DIS_CODE":0,"TOWNNAME":"新營區","LI":"民榮里","LIN":" ","STREET":"和平路","SECT":" ","MAREA":" ","LANE":"３２巷","ALLEY":" ","HOUSE_NO":"７之２號","E_COORD97":179351.01000000001,"N_COORD97":2577803.96,"ADDRESS":"和平路３２巷７之２號","OBJECTID":492040},"geometry":{"x":179351.01000000071,"y":2577803.9600000046}},{"attributes":{"ID":492068,"DIS_CODE":0,"TOWNNAME":"新營區","LI":"嘉芳里","LIN":"15鄰","STREET":"復興路","SECT":" ","MAREA":" ","LANE":"１０００巷","ALLEY":" ","HOUSE_NO":"１號之１６","E_COORD97":176328.04000000001,"N_COORD97":2578946.0899999999,"ADDRESS":"復興路１０００巷１之１６號","OBJECTID":492041},"geometry":{"x":176328.0400000019,"y":2578946.0899999999}},{"attributes":{"ID":492069,"DIS_CODE":0,"TOWNNAME":"佳里區","LI":"建南里","LIN":"9鄰","STREET":"中和街","SECT":" ","MAREA":" ","LANE":"１８巷","ALLEY":" ","HOUSE_NO":"２４號","E_COORD97":165665.47636999999,"N_COORD97":2562132.4696900002,"ADDRESS":"中和街１８巷２４號","OBJECTID":492042},"geometry":{"x":165665.47637000028,"y":2562132.4696940016}},{"attributes":{"ID":492070,"DIS_CODE":0,"TOWNNAME":"新營區","LI":"大宏里","LIN":"25鄰","STREET":"同濟街","SECT":" ","MAREA":" ","LANE":"１３６巷","ALLEY":" ","HOUSE_NO":"３９號","E_COORD97":180566.44,"N_COORD97":2578758.3199999998,"ADDRESS":"同濟街１３６巷３９號","OBJECTID":492043},"geometry":{"x":180566.44000000041,"y":2578758.3200000022}},{"attributes":{"ID":492071,"DIS_CODE":0,"TOWNNAME":"新營區","LI":"興業里","LIN":"4鄰","STREET":"公誠街","SECT":" ","MAREA":" ","LANE":"７巷","ALLEY":" ","HOUSE_NO":"６號","E_COORD97":180323.47,"N_COORD97":2578054,"ADDRESS":"公誠街７巷６號","OBJECTID":492044},"geometry":{"x":180323.46999999974,"y":2578054.0000000019}},{"attributes":{"ID":492072,"DIS_CODE":0,"TOWNNAME":"新營區","LI":"民榮里","LIN":"26鄰","STREET":"復興路","SECT":" ","MAREA":" ","LANE":"３０５巷","ALLEY":" ","HOUSE_NO":"６０號","E_COORD97":178497.76000000001,"N_COORD97":2578038.3500000001,"ADDRESS":"復興路３０５巷６０號","OBJECTID":492045},"geometry":{"x":178497.76000000164,"y":2578038.3500000015}},{"attributes":{"ID":492073,"DIS_CODE":0,"TOWNNAME":"佳里區","LI":"建南里","LIN":"9鄰","STREET":"中和街","SECT":" ","MAREA":" ","LANE":"１８巷","ALLEY":" ","HOUSE_NO":"１６號","E_COORD97":165657.10760700001,"N_COORD97":2562162.1030100002,"ADDRESS":"中和街１８巷１６號","OBJECTID":492046},"geometry":{"x":165657.10760700051,"y":2562162.1030119993}},{"attributes":{"ID":492074,"DIS_CODE":0,"TOWNNAME":"北區","LI":"光武里","LIN":"4鄰","STREET":"大武街","SECT":" ","MAREA":" ","LANE":"１４１巷","ALLEY":" ","HOUSE_NO":"１８號","E_COORD97":169585,"N_COORD97":2545879.6499999999,"ADDRESS":"大武街１４１巷１８號","OBJECTID":492047},"geometry":{"x":169585.00000000093,"y":2545879.6500000022}},{"attributes":{"ID":492075,"DIS_CODE":0,"TOWNNAME":"新市區","LI":"新和里","LIN":"38鄰","STREET":"成功街","SECT":" ","MAREA":" ","LANE":"７７巷","ALLEY":" ","HOUSE_NO":"５號","E_COORD97":177465.12,"N_COORD97":2552822.27,"ADDRESS":"成功街７７巷５號","OBJECTID":492048},"geometry":{"x":177465.12000000104,"y":2552822.2699999996}},{"attributes":{"ID":492076,"DIS_CODE":0,"TOWNNAME":"北區","LI":"光武里","LIN":"4鄰","STREET":"大武街","SECT":" ","MAREA":" ","LANE":"１３３巷","ALLEY":" ","HOUSE_NO":"１０號","E_COORD97":169594.95000000001,"N_COORD97":2545848.8599999999,"ADDRESS":"大武街１３３巷１０號","OBJECTID":492049},"geometry":{"x":169594.95000000019,"y":2545848.8600000031}},{"attributes":{"ID":492077,"DIS_CODE":0,"TOWNNAME":"北區","LI":"成德里","LIN":"41鄰","STREET":"文成一路","SECT":" ","MAREA":" ","LANE":"２００巷","ALLEY":" ","HOUSE_NO":"２號","E_COORD97":168311.38,"N_COORD97":2546081.02,"ADDRESS":"文成一路２００巷２號","OBJECTID":492050},"geometry":{"x":168311.38000000082,"y":2546081.0199999996}},{"attributes":{"ID":492078,"DIS_CODE":0,"TOWNNAME":"歸仁區","LI":"武東里","LIN":"14鄰","STREET":"光明街","SECT":" ","MAREA":" ","LANE":"８６巷","ALLEY":" ","HOUSE_NO":"１３５之１號","E_COORD97":175361.88933999999,"N_COORD97":2536545.34314,"ADDRESS":"光明街８６巷１３５之１號","OBJECTID":492051},"geometry":{"x":175361.88934000116,"y":2536545.3431369998}},{"attributes":{"ID":492079,"DIS_CODE":0,"TOWNNAME":"新營區","LI":"新南里","LIN":"14鄰","STREET":"民治路","SECT":" ","MAREA":" ","LANE":"２３０巷","ALLEY":" ","HOUSE_NO":"５９號","E_COORD97":178652.04000000001,"N_COORD97":2578636.7400000002,"ADDRESS":"民治路２３０巷５９號","OBJECTID":492052},"geometry":{"x":178652.0400000019,"y":2578636.7400000021}},{"attributes":{"ID":492080,"DIS_CODE":0,"TOWNNAME":"新營區","LI":"興業里","LIN":" ","STREET":"中興路","SECT":" ","MAREA":" ","LANE":"１３巷","ALLEY":" ","HOUSE_NO":"２３之２號","E_COORD97":180248.16,"N_COORD97":2577978.0099999998,"ADDRESS":"中興路１３巷２３之２號","OBJECTID":492053},"geometry":{"x":180248.16000000201,"y":2577978.0099999998}},{"attributes":{"ID":492081,"DIS_CODE":0,"TOWNNAME":"新營區","LI":"新南里","LIN":"14鄰","STREET":"民治路","SECT":" ","MAREA":" ","LANE":"３００巷","ALLEY":" ","HOUSE_NO":"６６號","E_COORD97":178626.38,"N_COORD97":2578620.25,"ADDRESS":"民治路３００巷６６號","OBJECTID":492054},"geometry":{"x":178626.38000000082,"y":2578620.25}},{"attributes":{"ID":492082,"DIS_CODE":0,"TOWNNAME":"新營區","LI":"南興里","LIN":"10鄰","STREET":"和平路","SECT":" ","MAREA":" ","LANE":"１０４巷","ALLEY":" ","HOUSE_NO":"４號之２","E_COORD97":179388.79999999999,"N_COORD97":2577565.6699999999,"ADDRESS":"和平路１０４巷４之２號","OBJECTID":492055},"geometry":{"x":179388.79999999981,"y":2577565.6700000018}},{"attributes":{"ID":492083,"DIS_CODE":0,"TOWNNAME":"新營區","LI":"南興里","LIN":" ","STREET":"延平路","SECT":" ","MAREA":" ","LANE":"１４０巷","ALLEY":" ","HOUSE_NO":"５之１號","E_COORD97":179661.13,"N_COORD97":2577412.6600000001,"ADDRESS":"延平路１４０巷５之１號","OBJECTID":492056},"geometry":{"x":179661.12999999989,"y":2577412.660000002}},{"attributes":{"ID":492084,"DIS_CODE":0,"TOWNNAME":"關廟區","LI":"埤頭里","LIN":"4鄰","STREET":"保東路","SECT":" ","MAREA":" ","LANE":"１１５巷","ALLEY":" ","HOUSE_NO":"７２號","E_COORD97":178781.82000000001,"N_COORD97":2543955.2999999998,"ADDRESS":"保東路１１５巷７２號","OBJECTID":492057},"geometry":{"x":178781.8200000003,"y":2543955.3000000045}},{"attributes":{"ID":492085,"DIS_CODE":0,"TOWNNAME":"關廟區","LI":"龜洞里","LIN":"8鄰","STREET":"官崙街","SECT":" ","MAREA":" ","LANE":"５６巷","ALLEY":" ","HOUSE_NO":"２號","E_COORD97":183455.84,"N_COORD97":2533384.2999999998,"ADDRESS":"官崙街５６巷２號","OBJECTID":492058},"geometry":{"x":183455.84000000078,"y":2533384.3000000026}},{"attributes":{"ID":492086,"DIS_CODE":0,"TOWNNAME":"新化區","LI":"東榮里","LIN":"13鄰","STREET":"中興路","SECT":" ","MAREA":" ","LANE":"５５４巷","ALLEY":" ","HOUSE_NO":"４１號","E_COORD97":179910.26000000001,"N_COORD97":2548045.25,"ADDRESS":"中興路５５４巷４１號","OBJECTID":492059},"geometry":{"x":179910.26000000071,"y":2548045.25}},{"attributes":{"ID":492087,"DIS_CODE":0,"TOWNNAME":"鹽水區","LI":"橋南里","LIN":"4鄰","STREET":"行昌路","SECT":" ","MAREA":" ","LANE":"６８巷","ALLEY":" ","HOUSE_NO":"８號","E_COORD97":175195.07999999999,"N_COORD97":2579453.8599999999,"ADDRESS":"行昌路６８巷８號","OBJECTID":492060},"geometry":{"x":175195.08000000007,"y":2579453.8599999975}},{"attributes":{"ID":492088,"DIS_CODE":0,"TOWNNAME":"鹽水區","LI":"水仙里","LIN":"4鄰","STREET":"西門路","SECT":" ","MAREA":" ","LANE":"１８巷","ALLEY":" ","HOUSE_NO":"１號","E_COORD97":175011.78,"N_COORD97":2579770.3500000001,"ADDRESS":"西門路１８巷１號","OBJECTID":492061},"geometry":{"x":175011.78000000119,"y":2579770.3500000015}},{"attributes":{"ID":492089,"DIS_CODE":0,"TOWNNAME":"歸仁區","LI":"歸仁里","LIN":"1鄰","STREET":"文化街","SECT":"一段","MAREA":" ","LANE":"１１６巷","ALLEY":" ","HOUSE_NO":"７號","E_COORD97":177762.51530200001,"N_COORD97":2541181.0381100001,"ADDRESS":"文化街一段１１６巷７號","OBJECTID":492062},"geometry":{"x":177762.51530200057,"y":2541181.0381109994}},{"attributes":{"ID":492090,"DIS_CODE":0,"TOWNNAME":"永康區","LI":"正強里","LIN":"32鄰","STREET":"四維街","SECT":" ","MAREA":" ","LANE":"２９巷","ALLEY":" ","HOUSE_NO":"１５號","E_COORD97":173370.79999999999,"N_COORD97":2547993,"ADDRESS":"四維街２９巷１５號","OBJECTID":492063},"geometry":{"x":173370.79999999981,"y":2547993}},{"attributes":{"ID":492091,"DIS_CODE":0,"TOWNNAME":"永康區","LI":"正強里","LIN":"32鄰","STREET":"中正路","SECT":" ","MAREA":" ","LANE":"２２２巷","ALLEY":" ","HOUSE_NO":"３號","E_COORD97":173325.10000000001,"N_COORD97":2547926.2400000002,"ADDRESS":"中正路２２２巷３號","OBJECTID":492064},"geometry":{"x":173325.10000000056,"y":2547926.2400000021}},{"attributes":{"ID":492092,"DIS_CODE":0,"TOWNNAME":"佳里區","LI":"鎮山里","LIN":"2鄰","STREET":"自由街","SECT":" ","MAREA":" ","LANE":"１０６巷","ALLEY":" ","HOUSE_NO":"４號","E_COORD97":165832.040966,"N_COORD97":2561815.4237700002,"ADDRESS":"自由街１０６巷４號","OBJECTID":492065},"geometry":{"x":165832.04096600134,"y":2561815.4237740021}},{"attributes":{"ID":492093,"DIS_CODE":0,"TOWNNAME":"鹽水區","LI":"岸內里","LIN":"20鄰","STREET":"清泉路","SECT":" ","MAREA":" ","LANE":"１７５巷","ALLEY":" ","HOUSE_NO":"１０號","E_COORD97":175128.81,"N_COORD97":2580497.6499999999,"ADDRESS":"清泉路１７５巷１０號","OBJECTID":492066},"geometry":{"x":175128.81000000145,"y":2580497.6500000022}},{"attributes":{"ID":492094,"DIS_CODE":0,"TOWNNAME":"鹽水區","LI":"岸內里","LIN":"20鄰","STREET":"清泉路","SECT":" ","MAREA":" ","LANE":"１７５巷","ALLEY":" ","HOUSE_NO":"２號","E_COORD97":175150.06,"N_COORD97":2580496.25,"ADDRESS":"清泉路１７５巷２號","OBJECTID":492067},"geometry":{"x":175150.05999999959,"y":2580496.2500000037}},{"attributes":{"ID":492095,"DIS_CODE":0,"TOWNNAME":"鹽水區","LI":"岸內里","LIN":"20鄰","STREET":"清泉路","SECT":" ","MAREA":" ","LANE":"１７５巷","ALLEY":" ","HOUSE_NO":"４號","E_COORD97":175146.32000000001,"N_COORD97":2580495.8900000001,"ADDRESS":"清泉路１７５巷４號","OBJECTID":492068},"geometry":{"x":175146.3200000003,"y":2580495.8900000043}},{"attributes":{"ID":492096,"DIS_CODE":0,"TOWNNAME":"北區","LI":"成德里","LIN":"32鄰","STREET":"育德路","SECT":" ","MAREA":" ","LANE":"５８０巷","ALLEY":" ","HOUSE_NO":"１０號","E_COORD97":168763.14999999999,"N_COORD97":2546296.2000000002,"ADDRESS":"育德路５８０巷１０號","OBJECTID":492069},"geometry":{"x":168763.15000000037,"y":2546296.1999999993}},{"attributes":{"ID":492097,"DIS_CODE":0,"TOWNNAME":"關廟區","LI":"關廟里","LIN":"4鄰","STREET":"中山路","SECT":"二段","MAREA":" ","LANE":"１７０巷","ALLEY":" ","HOUSE_NO":"１６號","E_COORD97":180788.51000000001,"N_COORD97":2540132.2799999998,"ADDRESS":"中山路二段１７０巷１６號","OBJECTID":492070},"geometry":{"x":180788.51000000071,"y":2540132.2799999993}},{"attributes":{"ID":492098,"DIS_CODE":0,"TOWNNAME":"關廟區","LI":"新埔里","LIN":"4鄰","STREET":"新埔三街","SECT":" ","MAREA":" ","LANE":"２７巷","ALLEY":" ","HOUSE_NO":"３９號","E_COORD97":181137.32000000001,"N_COORD97":2540856.25,"ADDRESS":"新埔三街２７巷３９號","OBJECTID":492071},"geometry":{"x":181137.32000000216,"y":2540856.2500000019}},{"attributes":{"ID":492099,"DIS_CODE":0,"TOWNNAME":"關廟區","LI":"五甲里","LIN":"9鄰","STREET":"南雄路","SECT":"一段","MAREA":" ","LANE":"５８０巷","ALLEY":" ","HOUSE_NO":"３９號","E_COORD97":181749.54170900001,"N_COORD97":2538495.2102999999,"ADDRESS":"南雄路一段５８０巷３９號","OBJECTID":492072},"geometry":{"x":181749.54170900024,"y":2538495.210303003}},{"attributes":{"ID":492100,"DIS_CODE":0,"TOWNNAME":"關廟區","LI":"香洋里","LIN":"25鄰","STREET":"民生街","SECT":" ","MAREA":" ","LANE":"２１８巷","ALLEY":" ","HOUSE_NO":"２０號","E_COORD97":180973.34,"N_COORD97":2539944.29,"ADDRESS":"民生街２１８巷２０號","OBJECTID":492073},"geometry":{"x":180973.33999999985,"y":2539944.290000001}},{"attributes":{"ID":492101,"DIS_CODE":0,"TOWNNAME":"關廟區","LI":"松腳里","LIN":"18鄰","STREET":"中山路","SECT":"一段","MAREA":" ","LANE":"８９巷","ALLEY":" ","HOUSE_NO":"２３號","E_COORD97":181933.06,"N_COORD97":2539881.2799999998,"ADDRESS":"中山路一段８９巷２３號","OBJECTID":492074},"geometry":{"x":181933.05999999959,"y":2539881.2799999993}},{"attributes":{"ID":492102,"DIS_CODE":0,"TOWNNAME":"關廟區","LI":"北花里","LIN":"20鄰","STREET":"中正路","SECT":" ","MAREA":" ","LANE":"１１３巷","ALLEY":" ","HOUSE_NO":"４８號","E_COORD97":183594.95999999999,"N_COORD97":2540798.6200000001,"ADDRESS":"中正路１１３巷４８號","OBJECTID":492075},"geometry":{"x":183594.95999999996,"y":2540798.620000001}},{"attributes":{"ID":492103,"DIS_CODE":0,"TOWNNAME":"歸仁區","LI":"大廟里","LIN":"3鄰","STREET":"保大路","SECT":"三段","MAREA":" ","LANE":"５５巷","ALLEY":" ","HOUSE_NO":"６５號","E_COORD97":176460.95819400001,"N_COORD97":2543887.9379400001,"ADDRESS":"保大路三段５５巷６５號","OBJECTID":492076},"geometry":{"x":176460.95819400065,"y":2543887.9379440043}},{"attributes":{"ID":492104,"DIS_CODE":0,"TOWNNAME":"歸仁區","LI":"六甲里","LIN":"26鄰","STREET":"六甲路","SECT":" ","MAREA":" ","LANE":"２２６巷","ALLEY":" ","HOUSE_NO":"２８號","E_COORD97":175987.72,"N_COORD97":2539266.25,"ADDRESS":"六甲路２２６巷２８號","OBJECTID":492077},"geometry":{"x":175987.72000000067,"y":2539266.2500000019}},{"attributes":{"ID":492105,"DIS_CODE":0,"TOWNNAME":"歸仁區","LI":"六甲里","LIN":"42鄰","STREET":"六甲二街","SECT":" ","MAREA":" ","LANE":"６９巷","ALLEY":" ","HOUSE_NO":"１號","E_COORD97":175936.87,"N_COORD97":2539300.25,"ADDRESS":"六甲二街６９巷１號","OBJECTID":492078},"geometry":{"x":175936.87000000011,"y":2539300.2500000019}},{"attributes":{"ID":492106,"DIS_CODE":0,"TOWNNAME":"安平區","LI":"國平里","LIN":"13鄰","STREET":"建平一街","SECT":" ","MAREA":" ","LANE":"１８９巷","ALLEY":" ","HOUSE_NO":"５８號","E_COORD97":165523.82000000001,"N_COORD97":2542756.6400000001,"ADDRESS":"建平一街１８９巷５８號","OBJECTID":492079},"geometry":{"x":165523.8200000003,"y":2542756.6400000025}},{"attributes":{"ID":492107,"DIS_CODE":0,"TOWNNAME":"南區","LI":"永寧里","LIN":"21鄰","STREET":"灣裡路","SECT":" ","MAREA":" ","LANE":"３０１巷","ALLEY":" ","HOUSE_NO":"３號","E_COORD97":166172.48000000001,"N_COORD97":2536319.1499999999,"ADDRESS":"灣裡路３０１巷３號","OBJECTID":492080},"geometry":{"x":166172.48000000045,"y":2536319.1500000004}},{"attributes":{"ID":492108,"DIS_CODE":0,"TOWNNAME":"南區","LI":"松安里","LIN":"4鄰","STREET":"灣裡路","SECT":" ","MAREA":" ","LANE":"２８２巷","ALLEY":" ","HOUSE_NO":"８４號","E_COORD97":166020.76999999999,"N_COORD97":2536217.2599999998,"ADDRESS":"灣裡路２８２巷８４號","OBJECTID":492081},"geometry":{"x":166020.77000000142,"y":2536217.2599999998}},{"attributes":{"ID":492109,"DIS_CODE":0,"TOWNNAME":"南區","LI":"松安里","LIN":"6鄰","STREET":"灣裡路","SECT":" ","MAREA":" ","LANE":"２８２巷","ALLEY":" ","HOUSE_NO":"５３號","E_COORD97":166036.84,"N_COORD97":2536278.1000000001,"ADDRESS":"灣裡路２８２巷５３號","OBJECTID":492082},"geometry":{"x":166036.83999999985,"y":2536278.0999999996}},{"attributes":{"ID":492110,"DIS_CODE":0,"TOWNNAME":"南區","LI":"松安里","LIN":"6鄰","STREET":"灣裡路","SECT":" ","MAREA":" ","LANE":"２８２巷","ALLEY":" ","HOUSE_NO":"５９號","E_COORD97":166039.12,"N_COORD97":2536254.5,"ADDRESS":"灣裡路２８２巷５９號","OBJECTID":492083},"geometry":{"x":166039.12000000011,"y":2536254.5000000019}},{"attributes":{"ID":492111,"DIS_CODE":0,"TOWNNAME":"南區","LI":"松安里","LIN":"6鄰","STREET":"灣裡路","SECT":" ","MAREA":" ","LANE":"３２４巷","ALLEY":" ","HOUSE_NO":"１１號","E_COORD97":166057.54999999999,"N_COORD97":2536286.0299999998,"ADDRESS":"灣裡路３２４巷１１號","OBJECTID":492084},"geometry":{"x":166057.54999999981,"y":2536286.0299999993}},{"attributes":{"ID":492112,"DIS_CODE":0,"TOWNNAME":"南區","LI":"松安里","LIN":"6鄰","STREET":"灣裡路","SECT":" ","MAREA":" ","LANE":"３２４巷","ALLEY":" ","HOUSE_NO":"１５號","E_COORD97":166050.51999999999,"N_COORD97":2536286.0299999998,"ADDRESS":"灣裡路３２４巷１５號","OBJECTID":492085},"geometry":{"x":166050.51999999955,"y":2536286.0299999993}},{"attributes":{"ID":492113,"DIS_CODE":0,"TOWNNAME":"歸仁區","LI":"看西里","LIN":"2鄰","STREET":"成功六街","SECT":" ","MAREA":" ","LANE":"３８巷","ALLEY":" ","HOUSE_NO":"９２號","E_COORD97":178422.68142499999,"N_COORD97":2540313.8051100001,"ADDRESS":"成功六街３８巷９２號","OBJECTID":492086},"geometry":{"x":178422.68142499961,"y":2540313.8051089998}},{"attributes":{"ID":492114,"DIS_CODE":0,"TOWNNAME":"鹽水區","LI":"橋南里","LIN":"1鄰","STREET":"橋南街","SECT":" ","MAREA":" ","LANE":"１１巷","ALLEY":" ","HOUSE_NO":"１號","E_COORD97":175141.39000000001,"N_COORD97":2579554,"ADDRESS":"橋南街１１巷１號","OBJECTID":492087},"geometry":{"x":175141.38999999966,"y":2579554}},{"attributes":{"ID":492115,"DIS_CODE":0,"TOWNNAME":"鹽水區","LI":"橋南里","LIN":"1鄰","STREET":"橋南街","SECT":" ","MAREA":" ","LANE":"１１巷","ALLEY":" ","HOUSE_NO":"２號","E_COORD97":175137.14999999999,"N_COORD97":2579579.8599999999,"ADDRESS":"橋南街１１巷２號","OBJECTID":492088},"geometry":{"x":175137.15000000037,"y":2579579.8600000013}},{"attributes":{"ID":492116,"DIS_CODE":0,"TOWNNAME":"南區","LI":"大忠里","LIN":"4鄰","STREET":"公英一街","SECT":" ","MAREA":" ","LANE":"３７巷","ALLEY":" ","HOUSE_NO":"５號","E_COORD97":169417.72,"N_COORD97":2541242.8199999998,"ADDRESS":"公英一街３７巷５號","OBJECTID":492089},"geometry":{"x":169417.71999999974,"y":2541242.8200000022}},{"attributes":{"ID":492117,"DIS_CODE":0,"TOWNNAME":"北區","LI":"大豐里","LIN":"4鄰","STREET":"武聖路","SECT":" ","MAREA":" ","LANE":"３６巷","ALLEY":" ","HOUSE_NO":"６６號","E_COORD97":167124.57000000001,"N_COORD97":2545221.1899999999,"ADDRESS":"武聖路３６巷６６號","OBJECTID":492090},"geometry":{"x":167124.5700000003,"y":2545221.1899999995}},{"attributes":{"ID":492118,"DIS_CODE":0,"TOWNNAME":"北區","LI":"正覺里","LIN":" ","STREET":"正覺街","SECT":" ","MAREA":" ","LANE":"６６巷","ALLEY":" ","HOUSE_NO":"２號","E_COORD97":169338.23000000001,"N_COORD97":2546369.02,"ADDRESS":"正覺街６６巷２號","OBJECTID":492091},"geometry":{"x":169338.23000000138,"y":2546369.0199999996}},{"attributes":{"ID":492119,"DIS_CODE":0,"TOWNNAME":"新營區","LI":"南興里","LIN":"11鄰","STREET":"和平路","SECT":" ","MAREA":" ","LANE":"１０４巷","ALLEY":" ","HOUSE_NO":"３６號之１","E_COORD97":179304.14000000001,"N_COORD97":2577568.2999999998,"ADDRESS":"和平路１０４巷３６之１號","OBJECTID":492092},"geometry":{"x":179304.1400000006,"y":2577568.3000000026}},{"attributes":{"ID":492120,"DIS_CODE":0,"TOWNNAME":"新營區","LI":"南興里","LIN":" ","STREET":"興農街","SECT":" ","MAREA":" ","LANE":"１４０巷","ALLEY":" ","HOUSE_NO":"２７之２號","E_COORD97":179151.5,"N_COORD97":2577526.9500000002,"ADDRESS":"興農街１４０巷２７之２號","OBJECTID":492093},"geometry":{"x":179151.50000000093,"y":2577526.9499999993}},{"attributes":{"ID":492121,"DIS_CODE":0,"TOWNNAME":"新營區","LI":"南興里","LIN":"18鄰","STREET":"建業路","SECT":" ","MAREA":" ","LANE":"１５７巷","ALLEY":" ","HOUSE_NO":"１２號","E_COORD97":178384.41,"N_COORD97":2577445.2999999998,"ADDRESS":"建業路１５７巷１２號","OBJECTID":492094},"geometry":{"x":178384.41000000015,"y":2577445.3000000045}},{"attributes":{"ID":492122,"DIS_CODE":0,"TOWNNAME":"新營區","LI":"嘉芳里","LIN":"13鄰","STREET":"復興路","SECT":" ","MAREA":" ","LANE":"９７１巷","ALLEY":" ","HOUSE_NO":"１５號","E_COORD97":176800.76999999999,"N_COORD97":2578659.0600000001,"ADDRESS":"復興路９７１巷１５號","OBJECTID":492095},"geometry":{"x":176800.77000000048,"y":2578659.0600000005}},{"attributes":{"ID":492123,"DIS_CODE":0,"TOWNNAME":"新營區","LI":"新南里","LIN":"14鄰","STREET":"民治路","SECT":" ","MAREA":" ","LANE":"３００巷","ALLEY":" ","HOUSE_NO":"７０之７號","E_COORD97":178615.91,"N_COORD97":2578683.48,"ADDRESS":"民治路３００巷７０之７號","OBJECTID":492096},"geometry":{"x":178615.91000000108,"y":2578683.4800000004}},{"attributes":{"ID":492124,"DIS_CODE":0,"TOWNNAME":"新營區","LI":"民榮里","LIN":" ","STREET":"裕民路","SECT":" ","MAREA":" ","LANE":"１６巷","ALLEY":" ","HOUSE_NO":"１８之３號","E_COORD97":179048,"N_COORD97":2577928.3399999999,"ADDRESS":"裕民路１６巷１８之３號","OBJECTID":492097},"geometry":{"x":179048.00000000093,"y":2577928.3399999999}},{"attributes":{"ID":492125,"DIS_CODE":0,"TOWNNAME":"新營區","LI":"民榮里","LIN":"5鄰","STREET":"興農街","SECT":" ","MAREA":" ","LANE":"４７巷","ALLEY":" ","HOUSE_NO":"１１號","E_COORD97":179278.35000000001,"N_COORD97":2577850.7599999998,"ADDRESS":"興農街４７巷１１號","OBJECTID":492098},"geometry":{"x":179278.3499999987,"y":2577850.7599999998}},{"attributes":{"ID":492126,"DIS_CODE":0,"TOWNNAME":"新營區","LI":"民生里","LIN":" ","STREET":"三民路","SECT":" ","MAREA":" ","LANE":"１８６巷","ALLEY":" ","HOUSE_NO":"７之２號","E_COORD97":179176.04999999999,"N_COORD97":2578223.4100000001,"ADDRESS":"三民路１８６巷７之２號","OBJECTID":492099},"geometry":{"x":179176.05000000075,"y":2578223.4100000001}},{"attributes":{"ID":492127,"DIS_CODE":0,"TOWNNAME":"新營區","LI":"南興里","LIN":"18鄰","STREET":"建業路","SECT":" ","MAREA":" ","LANE":"１５７巷","ALLEY":" ","HOUSE_NO":"１０號","E_COORD97":178385.45999999999,"N_COORD97":2577450.8300000001,"ADDRESS":"建業路１５７巷１０號","OBJECTID":492100},"geometry":{"x":178385.46000000089,"y":2577450.8300000001}},{"attributes":{"ID":492128,"DIS_CODE":0,"TOWNNAME":"新營區","LI":"新北里","LIN":"24鄰","STREET":"民生路","SECT":" ","MAREA":" ","LANE":"４２０巷","ALLEY":" ","HOUSE_NO":"３２號","E_COORD97":178893.98000000001,"N_COORD97":2579374.25,"ADDRESS":"民生路４２０巷３２號","OBJECTID":492101},"geometry":{"x":178893.98000000138,"y":2579374.2500000037}},{"attributes":{"ID":492129,"DIS_CODE":0,"TOWNNAME":"新營區","LI":"中營里","LIN":"14鄰","STREET":"東昇街","SECT":" ","MAREA":" ","LANE":"１７７巷","ALLEY":" ","HOUSE_NO":"２６號","E_COORD97":181920.42999999999,"N_COORD97":2579154.04,"ADDRESS":"東昇街１７７巷２６號","OBJECTID":492102},"geometry":{"x":181920.4299999997,"y":2579154.0400000028}},{"attributes":{"ID":492130,"DIS_CODE":0,"TOWNNAME":"新營區","LI":"南興里","LIN":" ","STREET":"興農街","SECT":" ","MAREA":" ","LANE":"１３８巷","ALLEY":" ","HOUSE_NO":"２４之１號","E_COORD97":179153.76000000001,"N_COORD97":2577571.23,"ADDRESS":"興農街１３８巷２４之１號","OBJECTID":492103},"geometry":{"x":179153.76000000164,"y":2577571.2300000042}},{"attributes":{"ID":492131,"DIS_CODE":0,"TOWNNAME":"新營區","LI":"新北里","LIN":"24鄰","STREET":"民生路","SECT":" ","MAREA":" ","LANE":"４２０巷","ALLEY":" ","HOUSE_NO":"３５號","E_COORD97":178892.04999999999,"N_COORD97":2579399.7200000002,"ADDRESS":"民生路４２０巷３５號","OBJECTID":492104},"geometry":{"x":178892.04999999981,"y":2579399.7200000025}},{"attributes":{"ID":492132,"DIS_CODE":0,"TOWNNAME":"新營區","LI":"興業里","LIN":" ","STREET":"公誠街","SECT":" ","MAREA":" ","LANE":"１１巷","ALLEY":" ","HOUSE_NO":"２之３號","E_COORD97":180303.09,"N_COORD97":2577960.0299999998,"ADDRESS":"公誠街１１巷２之３號","OBJECTID":492105},"geometry":{"x":180303.09000000078,"y":2577960.0299999993}},{"attributes":{"ID":492133,"DIS_CODE":0,"TOWNNAME":"新營區","LI":"興業里","LIN":" ","STREET":"公誠街","SECT":" ","MAREA":" ","LANE":"１１巷","ALLEY":" ","HOUSE_NO":"２之２號","E_COORD97":180303.09,"N_COORD97":2577960.0299999998,"ADDRESS":"公誠街１１巷２之２號","OBJECTID":492106},"geometry":{"x":180303.09000000078,"y":2577960.0299999993}},{"attributes":{"ID":492134,"DIS_CODE":0,"TOWNNAME":"新營區","LI":"新北里","LIN":"20鄰","STREET":"民生路","SECT":" ","MAREA":" ","LANE":"３３０巷","ALLEY":" ","HOUSE_NO":"１１號","E_COORD97":178968.64000000001,"N_COORD97":2579180.0800000001,"ADDRESS":"民生路３３０巷１１號","OBJECTID":492107},"geometry":{"x":178968.6400000006,"y":2579180.0800000019}},{"attributes":{"ID":492135,"DIS_CODE":0,"TOWNNAME":"新營區","LI":"興業里","LIN":" ","STREET":"公誠街","SECT":" ","MAREA":" ","LANE":"１１巷","ALLEY":" ","HOUSE_NO":"３之２號","E_COORD97":180312.39000000001,"N_COORD97":2577975.4900000002,"ADDRESS":"公誠街１１巷３之２號","OBJECTID":492108},"geometry":{"x":180312.39000000153,"y":2577975.4900000002}},{"attributes":{"ID":492136,"DIS_CODE":0,"TOWNNAME":"新營區","LI":"新東里","LIN":"10鄰","STREET":"東昌街","SECT":" ","MAREA":" ","LANE":"５６巷","ALLEY":" ","HOUSE_NO":"２０號","E_COORD97":181354.53,"N_COORD97":2579516.7400000002,"ADDRESS":"東昌街５６巷２０號","OBJECTID":492109},"geometry":{"x":181354.53000000212,"y":2579516.7400000039}},{"attributes":{"ID":492137,"DIS_CODE":0,"TOWNNAME":"楠西區","LI":"東勢里","LIN":"14鄰","STREET":"茄拔路","SECT":" ","MAREA":" ","LANE":"１７７巷","ALLEY":" ","HOUSE_NO":"１０號","E_COORD97":197445.82999999999,"N_COORD97":2563796.2000000002,"ADDRESS":"茄拔路１７７巷１０號","OBJECTID":492110},"geometry":{"x":197445.83000000007,"y":2563796.2000000011}},{"attributes":{"ID":492138,"DIS_CODE":0,"TOWNNAME":"楠西區","LI":"東勢里","LIN":"4鄰","STREET":"東勢路","SECT":" ","MAREA":" ","LANE":"１６０巷","ALLEY":" ","HOUSE_NO":"３０號","E_COORD97":197412.42000000001,"N_COORD97":2564103.29,"ADDRESS":"東勢路１６０巷３０號","OBJECTID":492111},"geometry":{"x":197412.42000000086,"y":2564103.290000001}},{"attributes":{"ID":492139,"DIS_CODE":0,"TOWNNAME":"楠西區","LI":"東勢里","LIN":"18鄰","STREET":"忠孝路","SECT":" ","MAREA":" ","LANE":"５１巷","ALLEY":" ","HOUSE_NO":"２１號","E_COORD97":197683.04000000001,"N_COORD97":2564137.25,"ADDRESS":"忠孝路５１巷２１號","OBJECTID":492112},"geometry":{"x":197683.04000000097,"y":2564137.25}},{"attributes":{"ID":492140,"DIS_CODE":0,"TOWNNAME":"新市區","LI":"新市里","LIN":"9鄰","STREET":"中正路","SECT":" ","MAREA":" ","LANE":"３５６巷","ALLEY":" ","HOUSE_NO":"１７號","E_COORD97":177605.44446599999,"N_COORD97":2553156.57149,"ADDRESS":"中正路３５６巷１７號","OBJECTID":492113},"geometry":{"x":177605.44446600135,"y":2553156.5714950003}},{"attributes":{"ID":492141,"DIS_CODE":0,"TOWNNAME":"新化區","LI":"東榮里","LIN":"18鄰","STREET":"中興路","SECT":" ","MAREA":" ","LANE":"６８５巷","ALLEY":" ","HOUSE_NO":"３１號","E_COORD97":179577.56,"N_COORD97":2547977.25,"ADDRESS":"中興路６８５巷３１號","OBJECTID":492114},"geometry":{"x":179577.56000000052,"y":2547977.2500000019}},{"attributes":{"ID":492142,"DIS_CODE":0,"TOWNNAME":"新化區","LI":"護國里","LIN":"7鄰","STREET":"復興路","SECT":" ","MAREA":" ","LANE":"２９０巷","ALLEY":" ","HOUSE_NO":"１號之６","E_COORD97":179382.87,"N_COORD97":2548454.2599999998,"ADDRESS":"復興路２９０巷１號之６","OBJECTID":492115},"geometry":{"x":179382.87000000104,"y":2548454.2600000016}},{"attributes":{"ID":492143,"DIS_CODE":0,"TOWNNAME":"新化區","LI":"豐榮里","LIN":"13鄰","STREET":"民治路","SECT":" ","MAREA":" ","LANE":"１８巷","ALLEY":" ","HOUSE_NO":"６號","E_COORD97":178765.76000000001,"N_COORD97":2547992.25,"ADDRESS":"民治路１８巷６號","OBJECTID":492116},"geometry":{"x":178765.76000000071,"y":2547992.25}},{"attributes":{"ID":492144,"DIS_CODE":0,"TOWNNAME":"新化區","LI":"太平里","LIN":"8鄰","STREET":"中正路","SECT":" ","MAREA":" ","LANE":"５９０巷","ALLEY":" ","HOUSE_NO":"１號之１","E_COORD97":178824.23999999999,"N_COORD97":2549225.2599999998,"ADDRESS":"中正路５９０巷１號之１","OBJECTID":492117},"geometry":{"x":178824.24000000115,"y":2549225.2599999998}},{"attributes":{"ID":492145,"DIS_CODE":0,"TOWNNAME":"新化區","LI":"東榮里","LIN":"8鄰","STREET":"信義路","SECT":" ","MAREA":" ","LANE":"１１７巷","ALLEY":" ","HOUSE_NO":"２８號之２３","E_COORD97":179745.07999999999,"N_COORD97":2548306.2599999998,"ADDRESS":"信義路１１７巷２８號之２３","OBJECTID":492118},"geometry":{"x":179745.07999999914,"y":2548306.2599999998}},{"attributes":{"ID":492146,"DIS_CODE":0,"TOWNNAME":"新化區","LI":"東榮里","LIN":"4鄰","STREET":"信義路","SECT":" ","MAREA":" ","LANE":"９３巷","ALLEY":" ","HOUSE_NO":"１３號","E_COORD97":179864.92999999999,"N_COORD97":2548662.25,"ADDRESS":"信義路９３巷１３號","OBJECTID":492119},"geometry":{"x":179864.93000000063,"y":2548662.2500000019}},{"attributes":{"ID":492147,"DIS_CODE":0,"TOWNNAME":"新化區","LI":"協興里","LIN":"4鄰","STREET":"正新路","SECT":" ","MAREA":" ","LANE":"２４７巷","ALLEY":" ","HOUSE_NO":"１９號","E_COORD97":178501.17000000001,"N_COORD97":2548492.25,"ADDRESS":"正新路２４７巷１９號","OBJECTID":492120},"geometry":{"x":178501.16999999993,"y":2548492.2500000019}},{"attributes":{"ID":492148,"DIS_CODE":0,"TOWNNAME":"新化區","LI":"東榮里","LIN":"4鄰","STREET":"信義路","SECT":" ","MAREA":" ","LANE":"２９巷","ALLEY":" ","HOUSE_NO":"２３號","E_COORD97":180913.23000000001,"N_COORD97":2548579.25,"ADDRESS":"信義路２９巷２３號","OBJECTID":492121},"geometry":{"x":180913.23000000138,"y":2548579.2500000037}},{"attributes":{"ID":492149,"DIS_CODE":0,"TOWNNAME":"新化區","LI":"觀音里","LIN":"4鄰","STREET":"仁愛街","SECT":" ","MAREA":" ","LANE":"６５巷","ALLEY":" ","HOUSE_NO":"１７號","E_COORD97":178999.63,"N_COORD97":2548546.25,"ADDRESS":"仁愛街６５巷１７號","OBJECTID":492122},"geometry":{"x":178999.63000000082,"y":2548546.2500000019}},{"attributes":{"ID":492150,"DIS_CODE":0,"TOWNNAME":"新化區","LI":"協興里","LIN":"2鄰","STREET":"忠孝路","SECT":" ","MAREA":" ","LANE":" ","ALLEY":" ","HOUSE_NO":"１６８號","E_COORD97":178491.51999999999,"N_COORD97":2548609.25,"ADDRESS":"忠孝路１６６巷１６８號","OBJECTID":492123},"geometry":{"x":178491.51999999955,"y":2548609.25}},{"attributes":{"ID":492151,"DIS_CODE":0,"TOWNNAME":"新化區","LI":"觀音里","LIN":"4鄰","STREET":"仁愛街","SECT":" ","MAREA":" ","LANE":"６５巷","ALLEY":" ","HOUSE_NO":"２３號","E_COORD97":179006.13,"N_COORD97":2548523.25,"ADDRESS":"仁愛街６５巷２３號","OBJECTID":492124},"geometry":{"x":179006.13000000082,"y":2548523.2500000019}},{"attributes":{"ID":492152,"DIS_CODE":0,"TOWNNAME":"新化區","LI":"太平里","LIN":" ","STREET":"中正路","SECT":" ","MAREA":" ","LANE":"６２２巷","ALLEY":" ","HOUSE_NO":"３３號","E_COORD97":178755.95999999999,"N_COORD97":2549472.25,"ADDRESS":"中正路６２２巷３３號","OBJECTID":492125},"geometry":{"x":178755.96000000183,"y":2549472.2500000019}},{"attributes":{"ID":492153,"DIS_CODE":0,"TOWNNAME":"新化區","LI":"太平里","LIN":"4鄰","STREET":"中正路","SECT":" ","MAREA":" ","LANE":"５８４巷","ALLEY":" ","HOUSE_NO":"１１號","E_COORD97":178949.16,"N_COORD97":2549128.25,"ADDRESS":"中正路５８４巷１１號","OBJECTID":492126},"geometry":{"x":178949.16000000015,"y":2549128.2499999981}},{"attributes":{"ID":492154,"DIS_CODE":0,"TOWNNAME":"永康區","LI":"埔園里","LIN":"34鄰","STREET":"永大路","SECT":"三段","MAREA":" ","LANE":"６１８巷","ALLEY":" ","HOUSE_NO":"３２號","E_COORD97":174149.51999999999,"N_COORD97":2548719.2999999998,"ADDRESS":"永大路三段６１８巷３２號","OBJECTID":492127},"geometry":{"x":174149.52000000048,"y":2548719.3000000026}},{"attributes":{"ID":492155,"DIS_CODE":0,"TOWNNAME":"永康區","LI":"東橋里","LIN":"14鄰","STREET":"東橋八街","SECT":" ","MAREA":" ","LANE":"２８巷","ALLEY":" ","HOUSE_NO":"１８號","E_COORD97":171426.14999999999,"N_COORD97":2546724.5499999998,"ADDRESS":"東橋八街２８巷１８號","OBJECTID":492128},"geometry":{"x":171426.15000000037,"y":2546724.5500000026}},{"attributes":{"ID":492156,"DIS_CODE":0,"TOWNNAME":"永康區","LI":"復華里","LIN":"4鄰","STREET":"復國二路","SECT":" ","MAREA":" ","LANE":"３０３巷","ALLEY":" ","HOUSE_NO":"１號","E_COORD97":173046.44,"N_COORD97":2546279.1099999999,"ADDRESS":"復國二路３０３巷１號","OBJECTID":492129},"geometry":{"x":173046.44000000041,"y":2546279.1100000013}},{"attributes":{"ID":492157,"DIS_CODE":0,"TOWNNAME":"永康區","LI":"復華里","LIN":"4鄰","STREET":"復國二路","SECT":" ","MAREA":" ","LANE":"３０３巷","ALLEY":" ","HOUSE_NO":"３號","E_COORD97":173028.63,"N_COORD97":2546279.5600000001,"ADDRESS":"復國二路３０３巷３號","OBJECTID":492130},"geometry":{"x":173028.63000000082,"y":2546279.5600000024}},{"attributes":{"ID":492158,"DIS_CODE":0,"TOWNNAME":"永康區","LI":"復華里","LIN":"4鄰","STREET":"復國二路","SECT":" ","MAREA":" ","LANE":"３０３巷","ALLEY":" ","HOUSE_NO":"７號","E_COORD97":173018.59,"N_COORD97":2546279.3799999999,"ADDRESS":"復國二路３０３巷７號","OBJECTID":492131},"geometry":{"x":173018.59000000078,"y":2546279.3800000008}},{"attributes":{"ID":492159,"DIS_CODE":0,"TOWNNAME":"仁德區","LI":"田厝里","LIN":" ","STREET":"田厝二街","SECT":" ","MAREA":" ","LANE":"５８巷","ALLEY":" ","HOUSE_NO":"７號","E_COORD97":172416.07000000001,"N_COORD97":2537658.9900000002,"ADDRESS":"田厝二街５８巷７號","OBJECTID":492132},"geometry":{"x":172416.07000000123,"y":2537658.9900000021}},{"attributes":{"ID":492160,"DIS_CODE":0,"TOWNNAME":"新市區","LI":"新和里","LIN":" ","STREET":"忠孝街","SECT":" ","MAREA":" ","LANE":"２２７巷","ALLEY":" ","HOUSE_NO":"２之５號","E_COORD97":177691.10000000001,"N_COORD97":2552933.5499999998,"ADDRESS":"忠孝街２２７巷２之５號","OBJECTID":492133},"geometry":{"x":177691.09999999963,"y":2552933.5500000007}},{"attributes":{"ID":492161,"DIS_CODE":0,"TOWNNAME":"新市區","LI":"新和里","LIN":" ","STREET":"忠孝街","SECT":" ","MAREA":" ","LANE":"２２７巷","ALLEY":" ","HOUSE_NO":"２之８號","E_COORD97":177677.70000000001,"N_COORD97":2552949.2999999998,"ADDRESS":"忠孝街２２７巷２之８號","OBJECTID":492134},"geometry":{"x":177677.70000000019,"y":2552949.3000000007}},{"attributes":{"ID":492162,"DIS_CODE":0,"TOWNNAME":"新市區","LI":"港墘里","LIN":" ","STREET":"中山路","SECT":" ","MAREA":" ","LANE":"１０巷","ALLEY":" ","HOUSE_NO":"１８號","E_COORD97":180658.20999999999,"N_COORD97":2550884.5,"ADDRESS":"中山路１０巷１８號","OBJECTID":492135},"geometry":{"x":180658.21000000089,"y":2550884.5000000019}},{"attributes":{"ID":492163,"DIS_CODE":0,"TOWNNAME":"新市區","LI":"新和里","LIN":"46鄰","STREET":"和平街","SECT":" ","MAREA":" ","LANE":"２１２巷","ALLEY":" ","HOUSE_NO":"５之２號","E_COORD97":177332.48000000001,"N_COORD97":2553223.7999999998,"ADDRESS":"和平街２１２巷５之２號","OBJECTID":492136},"geometry":{"x":177332.48000000138,"y":2553223.8000000007}},{"attributes":{"ID":492164,"DIS_CODE":0,"TOWNNAME":"楠西區","LI":"東勢里","LIN":" ","STREET":"民生路","SECT":" ","MAREA":" ","LANE":"１０６巷","ALLEY":" ","HOUSE_NO":"５號","E_COORD97":197386.69,"N_COORD97":2564232.29,"ADDRESS":"民生路１０６巷５號","OBJECTID":492137},"geometry":{"x":197386.69000000227,"y":2564232.290000001}},{"attributes":{"ID":492165,"DIS_CODE":0,"TOWNNAME":"楠西區","LI":"楠西里","LIN":" ","STREET":"中興路","SECT":" ","MAREA":" ","LANE":"４８巷","ALLEY":" ","HOUSE_NO":"３號","E_COORD97":197230.70999999999,"N_COORD97":2564206.25,"ADDRESS":"中興路４８巷３號","OBJECTID":492138},"geometry":{"x":197230.71000000089,"y":2564206.2500000019}},{"attributes":{"ID":492166,"DIS_CODE":0,"TOWNNAME":"楠西區","LI":"東勢里","LIN":" ","STREET":"中興路","SECT":" ","MAREA":" ","LANE":"１９５巷","ALLEY":" ","HOUSE_NO":"２號","E_COORD97":197250.95999999999,"N_COORD97":2564487.25,"ADDRESS":"中興路１９５巷２號","OBJECTID":492139},"geometry":{"x":197250.96000000089,"y":2564487.2500000019}},{"attributes":{"ID":492167,"DIS_CODE":0,"TOWNNAME":"楠西區","LI":"楠西里","LIN":" ","STREET":"中興路","SECT":" ","MAREA":" ","LANE":"７７巷","ALLEY":" ","HOUSE_NO":"７號","E_COORD97":197169.10999999999,"N_COORD97":2564412.25,"ADDRESS":"中興路７７巷７號","OBJECTID":492140},"geometry":{"x":197169.11000000127,"y":2564412.2500000037}},{"attributes":{"ID":492168,"DIS_CODE":0,"TOWNNAME":"六甲區","LI":"二甲里","LIN":" ","STREET":"中山路","SECT":" ","MAREA":" ","LANE":"２６７巷","ALLEY":" ","HOUSE_NO":"３號","E_COORD97":183042.26000000001,"N_COORD97":2570078.4700000002,"ADDRESS":"中山路２６７巷３號","OBJECTID":492141},"geometry":{"x":183042.25999999978,"y":2570078.4700000025}},{"attributes":{"ID":492169,"DIS_CODE":0,"TOWNNAME":"六甲區","LI":"六甲里","LIN":" ","STREET":"中山路","SECT":" ","MAREA":" ","LANE":"８０巷","ALLEY":" ","HOUSE_NO":"１８號","E_COORD97":183460.57999999999,"N_COORD97":2570096.2000000002,"ADDRESS":"中山路８０巷１８號","OBJECTID":492142},"geometry":{"x":183460.58000000007,"y":2570096.1999999993}},{"attributes":{"ID":492170,"DIS_CODE":0,"TOWNNAME":"六甲區","LI":"六甲里","LIN":" ","STREET":"中正路","SECT":" ","MAREA":" ","LANE":"４５９巷","ALLEY":" ","HOUSE_NO":"６號","E_COORD97":183555.41,"N_COORD97":2569819.8199999998,"ADDRESS":"中正路４５９巷６號","OBJECTID":492143},"geometry":{"x":183555.40999999922,"y":2569819.820000004}},{"attributes":{"ID":492171,"DIS_CODE":0,"TOWNNAME":"永康區","LI":"三民里","LIN":"1鄰","STREET":"三民街","SECT":" ","MAREA":" ","LANE":"７１巷","ALLEY":" ","HOUSE_NO":"９號","E_COORD97":172864.32000000001,"N_COORD97":2550231.2799999998,"ADDRESS":"三民街７１巷９號","OBJECTID":492144},"geometry":{"x":172864.3200000003,"y":2550231.2799999993}},{"attributes":{"ID":492172,"DIS_CODE":0,"TOWNNAME":"柳營區","LI":"東昇里","LIN":" ","STREET":"成功街","SECT":" ","MAREA":" ","LANE":"４７巷","ALLEY":" ","HOUSE_NO":"３號","E_COORD97":180001.82000000001,"N_COORD97":2575313.4399999999,"ADDRESS":"成功街４７巷３號","OBJECTID":492145},"geometry":{"x":180001.82000000123,"y":2575313.4399999995}},{"attributes":{"ID":492173,"DIS_CODE":0,"TOWNNAME":"柳營區","LI":"篤農里","LIN":" ","STREET":"義士路","SECT":"一段","MAREA":" ","LANE":"６４１巷","ALLEY":" ","HOUSE_NO":"１號","E_COORD97":185502.67999999999,"N_COORD97":2575870.7200000002,"ADDRESS":"義士路一段６４１巷１號","OBJECTID":492146},"geometry":{"x":185502.68000000156,"y":2575870.7200000025}},{"attributes":{"ID":492174,"DIS_CODE":0,"TOWNNAME":"歸仁區","LI":"大廟里","LIN":" ","STREET":"大廟三街","SECT":" ","MAREA":" ","LANE":"６５巷","ALLEY":" ","HOUSE_NO":"１１號","E_COORD97":176214.78,"N_COORD97":2543995.25,"ADDRESS":"大廟三街６５巷１１號","OBJECTID":492147},"geometry":{"x":176214.78000000212,"y":2543995.2499999981}},{"attributes":{"ID":492175,"DIS_CODE":0,"TOWNNAME":"歸仁區","LI":"武東里","LIN":" ","STREET":"武東二街","SECT":" ","MAREA":" ","LANE":"２６巷","ALLEY":" ","HOUSE_NO":"１７號","E_COORD97":175462.26999999999,"N_COORD97":2535294.25,"ADDRESS":"武東二街２６巷１７號","OBJECTID":492148},"geometry":{"x":175462.26999999955,"y":2535294.25}},{"attributes":{"ID":492176,"DIS_CODE":0,"TOWNNAME":"歸仁區","LI":"七甲里","LIN":"9鄰","STREET":"七甲一街","SECT":" ","MAREA":" ","LANE":"９８巷","ALLEY":" ","HOUSE_NO":"１８號","E_COORD97":177703.04000000001,"N_COORD97":2542544.6600000001,"ADDRESS":"七甲一街５８巷１８號","OBJECTID":492149},"geometry":{"x":177703.04000000097,"y":2542544.6600000001}},{"attributes":{"ID":492177,"DIS_CODE":0,"TOWNNAME":"歸仁區","LI":"西埔里","LIN":" ","STREET":"西埔三街","SECT":" ","MAREA":" ","LANE":"５１巷","ALLEY":" ","HOUSE_NO":"１號","E_COORD97":176820.23999999999,"N_COORD97":2544017.25,"ADDRESS":"西埔三街５１巷１號","OBJECTID":492150},"geometry":{"x":176820.24000000115,"y":2544017.2500000019}},{"attributes":{"ID":492178,"DIS_CODE":0,"TOWNNAME":"關廟區","LI":"關廟里","LIN":" ","STREET":"民生街","SECT":" ","MAREA":" ","LANE":"１１５巷","ALLEY":" ","HOUSE_NO":"５８號","E_COORD97":180592.94,"N_COORD97":2539558.29,"ADDRESS":"民生街１１５巷５８號","OBJECTID":492151},"geometry":{"x":180592.94000000134,"y":2539558.2899999991}},{"attributes":{"ID":492179,"DIS_CODE":0,"TOWNNAME":"楠西區","LI":"楠西里","LIN":" ","STREET":"民族路","SECT":" ","MAREA":" ","LANE":"１１１巷","ALLEY":" ","HOUSE_NO":"１號","E_COORD97":197093.29000000001,"N_COORD97":2564227.29,"ADDRESS":"民族路１１１巷１號","OBJECTID":492152},"geometry":{"x":197093.29000000004,"y":2564227.2899999991}},{"attributes":{"ID":492180,"DIS_CODE":0,"TOWNNAME":"楠西區","LI":"楠西里","LIN":" ","STREET":"民族路","SECT":" ","MAREA":" ","LANE":"１１７巷","ALLEY":" ","HOUSE_NO":"１２號","E_COORD97":197112.34,"N_COORD97":2564254.29,"ADDRESS":"民族路１１７巷１２號","OBJECTID":492153},"geometry":{"x":197112.34000000078,"y":2564254.2899999991}},{"attributes":{"ID":492181,"DIS_CODE":0,"TOWNNAME":"楠西區","LI":"楠西里","LIN":" ","STREET":"中興路","SECT":" ","MAREA":" ","LANE":"７７巷","ALLEY":" ","HOUSE_NO":"１３號","E_COORD97":197160.45999999999,"N_COORD97":2564414.25,"ADDRESS":"中興路７７巷１３號","OBJECTID":492154},"geometry":{"x":197160.45999999903,"y":2564414.25}},{"attributes":{"ID":492182,"DIS_CODE":0,"TOWNNAME":"楠西區","LI":"東勢里","LIN":" ","STREET":"茄拔路","SECT":" ","MAREA":" ","LANE":"１７７巷","ALLEY":" ","HOUSE_NO":"２５號","E_COORD97":197440.03,"N_COORD97":2563838.2000000002,"ADDRESS":"茄拔路１７７巷２５號","OBJECTID":492155},"geometry":{"x":197440.02999999933,"y":2563838.1999999993}},{"attributes":{"ID":492183,"DIS_CODE":0,"TOWNNAME":"楠西區","LI":"楠西里","LIN":" ","STREET":"中興路","SECT":" ","MAREA":" ","LANE":"７７巷","ALLEY":" ","HOUSE_NO":"２８號","E_COORD97":197121.56,"N_COORD97":2564418.25,"ADDRESS":"中興路７７巷２８號","OBJECTID":492156},"geometry":{"x":197121.55999999959,"y":2564418.25}},{"attributes":{"ID":492184,"DIS_CODE":0,"TOWNNAME":"楠西區","LI":"楠西里","LIN":" ","STREET":"中興路","SECT":" ","MAREA":" ","LANE":"７７巷","ALLEY":" ","HOUSE_NO":"１１號","E_COORD97":197163.35999999999,"N_COORD97":2564414.25,"ADDRESS":"中興路７７巷１１號","OBJECTID":492157},"geometry":{"x":197163.3600000022,"y":2564414.25}},{"attributes":{"ID":492185,"DIS_CODE":0,"TOWNNAME":"楠西區","LI":"楠西里","LIN":" ","STREET":"中興路","SECT":" ","MAREA":" ","LANE":"７７巷","ALLEY":" ","HOUSE_NO":"１２號","E_COORD97":197162.95999999999,"N_COORD97":2564408.25,"ADDRESS":"中興路７７巷１２號","OBJECTID":492158},"geometry":{"x":197162.96000000089,"y":2564408.25}},{"attributes":{"ID":492186,"DIS_CODE":0,"TOWNNAME":"東山區","LI":"大客里","LIN":" ","STREET":"青葉路","SECT":"一段","MAREA":" ","LANE":"１２巷","ALLEY":" ","HOUSE_NO":"１０號","E_COORD97":188842.29999999999,"N_COORD97":2579130.02,"ADDRESS":"青葉路一段１２巷１０號","OBJECTID":492159},"geometry":{"x":188842.30000000075,"y":2579130.0199999996}},{"attributes":{"ID":492187,"DIS_CODE":0,"TOWNNAME":"東山區","LI":"東中里","LIN":" ","STREET":"鳳安二街","SECT":" ","MAREA":" ","LANE":"１１８巷","ALLEY":" ","HOUSE_NO":"１０號","E_COORD97":188629.35999999999,"N_COORD97":2580018.9300000002,"ADDRESS":"鳳安二街１１８巷１０號","OBJECTID":492160},"geometry":{"x":188629.36000000034,"y":2580018.9299999997}},{"attributes":{"ID":492188,"DIS_CODE":0,"TOWNNAME":"仁德區","LI":"後壁里","LIN":" ","STREET":"德洋路","SECT":" ","MAREA":" ","LANE":"３９巷","ALLEY":" ","HOUSE_NO":"１３之１號","E_COORD97":173047.76000000001,"N_COORD97":2538919.79,"ADDRESS":"德洋路３９巷１３之１號","OBJECTID":492161},"geometry":{"x":173047.76000000164,"y":2538919.790000001}},{"attributes":{"ID":492189,"DIS_CODE":0,"TOWNNAME":"仁德區","LI":"太子里","LIN":" ","STREET":"太子路","SECT":" ","MAREA":" ","LANE":"３１巷","ALLEY":" ","HOUSE_NO":"２６號","E_COORD97":175314.42999999999,"N_COORD97":2543381.7400000002,"ADDRESS":"太子路３１巷２６號","OBJECTID":492162},"geometry":{"x":175314.4299999997,"y":2543381.7400000002}},{"attributes":{"ID":492190,"DIS_CODE":0,"TOWNNAME":"仁德區","LI":"保安里","LIN":" ","STREET":"文賢二街","SECT":" ","MAREA":" ","LANE":"２３巷","ALLEY":" ","HOUSE_NO":"１號","E_COORD97":171643.12,"N_COORD97":2536152.3300000001,"ADDRESS":"文賢二街２３巷１號","OBJECTID":492163},"geometry":{"x":171643.12000000011,"y":2536152.3300000001}},{"attributes":{"ID":492191,"DIS_CODE":0,"TOWNNAME":"仁德區","LI":"大甲里","LIN":" ","STREET":"行大街","SECT":" ","MAREA":" ","LANE":"３０７巷","ALLEY":" ","HOUSE_NO":"５０之１號","E_COORD97":169681.64000000001,"N_COORD97":2535156.0499999998,"ADDRESS":"行大街３０７巷５０之１號","OBJECTID":492164},"geometry":{"x":169681.63999999873,"y":2535156.0500000026}},{"attributes":{"ID":492192,"DIS_CODE":0,"TOWNNAME":"仁德區","LI":"保安里","LIN":" ","STREET":"中正路","SECT":"一段","MAREA":" ","LANE":"２１０巷","ALLEY":" ","HOUSE_NO":"６號","E_COORD97":171623.79000000001,"N_COORD97":2535765.7799999998,"ADDRESS":"中正路一段２１０巷６號","OBJECTID":492165},"geometry":{"x":171623.7900000019,"y":2535765.7799999993}},{"attributes":{"ID":492193,"DIS_CODE":0,"TOWNNAME":"南區","LI":"文華里","LIN":"4鄰","STREET":"金華路","SECT":"二段","MAREA":" ","LANE":"３９９巷","ALLEY":" ","HOUSE_NO":"９號","E_COORD97":167103.01999999999,"N_COORD97":2543050.3599999999,"ADDRESS":"金華路二段３９９巷９號","OBJECTID":492166},"geometry":{"x":167103.02000000048,"y":2543050.3599999994}},{"attributes":{"ID":492194,"DIS_CODE":0,"TOWNNAME":"中西區","LI":"元安里","LIN":"12鄰","STREET":"大勇街","SECT":" ","MAREA":" ","LANE":"１７巷","ALLEY":" ","HOUSE_NO":"９號","E_COORD97":167505.51000000001,"N_COORD97":2543319.5800000001,"ADDRESS":"大勇街１７巷９號","OBJECTID":492167},"geometry":{"x":167505.50999999978,"y":2543319.5800000019}},{"attributes":{"ID":492195,"DIS_CODE":0,"TOWNNAME":"佳里區","LI":"建南里","LIN":"3鄰","STREET":"中和街","SECT":" ","MAREA":" ","LANE":"６０巷","ALLEY":" ","HOUSE_NO":"３號","E_COORD97":165621.75092799999,"N_COORD97":2562306.47444,"ADDRESS":"中和街６０巷３號","OBJECTID":492168},"geometry":{"x":165621.75092800055,"y":2562306.4744350016}},{"attributes":{"ID":492196,"DIS_CODE":0,"TOWNNAME":"新化區","LI":"清水里","LIN":"4鄰","STREET":"民權街","SECT":" ","MAREA":" ","LANE":"７巷","ALLEY":" ","HOUSE_NO":"５號","E_COORD97":178731.91,"N_COORD97":2548443.25,"ADDRESS":"民權街７巷５號","OBJECTID":492169},"geometry":{"x":178731.91000000015,"y":2548443.25}},{"attributes":{"ID":492197,"DIS_CODE":0,"TOWNNAME":"中西區","LI":"中正里","LIN":"11鄰","STREET":"海安路","SECT":"二段","MAREA":" ","LANE":"７９巷","ALLEY":" ","HOUSE_NO":"３６號","E_COORD97":167560.104077,"N_COORD97":2543949.0593500002,"ADDRESS":"海安路二段７９巷３６號","OBJECTID":492170},"geometry":{"x":167560.1040770011,"y":2543949.0593470018}},{"attributes":{"ID":492198,"DIS_CODE":0,"TOWNNAME":"安南區","LI":"淵東里","LIN":"4鄰","STREET":"智安二街","SECT":" ","MAREA":" ","LANE":"５０巷","ALLEY":" ","HOUSE_NO":"１８號","E_COORD97":165756.34,"N_COORD97":2550228.21,"ADDRESS":"智安二街５０巷１８號","OBJECTID":492171},"geometry":{"x":165756.34000000171,"y":2550228.2100000046}},{"attributes":{"ID":492199,"DIS_CODE":0,"TOWNNAME":"仁德區","LI":"土庫里","LIN":"13鄰","STREET":"土庫路","SECT":" ","MAREA":" ","LANE":"１８５巷","ALLEY":" ","HOUSE_NO":"１０號","E_COORD97":174356.78,"N_COORD97":2542939.2400000002,"ADDRESS":"土庫路１８５巷１０號","OBJECTID":492172},"geometry":{"x":174356.78000000212,"y":2542939.2400000021}},{"attributes":{"ID":492200,"DIS_CODE":0,"TOWNNAME":"永康區","LI":"埔園里","LIN":"4鄰","STREET":"聖龍街","SECT":" ","MAREA":" ","LANE":"７０巷","ALLEY":" ","HOUSE_NO":"８號","E_COORD97":173964.42000000001,"N_COORD97":2547783.5,"ADDRESS":"聖龍街７０巷８號","OBJECTID":492173},"geometry":{"x":173964.42000000086,"y":2547783.5}},{"attributes":{"ID":492201,"DIS_CODE":0,"TOWNNAME":"新營區","LI":"嘉芳里","LIN":"1鄰","STREET":"復興路","SECT":" ","MAREA":" ","LANE":"７００巷","ALLEY":" ","HOUSE_NO":"９０號","E_COORD97":177316.426159,"N_COORD97":2578988.8078000001,"ADDRESS":"復興路７００巷９０號","OBJECTID":492174},"geometry":{"x":177316.42615900002,"y":2578988.8078030031}},{"attributes":{"ID":492202,"DIS_CODE":0,"TOWNNAME":"佳里區","LI":"鎮山里","LIN":" ","STREET":"延平路","SECT":" ","MAREA":" ","LANE":"５９巷","ALLEY":" ","HOUSE_NO":"３６號","E_COORD97":165854.76999999999,"N_COORD97":2561697.8399999999,"ADDRESS":"延平路５９巷３６號","OBJECTID":492175},"geometry":{"x":165854.77000000142,"y":2561697.8399999999}},{"attributes":{"ID":492203,"DIS_CODE":0,"TOWNNAME":"安南區","LI":"州北里","LIN":"30鄰","STREET":"安昌街","SECT":" ","MAREA":" ","LANE":"８５巷","ALLEY":" ","HOUSE_NO":"１４９之８號","E_COORD97":169920.25,"N_COORD97":2552576.23,"ADDRESS":"安昌街８５巷１４９之８號","OBJECTID":492176},"geometry":{"x":169920.24999999907,"y":2552576.2300000004}},{"attributes":{"ID":492204,"DIS_CODE":0,"TOWNNAME":"安南區","LI":"新順里","LIN":"14鄰","STREET":"安和路","SECT":"二段","MAREA":" ","LANE":"３１８巷","ALLEY":" ","HOUSE_NO":"１４５號","E_COORD97":170211.85999999999,"N_COORD97":2549292.1200000001,"ADDRESS":"安和路二段３１８巷１４５號","OBJECTID":492177},"geometry":{"x":170211.86000000127,"y":2549292.120000001}},{"attributes":{"ID":492205,"DIS_CODE":0,"TOWNNAME":"歸仁區","LI":"新厝里","LIN":"27鄰","STREET":"中正五街","SECT":" ","MAREA":" ","LANE":"３９巷","ALLEY":" ","HOUSE_NO":"１７號","E_COORD97":177047.60397200001,"N_COORD97":2540099.9946900001,"ADDRESS":"中正五街３９巷１７號","OBJECTID":492178},"geometry":{"x":177047.603972001,"y":2540099.994686}},{"attributes":{"ID":492206,"DIS_CODE":0,"TOWNNAME":"中西區","LI":"仙草里","LIN":"4鄰","STREET":"西門路","SECT":"一段","MAREA":" ","LANE":"４８２巷","ALLEY":" ","HOUSE_NO":"４號","E_COORD97":167784.07000000001,"N_COORD97":2542666.6299999999,"ADDRESS":"西門路一段４８２巷４號","OBJECTID":492179},"geometry":{"x":167784.0700000003,"y":2542666.6300000008}},{"attributes":{"ID":492207,"DIS_CODE":0,"TOWNNAME":"安南區","LI":"海西里","LIN":"1鄰","STREET":"海中街","SECT":" ","MAREA":" ","LANE":"１６９巷","ALLEY":" ","HOUSE_NO":"３８號","E_COORD97":166270.47,"N_COORD97":2549109.9900000002,"ADDRESS":"海中街１６９巷３８號","OBJECTID":492180},"geometry":{"x":166270.46999999881,"y":2549109.9900000039}},{"attributes":{"ID":492208,"DIS_CODE":0,"TOWNNAME":"永康區","LI":"埔園里","LIN":"4鄰","STREET":"聖龍街","SECT":" ","MAREA":" ","LANE":"７０巷","ALLEY":" ","HOUSE_NO":"２號","E_COORD97":173965.12,"N_COORD97":2547804.4900000002,"ADDRESS":"聖龍街７０巷２號","OBJECTID":492181},"geometry":{"x":173965.12000000104,"y":2547804.4900000002}},{"attributes":{"ID":492209,"DIS_CODE":0,"TOWNNAME":"歸仁區","LI":"七甲里","LIN":"8鄰","STREET":"七甲二街","SECT":" ","MAREA":" ","LANE":"５７巷","ALLEY":" ","HOUSE_NO":"３１號","E_COORD97":177671.09169500001,"N_COORD97":2542740.79893,"ADDRESS":"七甲二街５７巷３１號","OBJECTID":492182},"geometry":{"x":177671.09169500228,"y":2542740.7989329994}},{"attributes":{"ID":492210,"DIS_CODE":0,"TOWNNAME":"東區","LI":"中西里","LIN":"10鄰","STREET":"勝利路","SECT":" ","MAREA":" ","LANE":"５２巷","ALLEY":" ","HOUSE_NO":"８２號","E_COORD97":169943.37,"N_COORD97":2543420.1299999999,"ADDRESS":"勝利路５２巷８２號","OBJECTID":492183},"geometry":{"x":169943.37000000197,"y":2543420.1300000008}},{"attributes":{"ID":492211,"DIS_CODE":0,"TOWNNAME":"新化區","LI":"武安里","LIN":"1鄰","STREET":"公園路","SECT":" ","MAREA":" ","LANE":"１６巷","ALLEY":" ","HOUSE_NO":"８號","E_COORD97":179082.48000000001,"N_COORD97":2547767.25,"ADDRESS":"公園路１６巷８號","OBJECTID":492184},"geometry":{"x":179082.48000000138,"y":2547767.25}},{"attributes":{"ID":492212,"DIS_CODE":0,"TOWNNAME":"東區","LI":"虎尾里","LIN":"7鄰","STREET":"東成街","SECT":" ","MAREA":" ","LANE":"９８巷","ALLEY":" ","HOUSE_NO":"３號","E_COORD97":171564.69,"N_COORD97":2542266.6000000001,"ADDRESS":"東成街９８巷３號","OBJECTID":492185},"geometry":{"x":171564.69000000041,"y":2542266.5999999996}},{"attributes":{"ID":492213,"DIS_CODE":0,"TOWNNAME":"東區","LI":"虎尾里","LIN":"1鄰","STREET":"東門路","SECT":"三段","MAREA":" ","LANE":"１４１巷","ALLEY":" ","HOUSE_NO":"１５號","E_COORD97":171388.95999999999,"N_COORD97":2542128.2400000002,"ADDRESS":"東門路三段１４１巷１５號","OBJECTID":492186},"geometry":{"x":171388.96000000089,"y":2542128.2400000021}},{"attributes":{"ID":492214,"DIS_CODE":0,"TOWNNAME":"東區","LI":"虎尾里","LIN":"1鄰","STREET":"東門路","SECT":"三段","MAREA":" ","LANE":"１４１巷","ALLEY":" ","HOUSE_NO":"１７號","E_COORD97":171388.16,"N_COORD97":2542133.02,"ADDRESS":"東門路三段１４１巷１７號","OBJECTID":492187},"geometry":{"x":171388.16000000108,"y":2542133.0200000014}},{"attributes":{"ID":492215,"DIS_CODE":0,"TOWNNAME":"東區","LI":"虎尾里","LIN":"1鄰","STREET":"東門路","SECT":"三段","MAREA":" ","LANE":"１４１巷","ALLEY":" ","HOUSE_NO":"１９號","E_COORD97":171387.53,"N_COORD97":2542137.3199999998,"ADDRESS":"東門路三段１４１巷１９號","OBJECTID":492188},"geometry":{"x":171387.53000000119,"y":2542137.320000004}},{"attributes":{"ID":492216,"DIS_CODE":0,"TOWNNAME":"東區","LI":"富裕里","LIN":"12鄰","STREET":"裕豐街","SECT":" ","MAREA":" ","LANE":"７６巷","ALLEY":" ","HOUSE_NO":"２號","E_COORD97":170740.60999999999,"N_COORD97":2542815.4399999999,"ADDRESS":"裕豐街７６巷２號","OBJECTID":492189},"geometry":{"x":170740.61000000127,"y":2542815.4399999995}},{"attributes":{"ID":492217,"DIS_CODE":0,"TOWNNAME":"東區","LI":"忠孝里","LIN":"17鄰","STREET":"榮譽街","SECT":" ","MAREA":" ","LANE":"１３１巷","ALLEY":" ","HOUSE_NO":"２號","E_COORD97":169953.64000000001,"N_COORD97":2541881.4500000002,"ADDRESS":"榮譽街１３１巷２號","OBJECTID":492190},"geometry":{"x":169953.6400000006,"y":2541881.4500000011}},{"attributes":{"ID":492218,"DIS_CODE":0,"TOWNNAME":"善化區","LI":"文正里","LIN":"4鄰","STREET":"文正路","SECT":" ","MAREA":" ","LANE":"７９巷","ALLEY":" ","HOUSE_NO":"７號","E_COORD97":177086.04999999999,"N_COORD97":2559348.5299999998,"ADDRESS":"文正路７９巷７號","OBJECTID":492191},"geometry":{"x":177086.05000000075,"y":2559348.5300000012}},{"attributes":{"ID":492219,"DIS_CODE":0,"TOWNNAME":"仁德區","LI":"仁義里","LIN":"43鄰","STREET":"中正路","SECT":"二段","MAREA":" ","LANE":"１０３４巷","ALLEY":" ","HOUSE_NO":"６號","E_COORD97":173429.20000000001,"N_COORD97":2540877.1000000001,"ADDRESS":"中正路二段１０３４巷６號","OBJECTID":492192},"geometry":{"x":173429.20000000019,"y":2540877.1000000034}},{"attributes":{"ID":492220,"DIS_CODE":0,"TOWNNAME":"仁德區","LI":"上崙里","LIN":"27鄰","STREET":"上崙街","SECT":" ","MAREA":" ","LANE":"４２１巷","ALLEY":" ","HOUSE_NO":"１號","E_COORD97":173031.73999999999,"N_COORD97":2537598.2400000002,"ADDRESS":"上崙街４２１巷１號","OBJECTID":492193},"geometry":{"x":173031.74000000115,"y":2537598.2400000039}},{"attributes":{"ID":492221,"DIS_CODE":0,"TOWNNAME":"永康區","LI":"\u25A0洲里","LIN":"25鄰","STREET":"洲工街","SECT":" ","MAREA":" ","LANE":"２２巷","ALLEY":" ","HOUSE_NO":"４號","E_COORD97":170641.60999999999,"N_COORD97":2548165.1400000001,"ADDRESS":"洲工街２２巷４號","OBJECTID":492194},"geometry":{"x":170641.61000000034,"y":2548165.1400000025}},{"attributes":{"ID":492222,"DIS_CODE":0,"TOWNNAME":"安南區","LI":"青草里","LIN":"4鄰","STREET":"青砂街","SECT":"二段","MAREA":" ","LANE":"４５６巷","ALLEY":" ","HOUSE_NO":"９１號","E_COORD97":158678.59,"N_COORD97":2552971.4399999999,"ADDRESS":"青砂街二段４５６巷９１號","OBJECTID":492195},"geometry":{"x":158678.58999999985,"y":2552971.4400000032}},{"attributes":{"ID":492223,"DIS_CODE":0,"TOWNNAME":"安南區","LI":"青草里","LIN":"4鄰","STREET":"青砂街","SECT":"二段","MAREA":" ","LANE":"４５６巷","ALLEY":" ","HOUSE_NO":"９２號","E_COORD97":158688.48999999999,"N_COORD97":2553007.1400000001,"ADDRESS":"青砂街二段４５６巷９２號","OBJECTID":492196},"geometry":{"x":158688.49000000115,"y":2553007.1400000006}},{"attributes":{"ID":492224,"DIS_CODE":0,"TOWNNAME":"安南區","LI":"淵中里","LIN":"4鄰","STREET":"安中路","SECT":"三段","MAREA":" ","LANE":"４３９巷","ALLEY":" ","HOUSE_NO":"２號","E_COORD97":165289.54000000001,"N_COORD97":2550081.0800000001,"ADDRESS":"安中路三段４３９巷２號","OBJECTID":492197},"geometry":{"x":165289.54000000097,"y":2550081.0800000001}},{"attributes":{"ID":492225,"DIS_CODE":0,"TOWNNAME":"安南區","LI":"淵中里","LIN":"7鄰","STREET":"安中路","SECT":"四段","MAREA":" ","LANE":"１５４巷","ALLEY":" ","HOUSE_NO":"３１號","E_COORD97":165002.23999999999,"N_COORD97":2550114.8999999999,"ADDRESS":"安中路四段１５４巷３１號","OBJECTID":492198},"geometry":{"x":165002.24000000022,"y":2550114.9000000022}},{"attributes":{"ID":492226,"DIS_CODE":0,"TOWNNAME":"安南區","LI":"淵中里","LIN":"7鄰","STREET":"安中路","SECT":"四段","MAREA":" ","LANE":"１５４巷","ALLEY":" ","HOUSE_NO":"３３號","E_COORD97":165005.39000000001,"N_COORD97":2550117.4199999999,"ADDRESS":"安中路四段１５４巷３３號","OBJECTID":492199},"geometry":{"x":165005.3900000006,"y":2550117.4200000037}},{"attributes":{"ID":492227,"DIS_CODE":0,"TOWNNAME":"善化區","LI":"文昌里","LIN":"8鄰","STREET":"大同路","SECT":" ","MAREA":" ","LANE":"２１３巷","ALLEY":" ","HOUSE_NO":"１０號","E_COORD97":177399.29000000001,"N_COORD97":2558697.25,"ADDRESS":"大同路２１３巷１０號","OBJECTID":492200},"geometry":{"x":177399.2900000019,"y":2558697.2500000019}}]}