{"displayFieldName":"TOWNNAME","fieldAliases":{"ID":"ID","DIS_CODE":"DIS_CODE","TOWNNAME":"TOWNNAME","LI":"LI","LIN":"LIN","STREET":"STREET","SECT":"SECT","MAREA":"MAREA","LANE":"LANE","ALLEY":"ALLEY","HOUSE_NO":"HOUSE_NO","E_COORD97":"E_COORD97","N_COORD97":"N_COORD97","ADDRESS":"ADDRESS","OBJECTID":"OBJECTID"},"geometryType":"esriGeometryPoint","spatialReference":{"wkid":102443,"latestWkid":3826},"fields":[{"name":"ID","type":"esriFieldTypeDouble","alias":"ID"},{"name":"DIS_CODE","type":"esriFieldTypeInteger","alias":"DIS_CODE"},{"name":"TOWNNAME","type":"esriFieldTypeString","alias":"TOWNNAME","length":8},{"name":"LI","type":"esriFieldTypeString","alias":"LI","length":8},{"name":"LIN","type":"esriFieldTypeString","alias":"LIN","length":12},{"name":"STREET","type":"esriFieldTypeString","alias":"STREET","length":20},{"name":"SECT","type":"esriFieldTypeString","alias":"SECT","length":8},{"name":"MAREA","type":"esriFieldTypeString","alias":"MAREA","length":12},{"name":"LANE","type":"esriFieldTypeString","alias":"LANE","length":10},{"name":"ALLEY","type":"esriFieldTypeString","alias":"ALLEY","length":10},{"name":"HOUSE_NO","type":"esriFieldTypeString","alias":"HOUSE_NO","length":20},{"name":"E_COORD97","type":"esriFieldTypeDouble","alias":"E_COORD97"},{"name":"N_COORD97","type":"esriFieldTypeDouble","alias":"N_COORD97"},{"name":"ADDRESS","type":"esriFieldTypeString","alias":"ADDRESS","length":50},{"name":"OBJECTID","type":"esriFieldTypeOID","alias":"OBJECTID"}],"features":[{"attributes":{"ID":618828,"DIS_CODE":0,"TOWNNAME":"下營區","LI":"下營里","LIN":"2鄰","STREET":"中山路","SECT":"一段","MAREA":" ","LANE":" ","ALLEY":" ","HOUSE_NO":"１１２號","E_COORD97":174622.59,"N_COORD97":2570534.6800000002,"ADDRESS":"中山路一段１１２號","OBJECTID":618801},"geometry":{"x":174622.59000000078,"y":2570534.6799999997}},{"attributes":{"ID":618829,"DIS_CODE":0,"TOWNNAME":"下營區","LI":"下營里","LIN":"2鄰","STREET":"中山路","SECT":"一段","MAREA":" ","LANE":" ","ALLEY":" ","HOUSE_NO":"１１６號","E_COORD97":174627.78,"N_COORD97":2570535.6600000001,"ADDRESS":"中山路一段１１６號","OBJECTID":618802},"geometry":{"x":174627.78000000026,"y":2570535.6600000001}},{"attributes":{"ID":618830,"DIS_CODE":0,"TOWNNAME":"下營區","LI":"下營里","LIN":"2鄰","STREET":"中山路","SECT":"一段","MAREA":" ","LANE":" ","ALLEY":" ","HOUSE_NO":"１１８號","E_COORD97":174632.84,"N_COORD97":2570537.3799999999,"ADDRESS":"中山路一段１１８號","OBJECTID":618803},"geometry":{"x":174632.84000000078,"y":2570537.3800000008}},{"attributes":{"ID":618831,"DIS_CODE":0,"TOWNNAME":"下營區","LI":"下營里","LIN":"2鄰","STREET":"中山路","SECT":"一段","MAREA":" ","LANE":" ","ALLEY":" ","HOUSE_NO":"１２０號","E_COORD97":174637.10999999999,"N_COORD97":2570538.73,"ADDRESS":"中山路一段１２０號","OBJECTID":618804},"geometry":{"x":174637.11000000034,"y":2570538.7300000004}},{"attributes":{"ID":618832,"DIS_CODE":0,"TOWNNAME":"下營區","LI":"下營里","LIN":"2鄰","STREET":"中山路","SECT":"一段","MAREA":" ","LANE":" ","ALLEY":" ","HOUSE_NO":"１２２號","E_COORD97":174641.81,"N_COORD97":2570540.3700000001,"ADDRESS":"中山路一段１２２號","OBJECTID":618805},"geometry":{"x":174641.80999999959,"y":2570540.3700000029}},{"attributes":{"ID":618833,"DIS_CODE":0,"TOWNNAME":"下營區","LI":"下營里","LIN":"2鄰","STREET":"中山路","SECT":"一段","MAREA":" ","LANE":" ","ALLEY":" ","HOUSE_NO":"１２６號","E_COORD97":174645.29000000001,"N_COORD97":2570541.3999999999,"ADDRESS":"中山路一段１２６號","OBJECTID":618806},"geometry":{"x":174645.29000000097,"y":2570541.4000000041}},{"attributes":{"ID":618834,"DIS_CODE":0,"TOWNNAME":"下營區","LI":"下營里","LIN":"2鄰","STREET":"中山路","SECT":"一段","MAREA":" ","LANE":" ","ALLEY":" ","HOUSE_NO":"１３０號","E_COORD97":174650.95000000001,"N_COORD97":2570544.46,"ADDRESS":"中山路一段１３０號","OBJECTID":618807},"geometry":{"x":174650.95000000112,"y":2570544.4600000009}},{"attributes":{"ID":618835,"DIS_CODE":0,"TOWNNAME":"下營區","LI":"下營里","LIN":"2鄰","STREET":"中山路","SECT":"一段","MAREA":" ","LANE":" ","ALLEY":" ","HOUSE_NO":"１３２號","E_COORD97":174654.95999999999,"N_COORD97":2570545.7999999998,"ADDRESS":"中山路一段１３２號","OBJECTID":618808},"geometry":{"x":174654.95999999996,"y":2570545.8000000045}},{"attributes":{"ID":618836,"DIS_CODE":0,"TOWNNAME":"下營區","LI":"下營里","LIN":"2鄰","STREET":"中山路","SECT":"一段","MAREA":" ","LANE":" ","ALLEY":" ","HOUSE_NO":"１３６號","E_COORD97":174658.78,"N_COORD97":2570546.8100000001,"ADDRESS":"中山路一段１３６號","OBJECTID":618809},"geometry":{"x":174658.78000000119,"y":2570546.8100000024}},{"attributes":{"ID":618837,"DIS_CODE":0,"TOWNNAME":"下營區","LI":"下營里","LIN":"2鄰","STREET":"中山路","SECT":"一段","MAREA":" ","LANE":" ","ALLEY":" ","HOUSE_NO":"１３８號","E_COORD97":174662.23999999999,"N_COORD97":2570547.7200000002,"ADDRESS":"中山路一段１３８號","OBJECTID":618810},"geometry":{"x":174662.24000000209,"y":2570547.7200000025}},{"attributes":{"ID":618838,"DIS_CODE":0,"TOWNNAME":"下營區","LI":"下營里","LIN":"2鄰","STREET":"中山路","SECT":"一段","MAREA":" ","LANE":" ","ALLEY":" ","HOUSE_NO":"１４２號","E_COORD97":174667.98000000001,"N_COORD97":2570549.8399999999,"ADDRESS":"中山路一段１４２號","OBJECTID":618811},"geometry":{"x":174667.98000000138,"y":2570549.8399999999}},{"attributes":{"ID":618839,"DIS_CODE":0,"TOWNNAME":"下營區","LI":"下營里","LIN":"2鄰","STREET":"中山路","SECT":"一段","MAREA":" ","LANE":" ","ALLEY":" ","HOUSE_NO":"１４６號","E_COORD97":174671.07000000001,"N_COORD97":2570550.8999999999,"ADDRESS":"中山路一段１４６號","OBJECTID":618812},"geometry":{"x":174671.0700000003,"y":2570550.9000000004}},{"attributes":{"ID":618840,"DIS_CODE":0,"TOWNNAME":"永康區","LI":"尚頂里","LIN":"2鄰","STREET":"中正二街","SECT":" ","MAREA":" ","LANE":" ","ALLEY":" ","HOUSE_NO":"１５１號","E_COORD97":171228.72,"N_COORD97":2547640.3700000001,"ADDRESS":"中正二街１５１號","OBJECTID":618813},"geometry":{"x":171228.71999999974,"y":2547640.3700000048}},{"attributes":{"ID":618841,"DIS_CODE":0,"TOWNNAME":"永康區","LI":"尚頂里","LIN":"2鄰","STREET":"中正二街","SECT":" ","MAREA":" ","LANE":" ","ALLEY":" ","HOUSE_NO":"１５７號","E_COORD97":171294.89000000001,"N_COORD97":2547699.9900000002,"ADDRESS":"中正二街１５７號","OBJECTID":618814},"geometry":{"x":171294.88999999966,"y":2547699.9900000039}},{"attributes":{"ID":618842,"DIS_CODE":0,"TOWNNAME":"永康區","LI":"尚頂里","LIN":"2鄰","STREET":"尚頂路","SECT":" ","MAREA":" ","LANE":" ","ALLEY":" ","HOUSE_NO":"６８號","E_COORD97":171152.82999999999,"N_COORD97":2547545.23,"ADDRESS":"尚頂路６８號","OBJECTID":618815},"geometry":{"x":171152.83000000101,"y":2547545.2300000004}},{"attributes":{"ID":618843,"DIS_CODE":0,"TOWNNAME":"永康區","LI":"尚頂里","LIN":"2鄰","STREET":"\u25A0信街","SECT":" ","MAREA":" ","LANE":" ","ALLEY":" ","HOUSE_NO":"２０１號","E_COORD97":171084.69,"N_COORD97":2547832.5,"ADDRESS":"\u25A0信街２０１號","OBJECTID":618816},"geometry":{"x":171084.69000000134,"y":2547832.5000000019}},{"attributes":{"ID":618844,"DIS_CODE":0,"TOWNNAME":"永康區","LI":"建國里","LIN":"2鄰","STREET":"復興路","SECT":" ","MAREA":" ","LANE":" ","ALLEY":" ","HOUSE_NO":"９２號","E_COORD97":172821.79000000001,"N_COORD97":2544344.3900000001,"ADDRESS":"復興路９２號","OBJECTID":618817},"geometry":{"x":172821.79000000004,"y":2544344.3900000043}},{"attributes":{"ID":618845,"DIS_CODE":0,"TOWNNAME":"永康區","LI":"建國里","LIN":"2鄰","STREET":"復興路","SECT":" ","MAREA":" ","LANE":" ","ALLEY":" ","HOUSE_NO":"１０４號","E_COORD97":172790.45999999999,"N_COORD97":2544344.6400000001,"ADDRESS":"復興路１０４號","OBJECTID":618818},"geometry":{"x":172790.45999999903,"y":2544344.6400000006}},{"attributes":{"ID":618846,"DIS_CODE":0,"TOWNNAME":"永康區","LI":"永康里","LIN":"2鄰","STREET":"中山北路","SECT":" ","MAREA":" ","LANE":" ","ALLEY":" ","HOUSE_NO":"６５號","E_COORD97":173986.73000000001,"N_COORD97":2547424.7400000002,"ADDRESS":"中山北路６５號","OBJECTID":618819},"geometry":{"x":173986.73000000138,"y":2547424.7400000021}},{"attributes":{"ID":618847,"DIS_CODE":0,"TOWNNAME":"永康區","LI":"永康里","LIN":"2鄰","STREET":"中山北路","SECT":" ","MAREA":" ","LANE":" ","ALLEY":" ","HOUSE_NO":"５９號","E_COORD97":173983.04999999999,"N_COORD97":2547398.8199999998,"ADDRESS":"中山北路５９號","OBJECTID":618820},"geometry":{"x":173983.04999999981,"y":2547398.8200000003}},{"attributes":{"ID":618848,"DIS_CODE":0,"TOWNNAME":"永康區","LI":"永康里","LIN":"2鄰","STREET":"中山北路","SECT":" ","MAREA":" ","LANE":" ","ALLEY":" ","HOUSE_NO":"６９號","E_COORD97":174009.53,"N_COORD97":2547406.1000000001,"ADDRESS":"中山北路６９號","OBJECTID":618821},"geometry":{"x":174009.53000000119,"y":2547406.0999999996}},{"attributes":{"ID":618849,"DIS_CODE":0,"TOWNNAME":"永康區","LI":"永康里","LIN":"2鄰","STREET":"中山北路","SECT":" ","MAREA":" ","LANE":" ","ALLEY":" ","HOUSE_NO":"６１號","E_COORD97":173980.41,"N_COORD97":2547402.0699999998,"ADDRESS":"中山北路６１號","OBJECTID":618822},"geometry":{"x":173980.41000000015,"y":2547402.0700000022}},{"attributes":{"ID":618850,"DIS_CODE":0,"TOWNNAME":"永康區","LI":"永康里","LIN":"2鄰","STREET":"中山北路","SECT":" ","MAREA":" ","LANE":" ","ALLEY":" ","HOUSE_NO":"５５號","E_COORD97":173991.29999999999,"N_COORD97":2547391.3199999998,"ADDRESS":"中山北路５５號","OBJECTID":618823},"geometry":{"x":173991.29999999981,"y":2547391.3200000003}},{"attributes":{"ID":618851,"DIS_CODE":0,"TOWNNAME":"佳里區","LI":"鎮山里","LIN":"2鄰","STREET":"自由街","SECT":" ","MAREA":" ","LANE":" ","ALLEY":" ","HOUSE_NO":"８０號","E_COORD97":165907.48999999999,"N_COORD97":2561803.75,"ADDRESS":"自由街８０號","OBJECTID":618824},"geometry":{"x":165907.49000000022,"y":2561803.75}},{"attributes":{"ID":618852,"DIS_CODE":0,"TOWNNAME":"佳里區","LI":"鎮山里","LIN":"2鄰","STREET":"自由街","SECT":" ","MAREA":" ","LANE":" ","ALLEY":" ","HOUSE_NO":"８１號","E_COORD97":165842.54999999999,"N_COORD97":2561773.23,"ADDRESS":"自由街８１號","OBJECTID":618825},"geometry":{"x":165842.54999999981,"y":2561773.2300000023}},{"attributes":{"ID":618853,"DIS_CODE":0,"TOWNNAME":"佳里區","LI":"鎮山里","LIN":"2鄰","STREET":"自由街","SECT":" ","MAREA":" ","LANE":" ","ALLEY":" ","HOUSE_NO":"８３號","E_COORD97":165838.17000000001,"N_COORD97":2561772.1699999999,"ADDRESS":"自由街８３號","OBJECTID":618826},"geometry":{"x":165838.16999999993,"y":2561772.1700000018}},{"attributes":{"ID":618854,"DIS_CODE":0,"TOWNNAME":"佳里區","LI":"鎮山里","LIN":"2鄰","STREET":"自由街","SECT":" ","MAREA":" ","LANE":" ","ALLEY":" ","HOUSE_NO":"８４號","E_COORD97":165898.14000000001,"N_COORD97":2561803.2799999998,"ADDRESS":"自由街８４號","OBJECTID":618827},"geometry":{"x":165898.14000000153,"y":2561803.2799999993}},{"attributes":{"ID":618855,"DIS_CODE":0,"TOWNNAME":"佳里區","LI":"鎮山里","LIN":"2鄰","STREET":"自由街","SECT":" ","MAREA":" ","LANE":" ","ALLEY":" ","HOUSE_NO":"８５號","E_COORD97":165833.54000000001,"N_COORD97":2561771.23,"ADDRESS":"自由街８５號","OBJECTID":618828},"geometry":{"x":165833.54000000097,"y":2561771.2300000004}},{"attributes":{"ID":618856,"DIS_CODE":0,"TOWNNAME":"佳里區","LI":"鎮山里","LIN":"2鄰","STREET":"自由街","SECT":" ","MAREA":" ","LANE":" ","ALLEY":" ","HOUSE_NO":"８７號","E_COORD97":165829.17999999999,"N_COORD97":2561770.4900000002,"ADDRESS":"自由街８７號","OBJECTID":618829},"geometry":{"x":165829.1799999997,"y":2561770.4900000021}},{"attributes":{"ID":618857,"DIS_CODE":0,"TOWNNAME":"佳里區","LI":"鎮山里","LIN":"2鄰","STREET":"自由街","SECT":" ","MAREA":" ","LANE":" ","ALLEY":" ","HOUSE_NO":"９６號","E_COORD97":165890.67000000001,"N_COORD97":2561800.9199999999,"ADDRESS":"自由街９６號","OBJECTID":618830},"geometry":{"x":165890.66999999993,"y":2561800.9200000018}},{"attributes":{"ID":618858,"DIS_CODE":0,"TOWNNAME":"安南區","LI":"顯宮里","LIN":"2鄰","STREET":"媽祖宮一街","SECT":" ","MAREA":" ","LANE":" ","ALLEY":" ","HOUSE_NO":"３０號","E_COORD97":160690.47,"N_COORD97":2548747.1800000002,"ADDRESS":"媽祖宮一街３０號","OBJECTID":618831},"geometry":{"x":160690.47000000067,"y":2548747.1800000016}},{"attributes":{"ID":618859,"DIS_CODE":0,"TOWNNAME":"安南區","LI":"顯宮里","LIN":"2鄰","STREET":"媽祖宮一街","SECT":" ","MAREA":" ","LANE":" ","ALLEY":" ","HOUSE_NO":"４６號","E_COORD97":160647.72373100001,"N_COORD97":2548720.2306400002,"ADDRESS":"媽祖宮一街４６號","OBJECTID":618832},"geometry":{"x":160647.72373100091,"y":2548720.2306370027}},{"attributes":{"ID":618860,"DIS_CODE":0,"TOWNNAME":"安南區","LI":"公親里","LIN":"2鄰","STREET":"公學路","SECT":"一段","MAREA":" ","LANE":" ","ALLEY":" ","HOUSE_NO":"３１６號","E_COORD97":167883.66,"N_COORD97":2552850.9900000002,"ADDRESS":"公學路一段３１６號","OBJECTID":618833},"geometry":{"x":167883.66000000108,"y":2552850.9900000021}},{"attributes":{"ID":618861,"DIS_CODE":0,"TOWNNAME":"安南區","LI":"公親里","LIN":"2鄰","STREET":"公學路","SECT":"一段","MAREA":" ","LANE":" ","ALLEY":" ","HOUSE_NO":"２９２號","E_COORD97":167907.66,"N_COORD97":2552893.2799999998,"ADDRESS":"公學路一段２９２號","OBJECTID":618834},"geometry":{"x":167907.66000000108,"y":2552893.2799999993}},{"attributes":{"ID":618862,"DIS_CODE":0,"TOWNNAME":"安南區","LI":"安和里","LIN":"2鄰","STREET":"府安路","SECT":"三段","MAREA":" ","LANE":" ","ALLEY":" ","HOUSE_NO":"３０２之１號","E_COORD97":169844.45000000001,"N_COORD97":2547716.6400000001,"ADDRESS":"府安路三段３０２之１號","OBJECTID":618835},"geometry":{"x":169844.45000000019,"y":2547716.6400000025}},{"attributes":{"ID":618863,"DIS_CODE":0,"TOWNNAME":"安南區","LI":"顯宮里","LIN":"2鄰","STREET":"媽祖宮路","SECT":" ","MAREA":" ","LANE":" ","ALLEY":" ","HOUSE_NO":"１４７號","E_COORD97":160533.38,"N_COORD97":2548799.4900000002,"ADDRESS":"媽祖宮路１４７號","OBJECTID":618836},"geometry":{"x":160533.38000000082,"y":2548799.4900000021}},{"attributes":{"ID":618864,"DIS_CODE":0,"TOWNNAME":"東區","LI":"裕聖里","LIN":"2鄰","STREET":"裕信路","SECT":" ","MAREA":" ","LANE":" ","ALLEY":" ","HOUSE_NO":"３２６之１５號","E_COORD97":172527.23000000001,"N_COORD97":2542448.46,"ADDRESS":"裕信路３２６之１５號","OBJECTID":618837},"geometry":{"x":172527.23000000138,"y":2542448.4600000009}},{"attributes":{"ID":618865,"DIS_CODE":0,"TOWNNAME":"東區","LI":"裕聖里","LIN":"2鄰","STREET":"裕信路","SECT":" ","MAREA":" ","LANE":" ","ALLEY":" ","HOUSE_NO":"３２６之１６號","E_COORD97":172522.51999999999,"N_COORD97":2542451.29,"ADDRESS":"裕信路３２６之１６號","OBJECTID":618838},"geometry":{"x":172522.52000000048,"y":2542451.2899999991}},{"attributes":{"ID":618866,"DIS_CODE":0,"TOWNNAME":"東區","LI":"裕聖里","LIN":"2鄰","STREET":"裕信路","SECT":" ","MAREA":" ","LANE":" ","ALLEY":" ","HOUSE_NO":"３２６之１７號","E_COORD97":172517.79999999999,"N_COORD97":2542448.46,"ADDRESS":"裕信路３２６之１７號","OBJECTID":618839},"geometry":{"x":172517.79999999981,"y":2542448.4600000009}},{"attributes":{"ID":618867,"DIS_CODE":0,"TOWNNAME":"東區","LI":"裕聖里","LIN":"2鄰","STREET":"裕信路","SECT":" ","MAREA":" ","LANE":" ","ALLEY":" ","HOUSE_NO":"３２６之１號","E_COORD97":172580.64999999999,"N_COORD97":2542449.25,"ADDRESS":"裕信路３２６之１號","OBJECTID":618840},"geometry":{"x":172580.65000000037,"y":2542449.2499999981}},{"attributes":{"ID":618868,"DIS_CODE":0,"TOWNNAME":"東區","LI":"裕聖里","LIN":"2鄰","STREET":"裕信路","SECT":" ","MAREA":" ","LANE":" ","ALLEY":" ","HOUSE_NO":"３２６之２號","E_COORD97":172575.62,"N_COORD97":2542449.25,"ADDRESS":"裕信路３２６之２號","OBJECTID":618841},"geometry":{"x":172575.62000000011,"y":2542449.2499999981}},{"attributes":{"ID":618869,"DIS_CODE":0,"TOWNNAME":"東區","LI":"裕聖里","LIN":"2鄰","STREET":"裕信路","SECT":" ","MAREA":" ","LANE":" ","ALLEY":" ","HOUSE_NO":"３２６之３號","E_COORD97":172571.69,"N_COORD97":2542446.2599999998,"ADDRESS":"裕信路３２６之３號","OBJECTID":618842},"geometry":{"x":172571.69000000041,"y":2542446.2600000016}},{"attributes":{"ID":618870,"DIS_CODE":0,"TOWNNAME":"東區","LI":"裕聖里","LIN":"2鄰","STREET":"裕信路","SECT":" ","MAREA":" ","LANE":" ","ALLEY":" ","HOUSE_NO":"３２６之７號","E_COORD97":172557.87,"N_COORD97":2542450.0299999998,"ADDRESS":"裕信路３２６之７號","OBJECTID":618843},"geometry":{"x":172557.87000000104,"y":2542450.0299999975}},{"attributes":{"ID":618871,"DIS_CODE":0,"TOWNNAME":"東區","LI":"裕聖里","LIN":"2鄰","STREET":"裕信路","SECT":" ","MAREA":" ","LANE":" ","ALLEY":" ","HOUSE_NO":"３２６之８號","E_COORD97":172553.94,"N_COORD97":2542446.8900000001,"ADDRESS":"裕信路３２６之８號","OBJECTID":618844},"geometry":{"x":172553.94000000227,"y":2542446.8900000025}},{"attributes":{"ID":618872,"DIS_CODE":0,"TOWNNAME":"東區","LI":"裕聖里","LIN":"2鄰","STREET":"裕信路","SECT":" ","MAREA":" ","LANE":" ","ALLEY":" ","HOUSE_NO":"３２６之９號","E_COORD97":172549.54000000001,"N_COORD97":2542450.5,"ADDRESS":"裕信路３２６之９號","OBJECTID":618845},"geometry":{"x":172549.54000000097,"y":2542450.5}},{"attributes":{"ID":618873,"DIS_CODE":0,"TOWNNAME":"東區","LI":"裕聖里","LIN":"2鄰","STREET":"裕信路","SECT":" ","MAREA":" ","LANE":" ","ALLEY":" ","HOUSE_NO":"３２６號","E_COORD97":172585.67000000001,"N_COORD97":2542448.9300000002,"ADDRESS":"裕信路３２６號","OBJECTID":618846},"geometry":{"x":172585.67000000179,"y":2542448.9300000016}},{"attributes":{"ID":618874,"DIS_CODE":0,"TOWNNAME":"東區","LI":"裕聖里","LIN":"2鄰","STREET":"裕信路","SECT":" ","MAREA":" ","LANE":" ","ALLEY":" ","HOUSE_NO":"３２８之１０號","E_COORD97":172544.82999999999,"N_COORD97":2542419.8900000001,"ADDRESS":"裕信路３２８之１０號","OBJECTID":618847},"geometry":{"x":172544.83000000101,"y":2542419.8900000025}},{"attributes":{"ID":618875,"DIS_CODE":0,"TOWNNAME":"東區","LI":"裕聖里","LIN":"2鄰","STREET":"裕信路","SECT":" ","MAREA":" ","LANE":" ","ALLEY":" ","HOUSE_NO":"３２８之１１號","E_COORD97":172539.64000000001,"N_COORD97":2542423.3399999999,"ADDRESS":"裕信路３２８之１１號","OBJECTID":618848},"geometry":{"x":172539.63999999966,"y":2542423.3399999999}},{"attributes":{"ID":618876,"DIS_CODE":0,"TOWNNAME":"東區","LI":"裕聖里","LIN":"2鄰","STREET":"裕信路","SECT":" ","MAREA":" ","LANE":" ","ALLEY":" ","HOUSE_NO":"３２８之１２號","E_COORD97":172534.92999999999,"N_COORD97":2542419.4199999999,"ADDRESS":"裕信路３２８之１２號","OBJECTID":618849},"geometry":{"x":172534.93000000063,"y":2542419.4199999999}},{"attributes":{"ID":618877,"DIS_CODE":0,"TOWNNAME":"東區","LI":"裕聖里","LIN":"2鄰","STREET":"裕信路","SECT":" ","MAREA":" ","LANE":" ","ALLEY":" ","HOUSE_NO":"３２８之１３號","E_COORD97":172531.47,"N_COORD97":2542423.3399999999,"ADDRESS":"裕信路３２８之１３號","OBJECTID":618850},"geometry":{"x":172531.47000000067,"y":2542423.3399999999}},{"attributes":{"ID":618878,"DIS_CODE":0,"TOWNNAME":"東區","LI":"裕聖里","LIN":"2鄰","STREET":"裕信路","SECT":" ","MAREA":" ","LANE":" ","ALLEY":" ","HOUSE_NO":"３２８之１５號","E_COORD97":172526.60000000001,"N_COORD97":2542420.2000000002,"ADDRESS":"裕信路３２８之１５號","OBJECTID":618851},"geometry":{"x":172526.60000000149,"y":2542420.1999999993}},{"attributes":{"ID":618879,"DIS_CODE":0,"TOWNNAME":"東區","LI":"裕聖里","LIN":"2鄰","STREET":"裕信路","SECT":" ","MAREA":" ","LANE":" ","ALLEY":" ","HOUSE_NO":"３２８之１６號","E_COORD97":172522.06,"N_COORD97":2542423.0600000001,"ADDRESS":"裕信路３２８之１６號","OBJECTID":618852},"geometry":{"x":172522.06000000052,"y":2542423.0600000005}},{"attributes":{"ID":618880,"DIS_CODE":0,"TOWNNAME":"東區","LI":"裕聖里","LIN":"2鄰","STREET":"裕信路","SECT":" ","MAREA":" ","LANE":" ","ALLEY":" ","HOUSE_NO":"３２８之１７號","E_COORD97":172517.64000000001,"N_COORD97":2542419.2999999998,"ADDRESS":"裕信路３２８之１７號","OBJECTID":618853},"geometry":{"x":172517.63999999966,"y":2542419.3000000045}},{"attributes":{"ID":618881,"DIS_CODE":0,"TOWNNAME":"東區","LI":"裕聖里","LIN":"2鄰","STREET":"裕信路","SECT":" ","MAREA":" ","LANE":" ","ALLEY":" ","HOUSE_NO":"３２８之１號","E_COORD97":172580.32999999999,"N_COORD97":2542422.5600000001,"ADDRESS":"裕信路３２８之１號","OBJECTID":618854},"geometry":{"x":172580.33000000101,"y":2542422.5600000005}},{"attributes":{"ID":618882,"DIS_CODE":0,"TOWNNAME":"東區","LI":"裕聖里","LIN":"2鄰","STREET":"裕信路","SECT":" ","MAREA":" ","LANE":" ","ALLEY":" ","HOUSE_NO":"３２８之２號","E_COORD97":172575.62,"N_COORD97":2542424.1299999999,"ADDRESS":"裕信路３２８之２號","OBJECTID":618855},"geometry":{"x":172575.62000000011,"y":2542424.129999999}},{"attributes":{"ID":618883,"DIS_CODE":0,"TOWNNAME":"東區","LI":"裕聖里","LIN":"2鄰","STREET":"裕信路","SECT":" ","MAREA":" ","LANE":" ","ALLEY":" ","HOUSE_NO":"３２８之３號","E_COORD97":172571.69,"N_COORD97":2542421.46,"ADDRESS":"裕信路３２８之３號","OBJECTID":618856},"geometry":{"x":172571.69000000041,"y":2542421.4600000009}},{"attributes":{"ID":618884,"DIS_CODE":0,"TOWNNAME":"東區","LI":"裕聖里","LIN":"2鄰","STREET":"裕信路","SECT":" ","MAREA":" ","LANE":" ","ALLEY":" ","HOUSE_NO":"３２８之５號","E_COORD97":172566.82000000001,"N_COORD97":2542424.6000000001,"ADDRESS":"裕信路３２８之５號","OBJECTID":618857},"geometry":{"x":172566.82000000123,"y":2542424.6000000015}},{"attributes":{"ID":618885,"DIS_CODE":0,"TOWNNAME":"東區","LI":"裕聖里","LIN":"2鄰","STREET":"裕信路","SECT":" ","MAREA":" ","LANE":" ","ALLEY":" ","HOUSE_NO":"３２８之６號","E_COORD97":172562.89000000001,"N_COORD97":2542421.77,"ADDRESS":"裕信路３２８之６號","OBJECTID":618858},"geometry":{"x":172562.88999999966,"y":2542421.7700000033}},{"attributes":{"ID":618886,"DIS_CODE":0,"TOWNNAME":"東區","LI":"裕聖里","LIN":"2鄰","STREET":"裕信路","SECT":" ","MAREA":" ","LANE":" ","ALLEY":" ","HOUSE_NO":"３２８之７號","E_COORD97":172557.39000000001,"N_COORD97":2542424.9100000001,"ADDRESS":"裕信路３２８之７號","OBJECTID":618859},"geometry":{"x":172557.3900000006,"y":2542424.9100000039}},{"attributes":{"ID":618887,"DIS_CODE":0,"TOWNNAME":"東區","LI":"裕聖里","LIN":"2鄰","STREET":"裕信路","SECT":" ","MAREA":" ","LANE":" ","ALLEY":" ","HOUSE_NO":"３２８之８號","E_COORD97":172553.78,"N_COORD97":2542421.46,"ADDRESS":"裕信路３２８之８號","OBJECTID":618860},"geometry":{"x":172553.78000000119,"y":2542421.4600000009}},{"attributes":{"ID":618888,"DIS_CODE":0,"TOWNNAME":"東區","LI":"裕聖里","LIN":"2鄰","STREET":"裕信路","SECT":" ","MAREA":" ","LANE":" ","ALLEY":" ","HOUSE_NO":"３２８之９號","E_COORD97":172549.07000000001,"N_COORD97":2542423.6600000001,"ADDRESS":"裕信路３２８之９號","OBJECTID":618861},"geometry":{"x":172549.0700000003,"y":2542423.660000002}},{"attributes":{"ID":618889,"DIS_CODE":0,"TOWNNAME":"東區","LI":"裕聖里","LIN":"2鄰","STREET":"裕信路","SECT":" ","MAREA":" ","LANE":" ","ALLEY":" ","HOUSE_NO":"３２８號","E_COORD97":172585.82999999999,"N_COORD97":2542425.7000000002,"ADDRESS":"裕信路３２８號","OBJECTID":618862},"geometry":{"x":172585.83000000007,"y":2542425.7000000011}},{"attributes":{"ID":618890,"DIS_CODE":0,"TOWNNAME":"東區","LI":"崇成里","LIN":"2鄰","STREET":"崇道路","SECT":" ","MAREA":" ","LANE":" ","ALLEY":" ","HOUSE_NO":"１２６號","E_COORD97":170966.82999999999,"N_COORD97":2541392.27,"ADDRESS":"崇道路１２６號","OBJECTID":618863},"geometry":{"x":170966.83000000007,"y":2541392.2700000014}},{"attributes":{"ID":618891,"DIS_CODE":0,"TOWNNAME":"東區","LI":"崇成里","LIN":"2鄰","STREET":"崇道路","SECT":" ","MAREA":" ","LANE":" ","ALLEY":" ","HOUSE_NO":"１２８號","E_COORD97":170962.60000000001,"N_COORD97":2541391.7999999998,"ADDRESS":"崇道路１２８號","OBJECTID":618864},"geometry":{"x":170962.60000000056,"y":2541391.7999999989}},{"attributes":{"ID":618892,"DIS_CODE":0,"TOWNNAME":"東區","LI":"崇成里","LIN":"2鄰","STREET":"崇道路","SECT":" ","MAREA":" ","LANE":" ","ALLEY":" ","HOUSE_NO":"１３０號","E_COORD97":170958.75,"N_COORD97":2541391.0499999998,"ADDRESS":"崇道路１３０號","OBJECTID":618865},"geometry":{"x":170958.75,"y":2541391.0500000026}},{"attributes":{"ID":618893,"DIS_CODE":0,"TOWNNAME":"中西區","LI":"大涼里","LIN":"2鄰","STREET":"環河街","SECT":" ","MAREA":" ","LANE":" ","ALLEY":" ","HOUSE_NO":"６２號","E_COORD97":167194.60999999999,"N_COORD97":2543765.29,"ADDRESS":"環河街６２號","OBJECTID":618866},"geometry":{"x":167194.61000000127,"y":2543765.290000001}},{"attributes":{"ID":618894,"DIS_CODE":0,"TOWNNAME":"中西區","LI":"保安里","LIN":"2鄰","STREET":"尊王路","SECT":" ","MAREA":" ","LANE":" ","ALLEY":" ","HOUSE_NO":"２９號","E_COORD97":167694.67999999999,"N_COORD97":2543542.0499999998,"ADDRESS":"尊王路２９號","OBJECTID":618867},"geometry":{"x":167694.68000000156,"y":2543542.0500000007}},{"attributes":{"ID":618895,"DIS_CODE":0,"TOWNNAME":"中西區","LI":"西湖里","LIN":"2鄰","STREET":"中華西路","SECT":"二段","MAREA":" ","LANE":" ","ALLEY":" ","HOUSE_NO":"５６９號","E_COORD97":166609.35999999999,"N_COORD97":2544413.2799999998,"ADDRESS":"中華西路二段５６９號","OBJECTID":618868},"geometry":{"x":166609.3600000022,"y":2544413.2799999993}},{"attributes":{"ID":618896,"DIS_CODE":0,"TOWNNAME":"中西區","LI":"西湖里","LIN":"2鄰","STREET":"中華西路","SECT":"二段","MAREA":" ","LANE":" ","ALLEY":" ","HOUSE_NO":"５７１號","E_COORD97":166609.67000000001,"N_COORD97":2544419.9500000002,"ADDRESS":"中華西路二段５７１號","OBJECTID":618869},"geometry":{"x":166609.66999999993,"y":2544419.9499999993}},{"attributes":{"ID":618897,"DIS_CODE":0,"TOWNNAME":"中西區","LI":"西湖里","LIN":"2鄰","STREET":"中華西路","SECT":"二段","MAREA":" ","LANE":" ","ALLEY":" ","HOUSE_NO":"５７３號","E_COORD97":166609.98999999999,"N_COORD97":2544426.6200000001,"ADDRESS":"中華西路二段５７３號","OBJECTID":618870},"geometry":{"x":166609.99000000209,"y":2544426.620000001}},{"attributes":{"ID":618898,"DIS_CODE":0,"TOWNNAME":"中西區","LI":"西湖里","LIN":"2鄰","STREET":"中華西路","SECT":"二段","MAREA":" ","LANE":" ","ALLEY":" ","HOUSE_NO":"５７５號","E_COORD97":166610.14999999999,"N_COORD97":2544433.1200000001,"ADDRESS":"中華西路二段５７５號","OBJECTID":618871},"geometry":{"x":166610.15000000037,"y":2544433.120000001}},{"attributes":{"ID":618899,"DIS_CODE":0,"TOWNNAME":"中西區","LI":"西湖里","LIN":"2鄰","STREET":"中華西路","SECT":"二段","MAREA":" ","LANE":" ","ALLEY":" ","HOUSE_NO":"６４３號","E_COORD97":166613.70000000001,"N_COORD97":2544596.52,"ADDRESS":"中華西路二段６４３號","OBJECTID":618872},"geometry":{"x":166613.70000000205,"y":2544596.5200000033}},{"attributes":{"ID":618900,"DIS_CODE":0,"TOWNNAME":"中西區","LI":"元安里","LIN":"2鄰","STREET":"永華路","SECT":"一段","MAREA":" ","LANE":" ","ALLEY":" ","HOUSE_NO":"４２之１號","E_COORD97":167575.20999999999,"N_COORD97":2543132.0699999998,"ADDRESS":"永華路一段４２之１號","OBJECTID":618873},"geometry":{"x":167575.21000000089,"y":2543132.0700000003}},{"attributes":{"ID":618901,"DIS_CODE":0,"TOWNNAME":"中西區","LI":"永福里","LIN":"2鄰","STREET":"府前路","SECT":"一段","MAREA":" ","LANE":" ","ALLEY":" ","HOUSE_NO":"２６０號","E_COORD97":168044.13,"N_COORD97":2543429.8599999999,"ADDRESS":"府前路一段２６０號","OBJECTID":618874},"geometry":{"x":168044.12999999989,"y":2543429.8599999994}},{"attributes":{"ID":618902,"DIS_CODE":0,"TOWNNAME":"中西區","LI":"大涼里","LIN":"2鄰","STREET":"環河街","SECT":" ","MAREA":" ","LANE":" ","ALLEY":" ","HOUSE_NO":"５６號","E_COORD97":167178.79000000001,"N_COORD97":2543746.73,"ADDRESS":"環河街５６號","OBJECTID":618875},"geometry":{"x":167178.79000000004,"y":2543746.7300000023}},{"attributes":{"ID":618903,"DIS_CODE":0,"TOWNNAME":"中西區","LI":"西湖里","LIN":"2鄰","STREET":"頂美三街","SECT":" ","MAREA":" ","LANE":" ","ALLEY":" ","HOUSE_NO":"５５號","E_COORD97":166565.17000000001,"N_COORD97":2544604.2000000002,"ADDRESS":"頂美三街５５號","OBJECTID":618876},"geometry":{"x":166565.17000000086,"y":2544604.1999999993}},{"attributes":{"ID":618904,"DIS_CODE":0,"TOWNNAME":"中西區","LI":"大涼里","LIN":"2鄰","STREET":"金華新路","SECT":" ","MAREA":" ","LANE":" ","ALLEY":" ","HOUSE_NO":"５９號","E_COORD97":167199.82000000001,"N_COORD97":2543776.6099999999,"ADDRESS":"金華新路５９號","OBJECTID":618877},"geometry":{"x":167199.82000000123,"y":2543776.6100000013}},{"attributes":{"ID":618905,"DIS_CODE":0,"TOWNNAME":"中西區","LI":"大涼里","LIN":"2鄰","STREET":"金華新路","SECT":" ","MAREA":" ","LANE":" ","ALLEY":" ","HOUSE_NO":"６１號","E_COORD97":167195.70000000001,"N_COORD97":2543777.8799999999,"ADDRESS":"金華新路６１號","OBJECTID":618878},"geometry":{"x":167195.70000000112,"y":2543777.8800000008}},{"attributes":{"ID":618906,"DIS_CODE":0,"TOWNNAME":"中西區","LI":"大涼里","LIN":"2鄰","STREET":"金華新路","SECT":" ","MAREA":" ","LANE":" ","ALLEY":" ","HOUSE_NO":"６３號","E_COORD97":167191.89000000001,"N_COORD97":2543779.9399999999,"ADDRESS":"金華新路６３號","OBJECTID":618879},"geometry":{"x":167191.8900000006,"y":2543779.9400000032}},{"attributes":{"ID":618907,"DIS_CODE":0,"TOWNNAME":"中西區","LI":"大涼里","LIN":"2鄰","STREET":"金華新路","SECT":" ","MAREA":" ","LANE":" ","ALLEY":" ","HOUSE_NO":"４５號","E_COORD97":167237.29000000001,"N_COORD97":2543768.6699999999,"ADDRESS":"金華新路４５號","OBJECTID":618880},"geometry":{"x":167237.29000000097,"y":2543768.6700000037}},{"attributes":{"ID":618908,"DIS_CODE":0,"TOWNNAME":"中西區","LI":"西湖里","LIN":"2鄰","STREET":"頂美三街","SECT":" ","MAREA":" ","LANE":" ","ALLEY":" ","HOUSE_NO":"４５號","E_COORD97":166550.98000000001,"N_COORD97":2544532.0299999998,"ADDRESS":"頂美三街４５號","OBJECTID":618881},"geometry":{"x":166550.98000000231,"y":2544532.0300000031}},{"attributes":{"ID":618909,"DIS_CODE":0,"TOWNNAME":"安南區","LI":"淵中里","LIN":"2鄰","STREET":"本淵一街","SECT":" ","MAREA":" ","LANE":" ","ALLEY":" ","HOUSE_NO":"６號","E_COORD97":165317.51000000001,"N_COORD97":2549941.1099999999,"ADDRESS":"本淵一街６號","OBJECTID":618882},"geometry":{"x":165317.50999999885,"y":2549941.1099999994}},{"attributes":{"ID":618910,"DIS_CODE":0,"TOWNNAME":"麻豆區","LI":"保安里","LIN":"2鄰","STREET":"興中路","SECT":" ","MAREA":" ","LANE":" ","ALLEY":" ","HOUSE_NO":"７號","E_COORD97":173092.57999999999,"N_COORD97":2564832.8599999999,"ADDRESS":"興中路７號","OBJECTID":618883},"geometry":{"x":173092.58000000007,"y":2564832.8600000013}},{"attributes":{"ID":618911,"DIS_CODE":0,"TOWNNAME":"安南區","LI":"安順里","LIN":"2鄰","STREET":"總安街","SECT":"一段","MAREA":" ","LANE":" ","ALLEY":" ","HOUSE_NO":"４８號","E_COORD97":169859.29000000001,"N_COORD97":2550122.1099999999,"ADDRESS":"總安街一段４８號","OBJECTID":618884},"geometry":{"x":169859.29000000097,"y":2550122.1100000031}},{"attributes":{"ID":618912,"DIS_CODE":0,"TOWNNAME":"安南區","LI":"安順里","LIN":"2鄰","STREET":"總安街","SECT":"一段","MAREA":" ","LANE":" ","ALLEY":" ","HOUSE_NO":"５６號","E_COORD97":169840,"N_COORD97":2550115.7999999998,"ADDRESS":"總安街一段５６號","OBJECTID":618885},"geometry":{"x":169840,"y":2550115.8000000026}},{"attributes":{"ID":618913,"DIS_CODE":0,"TOWNNAME":"安南區","LI":"安順里","LIN":"2鄰","STREET":"總安街","SECT":"一段","MAREA":" ","LANE":" ","ALLEY":" ","HOUSE_NO":"５８號","E_COORD97":169835.45000000001,"N_COORD97":2550116.5600000001,"ADDRESS":"總安街一段５８號","OBJECTID":618886},"geometry":{"x":169835.45000000019,"y":2550116.5600000005}},{"attributes":{"ID":618914,"DIS_CODE":0,"TOWNNAME":"安南區","LI":"安順里","LIN":"2鄰","STREET":"總安街","SECT":"一段","MAREA":" ","LANE":" ","ALLEY":" ","HOUSE_NO":"６０號","E_COORD97":169828.91,"N_COORD97":2550117.4700000002,"ADDRESS":"總安街一段６０號","OBJECTID":618887},"geometry":{"x":169828.91000000015,"y":2550117.4699999988}},{"attributes":{"ID":618915,"DIS_CODE":0,"TOWNNAME":"安南區","LI":"安順里","LIN":"2鄰","STREET":"總安街","SECT":"一段","MAREA":" ","LANE":" ","ALLEY":" ","HOUSE_NO":"６２號","E_COORD97":169828.70000000001,"N_COORD97":2550131.9500000002,"ADDRESS":"總安街一段６２號","OBJECTID":618888},"geometry":{"x":169828.70000000019,"y":2550131.9499999993}},{"attributes":{"ID":618916,"DIS_CODE":0,"TOWNNAME":"安南區","LI":"安順里","LIN":"2鄰","STREET":"總安街","SECT":"一段","MAREA":" ","LANE":" ","ALLEY":" ","HOUSE_NO":"６４號","E_COORD97":169804.76000000001,"N_COORD97":2550121.0800000001,"ADDRESS":"總安街一段６４號","OBJECTID":618889},"geometry":{"x":169804.76000000164,"y":2550121.0800000019}},{"attributes":{"ID":618917,"DIS_CODE":0,"TOWNNAME":"麻豆區","LI":"保安里","LIN":"2鄰","STREET":"興中路","SECT":" ","MAREA":" ","LANE":" ","ALLEY":" ","HOUSE_NO":"３號","E_COORD97":173084.47,"N_COORD97":2564833.04,"ADDRESS":"興中路３號","OBJECTID":618890},"geometry":{"x":173084.46999999974,"y":2564833.0400000028}},{"attributes":{"ID":618918,"DIS_CODE":0,"TOWNNAME":"麻豆區","LI":"保安里","LIN":"2鄰","STREET":"興中路","SECT":" ","MAREA":" ","LANE":" ","ALLEY":" ","HOUSE_NO":"５號","E_COORD97":173088.28,"N_COORD97":2564833.1099999999,"ADDRESS":"興中路５號","OBJECTID":618891},"geometry":{"x":173088.28000000026,"y":2564833.1100000031}},{"attributes":{"ID":618919,"DIS_CODE":0,"TOWNNAME":"新營區","LI":"延平里","LIN":"2鄰","STREET":"延平路","SECT":" ","MAREA":" ","LANE":" ","ALLEY":" ","HOUSE_NO":"４０之２號八樓之３","E_COORD97":179768.44,"N_COORD97":2577845.1899999999,"ADDRESS":"延平路４０之２號八樓之３","OBJECTID":618892},"geometry":{"x":179768.43999999948,"y":2577845.1900000013}},{"attributes":{"ID":618920,"DIS_CODE":0,"TOWNNAME":"新營區","LI":"延平里","LIN":"2鄰","STREET":"延平路","SECT":" ","MAREA":" ","LANE":" ","ALLEY":" ","HOUSE_NO":"４０之２號八樓之２","E_COORD97":179768.48000000001,"N_COORD97":2577845.1899999999,"ADDRESS":"延平路４０之２號八樓之２","OBJECTID":618893},"geometry":{"x":179768.48000000138,"y":2577845.1900000013}},{"attributes":{"ID":618921,"DIS_CODE":0,"TOWNNAME":"新營區","LI":"延平里","LIN":"2鄰","STREET":"延平路","SECT":" ","MAREA":" ","LANE":" ","ALLEY":" ","HOUSE_NO":"４０之１號五樓之１","E_COORD97":179768.34,"N_COORD97":2577845.1899999999,"ADDRESS":"延平路４０之１號五樓之１","OBJECTID":618894},"geometry":{"x":179768.33999999985,"y":2577845.1900000013}},{"attributes":{"ID":618922,"DIS_CODE":0,"TOWNNAME":"新營區","LI":"延平里","LIN":"2鄰","STREET":"延平路","SECT":" ","MAREA":" ","LANE":" ","ALLEY":" ","HOUSE_NO":"４０之２號九樓之２","E_COORD97":179768.48000000001,"N_COORD97":2577845.1899999999,"ADDRESS":"延平路４０之２號九樓之２","OBJECTID":618895},"geometry":{"x":179768.48000000138,"y":2577845.1900000013}},{"attributes":{"ID":618923,"DIS_CODE":0,"TOWNNAME":"新營區","LI":"民權里","LIN":"2鄰","STREET":"信義街","SECT":" ","MAREA":" ","LANE":" ","ALLEY":" ","HOUSE_NO":"１０之號三樓之１","E_COORD97":179966.85999999999,"N_COORD97":2578141.04,"ADDRESS":"信義街１０之號三樓之１","OBJECTID":618896},"geometry":{"x":179966.86000000034,"y":2578141.040000001}},{"attributes":{"ID":618924,"DIS_CODE":0,"TOWNNAME":"北區","LI":"光武里","LIN":"2鄰","STREET":"長榮路","SECT":"五段","MAREA":" ","LANE":" ","ALLEY":" ","HOUSE_NO":"３１１號七樓之１","E_COORD97":169702.64000000001,"N_COORD97":2545910.48,"ADDRESS":"長榮路五段３１１號七樓之１","OBJECTID":618897},"geometry":{"x":169702.6400000006,"y":2545910.4800000023}},{"attributes":{"ID":618925,"DIS_CODE":0,"TOWNNAME":"北區","LI":"光武里","LIN":"2鄰","STREET":"長榮路","SECT":"五段","MAREA":" ","LANE":" ","ALLEY":" ","HOUSE_NO":"３１１號七樓之２","E_COORD97":169702.64000000001,"N_COORD97":2545910.48,"ADDRESS":"長榮路五段３１１號七樓之２","OBJECTID":618898},"geometry":{"x":169702.6400000006,"y":2545910.4800000023}},{"attributes":{"ID":618926,"DIS_CODE":0,"TOWNNAME":"北區","LI":"光武里","LIN":"2鄰","STREET":"長榮路","SECT":"五段","MAREA":" ","LANE":" ","ALLEY":" ","HOUSE_NO":"３１１號九樓之１","E_COORD97":169702.64000000001,"N_COORD97":2545910.48,"ADDRESS":"長榮路五段３１１號九樓之１","OBJECTID":618899},"geometry":{"x":169702.6400000006,"y":2545910.4800000023}},{"attributes":{"ID":618927,"DIS_CODE":0,"TOWNNAME":"北區","LI":"光武里","LIN":"2鄰","STREET":"長榮路","SECT":"五段","MAREA":" ","LANE":" ","ALLEY":" ","HOUSE_NO":"３１１號九樓之２","E_COORD97":169702.64000000001,"N_COORD97":2545910.48,"ADDRESS":"長榮路五段３１１號九樓之２","OBJECTID":618900},"geometry":{"x":169702.6400000006,"y":2545910.4800000023}},{"attributes":{"ID":618928,"DIS_CODE":0,"TOWNNAME":"北區","LI":"光武里","LIN":"2鄰","STREET":"長榮路","SECT":"五段","MAREA":" ","LANE":" ","ALLEY":" ","HOUSE_NO":"３１１號八樓之１","E_COORD97":169702.64000000001,"N_COORD97":2545910.48,"ADDRESS":"長榮路五段３１１號八樓之１","OBJECTID":618901},"geometry":{"x":169702.6400000006,"y":2545910.4800000023}},{"attributes":{"ID":618929,"DIS_CODE":0,"TOWNNAME":"北區","LI":"光武里","LIN":"2鄰","STREET":"長榮路","SECT":"五段","MAREA":" ","LANE":" ","ALLEY":" ","HOUSE_NO":"３１１號八樓之２","E_COORD97":169702.64000000001,"N_COORD97":2545910.48,"ADDRESS":"長榮路五段３１１號八樓之２","OBJECTID":618902},"geometry":{"x":169702.6400000006,"y":2545910.4800000023}},{"attributes":{"ID":618930,"DIS_CODE":0,"TOWNNAME":"北區","LI":"光武里","LIN":"2鄰","STREET":"長榮路","SECT":"五段","MAREA":" ","LANE":" ","ALLEY":" ","HOUSE_NO":"３１１號十一樓之１","E_COORD97":169702.64000000001,"N_COORD97":2545910.48,"ADDRESS":"長榮路五段３１１號十一樓之１","OBJECTID":618903},"geometry":{"x":169702.6400000006,"y":2545910.4800000023}},{"attributes":{"ID":618931,"DIS_CODE":0,"TOWNNAME":"北區","LI":"光武里","LIN":"2鄰","STREET":"長榮路","SECT":"五段","MAREA":" ","LANE":" ","ALLEY":" ","HOUSE_NO":"３１１號十一樓之２","E_COORD97":169702.64000000001,"N_COORD97":2545910.48,"ADDRESS":"長榮路五段３１１號十一樓之２","OBJECTID":618904},"geometry":{"x":169702.6400000006,"y":2545910.4800000023}},{"attributes":{"ID":618932,"DIS_CODE":0,"TOWNNAME":"北區","LI":"光武里","LIN":"2鄰","STREET":"長榮路","SECT":"五段","MAREA":" ","LANE":" ","ALLEY":" ","HOUSE_NO":"３１１號十二樓之１","E_COORD97":169702.64000000001,"N_COORD97":2545910.48,"ADDRESS":"長榮路五段３１１號十二樓之１","OBJECTID":618905},"geometry":{"x":169702.6400000006,"y":2545910.4800000023}},{"attributes":{"ID":618933,"DIS_CODE":0,"TOWNNAME":"北區","LI":"大仁里","LIN":"2鄰","STREET":"北門路","SECT":"二段","MAREA":" ","LANE":" ","ALLEY":" ","HOUSE_NO":"２７２號七樓","E_COORD97":169529.57999999999,"N_COORD97":2545283.8100000001,"ADDRESS":"北門路二段２７２號七樓","OBJECTID":618906},"geometry":{"x":169529.58000000007,"y":2545283.8100000042}},{"attributes":{"ID":618934,"DIS_CODE":0,"TOWNNAME":"北區","LI":"光武里","LIN":"2鄰","STREET":"長榮路","SECT":"五段","MAREA":" ","LANE":" ","ALLEY":" ","HOUSE_NO":"３１１號十二樓之２","E_COORD97":169702.64000000001,"N_COORD97":2545910.48,"ADDRESS":"長榮路五段３１１號十二樓之２","OBJECTID":618907},"geometry":{"x":169702.6400000006,"y":2545910.4800000023}},{"attributes":{"ID":618935,"DIS_CODE":0,"TOWNNAME":"北區","LI":"光武里","LIN":"2鄰","STREET":"長榮路","SECT":"五段","MAREA":" ","LANE":" ","ALLEY":" ","HOUSE_NO":"３１１號十樓之１","E_COORD97":169702.64000000001,"N_COORD97":2545910.48,"ADDRESS":"長榮路五段３１１號十樓之１","OBJECTID":618908},"geometry":{"x":169702.6400000006,"y":2545910.4800000023}},{"attributes":{"ID":618936,"DIS_CODE":0,"TOWNNAME":"北區","LI":"光武里","LIN":"2鄰","STREET":"長榮路","SECT":"五段","MAREA":" ","LANE":" ","ALLEY":" ","HOUSE_NO":"３１１號十樓之２","E_COORD97":169702.64000000001,"N_COORD97":2545910.48,"ADDRESS":"長榮路五段３１１號十樓之２","OBJECTID":618909},"geometry":{"x":169702.6400000006,"y":2545910.4800000023}},{"attributes":{"ID":618937,"DIS_CODE":0,"TOWNNAME":"北區","LI":"光武里","LIN":"2鄰","STREET":"長榮路","SECT":"五段","MAREA":" ","LANE":" ","ALLEY":" ","HOUSE_NO":"３１１號三樓之１","E_COORD97":169702.64000000001,"N_COORD97":2545910.48,"ADDRESS":"長榮路五段３１１號三樓之１","OBJECTID":618910},"geometry":{"x":169702.6400000006,"y":2545910.4800000023}},{"attributes":{"ID":618938,"DIS_CODE":0,"TOWNNAME":"北區","LI":"光武里","LIN":"2鄰","STREET":"長榮路","SECT":"五段","MAREA":" ","LANE":" ","ALLEY":" ","HOUSE_NO":"３１１號三樓之２","E_COORD97":169702.64000000001,"N_COORD97":2545910.48,"ADDRESS":"長榮路五段３１１號三樓之２","OBJECTID":618911},"geometry":{"x":169702.6400000006,"y":2545910.4800000023}},{"attributes":{"ID":618939,"DIS_CODE":0,"TOWNNAME":"北區","LI":"光武里","LIN":"2鄰","STREET":"長榮路","SECT":"五段","MAREA":" ","LANE":" ","ALLEY":" ","HOUSE_NO":"３１１號五樓之１","E_COORD97":169702.64000000001,"N_COORD97":2545910.48,"ADDRESS":"長榮路五段３１１號五樓之１","OBJECTID":618912},"geometry":{"x":169702.6400000006,"y":2545910.4800000023}},{"attributes":{"ID":618940,"DIS_CODE":0,"TOWNNAME":"北區","LI":"光武里","LIN":"2鄰","STREET":"長榮路","SECT":"五段","MAREA":" ","LANE":" ","ALLEY":" ","HOUSE_NO":"３１１號五樓之２","E_COORD97":169702.64000000001,"N_COORD97":2545910.48,"ADDRESS":"長榮路五段３１１號五樓之２","OBJECTID":618913},"geometry":{"x":169702.6400000006,"y":2545910.4800000023}},{"attributes":{"ID":618941,"DIS_CODE":0,"TOWNNAME":"北區","LI":"光武里","LIN":"2鄰","STREET":"長榮路","SECT":"五段","MAREA":" ","LANE":" ","ALLEY":" ","HOUSE_NO":"３１１號六樓之１","E_COORD97":169702.64000000001,"N_COORD97":2545910.48,"ADDRESS":"長榮路五段３１１號六樓之１","OBJECTID":618914},"geometry":{"x":169702.6400000006,"y":2545910.4800000023}},{"attributes":{"ID":618942,"DIS_CODE":0,"TOWNNAME":"北區","LI":"光武里","LIN":"2鄰","STREET":"長榮路","SECT":"五段","MAREA":" ","LANE":" ","ALLEY":" ","HOUSE_NO":"３１１號六樓之２","E_COORD97":169702.64000000001,"N_COORD97":2545910.48,"ADDRESS":"長榮路五段３１１號六樓之２","OBJECTID":618915},"geometry":{"x":169702.6400000006,"y":2545910.4800000023}},{"attributes":{"ID":618943,"DIS_CODE":0,"TOWNNAME":"北區","LI":"光武里","LIN":"2鄰","STREET":"長榮路","SECT":"五段","MAREA":" ","LANE":" ","ALLEY":" ","HOUSE_NO":"３１１號四樓之１","E_COORD97":169702.64000000001,"N_COORD97":2545910.48,"ADDRESS":"長榮路五段３１１號四樓之１","OBJECTID":618916},"geometry":{"x":169702.6400000006,"y":2545910.4800000023}},{"attributes":{"ID":618944,"DIS_CODE":0,"TOWNNAME":"北區","LI":"光武里","LIN":"2鄰","STREET":"長榮路","SECT":"五段","MAREA":" ","LANE":" ","ALLEY":" ","HOUSE_NO":"３１１號四樓之２","E_COORD97":169702.64000000001,"N_COORD97":2545910.48,"ADDRESS":"長榮路五段３１１號四樓之２","OBJECTID":618917},"geometry":{"x":169702.6400000006,"y":2545910.4800000023}},{"attributes":{"ID":618945,"DIS_CODE":0,"TOWNNAME":"北區","LI":"大仁里","LIN":"2鄰","STREET":"北門路","SECT":"二段","MAREA":" ","LANE":" ","ALLEY":" ","HOUSE_NO":"２５８號三樓","E_COORD97":169516.56,"N_COORD97":2545253.75,"ADDRESS":"北門路二段２５８號三樓","OBJECTID":618918},"geometry":{"x":169516.56000000052,"y":2545253.7500000019}},{"attributes":{"ID":618946,"DIS_CODE":0,"TOWNNAME":"北區","LI":"大仁里","LIN":"2鄰","STREET":"北門路","SECT":"二段","MAREA":" ","LANE":" ","ALLEY":" ","HOUSE_NO":"２６２號三樓","E_COORD97":169520.82000000001,"N_COORD97":2545264.3700000001,"ADDRESS":"北門路二段２６２號三樓","OBJECTID":618919},"geometry":{"x":169520.82000000123,"y":2545264.3700000029}},{"attributes":{"ID":618947,"DIS_CODE":0,"TOWNNAME":"北區","LI":"大仁里","LIN":"2鄰","STREET":"北門路","SECT":"二段","MAREA":" ","LANE":" ","ALLEY":" ","HOUSE_NO":"２６８號三樓","E_COORD97":169525.41,"N_COORD97":2545274.4199999999,"ADDRESS":"北門路二段２６８號三樓","OBJECTID":618920},"geometry":{"x":169525.41000000015,"y":2545274.4199999999}},{"attributes":{"ID":618948,"DIS_CODE":0,"TOWNNAME":"北區","LI":"大仁里","LIN":"2鄰","STREET":"北門路","SECT":"二段","MAREA":" ","LANE":" ","ALLEY":" ","HOUSE_NO":"２７２號三樓","E_COORD97":169529.57999999999,"N_COORD97":2545283.8100000001,"ADDRESS":"北門路二段２７２號三樓","OBJECTID":618921},"geometry":{"x":169529.58000000007,"y":2545283.8100000042}},{"attributes":{"ID":618949,"DIS_CODE":0,"TOWNNAME":"北區","LI":"大仁里","LIN":"2鄰","STREET":"北門路","SECT":"二段","MAREA":" ","LANE":" ","ALLEY":" ","HOUSE_NO":"２５８號四樓","E_COORD97":169516.56,"N_COORD97":2545253.75,"ADDRESS":"北門路二段２５８號四樓","OBJECTID":618922},"geometry":{"x":169516.56000000052,"y":2545253.7500000019}},{"attributes":{"ID":618950,"DIS_CODE":0,"TOWNNAME":"北區","LI":"大仁里","LIN":"2鄰","STREET":"北門路","SECT":"二段","MAREA":" ","LANE":" ","ALLEY":" ","HOUSE_NO":"２６２號四樓","E_COORD97":169520.82000000001,"N_COORD97":2545264.3700000001,"ADDRESS":"北門路二段２６２號四樓","OBJECTID":618923},"geometry":{"x":169520.82000000123,"y":2545264.3700000029}},{"attributes":{"ID":618951,"DIS_CODE":0,"TOWNNAME":"北區","LI":"大仁里","LIN":"2鄰","STREET":"北門路","SECT":"二段","MAREA":" ","LANE":" ","ALLEY":" ","HOUSE_NO":"２６８號四樓","E_COORD97":169525.41,"N_COORD97":2545274.4199999999,"ADDRESS":"北門路二段２６８號四樓","OBJECTID":618924},"geometry":{"x":169525.41000000015,"y":2545274.4199999999}},{"attributes":{"ID":618952,"DIS_CODE":0,"TOWNNAME":"北區","LI":"大仁里","LIN":"2鄰","STREET":"北門路","SECT":"二段","MAREA":" ","LANE":" ","ALLEY":" ","HOUSE_NO":"２７２號四樓","E_COORD97":169529.57999999999,"N_COORD97":2545283.8100000001,"ADDRESS":"北門路二段２７２號四樓","OBJECTID":618925},"geometry":{"x":169529.58000000007,"y":2545283.8100000042}},{"attributes":{"ID":618953,"DIS_CODE":0,"TOWNNAME":"北區","LI":"大仁里","LIN":"2鄰","STREET":"北門路","SECT":"二段","MAREA":" ","LANE":" ","ALLEY":" ","HOUSE_NO":"２５８號五樓","E_COORD97":169516.56,"N_COORD97":2545253.75,"ADDRESS":"北門路二段２５８號五樓","OBJECTID":618926},"geometry":{"x":169516.56000000052,"y":2545253.7500000019}},{"attributes":{"ID":618954,"DIS_CODE":0,"TOWNNAME":"北區","LI":"大仁里","LIN":"2鄰","STREET":"北門路","SECT":"二段","MAREA":" ","LANE":" ","ALLEY":" ","HOUSE_NO":"２６２號五樓","E_COORD97":169520.82000000001,"N_COORD97":2545264.3700000001,"ADDRESS":"北門路二段２６２號五樓","OBJECTID":618927},"geometry":{"x":169520.82000000123,"y":2545264.3700000029}},{"attributes":{"ID":618955,"DIS_CODE":0,"TOWNNAME":"北區","LI":"大仁里","LIN":"2鄰","STREET":"北門路","SECT":"二段","MAREA":" ","LANE":" ","ALLEY":" ","HOUSE_NO":"２６８號五樓","E_COORD97":169525.41,"N_COORD97":2545274.4199999999,"ADDRESS":"北門路二段２６８號五樓","OBJECTID":618928},"geometry":{"x":169525.41000000015,"y":2545274.4199999999}},{"attributes":{"ID":618956,"DIS_CODE":0,"TOWNNAME":"北區","LI":"大仁里","LIN":"2鄰","STREET":"北門路","SECT":"二段","MAREA":" ","LANE":" ","ALLEY":" ","HOUSE_NO":"２７２號五樓","E_COORD97":169529.57999999999,"N_COORD97":2545283.8100000001,"ADDRESS":"北門路二段２７２號五樓","OBJECTID":618929},"geometry":{"x":169529.58000000007,"y":2545283.8100000042}},{"attributes":{"ID":618957,"DIS_CODE":0,"TOWNNAME":"北區","LI":"大仁里","LIN":"2鄰","STREET":"北門路","SECT":"二段","MAREA":" ","LANE":" ","ALLEY":" ","HOUSE_NO":"２５８號六樓","E_COORD97":169516.56,"N_COORD97":2545253.75,"ADDRESS":"北門路二段２５８號六樓","OBJECTID":618930},"geometry":{"x":169516.56000000052,"y":2545253.7500000019}},{"attributes":{"ID":618958,"DIS_CODE":0,"TOWNNAME":"北區","LI":"大仁里","LIN":"2鄰","STREET":"北門路","SECT":"二段","MAREA":" ","LANE":" ","ALLEY":" ","HOUSE_NO":"２６２號六樓","E_COORD97":169520.82000000001,"N_COORD97":2545264.3700000001,"ADDRESS":"北門路二段２６２號六樓","OBJECTID":618931},"geometry":{"x":169520.82000000123,"y":2545264.3700000029}},{"attributes":{"ID":618959,"DIS_CODE":0,"TOWNNAME":"北區","LI":"大仁里","LIN":"2鄰","STREET":"北門路","SECT":"二段","MAREA":" ","LANE":" ","ALLEY":" ","HOUSE_NO":"２６８號六樓","E_COORD97":169525.41,"N_COORD97":2545274.4199999999,"ADDRESS":"北門路二段２６８號六樓","OBJECTID":618932},"geometry":{"x":169525.41000000015,"y":2545274.4199999999}},{"attributes":{"ID":618960,"DIS_CODE":0,"TOWNNAME":"北區","LI":"大仁里","LIN":"2鄰","STREET":"北門路","SECT":"二段","MAREA":" ","LANE":" ","ALLEY":" ","HOUSE_NO":"２７２號六樓","E_COORD97":169529.57999999999,"N_COORD97":2545283.8100000001,"ADDRESS":"北門路二段２７２號六樓","OBJECTID":618933},"geometry":{"x":169529.58000000007,"y":2545283.8100000042}},{"attributes":{"ID":618961,"DIS_CODE":0,"TOWNNAME":"北區","LI":"大仁里","LIN":"2鄰","STREET":"北門路","SECT":"二段","MAREA":" ","LANE":" ","ALLEY":" ","HOUSE_NO":"２５８號七樓","E_COORD97":169516.56,"N_COORD97":2545253.75,"ADDRESS":"北門路二段２５８號七樓","OBJECTID":618934},"geometry":{"x":169516.56000000052,"y":2545253.7500000019}},{"attributes":{"ID":618962,"DIS_CODE":0,"TOWNNAME":"北區","LI":"大仁里","LIN":"2鄰","STREET":"北門路","SECT":"二段","MAREA":" ","LANE":" ","ALLEY":" ","HOUSE_NO":"２６２號七樓","E_COORD97":169520.82000000001,"N_COORD97":2545264.3700000001,"ADDRESS":"北門路二段２６２號七樓","OBJECTID":618935},"geometry":{"x":169520.82000000123,"y":2545264.3700000029}},{"attributes":{"ID":618963,"DIS_CODE":0,"TOWNNAME":"北區","LI":"大仁里","LIN":"2鄰","STREET":"北門路","SECT":"二段","MAREA":" ","LANE":" ","ALLEY":" ","HOUSE_NO":"２６８號七樓","E_COORD97":169525.41,"N_COORD97":2545274.4199999999,"ADDRESS":"北門路二段２６８號七樓","OBJECTID":618936},"geometry":{"x":169525.41000000015,"y":2545274.4199999999}},{"attributes":{"ID":618964,"DIS_CODE":0,"TOWNNAME":"北區","LI":"大仁里","LIN":"2鄰","STREET":"北門路","SECT":"二段","MAREA":" ","LANE":" ","ALLEY":" ","HOUSE_NO":"２５８號八樓","E_COORD97":169516.56,"N_COORD97":2545253.75,"ADDRESS":"北門路二段２５８號八樓","OBJECTID":618937},"geometry":{"x":169516.56000000052,"y":2545253.7500000019}},{"attributes":{"ID":618965,"DIS_CODE":0,"TOWNNAME":"北區","LI":"大仁里","LIN":"2鄰","STREET":"北門路","SECT":"二段","MAREA":" ","LANE":" ","ALLEY":" ","HOUSE_NO":"２６２號八樓","E_COORD97":169520.82000000001,"N_COORD97":2545264.3700000001,"ADDRESS":"北門路二段２６２號八樓","OBJECTID":618938},"geometry":{"x":169520.82000000123,"y":2545264.3700000029}},{"attributes":{"ID":618966,"DIS_CODE":0,"TOWNNAME":"北區","LI":"大仁里","LIN":"2鄰","STREET":"北門路","SECT":"二段","MAREA":" ","LANE":" ","ALLEY":" ","HOUSE_NO":"２６８號八樓","E_COORD97":169525.41,"N_COORD97":2545274.4199999999,"ADDRESS":"北門路二段２６８號八樓","OBJECTID":618939},"geometry":{"x":169525.41000000015,"y":2545274.4199999999}},{"attributes":{"ID":618967,"DIS_CODE":0,"TOWNNAME":"北區","LI":"大仁里","LIN":"2鄰","STREET":"北門路","SECT":"二段","MAREA":" ","LANE":" ","ALLEY":" ","HOUSE_NO":"２７２號八樓","E_COORD97":169529.57999999999,"N_COORD97":2545283.8100000001,"ADDRESS":"北門路二段２７２號八樓","OBJECTID":618940},"geometry":{"x":169529.58000000007,"y":2545283.8100000042}},{"attributes":{"ID":618968,"DIS_CODE":0,"TOWNNAME":"北區","LI":"大仁里","LIN":"2鄰","STREET":"北門路","SECT":"二段","MAREA":" ","LANE":" ","ALLEY":" ","HOUSE_NO":"２５８號九樓","E_COORD97":169516.56,"N_COORD97":2545253.75,"ADDRESS":"北門路二段２５８號九樓","OBJECTID":618941},"geometry":{"x":169516.56000000052,"y":2545253.7500000019}},{"attributes":{"ID":618969,"DIS_CODE":0,"TOWNNAME":"北區","LI":"大仁里","LIN":"2鄰","STREET":"北門路","SECT":"二段","MAREA":" ","LANE":" ","ALLEY":" ","HOUSE_NO":"２６２號九樓","E_COORD97":169520.82000000001,"N_COORD97":2545264.3700000001,"ADDRESS":"北門路二段２６２號九樓","OBJECTID":618942},"geometry":{"x":169520.82000000123,"y":2545264.3700000029}},{"attributes":{"ID":618970,"DIS_CODE":0,"TOWNNAME":"北區","LI":"大仁里","LIN":"2鄰","STREET":"北門路","SECT":"二段","MAREA":" ","LANE":" ","ALLEY":" ","HOUSE_NO":"２６８號九樓","E_COORD97":169525.41,"N_COORD97":2545274.4199999999,"ADDRESS":"北門路二段２６８號九樓","OBJECTID":618943},"geometry":{"x":169525.41000000015,"y":2545274.4199999999}},{"attributes":{"ID":618971,"DIS_CODE":0,"TOWNNAME":"北區","LI":"大仁里","LIN":"2鄰","STREET":"北門路","SECT":"二段","MAREA":" ","LANE":" ","ALLEY":" ","HOUSE_NO":"２７２號九樓","E_COORD97":169529.57999999999,"N_COORD97":2545283.8100000001,"ADDRESS":"北門路二段２７２號九樓","OBJECTID":618944},"geometry":{"x":169529.58000000007,"y":2545283.8100000042}},{"attributes":{"ID":618972,"DIS_CODE":0,"TOWNNAME":"北區","LI":"大仁里","LIN":"2鄰","STREET":"北門路","SECT":"二段","MAREA":" ","LANE":" ","ALLEY":" ","HOUSE_NO":"２５８號十樓","E_COORD97":169516.56,"N_COORD97":2545253.75,"ADDRESS":"北門路二段２５８號十樓","OBJECTID":618945},"geometry":{"x":169516.56000000052,"y":2545253.7500000019}},{"attributes":{"ID":618973,"DIS_CODE":0,"TOWNNAME":"北區","LI":"大仁里","LIN":"2鄰","STREET":"北門路","SECT":"二段","MAREA":" ","LANE":" ","ALLEY":" ","HOUSE_NO":"２６２號十樓","E_COORD97":169520.82000000001,"N_COORD97":2545264.3700000001,"ADDRESS":"北門路二段２６２號十樓","OBJECTID":618946},"geometry":{"x":169520.82000000123,"y":2545264.3700000029}},{"attributes":{"ID":618974,"DIS_CODE":0,"TOWNNAME":"北區","LI":"大仁里","LIN":"2鄰","STREET":"北門路","SECT":"二段","MAREA":" ","LANE":" ","ALLEY":" ","HOUSE_NO":"２６８號十樓","E_COORD97":169525.41,"N_COORD97":2545274.4199999999,"ADDRESS":"北門路二段２６８號十樓","OBJECTID":618947},"geometry":{"x":169525.41000000015,"y":2545274.4199999999}},{"attributes":{"ID":618975,"DIS_CODE":0,"TOWNNAME":"北區","LI":"大仁里","LIN":"2鄰","STREET":"北門路","SECT":"二段","MAREA":" ","LANE":" ","ALLEY":" ","HOUSE_NO":"２７２號十樓","E_COORD97":169529.57999999999,"N_COORD97":2545283.8100000001,"ADDRESS":"北門路二段２７２號十樓","OBJECTID":618948},"geometry":{"x":169529.58000000007,"y":2545283.8100000042}},{"attributes":{"ID":618976,"DIS_CODE":0,"TOWNNAME":"北區","LI":"大仁里","LIN":"2鄰","STREET":"北門路","SECT":"二段","MAREA":" ","LANE":" ","ALLEY":" ","HOUSE_NO":"２５８號十一樓","E_COORD97":169516.56,"N_COORD97":2545253.75,"ADDRESS":"北門路二段２５８號十一樓","OBJECTID":618949},"geometry":{"x":169516.56000000052,"y":2545253.7500000019}},{"attributes":{"ID":618977,"DIS_CODE":0,"TOWNNAME":"北區","LI":"大仁里","LIN":"2鄰","STREET":"北門路","SECT":"二段","MAREA":" ","LANE":" ","ALLEY":" ","HOUSE_NO":"２６２號十一樓","E_COORD97":169520.82000000001,"N_COORD97":2545264.3700000001,"ADDRESS":"北門路二段２６２號十一樓","OBJECTID":618950},"geometry":{"x":169520.82000000123,"y":2545264.3700000029}},{"attributes":{"ID":618978,"DIS_CODE":0,"TOWNNAME":"北區","LI":"大仁里","LIN":"2鄰","STREET":"北門路","SECT":"二段","MAREA":" ","LANE":" ","ALLEY":" ","HOUSE_NO":"２６８號十一樓","E_COORD97":169525.41,"N_COORD97":2545274.4199999999,"ADDRESS":"北門路二段２６８號十一樓","OBJECTID":618951},"geometry":{"x":169525.41000000015,"y":2545274.4199999999}},{"attributes":{"ID":618979,"DIS_CODE":0,"TOWNNAME":"北區","LI":"大仁里","LIN":"2鄰","STREET":"北門路","SECT":"二段","MAREA":" ","LANE":" ","ALLEY":" ","HOUSE_NO":"２７２號十一樓","E_COORD97":169529.57999999999,"N_COORD97":2545283.8100000001,"ADDRESS":"北門路二段２７２號十一樓","OBJECTID":618952},"geometry":{"x":169529.58000000007,"y":2545283.8100000042}},{"attributes":{"ID":618980,"DIS_CODE":0,"TOWNNAME":"北區","LI":"文元里","LIN":"2鄰","STREET":"北成路","SECT":" ","MAREA":" ","LANE":" ","ALLEY":" ","HOUSE_NO":"５１０號七樓之２","E_COORD97":167944.20999999999,"N_COORD97":2546563.7999999998,"ADDRESS":"北成路５１０號七樓之２","OBJECTID":618953},"geometry":{"x":167944.21000000089,"y":2546563.8000000026}},{"attributes":{"ID":618981,"DIS_CODE":0,"TOWNNAME":"北區","LI":"文元里","LIN":"2鄰","STREET":"北成路","SECT":" ","MAREA":" ","LANE":" ","ALLEY":" ","HOUSE_NO":"５１０號七樓之３","E_COORD97":167944.20999999999,"N_COORD97":2546563.7999999998,"ADDRESS":"北成路５１０號七樓之３","OBJECTID":618954},"geometry":{"x":167944.21000000089,"y":2546563.8000000026}},{"attributes":{"ID":618982,"DIS_CODE":0,"TOWNNAME":"北區","LI":"文元里","LIN":"2鄰","STREET":"北成路","SECT":" ","MAREA":" ","LANE":" ","ALLEY":" ","HOUSE_NO":"５１０號七樓之５","E_COORD97":167944.20999999999,"N_COORD97":2546563.7999999998,"ADDRESS":"北成路５１０號七樓之５","OBJECTID":618955},"geometry":{"x":167944.21000000089,"y":2546563.8000000026}},{"attributes":{"ID":618983,"DIS_CODE":0,"TOWNNAME":"北區","LI":"文元里","LIN":"2鄰","STREET":"北成路","SECT":" ","MAREA":" ","LANE":" ","ALLEY":" ","HOUSE_NO":"５１０號八樓之１","E_COORD97":167944.20999999999,"N_COORD97":2546563.7999999998,"ADDRESS":"北成路５１０號八樓之１","OBJECTID":618956},"geometry":{"x":167944.21000000089,"y":2546563.8000000026}},{"attributes":{"ID":618984,"DIS_CODE":0,"TOWNNAME":"北區","LI":"文元里","LIN":"2鄰","STREET":"北成路","SECT":" ","MAREA":" ","LANE":" ","ALLEY":" ","HOUSE_NO":"５１０號八樓之２","E_COORD97":167944.20999999999,"N_COORD97":2546563.7999999998,"ADDRESS":"北成路５１０號八樓之２","OBJECTID":618957},"geometry":{"x":167944.21000000089,"y":2546563.8000000026}},{"attributes":{"ID":618985,"DIS_CODE":0,"TOWNNAME":"北區","LI":"文元里","LIN":"2鄰","STREET":"北成路","SECT":" ","MAREA":" ","LANE":" ","ALLEY":" ","HOUSE_NO":"５１０號八樓之３","E_COORD97":167944.20999999999,"N_COORD97":2546563.7999999998,"ADDRESS":"北成路５１０號八樓之３","OBJECTID":618958},"geometry":{"x":167944.21000000089,"y":2546563.8000000026}},{"attributes":{"ID":618986,"DIS_CODE":0,"TOWNNAME":"北區","LI":"文元里","LIN":"2鄰","STREET":"北成路","SECT":" ","MAREA":" ","LANE":" ","ALLEY":" ","HOUSE_NO":"５１０號八樓之５","E_COORD97":167944.20999999999,"N_COORD97":2546563.7999999998,"ADDRESS":"北成路５１０號八樓之５","OBJECTID":618959},"geometry":{"x":167944.21000000089,"y":2546563.8000000026}},{"attributes":{"ID":618987,"DIS_CODE":0,"TOWNNAME":"北區","LI":"文元里","LIN":"2鄰","STREET":"北成路","SECT":" ","MAREA":" ","LANE":" ","ALLEY":" ","HOUSE_NO":"５１０號九樓之１","E_COORD97":167944.20999999999,"N_COORD97":2546563.7999999998,"ADDRESS":"北成路５１０號九樓之１","OBJECTID":618960},"geometry":{"x":167944.21000000089,"y":2546563.8000000026}},{"attributes":{"ID":618988,"DIS_CODE":0,"TOWNNAME":"北區","LI":"文元里","LIN":"2鄰","STREET":"北成路","SECT":" ","MAREA":" ","LANE":" ","ALLEY":" ","HOUSE_NO":"５１０號九樓之２","E_COORD97":167944.20999999999,"N_COORD97":2546563.7999999998,"ADDRESS":"北成路５１０號九樓之２","OBJECTID":618961},"geometry":{"x":167944.21000000089,"y":2546563.8000000026}},{"attributes":{"ID":618989,"DIS_CODE":0,"TOWNNAME":"北區","LI":"文元里","LIN":"2鄰","STREET":"北成路","SECT":" ","MAREA":" ","LANE":" ","ALLEY":" ","HOUSE_NO":"５１０號九樓之３","E_COORD97":167944.20999999999,"N_COORD97":2546563.7999999998,"ADDRESS":"北成路５１０號九樓之３","OBJECTID":618962},"geometry":{"x":167944.21000000089,"y":2546563.8000000026}},{"attributes":{"ID":618990,"DIS_CODE":0,"TOWNNAME":"北區","LI":"文元里","LIN":"2鄰","STREET":"北成路","SECT":" ","MAREA":" ","LANE":" ","ALLEY":" ","HOUSE_NO":"５１０號九樓之５","E_COORD97":167944.20999999999,"N_COORD97":2546563.7999999998,"ADDRESS":"北成路５１０號九樓之５","OBJECTID":618963},"geometry":{"x":167944.21000000089,"y":2546563.8000000026}},{"attributes":{"ID":618991,"DIS_CODE":0,"TOWNNAME":"北區","LI":"文元里","LIN":"2鄰","STREET":"北成路","SECT":" ","MAREA":" ","LANE":" ","ALLEY":" ","HOUSE_NO":"５１０號十樓之１","E_COORD97":167944.20999999999,"N_COORD97":2546563.7999999998,"ADDRESS":"北成路５１０號十樓之１","OBJECTID":618964},"geometry":{"x":167944.21000000089,"y":2546563.8000000026}},{"attributes":{"ID":618992,"DIS_CODE":0,"TOWNNAME":"北區","LI":"文元里","LIN":"2鄰","STREET":"北成路","SECT":" ","MAREA":" ","LANE":" ","ALLEY":" ","HOUSE_NO":"５１０號十樓之２","E_COORD97":167944.20999999999,"N_COORD97":2546563.7999999998,"ADDRESS":"北成路５１０號十樓之２","OBJECTID":618965},"geometry":{"x":167944.21000000089,"y":2546563.8000000026}},{"attributes":{"ID":618993,"DIS_CODE":0,"TOWNNAME":"北區","LI":"文元里","LIN":"2鄰","STREET":"北成路","SECT":" ","MAREA":" ","LANE":" ","ALLEY":" ","HOUSE_NO":"５１０號十樓之３","E_COORD97":167944.20999999999,"N_COORD97":2546563.7999999998,"ADDRESS":"北成路５１０號十樓之３","OBJECTID":618966},"geometry":{"x":167944.21000000089,"y":2546563.8000000026}},{"attributes":{"ID":618994,"DIS_CODE":0,"TOWNNAME":"北區","LI":"文元里","LIN":"2鄰","STREET":"北成路","SECT":" ","MAREA":" ","LANE":" ","ALLEY":" ","HOUSE_NO":"５１０號十樓之５","E_COORD97":167944.20999999999,"N_COORD97":2546563.7999999998,"ADDRESS":"北成路５１０號十樓之５","OBJECTID":618967},"geometry":{"x":167944.21000000089,"y":2546563.8000000026}},{"attributes":{"ID":618995,"DIS_CODE":0,"TOWNNAME":"北區","LI":"文元里","LIN":"2鄰","STREET":"北成路","SECT":" ","MAREA":" ","LANE":" ","ALLEY":" ","HOUSE_NO":"５１０號十一樓之１","E_COORD97":167944.20999999999,"N_COORD97":2546563.7999999998,"ADDRESS":"北成路５１０號十一樓之１","OBJECTID":618968},"geometry":{"x":167944.21000000089,"y":2546563.8000000026}},{"attributes":{"ID":618996,"DIS_CODE":0,"TOWNNAME":"北區","LI":"文元里","LIN":"2鄰","STREET":"北成路","SECT":" ","MAREA":" ","LANE":" ","ALLEY":" ","HOUSE_NO":"５１０號十一樓之２","E_COORD97":167944.20999999999,"N_COORD97":2546563.7999999998,"ADDRESS":"北成路５１０號十一樓之２","OBJECTID":618969},"geometry":{"x":167944.21000000089,"y":2546563.8000000026}},{"attributes":{"ID":618997,"DIS_CODE":0,"TOWNNAME":"北區","LI":"文元里","LIN":"2鄰","STREET":"北成路","SECT":" ","MAREA":" ","LANE":" ","ALLEY":" ","HOUSE_NO":"５１０號十一樓之３","E_COORD97":167944.20999999999,"N_COORD97":2546563.7999999998,"ADDRESS":"北成路５１０號十一樓之３","OBJECTID":618970},"geometry":{"x":167944.21000000089,"y":2546563.8000000026}},{"attributes":{"ID":618998,"DIS_CODE":0,"TOWNNAME":"北區","LI":"文元里","LIN":"2鄰","STREET":"北成路","SECT":" ","MAREA":" ","LANE":" ","ALLEY":" ","HOUSE_NO":"５１０號十一樓之５","E_COORD97":167944.20999999999,"N_COORD97":2546563.7999999998,"ADDRESS":"北成路５１０號十一樓之５","OBJECTID":618971},"geometry":{"x":167944.21000000089,"y":2546563.8000000026}},{"attributes":{"ID":618999,"DIS_CODE":0,"TOWNNAME":"北區","LI":"文元里","LIN":"2鄰","STREET":"北成路","SECT":" ","MAREA":" ","LANE":" ","ALLEY":" ","HOUSE_NO":"５１０號十二樓之１","E_COORD97":167944.20999999999,"N_COORD97":2546563.7999999998,"ADDRESS":"北成路５１０號十二樓之１","OBJECTID":618972},"geometry":{"x":167944.21000000089,"y":2546563.8000000026}},{"attributes":{"ID":619000,"DIS_CODE":0,"TOWNNAME":"北區","LI":"文元里","LIN":"2鄰","STREET":"北成路","SECT":" ","MAREA":" ","LANE":" ","ALLEY":" ","HOUSE_NO":"５１０號十二樓之２","E_COORD97":167944.20999999999,"N_COORD97":2546563.7999999998,"ADDRESS":"北成路５１０號十二樓之２","OBJECTID":618973},"geometry":{"x":167944.21000000089,"y":2546563.8000000026}},{"attributes":{"ID":619001,"DIS_CODE":0,"TOWNNAME":"北區","LI":"文元里","LIN":"2鄰","STREET":"北成路","SECT":" ","MAREA":" ","LANE":" ","ALLEY":" ","HOUSE_NO":"５１０號十二樓之３","E_COORD97":167944.20999999999,"N_COORD97":2546563.7999999998,"ADDRESS":"北成路５１０號十二樓之３","OBJECTID":618974},"geometry":{"x":167944.21000000089,"y":2546563.8000000026}},{"attributes":{"ID":619002,"DIS_CODE":0,"TOWNNAME":"北區","LI":"文元里","LIN":"2鄰","STREET":"北成路","SECT":" ","MAREA":" ","LANE":" ","ALLEY":" ","HOUSE_NO":"５１０號十二樓之５","E_COORD97":167944.20999999999,"N_COORD97":2546563.7999999998,"ADDRESS":"北成路５１０號十二樓之５","OBJECTID":618975},"geometry":{"x":167944.21000000089,"y":2546563.8000000026}},{"attributes":{"ID":619003,"DIS_CODE":0,"TOWNNAME":"北區","LI":"文元里","LIN":"2鄰","STREET":"北成路","SECT":" ","MAREA":" ","LANE":" ","ALLEY":" ","HOUSE_NO":"５１０號十三樓之１","E_COORD97":167944.20999999999,"N_COORD97":2546563.7999999998,"ADDRESS":"北成路５１０號十三樓之１","OBJECTID":618976},"geometry":{"x":167944.21000000089,"y":2546563.8000000026}},{"attributes":{"ID":619004,"DIS_CODE":0,"TOWNNAME":"北區","LI":"文元里","LIN":"2鄰","STREET":"北成路","SECT":" ","MAREA":" ","LANE":" ","ALLEY":" ","HOUSE_NO":"５１０號二樓之１","E_COORD97":167944.20999999999,"N_COORD97":2546563.7999999998,"ADDRESS":"北成路５１０號二樓之１","OBJECTID":618977},"geometry":{"x":167944.21000000089,"y":2546563.8000000026}},{"attributes":{"ID":619005,"DIS_CODE":0,"TOWNNAME":"北區","LI":"文元里","LIN":"2鄰","STREET":"北成路","SECT":" ","MAREA":" ","LANE":" ","ALLEY":" ","HOUSE_NO":"５１０號二樓之２","E_COORD97":167944.20999999999,"N_COORD97":2546563.7999999998,"ADDRESS":"北成路５１０號二樓之２","OBJECTID":618978},"geometry":{"x":167944.21000000089,"y":2546563.8000000026}},{"attributes":{"ID":619006,"DIS_CODE":0,"TOWNNAME":"北區","LI":"文元里","LIN":"2鄰","STREET":"北成路","SECT":" ","MAREA":" ","LANE":" ","ALLEY":" ","HOUSE_NO":"５１０號二樓之３","E_COORD97":167944.20999999999,"N_COORD97":2546563.7999999998,"ADDRESS":"北成路５１０號二樓之３","OBJECTID":618979},"geometry":{"x":167944.21000000089,"y":2546563.8000000026}},{"attributes":{"ID":619007,"DIS_CODE":0,"TOWNNAME":"北區","LI":"文元里","LIN":"2鄰","STREET":"北成路","SECT":" ","MAREA":" ","LANE":" ","ALLEY":" ","HOUSE_NO":"５１０號二樓之５","E_COORD97":167944.20999999999,"N_COORD97":2546563.7999999998,"ADDRESS":"北成路５１０號二樓之５","OBJECTID":618980},"geometry":{"x":167944.21000000089,"y":2546563.8000000026}},{"attributes":{"ID":619008,"DIS_CODE":0,"TOWNNAME":"北區","LI":"文元里","LIN":"2鄰","STREET":"北成路","SECT":" ","MAREA":" ","LANE":" ","ALLEY":" ","HOUSE_NO":"５１０號三樓之１","E_COORD97":167944.20999999999,"N_COORD97":2546563.7999999998,"ADDRESS":"北成路５１０號三樓之１","OBJECTID":618981},"geometry":{"x":167944.21000000089,"y":2546563.8000000026}},{"attributes":{"ID":619009,"DIS_CODE":0,"TOWNNAME":"北區","LI":"文元里","LIN":"2鄰","STREET":"北成路","SECT":" ","MAREA":" ","LANE":" ","ALLEY":" ","HOUSE_NO":"５１０號三樓之２","E_COORD97":167944.20999999999,"N_COORD97":2546563.7999999998,"ADDRESS":"北成路５１０號三樓之２","OBJECTID":618982},"geometry":{"x":167944.21000000089,"y":2546563.8000000026}},{"attributes":{"ID":619010,"DIS_CODE":0,"TOWNNAME":"北區","LI":"文元里","LIN":"2鄰","STREET":"北成路","SECT":" ","MAREA":" ","LANE":" ","ALLEY":" ","HOUSE_NO":"５１０號三樓之３","E_COORD97":167944.20999999999,"N_COORD97":2546563.7999999998,"ADDRESS":"北成路５１０號三樓之３","OBJECTID":618983},"geometry":{"x":167944.21000000089,"y":2546563.8000000026}},{"attributes":{"ID":619011,"DIS_CODE":0,"TOWNNAME":"北區","LI":"文元里","LIN":"2鄰","STREET":"北成路","SECT":" ","MAREA":" ","LANE":" ","ALLEY":" ","HOUSE_NO":"５１０號三樓之５","E_COORD97":167944.20999999999,"N_COORD97":2546563.7999999998,"ADDRESS":"北成路５１０號三樓之５","OBJECTID":618984},"geometry":{"x":167944.21000000089,"y":2546563.8000000026}},{"attributes":{"ID":619012,"DIS_CODE":0,"TOWNNAME":"北區","LI":"文元里","LIN":"2鄰","STREET":"北成路","SECT":" ","MAREA":" ","LANE":" ","ALLEY":" ","HOUSE_NO":"５１０號四樓之１","E_COORD97":167944.20999999999,"N_COORD97":2546563.7999999998,"ADDRESS":"北成路５１０號四樓之１","OBJECTID":618985},"geometry":{"x":167944.21000000089,"y":2546563.8000000026}},{"attributes":{"ID":619013,"DIS_CODE":0,"TOWNNAME":"北區","LI":"文元里","LIN":"2鄰","STREET":"北成路","SECT":" ","MAREA":" ","LANE":" ","ALLEY":" ","HOUSE_NO":"５１０號四樓之２","E_COORD97":167944.20999999999,"N_COORD97":2546563.7999999998,"ADDRESS":"北成路５１０號四樓之２","OBJECTID":618986},"geometry":{"x":167944.21000000089,"y":2546563.8000000026}},{"attributes":{"ID":619014,"DIS_CODE":0,"TOWNNAME":"北區","LI":"文元里","LIN":"2鄰","STREET":"北成路","SECT":" ","MAREA":" ","LANE":" ","ALLEY":" ","HOUSE_NO":"５１０號四樓之３","E_COORD97":167944.20999999999,"N_COORD97":2546563.7999999998,"ADDRESS":"北成路５１０號四樓之３","OBJECTID":618987},"geometry":{"x":167944.21000000089,"y":2546563.8000000026}},{"attributes":{"ID":619015,"DIS_CODE":0,"TOWNNAME":"北區","LI":"文元里","LIN":"2鄰","STREET":"北成路","SECT":" ","MAREA":" ","LANE":" ","ALLEY":" ","HOUSE_NO":"５１０號四樓之５","E_COORD97":167944.20999999999,"N_COORD97":2546563.7999999998,"ADDRESS":"北成路５１０號四樓之５","OBJECTID":618988},"geometry":{"x":167944.21000000089,"y":2546563.8000000026}},{"attributes":{"ID":619016,"DIS_CODE":0,"TOWNNAME":"北區","LI":"文元里","LIN":"2鄰","STREET":"北成路","SECT":" ","MAREA":" ","LANE":" ","ALLEY":" ","HOUSE_NO":"５１０號五樓之１","E_COORD97":167944.20999999999,"N_COORD97":2546563.7999999998,"ADDRESS":"北成路５１０號五樓之１","OBJECTID":618989},"geometry":{"x":167944.21000000089,"y":2546563.8000000026}},{"attributes":{"ID":619017,"DIS_CODE":0,"TOWNNAME":"北區","LI":"文元里","LIN":"2鄰","STREET":"北成路","SECT":" ","MAREA":" ","LANE":" ","ALLEY":" ","HOUSE_NO":"５１０號五樓之２","E_COORD97":167944.20999999999,"N_COORD97":2546563.7999999998,"ADDRESS":"北成路５１０號五樓之２","OBJECTID":618990},"geometry":{"x":167944.21000000089,"y":2546563.8000000026}},{"attributes":{"ID":619018,"DIS_CODE":0,"TOWNNAME":"北區","LI":"文元里","LIN":"2鄰","STREET":"北成路","SECT":" ","MAREA":" ","LANE":" ","ALLEY":" ","HOUSE_NO":"５１０號五樓之３","E_COORD97":167944.20999999999,"N_COORD97":2546563.7999999998,"ADDRESS":"北成路５１０號五樓之３","OBJECTID":618991},"geometry":{"x":167944.21000000089,"y":2546563.8000000026}},{"attributes":{"ID":619019,"DIS_CODE":0,"TOWNNAME":"北區","LI":"文元里","LIN":"2鄰","STREET":"北成路","SECT":" ","MAREA":" ","LANE":" ","ALLEY":" ","HOUSE_NO":"５１０號五樓之５","E_COORD97":167944.20999999999,"N_COORD97":2546563.7999999998,"ADDRESS":"北成路５１０號五樓之５","OBJECTID":618992},"geometry":{"x":167944.21000000089,"y":2546563.8000000026}},{"attributes":{"ID":619020,"DIS_CODE":0,"TOWNNAME":"北區","LI":"文元里","LIN":"2鄰","STREET":"北成路","SECT":" ","MAREA":" ","LANE":" ","ALLEY":" ","HOUSE_NO":"５１０號六樓之１","E_COORD97":167944.20999999999,"N_COORD97":2546563.7999999998,"ADDRESS":"北成路５１０號六樓之１","OBJECTID":618993},"geometry":{"x":167944.21000000089,"y":2546563.8000000026}},{"attributes":{"ID":619021,"DIS_CODE":0,"TOWNNAME":"北區","LI":"文元里","LIN":"2鄰","STREET":"北成路","SECT":" ","MAREA":" ","LANE":" ","ALLEY":" ","HOUSE_NO":"５１０號六樓之２","E_COORD97":167944.20999999999,"N_COORD97":2546563.7999999998,"ADDRESS":"北成路５１０號六樓之２","OBJECTID":618994},"geometry":{"x":167944.21000000089,"y":2546563.8000000026}},{"attributes":{"ID":619022,"DIS_CODE":0,"TOWNNAME":"北區","LI":"文元里","LIN":"2鄰","STREET":"北成路","SECT":" ","MAREA":" ","LANE":" ","ALLEY":" ","HOUSE_NO":"５１０號六樓之３","E_COORD97":167944.20999999999,"N_COORD97":2546563.7999999998,"ADDRESS":"北成路５１０號六樓之３","OBJECTID":618995},"geometry":{"x":167944.21000000089,"y":2546563.8000000026}},{"attributes":{"ID":619023,"DIS_CODE":0,"TOWNNAME":"北區","LI":"文元里","LIN":"2鄰","STREET":"北成路","SECT":" ","MAREA":" ","LANE":" ","ALLEY":" ","HOUSE_NO":"５１０號六樓之５","E_COORD97":167944.20999999999,"N_COORD97":2546563.7999999998,"ADDRESS":"北成路５１０號六樓之５","OBJECTID":618996},"geometry":{"x":167944.21000000089,"y":2546563.8000000026}},{"attributes":{"ID":619024,"DIS_CODE":0,"TOWNNAME":"北區","LI":"文元里","LIN":"2鄰","STREET":"北成路","SECT":" ","MAREA":" ","LANE":" ","ALLEY":" ","HOUSE_NO":"５１０號七樓之１","E_COORD97":167944.20999999999,"N_COORD97":2546563.7999999998,"ADDRESS":"北成路５１０號七樓之１","OBJECTID":618997},"geometry":{"x":167944.21000000089,"y":2546563.8000000026}},{"attributes":{"ID":619025,"DIS_CODE":0,"TOWNNAME":"北區","LI":"文元里","LIN":"2鄰","STREET":"北成路","SECT":" ","MAREA":" ","LANE":" ","ALLEY":" ","HOUSE_NO":"５１０號十三樓之２","E_COORD97":167944.20999999999,"N_COORD97":2546563.7999999998,"ADDRESS":"北成路５１０號十三樓之２","OBJECTID":618998},"geometry":{"x":167944.21000000089,"y":2546563.8000000026}},{"attributes":{"ID":619026,"DIS_CODE":0,"TOWNNAME":"北區","LI":"文元里","LIN":"2鄰","STREET":"北成路","SECT":" ","MAREA":" ","LANE":" ","ALLEY":" ","HOUSE_NO":"５１０號十三樓之３","E_COORD97":167944.20999999999,"N_COORD97":2546563.7999999998,"ADDRESS":"北成路５１０號十三樓之３","OBJECTID":618999},"geometry":{"x":167944.21000000089,"y":2546563.8000000026}},{"attributes":{"ID":619027,"DIS_CODE":0,"TOWNNAME":"北區","LI":"文元里","LIN":"2鄰","STREET":"北成路","SECT":" ","MAREA":" ","LANE":" ","ALLEY":" ","HOUSE_NO":"５１０號十三樓之５","E_COORD97":167944.20999999999,"N_COORD97":2546563.7999999998,"ADDRESS":"北成路５１０號十三樓之５","OBJECTID":619000},"geometry":{"x":167944.21000000089,"y":2546563.8000000026}}]}