{"displayFieldName":"TOWNNAME","fieldAliases":{"ID":"ID","DIS_CODE":"DIS_CODE","TOWNNAME":"TOWNNAME","LI":"LI","LIN":"LIN","STREET":"STREET","SECT":"SECT","MAREA":"MAREA","LANE":"LANE","ALLEY":"ALLEY","HOUSE_NO":"HOUSE_NO","E_COORD97":"E_COORD97","N_COORD97":"N_COORD97","ADDRESS":"ADDRESS","OBJECTID":"OBJECTID"},"geometryType":"esriGeometryPoint","spatialReference":{"wkid":102443,"latestWkid":3826},"fields":[{"name":"ID","type":"esriFieldTypeDouble","alias":"ID"},{"name":"DIS_CODE","type":"esriFieldTypeInteger","alias":"DIS_CODE"},{"name":"TOWNNAME","type":"esriFieldTypeString","alias":"TOWNNAME","length":8},{"name":"LI","type":"esriFieldTypeString","alias":"LI","length":8},{"name":"LIN","type":"esriFieldTypeString","alias":"LIN","length":12},{"name":"STREET","type":"esriFieldTypeString","alias":"STREET","length":20},{"name":"SECT","type":"esriFieldTypeString","alias":"SECT","length":8},{"name":"MAREA","type":"esriFieldTypeString","alias":"MAREA","length":12},{"name":"LANE","type":"esriFieldTypeString","alias":"LANE","length":10},{"name":"ALLEY","type":"esriFieldTypeString","alias":"ALLEY","length":10},{"name":"HOUSE_NO","type":"esriFieldTypeString","alias":"HOUSE_NO","length":20},{"name":"E_COORD97","type":"esriFieldTypeDouble","alias":"E_COORD97"},{"name":"N_COORD97","type":"esriFieldTypeDouble","alias":"N_COORD97"},{"name":"ADDRESS","type":"esriFieldTypeString","alias":"ADDRESS","length":50},{"name":"OBJECTID","type":"esriFieldTypeOID","alias":"OBJECTID"}],"features":[{"attributes":{"ID":416825,"DIS_CODE":0,"TOWNNAME":"中西區","LI":"保安里","LIN":"2鄰","STREET":"友愛街","SECT":" ","MAREA":" ","LANE":"２０１巷","ALLEY":" ","HOUSE_NO":"２９號","E_COORD97":167698.45999999999,"N_COORD97":2543519.5899999999,"ADDRESS":"友愛街２０１巷２９號","OBJECTID":416801},"geometry":{"x":167698.46000000089,"y":2543519.5900000017}},{"attributes":{"ID":416826,"DIS_CODE":0,"TOWNNAME":"中西區","LI":"保安里","LIN":"2鄰","STREET":"友愛街","SECT":" ","MAREA":" ","LANE":"２０１巷","ALLEY":" ","HOUSE_NO":"３１號","E_COORD97":167705.69,"N_COORD97":2543517.7000000002,"ADDRESS":"友愛街２０１巷３１號","OBJECTID":416802},"geometry":{"x":167705.69000000227,"y":2543517.7000000011}},{"attributes":{"ID":416827,"DIS_CODE":0,"TOWNNAME":"玉井區","LI":"玉田里","LIN":"2鄰","STREET":"玉安街","SECT":" ","MAREA":" ","LANE":"２５巷","ALLEY":" ","HOUSE_NO":"６號","E_COORD97":195025.82000000001,"N_COORD97":2558391.3100000001,"ADDRESS":"玉安街２５巷６號","OBJECTID":416803},"geometry":{"x":195025.81999999937,"y":2558391.3100000042}},{"attributes":{"ID":416828,"DIS_CODE":0,"TOWNNAME":"中西區","LI":"保安里","LIN":"2鄰","STREET":"西門路","SECT":"二段","MAREA":" ","LANE":"２５巷","ALLEY":" ","HOUSE_NO":"１號","E_COORD97":167735.10999999999,"N_COORD97":2543519.25,"ADDRESS":"西門路二段２５巷１號","OBJECTID":416804},"geometry":{"x":167735.11000000127,"y":2543519.25}},{"attributes":{"ID":416829,"DIS_CODE":0,"TOWNNAME":"中西區","LI":"銀同里","LIN":"8鄰","STREET":"府前路","SECT":"一段","MAREA":" ","LANE":"１２２巷","ALLEY":" ","HOUSE_NO":"１４９號","E_COORD97":168758.48999999999,"N_COORD97":2543531.04,"ADDRESS":"府前路一段１２２巷１４９號","OBJECTID":416805},"geometry":{"x":168758.49000000115,"y":2543531.0399999991}},{"attributes":{"ID":416830,"DIS_CODE":0,"TOWNNAME":"中西區","LI":"銀同里","LIN":"8鄰","STREET":"府前路","SECT":"一段","MAREA":" ","LANE":"１２２巷","ALLEY":" ","HOUSE_NO":"１５１號","E_COORD97":168757.25,"N_COORD97":2543524.5299999998,"ADDRESS":"府前路一段１２２巷１５１號","OBJECTID":416806},"geometry":{"x":168757.25,"y":2543524.5299999993}},{"attributes":{"ID":416831,"DIS_CODE":0,"TOWNNAME":"中西區","LI":"銀同里","LIN":"16鄰","STREET":"開山路","SECT":" ","MAREA":" ","LANE":"３巷","ALLEY":" ","HOUSE_NO":"１號","E_COORD97":168584.51999999999,"N_COORD97":2543621.9900000002,"ADDRESS":"開山路３巷１號","OBJECTID":416807},"geometry":{"x":168584.52000000048,"y":2543621.9900000021}},{"attributes":{"ID":416832,"DIS_CODE":0,"TOWNNAME":"中西區","LI":"銀同里","LIN":"16鄰","STREET":"開山路","SECT":" ","MAREA":" ","LANE":"３巷","ALLEY":" ","HOUSE_NO":"３號","E_COORD97":168595.14999999999,"N_COORD97":2543620.2599999998,"ADDRESS":"開山路３巷３號","OBJECTID":416808},"geometry":{"x":168595.15000000037,"y":2543620.2600000016}},{"attributes":{"ID":416833,"DIS_CODE":0,"TOWNNAME":"中西區","LI":"銀同里","LIN":"16鄰","STREET":"開山路","SECT":" ","MAREA":" ","LANE":"３巷","ALLEY":" ","HOUSE_NO":"５號","E_COORD97":168611.09,"N_COORD97":2543611.0600000001,"ADDRESS":"開山路３巷５號","OBJECTID":416809},"geometry":{"x":168611.09000000078,"y":2543611.0600000024}},{"attributes":{"ID":416834,"DIS_CODE":0,"TOWNNAME":"中西區","LI":"銀同里","LIN":"16鄰","STREET":"開山路","SECT":" ","MAREA":" ","LANE":"３巷","ALLEY":" ","HOUSE_NO":"７號","E_COORD97":168621.47,"N_COORD97":2543618.2200000002,"ADDRESS":"開山路３巷７號","OBJECTID":416810},"geometry":{"x":168621.46999999974,"y":2543618.2200000025}},{"attributes":{"ID":416835,"DIS_CODE":0,"TOWNNAME":"中西區","LI":"銀同里","LIN":"16鄰","STREET":"開山路","SECT":" ","MAREA":" ","LANE":"３巷","ALLEY":" ","HOUSE_NO":"９號","E_COORD97":168625.67000000001,"N_COORD97":2543629.29,"ADDRESS":"開山路３巷９號","OBJECTID":416811},"geometry":{"x":168625.67000000179,"y":2543629.290000001}},{"attributes":{"ID":416836,"DIS_CODE":0,"TOWNNAME":"中西區","LI":"水仙里","LIN":"2鄰","STREET":"西門路","SECT":"二段","MAREA":" ","LANE":"２２５巷","ALLEY":" ","HOUSE_NO":"２１號","E_COORD97":167837.73999999999,"N_COORD97":2543985.21,"ADDRESS":"西門路二段２２５巷２１號","OBJECTID":416812},"geometry":{"x":167837.74000000115,"y":2543985.2100000009}},{"attributes":{"ID":416837,"DIS_CODE":0,"TOWNNAME":"中西區","LI":"水仙里","LIN":"2鄰","STREET":"西門路","SECT":"二段","MAREA":" ","LANE":"２２５巷","ALLEY":" ","HOUSE_NO":"２３號","E_COORD97":167832.97,"N_COORD97":2543987.29,"ADDRESS":"西門路二段２２５巷２３號","OBJECTID":416813},"geometry":{"x":167832.96999999974,"y":2543987.2899999972}},{"attributes":{"ID":416838,"DIS_CODE":0,"TOWNNAME":"中西區","LI":"水仙里","LIN":"2鄰","STREET":"西門路","SECT":"二段","MAREA":" ","LANE":"２２５巷","ALLEY":" ","HOUSE_NO":"２９號","E_COORD97":167813.54000000001,"N_COORD97":2543990.9300000002,"ADDRESS":"西門路二段２２５巷２９號","OBJECTID":416814},"geometry":{"x":167813.54000000097,"y":2543990.9300000016}},{"attributes":{"ID":416839,"DIS_CODE":0,"TOWNNAME":"中西區","LI":"水仙里","LIN":"2鄰","STREET":"西門路","SECT":"二段","MAREA":" ","LANE":"２２５巷","ALLEY":" ","HOUSE_NO":"３１號","E_COORD97":167808.59,"N_COORD97":2543991.1000000001,"ADDRESS":"西門路二段２２５巷３１號","OBJECTID":416815},"geometry":{"x":167808.58999999985,"y":2543991.0999999996}},{"attributes":{"ID":416840,"DIS_CODE":0,"TOWNNAME":"中西區","LI":"水仙里","LIN":"2鄰","STREET":"西門路","SECT":"二段","MAREA":" ","LANE":"２２５巷","ALLEY":" ","HOUSE_NO":"３３號","E_COORD97":167804.60000000001,"N_COORD97":2543995.0899999999,"ADDRESS":"西門路二段２２５巷３３號","OBJECTID":416816},"geometry":{"x":167804.59999999963,"y":2543995.0899999999}},{"attributes":{"ID":416841,"DIS_CODE":0,"TOWNNAME":"中西區","LI":"水仙里","LIN":"2鄰","STREET":"西門路","SECT":"二段","MAREA":" ","LANE":"２２５巷","ALLEY":" ","HOUSE_NO":"３５號","E_COORD97":167799.66,"N_COORD97":2543996.5600000001,"ADDRESS":"西門路二段２２５巷３５號","OBJECTID":416817},"geometry":{"x":167799.66000000015,"y":2543996.5600000005}},{"attributes":{"ID":416842,"DIS_CODE":0,"TOWNNAME":"中西區","LI":"郡西里","LIN":"2鄰","STREET":"永華路","SECT":"一段","MAREA":" ","LANE":"９８巷","ALLEY":" ","HOUSE_NO":"１１號","E_COORD97":167389.35999999999,"N_COORD97":2543192.2400000002,"ADDRESS":"永華路一段９８巷１１號","OBJECTID":416818},"geometry":{"x":167389.36000000127,"y":2543192.2400000039}},{"attributes":{"ID":416843,"DIS_CODE":0,"TOWNNAME":"中西區","LI":"郡西里","LIN":"2鄰","STREET":"永華路","SECT":"一段","MAREA":" ","LANE":"９８巷","ALLEY":" ","HOUSE_NO":"１３號","E_COORD97":167390.95000000001,"N_COORD97":2543196.6899999999,"ADDRESS":"永華路一段９８巷１３號","OBJECTID":416819},"geometry":{"x":167390.95000000019,"y":2543196.6900000013}},{"attributes":{"ID":416844,"DIS_CODE":0,"TOWNNAME":"中西區","LI":"銀同里","LIN":"14鄰","STREET":"民權路","SECT":"一段","MAREA":" ","LANE":"１９９巷","ALLEY":" ","HOUSE_NO":"１０號","E_COORD97":168747.42999999999,"N_COORD97":2543589.6899999999,"ADDRESS":"民權路一段１９９巷１０號","OBJECTID":416820},"geometry":{"x":168747.43000000156,"y":2543589.6900000013}},{"attributes":{"ID":416845,"DIS_CODE":0,"TOWNNAME":"中西區","LI":"銀同里","LIN":"14鄰","STREET":"開山路","SECT":" ","MAREA":" ","LANE":"３巷","ALLEY":" ","HOUSE_NO":"４５號","E_COORD97":168702.60000000001,"N_COORD97":2543610.8999999999,"ADDRESS":"開山路３巷４５號","OBJECTID":416821},"geometry":{"x":168702.60000000056,"y":2543610.9000000004}},{"attributes":{"ID":416846,"DIS_CODE":0,"TOWNNAME":"中西區","LI":"銀同里","LIN":"14鄰","STREET":"開山路","SECT":" ","MAREA":" ","LANE":"３巷","ALLEY":" ","HOUSE_NO":"４７號","E_COORD97":168706.42999999999,"N_COORD97":2543604.71,"ADDRESS":"開山路３巷４７號","OBJECTID":416822},"geometry":{"x":168706.4299999997,"y":2543604.7100000028}},{"attributes":{"ID":416847,"DIS_CODE":0,"TOWNNAME":"中西區","LI":"郡西里","LIN":"2鄰","STREET":"永華路","SECT":"一段","MAREA":" ","LANE":"９８巷","ALLEY":" ","HOUSE_NO":"１５號","E_COORD97":167390.82999999999,"N_COORD97":2543199.6200000001,"ADDRESS":"永華路一段９８巷１５號","OBJECTID":416823},"geometry":{"x":167390.83000000101,"y":2543199.620000001}},{"attributes":{"ID":416848,"DIS_CODE":0,"TOWNNAME":"中西區","LI":"郡西里","LIN":"2鄰","STREET":"永華路","SECT":"一段","MAREA":" ","LANE":"９８巷","ALLEY":" ","HOUSE_NO":"１７號","E_COORD97":167390.70999999999,"N_COORD97":2543203.77,"ADDRESS":"永華路一段９８巷１７號","OBJECTID":416824},"geometry":{"x":167390.70999999996,"y":2543203.7699999996}},{"attributes":{"ID":416849,"DIS_CODE":0,"TOWNNAME":"中西區","LI":"郡西里","LIN":"2鄰","STREET":"永華路","SECT":"一段","MAREA":" ","LANE":"９８巷","ALLEY":" ","HOUSE_NO":"１９號","E_COORD97":167390.22,"N_COORD97":2543207.1800000002,"ADDRESS":"永華路一段９８巷１９號","OBJECTID":416825},"geometry":{"x":167390.21999999974,"y":2543207.1800000016}},{"attributes":{"ID":416850,"DIS_CODE":0,"TOWNNAME":"中西區","LI":"郡西里","LIN":"2鄰","STREET":"永華路","SECT":"一段","MAREA":" ","LANE":"９８巷","ALLEY":" ","HOUSE_NO":"１號","E_COORD97":167388.39000000001,"N_COORD97":2543173.8300000001,"ADDRESS":"永華路一段９８巷１號","OBJECTID":416826},"geometry":{"x":167388.3900000006,"y":2543173.8300000001}},{"attributes":{"ID":416851,"DIS_CODE":0,"TOWNNAME":"中西區","LI":"郡西里","LIN":"2鄰","STREET":"永華路","SECT":"一段","MAREA":" ","LANE":"９８巷","ALLEY":" ","HOUSE_NO":"９號","E_COORD97":167389.98000000001,"N_COORD97":2543188.71,"ADDRESS":"永華路一段９８巷９號","OBJECTID":416827},"geometry":{"x":167389.97999999952,"y":2543188.7100000009}},{"attributes":{"ID":416852,"DIS_CODE":0,"TOWNNAME":"下營區","LI":"仁里里","LIN":"2鄰","STREET":"仁里街","SECT":" ","MAREA":" ","LANE":"２１巷","ALLEY":" ","HOUSE_NO":"１號","E_COORD97":174307.47,"N_COORD97":2570183.1400000001,"ADDRESS":"仁里街２１巷１號","OBJECTID":416828},"geometry":{"x":174307.4700000016,"y":2570183.1400000006}},{"attributes":{"ID":416853,"DIS_CODE":0,"TOWNNAME":"鹽水區","LI":"岸內里","LIN":"24鄰","STREET":"北門路","SECT":" ","MAREA":" ","LANE":"９巷","ALLEY":" ","HOUSE_NO":"３３號","E_COORD97":175412.39999999999,"N_COORD97":2580405.0499999998,"ADDRESS":"北門路９巷３３號","OBJECTID":416829},"geometry":{"x":175412.4000000013,"y":2580405.0500000026}},{"attributes":{"ID":416854,"DIS_CODE":0,"TOWNNAME":"下營區","LI":"仁里里","LIN":"2鄰","STREET":"仁里街","SECT":" ","MAREA":" ","LANE":"２１巷","ALLEY":" ","HOUSE_NO":"３號","E_COORD97":174313.28,"N_COORD97":2570180.8999999999,"ADDRESS":"仁里街２１巷３號","OBJECTID":416830},"geometry":{"x":174313.28000000119,"y":2570180.9000000004}},{"attributes":{"ID":416855,"DIS_CODE":0,"TOWNNAME":"下營區","LI":"仁里里","LIN":"2鄰","STREET":"仁里街","SECT":" ","MAREA":" ","LANE":"２１巷","ALLEY":" ","HOUSE_NO":"６號","E_COORD97":174335.82000000001,"N_COORD97":2570178.54,"ADDRESS":"仁里街２１巷６號","OBJECTID":416831},"geometry":{"x":174335.8200000003,"y":2570178.5399999991}},{"attributes":{"ID":416856,"DIS_CODE":0,"TOWNNAME":"下營區","LI":"宅內里","LIN":"2鄰","STREET":"友愛街","SECT":" ","MAREA":" ","LANE":"９７巷","ALLEY":" ","HOUSE_NO":"１０號","E_COORD97":174156.56,"N_COORD97":2570541.0800000001,"ADDRESS":"友愛街９７巷１０號","OBJECTID":416832},"geometry":{"x":174156.56000000052,"y":2570541.0800000019}},{"attributes":{"ID":416857,"DIS_CODE":0,"TOWNNAME":"下營區","LI":"宅內里","LIN":"2鄰","STREET":"友愛街","SECT":" ","MAREA":" ","LANE":"９７巷","ALLEY":" ","HOUSE_NO":"１２號","E_COORD97":174131.51000000001,"N_COORD97":2570550.8100000001,"ADDRESS":"友愛街９７巷１２號","OBJECTID":416833},"geometry":{"x":174131.51000000071,"y":2570550.8100000005}},{"attributes":{"ID":416858,"DIS_CODE":0,"TOWNNAME":"下營區","LI":"宅內里","LIN":"2鄰","STREET":"友愛街","SECT":" ","MAREA":" ","LANE":"９７巷","ALLEY":" ","HOUSE_NO":"２號","E_COORD97":174179.20000000001,"N_COORD97":2570542.2799999998,"ADDRESS":"友愛街９７巷２號","OBJECTID":416834},"geometry":{"x":174179.20000000205,"y":2570542.2800000012}},{"attributes":{"ID":416859,"DIS_CODE":0,"TOWNNAME":"下營區","LI":"宅內里","LIN":"2鄰","STREET":"友愛街","SECT":" ","MAREA":" ","LANE":"９７巷","ALLEY":" ","HOUSE_NO":"６號","E_COORD97":174172.32000000001,"N_COORD97":2570541.7999999998,"ADDRESS":"友愛街９７巷６號","OBJECTID":416835},"geometry":{"x":174172.32000000123,"y":2570541.8000000007}},{"attributes":{"ID":416860,"DIS_CODE":0,"TOWNNAME":"下營區","LI":"後街里","LIN":"2鄰","STREET":"水池街","SECT":" ","MAREA":" ","LANE":"１０８巷","ALLEY":" ","HOUSE_NO":"２號","E_COORD97":174517.78,"N_COORD97":2571045.29,"ADDRESS":"水池街１０８巷２號","OBJECTID":416836},"geometry":{"x":174517.78000000212,"y":2571045.2899999991}},{"attributes":{"ID":416861,"DIS_CODE":0,"TOWNNAME":"下營區","LI":"後街里","LIN":"2鄰","STREET":"水池街","SECT":" ","MAREA":" ","LANE":"１５巷","ALLEY":" ","HOUSE_NO":"２５號","E_COORD97":174444.81,"N_COORD97":2571110.2799999998,"ADDRESS":"水池街１５巷２５號","OBJECTID":416837},"geometry":{"x":174444.81000000052,"y":2571110.2799999993}},{"attributes":{"ID":416862,"DIS_CODE":0,"TOWNNAME":"下營區","LI":"後街里","LIN":"2鄰","STREET":"水池街","SECT":" ","MAREA":" ","LANE":"１５巷","ALLEY":" ","HOUSE_NO":"２７號","E_COORD97":174430.97,"N_COORD97":2571125.0099999998,"ADDRESS":"水池街１５巷２７號","OBJECTID":416838},"geometry":{"x":174430.96999999974,"y":2571125.0099999998}},{"attributes":{"ID":416863,"DIS_CODE":0,"TOWNNAME":"中西區","LI":"赤嵌里","LIN":"6鄰","STREET":"廣慈街","SECT":" ","MAREA":" ","LANE":"３２巷","ALLEY":" ","HOUSE_NO":"１０號","E_COORD97":168690.35000000001,"N_COORD97":2544058.8199999998,"ADDRESS":"廣慈街３２巷１０號","OBJECTID":416839},"geometry":{"x":168690.35000000149,"y":2544058.8200000003}},{"attributes":{"ID":416864,"DIS_CODE":0,"TOWNNAME":"中西區","LI":"赤嵌里","LIN":"6鄰","STREET":"廣慈街","SECT":" ","MAREA":" ","LANE":"３２巷","ALLEY":" ","HOUSE_NO":"１２號","E_COORD97":168697.62,"N_COORD97":2544046.2799999998,"ADDRESS":"廣慈街３２巷１２號","OBJECTID":416840},"geometry":{"x":168697.62000000104,"y":2544046.2800000012}},{"attributes":{"ID":416865,"DIS_CODE":0,"TOWNNAME":"中西區","LI":"赤嵌里","LIN":"6鄰","STREET":"廣慈街","SECT":" ","MAREA":" ","LANE":"３２巷","ALLEY":" ","HOUSE_NO":"１４號","E_COORD97":168693.32999999999,"N_COORD97":2544036.0499999998,"ADDRESS":"廣慈街３２巷１４號","OBJECTID":416841},"geometry":{"x":168693.33000000101,"y":2544036.0500000026}},{"attributes":{"ID":416866,"DIS_CODE":0,"TOWNNAME":"中西區","LI":"赤嵌里","LIN":"6鄰","STREET":"廣慈街","SECT":" ","MAREA":" ","LANE":"３２巷","ALLEY":" ","HOUSE_NO":"１６號","E_COORD97":168689.35999999999,"N_COORD97":2544030.77,"ADDRESS":"廣慈街３２巷１６號","OBJECTID":416842},"geometry":{"x":168689.3600000022,"y":2544030.7699999996}},{"attributes":{"ID":416867,"DIS_CODE":0,"TOWNNAME":"中西區","LI":"赤嵌里","LIN":"6鄰","STREET":"廣慈街","SECT":" ","MAREA":" ","LANE":"３２巷","ALLEY":" ","HOUSE_NO":"１６號之１","E_COORD97":168685.07000000001,"N_COORD97":2544026.48,"ADDRESS":"廣慈街３２巷１６號之１","OBJECTID":416843},"geometry":{"x":168685.07000000123,"y":2544026.4800000023}},{"attributes":{"ID":416868,"DIS_CODE":0,"TOWNNAME":"中西區","LI":"赤嵌里","LIN":"6鄰","STREET":"廣慈街","SECT":" ","MAREA":" ","LANE":"３２巷","ALLEY":" ","HOUSE_NO":"２號","E_COORD97":168687.70999999999,"N_COORD97":2544068.0699999998,"ADDRESS":"廣慈街３２巷２號","OBJECTID":416844},"geometry":{"x":168687.70999999996,"y":2544068.070000004}},{"attributes":{"ID":416869,"DIS_CODE":0,"TOWNNAME":"下營區","LI":"宅內里","LIN":"2鄰","STREET":"永安街","SECT":" ","MAREA":" ","LANE":"６７巷","ALLEY":" ","HOUSE_NO":"５６號","E_COORD97":173976.07999999999,"N_COORD97":2570565.9500000002,"ADDRESS":"永安街６７巷５６號","OBJECTID":416845},"geometry":{"x":173976.08000000007,"y":2570565.9499999993}},{"attributes":{"ID":416870,"DIS_CODE":0,"TOWNNAME":"下營區","LI":"宅內里","LIN":"2鄰","STREET":"永安街","SECT":" ","MAREA":" ","LANE":"６７巷","ALLEY":" ","HOUSE_NO":"７２號","E_COORD97":173942.04999999999,"N_COORD97":2570554.6200000001,"ADDRESS":"永安街６７巷７２號","OBJECTID":416846},"geometry":{"x":173942.04999999981,"y":2570554.6200000029}},{"attributes":{"ID":416871,"DIS_CODE":0,"TOWNNAME":"下營區","LI":"宅內里","LIN":"2鄰","STREET":"永安街","SECT":" ","MAREA":" ","LANE":"６７巷","ALLEY":" ","HOUSE_NO":"７６號","E_COORD97":173937.57000000001,"N_COORD97":2570553.9199999999,"ADDRESS":"永安街６７巷７６號","OBJECTID":416847},"geometry":{"x":173937.5700000003,"y":2570553.9199999999}},{"attributes":{"ID":416872,"DIS_CODE":0,"TOWNNAME":"下營區","LI":"宅內里","LIN":"2鄰","STREET":"永安街","SECT":" ","MAREA":" ","LANE":"６７巷","ALLEY":" ","HOUSE_NO":"７８號","E_COORD97":173931.70999999999,"N_COORD97":2570553.4100000001,"ADDRESS":"永安街６７巷７８號","OBJECTID":416848},"geometry":{"x":173931.71000000089,"y":2570553.4100000001}},{"attributes":{"ID":416873,"DIS_CODE":0,"TOWNNAME":"下營區","LI":"宅內里","LIN":"2鄰","STREET":"永安街","SECT":" ","MAREA":" ","LANE":"６７巷","ALLEY":" ","HOUSE_NO":"８０號","E_COORD97":173927.31,"N_COORD97":2570552.3300000001,"ADDRESS":"永安街６７巷８０號","OBJECTID":416849},"geometry":{"x":173927.31000000052,"y":2570552.3300000019}},{"attributes":{"ID":416874,"DIS_CODE":0,"TOWNNAME":"下營區","LI":"宅內里","LIN":"2鄰","STREET":"永安街","SECT":" ","MAREA":" ","LANE":"６７巷","ALLEY":" ","HOUSE_NO":"８２號","E_COORD97":173921.89999999999,"N_COORD97":2570551.6400000001,"ADDRESS":"永安街６７巷８２號","OBJECTID":416850},"geometry":{"x":173921.90000000037,"y":2570551.6400000025}},{"attributes":{"ID":416875,"DIS_CODE":0,"TOWNNAME":"下營區","LI":"宅內里","LIN":"2鄰","STREET":"永安街","SECT":" ","MAREA":" ","LANE":"６７巷","ALLEY":" ","HOUSE_NO":"８８號","E_COORD97":173896,"N_COORD97":2570562.8500000001,"ADDRESS":"永安街６７巷８８號","OBJECTID":416851},"geometry":{"x":173896.00000000093,"y":2570562.8500000015}},{"attributes":{"ID":416876,"DIS_CODE":0,"TOWNNAME":"下營區","LI":"宅內里","LIN":"2鄰","STREET":"永安街","SECT":" ","MAREA":" ","LANE":"６７巷","ALLEY":" ","HOUSE_NO":"９８號","E_COORD97":173860.39000000001,"N_COORD97":2570549.9100000001,"ADDRESS":"永安街６７巷９８號","OBJECTID":416852},"geometry":{"x":173860.39000000153,"y":2570549.9100000001}},{"attributes":{"ID":416877,"DIS_CODE":0,"TOWNNAME":"中西區","LI":"赤嵌里","LIN":"6鄰","STREET":"廣慈街","SECT":" ","MAREA":" ","LANE":"３２巷","ALLEY":" ","HOUSE_NO":"６號","E_COORD97":168676.14000000001,"N_COORD97":2544046.9399999999,"ADDRESS":"廣慈街３２巷６號","OBJECTID":416853},"geometry":{"x":168676.13999999966,"y":2544046.9399999995}},{"attributes":{"ID":416878,"DIS_CODE":0,"TOWNNAME":"中西區","LI":"赤嵌里","LIN":"6鄰","STREET":"廣慈街","SECT":" ","MAREA":" ","LANE":"３２巷","ALLEY":" ","HOUSE_NO":"８號","E_COORD97":168679.64999999999,"N_COORD97":2544045.8999999999,"ADDRESS":"廣慈街３２巷８號","OBJECTID":416854},"geometry":{"x":168679.6500000013,"y":2544045.9000000041}},{"attributes":{"ID":416879,"DIS_CODE":0,"TOWNNAME":"中西區","LI":"赤嵌里","LIN":"3鄰","STREET":"廣慈街","SECT":" ","MAREA":" ","LANE":"３２巷","ALLEY":" ","HOUSE_NO":"１１號","E_COORD97":168711.17999999999,"N_COORD97":2544085.8900000001,"ADDRESS":"廣慈街３２巷１１號","OBJECTID":416855},"geometry":{"x":168711.1799999997,"y":2544085.8900000006}},{"attributes":{"ID":416880,"DIS_CODE":0,"TOWNNAME":"中西區","LI":"赤嵌里","LIN":"3鄰","STREET":"廣慈街","SECT":" ","MAREA":" ","LANE":"３２巷","ALLEY":" ","HOUSE_NO":"１３號","E_COORD97":168711.17999999999,"N_COORD97":2544081.9300000002,"ADDRESS":"廣慈街３２巷１３號","OBJECTID":416856},"geometry":{"x":168711.1799999997,"y":2544081.9300000034}},{"attributes":{"ID":416881,"DIS_CODE":0,"TOWNNAME":"中西區","LI":"赤嵌里","LIN":"3鄰","STREET":"廣慈街","SECT":" ","MAREA":" ","LANE":"３２巷","ALLEY":" ","HOUSE_NO":"１５號","E_COORD97":168712.17000000001,"N_COORD97":2544077.9700000002,"ADDRESS":"廣慈街３２巷１５號","OBJECTID":416857},"geometry":{"x":168712.17000000179,"y":2544077.9700000007}},{"attributes":{"ID":416882,"DIS_CODE":0,"TOWNNAME":"中西區","LI":"赤嵌里","LIN":"3鄰","STREET":"廣慈街","SECT":" ","MAREA":" ","LANE":"３２巷","ALLEY":" ","HOUSE_NO":"１７號","E_COORD97":168709.51999999999,"N_COORD97":2544074.6699999999,"ADDRESS":"廣慈街３２巷１７號","OBJECTID":416858},"geometry":{"x":168709.52000000142,"y":2544074.6700000018}},{"attributes":{"ID":416883,"DIS_CODE":0,"TOWNNAME":"中西區","LI":"赤嵌里","LIN":"3鄰","STREET":"廣慈街","SECT":" ","MAREA":" ","LANE":"３２巷","ALLEY":" ","HOUSE_NO":"１９號","E_COORD97":168707.54000000001,"N_COORD97":2544072.0299999998,"ADDRESS":"廣慈街３２巷１９號","OBJECTID":416859},"geometry":{"x":168707.54000000004,"y":2544072.0300000012}},{"attributes":{"ID":416884,"DIS_CODE":0,"TOWNNAME":"中西區","LI":"赤嵌里","LIN":"3鄰","STREET":"廣慈街","SECT":" ","MAREA":" ","LANE":"３２巷","ALLEY":" ","HOUSE_NO":"２１號","E_COORD97":168704.57000000001,"N_COORD97":2544065.1000000001,"ADDRESS":"廣慈街３２巷２１號","OBJECTID":416860},"geometry":{"x":168704.5700000003,"y":2544065.1000000015}},{"attributes":{"ID":416885,"DIS_CODE":0,"TOWNNAME":"中西區","LI":"赤嵌里","LIN":"3鄰","STREET":"廣慈街","SECT":" ","MAREA":" ","LANE":"３２巷","ALLEY":" ","HOUSE_NO":"２３號","E_COORD97":168705.5,"N_COORD97":2544029.5699999998,"ADDRESS":"廣慈街３２巷２３號","OBJECTID":416861},"geometry":{"x":168705.50000000093,"y":2544029.5700000003}},{"attributes":{"ID":416886,"DIS_CODE":0,"TOWNNAME":"下營區","LI":"宅內里","LIN":"2鄰","STREET":"永安街","SECT":" ","MAREA":" ","LANE":"６７巷","ALLEY":" ","HOUSE_NO":"１０號","E_COORD97":174053.5,"N_COORD97":2570563.5600000001,"ADDRESS":"永安街６７巷１０號","OBJECTID":416862},"geometry":{"x":174053.50000000093,"y":2570563.5600000005}},{"attributes":{"ID":416887,"DIS_CODE":0,"TOWNNAME":"玉井區","LI":"玉田里","LIN":"13鄰","STREET":"民權路","SECT":" ","MAREA":" ","LANE":" ","ALLEY":" ","HOUSE_NO":"９１號","E_COORD97":194859.63,"N_COORD97":2557891.2799999998,"ADDRESS":"民權路９１號","OBJECTID":416863},"geometry":{"x":194859.63000000082,"y":2557891.2799999993}},{"attributes":{"ID":416888,"DIS_CODE":0,"TOWNNAME":"下營區","LI":"宅內里","LIN":"2鄰","STREET":"永安街","SECT":" ","MAREA":" ","LANE":"６７巷","ALLEY":" ","HOUSE_NO":"２號","E_COORD97":174076.20000000001,"N_COORD97":2570547.7799999998,"ADDRESS":"永安街６７巷２號","OBJECTID":416864},"geometry":{"x":174076.20000000112,"y":2570547.7799999975}},{"attributes":{"ID":416889,"DIS_CODE":0,"TOWNNAME":"下營區","LI":"宅內里","LIN":"2鄰","STREET":"永安街","SECT":" ","MAREA":" ","LANE":"６７巷","ALLEY":" ","HOUSE_NO":"４６號","E_COORD97":173998.28,"N_COORD97":2570569.0699999998,"ADDRESS":"永安街６７巷４６號","OBJECTID":416865},"geometry":{"x":173998.28000000026,"y":2570569.0700000003}},{"attributes":{"ID":416890,"DIS_CODE":0,"TOWNNAME":"下營區","LI":"新興里","LIN":"2鄰","STREET":"自由街","SECT":" ","MAREA":" ","LANE":"６０巷","ALLEY":" ","HOUSE_NO":"１７號","E_COORD97":174900.64999999999,"N_COORD97":2570826.5899999999,"ADDRESS":"自由街６０巷１７號","OBJECTID":416866},"geometry":{"x":174900.6500000013,"y":2570826.5899999999}},{"attributes":{"ID":416891,"DIS_CODE":0,"TOWNNAME":"下營區","LI":"新興里","LIN":"2鄰","STREET":"自由街","SECT":" ","MAREA":" ","LANE":"６０巷","ALLEY":" ","HOUSE_NO":"１９號","E_COORD97":174909.87,"N_COORD97":2570827.3300000001,"ADDRESS":"自由街６０巷１９號","OBJECTID":416867},"geometry":{"x":174909.87000000011,"y":2570827.3300000019}},{"attributes":{"ID":416892,"DIS_CODE":0,"TOWNNAME":"下營區","LI":"新興里","LIN":"2鄰","STREET":"自由街","SECT":" ","MAREA":" ","LANE":"６０巷","ALLEY":" ","HOUSE_NO":"２１號","E_COORD97":174917.84,"N_COORD97":2570827.5499999998,"ADDRESS":"自由街６０巷２１號","OBJECTID":416868},"geometry":{"x":174917.84000000078,"y":2570827.5500000007}},{"attributes":{"ID":416893,"DIS_CODE":0,"TOWNNAME":"下營區","LI":"新興里","LIN":"2鄰","STREET":"自由街","SECT":" ","MAREA":" ","LANE":"６０巷","ALLEY":" ","HOUSE_NO":"２７號","E_COORD97":174927.94,"N_COORD97":2570834.4700000002,"ADDRESS":"自由街６０巷２７號","OBJECTID":416869},"geometry":{"x":174927.94000000134,"y":2570834.4700000025}},{"attributes":{"ID":416894,"DIS_CODE":0,"TOWNNAME":"下營區","LI":"新興里","LIN":"2鄰","STREET":"自由街","SECT":" ","MAREA":" ","LANE":"６０巷","ALLEY":" ","HOUSE_NO":"３３號","E_COORD97":174935.44,"N_COORD97":2570847.7799999998,"ADDRESS":"自由街６０巷３３號","OBJECTID":416870},"geometry":{"x":174935.43999999948,"y":2570847.7800000012}},{"attributes":{"ID":416895,"DIS_CODE":0,"TOWNNAME":"下營區","LI":"新興里","LIN":"2鄰","STREET":"自由街","SECT":" ","MAREA":" ","LANE":"６０巷","ALLEY":" ","HOUSE_NO":"３９號","E_COORD97":174950.16,"N_COORD97":2570842.8700000001,"ADDRESS":"自由街６０巷３９號","OBJECTID":416871},"geometry":{"x":174950.16000000015,"y":2570842.870000001}},{"attributes":{"ID":416896,"DIS_CODE":0,"TOWNNAME":"下營區","LI":"新興里","LIN":"2鄰","STREET":"自由街","SECT":" ","MAREA":" ","LANE":"６０巷","ALLEY":" ","HOUSE_NO":"４１號","E_COORD97":174954.19,"N_COORD97":2570843.5299999998,"ADDRESS":"自由街６０巷４１號","OBJECTID":416872},"geometry":{"x":174954.19000000227,"y":2570843.5299999993}},{"attributes":{"ID":416897,"DIS_CODE":0,"TOWNNAME":"下營區","LI":"新興里","LIN":"2鄰","STREET":"自由街","SECT":" ","MAREA":" ","LANE":"６０巷","ALLEY":" ","HOUSE_NO":"４５號","E_COORD97":174967.04999999999,"N_COORD97":2570834.5099999998,"ADDRESS":"自由街６０巷４５號","OBJECTID":416873},"geometry":{"x":174967.05000000075,"y":2570834.5099999998}},{"attributes":{"ID":416898,"DIS_CODE":0,"TOWNNAME":"下營區","LI":"新興里","LIN":"2鄰","STREET":"東興一街","SECT":" ","MAREA":" ","LANE":"１０３巷","ALLEY":" ","HOUSE_NO":"１號","E_COORD97":174897.79999999999,"N_COORD97":2570851.9700000002,"ADDRESS":"東興一街１０３巷１號","OBJECTID":416874},"geometry":{"x":174897.79999999981,"y":2570851.9700000007}},{"attributes":{"ID":416899,"DIS_CODE":0,"TOWNNAME":"中西區","LI":"赤嵌里","LIN":"1鄰","STREET":"中山路","SECT":" ","MAREA":" ","LANE":"１７７巷","ALLEY":" ","HOUSE_NO":"１０號","E_COORD97":169037.62,"N_COORD97":2544128.8700000001,"ADDRESS":"中山路１７７巷１０號","OBJECTID":416875},"geometry":{"x":169037.62000000011,"y":2544128.8700000029}},{"attributes":{"ID":416900,"DIS_CODE":0,"TOWNNAME":"中西區","LI":"赤嵌里","LIN":"1鄰","STREET":"中山路","SECT":" ","MAREA":" ","LANE":"１７７巷","ALLEY":" ","HOUSE_NO":"１１號","E_COORD97":169032.38,"N_COORD97":2544128.4100000001,"ADDRESS":"中山路１７７巷１１號","OBJECTID":416876},"geometry":{"x":169032.37999999989,"y":2544128.410000002}},{"attributes":{"ID":416901,"DIS_CODE":0,"TOWNNAME":"中西區","LI":"赤嵌里","LIN":"1鄰","STREET":"中山路","SECT":" ","MAREA":" ","LANE":"１７７巷","ALLEY":" ","HOUSE_NO":"１３號","E_COORD97":169024.41,"N_COORD97":2544130.0099999998,"ADDRESS":"中山路１７７巷１３號","OBJECTID":416877},"geometry":{"x":169024.41000000201,"y":2544130.0100000016}},{"attributes":{"ID":416902,"DIS_CODE":0,"TOWNNAME":"中西區","LI":"赤嵌里","LIN":"1鄰","STREET":"中山路","SECT":" ","MAREA":" ","LANE":"１７７巷","ALLEY":" ","HOUSE_NO":"１４號","E_COORD97":169043.76999999999,"N_COORD97":2544114.9900000002,"ADDRESS":"中山路１７７巷１４號","OBJECTID":416878},"geometry":{"x":169043.77000000048,"y":2544114.9900000002}},{"attributes":{"ID":416903,"DIS_CODE":0,"TOWNNAME":"中西區","LI":"赤嵌里","LIN":"1鄰","STREET":"中山路","SECT":" ","MAREA":" ","LANE":"１７７巷","ALLEY":" ","HOUSE_NO":"１５號","E_COORD97":169019.62,"N_COORD97":2544131.6000000001,"ADDRESS":"中山路１７７巷１５號","OBJECTID":416879},"geometry":{"x":169019.62000000197,"y":2544131.6000000034}},{"attributes":{"ID":416904,"DIS_CODE":0,"TOWNNAME":"中西區","LI":"赤嵌里","LIN":"1鄰","STREET":"中山路","SECT":" ","MAREA":" ","LANE":"１７７巷","ALLEY":" ","HOUSE_NO":"１號","E_COORD97":169064.95999999999,"N_COORD97":2544103.1499999999,"ADDRESS":"中山路１７７巷１號","OBJECTID":416880},"geometry":{"x":169064.96000000089,"y":2544103.1500000022}},{"attributes":{"ID":416905,"DIS_CODE":0,"TOWNNAME":"中西區","LI":"赤嵌里","LIN":"1鄰","STREET":"中山路","SECT":" ","MAREA":" ","LANE":"１７７巷","ALLEY":" ","HOUSE_NO":"２號","E_COORD97":169061.32000000001,"N_COORD97":2544107.9300000002,"ADDRESS":"中山路１７７巷２號","OBJECTID":416881},"geometry":{"x":169061.32000000123,"y":2544107.9299999997}},{"attributes":{"ID":416906,"DIS_CODE":0,"TOWNNAME":"中西區","LI":"赤嵌里","LIN":"1鄰","STREET":"中山路","SECT":" ","MAREA":" ","LANE":"１７７巷","ALLEY":" ","HOUSE_NO":"２號之１","E_COORD97":169059.95000000001,"N_COORD97":2544110.8900000001,"ADDRESS":"中山路１７７巷２號之１","OBJECTID":416882},"geometry":{"x":169059.95000000112,"y":2544110.8900000025}},{"attributes":{"ID":416907,"DIS_CODE":0,"TOWNNAME":"中西區","LI":"赤嵌里","LIN":"1鄰","STREET":"中山路","SECT":" ","MAREA":" ","LANE":"１７７巷","ALLEY":" ","HOUSE_NO":"８號","E_COORD97":169050.38,"N_COORD97":2544125.9100000001,"ADDRESS":"中山路１７７巷８號","OBJECTID":416883},"geometry":{"x":169050.38000000082,"y":2544125.9100000001}},{"attributes":{"ID":416908,"DIS_CODE":0,"TOWNNAME":"中西區","LI":"赤嵌里","LIN":"1鄰","STREET":"中山路","SECT":" ","MAREA":" ","LANE":"１７７巷","ALLEY":" ","HOUSE_NO":"９號","E_COORD97":169043.76999999999,"N_COORD97":2544126.3700000001,"ADDRESS":"中山路１７７巷９號","OBJECTID":416884},"geometry":{"x":169043.77000000048,"y":2544126.370000001}},{"attributes":{"ID":416909,"DIS_CODE":0,"TOWNNAME":"白河區","LI":"秀祐里","LIN":"6鄰","STREET":" ","SECT":" ","MAREA":"下秀祐","LANE":" ","ALLEY":" ","HOUSE_NO":"１２之２號","E_COORD97":188573.99646299999,"N_COORD97":2582904.6573000001,"ADDRESS":"下秀祐１２之２號","OBJECTID":416885},"geometry":{"x":188573.99646299984,"y":2582904.6573030017}},{"attributes":{"ID":416910,"DIS_CODE":0,"TOWNNAME":"中西區","LI":"天后里","LIN":"13鄰","STREET":"赤嵌街","SECT":" ","MAREA":" ","LANE":"１５巷","ALLEY":" ","HOUSE_NO":"３號之１","E_COORD97":168186.67999999999,"N_COORD97":2544250.54,"ADDRESS":"赤嵌街１５巷３號之１","OBJECTID":416886},"geometry":{"x":168186.68000000063,"y":2544250.540000001}},{"attributes":{"ID":416911,"DIS_CODE":0,"TOWNNAME":"永康區","LI":"烏竹里","LIN":"2鄰","STREET":"烏竹北街","SECT":" ","MAREA":" ","LANE":"２０巷","ALLEY":" ","HOUSE_NO":"５８號","E_COORD97":174581.09,"N_COORD97":2549531.4100000001,"ADDRESS":"烏竹北街２０巷５８號","OBJECTID":416887},"geometry":{"x":174581.08999999985,"y":2549531.410000002}},{"attributes":{"ID":416912,"DIS_CODE":0,"TOWNNAME":"永康區","LI":"神洲里","LIN":"2鄰","STREET":"忠孝路","SECT":" ","MAREA":" ","LANE":"３２巷","ALLEY":" ","HOUSE_NO":"４號","E_COORD97":172104.70999999999,"N_COORD97":2544636.2400000002,"ADDRESS":"忠孝路３２巷４號","OBJECTID":416888},"geometry":{"x":172104.71000000089,"y":2544636.2400000002}},{"attributes":{"ID":416913,"DIS_CODE":0,"TOWNNAME":"永康區","LI":"蔦松里","LIN":"2鄰","STREET":"中正北路","SECT":" ","MAREA":" ","LANE":"５２１巷","ALLEY":" ","HOUSE_NO":"３號","E_COORD97":173819.70999999999,"N_COORD97":2549195.2400000002,"ADDRESS":"中正北路５２１巷３號","OBJECTID":416889},"geometry":{"x":173819.71000000089,"y":2549195.2400000002}},{"attributes":{"ID":416914,"DIS_CODE":0,"TOWNNAME":"永康區","LI":"復國里","LIN":"2鄰","STREET":"復國一路","SECT":" ","MAREA":" ","LANE":"６巷","ALLEY":" ","HOUSE_NO":"２８號","E_COORD97":172810.16,"N_COORD97":2544745.4300000002,"ADDRESS":"復國一路６巷２８號","OBJECTID":416890},"geometry":{"x":172810.16000000108,"y":2544745.4299999997}},{"attributes":{"ID":416915,"DIS_CODE":0,"TOWNNAME":"永康區","LI":"三民里","LIN":"2鄰","STREET":"三民街","SECT":" ","MAREA":" ","LANE":"１１２巷","ALLEY":" ","HOUSE_NO":"１５號","E_COORD97":172884.57000000001,"N_COORD97":2550350.04,"ADDRESS":"三民街１１２巷１５號","OBJECTID":416891},"geometry":{"x":172884.5700000003,"y":2550350.040000001}},{"attributes":{"ID":416916,"DIS_CODE":0,"TOWNNAME":"永康區","LI":"崑山里","LIN":"2鄰","STREET":"大灣路","SECT":" ","MAREA":" ","LANE":"８７９巷","ALLEY":" ","HOUSE_NO":"４號","E_COORD97":173638.59,"N_COORD97":2544374.7400000002,"ADDRESS":"大灣路８７９巷４號","OBJECTID":416892},"geometry":{"x":173638.58999999985,"y":2544374.7400000002}},{"attributes":{"ID":416917,"DIS_CODE":0,"TOWNNAME":"永康區","LI":"烏竹里","LIN":"2鄰","STREET":"烏竹北街","SECT":" ","MAREA":" ","LANE":"２０巷","ALLEY":" ","HOUSE_NO":"８號","E_COORD97":174672.39000000001,"N_COORD97":2549461.3799999999,"ADDRESS":"烏竹北街２０巷８號","OBJECTID":416893},"geometry":{"x":174672.39000000153,"y":2549461.379999999}},{"attributes":{"ID":416918,"DIS_CODE":0,"TOWNNAME":"永康區","LI":"龍潭里","LIN":"2鄰","STREET":"龍潭街","SECT":" ","MAREA":" ","LANE":"７５巷","ALLEY":" ","HOUSE_NO":"１４號之５","E_COORD97":174720.57999999999,"N_COORD97":2548070.6299999999,"ADDRESS":"龍潭街７５巷１４號之５","OBJECTID":416894},"geometry":{"x":174720.57999999914,"y":2548070.6300000027}},{"attributes":{"ID":416919,"DIS_CODE":0,"TOWNNAME":"永康區","LI":"新樹里","LIN":"2鄰","STREET":"富強路","SECT":"二段","MAREA":" ","LANE":"３２６巷","ALLEY":" ","HOUSE_NO":"３３號","E_COORD97":175674.42000000001,"N_COORD97":2547526.9700000002,"ADDRESS":"富強路二段３２６巷３３號","OBJECTID":416895},"geometry":{"x":175674.42000000179,"y":2547526.9700000007}},{"attributes":{"ID":416920,"DIS_CODE":0,"TOWNNAME":"永康區","LI":"烏竹里","LIN":"2鄰","STREET":"烏竹街","SECT":" ","MAREA":" ","LANE":"６２巷","ALLEY":" ","HOUSE_NO":"１７號","E_COORD97":174550.23999999999,"N_COORD97":2549431.75,"ADDRESS":"烏竹街６２巷１７號","OBJECTID":416896},"geometry":{"x":174550.24000000209,"y":2549431.7500000019}},{"attributes":{"ID":416921,"DIS_CODE":0,"TOWNNAME":"永康區","LI":"龍潭里","LIN":"2鄰","STREET":"龍潭街","SECT":" ","MAREA":" ","LANE":"７５巷","ALLEY":" ","HOUSE_NO":"５號","E_COORD97":174776.94,"N_COORD97":2548041.7599999998,"ADDRESS":"龍潭街７５巷５號","OBJECTID":416897},"geometry":{"x":174776.94000000134,"y":2548041.7599999998}},{"attributes":{"ID":416922,"DIS_CODE":0,"TOWNNAME":"永康區","LI":"網寮里","LIN":"2鄰","STREET":"永二街","SECT":" ","MAREA":" ","LANE":"１２３巷","ALLEY":" ","HOUSE_NO":"１２號","E_COORD97":173570.60999999999,"N_COORD97":2546441.4300000002,"ADDRESS":"永二街１２３巷１２號","OBJECTID":416898},"geometry":{"x":173570.61000000034,"y":2546441.4299999997}},{"attributes":{"ID":416923,"DIS_CODE":0,"TOWNNAME":"中西區","LI":"天后里","LIN":"23鄰","STREET":"赤嵌街","SECT":" ","MAREA":" ","LANE":"３９巷","ALLEY":" ","HOUSE_NO":"５號","E_COORD97":168212.78,"N_COORD97":2544316.8300000001,"ADDRESS":"赤嵌街３９巷５號","OBJECTID":416899},"geometry":{"x":168212.78000000026,"y":2544316.8299999982}},{"attributes":{"ID":416924,"DIS_CODE":0,"TOWNNAME":"中西區","LI":"天后里","LIN":"23鄰","STREET":"赤嵌街","SECT":" ","MAREA":" ","LANE":"３９巷","ALLEY":" ","HOUSE_NO":"９號","E_COORD97":168205.78,"N_COORD97":2544318.3700000001,"ADDRESS":"赤嵌街３９巷９號","OBJECTID":416900},"geometry":{"x":168205.78000000026,"y":2544318.3700000029}},{"attributes":{"ID":416925,"DIS_CODE":0,"TOWNNAME":"中西區","LI":"天后里","LIN":"23鄰","STREET":"赤嵌街","SECT":" ","MAREA":" ","LANE":"３９巷","ALLEY":" ","HOUSE_NO":"１１號","E_COORD97":168202.29000000001,"N_COORD97":2544320.04,"ADDRESS":"赤嵌街３９巷１１號","OBJECTID":416901},"geometry":{"x":168202.29000000004,"y":2544320.0399999991}},{"attributes":{"ID":416926,"DIS_CODE":0,"TOWNNAME":"中西區","LI":"天后里","LIN":"23鄰","STREET":"赤嵌街","SECT":" ","MAREA":" ","LANE":"３９巷","ALLEY":" ","HOUSE_NO":"１號","E_COORD97":168224.51999999999,"N_COORD97":2544312.2200000002,"ADDRESS":"赤嵌街３９巷１號","OBJECTID":416902},"geometry":{"x":168224.52000000142,"y":2544312.2200000025}},{"attributes":{"ID":416927,"DIS_CODE":0,"TOWNNAME":"中西區","LI":"天后里","LIN":"23鄰","STREET":"赤嵌街","SECT":" ","MAREA":" ","LANE":"３９巷","ALLEY":" ","HOUSE_NO":"３號","E_COORD97":168219.63,"N_COORD97":2544314.5899999999,"ADDRESS":"赤嵌街３９巷３號","OBJECTID":416903},"geometry":{"x":168219.63000000082,"y":2544314.5899999999}},{"attributes":{"ID":416928,"DIS_CODE":0,"TOWNNAME":"中西區","LI":"天后里","LIN":"23鄰","STREET":"赤嵌街","SECT":" ","MAREA":" ","LANE":"３９巷","ALLEY":" ","HOUSE_NO":"３號之１","E_COORD97":168216.26999999999,"N_COORD97":2544315.9900000002,"ADDRESS":"赤嵌街３９巷３號之１","OBJECTID":416904},"geometry":{"x":168216.27000000048,"y":2544315.9900000039}},{"attributes":{"ID":416929,"DIS_CODE":0,"TOWNNAME":"中西區","LI":"天后里","LIN":"23鄰","STREET":"赤嵌街","SECT":" ","MAREA":" ","LANE":"３９巷","ALLEY":" ","HOUSE_NO":"６號","E_COORD97":168208.60000000001,"N_COORD97":2544328.6800000002,"ADDRESS":"赤嵌街３９巷６號","OBJECTID":416905},"geometry":{"x":168208.59999999963,"y":2544328.6800000016}},{"attributes":{"ID":416930,"DIS_CODE":0,"TOWNNAME":"中西區","LI":"天后里","LIN":"23鄰","STREET":"赤嵌街","SECT":" ","MAREA":" ","LANE":"４５巷","ALLEY":" ","HOUSE_NO":"１０號","E_COORD97":168238.32999999999,"N_COORD97":2544359.9100000001,"ADDRESS":"赤嵌街４５巷１０號","OBJECTID":416906},"geometry":{"x":168238.33000000194,"y":2544359.9100000001}},{"attributes":{"ID":416931,"DIS_CODE":0,"TOWNNAME":"中西區","LI":"天后里","LIN":"23鄰","STREET":"赤嵌街","SECT":" ","MAREA":" ","LANE":"４５巷","ALLEY":" ","HOUSE_NO":"１１號","E_COORD97":168200.35000000001,"N_COORD97":2544369.98,"ADDRESS":"赤嵌街４５巷１１號","OBJECTID":416907},"geometry":{"x":168200.35000000149,"y":2544369.9800000004}},{"attributes":{"ID":416932,"DIS_CODE":0,"TOWNNAME":"中西區","LI":"天后里","LIN":"23鄰","STREET":"赤嵌街","SECT":" ","MAREA":" ","LANE":"４５巷","ALLEY":" ","HOUSE_NO":"１號","E_COORD97":168215.81,"N_COORD97":2544340.4500000002,"ADDRESS":"赤嵌街４５巷１號","OBJECTID":416908},"geometry":{"x":168215.81000000145,"y":2544340.4500000011}},{"attributes":{"ID":416933,"DIS_CODE":0,"TOWNNAME":"東區","LI":"崇信里","LIN":"2鄰","STREET":"崇信街","SECT":" ","MAREA":" ","LANE":"５０巷","ALLEY":" ","HOUSE_NO":"１０號","E_COORD97":170676.01999999999,"N_COORD97":2542479.5099999998,"ADDRESS":"崇信街５０巷１０號","OBJECTID":416909},"geometry":{"x":170676.02000000048,"y":2542479.5100000016}},{"attributes":{"ID":416934,"DIS_CODE":0,"TOWNNAME":"東區","LI":"崇信里","LIN":"2鄰","STREET":"崇信街","SECT":" ","MAREA":" ","LANE":"５０巷","ALLEY":" ","HOUSE_NO":"２號","E_COORD97":170696.66,"N_COORD97":2542478.4300000002,"ADDRESS":"崇信街５０巷２號","OBJECTID":416910},"geometry":{"x":170696.66000000108,"y":2542478.4300000034}},{"attributes":{"ID":416935,"DIS_CODE":0,"TOWNNAME":"東區","LI":"崇信里","LIN":"2鄰","STREET":"崇信街","SECT":" ","MAREA":" ","LANE":"５０巷","ALLEY":" ","HOUSE_NO":"４號","E_COORD97":170693.01000000001,"N_COORD97":2542478.2999999998,"ADDRESS":"崇信街５０巷４號","OBJECTID":416911},"geometry":{"x":170693.01000000164,"y":2542478.3000000026}},{"attributes":{"ID":416936,"DIS_CODE":0,"TOWNNAME":"東區","LI":"崇信里","LIN":"2鄰","STREET":"崇信街","SECT":" ","MAREA":" ","LANE":"５０巷","ALLEY":" ","HOUSE_NO":"６號","E_COORD97":170684.38,"N_COORD97":2542478.4300000002,"ADDRESS":"崇信街５０巷６號","OBJECTID":416912},"geometry":{"x":170684.38000000082,"y":2542478.4300000034}},{"attributes":{"ID":416937,"DIS_CODE":0,"TOWNNAME":"東區","LI":"崇信里","LIN":"2鄰","STREET":"崇學路","SECT":" ","MAREA":" ","LANE":"２３０巷","ALLEY":" ","HOUSE_NO":"１４號","E_COORD97":170649.84,"N_COORD97":2542530.1699999999,"ADDRESS":"崇學路２３０巷１４號","OBJECTID":416913},"geometry":{"x":170649.83999999985,"y":2542530.1699999999}},{"attributes":{"ID":416938,"DIS_CODE":0,"TOWNNAME":"東區","LI":"崇信里","LIN":"2鄰","STREET":"崇學路","SECT":" ","MAREA":" ","LANE":"２３０巷","ALLEY":" ","HOUSE_NO":"１６號","E_COORD97":170648.81,"N_COORD97":2542520.52,"ADDRESS":"崇學路２３０巷１６號","OBJECTID":416914},"geometry":{"x":170648.81000000052,"y":2542520.5199999996}},{"attributes":{"ID":416939,"DIS_CODE":0,"TOWNNAME":"東區","LI":"崇信里","LIN":"2鄰","STREET":"崇學路","SECT":" ","MAREA":" ","LANE":"２３０巷","ALLEY":" ","HOUSE_NO":"１８號","E_COORD97":170627.16,"N_COORD97":2542511.5299999998,"ADDRESS":"崇學路２３０巷１８號","OBJECTID":416915},"geometry":{"x":170627.16000000108,"y":2542511.5300000012}},{"attributes":{"ID":416940,"DIS_CODE":0,"TOWNNAME":"東區","LI":"崇信里","LIN":"2鄰","STREET":"崇學路","SECT":" ","MAREA":" ","LANE":"２３０巷","ALLEY":" ","HOUSE_NO":"１號","E_COORD97":170663.73999999999,"N_COORD97":2542579.5499999998,"ADDRESS":"崇學路２３０巷１號","OBJECTID":416916},"geometry":{"x":170663.74000000115,"y":2542579.5500000007}},{"attributes":{"ID":416941,"DIS_CODE":0,"TOWNNAME":"東區","LI":"崇信里","LIN":"2鄰","STREET":"崇學路","SECT":" ","MAREA":" ","LANE":"２３０巷","ALLEY":" ","HOUSE_NO":"２１號","E_COORD97":170664.85000000001,"N_COORD97":2542524.2200000002,"ADDRESS":"崇學路２３０巷２１號","OBJECTID":416917},"geometry":{"x":170664.84999999963,"y":2542524.2200000007}},{"attributes":{"ID":416942,"DIS_CODE":0,"TOWNNAME":"東區","LI":"崇信里","LIN":"2鄰","STREET":"崇學路","SECT":" ","MAREA":" ","LANE":"２３０巷","ALLEY":" ","HOUSE_NO":"２８號","E_COORD97":170637.53,"N_COORD97":2542496.7400000002,"ADDRESS":"崇學路２３０巷２８號","OBJECTID":416918},"geometry":{"x":170637.53000000212,"y":2542496.7400000002}},{"attributes":{"ID":416943,"DIS_CODE":0,"TOWNNAME":"東區","LI":"崇信里","LIN":"2鄰","STREET":"崇學路","SECT":" ","MAREA":" ","LANE":"２３０巷","ALLEY":" ","HOUSE_NO":"２９號","E_COORD97":170665.78,"N_COORD97":2542505.9700000002,"ADDRESS":"崇學路２３０巷２９號","OBJECTID":416919},"geometry":{"x":170665.78000000026,"y":2542505.9700000007}},{"attributes":{"ID":416944,"DIS_CODE":0,"TOWNNAME":"東區","LI":"崇信里","LIN":"2鄰","STREET":"崇學路","SECT":" ","MAREA":" ","LANE":"２３０巷","ALLEY":" ","HOUSE_NO":"２９號之１","E_COORD97":170666.34,"N_COORD97":2542500.1600000001,"ADDRESS":"崇學路２３０巷２９號之１","OBJECTID":416920},"geometry":{"x":170666.33999999985,"y":2542500.1600000001}},{"attributes":{"ID":416945,"DIS_CODE":0,"TOWNNAME":"東區","LI":"崇信里","LIN":"2鄰","STREET":"崇學路","SECT":" ","MAREA":" ","LANE":"２３０巷","ALLEY":" ","HOUSE_NO":"３０號","E_COORD97":170643.48999999999,"N_COORD97":2542497.0800000001,"ADDRESS":"崇學路２３０巷３０號","OBJECTID":416921},"geometry":{"x":170643.49000000115,"y":2542497.0800000001}},{"attributes":{"ID":416946,"DIS_CODE":0,"TOWNNAME":"東區","LI":"崇信里","LIN":"2鄰","STREET":"崇學路","SECT":" ","MAREA":" ","LANE":"２３０巷","ALLEY":" ","HOUSE_NO":"３１號","E_COORD97":170666.03,"N_COORD97":2542493.7000000002,"ADDRESS":"崇學路２３０巷３１號","OBJECTID":416922},"geometry":{"x":170666.03000000026,"y":2542493.7000000011}},{"attributes":{"ID":416947,"DIS_CODE":0,"TOWNNAME":"東區","LI":"崇信里","LIN":"2鄰","STREET":"崇學路","SECT":" ","MAREA":" ","LANE":"２３０巷","ALLEY":" ","HOUSE_NO":"３２號","E_COORD97":170655.73999999999,"N_COORD97":2542499.29,"ADDRESS":"崇學路２３０巷３２號","OBJECTID":416923},"geometry":{"x":170655.74000000022,"y":2542499.2900000028}},{"attributes":{"ID":416948,"DIS_CODE":0,"TOWNNAME":"東區","LI":"崇信里","LIN":"2鄰","STREET":"崇學路","SECT":" ","MAREA":" ","LANE":"２３０巷","ALLEY":" ","HOUSE_NO":"３３號","E_COORD97":170666.47,"N_COORD97":2542489.8599999999,"ADDRESS":"崇學路２３０巷３３號","OBJECTID":416924},"geometry":{"x":170666.47000000067,"y":2542489.8600000013}},{"attributes":{"ID":416949,"DIS_CODE":0,"TOWNNAME":"東區","LI":"崇信里","LIN":"2鄰","STREET":"崇學路","SECT":" ","MAREA":" ","LANE":"２３０巷","ALLEY":" ","HOUSE_NO":"３號","E_COORD97":170664.85999999999,"N_COORD97":2542574.3100000001,"ADDRESS":"崇學路２３０巷３號","OBJECTID":416925},"geometry":{"x":170664.86000000127,"y":2542574.3100000005}},{"attributes":{"ID":416950,"DIS_CODE":0,"TOWNNAME":"東區","LI":"崇信里","LIN":"2鄰","STREET":"崇學路","SECT":" ","MAREA":" ","LANE":"２３０巷","ALLEY":" ","HOUSE_NO":"５號","E_COORD97":170664.67999999999,"N_COORD97":2542570,"ADDRESS":"崇學路２３０巷５號","OBJECTID":416926},"geometry":{"x":170664.68000000156,"y":2542570.0000000037}},{"attributes":{"ID":416951,"DIS_CODE":0,"TOWNNAME":"東區","LI":"崇信里","LIN":"2鄰","STREET":"崇學路","SECT":" ","MAREA":" ","LANE":"２３０巷","ALLEY":" ","HOUSE_NO":"５號之１","E_COORD97":170665.04999999999,"N_COORD97":2542564.7599999998,"ADDRESS":"崇學路２３０巷５號之１","OBJECTID":416927},"geometry":{"x":170665.04999999981,"y":2542564.7600000016}},{"attributes":{"ID":416952,"DIS_CODE":0,"TOWNNAME":"東區","LI":"崇信里","LIN":"2鄰","STREET":"崇學路","SECT":" ","MAREA":" ","LANE":"２３０巷","ALLEY":" ","HOUSE_NO":"７號之１","E_COORD97":170665.23999999999,"N_COORD97":2542558.3900000001,"ADDRESS":"崇學路２３０巷７號之１","OBJECTID":416928},"geometry":{"x":170665.24000000115,"y":2542558.3900000025}},{"attributes":{"ID":416953,"DIS_CODE":0,"TOWNNAME":"東區","LI":"崇信里","LIN":"2鄰","STREET":"崇學路","SECT":" ","MAREA":" ","LANE":"２３０巷","ALLEY":" ","HOUSE_NO":"８號","E_COORD97":170648.60999999999,"N_COORD97":2542537.5600000001,"ADDRESS":"崇學路２３０巷８號","OBJECTID":416929},"geometry":{"x":170648.61000000034,"y":2542537.5600000024}},{"attributes":{"ID":416954,"DIS_CODE":0,"TOWNNAME":"中西區","LI":"天后里","LIN":"16鄰","STREET":"西門路","SECT":"二段","MAREA":" ","LANE":"３７２巷","ALLEY":" ","HOUSE_NO":"１０號","E_COORD97":168088.10999999999,"N_COORD97":2544294.1699999999,"ADDRESS":"西門路二段３７２巷１０號","OBJECTID":416930},"geometry":{"x":168088.11000000127,"y":2544294.1700000037}},{"attributes":{"ID":416955,"DIS_CODE":0,"TOWNNAME":"中西區","LI":"天后里","LIN":"16鄰","STREET":"西門路","SECT":"二段","MAREA":" ","LANE":"３７２巷","ALLEY":" ","HOUSE_NO":"１６號","E_COORD97":168101.03,"N_COORD97":2544284.4199999999,"ADDRESS":"西門路二段３７２巷１６號","OBJECTID":416931},"geometry":{"x":168101.03000000026,"y":2544284.4199999999}},{"attributes":{"ID":416956,"DIS_CODE":0,"TOWNNAME":"中西區","LI":"天后里","LIN":"19鄰","STREET":"西門路","SECT":"二段","MAREA":" ","LANE":"４０２巷","ALLEY":" ","HOUSE_NO":"６號","E_COORD97":168129.37,"N_COORD97":2544370.9100000001,"ADDRESS":"西門路二段４０２巷６號","OBJECTID":416932},"geometry":{"x":168129.37000000011,"y":2544370.9100000039}},{"attributes":{"ID":416957,"DIS_CODE":0,"TOWNNAME":"中西區","LI":"天后里","LIN":"19鄰","STREET":"西門路","SECT":"二段","MAREA":" ","LANE":"４０２巷","ALLEY":" ","HOUSE_NO":"８號","E_COORD97":168140.29000000001,"N_COORD97":2544369.8700000001,"ADDRESS":"西門路二段４０２巷８號","OBJECTID":416933},"geometry":{"x":168140.2900000019,"y":2544369.8700000029}},{"attributes":{"ID":416958,"DIS_CODE":0,"TOWNNAME":"中西區","LI":"青年里","LIN":"15鄰","STREET":"青年路","SECT":" ","MAREA":" ","LANE":"４７巷","ALLEY":" ","HOUSE_NO":"１４號","E_COORD97":168652.32000000001,"N_COORD97":2543699.5,"ADDRESS":"青年路４７巷１４號","OBJECTID":416934},"geometry":{"x":168652.32000000216,"y":2543699.5000000019}},{"attributes":{"ID":416959,"DIS_CODE":0,"TOWNNAME":"中西區","LI":"青年里","LIN":"15鄰","STREET":"青年路","SECT":" ","MAREA":" ","LANE":"４７巷","ALLEY":" ","HOUSE_NO":"１６號","E_COORD97":168648.67000000001,"N_COORD97":2543703.2599999998,"ADDRESS":"青年路４７巷１６號","OBJECTID":416935},"geometry":{"x":168648.66999999993,"y":2543703.2599999998}},{"attributes":{"ID":416960,"DIS_CODE":0,"TOWNNAME":"中西區","LI":"青年里","LIN":"15鄰","STREET":"青年路","SECT":" ","MAREA":" ","LANE":"４７巷","ALLEY":" ","HOUSE_NO":"１８號","E_COORD97":168676.91,"N_COORD97":2543713.2400000002,"ADDRESS":"青年路４７巷１８號","OBJECTID":416936},"geometry":{"x":168676.91000000201,"y":2543713.2400000002}},{"attributes":{"ID":416961,"DIS_CODE":0,"TOWNNAME":"中西區","LI":"青年里","LIN":"15鄰","STREET":"青年路","SECT":" ","MAREA":" ","LANE":"４７巷","ALLEY":" ","HOUSE_NO":"４號","E_COORD97":168682.22,"N_COORD97":2543687.6400000001,"ADDRESS":"青年路４７巷４號","OBJECTID":416937},"geometry":{"x":168682.21999999974,"y":2543687.6400000006}},{"attributes":{"ID":416962,"DIS_CODE":0,"TOWNNAME":"中西區","LI":"青年里","LIN":"15鄰","STREET":"青年路","SECT":" ","MAREA":" ","LANE":"４７巷","ALLEY":" ","HOUSE_NO":"８號","E_COORD97":168661.12,"N_COORD97":2543678.5899999999,"ADDRESS":"青年路４７巷８號","OBJECTID":416938},"geometry":{"x":168661.12000000011,"y":2543678.5900000017}},{"attributes":{"ID":416963,"DIS_CODE":0,"TOWNNAME":"麻豆區","LI":"巷口里","LIN":"2鄰","STREET":"興國路","SECT":" ","MAREA":" ","LANE":"１５巷","ALLEY":" ","HOUSE_NO":"３號","E_COORD97":173063.25,"N_COORD97":2564677.96,"ADDRESS":"興國路１５巷３號","OBJECTID":416939},"geometry":{"x":173063.25000000186,"y":2564677.9600000009}},{"attributes":{"ID":416964,"DIS_CODE":0,"TOWNNAME":"麻豆區","LI":"巷口里","LIN":"2鄰","STREET":"興國路","SECT":" ","MAREA":" ","LANE":"１５巷","ALLEY":" ","HOUSE_NO":"４號之１０","E_COORD97":173128.89999999999,"N_COORD97":2564682.0899999999,"ADDRESS":"興國路１５巷４號之１０","OBJECTID":416940},"geometry":{"x":173128.9000000013,"y":2564682.0900000017}},{"attributes":{"ID":416965,"DIS_CODE":0,"TOWNNAME":"麻豆區","LI":"巷口里","LIN":"2鄰","STREET":"興國路","SECT":" ","MAREA":" ","LANE":"１５巷","ALLEY":" ","HOUSE_NO":"４號之１１","E_COORD97":173128.85999999999,"N_COORD97":2564675.0499999998,"ADDRESS":"興國路１５巷４號之１１","OBJECTID":416941},"geometry":{"x":173128.8599999994,"y":2564675.0500000007}},{"attributes":{"ID":416966,"DIS_CODE":0,"TOWNNAME":"麻豆區","LI":"巷口里","LIN":"2鄰","STREET":"興國路","SECT":" ","MAREA":" ","LANE":"１５巷","ALLEY":" ","HOUSE_NO":"４號之１２","E_COORD97":173128.59,"N_COORD97":2564669.2599999998,"ADDRESS":"興國路１５巷４號之１２","OBJECTID":416942},"geometry":{"x":173128.59000000171,"y":2564669.2599999998}},{"attributes":{"ID":416967,"DIS_CODE":0,"TOWNNAME":"麻豆區","LI":"巷口里","LIN":"2鄰","STREET":"興國路","SECT":" ","MAREA":" ","LANE":"１５巷","ALLEY":" ","HOUSE_NO":"４號之１３","E_COORD97":173128.56,"N_COORD97":2564663.2599999998,"ADDRESS":"興國路１５巷４號之１３","OBJECTID":416943},"geometry":{"x":173128.56000000145,"y":2564663.2600000016}},{"attributes":{"ID":416968,"DIS_CODE":0,"TOWNNAME":"麻豆區","LI":"巷口里","LIN":"2鄰","STREET":"興國路","SECT":" ","MAREA":" ","LANE":"１５巷","ALLEY":" ","HOUSE_NO":"４號之１４","E_COORD97":173128.76999999999,"N_COORD97":2564657.4500000002,"ADDRESS":"興國路１５巷４號之１４","OBJECTID":416944},"geometry":{"x":173128.77000000142,"y":2564657.4499999974}},{"attributes":{"ID":416969,"DIS_CODE":0,"TOWNNAME":"麻豆區","LI":"巷口里","LIN":"2鄰","STREET":"興國路","SECT":" ","MAREA":" ","LANE":"１５巷","ALLEY":" ","HOUSE_NO":"４號之１５","E_COORD97":173128.75,"N_COORD97":2564651.3700000001,"ADDRESS":"興國路１５巷４號之１５","OBJECTID":416945},"geometry":{"x":173128.75,"y":2564651.3700000029}},{"attributes":{"ID":416970,"DIS_CODE":0,"TOWNNAME":"麻豆區","LI":"巷口里","LIN":"2鄰","STREET":"興國路","SECT":" ","MAREA":" ","LANE":"１５巷","ALLEY":" ","HOUSE_NO":"４號之１","E_COORD97":173086.38,"N_COORD97":2564684.0299999998,"ADDRESS":"興國路１５巷４號之１","OBJECTID":416946},"geometry":{"x":173086.38000000082,"y":2564684.0299999975}},{"attributes":{"ID":416971,"DIS_CODE":0,"TOWNNAME":"麻豆區","LI":"巷口里","LIN":"2鄰","STREET":"興國路","SECT":" ","MAREA":" ","LANE":"１５巷","ALLEY":" ","HOUSE_NO":"４號之２","E_COORD97":173091.54999999999,"N_COORD97":2564684.5800000001,"ADDRESS":"興國路１５巷４號之２","OBJECTID":416947},"geometry":{"x":173091.55000000168,"y":2564684.5799999982}},{"attributes":{"ID":416972,"DIS_CODE":0,"TOWNNAME":"麻豆區","LI":"巷口里","LIN":"2鄰","STREET":"興國路","SECT":" ","MAREA":" ","LANE":"１５巷","ALLEY":" ","HOUSE_NO":"４號之３","E_COORD97":173096.70999999999,"N_COORD97":2564684.8100000001,"ADDRESS":"興國路１５巷４號之３","OBJECTID":416948},"geometry":{"x":173096.70999999996,"y":2564684.8100000024}},{"attributes":{"ID":416973,"DIS_CODE":0,"TOWNNAME":"麻豆區","LI":"巷口里","LIN":"2鄰","STREET":"興國路","SECT":" ","MAREA":" ","LANE":"１５巷","ALLEY":" ","HOUSE_NO":"４號之５","E_COORD97":173107.03,"N_COORD97":2564683.4700000002,"ADDRESS":"興國路１５巷４號之５","OBJECTID":416949},"geometry":{"x":173107.03000000026,"y":2564683.4700000025}},{"attributes":{"ID":416974,"DIS_CODE":0,"TOWNNAME":"麻豆區","LI":"巷口里","LIN":"2鄰","STREET":"興國路","SECT":" ","MAREA":" ","LANE":"１５巷","ALLEY":" ","HOUSE_NO":"４號之６","E_COORD97":173112.32000000001,"N_COORD97":2564681.7799999998,"ADDRESS":"興國路１５巷４號之６","OBJECTID":416950},"geometry":{"x":173112.32000000216,"y":2564681.7799999993}},{"attributes":{"ID":416975,"DIS_CODE":0,"TOWNNAME":"麻豆區","LI":"巷口里","LIN":"2鄰","STREET":"興國路","SECT":" ","MAREA":" ","LANE":"１５巷","ALLEY":" ","HOUSE_NO":"４號之７","E_COORD97":173117.76999999999,"N_COORD97":2564681.9199999999,"ADDRESS":"興國路１５巷４號之７","OBJECTID":416951},"geometry":{"x":173117.76999999955,"y":2564681.9199999999}},{"attributes":{"ID":416976,"DIS_CODE":0,"TOWNNAME":"麻豆區","LI":"巷口里","LIN":"2鄰","STREET":"興國路","SECT":" ","MAREA":" ","LANE":"１５巷","ALLEY":" ","HOUSE_NO":"４號之８","E_COORD97":173128.92999999999,"N_COORD97":2564693.5600000001,"ADDRESS":"興國路１５巷４號之８","OBJECTID":416952},"geometry":{"x":173128.9299999997,"y":2564693.5600000024}},{"attributes":{"ID":416977,"DIS_CODE":0,"TOWNNAME":"麻豆區","LI":"巷口里","LIN":"2鄰","STREET":"興國路","SECT":" ","MAREA":" ","LANE":"１５巷","ALLEY":" ","HOUSE_NO":"４號之９","E_COORD97":173128.79000000001,"N_COORD97":2564689.3199999998,"ADDRESS":"興國路１５巷４號之９","OBJECTID":416953},"geometry":{"x":173128.79000000004,"y":2564689.3200000003}},{"attributes":{"ID":416978,"DIS_CODE":0,"TOWNNAME":"麻豆區","LI":"巷口里","LIN":"2鄰","STREET":"興國路","SECT":" ","MAREA":" ","LANE":"１５巷","ALLEY":" ","HOUSE_NO":"４號","E_COORD97":173080.51999999999,"N_COORD97":2564683.3900000001,"ADDRESS":"興國路１５巷４號","OBJECTID":416954},"geometry":{"x":173080.51999999955,"y":2564683.3900000043}},{"attributes":{"ID":416979,"DIS_CODE":0,"TOWNNAME":"中西區","LI":"青年里","LIN":"17鄰","STREET":"中山路","SECT":" ","MAREA":" ","LANE":"８巷","ALLEY":" ","HOUSE_NO":"１１號","E_COORD97":168611.91,"N_COORD97":2543690.2200000002,"ADDRESS":"中山路８巷１１號","OBJECTID":416955},"geometry":{"x":168611.91000000015,"y":2543690.2200000007}},{"attributes":{"ID":416980,"DIS_CODE":0,"TOWNNAME":"中西區","LI":"青年里","LIN":"17鄰","STREET":"中山路","SECT":" ","MAREA":" ","LANE":"８巷","ALLEY":" ","HOUSE_NO":"１３號","E_COORD97":168615.54999999999,"N_COORD97":2543687.6299999999,"ADDRESS":"中山路８巷１３號","OBJECTID":416956},"geometry":{"x":168615.54999999981,"y":2543687.6300000008}},{"attributes":{"ID":416981,"DIS_CODE":0,"TOWNNAME":"中西區","LI":"青年里","LIN":"17鄰","STREET":"中山路","SECT":" ","MAREA":" ","LANE":"８巷","ALLEY":" ","HOUSE_NO":"１５號","E_COORD97":168619.07999999999,"N_COORD97":2543685.6299999999,"ADDRESS":"中山路８巷１５號","OBJECTID":416957},"geometry":{"x":168619.08000000007,"y":2543685.629999999}},{"attributes":{"ID":416982,"DIS_CODE":0,"TOWNNAME":"中西區","LI":"青年里","LIN":"17鄰","STREET":"中山路","SECT":" ","MAREA":" ","LANE":"８巷","ALLEY":" ","HOUSE_NO":"１７號","E_COORD97":168622.97,"N_COORD97":2543687.75,"ADDRESS":"中山路８巷１７號","OBJECTID":416958},"geometry":{"x":168622.96999999974,"y":2543687.7500000019}},{"attributes":{"ID":416983,"DIS_CODE":0,"TOWNNAME":"中西區","LI":"青年里","LIN":"17鄰","STREET":"中山路","SECT":" ","MAREA":" ","LANE":"８巷","ALLEY":" ","HOUSE_NO":"１９號","E_COORD97":168626.5,"N_COORD97":2543685.52,"ADDRESS":"中山路８巷１９號","OBJECTID":416959},"geometry":{"x":168626.5,"y":2543685.5200000014}},{"attributes":{"ID":416984,"DIS_CODE":0,"TOWNNAME":"中西區","LI":"青年里","LIN":"17鄰","STREET":"中山路","SECT":" ","MAREA":" ","LANE":"８巷","ALLEY":" ","HOUSE_NO":"２１號","E_COORD97":168630.26000000001,"N_COORD97":2543687.98,"ADDRESS":"中山路８巷２１號","OBJECTID":416960},"geometry":{"x":168630.26000000071,"y":2543687.9800000004}},{"attributes":{"ID":416985,"DIS_CODE":0,"TOWNNAME":"中西區","LI":"青年里","LIN":"17鄰","STREET":"中山路","SECT":" ","MAREA":" ","LANE":"８巷","ALLEY":" ","HOUSE_NO":"２３號","E_COORD97":168633.79000000001,"N_COORD97":2543685.75,"ADDRESS":"中山路８巷２３號","OBJECTID":416961},"geometry":{"x":168633.79000000097,"y":2543685.75}},{"attributes":{"ID":416986,"DIS_CODE":0,"TOWNNAME":"中西區","LI":"青年里","LIN":"17鄰","STREET":"中山路","SECT":" ","MAREA":" ","LANE":"８巷","ALLEY":" ","HOUSE_NO":"２５號","E_COORD97":168638.14999999999,"N_COORD97":2543688.2200000002,"ADDRESS":"中山路８巷２５號","OBJECTID":416962},"geometry":{"x":168638.15000000224,"y":2543688.2200000025}},{"attributes":{"ID":416987,"DIS_CODE":0,"TOWNNAME":"仁德區","LI":"後壁里","LIN":"10鄰","STREET":"民安路","SECT":"二段","MAREA":" ","LANE":"１８２巷","ALLEY":" ","HOUSE_NO":"３５號","E_COORD97":173743.10000000001,"N_COORD97":2538847.0699999998,"ADDRESS":"民安路二段１８２巷３５號","OBJECTID":416963},"geometry":{"x":173743.09999999963,"y":2538847.070000004}},{"attributes":{"ID":416988,"DIS_CODE":0,"TOWNNAME":"仁德區","LI":"後壁里","LIN":"10鄰","STREET":"民安路","SECT":"二段","MAREA":" ","LANE":"１８２巷","ALLEY":" ","HOUSE_NO":"２９號","E_COORD97":173755.67000000001,"N_COORD97":2538866.8199999998,"ADDRESS":"民安路二段１８２巷２９號","OBJECTID":416964},"geometry":{"x":173755.67000000086,"y":2538866.8200000022}},{"attributes":{"ID":416989,"DIS_CODE":0,"TOWNNAME":"仁德區","LI":"後壁里","LIN":"28鄰","STREET":"德洋路","SECT":" ","MAREA":" ","LANE":"２５巷","ALLEY":" ","HOUSE_NO":"２６號","E_COORD97":173095.78,"N_COORD97":2538944.5099999998,"ADDRESS":"德洋路２５巷２６號","OBJECTID":416965},"geometry":{"x":173095.78000000119,"y":2538944.5099999998}},{"attributes":{"ID":416990,"DIS_CODE":0,"TOWNNAME":"仁德區","LI":"後壁里","LIN":"15鄰","STREET":"德南路","SECT":" ","MAREA":" ","LANE":"１３７巷","ALLEY":" ","HOUSE_NO":"６６號","E_COORD97":173618.42999999999,"N_COORD97":2538668.77,"ADDRESS":"德南路１３７巷６６號","OBJECTID":416966},"geometry":{"x":173618.43000000063,"y":2538668.7700000033}},{"attributes":{"ID":416991,"DIS_CODE":0,"TOWNNAME":"仁德區","LI":"後壁里","LIN":"13鄰","STREET":"德善路","SECT":" ","MAREA":" ","LANE":"１０８巷","ALLEY":" ","HOUSE_NO":"１１號","E_COORD97":173477.45660400001,"N_COORD97":2538808.6963800001,"ADDRESS":"德善路１０８巷１１號","OBJECTID":416967},"geometry":{"x":173477.45660400111,"y":2538808.6963829976}},{"attributes":{"ID":416992,"DIS_CODE":0,"TOWNNAME":"仁德區","LI":"新田里","LIN":"12鄰","STREET":"民安路","SECT":"一段","MAREA":" ","LANE":"３９３巷","ALLEY":" ","HOUSE_NO":"１１號","E_COORD97":172961.88,"N_COORD97":2539866.5600000001,"ADDRESS":"民安路一段３９３巷１１號","OBJECTID":416968},"geometry":{"x":172961.87999999989,"y":2539866.5600000005}},{"attributes":{"ID":416993,"DIS_CODE":0,"TOWNNAME":"仁德區","LI":"新田里","LIN":"15鄰","STREET":"北保東路","SECT":" ","MAREA":" ","LANE":"８巷","ALLEY":" ","HOUSE_NO":"３號","E_COORD97":173372.42999999999,"N_COORD97":2539387,"ADDRESS":"北保東路８巷３號","OBJECTID":416969},"geometry":{"x":173372.43000000063,"y":2539387.0000000019}},{"attributes":{"ID":416994,"DIS_CODE":0,"TOWNNAME":"仁德區","LI":"後壁里","LIN":"28鄰","STREET":"德洋路","SECT":" ","MAREA":" ","LANE":"３９巷","ALLEY":" ","HOUSE_NO":"３號","E_COORD97":173070.42000000001,"N_COORD97":2538960.52,"ADDRESS":"德洋路３９巷３號","OBJECTID":416970},"geometry":{"x":173070.42000000179,"y":2538960.5199999996}},{"attributes":{"ID":416995,"DIS_CODE":0,"TOWNNAME":"仁德區","LI":"新田里","LIN":"3鄰","STREET":"新田二街","SECT":" ","MAREA":" ","LANE":"１２０巷","ALLEY":" ","HOUSE_NO":"７號","E_COORD97":174936.95999999999,"N_COORD97":2539916.5,"ADDRESS":"新田二街１２０巷７號","OBJECTID":416971},"geometry":{"x":174936.96000000089,"y":2539916.5000000019}},{"attributes":{"ID":416996,"DIS_CODE":0,"TOWNNAME":"仁德區","LI":"新田里","LIN":"3鄰","STREET":"新田二街","SECT":" ","MAREA":" ","LANE":"１１６巷","ALLEY":" ","HOUSE_NO":"１７號","E_COORD97":174906.94,"N_COORD97":2539764.7400000002,"ADDRESS":"新田二街１１６巷１７號","OBJECTID":416972},"geometry":{"x":174906.94000000134,"y":2539764.7400000039}},{"attributes":{"ID":416997,"DIS_CODE":0,"TOWNNAME":"仁德區","LI":"後壁里","LIN":"15鄰","STREET":"德南路","SECT":" ","MAREA":" ","LANE":"１３７巷","ALLEY":" ","HOUSE_NO":"６６之１２號","E_COORD97":173641.64999999999,"N_COORD97":2538629.1099999999,"ADDRESS":"德南路１３７巷６６之１２號","OBJECTID":416973},"geometry":{"x":173641.65000000037,"y":2538629.1100000013}},{"attributes":{"ID":416998,"DIS_CODE":0,"TOWNNAME":"安南區","LI":"總頭里","LIN":"2鄰","STREET":"總安街","SECT":"二段","MAREA":" ","LANE":"３１５巷","ALLEY":" ","HOUSE_NO":"１５號","E_COORD97":168412.63,"N_COORD97":2550426.7000000002,"ADDRESS":"總安街二段３１５巷１５號","OBJECTID":416974},"geometry":{"x":168412.63000000082,"y":2550426.700000003}},{"attributes":{"ID":416999,"DIS_CODE":0,"TOWNNAME":"仁德區","LI":"新田里","LIN":"4鄰","STREET":"新田路","SECT":" ","MAREA":" ","LANE":"２４０巷","ALLEY":" ","HOUSE_NO":"７號","E_COORD97":174526.26999999999,"N_COORD97":2539606.75,"ADDRESS":"新田路２４０巷７號","OBJECTID":416975},"geometry":{"x":174526.27000000048,"y":2539606.75}},{"attributes":{"ID":417000,"DIS_CODE":0,"TOWNNAME":"仁德區","LI":"新田里","LIN":"10鄰","STREET":"北保路","SECT":" ","MAREA":" ","LANE":"９５巷","ALLEY":" ","HOUSE_NO":"３號","E_COORD97":173248.87,"N_COORD97":2539550.4900000002,"ADDRESS":"北保路９５巷３號","OBJECTID":416976},"geometry":{"x":173248.87000000011,"y":2539550.4900000021}},{"attributes":{"ID":417001,"DIS_CODE":0,"TOWNNAME":"仁德區","LI":"新田里","LIN":"16鄰","STREET":"北保東路","SECT":" ","MAREA":" ","LANE":"３２巷","ALLEY":" ","HOUSE_NO":"４號","E_COORD97":173434.32000000001,"N_COORD97":2539353.7400000002,"ADDRESS":"北保東路３２巷４號","OBJECTID":416977},"geometry":{"x":173434.32000000216,"y":2539353.7400000002}},{"attributes":{"ID":417002,"DIS_CODE":0,"TOWNNAME":"仁德區","LI":"新田里","LIN":"5鄰","STREET":"勝利二街","SECT":" ","MAREA":" ","LANE":"２９巷","ALLEY":" ","HOUSE_NO":"８號","E_COORD97":174905.32000000001,"N_COORD97":2539302.7599999998,"ADDRESS":"勝利二街２９巷８號","OBJECTID":416978},"geometry":{"x":174905.3200000003,"y":2539302.7600000035}},{"attributes":{"ID":417003,"DIS_CODE":0,"TOWNNAME":"仁德區","LI":"後壁里","LIN":"29鄰","STREET":"德洋一街","SECT":" ","MAREA":" ","LANE":"２４巷","ALLEY":" ","HOUSE_NO":"８號","E_COORD97":173130.88,"N_COORD97":2539124.0099999998,"ADDRESS":"德洋一街２４巷８號","OBJECTID":416979},"geometry":{"x":173130.88000000082,"y":2539124.0099999998}},{"attributes":{"ID":417004,"DIS_CODE":0,"TOWNNAME":"仁德區","LI":"新田里","LIN":"3鄰","STREET":"新田二街","SECT":" ","MAREA":" ","LANE":"１２０巷","ALLEY":" ","HOUSE_NO":"１８號","E_COORD97":174992.54000000001,"N_COORD97":2539906.5,"ADDRESS":"新田二街１２０巷１８號","OBJECTID":416980},"geometry":{"x":174992.54000000097,"y":2539906.5000000019}},{"attributes":{"ID":417005,"DIS_CODE":0,"TOWNNAME":"新市區","LI":"新市里","LIN":"2鄰","STREET":"光華街","SECT":" ","MAREA":" ","LANE":"１８３巷","ALLEY":" ","HOUSE_NO":"１１號","E_COORD97":177742.81,"N_COORD97":2553082,"ADDRESS":"光華街１８３巷１１號","OBJECTID":416981},"geometry":{"x":177742.81000000145,"y":2553082}},{"attributes":{"ID":417006,"DIS_CODE":0,"TOWNNAME":"東區","LI":"崇學里","LIN":"2鄰","STREET":"崇善路","SECT":" ","MAREA":" ","LANE":"１８２巷","ALLEY":" ","HOUSE_NO":"１９號","E_COORD97":170531.88,"N_COORD97":2542086.6699999999,"ADDRESS":"崇善路１８２巷１９號","OBJECTID":416982},"geometry":{"x":170531.88000000082,"y":2542086.6699999999}},{"attributes":{"ID":417007,"DIS_CODE":0,"TOWNNAME":"東區","LI":"崇學里","LIN":"2鄰","STREET":"崇善路","SECT":" ","MAREA":" ","LANE":"１８２巷","ALLEY":" ","HOUSE_NO":"２１號","E_COORD97":170527.97,"N_COORD97":2542082.7599999998,"ADDRESS":"崇善路１８２巷２１號","OBJECTID":416983},"geometry":{"x":170527.97000000067,"y":2542082.7599999979}},{"attributes":{"ID":417008,"DIS_CODE":0,"TOWNNAME":"東區","LI":"崇學里","LIN":"2鄰","STREET":"崇善路","SECT":" ","MAREA":" ","LANE":"１８２巷","ALLEY":" ","HOUSE_NO":"２３號","E_COORD97":170525.14000000001,"N_COORD97":2542079.0699999998,"ADDRESS":"崇善路１８２巷２３號","OBJECTID":416984},"geometry":{"x":170525.13999999966,"y":2542079.0700000022}},{"attributes":{"ID":417009,"DIS_CODE":0,"TOWNNAME":"東區","LI":"崇學里","LIN":"2鄰","STREET":"崇善路","SECT":" ","MAREA":" ","LANE":"１８２巷","ALLEY":" ","HOUSE_NO":"２５號","E_COORD97":170522.53,"N_COORD97":2542076.0299999998,"ADDRESS":"崇善路１８２巷２５號","OBJECTID":416985},"geometry":{"x":170522.53000000119,"y":2542076.0299999993}},{"attributes":{"ID":417010,"DIS_CODE":0,"TOWNNAME":"東區","LI":"崇學里","LIN":"2鄰","STREET":"崇善路","SECT":" ","MAREA":" ","LANE":"１８２巷","ALLEY":" ","HOUSE_NO":"２７號","E_COORD97":170518.84,"N_COORD97":2542071.8999999999,"ADDRESS":"崇善路１８２巷２７號","OBJECTID":416986},"geometry":{"x":170518.84000000078,"y":2542071.9000000004}},{"attributes":{"ID":417011,"DIS_CODE":0,"TOWNNAME":"東區","LI":"崇學里","LIN":"2鄰","STREET":"崇善路","SECT":" ","MAREA":" ","LANE":"１８２巷","ALLEY":" ","HOUSE_NO":"２９號","E_COORD97":170516.01000000001,"N_COORD97":2542068.21,"ADDRESS":"崇善路１８２巷２９號","OBJECTID":416987},"geometry":{"x":170516.00999999978,"y":2542068.2100000028}},{"attributes":{"ID":417012,"DIS_CODE":0,"TOWNNAME":"東區","LI":"崇學里","LIN":"2鄰","STREET":"崇善路","SECT":" ","MAREA":" ","LANE":"１８２巷","ALLEY":" ","HOUSE_NO":"３１號","E_COORD97":170513.62,"N_COORD97":2542064.0800000001,"ADDRESS":"崇善路１８２巷３１號","OBJECTID":416988},"geometry":{"x":170513.62000000104,"y":2542064.0800000038}},{"attributes":{"ID":417013,"DIS_CODE":0,"TOWNNAME":"東區","LI":"崇學里","LIN":"2鄰","STREET":"崇善路","SECT":" ","MAREA":" ","LANE":"１８２巷","ALLEY":" ","HOUSE_NO":"３３號","E_COORD97":170511.66,"N_COORD97":2542059.73,"ADDRESS":"崇善路１８２巷３３號","OBJECTID":416989},"geometry":{"x":170511.66000000108,"y":2542059.7300000004}},{"attributes":{"ID":417014,"DIS_CODE":0,"TOWNNAME":"東區","LI":"崇學里","LIN":"2鄰","STREET":"崇善路","SECT":" ","MAREA":" ","LANE":"１８２巷","ALLEY":" ","HOUSE_NO":"５號","E_COORD97":170553.63,"N_COORD97":2542112.0899999999,"ADDRESS":"崇善路１８２巷５號","OBJECTID":416990},"geometry":{"x":170553.63000000082,"y":2542112.0900000017}},{"attributes":{"ID":417015,"DIS_CODE":0,"TOWNNAME":"東區","LI":"崇學里","LIN":"2鄰","STREET":"崇善路","SECT":" ","MAREA":" ","LANE":"１８２巷","ALLEY":" ","HOUSE_NO":"７號","E_COORD97":170550.37,"N_COORD97":2542109.27,"ADDRESS":"崇善路１８２巷７號","OBJECTID":416991},"geometry":{"x":170550.37000000197,"y":2542109.2699999996}},{"attributes":{"ID":417016,"DIS_CODE":0,"TOWNNAME":"仁德區","LI":"新田里","LIN":"5鄰","STREET":"勝利二街","SECT":" ","MAREA":" ","LANE":"２９巷","ALLEY":" ","HOUSE_NO":"２號","E_COORD97":174884.07000000001,"N_COORD97":2539310.75,"ADDRESS":"勝利二街２９巷２號","OBJECTID":416992},"geometry":{"x":174884.07000000123,"y":2539310.7500000019}},{"attributes":{"ID":417017,"DIS_CODE":0,"TOWNNAME":"東區","LI":"崇學里","LIN":"2鄰","STREET":"崇善路","SECT":" ","MAREA":" ","LANE":"１８２巷","ALLEY":" ","HOUSE_NO":"９號","E_COORD97":170547.32000000001,"N_COORD97":2542104.7000000002,"ADDRESS":"崇善路１８２巷９號","OBJECTID":416993},"geometry":{"x":170547.31999999937,"y":2542104.7000000011}},{"attributes":{"ID":417018,"DIS_CODE":0,"TOWNNAME":"東區","LI":"崇信里","LIN":"2鄰","STREET":"崇學路","SECT":" ","MAREA":" ","LANE":"１８８巷","ALLEY":" ","HOUSE_NO":"１９號之６","E_COORD97":170652.41,"N_COORD97":2542477.0899999999,"ADDRESS":"崇學路１８８巷１９號之６","OBJECTID":416994},"geometry":{"x":170652.41000000108,"y":2542477.0899999999}},{"attributes":{"ID":417019,"DIS_CODE":0,"TOWNNAME":"學甲區","LI":"慈福里","LIN":"13鄰","STREET":"民族路","SECT":" ","MAREA":" ","LANE":" ","ALLEY":" ","HOUSE_NO":"５３號之１","E_COORD97":166605.79999999999,"N_COORD97":2570311.7200000002,"ADDRESS":"民族路５３號之１","OBJECTID":416995},"geometry":{"x":166605.80000000168,"y":2570311.7200000007}},{"attributes":{"ID":417020,"DIS_CODE":0,"TOWNNAME":"東區","LI":"崇信里","LIN":"2鄰","STREET":"崇學路","SECT":" ","MAREA":" ","LANE":"１８８巷","ALLEY":" ","HOUSE_NO":"１９號之７","E_COORD97":170656.59,"N_COORD97":2542479.2400000002,"ADDRESS":"崇學路１８８巷１９號之７","OBJECTID":416996},"geometry":{"x":170656.58999999985,"y":2542479.2400000002}},{"attributes":{"ID":417021,"DIS_CODE":0,"TOWNNAME":"東區","LI":"成大里","LIN":"2鄰","STREET":"東寧路","SECT":"西段","MAREA":" ","LANE":"１８巷","ALLEY":" ","HOUSE_NO":"３號","E_COORD97":169658.17000000001,"N_COORD97":2543697.5099999998,"ADDRESS":"東寧路西段１８巷３號","OBJECTID":416997},"geometry":{"x":169658.17000000179,"y":2543697.5099999998}},{"attributes":{"ID":417022,"DIS_CODE":0,"TOWNNAME":"安南區","LI":"州北里","LIN":"2鄰","STREET":"安和路","SECT":"五段","MAREA":" ","LANE":"８１巷","ALLEY":" ","HOUSE_NO":"９２號","E_COORD97":169696.32999999999,"N_COORD97":2551605.0299999998,"ADDRESS":"安和路五段８１巷９２號","OBJECTID":416998},"geometry":{"x":169696.33000000101,"y":2551605.0300000012}},{"attributes":{"ID":417023,"DIS_CODE":0,"TOWNNAME":"安南區","LI":"州北里","LIN":"2鄰","STREET":"安和路","SECT":"五段","MAREA":" ","LANE":"８１巷","ALLEY":" ","HOUSE_NO":"９４號","E_COORD97":169693.25,"N_COORD97":2551602.3100000001,"ADDRESS":"安和路五段８１巷９４號","OBJECTID":416999},"geometry":{"x":169693.25000000186,"y":2551602.3100000005}},{"attributes":{"ID":417024,"DIS_CODE":0,"TOWNNAME":"安南區","LI":"州北里","LIN":"2鄰","STREET":"安和路","SECT":"五段","MAREA":" ","LANE":"８１巷","ALLEY":" ","HOUSE_NO":"９８號","E_COORD97":169670.35000000001,"N_COORD97":2551587.3399999999,"ADDRESS":"安和路五段８１巷９８號","OBJECTID":417000},"geometry":{"x":169670.35000000056,"y":2551587.3400000017}}]}