{"displayFieldName":"TOWNNAME","fieldAliases":{"ID":"ID","DIS_CODE":"DIS_CODE","TOWNNAME":"TOWNNAME","LI":"LI","LIN":"LIN","STREET":"STREET","SECT":"SECT","MAREA":"MAREA","LANE":"LANE","ALLEY":"ALLEY","HOUSE_NO":"HOUSE_NO","E_COORD97":"E_COORD97","N_COORD97":"N_COORD97","ADDRESS":"ADDRESS","OBJECTID":"OBJECTID"},"geometryType":"esriGeometryPoint","spatialReference":{"wkid":102443,"latestWkid":3826},"fields":[{"name":"ID","type":"esriFieldTypeDouble","alias":"ID"},{"name":"DIS_CODE","type":"esriFieldTypeInteger","alias":"DIS_CODE"},{"name":"TOWNNAME","type":"esriFieldTypeString","alias":"TOWNNAME","length":8},{"name":"LI","type":"esriFieldTypeString","alias":"LI","length":8},{"name":"LIN","type":"esriFieldTypeString","alias":"LIN","length":12},{"name":"STREET","type":"esriFieldTypeString","alias":"STREET","length":20},{"name":"SECT","type":"esriFieldTypeString","alias":"SECT","length":8},{"name":"MAREA","type":"esriFieldTypeString","alias":"MAREA","length":12},{"name":"LANE","type":"esriFieldTypeString","alias":"LANE","length":10},{"name":"ALLEY","type":"esriFieldTypeString","alias":"ALLEY","length":10},{"name":"HOUSE_NO","type":"esriFieldTypeString","alias":"HOUSE_NO","length":20},{"name":"E_COORD97","type":"esriFieldTypeDouble","alias":"E_COORD97"},{"name":"N_COORD97","type":"esriFieldTypeDouble","alias":"N_COORD97"},{"name":"ADDRESS","type":"esriFieldTypeString","alias":"ADDRESS","length":50},{"name":"OBJECTID","type":"esriFieldTypeOID","alias":"OBJECTID"}],"features":[{"attributes":{"ID":532028,"DIS_CODE":0,"TOWNNAME":"東區","LI":"中西里","LIN":"30鄰","STREET":"東寧路","SECT":" ","MAREA":" ","LANE":" ","ALLEY":" ","HOUSE_NO":"１８６號六樓","E_COORD97":170458.85000000001,"N_COORD97":2543507.6000000001,"ADDRESS":"東寧路１８６號六樓","OBJECTID":532001},"geometry":{"x":170458.85000000056,"y":2543507.5999999978}},{"attributes":{"ID":532029,"DIS_CODE":0,"TOWNNAME":"東區","LI":"中西里","LIN":"30鄰","STREET":"東寧路","SECT":" ","MAREA":" ","LANE":" ","ALLEY":" ","HOUSE_NO":"１８６號六樓之１","E_COORD97":170458.85000000001,"N_COORD97":2543507.6000000001,"ADDRESS":"東寧路１８６號六樓之１","OBJECTID":532002},"geometry":{"x":170458.85000000056,"y":2543507.5999999978}},{"attributes":{"ID":532030,"DIS_CODE":0,"TOWNNAME":"東區","LI":"中西里","LIN":"30鄰","STREET":"東寧路","SECT":" ","MAREA":" ","LANE":" ","ALLEY":" ","HOUSE_NO":"１８６號六樓之２","E_COORD97":170458.85000000001,"N_COORD97":2543507.6000000001,"ADDRESS":"東寧路１８６號六樓之２","OBJECTID":532003},"geometry":{"x":170458.85000000056,"y":2543507.5999999978}},{"attributes":{"ID":532031,"DIS_CODE":0,"TOWNNAME":"東區","LI":"中西里","LIN":"30鄰","STREET":"東寧路","SECT":" ","MAREA":" ","LANE":" ","ALLEY":" ","HOUSE_NO":"１８６號六樓之３","E_COORD97":170458.85000000001,"N_COORD97":2543507.6000000001,"ADDRESS":"東寧路１８６號六樓之３","OBJECTID":532004},"geometry":{"x":170458.85000000056,"y":2543507.5999999978}},{"attributes":{"ID":532032,"DIS_CODE":0,"TOWNNAME":"東區","LI":"中西里","LIN":"30鄰","STREET":"東寧路","SECT":" ","MAREA":" ","LANE":" ","ALLEY":" ","HOUSE_NO":"１８６號六樓之５","E_COORD97":170458.85000000001,"N_COORD97":2543507.6000000001,"ADDRESS":"東寧路１８６號六樓之５","OBJECTID":532005},"geometry":{"x":170458.85000000056,"y":2543507.5999999978}},{"attributes":{"ID":532033,"DIS_CODE":0,"TOWNNAME":"東區","LI":"中西里","LIN":"30鄰","STREET":"東寧路","SECT":" ","MAREA":" ","LANE":" ","ALLEY":" ","HOUSE_NO":"１８６號六樓之６","E_COORD97":170458.85000000001,"N_COORD97":2543507.6000000001,"ADDRESS":"東寧路１８６號六樓之６","OBJECTID":532006},"geometry":{"x":170458.85000000056,"y":2543507.5999999978}},{"attributes":{"ID":532034,"DIS_CODE":0,"TOWNNAME":"東區","LI":"中西里","LIN":"30鄰","STREET":"東寧路","SECT":" ","MAREA":" ","LANE":" ","ALLEY":" ","HOUSE_NO":"１８６號七樓","E_COORD97":170458.85000000001,"N_COORD97":2543507.6000000001,"ADDRESS":"東寧路１８６號七樓","OBJECTID":532007},"geometry":{"x":170458.85000000056,"y":2543507.5999999978}},{"attributes":{"ID":532035,"DIS_CODE":0,"TOWNNAME":"東區","LI":"中西里","LIN":"30鄰","STREET":"東寧路","SECT":" ","MAREA":" ","LANE":" ","ALLEY":" ","HOUSE_NO":"１８６號七樓之１","E_COORD97":170458.85000000001,"N_COORD97":2543507.6000000001,"ADDRESS":"東寧路１８６號七樓之１","OBJECTID":532008},"geometry":{"x":170458.85000000056,"y":2543507.5999999978}},{"attributes":{"ID":532036,"DIS_CODE":0,"TOWNNAME":"東區","LI":"中西里","LIN":"30鄰","STREET":"東寧路","SECT":" ","MAREA":" ","LANE":" ","ALLEY":" ","HOUSE_NO":"１８６號七樓之２","E_COORD97":170458.85000000001,"N_COORD97":2543507.6000000001,"ADDRESS":"東寧路１８６號七樓之２","OBJECTID":532009},"geometry":{"x":170458.85000000056,"y":2543507.5999999978}},{"attributes":{"ID":532037,"DIS_CODE":0,"TOWNNAME":"東區","LI":"中西里","LIN":"30鄰","STREET":"東寧路","SECT":" ","MAREA":" ","LANE":" ","ALLEY":" ","HOUSE_NO":"１８６號七樓之３","E_COORD97":170458.85000000001,"N_COORD97":2543507.6000000001,"ADDRESS":"東寧路１８６號七樓之３","OBJECTID":532010},"geometry":{"x":170458.85000000056,"y":2543507.5999999978}},{"attributes":{"ID":532038,"DIS_CODE":0,"TOWNNAME":"東區","LI":"中西里","LIN":"30鄰","STREET":"東寧路","SECT":" ","MAREA":" ","LANE":" ","ALLEY":" ","HOUSE_NO":"１８６號七樓之５","E_COORD97":170458.85000000001,"N_COORD97":2543507.6000000001,"ADDRESS":"東寧路１８６號七樓之５","OBJECTID":532011},"geometry":{"x":170458.85000000056,"y":2543507.5999999978}},{"attributes":{"ID":532039,"DIS_CODE":0,"TOWNNAME":"東區","LI":"中西里","LIN":"30鄰","STREET":"東寧路","SECT":" ","MAREA":" ","LANE":" ","ALLEY":" ","HOUSE_NO":"１８６號七樓之６","E_COORD97":170458.85000000001,"N_COORD97":2543507.6000000001,"ADDRESS":"東寧路１８６號七樓之６","OBJECTID":532012},"geometry":{"x":170458.85000000056,"y":2543507.5999999978}},{"attributes":{"ID":532040,"DIS_CODE":0,"TOWNNAME":"東區","LI":"中西里","LIN":"30鄰","STREET":"東寧路","SECT":" ","MAREA":" ","LANE":" ","ALLEY":" ","HOUSE_NO":"１８６號八樓","E_COORD97":170458.85000000001,"N_COORD97":2543507.6000000001,"ADDRESS":"東寧路１８６號八樓","OBJECTID":532013},"geometry":{"x":170458.85000000056,"y":2543507.5999999978}},{"attributes":{"ID":532041,"DIS_CODE":0,"TOWNNAME":"東區","LI":"中西里","LIN":"30鄰","STREET":"東寧路","SECT":" ","MAREA":" ","LANE":" ","ALLEY":" ","HOUSE_NO":"１８６號八樓之１","E_COORD97":170458.85000000001,"N_COORD97":2543507.6000000001,"ADDRESS":"東寧路１８６號八樓之１","OBJECTID":532014},"geometry":{"x":170458.85000000056,"y":2543507.5999999978}},{"attributes":{"ID":532042,"DIS_CODE":0,"TOWNNAME":"東區","LI":"中西里","LIN":"30鄰","STREET":"東寧路","SECT":" ","MAREA":" ","LANE":" ","ALLEY":" ","HOUSE_NO":"１８６號八樓之２","E_COORD97":170458.85000000001,"N_COORD97":2543507.6000000001,"ADDRESS":"東寧路１８６號八樓之２","OBJECTID":532015},"geometry":{"x":170458.85000000056,"y":2543507.5999999978}},{"attributes":{"ID":532043,"DIS_CODE":0,"TOWNNAME":"東區","LI":"中西里","LIN":"30鄰","STREET":"東寧路","SECT":" ","MAREA":" ","LANE":" ","ALLEY":" ","HOUSE_NO":"１８６號八樓之３","E_COORD97":170458.85000000001,"N_COORD97":2543507.6000000001,"ADDRESS":"東寧路１８６號八樓之３","OBJECTID":532016},"geometry":{"x":170458.85000000056,"y":2543507.5999999978}},{"attributes":{"ID":532044,"DIS_CODE":0,"TOWNNAME":"東區","LI":"中西里","LIN":"30鄰","STREET":"東寧路","SECT":" ","MAREA":" ","LANE":" ","ALLEY":" ","HOUSE_NO":"１８６號八樓之５","E_COORD97":170458.85000000001,"N_COORD97":2543507.6000000001,"ADDRESS":"東寧路１８６號八樓之５","OBJECTID":532017},"geometry":{"x":170458.85000000056,"y":2543507.5999999978}},{"attributes":{"ID":532045,"DIS_CODE":0,"TOWNNAME":"東區","LI":"中西里","LIN":"30鄰","STREET":"東寧路","SECT":" ","MAREA":" ","LANE":" ","ALLEY":" ","HOUSE_NO":"１８６號八樓之６","E_COORD97":170458.85000000001,"N_COORD97":2543507.6000000001,"ADDRESS":"東寧路１８６號八樓之６","OBJECTID":532018},"geometry":{"x":170458.85000000056,"y":2543507.5999999978}},{"attributes":{"ID":532046,"DIS_CODE":0,"TOWNNAME":"東區","LI":"中西里","LIN":"30鄰","STREET":"東寧路","SECT":" ","MAREA":" ","LANE":" ","ALLEY":" ","HOUSE_NO":"１８６號九樓","E_COORD97":170458.85000000001,"N_COORD97":2543507.6000000001,"ADDRESS":"東寧路１８６號九樓","OBJECTID":532019},"geometry":{"x":170458.85000000056,"y":2543507.5999999978}},{"attributes":{"ID":532047,"DIS_CODE":0,"TOWNNAME":"東區","LI":"中西里","LIN":"30鄰","STREET":"東寧路","SECT":" ","MAREA":" ","LANE":" ","ALLEY":" ","HOUSE_NO":"１８６號九樓之１","E_COORD97":170458.85000000001,"N_COORD97":2543507.6000000001,"ADDRESS":"東寧路１８６號九樓之１","OBJECTID":532020},"geometry":{"x":170458.85000000056,"y":2543507.5999999978}},{"attributes":{"ID":532048,"DIS_CODE":0,"TOWNNAME":"東區","LI":"中西里","LIN":"30鄰","STREET":"東寧路","SECT":" ","MAREA":" ","LANE":" ","ALLEY":" ","HOUSE_NO":"１８６號九樓之２","E_COORD97":170458.85000000001,"N_COORD97":2543507.6000000001,"ADDRESS":"東寧路１８６號九樓之２","OBJECTID":532021},"geometry":{"x":170458.85000000056,"y":2543507.5999999978}},{"attributes":{"ID":532049,"DIS_CODE":0,"TOWNNAME":"東區","LI":"中西里","LIN":"30鄰","STREET":"東寧路","SECT":" ","MAREA":" ","LANE":" ","ALLEY":" ","HOUSE_NO":"１８６號九樓之３","E_COORD97":170458.85000000001,"N_COORD97":2543507.6000000001,"ADDRESS":"東寧路１８６號九樓之３","OBJECTID":532022},"geometry":{"x":170458.85000000056,"y":2543507.5999999978}},{"attributes":{"ID":532050,"DIS_CODE":0,"TOWNNAME":"東區","LI":"中西里","LIN":"30鄰","STREET":"東寧路","SECT":" ","MAREA":" ","LANE":" ","ALLEY":" ","HOUSE_NO":"１８６號九樓之５","E_COORD97":170458.85000000001,"N_COORD97":2543507.6000000001,"ADDRESS":"東寧路１８６號九樓之５","OBJECTID":532023},"geometry":{"x":170458.85000000056,"y":2543507.5999999978}},{"attributes":{"ID":532051,"DIS_CODE":0,"TOWNNAME":"東區","LI":"中西里","LIN":"30鄰","STREET":"東寧路","SECT":" ","MAREA":" ","LANE":" ","ALLEY":" ","HOUSE_NO":"１８６號九樓之６","E_COORD97":170458.85000000001,"N_COORD97":2543507.6000000001,"ADDRESS":"東寧路１８６號九樓之６","OBJECTID":532024},"geometry":{"x":170458.85000000056,"y":2543507.5999999978}},{"attributes":{"ID":532052,"DIS_CODE":0,"TOWNNAME":"東區","LI":"中西里","LIN":"30鄰","STREET":"東寧路","SECT":" ","MAREA":" ","LANE":" ","ALLEY":" ","HOUSE_NO":"１８６號十樓","E_COORD97":170458.85000000001,"N_COORD97":2543507.6000000001,"ADDRESS":"東寧路１８６號十樓","OBJECTID":532025},"geometry":{"x":170458.85000000056,"y":2543507.5999999978}},{"attributes":{"ID":532053,"DIS_CODE":0,"TOWNNAME":"東區","LI":"中西里","LIN":"30鄰","STREET":"東寧路","SECT":" ","MAREA":" ","LANE":" ","ALLEY":" ","HOUSE_NO":"１８６號十樓之１","E_COORD97":170458.85000000001,"N_COORD97":2543507.6000000001,"ADDRESS":"東寧路１８６號十樓之１","OBJECTID":532026},"geometry":{"x":170458.85000000056,"y":2543507.5999999978}},{"attributes":{"ID":532054,"DIS_CODE":0,"TOWNNAME":"東區","LI":"中西里","LIN":"30鄰","STREET":"東寧路","SECT":" ","MAREA":" ","LANE":" ","ALLEY":" ","HOUSE_NO":"１８６號十樓之２","E_COORD97":170458.85000000001,"N_COORD97":2543507.6000000001,"ADDRESS":"東寧路１８６號十樓之２","OBJECTID":532027},"geometry":{"x":170458.85000000056,"y":2543507.5999999978}},{"attributes":{"ID":532055,"DIS_CODE":0,"TOWNNAME":"東區","LI":"中西里","LIN":"30鄰","STREET":"東寧路","SECT":" ","MAREA":" ","LANE":" ","ALLEY":" ","HOUSE_NO":"１８６號十樓之３","E_COORD97":170458.85000000001,"N_COORD97":2543507.6000000001,"ADDRESS":"東寧路１８６號十樓之３","OBJECTID":532028},"geometry":{"x":170458.85000000056,"y":2543507.5999999978}},{"attributes":{"ID":532056,"DIS_CODE":0,"TOWNNAME":"東區","LI":"中西里","LIN":"30鄰","STREET":"東寧路","SECT":" ","MAREA":" ","LANE":" ","ALLEY":" ","HOUSE_NO":"１８６號十樓之５","E_COORD97":170458.85000000001,"N_COORD97":2543507.6000000001,"ADDRESS":"東寧路１８６號十樓之５","OBJECTID":532029},"geometry":{"x":170458.85000000056,"y":2543507.5999999978}},{"attributes":{"ID":532057,"DIS_CODE":0,"TOWNNAME":"東區","LI":"中西里","LIN":"30鄰","STREET":"東寧路","SECT":" ","MAREA":" ","LANE":" ","ALLEY":" ","HOUSE_NO":"１８６號十樓之６","E_COORD97":170458.85000000001,"N_COORD97":2543507.6000000001,"ADDRESS":"東寧路１８６號十樓之６","OBJECTID":532030},"geometry":{"x":170458.85000000056,"y":2543507.5999999978}},{"attributes":{"ID":532058,"DIS_CODE":0,"TOWNNAME":"永康區","LI":"神洲里","LIN":"18鄰","STREET":"忠孝路","SECT":" ","MAREA":" ","LANE":" ","ALLEY":" ","HOUSE_NO":"１４６號","E_COORD97":172100.56,"N_COORD97":2545078.75,"ADDRESS":"忠孝路１４６號","OBJECTID":532031},"geometry":{"x":172100.55999999959,"y":2545078.75}},{"attributes":{"ID":532059,"DIS_CODE":0,"TOWNNAME":"東區","LI":"中西里","LIN":"30鄰","STREET":"東寧路","SECT":" ","MAREA":" ","LANE":" ","ALLEY":" ","HOUSE_NO":"１８６號十一樓之１","E_COORD97":170458.85000000001,"N_COORD97":2543507.6000000001,"ADDRESS":"東寧路１８６號十一樓之１","OBJECTID":532032},"geometry":{"x":170458.85000000056,"y":2543507.5999999978}},{"attributes":{"ID":532060,"DIS_CODE":0,"TOWNNAME":"東區","LI":"中西里","LIN":"30鄰","STREET":"東寧路","SECT":" ","MAREA":" ","LANE":" ","ALLEY":" ","HOUSE_NO":"１８６號十一樓之２","E_COORD97":170458.85000000001,"N_COORD97":2543507.6000000001,"ADDRESS":"東寧路１８６號十一樓之２","OBJECTID":532033},"geometry":{"x":170458.85000000056,"y":2543507.5999999978}},{"attributes":{"ID":532061,"DIS_CODE":0,"TOWNNAME":"東區","LI":"中西里","LIN":"30鄰","STREET":"東寧路","SECT":" ","MAREA":" ","LANE":" ","ALLEY":" ","HOUSE_NO":"１８６號十一樓之３","E_COORD97":170458.85000000001,"N_COORD97":2543507.6000000001,"ADDRESS":"東寧路１８６號十一樓之３","OBJECTID":532034},"geometry":{"x":170458.85000000056,"y":2543507.5999999978}},{"attributes":{"ID":532062,"DIS_CODE":0,"TOWNNAME":"東區","LI":"中西里","LIN":"30鄰","STREET":"東寧路","SECT":" ","MAREA":" ","LANE":" ","ALLEY":" ","HOUSE_NO":"１８６號十一樓之５","E_COORD97":170458.85000000001,"N_COORD97":2543507.6000000001,"ADDRESS":"東寧路１８６號十一樓之５","OBJECTID":532035},"geometry":{"x":170458.85000000056,"y":2543507.5999999978}},{"attributes":{"ID":532063,"DIS_CODE":0,"TOWNNAME":"東區","LI":"中西里","LIN":"30鄰","STREET":"東寧路","SECT":" ","MAREA":" ","LANE":" ","ALLEY":" ","HOUSE_NO":"１８６號十一樓之６","E_COORD97":170458.85000000001,"N_COORD97":2543507.6000000001,"ADDRESS":"東寧路１８６號十一樓之６","OBJECTID":532036},"geometry":{"x":170458.85000000056,"y":2543507.5999999978}},{"attributes":{"ID":532064,"DIS_CODE":0,"TOWNNAME":"東區","LI":"中西里","LIN":"30鄰","STREET":"東寧路","SECT":" ","MAREA":" ","LANE":" ","ALLEY":" ","HOUSE_NO":"１８６號十二樓","E_COORD97":170458.85000000001,"N_COORD97":2543507.6000000001,"ADDRESS":"東寧路１８６號十二樓","OBJECTID":532037},"geometry":{"x":170458.85000000056,"y":2543507.5999999978}},{"attributes":{"ID":532065,"DIS_CODE":0,"TOWNNAME":"東區","LI":"中西里","LIN":"30鄰","STREET":"東寧路","SECT":" ","MAREA":" ","LANE":" ","ALLEY":" ","HOUSE_NO":"１８６號十二樓之１","E_COORD97":170458.85000000001,"N_COORD97":2543507.6000000001,"ADDRESS":"東寧路１８６號十二樓之１","OBJECTID":532038},"geometry":{"x":170458.85000000056,"y":2543507.5999999978}},{"attributes":{"ID":532066,"DIS_CODE":0,"TOWNNAME":"東區","LI":"中西里","LIN":"30鄰","STREET":"東寧路","SECT":" ","MAREA":" ","LANE":" ","ALLEY":" ","HOUSE_NO":"１８６號十二樓之２","E_COORD97":170458.85000000001,"N_COORD97":2543507.6000000001,"ADDRESS":"東寧路１８６號十二樓之２","OBJECTID":532039},"geometry":{"x":170458.85000000056,"y":2543507.5999999978}},{"attributes":{"ID":532067,"DIS_CODE":0,"TOWNNAME":"東區","LI":"中西里","LIN":"30鄰","STREET":"東寧路","SECT":" ","MAREA":" ","LANE":" ","ALLEY":" ","HOUSE_NO":"１８６號十二樓之６","E_COORD97":170458.85000000001,"N_COORD97":2543507.6000000001,"ADDRESS":"東寧路１８６號十二樓之６","OBJECTID":532040},"geometry":{"x":170458.85000000056,"y":2543507.5999999978}},{"attributes":{"ID":532068,"DIS_CODE":0,"TOWNNAME":"東區","LI":"中西里","LIN":"30鄰","STREET":"東寧路","SECT":" ","MAREA":" ","LANE":" ","ALLEY":" ","HOUSE_NO":"１８６號十二樓之６","E_COORD97":170458.85000000001,"N_COORD97":2543507.6000000001,"ADDRESS":"東寧路１８６號十二樓之６","OBJECTID":532041},"geometry":{"x":170458.85000000056,"y":2543507.5999999978}},{"attributes":{"ID":532069,"DIS_CODE":0,"TOWNNAME":"東區","LI":"中西里","LIN":"30鄰","STREET":"東寧路","SECT":" ","MAREA":" ","LANE":" ","ALLEY":" ","HOUSE_NO":"１８６號十三樓","E_COORD97":170458.85000000001,"N_COORD97":2543507.6000000001,"ADDRESS":"東寧路１８６號十三樓","OBJECTID":532042},"geometry":{"x":170458.85000000056,"y":2543507.5999999978}},{"attributes":{"ID":532070,"DIS_CODE":0,"TOWNNAME":"東區","LI":"中西里","LIN":"30鄰","STREET":"東寧路","SECT":" ","MAREA":" ","LANE":" ","ALLEY":" ","HOUSE_NO":"１８６號十三樓之１","E_COORD97":170458.85000000001,"N_COORD97":2543507.6000000001,"ADDRESS":"東寧路１８６號十三樓之１","OBJECTID":532043},"geometry":{"x":170458.85000000056,"y":2543507.5999999978}},{"attributes":{"ID":532071,"DIS_CODE":0,"TOWNNAME":"東區","LI":"中西里","LIN":"30鄰","STREET":"東寧路","SECT":" ","MAREA":" ","LANE":" ","ALLEY":" ","HOUSE_NO":"１８６號十三樓之２","E_COORD97":170458.85000000001,"N_COORD97":2543507.6000000001,"ADDRESS":"東寧路１８６號十三樓之２","OBJECTID":532044},"geometry":{"x":170458.85000000056,"y":2543507.5999999978}},{"attributes":{"ID":532072,"DIS_CODE":0,"TOWNNAME":"東區","LI":"中西里","LIN":"30鄰","STREET":"東寧路","SECT":" ","MAREA":" ","LANE":" ","ALLEY":" ","HOUSE_NO":"１８６號十三樓之３","E_COORD97":170458.85000000001,"N_COORD97":2543507.6000000001,"ADDRESS":"東寧路１８６號十三樓之３","OBJECTID":532045},"geometry":{"x":170458.85000000056,"y":2543507.5999999978}},{"attributes":{"ID":532073,"DIS_CODE":0,"TOWNNAME":"東區","LI":"中西里","LIN":"30鄰","STREET":"東寧路","SECT":" ","MAREA":" ","LANE":" ","ALLEY":" ","HOUSE_NO":"１８６號十四樓之６","E_COORD97":170458.85000000001,"N_COORD97":2543507.6000000001,"ADDRESS":"東寧路１８６號十四樓之６","OBJECTID":532046},"geometry":{"x":170458.85000000056,"y":2543507.5999999978}},{"attributes":{"ID":532074,"DIS_CODE":0,"TOWNNAME":"永康區","LI":"五王里","LIN":"30鄰","STREET":"中山東路","SECT":" ","MAREA":" ","LANE":" ","ALLEY":" ","HOUSE_NO":"１４６號七樓之１","E_COORD97":171727.17000000001,"N_COORD97":2545875.5699999998,"ADDRESS":"中山東路１４６號七樓之１","OBJECTID":532047},"geometry":{"x":171727.16999999993,"y":2545875.5700000022}},{"attributes":{"ID":532075,"DIS_CODE":0,"TOWNNAME":"永康區","LI":"五王里","LIN":"30鄰","STREET":"中山東路","SECT":" ","MAREA":" ","LANE":" ","ALLEY":" ","HOUSE_NO":"１４２號九樓之７","E_COORD97":171732.53,"N_COORD97":2545856.3300000001,"ADDRESS":"中山東路１４２號九樓之７","OBJECTID":532048},"geometry":{"x":171732.53000000212,"y":2545856.3300000038}},{"attributes":{"ID":532076,"DIS_CODE":0,"TOWNNAME":"永康區","LI":"五王里","LIN":"30鄰","STREET":"中山東路","SECT":" ","MAREA":" ","LANE":" ","ALLEY":" ","HOUSE_NO":"１４６號九樓之１","E_COORD97":171727.17000000001,"N_COORD97":2545875.5699999998,"ADDRESS":"中山東路１４６號九樓之１","OBJECTID":532049},"geometry":{"x":171727.16999999993,"y":2545875.5700000022}},{"attributes":{"ID":532077,"DIS_CODE":0,"TOWNNAME":"永康區","LI":"五王里","LIN":"30鄰","STREET":"中山東路","SECT":" ","MAREA":" ","LANE":" ","ALLEY":" ","HOUSE_NO":"１４２號三樓之２","E_COORD97":171732.57999999999,"N_COORD97":2545856.3300000001,"ADDRESS":"中山東路１４２號三樓之２","OBJECTID":532050},"geometry":{"x":171732.58000000101,"y":2545856.3300000038}},{"attributes":{"ID":532078,"DIS_CODE":0,"TOWNNAME":"永康區","LI":"五王里","LIN":"30鄰","STREET":"中山東路","SECT":" ","MAREA":" ","LANE":" ","ALLEY":" ","HOUSE_NO":"１４６號七樓之７","E_COORD97":171727.25,"N_COORD97":2545875.5699999998,"ADDRESS":"中山東路１４６號七樓之７","OBJECTID":532051},"geometry":{"x":171727.25,"y":2545875.5700000022}},{"attributes":{"ID":532079,"DIS_CODE":0,"TOWNNAME":"永康區","LI":"五王里","LIN":"30鄰","STREET":"中山東路","SECT":" ","MAREA":" ","LANE":" ","ALLEY":" ","HOUSE_NO":"１４２號十樓之３","E_COORD97":171732.54999999999,"N_COORD97":2545856.3300000001,"ADDRESS":"中山東路１４２號十樓之３","OBJECTID":532052},"geometry":{"x":171732.55000000075,"y":2545856.3300000038}},{"attributes":{"ID":532080,"DIS_CODE":0,"TOWNNAME":"永康區","LI":"五王里","LIN":"30鄰","STREET":"中山東路","SECT":" ","MAREA":" ","LANE":" ","ALLEY":" ","HOUSE_NO":"１４６號二樓","E_COORD97":171725.03,"N_COORD97":2545875.5299999998,"ADDRESS":"中山東路１４６號二樓","OBJECTID":532053},"geometry":{"x":171725.03000000026,"y":2545875.5300000012}},{"attributes":{"ID":532081,"DIS_CODE":0,"TOWNNAME":"永康區","LI":"五王里","LIN":"30鄰","STREET":"中山東路","SECT":" ","MAREA":" ","LANE":" ","ALLEY":" ","HOUSE_NO":"１４６號六樓之６","E_COORD97":171727.26999999999,"N_COORD97":2545875.5699999998,"ADDRESS":"中山東路１４６號六樓之６","OBJECTID":532054},"geometry":{"x":171727.27000000048,"y":2545875.5700000022}},{"attributes":{"ID":532082,"DIS_CODE":0,"TOWNNAME":"永康區","LI":"五王里","LIN":"30鄰","STREET":"中山東路","SECT":" ","MAREA":" ","LANE":" ","ALLEY":" ","HOUSE_NO":"１４６號三樓之６","E_COORD97":171727.26999999999,"N_COORD97":2545875.5699999998,"ADDRESS":"中山東路１４６號三樓之６","OBJECTID":532055},"geometry":{"x":171727.27000000048,"y":2545875.5700000022}},{"attributes":{"ID":532083,"DIS_CODE":0,"TOWNNAME":"永康區","LI":"復國里","LIN":"32鄰","STREET":"復華一街","SECT":" ","MAREA":" ","LANE":" ","ALLEY":" ","HOUSE_NO":"９號","E_COORD97":172666.39000000001,"N_COORD97":2545070.5299999998,"ADDRESS":"復華一街９號","OBJECTID":532056},"geometry":{"x":172666.38999999966,"y":2545070.5299999993}},{"attributes":{"ID":532084,"DIS_CODE":0,"TOWNNAME":"永康區","LI":"五王里","LIN":"30鄰","STREET":"中山東路","SECT":" ","MAREA":" ","LANE":" ","ALLEY":" ","HOUSE_NO":"１４２號九樓之２","E_COORD97":171732.57999999999,"N_COORD97":2545856.3300000001,"ADDRESS":"中山東路１４２號九樓之２","OBJECTID":532057},"geometry":{"x":171732.58000000101,"y":2545856.3300000038}},{"attributes":{"ID":532085,"DIS_CODE":0,"TOWNNAME":"永康區","LI":"五王里","LIN":"30鄰","STREET":"中山東路","SECT":" ","MAREA":" ","LANE":" ","ALLEY":" ","HOUSE_NO":"１４６號五樓之２","E_COORD97":171727.29999999999,"N_COORD97":2545875.5699999998,"ADDRESS":"中山東路１４６號五樓之２","OBJECTID":532058},"geometry":{"x":171727.30000000075,"y":2545875.5700000022}},{"attributes":{"ID":532086,"DIS_CODE":0,"TOWNNAME":"永康區","LI":"五王里","LIN":"30鄰","STREET":"中山東路","SECT":" ","MAREA":" ","LANE":" ","ALLEY":" ","HOUSE_NO":"１４２號十一樓之１","E_COORD97":171733.70000000001,"N_COORD97":2545856.3300000001,"ADDRESS":"中山東路１４２號十一樓之１","OBJECTID":532059},"geometry":{"x":171733.70000000112,"y":2545856.3300000038}},{"attributes":{"ID":532087,"DIS_CODE":0,"TOWNNAME":"永康區","LI":"五王里","LIN":"30鄰","STREET":"中山東路","SECT":" ","MAREA":" ","LANE":" ","ALLEY":" ","HOUSE_NO":"１４６號三樓之２","E_COORD97":171727.29999999999,"N_COORD97":2545875.5699999998,"ADDRESS":"中山東路１４６號三樓之２","OBJECTID":532060},"geometry":{"x":171727.30000000075,"y":2545875.5700000022}},{"attributes":{"ID":532088,"DIS_CODE":0,"TOWNNAME":"永康區","LI":"五王里","LIN":"30鄰","STREET":"中山東路","SECT":" ","MAREA":" ","LANE":" ","ALLEY":" ","HOUSE_NO":"１４６號八樓之３","E_COORD97":171727.26999999999,"N_COORD97":2545875.5699999998,"ADDRESS":"中山東路１４６號八樓之３","OBJECTID":532061},"geometry":{"x":171727.27000000048,"y":2545875.5700000022}},{"attributes":{"ID":532089,"DIS_CODE":0,"TOWNNAME":"永康區","LI":"五王里","LIN":"30鄰","STREET":"中山東路","SECT":" ","MAREA":" ","LANE":" ","ALLEY":" ","HOUSE_NO":"１４２號二樓之２","E_COORD97":171732.57999999999,"N_COORD97":2545856.3300000001,"ADDRESS":"中山東路１４２號二樓之２","OBJECTID":532062},"geometry":{"x":171732.58000000101,"y":2545856.3300000038}},{"attributes":{"ID":532090,"DIS_CODE":0,"TOWNNAME":"永康區","LI":"五王里","LIN":"30鄰","STREET":"中山東路","SECT":" ","MAREA":" ","LANE":" ","ALLEY":" ","HOUSE_NO":"１４６號四樓之３","E_COORD97":171727.26999999999,"N_COORD97":2545875.5699999998,"ADDRESS":"中山東路１４６號四樓之３","OBJECTID":532063},"geometry":{"x":171727.27000000048,"y":2545875.5700000022}},{"attributes":{"ID":532091,"DIS_CODE":0,"TOWNNAME":"永康區","LI":"五王里","LIN":"30鄰","STREET":"中山東路","SECT":" ","MAREA":" ","LANE":" ","ALLEY":" ","HOUSE_NO":"１４６號八樓之５","E_COORD97":171727.32000000001,"N_COORD97":2545875.5699999998,"ADDRESS":"中山東路１４６號八樓之５","OBJECTID":532064},"geometry":{"x":171727.32000000216,"y":2545875.5700000022}},{"attributes":{"ID":532092,"DIS_CODE":0,"TOWNNAME":"永康區","LI":"五王里","LIN":"30鄰","STREET":"中山東路","SECT":" ","MAREA":" ","LANE":" ","ALLEY":" ","HOUSE_NO":"１４６號四樓之５","E_COORD97":171727.32000000001,"N_COORD97":2545875.5699999998,"ADDRESS":"中山東路１４６號四樓之５","OBJECTID":532065},"geometry":{"x":171727.32000000216,"y":2545875.5700000022}},{"attributes":{"ID":532093,"DIS_CODE":0,"TOWNNAME":"永康區","LI":"南灣里","LIN":"24鄰","STREET":"大灣一街","SECT":" ","MAREA":" ","LANE":" ","ALLEY":" ","HOUSE_NO":"８９號","E_COORD97":174423.57999999999,"N_COORD97":2544743.4100000001,"ADDRESS":"大灣一街８９號","OBJECTID":532066},"geometry":{"x":174423.58000000007,"y":2544743.4100000001}},{"attributes":{"ID":532094,"DIS_CODE":0,"TOWNNAME":"永康區","LI":"五王里","LIN":"30鄰","STREET":"中山東路","SECT":" ","MAREA":" ","LANE":" ","ALLEY":" ","HOUSE_NO":"１４６號九樓之５","E_COORD97":171727.32000000001,"N_COORD97":2545875.5699999998,"ADDRESS":"中山東路１４６號九樓之５","OBJECTID":532067},"geometry":{"x":171727.32000000216,"y":2545875.5700000022}},{"attributes":{"ID":532095,"DIS_CODE":0,"TOWNNAME":"永康區","LI":"五王里","LIN":"30鄰","STREET":"中山東路","SECT":" ","MAREA":" ","LANE":" ","ALLEY":" ","HOUSE_NO":"１４６號十樓之３","E_COORD97":171727.26999999999,"N_COORD97":2545875.5699999998,"ADDRESS":"中山東路１４６號十樓之３","OBJECTID":532068},"geometry":{"x":171727.27000000048,"y":2545875.5700000022}},{"attributes":{"ID":532096,"DIS_CODE":0,"TOWNNAME":"永康區","LI":"五王里","LIN":"30鄰","STREET":"中山東路","SECT":" ","MAREA":" ","LANE":" ","ALLEY":" ","HOUSE_NO":"１４６號八樓之２","E_COORD97":171727.29999999999,"N_COORD97":2545875.5699999998,"ADDRESS":"中山東路１４６號八樓之２","OBJECTID":532069},"geometry":{"x":171727.30000000075,"y":2545875.5700000022}},{"attributes":{"ID":532097,"DIS_CODE":0,"TOWNNAME":"永康區","LI":"五王里","LIN":"30鄰","STREET":"中山東路","SECT":" ","MAREA":" ","LANE":" ","ALLEY":" ","HOUSE_NO":"１４６號十一樓之１","E_COORD97":171728.42000000001,"N_COORD97":2545875.5699999998,"ADDRESS":"中山東路１４６號十一樓之１","OBJECTID":532070},"geometry":{"x":171728.42000000086,"y":2545875.5700000022}},{"attributes":{"ID":532098,"DIS_CODE":0,"TOWNNAME":"永康區","LI":"五王里","LIN":"30鄰","STREET":"中山東路","SECT":" ","MAREA":" ","LANE":" ","ALLEY":" ","HOUSE_NO":"１４６號七樓之３","E_COORD97":171727.26999999999,"N_COORD97":2545875.5699999998,"ADDRESS":"中山東路１４６號七樓之３","OBJECTID":532071},"geometry":{"x":171727.27000000048,"y":2545875.5700000022}},{"attributes":{"ID":532099,"DIS_CODE":0,"TOWNNAME":"永康區","LI":"五王里","LIN":"30鄰","STREET":"中山東路","SECT":" ","MAREA":" ","LANE":" ","ALLEY":" ","HOUSE_NO":"１４６號四樓之６","E_COORD97":171727.26999999999,"N_COORD97":2545875.5699999998,"ADDRESS":"中山東路１４６號四樓之６","OBJECTID":532072},"geometry":{"x":171727.27000000048,"y":2545875.5700000022}},{"attributes":{"ID":532100,"DIS_CODE":0,"TOWNNAME":"永康區","LI":"五王里","LIN":"30鄰","STREET":"中山東路","SECT":" ","MAREA":" ","LANE":" ","ALLEY":" ","HOUSE_NO":"１４６號五樓之５","E_COORD97":171727.32000000001,"N_COORD97":2545875.5699999998,"ADDRESS":"中山東路１４６號五樓之５","OBJECTID":532073},"geometry":{"x":171727.32000000216,"y":2545875.5700000022}},{"attributes":{"ID":532101,"DIS_CODE":0,"TOWNNAME":"永康區","LI":"五王里","LIN":"30鄰","STREET":"中山東路","SECT":" ","MAREA":" ","LANE":" ","ALLEY":" ","HOUSE_NO":"１４６號十樓之６","E_COORD97":171727.26999999999,"N_COORD97":2545875.5699999998,"ADDRESS":"中山東路１４６號十樓之６","OBJECTID":532074},"geometry":{"x":171727.27000000048,"y":2545875.5700000022}},{"attributes":{"ID":532102,"DIS_CODE":0,"TOWNNAME":"永康區","LI":"五王里","LIN":"30鄰","STREET":"中山東路","SECT":" ","MAREA":" ","LANE":" ","ALLEY":" ","HOUSE_NO":"１４６號四樓之２","E_COORD97":171727.29999999999,"N_COORD97":2545875.5699999998,"ADDRESS":"中山東路１４６號四樓之２","OBJECTID":532075},"geometry":{"x":171727.30000000075,"y":2545875.5700000022}},{"attributes":{"ID":532103,"DIS_CODE":0,"TOWNNAME":"東區","LI":"虎尾里","LIN":"30鄰","STREET":"東門路","SECT":"三段","MAREA":" ","LANE":" ","ALLEY":" ","HOUSE_NO":"２９３號七樓","E_COORD97":171795.42000000001,"N_COORD97":2541842.4700000002,"ADDRESS":"東門路三段２９３號七樓","OBJECTID":532076},"geometry":{"x":171795.41999999993,"y":2541842.4700000025}},{"attributes":{"ID":532104,"DIS_CODE":0,"TOWNNAME":"東區","LI":"虎尾里","LIN":"30鄰","STREET":"東門路","SECT":"三段","MAREA":" ","LANE":" ","ALLEY":" ","HOUSE_NO":"２９３號七樓之１","E_COORD97":171795.42000000001,"N_COORD97":2541842.4700000002,"ADDRESS":"東門路三段２９３號七樓之１","OBJECTID":532077},"geometry":{"x":171795.41999999993,"y":2541842.4700000025}},{"attributes":{"ID":532105,"DIS_CODE":0,"TOWNNAME":"東區","LI":"虎尾里","LIN":"30鄰","STREET":"東門路","SECT":"三段","MAREA":" ","LANE":" ","ALLEY":" ","HOUSE_NO":"２９３號七樓之２","E_COORD97":171795.42000000001,"N_COORD97":2541842.4700000002,"ADDRESS":"東門路三段２９３號七樓之２","OBJECTID":532078},"geometry":{"x":171795.41999999993,"y":2541842.4700000025}},{"attributes":{"ID":532106,"DIS_CODE":0,"TOWNNAME":"東區","LI":"虎尾里","LIN":"30鄰","STREET":"東門路","SECT":"三段","MAREA":" ","LANE":" ","ALLEY":" ","HOUSE_NO":"２９３號七樓之３","E_COORD97":171795.42000000001,"N_COORD97":2541842.4700000002,"ADDRESS":"東門路三段２９３號七樓之３","OBJECTID":532079},"geometry":{"x":171795.41999999993,"y":2541842.4700000025}},{"attributes":{"ID":532107,"DIS_CODE":0,"TOWNNAME":"東區","LI":"虎尾里","LIN":"30鄰","STREET":"東門路","SECT":"三段","MAREA":" ","LANE":" ","ALLEY":" ","HOUSE_NO":"２９３號七樓之５","E_COORD97":171795.42000000001,"N_COORD97":2541842.4700000002,"ADDRESS":"東門路三段２９３號七樓之５","OBJECTID":532080},"geometry":{"x":171795.41999999993,"y":2541842.4700000025}},{"attributes":{"ID":532108,"DIS_CODE":0,"TOWNNAME":"東區","LI":"虎尾里","LIN":"30鄰","STREET":"東門路","SECT":"三段","MAREA":" ","LANE":" ","ALLEY":" ","HOUSE_NO":"２９３號九樓","E_COORD97":171795.42000000001,"N_COORD97":2541842.4700000002,"ADDRESS":"東門路三段２９３號九樓","OBJECTID":532081},"geometry":{"x":171795.41999999993,"y":2541842.4700000025}},{"attributes":{"ID":532109,"DIS_CODE":0,"TOWNNAME":"東區","LI":"虎尾里","LIN":"30鄰","STREET":"東門路","SECT":"三段","MAREA":" ","LANE":" ","ALLEY":" ","HOUSE_NO":"２９３號九樓之１","E_COORD97":171795.42000000001,"N_COORD97":2541842.4700000002,"ADDRESS":"東門路三段２９３號九樓之１","OBJECTID":532082},"geometry":{"x":171795.41999999993,"y":2541842.4700000025}},{"attributes":{"ID":532110,"DIS_CODE":0,"TOWNNAME":"東區","LI":"虎尾里","LIN":"30鄰","STREET":"東門路","SECT":"三段","MAREA":" ","LANE":" ","ALLEY":" ","HOUSE_NO":"２９３號九樓之２","E_COORD97":171795.42000000001,"N_COORD97":2541842.4700000002,"ADDRESS":"東門路三段２９３號九樓之２","OBJECTID":532083},"geometry":{"x":171795.41999999993,"y":2541842.4700000025}},{"attributes":{"ID":532111,"DIS_CODE":0,"TOWNNAME":"東區","LI":"虎尾里","LIN":"30鄰","STREET":"東門路","SECT":"三段","MAREA":" ","LANE":" ","ALLEY":" ","HOUSE_NO":"２９３號九樓之３","E_COORD97":171795.42000000001,"N_COORD97":2541842.4700000002,"ADDRESS":"東門路三段２９３號九樓之３","OBJECTID":532084},"geometry":{"x":171795.41999999993,"y":2541842.4700000025}},{"attributes":{"ID":532112,"DIS_CODE":0,"TOWNNAME":"東區","LI":"虎尾里","LIN":"30鄰","STREET":"東門路","SECT":"三段","MAREA":" ","LANE":" ","ALLEY":" ","HOUSE_NO":"２９３號九樓之５","E_COORD97":171795.42000000001,"N_COORD97":2541842.4700000002,"ADDRESS":"東門路三段２９３號九樓之５","OBJECTID":532085},"geometry":{"x":171795.41999999993,"y":2541842.4700000025}},{"attributes":{"ID":532113,"DIS_CODE":0,"TOWNNAME":"東區","LI":"虎尾里","LIN":"30鄰","STREET":"東門路","SECT":"三段","MAREA":" ","LANE":" ","ALLEY":" ","HOUSE_NO":"２９３號八樓之２","E_COORD97":171795.42000000001,"N_COORD97":2541842.4700000002,"ADDRESS":"東門路三段２９３號八樓之２","OBJECTID":532086},"geometry":{"x":171795.41999999993,"y":2541842.4700000025}},{"attributes":{"ID":532114,"DIS_CODE":0,"TOWNNAME":"東區","LI":"虎尾里","LIN":"30鄰","STREET":"東門路","SECT":"三段","MAREA":" ","LANE":" ","ALLEY":" ","HOUSE_NO":"２９３號八樓之３","E_COORD97":171795.42000000001,"N_COORD97":2541842.4700000002,"ADDRESS":"東門路三段２９３號八樓之３","OBJECTID":532087},"geometry":{"x":171795.41999999993,"y":2541842.4700000025}},{"attributes":{"ID":532115,"DIS_CODE":0,"TOWNNAME":"東區","LI":"虎尾里","LIN":"30鄰","STREET":"東門路","SECT":"三段","MAREA":" ","LANE":" ","ALLEY":" ","HOUSE_NO":"２９３號八樓之５","E_COORD97":171795.42000000001,"N_COORD97":2541842.4700000002,"ADDRESS":"東門路三段２９３號八樓之５","OBJECTID":532088},"geometry":{"x":171795.41999999993,"y":2541842.4700000025}},{"attributes":{"ID":532116,"DIS_CODE":0,"TOWNNAME":"東區","LI":"虎尾里","LIN":"30鄰","STREET":"東門路","SECT":"三段","MAREA":" ","LANE":" ","ALLEY":" ","HOUSE_NO":"２９３號十一樓","E_COORD97":171795.42000000001,"N_COORD97":2541842.4700000002,"ADDRESS":"東門路三段２９３號十一樓","OBJECTID":532089},"geometry":{"x":171795.41999999993,"y":2541842.4700000025}},{"attributes":{"ID":532117,"DIS_CODE":0,"TOWNNAME":"東區","LI":"虎尾里","LIN":"30鄰","STREET":"東門路","SECT":"三段","MAREA":" ","LANE":" ","ALLEY":" ","HOUSE_NO":"２９３號十一樓之１","E_COORD97":171795.42000000001,"N_COORD97":2541842.4700000002,"ADDRESS":"東門路三段２９３號十一樓之１","OBJECTID":532090},"geometry":{"x":171795.41999999993,"y":2541842.4700000025}},{"attributes":{"ID":532118,"DIS_CODE":0,"TOWNNAME":"東區","LI":"虎尾里","LIN":"30鄰","STREET":"東門路","SECT":"三段","MAREA":" ","LANE":" ","ALLEY":" ","HOUSE_NO":"２９３號十一樓之２","E_COORD97":171795.42000000001,"N_COORD97":2541842.4700000002,"ADDRESS":"東門路三段２９３號十一樓之２","OBJECTID":532091},"geometry":{"x":171795.41999999993,"y":2541842.4700000025}},{"attributes":{"ID":532119,"DIS_CODE":0,"TOWNNAME":"東區","LI":"虎尾里","LIN":"30鄰","STREET":"東門路","SECT":"三段","MAREA":" ","LANE":" ","ALLEY":" ","HOUSE_NO":"２９３號十一樓之３","E_COORD97":171795.42000000001,"N_COORD97":2541842.4700000002,"ADDRESS":"東門路三段２９３號十一樓之３","OBJECTID":532092},"geometry":{"x":171795.41999999993,"y":2541842.4700000025}},{"attributes":{"ID":532120,"DIS_CODE":0,"TOWNNAME":"東區","LI":"虎尾里","LIN":"30鄰","STREET":"東門路","SECT":"三段","MAREA":" ","LANE":" ","ALLEY":" ","HOUSE_NO":"２９３號十一樓之５","E_COORD97":171795.42000000001,"N_COORD97":2541842.4700000002,"ADDRESS":"東門路三段２９３號十一樓之５","OBJECTID":532093},"geometry":{"x":171795.41999999993,"y":2541842.4700000025}},{"attributes":{"ID":532121,"DIS_CODE":0,"TOWNNAME":"東區","LI":"虎尾里","LIN":"30鄰","STREET":"東門路","SECT":"三段","MAREA":" ","LANE":" ","ALLEY":" ","HOUSE_NO":"２９３號十二樓之２","E_COORD97":171795.42000000001,"N_COORD97":2541842.4700000002,"ADDRESS":"東門路三段２９３號十二樓之２","OBJECTID":532094},"geometry":{"x":171795.41999999993,"y":2541842.4700000025}},{"attributes":{"ID":532122,"DIS_CODE":0,"TOWNNAME":"東區","LI":"虎尾里","LIN":"30鄰","STREET":"東門路","SECT":"三段","MAREA":" ","LANE":" ","ALLEY":" ","HOUSE_NO":"２９３號十二樓之３","E_COORD97":171795.42000000001,"N_COORD97":2541842.4700000002,"ADDRESS":"東門路三段２９３號十二樓之３","OBJECTID":532095},"geometry":{"x":171795.41999999993,"y":2541842.4700000025}},{"attributes":{"ID":532123,"DIS_CODE":0,"TOWNNAME":"東區","LI":"虎尾里","LIN":"30鄰","STREET":"東門路","SECT":"三段","MAREA":" ","LANE":" ","ALLEY":" ","HOUSE_NO":"２９３號十二樓之５","E_COORD97":171795.42000000001,"N_COORD97":2541842.4700000002,"ADDRESS":"東門路三段２９３號十二樓之５","OBJECTID":532096},"geometry":{"x":171795.41999999993,"y":2541842.4700000025}},{"attributes":{"ID":532124,"DIS_CODE":0,"TOWNNAME":"東區","LI":"虎尾里","LIN":"30鄰","STREET":"東門路","SECT":"三段","MAREA":" ","LANE":" ","ALLEY":" ","HOUSE_NO":"２９３號十三樓","E_COORD97":171795.42000000001,"N_COORD97":2541842.4700000002,"ADDRESS":"東門路三段２９３號十三樓","OBJECTID":532097},"geometry":{"x":171795.41999999993,"y":2541842.4700000025}},{"attributes":{"ID":532125,"DIS_CODE":0,"TOWNNAME":"東區","LI":"虎尾里","LIN":"30鄰","STREET":"東門路","SECT":"三段","MAREA":" ","LANE":" ","ALLEY":" ","HOUSE_NO":"２９３號十三樓之１","E_COORD97":171795.42000000001,"N_COORD97":2541842.4700000002,"ADDRESS":"東門路三段２９３號十三樓之１","OBJECTID":532098},"geometry":{"x":171795.41999999993,"y":2541842.4700000025}},{"attributes":{"ID":532126,"DIS_CODE":0,"TOWNNAME":"東區","LI":"虎尾里","LIN":"30鄰","STREET":"東門路","SECT":"三段","MAREA":" ","LANE":" ","ALLEY":" ","HOUSE_NO":"２９３號十三樓之２","E_COORD97":171795.42000000001,"N_COORD97":2541842.4700000002,"ADDRESS":"東門路三段２９３號十三樓之２","OBJECTID":532099},"geometry":{"x":171795.41999999993,"y":2541842.4700000025}},{"attributes":{"ID":532127,"DIS_CODE":0,"TOWNNAME":"東區","LI":"虎尾里","LIN":"30鄰","STREET":"東門路","SECT":"三段","MAREA":" ","LANE":" ","ALLEY":" ","HOUSE_NO":"２９３號十三樓之３","E_COORD97":171795.42000000001,"N_COORD97":2541842.4700000002,"ADDRESS":"東門路三段２９３號十三樓之３","OBJECTID":532100},"geometry":{"x":171795.41999999993,"y":2541842.4700000025}},{"attributes":{"ID":532128,"DIS_CODE":0,"TOWNNAME":"東區","LI":"虎尾里","LIN":"30鄰","STREET":"東門路","SECT":"三段","MAREA":" ","LANE":" ","ALLEY":" ","HOUSE_NO":"２９３號十三樓之５","E_COORD97":171795.42000000001,"N_COORD97":2541842.4700000002,"ADDRESS":"東門路三段２９３號十三樓之５","OBJECTID":532101},"geometry":{"x":171795.41999999993,"y":2541842.4700000025}},{"attributes":{"ID":532129,"DIS_CODE":0,"TOWNNAME":"東區","LI":"虎尾里","LIN":"30鄰","STREET":"東門路","SECT":"三段","MAREA":" ","LANE":" ","ALLEY":" ","HOUSE_NO":"２９３號十五樓之２","E_COORD97":171795.42000000001,"N_COORD97":2541842.4700000002,"ADDRESS":"東門路三段２９３號十五樓之２","OBJECTID":532102},"geometry":{"x":171795.41999999993,"y":2541842.4700000025}},{"attributes":{"ID":532130,"DIS_CODE":0,"TOWNNAME":"東區","LI":"虎尾里","LIN":"30鄰","STREET":"東門路","SECT":"三段","MAREA":" ","LANE":" ","ALLEY":" ","HOUSE_NO":"２９３號十五樓之３","E_COORD97":171795.42000000001,"N_COORD97":2541842.4700000002,"ADDRESS":"東門路三段２９３號十五樓之３","OBJECTID":532103},"geometry":{"x":171795.41999999993,"y":2541842.4700000025}},{"attributes":{"ID":532131,"DIS_CODE":0,"TOWNNAME":"東區","LI":"虎尾里","LIN":"30鄰","STREET":"東門路","SECT":"三段","MAREA":" ","LANE":" ","ALLEY":" ","HOUSE_NO":"２９３號十五樓之５","E_COORD97":171795.42000000001,"N_COORD97":2541842.4700000002,"ADDRESS":"東門路三段２９３號十五樓之５","OBJECTID":532104},"geometry":{"x":171795.41999999993,"y":2541842.4700000025}},{"attributes":{"ID":532132,"DIS_CODE":0,"TOWNNAME":"東區","LI":"虎尾里","LIN":"30鄰","STREET":"東門路","SECT":"三段","MAREA":" ","LANE":" ","ALLEY":" ","HOUSE_NO":"２９３號十六樓之２","E_COORD97":171795.42000000001,"N_COORD97":2541842.4700000002,"ADDRESS":"東門路三段２９３號十六樓之２","OBJECTID":532105},"geometry":{"x":171795.41999999993,"y":2541842.4700000025}},{"attributes":{"ID":532133,"DIS_CODE":0,"TOWNNAME":"東區","LI":"虎尾里","LIN":"30鄰","STREET":"東門路","SECT":"三段","MAREA":" ","LANE":" ","ALLEY":" ","HOUSE_NO":"２９３號十六樓之３","E_COORD97":171795.42000000001,"N_COORD97":2541842.4700000002,"ADDRESS":"東門路三段２９３號十六樓之３","OBJECTID":532106},"geometry":{"x":171795.41999999993,"y":2541842.4700000025}},{"attributes":{"ID":532134,"DIS_CODE":0,"TOWNNAME":"東區","LI":"虎尾里","LIN":"30鄰","STREET":"東門路","SECT":"三段","MAREA":" ","LANE":" ","ALLEY":" ","HOUSE_NO":"２９３號十六樓之５","E_COORD97":171795.42000000001,"N_COORD97":2541842.4700000002,"ADDRESS":"東門路三段２９３號十六樓之５","OBJECTID":532107},"geometry":{"x":171795.41999999993,"y":2541842.4700000025}},{"attributes":{"ID":532135,"DIS_CODE":0,"TOWNNAME":"東區","LI":"虎尾里","LIN":"30鄰","STREET":"東門路","SECT":"三段","MAREA":" ","LANE":" ","ALLEY":" ","HOUSE_NO":"２９３號十四樓之２","E_COORD97":171795.42000000001,"N_COORD97":2541842.4700000002,"ADDRESS":"東門路三段２９３號十四樓之２","OBJECTID":532108},"geometry":{"x":171795.41999999993,"y":2541842.4700000025}},{"attributes":{"ID":532136,"DIS_CODE":0,"TOWNNAME":"東區","LI":"虎尾里","LIN":"30鄰","STREET":"東門路","SECT":"三段","MAREA":" ","LANE":" ","ALLEY":" ","HOUSE_NO":"２９３號十四樓之３","E_COORD97":171795.42000000001,"N_COORD97":2541842.4700000002,"ADDRESS":"東門路三段２９３號十四樓之３","OBJECTID":532109},"geometry":{"x":171795.41999999993,"y":2541842.4700000025}},{"attributes":{"ID":532137,"DIS_CODE":0,"TOWNNAME":"東區","LI":"虎尾里","LIN":"30鄰","STREET":"東門路","SECT":"三段","MAREA":" ","LANE":" ","ALLEY":" ","HOUSE_NO":"２９３號十四樓之５","E_COORD97":171795.42000000001,"N_COORD97":2541842.4700000002,"ADDRESS":"東門路三段２９３號十四樓之５","OBJECTID":532110},"geometry":{"x":171795.41999999993,"y":2541842.4700000025}},{"attributes":{"ID":532138,"DIS_CODE":0,"TOWNNAME":"東區","LI":"虎尾里","LIN":"30鄰","STREET":"東門路","SECT":"三段","MAREA":" ","LANE":" ","ALLEY":" ","HOUSE_NO":"２９３號十樓之２","E_COORD97":171795.42000000001,"N_COORD97":2541842.4700000002,"ADDRESS":"東門路三段２９３號十樓之２","OBJECTID":532111},"geometry":{"x":171795.41999999993,"y":2541842.4700000025}},{"attributes":{"ID":532139,"DIS_CODE":0,"TOWNNAME":"東區","LI":"虎尾里","LIN":"30鄰","STREET":"東門路","SECT":"三段","MAREA":" ","LANE":" ","ALLEY":" ","HOUSE_NO":"２９３號十樓之３","E_COORD97":171795.42000000001,"N_COORD97":2541842.4700000002,"ADDRESS":"東門路三段２９３號十樓之３","OBJECTID":532112},"geometry":{"x":171795.41999999993,"y":2541842.4700000025}},{"attributes":{"ID":532140,"DIS_CODE":0,"TOWNNAME":"東區","LI":"虎尾里","LIN":"30鄰","STREET":"東門路","SECT":"三段","MAREA":" ","LANE":" ","ALLEY":" ","HOUSE_NO":"２９３號十樓之５","E_COORD97":171795.42000000001,"N_COORD97":2541842.4700000002,"ADDRESS":"東門路三段２９３號十樓之５","OBJECTID":532113},"geometry":{"x":171795.41999999993,"y":2541842.4700000025}},{"attributes":{"ID":532141,"DIS_CODE":0,"TOWNNAME":"東區","LI":"虎尾里","LIN":"30鄰","STREET":"東門路","SECT":"三段","MAREA":" ","LANE":" ","ALLEY":" ","HOUSE_NO":"２９３號三樓","E_COORD97":171795.42000000001,"N_COORD97":2541842.4700000002,"ADDRESS":"東門路三段２９３號三樓","OBJECTID":532114},"geometry":{"x":171795.41999999993,"y":2541842.4700000025}},{"attributes":{"ID":532142,"DIS_CODE":0,"TOWNNAME":"東區","LI":"虎尾里","LIN":"30鄰","STREET":"東門路","SECT":"三段","MAREA":" ","LANE":" ","ALLEY":" ","HOUSE_NO":"２９３號三樓之１","E_COORD97":171795.42000000001,"N_COORD97":2541842.4700000002,"ADDRESS":"東門路三段２９３號三樓之１","OBJECTID":532115},"geometry":{"x":171795.41999999993,"y":2541842.4700000025}},{"attributes":{"ID":532143,"DIS_CODE":0,"TOWNNAME":"東區","LI":"虎尾里","LIN":"30鄰","STREET":"東門路","SECT":"三段","MAREA":" ","LANE":" ","ALLEY":" ","HOUSE_NO":"２９３號三樓之２","E_COORD97":171795.42000000001,"N_COORD97":2541842.4700000002,"ADDRESS":"東門路三段２９３號三樓之２","OBJECTID":532116},"geometry":{"x":171795.41999999993,"y":2541842.4700000025}},{"attributes":{"ID":532144,"DIS_CODE":0,"TOWNNAME":"東區","LI":"虎尾里","LIN":"30鄰","STREET":"東門路","SECT":"三段","MAREA":" ","LANE":" ","ALLEY":" ","HOUSE_NO":"２９３號三樓之３","E_COORD97":171795.42000000001,"N_COORD97":2541842.4700000002,"ADDRESS":"東門路三段２９３號三樓之３","OBJECTID":532117},"geometry":{"x":171795.41999999993,"y":2541842.4700000025}},{"attributes":{"ID":532145,"DIS_CODE":0,"TOWNNAME":"東區","LI":"虎尾里","LIN":"30鄰","STREET":"東門路","SECT":"三段","MAREA":" ","LANE":" ","ALLEY":" ","HOUSE_NO":"２９３號三樓之５","E_COORD97":171795.42000000001,"N_COORD97":2541842.4700000002,"ADDRESS":"東門路三段２９３號三樓之５","OBJECTID":532118},"geometry":{"x":171795.41999999993,"y":2541842.4700000025}},{"attributes":{"ID":532146,"DIS_CODE":0,"TOWNNAME":"東區","LI":"虎尾里","LIN":"30鄰","STREET":"東門路","SECT":"三段","MAREA":" ","LANE":" ","ALLEY":" ","HOUSE_NO":"２９３號三樓之６","E_COORD97":171795.42000000001,"N_COORD97":2541842.4700000002,"ADDRESS":"東門路三段２９３號三樓之６","OBJECTID":532119},"geometry":{"x":171795.41999999993,"y":2541842.4700000025}},{"attributes":{"ID":532147,"DIS_CODE":0,"TOWNNAME":"東區","LI":"虎尾里","LIN":"30鄰","STREET":"東門路","SECT":"三段","MAREA":" ","LANE":" ","ALLEY":" ","HOUSE_NO":"２９３號三樓之７","E_COORD97":171795.42000000001,"N_COORD97":2541842.4700000002,"ADDRESS":"東門路三段２９３號三樓之７","OBJECTID":532120},"geometry":{"x":171795.41999999993,"y":2541842.4700000025}},{"attributes":{"ID":532148,"DIS_CODE":0,"TOWNNAME":"東區","LI":"虎尾里","LIN":"30鄰","STREET":"東門路","SECT":"三段","MAREA":" ","LANE":" ","ALLEY":" ","HOUSE_NO":"２９３號五樓","E_COORD97":171795.42000000001,"N_COORD97":2541842.4700000002,"ADDRESS":"東門路三段２９３號五樓","OBJECTID":532121},"geometry":{"x":171795.41999999993,"y":2541842.4700000025}},{"attributes":{"ID":532149,"DIS_CODE":0,"TOWNNAME":"東區","LI":"虎尾里","LIN":"30鄰","STREET":"東門路","SECT":"三段","MAREA":" ","LANE":" ","ALLEY":" ","HOUSE_NO":"２９３號五樓之１","E_COORD97":171795.42000000001,"N_COORD97":2541842.4700000002,"ADDRESS":"東門路三段２９３號五樓之１","OBJECTID":532122},"geometry":{"x":171795.41999999993,"y":2541842.4700000025}},{"attributes":{"ID":532150,"DIS_CODE":0,"TOWNNAME":"東區","LI":"虎尾里","LIN":"30鄰","STREET":"東門路","SECT":"三段","MAREA":" ","LANE":" ","ALLEY":" ","HOUSE_NO":"２９３號五樓之２","E_COORD97":171795.42000000001,"N_COORD97":2541842.4700000002,"ADDRESS":"東門路三段２９３號五樓之２","OBJECTID":532123},"geometry":{"x":171795.41999999993,"y":2541842.4700000025}},{"attributes":{"ID":532151,"DIS_CODE":0,"TOWNNAME":"東區","LI":"虎尾里","LIN":"30鄰","STREET":"東門路","SECT":"三段","MAREA":" ","LANE":" ","ALLEY":" ","HOUSE_NO":"２９３號五樓之３","E_COORD97":171795.42000000001,"N_COORD97":2541842.4700000002,"ADDRESS":"東門路三段２９３號五樓之３","OBJECTID":532124},"geometry":{"x":171795.41999999993,"y":2541842.4700000025}},{"attributes":{"ID":532152,"DIS_CODE":0,"TOWNNAME":"東區","LI":"虎尾里","LIN":"30鄰","STREET":"東門路","SECT":"三段","MAREA":" ","LANE":" ","ALLEY":" ","HOUSE_NO":"２９３號五樓之５","E_COORD97":171795.42000000001,"N_COORD97":2541842.4700000002,"ADDRESS":"東門路三段２９３號五樓之５","OBJECTID":532125},"geometry":{"x":171795.41999999993,"y":2541842.4700000025}},{"attributes":{"ID":532153,"DIS_CODE":0,"TOWNNAME":"東區","LI":"虎尾里","LIN":"30鄰","STREET":"東門路","SECT":"三段","MAREA":" ","LANE":" ","ALLEY":" ","HOUSE_NO":"２９３號六樓之２","E_COORD97":171795.42000000001,"N_COORD97":2541842.4700000002,"ADDRESS":"東門路三段２９３號六樓之２","OBJECTID":532126},"geometry":{"x":171795.41999999993,"y":2541842.4700000025}},{"attributes":{"ID":532154,"DIS_CODE":0,"TOWNNAME":"東區","LI":"虎尾里","LIN":"30鄰","STREET":"東門路","SECT":"三段","MAREA":" ","LANE":" ","ALLEY":" ","HOUSE_NO":"２９３號六樓之３","E_COORD97":171795.42000000001,"N_COORD97":2541842.4700000002,"ADDRESS":"東門路三段２９３號六樓之３","OBJECTID":532127},"geometry":{"x":171795.41999999993,"y":2541842.4700000025}},{"attributes":{"ID":532155,"DIS_CODE":0,"TOWNNAME":"東區","LI":"虎尾里","LIN":"30鄰","STREET":"東門路","SECT":"三段","MAREA":" ","LANE":" ","ALLEY":" ","HOUSE_NO":"２９３號六樓之５","E_COORD97":171795.42000000001,"N_COORD97":2541842.4700000002,"ADDRESS":"東門路三段２９３號六樓之５","OBJECTID":532128},"geometry":{"x":171795.41999999993,"y":2541842.4700000025}},{"attributes":{"ID":532156,"DIS_CODE":0,"TOWNNAME":"東區","LI":"虎尾里","LIN":"30鄰","STREET":"東門路","SECT":"三段","MAREA":" ","LANE":" ","ALLEY":" ","HOUSE_NO":"２９３號四樓","E_COORD97":171795.42000000001,"N_COORD97":2541842.4700000002,"ADDRESS":"東門路三段２９３號四樓","OBJECTID":532129},"geometry":{"x":171795.41999999993,"y":2541842.4700000025}},{"attributes":{"ID":532157,"DIS_CODE":0,"TOWNNAME":"東區","LI":"虎尾里","LIN":"30鄰","STREET":"東門路","SECT":"三段","MAREA":" ","LANE":" ","ALLEY":" ","HOUSE_NO":"２９３號四樓之１","E_COORD97":171795.42000000001,"N_COORD97":2541842.4700000002,"ADDRESS":"東門路三段２９３號四樓之１","OBJECTID":532130},"geometry":{"x":171795.41999999993,"y":2541842.4700000025}},{"attributes":{"ID":532158,"DIS_CODE":0,"TOWNNAME":"東區","LI":"虎尾里","LIN":"30鄰","STREET":"東門路","SECT":"三段","MAREA":" ","LANE":" ","ALLEY":" ","HOUSE_NO":"２９３號四樓之２","E_COORD97":171795.42000000001,"N_COORD97":2541842.4700000002,"ADDRESS":"東門路三段２９３號四樓之２","OBJECTID":532131},"geometry":{"x":171795.41999999993,"y":2541842.4700000025}},{"attributes":{"ID":532159,"DIS_CODE":0,"TOWNNAME":"東區","LI":"虎尾里","LIN":"30鄰","STREET":"東門路","SECT":"三段","MAREA":" ","LANE":" ","ALLEY":" ","HOUSE_NO":"２９３號四樓之３","E_COORD97":171795.42000000001,"N_COORD97":2541842.4700000002,"ADDRESS":"東門路三段２９３號四樓之３","OBJECTID":532132},"geometry":{"x":171795.41999999993,"y":2541842.4700000025}},{"attributes":{"ID":532160,"DIS_CODE":0,"TOWNNAME":"東區","LI":"虎尾里","LIN":"30鄰","STREET":"東門路","SECT":"三段","MAREA":" ","LANE":" ","ALLEY":" ","HOUSE_NO":"２９３號四樓之５","E_COORD97":171795.42000000001,"N_COORD97":2541842.4700000002,"ADDRESS":"東門路三段２９３號四樓之５","OBJECTID":532133},"geometry":{"x":171795.41999999993,"y":2541842.4700000025}},{"attributes":{"ID":532161,"DIS_CODE":0,"TOWNNAME":"東區","LI":"虎尾里","LIN":"30鄰","STREET":"東門路","SECT":"三段","MAREA":" ","LANE":" ","ALLEY":" ","HOUSE_NO":"２９３號四樓之６","E_COORD97":171795.42000000001,"N_COORD97":2541842.4700000002,"ADDRESS":"東門路三段２９３號四樓之６","OBJECTID":532134},"geometry":{"x":171795.41999999993,"y":2541842.4700000025}},{"attributes":{"ID":532162,"DIS_CODE":0,"TOWNNAME":"東區","LI":"虎尾里","LIN":"30鄰","STREET":"東門路","SECT":"三段","MAREA":" ","LANE":" ","ALLEY":" ","HOUSE_NO":"２９３號四樓之７","E_COORD97":171795.42000000001,"N_COORD97":2541842.4700000002,"ADDRESS":"東門路三段２９３號四樓之７","OBJECTID":532135},"geometry":{"x":171795.41999999993,"y":2541842.4700000025}},{"attributes":{"ID":532163,"DIS_CODE":0,"TOWNNAME":"東區","LI":"泉南里","LIN":"30鄰","STREET":"府連路","SECT":" ","MAREA":" ","LANE":" ","ALLEY":" ","HOUSE_NO":"２８９號三樓","E_COORD97":169515.28,"N_COORD97":2542874.27,"ADDRESS":"府連路２８９號三樓","OBJECTID":532136},"geometry":{"x":169515.28000000212,"y":2542874.2700000014}},{"attributes":{"ID":532164,"DIS_CODE":0,"TOWNNAME":"東區","LI":"泉南里","LIN":"30鄰","STREET":"府連路","SECT":" ","MAREA":" ","LANE":" ","ALLEY":" ","HOUSE_NO":"２８９號五樓","E_COORD97":169515.28,"N_COORD97":2542874.27,"ADDRESS":"府連路２８９號五樓","OBJECTID":532137},"geometry":{"x":169515.28000000212,"y":2542874.2700000014}},{"attributes":{"ID":532165,"DIS_CODE":0,"TOWNNAME":"東區","LI":"泉南里","LIN":"30鄰","STREET":"府連路","SECT":" ","MAREA":" ","LANE":" ","ALLEY":" ","HOUSE_NO":"２８９號七樓","E_COORD97":169515.28,"N_COORD97":2542874.27,"ADDRESS":"府連路２８９號七樓","OBJECTID":532138},"geometry":{"x":169515.28000000212,"y":2542874.2700000014}},{"attributes":{"ID":532166,"DIS_CODE":0,"TOWNNAME":"新化區","LI":"東榮里","LIN":"30鄰","STREET":"信義路","SECT":" ","MAREA":" ","LANE":" ","ALLEY":" ","HOUSE_NO":"１６９號七樓之９","E_COORD97":179254.87,"N_COORD97":2548354.2599999998,"ADDRESS":"信義路１６９號七樓之９","OBJECTID":532139},"geometry":{"x":179254.87000000011,"y":2548354.2599999998}},{"attributes":{"ID":532167,"DIS_CODE":0,"TOWNNAME":"永康區","LI":"五王里","LIN":"30鄰","STREET":"中山東路","SECT":" ","MAREA":" ","LANE":" ","ALLEY":" ","HOUSE_NO":"１５８號十一樓之５","E_COORD97":171743.20999999999,"N_COORD97":2545814.4100000001,"ADDRESS":"中山東路１５８號十一樓之５","OBJECTID":532140},"geometry":{"x":171743.21000000089,"y":2545814.4100000001}},{"attributes":{"ID":532168,"DIS_CODE":0,"TOWNNAME":"永康區","LI":"五王里","LIN":"30鄰","STREET":"中山東路","SECT":" ","MAREA":" ","LANE":" ","ALLEY":" ","HOUSE_NO":"１１６號五樓之３","E_COORD97":171734.70999999999,"N_COORD97":2545932.3300000001,"ADDRESS":"中山東路１１６號五樓之３","OBJECTID":532141},"geometry":{"x":171734.71000000089,"y":2545932.3300000019}},{"attributes":{"ID":532169,"DIS_CODE":0,"TOWNNAME":"永康區","LI":"五王里","LIN":"30鄰","STREET":"中山東路","SECT":" ","MAREA":" ","LANE":" ","ALLEY":" ","HOUSE_NO":"１５８號十樓之７","E_COORD97":171741.89000000001,"N_COORD97":2545814.4100000001,"ADDRESS":"中山東路１５８號十樓之７","OBJECTID":532142},"geometry":{"x":171741.8900000006,"y":2545814.4100000001}},{"attributes":{"ID":532170,"DIS_CODE":0,"TOWNNAME":"永康區","LI":"五王里","LIN":"30鄰","STREET":"中山東路","SECT":" ","MAREA":" ","LANE":" ","ALLEY":" ","HOUSE_NO":"１１６號七樓之５","E_COORD97":171734.76000000001,"N_COORD97":2545932.3300000001,"ADDRESS":"中山東路１１６號七樓之５","OBJECTID":532143},"geometry":{"x":171734.75999999978,"y":2545932.3300000019}},{"attributes":{"ID":532171,"DIS_CODE":0,"TOWNNAME":"永康區","LI":"五王里","LIN":"30鄰","STREET":"中山東路","SECT":" ","MAREA":" ","LANE":" ","ALLEY":" ","HOUSE_NO":"１１６號五樓之５","E_COORD97":171734.76000000001,"N_COORD97":2545932.3300000001,"ADDRESS":"中山東路１１６號五樓之５","OBJECTID":532144},"geometry":{"x":171734.75999999978,"y":2545932.3300000019}},{"attributes":{"ID":532172,"DIS_CODE":0,"TOWNNAME":"永康區","LI":"五王里","LIN":"30鄰","STREET":"中山東路","SECT":" ","MAREA":" ","LANE":" ","ALLEY":" ","HOUSE_NO":"１６０號十一樓之３","E_COORD97":171738.76999999999,"N_COORD97":2545835.6499999999,"ADDRESS":"中山東路１６０號十一樓之３","OBJECTID":532145},"geometry":{"x":171738.77000000142,"y":2545835.6500000022}},{"attributes":{"ID":532173,"DIS_CODE":0,"TOWNNAME":"永康區","LI":"五王里","LIN":"30鄰","STREET":"中山東路","SECT":" ","MAREA":" ","LANE":" ","ALLEY":" ","HOUSE_NO":"１５８號八樓之６","E_COORD97":171741.91,"N_COORD97":2545814.4100000001,"ADDRESS":"中山東路１５８號八樓之６","OBJECTID":532146},"geometry":{"x":171741.91000000108,"y":2545814.4100000001}},{"attributes":{"ID":532174,"DIS_CODE":0,"TOWNNAME":"永康區","LI":"五王里","LIN":"30鄰","STREET":"中山東路","SECT":" ","MAREA":" ","LANE":" ","ALLEY":" ","HOUSE_NO":"１１６號五樓之６","E_COORD97":171734.70999999999,"N_COORD97":2545932.3300000001,"ADDRESS":"中山東路１１６號五樓之６","OBJECTID":532147},"geometry":{"x":171734.71000000089,"y":2545932.3300000019}},{"attributes":{"ID":532175,"DIS_CODE":0,"TOWNNAME":"東區","LI":"自強里","LIN":"30鄰","STREET":"中華東路","SECT":"二段","MAREA":" ","LANE":" ","ALLEY":" ","HOUSE_NO":"１９３號七樓之６","E_COORD97":171323.84,"N_COORD97":2542775.98,"ADDRESS":"中華東路二段１９３號七樓之６","OBJECTID":532148},"geometry":{"x":171323.84000000078,"y":2542775.9800000004}},{"attributes":{"ID":532176,"DIS_CODE":0,"TOWNNAME":"東區","LI":"自強里","LIN":"30鄰","STREET":"中華東路","SECT":"二段","MAREA":" ","LANE":" ","ALLEY":" ","HOUSE_NO":"１９３號七樓之７","E_COORD97":171323.84,"N_COORD97":2542775.98,"ADDRESS":"中華東路二段１９３號七樓之７","OBJECTID":532149},"geometry":{"x":171323.84000000078,"y":2542775.9800000004}},{"attributes":{"ID":532177,"DIS_CODE":0,"TOWNNAME":"東區","LI":"自強里","LIN":"30鄰","STREET":"中華東路","SECT":"二段","MAREA":" ","LANE":" ","ALLEY":" ","HOUSE_NO":"１９３號七樓","E_COORD97":171323.84,"N_COORD97":2542775.98,"ADDRESS":"中華東路二段１９３號七樓","OBJECTID":532150},"geometry":{"x":171323.84000000078,"y":2542775.9800000004}},{"attributes":{"ID":532178,"DIS_CODE":0,"TOWNNAME":"東區","LI":"自強里","LIN":"30鄰","STREET":"中華東路","SECT":"二段","MAREA":" ","LANE":" ","ALLEY":" ","HOUSE_NO":"１９３號七樓之１","E_COORD97":171323.84,"N_COORD97":2542775.98,"ADDRESS":"中華東路二段１９３號七樓之１","OBJECTID":532151},"geometry":{"x":171323.84000000078,"y":2542775.9800000004}},{"attributes":{"ID":532179,"DIS_CODE":0,"TOWNNAME":"東區","LI":"自強里","LIN":"30鄰","STREET":"中華東路","SECT":"二段","MAREA":" ","LANE":" ","ALLEY":" ","HOUSE_NO":"１９３號七樓之１０","E_COORD97":171323.84,"N_COORD97":2542775.98,"ADDRESS":"中華東路二段１９３號七樓之１０","OBJECTID":532152},"geometry":{"x":171323.84000000078,"y":2542775.9800000004}},{"attributes":{"ID":532180,"DIS_CODE":0,"TOWNNAME":"東區","LI":"自強里","LIN":"30鄰","STREET":"中華東路","SECT":"二段","MAREA":" ","LANE":" ","ALLEY":" ","HOUSE_NO":"１９３號七樓之１１","E_COORD97":171323.84,"N_COORD97":2542775.98,"ADDRESS":"中華東路二段１９３號七樓之１１","OBJECTID":532153},"geometry":{"x":171323.84000000078,"y":2542775.9800000004}},{"attributes":{"ID":532181,"DIS_CODE":0,"TOWNNAME":"東區","LI":"自強里","LIN":"30鄰","STREET":"中華東路","SECT":"二段","MAREA":" ","LANE":" ","ALLEY":" ","HOUSE_NO":"１９３號七樓之１２","E_COORD97":171323.84,"N_COORD97":2542775.98,"ADDRESS":"中華東路二段１９３號七樓之１２","OBJECTID":532154},"geometry":{"x":171323.84000000078,"y":2542775.9800000004}},{"attributes":{"ID":532182,"DIS_CODE":0,"TOWNNAME":"東區","LI":"自強里","LIN":"30鄰","STREET":"中華東路","SECT":"二段","MAREA":" ","LANE":" ","ALLEY":" ","HOUSE_NO":"１９３號七樓之１３","E_COORD97":171323.84,"N_COORD97":2542775.98,"ADDRESS":"中華東路二段１９３號七樓之１３","OBJECTID":532155},"geometry":{"x":171323.84000000078,"y":2542775.9800000004}},{"attributes":{"ID":532183,"DIS_CODE":0,"TOWNNAME":"東區","LI":"自強里","LIN":"30鄰","STREET":"中華東路","SECT":"二段","MAREA":" ","LANE":" ","ALLEY":" ","HOUSE_NO":"１９３號七樓之１４","E_COORD97":171323.84,"N_COORD97":2542775.98,"ADDRESS":"中華東路二段１９３號七樓之１４","OBJECTID":532156},"geometry":{"x":171323.84000000078,"y":2542775.9800000004}},{"attributes":{"ID":532184,"DIS_CODE":0,"TOWNNAME":"東區","LI":"自強里","LIN":"30鄰","STREET":"中華東路","SECT":"二段","MAREA":" ","LANE":" ","ALLEY":" ","HOUSE_NO":"１９３號七樓之１５","E_COORD97":171323.84,"N_COORD97":2542775.98,"ADDRESS":"中華東路二段１９３號七樓之１５","OBJECTID":532157},"geometry":{"x":171323.84000000078,"y":2542775.9800000004}},{"attributes":{"ID":532185,"DIS_CODE":0,"TOWNNAME":"東區","LI":"自強里","LIN":"30鄰","STREET":"中華東路","SECT":"二段","MAREA":" ","LANE":" ","ALLEY":" ","HOUSE_NO":"１９３號七樓之１６","E_COORD97":171323.84,"N_COORD97":2542775.98,"ADDRESS":"中華東路二段１９３號七樓之１６","OBJECTID":532158},"geometry":{"x":171323.84000000078,"y":2542775.9800000004}},{"attributes":{"ID":532186,"DIS_CODE":0,"TOWNNAME":"東區","LI":"自強里","LIN":"30鄰","STREET":"中華東路","SECT":"二段","MAREA":" ","LANE":" ","ALLEY":" ","HOUSE_NO":"１９３號七樓之２","E_COORD97":171323.84,"N_COORD97":2542775.98,"ADDRESS":"中華東路二段１９３號七樓之２","OBJECTID":532159},"geometry":{"x":171323.84000000078,"y":2542775.9800000004}},{"attributes":{"ID":532187,"DIS_CODE":0,"TOWNNAME":"東區","LI":"自強里","LIN":"30鄰","STREET":"中華東路","SECT":"二段","MAREA":" ","LANE":" ","ALLEY":" ","HOUSE_NO":"１９３號七樓之３","E_COORD97":171323.84,"N_COORD97":2542775.98,"ADDRESS":"中華東路二段１９３號七樓之３","OBJECTID":532160},"geometry":{"x":171323.84000000078,"y":2542775.9800000004}},{"attributes":{"ID":532188,"DIS_CODE":0,"TOWNNAME":"東區","LI":"自強里","LIN":"30鄰","STREET":"中華東路","SECT":"二段","MAREA":" ","LANE":" ","ALLEY":" ","HOUSE_NO":"１９３號七樓之５","E_COORD97":171323.84,"N_COORD97":2542775.98,"ADDRESS":"中華東路二段１９３號七樓之５","OBJECTID":532161},"geometry":{"x":171323.84000000078,"y":2542775.9800000004}},{"attributes":{"ID":532189,"DIS_CODE":0,"TOWNNAME":"東區","LI":"自強里","LIN":"30鄰","STREET":"中華東路","SECT":"二段","MAREA":" ","LANE":" ","ALLEY":" ","HOUSE_NO":"１９３號七樓之８","E_COORD97":171323.84,"N_COORD97":2542775.98,"ADDRESS":"中華東路二段１９３號七樓之８","OBJECTID":532162},"geometry":{"x":171323.84000000078,"y":2542775.9800000004}},{"attributes":{"ID":532190,"DIS_CODE":0,"TOWNNAME":"東區","LI":"自強里","LIN":"30鄰","STREET":"中華東路","SECT":"二段","MAREA":" ","LANE":" ","ALLEY":" ","HOUSE_NO":"１９３號七樓之９","E_COORD97":171323.84,"N_COORD97":2542775.98,"ADDRESS":"中華東路二段１９３號七樓之９","OBJECTID":532163},"geometry":{"x":171323.84000000078,"y":2542775.9800000004}},{"attributes":{"ID":532191,"DIS_CODE":0,"TOWNNAME":"東區","LI":"自強里","LIN":"30鄰","STREET":"中華東路","SECT":"二段","MAREA":" ","LANE":" ","ALLEY":" ","HOUSE_NO":"１９３號九樓","E_COORD97":171323.84,"N_COORD97":2542775.98,"ADDRESS":"中華東路二段１９３號九樓","OBJECTID":532164},"geometry":{"x":171323.84000000078,"y":2542775.9800000004}},{"attributes":{"ID":532192,"DIS_CODE":0,"TOWNNAME":"東區","LI":"自強里","LIN":"30鄰","STREET":"中華東路","SECT":"二段","MAREA":" ","LANE":" ","ALLEY":" ","HOUSE_NO":"１９３號九樓之１","E_COORD97":171323.84,"N_COORD97":2542775.98,"ADDRESS":"中華東路二段１９３號九樓之１","OBJECTID":532165},"geometry":{"x":171323.84000000078,"y":2542775.9800000004}},{"attributes":{"ID":532193,"DIS_CODE":0,"TOWNNAME":"東區","LI":"自強里","LIN":"30鄰","STREET":"中華東路","SECT":"二段","MAREA":" ","LANE":" ","ALLEY":" ","HOUSE_NO":"１９３號九樓之１０","E_COORD97":171323.84,"N_COORD97":2542775.98,"ADDRESS":"中華東路二段１９３號九樓之１０","OBJECTID":532166},"geometry":{"x":171323.84000000078,"y":2542775.9800000004}},{"attributes":{"ID":532194,"DIS_CODE":0,"TOWNNAME":"東區","LI":"自強里","LIN":"30鄰","STREET":"中華東路","SECT":"二段","MAREA":" ","LANE":" ","ALLEY":" ","HOUSE_NO":"１９３號九樓之１１","E_COORD97":171323.84,"N_COORD97":2542775.98,"ADDRESS":"中華東路二段１９３號九樓之１１","OBJECTID":532167},"geometry":{"x":171323.84000000078,"y":2542775.9800000004}},{"attributes":{"ID":532195,"DIS_CODE":0,"TOWNNAME":"東區","LI":"自強里","LIN":"30鄰","STREET":"中華東路","SECT":"二段","MAREA":" ","LANE":" ","ALLEY":" ","HOUSE_NO":"１９３號九樓之１２","E_COORD97":171323.84,"N_COORD97":2542775.98,"ADDRESS":"中華東路二段１９３號九樓之１２","OBJECTID":532168},"geometry":{"x":171323.84000000078,"y":2542775.9800000004}},{"attributes":{"ID":532196,"DIS_CODE":0,"TOWNNAME":"東區","LI":"自強里","LIN":"30鄰","STREET":"中華東路","SECT":"二段","MAREA":" ","LANE":" ","ALLEY":" ","HOUSE_NO":"１９３號九樓之１３","E_COORD97":171323.84,"N_COORD97":2542775.98,"ADDRESS":"中華東路二段１９３號九樓之１３","OBJECTID":532169},"geometry":{"x":171323.84000000078,"y":2542775.9800000004}},{"attributes":{"ID":532197,"DIS_CODE":0,"TOWNNAME":"東區","LI":"自強里","LIN":"30鄰","STREET":"中華東路","SECT":"二段","MAREA":" ","LANE":" ","ALLEY":" ","HOUSE_NO":"１９３號九樓之１４","E_COORD97":171323.84,"N_COORD97":2542775.98,"ADDRESS":"中華東路二段１９３號九樓之１４","OBJECTID":532170},"geometry":{"x":171323.84000000078,"y":2542775.9800000004}},{"attributes":{"ID":532198,"DIS_CODE":0,"TOWNNAME":"東區","LI":"自強里","LIN":"30鄰","STREET":"中華東路","SECT":"二段","MAREA":" ","LANE":" ","ALLEY":" ","HOUSE_NO":"１９３號九樓之１５","E_COORD97":171323.84,"N_COORD97":2542775.98,"ADDRESS":"中華東路二段１９３號九樓之１５","OBJECTID":532171},"geometry":{"x":171323.84000000078,"y":2542775.9800000004}},{"attributes":{"ID":532199,"DIS_CODE":0,"TOWNNAME":"東區","LI":"自強里","LIN":"30鄰","STREET":"中華東路","SECT":"二段","MAREA":" ","LANE":" ","ALLEY":" ","HOUSE_NO":"１９３號九樓之１６","E_COORD97":171323.84,"N_COORD97":2542775.98,"ADDRESS":"中華東路二段１９３號九樓之１６","OBJECTID":532172},"geometry":{"x":171323.84000000078,"y":2542775.9800000004}},{"attributes":{"ID":532200,"DIS_CODE":0,"TOWNNAME":"東區","LI":"自強里","LIN":"30鄰","STREET":"中華東路","SECT":"二段","MAREA":" ","LANE":" ","ALLEY":" ","HOUSE_NO":"１９３號九樓之２","E_COORD97":171323.84,"N_COORD97":2542775.98,"ADDRESS":"中華東路二段１９３號九樓之２","OBJECTID":532173},"geometry":{"x":171323.84000000078,"y":2542775.9800000004}},{"attributes":{"ID":532201,"DIS_CODE":0,"TOWNNAME":"東區","LI":"自強里","LIN":"30鄰","STREET":"中華東路","SECT":"二段","MAREA":" ","LANE":" ","ALLEY":" ","HOUSE_NO":"１９３號九樓之３","E_COORD97":171323.84,"N_COORD97":2542775.98,"ADDRESS":"中華東路二段１９３號九樓之３","OBJECTID":532174},"geometry":{"x":171323.84000000078,"y":2542775.9800000004}},{"attributes":{"ID":532202,"DIS_CODE":0,"TOWNNAME":"東區","LI":"自強里","LIN":"30鄰","STREET":"中華東路","SECT":"二段","MAREA":" ","LANE":" ","ALLEY":" ","HOUSE_NO":"１９３號九樓之５","E_COORD97":171323.84,"N_COORD97":2542775.98,"ADDRESS":"中華東路二段１９３號九樓之５","OBJECTID":532175},"geometry":{"x":171323.84000000078,"y":2542775.9800000004}},{"attributes":{"ID":532203,"DIS_CODE":0,"TOWNNAME":"東區","LI":"自強里","LIN":"30鄰","STREET":"中華東路","SECT":"二段","MAREA":" ","LANE":" ","ALLEY":" ","HOUSE_NO":"１９３號九樓之６","E_COORD97":171323.84,"N_COORD97":2542775.98,"ADDRESS":"中華東路二段１９３號九樓之６","OBJECTID":532176},"geometry":{"x":171323.84000000078,"y":2542775.9800000004}},{"attributes":{"ID":532204,"DIS_CODE":0,"TOWNNAME":"東區","LI":"自強里","LIN":"30鄰","STREET":"中華東路","SECT":"二段","MAREA":" ","LANE":" ","ALLEY":" ","HOUSE_NO":"１９３號九樓之７","E_COORD97":171323.84,"N_COORD97":2542775.98,"ADDRESS":"中華東路二段１９３號九樓之７","OBJECTID":532177},"geometry":{"x":171323.84000000078,"y":2542775.9800000004}},{"attributes":{"ID":532205,"DIS_CODE":0,"TOWNNAME":"東區","LI":"自強里","LIN":"30鄰","STREET":"中華東路","SECT":"二段","MAREA":" ","LANE":" ","ALLEY":" ","HOUSE_NO":"１９３號九樓之８","E_COORD97":171323.84,"N_COORD97":2542775.98,"ADDRESS":"中華東路二段１９３號九樓之８","OBJECTID":532178},"geometry":{"x":171323.84000000078,"y":2542775.9800000004}},{"attributes":{"ID":532206,"DIS_CODE":0,"TOWNNAME":"東區","LI":"自強里","LIN":"30鄰","STREET":"中華東路","SECT":"二段","MAREA":" ","LANE":" ","ALLEY":" ","HOUSE_NO":"１９３號九樓之９","E_COORD97":171323.84,"N_COORD97":2542775.98,"ADDRESS":"中華東路二段１９３號九樓之９","OBJECTID":532179},"geometry":{"x":171323.84000000078,"y":2542775.9800000004}},{"attributes":{"ID":532207,"DIS_CODE":0,"TOWNNAME":"東區","LI":"自強里","LIN":"30鄰","STREET":"中華東路","SECT":"二段","MAREA":" ","LANE":" ","ALLEY":" ","HOUSE_NO":"１９３號二十樓","E_COORD97":171323.84,"N_COORD97":2542775.98,"ADDRESS":"中華東路二段１９３號二十樓","OBJECTID":532180},"geometry":{"x":171323.84000000078,"y":2542775.9800000004}},{"attributes":{"ID":532208,"DIS_CODE":0,"TOWNNAME":"東區","LI":"自強里","LIN":"30鄰","STREET":"中華東路","SECT":"二段","MAREA":" ","LANE":" ","ALLEY":" ","HOUSE_NO":"１９３號二十樓之１","E_COORD97":171323.84,"N_COORD97":2542775.98,"ADDRESS":"中華東路二段１９３號二十樓之１","OBJECTID":532181},"geometry":{"x":171323.84000000078,"y":2542775.9800000004}},{"attributes":{"ID":532209,"DIS_CODE":0,"TOWNNAME":"東區","LI":"自強里","LIN":"30鄰","STREET":"中華東路","SECT":"二段","MAREA":" ","LANE":" ","ALLEY":" ","HOUSE_NO":"１９３號二十樓之２","E_COORD97":171323.84,"N_COORD97":2542775.98,"ADDRESS":"中華東路二段１９３號二十樓之２","OBJECTID":532182},"geometry":{"x":171323.84000000078,"y":2542775.9800000004}},{"attributes":{"ID":532210,"DIS_CODE":0,"TOWNNAME":"東區","LI":"自強里","LIN":"30鄰","STREET":"中華東路","SECT":"二段","MAREA":" ","LANE":" ","ALLEY":" ","HOUSE_NO":"１９３號二十樓之３","E_COORD97":171323.84,"N_COORD97":2542775.98,"ADDRESS":"中華東路二段１９３號二十樓之３","OBJECTID":532183},"geometry":{"x":171323.84000000078,"y":2542775.9800000004}},{"attributes":{"ID":532211,"DIS_CODE":0,"TOWNNAME":"東區","LI":"自強里","LIN":"30鄰","STREET":"中華東路","SECT":"二段","MAREA":" ","LANE":" ","ALLEY":" ","HOUSE_NO":"１９３號二十樓之５","E_COORD97":171323.84,"N_COORD97":2542775.98,"ADDRESS":"中華東路二段１９３號二十樓之５","OBJECTID":532184},"geometry":{"x":171323.84000000078,"y":2542775.9800000004}},{"attributes":{"ID":532212,"DIS_CODE":0,"TOWNNAME":"東區","LI":"自強里","LIN":"30鄰","STREET":"中華東路","SECT":"二段","MAREA":" ","LANE":" ","ALLEY":" ","HOUSE_NO":"１９３號二十樓之６","E_COORD97":171323.84,"N_COORD97":2542775.98,"ADDRESS":"中華東路二段１９３號二十樓之６","OBJECTID":532185},"geometry":{"x":171323.84000000078,"y":2542775.9800000004}},{"attributes":{"ID":532213,"DIS_CODE":0,"TOWNNAME":"東區","LI":"自強里","LIN":"30鄰","STREET":"中華東路","SECT":"二段","MAREA":" ","LANE":" ","ALLEY":" ","HOUSE_NO":"１９３號二十樓之７","E_COORD97":171323.84,"N_COORD97":2542775.98,"ADDRESS":"中華東路二段１９３號二十樓之７","OBJECTID":532186},"geometry":{"x":171323.84000000078,"y":2542775.9800000004}},{"attributes":{"ID":532214,"DIS_CODE":0,"TOWNNAME":"東區","LI":"自強里","LIN":"30鄰","STREET":"中華東路","SECT":"二段","MAREA":" ","LANE":" ","ALLEY":" ","HOUSE_NO":"１９３號二十樓之８","E_COORD97":171323.84,"N_COORD97":2542775.98,"ADDRESS":"中華東路二段１９３號二十樓之８","OBJECTID":532187},"geometry":{"x":171323.84000000078,"y":2542775.9800000004}},{"attributes":{"ID":532215,"DIS_CODE":0,"TOWNNAME":"東區","LI":"自強里","LIN":"30鄰","STREET":"中華東路","SECT":"二段","MAREA":" ","LANE":" ","ALLEY":" ","HOUSE_NO":"１９３號二十樓之９","E_COORD97":171323.84,"N_COORD97":2542775.98,"ADDRESS":"中華東路二段１９３號二十樓之９","OBJECTID":532188},"geometry":{"x":171323.84000000078,"y":2542775.9800000004}},{"attributes":{"ID":532216,"DIS_CODE":0,"TOWNNAME":"東區","LI":"自強里","LIN":"30鄰","STREET":"中華東路","SECT":"二段","MAREA":" ","LANE":" ","ALLEY":" ","HOUSE_NO":"１９３號八樓","E_COORD97":171323.84,"N_COORD97":2542775.98,"ADDRESS":"中華東路二段１９３號八樓","OBJECTID":532189},"geometry":{"x":171323.84000000078,"y":2542775.9800000004}},{"attributes":{"ID":532217,"DIS_CODE":0,"TOWNNAME":"東區","LI":"自強里","LIN":"30鄰","STREET":"中華東路","SECT":"二段","MAREA":" ","LANE":" ","ALLEY":" ","HOUSE_NO":"１９３號八樓之１","E_COORD97":171323.84,"N_COORD97":2542775.98,"ADDRESS":"中華東路二段１９３號八樓之１","OBJECTID":532190},"geometry":{"x":171323.84000000078,"y":2542775.9800000004}},{"attributes":{"ID":532218,"DIS_CODE":0,"TOWNNAME":"東區","LI":"自強里","LIN":"30鄰","STREET":"中華東路","SECT":"二段","MAREA":" ","LANE":" ","ALLEY":" ","HOUSE_NO":"１９３號八樓之１０","E_COORD97":171323.84,"N_COORD97":2542775.98,"ADDRESS":"中華東路二段１９３號八樓之１０","OBJECTID":532191},"geometry":{"x":171323.84000000078,"y":2542775.9800000004}},{"attributes":{"ID":532219,"DIS_CODE":0,"TOWNNAME":"東區","LI":"自強里","LIN":"30鄰","STREET":"中華東路","SECT":"二段","MAREA":" ","LANE":" ","ALLEY":" ","HOUSE_NO":"１９３號八樓之１１","E_COORD97":171323.84,"N_COORD97":2542775.98,"ADDRESS":"中華東路二段１９３號八樓之１１","OBJECTID":532192},"geometry":{"x":171323.84000000078,"y":2542775.9800000004}},{"attributes":{"ID":532220,"DIS_CODE":0,"TOWNNAME":"東區","LI":"自強里","LIN":"30鄰","STREET":"中華東路","SECT":"二段","MAREA":" ","LANE":" ","ALLEY":" ","HOUSE_NO":"１９３號八樓之１２","E_COORD97":171323.84,"N_COORD97":2542775.98,"ADDRESS":"中華東路二段１９３號八樓之１２","OBJECTID":532193},"geometry":{"x":171323.84000000078,"y":2542775.9800000004}},{"attributes":{"ID":532221,"DIS_CODE":0,"TOWNNAME":"東區","LI":"自強里","LIN":"30鄰","STREET":"中華東路","SECT":"二段","MAREA":" ","LANE":" ","ALLEY":" ","HOUSE_NO":"１９３號八樓之１３","E_COORD97":171323.84,"N_COORD97":2542775.98,"ADDRESS":"中華東路二段１９３號八樓之１３","OBJECTID":532194},"geometry":{"x":171323.84000000078,"y":2542775.9800000004}},{"attributes":{"ID":532222,"DIS_CODE":0,"TOWNNAME":"東區","LI":"自強里","LIN":"30鄰","STREET":"中華東路","SECT":"二段","MAREA":" ","LANE":" ","ALLEY":" ","HOUSE_NO":"１９３號八樓之１４","E_COORD97":171323.84,"N_COORD97":2542775.98,"ADDRESS":"中華東路二段１９３號八樓之１４","OBJECTID":532195},"geometry":{"x":171323.84000000078,"y":2542775.9800000004}},{"attributes":{"ID":532223,"DIS_CODE":0,"TOWNNAME":"東區","LI":"自強里","LIN":"30鄰","STREET":"中華東路","SECT":"二段","MAREA":" ","LANE":" ","ALLEY":" ","HOUSE_NO":"１９３號八樓之１５","E_COORD97":171323.84,"N_COORD97":2542775.98,"ADDRESS":"中華東路二段１９３號八樓之１５","OBJECTID":532196},"geometry":{"x":171323.84000000078,"y":2542775.9800000004}},{"attributes":{"ID":532224,"DIS_CODE":0,"TOWNNAME":"東區","LI":"自強里","LIN":"30鄰","STREET":"中華東路","SECT":"二段","MAREA":" ","LANE":" ","ALLEY":" ","HOUSE_NO":"１９３號八樓之２","E_COORD97":171323.84,"N_COORD97":2542775.98,"ADDRESS":"中華東路二段１９３號八樓之２","OBJECTID":532197},"geometry":{"x":171323.84000000078,"y":2542775.9800000004}},{"attributes":{"ID":532225,"DIS_CODE":0,"TOWNNAME":"東區","LI":"自強里","LIN":"30鄰","STREET":"中華東路","SECT":"二段","MAREA":" ","LANE":" ","ALLEY":" ","HOUSE_NO":"１９３號八樓之３","E_COORD97":171323.84,"N_COORD97":2542775.98,"ADDRESS":"中華東路二段１９３號八樓之３","OBJECTID":532198},"geometry":{"x":171323.84000000078,"y":2542775.9800000004}},{"attributes":{"ID":532226,"DIS_CODE":0,"TOWNNAME":"東區","LI":"自強里","LIN":"30鄰","STREET":"中華東路","SECT":"二段","MAREA":" ","LANE":" ","ALLEY":" ","HOUSE_NO":"１９３號八樓之５","E_COORD97":171323.84,"N_COORD97":2542775.98,"ADDRESS":"中華東路二段１９３號八樓之５","OBJECTID":532199},"geometry":{"x":171323.84000000078,"y":2542775.9800000004}},{"attributes":{"ID":532227,"DIS_CODE":0,"TOWNNAME":"東區","LI":"自強里","LIN":"30鄰","STREET":"中華東路","SECT":"二段","MAREA":" ","LANE":" ","ALLEY":" ","HOUSE_NO":"１９３號八樓之６","E_COORD97":171323.84,"N_COORD97":2542775.98,"ADDRESS":"中華東路二段１９３號八樓之６","OBJECTID":532200},"geometry":{"x":171323.84000000078,"y":2542775.9800000004}}]}