{"displayFieldName":"TOWNNAME","fieldAliases":{"ID":"ID","DIS_CODE":"DIS_CODE","TOWNNAME":"TOWNNAME","LI":"LI","LIN":"LIN","STREET":"STREET","SECT":"SECT","MAREA":"MAREA","LANE":"LANE","ALLEY":"ALLEY","HOUSE_NO":"HOUSE_NO","E_COORD97":"E_COORD97","N_COORD97":"N_COORD97","ADDRESS":"ADDRESS","OBJECTID":"OBJECTID"},"geometryType":"esriGeometryPoint","spatialReference":{"wkid":102443,"latestWkid":3826},"fields":[{"name":"ID","type":"esriFieldTypeDouble","alias":"ID"},{"name":"DIS_CODE","type":"esriFieldTypeInteger","alias":"DIS_CODE"},{"name":"TOWNNAME","type":"esriFieldTypeString","alias":"TOWNNAME","length":8},{"name":"LI","type":"esriFieldTypeString","alias":"LI","length":8},{"name":"LIN","type":"esriFieldTypeString","alias":"LIN","length":12},{"name":"STREET","type":"esriFieldTypeString","alias":"STREET","length":20},{"name":"SECT","type":"esriFieldTypeString","alias":"SECT","length":8},{"name":"MAREA","type":"esriFieldTypeString","alias":"MAREA","length":12},{"name":"LANE","type":"esriFieldTypeString","alias":"LANE","length":10},{"name":"ALLEY","type":"esriFieldTypeString","alias":"ALLEY","length":10},{"name":"HOUSE_NO","type":"esriFieldTypeString","alias":"HOUSE_NO","length":20},{"name":"E_COORD97","type":"esriFieldTypeDouble","alias":"E_COORD97"},{"name":"N_COORD97","type":"esriFieldTypeDouble","alias":"N_COORD97"},{"name":"ADDRESS","type":"esriFieldTypeString","alias":"ADDRESS","length":50},{"name":"OBJECTID","type":"esriFieldTypeOID","alias":"OBJECTID"}],"features":[{"attributes":{"ID":311009,"DIS_CODE":0,"TOWNNAME":"安平區","LI":"金城里","LIN":"7鄰","STREET":"同平路","SECT":" ","MAREA":" ","LANE":"９６巷","ALLEY":" ","HOUSE_NO":"４４號","E_COORD97":163004.53,"N_COORD97":2544225.0899999999,"ADDRESS":"同平路９６巷４４號","OBJECTID":311001},"geometry":{"x":163004.53000000119,"y":2544225.0900000017}},{"attributes":{"ID":311010,"DIS_CODE":0,"TOWNNAME":"安平區","LI":"金城里","LIN":"7鄰","STREET":"同平路","SECT":" ","MAREA":" ","LANE":"９６巷","ALLEY":" ","HOUSE_NO":"４７號","E_COORD97":163027.09,"N_COORD97":2544206.21,"ADDRESS":"同平路９６巷４７號","OBJECTID":311002},"geometry":{"x":163027.09000000078,"y":2544206.2100000009}},{"attributes":{"ID":311011,"DIS_CODE":0,"TOWNNAME":"安平區","LI":"金城里","LIN":"7鄰","STREET":"同平路","SECT":" ","MAREA":" ","LANE":"９６巷","ALLEY":" ","HOUSE_NO":"４９號","E_COORD97":163018.67999999999,"N_COORD97":2544204.6499999999,"ADDRESS":"同平路９６巷４９號","OBJECTID":311003},"geometry":{"x":163018.6799999997,"y":2544204.6500000022}},{"attributes":{"ID":311012,"DIS_CODE":0,"TOWNNAME":"安平區","LI":"金城里","LIN":"7鄰","STREET":"同平路","SECT":" ","MAREA":" ","LANE":"９６巷","ALLEY":" ","HOUSE_NO":"５１號","E_COORD97":163012.76000000001,"N_COORD97":2544204.3500000001,"ADDRESS":"同平路９６巷５１號","OBJECTID":311004},"geometry":{"x":163012.76000000071,"y":2544204.3499999978}},{"attributes":{"ID":311013,"DIS_CODE":0,"TOWNNAME":"安平區","LI":"金城里","LIN":"7鄰","STREET":"同平路","SECT":" ","MAREA":" ","LANE":"９６巷","ALLEY":" ","HOUSE_NO":"５３號","E_COORD97":163008.09,"N_COORD97":2544204.0299999998,"ADDRESS":"同平路９６巷５３號","OBJECTID":311005},"geometry":{"x":163008.08999999985,"y":2544204.0300000012}},{"attributes":{"ID":311014,"DIS_CODE":0,"TOWNNAME":"安平區","LI":"金城里","LIN":"7鄰","STREET":"同平路","SECT":" ","MAREA":" ","LANE":"９６巷","ALLEY":" ","HOUSE_NO":"１５號","E_COORD97":163129.09,"N_COORD97":2544197.9900000002,"ADDRESS":"同平路９６巷１５號","OBJECTID":311006},"geometry":{"x":163129.09000000078,"y":2544197.9900000021}},{"attributes":{"ID":311015,"DIS_CODE":0,"TOWNNAME":"安平區","LI":"金城里","LIN":"7鄰","STREET":"同平路","SECT":" ","MAREA":" ","LANE":"９６巷","ALLEY":" ","HOUSE_NO":"２７號","E_COORD97":163092.32999999999,"N_COORD97":2544201.0699999998,"ADDRESS":"同平路９６巷２７號","OBJECTID":311007},"geometry":{"x":163092.33000000101,"y":2544201.0700000022}},{"attributes":{"ID":311016,"DIS_CODE":0,"TOWNNAME":"安平區","LI":"金城里","LIN":"7鄰","STREET":"同平路","SECT":" ","MAREA":" ","LANE":"９６巷","ALLEY":" ","HOUSE_NO":"３１號","E_COORD97":163077.38,"N_COORD97":2544206.21,"ADDRESS":"同平路９６巷３１號","OBJECTID":311008},"geometry":{"x":163077.37999999989,"y":2544206.2100000009}},{"attributes":{"ID":311017,"DIS_CODE":0,"TOWNNAME":"新營區","LI":"新東里","LIN":"3鄰","STREET":"東大街","SECT":" ","MAREA":" ","LANE":" ","ALLEY":" ","HOUSE_NO":"４８號","E_COORD97":181013.10000000001,"N_COORD97":2579130.54,"ADDRESS":"東大街４８號","OBJECTID":311009},"geometry":{"x":181013.10000000056,"y":2579130.5400000028}},{"attributes":{"ID":311018,"DIS_CODE":0,"TOWNNAME":"東區","LI":"東光里","LIN":"17鄰","STREET":"東興路","SECT":" ","MAREA":" ","LANE":" ","ALLEY":" ","HOUSE_NO":"１９５號六樓之２","E_COORD97":170998.14000000001,"N_COORD97":2543847.6800000002,"ADDRESS":"東興路１９５號六樓之２","OBJECTID":311010},"geometry":{"x":170998.13999999966,"y":2543847.6800000016}},{"attributes":{"ID":311019,"DIS_CODE":0,"TOWNNAME":"下營區","LI":"賀建里","LIN":"8鄰","STREET":" ","SECT":" ","MAREA":"火燒珠","LANE":" ","ALLEY":" ","HOUSE_NO":"１號之２","E_COORD97":176612.89000000001,"N_COORD97":2572611.2799999998,"ADDRESS":"火燒珠１號之２","OBJECTID":311011},"geometry":{"x":176612.88999999966,"y":2572611.2799999993}},{"attributes":{"ID":311020,"DIS_CODE":0,"TOWNNAME":"下營區","LI":"賀建里","LIN":"8鄰","STREET":" ","SECT":" ","MAREA":"火燒珠","LANE":" ","ALLEY":" ","HOUSE_NO":"１號之３","E_COORD97":176645.5,"N_COORD97":2572692.75,"ADDRESS":"火燒珠１號之３","OBJECTID":311012},"geometry":{"x":176645.50000000093,"y":2572692.7500000019}},{"attributes":{"ID":311021,"DIS_CODE":0,"TOWNNAME":"安平區","LI":"金城里","LIN":"7鄰","STREET":"同平路","SECT":" ","MAREA":" ","LANE":"９６巷","ALLEY":" ","HOUSE_NO":"３７號","E_COORD97":163050.60000000001,"N_COORD97":2544206.21,"ADDRESS":"同平路９６巷３７號","OBJECTID":311013},"geometry":{"x":163050.60000000056,"y":2544206.2100000009}},{"attributes":{"ID":311022,"DIS_CODE":0,"TOWNNAME":"下營區","LI":"賀建里","LIN":"10鄰","STREET":" ","SECT":" ","MAREA":"火燒珠","LANE":" ","ALLEY":" ","HOUSE_NO":"２２號","E_COORD97":176673.57000000001,"N_COORD97":2572859.9500000002,"ADDRESS":"火燒珠２２號","OBJECTID":311014},"geometry":{"x":176673.5700000003,"y":2572859.9500000011}},{"attributes":{"ID":311023,"DIS_CODE":0,"TOWNNAME":"下營區","LI":"賀建里","LIN":"10鄰","STREET":" ","SECT":" ","MAREA":"火燒珠","LANE":" ","ALLEY":" ","HOUSE_NO":"２３之１號","E_COORD97":176658.64999999999,"N_COORD97":2572871.8700000001,"ADDRESS":"火燒珠２３之１號","OBJECTID":311015},"geometry":{"x":176658.6500000013,"y":2572871.8700000029}},{"attributes":{"ID":311024,"DIS_CODE":0,"TOWNNAME":"下營區","LI":"賀建里","LIN":"8鄰","STREET":" ","SECT":" ","MAREA":"火燒珠","LANE":" ","ALLEY":" ","HOUSE_NO":"２號之１","E_COORD97":176686.07000000001,"N_COORD97":2572715.6099999999,"ADDRESS":"火燒珠２號之１","OBJECTID":311016},"geometry":{"x":176686.07000000123,"y":2572715.6100000031}},{"attributes":{"ID":311025,"DIS_CODE":0,"TOWNNAME":"安平區","LI":"金城里","LIN":"7鄰","STREET":"同平路","SECT":" ","MAREA":" ","LANE":"９６巷","ALLEY":" ","HOUSE_NO":"３９號","E_COORD97":163051.53,"N_COORD97":2544195.0099999998,"ADDRESS":"同平路９６巷３９號","OBJECTID":311017},"geometry":{"x":163051.53000000212,"y":2544195.0100000016}},{"attributes":{"ID":311026,"DIS_CODE":0,"TOWNNAME":"下營區","LI":"賀建里","LIN":"8鄰","STREET":" ","SECT":" ","MAREA":"火燒珠","LANE":" ","ALLEY":" ","HOUSE_NO":"２號之２","E_COORD97":176676.44,"N_COORD97":2572707.29,"ADDRESS":"火燒珠２號之２","OBJECTID":311018},"geometry":{"x":176676.43999999948,"y":2572707.2900000028}},{"attributes":{"ID":311027,"DIS_CODE":0,"TOWNNAME":"下營區","LI":"賀建里","LIN":"8鄰","STREET":" ","SECT":" ","MAREA":"火燒珠","LANE":" ","ALLEY":" ","HOUSE_NO":"２號之３","E_COORD97":176712.22,"N_COORD97":2572691.48,"ADDRESS":"火燒珠２號之３","OBJECTID":311019},"geometry":{"x":176712.21999999974,"y":2572691.4800000023}},{"attributes":{"ID":311028,"DIS_CODE":0,"TOWNNAME":"下營區","LI":"賀建里","LIN":"8鄰","STREET":" ","SECT":" ","MAREA":"火燒珠","LANE":" ","ALLEY":" ","HOUSE_NO":"５號","E_COORD97":176646.84,"N_COORD97":2572739.9500000002,"ADDRESS":"火燒珠５號","OBJECTID":311020},"geometry":{"x":176646.84000000078,"y":2572739.9499999993}},{"attributes":{"ID":311029,"DIS_CODE":0,"TOWNNAME":"下營區","LI":"賀建里","LIN":"8鄰","STREET":" ","SECT":" ","MAREA":"火燒珠","LANE":" ","ALLEY":" ","HOUSE_NO":"６號","E_COORD97":176667.73999999999,"N_COORD97":2572751.2000000002,"ADDRESS":"火燒珠６號","OBJECTID":311021},"geometry":{"x":176667.74000000115,"y":2572751.1999999993}},{"attributes":{"ID":311030,"DIS_CODE":0,"TOWNNAME":"下營區","LI":"賀建里","LIN":"8鄰","STREET":" ","SECT":" ","MAREA":"火燒珠","LANE":" ","ALLEY":" ","HOUSE_NO":"７號之１","E_COORD97":176631.01000000001,"N_COORD97":2572760.2599999998,"ADDRESS":"火燒珠７號之１","OBJECTID":311022},"geometry":{"x":176631.00999999978,"y":2572760.2600000016}},{"attributes":{"ID":311031,"DIS_CODE":0,"TOWNNAME":"安平區","LI":"金城里","LIN":"7鄰","STREET":"同平路","SECT":" ","MAREA":" ","LANE":"９６巷","ALLEY":" ","HOUSE_NO":"４１號","E_COORD97":163042.35000000001,"N_COORD97":2544204.3399999999,"ADDRESS":"同平路９６巷４１號","OBJECTID":311023},"geometry":{"x":163042.35000000056,"y":2544204.3399999999}},{"attributes":{"ID":311032,"DIS_CODE":0,"TOWNNAME":"安平區","LI":"金城里","LIN":"7鄰","STREET":"同平路","SECT":" ","MAREA":" ","LANE":"９６巷","ALLEY":" ","HOUSE_NO":"４３號","E_COORD97":163037.20999999999,"N_COORD97":2544204.96,"ADDRESS":"同平路９６巷４３號","OBJECTID":311024},"geometry":{"x":163037.21000000089,"y":2544204.959999999}},{"attributes":{"ID":311033,"DIS_CODE":0,"TOWNNAME":"下營區","LI":"下營里","LIN":"14鄰","STREET":"民族一街","SECT":" ","MAREA":" ","LANE":" ","ALLEY":" ","HOUSE_NO":"２號","E_COORD97":174509.85000000001,"N_COORD97":2570572.8199999998,"ADDRESS":"民族一街２號","OBJECTID":311025},"geometry":{"x":174509.85000000149,"y":2570572.8200000022}},{"attributes":{"ID":311034,"DIS_CODE":0,"TOWNNAME":"安平區","LI":"金城里","LIN":"7鄰","STREET":"同平路","SECT":" ","MAREA":" ","LANE":"９６巷","ALLEY":" ","HOUSE_NO":"４５號","E_COORD97":163033.32000000001,"N_COORD97":2544204.8100000001,"ADDRESS":"同平路９６巷４５號","OBJECTID":311026},"geometry":{"x":163033.32000000123,"y":2544204.8100000005}},{"attributes":{"ID":311035,"DIS_CODE":0,"TOWNNAME":"安平區","LI":"國平里","LIN":"7鄰","STREET":"文平路","SECT":" ","MAREA":" ","LANE":"１８７巷","ALLEY":" ","HOUSE_NO":"１０１號","E_COORD97":165432.57000000001,"N_COORD97":2543082.21,"ADDRESS":"文平路１８７巷１０１號","OBJECTID":311027},"geometry":{"x":165432.5700000003,"y":2543082.2100000028}},{"attributes":{"ID":311036,"DIS_CODE":0,"TOWNNAME":"安平區","LI":"金城里","LIN":"7鄰","STREET":"同平路","SECT":" ","MAREA":" ","LANE":"９６巷","ALLEY":" ","HOUSE_NO":"１０號","E_COORD97":163151.89000000001,"N_COORD97":2544204.6899999999,"ADDRESS":"同平路９６巷１０號","OBJECTID":311028},"geometry":{"x":163151.89000000153,"y":2544204.6899999995}},{"attributes":{"ID":311037,"DIS_CODE":0,"TOWNNAME":"安平區","LI":"金城里","LIN":"7鄰","STREET":"同平路","SECT":" ","MAREA":" ","LANE":"９６巷","ALLEY":" ","HOUSE_NO":"１２號","E_COORD97":163140.35999999999,"N_COORD97":2544208.8999999999,"ADDRESS":"同平路９６巷１２號","OBJECTID":311029},"geometry":{"x":163140.36000000034,"y":2544208.9000000022}},{"attributes":{"ID":311038,"DIS_CODE":0,"TOWNNAME":"安平區","LI":"金城里","LIN":"7鄰","STREET":"同平路","SECT":" ","MAREA":" ","LANE":"９６巷","ALLEY":" ","HOUSE_NO":"１４號","E_COORD97":163128.82999999999,"N_COORD97":2544211.3900000001,"ADDRESS":"同平路９６巷１４號","OBJECTID":311030},"geometry":{"x":163128.82999999914,"y":2544211.3900000006}},{"attributes":{"ID":311039,"DIS_CODE":0,"TOWNNAME":"下營區","LI":"西連里","LIN":"8鄰","STREET":" ","SECT":" ","MAREA":"西寮","LANE":" ","ALLEY":" ","HOUSE_NO":"３７號","E_COORD97":174665.01999999999,"N_COORD97":2567410.0699999998,"ADDRESS":"西寮３７號","OBJECTID":311031},"geometry":{"x":174665.02000000048,"y":2567410.0700000003}},{"attributes":{"ID":311040,"DIS_CODE":0,"TOWNNAME":"下營區","LI":"西連里","LIN":"6鄰","STREET":" ","SECT":" ","MAREA":"西寮","LANE":" ","ALLEY":" ","HOUSE_NO":"１３號之１０","E_COORD97":174589.95999999999,"N_COORD97":2567725.96,"ADDRESS":"西寮１３號之１０","OBJECTID":311032},"geometry":{"x":174589.96000000089,"y":2567725.9600000009}},{"attributes":{"ID":311041,"DIS_CODE":0,"TOWNNAME":"下營區","LI":"西連里","LIN":"10鄰","STREET":" ","SECT":" ","MAREA":"西寮","LANE":" ","ALLEY":" ","HOUSE_NO":"５２號","E_COORD97":174554.92000000001,"N_COORD97":2567431.8799999999,"ADDRESS":"西寮５２號","OBJECTID":311033},"geometry":{"x":174554.91999999993,"y":2567431.8800000008}},{"attributes":{"ID":311042,"DIS_CODE":0,"TOWNNAME":"下營區","LI":"西連里","LIN":"5鄰","STREET":" ","SECT":" ","MAREA":"西寮","LANE":" ","ALLEY":" ","HOUSE_NO":"６號之１","E_COORD97":174478.10999999999,"N_COORD97":2567459.73,"ADDRESS":"西寮６號之１","OBJECTID":311034},"geometry":{"x":174478.11000000034,"y":2567459.7300000004}},{"attributes":{"ID":311043,"DIS_CODE":0,"TOWNNAME":"下營區","LI":"西連里","LIN":"10鄰","STREET":" ","SECT":" ","MAREA":"西寮","LANE":" ","ALLEY":" ","HOUSE_NO":"６１號","E_COORD97":174622.22,"N_COORD97":2567309.0499999998,"ADDRESS":"西寮６１號","OBJECTID":311035},"geometry":{"x":174622.21999999974,"y":2567309.0500000007}},{"attributes":{"ID":311044,"DIS_CODE":0,"TOWNNAME":"下營區","LI":"西連里","LIN":"10鄰","STREET":" ","SECT":" ","MAREA":"西寮","LANE":" ","ALLEY":" ","HOUSE_NO":"６２號","E_COORD97":174661.29000000001,"N_COORD97":2567290.8500000001,"ADDRESS":"西寮６２號","OBJECTID":311036},"geometry":{"x":174661.29000000004,"y":2567290.8500000015}},{"attributes":{"ID":311045,"DIS_CODE":0,"TOWNNAME":"下營區","LI":"西連里","LIN":"10鄰","STREET":" ","SECT":" ","MAREA":"西寮","LANE":" ","ALLEY":" ","HOUSE_NO":"６３號之１","E_COORD97":174672.44,"N_COORD97":2567288.6699999999,"ADDRESS":"西寮６３號之１","OBJECTID":311037},"geometry":{"x":174672.44000000041,"y":2567288.6700000018}},{"attributes":{"ID":311046,"DIS_CODE":0,"TOWNNAME":"下營區","LI":"西連里","LIN":"10鄰","STREET":" ","SECT":" ","MAREA":"西寮","LANE":" ","ALLEY":" ","HOUSE_NO":"６３號","E_COORD97":174681.79000000001,"N_COORD97":2567288.3399999999,"ADDRESS":"西寮６３號","OBJECTID":311038},"geometry":{"x":174681.78999999911,"y":2567288.3399999999}},{"attributes":{"ID":311047,"DIS_CODE":0,"TOWNNAME":"下營區","LI":"西連里","LIN":"10鄰","STREET":" ","SECT":" ","MAREA":"西寮","LANE":" ","ALLEY":" ","HOUSE_NO":"６４號之１","E_COORD97":174679.78,"N_COORD97":2567248.3500000001,"ADDRESS":"西寮６４號之１","OBJECTID":311039},"geometry":{"x":174679.78000000026,"y":2567248.3499999996}},{"attributes":{"ID":311048,"DIS_CODE":0,"TOWNNAME":"安平區","LI":"金城里","LIN":"7鄰","STREET":"同平路","SECT":" ","MAREA":" ","LANE":"９６巷","ALLEY":" ","HOUSE_NO":"１８號","E_COORD97":163118.07000000001,"N_COORD97":2544215.1299999999,"ADDRESS":"同平路９６巷１８號","OBJECTID":311040},"geometry":{"x":163118.07000000123,"y":2544215.129999999}},{"attributes":{"ID":311049,"DIS_CODE":0,"TOWNNAME":"安平區","LI":"金城里","LIN":"7鄰","STREET":"同平路","SECT":" ","MAREA":" ","LANE":"９６巷","ALLEY":" ","HOUSE_NO":"２０號","E_COORD97":163107.94,"N_COORD97":2544219.1699999999,"ADDRESS":"同平路９６巷２０號","OBJECTID":311041},"geometry":{"x":163107.94000000041,"y":2544219.1699999999}},{"attributes":{"ID":311050,"DIS_CODE":0,"TOWNNAME":"安平區","LI":"金城里","LIN":"7鄰","STREET":"同平路","SECT":" ","MAREA":" ","LANE":"９６巷","ALLEY":" ","HOUSE_NO":"２２號","E_COORD97":163101.07999999999,"N_COORD97":2544222.1299999999,"ADDRESS":"同平路９６巷２２號","OBJECTID":311042},"geometry":{"x":163101.08000000007,"y":2544222.1299999971}},{"attributes":{"ID":311051,"DIS_CODE":0,"TOWNNAME":"安平區","LI":"金城里","LIN":"7鄰","STREET":"同平路","SECT":" ","MAREA":" ","LANE":"９６巷","ALLEY":" ","HOUSE_NO":"２６號","E_COORD97":163081.45000000001,"N_COORD97":2544220.73,"ADDRESS":"同平路９６巷２６號","OBJECTID":311043},"geometry":{"x":163081.45000000112,"y":2544220.7300000023}},{"attributes":{"ID":311052,"DIS_CODE":0,"TOWNNAME":"安平區","LI":"金城里","LIN":"7鄰","STREET":"同平路","SECT":" ","MAREA":" ","LANE":"９６巷","ALLEY":" ","HOUSE_NO":"２８號","E_COORD97":163071.78,"N_COORD97":2544221.3500000001,"ADDRESS":"同平路９６巷２８號","OBJECTID":311044},"geometry":{"x":163071.77999999933,"y":2544221.3499999978}},{"attributes":{"ID":311053,"DIS_CODE":0,"TOWNNAME":"安平區","LI":"金城里","LIN":"7鄰","STREET":"同平路","SECT":" ","MAREA":" ","LANE":"９６巷","ALLEY":" ","HOUSE_NO":"３０號","E_COORD97":163064.53,"N_COORD97":2544227.5800000001,"ADDRESS":"同平路９６巷３０號","OBJECTID":311045},"geometry":{"x":163064.53000000026,"y":2544227.5800000019}},{"attributes":{"ID":311054,"DIS_CODE":0,"TOWNNAME":"南區","LI":"省躬里","LIN":"7鄰","STREET":"省躬一街","SECT":" ","MAREA":" ","LANE":"３２巷","ALLEY":" ","HOUSE_NO":"１０號","E_COORD97":165765.20999999999,"N_COORD97":2537041.3999999999,"ADDRESS":"省躬一街３２巷１０號","OBJECTID":311046},"geometry":{"x":165765.20999999996,"y":2537041.4000000041}},{"attributes":{"ID":311055,"DIS_CODE":0,"TOWNNAME":"南區","LI":"省躬里","LIN":"7鄰","STREET":"省躬一街","SECT":" ","MAREA":" ","LANE":"３２巷","ALLEY":" ","HOUSE_NO":"１２號","E_COORD97":165760.07000000001,"N_COORD97":2537042.8199999998,"ADDRESS":"省躬一街３２巷１２號","OBJECTID":311047},"geometry":{"x":165760.06999999937,"y":2537042.8200000022}},{"attributes":{"ID":311056,"DIS_CODE":0,"TOWNNAME":"南區","LI":"省躬里","LIN":"7鄰","STREET":"省躬一街","SECT":" ","MAREA":" ","LANE":"３２巷","ALLEY":" ","HOUSE_NO":"１４號","E_COORD97":165756.64000000001,"N_COORD97":2537039.6800000002,"ADDRESS":"省躬一街３２巷１４號","OBJECTID":311048},"geometry":{"x":165756.63999999966,"y":2537039.6800000016}},{"attributes":{"ID":311057,"DIS_CODE":0,"TOWNNAME":"將軍區","LI":"仁和里","LIN":"19鄰","STREET":" ","SECT":" ","MAREA":"和巷","LANE":" ","ALLEY":" ","HOUSE_NO":"６９號","E_COORD97":163886.10999999999,"N_COORD97":2569356,"ADDRESS":"和巷６９號","OBJECTID":311049},"geometry":{"x":163886.11000000034,"y":2569356}},{"attributes":{"ID":311058,"DIS_CODE":0,"TOWNNAME":"將軍區","LI":"仁和里","LIN":"19鄰","STREET":" ","SECT":" ","MAREA":"和巷","LANE":" ","ALLEY":" ","HOUSE_NO":"６６號","E_COORD97":163913.13,"N_COORD97":2569306.0099999998,"ADDRESS":"和巷６６號","OBJECTID":311050},"geometry":{"x":163913.12999999989,"y":2569306.0100000035}},{"attributes":{"ID":311059,"DIS_CODE":0,"TOWNNAME":"南區","LI":"省躬里","LIN":"7鄰","STREET":"省躬一街","SECT":" ","MAREA":" ","LANE":"３２巷","ALLEY":" ","HOUSE_NO":"１６號","E_COORD97":165752.63,"N_COORD97":2537037.9700000002,"ADDRESS":"省躬一街３２巷１６號","OBJECTID":311051},"geometry":{"x":165752.63000000175,"y":2537037.9700000025}},{"attributes":{"ID":311060,"DIS_CODE":0,"TOWNNAME":"下營區","LI":"西連里","LIN":"7鄰","STREET":" ","SECT":" ","MAREA":"西寮","LANE":" ","ALLEY":" ","HOUSE_NO":"２４號","E_COORD97":174627.48999999999,"N_COORD97":2567451.7400000002,"ADDRESS":"西寮２４號","OBJECTID":311052},"geometry":{"x":174627.49000000022,"y":2567451.7400000021}},{"attributes":{"ID":311061,"DIS_CODE":0,"TOWNNAME":"下營區","LI":"西連里","LIN":"7鄰","STREET":" ","SECT":" ","MAREA":"西寮","LANE":" ","ALLEY":" ","HOUSE_NO":"２５號之１０","E_COORD97":174655.95999999999,"N_COORD97":2567526.9500000002,"ADDRESS":"西寮２５號之１０","OBJECTID":311053},"geometry":{"x":174655.96000000089,"y":2567526.9500000011}},{"attributes":{"ID":311062,"DIS_CODE":0,"TOWNNAME":"下營區","LI":"西連里","LIN":"7鄰","STREET":" ","SECT":" ","MAREA":"西寮","LANE":" ","ALLEY":" ","HOUSE_NO":"２５號之１１","E_COORD97":174682.76000000001,"N_COORD97":2567502.46,"ADDRESS":"西寮２５號之１１","OBJECTID":311054},"geometry":{"x":174682.75999999978,"y":2567502.4600000009}},{"attributes":{"ID":311063,"DIS_CODE":0,"TOWNNAME":"下營區","LI":"西連里","LIN":"6鄰","STREET":" ","SECT":" ","MAREA":"西寮","LANE":" ","ALLEY":" ","HOUSE_NO":"１３號之２６","E_COORD97":173060.82999999999,"N_COORD97":2567525.8300000001,"ADDRESS":"西寮１３號之２６","OBJECTID":311055},"geometry":{"x":173060.83000000007,"y":2567525.8300000019}},{"attributes":{"ID":311064,"DIS_CODE":0,"TOWNNAME":"下營區","LI":"西連里","LIN":"6鄰","STREET":" ","SECT":" ","MAREA":"西寮","LANE":" ","ALLEY":" ","HOUSE_NO":"１３號之２７","E_COORD97":173178.92999999999,"N_COORD97":2567481.8300000001,"ADDRESS":"西寮１３號之２７","OBJECTID":311056},"geometry":{"x":173178.93000000063,"y":2567481.8300000001}},{"attributes":{"ID":311065,"DIS_CODE":0,"TOWNNAME":"南區","LI":"省躬里","LIN":"7鄰","STREET":"省躬一街","SECT":" ","MAREA":" ","LANE":"３２巷","ALLEY":" ","HOUSE_NO":"１８號","E_COORD97":165746.63,"N_COORD97":2537038.8300000001,"ADDRESS":"省躬一街３２巷１８號","OBJECTID":311057},"geometry":{"x":165746.63000000082,"y":2537038.8300000019}},{"attributes":{"ID":311066,"DIS_CODE":0,"TOWNNAME":"南區","LI":"省躬里","LIN":"7鄰","STREET":"省躬一街","SECT":" ","MAREA":" ","LANE":"３２巷","ALLEY":" ","HOUSE_NO":"２號","E_COORD97":165776.92999999999,"N_COORD97":2537048.8199999998,"ADDRESS":"省躬一街３２巷２號","OBJECTID":311058},"geometry":{"x":165776.9299999997,"y":2537048.8200000022}},{"attributes":{"ID":311067,"DIS_CODE":0,"TOWNNAME":"南區","LI":"省躬里","LIN":"7鄰","STREET":"省躬一街","SECT":" ","MAREA":" ","LANE":"３２巷","ALLEY":" ","HOUSE_NO":"６號","E_COORD97":165773.5,"N_COORD97":2537046.5299999998,"ADDRESS":"省躬一街３２巷６號","OBJECTID":311059},"geometry":{"x":165773.5,"y":2537046.5300000012}},{"attributes":{"ID":311068,"DIS_CODE":0,"TOWNNAME":"南區","LI":"省躬里","LIN":"7鄰","STREET":"省躬一街","SECT":" ","MAREA":" ","LANE":"３２巷","ALLEY":" ","HOUSE_NO":"８號","E_COORD97":165768.92999999999,"N_COORD97":2537043.6800000002,"ADDRESS":"省躬一街３２巷８號","OBJECTID":311060},"geometry":{"x":165768.92999999877,"y":2537043.6799999997}},{"attributes":{"ID":311069,"DIS_CODE":0,"TOWNNAME":"南區","LI":"省躬里","LIN":"7鄰","STREET":"省躬一街","SECT":" ","MAREA":" ","LANE":"３２巷","ALLEY":" ","HOUSE_NO":"１號","E_COORD97":165785.22,"N_COORD97":2537021.9900000002,"ADDRESS":"省躬一街３２巷１號","OBJECTID":311061},"geometry":{"x":165785.21999999974,"y":2537021.9900000002}},{"attributes":{"ID":311070,"DIS_CODE":0,"TOWNNAME":"下營區","LI":"賀建里","LIN":"13鄰","STREET":" ","SECT":" ","MAREA":"洲子","LANE":" ","ALLEY":" ","HOUSE_NO":"１２號","E_COORD97":177334.53,"N_COORD97":2572145.5699999998,"ADDRESS":"洲子１２號","OBJECTID":311062},"geometry":{"x":177334.53000000026,"y":2572145.5700000022}},{"attributes":{"ID":311071,"DIS_CODE":0,"TOWNNAME":"下營區","LI":"賀建里","LIN":"13鄰","STREET":" ","SECT":" ","MAREA":"洲子","LANE":" ","ALLEY":" ","HOUSE_NO":"１３號","E_COORD97":177358.26999999999,"N_COORD97":2572160.2599999998,"ADDRESS":"洲子１３號","OBJECTID":311063},"geometry":{"x":177358.27000000142,"y":2572160.2600000016}},{"attributes":{"ID":311072,"DIS_CODE":0,"TOWNNAME":"下營區","LI":"賀建里","LIN":"13鄰","STREET":" ","SECT":" ","MAREA":"洲子","LANE":" ","ALLEY":" ","HOUSE_NO":"１４號之１","E_COORD97":177386.67999999999,"N_COORD97":2572187.5600000001,"ADDRESS":"洲子１４號之１","OBJECTID":311064},"geometry":{"x":177386.68000000063,"y":2572187.5600000005}},{"attributes":{"ID":311073,"DIS_CODE":0,"TOWNNAME":"下營區","LI":"賀建里","LIN":"13鄰","STREET":" ","SECT":" ","MAREA":"洲子","LANE":" ","ALLEY":" ","HOUSE_NO":"１４號","E_COORD97":177372.19,"N_COORD97":2572161.77,"ADDRESS":"洲子１４號","OBJECTID":311065},"geometry":{"x":177372.19000000134,"y":2572161.7699999996}},{"attributes":{"ID":311074,"DIS_CODE":0,"TOWNNAME":"南區","LI":"省躬里","LIN":"7鄰","STREET":"省躬一街","SECT":" ","MAREA":" ","LANE":"３２巷","ALLEY":" ","HOUSE_NO":"３號","E_COORD97":165780.94,"N_COORD97":2537019.7000000002,"ADDRESS":"省躬一街３２巷３號","OBJECTID":311066},"geometry":{"x":165780.94000000041,"y":2537019.6999999993}},{"attributes":{"ID":311075,"DIS_CODE":0,"TOWNNAME":"南區","LI":"省躬里","LIN":"7鄰","STREET":"省躬一街","SECT":" ","MAREA":" ","LANE":"３２巷","ALLEY":" ","HOUSE_NO":"５號","E_COORD97":165776.07999999999,"N_COORD97":2537021.7000000002,"ADDRESS":"省躬一街３２巷５號","OBJECTID":311067},"geometry":{"x":165776.08000000007,"y":2537021.7000000011}},{"attributes":{"ID":311076,"DIS_CODE":0,"TOWNNAME":"下營區","LI":"賀建里","LIN":"13鄰","STREET":" ","SECT":" ","MAREA":"洲子","LANE":" ","ALLEY":" ","HOUSE_NO":"１６號","E_COORD97":177395.91,"N_COORD97":2572161.3300000001,"ADDRESS":"洲子１６號","OBJECTID":311068},"geometry":{"x":177395.91000000108,"y":2572161.3300000001}},{"attributes":{"ID":311077,"DIS_CODE":0,"TOWNNAME":"南區","LI":"省躬里","LIN":"7鄰","STREET":"省躬一街","SECT":" ","MAREA":" ","LANE":"３２巷","ALLEY":" ","HOUSE_NO":"７號","E_COORD97":165772.07000000001,"N_COORD97":2537018.2799999998,"ADDRESS":"省躬一街３２巷７號","OBJECTID":311069},"geometry":{"x":165772.07000000216,"y":2537018.2800000012}},{"attributes":{"ID":311078,"DIS_CODE":0,"TOWNNAME":"南區","LI":"鯤鯓里","LIN":"7鄰","STREET":"鯤鯓路","SECT":" ","MAREA":" ","LANE":"１０４巷","ALLEY":" ","HOUSE_NO":"５１號","E_COORD97":164949,"N_COORD97":2540104.1200000001,"ADDRESS":"鯤鯓路１０４巷５１號","OBJECTID":311070},"geometry":{"x":164949.00000000093,"y":2540104.120000001}},{"attributes":{"ID":311079,"DIS_CODE":0,"TOWNNAME":"南區","LI":"鯤鯓里","LIN":"7鄰","STREET":"鯤鯓路","SECT":" ","MAREA":" ","LANE":"１３７巷","ALLEY":" ","HOUSE_NO":"２號","E_COORD97":164890.82999999999,"N_COORD97":2540096.1600000001,"ADDRESS":"鯤鯓路１３７巷２號","OBJECTID":311071},"geometry":{"x":164890.83000000101,"y":2540096.1600000001}},{"attributes":{"ID":311080,"DIS_CODE":0,"TOWNNAME":"下營區","LI":"賀建里","LIN":"13鄰","STREET":" ","SECT":" ","MAREA":"洲子","LANE":" ","ALLEY":" ","HOUSE_NO":"１７號之１","E_COORD97":177416.48999999999,"N_COORD97":2572202.04,"ADDRESS":"洲子１７號之１","OBJECTID":311072},"geometry":{"x":177416.49000000022,"y":2572202.040000001}},{"attributes":{"ID":311081,"DIS_CODE":0,"TOWNNAME":"下營區","LI":"紅厝里","LIN":"17鄰","STREET":" ","SECT":" ","MAREA":"紅毛厝","LANE":" ","ALLEY":" ","HOUSE_NO":"１２４號","E_COORD97":175070.79000000001,"N_COORD97":2571480.04,"ADDRESS":"紅毛厝１２４號","OBJECTID":311073},"geometry":{"x":175070.79000000097,"y":2571480.0399999991}},{"attributes":{"ID":311082,"DIS_CODE":0,"TOWNNAME":"下營區","LI":"紅厝里","LIN":"17鄰","STREET":" ","SECT":" ","MAREA":"紅毛厝","LANE":" ","ALLEY":" ","HOUSE_NO":"１２５號之１","E_COORD97":175042.79999999999,"N_COORD97":2571515.7999999998,"ADDRESS":"紅毛厝１２５號之１","OBJECTID":311074},"geometry":{"x":175042.80000000168,"y":2571515.8000000045}},{"attributes":{"ID":311083,"DIS_CODE":0,"TOWNNAME":"南區","LI":"鯤鯓里","LIN":"7鄰","STREET":"鯤鯓路","SECT":" ","MAREA":" ","LANE":"１３７巷","ALLEY":" ","HOUSE_NO":"４號","E_COORD97":164871.60000000001,"N_COORD97":2540093.46,"ADDRESS":"鯤鯓路１３７巷４號","OBJECTID":311075},"geometry":{"x":164871.60000000056,"y":2540093.4600000028}},{"attributes":{"ID":311084,"DIS_CODE":0,"TOWNNAME":"南區","LI":"鯤鯓里","LIN":"7鄰","STREET":"鯤鯓路","SECT":" ","MAREA":" ","LANE":"１３７巷","ALLEY":" ","HOUSE_NO":"６號","E_COORD97":164844.35999999999,"N_COORD97":2540081.9900000002,"ADDRESS":"鯤鯓路１３７巷６號","OBJECTID":311076},"geometry":{"x":164844.36000000034,"y":2540081.9900000021}},{"attributes":{"ID":311085,"DIS_CODE":0,"TOWNNAME":"南區","LI":"鯤鯓里","LIN":"7鄰","STREET":"鯤鯓路","SECT":" ","MAREA":" ","LANE":"１３７巷","ALLEY":" ","HOUSE_NO":"８號","E_COORD97":164808.39999999999,"N_COORD97":2540076.3199999998,"ADDRESS":"鯤鯓路１３７巷８號","OBJECTID":311077},"geometry":{"x":164808.40000000037,"y":2540076.3200000022}},{"attributes":{"ID":311086,"DIS_CODE":0,"TOWNNAME":"六甲區","LI":"七甲里","LIN":"7鄰","STREET":"七甲街","SECT":" ","MAREA":" ","LANE":"１０８巷","ALLEY":" ","HOUSE_NO":"７號","E_COORD97":183063.12,"N_COORD97":2569054.7999999998,"ADDRESS":"七甲街１０８巷７號","OBJECTID":311078},"geometry":{"x":183063.12000000104,"y":2569054.8000000026}},{"attributes":{"ID":311087,"DIS_CODE":0,"TOWNNAME":"六甲區","LI":"七甲里","LIN":"7鄰","STREET":"七甲街","SECT":" ","MAREA":" ","LANE":"１１２巷","ALLEY":" ","HOUSE_NO":"１號","E_COORD97":183057.41,"N_COORD97":2569068.46,"ADDRESS":"七甲街１１２巷１號","OBJECTID":311079},"geometry":{"x":183057.41000000108,"y":2569068.4600000028}},{"attributes":{"ID":311088,"DIS_CODE":0,"TOWNNAME":"六甲區","LI":"七甲里","LIN":"7鄰","STREET":"七甲街","SECT":" ","MAREA":" ","LANE":"１１２巷","ALLEY":" ","HOUSE_NO":"２號","E_COORD97":183069.45999999999,"N_COORD97":2569080.52,"ADDRESS":"七甲街１１２巷２號","OBJECTID":311080},"geometry":{"x":183069.45999999996,"y":2569080.5199999996}},{"attributes":{"ID":311089,"DIS_CODE":0,"TOWNNAME":"下營區","LI":"紅厝里","LIN":"17鄰","STREET":" ","SECT":" ","MAREA":"紅毛厝","LANE":" ","ALLEY":" ","HOUSE_NO":"１２５號","E_COORD97":175047.87,"N_COORD97":2571493.79,"ADDRESS":"紅毛厝１２５號","OBJECTID":311081},"geometry":{"x":175047.87000000104,"y":2571493.7900000028}},{"attributes":{"ID":311090,"DIS_CODE":0,"TOWNNAME":"下營區","LI":"紅厝里","LIN":"3鄰","STREET":" ","SECT":" ","MAREA":"紅毛厝","LANE":" ","ALLEY":" ","HOUSE_NO":"１４號之１０","E_COORD97":174716.97,"N_COORD97":2571804.8500000001,"ADDRESS":"紅毛厝１４號之１０","OBJECTID":311082},"geometry":{"x":174716.96999999974,"y":2571804.8499999996}},{"attributes":{"ID":311091,"DIS_CODE":0,"TOWNNAME":"下營區","LI":"茅港里","LIN":"4鄰","STREET":" ","SECT":" ","MAREA":"茅港尾","LANE":" ","ALLEY":" ","HOUSE_NO":"５２號","E_COORD97":176757.23999999999,"N_COORD97":2569114.2200000002,"ADDRESS":"茅港尾５２號","OBJECTID":311083},"geometry":{"x":176757.23999999929,"y":2569114.2200000007}},{"attributes":{"ID":311092,"DIS_CODE":0,"TOWNNAME":"下營區","LI":"茅港里","LIN":"4鄰","STREET":" ","SECT":" ","MAREA":"茅港尾","LANE":" ","ALLEY":" ","HOUSE_NO":"５３之６號","E_COORD97":176900.70999999999,"N_COORD97":2569070.8500000001,"ADDRESS":"茅港尾５３之６號","OBJECTID":311084},"geometry":{"x":176900.70999999996,"y":2569070.8500000015}},{"attributes":{"ID":311093,"DIS_CODE":0,"TOWNNAME":"下營區","LI":"營前里","LIN":"26鄰","STREET":"健康路","SECT":" ","MAREA":" ","LANE":"１２６巷","ALLEY":" ","HOUSE_NO":"２號","E_COORD97":174817.19,"N_COORD97":2570171.6299999999,"ADDRESS":"健康路１２６巷２號","OBJECTID":311085},"geometry":{"x":174817.19000000134,"y":2570171.629999999}},{"attributes":{"ID":311094,"DIS_CODE":0,"TOWNNAME":"下營區","LI":"茅港里","LIN":"4鄰","STREET":" ","SECT":" ","MAREA":"茅港尾","LANE":" ","ALLEY":" ","HOUSE_NO":"５３號","E_COORD97":176774.32999999999,"N_COORD97":2569104.8100000001,"ADDRESS":"茅港尾５３號","OBJECTID":311086},"geometry":{"x":176774.33000000101,"y":2569104.8100000042}},{"attributes":{"ID":311095,"DIS_CODE":0,"TOWNNAME":"下營區","LI":"茅港里","LIN":"4鄰","STREET":" ","SECT":" ","MAREA":"茅港尾","LANE":" ","ALLEY":" ","HOUSE_NO":"５４號之２","E_COORD97":176766.62,"N_COORD97":2569576.7400000002,"ADDRESS":"茅港尾５４號之２","OBJECTID":311087},"geometry":{"x":176766.62000000197,"y":2569576.7400000021}},{"attributes":{"ID":311096,"DIS_CODE":0,"TOWNNAME":"下營區","LI":"茅港里","LIN":"4鄰","STREET":" ","SECT":" ","MAREA":"茅港尾","LANE":" ","ALLEY":" ","HOUSE_NO":"５４號之５","E_COORD97":176757.64999999999,"N_COORD97":2569706.8500000001,"ADDRESS":"茅港尾５４號之５","OBJECTID":311088},"geometry":{"x":176757.65000000037,"y":2569706.8499999978}},{"attributes":{"ID":311097,"DIS_CODE":0,"TOWNNAME":"下營區","LI":"茅港里","LIN":"4鄰","STREET":" ","SECT":" ","MAREA":"茅港尾","LANE":" ","ALLEY":" ","HOUSE_NO":"５４之６號","E_COORD97":176795.17000000001,"N_COORD97":2569364.02,"ADDRESS":"茅港尾５４之６號","OBJECTID":311089},"geometry":{"x":176795.17000000086,"y":2569364.0200000014}},{"attributes":{"ID":311098,"DIS_CODE":0,"TOWNNAME":"下營區","LI":"茅港里","LIN":"4鄰","STREET":" ","SECT":" ","MAREA":"茅港尾","LANE":" ","ALLEY":" ","HOUSE_NO":"５５號","E_COORD97":177209.42999999999,"N_COORD97":2569115.9500000002,"ADDRESS":"茅港尾５５號","OBJECTID":311090},"geometry":{"x":177209.4299999997,"y":2569115.950000003}},{"attributes":{"ID":311099,"DIS_CODE":0,"TOWNNAME":"六甲區","LI":"七甲里","LIN":"7鄰","STREET":"七甲街","SECT":" ","MAREA":" ","LANE":"１１２巷","ALLEY":" ","HOUSE_NO":"４號","E_COORD97":183072.64000000001,"N_COORD97":2569104.1000000001,"ADDRESS":"七甲街１１２巷４號","OBJECTID":311091},"geometry":{"x":183072.6400000006,"y":2569104.0999999996}},{"attributes":{"ID":311100,"DIS_CODE":0,"TOWNNAME":"南區","LI":"建南里","LIN":"7鄰","STREET":"德興路","SECT":" ","MAREA":" ","LANE":"１９０巷","ALLEY":" ","HOUSE_NO":"３０號","E_COORD97":167119.42000000001,"N_COORD97":2540208.0099999998,"ADDRESS":"德興路１９０巷３０號","OBJECTID":311092},"geometry":{"x":167119.42000000086,"y":2540208.0100000016}},{"attributes":{"ID":311101,"DIS_CODE":0,"TOWNNAME":"南區","LI":"建南里","LIN":"7鄰","STREET":"德興路","SECT":" ","MAREA":" ","LANE":"１９０巷","ALLEY":" ","HOUSE_NO":"３２號","E_COORD97":167112.26999999999,"N_COORD97":2540204.8999999999,"ADDRESS":"德興路１９０巷３２號","OBJECTID":311093},"geometry":{"x":167112.26999999955,"y":2540204.9000000022}},{"attributes":{"ID":311102,"DIS_CODE":0,"TOWNNAME":"南區","LI":"建南里","LIN":"7鄰","STREET":"德興路","SECT":" ","MAREA":" ","LANE":"１９０巷","ALLEY":" ","HOUSE_NO":"３４號","E_COORD97":167109.89000000001,"N_COORD97":2540209.5099999998,"ADDRESS":"德興路１９０巷３４號","OBJECTID":311094},"geometry":{"x":167109.88999999966,"y":2540209.5099999979}},{"attributes":{"ID":311103,"DIS_CODE":0,"TOWNNAME":"下營區","LI":"茅港里","LIN":"4鄰","STREET":" ","SECT":" ","MAREA":"茅港尾","LANE":" ","ALLEY":" ","HOUSE_NO":"５６號","E_COORD97":177231.10000000001,"N_COORD97":2569134.8500000001,"ADDRESS":"茅港尾５６號","OBJECTID":311095},"geometry":{"x":177231.10000000056,"y":2569134.8500000015}},{"attributes":{"ID":311104,"DIS_CODE":0,"TOWNNAME":"下營區","LI":"茅港里","LIN":"4鄰","STREET":" ","SECT":" ","MAREA":"茅港尾","LANE":" ","ALLEY":" ","HOUSE_NO":"５７號","E_COORD97":177225.56,"N_COORD97":2569108.02,"ADDRESS":"茅港尾５７號","OBJECTID":311096},"geometry":{"x":177225.55999999959,"y":2569108.0199999996}},{"attributes":{"ID":311105,"DIS_CODE":0,"TOWNNAME":"下營區","LI":"茅港里","LIN":"8鄰","STREET":" ","SECT":" ","MAREA":"茅港尾","LANE":" ","ALLEY":" ","HOUSE_NO":"６７號之１","E_COORD97":177355.44,"N_COORD97":2568932.7000000002,"ADDRESS":"茅港尾６７號之１","OBJECTID":311097},"geometry":{"x":177355.44000000134,"y":2568932.7000000011}},{"attributes":{"ID":311106,"DIS_CODE":0,"TOWNNAME":"下營區","LI":"茅港里","LIN":"1鄰","STREET":" ","SECT":" ","MAREA":"茅港尾","LANE":" ","ALLEY":" ","HOUSE_NO":"５號之１","E_COORD97":176734.35000000001,"N_COORD97":2569348.8599999999,"ADDRESS":"茅港尾５號之１","OBJECTID":311098},"geometry":{"x":176734.35000000056,"y":2569348.8600000013}},{"attributes":{"ID":311107,"DIS_CODE":0,"TOWNNAME":"下營區","LI":"茅港里","LIN":"1鄰","STREET":" ","SECT":" ","MAREA":"茅港尾","LANE":" ","ALLEY":" ","HOUSE_NO":"５號","E_COORD97":176726.31,"N_COORD97":2569307.4100000001,"ADDRESS":"茅港尾５號","OBJECTID":311099},"geometry":{"x":176726.31000000052,"y":2569307.410000002}},{"attributes":{"ID":311108,"DIS_CODE":0,"TOWNNAME":"下營區","LI":"茅港里","LIN":"3鄰","STREET":" ","SECT":" ","MAREA":"茅港尾","LANE":" ","ALLEY":" ","HOUSE_NO":"４３號之８","E_COORD97":176524.88,"N_COORD97":2569096.71,"ADDRESS":"茅港尾４３號之８","OBJECTID":311100},"geometry":{"x":176524.87999999989,"y":2569096.7100000028}},{"attributes":{"ID":311109,"DIS_CODE":0,"TOWNNAME":"下營區","LI":"茅港里","LIN":"3鄰","STREET":" ","SECT":" ","MAREA":"茅港尾","LANE":" ","ALLEY":" ","HOUSE_NO":"４４號","E_COORD97":176340.37,"N_COORD97":2569819.1200000001,"ADDRESS":"茅港尾４４號","OBJECTID":311101},"geometry":{"x":176340.37000000011,"y":2569819.1200000029}},{"attributes":{"ID":311110,"DIS_CODE":0,"TOWNNAME":"下營區","LI":"茅港里","LIN":"3鄰","STREET":" ","SECT":" ","MAREA":"茅港尾","LANE":" ","ALLEY":" ","HOUSE_NO":"４５號","E_COORD97":176353.16,"N_COORD97":2569827.5600000001,"ADDRESS":"茅港尾４５號","OBJECTID":311102},"geometry":{"x":176353.16000000108,"y":2569827.5600000005}},{"attributes":{"ID":311111,"DIS_CODE":0,"TOWNNAME":"東區","LI":"東光里","LIN":"17鄰","STREET":"東興路","SECT":" ","MAREA":" ","LANE":" ","ALLEY":" ","HOUSE_NO":"１９５號六樓之３","E_COORD97":170998.14000000001,"N_COORD97":2543847.6800000002,"ADDRESS":"東興路１９５號六樓之３","OBJECTID":311103},"geometry":{"x":170998.13999999966,"y":2543847.6800000016}},{"attributes":{"ID":311112,"DIS_CODE":0,"TOWNNAME":"下營區","LI":"營前里","LIN":"26鄰","STREET":"健康路","SECT":" ","MAREA":" ","LANE":"２００巷","ALLEY":" ","HOUSE_NO":"１０號","E_COORD97":174939.76999999999,"N_COORD97":2570156.1400000001,"ADDRESS":"健康路２００巷１０號","OBJECTID":311104},"geometry":{"x":174939.77000000048,"y":2570156.1400000006}},{"attributes":{"ID":311113,"DIS_CODE":0,"TOWNNAME":"大內區","LI":"環湖里","LIN":"3鄰","STREET":" ","SECT":" ","MAREA":"環湖","LANE":" ","ALLEY":" ","HOUSE_NO":"３６號之１","E_COORD97":190585.86232799999,"N_COORD97":2560732.0259799999,"ADDRESS":"環湖３６號之１","OBJECTID":311105},"geometry":{"x":190585.86232800037,"y":2560732.0259790011}},{"attributes":{"ID":311114,"DIS_CODE":0,"TOWNNAME":"南區","LI":"建南里","LIN":"7鄰","STREET":"德興路","SECT":" ","MAREA":" ","LANE":"１９０巷","ALLEY":" ","HOUSE_NO":"３６號","E_COORD97":167108.19,"N_COORD97":2540214.3300000001,"ADDRESS":"德興路１９０巷３６號","OBJECTID":311106},"geometry":{"x":167108.19000000041,"y":2540214.3300000001}},{"attributes":{"ID":311115,"DIS_CODE":0,"TOWNNAME":"南區","LI":"建南里","LIN":"7鄰","STREET":"德興路","SECT":" ","MAREA":" ","LANE":"１９０巷","ALLEY":" ","HOUSE_NO":"３８號","E_COORD97":167108.19,"N_COORD97":2540219.4399999999,"ADDRESS":"德興路１９０巷３８號","OBJECTID":311107},"geometry":{"x":167108.19000000041,"y":2540219.4399999995}},{"attributes":{"ID":311116,"DIS_CODE":0,"TOWNNAME":"南區","LI":"建南里","LIN":"7鄰","STREET":"德興路","SECT":" ","MAREA":" ","LANE":"１９０巷","ALLEY":" ","HOUSE_NO":"４０號","E_COORD97":167095.97,"N_COORD97":2540219.5800000001,"ADDRESS":"德興路１９０巷４０號","OBJECTID":311108},"geometry":{"x":167095.96999999881,"y":2540219.5799999982}},{"attributes":{"ID":311117,"DIS_CODE":0,"TOWNNAME":"南區","LI":"建南里","LIN":"7鄰","STREET":"德興路","SECT":" ","MAREA":" ","LANE":"１９０巷","ALLEY":" ","HOUSE_NO":"４２號","E_COORD97":167096.26000000001,"N_COORD97":2540215.8900000001,"ADDRESS":"德興路１９０巷４２號","OBJECTID":311109},"geometry":{"x":167096.26000000071,"y":2540215.8900000025}},{"attributes":{"ID":311118,"DIS_CODE":0,"TOWNNAME":"南區","LI":"建南里","LIN":"7鄰","STREET":"德興路","SECT":" ","MAREA":" ","LANE":"１９０巷","ALLEY":" ","HOUSE_NO":"４６號","E_COORD97":167096.67999999999,"N_COORD97":2540212.3500000001,"ADDRESS":"德興路１９０巷４６號","OBJECTID":311110},"geometry":{"x":167096.68000000063,"y":2540212.3500000015}},{"attributes":{"ID":311119,"DIS_CODE":0,"TOWNNAME":"南區","LI":"建南里","LIN":"7鄰","STREET":"德興路","SECT":" ","MAREA":" ","LANE":"１９０巷","ALLEY":" ","HOUSE_NO":"４８號","E_COORD97":167097.53,"N_COORD97":2540208.0899999999,"ADDRESS":"德興路１９０巷４８號","OBJECTID":311111},"geometry":{"x":167097.53000000026,"y":2540208.0899999999}},{"attributes":{"ID":311120,"DIS_CODE":0,"TOWNNAME":"南區","LI":"建南里","LIN":"7鄰","STREET":"德興路","SECT":" ","MAREA":" ","LANE":"１９０巷","ALLEY":" ","HOUSE_NO":"５０號","E_COORD97":167098.10000000001,"N_COORD97":2540203.9700000002,"ADDRESS":"德興路１９０巷５０號","OBJECTID":311112},"geometry":{"x":167098.09999999963,"y":2540203.9699999988}},{"attributes":{"ID":311121,"DIS_CODE":0,"TOWNNAME":"南區","LI":"建南里","LIN":"7鄰","STREET":"德興路","SECT":" ","MAREA":" ","LANE":"１９０巷","ALLEY":" ","HOUSE_NO":"５２號","E_COORD97":167098.39000000001,"N_COORD97":2540199.29,"ADDRESS":"德興路１９０巷５２號","OBJECTID":311113},"geometry":{"x":167098.39000000153,"y":2540199.2899999991}},{"attributes":{"ID":311122,"DIS_CODE":0,"TOWNNAME":"北區","LI":"仁愛里","LIN":"7鄰","STREET":"開元路","SECT":" ","MAREA":" ","LANE":"１４８巷","ALLEY":" ","HOUSE_NO":"１０２號","E_COORD97":170043.25427100001,"N_COORD97":2545018.6788599999,"ADDRESS":"開元路１４８巷１０２號","OBJECTID":311114},"geometry":{"x":170043.25427100062,"y":2545018.6788560022}},{"attributes":{"ID":311123,"DIS_CODE":0,"TOWNNAME":"北區","LI":"仁愛里","LIN":"7鄰","STREET":"開元路","SECT":" ","MAREA":" ","LANE":"１４８巷","ALLEY":" ","HOUSE_NO":"１０４號","E_COORD97":170045.20999999999,"N_COORD97":2545007.77,"ADDRESS":"開元路１４８巷１０４號","OBJECTID":311115},"geometry":{"x":170045.20999999996,"y":2545007.7699999996}},{"attributes":{"ID":311124,"DIS_CODE":0,"TOWNNAME":"北區","LI":"仁愛里","LIN":"7鄰","STREET":"開元路","SECT":" ","MAREA":" ","LANE":"１４８巷","ALLEY":" ","HOUSE_NO":"１７２號","E_COORD97":170080.26999999999,"N_COORD97":2545012,"ADDRESS":"開元路１４８巷１７２號","OBJECTID":311116},"geometry":{"x":170080.26999999955,"y":2545012.0000000019}},{"attributes":{"ID":311125,"DIS_CODE":0,"TOWNNAME":"北區","LI":"文成里","LIN":"7鄰","STREET":"文賢路","SECT":" ","MAREA":" ","LANE":"５４６巷","ALLEY":" ","HOUSE_NO":"６號","E_COORD97":167399.19,"N_COORD97":2545343.6400000001,"ADDRESS":"文賢路５４６巷６號","OBJECTID":311117},"geometry":{"x":167399.19000000134,"y":2545343.6400000025}},{"attributes":{"ID":311126,"DIS_CODE":0,"TOWNNAME":"北區","LI":"仁愛里","LIN":"7鄰","STREET":"勝利路","SECT":" ","MAREA":" ","LANE":"１９０巷","ALLEY":" ","HOUSE_NO":"２６號","E_COORD97":170040.26999999999,"N_COORD97":2544951.3700000001,"ADDRESS":"勝利路１９０巷２６號","OBJECTID":311118},"geometry":{"x":170040.27000000048,"y":2544951.370000001}},{"attributes":{"ID":311127,"DIS_CODE":0,"TOWNNAME":"將軍區","LI":"仁和里","LIN":"19鄰","STREET":" ","SECT":" ","MAREA":"和巷","LANE":" ","ALLEY":" ","HOUSE_NO":"６７號","E_COORD97":163911.06,"N_COORD97":2569329.3900000001,"ADDRESS":"和巷６７號","OBJECTID":311119},"geometry":{"x":163911.05999999959,"y":2569329.3900000025}},{"attributes":{"ID":311128,"DIS_CODE":0,"TOWNNAME":"東區","LI":"東光里","LIN":"17鄰","STREET":"東興路","SECT":" ","MAREA":" ","LANE":" ","ALLEY":" ","HOUSE_NO":"１９５號六樓之４","E_COORD97":170998.14000000001,"N_COORD97":2543847.6800000002,"ADDRESS":"東興路１９５號六樓之４","OBJECTID":311120},"geometry":{"x":170998.13999999966,"y":2543847.6800000016}},{"attributes":{"ID":311129,"DIS_CODE":0,"TOWNNAME":"中西區","LI":"大涼里","LIN":"17鄰","STREET":"府前一街","SECT":" ","MAREA":" ","LANE":"１０３巷","ALLEY":" ","HOUSE_NO":"３０號","E_COORD97":166687.22,"N_COORD97":2543938.7599999998,"ADDRESS":"府前一街１０３巷３０號","OBJECTID":311121},"geometry":{"x":166687.21999999974,"y":2543938.7600000016}},{"attributes":{"ID":311130,"DIS_CODE":0,"TOWNNAME":"中西區","LI":"大涼里","LIN":"17鄰","STREET":"府前一街","SECT":" ","MAREA":" ","LANE":"１０３巷","ALLEY":" ","HOUSE_NO":"４號","E_COORD97":166732.89000000001,"N_COORD97":2543952.0699999998,"ADDRESS":"府前一街１０３巷４號","OBJECTID":311122},"geometry":{"x":166732.8900000006,"y":2543952.0700000003}},{"attributes":{"ID":311131,"DIS_CODE":0,"TOWNNAME":"北區","LI":"仁愛里","LIN":"7鄰","STREET":"勝利路","SECT":" ","MAREA":" ","LANE":"１９０巷","ALLEY":" ","HOUSE_NO":"２８號","E_COORD97":170050.79999999999,"N_COORD97":2544956.2400000002,"ADDRESS":"勝利路１９０巷２８號","OBJECTID":311123},"geometry":{"x":170050.80000000075,"y":2544956.2400000021}},{"attributes":{"ID":311132,"DIS_CODE":0,"TOWNNAME":"北區","LI":"仁愛里","LIN":"7鄰","STREET":"勝利路","SECT":" ","MAREA":" ","LANE":"１９０巷","ALLEY":" ","HOUSE_NO":"３０號","E_COORD97":170057.60999999999,"N_COORD97":2544963.9300000002,"ADDRESS":"勝利路１９０巷３０號","OBJECTID":311124},"geometry":{"x":170057.61000000127,"y":2544963.9300000016}},{"attributes":{"ID":311133,"DIS_CODE":0,"TOWNNAME":"北區","LI":"仁愛里","LIN":"7鄰","STREET":"勝利路","SECT":" ","MAREA":" ","LANE":"１９０巷","ALLEY":" ","HOUSE_NO":"３２號","E_COORD97":170062.97,"N_COORD97":2544939.5800000001,"ADDRESS":"勝利路１９０巷３２號","OBJECTID":311125},"geometry":{"x":170062.97000000067,"y":2544939.5800000019}},{"attributes":{"ID":311134,"DIS_CODE":0,"TOWNNAME":"北區","LI":"仁愛里","LIN":"7鄰","STREET":"勝利路","SECT":" ","MAREA":" ","LANE":"１９０巷","ALLEY":" ","HOUSE_NO":"３４號","E_COORD97":170068.39000000001,"N_COORD97":2544964.6699999999,"ADDRESS":"勝利路１９０巷３４號","OBJECTID":311126},"geometry":{"x":170068.3900000006,"y":2544964.6699999999}},{"attributes":{"ID":311135,"DIS_CODE":0,"TOWNNAME":"北區","LI":"仁愛里","LIN":"7鄰","STREET":"勝利路","SECT":" ","MAREA":" ","LANE":"１９０巷","ALLEY":" ","HOUSE_NO":"３６號","E_COORD97":170072.29999999999,"N_COORD97":2544967.1800000002,"ADDRESS":"勝利路１９０巷３６號","OBJECTID":311127},"geometry":{"x":170072.29999999888,"y":2544967.1799999997}},{"attributes":{"ID":311136,"DIS_CODE":0,"TOWNNAME":"將軍區","LI":"平沙里","LIN":"13鄰","STREET":" ","SECT":" ","MAREA":"平沙","LANE":" ","ALLEY":" ","HOUSE_NO":"１１８之３６號","E_COORD97":157267.94,"N_COORD97":2568291.5899999999,"ADDRESS":"平沙１１８之３６號","OBJECTID":311128},"geometry":{"x":157267.94000000041,"y":2568291.589999998}},{"attributes":{"ID":311137,"DIS_CODE":0,"TOWNNAME":"將軍區","LI":"北埔里","LIN":"4鄰","STREET":" ","SECT":" ","MAREA":"北埔","LANE":" ","ALLEY":" ","HOUSE_NO":"３２之１號","E_COORD97":163057.94,"N_COORD97":2569176.2799999998,"ADDRESS":"北埔３２之１號","OBJECTID":311129},"geometry":{"x":163057.94000000134,"y":2569176.2800000012}},{"attributes":{"ID":311138,"DIS_CODE":0,"TOWNNAME":"北區","LI":"仁愛里","LIN":"7鄰","STREET":"勝利路","SECT":" ","MAREA":" ","LANE":"１９０巷","ALLEY":" ","HOUSE_NO":"３８號","E_COORD97":170077.42000000001,"N_COORD97":2544966.5800000001,"ADDRESS":"勝利路１９０巷３８號","OBJECTID":311130},"geometry":{"x":170077.42000000086,"y":2544966.5800000038}},{"attributes":{"ID":311139,"DIS_CODE":0,"TOWNNAME":"東區","LI":"東光里","LIN":"17鄰","STREET":"東興路","SECT":" ","MAREA":" ","LANE":" ","ALLEY":" ","HOUSE_NO":"１９５號六樓之５","E_COORD97":170998.14000000001,"N_COORD97":2543847.6800000002,"ADDRESS":"東興路１９５號六樓之５","OBJECTID":311131},"geometry":{"x":170998.13999999966,"y":2543847.6800000016}},{"attributes":{"ID":311140,"DIS_CODE":0,"TOWNNAME":"東區","LI":"東光里","LIN":"17鄰","STREET":"東興路","SECT":" ","MAREA":" ","LANE":" ","ALLEY":" ","HOUSE_NO":"１９５號六樓之６","E_COORD97":170998.14000000001,"N_COORD97":2543847.6800000002,"ADDRESS":"東興路１９５號六樓之６","OBJECTID":311132},"geometry":{"x":170998.13999999966,"y":2543847.6800000016}},{"attributes":{"ID":311141,"DIS_CODE":0,"TOWNNAME":"將軍區","LI":"仁和里","LIN":"8鄰","STREET":" ","SECT":" ","MAREA":"仁巷","LANE":" ","ALLEY":" ","HOUSE_NO":"７７號","E_COORD97":163995.64000000001,"N_COORD97":2569219.3700000001,"ADDRESS":"仁巷７７號","OBJECTID":311133},"geometry":{"x":163995.63999999966,"y":2569219.370000001}},{"attributes":{"ID":311142,"DIS_CODE":0,"TOWNNAME":"將軍區","LI":"仁和里","LIN":"4鄰","STREET":" ","SECT":" ","MAREA":"仁巷","LANE":" ","ALLEY":" ","HOUSE_NO":"３３號","E_COORD97":164067.57999999999,"N_COORD97":2569296.1699999999,"ADDRESS":"仁巷３３號","OBJECTID":311134},"geometry":{"x":164067.58000000007,"y":2569296.1700000018}},{"attributes":{"ID":311143,"DIS_CODE":0,"TOWNNAME":"將軍區","LI":"仁和里","LIN":"4鄰","STREET":" ","SECT":" ","MAREA":"仁巷","LANE":" ","ALLEY":" ","HOUSE_NO":"３４號","E_COORD97":164087.76000000001,"N_COORD97":2569285.6800000002,"ADDRESS":"仁巷３４號","OBJECTID":311135},"geometry":{"x":164087.75999999978,"y":2569285.6800000016}},{"attributes":{"ID":311144,"DIS_CODE":0,"TOWNNAME":"將軍區","LI":"仁和里","LIN":"4鄰","STREET":" ","SECT":" ","MAREA":"仁巷","LANE":" ","ALLEY":" ","HOUSE_NO":"３５號","E_COORD97":164083.79000000001,"N_COORD97":2569265.9399999999,"ADDRESS":"仁巷３５號","OBJECTID":311136},"geometry":{"x":164083.79000000097,"y":2569265.9400000013}},{"attributes":{"ID":311145,"DIS_CODE":0,"TOWNNAME":"將軍區","LI":"仁和里","LIN":"4鄰","STREET":" ","SECT":" ","MAREA":"仁巷","LANE":" ","ALLEY":" ","HOUSE_NO":"３６號","E_COORD97":164068.60999999999,"N_COORD97":2569269.23,"ADDRESS":"仁巷３６號","OBJECTID":311137},"geometry":{"x":164068.61000000127,"y":2569269.2300000023}},{"attributes":{"ID":311146,"DIS_CODE":0,"TOWNNAME":"將軍區","LI":"仁和里","LIN":"4鄰","STREET":" ","SECT":" ","MAREA":"仁巷","LANE":" ","ALLEY":" ","HOUSE_NO":"３８號","E_COORD97":164028.51999999999,"N_COORD97":2569268.9700000002,"ADDRESS":"仁巷３８號","OBJECTID":311138},"geometry":{"x":164028.51999999955,"y":2569268.9700000007}},{"attributes":{"ID":311147,"DIS_CODE":0,"TOWNNAME":"將軍區","LI":"仁和里","LIN":"4鄰","STREET":" ","SECT":" ","MAREA":"仁巷","LANE":" ","ALLEY":" ","HOUSE_NO":"４０號","E_COORD97":164011.89000000001,"N_COORD97":2569268.5600000001,"ADDRESS":"仁巷４０號","OBJECTID":311139},"geometry":{"x":164011.8900000006,"y":2569268.5600000005}},{"attributes":{"ID":311148,"DIS_CODE":0,"TOWNNAME":"將軍區","LI":"仁和里","LIN":"1鄰","STREET":" ","SECT":" ","MAREA":"仁巷","LANE":" ","ALLEY":" ","HOUSE_NO":"２之１０號","E_COORD97":164208.31,"N_COORD97":2569553.0800000001,"ADDRESS":"仁巷２之１０號","OBJECTID":311140},"geometry":{"x":164208.30999999866,"y":2569553.0799999982}},{"attributes":{"ID":311149,"DIS_CODE":0,"TOWNNAME":"北區","LI":"仁愛里","LIN":"7鄰","STREET":"勝利路","SECT":" ","MAREA":" ","LANE":"１９０巷","ALLEY":" ","HOUSE_NO":"４０號","E_COORD97":170081.94,"N_COORD97":2544968.5800000001,"ADDRESS":"勝利路１９０巷４０號","OBJECTID":311141},"geometry":{"x":170081.94000000041,"y":2544968.5800000001}},{"attributes":{"ID":311150,"DIS_CODE":0,"TOWNNAME":"北區","LI":"仁愛里","LIN":"7鄰","STREET":"勝利路","SECT":" ","MAREA":" ","LANE":"１９０巷","ALLEY":" ","HOUSE_NO":"４２號","E_COORD97":170086.25,"N_COORD97":2544969.79,"ADDRESS":"勝利路１９０巷４２號","OBJECTID":311142},"geometry":{"x":170086.25,"y":2544969.7899999991}},{"attributes":{"ID":311151,"DIS_CODE":0,"TOWNNAME":"北區","LI":"文成里","LIN":"7鄰","STREET":"文賢路","SECT":" ","MAREA":" ","LANE":"５４６巷","ALLEY":" ","HOUSE_NO":"３２號","E_COORD97":167483.35000000001,"N_COORD97":2545343.25,"ADDRESS":"文賢路５４６巷３２號","OBJECTID":311143},"geometry":{"x":167483.35000000149,"y":2545343.25}},{"attributes":{"ID":311152,"DIS_CODE":0,"TOWNNAME":"北區","LI":"文成里","LIN":"7鄰","STREET":"文賢路","SECT":" ","MAREA":" ","LANE":"５４６巷","ALLEY":" ","HOUSE_NO":"３４號","E_COORD97":167489.07000000001,"N_COORD97":2545343.25,"ADDRESS":"文賢路５４６巷３４號","OBJECTID":311144},"geometry":{"x":167489.0700000003,"y":2545343.25}},{"attributes":{"ID":311153,"DIS_CODE":0,"TOWNNAME":"將軍區","LI":"西華里","LIN":"4鄰","STREET":" ","SECT":" ","MAREA":"西華","LANE":" ","ALLEY":" ","HOUSE_NO":"６４號","E_COORD97":163740.47,"N_COORD97":2566391.1400000001,"ADDRESS":"西華６４號","OBJECTID":311145},"geometry":{"x":163740.47000000067,"y":2566391.1400000025}},{"attributes":{"ID":311154,"DIS_CODE":0,"TOWNNAME":"將軍區","LI":"仁和里","LIN":"13鄰","STREET":" ","SECT":" ","MAREA":"和巷","LANE":" ","ALLEY":" ","HOUSE_NO":"１３號","E_COORD97":163688.14999999999,"N_COORD97":2569473.5499999998,"ADDRESS":"和巷１３號","OBJECTID":311146},"geometry":{"x":163688.14999999944,"y":2569473.5500000026}},{"attributes":{"ID":311155,"DIS_CODE":0,"TOWNNAME":"將軍區","LI":"仁和里","LIN":"13鄰","STREET":" ","SECT":" ","MAREA":"和巷","LANE":" ","ALLEY":" ","HOUSE_NO":"１４號","E_COORD97":163704.06,"N_COORD97":2569479.1499999999,"ADDRESS":"和巷１４號","OBJECTID":311147},"geometry":{"x":163704.06000000052,"y":2569479.1500000022}},{"attributes":{"ID":311156,"DIS_CODE":0,"TOWNNAME":"將軍區","LI":"仁和里","LIN":"20鄰","STREET":" ","SECT":" ","MAREA":"和巷","LANE":" ","ALLEY":" ","HOUSE_NO":"７３號","E_COORD97":163871.98999999999,"N_COORD97":2569353.6200000001,"ADDRESS":"和巷７３號","OBJECTID":311148},"geometry":{"x":163871.99000000022,"y":2569353.620000001}},{"attributes":{"ID":311157,"DIS_CODE":0,"TOWNNAME":"將軍區","LI":"仁和里","LIN":"20鄰","STREET":" ","SECT":" ","MAREA":"和巷","LANE":" ","ALLEY":" ","HOUSE_NO":"７４號","E_COORD97":163853.14000000001,"N_COORD97":2569357.46,"ADDRESS":"和巷７４號","OBJECTID":311149},"geometry":{"x":163853.13999999966,"y":2569357.4600000009}},{"attributes":{"ID":311158,"DIS_CODE":0,"TOWNNAME":"將軍區","LI":"仁和里","LIN":"20鄰","STREET":" ","SECT":" ","MAREA":"和巷","LANE":" ","ALLEY":" ","HOUSE_NO":"７５號","E_COORD97":163854.89999999999,"N_COORD97":2569341.96,"ADDRESS":"和巷７５號","OBJECTID":311150},"geometry":{"x":163854.9000000013,"y":2569341.9600000028}},{"attributes":{"ID":311159,"DIS_CODE":0,"TOWNNAME":"將軍區","LI":"仁和里","LIN":"20鄰","STREET":" ","SECT":" ","MAREA":"和巷","LANE":" ","ALLEY":" ","HOUSE_NO":"７６號","E_COORD97":163813.47,"N_COORD97":2569349.1899999999,"ADDRESS":"和巷７６號","OBJECTID":311151},"geometry":{"x":163813.46999999974,"y":2569349.1900000013}},{"attributes":{"ID":311160,"DIS_CODE":0,"TOWNNAME":"將軍區","LI":"仁和里","LIN":"20鄰","STREET":" ","SECT":" ","MAREA":"和巷","LANE":" ","ALLEY":" ","HOUSE_NO":"７７號","E_COORD97":163801.07999999999,"N_COORD97":2569347.3500000001,"ADDRESS":"和巷７７號","OBJECTID":311152},"geometry":{"x":163801.08000000101,"y":2569347.3499999978}},{"attributes":{"ID":311161,"DIS_CODE":0,"TOWNNAME":"將軍區","LI":"仁和里","LIN":"20鄰","STREET":" ","SECT":" ","MAREA":"和巷","LANE":" ","ALLEY":" ","HOUSE_NO":"７９號","E_COORD97":163816.97,"N_COORD97":2569315.5600000001,"ADDRESS":"和巷７９號","OBJECTID":311153},"geometry":{"x":163816.96999999974,"y":2569315.5600000005}},{"attributes":{"ID":311162,"DIS_CODE":0,"TOWNNAME":"將軍區","LI":"仁和里","LIN":"20鄰","STREET":" ","SECT":" ","MAREA":"和巷","LANE":" ","ALLEY":" ","HOUSE_NO":"８０號","E_COORD97":163836.44,"N_COORD97":2569326.2400000002,"ADDRESS":"和巷８０號","OBJECTID":311154},"geometry":{"x":163836.44000000041,"y":2569326.2400000021}},{"attributes":{"ID":311163,"DIS_CODE":0,"TOWNNAME":"將軍區","LI":"仁和里","LIN":"19鄰","STREET":" ","SECT":" ","MAREA":"和巷","LANE":" ","ALLEY":" ","HOUSE_NO":"６５號","E_COORD97":163924.26999999999,"N_COORD97":2569296.8300000001,"ADDRESS":"和巷６５號","OBJECTID":311155},"geometry":{"x":163924.27000000048,"y":2569296.8300000001}},{"attributes":{"ID":311164,"DIS_CODE":0,"TOWNNAME":"將軍區","LI":"仁和里","LIN":"19鄰","STREET":" ","SECT":" ","MAREA":"和巷","LANE":" ","ALLEY":" ","HOUSE_NO":"７０之１號","E_COORD97":163886.10000000001,"N_COORD97":2569336.5499999998,"ADDRESS":"和巷７０之１號","OBJECTID":311156},"geometry":{"x":163886.10000000149,"y":2569336.5500000007}},{"attributes":{"ID":311165,"DIS_CODE":0,"TOWNNAME":"將軍區","LI":"仁和里","LIN":"19鄰","STREET":" ","SECT":" ","MAREA":"和巷","LANE":" ","ALLEY":" ","HOUSE_NO":"７０號","E_COORD97":163887.73000000001,"N_COORD97":2569341.79,"ADDRESS":"和巷７０號","OBJECTID":311157},"geometry":{"x":163887.73000000231,"y":2569341.790000001}},{"attributes":{"ID":311166,"DIS_CODE":0,"TOWNNAME":"將軍區","LI":"仁和里","LIN":"12鄰","STREET":" ","SECT":" ","MAREA":"和巷","LANE":" ","ALLEY":" ","HOUSE_NO":"６號","E_COORD97":163749.87,"N_COORD97":2569521.4199999999,"ADDRESS":"和巷６號","OBJECTID":311158},"geometry":{"x":163749.87000000104,"y":2569521.4200000018}},{"attributes":{"ID":311167,"DIS_CODE":0,"TOWNNAME":"永康區","LI":"北灣里","LIN":"4鄰","STREET":"信義街","SECT":" ","MAREA":" ","LANE":"９４巷","ALLEY":" ","HOUSE_NO":"２３號","E_COORD97":175278.76000000001,"N_COORD97":2545733.2400000002,"ADDRESS":"信義街９４巷２３號","OBJECTID":311159},"geometry":{"x":175278.76000000071,"y":2545733.2400000021}},{"attributes":{"ID":311168,"DIS_CODE":0,"TOWNNAME":"永康區","LI":"北灣里","LIN":"5鄰","STREET":"信義街","SECT":" ","MAREA":" ","LANE":"１２９巷","ALLEY":" ","HOUSE_NO":"２號","E_COORD97":175187.81,"N_COORD97":2545598.5800000001,"ADDRESS":"信義街１２９巷２號","OBJECTID":311160},"geometry":{"x":175187.80999999959,"y":2545598.5800000019}},{"attributes":{"ID":311169,"DIS_CODE":0,"TOWNNAME":"永康區","LI":"北灣里","LIN":"4鄰","STREET":"信義街","SECT":" ","MAREA":" ","LANE":"６２巷","ALLEY":" ","HOUSE_NO":"１８號","E_COORD97":175435.01999999999,"N_COORD97":2545716.27,"ADDRESS":"信義街６２巷１８號","OBJECTID":311161},"geometry":{"x":175435.02000000048,"y":2545716.2699999996}},{"attributes":{"ID":311170,"DIS_CODE":0,"TOWNNAME":"永康區","LI":"正強里","LIN":"38鄰","STREET":"正強街","SECT":" ","MAREA":" ","LANE":"３０５巷","ALLEY":" ","HOUSE_NO":"３０號","E_COORD97":173196.64000000001,"N_COORD97":2548071.2400000002,"ADDRESS":"正強街３０５巷３０號","OBJECTID":311162},"geometry":{"x":173196.6400000006,"y":2548071.2400000039}},{"attributes":{"ID":311171,"DIS_CODE":0,"TOWNNAME":"永康區","LI":"正強里","LIN":"38鄰","STREET":"正強街","SECT":" ","MAREA":" ","LANE":"３０５巷","ALLEY":" ","HOUSE_NO":"３１號","E_COORD97":173170.48999999999,"N_COORD97":2548043.9199999999,"ADDRESS":"正強街３０５巷３１號","OBJECTID":311163},"geometry":{"x":173170.49000000115,"y":2548043.9200000018}},{"attributes":{"ID":311172,"DIS_CODE":0,"TOWNNAME":"永康區","LI":"正強里","LIN":"20鄰","STREET":"中山南路","SECT":" ","MAREA":" ","LANE":"４７１巷","ALLEY":" ","HOUSE_NO":"３７號","E_COORD97":173169.78,"N_COORD97":2547171.3100000001,"ADDRESS":"中山南路４７１巷３７號","OBJECTID":311164},"geometry":{"x":173169.78000000026,"y":2547171.3100000005}},{"attributes":{"ID":311173,"DIS_CODE":0,"TOWNNAME":"永康區","LI":"正強里","LIN":"39鄰","STREET":"中正路","SECT":" ","MAREA":" ","LANE":"２５６巷","ALLEY":" ","HOUSE_NO":"２號","E_COORD97":173214.06,"N_COORD97":2547952.9900000002,"ADDRESS":"中正路２５６巷２號","OBJECTID":311165},"geometry":{"x":173214.06000000052,"y":2547952.9900000002}},{"attributes":{"ID":311174,"DIS_CODE":0,"TOWNNAME":"永康區","LI":"北灣里","LIN":"4鄰","STREET":"信義街","SECT":" ","MAREA":" ","LANE":"１２９巷","ALLEY":" ","HOUSE_NO":"９號","E_COORD97":175198.20999999999,"N_COORD97":2545547.5099999998,"ADDRESS":"信義街１２９巷９號","OBJECTID":311166},"geometry":{"x":175198.21000000089,"y":2545547.5100000016}},{"attributes":{"ID":311175,"DIS_CODE":0,"TOWNNAME":"永康區","LI":"正強里","LIN":"38鄰","STREET":"正強街","SECT":" ","MAREA":" ","LANE":"３０５巷","ALLEY":" ","HOUSE_NO":"６號","E_COORD97":173242.98999999999,"N_COORD97":2548081.9900000002,"ADDRESS":"正強街３０５巷６號","OBJECTID":311167},"geometry":{"x":173242.99000000022,"y":2548081.9900000002}},{"attributes":{"ID":311176,"DIS_CODE":0,"TOWNNAME":"永康區","LI":"\u25A0行里","LIN":"4鄰","STREET":"新行街","SECT":" ","MAREA":" ","LANE":"２０巷","ALLEY":" ","HOUSE_NO":"３號","E_COORD97":172255.42999999999,"N_COORD97":2548766.7400000002,"ADDRESS":"新行街２０巷３號","OBJECTID":311168},"geometry":{"x":172255.43000000063,"y":2548766.7400000021}},{"attributes":{"ID":311177,"DIS_CODE":0,"TOWNNAME":"永康區","LI":"南灣里","LIN":" ","STREET":"大灣東路","SECT":" ","MAREA":" ","LANE":"２２巷","ALLEY":" ","HOUSE_NO":"７８之１號","E_COORD97":173903.04000000001,"N_COORD97":2543957.3900000001,"ADDRESS":"大灣東路２２巷７８之１號","OBJECTID":311169},"geometry":{"x":173903.04000000004,"y":2543957.3900000006}},{"attributes":{"ID":311178,"DIS_CODE":0,"TOWNNAME":"北區","LI":"文成里","LIN":"7鄰","STREET":"文賢路","SECT":" ","MAREA":" ","LANE":"５４６巷","ALLEY":" ","HOUSE_NO":"３４號之１","E_COORD97":167495.94,"N_COORD97":2545343.25,"ADDRESS":"文賢路５４６巷３４號之１","OBJECTID":311170},"geometry":{"x":167495.94000000134,"y":2545343.25}},{"attributes":{"ID":311179,"DIS_CODE":0,"TOWNNAME":"東區","LI":"東光里","LIN":"17鄰","STREET":"東興路","SECT":" ","MAREA":" ","LANE":" ","ALLEY":" ","HOUSE_NO":"１９５號六樓之７","E_COORD97":170998.14000000001,"N_COORD97":2543847.6800000002,"ADDRESS":"東興路１９５號六樓之７","OBJECTID":311171},"geometry":{"x":170998.13999999966,"y":2543847.6800000016}},{"attributes":{"ID":311180,"DIS_CODE":0,"TOWNNAME":"東區","LI":"東光里","LIN":"17鄰","STREET":"東興路","SECT":" ","MAREA":" ","LANE":" ","ALLEY":" ","HOUSE_NO":"１９５號六樓之８","E_COORD97":170998.14000000001,"N_COORD97":2543847.6800000002,"ADDRESS":"東興路１９５號六樓之８","OBJECTID":311172},"geometry":{"x":170998.13999999966,"y":2543847.6800000016}},{"attributes":{"ID":311181,"DIS_CODE":0,"TOWNNAME":"東區","LI":"東光里","LIN":"17鄰","STREET":"東興路","SECT":" ","MAREA":" ","LANE":" ","ALLEY":" ","HOUSE_NO":"１９５號六樓之９","E_COORD97":170998.14000000001,"N_COORD97":2543847.6800000002,"ADDRESS":"東興路１９５號六樓之９","OBJECTID":311173},"geometry":{"x":170998.13999999966,"y":2543847.6800000016}},{"attributes":{"ID":311182,"DIS_CODE":0,"TOWNNAME":"東區","LI":"東光里","LIN":"17鄰","STREET":"東興路","SECT":" ","MAREA":" ","LANE":" ","ALLEY":" ","HOUSE_NO":"１９５號六樓之１０","E_COORD97":170998.14000000001,"N_COORD97":2543847.6800000002,"ADDRESS":"東興路１９５號六樓之１０","OBJECTID":311174},"geometry":{"x":170998.13999999966,"y":2543847.6800000016}},{"attributes":{"ID":311183,"DIS_CODE":0,"TOWNNAME":"東區","LI":"東光里","LIN":"17鄰","STREET":"東興路","SECT":" ","MAREA":" ","LANE":" ","ALLEY":" ","HOUSE_NO":"１９５號七樓之１","E_COORD97":170998.14000000001,"N_COORD97":2543847.6800000002,"ADDRESS":"東興路１９５號七樓之１","OBJECTID":311175},"geometry":{"x":170998.13999999966,"y":2543847.6800000016}},{"attributes":{"ID":311184,"DIS_CODE":0,"TOWNNAME":"東區","LI":"東光里","LIN":"17鄰","STREET":"東興路","SECT":" ","MAREA":" ","LANE":" ","ALLEY":" ","HOUSE_NO":"１９５號七樓之２","E_COORD97":170998.14000000001,"N_COORD97":2543847.6800000002,"ADDRESS":"東興路１９５號七樓之２","OBJECTID":311176},"geometry":{"x":170998.13999999966,"y":2543847.6800000016}},{"attributes":{"ID":311185,"DIS_CODE":0,"TOWNNAME":"東區","LI":"東光里","LIN":"17鄰","STREET":"東興路","SECT":" ","MAREA":" ","LANE":" ","ALLEY":" ","HOUSE_NO":"１９５號七樓之３","E_COORD97":170998.14000000001,"N_COORD97":2543847.6800000002,"ADDRESS":"東興路１９５號七樓之３","OBJECTID":311177},"geometry":{"x":170998.13999999966,"y":2543847.6800000016}},{"attributes":{"ID":311186,"DIS_CODE":0,"TOWNNAME":"東區","LI":"東光里","LIN":"17鄰","STREET":"東興路","SECT":" ","MAREA":" ","LANE":" ","ALLEY":" ","HOUSE_NO":"１９５號七樓之４","E_COORD97":170998.14000000001,"N_COORD97":2543847.6800000002,"ADDRESS":"東興路１９５號七樓之４","OBJECTID":311178},"geometry":{"x":170998.13999999966,"y":2543847.6800000016}},{"attributes":{"ID":311187,"DIS_CODE":0,"TOWNNAME":"東區","LI":"東光里","LIN":"17鄰","STREET":"東興路","SECT":" ","MAREA":" ","LANE":" ","ALLEY":" ","HOUSE_NO":"１９５號七樓之５","E_COORD97":170998.14000000001,"N_COORD97":2543847.6800000002,"ADDRESS":"東興路１９５號七樓之５","OBJECTID":311179},"geometry":{"x":170998.13999999966,"y":2543847.6800000016}},{"attributes":{"ID":311188,"DIS_CODE":0,"TOWNNAME":"東區","LI":"東光里","LIN":"17鄰","STREET":"東興路","SECT":" ","MAREA":" ","LANE":" ","ALLEY":" ","HOUSE_NO":"１９５號七樓之６","E_COORD97":170998.14000000001,"N_COORD97":2543847.6800000002,"ADDRESS":"東興路１９５號七樓之６","OBJECTID":311180},"geometry":{"x":170998.13999999966,"y":2543847.6800000016}},{"attributes":{"ID":311189,"DIS_CODE":0,"TOWNNAME":"永康區","LI":"復國里","LIN":"4鄰","STREET":"復國一路","SECT":" ","MAREA":" ","LANE":"６８巷","ALLEY":" ","HOUSE_NO":"１８號","E_COORD97":172770.70999999999,"N_COORD97":2544858.7400000002,"ADDRESS":"復國一路６８巷１８號","OBJECTID":311181},"geometry":{"x":172770.71000000089,"y":2544858.7400000002}},{"attributes":{"ID":311190,"DIS_CODE":0,"TOWNNAME":"永康區","LI":"復興里","LIN":"25鄰","STREET":"復興路","SECT":" ","MAREA":" ","LANE":"４２９巷","ALLEY":" ","HOUSE_NO":"９５號","E_COORD97":172293.48999999999,"N_COORD97":2543848.8300000001,"ADDRESS":"復興路４２９巷９５號","OBJECTID":311182},"geometry":{"x":172293.49000000022,"y":2543848.8300000001}},{"attributes":{"ID":311191,"DIS_CODE":0,"TOWNNAME":"永康區","LI":"崑山里","LIN":"42鄰","STREET":"大仁街","SECT":" ","MAREA":" ","LANE":"１９９巷","ALLEY":" ","HOUSE_NO":"２２號","E_COORD97":173878.10999999999,"N_COORD97":2545072.25,"ADDRESS":"大仁街１９９巷２２號","OBJECTID":311183},"geometry":{"x":173878.1099999994,"y":2545072.25}},{"attributes":{"ID":311192,"DIS_CODE":0,"TOWNNAME":"永康區","LI":"神洲里","LIN":"4鄰","STREET":"忠孝路","SECT":" ","MAREA":" ","LANE":"３８巷","ALLEY":" ","HOUSE_NO":"１８號","E_COORD97":172157.31,"N_COORD97":2544699.2400000002,"ADDRESS":"忠孝路３８巷１８號","OBJECTID":311184},"geometry":{"x":172157.31000000052,"y":2544699.2400000002}},{"attributes":{"ID":311193,"DIS_CODE":0,"TOWNNAME":"永康區","LI":"埔園里","LIN":"18鄰","STREET":"龍埔街","SECT":" ","MAREA":" ","LANE":"４６７巷","ALLEY":" ","HOUSE_NO":"１８號","E_COORD97":173545.12,"N_COORD97":2548288.25,"ADDRESS":"龍埔街４６７巷１８號","OBJECTID":311185},"geometry":{"x":173545.12000000011,"y":2548288.2500000019}},{"attributes":{"ID":311194,"DIS_CODE":0,"TOWNNAME":"永康區","LI":"埔園里","LIN":"39鄰","STREET":"聖龍街","SECT":" ","MAREA":" ","LANE":"１７９巷","ALLEY":" ","HOUSE_NO":"１２號","E_COORD97":174334.03,"N_COORD97":2547874.4399999999,"ADDRESS":"聖龍街１７９巷１２號","OBJECTID":311186},"geometry":{"x":174334.03000000026,"y":2547874.4399999995}},{"attributes":{"ID":311195,"DIS_CODE":0,"TOWNNAME":"永康區","LI":"勝利里","LIN":"20鄰","STREET":"勝學路","SECT":" ","MAREA":" ","LANE":"２６９巷","ALLEY":" ","HOUSE_NO":"２９號","E_COORD97":171148.79999999999,"N_COORD97":2545227.25,"ADDRESS":"勝學路２６９巷２９號","OBJECTID":311187},"geometry":{"x":171148.80000000168,"y":2545227.2500000019}},{"attributes":{"ID":311196,"DIS_CODE":0,"TOWNNAME":"永康區","LI":"復興里","LIN":"25鄰","STREET":"復興路","SECT":" ","MAREA":" ","LANE":"４２９巷","ALLEY":" ","HOUSE_NO":"１１２號","E_COORD97":172294.89000000001,"N_COORD97":2543809.4100000001,"ADDRESS":"復興路４２９巷１１２號","OBJECTID":311188},"geometry":{"x":172294.88999999966,"y":2543809.410000002}},{"attributes":{"ID":311197,"DIS_CODE":0,"TOWNNAME":"永康區","LI":"勝利里","LIN":"25鄰","STREET":"中華路","SECT":" ","MAREA":" ","LANE":"１５５巷","ALLEY":" ","HOUSE_NO":"７５號","E_COORD97":171444.64999999999,"N_COORD97":2544734.4900000002,"ADDRESS":"中華路１５５巷７５號","OBJECTID":311189},"geometry":{"x":171444.65000000037,"y":2544734.4900000021}},{"attributes":{"ID":311198,"DIS_CODE":0,"TOWNNAME":"北區","LI":"文成里","LIN":"7鄰","STREET":"文賢路","SECT":" ","MAREA":" ","LANE":"５４６巷","ALLEY":" ","HOUSE_NO":"３６號","E_COORD97":167505.85999999999,"N_COORD97":2545342.1000000001,"ADDRESS":"文賢路５４６巷３６號","OBJECTID":311190},"geometry":{"x":167505.86000000034,"y":2545342.1000000034}},{"attributes":{"ID":311199,"DIS_CODE":0,"TOWNNAME":"東區","LI":"東光里","LIN":"17鄰","STREET":"東興路","SECT":" ","MAREA":" ","LANE":" ","ALLEY":" ","HOUSE_NO":"１９５號七樓之７","E_COORD97":170998.14000000001,"N_COORD97":2543847.6800000002,"ADDRESS":"東興路１９５號七樓之７","OBJECTID":311191},"geometry":{"x":170998.13999999966,"y":2543847.6800000016}},{"attributes":{"ID":311200,"DIS_CODE":0,"TOWNNAME":"東區","LI":"東光里","LIN":"17鄰","STREET":"東興路","SECT":" ","MAREA":" ","LANE":" ","ALLEY":" ","HOUSE_NO":"１９５號七樓之８","E_COORD97":170998.14000000001,"N_COORD97":2543847.6800000002,"ADDRESS":"東興路１９５號七樓之８","OBJECTID":311192},"geometry":{"x":170998.13999999966,"y":2543847.6800000016}},{"attributes":{"ID":311201,"DIS_CODE":0,"TOWNNAME":"東區","LI":"東光里","LIN":"17鄰","STREET":"東興路","SECT":" ","MAREA":" ","LANE":" ","ALLEY":" ","HOUSE_NO":"１９５號七樓之９","E_COORD97":170998.14000000001,"N_COORD97":2543847.6800000002,"ADDRESS":"東興路１９５號七樓之９","OBJECTID":311193},"geometry":{"x":170998.13999999966,"y":2543847.6800000016}},{"attributes":{"ID":311202,"DIS_CODE":0,"TOWNNAME":"永康區","LI":"西橋里","LIN":"17鄰","STREET":"大橋三街","SECT":" ","MAREA":" ","LANE":" ","ALLEY":" ","HOUSE_NO":"４０號四樓","E_COORD97":170569.98000000001,"N_COORD97":2546458.75,"ADDRESS":"大橋三街４０號四樓","OBJECTID":311194},"geometry":{"x":170569.98000000045,"y":2546458.75}},{"attributes":{"ID":311203,"DIS_CODE":0,"TOWNNAME":"永康區","LI":"西橋里","LIN":"17鄰","STREET":"大橋三街","SECT":" ","MAREA":" ","LANE":" ","ALLEY":" ","HOUSE_NO":"４０號三樓","E_COORD97":170569.98000000001,"N_COORD97":2546458.75,"ADDRESS":"大橋三街４０號三樓","OBJECTID":311195},"geometry":{"x":170569.98000000045,"y":2546458.75}},{"attributes":{"ID":311204,"DIS_CODE":0,"TOWNNAME":"永康區","LI":"西橋里","LIN":"17鄰","STREET":"大橋三街","SECT":" ","MAREA":" ","LANE":" ","ALLEY":" ","HOUSE_NO":"４０號五樓","E_COORD97":170569.98000000001,"N_COORD97":2546458.75,"ADDRESS":"大橋三街４０號五樓","OBJECTID":311196},"geometry":{"x":170569.98000000045,"y":2546458.75}},{"attributes":{"ID":311205,"DIS_CODE":0,"TOWNNAME":"永康區","LI":"西橋里","LIN":"17鄰","STREET":"大橋三街","SECT":" ","MAREA":" ","LANE":" ","ALLEY":" ","HOUSE_NO":"４２號二樓","E_COORD97":170572.64000000001,"N_COORD97":2546463,"ADDRESS":"大橋三街４２號二樓","OBJECTID":311197},"geometry":{"x":170572.63999999966,"y":2546463.0000000019}},{"attributes":{"ID":311206,"DIS_CODE":0,"TOWNNAME":"東區","LI":"中西里","LIN":"17鄰","STREET":"林森路","SECT":"二段","MAREA":" ","LANE":" ","ALLEY":" ","HOUSE_NO":"７９號之５三樓","E_COORD97":170126.73000000001,"N_COORD97":2543281.1400000001,"ADDRESS":"林森路二段７９號之５三樓","OBJECTID":311198},"geometry":{"x":170126.73000000138,"y":2543281.1400000006}},{"attributes":{"ID":311207,"DIS_CODE":0,"TOWNNAME":"東區","LI":"中西里","LIN":"17鄰","STREET":"林森路","SECT":"二段","MAREA":" ","LANE":" ","ALLEY":" ","HOUSE_NO":"７９號之２四樓之１","E_COORD97":170132.79999999999,"N_COORD97":2543262.7400000002,"ADDRESS":"林森路二段７９號之２四樓之１","OBJECTID":311199},"geometry":{"x":170132.79999999981,"y":2543262.7400000002}},{"attributes":{"ID":311208,"DIS_CODE":0,"TOWNNAME":"永康區","LI":"崑山里","LIN":"4鄰","STREET":"永大路","SECT":"一段","MAREA":" ","LANE":"２８７巷","ALLEY":" ","HOUSE_NO":"１２５號","E_COORD97":173749.44,"N_COORD97":2544286.1000000001,"ADDRESS":"永大路一段２８７巷１２５號","OBJECTID":311200},"geometry":{"x":173749.44000000134,"y":2544286.0999999996}}]}