{"displayFieldName":"TOWNNAME","fieldAliases":{"ID":"ID","DIS_CODE":"DIS_CODE","TOWNNAME":"TOWNNAME","LI":"LI","LIN":"LIN","STREET":"STREET","SECT":"SECT","MAREA":"MAREA","LANE":"LANE","ALLEY":"ALLEY","HOUSE_NO":"HOUSE_NO","E_COORD97":"E_COORD97","N_COORD97":"N_COORD97","ADDRESS":"ADDRESS","OBJECTID":"OBJECTID"},"geometryType":"esriGeometryPoint","spatialReference":{"wkid":102443,"latestWkid":3826},"fields":[{"name":"ID","type":"esriFieldTypeDouble","alias":"ID"},{"name":"DIS_CODE","type":"esriFieldTypeInteger","alias":"DIS_CODE"},{"name":"TOWNNAME","type":"esriFieldTypeString","alias":"TOWNNAME","length":8},{"name":"LI","type":"esriFieldTypeString","alias":"LI","length":8},{"name":"LIN","type":"esriFieldTypeString","alias":"LIN","length":12},{"name":"STREET","type":"esriFieldTypeString","alias":"STREET","length":20},{"name":"SECT","type":"esriFieldTypeString","alias":"SECT","length":8},{"name":"MAREA","type":"esriFieldTypeString","alias":"MAREA","length":12},{"name":"LANE","type":"esriFieldTypeString","alias":"LANE","length":10},{"name":"ALLEY","type":"esriFieldTypeString","alias":"ALLEY","length":10},{"name":"HOUSE_NO","type":"esriFieldTypeString","alias":"HOUSE_NO","length":20},{"name":"E_COORD97","type":"esriFieldTypeDouble","alias":"E_COORD97"},{"name":"N_COORD97","type":"esriFieldTypeDouble","alias":"N_COORD97"},{"name":"ADDRESS","type":"esriFieldTypeString","alias":"ADDRESS","length":50},{"name":"OBJECTID","type":"esriFieldTypeOID","alias":"OBJECTID"}],"features":[{"attributes":{"ID":520628,"DIS_CODE":0,"TOWNNAME":"永康區","LI":"\u25A0行里","LIN":"31鄰","STREET":"仁愛街","SECT":" ","MAREA":" ","LANE":" ","ALLEY":" ","HOUSE_NO":"４６號之７五樓","E_COORD97":171986.92999999999,"N_COORD97":2549218.9500000002,"ADDRESS":"仁愛街４６號之７五樓","OBJECTID":520601},"geometry":{"x":171986.93000000156,"y":2549218.9500000011}},{"attributes":{"ID":520629,"DIS_CODE":0,"TOWNNAME":"永康區","LI":"\u25A0行里","LIN":"31鄰","STREET":"仁愛街","SECT":" ","MAREA":" ","LANE":" ","ALLEY":" ","HOUSE_NO":"４６號之７七樓","E_COORD97":171986.92999999999,"N_COORD97":2549218.9500000002,"ADDRESS":"仁愛街４６號之７七樓","OBJECTID":520602},"geometry":{"x":171986.93000000156,"y":2549218.9500000011}},{"attributes":{"ID":520630,"DIS_CODE":0,"TOWNNAME":"永康區","LI":"\u25A0行里","LIN":"31鄰","STREET":"仁愛街","SECT":" ","MAREA":" ","LANE":" ","ALLEY":" ","HOUSE_NO":"４６號六樓","E_COORD97":171939.87,"N_COORD97":2549186.77,"ADDRESS":"仁愛街４６號六樓","OBJECTID":520603},"geometry":{"x":171939.87000000011,"y":2549186.7700000014}},{"attributes":{"ID":520631,"DIS_CODE":0,"TOWNNAME":"永康區","LI":"\u25A0行里","LIN":"31鄰","STREET":"仁愛街","SECT":" ","MAREA":" ","LANE":" ","ALLEY":" ","HOUSE_NO":"４６號之２七樓","E_COORD97":171946.42999999999,"N_COORD97":2549193.9700000002,"ADDRESS":"仁愛街４６號之２七樓","OBJECTID":520604},"geometry":{"x":171946.43000000063,"y":2549193.9700000007}},{"attributes":{"ID":520632,"DIS_CODE":0,"TOWNNAME":"永康區","LI":"\u25A0行里","LIN":"31鄰","STREET":"仁愛街","SECT":" ","MAREA":" ","LANE":" ","ALLEY":" ","HOUSE_NO":"４６號四樓","E_COORD97":171939.87,"N_COORD97":2549186.77,"ADDRESS":"仁愛街４６號四樓","OBJECTID":520605},"geometry":{"x":171939.87000000011,"y":2549186.7700000014}},{"attributes":{"ID":520633,"DIS_CODE":0,"TOWNNAME":"永康區","LI":"\u25A0行里","LIN":"31鄰","STREET":"仁愛街","SECT":" ","MAREA":" ","LANE":" ","ALLEY":" ","HOUSE_NO":"４６號之７六樓","E_COORD97":171986.92999999999,"N_COORD97":2549218.9500000002,"ADDRESS":"仁愛街４６號之７六樓","OBJECTID":520606},"geometry":{"x":171986.93000000156,"y":2549218.9500000011}},{"attributes":{"ID":520634,"DIS_CODE":0,"TOWNNAME":"永康區","LI":"\u25A0行里","LIN":"31鄰","STREET":"仁愛街","SECT":" ","MAREA":" ","LANE":" ","ALLEY":" ","HOUSE_NO":"４６號之７二樓","E_COORD97":171986.92999999999,"N_COORD97":2549218.9500000002,"ADDRESS":"仁愛街４６號之７二樓","OBJECTID":520607},"geometry":{"x":171986.93000000156,"y":2549218.9500000011}},{"attributes":{"ID":520635,"DIS_CODE":0,"TOWNNAME":"永康區","LI":"\u25A0行里","LIN":"31鄰","STREET":"仁愛街","SECT":" ","MAREA":" ","LANE":" ","ALLEY":" ","HOUSE_NO":"４８號六樓","E_COORD97":171949.97,"N_COORD97":2549202.7200000002,"ADDRESS":"仁愛街４８號六樓","OBJECTID":520608},"geometry":{"x":171949.97000000067,"y":2549202.7200000007}},{"attributes":{"ID":520636,"DIS_CODE":0,"TOWNNAME":"永康區","LI":"\u25A0行里","LIN":"31鄰","STREET":"仁愛街","SECT":" ","MAREA":" ","LANE":" ","ALLEY":" ","HOUSE_NO":"４８號之２三樓","E_COORD97":171957.32999999999,"N_COORD97":2549210.48,"ADDRESS":"仁愛街４８號之２三樓","OBJECTID":520609},"geometry":{"x":171957.33000000007,"y":2549210.4800000004}},{"attributes":{"ID":520637,"DIS_CODE":0,"TOWNNAME":"永康區","LI":"\u25A0行里","LIN":"31鄰","STREET":"仁愛街","SECT":" ","MAREA":" ","LANE":" ","ALLEY":" ","HOUSE_NO":"４６號之１五樓","E_COORD97":171944.47,"N_COORD97":2549189.9700000002,"ADDRESS":"仁愛街４６號之１五樓","OBJECTID":520610},"geometry":{"x":171944.4700000016,"y":2549189.9700000025}},{"attributes":{"ID":520638,"DIS_CODE":0,"TOWNNAME":"永康區","LI":"\u25A0行里","LIN":"31鄰","STREET":"仁愛街","SECT":" ","MAREA":" ","LANE":" ","ALLEY":" ","HOUSE_NO":"４６號七樓","E_COORD97":171939.87,"N_COORD97":2549186.77,"ADDRESS":"仁愛街４６號七樓","OBJECTID":520611},"geometry":{"x":171939.87000000011,"y":2549186.7700000014}},{"attributes":{"ID":520639,"DIS_CODE":0,"TOWNNAME":"永康區","LI":"\u25A0行里","LIN":"31鄰","STREET":"仁愛街","SECT":" ","MAREA":" ","LANE":" ","ALLEY":" ","HOUSE_NO":"４６號之２六樓","E_COORD97":171946.42999999999,"N_COORD97":2549193.9700000002,"ADDRESS":"仁愛街４６號之２六樓","OBJECTID":520612},"geometry":{"x":171946.43000000063,"y":2549193.9700000007}},{"attributes":{"ID":520640,"DIS_CODE":0,"TOWNNAME":"永康區","LI":"\u25A0行里","LIN":"31鄰","STREET":"仁愛街","SECT":" ","MAREA":" ","LANE":" ","ALLEY":" ","HOUSE_NO":"４６之７號二樓","E_COORD97":171986.92999999999,"N_COORD97":2549218.9500000002,"ADDRESS":"仁愛街４６之７號二樓","OBJECTID":520613},"geometry":{"x":171986.93000000156,"y":2549218.9500000011}},{"attributes":{"ID":520641,"DIS_CODE":0,"TOWNNAME":"永康區","LI":"\u25A0行里","LIN":"31鄰","STREET":"仁愛街","SECT":" ","MAREA":" ","LANE":" ","ALLEY":" ","HOUSE_NO":"４８號三樓","E_COORD97":171949.97,"N_COORD97":2549202.7200000002,"ADDRESS":"仁愛街４８號三樓","OBJECTID":520614},"geometry":{"x":171949.97000000067,"y":2549202.7200000007}},{"attributes":{"ID":520642,"DIS_CODE":0,"TOWNNAME":"仁德區","LI":"太子里","LIN":"31鄰","STREET":"太子路","SECT":" ","MAREA":" ","LANE":" ","ALLEY":" ","HOUSE_NO":"５６５號","E_COORD97":173865.10999999999,"N_COORD97":2543508.7599999998,"ADDRESS":"太子路５６５號","OBJECTID":520615},"geometry":{"x":173865.11000000127,"y":2543508.7599999998}},{"attributes":{"ID":520643,"DIS_CODE":0,"TOWNNAME":"永康區","LI":"龍潭里","LIN":"31鄰","STREET":"中山北路","SECT":" ","MAREA":" ","LANE":" ","ALLEY":" ","HOUSE_NO":"３０３號","E_COORD97":174589.70000000001,"N_COORD97":2547692.2999999998,"ADDRESS":"中山北路３０３號","OBJECTID":520616},"geometry":{"x":174589.70000000112,"y":2547692.3000000026}},{"attributes":{"ID":520644,"DIS_CODE":0,"TOWNNAME":"永康區","LI":"龍潭里","LIN":"31鄰","STREET":"中山北路","SECT":" ","MAREA":" ","LANE":" ","ALLEY":" ","HOUSE_NO":"２３８號","E_COORD97":174615.63,"N_COORD97":2547615.79,"ADDRESS":"中山北路２３８號","OBJECTID":520617},"geometry":{"x":174615.63000000082,"y":2547615.790000001}},{"attributes":{"ID":520645,"DIS_CODE":0,"TOWNNAME":"永康區","LI":"龍潭里","LIN":"31鄰","STREET":"中山北路","SECT":" ","MAREA":" ","LANE":" ","ALLEY":" ","HOUSE_NO":"１８８號之１","E_COORD97":174341.88,"N_COORD97":2547501.3700000001,"ADDRESS":"中山北路１８８號之１","OBJECTID":520618},"geometry":{"x":174341.87999999989,"y":2547501.3700000048}},{"attributes":{"ID":520646,"DIS_CODE":0,"TOWNNAME":"永康區","LI":"龍潭里","LIN":"31鄰","STREET":"龍中街","SECT":" ","MAREA":" ","LANE":" ","ALLEY":" ","HOUSE_NO":"４０號之１","E_COORD97":174504.35000000001,"N_COORD97":2547919.2000000002,"ADDRESS":"龍中街４０號之１","OBJECTID":520619},"geometry":{"x":174504.34999999963,"y":2547919.2000000011}},{"attributes":{"ID":520647,"DIS_CODE":0,"TOWNNAME":"永康區","LI":"龍潭里","LIN":"31鄰","STREET":"中山北路","SECT":" ","MAREA":" ","LANE":" ","ALLEY":" ","HOUSE_NO":"２０５號","E_COORD97":174330.06,"N_COORD97":2547559.9399999999,"ADDRESS":"中山北路２０５號","OBJECTID":520620},"geometry":{"x":174330.05999999959,"y":2547559.9399999995}},{"attributes":{"ID":520648,"DIS_CODE":0,"TOWNNAME":"永康區","LI":"龍潭里","LIN":"31鄰","STREET":"中山北路","SECT":" ","MAREA":" ","LANE":" ","ALLEY":" ","HOUSE_NO":"２２８號","E_COORD97":176504.85999999999,"N_COORD97":2548896.73,"ADDRESS":"中山北路２２８號","OBJECTID":520621},"geometry":{"x":176504.86000000127,"y":2548896.7300000023}},{"attributes":{"ID":520649,"DIS_CODE":0,"TOWNNAME":"永康區","LI":"二王里","LIN":"31鄰","STREET":"中山南路","SECT":" ","MAREA":" ","LANE":" ","ALLEY":" ","HOUSE_NO":"４９２號","E_COORD97":172066.73000000001,"N_COORD97":2546466.52,"ADDRESS":"中山南路４９２號","OBJECTID":520622},"geometry":{"x":172066.73000000045,"y":2546466.5199999996}},{"attributes":{"ID":520650,"DIS_CODE":0,"TOWNNAME":"永康區","LI":"五王里","LIN":"31鄰","STREET":"中華路","SECT":" ","MAREA":" ","LANE":" ","ALLEY":" ","HOUSE_NO":"５１２號","E_COORD97":171245.07999999999,"N_COORD97":2545858.1600000001,"ADDRESS":"中華路５１２號","OBJECTID":520623},"geometry":{"x":171245.08000000007,"y":2545858.160000002}},{"attributes":{"ID":520651,"DIS_CODE":0,"TOWNNAME":"永康區","LI":"五王里","LIN":"31鄰","STREET":"中華路","SECT":" ","MAREA":" ","LANE":" ","ALLEY":" ","HOUSE_NO":"５３０號","E_COORD97":171226.73999999999,"N_COORD97":2545892.4199999999,"ADDRESS":"中華路５３０號","OBJECTID":520624},"geometry":{"x":171226.74000000115,"y":2545892.4199999999}},{"attributes":{"ID":520652,"DIS_CODE":0,"TOWNNAME":"永康區","LI":"五王里","LIN":"31鄰","STREET":"中華路","SECT":" ","MAREA":" ","LANE":" ","ALLEY":" ","HOUSE_NO":"５１６號","E_COORD97":171240.84,"N_COORD97":2545865.9100000001,"ADDRESS":"中華路５１６號","OBJECTID":520625},"geometry":{"x":171240.84000000078,"y":2545865.9100000039}},{"attributes":{"ID":520653,"DIS_CODE":0,"TOWNNAME":"永康區","LI":"五王里","LIN":"31鄰","STREET":"中華路","SECT":" ","MAREA":" ","LANE":" ","ALLEY":" ","HOUSE_NO":"５２４號","E_COORD97":171232.59,"N_COORD97":2545880.6600000001,"ADDRESS":"中華路５２４號","OBJECTID":520626},"geometry":{"x":171232.58999999985,"y":2545880.6600000001}},{"attributes":{"ID":520654,"DIS_CODE":0,"TOWNNAME":"永康區","LI":"五王里","LIN":"31鄰","STREET":"中華路","SECT":" ","MAREA":" ","LANE":" ","ALLEY":" ","HOUSE_NO":"５１８號","E_COORD97":171238.39000000001,"N_COORD97":2545869.1600000001,"ADDRESS":"中華路５１８號","OBJECTID":520627},"geometry":{"x":171238.3900000006,"y":2545869.160000002}},{"attributes":{"ID":520655,"DIS_CODE":0,"TOWNNAME":"永康區","LI":"五王里","LIN":"31鄰","STREET":"中華路","SECT":" ","MAREA":" ","LANE":" ","ALLEY":" ","HOUSE_NO":"５３６號","E_COORD97":171219.98999999999,"N_COORD97":2545901.9199999999,"ADDRESS":"中華路５３６號","OBJECTID":520628},"geometry":{"x":171219.99000000115,"y":2545901.9199999999}},{"attributes":{"ID":520656,"DIS_CODE":0,"TOWNNAME":"永康區","LI":"五王里","LIN":"31鄰","STREET":"中華路","SECT":" ","MAREA":" ","LANE":" ","ALLEY":" ","HOUSE_NO":"５２０號","E_COORD97":171236.48000000001,"N_COORD97":2545872.9100000001,"ADDRESS":"中華路５２０號","OBJECTID":520629},"geometry":{"x":171236.48000000231,"y":2545872.9100000039}},{"attributes":{"ID":520657,"DIS_CODE":0,"TOWNNAME":"仁德區","LI":"太子里","LIN":"31鄰","STREET":"太子路","SECT":" ","MAREA":" ","LANE":" ","ALLEY":" ","HOUSE_NO":"５２５號","E_COORD97":173946.23000000001,"N_COORD97":2543503.75,"ADDRESS":"太子路５２５號","OBJECTID":520630},"geometry":{"x":173946.23000000045,"y":2543503.7500000037}},{"attributes":{"ID":520658,"DIS_CODE":0,"TOWNNAME":"永康區","LI":"五王里","LIN":"31鄰","STREET":"五福街","SECT":" ","MAREA":" ","LANE":" ","ALLEY":" ","HOUSE_NO":"３號","E_COORD97":171265.67000000001,"N_COORD97":2545865.1299999999,"ADDRESS":"五福街３號","OBJECTID":520631},"geometry":{"x":171265.67000000086,"y":2545865.129999999}},{"attributes":{"ID":520659,"DIS_CODE":0,"TOWNNAME":"仁德區","LI":"成功里","LIN":"31鄰","STREET":"成功一街","SECT":" ","MAREA":" ","LANE":" ","ALLEY":" ","HOUSE_NO":"１７號","E_COORD97":170543.98999999999,"N_COORD97":2540175.2599999998,"ADDRESS":"成功一街１７號","OBJECTID":520632},"geometry":{"x":170543.99000000022,"y":2540175.2600000016}},{"attributes":{"ID":520660,"DIS_CODE":0,"TOWNNAME":"仁德區","LI":"成功里","LIN":"31鄰","STREET":"成功一街","SECT":" ","MAREA":" ","LANE":" ","ALLEY":" ","HOUSE_NO":"２３號","E_COORD97":170541.85000000001,"N_COORD97":2540160.2599999998,"ADDRESS":"成功一街２３號","OBJECTID":520633},"geometry":{"x":170541.85000000056,"y":2540160.2599999998}},{"attributes":{"ID":520661,"DIS_CODE":0,"TOWNNAME":"仁德區","LI":"後壁里","LIN":"31鄰","STREET":"德洋路","SECT":" ","MAREA":" ","LANE":" ","ALLEY":" ","HOUSE_NO":"１６８之１號","E_COORD97":172543.53,"N_COORD97":2539392.7999999998,"ADDRESS":"德洋路１６８之１號","OBJECTID":520634},"geometry":{"x":172543.53000000119,"y":2539392.8000000026}},{"attributes":{"ID":520662,"DIS_CODE":0,"TOWNNAME":"仁德區","LI":"成功里","LIN":"31鄰","STREET":"成功一街","SECT":" ","MAREA":" ","LANE":" ","ALLEY":" ","HOUSE_NO":"２７號","E_COORD97":170540.22,"N_COORD97":2540144.7599999998,"ADDRESS":"成功一街２７號","OBJECTID":520635},"geometry":{"x":170540.21999999974,"y":2540144.7600000016}},{"attributes":{"ID":520663,"DIS_CODE":0,"TOWNNAME":"仁德區","LI":"成功里","LIN":"31鄰","STREET":"成功一街","SECT":" ","MAREA":" ","LANE":" ","ALLEY":" ","HOUSE_NO":"１５號","E_COORD97":170545.63,"N_COORD97":2540181.7599999998,"ADDRESS":"成功一街１５號","OBJECTID":520636},"geometry":{"x":170545.63000000082,"y":2540181.7600000016}},{"attributes":{"ID":520664,"DIS_CODE":0,"TOWNNAME":"仁德區","LI":"成功里","LIN":"31鄰","STREET":"成功一街","SECT":" ","MAREA":" ","LANE":" ","ALLEY":" ","HOUSE_NO":"７號","E_COORD97":170547.17999999999,"N_COORD97":2540208.77,"ADDRESS":"成功一街７號","OBJECTID":520637},"geometry":{"x":170547.1799999997,"y":2540208.7700000014}},{"attributes":{"ID":520665,"DIS_CODE":0,"TOWNNAME":"仁德區","LI":"成功里","LIN":"31鄰","STREET":"成功一街","SECT":" ","MAREA":" ","LANE":" ","ALLEY":" ","HOUSE_NO":"１３號","E_COORD97":170546.25,"N_COORD97":2540187.2599999998,"ADDRESS":"成功一街１３號","OBJECTID":520638},"geometry":{"x":170546.25000000093,"y":2540187.2599999998}},{"attributes":{"ID":520666,"DIS_CODE":0,"TOWNNAME":"仁德區","LI":"成功里","LIN":"31鄰","STREET":"成功一街","SECT":" ","MAREA":" ","LANE":" ","ALLEY":" ","HOUSE_NO":"２１號","E_COORD97":170542.64999999999,"N_COORD97":2540165.7599999998,"ADDRESS":"成功一街２１號","OBJECTID":520639},"geometry":{"x":170542.6500000013,"y":2540165.7599999998}},{"attributes":{"ID":520667,"DIS_CODE":0,"TOWNNAME":"永康區","LI":"龍潭里","LIN":"31鄰","STREET":"龍中街","SECT":" ","MAREA":" ","LANE":" ","ALLEY":" ","HOUSE_NO":"３２號","E_COORD97":174428.67999999999,"N_COORD97":2547867.4199999999,"ADDRESS":"龍中街３２號","OBJECTID":520640},"geometry":{"x":174428.68000000063,"y":2547867.4200000018}},{"attributes":{"ID":520668,"DIS_CODE":0,"TOWNNAME":"永康區","LI":"六合里","LIN":"31鄰","STREET":"中華二路","SECT":" ","MAREA":" ","LANE":" ","ALLEY":" ","HOUSE_NO":"３０１號","E_COORD97":171437.51999999999,"N_COORD97":2545415.5,"ADDRESS":"中華二路３０１號","OBJECTID":520641},"geometry":{"x":171437.52000000048,"y":2545415.5000000019}},{"attributes":{"ID":520669,"DIS_CODE":0,"TOWNNAME":"永康區","LI":"六合里","LIN":"31鄰","STREET":"中華二路","SECT":" ","MAREA":" ","LANE":" ","ALLEY":" ","HOUSE_NO":"３０３號","E_COORD97":171432.01999999999,"N_COORD97":2545415.25,"ADDRESS":"中華二路３０３號","OBJECTID":520642},"geometry":{"x":171432.02000000048,"y":2545415.25}},{"attributes":{"ID":520670,"DIS_CODE":0,"TOWNNAME":"永康區","LI":"六合里","LIN":"31鄰","STREET":"中華路","SECT":" ","MAREA":" ","LANE":" ","ALLEY":" ","HOUSE_NO":"３４３號","E_COORD97":171455.39999999999,"N_COORD97":2545390.5,"ADDRESS":"中華路３４３號","OBJECTID":520643},"geometry":{"x":171455.40000000037,"y":2545390.5000000037}},{"attributes":{"ID":520671,"DIS_CODE":0,"TOWNNAME":"永康區","LI":"六合里","LIN":"31鄰","STREET":"中華路","SECT":" ","MAREA":" ","LANE":" ","ALLEY":" ","HOUSE_NO":"３４５號","E_COORD97":171453.29000000001,"N_COORD97":2545393.25,"ADDRESS":"中華路３４５號","OBJECTID":520644},"geometry":{"x":171453.29000000097,"y":2545393.2500000019}},{"attributes":{"ID":520672,"DIS_CODE":0,"TOWNNAME":"永康區","LI":"六合里","LIN":"31鄰","STREET":"中華路","SECT":" ","MAREA":" ","LANE":" ","ALLEY":" ","HOUSE_NO":"３４７號","E_COORD97":171450.60000000001,"N_COORD97":2545398,"ADDRESS":"中華路３４７號","OBJECTID":520645},"geometry":{"x":171450.60000000056,"y":2545398.0000000019}},{"attributes":{"ID":520673,"DIS_CODE":0,"TOWNNAME":"仁德區","LI":"後壁里","LIN":"31鄰","STREET":"德洋路","SECT":" ","MAREA":" ","LANE":" ","ALLEY":" ","HOUSE_NO":"１６８號","E_COORD97":172552.70000000001,"N_COORD97":2539387.77,"ADDRESS":"德洋路１６８號","OBJECTID":520646},"geometry":{"x":172552.70000000019,"y":2539387.7700000014}},{"attributes":{"ID":520674,"DIS_CODE":0,"TOWNNAME":"新化區","LI":"東榮里","LIN":"31鄰","STREET":"中興路","SECT":" ","MAREA":" ","LANE":" ","ALLEY":" ","HOUSE_NO":"８４８號","E_COORD97":179149.10999999999,"N_COORD97":2548260.25,"ADDRESS":"中興路８４８號","OBJECTID":520647},"geometry":{"x":179149.11000000127,"y":2548260.25}},{"attributes":{"ID":520675,"DIS_CODE":0,"TOWNNAME":"新化區","LI":"東榮里","LIN":"31鄰","STREET":"中興路","SECT":" ","MAREA":" ","LANE":" ","ALLEY":" ","HOUSE_NO":"８４２號","E_COORD97":179160.60999999999,"N_COORD97":2548262.25,"ADDRESS":"中興路８４２號","OBJECTID":520648},"geometry":{"x":179160.61000000127,"y":2548262.25}},{"attributes":{"ID":520676,"DIS_CODE":0,"TOWNNAME":"新化區","LI":"東榮里","LIN":"31鄰","STREET":"中興路","SECT":" ","MAREA":" ","LANE":" ","ALLEY":" ","HOUSE_NO":"８１８號","E_COORD97":179209.10999999999,"N_COORD97":2548275.25,"ADDRESS":"中興路８１８號","OBJECTID":520649},"geometry":{"x":179209.11000000034,"y":2548275.2500000019}},{"attributes":{"ID":520677,"DIS_CODE":0,"TOWNNAME":"學甲區","LI":"秀昌里","LIN":"31鄰","STREET":"中正路","SECT":" ","MAREA":" ","LANE":" ","ALLEY":" ","HOUSE_NO":"４７３號","E_COORD97":166442.85999999999,"N_COORD97":2570925.5,"ADDRESS":"中正路４７３號","OBJECTID":520650},"geometry":{"x":166442.86000000034,"y":2570925.5}},{"attributes":{"ID":520678,"DIS_CODE":0,"TOWNNAME":"學甲區","LI":"秀昌里","LIN":"31鄰","STREET":"中正路","SECT":" ","MAREA":" ","LANE":" ","ALLEY":" ","HOUSE_NO":"４７５號","E_COORD97":166446.85000000001,"N_COORD97":2570928.48,"ADDRESS":"中正路４７５號","OBJECTID":520651},"geometry":{"x":166446.84999999963,"y":2570928.4800000023}},{"attributes":{"ID":520679,"DIS_CODE":0,"TOWNNAME":"學甲區","LI":"秀昌里","LIN":"31鄰","STREET":"中正路","SECT":" ","MAREA":" ","LANE":" ","ALLEY":" ","HOUSE_NO":"５１１號","E_COORD97":166535.51999999999,"N_COORD97":2571024.8500000001,"ADDRESS":"中正路５１１號","OBJECTID":520652},"geometry":{"x":166535.51999999955,"y":2571024.8499999996}},{"attributes":{"ID":520680,"DIS_CODE":0,"TOWNNAME":"學甲區","LI":"秀昌里","LIN":"31鄰","STREET":"中正路","SECT":" ","MAREA":" ","LANE":" ","ALLEY":" ","HOUSE_NO":"５６９號","E_COORD97":166714.23000000001,"N_COORD97":2571205.7400000002,"ADDRESS":"中正路５６９號","OBJECTID":520653},"geometry":{"x":166714.23000000138,"y":2571205.7400000002}},{"attributes":{"ID":520681,"DIS_CODE":0,"TOWNNAME":"學甲區","LI":"秀昌里","LIN":"31鄰","STREET":"中正路","SECT":" ","MAREA":" ","LANE":" ","ALLEY":" ","HOUSE_NO":"５７１號","E_COORD97":166712.95000000001,"N_COORD97":2571220.3399999999,"ADDRESS":"中正路５７１號","OBJECTID":520654},"geometry":{"x":166712.95000000019,"y":2571220.3400000017}},{"attributes":{"ID":520682,"DIS_CODE":0,"TOWNNAME":"學甲區","LI":"秀昌里","LIN":"31鄰","STREET":"中正路","SECT":" ","MAREA":" ","LANE":" ","ALLEY":" ","HOUSE_NO":"５７３號","E_COORD97":166719.79000000001,"N_COORD97":2571226.54,"ADDRESS":"中正路５７３號","OBJECTID":520655},"geometry":{"x":166719.79000000097,"y":2571226.5399999991}},{"attributes":{"ID":520683,"DIS_CODE":0,"TOWNNAME":"學甲區","LI":"秀昌里","LIN":"31鄰","STREET":"中正路","SECT":" ","MAREA":" ","LANE":" ","ALLEY":" ","HOUSE_NO":"５７５號","E_COORD97":166725.57000000001,"N_COORD97":2571233.6699999999,"ADDRESS":"中正路５７５號","OBJECTID":520656},"geometry":{"x":166725.57000000123,"y":2571233.6699999999}},{"attributes":{"ID":520684,"DIS_CODE":0,"TOWNNAME":"學甲區","LI":"秀昌里","LIN":"31鄰","STREET":"中正路","SECT":" ","MAREA":" ","LANE":" ","ALLEY":" ","HOUSE_NO":"５９９號","E_COORD97":166803.56,"N_COORD97":2571366.0899999999,"ADDRESS":"中正路５９９號","OBJECTID":520657},"geometry":{"x":166803.55999999959,"y":2571366.0899999999}},{"attributes":{"ID":520685,"DIS_CODE":0,"TOWNNAME":"學甲區","LI":"秀昌里","LIN":"31鄰","STREET":"中正路","SECT":" ","MAREA":" ","LANE":" ","ALLEY":" ","HOUSE_NO":"６２９號","E_COORD97":166950.89000000001,"N_COORD97":2571495.0499999998,"ADDRESS":"中正路６２９號","OBJECTID":520658},"geometry":{"x":166950.89000000153,"y":2571495.0500000026}},{"attributes":{"ID":520686,"DIS_CODE":0,"TOWNNAME":"學甲區","LI":"秀昌里","LIN":"31鄰","STREET":"中正路","SECT":" ","MAREA":" ","LANE":" ","ALLEY":" ","HOUSE_NO":"６４５號","E_COORD97":167051.26000000001,"N_COORD97":2571573.7599999998,"ADDRESS":"中正路６４５號","OBJECTID":520659},"geometry":{"x":167051.25999999978,"y":2571573.7600000016}},{"attributes":{"ID":520687,"DIS_CODE":0,"TOWNNAME":"學甲區","LI":"秀昌里","LIN":"31鄰","STREET":"中正路","SECT":" ","MAREA":" ","LANE":" ","ALLEY":" ","HOUSE_NO":"６８５號","E_COORD97":167204.42999999999,"N_COORD97":2571707.46,"ADDRESS":"中正路６８５號","OBJECTID":520660},"geometry":{"x":167204.4299999997,"y":2571707.4600000009}},{"attributes":{"ID":520688,"DIS_CODE":0,"TOWNNAME":"學甲區","LI":"秀昌里","LIN":"31鄰","STREET":"中正路","SECT":" ","MAREA":" ","LANE":" ","ALLEY":" ","HOUSE_NO":"７２９號","E_COORD97":167371.57999999999,"N_COORD97":2571906.1499999999,"ADDRESS":"中正路７２９號","OBJECTID":520661},"geometry":{"x":167371.58000000007,"y":2571906.1500000041}},{"attributes":{"ID":520689,"DIS_CODE":0,"TOWNNAME":"歸仁區","LI":"後市里","LIN":"31鄰","STREET":"民族北街","SECT":" ","MAREA":" ","LANE":" ","ALLEY":" ","HOUSE_NO":"３３號","E_COORD97":177428.03,"N_COORD97":2540924.75,"ADDRESS":"民族北街３３號","OBJECTID":520662},"geometry":{"x":177428.03000000026,"y":2540924.7500000019}},{"attributes":{"ID":520690,"DIS_CODE":0,"TOWNNAME":"歸仁區","LI":"南保里","LIN":"31鄰","STREET":"民權八街","SECT":" ","MAREA":" ","LANE":" ","ALLEY":" ","HOUSE_NO":"３９號","E_COORD97":176884.20999999999,"N_COORD97":2540967.25,"ADDRESS":"民權八街３９號","OBJECTID":520663},"geometry":{"x":176884.20999999996,"y":2540967.25}},{"attributes":{"ID":520691,"DIS_CODE":0,"TOWNNAME":"歸仁區","LI":"南興里","LIN":"31鄰","STREET":"民生一街","SECT":" ","MAREA":" ","LANE":" ","ALLEY":" ","HOUSE_NO":"７２號","E_COORD97":176440.41,"N_COORD97":2541017.25,"ADDRESS":"民生一街７２號","OBJECTID":520664},"geometry":{"x":176440.41000000015,"y":2541017.25}},{"attributes":{"ID":520692,"DIS_CODE":0,"TOWNNAME":"歸仁區","LI":"後市里","LIN":"31鄰","STREET":"民族北街","SECT":" ","MAREA":" ","LANE":" ","ALLEY":" ","HOUSE_NO":"３５號","E_COORD97":177428.03,"N_COORD97":2540928.75,"ADDRESS":"民族北街３５號","OBJECTID":520665},"geometry":{"x":177428.03000000026,"y":2540928.7500000019}},{"attributes":{"ID":520693,"DIS_CODE":0,"TOWNNAME":"歸仁區","LI":"許厝里","LIN":"31鄰","STREET":"中山路","SECT":"一段","MAREA":" ","LANE":" ","ALLEY":" ","HOUSE_NO":"５６７號","E_COORD97":177838.20999999999,"N_COORD97":2540733.25,"ADDRESS":"中山路一段５６７號","OBJECTID":520666},"geometry":{"x":177838.20999999996,"y":2540733.25}},{"attributes":{"ID":520694,"DIS_CODE":0,"TOWNNAME":"歸仁區","LI":"辜厝里","LIN":"31鄰","STREET":"大順三街","SECT":" ","MAREA":" ","LANE":" ","ALLEY":" ","HOUSE_NO":"８６號","E_COORD97":177402.32999999999,"N_COORD97":2540443.9500000002,"ADDRESS":"大順三街８６號","OBJECTID":520667},"geometry":{"x":177402.32999999914,"y":2540443.9500000011}},{"attributes":{"ID":520695,"DIS_CODE":0,"TOWNNAME":"歸仁區","LI":"許厝里","LIN":"31鄰","STREET":"中山路","SECT":"一段","MAREA":" ","LANE":" ","ALLEY":" ","HOUSE_NO":"５５７號","E_COORD97":177856.70999999999,"N_COORD97":2540731.25,"ADDRESS":"中山路一段５５７號","OBJECTID":520668},"geometry":{"x":177856.70999999996,"y":2540731.2500000019}},{"attributes":{"ID":520696,"DIS_CODE":0,"TOWNNAME":"歸仁區","LI":"許厝里","LIN":"31鄰","STREET":"中山路","SECT":"一段","MAREA":" ","LANE":" ","ALLEY":" ","HOUSE_NO":"５６５號","E_COORD97":177842.31,"N_COORD97":2540732.25,"ADDRESS":"中山路一段５６５號","OBJECTID":520669},"geometry":{"x":177842.30999999959,"y":2540732.25}},{"attributes":{"ID":520697,"DIS_CODE":0,"TOWNNAME":"歸仁區","LI":"辜厝里","LIN":"31鄰","STREET":"大順三街","SECT":" ","MAREA":" ","LANE":" ","ALLEY":" ","HOUSE_NO":"９４號","E_COORD97":177402.23000000001,"N_COORD97":2540422.9500000002,"ADDRESS":"大順三街９４號","OBJECTID":520670},"geometry":{"x":177402.23000000138,"y":2540422.9499999974}},{"attributes":{"ID":520698,"DIS_CODE":0,"TOWNNAME":"安平區","LI":"平通里","LIN":"31鄰","STREET":"育平路","SECT":" ","MAREA":" ","LANE":" ","ALLEY":" ","HOUSE_NO":"４０１號","E_COORD97":164643.82000000001,"N_COORD97":2544037.7000000002,"ADDRESS":"育平路４０１號","OBJECTID":520671},"geometry":{"x":164643.82000000123,"y":2544037.6999999993}},{"attributes":{"ID":520699,"DIS_CODE":0,"TOWNNAME":"安平區","LI":"平通里","LIN":"31鄰","STREET":"育平路","SECT":" ","MAREA":" ","LANE":" ","ALLEY":" ","HOUSE_NO":"３９９號","E_COORD97":164644.70000000001,"N_COORD97":2544031.0800000001,"ADDRESS":"育平路３９９號","OBJECTID":520672},"geometry":{"x":164644.70000000019,"y":2544031.0800000019}},{"attributes":{"ID":520700,"DIS_CODE":0,"TOWNNAME":"安平區","LI":"平通里","LIN":"31鄰","STREET":"育平路","SECT":" ","MAREA":" ","LANE":" ","ALLEY":" ","HOUSE_NO":"３９７號","E_COORD97":164645.48999999999,"N_COORD97":2544025.9500000002,"ADDRESS":"育平路３９７號","OBJECTID":520673},"geometry":{"x":164645.49000000115,"y":2544025.9499999993}},{"attributes":{"ID":520701,"DIS_CODE":0,"TOWNNAME":"安平區","LI":"平通里","LIN":"31鄰","STREET":"育平路","SECT":" ","MAREA":" ","LANE":" ","ALLEY":" ","HOUSE_NO":"３９５號","E_COORD97":164646.10999999999,"N_COORD97":2544021.0899999999,"ADDRESS":"育平路３９５號","OBJECTID":520674},"geometry":{"x":164646.1099999994,"y":2544021.0900000017}},{"attributes":{"ID":520702,"DIS_CODE":0,"TOWNNAME":"安平區","LI":"平通里","LIN":"31鄰","STREET":"育平路","SECT":" ","MAREA":" ","LANE":" ","ALLEY":" ","HOUSE_NO":"３９３號","E_COORD97":164646.73000000001,"N_COORD97":2544015.3500000001,"ADDRESS":"育平路３９３號","OBJECTID":520675},"geometry":{"x":164646.73000000045,"y":2544015.3500000015}},{"attributes":{"ID":520703,"DIS_CODE":0,"TOWNNAME":"安平區","LI":"平通里","LIN":"31鄰","STREET":"育平路","SECT":" ","MAREA":" ","LANE":" ","ALLEY":" ","HOUSE_NO":"３９１號","E_COORD97":164647,"N_COORD97":2544010.8500000001,"ADDRESS":"育平路３９１號","OBJECTID":520676},"geometry":{"x":164647.00000000093,"y":2544010.8499999996}},{"attributes":{"ID":520704,"DIS_CODE":0,"TOWNNAME":"安平區","LI":"平通里","LIN":"31鄰","STREET":"育平路","SECT":" ","MAREA":" ","LANE":" ","ALLEY":" ","HOUSE_NO":"３８９號","E_COORD97":164647,"N_COORD97":2544006.3399999999,"ADDRESS":"育平路３８９號","OBJECTID":520677},"geometry":{"x":164647.00000000093,"y":2544006.3400000017}},{"attributes":{"ID":520705,"DIS_CODE":0,"TOWNNAME":"安平區","LI":"平通里","LIN":"31鄰","STREET":"育平路","SECT":" ","MAREA":" ","LANE":" ","ALLEY":" ","HOUSE_NO":"３８７號","E_COORD97":164646.73000000001,"N_COORD97":2544000.6899999999,"ADDRESS":"育平路３８７號","OBJECTID":520678},"geometry":{"x":164646.73000000045,"y":2544000.6899999995}},{"attributes":{"ID":520706,"DIS_CODE":0,"TOWNNAME":"歸仁區","LI":"辜厝里","LIN":"31鄰","STREET":"中正南路","SECT":"一段","MAREA":" ","LANE":" ","ALLEY":" ","HOUSE_NO":"１８０號","E_COORD97":177386.35999999999,"N_COORD97":2540387.9500000002,"ADDRESS":"中正南路一段１８０號","OBJECTID":520679},"geometry":{"x":177386.36000000127,"y":2540387.9499999993}},{"attributes":{"ID":520707,"DIS_CODE":0,"TOWNNAME":"歸仁區","LI":"南興里","LIN":"31鄰","STREET":"保興街","SECT":" ","MAREA":" ","LANE":" ","ALLEY":" ","HOUSE_NO":"４３號","E_COORD97":176492.32000000001,"N_COORD97":2541032.25,"ADDRESS":"保興街４３號","OBJECTID":520680},"geometry":{"x":176492.31999999937,"y":2541032.2500000037}},{"attributes":{"ID":520708,"DIS_CODE":0,"TOWNNAME":"歸仁區","LI":"六甲里","LIN":"31鄰","STREET":"民生十二街","SECT":" ","MAREA":" ","LANE":" ","ALLEY":" ","HOUSE_NO":"１６３號","E_COORD97":175637.89455299999,"N_COORD97":2539440.5478400001,"ADDRESS":"民生十二街１６３號","OBJECTID":520681},"geometry":{"x":175637.89455300104,"y":2539440.5478370041}},{"attributes":{"ID":520709,"DIS_CODE":0,"TOWNNAME":"歸仁區","LI":"南保里","LIN":"31鄰","STREET":"民權八街","SECT":" ","MAREA":" ","LANE":" ","ALLEY":" ","HOUSE_NO":"３５號","E_COORD97":176900.29000000001,"N_COORD97":2540967.29,"ADDRESS":"民權八街３５號","OBJECTID":520682},"geometry":{"x":176900.29000000004,"y":2540967.290000001}},{"attributes":{"ID":520710,"DIS_CODE":0,"TOWNNAME":"玉井區","LI":"玉田里","LIN":"31鄰","STREET":"民生路","SECT":" ","MAREA":" ","LANE":" ","ALLEY":" ","HOUSE_NO":"２６５號","E_COORD97":195177.59,"N_COORD97":2558193.2799999998,"ADDRESS":"民生路２６５號","OBJECTID":520683},"geometry":{"x":195177.58999999985,"y":2558193.2799999975}},{"attributes":{"ID":520711,"DIS_CODE":0,"TOWNNAME":"玉井區","LI":"玉田里","LIN":"31鄰","STREET":"民族路","SECT":" ","MAREA":" ","LANE":" ","ALLEY":" ","HOUSE_NO":"１１１號","E_COORD97":195265.78,"N_COORD97":2558099.2799999998,"ADDRESS":"民族路１１１號","OBJECTID":520684},"geometry":{"x":195265.78000000119,"y":2558099.2800000012}},{"attributes":{"ID":520712,"DIS_CODE":0,"TOWNNAME":"玉井區","LI":"玉田里","LIN":"31鄰","STREET":"民生路","SECT":" ","MAREA":" ","LANE":" ","ALLEY":" ","HOUSE_NO":"２８３號","E_COORD97":195172.78,"N_COORD97":2558152.29,"ADDRESS":"民生路２８３號","OBJECTID":520685},"geometry":{"x":195172.78000000119,"y":2558152.2899999972}},{"attributes":{"ID":520713,"DIS_CODE":0,"TOWNNAME":"玉井區","LI":"玉田里","LIN":"31鄰","STREET":"民生路","SECT":" ","MAREA":" ","LANE":" ","ALLEY":" ","HOUSE_NO":"２９３號","E_COORD97":195168.59,"N_COORD97":2558128.29,"ADDRESS":"民生路２９３號","OBJECTID":520686},"geometry":{"x":195168.58999999985,"y":2558128.2899999991}},{"attributes":{"ID":520714,"DIS_CODE":0,"TOWNNAME":"玉井區","LI":"玉田里","LIN":"31鄰","STREET":"民生路","SECT":" ","MAREA":" ","LANE":" ","ALLEY":" ","HOUSE_NO":"２７３號","E_COORD97":195174.17999999999,"N_COORD97":2558174.2799999998,"ADDRESS":"民生路２７３號","OBJECTID":520687},"geometry":{"x":195174.18000000063,"y":2558174.2800000012}},{"attributes":{"ID":520715,"DIS_CODE":0,"TOWNNAME":"玉井區","LI":"玉田里","LIN":"31鄰","STREET":"中山路","SECT":" ","MAREA":" ","LANE":" ","ALLEY":" ","HOUSE_NO":"２３３號","E_COORD97":195283.35000000001,"N_COORD97":2558112.25,"ADDRESS":"中山路２３３號","OBJECTID":520688},"geometry":{"x":195283.35000000056,"y":2558112.25}},{"attributes":{"ID":520716,"DIS_CODE":0,"TOWNNAME":"玉井區","LI":"玉田里","LIN":"31鄰","STREET":"民生路","SECT":" ","MAREA":" ","LANE":" ","ALLEY":" ","HOUSE_NO":"２６１號","E_COORD97":195178.79000000001,"N_COORD97":2558201.2799999998,"ADDRESS":"民生路２６１號","OBJECTID":520689},"geometry":{"x":195178.79000000097,"y":2558201.2800000012}},{"attributes":{"ID":520717,"DIS_CODE":0,"TOWNNAME":"玉井區","LI":"玉田里","LIN":"31鄰","STREET":"民生路","SECT":" ","MAREA":" ","LANE":" ","ALLEY":" ","HOUSE_NO":"２９９號","E_COORD97":195166.57999999999,"N_COORD97":2558113.29,"ADDRESS":"民生路２９９號","OBJECTID":520690},"geometry":{"x":195166.58000000101,"y":2558113.290000001}},{"attributes":{"ID":520718,"DIS_CODE":0,"TOWNNAME":"玉井區","LI":"玉田里","LIN":"31鄰","STREET":"民生路","SECT":" ","MAREA":" ","LANE":" ","ALLEY":" ","HOUSE_NO":"２６７號","E_COORD97":195176.78,"N_COORD97":2558188.2799999998,"ADDRESS":"民生路２６７號","OBJECTID":520691},"geometry":{"x":195176.78000000026,"y":2558188.2800000012}},{"attributes":{"ID":520719,"DIS_CODE":0,"TOWNNAME":"玉井區","LI":"玉田里","LIN":"31鄰","STREET":"民生路","SECT":" ","MAREA":" ","LANE":" ","ALLEY":" ","HOUSE_NO":"２８７號","E_COORD97":195171.09,"N_COORD97":2558143.29,"ADDRESS":"民生路２８７號","OBJECTID":520692},"geometry":{"x":195171.09000000171,"y":2558143.290000001}},{"attributes":{"ID":520720,"DIS_CODE":0,"TOWNNAME":"玉井區","LI":"玉田里","LIN":"31鄰","STREET":"民生路","SECT":" ","MAREA":" ","LANE":" ","ALLEY":" ","HOUSE_NO":"２８５號","E_COORD97":195171.89000000001,"N_COORD97":2558148.29,"ADDRESS":"民生路２８５號","OBJECTID":520693},"geometry":{"x":195171.88999999966,"y":2558148.2899999991}},{"attributes":{"ID":520721,"DIS_CODE":0,"TOWNNAME":"玉井區","LI":"玉田里","LIN":"31鄰","STREET":"民族路","SECT":" ","MAREA":" ","LANE":" ","ALLEY":" ","HOUSE_NO":"１０９號","E_COORD97":195260.38,"N_COORD97":2558100.2799999998,"ADDRESS":"民族路１０９號","OBJECTID":520694},"geometry":{"x":195260.37999999989,"y":2558100.2799999993}},{"attributes":{"ID":520722,"DIS_CODE":0,"TOWNNAME":"玉井區","LI":"玉田里","LIN":"31鄰","STREET":"民生路","SECT":" ","MAREA":" ","LANE":" ","ALLEY":" ","HOUSE_NO":"２９５號","E_COORD97":195167.88,"N_COORD97":2558123.29,"ADDRESS":"民生路２９５號","OBJECTID":520695},"geometry":{"x":195167.88000000082,"y":2558123.290000001}},{"attributes":{"ID":520723,"DIS_CODE":0,"TOWNNAME":"歸仁區","LI":"後市里","LIN":"31鄰","STREET":"民族北街","SECT":" ","MAREA":" ","LANE":" ","ALLEY":" ","HOUSE_NO":"５１號","E_COORD97":177416.82999999999,"N_COORD97":2540947.75,"ADDRESS":"民族北街５１號","OBJECTID":520696},"geometry":{"x":177416.83000000101,"y":2540947.7500000037}},{"attributes":{"ID":520724,"DIS_CODE":0,"TOWNNAME":"歸仁區","LI":"後市里","LIN":"31鄰","STREET":"民族北街","SECT":" ","MAREA":" ","LANE":" ","ALLEY":" ","HOUSE_NO":"４７號","E_COORD97":177416.82999999999,"N_COORD97":2540947.75,"ADDRESS":"民族北街４７號","OBJECTID":520697},"geometry":{"x":177416.83000000101,"y":2540947.7500000037}},{"attributes":{"ID":520725,"DIS_CODE":0,"TOWNNAME":"歸仁區","LI":"六甲里","LIN":"31鄰","STREET":"六甲六街","SECT":" ","MAREA":" ","LANE":" ","ALLEY":" ","HOUSE_NO":"６２號","E_COORD97":175635.03434300001,"N_COORD97":2539407.6866000001,"ADDRESS":"六甲六街６２號","OBJECTID":520698},"geometry":{"x":175635.03434299864,"y":2539407.686604999}},{"attributes":{"ID":520726,"DIS_CODE":0,"TOWNNAME":"新營區","LI":"大宏里","LIN":"31鄰","STREET":"同濟街","SECT":" ","MAREA":" ","LANE":" ","ALLEY":" ","HOUSE_NO":"８７號","E_COORD97":180432.75,"N_COORD97":2578609.4300000002,"ADDRESS":"同濟街８７號","OBJECTID":520699},"geometry":{"x":180432.75000000093,"y":2578609.4299999978}},{"attributes":{"ID":520727,"DIS_CODE":0,"TOWNNAME":"新營區","LI":"大宏里","LIN":"31鄰","STREET":"三民路","SECT":" ","MAREA":" ","LANE":" ","ALLEY":" ","HOUSE_NO":"４４號之１５","E_COORD97":180417.84,"N_COORD97":2578598.5,"ADDRESS":"三民路４４號之１５","OBJECTID":520700},"geometry":{"x":180417.84000000171,"y":2578598.5}},{"attributes":{"ID":520728,"DIS_CODE":0,"TOWNNAME":"新營區","LI":"大宏里","LIN":"31鄰","STREET":"三民路","SECT":" ","MAREA":" ","LANE":" ","ALLEY":" ","HOUSE_NO":"４４之３號","E_COORD97":180397.39999999999,"N_COORD97":2578605.23,"ADDRESS":"三民路４４之３號","OBJECTID":520701},"geometry":{"x":180397.40000000037,"y":2578605.2300000042}},{"attributes":{"ID":520729,"DIS_CODE":0,"TOWNNAME":"新營區","LI":"三仙里","LIN":"31鄰","STREET":"育德十一街","SECT":" ","MAREA":" ","LANE":" ","ALLEY":" ","HOUSE_NO":"２號","E_COORD97":179570.23000000001,"N_COORD97":2579249.1899999999,"ADDRESS":"育德十一街２號","OBJECTID":520702},"geometry":{"x":179570.23000000138,"y":2579249.1900000013}},{"attributes":{"ID":520730,"DIS_CODE":0,"TOWNNAME":"新營區","LI":"新北里","LIN":"31鄰","STREET":"新北六街","SECT":" ","MAREA":" ","LANE":" ","ALLEY":" ","HOUSE_NO":"８３號","E_COORD97":178827.97,"N_COORD97":2579051.1899999999,"ADDRESS":"新北六街８３號","OBJECTID":520703},"geometry":{"x":178827.96999999974,"y":2579051.1899999995}},{"attributes":{"ID":520731,"DIS_CODE":0,"TOWNNAME":"新營區","LI":"民榮里","LIN":"31鄰","STREET":"太子路","SECT":" ","MAREA":" ","LANE":" ","ALLEY":" ","HOUSE_NO":"４３號","E_COORD97":178334.39999999999,"N_COORD97":2578086.75,"ADDRESS":"太子路４３號","OBJECTID":520704},"geometry":{"x":178334.40000000037,"y":2578086.7500000019}},{"attributes":{"ID":520732,"DIS_CODE":0,"TOWNNAME":"新營區","LI":"王公里","LIN":"31鄰","STREET":"民族路","SECT":" ","MAREA":" ","LANE":" ","ALLEY":" ","HOUSE_NO":"２０５號","E_COORD97":180367.45000000001,"N_COORD97":2579465.8100000001,"ADDRESS":"民族路２０５號","OBJECTID":520705},"geometry":{"x":180367.45000000112,"y":2579465.8100000042}},{"attributes":{"ID":520733,"DIS_CODE":0,"TOWNNAME":"新營區","LI":"新北里","LIN":"31鄰","STREET":"新北六街","SECT":" ","MAREA":" ","LANE":" ","ALLEY":" ","HOUSE_NO":"６７號","E_COORD97":178791.06,"N_COORD97":2579046.9399999999,"ADDRESS":"新北六街６７號","OBJECTID":520706},"geometry":{"x":178791.06000000052,"y":2579046.9400000032}},{"attributes":{"ID":520734,"DIS_CODE":0,"TOWNNAME":"新營區","LI":"新北里","LIN":"31鄰","STREET":"新北六街","SECT":" ","MAREA":" ","LANE":" ","ALLEY":" ","HOUSE_NO":"４３號","E_COORD97":178742.04000000001,"N_COORD97":2579046.0600000001,"ADDRESS":"新北六街４３號","OBJECTID":520707},"geometry":{"x":178742.04000000097,"y":2579046.0600000005}},{"attributes":{"ID":520735,"DIS_CODE":0,"TOWNNAME":"安平區","LI":"華平里","LIN":"31鄰","STREET":"怡平路","SECT":" ","MAREA":" ","LANE":" ","ALLEY":" ","HOUSE_NO":"４９３號","E_COORD97":165165.51999999999,"N_COORD97":2543849.2000000002,"ADDRESS":"怡平路４９３號","OBJECTID":520708},"geometry":{"x":165165.52000000048,"y":2543849.200000003}},{"attributes":{"ID":520736,"DIS_CODE":0,"TOWNNAME":"安平區","LI":"華平里","LIN":"31鄰","STREET":"怡平路","SECT":" ","MAREA":" ","LANE":" ","ALLEY":" ","HOUSE_NO":"４９５號","E_COORD97":165160.88,"N_COORD97":2543850.3599999999,"ADDRESS":"怡平路４９５號","OBJECTID":520709},"geometry":{"x":165160.87999999896,"y":2543850.3599999994}},{"attributes":{"ID":520737,"DIS_CODE":0,"TOWNNAME":"安平區","LI":"華平里","LIN":"31鄰","STREET":"怡平路","SECT":" ","MAREA":" ","LANE":" ","ALLEY":" ","HOUSE_NO":"４９７號","E_COORD97":165156.07000000001,"N_COORD97":2543851.1899999999,"ADDRESS":"怡平路４９７號","OBJECTID":520710},"geometry":{"x":165156.0700000003,"y":2543851.1900000013}},{"attributes":{"ID":520738,"DIS_CODE":0,"TOWNNAME":"安平區","LI":"華平里","LIN":"31鄰","STREET":"怡平路","SECT":" ","MAREA":" ","LANE":" ","ALLEY":" ","HOUSE_NO":"４９９號","E_COORD97":165151.44,"N_COORD97":2543851.3500000001,"ADDRESS":"怡平路４９９號","OBJECTID":520711},"geometry":{"x":165151.44000000134,"y":2543851.3499999996}},{"attributes":{"ID":520739,"DIS_CODE":0,"TOWNNAME":"安平區","LI":"華平里","LIN":"31鄰","STREET":"怡平路","SECT":" ","MAREA":" ","LANE":" ","ALLEY":" ","HOUSE_NO":"５０１號","E_COORD97":165147.29000000001,"N_COORD97":2543852.1800000002,"ADDRESS":"怡平路５０１號","OBJECTID":520712},"geometry":{"x":165147.29000000097,"y":2543852.1799999997}},{"attributes":{"ID":520740,"DIS_CODE":0,"TOWNNAME":"安平區","LI":"華平里","LIN":"31鄰","STREET":"怡平路","SECT":" ","MAREA":" ","LANE":" ","ALLEY":" ","HOUSE_NO":"５０３號","E_COORD97":165143.14999999999,"N_COORD97":2543853.1699999999,"ADDRESS":"怡平路５０３號","OBJECTID":520713},"geometry":{"x":165143.1500000013,"y":2543853.1699999999}},{"attributes":{"ID":520741,"DIS_CODE":0,"TOWNNAME":"安平區","LI":"華平里","LIN":"31鄰","STREET":"怡平路","SECT":" ","MAREA":" ","LANE":" ","ALLEY":" ","HOUSE_NO":"５０５號","E_COORD97":165138.67999999999,"N_COORD97":2543853.8300000001,"ADDRESS":"怡平路５０５號","OBJECTID":520714},"geometry":{"x":165138.68000000063,"y":2543853.8300000019}},{"attributes":{"ID":520742,"DIS_CODE":0,"TOWNNAME":"安平區","LI":"華平里","LIN":"31鄰","STREET":"怡平路","SECT":" ","MAREA":" ","LANE":" ","ALLEY":" ","HOUSE_NO":"５０７號","E_COORD97":165134.54000000001,"N_COORD97":2543853.8300000001,"ADDRESS":"怡平路５０７號","OBJECTID":520715},"geometry":{"x":165134.5400000019,"y":2543853.8300000019}},{"attributes":{"ID":520743,"DIS_CODE":0,"TOWNNAME":"安平區","LI":"華平里","LIN":"31鄰","STREET":"怡平路","SECT":" ","MAREA":" ","LANE":" ","ALLEY":" ","HOUSE_NO":"５０９號","E_COORD97":165130.73000000001,"N_COORD97":2543854.3300000001,"ADDRESS":"怡平路５０９號","OBJECTID":520716},"geometry":{"x":165130.73000000138,"y":2543854.3300000001}},{"attributes":{"ID":520744,"DIS_CODE":0,"TOWNNAME":"安平區","LI":"華平里","LIN":"31鄰","STREET":"怡平路","SECT":" ","MAREA":" ","LANE":" ","ALLEY":" ","HOUSE_NO":"５１１號","E_COORD97":165127.25,"N_COORD97":2543854.8300000001,"ADDRESS":"怡平路５１１號","OBJECTID":520717},"geometry":{"x":165127.25,"y":2543854.8300000001}},{"attributes":{"ID":520745,"DIS_CODE":0,"TOWNNAME":"安平區","LI":"華平里","LIN":"31鄰","STREET":"怡平路","SECT":" ","MAREA":" ","LANE":" ","ALLEY":" ","HOUSE_NO":"５１３號","E_COORD97":165121.95000000001,"N_COORD97":2543855.4900000002,"ADDRESS":"怡平路５１３號","OBJECTID":520718},"geometry":{"x":165121.95000000205,"y":2543855.4900000021}},{"attributes":{"ID":520746,"DIS_CODE":0,"TOWNNAME":"安平區","LI":"華平里","LIN":"31鄰","STREET":"怡平路","SECT":" ","MAREA":" ","LANE":" ","ALLEY":" ","HOUSE_NO":"５１５號","E_COORD97":165115.48999999999,"N_COORD97":2543856.6499999999,"ADDRESS":"怡平路５１５號","OBJECTID":520719},"geometry":{"x":165115.49000000115,"y":2543856.6500000004}},{"attributes":{"ID":520747,"DIS_CODE":0,"TOWNNAME":"安平區","LI":"華平里","LIN":"31鄰","STREET":"怡平路","SECT":" ","MAREA":" ","LANE":" ","ALLEY":" ","HOUSE_NO":"５１７號地下一層","E_COORD97":165109.35999999999,"N_COORD97":2543858.4700000002,"ADDRESS":"怡平路５１７號地下一層","OBJECTID":520720},"geometry":{"x":165109.36000000127,"y":2543858.4700000007}},{"attributes":{"ID":520748,"DIS_CODE":0,"TOWNNAME":"安平區","LI":"華平里","LIN":"31鄰","STREET":"怡平路","SECT":" ","MAREA":" ","LANE":" ","ALLEY":" ","HOUSE_NO":"５１７號地下二層","E_COORD97":165109.35999999999,"N_COORD97":2543858.4700000002,"ADDRESS":"怡平路５１７號地下二層","OBJECTID":520721},"geometry":{"x":165109.36000000127,"y":2543858.4700000007}},{"attributes":{"ID":520749,"DIS_CODE":0,"TOWNNAME":"北區","LI":"成德里","LIN":"31鄰","STREET":"文成路","SECT":" ","MAREA":" ","LANE":" ","ALLEY":" ","HOUSE_NO":"１９號","E_COORD97":168849.37,"N_COORD97":2545855.7200000002,"ADDRESS":"文成路１９號","OBJECTID":520722},"geometry":{"x":168849.37000000011,"y":2545855.7200000025}},{"attributes":{"ID":520750,"DIS_CODE":0,"TOWNNAME":"北區","LI":"成德里","LIN":"31鄰","STREET":"文成路","SECT":" ","MAREA":" ","LANE":" ","ALLEY":" ","HOUSE_NO":"２１號","E_COORD97":168846.32000000001,"N_COORD97":2545856.9900000002,"ADDRESS":"文成路２１號","OBJECTID":520723},"geometry":{"x":168846.3200000003,"y":2545856.9900000021}},{"attributes":{"ID":520751,"DIS_CODE":0,"TOWNNAME":"北區","LI":"成德里","LIN":"31鄰","STREET":"文成路","SECT":" ","MAREA":" ","LANE":" ","ALLEY":" ","HOUSE_NO":"２３號","E_COORD97":168842.76000000001,"N_COORD97":2545858.0099999998,"ADDRESS":"文成路２３號","OBJECTID":520724},"geometry":{"x":168842.76000000071,"y":2545858.0100000035}},{"attributes":{"ID":520752,"DIS_CODE":0,"TOWNNAME":"北區","LI":"成德里","LIN":"31鄰","STREET":"文成路","SECT":" ","MAREA":" ","LANE":" ","ALLEY":" ","HOUSE_NO":"２５號","E_COORD97":168839.20999999999,"N_COORD97":2545859.3999999999,"ADDRESS":"文成路２５號","OBJECTID":520725},"geometry":{"x":168839.21000000089,"y":2545859.4000000041}},{"attributes":{"ID":520753,"DIS_CODE":0,"TOWNNAME":"北區","LI":"成德里","LIN":"31鄰","STREET":"西門路","SECT":"四段","MAREA":" ","LANE":" ","ALLEY":" ","HOUSE_NO":"２３９號","E_COORD97":168874.06,"N_COORD97":2545806.6699999999,"ADDRESS":"西門路四段２３９號","OBJECTID":520726},"geometry":{"x":168874.06000000052,"y":2545806.6700000018}},{"attributes":{"ID":520754,"DIS_CODE":0,"TOWNNAME":"北區","LI":"和順里","LIN":"31鄰","STREET":"臨安路","SECT":"二段","MAREA":" ","LANE":" ","ALLEY":" ","HOUSE_NO":"１４５號","E_COORD97":167781.25,"N_COORD97":2544878.4900000002,"ADDRESS":"臨安路二段１４５號","OBJECTID":520727},"geometry":{"x":167781.25000000093,"y":2544878.4900000002}},{"attributes":{"ID":520755,"DIS_CODE":0,"TOWNNAME":"永康區","LI":"崑山里","LIN":"31鄰","STREET":"永大路","SECT":"二段","MAREA":" ","LANE":" ","ALLEY":" ","HOUSE_NO":"２７號四樓之３","E_COORD97":174133.31,"N_COORD97":2544722.54,"ADDRESS":"永大路二段２７號四樓之３","OBJECTID":520728},"geometry":{"x":174133.30999999959,"y":2544722.540000001}},{"attributes":{"ID":520756,"DIS_CODE":0,"TOWNNAME":"永康區","LI":"崑山里","LIN":"31鄰","STREET":"永大路","SECT":"二段","MAREA":" ","LANE":" ","ALLEY":" ","HOUSE_NO":"２７號六樓之２","E_COORD97":174133.34,"N_COORD97":2544722.54,"ADDRESS":"永大路二段２７號六樓之２","OBJECTID":520729},"geometry":{"x":174133.33999999985,"y":2544722.540000001}},{"attributes":{"ID":520757,"DIS_CODE":0,"TOWNNAME":"永康區","LI":"崑山里","LIN":"31鄰","STREET":"永大路","SECT":"二段","MAREA":" ","LANE":" ","ALLEY":" ","HOUSE_NO":"２７號三樓","E_COORD97":174131.07000000001,"N_COORD97":2544722.52,"ADDRESS":"永大路二段２７號三樓","OBJECTID":520730},"geometry":{"x":174131.07000000216,"y":2544722.5200000014}},{"attributes":{"ID":520758,"DIS_CODE":0,"TOWNNAME":"永康區","LI":"崑山里","LIN":"31鄰","STREET":"永大路","SECT":"二段","MAREA":" ","LANE":" ","ALLEY":" ","HOUSE_NO":"２７號六樓之１","E_COORD97":174133.20999999999,"N_COORD97":2544722.54,"ADDRESS":"永大路二段２７號六樓之１","OBJECTID":520731},"geometry":{"x":174133.21000000183,"y":2544722.540000001}},{"attributes":{"ID":520759,"DIS_CODE":0,"TOWNNAME":"永康區","LI":"崑山里","LIN":"31鄰","STREET":"永大路","SECT":"二段","MAREA":" ","LANE":" ","ALLEY":" ","HOUSE_NO":"２７號七樓之２","E_COORD97":174133.34,"N_COORD97":2544722.54,"ADDRESS":"永大路二段２７號七樓之２","OBJECTID":520732},"geometry":{"x":174133.33999999985,"y":2544722.540000001}},{"attributes":{"ID":520760,"DIS_CODE":0,"TOWNNAME":"永康區","LI":"崑山里","LIN":"31鄰","STREET":"永大路","SECT":"二段","MAREA":" ","LANE":" ","ALLEY":" ","HOUSE_NO":"２７號四樓之１","E_COORD97":174133.20999999999,"N_COORD97":2544722.54,"ADDRESS":"永大路二段２７號四樓之１","OBJECTID":520733},"geometry":{"x":174133.21000000183,"y":2544722.540000001}},{"attributes":{"ID":520761,"DIS_CODE":0,"TOWNNAME":"永康區","LI":"崑山里","LIN":"31鄰","STREET":"永大路","SECT":"二段","MAREA":" ","LANE":" ","ALLEY":" ","HOUSE_NO":"２７號六樓之３","E_COORD97":174133.31,"N_COORD97":2544722.54,"ADDRESS":"永大路二段２７號六樓之３","OBJECTID":520734},"geometry":{"x":174133.30999999959,"y":2544722.540000001}},{"attributes":{"ID":520762,"DIS_CODE":0,"TOWNNAME":"佳里區","LI":"建南里","LIN":"31鄰","STREET":"南勢街","SECT":" ","MAREA":" ","LANE":" ","ALLEY":" ","HOUSE_NO":"２８７號","E_COORD97":165650.5,"N_COORD97":2560839.9100000001,"ADDRESS":"南勢街２８７號","OBJECTID":520735},"geometry":{"x":165650.50000000093,"y":2560839.9100000001}},{"attributes":{"ID":520763,"DIS_CODE":0,"TOWNNAME":"永康區","LI":"崑山里","LIN":"31鄰","STREET":"永大路","SECT":"二段","MAREA":" ","LANE":" ","ALLEY":" ","HOUSE_NO":"２７號七樓之３","E_COORD97":174133.31,"N_COORD97":2544722.54,"ADDRESS":"永大路二段２７號七樓之３","OBJECTID":520736},"geometry":{"x":174133.30999999959,"y":2544722.540000001}},{"attributes":{"ID":520764,"DIS_CODE":0,"TOWNNAME":"永康區","LI":"崑山里","LIN":"31鄰","STREET":"永大路","SECT":"二段","MAREA":" ","LANE":" ","ALLEY":" ","HOUSE_NO":"２７號五樓之１","E_COORD97":174133.20999999999,"N_COORD97":2544722.54,"ADDRESS":"永大路二段２７號五樓之１","OBJECTID":520737},"geometry":{"x":174133.21000000183,"y":2544722.540000001}},{"attributes":{"ID":520765,"DIS_CODE":0,"TOWNNAME":"東區","LI":"東光里","LIN":"31鄰","STREET":"東平路","SECT":" ","MAREA":" ","LANE":" ","ALLEY":" ","HOUSE_NO":"１１號七樓","E_COORD97":171431.01999999999,"N_COORD97":2543899.73,"ADDRESS":"東平路１１號七樓","OBJECTID":520738},"geometry":{"x":171431.01999999955,"y":2543899.7300000004}},{"attributes":{"ID":520766,"DIS_CODE":0,"TOWNNAME":"東區","LI":"東光里","LIN":"31鄰","STREET":"東平路","SECT":" ","MAREA":" ","LANE":" ","ALLEY":" ","HOUSE_NO":"１１號七樓之１","E_COORD97":171431.01999999999,"N_COORD97":2543899.73,"ADDRESS":"東平路１１號七樓之１","OBJECTID":520739},"geometry":{"x":171431.01999999955,"y":2543899.7300000004}},{"attributes":{"ID":520767,"DIS_CODE":0,"TOWNNAME":"東區","LI":"東光里","LIN":"31鄰","STREET":"東平路","SECT":" ","MAREA":" ","LANE":" ","ALLEY":" ","HOUSE_NO":"１１號七樓之２","E_COORD97":171431.01999999999,"N_COORD97":2543899.73,"ADDRESS":"東平路１１號七樓之２","OBJECTID":520740},"geometry":{"x":171431.01999999955,"y":2543899.7300000004}},{"attributes":{"ID":520768,"DIS_CODE":0,"TOWNNAME":"東區","LI":"東光里","LIN":"31鄰","STREET":"東平路","SECT":" ","MAREA":" ","LANE":" ","ALLEY":" ","HOUSE_NO":"１１號七樓之３","E_COORD97":171431.01999999999,"N_COORD97":2543899.73,"ADDRESS":"東平路１１號七樓之３","OBJECTID":520741},"geometry":{"x":171431.01999999955,"y":2543899.7300000004}},{"attributes":{"ID":520769,"DIS_CODE":0,"TOWNNAME":"東區","LI":"東光里","LIN":"31鄰","STREET":"東平路","SECT":" ","MAREA":" ","LANE":" ","ALLEY":" ","HOUSE_NO":"１１號九樓","E_COORD97":171431.01999999999,"N_COORD97":2543899.73,"ADDRESS":"東平路１１號九樓","OBJECTID":520742},"geometry":{"x":171431.01999999955,"y":2543899.7300000004}},{"attributes":{"ID":520770,"DIS_CODE":0,"TOWNNAME":"東區","LI":"東光里","LIN":"31鄰","STREET":"東平路","SECT":" ","MAREA":" ","LANE":" ","ALLEY":" ","HOUSE_NO":"１１號九樓之１","E_COORD97":171431.01999999999,"N_COORD97":2543899.73,"ADDRESS":"東平路１１號九樓之１","OBJECTID":520743},"geometry":{"x":171431.01999999955,"y":2543899.7300000004}},{"attributes":{"ID":520771,"DIS_CODE":0,"TOWNNAME":"東區","LI":"東光里","LIN":"31鄰","STREET":"東平路","SECT":" ","MAREA":" ","LANE":" ","ALLEY":" ","HOUSE_NO":"１１號九樓之２","E_COORD97":171431.01999999999,"N_COORD97":2543899.73,"ADDRESS":"東平路１１號九樓之２","OBJECTID":520744},"geometry":{"x":171431.01999999955,"y":2543899.7300000004}},{"attributes":{"ID":520772,"DIS_CODE":0,"TOWNNAME":"東區","LI":"東光里","LIN":"31鄰","STREET":"東平路","SECT":" ","MAREA":" ","LANE":" ","ALLEY":" ","HOUSE_NO":"１１號九樓之３","E_COORD97":171431.01999999999,"N_COORD97":2543899.73,"ADDRESS":"東平路１１號九樓之３","OBJECTID":520745},"geometry":{"x":171431.01999999955,"y":2543899.7300000004}},{"attributes":{"ID":520773,"DIS_CODE":0,"TOWNNAME":"東區","LI":"東光里","LIN":"31鄰","STREET":"東平路","SECT":" ","MAREA":" ","LANE":" ","ALLEY":" ","HOUSE_NO":"１１號八樓","E_COORD97":171431.01999999999,"N_COORD97":2543899.73,"ADDRESS":"東平路１１號八樓","OBJECTID":520746},"geometry":{"x":171431.01999999955,"y":2543899.7300000004}},{"attributes":{"ID":520774,"DIS_CODE":0,"TOWNNAME":"東區","LI":"東光里","LIN":"31鄰","STREET":"東平路","SECT":" ","MAREA":" ","LANE":" ","ALLEY":" ","HOUSE_NO":"１１號八樓之１","E_COORD97":171431.01999999999,"N_COORD97":2543899.73,"ADDRESS":"東平路１１號八樓之１","OBJECTID":520747},"geometry":{"x":171431.01999999955,"y":2543899.7300000004}},{"attributes":{"ID":520775,"DIS_CODE":0,"TOWNNAME":"東區","LI":"東光里","LIN":"31鄰","STREET":"東平路","SECT":" ","MAREA":" ","LANE":" ","ALLEY":" ","HOUSE_NO":"１１號八樓之２","E_COORD97":171431.01999999999,"N_COORD97":2543899.73,"ADDRESS":"東平路１１號八樓之２","OBJECTID":520748},"geometry":{"x":171431.01999999955,"y":2543899.7300000004}},{"attributes":{"ID":520776,"DIS_CODE":0,"TOWNNAME":"東區","LI":"東光里","LIN":"31鄰","STREET":"東平路","SECT":" ","MAREA":" ","LANE":" ","ALLEY":" ","HOUSE_NO":"１１號八樓之３","E_COORD97":171431.01999999999,"N_COORD97":2543899.73,"ADDRESS":"東平路１１號八樓之３","OBJECTID":520749},"geometry":{"x":171431.01999999955,"y":2543899.7300000004}},{"attributes":{"ID":520777,"DIS_CODE":0,"TOWNNAME":"東區","LI":"東光里","LIN":"31鄰","STREET":"東平路","SECT":" ","MAREA":" ","LANE":" ","ALLEY":" ","HOUSE_NO":"１１號十一樓","E_COORD97":171431.01999999999,"N_COORD97":2543899.73,"ADDRESS":"東平路１１號十一樓","OBJECTID":520750},"geometry":{"x":171431.01999999955,"y":2543899.7300000004}},{"attributes":{"ID":520778,"DIS_CODE":0,"TOWNNAME":"東區","LI":"東光里","LIN":"31鄰","STREET":"東平路","SECT":" ","MAREA":" ","LANE":" ","ALLEY":" ","HOUSE_NO":"１１號十一樓之１","E_COORD97":171431.01999999999,"N_COORD97":2543899.73,"ADDRESS":"東平路１１號十一樓之１","OBJECTID":520751},"geometry":{"x":171431.01999999955,"y":2543899.7300000004}},{"attributes":{"ID":520779,"DIS_CODE":0,"TOWNNAME":"東區","LI":"東光里","LIN":"31鄰","STREET":"東平路","SECT":" ","MAREA":" ","LANE":" ","ALLEY":" ","HOUSE_NO":"１１號十一樓之２","E_COORD97":171431.01999999999,"N_COORD97":2543899.73,"ADDRESS":"東平路１１號十一樓之２","OBJECTID":520752},"geometry":{"x":171431.01999999955,"y":2543899.7300000004}},{"attributes":{"ID":520780,"DIS_CODE":0,"TOWNNAME":"東區","LI":"東光里","LIN":"31鄰","STREET":"莊敬路","SECT":" ","MAREA":" ","LANE":" ","ALLEY":" ","HOUSE_NO":"８２號五樓","E_COORD97":171359.20000000001,"N_COORD97":2543881.1600000001,"ADDRESS":"莊敬路８２號五樓","OBJECTID":520753},"geometry":{"x":171359.20000000112,"y":2543881.1600000039}},{"attributes":{"ID":520781,"DIS_CODE":0,"TOWNNAME":"東區","LI":"東光里","LIN":"31鄰","STREET":"東平路","SECT":" ","MAREA":" ","LANE":" ","ALLEY":" ","HOUSE_NO":"１１號十一樓之３","E_COORD97":171431.01999999999,"N_COORD97":2543899.73,"ADDRESS":"東平路１１號十一樓之３","OBJECTID":520754},"geometry":{"x":171431.01999999955,"y":2543899.7300000004}},{"attributes":{"ID":520782,"DIS_CODE":0,"TOWNNAME":"東區","LI":"東光里","LIN":"31鄰","STREET":"東平路","SECT":" ","MAREA":" ","LANE":" ","ALLEY":" ","HOUSE_NO":"１１號十二樓","E_COORD97":171431.01999999999,"N_COORD97":2543899.73,"ADDRESS":"東平路１１號十二樓","OBJECTID":520755},"geometry":{"x":171431.01999999955,"y":2543899.7300000004}},{"attributes":{"ID":520783,"DIS_CODE":0,"TOWNNAME":"東區","LI":"東光里","LIN":"31鄰","STREET":"東平路","SECT":" ","MAREA":" ","LANE":" ","ALLEY":" ","HOUSE_NO":"１１號十二樓之１","E_COORD97":171431.01999999999,"N_COORD97":2543899.73,"ADDRESS":"東平路１１號十二樓之１","OBJECTID":520756},"geometry":{"x":171431.01999999955,"y":2543899.7300000004}},{"attributes":{"ID":520784,"DIS_CODE":0,"TOWNNAME":"東區","LI":"東光里","LIN":"31鄰","STREET":"東平路","SECT":" ","MAREA":" ","LANE":" ","ALLEY":" ","HOUSE_NO":"１１號十二樓之２","E_COORD97":171431.01999999999,"N_COORD97":2543899.73,"ADDRESS":"東平路１１號十二樓之２","OBJECTID":520757},"geometry":{"x":171431.01999999955,"y":2543899.7300000004}},{"attributes":{"ID":520785,"DIS_CODE":0,"TOWNNAME":"東區","LI":"東光里","LIN":"31鄰","STREET":"東平路","SECT":" ","MAREA":" ","LANE":" ","ALLEY":" ","HOUSE_NO":"１１號十二樓之３","E_COORD97":171431.01999999999,"N_COORD97":2543899.73,"ADDRESS":"東平路１１號十二樓之３","OBJECTID":520758},"geometry":{"x":171431.01999999955,"y":2543899.7300000004}},{"attributes":{"ID":520786,"DIS_CODE":0,"TOWNNAME":"東區","LI":"東光里","LIN":"31鄰","STREET":"東平路","SECT":" ","MAREA":" ","LANE":" ","ALLEY":" ","HOUSE_NO":"１１號十三樓","E_COORD97":171431.01999999999,"N_COORD97":2543899.73,"ADDRESS":"東平路１１號十三樓","OBJECTID":520759},"geometry":{"x":171431.01999999955,"y":2543899.7300000004}},{"attributes":{"ID":520787,"DIS_CODE":0,"TOWNNAME":"東區","LI":"東光里","LIN":"31鄰","STREET":"東平路","SECT":" ","MAREA":" ","LANE":" ","ALLEY":" ","HOUSE_NO":"１１號十三樓之１","E_COORD97":171431.01999999999,"N_COORD97":2543899.73,"ADDRESS":"東平路１１號十三樓之１","OBJECTID":520760},"geometry":{"x":171431.01999999955,"y":2543899.7300000004}},{"attributes":{"ID":520788,"DIS_CODE":0,"TOWNNAME":"東區","LI":"東光里","LIN":"31鄰","STREET":"東平路","SECT":" ","MAREA":" ","LANE":" ","ALLEY":" ","HOUSE_NO":"１１號十三樓之２","E_COORD97":171431.01999999999,"N_COORD97":2543899.73,"ADDRESS":"東平路１１號十三樓之２","OBJECTID":520761},"geometry":{"x":171431.01999999955,"y":2543899.7300000004}},{"attributes":{"ID":520789,"DIS_CODE":0,"TOWNNAME":"東區","LI":"東光里","LIN":"31鄰","STREET":"東平路","SECT":" ","MAREA":" ","LANE":" ","ALLEY":" ","HOUSE_NO":"１１號十三樓之３","E_COORD97":171431.01999999999,"N_COORD97":2543899.73,"ADDRESS":"東平路１１號十三樓之３","OBJECTID":520762},"geometry":{"x":171431.01999999955,"y":2543899.7300000004}},{"attributes":{"ID":520790,"DIS_CODE":0,"TOWNNAME":"東區","LI":"東光里","LIN":"31鄰","STREET":"東平路","SECT":" ","MAREA":" ","LANE":" ","ALLEY":" ","HOUSE_NO":"１１號十五樓","E_COORD97":171431.01999999999,"N_COORD97":2543899.73,"ADDRESS":"東平路１１號十五樓","OBJECTID":520763},"geometry":{"x":171431.01999999955,"y":2543899.7300000004}},{"attributes":{"ID":520791,"DIS_CODE":0,"TOWNNAME":"東區","LI":"東光里","LIN":"31鄰","STREET":"東平路","SECT":" ","MAREA":" ","LANE":" ","ALLEY":" ","HOUSE_NO":"１１號十五樓之１","E_COORD97":171431.01999999999,"N_COORD97":2543899.73,"ADDRESS":"東平路１１號十五樓之１","OBJECTID":520764},"geometry":{"x":171431.01999999955,"y":2543899.7300000004}},{"attributes":{"ID":520792,"DIS_CODE":0,"TOWNNAME":"東區","LI":"東光里","LIN":"31鄰","STREET":"東平路","SECT":" ","MAREA":" ","LANE":" ","ALLEY":" ","HOUSE_NO":"１１號十五樓之２","E_COORD97":171431.01999999999,"N_COORD97":2543899.73,"ADDRESS":"東平路１１號十五樓之２","OBJECTID":520765},"geometry":{"x":171431.01999999955,"y":2543899.7300000004}},{"attributes":{"ID":520793,"DIS_CODE":0,"TOWNNAME":"東區","LI":"東光里","LIN":"31鄰","STREET":"東平路","SECT":" ","MAREA":" ","LANE":" ","ALLEY":" ","HOUSE_NO":"１１號十四樓","E_COORD97":171431.01999999999,"N_COORD97":2543899.73,"ADDRESS":"東平路１１號十四樓","OBJECTID":520766},"geometry":{"x":171431.01999999955,"y":2543899.7300000004}},{"attributes":{"ID":520794,"DIS_CODE":0,"TOWNNAME":"東區","LI":"東光里","LIN":"31鄰","STREET":"東平路","SECT":" ","MAREA":" ","LANE":" ","ALLEY":" ","HOUSE_NO":"１１號十四樓之１","E_COORD97":171431.01999999999,"N_COORD97":2543899.73,"ADDRESS":"東平路１１號十四樓之１","OBJECTID":520767},"geometry":{"x":171431.01999999955,"y":2543899.7300000004}},{"attributes":{"ID":520795,"DIS_CODE":0,"TOWNNAME":"佳里區","LI":"建南里","LIN":"31鄰","STREET":"南勢街","SECT":" ","MAREA":" ","LANE":" ","ALLEY":" ","HOUSE_NO":"２９３號","E_COORD97":165643.88,"N_COORD97":2560855.6400000001,"ADDRESS":"南勢街２９３號","OBJECTID":520768},"geometry":{"x":165643.87999999989,"y":2560855.6400000006}},{"attributes":{"ID":520796,"DIS_CODE":0,"TOWNNAME":"東區","LI":"東光里","LIN":"31鄰","STREET":"東平路","SECT":" ","MAREA":" ","LANE":" ","ALLEY":" ","HOUSE_NO":"１１號十四樓之２","E_COORD97":171431.01999999999,"N_COORD97":2543899.73,"ADDRESS":"東平路１１號十四樓之２","OBJECTID":520769},"geometry":{"x":171431.01999999955,"y":2543899.7300000004}},{"attributes":{"ID":520797,"DIS_CODE":0,"TOWNNAME":"東區","LI":"東光里","LIN":"31鄰","STREET":"東平路","SECT":" ","MAREA":" ","LANE":" ","ALLEY":" ","HOUSE_NO":"１１號十四樓之３","E_COORD97":171431.01999999999,"N_COORD97":2543899.73,"ADDRESS":"東平路１１號十四樓之３","OBJECTID":520770},"geometry":{"x":171431.01999999955,"y":2543899.7300000004}},{"attributes":{"ID":520798,"DIS_CODE":0,"TOWNNAME":"東區","LI":"東光里","LIN":"31鄰","STREET":"東平路","SECT":" ","MAREA":" ","LANE":" ","ALLEY":" ","HOUSE_NO":"１１號十樓","E_COORD97":171431.01999999999,"N_COORD97":2543899.73,"ADDRESS":"東平路１１號十樓","OBJECTID":520771},"geometry":{"x":171431.01999999955,"y":2543899.7300000004}},{"attributes":{"ID":520799,"DIS_CODE":0,"TOWNNAME":"東區","LI":"東光里","LIN":"31鄰","STREET":"東平路","SECT":" ","MAREA":" ","LANE":" ","ALLEY":" ","HOUSE_NO":"１１號十樓之１","E_COORD97":171431.01999999999,"N_COORD97":2543899.73,"ADDRESS":"東平路１１號十樓之１","OBJECTID":520772},"geometry":{"x":171431.01999999955,"y":2543899.7300000004}},{"attributes":{"ID":520800,"DIS_CODE":0,"TOWNNAME":"東區","LI":"東光里","LIN":"31鄰","STREET":"東平路","SECT":" ","MAREA":" ","LANE":" ","ALLEY":" ","HOUSE_NO":"１１號十樓之２","E_COORD97":171431.01999999999,"N_COORD97":2543899.73,"ADDRESS":"東平路１１號十樓之２","OBJECTID":520773},"geometry":{"x":171431.01999999955,"y":2543899.7300000004}},{"attributes":{"ID":520801,"DIS_CODE":0,"TOWNNAME":"東區","LI":"東光里","LIN":"31鄰","STREET":"東平路","SECT":" ","MAREA":" ","LANE":" ","ALLEY":" ","HOUSE_NO":"１１號十樓之３","E_COORD97":171431.01999999999,"N_COORD97":2543899.73,"ADDRESS":"東平路１１號十樓之３","OBJECTID":520774},"geometry":{"x":171431.01999999955,"y":2543899.7300000004}},{"attributes":{"ID":520802,"DIS_CODE":0,"TOWNNAME":"東區","LI":"東光里","LIN":"31鄰","STREET":"東平路","SECT":" ","MAREA":" ","LANE":" ","ALLEY":" ","HOUSE_NO":"１１號三樓","E_COORD97":171431.01999999999,"N_COORD97":2543899.73,"ADDRESS":"東平路１１號三樓","OBJECTID":520775},"geometry":{"x":171431.01999999955,"y":2543899.7300000004}},{"attributes":{"ID":520803,"DIS_CODE":0,"TOWNNAME":"東區","LI":"東光里","LIN":"31鄰","STREET":"東平路","SECT":" ","MAREA":" ","LANE":" ","ALLEY":" ","HOUSE_NO":"１１號三樓之１","E_COORD97":171431.01999999999,"N_COORD97":2543899.73,"ADDRESS":"東平路１１號三樓之１","OBJECTID":520776},"geometry":{"x":171431.01999999955,"y":2543899.7300000004}},{"attributes":{"ID":520804,"DIS_CODE":0,"TOWNNAME":"東區","LI":"東光里","LIN":"31鄰","STREET":"東平路","SECT":" ","MAREA":" ","LANE":" ","ALLEY":" ","HOUSE_NO":"１１號三樓之２","E_COORD97":171431.01999999999,"N_COORD97":2543899.73,"ADDRESS":"東平路１１號三樓之２","OBJECTID":520777},"geometry":{"x":171431.01999999955,"y":2543899.7300000004}},{"attributes":{"ID":520805,"DIS_CODE":0,"TOWNNAME":"東區","LI":"東光里","LIN":"31鄰","STREET":"東平路","SECT":" ","MAREA":" ","LANE":" ","ALLEY":" ","HOUSE_NO":"１１號五樓","E_COORD97":171431.01999999999,"N_COORD97":2543899.73,"ADDRESS":"東平路１１號五樓","OBJECTID":520778},"geometry":{"x":171431.01999999955,"y":2543899.7300000004}},{"attributes":{"ID":520806,"DIS_CODE":0,"TOWNNAME":"東區","LI":"東光里","LIN":"31鄰","STREET":"東平路","SECT":" ","MAREA":" ","LANE":" ","ALLEY":" ","HOUSE_NO":"１１號五樓之１","E_COORD97":171431.01999999999,"N_COORD97":2543899.73,"ADDRESS":"東平路１１號五樓之１","OBJECTID":520779},"geometry":{"x":171431.01999999955,"y":2543899.7300000004}},{"attributes":{"ID":520807,"DIS_CODE":0,"TOWNNAME":"東區","LI":"東光里","LIN":"31鄰","STREET":"東平路","SECT":" ","MAREA":" ","LANE":" ","ALLEY":" ","HOUSE_NO":"１１號五樓之２","E_COORD97":171431.01999999999,"N_COORD97":2543899.73,"ADDRESS":"東平路１１號五樓之２","OBJECTID":520780},"geometry":{"x":171431.01999999955,"y":2543899.7300000004}},{"attributes":{"ID":520808,"DIS_CODE":0,"TOWNNAME":"東區","LI":"東光里","LIN":"31鄰","STREET":"東平路","SECT":" ","MAREA":" ","LANE":" ","ALLEY":" ","HOUSE_NO":"１１號五樓之３","E_COORD97":171431.01999999999,"N_COORD97":2543899.73,"ADDRESS":"東平路１１號五樓之３","OBJECTID":520781},"geometry":{"x":171431.01999999955,"y":2543899.7300000004}},{"attributes":{"ID":520809,"DIS_CODE":0,"TOWNNAME":"東區","LI":"東光里","LIN":"31鄰","STREET":"東平路","SECT":" ","MAREA":" ","LANE":" ","ALLEY":" ","HOUSE_NO":"１１號六樓","E_COORD97":171431.01999999999,"N_COORD97":2543899.73,"ADDRESS":"東平路１１號六樓","OBJECTID":520782},"geometry":{"x":171431.01999999955,"y":2543899.7300000004}},{"attributes":{"ID":520810,"DIS_CODE":0,"TOWNNAME":"東區","LI":"東光里","LIN":"31鄰","STREET":"東平路","SECT":" ","MAREA":" ","LANE":" ","ALLEY":" ","HOUSE_NO":"１１號六樓之１","E_COORD97":171431.01999999999,"N_COORD97":2543899.73,"ADDRESS":"東平路１１號六樓之１","OBJECTID":520783},"geometry":{"x":171431.01999999955,"y":2543899.7300000004}},{"attributes":{"ID":520811,"DIS_CODE":0,"TOWNNAME":"東區","LI":"東光里","LIN":"31鄰","STREET":"東平路","SECT":" ","MAREA":" ","LANE":" ","ALLEY":" ","HOUSE_NO":"１１號六樓之２","E_COORD97":171431.01999999999,"N_COORD97":2543899.73,"ADDRESS":"東平路１１號六樓之２","OBJECTID":520784},"geometry":{"x":171431.01999999955,"y":2543899.7300000004}},{"attributes":{"ID":520812,"DIS_CODE":0,"TOWNNAME":"東區","LI":"東光里","LIN":"31鄰","STREET":"東平路","SECT":" ","MAREA":" ","LANE":" ","ALLEY":" ","HOUSE_NO":"１１號六樓之３","E_COORD97":171431.01999999999,"N_COORD97":2543899.73,"ADDRESS":"東平路１１號六樓之３","OBJECTID":520785},"geometry":{"x":171431.01999999955,"y":2543899.7300000004}},{"attributes":{"ID":520813,"DIS_CODE":0,"TOWNNAME":"東區","LI":"東光里","LIN":"31鄰","STREET":"東平路","SECT":" ","MAREA":" ","LANE":" ","ALLEY":" ","HOUSE_NO":"１１號四樓","E_COORD97":171431.01999999999,"N_COORD97":2543899.73,"ADDRESS":"東平路１１號四樓","OBJECTID":520786},"geometry":{"x":171431.01999999955,"y":2543899.7300000004}},{"attributes":{"ID":520814,"DIS_CODE":0,"TOWNNAME":"東區","LI":"東光里","LIN":"31鄰","STREET":"東平路","SECT":" ","MAREA":" ","LANE":" ","ALLEY":" ","HOUSE_NO":"１１號四樓之１","E_COORD97":171431.01999999999,"N_COORD97":2543899.73,"ADDRESS":"東平路１１號四樓之１","OBJECTID":520787},"geometry":{"x":171431.01999999955,"y":2543899.7300000004}},{"attributes":{"ID":520815,"DIS_CODE":0,"TOWNNAME":"東區","LI":"東光里","LIN":"31鄰","STREET":"東平路","SECT":" ","MAREA":" ","LANE":" ","ALLEY":" ","HOUSE_NO":"１１號四樓之２","E_COORD97":171431.01999999999,"N_COORD97":2543899.73,"ADDRESS":"東平路１１號四樓之２","OBJECTID":520788},"geometry":{"x":171431.01999999955,"y":2543899.7300000004}},{"attributes":{"ID":520816,"DIS_CODE":0,"TOWNNAME":"東區","LI":"東光里","LIN":"31鄰","STREET":"東平路","SECT":" ","MAREA":" ","LANE":" ","ALLEY":" ","HOUSE_NO":"１１號四樓之３","E_COORD97":171431.01999999999,"N_COORD97":2543899.73,"ADDRESS":"東平路１１號四樓之３","OBJECTID":520789},"geometry":{"x":171431.01999999955,"y":2543899.7300000004}},{"attributes":{"ID":520817,"DIS_CODE":0,"TOWNNAME":"東區","LI":"東光里","LIN":"31鄰","STREET":"東平路","SECT":" ","MAREA":" ","LANE":" ","ALLEY":" ","HOUSE_NO":"２３號七樓","E_COORD97":171404.79000000001,"N_COORD97":2543901.3700000001,"ADDRESS":"東平路２３號七樓","OBJECTID":520790},"geometry":{"x":171404.79000000004,"y":2543901.3700000029}},{"attributes":{"ID":520818,"DIS_CODE":0,"TOWNNAME":"東區","LI":"東光里","LIN":"31鄰","STREET":"東平路","SECT":" ","MAREA":" ","LANE":" ","ALLEY":" ","HOUSE_NO":"２３號七樓之１","E_COORD97":171404.79000000001,"N_COORD97":2543901.3700000001,"ADDRESS":"東平路２３號七樓之１","OBJECTID":520791},"geometry":{"x":171404.79000000004,"y":2543901.3700000029}},{"attributes":{"ID":520819,"DIS_CODE":0,"TOWNNAME":"東區","LI":"東光里","LIN":"31鄰","STREET":"東平路","SECT":" ","MAREA":" ","LANE":" ","ALLEY":" ","HOUSE_NO":"２３號九樓","E_COORD97":171404.79000000001,"N_COORD97":2543901.3700000001,"ADDRESS":"東平路２３號九樓","OBJECTID":520792},"geometry":{"x":171404.79000000004,"y":2543901.3700000029}},{"attributes":{"ID":520820,"DIS_CODE":0,"TOWNNAME":"東區","LI":"東光里","LIN":"31鄰","STREET":"東平路","SECT":" ","MAREA":" ","LANE":" ","ALLEY":" ","HOUSE_NO":"２３號九樓之１","E_COORD97":171404.79000000001,"N_COORD97":2543901.3700000001,"ADDRESS":"東平路２３號九樓之１","OBJECTID":520793},"geometry":{"x":171404.79000000004,"y":2543901.3700000029}},{"attributes":{"ID":520821,"DIS_CODE":0,"TOWNNAME":"東區","LI":"東光里","LIN":"31鄰","STREET":"東平路","SECT":" ","MAREA":" ","LANE":" ","ALLEY":" ","HOUSE_NO":"２３號八樓","E_COORD97":171404.79000000001,"N_COORD97":2543901.3700000001,"ADDRESS":"東平路２３號八樓","OBJECTID":520794},"geometry":{"x":171404.79000000004,"y":2543901.3700000029}},{"attributes":{"ID":520822,"DIS_CODE":0,"TOWNNAME":"東區","LI":"東光里","LIN":"31鄰","STREET":"東平路","SECT":" ","MAREA":" ","LANE":" ","ALLEY":" ","HOUSE_NO":"２３號八樓之１","E_COORD97":171404.79000000001,"N_COORD97":2543901.3700000001,"ADDRESS":"東平路２３號八樓之１","OBJECTID":520795},"geometry":{"x":171404.79000000004,"y":2543901.3700000029}},{"attributes":{"ID":520823,"DIS_CODE":0,"TOWNNAME":"東區","LI":"東光里","LIN":"31鄰","STREET":"東平路","SECT":" ","MAREA":" ","LANE":" ","ALLEY":" ","HOUSE_NO":"２３號十一樓","E_COORD97":171404.79000000001,"N_COORD97":2543901.3700000001,"ADDRESS":"東平路２３號十一樓","OBJECTID":520796},"geometry":{"x":171404.79000000004,"y":2543901.3700000029}},{"attributes":{"ID":520824,"DIS_CODE":0,"TOWNNAME":"東區","LI":"東光里","LIN":"31鄰","STREET":"東平路","SECT":" ","MAREA":" ","LANE":" ","ALLEY":" ","HOUSE_NO":"２３號十一樓之１","E_COORD97":171404.79000000001,"N_COORD97":2543901.3700000001,"ADDRESS":"東平路２３號十一樓之１","OBJECTID":520797},"geometry":{"x":171404.79000000004,"y":2543901.3700000029}},{"attributes":{"ID":520825,"DIS_CODE":0,"TOWNNAME":"東區","LI":"東光里","LIN":"31鄰","STREET":"東平路","SECT":" ","MAREA":" ","LANE":" ","ALLEY":" ","HOUSE_NO":"２３號十二樓","E_COORD97":171404.79000000001,"N_COORD97":2543901.3700000001,"ADDRESS":"東平路２３號十二樓","OBJECTID":520798},"geometry":{"x":171404.79000000004,"y":2543901.3700000029}},{"attributes":{"ID":520826,"DIS_CODE":0,"TOWNNAME":"東區","LI":"東光里","LIN":"31鄰","STREET":"東平路","SECT":" ","MAREA":" ","LANE":" ","ALLEY":" ","HOUSE_NO":"２３號十二樓之１","E_COORD97":171404.79000000001,"N_COORD97":2543901.3700000001,"ADDRESS":"東平路２３號十二樓之１","OBJECTID":520799},"geometry":{"x":171404.79000000004,"y":2543901.3700000029}},{"attributes":{"ID":520827,"DIS_CODE":0,"TOWNNAME":"東區","LI":"東光里","LIN":"31鄰","STREET":"東平路","SECT":" ","MAREA":" ","LANE":" ","ALLEY":" ","HOUSE_NO":"２３號十三樓","E_COORD97":171404.79000000001,"N_COORD97":2543901.3700000001,"ADDRESS":"東平路２３號十三樓","OBJECTID":520800},"geometry":{"x":171404.79000000004,"y":2543901.3700000029}}]}