{"displayFieldName":"TOWNNAME","fieldAliases":{"ID":"ID","DIS_CODE":"DIS_CODE","TOWNNAME":"TOWNNAME","LI":"LI","LIN":"LIN","STREET":"STREET","SECT":"SECT","MAREA":"MAREA","LANE":"LANE","ALLEY":"ALLEY","HOUSE_NO":"HOUSE_NO","E_COORD97":"E_COORD97","N_COORD97":"N_COORD97","ADDRESS":"ADDRESS","OBJECTID":"OBJECTID"},"geometryType":"esriGeometryPoint","spatialReference":{"wkid":102443,"latestWkid":3826},"fields":[{"name":"ID","type":"esriFieldTypeDouble","alias":"ID"},{"name":"DIS_CODE","type":"esriFieldTypeInteger","alias":"DIS_CODE"},{"name":"TOWNNAME","type":"esriFieldTypeString","alias":"TOWNNAME","length":8},{"name":"LI","type":"esriFieldTypeString","alias":"LI","length":8},{"name":"LIN","type":"esriFieldTypeString","alias":"LIN","length":12},{"name":"STREET","type":"esriFieldTypeString","alias":"STREET","length":20},{"name":"SECT","type":"esriFieldTypeString","alias":"SECT","length":8},{"name":"MAREA","type":"esriFieldTypeString","alias":"MAREA","length":12},{"name":"LANE","type":"esriFieldTypeString","alias":"LANE","length":10},{"name":"ALLEY","type":"esriFieldTypeString","alias":"ALLEY","length":10},{"name":"HOUSE_NO","type":"esriFieldTypeString","alias":"HOUSE_NO","length":20},{"name":"E_COORD97","type":"esriFieldTypeDouble","alias":"E_COORD97"},{"name":"N_COORD97","type":"esriFieldTypeDouble","alias":"N_COORD97"},{"name":"ADDRESS","type":"esriFieldTypeString","alias":"ADDRESS","length":50},{"name":"OBJECTID","type":"esriFieldTypeOID","alias":"OBJECTID"}],"features":[{"attributes":{"ID":388225,"DIS_CODE":0,"TOWNNAME":"東區","LI":"自強里","LIN":"28鄰","STREET":"中華東路","SECT":"二段","MAREA":" ","LANE":"１８５巷","ALLEY":" ","HOUSE_NO":"１４號十二樓之２","E_COORD97":171421.07000000001,"N_COORD97":2542749.3100000001,"ADDRESS":"中華東路二段１８５巷１４號十二樓之２","OBJECTID":388201},"geometry":{"x":171421.07000000123,"y":2542749.3100000024}},{"attributes":{"ID":388226,"DIS_CODE":0,"TOWNNAME":"東區","LI":"自強里","LIN":"28鄰","STREET":"中華東路","SECT":"二段","MAREA":" ","LANE":"１８５巷","ALLEY":" ","HOUSE_NO":"１４號十二樓之３","E_COORD97":171421.07000000001,"N_COORD97":2542749.3100000001,"ADDRESS":"中華東路二段１８５巷１４號十二樓之３","OBJECTID":388202},"geometry":{"x":171421.07000000123,"y":2542749.3100000024}},{"attributes":{"ID":388227,"DIS_CODE":0,"TOWNNAME":"東區","LI":"自強里","LIN":"28鄰","STREET":"中華東路","SECT":"二段","MAREA":" ","LANE":"１８５巷","ALLEY":" ","HOUSE_NO":"１４號十八樓","E_COORD97":171421.07000000001,"N_COORD97":2542749.3100000001,"ADDRESS":"中華東路二段１８５巷１４號十八樓","OBJECTID":388203},"geometry":{"x":171421.07000000123,"y":2542749.3100000024}},{"attributes":{"ID":388228,"DIS_CODE":0,"TOWNNAME":"東區","LI":"自強里","LIN":"28鄰","STREET":"中華東路","SECT":"二段","MAREA":" ","LANE":"１８５巷","ALLEY":" ","HOUSE_NO":"１４號十八樓之１","E_COORD97":171421.07000000001,"N_COORD97":2542749.3100000001,"ADDRESS":"中華東路二段１８５巷１４號十八樓之１","OBJECTID":388204},"geometry":{"x":171421.07000000123,"y":2542749.3100000024}},{"attributes":{"ID":388229,"DIS_CODE":0,"TOWNNAME":"東區","LI":"自強里","LIN":"28鄰","STREET":"中華東路","SECT":"二段","MAREA":" ","LANE":"１８５巷","ALLEY":" ","HOUSE_NO":"１４號十八樓之２","E_COORD97":171421.07000000001,"N_COORD97":2542749.3100000001,"ADDRESS":"中華東路二段１８５巷１４號十八樓之２","OBJECTID":388205},"geometry":{"x":171421.07000000123,"y":2542749.3100000024}},{"attributes":{"ID":388230,"DIS_CODE":0,"TOWNNAME":"東區","LI":"自強里","LIN":"28鄰","STREET":"中華東路","SECT":"二段","MAREA":" ","LANE":"１８５巷","ALLEY":" ","HOUSE_NO":"１４號十八樓之３","E_COORD97":171421.07000000001,"N_COORD97":2542749.3100000001,"ADDRESS":"中華東路二段１８５巷１４號十八樓之３","OBJECTID":388206},"geometry":{"x":171421.07000000123,"y":2542749.3100000024}},{"attributes":{"ID":388231,"DIS_CODE":0,"TOWNNAME":"東區","LI":"自強里","LIN":"28鄰","STREET":"中華東路","SECT":"二段","MAREA":" ","LANE":"１８５巷","ALLEY":" ","HOUSE_NO":"１４號十三樓","E_COORD97":171421.07000000001,"N_COORD97":2542749.3100000001,"ADDRESS":"中華東路二段１８５巷１４號十三樓","OBJECTID":388207},"geometry":{"x":171421.07000000123,"y":2542749.3100000024}},{"attributes":{"ID":388232,"DIS_CODE":0,"TOWNNAME":"東區","LI":"自強里","LIN":"28鄰","STREET":"中華東路","SECT":"二段","MAREA":" ","LANE":"１８５巷","ALLEY":" ","HOUSE_NO":"１４號十三樓之１","E_COORD97":171421.07000000001,"N_COORD97":2542749.3100000001,"ADDRESS":"中華東路二段１８５巷１４號十三樓之１","OBJECTID":388208},"geometry":{"x":171421.07000000123,"y":2542749.3100000024}},{"attributes":{"ID":388233,"DIS_CODE":0,"TOWNNAME":"東區","LI":"自強里","LIN":"28鄰","STREET":"中華東路","SECT":"二段","MAREA":" ","LANE":"１８５巷","ALLEY":" ","HOUSE_NO":"１４號十三樓之２","E_COORD97":171421.07000000001,"N_COORD97":2542749.3100000001,"ADDRESS":"中華東路二段１８５巷１４號十三樓之２","OBJECTID":388209},"geometry":{"x":171421.07000000123,"y":2542749.3100000024}},{"attributes":{"ID":388234,"DIS_CODE":0,"TOWNNAME":"北區","LI":"大和里","LIN":"22鄰","STREET":"大港街","SECT":" ","MAREA":" ","LANE":"１２４巷","ALLEY":" ","HOUSE_NO":"４３號","E_COORD97":166962.51000000001,"N_COORD97":2546129.1899999999,"ADDRESS":"大港街１２４巷４３號","OBJECTID":388210},"geometry":{"x":166962.51000000071,"y":2546129.1900000013}},{"attributes":{"ID":388235,"DIS_CODE":0,"TOWNNAME":"東區","LI":"自強里","LIN":"28鄰","STREET":"中華東路","SECT":"二段","MAREA":" ","LANE":"１８５巷","ALLEY":" ","HOUSE_NO":"１４號十三樓之３","E_COORD97":171421.07000000001,"N_COORD97":2542749.3100000001,"ADDRESS":"中華東路二段１８５巷１４號十三樓之３","OBJECTID":388211},"geometry":{"x":171421.07000000123,"y":2542749.3100000024}},{"attributes":{"ID":388236,"DIS_CODE":0,"TOWNNAME":"東區","LI":"自強里","LIN":"28鄰","STREET":"中華東路","SECT":"二段","MAREA":" ","LANE":"１８５巷","ALLEY":" ","HOUSE_NO":"１４號十五樓","E_COORD97":171421.07000000001,"N_COORD97":2542749.3100000001,"ADDRESS":"中華東路二段１８５巷１４號十五樓","OBJECTID":388212},"geometry":{"x":171421.07000000123,"y":2542749.3100000024}},{"attributes":{"ID":388237,"DIS_CODE":0,"TOWNNAME":"東區","LI":"自強里","LIN":"28鄰","STREET":"中華東路","SECT":"二段","MAREA":" ","LANE":"１８５巷","ALLEY":" ","HOUSE_NO":"１４號十五樓之１","E_COORD97":171421.07000000001,"N_COORD97":2542749.3100000001,"ADDRESS":"中華東路二段１８５巷１４號十五樓之１","OBJECTID":388213},"geometry":{"x":171421.07000000123,"y":2542749.3100000024}},{"attributes":{"ID":388238,"DIS_CODE":0,"TOWNNAME":"東區","LI":"自強里","LIN":"28鄰","STREET":"中華東路","SECT":"二段","MAREA":" ","LANE":"１８５巷","ALLEY":" ","HOUSE_NO":"１４號十五樓之２","E_COORD97":171421.07000000001,"N_COORD97":2542749.3100000001,"ADDRESS":"中華東路二段１８５巷１４號十五樓之２","OBJECTID":388214},"geometry":{"x":171421.07000000123,"y":2542749.3100000024}},{"attributes":{"ID":388239,"DIS_CODE":0,"TOWNNAME":"東區","LI":"自強里","LIN":"28鄰","STREET":"中華東路","SECT":"二段","MAREA":" ","LANE":"１８５巷","ALLEY":" ","HOUSE_NO":"１４號十五樓之３","E_COORD97":171421.07000000001,"N_COORD97":2542749.3100000001,"ADDRESS":"中華東路二段１８５巷１４號十五樓之３","OBJECTID":388215},"geometry":{"x":171421.07000000123,"y":2542749.3100000024}},{"attributes":{"ID":388240,"DIS_CODE":0,"TOWNNAME":"東區","LI":"自強里","LIN":"28鄰","STREET":"中華東路","SECT":"二段","MAREA":" ","LANE":"１８５巷","ALLEY":" ","HOUSE_NO":"１４號十六樓之１","E_COORD97":171421.07000000001,"N_COORD97":2542749.3100000001,"ADDRESS":"中華東路二段１８５巷１４號十六樓之１","OBJECTID":388216},"geometry":{"x":171421.07000000123,"y":2542749.3100000024}},{"attributes":{"ID":388241,"DIS_CODE":0,"TOWNNAME":"仁德區","LI":"上崙里","LIN":"6鄰","STREET":"德南路","SECT":" ","MAREA":" ","LANE":"３９９巷","ALLEY":"２６弄","HOUSE_NO":"１３號","E_COORD97":173994.65590899999,"N_COORD97":2538229.9825300002,"ADDRESS":"德南路３９９巷２６弄１３號","OBJECTID":388217},"geometry":{"x":173994.65590899903,"y":2538229.982526999}},{"attributes":{"ID":388242,"DIS_CODE":0,"TOWNNAME":"東區","LI":"自強里","LIN":"28鄰","STREET":"中華東路","SECT":"二段","MAREA":" ","LANE":"１８５巷","ALLEY":" ","HOUSE_NO":"１４號十六樓之２","E_COORD97":171421.07000000001,"N_COORD97":2542749.3100000001,"ADDRESS":"中華東路二段１８５巷１４號十六樓之２","OBJECTID":388218},"geometry":{"x":171421.07000000123,"y":2542749.3100000024}},{"attributes":{"ID":388243,"DIS_CODE":0,"TOWNNAME":"東區","LI":"自強里","LIN":"28鄰","STREET":"中華東路","SECT":"二段","MAREA":" ","LANE":"１８５巷","ALLEY":" ","HOUSE_NO":"１４號十六樓之３","E_COORD97":171421.07000000001,"N_COORD97":2542749.3100000001,"ADDRESS":"中華東路二段１８５巷１４號十六樓之３","OBJECTID":388219},"geometry":{"x":171421.07000000123,"y":2542749.3100000024}},{"attributes":{"ID":388244,"DIS_CODE":0,"TOWNNAME":"東區","LI":"自強里","LIN":"28鄰","STREET":"中華東路","SECT":"二段","MAREA":" ","LANE":"１８５巷","ALLEY":" ","HOUSE_NO":"１４號十四樓","E_COORD97":171421.07000000001,"N_COORD97":2542749.3100000001,"ADDRESS":"中華東路二段１８５巷１４號十四樓","OBJECTID":388220},"geometry":{"x":171421.07000000123,"y":2542749.3100000024}},{"attributes":{"ID":388245,"DIS_CODE":0,"TOWNNAME":"東區","LI":"自強里","LIN":"28鄰","STREET":"中華東路","SECT":"二段","MAREA":" ","LANE":"１８５巷","ALLEY":" ","HOUSE_NO":"１４號十四樓之１","E_COORD97":171421.07000000001,"N_COORD97":2542749.3100000001,"ADDRESS":"中華東路二段１８５巷１４號十四樓之１","OBJECTID":388221},"geometry":{"x":171421.07000000123,"y":2542749.3100000024}},{"attributes":{"ID":388246,"DIS_CODE":0,"TOWNNAME":"東區","LI":"自強里","LIN":"28鄰","STREET":"中華東路","SECT":"二段","MAREA":" ","LANE":"１８５巷","ALLEY":" ","HOUSE_NO":"１４號十四樓之２","E_COORD97":171421.07000000001,"N_COORD97":2542749.3100000001,"ADDRESS":"中華東路二段１８５巷１４號十四樓之２","OBJECTID":388222},"geometry":{"x":171421.07000000123,"y":2542749.3100000024}},{"attributes":{"ID":388247,"DIS_CODE":0,"TOWNNAME":"東區","LI":"自強里","LIN":"28鄰","STREET":"中華東路","SECT":"二段","MAREA":" ","LANE":"１８５巷","ALLEY":" ","HOUSE_NO":"１４號十四樓之３","E_COORD97":171421.07000000001,"N_COORD97":2542749.3100000001,"ADDRESS":"中華東路二段１８５巷１４號十四樓之３","OBJECTID":388223},"geometry":{"x":171421.07000000123,"y":2542749.3100000024}},{"attributes":{"ID":388248,"DIS_CODE":0,"TOWNNAME":"東區","LI":"自強里","LIN":"28鄰","STREET":"中華東路","SECT":"二段","MAREA":" ","LANE":"１８５巷","ALLEY":" ","HOUSE_NO":"１４號十樓","E_COORD97":171421.07000000001,"N_COORD97":2542749.3100000001,"ADDRESS":"中華東路二段１８５巷１４號十樓","OBJECTID":388224},"geometry":{"x":171421.07000000123,"y":2542749.3100000024}},{"attributes":{"ID":388249,"DIS_CODE":0,"TOWNNAME":"東區","LI":"自強里","LIN":"28鄰","STREET":"中華東路","SECT":"二段","MAREA":" ","LANE":"１８５巷","ALLEY":" ","HOUSE_NO":"１４號十樓之１","E_COORD97":171421.07000000001,"N_COORD97":2542749.3100000001,"ADDRESS":"中華東路二段１８５巷１４號十樓之１","OBJECTID":388225},"geometry":{"x":171421.07000000123,"y":2542749.3100000024}},{"attributes":{"ID":388250,"DIS_CODE":0,"TOWNNAME":"東區","LI":"自強里","LIN":"28鄰","STREET":"中華東路","SECT":"二段","MAREA":" ","LANE":"１８５巷","ALLEY":" ","HOUSE_NO":"１４號十樓之２","E_COORD97":171421.07000000001,"N_COORD97":2542749.3100000001,"ADDRESS":"中華東路二段１８５巷１４號十樓之２","OBJECTID":388226},"geometry":{"x":171421.07000000123,"y":2542749.3100000024}},{"attributes":{"ID":388251,"DIS_CODE":0,"TOWNNAME":"東區","LI":"自強里","LIN":"28鄰","STREET":"中華東路","SECT":"二段","MAREA":" ","LANE":"１８５巷","ALLEY":" ","HOUSE_NO":"１４號十樓之３","E_COORD97":171421.07000000001,"N_COORD97":2542749.3100000001,"ADDRESS":"中華東路二段１８５巷１４號十樓之３","OBJECTID":388227},"geometry":{"x":171421.07000000123,"y":2542749.3100000024}},{"attributes":{"ID":388252,"DIS_CODE":0,"TOWNNAME":"東區","LI":"自強里","LIN":"28鄰","STREET":"中華東路","SECT":"二段","MAREA":" ","LANE":"１８５巷","ALLEY":" ","HOUSE_NO":"１４號三樓","E_COORD97":171421.07000000001,"N_COORD97":2542749.3100000001,"ADDRESS":"中華東路二段１８５巷１４號三樓","OBJECTID":388228},"geometry":{"x":171421.07000000123,"y":2542749.3100000024}},{"attributes":{"ID":388253,"DIS_CODE":0,"TOWNNAME":"東區","LI":"自強里","LIN":"28鄰","STREET":"中華東路","SECT":"二段","MAREA":" ","LANE":"１８５巷","ALLEY":" ","HOUSE_NO":"１４號三樓之１","E_COORD97":171421.07000000001,"N_COORD97":2542749.3100000001,"ADDRESS":"中華東路二段１８５巷１４號三樓之１","OBJECTID":388229},"geometry":{"x":171421.07000000123,"y":2542749.3100000024}},{"attributes":{"ID":388254,"DIS_CODE":0,"TOWNNAME":"東區","LI":"自強里","LIN":"28鄰","STREET":"中華東路","SECT":"二段","MAREA":" ","LANE":"１８５巷","ALLEY":" ","HOUSE_NO":"１４號三樓之２","E_COORD97":171421.07000000001,"N_COORD97":2542749.3100000001,"ADDRESS":"中華東路二段１８５巷１４號三樓之２","OBJECTID":388230},"geometry":{"x":171421.07000000123,"y":2542749.3100000024}},{"attributes":{"ID":388255,"DIS_CODE":0,"TOWNNAME":"東區","LI":"自強里","LIN":"28鄰","STREET":"中華東路","SECT":"二段","MAREA":" ","LANE":"１８５巷","ALLEY":" ","HOUSE_NO":"１４號三樓之３","E_COORD97":171421.07000000001,"N_COORD97":2542749.3100000001,"ADDRESS":"中華東路二段１８５巷１４號三樓之３","OBJECTID":388231},"geometry":{"x":171421.07000000123,"y":2542749.3100000024}},{"attributes":{"ID":388256,"DIS_CODE":0,"TOWNNAME":"東區","LI":"自強里","LIN":"28鄰","STREET":"中華東路","SECT":"二段","MAREA":" ","LANE":"１８５巷","ALLEY":" ","HOUSE_NO":"１４號五樓","E_COORD97":171421.07000000001,"N_COORD97":2542749.3100000001,"ADDRESS":"中華東路二段１８５巷１４號五樓","OBJECTID":388232},"geometry":{"x":171421.07000000123,"y":2542749.3100000024}},{"attributes":{"ID":388257,"DIS_CODE":0,"TOWNNAME":"東區","LI":"自強里","LIN":"28鄰","STREET":"中華東路","SECT":"二段","MAREA":" ","LANE":"１８５巷","ALLEY":" ","HOUSE_NO":"１４號五樓之１","E_COORD97":171421.07000000001,"N_COORD97":2542749.3100000001,"ADDRESS":"中華東路二段１８５巷１４號五樓之１","OBJECTID":388233},"geometry":{"x":171421.07000000123,"y":2542749.3100000024}},{"attributes":{"ID":388258,"DIS_CODE":0,"TOWNNAME":"東區","LI":"自強里","LIN":"28鄰","STREET":"中華東路","SECT":"二段","MAREA":" ","LANE":"１８５巷","ALLEY":" ","HOUSE_NO":"１４號五樓之２","E_COORD97":171421.07000000001,"N_COORD97":2542749.3100000001,"ADDRESS":"中華東路二段１８５巷１４號五樓之２","OBJECTID":388234},"geometry":{"x":171421.07000000123,"y":2542749.3100000024}},{"attributes":{"ID":388259,"DIS_CODE":0,"TOWNNAME":"東區","LI":"自強里","LIN":"28鄰","STREET":"中華東路","SECT":"二段","MAREA":" ","LANE":"１８５巷","ALLEY":" ","HOUSE_NO":"１４號五樓之３","E_COORD97":171421.07000000001,"N_COORD97":2542749.3100000001,"ADDRESS":"中華東路二段１８５巷１４號五樓之３","OBJECTID":388235},"geometry":{"x":171421.07000000123,"y":2542749.3100000024}},{"attributes":{"ID":388260,"DIS_CODE":0,"TOWNNAME":"東區","LI":"自強里","LIN":"28鄰","STREET":"中華東路","SECT":"二段","MAREA":" ","LANE":"１８５巷","ALLEY":" ","HOUSE_NO":"１４號六樓","E_COORD97":171421.07000000001,"N_COORD97":2542749.3100000001,"ADDRESS":"中華東路二段１８５巷１４號六樓","OBJECTID":388236},"geometry":{"x":171421.07000000123,"y":2542749.3100000024}},{"attributes":{"ID":388261,"DIS_CODE":0,"TOWNNAME":"東區","LI":"自強里","LIN":"28鄰","STREET":"中華東路","SECT":"二段","MAREA":" ","LANE":"１８５巷","ALLEY":" ","HOUSE_NO":"１４號六樓之１","E_COORD97":171421.07000000001,"N_COORD97":2542749.3100000001,"ADDRESS":"中華東路二段１８５巷１４號六樓之１","OBJECTID":388237},"geometry":{"x":171421.07000000123,"y":2542749.3100000024}},{"attributes":{"ID":388262,"DIS_CODE":0,"TOWNNAME":"東區","LI":"自強里","LIN":"28鄰","STREET":"中華東路","SECT":"二段","MAREA":" ","LANE":"１８５巷","ALLEY":" ","HOUSE_NO":"１４號六樓之２","E_COORD97":171421.07000000001,"N_COORD97":2542749.3100000001,"ADDRESS":"中華東路二段１８５巷１４號六樓之２","OBJECTID":388238},"geometry":{"x":171421.07000000123,"y":2542749.3100000024}},{"attributes":{"ID":388263,"DIS_CODE":0,"TOWNNAME":"東區","LI":"崇信里","LIN":"28鄰","STREET":"崇善一街","SECT":" ","MAREA":" ","LANE":"３巷","ALLEY":" ","HOUSE_NO":"９號五樓","E_COORD97":170661.89999999999,"N_COORD97":2542149.7999999998,"ADDRESS":"崇善一街３巷９號五樓","OBJECTID":388239},"geometry":{"x":170661.90000000037,"y":2542149.8000000026}},{"attributes":{"ID":388264,"DIS_CODE":0,"TOWNNAME":"東區","LI":"自強里","LIN":"28鄰","STREET":"中華東路","SECT":"二段","MAREA":" ","LANE":"１８５巷","ALLEY":" ","HOUSE_NO":"１４號六樓之３","E_COORD97":171421.07000000001,"N_COORD97":2542749.3100000001,"ADDRESS":"中華東路二段１８５巷１４號六樓之３","OBJECTID":388240},"geometry":{"x":171421.07000000123,"y":2542749.3100000024}},{"attributes":{"ID":388265,"DIS_CODE":0,"TOWNNAME":"東區","LI":"自強里","LIN":"28鄰","STREET":"中華東路","SECT":"二段","MAREA":" ","LANE":"１８５巷","ALLEY":" ","HOUSE_NO":"１４號四樓","E_COORD97":171421.07000000001,"N_COORD97":2542749.3100000001,"ADDRESS":"中華東路二段１８５巷１４號四樓","OBJECTID":388241},"geometry":{"x":171421.07000000123,"y":2542749.3100000024}},{"attributes":{"ID":388266,"DIS_CODE":0,"TOWNNAME":"東區","LI":"自強里","LIN":"28鄰","STREET":"中華東路","SECT":"二段","MAREA":" ","LANE":"１８５巷","ALLEY":" ","HOUSE_NO":"１４號四樓之１","E_COORD97":171421.07000000001,"N_COORD97":2542749.3100000001,"ADDRESS":"中華東路二段１８５巷１４號四樓之１","OBJECTID":388242},"geometry":{"x":171421.07000000123,"y":2542749.3100000024}},{"attributes":{"ID":388267,"DIS_CODE":0,"TOWNNAME":"東區","LI":"自強里","LIN":"28鄰","STREET":"中華東路","SECT":"二段","MAREA":" ","LANE":"１８５巷","ALLEY":" ","HOUSE_NO":"１４號四樓之２","E_COORD97":171421.07000000001,"N_COORD97":2542749.3100000001,"ADDRESS":"中華東路二段１８５巷１４號四樓之２","OBJECTID":388243},"geometry":{"x":171421.07000000123,"y":2542749.3100000024}},{"attributes":{"ID":388268,"DIS_CODE":0,"TOWNNAME":"善化區","LI":"南關里","LIN":"13鄰","STREET":"復興街","SECT":" ","MAREA":" ","LANE":" ","ALLEY":" ","HOUSE_NO":"５７號之３","E_COORD97":176957.23000000001,"N_COORD97":2559019.77,"ADDRESS":"復興街５７號之３","OBJECTID":388244},"geometry":{"x":176957.23000000045,"y":2559019.7699999996}},{"attributes":{"ID":388269,"DIS_CODE":0,"TOWNNAME":"東區","LI":"自強里","LIN":"28鄰","STREET":"中華東路","SECT":"二段","MAREA":" ","LANE":"１８５巷","ALLEY":" ","HOUSE_NO":"１４號四樓之３","E_COORD97":171421.07000000001,"N_COORD97":2542749.3100000001,"ADDRESS":"中華東路二段１８５巷１４號四樓之３","OBJECTID":388245},"geometry":{"x":171421.07000000123,"y":2542749.3100000024}},{"attributes":{"ID":388270,"DIS_CODE":0,"TOWNNAME":"東區","LI":"成大里","LIN":"28鄰","STREET":"勝利路","SECT":" ","MAREA":" ","LANE":"１７１巷","ALLEY":" ","HOUSE_NO":"１號二樓","E_COORD97":169814.20999999999,"N_COORD97":2544036.9900000002,"ADDRESS":"勝利路１７１巷１號二樓","OBJECTID":388246},"geometry":{"x":169814.21000000089,"y":2544036.9900000002}},{"attributes":{"ID":388271,"DIS_CODE":0,"TOWNNAME":"東區","LI":"成大里","LIN":"28鄰","STREET":"勝利路","SECT":" ","MAREA":" ","LANE":"１７１巷","ALLEY":" ","HOUSE_NO":"１號二樓之１","E_COORD97":169814.20999999999,"N_COORD97":2544036.9900000002,"ADDRESS":"勝利路１７１巷１號二樓之１","OBJECTID":388247},"geometry":{"x":169814.21000000089,"y":2544036.9900000002}},{"attributes":{"ID":388272,"DIS_CODE":0,"TOWNNAME":"東區","LI":"成大里","LIN":"28鄰","STREET":"勝利路","SECT":" ","MAREA":" ","LANE":"１７１巷","ALLEY":" ","HOUSE_NO":"１號二樓之２","E_COORD97":169814.20999999999,"N_COORD97":2544036.9900000002,"ADDRESS":"勝利路１７１巷１號二樓之２","OBJECTID":388248},"geometry":{"x":169814.21000000089,"y":2544036.9900000002}},{"attributes":{"ID":388273,"DIS_CODE":0,"TOWNNAME":"東區","LI":"成大里","LIN":"28鄰","STREET":"勝利路","SECT":" ","MAREA":" ","LANE":"１７１巷","ALLEY":" ","HOUSE_NO":"１號二樓之３","E_COORD97":169814.20999999999,"N_COORD97":2544036.9900000002,"ADDRESS":"勝利路１７１巷１號二樓之３","OBJECTID":388249},"geometry":{"x":169814.21000000089,"y":2544036.9900000002}},{"attributes":{"ID":388274,"DIS_CODE":0,"TOWNNAME":"東區","LI":"成大里","LIN":"28鄰","STREET":"勝利路","SECT":" ","MAREA":" ","LANE":"１７１巷","ALLEY":" ","HOUSE_NO":"１號三樓","E_COORD97":169814.20999999999,"N_COORD97":2544036.9900000002,"ADDRESS":"勝利路１７１巷１號三樓","OBJECTID":388250},"geometry":{"x":169814.21000000089,"y":2544036.9900000002}},{"attributes":{"ID":388275,"DIS_CODE":0,"TOWNNAME":"東區","LI":"成大里","LIN":"28鄰","STREET":"勝利路","SECT":" ","MAREA":" ","LANE":"１７１巷","ALLEY":" ","HOUSE_NO":"１號三樓之１","E_COORD97":169814.20999999999,"N_COORD97":2544036.9900000002,"ADDRESS":"勝利路１７１巷１號三樓之１","OBJECTID":388251},"geometry":{"x":169814.21000000089,"y":2544036.9900000002}},{"attributes":{"ID":388276,"DIS_CODE":0,"TOWNNAME":"東區","LI":"成大里","LIN":"28鄰","STREET":"勝利路","SECT":" ","MAREA":" ","LANE":"１７１巷","ALLEY":" ","HOUSE_NO":"１號三樓之２","E_COORD97":169814.20999999999,"N_COORD97":2544036.9900000002,"ADDRESS":"勝利路１７１巷１號三樓之２","OBJECTID":388252},"geometry":{"x":169814.21000000089,"y":2544036.9900000002}},{"attributes":{"ID":388277,"DIS_CODE":0,"TOWNNAME":"東區","LI":"成大里","LIN":"28鄰","STREET":"勝利路","SECT":" ","MAREA":" ","LANE":"１７１巷","ALLEY":" ","HOUSE_NO":"１號四樓","E_COORD97":169814.20999999999,"N_COORD97":2544036.9900000002,"ADDRESS":"勝利路１７１巷１號四樓","OBJECTID":388253},"geometry":{"x":169814.21000000089,"y":2544036.9900000002}},{"attributes":{"ID":388278,"DIS_CODE":0,"TOWNNAME":"東區","LI":"成大里","LIN":"28鄰","STREET":"勝利路","SECT":" ","MAREA":" ","LANE":"１７１巷","ALLEY":" ","HOUSE_NO":"１號四樓之１","E_COORD97":169814.20999999999,"N_COORD97":2544036.9900000002,"ADDRESS":"勝利路１７１巷１號四樓之１","OBJECTID":388254},"geometry":{"x":169814.21000000089,"y":2544036.9900000002}},{"attributes":{"ID":388279,"DIS_CODE":0,"TOWNNAME":"東區","LI":"成大里","LIN":"28鄰","STREET":"勝利路","SECT":" ","MAREA":" ","LANE":"１７１巷","ALLEY":" ","HOUSE_NO":"１號四樓之２","E_COORD97":169814.20999999999,"N_COORD97":2544036.9900000002,"ADDRESS":"勝利路１７１巷１號四樓之２","OBJECTID":388255},"geometry":{"x":169814.21000000089,"y":2544036.9900000002}},{"attributes":{"ID":388280,"DIS_CODE":0,"TOWNNAME":"東區","LI":"成大里","LIN":"28鄰","STREET":"勝利路","SECT":" ","MAREA":" ","LANE":"１７１巷","ALLEY":" ","HOUSE_NO":"１號四樓之３","E_COORD97":169814.20999999999,"N_COORD97":2544036.9900000002,"ADDRESS":"勝利路１７１巷１號四樓之３","OBJECTID":388256},"geometry":{"x":169814.21000000089,"y":2544036.9900000002}},{"attributes":{"ID":388281,"DIS_CODE":0,"TOWNNAME":"永康區","LI":"復華里","LIN":"28鄰","STREET":"復華八街","SECT":" ","MAREA":" ","LANE":"４７巷","ALLEY":" ","HOUSE_NO":"２７號五樓之１２","E_COORD97":172713.89999999999,"N_COORD97":2546359.1400000001,"ADDRESS":"復華八街４７巷２７號五樓之１２","OBJECTID":388257},"geometry":{"x":172713.9000000013,"y":2546359.1400000006}},{"attributes":{"ID":388282,"DIS_CODE":0,"TOWNNAME":"永康區","LI":"復華里","LIN":"28鄰","STREET":"復華八街","SECT":" ","MAREA":" ","LANE":"４７巷","ALLEY":" ","HOUSE_NO":"２７號六樓之１３","E_COORD97":172713.85999999999,"N_COORD97":2546359.1400000001,"ADDRESS":"復華八街４７巷２７號六樓之１３","OBJECTID":388258},"geometry":{"x":172713.86000000127,"y":2546359.1400000006}},{"attributes":{"ID":388283,"DIS_CODE":0,"TOWNNAME":"永康區","LI":"復華里","LIN":"28鄰","STREET":"復華八街","SECT":" ","MAREA":" ","LANE":"４７巷","ALLEY":" ","HOUSE_NO":"２７號四樓之２","E_COORD97":172712.64999999999,"N_COORD97":2546359.1400000001,"ADDRESS":"復華八街４７巷２７號四樓之２","OBJECTID":388259},"geometry":{"x":172712.65000000037,"y":2546359.1400000006}},{"attributes":{"ID":388284,"DIS_CODE":0,"TOWNNAME":"永康區","LI":"復華里","LIN":"28鄰","STREET":"復華八街","SECT":" ","MAREA":" ","LANE":"４７巷","ALLEY":" ","HOUSE_NO":"２７號五樓之３","E_COORD97":172712.60999999999,"N_COORD97":2546359.1400000001,"ADDRESS":"復華八街４７巷２７號五樓之３","OBJECTID":388260},"geometry":{"x":172712.61000000127,"y":2546359.1400000006}},{"attributes":{"ID":388285,"DIS_CODE":0,"TOWNNAME":"永康區","LI":"復華里","LIN":"28鄰","STREET":"復華八街","SECT":" ","MAREA":" ","LANE":"４７巷","ALLEY":" ","HOUSE_NO":"２７號四樓之８","E_COORD97":172712.66,"N_COORD97":2546359.1400000001,"ADDRESS":"復華八街４７巷２７號四樓之８","OBJECTID":388261},"geometry":{"x":172712.66000000015,"y":2546359.1400000006}},{"attributes":{"ID":388286,"DIS_CODE":0,"TOWNNAME":"永康區","LI":"復華里","LIN":"28鄰","STREET":"復華八街","SECT":" ","MAREA":" ","LANE":"４７巷","ALLEY":" ","HOUSE_NO":"２７號二樓之１０","E_COORD97":172713.82000000001,"N_COORD97":2546359.1400000001,"ADDRESS":"復華八街４７巷２７號二樓之１０","OBJECTID":388262},"geometry":{"x":172713.82000000216,"y":2546359.1400000006}},{"attributes":{"ID":388287,"DIS_CODE":0,"TOWNNAME":"東區","LI":"崇信里","LIN":"28鄰","STREET":"崇善一街","SECT":" ","MAREA":" ","LANE":"３巷","ALLEY":" ","HOUSE_NO":"７號七樓","E_COORD97":170668.39000000001,"N_COORD97":2542145.6600000001,"ADDRESS":"崇善一街３巷７號七樓","OBJECTID":388263},"geometry":{"x":170668.39000000153,"y":2542145.660000002}},{"attributes":{"ID":388288,"DIS_CODE":0,"TOWNNAME":"東區","LI":"崇信里","LIN":"28鄰","STREET":"崇善一街","SECT":" ","MAREA":" ","LANE":"３巷","ALLEY":" ","HOUSE_NO":"７號三樓","E_COORD97":170668.39000000001,"N_COORD97":2542145.6600000001,"ADDRESS":"崇善一街３巷７號三樓","OBJECTID":388264},"geometry":{"x":170668.39000000153,"y":2542145.660000002}},{"attributes":{"ID":388289,"DIS_CODE":0,"TOWNNAME":"東區","LI":"崇信里","LIN":"28鄰","STREET":"崇善一街","SECT":" ","MAREA":" ","LANE":"３巷","ALLEY":" ","HOUSE_NO":"７號五樓","E_COORD97":170668.39000000001,"N_COORD97":2542145.6600000001,"ADDRESS":"崇善一街３巷７號五樓","OBJECTID":388265},"geometry":{"x":170668.39000000153,"y":2542145.660000002}},{"attributes":{"ID":388290,"DIS_CODE":0,"TOWNNAME":"東區","LI":"崇信里","LIN":"28鄰","STREET":"崇善一街","SECT":" ","MAREA":" ","LANE":"３巷","ALLEY":" ","HOUSE_NO":"７號六樓","E_COORD97":170668.39000000001,"N_COORD97":2542145.6600000001,"ADDRESS":"崇善一街３巷７號六樓","OBJECTID":388266},"geometry":{"x":170668.39000000153,"y":2542145.660000002}},{"attributes":{"ID":388291,"DIS_CODE":0,"TOWNNAME":"東區","LI":"崇信里","LIN":"28鄰","STREET":"崇善一街","SECT":" ","MAREA":" ","LANE":"３巷","ALLEY":" ","HOUSE_NO":"７號四樓","E_COORD97":170668.39000000001,"N_COORD97":2542145.6600000001,"ADDRESS":"崇善一街３巷７號四樓","OBJECTID":388267},"geometry":{"x":170668.39000000153,"y":2542145.660000002}},{"attributes":{"ID":388292,"DIS_CODE":0,"TOWNNAME":"東區","LI":"崇信里","LIN":"28鄰","STREET":"崇善一街","SECT":" ","MAREA":" ","LANE":"３巷","ALLEY":" ","HOUSE_NO":"９號七樓","E_COORD97":170661.89999999999,"N_COORD97":2542149.7999999998,"ADDRESS":"崇善一街３巷９號七樓","OBJECTID":388268},"geometry":{"x":170661.90000000037,"y":2542149.8000000026}},{"attributes":{"ID":388293,"DIS_CODE":0,"TOWNNAME":"東區","LI":"崇信里","LIN":"28鄰","STREET":"崇善一街","SECT":" ","MAREA":" ","LANE":"３巷","ALLEY":" ","HOUSE_NO":"９號三樓","E_COORD97":170661.89999999999,"N_COORD97":2542149.7999999998,"ADDRESS":"崇善一街３巷９號三樓","OBJECTID":388269},"geometry":{"x":170661.90000000037,"y":2542149.8000000026}},{"attributes":{"ID":388294,"DIS_CODE":0,"TOWNNAME":"東區","LI":"崇信里","LIN":"28鄰","STREET":"崇善一街","SECT":" ","MAREA":" ","LANE":"３巷","ALLEY":" ","HOUSE_NO":"９號六樓","E_COORD97":170661.89999999999,"N_COORD97":2542149.7999999998,"ADDRESS":"崇善一街３巷９號六樓","OBJECTID":388270},"geometry":{"x":170661.90000000037,"y":2542149.8000000026}},{"attributes":{"ID":388295,"DIS_CODE":0,"TOWNNAME":"東區","LI":"崇信里","LIN":"28鄰","STREET":"崇善一街","SECT":" ","MAREA":" ","LANE":"３巷","ALLEY":" ","HOUSE_NO":"９號四樓","E_COORD97":170661.89999999999,"N_COORD97":2542149.7999999998,"ADDRESS":"崇善一街３巷９號四樓","OBJECTID":388271},"geometry":{"x":170661.90000000037,"y":2542149.8000000026}},{"attributes":{"ID":388296,"DIS_CODE":0,"TOWNNAME":"永康區","LI":"崑山里","LIN":"28鄰","STREET":"大灣路","SECT":" ","MAREA":" ","LANE":"９４２巷","ALLEY":" ","HOUSE_NO":"２２１號四樓之２","E_COORD97":173753.60000000001,"N_COORD97":2544885.2200000002,"ADDRESS":"大灣路９４２巷２２１號四樓之２","OBJECTID":388272},"geometry":{"x":173753.59999999963,"y":2544885.2200000025}},{"attributes":{"ID":388297,"DIS_CODE":0,"TOWNNAME":"永康區","LI":"復華里","LIN":"28鄰","STREET":"復華八街","SECT":" ","MAREA":" ","LANE":"４７巷","ALLEY":" ","HOUSE_NO":"２７號五樓之１０","E_COORD97":172713.82000000001,"N_COORD97":2546359.1400000001,"ADDRESS":"復華八街４７巷２７號五樓之１０","OBJECTID":388273},"geometry":{"x":172713.82000000216,"y":2546359.1400000006}},{"attributes":{"ID":388298,"DIS_CODE":0,"TOWNNAME":"永康區","LI":"復華里","LIN":"28鄰","STREET":"復華八街","SECT":" ","MAREA":" ","LANE":"４７巷","ALLEY":" ","HOUSE_NO":"２７號四樓之３","E_COORD97":172712.60999999999,"N_COORD97":2546359.1400000001,"ADDRESS":"復華八街４７巷２７號四樓之３","OBJECTID":388274},"geometry":{"x":172712.61000000127,"y":2546359.1400000006}},{"attributes":{"ID":388299,"DIS_CODE":0,"TOWNNAME":"永康區","LI":"復華里","LIN":"28鄰","STREET":"復華八街","SECT":" ","MAREA":" ","LANE":"４７巷","ALLEY":" ","HOUSE_NO":"２７號六樓之２","E_COORD97":172712.64999999999,"N_COORD97":2546359.1400000001,"ADDRESS":"復華八街４７巷２７號六樓之２","OBJECTID":388275},"geometry":{"x":172712.65000000037,"y":2546359.1400000006}},{"attributes":{"ID":388300,"DIS_CODE":0,"TOWNNAME":"永康區","LI":"復華里","LIN":"28鄰","STREET":"復華八街","SECT":" ","MAREA":" ","LANE":"４７巷","ALLEY":" ","HOUSE_NO":"２７號五樓之７","E_COORD97":172712.59,"N_COORD97":2546359.1400000001,"ADDRESS":"復華八街４７巷２７號五樓之７","OBJECTID":388276},"geometry":{"x":172712.58999999985,"y":2546359.1400000006}},{"attributes":{"ID":388301,"DIS_CODE":0,"TOWNNAME":"永康區","LI":"復華里","LIN":"28鄰","STREET":"復華八街","SECT":" ","MAREA":" ","LANE":"４７巷","ALLEY":" ","HOUSE_NO":"２７號四樓之６","E_COORD97":172712.62,"N_COORD97":2546359.1400000001,"ADDRESS":"復華八街４７巷２７號四樓之６","OBJECTID":388277},"geometry":{"x":172712.62000000011,"y":2546359.1400000006}},{"attributes":{"ID":388302,"DIS_CODE":0,"TOWNNAME":"永康區","LI":"復華里","LIN":"28鄰","STREET":"復華八街","SECT":" ","MAREA":" ","LANE":"４７巷","ALLEY":" ","HOUSE_NO":"２７號四樓之９","E_COORD97":172712.60000000001,"N_COORD97":2546359.1400000001,"ADDRESS":"復華八街４７巷２７號四樓之９","OBJECTID":388278},"geometry":{"x":172712.59999999963,"y":2546359.1400000006}},{"attributes":{"ID":388303,"DIS_CODE":0,"TOWNNAME":"北區","LI":"重興里","LIN":"28鄰","STREET":"東豐路","SECT":" ","MAREA":" ","LANE":"４５１巷","ALLEY":" ","HOUSE_NO":"１５３號二樓","E_COORD97":170740.23999999999,"N_COORD97":2544851.0299999998,"ADDRESS":"東豐路４５１巷１５３號二樓","OBJECTID":388279},"geometry":{"x":170740.24000000115,"y":2544851.0300000012}},{"attributes":{"ID":388304,"DIS_CODE":0,"TOWNNAME":"北區","LI":"重興里","LIN":"28鄰","STREET":"東豐路","SECT":" ","MAREA":" ","LANE":"４５１巷","ALLEY":" ","HOUSE_NO":"１５３號三樓","E_COORD97":170740.23999999999,"N_COORD97":2544851.0299999998,"ADDRESS":"東豐路４５１巷１５３號三樓","OBJECTID":388280},"geometry":{"x":170740.24000000115,"y":2544851.0300000012}},{"attributes":{"ID":388305,"DIS_CODE":0,"TOWNNAME":"北區","LI":"重興里","LIN":"28鄰","STREET":"東豐路","SECT":" ","MAREA":" ","LANE":"４５１巷","ALLEY":" ","HOUSE_NO":"１５３號四樓","E_COORD97":170740.23999999999,"N_COORD97":2544851.0299999998,"ADDRESS":"東豐路４５１巷１５３號四樓","OBJECTID":388281},"geometry":{"x":170740.24000000115,"y":2544851.0300000012}},{"attributes":{"ID":388306,"DIS_CODE":0,"TOWNNAME":"北區","LI":"重興里","LIN":"28鄰","STREET":"東豐路","SECT":" ","MAREA":" ","LANE":"４５１巷","ALLEY":" ","HOUSE_NO":"１５５號二樓","E_COORD97":170745.82000000001,"N_COORD97":2544858.9100000001,"ADDRESS":"東豐路４５１巷１５５號二樓","OBJECTID":388282},"geometry":{"x":170745.82000000216,"y":2544858.9099999983}},{"attributes":{"ID":388307,"DIS_CODE":0,"TOWNNAME":"北區","LI":"重興里","LIN":"28鄰","STREET":"東豐路","SECT":" ","MAREA":" ","LANE":"４５１巷","ALLEY":" ","HOUSE_NO":"１５５號三樓","E_COORD97":170745.82000000001,"N_COORD97":2544858.9100000001,"ADDRESS":"東豐路４５１巷１５５號三樓","OBJECTID":388283},"geometry":{"x":170745.82000000216,"y":2544858.9099999983}},{"attributes":{"ID":388308,"DIS_CODE":0,"TOWNNAME":"北區","LI":"重興里","LIN":"28鄰","STREET":"東豐路","SECT":" ","MAREA":" ","LANE":"４５１巷","ALLEY":" ","HOUSE_NO":"１５５號四樓","E_COORD97":170745.82000000001,"N_COORD97":2544858.9100000001,"ADDRESS":"東豐路４５１巷１５５號四樓","OBJECTID":388284},"geometry":{"x":170745.82000000216,"y":2544858.9099999983}},{"attributes":{"ID":388309,"DIS_CODE":0,"TOWNNAME":"北區","LI":"重興里","LIN":"28鄰","STREET":"東豐路","SECT":" ","MAREA":" ","LANE":"４５１巷","ALLEY":" ","HOUSE_NO":"１５７號二樓","E_COORD97":170750.66,"N_COORD97":2544866.6899999999,"ADDRESS":"東豐路４５１巷１５７號二樓","OBJECTID":388285},"geometry":{"x":170750.66000000108,"y":2544866.6900000032}},{"attributes":{"ID":388310,"DIS_CODE":0,"TOWNNAME":"北區","LI":"重興里","LIN":"28鄰","STREET":"東豐路","SECT":" ","MAREA":" ","LANE":"４５１巷","ALLEY":" ","HOUSE_NO":"１５７號三樓","E_COORD97":170750.66,"N_COORD97":2544866.6899999999,"ADDRESS":"東豐路４５１巷１５７號三樓","OBJECTID":388286},"geometry":{"x":170750.66000000108,"y":2544866.6900000032}},{"attributes":{"ID":388311,"DIS_CODE":0,"TOWNNAME":"北區","LI":"重興里","LIN":"28鄰","STREET":"東豐路","SECT":" ","MAREA":" ","LANE":"４５１巷","ALLEY":" ","HOUSE_NO":"１５７號四樓","E_COORD97":170750.66,"N_COORD97":2544866.6899999999,"ADDRESS":"東豐路４５１巷１５７號四樓","OBJECTID":388287},"geometry":{"x":170750.66000000108,"y":2544866.6900000032}},{"attributes":{"ID":388312,"DIS_CODE":0,"TOWNNAME":"北區","LI":"重興里","LIN":"28鄰","STREET":"東豐路","SECT":" ","MAREA":" ","LANE":"４５１巷","ALLEY":" ","HOUSE_NO":"１５９號二樓","E_COORD97":170755.17999999999,"N_COORD97":2544874.1499999999,"ADDRESS":"東豐路４５１巷１５９號二樓","OBJECTID":388288},"geometry":{"x":170755.18000000063,"y":2544874.1500000004}},{"attributes":{"ID":388313,"DIS_CODE":0,"TOWNNAME":"北區","LI":"重興里","LIN":"28鄰","STREET":"東豐路","SECT":" ","MAREA":" ","LANE":"４５１巷","ALLEY":" ","HOUSE_NO":"１５９號三樓","E_COORD97":170755.17999999999,"N_COORD97":2544874.1499999999,"ADDRESS":"東豐路４５１巷１５９號三樓","OBJECTID":388289},"geometry":{"x":170755.18000000063,"y":2544874.1500000004}},{"attributes":{"ID":388314,"DIS_CODE":0,"TOWNNAME":"北區","LI":"重興里","LIN":"28鄰","STREET":"東豐路","SECT":" ","MAREA":" ","LANE":"４５１巷","ALLEY":" ","HOUSE_NO":"１５９號四樓","E_COORD97":170755.17999999999,"N_COORD97":2544874.1499999999,"ADDRESS":"東豐路４５１巷１５９號四樓","OBJECTID":388290},"geometry":{"x":170755.18000000063,"y":2544874.1500000004}},{"attributes":{"ID":388315,"DIS_CODE":0,"TOWNNAME":"北區","LI":"重興里","LIN":"28鄰","STREET":"東豐路","SECT":" ","MAREA":" ","LANE":"４５１巷","ALLEY":" ","HOUSE_NO":"１６１號二樓","E_COORD97":170728.76999999999,"N_COORD97":2544856.8100000001,"ADDRESS":"東豐路４５１巷１６１號二樓","OBJECTID":388291},"geometry":{"x":170728.77000000048,"y":2544856.8100000042}},{"attributes":{"ID":388316,"DIS_CODE":0,"TOWNNAME":"北區","LI":"重興里","LIN":"28鄰","STREET":"東豐路","SECT":" ","MAREA":" ","LANE":"４５１巷","ALLEY":" ","HOUSE_NO":"１６１號三樓","E_COORD97":170728.76999999999,"N_COORD97":2544856.8100000001,"ADDRESS":"東豐路４５１巷１６１號三樓","OBJECTID":388292},"geometry":{"x":170728.77000000048,"y":2544856.8100000042}},{"attributes":{"ID":388317,"DIS_CODE":0,"TOWNNAME":"北區","LI":"重興里","LIN":"28鄰","STREET":"東豐路","SECT":" ","MAREA":" ","LANE":"４５１巷","ALLEY":" ","HOUSE_NO":"１６１號四樓","E_COORD97":170728.76999999999,"N_COORD97":2544856.8100000001,"ADDRESS":"東豐路４５１巷１６１號四樓","OBJECTID":388293},"geometry":{"x":170728.77000000048,"y":2544856.8100000042}},{"attributes":{"ID":388318,"DIS_CODE":0,"TOWNNAME":"北區","LI":"重興里","LIN":"28鄰","STREET":"東豐路","SECT":" ","MAREA":" ","LANE":"４５１巷","ALLEY":" ","HOUSE_NO":"１６３號二樓","E_COORD97":170732.87,"N_COORD97":2544864.48,"ADDRESS":"東豐路４５１巷１６３號二樓","OBJECTID":388294},"geometry":{"x":170732.87000000011,"y":2544864.4800000004}},{"attributes":{"ID":388319,"DIS_CODE":0,"TOWNNAME":"北區","LI":"重興里","LIN":"28鄰","STREET":"東豐路","SECT":" ","MAREA":" ","LANE":"４５１巷","ALLEY":" ","HOUSE_NO":"１６３號三樓","E_COORD97":170732.87,"N_COORD97":2544864.48,"ADDRESS":"東豐路４５１巷１６３號三樓","OBJECTID":388295},"geometry":{"x":170732.87000000011,"y":2544864.4800000004}},{"attributes":{"ID":388320,"DIS_CODE":0,"TOWNNAME":"北區","LI":"重興里","LIN":"28鄰","STREET":"東豐路","SECT":" ","MAREA":" ","LANE":"４５１巷","ALLEY":" ","HOUSE_NO":"１６３號四樓","E_COORD97":170732.87,"N_COORD97":2544864.48,"ADDRESS":"東豐路４５１巷１６３號四樓","OBJECTID":388296},"geometry":{"x":170732.87000000011,"y":2544864.4800000004}},{"attributes":{"ID":388321,"DIS_CODE":0,"TOWNNAME":"北區","LI":"重興里","LIN":"28鄰","STREET":"東豐路","SECT":" ","MAREA":" ","LANE":"４５１巷","ALLEY":" ","HOUSE_NO":"１６５號二樓","E_COORD97":170737.70999999999,"N_COORD97":2544872.6800000002,"ADDRESS":"東豐路４５１巷１６５號二樓","OBJECTID":388297},"geometry":{"x":170737.71000000183,"y":2544872.6799999997}},{"attributes":{"ID":388322,"DIS_CODE":0,"TOWNNAME":"北區","LI":"重興里","LIN":"28鄰","STREET":"東豐路","SECT":" ","MAREA":" ","LANE":"４５１巷","ALLEY":" ","HOUSE_NO":"１６５號三樓","E_COORD97":170737.70999999999,"N_COORD97":2544872.6800000002,"ADDRESS":"東豐路４５１巷１６５號三樓","OBJECTID":388298},"geometry":{"x":170737.71000000183,"y":2544872.6799999997}},{"attributes":{"ID":388323,"DIS_CODE":0,"TOWNNAME":"北區","LI":"重興里","LIN":"28鄰","STREET":"東豐路","SECT":" ","MAREA":" ","LANE":"４５１巷","ALLEY":" ","HOUSE_NO":"１６５號四樓","E_COORD97":170737.70999999999,"N_COORD97":2544872.6800000002,"ADDRESS":"東豐路４５１巷１６５號四樓","OBJECTID":388299},"geometry":{"x":170737.71000000183,"y":2544872.6799999997}},{"attributes":{"ID":388324,"DIS_CODE":0,"TOWNNAME":"北區","LI":"重興里","LIN":"28鄰","STREET":"東豐路","SECT":" ","MAREA":" ","LANE":"４５１巷","ALLEY":" ","HOUSE_NO":"１６７號二樓","E_COORD97":170742.45000000001,"N_COORD97":2544880.5600000001,"ADDRESS":"東豐路４５１巷１６７號二樓","OBJECTID":388300},"geometry":{"x":170742.45000000019,"y":2544880.5600000005}},{"attributes":{"ID":388325,"DIS_CODE":0,"TOWNNAME":"北區","LI":"重興里","LIN":"28鄰","STREET":"東豐路","SECT":" ","MAREA":" ","LANE":"４５１巷","ALLEY":" ","HOUSE_NO":"１６７號三樓","E_COORD97":170742.45000000001,"N_COORD97":2544880.5600000001,"ADDRESS":"東豐路４５１巷１６７號三樓","OBJECTID":388301},"geometry":{"x":170742.45000000019,"y":2544880.5600000005}},{"attributes":{"ID":388326,"DIS_CODE":0,"TOWNNAME":"北區","LI":"重興里","LIN":"28鄰","STREET":"東豐路","SECT":" ","MAREA":" ","LANE":"４５１巷","ALLEY":" ","HOUSE_NO":"１６７號四樓","E_COORD97":170742.45000000001,"N_COORD97":2544880.5600000001,"ADDRESS":"東豐路４５１巷１６７號四樓","OBJECTID":388302},"geometry":{"x":170742.45000000019,"y":2544880.5600000005}},{"attributes":{"ID":388327,"DIS_CODE":0,"TOWNNAME":"北區","LI":"和順里","LIN":"28鄰","STREET":"臨安路","SECT":"二段","MAREA":" ","LANE":"１９５巷","ALLEY":" ","HOUSE_NO":"７５號二樓","E_COORD97":167892.75,"N_COORD97":2545186.1499999999,"ADDRESS":"臨安路二段１９５巷７５號二樓","OBJECTID":388303},"geometry":{"x":167892.75,"y":2545186.1500000004}},{"attributes":{"ID":388328,"DIS_CODE":0,"TOWNNAME":"北區","LI":"和順里","LIN":"28鄰","STREET":"臨安路","SECT":"二段","MAREA":" ","LANE":"１９５巷","ALLEY":" ","HOUSE_NO":"７５號三樓之１","E_COORD97":167892.75,"N_COORD97":2545186.1499999999,"ADDRESS":"臨安路二段１９５巷７５號三樓之１","OBJECTID":388304},"geometry":{"x":167892.75,"y":2545186.1500000004}},{"attributes":{"ID":388329,"DIS_CODE":0,"TOWNNAME":"北區","LI":"和順里","LIN":"28鄰","STREET":"臨安路","SECT":"二段","MAREA":" ","LANE":"１９５巷","ALLEY":" ","HOUSE_NO":"７５號三樓之２","E_COORD97":167892.75,"N_COORD97":2545186.1499999999,"ADDRESS":"臨安路二段１９５巷７５號三樓之２","OBJECTID":388305},"geometry":{"x":167892.75,"y":2545186.1500000004}},{"attributes":{"ID":388330,"DIS_CODE":0,"TOWNNAME":"安平區","LI":"國平里","LIN":"28鄰","STREET":"健康三街","SECT":" ","MAREA":" ","LANE":"１２巷","ALLEY":" ","HOUSE_NO":"１號二樓之１","E_COORD97":164774.88,"N_COORD97":2542904.3999999999,"ADDRESS":"健康三街１２巷１號二樓之１","OBJECTID":388306},"geometry":{"x":164774.88000000082,"y":2542904.4000000022}},{"attributes":{"ID":388331,"DIS_CODE":0,"TOWNNAME":"安平區","LI":"國平里","LIN":"28鄰","STREET":"健康三街","SECT":" ","MAREA":" ","LANE":"１２巷","ALLEY":" ","HOUSE_NO":"１號二樓之２","E_COORD97":164774.88,"N_COORD97":2542904.3999999999,"ADDRESS":"健康三街１２巷１號二樓之２","OBJECTID":388307},"geometry":{"x":164774.88000000082,"y":2542904.4000000022}},{"attributes":{"ID":388332,"DIS_CODE":0,"TOWNNAME":"安平區","LI":"國平里","LIN":"28鄰","STREET":"健康三街","SECT":" ","MAREA":" ","LANE":"１２巷","ALLEY":" ","HOUSE_NO":"１號二樓之３","E_COORD97":164774.88,"N_COORD97":2542904.3999999999,"ADDRESS":"健康三街１２巷１號二樓之３","OBJECTID":388308},"geometry":{"x":164774.88000000082,"y":2542904.4000000022}},{"attributes":{"ID":388333,"DIS_CODE":0,"TOWNNAME":"安平區","LI":"國平里","LIN":"28鄰","STREET":"健康三街","SECT":" ","MAREA":" ","LANE":"１２巷","ALLEY":" ","HOUSE_NO":"１號二樓之５","E_COORD97":164774.88,"N_COORD97":2542904.3999999999,"ADDRESS":"健康三街１２巷１號二樓之５","OBJECTID":388309},"geometry":{"x":164774.88000000082,"y":2542904.4000000022}},{"attributes":{"ID":388334,"DIS_CODE":0,"TOWNNAME":"安平區","LI":"國平里","LIN":"28鄰","STREET":"健康三街","SECT":" ","MAREA":" ","LANE":"１２巷","ALLEY":" ","HOUSE_NO":"１號二樓之６","E_COORD97":164774.88,"N_COORD97":2542904.3999999999,"ADDRESS":"健康三街１２巷１號二樓之６","OBJECTID":388310},"geometry":{"x":164774.88000000082,"y":2542904.4000000022}},{"attributes":{"ID":388335,"DIS_CODE":0,"TOWNNAME":"安平區","LI":"國平里","LIN":"28鄰","STREET":"健康三街","SECT":" ","MAREA":" ","LANE":"１２巷","ALLEY":" ","HOUSE_NO":"１號二樓之７","E_COORD97":164774.88,"N_COORD97":2542904.3999999999,"ADDRESS":"健康三街１２巷１號二樓之７","OBJECTID":388311},"geometry":{"x":164774.88000000082,"y":2542904.4000000022}},{"attributes":{"ID":388336,"DIS_CODE":0,"TOWNNAME":"安平區","LI":"國平里","LIN":"28鄰","STREET":"健康三街","SECT":" ","MAREA":" ","LANE":"１２巷","ALLEY":" ","HOUSE_NO":"１號三樓之１","E_COORD97":164774.88,"N_COORD97":2542904.3999999999,"ADDRESS":"健康三街１２巷１號三樓之１","OBJECTID":388312},"geometry":{"x":164774.88000000082,"y":2542904.4000000022}},{"attributes":{"ID":388337,"DIS_CODE":0,"TOWNNAME":"佳里區","LI":"安西里","LIN":"28鄰","STREET":"忠孝路","SECT":" ","MAREA":" ","LANE":"２７９巷","ALLEY":" ","HOUSE_NO":"２號","E_COORD97":165157.32999999999,"N_COORD97":2563174.1200000001,"ADDRESS":"忠孝路２７９巷２號","OBJECTID":388313},"geometry":{"x":165157.33000000007,"y":2563174.1200000029}},{"attributes":{"ID":388338,"DIS_CODE":0,"TOWNNAME":"安平區","LI":"國平里","LIN":"28鄰","STREET":"健康三街","SECT":" ","MAREA":" ","LANE":"１２巷","ALLEY":" ","HOUSE_NO":"１號三樓之２","E_COORD97":164774.88,"N_COORD97":2542904.3999999999,"ADDRESS":"健康三街１２巷１號三樓之２","OBJECTID":388314},"geometry":{"x":164774.88000000082,"y":2542904.4000000022}},{"attributes":{"ID":388339,"DIS_CODE":0,"TOWNNAME":"安平區","LI":"國平里","LIN":"28鄰","STREET":"健康三街","SECT":" ","MAREA":" ","LANE":"１２巷","ALLEY":" ","HOUSE_NO":"１號三樓之３","E_COORD97":164774.88,"N_COORD97":2542904.3999999999,"ADDRESS":"健康三街１２巷１號三樓之３","OBJECTID":388315},"geometry":{"x":164774.88000000082,"y":2542904.4000000022}},{"attributes":{"ID":388340,"DIS_CODE":0,"TOWNNAME":"安平區","LI":"國平里","LIN":"28鄰","STREET":"健康三街","SECT":" ","MAREA":" ","LANE":"１２巷","ALLEY":" ","HOUSE_NO":"１號三樓之５","E_COORD97":164774.88,"N_COORD97":2542904.3999999999,"ADDRESS":"健康三街１２巷１號三樓之５","OBJECTID":388316},"geometry":{"x":164774.88000000082,"y":2542904.4000000022}},{"attributes":{"ID":388341,"DIS_CODE":0,"TOWNNAME":"安平區","LI":"國平里","LIN":"28鄰","STREET":"健康三街","SECT":" ","MAREA":" ","LANE":"１２巷","ALLEY":" ","HOUSE_NO":"１號三樓之６","E_COORD97":164774.88,"N_COORD97":2542904.3999999999,"ADDRESS":"健康三街１２巷１號三樓之６","OBJECTID":388317},"geometry":{"x":164774.88000000082,"y":2542904.4000000022}},{"attributes":{"ID":388342,"DIS_CODE":0,"TOWNNAME":"安平區","LI":"國平里","LIN":"28鄰","STREET":"健康三街","SECT":" ","MAREA":" ","LANE":"１２巷","ALLEY":" ","HOUSE_NO":"１號三樓之７","E_COORD97":164774.88,"N_COORD97":2542904.3999999999,"ADDRESS":"健康三街１２巷１號三樓之７","OBJECTID":388318},"geometry":{"x":164774.88000000082,"y":2542904.4000000022}},{"attributes":{"ID":388343,"DIS_CODE":0,"TOWNNAME":"安平區","LI":"國平里","LIN":"28鄰","STREET":"健康三街","SECT":" ","MAREA":" ","LANE":"１２巷","ALLEY":" ","HOUSE_NO":"１號四樓之１","E_COORD97":164774.88,"N_COORD97":2542904.3999999999,"ADDRESS":"健康三街１２巷１號四樓之１","OBJECTID":388319},"geometry":{"x":164774.88000000082,"y":2542904.4000000022}},{"attributes":{"ID":388344,"DIS_CODE":0,"TOWNNAME":"安平區","LI":"國平里","LIN":"28鄰","STREET":"健康三街","SECT":" ","MAREA":" ","LANE":"１２巷","ALLEY":" ","HOUSE_NO":"１號四樓之２","E_COORD97":164774.88,"N_COORD97":2542904.3999999999,"ADDRESS":"健康三街１２巷１號四樓之２","OBJECTID":388320},"geometry":{"x":164774.88000000082,"y":2542904.4000000022}},{"attributes":{"ID":388345,"DIS_CODE":0,"TOWNNAME":"安平區","LI":"國平里","LIN":"28鄰","STREET":"健康三街","SECT":" ","MAREA":" ","LANE":"１２巷","ALLEY":" ","HOUSE_NO":"１號四樓之３","E_COORD97":164774.88,"N_COORD97":2542904.3999999999,"ADDRESS":"健康三街１２巷１號四樓之３","OBJECTID":388321},"geometry":{"x":164774.88000000082,"y":2542904.4000000022}},{"attributes":{"ID":388346,"DIS_CODE":0,"TOWNNAME":"安平區","LI":"國平里","LIN":"28鄰","STREET":"健康三街","SECT":" ","MAREA":" ","LANE":"１２巷","ALLEY":" ","HOUSE_NO":"１號四樓之５","E_COORD97":164774.88,"N_COORD97":2542904.3999999999,"ADDRESS":"健康三街１２巷１號四樓之５","OBJECTID":388322},"geometry":{"x":164774.88000000082,"y":2542904.4000000022}},{"attributes":{"ID":388347,"DIS_CODE":0,"TOWNNAME":"安平區","LI":"國平里","LIN":"28鄰","STREET":"健康三街","SECT":" ","MAREA":" ","LANE":"１２巷","ALLEY":" ","HOUSE_NO":"１號四樓之６","E_COORD97":164774.88,"N_COORD97":2542904.3999999999,"ADDRESS":"健康三街１２巷１號四樓之６","OBJECTID":388323},"geometry":{"x":164774.88000000082,"y":2542904.4000000022}},{"attributes":{"ID":388348,"DIS_CODE":0,"TOWNNAME":"安平區","LI":"國平里","LIN":"28鄰","STREET":"健康三街","SECT":" ","MAREA":" ","LANE":"１２巷","ALLEY":" ","HOUSE_NO":"１號四樓之７","E_COORD97":164774.88,"N_COORD97":2542904.3999999999,"ADDRESS":"健康三街１２巷１號四樓之７","OBJECTID":388324},"geometry":{"x":164774.88000000082,"y":2542904.4000000022}},{"attributes":{"ID":388349,"DIS_CODE":0,"TOWNNAME":"安平區","LI":"國平里","LIN":"28鄰","STREET":"健康三街","SECT":" ","MAREA":" ","LANE":"１２巷","ALLEY":" ","HOUSE_NO":"１號五樓之１","E_COORD97":164774.88,"N_COORD97":2542904.3999999999,"ADDRESS":"健康三街１２巷１號五樓之１","OBJECTID":388325},"geometry":{"x":164774.88000000082,"y":2542904.4000000022}},{"attributes":{"ID":388350,"DIS_CODE":0,"TOWNNAME":"安平區","LI":"國平里","LIN":"28鄰","STREET":"健康三街","SECT":" ","MAREA":" ","LANE":"１２巷","ALLEY":" ","HOUSE_NO":"１號五樓之２","E_COORD97":164774.88,"N_COORD97":2542904.3999999999,"ADDRESS":"健康三街１２巷１號五樓之２","OBJECTID":388326},"geometry":{"x":164774.88000000082,"y":2542904.4000000022}},{"attributes":{"ID":388351,"DIS_CODE":0,"TOWNNAME":"安平區","LI":"國平里","LIN":"28鄰","STREET":"健康三街","SECT":" ","MAREA":" ","LANE":"１２巷","ALLEY":" ","HOUSE_NO":"１號五樓之３","E_COORD97":164774.88,"N_COORD97":2542904.3999999999,"ADDRESS":"健康三街１２巷１號五樓之３","OBJECTID":388327},"geometry":{"x":164774.88000000082,"y":2542904.4000000022}},{"attributes":{"ID":388352,"DIS_CODE":0,"TOWNNAME":"安平區","LI":"國平里","LIN":"28鄰","STREET":"健康三街","SECT":" ","MAREA":" ","LANE":"１２巷","ALLEY":" ","HOUSE_NO":"１號五樓之５","E_COORD97":164774.88,"N_COORD97":2542904.3999999999,"ADDRESS":"健康三街１２巷１號五樓之５","OBJECTID":388328},"geometry":{"x":164774.88000000082,"y":2542904.4000000022}},{"attributes":{"ID":388353,"DIS_CODE":0,"TOWNNAME":"安平區","LI":"國平里","LIN":"28鄰","STREET":"健康三街","SECT":" ","MAREA":" ","LANE":"１２巷","ALLEY":" ","HOUSE_NO":"１號五樓之６","E_COORD97":164774.88,"N_COORD97":2542904.3999999999,"ADDRESS":"健康三街１２巷１號五樓之６","OBJECTID":388329},"geometry":{"x":164774.88000000082,"y":2542904.4000000022}},{"attributes":{"ID":388354,"DIS_CODE":0,"TOWNNAME":"安平區","LI":"國平里","LIN":"28鄰","STREET":"健康三街","SECT":" ","MAREA":" ","LANE":"１２巷","ALLEY":" ","HOUSE_NO":"１號五樓之７","E_COORD97":164774.88,"N_COORD97":2542904.3999999999,"ADDRESS":"健康三街１２巷１號五樓之７","OBJECTID":388330},"geometry":{"x":164774.88000000082,"y":2542904.4000000022}},{"attributes":{"ID":388355,"DIS_CODE":0,"TOWNNAME":"安平區","LI":"國平里","LIN":"28鄰","STREET":"健康三街","SECT":" ","MAREA":" ","LANE":"１２巷","ALLEY":" ","HOUSE_NO":"１號六樓之１","E_COORD97":164774.88,"N_COORD97":2542904.3999999999,"ADDRESS":"健康三街１２巷１號六樓之１","OBJECTID":388331},"geometry":{"x":164774.88000000082,"y":2542904.4000000022}},{"attributes":{"ID":388356,"DIS_CODE":0,"TOWNNAME":"安平區","LI":"國平里","LIN":"28鄰","STREET":"健康三街","SECT":" ","MAREA":" ","LANE":"１２巷","ALLEY":" ","HOUSE_NO":"１號六樓之２","E_COORD97":164774.88,"N_COORD97":2542904.3999999999,"ADDRESS":"健康三街１２巷１號六樓之２","OBJECTID":388332},"geometry":{"x":164774.88000000082,"y":2542904.4000000022}},{"attributes":{"ID":388357,"DIS_CODE":0,"TOWNNAME":"安平區","LI":"國平里","LIN":"28鄰","STREET":"健康三街","SECT":" ","MAREA":" ","LANE":"１２巷","ALLEY":" ","HOUSE_NO":"１號六樓之３","E_COORD97":164774.88,"N_COORD97":2542904.3999999999,"ADDRESS":"健康三街１２巷１號六樓之３","OBJECTID":388333},"geometry":{"x":164774.88000000082,"y":2542904.4000000022}},{"attributes":{"ID":388358,"DIS_CODE":0,"TOWNNAME":"安平區","LI":"國平里","LIN":"28鄰","STREET":"健康三街","SECT":" ","MAREA":" ","LANE":"１２巷","ALLEY":" ","HOUSE_NO":"１號六樓之５","E_COORD97":164774.88,"N_COORD97":2542904.3999999999,"ADDRESS":"健康三街１２巷１號六樓之５","OBJECTID":388334},"geometry":{"x":164774.88000000082,"y":2542904.4000000022}},{"attributes":{"ID":388359,"DIS_CODE":0,"TOWNNAME":"安平區","LI":"國平里","LIN":"28鄰","STREET":"健康三街","SECT":" ","MAREA":" ","LANE":"１２巷","ALLEY":" ","HOUSE_NO":"１號六樓之６","E_COORD97":164774.88,"N_COORD97":2542904.3999999999,"ADDRESS":"健康三街１２巷１號六樓之６","OBJECTID":388335},"geometry":{"x":164774.88000000082,"y":2542904.4000000022}},{"attributes":{"ID":388360,"DIS_CODE":0,"TOWNNAME":"安平區","LI":"國平里","LIN":"28鄰","STREET":"健康三街","SECT":" ","MAREA":" ","LANE":"１２巷","ALLEY":" ","HOUSE_NO":"１號六樓之７","E_COORD97":164774.88,"N_COORD97":2542904.3999999999,"ADDRESS":"健康三街１２巷１號六樓之７","OBJECTID":388336},"geometry":{"x":164774.88000000082,"y":2542904.4000000022}},{"attributes":{"ID":388361,"DIS_CODE":0,"TOWNNAME":"安平區","LI":"國平里","LIN":"28鄰","STREET":"健康三街","SECT":" ","MAREA":" ","LANE":"１２巷","ALLEY":" ","HOUSE_NO":"１號七樓之１","E_COORD97":164774.88,"N_COORD97":2542904.3999999999,"ADDRESS":"健康三街１２巷１號七樓之１","OBJECTID":388337},"geometry":{"x":164774.88000000082,"y":2542904.4000000022}},{"attributes":{"ID":388362,"DIS_CODE":0,"TOWNNAME":"安平區","LI":"國平里","LIN":"28鄰","STREET":"健康三街","SECT":" ","MAREA":" ","LANE":"１２巷","ALLEY":" ","HOUSE_NO":"１號七樓之２","E_COORD97":164774.88,"N_COORD97":2542904.3999999999,"ADDRESS":"健康三街１２巷１號七樓之２","OBJECTID":388338},"geometry":{"x":164774.88000000082,"y":2542904.4000000022}},{"attributes":{"ID":388363,"DIS_CODE":0,"TOWNNAME":"安平區","LI":"國平里","LIN":"28鄰","STREET":"健康三街","SECT":" ","MAREA":" ","LANE":"１２巷","ALLEY":" ","HOUSE_NO":"１號七樓之３","E_COORD97":164774.88,"N_COORD97":2542904.3999999999,"ADDRESS":"健康三街１２巷１號七樓之３","OBJECTID":388339},"geometry":{"x":164774.88000000082,"y":2542904.4000000022}},{"attributes":{"ID":388364,"DIS_CODE":0,"TOWNNAME":"安平區","LI":"國平里","LIN":"28鄰","STREET":"健康三街","SECT":" ","MAREA":" ","LANE":"１２巷","ALLEY":" ","HOUSE_NO":"１號七樓之５","E_COORD97":164774.88,"N_COORD97":2542904.3999999999,"ADDRESS":"健康三街１２巷１號七樓之５","OBJECTID":388340},"geometry":{"x":164774.88000000082,"y":2542904.4000000022}},{"attributes":{"ID":388365,"DIS_CODE":0,"TOWNNAME":"安平區","LI":"國平里","LIN":"28鄰","STREET":"健康三街","SECT":" ","MAREA":" ","LANE":"１２巷","ALLEY":" ","HOUSE_NO":"１號七樓之６","E_COORD97":164774.88,"N_COORD97":2542904.3999999999,"ADDRESS":"健康三街１２巷１號七樓之６","OBJECTID":388341},"geometry":{"x":164774.88000000082,"y":2542904.4000000022}},{"attributes":{"ID":388366,"DIS_CODE":0,"TOWNNAME":"安平區","LI":"國平里","LIN":"28鄰","STREET":"健康三街","SECT":" ","MAREA":" ","LANE":"１２巷","ALLEY":" ","HOUSE_NO":"１號七樓之７","E_COORD97":164774.88,"N_COORD97":2542904.3999999999,"ADDRESS":"健康三街１２巷１號七樓之７","OBJECTID":388342},"geometry":{"x":164774.88000000082,"y":2542904.4000000022}},{"attributes":{"ID":388367,"DIS_CODE":0,"TOWNNAME":"安平區","LI":"國平里","LIN":"28鄰","STREET":"健康三街","SECT":" ","MAREA":" ","LANE":"１２巷","ALLEY":" ","HOUSE_NO":"１號八樓之１","E_COORD97":164774.88,"N_COORD97":2542904.3999999999,"ADDRESS":"健康三街１２巷１號八樓之１","OBJECTID":388343},"geometry":{"x":164774.88000000082,"y":2542904.4000000022}},{"attributes":{"ID":388368,"DIS_CODE":0,"TOWNNAME":"安平區","LI":"國平里","LIN":"28鄰","STREET":"健康三街","SECT":" ","MAREA":" ","LANE":"１２巷","ALLEY":" ","HOUSE_NO":"１號八樓之２","E_COORD97":164774.88,"N_COORD97":2542904.3999999999,"ADDRESS":"健康三街１２巷１號八樓之２","OBJECTID":388344},"geometry":{"x":164774.88000000082,"y":2542904.4000000022}},{"attributes":{"ID":388369,"DIS_CODE":0,"TOWNNAME":"安平區","LI":"國平里","LIN":"28鄰","STREET":"健康三街","SECT":" ","MAREA":" ","LANE":"１２巷","ALLEY":" ","HOUSE_NO":"１號八樓之３","E_COORD97":164774.88,"N_COORD97":2542904.3999999999,"ADDRESS":"健康三街１２巷１號八樓之３","OBJECTID":388345},"geometry":{"x":164774.88000000082,"y":2542904.4000000022}},{"attributes":{"ID":388370,"DIS_CODE":0,"TOWNNAME":"安平區","LI":"國平里","LIN":"28鄰","STREET":"健康三街","SECT":" ","MAREA":" ","LANE":"１２巷","ALLEY":" ","HOUSE_NO":"１號八樓之５","E_COORD97":164774.88,"N_COORD97":2542904.3999999999,"ADDRESS":"健康三街１２巷１號八樓之５","OBJECTID":388346},"geometry":{"x":164774.88000000082,"y":2542904.4000000022}},{"attributes":{"ID":388371,"DIS_CODE":0,"TOWNNAME":"安平區","LI":"國平里","LIN":"28鄰","STREET":"健康三街","SECT":" ","MAREA":" ","LANE":"１２巷","ALLEY":" ","HOUSE_NO":"１號八樓之６","E_COORD97":164774.88,"N_COORD97":2542904.3999999999,"ADDRESS":"健康三街１２巷１號八樓之６","OBJECTID":388347},"geometry":{"x":164774.88000000082,"y":2542904.4000000022}},{"attributes":{"ID":388372,"DIS_CODE":0,"TOWNNAME":"安平區","LI":"國平里","LIN":"28鄰","STREET":"健康三街","SECT":" ","MAREA":" ","LANE":"１２巷","ALLEY":" ","HOUSE_NO":"１號八樓之７","E_COORD97":164774.88,"N_COORD97":2542904.3999999999,"ADDRESS":"健康三街１２巷１號八樓之７","OBJECTID":388348},"geometry":{"x":164774.88000000082,"y":2542904.4000000022}},{"attributes":{"ID":388373,"DIS_CODE":0,"TOWNNAME":"安平區","LI":"國平里","LIN":"28鄰","STREET":"健康三街","SECT":" ","MAREA":" ","LANE":"１２巷","ALLEY":" ","HOUSE_NO":"１號九樓之１","E_COORD97":164774.88,"N_COORD97":2542904.3999999999,"ADDRESS":"健康三街１２巷１號九樓之１","OBJECTID":388349},"geometry":{"x":164774.88000000082,"y":2542904.4000000022}},{"attributes":{"ID":388374,"DIS_CODE":0,"TOWNNAME":"安平區","LI":"國平里","LIN":"28鄰","STREET":"健康三街","SECT":" ","MAREA":" ","LANE":"１２巷","ALLEY":" ","HOUSE_NO":"１號九樓之２","E_COORD97":164774.88,"N_COORD97":2542904.3999999999,"ADDRESS":"健康三街１２巷１號九樓之２","OBJECTID":388350},"geometry":{"x":164774.88000000082,"y":2542904.4000000022}},{"attributes":{"ID":388375,"DIS_CODE":0,"TOWNNAME":"安平區","LI":"國平里","LIN":"28鄰","STREET":"健康三街","SECT":" ","MAREA":" ","LANE":"１２巷","ALLEY":" ","HOUSE_NO":"１號九樓之３","E_COORD97":164774.88,"N_COORD97":2542904.3999999999,"ADDRESS":"健康三街１２巷１號九樓之３","OBJECTID":388351},"geometry":{"x":164774.88000000082,"y":2542904.4000000022}},{"attributes":{"ID":388376,"DIS_CODE":0,"TOWNNAME":"安平區","LI":"國平里","LIN":"28鄰","STREET":"健康三街","SECT":" ","MAREA":" ","LANE":"１２巷","ALLEY":" ","HOUSE_NO":"１號九樓之５","E_COORD97":164774.88,"N_COORD97":2542904.3999999999,"ADDRESS":"健康三街１２巷１號九樓之５","OBJECTID":388352},"geometry":{"x":164774.88000000082,"y":2542904.4000000022}},{"attributes":{"ID":388377,"DIS_CODE":0,"TOWNNAME":"安平區","LI":"國平里","LIN":"28鄰","STREET":"健康三街","SECT":" ","MAREA":" ","LANE":"１２巷","ALLEY":" ","HOUSE_NO":"１號九樓之６","E_COORD97":164774.88,"N_COORD97":2542904.3999999999,"ADDRESS":"健康三街１２巷１號九樓之６","OBJECTID":388353},"geometry":{"x":164774.88000000082,"y":2542904.4000000022}},{"attributes":{"ID":388378,"DIS_CODE":0,"TOWNNAME":"安平區","LI":"國平里","LIN":"28鄰","STREET":"健康三街","SECT":" ","MAREA":" ","LANE":"１２巷","ALLEY":" ","HOUSE_NO":"１號九樓之７","E_COORD97":164774.88,"N_COORD97":2542904.3999999999,"ADDRESS":"健康三街１２巷１號九樓之７","OBJECTID":388354},"geometry":{"x":164774.88000000082,"y":2542904.4000000022}},{"attributes":{"ID":388379,"DIS_CODE":0,"TOWNNAME":"安平區","LI":"國平里","LIN":"28鄰","STREET":"健康三街","SECT":" ","MAREA":" ","LANE":"１２巷","ALLEY":" ","HOUSE_NO":"１號十樓之１","E_COORD97":164774.88,"N_COORD97":2542904.3999999999,"ADDRESS":"健康三街１２巷１號十樓之１","OBJECTID":388355},"geometry":{"x":164774.88000000082,"y":2542904.4000000022}},{"attributes":{"ID":388380,"DIS_CODE":0,"TOWNNAME":"安平區","LI":"國平里","LIN":"28鄰","STREET":"健康三街","SECT":" ","MAREA":" ","LANE":"１２巷","ALLEY":" ","HOUSE_NO":"１號十樓之２","E_COORD97":164774.88,"N_COORD97":2542904.3999999999,"ADDRESS":"健康三街１２巷１號十樓之２","OBJECTID":388356},"geometry":{"x":164774.88000000082,"y":2542904.4000000022}},{"attributes":{"ID":388381,"DIS_CODE":0,"TOWNNAME":"安平區","LI":"國平里","LIN":"28鄰","STREET":"健康三街","SECT":" ","MAREA":" ","LANE":"１２巷","ALLEY":" ","HOUSE_NO":"１號十樓之３","E_COORD97":164774.88,"N_COORD97":2542904.3999999999,"ADDRESS":"健康三街１２巷１號十樓之３","OBJECTID":388357},"geometry":{"x":164774.88000000082,"y":2542904.4000000022}},{"attributes":{"ID":388382,"DIS_CODE":0,"TOWNNAME":"安平區","LI":"國平里","LIN":"28鄰","STREET":"健康三街","SECT":" ","MAREA":" ","LANE":"１２巷","ALLEY":" ","HOUSE_NO":"１號十樓之５","E_COORD97":164774.88,"N_COORD97":2542904.3999999999,"ADDRESS":"健康三街１２巷１號十樓之５","OBJECTID":388358},"geometry":{"x":164774.88000000082,"y":2542904.4000000022}},{"attributes":{"ID":388383,"DIS_CODE":0,"TOWNNAME":"安平區","LI":"國平里","LIN":"28鄰","STREET":"健康三街","SECT":" ","MAREA":" ","LANE":"１２巷","ALLEY":" ","HOUSE_NO":"１號十樓之６","E_COORD97":164774.88,"N_COORD97":2542904.3999999999,"ADDRESS":"健康三街１２巷１號十樓之６","OBJECTID":388359},"geometry":{"x":164774.88000000082,"y":2542904.4000000022}},{"attributes":{"ID":388384,"DIS_CODE":0,"TOWNNAME":"安平區","LI":"國平里","LIN":"28鄰","STREET":"健康三街","SECT":" ","MAREA":" ","LANE":"１２巷","ALLEY":" ","HOUSE_NO":"１號十樓之７","E_COORD97":164774.88,"N_COORD97":2542904.3999999999,"ADDRESS":"健康三街１２巷１號十樓之７","OBJECTID":388360},"geometry":{"x":164774.88000000082,"y":2542904.4000000022}},{"attributes":{"ID":388385,"DIS_CODE":0,"TOWNNAME":"安平區","LI":"國平里","LIN":"28鄰","STREET":"健康三街","SECT":" ","MAREA":" ","LANE":"１２巷","ALLEY":" ","HOUSE_NO":"１號十一樓之１","E_COORD97":164774.88,"N_COORD97":2542904.3999999999,"ADDRESS":"健康三街１２巷１號十一樓之１","OBJECTID":388361},"geometry":{"x":164774.88000000082,"y":2542904.4000000022}},{"attributes":{"ID":388386,"DIS_CODE":0,"TOWNNAME":"安平區","LI":"國平里","LIN":"28鄰","STREET":"健康三街","SECT":" ","MAREA":" ","LANE":"１２巷","ALLEY":" ","HOUSE_NO":"１號十一樓之２","E_COORD97":164774.88,"N_COORD97":2542904.3999999999,"ADDRESS":"健康三街１２巷１號十一樓之２","OBJECTID":388362},"geometry":{"x":164774.88000000082,"y":2542904.4000000022}},{"attributes":{"ID":388387,"DIS_CODE":0,"TOWNNAME":"安平區","LI":"國平里","LIN":"28鄰","STREET":"健康三街","SECT":" ","MAREA":" ","LANE":"１２巷","ALLEY":" ","HOUSE_NO":"１號十一樓之３","E_COORD97":164774.88,"N_COORD97":2542904.3999999999,"ADDRESS":"健康三街１２巷１號十一樓之３","OBJECTID":388363},"geometry":{"x":164774.88000000082,"y":2542904.4000000022}},{"attributes":{"ID":388388,"DIS_CODE":0,"TOWNNAME":"安平區","LI":"國平里","LIN":"28鄰","STREET":"健康三街","SECT":" ","MAREA":" ","LANE":"１２巷","ALLEY":" ","HOUSE_NO":"１號十一樓之５","E_COORD97":164774.88,"N_COORD97":2542904.3999999999,"ADDRESS":"健康三街１２巷１號十一樓之５","OBJECTID":388364},"geometry":{"x":164774.88000000082,"y":2542904.4000000022}},{"attributes":{"ID":388389,"DIS_CODE":0,"TOWNNAME":"安平區","LI":"國平里","LIN":"28鄰","STREET":"健康三街","SECT":" ","MAREA":" ","LANE":"１２巷","ALLEY":" ","HOUSE_NO":"１號十一樓之６","E_COORD97":164774.88,"N_COORD97":2542904.3999999999,"ADDRESS":"健康三街１２巷１號十一樓之６","OBJECTID":388365},"geometry":{"x":164774.88000000082,"y":2542904.4000000022}},{"attributes":{"ID":388390,"DIS_CODE":0,"TOWNNAME":"安平區","LI":"國平里","LIN":"28鄰","STREET":"健康三街","SECT":" ","MAREA":" ","LANE":"１２巷","ALLEY":" ","HOUSE_NO":"１號十一樓之７","E_COORD97":164774.88,"N_COORD97":2542904.3999999999,"ADDRESS":"健康三街１２巷１號十一樓之７","OBJECTID":388366},"geometry":{"x":164774.88000000082,"y":2542904.4000000022}},{"attributes":{"ID":388391,"DIS_CODE":0,"TOWNNAME":"安平區","LI":"國平里","LIN":"28鄰","STREET":"健康三街","SECT":" ","MAREA":" ","LANE":"１２巷","ALLEY":" ","HOUSE_NO":"１號十二樓之１","E_COORD97":164774.88,"N_COORD97":2542904.3999999999,"ADDRESS":"健康三街１２巷１號十二樓之１","OBJECTID":388367},"geometry":{"x":164774.88000000082,"y":2542904.4000000022}},{"attributes":{"ID":388392,"DIS_CODE":0,"TOWNNAME":"安平區","LI":"國平里","LIN":"28鄰","STREET":"健康三街","SECT":" ","MAREA":" ","LANE":"１２巷","ALLEY":" ","HOUSE_NO":"１號十二樓之２","E_COORD97":164774.88,"N_COORD97":2542904.3999999999,"ADDRESS":"健康三街１２巷１號十二樓之２","OBJECTID":388368},"geometry":{"x":164774.88000000082,"y":2542904.4000000022}},{"attributes":{"ID":388393,"DIS_CODE":0,"TOWNNAME":"安平區","LI":"國平里","LIN":"28鄰","STREET":"健康三街","SECT":" ","MAREA":" ","LANE":"１２巷","ALLEY":" ","HOUSE_NO":"１號十二樓之３","E_COORD97":164774.88,"N_COORD97":2542904.3999999999,"ADDRESS":"健康三街１２巷１號十二樓之３","OBJECTID":388369},"geometry":{"x":164774.88000000082,"y":2542904.4000000022}},{"attributes":{"ID":388394,"DIS_CODE":0,"TOWNNAME":"安平區","LI":"國平里","LIN":"28鄰","STREET":"健康三街","SECT":" ","MAREA":" ","LANE":"１２巷","ALLEY":" ","HOUSE_NO":"１號十二樓之５","E_COORD97":164774.88,"N_COORD97":2542904.3999999999,"ADDRESS":"健康三街１２巷１號十二樓之５","OBJECTID":388370},"geometry":{"x":164774.88000000082,"y":2542904.4000000022}},{"attributes":{"ID":388395,"DIS_CODE":0,"TOWNNAME":"安平區","LI":"國平里","LIN":"28鄰","STREET":"健康三街","SECT":" ","MAREA":" ","LANE":"１２巷","ALLEY":" ","HOUSE_NO":"１號十二樓之６","E_COORD97":164774.88,"N_COORD97":2542904.3999999999,"ADDRESS":"健康三街１２巷１號十二樓之６","OBJECTID":388371},"geometry":{"x":164774.88000000082,"y":2542904.4000000022}},{"attributes":{"ID":388396,"DIS_CODE":0,"TOWNNAME":"安平區","LI":"國平里","LIN":"28鄰","STREET":"健康三街","SECT":" ","MAREA":" ","LANE":"１２巷","ALLEY":" ","HOUSE_NO":"１號十二樓之７","E_COORD97":164774.88,"N_COORD97":2542904.3999999999,"ADDRESS":"健康三街１２巷１號十二樓之７","OBJECTID":388372},"geometry":{"x":164774.88000000082,"y":2542904.4000000022}},{"attributes":{"ID":388397,"DIS_CODE":0,"TOWNNAME":"安平區","LI":"國平里","LIN":"28鄰","STREET":"健康三街","SECT":" ","MAREA":" ","LANE":"１２巷","ALLEY":" ","HOUSE_NO":"１號十三樓之１","E_COORD97":164774.88,"N_COORD97":2542904.3999999999,"ADDRESS":"健康三街１２巷１號十三樓之１","OBJECTID":388373},"geometry":{"x":164774.88000000082,"y":2542904.4000000022}},{"attributes":{"ID":388398,"DIS_CODE":0,"TOWNNAME":"安平區","LI":"國平里","LIN":"28鄰","STREET":"健康三街","SECT":" ","MAREA":" ","LANE":"１２巷","ALLEY":" ","HOUSE_NO":"１號十三樓之２","E_COORD97":164774.88,"N_COORD97":2542904.3999999999,"ADDRESS":"健康三街１２巷１號十三樓之２","OBJECTID":388374},"geometry":{"x":164774.88000000082,"y":2542904.4000000022}},{"attributes":{"ID":388399,"DIS_CODE":0,"TOWNNAME":"安平區","LI":"國平里","LIN":"28鄰","STREET":"健康三街","SECT":" ","MAREA":" ","LANE":"１２巷","ALLEY":" ","HOUSE_NO":"１號十三樓之３","E_COORD97":164774.88,"N_COORD97":2542904.3999999999,"ADDRESS":"健康三街１２巷１號十三樓之３","OBJECTID":388375},"geometry":{"x":164774.88000000082,"y":2542904.4000000022}},{"attributes":{"ID":388400,"DIS_CODE":0,"TOWNNAME":"安平區","LI":"國平里","LIN":"28鄰","STREET":"健康三街","SECT":" ","MAREA":" ","LANE":"１２巷","ALLEY":" ","HOUSE_NO":"１號十三樓之５","E_COORD97":164774.88,"N_COORD97":2542904.3999999999,"ADDRESS":"健康三街１２巷１號十三樓之５","OBJECTID":388376},"geometry":{"x":164774.88000000082,"y":2542904.4000000022}},{"attributes":{"ID":388401,"DIS_CODE":0,"TOWNNAME":"安平區","LI":"國平里","LIN":"28鄰","STREET":"健康三街","SECT":" ","MAREA":" ","LANE":"１２巷","ALLEY":" ","HOUSE_NO":"１號十三樓之６","E_COORD97":164774.88,"N_COORD97":2542904.3999999999,"ADDRESS":"健康三街１２巷１號十三樓之６","OBJECTID":388377},"geometry":{"x":164774.88000000082,"y":2542904.4000000022}},{"attributes":{"ID":388402,"DIS_CODE":0,"TOWNNAME":"安平區","LI":"國平里","LIN":"28鄰","STREET":"健康三街","SECT":" ","MAREA":" ","LANE":"１２巷","ALLEY":" ","HOUSE_NO":"１號十三樓之７","E_COORD97":164774.88,"N_COORD97":2542904.3999999999,"ADDRESS":"健康三街１２巷１號十三樓之７","OBJECTID":388378},"geometry":{"x":164774.88000000082,"y":2542904.4000000022}},{"attributes":{"ID":388403,"DIS_CODE":0,"TOWNNAME":"安平區","LI":"國平里","LIN":"28鄰","STREET":"健康三街","SECT":" ","MAREA":" ","LANE":"１２巷","ALLEY":" ","HOUSE_NO":"１號十四樓之１","E_COORD97":164774.88,"N_COORD97":2542904.3999999999,"ADDRESS":"健康三街１２巷１號十四樓之１","OBJECTID":388379},"geometry":{"x":164774.88000000082,"y":2542904.4000000022}},{"attributes":{"ID":388404,"DIS_CODE":0,"TOWNNAME":"安平區","LI":"國平里","LIN":"28鄰","STREET":"健康三街","SECT":" ","MAREA":" ","LANE":"１２巷","ALLEY":" ","HOUSE_NO":"１號十四樓之２","E_COORD97":164774.88,"N_COORD97":2542904.3999999999,"ADDRESS":"健康三街１２巷１號十四樓之２","OBJECTID":388380},"geometry":{"x":164774.88000000082,"y":2542904.4000000022}},{"attributes":{"ID":388405,"DIS_CODE":0,"TOWNNAME":"安平區","LI":"國平里","LIN":"28鄰","STREET":"健康三街","SECT":" ","MAREA":" ","LANE":"１２巷","ALLEY":" ","HOUSE_NO":"１號十四樓之３","E_COORD97":164774.88,"N_COORD97":2542904.3999999999,"ADDRESS":"健康三街１２巷１號十四樓之３","OBJECTID":388381},"geometry":{"x":164774.88000000082,"y":2542904.4000000022}},{"attributes":{"ID":388406,"DIS_CODE":0,"TOWNNAME":"安平區","LI":"國平里","LIN":"28鄰","STREET":"健康三街","SECT":" ","MAREA":" ","LANE":"１２巷","ALLEY":" ","HOUSE_NO":"１號十四樓之５","E_COORD97":164774.88,"N_COORD97":2542904.3999999999,"ADDRESS":"健康三街１２巷１號十四樓之５","OBJECTID":388382},"geometry":{"x":164774.88000000082,"y":2542904.4000000022}},{"attributes":{"ID":388407,"DIS_CODE":0,"TOWNNAME":"安平區","LI":"國平里","LIN":"28鄰","STREET":"健康三街","SECT":" ","MAREA":" ","LANE":"１２巷","ALLEY":" ","HOUSE_NO":"１號十四樓之６","E_COORD97":164774.88,"N_COORD97":2542904.3999999999,"ADDRESS":"健康三街１２巷１號十四樓之６","OBJECTID":388383},"geometry":{"x":164774.88000000082,"y":2542904.4000000022}},{"attributes":{"ID":388408,"DIS_CODE":0,"TOWNNAME":"安平區","LI":"國平里","LIN":"28鄰","STREET":"健康三街","SECT":" ","MAREA":" ","LANE":"１２巷","ALLEY":" ","HOUSE_NO":"１號十四樓之７","E_COORD97":164774.88,"N_COORD97":2542904.3999999999,"ADDRESS":"健康三街１２巷１號十四樓之７","OBJECTID":388384},"geometry":{"x":164774.88000000082,"y":2542904.4000000022}},{"attributes":{"ID":388409,"DIS_CODE":0,"TOWNNAME":"安平區","LI":"平通里","LIN":"28鄰","STREET":"育平七街","SECT":" ","MAREA":" ","LANE":"８０巷","ALLEY":" ","HOUSE_NO":"２３號二樓","E_COORD97":164379.32000000001,"N_COORD97":2543830.0600000001,"ADDRESS":"育平七街８０巷２３號二樓","OBJECTID":388385},"geometry":{"x":164379.32000000123,"y":2543830.0600000005}},{"attributes":{"ID":388410,"DIS_CODE":0,"TOWNNAME":"安平區","LI":"平通里","LIN":"28鄰","STREET":"育平七街","SECT":" ","MAREA":" ","LANE":"８０巷","ALLEY":" ","HOUSE_NO":"２３號三樓之１","E_COORD97":164379.32000000001,"N_COORD97":2543830.0600000001,"ADDRESS":"育平七街８０巷２３號三樓之１","OBJECTID":388386},"geometry":{"x":164379.32000000123,"y":2543830.0600000005}},{"attributes":{"ID":388411,"DIS_CODE":0,"TOWNNAME":"安平區","LI":"平通里","LIN":"28鄰","STREET":"育平七街","SECT":" ","MAREA":" ","LANE":"８０巷","ALLEY":" ","HOUSE_NO":"２３號三樓之１０","E_COORD97":164379.32000000001,"N_COORD97":2543830.0600000001,"ADDRESS":"育平七街８０巷２３號三樓之１０","OBJECTID":388387},"geometry":{"x":164379.32000000123,"y":2543830.0600000005}},{"attributes":{"ID":388412,"DIS_CODE":0,"TOWNNAME":"安平區","LI":"平通里","LIN":"28鄰","STREET":"育平七街","SECT":" ","MAREA":" ","LANE":"８０巷","ALLEY":" ","HOUSE_NO":"２３號三樓之１１","E_COORD97":164379.32000000001,"N_COORD97":2543830.0600000001,"ADDRESS":"育平七街８０巷２３號三樓之１１","OBJECTID":388388},"geometry":{"x":164379.32000000123,"y":2543830.0600000005}},{"attributes":{"ID":388413,"DIS_CODE":0,"TOWNNAME":"安平區","LI":"平通里","LIN":"28鄰","STREET":"育平七街","SECT":" ","MAREA":" ","LANE":"８０巷","ALLEY":" ","HOUSE_NO":"２３號三樓之２","E_COORD97":164379.32000000001,"N_COORD97":2543830.0600000001,"ADDRESS":"育平七街８０巷２３號三樓之２","OBJECTID":388389},"geometry":{"x":164379.32000000123,"y":2543830.0600000005}},{"attributes":{"ID":388414,"DIS_CODE":0,"TOWNNAME":"安平區","LI":"平通里","LIN":"28鄰","STREET":"育平七街","SECT":" ","MAREA":" ","LANE":"８０巷","ALLEY":" ","HOUSE_NO":"２３號三樓之３","E_COORD97":164379.32000000001,"N_COORD97":2543830.0600000001,"ADDRESS":"育平七街８０巷２３號三樓之３","OBJECTID":388390},"geometry":{"x":164379.32000000123,"y":2543830.0600000005}},{"attributes":{"ID":388415,"DIS_CODE":0,"TOWNNAME":"安平區","LI":"平通里","LIN":"28鄰","STREET":"育平七街","SECT":" ","MAREA":" ","LANE":"８０巷","ALLEY":" ","HOUSE_NO":"２３號三樓之４","E_COORD97":164379.32000000001,"N_COORD97":2543830.0600000001,"ADDRESS":"育平七街８０巷２３號三樓之４","OBJECTID":388391},"geometry":{"x":164379.32000000123,"y":2543830.0600000005}},{"attributes":{"ID":388416,"DIS_CODE":0,"TOWNNAME":"安平區","LI":"平通里","LIN":"28鄰","STREET":"育平七街","SECT":" ","MAREA":" ","LANE":"８０巷","ALLEY":" ","HOUSE_NO":"２３號三樓之５","E_COORD97":164379.32000000001,"N_COORD97":2543830.0600000001,"ADDRESS":"育平七街８０巷２３號三樓之５","OBJECTID":388392},"geometry":{"x":164379.32000000123,"y":2543830.0600000005}},{"attributes":{"ID":388417,"DIS_CODE":0,"TOWNNAME":"安平區","LI":"平通里","LIN":"28鄰","STREET":"育平七街","SECT":" ","MAREA":" ","LANE":"８０巷","ALLEY":" ","HOUSE_NO":"２３號三樓之６","E_COORD97":164379.32000000001,"N_COORD97":2543830.0600000001,"ADDRESS":"育平七街８０巷２３號三樓之６","OBJECTID":388393},"geometry":{"x":164379.32000000123,"y":2543830.0600000005}},{"attributes":{"ID":388418,"DIS_CODE":0,"TOWNNAME":"安平區","LI":"平通里","LIN":"28鄰","STREET":"育平七街","SECT":" ","MAREA":" ","LANE":"８０巷","ALLEY":" ","HOUSE_NO":"２３號三樓之７","E_COORD97":164379.32000000001,"N_COORD97":2543830.0600000001,"ADDRESS":"育平七街８０巷２３號三樓之７","OBJECTID":388394},"geometry":{"x":164379.32000000123,"y":2543830.0600000005}},{"attributes":{"ID":388419,"DIS_CODE":0,"TOWNNAME":"安平區","LI":"平通里","LIN":"28鄰","STREET":"育平七街","SECT":" ","MAREA":" ","LANE":"８０巷","ALLEY":" ","HOUSE_NO":"２３號三樓之８","E_COORD97":164379.32000000001,"N_COORD97":2543830.0600000001,"ADDRESS":"育平七街８０巷２３號三樓之８","OBJECTID":388395},"geometry":{"x":164379.32000000123,"y":2543830.0600000005}},{"attributes":{"ID":388420,"DIS_CODE":0,"TOWNNAME":"安平區","LI":"平通里","LIN":"28鄰","STREET":"育平七街","SECT":" ","MAREA":" ","LANE":"８０巷","ALLEY":" ","HOUSE_NO":"２３號三樓之９","E_COORD97":164379.32000000001,"N_COORD97":2543830.0600000001,"ADDRESS":"育平七街８０巷２３號三樓之９","OBJECTID":388396},"geometry":{"x":164379.32000000123,"y":2543830.0600000005}},{"attributes":{"ID":388421,"DIS_CODE":0,"TOWNNAME":"安平區","LI":"平通里","LIN":"28鄰","STREET":"育平七街","SECT":" ","MAREA":" ","LANE":"８０巷","ALLEY":" ","HOUSE_NO":"２３號五樓之１","E_COORD97":164379.32000000001,"N_COORD97":2543830.0600000001,"ADDRESS":"育平七街８０巷２３號五樓之１","OBJECTID":388397},"geometry":{"x":164379.32000000123,"y":2543830.0600000005}},{"attributes":{"ID":388422,"DIS_CODE":0,"TOWNNAME":"安平區","LI":"平通里","LIN":"28鄰","STREET":"育平七街","SECT":" ","MAREA":" ","LANE":"８０巷","ALLEY":" ","HOUSE_NO":"２３號五樓之１０","E_COORD97":164379.32000000001,"N_COORD97":2543830.0600000001,"ADDRESS":"育平七街８０巷２３號五樓之１０","OBJECTID":388398},"geometry":{"x":164379.32000000123,"y":2543830.0600000005}},{"attributes":{"ID":388423,"DIS_CODE":0,"TOWNNAME":"安平區","LI":"平通里","LIN":"28鄰","STREET":"育平七街","SECT":" ","MAREA":" ","LANE":"８０巷","ALLEY":" ","HOUSE_NO":"２３號五樓之１１","E_COORD97":164379.32000000001,"N_COORD97":2543830.0600000001,"ADDRESS":"育平七街８０巷２３號五樓之１１","OBJECTID":388399},"geometry":{"x":164379.32000000123,"y":2543830.0600000005}},{"attributes":{"ID":388424,"DIS_CODE":0,"TOWNNAME":"安平區","LI":"平通里","LIN":"28鄰","STREET":"育平七街","SECT":" ","MAREA":" ","LANE":"８０巷","ALLEY":" ","HOUSE_NO":"２３號五樓之２","E_COORD97":164379.32000000001,"N_COORD97":2543830.0600000001,"ADDRESS":"育平七街８０巷２３號五樓之２","OBJECTID":388400},"geometry":{"x":164379.32000000123,"y":2543830.0600000005}}]}