{"displayFieldName":"TOWNNAME","fieldAliases":{"ID":"ID","DIS_CODE":"DIS_CODE","TOWNNAME":"TOWNNAME","LI":"LI","LIN":"LIN","STREET":"STREET","SECT":"SECT","MAREA":"MAREA","LANE":"LANE","ALLEY":"ALLEY","HOUSE_NO":"HOUSE_NO","E_COORD97":"E_COORD97","N_COORD97":"N_COORD97","ADDRESS":"ADDRESS","OBJECTID":"OBJECTID"},"geometryType":"esriGeometryPoint","spatialReference":{"wkid":102443,"latestWkid":3826},"fields":[{"name":"ID","type":"esriFieldTypeDouble","alias":"ID"},{"name":"DIS_CODE","type":"esriFieldTypeInteger","alias":"DIS_CODE"},{"name":"TOWNNAME","type":"esriFieldTypeString","alias":"TOWNNAME","length":8},{"name":"LI","type":"esriFieldTypeString","alias":"LI","length":8},{"name":"LIN","type":"esriFieldTypeString","alias":"LIN","length":12},{"name":"STREET","type":"esriFieldTypeString","alias":"STREET","length":20},{"name":"SECT","type":"esriFieldTypeString","alias":"SECT","length":8},{"name":"MAREA","type":"esriFieldTypeString","alias":"MAREA","length":12},{"name":"LANE","type":"esriFieldTypeString","alias":"LANE","length":10},{"name":"ALLEY","type":"esriFieldTypeString","alias":"ALLEY","length":10},{"name":"HOUSE_NO","type":"esriFieldTypeString","alias":"HOUSE_NO","length":20},{"name":"E_COORD97","type":"esriFieldTypeDouble","alias":"E_COORD97"},{"name":"N_COORD97","type":"esriFieldTypeDouble","alias":"N_COORD97"},{"name":"ADDRESS","type":"esriFieldTypeString","alias":"ADDRESS","length":50},{"name":"OBJECTID","type":"esriFieldTypeOID","alias":"OBJECTID"}],"features":[{"attributes":{"ID":350610,"DIS_CODE":0,"TOWNNAME":"北區","LI":"賢北里","LIN":"6鄰","STREET":"中華北路","SECT":"一段","MAREA":" ","LANE":"１０５巷","ALLEY":" ","HOUSE_NO":"５０號五樓之５","E_COORD97":166395.47,"N_COORD97":2545527.0099999998,"ADDRESS":"中華北路一段１０５巷５０號五樓之５","OBJECTID":350601},"geometry":{"x":166395.46999999974,"y":2545527.0100000016}},{"attributes":{"ID":350611,"DIS_CODE":0,"TOWNNAME":"北區","LI":"賢北里","LIN":"6鄰","STREET":"中華北路","SECT":"一段","MAREA":" ","LANE":"１０５巷","ALLEY":" ","HOUSE_NO":"５０號五樓之６","E_COORD97":166395.47,"N_COORD97":2545527.0099999998,"ADDRESS":"中華北路一段１０５巷５０號五樓之６","OBJECTID":350602},"geometry":{"x":166395.46999999974,"y":2545527.0100000016}},{"attributes":{"ID":350612,"DIS_CODE":0,"TOWNNAME":"北區","LI":"賢北里","LIN":"6鄰","STREET":"中華北路","SECT":"一段","MAREA":" ","LANE":"１０５巷","ALLEY":" ","HOUSE_NO":"５０號五樓之７","E_COORD97":166395.47,"N_COORD97":2545527.0099999998,"ADDRESS":"中華北路一段１０５巷５０號五樓之７","OBJECTID":350603},"geometry":{"x":166395.46999999974,"y":2545527.0100000016}},{"attributes":{"ID":350613,"DIS_CODE":0,"TOWNNAME":"北區","LI":"賢北里","LIN":"6鄰","STREET":"中華北路","SECT":"一段","MAREA":" ","LANE":"１０５巷","ALLEY":" ","HOUSE_NO":"５０號五樓之８","E_COORD97":166395.47,"N_COORD97":2545527.0099999998,"ADDRESS":"中華北路一段１０５巷５０號五樓之８","OBJECTID":350604},"geometry":{"x":166395.46999999974,"y":2545527.0100000016}},{"attributes":{"ID":350614,"DIS_CODE":0,"TOWNNAME":"北區","LI":"賢北里","LIN":"6鄰","STREET":"中華北路","SECT":"一段","MAREA":" ","LANE":"１０５巷","ALLEY":" ","HOUSE_NO":"５０號六樓之１","E_COORD97":166395.47,"N_COORD97":2545527.0099999998,"ADDRESS":"中華北路一段１０５巷５０號六樓之１","OBJECTID":350605},"geometry":{"x":166395.46999999974,"y":2545527.0100000016}},{"attributes":{"ID":350615,"DIS_CODE":0,"TOWNNAME":"北區","LI":"賢北里","LIN":"6鄰","STREET":"中華北路","SECT":"一段","MAREA":" ","LANE":"１０５巷","ALLEY":" ","HOUSE_NO":"５０號六樓之２","E_COORD97":166395.47,"N_COORD97":2545527.0099999998,"ADDRESS":"中華北路一段１０５巷５０號六樓之２","OBJECTID":350606},"geometry":{"x":166395.46999999974,"y":2545527.0100000016}},{"attributes":{"ID":350616,"DIS_CODE":0,"TOWNNAME":"北區","LI":"賢北里","LIN":"6鄰","STREET":"中華北路","SECT":"一段","MAREA":" ","LANE":"１０５巷","ALLEY":" ","HOUSE_NO":"５０號六樓之３","E_COORD97":166395.47,"N_COORD97":2545527.0099999998,"ADDRESS":"中華北路一段１０５巷５０號六樓之３","OBJECTID":350607},"geometry":{"x":166395.46999999974,"y":2545527.0100000016}},{"attributes":{"ID":350617,"DIS_CODE":0,"TOWNNAME":"北區","LI":"賢北里","LIN":"6鄰","STREET":"中華北路","SECT":"一段","MAREA":" ","LANE":"１０５巷","ALLEY":" ","HOUSE_NO":"５０號六樓之４","E_COORD97":166395.47,"N_COORD97":2545527.0099999998,"ADDRESS":"中華北路一段１０５巷５０號六樓之４","OBJECTID":350608},"geometry":{"x":166395.46999999974,"y":2545527.0100000016}},{"attributes":{"ID":350618,"DIS_CODE":0,"TOWNNAME":"北區","LI":"賢北里","LIN":"6鄰","STREET":"中華北路","SECT":"一段","MAREA":" ","LANE":"１０５巷","ALLEY":" ","HOUSE_NO":"５０號六樓之５","E_COORD97":166395.47,"N_COORD97":2545527.0099999998,"ADDRESS":"中華北路一段１０５巷５０號六樓之５","OBJECTID":350609},"geometry":{"x":166395.46999999974,"y":2545527.0100000016}},{"attributes":{"ID":350619,"DIS_CODE":0,"TOWNNAME":"北區","LI":"賢北里","LIN":"6鄰","STREET":"中華北路","SECT":"一段","MAREA":" ","LANE":"１０５巷","ALLEY":" ","HOUSE_NO":"５０號六樓之７","E_COORD97":166395.47,"N_COORD97":2545527.0099999998,"ADDRESS":"中華北路一段１０５巷５０號六樓之７","OBJECTID":350610},"geometry":{"x":166395.46999999974,"y":2545527.0100000016}},{"attributes":{"ID":350620,"DIS_CODE":0,"TOWNNAME":"北區","LI":"賢北里","LIN":"6鄰","STREET":"中華北路","SECT":"一段","MAREA":" ","LANE":"１０５巷","ALLEY":" ","HOUSE_NO":"５０號六樓之８","E_COORD97":166395.47,"N_COORD97":2545527.0099999998,"ADDRESS":"中華北路一段１０５巷５０號六樓之８","OBJECTID":350611},"geometry":{"x":166395.46999999974,"y":2545527.0100000016}},{"attributes":{"ID":350621,"DIS_CODE":0,"TOWNNAME":"北區","LI":"賢北里","LIN":"6鄰","STREET":"中華北路","SECT":"一段","MAREA":" ","LANE":"１０５巷","ALLEY":" ","HOUSE_NO":"５０號四樓之１","E_COORD97":166395.47,"N_COORD97":2545527.0099999998,"ADDRESS":"中華北路一段１０５巷５０號四樓之１","OBJECTID":350612},"geometry":{"x":166395.46999999974,"y":2545527.0100000016}},{"attributes":{"ID":350622,"DIS_CODE":0,"TOWNNAME":"北區","LI":"賢北里","LIN":"6鄰","STREET":"中華北路","SECT":"一段","MAREA":" ","LANE":"１０５巷","ALLEY":" ","HOUSE_NO":"５０號四樓之２","E_COORD97":166395.47,"N_COORD97":2545527.0099999998,"ADDRESS":"中華北路一段１０５巷５０號四樓之２","OBJECTID":350613},"geometry":{"x":166395.46999999974,"y":2545527.0100000016}},{"attributes":{"ID":350623,"DIS_CODE":0,"TOWNNAME":"北區","LI":"賢北里","LIN":"6鄰","STREET":"中華北路","SECT":"一段","MAREA":" ","LANE":"１０５巷","ALLEY":" ","HOUSE_NO":"５０號四樓之３","E_COORD97":166395.47,"N_COORD97":2545527.0099999998,"ADDRESS":"中華北路一段１０５巷５０號四樓之３","OBJECTID":350614},"geometry":{"x":166395.46999999974,"y":2545527.0100000016}},{"attributes":{"ID":350624,"DIS_CODE":0,"TOWNNAME":"北區","LI":"賢北里","LIN":"6鄰","STREET":"中華北路","SECT":"一段","MAREA":" ","LANE":"１０５巷","ALLEY":" ","HOUSE_NO":"５０號四樓之５","E_COORD97":166395.47,"N_COORD97":2545527.0099999998,"ADDRESS":"中華北路一段１０５巷５０號四樓之５","OBJECTID":350615},"geometry":{"x":166395.46999999974,"y":2545527.0100000016}},{"attributes":{"ID":350625,"DIS_CODE":0,"TOWNNAME":"北區","LI":"賢北里","LIN":"6鄰","STREET":"中華北路","SECT":"一段","MAREA":" ","LANE":"１０５巷","ALLEY":" ","HOUSE_NO":"５０號四樓之６","E_COORD97":166395.47,"N_COORD97":2545527.0099999998,"ADDRESS":"中華北路一段１０５巷５０號四樓之６","OBJECTID":350616},"geometry":{"x":166395.46999999974,"y":2545527.0100000016}},{"attributes":{"ID":350626,"DIS_CODE":0,"TOWNNAME":"永康區","LI":"西勢里","LIN":"3鄰","STREET":"富強路","SECT":"一段","MAREA":" ","LANE":"３２１巷","ALLEY":" ","HOUSE_NO":"９６號","E_COORD97":175538.56,"N_COORD97":2546766.9900000002,"ADDRESS":"富強路一段３２１巷９６號","OBJECTID":350617},"geometry":{"x":175538.55999999959,"y":2546766.9900000002}},{"attributes":{"ID":350627,"DIS_CODE":0,"TOWNNAME":"南區","LI":"新興里","LIN":"8鄰","STREET":"健康路","SECT":"二段","MAREA":" ","LANE":" ","ALLEY":" ","HOUSE_NO":"６９號","E_COORD97":167540.34,"N_COORD97":2542440.54,"ADDRESS":"健康路二段６９號","OBJECTID":350618},"geometry":{"x":167540.34000000078,"y":2542440.540000001}},{"attributes":{"ID":350628,"DIS_CODE":0,"TOWNNAME":"安平區","LI":"國平里","LIN":"8鄰","STREET":"建平三街","SECT":" ","MAREA":" ","LANE":" ","ALLEY":" ","HOUSE_NO":"１８１號","E_COORD97":165496.04000000001,"N_COORD97":2542944.9700000002,"ADDRESS":"建平三街１８１號","OBJECTID":350619},"geometry":{"x":165496.04000000097,"y":2542944.9700000025}},{"attributes":{"ID":350629,"DIS_CODE":0,"TOWNNAME":"安平區","LI":"國平里","LIN":"8鄰","STREET":"建平三街","SECT":" ","MAREA":" ","LANE":" ","ALLEY":" ","HOUSE_NO":"１８３號","E_COORD97":165491.20000000001,"N_COORD97":2542945.25,"ADDRESS":"建平三街１８３號","OBJECTID":350620},"geometry":{"x":165491.20000000019,"y":2542945.2500000019}},{"attributes":{"ID":350630,"DIS_CODE":0,"TOWNNAME":"安平區","LI":"國平里","LIN":"8鄰","STREET":"建平三街","SECT":" ","MAREA":" ","LANE":" ","ALLEY":" ","HOUSE_NO":"１８５號","E_COORD97":165487.20999999999,"N_COORD97":2542946.1000000001,"ADDRESS":"建平三街１８５號","OBJECTID":350621},"geometry":{"x":165487.20999999996,"y":2542946.1000000015}},{"attributes":{"ID":350631,"DIS_CODE":0,"TOWNNAME":"安平區","LI":"國平里","LIN":"8鄰","STREET":"建平三街","SECT":" ","MAREA":" ","LANE":" ","ALLEY":" ","HOUSE_NO":"１８７號","E_COORD97":165481.79999999999,"N_COORD97":2542946.1000000001,"ADDRESS":"建平三街１８７號","OBJECTID":350622},"geometry":{"x":165481.80000000168,"y":2542946.1000000015}},{"attributes":{"ID":350632,"DIS_CODE":0,"TOWNNAME":"安平區","LI":"國平里","LIN":"8鄰","STREET":"建平三街","SECT":" ","MAREA":" ","LANE":" ","ALLEY":" ","HOUSE_NO":"１８９號","E_COORD97":165477.81,"N_COORD97":2542946.3900000001,"ADDRESS":"建平三街１８９號","OBJECTID":350623},"geometry":{"x":165477.80999999959,"y":2542946.3900000006}},{"attributes":{"ID":350633,"DIS_CODE":0,"TOWNNAME":"安南區","LI":"溪墘里","LIN":"18鄰","STREET":"海佃路","SECT":"一段","MAREA":" ","LANE":"３８８巷","ALLEY":" ","HOUSE_NO":"２號","E_COORD97":167104.59,"N_COORD97":2547625.5499999998,"ADDRESS":"海佃路一段３８８巷２號","OBJECTID":350624},"geometry":{"x":167104.59000000078,"y":2547625.5500000045}},{"attributes":{"ID":350634,"DIS_CODE":0,"TOWNNAME":"永康區","LI":"正強里","LIN":"38鄰","STREET":"正強街","SECT":" ","MAREA":" ","LANE":"３０７巷","ALLEY":" ","HOUSE_NO":"２７號","E_COORD97":173184.57999999999,"N_COORD97":2548097.3799999999,"ADDRESS":"正強街３０７巷２７號","OBJECTID":350625},"geometry":{"x":173184.58000000007,"y":2548097.3800000008}},{"attributes":{"ID":350635,"DIS_CODE":0,"TOWNNAME":"北區","LI":"賢北里","LIN":"6鄰","STREET":"中華北路","SECT":"一段","MAREA":" ","LANE":"１０５巷","ALLEY":" ","HOUSE_NO":"５０號四樓之７","E_COORD97":166395.47,"N_COORD97":2545527.0099999998,"ADDRESS":"中華北路一段１０５巷５０號四樓之７","OBJECTID":350626},"geometry":{"x":166395.46999999974,"y":2545527.0100000016}},{"attributes":{"ID":350636,"DIS_CODE":0,"TOWNNAME":"北區","LI":"賢北里","LIN":"6鄰","STREET":"中華北路","SECT":"一段","MAREA":" ","LANE":"１０５巷","ALLEY":" ","HOUSE_NO":"５０號四樓之８","E_COORD97":166395.47,"N_COORD97":2545527.0099999998,"ADDRESS":"中華北路一段１０５巷５０號四樓之８","OBJECTID":350627},"geometry":{"x":166395.46999999974,"y":2545527.0100000016}},{"attributes":{"ID":350637,"DIS_CODE":0,"TOWNNAME":"永康區","LI":"安康里","LIN":"19鄰","STREET":"中華西街","SECT":" ","MAREA":" ","LANE":"１０４巷","ALLEY":" ","HOUSE_NO":"７號","E_COORD97":170758.45000000001,"N_COORD97":2546127.25,"ADDRESS":"中華西街１０４巷７號","OBJECTID":350628},"geometry":{"x":170758.45000000205,"y":2546127.25}},{"attributes":{"ID":350638,"DIS_CODE":0,"TOWNNAME":"永康區","LI":"永康里","LIN":"24鄰","STREET":"中山南路","SECT":" ","MAREA":" ","LANE":"６２１巷","ALLEY":" ","HOUSE_NO":"２７號","E_COORD97":173543.92000000001,"N_COORD97":2547309.7400000002,"ADDRESS":"中山南路６２１巷２７號","OBJECTID":350629},"geometry":{"x":173543.92000000086,"y":2547309.7400000021}},{"attributes":{"ID":350639,"DIS_CODE":0,"TOWNNAME":"永康區","LI":"正強里","LIN":"17鄰","STREET":"自強路","SECT":" ","MAREA":" ","LANE":"１８８巷","ALLEY":" ","HOUSE_NO":"４８號","E_COORD97":173216.69,"N_COORD97":2547320.7400000002,"ADDRESS":"自強路１８８巷４８號","OBJECTID":350630},"geometry":{"x":173216.69000000227,"y":2547320.7400000002}},{"attributes":{"ID":350640,"DIS_CODE":0,"TOWNNAME":"永康區","LI":"永康里","LIN":"38鄰","STREET":"西勢路","SECT":" ","MAREA":" ","LANE":"６６９巷","ALLEY":" ","HOUSE_NO":"６號","E_COORD97":174553.70000000001,"N_COORD97":2546714.9199999999,"ADDRESS":"西勢路６６９巷６號","OBJECTID":350631},"geometry":{"x":174553.70000000019,"y":2546714.9200000018}},{"attributes":{"ID":350641,"DIS_CODE":0,"TOWNNAME":"永康區","LI":"永康里","LIN":"25鄰","STREET":"埔聖街","SECT":" ","MAREA":" ","LANE":"１６２巷","ALLEY":" ","HOUSE_NO":"１６號","E_COORD97":174124.53,"N_COORD97":2547595.2000000002,"ADDRESS":"埔聖街１６２巷１６號","OBJECTID":350632},"geometry":{"x":174124.53000000212,"y":2547595.1999999993}},{"attributes":{"ID":350642,"DIS_CODE":0,"TOWNNAME":"永康區","LI":"永康里","LIN":"13鄰","STREET":"永康街","SECT":" ","MAREA":" ","LANE":"１３６巷","ALLEY":" ","HOUSE_NO":"１１號","E_COORD97":173911.57000000001,"N_COORD97":2547044.79,"ADDRESS":"永康街１３６巷１１號","OBJECTID":350633},"geometry":{"x":173911.5700000003,"y":2547044.7899999991}},{"attributes":{"ID":350643,"DIS_CODE":0,"TOWNNAME":"永康區","LI":"永康里","LIN":"40鄰","STREET":"永福街","SECT":" ","MAREA":" ","LANE":"７１巷","ALLEY":" ","HOUSE_NO":"６號","E_COORD97":174291.07999999999,"N_COORD97":2546532.9100000001,"ADDRESS":"永福街７１巷６號","OBJECTID":350634},"geometry":{"x":174291.08000000007,"y":2546532.9100000001}},{"attributes":{"ID":350644,"DIS_CODE":0,"TOWNNAME":"永康區","LI":"永康里","LIN":"1鄰","STREET":"中山北路","SECT":" ","MAREA":" ","LANE":"７９巷","ALLEY":" ","HOUSE_NO":"１０號之３","E_COORD97":174011.39000000001,"N_COORD97":2547467.9500000002,"ADDRESS":"中山北路７９巷１０號之３","OBJECTID":350635},"geometry":{"x":174011.3900000006,"y":2547467.9499999993}},{"attributes":{"ID":350645,"DIS_CODE":0,"TOWNNAME":"永康區","LI":"永康里","LIN":"35鄰","STREET":"大同街","SECT":" ","MAREA":" ","LANE":"８０１巷","ALLEY":" ","HOUSE_NO":"１號","E_COORD97":174421.88,"N_COORD97":2546982.7400000002,"ADDRESS":"大同街８０１巷１號","OBJECTID":350636},"geometry":{"x":174421.88000000175,"y":2546982.7400000039}},{"attributes":{"ID":350646,"DIS_CODE":0,"TOWNNAME":"永康區","LI":"光復里","LIN":"16鄰","STREET":"復興路","SECT":" ","MAREA":" ","LANE":"１２８巷","ALLEY":" ","HOUSE_NO":"２４號","E_COORD97":172729.85000000001,"N_COORD97":2544394.77,"ADDRESS":"復興路１２８巷２４號","OBJECTID":350637},"geometry":{"x":172729.85000000149,"y":2544394.7700000033}},{"attributes":{"ID":350647,"DIS_CODE":0,"TOWNNAME":"永康區","LI":"永康里","LIN":"38鄰","STREET":"西勢路","SECT":" ","MAREA":" ","LANE":"７３３巷","ALLEY":" ","HOUSE_NO":"１６號","E_COORD97":174415.66,"N_COORD97":2546657.5800000001,"ADDRESS":"西勢路７３３巷１６號","OBJECTID":350638},"geometry":{"x":174415.66000000108,"y":2546657.5800000001}},{"attributes":{"ID":350648,"DIS_CODE":0,"TOWNNAME":"永康區","LI":"永康里","LIN":"24鄰","STREET":"中山南路","SECT":" ","MAREA":" ","LANE":"５９７巷","ALLEY":" ","HOUSE_NO":"１８號之１","E_COORD97":173539.39999999999,"N_COORD97":2547256.7999999998,"ADDRESS":"中山南路５９７巷１８號之１","OBJECTID":350639},"geometry":{"x":173539.4000000013,"y":2547256.8000000007}},{"attributes":{"ID":350649,"DIS_CODE":0,"TOWNNAME":"永康區","LI":"正強里","LIN":"7鄰","STREET":"自強路","SECT":" ","MAREA":" ","LANE":"３６８巷","ALLEY":" ","HOUSE_NO":"１６號","E_COORD97":173538.38,"N_COORD97":2547670.5299999998,"ADDRESS":"自強路３６８巷１６號","OBJECTID":350640},"geometry":{"x":173538.37999999989,"y":2547670.5299999993}},{"attributes":{"ID":350650,"DIS_CODE":0,"TOWNNAME":"永康區","LI":"永康里","LIN":"31鄰","STREET":"永大路","SECT":"三段","MAREA":" ","LANE":"７８巷","ALLEY":" ","HOUSE_NO":"２６號","E_COORD97":174287.23999999999,"N_COORD97":2547738.2000000002,"ADDRESS":"永大路三段７８巷２６號","OBJECTID":350641},"geometry":{"x":174287.24000000022,"y":2547738.200000003}},{"attributes":{"ID":350651,"DIS_CODE":0,"TOWNNAME":"永康區","LI":"安康里","LIN":"19鄰","STREET":"中華西街","SECT":" ","MAREA":" ","LANE":"１０４巷","ALLEY":" ","HOUSE_NO":"５號","E_COORD97":170754.98999999999,"N_COORD97":2546125,"ADDRESS":"中華西街１０４巷５號","OBJECTID":350642},"geometry":{"x":170754.99000000115,"y":2546125}},{"attributes":{"ID":350652,"DIS_CODE":0,"TOWNNAME":"永康區","LI":"永康里","LIN":"12鄰","STREET":"永康街","SECT":" ","MAREA":" ","LANE":"１０６巷","ALLEY":" ","HOUSE_NO":"２號","E_COORD97":173848.28,"N_COORD97":2547110.6099999999,"ADDRESS":"永康街１０６巷２號","OBJECTID":350643},"geometry":{"x":173848.28000000212,"y":2547110.6099999994}},{"attributes":{"ID":350653,"DIS_CODE":0,"TOWNNAME":"永康區","LI":"安康里","LIN":"25鄰","STREET":"中華路","SECT":" ","MAREA":" ","LANE":"７０３巷","ALLEY":" ","HOUSE_NO":"２６號","E_COORD97":170834.26000000001,"N_COORD97":2546297.2400000002,"ADDRESS":"中華路７０３巷２６號","OBJECTID":350644},"geometry":{"x":170834.26000000071,"y":2546297.2400000002}},{"attributes":{"ID":350654,"DIS_CODE":0,"TOWNNAME":"永康區","LI":"安康里","LIN":"18鄰","STREET":"中華路","SECT":" ","MAREA":" ","LANE":"６６１巷","ALLEY":" ","HOUSE_NO":"１１２號","E_COORD97":170789,"N_COORD97":2546111.25,"ADDRESS":"中華路６６１巷１１２號","OBJECTID":350645},"geometry":{"x":170789.00000000093,"y":2546111.2500000037}},{"attributes":{"ID":350655,"DIS_CODE":0,"TOWNNAME":"永康區","LI":"光復里","LIN":"16鄰","STREET":"復興路","SECT":" ","MAREA":" ","LANE":"１２８巷","ALLEY":" ","HOUSE_NO":"２２號","E_COORD97":172732.82000000001,"N_COORD97":2544392.77,"ADDRESS":"復興路１２８巷２２號","OBJECTID":350646},"geometry":{"x":172732.82000000123,"y":2544392.7700000014}},{"attributes":{"ID":350656,"DIS_CODE":0,"TOWNNAME":"永康區","LI":"安康里","LIN":"20鄰","STREET":"中華路","SECT":" ","MAREA":" ","LANE":"６６１巷","ALLEY":" ","HOUSE_NO":"１８號之１３","E_COORD97":170906.23000000001,"N_COORD97":2546179.54,"ADDRESS":"中華路６６１巷１８號之１３","OBJECTID":350647},"geometry":{"x":170906.23000000138,"y":2546179.5400000028}},{"attributes":{"ID":350657,"DIS_CODE":0,"TOWNNAME":"永康區","LI":"安康里","LIN":"6鄰","STREET":"中華路","SECT":" ","MAREA":" ","LANE":"７２７巷","ALLEY":" ","HOUSE_NO":"４３號","E_COORD97":170726.54000000001,"N_COORD97":2546348.5,"ADDRESS":"中華路７２７巷４３號","OBJECTID":350648},"geometry":{"x":170726.54000000004,"y":2546348.5}},{"attributes":{"ID":350658,"DIS_CODE":0,"TOWNNAME":"永康區","LI":"正強里","LIN":"13鄰","STREET":"自強路","SECT":" ","MAREA":" ","LANE":"１８８巷","ALLEY":" ","HOUSE_NO":"１５之１號","E_COORD97":173216.57999999999,"N_COORD97":2547466.2999999998,"ADDRESS":"自強路１８８巷１５之１號","OBJECTID":350649},"geometry":{"x":173216.58000000007,"y":2547466.3000000007}},{"attributes":{"ID":350659,"DIS_CODE":0,"TOWNNAME":"永康區","LI":"永康里","LIN":"17鄰","STREET":"永中街","SECT":" ","MAREA":" ","LANE":"１１８巷","ALLEY":" ","HOUSE_NO":"７號","E_COORD97":173993.82000000001,"N_COORD97":2547245.2599999998,"ADDRESS":"永中街１１８巷７號","OBJECTID":350650},"geometry":{"x":173993.82000000216,"y":2547245.2599999998}},{"attributes":{"ID":350660,"DIS_CODE":0,"TOWNNAME":"永康區","LI":"安康里","LIN":"15鄰","STREET":"中華路","SECT":" ","MAREA":" ","LANE":"６１９巷","ALLEY":" ","HOUSE_NO":"６６號","E_COORD97":170913.32000000001,"N_COORD97":2546032.25,"ADDRESS":"中華路６１９巷６６號","OBJECTID":350651},"geometry":{"x":170913.3200000003,"y":2546032.25}},{"attributes":{"ID":350661,"DIS_CODE":0,"TOWNNAME":"歸仁區","LI":"南保里","LIN":"6鄰","STREET":"文化街","SECT":"三段","MAREA":" ","LANE":"１８巷","ALLEY":" ","HOUSE_NO":"２號七樓之１","E_COORD97":176974.82999999999,"N_COORD97":2541278.3300000001,"ADDRESS":"文化街三段１８巷２號七樓之１","OBJECTID":350652},"geometry":{"x":176974.83000000007,"y":2541278.3300000001}},{"attributes":{"ID":350662,"DIS_CODE":0,"TOWNNAME":"安平區","LI":"國平里","LIN":"8鄰","STREET":"建平三街","SECT":" ","MAREA":" ","LANE":" ","ALLEY":" ","HOUSE_NO":"１９１號","E_COORD97":165472.39999999999,"N_COORD97":2542947.5299999998,"ADDRESS":"建平三街１９１號","OBJECTID":350653},"geometry":{"x":165472.4000000013,"y":2542947.5299999993}},{"attributes":{"ID":350663,"DIS_CODE":0,"TOWNNAME":"歸仁區","LI":"南保里","LIN":"6鄰","STREET":"文化街","SECT":"三段","MAREA":" ","LANE":"１８巷","ALLEY":" ","HOUSE_NO":"２號六樓之５","E_COORD97":176974.98000000001,"N_COORD97":2541278.3300000001,"ADDRESS":"文化街三段１８巷２號六樓之５","OBJECTID":350654},"geometry":{"x":176974.98000000138,"y":2541278.3300000001}},{"attributes":{"ID":350664,"DIS_CODE":0,"TOWNNAME":"歸仁區","LI":"南保里","LIN":"6鄰","STREET":"文化街","SECT":"三段","MAREA":" ","LANE":"１８巷","ALLEY":" ","HOUSE_NO":"２號六樓之７","E_COORD97":176974.89999999999,"N_COORD97":2541278.3300000001,"ADDRESS":"文化街三段１８巷２號六樓之７","OBJECTID":350655},"geometry":{"x":176974.90000000037,"y":2541278.3300000001}},{"attributes":{"ID":350665,"DIS_CODE":0,"TOWNNAME":"歸仁區","LI":"南保里","LIN":"6鄰","STREET":"文化街","SECT":"三段","MAREA":" ","LANE":"１８巷","ALLEY":" ","HOUSE_NO":"２號八樓之６","E_COORD97":176974.92999999999,"N_COORD97":2541278.3300000001,"ADDRESS":"文化街三段１８巷２號八樓之６","OBJECTID":350656},"geometry":{"x":176974.93000000063,"y":2541278.3300000001}},{"attributes":{"ID":350666,"DIS_CODE":0,"TOWNNAME":"歸仁區","LI":"南保里","LIN":"6鄰","STREET":"文化街","SECT":"三段","MAREA":" ","LANE":"１８巷","ALLEY":" ","HOUSE_NO":"２號六樓之６","E_COORD97":176974.92999999999,"N_COORD97":2541278.3300000001,"ADDRESS":"文化街三段１８巷２號六樓之６","OBJECTID":350657},"geometry":{"x":176974.93000000063,"y":2541278.3300000001}},{"attributes":{"ID":350667,"DIS_CODE":0,"TOWNNAME":"歸仁區","LI":"南保里","LIN":"6鄰","STREET":"文化街","SECT":"三段","MAREA":" ","LANE":"１８巷","ALLEY":" ","HOUSE_NO":"２號五樓之５","E_COORD97":176974.98000000001,"N_COORD97":2541278.3300000001,"ADDRESS":"文化街三段１８巷２號五樓之５","OBJECTID":350658},"geometry":{"x":176974.98000000138,"y":2541278.3300000001}},{"attributes":{"ID":350668,"DIS_CODE":0,"TOWNNAME":"永康區","LI":"永康里","LIN":"19鄰","STREET":"永中街","SECT":" ","MAREA":" ","LANE":"１６６巷","ALLEY":" ","HOUSE_NO":"３０號","E_COORD97":174080.20000000001,"N_COORD97":2547259.1099999999,"ADDRESS":"永中街１６６巷３０號","OBJECTID":350659},"geometry":{"x":174080.20000000019,"y":2547259.1099999994}},{"attributes":{"ID":350669,"DIS_CODE":0,"TOWNNAME":"歸仁區","LI":"南保里","LIN":"6鄰","STREET":"文化街","SECT":"三段","MAREA":" ","LANE":"１８巷","ALLEY":" ","HOUSE_NO":"２號七樓之５","E_COORD97":176974.98000000001,"N_COORD97":2541278.3300000001,"ADDRESS":"文化街三段１８巷２號七樓之５","OBJECTID":350660},"geometry":{"x":176974.98000000138,"y":2541278.3300000001}},{"attributes":{"ID":350670,"DIS_CODE":0,"TOWNNAME":"歸仁區","LI":"南保里","LIN":"6鄰","STREET":"文化街","SECT":"三段","MAREA":" ","LANE":"１８巷","ALLEY":" ","HOUSE_NO":"２號四樓之１","E_COORD97":176974.82999999999,"N_COORD97":2541278.3300000001,"ADDRESS":"文化街三段１８巷２號四樓之１","OBJECTID":350661},"geometry":{"x":176974.83000000007,"y":2541278.3300000001}},{"attributes":{"ID":350671,"DIS_CODE":0,"TOWNNAME":"南區","LI":"大成里","LIN":"6鄰","STREET":"健康路","SECT":"一段","MAREA":" ","LANE":"３９１巷","ALLEY":" ","HOUSE_NO":"１３號二樓","E_COORD97":167952.51999999999,"N_COORD97":2542400.4399999999,"ADDRESS":"健康路一段３９１巷１３號二樓","OBJECTID":350662},"geometry":{"x":167952.51999999955,"y":2542400.4400000013}},{"attributes":{"ID":350672,"DIS_CODE":0,"TOWNNAME":"南區","LI":"大成里","LIN":"6鄰","STREET":"健康路","SECT":"一段","MAREA":" ","LANE":"３９１巷","ALLEY":" ","HOUSE_NO":"１３號三樓","E_COORD97":167952.51999999999,"N_COORD97":2542400.4399999999,"ADDRESS":"健康路一段３９１巷１３號三樓","OBJECTID":350663},"geometry":{"x":167952.51999999955,"y":2542400.4400000013}},{"attributes":{"ID":350673,"DIS_CODE":0,"TOWNNAME":"南區","LI":"大成里","LIN":"6鄰","STREET":"健康路","SECT":"一段","MAREA":" ","LANE":"３９１巷","ALLEY":" ","HOUSE_NO":"１３號五樓","E_COORD97":167952.51999999999,"N_COORD97":2542400.4399999999,"ADDRESS":"健康路一段３９１巷１３號五樓","OBJECTID":350664},"geometry":{"x":167952.51999999955,"y":2542400.4400000013}},{"attributes":{"ID":350674,"DIS_CODE":0,"TOWNNAME":"南區","LI":"大成里","LIN":"6鄰","STREET":"健康路","SECT":"一段","MAREA":" ","LANE":"３９１巷","ALLEY":" ","HOUSE_NO":"１３號四樓","E_COORD97":167952.51999999999,"N_COORD97":2542400.4399999999,"ADDRESS":"健康路一段３９１巷１３號四樓","OBJECTID":350665},"geometry":{"x":167952.51999999955,"y":2542400.4400000013}},{"attributes":{"ID":350675,"DIS_CODE":0,"TOWNNAME":"南區","LI":"大成里","LIN":"6鄰","STREET":"健康路","SECT":"一段","MAREA":" ","LANE":"３９１巷","ALLEY":" ","HOUSE_NO":"１７號二樓","E_COORD97":167963.85999999999,"N_COORD97":2542393.0499999998,"ADDRESS":"健康路一段３９１巷１７號二樓","OBJECTID":350666},"geometry":{"x":167963.86000000127,"y":2542393.0500000007}},{"attributes":{"ID":350676,"DIS_CODE":0,"TOWNNAME":"南區","LI":"大成里","LIN":"6鄰","STREET":"健康路","SECT":"一段","MAREA":" ","LANE":"３９１巷","ALLEY":" ","HOUSE_NO":"１７號三樓","E_COORD97":167963.85999999999,"N_COORD97":2542393.0499999998,"ADDRESS":"健康路一段３９１巷１７號三樓","OBJECTID":350667},"geometry":{"x":167963.86000000127,"y":2542393.0500000007}},{"attributes":{"ID":350677,"DIS_CODE":0,"TOWNNAME":"南區","LI":"大成里","LIN":"6鄰","STREET":"健康路","SECT":"一段","MAREA":" ","LANE":"３９１巷","ALLEY":" ","HOUSE_NO":"１７號五樓","E_COORD97":167963.85999999999,"N_COORD97":2542393.0499999998,"ADDRESS":"健康路一段３９１巷１７號五樓","OBJECTID":350668},"geometry":{"x":167963.86000000127,"y":2542393.0500000007}},{"attributes":{"ID":350678,"DIS_CODE":0,"TOWNNAME":"永康區","LI":"甲頂里","LIN":"28鄰","STREET":"中央路","SECT":" ","MAREA":" ","LANE":"２３巷","ALLEY":" ","HOUSE_NO":"３４號","E_COORD97":169492.01000000001,"N_COORD97":2546965.2400000002,"ADDRESS":"中央路２３巷３４號","OBJECTID":350669},"geometry":{"x":169492.01000000071,"y":2546965.2400000002}},{"attributes":{"ID":350679,"DIS_CODE":0,"TOWNNAME":"永康區","LI":"安康里","LIN":"19鄰","STREET":"中華西街","SECT":" ","MAREA":" ","LANE":"１２２巷","ALLEY":" ","HOUSE_NO":"２２號","E_COORD97":170771.64999999999,"N_COORD97":2546163.7400000002,"ADDRESS":"中華西街１２２巷２２號","OBJECTID":350670},"geometry":{"x":170771.65000000037,"y":2546163.7400000021}},{"attributes":{"ID":350680,"DIS_CODE":0,"TOWNNAME":"永康區","LI":"安康里","LIN":"18鄰","STREET":"中華路","SECT":" ","MAREA":" ","LANE":"６６１巷","ALLEY":" ","HOUSE_NO":"１２０號","E_COORD97":170774.45000000001,"N_COORD97":2546103,"ADDRESS":"中華路６６１巷１２０號","OBJECTID":350671},"geometry":{"x":170774.45000000019,"y":2546103.0000000019}},{"attributes":{"ID":350681,"DIS_CODE":0,"TOWNNAME":"永康區","LI":"永康里","LIN":"39鄰","STREET":"永福街","SECT":" ","MAREA":" ","LANE":"１１巷","ALLEY":" ","HOUSE_NO":"１６號","E_COORD97":174303.34,"N_COORD97":2546410.4199999999,"ADDRESS":"永福街１１巷１６號","OBJECTID":350672},"geometry":{"x":174303.34000000171,"y":2546410.4199999999}},{"attributes":{"ID":350682,"DIS_CODE":0,"TOWNNAME":"永康區","LI":"正強里","LIN":"35鄰","STREET":"正強街","SECT":" ","MAREA":" ","LANE":"３１３巷","ALLEY":" ","HOUSE_NO":"１９號","E_COORD97":173198.45999999999,"N_COORD97":2548241.8999999999,"ADDRESS":"正強街３１３巷１９號","OBJECTID":350673},"geometry":{"x":173198.45999999996,"y":2548241.9000000004}},{"attributes":{"ID":350683,"DIS_CODE":0,"TOWNNAME":"南區","LI":"大成里","LIN":"6鄰","STREET":"健康路","SECT":"一段","MAREA":" ","LANE":"３９１巷","ALLEY":" ","HOUSE_NO":"１７號四樓","E_COORD97":167963.85999999999,"N_COORD97":2542393.0499999998,"ADDRESS":"健康路一段３９１巷１７號四樓","OBJECTID":350674},"geometry":{"x":167963.86000000127,"y":2542393.0500000007}},{"attributes":{"ID":350684,"DIS_CODE":0,"TOWNNAME":"南區","LI":"大成里","LIN":"6鄰","STREET":"健康路","SECT":"一段","MAREA":" ","LANE":"３９１巷","ALLEY":" ","HOUSE_NO":"１９號二樓","E_COORD97":167973.01999999999,"N_COORD97":2542383.48,"ADDRESS":"健康路一段３９１巷１９號二樓","OBJECTID":350675},"geometry":{"x":167973.01999999955,"y":2542383.4800000004}},{"attributes":{"ID":350685,"DIS_CODE":0,"TOWNNAME":"南區","LI":"大成里","LIN":"6鄰","STREET":"健康路","SECT":"一段","MAREA":" ","LANE":"３９１巷","ALLEY":" ","HOUSE_NO":"１９號三樓","E_COORD97":167973.01999999999,"N_COORD97":2542383.48,"ADDRESS":"健康路一段３９１巷１９號三樓","OBJECTID":350676},"geometry":{"x":167973.01999999955,"y":2542383.4800000004}},{"attributes":{"ID":350686,"DIS_CODE":0,"TOWNNAME":"永康區","LI":"安康里","LIN":"6鄰","STREET":"中華路","SECT":" ","MAREA":" ","LANE":"７２７巷","ALLEY":" ","HOUSE_NO":"３３號","E_COORD97":170747.98999999999,"N_COORD97":2546360.7400000002,"ADDRESS":"中華路７２７巷３３號","OBJECTID":350677},"geometry":{"x":170747.99000000209,"y":2546360.7400000002}},{"attributes":{"ID":350687,"DIS_CODE":0,"TOWNNAME":"永康區","LI":"永康里","LIN":"38鄰","STREET":"大同街","SECT":" ","MAREA":" ","LANE":"７１５巷","ALLEY":" ","HOUSE_NO":"１５號","E_COORD97":174464.69,"N_COORD97":2546666.1400000001,"ADDRESS":"大同街７１５巷１５號","OBJECTID":350678},"geometry":{"x":174464.69000000134,"y":2546666.1400000025}},{"attributes":{"ID":350688,"DIS_CODE":0,"TOWNNAME":"永康區","LI":"正強里","LIN":"17鄰","STREET":"自強路","SECT":" ","MAREA":" ","LANE":"１８８巷","ALLEY":" ","HOUSE_NO":"４２之１號","E_COORD97":173214.70999999999,"N_COORD97":2547337.2999999998,"ADDRESS":"自強路１８８巷４２之１號","OBJECTID":350679},"geometry":{"x":173214.71000000089,"y":2547337.3000000007}},{"attributes":{"ID":350689,"DIS_CODE":0,"TOWNNAME":"永康區","LI":"永康里","LIN":"8鄰","STREET":"永中街","SECT":" ","MAREA":" ","LANE":"５３巷","ALLEY":" ","HOUSE_NO":"１２號","E_COORD97":173875.89000000001,"N_COORD97":2547251.75,"ADDRESS":"永中街５３巷１２號","OBJECTID":350680},"geometry":{"x":173875.8900000006,"y":2547251.7500000019}},{"attributes":{"ID":350690,"DIS_CODE":0,"TOWNNAME":"永康區","LI":"正強里","LIN":"36鄰","STREET":"正強街","SECT":" ","MAREA":" ","LANE":"３１１巷","ALLEY":" ","HOUSE_NO":"１１號","E_COORD97":173210.53,"N_COORD97":2548196.6000000001,"ADDRESS":"正強街３１１巷１１號","OBJECTID":350681},"geometry":{"x":173210.53000000026,"y":2548196.6000000034}},{"attributes":{"ID":350691,"DIS_CODE":0,"TOWNNAME":"永康區","LI":"成功里","LIN":"11鄰","STREET":"忠孝路","SECT":" ","MAREA":" ","LANE":"１９９巷","ALLEY":" ","HOUSE_NO":"３７號","E_COORD97":172006.29000000001,"N_COORD97":2544849.2400000002,"ADDRESS":"忠孝路１９９巷３７號","OBJECTID":350682},"geometry":{"x":172006.29000000004,"y":2544849.2400000002}},{"attributes":{"ID":350692,"DIS_CODE":0,"TOWNNAME":"永康區","LI":"正強里","LIN":"38鄰","STREET":"正強街","SECT":" ","MAREA":" ","LANE":"３０７巷","ALLEY":" ","HOUSE_NO":"２３號","E_COORD97":173193.57999999999,"N_COORD97":2548099.1299999999,"ADDRESS":"正強街３０７巷２３號","OBJECTID":350683},"geometry":{"x":173193.58000000101,"y":2548099.1300000008}},{"attributes":{"ID":350693,"DIS_CODE":0,"TOWNNAME":"南區","LI":"新生里","LIN":"6鄰","STREET":"大同路","SECT":"二段","MAREA":" ","LANE":"１６４巷","ALLEY":" ","HOUSE_NO":"３號七樓之１","E_COORD97":169303.67999999999,"N_COORD97":2542018.0600000001,"ADDRESS":"大同路二段１６４巷３號七樓之１","OBJECTID":350684},"geometry":{"x":169303.68000000063,"y":2542018.0600000024}},{"attributes":{"ID":350694,"DIS_CODE":0,"TOWNNAME":"南區","LI":"新生里","LIN":"6鄰","STREET":"大同路","SECT":"二段","MAREA":" ","LANE":"１６４巷","ALLEY":" ","HOUSE_NO":"３號七樓之２","E_COORD97":169303.67999999999,"N_COORD97":2542018.0600000001,"ADDRESS":"大同路二段１６４巷３號七樓之２","OBJECTID":350685},"geometry":{"x":169303.68000000063,"y":2542018.0600000024}},{"attributes":{"ID":350695,"DIS_CODE":0,"TOWNNAME":"南區","LI":"新生里","LIN":"6鄰","STREET":"大同路","SECT":"二段","MAREA":" ","LANE":"１６４巷","ALLEY":" ","HOUSE_NO":"３號七樓之３","E_COORD97":169303.67999999999,"N_COORD97":2542018.0600000001,"ADDRESS":"大同路二段１６４巷３號七樓之３","OBJECTID":350686},"geometry":{"x":169303.68000000063,"y":2542018.0600000024}},{"attributes":{"ID":350696,"DIS_CODE":0,"TOWNNAME":"南區","LI":"新生里","LIN":"6鄰","STREET":"大同路","SECT":"二段","MAREA":" ","LANE":"１６４巷","ALLEY":" ","HOUSE_NO":"３號七樓之５","E_COORD97":169303.67999999999,"N_COORD97":2542018.0600000001,"ADDRESS":"大同路二段１６４巷３號七樓之５","OBJECTID":350687},"geometry":{"x":169303.68000000063,"y":2542018.0600000024}},{"attributes":{"ID":350697,"DIS_CODE":0,"TOWNNAME":"南區","LI":"新生里","LIN":"6鄰","STREET":"大同路","SECT":"二段","MAREA":" ","LANE":"１６４巷","ALLEY":" ","HOUSE_NO":"３號八樓之１","E_COORD97":169303.67999999999,"N_COORD97":2542018.0600000001,"ADDRESS":"大同路二段１６４巷３號八樓之１","OBJECTID":350688},"geometry":{"x":169303.68000000063,"y":2542018.0600000024}},{"attributes":{"ID":350698,"DIS_CODE":0,"TOWNNAME":"南區","LI":"新生里","LIN":"6鄰","STREET":"大同路","SECT":"二段","MAREA":" ","LANE":"１６４巷","ALLEY":" ","HOUSE_NO":"３號八樓之２","E_COORD97":169303.67999999999,"N_COORD97":2542018.0600000001,"ADDRESS":"大同路二段１６４巷３號八樓之２","OBJECTID":350689},"geometry":{"x":169303.68000000063,"y":2542018.0600000024}},{"attributes":{"ID":350699,"DIS_CODE":0,"TOWNNAME":"南區","LI":"新生里","LIN":"6鄰","STREET":"大同路","SECT":"二段","MAREA":" ","LANE":"１６４巷","ALLEY":" ","HOUSE_NO":"３號八樓之３","E_COORD97":169303.67999999999,"N_COORD97":2542018.0600000001,"ADDRESS":"大同路二段１６４巷３號八樓之３","OBJECTID":350690},"geometry":{"x":169303.68000000063,"y":2542018.0600000024}},{"attributes":{"ID":350700,"DIS_CODE":0,"TOWNNAME":"南區","LI":"新生里","LIN":"6鄰","STREET":"大同路","SECT":"二段","MAREA":" ","LANE":"１６４巷","ALLEY":" ","HOUSE_NO":"３號八樓之５","E_COORD97":169303.67999999999,"N_COORD97":2542018.0600000001,"ADDRESS":"大同路二段１６４巷３號八樓之５","OBJECTID":350691},"geometry":{"x":169303.68000000063,"y":2542018.0600000024}},{"attributes":{"ID":350701,"DIS_CODE":0,"TOWNNAME":"南區","LI":"新生里","LIN":"6鄰","STREET":"大同路","SECT":"二段","MAREA":" ","LANE":"１６４巷","ALLEY":" ","HOUSE_NO":"３號九樓之１","E_COORD97":169303.67999999999,"N_COORD97":2542018.0600000001,"ADDRESS":"大同路二段１６４巷３號九樓之１","OBJECTID":350692},"geometry":{"x":169303.68000000063,"y":2542018.0600000024}},{"attributes":{"ID":350702,"DIS_CODE":0,"TOWNNAME":"南區","LI":"新生里","LIN":"6鄰","STREET":"大同路","SECT":"二段","MAREA":" ","LANE":"１６４巷","ALLEY":" ","HOUSE_NO":"３號九樓之２","E_COORD97":169303.67999999999,"N_COORD97":2542018.0600000001,"ADDRESS":"大同路二段１６４巷３號九樓之２","OBJECTID":350693},"geometry":{"x":169303.68000000063,"y":2542018.0600000024}},{"attributes":{"ID":350703,"DIS_CODE":0,"TOWNNAME":"南區","LI":"新生里","LIN":"6鄰","STREET":"大同路","SECT":"二段","MAREA":" ","LANE":"１６４巷","ALLEY":" ","HOUSE_NO":"３號九樓之３","E_COORD97":169303.67999999999,"N_COORD97":2542018.0600000001,"ADDRESS":"大同路二段１６４巷３號九樓之３","OBJECTID":350694},"geometry":{"x":169303.68000000063,"y":2542018.0600000024}},{"attributes":{"ID":350704,"DIS_CODE":0,"TOWNNAME":"中西區","LI":"元安里","LIN":"6鄰","STREET":"建安街","SECT":" ","MAREA":" ","LANE":"６１巷","ALLEY":" ","HOUSE_NO":"３號","E_COORD97":167497.29999999999,"N_COORD97":2543224.2599999998,"ADDRESS":"建安街６１巷３號","OBJECTID":350695},"geometry":{"x":167497.29999999888,"y":2543224.2599999998}},{"attributes":{"ID":350705,"DIS_CODE":0,"TOWNNAME":"南區","LI":"新生里","LIN":"6鄰","STREET":"大同路","SECT":"二段","MAREA":" ","LANE":"１６４巷","ALLEY":" ","HOUSE_NO":"３號九樓之５","E_COORD97":169303.67999999999,"N_COORD97":2542018.0600000001,"ADDRESS":"大同路二段１６４巷３號九樓之５","OBJECTID":350696},"geometry":{"x":169303.68000000063,"y":2542018.0600000024}},{"attributes":{"ID":350706,"DIS_CODE":0,"TOWNNAME":"南區","LI":"新生里","LIN":"6鄰","STREET":"大同路","SECT":"二段","MAREA":" ","LANE":"１６４巷","ALLEY":" ","HOUSE_NO":"３號十樓之１","E_COORD97":169303.67999999999,"N_COORD97":2542018.0600000001,"ADDRESS":"大同路二段１６４巷３號十樓之１","OBJECTID":350697},"geometry":{"x":169303.68000000063,"y":2542018.0600000024}},{"attributes":{"ID":350707,"DIS_CODE":0,"TOWNNAME":"南區","LI":"新生里","LIN":"6鄰","STREET":"大同路","SECT":"二段","MAREA":" ","LANE":"１６４巷","ALLEY":" ","HOUSE_NO":"３號二樓之２","E_COORD97":169303.67999999999,"N_COORD97":2542018.0600000001,"ADDRESS":"大同路二段１６４巷３號二樓之２","OBJECTID":350698},"geometry":{"x":169303.68000000063,"y":2542018.0600000024}},{"attributes":{"ID":350708,"DIS_CODE":0,"TOWNNAME":"南區","LI":"新生里","LIN":"6鄰","STREET":"大同路","SECT":"二段","MAREA":" ","LANE":"１６４巷","ALLEY":" ","HOUSE_NO":"３號三樓之１","E_COORD97":169303.67999999999,"N_COORD97":2542018.0600000001,"ADDRESS":"大同路二段１６４巷３號三樓之１","OBJECTID":350699},"geometry":{"x":169303.68000000063,"y":2542018.0600000024}},{"attributes":{"ID":350709,"DIS_CODE":0,"TOWNNAME":"南區","LI":"新生里","LIN":"6鄰","STREET":"大同路","SECT":"二段","MAREA":" ","LANE":"１６４巷","ALLEY":" ","HOUSE_NO":"３號三樓之２","E_COORD97":169303.67999999999,"N_COORD97":2542018.0600000001,"ADDRESS":"大同路二段１６４巷３號三樓之２","OBJECTID":350700},"geometry":{"x":169303.68000000063,"y":2542018.0600000024}},{"attributes":{"ID":350710,"DIS_CODE":0,"TOWNNAME":"南區","LI":"新生里","LIN":"6鄰","STREET":"大同路","SECT":"二段","MAREA":" ","LANE":"１６４巷","ALLEY":" ","HOUSE_NO":"３號三樓之３","E_COORD97":169303.67999999999,"N_COORD97":2542018.0600000001,"ADDRESS":"大同路二段１６４巷３號三樓之３","OBJECTID":350701},"geometry":{"x":169303.68000000063,"y":2542018.0600000024}},{"attributes":{"ID":350711,"DIS_CODE":0,"TOWNNAME":"南區","LI":"新生里","LIN":"6鄰","STREET":"大同路","SECT":"二段","MAREA":" ","LANE":"１６４巷","ALLEY":" ","HOUSE_NO":"３號三樓之５","E_COORD97":169303.67999999999,"N_COORD97":2542018.0600000001,"ADDRESS":"大同路二段１６４巷３號三樓之５","OBJECTID":350702},"geometry":{"x":169303.68000000063,"y":2542018.0600000024}},{"attributes":{"ID":350712,"DIS_CODE":0,"TOWNNAME":"南區","LI":"新生里","LIN":"6鄰","STREET":"大同路","SECT":"二段","MAREA":" ","LANE":"１６４巷","ALLEY":" ","HOUSE_NO":"３號四樓之１","E_COORD97":169303.67999999999,"N_COORD97":2542018.0600000001,"ADDRESS":"大同路二段１６４巷３號四樓之１","OBJECTID":350703},"geometry":{"x":169303.68000000063,"y":2542018.0600000024}},{"attributes":{"ID":350713,"DIS_CODE":0,"TOWNNAME":"南區","LI":"新生里","LIN":"6鄰","STREET":"大同路","SECT":"二段","MAREA":" ","LANE":"１６４巷","ALLEY":" ","HOUSE_NO":"３號四樓之２","E_COORD97":169303.67999999999,"N_COORD97":2542018.0600000001,"ADDRESS":"大同路二段１６４巷３號四樓之２","OBJECTID":350704},"geometry":{"x":169303.68000000063,"y":2542018.0600000024}},{"attributes":{"ID":350714,"DIS_CODE":0,"TOWNNAME":"南區","LI":"新生里","LIN":"6鄰","STREET":"大同路","SECT":"二段","MAREA":" ","LANE":"１６４巷","ALLEY":" ","HOUSE_NO":"３號四樓之３","E_COORD97":169303.67999999999,"N_COORD97":2542018.0600000001,"ADDRESS":"大同路二段１６４巷３號四樓之３","OBJECTID":350705},"geometry":{"x":169303.68000000063,"y":2542018.0600000024}},{"attributes":{"ID":350715,"DIS_CODE":0,"TOWNNAME":"南區","LI":"新生里","LIN":"6鄰","STREET":"大同路","SECT":"二段","MAREA":" ","LANE":"１６４巷","ALLEY":" ","HOUSE_NO":"３號四樓之５","E_COORD97":169303.67999999999,"N_COORD97":2542018.0600000001,"ADDRESS":"大同路二段１６４巷３號四樓之５","OBJECTID":350706},"geometry":{"x":169303.68000000063,"y":2542018.0600000024}},{"attributes":{"ID":350716,"DIS_CODE":0,"TOWNNAME":"南區","LI":"新生里","LIN":"6鄰","STREET":"大同路","SECT":"二段","MAREA":" ","LANE":"１６４巷","ALLEY":" ","HOUSE_NO":"３號五樓之１","E_COORD97":169303.67999999999,"N_COORD97":2542018.0600000001,"ADDRESS":"大同路二段１６４巷３號五樓之１","OBJECTID":350707},"geometry":{"x":169303.68000000063,"y":2542018.0600000024}},{"attributes":{"ID":350717,"DIS_CODE":0,"TOWNNAME":"北區","LI":"振興里","LIN":"18鄰","STREET":"長榮路","SECT":"四段","MAREA":" ","LANE":"５８巷","ALLEY":" ","HOUSE_NO":"５９號","E_COORD97":170498.57999999999,"N_COORD97":2545090.8399999999,"ADDRESS":"長榮路四段５８巷５９號","OBJECTID":350708},"geometry":{"x":170498.58000000101,"y":2545090.8400000017}},{"attributes":{"ID":350718,"DIS_CODE":0,"TOWNNAME":"南區","LI":"新生里","LIN":"6鄰","STREET":"大同路","SECT":"二段","MAREA":" ","LANE":"１６４巷","ALLEY":" ","HOUSE_NO":"３號五樓之２","E_COORD97":169303.67999999999,"N_COORD97":2542018.0600000001,"ADDRESS":"大同路二段１６４巷３號五樓之２","OBJECTID":350709},"geometry":{"x":169303.68000000063,"y":2542018.0600000024}},{"attributes":{"ID":350719,"DIS_CODE":0,"TOWNNAME":"南區","LI":"新生里","LIN":"6鄰","STREET":"大同路","SECT":"二段","MAREA":" ","LANE":"１６４巷","ALLEY":" ","HOUSE_NO":"３號五樓之３","E_COORD97":169303.67999999999,"N_COORD97":2542018.0600000001,"ADDRESS":"大同路二段１６４巷３號五樓之３","OBJECTID":350710},"geometry":{"x":169303.68000000063,"y":2542018.0600000024}},{"attributes":{"ID":350720,"DIS_CODE":0,"TOWNNAME":"永康區","LI":"正強里","LIN":"7鄰","STREET":"自強路","SECT":" ","MAREA":" ","LANE":"３３０巷","ALLEY":" ","HOUSE_NO":"２９號","E_COORD97":173442.32999999999,"N_COORD97":2547616.04,"ADDRESS":"自強路３３０巷２９號","OBJECTID":350711},"geometry":{"x":173442.33000000007,"y":2547616.0399999991}},{"attributes":{"ID":350721,"DIS_CODE":0,"TOWNNAME":"永康區","LI":"正強里","LIN":"35鄰","STREET":"正強街","SECT":" ","MAREA":" ","LANE":"３１３巷","ALLEY":" ","HOUSE_NO":"３號","E_COORD97":173231.82000000001,"N_COORD97":2548250.1499999999,"ADDRESS":"正強街３１３巷３號","OBJECTID":350712},"geometry":{"x":173231.8200000003,"y":2548250.1500000004}},{"attributes":{"ID":350722,"DIS_CODE":0,"TOWNNAME":"永康區","LI":"安康里","LIN":"6鄰","STREET":"中華路","SECT":" ","MAREA":" ","LANE":"７２７巷","ALLEY":" ","HOUSE_NO":"２７號","E_COORD97":170760.84,"N_COORD97":2546368.2400000002,"ADDRESS":"中華路７２７巷２７號","OBJECTID":350713},"geometry":{"x":170760.84000000078,"y":2546368.2400000002}},{"attributes":{"ID":350723,"DIS_CODE":0,"TOWNNAME":"南區","LI":"新生里","LIN":"6鄰","STREET":"大同路","SECT":"二段","MAREA":" ","LANE":"１６４巷","ALLEY":" ","HOUSE_NO":"３號五樓之５","E_COORD97":169303.67999999999,"N_COORD97":2542018.0600000001,"ADDRESS":"大同路二段１６４巷３號五樓之５","OBJECTID":350714},"geometry":{"x":169303.68000000063,"y":2542018.0600000024}},{"attributes":{"ID":350724,"DIS_CODE":0,"TOWNNAME":"南區","LI":"新生里","LIN":"6鄰","STREET":"大同路","SECT":"二段","MAREA":" ","LANE":"１６４巷","ALLEY":" ","HOUSE_NO":"３號六樓之１","E_COORD97":169303.67999999999,"N_COORD97":2542018.0600000001,"ADDRESS":"大同路二段１６４巷３號六樓之１","OBJECTID":350715},"geometry":{"x":169303.68000000063,"y":2542018.0600000024}},{"attributes":{"ID":350725,"DIS_CODE":0,"TOWNNAME":"南區","LI":"新生里","LIN":"6鄰","STREET":"大同路","SECT":"二段","MAREA":" ","LANE":"１６４巷","ALLEY":" ","HOUSE_NO":"３號六樓之２","E_COORD97":169303.67999999999,"N_COORD97":2542018.0600000001,"ADDRESS":"大同路二段１６４巷３號六樓之２","OBJECTID":350716},"geometry":{"x":169303.68000000063,"y":2542018.0600000024}},{"attributes":{"ID":350726,"DIS_CODE":0,"TOWNNAME":"南區","LI":"新生里","LIN":"6鄰","STREET":"大同路","SECT":"二段","MAREA":" ","LANE":"１６４巷","ALLEY":" ","HOUSE_NO":"３號六樓之３","E_COORD97":169303.67999999999,"N_COORD97":2542018.0600000001,"ADDRESS":"大同路二段１６４巷３號六樓之３","OBJECTID":350717},"geometry":{"x":169303.68000000063,"y":2542018.0600000024}},{"attributes":{"ID":350727,"DIS_CODE":0,"TOWNNAME":"南區","LI":"新生里","LIN":"6鄰","STREET":"大同路","SECT":"二段","MAREA":" ","LANE":"１６４巷","ALLEY":" ","HOUSE_NO":"３號六樓之５","E_COORD97":169303.67999999999,"N_COORD97":2542018.0600000001,"ADDRESS":"大同路二段１６４巷３號六樓之５","OBJECTID":350718},"geometry":{"x":169303.68000000063,"y":2542018.0600000024}},{"attributes":{"ID":350728,"DIS_CODE":0,"TOWNNAME":"北區","LI":"大道里","LIN":"6鄰","STREET":"北門路","SECT":"二段","MAREA":" ","LANE":"５７６巷","ALLEY":" ","HOUSE_NO":"１０號三樓之２","E_COORD97":169660.62,"N_COORD97":2545603.5,"ADDRESS":"北門路二段５７６巷１０號三樓之２","OBJECTID":350719},"geometry":{"x":169660.62000000104,"y":2545603.5}},{"attributes":{"ID":350729,"DIS_CODE":0,"TOWNNAME":"北區","LI":"大道里","LIN":"6鄰","STREET":"北門路","SECT":"二段","MAREA":" ","LANE":"５７６巷","ALLEY":" ","HOUSE_NO":"１０號三樓之１","E_COORD97":169660.62,"N_COORD97":2545603.5,"ADDRESS":"北門路二段５７６巷１０號三樓之１","OBJECTID":350720},"geometry":{"x":169660.62000000104,"y":2545603.5}},{"attributes":{"ID":350730,"DIS_CODE":0,"TOWNNAME":"柳營區","LI":"旭山里","LIN":"18鄰","STREET":" ","SECT":" ","MAREA":"山子腳","LANE":" ","ALLEY":" ","HOUSE_NO":"２５之５號","E_COORD97":187095.53,"N_COORD97":2574431.4100000001,"ADDRESS":"山子腳２５之５號","OBJECTID":350721},"geometry":{"x":187095.53000000026,"y":2574431.410000002}},{"attributes":{"ID":350731,"DIS_CODE":0,"TOWNNAME":"北區","LI":"大道里","LIN":"6鄰","STREET":"北門路","SECT":"二段","MAREA":" ","LANE":"５７６巷","ALLEY":" ","HOUSE_NO":"１０號四樓之２","E_COORD97":169660.62,"N_COORD97":2545603.5,"ADDRESS":"北門路二段５７６巷１０號四樓之２","OBJECTID":350722},"geometry":{"x":169660.62000000104,"y":2545603.5}},{"attributes":{"ID":350732,"DIS_CODE":0,"TOWNNAME":"北區","LI":"大道里","LIN":"6鄰","STREET":"北門路","SECT":"二段","MAREA":" ","LANE":"５７６巷","ALLEY":" ","HOUSE_NO":"１０號四樓之１","E_COORD97":169660.62,"N_COORD97":2545603.5,"ADDRESS":"北門路二段５７６巷１０號四樓之１","OBJECTID":350723},"geometry":{"x":169660.62000000104,"y":2545603.5}},{"attributes":{"ID":350733,"DIS_CODE":0,"TOWNNAME":"柳營區","LI":"旭山里","LIN":"18鄰","STREET":" ","SECT":" ","MAREA":"山子腳","LANE":" ","ALLEY":" ","HOUSE_NO":"２５之６號","E_COORD97":187090.67999999999,"N_COORD97":2574432.3799999999,"ADDRESS":"山子腳２５之６號","OBJECTID":350724},"geometry":{"x":187090.6799999997,"y":2574432.3800000027}},{"attributes":{"ID":350734,"DIS_CODE":0,"TOWNNAME":"新營區","LI":"太北里","LIN":"18鄰","STREET":" ","SECT":" ","MAREA":"太子宮","LANE":" ","ALLEY":" ","HOUSE_NO":"８之２９號","E_COORD97":176201.91,"N_COORD97":2577225.7200000002,"ADDRESS":"太子宮８之２９號","OBJECTID":350725},"geometry":{"x":176201.91000000201,"y":2577225.7200000025}},{"attributes":{"ID":350735,"DIS_CODE":0,"TOWNNAME":"安平區","LI":"國平里","LIN":"8鄰","STREET":"建平三街","SECT":" ","MAREA":" ","LANE":" ","ALLEY":" ","HOUSE_NO":"１９３號","E_COORD97":165468.41,"N_COORD97":2542947.5299999998,"ADDRESS":"建平三街１９３號","OBJECTID":350726},"geometry":{"x":165468.41000000108,"y":2542947.5299999993}},{"attributes":{"ID":350736,"DIS_CODE":0,"TOWNNAME":"安平區","LI":"國平里","LIN":"8鄰","STREET":"建平三街","SECT":" ","MAREA":" ","LANE":" ","ALLEY":" ","HOUSE_NO":"２１３號","E_COORD97":165413.88,"N_COORD97":2542955.5,"ADDRESS":"建平三街２１３號","OBJECTID":350727},"geometry":{"x":165413.88000000082,"y":2542955.5}},{"attributes":{"ID":350737,"DIS_CODE":0,"TOWNNAME":"北區","LI":"大道里","LIN":"6鄰","STREET":"北門路","SECT":"二段","MAREA":" ","LANE":"５７６巷","ALLEY":" ","HOUSE_NO":"１０號五樓之２","E_COORD97":169660.62,"N_COORD97":2545603.5,"ADDRESS":"北門路二段５７６巷１０號五樓之２","OBJECTID":350728},"geometry":{"x":169660.62000000104,"y":2545603.5}},{"attributes":{"ID":350738,"DIS_CODE":0,"TOWNNAME":"北區","LI":"大道里","LIN":"6鄰","STREET":"北門路","SECT":"二段","MAREA":" ","LANE":"５７６巷","ALLEY":" ","HOUSE_NO":"１０號五樓之１","E_COORD97":169660.62,"N_COORD97":2545603.5,"ADDRESS":"北門路二段５７６巷１０號五樓之１","OBJECTID":350729},"geometry":{"x":169660.62000000104,"y":2545603.5}},{"attributes":{"ID":350739,"DIS_CODE":0,"TOWNNAME":"北區","LI":"大道里","LIN":"6鄰","STREET":"北門路","SECT":"二段","MAREA":" ","LANE":"５７６巷","ALLEY":" ","HOUSE_NO":"１０號六樓之２","E_COORD97":169660.62,"N_COORD97":2545603.5,"ADDRESS":"北門路二段５７６巷１０號六樓之２","OBJECTID":350730},"geometry":{"x":169660.62000000104,"y":2545603.5}},{"attributes":{"ID":350740,"DIS_CODE":0,"TOWNNAME":"北區","LI":"大道里","LIN":"6鄰","STREET":"北門路","SECT":"二段","MAREA":" ","LANE":"５７６巷","ALLEY":" ","HOUSE_NO":"１０號六樓之１","E_COORD97":169660.62,"N_COORD97":2545603.5,"ADDRESS":"北門路二段５７６巷１０號六樓之１","OBJECTID":350731},"geometry":{"x":169660.62000000104,"y":2545603.5}},{"attributes":{"ID":350741,"DIS_CODE":0,"TOWNNAME":"北區","LI":"大道里","LIN":"6鄰","STREET":"北門路","SECT":"二段","MAREA":" ","LANE":"５７６巷","ALLEY":" ","HOUSE_NO":"１０號七樓之２","E_COORD97":169660.62,"N_COORD97":2545603.5,"ADDRESS":"北門路二段５７６巷１０號七樓之２","OBJECTID":350732},"geometry":{"x":169660.62000000104,"y":2545603.5}},{"attributes":{"ID":350742,"DIS_CODE":0,"TOWNNAME":"永康區","LI":"安康里","LIN":"12鄰","STREET":"中華路","SECT":" ","MAREA":" ","LANE":"６１９巷","ALLEY":" ","HOUSE_NO":"７號","E_COORD97":171017.32000000001,"N_COORD97":2546079.4900000002,"ADDRESS":"中華路６１９巷７號","OBJECTID":350733},"geometry":{"x":171017.32000000123,"y":2546079.4900000021}},{"attributes":{"ID":350743,"DIS_CODE":0,"TOWNNAME":"永康區","LI":"安康里","LIN":"18鄰","STREET":"中華路","SECT":" ","MAREA":" ","LANE":"６６１巷","ALLEY":" ","HOUSE_NO":"９２號","E_COORD97":170824.95000000001,"N_COORD97":2546132.75,"ADDRESS":"中華路６６１巷９２號","OBJECTID":350734},"geometry":{"x":170824.95000000112,"y":2546132.7500000019}},{"attributes":{"ID":350744,"DIS_CODE":0,"TOWNNAME":"北區","LI":"大道里","LIN":"6鄰","STREET":"北門路","SECT":"二段","MAREA":" ","LANE":"５７６巷","ALLEY":" ","HOUSE_NO":"１０號七樓之１","E_COORD97":169660.62,"N_COORD97":2545603.5,"ADDRESS":"北門路二段５７６巷１０號七樓之１","OBJECTID":350735},"geometry":{"x":169660.62000000104,"y":2545603.5}},{"attributes":{"ID":350745,"DIS_CODE":0,"TOWNNAME":"北區","LI":"大道里","LIN":"6鄰","STREET":"北門路","SECT":"二段","MAREA":" ","LANE":"５７６巷","ALLEY":" ","HOUSE_NO":"１０號八樓之２","E_COORD97":169660.62,"N_COORD97":2545603.5,"ADDRESS":"北門路二段５７６巷１０號八樓之２","OBJECTID":350736},"geometry":{"x":169660.62000000104,"y":2545603.5}},{"attributes":{"ID":350746,"DIS_CODE":0,"TOWNNAME":"北區","LI":"大道里","LIN":"6鄰","STREET":"北門路","SECT":"二段","MAREA":" ","LANE":"５７６巷","ALLEY":" ","HOUSE_NO":"１０號八樓之１","E_COORD97":169660.62,"N_COORD97":2545603.5,"ADDRESS":"北門路二段５７６巷１０號八樓之１","OBJECTID":350737},"geometry":{"x":169660.62000000104,"y":2545603.5}},{"attributes":{"ID":350747,"DIS_CODE":0,"TOWNNAME":"北區","LI":"大道里","LIN":"6鄰","STREET":"北門路","SECT":"二段","MAREA":" ","LANE":"５７６巷","ALLEY":" ","HOUSE_NO":"１０號九樓之２","E_COORD97":169660.62,"N_COORD97":2545603.5,"ADDRESS":"北門路二段５７６巷１０號九樓之２","OBJECTID":350738},"geometry":{"x":169660.62000000104,"y":2545603.5}},{"attributes":{"ID":350748,"DIS_CODE":0,"TOWNNAME":"北區","LI":"大道里","LIN":"6鄰","STREET":"北門路","SECT":"二段","MAREA":" ","LANE":"５７６巷","ALLEY":" ","HOUSE_NO":"１０號九樓之１","E_COORD97":169660.62,"N_COORD97":2545603.5,"ADDRESS":"北門路二段５７６巷１０號九樓之１","OBJECTID":350739},"geometry":{"x":169660.62000000104,"y":2545603.5}},{"attributes":{"ID":350749,"DIS_CODE":0,"TOWNNAME":"北區","LI":"大道里","LIN":"6鄰","STREET":"北門路","SECT":"二段","MAREA":" ","LANE":"５７６巷","ALLEY":" ","HOUSE_NO":"１０號十樓之２","E_COORD97":169660.62,"N_COORD97":2545603.5,"ADDRESS":"北門路二段５７６巷１０號十樓之２","OBJECTID":350740},"geometry":{"x":169660.62000000104,"y":2545603.5}},{"attributes":{"ID":350750,"DIS_CODE":0,"TOWNNAME":"北區","LI":"大道里","LIN":"6鄰","STREET":"北門路","SECT":"二段","MAREA":" ","LANE":"５７６巷","ALLEY":" ","HOUSE_NO":"１０號十樓之１","E_COORD97":169660.62,"N_COORD97":2545603.5,"ADDRESS":"北門路二段５７６巷１０號十樓之１","OBJECTID":350741},"geometry":{"x":169660.62000000104,"y":2545603.5}},{"attributes":{"ID":350751,"DIS_CODE":0,"TOWNNAME":"北區","LI":"六甲里","LIN":"6鄰","STREET":"西門路","SECT":"四段","MAREA":" ","LANE":"２００巷","ALLEY":" ","HOUSE_NO":"１０號七樓","E_COORD97":168882.84,"N_COORD97":2545602.8199999998,"ADDRESS":"西門路四段２００巷１０號七樓","OBJECTID":350742},"geometry":{"x":168882.84000000078,"y":2545602.8200000022}},{"attributes":{"ID":350752,"DIS_CODE":0,"TOWNNAME":"北區","LI":"六甲里","LIN":"6鄰","STREET":"西門路","SECT":"四段","MAREA":" ","LANE":"２００巷","ALLEY":" ","HOUSE_NO":"１０號九樓","E_COORD97":168882.84,"N_COORD97":2545602.8199999998,"ADDRESS":"西門路四段２００巷１０號九樓","OBJECTID":350743},"geometry":{"x":168882.84000000078,"y":2545602.8200000022}},{"attributes":{"ID":350753,"DIS_CODE":0,"TOWNNAME":"北區","LI":"六甲里","LIN":"6鄰","STREET":"西門路","SECT":"四段","MAREA":" ","LANE":"２００巷","ALLEY":" ","HOUSE_NO":"１０號二樓","E_COORD97":168882.84,"N_COORD97":2545602.8199999998,"ADDRESS":"西門路四段２００巷１０號二樓","OBJECTID":350744},"geometry":{"x":168882.84000000078,"y":2545602.8200000022}},{"attributes":{"ID":350754,"DIS_CODE":0,"TOWNNAME":"北區","LI":"六甲里","LIN":"6鄰","STREET":"西門路","SECT":"四段","MAREA":" ","LANE":"２００巷","ALLEY":" ","HOUSE_NO":"１０號八樓","E_COORD97":168882.84,"N_COORD97":2545602.8199999998,"ADDRESS":"西門路四段２００巷１０號八樓","OBJECTID":350745},"geometry":{"x":168882.84000000078,"y":2545602.8200000022}},{"attributes":{"ID":350755,"DIS_CODE":0,"TOWNNAME":"北區","LI":"六甲里","LIN":"6鄰","STREET":"西門路","SECT":"四段","MAREA":" ","LANE":"２００巷","ALLEY":" ","HOUSE_NO":"１０號三樓","E_COORD97":168882.84,"N_COORD97":2545602.8199999998,"ADDRESS":"西門路四段２００巷１０號三樓","OBJECTID":350746},"geometry":{"x":168882.84000000078,"y":2545602.8200000022}},{"attributes":{"ID":350756,"DIS_CODE":0,"TOWNNAME":"北區","LI":"六甲里","LIN":"6鄰","STREET":"西門路","SECT":"四段","MAREA":" ","LANE":"２００巷","ALLEY":" ","HOUSE_NO":"１０號五樓","E_COORD97":168882.84,"N_COORD97":2545602.8199999998,"ADDRESS":"西門路四段２００巷１０號五樓","OBJECTID":350747},"geometry":{"x":168882.84000000078,"y":2545602.8200000022}},{"attributes":{"ID":350757,"DIS_CODE":0,"TOWNNAME":"北區","LI":"六甲里","LIN":"6鄰","STREET":"西門路","SECT":"四段","MAREA":" ","LANE":"２００巷","ALLEY":" ","HOUSE_NO":"１０號六樓","E_COORD97":168882.84,"N_COORD97":2545602.8199999998,"ADDRESS":"西門路四段２００巷１０號六樓","OBJECTID":350748},"geometry":{"x":168882.84000000078,"y":2545602.8200000022}},{"attributes":{"ID":350758,"DIS_CODE":0,"TOWNNAME":"北區","LI":"六甲里","LIN":"6鄰","STREET":"西門路","SECT":"四段","MAREA":" ","LANE":"２００巷","ALLEY":" ","HOUSE_NO":"１０號四樓","E_COORD97":168882.84,"N_COORD97":2545602.8199999998,"ADDRESS":"西門路四段２００巷１０號四樓","OBJECTID":350749},"geometry":{"x":168882.84000000078,"y":2545602.8200000022}},{"attributes":{"ID":350759,"DIS_CODE":0,"TOWNNAME":"六甲區","LI":"水林里","LIN":"18鄰","STREET":"中正路","SECT":" ","MAREA":" ","LANE":"６４９巷","ALLEY":" ","HOUSE_NO":"１１號","E_COORD97":183693.04999999999,"N_COORD97":2570323.1200000001,"ADDRESS":"中正路６４９巷１１號","OBJECTID":350750},"geometry":{"x":183693.04999999981,"y":2570323.120000001}},{"attributes":{"ID":350760,"DIS_CODE":0,"TOWNNAME":"北區","LI":"六甲里","LIN":"6鄰","STREET":"西門路","SECT":"四段","MAREA":" ","LANE":"２００巷","ALLEY":" ","HOUSE_NO":"１２號七樓之１","E_COORD97":168910.69,"N_COORD97":2545611.46,"ADDRESS":"西門路四段２００巷１２號七樓之１","OBJECTID":350751},"geometry":{"x":168910.69000000041,"y":2545611.4600000009}},{"attributes":{"ID":350761,"DIS_CODE":0,"TOWNNAME":"北區","LI":"六甲里","LIN":"6鄰","STREET":"西門路","SECT":"四段","MAREA":" ","LANE":"２００巷","ALLEY":" ","HOUSE_NO":"１２號七樓之２","E_COORD97":168910.69,"N_COORD97":2545611.46,"ADDRESS":"西門路四段２００巷１２號七樓之２","OBJECTID":350752},"geometry":{"x":168910.69000000041,"y":2545611.4600000009}},{"attributes":{"ID":350762,"DIS_CODE":0,"TOWNNAME":"北區","LI":"六甲里","LIN":"6鄰","STREET":"西門路","SECT":"四段","MAREA":" ","LANE":"２００巷","ALLEY":" ","HOUSE_NO":"１２號二樓之１","E_COORD97":168910.69,"N_COORD97":2545611.46,"ADDRESS":"西門路四段２００巷１２號二樓之１","OBJECTID":350753},"geometry":{"x":168910.69000000041,"y":2545611.4600000009}},{"attributes":{"ID":350763,"DIS_CODE":0,"TOWNNAME":"北區","LI":"六甲里","LIN":"6鄰","STREET":"西門路","SECT":"四段","MAREA":" ","LANE":"２００巷","ALLEY":" ","HOUSE_NO":"１２號二樓之２","E_COORD97":168910.69,"N_COORD97":2545611.46,"ADDRESS":"西門路四段２００巷１２號二樓之２","OBJECTID":350754},"geometry":{"x":168910.69000000041,"y":2545611.4600000009}},{"attributes":{"ID":350764,"DIS_CODE":0,"TOWNNAME":"六甲區","LI":"二甲里","LIN":"18鄰","STREET":"中山路","SECT":" ","MAREA":" ","LANE":"４３５巷","ALLEY":" ","HOUSE_NO":"１０號","E_COORD97":181960.35999999999,"N_COORD97":2570351.23,"ADDRESS":"中山路４３５巷１０號","OBJECTID":350755},"geometry":{"x":181960.36000000034,"y":2570351.2300000004}},{"attributes":{"ID":350765,"DIS_CODE":0,"TOWNNAME":"六甲區","LI":"二甲里","LIN":"18鄰","STREET":"中山路","SECT":" ","MAREA":" ","LANE":"４３５巷","ALLEY":" ","HOUSE_NO":"１１號","E_COORD97":181969.75,"N_COORD97":2570333.8399999999,"ADDRESS":"中山路４３５巷１１號","OBJECTID":350756},"geometry":{"x":181969.75000000186,"y":2570333.8399999999}},{"attributes":{"ID":350766,"DIS_CODE":0,"TOWNNAME":"六甲區","LI":"二甲里","LIN":"18鄰","STREET":"中山路","SECT":" ","MAREA":" ","LANE":"４３５巷","ALLEY":" ","HOUSE_NO":"１２號","E_COORD97":181959.23999999999,"N_COORD97":2570343.2599999998,"ADDRESS":"中山路４３５巷１２號","OBJECTID":350757},"geometry":{"x":181959.24000000022,"y":2570343.2600000016}},{"attributes":{"ID":350767,"DIS_CODE":0,"TOWNNAME":"六甲區","LI":"二甲里","LIN":"18鄰","STREET":"中山路","SECT":" ","MAREA":" ","LANE":"４３５巷","ALLEY":" ","HOUSE_NO":"１３號","E_COORD97":181969,"N_COORD97":2570325.9700000002,"ADDRESS":"中山路４３５巷１３號","OBJECTID":350758},"geometry":{"x":181969,"y":2570325.9700000025}},{"attributes":{"ID":350768,"DIS_CODE":0,"TOWNNAME":"六甲區","LI":"二甲里","LIN":"18鄰","STREET":"中山路","SECT":" ","MAREA":" ","LANE":"４３５巷","ALLEY":" ","HOUSE_NO":"１５號","E_COORD97":181968.01999999999,"N_COORD97":2570318.7599999998,"ADDRESS":"中山路４３５巷１５號","OBJECTID":350759},"geometry":{"x":181968.02000000048,"y":2570318.7600000016}},{"attributes":{"ID":350769,"DIS_CODE":0,"TOWNNAME":"北區","LI":"六甲里","LIN":"6鄰","STREET":"西門路","SECT":"四段","MAREA":" ","LANE":"２００巷","ALLEY":" ","HOUSE_NO":"１２號八樓之１","E_COORD97":168910.69,"N_COORD97":2545611.46,"ADDRESS":"西門路四段２００巷１２號八樓之１","OBJECTID":350760},"geometry":{"x":168910.69000000041,"y":2545611.4600000009}},{"attributes":{"ID":350770,"DIS_CODE":0,"TOWNNAME":"北區","LI":"六甲里","LIN":"6鄰","STREET":"西門路","SECT":"四段","MAREA":" ","LANE":"２００巷","ALLEY":" ","HOUSE_NO":"１２號八樓之２","E_COORD97":168910.69,"N_COORD97":2545611.46,"ADDRESS":"西門路四段２００巷１２號八樓之２","OBJECTID":350761},"geometry":{"x":168910.69000000041,"y":2545611.4600000009}},{"attributes":{"ID":350771,"DIS_CODE":0,"TOWNNAME":"北區","LI":"六甲里","LIN":"6鄰","STREET":"西門路","SECT":"四段","MAREA":" ","LANE":"２００巷","ALLEY":" ","HOUSE_NO":"１２號三樓之１","E_COORD97":168910.69,"N_COORD97":2545611.46,"ADDRESS":"西門路四段２００巷１２號三樓之１","OBJECTID":350762},"geometry":{"x":168910.69000000041,"y":2545611.4600000009}},{"attributes":{"ID":350772,"DIS_CODE":0,"TOWNNAME":"北區","LI":"六甲里","LIN":"6鄰","STREET":"西門路","SECT":"四段","MAREA":" ","LANE":"２００巷","ALLEY":" ","HOUSE_NO":"１２號三樓之２","E_COORD97":168910.69,"N_COORD97":2545611.46,"ADDRESS":"西門路四段２００巷１２號三樓之２","OBJECTID":350763},"geometry":{"x":168910.69000000041,"y":2545611.4600000009}},{"attributes":{"ID":350773,"DIS_CODE":0,"TOWNNAME":"北區","LI":"六甲里","LIN":"6鄰","STREET":"西門路","SECT":"四段","MAREA":" ","LANE":"２００巷","ALLEY":" ","HOUSE_NO":"１２號五樓之１","E_COORD97":168910.69,"N_COORD97":2545611.46,"ADDRESS":"西門路四段２００巷１２號五樓之１","OBJECTID":350764},"geometry":{"x":168910.69000000041,"y":2545611.4600000009}},{"attributes":{"ID":350774,"DIS_CODE":0,"TOWNNAME":"北區","LI":"六甲里","LIN":"6鄰","STREET":"西門路","SECT":"四段","MAREA":" ","LANE":"２００巷","ALLEY":" ","HOUSE_NO":"１２號五樓之２","E_COORD97":168910.69,"N_COORD97":2545611.46,"ADDRESS":"西門路四段２００巷１２號五樓之２","OBJECTID":350765},"geometry":{"x":168910.69000000041,"y":2545611.4600000009}},{"attributes":{"ID":350775,"DIS_CODE":0,"TOWNNAME":"北區","LI":"六甲里","LIN":"6鄰","STREET":"西門路","SECT":"四段","MAREA":" ","LANE":"２００巷","ALLEY":" ","HOUSE_NO":"１２號六樓之１","E_COORD97":168910.69,"N_COORD97":2545611.46,"ADDRESS":"西門路四段２００巷１２號六樓之１","OBJECTID":350766},"geometry":{"x":168910.69000000041,"y":2545611.4600000009}},{"attributes":{"ID":350776,"DIS_CODE":0,"TOWNNAME":"北區","LI":"六甲里","LIN":"6鄰","STREET":"西門路","SECT":"四段","MAREA":" ","LANE":"２００巷","ALLEY":" ","HOUSE_NO":"１２號六樓之２","E_COORD97":168910.69,"N_COORD97":2545611.46,"ADDRESS":"西門路四段２００巷１２號六樓之２","OBJECTID":350767},"geometry":{"x":168910.69000000041,"y":2545611.4600000009}},{"attributes":{"ID":350777,"DIS_CODE":0,"TOWNNAME":"北區","LI":"六甲里","LIN":"6鄰","STREET":"西門路","SECT":"四段","MAREA":" ","LANE":"２００巷","ALLEY":" ","HOUSE_NO":"１２號四樓之１","E_COORD97":168910.69,"N_COORD97":2545611.46,"ADDRESS":"西門路四段２００巷１２號四樓之１","OBJECTID":350768},"geometry":{"x":168910.69000000041,"y":2545611.4600000009}},{"attributes":{"ID":350778,"DIS_CODE":0,"TOWNNAME":"北區","LI":"六甲里","LIN":"6鄰","STREET":"西門路","SECT":"四段","MAREA":" ","LANE":"２００巷","ALLEY":" ","HOUSE_NO":"１２號四樓之２","E_COORD97":168910.69,"N_COORD97":2545611.46,"ADDRESS":"西門路四段２００巷１２號四樓之２","OBJECTID":350769},"geometry":{"x":168910.69000000041,"y":2545611.4600000009}},{"attributes":{"ID":350779,"DIS_CODE":0,"TOWNNAME":"北區","LI":"東興里","LIN":"8鄰","STREET":"小東路","SECT":" ","MAREA":" ","LANE":" ","ALLEY":" ","HOUSE_NO":"３５９號","E_COORD97":171219.98999999999,"N_COORD97":2544385.9100000001,"ADDRESS":"小東路３５９號","OBJECTID":350770},"geometry":{"x":171219.99000000115,"y":2544385.910000002}},{"attributes":{"ID":350780,"DIS_CODE":0,"TOWNNAME":"北區","LI":"六甲里","LIN":"6鄰","STREET":"西門路","SECT":"四段","MAREA":" ","LANE":"２００巷","ALLEY":" ","HOUSE_NO":"１４號七樓之１","E_COORD97":168902.45999999999,"N_COORD97":2545613.7799999998,"ADDRESS":"西門路四段２００巷１４號七樓之１","OBJECTID":350771},"geometry":{"x":168902.46000000089,"y":2545613.7799999993}},{"attributes":{"ID":350781,"DIS_CODE":0,"TOWNNAME":"北區","LI":"六甲里","LIN":"6鄰","STREET":"西門路","SECT":"四段","MAREA":" ","LANE":"２００巷","ALLEY":" ","HOUSE_NO":"１４號七樓之２","E_COORD97":168902.45999999999,"N_COORD97":2545613.7799999998,"ADDRESS":"西門路四段２００巷１４號七樓之２","OBJECTID":350772},"geometry":{"x":168902.46000000089,"y":2545613.7799999993}},{"attributes":{"ID":350782,"DIS_CODE":0,"TOWNNAME":"北區","LI":"六甲里","LIN":"6鄰","STREET":"西門路","SECT":"四段","MAREA":" ","LANE":"２００巷","ALLEY":" ","HOUSE_NO":"１４號二樓之１","E_COORD97":168902.45999999999,"N_COORD97":2545613.7799999998,"ADDRESS":"西門路四段２００巷１４號二樓之１","OBJECTID":350773},"geometry":{"x":168902.46000000089,"y":2545613.7799999993}},{"attributes":{"ID":350783,"DIS_CODE":0,"TOWNNAME":"北區","LI":"六甲里","LIN":"6鄰","STREET":"西門路","SECT":"四段","MAREA":" ","LANE":"２００巷","ALLEY":" ","HOUSE_NO":"１４號二樓之２","E_COORD97":168902.45999999999,"N_COORD97":2545613.7799999998,"ADDRESS":"西門路四段２００巷１４號二樓之２","OBJECTID":350774},"geometry":{"x":168902.46000000089,"y":2545613.7799999993}},{"attributes":{"ID":350784,"DIS_CODE":0,"TOWNNAME":"北區","LI":"六甲里","LIN":"6鄰","STREET":"西門路","SECT":"四段","MAREA":" ","LANE":"２００巷","ALLEY":" ","HOUSE_NO":"１４號八樓之１","E_COORD97":168902.45999999999,"N_COORD97":2545613.7799999998,"ADDRESS":"西門路四段２００巷１４號八樓之１","OBJECTID":350775},"geometry":{"x":168902.46000000089,"y":2545613.7799999993}},{"attributes":{"ID":350785,"DIS_CODE":0,"TOWNNAME":"安平區","LI":"國平里","LIN":"8鄰","STREET":"建平三街","SECT":" ","MAREA":" ","LANE":" ","ALLEY":" ","HOUSE_NO":"２１７號","E_COORD97":165403.60000000001,"N_COORD97":2542956.1499999999,"ADDRESS":"建平三街２１７號","OBJECTID":350776},"geometry":{"x":165403.60000000056,"y":2542956.1500000022}},{"attributes":{"ID":350786,"DIS_CODE":0,"TOWNNAME":"安平區","LI":"國平里","LIN":"8鄰","STREET":"建平三街","SECT":" ","MAREA":" ","LANE":" ","ALLEY":" ","HOUSE_NO":"２１９號","E_COORD97":165399.10000000001,"N_COORD97":2542956.79,"ADDRESS":"建平三街２１９號","OBJECTID":350777},"geometry":{"x":165399.09999999963,"y":2542956.7900000028}},{"attributes":{"ID":350787,"DIS_CODE":0,"TOWNNAME":"安平區","LI":"平安里","LIN":"1鄰","STREET":"安平路","SECT":" ","MAREA":" ","LANE":" ","ALLEY":" ","HOUSE_NO":"５０號","E_COORD97":166514.38,"N_COORD97":2544313.8500000001,"ADDRESS":"安平路５０號","OBJECTID":350778},"geometry":{"x":166514.38000000082,"y":2544313.8500000015}},{"attributes":{"ID":350788,"DIS_CODE":0,"TOWNNAME":"安平區","LI":"國平里","LIN":"8鄰","STREET":"建平三街","SECT":" ","MAREA":" ","LANE":" ","ALLEY":" ","HOUSE_NO":"２２１號","E_COORD97":165393.53,"N_COORD97":2542957.6400000001,"ADDRESS":"建平三街２２１號","OBJECTID":350779},"geometry":{"x":165393.53000000026,"y":2542957.6400000025}},{"attributes":{"ID":350789,"DIS_CODE":0,"TOWNNAME":"安平區","LI":"國平里","LIN":"8鄰","STREET":"建平三街","SECT":" ","MAREA":" ","LANE":" ","ALLEY":" ","HOUSE_NO":"２２３號","E_COORD97":165389.03,"N_COORD97":2542958.29,"ADDRESS":"建平三街２２３號","OBJECTID":350780},"geometry":{"x":165389.03000000026,"y":2542958.290000001}},{"attributes":{"ID":350790,"DIS_CODE":0,"TOWNNAME":"六甲區","LI":"水林里","LIN":"18鄰","STREET":"中正路","SECT":" ","MAREA":" ","LANE":"６４９巷","ALLEY":" ","HOUSE_NO":"１２號","E_COORD97":183709.72,"N_COORD97":2570328.3799999999,"ADDRESS":"中正路６４９巷１２號","OBJECTID":350781},"geometry":{"x":183709.72000000067,"y":2570328.379999999}},{"attributes":{"ID":350791,"DIS_CODE":0,"TOWNNAME":"北區","LI":"六甲里","LIN":"6鄰","STREET":"西門路","SECT":"四段","MAREA":" ","LANE":"２００巷","ALLEY":" ","HOUSE_NO":"１４號八樓之２","E_COORD97":168902.45999999999,"N_COORD97":2545613.7799999998,"ADDRESS":"西門路四段２００巷１４號八樓之２","OBJECTID":350782},"geometry":{"x":168902.46000000089,"y":2545613.7799999993}},{"attributes":{"ID":350792,"DIS_CODE":0,"TOWNNAME":"北區","LI":"六甲里","LIN":"6鄰","STREET":"西門路","SECT":"四段","MAREA":" ","LANE":"２００巷","ALLEY":" ","HOUSE_NO":"１４號八樓之二","E_COORD97":168902.45999999999,"N_COORD97":2545613.7799999998,"ADDRESS":"西門路四段２００巷１４號八樓之二","OBJECTID":350783},"geometry":{"x":168902.46000000089,"y":2545613.7799999993}},{"attributes":{"ID":350793,"DIS_CODE":0,"TOWNNAME":"北區","LI":"六甲里","LIN":"6鄰","STREET":"西門路","SECT":"四段","MAREA":" ","LANE":"２００巷","ALLEY":" ","HOUSE_NO":"１４號三樓之１","E_COORD97":168902.45999999999,"N_COORD97":2545613.7799999998,"ADDRESS":"西門路四段２００巷１４號三樓之１","OBJECTID":350784},"geometry":{"x":168902.46000000089,"y":2545613.7799999993}},{"attributes":{"ID":350794,"DIS_CODE":0,"TOWNNAME":"北區","LI":"六甲里","LIN":"6鄰","STREET":"西門路","SECT":"四段","MAREA":" ","LANE":"２００巷","ALLEY":" ","HOUSE_NO":"１４號三樓之２","E_COORD97":168902.45999999999,"N_COORD97":2545613.7799999998,"ADDRESS":"西門路四段２００巷１４號三樓之２","OBJECTID":350785},"geometry":{"x":168902.46000000089,"y":2545613.7799999993}},{"attributes":{"ID":350795,"DIS_CODE":0,"TOWNNAME":"北區","LI":"六甲里","LIN":"6鄰","STREET":"西門路","SECT":"四段","MAREA":" ","LANE":"２００巷","ALLEY":" ","HOUSE_NO":"１４號五樓之１","E_COORD97":168902.45999999999,"N_COORD97":2545613.7799999998,"ADDRESS":"西門路四段２００巷１４號五樓之１","OBJECTID":350786},"geometry":{"x":168902.46000000089,"y":2545613.7799999993}},{"attributes":{"ID":350796,"DIS_CODE":0,"TOWNNAME":"北區","LI":"六甲里","LIN":"6鄰","STREET":"西門路","SECT":"四段","MAREA":" ","LANE":"２００巷","ALLEY":" ","HOUSE_NO":"１４號六樓之１","E_COORD97":168902.45999999999,"N_COORD97":2545613.7799999998,"ADDRESS":"西門路四段２００巷１４號六樓之１","OBJECTID":350787},"geometry":{"x":168902.46000000089,"y":2545613.7799999993}},{"attributes":{"ID":350797,"DIS_CODE":0,"TOWNNAME":"北區","LI":"六甲里","LIN":"6鄰","STREET":"西門路","SECT":"四段","MAREA":" ","LANE":"２００巷","ALLEY":" ","HOUSE_NO":"１４號六樓之２","E_COORD97":168902.45999999999,"N_COORD97":2545613.7799999998,"ADDRESS":"西門路四段２００巷１４號六樓之２","OBJECTID":350788},"geometry":{"x":168902.46000000089,"y":2545613.7799999993}},{"attributes":{"ID":350798,"DIS_CODE":0,"TOWNNAME":"北區","LI":"六甲里","LIN":"6鄰","STREET":"西門路","SECT":"四段","MAREA":" ","LANE":"２００巷","ALLEY":" ","HOUSE_NO":"１４號四樓之１","E_COORD97":168902.45999999999,"N_COORD97":2545613.7799999998,"ADDRESS":"西門路四段２００巷１４號四樓之１","OBJECTID":350789},"geometry":{"x":168902.46000000089,"y":2545613.7799999993}},{"attributes":{"ID":350799,"DIS_CODE":0,"TOWNNAME":"北區","LI":"六甲里","LIN":"6鄰","STREET":"西門路","SECT":"四段","MAREA":" ","LANE":"２００巷","ALLEY":" ","HOUSE_NO":"１４號四樓之２","E_COORD97":168902.45999999999,"N_COORD97":2545613.7799999998,"ADDRESS":"西門路四段２００巷１４號四樓之２","OBJECTID":350790},"geometry":{"x":168902.46000000089,"y":2545613.7799999993}},{"attributes":{"ID":350800,"DIS_CODE":0,"TOWNNAME":"北區","LI":"六甲里","LIN":"6鄰","STREET":"西門路","SECT":"四段","MAREA":" ","LANE":"２００巷","ALLEY":" ","HOUSE_NO":"２０號七樓","E_COORD97":168925.04000000001,"N_COORD97":2545593.9700000002,"ADDRESS":"西門路四段２００巷２０號七樓","OBJECTID":350791},"geometry":{"x":168925.0400000019,"y":2545593.9700000007}},{"attributes":{"ID":350801,"DIS_CODE":0,"TOWNNAME":"北區","LI":"六甲里","LIN":"6鄰","STREET":"西門路","SECT":"四段","MAREA":" ","LANE":"２００巷","ALLEY":" ","HOUSE_NO":"２０號九樓","E_COORD97":168925.04000000001,"N_COORD97":2545593.9700000002,"ADDRESS":"西門路四段２００巷２０號九樓","OBJECTID":350792},"geometry":{"x":168925.0400000019,"y":2545593.9700000007}},{"attributes":{"ID":350802,"DIS_CODE":0,"TOWNNAME":"北區","LI":"六甲里","LIN":"6鄰","STREET":"西門路","SECT":"四段","MAREA":" ","LANE":"２００巷","ALLEY":" ","HOUSE_NO":"２０號二樓","E_COORD97":168925.04000000001,"N_COORD97":2545593.9700000002,"ADDRESS":"西門路四段２００巷２０號二樓","OBJECTID":350793},"geometry":{"x":168925.0400000019,"y":2545593.9700000007}},{"attributes":{"ID":350803,"DIS_CODE":0,"TOWNNAME":"北區","LI":"六甲里","LIN":"6鄰","STREET":"西門路","SECT":"四段","MAREA":" ","LANE":"２００巷","ALLEY":" ","HOUSE_NO":"２０號八樓","E_COORD97":168925.04000000001,"N_COORD97":2545593.9700000002,"ADDRESS":"西門路四段２００巷２０號八樓","OBJECTID":350794},"geometry":{"x":168925.0400000019,"y":2545593.9700000007}},{"attributes":{"ID":350804,"DIS_CODE":0,"TOWNNAME":"北區","LI":"六甲里","LIN":"6鄰","STREET":"西門路","SECT":"四段","MAREA":" ","LANE":"２００巷","ALLEY":" ","HOUSE_NO":"２０號三樓","E_COORD97":168925.04000000001,"N_COORD97":2545593.9700000002,"ADDRESS":"西門路四段２００巷２０號三樓","OBJECTID":350795},"geometry":{"x":168925.0400000019,"y":2545593.9700000007}},{"attributes":{"ID":350805,"DIS_CODE":0,"TOWNNAME":"北區","LI":"東興里","LIN":"8鄰","STREET":"小東路","SECT":" ","MAREA":" ","LANE":" ","ALLEY":" ","HOUSE_NO":"３１１號","E_COORD97":171132.07999999999,"N_COORD97":2544409.3100000001,"ADDRESS":"小東路３１１號","OBJECTID":350796},"geometry":{"x":171132.08000000194,"y":2544409.3100000042}},{"attributes":{"ID":350806,"DIS_CODE":0,"TOWNNAME":"北區","LI":"東興里","LIN":"8鄰","STREET":"小東路","SECT":" ","MAREA":" ","LANE":" ","ALLEY":" ","HOUSE_NO":"３１３號","E_COORD97":171136.56,"N_COORD97":2544410.0899999999,"ADDRESS":"小東路３１３號","OBJECTID":350797},"geometry":{"x":171136.55999999866,"y":2544410.0900000036}},{"attributes":{"ID":350807,"DIS_CODE":0,"TOWNNAME":"北區","LI":"東興里","LIN":"8鄰","STREET":"小東路","SECT":" ","MAREA":" ","LANE":" ","ALLEY":" ","HOUSE_NO":"３１５號","E_COORD97":171139.95999999999,"N_COORD97":2544408.9199999999,"ADDRESS":"小東路３１５號","OBJECTID":350798},"geometry":{"x":171139.96000000089,"y":2544408.9200000018}},{"attributes":{"ID":350808,"DIS_CODE":0,"TOWNNAME":"北區","LI":"六甲里","LIN":"6鄰","STREET":"西門路","SECT":"四段","MAREA":" ","LANE":"２００巷","ALLEY":" ","HOUSE_NO":"２０號五樓","E_COORD97":168925.04000000001,"N_COORD97":2545593.9700000002,"ADDRESS":"西門路四段２００巷２０號五樓","OBJECTID":350799},"geometry":{"x":168925.0400000019,"y":2545593.9700000007}},{"attributes":{"ID":350809,"DIS_CODE":0,"TOWNNAME":"北區","LI":"六甲里","LIN":"6鄰","STREET":"西門路","SECT":"四段","MAREA":" ","LANE":"２００巷","ALLEY":" ","HOUSE_NO":"２０號六樓","E_COORD97":168925.04000000001,"N_COORD97":2545593.9700000002,"ADDRESS":"西門路四段２００巷２０號六樓","OBJECTID":350800},"geometry":{"x":168925.0400000019,"y":2545593.9700000007}}]}