{"displayFieldName":"TOWNNAME","fieldAliases":{"ID":"ID","DIS_CODE":"DIS_CODE","TOWNNAME":"TOWNNAME","LI":"LI","LIN":"LIN","STREET":"STREET","SECT":"SECT","MAREA":"MAREA","LANE":"LANE","ALLEY":"ALLEY","HOUSE_NO":"HOUSE_NO","E_COORD97":"E_COORD97","N_COORD97":"N_COORD97","ADDRESS":"ADDRESS","OBJECTID":"OBJECTID"},"geometryType":"esriGeometryPoint","spatialReference":{"wkid":102443,"latestWkid":3826},"fields":[{"name":"ID","type":"esriFieldTypeDouble","alias":"ID"},{"name":"DIS_CODE","type":"esriFieldTypeInteger","alias":"DIS_CODE"},{"name":"TOWNNAME","type":"esriFieldTypeString","alias":"TOWNNAME","length":8},{"name":"LI","type":"esriFieldTypeString","alias":"LI","length":8},{"name":"LIN","type":"esriFieldTypeString","alias":"LIN","length":12},{"name":"STREET","type":"esriFieldTypeString","alias":"STREET","length":20},{"name":"SECT","type":"esriFieldTypeString","alias":"SECT","length":8},{"name":"MAREA","type":"esriFieldTypeString","alias":"MAREA","length":12},{"name":"LANE","type":"esriFieldTypeString","alias":"LANE","length":10},{"name":"ALLEY","type":"esriFieldTypeString","alias":"ALLEY","length":10},{"name":"HOUSE_NO","type":"esriFieldTypeString","alias":"HOUSE_NO","length":20},{"name":"E_COORD97","type":"esriFieldTypeDouble","alias":"E_COORD97"},{"name":"N_COORD97","type":"esriFieldTypeDouble","alias":"N_COORD97"},{"name":"ADDRESS","type":"esriFieldTypeString","alias":"ADDRESS","length":50},{"name":"OBJECTID","type":"esriFieldTypeOID","alias":"OBJECTID"}],"features":[{"attributes":{"ID":39801,"DIS_CODE":0,"TOWNNAME":"善化區","LI":"小新里","LIN":"14鄰","STREET":" ","SECT":" ","MAREA":"小新營","LANE":" ","ALLEY":" ","HOUSE_NO":"１１１之１６號","E_COORD97":179791.79000000001,"N_COORD97":2558008.02,"ADDRESS":"小新營１１１之１６號","OBJECTID":39801},"geometry":{"x":179791.79000000097,"y":2558008.0199999996}},{"attributes":{"ID":39802,"DIS_CODE":0,"TOWNNAME":"善化區","LI":"六德里","LIN":"14鄰","STREET":" ","SECT":" ","MAREA":"六分寮","LANE":" ","ALLEY":" ","HOUSE_NO":"３１３號","E_COORD97":178484.26999999999,"N_COORD97":2561529.25,"ADDRESS":"六分寮３１３號","OBJECTID":39802},"geometry":{"x":178484.27000000048,"y":2561529.25}},{"attributes":{"ID":39803,"DIS_CODE":0,"TOWNNAME":"東區","LI":"路東里","LIN":"7鄰","STREET":"大同路","SECT":"二段","MAREA":" ","LANE":"６１巷","ALLEY":"１弄","HOUSE_NO":"８號","E_COORD97":169390.59,"N_COORD97":2542311.3700000001,"ADDRESS":"大同路二段６１巷１弄８號","OBJECTID":39803},"geometry":{"x":169390.58999999892,"y":2542311.3700000029}},{"attributes":{"ID":39804,"DIS_CODE":0,"TOWNNAME":"善化區","LI":"小新里","LIN":"14鄰","STREET":" ","SECT":" ","MAREA":"小新營","LANE":" ","ALLEY":" ","HOUSE_NO":"１１９號","E_COORD97":179754.48999999999,"N_COORD97":2558174,"ADDRESS":"小新營１１９號","OBJECTID":39804},"geometry":{"x":179754.49000000209,"y":2558174}},{"attributes":{"ID":39805,"DIS_CODE":0,"TOWNNAME":"善化區","LI":"牛庄里","LIN":"14鄰","STREET":" ","SECT":" ","MAREA":"牛庄","LANE":" ","ALLEY":" ","HOUSE_NO":"１４５號之６","E_COORD97":179877.67999999999,"N_COORD97":2559754.52,"ADDRESS":"牛庄１４５號之６","OBJECTID":39805},"geometry":{"x":179877.6799999997,"y":2559754.5199999996}},{"attributes":{"ID":39806,"DIS_CODE":0,"TOWNNAME":"安南區","LI":"新順里","LIN":"14鄰","STREET":"永安路","SECT":" ","MAREA":" ","LANE":" ","ALLEY":" ","HOUSE_NO":"１０號","E_COORD97":169896.44,"N_COORD97":2549571.8799999999,"ADDRESS":"永安路１０號","OBJECTID":39806},"geometry":{"x":169896.44000000134,"y":2549571.8800000008}},{"attributes":{"ID":39807,"DIS_CODE":0,"TOWNNAME":"善化區","LI":"光文里","LIN":"14鄰","STREET":"民生路","SECT":" ","MAREA":" ","LANE":" ","ALLEY":" ","HOUSE_NO":"１８２號","E_COORD97":178447.26999999999,"N_COORD97":2558967.5,"ADDRESS":"民生路１８２號","OBJECTID":39807},"geometry":{"x":178447.27000000048,"y":2558967.5}},{"attributes":{"ID":39808,"DIS_CODE":0,"TOWNNAME":"善化區","LI":"文正里","LIN":"14鄰","STREET":"興農路","SECT":" ","MAREA":" ","LANE":" ","ALLEY":" ","HOUSE_NO":"９６號之１","E_COORD97":176320.37,"N_COORD97":2559151.02,"ADDRESS":"興農路９６號之１","OBJECTID":39808},"geometry":{"x":176320.37000000011,"y":2559151.0199999996}},{"attributes":{"ID":39809,"DIS_CODE":0,"TOWNNAME":"善化區","LI":"溪美里","LIN":"14鄰","STREET":" ","SECT":" ","MAREA":"溪尾","LANE":" ","ALLEY":" ","HOUSE_NO":"１３２號之１","E_COORD97":176954.45999999999,"N_COORD97":2561392.27,"ADDRESS":"溪尾１３２號之１","OBJECTID":39809},"geometry":{"x":176954.46000000089,"y":2561392.2700000014}},{"attributes":{"ID":39810,"DIS_CODE":0,"TOWNNAME":"善化區","LI":"牛庄里","LIN":"14鄰","STREET":" ","SECT":" ","MAREA":"牛庄","LANE":" ","ALLEY":" ","HOUSE_NO":"１４６號之２","E_COORD97":180006.29999999999,"N_COORD97":2559741.27,"ADDRESS":"牛庄１４６號之２","OBJECTID":39810},"geometry":{"x":180006.30000000168,"y":2559741.2700000014}},{"attributes":{"ID":39811,"DIS_CODE":0,"TOWNNAME":"善化區","LI":"胡家里","LIN":"14鄰","STREET":" ","SECT":" ","MAREA":"胡厝寮","LANE":" ","ALLEY":" ","HOUSE_NO":"１３３號","E_COORD97":175395.45999999999,"N_COORD97":2560803.5,"ADDRESS":"胡厝寮１３３號","OBJECTID":39811},"geometry":{"x":175395.45999999996,"y":2560803.5000000037}},{"attributes":{"ID":39812,"DIS_CODE":0,"TOWNNAME":"善化區","LI":"胡家里","LIN":"14鄰","STREET":" ","SECT":" ","MAREA":"胡厝寮","LANE":" ","ALLEY":" ","HOUSE_NO":"１３２號","E_COORD97":175399.23000000001,"N_COORD97":2560784.25,"ADDRESS":"胡厝寮１３２號","OBJECTID":39812},"geometry":{"x":175399.23000000045,"y":2560784.25}},{"attributes":{"ID":39813,"DIS_CODE":0,"TOWNNAME":"善化區","LI":"六德里","LIN":"14鄰","STREET":" ","SECT":" ","MAREA":"六分寮","LANE":" ","ALLEY":" ","HOUSE_NO":"３１５號","E_COORD97":178439.41,"N_COORD97":2561532.75,"ADDRESS":"六分寮３１５號","OBJECTID":39813},"geometry":{"x":178439.41000000201,"y":2561532.75}},{"attributes":{"ID":39814,"DIS_CODE":0,"TOWNNAME":"善化區","LI":"胡家里","LIN":"14鄰","STREET":" ","SECT":" ","MAREA":"胡厝寮","LANE":" ","ALLEY":" ","HOUSE_NO":"１２８號","E_COORD97":175425.89000000001,"N_COORD97":2560831,"ADDRESS":"胡厝寮１２８號","OBJECTID":39814},"geometry":{"x":175425.88999999966,"y":2560831.0000000019}},{"attributes":{"ID":39815,"DIS_CODE":0,"TOWNNAME":"善化區","LI":"胡家里","LIN":"14鄰","STREET":" ","SECT":" ","MAREA":"胡厝寮","LANE":" ","ALLEY":" ","HOUSE_NO":"１２６號","E_COORD97":175455.04999999999,"N_COORD97":2560826.5,"ADDRESS":"胡厝寮１２６號","OBJECTID":39815},"geometry":{"x":175455.05000000075,"y":2560826.5}},{"attributes":{"ID":39816,"DIS_CODE":0,"TOWNNAME":"善化區","LI":"溪美里","LIN":"14鄰","STREET":" ","SECT":" ","MAREA":"溪尾","LANE":" ","ALLEY":" ","HOUSE_NO":"１３０號之５","E_COORD97":176943.95999999999,"N_COORD97":2561386.02,"ADDRESS":"溪尾１３０號之５","OBJECTID":39816},"geometry":{"x":176943.96000000089,"y":2561386.0200000033}},{"attributes":{"ID":39817,"DIS_CODE":0,"TOWNNAME":"善化區","LI":"牛庄里","LIN":"14鄰","STREET":" ","SECT":" ","MAREA":"牛庄","LANE":" ","ALLEY":" ","HOUSE_NO":"１４５號之８","E_COORD97":179911.01999999999,"N_COORD97":2559716.02,"ADDRESS":"牛庄１４５號之８","OBJECTID":39817},"geometry":{"x":179911.01999999955,"y":2559716.0199999996}},{"attributes":{"ID":39818,"DIS_CODE":0,"TOWNNAME":"善化區","LI":"溪美里","LIN":"14鄰","STREET":" ","SECT":" ","MAREA":"溪尾","LANE":" ","ALLEY":" ","HOUSE_NO":"１２８號之１","E_COORD97":176892.32000000001,"N_COORD97":2561367.77,"ADDRESS":"溪尾１２８號之１","OBJECTID":39818},"geometry":{"x":176892.3200000003,"y":2561367.7700000014}},{"attributes":{"ID":39819,"DIS_CODE":0,"TOWNNAME":"善化區","LI":"田寮里","LIN":"14鄰","STREET":" ","SECT":" ","MAREA":"六分寮","LANE":" ","ALLEY":" ","HOUSE_NO":"１５１號","E_COORD97":178699.20999999999,"N_COORD97":2561476.25,"ADDRESS":"六分寮１５１號","OBJECTID":39819},"geometry":{"x":178699.20999999996,"y":2561476.2500000037}},{"attributes":{"ID":39820,"DIS_CODE":0,"TOWNNAME":"善化區","LI":"小新里","LIN":"14鄰","STREET":" ","SECT":" ","MAREA":"小新營","LANE":" ","ALLEY":" ","HOUSE_NO":"１１８號之１","E_COORD97":179769.78,"N_COORD97":2558136.27,"ADDRESS":"小新營１１８號之１","OBJECTID":39820},"geometry":{"x":179769.78000000119,"y":2558136.2700000033}},{"attributes":{"ID":39821,"DIS_CODE":0,"TOWNNAME":"善化區","LI":"小新里","LIN":"14鄰","STREET":" ","SECT":" ","MAREA":"小新營","LANE":" ","ALLEY":" ","HOUSE_NO":"１１１號之２６","E_COORD97":179792.89999999999,"N_COORD97":2558023.27,"ADDRESS":"小新營１１１號之２６","OBJECTID":39821},"geometry":{"x":179792.9000000013,"y":2558023.2699999996}},{"attributes":{"ID":39822,"DIS_CODE":0,"TOWNNAME":"善化區","LI":"小新里","LIN":"14鄰","STREET":" ","SECT":" ","MAREA":"小新營","LANE":" ","ALLEY":" ","HOUSE_NO":"１１１之２８號","E_COORD97":179784.35000000001,"N_COORD97":2558023.77,"ADDRESS":"小新營１１１之２８號","OBJECTID":39822},"geometry":{"x":179784.35000000056,"y":2558023.7699999996}},{"attributes":{"ID":39823,"DIS_CODE":0,"TOWNNAME":"南化區","LI":"小崙里","LIN":"7鄰","STREET":" ","SECT":" ","MAREA":"小崙","LANE":" ","ALLEY":" ","HOUSE_NO":"８０號","E_COORD97":198472.37,"N_COORD97":2549715.75,"ADDRESS":"小崙８０號","OBJECTID":39823},"geometry":{"x":198472.37000000104,"y":2549715.7500000019}},{"attributes":{"ID":39824,"DIS_CODE":0,"TOWNNAME":"南化區","LI":"玉山里","LIN":"7鄰","STREET":" ","SECT":" ","MAREA":"玉山","LANE":" ","ALLEY":" ","HOUSE_NO":"７７號","E_COORD97":200794.23999999999,"N_COORD97":2552843.8599999999,"ADDRESS":"玉山７７號","OBJECTID":39824},"geometry":{"x":200794.24000000115,"y":2552843.8600000013}},{"attributes":{"ID":39825,"DIS_CODE":0,"TOWNNAME":"左鎮區","LI":"睦光里","LIN":"7鄰","STREET":" ","SECT":" ","MAREA":"睦光","LANE":" ","ALLEY":" ","HOUSE_NO":"７０號之１","E_COORD97":190214.98000000001,"N_COORD97":2549655.2999999998,"ADDRESS":"睦光７０號之１","OBJECTID":39825},"geometry":{"x":190214.98000000045,"y":2549655.3000000026}},{"attributes":{"ID":39826,"DIS_CODE":0,"TOWNNAME":"東區","LI":"路東里","LIN":"7鄰","STREET":"大同路","SECT":"二段","MAREA":" ","LANE":"６１巷","ALLEY":"２１弄","HOUSE_NO":"１１號","E_COORD97":169391.41,"N_COORD97":2542300.79,"ADDRESS":"大同路二段６１巷２１弄１１號","OBJECTID":39826},"geometry":{"x":169391.41000000015,"y":2542300.7899999991}},{"attributes":{"ID":39827,"DIS_CODE":0,"TOWNNAME":"左鎮區","LI":"中正里","LIN":"7鄰","STREET":" ","SECT":" ","MAREA":"中正","LANE":" ","ALLEY":" ","HOUSE_NO":"７９號之６","E_COORD97":189386.10000000001,"N_COORD97":2550996.2999999998,"ADDRESS":"中正７９號之６","OBJECTID":39827},"geometry":{"x":189386.09999999963,"y":2550996.3000000007}},{"attributes":{"ID":39828,"DIS_CODE":0,"TOWNNAME":"善化區","LI":"坐駕里","LIN":"14鄰","STREET":"和平路","SECT":" ","MAREA":" ","LANE":"１５巷","ALLEY":" ","HOUSE_NO":"５號","E_COORD97":178131.89999999999,"N_COORD97":2558600.25,"ADDRESS":"和平路１５巷５號","OBJECTID":39828},"geometry":{"x":178131.9000000013,"y":2558600.25}},{"attributes":{"ID":39829,"DIS_CODE":0,"TOWNNAME":"善化區","LI":"文昌里","LIN":"14鄰","STREET":"永福路","SECT":" ","MAREA":" ","LANE":" ","ALLEY":" ","HOUSE_NO":"１６號","E_COORD97":177599.60999999999,"N_COORD97":2558913,"ADDRESS":"永福路１６號","OBJECTID":39829},"geometry":{"x":177599.61000000127,"y":2558913.0000000019}},{"attributes":{"ID":39830,"DIS_CODE":0,"TOWNNAME":"善化區","LI":"文正里","LIN":"14鄰","STREET":"興農路","SECT":" ","MAREA":" ","LANE":" ","ALLEY":" ","HOUSE_NO":"８４號","E_COORD97":176380.51999999999,"N_COORD97":2559166.0099999998,"ADDRESS":"興農路８４號","OBJECTID":39830},"geometry":{"x":176380.52000000048,"y":2559166.0100000016}},{"attributes":{"ID":39831,"DIS_CODE":0,"TOWNNAME":"善化區","LI":"小新里","LIN":"14鄰","STREET":" ","SECT":" ","MAREA":"小新營","LANE":" ","ALLEY":" ","HOUSE_NO":"１２３號","E_COORD97":179798.69,"N_COORD97":2558208.25,"ADDRESS":"小新營１２３號","OBJECTID":39831},"geometry":{"x":179798.69000000041,"y":2558208.2500000019}},{"attributes":{"ID":39832,"DIS_CODE":0,"TOWNNAME":"東區","LI":"路東里","LIN":"7鄰","STREET":"大同路","SECT":"二段","MAREA":" ","LANE":"６１巷","ALLEY":"２１弄","HOUSE_NO":"１２號","E_COORD97":169393.04000000001,"N_COORD97":2542293.1899999999,"ADDRESS":"大同路二段６１巷２１弄１２號","OBJECTID":39832},"geometry":{"x":169393.0400000019,"y":2542293.1900000032}},{"attributes":{"ID":39833,"DIS_CODE":0,"TOWNNAME":"善化區","LI":"小新里","LIN":"14鄰","STREET":" ","SECT":" ","MAREA":"小新營","LANE":" ","ALLEY":" ","HOUSE_NO":"１１１之１２號","E_COORD97":179764.98999999999,"N_COORD97":2558003.02,"ADDRESS":"小新營１１１之１２號","OBJECTID":39833},"geometry":{"x":179764.99000000115,"y":2558003.0200000014}},{"attributes":{"ID":39834,"DIS_CODE":0,"TOWNNAME":"善化區","LI":"小新里","LIN":"14鄰","STREET":" ","SECT":" ","MAREA":"小新營","LANE":" ","ALLEY":" ","HOUSE_NO":"１１１號之２４","E_COORD97":179801.10000000001,"N_COORD97":2558023.02,"ADDRESS":"小新營１１１號之２４","OBJECTID":39834},"geometry":{"x":179801.10000000056,"y":2558023.0200000014}},{"attributes":{"ID":39835,"DIS_CODE":0,"TOWNNAME":"東區","LI":"路東里","LIN":"7鄰","STREET":"大同路","SECT":"二段","MAREA":" ","LANE":"６１巷","ALLEY":"２１弄","HOUSE_NO":"３號","E_COORD97":169403.10999999999,"N_COORD97":2542252.5800000001,"ADDRESS":"大同路二段６１巷２１弄３號","OBJECTID":39835},"geometry":{"x":169403.11000000127,"y":2542252.5800000001}},{"attributes":{"ID":39836,"DIS_CODE":0,"TOWNNAME":"東區","LI":"路東里","LIN":"7鄰","STREET":"大同路","SECT":"二段","MAREA":" ","LANE":"６１巷","ALLEY":"２１弄","HOUSE_NO":"４號","E_COORD97":169405.48000000001,"N_COORD97":2542260.8500000001,"ADDRESS":"大同路二段６１巷２１弄４號","OBJECTID":39836},"geometry":{"x":169405.48000000045,"y":2542260.8499999996}},{"attributes":{"ID":39837,"DIS_CODE":0,"TOWNNAME":"東區","LI":"路東里","LIN":"7鄰","STREET":"大同路","SECT":"二段","MAREA":" ","LANE":"６１巷","ALLEY":"２１弄","HOUSE_NO":"５號","E_COORD97":169407.45000000001,"N_COORD97":2542271.8700000001,"ADDRESS":"大同路二段６１巷２１弄５號","OBJECTID":39837},"geometry":{"x":169407.45000000112,"y":2542271.870000001}},{"attributes":{"ID":39838,"DIS_CODE":0,"TOWNNAME":"善化區","LI":"六德里","LIN":"14鄰","STREET":" ","SECT":" ","MAREA":"六分寮","LANE":" ","ALLEY":" ","HOUSE_NO":"３１１號","E_COORD97":178508.70999999999,"N_COORD97":2561555.5,"ADDRESS":"六分寮３１１號","OBJECTID":39838},"geometry":{"x":178508.71000000089,"y":2561555.5}},{"attributes":{"ID":39839,"DIS_CODE":0,"TOWNNAME":"東區","LI":"路東里","LIN":"7鄰","STREET":"大同路","SECT":"二段","MAREA":" ","LANE":"６１巷","ALLEY":"２１弄","HOUSE_NO":"６號","E_COORD97":169408.63,"N_COORD97":2542280.5299999998,"ADDRESS":"大同路二段６１巷２１弄６號","OBJECTID":39839},"geometry":{"x":169408.62999999989,"y":2542280.5299999975}},{"attributes":{"ID":39840,"DIS_CODE":0,"TOWNNAME":"善化區","LI":"小新里","LIN":"14鄰","STREET":" ","SECT":" ","MAREA":"小新營","LANE":" ","ALLEY":" ","HOUSE_NO":"１２７號","E_COORD97":179787.84,"N_COORD97":2558220.5,"ADDRESS":"小新營１２７號","OBJECTID":39840},"geometry":{"x":179787.84000000078,"y":2558220.5000000019}},{"attributes":{"ID":39841,"DIS_CODE":0,"TOWNNAME":"善化區","LI":"小新里","LIN":"14鄰","STREET":" ","SECT":" ","MAREA":"小新營","LANE":" ","ALLEY":" ","HOUSE_NO":"１１１號之８","E_COORD97":179770.32000000001,"N_COORD97":2557961.27,"ADDRESS":"小新營１１１號之８","OBJECTID":39841},"geometry":{"x":179770.3200000003,"y":2557961.2700000014}},{"attributes":{"ID":39842,"DIS_CODE":0,"TOWNNAME":"善化區","LI":"六德里","LIN":"14鄰","STREET":" ","SECT":" ","MAREA":"六分寮","LANE":" ","ALLEY":" ","HOUSE_NO":"３１２號","E_COORD97":178491.85000000001,"N_COORD97":2561549.5,"ADDRESS":"六分寮３１２號","OBJECTID":39842},"geometry":{"x":178491.85000000149,"y":2561549.5000000019}},{"attributes":{"ID":39843,"DIS_CODE":0,"TOWNNAME":"善化區","LI":"小新里","LIN":"14鄰","STREET":" ","SECT":" ","MAREA":"小新營","LANE":" ","ALLEY":" ","HOUSE_NO":"１１１號之２５","E_COORD97":179796.94,"N_COORD97":2558023.27,"ADDRESS":"小新營１１１號之２５","OBJECTID":39843},"geometry":{"x":179796.94000000041,"y":2558023.2699999996}},{"attributes":{"ID":39844,"DIS_CODE":0,"TOWNNAME":"善化區","LI":"小新里","LIN":"14鄰","STREET":" ","SECT":" ","MAREA":"小新營","LANE":" ","ALLEY":" ","HOUSE_NO":"１１１號之３１","E_COORD97":179766.73999999999,"N_COORD97":2558026.27,"ADDRESS":"小新營１１１號之３１","OBJECTID":39844},"geometry":{"x":179766.74000000115,"y":2558026.2699999996}},{"attributes":{"ID":39845,"DIS_CODE":0,"TOWNNAME":"東區","LI":"路東里","LIN":"7鄰","STREET":"大同路","SECT":"二段","MAREA":" ","LANE":"６１巷","ALLEY":"２１弄","HOUSE_NO":"７號","E_COORD97":169410.98999999999,"N_COORD97":2542290.3700000001,"ADDRESS":"大同路二段６１巷２１弄７號","OBJECTID":39845},"geometry":{"x":169410.99000000115,"y":2542290.3700000048}},{"attributes":{"ID":39846,"DIS_CODE":0,"TOWNNAME":"東區","LI":"路東里","LIN":"7鄰","STREET":"大同路","SECT":"二段","MAREA":" ","LANE":"６１巷","ALLEY":"２１弄","HOUSE_NO":"８號","E_COORD97":169410.42999999999,"N_COORD97":2542298.3399999999,"ADDRESS":"大同路二段６１巷２１弄８號","OBJECTID":39846},"geometry":{"x":169410.43000000063,"y":2542298.3399999999}},{"attributes":{"ID":39847,"DIS_CODE":0,"TOWNNAME":"善化區","LI":"文正里","LIN":"14鄰","STREET":"興農路","SECT":" ","MAREA":" ","LANE":" ","ALLEY":" ","HOUSE_NO":"２３８號之２","E_COORD97":175849.89000000001,"N_COORD97":2559082.27,"ADDRESS":"興農路２３８號之２","OBJECTID":39847},"geometry":{"x":175849.88999999966,"y":2559082.2700000033}},{"attributes":{"ID":39848,"DIS_CODE":0,"TOWNNAME":"善化區","LI":"文正里","LIN":"14鄰","STREET":"興農路","SECT":" ","MAREA":" ","LANE":" ","ALLEY":" ","HOUSE_NO":"２３８號之５","E_COORD97":175850.35000000001,"N_COORD97":2559099.02,"ADDRESS":"興農路２３８號之５","OBJECTID":39848},"geometry":{"x":175850.34999999963,"y":2559099.0199999996}},{"attributes":{"ID":39849,"DIS_CODE":0,"TOWNNAME":"善化區","LI":"文昌里","LIN":"14鄰","STREET":"文賢街","SECT":" ","MAREA":" ","LANE":" ","ALLEY":" ","HOUSE_NO":"１８號","E_COORD97":177636.32000000001,"N_COORD97":2558930.5299999998,"ADDRESS":"文賢街１８號","OBJECTID":39849},"geometry":{"x":177636.3200000003,"y":2558930.5299999993}},{"attributes":{"ID":39850,"DIS_CODE":0,"TOWNNAME":"善化區","LI":"文正里","LIN":"14鄰","STREET":"興農路","SECT":" ","MAREA":" ","LANE":" ","ALLEY":" ","HOUSE_NO":"２３６號","E_COORD97":175873.45999999999,"N_COORD97":2559119.0099999998,"ADDRESS":"興農路２３６號","OBJECTID":39850},"geometry":{"x":175873.45999999996,"y":2559119.0100000016}},{"attributes":{"ID":39851,"DIS_CODE":0,"TOWNNAME":"善化區","LI":"文正里","LIN":"14鄰","STREET":"興農路","SECT":" ","MAREA":" ","LANE":" ","ALLEY":" ","HOUSE_NO":"２３８號之６","E_COORD97":175849.70999999999,"N_COORD97":2559103.77,"ADDRESS":"興農路２３８號之６","OBJECTID":39851},"geometry":{"x":175849.70999999996,"y":2559103.7700000014}},{"attributes":{"ID":39852,"DIS_CODE":0,"TOWNNAME":"善化區","LI":"文正里","LIN":"14鄰","STREET":"興農路","SECT":" ","MAREA":" ","LANE":" ","ALLEY":" ","HOUSE_NO":"２３８號之７","E_COORD97":175849.12,"N_COORD97":2559108.52,"ADDRESS":"興農路２３８號之７","OBJECTID":39852},"geometry":{"x":175849.12000000011,"y":2559108.5200000014}},{"attributes":{"ID":39853,"DIS_CODE":0,"TOWNNAME":"東區","LI":"路東里","LIN":"7鄰","STREET":"大同路","SECT":"二段","MAREA":" ","LANE":"６１巷","ALLEY":"２１弄","HOUSE_NO":"９號","E_COORD97":169408.79999999999,"N_COORD97":2542310.8300000001,"ADDRESS":"大同路二段６１巷２１弄９號","OBJECTID":39853},"geometry":{"x":169408.79999999981,"y":2542310.8300000019}},{"attributes":{"ID":39854,"DIS_CODE":0,"TOWNNAME":"善化區","LI":"小新里","LIN":"14鄰","STREET":" ","SECT":" ","MAREA":"小新營","LANE":" ","ALLEY":" ","HOUSE_NO":"１１１之１１號","E_COORD97":179771.13,"N_COORD97":2557988.77,"ADDRESS":"小新營１１１之１１號","OBJECTID":39854},"geometry":{"x":179771.12999999989,"y":2557988.7699999996}},{"attributes":{"ID":39855,"DIS_CODE":0,"TOWNNAME":"善化區","LI":"小新里","LIN":"14鄰","STREET":" ","SECT":" ","MAREA":"小新營","LANE":" ","ALLEY":" ","HOUSE_NO":"１２０號之１","E_COORD97":179760.26000000001,"N_COORD97":2558160.02,"ADDRESS":"小新營１２０號之１","OBJECTID":39855},"geometry":{"x":179760.25999999978,"y":2558160.0199999996}},{"attributes":{"ID":39856,"DIS_CODE":0,"TOWNNAME":"善化區","LI":"小新里","LIN":"14鄰","STREET":" ","SECT":" ","MAREA":"小新營","LANE":" ","ALLEY":" ","HOUSE_NO":"１２８號","E_COORD97":179802.17999999999,"N_COORD97":2558242.5,"ADDRESS":"小新營１２８號","OBJECTID":39856},"geometry":{"x":179802.18000000063,"y":2558242.5}},{"attributes":{"ID":39857,"DIS_CODE":0,"TOWNNAME":"歸仁區","LI":"看東里","LIN":"7鄰","STREET":"成功路","SECT":"一段","MAREA":" ","LANE":"１５５巷","ALLEY":"１６弄","HOUSE_NO":"５號","E_COORD97":178576.39999999999,"N_COORD97":2540153.4500000002,"ADDRESS":"成功路一段１５５巷１６弄５號","OBJECTID":39857},"geometry":{"x":178576.40000000037,"y":2540153.4500000011}},{"attributes":{"ID":39858,"DIS_CODE":0,"TOWNNAME":"安平區","LI":"石門里","LIN":"5鄰","STREET":"安北路","SECT":" ","MAREA":" ","LANE":"１６巷","ALLEY":"１７弄","HOUSE_NO":"８號","E_COORD97":164712.19,"N_COORD97":2544548.5499999998,"ADDRESS":"安北路１６巷１７弄８號","OBJECTID":39858},"geometry":{"x":164712.19000000134,"y":2544548.5500000007}},{"attributes":{"ID":39859,"DIS_CODE":0,"TOWNNAME":"善化區","LI":"牛庄里","LIN":"14鄰","STREET":" ","SECT":" ","MAREA":"牛庄","LANE":" ","ALLEY":" ","HOUSE_NO":"１４２號之３","E_COORD97":179956.17999999999,"N_COORD97":2559795.02,"ADDRESS":"牛庄１４２號之３","OBJECTID":39859},"geometry":{"x":179956.18000000063,"y":2559795.0199999996}},{"attributes":{"ID":39860,"DIS_CODE":0,"TOWNNAME":"安平區","LI":"石門里","LIN":"5鄰","STREET":"安北路","SECT":" ","MAREA":" ","LANE":"１６巷","ALLEY":"１７弄","HOUSE_NO":"９號","E_COORD97":164703.34,"N_COORD97":2544534.7599999998,"ADDRESS":"安北路１６巷１７弄９號","OBJECTID":39860},"geometry":{"x":164703.33999999985,"y":2544534.7600000016}},{"attributes":{"ID":39861,"DIS_CODE":0,"TOWNNAME":"安平區","LI":"石門里","LIN":"6鄰","STREET":"安北路","SECT":" ","MAREA":" ","LANE":"４０巷","ALLEY":"１７弄","HOUSE_NO":"１１號","E_COORD97":164571.67000000001,"N_COORD97":2544655.27,"ADDRESS":"安北路４０巷１７弄１１號","OBJECTID":39861},"geometry":{"x":164571.66999999993,"y":2544655.2699999996}},{"attributes":{"ID":39862,"DIS_CODE":0,"TOWNNAME":"北區","LI":"永祥里","LIN":"7鄰","STREET":"實踐街","SECT":" ","MAREA":" ","LANE":"３９巷","ALLEY":"３６弄","HOUSE_NO":"３６號","E_COORD97":169932.91,"N_COORD97":2546151.7200000002,"ADDRESS":"實踐街３９巷３６弄３６號","OBJECTID":39862},"geometry":{"x":169932.90999999922,"y":2546151.7200000007}},{"attributes":{"ID":39863,"DIS_CODE":0,"TOWNNAME":"北區","LI":"永祥里","LIN":"7鄰","STREET":"實踐街","SECT":" ","MAREA":" ","LANE":"３９巷","ALLEY":"３６弄","HOUSE_NO":"３８號","E_COORD97":169931.47,"N_COORD97":2546159.5600000001,"ADDRESS":"實踐街３９巷３６弄３８號","OBJECTID":39863},"geometry":{"x":169931.46999999974,"y":2546159.5600000005}},{"attributes":{"ID":39864,"DIS_CODE":0,"TOWNNAME":"北區","LI":"永祥里","LIN":"7鄰","STREET":"實踐街","SECT":" ","MAREA":" ","LANE":"３９巷","ALLEY":"３６弄","HOUSE_NO":"４０號","E_COORD97":169932.19,"N_COORD97":2546163.1600000001,"ADDRESS":"實踐街３９巷３６弄４０號","OBJECTID":39864},"geometry":{"x":169932.19000000134,"y":2546163.160000002}},{"attributes":{"ID":39865,"DIS_CODE":0,"TOWNNAME":"善化區","LI":"小新里","LIN":"14鄰","STREET":" ","SECT":" ","MAREA":"小新營","LANE":" ","ALLEY":" ","HOUSE_NO":"１２４號之１","E_COORD97":179750.85000000001,"N_COORD97":2558202.02,"ADDRESS":"小新營１２４號之１","OBJECTID":39865},"geometry":{"x":179750.84999999963,"y":2558202.0199999977}},{"attributes":{"ID":39866,"DIS_CODE":0,"TOWNNAME":"善化區","LI":"牛庄里","LIN":"14鄰","STREET":" ","SECT":" ","MAREA":"牛庄","LANE":" ","ALLEY":" ","HOUSE_NO":"１４２號","E_COORD97":179970.17000000001,"N_COORD97":2559827,"ADDRESS":"牛庄１４２號","OBJECTID":39866},"geometry":{"x":179970.17000000086,"y":2559827.0000000037}},{"attributes":{"ID":39867,"DIS_CODE":0,"TOWNNAME":"善化區","LI":"小新里","LIN":"14鄰","STREET":" ","SECT":" ","MAREA":"小新營","LANE":" ","ALLEY":" ","HOUSE_NO":"１１１之２７號","E_COORD97":179788.60000000001,"N_COORD97":2558023.52,"ADDRESS":"小新營１１１之２７號","OBJECTID":39867},"geometry":{"x":179788.5999999987,"y":2558023.5200000014}},{"attributes":{"ID":39868,"DIS_CODE":0,"TOWNNAME":"北區","LI":"永祥里","LIN":"7鄰","STREET":"實踐街","SECT":" ","MAREA":" ","LANE":"３９巷","ALLEY":"３６弄","HOUSE_NO":"４２號","E_COORD97":169934.10999999999,"N_COORD97":2546172.2000000002,"ADDRESS":"實踐街３９巷３６弄４２號","OBJECTID":39868},"geometry":{"x":169934.11000000127,"y":2546172.2000000011}},{"attributes":{"ID":39869,"DIS_CODE":0,"TOWNNAME":"北區","LI":"永祥里","LIN":"7鄰","STREET":"實踐街","SECT":" ","MAREA":" ","LANE":"３９巷","ALLEY":"３６弄","HOUSE_NO":"４４號","E_COORD97":169937.14999999999,"N_COORD97":2546184.8599999999,"ADDRESS":"實踐街３９巷３６弄４４號","OBJECTID":39869},"geometry":{"x":169937.1500000013,"y":2546184.8600000013}},{"attributes":{"ID":39870,"DIS_CODE":0,"TOWNNAME":"北區","LI":"永祥里","LIN":"7鄰","STREET":"實踐街","SECT":" ","MAREA":" ","LANE":"３９巷","ALLEY":"３６弄","HOUSE_NO":"４６號","E_COORD97":169938.03,"N_COORD97":2546189.4199999999,"ADDRESS":"實踐街３９巷３６弄４６號","OBJECTID":39870},"geometry":{"x":169938.03000000119,"y":2546189.4200000018}},{"attributes":{"ID":39871,"DIS_CODE":0,"TOWNNAME":"北區","LI":"永祥里","LIN":"7鄰","STREET":"實踐街","SECT":" ","MAREA":" ","LANE":"３９巷","ALLEY":"３６弄","HOUSE_NO":"４８號","E_COORD97":169939.88,"N_COORD97":2546198.6299999999,"ADDRESS":"實踐街３９巷３６弄４８號","OBJECTID":39871},"geometry":{"x":169939.88000000082,"y":2546198.6299999971}},{"attributes":{"ID":39872,"DIS_CODE":0,"TOWNNAME":"北區","LI":"永祥里","LIN":"7鄰","STREET":"實踐街","SECT":" ","MAREA":" ","LANE":"３９巷","ALLEY":"３６弄","HOUSE_NO":"５０號","E_COORD97":169940.70000000001,"N_COORD97":2546203.02,"ADDRESS":"實踐街３９巷３６弄５０號","OBJECTID":39872},"geometry":{"x":169940.70000000019,"y":2546203.0199999996}},{"attributes":{"ID":39873,"DIS_CODE":0,"TOWNNAME":"左鎮區","LI":"澄山里","LIN":"7鄰","STREET":" ","SECT":" ","MAREA":"澄山","LANE":" ","ALLEY":" ","HOUSE_NO":"７４號之１","E_COORD97":187408.73000000001,"N_COORD97":2547288.2999999998,"ADDRESS":"澄山７４號之１","OBJECTID":39873},"geometry":{"x":187408.73000000138,"y":2547288.3000000026}},{"attributes":{"ID":39874,"DIS_CODE":0,"TOWNNAME":"北區","LI":"永祥里","LIN":"7鄰","STREET":"實踐街","SECT":" ","MAREA":" ","LANE":"３９巷","ALLEY":"３６弄","HOUSE_NO":"５２號","E_COORD97":169942,"N_COORD97":2546211.6000000001,"ADDRESS":"實踐街３９巷３６弄５２號","OBJECTID":39874},"geometry":{"x":169942,"y":2546211.6000000015}},{"attributes":{"ID":39875,"DIS_CODE":0,"TOWNNAME":"善化區","LI":"文正里","LIN":"14鄰","STREET":"興農路","SECT":" ","MAREA":" ","LANE":" ","ALLEY":" ","HOUSE_NO":"８８之１號","E_COORD97":176353.16,"N_COORD97":2559165.27,"ADDRESS":"興農路８８之１號","OBJECTID":39875},"geometry":{"x":176353.16000000108,"y":2559165.2699999996}},{"attributes":{"ID":39876,"DIS_CODE":0,"TOWNNAME":"善化區","LI":"文正里","LIN":"14鄰","STREET":"興農路","SECT":" ","MAREA":" ","LANE":" ","ALLEY":" ","HOUSE_NO":"２３８號之１０","E_COORD97":175847.70999999999,"N_COORD97":2559122.52,"ADDRESS":"興農路２３８號之１０","OBJECTID":39876},"geometry":{"x":175847.71000000089,"y":2559122.5200000014}},{"attributes":{"ID":39877,"DIS_CODE":0,"TOWNNAME":"善化區","LI":"文正里","LIN":"14鄰","STREET":"興農路","SECT":" ","MAREA":" ","LANE":" ","ALLEY":" ","HOUSE_NO":"２３４號","E_COORD97":175892.87,"N_COORD97":2559111.2599999998,"ADDRESS":"興農路２３４號","OBJECTID":39877},"geometry":{"x":175892.87000000011,"y":2559111.2599999998}},{"attributes":{"ID":39878,"DIS_CODE":0,"TOWNNAME":"北區","LI":"永祥里","LIN":"7鄰","STREET":"實踐街","SECT":" ","MAREA":" ","LANE":"３９巷","ALLEY":"３６弄","HOUSE_NO":"５４號","E_COORD97":169943.38,"N_COORD97":2546216.0699999998,"ADDRESS":"實踐街３９巷３６弄５４號","OBJECTID":39878},"geometry":{"x":169943.38000000082,"y":2546216.0700000003}},{"attributes":{"ID":39879,"DIS_CODE":0,"TOWNNAME":"北區","LI":"永祥里","LIN":"7鄰","STREET":"實踐街","SECT":" ","MAREA":" ","LANE":"３９巷","ALLEY":"３６弄","HOUSE_NO":"５６號","E_COORD97":169945.42000000001,"N_COORD97":2546223.98,"ADDRESS":"實踐街３９巷３６弄５６號","OBJECTID":39879},"geometry":{"x":169945.41999999993,"y":2546223.9800000004}},{"attributes":{"ID":39880,"DIS_CODE":0,"TOWNNAME":"北區","LI":"永祥里","LIN":"7鄰","STREET":"實踐街","SECT":" ","MAREA":" ","LANE":"３９巷","ALLEY":"３６弄","HOUSE_NO":"５８號","E_COORD97":169946.23000000001,"N_COORD97":2546228.2000000002,"ADDRESS":"實踐街３９巷３６弄５８號","OBJECTID":39880},"geometry":{"x":169946.23000000045,"y":2546228.1999999993}},{"attributes":{"ID":39881,"DIS_CODE":0,"TOWNNAME":"北區","LI":"永祥里","LIN":"7鄰","STREET":"實踐街","SECT":" ","MAREA":" ","LANE":"３９巷","ALLEY":"３６弄","HOUSE_NO":"６０號","E_COORD97":169948.35000000001,"N_COORD97":2546236.8500000001,"ADDRESS":"實踐街３９巷３６弄６０號","OBJECTID":39881},"geometry":{"x":169948.35000000056,"y":2546236.8500000015}},{"attributes":{"ID":39882,"DIS_CODE":0,"TOWNNAME":"北區","LI":"永祥里","LIN":"7鄰","STREET":"實踐街","SECT":" ","MAREA":" ","LANE":"３９巷","ALLEY":"３６弄","HOUSE_NO":"１０號","E_COORD97":169929.44,"N_COORD97":2546123.3999999999,"ADDRESS":"實踐街３９巷３６弄１０號","OBJECTID":39882},"geometry":{"x":169929.44000000041,"y":2546123.4000000004}},{"attributes":{"ID":39883,"DIS_CODE":0,"TOWNNAME":"北區","LI":"永祥里","LIN":"7鄰","STREET":"實踐街","SECT":" ","MAREA":" ","LANE":"３９巷","ALLEY":"３６弄","HOUSE_NO":"１２號","E_COORD97":169929.22,"N_COORD97":2546119.3999999999,"ADDRESS":"實踐街３９巷３６弄１２號","OBJECTID":39883},"geometry":{"x":169929.22000000067,"y":2546119.4000000004}},{"attributes":{"ID":39884,"DIS_CODE":0,"TOWNNAME":"北區","LI":"永祥里","LIN":"7鄰","STREET":"實踐街","SECT":" ","MAREA":" ","LANE":"３９巷","ALLEY":"３６弄","HOUSE_NO":"１４號","E_COORD97":169928.48000000001,"N_COORD97":2546115.3700000001,"ADDRESS":"實踐街３９巷３６弄１４號","OBJECTID":39884},"geometry":{"x":169928.48000000138,"y":2546115.3700000029}},{"attributes":{"ID":39885,"DIS_CODE":0,"TOWNNAME":"北區","LI":"永祥里","LIN":"7鄰","STREET":"實踐街","SECT":" ","MAREA":" ","LANE":"３９巷","ALLEY":"３６弄","HOUSE_NO":"１６號","E_COORD97":169928.19,"N_COORD97":2546111.0800000001,"ADDRESS":"實踐街３９巷３６弄１６號","OBJECTID":39885},"geometry":{"x":169928.19000000134,"y":2546111.0800000001}},{"attributes":{"ID":39886,"DIS_CODE":0,"TOWNNAME":"北區","LI":"永祥里","LIN":"7鄰","STREET":"實踐街","SECT":" ","MAREA":" ","LANE":"３９巷","ALLEY":"３６弄","HOUSE_NO":"１８號","E_COORD97":169927.28,"N_COORD97":2546106.9900000002,"ADDRESS":"實踐街３９巷３６弄１８號","OBJECTID":39886},"geometry":{"x":169927.28000000212,"y":2546106.9900000021}},{"attributes":{"ID":39887,"DIS_CODE":0,"TOWNNAME":"北區","LI":"永祥里","LIN":"7鄰","STREET":"實踐街","SECT":" ","MAREA":" ","LANE":"３９巷","ALLEY":"３６弄","HOUSE_NO":"２０號","E_COORD97":169925.29000000001,"N_COORD97":2546096.8599999999,"ADDRESS":"實踐街３９巷３６弄２０號","OBJECTID":39887},"geometry":{"x":169925.2900000019,"y":2546096.8600000013}},{"attributes":{"ID":39888,"DIS_CODE":0,"TOWNNAME":"北區","LI":"永祥里","LIN":"7鄰","STREET":"實踐街","SECT":" ","MAREA":" ","LANE":"３９巷","ALLEY":"３６弄","HOUSE_NO":"２２號","E_COORD97":169937.73999999999,"N_COORD97":2546095.79,"ADDRESS":"實踐街３９巷３６弄２２號","OBJECTID":39888},"geometry":{"x":169937.74000000209,"y":2546095.7899999991}},{"attributes":{"ID":39889,"DIS_CODE":0,"TOWNNAME":"北區","LI":"永祥里","LIN":"7鄰","STREET":"實踐街","SECT":" ","MAREA":" ","LANE":"３９巷","ALLEY":"３６弄","HOUSE_NO":"２４號","E_COORD97":169938.84,"N_COORD97":2546101.5699999998,"ADDRESS":"實踐街３９巷３６弄２４號","OBJECTID":39889},"geometry":{"x":169938.84000000078,"y":2546101.5700000003}},{"attributes":{"ID":39890,"DIS_CODE":0,"TOWNNAME":"北區","LI":"永祥里","LIN":"7鄰","STREET":"實踐街","SECT":" ","MAREA":" ","LANE":"３９巷","ALLEY":"３６弄","HOUSE_NO":"２６號","E_COORD97":169939.5,"N_COORD97":2546110.48,"ADDRESS":"實踐街３９巷３６弄２６號","OBJECTID":39890},"geometry":{"x":169939.50000000093,"y":2546110.4800000023}},{"attributes":{"ID":39891,"DIS_CODE":0,"TOWNNAME":"北區","LI":"永祥里","LIN":"7鄰","STREET":"實踐街","SECT":" ","MAREA":" ","LANE":"３９巷","ALLEY":"３６弄","HOUSE_NO":"２８號","E_COORD97":169940.37,"N_COORD97":2546119.0800000001,"ADDRESS":"實踐街３９巷３６弄２８號","OBJECTID":39891},"geometry":{"x":169940.37000000104,"y":2546119.0800000038}},{"attributes":{"ID":39892,"DIS_CODE":0,"TOWNNAME":"北區","LI":"永祥里","LIN":"7鄰","STREET":"實踐街","SECT":" ","MAREA":" ","LANE":"３９巷","ALLEY":"３６弄","HOUSE_NO":"２號","E_COORD97":169930.60000000001,"N_COORD97":2546140.6499999999,"ADDRESS":"實踐街３９巷３６弄２號","OBJECTID":39892},"geometry":{"x":169930.59999999963,"y":2546140.6500000022}},{"attributes":{"ID":39893,"DIS_CODE":0,"TOWNNAME":"北區","LI":"永祥里","LIN":"7鄰","STREET":"實踐街","SECT":" ","MAREA":" ","LANE":"３９巷","ALLEY":"３６弄","HOUSE_NO":"３０號","E_COORD97":169941.39000000001,"N_COORD97":2546127.3500000001,"ADDRESS":"實踐街３９巷３６弄３０號","OBJECTID":39893},"geometry":{"x":169941.3900000006,"y":2546127.3500000015}},{"attributes":{"ID":39894,"DIS_CODE":0,"TOWNNAME":"北區","LI":"永祥里","LIN":"7鄰","STREET":"實踐街","SECT":" ","MAREA":" ","LANE":"３９巷","ALLEY":"３６弄","HOUSE_NO":"３２號","E_COORD97":169941.89999999999,"N_COORD97":2546136.3900000001,"ADDRESS":"實踐街３９巷３６弄３２號","OBJECTID":39894},"geometry":{"x":169941.90000000224,"y":2546136.3900000006}},{"attributes":{"ID":39895,"DIS_CODE":0,"TOWNNAME":"善化區","LI":"文正里","LIN":"14鄰","STREET":"興農路","SECT":" ","MAREA":" ","LANE":" ","ALLEY":" ","HOUSE_NO":"８號","E_COORD97":176626.57000000001,"N_COORD97":2559196.25,"ADDRESS":"興農路８號","OBJECTID":39895},"geometry":{"x":176626.57000000123,"y":2559196.25}},{"attributes":{"ID":39896,"DIS_CODE":0,"TOWNNAME":"善化區","LI":"文正里","LIN":"14鄰","STREET":"興農路","SECT":" ","MAREA":" ","LANE":" ","ALLEY":" ","HOUSE_NO":"２１６號之１","E_COORD97":175937.45999999999,"N_COORD97":2559115.27,"ADDRESS":"興農路２１６號之１","OBJECTID":39896},"geometry":{"x":175937.46000000089,"y":2559115.2699999996}},{"attributes":{"ID":39897,"DIS_CODE":0,"TOWNNAME":"善化區","LI":"小新里","LIN":"14鄰","STREET":" ","SECT":" ","MAREA":"小新營","LANE":" ","ALLEY":" ","HOUSE_NO":"１１９號之１","E_COORD97":179754.51000000001,"N_COORD97":2558181.02,"ADDRESS":"小新營１１９號之１","OBJECTID":39897},"geometry":{"x":179754.51000000071,"y":2558181.0199999996}},{"attributes":{"ID":39898,"DIS_CODE":0,"TOWNNAME":"新化區","LI":"唪口里","LIN":"4鄰","STREET":"大德路","SECT":" ","MAREA":" ","LANE":" ","ALLEY":" ","HOUSE_NO":"９２號之６","E_COORD97":178104.32999999999,"N_COORD97":2549498.2599999998,"ADDRESS":"大德路９２號之６","OBJECTID":39898},"geometry":{"x":178104.33000000194,"y":2549498.2600000016}},{"attributes":{"ID":39899,"DIS_CODE":0,"TOWNNAME":"善化區","LI":"小新里","LIN":"14鄰","STREET":" ","SECT":" ","MAREA":"小新營","LANE":" ","ALLEY":" ","HOUSE_NO":"１１１之１４號","E_COORD97":179783.32999999999,"N_COORD97":2558008.27,"ADDRESS":"小新營１１１之１４號","OBJECTID":39899},"geometry":{"x":179783.33000000101,"y":2558008.2700000014}},{"attributes":{"ID":39900,"DIS_CODE":0,"TOWNNAME":"善化區","LI":"小新里","LIN":"14鄰","STREET":" ","SECT":" ","MAREA":"小新營","LANE":" ","ALLEY":" ","HOUSE_NO":"１２４號","E_COORD97":179773.92999999999,"N_COORD97":2558204.75,"ADDRESS":"小新營１２４號","OBJECTID":39900},"geometry":{"x":179773.9299999997,"y":2558204.7500000037}},{"attributes":{"ID":39901,"DIS_CODE":0,"TOWNNAME":"善化區","LI":"六德里","LIN":"14鄰","STREET":" ","SECT":" ","MAREA":"六分寮","LANE":" ","ALLEY":" ","HOUSE_NO":"３１６號","E_COORD97":178451.62,"N_COORD97":2561505.25,"ADDRESS":"六分寮３１６號","OBJECTID":39901},"geometry":{"x":178451.62000000197,"y":2561505.25}},{"attributes":{"ID":39902,"DIS_CODE":0,"TOWNNAME":"善化區","LI":"小新里","LIN":"14鄰","STREET":" ","SECT":" ","MAREA":"小新營","LANE":" ","ALLEY":" ","HOUSE_NO":"１１１之２１號","E_COORD97":179812.88,"N_COORD97":2558007.02,"ADDRESS":"小新營１１１之２１號","OBJECTID":39902},"geometry":{"x":179812.88000000082,"y":2558007.0200000014}},{"attributes":{"ID":39903,"DIS_CODE":0,"TOWNNAME":"左鎮區","LI":"中正里","LIN":"7鄰","STREET":" ","SECT":" ","MAREA":"中正","LANE":" ","ALLEY":" ","HOUSE_NO":"７９號之１","E_COORD97":189365.39999999999,"N_COORD97":2550988.2999999998,"ADDRESS":"中正７９號之１","OBJECTID":39903},"geometry":{"x":189365.4000000013,"y":2550988.3000000026}},{"attributes":{"ID":39904,"DIS_CODE":0,"TOWNNAME":"左鎮區","LI":"中正里","LIN":"7鄰","STREET":" ","SECT":" ","MAREA":"中正","LANE":" ","ALLEY":" ","HOUSE_NO":"７８號之１３","E_COORD97":189363.25,"N_COORD97":2550948.2999999998,"ADDRESS":"中正７８號之１３","OBJECTID":39904},"geometry":{"x":189363.25000000093,"y":2550948.3000000007}},{"attributes":{"ID":39905,"DIS_CODE":0,"TOWNNAME":"仁德區","LI":"仁愛里","LIN":"14鄰","STREET":" ","SECT":" ","MAREA":"仁愛","LANE":" ","ALLEY":" ","HOUSE_NO":"２９９號","E_COORD97":170263.72411800001,"N_COORD97":2539901.2949999999,"ADDRESS":"仁愛２９９號","OBJECTID":39905},"geometry":{"x":170263.72411800176,"y":2539901.2950000037}},{"attributes":{"ID":39906,"DIS_CODE":0,"TOWNNAME":"官田區","LI":"東庄里","LIN":"14鄰","STREET":" ","SECT":" ","MAREA":"西庄","LANE":" ","ALLEY":" ","HOUSE_NO":"１８４號","E_COORD97":178073.48999999999,"N_COORD97":2565062.8399999999,"ADDRESS":"西庄１８４號","OBJECTID":39906},"geometry":{"x":178073.49000000115,"y":2565062.8400000017}},{"attributes":{"ID":39907,"DIS_CODE":0,"TOWNNAME":"官田區","LI":"東庄里","LIN":"14鄰","STREET":" ","SECT":" ","MAREA":"西庄","LANE":" ","ALLEY":" ","HOUSE_NO":"１８５號","E_COORD97":178053.60000000001,"N_COORD97":2565076.1000000001,"ADDRESS":"西庄１８５號","OBJECTID":39907},"geometry":{"x":178053.60000000056,"y":2565076.0999999996}},{"attributes":{"ID":39908,"DIS_CODE":0,"TOWNNAME":"官田區","LI":"東庄里","LIN":"14鄰","STREET":" ","SECT":" ","MAREA":"西庄","LANE":" ","ALLEY":" ","HOUSE_NO":"１８６號","E_COORD97":178037.44,"N_COORD97":2565051.1699999999,"ADDRESS":"西庄１８６號","OBJECTID":39908},"geometry":{"x":178037.44000000041,"y":2565051.1700000018}},{"attributes":{"ID":39909,"DIS_CODE":0,"TOWNNAME":"官田區","LI":"東庄里","LIN":"14鄰","STREET":" ","SECT":" ","MAREA":"西庄","LANE":" ","ALLEY":" ","HOUSE_NO":"１８７號","E_COORD97":178060.23000000001,"N_COORD97":2565043.1400000001,"ADDRESS":"西庄１８７號","OBJECTID":39909},"geometry":{"x":178060.23000000138,"y":2565043.1400000006}},{"attributes":{"ID":39910,"DIS_CODE":0,"TOWNNAME":"官田區","LI":"東庄里","LIN":"14鄰","STREET":" ","SECT":" ","MAREA":"西庄","LANE":" ","ALLEY":" ","HOUSE_NO":"１８８號之１","E_COORD97":178037.85000000001,"N_COORD97":2564992.52,"ADDRESS":"西庄１８８號之１","OBJECTID":39910},"geometry":{"x":178037.85000000056,"y":2564992.5199999996}},{"attributes":{"ID":39911,"DIS_CODE":0,"TOWNNAME":"官田區","LI":"東庄里","LIN":"14鄰","STREET":" ","SECT":" ","MAREA":"西庄","LANE":" ","ALLEY":" ","HOUSE_NO":"１８８號之２","E_COORD97":178032.98999999999,"N_COORD97":2564994.4500000002,"ADDRESS":"西庄１８８號之２","OBJECTID":39911},"geometry":{"x":178032.99000000115,"y":2564994.4500000011}},{"attributes":{"ID":39912,"DIS_CODE":0,"TOWNNAME":"官田區","LI":"東庄里","LIN":"14鄰","STREET":" ","SECT":" ","MAREA":"西庄","LANE":" ","ALLEY":" ","HOUSE_NO":"１８８號之３","E_COORD97":178019.12,"N_COORD97":2565001.1699999999,"ADDRESS":"西庄１８８號之３","OBJECTID":39912},"geometry":{"x":178019.12000000011,"y":2565001.1699999999}},{"attributes":{"ID":39913,"DIS_CODE":0,"TOWNNAME":"官田區","LI":"東庄里","LIN":"14鄰","STREET":" ","SECT":" ","MAREA":"西庄","LANE":" ","ALLEY":" ","HOUSE_NO":"１８８號之４","E_COORD97":178056.95000000001,"N_COORD97":2565002.1200000001,"ADDRESS":"西庄１８８號之４","OBJECTID":39913},"geometry":{"x":178056.95000000112,"y":2565002.1200000029}},{"attributes":{"ID":39914,"DIS_CODE":0,"TOWNNAME":"官田區","LI":"東庄里","LIN":"14鄰","STREET":" ","SECT":" ","MAREA":"西庄","LANE":" ","ALLEY":" ","HOUSE_NO":"１８８號","E_COORD97":178056.35000000001,"N_COORD97":2565023.0299999998,"ADDRESS":"西庄１８８號","OBJECTID":39914},"geometry":{"x":178056.35000000056,"y":2565023.0299999993}},{"attributes":{"ID":39915,"DIS_CODE":0,"TOWNNAME":"官田區","LI":"東庄里","LIN":"14鄰","STREET":" ","SECT":" ","MAREA":"西庄","LANE":" ","ALLEY":" ","HOUSE_NO":"１８９號之２","E_COORD97":178002.63,"N_COORD97":2565014.1400000001,"ADDRESS":"西庄１８９號之２","OBJECTID":39915},"geometry":{"x":178002.63000000082,"y":2565014.1400000025}},{"attributes":{"ID":39916,"DIS_CODE":0,"TOWNNAME":"官田區","LI":"東庄里","LIN":"14鄰","STREET":" ","SECT":" ","MAREA":"西庄","LANE":" ","ALLEY":" ","HOUSE_NO":"１８９號","E_COORD97":178039.25,"N_COORD97":2565030.1899999999,"ADDRESS":"西庄１８９號","OBJECTID":39916},"geometry":{"x":178039.25000000093,"y":2565030.1900000013}},{"attributes":{"ID":39917,"DIS_CODE":0,"TOWNNAME":"仁德區","LI":"一甲里","LIN":"14鄰","STREET":"忠義路","SECT":" ","MAREA":" ","LANE":"２４１巷","ALLEY":" ","HOUSE_NO":"１０號","E_COORD97":173884.79000000001,"N_COORD97":2541803.0099999998,"ADDRESS":"忠義路２４１巷１０號","OBJECTID":39917},"geometry":{"x":173884.79000000004,"y":2541803.0099999979}},{"attributes":{"ID":39918,"DIS_CODE":0,"TOWNNAME":"官田區","LI":"隆田里","LIN":"14鄰","STREET":"文化街","SECT":" ","MAREA":" ","LANE":" ","ALLEY":" ","HOUSE_NO":"１１６號","E_COORD97":180198.57999999999,"N_COORD97":2566108.0499999998,"ADDRESS":"文化街１１６號","OBJECTID":39918},"geometry":{"x":180198.58000000101,"y":2566108.0500000007}},{"attributes":{"ID":39919,"DIS_CODE":0,"TOWNNAME":"北區","LI":"永祥里","LIN":"7鄰","STREET":"實踐街","SECT":" ","MAREA":" ","LANE":"３９巷","ALLEY":"３６弄","HOUSE_NO":"３４號","E_COORD97":169942.42000000001,"N_COORD97":2546140.04,"ADDRESS":"實踐街３９巷３６弄３４號","OBJECTID":39919},"geometry":{"x":169942.41999999993,"y":2546140.040000001}},{"attributes":{"ID":39920,"DIS_CODE":0,"TOWNNAME":"北區","LI":"永祥里","LIN":"7鄰","STREET":"實踐街","SECT":" ","MAREA":" ","LANE":"３９巷","ALLEY":"３６弄","HOUSE_NO":"４號","E_COORD97":169930.53,"N_COORD97":2546136.73,"ADDRESS":"實踐街３９巷３６弄４號","OBJECTID":39920},"geometry":{"x":169930.52999999933,"y":2546136.7300000023}},{"attributes":{"ID":39921,"DIS_CODE":0,"TOWNNAME":"北區","LI":"永祥里","LIN":"7鄰","STREET":"實踐街","SECT":" ","MAREA":" ","LANE":"３９巷","ALLEY":"３６弄","HOUSE_NO":"６號","E_COORD97":169930.39000000001,"N_COORD97":2546132.1400000001,"ADDRESS":"實踐街３９巷３６弄６號","OBJECTID":39921},"geometry":{"x":169930.38999999966,"y":2546132.1400000006}},{"attributes":{"ID":39922,"DIS_CODE":0,"TOWNNAME":"北區","LI":"永祥里","LIN":"7鄰","STREET":"實踐街","SECT":" ","MAREA":" ","LANE":"３９巷","ALLEY":"３６弄","HOUSE_NO":"８號","E_COORD97":169930.01999999999,"N_COORD97":2546127.4900000002,"ADDRESS":"實踐街３９巷３６弄８號","OBJECTID":39922},"geometry":{"x":169930.02000000142,"y":2546127.4900000021}},{"attributes":{"ID":39923,"DIS_CODE":0,"TOWNNAME":"北區","LI":"永祥里","LIN":"7鄰","STREET":"實踐街","SECT":" ","MAREA":" ","LANE":"３９巷","ALLEY":"４弄","HOUSE_NO":"１１號","E_COORD97":169924.95000000001,"N_COORD97":2546055.8300000001,"ADDRESS":"實踐街３９巷４弄１１號","OBJECTID":39923},"geometry":{"x":169924.95000000112,"y":2546055.8300000001}},{"attributes":{"ID":39924,"DIS_CODE":0,"TOWNNAME":"北區","LI":"永祥里","LIN":"7鄰","STREET":"實踐街","SECT":" ","MAREA":" ","LANE":"３９巷","ALLEY":"４弄","HOUSE_NO":"１３號","E_COORD97":169929.82000000001,"N_COORD97":2546055.1400000001,"ADDRESS":"實踐街３９巷４弄１３號","OBJECTID":39924},"geometry":{"x":169929.8200000003,"y":2546055.1400000025}},{"attributes":{"ID":39925,"DIS_CODE":0,"TOWNNAME":"北區","LI":"永祥里","LIN":"7鄰","STREET":"實踐街","SECT":" ","MAREA":" ","LANE":"３９巷","ALLEY":"４弄","HOUSE_NO":"１５號","E_COORD97":169933.73000000001,"N_COORD97":2546054.3199999998,"ADDRESS":"實踐街３９巷４弄１５號","OBJECTID":39925},"geometry":{"x":169933.73000000045,"y":2546054.3200000022}},{"attributes":{"ID":39926,"DIS_CODE":0,"TOWNNAME":"北區","LI":"永祥里","LIN":"7鄰","STREET":"實踐街","SECT":" ","MAREA":" ","LANE":"３９巷","ALLEY":"４弄","HOUSE_NO":"１７號","E_COORD97":169938.73000000001,"N_COORD97":2546053.8100000001,"ADDRESS":"實踐街３９巷４弄１７號","OBJECTID":39926},"geometry":{"x":169938.73000000138,"y":2546053.8100000024}},{"attributes":{"ID":39927,"DIS_CODE":0,"TOWNNAME":"新化區","LI":"清水里","LIN":"4鄰","STREET":"民治路","SECT":" ","MAREA":" ","LANE":" ","ALLEY":" ","HOUSE_NO":"２３０號","E_COORD97":178687.20999999999,"N_COORD97":2548454.25,"ADDRESS":"民治路２３０號","OBJECTID":39927},"geometry":{"x":178687.21000000089,"y":2548454.2500000019}},{"attributes":{"ID":39928,"DIS_CODE":0,"TOWNNAME":"北區","LI":"永祥里","LIN":"7鄰","STREET":"實踐街","SECT":" ","MAREA":" ","LANE":"３９巷","ALLEY":"４弄","HOUSE_NO":"１９號","E_COORD97":169943.29999999999,"N_COORD97":2546053.6099999999,"ADDRESS":"實踐街３９巷４弄１９號","OBJECTID":39928},"geometry":{"x":169943.29999999981,"y":2546053.6100000031}},{"attributes":{"ID":39929,"DIS_CODE":0,"TOWNNAME":"北區","LI":"永祥里","LIN":"7鄰","STREET":"實踐街","SECT":" ","MAREA":" ","LANE":"３９巷","ALLEY":"４弄","HOUSE_NO":"１號","E_COORD97":169897.20999999999,"N_COORD97":2546059.5600000001,"ADDRESS":"實踐街３９巷４弄１號","OBJECTID":39929},"geometry":{"x":169897.21000000089,"y":2546059.5600000024}},{"attributes":{"ID":39930,"DIS_CODE":0,"TOWNNAME":"新化區","LI":"太平里","LIN":"4鄰","STREET":"中正路","SECT":" ","MAREA":" ","LANE":" ","ALLEY":" ","HOUSE_NO":"５７４號","E_COORD97":178899.20999999999,"N_COORD97":2548992.25,"ADDRESS":"中正路５７４號","OBJECTID":39930},"geometry":{"x":178899.20999999996,"y":2548992.25}},{"attributes":{"ID":39931,"DIS_CODE":0,"TOWNNAME":"北區","LI":"永祥里","LIN":"7鄰","STREET":"實踐街","SECT":" ","MAREA":" ","LANE":"３９巷","ALLEY":"４弄","HOUSE_NO":"３號","E_COORD97":169906.23999999999,"N_COORD97":2546057.73,"ADDRESS":"實踐街３９巷４弄３號","OBJECTID":39931},"geometry":{"x":169906.24000000115,"y":2546057.7300000023}},{"attributes":{"ID":39932,"DIS_CODE":0,"TOWNNAME":"北區","LI":"永祥里","LIN":"7鄰","STREET":"實踐街","SECT":" ","MAREA":" ","LANE":"３９巷","ALLEY":"４弄","HOUSE_NO":"５號","E_COORD97":169911.62,"N_COORD97":2546057.4700000002,"ADDRESS":"實踐街３９巷４弄５號","OBJECTID":39932},"geometry":{"x":169911.62000000104,"y":2546057.4700000025}},{"attributes":{"ID":39933,"DIS_CODE":0,"TOWNNAME":"新化區","LI":"太平里","LIN":"4鄰","STREET":"中正路","SECT":" ","MAREA":" ","LANE":" ","ALLEY":" ","HOUSE_NO":"５７８號之１","E_COORD97":178898.54000000001,"N_COORD97":2549005.2599999998,"ADDRESS":"中正路５７８號之１","OBJECTID":39933},"geometry":{"x":178898.54000000097,"y":2549005.2599999998}},{"attributes":{"ID":39934,"DIS_CODE":0,"TOWNNAME":"新化區","LI":"東榮里","LIN":"24鄰","STREET":"中正路","SECT":" ","MAREA":" ","LANE":" ","ALLEY":" ","HOUSE_NO":"２５２號","E_COORD97":179150.70999999999,"N_COORD97":2547782.25,"ADDRESS":"中正路２５２號","OBJECTID":39934},"geometry":{"x":179150.70999999996,"y":2547782.2499999981}},{"attributes":{"ID":39935,"DIS_CODE":0,"TOWNNAME":"北區","LI":"永祥里","LIN":"7鄰","STREET":"實踐街","SECT":" ","MAREA":" ","LANE":"３９巷","ALLEY":"４弄","HOUSE_NO":"７號","E_COORD97":169916.60999999999,"N_COORD97":2546056.3999999999,"ADDRESS":"實踐街３９巷４弄７號","OBJECTID":39935},"geometry":{"x":169916.6100000022,"y":2546056.4000000041}},{"attributes":{"ID":39936,"DIS_CODE":0,"TOWNNAME":"新化區","LI":"武安里","LIN":"4鄰","STREET":"大同街","SECT":" ","MAREA":" ","LANE":" ","ALLEY":" ","HOUSE_NO":"４０號","E_COORD97":179008.07999999999,"N_COORD97":2548194.25,"ADDRESS":"大同街４０號","OBJECTID":39936},"geometry":{"x":179008.08000000101,"y":2548194.2500000019}},{"attributes":{"ID":39937,"DIS_CODE":0,"TOWNNAME":"北區","LI":"永祥里","LIN":"7鄰","STREET":"實踐街","SECT":" ","MAREA":" ","LANE":"３９巷","ALLEY":"４弄","HOUSE_NO":"９號","E_COORD97":169921.03,"N_COORD97":2546056.0800000001,"ADDRESS":"實踐街３９巷４弄９號","OBJECTID":39937},"geometry":{"x":169921.03000000119,"y":2546056.0800000019}},{"attributes":{"ID":39938,"DIS_CODE":0,"TOWNNAME":"北區","LI":"小康里","LIN":"7鄰","STREET":"實踐街","SECT":" ","MAREA":" ","LANE":"２３巷","ALLEY":"２０弄","HOUSE_NO":"１０號","E_COORD97":169841.60000000001,"N_COORD97":2546133.8599999999,"ADDRESS":"實踐街２３巷２０弄１０號","OBJECTID":39938},"geometry":{"x":169841.60000000056,"y":2546133.8600000013}},{"attributes":{"ID":39939,"DIS_CODE":0,"TOWNNAME":"北區","LI":"小康里","LIN":"7鄰","STREET":"實踐街","SECT":" ","MAREA":" ","LANE":"２３巷","ALLEY":"２０弄","HOUSE_NO":"１１號","E_COORD97":169853.53,"N_COORD97":2546152.2400000002,"ADDRESS":"實踐街２３巷２０弄１１號","OBJECTID":39939},"geometry":{"x":169853.53000000026,"y":2546152.2400000039}},{"attributes":{"ID":39940,"DIS_CODE":0,"TOWNNAME":"仁德區","LI":"大甲里","LIN":"14鄰","STREET":"行大一街","SECT":" ","MAREA":" ","LANE":" ","ALLEY":" ","HOUSE_NO":"３５２號","E_COORD97":169525.31,"N_COORD97":2535187.7400000002,"ADDRESS":"行大一街３５２號","OBJECTID":39940},"geometry":{"x":169525.31000000052,"y":2535187.7400000039}},{"attributes":{"ID":39941,"DIS_CODE":0,"TOWNNAME":"仁德區","LI":"大甲里","LIN":"14鄰","STREET":"行大街","SECT":" ","MAREA":" ","LANE":" ","ALLEY":" ","HOUSE_NO":"３６７號","E_COORD97":169561.67000000001,"N_COORD97":2535204.4900000002,"ADDRESS":"行大街３６７號","OBJECTID":39941},"geometry":{"x":169561.67000000086,"y":2535204.4900000002}},{"attributes":{"ID":39942,"DIS_CODE":0,"TOWNNAME":"仁德區","LI":"中生里","LIN":"14鄰","STREET":" ","SECT":" ","MAREA":"中洲","LANE":" ","ALLEY":" ","HOUSE_NO":"２２８號之１","E_COORD97":173140.92999999999,"N_COORD97":2533987.7999999998,"ADDRESS":"中洲２２８號之１","OBJECTID":39942},"geometry":{"x":173140.9299999997,"y":2533987.8000000026}},{"attributes":{"ID":39943,"DIS_CODE":0,"TOWNNAME":"仁德區","LI":"中生里","LIN":"14鄰","STREET":" ","SECT":" ","MAREA":"中洲","LANE":" ","ALLEY":" ","HOUSE_NO":"２３２號之５","E_COORD97":173115.26000000001,"N_COORD97":2533955.79,"ADDRESS":"中洲２３２號之５","OBJECTID":39943},"geometry":{"x":173115.25999999978,"y":2533955.790000001}},{"attributes":{"ID":39944,"DIS_CODE":0,"TOWNNAME":"仁德區","LI":"中生里","LIN":"14鄰","STREET":" ","SECT":" ","MAREA":"中洲","LANE":" ","ALLEY":" ","HOUSE_NO":"２３０號之１","E_COORD97":173138.04999999999,"N_COORD97":2533994.5499999998,"ADDRESS":"中洲２３０號之１","OBJECTID":39944},"geometry":{"x":173138.05000000075,"y":2533994.5500000007}},{"attributes":{"ID":39945,"DIS_CODE":0,"TOWNNAME":"左鎮區","LI":"中正里","LIN":"7鄰","STREET":" ","SECT":" ","MAREA":"中正","LANE":" ","ALLEY":" ","HOUSE_NO":"７８號","E_COORD97":189401.35999999999,"N_COORD97":2550953.25,"ADDRESS":"中正７８號","OBJECTID":39945},"geometry":{"x":189401.36000000127,"y":2550953.2500000019}},{"attributes":{"ID":39946,"DIS_CODE":0,"TOWNNAME":"仁德區","LI":"上崙里","LIN":"14鄰","STREET":"德崙路","SECT":" ","MAREA":" ","LANE":" ","ALLEY":" ","HOUSE_NO":"４１８號","E_COORD97":174137.14999999999,"N_COORD97":2538078.5099999998,"ADDRESS":"德崙路４１８號","OBJECTID":39946},"geometry":{"x":174137.15000000037,"y":2538078.5100000016}},{"attributes":{"ID":39947,"DIS_CODE":0,"TOWNNAME":"仁德區","LI":"上崙里","LIN":"14鄰","STREET":"德崙路","SECT":" ","MAREA":" ","LANE":" ","ALLEY":" ","HOUSE_NO":"４１６號","E_COORD97":174132.76000000001,"N_COORD97":2538077.5099999998,"ADDRESS":"德崙路４１６號","OBJECTID":39947},"geometry":{"x":174132.76000000071,"y":2538077.5100000016}},{"attributes":{"ID":39948,"DIS_CODE":0,"TOWNNAME":"仁德區","LI":"上崙里","LIN":"14鄰","STREET":"德崙路","SECT":" ","MAREA":" ","LANE":" ","ALLEY":" ","HOUSE_NO":"４０６之１號","E_COORD97":174097.64999999999,"N_COORD97":2538059.5499999998,"ADDRESS":"德崙路４０６之１號","OBJECTID":39948},"geometry":{"x":174097.65000000037,"y":2538059.5500000007}},{"attributes":{"ID":39949,"DIS_CODE":0,"TOWNNAME":"北區","LI":"小康里","LIN":"7鄰","STREET":"實踐街","SECT":" ","MAREA":" ","LANE":"２３巷","ALLEY":"２０弄","HOUSE_NO":"１２之１號","E_COORD97":169851.45000000001,"N_COORD97":2546134.2400000002,"ADDRESS":"實踐街２３巷２０弄１２之１號","OBJECTID":39949},"geometry":{"x":169851.45000000205,"y":2546134.2400000002}},{"attributes":{"ID":39950,"DIS_CODE":0,"TOWNNAME":"新化區","LI":"豐榮里","LIN":"4鄰","STREET":"中山路","SECT":" ","MAREA":" ","LANE":" ","ALLEY":" ","HOUSE_NO":"６７９號之１","E_COORD97":178043.34,"N_COORD97":2548476.2599999998,"ADDRESS":"中山路６７９號之１","OBJECTID":39950},"geometry":{"x":178043.34000000078,"y":2548476.2599999998}},{"attributes":{"ID":39951,"DIS_CODE":0,"TOWNNAME":"新化區","LI":"東榮里","LIN":"25鄰","STREET":"中正路","SECT":" ","MAREA":" ","LANE":" ","ALLEY":" ","HOUSE_NO":"３１８號","E_COORD97":179150.81,"N_COORD97":2548070.25,"ADDRESS":"中正路３１８號","OBJECTID":39951},"geometry":{"x":179150.80999999959,"y":2548070.25}},{"attributes":{"ID":39952,"DIS_CODE":0,"TOWNNAME":"北區","LI":"小康里","LIN":"7鄰","STREET":"實踐街","SECT":" ","MAREA":" ","LANE":"２３巷","ALLEY":"２０弄","HOUSE_NO":"１２號","E_COORD97":169846.51999999999,"N_COORD97":2546134.2400000002,"ADDRESS":"實踐街２３巷２０弄１２號","OBJECTID":39952},"geometry":{"x":169846.51999999955,"y":2546134.2400000002}},{"attributes":{"ID":39953,"DIS_CODE":0,"TOWNNAME":"北區","LI":"小康里","LIN":"7鄰","STREET":"實踐街","SECT":" ","MAREA":" ","LANE":"２３巷","ALLEY":"２０弄","HOUSE_NO":"１３號","E_COORD97":169858.45999999999,"N_COORD97":2546152.6200000001,"ADDRESS":"實踐街２３巷２０弄１３號","OBJECTID":39953},"geometry":{"x":169858.46000000089,"y":2546152.620000001}},{"attributes":{"ID":39954,"DIS_CODE":0,"TOWNNAME":"新化區","LI":"太平里","LIN":"13鄰","STREET":"中正路","SECT":" ","MAREA":" ","LANE":" ","ALLEY":" ","HOUSE_NO":"６２９號","E_COORD97":178923.70999999999,"N_COORD97":2548905.25,"ADDRESS":"中正路６２９號","OBJECTID":39954},"geometry":{"x":178923.71000000183,"y":2548905.2500000019}},{"attributes":{"ID":39955,"DIS_CODE":0,"TOWNNAME":"北區","LI":"小康里","LIN":"7鄰","STREET":"實踐街","SECT":" ","MAREA":" ","LANE":"２３巷","ALLEY":"２０弄","HOUSE_NO":"１５號","E_COORD97":169862.81,"N_COORD97":2546151.6699999999,"ADDRESS":"實踐街２３巷２０弄１５號","OBJECTID":39955},"geometry":{"x":169862.80999999959,"y":2546151.6699999999}},{"attributes":{"ID":39956,"DIS_CODE":0,"TOWNNAME":"北區","LI":"小康里","LIN":"7鄰","STREET":"實踐街","SECT":" ","MAREA":" ","LANE":"２３巷","ALLEY":"２０弄","HOUSE_NO":"１６號","E_COORD97":169856.75,"N_COORD97":2546133.1000000001,"ADDRESS":"實踐街２３巷２０弄１６號","OBJECTID":39956},"geometry":{"x":169856.75000000093,"y":2546133.1000000015}},{"attributes":{"ID":39957,"DIS_CODE":0,"TOWNNAME":"北區","LI":"小康里","LIN":"7鄰","STREET":"實踐街","SECT":" ","MAREA":" ","LANE":"２３巷","ALLEY":"２０弄","HOUSE_NO":"１７號","E_COORD97":169867.54999999999,"N_COORD97":2546150.3500000001,"ADDRESS":"實踐街２３巷２０弄１７號","OBJECTID":39957},"geometry":{"x":169867.55000000075,"y":2546150.3499999996}},{"attributes":{"ID":39958,"DIS_CODE":0,"TOWNNAME":"北區","LI":"小康里","LIN":"7鄰","STREET":"實踐街","SECT":" ","MAREA":" ","LANE":"２３巷","ALLEY":"２０弄","HOUSE_NO":"１號","E_COORD97":169829.48000000001,"N_COORD97":2546154.3199999998,"ADDRESS":"實踐街２３巷２０弄１號","OBJECTID":39958},"geometry":{"x":169829.48000000231,"y":2546154.3200000003}},{"attributes":{"ID":39959,"DIS_CODE":0,"TOWNNAME":"北區","LI":"小康里","LIN":"7鄰","STREET":"實踐街","SECT":" ","MAREA":" ","LANE":"２３巷","ALLEY":"２０弄","HOUSE_NO":"３號","E_COORD97":169834.39999999999,"N_COORD97":2546153.3700000001,"ADDRESS":"實踐街２３巷２０弄３號","OBJECTID":39959},"geometry":{"x":169834.40000000037,"y":2546153.3700000029}},{"attributes":{"ID":39960,"DIS_CODE":0,"TOWNNAME":"新化區","LI":"武安里","LIN":" ","STREET":"大同街","SECT":" ","MAREA":" ","LANE":" ","ALLEY":" ","HOUSE_NO":"３０之１號","E_COORD97":179025.88,"N_COORD97":2548180.2599999998,"ADDRESS":"大同街３０之１號","OBJECTID":39960},"geometry":{"x":179025.88000000175,"y":2548180.2600000016}},{"attributes":{"ID":39961,"DIS_CODE":0,"TOWNNAME":"新化區","LI":"武安里","LIN":"4鄰","STREET":"大同街","SECT":" ","MAREA":" ","LANE":" ","ALLEY":" ","HOUSE_NO":"３２號","E_COORD97":179049.17999999999,"N_COORD97":2548175.25,"ADDRESS":"大同街３２號","OBJECTID":39961},"geometry":{"x":179049.18000000156,"y":2548175.25}},{"attributes":{"ID":39962,"DIS_CODE":0,"TOWNNAME":"新化區","LI":"唪口里","LIN":"4鄰","STREET":"大德路","SECT":" ","MAREA":" ","LANE":" ","ALLEY":" ","HOUSE_NO":"８８號之１７","E_COORD97":178147.37,"N_COORD97":2549494.2599999998,"ADDRESS":"大德路８８號之１７","OBJECTID":39962},"geometry":{"x":178147.37000000011,"y":2549494.2600000035}},{"attributes":{"ID":39963,"DIS_CODE":0,"TOWNNAME":"北區","LI":"小康里","LIN":"7鄰","STREET":"實踐街","SECT":" ","MAREA":" ","LANE":"２３巷","ALLEY":"２０弄","HOUSE_NO":"５號","E_COORD97":169839.70999999999,"N_COORD97":2546153.5600000001,"ADDRESS":"實踐街２３巷２０弄５號","OBJECTID":39963},"geometry":{"x":169839.71000000089,"y":2546153.5600000042}},{"attributes":{"ID":39964,"DIS_CODE":0,"TOWNNAME":"北區","LI":"小康里","LIN":"7鄰","STREET":"實踐街","SECT":" ","MAREA":" ","LANE":"２３巷","ALLEY":"２０弄","HOUSE_NO":"６號","E_COORD97":169832.13,"N_COORD97":2546134.6099999999,"ADDRESS":"實踐街２３巷２０弄６號","OBJECTID":39964},"geometry":{"x":169832.12999999989,"y":2546134.6099999994}},{"attributes":{"ID":39965,"DIS_CODE":0,"TOWNNAME":"北區","LI":"小康里","LIN":"7鄰","STREET":"實踐街","SECT":" ","MAREA":" ","LANE":"２３巷","ALLEY":"２０弄","HOUSE_NO":"７號","E_COORD97":169843.48999999999,"N_COORD97":2546153.75,"ADDRESS":"實踐街２３巷２０弄７號","OBJECTID":39965},"geometry":{"x":169843.49000000115,"y":2546153.75}},{"attributes":{"ID":39966,"DIS_CODE":0,"TOWNNAME":"北區","LI":"小康里","LIN":"7鄰","STREET":"實踐街","SECT":" ","MAREA":" ","LANE":"２３巷","ALLEY":"２０弄","HOUSE_NO":"８號","E_COORD97":169837.23999999999,"N_COORD97":2546133.8599999999,"ADDRESS":"實踐街２３巷２０弄８號","OBJECTID":39966},"geometry":{"x":169837.24000000022,"y":2546133.8600000013}},{"attributes":{"ID":39967,"DIS_CODE":0,"TOWNNAME":"新化區","LI":"東榮里","LIN":" ","STREET":"護安街","SECT":" ","MAREA":" ","LANE":" ","ALLEY":" ","HOUSE_NO":"９３號之１","E_COORD97":179180.20999999999,"N_COORD97":2548422.2599999998,"ADDRESS":"護安街９３號之１","OBJECTID":39967},"geometry":{"x":179180.21000000089,"y":2548422.2599999998}},{"attributes":{"ID":39968,"DIS_CODE":0,"TOWNNAME":"新化區","LI":"唪口里","LIN":"4鄰","STREET":"大德路","SECT":" ","MAREA":" ","LANE":" ","ALLEY":" ","HOUSE_NO":"８６號之１５","E_COORD97":178177.69,"N_COORD97":2549491.2599999998,"ADDRESS":"大德路８６號之１５","OBJECTID":39968},"geometry":{"x":178177.69000000041,"y":2549491.2600000016}},{"attributes":{"ID":39969,"DIS_CODE":0,"TOWNNAME":"北區","LI":"小康里","LIN":"7鄰","STREET":"實踐街","SECT":" ","MAREA":" ","LANE":"２３巷","ALLEY":"２０弄","HOUSE_NO":"９號","E_COORD97":169849.17999999999,"N_COORD97":2546153.1800000002,"ADDRESS":"實踐街２３巷２０弄９號","OBJECTID":39969},"geometry":{"x":169849.1799999997,"y":2546153.1800000016}},{"attributes":{"ID":39970,"DIS_CODE":0,"TOWNNAME":"新營區","LI":"新東里","LIN":"7鄰","STREET":"東學路","SECT":" ","MAREA":" ","LANE":"１７６巷","ALLEY":"４弄","HOUSE_NO":"１２號","E_COORD97":181175.39000000001,"N_COORD97":2579295.9100000001,"ADDRESS":"東學路１７６巷４弄１２號","OBJECTID":39970},"geometry":{"x":181175.3900000006,"y":2579295.910000002}},{"attributes":{"ID":39971,"DIS_CODE":0,"TOWNNAME":"北區","LI":"延平里","LIN":"7鄰","STREET":"公園路","SECT":" ","MAREA":" ","LANE":"７５８巷","ALLEY":"５弄","HOUSE_NO":"２號","E_COORD97":169160.23999999999,"N_COORD97":2545692.8700000001,"ADDRESS":"公園路７５８巷５弄２號","OBJECTID":39971},"geometry":{"x":169160.24000000115,"y":2545692.870000001}},{"attributes":{"ID":39972,"DIS_CODE":0,"TOWNNAME":"北區","LI":"延平里","LIN":"7鄰","STREET":"公園路","SECT":" ","MAREA":" ","LANE":"７５８巷","ALLEY":"５弄","HOUSE_NO":"４號","E_COORD97":169163.19,"N_COORD97":2545704.3599999999,"ADDRESS":"公園路７５８巷５弄４號","OBJECTID":39972},"geometry":{"x":169163.19000000041,"y":2545704.3600000013}},{"attributes":{"ID":39973,"DIS_CODE":0,"TOWNNAME":"北區","LI":"延平里","LIN":"7鄰","STREET":"公園路","SECT":" ","MAREA":" ","LANE":"７５８巷","ALLEY":"５弄","HOUSE_NO":"６號","E_COORD97":169165.29000000001,"N_COORD97":2545708.1499999999,"ADDRESS":"公園路７５８巷５弄６號","OBJECTID":39973},"geometry":{"x":169165.29000000004,"y":2545708.1500000004}},{"attributes":{"ID":39974,"DIS_CODE":0,"TOWNNAME":"北區","LI":"延平里","LIN":"7鄰","STREET":"公園路","SECT":" ","MAREA":" ","LANE":"７５８巷","ALLEY":"５弄","HOUSE_NO":"８號","E_COORD97":169167.54000000001,"N_COORD97":2545715.2999999998,"ADDRESS":"公園路７５８巷５弄８號","OBJECTID":39974},"geometry":{"x":169167.5400000019,"y":2545715.3000000026}},{"attributes":{"ID":39975,"DIS_CODE":0,"TOWNNAME":"新化區","LI":"太平里","LIN":"13鄰","STREET":"中正路","SECT":" ","MAREA":" ","LANE":" ","ALLEY":" ","HOUSE_NO":"６２１號","E_COORD97":178931.10999999999,"N_COORD97":2548885.25,"ADDRESS":"中正路６２１號","OBJECTID":39975},"geometry":{"x":178931.11000000034,"y":2548885.2500000019}},{"attributes":{"ID":39976,"DIS_CODE":0,"TOWNNAME":"新化區","LI":"東榮里","LIN":"20鄰","STREET":"民生路","SECT":" ","MAREA":" ","LANE":" ","ALLEY":" ","HOUSE_NO":"５９號","E_COORD97":179415.56,"N_COORD97":2548418.25,"ADDRESS":"民生路５９號","OBJECTID":39976},"geometry":{"x":179415.55999999959,"y":2548418.25}},{"attributes":{"ID":39977,"DIS_CODE":0,"TOWNNAME":"仁德區","LI":"上崙里","LIN":"14鄰","STREET":"德崙路","SECT":" ","MAREA":" ","LANE":" ","ALLEY":" ","HOUSE_NO":"４０６之２號","E_COORD97":174110.56,"N_COORD97":2538063.2999999998,"ADDRESS":"德崙路４０６之２號","OBJECTID":39977},"geometry":{"x":174110.56000000052,"y":2538063.3000000026}},{"attributes":{"ID":39978,"DIS_CODE":0,"TOWNNAME":"新化區","LI":"知義里","LIN":"14鄰","STREET":"復興路","SECT":" ","MAREA":" ","LANE":" ","ALLEY":" ","HOUSE_NO":"１４３號","E_COORD97":179463.82000000001,"N_COORD97":2547799.25,"ADDRESS":"復興路１４３號","OBJECTID":39978},"geometry":{"x":179463.8200000003,"y":2547799.2499999981}},{"attributes":{"ID":39979,"DIS_CODE":0,"TOWNNAME":"仁德區","LI":"中洲里","LIN":"14鄰","STREET":" ","SECT":" ","MAREA":"中洲","LANE":" ","ALLEY":" ","HOUSE_NO":"３６９號","E_COORD97":173389.54000000001,"N_COORD97":2534160.7400000002,"ADDRESS":"中洲３６９號","OBJECTID":39979},"geometry":{"x":173389.54000000004,"y":2534160.7400000021}},{"attributes":{"ID":39980,"DIS_CODE":0,"TOWNNAME":"北區","LI":"延平里","LIN":"7鄰","STREET":"公園路","SECT":" ","MAREA":" ","LANE":"７７２巷","ALLEY":"７弄","HOUSE_NO":"２號","E_COORD97":169174.41,"N_COORD97":2545739.6899999999,"ADDRESS":"公園路７７２巷７弄２號","OBJECTID":39980},"geometry":{"x":169174.41000000015,"y":2545739.6899999995}},{"attributes":{"ID":39981,"DIS_CODE":0,"TOWNNAME":"北區","LI":"延平里","LIN":"7鄰","STREET":"公園路","SECT":" ","MAREA":" ","LANE":"７７２巷","ALLEY":"７弄","HOUSE_NO":"４號","E_COORD97":169178.20000000001,"N_COORD97":2545747.1200000001,"ADDRESS":"公園路７７２巷７弄４號","OBJECTID":39981},"geometry":{"x":169178.20000000019,"y":2545747.1200000048}},{"attributes":{"ID":39982,"DIS_CODE":0,"TOWNNAME":"北區","LI":"延平里","LIN":"7鄰","STREET":"公園路","SECT":" ","MAREA":" ","LANE":"７７２巷","ALLEY":"７弄","HOUSE_NO":"６號","E_COORD97":169180.31,"N_COORD97":2545754.5499999998,"ADDRESS":"公園路７７２巷７弄６號","OBJECTID":39982},"geometry":{"x":169180.30999999866,"y":2545754.5500000026}},{"attributes":{"ID":39983,"DIS_CODE":0,"TOWNNAME":"仁德區","LI":"仁愛里","LIN":"14鄰","STREET":" ","SECT":" ","MAREA":"仁愛","LANE":" ","ALLEY":" ","HOUSE_NO":"２９６號","E_COORD97":170283.21475799999,"N_COORD97":2539901.2949999999,"ADDRESS":"仁愛２９６號","OBJECTID":39983},"geometry":{"x":170283.21475800127,"y":2539901.2950000037}},{"attributes":{"ID":39984,"DIS_CODE":0,"TOWNNAME":"仁德區","LI":"仁愛里","LIN":"14鄰","STREET":" ","SECT":" ","MAREA":"仁愛","LANE":" ","ALLEY":" ","HOUSE_NO":"２９３號","E_COORD97":170273.045728,"N_COORD97":2539927.1499999999,"ADDRESS":"仁愛２９３號","OBJECTID":39984},"geometry":{"x":170273.04572800081,"y":2539927.1500000004}},{"attributes":{"ID":39985,"DIS_CODE":0,"TOWNNAME":"仁德區","LI":"仁愛里","LIN":"14鄰","STREET":" ","SECT":" ","MAREA":"仁愛","LANE":" ","ALLEY":" ","HOUSE_NO":"２９１號","E_COORD97":170264.04190000001,"N_COORD97":2539927.1499999999,"ADDRESS":"仁愛２９１號","OBJECTID":39985},"geometry":{"x":170264.04190000053,"y":2539927.1500000004}},{"attributes":{"ID":39986,"DIS_CODE":0,"TOWNNAME":"安平區","LI":"國平里","LIN":"7鄰","STREET":"建平三街","SECT":" ","MAREA":" ","LANE":"２００巷","ALLEY":"２１弄","HOUSE_NO":"１２號","E_COORD97":165441.16,"N_COORD97":2543046.8900000001,"ADDRESS":"建平三街２００巷２１弄１２號","OBJECTID":39986},"geometry":{"x":165441.16000000108,"y":2543046.8900000025}},{"attributes":{"ID":39987,"DIS_CODE":0,"TOWNNAME":"安平區","LI":"國平里","LIN":"7鄰","STREET":"建平三街","SECT":" ","MAREA":" ","LANE":"２００巷","ALLEY":"２１弄","HOUSE_NO":"１４號","E_COORD97":165434.09,"N_COORD97":2543048.3900000001,"ADDRESS":"建平三街２００巷２１弄１４號","OBJECTID":39987},"geometry":{"x":165434.09000000171,"y":2543048.3900000006}},{"attributes":{"ID":39988,"DIS_CODE":0,"TOWNNAME":"安平區","LI":"國平里","LIN":"7鄰","STREET":"建平三街","SECT":" ","MAREA":" ","LANE":"２００巷","ALLEY":"２１弄","HOUSE_NO":"１６號","E_COORD97":165429.16,"N_COORD97":2543048.1800000002,"ADDRESS":"建平三街２００巷２１弄１６號","OBJECTID":39988},"geometry":{"x":165429.16000000108,"y":2543048.1799999997}},{"attributes":{"ID":39989,"DIS_CODE":0,"TOWNNAME":"安平區","LI":"國平里","LIN":"7鄰","STREET":"建平三街","SECT":" ","MAREA":" ","LANE":"２００巷","ALLEY":"２１弄","HOUSE_NO":"１８號","E_COORD97":165424.45000000001,"N_COORD97":2543049.0299999998,"ADDRESS":"建平三街２００巷２１弄１８號","OBJECTID":39989},"geometry":{"x":165424.45000000019,"y":2543049.0299999993}},{"attributes":{"ID":39990,"DIS_CODE":0,"TOWNNAME":"安平區","LI":"國平里","LIN":"7鄰","STREET":"建平三街","SECT":" ","MAREA":" ","LANE":"２００巷","ALLEY":"２１弄","HOUSE_NO":"２０號","E_COORD97":165419.09,"N_COORD97":2543049.46,"ADDRESS":"建平三街２００巷２１弄２０號","OBJECTID":39990},"geometry":{"x":165419.09000000078,"y":2543049.4600000028}},{"attributes":{"ID":39991,"DIS_CODE":0,"TOWNNAME":"安平區","LI":"國平里","LIN":"7鄰","STREET":"建平三街","SECT":" ","MAREA":" ","LANE":"２００巷","ALLEY":"２１弄","HOUSE_NO":"２１號","E_COORD97":165416.73000000001,"N_COORD97":2543044.9700000002,"ADDRESS":"建平三街２００巷２１弄２１號","OBJECTID":39991},"geometry":{"x":165416.72999999952,"y":2543044.9700000007}},{"attributes":{"ID":39992,"DIS_CODE":0,"TOWNNAME":"安平區","LI":"國平里","LIN":"7鄰","STREET":"建平三街","SECT":" ","MAREA":" ","LANE":"２００巷","ALLEY":"２１弄","HOUSE_NO":"２２號","E_COORD97":165416.09,"N_COORD97":2543049.6699999999,"ADDRESS":"建平三街２００巷２１弄２２號","OBJECTID":39992},"geometry":{"x":165416.09000000078,"y":2543049.6699999999}},{"attributes":{"ID":39993,"DIS_CODE":0,"TOWNNAME":"安平區","LI":"國平里","LIN":"7鄰","STREET":"建平三街","SECT":" ","MAREA":" ","LANE":"２００巷","ALLEY":"２１弄","HOUSE_NO":"２３號","E_COORD97":165409.45000000001,"N_COORD97":2543045.8199999998,"ADDRESS":"建平三街２００巷２１弄２３號","OBJECTID":39993},"geometry":{"x":165409.45000000019,"y":2543045.8199999984}},{"attributes":{"ID":39994,"DIS_CODE":0,"TOWNNAME":"安平區","LI":"國平里","LIN":"7鄰","STREET":"建平三街","SECT":" ","MAREA":" ","LANE":"２００巷","ALLEY":"２１弄","HOUSE_NO":"２４號","E_COORD97":165410.09,"N_COORD97":2543050.5299999998,"ADDRESS":"建平三街２００巷２１弄２４號","OBJECTID":39994},"geometry":{"x":165410.08999999985,"y":2543050.5300000031}},{"attributes":{"ID":39995,"DIS_CODE":0,"TOWNNAME":"安平區","LI":"國平里","LIN":"7鄰","STREET":"建平三街","SECT":" ","MAREA":" ","LANE":"２００巷","ALLEY":"２１弄","HOUSE_NO":"２５號","E_COORD97":165405.38,"N_COORD97":2543046.46,"ADDRESS":"建平三街２００巷２１弄２５號","OBJECTID":39995},"geometry":{"x":165405.38000000082,"y":2543046.4600000028}},{"attributes":{"ID":39996,"DIS_CODE":0,"TOWNNAME":"安平區","LI":"國平里","LIN":"7鄰","STREET":"建平三街","SECT":" ","MAREA":" ","LANE":"２００巷","ALLEY":"２１弄","HOUSE_NO":"２６號","E_COORD97":165404.95000000001,"N_COORD97":2543051.1699999999,"ADDRESS":"建平三街２００巷２１弄２６號","OBJECTID":39996},"geometry":{"x":165404.95000000205,"y":2543051.1700000018}},{"attributes":{"ID":39997,"DIS_CODE":0,"TOWNNAME":"北區","LI":"正覺里","LIN":"7鄰","STREET":"北安路","SECT":"一段","MAREA":" ","LANE":"５１巷","ALLEY":"２弄","HOUSE_NO":"３號","E_COORD97":169166.32999999999,"N_COORD97":2546190.8100000001,"ADDRESS":"北安路一段５１巷２弄３號","OBJECTID":39997},"geometry":{"x":169166.33000000101,"y":2546190.8100000024}},{"attributes":{"ID":39998,"DIS_CODE":0,"TOWNNAME":"安平區","LI":"國平里","LIN":"7鄰","STREET":"建平三街","SECT":" ","MAREA":" ","LANE":"２００巷","ALLEY":"２１弄","HOUSE_NO":"２７號","E_COORD97":165398.95000000001,"N_COORD97":2543047.1099999999,"ADDRESS":"建平三街２００巷２１弄２７號","OBJECTID":39998},"geometry":{"x":165398.95000000112,"y":2543047.1100000013}},{"attributes":{"ID":39999,"DIS_CODE":0,"TOWNNAME":"安平區","LI":"國平里","LIN":"7鄰","STREET":"建平三街","SECT":" ","MAREA":" ","LANE":"２００巷","ALLEY":"２１弄","HOUSE_NO":"２８號","E_COORD97":165399.38,"N_COORD97":2543051.6000000001,"ADDRESS":"建平三街２００巷２１弄２８號","OBJECTID":39999},"geometry":{"x":165399.37999999989,"y":2543051.6000000015}},{"attributes":{"ID":40000,"DIS_CODE":0,"TOWNNAME":"北區","LI":"正覺里","LIN":"7鄰","STREET":"北安路","SECT":"一段","MAREA":" ","LANE":"５１巷","ALLEY":"２弄","HOUSE_NO":"６號","E_COORD97":169174.01999999999,"N_COORD97":2546211.3199999998,"ADDRESS":"北安路一段５１巷２弄６號","OBJECTID":40000},"geometry":{"x":169174.02000000048,"y":2546211.3200000003}}]}