{"displayFieldName":"TOWNNAME","fieldAliases":{"ID":"ID","DIS_CODE":"DIS_CODE","TOWNNAME":"TOWNNAME","LI":"LI","LIN":"LIN","STREET":"STREET","SECT":"SECT","MAREA":"MAREA","LANE":"LANE","ALLEY":"ALLEY","HOUSE_NO":"HOUSE_NO","E_COORD97":"E_COORD97","N_COORD97":"N_COORD97","ADDRESS":"ADDRESS","OBJECTID":"OBJECTID"},"geometryType":"esriGeometryPoint","spatialReference":{"wkid":102443,"latestWkid":3826},"fields":[{"name":"ID","type":"esriFieldTypeDouble","alias":"ID"},{"name":"DIS_CODE","type":"esriFieldTypeInteger","alias":"DIS_CODE"},{"name":"TOWNNAME","type":"esriFieldTypeString","alias":"TOWNNAME","length":8},{"name":"LI","type":"esriFieldTypeString","alias":"LI","length":8},{"name":"LIN","type":"esriFieldTypeString","alias":"LIN","length":12},{"name":"STREET","type":"esriFieldTypeString","alias":"STREET","length":20},{"name":"SECT","type":"esriFieldTypeString","alias":"SECT","length":8},{"name":"MAREA","type":"esriFieldTypeString","alias":"MAREA","length":12},{"name":"LANE","type":"esriFieldTypeString","alias":"LANE","length":10},{"name":"ALLEY","type":"esriFieldTypeString","alias":"ALLEY","length":10},{"name":"HOUSE_NO","type":"esriFieldTypeString","alias":"HOUSE_NO","length":20},{"name":"E_COORD97","type":"esriFieldTypeDouble","alias":"E_COORD97"},{"name":"N_COORD97","type":"esriFieldTypeDouble","alias":"N_COORD97"},{"name":"ADDRESS","type":"esriFieldTypeString","alias":"ADDRESS","length":50},{"name":"OBJECTID","type":"esriFieldTypeOID","alias":"OBJECTID"}],"features":[{"attributes":{"ID":88801,"DIS_CODE":0,"TOWNNAME":"仁德區","LI":"上崙里","LIN":"10鄰","STREET":"德善路","SECT":" ","MAREA":" ","LANE":"３０５巷","ALLEY":"１３弄","HOUSE_NO":"８５號六樓","E_COORD97":174077.51999999999,"N_COORD97":2538428.2000000002,"ADDRESS":"德善路３０５巷１３弄８５號六樓","OBJECTID":88801},"geometry":{"x":174077.51999999955,"y":2538428.200000003}},{"attributes":{"ID":88802,"DIS_CODE":0,"TOWNNAME":"將軍區","LI":"將貴里","LIN":"12鄰","STREET":" ","SECT":" ","MAREA":"將榮","LANE":" ","ALLEY":" ","HOUSE_NO":"２之１號","E_COORD97":161788.45999999999,"N_COORD97":2568453.23,"ADDRESS":"將榮２之１號","OBJECTID":88802},"geometry":{"x":161788.45999999996,"y":2568453.2300000004}},{"attributes":{"ID":88803,"DIS_CODE":0,"TOWNNAME":"將軍區","LI":"將貴里","LIN":"12鄰","STREET":" ","SECT":" ","MAREA":"將榮","LANE":" ","ALLEY":" ","HOUSE_NO":"２號","E_COORD97":161792.12,"N_COORD97":2568457.2000000002,"ADDRESS":"將榮２號","OBJECTID":88803},"geometry":{"x":161792.12000000011,"y":2568457.2000000011}},{"attributes":{"ID":88804,"DIS_CODE":0,"TOWNNAME":"將軍區","LI":"將富里","LIN":"12鄰","STREET":" ","SECT":" ","MAREA":"將榮","LANE":" ","ALLEY":" ","HOUSE_NO":"７３號","E_COORD97":161961.17999999999,"N_COORD97":2568683.29,"ADDRESS":"將榮７３號","OBJECTID":88804},"geometry":{"x":161961.1799999997,"y":2568683.290000001}},{"attributes":{"ID":88805,"DIS_CODE":0,"TOWNNAME":"將軍區","LI":"將富里","LIN":"12鄰","STREET":" ","SECT":" ","MAREA":"將榮","LANE":" ","ALLEY":" ","HOUSE_NO":"７４號","E_COORD97":161933.19,"N_COORD97":2568677.6400000001,"ADDRESS":"將榮７４號","OBJECTID":88805},"geometry":{"x":161933.19000000041,"y":2568677.6400000006}},{"attributes":{"ID":88806,"DIS_CODE":0,"TOWNNAME":"將軍區","LI":"將富里","LIN":"12鄰","STREET":" ","SECT":" ","MAREA":"將榮","LANE":" ","ALLEY":" ","HOUSE_NO":"７５號","E_COORD97":161930.39000000001,"N_COORD97":2568649.7200000002,"ADDRESS":"將榮７５號","OBJECTID":88806},"geometry":{"x":161930.3900000006,"y":2568649.7200000007}},{"attributes":{"ID":88807,"DIS_CODE":0,"TOWNNAME":"將軍區","LI":"將富里","LIN":"12鄰","STREET":" ","SECT":" ","MAREA":"將榮","LANE":" ","ALLEY":" ","HOUSE_NO":"７６號","E_COORD97":161947.03,"N_COORD97":2568661.1299999999,"ADDRESS":"將榮７６號","OBJECTID":88807},"geometry":{"x":161947.03000000119,"y":2568661.1300000008}},{"attributes":{"ID":88808,"DIS_CODE":0,"TOWNNAME":"將軍區","LI":"將富里","LIN":"12鄰","STREET":" ","SECT":" ","MAREA":"將榮","LANE":" ","ALLEY":" ","HOUSE_NO":"７７號","E_COORD97":161960.64999999999,"N_COORD97":2568663.25,"ADDRESS":"將榮７７號","OBJECTID":88808},"geometry":{"x":161960.65000000037,"y":2568663.25}},{"attributes":{"ID":88809,"DIS_CODE":0,"TOWNNAME":"仁德區","LI":"上崙里","LIN":"10鄰","STREET":"德善路","SECT":" ","MAREA":" ","LANE":"３０５巷","ALLEY":"１３弄","HOUSE_NO":"７５號五樓","E_COORD97":174063.32999999999,"N_COORD97":2538413.1899999999,"ADDRESS":"德善路３０５巷１３弄７５號五樓","OBJECTID":88809},"geometry":{"x":174063.33000000101,"y":2538413.1899999995}},{"attributes":{"ID":88810,"DIS_CODE":0,"TOWNNAME":"仁德區","LI":"上崙里","LIN":"10鄰","STREET":"德善路","SECT":" ","MAREA":" ","LANE":"３０５巷","ALLEY":"１３弄","HOUSE_NO":"８５號二樓","E_COORD97":174077.51999999999,"N_COORD97":2538428.2000000002,"ADDRESS":"德善路３０５巷１３弄８５號二樓","OBJECTID":88810},"geometry":{"x":174077.51999999955,"y":2538428.200000003}},{"attributes":{"ID":88811,"DIS_CODE":0,"TOWNNAME":"東區","LI":"虎尾里","LIN":"14鄰","STREET":"富農街","SECT":"一段","MAREA":" ","LANE":"１８８巷","ALLEY":"１０弄","HOUSE_NO":"１１號","E_COORD97":171585.70000000001,"N_COORD97":2542402.1200000001,"ADDRESS":"富農街一段１８８巷１０弄１１號","OBJECTID":88811},"geometry":{"x":171585.70000000205,"y":2542402.1200000029}},{"attributes":{"ID":88812,"DIS_CODE":0,"TOWNNAME":"仁德區","LI":"上崙里","LIN":"10鄰","STREET":"德善路","SECT":" ","MAREA":" ","LANE":"３０５巷","ALLEY":"１３弄","HOUSE_NO":"７５號六樓","E_COORD97":174063.32999999999,"N_COORD97":2538413.1899999999,"ADDRESS":"德善路３０５巷１３弄７５號六樓","OBJECTID":88812},"geometry":{"x":174063.33000000101,"y":2538413.1899999995}},{"attributes":{"ID":88813,"DIS_CODE":0,"TOWNNAME":"仁德區","LI":"上崙里","LIN":"10鄰","STREET":"德善路","SECT":" ","MAREA":" ","LANE":"３０５巷","ALLEY":"１３弄","HOUSE_NO":"７３號五樓","E_COORD97":174061.37,"N_COORD97":2538423.4399999999,"ADDRESS":"德善路３０５巷１３弄７３號五樓","OBJECTID":88813},"geometry":{"x":174061.37000000104,"y":2538423.4400000032}},{"attributes":{"ID":88814,"DIS_CODE":0,"TOWNNAME":"仁德區","LI":"上崙里","LIN":"10鄰","STREET":"德善路","SECT":" ","MAREA":" ","LANE":"３０５巷","ALLEY":"１３弄","HOUSE_NO":"７９號四樓","E_COORD97":174068.32999999999,"N_COORD97":2538396.4399999999,"ADDRESS":"德善路３０５巷１３弄７９號四樓","OBJECTID":88814},"geometry":{"x":174068.33000000101,"y":2538396.4400000013}},{"attributes":{"ID":88815,"DIS_CODE":0,"TOWNNAME":"仁德區","LI":"上崙里","LIN":"10鄰","STREET":"德善路","SECT":" ","MAREA":" ","LANE":"３０５巷","ALLEY":"１３弄","HOUSE_NO":"７９號六樓","E_COORD97":174068.32999999999,"N_COORD97":2538396.4399999999,"ADDRESS":"德善路３０５巷１３弄７９號六樓","OBJECTID":88815},"geometry":{"x":174068.33000000101,"y":2538396.4400000013}},{"attributes":{"ID":88816,"DIS_CODE":0,"TOWNNAME":"仁德區","LI":"上崙里","LIN":"10鄰","STREET":"德善路","SECT":" ","MAREA":" ","LANE":"３０５巷","ALLEY":"１３弄","HOUSE_NO":"８１號四樓","E_COORD97":174069.73000000001,"N_COORD97":2538424.9399999999,"ADDRESS":"德善路３０５巷１３弄８１號四樓","OBJECTID":88816},"geometry":{"x":174069.73000000138,"y":2538424.9399999995}},{"attributes":{"ID":88817,"DIS_CODE":0,"TOWNNAME":"仁德區","LI":"上崙里","LIN":"10鄰","STREET":"德善路","SECT":" ","MAREA":" ","LANE":"３０５巷","ALLEY":"１３弄","HOUSE_NO":"８７號五樓","E_COORD97":174080.37,"N_COORD97":2538419.1899999999,"ADDRESS":"德善路３０５巷１３弄８７號五樓","OBJECTID":88817},"geometry":{"x":174080.37000000104,"y":2538419.1900000013}},{"attributes":{"ID":88818,"DIS_CODE":0,"TOWNNAME":"仁德區","LI":"上崙里","LIN":"10鄰","STREET":"德善路","SECT":" ","MAREA":" ","LANE":"３０５巷","ALLEY":"１３弄","HOUSE_NO":"８９號四樓","E_COORD97":174082.73000000001,"N_COORD97":2538410.6899999999,"ADDRESS":"德善路３０５巷１３弄８９號四樓","OBJECTID":88818},"geometry":{"x":174082.73000000231,"y":2538410.6899999995}},{"attributes":{"ID":88819,"DIS_CODE":0,"TOWNNAME":"仁德區","LI":"上崙里","LIN":"10鄰","STREET":"德善路","SECT":" ","MAREA":" ","LANE":"３０５巷","ALLEY":"１３弄","HOUSE_NO":"８９號六樓","E_COORD97":174082.73000000001,"N_COORD97":2538410.6899999999,"ADDRESS":"德善路３０５巷１３弄８９號六樓","OBJECTID":88819},"geometry":{"x":174082.73000000231,"y":2538410.6899999995}},{"attributes":{"ID":88820,"DIS_CODE":0,"TOWNNAME":"仁德區","LI":"上崙里","LIN":"10鄰","STREET":"德善路","SECT":" ","MAREA":" ","LANE":"３０５巷","ALLEY":"１３弄","HOUSE_NO":"８７號四樓","E_COORD97":174080.37,"N_COORD97":2538419.1899999999,"ADDRESS":"德善路３０５巷１３弄８７號四樓","OBJECTID":88820},"geometry":{"x":174080.37000000104,"y":2538419.1900000013}},{"attributes":{"ID":88821,"DIS_CODE":0,"TOWNNAME":"仁德區","LI":"上崙里","LIN":"10鄰","STREET":"德善路","SECT":" ","MAREA":" ","LANE":"３０５巷","ALLEY":"１３弄","HOUSE_NO":"６９號三樓","E_COORD97":174056.51999999999,"N_COORD97":2538440.2000000002,"ADDRESS":"德善路３０５巷１３弄６９號三樓","OBJECTID":88821},"geometry":{"x":174056.52000000048,"y":2538440.1999999993}},{"attributes":{"ID":88822,"DIS_CODE":0,"TOWNNAME":"仁德區","LI":"上崙里","LIN":"10鄰","STREET":"德善路","SECT":" ","MAREA":" ","LANE":"３０５巷","ALLEY":"１３弄","HOUSE_NO":"９１號五樓","E_COORD97":174085.35999999999,"N_COORD97":2538401.6899999999,"ADDRESS":"德善路３０５巷１３弄９１號五樓","OBJECTID":88822},"geometry":{"x":174085.36000000127,"y":2538401.6900000013}},{"attributes":{"ID":88823,"DIS_CODE":0,"TOWNNAME":"仁德區","LI":"上崙里","LIN":"10鄰","STREET":"德善路","SECT":" ","MAREA":" ","LANE":"３０５巷","ALLEY":"１３弄","HOUSE_NO":"８１號三樓","E_COORD97":174069.73000000001,"N_COORD97":2538424.9399999999,"ADDRESS":"德善路３０５巷１３弄８１號三樓","OBJECTID":88823},"geometry":{"x":174069.73000000138,"y":2538424.9399999995}},{"attributes":{"ID":88824,"DIS_CODE":0,"TOWNNAME":"北區","LI":"華興里","LIN":"8鄰","STREET":"南園街","SECT":" ","MAREA":" ","LANE":" ","ALLEY":" ","HOUSE_NO":"１４４號","E_COORD97":170619.19,"N_COORD97":2545259.3199999998,"ADDRESS":"南園街１４４號","OBJECTID":88824},"geometry":{"x":170619.19000000041,"y":2545259.3200000003}},{"attributes":{"ID":88825,"DIS_CODE":0,"TOWNNAME":"將軍區","LI":"將富里","LIN":"12鄰","STREET":" ","SECT":" ","MAREA":"將榮","LANE":" ","ALLEY":" ","HOUSE_NO":"７８號","E_COORD97":161967.23000000001,"N_COORD97":2568647.3700000001,"ADDRESS":"將榮７８號","OBJECTID":88825},"geometry":{"x":161967.23000000231,"y":2568647.3700000048}},{"attributes":{"ID":88826,"DIS_CODE":0,"TOWNNAME":"仁德區","LI":"上崙里","LIN":"10鄰","STREET":"德善路","SECT":" ","MAREA":" ","LANE":"３０５巷","ALLEY":"１３弄","HOUSE_NO":"８３號六樓","E_COORD97":174075.10000000001,"N_COORD97":2538405.4399999999,"ADDRESS":"德善路３０５巷１３弄８３號六樓","OBJECTID":88826},"geometry":{"x":174075.09999999963,"y":2538405.4399999995}},{"attributes":{"ID":88827,"DIS_CODE":0,"TOWNNAME":"仁德區","LI":"上崙里","LIN":"10鄰","STREET":"德善路","SECT":" ","MAREA":" ","LANE":"３０５巷","ALLEY":"１３弄","HOUSE_NO":"７９號三樓","E_COORD97":174068.32999999999,"N_COORD97":2538396.4399999999,"ADDRESS":"德善路３０５巷１３弄７９號三樓","OBJECTID":88827},"geometry":{"x":174068.33000000101,"y":2538396.4400000013}},{"attributes":{"ID":88828,"DIS_CODE":0,"TOWNNAME":"仁德區","LI":"上崙里","LIN":"10鄰","STREET":"德善路","SECT":" ","MAREA":" ","LANE":"３０５巷","ALLEY":"１３弄","HOUSE_NO":"８７號三樓","E_COORD97":174080.37,"N_COORD97":2538419.1899999999,"ADDRESS":"德善路３０５巷１３弄８７號三樓","OBJECTID":88828},"geometry":{"x":174080.37000000104,"y":2538419.1900000013}},{"attributes":{"ID":88829,"DIS_CODE":0,"TOWNNAME":"仁德區","LI":"上崙里","LIN":"10鄰","STREET":"德善路","SECT":" ","MAREA":" ","LANE":"３０５巷","ALLEY":"１３弄","HOUSE_NO":"７７號五樓","E_COORD97":174066.23999999999,"N_COORD97":2538403.4399999999,"ADDRESS":"德善路３０５巷１３弄７７號五樓","OBJECTID":88829},"geometry":{"x":174066.24000000115,"y":2538403.4400000013}},{"attributes":{"ID":88830,"DIS_CODE":0,"TOWNNAME":"仁德區","LI":"上崙里","LIN":"10鄰","STREET":"德善路","SECT":" ","MAREA":" ","LANE":"３０５巷","ALLEY":"１３弄","HOUSE_NO":"７３號二樓","E_COORD97":174061.37,"N_COORD97":2538423.4399999999,"ADDRESS":"德善路３０５巷１３弄７３號二樓","OBJECTID":88830},"geometry":{"x":174061.37000000104,"y":2538423.4400000032}},{"attributes":{"ID":88831,"DIS_CODE":0,"TOWNNAME":"仁德區","LI":"上崙里","LIN":"10鄰","STREET":"德善路","SECT":" ","MAREA":" ","LANE":"３０５巷","ALLEY":"１３弄","HOUSE_NO":"８５號五樓","E_COORD97":174077.51999999999,"N_COORD97":2538428.2000000002,"ADDRESS":"德善路３０５巷１３弄８５號五樓","OBJECTID":88831},"geometry":{"x":174077.51999999955,"y":2538428.200000003}},{"attributes":{"ID":88832,"DIS_CODE":0,"TOWNNAME":"仁德區","LI":"上崙里","LIN":"10鄰","STREET":"德善路","SECT":" ","MAREA":" ","LANE":"３０５巷","ALLEY":"１３弄","HOUSE_NO":"８１號五樓","E_COORD97":174069.73000000001,"N_COORD97":2538424.9399999999,"ADDRESS":"德善路３０５巷１３弄８１號五樓","OBJECTID":88832},"geometry":{"x":174069.73000000138,"y":2538424.9399999995}},{"attributes":{"ID":88833,"DIS_CODE":0,"TOWNNAME":"北區","LI":"成功里","LIN":"10鄰","STREET":"北成路","SECT":" ","MAREA":" ","LANE":"２０巷","ALLEY":"１弄","HOUSE_NO":"２３號","E_COORD97":169201.63,"N_COORD97":2546656.77,"ADDRESS":"北成路２０巷１弄２３號","OBJECTID":88833},"geometry":{"x":169201.62999999989,"y":2546656.7700000014}},{"attributes":{"ID":88834,"DIS_CODE":0,"TOWNNAME":"仁德區","LI":"上崙里","LIN":"10鄰","STREET":"德善路","SECT":" ","MAREA":" ","LANE":"３０５巷","ALLEY":"１３弄","HOUSE_NO":"８９號三樓","E_COORD97":174082.73000000001,"N_COORD97":2538410.6899999999,"ADDRESS":"德善路３０５巷１３弄８９號三樓","OBJECTID":88834},"geometry":{"x":174082.73000000231,"y":2538410.6899999995}},{"attributes":{"ID":88835,"DIS_CODE":0,"TOWNNAME":"仁德區","LI":"上崙里","LIN":"10鄰","STREET":"德善路","SECT":" ","MAREA":" ","LANE":"３０５巷","ALLEY":"１３弄","HOUSE_NO":"８５號三樓","E_COORD97":174077.51999999999,"N_COORD97":2538428.2000000002,"ADDRESS":"德善路３０５巷１３弄８５號三樓","OBJECTID":88835},"geometry":{"x":174077.51999999955,"y":2538428.200000003}},{"attributes":{"ID":88836,"DIS_CODE":0,"TOWNNAME":"仁德區","LI":"上崙里","LIN":"10鄰","STREET":"德善路","SECT":" ","MAREA":" ","LANE":"３０５巷","ALLEY":"１３弄","HOUSE_NO":"８３號二樓","E_COORD97":174075.10000000001,"N_COORD97":2538405.4399999999,"ADDRESS":"德善路３０５巷１３弄８３號二樓","OBJECTID":88836},"geometry":{"x":174075.09999999963,"y":2538405.4399999995}},{"attributes":{"ID":88837,"DIS_CODE":0,"TOWNNAME":"仁德區","LI":"上崙里","LIN":"10鄰","STREET":"德善路","SECT":" ","MAREA":" ","LANE":"３０５巷","ALLEY":"１３弄","HOUSE_NO":"６９號二樓","E_COORD97":174056.51999999999,"N_COORD97":2538440.2000000002,"ADDRESS":"德善路３０５巷１３弄６９號二樓","OBJECTID":88837},"geometry":{"x":174056.52000000048,"y":2538440.1999999993}},{"attributes":{"ID":88838,"DIS_CODE":0,"TOWNNAME":"仁德區","LI":"上崙里","LIN":"10鄰","STREET":"德善路","SECT":" ","MAREA":" ","LANE":"３０５巷","ALLEY":"１３弄","HOUSE_NO":"８３號四樓","E_COORD97":174075.10000000001,"N_COORD97":2538405.4399999999,"ADDRESS":"德善路３０５巷１３弄８３號四樓","OBJECTID":88838},"geometry":{"x":174075.09999999963,"y":2538405.4399999995}},{"attributes":{"ID":88839,"DIS_CODE":0,"TOWNNAME":"仁德區","LI":"上崙里","LIN":"10鄰","STREET":"德善路","SECT":" ","MAREA":" ","LANE":"３０５巷","ALLEY":"１３弄","HOUSE_NO":"８５號四樓","E_COORD97":174077.51999999999,"N_COORD97":2538428.2000000002,"ADDRESS":"德善路３０５巷１３弄８５號四樓","OBJECTID":88839},"geometry":{"x":174077.51999999955,"y":2538428.200000003}},{"attributes":{"ID":88840,"DIS_CODE":0,"TOWNNAME":"將軍區","LI":"將富里","LIN":"12鄰","STREET":" ","SECT":" ","MAREA":"將榮","LANE":" ","ALLEY":" ","HOUSE_NO":"８０號","E_COORD97":162007.53,"N_COORD97":2568658.5099999998,"ADDRESS":"將榮８０號","OBJECTID":88840},"geometry":{"x":162007.53000000119,"y":2568658.5100000035}},{"attributes":{"ID":88841,"DIS_CODE":0,"TOWNNAME":"仁德區","LI":"仁義里","LIN":"10鄰","STREET":"中山路","SECT":" ","MAREA":" ","LANE":"５０９巷","ALLEY":"１８弄","HOUSE_NO":"２號十一樓之３","E_COORD97":173521.85000000001,"N_COORD97":2541259.1899999999,"ADDRESS":"中山路５０９巷１８弄２號十一樓之３","OBJECTID":88841},"geometry":{"x":173521.85000000056,"y":2541259.1900000032}},{"attributes":{"ID":88842,"DIS_CODE":0,"TOWNNAME":"仁德區","LI":"仁義里","LIN":"10鄰","STREET":"中山路","SECT":" ","MAREA":" ","LANE":"５０９巷","ALLEY":"１８弄","HOUSE_NO":"２號十三樓之３","E_COORD97":173521.85000000001,"N_COORD97":2541259.1899999999,"ADDRESS":"中山路５０９巷１８弄２號十三樓之３","OBJECTID":88842},"geometry":{"x":173521.85000000056,"y":2541259.1900000032}},{"attributes":{"ID":88843,"DIS_CODE":0,"TOWNNAME":"仁德區","LI":"仁義里","LIN":"10鄰","STREET":"中山路","SECT":" ","MAREA":" ","LANE":"５０９巷","ALLEY":"１８弄","HOUSE_NO":"２號九樓之１","E_COORD97":173520.5,"N_COORD97":2541259.1899999999,"ADDRESS":"中山路５０９巷１８弄２號九樓之１","OBJECTID":88843},"geometry":{"x":173520.5,"y":2541259.1900000032}},{"attributes":{"ID":88844,"DIS_CODE":0,"TOWNNAME":"仁德區","LI":"仁義里","LIN":"10鄰","STREET":"中山路","SECT":" ","MAREA":" ","LANE":"５０９巷","ALLEY":"１８弄","HOUSE_NO":"２號十二樓之３","E_COORD97":173521.85000000001,"N_COORD97":2541259.1899999999,"ADDRESS":"中山路５０９巷１８弄２號十二樓之３","OBJECTID":88844},"geometry":{"x":173521.85000000056,"y":2541259.1900000032}},{"attributes":{"ID":88845,"DIS_CODE":0,"TOWNNAME":"仁德區","LI":"仁義里","LIN":"10鄰","STREET":"中山路","SECT":" ","MAREA":" ","LANE":"５０９巷","ALLEY":"１８弄","HOUSE_NO":"２號十二樓之１","E_COORD97":173521.75,"N_COORD97":2541259.1899999999,"ADDRESS":"中山路５０９巷１８弄２號十二樓之１","OBJECTID":88845},"geometry":{"x":173521.75000000093,"y":2541259.1900000032}},{"attributes":{"ID":88846,"DIS_CODE":0,"TOWNNAME":"將軍區","LI":"鯤鯓里","LIN":"12鄰","STREET":" ","SECT":" ","MAREA":"鯤鯓","LANE":" ","ALLEY":" ","HOUSE_NO":"１１４之１號","E_COORD97":156696.79000000001,"N_COORD97":2565636.52,"ADDRESS":"鯤鯓１１４之１號","OBJECTID":88846},"geometry":{"x":156696.79000000097,"y":2565636.5199999996}},{"attributes":{"ID":88847,"DIS_CODE":0,"TOWNNAME":"仁德區","LI":"仁義里","LIN":"10鄰","STREET":"中山路","SECT":" ","MAREA":" ","LANE":"５０９巷","ALLEY":"１８弄","HOUSE_NO":"２號十二樓之２","E_COORD97":173521.89000000001,"N_COORD97":2541259.1899999999,"ADDRESS":"中山路５０９巷１８弄２號十二樓之２","OBJECTID":88847},"geometry":{"x":173521.8900000006,"y":2541259.1900000032}},{"attributes":{"ID":88848,"DIS_CODE":0,"TOWNNAME":"仁德區","LI":"仁義里","LIN":"10鄰","STREET":"中山路","SECT":" ","MAREA":" ","LANE":"５０９巷","ALLEY":"１８弄","HOUSE_NO":"２號十樓之１","E_COORD97":173520.5,"N_COORD97":2541259.1899999999,"ADDRESS":"中山路５０９巷１８弄２號十樓之１","OBJECTID":88848},"geometry":{"x":173520.5,"y":2541259.1900000032}},{"attributes":{"ID":88849,"DIS_CODE":0,"TOWNNAME":"將軍區","LI":"將富里","LIN":"12鄰","STREET":" ","SECT":" ","MAREA":"將榮","LANE":" ","ALLEY":" ","HOUSE_NO":"８１號","E_COORD97":161987.32000000001,"N_COORD97":2568689,"ADDRESS":"將榮８１號","OBJECTID":88849},"geometry":{"x":161987.32000000123,"y":2568688.9999999981}},{"attributes":{"ID":88850,"DIS_CODE":0,"TOWNNAME":"仁德區","LI":"仁義里","LIN":"10鄰","STREET":"中山路","SECT":" ","MAREA":" ","LANE":"５０９巷","ALLEY":"１８弄","HOUSE_NO":"２號十一樓之６","E_COORD97":173521.85999999999,"N_COORD97":2541259.1899999999,"ADDRESS":"中山路５０９巷１８弄２號十一樓之６","OBJECTID":88850},"geometry":{"x":173521.86000000034,"y":2541259.1900000032}},{"attributes":{"ID":88851,"DIS_CODE":0,"TOWNNAME":"仁德區","LI":"仁義里","LIN":"10鄰","STREET":"中山路","SECT":" ","MAREA":" ","LANE":"５０９巷","ALLEY":"１８弄","HOUSE_NO":"２號九樓之６","E_COORD97":173520.60999999999,"N_COORD97":2541259.1899999999,"ADDRESS":"中山路５０９巷１８弄２號九樓之６","OBJECTID":88851},"geometry":{"x":173520.6100000022,"y":2541259.1900000032}},{"attributes":{"ID":88852,"DIS_CODE":0,"TOWNNAME":"仁德區","LI":"仁義里","LIN":"10鄰","STREET":"中山路","SECT":" ","MAREA":" ","LANE":"５０９巷","ALLEY":"１８弄","HOUSE_NO":"２號十二樓之５","E_COORD97":173521.91,"N_COORD97":2541259.1899999999,"ADDRESS":"中山路５０９巷１８弄２號十二樓之５","OBJECTID":88852},"geometry":{"x":173521.91000000108,"y":2541259.1900000032}},{"attributes":{"ID":88853,"DIS_CODE":0,"TOWNNAME":"北區","LI":"華興里","LIN":"8鄰","STREET":"南園街","SECT":" ","MAREA":" ","LANE":" ","ALLEY":" ","HOUSE_NO":"１４６號","E_COORD97":170618.70999999999,"N_COORD97":2545254.9900000002,"ADDRESS":"南園街１４６號","OBJECTID":88853},"geometry":{"x":170618.70999999996,"y":2545254.9899999984}},{"attributes":{"ID":88854,"DIS_CODE":0,"TOWNNAME":"北區","LI":"華興里","LIN":"8鄰","STREET":"南園街","SECT":" ","MAREA":" ","LANE":" ","ALLEY":" ","HOUSE_NO":"１４８號","E_COORD97":170618.23999999999,"N_COORD97":2545250.4900000002,"ADDRESS":"南園街１４８號","OBJECTID":88854},"geometry":{"x":170618.24000000022,"y":2545250.4900000002}},{"attributes":{"ID":88855,"DIS_CODE":0,"TOWNNAME":"新化區","LI":"知義里","LIN":" ","STREET":" ","SECT":" ","MAREA":"新和庄","LANE":" ","ALLEY":" ","HOUSE_NO":"２２１號","E_COORD97":181486.29000000001,"N_COORD97":2546948.25,"ADDRESS":"新和庄２２１號","OBJECTID":88855},"geometry":{"x":181486.28999999911,"y":2546948.2499999981}},{"attributes":{"ID":88856,"DIS_CODE":0,"TOWNNAME":"鹽水區","LI":"岸內里","LIN":" ","STREET":" ","SECT":" ","MAREA":"岸內","LANE":" ","ALLEY":" ","HOUSE_NO":"９６號","E_COORD97":174686.51000000001,"N_COORD97":2580938,"ADDRESS":"岸內９６號","OBJECTID":88856},"geometry":{"x":174686.50999999978,"y":2580938}},{"attributes":{"ID":88857,"DIS_CODE":0,"TOWNNAME":"將軍區","LI":"將富里","LIN":"12鄰","STREET":" ","SECT":" ","MAREA":"將榮","LANE":" ","ALLEY":" ","HOUSE_NO":"８２號","E_COORD97":162020.92999999999,"N_COORD97":2568681.71,"ADDRESS":"將榮８２號","OBJECTID":88857},"geometry":{"x":162020.93000000156,"y":2568681.7100000009}},{"attributes":{"ID":88858,"DIS_CODE":0,"TOWNNAME":"將軍區","LI":"將貴里","LIN":"12鄰","STREET":" ","SECT":" ","MAREA":"將榮","LANE":" ","ALLEY":" ","HOUSE_NO":"８號","E_COORD97":161847.72,"N_COORD97":2568459.4500000002,"ADDRESS":"將榮８號","OBJECTID":88858},"geometry":{"x":161847.71999999881,"y":2568459.4500000011}},{"attributes":{"ID":88859,"DIS_CODE":0,"TOWNNAME":"將軍區","LI":"將貴里","LIN":"12鄰","STREET":" ","SECT":" ","MAREA":"將榮","LANE":" ","ALLEY":" ","HOUSE_NO":"９號","E_COORD97":161845.37,"N_COORD97":2568470.1299999999,"ADDRESS":"將榮９號","OBJECTID":88859},"geometry":{"x":161845.36999999918,"y":2568470.1299999971}},{"attributes":{"ID":88860,"DIS_CODE":0,"TOWNNAME":"將軍區","LI":"保源里","LIN":"12鄰","STREET":" ","SECT":" ","MAREA":"源頭","LANE":" ","ALLEY":" ","HOUSE_NO":"１２號","E_COORD97":164544.35999999999,"N_COORD97":2567834.0899999999,"ADDRESS":"源頭１２號","OBJECTID":88860},"geometry":{"x":164544.36000000034,"y":2567834.0900000036}},{"attributes":{"ID":88861,"DIS_CODE":0,"TOWNNAME":"將軍區","LI":"保源里","LIN":"12鄰","STREET":" ","SECT":" ","MAREA":"源頭","LANE":" ","ALLEY":" ","HOUSE_NO":"１３之１０號","E_COORD97":164295.32999999999,"N_COORD97":2567862.5299999998,"ADDRESS":"源頭１３之１０號","OBJECTID":88861},"geometry":{"x":164295.33000000194,"y":2567862.5300000012}},{"attributes":{"ID":88862,"DIS_CODE":0,"TOWNNAME":"將軍區","LI":"保源里","LIN":"12鄰","STREET":" ","SECT":" ","MAREA":"源頭","LANE":" ","ALLEY":" ","HOUSE_NO":"１３之３號","E_COORD97":164443.89999999999,"N_COORD97":2567796.3799999999,"ADDRESS":"源頭１３之３號","OBJECTID":88862},"geometry":{"x":164443.90000000037,"y":2567796.379999999}},{"attributes":{"ID":88863,"DIS_CODE":0,"TOWNNAME":"將軍區","LI":"保源里","LIN":"12鄰","STREET":" ","SECT":" ","MAREA":"源頭","LANE":" ","ALLEY":" ","HOUSE_NO":"１３號","E_COORD97":164486.53,"N_COORD97":2567836.21,"ADDRESS":"源頭１３號","OBJECTID":88863},"geometry":{"x":164486.53000000026,"y":2567836.2100000009}},{"attributes":{"ID":88864,"DIS_CODE":0,"TOWNNAME":"將軍區","LI":"保源里","LIN":"12鄰","STREET":" ","SECT":" ","MAREA":"源頭","LANE":" ","ALLEY":" ","HOUSE_NO":"１４號","E_COORD97":164537.85000000001,"N_COORD97":2567844.7400000002,"ADDRESS":"源頭１４號","OBJECTID":88864},"geometry":{"x":164537.85000000056,"y":2567844.7400000021}},{"attributes":{"ID":88865,"DIS_CODE":0,"TOWNNAME":"將軍區","LI":"保源里","LIN":"12鄰","STREET":" ","SECT":" ","MAREA":"源頭","LANE":" ","ALLEY":" ","HOUSE_NO":"１５號","E_COORD97":164556.07000000001,"N_COORD97":2567846.04,"ADDRESS":"源頭１５號","OBJECTID":88865},"geometry":{"x":164556.0700000003,"y":2567846.0399999991}},{"attributes":{"ID":88866,"DIS_CODE":0,"TOWNNAME":"將軍區","LI":"保源里","LIN":"12鄰","STREET":" ","SECT":" ","MAREA":"源頭","LANE":" ","ALLEY":" ","HOUSE_NO":"１６號","E_COORD97":164573.69,"N_COORD97":2567827.0299999998,"ADDRESS":"源頭１６號","OBJECTID":88866},"geometry":{"x":164573.69000000134,"y":2567827.0299999975}},{"attributes":{"ID":88867,"DIS_CODE":0,"TOWNNAME":"仁德區","LI":"仁義里","LIN":"10鄰","STREET":"中山路","SECT":" ","MAREA":" ","LANE":"５０９巷","ALLEY":"１８弄","HOUSE_NO":"２號五樓之２","E_COORD97":173520.64000000001,"N_COORD97":2541259.1899999999,"ADDRESS":"中山路５０９巷１８弄２號五樓之２","OBJECTID":88867},"geometry":{"x":173520.63999999966,"y":2541259.1900000032}},{"attributes":{"ID":88868,"DIS_CODE":0,"TOWNNAME":"仁德區","LI":"仁義里","LIN":"10鄰","STREET":"中山路","SECT":" ","MAREA":" ","LANE":"５０９巷","ALLEY":"１８弄","HOUSE_NO":"２號五樓之６","E_COORD97":173520.60999999999,"N_COORD97":2541259.1899999999,"ADDRESS":"中山路５０９巷１８弄２號五樓之６","OBJECTID":88868},"geometry":{"x":173520.6100000022,"y":2541259.1900000032}},{"attributes":{"ID":88869,"DIS_CODE":0,"TOWNNAME":"仁德區","LI":"仁義里","LIN":"10鄰","STREET":"中山路","SECT":" ","MAREA":" ","LANE":"５０９巷","ALLEY":"１８弄","HOUSE_NO":"２號十四樓之２","E_COORD97":173521.89000000001,"N_COORD97":2541259.1899999999,"ADDRESS":"中山路５０９巷１８弄２號十四樓之２","OBJECTID":88869},"geometry":{"x":173521.8900000006,"y":2541259.1900000032}},{"attributes":{"ID":88870,"DIS_CODE":0,"TOWNNAME":"仁德區","LI":"仁義里","LIN":"10鄰","STREET":"中山路","SECT":" ","MAREA":" ","LANE":"５０９巷","ALLEY":"１８弄","HOUSE_NO":"２號七樓之５","E_COORD97":173520.66,"N_COORD97":2541259.1899999999,"ADDRESS":"中山路５０９巷１８弄２號七樓之５","OBJECTID":88870},"geometry":{"x":173520.66000000108,"y":2541259.1900000032}},{"attributes":{"ID":88871,"DIS_CODE":0,"TOWNNAME":"仁德區","LI":"仁義里","LIN":"10鄰","STREET":"中山路","SECT":" ","MAREA":" ","LANE":"５０９巷","ALLEY":"１８弄","HOUSE_NO":"２號六樓之６","E_COORD97":173520.60999999999,"N_COORD97":2541259.1899999999,"ADDRESS":"中山路５０９巷１８弄２號六樓之６","OBJECTID":88871},"geometry":{"x":173520.6100000022,"y":2541259.1900000032}},{"attributes":{"ID":88872,"DIS_CODE":0,"TOWNNAME":"將軍區","LI":"保源里","LIN":"12鄰","STREET":" ","SECT":" ","MAREA":"源頭","LANE":" ","ALLEY":" ","HOUSE_NO":"１７號","E_COORD97":164585.72,"N_COORD97":2567839.6800000002,"ADDRESS":"源頭１７號","OBJECTID":88872},"geometry":{"x":164585.72000000067,"y":2567839.6799999997}},{"attributes":{"ID":88873,"DIS_CODE":0,"TOWNNAME":"將軍區","LI":"保源里","LIN":"12鄰","STREET":" ","SECT":" ","MAREA":"源頭","LANE":" ","ALLEY":" ","HOUSE_NO":"１８號","E_COORD97":164578.42999999999,"N_COORD97":2567817.9700000002,"ADDRESS":"源頭１８號","OBJECTID":88873},"geometry":{"x":164578.4299999997,"y":2567817.9700000007}},{"attributes":{"ID":88874,"DIS_CODE":0,"TOWNNAME":"將軍區","LI":"保源里","LIN":"12鄰","STREET":" ","SECT":" ","MAREA":"源頭","LANE":" ","ALLEY":" ","HOUSE_NO":"１９號","E_COORD97":164593.32000000001,"N_COORD97":2567831.7599999998,"ADDRESS":"源頭１９號","OBJECTID":88874},"geometry":{"x":164593.3200000003,"y":2567831.7599999998}},{"attributes":{"ID":88875,"DIS_CODE":0,"TOWNNAME":"將軍區","LI":"保源里","LIN":"12鄰","STREET":" ","SECT":" ","MAREA":"源頭","LANE":" ","ALLEY":" ","HOUSE_NO":"２０號","E_COORD97":164592.95000000001,"N_COORD97":2567857.5899999999,"ADDRESS":"源頭２０號","OBJECTID":88875},"geometry":{"x":164592.95000000205,"y":2567857.589999998}},{"attributes":{"ID":88876,"DIS_CODE":0,"TOWNNAME":"將軍區","LI":"廣山里","LIN":"12鄰","STREET":" ","SECT":" ","MAREA":"廣山","LANE":" ","ALLEY":" ","HOUSE_NO":"１１２之１號","E_COORD97":159571.22,"N_COORD97":2569018.27,"ADDRESS":"廣山１１２之１號","OBJECTID":88876},"geometry":{"x":159571.2200000016,"y":2569018.2699999996}},{"attributes":{"ID":88877,"DIS_CODE":0,"TOWNNAME":"仁德區","LI":"仁義里","LIN":"10鄰","STREET":"中山路","SECT":" ","MAREA":" ","LANE":"５０９巷","ALLEY":"１８弄","HOUSE_NO":"２號七樓之６","E_COORD97":173520.60999999999,"N_COORD97":2541259.1899999999,"ADDRESS":"中山路５０９巷１８弄２號七樓之６","OBJECTID":88877},"geometry":{"x":173520.6100000022,"y":2541259.1900000032}},{"attributes":{"ID":88878,"DIS_CODE":0,"TOWNNAME":"仁德區","LI":"仁義里","LIN":"10鄰","STREET":"中山路","SECT":" ","MAREA":" ","LANE":"５０９巷","ALLEY":"１８弄","HOUSE_NO":"２號六樓之３","E_COORD97":173520.60000000001,"N_COORD97":2541259.1899999999,"ADDRESS":"中山路５０９巷１８弄２號六樓之３","OBJECTID":88878},"geometry":{"x":173520.60000000056,"y":2541259.1900000032}},{"attributes":{"ID":88879,"DIS_CODE":0,"TOWNNAME":"仁德區","LI":"仁義里","LIN":"10鄰","STREET":"中山路","SECT":" ","MAREA":" ","LANE":"５０９巷","ALLEY":"１８弄","HOUSE_NO":"２號十二樓之６","E_COORD97":173521.85999999999,"N_COORD97":2541259.1899999999,"ADDRESS":"中山路５０９巷１８弄２號十二樓之６","OBJECTID":88879},"geometry":{"x":173521.86000000034,"y":2541259.1900000032}},{"attributes":{"ID":88880,"DIS_CODE":0,"TOWNNAME":"仁德區","LI":"仁義里","LIN":"10鄰","STREET":"中山路","SECT":" ","MAREA":" ","LANE":"５０９巷","ALLEY":"１８弄","HOUSE_NO":"２號八樓之２","E_COORD97":173520.64000000001,"N_COORD97":2541259.1899999999,"ADDRESS":"中山路５０９巷１８弄２號八樓之２","OBJECTID":88880},"geometry":{"x":173520.63999999966,"y":2541259.1900000032}},{"attributes":{"ID":88881,"DIS_CODE":0,"TOWNNAME":"仁德區","LI":"仁義里","LIN":"10鄰","STREET":"中山路","SECT":" ","MAREA":" ","LANE":"５０９巷","ALLEY":"１８弄","HOUSE_NO":"２號九樓之３","E_COORD97":173520.60000000001,"N_COORD97":2541259.1899999999,"ADDRESS":"中山路５０９巷１８弄２號九樓之３","OBJECTID":88881},"geometry":{"x":173520.60000000056,"y":2541259.1900000032}},{"attributes":{"ID":88882,"DIS_CODE":0,"TOWNNAME":"仁德區","LI":"仁義里","LIN":"10鄰","STREET":"中山路","SECT":" ","MAREA":" ","LANE":"５０９巷","ALLEY":"１８弄","HOUSE_NO":"２號十一樓之５","E_COORD97":173521.91,"N_COORD97":2541259.1899999999,"ADDRESS":"中山路５０９巷１８弄２號十一樓之５","OBJECTID":88882},"geometry":{"x":173521.91000000108,"y":2541259.1900000032}},{"attributes":{"ID":88883,"DIS_CODE":0,"TOWNNAME":"北區","LI":"六甲里","LIN":"15鄰","STREET":"西門路","SECT":"四段","MAREA":" ","LANE":"２８０巷","ALLEY":" ","HOUSE_NO":"３１號","E_COORD97":169023.06,"N_COORD97":2545876.8700000001,"ADDRESS":"西門路四段２８０巷３１號","OBJECTID":88883},"geometry":{"x":169023.06000000052,"y":2545876.870000001}},{"attributes":{"ID":88884,"DIS_CODE":0,"TOWNNAME":"北區","LI":"華興里","LIN":"8鄰","STREET":"南園街","SECT":" ","MAREA":" ","LANE":" ","ALLEY":" ","HOUSE_NO":"１５０號","E_COORD97":170617.44,"N_COORD97":2545240.4300000002,"ADDRESS":"南園街１５０號","OBJECTID":88884},"geometry":{"x":170617.44000000041,"y":2545240.4299999997}},{"attributes":{"ID":88885,"DIS_CODE":0,"TOWNNAME":"北區","LI":"華興里","LIN":"8鄰","STREET":"南園街","SECT":" ","MAREA":" ","LANE":" ","ALLEY":" ","HOUSE_NO":"１５２號","E_COORD97":170616.73000000001,"N_COORD97":2545236.3300000001,"ADDRESS":"南園街１５２號","OBJECTID":88885},"geometry":{"x":170616.73000000138,"y":2545236.3300000019}},{"attributes":{"ID":88886,"DIS_CODE":0,"TOWNNAME":"北區","LI":"華興里","LIN":"8鄰","STREET":"南園街","SECT":" ","MAREA":" ","LANE":" ","ALLEY":" ","HOUSE_NO":"１５４號","E_COORD97":170616.10000000001,"N_COORD97":2545232.7000000002,"ADDRESS":"南園街１５４號","OBJECTID":88886},"geometry":{"x":170616.10000000149,"y":2545232.700000003}},{"attributes":{"ID":88887,"DIS_CODE":0,"TOWNNAME":"北區","LI":"華興里","LIN":"8鄰","STREET":"南園街","SECT":" ","MAREA":" ","LANE":" ","ALLEY":" ","HOUSE_NO":"１５６號","E_COORD97":170615.23000000001,"N_COORD97":2545228.1099999999,"ADDRESS":"南園街１５６號","OBJECTID":88887},"geometry":{"x":170615.23000000045,"y":2545228.1100000013}},{"attributes":{"ID":88888,"DIS_CODE":0,"TOWNNAME":"永康區","LI":"永康里","LIN":"18鄰","STREET":"永中街","SECT":" ","MAREA":" ","LANE":" ","ALLEY":" ","HOUSE_NO":"１３２號","E_COORD97":173984.07999999999,"N_COORD97":2547271.5800000001,"ADDRESS":"永中街１３２號","OBJECTID":88888},"geometry":{"x":173984.08000000101,"y":2547271.5799999982}},{"attributes":{"ID":88889,"DIS_CODE":0,"TOWNNAME":"永康區","LI":"甲頂里","LIN":"14鄰","STREET":"大武街","SECT":" ","MAREA":" ","LANE":" ","ALLEY":" ","HOUSE_NO":"２９號","E_COORD97":170299.14999999999,"N_COORD97":2546707.7400000002,"ADDRESS":"大武街２９號","OBJECTID":88889},"geometry":{"x":170299.15000000037,"y":2546707.7400000002}},{"attributes":{"ID":88890,"DIS_CODE":0,"TOWNNAME":"永康區","LI":"甲頂里","LIN":"14鄰","STREET":"大武街","SECT":" ","MAREA":" ","LANE":" ","ALLEY":" ","HOUSE_NO":"５０號","E_COORD97":170347.60999999999,"N_COORD97":2546743.8599999999,"ADDRESS":"大武街５０號","OBJECTID":88890},"geometry":{"x":170347.61000000127,"y":2546743.8600000031}},{"attributes":{"ID":88891,"DIS_CODE":0,"TOWNNAME":"將軍區","LI":"廣山里","LIN":"12鄰","STREET":" ","SECT":" ","MAREA":"廣山","LANE":" ","ALLEY":" ","HOUSE_NO":"１１２號","E_COORD97":159571.14000000001,"N_COORD97":2569046.7000000002,"ADDRESS":"廣山１１２號","OBJECTID":88891},"geometry":{"x":159571.13999999966,"y":2569046.700000003}},{"attributes":{"ID":88892,"DIS_CODE":0,"TOWNNAME":"將軍區","LI":"廣山里","LIN":"12鄰","STREET":" ","SECT":" ","MAREA":"廣山","LANE":" ","ALLEY":" ","HOUSE_NO":"１１３號","E_COORD97":159566.82999999999,"N_COORD97":2569071.25,"ADDRESS":"廣山１１３號","OBJECTID":88892},"geometry":{"x":159566.83000000007,"y":2569071.2500000019}},{"attributes":{"ID":88893,"DIS_CODE":0,"TOWNNAME":"將軍區","LI":"廣山里","LIN":"12鄰","STREET":" ","SECT":" ","MAREA":"廣山","LANE":" ","ALLEY":" ","HOUSE_NO":"１１６號","E_COORD97":159581.81,"N_COORD97":2569060.1600000001,"ADDRESS":"廣山１１６號","OBJECTID":88893},"geometry":{"x":159581.80999999959,"y":2569060.1600000001}},{"attributes":{"ID":88894,"DIS_CODE":0,"TOWNNAME":"將軍區","LI":"廣山里","LIN":"12鄰","STREET":" ","SECT":" ","MAREA":"廣山","LANE":" ","ALLEY":" ","HOUSE_NO":"１１８號","E_COORD97":159604.51999999999,"N_COORD97":2569042.29,"ADDRESS":"廣山１１８號","OBJECTID":88894},"geometry":{"x":159604.52000000142,"y":2569042.2900000028}},{"attributes":{"ID":88895,"DIS_CODE":0,"TOWNNAME":"安南區","LI":"理想里","LIN":"10鄰","STREET":"海佃路","SECT":"二段","MAREA":" ","LANE":"１５０巷","ALLEY":"１０弄","HOUSE_NO":"１９號","E_COORD97":167094.01000000001,"N_COORD97":2548110.5800000001,"ADDRESS":"海佃路二段１５０巷１０弄１９號","OBJECTID":88895},"geometry":{"x":167094.00999999978,"y":2548110.5800000019}},{"attributes":{"ID":88896,"DIS_CODE":0,"TOWNNAME":"仁德區","LI":"仁義里","LIN":"10鄰","STREET":"中山路","SECT":" ","MAREA":" ","LANE":"５０９巷","ALLEY":"１８弄","HOUSE_NO":"２號十四樓之３","E_COORD97":173521.85000000001,"N_COORD97":2541259.1899999999,"ADDRESS":"中山路５０９巷１８弄２號十四樓之３","OBJECTID":88896},"geometry":{"x":173521.85000000056,"y":2541259.1900000032}},{"attributes":{"ID":88897,"DIS_CODE":0,"TOWNNAME":"仁德區","LI":"仁義里","LIN":"10鄰","STREET":"中山路","SECT":" ","MAREA":" ","LANE":"５０９巷","ALLEY":"１８弄","HOUSE_NO":"２號十四樓之５","E_COORD97":173521.91,"N_COORD97":2541259.1899999999,"ADDRESS":"中山路５０９巷１８弄２號十四樓之５","OBJECTID":88897},"geometry":{"x":173521.91000000108,"y":2541259.1900000032}},{"attributes":{"ID":88898,"DIS_CODE":0,"TOWNNAME":"仁德區","LI":"仁義里","LIN":"10鄰","STREET":"中山路","SECT":" ","MAREA":" ","LANE":"５０９巷","ALLEY":"１８弄","HOUSE_NO":"２號十樓之３","E_COORD97":173520.60000000001,"N_COORD97":2541259.1899999999,"ADDRESS":"中山路５０９巷１８弄２號十樓之３","OBJECTID":88898},"geometry":{"x":173520.60000000056,"y":2541259.1900000032}},{"attributes":{"ID":88899,"DIS_CODE":0,"TOWNNAME":"仁德區","LI":"仁義里","LIN":"10鄰","STREET":"中山路","SECT":" ","MAREA":" ","LANE":"５０９巷","ALLEY":"１８弄","HOUSE_NO":"２號四樓之６","E_COORD97":173520.60999999999,"N_COORD97":2541259.1899999999,"ADDRESS":"中山路５０９巷１８弄２號四樓之６","OBJECTID":88899},"geometry":{"x":173520.6100000022,"y":2541259.1900000032}},{"attributes":{"ID":88900,"DIS_CODE":0,"TOWNNAME":"仁德區","LI":"仁義里","LIN":"10鄰","STREET":"中山路","SECT":" ","MAREA":" ","LANE":"５０９巷","ALLEY":"１８弄","HOUSE_NO":"２號三樓之１","E_COORD97":173520.5,"N_COORD97":2541259.1899999999,"ADDRESS":"中山路５０９巷１８弄２號三樓之１","OBJECTID":88900},"geometry":{"x":173520.5,"y":2541259.1900000032}},{"attributes":{"ID":88901,"DIS_CODE":0,"TOWNNAME":"仁德區","LI":"仁義里","LIN":"10鄰","STREET":"中山路","SECT":" ","MAREA":" ","LANE":"５０９巷","ALLEY":"１８弄","HOUSE_NO":"２號三樓之５","E_COORD97":173520.66,"N_COORD97":2541259.1899999999,"ADDRESS":"中山路５０９巷１８弄２號三樓之５","OBJECTID":88901},"geometry":{"x":173520.66000000108,"y":2541259.1900000032}},{"attributes":{"ID":88902,"DIS_CODE":0,"TOWNNAME":"仁德區","LI":"仁義里","LIN":"10鄰","STREET":"中山路","SECT":" ","MAREA":" ","LANE":"５０９巷","ALLEY":"１８弄","HOUSE_NO":"２號四樓之２","E_COORD97":173520.64000000001,"N_COORD97":2541259.1899999999,"ADDRESS":"中山路５０９巷１８弄２號四樓之２","OBJECTID":88902},"geometry":{"x":173520.63999999966,"y":2541259.1900000032}},{"attributes":{"ID":88903,"DIS_CODE":0,"TOWNNAME":"仁德區","LI":"仁義里","LIN":"10鄰","STREET":"中山路","SECT":" ","MAREA":" ","LANE":"５０９巷","ALLEY":"１８弄","HOUSE_NO":"２號七樓之１","E_COORD97":173520.5,"N_COORD97":2541259.1899999999,"ADDRESS":"中山路５０９巷１８弄２號七樓之１","OBJECTID":88903},"geometry":{"x":173520.5,"y":2541259.1900000032}},{"attributes":{"ID":88904,"DIS_CODE":0,"TOWNNAME":"仁德區","LI":"仁義里","LIN":"10鄰","STREET":"中山路","SECT":" ","MAREA":" ","LANE":"５０９巷","ALLEY":"１８弄","HOUSE_NO":"２號十樓之２","E_COORD97":173520.64000000001,"N_COORD97":2541259.1899999999,"ADDRESS":"中山路５０９巷１８弄２號十樓之２","OBJECTID":88904},"geometry":{"x":173520.63999999966,"y":2541259.1900000032}},{"attributes":{"ID":88905,"DIS_CODE":0,"TOWNNAME":"仁德區","LI":"仁義里","LIN":"10鄰","STREET":"中山路","SECT":" ","MAREA":" ","LANE":"５０９巷","ALLEY":"１８弄","HOUSE_NO":"２號十三樓之１","E_COORD97":173521.75,"N_COORD97":2541259.1899999999,"ADDRESS":"中山路５０９巷１８弄２號十三樓之１","OBJECTID":88905},"geometry":{"x":173521.75000000093,"y":2541259.1900000032}},{"attributes":{"ID":88906,"DIS_CODE":0,"TOWNNAME":"仁德區","LI":"仁義里","LIN":"10鄰","STREET":"中山路","SECT":" ","MAREA":" ","LANE":"５０９巷","ALLEY":"１８弄","HOUSE_NO":"２號八樓之３","E_COORD97":173520.60000000001,"N_COORD97":2541259.1899999999,"ADDRESS":"中山路５０９巷１８弄２號八樓之３","OBJECTID":88906},"geometry":{"x":173520.60000000056,"y":2541259.1900000032}},{"attributes":{"ID":88907,"DIS_CODE":0,"TOWNNAME":"仁德區","LI":"仁義里","LIN":"10鄰","STREET":"中山路","SECT":" ","MAREA":" ","LANE":"５０９巷","ALLEY":"１８弄","HOUSE_NO":"２號六樓之５","E_COORD97":173520.66,"N_COORD97":2541259.1899999999,"ADDRESS":"中山路５０９巷１８弄２號六樓之５","OBJECTID":88907},"geometry":{"x":173520.66000000108,"y":2541259.1900000032}},{"attributes":{"ID":88908,"DIS_CODE":0,"TOWNNAME":"仁德區","LI":"後壁里","LIN":"10鄰","STREET":"民安路","SECT":"二段","MAREA":" ","LANE":"１８２巷","ALLEY":"１８弄","HOUSE_NO":"５號","E_COORD97":173734.91,"N_COORD97":2538902.5600000001,"ADDRESS":"民安路二段１８２巷１８弄５號","OBJECTID":88908},"geometry":{"x":173734.91000000015,"y":2538902.5600000024}},{"attributes":{"ID":88909,"DIS_CODE":0,"TOWNNAME":"安南區","LI":"原佃里","LIN":"10鄰","STREET":"本原街","SECT":"二段","MAREA":" ","LANE":"１０６巷","ALLEY":"９０弄","HOUSE_NO":"３號","E_COORD97":167136.39676599999,"N_COORD97":2550984.8370400001,"ADDRESS":"本原街二段１０６巷９０弄３號","OBJECTID":88909},"geometry":{"x":167136.39676600136,"y":2550984.8370420001}},{"attributes":{"ID":88910,"DIS_CODE":0,"TOWNNAME":"永康區","LI":"中興里","LIN":"10鄰","STREET":"忠孝路","SECT":" ","MAREA":" ","LANE":"２３９巷","ALLEY":"２０弄","HOUSE_NO":"５號","E_COORD97":172023.45000000001,"N_COORD97":2545074.25,"ADDRESS":"忠孝路２３９巷２０弄５號","OBJECTID":88910},"geometry":{"x":172023.45000000112,"y":2545074.2500000019}},{"attributes":{"ID":88911,"DIS_CODE":0,"TOWNNAME":"永康區","LI":"大橋里","LIN":"10鄰","STREET":"大橋二街","SECT":" ","MAREA":" ","LANE":"２３９巷","ALLEY":"２１弄","HOUSE_NO":"３２號","E_COORD97":171017.04999999999,"N_COORD97":2546813.9500000002,"ADDRESS":"大橋二街２３９巷２１弄３２號","OBJECTID":88911},"geometry":{"x":171017.05000000075,"y":2546813.950000003}},{"attributes":{"ID":88912,"DIS_CODE":0,"TOWNNAME":"永康區","LI":"中興里","LIN":"10鄰","STREET":"忠孝路","SECT":" ","MAREA":" ","LANE":"２３９巷","ALLEY":"２０弄","HOUSE_NO":"１４號","E_COORD97":172034.20999999999,"N_COORD97":2545095.5,"ADDRESS":"忠孝路２３９巷２０弄１４號","OBJECTID":88912},"geometry":{"x":172034.20999999996,"y":2545095.5000000037}},{"attributes":{"ID":88913,"DIS_CODE":0,"TOWNNAME":"東區","LI":"富強里","LIN":"10鄰","STREET":"中華東路","SECT":"二段","MAREA":" ","LANE":"２２６巷","ALLEY":"２８弄","HOUSE_NO":"３５號","E_COORD97":171119.23000000001,"N_COORD97":2542704.6899999999,"ADDRESS":"中華東路二段２２６巷２８弄３５號","OBJECTID":88913},"geometry":{"x":171119.23000000045,"y":2542704.6900000013}},{"attributes":{"ID":88914,"DIS_CODE":0,"TOWNNAME":"安南區","LI":"鳳凰里","LIN":"28鄰","STREET":"安中路","SECT":"一段","MAREA":" ","LANE":"６２２巷","ALLEY":"８８弄","HOUSE_NO":"２１號","E_COORD97":168067.92999999999,"N_COORD97":2549096.04,"ADDRESS":"安中路一段６２２巷８８弄２１號","OBJECTID":88914},"geometry":{"x":168067.93000000063,"y":2549096.040000001}},{"attributes":{"ID":88915,"DIS_CODE":0,"TOWNNAME":"北區","LI":"文元里","LIN":"15鄰","STREET":"文賢路","SECT":" ","MAREA":" ","LANE":" ","ALLEY":" ","HOUSE_NO":"９８６號","E_COORD97":167387.37,"N_COORD97":2545821.46,"ADDRESS":"文賢路９８６號","OBJECTID":88915},"geometry":{"x":167387.37000000104,"y":2545821.4600000009}},{"attributes":{"ID":88916,"DIS_CODE":0,"TOWNNAME":"歸仁區","LI":"大廟里","LIN":"15鄰","STREET":"大廟六街","SECT":" ","MAREA":" ","LANE":" ","ALLEY":" ","HOUSE_NO":"１５７號","E_COORD97":176311.42000000001,"N_COORD97":2544406.25,"ADDRESS":"大廟六街１５７號","OBJECTID":88916},"geometry":{"x":176311.41999999993,"y":2544406.2500000019}},{"attributes":{"ID":88917,"DIS_CODE":0,"TOWNNAME":"歸仁區","LI":"七甲里","LIN":"15鄰","STREET":"南潭三街","SECT":" ","MAREA":" ","LANE":" ","ALLEY":" ","HOUSE_NO":"４２號","E_COORD97":176207.48999999999,"N_COORD97":2543143.25,"ADDRESS":"南潭三街４２號","OBJECTID":88917},"geometry":{"x":176207.49000000022,"y":2543143.25}},{"attributes":{"ID":88918,"DIS_CODE":0,"TOWNNAME":"歸仁區","LI":"大廟里","LIN":"15鄰","STREET":"大廟六街","SECT":" ","MAREA":" ","LANE":" ","ALLEY":" ","HOUSE_NO":"９５號","E_COORD97":176171.07999999999,"N_COORD97":2544302.0899999999,"ADDRESS":"大廟六街９５號","OBJECTID":88918},"geometry":{"x":176171.08000000007,"y":2544302.0900000017}},{"attributes":{"ID":88919,"DIS_CODE":0,"TOWNNAME":"東區","LI":"富強里","LIN":"10鄰","STREET":"中華東路","SECT":"二段","MAREA":" ","LANE":"２２６巷","ALLEY":"２８弄","HOUSE_NO":"３７號","E_COORD97":171116.10999999999,"N_COORD97":2542712.8900000001,"ADDRESS":"中華東路二段２２６巷２８弄３７號","OBJECTID":88919},"geometry":{"x":171116.11000000034,"y":2542712.8900000006}},{"attributes":{"ID":88920,"DIS_CODE":0,"TOWNNAME":"將軍區","LI":"廣山里","LIN":"12鄰","STREET":" ","SECT":" ","MAREA":"廣山","LANE":" ","ALLEY":" ","HOUSE_NO":"１１９號","E_COORD97":159598.70999999999,"N_COORD97":2569058.9399999999,"ADDRESS":"廣山１１９號","OBJECTID":88920},"geometry":{"x":159598.71000000183,"y":2569058.9400000013}},{"attributes":{"ID":88921,"DIS_CODE":0,"TOWNNAME":"將軍區","LI":"廣山里","LIN":"12鄰","STREET":" ","SECT":" ","MAREA":"廣山","LANE":" ","ALLEY":" ","HOUSE_NO":"１２０之１號","E_COORD97":159598.75,"N_COORD97":2569134.2000000002,"ADDRESS":"廣山１２０之１號","OBJECTID":88921},"geometry":{"x":159598.75000000093,"y":2569134.1999999993}},{"attributes":{"ID":88922,"DIS_CODE":0,"TOWNNAME":"東區","LI":"富強里","LIN":"10鄰","STREET":"中華東路","SECT":"二段","MAREA":" ","LANE":"２２６巷","ALLEY":"２８弄","HOUSE_NO":"２７號","E_COORD97":171122.23000000001,"N_COORD97":2542676.0699999998,"ADDRESS":"中華東路二段２２６巷２８弄２７號","OBJECTID":88922},"geometry":{"x":171122.23000000045,"y":2542676.0700000022}},{"attributes":{"ID":88923,"DIS_CODE":0,"TOWNNAME":"將軍區","LI":"廣山里","LIN":"12鄰","STREET":" ","SECT":" ","MAREA":"廣山","LANE":" ","ALLEY":" ","HOUSE_NO":"１２０號","E_COORD97":159602.98000000001,"N_COORD97":2569148.3799999999,"ADDRESS":"廣山１２０號","OBJECTID":88923},"geometry":{"x":159602.98000000138,"y":2569148.379999999}},{"attributes":{"ID":88924,"DIS_CODE":0,"TOWNNAME":"將軍區","LI":"廣山里","LIN":"12鄰","STREET":" ","SECT":" ","MAREA":"廣山","LANE":" ","ALLEY":" ","HOUSE_NO":"１２１之１號","E_COORD97":159594.89999999999,"N_COORD97":2569121.9199999999,"ADDRESS":"廣山１２１之１號","OBJECTID":88924},"geometry":{"x":159594.9000000013,"y":2569121.9200000018}},{"attributes":{"ID":88925,"DIS_CODE":0,"TOWNNAME":"永康區","LI":"中興里","LIN":"10鄰","STREET":"忠孝路","SECT":" ","MAREA":" ","LANE":"２３９巷","ALLEY":"２０弄","HOUSE_NO":"１０號","E_COORD97":172035.62,"N_COORD97":2545085.75,"ADDRESS":"忠孝路２３９巷２０弄１０號","OBJECTID":88925},"geometry":{"x":172035.62000000104,"y":2545085.75}},{"attributes":{"ID":88926,"DIS_CODE":0,"TOWNNAME":"永康區","LI":"中興里","LIN":"10鄰","STREET":"忠孝路","SECT":" ","MAREA":" ","LANE":"２３９巷","ALLEY":"２０弄","HOUSE_NO":"９號","E_COORD97":172021.39000000001,"N_COORD97":2545084,"ADDRESS":"忠孝路２３９巷２０弄９號","OBJECTID":88926},"geometry":{"x":172021.3900000006,"y":2545084}},{"attributes":{"ID":88927,"DIS_CODE":0,"TOWNNAME":"永康區","LI":"大橋里","LIN":"10鄰","STREET":"大橋二街","SECT":" ","MAREA":" ","LANE":"２３９巷","ALLEY":"２１弄","HOUSE_NO":"３４號","E_COORD97":171011.75,"N_COORD97":2546806.8100000001,"ADDRESS":"大橋二街２３９巷２１弄３４號","OBJECTID":88927},"geometry":{"x":171011.75,"y":2546806.8100000024}},{"attributes":{"ID":88928,"DIS_CODE":0,"TOWNNAME":"永康區","LI":"中興里","LIN":"10鄰","STREET":"忠孝路","SECT":" ","MAREA":" ","LANE":"２３９巷","ALLEY":"２０弄","HOUSE_NO":"２號","E_COORD97":172037.59,"N_COORD97":2545067.25,"ADDRESS":"忠孝路２３９巷２０弄２號","OBJECTID":88928},"geometry":{"x":172037.59000000078,"y":2545067.2500000019}},{"attributes":{"ID":88929,"DIS_CODE":0,"TOWNNAME":"永康區","LI":"大橋里","LIN":"10鄰","STREET":"大橋二街","SECT":" ","MAREA":" ","LANE":"２３９巷","ALLEY":"２１弄","HOUSE_NO":"１２號","E_COORD97":171053.84,"N_COORD97":2546840.9100000001,"ADDRESS":"大橋二街２３９巷２１弄１２號","OBJECTID":88929},"geometry":{"x":171053.84000000078,"y":2546840.9100000001}},{"attributes":{"ID":88930,"DIS_CODE":0,"TOWNNAME":"永康區","LI":"三合里","LIN":"10鄰","STREET":"南工街","SECT":" ","MAREA":" ","LANE":"２４７巷","ALLEY":"３５弄","HOUSE_NO":"６號","E_COORD97":171981.60999999999,"N_COORD97":2545752.6800000002,"ADDRESS":"南工街２４７巷３５弄６號","OBJECTID":88930},"geometry":{"x":171981.61000000127,"y":2545752.6800000016}},{"attributes":{"ID":88931,"DIS_CODE":0,"TOWNNAME":"仁德區","LI":"仁義里","LIN":"10鄰","STREET":"仁義一街","SECT":" ","MAREA":" ","LANE":"７６巷","ALLEY":"１弄","HOUSE_NO":"５號","E_COORD97":173503.28,"N_COORD97":2541158.1800000002,"ADDRESS":"仁義一街７６巷１弄５號","OBJECTID":88931},"geometry":{"x":173503.28000000026,"y":2541158.1800000016}},{"attributes":{"ID":88932,"DIS_CODE":0,"TOWNNAME":"仁德區","LI":"仁義里","LIN":"10鄰","STREET":"中山路","SECT":" ","MAREA":" ","LANE":"５０９巷","ALLEY":"１８弄","HOUSE_NO":"１９號","E_COORD97":173484.48999999999,"N_COORD97":2541243.1899999999,"ADDRESS":"中山路５０９巷１８弄１９號","OBJECTID":88932},"geometry":{"x":173484.49000000115,"y":2541243.1900000013}},{"attributes":{"ID":88933,"DIS_CODE":0,"TOWNNAME":"仁德區","LI":"仁義里","LIN":"10鄰","STREET":"中山路","SECT":" ","MAREA":" ","LANE":"５０９巷","ALLEY":"１８弄","HOUSE_NO":"９號","E_COORD97":173508.62,"N_COORD97":2541224.7400000002,"ADDRESS":"中山路５０９巷１８弄９號","OBJECTID":88933},"geometry":{"x":173508.62000000104,"y":2541224.7400000002}},{"attributes":{"ID":88934,"DIS_CODE":0,"TOWNNAME":"東區","LI":"東聖里","LIN":"10鄰","STREET":"中華東路","SECT":"二段","MAREA":" ","LANE":"１３３巷","ALLEY":"７７弄","HOUSE_NO":"２９號","E_COORD97":171572.25,"N_COORD97":2542899.5600000001,"ADDRESS":"中華東路二段１３３巷７７弄２９號","OBJECTID":88934},"geometry":{"x":171572.25000000093,"y":2542899.5600000024}},{"attributes":{"ID":88935,"DIS_CODE":0,"TOWNNAME":"東區","LI":"東聖里","LIN":"10鄰","STREET":"中華東路","SECT":"二段","MAREA":" ","LANE":"１３３巷","ALLEY":"７７弄","HOUSE_NO":"３號","E_COORD97":171577.67000000001,"N_COORD97":2542848.8399999999,"ADDRESS":"中華東路二段１３３巷７７弄３號","OBJECTID":88935},"geometry":{"x":171577.67000000086,"y":2542848.8400000036}},{"attributes":{"ID":88936,"DIS_CODE":0,"TOWNNAME":"東區","LI":"東聖里","LIN":"10鄰","STREET":"中華東路","SECT":"二段","MAREA":" ","LANE":"１３３巷","ALLEY":"７７弄","HOUSE_NO":"５號","E_COORD97":171577.16,"N_COORD97":2542852.9399999999,"ADDRESS":"中華東路二段１３３巷７７弄５號","OBJECTID":88936},"geometry":{"x":171577.16000000015,"y":2542852.9399999995}},{"attributes":{"ID":88937,"DIS_CODE":0,"TOWNNAME":"東區","LI":"東聖里","LIN":"10鄰","STREET":"中華東路","SECT":"二段","MAREA":" ","LANE":"１３３巷","ALLEY":"７７弄","HOUSE_NO":"７號","E_COORD97":171576.66,"N_COORD97":2542856.8700000001,"ADDRESS":"中華東路二段１３３巷７７弄７號","OBJECTID":88937},"geometry":{"x":171576.66000000015,"y":2542856.8700000029}},{"attributes":{"ID":88938,"DIS_CODE":0,"TOWNNAME":"東區","LI":"東聖里","LIN":"10鄰","STREET":"中華東路","SECT":"二段","MAREA":" ","LANE":"１３３巷","ALLEY":"７７弄","HOUSE_NO":"９號","E_COORD97":171576.41,"N_COORD97":2542860.3900000001,"ADDRESS":"中華東路二段１３３巷７７弄９號","OBJECTID":88938},"geometry":{"x":171576.41000000108,"y":2542860.3900000025}},{"attributes":{"ID":88939,"DIS_CODE":0,"TOWNNAME":"永康區","LI":"大橋里","LIN":"10鄰","STREET":"大橋二街","SECT":" ","MAREA":" ","LANE":"２３９巷","ALLEY":"２１弄","HOUSE_NO":"６號","E_COORD97":171063.73999999999,"N_COORD97":2546848.4100000001,"ADDRESS":"大橋二街２３９巷２１弄６號","OBJECTID":88939},"geometry":{"x":171063.74000000115,"y":2546848.4100000001}},{"attributes":{"ID":88940,"DIS_CODE":0,"TOWNNAME":"永康區","LI":"三合里","LIN":"10鄰","STREET":"南工街","SECT":" ","MAREA":" ","LANE":"２４７巷","ALLEY":"３５弄","HOUSE_NO":"２３號","E_COORD97":171988.97,"N_COORD97":2545669.6800000002,"ADDRESS":"南工街２４７巷３５弄２３號","OBJECTID":88940},"geometry":{"x":171988.97000000067,"y":2545669.6799999997}},{"attributes":{"ID":88941,"DIS_CODE":0,"TOWNNAME":"將軍區","LI":"廣山里","LIN":"12鄰","STREET":" ","SECT":" ","MAREA":"廣山","LANE":" ","ALLEY":" ","HOUSE_NO":"１２１號","E_COORD97":159583.73999999999,"N_COORD97":2569147.1200000001,"ADDRESS":"廣山１２１號","OBJECTID":88941},"geometry":{"x":159583.74000000115,"y":2569147.1200000048}},{"attributes":{"ID":88942,"DIS_CODE":0,"TOWNNAME":"將軍區","LI":"廣山里","LIN":"12鄰","STREET":" ","SECT":" ","MAREA":"廣山","LANE":" ","ALLEY":" ","HOUSE_NO":"１２３號","E_COORD97":159588.04999999999,"N_COORD97":2569196.3100000001,"ADDRESS":"廣山１２３號","OBJECTID":88942},"geometry":{"x":159588.05000000075,"y":2569196.3100000042}},{"attributes":{"ID":88943,"DIS_CODE":0,"TOWNNAME":"永康區","LI":"大橋里","LIN":"10鄰","STREET":"大橋二街","SECT":" ","MAREA":" ","LANE":"２３９巷","ALLEY":"２１弄","HOUSE_NO":"２４號","E_COORD97":171033.04999999999,"N_COORD97":2546828.6600000001,"ADDRESS":"大橋二街２３９巷２１弄２４號","OBJECTID":88943},"geometry":{"x":171033.04999999981,"y":2546828.660000002}},{"attributes":{"ID":88944,"DIS_CODE":0,"TOWNNAME":"永康區","LI":"五王里","LIN":"10鄰","STREET":"中山東路","SECT":" ","MAREA":" ","LANE":"２１８巷","ALLEY":"９弄","HOUSE_NO":"２號","E_COORD97":171740.98999999999,"N_COORD97":2545708.9500000002,"ADDRESS":"中山東路２１８巷９弄２號","OBJECTID":88944},"geometry":{"x":171740.99000000022,"y":2545708.950000003}},{"attributes":{"ID":88945,"DIS_CODE":0,"TOWNNAME":"永康區","LI":"五王里","LIN":"10鄰","STREET":"中山東路","SECT":" ","MAREA":" ","LANE":"２１８巷","ALLEY":"９弄","HOUSE_NO":"５號","E_COORD97":171760.45000000001,"N_COORD97":2545705.75,"ADDRESS":"中山東路２１８巷９弄５號","OBJECTID":88945},"geometry":{"x":171760.45000000112,"y":2545705.7500000019}},{"attributes":{"ID":88946,"DIS_CODE":0,"TOWNNAME":"永康區","LI":"中興里","LIN":"10鄰","STREET":"忠孝路","SECT":" ","MAREA":" ","LANE":"２３９巷","ALLEY":"２０弄","HOUSE_NO":"１９號","E_COORD97":172018.64999999999,"N_COORD97":2545107.5,"ADDRESS":"忠孝路２３９巷２０弄１９號","OBJECTID":88946},"geometry":{"x":172018.6500000013,"y":2545107.5}},{"attributes":{"ID":88947,"DIS_CODE":0,"TOWNNAME":"歸仁區","LI":"大廟里","LIN":"15鄰","STREET":"大廟六街","SECT":" ","MAREA":" ","LANE":" ","ALLEY":" ","HOUSE_NO":"２５５號","E_COORD97":176488.92000000001,"N_COORD97":2544641.25,"ADDRESS":"大廟六街２５５號","OBJECTID":88947},"geometry":{"x":176488.91999999993,"y":2544641.2500000019}},{"attributes":{"ID":88948,"DIS_CODE":0,"TOWNNAME":"歸仁區","LI":"七甲里","LIN":"15鄰","STREET":"南潭三街","SECT":" ","MAREA":" ","LANE":" ","ALLEY":" ","HOUSE_NO":"１１號","E_COORD97":176071.69,"N_COORD97":2543257.25,"ADDRESS":"南潭三街１１號","OBJECTID":88948},"geometry":{"x":176071.69000000134,"y":2543257.2500000019}},{"attributes":{"ID":88949,"DIS_CODE":0,"TOWNNAME":"永康區","LI":"中興里","LIN":"10鄰","STREET":"忠孝路","SECT":" ","MAREA":" ","LANE":"２３９巷","ALLEY":"２０弄","HOUSE_NO":"２４號","E_COORD97":172029.95999999999,"N_COORD97":2545119.2400000002,"ADDRESS":"忠孝路２３９巷２０弄２４號","OBJECTID":88949},"geometry":{"x":172029.96000000089,"y":2545119.2400000021}},{"attributes":{"ID":88950,"DIS_CODE":0,"TOWNNAME":"楠西區","LI":"照興里","LIN":"15鄰","STREET":" ","SECT":" ","MAREA":"興南","LANE":" ","ALLEY":" ","HOUSE_NO":"６０號","E_COORD97":195121.97,"N_COORD97":2565377.25,"ADDRESS":"興南６０號","OBJECTID":88950},"geometry":{"x":195121.96999999974,"y":2565377.25}},{"attributes":{"ID":88951,"DIS_CODE":0,"TOWNNAME":"楠西區","LI":"灣丘里","LIN":"15鄰","STREET":" ","SECT":" ","MAREA":"鳳興","LANE":" ","ALLEY":" ","HOUSE_NO":"２６號","E_COORD97":198729.47,"N_COORD97":2562604.25,"ADDRESS":"鳳興２６號","OBJECTID":88951},"geometry":{"x":198729.46999999974,"y":2562604.25}},{"attributes":{"ID":88952,"DIS_CODE":0,"TOWNNAME":"楠西區","LI":"灣丘里","LIN":"15鄰","STREET":" ","SECT":" ","MAREA":"鳳興","LANE":" ","ALLEY":" ","HOUSE_NO":"３２號","E_COORD97":198776.67000000001,"N_COORD97":2562676.25,"ADDRESS":"鳳興３２號","OBJECTID":88952},"geometry":{"x":198776.67000000086,"y":2562676.2499999981}},{"attributes":{"ID":88953,"DIS_CODE":0,"TOWNNAME":"永康區","LI":"中興里","LIN":"10鄰","STREET":"忠孝路","SECT":" ","MAREA":" ","LANE":"２３９巷","ALLEY":"２０弄","HOUSE_NO":"２３號","E_COORD97":172016.59,"N_COORD97":2545116.9900000002,"ADDRESS":"忠孝路２３９巷２０弄２３號","OBJECTID":88953},"geometry":{"x":172016.59000000171,"y":2545116.9900000021}},{"attributes":{"ID":88954,"DIS_CODE":0,"TOWNNAME":"永康區","LI":"五王里","LIN":"10鄰","STREET":"中山東路","SECT":" ","MAREA":" ","LANE":"２１８巷","ALLEY":"９弄","HOUSE_NO":"６號","E_COORD97":171741.73000000001,"N_COORD97":2545705.2000000002,"ADDRESS":"中山東路２１８巷９弄６號","OBJECTID":88954},"geometry":{"x":171741.73000000231,"y":2545705.2000000011}},{"attributes":{"ID":88955,"DIS_CODE":0,"TOWNNAME":"永康區","LI":"王行里","LIN":"10鄰","STREET":"王行路","SECT":" ","MAREA":" ","LANE":"１０１８巷","ALLEY":"１０弄","HOUSE_NO":"１號","E_COORD97":175879.78,"N_COORD97":2550163.4500000002,"ADDRESS":"王行路１０１８巷１０弄１號","OBJECTID":88955},"geometry":{"x":175879.78000000119,"y":2550163.4499999993}},{"attributes":{"ID":88956,"DIS_CODE":0,"TOWNNAME":"永康區","LI":"王行里","LIN":"10鄰","STREET":"王行路","SECT":" ","MAREA":" ","LANE":"１０１８巷","ALLEY":"１０弄","HOUSE_NO":"２號","E_COORD97":175868.79000000001,"N_COORD97":2550151,"ADDRESS":"王行路１０１８巷１０弄２號","OBJECTID":88956},"geometry":{"x":175868.79000000097,"y":2550151.0000000019}},{"attributes":{"ID":88957,"DIS_CODE":0,"TOWNNAME":"永康區","LI":"五王里","LIN":"10鄰","STREET":"中山東路","SECT":" ","MAREA":" ","LANE":"２１８巷","ALLEY":"９弄","HOUSE_NO":"１０號","E_COORD97":171744.64000000001,"N_COORD97":2545697.2000000002,"ADDRESS":"中山東路２１８巷９弄１０號","OBJECTID":88957},"geometry":{"x":171744.63999999873,"y":2545697.200000003}},{"attributes":{"ID":88958,"DIS_CODE":0,"TOWNNAME":"永康區","LI":"五王里","LIN":"10鄰","STREET":"中山東路","SECT":" ","MAREA":" ","LANE":"２１８巷","ALLEY":"９弄","HOUSE_NO":"１３號","E_COORD97":171765.59,"N_COORD97":2545690.25,"ADDRESS":"中山東路２１８巷９弄１３號","OBJECTID":88958},"geometry":{"x":171765.59000000171,"y":2545690.25}},{"attributes":{"ID":88959,"DIS_CODE":0,"TOWNNAME":"永康區","LI":"五王里","LIN":"10鄰","STREET":"中山東路","SECT":" ","MAREA":" ","LANE":"２１８巷","ALLEY":"９弄","HOUSE_NO":"１５號","E_COORD97":171767.14999999999,"N_COORD97":2545686.5,"ADDRESS":"中山東路２１８巷９弄１５號","OBJECTID":88959},"geometry":{"x":171767.15000000037,"y":2545686.5000000019}},{"attributes":{"ID":88960,"DIS_CODE":0,"TOWNNAME":"永康區","LI":"勝利里","LIN":"10鄰","STREET":"勝利街","SECT":" ","MAREA":" ","LANE":"７３巷","ALLEY":"１５弄","HOUSE_NO":"１號","E_COORD97":171307.04000000001,"N_COORD97":2544696.5,"ADDRESS":"勝利街７３巷１５弄１號","OBJECTID":88960},"geometry":{"x":171307.04000000097,"y":2544696.5000000019}},{"attributes":{"ID":88961,"DIS_CODE":0,"TOWNNAME":"仁德區","LI":"仁義里","LIN":"10鄰","STREET":"中山路","SECT":" ","MAREA":" ","LANE":"５０９巷","ALLEY":"１８弄","HOUSE_NO":"５號","E_COORD97":173506.92000000001,"N_COORD97":2541239.3199999998,"ADDRESS":"中山路５０９巷１８弄５號","OBJECTID":88961},"geometry":{"x":173506.92000000086,"y":2541239.3200000022}},{"attributes":{"ID":88962,"DIS_CODE":0,"TOWNNAME":"仁德區","LI":"仁義里","LIN":"10鄰","STREET":"中山路","SECT":" ","MAREA":" ","LANE":"５０９巷","ALLEY":"１８弄","HOUSE_NO":"７號","E_COORD97":173502.70999999999,"N_COORD97":2541239.5699999998,"ADDRESS":"中山路５０９巷１８弄７號","OBJECTID":88962},"geometry":{"x":173502.71000000089,"y":2541239.5700000003}},{"attributes":{"ID":88963,"DIS_CODE":0,"TOWNNAME":"仁德區","LI":"仁義里","LIN":"10鄰","STREET":"中山路","SECT":" ","MAREA":" ","LANE":"５０９巷","ALLEY":"１８弄","HOUSE_NO":"２１號","E_COORD97":173480.13,"N_COORD97":2541243.4399999999,"ADDRESS":"中山路５０９巷１８弄２１號","OBJECTID":88963},"geometry":{"x":173480.12999999989,"y":2541243.4399999995}},{"attributes":{"ID":88964,"DIS_CODE":0,"TOWNNAME":"東區","LI":"東聖里","LIN":"10鄰","STREET":"中華東路","SECT":"二段","MAREA":" ","LANE":"１３３巷","ALLEY":"７７弄","HOUSE_NO":"２號","E_COORD97":171598.94,"N_COORD97":2542840.0699999998,"ADDRESS":"中華東路二段１３３巷７７弄２號","OBJECTID":88964},"geometry":{"x":171598.94000000041,"y":2542840.0700000003}},{"attributes":{"ID":88965,"DIS_CODE":0,"TOWNNAME":"仁德區","LI":"後壁里","LIN":"10鄰","STREET":"民安路","SECT":"二段","MAREA":" ","LANE":"１８２巷","ALLEY":"１８弄","HOUSE_NO":"３１號","E_COORD97":173672.03,"N_COORD97":2538950.0699999998,"ADDRESS":"民安路二段１８２巷１８弄３１號","OBJECTID":88965},"geometry":{"x":173672.03000000119,"y":2538950.0700000022}},{"attributes":{"ID":88966,"DIS_CODE":0,"TOWNNAME":"北區","LI":"華興里","LIN":"8鄰","STREET":"南園街","SECT":" ","MAREA":" ","LANE":" ","ALLEY":" ","HOUSE_NO":"１５８號","E_COORD97":170614.67999999999,"N_COORD97":2545223.8500000001,"ADDRESS":"南園街１５８號","OBJECTID":88966},"geometry":{"x":170614.68000000063,"y":2545223.8499999996}},{"attributes":{"ID":88967,"DIS_CODE":0,"TOWNNAME":"楠西區","LI":"灣丘里","LIN":"15鄰","STREET":" ","SECT":" ","MAREA":"鳳興","LANE":" ","ALLEY":" ","HOUSE_NO":"４８號之２","E_COORD97":199072.04000000001,"N_COORD97":2562478.2999999998,"ADDRESS":"鳳興４８號之２","OBJECTID":88967},"geometry":{"x":199072.04000000004,"y":2562478.3000000026}},{"attributes":{"ID":88968,"DIS_CODE":0,"TOWNNAME":"將軍區","LI":"鯤溟里","LIN":"12鄰","STREET":" ","SECT":" ","MAREA":"鯤溟","LANE":" ","ALLEY":" ","HOUSE_NO":"８５號","E_COORD97":156517.44,"N_COORD97":2565535.46,"ADDRESS":"鯤溟８５號","OBJECTID":88968},"geometry":{"x":156517.44000000227,"y":2565535.4600000028}},{"attributes":{"ID":88969,"DIS_CODE":0,"TOWNNAME":"將軍區","LI":"鯤溟里","LIN":"12鄰","STREET":" ","SECT":" ","MAREA":"鯤溟","LANE":" ","ALLEY":" ","HOUSE_NO":"８８號","E_COORD97":156518.98000000001,"N_COORD97":2565516.6299999999,"ADDRESS":"鯤溟８８號","OBJECTID":88969},"geometry":{"x":156518.98000000138,"y":2565516.629999999}},{"attributes":{"ID":88970,"DIS_CODE":0,"TOWNNAME":"將軍區","LI":"鯤溟里","LIN":"12鄰","STREET":" ","SECT":" ","MAREA":"鯤溟","LANE":" ","ALLEY":" ","HOUSE_NO":"８９號","E_COORD97":156520.69,"N_COORD97":2565509.8300000001,"ADDRESS":"鯤溟８９號","OBJECTID":88970},"geometry":{"x":156520.69000000227,"y":2565509.8300000001}},{"attributes":{"ID":88971,"DIS_CODE":0,"TOWNNAME":"將軍區","LI":"鯤溟里","LIN":"12鄰","STREET":" ","SECT":" ","MAREA":"鯤溟","LANE":" ","ALLEY":" ","HOUSE_NO":"９０號","E_COORD97":156518.26000000001,"N_COORD97":2565496.5800000001,"ADDRESS":"鯤溟９０號","OBJECTID":88971},"geometry":{"x":156518.26000000071,"y":2565496.5800000019}},{"attributes":{"ID":88972,"DIS_CODE":0,"TOWNNAME":"將軍區","LI":"鯤溟里","LIN":"12鄰","STREET":" ","SECT":" ","MAREA":"鯤溟","LANE":" ","ALLEY":" ","HOUSE_NO":"９１號","E_COORD97":156525.42000000001,"N_COORD97":2565489.8599999999,"ADDRESS":"鯤溟９１號","OBJECTID":88972},"geometry":{"x":156525.42000000179,"y":2565489.8600000013}},{"attributes":{"ID":88973,"DIS_CODE":0,"TOWNNAME":"將軍區","LI":"鯤溟里","LIN":"12鄰","STREET":" ","SECT":" ","MAREA":"鯤溟","LANE":" ","ALLEY":" ","HOUSE_NO":"９２之１號","E_COORD97":156521.91,"N_COORD97":2565442.2799999998,"ADDRESS":"鯤溟９２之１號","OBJECTID":88973},"geometry":{"x":156521.91000000015,"y":2565442.2800000031}},{"attributes":{"ID":88974,"DIS_CODE":0,"TOWNNAME":"將軍區","LI":"鯤溟里","LIN":"12鄰","STREET":" ","SECT":" ","MAREA":"鯤溟","LANE":" ","ALLEY":" ","HOUSE_NO":"９２號","E_COORD97":156525.37,"N_COORD97":2565474.9199999999,"ADDRESS":"鯤溟９２號","OBJECTID":88974},"geometry":{"x":156525.37000000011,"y":2565474.9199999999}},{"attributes":{"ID":88975,"DIS_CODE":0,"TOWNNAME":"將軍區","LI":"鯤鯓里","LIN":"12鄰","STREET":" ","SECT":" ","MAREA":"鯤鯓","LANE":" ","ALLEY":" ","HOUSE_NO":"１４８號","E_COORD97":156734.70000000001,"N_COORD97":2565685.9700000002,"ADDRESS":"鯤鯓１４８號","OBJECTID":88975},"geometry":{"x":156734.70000000112,"y":2565685.9700000007}},{"attributes":{"ID":88976,"DIS_CODE":0,"TOWNNAME":"將軍區","LI":"鯤鯓里","LIN":"12鄰","STREET":" ","SECT":" ","MAREA":"鯤鯓","LANE":" ","ALLEY":" ","HOUSE_NO":"１０５之１號","E_COORD97":156707.37,"N_COORD97":2565587.73,"ADDRESS":"鯤鯓１０５之１號","OBJECTID":88976},"geometry":{"x":156707.37000000197,"y":2565587.7300000004}},{"attributes":{"ID":88977,"DIS_CODE":0,"TOWNNAME":"將軍區","LI":"鯤鯓里","LIN":"12鄰","STREET":" ","SECT":" ","MAREA":"鯤鯓","LANE":" ","ALLEY":" ","HOUSE_NO":"１１５號","E_COORD97":156707.06,"N_COORD97":2565648.9399999999,"ADDRESS":"鯤鯓１１５號","OBJECTID":88977},"geometry":{"x":156707.05999999959,"y":2565648.9400000013}},{"attributes":{"ID":88978,"DIS_CODE":0,"TOWNNAME":"將軍區","LI":"鯤鯓里","LIN":"12鄰","STREET":" ","SECT":" ","MAREA":"鯤鯓","LANE":" ","ALLEY":" ","HOUSE_NO":"１１８號","E_COORD97":156696.72,"N_COORD97":2565662.52,"ADDRESS":"鯤鯓１１８號","OBJECTID":88978},"geometry":{"x":156696.72000000067,"y":2565662.5200000014}},{"attributes":{"ID":88979,"DIS_CODE":0,"TOWNNAME":"楠西區","LI":"灣丘里","LIN":"15鄰","STREET":" ","SECT":" ","MAREA":"鳳興","LANE":" ","ALLEY":" ","HOUSE_NO":"４８號之２７","E_COORD97":199732.42999999999,"N_COORD97":2562668.2999999998,"ADDRESS":"鳳興４８號之２７","OBJECTID":88979},"geometry":{"x":199732.43000000063,"y":2562668.3000000026}},{"attributes":{"ID":88980,"DIS_CODE":0,"TOWNNAME":"楠西區","LI":"灣丘里","LIN":"15鄰","STREET":" ","SECT":" ","MAREA":"鳳興","LANE":" ","ALLEY":" ","HOUSE_NO":"４６號之４","E_COORD97":198986.63,"N_COORD97":2562478.2999999998,"ADDRESS":"鳳興４６號之４","OBJECTID":88980},"geometry":{"x":198986.62999999989,"y":2562478.3000000026}},{"attributes":{"ID":88981,"DIS_CODE":0,"TOWNNAME":"楠西區","LI":"照興里","LIN":"15鄰","STREET":" ","SECT":" ","MAREA":"興南","LANE":" ","ALLEY":" ","HOUSE_NO":"６８號之２","E_COORD97":195194.84,"N_COORD97":2565404.2999999998,"ADDRESS":"興南６８號之２","OBJECTID":88981},"geometry":{"x":195194.84000000171,"y":2565404.3000000026}},{"attributes":{"ID":88982,"DIS_CODE":0,"TOWNNAME":"楠西區","LI":"照興里","LIN":"15鄰","STREET":" ","SECT":" ","MAREA":"興南","LANE":" ","ALLEY":" ","HOUSE_NO":"６９號之１","E_COORD97":195533.70000000001,"N_COORD97":2565369.2999999998,"ADDRESS":"興南６９號之１","OBJECTID":88982},"geometry":{"x":195533.70000000112,"y":2565369.3000000026}},{"attributes":{"ID":88983,"DIS_CODE":0,"TOWNNAME":"楠西區","LI":"照興里","LIN":"15鄰","STREET":" ","SECT":" ","MAREA":"興南","LANE":" ","ALLEY":" ","HOUSE_NO":"６９號之３","E_COORD97":195458.39999999999,"N_COORD97":2565372.2999999998,"ADDRESS":"興南６９號之３","OBJECTID":88983},"geometry":{"x":195458.4000000013,"y":2565372.3000000045}},{"attributes":{"ID":88984,"DIS_CODE":0,"TOWNNAME":"將軍區","LI":"鯤鯓里","LIN":"12鄰","STREET":" ","SECT":" ","MAREA":"鯤鯓","LANE":" ","ALLEY":" ","HOUSE_NO":"１１９號","E_COORD97":156696.67000000001,"N_COORD97":2565669.8199999998,"ADDRESS":"鯤鯓１１９號","OBJECTID":88984},"geometry":{"x":156696.67000000179,"y":2565669.8199999984}},{"attributes":{"ID":88985,"DIS_CODE":0,"TOWNNAME":"將軍區","LI":"鯤鯓里","LIN":"12鄰","STREET":" ","SECT":" ","MAREA":"鯤鯓","LANE":" ","ALLEY":" ","HOUSE_NO":"１２２之２號","E_COORD97":156717.07999999999,"N_COORD97":2565663.54,"ADDRESS":"鯤鯓１２２之２號","OBJECTID":88985},"geometry":{"x":156717.08000000007,"y":2565663.5399999991}},{"attributes":{"ID":88986,"DIS_CODE":0,"TOWNNAME":"將軍區","LI":"鯤鯓里","LIN":"12鄰","STREET":" ","SECT":" ","MAREA":"鯤鯓","LANE":" ","ALLEY":" ","HOUSE_NO":"１２２號","E_COORD97":156716.14000000001,"N_COORD97":2565675,"ADDRESS":"鯤鯓１２２號","OBJECTID":88986},"geometry":{"x":156716.13999999966,"y":2565674.9999999981}},{"attributes":{"ID":88987,"DIS_CODE":0,"TOWNNAME":"將軍區","LI":"鯤鯓里","LIN":"12鄰","STREET":" ","SECT":" ","MAREA":"鯤鯓","LANE":" ","ALLEY":" ","HOUSE_NO":"１２３號","E_COORD97":156718.62,"N_COORD97":2565647.79,"ADDRESS":"鯤鯓１２３號","OBJECTID":88987},"geometry":{"x":156718.62000000011,"y":2565647.7899999991}},{"attributes":{"ID":88988,"DIS_CODE":0,"TOWNNAME":"將軍區","LI":"鯤鯓里","LIN":"12鄰","STREET":" ","SECT":" ","MAREA":"鯤鯓","LANE":" ","ALLEY":" ","HOUSE_NO":"１２８號","E_COORD97":156717.14999999999,"N_COORD97":2565605.29,"ADDRESS":"鯤鯓１２８號","OBJECTID":88988},"geometry":{"x":156717.15000000037,"y":2565605.290000001}},{"attributes":{"ID":88989,"DIS_CODE":0,"TOWNNAME":"將軍區","LI":"鯤鯓里","LIN":"12鄰","STREET":" ","SECT":" ","MAREA":"鯤鯓","LANE":" ","ALLEY":" ","HOUSE_NO":"１２９號","E_COORD97":156717.69,"N_COORD97":2565590.1499999999,"ADDRESS":"鯤鯓１２９號","OBJECTID":88989},"geometry":{"x":156717.69000000134,"y":2565590.1500000022}},{"attributes":{"ID":88990,"DIS_CODE":0,"TOWNNAME":"將軍區","LI":"鯤鯓里","LIN":"12鄰","STREET":" ","SECT":" ","MAREA":"鯤鯓","LANE":" ","ALLEY":" ","HOUSE_NO":"１３８號","E_COORD97":156747.54999999999,"N_COORD97":2565622.7200000002,"ADDRESS":"鯤鯓１３８號","OBJECTID":88990},"geometry":{"x":156747.54999999981,"y":2565622.7200000007}},{"attributes":{"ID":88991,"DIS_CODE":0,"TOWNNAME":"將軍區","LI":"鯤鯓里","LIN":"12鄰","STREET":" ","SECT":" ","MAREA":"鯤鯓","LANE":" ","ALLEY":" ","HOUSE_NO":"１４２號","E_COORD97":156735.13,"N_COORD97":2565612.71,"ADDRESS":"鯤鯓１４２號","OBJECTID":88991},"geometry":{"x":156735.12999999989,"y":2565612.7100000009}},{"attributes":{"ID":88992,"DIS_CODE":0,"TOWNNAME":"將軍區","LI":"鯤鯓里","LIN":"12鄰","STREET":" ","SECT":" ","MAREA":"鯤鯓","LANE":" ","ALLEY":" ","HOUSE_NO":"１４７號","E_COORD97":156730.48000000001,"N_COORD97":2565659.8300000001,"ADDRESS":"鯤鯓１４７號","OBJECTID":88992},"geometry":{"x":156730.48000000045,"y":2565659.8300000019}},{"attributes":{"ID":88993,"DIS_CODE":0,"TOWNNAME":"將軍區","LI":"鯤鯓里","LIN":"12鄰","STREET":" ","SECT":" ","MAREA":"鯤鯓","LANE":" ","ALLEY":" ","HOUSE_NO":"１４８之１號","E_COORD97":156739.66,"N_COORD97":2565685.75,"ADDRESS":"鯤鯓１４８之１號","OBJECTID":88993},"geometry":{"x":156739.66000000108,"y":2565685.75}},{"attributes":{"ID":88994,"DIS_CODE":0,"TOWNNAME":"將軍區","LI":"鯤鯓里","LIN":"12鄰","STREET":" ","SECT":" ","MAREA":"鯤鯓","LANE":" ","ALLEY":" ","HOUSE_NO":"１５０號","E_COORD97":156746.75,"N_COORD97":2565655.79,"ADDRESS":"鯤鯓１５０號","OBJECTID":88994},"geometry":{"x":156746.75,"y":2565655.790000001}},{"attributes":{"ID":88995,"DIS_CODE":0,"TOWNNAME":"將軍區","LI":"鯤鯓里","LIN":"12鄰","STREET":" ","SECT":" ","MAREA":"鯤鯓","LANE":" ","ALLEY":" ","HOUSE_NO":"１５２號","E_COORD97":156746.12,"N_COORD97":2565631.4199999999,"ADDRESS":"鯤鯓１５２號","OBJECTID":88995},"geometry":{"x":156746.12000000011,"y":2565631.4199999981}},{"attributes":{"ID":88996,"DIS_CODE":0,"TOWNNAME":"將軍區","LI":"鯤鯓里","LIN":"12鄰","STREET":" ","SECT":" ","MAREA":"鯤鯓","LANE":" ","ALLEY":" ","HOUSE_NO":"１５７之１號","E_COORD97":156739.04000000001,"N_COORD97":2565587.71,"ADDRESS":"鯤鯓１５７之１號","OBJECTID":88996},"geometry":{"x":156739.04000000097,"y":2565587.7100000028}},{"attributes":{"ID":88997,"DIS_CODE":0,"TOWNNAME":"下營區","LI":"茅港里","LIN":"12鄰","STREET":" ","SECT":" ","MAREA":"中營","LANE":" ","ALLEY":" ","HOUSE_NO":"６９５號","E_COORD97":176278.70999999999,"N_COORD97":2568497.0099999998,"ADDRESS":"中營６９５號","OBJECTID":88997},"geometry":{"x":176278.70999999996,"y":2568497.0100000016}},{"attributes":{"ID":88998,"DIS_CODE":0,"TOWNNAME":"龍崎區","LI":"土崎里","LIN":"12鄰","STREET":" ","SECT":" ","MAREA":"烏樹林","LANE":" ","ALLEY":" ","HOUSE_NO":"２２號","E_COORD97":188003.23999999999,"N_COORD97":2544396.25,"ADDRESS":"烏樹林２２號","OBJECTID":88998},"geometry":{"x":188003.24000000209,"y":2544396.2500000019}},{"attributes":{"ID":88999,"DIS_CODE":0,"TOWNNAME":"龍崎區","LI":"崎頂里","LIN":"12鄰","STREET":" ","SECT":" ","MAREA":"崎頂","LANE":" ","ALLEY":" ","HOUSE_NO":"３號","E_COORD97":185551.85999999999,"N_COORD97":2540414.25,"ADDRESS":"崎頂３號","OBJECTID":88999},"geometry":{"x":185551.86000000127,"y":2540414.25}},{"attributes":{"ID":89000,"DIS_CODE":0,"TOWNNAME":"龍崎區","LI":"土崎里","LIN":"12鄰","STREET":" ","SECT":" ","MAREA":"烏樹林","LANE":" ","ALLEY":" ","HOUSE_NO":"１８號","E_COORD97":187939.04000000001,"N_COORD97":2544190.25,"ADDRESS":"烏樹林１８號","OBJECTID":89000},"geometry":{"x":187939.04000000097,"y":2544190.2500000019}}]}