{"displayFieldName":"TOWNNAME","fieldAliases":{"ID":"ID","DIS_CODE":"DIS_CODE","TOWNNAME":"TOWNNAME","LI":"LI","LIN":"LIN","STREET":"STREET","SECT":"SECT","MAREA":"MAREA","LANE":"LANE","ALLEY":"ALLEY","HOUSE_NO":"HOUSE_NO","E_COORD97":"E_COORD97","N_COORD97":"N_COORD97","ADDRESS":"ADDRESS","OBJECTID":"OBJECTID"},"geometryType":"esriGeometryPoint","spatialReference":{"wkid":102443,"latestWkid":3826},"fields":[{"name":"ID","type":"esriFieldTypeDouble","alias":"ID"},{"name":"DIS_CODE","type":"esriFieldTypeInteger","alias":"DIS_CODE"},{"name":"TOWNNAME","type":"esriFieldTypeString","alias":"TOWNNAME","length":8},{"name":"LI","type":"esriFieldTypeString","alias":"LI","length":8},{"name":"LIN","type":"esriFieldTypeString","alias":"LIN","length":12},{"name":"STREET","type":"esriFieldTypeString","alias":"STREET","length":20},{"name":"SECT","type":"esriFieldTypeString","alias":"SECT","length":8},{"name":"MAREA","type":"esriFieldTypeString","alias":"MAREA","length":12},{"name":"LANE","type":"esriFieldTypeString","alias":"LANE","length":10},{"name":"ALLEY","type":"esriFieldTypeString","alias":"ALLEY","length":10},{"name":"HOUSE_NO","type":"esriFieldTypeString","alias":"HOUSE_NO","length":20},{"name":"E_COORD97","type":"esriFieldTypeDouble","alias":"E_COORD97"},{"name":"N_COORD97","type":"esriFieldTypeDouble","alias":"N_COORD97"},{"name":"ADDRESS","type":"esriFieldTypeString","alias":"ADDRESS","length":50},{"name":"OBJECTID","type":"esriFieldTypeOID","alias":"OBJECTID"}],"features":[{"attributes":{"ID":84401,"DIS_CODE":0,"TOWNNAME":"北區","LI":"興南里","LIN":"12鄰","STREET":"西門路","SECT":"四段","MAREA":" ","LANE":"１６巷","ALLEY":"３１弄","HOUSE_NO":"２４號","E_COORD97":168813.23999999999,"N_COORD97":2545164.2400000002,"ADDRESS":"西門路四段１６巷３１弄２４號","OBJECTID":84401},"geometry":{"x":168813.24000000022,"y":2545164.2400000002}},{"attributes":{"ID":84402,"DIS_CODE":0,"TOWNNAME":"北區","LI":"興南里","LIN":"12鄰","STREET":"西門路","SECT":"四段","MAREA":" ","LANE":"１６巷","ALLEY":"３１弄","HOUSE_NO":"２６號","E_COORD97":168818.10999999999,"N_COORD97":2545169.1000000001,"ADDRESS":"西門路四段１６巷３１弄２６號","OBJECTID":84402},"geometry":{"x":168818.1100000022,"y":2545169.1000000034}},{"attributes":{"ID":84403,"DIS_CODE":0,"TOWNNAME":"北區","LI":"興南里","LIN":"12鄰","STREET":"西門路","SECT":"四段","MAREA":" ","LANE":"１６巷","ALLEY":"３１弄","HOUSE_NO":"２８號","E_COORD97":168824.14000000001,"N_COORD97":2545171.2799999998,"ADDRESS":"西門路四段１６巷３１弄２８號","OBJECTID":84403},"geometry":{"x":168824.1400000006,"y":2545171.2800000012}},{"attributes":{"ID":84404,"DIS_CODE":0,"TOWNNAME":"北區","LI":"興南里","LIN":"12鄰","STREET":"西門路","SECT":"四段","MAREA":" ","LANE":"１６巷","ALLEY":"３１弄","HOUSE_NO":"２號","E_COORD97":168754.34,"N_COORD97":2545149.7999999998,"ADDRESS":"西門路四段１６巷３１弄２號","OBJECTID":84404},"geometry":{"x":168754.33999999985,"y":2545149.8000000026}},{"attributes":{"ID":84405,"DIS_CODE":0,"TOWNNAME":"北區","LI":"興南里","LIN":"12鄰","STREET":"西門路","SECT":"四段","MAREA":" ","LANE":"１６巷","ALLEY":"３１弄","HOUSE_NO":"３０號","E_COORD97":168829.67999999999,"N_COORD97":2545174.2999999998,"ADDRESS":"西門路四段１６巷３１弄３０號","OBJECTID":84405},"geometry":{"x":168829.6799999997,"y":2545174.3000000007}},{"attributes":{"ID":84406,"DIS_CODE":0,"TOWNNAME":"北區","LI":"興南里","LIN":"12鄰","STREET":"西門路","SECT":"四段","MAREA":" ","LANE":"１６巷","ALLEY":"３１弄","HOUSE_NO":"４號","E_COORD97":168759.67000000001,"N_COORD97":2545151.0499999998,"ADDRESS":"西門路四段１６巷３１弄４號","OBJECTID":84406},"geometry":{"x":168759.67000000179,"y":2545151.0500000026}},{"attributes":{"ID":84407,"DIS_CODE":0,"TOWNNAME":"北區","LI":"興南里","LIN":"12鄰","STREET":"西門路","SECT":"四段","MAREA":" ","LANE":"１６巷","ALLEY":"３１弄","HOUSE_NO":"６號","E_COORD97":168764.04999999999,"N_COORD97":2545151.7799999998,"ADDRESS":"西門路四段１６巷３１弄６號","OBJECTID":84407},"geometry":{"x":168764.05000000075,"y":2545151.7800000012}},{"attributes":{"ID":84408,"DIS_CODE":0,"TOWNNAME":"北區","LI":"興南里","LIN":"12鄰","STREET":"西門路","SECT":"四段","MAREA":" ","LANE":"１６巷","ALLEY":"３１弄","HOUSE_NO":"８號","E_COORD97":168768.79999999999,"N_COORD97":2545153.1000000001,"ADDRESS":"西門路四段１６巷３１弄８號","OBJECTID":84408},"geometry":{"x":168768.80000000168,"y":2545153.1000000015}},{"attributes":{"ID":84409,"DIS_CODE":0,"TOWNNAME":"北區","LI":"興南里","LIN":"12鄰","STREET":"西門路","SECT":"四段","MAREA":" ","LANE":"１６巷","ALLEY":"３９弄","HOUSE_NO":"１１號","E_COORD97":168808.57999999999,"N_COORD97":2545146.23,"ADDRESS":"西門路四段１６巷３９弄１１號","OBJECTID":84409},"geometry":{"x":168808.58000000101,"y":2545146.2300000023}},{"attributes":{"ID":84410,"DIS_CODE":0,"TOWNNAME":"北區","LI":"興南里","LIN":"12鄰","STREET":"西門路","SECT":"四段","MAREA":" ","LANE":"１６巷","ALLEY":"３９弄","HOUSE_NO":"１３號","E_COORD97":168825.35999999999,"N_COORD97":2545162.0299999998,"ADDRESS":"西門路四段１６巷３９弄１３號","OBJECTID":84410},"geometry":{"x":168825.36000000127,"y":2545162.0299999993}},{"attributes":{"ID":84411,"DIS_CODE":0,"TOWNNAME":"東山區","LI":"南勢里","LIN":"19鄰","STREET":" ","SECT":" ","MAREA":"大洋","LANE":" ","ALLEY":" ","HOUSE_NO":"３５號之３６","E_COORD97":197135.23999999999,"N_COORD97":2572922.9900000002,"ADDRESS":"大洋３５號之３６","OBJECTID":84411},"geometry":{"x":197135.24000000209,"y":2572922.9900000002}},{"attributes":{"ID":84412,"DIS_CODE":0,"TOWNNAME":"北區","LI":"興南里","LIN":"12鄰","STREET":"西門路","SECT":"四段","MAREA":" ","LANE":"１６巷","ALLEY":"３９弄","HOUSE_NO":"１５號","E_COORD97":168832.89000000001,"N_COORD97":2545164.9500000002,"ADDRESS":"西門路四段１６巷３９弄１５號","OBJECTID":84412},"geometry":{"x":168832.8900000006,"y":2545164.9499999993}},{"attributes":{"ID":84413,"DIS_CODE":0,"TOWNNAME":"北區","LI":"興南里","LIN":"12鄰","STREET":"西門路","SECT":"四段","MAREA":" ","LANE":"１６巷","ALLEY":"３９弄","HOUSE_NO":"１７號","E_COORD97":168837.82000000001,"N_COORD97":2545175.1099999999,"ADDRESS":"西門路四段１６巷３９弄１７號","OBJECTID":84413},"geometry":{"x":168837.82000000123,"y":2545175.1099999994}},{"attributes":{"ID":84414,"DIS_CODE":0,"TOWNNAME":"北區","LI":"興南里","LIN":"12鄰","STREET":"西門路","SECT":"四段","MAREA":" ","LANE":"１６巷","ALLEY":"３９弄","HOUSE_NO":"１９號","E_COORD97":168840.54999999999,"N_COORD97":2545178.9700000002,"ADDRESS":"西門路四段１６巷３９弄１９號","OBJECTID":84414},"geometry":{"x":168840.55000000075,"y":2545178.9700000025}},{"attributes":{"ID":84415,"DIS_CODE":0,"TOWNNAME":"北區","LI":"興南里","LIN":"12鄰","STREET":"西門路","SECT":"四段","MAREA":" ","LANE":"１６巷","ALLEY":"３９弄","HOUSE_NO":"１號","E_COORD97":168795.41,"N_COORD97":2545126.6899999999,"ADDRESS":"西門路四段１６巷３９弄１號","OBJECTID":84415},"geometry":{"x":168795.40999999922,"y":2545126.6899999995}},{"attributes":{"ID":84416,"DIS_CODE":0,"TOWNNAME":"安南區","LI":"學東里","LIN":"15鄰","STREET":"公學路","SECT":"七段","MAREA":" ","LANE":" ","ALLEY":" ","HOUSE_NO":"３２２之５號","E_COORD97":161290.91,"N_COORD97":2553592.5499999998,"ADDRESS":"公學路七段３２２之５號","OBJECTID":84416},"geometry":{"x":161290.91000000201,"y":2553592.5500000045}},{"attributes":{"ID":84417,"DIS_CODE":0,"TOWNNAME":"柳營區","LI":"果毅里","LIN":"19鄰","STREET":" ","SECT":" ","MAREA":"南湖","LANE":" ","ALLEY":" ","HOUSE_NO":"３６號之３","E_COORD97":184289.88,"N_COORD97":2571611.1699999999,"ADDRESS":"南湖３６號之３","OBJECTID":84417},"geometry":{"x":184289.88000000082,"y":2571611.1700000018}},{"attributes":{"ID":84418,"DIS_CODE":0,"TOWNNAME":"柳營區","LI":"東昇里","LIN":"19鄰","STREET":" ","SECT":" ","MAREA":"柳營","LANE":" ","ALLEY":" ","HOUSE_NO":"５１２之２３號","E_COORD97":180564.92999999999,"N_COORD97":2575275.7400000002,"ADDRESS":"柳營５１２之２３號","OBJECTID":84418},"geometry":{"x":180564.93000000063,"y":2575275.7400000021}},{"attributes":{"ID":84419,"DIS_CODE":0,"TOWNNAME":"柳營區","LI":"東昇里","LIN":"19鄰","STREET":" ","SECT":" ","MAREA":"柳營","LANE":" ","ALLEY":" ","HOUSE_NO":"５１２之２４號","E_COORD97":180564.79000000001,"N_COORD97":2575271.7000000002,"ADDRESS":"柳營５１２之２４號","OBJECTID":84419},"geometry":{"x":180564.79000000097,"y":2575271.7000000011}},{"attributes":{"ID":84420,"DIS_CODE":0,"TOWNNAME":"山上區","LI":"明和里","LIN":"19鄰","STREET":" ","SECT":" ","MAREA":"明和","LANE":" ","ALLEY":" ","HOUSE_NO":"５２號之１１","E_COORD97":183266.26999999999,"N_COORD97":2555978.2999999998,"ADDRESS":"明和５２號之１１","OBJECTID":84420},"geometry":{"x":183266.27000000048,"y":2555978.3000000026}},{"attributes":{"ID":84421,"DIS_CODE":0,"TOWNNAME":"柳營區","LI":"東昇里","LIN":"19鄰","STREET":" ","SECT":" ","MAREA":"柳營","LANE":" ","ALLEY":" ","HOUSE_NO":"５１２之２５號","E_COORD97":180564.64999999999,"N_COORD97":2575267.6600000001,"ADDRESS":"柳營５１２之２５號","OBJECTID":84421},"geometry":{"x":180564.6500000013,"y":2575267.6600000001}},{"attributes":{"ID":84422,"DIS_CODE":0,"TOWNNAME":"柳營區","LI":"東昇里","LIN":"19鄰","STREET":" ","SECT":" ","MAREA":"柳營","LANE":" ","ALLEY":" ","HOUSE_NO":"５１２之２９號","E_COORD97":180564.09,"N_COORD97":2575251.4900000002,"ADDRESS":"柳營５１２之２９號","OBJECTID":84422},"geometry":{"x":180564.09000000078,"y":2575251.4900000021}},{"attributes":{"ID":84423,"DIS_CODE":0,"TOWNNAME":"柳營區","LI":"東昇里","LIN":"19鄰","STREET":" ","SECT":" ","MAREA":"柳營","LANE":" ","ALLEY":" ","HOUSE_NO":"５１２之３０號","E_COORD97":180563.95000000001,"N_COORD97":2575247.4500000002,"ADDRESS":"柳營５１２之３０號","OBJECTID":84423},"geometry":{"x":180563.95000000112,"y":2575247.4500000011}},{"attributes":{"ID":84424,"DIS_CODE":0,"TOWNNAME":"柳營區","LI":"東昇里","LIN":"19鄰","STREET":" ","SECT":" ","MAREA":"柳營","LANE":" ","ALLEY":" ","HOUSE_NO":"５１２之３１號","E_COORD97":180563.81,"N_COORD97":2575243.4100000001,"ADDRESS":"柳營５１２之３１號","OBJECTID":84424},"geometry":{"x":180563.81000000052,"y":2575243.4099999983}},{"attributes":{"ID":84425,"DIS_CODE":0,"TOWNNAME":"七股區","LI":"頂山里","LIN":"15鄰","STREET":" ","SECT":" ","MAREA":"頂山","LANE":" ","ALLEY":" ","HOUSE_NO":"１４３號","E_COORD97":159036.14000000001,"N_COORD97":2564656.77,"ADDRESS":"頂山１４３號","OBJECTID":84425},"geometry":{"x":159036.1400000006,"y":2564656.7700000014}},{"attributes":{"ID":84426,"DIS_CODE":0,"TOWNNAME":"七股區","LI":"頂山里","LIN":"15鄰","STREET":" ","SECT":" ","MAREA":"頂山","LANE":" ","ALLEY":" ","HOUSE_NO":"１４４號之１","E_COORD97":159081.76000000001,"N_COORD97":2564658.54,"ADDRESS":"頂山１４４號之１","OBJECTID":84426},"geometry":{"x":159081.76000000071,"y":2564658.540000001}},{"attributes":{"ID":84427,"DIS_CODE":0,"TOWNNAME":"七股區","LI":"大潭里","LIN":"15鄰","STREET":" ","SECT":" ","MAREA":"頂潭","LANE":" ","ALLEY":" ","HOUSE_NO":"１０號","E_COORD97":160986.12,"N_COORD97":2565839.8900000001,"ADDRESS":"頂潭１０號","OBJECTID":84427},"geometry":{"x":160986.12000000197,"y":2565839.8900000025}},{"attributes":{"ID":84428,"DIS_CODE":0,"TOWNNAME":"七股區","LI":"大潭里","LIN":"15鄰","STREET":" ","SECT":" ","MAREA":"頂潭","LANE":" ","ALLEY":" ","HOUSE_NO":"１１號","E_COORD97":161016.47,"N_COORD97":2565873.79,"ADDRESS":"頂潭１１號","OBJECTID":84428},"geometry":{"x":161016.46999999974,"y":2565873.790000001}},{"attributes":{"ID":84429,"DIS_CODE":0,"TOWNNAME":"北區","LI":"興南里","LIN":"12鄰","STREET":"西門路","SECT":"四段","MAREA":" ","LANE":"１６巷","ALLEY":"３９弄","HOUSE_NO":"２１號","E_COORD97":168846.01999999999,"N_COORD97":2545180.7400000002,"ADDRESS":"西門路四段１６巷３９弄２１號","OBJECTID":84429},"geometry":{"x":168846.01999999955,"y":2545180.7400000002}},{"attributes":{"ID":84430,"DIS_CODE":0,"TOWNNAME":"北區","LI":"興南里","LIN":"12鄰","STREET":"西門路","SECT":"四段","MAREA":" ","LANE":"１６巷","ALLEY":"３９弄","HOUSE_NO":"３號","E_COORD97":168796.85999999999,"N_COORD97":2545133.6600000001,"ADDRESS":"西門路四段１６巷３９弄３號","OBJECTID":84430},"geometry":{"x":168796.86000000127,"y":2545133.660000002}},{"attributes":{"ID":84431,"DIS_CODE":0,"TOWNNAME":"北區","LI":"興南里","LIN":"12鄰","STREET":"西門路","SECT":"四段","MAREA":" ","LANE":"１６巷","ALLEY":"３９弄","HOUSE_NO":"５號","E_COORD97":168798.98999999999,"N_COORD97":2545138.2000000002,"ADDRESS":"西門路四段１６巷３９弄５號","OBJECTID":84431},"geometry":{"x":168798.99000000115,"y":2545138.2000000011}},{"attributes":{"ID":84432,"DIS_CODE":0,"TOWNNAME":"七股區","LI":"大潭里","LIN":"15鄰","STREET":" ","SECT":" ","MAREA":"頂潭","LANE":" ","ALLEY":" ","HOUSE_NO":"６號","E_COORD97":161015.5,"N_COORD97":2565812.5,"ADDRESS":"頂潭６號","OBJECTID":84432},"geometry":{"x":161015.50000000186,"y":2565812.5000000019}},{"attributes":{"ID":84433,"DIS_CODE":0,"TOWNNAME":"七股區","LI":"大潭里","LIN":"15鄰","STREET":" ","SECT":" ","MAREA":"頂潭","LANE":" ","ALLEY":" ","HOUSE_NO":"７號之１","E_COORD97":161069.87,"N_COORD97":2565797.21,"ADDRESS":"頂潭７號之１","OBJECTID":84433},"geometry":{"x":161069.87000000104,"y":2565797.2100000028}},{"attributes":{"ID":84434,"DIS_CODE":0,"TOWNNAME":"七股區","LI":"大潭里","LIN":"15鄰","STREET":" ","SECT":" ","MAREA":"頂潭","LANE":" ","ALLEY":" ","HOUSE_NO":"７號之５","E_COORD97":161113.56,"N_COORD97":2565805.3399999999,"ADDRESS":"頂潭７號之５","OBJECTID":84434},"geometry":{"x":161113.56000000052,"y":2565805.3400000017}},{"attributes":{"ID":84435,"DIS_CODE":0,"TOWNNAME":"北區","LI":"興南里","LIN":"12鄰","STREET":"西門路","SECT":"四段","MAREA":" ","LANE":"１６巷","ALLEY":"３９弄","HOUSE_NO":"９號","E_COORD97":168805.67000000001,"N_COORD97":2545142.1699999999,"ADDRESS":"西門路四段１６巷３９弄９號","OBJECTID":84435},"geometry":{"x":168805.67000000086,"y":2545142.1700000018}},{"attributes":{"ID":84436,"DIS_CODE":0,"TOWNNAME":"歸仁區","LI":"七甲里","LIN":"12鄰","STREET":"丁厝街","SECT":" ","MAREA":" ","LANE":"５２巷","ALLEY":"６３弄","HOUSE_NO":"２０號","E_COORD97":175957.29000000001,"N_COORD97":2542188.25,"ADDRESS":"丁厝街５２巷６３弄２０號","OBJECTID":84436},"geometry":{"x":175957.29000000097,"y":2542188.2500000037}},{"attributes":{"ID":84437,"DIS_CODE":0,"TOWNNAME":"歸仁區","LI":"七甲里","LIN":"12鄰","STREET":"丁厝街","SECT":" ","MAREA":" ","LANE":"５２巷","ALLEY":"６３弄","HOUSE_NO":"８１號","E_COORD97":175769.98999999999,"N_COORD97":2542137.25,"ADDRESS":"丁厝街５２巷６３弄８１號","OBJECTID":84437},"geometry":{"x":175769.99000000022,"y":2542137.2499999981}},{"attributes":{"ID":84438,"DIS_CODE":0,"TOWNNAME":"歸仁區","LI":"七甲里","LIN":"12鄰","STREET":"丁厝街","SECT":" ","MAREA":" ","LANE":"５２巷","ALLEY":"６３弄","HOUSE_NO":"３５號","E_COORD97":175840.19,"N_COORD97":2542137.25,"ADDRESS":"丁厝街５２巷６３弄３５號","OBJECTID":84438},"geometry":{"x":175840.19000000041,"y":2542137.2499999981}},{"attributes":{"ID":84439,"DIS_CODE":0,"TOWNNAME":"北區","LI":"國興里","LIN":"12鄰","STREET":"開元路","SECT":" ","MAREA":" ","LANE":"３９４巷","ALLEY":"２７弄","HOUSE_NO":"１３號","E_COORD97":170632.32000000001,"N_COORD97":2545612.8799999999,"ADDRESS":"開元路３９４巷２７弄１３號","OBJECTID":84439},"geometry":{"x":170632.32000000123,"y":2545612.879999999}},{"attributes":{"ID":84440,"DIS_CODE":0,"TOWNNAME":"北區","LI":"國興里","LIN":"12鄰","STREET":"開元路","SECT":" ","MAREA":" ","LANE":"３９４巷","ALLEY":"２７弄","HOUSE_NO":"１５號","E_COORD97":170634.72,"N_COORD97":2545615.7599999998,"ADDRESS":"開元路３９４巷２７弄１５號","OBJECTID":84440},"geometry":{"x":170634.72000000067,"y":2545615.7600000035}},{"attributes":{"ID":84441,"DIS_CODE":0,"TOWNNAME":"北區","LI":"國興里","LIN":"12鄰","STREET":"開元路","SECT":" ","MAREA":" ","LANE":"３９４巷","ALLEY":"２７弄","HOUSE_NO":"１７號","E_COORD97":170637.01999999999,"N_COORD97":2545619.02,"ADDRESS":"開元路３９４巷２７弄１７號","OBJECTID":84441},"geometry":{"x":170637.02000000048,"y":2545619.0199999996}},{"attributes":{"ID":84442,"DIS_CODE":0,"TOWNNAME":"北區","LI":"國興里","LIN":"12鄰","STREET":"開元路","SECT":" ","MAREA":" ","LANE":"３９４巷","ALLEY":"２７弄","HOUSE_NO":"１９號","E_COORD97":170640.29000000001,"N_COORD97":2545621.8999999999,"ADDRESS":"開元路３９４巷２７弄１９號","OBJECTID":84442},"geometry":{"x":170640.29000000004,"y":2545621.9000000004}},{"attributes":{"ID":84443,"DIS_CODE":0,"TOWNNAME":"七股區","LI":"大潭里","LIN":"15鄰","STREET":" ","SECT":" ","MAREA":"頂潭","LANE":" ","ALLEY":" ","HOUSE_NO":"７號","E_COORD97":161017.64000000001,"N_COORD97":2565831.2999999998,"ADDRESS":"頂潭７號","OBJECTID":84443},"geometry":{"x":161017.64000000153,"y":2565831.3000000026}},{"attributes":{"ID":84444,"DIS_CODE":0,"TOWNNAME":"白河區","LI":"仙草里","LIN":"15鄰","STREET":" ","SECT":" ","MAREA":"白水溪","LANE":" ","ALLEY":" ","HOUSE_NO":"５６號","E_COORD97":198608.37,"N_COORD97":2585257.1400000001,"ADDRESS":"白水溪５６號","OBJECTID":84444},"geometry":{"x":198608.37000000011,"y":2585257.1400000006}},{"attributes":{"ID":84445,"DIS_CODE":0,"TOWNNAME":"白河區","LI":"仙草里","LIN":"15鄰","STREET":" ","SECT":" ","MAREA":"白水溪","LANE":" ","ALLEY":" ","HOUSE_NO":"６０號","E_COORD97":199035.44,"N_COORD97":2584703.7000000002,"ADDRESS":"白水溪６０號","OBJECTID":84445},"geometry":{"x":199035.44000000041,"y":2584703.7000000011}},{"attributes":{"ID":84446,"DIS_CODE":0,"TOWNNAME":"柳營區","LI":"東昇里","LIN":"19鄰","STREET":" ","SECT":" ","MAREA":"柳營","LANE":" ","ALLEY":" ","HOUSE_NO":"５１２之３２號","E_COORD97":180563.67000000001,"N_COORD97":2575239.3700000001,"ADDRESS":"柳營５１２之３２號","OBJECTID":84446},"geometry":{"x":180563.67000000086,"y":2575239.3700000029}},{"attributes":{"ID":84447,"DIS_CODE":0,"TOWNNAME":"柳營區","LI":"東昇里","LIN":"19鄰","STREET":" ","SECT":" ","MAREA":"柳營","LANE":" ","ALLEY":" ","HOUSE_NO":"５１２之３３號","E_COORD97":180563.53,"N_COORD97":2575235.3300000001,"ADDRESS":"柳營５１２之３３號","OBJECTID":84447},"geometry":{"x":180563.53000000119,"y":2575235.3300000019}},{"attributes":{"ID":84448,"DIS_CODE":0,"TOWNNAME":"柳營區","LI":"東昇里","LIN":"19鄰","STREET":" ","SECT":" ","MAREA":"柳營","LANE":" ","ALLEY":" ","HOUSE_NO":"５１２號之３４","E_COORD97":180564.14000000001,"N_COORD97":2575217.5299999998,"ADDRESS":"柳營５１２號之３４","OBJECTID":84448},"geometry":{"x":180564.13999999966,"y":2575217.5299999993}},{"attributes":{"ID":84449,"DIS_CODE":0,"TOWNNAME":"柳營區","LI":"東昇里","LIN":"19鄰","STREET":" ","SECT":" ","MAREA":"柳營","LANE":" ","ALLEY":" ","HOUSE_NO":"５１２之３５號","E_COORD97":180564.03,"N_COORD97":2575213.5499999998,"ADDRESS":"柳營５１２之３５號","OBJECTID":84449},"geometry":{"x":180564.03000000026,"y":2575213.5500000026}},{"attributes":{"ID":84450,"DIS_CODE":0,"TOWNNAME":"柳營區","LI":"東昇里","LIN":"19鄰","STREET":" ","SECT":" ","MAREA":"柳營","LANE":" ","ALLEY":" ","HOUSE_NO":"５１２之３６號","E_COORD97":180563.92999999999,"N_COORD97":2575209.5800000001,"ADDRESS":"柳營５１２之３６號","OBJECTID":84450},"geometry":{"x":180563.9299999997,"y":2575209.5800000019}},{"attributes":{"ID":84451,"DIS_CODE":0,"TOWNNAME":"北區","LI":"國興里","LIN":"12鄰","STREET":"開元路","SECT":" ","MAREA":" ","LANE":"３９４巷","ALLEY":"２７弄","HOUSE_NO":"１號","E_COORD97":170613.69,"N_COORD97":2545594.46,"ADDRESS":"開元路３９４巷２７弄１號","OBJECTID":84451},"geometry":{"x":170613.69000000041,"y":2545594.4600000009}},{"attributes":{"ID":84452,"DIS_CODE":0,"TOWNNAME":"北區","LI":"國興里","LIN":"12鄰","STREET":"開元路","SECT":" ","MAREA":" ","LANE":"３９４巷","ALLEY":"２７弄","HOUSE_NO":"２１號","E_COORD97":170643.73999999999,"N_COORD97":2545626.9700000002,"ADDRESS":"開元路３９４巷２７弄２１號","OBJECTID":84452},"geometry":{"x":170643.74000000022,"y":2545626.9700000025}},{"attributes":{"ID":84453,"DIS_CODE":0,"TOWNNAME":"北區","LI":"國興里","LIN":"12鄰","STREET":"開元路","SECT":" ","MAREA":" ","LANE":"３９４巷","ALLEY":"２７弄","HOUSE_NO":"２３號","E_COORD97":170648.38,"N_COORD97":2545630.9399999999,"ADDRESS":"開元路３９４巷２７弄２３號","OBJECTID":84453},"geometry":{"x":170648.38000000175,"y":2545630.9399999976}},{"attributes":{"ID":84454,"DIS_CODE":0,"TOWNNAME":"北區","LI":"國興里","LIN":"12鄰","STREET":"開元路","SECT":" ","MAREA":" ","LANE":"３９４巷","ALLEY":"２７弄","HOUSE_NO":"３１號","E_COORD97":170661.25,"N_COORD97":2545650.7000000002,"ADDRESS":"開元路３９４巷２７弄３１號","OBJECTID":84454},"geometry":{"x":170661.25000000186,"y":2545650.7000000011}},{"attributes":{"ID":84455,"DIS_CODE":0,"TOWNNAME":"北區","LI":"國興里","LIN":"12鄰","STREET":"開元路","SECT":" ","MAREA":" ","LANE":"３９４巷","ALLEY":"２７弄","HOUSE_NO":"３１號之１","E_COORD97":170666.81,"N_COORD97":2545656.1699999999,"ADDRESS":"開元路３９４巷２７弄３１號之１","OBJECTID":84455},"geometry":{"x":170666.80999999959,"y":2545656.1699999999}},{"attributes":{"ID":84456,"DIS_CODE":0,"TOWNNAME":"仁德區","LI":"二行里","LIN":"22鄰","STREET":"行大街","SECT":" ","MAREA":" ","LANE":"５６巷","ALLEY":"３弄","HOUSE_NO":"３６號","E_COORD97":170195.23999999999,"N_COORD97":2535281.7400000002,"ADDRESS":"行大街５６巷３弄３６號","OBJECTID":84456},"geometry":{"x":170195.24000000209,"y":2535281.7400000002}},{"attributes":{"ID":84457,"DIS_CODE":0,"TOWNNAME":"北區","LI":"國興里","LIN":"12鄰","STREET":"開元路","SECT":" ","MAREA":" ","LANE":"３９４巷","ALLEY":"２７弄","HOUSE_NO":"３３號","E_COORD97":170670.45999999999,"N_COORD97":2545660.6099999999,"ADDRESS":"開元路３９４巷２７弄３３號","OBJECTID":84457},"geometry":{"x":170670.46000000089,"y":2545660.6100000031}},{"attributes":{"ID":84458,"DIS_CODE":0,"TOWNNAME":"柳營區","LI":"東昇里","LIN":"19鄰","STREET":" ","SECT":" ","MAREA":"柳營","LANE":" ","ALLEY":" ","HOUSE_NO":"５１２之３７號","E_COORD97":180563.82000000001,"N_COORD97":2575205.6000000001,"ADDRESS":"柳營５１２之３７號","OBJECTID":84458},"geometry":{"x":180563.8200000003,"y":2575205.6000000015}},{"attributes":{"ID":84459,"DIS_CODE":0,"TOWNNAME":"北區","LI":"國興里","LIN":"12鄰","STREET":"開元路","SECT":" ","MAREA":" ","LANE":"３９４巷","ALLEY":"２７弄","HOUSE_NO":"３５號","E_COORD97":170673.73000000001,"N_COORD97":2545663.4900000002,"ADDRESS":"開元路３９４巷２７弄３５號","OBJECTID":84459},"geometry":{"x":170673.73000000231,"y":2545663.4900000021}},{"attributes":{"ID":84460,"DIS_CODE":0,"TOWNNAME":"北區","LI":"國興里","LIN":"12鄰","STREET":"開元路","SECT":" ","MAREA":" ","LANE":"３９４巷","ALLEY":"２７弄","HOUSE_NO":"３７號","E_COORD97":170677.09,"N_COORD97":2545666.6600000001,"ADDRESS":"開元路３９４巷２７弄３７號","OBJECTID":84460},"geometry":{"x":170677.08999999985,"y":2545666.6600000001}},{"attributes":{"ID":84461,"DIS_CODE":0,"TOWNNAME":"北區","LI":"國興里","LIN":"12鄰","STREET":"開元路","SECT":" ","MAREA":" ","LANE":"３９４巷","ALLEY":"２７弄","HOUSE_NO":"３９號","E_COORD97":170680.82999999999,"N_COORD97":2545669.4399999999,"ADDRESS":"開元路３９４巷２７弄３９號","OBJECTID":84461},"geometry":{"x":170680.83000000007,"y":2545669.4400000013}},{"attributes":{"ID":84462,"DIS_CODE":0,"TOWNNAME":"北區","LI":"國興里","LIN":"12鄰","STREET":"開元路","SECT":" ","MAREA":" ","LANE":"３９４巷","ALLEY":"２７弄","HOUSE_NO":"３號","E_COORD97":170616.95999999999,"N_COORD97":2545597.9100000001,"ADDRESS":"開元路３９４巷２７弄３號","OBJECTID":84462},"geometry":{"x":170616.95999999996,"y":2545597.9099999983}},{"attributes":{"ID":84463,"DIS_CODE":0,"TOWNNAME":"永康區","LI":"正強里","LIN":"15鄰","STREET":"正強街","SECT":" ","MAREA":" ","LANE":"７１巷","ALLEY":" ","HOUSE_NO":"２號","E_COORD97":173320.81,"N_COORD97":2547325.4199999999,"ADDRESS":"正強街７１巷２號","OBJECTID":84463},"geometry":{"x":173320.81000000052,"y":2547325.4199999999}},{"attributes":{"ID":84464,"DIS_CODE":0,"TOWNNAME":"柳營區","LI":"東昇里","LIN":"19鄰","STREET":" ","SECT":" ","MAREA":"柳營","LANE":" ","ALLEY":" ","HOUSE_NO":"５１２之３８號","E_COORD97":180563.72,"N_COORD97":2575201.6200000001,"ADDRESS":"柳營５１２之３８號","OBJECTID":84464},"geometry":{"x":180563.71999999974,"y":2575201.620000001}},{"attributes":{"ID":84465,"DIS_CODE":0,"TOWNNAME":"安南區","LI":"新順里","LIN":"15鄰","STREET":"培安二街","SECT":" ","MAREA":" ","LANE":" ","ALLEY":" ","HOUSE_NO":"６８號","E_COORD97":169386.70999999999,"N_COORD97":2549774.0099999998,"ADDRESS":"培安二街６８號","OBJECTID":84465},"geometry":{"x":169386.71000000183,"y":2549774.0100000035}},{"attributes":{"ID":84466,"DIS_CODE":0,"TOWNNAME":"柳營區","LI":"東昇里","LIN":"19鄰","STREET":" ","SECT":" ","MAREA":"柳營","LANE":" ","ALLEY":" ","HOUSE_NO":"５１２號之３８","E_COORD97":180563.72,"N_COORD97":2575201.6200000001,"ADDRESS":"柳營５１２號之３８","OBJECTID":84466},"geometry":{"x":180563.71999999974,"y":2575201.620000001}},{"attributes":{"ID":84467,"DIS_CODE":0,"TOWNNAME":"柳營區","LI":"東昇里","LIN":"19鄰","STREET":" ","SECT":" ","MAREA":"柳營","LANE":" ","ALLEY":" ","HOUSE_NO":"５１２之３９號","E_COORD97":180563.60999999999,"N_COORD97":2575197.6400000001,"ADDRESS":"柳營５１２之３９號","OBJECTID":84467},"geometry":{"x":180563.61000000034,"y":2575197.6400000006}},{"attributes":{"ID":84468,"DIS_CODE":0,"TOWNNAME":"柳營區","LI":"東昇里","LIN":"19鄰","STREET":" ","SECT":" ","MAREA":"柳營","LANE":" ","ALLEY":" ","HOUSE_NO":"５１２之４０號","E_COORD97":180583.39999999999,"N_COORD97":2575217.8100000001,"ADDRESS":"柳營５１２之４０號","OBJECTID":84468},"geometry":{"x":180583.40000000037,"y":2575217.8100000042}},{"attributes":{"ID":84469,"DIS_CODE":0,"TOWNNAME":"柳營區","LI":"東昇里","LIN":"19鄰","STREET":" ","SECT":" ","MAREA":"柳營","LANE":" ","ALLEY":" ","HOUSE_NO":"５１２之４１號","E_COORD97":180583.29999999999,"N_COORD97":2575213.6600000001,"ADDRESS":"柳營５１２之４１號","OBJECTID":84469},"geometry":{"x":180583.30000000075,"y":2575213.6600000001}},{"attributes":{"ID":84470,"DIS_CODE":0,"TOWNNAME":"柳營區","LI":"東昇里","LIN":"19鄰","STREET":" ","SECT":" ","MAREA":"柳營","LANE":" ","ALLEY":" ","HOUSE_NO":"５１２號之４２","E_COORD97":180583.20000000001,"N_COORD97":2575209.5099999998,"ADDRESS":"柳營５１２號之４２","OBJECTID":84470},"geometry":{"x":180583.20000000019,"y":2575209.5100000016}},{"attributes":{"ID":84471,"DIS_CODE":0,"TOWNNAME":"柳營區","LI":"東昇里","LIN":"19鄰","STREET":" ","SECT":" ","MAREA":"柳營","LANE":" ","ALLEY":" ","HOUSE_NO":"５１２之４３號","E_COORD97":180583.09,"N_COORD97":2575205.3599999999,"ADDRESS":"柳營５１２之４３號","OBJECTID":84471},"geometry":{"x":180583.09000000078,"y":2575205.3599999994}},{"attributes":{"ID":84472,"DIS_CODE":0,"TOWNNAME":"柳營區","LI":"東昇里","LIN":"19鄰","STREET":" ","SECT":" ","MAREA":"柳營","LANE":" ","ALLEY":" ","HOUSE_NO":"５１２之４４號","E_COORD97":180582.98999999999,"N_COORD97":2575201.21,"ADDRESS":"柳營５１２之４４號","OBJECTID":84472},"geometry":{"x":180582.99000000022,"y":2575201.2100000009}},{"attributes":{"ID":84473,"DIS_CODE":0,"TOWNNAME":"柳營區","LI":"東昇里","LIN":"19鄰","STREET":" ","SECT":" ","MAREA":"柳營","LANE":" ","ALLEY":" ","HOUSE_NO":"５１２號之４４","E_COORD97":180582.98999999999,"N_COORD97":2575201.21,"ADDRESS":"柳營５１２號之４４","OBJECTID":84473},"geometry":{"x":180582.99000000022,"y":2575201.2100000009}},{"attributes":{"ID":84474,"DIS_CODE":0,"TOWNNAME":"柳營區","LI":"東昇里","LIN":"19鄰","STREET":" ","SECT":" ","MAREA":"柳營","LANE":" ","ALLEY":" ","HOUSE_NO":"５１２之４５號","E_COORD97":180582.89000000001,"N_COORD97":2575197.0600000001,"ADDRESS":"柳營５１２之４５號","OBJECTID":84474},"geometry":{"x":180582.88999999966,"y":2575197.0600000024}},{"attributes":{"ID":84475,"DIS_CODE":0,"TOWNNAME":"柳營區","LI":"東昇里","LIN":"19鄰","STREET":" ","SECT":" ","MAREA":"柳營","LANE":" ","ALLEY":" ","HOUSE_NO":"５１２號","E_COORD97":180581.51999999999,"N_COORD97":2575294.46,"ADDRESS":"柳營５１２號","OBJECTID":84475},"geometry":{"x":180581.52000000048,"y":2575294.4600000009}},{"attributes":{"ID":84476,"DIS_CODE":0,"TOWNNAME":"東山區","LI":"南勢里","LIN":"19鄰","STREET":" ","SECT":" ","MAREA":"大洋","LANE":" ","ALLEY":" ","HOUSE_NO":"３５號之３３","E_COORD97":197043.37,"N_COORD97":2573431.3599999999,"ADDRESS":"大洋３５號之３３","OBJECTID":84476},"geometry":{"x":197043.37000000104,"y":2573431.3599999994}},{"attributes":{"ID":84477,"DIS_CODE":0,"TOWNNAME":"北區","LI":"國興里","LIN":"12鄰","STREET":"開元路","SECT":" ","MAREA":" ","LANE":"３９４巷","ALLEY":"２７弄","HOUSE_NO":"４１號","E_COORD97":170684.10000000001,"N_COORD97":2545672.3199999998,"ADDRESS":"開元路３９４巷２７弄４１號","OBJECTID":84477},"geometry":{"x":170684.10000000056,"y":2545672.3200000003}},{"attributes":{"ID":84478,"DIS_CODE":0,"TOWNNAME":"北區","LI":"國興里","LIN":"12鄰","STREET":"開元路","SECT":" ","MAREA":" ","LANE":"３９４巷","ALLEY":"２７弄","HOUSE_NO":"４３號","E_COORD97":170687.07000000001,"N_COORD97":2545675.3900000001,"ADDRESS":"開元路３９４巷２７弄４３號","OBJECTID":84478},"geometry":{"x":170687.07000000123,"y":2545675.3900000006}},{"attributes":{"ID":84479,"DIS_CODE":0,"TOWNNAME":"東山區","LI":"南勢里","LIN":"19鄰","STREET":" ","SECT":" ","MAREA":"大洋","LANE":" ","ALLEY":" ","HOUSE_NO":"３５號之３８","E_COORD97":197115.07000000001,"N_COORD97":2573351.54,"ADDRESS":"大洋３５號之３８","OBJECTID":84479},"geometry":{"x":197115.07000000123,"y":2573351.5399999991}},{"attributes":{"ID":84480,"DIS_CODE":0,"TOWNNAME":"東山區","LI":"南勢里","LIN":"19鄰","STREET":" ","SECT":" ","MAREA":"大洋","LANE":" ","ALLEY":" ","HOUSE_NO":"３５號之４","E_COORD97":197603.41,"N_COORD97":2573356.46,"ADDRESS":"大洋３５號之４","OBJECTID":84480},"geometry":{"x":197603.41000000015,"y":2573356.4600000028}},{"attributes":{"ID":84481,"DIS_CODE":0,"TOWNNAME":"東山區","LI":"南勢里","LIN":"19鄰","STREET":" ","SECT":" ","MAREA":"大洋","LANE":" ","ALLEY":" ","HOUSE_NO":"３５號之５","E_COORD97":197607.63,"N_COORD97":2573357.8700000001,"ADDRESS":"大洋３５號之５","OBJECTID":84481},"geometry":{"x":197607.63000000082,"y":2573357.8700000029}},{"attributes":{"ID":84482,"DIS_CODE":0,"TOWNNAME":"北區","LI":"國興里","LIN":"12鄰","STREET":"開元路","SECT":" ","MAREA":" ","LANE":"３９４巷","ALLEY":"２７弄","HOUSE_NO":"５號","E_COORD97":170619.92999999999,"N_COORD97":2545600.8799999999,"ADDRESS":"開元路３９４巷２７弄５號","OBJECTID":84482},"geometry":{"x":170619.9299999997,"y":2545600.8800000008}},{"attributes":{"ID":84483,"DIS_CODE":0,"TOWNNAME":"北區","LI":"國興里","LIN":"12鄰","STREET":"開元路","SECT":" ","MAREA":" ","LANE":"３９４巷","ALLEY":"２７弄","HOUSE_NO":"７號","E_COORD97":170622.91,"N_COORD97":2545604.4300000002,"ADDRESS":"開元路３９４巷２７弄７號","OBJECTID":84483},"geometry":{"x":170622.91000000201,"y":2545604.4300000034}},{"attributes":{"ID":84484,"DIS_CODE":0,"TOWNNAME":"北區","LI":"國興里","LIN":"12鄰","STREET":"開元路","SECT":" ","MAREA":" ","LANE":"３９４巷","ALLEY":"２７弄","HOUSE_NO":"９號","E_COORD97":170626.37,"N_COORD97":2545607.7000000002,"ADDRESS":"開元路３９４巷２７弄９號","OBJECTID":84484},"geometry":{"x":170626.37000000011,"y":2545607.6999999993}},{"attributes":{"ID":84485,"DIS_CODE":0,"TOWNNAME":"北區","LI":"國興里","LIN":"12鄰","STREET":"開元路","SECT":" ","MAREA":" ","LANE":"３９４巷","ALLEY":"２７弄","HOUSE_NO":"１０號","E_COORD97":170631.34,"N_COORD97":2545591.4399999999,"ADDRESS":"開元路３９４巷２７弄１０號","OBJECTID":84485},"geometry":{"x":170631.33999999985,"y":2545591.4400000013}},{"attributes":{"ID":84486,"DIS_CODE":0,"TOWNNAME":"北區","LI":"國興里","LIN":"12鄰","STREET":"開元路","SECT":" ","MAREA":" ","LANE":"３９４巷","ALLEY":"２７弄","HOUSE_NO":"１２號","E_COORD97":170634.89000000001,"N_COORD97":2545593.9300000002,"ADDRESS":"開元路３９４巷２７弄１２號","OBJECTID":84486},"geometry":{"x":170634.8900000006,"y":2545593.9299999978}},{"attributes":{"ID":84487,"DIS_CODE":0,"TOWNNAME":"北區","LI":"國興里","LIN":"12鄰","STREET":"開元路","SECT":" ","MAREA":" ","LANE":"３９４巷","ALLEY":"２７弄","HOUSE_NO":"１４號","E_COORD97":170637.48000000001,"N_COORD97":2545597.77,"ADDRESS":"開元路３９４巷２７弄１４號","OBJECTID":84487},"geometry":{"x":170637.48000000045,"y":2545597.7699999996}},{"attributes":{"ID":84488,"DIS_CODE":0,"TOWNNAME":"北區","LI":"國興里","LIN":"12鄰","STREET":"開元路","SECT":" ","MAREA":" ","LANE":"３９４巷","ALLEY":"２７弄","HOUSE_NO":"１６號","E_COORD97":170643.63,"N_COORD97":2545603.0499999998,"ADDRESS":"開元路３９４巷２７弄１６號","OBJECTID":84488},"geometry":{"x":170643.63000000082,"y":2545603.0500000007}},{"attributes":{"ID":84489,"DIS_CODE":0,"TOWNNAME":"北區","LI":"國興里","LIN":"12鄰","STREET":"開元路","SECT":" ","MAREA":" ","LANE":"３９４巷","ALLEY":"２７弄","HOUSE_NO":"１８號","E_COORD97":170646.70000000001,"N_COORD97":2545606.98,"ADDRESS":"開元路３９４巷２７弄１８號","OBJECTID":84489},"geometry":{"x":170646.70000000112,"y":2545606.9800000004}},{"attributes":{"ID":84490,"DIS_CODE":0,"TOWNNAME":"北區","LI":"國興里","LIN":"12鄰","STREET":"開元路","SECT":" ","MAREA":" ","LANE":"３９４巷","ALLEY":"２７弄","HOUSE_NO":"２０號","E_COORD97":170649.95999999999,"N_COORD97":2545610.9100000001,"ADDRESS":"開元路３９４巷２７弄２０號","OBJECTID":84490},"geometry":{"x":170649.96000000089,"y":2545610.9100000001}},{"attributes":{"ID":84491,"DIS_CODE":0,"TOWNNAME":"北區","LI":"國興里","LIN":"12鄰","STREET":"開元路","SECT":" ","MAREA":" ","LANE":"３９４巷","ALLEY":"２７弄","HOUSE_NO":"２２號","E_COORD97":170652.75,"N_COORD97":2545614.27,"ADDRESS":"開元路３９４巷２７弄２２號","OBJECTID":84491},"geometry":{"x":170652.75000000186,"y":2545614.2699999996}},{"attributes":{"ID":84492,"DIS_CODE":0,"TOWNNAME":"北區","LI":"國興里","LIN":"12鄰","STREET":"開元路","SECT":" ","MAREA":" ","LANE":"３９４巷","ALLEY":"２７弄","HOUSE_NO":"２４號","E_COORD97":170656.01000000001,"N_COORD97":2545617.73,"ADDRESS":"開元路３９４巷２７弄２４號","OBJECTID":84492},"geometry":{"x":170656.01000000071,"y":2545617.7300000023}},{"attributes":{"ID":84493,"DIS_CODE":0,"TOWNNAME":"北區","LI":"國興里","LIN":"12鄰","STREET":"開元路","SECT":" ","MAREA":" ","LANE":"３９４巷","ALLEY":"２７弄","HOUSE_NO":"２６號","E_COORD97":170659.12,"N_COORD97":2545621.2799999998,"ADDRESS":"開元路３９４巷２７弄２６號","OBJECTID":84493},"geometry":{"x":170659.12000000104,"y":2545621.2799999993}},{"attributes":{"ID":84494,"DIS_CODE":0,"TOWNNAME":"北區","LI":"國興里","LIN":"12鄰","STREET":"開元路","SECT":" ","MAREA":" ","LANE":"３９４巷","ALLEY":"２７弄","HOUSE_NO":"２８號","E_COORD97":170662.01000000001,"N_COORD97":2545624.54,"ADDRESS":"開元路３９４巷２７弄２８號","OBJECTID":84494},"geometry":{"x":170662.00999999978,"y":2545624.540000001}},{"attributes":{"ID":84495,"DIS_CODE":0,"TOWNNAME":"北區","LI":"國興里","LIN":"12鄰","STREET":"開元路","SECT":" ","MAREA":" ","LANE":"３９４巷","ALLEY":"２７弄","HOUSE_NO":"２號","E_COORD97":170618.95000000001,"N_COORD97":2545577.9399999999,"ADDRESS":"開元路３９４巷２７弄２號","OBJECTID":84495},"geometry":{"x":170618.95000000019,"y":2545577.9400000013}},{"attributes":{"ID":84496,"DIS_CODE":0,"TOWNNAME":"北區","LI":"國興里","LIN":"12鄰","STREET":"開元路","SECT":" ","MAREA":" ","LANE":"３９４巷","ALLEY":"２７弄","HOUSE_NO":"３０號","E_COORD97":170664.98000000001,"N_COORD97":2545628,"ADDRESS":"開元路３９４巷２７弄３０號","OBJECTID":84496},"geometry":{"x":170664.98000000045,"y":2545628.0000000037}},{"attributes":{"ID":84497,"DIS_CODE":0,"TOWNNAME":"北區","LI":"國興里","LIN":"12鄰","STREET":"開元路","SECT":" ","MAREA":" ","LANE":"３９４巷","ALLEY":"２７弄","HOUSE_NO":"３６號","E_COORD97":170674.87,"N_COORD97":2545638.3599999999,"ADDRESS":"開元路３９４巷２７弄３６號","OBJECTID":84497},"geometry":{"x":170674.87000000011,"y":2545638.3600000031}},{"attributes":{"ID":84498,"DIS_CODE":0,"TOWNNAME":"北區","LI":"國興里","LIN":"12鄰","STREET":"開元路","SECT":" ","MAREA":" ","LANE":"３９４巷","ALLEY":"２７弄","HOUSE_NO":"３８號","E_COORD97":170680.06,"N_COORD97":2545644.8799999999,"ADDRESS":"開元路３９４巷２７弄３８號","OBJECTID":84498},"geometry":{"x":170680.05999999959,"y":2545644.8800000008}},{"attributes":{"ID":84499,"DIS_CODE":0,"TOWNNAME":"北區","LI":"國興里","LIN":"12鄰","STREET":"開元路","SECT":" ","MAREA":" ","LANE":"３９４巷","ALLEY":"２７弄","HOUSE_NO":"４０號","E_COORD97":170683.70000000001,"N_COORD97":2545648.6200000001,"ADDRESS":"開元路３９４巷２７弄４０號","OBJECTID":84499},"geometry":{"x":170683.70000000205,"y":2545648.6200000048}},{"attributes":{"ID":84500,"DIS_CODE":0,"TOWNNAME":"北區","LI":"國興里","LIN":"12鄰","STREET":"開元路","SECT":" ","MAREA":" ","LANE":"３９４巷","ALLEY":"２７弄","HOUSE_NO":"４２號","E_COORD97":170686.97,"N_COORD97":2545651.21,"ADDRESS":"開元路３９４巷２７弄４２號","OBJECTID":84500},"geometry":{"x":170686.97000000067,"y":2545651.2100000046}},{"attributes":{"ID":84501,"DIS_CODE":0,"TOWNNAME":"北區","LI":"國興里","LIN":"12鄰","STREET":"開元路","SECT":" ","MAREA":" ","LANE":"３９４巷","ALLEY":"２７弄","HOUSE_NO":"４４號","E_COORD97":170693.01999999999,"N_COORD97":2545658.5,"ADDRESS":"開元路３９４巷２７弄４４號","OBJECTID":84501},"geometry":{"x":170693.02000000048,"y":2545658.5000000037}},{"attributes":{"ID":84502,"DIS_CODE":0,"TOWNNAME":"北區","LI":"國興里","LIN":"12鄰","STREET":"開元路","SECT":" ","MAREA":" ","LANE":"３９４巷","ALLEY":"２７弄","HOUSE_NO":"４６號","E_COORD97":170698.78,"N_COORD97":2545665.4100000001,"ADDRESS":"開元路３９４巷２７弄４６號","OBJECTID":84502},"geometry":{"x":170698.78000000119,"y":2545665.4100000001}},{"attributes":{"ID":84503,"DIS_CODE":0,"TOWNNAME":"北區","LI":"國興里","LIN":"12鄰","STREET":"開元路","SECT":" ","MAREA":" ","LANE":"３９４巷","ALLEY":"２７弄","HOUSE_NO":"４８號","E_COORD97":170704.35000000001,"N_COORD97":2545672.2200000002,"ADDRESS":"開元路３９４巷２７弄４８號","OBJECTID":84503},"geometry":{"x":170704.35000000056,"y":2545672.2200000025}},{"attributes":{"ID":84504,"DIS_CODE":0,"TOWNNAME":"北區","LI":"國興里","LIN":"12鄰","STREET":"開元路","SECT":" ","MAREA":" ","LANE":"３９４巷","ALLEY":"２７弄","HOUSE_NO":"４號","E_COORD97":170622.01999999999,"N_COORD97":2545580.9100000001,"ADDRESS":"開元路３９４巷２７弄４號","OBJECTID":84504},"geometry":{"x":170622.02000000048,"y":2545580.9100000001}},{"attributes":{"ID":84505,"DIS_CODE":0,"TOWNNAME":"北區","LI":"國興里","LIN":"12鄰","STREET":"開元路","SECT":" ","MAREA":" ","LANE":"３９４巷","ALLEY":"２７弄","HOUSE_NO":"６號","E_COORD97":170625.38,"N_COORD97":2545584.6299999999,"ADDRESS":"開元路３９４巷２７弄６號","OBJECTID":84505},"geometry":{"x":170625.38000000082,"y":2545584.629999999}},{"attributes":{"ID":84506,"DIS_CODE":0,"TOWNNAME":"北區","LI":"華興里","LIN":"12鄰","STREET":"南園街","SECT":" ","MAREA":" ","LANE":"１０１巷","ALLEY":"３４弄","HOUSE_NO":"１１號","E_COORD97":170820.04999999999,"N_COORD97":2545508.54,"ADDRESS":"南園街１０１巷３４弄１１號","OBJECTID":84506},"geometry":{"x":170820.05000000168,"y":2545508.540000001}},{"attributes":{"ID":84507,"DIS_CODE":0,"TOWNNAME":"北區","LI":"華興里","LIN":"12鄰","STREET":"南園街","SECT":" ","MAREA":" ","LANE":"１０１巷","ALLEY":"３４弄","HOUSE_NO":"１３號","E_COORD97":170825.98000000001,"N_COORD97":2545511.7799999998,"ADDRESS":"南園街１０１巷３４弄１３號","OBJECTID":84507},"geometry":{"x":170825.98000000045,"y":2545511.7799999993}},{"attributes":{"ID":84508,"DIS_CODE":0,"TOWNNAME":"北區","LI":"華興里","LIN":"12鄰","STREET":"南園街","SECT":" ","MAREA":" ","LANE":"１０１巷","ALLEY":"３４弄","HOUSE_NO":"１５號","E_COORD97":170829.70999999999,"N_COORD97":2545514.25,"ADDRESS":"南園街１０１巷３４弄１５號","OBJECTID":84508},"geometry":{"x":170829.71000000089,"y":2545514.2500000037}},{"attributes":{"ID":84509,"DIS_CODE":0,"TOWNNAME":"北區","LI":"華興里","LIN":"12鄰","STREET":"南園街","SECT":" ","MAREA":" ","LANE":"１０１巷","ALLEY":"３４弄","HOUSE_NO":"１７號","E_COORD97":170832.97,"N_COORD97":2545516.6000000001,"ADDRESS":"南園街１０１巷３４弄１７號","OBJECTID":84509},"geometry":{"x":170832.97000000067,"y":2545516.6000000015}},{"attributes":{"ID":84510,"DIS_CODE":0,"TOWNNAME":"北區","LI":"華興里","LIN":"12鄰","STREET":"南園街","SECT":" ","MAREA":" ","LANE":"１０１巷","ALLEY":"３４弄","HOUSE_NO":"１９號","E_COORD97":170835.92000000001,"N_COORD97":2545518.9500000002,"ADDRESS":"南園街１０１巷３４弄１９號","OBJECTID":84510},"geometry":{"x":170835.91999999993,"y":2545518.950000003}},{"attributes":{"ID":84511,"DIS_CODE":0,"TOWNNAME":"北區","LI":"華興里","LIN":"12鄰","STREET":"南園街","SECT":" ","MAREA":" ","LANE":"１０１巷","ALLEY":"３４弄","HOUSE_NO":"１號","E_COORD97":170790.92000000001,"N_COORD97":2545482,"ADDRESS":"南園街１０１巷３４弄１號","OBJECTID":84511},"geometry":{"x":170790.92000000086,"y":2545482.0000000037}},{"attributes":{"ID":84512,"DIS_CODE":0,"TOWNNAME":"北區","LI":"華興里","LIN":"12鄰","STREET":"南園街","SECT":" ","MAREA":" ","LANE":"１０１巷","ALLEY":"３４弄","HOUSE_NO":"２１號","E_COORD97":170839,"N_COORD97":2545521.6099999999,"ADDRESS":"南園街１０１巷３４弄２１號","OBJECTID":84512},"geometry":{"x":170839,"y":2545521.6100000031}},{"attributes":{"ID":84513,"DIS_CODE":0,"TOWNNAME":"北區","LI":"華興里","LIN":"12鄰","STREET":"南園街","SECT":" ","MAREA":" ","LANE":"１０１巷","ALLEY":"３４弄","HOUSE_NO":"２３號","E_COORD97":170841.64999999999,"N_COORD97":2545524.6800000002,"ADDRESS":"南園街１０１巷３４弄２３號","OBJECTID":84513},"geometry":{"x":170841.65000000037,"y":2545524.6800000034}},{"attributes":{"ID":84514,"DIS_CODE":0,"TOWNNAME":"北區","LI":"華興里","LIN":"12鄰","STREET":"南園街","SECT":" ","MAREA":" ","LANE":"１０１巷","ALLEY":"３４弄","HOUSE_NO":"２５號","E_COORD97":170844.95999999999,"N_COORD97":2545527.3300000001,"ADDRESS":"南園街１０１巷３４弄２５號","OBJECTID":84514},"geometry":{"x":170844.96000000089,"y":2545527.3300000038}},{"attributes":{"ID":84515,"DIS_CODE":0,"TOWNNAME":"北區","LI":"華興里","LIN":"12鄰","STREET":"南園街","SECT":" ","MAREA":" ","LANE":"１０１巷","ALLEY":"３４弄","HOUSE_NO":"２７號","E_COORD97":170856.97,"N_COORD97":2545514.6200000001,"ADDRESS":"南園街１０１巷３４弄２７號","OBJECTID":84515},"geometry":{"x":170856.96999999974,"y":2545514.620000001}},{"attributes":{"ID":84516,"DIS_CODE":0,"TOWNNAME":"北區","LI":"華興里","LIN":"12鄰","STREET":"南園街","SECT":" ","MAREA":" ","LANE":"１０１巷","ALLEY":"３４弄","HOUSE_NO":"２９號","E_COORD97":170854.62,"N_COORD97":2545510.8900000001,"ADDRESS":"南園街１０１巷３４弄２９號","OBJECTID":84516},"geometry":{"x":170854.62000000011,"y":2545510.8900000025}},{"attributes":{"ID":84517,"DIS_CODE":0,"TOWNNAME":"北區","LI":"華興里","LIN":"12鄰","STREET":"南園街","SECT":" ","MAREA":" ","LANE":"１０１巷","ALLEY":"３４弄","HOUSE_NO":"３１號","E_COORD97":170852.09,"N_COORD97":2545507.5099999998,"ADDRESS":"南園街１０１巷３４弄３１號","OBJECTID":84517},"geometry":{"x":170852.09000000078,"y":2545507.5099999998}},{"attributes":{"ID":84518,"DIS_CODE":0,"TOWNNAME":"北區","LI":"華興里","LIN":"12鄰","STREET":"南園街","SECT":" ","MAREA":" ","LANE":"１０１巷","ALLEY":"３４弄","HOUSE_NO":"３３號","E_COORD97":170849.26000000001,"N_COORD97":2545504.6200000001,"ADDRESS":"南園街１０１巷３４弄３３號","OBJECTID":84518},"geometry":{"x":170849.26000000071,"y":2545504.620000001}},{"attributes":{"ID":84519,"DIS_CODE":0,"TOWNNAME":"北區","LI":"華興里","LIN":"12鄰","STREET":"南園街","SECT":" ","MAREA":" ","LANE":"１０１巷","ALLEY":"３４弄","HOUSE_NO":"３５號","E_COORD97":170845.64000000001,"N_COORD97":2545501.98,"ADDRESS":"南園街１０１巷３４弄３５號","OBJECTID":84519},"geometry":{"x":170845.63999999966,"y":2545501.9800000004}},{"attributes":{"ID":84520,"DIS_CODE":0,"TOWNNAME":"北區","LI":"華興里","LIN":"12鄰","STREET":"南園街","SECT":" ","MAREA":" ","LANE":"１０１巷","ALLEY":"３４弄","HOUSE_NO":"３７號","E_COORD97":170842.87,"N_COORD97":2545499.3300000001,"ADDRESS":"南園街１０１巷３４弄３７號","OBJECTID":84520},"geometry":{"x":170842.87000000011,"y":2545499.3300000001}},{"attributes":{"ID":84521,"DIS_CODE":0,"TOWNNAME":"北區","LI":"華興里","LIN":"12鄰","STREET":"南園街","SECT":" ","MAREA":" ","LANE":"１０１巷","ALLEY":"３４弄","HOUSE_NO":"３９號","E_COORD97":170839.73000000001,"N_COORD97":2545496.6099999999,"ADDRESS":"南園街１０１巷３４弄３９號","OBJECTID":84521},"geometry":{"x":170839.73000000231,"y":2545496.6099999994}},{"attributes":{"ID":84522,"DIS_CODE":0,"TOWNNAME":"北區","LI":"華興里","LIN":"12鄰","STREET":"南園街","SECT":" ","MAREA":" ","LANE":"１０１巷","ALLEY":"３４弄","HOUSE_NO":"３號","E_COORD97":170798.88,"N_COORD97":2545487.6699999999,"ADDRESS":"南園街１０１巷３４弄３號","OBJECTID":84522},"geometry":{"x":170798.87999999989,"y":2545487.6700000037}},{"attributes":{"ID":84523,"DIS_CODE":0,"TOWNNAME":"北區","LI":"華興里","LIN":"12鄰","STREET":"南園街","SECT":" ","MAREA":" ","LANE":"１０１巷","ALLEY":"３４弄","HOUSE_NO":"４１號","E_COORD97":170834.89999999999,"N_COORD97":2545491.6499999999,"ADDRESS":"南園街１０１巷３４弄４１號","OBJECTID":84523},"geometry":{"x":170834.90000000037,"y":2545491.6500000041}},{"attributes":{"ID":84524,"DIS_CODE":0,"TOWNNAME":"北區","LI":"華興里","LIN":"12鄰","STREET":"南園街","SECT":" ","MAREA":" ","LANE":"１０１巷","ALLEY":"３４弄","HOUSE_NO":"４３號","E_COORD97":170830.14000000001,"N_COORD97":2545487.3199999998,"ADDRESS":"南園街１０１巷３４弄４３號","OBJECTID":84524},"geometry":{"x":170830.1400000006,"y":2545487.3200000022}},{"attributes":{"ID":84525,"DIS_CODE":0,"TOWNNAME":"北區","LI":"華興里","LIN":"12鄰","STREET":"南園街","SECT":" ","MAREA":" ","LANE":"１０１巷","ALLEY":"３４弄","HOUSE_NO":"４５號","E_COORD97":170824.88,"N_COORD97":2545480.4300000002,"ADDRESS":"南園街１０１巷３４弄４５號","OBJECTID":84525},"geometry":{"x":170824.88000000082,"y":2545480.4300000016}},{"attributes":{"ID":84526,"DIS_CODE":0,"TOWNNAME":"北區","LI":"華興里","LIN":"12鄰","STREET":"南園街","SECT":" ","MAREA":" ","LANE":"１０１巷","ALLEY":"３４弄","HOUSE_NO":"４７號","E_COORD97":170819.26999999999,"N_COORD97":2545475.54,"ADDRESS":"南園街１０１巷３４弄４７號","OBJECTID":84526},"geometry":{"x":170819.26999999955,"y":2545475.540000001}},{"attributes":{"ID":84527,"DIS_CODE":0,"TOWNNAME":"北區","LI":"華興里","LIN":"12鄰","STREET":"南園街","SECT":" ","MAREA":" ","LANE":"１０１巷","ALLEY":"３４弄","HOUSE_NO":"５１號","E_COORD97":170807.81,"N_COORD97":2545465.77,"ADDRESS":"南園街１０１巷３４弄５１號","OBJECTID":84527},"geometry":{"x":170807.81000000145,"y":2545465.7699999996}},{"attributes":{"ID":84528,"DIS_CODE":0,"TOWNNAME":"北區","LI":"華興里","LIN":"12鄰","STREET":"南園街","SECT":" ","MAREA":" ","LANE":"１０１巷","ALLEY":"３４弄","HOUSE_NO":"５號","E_COORD97":170803.45999999999,"N_COORD97":2545493.52,"ADDRESS":"南園街１０１巷３４弄５號","OBJECTID":84528},"geometry":{"x":170803.45999999996,"y":2545493.5199999996}},{"attributes":{"ID":84529,"DIS_CODE":0,"TOWNNAME":"北區","LI":"華興里","LIN":"12鄰","STREET":"南園街","SECT":" ","MAREA":" ","LANE":"１０１巷","ALLEY":"３４弄","HOUSE_NO":"７號","E_COORD97":170809.01000000001,"N_COORD97":2545498.6600000001,"ADDRESS":"南園街１０１巷３４弄７號","OBJECTID":84529},"geometry":{"x":170809.01000000071,"y":2545498.660000002}},{"attributes":{"ID":84530,"DIS_CODE":0,"TOWNNAME":"北區","LI":"華興里","LIN":"12鄰","STREET":"南園街","SECT":" ","MAREA":" ","LANE":"１０１巷","ALLEY":"３４弄","HOUSE_NO":"９號","E_COORD97":170815.10999999999,"N_COORD97":2545503.96,"ADDRESS":"南園街１０１巷３４弄９號","OBJECTID":84530},"geometry":{"x":170815.1100000022,"y":2545503.9600000028}},{"attributes":{"ID":84531,"DIS_CODE":0,"TOWNNAME":"六甲區","LI":"甲東里","LIN":"12鄰","STREET":"裕農街","SECT":" ","MAREA":" ","LANE":"２９６巷","ALLEY":"３０弄","HOUSE_NO":"１０號","E_COORD97":184203.19,"N_COORD97":2570083.3700000001,"ADDRESS":"裕農街２９６巷３０弄１０號","OBJECTID":84531},"geometry":{"x":184203.19000000227,"y":2570083.370000001}},{"attributes":{"ID":84532,"DIS_CODE":0,"TOWNNAME":"六甲區","LI":"甲東里","LIN":"12鄰","STREET":"裕農街","SECT":" ","MAREA":" ","LANE":"２９６巷","ALLEY":"３０弄","HOUSE_NO":"１２號","E_COORD97":184207.38,"N_COORD97":2570083.54,"ADDRESS":"裕農街２９６巷３０弄１２號","OBJECTID":84532},"geometry":{"x":184207.37999999989,"y":2570083.5399999991}},{"attributes":{"ID":84533,"DIS_CODE":0,"TOWNNAME":"北區","LI":"華興里","LIN":"8鄰","STREET":"南園街","SECT":" ","MAREA":" ","LANE":" ","ALLEY":" ","HOUSE_NO":"１２８號","E_COORD97":170617.23000000001,"N_COORD97":2545305.8799999999,"ADDRESS":"南園街１２８號","OBJECTID":84533},"geometry":{"x":170617.23000000045,"y":2545305.8800000008}},{"attributes":{"ID":84534,"DIS_CODE":0,"TOWNNAME":"六甲區","LI":"甲東里","LIN":"12鄰","STREET":"裕農街","SECT":" ","MAREA":" ","LANE":"２９６巷","ALLEY":"３０弄","HOUSE_NO":"１６號","E_COORD97":184211.92999999999,"N_COORD97":2570083.5600000001,"ADDRESS":"裕農街２９６巷３０弄１６號","OBJECTID":84534},"geometry":{"x":184211.9299999997,"y":2570083.5600000024}},{"attributes":{"ID":84535,"DIS_CODE":0,"TOWNNAME":"六甲區","LI":"甲東里","LIN":"12鄰","STREET":"裕農街","SECT":" ","MAREA":" ","LANE":"２９６巷","ALLEY":"３０弄","HOUSE_NO":"２號","E_COORD97":184143.56,"N_COORD97":2570084.8599999999,"ADDRESS":"裕農街２９６巷３０弄２號","OBJECTID":84535},"geometry":{"x":184143.55999999959,"y":2570084.8599999994}},{"attributes":{"ID":84536,"DIS_CODE":0,"TOWNNAME":"六甲區","LI":"甲東里","LIN":"12鄰","STREET":"裕農街","SECT":" ","MAREA":" ","LANE":"２９６巷","ALLEY":"３０弄","HOUSE_NO":"６號","E_COORD97":184147.84,"N_COORD97":2570085.04,"ADDRESS":"裕農街２９６巷３０弄６號","OBJECTID":84536},"geometry":{"x":184147.84000000078,"y":2570085.0400000028}},{"attributes":{"ID":84537,"DIS_CODE":0,"TOWNNAME":"六甲區","LI":"甲東里","LIN":"12鄰","STREET":"裕農街","SECT":" ","MAREA":" ","LANE":"２９６巷","ALLEY":"３０弄","HOUSE_NO":"８號","E_COORD97":184198.78,"N_COORD97":2570083.3700000001,"ADDRESS":"裕農街２９６巷３０弄８號","OBJECTID":84537},"geometry":{"x":184198.78000000026,"y":2570083.370000001}},{"attributes":{"ID":84538,"DIS_CODE":0,"TOWNNAME":"關廟區","LI":"北花里","LIN":"12鄰","STREET":"中正路","SECT":" ","MAREA":" ","LANE":"８１３巷","ALLEY":"３弄","HOUSE_NO":"１１號","E_COORD97":181706.60999999999,"N_COORD97":2540270.25,"ADDRESS":"中正路８１３巷３弄１１號","OBJECTID":84538},"geometry":{"x":181706.6100000022,"y":2540270.2500000019}},{"attributes":{"ID":84539,"DIS_CODE":0,"TOWNNAME":"關廟區","LI":"深坑里","LIN":"12鄰","STREET":"南雄路","SECT":"一段","MAREA":" ","LANE":"４９５巷","ALLEY":"６弄","HOUSE_NO":"１９號","E_COORD97":181625.01999999999,"N_COORD97":2537860.2999999998,"ADDRESS":"南雄路一段４９５巷６弄１９號","OBJECTID":84539},"geometry":{"x":181625.02000000142,"y":2537860.3000000026}},{"attributes":{"ID":84540,"DIS_CODE":0,"TOWNNAME":"關廟區","LI":"深坑里","LIN":"12鄰","STREET":"南雄路","SECT":"一段","MAREA":" ","LANE":"４９５巷","ALLEY":"６弄","HOUSE_NO":"１號","E_COORD97":181644.51999999999,"N_COORD97":2537830.2999999998,"ADDRESS":"南雄路一段４９５巷６弄１號","OBJECTID":84540},"geometry":{"x":181644.52000000048,"y":2537830.3000000026}},{"attributes":{"ID":84541,"DIS_CODE":0,"TOWNNAME":"東山區","LI":"南勢里","LIN":"19鄰","STREET":" ","SECT":" ","MAREA":"大洋","LANE":" ","ALLEY":" ","HOUSE_NO":"３５號之７","E_COORD97":197614.06,"N_COORD97":2573362.3300000001,"ADDRESS":"大洋３５號之７","OBJECTID":84541},"geometry":{"x":197614.06000000052,"y":2573362.3300000038}},{"attributes":{"ID":84542,"DIS_CODE":0,"TOWNNAME":"東山區","LI":"南勢里","LIN":"19鄰","STREET":" ","SECT":" ","MAREA":"大洋","LANE":" ","ALLEY":" ","HOUSE_NO":"３５號之８","E_COORD97":197595.57000000001,"N_COORD97":2573335.9300000002,"ADDRESS":"大洋３５號之８","OBJECTID":84542},"geometry":{"x":197595.5700000003,"y":2573335.9299999997}},{"attributes":{"ID":84543,"DIS_CODE":0,"TOWNNAME":"關廟區","LI":"東勢里","LIN":"12鄰","STREET":"旺萊路","SECT":" ","MAREA":" ","LANE":"３５６巷","ALLEY":"２１弄","HOUSE_NO":"２號","E_COORD97":182097.43642000001,"N_COORD97":2539458.4056099998,"ADDRESS":"旺萊路３５６巷２１弄２號","OBJECTID":84543},"geometry":{"x":182097.43642000109,"y":2539458.4056060035}},{"attributes":{"ID":84544,"DIS_CODE":0,"TOWNNAME":"關廟區","LI":"北花里","LIN":"12鄰","STREET":"園中街","SECT":" ","MAREA":" ","LANE":"５巷","ALLEY":"３０弄","HOUSE_NO":"１１號","E_COORD97":181721.60999999999,"N_COORD97":2540256.25,"ADDRESS":"園中街５巷３０弄１１號","OBJECTID":84544},"geometry":{"x":181721.61000000034,"y":2540256.2500000019}},{"attributes":{"ID":84545,"DIS_CODE":0,"TOWNNAME":"關廟區","LI":"北花里","LIN":"12鄰","STREET":"園中街","SECT":" ","MAREA":" ","LANE":"５巷","ALLEY":"３０弄","HOUSE_NO":"１號","E_COORD97":181702.66,"N_COORD97":2540232.25,"ADDRESS":"園中街５巷３０弄１號","OBJECTID":84545},"geometry":{"x":181702.66000000201,"y":2540232.2500000037}},{"attributes":{"ID":84546,"DIS_CODE":0,"TOWNNAME":"關廟區","LI":"深坑里","LIN":"12鄰","STREET":"南雄路","SECT":"一段","MAREA":" ","LANE":"４９５巷","ALLEY":"６弄","HOUSE_NO":"１３號","E_COORD97":181631.92000000001,"N_COORD97":2537851.2999999998,"ADDRESS":"南雄路一段４９５巷６弄１３號","OBJECTID":84546},"geometry":{"x":181631.92000000086,"y":2537851.3000000007}},{"attributes":{"ID":84547,"DIS_CODE":0,"TOWNNAME":"關廟區","LI":"東勢里","LIN":"12鄰","STREET":"旺萊路","SECT":" ","MAREA":" ","LANE":"３６２巷","ALLEY":"７弄","HOUSE_NO":"１５號","E_COORD97":182166.98999999999,"N_COORD97":2539481.25,"ADDRESS":"旺萊路３６２巷７弄１５號","OBJECTID":84547},"geometry":{"x":182166.99000000115,"y":2539481.25}},{"attributes":{"ID":84548,"DIS_CODE":0,"TOWNNAME":"安平區","LI":"海頭里","LIN":"12鄰","STREET":"安北路","SECT":" ","MAREA":" ","LANE":"１２１巷","ALLEY":"１６弄","HOUSE_NO":"１號","E_COORD97":164196.67000000001,"N_COORD97":2544728.1200000001,"ADDRESS":"安北路１２１巷１６弄１號","OBJECTID":84548},"geometry":{"x":164196.67000000086,"y":2544728.120000001}},{"attributes":{"ID":84549,"DIS_CODE":0,"TOWNNAME":"安平區","LI":"海頭里","LIN":"12鄰","STREET":"安北路","SECT":" ","MAREA":" ","LANE":"１２１巷","ALLEY":"１６弄","HOUSE_NO":"３號","E_COORD97":164189.81,"N_COORD97":2544732.3900000001,"ADDRESS":"安北路１２１巷１６弄３號","OBJECTID":84549},"geometry":{"x":164189.81000000145,"y":2544732.3900000025}},{"attributes":{"ID":84550,"DIS_CODE":0,"TOWNNAME":"東山區","LI":"南勢里","LIN":"19鄰","STREET":" ","SECT":" ","MAREA":"大洋","LANE":" ","ALLEY":" ","HOUSE_NO":"３５號之９","E_COORD97":197601.51999999999,"N_COORD97":2573337.5,"ADDRESS":"大洋３５號之９","OBJECTID":84550},"geometry":{"x":197601.51999999955,"y":2573337.5000000037}},{"attributes":{"ID":84551,"DIS_CODE":0,"TOWNNAME":"新營區","LI":"太北里","LIN":"19鄰","STREET":" ","SECT":" ","MAREA":"太子宮","LANE":" ","ALLEY":" ","HOUSE_NO":"４４之２６號","E_COORD97":175678.82000000001,"N_COORD97":2577310.29,"ADDRESS":"太子宮４４之２６號","OBJECTID":84551},"geometry":{"x":175678.82000000216,"y":2577310.2899999991}},{"attributes":{"ID":84552,"DIS_CODE":0,"TOWNNAME":"新營區","LI":"太南里","LIN":"19鄰","STREET":" ","SECT":" ","MAREA":"太子宮","LANE":" ","ALLEY":" ","HOUSE_NO":"３１５之５號","E_COORD97":176021.04000000001,"N_COORD97":2576599.7999999998,"ADDRESS":"太子宮３１５之５號","OBJECTID":84552},"geometry":{"x":176021.03999999911,"y":2576599.8000000007}},{"attributes":{"ID":84553,"DIS_CODE":0,"TOWNNAME":"新營區","LI":"太北里","LIN":"19鄰","STREET":" ","SECT":" ","MAREA":"太子宮","LANE":" ","ALLEY":" ","HOUSE_NO":"４４號之２７","E_COORD97":175678.57999999999,"N_COORD97":2577319.1499999999,"ADDRESS":"太子宮４４號之２７","OBJECTID":84553},"geometry":{"x":175678.58000000194,"y":2577319.1500000004}},{"attributes":{"ID":84554,"DIS_CODE":0,"TOWNNAME":"新營區","LI":"太北里","LIN":"19鄰","STREET":" ","SECT":" ","MAREA":"太子宮","LANE":" ","ALLEY":" ","HOUSE_NO":"４３號之６","E_COORD97":175749.38,"N_COORD97":2577198.0800000001,"ADDRESS":"太子宮４３號之６","OBJECTID":84554},"geometry":{"x":175749.38000000082,"y":2577198.0800000001}},{"attributes":{"ID":84555,"DIS_CODE":0,"TOWNNAME":"新營區","LI":"太北里","LIN":"19鄰","STREET":" ","SECT":" ","MAREA":"太子宮","LANE":" ","ALLEY":" ","HOUSE_NO":"４４號之２２","E_COORD97":175679.70999999999,"N_COORD97":2577329.1099999999,"ADDRESS":"太子宮４４號之２２","OBJECTID":84555},"geometry":{"x":175679.71000000089,"y":2577329.1099999994}},{"attributes":{"ID":84556,"DIS_CODE":0,"TOWNNAME":"新營區","LI":"太北里","LIN":"19鄰","STREET":" ","SECT":" ","MAREA":"太子宮","LANE":" ","ALLEY":" ","HOUSE_NO":"４４號之４２","E_COORD97":175661.95000000001,"N_COORD97":2577663.6499999999,"ADDRESS":"太子宮４４號之４２","OBJECTID":84556},"geometry":{"x":175661.95000000019,"y":2577663.6500000022}},{"attributes":{"ID":84557,"DIS_CODE":0,"TOWNNAME":"新營區","LI":"太北里","LIN":"19鄰","STREET":" ","SECT":" ","MAREA":"太子宮","LANE":" ","ALLEY":" ","HOUSE_NO":"４３號之７","E_COORD97":175753.44,"N_COORD97":2577198.0600000001,"ADDRESS":"太子宮４３號之７","OBJECTID":84557},"geometry":{"x":175753.44000000134,"y":2577198.0600000005}},{"attributes":{"ID":84558,"DIS_CODE":0,"TOWNNAME":"新營區","LI":"太北里","LIN":"19鄰","STREET":" ","SECT":" ","MAREA":"太子宮","LANE":" ","ALLEY":" ","HOUSE_NO":"４３號之１","E_COORD97":175766.72,"N_COORD97":2577210.1699999999,"ADDRESS":"太子宮４３號之１","OBJECTID":84558},"geometry":{"x":175766.71999999974,"y":2577210.1699999999}},{"attributes":{"ID":84559,"DIS_CODE":0,"TOWNNAME":"新營區","LI":"太南里","LIN":"19鄰","STREET":" ","SECT":" ","MAREA":"太子宮","LANE":" ","ALLEY":" ","HOUSE_NO":"３１６之１號","E_COORD97":176021.76000000001,"N_COORD97":2576128.02,"ADDRESS":"太子宮３１６之１號","OBJECTID":84559},"geometry":{"x":176021.76000000071,"y":2576128.0200000014}},{"attributes":{"ID":84560,"DIS_CODE":0,"TOWNNAME":"新營區","LI":"太北里","LIN":"19鄰","STREET":" ","SECT":" ","MAREA":"太子宮","LANE":" ","ALLEY":" ","HOUSE_NO":"４４號之２０","E_COORD97":175676.31,"N_COORD97":2577278.1899999999,"ADDRESS":"太子宮４４號之２０","OBJECTID":84560},"geometry":{"x":175676.30999999866,"y":2577278.1899999995}},{"attributes":{"ID":84561,"DIS_CODE":0,"TOWNNAME":"新營區","LI":"太南里","LIN":"19鄰","STREET":" ","SECT":" ","MAREA":"太子宮","LANE":" ","ALLEY":" ","HOUSE_NO":"３１６號","E_COORD97":175936.98999999999,"N_COORD97":2576247.9900000002,"ADDRESS":"太子宮３１６號","OBJECTID":84561},"geometry":{"x":175936.99000000209,"y":2576247.9900000021}},{"attributes":{"ID":84562,"DIS_CODE":0,"TOWNNAME":"新營區","LI":"太北里","LIN":"19鄰","STREET":" ","SECT":" ","MAREA":"太子宮","LANE":" ","ALLEY":" ","HOUSE_NO":"４４號之３１","E_COORD97":175674.92999999999,"N_COORD97":2577424.3799999999,"ADDRESS":"太子宮４４號之３１","OBJECTID":84562},"geometry":{"x":175674.9299999997,"y":2577424.379999999}},{"attributes":{"ID":84563,"DIS_CODE":0,"TOWNNAME":"新營區","LI":"太北里","LIN":"19鄰","STREET":" ","SECT":" ","MAREA":"太子宮","LANE":" ","ALLEY":" ","HOUSE_NO":"４３號之１１","E_COORD97":175770.98999999999,"N_COORD97":2577200.1899999999,"ADDRESS":"太子宮４３號之１１","OBJECTID":84563},"geometry":{"x":175770.99000000115,"y":2577200.1899999995}},{"attributes":{"ID":84564,"DIS_CODE":0,"TOWNNAME":"新營區","LI":"太南里","LIN":"19鄰","STREET":" ","SECT":" ","MAREA":"太子宮","LANE":" ","ALLEY":" ","HOUSE_NO":"３１６之５號","E_COORD97":175948.67999999999,"N_COORD97":2576449.5600000001,"ADDRESS":"太子宮３１６之５號","OBJECTID":84564},"geometry":{"x":175948.68000000156,"y":2576449.5600000005}},{"attributes":{"ID":84565,"DIS_CODE":0,"TOWNNAME":"新營區","LI":"太北里","LIN":"19鄰","STREET":" ","SECT":" ","MAREA":"太子宮","LANE":" ","ALLEY":" ","HOUSE_NO":"４３號之５","E_COORD97":175751.53,"N_COORD97":2577208.0299999998,"ADDRESS":"太子宮４３號之５","OBJECTID":84565},"geometry":{"x":175751.53000000026,"y":2577208.0299999993}},{"attributes":{"ID":84566,"DIS_CODE":0,"TOWNNAME":"新市區","LI":"社內里","LIN":"1鄰","STREET":" ","SECT":" ","MAREA":"社內","LANE":" ","ALLEY":" ","HOUSE_NO":"２號","E_COORD97":177060.06,"N_COORD97":2553019.5,"ADDRESS":"社內２號","OBJECTID":84566},"geometry":{"x":177060.06000000052,"y":2553019.5000000019}},{"attributes":{"ID":84567,"DIS_CODE":0,"TOWNNAME":"新營區","LI":"太南里","LIN":"19鄰","STREET":" ","SECT":" ","MAREA":"太子宮","LANE":" ","ALLEY":" ","HOUSE_NO":"３１３之３號","E_COORD97":175919.31,"N_COORD97":2576713.27,"ADDRESS":"太子宮３１３之３號","OBJECTID":84567},"geometry":{"x":175919.31000000052,"y":2576713.2700000014}},{"attributes":{"ID":84568,"DIS_CODE":0,"TOWNNAME":"東山區","LI":"科里里","LIN":"19鄰","STREET":" ","SECT":" ","MAREA":"枋子林","LANE":" ","ALLEY":" ","HOUSE_NO":"３７號之２","E_COORD97":188369.19,"N_COORD97":2576859.6099999999,"ADDRESS":"枋子林３７號之２","OBJECTID":84568},"geometry":{"x":188369.19000000041,"y":2576859.6100000013}},{"attributes":{"ID":84569,"DIS_CODE":0,"TOWNNAME":"東山區","LI":"科里里","LIN":"19鄰","STREET":" ","SECT":" ","MAREA":"枋子林","LANE":" ","ALLEY":" ","HOUSE_NO":"３７號","E_COORD97":188345.45000000001,"N_COORD97":2576882.4900000002,"ADDRESS":"枋子林３７號","OBJECTID":84569},"geometry":{"x":188345.45000000019,"y":2576882.4900000002}},{"attributes":{"ID":84570,"DIS_CODE":0,"TOWNNAME":"東山區","LI":"科里里","LIN":"19鄰","STREET":" ","SECT":" ","MAREA":"枋子林","LANE":" ","ALLEY":" ","HOUSE_NO":"３８號之１","E_COORD97":188341.64000000001,"N_COORD97":2576856.8599999999,"ADDRESS":"枋子林３８號之１","OBJECTID":84570},"geometry":{"x":188341.63999999966,"y":2576856.8600000031}},{"attributes":{"ID":84571,"DIS_CODE":0,"TOWNNAME":"東山區","LI":"科里里","LIN":"19鄰","STREET":" ","SECT":" ","MAREA":"枋子林","LANE":" ","ALLEY":" ","HOUSE_NO":"３８號之２","E_COORD97":188347.54000000001,"N_COORD97":2576854.2000000002,"ADDRESS":"枋子林３８號之２","OBJECTID":84571},"geometry":{"x":188347.54000000097,"y":2576854.1999999993}},{"attributes":{"ID":84572,"DIS_CODE":0,"TOWNNAME":"東山區","LI":"科里里","LIN":"19鄰","STREET":" ","SECT":" ","MAREA":"枋子林","LANE":" ","ALLEY":" ","HOUSE_NO":"３８號","E_COORD97":188334.12,"N_COORD97":2576865.3100000001,"ADDRESS":"枋子林３８號","OBJECTID":84572},"geometry":{"x":188334.12000000011,"y":2576865.3100000042}},{"attributes":{"ID":84573,"DIS_CODE":0,"TOWNNAME":"東山區","LI":"科里里","LIN":"19鄰","STREET":" ","SECT":" ","MAREA":"枋子林","LANE":" ","ALLEY":" ","HOUSE_NO":"３９號之１","E_COORD97":188377.10000000001,"N_COORD97":2576802.8700000001,"ADDRESS":"枋子林３９號之１","OBJECTID":84573},"geometry":{"x":188377.10000000056,"y":2576802.870000001}},{"attributes":{"ID":84574,"DIS_CODE":0,"TOWNNAME":"東山區","LI":"科里里","LIN":"19鄰","STREET":" ","SECT":" ","MAREA":"枋子林","LANE":" ","ALLEY":" ","HOUSE_NO":"３９號之２","E_COORD97":188393.17999999999,"N_COORD97":2576824.4700000002,"ADDRESS":"枋子林３９號之２","OBJECTID":84574},"geometry":{"x":188393.18000000063,"y":2576824.4700000025}},{"attributes":{"ID":84575,"DIS_CODE":0,"TOWNNAME":"東山區","LI":"科里里","LIN":"19鄰","STREET":" ","SECT":" ","MAREA":"枋子林","LANE":" ","ALLEY":" ","HOUSE_NO":"３９號之３","E_COORD97":188374.48000000001,"N_COORD97":2576789.9700000002,"ADDRESS":"枋子林３９號之３","OBJECTID":84575},"geometry":{"x":188374.48000000045,"y":2576789.9700000044}},{"attributes":{"ID":84576,"DIS_CODE":0,"TOWNNAME":"東山區","LI":"科里里","LIN":"19鄰","STREET":" ","SECT":" ","MAREA":"枋子林","LANE":" ","ALLEY":" ","HOUSE_NO":"４０號之１","E_COORD97":188304.07999999999,"N_COORD97":2576828.8300000001,"ADDRESS":"枋子林４０號之１","OBJECTID":84576},"geometry":{"x":188304.08000000007,"y":2576828.8300000019}},{"attributes":{"ID":84577,"DIS_CODE":0,"TOWNNAME":"東山區","LI":"東山里","LIN":"19鄰","STREET":" ","SECT":" ","MAREA":"東山","LANE":" ","ALLEY":" ","HOUSE_NO":"２７８號之２１","E_COORD97":188839.5,"N_COORD97":2580707.5600000001,"ADDRESS":"東山２７８號之２１","OBJECTID":84577},"geometry":{"x":188839.50000000093,"y":2580707.5600000005}},{"attributes":{"ID":84578,"DIS_CODE":0,"TOWNNAME":"東山區","LI":"東山里","LIN":"19鄰","STREET":" ","SECT":" ","MAREA":"東山","LANE":" ","ALLEY":" ","HOUSE_NO":"２７８號之２２","E_COORD97":188839.73000000001,"N_COORD97":2580712.5899999999,"ADDRESS":"東山２７８號之２２","OBJECTID":84578},"geometry":{"x":188839.73000000138,"y":2580712.5899999999}},{"attributes":{"ID":84579,"DIS_CODE":0,"TOWNNAME":"東山區","LI":"東山里","LIN":"19鄰","STREET":" ","SECT":" ","MAREA":"東山","LANE":" ","ALLEY":" ","HOUSE_NO":"２７８號之２３","E_COORD97":188860.94,"N_COORD97":2580692.96,"ADDRESS":"東山２７８號之２３","OBJECTID":84579},"geometry":{"x":188860.94000000041,"y":2580692.9600000028}},{"attributes":{"ID":84580,"DIS_CODE":0,"TOWNNAME":"東山區","LI":"東山里","LIN":"19鄰","STREET":" ","SECT":" ","MAREA":"東山","LANE":" ","ALLEY":" ","HOUSE_NO":"２７８號之２４","E_COORD97":188860.88,"N_COORD97":2580698.27,"ADDRESS":"東山２７８號之２４","OBJECTID":84580},"geometry":{"x":188860.87999999989,"y":2580698.2699999996}},{"attributes":{"ID":84581,"DIS_CODE":0,"TOWNNAME":"東山區","LI":"東山里","LIN":"19鄰","STREET":" ","SECT":" ","MAREA":"東山","LANE":" ","ALLEY":" ","HOUSE_NO":"２７８號之２５","E_COORD97":188860.85999999999,"N_COORD97":2580704.1699999999,"ADDRESS":"東山２７８號之２５","OBJECTID":84581},"geometry":{"x":188860.86000000127,"y":2580704.1700000018}},{"attributes":{"ID":84582,"DIS_CODE":0,"TOWNNAME":"東山區","LI":"東山里","LIN":"19鄰","STREET":" ","SECT":" ","MAREA":"東山","LANE":" ","ALLEY":" ","HOUSE_NO":"２７８號之２６","E_COORD97":188860.88,"N_COORD97":2580711.0699999998,"ADDRESS":"東山２７８號之２６","OBJECTID":84582},"geometry":{"x":188860.87999999989,"y":2580711.0700000003}},{"attributes":{"ID":84583,"DIS_CODE":0,"TOWNNAME":"東山區","LI":"東山里","LIN":"19鄰","STREET":" ","SECT":" ","MAREA":"東山","LANE":" ","ALLEY":" ","HOUSE_NO":"２７８號之６","E_COORD97":188839.51000000001,"N_COORD97":2580799.3599999999,"ADDRESS":"東山２７８號之６","OBJECTID":84583},"geometry":{"x":188839.50999999978,"y":2580799.3599999994}},{"attributes":{"ID":84584,"DIS_CODE":0,"TOWNNAME":"東山區","LI":"東山里","LIN":"19鄰","STREET":" ","SECT":" ","MAREA":"東山","LANE":" ","ALLEY":" ","HOUSE_NO":"２７８號之７","E_COORD97":188839.34,"N_COORD97":2580804.0699999998,"ADDRESS":"東山２７８號之７","OBJECTID":84584},"geometry":{"x":188839.33999999985,"y":2580804.0700000022}},{"attributes":{"ID":84585,"DIS_CODE":0,"TOWNNAME":"東山區","LI":"東山里","LIN":"19鄰","STREET":" ","SECT":" ","MAREA":"東山","LANE":" ","ALLEY":" ","HOUSE_NO":"２７８號之８","E_COORD97":188839.17000000001,"N_COORD97":2580808.7799999998,"ADDRESS":"東山２７８號之８","OBJECTID":84585},"geometry":{"x":188839.17000000179,"y":2580808.7800000012}},{"attributes":{"ID":84586,"DIS_CODE":0,"TOWNNAME":"東山區","LI":"東山里","LIN":"19鄰","STREET":" ","SECT":" ","MAREA":"東山","LANE":" ","ALLEY":" ","HOUSE_NO":"２７８號之９","E_COORD97":188840.17000000001,"N_COORD97":2580817.3599999999,"ADDRESS":"東山２７８號之９","OBJECTID":84586},"geometry":{"x":188840.16999999993,"y":2580817.3600000013}},{"attributes":{"ID":84587,"DIS_CODE":0,"TOWNNAME":"東山區","LI":"東山里","LIN":"19鄰","STREET":" ","SECT":" ","MAREA":"東山","LANE":" ","ALLEY":" ","HOUSE_NO":"２７８號","E_COORD97":188882.17000000001,"N_COORD97":2580716.98,"ADDRESS":"東山２７８號","OBJECTID":84587},"geometry":{"x":188882.17000000086,"y":2580716.9800000023}},{"attributes":{"ID":84588,"DIS_CODE":0,"TOWNNAME":"東山區","LI":"東山里","LIN":"19鄰","STREET":" ","SECT":" ","MAREA":"東山","LANE":" ","ALLEY":" ","HOUSE_NO":"２７９號","E_COORD97":188954.26999999999,"N_COORD97":2580648.5899999999,"ADDRESS":"東山２７９號","OBJECTID":84588},"geometry":{"x":188954.26999999955,"y":2580648.5899999999}},{"attributes":{"ID":84589,"DIS_CODE":0,"TOWNNAME":"東山區","LI":"東山里","LIN":"19鄰","STREET":" ","SECT":" ","MAREA":"東山","LANE":" ","ALLEY":" ","HOUSE_NO":"２８１號","E_COORD97":188946.67999999999,"N_COORD97":2580631.96,"ADDRESS":"東山２８１號","OBJECTID":84589},"geometry":{"x":188946.6799999997,"y":2580631.9600000028}},{"attributes":{"ID":84590,"DIS_CODE":0,"TOWNNAME":"東山區","LI":"東山里","LIN":"19鄰","STREET":" ","SECT":" ","MAREA":"東山","LANE":" ","ALLEY":" ","HOUSE_NO":"２８２號之１","E_COORD97":188907.75,"N_COORD97":2580656.0600000001,"ADDRESS":"東山２８２號之１","OBJECTID":84590},"geometry":{"x":188907.75,"y":2580656.0600000005}},{"attributes":{"ID":84591,"DIS_CODE":0,"TOWNNAME":"東山區","LI":"東山里","LIN":"19鄰","STREET":" ","SECT":" ","MAREA":"東山","LANE":" ","ALLEY":" ","HOUSE_NO":"２８２號","E_COORD97":188920.54000000001,"N_COORD97":2580673.1200000001,"ADDRESS":"東山２８２號","OBJECTID":84591},"geometry":{"x":188920.54000000097,"y":2580673.120000001}},{"attributes":{"ID":84592,"DIS_CODE":0,"TOWNNAME":"東山區","LI":"東山里","LIN":"19鄰","STREET":" ","SECT":" ","MAREA":"東山","LANE":" ","ALLEY":" ","HOUSE_NO":"２８３號之１","E_COORD97":188970.98000000001,"N_COORD97":2580601.96,"ADDRESS":"東山２８３號之１","OBJECTID":84592},"geometry":{"x":188970.98000000045,"y":2580601.9600000028}},{"attributes":{"ID":84593,"DIS_CODE":0,"TOWNNAME":"東山區","LI":"東山里","LIN":"19鄰","STREET":" ","SECT":" ","MAREA":"東山","LANE":" ","ALLEY":" ","HOUSE_NO":"２８３號之２","E_COORD97":188930.16,"N_COORD97":2580623,"ADDRESS":"東山２８３號之２","OBJECTID":84593},"geometry":{"x":188930.16000000015,"y":2580623}},{"attributes":{"ID":84594,"DIS_CODE":0,"TOWNNAME":"東山區","LI":"東山里","LIN":"19鄰","STREET":" ","SECT":" ","MAREA":"東山","LANE":" ","ALLEY":" ","HOUSE_NO":"２８３號","E_COORD97":188971.51293500001,"N_COORD97":2580622.4673299999,"ADDRESS":"東山２８３號","OBJECTID":84594},"geometry":{"x":188971.51293499954,"y":2580622.4673299994}},{"attributes":{"ID":84595,"DIS_CODE":0,"TOWNNAME":"東山區","LI":"東山里","LIN":"19鄰","STREET":" ","SECT":" ","MAREA":"東山","LANE":" ","ALLEY":" ","HOUSE_NO":"２８４號","E_COORD97":188914.66,"N_COORD97":2580631.5299999998,"ADDRESS":"東山２８４號","OBJECTID":84595},"geometry":{"x":188914.66000000108,"y":2580631.5299999993}},{"attributes":{"ID":84596,"DIS_CODE":0,"TOWNNAME":"東山區","LI":"東正里","LIN":"19鄰","STREET":" ","SECT":" ","MAREA":"東勢","LANE":" ","ALLEY":" ","HOUSE_NO":"１２９號","E_COORD97":189272.16,"N_COORD97":2580328.9900000002,"ADDRESS":"東勢１２９號","OBJECTID":84596},"geometry":{"x":189272.16000000108,"y":2580328.9900000039}},{"attributes":{"ID":84597,"DIS_CODE":0,"TOWNNAME":"東山區","LI":"東正里","LIN":"19鄰","STREET":" ","SECT":" ","MAREA":"東勢","LANE":" ","ALLEY":" ","HOUSE_NO":"１３０號之２","E_COORD97":189286.98000000001,"N_COORD97":2580320.2000000002,"ADDRESS":"東勢１３０號之２","OBJECTID":84597},"geometry":{"x":189286.98000000138,"y":2580320.2000000011}},{"attributes":{"ID":84598,"DIS_CODE":0,"TOWNNAME":"東山區","LI":"東正里","LIN":"19鄰","STREET":" ","SECT":" ","MAREA":"東勢","LANE":" ","ALLEY":" ","HOUSE_NO":"１３０號之３","E_COORD97":189280.60999999999,"N_COORD97":2580320.4399999999,"ADDRESS":"東勢１３０號之３","OBJECTID":84598},"geometry":{"x":189280.6099999994,"y":2580320.4399999995}},{"attributes":{"ID":84599,"DIS_CODE":0,"TOWNNAME":"東山區","LI":"東正里","LIN":"19鄰","STREET":" ","SECT":" ","MAREA":"東勢","LANE":" ","ALLEY":" ","HOUSE_NO":"１３０號","E_COORD97":189292.04000000001,"N_COORD97":2580320.4399999999,"ADDRESS":"東勢１３０號","OBJECTID":84599},"geometry":{"x":189292.04000000004,"y":2580320.4399999995}},{"attributes":{"ID":84600,"DIS_CODE":0,"TOWNNAME":"東山區","LI":"東正里","LIN":"19鄰","STREET":" ","SECT":" ","MAREA":"東勢","LANE":" ","ALLEY":" ","HOUSE_NO":"１３４號之１","E_COORD97":189284.60000000001,"N_COORD97":2580363.77,"ADDRESS":"東勢１３４號之１","OBJECTID":84600},"geometry":{"x":189284.59999999963,"y":2580363.7700000014}}]}