{"displayFieldName":"TOWNNAME","fieldAliases":{"ID":"ID","DIS_CODE":"DIS_CODE","TOWNNAME":"TOWNNAME","LI":"LI","LIN":"LIN","STREET":"STREET","SECT":"SECT","MAREA":"MAREA","LANE":"LANE","ALLEY":"ALLEY","HOUSE_NO":"HOUSE_NO","E_COORD97":"E_COORD97","N_COORD97":"N_COORD97","ADDRESS":"ADDRESS","OBJECTID":"OBJECTID"},"geometryType":"esriGeometryPoint","spatialReference":{"wkid":102443,"latestWkid":3826},"fields":[{"name":"ID","type":"esriFieldTypeDouble","alias":"ID"},{"name":"DIS_CODE","type":"esriFieldTypeInteger","alias":"DIS_CODE"},{"name":"TOWNNAME","type":"esriFieldTypeString","alias":"TOWNNAME","length":8},{"name":"LI","type":"esriFieldTypeString","alias":"LI","length":8},{"name":"LIN","type":"esriFieldTypeString","alias":"LIN","length":12},{"name":"STREET","type":"esriFieldTypeString","alias":"STREET","length":20},{"name":"SECT","type":"esriFieldTypeString","alias":"SECT","length":8},{"name":"MAREA","type":"esriFieldTypeString","alias":"MAREA","length":12},{"name":"LANE","type":"esriFieldTypeString","alias":"LANE","length":10},{"name":"ALLEY","type":"esriFieldTypeString","alias":"ALLEY","length":10},{"name":"HOUSE_NO","type":"esriFieldTypeString","alias":"HOUSE_NO","length":20},{"name":"E_COORD97","type":"esriFieldTypeDouble","alias":"E_COORD97"},{"name":"N_COORD97","type":"esriFieldTypeDouble","alias":"N_COORD97"},{"name":"ADDRESS","type":"esriFieldTypeString","alias":"ADDRESS","length":50},{"name":"OBJECTID","type":"esriFieldTypeOID","alias":"OBJECTID"}],"features":[{"attributes":{"ID":212402,"DIS_CODE":0,"TOWNNAME":"南區","LI":"南華里","LIN":"17鄰","STREET":"中華南路","SECT":"二段","MAREA":" ","LANE":"３０２巷","ALLEY":"６弄","HOUSE_NO":"５號","E_COORD97":166700.59,"N_COORD97":2540422.3999999999,"ADDRESS":"中華南路二段３０２巷６弄５號","OBJECTID":212401},"geometry":{"x":166700.59000000078,"y":2540422.4000000022}},{"attributes":{"ID":212403,"DIS_CODE":0,"TOWNNAME":"南區","LI":"南華里","LIN":"17鄰","STREET":"中華南路","SECT":"二段","MAREA":" ","LANE":"３０２巷","ALLEY":"６弄","HOUSE_NO":"６號","E_COORD97":166677.76999999999,"N_COORD97":2540395.6600000001,"ADDRESS":"中華南路二段３０２巷６弄６號","OBJECTID":212402},"geometry":{"x":166677.76999999955,"y":2540395.6600000039}},{"attributes":{"ID":212404,"DIS_CODE":0,"TOWNNAME":"南區","LI":"南華里","LIN":"17鄰","STREET":"中華南路","SECT":"二段","MAREA":" ","LANE":"３０２巷","ALLEY":"６弄","HOUSE_NO":"７號","E_COORD97":166709.51000000001,"N_COORD97":2540422.8799999999,"ADDRESS":"中華南路二段３０２巷６弄７號","OBJECTID":212403},"geometry":{"x":166709.51000000071,"y":2540422.879999999}},{"attributes":{"ID":212405,"DIS_CODE":0,"TOWNNAME":"南區","LI":"南華里","LIN":"17鄰","STREET":"中華南路","SECT":"二段","MAREA":" ","LANE":"３０２巷","ALLEY":"６弄","HOUSE_NO":"８號","E_COORD97":166686.92000000001,"N_COORD97":2540396.02,"ADDRESS":"中華南路二段３０２巷６弄８號","OBJECTID":212404},"geometry":{"x":166686.92000000086,"y":2540396.0200000033}},{"attributes":{"ID":212406,"DIS_CODE":0,"TOWNNAME":"南區","LI":"南華里","LIN":"19鄰","STREET":"中華南路","SECT":"二段","MAREA":" ","LANE":"３００巷","ALLEY":"２弄","HOUSE_NO":"１１號","E_COORD97":166770.95000000001,"N_COORD97":2540305.8799999999,"ADDRESS":"中華南路二段３００巷２弄１１號","OBJECTID":212405},"geometry":{"x":166770.95000000019,"y":2540305.8800000008}},{"attributes":{"ID":212407,"DIS_CODE":0,"TOWNNAME":"南區","LI":"南華里","LIN":"19鄰","STREET":"中華南路","SECT":"二段","MAREA":" ","LANE":"３００巷","ALLEY":"２弄","HOUSE_NO":"１３號","E_COORD97":166784.45999999999,"N_COORD97":2540303.3900000001,"ADDRESS":"中華南路二段３００巷２弄１３號","OBJECTID":212406},"geometry":{"x":166784.46000000183,"y":2540303.3900000025}},{"attributes":{"ID":212408,"DIS_CODE":0,"TOWNNAME":"南區","LI":"南華里","LIN":"19鄰","STREET":"中華南路","SECT":"二段","MAREA":" ","LANE":"３００巷","ALLEY":"２弄","HOUSE_NO":"１５號","E_COORD97":166792.95999999999,"N_COORD97":2540302.4700000002,"ADDRESS":"中華南路二段３００巷２弄１５號","OBJECTID":212407},"geometry":{"x":166792.96000000183,"y":2540302.4700000044}},{"attributes":{"ID":212409,"DIS_CODE":0,"TOWNNAME":"南區","LI":"南華里","LIN":"19鄰","STREET":"中華南路","SECT":"二段","MAREA":" ","LANE":"３００巷","ALLEY":"２弄","HOUSE_NO":"１７號","E_COORD97":166801.28,"N_COORD97":2540301.73,"ADDRESS":"中華南路二段３００巷２弄１７號","OBJECTID":212408},"geometry":{"x":166801.28000000212,"y":2540301.7300000023}},{"attributes":{"ID":212410,"DIS_CODE":0,"TOWNNAME":"東區","LI":"東聖里","LIN":"13鄰","STREET":"中華東路","SECT":"二段","MAREA":" ","LANE":"４１巷","ALLEY":"４７弄","HOUSE_NO":"１號","E_COORD97":171553.10000000001,"N_COORD97":2543128.1899999999,"ADDRESS":"中華東路二段４１巷４７弄１號","OBJECTID":212409},"geometry":{"x":171553.09999999963,"y":2543128.1900000013}},{"attributes":{"ID":212411,"DIS_CODE":0,"TOWNNAME":"南區","LI":"南華里","LIN":"20鄰","STREET":"金華路","SECT":"一段","MAREA":" ","LANE":"２９巷","ALLEY":"８弄","HOUSE_NO":"１０號","E_COORD97":166838.89000000001,"N_COORD97":2540352.75,"ADDRESS":"金華路一段２９巷８弄１０號","OBJECTID":212410},"geometry":{"x":166838.89000000153,"y":2540352.75}},{"attributes":{"ID":212412,"DIS_CODE":0,"TOWNNAME":"東區","LI":"東聖里","LIN":"13鄰","STREET":"中華東路","SECT":"二段","MAREA":" ","LANE":"４１巷","ALLEY":"４７弄","HOUSE_NO":"２號","E_COORD97":171557.28,"N_COORD97":2543129.7400000002,"ADDRESS":"中華東路二段４１巷４７弄２號","OBJECTID":212411},"geometry":{"x":171557.28000000026,"y":2543129.7400000002}},{"attributes":{"ID":212413,"DIS_CODE":0,"TOWNNAME":"新市區","LI":"大社里","LIN":"9鄰","STREET":" ","SECT":" ","MAREA":"大社","LANE":" ","ALLEY":" ","HOUSE_NO":"３０５號之２","E_COORD97":180245.35999999999,"N_COORD97":2554533.7999999998,"ADDRESS":"大社３０５號之２","OBJECTID":212412},"geometry":{"x":180245.3600000022,"y":2554533.8000000026}},{"attributes":{"ID":212414,"DIS_CODE":0,"TOWNNAME":"楠西區","LI":"龜丹里","LIN":"9鄰","STREET":" ","SECT":" ","MAREA":"龜丹","LANE":" ","ALLEY":" ","HOUSE_NO":"１２９號","E_COORD97":198080.79000000001,"N_COORD97":2560483.25,"ADDRESS":"龜丹１２９號","OBJECTID":212413},"geometry":{"x":198080.79000000097,"y":2560483.2500000019}},{"attributes":{"ID":212415,"DIS_CODE":0,"TOWNNAME":"關廟區","LI":"埤頭里","LIN":"9鄰","STREET":"關新路","SECT":"二段","MAREA":" ","LANE":"５１巷","ALLEY":"１１弄","HOUSE_NO":"１５號","E_COORD97":179047.82000000001,"N_COORD97":2544125.2999999998,"ADDRESS":"關新路二段５１巷１１弄１５號","OBJECTID":212414},"geometry":{"x":179047.82000000123,"y":2544125.3000000026}},{"attributes":{"ID":212416,"DIS_CODE":0,"TOWNNAME":"南區","LI":"南華里","LIN":"19鄰","STREET":"中華南路","SECT":"二段","MAREA":" ","LANE":"３００巷","ALLEY":"２弄","HOUSE_NO":"９號","E_COORD97":166763.09,"N_COORD97":2540306.9900000002,"ADDRESS":"中華南路二段３００巷２弄９號","OBJECTID":212415},"geometry":{"x":166763.09000000171,"y":2540306.9900000021}},{"attributes":{"ID":212417,"DIS_CODE":0,"TOWNNAME":"永康區","LI":"五王里","LIN":"13鄰","STREET":"中山東路","SECT":" ","MAREA":" ","LANE":"２１８巷","ALLEY":"２８弄","HOUSE_NO":"１３號","E_COORD97":171686.5,"N_COORD97":2545745.25,"ADDRESS":"中山東路２１８巷２８弄１３號","OBJECTID":212416},"geometry":{"x":171686.5,"y":2545745.2500000019}},{"attributes":{"ID":212418,"DIS_CODE":0,"TOWNNAME":"關廟區","LI":"埤頭里","LIN":"9鄰","STREET":"關新路","SECT":"二段","MAREA":" ","LANE":"５１巷","ALLEY":"２５弄","HOUSE_NO":"５號","E_COORD97":178994.51999999999,"N_COORD97":2544146.2999999998,"ADDRESS":"關新路二段５１巷２５弄５號","OBJECTID":212417},"geometry":{"x":178994.52000000048,"y":2544146.3000000026}},{"attributes":{"ID":212419,"DIS_CODE":0,"TOWNNAME":"永康區","LI":"五王里","LIN":"13鄰","STREET":"成功路","SECT":" ","MAREA":" ","LANE":"１７２巷","ALLEY":"６２弄","HOUSE_NO":"２６號","E_COORD97":171656.95000000001,"N_COORD97":2545751.1299999999,"ADDRESS":"成功路１７２巷６２弄２６號","OBJECTID":212418},"geometry":{"x":171656.95000000112,"y":2545751.1299999971}},{"attributes":{"ID":212420,"DIS_CODE":0,"TOWNNAME":"永康區","LI":"五王里","LIN":"13鄰","STREET":"成功路","SECT":" ","MAREA":" ","LANE":"１７２巷","ALLEY":"６２弄","HOUSE_NO":"２２號","E_COORD97":171648.54000000001,"N_COORD97":2545748.8799999999,"ADDRESS":"成功路１７２巷６２弄２２號","OBJECTID":212419},"geometry":{"x":171648.54000000004,"y":2545748.879999999}},{"attributes":{"ID":212421,"DIS_CODE":0,"TOWNNAME":"關廟區","LI":"埤頭里","LIN":"9鄰","STREET":"關新路","SECT":"二段","MAREA":" ","LANE":"５１巷","ALLEY":"１１弄","HOUSE_NO":"５號","E_COORD97":179043.22,"N_COORD97":2544148.2999999998,"ADDRESS":"關新路二段５１巷１１弄５號","OBJECTID":212420},"geometry":{"x":179043.21999999974,"y":2544148.2999999989}},{"attributes":{"ID":212422,"DIS_CODE":0,"TOWNNAME":"七股區","LI":"中寮里","LIN":"2鄰","STREET":" ","SECT":" ","MAREA":"中寮","LANE":" ","ALLEY":" ","HOUSE_NO":"２０號","E_COORD97":158978.23999999999,"N_COORD97":2560881.25,"ADDRESS":"中寮２０號","OBJECTID":212421},"geometry":{"x":158978.24000000209,"y":2560881.25}},{"attributes":{"ID":212423,"DIS_CODE":0,"TOWNNAME":"關廟區","LI":"埤頭里","LIN":"9鄰","STREET":"關新路","SECT":"二段","MAREA":" ","LANE":"５１巷","ALLEY":"３５弄","HOUSE_NO":"５號","E_COORD97":178974.47,"N_COORD97":2544136.2999999998,"ADDRESS":"關新路二段５１巷３５弄５號","OBJECTID":212422},"geometry":{"x":178974.47000000067,"y":2544136.3000000026}},{"attributes":{"ID":212424,"DIS_CODE":0,"TOWNNAME":"永康區","LI":"五王里","LIN":"13鄰","STREET":"中山東路","SECT":" ","MAREA":" ","LANE":"２１８巷","ALLEY":"２３弄","HOUSE_NO":"１８號","E_COORD97":171700.12,"N_COORD97":2545690.5099999998,"ADDRESS":"中山東路２１８巷２３弄１８號","OBJECTID":212423},"geometry":{"x":171700.12000000104,"y":2545690.5099999998}},{"attributes":{"ID":212425,"DIS_CODE":0,"TOWNNAME":"永康區","LI":"五王里","LIN":"13鄰","STREET":"中山東路","SECT":" ","MAREA":" ","LANE":"２１８巷","ALLEY":"２８弄","HOUSE_NO":"１７號","E_COORD97":171683.59,"N_COORD97":2545754.75,"ADDRESS":"中山東路２１８巷２８弄１７號","OBJECTID":212424},"geometry":{"x":171683.58999999985,"y":2545754.75}},{"attributes":{"ID":212426,"DIS_CODE":0,"TOWNNAME":"永康區","LI":"復華里","LIN":"13鄰","STREET":"國華街","SECT":" ","MAREA":" ","LANE":"９６巷","ALLEY":"１５弄","HOUSE_NO":"２號","E_COORD97":172921.67999999999,"N_COORD97":2545945.4900000002,"ADDRESS":"國華街９６巷１５弄２號","OBJECTID":212425},"geometry":{"x":172921.68000000063,"y":2545945.4900000002}},{"attributes":{"ID":212427,"DIS_CODE":0,"TOWNNAME":"永康區","LI":"復華里","LIN":"13鄰","STREET":"國華街","SECT":" ","MAREA":" ","LANE":"９６巷","ALLEY":"１５弄","HOUSE_NO":"２０號","E_COORD97":172932.23999999999,"N_COORD97":2546008.21,"ADDRESS":"國華街９６巷１５弄２０號","OBJECTID":212426},"geometry":{"x":172932.24000000022,"y":2546008.2100000028}},{"attributes":{"ID":212428,"DIS_CODE":0,"TOWNNAME":"新市區","LI":"永就里","LIN":"9鄰","STREET":"中華路","SECT":" ","MAREA":" ","LANE":" ","ALLEY":" ","HOUSE_NO":"４２之１號","E_COORD97":177357.26000000001,"N_COORD97":2551730.0499999998,"ADDRESS":"中華路４２之１號","OBJECTID":212427},"geometry":{"x":177357.26000000071,"y":2551730.0500000007}},{"attributes":{"ID":212429,"DIS_CODE":0,"TOWNNAME":"關廟區","LI":"埤頭里","LIN":"9鄰","STREET":"關新路","SECT":"二段","MAREA":" ","LANE":"５１巷","ALLEY":"２５弄","HOUSE_NO":"９號","E_COORD97":178994.12,"N_COORD97":2544130.2999999998,"ADDRESS":"關新路二段５１巷２５弄９號","OBJECTID":212428},"geometry":{"x":178994.12000000197,"y":2544130.3000000007}},{"attributes":{"ID":212430,"DIS_CODE":0,"TOWNNAME":"歸仁區","LI":"七甲里","LIN":"9鄰","STREET":"七甲一街","SECT":" ","MAREA":" ","LANE":" ","ALLEY":" ","HOUSE_NO":"６６號","E_COORD97":177750.56,"N_COORD97":2542618.2400000002,"ADDRESS":"七甲一街６６號","OBJECTID":212429},"geometry":{"x":177750.55999999959,"y":2542618.2400000002}},{"attributes":{"ID":212431,"DIS_CODE":0,"TOWNNAME":"關廟區","LI":"埤頭里","LIN":"9鄰","STREET":"關新路","SECT":"二段","MAREA":" ","LANE":"２３巷","ALLEY":" ","HOUSE_NO":"８號","E_COORD97":179038.87,"N_COORD97":2544103.2999999998,"ADDRESS":"關新路二段２３巷８號","OBJECTID":212430},"geometry":{"x":179038.87000000104,"y":2544103.3000000007}},{"attributes":{"ID":212432,"DIS_CODE":0,"TOWNNAME":"關廟區","LI":"埤頭里","LIN":"9鄰","STREET":"關新路","SECT":"二段","MAREA":" ","LANE":" ","ALLEY":" ","HOUSE_NO":"３５號","E_COORD97":179072.67000000001,"N_COORD97":2544137.2999999998,"ADDRESS":"關新路二段３５號","OBJECTID":212431},"geometry":{"x":179072.66999999993,"y":2544137.3000000007}},{"attributes":{"ID":212433,"DIS_CODE":0,"TOWNNAME":"安南區","LI":"安富里","LIN":"13鄰","STREET":"安富街","SECT":" ","MAREA":" ","LANE":"２５１巷","ALLEY":"４２弄","HOUSE_NO":"１０號","E_COORD97":167502.5,"N_COORD97":2547336.2200000002,"ADDRESS":"安富街２５１巷４２弄１０號","OBJECTID":212432},"geometry":{"x":167502.5,"y":2547336.2200000025}},{"attributes":{"ID":212434,"DIS_CODE":0,"TOWNNAME":"關廟區","LI":"深坑里","LIN":"9鄰","STREET":"深坑三街","SECT":" ","MAREA":" ","LANE":" ","ALLEY":" ","HOUSE_NO":"１９號","E_COORD97":181797.26999999999,"N_COORD97":2537844.2999999998,"ADDRESS":"深坑三街１９號","OBJECTID":212433},"geometry":{"x":181797.26999999955,"y":2537844.3000000007}},{"attributes":{"ID":212435,"DIS_CODE":0,"TOWNNAME":"安南區","LI":"安富里","LIN":"13鄰","STREET":"安富街","SECT":" ","MAREA":" ","LANE":"２５１巷","ALLEY":"４２弄","HOUSE_NO":"１２號","E_COORD97":167496.79000000001,"N_COORD97":2547334.1200000001,"ADDRESS":"安富街２５１巷４２弄１２號","OBJECTID":212434},"geometry":{"x":167496.79000000097,"y":2547334.1200000029}},{"attributes":{"ID":212436,"DIS_CODE":0,"TOWNNAME":"關廟區","LI":"埤頭里","LIN":"9鄰","STREET":"關新路","SECT":"二段","MAREA":" ","LANE":"５１巷","ALLEY":"１１弄","HOUSE_NO":"１３號","E_COORD97":179046.32000000001,"N_COORD97":2544130.2999999998,"ADDRESS":"關新路二段５１巷１１弄１３號","OBJECTID":212435},"geometry":{"x":179046.3200000003,"y":2544130.3000000007}},{"attributes":{"ID":212437,"DIS_CODE":0,"TOWNNAME":"安南區","LI":"安富里","LIN":"13鄰","STREET":"安富街","SECT":" ","MAREA":" ","LANE":"２５１巷","ALLEY":"４２弄","HOUSE_NO":"１７號","E_COORD97":167484.76000000001,"N_COORD97":2547311.0899999999,"ADDRESS":"安富街２５１巷４２弄１７號","OBJECTID":212436},"geometry":{"x":167484.76000000071,"y":2547311.0899999999}},{"attributes":{"ID":212438,"DIS_CODE":0,"TOWNNAME":"安南區","LI":"安富里","LIN":"13鄰","STREET":"安富街","SECT":" ","MAREA":" ","LANE":"２５１巷","ALLEY":"４２弄","HOUSE_NO":"１８號","E_COORD97":167473.92999999999,"N_COORD97":2547329.6099999999,"ADDRESS":"安富街２５１巷４２弄１８號","OBJECTID":212437},"geometry":{"x":167473.9299999997,"y":2547329.6100000013}},{"attributes":{"ID":212439,"DIS_CODE":0,"TOWNNAME":"永康區","LI":"甲頂里","LIN":" ","STREET":"中央路","SECT":" ","MAREA":" ","LANE":" ","ALLEY":" ","HOUSE_NO":"４之１號","E_COORD97":169318.73000000001,"N_COORD97":2546801.2200000002,"ADDRESS":"中央路４之１號","OBJECTID":212438},"geometry":{"x":169318.73000000045,"y":2546801.2200000025}},{"attributes":{"ID":212440,"DIS_CODE":0,"TOWNNAME":"永康區","LI":"中華里","LIN":"14鄰","STREET":"忠義街","SECT":" ","MAREA":" ","LANE":" ","ALLEY":" ","HOUSE_NO":"４０號","E_COORD97":171729.34,"N_COORD97":2544442.0800000001,"ADDRESS":"忠義街４０號","OBJECTID":212439},"geometry":{"x":171729.33999999985,"y":2544442.0800000019}},{"attributes":{"ID":212441,"DIS_CODE":0,"TOWNNAME":"永康區","LI":"龍潭里","LIN":" ","STREET":"永明街","SECT":" ","MAREA":" ","LANE":" ","ALLEY":" ","HOUSE_NO":"３３０之６號","E_COORD97":174564.07000000001,"N_COORD97":2547123.04,"ADDRESS":"永明街３３０之６號","OBJECTID":212440},"geometry":{"x":174564.07000000123,"y":2547123.040000001}},{"attributes":{"ID":212442,"DIS_CODE":0,"TOWNNAME":"永康區","LI":"中華里","LIN":"25鄰","STREET":"忠義街","SECT":" ","MAREA":" ","LANE":" ","ALLEY":" ","HOUSE_NO":"６９號","E_COORD97":171706.51000000001,"N_COORD97":2544613.04,"ADDRESS":"忠義街６９號","OBJECTID":212441},"geometry":{"x":171706.50999999978,"y":2544613.0400000028}},{"attributes":{"ID":212443,"DIS_CODE":0,"TOWNNAME":"安南區","LI":"安富里","LIN":"13鄰","STREET":"安富街","SECT":" ","MAREA":" ","LANE":"２５１巷","ALLEY":"４２弄","HOUSE_NO":"２０號","E_COORD97":167468.22,"N_COORD97":2547328.4100000001,"ADDRESS":"安富街２５１巷４２弄２０號","OBJECTID":212442},"geometry":{"x":167468.21999999974,"y":2547328.410000002}},{"attributes":{"ID":212444,"DIS_CODE":0,"TOWNNAME":"安南區","LI":"安富里","LIN":"13鄰","STREET":"安富街","SECT":" ","MAREA":" ","LANE":"２５１巷","ALLEY":"４２弄","HOUSE_NO":"２１號","E_COORD97":167473.03,"N_COORD97":2547311.6899999999,"ADDRESS":"安富街２５１巷４２弄２１號","OBJECTID":212443},"geometry":{"x":167473.03000000119,"y":2547311.6900000013}},{"attributes":{"ID":212445,"DIS_CODE":0,"TOWNNAME":"安南區","LI":"安富里","LIN":"13鄰","STREET":"安富街","SECT":" ","MAREA":" ","LANE":"２５１巷","ALLEY":"４２弄","HOUSE_NO":"２２號","E_COORD97":167462.79999999999,"N_COORD97":2547328.71,"ADDRESS":"安富街２５１巷４２弄２２號","OBJECTID":212444},"geometry":{"x":167462.79999999981,"y":2547328.7100000009}},{"attributes":{"ID":212446,"DIS_CODE":0,"TOWNNAME":"永康區","LI":"西勢里","LIN":"24鄰","STREET":"廣興街","SECT":" ","MAREA":" ","LANE":" ","ALLEY":" ","HOUSE_NO":"６４號","E_COORD97":176086.51000000001,"N_COORD97":2546570.2599999998,"ADDRESS":"廣興街６４號","OBJECTID":212445},"geometry":{"x":176086.50999999978,"y":2546570.2599999998}},{"attributes":{"ID":212447,"DIS_CODE":0,"TOWNNAME":"永康區","LI":"西灣里","LIN":"4鄰","STREET":"大灣五街","SECT":" ","MAREA":" ","LANE":" ","ALLEY":" ","HOUSE_NO":"６５號","E_COORD97":174703.79000000001,"N_COORD97":2545228.1299999999,"ADDRESS":"大灣五街６５號","OBJECTID":212446},"geometry":{"x":174703.79000000004,"y":2545228.129999999}},{"attributes":{"ID":212448,"DIS_CODE":0,"TOWNNAME":"安南區","LI":"安富里","LIN":"13鄰","STREET":"安富街","SECT":" ","MAREA":" ","LANE":"２５１巷","ALLEY":"４２弄","HOUSE_NO":"２３號","E_COORD97":167469.12,"N_COORD97":2547308.9900000002,"ADDRESS":"安富街２５１巷４２弄２３號","OBJECTID":212447},"geometry":{"x":167469.12000000104,"y":2547308.9900000002}},{"attributes":{"ID":212449,"DIS_CODE":0,"TOWNNAME":"安南區","LI":"安富里","LIN":"13鄰","STREET":"安富街","SECT":" ","MAREA":" ","LANE":"２５１巷","ALLEY":"４２弄","HOUSE_NO":"２４號","E_COORD97":167456.48999999999,"N_COORD97":2547326.6099999999,"ADDRESS":"安富街２５１巷４２弄２４號","OBJECTID":212448},"geometry":{"x":167456.49000000115,"y":2547326.6100000013}},{"attributes":{"ID":212450,"DIS_CODE":0,"TOWNNAME":"安南區","LI":"安富里","LIN":"13鄰","STREET":"安富街","SECT":" ","MAREA":" ","LANE":"２５１巷","ALLEY":"４２弄","HOUSE_NO":"２６號","E_COORD97":167450.47,"N_COORD97":2547325.1099999999,"ADDRESS":"安富街２５１巷４２弄２６號","OBJECTID":212449},"geometry":{"x":167450.4700000016,"y":2547325.1100000031}},{"attributes":{"ID":212451,"DIS_CODE":0,"TOWNNAME":"安南區","LI":"安富里","LIN":"13鄰","STREET":"安富街","SECT":" ","MAREA":" ","LANE":"２５１巷","ALLEY":"４２弄","HOUSE_NO":"２８號","E_COORD97":167445.06,"N_COORD97":2547324.5099999998,"ADDRESS":"安富街２５１巷４２弄２８號","OBJECTID":212450},"geometry":{"x":167445.06000000052,"y":2547324.5099999998}},{"attributes":{"ID":212452,"DIS_CODE":0,"TOWNNAME":"安南區","LI":"安富里","LIN":"13鄰","STREET":"安富街","SECT":" ","MAREA":" ","LANE":"２５１巷","ALLEY":"４２弄","HOUSE_NO":"２９號","E_COORD97":167453.17999999999,"N_COORD97":2547306.5899999999,"ADDRESS":"安富街２５１巷４２弄２９號","OBJECTID":212451},"geometry":{"x":167453.1799999997,"y":2547306.5900000017}},{"attributes":{"ID":212453,"DIS_CODE":0,"TOWNNAME":"安南區","LI":"安富里","LIN":"13鄰","STREET":"安富街","SECT":" ","MAREA":" ","LANE":"２５１巷","ALLEY":"４２弄","HOUSE_NO":"３２號","E_COORD97":167427.78,"N_COORD97":2547321.4900000002,"ADDRESS":"安富街２５１巷４２弄３２號","OBJECTID":212452},"geometry":{"x":167427.78000000026,"y":2547321.4900000021}},{"attributes":{"ID":212454,"DIS_CODE":0,"TOWNNAME":"安南區","LI":"安富里","LIN":"13鄰","STREET":"安富街","SECT":" ","MAREA":" ","LANE":"２５１巷","ALLEY":"４２弄","HOUSE_NO":"３４號","E_COORD97":167422.29000000001,"N_COORD97":2547320.1200000001,"ADDRESS":"安富街２５１巷４２弄３４號","OBJECTID":212453},"geometry":{"x":167422.29000000004,"y":2547320.1200000048}},{"attributes":{"ID":212455,"DIS_CODE":0,"TOWNNAME":"安南區","LI":"安富里","LIN":"13鄰","STREET":"安富街","SECT":" ","MAREA":" ","LANE":"２５１巷","ALLEY":"４２弄","HOUSE_NO":"３５號","E_COORD97":167432.57000000001,"N_COORD97":2547301.0600000001,"ADDRESS":"安富街２５１巷４２弄３５號","OBJECTID":212454},"geometry":{"x":167432.5700000003,"y":2547301.0600000024}},{"attributes":{"ID":212456,"DIS_CODE":0,"TOWNNAME":"安南區","LI":"安富里","LIN":"13鄰","STREET":"安富街","SECT":" ","MAREA":" ","LANE":"２５１巷","ALLEY":"４２弄","HOUSE_NO":"３６號","E_COORD97":167416.81,"N_COORD97":2547318.75,"ADDRESS":"安富街２５１巷４２弄３６號","OBJECTID":212455},"geometry":{"x":167416.80999999959,"y":2547318.7500000019}},{"attributes":{"ID":212457,"DIS_CODE":0,"TOWNNAME":"南區","LI":"南都里","LIN":"5鄰","STREET":"中華南路","SECT":"二段","MAREA":" ","LANE":"３１５巷","ALLEY":"１０弄","HOUSE_NO":"１１號","E_COORD97":166439.89000000001,"N_COORD97":2540108.2200000002,"ADDRESS":"中華南路二段３１５巷１０弄１１號","OBJECTID":212456},"geometry":{"x":166439.88999999966,"y":2540108.2200000025}},{"attributes":{"ID":212458,"DIS_CODE":0,"TOWNNAME":"南區","LI":"南都里","LIN":"5鄰","STREET":"中華南路","SECT":"二段","MAREA":" ","LANE":"３１５巷","ALLEY":"１０弄","HOUSE_NO":"１３號","E_COORD97":166428.73999999999,"N_COORD97":2540108.2200000002,"ADDRESS":"中華南路二段３１５巷１０弄１３號","OBJECTID":212457},"geometry":{"x":166428.74000000115,"y":2540108.2200000025}},{"attributes":{"ID":212459,"DIS_CODE":0,"TOWNNAME":"南區","LI":"南都里","LIN":"5鄰","STREET":"中華南路","SECT":"二段","MAREA":" ","LANE":"３１５巷","ALLEY":"１０弄","HOUSE_NO":"１５號","E_COORD97":166421.39000000001,"N_COORD97":2540108.0899999999,"ADDRESS":"中華南路二段３１５巷１０弄１５號","OBJECTID":212458},"geometry":{"x":166421.38999999966,"y":2540108.0900000017}},{"attributes":{"ID":212460,"DIS_CODE":0,"TOWNNAME":"南區","LI":"南都里","LIN":"5鄰","STREET":"中華南路","SECT":"二段","MAREA":" ","LANE":"３１５巷","ALLEY":"１０弄","HOUSE_NO":"１７號","E_COORD97":166410.01999999999,"N_COORD97":2540108.3900000001,"ADDRESS":"中華南路二段３１５巷１０弄１７號","OBJECTID":212459},"geometry":{"x":166410.01999999955,"y":2540108.3900000006}},{"attributes":{"ID":212461,"DIS_CODE":0,"TOWNNAME":"安南區","LI":"安富里","LIN":"13鄰","STREET":"安富街","SECT":" ","MAREA":" ","LANE":"２５１巷","ALLEY":"４２弄","HOUSE_NO":"３７號","E_COORD97":167426.85999999999,"N_COORD97":2547299.46,"ADDRESS":"安富街２５１巷４２弄３７號","OBJECTID":212460},"geometry":{"x":167426.86000000127,"y":2547299.4600000009}},{"attributes":{"ID":212462,"DIS_CODE":0,"TOWNNAME":"安南區","LI":"安富里","LIN":"13鄰","STREET":"安富街","SECT":" ","MAREA":" ","LANE":"２５１巷","ALLEY":"４２弄","HOUSE_NO":"３號","E_COORD97":167525.66,"N_COORD97":2547320.3999999999,"ADDRESS":"安富街２５１巷４２弄３號","OBJECTID":212461},"geometry":{"x":167525.66000000015,"y":2547320.4000000004}},{"attributes":{"ID":212463,"DIS_CODE":0,"TOWNNAME":"安南區","LI":"安富里","LIN":"13鄰","STREET":"安富街","SECT":" ","MAREA":" ","LANE":"２５１巷","ALLEY":"４２弄","HOUSE_NO":"４０號","E_COORD97":167404.23999999999,"N_COORD97":2547317.6099999999,"ADDRESS":"安富街２５１巷４２弄４０號","OBJECTID":212462},"geometry":{"x":167404.24000000022,"y":2547317.6099999994}},{"attributes":{"ID":212464,"DIS_CODE":0,"TOWNNAME":"七股區","LI":"十份里","LIN":"2鄰","STREET":" ","SECT":" ","MAREA":"十份","LANE":" ","ALLEY":" ","HOUSE_NO":"１９號之３","E_COORD97":158496.56,"N_COORD97":2555051.6899999999,"ADDRESS":"十份１９號之３","OBJECTID":212463},"geometry":{"x":158496.55999999959,"y":2555051.6900000013}},{"attributes":{"ID":212465,"DIS_CODE":0,"TOWNNAME":"七股區","LI":"十份里","LIN":"2鄰","STREET":" ","SECT":" ","MAREA":"十份","LANE":" ","ALLEY":" ","HOUSE_NO":"１９號之４","E_COORD97":158506.14000000001,"N_COORD97":2555049.1499999999,"ADDRESS":"十份１９號之４","OBJECTID":212464},"geometry":{"x":158506.1400000006,"y":2555049.1500000041}},{"attributes":{"ID":212466,"DIS_CODE":0,"TOWNNAME":"中西區","LI":"水仙里","LIN":"9鄰","STREET":"和平街","SECT":" ","MAREA":" ","LANE":" ","ALLEY":" ","HOUSE_NO":"６３號","E_COORD97":167745.92999999999,"N_COORD97":2544098.0499999998,"ADDRESS":"和平街６３號","OBJECTID":212465},"geometry":{"x":167745.93000000063,"y":2544098.0500000007}},{"attributes":{"ID":212467,"DIS_CODE":0,"TOWNNAME":"安南區","LI":"安富里","LIN":"13鄰","STREET":"安富街","SECT":" ","MAREA":" ","LANE":"２５１巷","ALLEY":"４２弄","HOUSE_NO":"４２號","E_COORD97":167398.51999999999,"N_COORD97":2547316.2400000002,"ADDRESS":"安富街２５１巷４２弄４２號","OBJECTID":212466},"geometry":{"x":167398.51999999955,"y":2547316.2400000021}},{"attributes":{"ID":212468,"DIS_CODE":0,"TOWNNAME":"安南區","LI":"安富里","LIN":"13鄰","STREET":"安富街","SECT":" ","MAREA":" ","LANE":"２５１巷","ALLEY":"４２弄","HOUSE_NO":"４３號","E_COORD97":167408.35000000001,"N_COORD97":2547296.7200000002,"ADDRESS":"安富街２５１巷４２弄４３號","OBJECTID":212467},"geometry":{"x":167408.34999999963,"y":2547296.7200000025}},{"attributes":{"ID":212469,"DIS_CODE":0,"TOWNNAME":"安南區","LI":"安富里","LIN":"13鄰","STREET":"安富街","SECT":" ","MAREA":" ","LANE":"２５１巷","ALLEY":"４２弄","HOUSE_NO":"４４號","E_COORD97":167392.12,"N_COORD97":2547314.6499999999,"ADDRESS":"安富街２５１巷４２弄４４號","OBJECTID":212468},"geometry":{"x":167392.12000000197,"y":2547314.6500000004}},{"attributes":{"ID":212470,"DIS_CODE":0,"TOWNNAME":"安南區","LI":"安富里","LIN":"13鄰","STREET":"安富街","SECT":" ","MAREA":" ","LANE":"２５１巷","ALLEY":"４２弄","HOUSE_NO":"４６號","E_COORD97":167381.84,"N_COORD97":2547312.3700000001,"ADDRESS":"安富街２５１巷４２弄４６號","OBJECTID":212469},"geometry":{"x":167381.84000000171,"y":2547312.3700000029}},{"attributes":{"ID":212471,"DIS_CODE":0,"TOWNNAME":"安南區","LI":"安富里","LIN":"13鄰","STREET":"安富街","SECT":" ","MAREA":" ","LANE":"２５１巷","ALLEY":"４２弄","HOUSE_NO":"４７號","E_COORD97":167396.01000000001,"N_COORD97":2547293.98,"ADDRESS":"安富街２５１巷４２弄４７號","OBJECTID":212470},"geometry":{"x":167396.01000000164,"y":2547293.9800000023}},{"attributes":{"ID":212472,"DIS_CODE":0,"TOWNNAME":"安南區","LI":"安富里","LIN":"13鄰","STREET":"安富街","SECT":" ","MAREA":" ","LANE":"２５１巷","ALLEY":"４２弄","HOUSE_NO":"４８號","E_COORD97":167376.57999999999,"N_COORD97":2547312.5899999999,"ADDRESS":"安富街２５１巷４２弄４８號","OBJECTID":212471},"geometry":{"x":167376.58000000007,"y":2547312.5900000017}},{"attributes":{"ID":212473,"DIS_CODE":0,"TOWNNAME":"安南區","LI":"安富里","LIN":"13鄰","STREET":"安富街","SECT":" ","MAREA":" ","LANE":"２５１巷","ALLEY":"４２弄","HOUSE_NO":"４９號","E_COORD97":167386.17999999999,"N_COORD97":2547292.8399999999,"ADDRESS":"安富街２５１巷４２弄４９號","OBJECTID":212472},"geometry":{"x":167386.18000000156,"y":2547292.8399999999}},{"attributes":{"ID":212474,"DIS_CODE":0,"TOWNNAME":"安南區","LI":"安富里","LIN":"13鄰","STREET":"安富街","SECT":" ","MAREA":" ","LANE":"２５１巷","ALLEY":"４２弄","HOUSE_NO":"４號","E_COORD97":167520.25,"N_COORD97":2547338.3199999998,"ADDRESS":"安富街２５１巷４２弄４號","OBJECTID":212473},"geometry":{"x":167520.25000000093,"y":2547338.320000004}},{"attributes":{"ID":212475,"DIS_CODE":0,"TOWNNAME":"安南區","LI":"安富里","LIN":"13鄰","STREET":"安富街","SECT":" ","MAREA":" ","LANE":"２５１巷","ALLEY":"４２弄","HOUSE_NO":"５０號","E_COORD97":167371.32999999999,"N_COORD97":2547311.9100000001,"ADDRESS":"安富街２５１巷４２弄５０號","OBJECTID":212474},"geometry":{"x":167371.33000000007,"y":2547311.910000002}},{"attributes":{"ID":212476,"DIS_CODE":0,"TOWNNAME":"安南區","LI":"安富里","LIN":"13鄰","STREET":"安富街","SECT":" ","MAREA":" ","LANE":"２５１巷","ALLEY":"４２弄","HOUSE_NO":"５１號","E_COORD97":167380.70000000001,"N_COORD97":2547291.25,"ADDRESS":"安富街２５１巷４２弄５１號","OBJECTID":212475},"geometry":{"x":167380.70000000019,"y":2547291.2500000019}},{"attributes":{"ID":212477,"DIS_CODE":0,"TOWNNAME":"安南區","LI":"安富里","LIN":"13鄰","STREET":"安富街","SECT":" ","MAREA":" ","LANE":"２５１巷","ALLEY":"４２弄","HOUSE_NO":"５２號","E_COORD97":167366.29999999999,"N_COORD97":2547309.8599999999,"ADDRESS":"安富街２５１巷４２弄５２號","OBJECTID":212476},"geometry":{"x":167366.29999999981,"y":2547309.8600000031}},{"attributes":{"ID":212478,"DIS_CODE":0,"TOWNNAME":"佳里區","LI":"海澄里","LIN":"9鄰","STREET":" ","SECT":" ","MAREA":"番子寮","LANE":" ","ALLEY":" ","HOUSE_NO":"５９號","E_COORD97":164410.45999999999,"N_COORD97":2563753.3100000001,"ADDRESS":"番子寮５９號","OBJECTID":212477},"geometry":{"x":164410.45999999996,"y":2563753.3100000005}},{"attributes":{"ID":212479,"DIS_CODE":0,"TOWNNAME":"佳里區","LI":"海澄里","LIN":"9鄰","STREET":" ","SECT":" ","MAREA":"番子寮","LANE":" ","ALLEY":" ","HOUSE_NO":"６０號之１","E_COORD97":164346.57999999999,"N_COORD97":2563664.77,"ADDRESS":"番子寮６０號之１","OBJECTID":212478},"geometry":{"x":164346.58000000101,"y":2563664.7699999996}},{"attributes":{"ID":212480,"DIS_CODE":0,"TOWNNAME":"佳里區","LI":"海澄里","LIN":"9鄰","STREET":" ","SECT":" ","MAREA":"番子寮","LANE":" ","ALLEY":" ","HOUSE_NO":"６０號之２","E_COORD97":164399.67000000001,"N_COORD97":2563709.04,"ADDRESS":"番子寮６０號之２","OBJECTID":212479},"geometry":{"x":164399.67000000179,"y":2563709.040000001}},{"attributes":{"ID":212481,"DIS_CODE":0,"TOWNNAME":"安南區","LI":"安富里","LIN":"13鄰","STREET":"安富街","SECT":" ","MAREA":" ","LANE":"２５１巷","ALLEY":"４２弄","HOUSE_NO":"５３號","E_COORD97":167375.44,"N_COORD97":2547290.1000000001,"ADDRESS":"安富街２５１巷４２弄５３號","OBJECTID":212480},"geometry":{"x":167375.44000000134,"y":2547290.0999999996}},{"attributes":{"ID":212482,"DIS_CODE":0,"TOWNNAME":"安南區","LI":"安富里","LIN":"13鄰","STREET":"安富街","SECT":" ","MAREA":" ","LANE":"２５１巷","ALLEY":"４２弄","HOUSE_NO":"５５號","E_COORD97":167370.64000000001,"N_COORD97":2547288.7400000002,"ADDRESS":"安富街２５１巷４２弄５５號","OBJECTID":212481},"geometry":{"x":167370.63999999966,"y":2547288.7400000021}},{"attributes":{"ID":212483,"DIS_CODE":0,"TOWNNAME":"安南區","LI":"安富里","LIN":"13鄰","STREET":"安富街","SECT":" ","MAREA":" ","LANE":"２５１巷","ALLEY":"４２弄","HOUSE_NO":"５６號","E_COORD97":167356.47,"N_COORD97":2547308.2599999998,"ADDRESS":"安富街２５１巷４２弄５６號","OBJECTID":212482},"geometry":{"x":167356.46999999974,"y":2547308.2600000016}},{"attributes":{"ID":212484,"DIS_CODE":0,"TOWNNAME":"中西區","LI":"水仙里","LIN":"9鄰","STREET":"和平街","SECT":" ","MAREA":" ","LANE":" ","ALLEY":" ","HOUSE_NO":"６５號","E_COORD97":167741.62,"N_COORD97":2544098.4700000002,"ADDRESS":"和平街６５號","OBJECTID":212483},"geometry":{"x":167741.62000000104,"y":2544098.4700000007}},{"attributes":{"ID":212485,"DIS_CODE":0,"TOWNNAME":"佳里區","LI":"海澄里","LIN":"9鄰","STREET":" ","SECT":" ","MAREA":"番子寮","LANE":" ","ALLEY":" ","HOUSE_NO":"６０號之３","E_COORD97":164394.92000000001,"N_COORD97":2563707.9500000002,"ADDRESS":"番子寮６０號之３","OBJECTID":212484},"geometry":{"x":164394.92000000086,"y":2563707.9499999993}},{"attributes":{"ID":212486,"DIS_CODE":0,"TOWNNAME":"佳里區","LI":"海澄里","LIN":"9鄰","STREET":" ","SECT":" ","MAREA":"番子寮","LANE":" ","ALLEY":" ","HOUSE_NO":"６０號","E_COORD97":164370.60000000001,"N_COORD97":2563679.2799999998,"ADDRESS":"番子寮６０號","OBJECTID":212485},"geometry":{"x":164370.59999999963,"y":2563679.2800000031}},{"attributes":{"ID":212487,"DIS_CODE":0,"TOWNNAME":"佳里區","LI":"海澄里","LIN":"9鄰","STREET":" ","SECT":" ","MAREA":"番子寮","LANE":" ","ALLEY":" ","HOUSE_NO":"６１號","E_COORD97":164426.66,"N_COORD97":2563724.79,"ADDRESS":"番子寮６１號","OBJECTID":212486},"geometry":{"x":164426.66000000015,"y":2563724.7899999991}},{"attributes":{"ID":212488,"DIS_CODE":0,"TOWNNAME":"佳里區","LI":"海澄里","LIN":"9鄰","STREET":" ","SECT":" ","MAREA":"番子寮","LANE":" ","ALLEY":" ","HOUSE_NO":"６２號之１","E_COORD97":164470,"N_COORD97":2563744.6600000001,"ADDRESS":"番子寮６２號之１","OBJECTID":212487},"geometry":{"x":164470,"y":2563744.6600000001}},{"attributes":{"ID":212489,"DIS_CODE":0,"TOWNNAME":"永康區","LI":"永康里","LIN":"9鄰","STREET":"永康街","SECT":" ","MAREA":" ","LANE":" ","ALLEY":" ","HOUSE_NO":"９７號","E_COORD97":173855.42000000001,"N_COORD97":2547150.9700000002,"ADDRESS":"永康街９７號","OBJECTID":212488},"geometry":{"x":173855.42000000179,"y":2547150.9700000044}},{"attributes":{"ID":212490,"DIS_CODE":0,"TOWNNAME":"永康區","LI":"永康里","LIN":"9鄰","STREET":"永中街","SECT":" ","MAREA":" ","LANE":" ","ALLEY":" ","HOUSE_NO":"４５號","E_COORD97":173908.67000000001,"N_COORD97":2547184.7400000002,"ADDRESS":"永中街４５號","OBJECTID":212489},"geometry":{"x":173908.67000000086,"y":2547184.7400000002}},{"attributes":{"ID":212491,"DIS_CODE":0,"TOWNNAME":"七股區","LI":"十份里","LIN":"2鄰","STREET":" ","SECT":" ","MAREA":"十份","LANE":" ","ALLEY":" ","HOUSE_NO":"２０號","E_COORD97":158527.39999999999,"N_COORD97":2555118.1699999999,"ADDRESS":"十份２０號","OBJECTID":212490},"geometry":{"x":158527.40000000037,"y":2555118.1699999999}},{"attributes":{"ID":212492,"DIS_CODE":0,"TOWNNAME":"七股區","LI":"十份里","LIN":"2鄰","STREET":" ","SECT":" ","MAREA":"十份","LANE":" ","ALLEY":" ","HOUSE_NO":"２１號之１","E_COORD97":158531.44,"N_COORD97":2555043.1400000001,"ADDRESS":"十份２１號之１","OBJECTID":212491},"geometry":{"x":158531.44000000134,"y":2555043.1400000025}},{"attributes":{"ID":212493,"DIS_CODE":0,"TOWNNAME":"安南區","LI":"安富里","LIN":"13鄰","STREET":"安富街","SECT":" ","MAREA":" ","LANE":"２５１巷","ALLEY":"４２弄","HOUSE_NO":"５７號","E_COORD97":167365.60999999999,"N_COORD97":2547287.5899999999,"ADDRESS":"安富街２５１巷４２弄５７號","OBJECTID":212492},"geometry":{"x":167365.61000000127,"y":2547287.5899999999}},{"attributes":{"ID":212494,"DIS_CODE":0,"TOWNNAME":"安南區","LI":"安富里","LIN":"13鄰","STREET":"安富街","SECT":" ","MAREA":" ","LANE":"２５１巷","ALLEY":"４２弄","HOUSE_NO":"５號","E_COORD97":167519.35000000001,"N_COORD97":2547319.7999999998,"ADDRESS":"安富街２５１巷４２弄５號","OBJECTID":212493},"geometry":{"x":167519.35000000056,"y":2547319.8000000026}},{"attributes":{"ID":212495,"DIS_CODE":0,"TOWNNAME":"南區","LI":"南都里","LIN":"4鄰","STREET":"中華南路","SECT":"二段","MAREA":" ","LANE":"３１５巷","ALLEY":"１０弄","HOUSE_NO":"８號","E_COORD97":166421.07999999999,"N_COORD97":2540136.4100000001,"ADDRESS":"中華南路二段３１５巷１０弄８號","OBJECTID":212494},"geometry":{"x":166421.08000000194,"y":2540136.4100000039}},{"attributes":{"ID":212496,"DIS_CODE":0,"TOWNNAME":"安南區","LI":"安富里","LIN":"13鄰","STREET":"安富街","SECT":" ","MAREA":" ","LANE":"２５１巷","ALLEY":"４２弄","HOUSE_NO":"６０號","E_COORD97":167346.64000000001,"N_COORD97":2547306.4300000002,"ADDRESS":"安富街２５１巷４２弄６０號","OBJECTID":212495},"geometry":{"x":167346.63999999966,"y":2547306.4300000034}},{"attributes":{"ID":212497,"DIS_CODE":0,"TOWNNAME":"南區","LI":"南都里","LIN":"5鄰","STREET":"中華南路","SECT":"二段","MAREA":" ","LANE":"３１５巷","ALLEY":"１０弄","HOUSE_NO":"１９號","E_COORD97":166401.42000000001,"N_COORD97":2540109.0099999998,"ADDRESS":"中華南路二段３１５巷１０弄１９號","OBJECTID":212496},"geometry":{"x":166401.41999999993,"y":2540109.0100000016}},{"attributes":{"ID":212498,"DIS_CODE":0,"TOWNNAME":"七股區","LI":"十份里","LIN":"2鄰","STREET":" ","SECT":" ","MAREA":"十份","LANE":" ","ALLEY":" ","HOUSE_NO":"２１號","E_COORD97":158539.70000000001,"N_COORD97":2555092.1099999999,"ADDRESS":"十份２１號","OBJECTID":212497},"geometry":{"x":158539.70000000112,"y":2555092.1099999994}},{"attributes":{"ID":212499,"DIS_CODE":0,"TOWNNAME":"七股區","LI":"十份里","LIN":"2鄰","STREET":" ","SECT":" ","MAREA":"十份","LANE":" ","ALLEY":" ","HOUSE_NO":"２２號之１","E_COORD97":158560.35999999999,"N_COORD97":2555042.9500000002,"ADDRESS":"十份２２號之１","OBJECTID":212498},"geometry":{"x":158560.36000000034,"y":2555042.9500000011}},{"attributes":{"ID":212500,"DIS_CODE":0,"TOWNNAME":"南區","LI":"南都里","LIN":"5鄰","STREET":"中華南路","SECT":"二段","MAREA":" ","LANE":"３１５巷","ALLEY":"１０弄","HOUSE_NO":"１號","E_COORD97":166481.01999999999,"N_COORD97":2540108.5699999998,"ADDRESS":"中華南路二段３１５巷１０弄１號","OBJECTID":212499},"geometry":{"x":166481.02000000048,"y":2540108.5700000022}},{"attributes":{"ID":212501,"DIS_CODE":0,"TOWNNAME":"南區","LI":"南都里","LIN":"5鄰","STREET":"中華南路","SECT":"二段","MAREA":" ","LANE":"３１５巷","ALLEY":"１０弄","HOUSE_NO":"２１號","E_COORD97":166392.82000000001,"N_COORD97":2540108.7000000002,"ADDRESS":"中華南路二段３１５巷１０弄２１號","OBJECTID":212500},"geometry":{"x":166392.82000000123,"y":2540108.6999999993}},{"attributes":{"ID":212502,"DIS_CODE":0,"TOWNNAME":"南區","LI":"南都里","LIN":"5鄰","STREET":"中華南路","SECT":"二段","MAREA":" ","LANE":"３１５巷","ALLEY":"１０弄","HOUSE_NO":"２３號","E_COORD97":166386.06,"N_COORD97":2540109.0099999998,"ADDRESS":"中華南路二段３１５巷１０弄２３號","OBJECTID":212501},"geometry":{"x":166386.05999999959,"y":2540109.0100000016}},{"attributes":{"ID":212503,"DIS_CODE":0,"TOWNNAME":"南區","LI":"南都里","LIN":"5鄰","STREET":"中華南路","SECT":"二段","MAREA":" ","LANE":"３１５巷","ALLEY":"１０弄","HOUSE_NO":"３號","E_COORD97":166473,"N_COORD97":2540108.5699999998,"ADDRESS":"中華南路二段３１５巷１０弄３號","OBJECTID":212502},"geometry":{"x":166473.00000000093,"y":2540108.5700000022}},{"attributes":{"ID":212504,"DIS_CODE":0,"TOWNNAME":"南區","LI":"南都里","LIN":"5鄰","STREET":"中華南路","SECT":"二段","MAREA":" ","LANE":"３１５巷","ALLEY":"１０弄","HOUSE_NO":"５號","E_COORD97":166463.23999999999,"N_COORD97":2540108.5699999998,"ADDRESS":"中華南路二段３１５巷１０弄５號","OBJECTID":212503},"geometry":{"x":166463.24000000115,"y":2540108.5700000022}},{"attributes":{"ID":212505,"DIS_CODE":0,"TOWNNAME":"安南區","LI":"安富里","LIN":"13鄰","STREET":"安富街","SECT":" ","MAREA":" ","LANE":"２５１巷","ALLEY":"４２弄","HOUSE_NO":"６１號","E_COORD97":167355.78,"N_COORD97":2547286.23,"ADDRESS":"安富街２５１巷４２弄６１號","OBJECTID":212504},"geometry":{"x":167355.78000000119,"y":2547286.2300000023}},{"attributes":{"ID":212506,"DIS_CODE":0,"TOWNNAME":"安南區","LI":"安富里","LIN":"13鄰","STREET":"安富街","SECT":" ","MAREA":" ","LANE":"２５１巷","ALLEY":"４２弄","HOUSE_NO":"６３號","E_COORD97":167350.29999999999,"N_COORD97":2547284.8599999999,"ADDRESS":"安富街２５１巷４２弄６３號","OBJECTID":212505},"geometry":{"x":167350.30000000075,"y":2547284.8599999994}},{"attributes":{"ID":212507,"DIS_CODE":0,"TOWNNAME":"安南區","LI":"安富里","LIN":"13鄰","STREET":"安富街","SECT":" ","MAREA":" ","LANE":"２５１巷","ALLEY":"４２弄","HOUSE_NO":"６號","E_COORD97":167514.23000000001,"N_COORD97":2547337.7200000002,"ADDRESS":"安富街２５１巷４２弄６號","OBJECTID":212506},"geometry":{"x":167514.23000000138,"y":2547337.7200000007}},{"attributes":{"ID":212508,"DIS_CODE":0,"TOWNNAME":"安南區","LI":"安富里","LIN":"13鄰","STREET":"安富街","SECT":" ","MAREA":" ","LANE":"２５１巷","ALLEY":"４２弄","HOUSE_NO":"７號","E_COORD97":167514.53,"N_COORD97":2547318,"ADDRESS":"安富街２５１巷４２弄７號","OBJECTID":212507},"geometry":{"x":167514.53000000026,"y":2547318.0000000019}},{"attributes":{"ID":212509,"DIS_CODE":0,"TOWNNAME":"安南區","LI":"安富里","LIN":"13鄰","STREET":"安富街","SECT":" ","MAREA":" ","LANE":"２５１巷","ALLEY":"４２弄","HOUSE_NO":"８號","E_COORD97":167508.82000000001,"N_COORD97":2547335.9199999999,"ADDRESS":"安富街２５１巷４２弄８號","OBJECTID":212508},"geometry":{"x":167508.8200000003,"y":2547335.9199999999}},{"attributes":{"ID":212510,"DIS_CODE":0,"TOWNNAME":"安南區","LI":"安富里","LIN":"13鄰","STREET":"安富街","SECT":" ","MAREA":" ","LANE":"２５１巷","ALLEY":"４２弄","HOUSE_NO":"９號","E_COORD97":167510.01999999999,"N_COORD97":2547315.8999999999,"ADDRESS":"安富街２５１巷４２弄９號","OBJECTID":212509},"geometry":{"x":167510.02000000048,"y":2547315.9000000004}},{"attributes":{"ID":212511,"DIS_CODE":0,"TOWNNAME":"安南區","LI":"安西里","LIN":"13鄰","STREET":"安和路","SECT":"一段","MAREA":" ","LANE":"１５９巷","ALLEY":"４３弄","HOUSE_NO":"１０號","E_COORD97":169234.67999999999,"N_COORD97":2547776.3199999998,"ADDRESS":"安和路一段１５９巷４３弄１０號","OBJECTID":212510},"geometry":{"x":169234.68000000063,"y":2547776.3200000022}},{"attributes":{"ID":212512,"DIS_CODE":0,"TOWNNAME":"安南區","LI":"安西里","LIN":"13鄰","STREET":"安和路","SECT":"一段","MAREA":" ","LANE":"１５９巷","ALLEY":"４３弄","HOUSE_NO":"１２號","E_COORD97":169231.16,"N_COORD97":2547772.02,"ADDRESS":"安和路一段１５９巷４３弄１２號","OBJECTID":212511},"geometry":{"x":169231.16000000201,"y":2547772.0199999996}},{"attributes":{"ID":212513,"DIS_CODE":0,"TOWNNAME":"七股區","LI":"十份里","LIN":"2鄰","STREET":" ","SECT":" ","MAREA":"十份","LANE":" ","ALLEY":" ","HOUSE_NO":"２２號","E_COORD97":158552.79000000001,"N_COORD97":2555045.8999999999,"ADDRESS":"十份２２號","OBJECTID":212512},"geometry":{"x":158552.79000000097,"y":2555045.9000000004}},{"attributes":{"ID":212514,"DIS_CODE":0,"TOWNNAME":"安南區","LI":"安西里","LIN":"13鄰","STREET":"安和路","SECT":"一段","MAREA":" ","LANE":"１５９巷","ALLEY":"４３弄","HOUSE_NO":"２號","E_COORD97":169249.94,"N_COORD97":2547788.8300000001,"ADDRESS":"安和路一段１５９巷４３弄２號","OBJECTID":212513},"geometry":{"x":169249.94000000227,"y":2547788.8300000038}},{"attributes":{"ID":212515,"DIS_CODE":0,"TOWNNAME":"安南區","LI":"安西里","LIN":"13鄰","STREET":"安和路","SECT":"一段","MAREA":" ","LANE":"１５９巷","ALLEY":"４３弄","HOUSE_NO":"６號","E_COORD97":169242.51000000001,"N_COORD97":2547781.79,"ADDRESS":"安和路一段１５９巷４３弄６號","OBJECTID":212514},"geometry":{"x":169242.51000000071,"y":2547781.790000001}},{"attributes":{"ID":212516,"DIS_CODE":0,"TOWNNAME":"永康區","LI":"永康里","LIN":"9鄰","STREET":"永康街","SECT":" ","MAREA":" ","LANE":" ","ALLEY":" ","HOUSE_NO":"９９號","E_COORD97":173859.12,"N_COORD97":2547148.9700000002,"ADDRESS":"永康街９９號","OBJECTID":212515},"geometry":{"x":173859.12000000011,"y":2547148.9700000025}},{"attributes":{"ID":212517,"DIS_CODE":0,"TOWNNAME":"七股區","LI":"十份里","LIN":"2鄰","STREET":" ","SECT":" ","MAREA":"十份","LANE":" ","ALLEY":" ","HOUSE_NO":"２３號","E_COORD97":158594.25,"N_COORD97":2555040.9199999999,"ADDRESS":"十份２３號","OBJECTID":212516},"geometry":{"x":158594.25,"y":2555040.9200000018}},{"attributes":{"ID":212518,"DIS_CODE":0,"TOWNNAME":"七股區","LI":"十份里","LIN":"2鄰","STREET":" ","SECT":" ","MAREA":"十份","LANE":" ","ALLEY":" ","HOUSE_NO":"２４號之１","E_COORD97":158389.92999999999,"N_COORD97":2555084.8999999999,"ADDRESS":"十份２４號之１","OBJECTID":212517},"geometry":{"x":158389.93000000156,"y":2555084.9000000041}},{"attributes":{"ID":212519,"DIS_CODE":0,"TOWNNAME":"七股區","LI":"十份里","LIN":"2鄰","STREET":" ","SECT":" ","MAREA":"十份","LANE":" ","ALLEY":" ","HOUSE_NO":"２４號之２","E_COORD97":158358.60999999999,"N_COORD97":2555089.1200000001,"ADDRESS":"十份２４號之２","OBJECTID":212518},"geometry":{"x":158358.61000000034,"y":2555089.120000001}},{"attributes":{"ID":212520,"DIS_CODE":0,"TOWNNAME":"中西區","LI":"元安里","LIN":"9鄰","STREET":"國華街","SECT":"二段","MAREA":" ","LANE":" ","ALLEY":" ","HOUSE_NO":"７６號","E_COORD97":167628.09,"N_COORD97":2543325.3300000001,"ADDRESS":"國華街二段７６號","OBJECTID":212519},"geometry":{"x":167628.09000000078,"y":2543325.3300000019}},{"attributes":{"ID":212521,"DIS_CODE":0,"TOWNNAME":"中西區","LI":"元安里","LIN":"9鄰","STREET":"國華街","SECT":"二段","MAREA":" ","LANE":" ","ALLEY":" ","HOUSE_NO":"７８號","E_COORD97":167628.29999999999,"N_COORD97":2543328.6800000002,"ADDRESS":"國華街二段７８號","OBJECTID":212520},"geometry":{"x":167628.30000000075,"y":2543328.6800000016}},{"attributes":{"ID":212522,"DIS_CODE":0,"TOWNNAME":"安南區","LI":"安西里","LIN":"13鄰","STREET":"安和路","SECT":"一段","MAREA":" ","LANE":"１５９巷","ALLEY":"４３弄","HOUSE_NO":"８號","E_COORD97":169238.59,"N_COORD97":2547779.0600000001,"ADDRESS":"安和路一段１５９巷４３弄８號","OBJECTID":212521},"geometry":{"x":169238.59000000078,"y":2547779.0600000024}},{"attributes":{"ID":212523,"DIS_CODE":0,"TOWNNAME":"安南區","LI":"安西里","LIN":"13鄰","STREET":"安和路","SECT":"一段","MAREA":" ","LANE":"１５９巷","ALLEY":"５３弄","HOUSE_NO":"１號","E_COORD97":169228.92999999999,"N_COORD97":2547790,"ADDRESS":"安和路一段１５９巷５３弄１號","OBJECTID":212522},"geometry":{"x":169228.93000000156,"y":2547790}},{"attributes":{"ID":212524,"DIS_CODE":0,"TOWNNAME":"安定區","LI":"中榮里","LIN":"9鄰","STREET":" ","SECT":" ","MAREA":"許中營","LANE":" ","ALLEY":" ","HOUSE_NO":"７７之７號","E_COORD97":172468.45999999999,"N_COORD97":2555269.2999999998,"ADDRESS":"許中營７７號之７","OBJECTID":212523},"geometry":{"x":172468.46000000183,"y":2555269.3000000026}},{"attributes":{"ID":212525,"DIS_CODE":0,"TOWNNAME":"安定區","LI":"大同里","LIN":"9鄰","STREET":" ","SECT":" ","MAREA":"大同","LANE":" ","ALLEY":" ","HOUSE_NO":"１１０號","E_COORD97":170349.72,"N_COORD97":2553832.25,"ADDRESS":"大同１１０號","OBJECTID":212524},"geometry":{"x":170349.72000000067,"y":2553832.2500000019}},{"attributes":{"ID":212526,"DIS_CODE":0,"TOWNNAME":"安定區","LI":"中榮里","LIN":"9鄰","STREET":" ","SECT":" ","MAREA":"許中營","LANE":" ","ALLEY":" ","HOUSE_NO":"７５號之２","E_COORD97":172377.51000000001,"N_COORD97":2555131.2999999998,"ADDRESS":"許中營７５號之２","OBJECTID":212525},"geometry":{"x":172377.50999999978,"y":2555131.3000000026}},{"attributes":{"ID":212527,"DIS_CODE":0,"TOWNNAME":"安定區","LI":"中榮里","LIN":"9鄰","STREET":" ","SECT":" ","MAREA":"許中營","LANE":" ","ALLEY":" ","HOUSE_NO":"７６之５２號","E_COORD97":172525.81129000001,"N_COORD97":2555119.6372799999,"ADDRESS":"許中營７６之５２號","OBJECTID":212526},"geometry":{"x":172525.8112899987,"y":2555119.637279002}},{"attributes":{"ID":212528,"DIS_CODE":0,"TOWNNAME":"安定區","LI":"中榮里","LIN":"9鄰","STREET":" ","SECT":" ","MAREA":"許中營","LANE":" ","ALLEY":" ","HOUSE_NO":"７６號","E_COORD97":172351.54000000001,"N_COORD97":2555118.25,"ADDRESS":"許中營７６號","OBJECTID":212527},"geometry":{"x":172351.54000000097,"y":2555118.25}},{"attributes":{"ID":212529,"DIS_CODE":0,"TOWNNAME":"安定區","LI":"保西里","LIN":"9鄰","STREET":" ","SECT":" ","MAREA":"安定","LANE":" ","ALLEY":" ","HOUSE_NO":"４３２號","E_COORD97":171630.62,"N_COORD97":2557873.3199999998,"ADDRESS":"安定４３２號","OBJECTID":212528},"geometry":{"x":171630.62000000104,"y":2557873.3200000022}},{"attributes":{"ID":212530,"DIS_CODE":0,"TOWNNAME":"安南區","LI":"安西里","LIN":"13鄰","STREET":"安和路","SECT":"一段","MAREA":" ","LANE":"１５９巷","ALLEY":"５３弄","HOUSE_NO":"２號","E_COORD97":169212.48999999999,"N_COORD97":2547808.3700000001,"ADDRESS":"安和路一段１５９巷５３弄２號","OBJECTID":212529},"geometry":{"x":169212.49000000115,"y":2547808.370000001}},{"attributes":{"ID":212531,"DIS_CODE":0,"TOWNNAME":"安定區","LI":"蘇林里","LIN":"9鄰","STREET":" ","SECT":" ","MAREA":"蘇厝","LANE":" ","ALLEY":" ","HOUSE_NO":"１００之２號","E_COORD97":173542.32000000001,"N_COORD97":2558835.2999999998,"ADDRESS":"蘇厝１００之２號","OBJECTID":212530},"geometry":{"x":173542.3200000003,"y":2558835.2999999989}},{"attributes":{"ID":212532,"DIS_CODE":0,"TOWNNAME":"安南區","LI":"安西里","LIN":"13鄰","STREET":"安和路","SECT":"一段","MAREA":" ","LANE":"１５９巷","ALLEY":"５３弄","HOUSE_NO":"４號","E_COORD97":169208.97,"N_COORD97":2547805.2400000002,"ADDRESS":"安和路一段１５９巷５３弄４號","OBJECTID":212531},"geometry":{"x":169208.97000000067,"y":2547805.2400000002}},{"attributes":{"ID":212533,"DIS_CODE":0,"TOWNNAME":"安南區","LI":"安西里","LIN":"13鄰","STREET":"安和路","SECT":"一段","MAREA":" ","LANE":"１５９巷","ALLEY":"５３弄","HOUSE_NO":"６號","E_COORD97":169205.84,"N_COORD97":2547802.1099999999,"ADDRESS":"安和路一段１５９巷５３弄６號","OBJECTID":212532},"geometry":{"x":169205.83999999892,"y":2547802.1099999994}},{"attributes":{"ID":212534,"DIS_CODE":0,"TOWNNAME":"中西區","LI":"元安里","LIN":"9鄰","STREET":"國華街","SECT":"二段","MAREA":" ","LANE":" ","ALLEY":" ","HOUSE_NO":"８０號","E_COORD97":167629.20000000001,"N_COORD97":2543331.75,"ADDRESS":"國華街二段８０號","OBJECTID":212533},"geometry":{"x":167629.20000000112,"y":2543331.7500000019}},{"attributes":{"ID":212535,"DIS_CODE":0,"TOWNNAME":"安定區","LI":"管寮里","LIN":"9鄰","STREET":" ","SECT":" ","MAREA":"管寮","LANE":" ","ALLEY":" ","HOUSE_NO":"８５號之１","E_COORD97":169812.38,"N_COORD97":2556328.2999999998,"ADDRESS":"管寮８５號之１","OBJECTID":212534},"geometry":{"x":169812.37999999989,"y":2556328.3000000026}},{"attributes":{"ID":212536,"DIS_CODE":0,"TOWNNAME":"安定區","LI":"中榮里","LIN":"9鄰","STREET":" ","SECT":" ","MAREA":"許中營","LANE":" ","ALLEY":" ","HOUSE_NO":"７７號之１８","E_COORD97":172595.67999999999,"N_COORD97":2555268.2999999998,"ADDRESS":"許中營７７號之１８","OBJECTID":212535},"geometry":{"x":172595.68000000063,"y":2555268.3000000007}},{"attributes":{"ID":212537,"DIS_CODE":0,"TOWNNAME":"安定區","LI":"港口里","LIN":"9鄰","STREET":" ","SECT":" ","MAREA":"港口","LANE":" ","ALLEY":" ","HOUSE_NO":"３６１之６號","E_COORD97":171415.48999999999,"N_COORD97":2554755.2999999998,"ADDRESS":"港口３６１之６號","OBJECTID":212536},"geometry":{"x":171415.49000000022,"y":2554755.3000000007}},{"attributes":{"ID":212538,"DIS_CODE":0,"TOWNNAME":"南區","LI":"南都里","LIN":"5鄰","STREET":"中華南路","SECT":"二段","MAREA":" ","LANE":"３１５巷","ALLEY":"１０弄","HOUSE_NO":"７號","E_COORD97":166454.88,"N_COORD97":2540108.9199999999,"ADDRESS":"中華南路二段３１５巷１０弄７號","OBJECTID":212537},"geometry":{"x":166454.88000000082,"y":2540108.9200000037}},{"attributes":{"ID":212539,"DIS_CODE":0,"TOWNNAME":"安定區","LI":"保西里","LIN":"9鄰","STREET":" ","SECT":" ","MAREA":"安定","LANE":" ","ALLEY":" ","HOUSE_NO":"４３０號之２","E_COORD97":171617.98999999999,"N_COORD97":2557821.3199999998,"ADDRESS":"安定４３０號之２","OBJECTID":212538},"geometry":{"x":171617.99000000115,"y":2557821.320000004}},{"attributes":{"ID":212540,"DIS_CODE":0,"TOWNNAME":"永康區","LI":"龍潭里","LIN":" ","STREET":"中山北路","SECT":" ","MAREA":" ","LANE":"３２１巷","ALLEY":" ","HOUSE_NO":"１５號","E_COORD97":174670.76999999999,"N_COORD97":2547755.9500000002,"ADDRESS":"中山北路３２１巷１５號","OBJECTID":212539},"geometry":{"x":174670.76999999955,"y":2547755.9499999993}},{"attributes":{"ID":212541,"DIS_CODE":0,"TOWNNAME":"安平區","LI":"怡平里","LIN":"24鄰","STREET":"文平路","SECT":" ","MAREA":" ","LANE":" ","ALLEY":" ","HOUSE_NO":"３７７號","E_COORD97":165773.95000000001,"N_COORD97":2543629.0899999999,"ADDRESS":"文平路３７７號","OBJECTID":212540},"geometry":{"x":165773.95000000019,"y":2543629.0899999999}},{"attributes":{"ID":212542,"DIS_CODE":0,"TOWNNAME":"安定區","LI":"港尾里","LIN":"9鄰","STREET":" ","SECT":" ","MAREA":"港子尾","LANE":" ","ALLEY":" ","HOUSE_NO":"４１號","E_COORD97":171545.79000000001,"N_COORD97":2555949.2599999998,"ADDRESS":"港子尾４１號","OBJECTID":212541},"geometry":{"x":171545.7900000019,"y":2555949.2599999998}},{"attributes":{"ID":212543,"DIS_CODE":0,"TOWNNAME":"南區","LI":"南都里","LIN":"5鄰","STREET":"中華南路","SECT":"二段","MAREA":" ","LANE":"３１５巷","ALLEY":"１０弄","HOUSE_NO":"９號","E_COORD97":166446.51999999999,"N_COORD97":2540108.2200000002,"ADDRESS":"中華南路二段３１５巷１０弄９號","OBJECTID":212542},"geometry":{"x":166446.52000000048,"y":2540108.2200000025}},{"attributes":{"ID":212544,"DIS_CODE":0,"TOWNNAME":"安南區","LI":"安西里","LIN":"13鄰","STREET":"安和路","SECT":"一段","MAREA":" ","LANE":"１５９巷","ALLEY":"５３弄","HOUSE_NO":"７號","E_COORD97":169220.32000000001,"N_COORD97":2547781.3999999999,"ADDRESS":"安和路一段１５９巷５３弄７號","OBJECTID":212543},"geometry":{"x":169220.32000000123,"y":2547781.4000000004}},{"attributes":{"ID":212545,"DIS_CODE":0,"TOWNNAME":"安定區","LI":"中榮里","LIN":"9鄰","STREET":" ","SECT":" ","MAREA":"許中營","LANE":" ","ALLEY":" ","HOUSE_NO":"７５之１１號","E_COORD97":172435.19,"N_COORD97":2555111.2999999998,"ADDRESS":"許中營７５之１１號","OBJECTID":212544},"geometry":{"x":172435.19000000227,"y":2555111.3000000007}},{"attributes":{"ID":212546,"DIS_CODE":0,"TOWNNAME":"安定區","LI":"港尾里","LIN":"9鄰","STREET":" ","SECT":" ","MAREA":"港子尾","LANE":" ","ALLEY":" ","HOUSE_NO":"４２號之２","E_COORD97":171502.26000000001,"N_COORD97":2555890.2999999998,"ADDRESS":"港子尾４２號之２","OBJECTID":212545},"geometry":{"x":171502.26000000071,"y":2555890.3000000026}},{"attributes":{"ID":212547,"DIS_CODE":0,"TOWNNAME":"安定區","LI":"安定里","LIN":"9鄰","STREET":" ","SECT":" ","MAREA":"安定","LANE":" ","ALLEY":" ","HOUSE_NO":"７８號","E_COORD97":171819.40414500001,"N_COORD97":2557795.6719900002,"ADDRESS":"安定７８號","OBJECTID":212546},"geometry":{"x":171819.40414500143,"y":2557795.6719870009}},{"attributes":{"ID":212548,"DIS_CODE":0,"TOWNNAME":"安南區","LI":"安西里","LIN":"13鄰","STREET":"安和路","SECT":"一段","MAREA":" ","LANE":"１５９巷","ALLEY":"５３弄","HOUSE_NO":"８號","E_COORD97":169203.10000000001,"N_COORD97":2547798.9900000002,"ADDRESS":"安和路一段１５９巷５３弄８號","OBJECTID":212547},"geometry":{"x":169203.09999999963,"y":2547798.9900000021}},{"attributes":{"ID":212549,"DIS_CODE":0,"TOWNNAME":"安南區","LI":"頂安里","LIN":"13鄰","STREET":"安中路","SECT":"一段","MAREA":" ","LANE":"３５４巷","ALLEY":"３２弄","HOUSE_NO":"１０號","E_COORD97":168459.95000000001,"N_COORD97":2548828.5600000001,"ADDRESS":"安中路一段３５４巷３２弄１０號","OBJECTID":212548},"geometry":{"x":168459.95000000112,"y":2548828.5600000042}},{"attributes":{"ID":212550,"DIS_CODE":0,"TOWNNAME":"安南區","LI":"頂安里","LIN":"13鄰","STREET":"安中路","SECT":"一段","MAREA":" ","LANE":"３５４巷","ALLEY":"３２弄","HOUSE_NO":"１２號","E_COORD97":168461.29999999999,"N_COORD97":2548834.27,"ADDRESS":"安中路一段３５４巷３２弄１２號","OBJECTID":212549},"geometry":{"x":168461.29999999981,"y":2548834.2700000014}},{"attributes":{"ID":212551,"DIS_CODE":0,"TOWNNAME":"安南區","LI":"頂安里","LIN":"13鄰","STREET":"安中路","SECT":"一段","MAREA":" ","LANE":"３５４巷","ALLEY":"３２弄","HOUSE_NO":"１４號","E_COORD97":168462.29999999999,"N_COORD97":2548839.6400000001,"ADDRESS":"安中路一段３５４巷３２弄１４號","OBJECTID":212550},"geometry":{"x":168462.30000000075,"y":2548839.6400000025}},{"attributes":{"ID":212552,"DIS_CODE":0,"TOWNNAME":"安定區","LI":"中榮里","LIN":"9鄰","STREET":" ","SECT":" ","MAREA":"許中營","LANE":" ","ALLEY":" ","HOUSE_NO":"７７號之１","E_COORD97":172502.17999999999,"N_COORD97":2555201.2999999998,"ADDRESS":"許中營７７號之１","OBJECTID":212551},"geometry":{"x":172502.17999999877,"y":2555201.3000000045}},{"attributes":{"ID":212553,"DIS_CODE":0,"TOWNNAME":"安南區","LI":"頂安里","LIN":"13鄰","STREET":"安中路","SECT":"一段","MAREA":" ","LANE":"３５４巷","ALLEY":"３２弄","HOUSE_NO":"１５號","E_COORD97":168439.81,"N_COORD97":2548834.6000000001,"ADDRESS":"安中路一段３５４巷３２弄１５號","OBJECTID":212552},"geometry":{"x":168439.81000000052,"y":2548834.6000000015}},{"attributes":{"ID":212554,"DIS_CODE":0,"TOWNNAME":"安南區","LI":"頂安里","LIN":"13鄰","STREET":"安中路","SECT":"一段","MAREA":" ","LANE":"３５４巷","ALLEY":"３２弄","HOUSE_NO":"１７號","E_COORD97":168441.48000000001,"N_COORD97":2548838.2799999998,"ADDRESS":"安中路一段３５４巷３２弄１７號","OBJECTID":212553},"geometry":{"x":168441.48000000138,"y":2548838.2799999993}},{"attributes":{"ID":212555,"DIS_CODE":0,"TOWNNAME":"安南區","LI":"頂安里","LIN":"13鄰","STREET":"安中路","SECT":"一段","MAREA":" ","LANE":"３５４巷","ALLEY":"３２弄","HOUSE_NO":"１９號","E_COORD97":168441.82000000001,"N_COORD97":2548841.98,"ADDRESS":"安中路一段３５４巷３２弄１９號","OBJECTID":212554},"geometry":{"x":168441.8200000003,"y":2548841.9800000004}},{"attributes":{"ID":212556,"DIS_CODE":0,"TOWNNAME":"南區","LI":"南都里","LIN":"6鄰","STREET":"中華南路","SECT":"二段","MAREA":" ","LANE":"３１５巷","ALLEY":"１２弄","HOUSE_NO":"１０號","E_COORD97":166429.09,"N_COORD97":2540088.73,"ADDRESS":"中華南路二段３１５巷１２弄１０號","OBJECTID":212555},"geometry":{"x":166429.08999999892,"y":2540088.7300000004}},{"attributes":{"ID":212557,"DIS_CODE":0,"TOWNNAME":"安平區","LI":"怡平里","LIN":"24鄰","STREET":"文平路","SECT":" ","MAREA":" ","LANE":" ","ALLEY":" ","HOUSE_NO":"３７９號","E_COORD97":165775.54999999999,"N_COORD97":2543633.4700000002,"ADDRESS":"文平路３７９號","OBJECTID":212556},"geometry":{"x":165775.55000000075,"y":2543633.4700000025}},{"attributes":{"ID":212558,"DIS_CODE":0,"TOWNNAME":"安定區","LI":"中榮里","LIN":"9鄰","STREET":" ","SECT":" ","MAREA":"許中營","LANE":" ","ALLEY":" ","HOUSE_NO":"７６之３８號","E_COORD97":172539.15470899999,"N_COORD97":2555082.4898000001,"ADDRESS":"許中營７６之３８號","OBJECTID":212557},"geometry":{"x":172539.15470900014,"y":2555082.4897990022}},{"attributes":{"ID":212559,"DIS_CODE":0,"TOWNNAME":"新化區","LI":"太平里","LIN":"9鄰","STREET":"中正路","SECT":" ","MAREA":" ","LANE":" ","ALLEY":" ","HOUSE_NO":"６７０號之８","E_COORD97":178662.76999999999,"N_COORD97":2549545.2599999998,"ADDRESS":"中正路６７０號之８","OBJECTID":212558},"geometry":{"x":178662.76999999955,"y":2549545.2600000035}},{"attributes":{"ID":212560,"DIS_CODE":0,"TOWNNAME":"新化區","LI":"豐榮里","LIN":"9鄰","STREET":"大智路","SECT":" ","MAREA":" ","LANE":" ","ALLEY":" ","HOUSE_NO":"９號之１","E_COORD97":178393.178208,"N_COORD97":2548411.0876600002,"ADDRESS":"大智路９號之１","OBJECTID":212559},"geometry":{"x":178393.1782079991,"y":2548411.0876589995}},{"attributes":{"ID":212561,"DIS_CODE":0,"TOWNNAME":"新化區","LI":"豐榮里","LIN":"9鄰","STREET":"大智路","SECT":" ","MAREA":" ","LANE":" ","ALLEY":" ","HOUSE_NO":"５號","E_COORD97":178392.73000000001,"N_COORD97":2548436.25,"ADDRESS":"大智路５號","OBJECTID":212560},"geometry":{"x":178392.73000000045,"y":2548436.25}},{"attributes":{"ID":212562,"DIS_CODE":0,"TOWNNAME":"新化區","LI":"全興里","LIN":"9鄰","STREET":" ","SECT":" ","MAREA":"竹子\u25A0","LANE":" ","ALLEY":" ","HOUSE_NO":"１２１號之５","E_COORD97":177566.39000000001,"N_COORD97":2547681.2599999998,"ADDRESS":"竹子\u25A0１２１號之５","OBJECTID":212561},"geometry":{"x":177566.3900000006,"y":2547681.2600000016}},{"attributes":{"ID":212563,"DIS_CODE":0,"TOWNNAME":"南區","LI":"南都里","LIN":"6鄰","STREET":"中華南路","SECT":"二段","MAREA":" ","LANE":"３１５巷","ALLEY":"１２弄","HOUSE_NO":"１２號","E_COORD97":166420.45999999999,"N_COORD97":2540089.3300000001,"ADDRESS":"中華南路二段３１５巷１２弄１２號","OBJECTID":212562},"geometry":{"x":166420.46000000089,"y":2540089.3300000038}},{"attributes":{"ID":212564,"DIS_CODE":0,"TOWNNAME":"七股區","LI":"十份里","LIN":"2鄰","STREET":" ","SECT":" ","MAREA":"十份","LANE":" ","ALLEY":" ","HOUSE_NO":"２４號之４","E_COORD97":158333.23000000001,"N_COORD97":2555127.1499999999,"ADDRESS":"十份２４號之４","OBJECTID":212563},"geometry":{"x":158333.23000000138,"y":2555127.1500000041}},{"attributes":{"ID":212565,"DIS_CODE":0,"TOWNNAME":"七股區","LI":"十份里","LIN":"2鄰","STREET":" ","SECT":" ","MAREA":"十份","LANE":" ","ALLEY":" ","HOUSE_NO":"２４號之５","E_COORD97":158392.48000000001,"N_COORD97":2555038.4199999999,"ADDRESS":"十份２４號之５","OBJECTID":212564},"geometry":{"x":158392.48000000138,"y":2555038.4199999999}},{"attributes":{"ID":212566,"DIS_CODE":0,"TOWNNAME":"安南區","LI":"頂安里","LIN":"13鄰","STREET":"安中路","SECT":"一段","MAREA":" ","LANE":"３５４巷","ALLEY":"３２弄","HOUSE_NO":"２１號","E_COORD97":168442.48999999999,"N_COORD97":2548846.3500000001,"ADDRESS":"安中路一段３５４巷３２弄２１號","OBJECTID":212565},"geometry":{"x":168442.49000000209,"y":2548846.3500000015}},{"attributes":{"ID":212567,"DIS_CODE":0,"TOWNNAME":"安南區","LI":"頂安里","LIN":"13鄰","STREET":"安中路","SECT":"一段","MAREA":" ","LANE":"３５４巷","ALLEY":"３２弄","HOUSE_NO":"２７號","E_COORD97":168447.19,"N_COORD97":2548857.0800000001,"ADDRESS":"安中路一段３５４巷３２弄２７號","OBJECTID":212566},"geometry":{"x":168447.19000000134,"y":2548857.0800000001}},{"attributes":{"ID":212568,"DIS_CODE":0,"TOWNNAME":"七股區","LI":"十份里","LIN":"2鄰","STREET":" ","SECT":" ","MAREA":"十份","LANE":" ","ALLEY":" ","HOUSE_NO":"２４號之６","E_COORD97":158390.41,"N_COORD97":2555025.0299999998,"ADDRESS":"十份２４號之６","OBJECTID":212567},"geometry":{"x":158390.41000000201,"y":2555025.0300000031}},{"attributes":{"ID":212569,"DIS_CODE":0,"TOWNNAME":"七股區","LI":"十份里","LIN":"2鄰","STREET":" ","SECT":" ","MAREA":"十份","LANE":" ","ALLEY":" ","HOUSE_NO":"２４號之７","E_COORD97":158391.79000000001,"N_COORD97":2555046.4900000002,"ADDRESS":"十份２４號之７","OBJECTID":212568},"geometry":{"x":158391.79000000097,"y":2555046.4899999984}},{"attributes":{"ID":212570,"DIS_CODE":0,"TOWNNAME":"安南區","LI":"頂安里","LIN":"13鄰","STREET":"安中路","SECT":"一段","MAREA":" ","LANE":"３５４巷","ALLEY":"３２弄","HOUSE_NO":"２９號","E_COORD97":168447.53,"N_COORD97":2548862.1099999999,"ADDRESS":"安中路一段３５４巷３２弄２９號","OBJECTID":212569},"geometry":{"x":168447.53000000119,"y":2548862.1100000013}},{"attributes":{"ID":212571,"DIS_CODE":0,"TOWNNAME":"七股區","LI":"三股里","LIN":"2鄰","STREET":" ","SECT":" ","MAREA":"三股","LANE":" ","ALLEY":" ","HOUSE_NO":"１３號","E_COORD97":159745.38,"N_COORD97":2555531.0600000001,"ADDRESS":"三股１３號","OBJECTID":212570},"geometry":{"x":159745.38000000082,"y":2555531.0600000005}},{"attributes":{"ID":212572,"DIS_CODE":0,"TOWNNAME":"安南區","LI":"頂安里","LIN":"13鄰","STREET":"安中路","SECT":"一段","MAREA":" ","LANE":"３５４巷","ALLEY":"３２弄","HOUSE_NO":"２號","E_COORD97":168451.56,"N_COORD97":2548805.0800000001,"ADDRESS":"安中路一段３５４巷３２弄２號","OBJECTID":212571},"geometry":{"x":168451.56000000145,"y":2548805.0800000019}},{"attributes":{"ID":212573,"DIS_CODE":0,"TOWNNAME":"七股區","LI":"三股里","LIN":"2鄰","STREET":" ","SECT":" ","MAREA":"三股","LANE":" ","ALLEY":" ","HOUSE_NO":"１４號","E_COORD97":159755.85999999999,"N_COORD97":2555449.4500000002,"ADDRESS":"三股１４號","OBJECTID":212572},"geometry":{"x":159755.86000000127,"y":2555449.450000003}},{"attributes":{"ID":212574,"DIS_CODE":0,"TOWNNAME":"安南區","LI":"頂安里","LIN":"13鄰","STREET":"安中路","SECT":"一段","MAREA":" ","LANE":"３５４巷","ALLEY":"３２弄","HOUSE_NO":"３１號","E_COORD97":168449.54000000001,"N_COORD97":2548865.1299999999,"ADDRESS":"安中路一段３５４巷３２弄３１號","OBJECTID":212573},"geometry":{"x":168449.54000000097,"y":2548865.1300000008}},{"attributes":{"ID":212575,"DIS_CODE":0,"TOWNNAME":"七股區","LI":"三股里","LIN":"2鄰","STREET":" ","SECT":" ","MAREA":"三股","LANE":" ","ALLEY":" ","HOUSE_NO":"１５號之１０","E_COORD97":159708.14000000001,"N_COORD97":2555491.29,"ADDRESS":"三股１５號之１０","OBJECTID":212574},"geometry":{"x":159708.13999999966,"y":2555491.290000001}},{"attributes":{"ID":212576,"DIS_CODE":0,"TOWNNAME":"七股區","LI":"三股里","LIN":"2鄰","STREET":" ","SECT":" ","MAREA":"三股","LANE":" ","ALLEY":" ","HOUSE_NO":"１５號之１１","E_COORD97":159700.78,"N_COORD97":2555490.9500000002,"ADDRESS":"三股１５號之１１","OBJECTID":212575},"geometry":{"x":159700.78000000119,"y":2555490.9500000011}},{"attributes":{"ID":212577,"DIS_CODE":0,"TOWNNAME":"七股區","LI":"三股里","LIN":"2鄰","STREET":" ","SECT":" ","MAREA":"三股","LANE":" ","ALLEY":" ","HOUSE_NO":"１５號之１２","E_COORD97":159696.57999999999,"N_COORD97":2555490.8199999998,"ADDRESS":"三股１５號之１２","OBJECTID":212576},"geometry":{"x":159696.58000000101,"y":2555490.8200000003}},{"attributes":{"ID":212578,"DIS_CODE":0,"TOWNNAME":"七股區","LI":"三股里","LIN":"2鄰","STREET":" ","SECT":" ","MAREA":"三股","LANE":" ","ALLEY":" ","HOUSE_NO":"１５號之１３","E_COORD97":159692.38,"N_COORD97":2555490.6899999999,"ADDRESS":"三股１５號之１３","OBJECTID":212577},"geometry":{"x":159692.38000000175,"y":2555490.6899999995}},{"attributes":{"ID":212579,"DIS_CODE":0,"TOWNNAME":"七股區","LI":"三股里","LIN":"2鄰","STREET":" ","SECT":" ","MAREA":"三股","LANE":" ","ALLEY":" ","HOUSE_NO":"１５號之１４","E_COORD97":159688.17999999999,"N_COORD97":2555490.5600000001,"ADDRESS":"三股１５號之１４","OBJECTID":212578},"geometry":{"x":159688.1799999997,"y":2555490.5600000042}},{"attributes":{"ID":212580,"DIS_CODE":0,"TOWNNAME":"七股區","LI":"三股里","LIN":"2鄰","STREET":" ","SECT":" ","MAREA":"三股","LANE":" ","ALLEY":" ","HOUSE_NO":"１５號之１５","E_COORD97":159683.98000000001,"N_COORD97":2555490.4300000002,"ADDRESS":"三股１５號之１５","OBJECTID":212579},"geometry":{"x":159683.98000000138,"y":2555490.4299999978}},{"attributes":{"ID":212581,"DIS_CODE":0,"TOWNNAME":"七股區","LI":"三股里","LIN":"2鄰","STREET":" ","SECT":" ","MAREA":"三股","LANE":" ","ALLEY":" ","HOUSE_NO":"１５號之１６","E_COORD97":159679.78,"N_COORD97":2555490.2999999998,"ADDRESS":"三股１５號之１６","OBJECTID":212580},"geometry":{"x":159679.78000000212,"y":2555490.3000000026}},{"attributes":{"ID":212582,"DIS_CODE":0,"TOWNNAME":"七股區","LI":"三股里","LIN":"2鄰","STREET":" ","SECT":" ","MAREA":"三股","LANE":" ","ALLEY":" ","HOUSE_NO":"１５號之１","E_COORD97":159732.79000000001,"N_COORD97":2555480.6899999999,"ADDRESS":"三股１５號之１","OBJECTID":212581},"geometry":{"x":159732.79000000097,"y":2555480.6899999995}},{"attributes":{"ID":212583,"DIS_CODE":0,"TOWNNAME":"七股區","LI":"三股里","LIN":"2鄰","STREET":" ","SECT":" ","MAREA":"三股","LANE":" ","ALLEY":" ","HOUSE_NO":"１５號之３","E_COORD97":159727.64999999999,"N_COORD97":2555494.6099999999,"ADDRESS":"三股１５號之３","OBJECTID":212582},"geometry":{"x":159727.65000000037,"y":2555494.6099999994}},{"attributes":{"ID":212584,"DIS_CODE":0,"TOWNNAME":"七股區","LI":"三股里","LIN":"2鄰","STREET":" ","SECT":" ","MAREA":"三股","LANE":" ","ALLEY":" ","HOUSE_NO":"１５號之５","E_COORD97":159721.69,"N_COORD97":2555491.9100000001,"ADDRESS":"三股１５號之５","OBJECTID":212583},"geometry":{"x":159721.69000000134,"y":2555491.910000002}},{"attributes":{"ID":212585,"DIS_CODE":0,"TOWNNAME":"七股區","LI":"三股里","LIN":"2鄰","STREET":" ","SECT":" ","MAREA":"三股","LANE":" ","ALLEY":" ","HOUSE_NO":"１５號之９","E_COORD97":159712.82999999999,"N_COORD97":2555491.4500000002,"ADDRESS":"三股１５號之９","OBJECTID":212584},"geometry":{"x":159712.83000000007,"y":2555491.4500000011}},{"attributes":{"ID":212586,"DIS_CODE":0,"TOWNNAME":"仁德區","LI":"成功里","LIN":"13鄰","STREET":"全福路","SECT":" ","MAREA":" ","LANE":"３巷","ALLEY":"２弄","HOUSE_NO":"６號","E_COORD97":170843.51000000001,"N_COORD97":2539350.2400000002,"ADDRESS":"全福路３巷２弄６號","OBJECTID":212585},"geometry":{"x":170843.50999999978,"y":2539350.2400000002}},{"attributes":{"ID":212587,"DIS_CODE":0,"TOWNNAME":"仁德區","LI":"成功里","LIN":"13鄰","STREET":"全福路","SECT":" ","MAREA":" ","LANE":"３巷","ALLEY":"９弄","HOUSE_NO":"１號","E_COORD97":170808.13,"N_COORD97":2539370.75,"ADDRESS":"全福路３巷９弄１號","OBJECTID":212586},"geometry":{"x":170808.13000000082,"y":2539370.7499999981}},{"attributes":{"ID":212588,"DIS_CODE":0,"TOWNNAME":"安南區","LI":"頂安里","LIN":"13鄰","STREET":"安中路","SECT":"一段","MAREA":" ","LANE":"３５４巷","ALLEY":"３２弄","HOUSE_NO":"２５號","E_COORD97":168445.51000000001,"N_COORD97":2548853.73,"ADDRESS":"安中路一段３５４巷３２弄２５號","OBJECTID":212587},"geometry":{"x":168445.51000000071,"y":2548853.7300000004}},{"attributes":{"ID":212589,"DIS_CODE":0,"TOWNNAME":"七股區","LI":"三股里","LIN":"2鄰","STREET":" ","SECT":" ","MAREA":"三股","LANE":" ","ALLEY":" ","HOUSE_NO":"１５號","E_COORD97":159735.84,"N_COORD97":2555456.8799999999,"ADDRESS":"三股１５號","OBJECTID":212588},"geometry":{"x":159735.83999999985,"y":2555456.8800000008}},{"attributes":{"ID":212590,"DIS_CODE":0,"TOWNNAME":"七股區","LI":"三股里","LIN":"2鄰","STREET":" ","SECT":" ","MAREA":"三股","LANE":" ","ALLEY":" ","HOUSE_NO":"１６號之１１","E_COORD97":159702.56,"N_COORD97":2555381.25,"ADDRESS":"三股１６號之１１","OBJECTID":212589},"geometry":{"x":159702.56000000145,"y":2555381.2500000019}},{"attributes":{"ID":212591,"DIS_CODE":0,"TOWNNAME":"七股區","LI":"三股里","LIN":"2鄰","STREET":" ","SECT":" ","MAREA":"三股","LANE":" ","ALLEY":" ","HOUSE_NO":"１６號之１","E_COORD97":159743.69,"N_COORD97":2555419.96,"ADDRESS":"三股１６號之１","OBJECTID":212590},"geometry":{"x":159743.69000000134,"y":2555419.9600000009}},{"attributes":{"ID":212592,"DIS_CODE":0,"TOWNNAME":"七股區","LI":"三股里","LIN":"2鄰","STREET":" ","SECT":" ","MAREA":"三股","LANE":" ","ALLEY":" ","HOUSE_NO":"１６號之２","E_COORD97":159747.12,"N_COORD97":2555351.7599999998,"ADDRESS":"三股１６號之２","OBJECTID":212591},"geometry":{"x":159747.12000000104,"y":2555351.7599999998}},{"attributes":{"ID":212593,"DIS_CODE":0,"TOWNNAME":"安南區","LI":"新順里","LIN":"9鄰","STREET":"安生街","SECT":" ","MAREA":" ","LANE":" ","ALLEY":" ","HOUSE_NO":"９７號","E_COORD97":169532.44,"N_COORD97":2549519.2999999998,"ADDRESS":"安生街９７號","OBJECTID":212592},"geometry":{"x":169532.44000000041,"y":2549519.3000000026}},{"attributes":{"ID":212594,"DIS_CODE":0,"TOWNNAME":"安南區","LI":"安順里","LIN":"9鄰","STREET":"安和路","SECT":"四段","MAREA":" ","LANE":" ","ALLEY":" ","HOUSE_NO":"１２３號之１","E_COORD97":169914.79000000001,"N_COORD97":2550391.2599999998,"ADDRESS":"安和路四段１２３號之１","OBJECTID":212593},"geometry":{"x":169914.79000000004,"y":2550391.2599999998}},{"attributes":{"ID":212595,"DIS_CODE":0,"TOWNNAME":"安南區","LI":"淵東里","LIN":"9鄰","STREET":"本原街","SECT":"三段","MAREA":" ","LANE":" ","ALLEY":" ","HOUSE_NO":"２６５號","E_COORD97":165384.26999999999,"N_COORD97":2550232.1699999999,"ADDRESS":"本原街三段２６５號","OBJECTID":212594},"geometry":{"x":165384.27000000048,"y":2550232.1700000018}},{"attributes":{"ID":212596,"DIS_CODE":0,"TOWNNAME":"安南區","LI":"頂安里","LIN":"9鄰","STREET":"頂安街","SECT":" ","MAREA":" ","LANE":" ","ALLEY":" ","HOUSE_NO":"３２２號","E_COORD97":169030.79999999999,"N_COORD97":2549399.3700000001,"ADDRESS":"頂安街３２２號","OBJECTID":212595},"geometry":{"x":169030.79999999981,"y":2549399.370000001}},{"attributes":{"ID":212597,"DIS_CODE":0,"TOWNNAME":"新化區","LI":"太平里","LIN":"9鄰","STREET":"中正路","SECT":" ","MAREA":" ","LANE":" ","ALLEY":" ","HOUSE_NO":"６７６號","E_COORD97":178614.10999999999,"N_COORD97":2549566.25,"ADDRESS":"中正路６７６號","OBJECTID":212596},"geometry":{"x":178614.11000000034,"y":2549566.2500000019}},{"attributes":{"ID":212598,"DIS_CODE":0,"TOWNNAME":"安南區","LI":"長安里","LIN":"13鄰","STREET":"長溪路","SECT":"三段","MAREA":" ","LANE":"３８０巷","ALLEY":"７６弄","HOUSE_NO":"２號","E_COORD97":167947.14000000001,"N_COORD97":2552061.1699999999,"ADDRESS":"長溪路三段３８０巷７６弄２號","OBJECTID":212597},"geometry":{"x":167947.13999999966,"y":2552061.1699999999}},{"attributes":{"ID":212599,"DIS_CODE":0,"TOWNNAME":"永康區","LI":"五王里","LIN":"13鄰","STREET":"中山東路","SECT":" ","MAREA":" ","LANE":"２１８巷","ALLEY":"２３弄","HOUSE_NO":"１６號","E_COORD97":171698.97,"N_COORD97":2545694.5099999998,"ADDRESS":"中山東路２１８巷２３弄１６號","OBJECTID":212598},"geometry":{"x":171698.97000000067,"y":2545694.5099999998}},{"attributes":{"ID":212600,"DIS_CODE":0,"TOWNNAME":"永康區","LI":"五王里","LIN":"13鄰","STREET":"中山東路","SECT":" ","MAREA":" ","LANE":"２１８巷","ALLEY":"２８弄","HOUSE_NO":"３號","E_COORD97":171690.67000000001,"N_COORD97":2545723.7599999998,"ADDRESS":"中山東路２１８巷２８弄３號","OBJECTID":212599},"geometry":{"x":171690.67000000179,"y":2545723.7599999998}},{"attributes":{"ID":212601,"DIS_CODE":0,"TOWNNAME":"永康區","LI":"五王里","LIN":"13鄰","STREET":"中華二路","SECT":" ","MAREA":" ","LANE":"２０６巷","ALLEY":"６８弄","HOUSE_NO":"１４３號","E_COORD97":171686.14000000001,"N_COORD97":2545682.46,"ADDRESS":"中華二路２０６巷６８弄１４３號","OBJECTID":212600},"geometry":{"x":171686.1400000006,"y":2545682.4600000009}}]}