{"displayFieldName":"TOWNNAME","fieldAliases":{"ID":"ID","DIS_CODE":"DIS_CODE","TOWNNAME":"TOWNNAME","LI":"LI","LIN":"LIN","STREET":"STREET","SECT":"SECT","MAREA":"MAREA","LANE":"LANE","ALLEY":"ALLEY","HOUSE_NO":"HOUSE_NO","E_COORD97":"E_COORD97","N_COORD97":"N_COORD97","ADDRESS":"ADDRESS","OBJECTID":"OBJECTID"},"geometryType":"esriGeometryPoint","spatialReference":{"wkid":102443,"latestWkid":3826},"fields":[{"name":"ID","type":"esriFieldTypeDouble","alias":"ID"},{"name":"DIS_CODE","type":"esriFieldTypeInteger","alias":"DIS_CODE"},{"name":"TOWNNAME","type":"esriFieldTypeString","alias":"TOWNNAME","length":8},{"name":"LI","type":"esriFieldTypeString","alias":"LI","length":8},{"name":"LIN","type":"esriFieldTypeString","alias":"LIN","length":12},{"name":"STREET","type":"esriFieldTypeString","alias":"STREET","length":20},{"name":"SECT","type":"esriFieldTypeString","alias":"SECT","length":8},{"name":"MAREA","type":"esriFieldTypeString","alias":"MAREA","length":12},{"name":"LANE","type":"esriFieldTypeString","alias":"LANE","length":10},{"name":"ALLEY","type":"esriFieldTypeString","alias":"ALLEY","length":10},{"name":"HOUSE_NO","type":"esriFieldTypeString","alias":"HOUSE_NO","length":20},{"name":"E_COORD97","type":"esriFieldTypeDouble","alias":"E_COORD97"},{"name":"N_COORD97","type":"esriFieldTypeDouble","alias":"N_COORD97"},{"name":"ADDRESS","type":"esriFieldTypeString","alias":"ADDRESS","length":50},{"name":"OBJECTID","type":"esriFieldTypeOID","alias":"OBJECTID"}],"features":[{"attributes":{"ID":253605,"DIS_CODE":0,"TOWNNAME":"東區","LI":"大智里","LIN":"16鄰","STREET":"德東街","SECT":" ","MAREA":" ","LANE":"１５１巷","ALLEY":" ","HOUSE_NO":"７８號","E_COORD97":171201.26000000001,"N_COORD97":2540461.96,"ADDRESS":"德東街１５１巷７８號","OBJECTID":253601},"geometry":{"x":171201.25999999978,"y":2540461.959999999}},{"attributes":{"ID":253606,"DIS_CODE":0,"TOWNNAME":"東區","LI":"大智里","LIN":"16鄰","STREET":"德東街","SECT":" ","MAREA":" ","LANE":"１５１巷","ALLEY":" ","HOUSE_NO":"７９號","E_COORD97":171180.01000000001,"N_COORD97":2540471.6000000001,"ADDRESS":"德東街１５１巷７９號","OBJECTID":253602},"geometry":{"x":171180.01000000071,"y":2540471.6000000015}},{"attributes":{"ID":253607,"DIS_CODE":0,"TOWNNAME":"東區","LI":"大智里","LIN":"17鄰","STREET":"德東街","SECT":" ","MAREA":" ","LANE":"１５１巷","ALLEY":" ","HOUSE_NO":"４０號","E_COORD97":171212.10999999999,"N_COORD97":2540375.96,"ADDRESS":"德東街１５１巷４０號","OBJECTID":253603},"geometry":{"x":171212.11000000127,"y":2540375.9600000009}},{"attributes":{"ID":253608,"DIS_CODE":0,"TOWNNAME":"東區","LI":"龍山里","LIN":"14鄰","STREET":"崇學路","SECT":" ","MAREA":" ","LANE":"２６３巷","ALLEY":" ","HOUSE_NO":"８６號","E_COORD97":170516.56,"N_COORD97":2542588.4700000002,"ADDRESS":"崇學路２６３巷８６號","OBJECTID":253604},"geometry":{"x":170516.56000000052,"y":2542588.4700000025}},{"attributes":{"ID":253609,"DIS_CODE":0,"TOWNNAME":"東區","LI":"龍山里","LIN":"14鄰","STREET":"崇學路","SECT":" ","MAREA":" ","LANE":"２６３巷","ALLEY":" ","HOUSE_NO":"８８號","E_COORD97":170519.64000000001,"N_COORD97":2542592.5099999998,"ADDRESS":"崇學路２６３巷８８號","OBJECTID":253605},"geometry":{"x":170519.6400000006,"y":2542592.5099999998}},{"attributes":{"ID":253610,"DIS_CODE":0,"TOWNNAME":"東區","LI":"龍山里","LIN":"14鄰","STREET":"崇學路","SECT":" ","MAREA":" ","LANE":"２６３巷","ALLEY":" ","HOUSE_NO":"９０號","E_COORD97":170523.22,"N_COORD97":2542595.6299999999,"ADDRESS":"崇學路２６３巷９０號","OBJECTID":253606},"geometry":{"x":170523.21999999974,"y":2542595.6300000008}},{"attributes":{"ID":253611,"DIS_CODE":0,"TOWNNAME":"東區","LI":"龍山里","LIN":"14鄰","STREET":"崇學路","SECT":" ","MAREA":" ","LANE":"２６３巷","ALLEY":" ","HOUSE_NO":"９２號","E_COORD97":170526.81,"N_COORD97":2542600.2999999998,"ADDRESS":"崇學路２６３巷９２號","OBJECTID":253607},"geometry":{"x":170526.81000000052,"y":2542600.3000000026}},{"attributes":{"ID":253612,"DIS_CODE":0,"TOWNNAME":"東區","LI":"龍山里","LIN":"14鄰","STREET":"崇學路","SECT":" ","MAREA":" ","LANE":"２６３巷","ALLEY":" ","HOUSE_NO":"９６號","E_COORD97":170512.14999999999,"N_COORD97":2542611.6699999999,"ADDRESS":"崇學路２６３巷９６號","OBJECTID":253608},"geometry":{"x":170512.1500000013,"y":2542611.6699999999}},{"attributes":{"ID":253613,"DIS_CODE":0,"TOWNNAME":"東區","LI":"龍山里","LIN":"14鄰","STREET":"崇學路","SECT":" ","MAREA":" ","LANE":"２６３巷","ALLEY":" ","HOUSE_NO":"９８號","E_COORD97":170508.41,"N_COORD97":2542607.6200000001,"ADDRESS":"崇學路２６３巷９８號","OBJECTID":253609},"geometry":{"x":170508.41000000108,"y":2542607.6200000048}},{"attributes":{"ID":253614,"DIS_CODE":0,"TOWNNAME":"中西區","LI":"民生里","LIN":"14鄰","STREET":"大勇街","SECT":" ","MAREA":" ","LANE":"９２巷","ALLEY":" ","HOUSE_NO":"１５號","E_COORD97":167148.59,"N_COORD97":2543430.4900000002,"ADDRESS":"大勇街９２巷１５號","OBJECTID":253610},"geometry":{"x":167148.59000000078,"y":2543430.4900000002}},{"attributes":{"ID":253615,"DIS_CODE":0,"TOWNNAME":"中西區","LI":"民生里","LIN":"14鄰","STREET":"大勇街","SECT":" ","MAREA":" ","LANE":"９２巷","ALLEY":" ","HOUSE_NO":"１７號","E_COORD97":167140.16,"N_COORD97":2543432.7599999998,"ADDRESS":"大勇街９２巷１７號","OBJECTID":253611},"geometry":{"x":167140.16000000108,"y":2543432.7600000016}},{"attributes":{"ID":253616,"DIS_CODE":0,"TOWNNAME":"中西區","LI":"民生里","LIN":"14鄰","STREET":"大勇街","SECT":" ","MAREA":" ","LANE":"９２巷","ALLEY":" ","HOUSE_NO":"１９號","E_COORD97":167136.04999999999,"N_COORD97":2543433.2200000002,"ADDRESS":"大勇街９２巷１９號","OBJECTID":253612},"geometry":{"x":167136.04999999981,"y":2543433.2200000007}},{"attributes":{"ID":253617,"DIS_CODE":0,"TOWNNAME":"中西區","LI":"民生里","LIN":"14鄰","STREET":"大勇街","SECT":" ","MAREA":" ","LANE":"９２巷","ALLEY":" ","HOUSE_NO":"２１號","E_COORD97":167131.95000000001,"N_COORD97":2543434.1299999999,"ADDRESS":"大勇街９２巷２１號","OBJECTID":253613},"geometry":{"x":167131.95000000019,"y":2543434.129999999}},{"attributes":{"ID":253618,"DIS_CODE":0,"TOWNNAME":"中西區","LI":"民生里","LIN":"14鄰","STREET":"大勇街","SECT":" ","MAREA":" ","LANE":"９２巷","ALLEY":" ","HOUSE_NO":"２３號","E_COORD97":167127.85000000001,"N_COORD97":2543435.04,"ADDRESS":"大勇街９２巷２３號","OBJECTID":253614},"geometry":{"x":167127.85000000056,"y":2543435.0399999991}},{"attributes":{"ID":253619,"DIS_CODE":0,"TOWNNAME":"中西區","LI":"民生里","LIN":"14鄰","STREET":"大勇街","SECT":" ","MAREA":" ","LANE":"９２巷","ALLEY":" ","HOUSE_NO":"２５號","E_COORD97":167123.06,"N_COORD97":2543436.8599999999,"ADDRESS":"大勇街９２巷２５號","OBJECTID":253615},"geometry":{"x":167123.06000000052,"y":2543436.8599999994}},{"attributes":{"ID":253620,"DIS_CODE":0,"TOWNNAME":"六甲區","LI":"六甲里","LIN":"5鄰","STREET":"民權街","SECT":" ","MAREA":" ","LANE":"１８巷","ALLEY":" ","HOUSE_NO":"１７號","E_COORD97":183472.10999999999,"N_COORD97":2569688.2200000002,"ADDRESS":"民權街１８巷１７號","OBJECTID":253616},"geometry":{"x":183472.11000000127,"y":2569688.2200000007}},{"attributes":{"ID":253621,"DIS_CODE":0,"TOWNNAME":"中西區","LI":"民生里","LIN":"14鄰","STREET":"大勇街","SECT":" ","MAREA":" ","LANE":"９２巷","ALLEY":" ","HOUSE_NO":"２７號","E_COORD97":167117.82000000001,"N_COORD97":2543437.77,"ADDRESS":"大勇街９２巷２７號","OBJECTID":253617},"geometry":{"x":167117.8200000003,"y":2543437.7699999996}},{"attributes":{"ID":253622,"DIS_CODE":0,"TOWNNAME":"中西區","LI":"民生里","LIN":"14鄰","STREET":"大仁街","SECT":" ","MAREA":" ","LANE":"１３９巷","ALLEY":" ","HOUSE_NO":"３７號","E_COORD97":167129.22,"N_COORD97":2543452.8900000001,"ADDRESS":"大仁街１３９巷３７號","OBJECTID":253618},"geometry":{"x":167129.21999999974,"y":2543452.8900000043}},{"attributes":{"ID":253623,"DIS_CODE":0,"TOWNNAME":"中西區","LI":"民生里","LIN":"14鄰","STREET":"大仁街","SECT":" ","MAREA":" ","LANE":"１３９巷","ALLEY":" ","HOUSE_NO":"１３號","E_COORD97":167182.32000000001,"N_COORD97":2543442.1899999999,"ADDRESS":"大仁街１３９巷１３號","OBJECTID":253619},"geometry":{"x":167182.3200000003,"y":2543442.1899999995}},{"attributes":{"ID":253624,"DIS_CODE":0,"TOWNNAME":"東山區","LI":"東中里","LIN":"24鄰","STREET":"鳳安一街","SECT":" ","MAREA":" ","LANE":" ","ALLEY":" ","HOUSE_NO":"７０號","E_COORD97":188765.57999999999,"N_COORD97":2579736.98,"ADDRESS":"鳳安一街７０號","OBJECTID":253620},"geometry":{"x":188765.58000000101,"y":2579736.9800000023}},{"attributes":{"ID":253625,"DIS_CODE":0,"TOWNNAME":"東山區","LI":"東中里","LIN":"24鄰","STREET":"鳳安一街","SECT":" ","MAREA":" ","LANE":" ","ALLEY":" ","HOUSE_NO":"７２號","E_COORD97":188728.04999999999,"N_COORD97":2579736.2799999998,"ADDRESS":"鳳安一街７２號","OBJECTID":253621},"geometry":{"x":188728.05000000168,"y":2579736.2800000012}},{"attributes":{"ID":253626,"DIS_CODE":0,"TOWNNAME":"東山區","LI":"東中里","LIN":"24鄰","STREET":"鳳安一街","SECT":" ","MAREA":" ","LANE":" ","ALLEY":" ","HOUSE_NO":"７６號","E_COORD97":188723.57000000001,"N_COORD97":2579737.2799999998,"ADDRESS":"鳳安一街７６號","OBJECTID":253622},"geometry":{"x":188723.57000000123,"y":2579737.2800000012}},{"attributes":{"ID":253627,"DIS_CODE":0,"TOWNNAME":"東山區","LI":"東中里","LIN":"24鄰","STREET":"鳳安一街","SECT":" ","MAREA":" ","LANE":" ","ALLEY":" ","HOUSE_NO":"７８號","E_COORD97":188719.29000000001,"N_COORD97":2579738.2999999998,"ADDRESS":"鳳安一街７８號","OBJECTID":253623},"geometry":{"x":188719.29000000004,"y":2579738.3000000026}},{"attributes":{"ID":253628,"DIS_CODE":0,"TOWNNAME":"東山區","LI":"東中里","LIN":"24鄰","STREET":"鳳安一街","SECT":" ","MAREA":" ","LANE":" ","ALLEY":" ","HOUSE_NO":"８０號","E_COORD97":188713.14999999999,"N_COORD97":2579739.8900000001,"ADDRESS":"鳳安一街８０號","OBJECTID":253624},"geometry":{"x":188713.1500000013,"y":2579739.8900000043}},{"attributes":{"ID":253629,"DIS_CODE":0,"TOWNNAME":"中西區","LI":"民生里","LIN":"14鄰","STREET":"大仁街","SECT":" ","MAREA":" ","LANE":"１３９巷","ALLEY":" ","HOUSE_NO":"１５號","E_COORD97":167177.98999999999,"N_COORD97":2543442.6499999999,"ADDRESS":"大仁街１３９巷１５號","OBJECTID":253625},"geometry":{"x":167177.99000000115,"y":2543442.6500000004}},{"attributes":{"ID":253630,"DIS_CODE":0,"TOWNNAME":"中西區","LI":"民生里","LIN":"14鄰","STREET":"大仁街","SECT":" ","MAREA":" ","LANE":"１３９巷","ALLEY":" ","HOUSE_NO":"１７號","E_COORD97":167174.12,"N_COORD97":2543443.79,"ADDRESS":"大仁街１３９巷１７號","OBJECTID":253626},"geometry":{"x":167174.12000000104,"y":2543443.7899999991}},{"attributes":{"ID":253631,"DIS_CODE":0,"TOWNNAME":"中西區","LI":"民生里","LIN":"14鄰","STREET":"大仁街","SECT":" ","MAREA":" ","LANE":"１３９巷","ALLEY":" ","HOUSE_NO":"１９號","E_COORD97":167169.79000000001,"N_COORD97":2543442.8700000001,"ADDRESS":"大仁街１３９巷１９號","OBJECTID":253627},"geometry":{"x":167169.79000000004,"y":2543442.8699999992}},{"attributes":{"ID":253632,"DIS_CODE":0,"TOWNNAME":"中西區","LI":"民生里","LIN":"14鄰","STREET":"大仁街","SECT":" ","MAREA":" ","LANE":"１３９巷","ALLEY":" ","HOUSE_NO":"２１號","E_COORD97":167165.91,"N_COORD97":2543443.79,"ADDRESS":"大仁街１３９巷２１號","OBJECTID":253628},"geometry":{"x":167165.91000000015,"y":2543443.7899999991}},{"attributes":{"ID":253633,"DIS_CODE":0,"TOWNNAME":"白河區","LI":"關嶺里","LIN":"11鄰","STREET":" ","SECT":" ","MAREA":"南寮","LANE":" ","ALLEY":" ","HOUSE_NO":"５２號","E_COORD97":199418.66,"N_COORD97":2577980.3500000001,"ADDRESS":"南寮５２號","OBJECTID":253629},"geometry":{"x":199418.66000000015,"y":2577980.3500000015}},{"attributes":{"ID":253634,"DIS_CODE":0,"TOWNNAME":"中西區","LI":"民生里","LIN":"14鄰","STREET":"大仁街","SECT":" ","MAREA":" ","LANE":"１３９巷","ALLEY":" ","HOUSE_NO":"２３號","E_COORD97":167162.26999999999,"N_COORD97":2543444.4700000002,"ADDRESS":"大仁街１３９巷２３號","OBJECTID":253630},"geometry":{"x":167162.27000000048,"y":2543444.4700000007}},{"attributes":{"ID":253635,"DIS_CODE":0,"TOWNNAME":"永康區","LI":"永康里","LIN":"14鄰","STREET":"永中街","SECT":" ","MAREA":" ","LANE":"６０巷","ALLEY":" ","HOUSE_NO":"２６號","E_COORD97":173991.92999999999,"N_COORD97":2547106.8300000001,"ADDRESS":"永中街６０巷２６號","OBJECTID":253631},"geometry":{"x":173991.9299999997,"y":2547106.8300000001}},{"attributes":{"ID":253636,"DIS_CODE":0,"TOWNNAME":"永康區","LI":"安康里","LIN":"14鄰","STREET":"中華路","SECT":" ","MAREA":" ","LANE":"６１９巷","ALLEY":" ","HOUSE_NO":"８２號","E_COORD97":170882.07999999999,"N_COORD97":2546013.75,"ADDRESS":"中華路６１９巷８２號","OBJECTID":253632},"geometry":{"x":170882.08000000007,"y":2546013.7500000019}},{"attributes":{"ID":253637,"DIS_CODE":0,"TOWNNAME":"永康區","LI":"安康里","LIN":"14鄰","STREET":"中華路","SECT":" ","MAREA":" ","LANE":"６１９巷","ALLEY":" ","HOUSE_NO":"７０號","E_COORD97":170905.23999999999,"N_COORD97":2546027,"ADDRESS":"中華路６１９巷７０號","OBJECTID":253633},"geometry":{"x":170905.24000000022,"y":2546027}},{"attributes":{"ID":253638,"DIS_CODE":0,"TOWNNAME":"永康區","LI":"永康里","LIN":"14鄰","STREET":"永中街","SECT":" ","MAREA":" ","LANE":"６０巷","ALLEY":" ","HOUSE_NO":"２２號","E_COORD97":173986.37,"N_COORD97":2547110.6099999999,"ADDRESS":"永中街６０巷２２號","OBJECTID":253634},"geometry":{"x":173986.37000000197,"y":2547110.6099999994}},{"attributes":{"ID":253639,"DIS_CODE":0,"TOWNNAME":"永康區","LI":"甲頂里","LIN":"14鄰","STREET":"大武街","SECT":" ","MAREA":" ","LANE":"１８巷","ALLEY":" ","HOUSE_NO":"１３號","E_COORD97":170339.98999999999,"N_COORD97":2546649.9100000001,"ADDRESS":"大武街１８巷１３號","OBJECTID":253635},"geometry":{"x":170339.99000000115,"y":2546649.910000002}},{"attributes":{"ID":253640,"DIS_CODE":0,"TOWNNAME":"永康區","LI":"西橋里","LIN":"14鄰","STREET":"中華西街","SECT":" ","MAREA":" ","LANE":"２３１巷","ALLEY":" ","HOUSE_NO":"１１號","E_COORD97":170599.16,"N_COORD97":2546397.9900000002,"ADDRESS":"中華西街２３１巷１１號","OBJECTID":253636},"geometry":{"x":170599.16000000201,"y":2546397.9900000039}},{"attributes":{"ID":253641,"DIS_CODE":0,"TOWNNAME":"永康區","LI":"正強里","LIN":"14鄰","STREET":"自強路","SECT":" ","MAREA":" ","LANE":"１８８巷","ALLEY":" ","HOUSE_NO":"５９號","E_COORD97":173230.16,"N_COORD97":2547320.3300000001,"ADDRESS":"自強路１８８巷５９號","OBJECTID":253637},"geometry":{"x":173230.16000000201,"y":2547320.3300000001}},{"attributes":{"ID":253642,"DIS_CODE":0,"TOWNNAME":"永康區","LI":"永康里","LIN":"14鄰","STREET":"永中街","SECT":" ","MAREA":" ","LANE":"６０巷","ALLEY":" ","HOUSE_NO":"２５號","E_COORD97":174001.57999999999,"N_COORD97":2547118.3999999999,"ADDRESS":"永中街６０巷２５號","OBJECTID":253638},"geometry":{"x":174001.58000000007,"y":2547118.4000000022}},{"attributes":{"ID":253643,"DIS_CODE":0,"TOWNNAME":"永康區","LI":"安康里","LIN":"14鄰","STREET":"中華路","SECT":" ","MAREA":" ","LANE":"６１９巷","ALLEY":" ","HOUSE_NO":"７４號","E_COORD97":170898.20999999999,"N_COORD97":2546022.75,"ADDRESS":"中華路６１９巷７４號","OBJECTID":253639},"geometry":{"x":170898.20999999996,"y":2546022.7500000037}},{"attributes":{"ID":253644,"DIS_CODE":0,"TOWNNAME":"永康區","LI":"永康里","LIN":"14鄰","STREET":"永中街","SECT":" ","MAREA":" ","LANE":"１００巷","ALLEY":" ","HOUSE_NO":"３６號","E_COORD97":174069.04000000001,"N_COORD97":2547099.1699999999,"ADDRESS":"永中街１００巷３６號","OBJECTID":253640},"geometry":{"x":174069.04000000097,"y":2547099.1700000018}},{"attributes":{"ID":253645,"DIS_CODE":0,"TOWNNAME":"中西區","LI":"三合里","LIN":"14鄰","STREET":"信義街","SECT":" ","MAREA":" ","LANE":"１０８巷","ALLEY":" ","HOUSE_NO":"１６號","E_COORD97":167492.28,"N_COORD97":2544614.2599999998,"ADDRESS":"信義街１０８巷１６號","OBJECTID":253641},"geometry":{"x":167492.28000000026,"y":2544614.2599999998}},{"attributes":{"ID":253646,"DIS_CODE":0,"TOWNNAME":"中西區","LI":"民生里","LIN":"14鄰","STREET":"大勇街","SECT":" ","MAREA":" ","LANE":"９２巷","ALLEY":" ","HOUSE_NO":"１３號","E_COORD97":167154.29000000001,"N_COORD97":2543438.6800000002,"ADDRESS":"大勇街９２巷１３號","OBJECTID":253642},"geometry":{"x":167154.29000000097,"y":2543438.6799999997}},{"attributes":{"ID":253647,"DIS_CODE":0,"TOWNNAME":"中西區","LI":"民生里","LIN":"14鄰","STREET":"大仁街","SECT":" ","MAREA":" ","LANE":"１３９巷","ALLEY":" ","HOUSE_NO":"１１號","E_COORD97":167185.97,"N_COORD97":2543441.7400000002,"ADDRESS":"大仁街１３９巷１１號","OBJECTID":253643},"geometry":{"x":167185.9700000016,"y":2543441.7400000002}},{"attributes":{"ID":253648,"DIS_CODE":0,"TOWNNAME":"中西區","LI":"民生里","LIN":"14鄰","STREET":"大仁街","SECT":" ","MAREA":" ","LANE":"１３９巷","ALLEY":" ","HOUSE_NO":"２７號","E_COORD97":167153.14999999999,"N_COORD97":2543447.4300000002,"ADDRESS":"大仁街１３９巷２７號","OBJECTID":253644},"geometry":{"x":167153.15000000224,"y":2543447.4299999997}},{"attributes":{"ID":253649,"DIS_CODE":0,"TOWNNAME":"安平區","LI":"怡平里","LIN":"26鄰","STREET":"平通路","SECT":" ","MAREA":" ","LANE":"３６５巷","ALLEY":" ","HOUSE_NO":"３０號","E_COORD97":165654.48000000001,"N_COORD97":2543639.3100000001,"ADDRESS":"平通路３６５巷３０號","OBJECTID":253645},"geometry":{"x":165654.48000000138,"y":2543639.3100000005}},{"attributes":{"ID":253650,"DIS_CODE":0,"TOWNNAME":"安平區","LI":"怡平里","LIN":"26鄰","STREET":"平通路","SECT":" ","MAREA":" ","LANE":"３６５巷","ALLEY":" ","HOUSE_NO":"３２號","E_COORD97":165653.12,"N_COORD97":2543627.7799999998,"ADDRESS":"平通路３６５巷３２號","OBJECTID":253646},"geometry":{"x":165653.12000000104,"y":2543627.7799999993}},{"attributes":{"ID":253651,"DIS_CODE":0,"TOWNNAME":"安平區","LI":"怡平里","LIN":"26鄰","STREET":"平通路","SECT":" ","MAREA":" ","LANE":"３６５巷","ALLEY":" ","HOUSE_NO":"３４號","E_COORD97":165651.53,"N_COORD97":2543616.7000000002,"ADDRESS":"平通路３６５巷３４號","OBJECTID":253647},"geometry":{"x":165651.53000000026,"y":2543616.7000000011}},{"attributes":{"ID":253652,"DIS_CODE":0,"TOWNNAME":"新化區","LI":"太平里","LIN":"14鄰","STREET":"民權街","SECT":" ","MAREA":" ","LANE":"１２０巷","ALLEY":" ","HOUSE_NO":"１號","E_COORD97":178745.01000000001,"N_COORD97":2548813.25,"ADDRESS":"民權街１２０巷１號","OBJECTID":253648},"geometry":{"x":178745.00999999978,"y":2548813.2500000037}},{"attributes":{"ID":253653,"DIS_CODE":0,"TOWNNAME":"新化區","LI":"協興里","LIN":"14鄰","STREET":"太平街","SECT":" ","MAREA":" ","LANE":"１５０巷","ALLEY":" ","HOUSE_NO":"３５號","E_COORD97":178322.87,"N_COORD97":2548781.25,"ADDRESS":"太平街１５０巷３５號","OBJECTID":253649},"geometry":{"x":178322.87000000104,"y":2548781.25}},{"attributes":{"ID":253654,"DIS_CODE":0,"TOWNNAME":"安南區","LI":"淵東里","LIN":"14鄰","STREET":"智安二街","SECT":" ","MAREA":" ","LANE":"１０３巷","ALLEY":" ","HOUSE_NO":"１１號","E_COORD97":165650.72,"N_COORD97":2550304.9500000002,"ADDRESS":"智安二街１０３巷１１號","OBJECTID":253650},"geometry":{"x":165650.72000000067,"y":2550304.9499999993}},{"attributes":{"ID":253655,"DIS_CODE":0,"TOWNNAME":"安南區","LI":"淵東里","LIN":"14鄰","STREET":"智安二街","SECT":" ","MAREA":" ","LANE":"１０３巷","ALLEY":" ","HOUSE_NO":"１３號","E_COORD97":165647.32999999999,"N_COORD97":2550303.4700000002,"ADDRESS":"智安二街１０３巷１３號","OBJECTID":253651},"geometry":{"x":165647.33000000007,"y":2550303.4700000007}},{"attributes":{"ID":253656,"DIS_CODE":0,"TOWNNAME":"安南區","LI":"淵東里","LIN":"14鄰","STREET":"智安二街","SECT":" ","MAREA":" ","LANE":"１０３巷","ALLEY":" ","HOUSE_NO":"１５號","E_COORD97":165642.87,"N_COORD97":2550302.52,"ADDRESS":"智安二街１０３巷１５號","OBJECTID":253652},"geometry":{"x":165642.87000000104,"y":2550302.5200000033}},{"attributes":{"ID":253657,"DIS_CODE":0,"TOWNNAME":"安南區","LI":"淵東里","LIN":"14鄰","STREET":"智安二街","SECT":" ","MAREA":" ","LANE":"１０３巷","ALLEY":" ","HOUSE_NO":"１７號","E_COORD97":165638.85000000001,"N_COORD97":2550301.46,"ADDRESS":"智安二街１０３巷１７號","OBJECTID":253653},"geometry":{"x":165638.8499999987,"y":2550301.4600000028}},{"attributes":{"ID":253658,"DIS_CODE":0,"TOWNNAME":"安南區","LI":"淵東里","LIN":"14鄰","STREET":"智安二街","SECT":" ","MAREA":" ","LANE":"１０３巷","ALLEY":" ","HOUSE_NO":"１９號","E_COORD97":165634.14999999999,"N_COORD97":2550300.25,"ADDRESS":"智安二街１０３巷１９號","OBJECTID":253654},"geometry":{"x":165634.15000000037,"y":2550300.25}},{"attributes":{"ID":253659,"DIS_CODE":0,"TOWNNAME":"安南區","LI":"淵東里","LIN":"14鄰","STREET":"智安二街","SECT":" ","MAREA":" ","LANE":"１０３巷","ALLEY":" ","HOUSE_NO":"２１號","E_COORD97":165630.01000000001,"N_COORD97":2550299.02,"ADDRESS":"智安二街１０３巷２１號","OBJECTID":253655},"geometry":{"x":165630.01000000071,"y":2550299.0199999977}},{"attributes":{"ID":253660,"DIS_CODE":0,"TOWNNAME":"安南區","LI":"淵東里","LIN":"14鄰","STREET":"智安二街","SECT":" ","MAREA":" ","LANE":"１０３巷","ALLEY":" ","HOUSE_NO":"２３號","E_COORD97":165625.53,"N_COORD97":2550297.7599999998,"ADDRESS":"智安二街１０３巷２３號","OBJECTID":253656},"geometry":{"x":165625.53000000119,"y":2550297.7600000035}},{"attributes":{"ID":253661,"DIS_CODE":0,"TOWNNAME":"永康區","LI":"復國里","LIN":"15鄰","STREET":"復華五街","SECT":" ","MAREA":" ","LANE":" ","ALLEY":" ","HOUSE_NO":"８號","E_COORD97":172892.81378500001,"N_COORD97":2545716.3644300001,"ADDRESS":"復華五街８號","OBJECTID":253657},"geometry":{"x":172892.81378500164,"y":2545716.3644270021}},{"attributes":{"ID":253662,"DIS_CODE":0,"TOWNNAME":"北區","LI":"長榮里","LIN":"11鄰","STREET":"長榮路","SECT":"五段","MAREA":" ","LANE":"４１巷","ALLEY":" ","HOUSE_NO":"５號十樓之２","E_COORD97":170084.45999999999,"N_COORD97":2545440.8199999998,"ADDRESS":"長榮路五段４１巷５號十樓之２","OBJECTID":253658},"geometry":{"x":170084.45999999996,"y":2545440.8200000022}},{"attributes":{"ID":253663,"DIS_CODE":0,"TOWNNAME":"北區","LI":"長榮里","LIN":"11鄰","STREET":"長榮路","SECT":"五段","MAREA":" ","LANE":"４１巷","ALLEY":" ","HOUSE_NO":"５號十樓之３","E_COORD97":170084.45999999999,"N_COORD97":2545440.8199999998,"ADDRESS":"長榮路五段４１巷５號十樓之３","OBJECTID":253659},"geometry":{"x":170084.45999999996,"y":2545440.8200000022}},{"attributes":{"ID":253664,"DIS_CODE":0,"TOWNNAME":"北區","LI":"長榮里","LIN":"11鄰","STREET":"長榮路","SECT":"五段","MAREA":" ","LANE":"４１巷","ALLEY":" ","HOUSE_NO":"５號十樓之５","E_COORD97":170084.45999999999,"N_COORD97":2545440.8199999998,"ADDRESS":"長榮路五段４１巷５號十樓之５","OBJECTID":253660},"geometry":{"x":170084.45999999996,"y":2545440.8200000022}},{"attributes":{"ID":253665,"DIS_CODE":0,"TOWNNAME":"北區","LI":"長榮里","LIN":"11鄰","STREET":"長榮路","SECT":"五段","MAREA":" ","LANE":"４１巷","ALLEY":" ","HOUSE_NO":"５號十一樓之１","E_COORD97":170084.45999999999,"N_COORD97":2545440.8199999998,"ADDRESS":"長榮路五段４１巷５號十一樓之１","OBJECTID":253661},"geometry":{"x":170084.45999999996,"y":2545440.8200000022}},{"attributes":{"ID":253666,"DIS_CODE":0,"TOWNNAME":"北區","LI":"長榮里","LIN":"11鄰","STREET":"長榮路","SECT":"五段","MAREA":" ","LANE":"４１巷","ALLEY":" ","HOUSE_NO":"５號十一樓之２","E_COORD97":170084.45999999999,"N_COORD97":2545440.8199999998,"ADDRESS":"長榮路五段４１巷５號十一樓之２","OBJECTID":253662},"geometry":{"x":170084.45999999996,"y":2545440.8200000022}},{"attributes":{"ID":253667,"DIS_CODE":0,"TOWNNAME":"北區","LI":"長榮里","LIN":"11鄰","STREET":"長榮路","SECT":"五段","MAREA":" ","LANE":"４１巷","ALLEY":" ","HOUSE_NO":"５號十一樓之３","E_COORD97":170084.45999999999,"N_COORD97":2545440.8199999998,"ADDRESS":"長榮路五段４１巷５號十一樓之３","OBJECTID":253663},"geometry":{"x":170084.45999999996,"y":2545440.8200000022}},{"attributes":{"ID":253668,"DIS_CODE":0,"TOWNNAME":"北區","LI":"長榮里","LIN":"11鄰","STREET":"長榮路","SECT":"五段","MAREA":" ","LANE":"４１巷","ALLEY":" ","HOUSE_NO":"５號十一樓之５","E_COORD97":170084.45999999999,"N_COORD97":2545440.8199999998,"ADDRESS":"長榮路五段４１巷５號十一樓之５","OBJECTID":253664},"geometry":{"x":170084.45999999996,"y":2545440.8200000022}},{"attributes":{"ID":253669,"DIS_CODE":0,"TOWNNAME":"北區","LI":"長榮里","LIN":"11鄰","STREET":"長榮路","SECT":"五段","MAREA":" ","LANE":"４１巷","ALLEY":" ","HOUSE_NO":"５號十二樓之１","E_COORD97":170084.45999999999,"N_COORD97":2545440.8199999998,"ADDRESS":"長榮路五段４１巷５號十二樓之１","OBJECTID":253665},"geometry":{"x":170084.45999999996,"y":2545440.8200000022}},{"attributes":{"ID":253670,"DIS_CODE":0,"TOWNNAME":"北區","LI":"長榮里","LIN":"11鄰","STREET":"長榮路","SECT":"五段","MAREA":" ","LANE":"４１巷","ALLEY":" ","HOUSE_NO":"５號十二樓之２","E_COORD97":170084.45999999999,"N_COORD97":2545440.8199999998,"ADDRESS":"長榮路五段４１巷５號十二樓之２","OBJECTID":253666},"geometry":{"x":170084.45999999996,"y":2545440.8200000022}},{"attributes":{"ID":253671,"DIS_CODE":0,"TOWNNAME":"北區","LI":"長榮里","LIN":"11鄰","STREET":"長榮路","SECT":"五段","MAREA":" ","LANE":"４１巷","ALLEY":" ","HOUSE_NO":"５號十二樓之３","E_COORD97":170084.45999999999,"N_COORD97":2545440.8199999998,"ADDRESS":"長榮路五段４１巷５號十二樓之３","OBJECTID":253667},"geometry":{"x":170084.45999999996,"y":2545440.8200000022}},{"attributes":{"ID":253672,"DIS_CODE":0,"TOWNNAME":"北區","LI":"長榮里","LIN":"11鄰","STREET":"長榮路","SECT":"五段","MAREA":" ","LANE":"４１巷","ALLEY":" ","HOUSE_NO":"５號十二樓之５","E_COORD97":170084.45999999999,"N_COORD97":2545440.8199999998,"ADDRESS":"長榮路五段４１巷５號十二樓之５","OBJECTID":253668},"geometry":{"x":170084.45999999996,"y":2545440.8200000022}},{"attributes":{"ID":253673,"DIS_CODE":0,"TOWNNAME":"北區","LI":"長榮里","LIN":"11鄰","STREET":"長榮路","SECT":"五段","MAREA":" ","LANE":"４１巷","ALLEY":" ","HOUSE_NO":"５號十三樓之１","E_COORD97":170084.45999999999,"N_COORD97":2545440.8199999998,"ADDRESS":"長榮路五段４１巷５號十三樓之１","OBJECTID":253669},"geometry":{"x":170084.45999999996,"y":2545440.8200000022}},{"attributes":{"ID":253674,"DIS_CODE":0,"TOWNNAME":"安南區","LI":"淵東里","LIN":"14鄰","STREET":"智安二街","SECT":" ","MAREA":" ","LANE":"１０３巷","ALLEY":" ","HOUSE_NO":"２５號","E_COORD97":165622.07000000001,"N_COORD97":2550296.25,"ADDRESS":"智安二街１０３巷２５號","OBJECTID":253670},"geometry":{"x":165622.0700000003,"y":2550296.2500000019}},{"attributes":{"ID":253675,"DIS_CODE":0,"TOWNNAME":"安南區","LI":"淵東里","LIN":"14鄰","STREET":"智安二街","SECT":" ","MAREA":" ","LANE":"１０３巷","ALLEY":" ","HOUSE_NO":"２７號","E_COORD97":165618.20000000001,"N_COORD97":2550295.1400000001,"ADDRESS":"智安二街１０３巷２７號","OBJECTID":253671},"geometry":{"x":165618.20000000019,"y":2550295.1400000006}},{"attributes":{"ID":253676,"DIS_CODE":0,"TOWNNAME":"安南區","LI":"淵東里","LIN":"14鄰","STREET":"智安二街","SECT":" ","MAREA":" ","LANE":"１０３巷","ALLEY":" ","HOUSE_NO":"２９號","E_COORD97":165614.32999999999,"N_COORD97":2550293.7599999998,"ADDRESS":"智安二街１０３巷２９號","OBJECTID":253672},"geometry":{"x":165614.33000000101,"y":2550293.7599999998}},{"attributes":{"ID":253677,"DIS_CODE":0,"TOWNNAME":"安南區","LI":"淵東里","LIN":"14鄰","STREET":"智安二街","SECT":" ","MAREA":" ","LANE":"１０３巷","ALLEY":" ","HOUSE_NO":"３１號","E_COORD97":165608.39000000001,"N_COORD97":2550288.9300000002,"ADDRESS":"智安二街１０３巷３１號","OBJECTID":253673},"geometry":{"x":165608.3900000006,"y":2550288.9299999997}},{"attributes":{"ID":253678,"DIS_CODE":0,"TOWNNAME":"東山區","LI":"東中里","LIN":"24鄰","STREET":"鳳安一街","SECT":" ","MAREA":" ","LANE":" ","ALLEY":" ","HOUSE_NO":"８２號","E_COORD97":188706.97,"N_COORD97":2579741.5,"ADDRESS":"鳳安一街８２號","OBJECTID":253674},"geometry":{"x":188706.97000000067,"y":2579741.5}},{"attributes":{"ID":253679,"DIS_CODE":0,"TOWNNAME":"東山區","LI":"東中里","LIN":"24鄰","STREET":"鳳安一街","SECT":" ","MAREA":" ","LANE":" ","ALLEY":" ","HOUSE_NO":"８６號","E_COORD97":188702.59,"N_COORD97":2579742.6099999999,"ADDRESS":"鳳安一街８６號","OBJECTID":253675},"geometry":{"x":188702.59000000078,"y":2579742.6099999994}},{"attributes":{"ID":253680,"DIS_CODE":0,"TOWNNAME":"東山區","LI":"東中里","LIN":"24鄰","STREET":"鳳安一街","SECT":" ","MAREA":" ","LANE":" ","ALLEY":" ","HOUSE_NO":"８８號","E_COORD97":188698.64000000001,"N_COORD97":2579743.5899999999,"ADDRESS":"鳳安一街８８號","OBJECTID":253676},"geometry":{"x":188698.6400000006,"y":2579743.5899999999}},{"attributes":{"ID":253681,"DIS_CODE":0,"TOWNNAME":"東山區","LI":"東中里","LIN":"24鄰","STREET":"鳳安一街","SECT":" ","MAREA":" ","LANE":" ","ALLEY":" ","HOUSE_NO":"９０號","E_COORD97":188694.32999999999,"N_COORD97":2579744.6499999999,"ADDRESS":"鳳安一街９０號","OBJECTID":253677},"geometry":{"x":188694.33000000101,"y":2579744.6500000041}},{"attributes":{"ID":253682,"DIS_CODE":0,"TOWNNAME":"東山區","LI":"東中里","LIN":"24鄰","STREET":"鳳安二街","SECT":" ","MAREA":" ","LANE":" ","ALLEY":" ","HOUSE_NO":"１０號","E_COORD97":188660.73999999999,"N_COORD97":2579780.4500000002,"ADDRESS":"鳳安二街１０號","OBJECTID":253678},"geometry":{"x":188660.74000000022,"y":2579780.4499999993}},{"attributes":{"ID":253683,"DIS_CODE":0,"TOWNNAME":"東山區","LI":"東中里","LIN":"24鄰","STREET":"鳳安二街","SECT":" ","MAREA":" ","LANE":" ","ALLEY":" ","HOUSE_NO":"１２號","E_COORD97":188660.37,"N_COORD97":2579784.6099999999,"ADDRESS":"鳳安二街１２號","OBJECTID":253679},"geometry":{"x":188660.37000000104,"y":2579784.6100000031}},{"attributes":{"ID":253684,"DIS_CODE":0,"TOWNNAME":"東山區","LI":"東中里","LIN":"24鄰","STREET":"鳳安二街","SECT":" ","MAREA":" ","LANE":" ","ALLEY":" ","HOUSE_NO":"１６號","E_COORD97":188660.01999999999,"N_COORD97":2579788.75,"ADDRESS":"鳳安二街１６號","OBJECTID":253680},"geometry":{"x":188660.02000000142,"y":2579788.7500000019}},{"attributes":{"ID":253685,"DIS_CODE":0,"TOWNNAME":"東山區","LI":"東中里","LIN":"24鄰","STREET":"鳳安二街","SECT":" ","MAREA":" ","LANE":" ","ALLEY":" ","HOUSE_NO":"１８號","E_COORD97":188659.59,"N_COORD97":2579793.0099999998,"ADDRESS":"鳳安二街１８號","OBJECTID":253681},"geometry":{"x":188659.58999999985,"y":2579793.0100000016}},{"attributes":{"ID":253686,"DIS_CODE":0,"TOWNNAME":"東山區","LI":"東中里","LIN":"24鄰","STREET":"鳳安二街","SECT":" ","MAREA":" ","LANE":" ","ALLEY":" ","HOUSE_NO":"２０號","E_COORD97":188658.95999999999,"N_COORD97":2579797.3399999999,"ADDRESS":"鳳安二街２０號","OBJECTID":253682},"geometry":{"x":188658.95999999996,"y":2579797.3400000017}},{"attributes":{"ID":253687,"DIS_CODE":0,"TOWNNAME":"東山區","LI":"東中里","LIN":"24鄰","STREET":"鳳安二街","SECT":" ","MAREA":" ","LANE":" ","ALLEY":" ","HOUSE_NO":"２２號","E_COORD97":188658.5,"N_COORD97":2579801.6000000001,"ADDRESS":"鳳安二街２２號","OBJECTID":253683},"geometry":{"x":188658.5,"y":2579801.5999999978}},{"attributes":{"ID":253688,"DIS_CODE":0,"TOWNNAME":"東山區","LI":"東中里","LIN":"24鄰","STREET":"鳳安二街","SECT":" ","MAREA":" ","LANE":" ","ALLEY":" ","HOUSE_NO":"２６號","E_COORD97":188657.95999999999,"N_COORD97":2579805.8599999999,"ADDRESS":"鳳安二街２６號","OBJECTID":253684},"geometry":{"x":188657.96000000089,"y":2579805.8599999994}},{"attributes":{"ID":253689,"DIS_CODE":0,"TOWNNAME":"東山區","LI":"東中里","LIN":"24鄰","STREET":"鳳安二街","SECT":" ","MAREA":" ","LANE":" ","ALLEY":" ","HOUSE_NO":"２８號","E_COORD97":188657.14999999999,"N_COORD97":2579810.2000000002,"ADDRESS":"鳳安二街２８號","OBJECTID":253685},"geometry":{"x":188657.1500000013,"y":2579810.1999999993}},{"attributes":{"ID":253690,"DIS_CODE":0,"TOWNNAME":"東山區","LI":"東中里","LIN":"24鄰","STREET":"鳳安二街","SECT":" ","MAREA":" ","LANE":" ","ALLEY":" ","HOUSE_NO":"３０號","E_COORD97":188656.35999999999,"N_COORD97":2579814.3500000001,"ADDRESS":"鳳安二街３０號","OBJECTID":253686},"geometry":{"x":188656.36000000034,"y":2579814.3500000015}},{"attributes":{"ID":253691,"DIS_CODE":0,"TOWNNAME":"東山區","LI":"東中里","LIN":"24鄰","STREET":"鳳安二街","SECT":" ","MAREA":" ","LANE":" ","ALLEY":" ","HOUSE_NO":"３２號","E_COORD97":188655.84,"N_COORD97":2579817.7400000002,"ADDRESS":"鳳安二街３２號","OBJECTID":253687},"geometry":{"x":188655.83999999985,"y":2579817.7400000002}},{"attributes":{"ID":253692,"DIS_CODE":0,"TOWNNAME":"東山區","LI":"東中里","LIN":"24鄰","STREET":"鳳安二街","SECT":" ","MAREA":" ","LANE":" ","ALLEY":" ","HOUSE_NO":"３８號","E_COORD97":188653.39000000001,"N_COORD97":2579837.3700000001,"ADDRESS":"鳳安二街３８號","OBJECTID":253688},"geometry":{"x":188653.3900000006,"y":2579837.370000001}},{"attributes":{"ID":253693,"DIS_CODE":0,"TOWNNAME":"東山區","LI":"東中里","LIN":"24鄰","STREET":"鳳安二街","SECT":" ","MAREA":" ","LANE":" ","ALLEY":" ","HOUSE_NO":"４０號","E_COORD97":188652.79000000001,"N_COORD97":2579841.3900000001,"ADDRESS":"鳳安二街４０號","OBJECTID":253689},"geometry":{"x":188652.79000000097,"y":2579841.3899999987}},{"attributes":{"ID":253694,"DIS_CODE":0,"TOWNNAME":"永康區","LI":"安康里","LIN":"22鄰","STREET":"中華路","SECT":" ","MAREA":" ","LANE":"７０３巷","ALLEY":" ","HOUSE_NO":"９５號","E_COORD97":170709.41,"N_COORD97":2546235.6400000001,"ADDRESS":"中華路７０３巷９５號","OBJECTID":253690},"geometry":{"x":170709.41000000201,"y":2546235.6400000025}},{"attributes":{"ID":253695,"DIS_CODE":0,"TOWNNAME":"東區","LI":"大智里","LIN":"20鄰","STREET":"崇善十五街","SECT":" ","MAREA":" ","LANE":"３３巷","ALLEY":" ","HOUSE_NO":"１號","E_COORD97":171344.14000000001,"N_COORD97":2540539.7200000002,"ADDRESS":"崇善十五街３３巷１號","OBJECTID":253691},"geometry":{"x":171344.13999999966,"y":2540539.7200000025}},{"attributes":{"ID":253696,"DIS_CODE":0,"TOWNNAME":"東區","LI":"大智里","LIN":"20鄰","STREET":"崇善十五街","SECT":" ","MAREA":" ","LANE":"３３巷","ALLEY":" ","HOUSE_NO":"３號","E_COORD97":171345.07999999999,"N_COORD97":2540534.6400000001,"ADDRESS":"崇善十五街３３巷３號","OBJECTID":253692},"geometry":{"x":171345.08000000007,"y":2540534.6400000006}},{"attributes":{"ID":253697,"DIS_CODE":0,"TOWNNAME":"新營區","LI":"民權里","LIN":"11鄰","STREET":"信義街","SECT":" ","MAREA":" ","LANE":"５３巷","ALLEY":" ","HOUSE_NO":"３號之４二樓之１","E_COORD97":179879.64999999999,"N_COORD97":2578280.9900000002,"ADDRESS":"信義街５３巷３號之４二樓之１","OBJECTID":253693},"geometry":{"x":179879.6500000013,"y":2578280.9900000039}},{"attributes":{"ID":253698,"DIS_CODE":0,"TOWNNAME":"安南區","LI":"學東里","LIN":"14鄰","STREET":"公學路","SECT":"七段","MAREA":" ","LANE":"９７巷","ALLEY":" ","HOUSE_NO":"３８號","E_COORD97":161727.66,"N_COORD97":2553304.7999999998,"ADDRESS":"公學路七段９７巷３８號","OBJECTID":253694},"geometry":{"x":161727.66000000015,"y":2553304.8000000007}},{"attributes":{"ID":253699,"DIS_CODE":0,"TOWNNAME":"安南區","LI":"學東里","LIN":"14鄰","STREET":"公學路","SECT":"七段","MAREA":" ","LANE":"９７巷","ALLEY":" ","HOUSE_NO":"４０號","E_COORD97":161726.28,"N_COORD97":2553300.0600000001,"ADDRESS":"公學路七段９７巷４０號","OBJECTID":253695},"geometry":{"x":161726.28000000119,"y":2553300.0600000005}},{"attributes":{"ID":253700,"DIS_CODE":0,"TOWNNAME":"安南區","LI":"安順里","LIN":"14鄰","STREET":"總安街","SECT":"一段","MAREA":" ","LANE":"１４２巷","ALLEY":" ","HOUSE_NO":"４號","E_COORD97":169621.45000000001,"N_COORD97":2550218.7599999998,"ADDRESS":"總安街一段１４２巷４號","OBJECTID":253696},"geometry":{"x":169621.45000000112,"y":2550218.7599999998}},{"attributes":{"ID":253701,"DIS_CODE":0,"TOWNNAME":"安南區","LI":"安順里","LIN":"14鄰","STREET":"總安街","SECT":"一段","MAREA":" ","LANE":"１４２巷","ALLEY":" ","HOUSE_NO":"６號","E_COORD97":169621.29000000001,"N_COORD97":2550223.2400000002,"ADDRESS":"總安街一段１４２巷６號","OBJECTID":253697},"geometry":{"x":169621.29000000004,"y":2550223.2400000002}},{"attributes":{"ID":253702,"DIS_CODE":0,"TOWNNAME":"安南區","LI":"安順里","LIN":"14鄰","STREET":"總安街","SECT":"一段","MAREA":" ","LANE":"１４２巷","ALLEY":" ","HOUSE_NO":"８號","E_COORD97":169621.60999999999,"N_COORD97":2550227.3900000001,"ADDRESS":"總安街一段１４２巷８號","OBJECTID":253698},"geometry":{"x":169621.6100000022,"y":2550227.3900000025}},{"attributes":{"ID":253703,"DIS_CODE":0,"TOWNNAME":"新化區","LI":"協興里","LIN":"14鄰","STREET":"太平街","SECT":" ","MAREA":" ","LANE":"１５０巷","ALLEY":" ","HOUSE_NO":"５５號","E_COORD97":178300.37,"N_COORD97":2548780.25,"ADDRESS":"太平街１５０巷５５號","OBJECTID":253699},"geometry":{"x":178300.37000000011,"y":2548780.2500000019}},{"attributes":{"ID":253704,"DIS_CODE":0,"TOWNNAME":"新化區","LI":"太平里","LIN":"14鄰","STREET":"民權街","SECT":" ","MAREA":" ","LANE":"１２０巷","ALLEY":" ","HOUSE_NO":"３號","E_COORD97":178750.70999999999,"N_COORD97":2548814.25,"ADDRESS":"民權街１２０巷３號","OBJECTID":253700},"geometry":{"x":178750.70999999903,"y":2548814.2500000019}},{"attributes":{"ID":253705,"DIS_CODE":0,"TOWNNAME":"新化區","LI":"太平里","LIN":"14鄰","STREET":"太平街","SECT":" ","MAREA":" ","LANE":"４８巷","ALLEY":" ","HOUSE_NO":"７號","E_COORD97":178795.26999999999,"N_COORD97":2548811.25,"ADDRESS":"太平街４８巷７號","OBJECTID":253701},"geometry":{"x":178795.26999999955,"y":2548811.2500000019}},{"attributes":{"ID":253706,"DIS_CODE":0,"TOWNNAME":"新化區","LI":"協興里","LIN":"14鄰","STREET":"太平街","SECT":" ","MAREA":" ","LANE":"１５０巷","ALLEY":" ","HOUSE_NO":"６３號","E_COORD97":178284.97,"N_COORD97":2548776.25,"ADDRESS":"太平街１５０巷６３號","OBJECTID":253702},"geometry":{"x":178284.97000000067,"y":2548776.2500000019}},{"attributes":{"ID":253707,"DIS_CODE":0,"TOWNNAME":"新化區","LI":"協興里","LIN":"14鄰","STREET":"太平街","SECT":" ","MAREA":" ","LANE":"１５０巷","ALLEY":" ","HOUSE_NO":"１號","E_COORD97":178338.51999999999,"N_COORD97":2548709.25,"ADDRESS":"太平街１５０巷１號","OBJECTID":253703},"geometry":{"x":178338.52000000048,"y":2548709.2500000019}},{"attributes":{"ID":253708,"DIS_CODE":0,"TOWNNAME":"新化區","LI":"太平里","LIN":"14鄰","STREET":"太平街","SECT":" ","MAREA":" ","LANE":"４８巷","ALLEY":" ","HOUSE_NO":"５號之１","E_COORD97":178764.89999999999,"N_COORD97":2548846.2599999998,"ADDRESS":"太平街４８巷５號之１","OBJECTID":253704},"geometry":{"x":178764.90000000037,"y":2548846.2599999998}},{"attributes":{"ID":253709,"DIS_CODE":0,"TOWNNAME":"新化區","LI":"太平里","LIN":"14鄰","STREET":"民權街","SECT":" ","MAREA":" ","LANE":"１２０巷","ALLEY":" ","HOUSE_NO":"５號","E_COORD97":178756.70999999999,"N_COORD97":2548814.25,"ADDRESS":"民權街１２０巷５號","OBJECTID":253705},"geometry":{"x":178756.71000000089,"y":2548814.2500000019}},{"attributes":{"ID":253710,"DIS_CODE":0,"TOWNNAME":"新化區","LI":"協興里","LIN":"14鄰","STREET":"太平街","SECT":" ","MAREA":" ","LANE":"１５０巷","ALLEY":" ","HOUSE_NO":"５９號","E_COORD97":178292.97,"N_COORD97":2548778.25,"ADDRESS":"太平街１５０巷５９號","OBJECTID":253706},"geometry":{"x":178292.97000000067,"y":2548778.25}},{"attributes":{"ID":253711,"DIS_CODE":0,"TOWNNAME":"南區","LI":"再興里","LIN":"14鄰","STREET":"金華路","SECT":"二段","MAREA":" ","LANE":"１００巷","ALLEY":" ","HOUSE_NO":"１號","E_COORD97":167109.44,"N_COORD97":2542099.2400000002,"ADDRESS":"金華路二段１００巷１號","OBJECTID":253707},"geometry":{"x":167109.44000000134,"y":2542099.2400000002}},{"attributes":{"ID":253712,"DIS_CODE":0,"TOWNNAME":"南區","LI":"再興里","LIN":"14鄰","STREET":"金華路","SECT":"二段","MAREA":" ","LANE":"１００巷","ALLEY":" ","HOUSE_NO":"１０號","E_COORD97":167186.73000000001,"N_COORD97":2542082.02,"ADDRESS":"金華路二段１００巷１０號","OBJECTID":253708},"geometry":{"x":167186.73000000231,"y":2542082.0200000014}},{"attributes":{"ID":253713,"DIS_CODE":0,"TOWNNAME":"南區","LI":"再興里","LIN":"14鄰","STREET":"金華路","SECT":"二段","MAREA":" ","LANE":"１００巷","ALLEY":" ","HOUSE_NO":"１１號","E_COORD97":167142.51999999999,"N_COORD97":2542099.4700000002,"ADDRESS":"金華路二段１００巷１１號","OBJECTID":253709},"geometry":{"x":167142.51999999955,"y":2542099.4700000044}},{"attributes":{"ID":253714,"DIS_CODE":0,"TOWNNAME":"南區","LI":"再興里","LIN":"14鄰","STREET":"金華路","SECT":"二段","MAREA":" ","LANE":"１００巷","ALLEY":" ","HOUSE_NO":"１２號","E_COORD97":167195.53,"N_COORD97":2542082.02,"ADDRESS":"金華路二段１００巷１２號","OBJECTID":253710},"geometry":{"x":167195.53000000026,"y":2542082.0200000014}},{"attributes":{"ID":253715,"DIS_CODE":0,"TOWNNAME":"南區","LI":"再興里","LIN":"14鄰","STREET":"金華路","SECT":"二段","MAREA":" ","LANE":"１００巷","ALLEY":" ","HOUSE_NO":"１４號","E_COORD97":167204.12,"N_COORD97":2542081.6000000001,"ADDRESS":"金華路二段１００巷１４號","OBJECTID":253711},"geometry":{"x":167204.12000000104,"y":2542081.6000000015}},{"attributes":{"ID":253716,"DIS_CODE":0,"TOWNNAME":"南區","LI":"再興里","LIN":"14鄰","STREET":"金華路","SECT":"二段","MAREA":" ","LANE":"１００巷","ALLEY":" ","HOUSE_NO":"１６號","E_COORD97":167212.19,"N_COORD97":2542081.5,"ADDRESS":"金華路二段１００巷１６號","OBJECTID":253712},"geometry":{"x":167212.18999999948,"y":2542081.5000000037}},{"attributes":{"ID":253717,"DIS_CODE":0,"TOWNNAME":"南區","LI":"再興里","LIN":"14鄰","STREET":"金華路","SECT":"二段","MAREA":" ","LANE":"１００巷","ALLEY":" ","HOUSE_NO":"１７號","E_COORD97":167154.35999999999,"N_COORD97":2542097.7999999998,"ADDRESS":"金華路二段１００巷１７號","OBJECTID":253713},"geometry":{"x":167154.36000000034,"y":2542097.8000000026}},{"attributes":{"ID":253718,"DIS_CODE":0,"TOWNNAME":"南區","LI":"再興里","LIN":"14鄰","STREET":"金華路","SECT":"二段","MAREA":" ","LANE":"１００巷","ALLEY":" ","HOUSE_NO":"１８號","E_COORD97":167221.10000000001,"N_COORD97":2542081.8100000001,"ADDRESS":"金華路二段１００巷１８號","OBJECTID":253714},"geometry":{"x":167221.10000000056,"y":2542081.8100000005}},{"attributes":{"ID":253719,"DIS_CODE":0,"TOWNNAME":"南區","LI":"再興里","LIN":"14鄰","STREET":"金華路","SECT":"二段","MAREA":" ","LANE":"１００巷","ALLEY":" ","HOUSE_NO":"１９號","E_COORD97":167158.87,"N_COORD97":2542097.1699999999,"ADDRESS":"金華路二段１００巷１９號","OBJECTID":253715},"geometry":{"x":167158.87000000104,"y":2542097.1700000037}},{"attributes":{"ID":253720,"DIS_CODE":0,"TOWNNAME":"東山區","LI":"東中里","LIN":"24鄰","STREET":"鳳安二街","SECT":" ","MAREA":" ","LANE":" ","ALLEY":" ","HOUSE_NO":"５０號","E_COORD97":188650.47,"N_COORD97":2579858.0299999998,"ADDRESS":"鳳安二街５０號","OBJECTID":253716},"geometry":{"x":188650.4700000016,"y":2579858.0299999993}},{"attributes":{"ID":253721,"DIS_CODE":0,"TOWNNAME":"東山區","LI":"東中里","LIN":"24鄰","STREET":"鳳安二街","SECT":" ","MAREA":" ","LANE":" ","ALLEY":" ","HOUSE_NO":"５２號","E_COORD97":188649.79999999999,"N_COORD97":2579862.1600000001,"ADDRESS":"鳳安二街５２號","OBJECTID":253717},"geometry":{"x":188649.79999999981,"y":2579862.1600000001}},{"attributes":{"ID":253722,"DIS_CODE":0,"TOWNNAME":"東山區","LI":"東中里","LIN":"24鄰","STREET":"鳳安二街","SECT":" ","MAREA":" ","LANE":" ","ALLEY":" ","HOUSE_NO":"５６號","E_COORD97":188649.54000000001,"N_COORD97":2579866.3599999999,"ADDRESS":"鳳安二街５６號","OBJECTID":253718},"geometry":{"x":188649.54000000004,"y":2579866.3599999994}},{"attributes":{"ID":253723,"DIS_CODE":0,"TOWNNAME":"東山區","LI":"東中里","LIN":"24鄰","STREET":"鳳安二街","SECT":" ","MAREA":" ","LANE":" ","ALLEY":" ","HOUSE_NO":"５８號","E_COORD97":188649.03,"N_COORD97":2579870.5099999998,"ADDRESS":"鳳安二街５８號","OBJECTID":253719},"geometry":{"x":188649.03000000119,"y":2579870.5100000035}},{"attributes":{"ID":253724,"DIS_CODE":0,"TOWNNAME":"東山區","LI":"東中里","LIN":"24鄰","STREET":"鳳安二街","SECT":" ","MAREA":" ","LANE":" ","ALLEY":" ","HOUSE_NO":"６０號","E_COORD97":188647.13,"N_COORD97":2579877.7000000002,"ADDRESS":"鳳安二街６０號","OBJECTID":253720},"geometry":{"x":188647.12999999989,"y":2579877.6999999993}},{"attributes":{"ID":253725,"DIS_CODE":0,"TOWNNAME":"歸仁區","LI":"辜厝里","LIN":"11鄰","STREET":"中正南路","SECT":"一段","MAREA":" ","LANE":"７６巷","ALLEY":" ","HOUSE_NO":"１９號五樓之１０","E_COORD97":177517.73999999999,"N_COORD97":2540570.6000000001,"ADDRESS":"中正南路一段７６巷１９號五樓之１０","OBJECTID":253721},"geometry":{"x":177517.74000000022,"y":2540570.5999999996}},{"attributes":{"ID":253726,"DIS_CODE":0,"TOWNNAME":"歸仁區","LI":"辜厝里","LIN":"11鄰","STREET":"中正南路","SECT":"一段","MAREA":" ","LANE":"７６巷","ALLEY":" ","HOUSE_NO":"１９號四樓之６","E_COORD97":177517.5,"N_COORD97":2540570.6000000001,"ADDRESS":"中正南路一段７６巷１９號四樓之６","OBJECTID":253722},"geometry":{"x":177517.5,"y":2540570.5999999996}},{"attributes":{"ID":253727,"DIS_CODE":0,"TOWNNAME":"歸仁區","LI":"辜厝里","LIN":"11鄰","STREET":"中正南路","SECT":"一段","MAREA":" ","LANE":"７６巷","ALLEY":" ","HOUSE_NO":"１９號五樓之６","E_COORD97":177517.5,"N_COORD97":2540570.6000000001,"ADDRESS":"中正南路一段７６巷１９號五樓之６","OBJECTID":253723},"geometry":{"x":177517.5,"y":2540570.5999999996}},{"attributes":{"ID":253728,"DIS_CODE":0,"TOWNNAME":"歸仁區","LI":"辜厝里","LIN":"11鄰","STREET":"中正南路","SECT":"一段","MAREA":" ","LANE":"７６巷","ALLEY":" ","HOUSE_NO":"１９號五樓之９","E_COORD97":177517.48999999999,"N_COORD97":2540570.6000000001,"ADDRESS":"中正南路一段７６巷１９號五樓之９","OBJECTID":253724},"geometry":{"x":177517.49000000115,"y":2540570.5999999996}},{"attributes":{"ID":253729,"DIS_CODE":0,"TOWNNAME":"歸仁區","LI":"辜厝里","LIN":"11鄰","STREET":"中正南路","SECT":"一段","MAREA":" ","LANE":"７６巷","ALLEY":" ","HOUSE_NO":"１９號八樓之１０","E_COORD97":177517.73999999999,"N_COORD97":2540570.6000000001,"ADDRESS":"中正南路一段７６巷１９號八樓之１０","OBJECTID":253725},"geometry":{"x":177517.74000000022,"y":2540570.5999999996}},{"attributes":{"ID":253730,"DIS_CODE":0,"TOWNNAME":"歸仁區","LI":"辜厝里","LIN":"11鄰","STREET":"中正南路","SECT":"一段","MAREA":" ","LANE":"７６巷","ALLEY":" ","HOUSE_NO":"１９號八樓之８","E_COORD97":177517.51000000001,"N_COORD97":2540570.6000000001,"ADDRESS":"中正南路一段７６巷１９號八樓之８","OBJECTID":253726},"geometry":{"x":177517.50999999978,"y":2540570.5999999996}},{"attributes":{"ID":253731,"DIS_CODE":0,"TOWNNAME":"歸仁區","LI":"辜厝里","LIN":"11鄰","STREET":"中正南路","SECT":"一段","MAREA":" ","LANE":"７６巷","ALLEY":" ","HOUSE_NO":"１９號五樓之８","E_COORD97":177517.51000000001,"N_COORD97":2540570.6000000001,"ADDRESS":"中正南路一段７６巷１９號五樓之８","OBJECTID":253727},"geometry":{"x":177517.50999999978,"y":2540570.5999999996}},{"attributes":{"ID":253732,"DIS_CODE":0,"TOWNNAME":"歸仁區","LI":"辜厝里","LIN":"11鄰","STREET":"中正南路","SECT":"一段","MAREA":" ","LANE":"７６巷","ALLEY":" ","HOUSE_NO":"１９號七樓之６","E_COORD97":177517.5,"N_COORD97":2540570.6000000001,"ADDRESS":"中正南路一段７６巷１９號七樓之６","OBJECTID":253728},"geometry":{"x":177517.5,"y":2540570.5999999996}},{"attributes":{"ID":253733,"DIS_CODE":0,"TOWNNAME":"東山區","LI":"東中里","LIN":"24鄰","STREET":"鳳安二街","SECT":" ","MAREA":" ","LANE":" ","ALLEY":" ","HOUSE_NO":"６號","E_COORD97":188661.69,"N_COORD97":2579771.7400000002,"ADDRESS":"鳳安二街６號","OBJECTID":253729},"geometry":{"x":188661.69000000134,"y":2579771.7400000021}},{"attributes":{"ID":253734,"DIS_CODE":0,"TOWNNAME":"東山區","LI":"東中里","LIN":"24鄰","STREET":"鳳安二街","SECT":" ","MAREA":" ","LANE":" ","ALLEY":" ","HOUSE_NO":"８號","E_COORD97":188661.26000000001,"N_COORD97":2579776.1600000001,"ADDRESS":"鳳安二街８號","OBJECTID":253730},"geometry":{"x":188661.25999999978,"y":2579776.160000002}},{"attributes":{"ID":253735,"DIS_CODE":0,"TOWNNAME":"新化區","LI":"東榮里","LIN":"24鄰","STREET":"中正路","SECT":" ","MAREA":" ","LANE":" ","ALLEY":" ","HOUSE_NO":"２５４號","E_COORD97":179156.60999999999,"N_COORD97":2547793.25,"ADDRESS":"中正路２５４號","OBJECTID":253731},"geometry":{"x":179156.61000000034,"y":2547793.2500000019}},{"attributes":{"ID":253736,"DIS_CODE":0,"TOWNNAME":"北區","LI":"成德里","LIN":"24鄰","STREET":"文成一路","SECT":" ","MAREA":" ","LANE":" ","ALLEY":" ","HOUSE_NO":"２３８號","E_COORD97":168122.41,"N_COORD97":2546060.3500000001,"ADDRESS":"文成一路２３８號","OBJECTID":253732},"geometry":{"x":168122.40999999922,"y":2546060.3500000015}},{"attributes":{"ID":253737,"DIS_CODE":0,"TOWNNAME":"安平區","LI":"文平里","LIN":"24鄰","STREET":"建平三街","SECT":" ","MAREA":" ","LANE":" ","ALLEY":" ","HOUSE_NO":"６０之１號","E_COORD97":166177.12,"N_COORD97":2542890.2200000002,"ADDRESS":"建平三街６０之１號","OBJECTID":253733},"geometry":{"x":166177.12000000104,"y":2542890.2200000007}},{"attributes":{"ID":253738,"DIS_CODE":0,"TOWNNAME":"永康區","LI":"東灣里","LIN":"24鄰","STREET":"大灣二街","SECT":" ","MAREA":" ","LANE":" ","ALLEY":" ","HOUSE_NO":"８６之１號","E_COORD97":174821.04000000001,"N_COORD97":2544769.9700000002,"ADDRESS":"大灣二街８６之１號","OBJECTID":253734},"geometry":{"x":174821.0400000019,"y":2544769.9700000007}},{"attributes":{"ID":253739,"DIS_CODE":0,"TOWNNAME":"永康區","LI":"埔園里","LIN":"24鄰","STREET":"中正路","SECT":" ","MAREA":" ","LANE":" ","ALLEY":" ","HOUSE_NO":"１１０號","E_COORD97":173545.89999999999,"N_COORD97":2547863.8900000001,"ADDRESS":"中正路１１０號","OBJECTID":253735},"geometry":{"x":173545.9000000013,"y":2547863.8900000025}},{"attributes":{"ID":253740,"DIS_CODE":0,"TOWNNAME":"歸仁區","LI":"大廟里","LIN":"24鄰","STREET":"大廟一街","SECT":" ","MAREA":" ","LANE":" ","ALLEY":" ","HOUSE_NO":"２２０號","E_COORD97":175580.95999999999,"N_COORD97":2543623.7599999998,"ADDRESS":"大廟一街２２０號","OBJECTID":253736},"geometry":{"x":175580.96000000183,"y":2543623.7600000016}},{"attributes":{"ID":253741,"DIS_CODE":0,"TOWNNAME":"歸仁區","LI":"大廟里","LIN":"24鄰","STREET":"大廟一街","SECT":" ","MAREA":" ","LANE":" ","ALLEY":" ","HOUSE_NO":"２２６之１號","E_COORD97":175575.23999999999,"N_COORD97":2543609.1499999999,"ADDRESS":"大廟一街２２６之１號","OBJECTID":253737},"geometry":{"x":175575.24000000022,"y":2543609.1500000004}},{"attributes":{"ID":253742,"DIS_CODE":0,"TOWNNAME":"仁德區","LI":"大甲里","LIN":"24鄰","STREET":"中正西路","SECT":" ","MAREA":" ","LANE":" ","ALLEY":" ","HOUSE_NO":"４００號","E_COORD97":169592.63,"N_COORD97":2535439.9199999999,"ADDRESS":"中正西路４００號","OBJECTID":253738},"geometry":{"x":169592.63000000082,"y":2535439.9199999999}},{"attributes":{"ID":253743,"DIS_CODE":0,"TOWNNAME":"東區","LI":"大智里","LIN":"34鄰","STREET":"崇善十五街","SECT":" ","MAREA":" ","LANE":"３３巷","ALLEY":" ","HOUSE_NO":"６２號","E_COORD97":171295.10000000001,"N_COORD97":2540462.4500000002,"ADDRESS":"崇善十五街３３巷６２號","OBJECTID":253739},"geometry":{"x":171295.09999999963,"y":2540462.4499999993}},{"attributes":{"ID":253744,"DIS_CODE":0,"TOWNNAME":"南區","LI":"再興里","LIN":"14鄰","STREET":"金華路","SECT":"二段","MAREA":" ","LANE":"１００巷","ALLEY":" ","HOUSE_NO":"２０號","E_COORD97":167230.14999999999,"N_COORD97":2542079.0899999999,"ADDRESS":"金華路二段１００巷２０號","OBJECTID":253740},"geometry":{"x":167230.1500000013,"y":2542079.0900000017}},{"attributes":{"ID":253745,"DIS_CODE":0,"TOWNNAME":"南區","LI":"再興里","LIN":"14鄰","STREET":"金華路","SECT":"二段","MAREA":" ","LANE":"１００巷","ALLEY":" ","HOUSE_NO":"２１號","E_COORD97":167163.69,"N_COORD97":2542097.27,"ADDRESS":"金華路二段１００巷２１號","OBJECTID":253741},"geometry":{"x":167163.69000000134,"y":2542097.2700000014}},{"attributes":{"ID":253746,"DIS_CODE":0,"TOWNNAME":"南區","LI":"再興里","LIN":"14鄰","STREET":"金華路","SECT":"二段","MAREA":" ","LANE":"１００巷","ALLEY":" ","HOUSE_NO":"２３號","E_COORD97":167167.45999999999,"N_COORD97":2542096.96,"ADDRESS":"金華路二段１００巷２３號","OBJECTID":253742},"geometry":{"x":167167.45999999996,"y":2542096.9600000028}},{"attributes":{"ID":253747,"DIS_CODE":0,"TOWNNAME":"南區","LI":"再興里","LIN":"14鄰","STREET":"金華路","SECT":"二段","MAREA":" ","LANE":"１００巷","ALLEY":" ","HOUSE_NO":"２５號","E_COORD97":167171.97,"N_COORD97":2542097.6899999999,"ADDRESS":"金華路二段１００巷２５號","OBJECTID":253743},"geometry":{"x":167171.96999999974,"y":2542097.6900000013}},{"attributes":{"ID":253748,"DIS_CODE":0,"TOWNNAME":"南區","LI":"再興里","LIN":"14鄰","STREET":"金華路","SECT":"二段","MAREA":" ","LANE":"１００巷","ALLEY":" ","HOUSE_NO":"２７號","E_COORD97":167176.26000000001,"N_COORD97":2542097.1699999999,"ADDRESS":"金華路二段１００巷２７號","OBJECTID":253744},"geometry":{"x":167176.26000000071,"y":2542097.1700000037}},{"attributes":{"ID":253749,"DIS_CODE":0,"TOWNNAME":"南區","LI":"再興里","LIN":"14鄰","STREET":"金華路","SECT":"二段","MAREA":" ","LANE":"１００巷","ALLEY":" ","HOUSE_NO":"２９號","E_COORD97":167179.82999999999,"N_COORD97":2542096.4399999999,"ADDRESS":"金華路二段１００巷２９號","OBJECTID":253745},"geometry":{"x":167179.83000000007,"y":2542096.4400000013}},{"attributes":{"ID":253750,"DIS_CODE":0,"TOWNNAME":"南區","LI":"再興里","LIN":"14鄰","STREET":"金華路","SECT":"二段","MAREA":" ","LANE":"１００巷","ALLEY":" ","HOUSE_NO":"３１號","E_COORD97":167184.53,"N_COORD97":2542096.0800000001,"ADDRESS":"金華路二段１００巷３１號","OBJECTID":253746},"geometry":{"x":167184.53000000212,"y":2542096.0800000019}},{"attributes":{"ID":253751,"DIS_CODE":0,"TOWNNAME":"南區","LI":"再興里","LIN":"14鄰","STREET":"金華路","SECT":"二段","MAREA":" ","LANE":"１００巷","ALLEY":" ","HOUSE_NO":"４１號","E_COORD97":167211.04000000001,"N_COORD97":2542096.8100000001,"ADDRESS":"金華路二段１００巷４１號","OBJECTID":253747},"geometry":{"x":167211.04000000004,"y":2542096.8099999987}},{"attributes":{"ID":253752,"DIS_CODE":0,"TOWNNAME":"南區","LI":"再興里","LIN":"14鄰","STREET":"金華路","SECT":"二段","MAREA":" ","LANE":"１００巷","ALLEY":" ","HOUSE_NO":"４３號","E_COORD97":167215.64999999999,"N_COORD97":2542096.71,"ADDRESS":"金華路二段１００巷４３號","OBJECTID":253748},"geometry":{"x":167215.65000000037,"y":2542096.7100000009}},{"attributes":{"ID":253753,"DIS_CODE":0,"TOWNNAME":"南區","LI":"再興里","LIN":"14鄰","STREET":"金華路","SECT":"二段","MAREA":" ","LANE":"１００巷","ALLEY":" ","HOUSE_NO":"４５號","E_COORD97":167219.53,"N_COORD97":2542096.1800000002,"ADDRESS":"金華路二段１００巷４５號","OBJECTID":253749},"geometry":{"x":167219.53000000026,"y":2542096.1799999997}},{"attributes":{"ID":253754,"DIS_CODE":0,"TOWNNAME":"南區","LI":"再興里","LIN":"14鄰","STREET":"金華路","SECT":"二段","MAREA":" ","LANE":"１００巷","ALLEY":" ","HOUSE_NO":"４７號","E_COORD97":167223.92999999999,"N_COORD97":2542096.3900000001,"ADDRESS":"金華路二段１００巷４７號","OBJECTID":253750},"geometry":{"x":167223.93000000063,"y":2542096.3900000043}},{"attributes":{"ID":253755,"DIS_CODE":0,"TOWNNAME":"南區","LI":"再興里","LIN":"14鄰","STREET":"金華路","SECT":"二段","MAREA":" ","LANE":"１００巷","ALLEY":" ","HOUSE_NO":"４９號","E_COORD97":167228.14000000001,"N_COORD97":2542095.8399999999,"ADDRESS":"金華路二段１００巷４９號","OBJECTID":253751},"geometry":{"x":167228.13999999966,"y":2542095.839999998}},{"attributes":{"ID":253756,"DIS_CODE":0,"TOWNNAME":"南區","LI":"府南里","LIN":"14鄰","STREET":"永成路","SECT":"三段","MAREA":" ","LANE":"３７２巷","ALLEY":" ","HOUSE_NO":"５５號","E_COORD97":167648.88,"N_COORD97":2541006.8799999999,"ADDRESS":"永成路三段３７２巷５５號","OBJECTID":253752},"geometry":{"x":167648.87999999989,"y":2541006.8800000008}},{"attributes":{"ID":253757,"DIS_CODE":0,"TOWNNAME":"南區","LI":"府南里","LIN":"14鄰","STREET":"永成路","SECT":"三段","MAREA":" ","LANE":"３７２巷","ALLEY":" ","HOUSE_NO":"５７號","E_COORD97":167653.14000000001,"N_COORD97":2541008.0099999998,"ADDRESS":"永成路三段３７２巷５７號","OBJECTID":253753},"geometry":{"x":167653.1400000006,"y":2541008.0100000016}},{"attributes":{"ID":253758,"DIS_CODE":0,"TOWNNAME":"南區","LI":"府南里","LIN":"14鄰","STREET":"永成路","SECT":"三段","MAREA":" ","LANE":"３７２巷","ALLEY":" ","HOUSE_NO":"５９號","E_COORD97":167657.92999999999,"N_COORD97":2541008.6200000001,"ADDRESS":"永成路三段３７２巷５９號","OBJECTID":253754},"geometry":{"x":167657.93000000063,"y":2541008.6200000029}},{"attributes":{"ID":253759,"DIS_CODE":0,"TOWNNAME":"南區","LI":"府南里","LIN":"14鄰","STREET":"永成路","SECT":"三段","MAREA":" ","LANE":"３７２巷","ALLEY":" ","HOUSE_NO":"６１號","E_COORD97":167662.64000000001,"N_COORD97":2541009.6600000001,"ADDRESS":"永成路三段３７２巷６１號","OBJECTID":253755},"geometry":{"x":167662.63999999873,"y":2541009.660000002}},{"attributes":{"ID":253760,"DIS_CODE":0,"TOWNNAME":"南區","LI":"府南里","LIN":"14鄰","STREET":"永成路","SECT":"三段","MAREA":" ","LANE":"３７２巷","ALLEY":" ","HOUSE_NO":"６３號","E_COORD97":167667.51000000001,"N_COORD97":2541010.6200000001,"ADDRESS":"永成路三段３７２巷６３號","OBJECTID":253756},"geometry":{"x":167667.51000000071,"y":2541010.6200000048}},{"attributes":{"ID":253761,"DIS_CODE":0,"TOWNNAME":"南區","LI":"府南里","LIN":"14鄰","STREET":"永成路","SECT":"三段","MAREA":" ","LANE":"３７２巷","ALLEY":" ","HOUSE_NO":"６５號","E_COORD97":167671.87,"N_COORD97":2541011.5800000001,"ADDRESS":"永成路三段３７２巷６５號","OBJECTID":253757},"geometry":{"x":167671.87000000197,"y":2541011.5800000001}},{"attributes":{"ID":253762,"DIS_CODE":0,"TOWNNAME":"南區","LI":"府南里","LIN":"14鄰","STREET":"永成路","SECT":"三段","MAREA":" ","LANE":"３７２巷","ALLEY":" ","HOUSE_NO":"６７號","E_COORD97":167675.70000000001,"N_COORD97":2541010.8799999999,"ADDRESS":"永成路三段３７２巷６７號","OBJECTID":253758},"geometry":{"x":167675.70000000019,"y":2541010.8800000008}},{"attributes":{"ID":253763,"DIS_CODE":0,"TOWNNAME":"仁德區","LI":"太子里","LIN":"14鄰","STREET":"長興路","SECT":" ","MAREA":" ","LANE":"８７巷","ALLEY":" ","HOUSE_NO":"４０號","E_COORD97":174010.19,"N_COORD97":2543800.25,"ADDRESS":"長興路８７巷４０號","OBJECTID":253759},"geometry":{"x":174010.19000000134,"y":2543800.2500000019}},{"attributes":{"ID":253764,"DIS_CODE":0,"TOWNNAME":"仁德區","LI":"大甲里","LIN":"24鄰","STREET":"中正西路","SECT":" ","MAREA":" ","LANE":" ","ALLEY":" ","HOUSE_NO":"４０２號","E_COORD97":169583.34,"N_COORD97":2535429.1299999999,"ADDRESS":"中正西路４０２號","OBJECTID":253760},"geometry":{"x":169583.33999999985,"y":2535429.1300000008}},{"attributes":{"ID":253765,"DIS_CODE":0,"TOWNNAME":"仁德區","LI":"成功里","LIN":"14鄰","STREET":"全福路","SECT":" ","MAREA":" ","LANE":"７５巷","ALLEY":" ","HOUSE_NO":"３號","E_COORD97":171020.38,"N_COORD97":2539323.9900000002,"ADDRESS":"全福路７５巷３號","OBJECTID":253761},"geometry":{"x":171020.38000000082,"y":2539323.9900000002}},{"attributes":{"ID":253766,"DIS_CODE":0,"TOWNNAME":"仁德區","LI":"後壁里","LIN":"14鄰","STREET":"德善路","SECT":" ","MAREA":" ","LANE":"１０８巷","ALLEY":" ","HOUSE_NO":"３５號","E_COORD97":173551.17999999999,"N_COORD97":2538734.0099999998,"ADDRESS":"德善路１０８巷３５號","OBJECTID":253762},"geometry":{"x":173551.1799999997,"y":2538734.0099999998}},{"attributes":{"ID":253767,"DIS_CODE":0,"TOWNNAME":"南區","LI":"文華里","LIN":"24鄰","STREET":"文南二街","SECT":" ","MAREA":" ","LANE":" ","ALLEY":" ","HOUSE_NO":"３６號","E_COORD97":166867.01000000001,"N_COORD97":2542940.73,"ADDRESS":"文南二街３６號","OBJECTID":253763},"geometry":{"x":166867.01000000164,"y":2542940.7300000004}},{"attributes":{"ID":253768,"DIS_CODE":0,"TOWNNAME":"仁德區","LI":"後壁里","LIN":"14鄰","STREET":"德善路","SECT":" ","MAREA":" ","LANE":"１９８巷","ALLEY":" ","HOUSE_NO":"２之１７號","E_COORD97":173708.73000000001,"N_COORD97":2538709,"ADDRESS":"德善路１９８巷２之１７號","OBJECTID":253764},"geometry":{"x":173708.73000000138,"y":2538709.0000000019}},{"attributes":{"ID":253769,"DIS_CODE":0,"TOWNNAME":"仁德區","LI":"仁義里","LIN":"14鄰","STREET":"義林路","SECT":" ","MAREA":" ","LANE":"２００巷","ALLEY":" ","HOUSE_NO":"６１號","E_COORD97":174667.01999999999,"N_COORD97":2541331.1499999999,"ADDRESS":"義林路２００巷６１號","OBJECTID":253765},"geometry":{"x":174667.02000000048,"y":2541331.1500000004}},{"attributes":{"ID":253770,"DIS_CODE":0,"TOWNNAME":"仁德區","LI":"後壁里","LIN":"14鄰","STREET":"德善路","SECT":" ","MAREA":" ","LANE":"１９８巷","ALLEY":" ","HOUSE_NO":"１２之１２號","E_COORD97":173674.78,"N_COORD97":2538668.1899999999,"ADDRESS":"德善路１９８巷１２之１２號","OBJECTID":253766},"geometry":{"x":173674.78000000026,"y":2538668.1899999995}},{"attributes":{"ID":253771,"DIS_CODE":0,"TOWNNAME":"安南區","LI":"海南里","LIN":"15鄰","STREET":"府安路","SECT":"七段","MAREA":" ","LANE":"８４巷","ALLEY":" ","HOUSE_NO":"９號","E_COORD97":165822.04999999999,"N_COORD97":2545874.1899999999,"ADDRESS":"府安路七段８４巷９號","OBJECTID":253767},"geometry":{"x":165822.04999999981,"y":2545874.1900000013}},{"attributes":{"ID":253772,"DIS_CODE":0,"TOWNNAME":"安南區","LI":"海南里","LIN":"15鄰","STREET":"府安路","SECT":"七段","MAREA":" ","LANE":"８４巷","ALLEY":" ","HOUSE_NO":"１９號","E_COORD97":165792.64999999999,"N_COORD97":2545914.48,"ADDRESS":"府安路七段８４巷１９號","OBJECTID":253768},"geometry":{"x":165792.6500000013,"y":2545914.4800000023}},{"attributes":{"ID":253773,"DIS_CODE":0,"TOWNNAME":"安南區","LI":"海南里","LIN":"15鄰","STREET":"府安路","SECT":"七段","MAREA":" ","LANE":"８４巷","ALLEY":" ","HOUSE_NO":"２１號","E_COORD97":165786.41,"N_COORD97":2545922.3100000001,"ADDRESS":"府安路七段８４巷２１號","OBJECTID":253769},"geometry":{"x":165786.41000000015,"y":2545922.3100000024}},{"attributes":{"ID":253774,"DIS_CODE":0,"TOWNNAME":"安南區","LI":"海南里","LIN":"15鄰","STREET":"府安路","SECT":"七段","MAREA":" ","LANE":"７５巷","ALLEY":" ","HOUSE_NO":"１１號","E_COORD97":165848.47,"N_COORD97":2545905.5299999998,"ADDRESS":"府安路七段７５巷１１號","OBJECTID":253770},"geometry":{"x":165848.4700000016,"y":2545905.5300000012}},{"attributes":{"ID":253775,"DIS_CODE":0,"TOWNNAME":"後壁區","LI":"長安里","LIN":"13鄰","STREET":" ","SECT":" ","MAREA":"中寮","LANE":" ","ALLEY":" ","HOUSE_NO":"２０５號","E_COORD97":184126.79999999999,"N_COORD97":2581426.52,"ADDRESS":"中寮２０５號","OBJECTID":253771},"geometry":{"x":184126.79999999981,"y":2581426.5200000033}},{"attributes":{"ID":253776,"DIS_CODE":0,"TOWNNAME":"後壁區","LI":"長安里","LIN":"13鄰","STREET":" ","SECT":" ","MAREA":"中寮","LANE":" ","ALLEY":" ","HOUSE_NO":"２０６號","E_COORD97":184126.85000000001,"N_COORD97":2581422.54,"ADDRESS":"中寮２０６號","OBJECTID":253772},"geometry":{"x":184126.85000000056,"y":2581422.5400000028}},{"attributes":{"ID":253777,"DIS_CODE":0,"TOWNNAME":"後壁區","LI":"長安里","LIN":"13鄰","STREET":" ","SECT":" ","MAREA":"中寮","LANE":" ","ALLEY":" ","HOUSE_NO":"２０７號","E_COORD97":184126.47,"N_COORD97":2581418.6400000001,"ADDRESS":"中寮２０７號","OBJECTID":253773},"geometry":{"x":184126.47000000067,"y":2581418.6400000006}},{"attributes":{"ID":253778,"DIS_CODE":0,"TOWNNAME":"後壁區","LI":"長安里","LIN":"13鄰","STREET":" ","SECT":" ","MAREA":"中寮","LANE":" ","ALLEY":" ","HOUSE_NO":"２０８號","E_COORD97":184125.94,"N_COORD97":2581414.8399999999,"ADDRESS":"中寮２０８號","OBJECTID":253774},"geometry":{"x":184125.94000000134,"y":2581414.8400000017}},{"attributes":{"ID":253779,"DIS_CODE":0,"TOWNNAME":"安南區","LI":"海南里","LIN":"15鄰","STREET":"府安路","SECT":"七段","MAREA":" ","LANE":"７５巷","ALLEY":" ","HOUSE_NO":"１５號","E_COORD97":165836.85999999999,"N_COORD97":2545922.7200000002,"ADDRESS":"府安路七段７５巷１５號","OBJECTID":253775},"geometry":{"x":165836.86000000127,"y":2545922.7200000025}},{"attributes":{"ID":253780,"DIS_CODE":0,"TOWNNAME":"安南區","LI":"淵中里","LIN":"15鄰","STREET":"安中路","SECT":"四段","MAREA":" ","LANE":"２９０巷","ALLEY":" ","HOUSE_NO":"２５０號","E_COORD97":165033.12,"N_COORD97":2550249.04,"ADDRESS":"安中路四段２９０巷２５０號","OBJECTID":253776},"geometry":{"x":165033.12000000104,"y":2550249.040000001}},{"attributes":{"ID":253781,"DIS_CODE":0,"TOWNNAME":"安南區","LI":"淵中里","LIN":"15鄰","STREET":"安中路","SECT":"四段","MAREA":" ","LANE":"２９０巷","ALLEY":" ","HOUSE_NO":"２５２號","E_COORD97":165037.35000000001,"N_COORD97":2550249.3999999999,"ADDRESS":"安中路四段２９０巷２５２號","OBJECTID":253777},"geometry":{"x":165037.35000000056,"y":2550249.4000000004}},{"attributes":{"ID":253782,"DIS_CODE":0,"TOWNNAME":"安南區","LI":"淵中里","LIN":"15鄰","STREET":"安中路","SECT":"四段","MAREA":" ","LANE":"４巷","ALLEY":" ","HOUSE_NO":"１０１號","E_COORD97":165080.94,"N_COORD97":2550247.4500000002,"ADDRESS":"安中路四段４巷１０１號","OBJECTID":253778},"geometry":{"x":165080.94000000041,"y":2550247.4499999993}},{"attributes":{"ID":253783,"DIS_CODE":0,"TOWNNAME":"安南區","LI":"淵東里","LIN":"15鄰","STREET":"本原街","SECT":"三段","MAREA":" ","LANE":"１６９巷","ALLEY":" ","HOUSE_NO":"２３號","E_COORD97":165535.51000000001,"N_COORD97":2550301.54,"ADDRESS":"本原街三段１６９巷２３號","OBJECTID":253779},"geometry":{"x":165535.50999999978,"y":2550301.5399999991}},{"attributes":{"ID":253784,"DIS_CODE":0,"TOWNNAME":"仁德區","LI":"仁德里","LIN":"14鄰","STREET":"四維街","SECT":" ","MAREA":" ","LANE":"８巷","ALLEY":" ","HOUSE_NO":"１１號","E_COORD97":173311.85000000001,"N_COORD97":2541578,"ADDRESS":"四維街８巷１１號","OBJECTID":253780},"geometry":{"x":173311.85000000056,"y":2541578.0000000019}},{"attributes":{"ID":253785,"DIS_CODE":0,"TOWNNAME":"仁德區","LI":"土庫里","LIN":"14鄰","STREET":"土庫路","SECT":" ","MAREA":" ","LANE":"１８５巷","ALLEY":" ","HOUSE_NO":"３８號","E_COORD97":174447.89000000001,"N_COORD97":2542954.7400000002,"ADDRESS":"土庫路１８５巷３８號","OBJECTID":253781},"geometry":{"x":174447.88999999966,"y":2542954.7399999984}},{"attributes":{"ID":253786,"DIS_CODE":0,"TOWNNAME":"仁德區","LI":"一甲里","LIN":"14鄰","STREET":"忠義路","SECT":" ","MAREA":" ","LANE":"２４１巷","ALLEY":" ","HOUSE_NO":"５號","E_COORD97":173903.03,"N_COORD97":2541811.5099999998,"ADDRESS":"忠義路２４１巷５號","OBJECTID":253782},"geometry":{"x":173903.03000000119,"y":2541811.5100000016}},{"attributes":{"ID":253787,"DIS_CODE":0,"TOWNNAME":"仁德區","LI":"仁德里","LIN":"14鄰","STREET":"四維街","SECT":" ","MAREA":" ","LANE":"８巷","ALLEY":" ","HOUSE_NO":"５號","E_COORD97":173310.98000000001,"N_COORD97":2541565.25,"ADDRESS":"四維街８巷５號","OBJECTID":253783},"geometry":{"x":173310.98000000045,"y":2541565.2500000019}},{"attributes":{"ID":253788,"DIS_CODE":0,"TOWNNAME":"仁德區","LI":"二行里","LIN":"14鄰","STREET":"行大街","SECT":" ","MAREA":" ","LANE":"１７２巷","ALLEY":" ","HOUSE_NO":"７８號","E_COORD97":169804.5,"N_COORD97":2535243,"ADDRESS":"行大街１７２巷７８號","OBJECTID":253784},"geometry":{"x":169804.5,"y":2535242.9999999981}},{"attributes":{"ID":253789,"DIS_CODE":0,"TOWNNAME":"仁德區","LI":"土庫里","LIN":"14鄰","STREET":"土庫路","SECT":" ","MAREA":" ","LANE":"１８５巷","ALLEY":" ","HOUSE_NO":"３０號","E_COORD97":174407.45999999999,"N_COORD97":2542937.9900000002,"ADDRESS":"土庫路１８５巷３０號","OBJECTID":253785},"geometry":{"x":174407.45999999996,"y":2542937.9900000002}},{"attributes":{"ID":253790,"DIS_CODE":0,"TOWNNAME":"永康區","LI":"東灣里","LIN":"14鄰","STREET":"大灣路","SECT":" ","MAREA":" ","LANE":"３５７巷","ALLEY":" ","HOUSE_NO":"２７號","E_COORD97":174830.92999999999,"N_COORD97":2544903.9900000002,"ADDRESS":"大灣路３５７巷２７號","OBJECTID":253786},"geometry":{"x":174830.9299999997,"y":2544903.9900000021}},{"attributes":{"ID":253791,"DIS_CODE":0,"TOWNNAME":"安南區","LI":"幸福里","LIN":"11鄰","STREET":"府安路","SECT":"六段","MAREA":" ","LANE":"１０３巷","ALLEY":" ","HOUSE_NO":"７２號","E_COORD97":166698.10999999999,"N_COORD97":2546685.6200000001,"ADDRESS":"府安路六段１０３巷７２號","OBJECTID":253787},"geometry":{"x":166698.11000000127,"y":2546685.620000001}},{"attributes":{"ID":253792,"DIS_CODE":0,"TOWNNAME":"安南區","LI":"幸福里","LIN":"11鄰","STREET":"府安路","SECT":"六段","MAREA":" ","LANE":"９４巷","ALLEY":" ","HOUSE_NO":"５５號","E_COORD97":166718.29999999999,"N_COORD97":2546674.1800000002,"ADDRESS":"府安路六段９４巷５５號","OBJECTID":253788},"geometry":{"x":166718.30000000075,"y":2546674.1800000034}},{"attributes":{"ID":253793,"DIS_CODE":0,"TOWNNAME":"安南區","LI":"幸福里","LIN":"11鄰","STREET":"府安路","SECT":"六段","MAREA":" ","LANE":"９４巷","ALLEY":" ","HOUSE_NO":"５７號","E_COORD97":166717.04000000001,"N_COORD97":2546678.8500000001,"ADDRESS":"府安路六段９４巷５７號","OBJECTID":253789},"geometry":{"x":166717.04000000097,"y":2546678.8499999996}},{"attributes":{"ID":253794,"DIS_CODE":0,"TOWNNAME":"南區","LI":"文華里","LIN":"24鄰","STREET":"建南路","SECT":" ","MAREA":" ","LANE":" ","ALLEY":" ","HOUSE_NO":"１７２號","E_COORD97":166787.5,"N_COORD97":2542873.9399999999,"ADDRESS":"建南路１７２號","OBJECTID":253790},"geometry":{"x":166787.5,"y":2542873.9399999995}},{"attributes":{"ID":253795,"DIS_CODE":0,"TOWNNAME":"安南區","LI":"幸福里","LIN":"11鄰","STREET":"府安路","SECT":"六段","MAREA":" ","LANE":"９４巷","ALLEY":" ","HOUSE_NO":"５９號","E_COORD97":166716.76999999999,"N_COORD97":2546684.3300000001,"ADDRESS":"府安路六段９４巷５９號","OBJECTID":253791},"geometry":{"x":166716.76999999955,"y":2546684.3300000019}},{"attributes":{"ID":253796,"DIS_CODE":0,"TOWNNAME":"安南區","LI":"幸福里","LIN":"11鄰","STREET":"府安路","SECT":"六段","MAREA":" ","LANE":"９４巷","ALLEY":" ","HOUSE_NO":"６１號","E_COORD97":166715.51999999999,"N_COORD97":2546688.2799999998,"ADDRESS":"府安路六段９４巷６１號","OBJECTID":253792},"geometry":{"x":166715.51999999955,"y":2546688.2799999993}},{"attributes":{"ID":253797,"DIS_CODE":0,"TOWNNAME":"安南區","LI":"安慶里","LIN":"11鄰","STREET":"長溪路","SECT":"一段","MAREA":" ","LANE":"１６８巷","ALLEY":" ","HOUSE_NO":"１７號","E_COORD97":169032.35999999999,"N_COORD97":2548607.1000000001,"ADDRESS":"長溪路一段１６８巷１７號","OBJECTID":253793},"geometry":{"x":169032.36000000127,"y":2548607.1000000034}},{"attributes":{"ID":253798,"DIS_CODE":0,"TOWNNAME":"安南區","LI":"安順里","LIN":"11鄰","STREET":"安和路","SECT":"四段","MAREA":" ","LANE":"１０６巷","ALLEY":" ","HOUSE_NO":"２２號","E_COORD97":170021.45999999999,"N_COORD97":2550307.8599999999,"ADDRESS":"安和路四段１０６巷２２號","OBJECTID":253794},"geometry":{"x":170021.45999999996,"y":2550307.8600000013}},{"attributes":{"ID":253799,"DIS_CODE":0,"TOWNNAME":"安南區","LI":"安順里","LIN":"11鄰","STREET":"安和路","SECT":"四段","MAREA":" ","LANE":"９４巷","ALLEY":" ","HOUSE_NO":"５９號","E_COORD97":170159.31,"N_COORD97":2550261.8399999999,"ADDRESS":"安和路四段９４巷５９號","OBJECTID":253795},"geometry":{"x":170159.31000000052,"y":2550261.8399999999}},{"attributes":{"ID":253800,"DIS_CODE":0,"TOWNNAME":"仁德區","LI":"後壁里","LIN":"14鄰","STREET":"德南路","SECT":" ","MAREA":" ","LANE":"１３７巷","ALLEY":" ","HOUSE_NO":"４１號","E_COORD97":173589.12,"N_COORD97":2538703.2599999998,"ADDRESS":"德南路１３７巷４１號","OBJECTID":253796},"geometry":{"x":173589.12000000011,"y":2538703.2600000016}},{"attributes":{"ID":253801,"DIS_CODE":0,"TOWNNAME":"南區","LI":"文華里","LIN":"24鄰","STREET":"文南二街","SECT":" ","MAREA":" ","LANE":" ","ALLEY":" ","HOUSE_NO":"３８號","E_COORD97":166863.60000000001,"N_COORD97":2542938.3100000001,"ADDRESS":"文南二街３８號","OBJECTID":253797},"geometry":{"x":166863.60000000056,"y":2542938.3100000024}},{"attributes":{"ID":253802,"DIS_CODE":0,"TOWNNAME":"南區","LI":"文華里","LIN":"24鄰","STREET":"文南二街","SECT":" ","MAREA":" ","LANE":" ","ALLEY":" ","HOUSE_NO":"４０號","E_COORD97":166860.73000000001,"N_COORD97":2542934.3500000001,"ADDRESS":"文南二街４０號","OBJECTID":253798},"geometry":{"x":166860.73000000045,"y":2542934.3500000015}},{"attributes":{"ID":253803,"DIS_CODE":0,"TOWNNAME":"南區","LI":"文華里","LIN":"24鄰","STREET":"文南二街","SECT":" ","MAREA":" ","LANE":" ","ALLEY":" ","HOUSE_NO":"５０號","E_COORD97":166843.48999999999,"N_COORD97":2542920.9199999999,"ADDRESS":"文南二街５０號","OBJECTID":253799},"geometry":{"x":166843.49000000022,"y":2542920.9200000018}},{"attributes":{"ID":253804,"DIS_CODE":0,"TOWNNAME":"南區","LI":"文華里","LIN":"24鄰","STREET":"文南二街","SECT":" ","MAREA":" ","LANE":" ","ALLEY":" ","HOUSE_NO":"５２號","E_COORD97":166839.98999999999,"N_COORD97":2542917.8799999999,"ADDRESS":"文南二街５２號","OBJECTID":253800},"geometry":{"x":166839.99000000022,"y":2542917.879999999}}]}