{"displayFieldName":"TOWNNAME","fieldAliases":{"ID":"ID","DIS_CODE":"DIS_CODE","TOWNNAME":"TOWNNAME","LI":"LI","LIN":"LIN","STREET":"STREET","SECT":"SECT","MAREA":"MAREA","LANE":"LANE","ALLEY":"ALLEY","HOUSE_NO":"HOUSE_NO","E_COORD97":"E_COORD97","N_COORD97":"N_COORD97","ADDRESS":"ADDRESS","OBJECTID":"OBJECTID"},"geometryType":"esriGeometryPoint","spatialReference":{"wkid":102443,"latestWkid":3826},"fields":[{"name":"ID","type":"esriFieldTypeDouble","alias":"ID"},{"name":"DIS_CODE","type":"esriFieldTypeInteger","alias":"DIS_CODE"},{"name":"TOWNNAME","type":"esriFieldTypeString","alias":"TOWNNAME","length":8},{"name":"LI","type":"esriFieldTypeString","alias":"LI","length":8},{"name":"LIN","type":"esriFieldTypeString","alias":"LIN","length":12},{"name":"STREET","type":"esriFieldTypeString","alias":"STREET","length":20},{"name":"SECT","type":"esriFieldTypeString","alias":"SECT","length":8},{"name":"MAREA","type":"esriFieldTypeString","alias":"MAREA","length":12},{"name":"LANE","type":"esriFieldTypeString","alias":"LANE","length":10},{"name":"ALLEY","type":"esriFieldTypeString","alias":"ALLEY","length":10},{"name":"HOUSE_NO","type":"esriFieldTypeString","alias":"HOUSE_NO","length":20},{"name":"E_COORD97","type":"esriFieldTypeDouble","alias":"E_COORD97"},{"name":"N_COORD97","type":"esriFieldTypeDouble","alias":"N_COORD97"},{"name":"ADDRESS","type":"esriFieldTypeString","alias":"ADDRESS","length":50},{"name":"OBJECTID","type":"esriFieldTypeOID","alias":"OBJECTID"}],"features":[{"attributes":{"ID":285207,"DIS_CODE":0,"TOWNNAME":"東區","LI":"成大里","LIN":"2鄰","STREET":"東寧路","SECT":"西段","MAREA":" ","LANE":" ","ALLEY":" ","HOUSE_NO":"６６號","E_COORD97":169538.16,"N_COORD97":2543693.6099999999,"ADDRESS":"東寧路西段６６號","OBJECTID":285201},"geometry":{"x":169538.16000000108,"y":2543693.6099999994}},{"attributes":{"ID":285208,"DIS_CODE":0,"TOWNNAME":"新營區","LI":"護鎮里","LIN":"2鄰","STREET":" ","SECT":" ","MAREA":"後鎮","LANE":" ","ALLEY":" ","HOUSE_NO":"１６號","E_COORD97":179336.73000000001,"N_COORD97":2581082.0299999998,"ADDRESS":"後鎮１６號","OBJECTID":285202},"geometry":{"x":179336.73000000138,"y":2581082.0299999993}},{"attributes":{"ID":285209,"DIS_CODE":0,"TOWNNAME":"永康區","LI":"新樹里","LIN":"12鄰","STREET":"富強路","SECT":"二段","MAREA":" ","LANE":"７７巷","ALLEY":" ","HOUSE_NO":"３２號","E_COORD97":175588.70000000001,"N_COORD97":2546952.5,"ADDRESS":"富強路二段７７巷３２號","OBJECTID":285203},"geometry":{"x":175588.70000000112,"y":2546952.5}},{"attributes":{"ID":285210,"DIS_CODE":0,"TOWNNAME":"永康區","LI":"成功里","LIN":"12鄰","STREET":"忠孝路","SECT":" ","MAREA":" ","LANE":"２０３巷","ALLEY":" ","HOUSE_NO":"３５號","E_COORD97":171944.97,"N_COORD97":2544861.25,"ADDRESS":"忠孝路２０３巷３５號","OBJECTID":285204},"geometry":{"x":171944.97000000067,"y":2544861.2500000019}},{"attributes":{"ID":285211,"DIS_CODE":0,"TOWNNAME":"永康區","LI":"成功里","LIN":"12鄰","STREET":"忠孝路","SECT":" ","MAREA":" ","LANE":"２０３巷","ALLEY":" ","HOUSE_NO":"５４號","E_COORD97":171945.12,"N_COORD97":2544869.9300000002,"ADDRESS":"忠孝路２０３巷５４號","OBJECTID":285205},"geometry":{"x":171945.12000000011,"y":2544869.9300000016}},{"attributes":{"ID":285212,"DIS_CODE":0,"TOWNNAME":"永康區","LI":"安康里","LIN":"12鄰","STREET":"中華路","SECT":" ","MAREA":" ","LANE":"６１９巷","ALLEY":" ","HOUSE_NO":"１７號之１","E_COORD97":170998.12,"N_COORD97":2546066.04,"ADDRESS":"中華路６１９巷１７號之１","OBJECTID":285206},"geometry":{"x":170998.12000000104,"y":2546066.0399999991}},{"attributes":{"ID":285213,"DIS_CODE":0,"TOWNNAME":"永康區","LI":"安康里","LIN":"12鄰","STREET":"中華路","SECT":" ","MAREA":" ","LANE":"６１９巷","ALLEY":" ","HOUSE_NO":"１９號之１","E_COORD97":170994.20999999999,"N_COORD97":2546063.79,"ADDRESS":"中華路６１９巷１９號之１","OBJECTID":285207},"geometry":{"x":170994.21000000089,"y":2546063.790000001}},{"attributes":{"ID":285214,"DIS_CODE":0,"TOWNNAME":"中西區","LI":"青年里","LIN":"12鄰","STREET":"衛民街","SECT":" ","MAREA":" ","LANE":"１４３巷","ALLEY":" ","HOUSE_NO":"１０號","E_COORD97":168740.04000000001,"N_COORD97":2543756.23,"ADDRESS":"衛民街１４３巷１０號","OBJECTID":285208},"geometry":{"x":168740.04000000004,"y":2543756.2300000023}},{"attributes":{"ID":285215,"DIS_CODE":0,"TOWNNAME":"新市區","LI":"港墘里","LIN":"12鄰","STREET":"中山路","SECT":" ","MAREA":" ","LANE":"１０６巷","ALLEY":" ","HOUSE_NO":"６號","E_COORD97":178354.92999999999,"N_COORD97":2552806.75,"ADDRESS":"中山路１０６巷６號","OBJECTID":285209},"geometry":{"x":178354.93000000063,"y":2552806.7499999981}},{"attributes":{"ID":285216,"DIS_CODE":0,"TOWNNAME":"安南區","LI":"安順里","LIN":"12鄰","STREET":"安和路","SECT":"三段","MAREA":" ","LANE":"１９０巷","ALLEY":" ","HOUSE_NO":"７５號之２１","E_COORD97":170250.10662100001,"N_COORD97":2549718.1118100001,"ADDRESS":"安和路三段１９０巷７５號之２１","OBJECTID":285210},"geometry":{"x":170250.10662099998,"y":2549718.1118110027}},{"attributes":{"ID":285217,"DIS_CODE":0,"TOWNNAME":"佳里區","LI":"安西里","LIN":"56鄰","STREET":"佳安中街","SECT":" ","MAREA":" ","LANE":" ","ALLEY":" ","HOUSE_NO":"２６號","E_COORD97":163920.64000000001,"N_COORD97":2562295.3799999999,"ADDRESS":"佳安中街２６號","OBJECTID":285211},"geometry":{"x":163920.63999999966,"y":2562295.3800000008}},{"attributes":{"ID":285218,"DIS_CODE":0,"TOWNNAME":"玉井區","LI":"沙田里","LIN":"2鄰","STREET":" ","SECT":" ","MAREA":"沙田","LANE":" ","ALLEY":" ","HOUSE_NO":"１５號","E_COORD97":195751.95999999999,"N_COORD97":2556690.29,"ADDRESS":"沙田１５號","OBJECTID":285212},"geometry":{"x":195751.96000000183,"y":2556690.2899999991}},{"attributes":{"ID":285219,"DIS_CODE":0,"TOWNNAME":"歸仁區","LI":"沙崙里","LIN":"2鄰","STREET":" ","SECT":" ","MAREA":"二甲","LANE":" ","ALLEY":" ","HOUSE_NO":"５８號","E_COORD97":178354.67999999999,"N_COORD97":2539262.8900000001,"ADDRESS":"二甲５８號","OBJECTID":285213},"geometry":{"x":178354.68000000063,"y":2539262.8900000025}},{"attributes":{"ID":285220,"DIS_CODE":0,"TOWNNAME":"歸仁區","LI":"大潭里","LIN":"2鄰","STREET":"中正南路","SECT":"三段","MAREA":" ","LANE":" ","ALLEY":" ","HOUSE_NO":"２３７號","E_COORD97":175195.41,"N_COORD97":2534726.2799999998,"ADDRESS":"中正南路三段２３７號","OBJECTID":285214},"geometry":{"x":175195.41000000108,"y":2534726.2800000012}},{"attributes":{"ID":285221,"DIS_CODE":0,"TOWNNAME":"歸仁區","LI":"武東里","LIN":"2鄰","STREET":"武東二街","SECT":" ","MAREA":" ","LANE":" ","ALLEY":" ","HOUSE_NO":"１８號","E_COORD97":175453.34,"N_COORD97":2535350.25,"ADDRESS":"武東二街１８號","OBJECTID":285215},"geometry":{"x":175453.34000000078,"y":2535350.2500000019}},{"attributes":{"ID":285222,"DIS_CODE":0,"TOWNNAME":"北區","LI":"華興里","LIN":"2鄰","STREET":"林森路","SECT":"三段","MAREA":" ","LANE":" ","ALLEY":" ","HOUSE_NO":"１９１之２號","E_COORD97":170439.06,"N_COORD97":2545297.3100000001,"ADDRESS":"林森路三段１９１之２號","OBJECTID":285216},"geometry":{"x":170439.06000000052,"y":2545297.3099999987}},{"attributes":{"ID":285223,"DIS_CODE":0,"TOWNNAME":"歸仁區","LI":"沙崙里","LIN":"2鄰","STREET":" ","SECT":" ","MAREA":"二甲","LANE":" ","ALLEY":" ","HOUSE_NO":"６７號","E_COORD97":178368.07999999999,"N_COORD97":2539283.8799999999,"ADDRESS":"二甲６７號","OBJECTID":285217},"geometry":{"x":178368.08000000007,"y":2539283.879999999}},{"attributes":{"ID":285224,"DIS_CODE":0,"TOWNNAME":"楠西區","LI":"照興里","LIN":"2鄰","STREET":" ","SECT":" ","MAREA":"興北","LANE":" ","ALLEY":" ","HOUSE_NO":"２２號之２","E_COORD97":195826.23999999999,"N_COORD97":2566666.2999999998,"ADDRESS":"興北２２號之２","OBJECTID":285218},"geometry":{"x":195826.24000000022,"y":2566666.3000000007}},{"attributes":{"ID":285225,"DIS_CODE":0,"TOWNNAME":"安南區","LI":"溪東里","LIN":"12鄰","STREET":"北安路","SECT":"二段","MAREA":" ","LANE":"９３巷","ALLEY":" ","HOUSE_NO":"５３號之１","E_COORD97":168231.35000000001,"N_COORD97":2547406.8399999999,"ADDRESS":"北安路二段９３巷５３號之１","OBJECTID":285219},"geometry":{"x":168231.35000000056,"y":2547406.8400000017}},{"attributes":{"ID":285226,"DIS_CODE":0,"TOWNNAME":"安南區","LI":"安東里","LIN":"12鄰","STREET":"安和路","SECT":"一段","MAREA":" ","LANE":"２８８巷","ALLEY":" ","HOUSE_NO":"１６０號","E_COORD97":169719.60000000001,"N_COORD97":2548208.4900000002,"ADDRESS":"安和路一段２８８巷１６０號","OBJECTID":285220},"geometry":{"x":169719.60000000056,"y":2548208.4900000039}},{"attributes":{"ID":285227,"DIS_CODE":0,"TOWNNAME":"安南區","LI":"安順里","LIN":"12鄰","STREET":"安和路","SECT":"三段","MAREA":" ","LANE":"１９０巷","ALLEY":" ","HOUSE_NO":"６９號","E_COORD97":170076.85999999999,"N_COORD97":2549823.0299999998,"ADDRESS":"安和路三段１９０巷６９號","OBJECTID":285221},"geometry":{"x":170076.86000000034,"y":2549823.0299999993}},{"attributes":{"ID":285228,"DIS_CODE":0,"TOWNNAME":"新營區","LI":"埤寮里","LIN":"2鄰","STREET":" ","SECT":" ","MAREA":"許丑","LANE":" ","ALLEY":" ","HOUSE_NO":"２２之１１號","E_COORD97":180010.64999999999,"N_COORD97":2580917.2200000002,"ADDRESS":"許丑２２之１１號","OBJECTID":285222},"geometry":{"x":180010.65000000037,"y":2580917.2200000007}},{"attributes":{"ID":285229,"DIS_CODE":0,"TOWNNAME":"安南區","LI":"溪東里","LIN":"12鄰","STREET":"北安路","SECT":"二段","MAREA":" ","LANE":"６３巷","ALLEY":" ","HOUSE_NO":"４２之１號","E_COORD97":168332.95999999999,"N_COORD97":2547376.7999999998,"ADDRESS":"北安路二段６３巷４２之１號","OBJECTID":285223},"geometry":{"x":168332.96000000089,"y":2547376.8000000026}},{"attributes":{"ID":285230,"DIS_CODE":0,"TOWNNAME":"永康區","LI":"西勢里","LIN":"12鄰","STREET":"西勢路","SECT":" ","MAREA":" ","LANE":"９３巷","ALLEY":" ","HOUSE_NO":"１９號","E_COORD97":176140.82000000001,"N_COORD97":2546655.5699999998,"ADDRESS":"西勢路９３巷１９號","OBJECTID":285224},"geometry":{"x":176140.8200000003,"y":2546655.5700000022}},{"attributes":{"ID":285231,"DIS_CODE":0,"TOWNNAME":"永康區","LI":"尚頂里","LIN":"12鄰","STREET":"正南一街","SECT":" ","MAREA":" ","LANE":"９２巷","ALLEY":" ","HOUSE_NO":"１７號","E_COORD97":171011.04000000001,"N_COORD97":2547342.2799999998,"ADDRESS":"正南一街９２巷１７號","OBJECTID":285225},"geometry":{"x":171011.04000000004,"y":2547342.2800000012}},{"attributes":{"ID":285232,"DIS_CODE":0,"TOWNNAME":"永康區","LI":"網寮里","LIN":"12鄰","STREET":"永二街","SECT":" ","MAREA":" ","LANE":"２４４巷","ALLEY":" ","HOUSE_NO":"２３號","E_COORD97":173269.44,"N_COORD97":2546510.9700000002,"ADDRESS":"永二街２４４巷２３號","OBJECTID":285226},"geometry":{"x":173269.44000000134,"y":2546510.9700000025}},{"attributes":{"ID":285233,"DIS_CODE":0,"TOWNNAME":"永康區","LI":"西勢里","LIN":"12鄰","STREET":"廣興街","SECT":" ","MAREA":" ","LANE":"１４７巷","ALLEY":" ","HOUSE_NO":"３號","E_COORD97":176119.56,"N_COORD97":2546592.4900000002,"ADDRESS":"廣興街１４７巷３號","OBJECTID":285227},"geometry":{"x":176119.56000000052,"y":2546592.4900000021}},{"attributes":{"ID":285234,"DIS_CODE":0,"TOWNNAME":"仁德區","LI":"仁德里","LIN":"38鄰","STREET":"文宏路","SECT":" ","MAREA":" ","LANE":" ","ALLEY":" ","HOUSE_NO":"１０６號","E_COORD97":172420.78469100001,"N_COORD97":2541766.57736,"ADDRESS":"文宏路１０６號","OBJECTID":285228},"geometry":{"x":172420.78469100129,"y":2541766.5773600005}},{"attributes":{"ID":285235,"DIS_CODE":0,"TOWNNAME":"永康區","LI":"尚頂里","LIN":"12鄰","STREET":"尚頂路","SECT":" ","MAREA":" ","LANE":"５２巷","ALLEY":" ","HOUSE_NO":"９號","E_COORD97":171237.23000000001,"N_COORD97":2547541.9500000002,"ADDRESS":"尚頂路５２巷９號","OBJECTID":285229},"geometry":{"x":171237.23000000138,"y":2547541.9499999993}},{"attributes":{"ID":285236,"DIS_CODE":0,"TOWNNAME":"永康區","LI":"南灣里","LIN":"12鄰","STREET":"立興街","SECT":" ","MAREA":" ","LANE":"５７巷","ALLEY":" ","HOUSE_NO":"１號","E_COORD97":174604.04000000001,"N_COORD97":2544818.8100000001,"ADDRESS":"立興街５７巷１號","OBJECTID":285230},"geometry":{"x":174604.0400000019,"y":2544818.8100000005}},{"attributes":{"ID":285237,"DIS_CODE":0,"TOWNNAME":"安南區","LI":"國安里","LIN":"12鄰","STREET":"郡安路","SECT":"六段","MAREA":" ","LANE":"１２０巷","ALLEY":" ","HOUSE_NO":"１１號","E_COORD97":166455.26999999999,"N_COORD97":2547427.9199999999,"ADDRESS":"郡安路六段１２０巷１１號","OBJECTID":285231},"geometry":{"x":166455.27000000048,"y":2547427.9199999999}},{"attributes":{"ID":285238,"DIS_CODE":0,"TOWNNAME":"安南區","LI":"國安里","LIN":"12鄰","STREET":"郡安路","SECT":"六段","MAREA":" ","LANE":"１２０巷","ALLEY":" ","HOUSE_NO":"１號","E_COORD97":166446.17999999999,"N_COORD97":2547479.75,"ADDRESS":"郡安路六段１２０巷１號","OBJECTID":285232},"geometry":{"x":166446.18000000063,"y":2547479.75}},{"attributes":{"ID":285239,"DIS_CODE":0,"TOWNNAME":"安南區","LI":"國安里","LIN":"12鄰","STREET":"郡安路","SECT":"六段","MAREA":" ","LANE":"１２０巷","ALLEY":" ","HOUSE_NO":"３號","E_COORD97":166447,"N_COORD97":2547470.4700000002,"ADDRESS":"郡安路六段１２０巷３號","OBJECTID":285233},"geometry":{"x":166447.00000000186,"y":2547470.4700000025}},{"attributes":{"ID":285240,"DIS_CODE":0,"TOWNNAME":"安南區","LI":"國安里","LIN":"12鄰","STREET":"郡安路","SECT":"六段","MAREA":" ","LANE":"１２０巷","ALLEY":" ","HOUSE_NO":"５號","E_COORD97":166449.14000000001,"N_COORD97":2547459.1499999999,"ADDRESS":"郡安路六段１２０巷５號","OBJECTID":285234},"geometry":{"x":166449.1400000006,"y":2547459.1500000022}},{"attributes":{"ID":285241,"DIS_CODE":0,"TOWNNAME":"安南區","LI":"國安里","LIN":"12鄰","STREET":"郡安路","SECT":"六段","MAREA":" ","LANE":"１２０巷","ALLEY":" ","HOUSE_NO":"７號","E_COORD97":166450.75,"N_COORD97":2547448.27,"ADDRESS":"郡安路六段１２０巷７號","OBJECTID":285235},"geometry":{"x":166450.75000000093,"y":2547448.2699999996}},{"attributes":{"ID":285242,"DIS_CODE":0,"TOWNNAME":"安南區","LI":"國安里","LIN":"12鄰","STREET":"郡安路","SECT":"六段","MAREA":" ","LANE":"１２０巷","ALLEY":" ","HOUSE_NO":"１０號","E_COORD97":166439.03,"N_COORD97":2547414.73,"ADDRESS":"郡安路六段１２０巷１０號","OBJECTID":285236},"geometry":{"x":166439.03000000119,"y":2547414.7300000023}},{"attributes":{"ID":285243,"DIS_CODE":0,"TOWNNAME":"安南區","LI":"國安里","LIN":"12鄰","STREET":"郡安路","SECT":"六段","MAREA":" ","LANE":"１２０巷","ALLEY":" ","HOUSE_NO":"９號","E_COORD97":166454.06,"N_COORD97":2547436.9500000002,"ADDRESS":"郡安路六段１２０巷９號","OBJECTID":285237},"geometry":{"x":166454.05999999959,"y":2547436.9499999993}},{"attributes":{"ID":285244,"DIS_CODE":0,"TOWNNAME":"新營區","LI":"大宏里","LIN":"2鄰","STREET":"民族路","SECT":" ","MAREA":" ","LANE":" ","ALLEY":" ","HOUSE_NO":"４４之３號","E_COORD97":180325.44,"N_COORD97":2578747.3300000001,"ADDRESS":"民族路４４之３號","OBJECTID":285238},"geometry":{"x":180325.44000000041,"y":2578747.3300000019}},{"attributes":{"ID":285245,"DIS_CODE":0,"TOWNNAME":"南區","LI":"南都里","LIN":"2鄰","STREET":"濱南路","SECT":" ","MAREA":" ","LANE":" ","ALLEY":" ","HOUSE_NO":"５號","E_COORD97":166327.09,"N_COORD97":2540211.0099999998,"ADDRESS":"濱南路５號","OBJECTID":285239},"geometry":{"x":166327.08999999985,"y":2540211.0100000016}},{"attributes":{"ID":285246,"DIS_CODE":0,"TOWNNAME":"安平區","LI":"億載里","LIN":"2鄰","STREET":"光州七街","SECT":" ","MAREA":" ","LANE":" ","ALLEY":" ","HOUSE_NO":"１０８號","E_COORD97":163976.51999999999,"N_COORD97":2543737.6499999999,"ADDRESS":"光州七街１０８號","OBJECTID":285240},"geometry":{"x":163976.52000000142,"y":2543737.6500000004}},{"attributes":{"ID":285247,"DIS_CODE":0,"TOWNNAME":"南區","LI":"文南里","LIN":"2鄰","STREET":"建南路","SECT":" ","MAREA":" ","LANE":" ","ALLEY":" ","HOUSE_NO":"１３７號","E_COORD97":166990.57999999999,"N_COORD97":2542837.8900000001,"ADDRESS":"建南路１３７號","OBJECTID":285241},"geometry":{"x":166990.58000000194,"y":2542837.8900000006}},{"attributes":{"ID":285248,"DIS_CODE":0,"TOWNNAME":"南區","LI":"文南里","LIN":"2鄰","STREET":"建南路","SECT":" ","MAREA":" ","LANE":" ","ALLEY":" ","HOUSE_NO":"１３９號","E_COORD97":166986.39999999999,"N_COORD97":2542839,"ADDRESS":"建南路１３９號","OBJECTID":285242},"geometry":{"x":166986.40000000037,"y":2542839.0000000019}},{"attributes":{"ID":285249,"DIS_CODE":0,"TOWNNAME":"南區","LI":"文南里","LIN":"2鄰","STREET":"建南路","SECT":" ","MAREA":" ","LANE":" ","ALLEY":" ","HOUSE_NO":"１４１號","E_COORD97":166981.92999999999,"N_COORD97":2542839.7000000002,"ADDRESS":"建南路１４１號","OBJECTID":285243},"geometry":{"x":166981.9299999997,"y":2542839.7000000011}},{"attributes":{"ID":285250,"DIS_CODE":0,"TOWNNAME":"南區","LI":"文南里","LIN":"2鄰","STREET":"建南路","SECT":" ","MAREA":" ","LANE":" ","ALLEY":" ","HOUSE_NO":"１４３號","E_COORD97":166977.32999999999,"N_COORD97":2542839.98,"ADDRESS":"建南路１４３號","OBJECTID":285244},"geometry":{"x":166977.33000000101,"y":2542839.9800000004}},{"attributes":{"ID":285251,"DIS_CODE":0,"TOWNNAME":"官田區","LI":"隆本里","LIN":"13鄰","STREET":"忠孝街","SECT":" ","MAREA":" ","LANE":" ","ALLEY":" ","HOUSE_NO":"１３７號","E_COORD97":179977.73000000001,"N_COORD97":2566416.3999999999,"ADDRESS":"忠孝街１３７號","OBJECTID":285245},"geometry":{"x":179977.73000000045,"y":2566416.4000000022}},{"attributes":{"ID":285252,"DIS_CODE":0,"TOWNNAME":"官田區","LI":"隆本里","LIN":"21鄰","STREET":"忠義街","SECT":" ","MAREA":" ","LANE":" ","ALLEY":" ","HOUSE_NO":"５５號","E_COORD97":180091.67999999999,"N_COORD97":2566157.27,"ADDRESS":"忠義街５５號","OBJECTID":285246},"geometry":{"x":180091.68000000156,"y":2566157.2699999996}},{"attributes":{"ID":285253,"DIS_CODE":0,"TOWNNAME":"安南區","LI":"南興里","LIN":"12鄰","STREET":"公學路","SECT":"五段","MAREA":" ","LANE":"６５６巷","ALLEY":" ","HOUSE_NO":"４５０號","E_COORD97":164168.48999999999,"N_COORD97":2553782.3799999999,"ADDRESS":"公學路五段６５６巷４５０號","OBJECTID":285247},"geometry":{"x":164168.49000000022,"y":2553782.3800000008}},{"attributes":{"ID":285254,"DIS_CODE":0,"TOWNNAME":"安南區","LI":"城東里","LIN":"12鄰","STREET":"城北路","SECT":" ","MAREA":" ","LANE":"１３８巷","ALLEY":" ","HOUSE_NO":"５７號","E_COORD97":161139.98999999999,"N_COORD97":2551717.6099999999,"ADDRESS":"城北路１３８巷５７號","OBJECTID":285248},"geometry":{"x":161139.99000000115,"y":2551717.6099999994}},{"attributes":{"ID":285255,"DIS_CODE":0,"TOWNNAME":"安南區","LI":"南興里","LIN":"12鄰","STREET":"公學路","SECT":"五段","MAREA":" ","LANE":"６５６巷","ALLEY":" ","HOUSE_NO":"１９８號","E_COORD97":164087.84,"N_COORD97":2553380.23,"ADDRESS":"公學路五段６５６巷１９８號","OBJECTID":285249},"geometry":{"x":164087.83999999985,"y":2553380.2300000004}},{"attributes":{"ID":285256,"DIS_CODE":0,"TOWNNAME":"安南區","LI":"新順里","LIN":"12鄰","STREET":"安和路","SECT":"三段","MAREA":" ","LANE":"７３巷","ALLEY":" ","HOUSE_NO":"２號","E_COORD97":169763.57000000001,"N_COORD97":2549523.27,"ADDRESS":"安和路三段７３巷２號","OBJECTID":285250},"geometry":{"x":169763.5700000003,"y":2549523.2699999996}},{"attributes":{"ID":285257,"DIS_CODE":0,"TOWNNAME":"南區","LI":"開南里","LIN":"6鄰","STREET":"中華西路","SECT":"一段","MAREA":" ","LANE":"１６巷","ALLEY":" ","HOUSE_NO":"１１號","E_COORD97":166374.28,"N_COORD97":2540618.6800000002,"ADDRESS":"中華西路一段１６巷１１號","OBJECTID":285251},"geometry":{"x":166374.28000000119,"y":2540618.6800000034}},{"attributes":{"ID":285258,"DIS_CODE":0,"TOWNNAME":"南區","LI":"開南里","LIN":"6鄰","STREET":"中華西路","SECT":"一段","MAREA":" ","LANE":"１６巷","ALLEY":" ","HOUSE_NO":"１號","E_COORD97":166333.03,"N_COORD97":2540618.6800000002,"ADDRESS":"中華西路一段１６巷１號","OBJECTID":285252},"geometry":{"x":166333.03000000026,"y":2540618.6800000034}},{"attributes":{"ID":285259,"DIS_CODE":0,"TOWNNAME":"官田區","LI":"隆本里","LIN":"21鄰","STREET":"忠義街","SECT":" ","MAREA":" ","LANE":" ","ALLEY":" ","HOUSE_NO":"５７號","E_COORD97":180087.57999999999,"N_COORD97":2566157.21,"ADDRESS":"忠義街５７號","OBJECTID":285253},"geometry":{"x":180087.58000000194,"y":2566157.2100000028}},{"attributes":{"ID":285260,"DIS_CODE":0,"TOWNNAME":"新化區","LI":"豐榮里","LIN":"13鄰","STREET":"民治路","SECT":" ","MAREA":" ","LANE":" ","ALLEY":" ","HOUSE_NO":"７８號","E_COORD97":178729.45999999999,"N_COORD97":2548080.25,"ADDRESS":"民治路７８號","OBJECTID":285254},"geometry":{"x":178729.46000000089,"y":2548080.25}},{"attributes":{"ID":285261,"DIS_CODE":0,"TOWNNAME":"新營區","LI":"土庫里","LIN":"2鄰","STREET":" ","SECT":" ","MAREA":"土庫","LANE":" ","ALLEY":" ","HOUSE_NO":"６號之１６","E_COORD97":182608.23999999999,"N_COORD97":2580129.9300000002,"ADDRESS":"土庫６號之１６","OBJECTID":285255},"geometry":{"x":182608.24000000115,"y":2580129.9300000016}},{"attributes":{"ID":285262,"DIS_CODE":0,"TOWNNAME":"南區","LI":"開南里","LIN":"6鄰","STREET":"中華西路","SECT":"一段","MAREA":" ","LANE":"１６巷","ALLEY":" ","HOUSE_NO":"３號","E_COORD97":166338.47,"N_COORD97":2540618.6800000002,"ADDRESS":"中華西路一段１６巷３號","OBJECTID":285256},"geometry":{"x":166338.4700000016,"y":2540618.6800000034}},{"attributes":{"ID":285263,"DIS_CODE":0,"TOWNNAME":"南區","LI":"開南里","LIN":"6鄰","STREET":"中華西路","SECT":"一段","MAREA":" ","LANE":"１６巷","ALLEY":" ","HOUSE_NO":"５號","E_COORD97":166349.57999999999,"N_COORD97":2540618.3399999999,"ADDRESS":"中華西路一段１６巷５號","OBJECTID":285257},"geometry":{"x":166349.58000000007,"y":2540618.3400000017}},{"attributes":{"ID":285264,"DIS_CODE":0,"TOWNNAME":"南區","LI":"開南里","LIN":"6鄰","STREET":"中華西路","SECT":"一段","MAREA":" ","LANE":"１６巷","ALLEY":" ","HOUSE_NO":"７號","E_COORD97":166356.19,"N_COORD97":2540618.4900000002,"ADDRESS":"中華西路一段１６巷７號","OBJECTID":285258},"geometry":{"x":166356.19000000227,"y":2540618.4900000021}},{"attributes":{"ID":285265,"DIS_CODE":0,"TOWNNAME":"南區","LI":"文南里","LIN":"2鄰","STREET":"建南路","SECT":" ","MAREA":" ","LANE":" ","ALLEY":" ","HOUSE_NO":"１４５號","E_COORD97":166973,"N_COORD97":2542840.5299999998,"ADDRESS":"建南路１４５號","OBJECTID":285259},"geometry":{"x":166973.00000000093,"y":2542840.5300000012}},{"attributes":{"ID":285266,"DIS_CODE":0,"TOWNNAME":"南區","LI":"文南里","LIN":"2鄰","STREET":"建南路","SECT":" ","MAREA":" ","LANE":" ","ALLEY":" ","HOUSE_NO":"１４７號","E_COORD97":166968.26000000001,"N_COORD97":2542840.1200000001,"ADDRESS":"建南路１４７號","OBJECTID":285260},"geometry":{"x":166968.25999999978,"y":2542840.120000001}},{"attributes":{"ID":285267,"DIS_CODE":0,"TOWNNAME":"北區","LI":"仁愛里","LIN":"2鄰","STREET":"勝利路","SECT":" ","MAREA":" ","LANE":" ","ALLEY":" ","HOUSE_NO":"２３２號","E_COORD97":169936.14000000001,"N_COORD97":2545038.6899999999,"ADDRESS":"勝利路２３２號","OBJECTID":285261},"geometry":{"x":169936.14000000153,"y":2545038.6899999995}},{"attributes":{"ID":285268,"DIS_CODE":0,"TOWNNAME":"永康區","LI":"尚頂里","LIN":"12鄰","STREET":"正南一街","SECT":" ","MAREA":" ","LANE":"９２巷","ALLEY":" ","HOUSE_NO":"１９號","E_COORD97":171019.51999999999,"N_COORD97":2547342.4300000002,"ADDRESS":"正南一街９２巷１９號","OBJECTID":285262},"geometry":{"x":171019.51999999955,"y":2547342.4299999997}},{"attributes":{"ID":285269,"DIS_CODE":0,"TOWNNAME":"仁德區","LI":"保安里","LIN":"12鄰","STREET":"開發三路","SECT":" ","MAREA":" ","LANE":" ","ALLEY":" ","HOUSE_NO":"１９之１號","E_COORD97":172789.18865,"N_COORD97":2535996.5107300002,"ADDRESS":"開發三路１９之１號","OBJECTID":285263},"geometry":{"x":172789.18864999991,"y":2535996.5107280016}},{"attributes":{"ID":285270,"DIS_CODE":0,"TOWNNAME":"永康區","LI":"尚頂里","LIN":"12鄰","STREET":"正南一街","SECT":" ","MAREA":" ","LANE":"９２巷","ALLEY":" ","HOUSE_NO":"１號","E_COORD97":171009.56,"N_COORD97":2547266.3900000001,"ADDRESS":"正南一街９２巷１號","OBJECTID":285264},"geometry":{"x":171009.56000000145,"y":2547266.3900000006}},{"attributes":{"ID":285271,"DIS_CODE":0,"TOWNNAME":"永康區","LI":"尚頂里","LIN":"12鄰","STREET":"正南一街","SECT":" ","MAREA":" ","LANE":"９２巷","ALLEY":" ","HOUSE_NO":"５號","E_COORD97":171001.60000000001,"N_COORD97":2547291.98,"ADDRESS":"正南一街９２巷５號","OBJECTID":285265},"geometry":{"x":171001.60000000056,"y":2547291.9800000004}},{"attributes":{"ID":285272,"DIS_CODE":0,"TOWNNAME":"北區","LI":"振興里","LIN":"2鄰","STREET":"勝利路","SECT":" ","MAREA":" ","LANE":" ","ALLEY":" ","HOUSE_NO":"２５８號","E_COORD97":169938.14000000001,"N_COORD97":2545101.6400000001,"ADDRESS":"勝利路２５８號","OBJECTID":285266},"geometry":{"x":169938.1400000006,"y":2545101.6400000006}},{"attributes":{"ID":285273,"DIS_CODE":0,"TOWNNAME":"北區","LI":"振興里","LIN":"2鄰","STREET":"勝利路","SECT":" ","MAREA":" ","LANE":" ","ALLEY":" ","HOUSE_NO":"２６０號","E_COORD97":169937.70999999999,"N_COORD97":2545106.2999999998,"ADDRESS":"勝利路２６０號","OBJECTID":285267},"geometry":{"x":169937.71000000089,"y":2545106.3000000007}},{"attributes":{"ID":285274,"DIS_CODE":0,"TOWNNAME":"北區","LI":"振興里","LIN":"2鄰","STREET":"勝利路","SECT":" ","MAREA":" ","LANE":" ","ALLEY":" ","HOUSE_NO":"２６４號","E_COORD97":169939.44,"N_COORD97":2545117.8199999998,"ADDRESS":"勝利路２６４號","OBJECTID":285268},"geometry":{"x":169939.44000000041,"y":2545117.8200000022}},{"attributes":{"ID":285275,"DIS_CODE":0,"TOWNNAME":"北區","LI":"振興里","LIN":"2鄰","STREET":"勝利路","SECT":" ","MAREA":" ","LANE":" ","ALLEY":" ","HOUSE_NO":"２６６號","E_COORD97":169938.39000000001,"N_COORD97":2545121.9100000001,"ADDRESS":"勝利路２６６號","OBJECTID":285269},"geometry":{"x":169938.3900000006,"y":2545121.9100000001}},{"attributes":{"ID":285276,"DIS_CODE":0,"TOWNNAME":"安南區","LI":"海東里","LIN":"12鄰","STREET":"海中街","SECT":" ","MAREA":" ","LANE":"５４巷","ALLEY":" ","HOUSE_NO":"１０號","E_COORD97":166512.60999999999,"N_COORD97":2548928.3500000001,"ADDRESS":"海中街５４巷１０號","OBJECTID":285270},"geometry":{"x":166512.6100000022,"y":2548928.3500000015}},{"attributes":{"ID":285277,"DIS_CODE":0,"TOWNNAME":"永康區","LI":"埔園里","LIN":"24鄰","STREET":"自強路","SECT":" ","MAREA":" ","LANE":"３７９巷","ALLEY":" ","HOUSE_NO":"１３號","E_COORD97":173612.35000000001,"N_COORD97":2547920.9900000002,"ADDRESS":"自強路３７９巷１３號","OBJECTID":285271},"geometry":{"x":173612.34999999963,"y":2547920.9900000021}},{"attributes":{"ID":285278,"DIS_CODE":0,"TOWNNAME":"永康區","LI":"埔園里","LIN":"34鄰","STREET":"永大路","SECT":"三段","MAREA":" ","LANE":"６２２巷","ALLEY":" ","HOUSE_NO":"７２號","E_COORD97":174036.09,"N_COORD97":2548917.4199999999,"ADDRESS":"永大路三段６２２巷７２號","OBJECTID":285272},"geometry":{"x":174036.09000000078,"y":2548917.4200000018}},{"attributes":{"ID":285279,"DIS_CODE":0,"TOWNNAME":"佳里區","LI":"六安里","LIN":"12鄰","STREET":"佳北路","SECT":" ","MAREA":" ","LANE":"１３１巷","ALLEY":" ","HOUSE_NO":"１號","E_COORD97":166018.48000000001,"N_COORD97":2563395.5499999998,"ADDRESS":"佳北路１３１巷１號","OBJECTID":285273},"geometry":{"x":166018.48000000045,"y":2563395.5500000026}},{"attributes":{"ID":285280,"DIS_CODE":0,"TOWNNAME":"佳里區","LI":"六安里","LIN":"12鄰","STREET":"佳北路","SECT":" ","MAREA":" ","LANE":"１３１巷","ALLEY":" ","HOUSE_NO":"３號","E_COORD97":166016.69,"N_COORD97":2563384.7400000002,"ADDRESS":"佳北路１３１巷３號","OBJECTID":285274},"geometry":{"x":166016.69000000041,"y":2563384.7400000002}},{"attributes":{"ID":285281,"DIS_CODE":0,"TOWNNAME":"佳里區","LI":"六安里","LIN":"12鄰","STREET":"佳北路","SECT":" ","MAREA":" ","LANE":"１３１巷","ALLEY":" ","HOUSE_NO":"５號","E_COORD97":166020.94,"N_COORD97":2563374.0899999999,"ADDRESS":"佳北路１３１巷５號","OBJECTID":285275},"geometry":{"x":166020.94000000134,"y":2563374.0899999999}},{"attributes":{"ID":285282,"DIS_CODE":0,"TOWNNAME":"佳里區","LI":"六安里","LIN":"12鄰","STREET":"佳北路","SECT":" ","MAREA":" ","LANE":"１３１巷","ALLEY":" ","HOUSE_NO":"７號","E_COORD97":166017.98000000001,"N_COORD97":2563364.4500000002,"ADDRESS":"佳北路１３１巷７號","OBJECTID":285276},"geometry":{"x":166017.98000000045,"y":2563364.4499999993}},{"attributes":{"ID":285283,"DIS_CODE":0,"TOWNNAME":"佳里區","LI":"六安里","LIN":"12鄰","STREET":"佳北路","SECT":" ","MAREA":" ","LANE":"６９巷","ALLEY":" ","HOUSE_NO":"６２號","E_COORD97":166076.66,"N_COORD97":2563271.4700000002,"ADDRESS":"佳北路６９巷６２號","OBJECTID":285277},"geometry":{"x":166076.66000000108,"y":2563271.4700000007}},{"attributes":{"ID":285284,"DIS_CODE":0,"TOWNNAME":"安南區","LI":"安順里","LIN":"12鄰","STREET":"安和路","SECT":"三段","MAREA":" ","LANE":"１９０巷","ALLEY":" ","HOUSE_NO":"７５之５１號","E_COORD97":170145.51999999999,"N_COORD97":2549695.8599999999,"ADDRESS":"安和路三段１９０巷７５之５１號","OBJECTID":285278},"geometry":{"x":170145.52000000048,"y":2549695.8599999994}},{"attributes":{"ID":285285,"DIS_CODE":0,"TOWNNAME":"安南區","LI":"佃東里","LIN":"12鄰","STREET":"海佃路","SECT":"四段","MAREA":" ","LANE":"３８８巷","ALLEY":" ","HOUSE_NO":"１２６之１號","E_COORD97":165629.92999999999,"N_COORD97":2551834.9900000002,"ADDRESS":"海佃路四段３８８巷１２６之１號","OBJECTID":285279},"geometry":{"x":165629.93000000156,"y":2551834.9900000002}},{"attributes":{"ID":285286,"DIS_CODE":0,"TOWNNAME":"安南區","LI":"佃東里","LIN":"12鄰","STREET":"海佃路","SECT":"四段","MAREA":" ","LANE":"３８８巷","ALLEY":" ","HOUSE_NO":"８０號","E_COORD97":165611.82000000001,"N_COORD97":2551708.5099999998,"ADDRESS":"海佃路四段３８８巷８０號","OBJECTID":285280},"geometry":{"x":165611.82000000123,"y":2551708.5099999998}},{"attributes":{"ID":285287,"DIS_CODE":0,"TOWNNAME":"安南區","LI":"城東里","LIN":"12鄰","STREET":"城北路","SECT":" ","MAREA":" ","LANE":"１３８巷","ALLEY":" ","HOUSE_NO":"８８號","E_COORD97":161210.41,"N_COORD97":2551726.5499999998,"ADDRESS":"城北路１３８巷８８號","OBJECTID":285281},"geometry":{"x":161210.41000000015,"y":2551726.5500000007}},{"attributes":{"ID":285288,"DIS_CODE":0,"TOWNNAME":"永康區","LI":"神洲里","LIN":"12鄰","STREET":"忠孝路","SECT":" ","MAREA":" ","LANE":"１５２巷","ALLEY":" ","HOUSE_NO":"１８號","E_COORD97":172162.59,"N_COORD97":2545072,"ADDRESS":"忠孝路１５２巷１８號","OBJECTID":285282},"geometry":{"x":172162.59000000078,"y":2545072.0000000037}},{"attributes":{"ID":285289,"DIS_CODE":0,"TOWNNAME":"東區","LI":"成大里","LIN":"12鄰","STREET":"育樂街","SECT":" ","MAREA":" ","LANE":"１６８巷","ALLEY":" ","HOUSE_NO":"６號","E_COORD97":169454.76999999999,"N_COORD97":2543941.6600000001,"ADDRESS":"育樂街１６８巷６號","OBJECTID":285283},"geometry":{"x":169454.76999999955,"y":2543941.6600000001}},{"attributes":{"ID":285290,"DIS_CODE":0,"TOWNNAME":"永康區","LI":"埔園里","LIN":"34鄰","STREET":"永大路","SECT":"三段","MAREA":" ","LANE":"６２２巷","ALLEY":" ","HOUSE_NO":"８８號","E_COORD97":174059.73999999999,"N_COORD97":2548929.1699999999,"ADDRESS":"永大路三段６２２巷８８號","OBJECTID":285284},"geometry":{"x":174059.74000000022,"y":2548929.1700000018}},{"attributes":{"ID":285291,"DIS_CODE":0,"TOWNNAME":"官田區","LI":"隆田里","LIN":"12鄰","STREET":"大同街","SECT":" ","MAREA":" ","LANE":"１４巷","ALLEY":" ","HOUSE_NO":"１９號","E_COORD97":180179.73999999999,"N_COORD97":2565980.4199999999,"ADDRESS":"大同街１４巷１９號","OBJECTID":285285},"geometry":{"x":180179.74000000022,"y":2565980.4199999999}},{"attributes":{"ID":285292,"DIS_CODE":0,"TOWNNAME":"官田區","LI":"隆田里","LIN":"12鄰","STREET":"大同街","SECT":" ","MAREA":" ","LANE":"１４巷","ALLEY":" ","HOUSE_NO":"２０號","E_COORD97":180161.16,"N_COORD97":2565979.1699999999,"ADDRESS":"大同街１４巷２０號","OBJECTID":285286},"geometry":{"x":180161.16000000015,"y":2565979.1700000037}},{"attributes":{"ID":285293,"DIS_CODE":0,"TOWNNAME":"官田區","LI":"隆田里","LIN":"12鄰","STREET":"大同街","SECT":" ","MAREA":" ","LANE":"１４巷","ALLEY":" ","HOUSE_NO":"２１號","E_COORD97":180179.88,"N_COORD97":2565984.0600000001,"ADDRESS":"大同街１４巷２１號","OBJECTID":285287},"geometry":{"x":180179.87999999989,"y":2565984.0600000042}},{"attributes":{"ID":285294,"DIS_CODE":0,"TOWNNAME":"中西區","LI":"五妃里","LIN":"12鄰","STREET":"南門路","SECT":" ","MAREA":" ","LANE":"２０９巷","ALLEY":" ","HOUSE_NO":"２之３號","E_COORD97":168450.5,"N_COORD97":2542837.2200000002,"ADDRESS":"南門路２０９巷２之３號","OBJECTID":285288},"geometry":{"x":168450.49999999907,"y":2542837.2200000025}},{"attributes":{"ID":285295,"DIS_CODE":0,"TOWNNAME":"北區","LI":"和順里","LIN":"2鄰","STREET":"西門路","SECT":"三段","MAREA":" ","LANE":" ","ALLEY":" ","HOUSE_NO":"１５９號","E_COORD97":168402.81,"N_COORD97":2544920.4100000001,"ADDRESS":"西門路三段１５９號","OBJECTID":285289},"geometry":{"x":168402.81000000052,"y":2544920.410000002}},{"attributes":{"ID":285296,"DIS_CODE":0,"TOWNNAME":"安南區","LI":"四草里","LIN":"1鄰","STREET":"大眾六街","SECT":" ","MAREA":" ","LANE":" ","ALLEY":" ","HOUSE_NO":"７８號","E_COORD97":160526.38271100001,"N_COORD97":2546563.0200999998,"ADDRESS":"大眾六街７８號","OBJECTID":285290},"geometry":{"x":160526.38271099981,"y":2546563.0201000012}},{"attributes":{"ID":285297,"DIS_CODE":0,"TOWNNAME":"新營區","LI":"民權里","LIN":"2鄰","STREET":"博愛街","SECT":" ","MAREA":" ","LANE":" ","ALLEY":" ","HOUSE_NO":"２９號","E_COORD97":179982.54999999999,"N_COORD97":2578147.54,"ADDRESS":"博愛街２９號","OBJECTID":285291},"geometry":{"x":179982.55000000168,"y":2578147.540000001}},{"attributes":{"ID":285298,"DIS_CODE":0,"TOWNNAME":"新營區","LI":"護鎮里","LIN":"2鄰","STREET":"建國路","SECT":" ","MAREA":" ","LANE":" ","ALLEY":" ","HOUSE_NO":"２７０號","E_COORD97":179305.13,"N_COORD97":2581041.2200000002,"ADDRESS":"建國路２７０號","OBJECTID":285292},"geometry":{"x":179305.12999999989,"y":2581041.2200000025}},{"attributes":{"ID":285299,"DIS_CODE":0,"TOWNNAME":"安平區","LI":"文平里","LIN":"2鄰","STREET":"中華西路","SECT":"二段","MAREA":" ","LANE":" ","ALLEY":" ","HOUSE_NO":"３７號","E_COORD97":166584.72,"N_COORD97":2543095.8599999999,"ADDRESS":"中華西路二段３７號","OBJECTID":285293},"geometry":{"x":166584.72000000067,"y":2543095.8600000031}},{"attributes":{"ID":285300,"DIS_CODE":0,"TOWNNAME":"永康區","LI":"東橋里","LIN":"21鄰","STREET":"自強路","SECT":" ","MAREA":" ","LANE":"１４４巷","ALLEY":" ","HOUSE_NO":"２號","E_COORD97":173020.70999999999,"N_COORD97":2547372.0600000001,"ADDRESS":"自強路１４４巷２號","OBJECTID":285294},"geometry":{"x":173020.70999999996,"y":2547372.0600000024}},{"attributes":{"ID":285301,"DIS_CODE":0,"TOWNNAME":"安平區","LI":"文平里","LIN":"2鄰","STREET":"中華西路","SECT":"二段","MAREA":" ","LANE":" ","ALLEY":" ","HOUSE_NO":"３號","E_COORD97":166582.25,"N_COORD97":2543032.1699999999,"ADDRESS":"中華西路二段３號","OBJECTID":285295},"geometry":{"x":166582.25,"y":2543032.1699999999}},{"attributes":{"ID":285302,"DIS_CODE":0,"TOWNNAME":"永康區","LI":"東橋里","LIN":"21鄰","STREET":"自強路","SECT":" ","MAREA":" ","LANE":"１４４巷","ALLEY":" ","HOUSE_NO":"１１號","E_COORD97":173030.57999999999,"N_COORD97":2547317.4900000002,"ADDRESS":"自強路１４４巷１１號","OBJECTID":285296},"geometry":{"x":173030.58000000194,"y":2547317.4900000021}},{"attributes":{"ID":285303,"DIS_CODE":0,"TOWNNAME":"永康區","LI":"埔園里","LIN":"18鄰","STREET":"龍埔街","SECT":" ","MAREA":" ","LANE":"４６７巷","ALLEY":" ","HOUSE_NO":"２２號","E_COORD97":173555.03,"N_COORD97":2548276.25,"ADDRESS":"龍埔街４６７巷２２號","OBJECTID":285297},"geometry":{"x":173555.03000000212,"y":2548276.25}},{"attributes":{"ID":285304,"DIS_CODE":0,"TOWNNAME":"永康區","LI":"烏竹里","LIN":"7鄰","STREET":"龍橋街","SECT":" ","MAREA":" ","LANE":"４５９巷","ALLEY":" ","HOUSE_NO":"１０號之２","E_COORD97":174346.29999999999,"N_COORD97":2549330.6699999999,"ADDRESS":"龍橋街４５９巷１０號之２","OBJECTID":285298},"geometry":{"x":174346.30000000075,"y":2549330.6699999999}},{"attributes":{"ID":285305,"DIS_CODE":0,"TOWNNAME":"安南區","LI":"頂安里","LIN":"12鄰","STREET":"長溪路","SECT":"二段","MAREA":" ","LANE":"１３３巷","ALLEY":" ","HOUSE_NO":"５號","E_COORD97":168371.16,"N_COORD97":2549571.7400000002,"ADDRESS":"長溪路二段１３３巷５號","OBJECTID":285299},"geometry":{"x":168371.16000000015,"y":2549571.7400000002}},{"attributes":{"ID":285306,"DIS_CODE":0,"TOWNNAME":"永康區","LI":"埔園里","LIN":"4鄰","STREET":"中山路","SECT":" ","MAREA":" ","LANE":"１５８巷","ALLEY":" ","HOUSE_NO":"５０號之１８","E_COORD97":173933.79999999999,"N_COORD97":2547849.04,"ADDRESS":"中山路１５８巷５０號之１８","OBJECTID":285300},"geometry":{"x":173933.79999999981,"y":2547849.040000001}},{"attributes":{"ID":285307,"DIS_CODE":0,"TOWNNAME":"永康區","LI":"埔園里","LIN":"18鄰","STREET":"龍埔街","SECT":" ","MAREA":" ","LANE":"４６７巷","ALLEY":" ","HOUSE_NO":"８號","E_COORD97":173528.10000000001,"N_COORD97":2548342.9900000002,"ADDRESS":"龍埔街４６７巷８號","OBJECTID":285301},"geometry":{"x":173528.09999999963,"y":2548342.9900000002}},{"attributes":{"ID":285308,"DIS_CODE":0,"TOWNNAME":"永康區","LI":"東橋里","LIN":"26鄰","STREET":"中正路","SECT":" ","MAREA":" ","LANE":"２７９巷","ALLEY":" ","HOUSE_NO":"１３號","E_COORD97":172606.67999999999,"N_COORD97":2548018.9900000002,"ADDRESS":"中正路２７９巷１３號","OBJECTID":285302},"geometry":{"x":172606.6799999997,"y":2548018.9900000021}},{"attributes":{"ID":285309,"DIS_CODE":0,"TOWNNAME":"永康區","LI":"埔園里","LIN":"17鄰","STREET":"龍埔街","SECT":" ","MAREA":" ","LANE":"５６２巷","ALLEY":" ","HOUSE_NO":"３８號","E_COORD97":173445.92000000001,"N_COORD97":2548493.75,"ADDRESS":"龍埔街５６２巷３８號","OBJECTID":285303},"geometry":{"x":173445.92000000086,"y":2548493.75}},{"attributes":{"ID":285310,"DIS_CODE":0,"TOWNNAME":"永康區","LI":"埔園里","LIN":"26鄰","STREET":"自強路","SECT":" ","MAREA":" ","LANE":"４１７巷","ALLEY":" ","HOUSE_NO":"１９號","E_COORD97":173748.89999999999,"N_COORD97":2548029.1699999999,"ADDRESS":"自強路４１７巷１９號","OBJECTID":285304},"geometry":{"x":173748.90000000037,"y":2548029.1699999999}},{"attributes":{"ID":285311,"DIS_CODE":0,"TOWNNAME":"永康區","LI":"埔園里","LIN":"39鄰","STREET":"聖龍街","SECT":" ","MAREA":" ","LANE":"１７９巷","ALLEY":" ","HOUSE_NO":"１１號","E_COORD97":174301.69,"N_COORD97":2547890.1000000001,"ADDRESS":"聖龍街１７９巷１１號","OBJECTID":285305},"geometry":{"x":174301.69000000227,"y":2547890.0999999996}},{"attributes":{"ID":285312,"DIS_CODE":0,"TOWNNAME":"永康區","LI":"正強里","LIN":"12鄰","STREET":"正強街","SECT":" ","MAREA":" ","LANE":"１２２巷","ALLEY":" ","HOUSE_NO":"１０號","E_COORD97":173378.70000000001,"N_COORD97":2547412.9900000002,"ADDRESS":"正強街１２２巷１０號","OBJECTID":285306},"geometry":{"x":173378.70000000019,"y":2547412.9900000021}},{"attributes":{"ID":285313,"DIS_CODE":0,"TOWNNAME":"永康區","LI":"正強里","LIN":"12鄰","STREET":"正強街","SECT":" ","MAREA":" ","LANE":"１２２巷","ALLEY":" ","HOUSE_NO":"１７號","E_COORD97":173409.66,"N_COORD97":2547431.71,"ADDRESS":"正強街１２２巷１７號","OBJECTID":285307},"geometry":{"x":173409.66000000015,"y":2547431.7100000028}},{"attributes":{"ID":285314,"DIS_CODE":0,"TOWNNAME":"永康區","LI":"正強里","LIN":"12鄰","STREET":"正強街","SECT":" ","MAREA":" ","LANE":"１２２巷","ALLEY":" ","HOUSE_NO":"２２號","E_COORD97":173410.54999999999,"N_COORD97":2547418.21,"ADDRESS":"正強街１２２巷２２號","OBJECTID":285308},"geometry":{"x":173410.55000000075,"y":2547418.2100000028}},{"attributes":{"ID":285315,"DIS_CODE":0,"TOWNNAME":"永康區","LI":"正強里","LIN":"12鄰","STREET":"正強街","SECT":" ","MAREA":" ","LANE":"１２２巷","ALLEY":" ","HOUSE_NO":"３０號","E_COORD97":173424.95999999999,"N_COORD97":2547414.21,"ADDRESS":"正強街１２２巷３０號","OBJECTID":285309},"geometry":{"x":173424.96000000089,"y":2547414.2100000046}},{"attributes":{"ID":285316,"DIS_CODE":0,"TOWNNAME":"永康區","LI":"正強里","LIN":"12鄰","STREET":"正強街","SECT":" ","MAREA":" ","LANE":"１２２巷","ALLEY":" ","HOUSE_NO":"１９號","E_COORD97":173414.01999999999,"N_COORD97":2547432.21,"ADDRESS":"正強街１２２巷１９號","OBJECTID":285310},"geometry":{"x":173414.02000000048,"y":2547432.2100000028}},{"attributes":{"ID":285317,"DIS_CODE":0,"TOWNNAME":"永康區","LI":"正強里","LIN":"12鄰","STREET":"正強街","SECT":" ","MAREA":" ","LANE":"１２２巷","ALLEY":" ","HOUSE_NO":"２０號","E_COORD97":173405.76000000001,"N_COORD97":2547417.46,"ADDRESS":"正強街１２２巷２０號","OBJECTID":285311},"geometry":{"x":173405.76000000071,"y":2547417.4600000028}},{"attributes":{"ID":285318,"DIS_CODE":0,"TOWNNAME":"永康區","LI":"正強里","LIN":"12鄰","STREET":"正強街","SECT":" ","MAREA":" ","LANE":"１２２巷","ALLEY":" ","HOUSE_NO":"１２號","E_COORD97":173383.20000000001,"N_COORD97":2547413.7400000002,"ADDRESS":"正強街１２２巷１２號","OBJECTID":285312},"geometry":{"x":173383.20000000112,"y":2547413.7400000021}},{"attributes":{"ID":285319,"DIS_CODE":0,"TOWNNAME":"永康區","LI":"正強里","LIN":"12鄰","STREET":"正強街","SECT":" ","MAREA":" ","LANE":"１２２巷","ALLEY":" ","HOUSE_NO":"２６號","E_COORD97":173414.92999999999,"N_COORD97":2547418.71,"ADDRESS":"正強街１２２巷２６號","OBJECTID":285313},"geometry":{"x":173414.93000000063,"y":2547418.7100000028}},{"attributes":{"ID":285320,"DIS_CODE":0,"TOWNNAME":"安平區","LI":"華平里","LIN":"2鄰","STREET":"慶平路","SECT":" ","MAREA":" ","LANE":" ","ALLEY":" ","HOUSE_NO":"４６９之１號","E_COORD97":165320.57000000001,"N_COORD97":2544177.9500000002,"ADDRESS":"慶平路４６９之１號","OBJECTID":285314},"geometry":{"x":165320.5700000003,"y":2544177.9500000011}},{"attributes":{"ID":285321,"DIS_CODE":0,"TOWNNAME":"新營區","LI":"五興里","LIN":"2鄰","STREET":" ","SECT":" ","MAREA":"五間厝","LANE":" ","ALLEY":" ","HOUSE_NO":"２８號","E_COORD97":175801.45999999999,"N_COORD97":2574971.7599999998,"ADDRESS":"五間厝２８號","OBJECTID":285315},"geometry":{"x":175801.46000000089,"y":2574971.7599999998}},{"attributes":{"ID":285322,"DIS_CODE":0,"TOWNNAME":"新化區","LI":"豐榮里","LIN":"13鄰","STREET":"民治路","SECT":" ","MAREA":" ","LANE":" ","ALLEY":" ","HOUSE_NO":"６６號","E_COORD97":178753.16,"N_COORD97":2548094.25,"ADDRESS":"民治路６６號","OBJECTID":285316},"geometry":{"x":178753.16000000201,"y":2548094.2499999981}},{"attributes":{"ID":285323,"DIS_CODE":0,"TOWNNAME":"新營區","LI":"五興里","LIN":"2鄰","STREET":" ","SECT":" ","MAREA":"五間厝","LANE":" ","ALLEY":" ","HOUSE_NO":"１６之２號","E_COORD97":175856.54000000001,"N_COORD97":2574861.9100000001,"ADDRESS":"五間厝１６之２號","OBJECTID":285317},"geometry":{"x":175856.54000000004,"y":2574861.910000002}},{"attributes":{"ID":285324,"DIS_CODE":0,"TOWNNAME":"新營區","LI":"土庫里","LIN":"2鄰","STREET":" ","SECT":" ","MAREA":"土庫","LANE":" ","ALLEY":" ","HOUSE_NO":"７之５號","E_COORD97":182908.64999999999,"N_COORD97":2580057.6800000002,"ADDRESS":"土庫７之５號","OBJECTID":285318},"geometry":{"x":182908.6500000013,"y":2580057.6799999997}},{"attributes":{"ID":285325,"DIS_CODE":0,"TOWNNAME":"新營區","LI":"土庫里","LIN":"2鄰","STREET":" ","SECT":" ","MAREA":"土庫","LANE":" ","ALLEY":" ","HOUSE_NO":"６號之８","E_COORD97":182927.45000000001,"N_COORD97":2579970.1099999999,"ADDRESS":"土庫６號之８","OBJECTID":285319},"geometry":{"x":182927.45000000019,"y":2579970.1099999994}},{"attributes":{"ID":285326,"DIS_CODE":0,"TOWNNAME":"歸仁區","LI":"沙崙里","LIN":"2鄰","STREET":" ","SECT":" ","MAREA":"二甲","LANE":" ","ALLEY":" ","HOUSE_NO":"１１３號","E_COORD97":178426.92999999999,"N_COORD97":2539313.8900000001,"ADDRESS":"二甲１１３號","OBJECTID":285320},"geometry":{"x":178426.93000000156,"y":2539313.8900000025}},{"attributes":{"ID":285327,"DIS_CODE":0,"TOWNNAME":"歸仁區","LI":"沙崙里","LIN":"2鄰","STREET":" ","SECT":" ","MAREA":"二甲","LANE":" ","ALLEY":" ","HOUSE_NO":"７８號","E_COORD97":178387.57999999999,"N_COORD97":2539280.8900000001,"ADDRESS":"二甲７８號","OBJECTID":285321},"geometry":{"x":178387.58000000101,"y":2539280.8900000006}},{"attributes":{"ID":285328,"DIS_CODE":0,"TOWNNAME":"永康區","LI":"東橋里","LIN":"20鄰","STREET":"自強路","SECT":" ","MAREA":" ","LANE":"２２巷","ALLEY":" ","HOUSE_NO":"６號","E_COORD97":172746.98000000001,"N_COORD97":2547112.9900000002,"ADDRESS":"自強路２２巷６號","OBJECTID":285322},"geometry":{"x":172746.98000000231,"y":2547112.9899999984}},{"attributes":{"ID":285329,"DIS_CODE":0,"TOWNNAME":"東山區","LI":"南溪里","LIN":"2鄰","STREET":" ","SECT":" ","MAREA":"二重溪","LANE":" ","ALLEY":" ","HOUSE_NO":"１３號之２","E_COORD97":188606.07000000001,"N_COORD97":2574771.1699999999,"ADDRESS":"二重溪１３號之２","OBJECTID":285323},"geometry":{"x":188606.0700000003,"y":2574771.1700000018}},{"attributes":{"ID":285330,"DIS_CODE":0,"TOWNNAME":"東山區","LI":"南溪里","LIN":"2鄰","STREET":" ","SECT":" ","MAREA":"二重溪","LANE":" ","ALLEY":" ","HOUSE_NO":"１３號之３","E_COORD97":188682.51999999999,"N_COORD97":2574758.5099999998,"ADDRESS":"二重溪１３號之３","OBJECTID":285324},"geometry":{"x":188682.52000000048,"y":2574758.5100000016}},{"attributes":{"ID":285331,"DIS_CODE":0,"TOWNNAME":"東山區","LI":"南溪里","LIN":"2鄰","STREET":" ","SECT":" ","MAREA":"二重溪","LANE":" ","ALLEY":" ","HOUSE_NO":"１３號之５","E_COORD97":188574.87,"N_COORD97":2574770.5499999998,"ADDRESS":"二重溪１３號之５","OBJECTID":285325},"geometry":{"x":188574.87000000011,"y":2574770.5500000007}},{"attributes":{"ID":285332,"DIS_CODE":0,"TOWNNAME":"東山區","LI":"南溪里","LIN":"2鄰","STREET":" ","SECT":" ","MAREA":"二重溪","LANE":" ","ALLEY":" ","HOUSE_NO":"１３號","E_COORD97":188713.42999999999,"N_COORD97":2574738.5699999998,"ADDRESS":"二重溪１３號","OBJECTID":285326},"geometry":{"x":188713.43000000156,"y":2574738.5700000022}},{"attributes":{"ID":285333,"DIS_CODE":0,"TOWNNAME":"東山區","LI":"南溪里","LIN":"2鄰","STREET":" ","SECT":" ","MAREA":"二重溪","LANE":" ","ALLEY":" ","HOUSE_NO":"１４號之１","E_COORD97":188574.23999999999,"N_COORD97":2574845.4500000002,"ADDRESS":"二重溪１４號之１","OBJECTID":285327},"geometry":{"x":188574.24000000022,"y":2574845.4499999993}},{"attributes":{"ID":285334,"DIS_CODE":0,"TOWNNAME":"永康區","LI":"神洲里","LIN":"8鄰","STREET":"忠孝路","SECT":" ","MAREA":" ","LANE":"３２巷","ALLEY":" ","HOUSE_NO":"２５號","E_COORD97":172190.20000000001,"N_COORD97":2544646.29,"ADDRESS":"忠孝路３２巷２５號","OBJECTID":285328},"geometry":{"x":172190.20000000019,"y":2544646.290000001}},{"attributes":{"ID":285335,"DIS_CODE":0,"TOWNNAME":"東山區","LI":"南溪里","LIN":"2鄰","STREET":" ","SECT":" ","MAREA":"二重溪","LANE":" ","ALLEY":" ","HOUSE_NO":"１４號之２","E_COORD97":188593.57999999999,"N_COORD97":2574850.5099999998,"ADDRESS":"二重溪１４號之２","OBJECTID":285329},"geometry":{"x":188593.58000000007,"y":2574850.5100000016}},{"attributes":{"ID":285336,"DIS_CODE":0,"TOWNNAME":"東山區","LI":"南溪里","LIN":"2鄰","STREET":" ","SECT":" ","MAREA":"二重溪","LANE":" ","ALLEY":" ","HOUSE_NO":"１４號之３","E_COORD97":188615.79999999999,"N_COORD97":2574873.4500000002,"ADDRESS":"二重溪１４號之３","OBJECTID":285330},"geometry":{"x":188615.79999999981,"y":2574873.4500000011}},{"attributes":{"ID":285337,"DIS_CODE":0,"TOWNNAME":"永康區","LI":"烏竹里","LIN":"1鄰","STREET":"龍橋街","SECT":" ","MAREA":" ","LANE":"４８６巷","ALLEY":" ","HOUSE_NO":"１５號","E_COORD97":174468.98000000001,"N_COORD97":2549371.6200000001,"ADDRESS":"龍橋街４８６巷１５號","OBJECTID":285331},"geometry":{"x":174468.98000000045,"y":2549371.6200000029}},{"attributes":{"ID":285338,"DIS_CODE":0,"TOWNNAME":"永康區","LI":"正強里","LIN":"12鄰","STREET":"正強街","SECT":" ","MAREA":" ","LANE":"１２２巷","ALLEY":" ","HOUSE_NO":"６號","E_COORD97":173368.82000000001,"N_COORD97":2547411.9900000002,"ADDRESS":"正強街１２２巷６號","OBJECTID":285332},"geometry":{"x":173368.82000000123,"y":2547411.9900000021}},{"attributes":{"ID":285339,"DIS_CODE":0,"TOWNNAME":"新營區","LI":"大宏里","LIN":"12鄰","STREET":"開元路","SECT":" ","MAREA":" ","LANE":"５９巷","ALLEY":" ","HOUSE_NO":"４之２９號五樓","E_COORD97":180862.92000000001,"N_COORD97":2578754.79,"ADDRESS":"開元路５９巷４之２９號五樓","OBJECTID":285333},"geometry":{"x":180862.91999999993,"y":2578754.7899999991}},{"attributes":{"ID":285340,"DIS_CODE":0,"TOWNNAME":"北區","LI":"元寶里","LIN":"12鄰","STREET":"北園街","SECT":" ","MAREA":" ","LANE":"８巷","ALLEY":" ","HOUSE_NO":"５１號六樓之１","E_COORD97":170420.26999999999,"N_COORD97":2545683.8599999999,"ADDRESS":"北園街８巷５１號六樓之１","OBJECTID":285334},"geometry":{"x":170420.27000000048,"y":2545683.8600000013}},{"attributes":{"ID":285341,"DIS_CODE":0,"TOWNNAME":"北區","LI":"元寶里","LIN":"12鄰","STREET":"北園街","SECT":" ","MAREA":" ","LANE":"８巷","ALLEY":" ","HOUSE_NO":"５１號六樓之２","E_COORD97":170420.26999999999,"N_COORD97":2545683.8599999999,"ADDRESS":"北園街８巷５１號六樓之２","OBJECTID":285335},"geometry":{"x":170420.27000000048,"y":2545683.8600000013}},{"attributes":{"ID":285342,"DIS_CODE":0,"TOWNNAME":"永康區","LI":"烏竹里","LIN":"7鄰","STREET":"龍橋街","SECT":" ","MAREA":" ","LANE":"４５９巷","ALLEY":" ","HOUSE_NO":"１９號","E_COORD97":174312.39999999999,"N_COORD97":2549300.6499999999,"ADDRESS":"龍橋街４５９巷１９號","OBJECTID":285336},"geometry":{"x":174312.4000000013,"y":2549300.6500000022}},{"attributes":{"ID":285343,"DIS_CODE":0,"TOWNNAME":"永康區","LI":"埔園里","LIN":"20鄰","STREET":"四維街","SECT":" ","MAREA":" ","LANE":"１０２巷","ALLEY":" ","HOUSE_NO":"１８號","E_COORD97":173415.60000000001,"N_COORD97":2548237.4199999999,"ADDRESS":"四維街１０２巷１８號","OBJECTID":285337},"geometry":{"x":173415.60000000056,"y":2548237.4199999999}},{"attributes":{"ID":285344,"DIS_CODE":0,"TOWNNAME":"永康區","LI":"東橋里","LIN":"26鄰","STREET":"中正路","SECT":" ","MAREA":" ","LANE":"２７９巷","ALLEY":" ","HOUSE_NO":"１０號","E_COORD97":172630.51999999999,"N_COORD97":2548030.7400000002,"ADDRESS":"中正路２７９巷１０號","OBJECTID":285338},"geometry":{"x":172630.52000000048,"y":2548030.7400000021}},{"attributes":{"ID":285345,"DIS_CODE":0,"TOWNNAME":"東山區","LI":"南溪里","LIN":"2鄰","STREET":" ","SECT":" ","MAREA":"二重溪","LANE":" ","ALLEY":" ","HOUSE_NO":"１４號之４","E_COORD97":188545.94,"N_COORD97":2574837.54,"ADDRESS":"二重溪１４號之４","OBJECTID":285339},"geometry":{"x":188545.94000000041,"y":2574837.5399999991}},{"attributes":{"ID":285346,"DIS_CODE":0,"TOWNNAME":"東山區","LI":"南溪里","LIN":"2鄰","STREET":" ","SECT":" ","MAREA":"二重溪","LANE":" ","ALLEY":" ","HOUSE_NO":"１４號之５","E_COORD97":188542.20000000001,"N_COORD97":2574835.1400000001,"ADDRESS":"二重溪１４號之５","OBJECTID":285340},"geometry":{"x":188542.20000000019,"y":2574835.1400000006}},{"attributes":{"ID":285347,"DIS_CODE":0,"TOWNNAME":"東山區","LI":"南溪里","LIN":"2鄰","STREET":" ","SECT":" ","MAREA":"二重溪","LANE":" ","ALLEY":" ","HOUSE_NO":"１４號之６","E_COORD97":188538.45000000001,"N_COORD97":2574832.8100000001,"ADDRESS":"二重溪１４號之６","OBJECTID":285341},"geometry":{"x":188538.45000000019,"y":2574832.8100000005}},{"attributes":{"ID":285348,"DIS_CODE":0,"TOWNNAME":"東山區","LI":"南溪里","LIN":"2鄰","STREET":" ","SECT":" ","MAREA":"二重溪","LANE":" ","ALLEY":" ","HOUSE_NO":"１４號之７","E_COORD97":188534.59,"N_COORD97":2574831.0299999998,"ADDRESS":"二重溪１４號之７","OBJECTID":285342},"geometry":{"x":188534.59000000171,"y":2574831.0299999993}},{"attributes":{"ID":285349,"DIS_CODE":0,"TOWNNAME":"新營區","LI":"嘉芳里","LIN":"2鄰","STREET":" ","SECT":" ","MAREA":"茄苳腳","LANE":" ","ALLEY":" ","HOUSE_NO":"２２號","E_COORD97":177078.64000000001,"N_COORD97":2578368.6400000001,"ADDRESS":"茄苳腳２２號","OBJECTID":285343},"geometry":{"x":177078.6400000006,"y":2578368.6400000043}},{"attributes":{"ID":285350,"DIS_CODE":0,"TOWNNAME":"柳營區","LI":"旭山里","LIN":"2鄰","STREET":" ","SECT":" ","MAREA":"新吉庄","LANE":" ","ALLEY":" ","HOUSE_NO":"１６號","E_COORD97":187050.85000000001,"N_COORD97":2573835.3199999998,"ADDRESS":"新吉庄１６號","OBJECTID":285344},"geometry":{"x":187050.85000000149,"y":2573835.3200000022}},{"attributes":{"ID":285351,"DIS_CODE":0,"TOWNNAME":"麻豆區","LI":"穀興里","LIN":"2鄰","STREET":"光復路","SECT":" ","MAREA":" ","LANE":" ","ALLEY":" ","HOUSE_NO":"４０號","E_COORD97":172974.56,"N_COORD97":2564921.4500000002,"ADDRESS":"光復路４０號","OBJECTID":285345},"geometry":{"x":172974.56000000052,"y":2564921.4499999993}},{"attributes":{"ID":285352,"DIS_CODE":0,"TOWNNAME":"麻豆區","LI":"穀興里","LIN":"2鄰","STREET":"光復路","SECT":" ","MAREA":" ","LANE":" ","ALLEY":" ","HOUSE_NO":"４４號","E_COORD97":172964.47,"N_COORD97":2564921.8100000001,"ADDRESS":"光復路４４號","OBJECTID":285346},"geometry":{"x":172964.46999999974,"y":2564921.8100000024}},{"attributes":{"ID":285353,"DIS_CODE":0,"TOWNNAME":"永康區","LI":"烏竹里","LIN":"13鄰","STREET":"龍橋街","SECT":" ","MAREA":" ","LANE":"３５０巷","ALLEY":" ","HOUSE_NO":"２１號","E_COORD97":174553.03,"N_COORD97":2549134.1600000001,"ADDRESS":"龍橋街３５０巷２１號","OBJECTID":285347},"geometry":{"x":174553.03000000026,"y":2549134.160000002}},{"attributes":{"ID":285354,"DIS_CODE":0,"TOWNNAME":"永康區","LI":"埔園里","LIN":"35鄰","STREET":"八德街","SECT":" ","MAREA":" ","LANE":"８７巷","ALLEY":" ","HOUSE_NO":"１號","E_COORD97":174150.54000000001,"N_COORD97":2548508.77,"ADDRESS":"八德街８７巷１號","OBJECTID":285348},"geometry":{"x":174150.54000000004,"y":2548508.7700000014}},{"attributes":{"ID":285355,"DIS_CODE":0,"TOWNNAME":"永康區","LI":"埔園里","LIN":"28鄰","STREET":"埔園街","SECT":" ","MAREA":" ","LANE":"２４２巷","ALLEY":" ","HOUSE_NO":"１號","E_COORD97":173687.98999999999,"N_COORD97":2548267.9900000002,"ADDRESS":"埔園街２４２巷１號","OBJECTID":285349},"geometry":{"x":173687.99000000115,"y":2548267.9900000002}},{"attributes":{"ID":285356,"DIS_CODE":0,"TOWNNAME":"永康區","LI":"埔園里","LIN":"39鄰","STREET":"聖龍街","SECT":" ","MAREA":" ","LANE":"１７９巷","ALLEY":" ","HOUSE_NO":"１３號","E_COORD97":174305.64000000001,"N_COORD97":2547889.8500000001,"ADDRESS":"聖龍街１７９巷１３號","OBJECTID":285350},"geometry":{"x":174305.63999999966,"y":2547889.8500000034}},{"attributes":{"ID":285357,"DIS_CODE":0,"TOWNNAME":"永康區","LI":"埔園里","LIN":"35鄰","STREET":"自強路","SECT":" ","MAREA":" ","LANE":"６３３巷","ALLEY":" ","HOUSE_NO":"３號","E_COORD97":174223.69,"N_COORD97":2548390.7799999998,"ADDRESS":"自強路６３３巷３號","OBJECTID":285351},"geometry":{"x":174223.69000000227,"y":2548390.7799999993}},{"attributes":{"ID":285358,"DIS_CODE":0,"TOWNNAME":"永康區","LI":"神洲里","LIN":"22鄰","STREET":"忠孝路","SECT":" ","MAREA":" ","LANE":"７６巷","ALLEY":" ","HOUSE_NO":"３號","E_COORD97":172114.20000000001,"N_COORD97":2544920.2400000002,"ADDRESS":"忠孝路７６巷３號","OBJECTID":285352},"geometry":{"x":172114.20000000019,"y":2544920.2400000002}},{"attributes":{"ID":285359,"DIS_CODE":0,"TOWNNAME":"麻豆區","LI":"穀興里","LIN":"2鄰","STREET":"光復路","SECT":" ","MAREA":" ","LANE":" ","ALLEY":" ","HOUSE_NO":"４８號","E_COORD97":172954.70000000001,"N_COORD97":2564922.3799999999,"ADDRESS":"光復路４８號","OBJECTID":285353},"geometry":{"x":172954.70000000019,"y":2564922.3800000027}},{"attributes":{"ID":285360,"DIS_CODE":0,"TOWNNAME":"北區","LI":"興南里","LIN":"2鄰","STREET":"公園路","SECT":" ","MAREA":" ","LANE":" ","ALLEY":" ","HOUSE_NO":"２９７號","E_COORD97":168988.01000000001,"N_COORD97":2544841.8500000001,"ADDRESS":"公園路２９７號","OBJECTID":285354},"geometry":{"x":168988.01000000071,"y":2544841.8500000034}},{"attributes":{"ID":285361,"DIS_CODE":0,"TOWNNAME":"東山區","LI":"科里里","LIN":"2鄰","STREET":" ","SECT":" ","MAREA":"下庄子","LANE":" ","ALLEY":" ","HOUSE_NO":"２０號","E_COORD97":189575.29000000001,"N_COORD97":2578397.8799999999,"ADDRESS":"下庄子２０號","OBJECTID":285355},"geometry":{"x":189575.29000000004,"y":2578397.879999999}},{"attributes":{"ID":285362,"DIS_CODE":0,"TOWNNAME":"歸仁區","LI":"沙崙里","LIN":"2鄰","STREET":" ","SECT":" ","MAREA":"二甲","LANE":" ","ALLEY":" ","HOUSE_NO":"４７號","E_COORD97":178342.57999999999,"N_COORD97":2539301.8900000001,"ADDRESS":"二甲４７號","OBJECTID":285356},"geometry":{"x":178342.58000000007,"y":2539301.8900000006}},{"attributes":{"ID":285363,"DIS_CODE":0,"TOWNNAME":"北區","LI":"興南里","LIN":"2鄰","STREET":"公園路","SECT":" ","MAREA":" ","LANE":" ","ALLEY":" ","HOUSE_NO":"２９９號","E_COORD97":168990.87,"N_COORD97":2544849.8700000001,"ADDRESS":"公園路２９９號","OBJECTID":285357},"geometry":{"x":168990.87000000104,"y":2544849.8699999992}},{"attributes":{"ID":285364,"DIS_CODE":0,"TOWNNAME":"北區","LI":"興南里","LIN":"2鄰","STREET":"公園路","SECT":" ","MAREA":" ","LANE":" ","ALLEY":" ","HOUSE_NO":"３０１號","E_COORD97":168998.22,"N_COORD97":2544853.3999999999,"ADDRESS":"公園路３０１號","OBJECTID":285358},"geometry":{"x":168998.2200000016,"y":2544853.4000000022}},{"attributes":{"ID":285365,"DIS_CODE":0,"TOWNNAME":"北區","LI":"興南里","LIN":"2鄰","STREET":"公園路","SECT":" ","MAREA":" ","LANE":" ","ALLEY":" ","HOUSE_NO":"３０３號","E_COORD97":168999.72,"N_COORD97":2544858.29,"ADDRESS":"公園路３０３號","OBJECTID":285359},"geometry":{"x":168999.71999999881,"y":2544858.2899999991}},{"attributes":{"ID":285366,"DIS_CODE":0,"TOWNNAME":"北區","LI":"興南里","LIN":"2鄰","STREET":"公園路","SECT":" ","MAREA":" ","LANE":" ","ALLEY":" ","HOUSE_NO":"３０５號","E_COORD97":169003.79999999999,"N_COORD97":2544866.4500000002,"ADDRESS":"公園路３０５號","OBJECTID":285360},"geometry":{"x":169003.79999999981,"y":2544866.4499999993}},{"attributes":{"ID":285367,"DIS_CODE":0,"TOWNNAME":"北區","LI":"興南里","LIN":"2鄰","STREET":"公園路","SECT":" ","MAREA":" ","LANE":" ","ALLEY":" ","HOUSE_NO":"３０７號","E_COORD97":169010.45999999999,"N_COORD97":2544874.1499999999,"ADDRESS":"公園路３０７號","OBJECTID":285361},"geometry":{"x":169010.46000000089,"y":2544874.1500000004}},{"attributes":{"ID":285368,"DIS_CODE":0,"TOWNNAME":"北區","LI":"興南里","LIN":"2鄰","STREET":"公園路","SECT":" ","MAREA":" ","LANE":" ","ALLEY":" ","HOUSE_NO":"３１１號","E_COORD97":168994.14000000001,"N_COORD97":2544883.6600000001,"ADDRESS":"公園路３１１號","OBJECTID":285362},"geometry":{"x":168994.1400000006,"y":2544883.6600000001}},{"attributes":{"ID":285369,"DIS_CODE":0,"TOWNNAME":"歸仁區","LI":"沙崙里","LIN":"2鄰","STREET":" ","SECT":" ","MAREA":"二甲","LANE":" ","ALLEY":" ","HOUSE_NO":"１４號","E_COORD97":178460.67999999999,"N_COORD97":2539336.8900000001,"ADDRESS":"二甲１４號","OBJECTID":285363},"geometry":{"x":178460.6799999997,"y":2539336.8900000043}},{"attributes":{"ID":285370,"DIS_CODE":0,"TOWNNAME":"永康區","LI":"南灣里","LIN":"8鄰","STREET":"南興路","SECT":" ","MAREA":" ","LANE":"４８巷","ALLEY":" ","HOUSE_NO":"４號","E_COORD97":174280.59,"N_COORD97":2544102.46,"ADDRESS":"南興路４８巷４號","OBJECTID":285364},"geometry":{"x":174280.58999999985,"y":2544102.4600000009}},{"attributes":{"ID":285371,"DIS_CODE":0,"TOWNNAME":"永康區","LI":"埔園里","LIN":"39鄰","STREET":"聖龍街","SECT":" ","MAREA":" ","LANE":"１７９巷","ALLEY":" ","HOUSE_NO":"８號","E_COORD97":174324.38,"N_COORD97":2547875.4399999999,"ADDRESS":"聖龍街１７９巷８號","OBJECTID":285365},"geometry":{"x":174324.37999999989,"y":2547875.4400000032}},{"attributes":{"ID":285372,"DIS_CODE":0,"TOWNNAME":"永康區","LI":"埔園里","LIN":"35鄰","STREET":"八德街","SECT":" ","MAREA":" ","LANE":"９１巷","ALLEY":" ","HOUSE_NO":"７號","E_COORD97":174129.79999999999,"N_COORD97":2548463.3799999999,"ADDRESS":"八德街９１巷７號","OBJECTID":285366},"geometry":{"x":174129.80000000075,"y":2548463.3800000008}},{"attributes":{"ID":285373,"DIS_CODE":0,"TOWNNAME":"歸仁區","LI":"沙崙里","LIN":"2鄰","STREET":" ","SECT":" ","MAREA":"二甲","LANE":" ","ALLEY":" ","HOUSE_NO":"６４號","E_COORD97":178367.98000000001,"N_COORD97":2539269.8900000001,"ADDRESS":"二甲６４號","OBJECTID":285367},"geometry":{"x":178367.97999999952,"y":2539269.8900000025}},{"attributes":{"ID":285374,"DIS_CODE":0,"TOWNNAME":"歸仁區","LI":"沙崙里","LIN":"2鄰","STREET":" ","SECT":" ","MAREA":"二甲","LANE":" ","ALLEY":" ","HOUSE_NO":"８４號","E_COORD97":178399.78,"N_COORD97":2539267.8900000001,"ADDRESS":"二甲８４號","OBJECTID":285368},"geometry":{"x":178399.78000000212,"y":2539267.8900000006}},{"attributes":{"ID":285375,"DIS_CODE":0,"TOWNNAME":"永康區","LI":"勝利里","LIN":"18鄰","STREET":"中華一路","SECT":" ","MAREA":" ","LANE":"３２４巷","ALLEY":" ","HOUSE_NO":"７號","E_COORD97":171215.92000000001,"N_COORD97":2545034.9900000002,"ADDRESS":"中華一路３２４巷７號","OBJECTID":285369},"geometry":{"x":171215.92000000179,"y":2545034.9900000039}},{"attributes":{"ID":285376,"DIS_CODE":0,"TOWNNAME":"新營區","LI":"大宏里","LIN":"12鄰","STREET":"開元路","SECT":" ","MAREA":" ","LANE":"５９巷","ALLEY":" ","HOUSE_NO":"４之２８號四樓","E_COORD97":180862.92000000001,"N_COORD97":2578754.79,"ADDRESS":"開元路５９巷４之２８號四樓","OBJECTID":285370},"geometry":{"x":180862.91999999993,"y":2578754.7899999991}},{"attributes":{"ID":285377,"DIS_CODE":0,"TOWNNAME":"新營區","LI":"大宏里","LIN":"12鄰","STREET":"開元路","SECT":" ","MAREA":" ","LANE":"５９巷","ALLEY":" ","HOUSE_NO":"４之２７號四樓","E_COORD97":180862.92000000001,"N_COORD97":2578754.79,"ADDRESS":"開元路５９巷４之２７號四樓","OBJECTID":285371},"geometry":{"x":180862.91999999993,"y":2578754.7899999991}},{"attributes":{"ID":285378,"DIS_CODE":0,"TOWNNAME":"新營區","LI":"大宏里","LIN":"12鄰","STREET":"開元路","SECT":" ","MAREA":" ","LANE":"５９巷","ALLEY":" ","HOUSE_NO":"４之２２號四樓","E_COORD97":180862.92000000001,"N_COORD97":2578754.79,"ADDRESS":"開元路５９巷４之２２號四樓","OBJECTID":285372},"geometry":{"x":180862.91999999993,"y":2578754.7899999991}},{"attributes":{"ID":285379,"DIS_CODE":0,"TOWNNAME":"新營區","LI":"大宏里","LIN":"12鄰","STREET":"開元路","SECT":" ","MAREA":" ","LANE":"５９巷","ALLEY":" ","HOUSE_NO":"４之３１號五樓","E_COORD97":180862.92000000001,"N_COORD97":2578754.79,"ADDRESS":"開元路５９巷４之３１號五樓","OBJECTID":285373},"geometry":{"x":180862.91999999993,"y":2578754.7899999991}},{"attributes":{"ID":285380,"DIS_CODE":0,"TOWNNAME":"東區","LI":"德光里","LIN":"2鄰","STREET":"崇德路","SECT":" ","MAREA":" ","LANE":" ","ALLEY":" ","HOUSE_NO":"３８號","E_COORD97":169769.62,"N_COORD97":2542461.3999999999,"ADDRESS":"崇德路３８號","OBJECTID":285374},"geometry":{"x":169769.62000000104,"y":2542461.4000000004}},{"attributes":{"ID":285381,"DIS_CODE":0,"TOWNNAME":"永康區","LI":"東橋里","LIN":"26鄰","STREET":"中正路","SECT":" ","MAREA":" ","LANE":"２７９巷","ALLEY":" ","HOUSE_NO":"２０號","E_COORD97":172546.54999999999,"N_COORD97":2547953.2400000002,"ADDRESS":"中正路２７９巷２０號","OBJECTID":285375},"geometry":{"x":172546.54999999981,"y":2547953.2400000021}},{"attributes":{"ID":285382,"DIS_CODE":0,"TOWNNAME":"永康區","LI":"東橋里","LIN":"25鄰","STREET":"中正路","SECT":" ","MAREA":" ","LANE":"２６９巷","ALLEY":" ","HOUSE_NO":"１７號","E_COORD97":172785.45999999999,"N_COORD97":2547908.2400000002,"ADDRESS":"中正路２６９巷１７號","OBJECTID":285376},"geometry":{"x":172785.46000000183,"y":2547908.2400000039}},{"attributes":{"ID":285383,"DIS_CODE":0,"TOWNNAME":"永康區","LI":"埔園里","LIN":"34鄰","STREET":"永大路","SECT":"三段","MAREA":" ","LANE":"６２２巷","ALLEY":" ","HOUSE_NO":"７６號","E_COORD97":174039.95000000001,"N_COORD97":2548918.9199999999,"ADDRESS":"永大路三段６２２巷７６號","OBJECTID":285377},"geometry":{"x":174039.95000000019,"y":2548918.9199999999}},{"attributes":{"ID":285384,"DIS_CODE":0,"TOWNNAME":"仁德區","LI":"後壁里","LIN":"12鄰","STREET":"德南路","SECT":" ","MAREA":" ","LANE":"１８７巷","ALLEY":" ","HOUSE_NO":"３１號四樓","E_COORD97":173669.91,"N_COORD97":2538599.0099999998,"ADDRESS":"德南路１８７巷３１號四樓","OBJECTID":285378},"geometry":{"x":173669.91000000108,"y":2538599.0099999998}},{"attributes":{"ID":285385,"DIS_CODE":0,"TOWNNAME":"仁德區","LI":"保安里","LIN":"12鄰","STREET":"永德路","SECT":" ","MAREA":" ","LANE":"１７巷","ALLEY":" ","HOUSE_NO":"８號三樓","E_COORD97":172319.79000000001,"N_COORD97":2535916.7599999998,"ADDRESS":"永德路１７巷８號三樓","OBJECTID":285379},"geometry":{"x":172319.79000000004,"y":2535916.7600000016}},{"attributes":{"ID":285386,"DIS_CODE":0,"TOWNNAME":"仁德區","LI":"後壁里","LIN":"12鄰","STREET":"德南路","SECT":" ","MAREA":" ","LANE":"１８７巷","ALLEY":" ","HOUSE_NO":"２７號一樓","E_COORD97":173659.60999999999,"N_COORD97":2538583.0099999998,"ADDRESS":"德南路１８７巷２７號一樓","OBJECTID":285380},"geometry":{"x":173659.6100000022,"y":2538583.0100000016}},{"attributes":{"ID":285387,"DIS_CODE":0,"TOWNNAME":"仁德區","LI":"後壁里","LIN":"12鄰","STREET":"德南路","SECT":" ","MAREA":" ","LANE":"１９４巷","ALLEY":" ","HOUSE_NO":"１０號四樓之１","E_COORD97":173682.26000000001,"N_COORD97":2538469,"ADDRESS":"德南路１９４巷１０號四樓之１","OBJECTID":285381},"geometry":{"x":173682.26000000071,"y":2538469.0000000019}},{"attributes":{"ID":285388,"DIS_CODE":0,"TOWNNAME":"仁德區","LI":"後壁里","LIN":"12鄰","STREET":"德南路","SECT":" ","MAREA":" ","LANE":"１９４巷","ALLEY":" ","HOUSE_NO":"１４號七樓之２","E_COORD97":173662.82999999999,"N_COORD97":2538492.7400000002,"ADDRESS":"德南路１９４巷１４號七樓之２","OBJECTID":285382},"geometry":{"x":173662.83000000194,"y":2538492.7400000002}},{"attributes":{"ID":285389,"DIS_CODE":0,"TOWNNAME":"中西區","LI":"小西里","LIN":"12鄰","STREET":"西門路","SECT":"一段","MAREA":" ","LANE":"７３４巷","ALLEY":" ","HOUSE_NO":"５號一樓","E_COORD97":167828.91,"N_COORD97":2543379.6800000002,"ADDRESS":"西門路一段７３４巷５號一樓","OBJECTID":285383},"geometry":{"x":167828.91000000015,"y":2543379.6800000016}},{"attributes":{"ID":285390,"DIS_CODE":0,"TOWNNAME":"中西區","LI":"小西里","LIN":"12鄰","STREET":"西門路","SECT":"一段","MAREA":" ","LANE":"７３４巷","ALLEY":" ","HOUSE_NO":"５號二樓","E_COORD97":167828.91,"N_COORD97":2543379.6800000002,"ADDRESS":"西門路一段７３４巷５號二樓","OBJECTID":285384},"geometry":{"x":167828.91000000015,"y":2543379.6800000016}},{"attributes":{"ID":285391,"DIS_CODE":0,"TOWNNAME":"永康區","LI":"埔園里","LIN":"15鄰","STREET":"龍埔街","SECT":" ","MAREA":" ","LANE":"５３６巷","ALLEY":" ","HOUSE_NO":"１０號","E_COORD97":173562.16,"N_COORD97":2548418,"ADDRESS":"龍埔街５３６巷１０號","OBJECTID":285385},"geometry":{"x":173562.16000000015,"y":2548417.9999999981}},{"attributes":{"ID":285392,"DIS_CODE":0,"TOWNNAME":"中西區","LI":"仙草里","LIN":"12鄰","STREET":"府緯街","SECT":" ","MAREA":" ","LANE":"４巷","ALLEY":" ","HOUSE_NO":"２５號三樓","E_COORD97":167890.72,"N_COORD97":2542759.2799999998,"ADDRESS":"府緯街４巷２５號三樓","OBJECTID":285386},"geometry":{"x":167890.71999999974,"y":2542759.2799999993}},{"attributes":{"ID":285393,"DIS_CODE":0,"TOWNNAME":"中西區","LI":"仙草里","LIN":"12鄰","STREET":"府緯街","SECT":" ","MAREA":" ","LANE":"４巷","ALLEY":" ","HOUSE_NO":"２３號二樓","E_COORD97":167897.14000000001,"N_COORD97":2542758.9300000002,"ADDRESS":"府緯街４巷２３號二樓","OBJECTID":285387},"geometry":{"x":167897.1400000006,"y":2542758.9299999997}},{"attributes":{"ID":285394,"DIS_CODE":0,"TOWNNAME":"中西區","LI":"仙草里","LIN":"12鄰","STREET":"府緯街","SECT":" ","MAREA":" ","LANE":"４巷","ALLEY":" ","HOUSE_NO":"２３號三樓","E_COORD97":167897.14000000001,"N_COORD97":2542758.9300000002,"ADDRESS":"府緯街４巷２３號三樓","OBJECTID":285388},"geometry":{"x":167897.1400000006,"y":2542758.9299999997}},{"attributes":{"ID":285395,"DIS_CODE":0,"TOWNNAME":"永康區","LI":"埔園里","LIN":"35鄰","STREET":"八德街","SECT":" ","MAREA":" ","LANE":"９１巷","ALLEY":" ","HOUSE_NO":"６號","E_COORD97":174125.26999999999,"N_COORD97":2548464.3799999999,"ADDRESS":"八德街９１巷６號","OBJECTID":285389},"geometry":{"x":174125.26999999955,"y":2548464.379999999}},{"attributes":{"ID":285396,"DIS_CODE":0,"TOWNNAME":"永康區","LI":"神洲里","LIN":"12鄰","STREET":"忠孝路","SECT":" ","MAREA":" ","LANE":"１５２巷","ALLEY":" ","HOUSE_NO":"２０號五樓","E_COORD97":172174.34,"N_COORD97":2545072.2599999998,"ADDRESS":"忠孝路１５２巷２０號五樓","OBJECTID":285390},"geometry":{"x":172174.34000000078,"y":2545072.2599999998}},{"attributes":{"ID":285397,"DIS_CODE":0,"TOWNNAME":"西港區","LI":"慶安里","LIN":"12鄰","STREET":"新興街","SECT":" ","MAREA":" ","LANE":"１０７巷","ALLEY":" ","HOUSE_NO":"７號七樓之５","E_COORD97":168144.92999999999,"N_COORD97":2558089.9500000002,"ADDRESS":"新興街１０７巷７號七樓之５","OBJECTID":285391},"geometry":{"x":168144.9299999997,"y":2558089.9499999993}},{"attributes":{"ID":285398,"DIS_CODE":0,"TOWNNAME":"西港區","LI":"慶安里","LIN":"12鄰","STREET":"新興街","SECT":" ","MAREA":" ","LANE":"１０７巷","ALLEY":" ","HOUSE_NO":"７號二樓之１","E_COORD97":168144.92999999999,"N_COORD97":2558089.9500000002,"ADDRESS":"新興街１０７巷７號二樓之１","OBJECTID":285392},"geometry":{"x":168144.9299999997,"y":2558089.9499999993}},{"attributes":{"ID":285399,"DIS_CODE":0,"TOWNNAME":"西港區","LI":"慶安里","LIN":"12鄰","STREET":"新興街","SECT":" ","MAREA":" ","LANE":"１０７巷","ALLEY":" ","HOUSE_NO":"７號二樓之２","E_COORD97":168144.92999999999,"N_COORD97":2558089.9500000002,"ADDRESS":"新興街１０７巷７號二樓之２","OBJECTID":285393},"geometry":{"x":168144.9299999997,"y":2558089.9499999993}},{"attributes":{"ID":285400,"DIS_CODE":0,"TOWNNAME":"西港區","LI":"慶安里","LIN":"12鄰","STREET":"新興街","SECT":" ","MAREA":" ","LANE":"１０７巷","ALLEY":" ","HOUSE_NO":"７號二樓之３","E_COORD97":168144.92999999999,"N_COORD97":2558089.9500000002,"ADDRESS":"新興街１０７巷７號二樓之３","OBJECTID":285394},"geometry":{"x":168144.9299999997,"y":2558089.9499999993}},{"attributes":{"ID":285401,"DIS_CODE":0,"TOWNNAME":"西港區","LI":"慶安里","LIN":"12鄰","STREET":"新興街","SECT":" ","MAREA":" ","LANE":"１０７巷","ALLEY":" ","HOUSE_NO":"３號二樓之１","E_COORD97":168145.95000000001,"N_COORD97":2558156.3799999999,"ADDRESS":"新興街１０７巷３號二樓之１","OBJECTID":285395},"geometry":{"x":168145.94999999925,"y":2558156.3800000008}},{"attributes":{"ID":285402,"DIS_CODE":0,"TOWNNAME":"西港區","LI":"慶安里","LIN":"12鄰","STREET":"新興街","SECT":" ","MAREA":" ","LANE":"１０７巷","ALLEY":" ","HOUSE_NO":"３號二樓之２","E_COORD97":168145.95000000001,"N_COORD97":2558156.3799999999,"ADDRESS":"新興街１０７巷３號二樓之２","OBJECTID":285396},"geometry":{"x":168145.94999999925,"y":2558156.3800000008}},{"attributes":{"ID":285403,"DIS_CODE":0,"TOWNNAME":"永康區","LI":"神洲里","LIN":"11鄰","STREET":"忠孝路","SECT":" ","MAREA":" ","LANE":"１５２巷","ALLEY":" ","HOUSE_NO":"３４號","E_COORD97":172236.22,"N_COORD97":2545071.1499999999,"ADDRESS":"忠孝路１５２巷３４號","OBJECTID":285397},"geometry":{"x":172236.22000000067,"y":2545071.1500000041}},{"attributes":{"ID":285404,"DIS_CODE":0,"TOWNNAME":"東山區","LI":"東中里","LIN":"2鄰","STREET":"中興路","SECT":" ","MAREA":" ","LANE":" ","ALLEY":" ","HOUSE_NO":"２７號","E_COORD97":188966.29999999999,"N_COORD97":2580138.0800000001,"ADDRESS":"中興路２７號","OBJECTID":285398},"geometry":{"x":188966.29999999981,"y":2580138.0800000038}},{"attributes":{"ID":285405,"DIS_CODE":0,"TOWNNAME":"西港區","LI":"慶安里","LIN":"12鄰","STREET":"新興街","SECT":" ","MAREA":" ","LANE":"１０７巷","ALLEY":" ","HOUSE_NO":"５號六樓之２","E_COORD97":168141.17999999999,"N_COORD97":2558121.1499999999,"ADDRESS":"新興街１０７巷５號六樓之２","OBJECTID":285399},"geometry":{"x":168141.18000000063,"y":2558121.1500000022}},{"attributes":{"ID":285406,"DIS_CODE":0,"TOWNNAME":"西港區","LI":"慶安里","LIN":"12鄰","STREET":"新興街","SECT":" ","MAREA":" ","LANE":"１０７巷","ALLEY":" ","HOUSE_NO":"５號六樓之３","E_COORD97":168141.17999999999,"N_COORD97":2558121.1499999999,"ADDRESS":"新興街１０７巷５號六樓之３","OBJECTID":285400},"geometry":{"x":168141.18000000063,"y":2558121.1500000022}}]}