{"displayFieldName":"TOWNNAME","fieldAliases":{"ID":"ID","DIS_CODE":"DIS_CODE","TOWNNAME":"TOWNNAME","LI":"LI","LIN":"LIN","STREET":"STREET","SECT":"SECT","MAREA":"MAREA","LANE":"LANE","ALLEY":"ALLEY","HOUSE_NO":"HOUSE_NO","E_COORD97":"E_COORD97","N_COORD97":"N_COORD97","ADDRESS":"ADDRESS","OBJECTID":"OBJECTID"},"geometryType":"esriGeometryPoint","spatialReference":{"wkid":102443,"latestWkid":3826},"fields":[{"name":"ID","type":"esriFieldTypeDouble","alias":"ID"},{"name":"DIS_CODE","type":"esriFieldTypeInteger","alias":"DIS_CODE"},{"name":"TOWNNAME","type":"esriFieldTypeString","alias":"TOWNNAME","length":8},{"name":"LI","type":"esriFieldTypeString","alias":"LI","length":8},{"name":"LIN","type":"esriFieldTypeString","alias":"LIN","length":12},{"name":"STREET","type":"esriFieldTypeString","alias":"STREET","length":20},{"name":"SECT","type":"esriFieldTypeString","alias":"SECT","length":8},{"name":"MAREA","type":"esriFieldTypeString","alias":"MAREA","length":12},{"name":"LANE","type":"esriFieldTypeString","alias":"LANE","length":10},{"name":"ALLEY","type":"esriFieldTypeString","alias":"ALLEY","length":10},{"name":"HOUSE_NO","type":"esriFieldTypeString","alias":"HOUSE_NO","length":20},{"name":"E_COORD97","type":"esriFieldTypeDouble","alias":"E_COORD97"},{"name":"N_COORD97","type":"esriFieldTypeDouble","alias":"N_COORD97"},{"name":"ADDRESS","type":"esriFieldTypeString","alias":"ADDRESS","length":50},{"name":"OBJECTID","type":"esriFieldTypeOID","alias":"OBJECTID"}],"features":[{"attributes":{"ID":42601,"DIS_CODE":0,"TOWNNAME":"南區","LI":"大林里","LIN":"7鄰","STREET":"大同路","SECT":"二段","MAREA":" ","LANE":"４８２巷","ALLEY":"１１２弄","HOUSE_NO":"８號","E_COORD97":169206.66,"N_COORD97":2541562.96,"ADDRESS":"大同路二段４８２巷１１２弄８號","OBJECTID":42601},"geometry":{"x":169206.66000000015,"y":2541562.9600000009}},{"attributes":{"ID":42602,"DIS_CODE":0,"TOWNNAME":"新營區","LI":"南紙里","LIN":"5鄰","STREET":"南紙街","SECT":" ","MAREA":" ","LANE":"２９巷","ALLEY":"６弄","HOUSE_NO":"２４號","E_COORD97":177896.66,"N_COORD97":2577679.1200000001,"ADDRESS":"南紙街２９巷６弄２４號","OBJECTID":42602},"geometry":{"x":177896.66000000015,"y":2577679.1200000029}},{"attributes":{"ID":42603,"DIS_CODE":0,"TOWNNAME":"永康區","LI":"東橋里","LIN":"17鄰","STREET":"東橋一路","SECT":" ","MAREA":" ","LANE":" ","ALLEY":" ","HOUSE_NO":"５０２號","E_COORD97":171319.20999999999,"N_COORD97":2547204.1200000001,"ADDRESS":"東橋一路５０２號","OBJECTID":42603},"geometry":{"x":171319.21000000183,"y":2547204.120000001}},{"attributes":{"ID":42604,"DIS_CODE":0,"TOWNNAME":"大內區","LI":"石湖里","LIN":"7鄰","STREET":" ","SECT":" ","MAREA":"石子瀨","LANE":" ","ALLEY":" ","HOUSE_NO":"２９１號之３","E_COORD97":183907.10000000001,"N_COORD97":2558215.2999999998,"ADDRESS":"石子瀨２９１號之３","OBJECTID":42604},"geometry":{"x":183907.10000000056,"y":2558215.3000000045}},{"attributes":{"ID":42605,"DIS_CODE":0,"TOWNNAME":"大內區","LI":"環湖里","LIN":"7鄰","STREET":" ","SECT":" ","MAREA":"環湖","LANE":" ","ALLEY":" ","HOUSE_NO":"９３號","E_COORD97":190376.54000000001,"N_COORD97":2560688.25,"ADDRESS":"環湖９３號","OBJECTID":42605},"geometry":{"x":190376.54000000097,"y":2560688.25}},{"attributes":{"ID":42606,"DIS_CODE":0,"TOWNNAME":"大內區","LI":"石湖里","LIN":"7鄰","STREET":" ","SECT":" ","MAREA":"石子瀨","LANE":" ","ALLEY":" ","HOUSE_NO":"２９２號","E_COORD97":183934.57000000001,"N_COORD97":2558237.25,"ADDRESS":"石子瀨２９２號","OBJECTID":42606},"geometry":{"x":183934.57000000123,"y":2558237.25}},{"attributes":{"ID":42607,"DIS_CODE":0,"TOWNNAME":"大內區","LI":"石湖里","LIN":"7鄰","STREET":" ","SECT":" ","MAREA":"石子瀨","LANE":" ","ALLEY":" ","HOUSE_NO":"２８６號之２","E_COORD97":183969.04000000001,"N_COORD97":2558357.2999999998,"ADDRESS":"石子瀨２８６號之２","OBJECTID":42607},"geometry":{"x":183969.04000000004,"y":2558357.2999999989}},{"attributes":{"ID":42608,"DIS_CODE":0,"TOWNNAME":"大內區","LI":"內郭里","LIN":"7鄰","STREET":" ","SECT":" ","MAREA":"後堀","LANE":" ","ALLEY":" ","HOUSE_NO":"４號之６","E_COORD97":185630.85000000001,"N_COORD97":2557385.3199999998,"ADDRESS":"後堀４號之６","OBJECTID":42608},"geometry":{"x":185630.85000000056,"y":2557385.3200000022}},{"attributes":{"ID":42609,"DIS_CODE":0,"TOWNNAME":"大內區","LI":"內江里","LIN":"7鄰","STREET":" ","SECT":" ","MAREA":"內庄","LANE":" ","ALLEY":" ","HOUSE_NO":"２８５號之２７","E_COORD97":184369.94,"N_COORD97":2557470.2999999998,"ADDRESS":"內庄２８５號之２７","OBJECTID":42609},"geometry":{"x":184369.94000000134,"y":2557470.3000000026}},{"attributes":{"ID":42610,"DIS_CODE":0,"TOWNNAME":"大內區","LI":"石湖里","LIN":"7鄰","STREET":" ","SECT":" ","MAREA":"石子瀨","LANE":" ","ALLEY":" ","HOUSE_NO":"２８６號之５","E_COORD97":183979.76000000001,"N_COORD97":2558336.2999999998,"ADDRESS":"石子瀨２８６號之５","OBJECTID":42610},"geometry":{"x":183979.75999999978,"y":2558336.3000000007}},{"attributes":{"ID":42611,"DIS_CODE":0,"TOWNNAME":"大內區","LI":"石湖里","LIN":"7鄰","STREET":" ","SECT":" ","MAREA":"石子瀨","LANE":" ","ALLEY":" ","HOUSE_NO":"２９０號","E_COORD97":183967.57000000001,"N_COORD97":2558218.25,"ADDRESS":"石子瀨２９０號","OBJECTID":42611},"geometry":{"x":183967.5700000003,"y":2558218.2500000037}},{"attributes":{"ID":42612,"DIS_CODE":0,"TOWNNAME":"大內區","LI":"石城里","LIN":"7鄰","STREET":" ","SECT":" ","MAREA":"石子瀨","LANE":" ","ALLEY":" ","HOUSE_NO":"６４號","E_COORD97":184187.32000000001,"N_COORD97":2557978.25,"ADDRESS":"石子瀨６４號","OBJECTID":42612},"geometry":{"x":184187.32000000123,"y":2557978.2500000019}},{"attributes":{"ID":42613,"DIS_CODE":0,"TOWNNAME":"大內區","LI":"石城里","LIN":"7鄰","STREET":" ","SECT":" ","MAREA":"石子瀨","LANE":" ","ALLEY":" ","HOUSE_NO":"６３號之１","E_COORD97":184189.45000000001,"N_COORD97":2557967.29,"ADDRESS":"石子瀨６３號之１","OBJECTID":42613},"geometry":{"x":184189.45000000112,"y":2557967.290000001}},{"attributes":{"ID":42614,"DIS_CODE":0,"TOWNNAME":"大內區","LI":"曲溪里","LIN":"7鄰","STREET":" ","SECT":" ","MAREA":"二重溪","LANE":" ","ALLEY":" ","HOUSE_NO":"６３號","E_COORD97":187242.19,"N_COORD97":2557606.3100000001,"ADDRESS":"二重溪６３號","OBJECTID":42614},"geometry":{"x":187242.19000000041,"y":2557606.3100000005}},{"attributes":{"ID":42615,"DIS_CODE":0,"TOWNNAME":"大內區","LI":"內江里","LIN":"7鄰","STREET":" ","SECT":" ","MAREA":"內庄","LANE":" ","ALLEY":" ","HOUSE_NO":"２９１號之１","E_COORD97":184465.41,"N_COORD97":2557380.2999999998,"ADDRESS":"內庄２９１號之１","OBJECTID":42615},"geometry":{"x":184465.41000000015,"y":2557380.3000000007}},{"attributes":{"ID":42616,"DIS_CODE":0,"TOWNNAME":"大內區","LI":"二溪里","LIN":"7鄰","STREET":" ","SECT":" ","MAREA":"二重溪","LANE":" ","ALLEY":" ","HOUSE_NO":"２０３號之６","E_COORD97":189144.913256,"N_COORD97":2558832.4482100001,"ADDRESS":"二重溪２０３號之６","OBJECTID":42616},"geometry":{"x":189144.9132559998,"y":2558832.448206}},{"attributes":{"ID":42617,"DIS_CODE":0,"TOWNNAME":"大內區","LI":"二溪里","LIN":"7鄰","STREET":" ","SECT":" ","MAREA":"二重溪","LANE":" ","ALLEY":" ","HOUSE_NO":"２０２號之９","E_COORD97":189780.06,"N_COORD97":2558641.3100000001,"ADDRESS":"二重溪２０２號之９","OBJECTID":42617},"geometry":{"x":189780.05999999959,"y":2558641.3100000005}},{"attributes":{"ID":42618,"DIS_CODE":0,"TOWNNAME":"大內區","LI":"內江里","LIN":"7鄰","STREET":" ","SECT":" ","MAREA":"內庄","LANE":" ","ALLEY":" ","HOUSE_NO":"２８５號之１３","E_COORD97":184345.95999999999,"N_COORD97":2557511.2999999998,"ADDRESS":"內庄２８５號之１３","OBJECTID":42618},"geometry":{"x":184345.95999999996,"y":2557511.3000000026}},{"attributes":{"ID":42619,"DIS_CODE":0,"TOWNNAME":"麻豆區","LI":"安正里","LIN":"7鄰","STREET":" ","SECT":" ","MAREA":"社子","LANE":" ","ALLEY":" ","HOUSE_NO":"２號","E_COORD97":172099.31,"N_COORD97":2562148.7200000002,"ADDRESS":"社子２號","OBJECTID":42619},"geometry":{"x":172099.30999999959,"y":2562148.7200000025}},{"attributes":{"ID":42620,"DIS_CODE":0,"TOWNNAME":"麻豆區","LI":"安正里","LIN":"7鄰","STREET":" ","SECT":" ","MAREA":"社子","LANE":" ","ALLEY":" ","HOUSE_NO":"３號之２","E_COORD97":172064.48999999999,"N_COORD97":2562228.3900000001,"ADDRESS":"社子３號之２","OBJECTID":42620},"geometry":{"x":172064.49000000022,"y":2562228.3899999987}},{"attributes":{"ID":42621,"DIS_CODE":0,"TOWNNAME":"麻豆區","LI":"安正里","LIN":"7鄰","STREET":" ","SECT":" ","MAREA":"社子","LANE":" ","ALLEY":" ","HOUSE_NO":"３號之３","E_COORD97":172053.81,"N_COORD97":2562271.9700000002,"ADDRESS":"社子３號之３","OBJECTID":42621},"geometry":{"x":172053.81000000145,"y":2562271.9699999988}},{"attributes":{"ID":42622,"DIS_CODE":0,"TOWNNAME":"麻豆區","LI":"安正里","LIN":"7鄰","STREET":" ","SECT":" ","MAREA":"社子","LANE":" ","ALLEY":" ","HOUSE_NO":"３號之５","E_COORD97":172065.75,"N_COORD97":2562256.8500000001,"ADDRESS":"社子３號之５","OBJECTID":42622},"geometry":{"x":172065.75,"y":2562256.8499999996}},{"attributes":{"ID":42623,"DIS_CODE":0,"TOWNNAME":"麻豆區","LI":"安正里","LIN":"7鄰","STREET":" ","SECT":" ","MAREA":"社子","LANE":" ","ALLEY":" ","HOUSE_NO":"３號之７","E_COORD97":172064.79999999999,"N_COORD97":2562261.5,"ADDRESS":"社子３號之７","OBJECTID":42623},"geometry":{"x":172064.80000000075,"y":2562261.5000000019}},{"attributes":{"ID":42624,"DIS_CODE":0,"TOWNNAME":"麻豆區","LI":"油車里","LIN":"7鄰","STREET":" ","SECT":" ","MAREA":"油車","LANE":" ","ALLEY":" ","HOUSE_NO":"１８號","E_COORD97":172756.10999999999,"N_COORD97":2565437.1499999999,"ADDRESS":"油車１８號","OBJECTID":42624},"geometry":{"x":172756.1100000022,"y":2565437.1500000041}},{"attributes":{"ID":42625,"DIS_CODE":0,"TOWNNAME":"麻豆區","LI":"油車里","LIN":"7鄰","STREET":" ","SECT":" ","MAREA":"油車","LANE":" ","ALLEY":" ","HOUSE_NO":"１９號之１","E_COORD97":172715.07000000001,"N_COORD97":2565395.3999999999,"ADDRESS":"油車１９號之１","OBJECTID":42625},"geometry":{"x":172715.0700000003,"y":2565395.4000000022}},{"attributes":{"ID":42626,"DIS_CODE":0,"TOWNNAME":"麻豆區","LI":"油車里","LIN":"7鄰","STREET":" ","SECT":" ","MAREA":"油車","LANE":" ","ALLEY":" ","HOUSE_NO":"１９號之２","E_COORD97":172742,"N_COORD97":2565400.5,"ADDRESS":"油車１９號之２","OBJECTID":42626},"geometry":{"x":172742.00000000093,"y":2565400.5000000037}},{"attributes":{"ID":42627,"DIS_CODE":0,"TOWNNAME":"麻豆區","LI":"油車里","LIN":"7鄰","STREET":" ","SECT":" ","MAREA":"油車","LANE":" ","ALLEY":" ","HOUSE_NO":"２０號之１","E_COORD97":172715.89999999999,"N_COORD97":2565444.1800000002,"ADDRESS":"油車２０號之１","OBJECTID":42627},"geometry":{"x":172715.9000000013,"y":2565444.1800000016}},{"attributes":{"ID":42628,"DIS_CODE":0,"TOWNNAME":"麻豆區","LI":"油車里","LIN":"7鄰","STREET":" ","SECT":" ","MAREA":"油車","LANE":" ","ALLEY":" ","HOUSE_NO":"２０號","E_COORD97":172713.48999999999,"N_COORD97":2565458.9700000002,"ADDRESS":"油車２０號","OBJECTID":42628},"geometry":{"x":172713.49000000022,"y":2565458.9699999988}},{"attributes":{"ID":42629,"DIS_CODE":0,"TOWNNAME":"麻豆區","LI":"油車里","LIN":"7鄰","STREET":" ","SECT":" ","MAREA":"油車","LANE":" ","ALLEY":" ","HOUSE_NO":"２１號之２","E_COORD97":172729.53,"N_COORD97":2565463.8199999998,"ADDRESS":"油車２１號之２","OBJECTID":42629},"geometry":{"x":172729.53000000119,"y":2565463.8200000022}},{"attributes":{"ID":42630,"DIS_CODE":0,"TOWNNAME":"麻豆區","LI":"油車里","LIN":"7鄰","STREET":" ","SECT":" ","MAREA":"油車","LANE":" ","ALLEY":" ","HOUSE_NO":"２１號之３","E_COORD97":172730.64000000001,"N_COORD97":2565459.3599999999,"ADDRESS":"油車２１號之３","OBJECTID":42630},"geometry":{"x":172730.63999999966,"y":2565459.3600000013}},{"attributes":{"ID":42631,"DIS_CODE":0,"TOWNNAME":"南區","LI":"同安里","LIN":"7鄰","STREET":"灣裡路","SECT":" ","MAREA":" ","LANE":"２６３巷","ALLEY":"５２弄","HOUSE_NO":"２１號","E_COORD97":166276.81,"N_COORD97":2536271.71,"ADDRESS":"灣裡路２６３巷５２弄２１號","OBJECTID":42631},"geometry":{"x":166276.81000000052,"y":2536271.7100000009}},{"attributes":{"ID":42632,"DIS_CODE":0,"TOWNNAME":"麻豆區","LI":"油車里","LIN":"7鄰","STREET":" ","SECT":" ","MAREA":"油車","LANE":" ","ALLEY":" ","HOUSE_NO":"２２號之１","E_COORD97":172752.23000000001,"N_COORD97":2565493.6200000001,"ADDRESS":"油車２２號之１","OBJECTID":42632},"geometry":{"x":172752.23000000138,"y":2565493.6200000029}},{"attributes":{"ID":42633,"DIS_CODE":0,"TOWNNAME":"麻豆區","LI":"油車里","LIN":"7鄰","STREET":" ","SECT":" ","MAREA":"油車","LANE":" ","ALLEY":" ","HOUSE_NO":"２２號","E_COORD97":172751.64000000001,"N_COORD97":2565450.9700000002,"ADDRESS":"油車２２號","OBJECTID":42633},"geometry":{"x":172751.63999999873,"y":2565450.9700000007}},{"attributes":{"ID":42634,"DIS_CODE":0,"TOWNNAME":"麻豆區","LI":"油車里","LIN":"7鄰","STREET":" ","SECT":" ","MAREA":"油車","LANE":" ","ALLEY":" ","HOUSE_NO":"２３號","E_COORD97":172724.60999999999,"N_COORD97":2565484.8399999999,"ADDRESS":"油車２３號","OBJECTID":42634},"geometry":{"x":172724.61000000127,"y":2565484.8399999999}},{"attributes":{"ID":42635,"DIS_CODE":0,"TOWNNAME":"麻豆區","LI":"油車里","LIN":"7鄰","STREET":" ","SECT":" ","MAREA":"油車","LANE":" ","ALLEY":" ","HOUSE_NO":"２４號之３","E_COORD97":172703.60000000001,"N_COORD97":2565530.6299999999,"ADDRESS":"油車２４號之３","OBJECTID":42635},"geometry":{"x":172703.60000000056,"y":2565530.6299999971}},{"attributes":{"ID":42636,"DIS_CODE":0,"TOWNNAME":"麻豆區","LI":"油車里","LIN":"7鄰","STREET":" ","SECT":" ","MAREA":"油車","LANE":" ","ALLEY":" ","HOUSE_NO":"２４號","E_COORD97":172732.07000000001,"N_COORD97":2565516.8999999999,"ADDRESS":"油車２４號","OBJECTID":42636},"geometry":{"x":172732.0700000003,"y":2565516.9000000041}},{"attributes":{"ID":42637,"DIS_CODE":0,"TOWNNAME":"麻豆區","LI":"安正里","LIN":"7鄰","STREET":" ","SECT":" ","MAREA":"社子","LANE":" ","ALLEY":" ","HOUSE_NO":"１０號之１０","E_COORD97":171907.92000000001,"N_COORD97":2562146.8100000001,"ADDRESS":"社子１０號之１０","OBJECTID":42637},"geometry":{"x":171907.92000000086,"y":2562146.8100000005}},{"attributes":{"ID":42638,"DIS_CODE":0,"TOWNNAME":"麻豆區","LI":"安正里","LIN":"7鄰","STREET":" ","SECT":" ","MAREA":"社子","LANE":" ","ALLEY":" ","HOUSE_NO":"１０號之１１","E_COORD97":171909.48999999999,"N_COORD97":2562142.3599999999,"ADDRESS":"社子１０號之１１","OBJECTID":42638},"geometry":{"x":171909.49000000115,"y":2562142.3599999994}},{"attributes":{"ID":42639,"DIS_CODE":0,"TOWNNAME":"麻豆區","LI":"安正里","LIN":"7鄰","STREET":" ","SECT":" ","MAREA":"社子","LANE":" ","ALLEY":" ","HOUSE_NO":"１０號之１２","E_COORD97":171912.39000000001,"N_COORD97":2562135.3700000001,"ADDRESS":"社子１０號之１２","OBJECTID":42639},"geometry":{"x":171912.38999999966,"y":2562135.3700000029}},{"attributes":{"ID":42640,"DIS_CODE":0,"TOWNNAME":"麻豆區","LI":"安正里","LIN":"7鄰","STREET":" ","SECT":" ","MAREA":"社子","LANE":" ","ALLEY":" ","HOUSE_NO":"１０號之１３","E_COORD97":171866.39000000001,"N_COORD97":2562139.6899999999,"ADDRESS":"社子１０號之１３","OBJECTID":42640},"geometry":{"x":171866.38999999966,"y":2562139.6899999995}},{"attributes":{"ID":42641,"DIS_CODE":0,"TOWNNAME":"麻豆區","LI":"安正里","LIN":"7鄰","STREET":" ","SECT":" ","MAREA":"社子","LANE":" ","ALLEY":" ","HOUSE_NO":"１０號之１４","E_COORD97":171866.42000000001,"N_COORD97":2562144.73,"ADDRESS":"社子１０號之１４","OBJECTID":42641},"geometry":{"x":171866.41999999993,"y":2562144.7300000042}},{"attributes":{"ID":42642,"DIS_CODE":0,"TOWNNAME":"麻豆區","LI":"安正里","LIN":"7鄰","STREET":" ","SECT":" ","MAREA":"社子","LANE":" ","ALLEY":" ","HOUSE_NO":"１０號之１５","E_COORD97":171866.81,"N_COORD97":2562149.6800000002,"ADDRESS":"社子１０號之１５","OBJECTID":42642},"geometry":{"x":171866.80999999959,"y":2562149.6799999997}},{"attributes":{"ID":42643,"DIS_CODE":0,"TOWNNAME":"新營區","LI":"忠政里","LIN":"16鄰","STREET":"府西路","SECT":" ","MAREA":" ","LANE":"２５７巷","ALLEY":"４０弄","HOUSE_NO":"６號","E_COORD97":179710.47,"N_COORD97":2579716.9700000002,"ADDRESS":"府西路２５７巷４０弄６號","OBJECTID":42643},"geometry":{"x":179710.47000000067,"y":2579716.9700000025}},{"attributes":{"ID":42644,"DIS_CODE":0,"TOWNNAME":"新營區","LI":"忠政里","LIN":"26鄰","STREET":"府西路","SECT":" ","MAREA":" ","LANE":"１３７巷","ALLEY":"２６弄","HOUSE_NO":"９號","E_COORD97":179707.70999999999,"N_COORD97":2579358.1699999999,"ADDRESS":"府西路１３７巷２６弄９號","OBJECTID":42644},"geometry":{"x":179707.71000000089,"y":2579358.1700000018}},{"attributes":{"ID":42645,"DIS_CODE":0,"TOWNNAME":"新營區","LI":"新南里","LIN":"17鄰","STREET":"隋唐街","SECT":" ","MAREA":" ","LANE":"３１巷","ALLEY":"６弄","HOUSE_NO":"７號","E_COORD97":178676.45999999999,"N_COORD97":2578441.7000000002,"ADDRESS":"隋唐街３１巷６弄７號","OBJECTID":42645},"geometry":{"x":178676.46000000089,"y":2578441.7000000011}},{"attributes":{"ID":42646,"DIS_CODE":0,"TOWNNAME":"南區","LI":"興農里","LIN":"7鄰","STREET":"灣裡路","SECT":" ","MAREA":" ","LANE":"２６３巷","ALLEY":"７３弄","HOUSE_NO":"１２號","E_COORD97":166411.12,"N_COORD97":2536411.9900000002,"ADDRESS":"灣裡路２６３巷７３弄１２號","OBJECTID":42646},"geometry":{"x":166411.12000000104,"y":2536411.9900000002}},{"attributes":{"ID":42647,"DIS_CODE":0,"TOWNNAME":"南區","LI":"大林里","LIN":"7鄰","STREET":"大同路","SECT":"二段","MAREA":" ","LANE":"４８２巷","ALLEY":"７４弄","HOUSE_NO":"１７號","E_COORD97":169261.42000000001,"N_COORD97":2541541.5099999998,"ADDRESS":"大同路二段４８２巷７４弄１７號","OBJECTID":42647},"geometry":{"x":169261.42000000179,"y":2541541.5099999998}},{"attributes":{"ID":42648,"DIS_CODE":0,"TOWNNAME":"新營區","LI":"南紙里","LIN":"13鄰","STREET":"太子路","SECT":" ","MAREA":" ","LANE":"２３８巷","ALLEY":"４２弄","HOUSE_NO":"８號","E_COORD97":177809.94,"N_COORD97":2577982.98,"ADDRESS":"太子路２３８巷４２弄８號","OBJECTID":42648},"geometry":{"x":177809.94000000041,"y":2577982.9800000042}},{"attributes":{"ID":42649,"DIS_CODE":0,"TOWNNAME":"新營區","LI":"忠政里","LIN":"26鄰","STREET":"府西路","SECT":" ","MAREA":" ","LANE":"１３７巷","ALLEY":"２６弄","HOUSE_NO":"１３號","E_COORD97":179710.07000000001,"N_COORD97":2579370.3500000001,"ADDRESS":"府西路１３７巷２６弄１３號","OBJECTID":42649},"geometry":{"x":179710.07000000123,"y":2579370.3500000015}},{"attributes":{"ID":42650,"DIS_CODE":0,"TOWNNAME":"南區","LI":"松安里","LIN":"7鄰","STREET":"灣裡路","SECT":" ","MAREA":" ","LANE":"２８２巷","ALLEY":"３０弄","HOUSE_NO":"１４號","E_COORD97":165987.67000000001,"N_COORD97":2536363.73,"ADDRESS":"灣裡路２８２巷３０弄１４號","OBJECTID":42650},"geometry":{"x":165987.66999999993,"y":2536363.7300000004}},{"attributes":{"ID":42651,"DIS_CODE":0,"TOWNNAME":"南區","LI":"松安里","LIN":"7鄰","STREET":"灣裡路","SECT":" ","MAREA":" ","LANE":"２８２巷","ALLEY":"３０弄","HOUSE_NO":"１５號","E_COORD97":165958.66,"N_COORD97":2536354.21,"ADDRESS":"灣裡路２８２巷３０弄１５號","OBJECTID":42651},"geometry":{"x":165958.66000000015,"y":2536354.2100000009}},{"attributes":{"ID":42652,"DIS_CODE":0,"TOWNNAME":"南區","LI":"松安里","LIN":"7鄰","STREET":"灣裡路","SECT":" ","MAREA":" ","LANE":"２８２巷","ALLEY":"３０弄","HOUSE_NO":"６號","E_COORD97":166010.54999999999,"N_COORD97":2536366.21,"ADDRESS":"灣裡路２８２巷３０弄６號","OBJECTID":42652},"geometry":{"x":166010.54999999981,"y":2536366.2100000028}},{"attributes":{"ID":42653,"DIS_CODE":0,"TOWNNAME":"南區","LI":"松安里","LIN":"7鄰","STREET":"灣裡路","SECT":" ","MAREA":" ","LANE":"２８２巷","ALLEY":"３０弄","HOUSE_NO":"６號之１","E_COORD97":166013.37,"N_COORD97":2536367.8700000001,"ADDRESS":"灣裡路２８２巷３０弄６號之１","OBJECTID":42653},"geometry":{"x":166013.37000000011,"y":2536367.8700000029}},{"attributes":{"ID":42654,"DIS_CODE":0,"TOWNNAME":"安南區","LI":"東和里","LIN":"7鄰","STREET":"長和路","SECT":"一段","MAREA":" ","LANE":" ","ALLEY":" ","HOUSE_NO":"８９號","E_COORD97":171817.431866,"N_COORD97":2550453.9837600002,"ADDRESS":"長和路一段８９號","OBJECTID":42654},"geometry":{"x":171817.43186600041,"y":2550453.9837590009}},{"attributes":{"ID":42655,"DIS_CODE":0,"TOWNNAME":"永康區","LI":"東橋里","LIN":"17鄰","STREET":"東橋三路","SECT":" ","MAREA":" ","LANE":" ","ALLEY":" ","HOUSE_NO":"４６８號","E_COORD97":171338.56,"N_COORD97":2547153.0099999998,"ADDRESS":"東橋三路４６８號","OBJECTID":42655},"geometry":{"x":171338.56000000052,"y":2547153.0099999979}},{"attributes":{"ID":42656,"DIS_CODE":0,"TOWNNAME":"南區","LI":"松安里","LIN":"7鄰","STREET":"灣裡路","SECT":" ","MAREA":" ","LANE":"２８２巷","ALLEY":"３０弄","HOUSE_NO":"８號","E_COORD97":166003.42000000001,"N_COORD97":2536367.54,"ADDRESS":"灣裡路２８２巷３０弄８號","OBJECTID":42656},"geometry":{"x":166003.42000000086,"y":2536367.5400000028}},{"attributes":{"ID":42657,"DIS_CODE":0,"TOWNNAME":"南區","LI":"松安里","LIN":"7鄰","STREET":"灣裡路","SECT":" ","MAREA":" ","LANE":"２８２巷","ALLEY":"３０弄","HOUSE_NO":"８號之１","E_COORD97":165996.79000000001,"N_COORD97":2536366.21,"ADDRESS":"灣裡路２８２巷３０弄８號之１","OBJECTID":42657},"geometry":{"x":165996.79000000004,"y":2536366.2100000028}},{"attributes":{"ID":42658,"DIS_CODE":0,"TOWNNAME":"南區","LI":"松安里","LIN":"7鄰","STREET":"灣裡路","SECT":" ","MAREA":" ","LANE":"２８２巷","ALLEY":"３０弄","HOUSE_NO":"９號","E_COORD97":165985.73999999999,"N_COORD97":2536355.8199999998,"ADDRESS":"灣裡路２８２巷３０弄９號","OBJECTID":42658},"geometry":{"x":165985.74000000022,"y":2536355.8200000003}},{"attributes":{"ID":42659,"DIS_CODE":0,"TOWNNAME":"南區","LI":"松安里","LIN":"7鄰","STREET":"灣裡路","SECT":" ","MAREA":" ","LANE":"２８２巷","ALLEY":"３６弄","HOUSE_NO":"１０號","E_COORD97":165977.69,"N_COORD97":2536342.5099999998,"ADDRESS":"灣裡路２８２巷３６弄１０號","OBJECTID":42659},"geometry":{"x":165977.69000000041,"y":2536342.5100000016}},{"attributes":{"ID":42660,"DIS_CODE":0,"TOWNNAME":"南區","LI":"松安里","LIN":"7鄰","STREET":"灣裡路","SECT":" ","MAREA":" ","LANE":"２８２巷","ALLEY":"３６弄","HOUSE_NO":"１８號","E_COORD97":165952.51000000001,"N_COORD97":2536340.02,"ADDRESS":"灣裡路２８２巷３６弄１８號","OBJECTID":42660},"geometry":{"x":165952.50999999978,"y":2536340.0199999996}},{"attributes":{"ID":42661,"DIS_CODE":0,"TOWNNAME":"麻豆區","LI":"安正里","LIN":"7鄰","STREET":" ","SECT":" ","MAREA":"社子","LANE":" ","ALLEY":" ","HOUSE_NO":"１０號之１６","E_COORD97":171867.10000000001,"N_COORD97":2562154.5499999998,"ADDRESS":"社子１０號之１６","OBJECTID":42661},"geometry":{"x":171867.10000000149,"y":2562154.5500000026}},{"attributes":{"ID":42662,"DIS_CODE":0,"TOWNNAME":"麻豆區","LI":"安正里","LIN":"7鄰","STREET":" ","SECT":" ","MAREA":"社子","LANE":" ","ALLEY":" ","HOUSE_NO":"１０號之１７","E_COORD97":171867.29000000001,"N_COORD97":2562159.6200000001,"ADDRESS":"社子１０號之１７","OBJECTID":42662},"geometry":{"x":171867.29000000004,"y":2562159.6200000048}},{"attributes":{"ID":42663,"DIS_CODE":0,"TOWNNAME":"麻豆區","LI":"安正里","LIN":"7鄰","STREET":" ","SECT":" ","MAREA":"社子","LANE":" ","ALLEY":" ","HOUSE_NO":"１０號之１８","E_COORD97":171868.07000000001,"N_COORD97":2562164.5699999998,"ADDRESS":"社子１０號之１８","OBJECTID":42663},"geometry":{"x":171868.07000000216,"y":2562164.5700000003}},{"attributes":{"ID":42664,"DIS_CODE":0,"TOWNNAME":"麻豆區","LI":"安正里","LIN":"7鄰","STREET":" ","SECT":" ","MAREA":"社子","LANE":" ","ALLEY":" ","HOUSE_NO":"１０號之１９","E_COORD97":171868.35999999999,"N_COORD97":2562169.6000000001,"ADDRESS":"社子１０號之１９","OBJECTID":42664},"geometry":{"x":171868.36000000127,"y":2562169.6000000015}},{"attributes":{"ID":42665,"DIS_CODE":0,"TOWNNAME":"麻豆區","LI":"安正里","LIN":"7鄰","STREET":" ","SECT":" ","MAREA":"社子","LANE":" ","ALLEY":" ","HOUSE_NO":"１０號之１","E_COORD97":171893.76000000001,"N_COORD97":2562193.3799999999,"ADDRESS":"社子１０號之１","OBJECTID":42665},"geometry":{"x":171893.76000000071,"y":2562193.3800000008}},{"attributes":{"ID":42666,"DIS_CODE":0,"TOWNNAME":"麻豆區","LI":"安正里","LIN":"7鄰","STREET":" ","SECT":" ","MAREA":"社子","LANE":" ","ALLEY":" ","HOUSE_NO":"１０號之２０","E_COORD97":171868.51999999999,"N_COORD97":2562174.4500000002,"ADDRESS":"社子１０號之２０","OBJECTID":42666},"geometry":{"x":171868.51999999955,"y":2562174.4499999993}},{"attributes":{"ID":42667,"DIS_CODE":0,"TOWNNAME":"麻豆區","LI":"安正里","LIN":"7鄰","STREET":" ","SECT":" ","MAREA":"社子","LANE":" ","ALLEY":" ","HOUSE_NO":"１０號之２１","E_COORD97":171866.82999999999,"N_COORD97":2562119.1800000002,"ADDRESS":"社子１０號之２１","OBJECTID":42667},"geometry":{"x":171866.83000000007,"y":2562119.1799999997}},{"attributes":{"ID":42668,"DIS_CODE":0,"TOWNNAME":"麻豆區","LI":"安正里","LIN":"7鄰","STREET":" ","SECT":" ","MAREA":"社子","LANE":" ","ALLEY":" ","HOUSE_NO":"１０號之２３","E_COORD97":171909.26000000001,"N_COORD97":2562211.7200000002,"ADDRESS":"社子１０號之２３","OBJECTID":42668},"geometry":{"x":171909.26000000071,"y":2562211.7200000007}},{"attributes":{"ID":42669,"DIS_CODE":0,"TOWNNAME":"麻豆區","LI":"安正里","LIN":"7鄰","STREET":" ","SECT":" ","MAREA":"社子","LANE":" ","ALLEY":" ","HOUSE_NO":"１０號之２４","E_COORD97":171891.39000000001,"N_COORD97":2562198.9900000002,"ADDRESS":"社子１０號之２４","OBJECTID":42669},"geometry":{"x":171891.3900000006,"y":2562198.9900000002}},{"attributes":{"ID":42670,"DIS_CODE":0,"TOWNNAME":"麻豆區","LI":"安正里","LIN":"7鄰","STREET":" ","SECT":" ","MAREA":"社子","LANE":" ","ALLEY":" ","HOUSE_NO":"１０號之２５","E_COORD97":171889.48999999999,"N_COORD97":2562203.9100000001,"ADDRESS":"社子１０號之２５","OBJECTID":42670},"geometry":{"x":171889.49000000115,"y":2562203.9100000001}},{"attributes":{"ID":42671,"DIS_CODE":0,"TOWNNAME":"麻豆區","LI":"安正里","LIN":"7鄰","STREET":" ","SECT":" ","MAREA":"社子","LANE":" ","ALLEY":" ","HOUSE_NO":"１０號之２","E_COORD97":171896.53,"N_COORD97":2562188.1299999999,"ADDRESS":"社子１０號之２","OBJECTID":42671},"geometry":{"x":171896.53000000026,"y":2562188.1300000027}},{"attributes":{"ID":42672,"DIS_CODE":0,"TOWNNAME":"麻豆區","LI":"安正里","LIN":"7鄰","STREET":" ","SECT":" ","MAREA":"社子","LANE":" ","ALLEY":" ","HOUSE_NO":"１０號之３","E_COORD97":171898.76999999999,"N_COORD97":2562182.73,"ADDRESS":"社子１０號之３","OBJECTID":42672},"geometry":{"x":171898.77000000048,"y":2562182.7300000023}},{"attributes":{"ID":42673,"DIS_CODE":0,"TOWNNAME":"麻豆區","LI":"安正里","LIN":"7鄰","STREET":" ","SECT":" ","MAREA":"社子","LANE":" ","ALLEY":" ","HOUSE_NO":"１０號之４","E_COORD97":171900.76999999999,"N_COORD97":2562176.1600000001,"ADDRESS":"社子１０號之４","OBJECTID":42673},"geometry":{"x":171900.76999999955,"y":2562176.160000002}},{"attributes":{"ID":42674,"DIS_CODE":0,"TOWNNAME":"麻豆區","LI":"安正里","LIN":"7鄰","STREET":" ","SECT":" ","MAREA":"社子","LANE":" ","ALLEY":" ","HOUSE_NO":"１０號之５","E_COORD97":171902.20999999999,"N_COORD97":2562170.8700000001,"ADDRESS":"社子１０號之５","OBJECTID":42674},"geometry":{"x":171902.21000000183,"y":2562170.870000001}},{"attributes":{"ID":42675,"DIS_CODE":0,"TOWNNAME":"麻豆區","LI":"安正里","LIN":"7鄰","STREET":" ","SECT":" ","MAREA":"社子","LANE":" ","ALLEY":" ","HOUSE_NO":"１０號之６","E_COORD97":171903.53,"N_COORD97":2562165.48,"ADDRESS":"社子１０號之６","OBJECTID":42675},"geometry":{"x":171903.53000000026,"y":2562165.4800000004}},{"attributes":{"ID":42676,"DIS_CODE":0,"TOWNNAME":"麻豆區","LI":"安正里","LIN":"7鄰","STREET":" ","SECT":" ","MAREA":"社子","LANE":" ","ALLEY":" ","HOUSE_NO":"１０號之７","E_COORD97":171904.32000000001,"N_COORD97":2562161.4100000001,"ADDRESS":"社子１０號之７","OBJECTID":42676},"geometry":{"x":171904.32000000123,"y":2562161.410000002}},{"attributes":{"ID":42677,"DIS_CODE":0,"TOWNNAME":"麻豆區","LI":"安正里","LIN":"7鄰","STREET":" ","SECT":" ","MAREA":"社子","LANE":" ","ALLEY":" ","HOUSE_NO":"１０號之８","E_COORD97":171905.38,"N_COORD97":2562156.4700000002,"ADDRESS":"社子１０號之８","OBJECTID":42677},"geometry":{"x":171905.37999999989,"y":2562156.4700000007}},{"attributes":{"ID":42678,"DIS_CODE":0,"TOWNNAME":"麻豆區","LI":"安正里","LIN":"7鄰","STREET":" ","SECT":" ","MAREA":"社子","LANE":" ","ALLEY":" ","HOUSE_NO":"１０號之９","E_COORD97":171906.67999999999,"N_COORD97":2562151.48,"ADDRESS":"社子１０號之９","OBJECTID":42678},"geometry":{"x":171906.6799999997,"y":2562151.4800000023}},{"attributes":{"ID":42679,"DIS_CODE":0,"TOWNNAME":"麻豆區","LI":"安正里","LIN":"7鄰","STREET":" ","SECT":" ","MAREA":"社子","LANE":" ","ALLEY":" ","HOUSE_NO":"１０號","E_COORD97":171911.79000000001,"N_COORD97":2562204.6099999999,"ADDRESS":"社子１０號","OBJECTID":42679},"geometry":{"x":171911.79000000004,"y":2562204.6099999994}},{"attributes":{"ID":42680,"DIS_CODE":0,"TOWNNAME":"麻豆區","LI":"安正里","LIN":"7鄰","STREET":" ","SECT":" ","MAREA":"社子","LANE":" ","ALLEY":" ","HOUSE_NO":"４號","E_COORD97":172009.53,"N_COORD97":2562251.3799999999,"ADDRESS":"社子４號","OBJECTID":42680},"geometry":{"x":172009.53000000119,"y":2562251.3800000008}},{"attributes":{"ID":42681,"DIS_CODE":0,"TOWNNAME":"麻豆區","LI":"安正里","LIN":"7鄰","STREET":" ","SECT":" ","MAREA":"社子","LANE":" ","ALLEY":" ","HOUSE_NO":"５號","E_COORD97":171993.31,"N_COORD97":2562218.0600000001,"ADDRESS":"社子５號","OBJECTID":42681},"geometry":{"x":171993.31000000052,"y":2562218.0600000024}},{"attributes":{"ID":42682,"DIS_CODE":0,"TOWNNAME":"麻豆區","LI":"安正里","LIN":"7鄰","STREET":" ","SECT":" ","MAREA":"社子","LANE":" ","ALLEY":" ","HOUSE_NO":"６號","E_COORD97":171972.53,"N_COORD97":2562221.3900000001,"ADDRESS":"社子６號","OBJECTID":42682},"geometry":{"x":171972.53000000026,"y":2562221.3900000006}},{"attributes":{"ID":42683,"DIS_CODE":0,"TOWNNAME":"麻豆區","LI":"安正里","LIN":"7鄰","STREET":" ","SECT":" ","MAREA":"社子","LANE":" ","ALLEY":" ","HOUSE_NO":"７號之１","E_COORD97":171954.92999999999,"N_COORD97":2562196.8599999999,"ADDRESS":"社子７號之１","OBJECTID":42683},"geometry":{"x":171954.93000000063,"y":2562196.8600000031}},{"attributes":{"ID":42684,"DIS_CODE":0,"TOWNNAME":"麻豆區","LI":"安正里","LIN":"7鄰","STREET":" ","SECT":" ","MAREA":"社子","LANE":" ","ALLEY":" ","HOUSE_NO":"７號之３","E_COORD97":171944.89999999999,"N_COORD97":2562194.4100000001,"ADDRESS":"社子７號之３","OBJECTID":42684},"geometry":{"x":171944.90000000037,"y":2562194.410000002}},{"attributes":{"ID":42685,"DIS_CODE":0,"TOWNNAME":"麻豆區","LI":"安正里","LIN":"7鄰","STREET":" ","SECT":" ","MAREA":"社子","LANE":" ","ALLEY":" ","HOUSE_NO":"７號","E_COORD97":171945.95000000001,"N_COORD97":2562221.7799999998,"ADDRESS":"社子７號","OBJECTID":42685},"geometry":{"x":171945.95000000019,"y":2562221.7800000012}},{"attributes":{"ID":42686,"DIS_CODE":0,"TOWNNAME":"仁德區","LI":"中生里","LIN":"7鄰","STREET":" ","SECT":" ","MAREA":"中洲","LANE":" ","ALLEY":" ","HOUSE_NO":"１４０號之４","E_COORD97":173021.85000000001,"N_COORD97":2534051.04,"ADDRESS":"中洲１４０號之４","OBJECTID":42686},"geometry":{"x":173021.85000000056,"y":2534051.0399999991}},{"attributes":{"ID":42687,"DIS_CODE":0,"TOWNNAME":"仁德區","LI":"中洲里","LIN":"7鄰","STREET":" ","SECT":" ","MAREA":"中洲","LANE":" ","ALLEY":" ","HOUSE_NO":"２７５號之１２","E_COORD97":173136.42999999999,"N_COORD97":2534212.7999999998,"ADDRESS":"中洲２７５號之１２","OBJECTID":42687},"geometry":{"x":173136.43000000063,"y":2534212.8000000026}},{"attributes":{"ID":42688,"DIS_CODE":0,"TOWNNAME":"仁德區","LI":"中洲里","LIN":"7鄰","STREET":" ","SECT":" ","MAREA":"中洲","LANE":" ","ALLEY":" ","HOUSE_NO":"２７３號","E_COORD97":173175.82000000001,"N_COORD97":2534175.7400000002,"ADDRESS":"中洲２７３號","OBJECTID":42688},"geometry":{"x":173175.8200000003,"y":2534175.7400000002}},{"attributes":{"ID":42689,"DIS_CODE":0,"TOWNNAME":"善化區","LI":"嘉北里","LIN":"7鄰","STREET":" ","SECT":" ","MAREA":"茄拔","LANE":" ","ALLEY":" ","HOUSE_NO":"１７２號","E_COORD97":181104.84,"N_COORD97":2559913.0099999998,"ADDRESS":"茄拔１７２號","OBJECTID":42689},"geometry":{"x":181104.84000000078,"y":2559913.0099999998}},{"attributes":{"ID":42690,"DIS_CODE":0,"TOWNNAME":"安南區","LI":"東和里","LIN":"7鄰","STREET":"長和路","SECT":"一段","MAREA":" ","LANE":" ","ALLEY":" ","HOUSE_NO":"８７號","E_COORD97":171808.961175,"N_COORD97":2550439.1671000002,"ADDRESS":"長和路一段８７號","OBJECTID":42690},"geometry":{"x":171808.9611750003,"y":2550439.1671010014}},{"attributes":{"ID":42691,"DIS_CODE":0,"TOWNNAME":"善化區","LI":"東隆里","LIN":"7鄰","STREET":" ","SECT":" ","MAREA":"東勢寮","LANE":" ","ALLEY":" ","HOUSE_NO":"１８９號之１０","E_COORD97":179882.20999999999,"N_COORD97":2561967.52,"ADDRESS":"東勢寮１８９號之１０","OBJECTID":42691},"geometry":{"x":179882.21000000089,"y":2561967.5199999996}},{"attributes":{"ID":42692,"DIS_CODE":0,"TOWNNAME":"南區","LI":"松安里","LIN":"7鄰","STREET":"灣裡路","SECT":" ","MAREA":" ","LANE":"２８２巷","ALLEY":"３６弄","HOUSE_NO":"１８號之１","E_COORD97":165945.48999999999,"N_COORD97":2536339,"ADDRESS":"灣裡路２８２巷３６弄１８號之１","OBJECTID":42692},"geometry":{"x":165945.49000000209,"y":2536339.0000000019}},{"attributes":{"ID":42693,"DIS_CODE":0,"TOWNNAME":"南區","LI":"松安里","LIN":"7鄰","STREET":"灣裡路","SECT":" ","MAREA":" ","LANE":"２８２巷","ALLEY":"３６弄","HOUSE_NO":"２２號","E_COORD97":165922.42000000001,"N_COORD97":2536336.0499999998,"ADDRESS":"灣裡路２８２巷３６弄２２號","OBJECTID":42693},"geometry":{"x":165922.42000000086,"y":2536336.0500000026}},{"attributes":{"ID":42694,"DIS_CODE":0,"TOWNNAME":"南區","LI":"松安里","LIN":"7鄰","STREET":"灣裡路","SECT":" ","MAREA":" ","LANE":"２８２巷","ALLEY":"３６弄","HOUSE_NO":"８號","E_COORD97":165993.94,"N_COORD97":2536344.7000000002,"ADDRESS":"灣裡路２８２巷３６弄８號","OBJECTID":42694},"geometry":{"x":165993.94000000134,"y":2536344.6999999993}},{"attributes":{"ID":42695,"DIS_CODE":0,"TOWNNAME":"新營區","LI":"忠政里","LIN":"26鄰","STREET":"府西路","SECT":" ","MAREA":" ","LANE":"１３７巷","ALLEY":"２６弄","HOUSE_NO":"２１號","E_COORD97":179711.23999999999,"N_COORD97":2579388.0600000001,"ADDRESS":"府西路１３７巷２６弄２１號","OBJECTID":42695},"geometry":{"x":179711.24000000022,"y":2579388.0600000005}},{"attributes":{"ID":42696,"DIS_CODE":0,"TOWNNAME":"新營區","LI":"忠政里","LIN":"14鄰","STREET":"中正路","SECT":" ","MAREA":" ","LANE":"５９巷","ALLEY":"１９弄","HOUSE_NO":"３號","E_COORD97":179970.67000000001,"N_COORD97":2579571.77,"ADDRESS":"中正路５９巷１９弄３號","OBJECTID":42696},"geometry":{"x":179970.67000000086,"y":2579571.7699999996}},{"attributes":{"ID":42697,"DIS_CODE":0,"TOWNNAME":"鹽水區","LI":"橋南里","LIN":"7鄰","STREET":"南門路","SECT":" ","MAREA":" ","LANE":"２０１巷","ALLEY":"３３弄","HOUSE_NO":"２５號","E_COORD97":175458.82999999999,"N_COORD97":2579056.3599999999,"ADDRESS":"南門路２０１巷３３弄２５號","OBJECTID":42697},"geometry":{"x":175458.83000000101,"y":2579056.3599999994}},{"attributes":{"ID":42698,"DIS_CODE":0,"TOWNNAME":"鹽水區","LI":"橋南里","LIN":"7鄰","STREET":"南門路","SECT":" ","MAREA":" ","LANE":"２０１巷","ALLEY":"３３弄","HOUSE_NO":"３８號","E_COORD97":175512.42000000001,"N_COORD97":2579037.3999999999,"ADDRESS":"南門路２０１巷３３弄３８號","OBJECTID":42698},"geometry":{"x":175512.41999999993,"y":2579037.4000000004}},{"attributes":{"ID":42699,"DIS_CODE":0,"TOWNNAME":"鹽水區","LI":"橋南里","LIN":"7鄰","STREET":"南門路","SECT":" ","MAREA":" ","LANE":"２０１巷","ALLEY":"３３弄","HOUSE_NO":"４２號","E_COORD97":175522.22,"N_COORD97":2579037.25,"ADDRESS":"南門路２０１巷３３弄４２號","OBJECTID":42699},"geometry":{"x":175522.21999999974,"y":2579037.25}},{"attributes":{"ID":42700,"DIS_CODE":0,"TOWNNAME":"北區","LI":"大豐里","LIN":"7鄰","STREET":"文賢路","SECT":" ","MAREA":" ","LANE":"３１３巷","ALLEY":"１１弄","HOUSE_NO":"２號","E_COORD97":167259.92999999999,"N_COORD97":2545219.21,"ADDRESS":"文賢路３１３巷１１弄２號","OBJECTID":42700},"geometry":{"x":167259.9299999997,"y":2545219.2100000009}},{"attributes":{"ID":42701,"DIS_CODE":0,"TOWNNAME":"北區","LI":"大豐里","LIN":"7鄰","STREET":"文賢路","SECT":" ","MAREA":" ","LANE":"３１３巷","ALLEY":"１１弄","HOUSE_NO":"１２號","E_COORD97":167258,"N_COORD97":2545196.3999999999,"ADDRESS":"文賢路３１３巷１１弄１２號","OBJECTID":42701},"geometry":{"x":167258.00000000093,"y":2545196.4000000022}},{"attributes":{"ID":42702,"DIS_CODE":0,"TOWNNAME":"北區","LI":"大豐里","LIN":"7鄰","STREET":"文賢路","SECT":" ","MAREA":" ","LANE":"３１３巷","ALLEY":"１１弄","HOUSE_NO":"１４號","E_COORD97":167257.73999999999,"N_COORD97":2545191.8300000001,"ADDRESS":"文賢路３１３巷１１弄１４號","OBJECTID":42702},"geometry":{"x":167257.74000000115,"y":2545191.8300000038}},{"attributes":{"ID":42703,"DIS_CODE":0,"TOWNNAME":"北區","LI":"大豐里","LIN":"7鄰","STREET":"文賢路","SECT":" ","MAREA":" ","LANE":"３１３巷","ALLEY":"１１弄","HOUSE_NO":"１６號","E_COORD97":167257.87,"N_COORD97":2545179.3199999998,"ADDRESS":"文賢路３１３巷１１弄１６號","OBJECTID":42703},"geometry":{"x":167257.87000000011,"y":2545179.3200000022}},{"attributes":{"ID":42704,"DIS_CODE":0,"TOWNNAME":"北區","LI":"大豐里","LIN":"7鄰","STREET":"文賢路","SECT":" ","MAREA":" ","LANE":"３１３巷","ALLEY":"３３弄","HOUSE_NO":"１號","E_COORD97":167224.45000000001,"N_COORD97":2545218.3399999999,"ADDRESS":"文賢路３１３巷３３弄１號","OBJECTID":42704},"geometry":{"x":167224.45000000112,"y":2545218.339999998}},{"attributes":{"ID":42705,"DIS_CODE":0,"TOWNNAME":"北區","LI":"大豐里","LIN":"7鄰","STREET":"文賢路","SECT":" ","MAREA":" ","LANE":"３１３巷","ALLEY":"３３弄","HOUSE_NO":"２號","E_COORD97":167205.29999999999,"N_COORD97":2545223.6499999999,"ADDRESS":"文賢路３１３巷３３弄２號","OBJECTID":42705},"geometry":{"x":167205.29999999981,"y":2545223.6499999985}},{"attributes":{"ID":42706,"DIS_CODE":0,"TOWNNAME":"北區","LI":"大豐里","LIN":"7鄰","STREET":"文賢路","SECT":" ","MAREA":" ","LANE":"３１３巷","ALLEY":"３３弄","HOUSE_NO":"６號","E_COORD97":167204.59,"N_COORD97":2545215.2200000002,"ADDRESS":"文賢路３１３巷３３弄６號","OBJECTID":42706},"geometry":{"x":167204.59000000078,"y":2545215.2200000007}},{"attributes":{"ID":42707,"DIS_CODE":0,"TOWNNAME":"北區","LI":"大豐里","LIN":"7鄰","STREET":"文賢路","SECT":" ","MAREA":" ","LANE":"３１３巷","ALLEY":"３３弄","HOUSE_NO":"８號","E_COORD97":167204.28,"N_COORD97":2545209.9100000001,"ADDRESS":"文賢路３１３巷３３弄８號","OBJECTID":42707},"geometry":{"x":167204.28000000026,"y":2545209.910000002}},{"attributes":{"ID":42708,"DIS_CODE":0,"TOWNNAME":"善化區","LI":"南關里","LIN":"7鄰","STREET":" ","SECT":" ","MAREA":"三抱竹","LANE":" ","ALLEY":" ","HOUSE_NO":"９之７號","E_COORD97":174854.42000000001,"N_COORD97":2557235.77,"ADDRESS":"三抱竹９之７號","OBJECTID":42708},"geometry":{"x":174854.42000000086,"y":2557235.7700000014}},{"attributes":{"ID":42709,"DIS_CODE":0,"TOWNNAME":"北區","LI":"大豐里","LIN":"7鄰","STREET":"文賢路","SECT":" ","MAREA":" ","LANE":"３１３巷","ALLEY":"３３弄","HOUSE_NO":"１３號","E_COORD97":167222.42000000001,"N_COORD97":2545191.6800000002,"ADDRESS":"文賢路３１３巷３３弄１３號","OBJECTID":42709},"geometry":{"x":167222.42000000086,"y":2545191.6799999997}},{"attributes":{"ID":42710,"DIS_CODE":0,"TOWNNAME":"北區","LI":"文元里","LIN":"7鄰","STREET":"文賢路","SECT":" ","MAREA":" ","LANE":"１１２２巷","ALLEY":"９２弄","HOUSE_NO":"４號","E_COORD97":167566.54999999999,"N_COORD97":2546365.9700000002,"ADDRESS":"文賢路１１２２巷９２弄４號","OBJECTID":42710},"geometry":{"x":167566.54999999981,"y":2546365.9700000025}},{"attributes":{"ID":42711,"DIS_CODE":0,"TOWNNAME":"善化區","LI":"東隆里","LIN":"7鄰","STREET":" ","SECT":" ","MAREA":"東勢寮","LANE":" ","ALLEY":" ","HOUSE_NO":"１９１號","E_COORD97":179835.41,"N_COORD97":2561849.5099999998,"ADDRESS":"東勢寮１９１號","OBJECTID":42711},"geometry":{"x":179835.41000000108,"y":2561849.5099999998}},{"attributes":{"ID":42712,"DIS_CODE":0,"TOWNNAME":"善化區","LI":"東昌里","LIN":"7鄰","STREET":" ","SECT":" ","MAREA":"東勢寮","LANE":" ","ALLEY":" ","HOUSE_NO":"７２號","E_COORD97":180412.45999999999,"N_COORD97":2561840.0099999998,"ADDRESS":"東勢寮７２號","OBJECTID":42712},"geometry":{"x":180412.46000000089,"y":2561840.0099999998}},{"attributes":{"ID":42713,"DIS_CODE":0,"TOWNNAME":"北區","LI":"文元里","LIN":"7鄰","STREET":"文賢路","SECT":" ","MAREA":" ","LANE":"１１２２巷","ALLEY":"９２弄","HOUSE_NO":"６號","E_COORD97":167566.85000000001,"N_COORD97":2546362.1000000001,"ADDRESS":"文賢路１１２２巷９２弄６號","OBJECTID":42713},"geometry":{"x":167566.85000000056,"y":2546362.0999999996}},{"attributes":{"ID":42714,"DIS_CODE":0,"TOWNNAME":"北區","LI":"文元里","LIN":"7鄰","STREET":"文賢路","SECT":" ","MAREA":" ","LANE":"１１２２巷","ALLEY":"９２弄","HOUSE_NO":"８號","E_COORD97":167567.14000000001,"N_COORD97":2546357.6400000001,"ADDRESS":"文賢路１１２２巷９２弄８號","OBJECTID":42714},"geometry":{"x":167567.13999999966,"y":2546357.6400000025}},{"attributes":{"ID":42715,"DIS_CODE":0,"TOWNNAME":"北區","LI":"文元里","LIN":"7鄰","STREET":"文賢路","SECT":" ","MAREA":" ","LANE":"１１２２巷","ALLEY":"９２弄","HOUSE_NO":"１０號","E_COORD97":167568.32999999999,"N_COORD97":2546352.8799999999,"ADDRESS":"文賢路１１２２巷９２弄１０號","OBJECTID":42715},"geometry":{"x":167568.33000000007,"y":2546352.8799999971}},{"attributes":{"ID":42716,"DIS_CODE":0,"TOWNNAME":"北區","LI":"文元里","LIN":"7鄰","STREET":"文賢路","SECT":" ","MAREA":" ","LANE":"１１２２巷","ALLEY":"９２弄","HOUSE_NO":"１２號","E_COORD97":167568.04000000001,"N_COORD97":2546348.4199999999,"ADDRESS":"文賢路１１２２巷９２弄１２號","OBJECTID":42716},"geometry":{"x":167568.04000000097,"y":2546348.4200000018}},{"attributes":{"ID":42717,"DIS_CODE":0,"TOWNNAME":"北區","LI":"文元里","LIN":"7鄰","STREET":"文賢路","SECT":" ","MAREA":" ","LANE":"１１２２巷","ALLEY":"９２弄","HOUSE_NO":"１４號","E_COORD97":167568.63,"N_COORD97":2546343.96,"ADDRESS":"文賢路１１２２巷９２弄１４號","OBJECTID":42717},"geometry":{"x":167568.63000000082,"y":2546343.9600000009}},{"attributes":{"ID":42718,"DIS_CODE":0,"TOWNNAME":"北區","LI":"文元里","LIN":"7鄰","STREET":"文賢路","SECT":" ","MAREA":" ","LANE":"１１２２巷","ALLEY":"９２弄","HOUSE_NO":"１８號","E_COORD97":167568.63,"N_COORD97":2546335.3300000001,"ADDRESS":"文賢路１１２２巷９２弄１８號","OBJECTID":42718},"geometry":{"x":167568.63000000082,"y":2546335.3300000019}},{"attributes":{"ID":42719,"DIS_CODE":0,"TOWNNAME":"北區","LI":"文元里","LIN":"7鄰","STREET":"文賢路","SECT":" ","MAREA":" ","LANE":"１１２２巷","ALLEY":"９２弄","HOUSE_NO":"２２號","E_COORD97":167569.53,"N_COORD97":2546326.71,"ADDRESS":"文賢路１１２２巷９２弄２２號","OBJECTID":42719},"geometry":{"x":167569.53000000119,"y":2546326.7100000028}},{"attributes":{"ID":42720,"DIS_CODE":0,"TOWNNAME":"北區","LI":"文元里","LIN":"7鄰","STREET":"文賢路","SECT":" ","MAREA":" ","LANE":"１１２２巷","ALLEY":"９２弄","HOUSE_NO":"２４號","E_COORD97":167569.53,"N_COORD97":2546321.3500000001,"ADDRESS":"文賢路１１２２巷９２弄２４號","OBJECTID":42720},"geometry":{"x":167569.53000000119,"y":2546321.3500000015}},{"attributes":{"ID":42721,"DIS_CODE":0,"TOWNNAME":"永康區","LI":"東橋里","LIN":"17鄰","STREET":"東橋十街","SECT":" ","MAREA":" ","LANE":" ","ALLEY":" ","HOUSE_NO":"７號","E_COORD97":171420.79999999999,"N_COORD97":2547015.9399999999,"ADDRESS":"東橋十街７號","OBJECTID":42721},"geometry":{"x":171420.80000000075,"y":2547015.9400000013}},{"attributes":{"ID":42722,"DIS_CODE":0,"TOWNNAME":"北區","LI":"文元里","LIN":"7鄰","STREET":"文賢路","SECT":" ","MAREA":" ","LANE":"１１２２巷","ALLEY":"９２弄","HOUSE_NO":"２６號","E_COORD97":167569.82000000001,"N_COORD97":2546317.1899999999,"ADDRESS":"文賢路１１２２巷９２弄２６號","OBJECTID":42722},"geometry":{"x":167569.8200000003,"y":2546317.1899999995}},{"attributes":{"ID":42723,"DIS_CODE":0,"TOWNNAME":"北區","LI":"文元里","LIN":"7鄰","STREET":"文賢路","SECT":" ","MAREA":" ","LANE":"１１２２巷","ALLEY":"９２弄","HOUSE_NO":"２８號","E_COORD97":167570.72,"N_COORD97":2546312.1299999999,"ADDRESS":"文賢路１１２２巷９２弄２８號","OBJECTID":42723},"geometry":{"x":167570.7200000016,"y":2546312.1300000008}},{"attributes":{"ID":42724,"DIS_CODE":0,"TOWNNAME":"北區","LI":"文元里","LIN":"7鄰","STREET":"文賢路","SECT":" ","MAREA":" ","LANE":"１１２２巷","ALLEY":"９２弄","HOUSE_NO":"３０號","E_COORD97":167570.72,"N_COORD97":2546308.27,"ADDRESS":"文賢路１１２２巷９２弄３０號","OBJECTID":42724},"geometry":{"x":167570.7200000016,"y":2546308.2700000014}},{"attributes":{"ID":42725,"DIS_CODE":0,"TOWNNAME":"北區","LI":"文元里","LIN":"7鄰","STREET":"文賢路","SECT":" ","MAREA":" ","LANE":"１１２２巷","ALLEY":"９２弄","HOUSE_NO":"３２號","E_COORD97":167570.72,"N_COORD97":2546303.7999999998,"ADDRESS":"文賢路１１２２巷９２弄３２號","OBJECTID":42725},"geometry":{"x":167570.7200000016,"y":2546303.8000000007}},{"attributes":{"ID":42726,"DIS_CODE":0,"TOWNNAME":"北區","LI":"文元里","LIN":"7鄰","STREET":"文賢路","SECT":" ","MAREA":" ","LANE":"１１２２巷","ALLEY":"９２弄","HOUSE_NO":"３４號","E_COORD97":167571.31,"N_COORD97":2546299.3399999999,"ADDRESS":"文賢路１１２２巷９２弄３４號","OBJECTID":42726},"geometry":{"x":167571.30999999959,"y":2546299.3399999999}},{"attributes":{"ID":42727,"DIS_CODE":0,"TOWNNAME":"北區","LI":"裕民里","LIN":"7鄰","STREET":"成功路","SECT":" ","MAREA":" ","LANE":"５０４巷","ALLEY":"１７弄","HOUSE_NO":"２號","E_COORD97":167690.22,"N_COORD97":2544709.6099999999,"ADDRESS":"成功路５０４巷１７弄２號","OBJECTID":42727},"geometry":{"x":167690.22000000067,"y":2544709.6099999994}},{"attributes":{"ID":42728,"DIS_CODE":0,"TOWNNAME":"北區","LI":"裕民里","LIN":"7鄰","STREET":"成功路","SECT":" ","MAREA":" ","LANE":"５０４巷","ALLEY":"１７弄","HOUSE_NO":"４號","E_COORD97":167686.20999999999,"N_COORD97":2544710.3700000001,"ADDRESS":"成功路５０４巷１７弄４號","OBJECTID":42728},"geometry":{"x":167686.20999999903,"y":2544710.370000001}},{"attributes":{"ID":42729,"DIS_CODE":0,"TOWNNAME":"北區","LI":"裕民里","LIN":"7鄰","STREET":"成功路","SECT":" ","MAREA":" ","LANE":"５０４巷","ALLEY":"１７弄","HOUSE_NO":"６號","E_COORD97":167683.72,"N_COORD97":2544711.3300000001,"ADDRESS":"成功路５０４巷１７弄６號","OBJECTID":42729},"geometry":{"x":167683.71999999974,"y":2544711.3300000019}},{"attributes":{"ID":42730,"DIS_CODE":0,"TOWNNAME":"北區","LI":"裕民里","LIN":"7鄰","STREET":"成功路","SECT":" ","MAREA":" ","LANE":"５０４巷","ALLEY":"１７弄","HOUSE_NO":"８號","E_COORD97":167679.89000000001,"N_COORD97":2544713.04,"ADDRESS":"成功路５０４巷１７弄８號","OBJECTID":42730},"geometry":{"x":167679.8900000006,"y":2544713.0399999991}},{"attributes":{"ID":42731,"DIS_CODE":0,"TOWNNAME":"北區","LI":"裕民里","LIN":"7鄰","STREET":"成功路","SECT":" ","MAREA":" ","LANE":"５０４巷","ALLEY":"１７弄","HOUSE_NO":"１０號","E_COORD97":167676.45000000001,"N_COORD97":2544714,"ADDRESS":"成功路５０４巷１７弄１０號","OBJECTID":42731},"geometry":{"x":167676.45000000205,"y":2544714.0000000019}},{"attributes":{"ID":42732,"DIS_CODE":0,"TOWNNAME":"北區","LI":"裕民里","LIN":"7鄰","STREET":"成功路","SECT":" ","MAREA":" ","LANE":"５０４巷","ALLEY":"１７弄","HOUSE_NO":"１２號","E_COORD97":167672.62,"N_COORD97":2544714.7599999998,"ADDRESS":"成功路５０４巷１７弄１２號","OBJECTID":42732},"geometry":{"x":167672.62000000104,"y":2544714.7600000016}},{"attributes":{"ID":42733,"DIS_CODE":0,"TOWNNAME":"北區","LI":"裕民里","LIN":"7鄰","STREET":"成功路","SECT":" ","MAREA":" ","LANE":"５０４巷","ALLEY":"１７弄","HOUSE_NO":"１４號","E_COORD97":167669.37,"N_COORD97":2544715.9100000001,"ADDRESS":"成功路５０４巷１７弄１４號","OBJECTID":42733},"geometry":{"x":167669.37000000011,"y":2544715.9100000001}},{"attributes":{"ID":42734,"DIS_CODE":0,"TOWNNAME":"北區","LI":"裕民里","LIN":"7鄰","STREET":"成功路","SECT":" ","MAREA":" ","LANE":"５０４巷","ALLEY":"１７弄","HOUSE_NO":"１６號","E_COORD97":167666.31,"N_COORD97":2544717.6299999999,"ADDRESS":"成功路５０４巷１７弄１６號","OBJECTID":42734},"geometry":{"x":167666.30999999959,"y":2544717.6300000008}},{"attributes":{"ID":42735,"DIS_CODE":0,"TOWNNAME":"北區","LI":"裕民里","LIN":"7鄰","STREET":"成功路","SECT":" ","MAREA":" ","LANE":"５０４巷","ALLEY":"１７弄","HOUSE_NO":"１８號","E_COORD97":167662.48000000001,"N_COORD97":2544718.3900000001,"ADDRESS":"成功路５０４巷１７弄１８號","OBJECTID":42735},"geometry":{"x":167662.48000000045,"y":2544718.3900000025}},{"attributes":{"ID":42736,"DIS_CODE":0,"TOWNNAME":"北區","LI":"裕民里","LIN":"7鄰","STREET":"成功路","SECT":" ","MAREA":" ","LANE":"５０４巷","ALLEY":"１７弄","HOUSE_NO":"２０號","E_COORD97":167653.67999999999,"N_COORD97":2544720.3500000001,"ADDRESS":"成功路５０４巷１７弄２０號","OBJECTID":42736},"geometry":{"x":167653.6799999997,"y":2544720.3500000015}},{"attributes":{"ID":42737,"DIS_CODE":0,"TOWNNAME":"安南區","LI":"原佃里","LIN":"7鄰","STREET":"本原街","SECT":"一段","MAREA":" ","LANE":"１９５巷","ALLEY":"８５弄","HOUSE_NO":"４２號","E_COORD97":167470.74508699999,"N_COORD97":2550079.2453399999,"ADDRESS":"本原街一段１９５巷８５弄４２號","OBJECTID":42737},"geometry":{"x":167470.74508699961,"y":2550079.2453429997}},{"attributes":{"ID":42738,"DIS_CODE":0,"TOWNNAME":"新營區","LI":"新北里","LIN":"7鄰","STREET":"三興街","SECT":" ","MAREA":" ","LANE":"２７５巷","ALLEY":"４６弄","HOUSE_NO":"２號","E_COORD97":179229.64999999999,"N_COORD97":2579680.5099999998,"ADDRESS":"三興街２７５巷４６弄２號","OBJECTID":42738},"geometry":{"x":179229.65000000224,"y":2579680.5100000035}},{"attributes":{"ID":42739,"DIS_CODE":0,"TOWNNAME":"新營區","LI":"新北里","LIN":"7鄰","STREET":"三興街","SECT":" ","MAREA":" ","LANE":"２７５巷","ALLEY":"４６弄","HOUSE_NO":"１０號","E_COORD97":179228.85999999999,"N_COORD97":2579696.02,"ADDRESS":"三興街２７５巷４６弄１０號","OBJECTID":42739},"geometry":{"x":179228.86000000127,"y":2579696.0199999996}},{"attributes":{"ID":42740,"DIS_CODE":0,"TOWNNAME":"新營區","LI":"南紙里","LIN":"13鄰","STREET":"太子路","SECT":" ","MAREA":" ","LANE":"２３８巷","ALLEY":"４２弄","HOUSE_NO":"５號","E_COORD97":177794.51999999999,"N_COORD97":2577978.6200000001,"ADDRESS":"太子路２３８巷４２弄５號","OBJECTID":42740},"geometry":{"x":177794.52000000048,"y":2577978.620000001}},{"attributes":{"ID":42741,"DIS_CODE":0,"TOWNNAME":"善化區","LI":"東隆里","LIN":"7鄰","STREET":" ","SECT":" ","MAREA":"東勢寮","LANE":" ","ALLEY":" ","HOUSE_NO":"１８９號之５","E_COORD97":179911.89000000001,"N_COORD97":2561965.52,"ADDRESS":"東勢寮１８９號之５","OBJECTID":42741},"geometry":{"x":179911.88999999966,"y":2561965.5200000033}},{"attributes":{"ID":42742,"DIS_CODE":0,"TOWNNAME":"新營區","LI":"新南里","LIN":"26鄰","STREET":"復興路","SECT":" ","MAREA":" ","LANE":"６２０巷","ALLEY":"６１弄","HOUSE_NO":"３１號","E_COORD97":177930.44,"N_COORD97":2578521.7400000002,"ADDRESS":"復興路６２０巷６１弄３１號","OBJECTID":42742},"geometry":{"x":177930.44000000041,"y":2578521.7400000002}},{"attributes":{"ID":42743,"DIS_CODE":0,"TOWNNAME":"新營區","LI":"南紙里","LIN":"13鄰","STREET":"太子路","SECT":" ","MAREA":" ","LANE":"２３８巷","ALLEY":"４２弄","HOUSE_NO":"４號","E_COORD97":177788.44,"N_COORD97":2577977.5499999998,"ADDRESS":"太子路２３８巷４２弄４號","OBJECTID":42743},"geometry":{"x":177788.43999999948,"y":2577977.5500000026}},{"attributes":{"ID":42744,"DIS_CODE":0,"TOWNNAME":"善化區","LI":"東隆里","LIN":"7鄰","STREET":" ","SECT":" ","MAREA":"東勢寮","LANE":" ","ALLEY":" ","HOUSE_NO":"１９２號之１","E_COORD97":179812.51999999999,"N_COORD97":2561838.77,"ADDRESS":"東勢寮１９２號之１","OBJECTID":42744},"geometry":{"x":179812.51999999955,"y":2561838.7700000014}},{"attributes":{"ID":42745,"DIS_CODE":0,"TOWNNAME":"新營區","LI":"民榮里","LIN":"32鄰","STREET":"太子路","SECT":" ","MAREA":" ","LANE":"５３巷","ALLEY":"１弄","HOUSE_NO":"２８號","E_COORD97":178259.37,"N_COORD97":2578015.1400000001,"ADDRESS":"太子路５３巷１弄２８號","OBJECTID":42745},"geometry":{"x":178259.37000000011,"y":2578015.1400000006}},{"attributes":{"ID":42746,"DIS_CODE":0,"TOWNNAME":"善化區","LI":"南關里","LIN":"7鄰","STREET":" ","SECT":" ","MAREA":"三抱竹","LANE":" ","ALLEY":" ","HOUSE_NO":"１之３２號","E_COORD97":176434.06,"N_COORD97":2558253.02,"ADDRESS":"三抱竹１之３２號","OBJECTID":42746},"geometry":{"x":176434.05999999866,"y":2558253.0200000033}},{"attributes":{"ID":42747,"DIS_CODE":0,"TOWNNAME":"善化區","LI":"東隆里","LIN":"7鄰","STREET":" ","SECT":" ","MAREA":"東勢寮","LANE":" ","ALLEY":" ","HOUSE_NO":"１８９號之２０","E_COORD97":179449.44,"N_COORD97":2562947.77,"ADDRESS":"東勢寮１８９號之２０","OBJECTID":42747},"geometry":{"x":179449.44000000041,"y":2562947.7700000014}},{"attributes":{"ID":42748,"DIS_CODE":0,"TOWNNAME":"鹽水區","LI":"孫厝里","LIN":"17鄰","STREET":" ","SECT":" ","MAREA":"羊稠厝","LANE":" ","ALLEY":" ","HOUSE_NO":"４４號","E_COORD97":169478.32999999999,"N_COORD97":2575752.8599999999,"ADDRESS":"羊稠厝４４號","OBJECTID":42748},"geometry":{"x":169478.33000000007,"y":2575752.8600000013}},{"attributes":{"ID":42749,"DIS_CODE":0,"TOWNNAME":"善化區","LI":"東昌里","LIN":"7鄰","STREET":" ","SECT":" ","MAREA":"東勢寮","LANE":" ","ALLEY":" ","HOUSE_NO":"７３號之３","E_COORD97":180423.38,"N_COORD97":2561869.02,"ADDRESS":"東勢寮７３號之３","OBJECTID":42749},"geometry":{"x":180423.38000000082,"y":2561869.0199999996}},{"attributes":{"ID":42750,"DIS_CODE":0,"TOWNNAME":"善化區","LI":"東隆里","LIN":"7鄰","STREET":" ","SECT":" ","MAREA":"東勢寮","LANE":" ","ALLEY":" ","HOUSE_NO":"１９２號之２","E_COORD97":179799.54999999999,"N_COORD97":2561897.02,"ADDRESS":"東勢寮１９２號之２","OBJECTID":42750},"geometry":{"x":179799.55000000075,"y":2561897.0199999996}},{"attributes":{"ID":42751,"DIS_CODE":0,"TOWNNAME":"北區","LI":"賢北里","LIN":"7鄰","STREET":"和緯路","SECT":"五段","MAREA":" ","LANE":"２３４巷","ALLEY":"４弄","HOUSE_NO":"３８之１號","E_COORD97":166141.14999999999,"N_COORD97":2545125.9100000001,"ADDRESS":"和緯路五段２３４巷４弄３８之１號","OBJECTID":42751},"geometry":{"x":166141.15000000224,"y":2545125.9100000001}},{"attributes":{"ID":42752,"DIS_CODE":0,"TOWNNAME":"新營區","LI":"忠政里","LIN":"20鄰","STREET":"府西路","SECT":" ","MAREA":" ","LANE":"２５７巷","ALLEY":"１１弄","HOUSE_NO":"８號","E_COORD97":179739.81,"N_COORD97":2579637.0899999999,"ADDRESS":"府西路２５７巷１１弄８號","OBJECTID":42752},"geometry":{"x":179739.81000000145,"y":2579637.0900000017}},{"attributes":{"ID":42753,"DIS_CODE":0,"TOWNNAME":"關廟區","LI":"龜洞里","LIN":"7鄰","STREET":"南雄南路","SECT":" ","MAREA":" ","LANE":"７０１巷","ALLEY":"１６弄","HOUSE_NO":"２５號","E_COORD97":183345.64000000001,"N_COORD97":2533365.2999999998,"ADDRESS":"南雄南路７０１１６２５號","OBJECTID":42753},"geometry":{"x":183345.6400000006,"y":2533365.3000000026}},{"attributes":{"ID":42754,"DIS_CODE":0,"TOWNNAME":"關廟區","LI":"龜洞里","LIN":"7鄰","STREET":"南雄南路","SECT":" ","MAREA":" ","LANE":"７０１巷","ALLEY":"１６弄","HOUSE_NO":"１９號","E_COORD97":183342.14000000001,"N_COORD97":2533377.2999999998,"ADDRESS":"南雄南路７０１１６１９號","OBJECTID":42754},"geometry":{"x":183342.1400000006,"y":2533377.3000000045}},{"attributes":{"ID":42755,"DIS_CODE":0,"TOWNNAME":"關廟區","LI":"龜洞里","LIN":"7鄰","STREET":"南雄南路","SECT":" ","MAREA":" ","LANE":"７０１巷","ALLEY":"１６弄","HOUSE_NO":"２１號","E_COORD97":183343.34,"N_COORD97":2533373.2999999998,"ADDRESS":"南雄南路７０１１６２１號","OBJECTID":42755},"geometry":{"x":183343.33999999985,"y":2533373.3000000007}},{"attributes":{"ID":42756,"DIS_CODE":0,"TOWNNAME":"關廟區","LI":"龜洞里","LIN":"7鄰","STREET":"南雄南路","SECT":" ","MAREA":" ","LANE":"７０１巷","ALLEY":"１６弄","HOUSE_NO":"２３號","E_COORD97":183344.44,"N_COORD97":2533369.2999999998,"ADDRESS":"南雄南路７０１１６２３號","OBJECTID":42756},"geometry":{"x":183344.44000000134,"y":2533369.3000000007}},{"attributes":{"ID":42757,"DIS_CODE":0,"TOWNNAME":"新營區","LI":"民榮里","LIN":"38鄰","STREET":"太子路","SECT":" ","MAREA":" ","LANE":"５３巷","ALLEY":"６弄","HOUSE_NO":"６號","E_COORD97":178321.35999999999,"N_COORD97":2577989.3500000001,"ADDRESS":"太子路５３巷６弄６號","OBJECTID":42757},"geometry":{"x":178321.3600000022,"y":2577989.3499999996}},{"attributes":{"ID":42758,"DIS_CODE":0,"TOWNNAME":"永康區","LI":"成功里","LIN":"7鄰","STREET":"忠孝路","SECT":" ","MAREA":" ","LANE":"２０７巷","ALLEY":"２２弄","HOUSE_NO":"４號","E_COORD97":172038.01999999999,"N_COORD97":2544937.2400000002,"ADDRESS":"忠孝路２０７巷２２弄４號","OBJECTID":42758},"geometry":{"x":172038.01999999955,"y":2544937.2400000002}},{"attributes":{"ID":42759,"DIS_CODE":0,"TOWNNAME":"永康區","LI":"甲頂里","LIN":"7鄰","STREET":"中正南路","SECT":" ","MAREA":" ","LANE":"５２巷","ALLEY":"７１弄","HOUSE_NO":"５０號","E_COORD97":169889.54000000001,"N_COORD97":2546849.3799999999,"ADDRESS":"中正南路５２巷７１弄５０號","OBJECTID":42759},"geometry":{"x":169889.53999999911,"y":2546849.3800000008}},{"attributes":{"ID":42760,"DIS_CODE":0,"TOWNNAME":"永康區","LI":"甲頂里","LIN":"7鄰","STREET":"中正南路","SECT":" ","MAREA":" ","LANE":"１６８巷","ALLEY":"２弄","HOUSE_NO":"３１號","E_COORD97":169913.73999999999,"N_COORD97":2546895.2400000002,"ADDRESS":"中正南路１６８巷２弄３１號","OBJECTID":42760},"geometry":{"x":169913.74000000022,"y":2546895.2400000021}},{"attributes":{"ID":42761,"DIS_CODE":0,"TOWNNAME":"永康區","LI":"成功里","LIN":"7鄰","STREET":"忠孝路","SECT":" ","MAREA":" ","LANE":"２０７巷","ALLEY":"２２弄","HOUSE_NO":"８號","E_COORD97":172040.76000000001,"N_COORD97":2544965,"ADDRESS":"忠孝路２０７巷２２弄８號","OBJECTID":42761},"geometry":{"x":172040.76000000164,"y":2544965.0000000019}},{"attributes":{"ID":42762,"DIS_CODE":0,"TOWNNAME":"永康區","LI":"成功里","LIN":"7鄰","STREET":"忠孝路","SECT":" ","MAREA":" ","LANE":"２０７巷","ALLEY":"２２弄","HOUSE_NO":"１１號","E_COORD97":172013.53,"N_COORD97":2544962.6600000001,"ADDRESS":"忠孝路２０７巷２２弄１１號","OBJECTID":42762},"geometry":{"x":172013.53000000026,"y":2544962.6600000039}},{"attributes":{"ID":42763,"DIS_CODE":0,"TOWNNAME":"永康區","LI":"甲頂里","LIN":"7鄰","STREET":"中正南路","SECT":" ","MAREA":" ","LANE":"１６８巷","ALLEY":"２弄","HOUSE_NO":"１９號","E_COORD97":169899.60999999999,"N_COORD97":2546911.9900000002,"ADDRESS":"中正南路１６８巷２弄１９號","OBJECTID":42763},"geometry":{"x":169899.6100000022,"y":2546911.9900000002}},{"attributes":{"ID":42764,"DIS_CODE":0,"TOWNNAME":"永康區","LI":"甲頂里","LIN":"7鄰","STREET":"中正南路","SECT":" ","MAREA":" ","LANE":"５２巷","ALLEY":"７１弄","HOUSE_NO":"１６號","E_COORD97":169925.01000000001,"N_COORD97":2546824.5,"ADDRESS":"中正南路５２巷７１弄１６號","OBJECTID":42764},"geometry":{"x":169925.00999999885,"y":2546824.4999999981}},{"attributes":{"ID":42765,"DIS_CODE":0,"TOWNNAME":"永康區","LI":"甲頂里","LIN":"7鄰","STREET":"中正南路","SECT":" ","MAREA":" ","LANE":"５２巷","ALLEY":"７１弄","HOUSE_NO":"４６號","E_COORD97":169896.38,"N_COORD97":2546853.6299999999,"ADDRESS":"中正南路５２巷７１弄４６號","OBJECTID":42765},"geometry":{"x":169896.38000000082,"y":2546853.6300000008}},{"attributes":{"ID":42766,"DIS_CODE":0,"TOWNNAME":"永康區","LI":"甲頂里","LIN":"7鄰","STREET":"中正南路","SECT":" ","MAREA":" ","LANE":"５２巷","ALLEY":"７１弄","HOUSE_NO":"４０號","E_COORD97":169922.73000000001,"N_COORD97":2546874.2400000002,"ADDRESS":"中正南路５２巷７１弄４０號","OBJECTID":42766},"geometry":{"x":169922.73000000231,"y":2546874.2400000039}},{"attributes":{"ID":42767,"DIS_CODE":0,"TOWNNAME":"永康區","LI":"甲頂里","LIN":"7鄰","STREET":"中正南路","SECT":" ","MAREA":" ","LANE":"１６８巷","ALLEY":"２弄","HOUSE_NO":"２５號","E_COORD97":169906.57999999999,"N_COORD97":2546903.7400000002,"ADDRESS":"中正南路１６８巷２弄２５號","OBJECTID":42767},"geometry":{"x":169906.58000000101,"y":2546903.7400000002}},{"attributes":{"ID":42768,"DIS_CODE":0,"TOWNNAME":"永康區","LI":"甲頂里","LIN":"7鄰","STREET":"中正南路","SECT":" ","MAREA":" ","LANE":"５２巷","ALLEY":"７１弄","HOUSE_NO":"５８號","E_COORD97":169875.67999999999,"N_COORD97":2546841.6299999999,"ADDRESS":"中正南路５２巷７１弄５８號","OBJECTID":42768},"geometry":{"x":169875.6799999997,"y":2546841.629999999}},{"attributes":{"ID":42769,"DIS_CODE":0,"TOWNNAME":"永康區","LI":"成功里","LIN":"7鄰","STREET":"忠孝路","SECT":" ","MAREA":" ","LANE":"２０７巷","ALLEY":"２２弄","HOUSE_NO":"５號","E_COORD97":172039.29999999999,"N_COORD97":2544942.5,"ADDRESS":"忠孝路２０７巷２２弄５號","OBJECTID":42769},"geometry":{"x":172039.30000000075,"y":2544942.5}},{"attributes":{"ID":42770,"DIS_CODE":0,"TOWNNAME":"永康區","LI":"成功里","LIN":"7鄰","STREET":"忠孝路","SECT":" ","MAREA":" ","LANE":"２０７巷","ALLEY":"２２弄","HOUSE_NO":"１０號","E_COORD97":172026.76000000001,"N_COORD97":2544965.25,"ADDRESS":"忠孝路２０７巷２２弄１０號","OBJECTID":42770},"geometry":{"x":172026.75999999978,"y":2544965.2500000037}},{"attributes":{"ID":42771,"DIS_CODE":0,"TOWNNAME":"永康區","LI":"甲頂里","LIN":"7鄰","STREET":"中正南路","SECT":" ","MAREA":" ","LANE":"１６８巷","ALLEY":"２弄","HOUSE_NO":"２３號","E_COORD97":169904.48999999999,"N_COORD97":2546906.7400000002,"ADDRESS":"中正南路１６８巷２弄２３號","OBJECTID":42771},"geometry":{"x":169904.49000000115,"y":2546906.7400000002}},{"attributes":{"ID":42772,"DIS_CODE":0,"TOWNNAME":"永康區","LI":"甲頂里","LIN":"7鄰","STREET":"中正南路","SECT":" ","MAREA":" ","LANE":"５２巷","ALLEY":"７１弄","HOUSE_NO":"２號","E_COORD97":169925.25,"N_COORD97":2546796.4900000002,"ADDRESS":"中正南路５２巷７１弄２號","OBJECTID":42772},"geometry":{"x":169925.25,"y":2546796.4900000002}},{"attributes":{"ID":42773,"DIS_CODE":0,"TOWNNAME":"永康區","LI":"甲頂里","LIN":"7鄰","STREET":"中正南路","SECT":" ","MAREA":" ","LANE":"５２巷","ALLEY":"７１弄","HOUSE_NO":"４４號","E_COORD97":169899.82000000001,"N_COORD97":2546855.3799999999,"ADDRESS":"中正南路５２巷７１弄４４號","OBJECTID":42773},"geometry":{"x":169899.82000000216,"y":2546855.3800000008}},{"attributes":{"ID":42774,"DIS_CODE":0,"TOWNNAME":"永康區","LI":"甲頂里","LIN":"7鄰","STREET":"中正南路","SECT":" ","MAREA":" ","LANE":"１６８巷","ALLEY":"２弄","HOUSE_NO":"３５號","E_COORD97":169918.29000000001,"N_COORD97":2546889.4900000002,"ADDRESS":"中正南路１６８巷２弄３５號","OBJECTID":42774},"geometry":{"x":169918.29000000004,"y":2546889.4900000039}},{"attributes":{"ID":42775,"DIS_CODE":0,"TOWNNAME":"永康區","LI":"甲頂里","LIN":"7鄰","STREET":"中正南路","SECT":" ","MAREA":" ","LANE":"１６８巷","ALLEY":"２弄","HOUSE_NO":"２１號","E_COORD97":169901.69,"N_COORD97":2546909.4900000002,"ADDRESS":"中正南路１６８巷２弄２１號","OBJECTID":42775},"geometry":{"x":169901.69000000134,"y":2546909.4900000002}},{"attributes":{"ID":42776,"DIS_CODE":0,"TOWNNAME":"永康區","LI":"甲頂里","LIN":"7鄰","STREET":"中正南路","SECT":" ","MAREA":" ","LANE":"５２巷","ALLEY":"７１弄","HOUSE_NO":"１１號","E_COORD97":169908.87,"N_COORD97":2546831.3300000001,"ADDRESS":"中正南路５２巷７１弄１１號","OBJECTID":42776},"geometry":{"x":169908.87000000011,"y":2546831.3300000001}},{"attributes":{"ID":42777,"DIS_CODE":0,"TOWNNAME":"永康區","LI":"甲頂里","LIN":"7鄰","STREET":"中正南路","SECT":" ","MAREA":" ","LANE":"５２巷","ALLEY":"７１弄","HOUSE_NO":"８號","E_COORD97":169924.67999999999,"N_COORD97":2546808.7400000002,"ADDRESS":"中正南路５２巷７１弄８號","OBJECTID":42777},"geometry":{"x":169924.68000000063,"y":2546808.7400000002}},{"attributes":{"ID":42778,"DIS_CODE":0,"TOWNNAME":"永康區","LI":"甲頂里","LIN":"7鄰","STREET":"中正南路","SECT":" ","MAREA":" ","LANE":"５２巷","ALLEY":"７１弄","HOUSE_NO":"１５號","E_COORD97":169908.35000000001,"N_COORD97":2546840.9199999999,"ADDRESS":"中正南路５２巷７１弄１５號","OBJECTID":42778},"geometry":{"x":169908.34999999963,"y":2546840.9199999999}},{"attributes":{"ID":42779,"DIS_CODE":0,"TOWNNAME":"永康區","LI":"成功里","LIN":"7鄰","STREET":"忠孝路","SECT":" ","MAREA":" ","LANE":"２０７巷","ALLEY":"２２弄","HOUSE_NO":"３號","E_COORD97":172038.29000000001,"N_COORD97":2544934.4900000002,"ADDRESS":"忠孝路２０７巷２２弄３號","OBJECTID":42779},"geometry":{"x":172038.29000000004,"y":2544934.4900000021}},{"attributes":{"ID":42780,"DIS_CODE":0,"TOWNNAME":"永康區","LI":"甲頂里","LIN":"7鄰","STREET":"中正南路","SECT":" ","MAREA":" ","LANE":"５２巷","ALLEY":"７１弄","HOUSE_NO":"３號","E_COORD97":169908.42000000001,"N_COORD97":2546815.75,"ADDRESS":"中正南路５２巷７１弄３號","OBJECTID":42780},"geometry":{"x":169908.41999999993,"y":2546815.75}},{"attributes":{"ID":42781,"DIS_CODE":0,"TOWNNAME":"永康區","LI":"甲頂里","LIN":"7鄰","STREET":"中正南路","SECT":" ","MAREA":" ","LANE":"１６８巷","ALLEY":"２弄","HOUSE_NO":"３７號","E_COORD97":169920.35000000001,"N_COORD97":2546886.2400000002,"ADDRESS":"中正南路１６８巷２弄３７號","OBJECTID":42781},"geometry":{"x":169920.34999999963,"y":2546886.2400000002}},{"attributes":{"ID":42782,"DIS_CODE":0,"TOWNNAME":"永康區","LI":"甲頂里","LIN":"7鄰","STREET":"中正南路","SECT":" ","MAREA":" ","LANE":"５２巷","ALLEY":"７１弄","HOUSE_NO":"２８號","E_COORD97":169923.32999999999,"N_COORD97":2546849.9199999999,"ADDRESS":"中正南路５２巷７１弄２８號","OBJECTID":42782},"geometry":{"x":169923.33000000194,"y":2546849.9200000018}},{"attributes":{"ID":42783,"DIS_CODE":0,"TOWNNAME":"永康區","LI":"甲頂里","LIN":"7鄰","STREET":"中正南路","SECT":" ","MAREA":" ","LANE":"５２巷","ALLEY":"７１弄","HOUSE_NO":"４號","E_COORD97":169925.16,"N_COORD97":2546800.4900000002,"ADDRESS":"中正南路５２巷７１弄４號","OBJECTID":42783},"geometry":{"x":169925.16000000108,"y":2546800.4900000002}},{"attributes":{"ID":42784,"DIS_CODE":0,"TOWNNAME":"善化區","LI":"東昌里","LIN":"7鄰","STREET":" ","SECT":" ","MAREA":"東勢寮","LANE":" ","ALLEY":" ","HOUSE_NO":"６９號","E_COORD97":180457.51000000001,"N_COORD97":2561818.7599999998,"ADDRESS":"東勢寮６９號","OBJECTID":42784},"geometry":{"x":180457.51000000071,"y":2561818.7600000016}},{"attributes":{"ID":42785,"DIS_CODE":0,"TOWNNAME":"善化區","LI":"溪美里","LIN":"7鄰","STREET":" ","SECT":" ","MAREA":"溪尾","LANE":" ","ALLEY":" ","HOUSE_NO":"６３號之４","E_COORD97":176836.32999999999,"N_COORD97":2561316.77,"ADDRESS":"溪尾６３號之４","OBJECTID":42785},"geometry":{"x":176836.33000000194,"y":2561316.7700000014}},{"attributes":{"ID":42786,"DIS_CODE":0,"TOWNNAME":"善化區","LI":"嘉北里","LIN":"7鄰","STREET":" ","SECT":" ","MAREA":"茄拔","LANE":" ","ALLEY":" ","HOUSE_NO":"１７０號之２","E_COORD97":181093.44,"N_COORD97":2559896.02,"ADDRESS":"茄拔１７０號之２","OBJECTID":42786},"geometry":{"x":181093.44000000041,"y":2559896.0199999996}},{"attributes":{"ID":42787,"DIS_CODE":0,"TOWNNAME":"善化區","LI":"東隆里","LIN":"7鄰","STREET":" ","SECT":" ","MAREA":"東勢寮","LANE":" ","ALLEY":" ","HOUSE_NO":"１９３號之８","E_COORD97":179817.35000000001,"N_COORD97":2561789.02,"ADDRESS":"東勢寮１９３號之８","OBJECTID":42787},"geometry":{"x":179817.34999999963,"y":2561789.0199999977}},{"attributes":{"ID":42788,"DIS_CODE":0,"TOWNNAME":"善化區","LI":"東隆里","LIN":"7鄰","STREET":" ","SECT":" ","MAREA":"東勢寮","LANE":" ","ALLEY":" ","HOUSE_NO":"１９９號","E_COORD97":179851.19,"N_COORD97":2561753.5099999998,"ADDRESS":"東勢寮１９９號","OBJECTID":42788},"geometry":{"x":179851.19000000041,"y":2561753.5100000016}},{"attributes":{"ID":42789,"DIS_CODE":0,"TOWNNAME":"善化區","LI":"田寮里","LIN":"7鄰","STREET":" ","SECT":" ","MAREA":"六分寮","LANE":" ","ALLEY":" ","HOUSE_NO":"７９號","E_COORD97":178447.95999999999,"N_COORD97":2561365.5,"ADDRESS":"六分寮７９號","OBJECTID":42789},"geometry":{"x":178447.96000000089,"y":2561365.5}},{"attributes":{"ID":42790,"DIS_CODE":0,"TOWNNAME":"善化區","LI":"田寮里","LIN":"7鄰","STREET":" ","SECT":" ","MAREA":"六分寮","LANE":" ","ALLEY":" ","HOUSE_NO":"８６號之４","E_COORD97":178511.47,"N_COORD97":2561441.52,"ADDRESS":"六分寮８６號之４","OBJECTID":42790},"geometry":{"x":178511.4700000016,"y":2561441.5200000014}},{"attributes":{"ID":42791,"DIS_CODE":0,"TOWNNAME":"善化區","LI":"牛庄里","LIN":"7鄰","STREET":" ","SECT":" ","MAREA":"牛庄","LANE":" ","ALLEY":" ","HOUSE_NO":"７２號","E_COORD97":180148.10000000001,"N_COORD97":2560051.25,"ADDRESS":"牛庄７２號","OBJECTID":42791},"geometry":{"x":180148.10000000149,"y":2560051.25}},{"attributes":{"ID":42792,"DIS_CODE":0,"TOWNNAME":"善化區","LI":"牛庄里","LIN":"7鄰","STREET":" ","SECT":" ","MAREA":"牛庄","LANE":" ","ALLEY":" ","HOUSE_NO":"８４號","E_COORD97":180083.44,"N_COORD97":2559992.75,"ADDRESS":"牛庄８４號","OBJECTID":42792},"geometry":{"x":180083.44000000041,"y":2559992.7500000019}},{"attributes":{"ID":42793,"DIS_CODE":0,"TOWNNAME":"麻豆區","LI":"大山里","LIN":"4鄰","STREET":" ","SECT":" ","MAREA":"大山\u25A0","LANE":" ","ALLEY":" ","HOUSE_NO":"４２號之１９","E_COORD97":170298.89999999999,"N_COORD97":2566110.8799999999,"ADDRESS":"大山\u25A0４２號之１９","OBJECTID":42793},"geometry":{"x":170298.90000000037,"y":2566110.879999999}},{"attributes":{"ID":42794,"DIS_CODE":0,"TOWNNAME":"麻豆區","LI":"大山里","LIN":"4鄰","STREET":" ","SECT":" ","MAREA":"大山\u25A0","LANE":" ","ALLEY":" ","HOUSE_NO":"４２號之１","E_COORD97":170318.59,"N_COORD97":2566019.98,"ADDRESS":"大山\u25A0４２號之１","OBJECTID":42794},"geometry":{"x":170318.59000000078,"y":2566019.9800000004}},{"attributes":{"ID":42795,"DIS_CODE":0,"TOWNNAME":"佳里區","LI":"嘉福里","LIN":"4鄰","STREET":" ","SECT":" ","MAREA":"下營","LANE":" ","ALLEY":" ","HOUSE_NO":"３３號","E_COORD97":163283.66,"N_COORD97":2563528.3199999998,"ADDRESS":"下營３３號","OBJECTID":42795},"geometry":{"x":163283.66000000015,"y":2563528.3200000022}},{"attributes":{"ID":42796,"DIS_CODE":0,"TOWNNAME":"佳里區","LI":"嘉福里","LIN":"4鄰","STREET":" ","SECT":" ","MAREA":"下營","LANE":" ","ALLEY":" ","HOUSE_NO":"３２號","E_COORD97":163289.47,"N_COORD97":2563565.46,"ADDRESS":"下營３２號","OBJECTID":42796},"geometry":{"x":163289.47000000067,"y":2563565.4600000028}},{"attributes":{"ID":42797,"DIS_CODE":0,"TOWNNAME":"佳里區","LI":"嘉福里","LIN":"4鄰","STREET":" ","SECT":" ","MAREA":"下營","LANE":" ","ALLEY":" ","HOUSE_NO":"３４號之１","E_COORD97":163357.51999999999,"N_COORD97":2563517.5299999998,"ADDRESS":"下營３４號之１","OBJECTID":42797},"geometry":{"x":163357.51999999955,"y":2563517.5299999993}},{"attributes":{"ID":42798,"DIS_CODE":0,"TOWNNAME":"佳里區","LI":"嘉福里","LIN":"4鄰","STREET":" ","SECT":" ","MAREA":"下營","LANE":" ","ALLEY":" ","HOUSE_NO":"３４號之２","E_COORD97":163356.60000000001,"N_COORD97":2563525.3599999999,"ADDRESS":"下營３４號之２","OBJECTID":42798},"geometry":{"x":163356.59999999963,"y":2563525.3599999994}},{"attributes":{"ID":42799,"DIS_CODE":0,"TOWNNAME":"佳里區","LI":"嘉福里","LIN":"4鄰","STREET":" ","SECT":" ","MAREA":"下營","LANE":" ","ALLEY":" ","HOUSE_NO":"３４號之３","E_COORD97":163355.56,"N_COORD97":2563535.9300000002,"ADDRESS":"下營３４號之３","OBJECTID":42799},"geometry":{"x":163355.55999999959,"y":2563535.9300000034}},{"attributes":{"ID":42800,"DIS_CODE":0,"TOWNNAME":"佳里區","LI":"嘉福里","LIN":"4鄰","STREET":" ","SECT":" ","MAREA":"下營","LANE":" ","ALLEY":" ","HOUSE_NO":"３４號之４","E_COORD97":163354.92000000001,"N_COORD97":2563542.8799999999,"ADDRESS":"下營３４號之４","OBJECTID":42800},"geometry":{"x":163354.91999999993,"y":2563542.8800000008}}]}