{"displayFieldName":"TOWNNAME","fieldAliases":{"ID":"ID","DIS_CODE":"DIS_CODE","TOWNNAME":"TOWNNAME","LI":"LI","LIN":"LIN","STREET":"STREET","SECT":"SECT","MAREA":"MAREA","LANE":"LANE","ALLEY":"ALLEY","HOUSE_NO":"HOUSE_NO","E_COORD97":"E_COORD97","N_COORD97":"N_COORD97","ADDRESS":"ADDRESS","OBJECTID":"OBJECTID"},"geometryType":"esriGeometryPoint","spatialReference":{"wkid":102443,"latestWkid":3826},"fields":[{"name":"ID","type":"esriFieldTypeDouble","alias":"ID"},{"name":"DIS_CODE","type":"esriFieldTypeInteger","alias":"DIS_CODE"},{"name":"TOWNNAME","type":"esriFieldTypeString","alias":"TOWNNAME","length":8},{"name":"LI","type":"esriFieldTypeString","alias":"LI","length":8},{"name":"LIN","type":"esriFieldTypeString","alias":"LIN","length":12},{"name":"STREET","type":"esriFieldTypeString","alias":"STREET","length":20},{"name":"SECT","type":"esriFieldTypeString","alias":"SECT","length":8},{"name":"MAREA","type":"esriFieldTypeString","alias":"MAREA","length":12},{"name":"LANE","type":"esriFieldTypeString","alias":"LANE","length":10},{"name":"ALLEY","type":"esriFieldTypeString","alias":"ALLEY","length":10},{"name":"HOUSE_NO","type":"esriFieldTypeString","alias":"HOUSE_NO","length":20},{"name":"E_COORD97","type":"esriFieldTypeDouble","alias":"E_COORD97"},{"name":"N_COORD97","type":"esriFieldTypeDouble","alias":"N_COORD97"},{"name":"ADDRESS","type":"esriFieldTypeString","alias":"ADDRESS","length":50},{"name":"OBJECTID","type":"esriFieldTypeOID","alias":"OBJECTID"}],"features":[{"attributes":{"ID":308609,"DIS_CODE":0,"TOWNNAME":"安南區","LI":"海東里","LIN":"17鄰","STREET":"安中路","SECT":"一段","MAREA":" ","LANE":" ","ALLEY":" ","HOUSE_NO":"８５１之９號","E_COORD97":167210.07999999999,"N_COORD97":2549478.1000000001,"ADDRESS":"安中路一段８５１之９號","OBJECTID":308601},"geometry":{"x":167210.08000000101,"y":2549478.0999999978}},{"attributes":{"ID":308610,"DIS_CODE":0,"TOWNNAME":"安南區","LI":"溪心里","LIN":"17鄰","STREET":"仁安四街","SECT":" ","MAREA":" ","LANE":" ","ALLEY":" ","HOUSE_NO":"５６號","E_COORD97":166144.42000000001,"N_COORD97":2550111.7200000002,"ADDRESS":"仁安四街５６號","OBJECTID":308602},"geometry":{"x":166144.42000000086,"y":2550111.7200000007}},{"attributes":{"ID":308611,"DIS_CODE":0,"TOWNNAME":"安南區","LI":"州北里","LIN":"17鄰","STREET":"安和路","SECT":"六段","MAREA":" ","LANE":" ","ALLEY":" ","HOUSE_NO":"４０之５號","E_COORD97":169590.45000000001,"N_COORD97":2552428.5,"ADDRESS":"安和路六段４０之５號","OBJECTID":308603},"geometry":{"x":169590.45000000205,"y":2552428.5}},{"attributes":{"ID":308612,"DIS_CODE":0,"TOWNNAME":"永康區","LI":"復華里","LIN":"18鄰","STREET":"國華街","SECT":" ","MAREA":" ","LANE":"１０２巷","ALLEY":" ","HOUSE_NO":"５９號九樓之３","E_COORD97":172842.51000000001,"N_COORD97":2546109.02,"ADDRESS":"國華街１０２巷５９號九樓之３","OBJECTID":308604},"geometry":{"x":172842.51000000164,"y":2546109.0200000014}},{"attributes":{"ID":308613,"DIS_CODE":0,"TOWNNAME":"永康區","LI":"崑山里","LIN":"20鄰","STREET":"崑山街","SECT":" ","MAREA":" ","LANE":"２１巷","ALLEY":" ","HOUSE_NO":"１９號五樓之４","E_COORD97":173867.78,"N_COORD97":2544557.3599999999,"ADDRESS":"崑山街２１巷１９號五樓之４","OBJECTID":308605},"geometry":{"x":173867.78000000026,"y":2544557.3600000013}},{"attributes":{"ID":308614,"DIS_CODE":0,"TOWNNAME":"永康區","LI":"崑山里","LIN":"20鄰","STREET":"崑山街","SECT":" ","MAREA":" ","LANE":"２１巷","ALLEY":" ","HOUSE_NO":"１９號二樓之２","E_COORD97":173867.89000000001,"N_COORD97":2544557.3599999999,"ADDRESS":"崑山街２１巷１９號二樓之２","OBJECTID":308606},"geometry":{"x":173867.8900000006,"y":2544557.3600000013}},{"attributes":{"ID":308615,"DIS_CODE":0,"TOWNNAME":"永康區","LI":"勝利里","LIN":"40鄰","STREET":"中華一路","SECT":" ","MAREA":" ","LANE":"１８２巷","ALLEY":" ","HOUSE_NO":"４號五樓之４","E_COORD97":171533.48999999999,"N_COORD97":2545051.54,"ADDRESS":"中華一路１８２巷４號五樓之４","OBJECTID":308607},"geometry":{"x":171533.49000000115,"y":2545051.540000001}},{"attributes":{"ID":308616,"DIS_CODE":0,"TOWNNAME":"永康區","LI":"崑山里","LIN":"20鄰","STREET":"崑山街","SECT":" ","MAREA":" ","LANE":"２１巷","ALLEY":" ","HOUSE_NO":"１９號三樓之３","E_COORD97":173867.85000000001,"N_COORD97":2544557.3599999999,"ADDRESS":"崑山街２１巷１９號三樓之３","OBJECTID":308608},"geometry":{"x":173867.85000000056,"y":2544557.3600000013}},{"attributes":{"ID":308617,"DIS_CODE":0,"TOWNNAME":"安南區","LI":"國安里","LIN":"7鄰","STREET":"國安街","SECT":" ","MAREA":" ","LANE":"２１０巷","ALLEY":" ","HOUSE_NO":"１４０號","E_COORD97":166550.57000000001,"N_COORD97":2547326.25,"ADDRESS":"國安街２１０巷１４０號","OBJECTID":308609},"geometry":{"x":166550.57000000123,"y":2547326.2500000019}},{"attributes":{"ID":308618,"DIS_CODE":0,"TOWNNAME":"南區","LI":"文華里","LIN":"17鄰","STREET":"南樂街","SECT":" ","MAREA":" ","LANE":" ","ALLEY":" ","HOUSE_NO":"１９號五樓","E_COORD97":166843.5,"N_COORD97":2543150.54,"ADDRESS":"南樂街１９號五樓","OBJECTID":308610},"geometry":{"x":166843.49999999907,"y":2543150.5399999991}},{"attributes":{"ID":308619,"DIS_CODE":0,"TOWNNAME":"新營區","LI":"嘉芳里","LIN":"2鄰","STREET":"復興路","SECT":" ","MAREA":" ","LANE":" ","ALLEY":" ","HOUSE_NO":"７７１號","E_COORD97":177188.13,"N_COORD97":2578546.4100000001,"ADDRESS":"復興路７７１號","OBJECTID":308611},"geometry":{"x":177188.12999999989,"y":2578546.410000002}},{"attributes":{"ID":308620,"DIS_CODE":0,"TOWNNAME":"新營區","LI":"民生里","LIN":"4鄰","STREET":"民治路","SECT":" ","MAREA":" ","LANE":" ","ALLEY":" ","HOUSE_NO":"６５號","E_COORD97":179294.81,"N_COORD97":2578726.6800000002,"ADDRESS":"民治路６５號","OBJECTID":308612},"geometry":{"x":179294.80999999959,"y":2578726.6800000034}},{"attributes":{"ID":308621,"DIS_CODE":0,"TOWNNAME":"南區","LI":"再興里","LIN":"17鄰","STREET":"金華路","SECT":"二段","MAREA":" ","LANE":" ","ALLEY":" ","HOUSE_NO":"１７２號一樓","E_COORD97":167108.48999999999,"N_COORD97":2542275.8500000001,"ADDRESS":"金華路二段１７２號一樓","OBJECTID":308613},"geometry":{"x":167108.49000000115,"y":2542275.8500000015}},{"attributes":{"ID":308622,"DIS_CODE":0,"TOWNNAME":"南區","LI":"再興里","LIN":"17鄰","STREET":"金華路","SECT":"二段","MAREA":" ","LANE":" ","ALLEY":" ","HOUSE_NO":"１７２號七樓之４","E_COORD97":167125.57000000001,"N_COORD97":2542273.6499999999,"ADDRESS":"金華路二段１７２號七樓之４","OBJECTID":308614},"geometry":{"x":167125.57000000123,"y":2542273.6500000004}},{"attributes":{"ID":308623,"DIS_CODE":0,"TOWNNAME":"南區","LI":"再興里","LIN":"17鄰","STREET":"金華路","SECT":"二段","MAREA":" ","LANE":" ","ALLEY":" ","HOUSE_NO":"１７２號七樓之１","E_COORD97":167125.57000000001,"N_COORD97":2542273.6499999999,"ADDRESS":"金華路二段１７２號七樓之１","OBJECTID":308615},"geometry":{"x":167125.57000000123,"y":2542273.6500000004}},{"attributes":{"ID":308624,"DIS_CODE":0,"TOWNNAME":"安南區","LI":"國安里","LIN":"7鄰","STREET":"國安街","SECT":" ","MAREA":" ","LANE":"２１０巷","ALLEY":" ","HOUSE_NO":"１４２號","E_COORD97":166549.56,"N_COORD97":2547330.27,"ADDRESS":"國安街２１０巷１４２號","OBJECTID":308616},"geometry":{"x":166549.56000000145,"y":2547330.2699999996}},{"attributes":{"ID":308625,"DIS_CODE":0,"TOWNNAME":"安南區","LI":"國安里","LIN":"7鄰","STREET":"國安街","SECT":" ","MAREA":" ","LANE":"２１０巷","ALLEY":" ","HOUSE_NO":"１４４號","E_COORD97":166548.92000000001,"N_COORD97":2547334.1099999999,"ADDRESS":"國安街２１０巷１４４號","OBJECTID":308617},"geometry":{"x":166548.91999999993,"y":2547334.1099999994}},{"attributes":{"ID":308626,"DIS_CODE":0,"TOWNNAME":"安南區","LI":"國安里","LIN":"7鄰","STREET":"國安街","SECT":" ","MAREA":" ","LANE":"２１０巷","ALLEY":" ","HOUSE_NO":"１４６號","E_COORD97":166548.26999999999,"N_COORD97":2547338.9100000001,"ADDRESS":"國安街２１０巷１４６號","OBJECTID":308618},"geometry":{"x":166548.27000000048,"y":2547338.910000002}},{"attributes":{"ID":308627,"DIS_CODE":0,"TOWNNAME":"安南區","LI":"國安里","LIN":"7鄰","STREET":"國安街","SECT":" ","MAREA":" ","LANE":"２１０巷","ALLEY":" ","HOUSE_NO":"１４８號","E_COORD97":166547.63,"N_COORD97":2547343.2999999998,"ADDRESS":"國安街２１０巷１４８號","OBJECTID":308619},"geometry":{"x":166547.63000000175,"y":2547343.3000000026}},{"attributes":{"ID":308628,"DIS_CODE":0,"TOWNNAME":"安南區","LI":"國安里","LIN":"7鄰","STREET":"國安街","SECT":" ","MAREA":" ","LANE":"２１０巷","ALLEY":" ","HOUSE_NO":"１５０號","E_COORD97":166546.62,"N_COORD97":2547347.3199999998,"ADDRESS":"國安街２１０巷１５０號","OBJECTID":308620},"geometry":{"x":166546.62000000104,"y":2547347.3200000003}},{"attributes":{"ID":308629,"DIS_CODE":0,"TOWNNAME":"安南區","LI":"國安里","LIN":"7鄰","STREET":"國安街","SECT":" ","MAREA":" ","LANE":"２１０巷","ALLEY":" ","HOUSE_NO":"１５４號","E_COORD97":166544.42999999999,"N_COORD97":2547356.1899999999,"ADDRESS":"國安街２１０巷１５４號","OBJECTID":308621},"geometry":{"x":166544.43000000063,"y":2547356.1900000013}},{"attributes":{"ID":308630,"DIS_CODE":0,"TOWNNAME":"安南區","LI":"國安里","LIN":"7鄰","STREET":"國安街","SECT":" ","MAREA":" ","LANE":"２１０巷","ALLEY":" ","HOUSE_NO":"１５６號","E_COORD97":166544.14000000001,"N_COORD97":2547360.6600000001,"ADDRESS":"國安街２１０巷１５６號","OBJECTID":308622},"geometry":{"x":166544.1400000006,"y":2547360.660000002}},{"attributes":{"ID":308631,"DIS_CODE":0,"TOWNNAME":"安南區","LI":"國安里","LIN":"7鄰","STREET":"國安街","SECT":" ","MAREA":" ","LANE":"２１０巷","ALLEY":" ","HOUSE_NO":"１５８號","E_COORD97":166542.70999999999,"N_COORD97":2547365.3900000001,"ADDRESS":"國安街２１０巷１５８號","OBJECTID":308623},"geometry":{"x":166542.71000000089,"y":2547365.3900000043}},{"attributes":{"ID":308632,"DIS_CODE":0,"TOWNNAME":"安南區","LI":"國安里","LIN":"7鄰","STREET":"國安街","SECT":" ","MAREA":" ","LANE":"２１０巷","ALLEY":" ","HOUSE_NO":"１６０號","E_COORD97":166541.98999999999,"N_COORD97":2547368.98,"ADDRESS":"國安街２１０巷１６０號","OBJECTID":308624},"geometry":{"x":166541.99000000022,"y":2547368.9800000023}},{"attributes":{"ID":308633,"DIS_CODE":0,"TOWNNAME":"安南區","LI":"國安里","LIN":"7鄰","STREET":"國安街","SECT":" ","MAREA":" ","LANE":"２１０巷","ALLEY":" ","HOUSE_NO":"１６２號","E_COORD97":166541.26999999999,"N_COORD97":2547373.8500000001,"ADDRESS":"國安街２１０巷１６２號","OBJECTID":308625},"geometry":{"x":166541.27000000142,"y":2547373.8499999996}},{"attributes":{"ID":308634,"DIS_CODE":0,"TOWNNAME":"安南區","LI":"國安里","LIN":"7鄰","STREET":"國安街","SECT":" ","MAREA":" ","LANE":"２１０巷","ALLEY":" ","HOUSE_NO":"７２號","E_COORD97":166589.75,"N_COORD97":2547146.5899999999,"ADDRESS":"國安街２１０巷７２號","OBJECTID":308626},"geometry":{"x":166589.75000000093,"y":2547146.5900000017}},{"attributes":{"ID":308635,"DIS_CODE":0,"TOWNNAME":"安南區","LI":"國安里","LIN":"7鄰","STREET":"國安街","SECT":" ","MAREA":" ","LANE":"２１０巷","ALLEY":" ","HOUSE_NO":"７４號","E_COORD97":166589.38,"N_COORD97":2547150.6499999999,"ADDRESS":"國安街２１０巷７４號","OBJECTID":308627},"geometry":{"x":166589.37999999989,"y":2547150.6500000022}},{"attributes":{"ID":308636,"DIS_CODE":0,"TOWNNAME":"安南區","LI":"國安里","LIN":"7鄰","STREET":"國安街","SECT":" ","MAREA":" ","LANE":"２１０巷","ALLEY":" ","HOUSE_NO":"８０號","E_COORD97":166588.10000000001,"N_COORD97":2547164.1200000001,"ADDRESS":"國安街２１０巷８０號","OBJECTID":308628},"geometry":{"x":166588.09999999963,"y":2547164.1200000048}},{"attributes":{"ID":308637,"DIS_CODE":0,"TOWNNAME":"安南區","LI":"國安里","LIN":"7鄰","STREET":"國安街","SECT":" ","MAREA":" ","LANE":"２１０巷","ALLEY":" ","HOUSE_NO":"８２號","E_COORD97":166587.44,"N_COORD97":2547168.54,"ADDRESS":"國安街２１０巷８２號","OBJECTID":308629},"geometry":{"x":166587.44000000134,"y":2547168.5399999991}},{"attributes":{"ID":308638,"DIS_CODE":0,"TOWNNAME":"安南區","LI":"國安里","LIN":"7鄰","STREET":"國安街","SECT":" ","MAREA":" ","LANE":"２１０巷","ALLEY":" ","HOUSE_NO":"８４號","E_COORD97":166586.95000000001,"N_COORD97":2547172.6400000001,"ADDRESS":"國安街２１０巷８４號","OBJECTID":308630},"geometry":{"x":166586.95000000112,"y":2547172.6400000006}},{"attributes":{"ID":308639,"DIS_CODE":0,"TOWNNAME":"安南區","LI":"國安里","LIN":"7鄰","STREET":"國安街","SECT":" ","MAREA":" ","LANE":"２１０巷","ALLEY":" ","HOUSE_NO":"８６號","E_COORD97":166586.39000000001,"N_COORD97":2547178.0800000001,"ADDRESS":"國安街２１０巷８６號","OBJECTID":308631},"geometry":{"x":166586.39000000153,"y":2547178.0800000019}},{"attributes":{"ID":308640,"DIS_CODE":0,"TOWNNAME":"安南區","LI":"國安里","LIN":"7鄰","STREET":"國安街","SECT":" ","MAREA":" ","LANE":"２１０巷","ALLEY":" ","HOUSE_NO":"８８號","E_COORD97":166586.45999999999,"N_COORD97":2547181.9100000001,"ADDRESS":"國安街２１０巷８８號","OBJECTID":308632},"geometry":{"x":166586.46000000089,"y":2547181.910000002}},{"attributes":{"ID":308641,"DIS_CODE":0,"TOWNNAME":"安南區","LI":"國安里","LIN":"7鄰","STREET":"國安街","SECT":" ","MAREA":" ","LANE":"２１０巷","ALLEY":" ","HOUSE_NO":"９４號","E_COORD97":166584.04000000001,"N_COORD97":2547195.9399999999,"ADDRESS":"國安街２１０巷９４號","OBJECTID":308633},"geometry":{"x":166584.0400000019,"y":2547195.9399999995}},{"attributes":{"ID":308642,"DIS_CODE":0,"TOWNNAME":"新市區","LI":"新和里","LIN":"7鄰","STREET":"信義街","SECT":" ","MAREA":" ","LANE":"７巷","ALLEY":" ","HOUSE_NO":"１號","E_COORD97":177233.26000000001,"N_COORD97":2552494.8900000001,"ADDRESS":"信義街７巷１號","OBJECTID":308634},"geometry":{"x":177233.26000000071,"y":2552494.8900000043}},{"attributes":{"ID":308643,"DIS_CODE":0,"TOWNNAME":"新市區","LI":"新和里","LIN":"7鄰","STREET":"信義街","SECT":" ","MAREA":" ","LANE":"７巷","ALLEY":" ","HOUSE_NO":"３號","E_COORD97":177228.10999999999,"N_COORD97":2552492.25,"ADDRESS":"信義街７巷３號","OBJECTID":308635},"geometry":{"x":177228.11000000127,"y":2552492.2500000019}},{"attributes":{"ID":308644,"DIS_CODE":0,"TOWNNAME":"新市區","LI":"新和里","LIN":"7鄰","STREET":"信義街","SECT":" ","MAREA":" ","LANE":"７巷","ALLEY":" ","HOUSE_NO":"５號","E_COORD97":177223.88,"N_COORD97":2552491.5800000001,"ADDRESS":"信義街７巷５號","OBJECTID":308636},"geometry":{"x":177223.88000000175,"y":2552491.5800000001}},{"attributes":{"ID":308645,"DIS_CODE":0,"TOWNNAME":"新市區","LI":"新和里","LIN":"7鄰","STREET":"信義街","SECT":" ","MAREA":" ","LANE":"７巷","ALLEY":" ","HOUSE_NO":"９號","E_COORD97":177215.44,"N_COORD97":2552490.25,"ADDRESS":"信義街７巷９號","OBJECTID":308637},"geometry":{"x":177215.44000000041,"y":2552490.25}},{"attributes":{"ID":308646,"DIS_CODE":0,"TOWNNAME":"新市區","LI":"新和里","LIN":"7鄰","STREET":"信義街","SECT":" ","MAREA":" ","LANE":"７巷","ALLEY":" ","HOUSE_NO":"２號","E_COORD97":177226.10999999999,"N_COORD97":2552520.46,"ADDRESS":"信義街７巷２號","OBJECTID":308638},"geometry":{"x":177226.1099999994,"y":2552520.4600000009}},{"attributes":{"ID":308647,"DIS_CODE":0,"TOWNNAME":"新市區","LI":"新和里","LIN":"7鄰","STREET":"信義街","SECT":" ","MAREA":" ","LANE":"７巷","ALLEY":" ","HOUSE_NO":"６號","E_COORD97":177220.32999999999,"N_COORD97":2552520.6800000002,"ADDRESS":"信義街７巷６號","OBJECTID":308639},"geometry":{"x":177220.33000000007,"y":2552520.6800000016}},{"attributes":{"ID":308648,"DIS_CODE":0,"TOWNNAME":"新市區","LI":"新和里","LIN":"7鄰","STREET":"信義街","SECT":" ","MAREA":" ","LANE":"７巷","ALLEY":" ","HOUSE_NO":"８號","E_COORD97":177216.23000000001,"N_COORD97":2552519.5600000001,"ADDRESS":"信義街７巷８號","OBJECTID":308640},"geometry":{"x":177216.23000000045,"y":2552519.5600000005}},{"attributes":{"ID":308649,"DIS_CODE":0,"TOWNNAME":"新市區","LI":"新和里","LIN":"7鄰","STREET":"信義街","SECT":" ","MAREA":" ","LANE":"７巷","ALLEY":" ","HOUSE_NO":"１０號","E_COORD97":177212.13,"N_COORD97":2552518.4300000002,"ADDRESS":"信義街７巷１０號","OBJECTID":308641},"geometry":{"x":177212.13000000175,"y":2552518.4300000016}},{"attributes":{"ID":308650,"DIS_CODE":0,"TOWNNAME":"新市區","LI":"新和里","LIN":"7鄰","STREET":"信義街","SECT":" ","MAREA":" ","LANE":"１１巷","ALLEY":" ","HOUSE_NO":"３號","E_COORD97":177215.60000000001,"N_COORD97":2552537.9399999999,"ADDRESS":"信義街１１巷３號","OBJECTID":308642},"geometry":{"x":177215.60000000056,"y":2552537.9400000013}},{"attributes":{"ID":308651,"DIS_CODE":0,"TOWNNAME":"新市區","LI":"新和里","LIN":"7鄰","STREET":"信義街","SECT":" ","MAREA":" ","LANE":"７巷","ALLEY":" ","HOUSE_NO":"１２號","E_COORD97":177208.85000000001,"N_COORD97":2552517.54,"ADDRESS":"信義街７巷１２號","OBJECTID":308643},"geometry":{"x":177208.85000000056,"y":2552517.540000001}},{"attributes":{"ID":308652,"DIS_CODE":0,"TOWNNAME":"新市區","LI":"新和里","LIN":"7鄰","STREET":"信義街","SECT":" ","MAREA":" ","LANE":"７巷","ALLEY":" ","HOUSE_NO":"１６號","E_COORD97":177203.92999999999,"N_COORD97":2552516.1899999999,"ADDRESS":"信義街７巷１６號","OBJECTID":308644},"geometry":{"x":177203.9299999997,"y":2552516.1900000013}},{"attributes":{"ID":308653,"DIS_CODE":0,"TOWNNAME":"新市區","LI":"新和里","LIN":"7鄰","STREET":"信義街","SECT":" ","MAREA":" ","LANE":"７巷","ALLEY":" ","HOUSE_NO":"１８號","E_COORD97":177199.82999999999,"N_COORD97":2552515.0699999998,"ADDRESS":"信義街７巷１８號","OBJECTID":308645},"geometry":{"x":177199.83000000101,"y":2552515.0700000022}},{"attributes":{"ID":308654,"DIS_CODE":0,"TOWNNAME":"新市區","LI":"新和里","LIN":"7鄰","STREET":"信義街","SECT":" ","MAREA":" ","LANE":"７巷","ALLEY":" ","HOUSE_NO":"２０號","E_COORD97":177195.48999999999,"N_COORD97":2552511.25,"ADDRESS":"信義街７巷２０號","OBJECTID":308646},"geometry":{"x":177195.49000000115,"y":2552511.25}},{"attributes":{"ID":308655,"DIS_CODE":0,"TOWNNAME":"新市區","LI":"新和里","LIN":"7鄰","STREET":"信義街","SECT":" ","MAREA":" ","LANE":"１１巷","ALLEY":" ","HOUSE_NO":"５號","E_COORD97":177212.42000000001,"N_COORD97":2552533.46,"ADDRESS":"信義街１１巷５號","OBJECTID":308647},"geometry":{"x":177212.42000000086,"y":2552533.4600000028}},{"attributes":{"ID":308656,"DIS_CODE":0,"TOWNNAME":"新市區","LI":"新和里","LIN":"7鄰","STREET":"信義街","SECT":" ","MAREA":" ","LANE":"１１巷","ALLEY":" ","HOUSE_NO":"７號","E_COORD97":177207.39999999999,"N_COORD97":2552535.7000000002,"ADDRESS":"信義街１１巷７號","OBJECTID":308648},"geometry":{"x":177207.40000000224,"y":2552535.7000000011}},{"attributes":{"ID":308657,"DIS_CODE":0,"TOWNNAME":"新市區","LI":"新和里","LIN":"7鄰","STREET":"信義街","SECT":" ","MAREA":" ","LANE":"１１巷","ALLEY":" ","HOUSE_NO":"９號","E_COORD97":177204.12,"N_COORD97":2552534.7999999998,"ADDRESS":"信義街１１巷９號","OBJECTID":308649},"geometry":{"x":177204.12000000104,"y":2552534.8000000007}},{"attributes":{"ID":308658,"DIS_CODE":0,"TOWNNAME":"新市區","LI":"新和里","LIN":"7鄰","STREET":"信義街","SECT":" ","MAREA":" ","LANE":"１１巷","ALLEY":" ","HOUSE_NO":"１１號","E_COORD97":177200.12,"N_COORD97":2552530.1000000001,"ADDRESS":"信義街１１巷１１號","OBJECTID":308650},"geometry":{"x":177200.12000000011,"y":2552530.1000000015}},{"attributes":{"ID":308659,"DIS_CODE":0,"TOWNNAME":"新市區","LI":"新和里","LIN":"7鄰","STREET":"信義街","SECT":" ","MAREA":" ","LANE":"１１巷","ALLEY":" ","HOUSE_NO":"１３號","E_COORD97":177195.10000000001,"N_COORD97":2552532.3300000001,"ADDRESS":"信義街１１巷１３號","OBJECTID":308651},"geometry":{"x":177195.10000000149,"y":2552532.3300000019}},{"attributes":{"ID":308660,"DIS_CODE":0,"TOWNNAME":"新市區","LI":"新和里","LIN":"7鄰","STREET":"信義街","SECT":" ","MAREA":" ","LANE":"１１巷","ALLEY":" ","HOUSE_NO":"１５號","E_COORD97":177191.82000000001,"N_COORD97":2552531.4300000002,"ADDRESS":"信義街１１巷１５號","OBJECTID":308652},"geometry":{"x":177191.8200000003,"y":2552531.4300000016}},{"attributes":{"ID":308661,"DIS_CODE":0,"TOWNNAME":"新市區","LI":"新和里","LIN":"7鄰","STREET":"信義街","SECT":" ","MAREA":" ","LANE":"１１巷","ALLEY":" ","HOUSE_NO":"１７號","E_COORD97":177185.97,"N_COORD97":2552527.3199999998,"ADDRESS":"信義街１１巷１７號","OBJECTID":308653},"geometry":{"x":177185.9700000016,"y":2552527.3200000003}},{"attributes":{"ID":308662,"DIS_CODE":0,"TOWNNAME":"新市區","LI":"新和里","LIN":"7鄰","STREET":"信義街","SECT":" ","MAREA":" ","LANE":"１１巷","ALLEY":" ","HOUSE_NO":"２號","E_COORD97":177215.64999999999,"N_COORD97":2552558.6699999999,"ADDRESS":"信義街１１巷２號","OBJECTID":308654},"geometry":{"x":177215.65000000037,"y":2552558.6699999999}},{"attributes":{"ID":308663,"DIS_CODE":0,"TOWNNAME":"新市區","LI":"新和里","LIN":"7鄰","STREET":"信義街","SECT":" ","MAREA":" ","LANE":"１１巷","ALLEY":" ","HOUSE_NO":"６號","E_COORD97":177210.28,"N_COORD97":2552557.3700000001,"ADDRESS":"信義街１１巷６號","OBJECTID":308655},"geometry":{"x":177210.28000000119,"y":2552557.3700000029}},{"attributes":{"ID":308664,"DIS_CODE":0,"TOWNNAME":"新市區","LI":"新和里","LIN":"7鄰","STREET":"信義街","SECT":" ","MAREA":" ","LANE":"１１巷","ALLEY":" ","HOUSE_NO":"８號","E_COORD97":177206.17999999999,"N_COORD97":2552556.25,"ADDRESS":"信義街１１巷８號","OBJECTID":308656},"geometry":{"x":177206.1799999997,"y":2552556.2500000037}},{"attributes":{"ID":308665,"DIS_CODE":0,"TOWNNAME":"新市區","LI":"新和里","LIN":"7鄰","STREET":"信義街","SECT":" ","MAREA":" ","LANE":"１１巷","ALLEY":" ","HOUSE_NO":"１０號","E_COORD97":177201.14000000001,"N_COORD97":2552558.5899999999,"ADDRESS":"信義街１１巷１０號","OBJECTID":308657},"geometry":{"x":177201.13999999966,"y":2552558.5900000017}},{"attributes":{"ID":308666,"DIS_CODE":0,"TOWNNAME":"新市區","LI":"新和里","LIN":"7鄰","STREET":"信義街","SECT":" ","MAREA":" ","LANE":"１１巷","ALLEY":" ","HOUSE_NO":"１２號","E_COORD97":177197.85999999999,"N_COORD97":2552557.6899999999,"ADDRESS":"信義街１１巷１２號","OBJECTID":308658},"geometry":{"x":177197.86000000127,"y":2552557.6899999995}},{"attributes":{"ID":308667,"DIS_CODE":0,"TOWNNAME":"新市區","LI":"新和里","LIN":"7鄰","STREET":"信義街","SECT":" ","MAREA":" ","LANE":"１１巷","ALLEY":" ","HOUSE_NO":"１６號","E_COORD97":177193.89000000001,"N_COORD97":2552552.8799999999,"ADDRESS":"信義街１１巷１６號","OBJECTID":308659},"geometry":{"x":177193.8900000006,"y":2552552.879999999}},{"attributes":{"ID":308668,"DIS_CODE":0,"TOWNNAME":"新市區","LI":"新和里","LIN":"7鄰","STREET":"信義街","SECT":" ","MAREA":" ","LANE":"１１巷","ALLEY":" ","HOUSE_NO":"１８號","E_COORD97":177188.84,"N_COORD97":2552555.2200000002,"ADDRESS":"信義街１１巷１８號","OBJECTID":308660},"geometry":{"x":177188.84000000078,"y":2552555.2200000025}},{"attributes":{"ID":308669,"DIS_CODE":0,"TOWNNAME":"新市區","LI":"新和里","LIN":"7鄰","STREET":"信義街","SECT":" ","MAREA":" ","LANE":"１１巷","ALLEY":" ","HOUSE_NO":"２０號","E_COORD97":177185.56,"N_COORD97":2552554.3199999998,"ADDRESS":"信義街１１巷２０號","OBJECTID":308661},"geometry":{"x":177185.56000000052,"y":2552554.3200000003}},{"attributes":{"ID":308670,"DIS_CODE":0,"TOWNNAME":"新市區","LI":"新和里","LIN":"7鄰","STREET":"信義街","SECT":" ","MAREA":" ","LANE":"１１巷","ALLEY":" ","HOUSE_NO":"２２號","E_COORD97":177181.59,"N_COORD97":2552549.5099999998,"ADDRESS":"信義街１１巷２２號","OBJECTID":308662},"geometry":{"x":177181.58999999985,"y":2552549.5099999998}},{"attributes":{"ID":308671,"DIS_CODE":0,"TOWNNAME":"新市區","LI":"新和里","LIN":"7鄰","STREET":"信義街","SECT":" ","MAREA":" ","LANE":"１１巷","ALLEY":" ","HOUSE_NO":"２６號","E_COORD97":177175.85999999999,"N_COORD97":2552550.5299999998,"ADDRESS":"信義街１１巷２６號","OBJECTID":308663},"geometry":{"x":177175.86000000127,"y":2552550.5300000012}},{"attributes":{"ID":308672,"DIS_CODE":0,"TOWNNAME":"安南區","LI":"溪頂里","LIN":"7鄰","STREET":"府安路","SECT":"四段","MAREA":" ","LANE":"１６９巷","ALLEY":" ","HOUSE_NO":"１０號","E_COORD97":168762.59,"N_COORD97":2547285.5099999998,"ADDRESS":"府安路四段１６９巷１０號","OBJECTID":308664},"geometry":{"x":168762.59000000078,"y":2547285.5100000035}},{"attributes":{"ID":308673,"DIS_CODE":0,"TOWNNAME":"安南區","LI":"溪頂里","LIN":"7鄰","STREET":"府安路","SECT":"四段","MAREA":" ","LANE":"１６９巷","ALLEY":" ","HOUSE_NO":"１１號","E_COORD97":168739.25,"N_COORD97":2547289.7599999998,"ADDRESS":"府安路四段１６９巷１１號","OBJECTID":308665},"geometry":{"x":168739.25000000093,"y":2547289.7599999998}},{"attributes":{"ID":308674,"DIS_CODE":0,"TOWNNAME":"安南區","LI":"溪頂里","LIN":"7鄰","STREET":"府安路","SECT":"四段","MAREA":" ","LANE":"１６９巷","ALLEY":" ","HOUSE_NO":"１２號","E_COORD97":168761.19,"N_COORD97":2547291.5,"ADDRESS":"府安路四段１６９巷１２號","OBJECTID":308666},"geometry":{"x":168761.19000000041,"y":2547291.5}},{"attributes":{"ID":308675,"DIS_CODE":0,"TOWNNAME":"安南區","LI":"溪頂里","LIN":"7鄰","STREET":"府安路","SECT":"四段","MAREA":" ","LANE":"１６９巷","ALLEY":" ","HOUSE_NO":"１３號","E_COORD97":168737.79999999999,"N_COORD97":2547296.2400000002,"ADDRESS":"府安路四段１６９巷１３號","OBJECTID":308667},"geometry":{"x":168737.79999999981,"y":2547296.2400000021}},{"attributes":{"ID":308676,"DIS_CODE":0,"TOWNNAME":"安南區","LI":"溪頂里","LIN":"7鄰","STREET":"府安路","SECT":"四段","MAREA":" ","LANE":"１６９巷","ALLEY":" ","HOUSE_NO":"１４號","E_COORD97":168760.91,"N_COORD97":2547297.3599999999,"ADDRESS":"府安路四段１６９巷１４號","OBJECTID":308668},"geometry":{"x":168760.91000000015,"y":2547297.3600000013}},{"attributes":{"ID":308677,"DIS_CODE":0,"TOWNNAME":"安南區","LI":"溪頂里","LIN":"7鄰","STREET":"府安路","SECT":"四段","MAREA":" ","LANE":"１６９巷","ALLEY":" ","HOUSE_NO":"１５號","E_COORD97":168737.23999999999,"N_COORD97":2547301.8999999999,"ADDRESS":"府安路四段１６９巷１５號","OBJECTID":308669},"geometry":{"x":168737.24000000022,"y":2547301.9000000022}},{"attributes":{"ID":308678,"DIS_CODE":0,"TOWNNAME":"安南區","LI":"溪頂里","LIN":"7鄰","STREET":"府安路","SECT":"四段","MAREA":" ","LANE":"１６９巷","ALLEY":" ","HOUSE_NO":"１６號","E_COORD97":168760.5,"N_COORD97":2547304.1899999999,"ADDRESS":"府安路四段１６９巷１６號","OBJECTID":308670},"geometry":{"x":168760.5,"y":2547304.1900000032}},{"attributes":{"ID":308679,"DIS_CODE":0,"TOWNNAME":"安南區","LI":"溪頂里","LIN":"7鄰","STREET":"府安路","SECT":"四段","MAREA":" ","LANE":"１６９巷","ALLEY":" ","HOUSE_NO":"１７號","E_COORD97":168736.70999999999,"N_COORD97":2547308.4399999999,"ADDRESS":"府安路四段１６９巷１７號","OBJECTID":308671},"geometry":{"x":168736.70999999996,"y":2547308.4399999995}},{"attributes":{"ID":308680,"DIS_CODE":0,"TOWNNAME":"安南區","LI":"溪頂里","LIN":"7鄰","STREET":"府安路","SECT":"四段","MAREA":" ","LANE":"１６９巷","ALLEY":" ","HOUSE_NO":"２號","E_COORD97":168764.67999999999,"N_COORD97":2547260.1299999999,"ADDRESS":"府安路四段１６９巷２號","OBJECTID":308672},"geometry":{"x":168764.68000000063,"y":2547260.1300000027}},{"attributes":{"ID":308681,"DIS_CODE":0,"TOWNNAME":"永康區","LI":"復華里","LIN":"5鄰","STREET":"國華街","SECT":" ","MAREA":" ","LANE":"１０２巷","ALLEY":" ","HOUSE_NO":"８４號九樓之１","E_COORD97":172962.35999999999,"N_COORD97":2546145.02,"ADDRESS":"國華街１０２巷８４號九樓之１","OBJECTID":308673},"geometry":{"x":172962.36000000034,"y":2546145.0199999996}},{"attributes":{"ID":308682,"DIS_CODE":0,"TOWNNAME":"永康區","LI":"西橋里","LIN":"4鄰","STREET":"中華西街","SECT":" ","MAREA":" ","LANE":"２１巷","ALLEY":" ","HOUSE_NO":"１７號三樓之１","E_COORD97":170777.75,"N_COORD97":2545919.5499999998,"ADDRESS":"中華西街２１巷１７號三樓之１","OBJECTID":308674},"geometry":{"x":170777.75,"y":2545919.5500000007}},{"attributes":{"ID":308683,"DIS_CODE":0,"TOWNNAME":"永康區","LI":"正強里","LIN":"5鄰","STREET":"中正路","SECT":" ","MAREA":" ","LANE":"５５巷","ALLEY":" ","HOUSE_NO":"６號七樓之２","E_COORD97":173572.45000000001,"N_COORD97":2547795.4900000002,"ADDRESS":"中正路５５巷６號七樓之２","OBJECTID":308675},"geometry":{"x":173572.45000000205,"y":2547795.4900000021}},{"attributes":{"ID":308684,"DIS_CODE":0,"TOWNNAME":"永康區","LI":"正強里","LIN":"5鄰","STREET":"中正路","SECT":" ","MAREA":" ","LANE":"５５巷","ALLEY":" ","HOUSE_NO":"８號四樓之１","E_COORD97":173558.79999999999,"N_COORD97":2547783.4900000002,"ADDRESS":"中正路５５巷８號四樓之１","OBJECTID":308676},"geometry":{"x":173558.79999999981,"y":2547783.4900000002}},{"attributes":{"ID":308685,"DIS_CODE":0,"TOWNNAME":"安南區","LI":"溪頂里","LIN":"7鄰","STREET":"府安路","SECT":"四段","MAREA":" ","LANE":"１６９巷","ALLEY":" ","HOUSE_NO":"４號","E_COORD97":168764.26000000001,"N_COORD97":2547266.54,"ADDRESS":"府安路四段１６９巷４號","OBJECTID":308677},"geometry":{"x":168764.26000000071,"y":2547266.5399999991}},{"attributes":{"ID":308686,"DIS_CODE":0,"TOWNNAME":"安南區","LI":"溪頂里","LIN":"7鄰","STREET":"府安路","SECT":"四段","MAREA":" ","LANE":"１６９巷","ALLEY":" ","HOUSE_NO":"５號","E_COORD97":168740.98000000001,"N_COORD97":2547270.6699999999,"ADDRESS":"府安路四段１６９巷５號","OBJECTID":308678},"geometry":{"x":168740.97999999952,"y":2547270.6699999999}},{"attributes":{"ID":308687,"DIS_CODE":0,"TOWNNAME":"安南區","LI":"溪頂里","LIN":"7鄰","STREET":"府安路","SECT":"四段","MAREA":" ","LANE":"１６９巷","ALLEY":" ","HOUSE_NO":"６號","E_COORD97":168763.42999999999,"N_COORD97":2547273.1000000001,"ADDRESS":"府安路四段１６９巷６號","OBJECTID":308679},"geometry":{"x":168763.43000000063,"y":2547273.0999999996}},{"attributes":{"ID":308688,"DIS_CODE":0,"TOWNNAME":"安南區","LI":"溪頂里","LIN":"7鄰","STREET":"府安路","SECT":"四段","MAREA":" ","LANE":"１６９巷","ALLEY":" ","HOUSE_NO":"７號","E_COORD97":168740.32000000001,"N_COORD97":2547277.0800000001,"ADDRESS":"府安路四段１６９巷７號","OBJECTID":308680},"geometry":{"x":168740.32000000216,"y":2547277.0800000001}},{"attributes":{"ID":308689,"DIS_CODE":0,"TOWNNAME":"南區","LI":"再興里","LIN":"17鄰","STREET":"金華路","SECT":"二段","MAREA":" ","LANE":" ","ALLEY":" ","HOUSE_NO":"１７２號七樓之２","E_COORD97":167125.57000000001,"N_COORD97":2542273.6499999999,"ADDRESS":"金華路二段１７２號七樓之２","OBJECTID":308681},"geometry":{"x":167125.57000000123,"y":2542273.6500000004}},{"attributes":{"ID":308690,"DIS_CODE":0,"TOWNNAME":"南區","LI":"再興里","LIN":"17鄰","STREET":"金華路","SECT":"二段","MAREA":" ","LANE":" ","ALLEY":" ","HOUSE_NO":"１７２號七樓之３","E_COORD97":167125.57000000001,"N_COORD97":2542273.6499999999,"ADDRESS":"金華路二段１７２號七樓之３","OBJECTID":308682},"geometry":{"x":167125.57000000123,"y":2542273.6500000004}},{"attributes":{"ID":308691,"DIS_CODE":0,"TOWNNAME":"南區","LI":"再興里","LIN":"17鄰","STREET":"金華路","SECT":"二段","MAREA":" ","LANE":" ","ALLEY":" ","HOUSE_NO":"１７２號七樓之５","E_COORD97":167125.57000000001,"N_COORD97":2542273.6499999999,"ADDRESS":"金華路二段１７２號七樓之５","OBJECTID":308683},"geometry":{"x":167125.57000000123,"y":2542273.6500000004}},{"attributes":{"ID":308692,"DIS_CODE":0,"TOWNNAME":"南區","LI":"再興里","LIN":"17鄰","STREET":"金華路","SECT":"二段","MAREA":" ","LANE":" ","ALLEY":" ","HOUSE_NO":"１７２號七樓之６","E_COORD97":167125.57000000001,"N_COORD97":2542273.6499999999,"ADDRESS":"金華路二段１７２號七樓之６","OBJECTID":308684},"geometry":{"x":167125.57000000123,"y":2542273.6500000004}},{"attributes":{"ID":308693,"DIS_CODE":0,"TOWNNAME":"永康區","LI":"網寮里","LIN":"20鄰","STREET":"永二街","SECT":" ","MAREA":" ","LANE":"２４５巷","ALLEY":" ","HOUSE_NO":"２７號之９六樓","E_COORD97":173324.48999999999,"N_COORD97":2546124.6299999999,"ADDRESS":"永二街２４５巷２７號之９六樓","OBJECTID":308685},"geometry":{"x":173324.48999999929,"y":2546124.6300000008}},{"attributes":{"ID":308694,"DIS_CODE":0,"TOWNNAME":"永康區","LI":"勝利里","LIN":"20鄰","STREET":"勝學路","SECT":" ","MAREA":" ","LANE":"２６９巷","ALLEY":" ","HOUSE_NO":"２號四樓之２","E_COORD97":171173.42000000001,"N_COORD97":2545316.0499999998,"ADDRESS":"勝學路２６９巷２號四樓之２","OBJECTID":308686},"geometry":{"x":171173.41999999993,"y":2545316.0500000007}},{"attributes":{"ID":308695,"DIS_CODE":0,"TOWNNAME":"永康區","LI":"龍潭里","LIN":"43鄰","STREET":"國民路","SECT":" ","MAREA":" ","LANE":"２３１巷","ALLEY":" ","HOUSE_NO":"３３號三樓","E_COORD97":174588.13,"N_COORD97":2547030.3799999999,"ADDRESS":"國民路２３１巷３３號三樓","OBJECTID":308687},"geometry":{"x":174588.13000000082,"y":2547030.379999999}},{"attributes":{"ID":308696,"DIS_CODE":0,"TOWNNAME":"安南區","LI":"溪頂里","LIN":"7鄰","STREET":"府安路","SECT":"四段","MAREA":" ","LANE":"１６９巷","ALLEY":" ","HOUSE_NO":"８號","E_COORD97":168763.29000000001,"N_COORD97":2547279.0899999999,"ADDRESS":"府安路四段１６９巷８號","OBJECTID":308688},"geometry":{"x":168763.29000000004,"y":2547279.0900000017}},{"attributes":{"ID":308697,"DIS_CODE":0,"TOWNNAME":"安南區","LI":"溪頂里","LIN":"7鄰","STREET":"府安路","SECT":"四段","MAREA":" ","LANE":"１６９巷","ALLEY":" ","HOUSE_NO":"９號","E_COORD97":168739.51000000001,"N_COORD97":2547282.8199999998,"ADDRESS":"府安路四段１６９巷９號","OBJECTID":308689},"geometry":{"x":168739.50999999978,"y":2547282.8200000003}},{"attributes":{"ID":308698,"DIS_CODE":0,"TOWNNAME":"安南區","LI":"溪頂里","LIN":"7鄰","STREET":"府安路","SECT":"四段","MAREA":" ","LANE":"１７６巷","ALLEY":" ","HOUSE_NO":"１０號","E_COORD97":168724.95000000001,"N_COORD97":2547282.02,"ADDRESS":"府安路四段１７６巷１０號","OBJECTID":308690},"geometry":{"x":168724.95000000019,"y":2547282.0200000033}},{"attributes":{"ID":308699,"DIS_CODE":0,"TOWNNAME":"安南區","LI":"溪頂里","LIN":"7鄰","STREET":"府安路","SECT":"四段","MAREA":" ","LANE":"１７６巷","ALLEY":" ","HOUSE_NO":"１１號","E_COORD97":168701.70999999999,"N_COORD97":2547285.6200000001,"ADDRESS":"府安路四段１７６巷１１號","OBJECTID":308691},"geometry":{"x":168701.71000000183,"y":2547285.620000001}},{"attributes":{"ID":308700,"DIS_CODE":0,"TOWNNAME":"安南區","LI":"溪頂里","LIN":"7鄰","STREET":"府安路","SECT":"四段","MAREA":" ","LANE":"１７６巷","ALLEY":" ","HOUSE_NO":"１２號","E_COORD97":168724.42000000001,"N_COORD97":2547288.4199999999,"ADDRESS":"府安路四段１７６巷１２號","OBJECTID":308692},"geometry":{"x":168724.42000000086,"y":2547288.4199999999}},{"attributes":{"ID":308701,"DIS_CODE":0,"TOWNNAME":"安南區","LI":"溪頂里","LIN":"7鄰","STREET":"府安路","SECT":"四段","MAREA":" ","LANE":"１７６巷","ALLEY":" ","HOUSE_NO":"１３號","E_COORD97":168701.44,"N_COORD97":2547292.1600000001,"ADDRESS":"府安路四段１７６巷１３號","OBJECTID":308693},"geometry":{"x":168701.44000000134,"y":2547292.160000002}},{"attributes":{"ID":308702,"DIS_CODE":0,"TOWNNAME":"南區","LI":"再興里","LIN":"17鄰","STREET":"金華路","SECT":"二段","MAREA":" ","LANE":" ","ALLEY":" ","HOUSE_NO":"１７２號七樓之７","E_COORD97":167125.57000000001,"N_COORD97":2542273.6499999999,"ADDRESS":"金華路二段１７２號七樓之７","OBJECTID":308694},"geometry":{"x":167125.57000000123,"y":2542273.6500000004}},{"attributes":{"ID":308703,"DIS_CODE":0,"TOWNNAME":"南區","LI":"再興里","LIN":"17鄰","STREET":"金華路","SECT":"二段","MAREA":" ","LANE":" ","ALLEY":" ","HOUSE_NO":"１７２號七樓之８","E_COORD97":167125.57000000001,"N_COORD97":2542273.6499999999,"ADDRESS":"金華路二段１７２號七樓之８","OBJECTID":308695},"geometry":{"x":167125.57000000123,"y":2542273.6500000004}},{"attributes":{"ID":308704,"DIS_CODE":0,"TOWNNAME":"南區","LI":"再興里","LIN":"17鄰","STREET":"金華路","SECT":"二段","MAREA":" ","LANE":" ","ALLEY":" ","HOUSE_NO":"１７２號二樓","E_COORD97":167125.57000000001,"N_COORD97":2542273.6499999999,"ADDRESS":"金華路二段１７２號二樓","OBJECTID":308696},"geometry":{"x":167125.57000000123,"y":2542273.6500000004}},{"attributes":{"ID":308705,"DIS_CODE":0,"TOWNNAME":"安南區","LI":"溪頂里","LIN":"7鄰","STREET":"府安路","SECT":"四段","MAREA":" ","LANE":"１７６巷","ALLEY":" ","HOUSE_NO":"１４號","E_COORD97":168723.75,"N_COORD97":2547294.4300000002,"ADDRESS":"府安路四段１７６巷１４號","OBJECTID":308697},"geometry":{"x":168723.75000000093,"y":2547294.4299999997}},{"attributes":{"ID":308706,"DIS_CODE":0,"TOWNNAME":"安南區","LI":"溪頂里","LIN":"7鄰","STREET":"府安路","SECT":"四段","MAREA":" ","LANE":"１７６巷","ALLEY":" ","HOUSE_NO":"１５號","E_COORD97":168700.67000000001,"N_COORD97":2547297.96,"ADDRESS":"府安路四段１７６巷１５號","OBJECTID":308698},"geometry":{"x":168700.67000000086,"y":2547297.9600000028}},{"attributes":{"ID":308707,"DIS_CODE":0,"TOWNNAME":"安南區","LI":"溪頂里","LIN":"7鄰","STREET":"府安路","SECT":"四段","MAREA":" ","LANE":"１７６巷","ALLEY":" ","HOUSE_NO":"１６號","E_COORD97":168723.62,"N_COORD97":2547300.8300000001,"ADDRESS":"府安路四段１７６巷１６號","OBJECTID":308699},"geometry":{"x":168723.62000000104,"y":2547300.8300000038}},{"attributes":{"ID":308708,"DIS_CODE":0,"TOWNNAME":"安南區","LI":"溪頂里","LIN":"7鄰","STREET":"府安路","SECT":"四段","MAREA":" ","LANE":"１７６巷","ALLEY":" ","HOUSE_NO":"１７號","E_COORD97":168699.17999999999,"N_COORD97":2547304.8700000001,"ADDRESS":"府安路四段１７６巷１７號","OBJECTID":308700},"geometry":{"x":168699.1799999997,"y":2547304.8700000048}},{"attributes":{"ID":308709,"DIS_CODE":0,"TOWNNAME":"東山區","LI":"南溪里","LIN":" ","STREET":" ","SECT":" ","MAREA":" ","LANE":"土窯巷","ALLEY":" ","HOUSE_NO":"９號","E_COORD97":189010.26999999999,"N_COORD97":2574372.1499999999,"ADDRESS":"土窯巷９號","OBJECTID":308701},"geometry":{"x":189010.26999999955,"y":2574372.1500000022}},{"attributes":{"ID":308710,"DIS_CODE":0,"TOWNNAME":"安南區","LI":"溪頂里","LIN":"7鄰","STREET":"府安路","SECT":"四段","MAREA":" ","LANE":"１７６巷","ALLEY":" ","HOUSE_NO":"１號","E_COORD97":168705.31,"N_COORD97":2547254.79,"ADDRESS":"府安路四段１７６巷１號","OBJECTID":308702},"geometry":{"x":168705.30999999959,"y":2547254.7899999991}},{"attributes":{"ID":308711,"DIS_CODE":0,"TOWNNAME":"安南區","LI":"溪頂里","LIN":"7鄰","STREET":"府安路","SECT":"四段","MAREA":" ","LANE":"１７６巷","ALLEY":" ","HOUSE_NO":"２號","E_COORD97":168727.62,"N_COORD97":2547256.52,"ADDRESS":"府安路四段１７６巷２號","OBJECTID":308703},"geometry":{"x":168727.62000000011,"y":2547256.5199999996}},{"attributes":{"ID":308712,"DIS_CODE":0,"TOWNNAME":"安南區","LI":"溪頂里","LIN":"7鄰","STREET":"府安路","SECT":"四段","MAREA":" ","LANE":"１７６巷","ALLEY":" ","HOUSE_NO":"３號","E_COORD97":168704.51000000001,"N_COORD97":2547261.0600000001,"ADDRESS":"府安路四段１７６巷３號","OBJECTID":308704},"geometry":{"x":168704.50999999885,"y":2547261.0600000005}},{"attributes":{"ID":308713,"DIS_CODE":0,"TOWNNAME":"安南區","LI":"溪頂里","LIN":"7鄰","STREET":"府安路","SECT":"四段","MAREA":" ","LANE":"１７６巷","ALLEY":" ","HOUSE_NO":"４號","E_COORD97":168727.09,"N_COORD97":2547263.0600000001,"ADDRESS":"府安路四段１７６巷４號","OBJECTID":308705},"geometry":{"x":168727.08999999985,"y":2547263.0600000024}},{"attributes":{"ID":308714,"DIS_CODE":0,"TOWNNAME":"安南區","LI":"溪頂里","LIN":"7鄰","STREET":"府安路","SECT":"四段","MAREA":" ","LANE":"１７６巷","ALLEY":" ","HOUSE_NO":"５號","E_COORD97":168703.57999999999,"N_COORD97":2547267.2000000002,"ADDRESS":"府安路四段１７６巷５號","OBJECTID":308706},"geometry":{"x":168703.58000000101,"y":2547267.2000000011}},{"attributes":{"ID":308715,"DIS_CODE":0,"TOWNNAME":"安南區","LI":"溪頂里","LIN":"7鄰","STREET":"府安路","SECT":"四段","MAREA":" ","LANE":"１７６巷","ALLEY":" ","HOUSE_NO":"６號","E_COORD97":168725.89000000001,"N_COORD97":2547269.4700000002,"ADDRESS":"府安路四段１７６巷６號","OBJECTID":308707},"geometry":{"x":168725.8900000006,"y":2547269.4700000007}},{"attributes":{"ID":308716,"DIS_CODE":0,"TOWNNAME":"安南區","LI":"溪頂里","LIN":"7鄰","STREET":"府安路","SECT":"四段","MAREA":" ","LANE":"１７６巷","ALLEY":" ","HOUSE_NO":"７號","E_COORD97":168703.31,"N_COORD97":2547273.4700000002,"ADDRESS":"府安路四段１７６巷７號","OBJECTID":308708},"geometry":{"x":168703.30999999959,"y":2547273.4700000025}},{"attributes":{"ID":308717,"DIS_CODE":0,"TOWNNAME":"安南區","LI":"溪頂里","LIN":"7鄰","STREET":"府安路","SECT":"四段","MAREA":" ","LANE":"１７６巷","ALLEY":" ","HOUSE_NO":"８號","E_COORD97":168725.48999999999,"N_COORD97":2547275.7400000002,"ADDRESS":"府安路四段１７６巷８號","OBJECTID":308709},"geometry":{"x":168725.49000000209,"y":2547275.7400000021}},{"attributes":{"ID":308718,"DIS_CODE":0,"TOWNNAME":"安南區","LI":"溪頂里","LIN":"7鄰","STREET":"府安路","SECT":"四段","MAREA":" ","LANE":"１７６巷","ALLEY":" ","HOUSE_NO":"９號","E_COORD97":168702.10999999999,"N_COORD97":2547279.6099999999,"ADDRESS":"府安路四段１７６巷９號","OBJECTID":308710},"geometry":{"x":168702.11000000034,"y":2547279.6099999994}},{"attributes":{"ID":308719,"DIS_CODE":0,"TOWNNAME":"善化區","LI":"光文里","LIN":"7鄰","STREET":"建業路","SECT":" ","MAREA":" ","LANE":"２４５巷","ALLEY":" ","HOUSE_NO":"４６號","E_COORD97":178002.85000000001,"N_COORD97":2560205.7799999998,"ADDRESS":"建業路２４５巷４６號","OBJECTID":308711},"geometry":{"x":178002.84999999963,"y":2560205.7799999993}},{"attributes":{"ID":308720,"DIS_CODE":0,"TOWNNAME":"善化區","LI":"光文里","LIN":"7鄰","STREET":"建業路","SECT":" ","MAREA":" ","LANE":"２４５巷","ALLEY":" ","HOUSE_NO":"３７號","E_COORD97":177969.41,"N_COORD97":2560081.0299999998,"ADDRESS":"建業路２４５巷３７號","OBJECTID":308712},"geometry":{"x":177969.41000000015,"y":2560081.0300000012}},{"attributes":{"ID":308721,"DIS_CODE":0,"TOWNNAME":"善化區","LI":"光文里","LIN":"7鄰","STREET":"建業路","SECT":" ","MAREA":" ","LANE":"２４５巷","ALLEY":" ","HOUSE_NO":"３３號之２","E_COORD97":178094.70999999999,"N_COORD97":2560050.2799999998,"ADDRESS":"建業路２４５巷３３號之２","OBJECTID":308713},"geometry":{"x":178094.70999999903,"y":2560050.2799999993}},{"attributes":{"ID":308722,"DIS_CODE":0,"TOWNNAME":"善化區","LI":"光文里","LIN":"7鄰","STREET":"建業路","SECT":" ","MAREA":" ","LANE":"２４５巷","ALLEY":" ","HOUSE_NO":"３６號","E_COORD97":178020.54000000001,"N_COORD97":2559950.0299999998,"ADDRESS":"建業路２４５巷３６號","OBJECTID":308714},"geometry":{"x":178020.54000000097,"y":2559950.0299999993}},{"attributes":{"ID":308723,"DIS_CODE":0,"TOWNNAME":"善化區","LI":"光文里","LIN":"7鄰","STREET":"光文路","SECT":" ","MAREA":" ","LANE":"２７巷","ALLEY":" ","HOUSE_NO":"４號之１","E_COORD97":179001.17999999999,"N_COORD97":2559478.5299999998,"ADDRESS":"光文路２７巷４號之１","OBJECTID":308715},"geometry":{"x":179001.1799999997,"y":2559478.5299999993}},{"attributes":{"ID":308724,"DIS_CODE":0,"TOWNNAME":"善化區","LI":"光文里","LIN":"7鄰","STREET":"建業路","SECT":" ","MAREA":" ","LANE":"２４５巷","ALLEY":" ","HOUSE_NO":"４７號","E_COORD97":178040.89999999999,"N_COORD97":2560285.0299999998,"ADDRESS":"建業路２４５巷４７號","OBJECTID":308716},"geometry":{"x":178040.90000000037,"y":2560285.0300000012}},{"attributes":{"ID":308725,"DIS_CODE":0,"TOWNNAME":"善化區","LI":"光文里","LIN":"7鄰","STREET":"光文路","SECT":" ","MAREA":" ","LANE":"３９巷","ALLEY":" ","HOUSE_NO":"４號","E_COORD97":178989.5,"N_COORD97":2559505.2799999998,"ADDRESS":"光文路３９巷４號","OBJECTID":308717},"geometry":{"x":178989.49999999907,"y":2559505.2799999975}},{"attributes":{"ID":308726,"DIS_CODE":0,"TOWNNAME":"善化區","LI":"光文里","LIN":"7鄰","STREET":"光文路","SECT":" ","MAREA":" ","LANE":"３９巷","ALLEY":" ","HOUSE_NO":"４６號","E_COORD97":178902.84,"N_COORD97":2559521.2799999998,"ADDRESS":"光文路３９巷４６號","OBJECTID":308718},"geometry":{"x":178902.84000000078,"y":2559521.2799999993}},{"attributes":{"ID":308727,"DIS_CODE":0,"TOWNNAME":"善化區","LI":"光文里","LIN":"7鄰","STREET":"光文路","SECT":" ","MAREA":" ","LANE":"３９巷","ALLEY":" ","HOUSE_NO":"２７號","E_COORD97":178940.5,"N_COORD97":2559497.0299999998,"ADDRESS":"光文路３９巷２７號","OBJECTID":308719},"geometry":{"x":178940.50000000186,"y":2559497.0300000031}},{"attributes":{"ID":308728,"DIS_CODE":0,"TOWNNAME":"善化區","LI":"光文里","LIN":"7鄰","STREET":"光文路","SECT":" ","MAREA":" ","LANE":"３９巷","ALLEY":" ","HOUSE_NO":"３０號","E_COORD97":178936.14999999999,"N_COORD97":2559515.0299999998,"ADDRESS":"光文路３９巷３０號","OBJECTID":308720},"geometry":{"x":178936.15000000037,"y":2559515.0300000012}},{"attributes":{"ID":308729,"DIS_CODE":0,"TOWNNAME":"善化區","LI":"光文里","LIN":"7鄰","STREET":"光文路","SECT":" ","MAREA":" ","LANE":"３９巷","ALLEY":" ","HOUSE_NO":"４４號","E_COORD97":178906.95000000001,"N_COORD97":2559520.5299999998,"ADDRESS":"光文路３９巷４４號","OBJECTID":308721},"geometry":{"x":178906.95000000019,"y":2559520.5299999975}},{"attributes":{"ID":308730,"DIS_CODE":0,"TOWNNAME":"善化區","LI":"南關里","LIN":"7鄰","STREET":"三民路","SECT":" ","MAREA":" ","LANE":"南興巷","ALLEY":" ","HOUSE_NO":"１６號","E_COORD97":176931.54000000001,"N_COORD97":2558621.7599999998,"ADDRESS":"三民路南興巷１６號","OBJECTID":308722},"geometry":{"x":176931.5400000019,"y":2558621.7600000016}},{"attributes":{"ID":308731,"DIS_CODE":0,"TOWNNAME":"善化區","LI":"光文里","LIN":"7鄰","STREET":"光文路","SECT":" ","MAREA":" ","LANE":"２７巷","ALLEY":" ","HOUSE_NO":"４號之２","E_COORD97":179003.29999999999,"N_COORD97":2559483.0299999998,"ADDRESS":"光文路２７巷４號之２","OBJECTID":308723},"geometry":{"x":179003.30000000075,"y":2559483.0299999993}},{"attributes":{"ID":308732,"DIS_CODE":0,"TOWNNAME":"東區","LI":"自強里","LIN":"23鄰","STREET":"富農街","SECT":"一段","MAREA":" ","LANE":"１９１巷","ALLEY":" ","HOUSE_NO":"４號十樓","E_COORD97":171530.84,"N_COORD97":2542591.23,"ADDRESS":"富農街一段１９１巷４號十樓","OBJECTID":308724},"geometry":{"x":171530.84000000078,"y":2542591.2300000004}},{"attributes":{"ID":308733,"DIS_CODE":0,"TOWNNAME":"善化區","LI":"光文里","LIN":"7鄰","STREET":"建業路","SECT":" ","MAREA":" ","LANE":"１９０巷","ALLEY":" ","HOUSE_NO":"６１號","E_COORD97":178972.10000000001,"N_COORD97":2559984.5299999998,"ADDRESS":"建業路１９０巷６１號","OBJECTID":308725},"geometry":{"x":178972.10000000056,"y":2559984.5299999993}},{"attributes":{"ID":308734,"DIS_CODE":0,"TOWNNAME":"永康區","LI":"蔦松里","LIN":"7鄰","STREET":"蔦松一街","SECT":" ","MAREA":" ","LANE":"２２巷","ALLEY":" ","HOUSE_NO":"３５號","E_COORD97":174115.60000000001,"N_COORD97":2549437.8500000001,"ADDRESS":"蔦松一街２２巷３５號","OBJECTID":308726},"geometry":{"x":174115.60000000056,"y":2549437.8499999996}},{"attributes":{"ID":308735,"DIS_CODE":0,"TOWNNAME":"永康區","LI":"新樹里","LIN":"7鄰","STREET":"西勢路","SECT":" ","MAREA":" ","LANE":"１９６巷","ALLEY":" ","HOUSE_NO":"５１號","E_COORD97":175791.45999999999,"N_COORD97":2546917.8399999999,"ADDRESS":"西勢路１９６巷５１號","OBJECTID":308727},"geometry":{"x":175791.46000000089,"y":2546917.8400000017}},{"attributes":{"ID":308736,"DIS_CODE":0,"TOWNNAME":"永康區","LI":"新樹里","LIN":"7鄰","STREET":"富強路","SECT":"二段","MAREA":" ","LANE":"５６巷","ALLEY":" ","HOUSE_NO":"１７號","E_COORD97":175765.32999999999,"N_COORD97":2546943.29,"ADDRESS":"富強路二段５６巷１７號","OBJECTID":308728},"geometry":{"x":175765.33000000101,"y":2546943.2899999991}},{"attributes":{"ID":308737,"DIS_CODE":0,"TOWNNAME":"永康區","LI":"蔦松里","LIN":"7鄰","STREET":"蔦松一街","SECT":" ","MAREA":" ","LANE":"２２巷","ALLEY":" ","HOUSE_NO":"２８號","E_COORD97":174074.48000000001,"N_COORD97":2549436.29,"ADDRESS":"蔦松一街２２巷２８號","OBJECTID":308729},"geometry":{"x":174074.48000000138,"y":2549436.290000001}},{"attributes":{"ID":308738,"DIS_CODE":0,"TOWNNAME":"善化區","LI":"南關里","LIN":"7鄰","STREET":"三民路","SECT":" ","MAREA":" ","LANE":"南興巷","ALLEY":" ","HOUSE_NO":"５２號","E_COORD97":176855.97,"N_COORD97":2558626.5099999998,"ADDRESS":"三民路南興巷５２號","OBJECTID":308730},"geometry":{"x":176855.97000000067,"y":2558626.5100000035}},{"attributes":{"ID":308739,"DIS_CODE":0,"TOWNNAME":"善化區","LI":"南關里","LIN":"7鄰","STREET":"三民路","SECT":" ","MAREA":" ","LANE":"南興巷","ALLEY":" ","HOUSE_NO":"４２號","E_COORD97":176877.06,"N_COORD97":2558624.5099999998,"ADDRESS":"三民路南興巷４２號","OBJECTID":308731},"geometry":{"x":176877.06000000052,"y":2558624.5100000016}},{"attributes":{"ID":308740,"DIS_CODE":0,"TOWNNAME":"善化區","LI":"南關里","LIN":"7鄰","STREET":"三民路","SECT":" ","MAREA":" ","LANE":"六合巷","ALLEY":" ","HOUSE_NO":"２０號","E_COORD97":176973.01000000001,"N_COORD97":2558756.2599999998,"ADDRESS":"三民路六合巷２０號","OBJECTID":308732},"geometry":{"x":176973.00999999978,"y":2558756.2599999998}},{"attributes":{"ID":308741,"DIS_CODE":0,"TOWNNAME":"新營區","LI":"王公里","LIN":"27鄰","STREET":"民族路","SECT":" ","MAREA":" ","LANE":" ","ALLEY":" ","HOUSE_NO":"２４９號","E_COORD97":180386.48999999999,"N_COORD97":2579599.7200000002,"ADDRESS":"民族路２４９號","OBJECTID":308733},"geometry":{"x":180386.49000000022,"y":2579599.7200000025}},{"attributes":{"ID":308742,"DIS_CODE":0,"TOWNNAME":"永康區","LI":"五王里","LIN":"32鄰","STREET":"中華路","SECT":" ","MAREA":" ","LANE":"５７８巷","ALLEY":" ","HOUSE_NO":"２號之１六樓之２","E_COORD97":171238.03,"N_COORD97":2545914.2999999998,"ADDRESS":"中華路５７８巷２號之１六樓之２","OBJECTID":308734},"geometry":{"x":171238.03000000119,"y":2545914.3000000007}},{"attributes":{"ID":308743,"DIS_CODE":0,"TOWNNAME":"永康區","LI":"五王里","LIN":"41鄰","STREET":"中山南路","SECT":" ","MAREA":" ","LANE":"２６２巷","ALLEY":" ","HOUSE_NO":"２號七樓之７","E_COORD97":171549.28,"N_COORD97":2546054.6200000001,"ADDRESS":"中山南路２６２巷２號七樓之７","OBJECTID":308735},"geometry":{"x":171549.28000000026,"y":2546054.620000001}},{"attributes":{"ID":308744,"DIS_CODE":0,"TOWNNAME":"永康區","LI":"大橋里","LIN":"4鄰","STREET":"大橋一街","SECT":" ","MAREA":" ","LANE":"２４７巷","ALLEY":" ","HOUSE_NO":"１６７號四樓之１","E_COORD97":171018.85000000001,"N_COORD97":2547037.52,"ADDRESS":"大橋一街２４７巷１６７號四樓之１","OBJECTID":308736},"geometry":{"x":171018.84999999963,"y":2547037.5199999977}},{"attributes":{"ID":308745,"DIS_CODE":0,"TOWNNAME":"善化區","LI":"南關里","LIN":"7鄰","STREET":"三民路","SECT":" ","MAREA":" ","LANE":"南興巷","ALLEY":" ","HOUSE_NO":"１０號","E_COORD97":176944.32000000001,"N_COORD97":2558620.5099999998,"ADDRESS":"三民路南興巷１０號","OBJECTID":308737},"geometry":{"x":176944.3200000003,"y":2558620.5100000016}},{"attributes":{"ID":308746,"DIS_CODE":0,"TOWNNAME":"善化區","LI":"坐駕里","LIN":"7鄰","STREET":"青年路","SECT":" ","MAREA":" ","LANE":"１０５巷","ALLEY":" ","HOUSE_NO":"３號","E_COORD97":177827.04000000001,"N_COORD97":2558809.25,"ADDRESS":"青年路１０５巷３號","OBJECTID":308738},"geometry":{"x":177827.04000000097,"y":2558809.2500000019}},{"attributes":{"ID":308747,"DIS_CODE":0,"TOWNNAME":"善化區","LI":"南關里","LIN":"7鄰","STREET":"三民路","SECT":" ","MAREA":" ","LANE":"南興巷","ALLEY":" ","HOUSE_NO":"３８號","E_COORD97":176885.25,"N_COORD97":2558623.7599999998,"ADDRESS":"三民路南興巷３８號","OBJECTID":308739},"geometry":{"x":176885.25,"y":2558623.7599999998}},{"attributes":{"ID":308748,"DIS_CODE":0,"TOWNNAME":"善化區","LI":"南關里","LIN":"7鄰","STREET":"三民路","SECT":" ","MAREA":" ","LANE":"南興巷","ALLEY":" ","HOUSE_NO":"５１號","E_COORD97":176855.48000000001,"N_COORD97":2558609.5099999998,"ADDRESS":"三民路南興巷５１號","OBJECTID":308740},"geometry":{"x":176855.48000000045,"y":2558609.5100000035}},{"attributes":{"ID":308749,"DIS_CODE":0,"TOWNNAME":"善化區","LI":"南關里","LIN":"7鄰","STREET":"三民路","SECT":" ","MAREA":" ","LANE":"六合巷","ALLEY":" ","HOUSE_NO":"２２號","E_COORD97":176968.89999999999,"N_COORD97":2558757.7599999998,"ADDRESS":"三民路六合巷２２號","OBJECTID":308741},"geometry":{"x":176968.9000000013,"y":2558757.7600000016}},{"attributes":{"ID":308750,"DIS_CODE":0,"TOWNNAME":"永康區","LI":"三合里","LIN":"7鄰","STREET":"南工街","SECT":" ","MAREA":" ","LANE":"１０３巷","ALLEY":" ","HOUSE_NO":"７號","E_COORD97":172066.56,"N_COORD97":2545713.1200000001,"ADDRESS":"南工街１０３巷７號","OBJECTID":308742},"geometry":{"x":172066.55999999959,"y":2545713.1200000048}},{"attributes":{"ID":308751,"DIS_CODE":0,"TOWNNAME":"永康區","LI":"大橋里","LIN":"7鄰","STREET":"大橋三街","SECT":" ","MAREA":" ","LANE":"１９９巷","ALLEY":" ","HOUSE_NO":"４７號","E_COORD97":170902.22,"N_COORD97":2546871.3999999999,"ADDRESS":"大橋三街１９９巷４７號","OBJECTID":308743},"geometry":{"x":170902.22000000067,"y":2546871.4000000022}},{"attributes":{"ID":308752,"DIS_CODE":0,"TOWNNAME":"永康區","LI":"二王里","LIN":"7鄰","STREET":"永二街","SECT":" ","MAREA":" ","LANE":"４０４巷","ALLEY":" ","HOUSE_NO":"６號","E_COORD97":172776.35000000001,"N_COORD97":2546704.4900000002,"ADDRESS":"永二街４０４巷６號","OBJECTID":308744},"geometry":{"x":172776.35000000056,"y":2546704.4900000021}},{"attributes":{"ID":308753,"DIS_CODE":0,"TOWNNAME":"永康區","LI":"二王里","LIN":"7鄰","STREET":"中山南路","SECT":" ","MAREA":" ","LANE":"８１４巷","ALLEY":" ","HOUSE_NO":"１２號","E_COORD97":172809.59,"N_COORD97":2546747.3900000001,"ADDRESS":"中山南路８１４巷１２號","OBJECTID":308745},"geometry":{"x":172809.58999999985,"y":2546747.3900000006}},{"attributes":{"ID":308754,"DIS_CODE":0,"TOWNNAME":"永康區","LI":"二王里","LIN":"7鄰","STREET":"永二街","SECT":" ","MAREA":" ","LANE":"４０４巷","ALLEY":" ","HOUSE_NO":"１０號","E_COORD97":172771.67999999999,"N_COORD97":2546737,"ADDRESS":"永二街４０４巷１０號","OBJECTID":308746},"geometry":{"x":172771.6799999997,"y":2546737.0000000019}},{"attributes":{"ID":308755,"DIS_CODE":0,"TOWNNAME":"安南區","LI":"溪頂里","LIN":"7鄰","STREET":"府安路","SECT":"四段","MAREA":" ","LANE":"１６９巷","ALLEY":" ","HOUSE_NO":"３號","E_COORD97":168741.64999999999,"N_COORD97":2547264.1299999999,"ADDRESS":"府安路四段１６９巷３號","OBJECTID":308747},"geometry":{"x":168741.65000000224,"y":2547264.1300000008}},{"attributes":{"ID":308756,"DIS_CODE":0,"TOWNNAME":"南區","LI":"再興里","LIN":"17鄰","STREET":"金華路","SECT":"二段","MAREA":" ","LANE":" ","ALLEY":" ","HOUSE_NO":"１７２號八樓之１","E_COORD97":167125.57000000001,"N_COORD97":2542273.6499999999,"ADDRESS":"金華路二段１７２號八樓之１","OBJECTID":308748},"geometry":{"x":167125.57000000123,"y":2542273.6500000004}},{"attributes":{"ID":308757,"DIS_CODE":0,"TOWNNAME":"南區","LI":"再興里","LIN":"17鄰","STREET":"金華路","SECT":"二段","MAREA":" ","LANE":" ","ALLEY":" ","HOUSE_NO":"１７２號八樓之２","E_COORD97":167125.57000000001,"N_COORD97":2542273.6499999999,"ADDRESS":"金華路二段１７２號八樓之２","OBJECTID":308749},"geometry":{"x":167125.57000000123,"y":2542273.6500000004}},{"attributes":{"ID":308758,"DIS_CODE":0,"TOWNNAME":"南區","LI":"再興里","LIN":"17鄰","STREET":"金華路","SECT":"二段","MAREA":" ","LANE":" ","ALLEY":" ","HOUSE_NO":"１７２號八樓之３","E_COORD97":167125.57000000001,"N_COORD97":2542273.6499999999,"ADDRESS":"金華路二段１７２號八樓之３","OBJECTID":308750},"geometry":{"x":167125.57000000123,"y":2542273.6500000004}},{"attributes":{"ID":308759,"DIS_CODE":0,"TOWNNAME":"永康區","LI":"復國里","LIN":"25鄰","STREET":"復華三街","SECT":" ","MAREA":" ","LANE":"９０巷","ALLEY":" ","HOUSE_NO":"１８號七樓之２","E_COORD97":172639.67999999999,"N_COORD97":2545614.2999999998,"ADDRESS":"復華三街９０巷１８號七樓之２","OBJECTID":308751},"geometry":{"x":172639.68000000156,"y":2545614.3000000026}},{"attributes":{"ID":308760,"DIS_CODE":0,"TOWNNAME":"安南區","LI":"幸福里","LIN":"7鄰","STREET":"國安街","SECT":" ","MAREA":" ","LANE":"１５５巷","ALLEY":" ","HOUSE_NO":"４６號","E_COORD97":166751,"N_COORD97":2546831.8199999998,"ADDRESS":"國安街１５５巷４６號","OBJECTID":308752},"geometry":{"x":166751.00000000093,"y":2546831.8200000003}},{"attributes":{"ID":308761,"DIS_CODE":0,"TOWNNAME":"安南區","LI":"幸福里","LIN":"7鄰","STREET":"國安街","SECT":" ","MAREA":" ","LANE":"１５５巷","ALLEY":" ","HOUSE_NO":"３６號","E_COORD97":166747.66,"N_COORD97":2546862.3399999999,"ADDRESS":"國安街１５５巷３６號","OBJECTID":308753},"geometry":{"x":166747.65999999922,"y":2546862.3399999999}},{"attributes":{"ID":308762,"DIS_CODE":0,"TOWNNAME":"安南區","LI":"頂安里","LIN":"7鄰","STREET":"頂安街","SECT":" ","MAREA":" ","LANE":"４７９巷","ALLEY":" ","HOUSE_NO":"８號","E_COORD97":168771.10999999999,"N_COORD97":2549290.8999999999,"ADDRESS":"頂安街４７９巷８號","OBJECTID":308754},"geometry":{"x":168771.11000000127,"y":2549290.9000000022}},{"attributes":{"ID":308763,"DIS_CODE":0,"TOWNNAME":"安南區","LI":"安慶里","LIN":"7鄰","STREET":"怡安路","SECT":"一段","MAREA":" ","LANE":"３０３巷","ALLEY":" ","HOUSE_NO":"１０號","E_COORD97":168912.23000000001,"N_COORD97":2549076.3700000001,"ADDRESS":"怡安路一段３０３巷１０號","OBJECTID":308755},"geometry":{"x":168912.22999999952,"y":2549076.370000001}},{"attributes":{"ID":308764,"DIS_CODE":0,"TOWNNAME":"東區","LI":"東光里","LIN":"7鄰","STREET":"東興路","SECT":" ","MAREA":" ","LANE":"１６９巷","ALLEY":" ","HOUSE_NO":"８號","E_COORD97":170963.89000000001,"N_COORD97":2543816.0299999998,"ADDRESS":"東興路１６９巷８號","OBJECTID":308756},"geometry":{"x":170963.8900000006,"y":2543816.0299999993}},{"attributes":{"ID":308765,"DIS_CODE":0,"TOWNNAME":"東區","LI":"東光里","LIN":"7鄰","STREET":"東興路","SECT":" ","MAREA":" ","LANE":"１６９巷","ALLEY":" ","HOUSE_NO":"２號","E_COORD97":170983.63,"N_COORD97":2543809.79,"ADDRESS":"東興路１６９巷２號","OBJECTID":308757},"geometry":{"x":170983.62999999989,"y":2543809.7899999991}},{"attributes":{"ID":308766,"DIS_CODE":0,"TOWNNAME":"東區","LI":"東光里","LIN":"7鄰","STREET":"東興路","SECT":" ","MAREA":" ","LANE":"１６９巷","ALLEY":" ","HOUSE_NO":"６號","E_COORD97":170970.72,"N_COORD97":2543813.21,"ADDRESS":"東興路１６９巷６號","OBJECTID":308758},"geometry":{"x":170970.71999999974,"y":2543813.2100000009}},{"attributes":{"ID":308767,"DIS_CODE":0,"TOWNNAME":"東區","LI":"東光里","LIN":"7鄰","STREET":"東興路","SECT":" ","MAREA":" ","LANE":"１６９巷","ALLEY":" ","HOUSE_NO":"１０號","E_COORD97":170957.39999999999,"N_COORD97":2543814.04,"ADDRESS":"東興路１６９巷１０號","OBJECTID":308759},"geometry":{"x":170957.4000000013,"y":2543814.040000001}},{"attributes":{"ID":308768,"DIS_CODE":0,"TOWNNAME":"東區","LI":"東光里","LIN":"7鄰","STREET":"東興路","SECT":" ","MAREA":" ","LANE":"１６９巷","ALLEY":" ","HOUSE_NO":"１２號","E_COORD97":170953.48000000001,"N_COORD97":2543817.1200000001,"ADDRESS":"東興路１６９巷１２號","OBJECTID":308760},"geometry":{"x":170953.48000000138,"y":2543817.120000001}},{"attributes":{"ID":308769,"DIS_CODE":0,"TOWNNAME":"南區","LI":"再興里","LIN":"17鄰","STREET":"金華路","SECT":"二段","MAREA":" ","LANE":" ","ALLEY":" ","HOUSE_NO":"１７２號八樓之４","E_COORD97":167125.57000000001,"N_COORD97":2542273.6499999999,"ADDRESS":"金華路二段１７２號八樓之４","OBJECTID":308761},"geometry":{"x":167125.57000000123,"y":2542273.6500000004}},{"attributes":{"ID":308770,"DIS_CODE":0,"TOWNNAME":"歸仁區","LI":"新厝里","LIN":"27鄰","STREET":"中正五街","SECT":" ","MAREA":" ","LANE":"３７巷","ALLEY":" ","HOUSE_NO":"１１號","E_COORD97":177025.82118299999,"N_COORD97":2540074.8846700001,"ADDRESS":"中正五街３７巷１１號","OBJECTID":308762},"geometry":{"x":177025.82118299976,"y":2540074.8846710008}},{"attributes":{"ID":308771,"DIS_CODE":0,"TOWNNAME":"仁德區","LI":"新田里","LIN":"13鄰","STREET":"北保一街","SECT":" ","MAREA":" ","LANE":"１巷","ALLEY":" ","HOUSE_NO":"１８號五樓","E_COORD97":173250.23000000001,"N_COORD97":2539392.0099999998,"ADDRESS":"北保一街１巷１８號五樓","OBJECTID":308763},"geometry":{"x":173250.22999999952,"y":2539392.0099999998}},{"attributes":{"ID":308772,"DIS_CODE":0,"TOWNNAME":"北區","LI":"安民里","LIN":"11鄰","STREET":"國華街","SECT":"四段","MAREA":" ","LANE":"９巷","ALLEY":" ","HOUSE_NO":"５號","E_COORD97":167983.35999999999,"N_COORD97":2544592.21,"ADDRESS":"國華街四段９巷５號","OBJECTID":308764},"geometry":{"x":167983.36000000034,"y":2544592.2100000009}},{"attributes":{"ID":308773,"DIS_CODE":0,"TOWNNAME":"東區","LI":"東光里","LIN":"7鄰","STREET":"東興路","SECT":" ","MAREA":" ","LANE":"１６９巷","ALLEY":" ","HOUSE_NO":"１４號","E_COORD97":170948.82000000001,"N_COORD97":2543815.04,"ADDRESS":"東興路１６９巷１４號","OBJECTID":308765},"geometry":{"x":170948.8200000003,"y":2543815.0399999991}},{"attributes":{"ID":308774,"DIS_CODE":0,"TOWNNAME":"南區","LI":"再興里","LIN":"17鄰","STREET":"金華路","SECT":"二段","MAREA":" ","LANE":" ","ALLEY":" ","HOUSE_NO":"１７２號八樓之５","E_COORD97":167125.57000000001,"N_COORD97":2542273.6499999999,"ADDRESS":"金華路二段１７２號八樓之５","OBJECTID":308766},"geometry":{"x":167125.57000000123,"y":2542273.6500000004}},{"attributes":{"ID":308775,"DIS_CODE":0,"TOWNNAME":"東山區","LI":"南勢里","LIN":" ","STREET":" ","SECT":" ","MAREA":"大洋","LANE":" ","ALLEY":" ","HOUSE_NO":"５３號","E_COORD97":195318.98000000001,"N_COORD97":2573231.23,"ADDRESS":"大洋５３號","OBJECTID":308767},"geometry":{"x":195318.98000000138,"y":2573231.2300000042}},{"attributes":{"ID":308776,"DIS_CODE":0,"TOWNNAME":"南區","LI":"再興里","LIN":"17鄰","STREET":"金華路","SECT":"二段","MAREA":" ","LANE":" ","ALLEY":" ","HOUSE_NO":"１７２號八樓之６","E_COORD97":167125.57000000001,"N_COORD97":2542273.6499999999,"ADDRESS":"金華路二段１７２號八樓之６","OBJECTID":308768},"geometry":{"x":167125.57000000123,"y":2542273.6500000004}},{"attributes":{"ID":308777,"DIS_CODE":0,"TOWNNAME":"南區","LI":"南華里","LIN":"5鄰","STREET":"中華南路","SECT":"二段","MAREA":" ","LANE":" ","ALLEY":" ","HOUSE_NO":"３７８號","E_COORD97":166461.09,"N_COORD97":2540298.6299999999,"ADDRESS":"中華南路二段３７８號","OBJECTID":308769},"geometry":{"x":166461.08999999985,"y":2540298.629999999}},{"attributes":{"ID":308778,"DIS_CODE":0,"TOWNNAME":"中西區","LI":"大涼里","LIN":"7鄰","STREET":"府前路","SECT":"二段","MAREA":" ","LANE":"２５８巷","ALLEY":" ","HOUSE_NO":"６１號二樓","E_COORD97":167072.82999999999,"N_COORD97":2543910,"ADDRESS":"府前路二段２５８巷６１號二樓","OBJECTID":308770},"geometry":{"x":167072.83000000007,"y":2543910.0000000019}},{"attributes":{"ID":308779,"DIS_CODE":0,"TOWNNAME":"安南區","LI":"鳳凰里","LIN":"24鄰","STREET":"怡安路","SECT":"二段","MAREA":" ","LANE":"５４５巷","ALLEY":" ","HOUSE_NO":"１０號七樓","E_COORD97":167506.10000000001,"N_COORD97":2549379.1200000001,"ADDRESS":"怡安路二段５４５巷１０號七樓","OBJECTID":308771},"geometry":{"x":167506.10000000056,"y":2549379.1200000029}},{"attributes":{"ID":308780,"DIS_CODE":0,"TOWNNAME":"安南區","LI":"鳳凰里","LIN":"24鄰","STREET":"怡安路","SECT":"二段","MAREA":" ","LANE":"５４５巷","ALLEY":" ","HOUSE_NO":"１０號九樓","E_COORD97":167506.10000000001,"N_COORD97":2549379.1200000001,"ADDRESS":"怡安路二段５４５巷１０號九樓","OBJECTID":308772},"geometry":{"x":167506.10000000056,"y":2549379.1200000029}},{"attributes":{"ID":308781,"DIS_CODE":0,"TOWNNAME":"安南區","LI":"鳳凰里","LIN":"24鄰","STREET":"怡安路","SECT":"二段","MAREA":" ","LANE":"５４５巷","ALLEY":" ","HOUSE_NO":"１０號八樓","E_COORD97":167506.10000000001,"N_COORD97":2549379.1200000001,"ADDRESS":"怡安路二段５４５巷１０號八樓","OBJECTID":308773},"geometry":{"x":167506.10000000056,"y":2549379.1200000029}},{"attributes":{"ID":308782,"DIS_CODE":0,"TOWNNAME":"東區","LI":"自強里","LIN":"23鄰","STREET":"富農街","SECT":"一段","MAREA":" ","LANE":"１９９巷","ALLEY":" ","HOUSE_NO":"７號三樓","E_COORD97":171530.57999999999,"N_COORD97":2542620.3300000001,"ADDRESS":"富農街一段１９９巷７號三樓","OBJECTID":308774},"geometry":{"x":171530.58000000101,"y":2542620.3300000001}},{"attributes":{"ID":308783,"DIS_CODE":0,"TOWNNAME":"東區","LI":"自強里","LIN":"20鄰","STREET":"中華東路","SECT":"二段","MAREA":" ","LANE":"２４３巷","ALLEY":" ","HOUSE_NO":"４１號七樓","E_COORD97":171381.91,"N_COORD97":2542585.96,"ADDRESS":"中華東路二段２４３巷４１號七樓","OBJECTID":308775},"geometry":{"x":171381.91000000015,"y":2542585.9600000028}},{"attributes":{"ID":308784,"DIS_CODE":0,"TOWNNAME":"東區","LI":"自強里","LIN":"20鄰","STREET":"中華東路","SECT":"二段","MAREA":" ","LANE":"２４３巷","ALLEY":" ","HOUSE_NO":"４１號二樓","E_COORD97":171381.91,"N_COORD97":2542585.96,"ADDRESS":"中華東路二段２４３巷４１號二樓","OBJECTID":308776},"geometry":{"x":171381.91000000015,"y":2542585.9600000028}},{"attributes":{"ID":308785,"DIS_CODE":0,"TOWNNAME":"東區","LI":"自強里","LIN":"20鄰","STREET":"中華東路","SECT":"二段","MAREA":" ","LANE":"２４３巷","ALLEY":" ","HOUSE_NO":"４１號三樓","E_COORD97":171381.91,"N_COORD97":2542585.96,"ADDRESS":"中華東路二段２４３巷４１號三樓","OBJECTID":308777},"geometry":{"x":171381.91000000015,"y":2542585.9600000028}},{"attributes":{"ID":308786,"DIS_CODE":0,"TOWNNAME":"東區","LI":"自強里","LIN":"20鄰","STREET":"中華東路","SECT":"二段","MAREA":" ","LANE":"２４３巷","ALLEY":" ","HOUSE_NO":"４１號五樓","E_COORD97":171381.91,"N_COORD97":2542585.96,"ADDRESS":"中華東路二段２４３巷４１號五樓","OBJECTID":308778},"geometry":{"x":171381.91000000015,"y":2542585.9600000028}},{"attributes":{"ID":308787,"DIS_CODE":0,"TOWNNAME":"南區","LI":"再興里","LIN":"17鄰","STREET":"金華路","SECT":"二段","MAREA":" ","LANE":" ","ALLEY":" ","HOUSE_NO":"１７２號八樓之７","E_COORD97":167125.57000000001,"N_COORD97":2542273.6499999999,"ADDRESS":"金華路二段１７２號八樓之７","OBJECTID":308779},"geometry":{"x":167125.57000000123,"y":2542273.6500000004}},{"attributes":{"ID":308788,"DIS_CODE":0,"TOWNNAME":"南區","LI":"再興里","LIN":"17鄰","STREET":"金華路","SECT":"二段","MAREA":" ","LANE":" ","ALLEY":" ","HOUSE_NO":"１７２號八樓之８","E_COORD97":167125.57000000001,"N_COORD97":2542273.6499999999,"ADDRESS":"金華路二段１７２號八樓之８","OBJECTID":308780},"geometry":{"x":167125.57000000123,"y":2542273.6500000004}},{"attributes":{"ID":308789,"DIS_CODE":0,"TOWNNAME":"南區","LI":"再興里","LIN":"17鄰","STREET":"金華路","SECT":"二段","MAREA":" ","LANE":" ","ALLEY":" ","HOUSE_NO":"１７２號三樓之１","E_COORD97":167125.57000000001,"N_COORD97":2542273.6499999999,"ADDRESS":"金華路二段１７２號三樓之１","OBJECTID":308781},"geometry":{"x":167125.57000000123,"y":2542273.6500000004}},{"attributes":{"ID":308790,"DIS_CODE":0,"TOWNNAME":"南區","LI":"再興里","LIN":"17鄰","STREET":"金華路","SECT":"二段","MAREA":" ","LANE":" ","ALLEY":" ","HOUSE_NO":"１７２號三樓之２","E_COORD97":167125.57000000001,"N_COORD97":2542273.6499999999,"ADDRESS":"金華路二段１７２號三樓之２","OBJECTID":308782},"geometry":{"x":167125.57000000123,"y":2542273.6500000004}},{"attributes":{"ID":308791,"DIS_CODE":0,"TOWNNAME":"南區","LI":"再興里","LIN":"17鄰","STREET":"金華路","SECT":"二段","MAREA":" ","LANE":" ","ALLEY":" ","HOUSE_NO":"１７２號三樓之３","E_COORD97":167125.57000000001,"N_COORD97":2542273.6499999999,"ADDRESS":"金華路二段１７２號三樓之３","OBJECTID":308783},"geometry":{"x":167125.57000000123,"y":2542273.6500000004}},{"attributes":{"ID":308792,"DIS_CODE":0,"TOWNNAME":"南區","LI":"再興里","LIN":"17鄰","STREET":"金華路","SECT":"二段","MAREA":" ","LANE":" ","ALLEY":" ","HOUSE_NO":"１７２號三樓之４","E_COORD97":167125.57000000001,"N_COORD97":2542273.6499999999,"ADDRESS":"金華路二段１７２號三樓之４","OBJECTID":308784},"geometry":{"x":167125.57000000123,"y":2542273.6500000004}},{"attributes":{"ID":308793,"DIS_CODE":0,"TOWNNAME":"新營區","LI":"王公里","LIN":"25鄰","STREET":"公正街","SECT":" ","MAREA":" ","LANE":" ","ALLEY":" ","HOUSE_NO":"１０９號","E_COORD97":180148.81,"N_COORD97":2579529.96,"ADDRESS":"公正街１０９號","OBJECTID":308785},"geometry":{"x":180148.81000000052,"y":2579529.9600000028}},{"attributes":{"ID":308794,"DIS_CODE":0,"TOWNNAME":"新營區","LI":"嘉芳里","LIN":"14鄰","STREET":"四維路","SECT":" ","MAREA":" ","LANE":" ","ALLEY":" ","HOUSE_NO":"２４號","E_COORD97":176149.91,"N_COORD97":2578582.5499999998,"ADDRESS":"四維路２４號","OBJECTID":308786},"geometry":{"x":176149.91000000108,"y":2578582.5500000007}},{"attributes":{"ID":308795,"DIS_CODE":0,"TOWNNAME":"南區","LI":"再興里","LIN":"17鄰","STREET":"金華路","SECT":"二段","MAREA":" ","LANE":" ","ALLEY":" ","HOUSE_NO":"１７２號三樓之５","E_COORD97":167125.57000000001,"N_COORD97":2542273.6499999999,"ADDRESS":"金華路二段１７２號三樓之５","OBJECTID":308787},"geometry":{"x":167125.57000000123,"y":2542273.6500000004}},{"attributes":{"ID":308796,"DIS_CODE":0,"TOWNNAME":"南區","LI":"再興里","LIN":"17鄰","STREET":"金華路","SECT":"二段","MAREA":" ","LANE":" ","ALLEY":" ","HOUSE_NO":"１７２號三樓之６","E_COORD97":167125.57000000001,"N_COORD97":2542273.6499999999,"ADDRESS":"金華路二段１７２號三樓之６","OBJECTID":308788},"geometry":{"x":167125.57000000123,"y":2542273.6500000004}},{"attributes":{"ID":308797,"DIS_CODE":0,"TOWNNAME":"東區","LI":"自強里","LIN":"20鄰","STREET":"中華東路","SECT":"二段","MAREA":" ","LANE":"２４３巷","ALLEY":" ","HOUSE_NO":"４３號七樓","E_COORD97":171391.73999999999,"N_COORD97":2542586.6600000001,"ADDRESS":"中華東路二段２４３巷４３號七樓","OBJECTID":308789},"geometry":{"x":171391.74000000022,"y":2542586.660000002}},{"attributes":{"ID":308798,"DIS_CODE":0,"TOWNNAME":"東區","LI":"自強里","LIN":"20鄰","STREET":"中華東路","SECT":"二段","MAREA":" ","LANE":"２４３巷","ALLEY":" ","HOUSE_NO":"４３號二樓","E_COORD97":171391.73999999999,"N_COORD97":2542586.6600000001,"ADDRESS":"中華東路二段２４３巷４３號二樓","OBJECTID":308790},"geometry":{"x":171391.74000000022,"y":2542586.660000002}},{"attributes":{"ID":308799,"DIS_CODE":0,"TOWNNAME":"麻豆區","LI":"大埕里","LIN":"7鄰","STREET":"中正路","SECT":" ","MAREA":" ","LANE":"１３７巷","ALLEY":" ","HOUSE_NO":"１０號","E_COORD97":173277.04999999999,"N_COORD97":2565242.6000000001,"ADDRESS":"中正路１３７巷１０號","OBJECTID":308791},"geometry":{"x":173277.05000000075,"y":2565242.5999999996}},{"attributes":{"ID":308800,"DIS_CODE":0,"TOWNNAME":"麻豆區","LI":"大埕里","LIN":"7鄰","STREET":"中正路","SECT":" ","MAREA":" ","LANE":"１３７巷","ALLEY":" ","HOUSE_NO":"１２號","E_COORD97":173272.60999999999,"N_COORD97":2565243.73,"ADDRESS":"中正路１３７巷１２號","OBJECTID":308792},"geometry":{"x":173272.61000000034,"y":2565243.7300000042}},{"attributes":{"ID":308801,"DIS_CODE":0,"TOWNNAME":"麻豆區","LI":"大埕里","LIN":"7鄰","STREET":"中正路","SECT":" ","MAREA":" ","LANE":"１３７巷","ALLEY":" ","HOUSE_NO":"１６號","E_COORD97":173267.85000000001,"N_COORD97":2565245.0600000001,"ADDRESS":"中正路１３７巷１６號","OBJECTID":308793},"geometry":{"x":173267.85000000056,"y":2565245.0600000024}},{"attributes":{"ID":308802,"DIS_CODE":0,"TOWNNAME":"麻豆區","LI":"大埕里","LIN":"7鄰","STREET":"中正路","SECT":" ","MAREA":" ","LANE":"１３７巷","ALLEY":" ","HOUSE_NO":"１８號","E_COORD97":173263.73999999999,"N_COORD97":2565245.9700000002,"ADDRESS":"中正路１３７巷１８號","OBJECTID":308794},"geometry":{"x":173263.74000000115,"y":2565245.9700000025}},{"attributes":{"ID":308803,"DIS_CODE":0,"TOWNNAME":"麻豆區","LI":"大埕里","LIN":"7鄰","STREET":"中正路","SECT":" ","MAREA":" ","LANE":"１３７巷","ALLEY":" ","HOUSE_NO":"２０號","E_COORD97":173259.31,"N_COORD97":2565247.0899999999,"ADDRESS":"中正路１３７巷２０號","OBJECTID":308795},"geometry":{"x":173259.31000000052,"y":2565247.089999998}},{"attributes":{"ID":308804,"DIS_CODE":0,"TOWNNAME":"麻豆區","LI":"大埕里","LIN":"7鄰","STREET":"中正路","SECT":" ","MAREA":" ","LANE":"１３７巷","ALLEY":" ","HOUSE_NO":"２２號","E_COORD97":173254.87,"N_COORD97":2565248.2200000002,"ADDRESS":"中正路１３７巷２２號","OBJECTID":308796},"geometry":{"x":173254.87000000104,"y":2565248.2200000025}},{"attributes":{"ID":308805,"DIS_CODE":0,"TOWNNAME":"麻豆區","LI":"大埕里","LIN":"7鄰","STREET":"中正路","SECT":" ","MAREA":" ","LANE":"１３７巷","ALLEY":" ","HOUSE_NO":"２６號","E_COORD97":173250.42999999999,"N_COORD97":2565249.3399999999,"ADDRESS":"中正路１３７巷２６號","OBJECTID":308797},"geometry":{"x":173250.43000000063,"y":2565249.3400000017}},{"attributes":{"ID":308806,"DIS_CODE":0,"TOWNNAME":"麻豆區","LI":"大埕里","LIN":"7鄰","STREET":"中正路","SECT":" ","MAREA":" ","LANE":"１３７巷","ALLEY":" ","HOUSE_NO":"２號","E_COORD97":173290.35000000001,"N_COORD97":2565239.23,"ADDRESS":"中正路１３７巷２號","OBJECTID":308798},"geometry":{"x":173290.34999999963,"y":2565239.2300000004}},{"attributes":{"ID":308807,"DIS_CODE":0,"TOWNNAME":"麻豆區","LI":"大埕里","LIN":"7鄰","STREET":"中正路","SECT":" ","MAREA":" ","LANE":"１３７巷","ALLEY":" ","HOUSE_NO":"６號","E_COORD97":173285.92000000001,"N_COORD97":2565240.3599999999,"ADDRESS":"中正路１３７巷６號","OBJECTID":308799},"geometry":{"x":173285.92000000086,"y":2565240.3599999994}},{"attributes":{"ID":308808,"DIS_CODE":0,"TOWNNAME":"麻豆區","LI":"大埕里","LIN":"7鄰","STREET":"中正路","SECT":" ","MAREA":" ","LANE":"１３７巷","ALLEY":" ","HOUSE_NO":"８號","E_COORD97":173281.48000000001,"N_COORD97":2565241.48,"ADDRESS":"中正路１３７巷８號","OBJECTID":308800},"geometry":{"x":173281.48000000138,"y":2565241.4800000004}}]}