{"displayFieldName":"TOWNNAME","fieldAliases":{"ID":"ID","DIS_CODE":"DIS_CODE","TOWNNAME":"TOWNNAME","LI":"LI","LIN":"LIN","STREET":"STREET","SECT":"SECT","MAREA":"MAREA","LANE":"LANE","ALLEY":"ALLEY","HOUSE_NO":"HOUSE_NO","E_COORD97":"E_COORD97","N_COORD97":"N_COORD97","ADDRESS":"ADDRESS","OBJECTID":"OBJECTID"},"geometryType":"esriGeometryPoint","spatialReference":{"wkid":102443,"latestWkid":3826},"fields":[{"name":"ID","type":"esriFieldTypeDouble","alias":"ID"},{"name":"DIS_CODE","type":"esriFieldTypeInteger","alias":"DIS_CODE"},{"name":"TOWNNAME","type":"esriFieldTypeString","alias":"TOWNNAME","length":8},{"name":"LI","type":"esriFieldTypeString","alias":"LI","length":8},{"name":"LIN","type":"esriFieldTypeString","alias":"LIN","length":12},{"name":"STREET","type":"esriFieldTypeString","alias":"STREET","length":20},{"name":"SECT","type":"esriFieldTypeString","alias":"SECT","length":8},{"name":"MAREA","type":"esriFieldTypeString","alias":"MAREA","length":12},{"name":"LANE","type":"esriFieldTypeString","alias":"LANE","length":10},{"name":"ALLEY","type":"esriFieldTypeString","alias":"ALLEY","length":10},{"name":"HOUSE_NO","type":"esriFieldTypeString","alias":"HOUSE_NO","length":20},{"name":"E_COORD97","type":"esriFieldTypeDouble","alias":"E_COORD97"},{"name":"N_COORD97","type":"esriFieldTypeDouble","alias":"N_COORD97"},{"name":"ADDRESS","type":"esriFieldTypeString","alias":"ADDRESS","length":50},{"name":"OBJECTID","type":"esriFieldTypeOID","alias":"OBJECTID"}],"features":[{"attributes":{"ID":622028,"DIS_CODE":0,"TOWNNAME":"善化區","LI":"東關里","LIN":" ","STREET":"中山路","SECT":" ","MAREA":" ","LANE":" ","ALLEY":" ","HOUSE_NO":"３７７之７號","E_COORD97":177470.14000000001,"N_COORD97":2559095.77,"ADDRESS":"中山路３７７之７號","OBJECTID":622001},"geometry":{"x":177470.1400000006,"y":2559095.7700000033}},{"attributes":{"ID":622029,"DIS_CODE":0,"TOWNNAME":"善化區","LI":"東關里","LIN":" ","STREET":"中山路","SECT":" ","MAREA":" ","LANE":" ","ALLEY":" ","HOUSE_NO":"３７７之１１９號","E_COORD97":177464.42000000001,"N_COORD97":2559040.27,"ADDRESS":"中山路３７７之１１９號","OBJECTID":622002},"geometry":{"x":177464.42000000179,"y":2559040.2699999996}},{"attributes":{"ID":622030,"DIS_CODE":0,"TOWNNAME":"善化區","LI":"坐駕里","LIN":"18鄰","STREET":"興華路","SECT":" ","MAREA":" ","LANE":" ","ALLEY":" ","HOUSE_NO":"２２４號","E_COORD97":178252.07999999999,"N_COORD97":2558595,"ADDRESS":"興華路２２４號","OBJECTID":622003},"geometry":{"x":178252.08000000101,"y":2558595}},{"attributes":{"ID":622031,"DIS_CODE":0,"TOWNNAME":"善化區","LI":"東關里","LIN":" ","STREET":"中山路","SECT":" ","MAREA":" ","LANE":" ","ALLEY":" ","HOUSE_NO":"３７７之２０號","E_COORD97":177439.89000000001,"N_COORD97":2559065.27,"ADDRESS":"中山路３７７之２０號","OBJECTID":622004},"geometry":{"x":177439.88999999966,"y":2559065.2700000033}},{"attributes":{"ID":622032,"DIS_CODE":0,"TOWNNAME":"善化區","LI":"東關里","LIN":"17鄰","STREET":"大信路","SECT":" ","MAREA":" ","LANE":" ","ALLEY":" ","HOUSE_NO":"１７號","E_COORD97":177505.28,"N_COORD97":2559009.5,"ADDRESS":"大信路１７號","OBJECTID":622005},"geometry":{"x":177505.28000000119,"y":2559009.4999999981}},{"attributes":{"ID":622033,"DIS_CODE":0,"TOWNNAME":"善化區","LI":"東關里","LIN":"8鄰","STREET":"中山路","SECT":" ","MAREA":" ","LANE":" ","ALLEY":" ","HOUSE_NO":"４５１號","E_COORD97":177287.01999999999,"N_COORD97":2559114.25,"ADDRESS":"中山路４５１號","OBJECTID":622006},"geometry":{"x":177287.02000000142,"y":2559114.2500000019}},{"attributes":{"ID":622034,"DIS_CODE":0,"TOWNNAME":"善化區","LI":"東關里","LIN":" ","STREET":"中山路","SECT":" ","MAREA":" ","LANE":" ","ALLEY":" ","HOUSE_NO":"３７７之１２４號","E_COORD97":177466.16,"N_COORD97":2559059.02,"ADDRESS":"中山路３７７之１２４號","OBJECTID":622007},"geometry":{"x":177466.16000000015,"y":2559059.0199999996}},{"attributes":{"ID":622035,"DIS_CODE":0,"TOWNNAME":"安南區","LI":"海佃里","LIN":"4鄰","STREET":"國安街","SECT":" ","MAREA":" ","LANE":" ","ALLEY":" ","HOUSE_NO":"１４２號","E_COORD97":166779.72,"N_COORD97":2546980.1800000002,"ADDRESS":"國安街１４２號","OBJECTID":622008},"geometry":{"x":166779.72000000067,"y":2546980.1800000016}},{"attributes":{"ID":622036,"DIS_CODE":0,"TOWNNAME":"安南區","LI":"海佃里","LIN":"4鄰","STREET":"國安街","SECT":" ","MAREA":" ","LANE":" ","ALLEY":" ","HOUSE_NO":"１４４號","E_COORD97":166775.06,"N_COORD97":2546980.1800000002,"ADDRESS":"國安街１４４號","OBJECTID":622009},"geometry":{"x":166775.06000000145,"y":2546980.1800000016}},{"attributes":{"ID":622037,"DIS_CODE":0,"TOWNNAME":"善化區","LI":"東關里","LIN":"20鄰","STREET":"中山路","SECT":" ","MAREA":" ","LANE":" ","ALLEY":" ","HOUSE_NO":"３６３號","E_COORD97":177535.48000000001,"N_COORD97":2559089,"ADDRESS":"中山路３６３號","OBJECTID":622010},"geometry":{"x":177535.48000000045,"y":2559089.0000000019}},{"attributes":{"ID":622038,"DIS_CODE":0,"TOWNNAME":"善化區","LI":"南關里","LIN":"4鄰","STREET":"三民路","SECT":" ","MAREA":" ","LANE":" ","ALLEY":" ","HOUSE_NO":"２０號之２","E_COORD97":177084.29000000001,"N_COORD97":2558895.27,"ADDRESS":"三民路２０號之２","OBJECTID":622011},"geometry":{"x":177084.29000000097,"y":2558895.2699999977}},{"attributes":{"ID":622039,"DIS_CODE":0,"TOWNNAME":"善化區","LI":"東關里","LIN":" ","STREET":"大同路","SECT":" ","MAREA":" ","LANE":" ","ALLEY":" ","HOUSE_NO":"３９２之１號","E_COORD97":177346.32000000001,"N_COORD97":2559084.02,"ADDRESS":"大同路３９２之１號","OBJECTID":622012},"geometry":{"x":177346.3200000003,"y":2559084.0200000014}},{"attributes":{"ID":622040,"DIS_CODE":0,"TOWNNAME":"善化區","LI":"南關里","LIN":"4鄰","STREET":"自由路","SECT":" ","MAREA":" ","LANE":" ","ALLEY":" ","HOUSE_NO":"１１６號之２","E_COORD97":177121.26999999999,"N_COORD97":2558902.77,"ADDRESS":"自由路１１６號之２","OBJECTID":622013},"geometry":{"x":177121.27000000048,"y":2558902.7700000014}},{"attributes":{"ID":622041,"DIS_CODE":0,"TOWNNAME":"善化區","LI":"東關里","LIN":" ","STREET":"中山路","SECT":" ","MAREA":" ","LANE":" ","ALLEY":" ","HOUSE_NO":"３７７之１６號","E_COORD97":177438.48999999999,"N_COORD97":2559042.77,"ADDRESS":"中山路３７７之１６號","OBJECTID":622014},"geometry":{"x":177438.49000000022,"y":2559042.7700000014}},{"attributes":{"ID":622042,"DIS_CODE":0,"TOWNNAME":"善化區","LI":"坐駕里","LIN":"18鄰","STREET":"信義路","SECT":" ","MAREA":" ","LANE":" ","ALLEY":" ","HOUSE_NO":"４１號","E_COORD97":178294.76000000001,"N_COORD97":2558621.5,"ADDRESS":"信義路４１號","OBJECTID":622015},"geometry":{"x":178294.76000000071,"y":2558621.5000000019}},{"attributes":{"ID":622043,"DIS_CODE":0,"TOWNNAME":"安南區","LI":"海佃里","LIN":"4鄰","STREET":"國安街","SECT":" ","MAREA":" ","LANE":" ","ALLEY":" ","HOUSE_NO":"１４６號","E_COORD97":166770.41,"N_COORD97":2546978.1899999999,"ADDRESS":"國安街１４６號","OBJECTID":622016},"geometry":{"x":166770.41000000108,"y":2546978.1899999995}},{"attributes":{"ID":622044,"DIS_CODE":0,"TOWNNAME":"安南區","LI":"海佃里","LIN":"4鄰","STREET":"國安街","SECT":" ","MAREA":" ","LANE":" ","ALLEY":" ","HOUSE_NO":"１４８號","E_COORD97":166765.75,"N_COORD97":2546977.52,"ADDRESS":"國安街１４８號","OBJECTID":622017},"geometry":{"x":166765.75000000093,"y":2546977.5200000014}},{"attributes":{"ID":622045,"DIS_CODE":0,"TOWNNAME":"安南區","LI":"海佃里","LIN":"4鄰","STREET":"國安街","SECT":" ","MAREA":" ","LANE":" ","ALLEY":" ","HOUSE_NO":"１５２號","E_COORD97":166756.44,"N_COORD97":2546976.2000000002,"ADDRESS":"國安街１５２號","OBJECTID":622018},"geometry":{"x":166756.44000000134,"y":2546976.2000000011}},{"attributes":{"ID":622046,"DIS_CODE":0,"TOWNNAME":"安南區","LI":"海佃里","LIN":"4鄰","STREET":"國安街","SECT":" ","MAREA":" ","LANE":" ","ALLEY":" ","HOUSE_NO":"１５４號","E_COORD97":166751.12,"N_COORD97":2546974.2000000002,"ADDRESS":"國安街１５４號","OBJECTID":622019},"geometry":{"x":166751.12000000011,"y":2546974.1999999993}},{"attributes":{"ID":622047,"DIS_CODE":0,"TOWNNAME":"善化區","LI":"東關里","LIN":"8鄰","STREET":"中山路","SECT":" ","MAREA":" ","LANE":" ","ALLEY":" ","HOUSE_NO":"４４１號","E_COORD97":177303.57999999999,"N_COORD97":2559113.75,"ADDRESS":"中山路４４１號","OBJECTID":622020},"geometry":{"x":177303.58000000007,"y":2559113.7500000019}},{"attributes":{"ID":622048,"DIS_CODE":0,"TOWNNAME":"善化區","LI":"南關里","LIN":"7鄰","STREET":"三民路","SECT":" ","MAREA":" ","LANE":" ","ALLEY":" ","HOUSE_NO":"３號之１２","E_COORD97":177025.67000000001,"N_COORD97":2558741.02,"ADDRESS":"三民路３號之１２","OBJECTID":622021},"geometry":{"x":177025.67000000086,"y":2558741.0199999977}},{"attributes":{"ID":622049,"DIS_CODE":0,"TOWNNAME":"麻豆區","LI":"穀興里","LIN":"11鄰","STREET":"中山路","SECT":" ","MAREA":" ","LANE":" ","ALLEY":" ","HOUSE_NO":"３６號","E_COORD97":172949.89999999999,"N_COORD97":2564837.96,"ADDRESS":"中山路３６號","OBJECTID":622022},"geometry":{"x":172949.90000000037,"y":2564837.9600000009}},{"attributes":{"ID":622050,"DIS_CODE":0,"TOWNNAME":"永康區","LI":"三合里","LIN":"7鄰","STREET":"南工街","SECT":" ","MAREA":" ","LANE":" ","ALLEY":" ","HOUSE_NO":"７３號","E_COORD97":172090.14999999999,"N_COORD97":2545657.2400000002,"ADDRESS":"南工街７３號","OBJECTID":622023},"geometry":{"x":172090.1500000013,"y":2545657.2400000039}},{"attributes":{"ID":622051,"DIS_CODE":0,"TOWNNAME":"安南區","LI":"幸福里","LIN":"2鄰","STREET":"國安街","SECT":" ","MAREA":" ","LANE":" ","ALLEY":" ","HOUSE_NO":"５３號","E_COORD97":167010.64000000001,"N_COORD97":2546998.04,"ADDRESS":"國安街５３號","OBJECTID":622024},"geometry":{"x":167010.6400000006,"y":2546998.040000001}},{"attributes":{"ID":622052,"DIS_CODE":0,"TOWNNAME":"安南區","LI":"幸福里","LIN":"4鄰","STREET":"國安街","SECT":" ","MAREA":" ","LANE":" ","ALLEY":" ","HOUSE_NO":"１０３號","E_COORD97":166882.70999999999,"N_COORD97":2546975.6800000002,"ADDRESS":"國安街１０３號","OBJECTID":622025},"geometry":{"x":166882.70999999903,"y":2546975.6800000034}},{"attributes":{"ID":622053,"DIS_CODE":0,"TOWNNAME":"安南區","LI":"幸福里","LIN":"4鄰","STREET":"國安街","SECT":" ","MAREA":" ","LANE":" ","ALLEY":" ","HOUSE_NO":"１０１號","E_COORD97":166887.66,"N_COORD97":2546976.3599999999,"ADDRESS":"國安街１０１號","OBJECTID":622026},"geometry":{"x":166887.66000000015,"y":2546976.3599999994}},{"attributes":{"ID":622054,"DIS_CODE":0,"TOWNNAME":"安南區","LI":"幸福里","LIN":"4鄰","STREET":"國安街","SECT":" ","MAREA":" ","LANE":" ","ALLEY":" ","HOUSE_NO":"１０５號","E_COORD97":166877.57000000001,"N_COORD97":2546974.7400000002,"ADDRESS":"國安街１０５號","OBJECTID":622027},"geometry":{"x":166877.57000000123,"y":2546974.7400000002}},{"attributes":{"ID":622055,"DIS_CODE":0,"TOWNNAME":"安南區","LI":"幸福里","LIN":"4鄰","STREET":"國安街","SECT":" ","MAREA":" ","LANE":" ","ALLEY":" ","HOUSE_NO":"１０７號","E_COORD97":166873.13,"N_COORD97":2546973.96,"ADDRESS":"國安街１０７號","OBJECTID":622028},"geometry":{"x":166873.13000000175,"y":2546973.9600000009}},{"attributes":{"ID":622056,"DIS_CODE":0,"TOWNNAME":"安南區","LI":"幸福里","LIN":"4鄰","STREET":"國安街","SECT":" ","MAREA":" ","LANE":" ","ALLEY":" ","HOUSE_NO":"１１５號","E_COORD97":166852.47,"N_COORD97":2546969.1099999999,"ADDRESS":"國安街１１５號","OBJECTID":622029},"geometry":{"x":166852.47000000067,"y":2546969.1100000031}},{"attributes":{"ID":622057,"DIS_CODE":0,"TOWNNAME":"安南區","LI":"幸福里","LIN":"4鄰","STREET":"國安街","SECT":" ","MAREA":" ","LANE":" ","ALLEY":" ","HOUSE_NO":"１１７號","E_COORD97":166847.01000000001,"N_COORD97":2546968.4199999999,"ADDRESS":"國安街１１７號","OBJECTID":622030},"geometry":{"x":166847.01000000071,"y":2546968.4200000018}},{"attributes":{"ID":622058,"DIS_CODE":0,"TOWNNAME":"安南區","LI":"幸福里","LIN":"4鄰","STREET":"國安街","SECT":" ","MAREA":" ","LANE":" ","ALLEY":" ","HOUSE_NO":"１１９號","E_COORD97":166842.75,"N_COORD97":2546967.9100000001,"ADDRESS":"國安街１１９號","OBJECTID":622031},"geometry":{"x":166842.75,"y":2546967.9100000039}},{"attributes":{"ID":622059,"DIS_CODE":0,"TOWNNAME":"安南區","LI":"幸福里","LIN":"4鄰","STREET":"國安街","SECT":" ","MAREA":" ","LANE":" ","ALLEY":" ","HOUSE_NO":"１２１號","E_COORD97":166838.06,"N_COORD97":2546967.3199999998,"ADDRESS":"國安街１２１號","OBJECTID":622032},"geometry":{"x":166838.06000000052,"y":2546967.3200000003}},{"attributes":{"ID":622060,"DIS_CODE":0,"TOWNNAME":"安南區","LI":"幸福里","LIN":"4鄰","STREET":"國安街","SECT":" ","MAREA":" ","LANE":" ","ALLEY":" ","HOUSE_NO":"１２３號","E_COORD97":166833.17000000001,"N_COORD97":2546966.7200000002,"ADDRESS":"國安街１２３號","OBJECTID":622033},"geometry":{"x":166833.16999999993,"y":2546966.7200000025}},{"attributes":{"ID":622061,"DIS_CODE":0,"TOWNNAME":"安南區","LI":"幸福里","LIN":"4鄰","STREET":"國安街","SECT":" ","MAREA":" ","LANE":" ","ALLEY":" ","HOUSE_NO":"９３號","E_COORD97":166906.41,"N_COORD97":2546979.8500000001,"ADDRESS":"國安街９３號","OBJECTID":622034},"geometry":{"x":166906.41000000015,"y":2546979.8499999996}},{"attributes":{"ID":622062,"DIS_CODE":0,"TOWNNAME":"安南區","LI":"幸福里","LIN":"4鄰","STREET":"國安街","SECT":" ","MAREA":" ","LANE":" ","ALLEY":" ","HOUSE_NO":"９５號","E_COORD97":166901.47,"N_COORD97":2546979.4300000002,"ADDRESS":"國安街９５號","OBJECTID":622035},"geometry":{"x":166901.47000000067,"y":2546979.4299999997}},{"attributes":{"ID":622063,"DIS_CODE":0,"TOWNNAME":"安南區","LI":"幸福里","LIN":"4鄰","STREET":"國安街","SECT":" ","MAREA":" ","LANE":" ","ALLEY":" ","HOUSE_NO":"９９號","E_COORD97":166891.92000000001,"N_COORD97":2546976.79,"ADDRESS":"國安街９９號","OBJECTID":622036},"geometry":{"x":166891.92000000086,"y":2546976.7899999991}},{"attributes":{"ID":622064,"DIS_CODE":0,"TOWNNAME":"麻豆區","LI":"中興里","LIN":"6鄰","STREET":"中興街","SECT":" ","MAREA":" ","LANE":" ","ALLEY":" ","HOUSE_NO":"６９號","E_COORD97":172857.35999999999,"N_COORD97":2564544.5299999998,"ADDRESS":"中興街６９號","OBJECTID":622037},"geometry":{"x":172857.36000000034,"y":2564544.5299999993}},{"attributes":{"ID":622065,"DIS_CODE":0,"TOWNNAME":"安南區","LI":"幸福里","LIN":"6鄰","STREET":"國安街","SECT":" ","MAREA":" ","LANE":" ","ALLEY":" ","HOUSE_NO":"１４１號","E_COORD97":166784.20999999999,"N_COORD97":2546954.2799999998,"ADDRESS":"國安街１４１號","OBJECTID":622038},"geometry":{"x":166784.20999999996,"y":2546954.2800000031}},{"attributes":{"ID":622066,"DIS_CODE":0,"TOWNNAME":"安南區","LI":"幸福里","LIN":"6鄰","STREET":"國安街","SECT":" ","MAREA":" ","LANE":" ","ALLEY":" ","HOUSE_NO":"１４３號","E_COORD97":166779.59,"N_COORD97":2546953.7999999998,"ADDRESS":"國安街１４３號","OBJECTID":622039},"geometry":{"x":166779.58999999985,"y":2546953.8000000026}},{"attributes":{"ID":622067,"DIS_CODE":0,"TOWNNAME":"麻豆區","LI":"穀興里","LIN":"12鄰","STREET":"中山路","SECT":" ","MAREA":" ","LANE":" ","ALLEY":" ","HOUSE_NO":"４０號","E_COORD97":172914.98999999999,"N_COORD97":2564838.0899999999,"ADDRESS":"中山路４０號","OBJECTID":622040},"geometry":{"x":172914.99000000115,"y":2564838.0900000017}},{"attributes":{"ID":622068,"DIS_CODE":0,"TOWNNAME":"永康區","LI":"三合里","LIN":"25鄰","STREET":"中山東路","SECT":" ","MAREA":" ","LANE":" ","ALLEY":" ","HOUSE_NO":"１２３號","E_COORD97":171768.54000000001,"N_COORD97":2545865.8100000001,"ADDRESS":"中山東路１２３號","OBJECTID":622041},"geometry":{"x":171768.54000000097,"y":2545865.8100000005}},{"attributes":{"ID":622069,"DIS_CODE":0,"TOWNNAME":"永康區","LI":"三合里","LIN":"25鄰","STREET":"中山東路","SECT":" ","MAREA":" ","LANE":" ","ALLEY":" ","HOUSE_NO":"１１９號","E_COORD97":171765.57000000001,"N_COORD97":2545875.9900000002,"ADDRESS":"中山東路１１９號","OBJECTID":622042},"geometry":{"x":171765.5700000003,"y":2545875.9900000021}},{"attributes":{"ID":622070,"DIS_CODE":0,"TOWNNAME":"永康區","LI":"三合里","LIN":"13鄰","STREET":"南工街","SECT":" ","MAREA":" ","LANE":" ","ALLEY":" ","HOUSE_NO":"１７１號","E_COORD97":172039.82000000001,"N_COORD97":2545831.0699999998,"ADDRESS":"南工街１７１號","OBJECTID":622043},"geometry":{"x":172039.82000000123,"y":2545831.070000004}},{"attributes":{"ID":622071,"DIS_CODE":0,"TOWNNAME":"永康區","LI":"甲頂里","LIN":" ","STREET":"小北路","SECT":" ","MAREA":" ","LANE":" ","ALLEY":" ","HOUSE_NO":"７號","E_COORD97":169456.60000000001,"N_COORD97":2546784.2400000002,"ADDRESS":"小北路７號","OBJECTID":622044},"geometry":{"x":169456.60000000149,"y":2546784.2400000021}},{"attributes":{"ID":622072,"DIS_CODE":0,"TOWNNAME":"永康區","LI":"復國里","LIN":"18鄰","STREET":"復國一路","SECT":" ","MAREA":" ","LANE":" ","ALLEY":" ","HOUSE_NO":"３４２號","E_COORD97":172772.95999999999,"N_COORD97":2545683.5800000001,"ADDRESS":"復國一路３４２號","OBJECTID":622045},"geometry":{"x":172772.95999999996,"y":2545683.5800000001}},{"attributes":{"ID":622073,"DIS_CODE":0,"TOWNNAME":"永康區","LI":"東灣里","LIN":"18鄰","STREET":"大灣三街","SECT":" ","MAREA":" ","LANE":" ","ALLEY":" ","HOUSE_NO":"２５號","E_COORD97":175011.16,"N_COORD97":2544907.5800000001,"ADDRESS":"大灣三街２５號","OBJECTID":622046},"geometry":{"x":175011.16000000015,"y":2544907.5800000001}},{"attributes":{"ID":622074,"DIS_CODE":0,"TOWNNAME":"永康區","LI":"北灣里","LIN":"25鄰","STREET":"大灣六街","SECT":" ","MAREA":" ","LANE":" ","ALLEY":" ","HOUSE_NO":"７５號","E_COORD97":175031.69,"N_COORD97":2545343.5899999999,"ADDRESS":"大灣六街７５號","OBJECTID":622047},"geometry":{"x":175031.69000000041,"y":2545343.5900000017}},{"attributes":{"ID":622075,"DIS_CODE":0,"TOWNNAME":"永康區","LI":"正強里","LIN":"13鄰","STREET":"正強街","SECT":" ","MAREA":" ","LANE":" ","ALLEY":" ","HOUSE_NO":"１３５號","E_COORD97":173319.04000000001,"N_COORD97":2547476.9199999999,"ADDRESS":"正強街１３５號","OBJECTID":622048},"geometry":{"x":173319.0400000019,"y":2547476.9200000018}},{"attributes":{"ID":622076,"DIS_CODE":0,"TOWNNAME":"永康區","LI":"正強里","LIN":"4鄰","STREET":"中正路","SECT":" ","MAREA":" ","LANE":" ","ALLEY":" ","HOUSE_NO":"５３號","E_COORD97":173609.95000000001,"N_COORD97":2547779.0800000001,"ADDRESS":"中正路５３號","OBJECTID":622049},"geometry":{"x":173609.95000000112,"y":2547779.0800000001}},{"attributes":{"ID":622077,"DIS_CODE":0,"TOWNNAME":"永康區","LI":"復國里","LIN":"18鄰","STREET":"復華五街","SECT":" ","MAREA":" ","LANE":" ","ALLEY":" ","HOUSE_NO":"２９號","E_COORD97":172796.14999999999,"N_COORD97":2545698.1899999999,"ADDRESS":"復華五街２９號","OBJECTID":622050},"geometry":{"x":172796.15000000037,"y":2545698.1900000013}},{"attributes":{"ID":622078,"DIS_CODE":0,"TOWNNAME":"永康區","LI":"北灣里","LIN":"20鄰","STREET":"北興路","SECT":" ","MAREA":" ","LANE":" ","ALLEY":" ","HOUSE_NO":"１５號","E_COORD97":174634.69,"N_COORD97":2546050.0800000001,"ADDRESS":"北興路１５號","OBJECTID":622051},"geometry":{"x":174634.69000000041,"y":2546050.0800000001}},{"attributes":{"ID":622079,"DIS_CODE":0,"TOWNNAME":"永康區","LI":"\u25A0洲里","LIN":"25鄰","STREET":"中正南路","SECT":" ","MAREA":" ","LANE":" ","ALLEY":" ","HOUSE_NO":"４６３號","E_COORD97":170849.82000000001,"N_COORD97":2548112.1499999999,"ADDRESS":"中正南路４６３號","OBJECTID":622052},"geometry":{"x":170849.82000000123,"y":2548112.1499999985}},{"attributes":{"ID":622080,"DIS_CODE":0,"TOWNNAME":"永康區","LI":"大橋里","LIN":" ","STREET":"大橋二街","SECT":" ","MAREA":" ","LANE":" ","ALLEY":" ","HOUSE_NO":"６６號","E_COORD97":170872.84,"N_COORD97":2546630.5699999998,"ADDRESS":"大橋二街６６號","OBJECTID":622053},"geometry":{"x":170872.84000000078,"y":2546630.5700000003}},{"attributes":{"ID":622081,"DIS_CODE":0,"TOWNNAME":"永康區","LI":"西灣里","LIN":"25鄰","STREET":"國光七街","SECT":" ","MAREA":" ","LANE":" ","ALLEY":" ","HOUSE_NO":"１２號之１","E_COORD97":174319.82000000001,"N_COORD97":2545534.04,"ADDRESS":"國光七街１２號之１","OBJECTID":622054},"geometry":{"x":174319.82000000123,"y":2545534.0399999991}},{"attributes":{"ID":622082,"DIS_CODE":0,"TOWNNAME":"永康區","LI":"三合里","LIN":"5鄰","STREET":"南工街","SECT":" ","MAREA":" ","LANE":" ","ALLEY":" ","HOUSE_NO":"８０號","E_COORD97":172104.95999999999,"N_COORD97":2545681.5899999999,"ADDRESS":"南工街８０號","OBJECTID":622055},"geometry":{"x":172104.95999999996,"y":2545681.5900000036}},{"attributes":{"ID":622083,"DIS_CODE":0,"TOWNNAME":"永康區","LI":"三合里","LIN":"25鄰","STREET":"中山東路","SECT":" ","MAREA":" ","LANE":" ","ALLEY":" ","HOUSE_NO":"１２７號","E_COORD97":171770.59,"N_COORD97":2545857.8100000001,"ADDRESS":"中山東路１２７號","OBJECTID":622056},"geometry":{"x":171770.58999999985,"y":2545857.8100000024}},{"attributes":{"ID":622084,"DIS_CODE":0,"TOWNNAME":"永康區","LI":"三合里","LIN":"5鄰","STREET":"南工街","SECT":" ","MAREA":" ","LANE":" ","ALLEY":" ","HOUSE_NO":"６８號","E_COORD97":172105.06,"N_COORD97":2545657.5800000001,"ADDRESS":"南工街６８號","OBJECTID":622057},"geometry":{"x":172105.06000000052,"y":2545657.5800000001}},{"attributes":{"ID":622085,"DIS_CODE":0,"TOWNNAME":"永康區","LI":"三合里","LIN":"25鄰","STREET":"中山東路","SECT":" ","MAREA":" ","LANE":" ","ALLEY":" ","HOUSE_NO":"１１３號","E_COORD97":171762.29000000001,"N_COORD97":2545889,"ADDRESS":"中山東路１１３號","OBJECTID":622058},"geometry":{"x":171762.29000000004,"y":2545889.0000000037}},{"attributes":{"ID":622086,"DIS_CODE":0,"TOWNNAME":"永康區","LI":"二王里","LIN":"4鄰","STREET":"二王路","SECT":" ","MAREA":" ","LANE":" ","ALLEY":" ","HOUSE_NO":"５２號","E_COORD97":172996.45000000001,"N_COORD97":2546743.1800000002,"ADDRESS":"二王路５２號","OBJECTID":622059},"geometry":{"x":172996.45000000112,"y":2546743.1800000016}},{"attributes":{"ID":622087,"DIS_CODE":0,"TOWNNAME":"永康區","LI":"二王里","LIN":"4鄰","STREET":"二王路","SECT":" ","MAREA":" ","LANE":" ","ALLEY":" ","HOUSE_NO":"８２號","E_COORD97":173015.69,"N_COORD97":2546664.73,"ADDRESS":"二王路８２號","OBJECTID":622060},"geometry":{"x":173015.69000000134,"y":2546664.7300000023}},{"attributes":{"ID":622088,"DIS_CODE":0,"TOWNNAME":"永康區","LI":"三合里","LIN":"25鄰","STREET":"中山東路","SECT":" ","MAREA":" ","LANE":" ","ALLEY":" ","HOUSE_NO":"１７３號","E_COORD97":171802.42999999999,"N_COORD97":2545728.8999999999,"ADDRESS":"中山東路１７３號","OBJECTID":622061},"geometry":{"x":171802.43000000063,"y":2545728.9000000022}},{"attributes":{"ID":622089,"DIS_CODE":0,"TOWNNAME":"永康區","LI":"二王里","LIN":"47鄰","STREET":"南工街","SECT":" ","MAREA":" ","LANE":" ","ALLEY":" ","HOUSE_NO":"２３０號","E_COORD97":171968.70999999999,"N_COORD97":2545964.9900000002,"ADDRESS":"南工街２３０號","OBJECTID":622062},"geometry":{"x":171968.71000000089,"y":2545964.9900000021}},{"attributes":{"ID":622090,"DIS_CODE":0,"TOWNNAME":"永康區","LI":"二王里","LIN":"4鄰","STREET":"二王路","SECT":" ","MAREA":" ","LANE":" ","ALLEY":" ","HOUSE_NO":"４２號","E_COORD97":173002.29000000001,"N_COORD97":2546768.27,"ADDRESS":"二王路４２號","OBJECTID":622063},"geometry":{"x":173002.29000000097,"y":2546768.2700000033}},{"attributes":{"ID":622091,"DIS_CODE":0,"TOWNNAME":"永康區","LI":"安康里","LIN":" ","STREET":"中華路","SECT":" ","MAREA":" ","LANE":" ","ALLEY":" ","HOUSE_NO":"３１號之３","E_COORD97":170954.20000000001,"N_COORD97":2546042.29,"ADDRESS":"中華路３１號之３","OBJECTID":622064},"geometry":{"x":170954.20000000019,"y":2546042.290000001}},{"attributes":{"ID":622092,"DIS_CODE":0,"TOWNNAME":"永康區","LI":"二王里","LIN":"18鄰","STREET":"中山南路","SECT":" ","MAREA":" ","LANE":" ","ALLEY":" ","HOUSE_NO":"６２０號","E_COORD97":172346.85999999999,"N_COORD97":2546663.2799999998,"ADDRESS":"中山南路６２０號","OBJECTID":622065},"geometry":{"x":172346.86000000034,"y":2546663.2800000012}},{"attributes":{"ID":622093,"DIS_CODE":0,"TOWNNAME":"永康區","LI":"三民里","LIN":"14鄰","STREET":"和平東路","SECT":" ","MAREA":" ","LANE":" ","ALLEY":" ","HOUSE_NO":"８２號","E_COORD97":174890.48000000001,"N_COORD97":2550681,"ADDRESS":"和平東路８２號","OBJECTID":622066},"geometry":{"x":174890.48000000045,"y":2550681.0000000019}},{"attributes":{"ID":622094,"DIS_CODE":0,"TOWNNAME":"永康區","LI":"二王里","LIN":"13鄰","STREET":"永二街","SECT":" ","MAREA":" ","LANE":" ","ALLEY":" ","HOUSE_NO":"４４７號之１","E_COORD97":172701.17000000001,"N_COORD97":2546661.4100000001,"ADDRESS":"永二街４４７號之１","OBJECTID":622067},"geometry":{"x":172701.17000000086,"y":2546661.4100000001}},{"attributes":{"ID":622095,"DIS_CODE":0,"TOWNNAME":"永康區","LI":"二王里","LIN":"8鄰","STREET":"中山南路","SECT":" ","MAREA":" ","LANE":" ","ALLEY":" ","HOUSE_NO":"７８４號","E_COORD97":172767.98999999999,"N_COORD97":2546785.3900000001,"ADDRESS":"中山南路７８４號","OBJECTID":622068},"geometry":{"x":172767.99000000022,"y":2546785.3900000043}},{"attributes":{"ID":622096,"DIS_CODE":0,"TOWNNAME":"永康區","LI":"二王里","LIN":"8鄰","STREET":"中山南路","SECT":" ","MAREA":" ","LANE":" ","ALLEY":" ","HOUSE_NO":"７６６號","E_COORD97":172727.91,"N_COORD97":2546769.8900000001,"ADDRESS":"中山南路７６６號","OBJECTID":622069},"geometry":{"x":172727.91000000015,"y":2546769.8900000025}},{"attributes":{"ID":622097,"DIS_CODE":0,"TOWNNAME":"永康區","LI":"二王里","LIN":"8鄰","STREET":"中山南路","SECT":" ","MAREA":" ","LANE":" ","ALLEY":" ","HOUSE_NO":"８１６之３號","E_COORD97":172850.09,"N_COORD97":2546812.5899999999,"ADDRESS":"中山南路８１６之３號","OBJECTID":622070},"geometry":{"x":172850.08999999985,"y":2546812.5899999999}},{"attributes":{"ID":622098,"DIS_CODE":0,"TOWNNAME":"永康區","LI":"二王里","LIN":"8鄰","STREET":"中山南路","SECT":" ","MAREA":" ","LANE":" ","ALLEY":" ","HOUSE_NO":"８１６之２號","E_COORD97":172842.23000000001,"N_COORD97":2546811.0899999999,"ADDRESS":"中山南路８１６之２號","OBJECTID":622071},"geometry":{"x":172842.23000000138,"y":2546811.0900000017}},{"attributes":{"ID":622099,"DIS_CODE":0,"TOWNNAME":"永康區","LI":"二王里","LIN":"8鄰","STREET":"中山南路","SECT":" ","MAREA":" ","LANE":" ","ALLEY":" ","HOUSE_NO":"８０８號","E_COORD97":172811.87,"N_COORD97":2546800.3900000001,"ADDRESS":"中山南路８０８號","OBJECTID":622072},"geometry":{"x":172811.87000000104,"y":2546800.3900000025}},{"attributes":{"ID":622100,"DIS_CODE":0,"TOWNNAME":"永康區","LI":"二王里","LIN":"18鄰","STREET":"中山南路","SECT":" ","MAREA":" ","LANE":" ","ALLEY":" ","HOUSE_NO":"６１８號","E_COORD97":172339.20000000001,"N_COORD97":2546626.9700000002,"ADDRESS":"中山南路６１８號","OBJECTID":622073},"geometry":{"x":172339.20000000019,"y":2546626.9700000025}},{"attributes":{"ID":622101,"DIS_CODE":0,"TOWNNAME":"永康區","LI":"二王里","LIN":"18鄰","STREET":"中山南路","SECT":" ","MAREA":" ","LANE":" ","ALLEY":" ","HOUSE_NO":"６８４號","E_COORD97":172481.06,"N_COORD97":2546701.9500000002,"ADDRESS":"中山南路６８４號","OBJECTID":622074},"geometry":{"x":172481.06000000145,"y":2546701.9499999974}},{"attributes":{"ID":622102,"DIS_CODE":0,"TOWNNAME":"永康區","LI":"二王里","LIN":"40鄰","STREET":"中山南路","SECT":" ","MAREA":" ","LANE":" ","ALLEY":" ","HOUSE_NO":"３４４號","E_COORD97":171729.92999999999,"N_COORD97":2546229.5,"ADDRESS":"中山南路３４４號","OBJECTID":622075},"geometry":{"x":171729.93000000063,"y":2546229.5000000019}},{"attributes":{"ID":622103,"DIS_CODE":0,"TOWNNAME":"永康區","LI":"二王里","LIN":"40鄰","STREET":"中山南路","SECT":" ","MAREA":" ","LANE":" ","ALLEY":" ","HOUSE_NO":"３４８號","E_COORD97":171738.22,"N_COORD97":2546239.25,"ADDRESS":"中山南路３４８號","OBJECTID":622076},"geometry":{"x":171738.22000000067,"y":2546239.25}},{"attributes":{"ID":622104,"DIS_CODE":0,"TOWNNAME":"永康區","LI":"三合里","LIN":"25鄰","STREET":"中山東路","SECT":" ","MAREA":" ","LANE":" ","ALLEY":" ","HOUSE_NO":"１７７號","E_COORD97":171804,"N_COORD97":2545721.6499999999,"ADDRESS":"中山東路１７７號","OBJECTID":622077},"geometry":{"x":171804.00000000093,"y":2545721.6500000004}},{"attributes":{"ID":622105,"DIS_CODE":0,"TOWNNAME":"永康區","LI":"三合里","LIN":"13鄰","STREET":"南工街","SECT":" ","MAREA":" ","LANE":" ","ALLEY":" ","HOUSE_NO":"１７７號","E_COORD97":172027.23000000001,"N_COORD97":2545832.8199999998,"ADDRESS":"南工街１７７號","OBJECTID":622078},"geometry":{"x":172027.23000000138,"y":2545832.820000004}},{"attributes":{"ID":622106,"DIS_CODE":0,"TOWNNAME":"永康區","LI":"三合里","LIN":"25鄰","STREET":"中山東路","SECT":" ","MAREA":" ","LANE":" ","ALLEY":" ","HOUSE_NO":"１４９號","E_COORD97":171791.07999999999,"N_COORD97":2545777.3599999999,"ADDRESS":"中山東路１４９號","OBJECTID":622079},"geometry":{"x":171791.08000000007,"y":2545777.3600000031}},{"attributes":{"ID":622107,"DIS_CODE":0,"TOWNNAME":"永康區","LI":"三合里","LIN":"25鄰","STREET":"中山東路","SECT":" ","MAREA":" ","LANE":" ","ALLEY":" ","HOUSE_NO":"１６７號","E_COORD97":171800.12,"N_COORD97":2545738.6400000001,"ADDRESS":"中山東路１６７號","OBJECTID":622080},"geometry":{"x":171800.12000000104,"y":2545738.6400000006}},{"attributes":{"ID":622108,"DIS_CODE":0,"TOWNNAME":"永康區","LI":"二王里","LIN":"4鄰","STREET":"二王路","SECT":" ","MAREA":" ","LANE":" ","ALLEY":" ","HOUSE_NO":"５６號","E_COORD97":173009.79000000001,"N_COORD97":2546741.48,"ADDRESS":"二王路５６號","OBJECTID":622081},"geometry":{"x":173009.79000000004,"y":2546741.4800000023}},{"attributes":{"ID":622109,"DIS_CODE":0,"TOWNNAME":"永康區","LI":"三合里","LIN":"20鄰","STREET":"南工街","SECT":" ","MAREA":" ","LANE":" ","ALLEY":" ","HOUSE_NO":"２７３號","E_COORD97":171878.54000000001,"N_COORD97":2545978.98,"ADDRESS":"南工街２７３號","OBJECTID":622082},"geometry":{"x":171878.54000000097,"y":2545978.9800000023}},{"attributes":{"ID":622110,"DIS_CODE":0,"TOWNNAME":"永康區","LI":"三合里","LIN":"25鄰","STREET":"中山東路","SECT":" ","MAREA":" ","LANE":" ","ALLEY":" ","HOUSE_NO":"１３７號","E_COORD97":171776.09,"N_COORD97":2545835.3100000001,"ADDRESS":"中山東路１３７號","OBJECTID":622083},"geometry":{"x":171776.09000000078,"y":2545835.3100000005}},{"attributes":{"ID":622111,"DIS_CODE":0,"TOWNNAME":"永康區","LI":"二王里","LIN":"4鄰","STREET":"二王路","SECT":" ","MAREA":" ","LANE":" ","ALLEY":" ","HOUSE_NO":"７２號","E_COORD97":173003.09,"N_COORD97":2546686.6800000002,"ADDRESS":"二王路７２號","OBJECTID":622084},"geometry":{"x":173003.09000000171,"y":2546686.6799999997}},{"attributes":{"ID":622112,"DIS_CODE":0,"TOWNNAME":"永康區","LI":"\u25A0洲里","LIN":"5鄰","STREET":"仁愛街","SECT":" ","MAREA":" ","LANE":" ","ALLEY":" ","HOUSE_NO":"１２３號","E_COORD97":172172.98000000001,"N_COORD97":2549753.2799999998,"ADDRESS":"仁愛街１２３號","OBJECTID":622085},"geometry":{"x":172172.98000000138,"y":2549753.2799999993}},{"attributes":{"ID":622113,"DIS_CODE":0,"TOWNNAME":"永康區","LI":"三合里","LIN":"5鄰","STREET":"南工街","SECT":" ","MAREA":" ","LANE":" ","ALLEY":" ","HOUSE_NO":"５２號","E_COORD97":172104.89999999999,"N_COORD97":2545622.8700000001,"ADDRESS":"南工街５２號","OBJECTID":622086},"geometry":{"x":172104.90000000224,"y":2545622.8699999992}},{"attributes":{"ID":622114,"DIS_CODE":0,"TOWNNAME":"永康區","LI":"三合里","LIN":"25鄰","STREET":"中山東路","SECT":" ","MAREA":" ","LANE":" ","ALLEY":" ","HOUSE_NO":"１５９號","E_COORD97":171797.42000000001,"N_COORD97":2545756.6099999999,"ADDRESS":"中山東路１５９號","OBJECTID":622087},"geometry":{"x":171797.42000000179,"y":2545756.6100000013}},{"attributes":{"ID":622115,"DIS_CODE":0,"TOWNNAME":"永康區","LI":"大橋里","LIN":"4鄰","STREET":"大橋五街","SECT":" ","MAREA":" ","LANE":" ","ALLEY":" ","HOUSE_NO":"４５號","E_COORD97":170829.38,"N_COORD97":2546904.8500000001,"ADDRESS":"大橋五街４５號","OBJECTID":622088},"geometry":{"x":170829.37999999989,"y":2546904.8500000015}},{"attributes":{"ID":622116,"DIS_CODE":0,"TOWNNAME":"永康區","LI":"勝利里","LIN":"5鄰","STREET":"勝學路","SECT":" ","MAREA":" ","LANE":" ","ALLEY":" ","HOUSE_NO":"７１號","E_COORD97":171145.88,"N_COORD97":2544760.7599999998,"ADDRESS":"勝學路７１號","OBJECTID":622089},"geometry":{"x":171145.87999999989,"y":2544760.7599999998}},{"attributes":{"ID":622117,"DIS_CODE":0,"TOWNNAME":"永康區","LI":"龍潭里","LIN":"25鄰","STREET":"龍昌街","SECT":" ","MAREA":" ","LANE":" ","ALLEY":" ","HOUSE_NO":"３０號","E_COORD97":175019.5,"N_COORD97":2547826.5299999998,"ADDRESS":"龍昌街３０號","OBJECTID":622090},"geometry":{"x":175019.50000000186,"y":2547826.5299999993}},{"attributes":{"ID":622118,"DIS_CODE":0,"TOWNNAME":"永康區","LI":"\u25A0洲里","LIN":"5鄰","STREET":"仁愛街","SECT":" ","MAREA":" ","LANE":" ","ALLEY":" ","HOUSE_NO":"１２３號之１","E_COORD97":172105.12,"N_COORD97":2549702.29,"ADDRESS":"仁愛街１２３號之１","OBJECTID":622091},"geometry":{"x":172105.12000000104,"y":2549702.2899999991}},{"attributes":{"ID":622119,"DIS_CODE":0,"TOWNNAME":"永康區","LI":"三合里","LIN":"25鄰","STREET":"中山東路","SECT":" ","MAREA":" ","LANE":" ","ALLEY":" ","HOUSE_NO":"１３１號","E_COORD97":171772.85999999999,"N_COORD97":2545850.5600000001,"ADDRESS":"中山東路１３１號","OBJECTID":622092},"geometry":{"x":171772.8600000022,"y":2545850.5600000005}},{"attributes":{"ID":622120,"DIS_CODE":0,"TOWNNAME":"永康區","LI":"復華里","LIN":"4鄰","STREET":"復國二路","SECT":" ","MAREA":" ","LANE":" ","ALLEY":" ","HOUSE_NO":"２５１號","E_COORD97":173020.20000000001,"N_COORD97":2546141.5299999998,"ADDRESS":"復國二路２５１號","OBJECTID":622093},"geometry":{"x":173020.20000000112,"y":2546141.5299999993}},{"attributes":{"ID":622121,"DIS_CODE":0,"TOWNNAME":"永康區","LI":"埔園里","LIN":" ","STREET":"中正路","SECT":" ","MAREA":" ","LANE":" ","ALLEY":" ","HOUSE_NO":"２７號","E_COORD97":173661.01000000001,"N_COORD97":2547735.8799999999,"ADDRESS":"中正路２７號","OBJECTID":622094},"geometry":{"x":173661.00999999978,"y":2547735.879999999}},{"attributes":{"ID":622122,"DIS_CODE":0,"TOWNNAME":"永康區","LI":"西橋里","LIN":"25鄰","STREET":"中華路","SECT":" ","MAREA":" ","LANE":" ","ALLEY":" ","HOUSE_NO":"７５１號","E_COORD97":170704.70999999999,"N_COORD97":2546514,"ADDRESS":"中華路７５１號","OBJECTID":622095},"geometry":{"x":170704.70999999996,"y":2546514.0000000019}},{"attributes":{"ID":622123,"DIS_CODE":0,"TOWNNAME":"永康區","LI":"正強里","LIN":"25鄰","STREET":"正強街","SECT":" ","MAREA":" ","LANE":" ","ALLEY":" ","HOUSE_NO":"２５８號","E_COORD97":173305.17999999999,"N_COORD97":2547794.48,"ADDRESS":"正強街２５８號","OBJECTID":622096},"geometry":{"x":173305.1799999997,"y":2547794.4800000004}},{"attributes":{"ID":622124,"DIS_CODE":0,"TOWNNAME":"永康區","LI":"大橋里","LIN":"18鄰","STREET":"大橋二街","SECT":" ","MAREA":" ","LANE":" ","ALLEY":" ","HOUSE_NO":"１８８號","E_COORD97":171109.81,"N_COORD97":2546783.3500000001,"ADDRESS":"大橋二街１８８號","OBJECTID":622097},"geometry":{"x":171109.81000000052,"y":2546783.3499999996}},{"attributes":{"ID":622125,"DIS_CODE":0,"TOWNNAME":"永康區","LI":"埔園里","LIN":"29鄰","STREET":"埔東街","SECT":" ","MAREA":" ","LANE":" ","ALLEY":" ","HOUSE_NO":"３８號","E_COORD97":173792.22,"N_COORD97":2548133.73,"ADDRESS":"埔東街３８號","OBJECTID":622098},"geometry":{"x":173792.2200000016,"y":2548133.7300000023}},{"attributes":{"ID":622126,"DIS_CODE":0,"TOWNNAME":"永康區","LI":"勝利里","LIN":"18鄰","STREET":"勝學路","SECT":" ","MAREA":" ","LANE":" ","ALLEY":" ","HOUSE_NO":"１６０號","E_COORD97":171190.29999999999,"N_COORD97":2545048,"ADDRESS":"勝學路１６０號","OBJECTID":622099},"geometry":{"x":171190.30000000075,"y":2545047.9999999981}},{"attributes":{"ID":622127,"DIS_CODE":0,"TOWNNAME":"永康區","LI":"五王里","LIN":"20鄰","STREET":"中華路","SECT":" ","MAREA":" ","LANE":" ","ALLEY":" ","HOUSE_NO":"４１６號","E_COORD97":171378.29999999999,"N_COORD97":2545621.25,"ADDRESS":"中華路４１６號","OBJECTID":622100},"geometry":{"x":171378.30000000075,"y":2545621.25}},{"attributes":{"ID":622128,"DIS_CODE":0,"TOWNNAME":"永康區","LI":"崑山里","LIN":"24鄰","STREET":"大仁街","SECT":" ","MAREA":" ","LANE":" ","ALLEY":" ","HOUSE_NO":"８０號","E_COORD97":173832.48999999999,"N_COORD97":2544734.3300000001,"ADDRESS":"大仁街８０號","OBJECTID":622101},"geometry":{"x":173832.49000000022,"y":2544734.3300000038}},{"attributes":{"ID":622129,"DIS_CODE":0,"TOWNNAME":"永康區","LI":"西橋里","LIN":"4鄰","STREET":"中華西街","SECT":" ","MAREA":" ","LANE":" ","ALLEY":" ","HOUSE_NO":"５號","E_COORD97":170819.63,"N_COORD97":2545922.25,"ADDRESS":"中華西街５號","OBJECTID":622102},"geometry":{"x":170819.63000000175,"y":2545922.2500000019}},{"attributes":{"ID":622130,"DIS_CODE":0,"TOWNNAME":"永康區","LI":"東橋里","LIN":" ","STREET":"中山南路","SECT":" ","MAREA":" ","LANE":" ","ALLEY":" ","HOUSE_NO":"３５３之１號","E_COORD97":171978.91,"N_COORD97":2546437.9500000002,"ADDRESS":"中山南路３５３之１號","OBJECTID":622103},"geometry":{"x":171978.91000000015,"y":2546437.950000003}},{"attributes":{"ID":622131,"DIS_CODE":0,"TOWNNAME":"永康區","LI":"永康里","LIN":" ","STREET":"永大一路","SECT":" ","MAREA":" ","LANE":" ","ALLEY":" ","HOUSE_NO":"２１號","E_COORD97":174011.98000000001,"N_COORD97":2546459.1299999999,"ADDRESS":"永大一路２１號","OBJECTID":622104},"geometry":{"x":174011.98000000138,"y":2546459.129999999}},{"attributes":{"ID":622132,"DIS_CODE":0,"TOWNNAME":"永康區","LI":"二王里","LIN":"18鄰","STREET":"中山南路","SECT":" ","MAREA":" ","LANE":" ","ALLEY":" ","HOUSE_NO":"６６６號","E_COORD97":172445.06,"N_COORD97":2546697.9500000002,"ADDRESS":"中山南路６６６號","OBJECTID":622105},"geometry":{"x":172445.05999999959,"y":2546697.9499999993}},{"attributes":{"ID":622133,"DIS_CODE":0,"TOWNNAME":"永康區","LI":"正強里","LIN":"32鄰","STREET":"中正路","SECT":" ","MAREA":" ","LANE":" ","ALLEY":" ","HOUSE_NO":"２１８號","E_COORD97":173331.35000000001,"N_COORD97":2547894,"ADDRESS":"中正路２１８號","OBJECTID":622106},"geometry":{"x":173331.34999999963,"y":2547894.0000000019}},{"attributes":{"ID":622134,"DIS_CODE":0,"TOWNNAME":"永康區","LI":"二王里","LIN":"4鄰","STREET":"二王路","SECT":" ","MAREA":" ","LANE":" ","ALLEY":" ","HOUSE_NO":"６２號","E_COORD97":173009.95999999999,"N_COORD97":2546724.9399999999,"ADDRESS":"二王路６２號","OBJECTID":622107},"geometry":{"x":173009.96000000089,"y":2546724.9399999995}},{"attributes":{"ID":622135,"DIS_CODE":0,"TOWNNAME":"麻豆區","LI":"東角里","LIN":"4鄰","STREET":"文昌路","SECT":" ","MAREA":" ","LANE":" ","ALLEY":" ","HOUSE_NO":"３８號","E_COORD97":173582.23999999999,"N_COORD97":2565330.8300000001,"ADDRESS":"文昌路３８號","OBJECTID":622108},"geometry":{"x":173582.24000000209,"y":2565330.8300000038}},{"attributes":{"ID":622136,"DIS_CODE":0,"TOWNNAME":"安南區","LI":"幸福里","LIN":"19鄰","STREET":"府安路","SECT":"六段","MAREA":" ","LANE":" ","ALLEY":" ","HOUSE_NO":"１號","E_COORD97":167195.41,"N_COORD97":2546759.23,"ADDRESS":"府安路六段１號","OBJECTID":622109},"geometry":{"x":167195.41000000108,"y":2546759.2300000042}},{"attributes":{"ID":622137,"DIS_CODE":0,"TOWNNAME":"安南區","LI":"幸福里","LIN":"19鄰","STREET":"府安路","SECT":"六段","MAREA":" ","LANE":" ","ALLEY":" ","HOUSE_NO":"２號","E_COORD97":167189.60000000001,"N_COORD97":2546756.0800000001,"ADDRESS":"府安路六段２號","OBJECTID":622110},"geometry":{"x":167189.59999999963,"y":2546756.0800000001}},{"attributes":{"ID":622138,"DIS_CODE":0,"TOWNNAME":"安南區","LI":"幸福里","LIN":"19鄰","STREET":"府安路","SECT":"六段","MAREA":" ","LANE":" ","ALLEY":" ","HOUSE_NO":"３號","E_COORD97":167183.16,"N_COORD97":2546758.6000000001,"ADDRESS":"府安路六段３號","OBJECTID":622111},"geometry":{"x":167183.16000000015,"y":2546758.5999999996}},{"attributes":{"ID":622139,"DIS_CODE":0,"TOWNNAME":"安南區","LI":"幸福里","LIN":"19鄰","STREET":"府安路","SECT":"六段","MAREA":" ","LANE":" ","ALLEY":" ","HOUSE_NO":"５號","E_COORD97":167170.01000000001,"N_COORD97":2546742.6899999999,"ADDRESS":"府安路六段５號","OBJECTID":622112},"geometry":{"x":167170.00999999978,"y":2546742.6900000013}},{"attributes":{"ID":622140,"DIS_CODE":0,"TOWNNAME":"安南區","LI":"幸福里","LIN":"19鄰","STREET":"府安路","SECT":"六段","MAREA":" ","LANE":" ","ALLEY":" ","HOUSE_NO":"６號","E_COORD97":167160.5,"N_COORD97":2546740.3500000001,"ADDRESS":"府安路六段６號","OBJECTID":622113},"geometry":{"x":167160.49999999907,"y":2546740.3499999978}},{"attributes":{"ID":622141,"DIS_CODE":0,"TOWNNAME":"東區","LI":"崇德里","LIN":"10鄰","STREET":"崇德九街","SECT":" ","MAREA":" ","LANE":" ","ALLEY":" ","HOUSE_NO":"３７號","E_COORD97":170876.59,"N_COORD97":2541579.4500000002,"ADDRESS":"崇德九街３７號","OBJECTID":622114},"geometry":{"x":170876.58999999985,"y":2541579.450000003}},{"attributes":{"ID":622142,"DIS_CODE":0,"TOWNNAME":"安南區","LI":"溪頂里","LIN":"4鄰","STREET":"府安路","SECT":"四段","MAREA":" ","LANE":" ","ALLEY":" ","HOUSE_NO":"１２６號","E_COORD97":168957.88,"N_COORD97":2547267.6699999999,"ADDRESS":"府安路四段１２６號","OBJECTID":622115},"geometry":{"x":168957.87999999989,"y":2547267.6700000037}},{"attributes":{"ID":622143,"DIS_CODE":0,"TOWNNAME":"安南區","LI":"州北里","LIN":"17鄰","STREET":"安和路","SECT":"六段","MAREA":" ","LANE":" ","ALLEY":" ","HOUSE_NO":"１３３號之４","E_COORD97":169420.82000000001,"N_COORD97":2552609.0299999998,"ADDRESS":"安和路六段１３３號之４","OBJECTID":622116},"geometry":{"x":169420.82000000123,"y":2552609.0300000012}},{"attributes":{"ID":622144,"DIS_CODE":0,"TOWNNAME":"安南區","LI":"學東里","LIN":"12鄰","STREET":"公學路","SECT":"七段","MAREA":" ","LANE":" ","ALLEY":" ","HOUSE_NO":"３４號","E_COORD97":161944.10999999999,"N_COORD97":2553362.1600000001,"ADDRESS":"公學路七段３４號","OBJECTID":622117},"geometry":{"x":161944.1100000022,"y":2553362.1600000001}},{"attributes":{"ID":622145,"DIS_CODE":0,"TOWNNAME":"安南區","LI":"學東里","LIN":"9鄰","STREET":"公學路","SECT":"六段","MAREA":" ","LANE":" ","ALLEY":" ","HOUSE_NO":"６２６號","E_COORD97":162329,"N_COORD97":2553254.5899999999,"ADDRESS":"公學路六段６２６號","OBJECTID":622118},"geometry":{"x":162329,"y":2553254.5899999999}},{"attributes":{"ID":622146,"DIS_CODE":0,"TOWNNAME":"安南區","LI":"州南里","LIN":"25鄰","STREET":"安和路","SECT":"四段","MAREA":" ","LANE":" ","ALLEY":" ","HOUSE_NO":"５２０號","E_COORD97":169954.60000000001,"N_COORD97":2551292.8599999999,"ADDRESS":"安和路四段５２０號","OBJECTID":622119},"geometry":{"x":169954.59999999963,"y":2551292.8599999994}},{"attributes":{"ID":622147,"DIS_CODE":0,"TOWNNAME":"安南區","LI":"\u25A0南里","LIN":"1鄰","STREET":"環福街","SECT":" ","MAREA":" ","LANE":" ","ALLEY":" ","HOUSE_NO":"９０號","E_COORD97":170354.22,"N_COORD97":2552431.46,"ADDRESS":"環福街９０號","OBJECTID":622120},"geometry":{"x":170354.2200000016,"y":2552431.4600000028}},{"attributes":{"ID":622148,"DIS_CODE":0,"TOWNNAME":"安南區","LI":"淵中里","LIN":"6鄰","STREET":"安中路","SECT":"四段","MAREA":" ","LANE":" ","ALLEY":" ","HOUSE_NO":"１２４號","E_COORD97":165034.57999999999,"N_COORD97":2549992.6699999999,"ADDRESS":"安中路四段１２４號","OBJECTID":622121},"geometry":{"x":165034.58000000101,"y":2549992.6699999999}},{"attributes":{"ID":622149,"DIS_CODE":0,"TOWNNAME":"安南區","LI":"城東里","LIN":"5鄰","STREET":"城北路","SECT":" ","MAREA":" ","LANE":" ","ALLEY":" ","HOUSE_NO":"１６４號","E_COORD97":161015.35000000001,"N_COORD97":2551716.9700000002,"ADDRESS":"城北路１６４號","OBJECTID":622122},"geometry":{"x":161015.34999999963,"y":2551716.9700000007}},{"attributes":{"ID":622150,"DIS_CODE":0,"TOWNNAME":"安南區","LI":"頂安里","LIN":"8鄰","STREET":"頂安街","SECT":" ","MAREA":" ","LANE":" ","ALLEY":" ","HOUSE_NO":"５４２號","E_COORD97":168603.19,"N_COORD97":2549298.25,"ADDRESS":"頂安街５４２號","OBJECTID":622123},"geometry":{"x":168603.19000000041,"y":2549298.2500000037}},{"attributes":{"ID":622151,"DIS_CODE":0,"TOWNNAME":"安南區","LI":"安西里","LIN":"13鄰","STREET":"安和路","SECT":"一段","MAREA":" ","LANE":" ","ALLEY":" ","HOUSE_NO":"１５５號","E_COORD97":169367.73999999999,"N_COORD97":2547809.1499999999,"ADDRESS":"安和路一段１５５號","OBJECTID":622124},"geometry":{"x":169367.74000000022,"y":2547809.1500000004}},{"attributes":{"ID":622152,"DIS_CODE":0,"TOWNNAME":"安南區","LI":"州南里","LIN":"25鄰","STREET":"安和路","SECT":"四段","MAREA":" ","LANE":" ","ALLEY":" ","HOUSE_NO":"５１２號","E_COORD97":169959.16,"N_COORD97":2551274.5299999998,"ADDRESS":"安和路四段５１２號","OBJECTID":622125},"geometry":{"x":169959.16000000108,"y":2551274.5299999993}},{"attributes":{"ID":622153,"DIS_CODE":0,"TOWNNAME":"安南區","LI":"州南里","LIN":"25鄰","STREET":"安和路","SECT":"四段","MAREA":" ","LANE":" ","ALLEY":" ","HOUSE_NO":"５１４號","E_COORD97":169957.82000000001,"N_COORD97":2551277.8199999998,"ADDRESS":"安和路四段５１４號","OBJECTID":622126},"geometry":{"x":169957.82000000123,"y":2551277.820000004}},{"attributes":{"ID":622154,"DIS_CODE":0,"TOWNNAME":"安南區","LI":"州南里","LIN":"25鄰","STREET":"安和路","SECT":"四段","MAREA":" ","LANE":" ","ALLEY":" ","HOUSE_NO":"５１６號","E_COORD97":169957.82000000001,"N_COORD97":2551282.5499999998,"ADDRESS":"安和路四段５１６號","OBJECTID":622127},"geometry":{"x":169957.82000000123,"y":2551282.5500000007}},{"attributes":{"ID":622155,"DIS_CODE":0,"TOWNNAME":"東區","LI":"崇德里","LIN":"4鄰","STREET":"崇德五街","SECT":" ","MAREA":" ","LANE":" ","ALLEY":" ","HOUSE_NO":"６２號","E_COORD97":170736.60000000001,"N_COORD97":2541892.5600000001,"ADDRESS":"崇德五街６２號","OBJECTID":622128},"geometry":{"x":170736.60000000056,"y":2541892.5600000024}},{"attributes":{"ID":622156,"DIS_CODE":0,"TOWNNAME":"安南區","LI":"新順里","LIN":"8鄰","STREET":"總安街","SECT":"一段","MAREA":" ","LANE":" ","ALLEY":" ","HOUSE_NO":"３７０號","E_COORD97":169172.67999999999,"N_COORD97":2550420.2200000002,"ADDRESS":"總安街一段３７０號","OBJECTID":622129},"geometry":{"x":169172.6799999997,"y":2550420.2200000007}},{"attributes":{"ID":622157,"DIS_CODE":0,"TOWNNAME":"安南區","LI":"海東里","LIN":"20鄰","STREET":"海佃路","SECT":"二段","MAREA":" ","LANE":" ","ALLEY":" ","HOUSE_NO":"２３５號之１","E_COORD97":166812.37,"N_COORD97":2548513.6600000001,"ADDRESS":"海佃路二段２３５號之１","OBJECTID":622130},"geometry":{"x":166812.37000000197,"y":2548513.660000002}},{"attributes":{"ID":622158,"DIS_CODE":0,"TOWNNAME":"安南區","LI":"公\u25A0里","LIN":"1鄰","STREET":"安興街","SECT":" ","MAREA":" ","LANE":" ","ALLEY":" ","HOUSE_NO":"１２號","E_COORD97":164433.82000000001,"N_COORD97":2552321.96,"ADDRESS":"安興街１２號","OBJECTID":622131},"geometry":{"x":164433.8200000003,"y":2552321.9600000046}},{"attributes":{"ID":622159,"DIS_CODE":0,"TOWNNAME":"安南區","LI":"州北里","LIN":"20鄰","STREET":"安和路","SECT":"五段","MAREA":" ","LANE":" ","ALLEY":" ","HOUSE_NO":"２４６號","E_COORD97":169792.81,"N_COORD97":2551979.5600000001,"ADDRESS":"安和路五段２４６號","OBJECTID":622132},"geometry":{"x":169792.81000000052,"y":2551979.5600000024}},{"attributes":{"ID":622160,"DIS_CODE":0,"TOWNNAME":"安南區","LI":"安慶里","LIN":"13鄰","STREET":"安和路","SECT":"二段","MAREA":" ","LANE":" ","ALLEY":" ","HOUSE_NO":"６１號之６","E_COORD97":169472.39999999999,"N_COORD97":2548713.3100000001,"ADDRESS":"安和路二段６１號之６","OBJECTID":622133},"geometry":{"x":169472.4000000013,"y":2548713.3100000005}},{"attributes":{"ID":622161,"DIS_CODE":0,"TOWNNAME":"安南區","LI":"海東里","LIN":"13鄰","STREET":"同安路","SECT":" ","MAREA":" ","LANE":" ","ALLEY":" ","HOUSE_NO":"１４１號","E_COORD97":167035.89999999999,"N_COORD97":2549052.2200000002,"ADDRESS":"同安路１４１號","OBJECTID":622134},"geometry":{"x":167035.90000000037,"y":2549052.2200000025}},{"attributes":{"ID":622162,"DIS_CODE":0,"TOWNNAME":"東區","LI":"崇德里","LIN":"11鄰","STREET":"崇德十街","SECT":" ","MAREA":" ","LANE":" ","ALLEY":" ","HOUSE_NO":"８號","E_COORD97":170837.35000000001,"N_COORD97":2541498.1600000001,"ADDRESS":"崇德十街８號","OBJECTID":622135},"geometry":{"x":170837.34999999963,"y":2541498.160000002}},{"attributes":{"ID":622163,"DIS_CODE":0,"TOWNNAME":"安南區","LI":"原佃里","LIN":"5鄰","STREET":"本原街","SECT":"一段","MAREA":" ","LANE":" ","ALLEY":" ","HOUSE_NO":"２２３號","E_COORD97":167729.95999999999,"N_COORD97":2550270.8700000001,"ADDRESS":"本原街一段２２３號","OBJECTID":622136},"geometry":{"x":167729.95999999996,"y":2550270.870000001}},{"attributes":{"ID":622164,"DIS_CODE":0,"TOWNNAME":"安南區","LI":"長安里","LIN":"5鄰","STREET":"公學路","SECT":"二段","MAREA":" ","LANE":" ","ALLEY":" ","HOUSE_NO":"２７７號","E_COORD97":167331.19,"N_COORD97":2552048.7599999998,"ADDRESS":"公學路二段２７７號","OBJECTID":622137},"geometry":{"x":167331.19000000134,"y":2552048.7600000016}},{"attributes":{"ID":622165,"DIS_CODE":0,"TOWNNAME":"安南區","LI":"安慶里","LIN":"5鄰","STREET":"怡安路","SECT":"一段","MAREA":" ","LANE":" ","ALLEY":" ","HOUSE_NO":"２８９號","E_COORD97":168970.41,"N_COORD97":2549075.79,"ADDRESS":"怡安路一段２８９號","OBJECTID":622138},"geometry":{"x":168970.41000000108,"y":2549075.7899999991}},{"attributes":{"ID":622166,"DIS_CODE":0,"TOWNNAME":"安南區","LI":"安慶里","LIN":"13鄰","STREET":"怡安路","SECT":"一段","MAREA":" ","LANE":" ","ALLEY":" ","HOUSE_NO":"５１號","E_COORD97":169442.26000000001,"N_COORD97":2548956.5699999998,"ADDRESS":"怡安路一段５１號","OBJECTID":622139},"geometry":{"x":169442.26000000071,"y":2548956.5700000003}},{"attributes":{"ID":622167,"DIS_CODE":0,"TOWNNAME":"安南區","LI":"安慶里","LIN":"13鄰","STREET":"怡安路","SECT":"一段","MAREA":" ","LANE":" ","ALLEY":" ","HOUSE_NO":"５３號","E_COORD97":169438.09,"N_COORD97":2548957.7999999998,"ADDRESS":"怡安路一段５３號","OBJECTID":622140},"geometry":{"x":169438.09000000171,"y":2548957.8000000007}},{"attributes":{"ID":622168,"DIS_CODE":0,"TOWNNAME":"安南區","LI":"安慶里","LIN":"13鄰","STREET":"怡安路","SECT":"一段","MAREA":" ","LANE":" ","ALLEY":" ","HOUSE_NO":"５５號","E_COORD97":169434.19,"N_COORD97":2548958.23,"ADDRESS":"怡安路一段５５號","OBJECTID":622141},"geometry":{"x":169434.19000000041,"y":2548958.2300000004}},{"attributes":{"ID":622169,"DIS_CODE":0,"TOWNNAME":"安南區","LI":"安慶里","LIN":"13鄰","STREET":"怡安路","SECT":"一段","MAREA":" ","LANE":" ","ALLEY":" ","HOUSE_NO":"６３號","E_COORD97":169407.92000000001,"N_COORD97":2548963.7000000002,"ADDRESS":"怡安路一段６３號","OBJECTID":622142},"geometry":{"x":169407.92000000086,"y":2548963.6999999993}},{"attributes":{"ID":622170,"DIS_CODE":0,"TOWNNAME":"安南區","LI":"安慶里","LIN":"13鄰","STREET":"怡安路","SECT":"一段","MAREA":" ","LANE":" ","ALLEY":" ","HOUSE_NO":"６５號","E_COORD97":169404.23000000001,"N_COORD97":2548964.5099999998,"ADDRESS":"怡安路一段６５號","OBJECTID":622143},"geometry":{"x":169404.23000000138,"y":2548964.5100000016}},{"attributes":{"ID":622171,"DIS_CODE":0,"TOWNNAME":"安南區","LI":"安慶里","LIN":"14鄰","STREET":"安中路","SECT":"一段","MAREA":" ","LANE":" ","ALLEY":" ","HOUSE_NO":"７２號之５","E_COORD97":169051.01999999999,"N_COORD97":2548341.29,"ADDRESS":"安中路一段７２號之５","OBJECTID":622144},"geometry":{"x":169051.01999999955,"y":2548341.290000001}},{"attributes":{"ID":622172,"DIS_CODE":0,"TOWNNAME":"安南區","LI":"城中里","LIN":"8鄰","STREET":"青砂街","SECT":"一段","MAREA":" ","LANE":" ","ALLEY":" ","HOUSE_NO":"９４號","E_COORD97":160663,"N_COORD97":2551559.6299999999,"ADDRESS":"青砂街一段９４號","OBJECTID":622145},"geometry":{"x":160663.00000000186,"y":2551559.6300000008}},{"attributes":{"ID":622173,"DIS_CODE":0,"TOWNNAME":"安南區","LI":"安慶里","LIN":"5鄰","STREET":"怡安路","SECT":"一段","MAREA":" ","LANE":" ","ALLEY":" ","HOUSE_NO":"２８３號","E_COORD97":168985.07000000001,"N_COORD97":2549075.9900000002,"ADDRESS":"怡安路一段２８３號","OBJECTID":622146},"geometry":{"x":168985.07000000123,"y":2549075.9899999984}},{"attributes":{"ID":622174,"DIS_CODE":0,"TOWNNAME":"安南區","LI":"安慶里","LIN":"13鄰","STREET":"怡安路","SECT":"一段","MAREA":" ","LANE":" ","ALLEY":" ","HOUSE_NO":"６７號","E_COORD97":169400.60999999999,"N_COORD97":2548965.6899999999,"ADDRESS":"怡安路一段６７號","OBJECTID":622147},"geometry":{"x":169400.61000000034,"y":2548965.6900000032}},{"attributes":{"ID":622175,"DIS_CODE":0,"TOWNNAME":"東區","LI":"崇德里","LIN":"4鄰","STREET":"崇德五街","SECT":" ","MAREA":" ","LANE":" ","ALLEY":" ","HOUSE_NO":"５３號","E_COORD97":170701.39999999999,"N_COORD97":2541878.2200000002,"ADDRESS":"崇德五街５３號","OBJECTID":622148},"geometry":{"x":170701.4000000013,"y":2541878.2200000025}},{"attributes":{"ID":622176,"DIS_CODE":0,"TOWNNAME":"東區","LI":"崇德里","LIN":"4鄰","STREET":"崇德五街","SECT":" ","MAREA":" ","LANE":" ","ALLEY":" ","HOUSE_NO":"５５號","E_COORD97":170704.01000000001,"N_COORD97":2541881.7599999998,"ADDRESS":"崇德五街５５號","OBJECTID":622149},"geometry":{"x":170704.01000000071,"y":2541881.7599999998}},{"attributes":{"ID":622177,"DIS_CODE":0,"TOWNNAME":"東區","LI":"崇德里","LIN":"4鄰","STREET":"崇德五街","SECT":" ","MAREA":" ","LANE":" ","ALLEY":" ","HOUSE_NO":"５７號","E_COORD97":170707.54999999999,"N_COORD97":2541885.6000000001,"ADDRESS":"崇德五街５７號","OBJECTID":622150},"geometry":{"x":170707.54999999981,"y":2541885.5999999996}},{"attributes":{"ID":622178,"DIS_CODE":0,"TOWNNAME":"東區","LI":"崇德里","LIN":"4鄰","STREET":"崇德五街","SECT":" ","MAREA":" ","LANE":" ","ALLEY":" ","HOUSE_NO":"５８號","E_COORD97":170730.42000000001,"N_COORD97":2541884.1099999999,"ADDRESS":"崇德五街５８號","OBJECTID":622151},"geometry":{"x":170730.41999999993,"y":2541884.1100000013}},{"attributes":{"ID":622179,"DIS_CODE":0,"TOWNNAME":"東區","LI":"崇德里","LIN":"4鄰","STREET":"崇德五街","SECT":" ","MAREA":" ","LANE":" ","ALLEY":" ","HOUSE_NO":"５９號","E_COORD97":170711.85000000001,"N_COORD97":2541890.6699999999,"ADDRESS":"崇德五街５９號","OBJECTID":622152},"geometry":{"x":170711.84999999963,"y":2541890.6700000037}},{"attributes":{"ID":622180,"DIS_CODE":0,"TOWNNAME":"東區","LI":"崇德里","LIN":"4鄰","STREET":"崇德五街","SECT":" ","MAREA":" ","LANE":" ","ALLEY":" ","HOUSE_NO":"５９號之１","E_COORD97":170714.47,"N_COORD97":2541895.1200000001,"ADDRESS":"崇德五街５９號之１","OBJECTID":622153},"geometry":{"x":170714.47000000067,"y":2541895.1199999992}},{"attributes":{"ID":622181,"DIS_CODE":0,"TOWNNAME":"東區","LI":"崇德里","LIN":"4鄰","STREET":"崇德五街","SECT":" ","MAREA":" ","LANE":" ","ALLEY":" ","HOUSE_NO":"６１號","E_COORD97":170717.54000000001,"N_COORD97":2541899.1200000001,"ADDRESS":"崇德五街６１號","OBJECTID":622154},"geometry":{"x":170717.54000000097,"y":2541899.1200000029}},{"attributes":{"ID":622182,"DIS_CODE":0,"TOWNNAME":"東區","LI":"崇德里","LIN":"4鄰","STREET":"崇德五街","SECT":" ","MAREA":" ","LANE":" ","ALLEY":" ","HOUSE_NO":"６４號","E_COORD97":170739.69,"N_COORD97":2541896.3500000001,"ADDRESS":"崇德五街６４號","OBJECTID":622155},"geometry":{"x":170739.69000000041,"y":2541896.3500000015}},{"attributes":{"ID":622183,"DIS_CODE":0,"TOWNNAME":"東區","LI":"崇德里","LIN":"4鄰","STREET":"崇德五街","SECT":" ","MAREA":" ","LANE":" ","ALLEY":" ","HOUSE_NO":"６５號","E_COORD97":170736.60000000001,"N_COORD97":2541916.5499999998,"ADDRESS":"崇德五街６５號","OBJECTID":622156},"geometry":{"x":170736.60000000056,"y":2541916.5500000026}},{"attributes":{"ID":622184,"DIS_CODE":0,"TOWNNAME":"東區","LI":"崇德里","LIN":"4鄰","STREET":"崇德五街","SECT":" ","MAREA":" ","LANE":" ","ALLEY":" ","HOUSE_NO":"６８號","E_COORD97":170745.10999999999,"N_COORD97":2541900.6400000001,"ADDRESS":"崇德五街６８號","OBJECTID":622157},"geometry":{"x":170745.11000000034,"y":2541900.6400000006}},{"attributes":{"ID":622185,"DIS_CODE":0,"TOWNNAME":"東區","LI":"崇德里","LIN":"4鄰","STREET":"崇德五街","SECT":" ","MAREA":" ","LANE":" ","ALLEY":" ","HOUSE_NO":"６９號","E_COORD97":170740.81,"N_COORD97":2541930.2999999998,"ADDRESS":"崇德五街６９號","OBJECTID":622158},"geometry":{"x":170740.81000000052,"y":2541930.3000000007}},{"attributes":{"ID":622186,"DIS_CODE":0,"TOWNNAME":"東區","LI":"崇德里","LIN":"4鄰","STREET":"崇德五街","SECT":" ","MAREA":" ","LANE":" ","ALLEY":" ","HOUSE_NO":"６號","E_COORD97":170666.26999999999,"N_COORD97":2541793.3199999998,"ADDRESS":"崇德五街６號","OBJECTID":622159},"geometry":{"x":170666.27000000048,"y":2541793.3200000003}},{"attributes":{"ID":622187,"DIS_CODE":0,"TOWNNAME":"東區","LI":"崇德里","LIN":"4鄰","STREET":"崇德五街","SECT":" ","MAREA":" ","LANE":" ","ALLEY":" ","HOUSE_NO":"７１號","E_COORD97":170742.20999999999,"N_COORD97":2541935.0699999998,"ADDRESS":"崇德五街７１號","OBJECTID":622160},"geometry":{"x":170742.20999999996,"y":2541935.0700000003}},{"attributes":{"ID":622188,"DIS_CODE":0,"TOWNNAME":"東區","LI":"崇德里","LIN":"4鄰","STREET":"崇德五街","SECT":" ","MAREA":" ","LANE":" ","ALLEY":" ","HOUSE_NO":"７２號","E_COORD97":170751.70000000001,"N_COORD97":2541907.5699999998,"ADDRESS":"崇德五街７２號","OBJECTID":622161},"geometry":{"x":170751.70000000112,"y":2541907.5700000003}},{"attributes":{"ID":622189,"DIS_CODE":0,"TOWNNAME":"東區","LI":"崇德里","LIN":"4鄰","STREET":"崇德五街","SECT":" ","MAREA":" ","LANE":" ","ALLEY":" ","HOUSE_NO":"７３號","E_COORD97":170744.04000000001,"N_COORD97":2541939,"ADDRESS":"崇德五街７３號","OBJECTID":622162},"geometry":{"x":170744.0400000019,"y":2541938.9999999981}},{"attributes":{"ID":622190,"DIS_CODE":0,"TOWNNAME":"東區","LI":"崇德里","LIN":"4鄰","STREET":"崇德五街","SECT":" ","MAREA":" ","LANE":" ","ALLEY":" ","HOUSE_NO":"７５號","E_COORD97":170746.01000000001,"N_COORD97":2541942.79,"ADDRESS":"崇德五街７５號","OBJECTID":622163},"geometry":{"x":170746.01000000071,"y":2541942.7899999972}},{"attributes":{"ID":622191,"DIS_CODE":0,"TOWNNAME":"東區","LI":"崇德里","LIN":"4鄰","STREET":"崇德五街","SECT":" ","MAREA":" ","LANE":" ","ALLEY":" ","HOUSE_NO":"７６號","E_COORD97":170756.54000000001,"N_COORD97":2541915,"ADDRESS":"崇德五街７６號","OBJECTID":622164},"geometry":{"x":170756.54000000097,"y":2541915}},{"attributes":{"ID":622192,"DIS_CODE":0,"TOWNNAME":"東區","LI":"崇德里","LIN":"11鄰","STREET":"崇德十一街","SECT":" ","MAREA":" ","LANE":" ","ALLEY":" ","HOUSE_NO":"１號","E_COORD97":170825.69,"N_COORD97":2541474.7400000002,"ADDRESS":"崇德十一街１號","OBJECTID":622165},"geometry":{"x":170825.69000000041,"y":2541474.7400000021}},{"attributes":{"ID":622193,"DIS_CODE":0,"TOWNNAME":"東區","LI":"崇德里","LIN":"20鄰","STREET":"崇明十四街","SECT":" ","MAREA":" ","LANE":" ","ALLEY":" ","HOUSE_NO":"４２號","E_COORD97":170632.54000000001,"N_COORD97":2541599.3999999999,"ADDRESS":"崇明十四街４２號","OBJECTID":622166},"geometry":{"x":170632.54000000097,"y":2541599.4000000022}},{"attributes":{"ID":622194,"DIS_CODE":0,"TOWNNAME":"東區","LI":"崇德里","LIN":"20鄰","STREET":"崇明十四街","SECT":" ","MAREA":" ","LANE":" ","ALLEY":" ","HOUSE_NO":"１０號","E_COORD97":170568.70999999999,"N_COORD97":2541523.8199999998,"ADDRESS":"崇明十四街１０號","OBJECTID":622167},"geometry":{"x":170568.71000000089,"y":2541523.820000004}},{"attributes":{"ID":622195,"DIS_CODE":0,"TOWNNAME":"東區","LI":"崇德里","LIN":"20鄰","STREET":"崇明十四街","SECT":" ","MAREA":" ","LANE":" ","ALLEY":" ","HOUSE_NO":"１１號","E_COORD97":170548.95999999999,"N_COORD97":2541540.5800000001,"ADDRESS":"崇明十四街１１號","OBJECTID":622168},"geometry":{"x":170548.95999999996,"y":2541540.5800000001}},{"attributes":{"ID":622196,"DIS_CODE":0,"TOWNNAME":"東區","LI":"崇德里","LIN":"20鄰","STREET":"崇明十四街","SECT":" ","MAREA":" ","LANE":" ","ALLEY":" ","HOUSE_NO":"１３號","E_COORD97":170551.17000000001,"N_COORD97":2541543.2999999998,"ADDRESS":"崇明十四街１３號","OBJECTID":622169},"geometry":{"x":170551.16999999993,"y":2541543.3000000007}},{"attributes":{"ID":622197,"DIS_CODE":0,"TOWNNAME":"東區","LI":"崇德里","LIN":"20鄰","STREET":"崇明十四街","SECT":" ","MAREA":" ","LANE":" ","ALLEY":" ","HOUSE_NO":"１５號","E_COORD97":170554.06,"N_COORD97":2541546.7000000002,"ADDRESS":"崇明十四街１５號","OBJECTID":622170},"geometry":{"x":170554.06000000052,"y":2541546.6999999993}},{"attributes":{"ID":622198,"DIS_CODE":0,"TOWNNAME":"東區","LI":"崇德里","LIN":"20鄰","STREET":"崇明十四街","SECT":" ","MAREA":" ","LANE":" ","ALLEY":" ","HOUSE_NO":"１７號","E_COORD97":170556.62,"N_COORD97":2541550.1000000001,"ADDRESS":"崇明十四街１７號","OBJECTID":622171},"geometry":{"x":170556.62000000011,"y":2541550.0999999996}},{"attributes":{"ID":622199,"DIS_CODE":0,"TOWNNAME":"東區","LI":"崇德里","LIN":"20鄰","STREET":"崇明十四街","SECT":" ","MAREA":" ","LANE":" ","ALLEY":" ","HOUSE_NO":"１９號","E_COORD97":170559,"N_COORD97":2541553.8399999999,"ADDRESS":"崇明十四街１９號","OBJECTID":622172},"geometry":{"x":170559,"y":2541553.8400000036}},{"attributes":{"ID":622200,"DIS_CODE":0,"TOWNNAME":"東區","LI":"崇德里","LIN":"20鄰","STREET":"崇明十四街","SECT":" ","MAREA":" ","LANE":" ","ALLEY":" ","HOUSE_NO":"２１號","E_COORD97":170561.20999999999,"N_COORD97":2541556.5699999998,"ADDRESS":"崇明十四街２１號","OBJECTID":622173},"geometry":{"x":170561.20999999996,"y":2541556.5700000022}},{"attributes":{"ID":622201,"DIS_CODE":0,"TOWNNAME":"東區","LI":"崇德里","LIN":"20鄰","STREET":"崇明十四街","SECT":" ","MAREA":" ","LANE":" ","ALLEY":" ","HOUSE_NO":"２３號","E_COORD97":170563.76999999999,"N_COORD97":2541560.3100000001,"ADDRESS":"崇明十四街２３號","OBJECTID":622174},"geometry":{"x":170563.76999999955,"y":2541560.3100000005}},{"attributes":{"ID":622202,"DIS_CODE":0,"TOWNNAME":"東區","LI":"東明里","LIN":"30鄰","STREET":"東安路","SECT":" ","MAREA":" ","LANE":" ","ALLEY":" ","HOUSE_NO":"７７號","E_COORD97":170676.89000000001,"N_COORD97":2543675.1800000002,"ADDRESS":"東安路７７號","OBJECTID":622175},"geometry":{"x":170676.89000000153,"y":2543675.1800000016}},{"attributes":{"ID":622203,"DIS_CODE":0,"TOWNNAME":"東區","LI":"崇德里","LIN":"21鄰","STREET":"崇德路","SECT":" ","MAREA":" ","LANE":" ","ALLEY":" ","HOUSE_NO":"３９８號","E_COORD97":170559.95999999999,"N_COORD97":2541769.5499999998,"ADDRESS":"崇德路３９８號","OBJECTID":622176},"geometry":{"x":170559.96000000089,"y":2541769.5500000007}},{"attributes":{"ID":622204,"DIS_CODE":0,"TOWNNAME":"東區","LI":"崇德里","LIN":"21鄰","STREET":"崇德路","SECT":" ","MAREA":" ","LANE":" ","ALLEY":" ","HOUSE_NO":"４００號","E_COORD97":170564.75,"N_COORD97":2541767.0699999998,"ADDRESS":"崇德路４００號","OBJECTID":622177},"geometry":{"x":170564.75000000093,"y":2541767.0700000022}},{"attributes":{"ID":622205,"DIS_CODE":0,"TOWNNAME":"東區","LI":"崇德里","LIN":"21鄰","STREET":"崇德路","SECT":" ","MAREA":" ","LANE":" ","ALLEY":" ","HOUSE_NO":"４０２號","E_COORD97":170569.35000000001,"N_COORD97":2541763.8900000001,"ADDRESS":"崇德路４０２號","OBJECTID":622178},"geometry":{"x":170569.35000000056,"y":2541763.8900000006}},{"attributes":{"ID":622206,"DIS_CODE":0,"TOWNNAME":"東區","LI":"崇德里","LIN":"21鄰","STREET":"崇德路","SECT":" ","MAREA":" ","LANE":" ","ALLEY":" ","HOUSE_NO":"４４０號","E_COORD97":170648.09,"N_COORD97":2541703.21,"ADDRESS":"崇德路４４０號","OBJECTID":622179},"geometry":{"x":170648.08999999985,"y":2541703.2100000009}},{"attributes":{"ID":622207,"DIS_CODE":0,"TOWNNAME":"東區","LI":"新東里","LIN":"23鄰","STREET":"裕豐街","SECT":" ","MAREA":" ","LANE":" ","ALLEY":" ","HOUSE_NO":"１０３號","E_COORD97":170743.70999999999,"N_COORD97":2542990.8999999999,"ADDRESS":"裕豐街１０３號","OBJECTID":622180},"geometry":{"x":170743.70999999996,"y":2542990.9000000004}},{"attributes":{"ID":622208,"DIS_CODE":0,"TOWNNAME":"東區","LI":"崇德里","LIN":"4鄰","STREET":"崇德五街","SECT":" ","MAREA":" ","LANE":" ","ALLEY":" ","HOUSE_NO":"７４號","E_COORD97":170754.70999999999,"N_COORD97":2541911.0699999998,"ADDRESS":"崇德五街７４號","OBJECTID":622181},"geometry":{"x":170754.71000000183,"y":2541911.0700000003}},{"attributes":{"ID":622209,"DIS_CODE":0,"TOWNNAME":"東區","LI":"東光里","LIN":"20鄰","STREET":"東安路","SECT":" ","MAREA":" ","LANE":" ","ALLEY":" ","HOUSE_NO":"１１８號","E_COORD97":170737.07000000001,"N_COORD97":2543800.5600000001,"ADDRESS":"東安路１１８號","OBJECTID":622182},"geometry":{"x":170737.0700000003,"y":2543800.5600000042}},{"attributes":{"ID":622210,"DIS_CODE":0,"TOWNNAME":"東區","LI":"東光里","LIN":"20鄰","STREET":"東安路","SECT":" ","MAREA":" ","LANE":" ","ALLEY":" ","HOUSE_NO":"１２０號","E_COORD97":170737.39000000001,"N_COORD97":2543805.1299999999,"ADDRESS":"東安路１２０號","OBJECTID":622183},"geometry":{"x":170737.38999999966,"y":2543805.1299999971}},{"attributes":{"ID":622211,"DIS_CODE":0,"TOWNNAME":"東區","LI":"東光里","LIN":"20鄰","STREET":"東安路","SECT":" ","MAREA":" ","LANE":" ","ALLEY":" ","HOUSE_NO":"１２２號","E_COORD97":170738.45999999999,"N_COORD97":2543809.6000000001,"ADDRESS":"東安路１２２號","OBJECTID":622184},"geometry":{"x":170738.46000000089,"y":2543809.6000000034}},{"attributes":{"ID":622212,"DIS_CODE":0,"TOWNNAME":"東區","LI":"東光里","LIN":"20鄰","STREET":"東安路","SECT":" ","MAREA":" ","LANE":" ","ALLEY":" ","HOUSE_NO":"１２４號","E_COORD97":170738.04999999999,"N_COORD97":2543813.3399999999,"ADDRESS":"東安路１２４號","OBJECTID":622185},"geometry":{"x":170738.04999999981,"y":2543813.3399999999}},{"attributes":{"ID":622213,"DIS_CODE":0,"TOWNNAME":"東區","LI":"東光里","LIN":"20鄰","STREET":"東安路","SECT":" ","MAREA":" ","LANE":" ","ALLEY":" ","HOUSE_NO":"１２６號","E_COORD97":170738.31,"N_COORD97":2543817.2799999998,"ADDRESS":"東安路１２６號","OBJECTID":622186},"geometry":{"x":170738.31000000145,"y":2543817.2799999993}},{"attributes":{"ID":622214,"DIS_CODE":0,"TOWNNAME":"東區","LI":"東光里","LIN":"20鄰","STREET":"東安路","SECT":" ","MAREA":" ","LANE":" ","ALLEY":" ","HOUSE_NO":"１２８號","E_COORD97":170739.76000000001,"N_COORD97":2543820.9500000002,"ADDRESS":"東安路１２８號","OBJECTID":622187},"geometry":{"x":170739.75999999978,"y":2543820.9500000011}},{"attributes":{"ID":622215,"DIS_CODE":0,"TOWNNAME":"東區","LI":"東光里","LIN":"20鄰","STREET":"東安路","SECT":" ","MAREA":" ","LANE":" ","ALLEY":" ","HOUSE_NO":"１３０號","E_COORD97":170740.67999999999,"N_COORD97":2543826.2000000002,"ADDRESS":"東安路１３０號","OBJECTID":622188},"geometry":{"x":170740.6799999997,"y":2543826.2000000011}},{"attributes":{"ID":622216,"DIS_CODE":0,"TOWNNAME":"東區","LI":"東光里","LIN":"20鄰","STREET":"東安路","SECT":" ","MAREA":" ","LANE":" ","ALLEY":" ","HOUSE_NO":"１３２號","E_COORD97":170742.38,"N_COORD97":2543829.7400000002,"ADDRESS":"東安路１３２號","OBJECTID":622189},"geometry":{"x":170742.37999999989,"y":2543829.7400000039}},{"attributes":{"ID":622217,"DIS_CODE":0,"TOWNNAME":"東區","LI":"崇誨里","LIN":"34鄰","STREET":"東寧路","SECT":" ","MAREA":" ","LANE":" ","ALLEY":" ","HOUSE_NO":"２２６號","E_COORD97":170545.92999999999,"N_COORD97":2543473.6899999999,"ADDRESS":"東寧路２２６號","OBJECTID":622190},"geometry":{"x":170545.92999999877,"y":2543473.6900000013}},{"attributes":{"ID":622218,"DIS_CODE":0,"TOWNNAME":"東區","LI":"東光里","LIN":"26鄰","STREET":"東安路","SECT":" ","MAREA":" ","LANE":" ","ALLEY":" ","HOUSE_NO":"１８２號","E_COORD97":170768.87,"N_COORD97":2543960.3399999999,"ADDRESS":"東安路１８２號","OBJECTID":622191},"geometry":{"x":170768.86999999918,"y":2543960.3399999999}},{"attributes":{"ID":622219,"DIS_CODE":0,"TOWNNAME":"東區","LI":"東光里","LIN":"26鄰","STREET":"東安路","SECT":" ","MAREA":" ","LANE":" ","ALLEY":" ","HOUSE_NO":"１８４號","E_COORD97":170770.10000000001,"N_COORD97":2543965.3999999999,"ADDRESS":"東安路１８４號","OBJECTID":622192},"geometry":{"x":170770.09999999963,"y":2543965.4000000022}},{"attributes":{"ID":622220,"DIS_CODE":0,"TOWNNAME":"東區","LI":"東光里","LIN":"26鄰","STREET":"東安路","SECT":" ","MAREA":" ","LANE":" ","ALLEY":" ","HOUSE_NO":"１８６號","E_COORD97":170770.39999999999,"N_COORD97":2543969.2200000002,"ADDRESS":"東安路１８６號","OBJECTID":622193},"geometry":{"x":170770.40000000037,"y":2543969.2200000044}},{"attributes":{"ID":622221,"DIS_CODE":0,"TOWNNAME":"東區","LI":"東明里","LIN":"7鄰","STREET":"東興路","SECT":" ","MAREA":" ","LANE":" ","ALLEY":" ","HOUSE_NO":"１０９號","E_COORD97":170936.01999999999,"N_COORD97":2543654.48,"ADDRESS":"東興路１０９號","OBJECTID":622194},"geometry":{"x":170936.01999999955,"y":2543654.4800000004}},{"attributes":{"ID":622222,"DIS_CODE":0,"TOWNNAME":"東區","LI":"東明里","LIN":"7鄰","STREET":"東興路","SECT":" ","MAREA":" ","LANE":" ","ALLEY":" ","HOUSE_NO":"１１１號","E_COORD97":170939.28,"N_COORD97":2543664.0299999998,"ADDRESS":"東興路１１１號","OBJECTID":622195},"geometry":{"x":170939.28000000212,"y":2543664.0300000031}},{"attributes":{"ID":622223,"DIS_CODE":0,"TOWNNAME":"東區","LI":"東明里","LIN":"7鄰","STREET":"東興路","SECT":" ","MAREA":" ","LANE":" ","ALLEY":" ","HOUSE_NO":"１２９號","E_COORD97":170955.35999999999,"N_COORD97":2543678.7999999998,"ADDRESS":"東興路１２９號","OBJECTID":622196},"geometry":{"x":170955.36000000034,"y":2543678.8000000026}},{"attributes":{"ID":622224,"DIS_CODE":0,"TOWNNAME":"東區","LI":"東明里","LIN":"6鄰","STREET":"怡東路","SECT":" ","MAREA":" ","LANE":" ","ALLEY":" ","HOUSE_NO":"７８號","E_COORD97":170867.57999999999,"N_COORD97":2543670,"ADDRESS":"怡東路７８號","OBJECTID":622197},"geometry":{"x":170867.58000000194,"y":2543670}},{"attributes":{"ID":622225,"DIS_CODE":0,"TOWNNAME":"東區","LI":"崇德里","LIN":"21鄰","STREET":"崇德路","SECT":" ","MAREA":" ","LANE":" ","ALLEY":" ","HOUSE_NO":"４４２號","E_COORD97":170652.84,"N_COORD97":2541701.6299999999,"ADDRESS":"崇德路４４２號","OBJECTID":622198},"geometry":{"x":170652.83999999985,"y":2541701.629999999}},{"attributes":{"ID":622226,"DIS_CODE":0,"TOWNNAME":"東區","LI":"崇德里","LIN":"21鄰","STREET":"崇德路","SECT":" ","MAREA":" ","LANE":" ","ALLEY":" ","HOUSE_NO":"４６８號","E_COORD97":170737.64999999999,"N_COORD97":2541639.21,"ADDRESS":"崇德路４６８號","OBJECTID":622199},"geometry":{"x":170737.6500000013,"y":2541639.2100000009}},{"attributes":{"ID":622227,"DIS_CODE":0,"TOWNNAME":"東區","LI":"崇德里","LIN":"21鄰","STREET":"崇德路","SECT":" ","MAREA":" ","LANE":" ","ALLEY":" ","HOUSE_NO":"４４６號","E_COORD97":170660.44,"N_COORD97":2541695.6200000001,"ADDRESS":"崇德路４４６號","OBJECTID":622200},"geometry":{"x":170660.44000000134,"y":2541695.6200000029}}]}