{"displayFieldName":"TOWNNAME","fieldAliases":{"ID":"ID","DIS_CODE":"DIS_CODE","TOWNNAME":"TOWNNAME","LI":"LI","LIN":"LIN","STREET":"STREET","SECT":"SECT","MAREA":"MAREA","LANE":"LANE","ALLEY":"ALLEY","HOUSE_NO":"HOUSE_NO","E_COORD97":"E_COORD97","N_COORD97":"N_COORD97","ADDRESS":"ADDRESS","OBJECTID":"OBJECTID"},"geometryType":"esriGeometryPoint","spatialReference":{"wkid":102443,"latestWkid":3826},"fields":[{"name":"ID","type":"esriFieldTypeDouble","alias":"ID"},{"name":"DIS_CODE","type":"esriFieldTypeInteger","alias":"DIS_CODE"},{"name":"TOWNNAME","type":"esriFieldTypeString","alias":"TOWNNAME","length":8},{"name":"LI","type":"esriFieldTypeString","alias":"LI","length":8},{"name":"LIN","type":"esriFieldTypeString","alias":"LIN","length":12},{"name":"STREET","type":"esriFieldTypeString","alias":"STREET","length":20},{"name":"SECT","type":"esriFieldTypeString","alias":"SECT","length":8},{"name":"MAREA","type":"esriFieldTypeString","alias":"MAREA","length":12},{"name":"LANE","type":"esriFieldTypeString","alias":"LANE","length":10},{"name":"ALLEY","type":"esriFieldTypeString","alias":"ALLEY","length":10},{"name":"HOUSE_NO","type":"esriFieldTypeString","alias":"HOUSE_NO","length":20},{"name":"E_COORD97","type":"esriFieldTypeDouble","alias":"E_COORD97"},{"name":"N_COORD97","type":"esriFieldTypeDouble","alias":"N_COORD97"},{"name":"ADDRESS","type":"esriFieldTypeString","alias":"ADDRESS","length":50},{"name":"OBJECTID","type":"esriFieldTypeOID","alias":"OBJECTID"}],"features":[{"attributes":{"ID":523628,"DIS_CODE":0,"TOWNNAME":"東區","LI":"德光里","LIN":"6鄰","STREET":"崇明路","SECT":" ","MAREA":" ","LANE":" ","ALLEY":" ","HOUSE_NO":"１４７號十樓之３","E_COORD97":169886,"N_COORD97":2542231.0800000001,"ADDRESS":"崇明路１４７號十樓之３","OBJECTID":523601},"geometry":{"x":169886,"y":2542231.0800000019}},{"attributes":{"ID":523629,"DIS_CODE":0,"TOWNNAME":"東區","LI":"德光里","LIN":"6鄰","STREET":"崇明路","SECT":" ","MAREA":" ","LANE":" ","ALLEY":" ","HOUSE_NO":"１４７號三樓","E_COORD97":169886,"N_COORD97":2542231.0800000001,"ADDRESS":"崇明路１４７號三樓","OBJECTID":523602},"geometry":{"x":169886,"y":2542231.0800000019}},{"attributes":{"ID":523630,"DIS_CODE":0,"TOWNNAME":"東區","LI":"德光里","LIN":"6鄰","STREET":"崇明路","SECT":" ","MAREA":" ","LANE":" ","ALLEY":" ","HOUSE_NO":"１４７號三樓之１","E_COORD97":169886,"N_COORD97":2542231.0800000001,"ADDRESS":"崇明路１４７號三樓之１","OBJECTID":523603},"geometry":{"x":169886,"y":2542231.0800000019}},{"attributes":{"ID":523631,"DIS_CODE":0,"TOWNNAME":"東區","LI":"德光里","LIN":"6鄰","STREET":"崇明路","SECT":" ","MAREA":" ","LANE":" ","ALLEY":" ","HOUSE_NO":"１４７號三樓之２","E_COORD97":169886,"N_COORD97":2542231.0800000001,"ADDRESS":"崇明路１４７號三樓之２","OBJECTID":523604},"geometry":{"x":169886,"y":2542231.0800000019}},{"attributes":{"ID":523632,"DIS_CODE":0,"TOWNNAME":"東區","LI":"德光里","LIN":"6鄰","STREET":"崇明路","SECT":" ","MAREA":" ","LANE":" ","ALLEY":" ","HOUSE_NO":"１４７號五樓","E_COORD97":169886,"N_COORD97":2542231.0800000001,"ADDRESS":"崇明路１４７號五樓","OBJECTID":523605},"geometry":{"x":169886,"y":2542231.0800000019}},{"attributes":{"ID":523633,"DIS_CODE":0,"TOWNNAME":"東區","LI":"德光里","LIN":"6鄰","STREET":"崇明路","SECT":" ","MAREA":" ","LANE":" ","ALLEY":" ","HOUSE_NO":"１４７號五樓之１","E_COORD97":169886,"N_COORD97":2542231.0800000001,"ADDRESS":"崇明路１４７號五樓之１","OBJECTID":523606},"geometry":{"x":169886,"y":2542231.0800000019}},{"attributes":{"ID":523634,"DIS_CODE":0,"TOWNNAME":"東區","LI":"德光里","LIN":"6鄰","STREET":"崇明路","SECT":" ","MAREA":" ","LANE":" ","ALLEY":" ","HOUSE_NO":"１４７號六樓","E_COORD97":169886,"N_COORD97":2542231.0800000001,"ADDRESS":"崇明路１４７號六樓","OBJECTID":523607},"geometry":{"x":169886,"y":2542231.0800000019}},{"attributes":{"ID":523635,"DIS_CODE":0,"TOWNNAME":"東區","LI":"德光里","LIN":"6鄰","STREET":"崇明路","SECT":" ","MAREA":" ","LANE":" ","ALLEY":" ","HOUSE_NO":"１４７號六樓之１","E_COORD97":169886,"N_COORD97":2542231.0800000001,"ADDRESS":"崇明路１４７號六樓之１","OBJECTID":523608},"geometry":{"x":169886,"y":2542231.0800000019}},{"attributes":{"ID":523636,"DIS_CODE":0,"TOWNNAME":"東區","LI":"德光里","LIN":"6鄰","STREET":"崇明路","SECT":" ","MAREA":" ","LANE":" ","ALLEY":" ","HOUSE_NO":"１４７號六樓之２","E_COORD97":169886,"N_COORD97":2542231.0800000001,"ADDRESS":"崇明路１４７號六樓之２","OBJECTID":523609},"geometry":{"x":169886,"y":2542231.0800000019}},{"attributes":{"ID":523637,"DIS_CODE":0,"TOWNNAME":"東區","LI":"德光里","LIN":"6鄰","STREET":"崇明路","SECT":" ","MAREA":" ","LANE":" ","ALLEY":" ","HOUSE_NO":"１４７號六樓之３","E_COORD97":169886,"N_COORD97":2542231.0800000001,"ADDRESS":"崇明路１４７號六樓之３","OBJECTID":523610},"geometry":{"x":169886,"y":2542231.0800000019}},{"attributes":{"ID":523638,"DIS_CODE":0,"TOWNNAME":"東區","LI":"德光里","LIN":"6鄰","STREET":"崇明路","SECT":" ","MAREA":" ","LANE":" ","ALLEY":" ","HOUSE_NO":"１４７號四樓","E_COORD97":169886,"N_COORD97":2542231.0800000001,"ADDRESS":"崇明路１４７號四樓","OBJECTID":523611},"geometry":{"x":169886,"y":2542231.0800000019}},{"attributes":{"ID":523639,"DIS_CODE":0,"TOWNNAME":"東區","LI":"德光里","LIN":"6鄰","STREET":"崇明路","SECT":" ","MAREA":" ","LANE":" ","ALLEY":" ","HOUSE_NO":"１４７號四樓之１","E_COORD97":169886,"N_COORD97":2542231.0800000001,"ADDRESS":"崇明路１４７號四樓之１","OBJECTID":523612},"geometry":{"x":169886,"y":2542231.0800000019}},{"attributes":{"ID":523640,"DIS_CODE":0,"TOWNNAME":"東區","LI":"德光里","LIN":"6鄰","STREET":"崇明路","SECT":" ","MAREA":" ","LANE":" ","ALLEY":" ","HOUSE_NO":"１４７號四樓之２","E_COORD97":169886,"N_COORD97":2542231.0800000001,"ADDRESS":"崇明路１４７號四樓之２","OBJECTID":523613},"geometry":{"x":169886,"y":2542231.0800000019}},{"attributes":{"ID":523641,"DIS_CODE":0,"TOWNNAME":"東區","LI":"德光里","LIN":"6鄰","STREET":"崇明路","SECT":" ","MAREA":" ","LANE":" ","ALLEY":" ","HOUSE_NO":"１４７號四樓之３","E_COORD97":169886,"N_COORD97":2542231.0800000001,"ADDRESS":"崇明路１４７號四樓之３","OBJECTID":523614},"geometry":{"x":169886,"y":2542231.0800000019}},{"attributes":{"ID":523642,"DIS_CODE":0,"TOWNNAME":"中西區","LI":"元安里","LIN":"6鄰","STREET":"大德街","SECT":" ","MAREA":" ","LANE":" ","ALLEY":" ","HOUSE_NO":"１０２號二樓之１","E_COORD97":167527.91,"N_COORD97":2543176.6699999999,"ADDRESS":"大德街１０２號二樓之１","OBJECTID":523615},"geometry":{"x":167527.91000000108,"y":2543176.6700000018}},{"attributes":{"ID":523643,"DIS_CODE":0,"TOWNNAME":"中西區","LI":"元安里","LIN":"6鄰","STREET":"大德街","SECT":" ","MAREA":" ","LANE":" ","ALLEY":" ","HOUSE_NO":"１０２號二樓之２","E_COORD97":167515.19,"N_COORD97":2543176.9500000002,"ADDRESS":"大德街１０２號二樓之２","OBJECTID":523616},"geometry":{"x":167515.19000000041,"y":2543176.9500000011}},{"attributes":{"ID":523644,"DIS_CODE":0,"TOWNNAME":"中西區","LI":"元安里","LIN":"6鄰","STREET":"大德街","SECT":" ","MAREA":" ","LANE":" ","ALLEY":" ","HOUSE_NO":"１０２號三樓之１","E_COORD97":167527.91,"N_COORD97":2543176.6699999999,"ADDRESS":"大德街１０２號三樓之１","OBJECTID":523617},"geometry":{"x":167527.91000000108,"y":2543176.6700000018}},{"attributes":{"ID":523645,"DIS_CODE":0,"TOWNNAME":"中西區","LI":"元安里","LIN":"6鄰","STREET":"大德街","SECT":" ","MAREA":" ","LANE":" ","ALLEY":" ","HOUSE_NO":"１０２號三樓之２","E_COORD97":167515.19,"N_COORD97":2543176.9500000002,"ADDRESS":"大德街１０２號三樓之２","OBJECTID":523618},"geometry":{"x":167515.19000000041,"y":2543176.9500000011}},{"attributes":{"ID":523646,"DIS_CODE":0,"TOWNNAME":"中西區","LI":"元安里","LIN":"6鄰","STREET":"大德街","SECT":" ","MAREA":" ","LANE":" ","ALLEY":" ","HOUSE_NO":"１０２號三樓之３","E_COORD97":167515.19,"N_COORD97":2543176.9500000002,"ADDRESS":"大德街１０２號三樓之３","OBJECTID":523619},"geometry":{"x":167515.19000000041,"y":2543176.9500000011}},{"attributes":{"ID":523647,"DIS_CODE":0,"TOWNNAME":"中西區","LI":"元安里","LIN":"6鄰","STREET":"大德街","SECT":" ","MAREA":" ","LANE":" ","ALLEY":" ","HOUSE_NO":"１０２號三樓之４","E_COORD97":167527.91,"N_COORD97":2543176.6699999999,"ADDRESS":"大德街１０２號三樓之４","OBJECTID":523620},"geometry":{"x":167527.91000000108,"y":2543176.6700000018}},{"attributes":{"ID":523648,"DIS_CODE":0,"TOWNNAME":"東區","LI":"龍山里","LIN":"14鄰","STREET":"崇仁街","SECT":" ","MAREA":" ","LANE":" ","ALLEY":" ","HOUSE_NO":"１２０號","E_COORD97":170559.28,"N_COORD97":2542573.1699999999,"ADDRESS":"崇仁街１２０號","OBJECTID":523621},"geometry":{"x":170559.28000000026,"y":2542573.1700000018}},{"attributes":{"ID":523649,"DIS_CODE":0,"TOWNNAME":"東區","LI":"龍山里","LIN":"14鄰","STREET":"崇仁街","SECT":" ","MAREA":" ","LANE":" ","ALLEY":" ","HOUSE_NO":"１２２號","E_COORD97":170554.73999999999,"N_COORD97":2542568.6299999999,"ADDRESS":"崇仁街１２２號","OBJECTID":523622},"geometry":{"x":170554.74000000209,"y":2542568.6300000008}},{"attributes":{"ID":523650,"DIS_CODE":0,"TOWNNAME":"東區","LI":"龍山里","LIN":"14鄰","STREET":"崇仁街","SECT":" ","MAREA":" ","LANE":" ","ALLEY":" ","HOUSE_NO":"１２６號","E_COORD97":170549.07000000001,"N_COORD97":2542564.48,"ADDRESS":"崇仁街１２６號","OBJECTID":523623},"geometry":{"x":170549.07000000216,"y":2542564.4800000023}},{"attributes":{"ID":523651,"DIS_CODE":0,"TOWNNAME":"中西區","LI":"元安里","LIN":"6鄰","STREET":"大德街","SECT":" ","MAREA":" ","LANE":" ","ALLEY":" ","HOUSE_NO":"１０２號五樓之１","E_COORD97":167527.91,"N_COORD97":2543176.6699999999,"ADDRESS":"大德街１０２號五樓之１","OBJECTID":523624},"geometry":{"x":167527.91000000108,"y":2543176.6700000018}},{"attributes":{"ID":523652,"DIS_CODE":0,"TOWNNAME":"中西區","LI":"元安里","LIN":"6鄰","STREET":"大德街","SECT":" ","MAREA":" ","LANE":" ","ALLEY":" ","HOUSE_NO":"１０２號五樓之２","E_COORD97":167515.19,"N_COORD97":2543176.9500000002,"ADDRESS":"大德街１０２號五樓之２","OBJECTID":523625},"geometry":{"x":167515.19000000041,"y":2543176.9500000011}},{"attributes":{"ID":523653,"DIS_CODE":0,"TOWNNAME":"中西區","LI":"元安里","LIN":"6鄰","STREET":"大德街","SECT":" ","MAREA":" ","LANE":" ","ALLEY":" ","HOUSE_NO":"１０２號四樓之１","E_COORD97":167527.91,"N_COORD97":2543176.6699999999,"ADDRESS":"大德街１０２號四樓之１","OBJECTID":523626},"geometry":{"x":167527.91000000108,"y":2543176.6700000018}},{"attributes":{"ID":523654,"DIS_CODE":0,"TOWNNAME":"中西區","LI":"元安里","LIN":"6鄰","STREET":"大德街","SECT":" ","MAREA":" ","LANE":" ","ALLEY":" ","HOUSE_NO":"１０２號四樓之２","E_COORD97":167515.19,"N_COORD97":2543176.9500000002,"ADDRESS":"大德街１０２號四樓之２","OBJECTID":523627},"geometry":{"x":167515.19000000041,"y":2543176.9500000011}},{"attributes":{"ID":523655,"DIS_CODE":0,"TOWNNAME":"中西區","LI":"元安里","LIN":"6鄰","STREET":"大德街","SECT":" ","MAREA":" ","LANE":" ","ALLEY":" ","HOUSE_NO":"１０２號四樓之３","E_COORD97":167515.19,"N_COORD97":2543176.9500000002,"ADDRESS":"大德街１０２號四樓之３","OBJECTID":523628},"geometry":{"x":167515.19000000041,"y":2543176.9500000011}},{"attributes":{"ID":523656,"DIS_CODE":0,"TOWNNAME":"永康區","LI":"勝利里","LIN":"6鄰","STREET":"勝學路","SECT":" ","MAREA":" ","LANE":" ","ALLEY":" ","HOUSE_NO":"９號","E_COORD97":171155.01000000001,"N_COORD97":2544593,"ADDRESS":"勝學路９號","OBJECTID":523629},"geometry":{"x":171155.00999999978,"y":2544593}},{"attributes":{"ID":523657,"DIS_CODE":0,"TOWNNAME":"中西區","LI":"元安里","LIN":"6鄰","STREET":"大德街","SECT":" ","MAREA":" ","LANE":" ","ALLEY":" ","HOUSE_NO":"１０２號四樓之４","E_COORD97":167527.91,"N_COORD97":2543176.6699999999,"ADDRESS":"大德街１０２號四樓之４","OBJECTID":523630},"geometry":{"x":167527.91000000108,"y":2543176.6700000018}},{"attributes":{"ID":523658,"DIS_CODE":0,"TOWNNAME":"中西區","LI":"保安里","LIN":"6鄰","STREET":"尊王路","SECT":" ","MAREA":" ","LANE":" ","ALLEY":" ","HOUSE_NO":"５０號三樓之１","E_COORD97":167635.69,"N_COORD97":2543579.6000000001,"ADDRESS":"尊王路５０號三樓之１","OBJECTID":523631},"geometry":{"x":167635.69000000041,"y":2543579.6000000015}},{"attributes":{"ID":523659,"DIS_CODE":0,"TOWNNAME":"中西區","LI":"保安里","LIN":"6鄰","STREET":"尊王路","SECT":" ","MAREA":" ","LANE":" ","ALLEY":" ","HOUSE_NO":"５０號五樓之１","E_COORD97":167635.69,"N_COORD97":2543579.6000000001,"ADDRESS":"尊王路５０號五樓之１","OBJECTID":523632},"geometry":{"x":167635.69000000041,"y":2543579.6000000015}},{"attributes":{"ID":523660,"DIS_CODE":0,"TOWNNAME":"中西區","LI":"保安里","LIN":"6鄰","STREET":"尊王路","SECT":" ","MAREA":" ","LANE":" ","ALLEY":" ","HOUSE_NO":"５０號五樓之２","E_COORD97":167635.69,"N_COORD97":2543579.6000000001,"ADDRESS":"尊王路５０號五樓之２","OBJECTID":523633},"geometry":{"x":167635.69000000041,"y":2543579.6000000015}},{"attributes":{"ID":523661,"DIS_CODE":0,"TOWNNAME":"中西區","LI":"保安里","LIN":"6鄰","STREET":"尊王路","SECT":" ","MAREA":" ","LANE":" ","ALLEY":" ","HOUSE_NO":"５０號四樓之１","E_COORD97":167635.69,"N_COORD97":2543579.6000000001,"ADDRESS":"尊王路５０號四樓之１","OBJECTID":523634},"geometry":{"x":167635.69000000041,"y":2543579.6000000015}},{"attributes":{"ID":523662,"DIS_CODE":0,"TOWNNAME":"中西區","LI":"保安里","LIN":"6鄰","STREET":"尊王路","SECT":" ","MAREA":" ","LANE":" ","ALLEY":" ","HOUSE_NO":"５０號四樓之２","E_COORD97":167635.69,"N_COORD97":2543579.6000000001,"ADDRESS":"尊王路５０號四樓之２","OBJECTID":523635},"geometry":{"x":167635.69000000041,"y":2543579.6000000015}},{"attributes":{"ID":523663,"DIS_CODE":0,"TOWNNAME":"安南區","LI":"新順里","LIN":"6鄰","STREET":"安生街","SECT":" ","MAREA":" ","LANE":" ","ALLEY":" ","HOUSE_NO":"１６６號之１０二樓","E_COORD97":169347.01999999999,"N_COORD97":2549593.23,"ADDRESS":"安生街１６６號之１０二樓","OBJECTID":523636},"geometry":{"x":169347.02000000048,"y":2549593.2300000004}},{"attributes":{"ID":523664,"DIS_CODE":0,"TOWNNAME":"安南區","LI":"新順里","LIN":"6鄰","STREET":"安生街","SECT":" ","MAREA":" ","LANE":" ","ALLEY":" ","HOUSE_NO":"１６６號之１三樓","E_COORD97":169352.73000000001,"N_COORD97":2549555,"ADDRESS":"安生街１６６號之１三樓","OBJECTID":523637},"geometry":{"x":169352.73000000045,"y":2549555.0000000019}},{"attributes":{"ID":523665,"DIS_CODE":0,"TOWNNAME":"安南區","LI":"新順里","LIN":"6鄰","STREET":"安生街","SECT":" ","MAREA":" ","LANE":" ","ALLEY":" ","HOUSE_NO":"１６６號之１五樓","E_COORD97":169352.73000000001,"N_COORD97":2549555,"ADDRESS":"安生街１６６號之１五樓","OBJECTID":523638},"geometry":{"x":169352.73000000045,"y":2549555.0000000019}},{"attributes":{"ID":523666,"DIS_CODE":0,"TOWNNAME":"安南區","LI":"新順里","LIN":"6鄰","STREET":"安生街","SECT":" ","MAREA":" ","LANE":" ","ALLEY":" ","HOUSE_NO":"１６６號之１四樓","E_COORD97":169352.73000000001,"N_COORD97":2549555,"ADDRESS":"安生街１６６號之１四樓","OBJECTID":523639},"geometry":{"x":169352.73000000045,"y":2549555.0000000019}},{"attributes":{"ID":523667,"DIS_CODE":0,"TOWNNAME":"安南區","LI":"新順里","LIN":"6鄰","STREET":"安生街","SECT":" ","MAREA":" ","LANE":" ","ALLEY":" ","HOUSE_NO":"１６６號之２五樓","E_COORD97":169354.16,"N_COORD97":2549567.5499999998,"ADDRESS":"安生街１６６號之２五樓","OBJECTID":523640},"geometry":{"x":169354.16000000015,"y":2549567.5500000007}},{"attributes":{"ID":523668,"DIS_CODE":0,"TOWNNAME":"安南區","LI":"新順里","LIN":"6鄰","STREET":"安生街","SECT":" ","MAREA":" ","LANE":" ","ALLEY":" ","HOUSE_NO":"１６６號之２四樓","E_COORD97":169354.16,"N_COORD97":2549567.5499999998,"ADDRESS":"安生街１６６號之２四樓","OBJECTID":523641},"geometry":{"x":169354.16000000015,"y":2549567.5500000007}},{"attributes":{"ID":523669,"DIS_CODE":0,"TOWNNAME":"安南區","LI":"新順里","LIN":"6鄰","STREET":"安生街","SECT":" ","MAREA":" ","LANE":" ","ALLEY":" ","HOUSE_NO":"１６６號之３四樓","E_COORD97":169356.16,"N_COORD97":2549579.8199999998,"ADDRESS":"安生街１６６號之３四樓","OBJECTID":523642},"geometry":{"x":169356.16000000015,"y":2549579.8200000022}},{"attributes":{"ID":523670,"DIS_CODE":0,"TOWNNAME":"安南區","LI":"新順里","LIN":"6鄰","STREET":"安生街","SECT":" ","MAREA":" ","LANE":" ","ALLEY":" ","HOUSE_NO":"１６６號之４三樓","E_COORD97":169355.87,"N_COORD97":2549590.3700000001,"ADDRESS":"安生街１６６號之４三樓","OBJECTID":523643},"geometry":{"x":169355.87000000104,"y":2549590.3700000029}},{"attributes":{"ID":523671,"DIS_CODE":0,"TOWNNAME":"安南區","LI":"新順里","LIN":"6鄰","STREET":"安生街","SECT":" ","MAREA":" ","LANE":" ","ALLEY":" ","HOUSE_NO":"１６６號之４四樓","E_COORD97":169355.87,"N_COORD97":2549590.3700000001,"ADDRESS":"安生街１６６號之４四樓","OBJECTID":523644},"geometry":{"x":169355.87000000104,"y":2549590.3700000029}},{"attributes":{"ID":523672,"DIS_CODE":0,"TOWNNAME":"安南區","LI":"新順里","LIN":"6鄰","STREET":"安生街","SECT":" ","MAREA":" ","LANE":" ","ALLEY":" ","HOUSE_NO":"１６６號之６二樓","E_COORD97":169341.88,"N_COORD97":2549564.7000000002,"ADDRESS":"安生街１６６號之６二樓","OBJECTID":523645},"geometry":{"x":169341.88000000082,"y":2549564.6999999993}},{"attributes":{"ID":523673,"DIS_CODE":0,"TOWNNAME":"安南區","LI":"新順里","LIN":"6鄰","STREET":"安生街","SECT":" ","MAREA":" ","LANE":" ","ALLEY":" ","HOUSE_NO":"１６６號之７四樓","E_COORD97":169343.59,"N_COORD97":2549571.8300000001,"ADDRESS":"安生街１６６號之７四樓","OBJECTID":523646},"geometry":{"x":169343.59000000078,"y":2549571.8300000001}},{"attributes":{"ID":523674,"DIS_CODE":0,"TOWNNAME":"安南區","LI":"新順里","LIN":"6鄰","STREET":"安生街","SECT":" ","MAREA":" ","LANE":" ","ALLEY":" ","HOUSE_NO":"１６６號之８二樓","E_COORD97":169344.73999999999,"N_COORD97":2549579.25,"ADDRESS":"安生街１６６號之８二樓","OBJECTID":523647},"geometry":{"x":169344.74000000115,"y":2549579.2500000037}},{"attributes":{"ID":523675,"DIS_CODE":0,"TOWNNAME":"安南區","LI":"新順里","LIN":"6鄰","STREET":"安生街","SECT":" ","MAREA":" ","LANE":" ","ALLEY":" ","HOUSE_NO":"１６６號之８四樓","E_COORD97":169344.73999999999,"N_COORD97":2549579.25,"ADDRESS":"安生街１６６號之８四樓","OBJECTID":523648},"geometry":{"x":169344.74000000115,"y":2549579.2500000037}},{"attributes":{"ID":523676,"DIS_CODE":0,"TOWNNAME":"安南區","LI":"新順里","LIN":"6鄰","STREET":"安生街","SECT":" ","MAREA":" ","LANE":" ","ALLEY":" ","HOUSE_NO":"１６６號之７二樓","E_COORD97":169343.59,"N_COORD97":2549571.8300000001,"ADDRESS":"安生街１６６號之７二樓","OBJECTID":523649},"geometry":{"x":169343.59000000078,"y":2549571.8300000001}},{"attributes":{"ID":523677,"DIS_CODE":0,"TOWNNAME":"安南區","LI":"新順里","LIN":"6鄰","STREET":"安生街","SECT":" ","MAREA":" ","LANE":" ","ALLEY":" ","HOUSE_NO":"１６６號之２三樓","E_COORD97":169354.16,"N_COORD97":2549567.5499999998,"ADDRESS":"安生街１６６號之２三樓","OBJECTID":523650},"geometry":{"x":169354.16000000015,"y":2549567.5500000007}},{"attributes":{"ID":523678,"DIS_CODE":0,"TOWNNAME":"安南區","LI":"新順里","LIN":"6鄰","STREET":"安生街","SECT":" ","MAREA":" ","LANE":" ","ALLEY":" ","HOUSE_NO":"１６６號之３五樓","E_COORD97":169356.16,"N_COORD97":2549579.8199999998,"ADDRESS":"安生街１６６號之３五樓","OBJECTID":523651},"geometry":{"x":169356.16000000015,"y":2549579.8200000022}},{"attributes":{"ID":523679,"DIS_CODE":0,"TOWNNAME":"安南區","LI":"新順里","LIN":"6鄰","STREET":"安生街","SECT":" ","MAREA":" ","LANE":" ","ALLEY":" ","HOUSE_NO":"１６６號之４五樓","E_COORD97":169355.87,"N_COORD97":2549590.3700000001,"ADDRESS":"安生街１６６號之４五樓","OBJECTID":523652},"geometry":{"x":169355.87000000104,"y":2549590.3700000029}},{"attributes":{"ID":523680,"DIS_CODE":0,"TOWNNAME":"安南區","LI":"新順里","LIN":"6鄰","STREET":"安生街","SECT":" ","MAREA":" ","LANE":" ","ALLEY":" ","HOUSE_NO":"１６６號之５二樓","E_COORD97":169341.01999999999,"N_COORD97":2549555.2799999998,"ADDRESS":"安生街１６６號之５二樓","OBJECTID":523653},"geometry":{"x":169341.01999999955,"y":2549555.2800000012}},{"attributes":{"ID":523681,"DIS_CODE":0,"TOWNNAME":"安南區","LI":"新順里","LIN":"6鄰","STREET":"安生街","SECT":" ","MAREA":" ","LANE":" ","ALLEY":" ","HOUSE_NO":"１６６號之１二樓","E_COORD97":169352.73000000001,"N_COORD97":2549555,"ADDRESS":"安生街１６６號之１二樓","OBJECTID":523654},"geometry":{"x":169352.73000000045,"y":2549555.0000000019}},{"attributes":{"ID":523682,"DIS_CODE":0,"TOWNNAME":"安南區","LI":"新順里","LIN":"6鄰","STREET":"安生街","SECT":" ","MAREA":" ","LANE":" ","ALLEY":" ","HOUSE_NO":"１６６號之２二樓","E_COORD97":169354.16,"N_COORD97":2549567.5499999998,"ADDRESS":"安生街１６６號之２二樓","OBJECTID":523655},"geometry":{"x":169354.16000000015,"y":2549567.5500000007}},{"attributes":{"ID":523683,"DIS_CODE":0,"TOWNNAME":"安南區","LI":"新順里","LIN":"6鄰","STREET":"安生街","SECT":" ","MAREA":" ","LANE":" ","ALLEY":" ","HOUSE_NO":"１６６號之３二樓","E_COORD97":169356.16,"N_COORD97":2549579.8199999998,"ADDRESS":"安生街１６６號之３二樓","OBJECTID":523656},"geometry":{"x":169356.16000000015,"y":2549579.8200000022}},{"attributes":{"ID":523684,"DIS_CODE":0,"TOWNNAME":"安南區","LI":"新順里","LIN":"6鄰","STREET":"安生街","SECT":" ","MAREA":" ","LANE":" ","ALLEY":" ","HOUSE_NO":"１６６號之３三樓","E_COORD97":169356.16,"N_COORD97":2549579.8199999998,"ADDRESS":"安生街１６６號之３三樓","OBJECTID":523657},"geometry":{"x":169356.16000000015,"y":2549579.8200000022}},{"attributes":{"ID":523685,"DIS_CODE":0,"TOWNNAME":"安南區","LI":"新順里","LIN":"6鄰","STREET":"安生街","SECT":" ","MAREA":" ","LANE":" ","ALLEY":" ","HOUSE_NO":"１６６號之４二樓","E_COORD97":169355.87,"N_COORD97":2549590.3700000001,"ADDRESS":"安生街１６６號之４二樓","OBJECTID":523658},"geometry":{"x":169355.87000000104,"y":2549590.3700000029}},{"attributes":{"ID":523686,"DIS_CODE":0,"TOWNNAME":"安南區","LI":"新順里","LIN":"6鄰","STREET":"安生街","SECT":" ","MAREA":" ","LANE":" ","ALLEY":" ","HOUSE_NO":"１６６號之６四樓","E_COORD97":169341.88,"N_COORD97":2549564.7000000002,"ADDRESS":"安生街１６６號之６四樓","OBJECTID":523659},"geometry":{"x":169341.88000000082,"y":2549564.6999999993}},{"attributes":{"ID":523687,"DIS_CODE":0,"TOWNNAME":"安南區","LI":"新順里","LIN":"6鄰","STREET":"安生街","SECT":" ","MAREA":" ","LANE":" ","ALLEY":" ","HOUSE_NO":"１６６號之９二樓","E_COORD97":169345.88,"N_COORD97":2549585.8100000001,"ADDRESS":"安生街１６６號之９二樓","OBJECTID":523660},"geometry":{"x":169345.87999999989,"y":2549585.8100000005}},{"attributes":{"ID":523688,"DIS_CODE":0,"TOWNNAME":"安南區","LI":"新順里","LIN":"6鄰","STREET":"安生街","SECT":" ","MAREA":" ","LANE":" ","ALLEY":" ","HOUSE_NO":"１６６號之９四樓","E_COORD97":169345.88,"N_COORD97":2549585.8100000001,"ADDRESS":"安生街１６６號之９四樓","OBJECTID":523661},"geometry":{"x":169345.87999999989,"y":2549585.8100000005}},{"attributes":{"ID":523689,"DIS_CODE":0,"TOWNNAME":"安南區","LI":"新順里","LIN":"6鄰","STREET":"安生街","SECT":" ","MAREA":" ","LANE":" ","ALLEY":" ","HOUSE_NO":"１６６號之１０四樓","E_COORD97":169347.01999999999,"N_COORD97":2549593.23,"ADDRESS":"安生街１６６號之１０四樓","OBJECTID":523662},"geometry":{"x":169347.02000000048,"y":2549593.2300000004}},{"attributes":{"ID":523690,"DIS_CODE":0,"TOWNNAME":"佳里區","LI":"建南里","LIN":"6鄰","STREET":"新生路","SECT":" ","MAREA":" ","LANE":" ","ALLEY":" ","HOUSE_NO":"２６３號二樓","E_COORD97":165682.12,"N_COORD97":2562255.3399999999,"ADDRESS":"新生路２６３號二樓","OBJECTID":523663},"geometry":{"x":165682.12000000104,"y":2562255.3400000036}},{"attributes":{"ID":523691,"DIS_CODE":0,"TOWNNAME":"佳里區","LI":"建南里","LIN":"6鄰","STREET":"新生路","SECT":" ","MAREA":" ","LANE":" ","ALLEY":" ","HOUSE_NO":"２６３號二樓之１","E_COORD97":165682.12,"N_COORD97":2562255.3399999999,"ADDRESS":"新生路２６３號二樓之１","OBJECTID":523664},"geometry":{"x":165682.12000000104,"y":2562255.3400000036}},{"attributes":{"ID":523692,"DIS_CODE":0,"TOWNNAME":"佳里區","LI":"建南里","LIN":"6鄰","STREET":"新生路","SECT":" ","MAREA":" ","LANE":" ","ALLEY":" ","HOUSE_NO":"２６３號三樓","E_COORD97":165682.12,"N_COORD97":2562255.3399999999,"ADDRESS":"新生路２６３號三樓","OBJECTID":523665},"geometry":{"x":165682.12000000104,"y":2562255.3400000036}},{"attributes":{"ID":523693,"DIS_CODE":0,"TOWNNAME":"佳里區","LI":"建南里","LIN":"6鄰","STREET":"新生路","SECT":" ","MAREA":" ","LANE":" ","ALLEY":" ","HOUSE_NO":"２６３號五樓","E_COORD97":165682.12,"N_COORD97":2562255.3399999999,"ADDRESS":"新生路２６３號五樓","OBJECTID":523666},"geometry":{"x":165682.12000000104,"y":2562255.3400000036}},{"attributes":{"ID":523694,"DIS_CODE":0,"TOWNNAME":"佳里區","LI":"建南里","LIN":"6鄰","STREET":"新生路","SECT":" ","MAREA":" ","LANE":" ","ALLEY":" ","HOUSE_NO":"２６３號四樓","E_COORD97":165682.12,"N_COORD97":2562255.3399999999,"ADDRESS":"新生路２６３號四樓","OBJECTID":523667},"geometry":{"x":165682.12000000104,"y":2562255.3400000036}},{"attributes":{"ID":523695,"DIS_CODE":0,"TOWNNAME":"中西區","LI":"大南里","LIN":"6鄰","STREET":"南寧街","SECT":" ","MAREA":" ","LANE":" ","ALLEY":" ","HOUSE_NO":"９０號四樓","E_COORD97":168206.39000000001,"N_COORD97":2542860.6899999999,"ADDRESS":"南寧街９０號四樓","OBJECTID":523668},"geometry":{"x":168206.38999999966,"y":2542860.6900000013}},{"attributes":{"ID":523696,"DIS_CODE":0,"TOWNNAME":"中西區","LI":"大南里","LIN":"6鄰","STREET":"南寧街","SECT":" ","MAREA":" ","LANE":" ","ALLEY":" ","HOUSE_NO":"７４號二樓","E_COORD97":168261.81,"N_COORD97":2542857.52,"ADDRESS":"南寧街７４號二樓","OBJECTID":523669},"geometry":{"x":168261.81000000052,"y":2542857.5200000033}},{"attributes":{"ID":523697,"DIS_CODE":0,"TOWNNAME":"中西區","LI":"大南里","LIN":"6鄰","STREET":"南寧街","SECT":" ","MAREA":" ","LANE":" ","ALLEY":" ","HOUSE_NO":"７４號三樓之１","E_COORD97":168261.81,"N_COORD97":2542857.52,"ADDRESS":"南寧街７４號三樓之１","OBJECTID":523670},"geometry":{"x":168261.81000000052,"y":2542857.5200000033}},{"attributes":{"ID":523698,"DIS_CODE":0,"TOWNNAME":"中西區","LI":"大南里","LIN":"6鄰","STREET":"南寧街","SECT":" ","MAREA":" ","LANE":" ","ALLEY":" ","HOUSE_NO":"７４號三樓之２","E_COORD97":168261.81,"N_COORD97":2542857.52,"ADDRESS":"南寧街７４號三樓之２","OBJECTID":523671},"geometry":{"x":168261.81000000052,"y":2542857.5200000033}},{"attributes":{"ID":523699,"DIS_CODE":0,"TOWNNAME":"中西區","LI":"大南里","LIN":"6鄰","STREET":"南寧街","SECT":" ","MAREA":" ","LANE":" ","ALLEY":" ","HOUSE_NO":"７４號五樓之１","E_COORD97":168261.81,"N_COORD97":2542857.52,"ADDRESS":"南寧街７４號五樓之１","OBJECTID":523672},"geometry":{"x":168261.81000000052,"y":2542857.5200000033}},{"attributes":{"ID":523700,"DIS_CODE":0,"TOWNNAME":"中西區","LI":"大南里","LIN":"6鄰","STREET":"南寧街","SECT":" ","MAREA":" ","LANE":" ","ALLEY":" ","HOUSE_NO":"７４號五樓之２","E_COORD97":168261.81,"N_COORD97":2542857.52,"ADDRESS":"南寧街７４號五樓之２","OBJECTID":523673},"geometry":{"x":168261.81000000052,"y":2542857.5200000033}},{"attributes":{"ID":523701,"DIS_CODE":0,"TOWNNAME":"中西區","LI":"大南里","LIN":"6鄰","STREET":"南寧街","SECT":" ","MAREA":" ","LANE":" ","ALLEY":" ","HOUSE_NO":"７４號六樓之１","E_COORD97":168261.81,"N_COORD97":2542857.52,"ADDRESS":"南寧街７４號六樓之１","OBJECTID":523674},"geometry":{"x":168261.81000000052,"y":2542857.5200000033}},{"attributes":{"ID":523702,"DIS_CODE":0,"TOWNNAME":"中西區","LI":"大南里","LIN":"6鄰","STREET":"南寧街","SECT":" ","MAREA":" ","LANE":" ","ALLEY":" ","HOUSE_NO":"７４號六樓之２","E_COORD97":168261.81,"N_COORD97":2542857.52,"ADDRESS":"南寧街７４號六樓之２","OBJECTID":523675},"geometry":{"x":168261.81000000052,"y":2542857.5200000033}},{"attributes":{"ID":523703,"DIS_CODE":0,"TOWNNAME":"中西區","LI":"大南里","LIN":"6鄰","STREET":"南寧街","SECT":" ","MAREA":" ","LANE":" ","ALLEY":" ","HOUSE_NO":"７４號四樓","E_COORD97":168261.81,"N_COORD97":2542857.52,"ADDRESS":"南寧街７４號四樓","OBJECTID":523676},"geometry":{"x":168261.81000000052,"y":2542857.5200000033}},{"attributes":{"ID":523704,"DIS_CODE":0,"TOWNNAME":"中西區","LI":"郡王里","LIN":"6鄰","STREET":"大埔街","SECT":" ","MAREA":" ","LANE":" ","ALLEY":" ","HOUSE_NO":"５１號七樓","E_COORD97":168860.95999999999,"N_COORD97":2543054.8300000001,"ADDRESS":"大埔街５１號七樓","OBJECTID":523677},"geometry":{"x":168860.95999999996,"y":2543054.8300000001}},{"attributes":{"ID":523705,"DIS_CODE":0,"TOWNNAME":"中西區","LI":"郡王里","LIN":"6鄰","STREET":"大埔街","SECT":" ","MAREA":" ","LANE":" ","ALLEY":" ","HOUSE_NO":"５１號二樓","E_COORD97":168860.95999999999,"N_COORD97":2543054.8300000001,"ADDRESS":"大埔街５１號二樓","OBJECTID":523678},"geometry":{"x":168860.95999999996,"y":2543054.8300000001}},{"attributes":{"ID":523706,"DIS_CODE":0,"TOWNNAME":"中西區","LI":"郡王里","LIN":"6鄰","STREET":"大埔街","SECT":" ","MAREA":" ","LANE":" ","ALLEY":" ","HOUSE_NO":"５１號三樓","E_COORD97":168860.95999999999,"N_COORD97":2543054.8300000001,"ADDRESS":"大埔街５１號三樓","OBJECTID":523679},"geometry":{"x":168860.95999999996,"y":2543054.8300000001}},{"attributes":{"ID":523707,"DIS_CODE":0,"TOWNNAME":"中西區","LI":"郡王里","LIN":"6鄰","STREET":"大埔街","SECT":" ","MAREA":" ","LANE":" ","ALLEY":" ","HOUSE_NO":"５１號五樓","E_COORD97":168860.95999999999,"N_COORD97":2543054.8300000001,"ADDRESS":"大埔街５１號五樓","OBJECTID":523680},"geometry":{"x":168860.95999999996,"y":2543054.8300000001}},{"attributes":{"ID":523708,"DIS_CODE":0,"TOWNNAME":"中西區","LI":"郡王里","LIN":"6鄰","STREET":"大埔街","SECT":" ","MAREA":" ","LANE":" ","ALLEY":" ","HOUSE_NO":"５１號六樓","E_COORD97":168860.95999999999,"N_COORD97":2543054.8300000001,"ADDRESS":"大埔街５１號六樓","OBJECTID":523681},"geometry":{"x":168860.95999999996,"y":2543054.8300000001}},{"attributes":{"ID":523709,"DIS_CODE":0,"TOWNNAME":"中西區","LI":"郡王里","LIN":"6鄰","STREET":"大埔街","SECT":" ","MAREA":" ","LANE":" ","ALLEY":" ","HOUSE_NO":"５１號四樓","E_COORD97":168860.95999999999,"N_COORD97":2543054.8300000001,"ADDRESS":"大埔街５１號四樓","OBJECTID":523682},"geometry":{"x":168860.95999999996,"y":2543054.8300000001}},{"attributes":{"ID":523710,"DIS_CODE":0,"TOWNNAME":"南區","LI":"新興里","LIN":"6鄰","STREET":"健康路","SECT":"二段","MAREA":" ","LANE":" ","ALLEY":" ","HOUSE_NO":"３號二樓","E_COORD97":167704.12,"N_COORD97":2542433.5600000001,"ADDRESS":"健康路二段３號二樓","OBJECTID":523683},"geometry":{"x":167704.12000000197,"y":2542433.5600000005}},{"attributes":{"ID":523711,"DIS_CODE":0,"TOWNNAME":"南區","LI":"新興里","LIN":"6鄰","STREET":"健康路","SECT":"二段","MAREA":" ","LANE":" ","ALLEY":" ","HOUSE_NO":"３號三樓","E_COORD97":167704.12,"N_COORD97":2542433.5600000001,"ADDRESS":"健康路二段３號三樓","OBJECTID":523684},"geometry":{"x":167704.12000000197,"y":2542433.5600000005}},{"attributes":{"ID":523712,"DIS_CODE":0,"TOWNNAME":"中西區","LI":"五妃里","LIN":"6鄰","STREET":"慶中街","SECT":" ","MAREA":" ","LANE":" ","ALLEY":" ","HOUSE_NO":"３１號一樓","E_COORD97":168532.67999999999,"N_COORD97":2542718.9399999999,"ADDRESS":"慶中街３１號一樓","OBJECTID":523685},"geometry":{"x":168532.68000000063,"y":2542718.9400000032}},{"attributes":{"ID":523713,"DIS_CODE":0,"TOWNNAME":"中西區","LI":"五妃里","LIN":"6鄰","STREET":"慶中街","SECT":" ","MAREA":" ","LANE":" ","ALLEY":" ","HOUSE_NO":"３１號二樓","E_COORD97":168532.67999999999,"N_COORD97":2542718.9399999999,"ADDRESS":"慶中街３１號二樓","OBJECTID":523686},"geometry":{"x":168532.68000000063,"y":2542718.9400000032}},{"attributes":{"ID":523714,"DIS_CODE":0,"TOWNNAME":"中西區","LI":"五妃里","LIN":"6鄰","STREET":"慶中街","SECT":" ","MAREA":" ","LANE":" ","ALLEY":" ","HOUSE_NO":"３１號三樓","E_COORD97":168532.67999999999,"N_COORD97":2542718.9399999999,"ADDRESS":"慶中街３１號三樓","OBJECTID":523687},"geometry":{"x":168532.68000000063,"y":2542718.9400000032}},{"attributes":{"ID":523715,"DIS_CODE":0,"TOWNNAME":"中西區","LI":"五妃里","LIN":"6鄰","STREET":"慶中街","SECT":" ","MAREA":" ","LANE":" ","ALLEY":" ","HOUSE_NO":"３１號四樓","E_COORD97":168532.67999999999,"N_COORD97":2542718.9399999999,"ADDRESS":"慶中街３１號四樓","OBJECTID":523688},"geometry":{"x":168532.68000000063,"y":2542718.9400000032}},{"attributes":{"ID":523716,"DIS_CODE":0,"TOWNNAME":"中西區","LI":"五妃里","LIN":"6鄰","STREET":"慶中街","SECT":" ","MAREA":" ","LANE":" ","ALLEY":" ","HOUSE_NO":"３３號一樓","E_COORD97":168533.19,"N_COORD97":2542727.0899999999,"ADDRESS":"慶中街３３號一樓","OBJECTID":523689},"geometry":{"x":168533.19000000134,"y":2542727.0899999999}},{"attributes":{"ID":523717,"DIS_CODE":0,"TOWNNAME":"中西區","LI":"五妃里","LIN":"6鄰","STREET":"慶中街","SECT":" ","MAREA":" ","LANE":" ","ALLEY":" ","HOUSE_NO":"３３號二樓","E_COORD97":168533.19,"N_COORD97":2542727.0899999999,"ADDRESS":"慶中街３３號二樓","OBJECTID":523690},"geometry":{"x":168533.19000000134,"y":2542727.0899999999}},{"attributes":{"ID":523718,"DIS_CODE":0,"TOWNNAME":"中西區","LI":"五妃里","LIN":"6鄰","STREET":"慶中街","SECT":" ","MAREA":" ","LANE":" ","ALLEY":" ","HOUSE_NO":"３３號三樓","E_COORD97":168533.19,"N_COORD97":2542727.0899999999,"ADDRESS":"慶中街３３號三樓","OBJECTID":523691},"geometry":{"x":168533.19000000134,"y":2542727.0899999999}},{"attributes":{"ID":523719,"DIS_CODE":0,"TOWNNAME":"中西區","LI":"五妃里","LIN":"6鄰","STREET":"慶中街","SECT":" ","MAREA":" ","LANE":" ","ALLEY":" ","HOUSE_NO":"３３號四樓","E_COORD97":168533.19,"N_COORD97":2542727.0899999999,"ADDRESS":"慶中街３３號四樓","OBJECTID":523692},"geometry":{"x":168533.19000000134,"y":2542727.0899999999}},{"attributes":{"ID":523720,"DIS_CODE":0,"TOWNNAME":"中西區","LI":"五妃里","LIN":"6鄰","STREET":"慶中街","SECT":" ","MAREA":" ","LANE":" ","ALLEY":" ","HOUSE_NO":"３５號一樓","E_COORD97":168532.94,"N_COORD97":2542734.25,"ADDRESS":"慶中街３５號一樓","OBJECTID":523693},"geometry":{"x":168532.94000000227,"y":2542734.2500000037}},{"attributes":{"ID":523721,"DIS_CODE":0,"TOWNNAME":"中西區","LI":"五妃里","LIN":"6鄰","STREET":"慶中街","SECT":" ","MAREA":" ","LANE":" ","ALLEY":" ","HOUSE_NO":"３５號二樓","E_COORD97":168532.94,"N_COORD97":2542734.25,"ADDRESS":"慶中街３５號二樓","OBJECTID":523694},"geometry":{"x":168532.94000000227,"y":2542734.2500000037}},{"attributes":{"ID":523722,"DIS_CODE":0,"TOWNNAME":"中西區","LI":"五妃里","LIN":"6鄰","STREET":"慶中街","SECT":" ","MAREA":" ","LANE":" ","ALLEY":" ","HOUSE_NO":"３５號三樓","E_COORD97":168532.94,"N_COORD97":2542734.25,"ADDRESS":"慶中街３５號三樓","OBJECTID":523695},"geometry":{"x":168532.94000000227,"y":2542734.2500000037}},{"attributes":{"ID":523723,"DIS_CODE":0,"TOWNNAME":"中西區","LI":"五妃里","LIN":"6鄰","STREET":"慶中街","SECT":" ","MAREA":" ","LANE":" ","ALLEY":" ","HOUSE_NO":"３５號四樓","E_COORD97":168532.94,"N_COORD97":2542734.25,"ADDRESS":"慶中街３５號四樓","OBJECTID":523696},"geometry":{"x":168532.94000000227,"y":2542734.2500000037}},{"attributes":{"ID":523724,"DIS_CODE":0,"TOWNNAME":"中西區","LI":"五妃里","LIN":"6鄰","STREET":"慶中街","SECT":" ","MAREA":" ","LANE":" ","ALLEY":" ","HOUSE_NO":"３７號二樓","E_COORD97":168533.19,"N_COORD97":2542741.8999999999,"ADDRESS":"慶中街３７號二樓","OBJECTID":523697},"geometry":{"x":168533.19000000134,"y":2542741.9000000022}},{"attributes":{"ID":523725,"DIS_CODE":0,"TOWNNAME":"中西區","LI":"五妃里","LIN":"6鄰","STREET":"慶中街","SECT":" ","MAREA":" ","LANE":" ","ALLEY":" ","HOUSE_NO":"３７號三樓","E_COORD97":168533.19,"N_COORD97":2542741.8999999999,"ADDRESS":"慶中街３７號三樓","OBJECTID":523698},"geometry":{"x":168533.19000000134,"y":2542741.9000000022}},{"attributes":{"ID":523726,"DIS_CODE":0,"TOWNNAME":"中西區","LI":"五妃里","LIN":"6鄰","STREET":"慶中街","SECT":" ","MAREA":" ","LANE":" ","ALLEY":" ","HOUSE_NO":"３７號四樓","E_COORD97":168533.19,"N_COORD97":2542741.8999999999,"ADDRESS":"慶中街３７號四樓","OBJECTID":523699},"geometry":{"x":168533.19000000134,"y":2542741.9000000022}},{"attributes":{"ID":523727,"DIS_CODE":0,"TOWNNAME":"中西區","LI":"五妃里","LIN":"6鄰","STREET":"慶中街","SECT":" ","MAREA":" ","LANE":" ","ALLEY":" ","HOUSE_NO":"３９號一樓","E_COORD97":168533.19,"N_COORD97":2542749.9300000002,"ADDRESS":"慶中街３９號一樓","OBJECTID":523700},"geometry":{"x":168533.19000000134,"y":2542749.9300000016}},{"attributes":{"ID":523728,"DIS_CODE":0,"TOWNNAME":"中西區","LI":"五妃里","LIN":"6鄰","STREET":"慶中街","SECT":" ","MAREA":" ","LANE":" ","ALLEY":" ","HOUSE_NO":"３９號二樓","E_COORD97":168533.19,"N_COORD97":2542749.9300000002,"ADDRESS":"慶中街３９號二樓","OBJECTID":523701},"geometry":{"x":168533.19000000134,"y":2542749.9300000016}},{"attributes":{"ID":523729,"DIS_CODE":0,"TOWNNAME":"中西區","LI":"五妃里","LIN":"6鄰","STREET":"慶中街","SECT":" ","MAREA":" ","LANE":" ","ALLEY":" ","HOUSE_NO":"３９號三樓","E_COORD97":168533.19,"N_COORD97":2542749.9300000002,"ADDRESS":"慶中街３９號三樓","OBJECTID":523702},"geometry":{"x":168533.19000000134,"y":2542749.9300000016}},{"attributes":{"ID":523730,"DIS_CODE":0,"TOWNNAME":"中西區","LI":"五妃里","LIN":"6鄰","STREET":"慶中街","SECT":" ","MAREA":" ","LANE":" ","ALLEY":" ","HOUSE_NO":"３９號四樓","E_COORD97":168533.19,"N_COORD97":2542749.9300000002,"ADDRESS":"慶中街３９號四樓","OBJECTID":523703},"geometry":{"x":168533.19000000134,"y":2542749.9300000016}},{"attributes":{"ID":523731,"DIS_CODE":0,"TOWNNAME":"東區","LI":"東光里","LIN":"6鄰","STREET":"凱旋路","SECT":" ","MAREA":" ","LANE":" ","ALLEY":" ","HOUSE_NO":"１０１號三樓之１","E_COORD97":171072.25,"N_COORD97":2543701.8100000001,"ADDRESS":"凱旋路１０１號三樓之１","OBJECTID":523704},"geometry":{"x":171072.25,"y":2543701.8100000024}},{"attributes":{"ID":523732,"DIS_CODE":0,"TOWNNAME":"東區","LI":"東光里","LIN":"6鄰","STREET":"凱旋路","SECT":" ","MAREA":" ","LANE":" ","ALLEY":" ","HOUSE_NO":"１０１號四樓之１","E_COORD97":171072.25,"N_COORD97":2543701.8100000001,"ADDRESS":"凱旋路１０１號四樓之１","OBJECTID":523705},"geometry":{"x":171072.25,"y":2543701.8100000024}},{"attributes":{"ID":523733,"DIS_CODE":0,"TOWNNAME":"東區","LI":"東光里","LIN":"6鄰","STREET":"凱旋路","SECT":" ","MAREA":" ","LANE":" ","ALLEY":" ","HOUSE_NO":"１０１號五樓之１","E_COORD97":171072.25,"N_COORD97":2543701.8100000001,"ADDRESS":"凱旋路１０１號五樓之１","OBJECTID":523706},"geometry":{"x":171072.25,"y":2543701.8100000024}},{"attributes":{"ID":523734,"DIS_CODE":0,"TOWNNAME":"東區","LI":"東光里","LIN":"6鄰","STREET":"凱旋路","SECT":" ","MAREA":" ","LANE":" ","ALLEY":" ","HOUSE_NO":"１０１號六樓之１","E_COORD97":171072.25,"N_COORD97":2543701.8100000001,"ADDRESS":"凱旋路１０１號六樓之１","OBJECTID":523707},"geometry":{"x":171072.25,"y":2543701.8100000024}},{"attributes":{"ID":523735,"DIS_CODE":0,"TOWNNAME":"東區","LI":"東光里","LIN":"6鄰","STREET":"凱旋路","SECT":" ","MAREA":" ","LANE":" ","ALLEY":" ","HOUSE_NO":"１０１號七樓之１","E_COORD97":171072.25,"N_COORD97":2543701.8100000001,"ADDRESS":"凱旋路１０１號七樓之１","OBJECTID":523708},"geometry":{"x":171072.25,"y":2543701.8100000024}},{"attributes":{"ID":523736,"DIS_CODE":0,"TOWNNAME":"東區","LI":"東光里","LIN":"6鄰","STREET":"凱旋路","SECT":" ","MAREA":" ","LANE":" ","ALLEY":" ","HOUSE_NO":"１０１號八樓之１","E_COORD97":171072.25,"N_COORD97":2543701.8100000001,"ADDRESS":"凱旋路１０１號八樓之１","OBJECTID":523709},"geometry":{"x":171072.25,"y":2543701.8100000024}},{"attributes":{"ID":523737,"DIS_CODE":0,"TOWNNAME":"東區","LI":"東光里","LIN":"6鄰","STREET":"凱旋路","SECT":" ","MAREA":" ","LANE":" ","ALLEY":" ","HOUSE_NO":"１０１號九樓之１","E_COORD97":171072.25,"N_COORD97":2543701.8100000001,"ADDRESS":"凱旋路１０１號九樓之１","OBJECTID":523710},"geometry":{"x":171072.25,"y":2543701.8100000024}},{"attributes":{"ID":523738,"DIS_CODE":0,"TOWNNAME":"東區","LI":"東光里","LIN":"6鄰","STREET":"凱旋路","SECT":" ","MAREA":" ","LANE":" ","ALLEY":" ","HOUSE_NO":"１０１號十樓之１","E_COORD97":171072.25,"N_COORD97":2543701.8100000001,"ADDRESS":"凱旋路１０１號十樓之１","OBJECTID":523711},"geometry":{"x":171072.25,"y":2543701.8100000024}},{"attributes":{"ID":523739,"DIS_CODE":0,"TOWNNAME":"東區","LI":"東光里","LIN":"6鄰","STREET":"凱旋路","SECT":" ","MAREA":" ","LANE":" ","ALLEY":" ","HOUSE_NO":"１０１號十一樓之１","E_COORD97":171072.25,"N_COORD97":2543701.8100000001,"ADDRESS":"凱旋路１０１號十一樓之１","OBJECTID":523712},"geometry":{"x":171072.25,"y":2543701.8100000024}},{"attributes":{"ID":523740,"DIS_CODE":0,"TOWNNAME":"東區","LI":"東光里","LIN":"6鄰","STREET":"凱旋路","SECT":" ","MAREA":" ","LANE":" ","ALLEY":" ","HOUSE_NO":"１０１號十二樓之１","E_COORD97":171072.25,"N_COORD97":2543701.8100000001,"ADDRESS":"凱旋路１０１號十二樓之１","OBJECTID":523713},"geometry":{"x":171072.25,"y":2543701.8100000024}},{"attributes":{"ID":523741,"DIS_CODE":0,"TOWNNAME":"東區","LI":"東光里","LIN":"6鄰","STREET":"凱旋路","SECT":" ","MAREA":" ","LANE":" ","ALLEY":" ","HOUSE_NO":"１０１號十三樓之１","E_COORD97":171072.25,"N_COORD97":2543701.8100000001,"ADDRESS":"凱旋路１０１號十三樓之１","OBJECTID":523714},"geometry":{"x":171072.25,"y":2543701.8100000024}},{"attributes":{"ID":523742,"DIS_CODE":0,"TOWNNAME":"東區","LI":"東光里","LIN":"6鄰","STREET":"凱旋路","SECT":" ","MAREA":" ","LANE":" ","ALLEY":" ","HOUSE_NO":"１０１號十四樓之１","E_COORD97":171072.25,"N_COORD97":2543701.8100000001,"ADDRESS":"凱旋路１０１號十四樓之１","OBJECTID":523715},"geometry":{"x":171072.25,"y":2543701.8100000024}},{"attributes":{"ID":523743,"DIS_CODE":0,"TOWNNAME":"東區","LI":"東光里","LIN":"6鄰","STREET":"凱旋路","SECT":" ","MAREA":" ","LANE":" ","ALLEY":" ","HOUSE_NO":"１０１號二樓之２","E_COORD97":171072.25,"N_COORD97":2543701.8100000001,"ADDRESS":"凱旋路１０１號二樓之２","OBJECTID":523716},"geometry":{"x":171072.25,"y":2543701.8100000024}},{"attributes":{"ID":523744,"DIS_CODE":0,"TOWNNAME":"東區","LI":"東光里","LIN":"6鄰","STREET":"凱旋路","SECT":" ","MAREA":" ","LANE":" ","ALLEY":" ","HOUSE_NO":"１０１號三樓之２","E_COORD97":171072.25,"N_COORD97":2543701.8100000001,"ADDRESS":"凱旋路１０１號三樓之２","OBJECTID":523717},"geometry":{"x":171072.25,"y":2543701.8100000024}},{"attributes":{"ID":523745,"DIS_CODE":0,"TOWNNAME":"東區","LI":"東光里","LIN":"6鄰","STREET":"凱旋路","SECT":" ","MAREA":" ","LANE":" ","ALLEY":" ","HOUSE_NO":"１０１號四樓之２","E_COORD97":171072.25,"N_COORD97":2543701.8100000001,"ADDRESS":"凱旋路１０１號四樓之２","OBJECTID":523718},"geometry":{"x":171072.25,"y":2543701.8100000024}},{"attributes":{"ID":523746,"DIS_CODE":0,"TOWNNAME":"東區","LI":"東光里","LIN":"6鄰","STREET":"凱旋路","SECT":" ","MAREA":" ","LANE":" ","ALLEY":" ","HOUSE_NO":"１０１號五樓之２","E_COORD97":171072.25,"N_COORD97":2543701.8100000001,"ADDRESS":"凱旋路１０１號五樓之２","OBJECTID":523719},"geometry":{"x":171072.25,"y":2543701.8100000024}},{"attributes":{"ID":523747,"DIS_CODE":0,"TOWNNAME":"東區","LI":"東光里","LIN":"6鄰","STREET":"凱旋路","SECT":" ","MAREA":" ","LANE":" ","ALLEY":" ","HOUSE_NO":"１０１號六樓之２","E_COORD97":171072.25,"N_COORD97":2543701.8100000001,"ADDRESS":"凱旋路１０１號六樓之２","OBJECTID":523720},"geometry":{"x":171072.25,"y":2543701.8100000024}},{"attributes":{"ID":523748,"DIS_CODE":0,"TOWNNAME":"東區","LI":"東光里","LIN":"6鄰","STREET":"凱旋路","SECT":" ","MAREA":" ","LANE":" ","ALLEY":" ","HOUSE_NO":"１０１號七樓之２","E_COORD97":171072.25,"N_COORD97":2543701.8100000001,"ADDRESS":"凱旋路１０１號七樓之２","OBJECTID":523721},"geometry":{"x":171072.25,"y":2543701.8100000024}},{"attributes":{"ID":523749,"DIS_CODE":0,"TOWNNAME":"東區","LI":"東光里","LIN":"6鄰","STREET":"凱旋路","SECT":" ","MAREA":" ","LANE":" ","ALLEY":" ","HOUSE_NO":"１０１號八樓之２","E_COORD97":171072.25,"N_COORD97":2543701.8100000001,"ADDRESS":"凱旋路１０１號八樓之２","OBJECTID":523722},"geometry":{"x":171072.25,"y":2543701.8100000024}},{"attributes":{"ID":523750,"DIS_CODE":0,"TOWNNAME":"東區","LI":"東光里","LIN":"6鄰","STREET":"凱旋路","SECT":" ","MAREA":" ","LANE":" ","ALLEY":" ","HOUSE_NO":"１０１號九樓之２","E_COORD97":171072.25,"N_COORD97":2543701.8100000001,"ADDRESS":"凱旋路１０１號九樓之２","OBJECTID":523723},"geometry":{"x":171072.25,"y":2543701.8100000024}},{"attributes":{"ID":523751,"DIS_CODE":0,"TOWNNAME":"東區","LI":"東光里","LIN":"6鄰","STREET":"凱旋路","SECT":" ","MAREA":" ","LANE":" ","ALLEY":" ","HOUSE_NO":"１０１號十樓之２","E_COORD97":171072.25,"N_COORD97":2543701.8100000001,"ADDRESS":"凱旋路１０１號十樓之２","OBJECTID":523724},"geometry":{"x":171072.25,"y":2543701.8100000024}},{"attributes":{"ID":523752,"DIS_CODE":0,"TOWNNAME":"東區","LI":"東光里","LIN":"6鄰","STREET":"凱旋路","SECT":" ","MAREA":" ","LANE":" ","ALLEY":" ","HOUSE_NO":"１０１號十一樓之２","E_COORD97":171072.25,"N_COORD97":2543701.8100000001,"ADDRESS":"凱旋路１０１號十一樓之２","OBJECTID":523725},"geometry":{"x":171072.25,"y":2543701.8100000024}},{"attributes":{"ID":523753,"DIS_CODE":0,"TOWNNAME":"東區","LI":"東光里","LIN":"6鄰","STREET":"凱旋路","SECT":" ","MAREA":" ","LANE":" ","ALLEY":" ","HOUSE_NO":"１０１號十二樓之２","E_COORD97":171072.25,"N_COORD97":2543701.8100000001,"ADDRESS":"凱旋路１０１號十二樓之２","OBJECTID":523726},"geometry":{"x":171072.25,"y":2543701.8100000024}},{"attributes":{"ID":523754,"DIS_CODE":0,"TOWNNAME":"東區","LI":"東光里","LIN":"6鄰","STREET":"凱旋路","SECT":" ","MAREA":" ","LANE":" ","ALLEY":" ","HOUSE_NO":"１０１號十三樓之２","E_COORD97":171072.25,"N_COORD97":2543701.8100000001,"ADDRESS":"凱旋路１０１號十三樓之２","OBJECTID":523727},"geometry":{"x":171072.25,"y":2543701.8100000024}},{"attributes":{"ID":523755,"DIS_CODE":0,"TOWNNAME":"東區","LI":"東光里","LIN":"6鄰","STREET":"凱旋路","SECT":" ","MAREA":" ","LANE":" ","ALLEY":" ","HOUSE_NO":"１０１號十四樓之２","E_COORD97":171072.25,"N_COORD97":2543701.8100000001,"ADDRESS":"凱旋路１０１號十四樓之２","OBJECTID":523728},"geometry":{"x":171072.25,"y":2543701.8100000024}},{"attributes":{"ID":523756,"DIS_CODE":0,"TOWNNAME":"東區","LI":"東光里","LIN":"6鄰","STREET":"凱旋路","SECT":" ","MAREA":" ","LANE":" ","ALLEY":" ","HOUSE_NO":"１０１號二樓之３","E_COORD97":171072.25,"N_COORD97":2543701.8100000001,"ADDRESS":"凱旋路１０１號二樓之３","OBJECTID":523729},"geometry":{"x":171072.25,"y":2543701.8100000024}},{"attributes":{"ID":523757,"DIS_CODE":0,"TOWNNAME":"東區","LI":"東光里","LIN":"6鄰","STREET":"凱旋路","SECT":" ","MAREA":" ","LANE":" ","ALLEY":" ","HOUSE_NO":"１０１號三樓之３","E_COORD97":171072.25,"N_COORD97":2543701.8100000001,"ADDRESS":"凱旋路１０１號三樓之３","OBJECTID":523730},"geometry":{"x":171072.25,"y":2543701.8100000024}},{"attributes":{"ID":523758,"DIS_CODE":0,"TOWNNAME":"東區","LI":"東光里","LIN":"6鄰","STREET":"凱旋路","SECT":" ","MAREA":" ","LANE":" ","ALLEY":" ","HOUSE_NO":"１０１號四樓之３","E_COORD97":171072.25,"N_COORD97":2543701.8100000001,"ADDRESS":"凱旋路１０１號四樓之３","OBJECTID":523731},"geometry":{"x":171072.25,"y":2543701.8100000024}},{"attributes":{"ID":523759,"DIS_CODE":0,"TOWNNAME":"東區","LI":"東光里","LIN":"6鄰","STREET":"凱旋路","SECT":" ","MAREA":" ","LANE":" ","ALLEY":" ","HOUSE_NO":"１０１號五樓之３","E_COORD97":171072.25,"N_COORD97":2543701.8100000001,"ADDRESS":"凱旋路１０１號五樓之３","OBJECTID":523732},"geometry":{"x":171072.25,"y":2543701.8100000024}},{"attributes":{"ID":523760,"DIS_CODE":0,"TOWNNAME":"東區","LI":"東光里","LIN":"6鄰","STREET":"凱旋路","SECT":" ","MAREA":" ","LANE":" ","ALLEY":" ","HOUSE_NO":"１０１號六樓之３","E_COORD97":171072.25,"N_COORD97":2543701.8100000001,"ADDRESS":"凱旋路１０１號六樓之３","OBJECTID":523733},"geometry":{"x":171072.25,"y":2543701.8100000024}},{"attributes":{"ID":523761,"DIS_CODE":0,"TOWNNAME":"東區","LI":"東光里","LIN":"6鄰","STREET":"凱旋路","SECT":" ","MAREA":" ","LANE":" ","ALLEY":" ","HOUSE_NO":"１０１號七樓之３","E_COORD97":171072.25,"N_COORD97":2543701.8100000001,"ADDRESS":"凱旋路１０１號七樓之３","OBJECTID":523734},"geometry":{"x":171072.25,"y":2543701.8100000024}},{"attributes":{"ID":523762,"DIS_CODE":0,"TOWNNAME":"東區","LI":"東光里","LIN":"6鄰","STREET":"凱旋路","SECT":" ","MAREA":" ","LANE":" ","ALLEY":" ","HOUSE_NO":"１０１號八樓之３","E_COORD97":171072.25,"N_COORD97":2543701.8100000001,"ADDRESS":"凱旋路１０１號八樓之３","OBJECTID":523735},"geometry":{"x":171072.25,"y":2543701.8100000024}},{"attributes":{"ID":523763,"DIS_CODE":0,"TOWNNAME":"東區","LI":"東光里","LIN":"6鄰","STREET":"凱旋路","SECT":" ","MAREA":" ","LANE":" ","ALLEY":" ","HOUSE_NO":"１０１號九樓之３","E_COORD97":171072.25,"N_COORD97":2543701.8100000001,"ADDRESS":"凱旋路１０１號九樓之３","OBJECTID":523736},"geometry":{"x":171072.25,"y":2543701.8100000024}},{"attributes":{"ID":523764,"DIS_CODE":0,"TOWNNAME":"東區","LI":"東光里","LIN":"6鄰","STREET":"凱旋路","SECT":" ","MAREA":" ","LANE":" ","ALLEY":" ","HOUSE_NO":"１０１號十樓之３","E_COORD97":171072.25,"N_COORD97":2543701.8100000001,"ADDRESS":"凱旋路１０１號十樓之３","OBJECTID":523737},"geometry":{"x":171072.25,"y":2543701.8100000024}},{"attributes":{"ID":523765,"DIS_CODE":0,"TOWNNAME":"東區","LI":"東光里","LIN":"6鄰","STREET":"凱旋路","SECT":" ","MAREA":" ","LANE":" ","ALLEY":" ","HOUSE_NO":"１０１號十一樓之３","E_COORD97":171072.25,"N_COORD97":2543701.8100000001,"ADDRESS":"凱旋路１０１號十一樓之３","OBJECTID":523738},"geometry":{"x":171072.25,"y":2543701.8100000024}},{"attributes":{"ID":523766,"DIS_CODE":0,"TOWNNAME":"東區","LI":"東光里","LIN":"6鄰","STREET":"凱旋路","SECT":" ","MAREA":" ","LANE":" ","ALLEY":" ","HOUSE_NO":"１０１號十二樓之３","E_COORD97":171072.25,"N_COORD97":2543701.8100000001,"ADDRESS":"凱旋路１０１號十二樓之３","OBJECTID":523739},"geometry":{"x":171072.25,"y":2543701.8100000024}},{"attributes":{"ID":523767,"DIS_CODE":0,"TOWNNAME":"東區","LI":"東光里","LIN":"6鄰","STREET":"凱旋路","SECT":" ","MAREA":" ","LANE":" ","ALLEY":" ","HOUSE_NO":"１０１號十三樓之３","E_COORD97":171072.25,"N_COORD97":2543701.8100000001,"ADDRESS":"凱旋路１０１號十三樓之３","OBJECTID":523740},"geometry":{"x":171072.25,"y":2543701.8100000024}},{"attributes":{"ID":523768,"DIS_CODE":0,"TOWNNAME":"東區","LI":"東光里","LIN":"6鄰","STREET":"凱旋路","SECT":" ","MAREA":" ","LANE":" ","ALLEY":" ","HOUSE_NO":"１０１號十四樓之３","E_COORD97":171072.25,"N_COORD97":2543701.8100000001,"ADDRESS":"凱旋路１０１號十四樓之３","OBJECTID":523741},"geometry":{"x":171072.25,"y":2543701.8100000024}},{"attributes":{"ID":523769,"DIS_CODE":0,"TOWNNAME":"東區","LI":"東光里","LIN":"6鄰","STREET":"凱旋路","SECT":" ","MAREA":" ","LANE":" ","ALLEY":" ","HOUSE_NO":"１０５號二樓之１","E_COORD97":171006.17000000001,"N_COORD97":2543712.8900000001,"ADDRESS":"凱旋路１０５號二樓之１","OBJECTID":523742},"geometry":{"x":171006.17000000086,"y":2543712.8900000006}},{"attributes":{"ID":523770,"DIS_CODE":0,"TOWNNAME":"東區","LI":"東光里","LIN":"6鄰","STREET":"凱旋路","SECT":" ","MAREA":" ","LANE":" ","ALLEY":" ","HOUSE_NO":"１０５號三樓之１","E_COORD97":171006.17000000001,"N_COORD97":2543712.8900000001,"ADDRESS":"凱旋路１０５號三樓之１","OBJECTID":523743},"geometry":{"x":171006.17000000086,"y":2543712.8900000006}},{"attributes":{"ID":523771,"DIS_CODE":0,"TOWNNAME":"東區","LI":"東光里","LIN":"6鄰","STREET":"凱旋路","SECT":" ","MAREA":" ","LANE":" ","ALLEY":" ","HOUSE_NO":"１０５號四樓之１","E_COORD97":171006.17000000001,"N_COORD97":2543712.8900000001,"ADDRESS":"凱旋路１０５號四樓之１","OBJECTID":523744},"geometry":{"x":171006.17000000086,"y":2543712.8900000006}},{"attributes":{"ID":523772,"DIS_CODE":0,"TOWNNAME":"東區","LI":"東光里","LIN":"6鄰","STREET":"凱旋路","SECT":" ","MAREA":" ","LANE":" ","ALLEY":" ","HOUSE_NO":"１０５號五樓之１","E_COORD97":171006.17000000001,"N_COORD97":2543712.8900000001,"ADDRESS":"凱旋路１０５號五樓之１","OBJECTID":523745},"geometry":{"x":171006.17000000086,"y":2543712.8900000006}},{"attributes":{"ID":523773,"DIS_CODE":0,"TOWNNAME":"東區","LI":"東光里","LIN":"6鄰","STREET":"凱旋路","SECT":" ","MAREA":" ","LANE":" ","ALLEY":" ","HOUSE_NO":"１０５號六樓之１","E_COORD97":171006.17000000001,"N_COORD97":2543712.8900000001,"ADDRESS":"凱旋路１０５號六樓之１","OBJECTID":523746},"geometry":{"x":171006.17000000086,"y":2543712.8900000006}},{"attributes":{"ID":523774,"DIS_CODE":0,"TOWNNAME":"東區","LI":"東光里","LIN":"6鄰","STREET":"凱旋路","SECT":" ","MAREA":" ","LANE":" ","ALLEY":" ","HOUSE_NO":"１０５號七樓之１","E_COORD97":171006.17000000001,"N_COORD97":2543712.8900000001,"ADDRESS":"凱旋路１０５號七樓之１","OBJECTID":523747},"geometry":{"x":171006.17000000086,"y":2543712.8900000006}},{"attributes":{"ID":523775,"DIS_CODE":0,"TOWNNAME":"東區","LI":"東光里","LIN":"6鄰","STREET":"凱旋路","SECT":" ","MAREA":" ","LANE":" ","ALLEY":" ","HOUSE_NO":"１０５號八樓之１","E_COORD97":171006.17000000001,"N_COORD97":2543712.8900000001,"ADDRESS":"凱旋路１０５號八樓之１","OBJECTID":523748},"geometry":{"x":171006.17000000086,"y":2543712.8900000006}},{"attributes":{"ID":523776,"DIS_CODE":0,"TOWNNAME":"東區","LI":"東光里","LIN":"6鄰","STREET":"凱旋路","SECT":" ","MAREA":" ","LANE":" ","ALLEY":" ","HOUSE_NO":"１０５號九樓之１","E_COORD97":171006.17000000001,"N_COORD97":2543712.8900000001,"ADDRESS":"凱旋路１０５號九樓之１","OBJECTID":523749},"geometry":{"x":171006.17000000086,"y":2543712.8900000006}},{"attributes":{"ID":523777,"DIS_CODE":0,"TOWNNAME":"東區","LI":"東光里","LIN":"6鄰","STREET":"凱旋路","SECT":" ","MAREA":" ","LANE":" ","ALLEY":" ","HOUSE_NO":"１０５號十樓之１","E_COORD97":171006.17000000001,"N_COORD97":2543712.8900000001,"ADDRESS":"凱旋路１０５號十樓之１","OBJECTID":523750},"geometry":{"x":171006.17000000086,"y":2543712.8900000006}},{"attributes":{"ID":523778,"DIS_CODE":0,"TOWNNAME":"東區","LI":"東光里","LIN":"6鄰","STREET":"凱旋路","SECT":" ","MAREA":" ","LANE":" ","ALLEY":" ","HOUSE_NO":"１０５號十一樓之１","E_COORD97":171006.17000000001,"N_COORD97":2543712.8900000001,"ADDRESS":"凱旋路１０５號十一樓之１","OBJECTID":523751},"geometry":{"x":171006.17000000086,"y":2543712.8900000006}},{"attributes":{"ID":523779,"DIS_CODE":0,"TOWNNAME":"東區","LI":"東光里","LIN":"6鄰","STREET":"凱旋路","SECT":" ","MAREA":" ","LANE":" ","ALLEY":" ","HOUSE_NO":"１０５號十二樓之１","E_COORD97":171006.17000000001,"N_COORD97":2543712.8900000001,"ADDRESS":"凱旋路１０５號十二樓之１","OBJECTID":523752},"geometry":{"x":171006.17000000086,"y":2543712.8900000006}},{"attributes":{"ID":523780,"DIS_CODE":0,"TOWNNAME":"東區","LI":"東光里","LIN":"6鄰","STREET":"凱旋路","SECT":" ","MAREA":" ","LANE":" ","ALLEY":" ","HOUSE_NO":"１０５號十三樓之１","E_COORD97":171006.17000000001,"N_COORD97":2543712.8900000001,"ADDRESS":"凱旋路１０５號十三樓之１","OBJECTID":523753},"geometry":{"x":171006.17000000086,"y":2543712.8900000006}},{"attributes":{"ID":523781,"DIS_CODE":0,"TOWNNAME":"東區","LI":"東光里","LIN":"6鄰","STREET":"凱旋路","SECT":" ","MAREA":" ","LANE":" ","ALLEY":" ","HOUSE_NO":"１０５號十四樓之１","E_COORD97":171006.17000000001,"N_COORD97":2543712.8900000001,"ADDRESS":"凱旋路１０５號十四樓之１","OBJECTID":523754},"geometry":{"x":171006.17000000086,"y":2543712.8900000006}},{"attributes":{"ID":523782,"DIS_CODE":0,"TOWNNAME":"東區","LI":"東光里","LIN":"6鄰","STREET":"凱旋路","SECT":" ","MAREA":" ","LANE":" ","ALLEY":" ","HOUSE_NO":"１０５號二樓之２","E_COORD97":171006.17000000001,"N_COORD97":2543712.8900000001,"ADDRESS":"凱旋路１０５號二樓之２","OBJECTID":523755},"geometry":{"x":171006.17000000086,"y":2543712.8900000006}},{"attributes":{"ID":523783,"DIS_CODE":0,"TOWNNAME":"東區","LI":"東光里","LIN":"6鄰","STREET":"凱旋路","SECT":" ","MAREA":" ","LANE":" ","ALLEY":" ","HOUSE_NO":"１０５號三樓之２","E_COORD97":171006.17000000001,"N_COORD97":2543712.8900000001,"ADDRESS":"凱旋路１０５號三樓之２","OBJECTID":523756},"geometry":{"x":171006.17000000086,"y":2543712.8900000006}},{"attributes":{"ID":523784,"DIS_CODE":0,"TOWNNAME":"東區","LI":"東光里","LIN":"6鄰","STREET":"凱旋路","SECT":" ","MAREA":" ","LANE":" ","ALLEY":" ","HOUSE_NO":"１０５號四樓之２","E_COORD97":171006.17000000001,"N_COORD97":2543712.8900000001,"ADDRESS":"凱旋路１０５號四樓之２","OBJECTID":523757},"geometry":{"x":171006.17000000086,"y":2543712.8900000006}},{"attributes":{"ID":523785,"DIS_CODE":0,"TOWNNAME":"東區","LI":"東光里","LIN":"6鄰","STREET":"凱旋路","SECT":" ","MAREA":" ","LANE":" ","ALLEY":" ","HOUSE_NO":"１０５號五樓之２","E_COORD97":171006.17000000001,"N_COORD97":2543712.8900000001,"ADDRESS":"凱旋路１０５號五樓之２","OBJECTID":523758},"geometry":{"x":171006.17000000086,"y":2543712.8900000006}},{"attributes":{"ID":523786,"DIS_CODE":0,"TOWNNAME":"東區","LI":"東光里","LIN":"6鄰","STREET":"凱旋路","SECT":" ","MAREA":" ","LANE":" ","ALLEY":" ","HOUSE_NO":"１０５號六樓之２","E_COORD97":171006.17000000001,"N_COORD97":2543712.8900000001,"ADDRESS":"凱旋路１０５號六樓之２","OBJECTID":523759},"geometry":{"x":171006.17000000086,"y":2543712.8900000006}},{"attributes":{"ID":523787,"DIS_CODE":0,"TOWNNAME":"東區","LI":"東光里","LIN":"6鄰","STREET":"凱旋路","SECT":" ","MAREA":" ","LANE":" ","ALLEY":" ","HOUSE_NO":"１０５號七樓之２","E_COORD97":171006.17000000001,"N_COORD97":2543712.8900000001,"ADDRESS":"凱旋路１０５號七樓之２","OBJECTID":523760},"geometry":{"x":171006.17000000086,"y":2543712.8900000006}},{"attributes":{"ID":523788,"DIS_CODE":0,"TOWNNAME":"東區","LI":"東光里","LIN":"6鄰","STREET":"凱旋路","SECT":" ","MAREA":" ","LANE":" ","ALLEY":" ","HOUSE_NO":"１０５號八樓之２","E_COORD97":171006.17000000001,"N_COORD97":2543712.8900000001,"ADDRESS":"凱旋路１０５號八樓之２","OBJECTID":523761},"geometry":{"x":171006.17000000086,"y":2543712.8900000006}},{"attributes":{"ID":523789,"DIS_CODE":0,"TOWNNAME":"東區","LI":"東光里","LIN":"6鄰","STREET":"凱旋路","SECT":" ","MAREA":" ","LANE":" ","ALLEY":" ","HOUSE_NO":"１０５號九樓之２","E_COORD97":171006.17000000001,"N_COORD97":2543712.8900000001,"ADDRESS":"凱旋路１０５號九樓之２","OBJECTID":523762},"geometry":{"x":171006.17000000086,"y":2543712.8900000006}},{"attributes":{"ID":523790,"DIS_CODE":0,"TOWNNAME":"東區","LI":"東光里","LIN":"6鄰","STREET":"凱旋路","SECT":" ","MAREA":" ","LANE":" ","ALLEY":" ","HOUSE_NO":"１０５號十樓之２","E_COORD97":171006.17000000001,"N_COORD97":2543712.8900000001,"ADDRESS":"凱旋路１０５號十樓之２","OBJECTID":523763},"geometry":{"x":171006.17000000086,"y":2543712.8900000006}},{"attributes":{"ID":523791,"DIS_CODE":0,"TOWNNAME":"東區","LI":"東光里","LIN":"6鄰","STREET":"凱旋路","SECT":" ","MAREA":" ","LANE":" ","ALLEY":" ","HOUSE_NO":"１０５號十一樓之２","E_COORD97":171006.17000000001,"N_COORD97":2543712.8900000001,"ADDRESS":"凱旋路１０５號十一樓之２","OBJECTID":523764},"geometry":{"x":171006.17000000086,"y":2543712.8900000006}},{"attributes":{"ID":523792,"DIS_CODE":0,"TOWNNAME":"東區","LI":"東光里","LIN":"6鄰","STREET":"凱旋路","SECT":" ","MAREA":" ","LANE":" ","ALLEY":" ","HOUSE_NO":"１０５號十二樓之２","E_COORD97":171006.17000000001,"N_COORD97":2543712.8900000001,"ADDRESS":"凱旋路１０５號十二樓之２","OBJECTID":523765},"geometry":{"x":171006.17000000086,"y":2543712.8900000006}},{"attributes":{"ID":523793,"DIS_CODE":0,"TOWNNAME":"東區","LI":"東光里","LIN":"6鄰","STREET":"凱旋路","SECT":" ","MAREA":" ","LANE":" ","ALLEY":" ","HOUSE_NO":"１０５號十三樓之２","E_COORD97":171006.17000000001,"N_COORD97":2543712.8900000001,"ADDRESS":"凱旋路１０５號十三樓之２","OBJECTID":523766},"geometry":{"x":171006.17000000086,"y":2543712.8900000006}},{"attributes":{"ID":523794,"DIS_CODE":0,"TOWNNAME":"東區","LI":"東光里","LIN":"6鄰","STREET":"凱旋路","SECT":" ","MAREA":" ","LANE":" ","ALLEY":" ","HOUSE_NO":"１０５號十四樓之２","E_COORD97":171006.17000000001,"N_COORD97":2543712.8900000001,"ADDRESS":"凱旋路１０５號十四樓之２","OBJECTID":523767},"geometry":{"x":171006.17000000086,"y":2543712.8900000006}},{"attributes":{"ID":523795,"DIS_CODE":0,"TOWNNAME":"東區","LI":"東光里","LIN":"6鄰","STREET":"凱旋路","SECT":" ","MAREA":" ","LANE":" ","ALLEY":" ","HOUSE_NO":"１０５號二樓之３","E_COORD97":171006.17000000001,"N_COORD97":2543712.8900000001,"ADDRESS":"凱旋路１０５號二樓之３","OBJECTID":523768},"geometry":{"x":171006.17000000086,"y":2543712.8900000006}},{"attributes":{"ID":523796,"DIS_CODE":0,"TOWNNAME":"東區","LI":"東光里","LIN":"6鄰","STREET":"凱旋路","SECT":" ","MAREA":" ","LANE":" ","ALLEY":" ","HOUSE_NO":"１０５號三樓之３","E_COORD97":171006.17000000001,"N_COORD97":2543712.8900000001,"ADDRESS":"凱旋路１０５號三樓之３","OBJECTID":523769},"geometry":{"x":171006.17000000086,"y":2543712.8900000006}},{"attributes":{"ID":523797,"DIS_CODE":0,"TOWNNAME":"東區","LI":"東光里","LIN":"6鄰","STREET":"凱旋路","SECT":" ","MAREA":" ","LANE":" ","ALLEY":" ","HOUSE_NO":"１０５號二樓之３","E_COORD97":171036.95000000001,"N_COORD97":2543702.1000000001,"ADDRESS":"凱旋路１０５號二樓之３","OBJECTID":523770},"geometry":{"x":171036.95000000112,"y":2543702.1000000015}},{"attributes":{"ID":523798,"DIS_CODE":0,"TOWNNAME":"東區","LI":"東光里","LIN":"6鄰","STREET":"凱旋路","SECT":" ","MAREA":" ","LANE":" ","ALLEY":" ","HOUSE_NO":"１０５號三樓之３","E_COORD97":171036.95000000001,"N_COORD97":2543702.1000000001,"ADDRESS":"凱旋路１０５號三樓之３","OBJECTID":523771},"geometry":{"x":171036.95000000112,"y":2543702.1000000015}},{"attributes":{"ID":523799,"DIS_CODE":0,"TOWNNAME":"東區","LI":"東光里","LIN":"6鄰","STREET":"凱旋路","SECT":" ","MAREA":" ","LANE":" ","ALLEY":" ","HOUSE_NO":"１０５號二樓之１","E_COORD97":171036.95000000001,"N_COORD97":2543702.1000000001,"ADDRESS":"凱旋路１０５號二樓之１","OBJECTID":523772},"geometry":{"x":171036.95000000112,"y":2543702.1000000015}},{"attributes":{"ID":523800,"DIS_CODE":0,"TOWNNAME":"東區","LI":"東光里","LIN":"6鄰","STREET":"凱旋路","SECT":" ","MAREA":" ","LANE":" ","ALLEY":" ","HOUSE_NO":"１０５號三樓之１","E_COORD97":171036.95000000001,"N_COORD97":2543702.1000000001,"ADDRESS":"凱旋路１０５號三樓之１","OBJECTID":523773},"geometry":{"x":171036.95000000112,"y":2543702.1000000015}},{"attributes":{"ID":523801,"DIS_CODE":0,"TOWNNAME":"東區","LI":"東光里","LIN":"6鄰","STREET":"凱旋路","SECT":" ","MAREA":" ","LANE":" ","ALLEY":" ","HOUSE_NO":"１０５號四樓之１","E_COORD97":171036.95000000001,"N_COORD97":2543702.1000000001,"ADDRESS":"凱旋路１０５號四樓之１","OBJECTID":523774},"geometry":{"x":171036.95000000112,"y":2543702.1000000015}},{"attributes":{"ID":523802,"DIS_CODE":0,"TOWNNAME":"東區","LI":"東光里","LIN":"6鄰","STREET":"凱旋路","SECT":" ","MAREA":" ","LANE":" ","ALLEY":" ","HOUSE_NO":"１０５號五樓之１","E_COORD97":171036.95000000001,"N_COORD97":2543702.1000000001,"ADDRESS":"凱旋路１０５號五樓之１","OBJECTID":523775},"geometry":{"x":171036.95000000112,"y":2543702.1000000015}},{"attributes":{"ID":523803,"DIS_CODE":0,"TOWNNAME":"東區","LI":"東光里","LIN":"6鄰","STREET":"凱旋路","SECT":" ","MAREA":" ","LANE":" ","ALLEY":" ","HOUSE_NO":"１０５號六樓之１","E_COORD97":171036.95000000001,"N_COORD97":2543702.1000000001,"ADDRESS":"凱旋路１０５號六樓之１","OBJECTID":523776},"geometry":{"x":171036.95000000112,"y":2543702.1000000015}},{"attributes":{"ID":523804,"DIS_CODE":0,"TOWNNAME":"東區","LI":"東光里","LIN":"6鄰","STREET":"凱旋路","SECT":" ","MAREA":" ","LANE":" ","ALLEY":" ","HOUSE_NO":"１０５號八樓之１","E_COORD97":171036.95000000001,"N_COORD97":2543702.1000000001,"ADDRESS":"凱旋路１０５號八樓之１","OBJECTID":523777},"geometry":{"x":171036.95000000112,"y":2543702.1000000015}},{"attributes":{"ID":523805,"DIS_CODE":0,"TOWNNAME":"東區","LI":"東光里","LIN":"6鄰","STREET":"凱旋路","SECT":" ","MAREA":" ","LANE":" ","ALLEY":" ","HOUSE_NO":"１０５號九樓之１","E_COORD97":171036.95000000001,"N_COORD97":2543702.1000000001,"ADDRESS":"凱旋路１０５號九樓之１","OBJECTID":523778},"geometry":{"x":171036.95000000112,"y":2543702.1000000015}},{"attributes":{"ID":523806,"DIS_CODE":0,"TOWNNAME":"東區","LI":"東光里","LIN":"6鄰","STREET":"凱旋路","SECT":" ","MAREA":" ","LANE":" ","ALLEY":" ","HOUSE_NO":"１０５號十樓之１","E_COORD97":171036.95000000001,"N_COORD97":2543702.1000000001,"ADDRESS":"凱旋路１０５號十樓之１","OBJECTID":523779},"geometry":{"x":171036.95000000112,"y":2543702.1000000015}},{"attributes":{"ID":523807,"DIS_CODE":0,"TOWNNAME":"東區","LI":"東光里","LIN":"6鄰","STREET":"凱旋路","SECT":" ","MAREA":" ","LANE":" ","ALLEY":" ","HOUSE_NO":"１０５號十一樓之１","E_COORD97":171036.95000000001,"N_COORD97":2543702.1000000001,"ADDRESS":"凱旋路１０５號十一樓之１","OBJECTID":523780},"geometry":{"x":171036.95000000112,"y":2543702.1000000015}},{"attributes":{"ID":523808,"DIS_CODE":0,"TOWNNAME":"東區","LI":"東光里","LIN":"6鄰","STREET":"凱旋路","SECT":" ","MAREA":" ","LANE":" ","ALLEY":" ","HOUSE_NO":"１０５號十二樓之１","E_COORD97":171036.95000000001,"N_COORD97":2543702.1000000001,"ADDRESS":"凱旋路１０５號十二樓之１","OBJECTID":523781},"geometry":{"x":171036.95000000112,"y":2543702.1000000015}},{"attributes":{"ID":523809,"DIS_CODE":0,"TOWNNAME":"東區","LI":"東光里","LIN":"6鄰","STREET":"凱旋路","SECT":" ","MAREA":" ","LANE":" ","ALLEY":" ","HOUSE_NO":"１０５號十三樓之１","E_COORD97":171036.95000000001,"N_COORD97":2543702.1000000001,"ADDRESS":"凱旋路１０５號十三樓之１","OBJECTID":523782},"geometry":{"x":171036.95000000112,"y":2543702.1000000015}},{"attributes":{"ID":523810,"DIS_CODE":0,"TOWNNAME":"東區","LI":"東光里","LIN":"6鄰","STREET":"凱旋路","SECT":" ","MAREA":" ","LANE":" ","ALLEY":" ","HOUSE_NO":"１０５號十四樓之１","E_COORD97":171036.95000000001,"N_COORD97":2543702.1000000001,"ADDRESS":"凱旋路１０５號十四樓之１","OBJECTID":523783},"geometry":{"x":171036.95000000112,"y":2543702.1000000015}},{"attributes":{"ID":523811,"DIS_CODE":0,"TOWNNAME":"東區","LI":"東光里","LIN":"6鄰","STREET":"凱旋路","SECT":" ","MAREA":" ","LANE":" ","ALLEY":" ","HOUSE_NO":"１０５號二樓之２","E_COORD97":171036.95000000001,"N_COORD97":2543702.1000000001,"ADDRESS":"凱旋路１０５號二樓之２","OBJECTID":523784},"geometry":{"x":171036.95000000112,"y":2543702.1000000015}},{"attributes":{"ID":523812,"DIS_CODE":0,"TOWNNAME":"東區","LI":"東光里","LIN":"6鄰","STREET":"凱旋路","SECT":" ","MAREA":" ","LANE":" ","ALLEY":" ","HOUSE_NO":"１０５號三樓之２","E_COORD97":171036.95000000001,"N_COORD97":2543702.1000000001,"ADDRESS":"凱旋路１０５號三樓之２","OBJECTID":523785},"geometry":{"x":171036.95000000112,"y":2543702.1000000015}},{"attributes":{"ID":523813,"DIS_CODE":0,"TOWNNAME":"東區","LI":"東光里","LIN":"6鄰","STREET":"凱旋路","SECT":" ","MAREA":" ","LANE":" ","ALLEY":" ","HOUSE_NO":"１０５號四樓之２","E_COORD97":171036.95000000001,"N_COORD97":2543702.1000000001,"ADDRESS":"凱旋路１０５號四樓之２","OBJECTID":523786},"geometry":{"x":171036.95000000112,"y":2543702.1000000015}},{"attributes":{"ID":523814,"DIS_CODE":0,"TOWNNAME":"東區","LI":"東光里","LIN":"6鄰","STREET":"凱旋路","SECT":" ","MAREA":" ","LANE":" ","ALLEY":" ","HOUSE_NO":"１０５號五樓之２","E_COORD97":171036.95000000001,"N_COORD97":2543702.1000000001,"ADDRESS":"凱旋路１０５號五樓之２","OBJECTID":523787},"geometry":{"x":171036.95000000112,"y":2543702.1000000015}},{"attributes":{"ID":523815,"DIS_CODE":0,"TOWNNAME":"東區","LI":"東光里","LIN":"6鄰","STREET":"凱旋路","SECT":" ","MAREA":" ","LANE":" ","ALLEY":" ","HOUSE_NO":"１０５號六樓之２","E_COORD97":171036.95000000001,"N_COORD97":2543702.1000000001,"ADDRESS":"凱旋路１０５號六樓之２","OBJECTID":523788},"geometry":{"x":171036.95000000112,"y":2543702.1000000015}},{"attributes":{"ID":523816,"DIS_CODE":0,"TOWNNAME":"東區","LI":"東光里","LIN":"6鄰","STREET":"凱旋路","SECT":" ","MAREA":" ","LANE":" ","ALLEY":" ","HOUSE_NO":"１０５號七樓之２","E_COORD97":171036.95000000001,"N_COORD97":2543702.1000000001,"ADDRESS":"凱旋路１０５號七樓之２","OBJECTID":523789},"geometry":{"x":171036.95000000112,"y":2543702.1000000015}},{"attributes":{"ID":523817,"DIS_CODE":0,"TOWNNAME":"東區","LI":"東光里","LIN":"6鄰","STREET":"凱旋路","SECT":" ","MAREA":" ","LANE":" ","ALLEY":" ","HOUSE_NO":"１０５號八樓之２","E_COORD97":171036.95000000001,"N_COORD97":2543702.1000000001,"ADDRESS":"凱旋路１０５號八樓之２","OBJECTID":523790},"geometry":{"x":171036.95000000112,"y":2543702.1000000015}},{"attributes":{"ID":523818,"DIS_CODE":0,"TOWNNAME":"東區","LI":"東光里","LIN":"6鄰","STREET":"凱旋路","SECT":" ","MAREA":" ","LANE":" ","ALLEY":" ","HOUSE_NO":"１０５號九樓之２","E_COORD97":171036.95000000001,"N_COORD97":2543702.1000000001,"ADDRESS":"凱旋路１０５號九樓之２","OBJECTID":523791},"geometry":{"x":171036.95000000112,"y":2543702.1000000015}},{"attributes":{"ID":523819,"DIS_CODE":0,"TOWNNAME":"東區","LI":"東光里","LIN":"6鄰","STREET":"凱旋路","SECT":" ","MAREA":" ","LANE":" ","ALLEY":" ","HOUSE_NO":"１０５號十樓之２","E_COORD97":171036.95000000001,"N_COORD97":2543702.1000000001,"ADDRESS":"凱旋路１０５號十樓之２","OBJECTID":523792},"geometry":{"x":171036.95000000112,"y":2543702.1000000015}},{"attributes":{"ID":523820,"DIS_CODE":0,"TOWNNAME":"東區","LI":"東光里","LIN":"6鄰","STREET":"凱旋路","SECT":" ","MAREA":" ","LANE":" ","ALLEY":" ","HOUSE_NO":"１０５號十一樓之２","E_COORD97":171036.95000000001,"N_COORD97":2543702.1000000001,"ADDRESS":"凱旋路１０５號十一樓之２","OBJECTID":523793},"geometry":{"x":171036.95000000112,"y":2543702.1000000015}},{"attributes":{"ID":523821,"DIS_CODE":0,"TOWNNAME":"東區","LI":"東光里","LIN":"6鄰","STREET":"凱旋路","SECT":" ","MAREA":" ","LANE":" ","ALLEY":" ","HOUSE_NO":"１０５號十二樓之２","E_COORD97":171036.95000000001,"N_COORD97":2543702.1000000001,"ADDRESS":"凱旋路１０５號十二樓之２","OBJECTID":523794},"geometry":{"x":171036.95000000112,"y":2543702.1000000015}},{"attributes":{"ID":523822,"DIS_CODE":0,"TOWNNAME":"東區","LI":"東光里","LIN":"6鄰","STREET":"凱旋路","SECT":" ","MAREA":" ","LANE":" ","ALLEY":" ","HOUSE_NO":"１０５號十三樓之２","E_COORD97":171036.95000000001,"N_COORD97":2543702.1000000001,"ADDRESS":"凱旋路１０５號十三樓之２","OBJECTID":523795},"geometry":{"x":171036.95000000112,"y":2543702.1000000015}},{"attributes":{"ID":523823,"DIS_CODE":0,"TOWNNAME":"東區","LI":"東光里","LIN":"6鄰","STREET":"凱旋路","SECT":" ","MAREA":" ","LANE":" ","ALLEY":" ","HOUSE_NO":"１０５號十四樓之２","E_COORD97":171036.95000000001,"N_COORD97":2543702.1000000001,"ADDRESS":"凱旋路１０５號十四樓之２","OBJECTID":523796},"geometry":{"x":171036.95000000112,"y":2543702.1000000015}},{"attributes":{"ID":523824,"DIS_CODE":0,"TOWNNAME":"東區","LI":"東光里","LIN":"6鄰","STREET":"凱旋路","SECT":" ","MAREA":" ","LANE":" ","ALLEY":" ","HOUSE_NO":"１０５號四樓之３","E_COORD97":171036.95000000001,"N_COORD97":2543702.1000000001,"ADDRESS":"凱旋路１０５號四樓之３","OBJECTID":523797},"geometry":{"x":171036.95000000112,"y":2543702.1000000015}},{"attributes":{"ID":523825,"DIS_CODE":0,"TOWNNAME":"東區","LI":"東光里","LIN":"6鄰","STREET":"凱旋路","SECT":" ","MAREA":" ","LANE":" ","ALLEY":" ","HOUSE_NO":"１０５號五樓之３","E_COORD97":171036.95000000001,"N_COORD97":2543702.1000000001,"ADDRESS":"凱旋路１０５號五樓之３","OBJECTID":523798},"geometry":{"x":171036.95000000112,"y":2543702.1000000015}},{"attributes":{"ID":523826,"DIS_CODE":0,"TOWNNAME":"東區","LI":"東光里","LIN":"6鄰","STREET":"凱旋路","SECT":" ","MAREA":" ","LANE":" ","ALLEY":" ","HOUSE_NO":"１０５號六樓之３","E_COORD97":171036.95000000001,"N_COORD97":2543702.1000000001,"ADDRESS":"凱旋路１０５號六樓之３","OBJECTID":523799},"geometry":{"x":171036.95000000112,"y":2543702.1000000015}},{"attributes":{"ID":523827,"DIS_CODE":0,"TOWNNAME":"東區","LI":"東光里","LIN":"6鄰","STREET":"凱旋路","SECT":" ","MAREA":" ","LANE":" ","ALLEY":" ","HOUSE_NO":"１０５號七樓之３","E_COORD97":171036.95000000001,"N_COORD97":2543702.1000000001,"ADDRESS":"凱旋路１０５號七樓之３","OBJECTID":523800},"geometry":{"x":171036.95000000112,"y":2543702.1000000015}}]}