{"displayFieldName":"TOWNNAME","fieldAliases":{"ID":"ID","DIS_CODE":"DIS_CODE","TOWNNAME":"TOWNNAME","LI":"LI","LIN":"LIN","STREET":"STREET","SECT":"SECT","MAREA":"MAREA","LANE":"LANE","ALLEY":"ALLEY","HOUSE_NO":"HOUSE_NO","E_COORD97":"E_COORD97","N_COORD97":"N_COORD97","ADDRESS":"ADDRESS","OBJECTID":"OBJECTID"},"geometryType":"esriGeometryPoint","spatialReference":{"wkid":102443,"latestWkid":3826},"fields":[{"name":"ID","type":"esriFieldTypeDouble","alias":"ID"},{"name":"DIS_CODE","type":"esriFieldTypeInteger","alias":"DIS_CODE"},{"name":"TOWNNAME","type":"esriFieldTypeString","alias":"TOWNNAME","length":8},{"name":"LI","type":"esriFieldTypeString","alias":"LI","length":8},{"name":"LIN","type":"esriFieldTypeString","alias":"LIN","length":12},{"name":"STREET","type":"esriFieldTypeString","alias":"STREET","length":20},{"name":"SECT","type":"esriFieldTypeString","alias":"SECT","length":8},{"name":"MAREA","type":"esriFieldTypeString","alias":"MAREA","length":12},{"name":"LANE","type":"esriFieldTypeString","alias":"LANE","length":10},{"name":"ALLEY","type":"esriFieldTypeString","alias":"ALLEY","length":10},{"name":"HOUSE_NO","type":"esriFieldTypeString","alias":"HOUSE_NO","length":20},{"name":"E_COORD97","type":"esriFieldTypeDouble","alias":"E_COORD97"},{"name":"N_COORD97","type":"esriFieldTypeDouble","alias":"N_COORD97"},{"name":"ADDRESS","type":"esriFieldTypeString","alias":"ADDRESS","length":50},{"name":"OBJECTID","type":"esriFieldTypeOID","alias":"OBJECTID"}],"features":[{"attributes":{"ID":515428,"DIS_CODE":0,"TOWNNAME":"北區","LI":"國興里","LIN":"1鄰","STREET":"開元路","SECT":" ","MAREA":" ","LANE":" ","ALLEY":" ","HOUSE_NO":"３９０之１號","E_COORD97":170560.48000000001,"N_COORD97":2545624.04,"ADDRESS":"開元路３９０之１號","OBJECTID":515401},"geometry":{"x":170560.48000000138,"y":2545624.040000001}},{"attributes":{"ID":515429,"DIS_CODE":0,"TOWNNAME":"北區","LI":"文元里","LIN":"1鄰","STREET":"海安路","SECT":"三段","MAREA":" ","LANE":" ","ALLEY":" ","HOUSE_NO":"９５１號","E_COORD97":167969.91,"N_COORD97":2546548.52,"ADDRESS":"海安路三段９５１號","OBJECTID":515402},"geometry":{"x":167969.91000000201,"y":2546548.5199999996}},{"attributes":{"ID":515430,"DIS_CODE":0,"TOWNNAME":"北區","LI":"實踐里","LIN":"1鄰","STREET":"實踐街","SECT":" ","MAREA":" ","LANE":" ","ALLEY":" ","HOUSE_NO":"７８號","E_COORD97":169939.07000000001,"N_COORD97":2546004.1899999999,"ADDRESS":"實踐街７８號","OBJECTID":515403},"geometry":{"x":169939.07000000123,"y":2546004.1899999995}},{"attributes":{"ID":515431,"DIS_CODE":0,"TOWNNAME":"北區","LI":"實踐里","LIN":"1鄰","STREET":"實踐街","SECT":" ","MAREA":" ","LANE":" ","ALLEY":" ","HOUSE_NO":"７４號","E_COORD97":169931.29999999999,"N_COORD97":2546004.7799999998,"ADDRESS":"實踐街７４號","OBJECTID":515404},"geometry":{"x":169931.29999999981,"y":2546004.7799999975}},{"attributes":{"ID":515432,"DIS_CODE":0,"TOWNNAME":"北區","LI":"實踐里","LIN":"1鄰","STREET":"實踐街","SECT":" ","MAREA":" ","LANE":" ","ALLEY":" ","HOUSE_NO":"７６號","E_COORD97":169934.64000000001,"N_COORD97":2546004.48,"ADDRESS":"實踐街７６號","OBJECTID":515405},"geometry":{"x":169934.6400000006,"y":2546004.4800000004}},{"attributes":{"ID":515433,"DIS_CODE":0,"TOWNNAME":"北區","LI":"實踐里","LIN":"1鄰","STREET":"實踐街","SECT":" ","MAREA":" ","LANE":" ","ALLEY":" ","HOUSE_NO":"８０號","E_COORD97":169942.60999999999,"N_COORD97":2546003.9900000002,"ADDRESS":"實踐街８０號","OBJECTID":515406},"geometry":{"x":169942.61000000127,"y":2546003.9900000002}},{"attributes":{"ID":515434,"DIS_CODE":0,"TOWNNAME":"北區","LI":"實踐里","LIN":"1鄰","STREET":"長榮路","SECT":"五段","MAREA":" ","LANE":" ","ALLEY":" ","HOUSE_NO":"２２０號","E_COORD97":169982.51000000001,"N_COORD97":2545927.98,"ADDRESS":"長榮路五段２２０號","OBJECTID":515407},"geometry":{"x":169982.50999999978,"y":2545927.9800000023}},{"attributes":{"ID":515435,"DIS_CODE":0,"TOWNNAME":"北區","LI":"光武里","LIN":"1鄰","STREET":"長榮路","SECT":"五段","MAREA":" ","LANE":" ","ALLEY":" ","HOUSE_NO":"２２１號","E_COORD97":169966.47,"N_COORD97":2545894.1099999999,"ADDRESS":"長榮路五段２２１號","OBJECTID":515408},"geometry":{"x":169966.47000000067,"y":2545894.1099999975}},{"attributes":{"ID":515436,"DIS_CODE":0,"TOWNNAME":"北區","LI":"實踐里","LIN":"1鄰","STREET":"長榮路","SECT":"五段","MAREA":" ","LANE":" ","ALLEY":" ","HOUSE_NO":"２２２號","E_COORD97":169977.39999999999,"N_COORD97":2545927.8799999999,"ADDRESS":"長榮路五段２２２號","OBJECTID":515409},"geometry":{"x":169977.40000000224,"y":2545927.879999999}},{"attributes":{"ID":515437,"DIS_CODE":0,"TOWNNAME":"北區","LI":"光武里","LIN":"1鄰","STREET":"長榮路","SECT":"五段","MAREA":" ","LANE":" ","ALLEY":" ","HOUSE_NO":"２２３號","E_COORD97":169961.01000000001,"N_COORD97":2545892.6800000002,"ADDRESS":"長榮路五段２２３號","OBJECTID":515410},"geometry":{"x":169961.01000000071,"y":2545892.6799999997}},{"attributes":{"ID":515438,"DIS_CODE":0,"TOWNNAME":"北區","LI":"實踐里","LIN":"1鄰","STREET":"長榮路","SECT":"五段","MAREA":" ","LANE":" ","ALLEY":" ","HOUSE_NO":"２２４號","E_COORD97":169972.87,"N_COORD97":2545928.3700000001,"ADDRESS":"長榮路五段２２４號","OBJECTID":515411},"geometry":{"x":169972.87000000104,"y":2545928.3700000048}},{"attributes":{"ID":515439,"DIS_CODE":0,"TOWNNAME":"北區","LI":"光武里","LIN":"1鄰","STREET":"長榮路","SECT":"五段","MAREA":" ","LANE":" ","ALLEY":" ","HOUSE_NO":"２２５號","E_COORD97":169957.44,"N_COORD97":2545893.8700000001,"ADDRESS":"長榮路五段２２５號","OBJECTID":515412},"geometry":{"x":169957.44000000134,"y":2545893.870000001}},{"attributes":{"ID":515440,"DIS_CODE":0,"TOWNNAME":"北區","LI":"實踐里","LIN":"1鄰","STREET":"長榮路","SECT":"五段","MAREA":" ","LANE":" ","ALLEY":" ","HOUSE_NO":"２２６號","E_COORD97":169967.76000000001,"N_COORD97":2545927.98,"ADDRESS":"長榮路五段２２６號","OBJECTID":515413},"geometry":{"x":169967.76000000071,"y":2545927.9800000023}},{"attributes":{"ID":515441,"DIS_CODE":0,"TOWNNAME":"北區","LI":"光武里","LIN":"1鄰","STREET":"長榮路","SECT":"五段","MAREA":" ","LANE":" ","ALLEY":" ","HOUSE_NO":"２２７號","E_COORD97":169952.45000000001,"N_COORD97":2545894.5800000001,"ADDRESS":"長榮路五段２２７號","OBJECTID":515414},"geometry":{"x":169952.45000000019,"y":2545894.5800000001}},{"attributes":{"ID":515442,"DIS_CODE":0,"TOWNNAME":"北區","LI":"實踐里","LIN":"1鄰","STREET":"長榮路","SECT":"五段","MAREA":" ","LANE":" ","ALLEY":" ","HOUSE_NO":"２２８號","E_COORD97":169962.73999999999,"N_COORD97":2545928.3700000001,"ADDRESS":"長榮路五段２２８號","OBJECTID":515415},"geometry":{"x":169962.74000000022,"y":2545928.3700000048}},{"attributes":{"ID":515443,"DIS_CODE":0,"TOWNNAME":"北區","LI":"光武里","LIN":"1鄰","STREET":"長榮路","SECT":"五段","MAREA":" ","LANE":" ","ALLEY":" ","HOUSE_NO":"２２９號","E_COORD97":169946.98999999999,"N_COORD97":2545894.5800000001,"ADDRESS":"長榮路五段２２９號","OBJECTID":515416},"geometry":{"x":169946.99000000022,"y":2545894.5800000001}},{"attributes":{"ID":515444,"DIS_CODE":0,"TOWNNAME":"北區","LI":"實踐里","LIN":"1鄰","STREET":"長榮路","SECT":"五段","MAREA":" ","LANE":" ","ALLEY":" ","HOUSE_NO":"２３０號","E_COORD97":169958.01999999999,"N_COORD97":2545928.3700000001,"ADDRESS":"長榮路五段２３０號","OBJECTID":515417},"geometry":{"x":169958.01999999955,"y":2545928.3700000048}},{"attributes":{"ID":515445,"DIS_CODE":0,"TOWNNAME":"北區","LI":"光武里","LIN":"1鄰","STREET":"長榮路","SECT":"五段","MAREA":" ","LANE":" ","ALLEY":" ","HOUSE_NO":"２３１號","E_COORD97":169942.23999999999,"N_COORD97":2545894.8199999998,"ADDRESS":"長榮路五段２３１號","OBJECTID":515418},"geometry":{"x":169942.24000000022,"y":2545894.8200000022}},{"attributes":{"ID":515446,"DIS_CODE":0,"TOWNNAME":"北區","LI":"實踐里","LIN":"1鄰","STREET":"長榮路","SECT":"五段","MAREA":" ","LANE":" ","ALLEY":" ","HOUSE_NO":"２３２號","E_COORD97":169953.39000000001,"N_COORD97":2545928.6699999999,"ADDRESS":"長榮路五段２３２號","OBJECTID":515419},"geometry":{"x":169953.3900000006,"y":2545928.6700000037}},{"attributes":{"ID":515447,"DIS_CODE":0,"TOWNNAME":"北區","LI":"實踐里","LIN":"1鄰","STREET":"長榮路","SECT":"五段","MAREA":" ","LANE":" ","ALLEY":" ","HOUSE_NO":"２３４號","E_COORD97":169947.59,"N_COORD97":2545929.2599999998,"ADDRESS":"長榮路五段２３４號","OBJECTID":515420},"geometry":{"x":169947.58999999985,"y":2545929.2600000016}},{"attributes":{"ID":515448,"DIS_CODE":0,"TOWNNAME":"北區","LI":"實踐里","LIN":"1鄰","STREET":"實踐街","SECT":" ","MAREA":" ","LANE":" ","ALLEY":" ","HOUSE_NO":"８４號","E_COORD97":169955.35999999999,"N_COORD97":2546002.7000000002,"ADDRESS":"實踐街８４號","OBJECTID":515421},"geometry":{"x":169955.36000000034,"y":2546002.7000000011}},{"attributes":{"ID":515449,"DIS_CODE":0,"TOWNNAME":"北區","LI":"實踐里","LIN":"1鄰","STREET":"實踐街","SECT":" ","MAREA":" ","LANE":" ","ALLEY":" ","HOUSE_NO":"８６號","E_COORD97":169959.69,"N_COORD97":2546002.5,"ADDRESS":"實踐街８６號","OBJECTID":515422},"geometry":{"x":169959.69000000041,"y":2546002.5000000019}},{"attributes":{"ID":515450,"DIS_CODE":0,"TOWNNAME":"北區","LI":"實踐里","LIN":"1鄰","STREET":"實踐街","SECT":" ","MAREA":" ","LANE":" ","ALLEY":" ","HOUSE_NO":"９２號","E_COORD97":169971.20000000001,"N_COORD97":2546001.2200000002,"ADDRESS":"實踐街９２號","OBJECTID":515423},"geometry":{"x":169971.20000000019,"y":2546001.2200000025}},{"attributes":{"ID":515451,"DIS_CODE":0,"TOWNNAME":"北區","LI":"實踐里","LIN":"1鄰","STREET":"實踐街","SECT":" ","MAREA":" ","LANE":" ","ALLEY":" ","HOUSE_NO":"９４號","E_COORD97":169975.04000000001,"N_COORD97":2546000.9300000002,"ADDRESS":"實踐街９４號","OBJECTID":515424},"geometry":{"x":169975.04000000097,"y":2546000.9300000034}},{"attributes":{"ID":515452,"DIS_CODE":0,"TOWNNAME":"北區","LI":"實踐里","LIN":"1鄰","STREET":"實踐街","SECT":" ","MAREA":" ","LANE":" ","ALLEY":" ","HOUSE_NO":"９６號","E_COORD97":169978.67999999999,"N_COORD97":2546000.4399999999,"ADDRESS":"實踐街９６號","OBJECTID":515425},"geometry":{"x":169978.68000000063,"y":2546000.4399999976}},{"attributes":{"ID":515453,"DIS_CODE":0,"TOWNNAME":"北區","LI":"實踐里","LIN":"1鄰","STREET":"實踐街","SECT":" ","MAREA":" ","LANE":" ","ALLEY":" ","HOUSE_NO":"９８號","E_COORD97":169982.41,"N_COORD97":2545999.8500000001,"ADDRESS":"實踐街９８號","OBJECTID":515426},"geometry":{"x":169982.41000000108,"y":2545999.8499999996}},{"attributes":{"ID":515454,"DIS_CODE":0,"TOWNNAME":"北區","LI":"興南里","LIN":"1鄰","STREET":"公園南路","SECT":" ","MAREA":" ","LANE":" ","ALLEY":" ","HOUSE_NO":"４０號","E_COORD97":168846.70999999999,"N_COORD97":2544649.5600000001,"ADDRESS":"公園南路４０號","OBJECTID":515427},"geometry":{"x":168846.70999999996,"y":2544649.5600000024}},{"attributes":{"ID":515455,"DIS_CODE":0,"TOWNNAME":"北區","LI":"興南里","LIN":"1鄰","STREET":"公園南路","SECT":" ","MAREA":" ","LANE":" ","ALLEY":" ","HOUSE_NO":"４２號","E_COORD97":168843.37,"N_COORD97":2544650.79,"ADDRESS":"公園南路４２號","OBJECTID":515428},"geometry":{"x":168843.37000000104,"y":2544650.7899999991}},{"attributes":{"ID":515456,"DIS_CODE":0,"TOWNNAME":"北區","LI":"興南里","LIN":"1鄰","STREET":"公園南路","SECT":" ","MAREA":" ","LANE":" ","ALLEY":" ","HOUSE_NO":"４６號","E_COORD97":168840.38,"N_COORD97":2544651.3199999998,"ADDRESS":"公園南路４６號","OBJECTID":515429},"geometry":{"x":168840.37999999989,"y":2544651.3200000003}},{"attributes":{"ID":515457,"DIS_CODE":0,"TOWNNAME":"北區","LI":"興南里","LIN":"1鄰","STREET":"公園南路","SECT":" ","MAREA":" ","LANE":" ","ALLEY":" ","HOUSE_NO":"５２之１號","E_COORD97":168836.70000000001,"N_COORD97":2544652.3700000001,"ADDRESS":"公園南路５２之１號","OBJECTID":515430},"geometry":{"x":168836.70000000112,"y":2544652.370000001}},{"attributes":{"ID":515458,"DIS_CODE":0,"TOWNNAME":"北區","LI":"興南里","LIN":"1鄰","STREET":"公園南路","SECT":" ","MAREA":" ","LANE":" ","ALLEY":" ","HOUSE_NO":"５２號","E_COORD97":168833.01000000001,"N_COORD97":2544653.0699999998,"ADDRESS":"公園南路５２號","OBJECTID":515431},"geometry":{"x":168833.00999999978,"y":2544653.0700000003}},{"attributes":{"ID":515459,"DIS_CODE":0,"TOWNNAME":"北區","LI":"興南里","LIN":"1鄰","STREET":"公園南路","SECT":" ","MAREA":" ","LANE":" ","ALLEY":" ","HOUSE_NO":"５６號","E_COORD97":168828.79000000001,"N_COORD97":2544654.1200000001,"ADDRESS":"公園南路５６號","OBJECTID":515432},"geometry":{"x":168828.79000000097,"y":2544654.120000001}},{"attributes":{"ID":515460,"DIS_CODE":0,"TOWNNAME":"北區","LI":"興南里","LIN":"1鄰","STREET":"公園南路","SECT":" ","MAREA":" ","LANE":" ","ALLEY":" ","HOUSE_NO":"５８號","E_COORD97":168826.09,"N_COORD97":2544654.4399999999,"ADDRESS":"公園南路５８號","OBJECTID":515433},"geometry":{"x":168826.08999999892,"y":2544654.4399999995}},{"attributes":{"ID":515461,"DIS_CODE":0,"TOWNNAME":"歸仁區","LI":"八甲里","LIN":"1鄰","STREET":"大德路","SECT":" ","MAREA":" ","LANE":" ","ALLEY":" ","HOUSE_NO":"６５２號","E_COORD97":176964.87,"N_COORD97":2541570.27,"ADDRESS":"大德路６５２號","OBJECTID":515434},"geometry":{"x":176964.87000000197,"y":2541570.2699999996}},{"attributes":{"ID":515462,"DIS_CODE":0,"TOWNNAME":"歸仁區","LI":"八甲里","LIN":"1鄰","STREET":"大德路","SECT":" ","MAREA":" ","LANE":" ","ALLEY":" ","HOUSE_NO":"３７０號","E_COORD97":177576.89999999999,"N_COORD97":2541533.4900000002,"ADDRESS":"大德路３７０號","OBJECTID":515435},"geometry":{"x":177576.90000000224,"y":2541533.4900000021}},{"attributes":{"ID":515463,"DIS_CODE":0,"TOWNNAME":"歸仁區","LI":"八甲里","LIN":"1鄰","STREET":"大德路","SECT":" ","MAREA":" ","LANE":" ","ALLEY":" ","HOUSE_NO":"１５０號","E_COORD97":177973.19,"N_COORD97":2541380.2400000002,"ADDRESS":"大德路１５０號","OBJECTID":515436},"geometry":{"x":177973.19000000041,"y":2541380.2400000002}},{"attributes":{"ID":515464,"DIS_CODE":0,"TOWNNAME":"歸仁區","LI":"武東里","LIN":"1鄰","STREET":"中正南路","SECT":"二段","MAREA":" ","LANE":" ","ALLEY":" ","HOUSE_NO":"２６９號","E_COORD97":175362.81,"N_COORD97":2535181.2799999998,"ADDRESS":"中正南路二段２６９號","OBJECTID":515437},"geometry":{"x":175362.81000000145,"y":2535181.2799999993}},{"attributes":{"ID":515465,"DIS_CODE":0,"TOWNNAME":"歸仁區","LI":"南保里","LIN":"1鄰","STREET":"大德路","SECT":" ","MAREA":" ","LANE":" ","ALLEY":" ","HOUSE_NO":"３１９號","E_COORD97":176964.67000000001,"N_COORD97":2541536.27,"ADDRESS":"大德路３１９號","OBJECTID":515438},"geometry":{"x":176964.67000000086,"y":2541536.2699999996}},{"attributes":{"ID":515466,"DIS_CODE":0,"TOWNNAME":"歸仁區","LI":"大廟里","LIN":"1鄰","STREET":"大廟二街","SECT":" ","MAREA":" ","LANE":" ","ALLEY":" ","HOUSE_NO":"４３號","E_COORD97":175986.37,"N_COORD97":2544025.25,"ADDRESS":"大廟二街４３號","OBJECTID":515439},"geometry":{"x":175986.37000000011,"y":2544025.25}},{"attributes":{"ID":515467,"DIS_CODE":0,"TOWNNAME":"歸仁區","LI":"八甲里","LIN":"1鄰","STREET":"中正北路","SECT":"一段","MAREA":" ","LANE":" ","ALLEY":" ","HOUSE_NO":"１９２號","E_COORD97":177812.63,"N_COORD97":2541585.4900000002,"ADDRESS":"中正北路一段１９２號","OBJECTID":515440},"geometry":{"x":177812.63000000082,"y":2541585.4900000002}},{"attributes":{"ID":515468,"DIS_CODE":0,"TOWNNAME":"歸仁區","LI":"大廟里","LIN":"1鄰","STREET":"大廟二街","SECT":" ","MAREA":" ","LANE":" ","ALLEY":" ","HOUSE_NO":"３５號","E_COORD97":176020.17000000001,"N_COORD97":2544030.25,"ADDRESS":"大廟二街３５號","OBJECTID":515441},"geometry":{"x":176020.17000000179,"y":2544030.2500000019}},{"attributes":{"ID":515469,"DIS_CODE":0,"TOWNNAME":"歸仁區","LI":"南保里","LIN":"1鄰","STREET":"大德路","SECT":" ","MAREA":" ","LANE":" ","ALLEY":" ","HOUSE_NO":"３２１號","E_COORD97":176961.57000000001,"N_COORD97":2541536.27,"ADDRESS":"大德路３２１號","OBJECTID":515442},"geometry":{"x":176961.5700000003,"y":2541536.2699999996}},{"attributes":{"ID":515470,"DIS_CODE":0,"TOWNNAME":"歸仁區","LI":"七甲里","LIN":"1鄰","STREET":"七甲五街","SECT":" ","MAREA":" ","LANE":" ","ALLEY":" ","HOUSE_NO":"１５號","E_COORD97":177465.59,"N_COORD97":2542582.6600000001,"ADDRESS":"七甲五街１５號","OBJECTID":515443},"geometry":{"x":177465.59000000078,"y":2542582.6600000039}},{"attributes":{"ID":515471,"DIS_CODE":0,"TOWNNAME":"歸仁區","LI":"大廟里","LIN":"1鄰","STREET":"大廟二街","SECT":" ","MAREA":" ","LANE":" ","ALLEY":" ","HOUSE_NO":"５１號","E_COORD97":175992.26999999999,"N_COORD97":2543981.2400000002,"ADDRESS":"大廟二街５１號","OBJECTID":515444},"geometry":{"x":175992.27000000048,"y":2543981.2400000002}},{"attributes":{"ID":515472,"DIS_CODE":0,"TOWNNAME":"歸仁區","LI":"六甲里","LIN":"1鄰","STREET":"中正南路","SECT":"一段","MAREA":" ","LANE":" ","ALLEY":" ","HOUSE_NO":"５０７號","E_COORD97":176868.14000000001,"N_COORD97":2540000.7799999998,"ADDRESS":"中正南路一段５０７號","OBJECTID":515445},"geometry":{"x":176868.1400000006,"y":2540000.7800000031}},{"attributes":{"ID":515473,"DIS_CODE":0,"TOWNNAME":"歸仁區","LI":"南興里","LIN":"1鄰","STREET":"文化街","SECT":"三段","MAREA":" ","LANE":" ","ALLEY":" ","HOUSE_NO":"２４０號","E_COORD97":176470.14000000001,"N_COORD97":2541184.3300000001,"ADDRESS":"文化街三段２４０號","OBJECTID":515446},"geometry":{"x":176470.13999999966,"y":2541184.3300000038}},{"attributes":{"ID":515474,"DIS_CODE":0,"TOWNNAME":"歸仁區","LI":"大廟里","LIN":"1鄰","STREET":"大廟二街","SECT":" ","MAREA":" ","LANE":" ","ALLEY":" ","HOUSE_NO":"２７號","E_COORD97":176007.97,"N_COORD97":2544041.25,"ADDRESS":"大廟二街２７號","OBJECTID":515447},"geometry":{"x":176007.97000000067,"y":2544041.25}},{"attributes":{"ID":515475,"DIS_CODE":0,"TOWNNAME":"歸仁區","LI":"八甲里","LIN":"1鄰","STREET":"中正北路","SECT":"一段","MAREA":" ","LANE":" ","ALLEY":" ","HOUSE_NO":"１８４號","E_COORD97":177809.53,"N_COORD97":2541569.4900000002,"ADDRESS":"中正北路一段１８４號","OBJECTID":515448},"geometry":{"x":177809.53000000026,"y":2541569.4900000002}},{"attributes":{"ID":515476,"DIS_CODE":0,"TOWNNAME":"歸仁區","LI":"七甲里","LIN":"1鄰","STREET":"七甲五街","SECT":" ","MAREA":" ","LANE":" ","ALLEY":" ","HOUSE_NO":"３８號","E_COORD97":177400.29000000001,"N_COORD97":2542649.6600000001,"ADDRESS":"七甲五街３８號","OBJECTID":515449},"geometry":{"x":177400.29000000004,"y":2542649.6600000001}},{"attributes":{"ID":515477,"DIS_CODE":0,"TOWNNAME":"歸仁區","LI":"八甲里","LIN":"1鄰","STREET":"中正北路","SECT":"一段","MAREA":" ","LANE":" ","ALLEY":" ","HOUSE_NO":"１７８號","E_COORD97":177806.32999999999,"N_COORD97":2541557.4900000002,"ADDRESS":"中正北路一段１７８號","OBJECTID":515450},"geometry":{"x":177806.33000000101,"y":2541557.4900000021}},{"attributes":{"ID":515478,"DIS_CODE":0,"TOWNNAME":"歸仁區","LI":"大廟里","LIN":"1鄰","STREET":"大廟二街","SECT":" ","MAREA":" ","LANE":" ","ALLEY":" ","HOUSE_NO":"２５號","E_COORD97":176003.87,"N_COORD97":2544041.25,"ADDRESS":"大廟二街２５號","OBJECTID":515451},"geometry":{"x":176003.87000000104,"y":2544041.25}},{"attributes":{"ID":515479,"DIS_CODE":0,"TOWNNAME":"歸仁區","LI":"南保里","LIN":"1鄰","STREET":"大德路","SECT":" ","MAREA":" ","LANE":" ","ALLEY":" ","HOUSE_NO":"３１５號","E_COORD97":176973.87,"N_COORD97":2541536.27,"ADDRESS":"大德路３１５號","OBJECTID":515452},"geometry":{"x":176973.87000000104,"y":2541536.2699999996}},{"attributes":{"ID":515480,"DIS_CODE":0,"TOWNNAME":"歸仁區","LI":"南興里","LIN":"1鄰","STREET":"文化街","SECT":"三段","MAREA":" ","LANE":" ","ALLEY":" ","HOUSE_NO":"２３０號","E_COORD97":176493.94,"N_COORD97":2541218.3300000001,"ADDRESS":"文化街三段２３０號","OBJECTID":515453},"geometry":{"x":176493.94000000134,"y":2541218.3300000038}},{"attributes":{"ID":515481,"DIS_CODE":0,"TOWNNAME":"歸仁區","LI":"南興里","LIN":"1鄰","STREET":"文化街","SECT":"三段","MAREA":" ","LANE":" ","ALLEY":" ","HOUSE_NO":"３２２號","E_COORD97":176303.14000000001,"N_COORD97":2541204.3300000001,"ADDRESS":"文化街三段３２２號","OBJECTID":515454},"geometry":{"x":176303.14000000153,"y":2541204.3300000001}},{"attributes":{"ID":515482,"DIS_CODE":0,"TOWNNAME":"歸仁區","LI":"七甲里","LIN":"1鄰","STREET":"七甲五街","SECT":" ","MAREA":" ","LANE":" ","ALLEY":" ","HOUSE_NO":"２３號","E_COORD97":177429.79000000001,"N_COORD97":2542585.6600000001,"ADDRESS":"七甲五街２３號","OBJECTID":515455},"geometry":{"x":177429.7900000019,"y":2542585.6599999983}},{"attributes":{"ID":515483,"DIS_CODE":0,"TOWNNAME":"歸仁區","LI":"八甲里","LIN":"1鄰","STREET":"中正北路","SECT":"一段","MAREA":" ","LANE":" ","ALLEY":" ","HOUSE_NO":"１７２號","E_COORD97":177805.32999999999,"N_COORD97":2541546.4900000002,"ADDRESS":"中正北路一段１７２號","OBJECTID":515456},"geometry":{"x":177805.33000000007,"y":2541546.4900000021}},{"attributes":{"ID":515484,"DIS_CODE":0,"TOWNNAME":"歸仁區","LI":"大廟里","LIN":"1鄰","STREET":"大廟二街","SECT":" ","MAREA":" ","LANE":" ","ALLEY":" ","HOUSE_NO":"３３號","E_COORD97":176020.26999999999,"N_COORD97":2544041.25,"ADDRESS":"大廟二街３３號","OBJECTID":515457},"geometry":{"x":176020.26999999955,"y":2544041.25}},{"attributes":{"ID":515485,"DIS_CODE":0,"TOWNNAME":"歸仁區","LI":"大廟里","LIN":"1鄰","STREET":"大廟二街","SECT":" ","MAREA":" ","LANE":" ","ALLEY":" ","HOUSE_NO":"５３號","E_COORD97":175992.26999999999,"N_COORD97":2543977.25,"ADDRESS":"大廟二街５３號","OBJECTID":515458},"geometry":{"x":175992.27000000048,"y":2543977.25}},{"attributes":{"ID":515486,"DIS_CODE":0,"TOWNNAME":"歸仁區","LI":"八甲里","LIN":"1鄰","STREET":"中正北路","SECT":"一段","MAREA":" ","LANE":" ","ALLEY":" ","HOUSE_NO":"１８６號","E_COORD97":177809.53,"N_COORD97":2541574.4900000002,"ADDRESS":"中正北路一段１８６號","OBJECTID":515459},"geometry":{"x":177809.53000000026,"y":2541574.4900000021}},{"attributes":{"ID":515487,"DIS_CODE":0,"TOWNNAME":"歸仁區","LI":"八甲里","LIN":"1鄰","STREET":"忠孝北路","SECT":" ","MAREA":" ","LANE":" ","ALLEY":" ","HOUSE_NO":"２８３號","E_COORD97":177861.26999999999,"N_COORD97":2541527.25,"ADDRESS":"忠孝北路２８３號","OBJECTID":515460},"geometry":{"x":177861.26999999955,"y":2541527.2500000037}},{"attributes":{"ID":515488,"DIS_CODE":0,"TOWNNAME":"歸仁區","LI":"南保里","LIN":"1鄰","STREET":"大德路","SECT":" ","MAREA":" ","LANE":" ","ALLEY":" ","HOUSE_NO":"３２７號","E_COORD97":176950.26999999999,"N_COORD97":2541526.27,"ADDRESS":"大德路３２７號","OBJECTID":515461},"geometry":{"x":176950.27000000048,"y":2541526.2699999996}},{"attributes":{"ID":515489,"DIS_CODE":0,"TOWNNAME":"北區","LI":"勝安里","LIN":"1鄰","STREET":"開元路","SECT":" ","MAREA":" ","LANE":" ","ALLEY":" ","HOUSE_NO":"３１號","E_COORD97":169555.76000000001,"N_COORD97":2545131.9300000002,"ADDRESS":"開元路３１號","OBJECTID":515462},"geometry":{"x":169555.76000000071,"y":2545131.9299999997}},{"attributes":{"ID":515490,"DIS_CODE":0,"TOWNNAME":"北區","LI":"勝安里","LIN":"1鄰","STREET":"開元路","SECT":" ","MAREA":" ","LANE":" ","ALLEY":" ","HOUSE_NO":"３３號","E_COORD97":169559.07000000001,"N_COORD97":2545133.2000000002,"ADDRESS":"開元路３３號","OBJECTID":515463},"geometry":{"x":169559.07000000216,"y":2545133.1999999993}},{"attributes":{"ID":515491,"DIS_CODE":0,"TOWNNAME":"北區","LI":"勝安里","LIN":"1鄰","STREET":"開元路","SECT":" ","MAREA":" ","LANE":" ","ALLEY":" ","HOUSE_NO":"３５號","E_COORD97":169562.54999999999,"N_COORD97":2545134.77,"ADDRESS":"開元路３５號","OBJECTID":515464},"geometry":{"x":169562.55000000075,"y":2545134.7700000014}},{"attributes":{"ID":515492,"DIS_CODE":0,"TOWNNAME":"北區","LI":"勝安里","LIN":"1鄰","STREET":"開元路","SECT":" ","MAREA":" ","LANE":" ","ALLEY":" ","HOUSE_NO":"３７號","E_COORD97":169566.64999999999,"N_COORD97":2545136.98,"ADDRESS":"開元路３７號","OBJECTID":515465},"geometry":{"x":169566.65000000037,"y":2545136.9800000042}},{"attributes":{"ID":515493,"DIS_CODE":0,"TOWNNAME":"北區","LI":"勝安里","LIN":"1鄰","STREET":"開元路","SECT":" ","MAREA":" ","LANE":" ","ALLEY":" ","HOUSE_NO":"３９號","E_COORD97":169571.38,"N_COORD97":2545138.2400000002,"ADDRESS":"開元路３９號","OBJECTID":515466},"geometry":{"x":169571.37999999989,"y":2545138.2400000039}},{"attributes":{"ID":515494,"DIS_CODE":0,"TOWNNAME":"北區","LI":"勝安里","LIN":"1鄰","STREET":"開元路","SECT":" ","MAREA":" ","LANE":" ","ALLEY":" ","HOUSE_NO":"４１之２號","E_COORD97":169582.26999999999,"N_COORD97":2545142.6499999999,"ADDRESS":"開元路４１之２號","OBJECTID":515467},"geometry":{"x":169582.26999999955,"y":2545142.6500000041}},{"attributes":{"ID":515495,"DIS_CODE":0,"TOWNNAME":"北區","LI":"勝安里","LIN":"1鄰","STREET":"開元路","SECT":" ","MAREA":" ","LANE":" ","ALLEY":" ","HOUSE_NO":"４１號","E_COORD97":169575.01000000001,"N_COORD97":2545139.9700000002,"ADDRESS":"開元路４１號","OBJECTID":515468},"geometry":{"x":169575.01000000071,"y":2545139.9700000007}},{"attributes":{"ID":515496,"DIS_CODE":0,"TOWNNAME":"北區","LI":"勝安里","LIN":"1鄰","STREET":"開元路","SECT":" ","MAREA":" ","LANE":" ","ALLEY":" ","HOUSE_NO":"４１號之１","E_COORD97":169578.48000000001,"N_COORD97":2545141.23,"ADDRESS":"開元路４１號之１","OBJECTID":515469},"geometry":{"x":169578.48000000231,"y":2545141.2300000004}},{"attributes":{"ID":515497,"DIS_CODE":0,"TOWNNAME":"北區","LI":"勝安里","LIN":"1鄰","STREET":"開元路","SECT":" ","MAREA":" ","LANE":" ","ALLEY":" ","HOUSE_NO":"４１號之３","E_COORD97":169586.20999999999,"N_COORD97":2545143.75,"ADDRESS":"開元路４１號之３","OBJECTID":515470},"geometry":{"x":169586.20999999996,"y":2545143.75}},{"attributes":{"ID":515498,"DIS_CODE":0,"TOWNNAME":"關廟區","LI":"五甲里","LIN":"1鄰","STREET":"旺萊路","SECT":" ","MAREA":" ","LANE":" ","ALLEY":" ","HOUSE_NO":"１３２號","E_COORD97":181711.94,"N_COORD97":2539256.25,"ADDRESS":"旺萊路１３２號","OBJECTID":515471},"geometry":{"x":181711.94000000134,"y":2539256.2500000019}},{"attributes":{"ID":515499,"DIS_CODE":0,"TOWNNAME":"北區","LI":"華興里","LIN":"1鄰","STREET":"林森路","SECT":"三段","MAREA":" ","LANE":" ","ALLEY":" ","HOUSE_NO":"２４５號之１","E_COORD97":170352.19,"N_COORD97":2545418.46,"ADDRESS":"林森路三段２４５號之１","OBJECTID":515472},"geometry":{"x":170352.19000000134,"y":2545418.4600000009}},{"attributes":{"ID":515500,"DIS_CODE":0,"TOWNNAME":"關廟區","LI":"香洋里","LIN":"1鄰","STREET":"南雄路","SECT":"二段","MAREA":" ","LANE":" ","ALLEY":" ","HOUSE_NO":"１３８號","E_COORD97":181168.59,"N_COORD97":2540336.2799999998,"ADDRESS":"南雄路二段１３８號","OBJECTID":515473},"geometry":{"x":181168.58999999985,"y":2540336.2800000031}},{"attributes":{"ID":515501,"DIS_CODE":0,"TOWNNAME":"關廟區","LI":"東勢里","LIN":"1鄰","STREET":"東興路","SECT":" ","MAREA":" ","LANE":" ","ALLEY":" ","HOUSE_NO":"９８號","E_COORD97":181440.92000000001,"N_COORD97":2539556.25,"ADDRESS":"東興路９８號","OBJECTID":515474},"geometry":{"x":181440.91999999993,"y":2539556.25}},{"attributes":{"ID":515502,"DIS_CODE":0,"TOWNNAME":"關廟區","LI":"關廟里","LIN":"1鄰","STREET":"文衡路","SECT":" ","MAREA":" ","LANE":" ","ALLEY":" ","HOUSE_NO":"３２號","E_COORD97":180903.09,"N_COORD97":2540135.3300000001,"ADDRESS":"文衡路３２號","OBJECTID":515475},"geometry":{"x":180903.09000000078,"y":2540135.3300000001}},{"attributes":{"ID":515503,"DIS_CODE":0,"TOWNNAME":"關廟區","LI":"田中里","LIN":"1鄰","STREET":"田大路","SECT":" ","MAREA":" ","LANE":" ","ALLEY":" ","HOUSE_NO":"４３號","E_COORD97":184174.79000000001,"N_COORD97":2533918.25,"ADDRESS":"田大路４３號","OBJECTID":515476},"geometry":{"x":184174.79000000004,"y":2533918.25}},{"attributes":{"ID":515504,"DIS_CODE":0,"TOWNNAME":"關廟區","LI":"下湖里","LIN":"1鄰","STREET":"保東一街","SECT":" ","MAREA":" ","LANE":" ","ALLEY":" ","HOUSE_NO":"６１０號","E_COORD97":177996.73999999999,"N_COORD97":2542496.2999999998,"ADDRESS":"保東一街６１０號","OBJECTID":515477},"geometry":{"x":177996.74000000115,"y":2542496.3000000007}},{"attributes":{"ID":515505,"DIS_CODE":0,"TOWNNAME":"關廟區","LI":"北花里","LIN":"1鄰","STREET":"北安一街","SECT":" ","MAREA":" ","LANE":" ","ALLEY":" ","HOUSE_NO":"９９號","E_COORD97":181827.19,"N_COORD97":2540509.3199999998,"ADDRESS":"北安一街９９號","OBJECTID":515478},"geometry":{"x":181827.19000000134,"y":2540509.3200000003}},{"attributes":{"ID":515506,"DIS_CODE":0,"TOWNNAME":"關廟區","LI":"五甲里","LIN":"1鄰","STREET":"旺萊路","SECT":" ","MAREA":" ","LANE":" ","ALLEY":" ","HOUSE_NO":"１２１號","E_COORD97":181705.04000000001,"N_COORD97":2539274.25,"ADDRESS":"旺萊路１２１號","OBJECTID":515479},"geometry":{"x":181705.0400000019,"y":2539274.2500000019}},{"attributes":{"ID":515507,"DIS_CODE":0,"TOWNNAME":"關廟區","LI":"埤頭里","LIN":"1鄰","STREET":"關新路","SECT":"一段","MAREA":" ","LANE":" ","ALLEY":" ","HOUSE_NO":"７０１號","E_COORD97":179109.62,"N_COORD97":2543584.25,"ADDRESS":"關新路一段７０１號","OBJECTID":515480},"geometry":{"x":179109.62000000104,"y":2543584.25}},{"attributes":{"ID":515508,"DIS_CODE":0,"TOWNNAME":"關廟區","LI":"下湖里","LIN":"1鄰","STREET":"保東一街","SECT":" ","MAREA":" ","LANE":" ","ALLEY":" ","HOUSE_NO":"６１８號","E_COORD97":177988.34,"N_COORD97":2542540.2999999998,"ADDRESS":"保東一街６１８號","OBJECTID":515481},"geometry":{"x":177988.33999999985,"y":2542540.3000000007}},{"attributes":{"ID":515509,"DIS_CODE":0,"TOWNNAME":"關廟區","LI":"田中里","LIN":"1鄰","STREET":"田大路","SECT":" ","MAREA":" ","LANE":" ","ALLEY":" ","HOUSE_NO":"２５號","E_COORD97":184123.09,"N_COORD97":2533903.2999999998,"ADDRESS":"田大路２５號","OBJECTID":515482},"geometry":{"x":184123.08999999985,"y":2533903.3000000026}},{"attributes":{"ID":515510,"DIS_CODE":0,"TOWNNAME":"關廟區","LI":"關廟里","LIN":"1鄰","STREET":"文衡路","SECT":" ","MAREA":" ","LANE":" ","ALLEY":" ","HOUSE_NO":"２０號","E_COORD97":180900.39000000001,"N_COORD97":2540100.3300000001,"ADDRESS":"文衡路２０號","OBJECTID":515483},"geometry":{"x":180900.38999999873,"y":2540100.3300000019}},{"attributes":{"ID":515511,"DIS_CODE":0,"TOWNNAME":"關廟區","LI":"香洋里","LIN":"1鄰","STREET":"中正路","SECT":" ","MAREA":" ","LANE":" ","ALLEY":" ","HOUSE_NO":"９４８號","E_COORD97":181163.76000000001,"N_COORD97":2540294.25,"ADDRESS":"中正路９４８號","OBJECTID":515484},"geometry":{"x":181163.75999999978,"y":2540294.2500000019}},{"attributes":{"ID":515512,"DIS_CODE":0,"TOWNNAME":"關廟區","LI":"山西里","LIN":"1鄰","STREET":"忠孝街","SECT":" ","MAREA":" ","LANE":" ","ALLEY":" ","HOUSE_NO":"９１號","E_COORD97":181006.39000000001,"N_COORD97":2540267.25,"ADDRESS":"忠孝街９１號","OBJECTID":515485},"geometry":{"x":181006.3900000006,"y":2540267.2500000019}},{"attributes":{"ID":515513,"DIS_CODE":0,"TOWNNAME":"關廟區","LI":"北勢里","LIN":"1鄰","STREET":"北新街","SECT":" ","MAREA":" ","LANE":" ","ALLEY":" ","HOUSE_NO":"７號","E_COORD97":181265.39000000001,"N_COORD97":2540306.25,"ADDRESS":"北新街７號","OBJECTID":515486},"geometry":{"x":181265.3900000006,"y":2540306.25}},{"attributes":{"ID":515514,"DIS_CODE":0,"TOWNNAME":"關廟區","LI":"新埔里","LIN":"1鄰","STREET":"新埔一街","SECT":" ","MAREA":" ","LANE":" ","ALLEY":" ","HOUSE_NO":"２３號","E_COORD97":181245.67000000001,"N_COORD97":2540828.25,"ADDRESS":"新埔一街２３號","OBJECTID":515487},"geometry":{"x":181245.66999999993,"y":2540828.25}},{"attributes":{"ID":515515,"DIS_CODE":0,"TOWNNAME":"關廟區","LI":"北花里","LIN":"1鄰","STREET":"中正路","SECT":" ","MAREA":" ","LANE":" ","ALLEY":" ","HOUSE_NO":"６４８號","E_COORD97":181827.45999999999,"N_COORD97":2540395.25,"ADDRESS":"中正路６４８號","OBJECTID":515488},"geometry":{"x":181827.45999999996,"y":2540395.2500000019}},{"attributes":{"ID":515516,"DIS_CODE":0,"TOWNNAME":"關廟區","LI":"北勢里","LIN":"1鄰","STREET":"北新街","SECT":" ","MAREA":" ","LANE":" ","ALLEY":" ","HOUSE_NO":"２５號","E_COORD97":181277.84,"N_COORD97":2540345.25,"ADDRESS":"北新街２５號","OBJECTID":515489},"geometry":{"x":181277.84000000078,"y":2540345.2500000019}},{"attributes":{"ID":515517,"DIS_CODE":0,"TOWNNAME":"關廟區","LI":"深坑里","LIN":"1鄰","STREET":"南雄路","SECT":"一段","MAREA":" ","LANE":"２６６巷","ALLEY":" ","HOUSE_NO":"６號","E_COORD97":181943.51999999999,"N_COORD97":2537404.2799999998,"ADDRESS":"南雄路一段２６６巷６號","OBJECTID":515490},"geometry":{"x":181943.51999999955,"y":2537404.2800000012}},{"attributes":{"ID":515518,"DIS_CODE":0,"TOWNNAME":"關廟區","LI":"新埔里","LIN":"1鄰","STREET":"新埔一街","SECT":" ","MAREA":" ","LANE":" ","ALLEY":" ","HOUSE_NO":"７３號","E_COORD97":181296.26999999999,"N_COORD97":2540897.25,"ADDRESS":"新埔一街７３號","OBJECTID":515491},"geometry":{"x":181296.27000000142,"y":2540897.2500000019}},{"attributes":{"ID":515519,"DIS_CODE":0,"TOWNNAME":"關廟區","LI":"香洋里","LIN":"1鄰","STREET":"中正路","SECT":" ","MAREA":" ","LANE":" ","ALLEY":" ","HOUSE_NO":"９３０號","E_COORD97":181189.06,"N_COORD97":2540286.25,"ADDRESS":"中正路９３０號","OBJECTID":515492},"geometry":{"x":181189.05999999866,"y":2540286.2500000037}},{"attributes":{"ID":515520,"DIS_CODE":0,"TOWNNAME":"關廟區","LI":"五甲里","LIN":"1鄰","STREET":"旺萊路","SECT":" ","MAREA":" ","LANE":" ","ALLEY":" ","HOUSE_NO":"１０９號","E_COORD97":181674.34,"N_COORD97":2539265.25,"ADDRESS":"旺萊路１０９號","OBJECTID":515493},"geometry":{"x":181674.34000000078,"y":2539265.25}},{"attributes":{"ID":515521,"DIS_CODE":0,"TOWNNAME":"關廟區","LI":"東勢里","LIN":"1鄰","STREET":"東安街","SECT":" ","MAREA":" ","LANE":" ","ALLEY":" ","HOUSE_NO":"１１５號","E_COORD97":181434.47,"N_COORD97":2539616.3199999998,"ADDRESS":"東安街１１５號","OBJECTID":515494},"geometry":{"x":181434.47000000067,"y":2539616.3200000022}},{"attributes":{"ID":515522,"DIS_CODE":0,"TOWNNAME":"關廟區","LI":"深坑里","LIN":"1鄰","STREET":"南雄路","SECT":"一段","MAREA":" ","LANE":" ","ALLEY":" ","HOUSE_NO":"１８６號","E_COORD97":182001.32000000001,"N_COORD97":2537226.2999999998,"ADDRESS":"南雄路一段１８６號","OBJECTID":515495},"geometry":{"x":182001.3200000003,"y":2537226.3000000026}},{"attributes":{"ID":515523,"DIS_CODE":0,"TOWNNAME":"關廟區","LI":"香洋里","LIN":"1鄰","STREET":"中正路","SECT":" ","MAREA":" ","LANE":" ","ALLEY":" ","HOUSE_NO":"９１６號","E_COORD97":181212.56,"N_COORD97":2540279.25,"ADDRESS":"中正路９１６號","OBJECTID":515496},"geometry":{"x":181212.55999999959,"y":2540279.25}},{"attributes":{"ID":515524,"DIS_CODE":0,"TOWNNAME":"關廟區","LI":"山西里","LIN":"1鄰","STREET":"忠孝街","SECT":" ","MAREA":" ","LANE":" ","ALLEY":" ","HOUSE_NO":"１１７號","E_COORD97":181038.34,"N_COORD97":2540378.25,"ADDRESS":"忠孝街１１７號","OBJECTID":515497},"geometry":{"x":181038.34000000171,"y":2540378.2500000019}},{"attributes":{"ID":515525,"DIS_CODE":0,"TOWNNAME":"關廟區","LI":"香洋里","LIN":"1鄰","STREET":"中正路","SECT":" ","MAREA":" ","LANE":" ","ALLEY":" ","HOUSE_NO":"９３６號","E_COORD97":181182.16,"N_COORD97":2540288.25,"ADDRESS":"中正路９３６號","OBJECTID":515498},"geometry":{"x":181182.15999999922,"y":2540288.25}},{"attributes":{"ID":515526,"DIS_CODE":0,"TOWNNAME":"關廟區","LI":"山西里","LIN":"1鄰","STREET":"忠孝街","SECT":" ","MAREA":" ","LANE":" ","ALLEY":" ","HOUSE_NO":"９９號","E_COORD97":181010.59,"N_COORD97":2540283.25,"ADDRESS":"忠孝街９９號","OBJECTID":515499},"geometry":{"x":181010.58999999985,"y":2540283.2500000019}},{"attributes":{"ID":515527,"DIS_CODE":0,"TOWNNAME":"關廟區","LI":"山西里","LIN":"1鄰","STREET":"忠孝街","SECT":" ","MAREA":" ","LANE":" ","ALLEY":" ","HOUSE_NO":"１０９號","E_COORD97":181021.84,"N_COORD97":2540308.25,"ADDRESS":"忠孝街１０９號","OBJECTID":515500},"geometry":{"x":181021.84000000078,"y":2540308.2500000019}},{"attributes":{"ID":515528,"DIS_CODE":0,"TOWNNAME":"北區","LI":"安民里","LIN":" ","STREET":"西門路","SECT":"三段","MAREA":" ","LANE":" ","ALLEY":" ","HOUSE_NO":"３３號","E_COORD97":168131.97,"N_COORD97":2544533.5600000001,"ADDRESS":"西門路三段３３號","OBJECTID":515501},"geometry":{"x":168131.9700000016,"y":2544533.5600000024}},{"attributes":{"ID":515529,"DIS_CODE":0,"TOWNNAME":"北區","LI":"安民里","LIN":" ","STREET":"西門路","SECT":"三段","MAREA":" ","LANE":" ","ALLEY":" ","HOUSE_NO":"５號","E_COORD97":168117.75,"N_COORD97":2544493.2599999998,"ADDRESS":"西門路三段５號","OBJECTID":515502},"geometry":{"x":168117.75,"y":2544493.2599999979}},{"attributes":{"ID":515530,"DIS_CODE":0,"TOWNNAME":"關廟區","LI":"新埔里","LIN":"1鄰","STREET":"新埔一街","SECT":" ","MAREA":" ","LANE":" ","ALLEY":" ","HOUSE_NO":"３７號","E_COORD97":181276.37,"N_COORD97":2540828.25,"ADDRESS":"新埔一街３７號","OBJECTID":515503},"geometry":{"x":181276.37000000104,"y":2540828.25}},{"attributes":{"ID":515531,"DIS_CODE":0,"TOWNNAME":"關廟區","LI":"新埔里","LIN":"1鄰","STREET":"新埔一街","SECT":" ","MAREA":" ","LANE":" ","ALLEY":" ","HOUSE_NO":"２９號","E_COORD97":181259.47,"N_COORD97":2540828.25,"ADDRESS":"新埔一街２９號","OBJECTID":515504},"geometry":{"x":181259.4700000016,"y":2540828.25}},{"attributes":{"ID":515532,"DIS_CODE":0,"TOWNNAME":"關廟區","LI":"新埔里","LIN":"1鄰","STREET":"新埔一街","SECT":" ","MAREA":" ","LANE":" ","ALLEY":" ","HOUSE_NO":"６９號","E_COORD97":181296.67000000001,"N_COORD97":2540889.25,"ADDRESS":"新埔一街６９號","OBJECTID":515505},"geometry":{"x":181296.66999999993,"y":2540889.25}},{"attributes":{"ID":515533,"DIS_CODE":0,"TOWNNAME":"關廟區","LI":"新埔里","LIN":"1鄰","STREET":"新埔一街","SECT":" ","MAREA":" ","LANE":" ","ALLEY":" ","HOUSE_NO":"４３號","E_COORD97":181290.17000000001,"N_COORD97":2540827.25,"ADDRESS":"新埔一街４３號","OBJECTID":515506},"geometry":{"x":181290.16999999993,"y":2540827.25}},{"attributes":{"ID":515534,"DIS_CODE":0,"TOWNNAME":"關廟區","LI":"山西里","LIN":"1鄰","STREET":"中正路","SECT":" ","MAREA":" ","LANE":" ","ALLEY":" ","HOUSE_NO":"１００１號","E_COORD97":181021.81,"N_COORD97":2540315.25,"ADDRESS":"中正路１００１號","OBJECTID":515507},"geometry":{"x":181021.81000000052,"y":2540315.25}},{"attributes":{"ID":515535,"DIS_CODE":0,"TOWNNAME":"關廟區","LI":"新埔里","LIN":"1鄰","STREET":"新埔一街","SECT":" ","MAREA":" ","LANE":" ","ALLEY":" ","HOUSE_NO":"６１號","E_COORD97":181297.47,"N_COORD97":2540872.25,"ADDRESS":"新埔一街６１號","OBJECTID":515508},"geometry":{"x":181297.47000000067,"y":2540872.25}},{"attributes":{"ID":515536,"DIS_CODE":0,"TOWNNAME":"關廟區","LI":"新埔里","LIN":"1鄰","STREET":"新埔一街","SECT":" ","MAREA":" ","LANE":" ","ALLEY":" ","HOUSE_NO":"１８號","E_COORD97":181232.17000000001,"N_COORD97":2540800.25,"ADDRESS":"新埔一街１８號","OBJECTID":515509},"geometry":{"x":181232.16999999993,"y":2540800.25}},{"attributes":{"ID":515537,"DIS_CODE":0,"TOWNNAME":"關廟區","LI":"下湖里","LIN":"1鄰","STREET":"下湖一街","SECT":" ","MAREA":" ","LANE":" ","ALLEY":" ","HOUSE_NO":"１０號","E_COORD97":179247.64000000001,"N_COORD97":2542777.2999999998,"ADDRESS":"下湖一街１０號","OBJECTID":515510},"geometry":{"x":179247.64000000153,"y":2542777.3000000007}},{"attributes":{"ID":515538,"DIS_CODE":0,"TOWNNAME":"關廟區","LI":"新埔里","LIN":"1鄰","STREET":"新埔一街","SECT":" ","MAREA":" ","LANE":" ","ALLEY":" ","HOUSE_NO":"４５號","E_COORD97":181295.17000000001,"N_COORD97":2540827.25,"ADDRESS":"新埔一街４５號","OBJECTID":515511},"geometry":{"x":181295.16999999993,"y":2540827.25}},{"attributes":{"ID":515539,"DIS_CODE":0,"TOWNNAME":"關廟區","LI":"南花里","LIN":"1鄰","STREET":"四維街","SECT":" ","MAREA":" ","LANE":" ","ALLEY":" ","HOUSE_NO":"２６８號","E_COORD97":181863.56,"N_COORD97":2540050.25,"ADDRESS":"四維街２６８號","OBJECTID":515512},"geometry":{"x":181863.55999999959,"y":2540050.2500000019}},{"attributes":{"ID":515540,"DIS_CODE":0,"TOWNNAME":"關廟區","LI":"關廟里","LIN":"1鄰","STREET":"中山路","SECT":"二段","MAREA":" ","LANE":" ","ALLEY":" ","HOUSE_NO":"１３８號","E_COORD97":180907.56,"N_COORD97":2540045.2799999998,"ADDRESS":"中山路二段１３８號","OBJECTID":515513},"geometry":{"x":180907.55999999959,"y":2540045.2800000012}},{"attributes":{"ID":515541,"DIS_CODE":0,"TOWNNAME":"關廟區","LI":"新埔里","LIN":"1鄰","STREET":"新埔一街","SECT":" ","MAREA":" ","LANE":" ","ALLEY":" ","HOUSE_NO":"１２號","E_COORD97":181217.26999999999,"N_COORD97":2540812.25,"ADDRESS":"新埔一街１２號","OBJECTID":515514},"geometry":{"x":181217.27000000048,"y":2540812.2500000019}},{"attributes":{"ID":515542,"DIS_CODE":0,"TOWNNAME":"關廟區","LI":"山西里","LIN":"1鄰","STREET":"忠孝街","SECT":" ","MAREA":" ","LANE":" ","ALLEY":" ","HOUSE_NO":"９７號","E_COORD97":180977.98999999999,"N_COORD97":2540284.2400000002,"ADDRESS":"忠孝街９７號","OBJECTID":515515},"geometry":{"x":180977.99000000022,"y":2540284.2400000021}},{"attributes":{"ID":515543,"DIS_CODE":0,"TOWNNAME":"關廟區","LI":"田中里","LIN":"1鄰","STREET":"田大路","SECT":" ","MAREA":" ","LANE":" ","ALLEY":" ","HOUSE_NO":"１７號","E_COORD97":184101.59,"N_COORD97":2533919.2999999998,"ADDRESS":"田大路１７號","OBJECTID":515516},"geometry":{"x":184101.59000000171,"y":2533919.3000000007}},{"attributes":{"ID":515544,"DIS_CODE":0,"TOWNNAME":"關廟區","LI":"北勢里","LIN":"1鄰","STREET":"中正路","SECT":" ","MAREA":" ","LANE":" ","ALLEY":" ","HOUSE_NO":"８９８號","E_COORD97":181243.26000000001,"N_COORD97":2540269.25,"ADDRESS":"中正路８９８號","OBJECTID":515517},"geometry":{"x":181243.25999999978,"y":2540269.2499999981}},{"attributes":{"ID":515545,"DIS_CODE":0,"TOWNNAME":"關廟區","LI":"松腳里","LIN":"1鄰","STREET":"四維街","SECT":" ","MAREA":" ","LANE":" ","ALLEY":" ","HOUSE_NO":"１２６號","E_COORD97":181887.76000000001,"N_COORD97":2539687.25,"ADDRESS":"四維街１２６號","OBJECTID":515518},"geometry":{"x":181887.75999999978,"y":2539687.2500000019}},{"attributes":{"ID":515546,"DIS_CODE":0,"TOWNNAME":"關廟區","LI":"五甲里","LIN":"1鄰","STREET":"旺萊路","SECT":" ","MAREA":" ","LANE":" ","ALLEY":" ","HOUSE_NO":"１３０號","E_COORD97":181705.84,"N_COORD97":2539254.25,"ADDRESS":"旺萊路１３０號","OBJECTID":515519},"geometry":{"x":181705.83999999985,"y":2539254.25}},{"attributes":{"ID":515547,"DIS_CODE":0,"TOWNNAME":"關廟區","LI":"松腳里","LIN":"1鄰","STREET":"松柏街","SECT":" ","MAREA":" ","LANE":" ","ALLEY":" ","HOUSE_NO":"２９號","E_COORD97":181905.72,"N_COORD97":2539686.25,"ADDRESS":"松柏街２９號","OBJECTID":515520},"geometry":{"x":181905.72000000067,"y":2539686.2500000037}},{"attributes":{"ID":515548,"DIS_CODE":0,"TOWNNAME":"關廟區","LI":"埤頭里","LIN":"1鄰","STREET":"關新路","SECT":"一段","MAREA":" ","LANE":" ","ALLEY":" ","HOUSE_NO":"７２５號","E_COORD97":179127.82000000001,"N_COORD97":2543655.2999999998,"ADDRESS":"關新路一段７２５號","OBJECTID":515521},"geometry":{"x":179127.8200000003,"y":2543655.3000000007}},{"attributes":{"ID":515549,"DIS_CODE":0,"TOWNNAME":"關廟區","LI":"龜洞里","LIN":"1鄰","STREET":"南雄南路","SECT":" ","MAREA":" ","LANE":" ","ALLEY":" ","HOUSE_NO":"６５２號","E_COORD97":183403.09,"N_COORD97":2533648.2999999998,"ADDRESS":"南雄南路６５２號","OBJECTID":515522},"geometry":{"x":183403.09000000171,"y":2533648.2999999989}},{"attributes":{"ID":515550,"DIS_CODE":0,"TOWNNAME":"關廟區","LI":"埤頭里","LIN":"1鄰","STREET":"關新路","SECT":"一段","MAREA":" ","LANE":" ","ALLEY":" ","HOUSE_NO":"６０１號","E_COORD97":179158.92000000001,"N_COORD97":2543390.2999999998,"ADDRESS":"關新路一段６０１號","OBJECTID":515523},"geometry":{"x":179158.91999999993,"y":2543390.3000000026}},{"attributes":{"ID":515551,"DIS_CODE":0,"TOWNNAME":"關廟區","LI":"山西里","LIN":"1鄰","STREET":"中正路","SECT":" ","MAREA":" ","LANE":" ","ALLEY":" ","HOUSE_NO":"１００６號","E_COORD97":180999.60999999999,"N_COORD97":2540346.25,"ADDRESS":"中正路１００６號","OBJECTID":515524},"geometry":{"x":180999.6099999994,"y":2540346.25}},{"attributes":{"ID":515552,"DIS_CODE":0,"TOWNNAME":"關廟區","LI":"埤頭里","LIN":"1鄰","STREET":"關新路","SECT":"一段","MAREA":" ","LANE":" ","ALLEY":" ","HOUSE_NO":"７４３號","E_COORD97":179123.76999999999,"N_COORD97":2543689.2999999998,"ADDRESS":"關新路一段７４３號","OBJECTID":515525},"geometry":{"x":179123.77000000048,"y":2543689.3000000007}},{"attributes":{"ID":515553,"DIS_CODE":0,"TOWNNAME":"關廟區","LI":"山西里","LIN":"1鄰","STREET":"中正路","SECT":" ","MAREA":" ","LANE":" ","ALLEY":" ","HOUSE_NO":"１０１１號","E_COORD97":180990.01000000001,"N_COORD97":2540324.25,"ADDRESS":"中正路１０１１號","OBJECTID":515526},"geometry":{"x":180990.01000000071,"y":2540324.2500000019}},{"attributes":{"ID":515554,"DIS_CODE":0,"TOWNNAME":"關廟區","LI":"山西里","LIN":"1鄰","STREET":"慶中街","SECT":" ","MAREA":" ","LANE":" ","ALLEY":" ","HOUSE_NO":"２８號","E_COORD97":180983.42000000001,"N_COORD97":2540313.2999999998,"ADDRESS":"慶中街２８號","OBJECTID":515527},"geometry":{"x":180983.41999999993,"y":2540313.3000000007}},{"attributes":{"ID":515555,"DIS_CODE":0,"TOWNNAME":"關廟區","LI":"山西里","LIN":"1鄰","STREET":"忠孝街","SECT":" ","MAREA":" ","LANE":" ","ALLEY":" ","HOUSE_NO":"８１號","E_COORD97":180996.79000000001,"N_COORD97":2540228.25,"ADDRESS":"忠孝街８１號","OBJECTID":515528},"geometry":{"x":180996.79000000097,"y":2540228.25}},{"attributes":{"ID":515556,"DIS_CODE":0,"TOWNNAME":"關廟區","LI":"山西里","LIN":"1鄰","STREET":"忠孝街","SECT":" ","MAREA":" ","LANE":" ","ALLEY":" ","HOUSE_NO":"１０１號","E_COORD97":181014.94,"N_COORD97":2540290.25,"ADDRESS":"忠孝街１０１號","OBJECTID":515529},"geometry":{"x":181014.94000000134,"y":2540290.2500000019}},{"attributes":{"ID":515557,"DIS_CODE":0,"TOWNNAME":"關廟區","LI":"山西里","LIN":"1鄰","STREET":"忠孝街","SECT":" ","MAREA":" ","LANE":" ","ALLEY":" ","HOUSE_NO":"７９號","E_COORD97":180995.98999999999,"N_COORD97":2540225.25,"ADDRESS":"忠孝街７９號","OBJECTID":515530},"geometry":{"x":180995.99000000115,"y":2540225.2500000037}},{"attributes":{"ID":515558,"DIS_CODE":0,"TOWNNAME":"關廟區","LI":"山西里","LIN":"1鄰","STREET":"忠孝街","SECT":" ","MAREA":" ","LANE":" ","ALLEY":" ","HOUSE_NO":"９５號","E_COORD97":181009.09,"N_COORD97":2540276.25,"ADDRESS":"忠孝街９５號","OBJECTID":515531},"geometry":{"x":181009.08999999985,"y":2540276.2500000037}},{"attributes":{"ID":515559,"DIS_CODE":0,"TOWNNAME":"關廟區","LI":"山西里","LIN":"1鄰","STREET":"忠孝街","SECT":" ","MAREA":" ","LANE":" ","ALLEY":" ","HOUSE_NO":"１０３號","E_COORD97":181015.64000000001,"N_COORD97":2540295.25,"ADDRESS":"忠孝街１０３號","OBJECTID":515532},"geometry":{"x":181015.63999999873,"y":2540295.25}},{"attributes":{"ID":515560,"DIS_CODE":0,"TOWNNAME":"關廟區","LI":"山西里","LIN":"1鄰","STREET":"忠孝街","SECT":" ","MAREA":" ","LANE":" ","ALLEY":" ","HOUSE_NO":"１１３號","E_COORD97":181032.54000000001,"N_COORD97":2540361.25,"ADDRESS":"忠孝街１１３號","OBJECTID":515533},"geometry":{"x":181032.54000000097,"y":2540361.2500000019}},{"attributes":{"ID":515561,"DIS_CODE":0,"TOWNNAME":"關廟區","LI":"山西里","LIN":"1鄰","STREET":"忠孝街","SECT":" ","MAREA":" ","LANE":" ","ALLEY":" ","HOUSE_NO":"６７號","E_COORD97":180990.29000000001,"N_COORD97":2540203.25,"ADDRESS":"忠孝街６７號","OBJECTID":515534},"geometry":{"x":180990.29000000097,"y":2540203.2500000019}},{"attributes":{"ID":515562,"DIS_CODE":0,"TOWNNAME":"關廟區","LI":"山西里","LIN":"1鄰","STREET":"中正路","SECT":" ","MAREA":" ","LANE":" ","ALLEY":" ","HOUSE_NO":"１００７號","E_COORD97":181001.91,"N_COORD97":2540320.25,"ADDRESS":"中正路１００７號","OBJECTID":515535},"geometry":{"x":181001.91000000015,"y":2540320.2500000037}},{"attributes":{"ID":515563,"DIS_CODE":0,"TOWNNAME":"關廟區","LI":"山西里","LIN":"1鄰","STREET":"忠孝街","SECT":" ","MAREA":" ","LANE":" ","ALLEY":" ","HOUSE_NO":"６９號","E_COORD97":180981.39000000001,"N_COORD97":2540217.25,"ADDRESS":"忠孝街６９號","OBJECTID":515536},"geometry":{"x":180981.38999999966,"y":2540217.25}},{"attributes":{"ID":515564,"DIS_CODE":0,"TOWNNAME":"關廟區","LI":"山西里","LIN":"1鄰","STREET":"忠孝街","SECT":" ","MAREA":" ","LANE":" ","ALLEY":" ","HOUSE_NO":"６５號","E_COORD97":180989.09,"N_COORD97":2540200.25,"ADDRESS":"忠孝街６５號","OBJECTID":515537},"geometry":{"x":180989.08999999892,"y":2540200.25}},{"attributes":{"ID":515565,"DIS_CODE":0,"TOWNNAME":"北區","LI":"華興里","LIN":"1鄰","STREET":"開南街","SECT":" ","MAREA":" ","LANE":" ","ALLEY":" ","HOUSE_NO":"１９號","E_COORD97":170301.57000000001,"N_COORD97":2545386.0899999999,"ADDRESS":"開南街１９號","OBJECTID":515538},"geometry":{"x":170301.57000000216,"y":2545386.0899999999}},{"attributes":{"ID":515566,"DIS_CODE":0,"TOWNNAME":"關廟區","LI":"山西里","LIN":"1鄰","STREET":"中正路","SECT":" ","MAREA":" ","LANE":" ","ALLEY":" ","HOUSE_NO":"１００２號","E_COORD97":181004.20999999999,"N_COORD97":2540345.25,"ADDRESS":"中正路１００２號","OBJECTID":515539},"geometry":{"x":181004.21000000089,"y":2540345.2500000019}},{"attributes":{"ID":515567,"DIS_CODE":0,"TOWNNAME":"北區","LI":"開元里","LIN":"1鄰","STREET":"北園街","SECT":" ","MAREA":" ","LANE":" ","ALLEY":" ","HOUSE_NO":"９５號","E_COORD97":170337.34,"N_COORD97":2545831.6800000002,"ADDRESS":"北園街９５號","OBJECTID":515540},"geometry":{"x":170337.34000000078,"y":2545831.6799999997}},{"attributes":{"ID":515568,"DIS_CODE":0,"TOWNNAME":"關廟區","LI":"山西里","LIN":"1鄰","STREET":"忠孝街","SECT":" ","MAREA":" ","LANE":" ","ALLEY":" ","HOUSE_NO":"８９號","E_COORD97":181001.39000000001,"N_COORD97":2540245.25,"ADDRESS":"忠孝街８９號","OBJECTID":515541},"geometry":{"x":181001.38999999966,"y":2540245.25}},{"attributes":{"ID":515569,"DIS_CODE":0,"TOWNNAME":"關廟區","LI":"山西里","LIN":"1鄰","STREET":"忠孝街","SECT":" ","MAREA":" ","LANE":" ","ALLEY":" ","HOUSE_NO":"９３號","E_COORD97":181007.19,"N_COORD97":2540271.25,"ADDRESS":"忠孝街９３號","OBJECTID":515542},"geometry":{"x":181007.19000000041,"y":2540271.25}},{"attributes":{"ID":515570,"DIS_CODE":0,"TOWNNAME":"關廟區","LI":"山西里","LIN":"1鄰","STREET":"忠孝街","SECT":" ","MAREA":" ","LANE":" ","ALLEY":" ","HOUSE_NO":"１０５號","E_COORD97":181016.44,"N_COORD97":2540299.25,"ADDRESS":"忠孝街１０５號","OBJECTID":515543},"geometry":{"x":181016.44000000134,"y":2540299.25}},{"attributes":{"ID":515571,"DIS_CODE":0,"TOWNNAME":"關廟區","LI":"山西里","LIN":"1鄰","STREET":"崇仁街","SECT":" ","MAREA":" ","LANE":" ","ALLEY":" ","HOUSE_NO":"３號","E_COORD97":181023.97,"N_COORD97":2540395.25,"ADDRESS":"崇仁街３號","OBJECTID":515544},"geometry":{"x":181023.97000000067,"y":2540395.2500000019}},{"attributes":{"ID":515572,"DIS_CODE":0,"TOWNNAME":"關廟區","LI":"東勢里","LIN":"1鄰","STREET":"東興路","SECT":" ","MAREA":" ","LANE":" ","ALLEY":" ","HOUSE_NO":"１１７號","E_COORD97":181477.47,"N_COORD97":2539573.25,"ADDRESS":"東興路１１７號","OBJECTID":515545},"geometry":{"x":181477.46999999974,"y":2539573.25}},{"attributes":{"ID":515573,"DIS_CODE":0,"TOWNNAME":"關廟區","LI":"下湖里","LIN":"1鄰","STREET":"下湖一街","SECT":" ","MAREA":" ","LANE":" ","ALLEY":" ","HOUSE_NO":"８０號","E_COORD97":178902.64000000001,"N_COORD97":2542791.2999999998,"ADDRESS":"下湖一街８０號","OBJECTID":515546},"geometry":{"x":178902.6400000006,"y":2542791.3000000007}},{"attributes":{"ID":515574,"DIS_CODE":0,"TOWNNAME":"關廟區","LI":"下湖里","LIN":"1鄰","STREET":"保東一街","SECT":" ","MAREA":" ","LANE":" ","ALLEY":" ","HOUSE_NO":"６２０號","E_COORD97":177944.54000000001,"N_COORD97":2542552.2999999998,"ADDRESS":"保東一街６２０號","OBJECTID":515547},"geometry":{"x":177944.54000000004,"y":2542552.3000000026}},{"attributes":{"ID":515575,"DIS_CODE":0,"TOWNNAME":"關廟區","LI":"山西里","LIN":"1鄰","STREET":"崇仁街","SECT":" ","MAREA":" ","LANE":" ","ALLEY":" ","HOUSE_NO":"５號","E_COORD97":181019.37,"N_COORD97":2540396.25,"ADDRESS":"崇仁街５號","OBJECTID":515548},"geometry":{"x":181019.37000000011,"y":2540396.2500000019}},{"attributes":{"ID":515576,"DIS_CODE":0,"TOWNNAME":"關廟區","LI":"山西里","LIN":"1鄰","STREET":"崇仁街","SECT":" ","MAREA":" ","LANE":" ","ALLEY":" ","HOUSE_NO":"１１號","E_COORD97":181009.51999999999,"N_COORD97":2540400.25,"ADDRESS":"崇仁街１１號","OBJECTID":515549},"geometry":{"x":181009.51999999955,"y":2540400.25}},{"attributes":{"ID":515577,"DIS_CODE":0,"TOWNNAME":"北區","LI":"元寶里","LIN":"1鄰","STREET":"北園街","SECT":" ","MAREA":" ","LANE":" ","ALLEY":" ","HOUSE_NO":"１１６號","E_COORD97":170351.85999999999,"N_COORD97":2545954.6099999999,"ADDRESS":"北園街１１６號","OBJECTID":515550},"geometry":{"x":170351.86000000034,"y":2545954.6099999994}},{"attributes":{"ID":515578,"DIS_CODE":0,"TOWNNAME":"北區","LI":"元寶里","LIN":"1鄰","STREET":"北園街","SECT":" ","MAREA":" ","LANE":" ","ALLEY":" ","HOUSE_NO":"１１８號","E_COORD97":170352.17000000001,"N_COORD97":2545958.9399999999,"ADDRESS":"北園街１１８號","OBJECTID":515551},"geometry":{"x":170352.17000000086,"y":2545958.9399999995}},{"attributes":{"ID":515579,"DIS_CODE":0,"TOWNNAME":"北區","LI":"元寶里","LIN":"1鄰","STREET":"北園街","SECT":" ","MAREA":" ","LANE":" ","ALLEY":" ","HOUSE_NO":"１２０號","E_COORD97":170352.17000000001,"N_COORD97":2545964.1899999999,"ADDRESS":"北園街１２０號","OBJECTID":515552},"geometry":{"x":170352.17000000086,"y":2545964.1899999995}},{"attributes":{"ID":515580,"DIS_CODE":0,"TOWNNAME":"北區","LI":"成德里","LIN":"20鄰","STREET":"文成二路","SECT":" ","MAREA":" ","LANE":" ","ALLEY":" ","HOUSE_NO":"２５６號","E_COORD97":168370.91,"N_COORD97":2546188.4900000002,"ADDRESS":"文成二路２５６號","OBJECTID":515553},"geometry":{"x":168370.91000000015,"y":2546188.4900000021}},{"attributes":{"ID":515581,"DIS_CODE":0,"TOWNNAME":"北區","LI":"開元里","LIN":"1鄰","STREET":"北園街","SECT":" ","MAREA":" ","LANE":" ","ALLEY":" ","HOUSE_NO":"８９號","E_COORD97":170334.17000000001,"N_COORD97":2545808.96,"ADDRESS":"北園街８９號","OBJECTID":515554},"geometry":{"x":170334.16999999993,"y":2545808.9600000046}},{"attributes":{"ID":515582,"DIS_CODE":0,"TOWNNAME":"北區","LI":"開元里","LIN":"1鄰","STREET":"北園街","SECT":" ","MAREA":" ","LANE":" ","ALLEY":" ","HOUSE_NO":"８９號之１","E_COORD97":170343.13,"N_COORD97":2545682.1099999999,"ADDRESS":"北園街８９號之１","OBJECTID":515555},"geometry":{"x":170343.13000000175,"y":2545682.1100000013}},{"attributes":{"ID":515583,"DIS_CODE":0,"TOWNNAME":"北區","LI":"開元里","LIN":"1鄰","STREET":"北園街","SECT":" ","MAREA":" ","LANE":" ","ALLEY":" ","HOUSE_NO":"９１號","E_COORD97":170336.89999999999,"N_COORD97":2545820.79,"ADDRESS":"北園街９１號","OBJECTID":515556},"geometry":{"x":170336.9000000013,"y":2545820.7899999991}},{"attributes":{"ID":515584,"DIS_CODE":0,"TOWNNAME":"北區","LI":"開元里","LIN":"1鄰","STREET":"北園街","SECT":" ","MAREA":" ","LANE":" ","ALLEY":" ","HOUSE_NO":"９３號","E_COORD97":170337.01000000001,"N_COORD97":2545825.04,"ADDRESS":"北園街９３號","OBJECTID":515557},"geometry":{"x":170337.01000000164,"y":2545825.0399999991}},{"attributes":{"ID":515585,"DIS_CODE":0,"TOWNNAME":"北區","LI":"開元里","LIN":"1鄰","STREET":"北園街","SECT":" ","MAREA":" ","LANE":" ","ALLEY":" ","HOUSE_NO":"９５號之１","E_COORD97":170337.01000000001,"N_COORD97":2545835.27,"ADDRESS":"北園街９５號之１","OBJECTID":515558},"geometry":{"x":170337.01000000164,"y":2545835.2699999996}},{"attributes":{"ID":515586,"DIS_CODE":0,"TOWNNAME":"北區","LI":"開元里","LIN":"1鄰","STREET":"北園街","SECT":" ","MAREA":" ","LANE":" ","ALLEY":" ","HOUSE_NO":"９５號之２","E_COORD97":170337.45000000001,"N_COORD97":2545839.4100000001,"ADDRESS":"北園街９５號之２","OBJECTID":515559},"geometry":{"x":170337.45000000019,"y":2545839.410000002}},{"attributes":{"ID":515587,"DIS_CODE":0,"TOWNNAME":"北區","LI":"開元里","LIN":"1鄰","STREET":"北園街","SECT":" ","MAREA":" ","LANE":" ","ALLEY":" ","HOUSE_NO":"９５號之３","E_COORD97":170336.89999999999,"N_COORD97":2545843.3300000001,"ADDRESS":"北園街９５號之３","OBJECTID":515560},"geometry":{"x":170336.9000000013,"y":2545843.3300000019}},{"attributes":{"ID":515588,"DIS_CODE":0,"TOWNNAME":"北區","LI":"開元里","LIN":"1鄰","STREET":"北園街","SECT":" ","MAREA":" ","LANE":" ","ALLEY":" ","HOUSE_NO":"９５號之４","E_COORD97":170337.12,"N_COORD97":2545848.2200000002,"ADDRESS":"北園街９５號之４","OBJECTID":515561},"geometry":{"x":170337.12000000104,"y":2545848.2200000025}},{"attributes":{"ID":515589,"DIS_CODE":0,"TOWNNAME":"北區","LI":"開元里","LIN":"1鄰","STREET":"北園街","SECT":" ","MAREA":" ","LANE":" ","ALLEY":" ","HOUSE_NO":"９５號之５","E_COORD97":170336.89999999999,"N_COORD97":2545851.29,"ADDRESS":"北園街９５號之５","OBJECTID":515562},"geometry":{"x":170336.9000000013,"y":2545851.2899999991}},{"attributes":{"ID":515590,"DIS_CODE":0,"TOWNNAME":"北區","LI":"開元里","LIN":"1鄰","STREET":"北園街","SECT":" ","MAREA":" ","LANE":" ","ALLEY":" ","HOUSE_NO":"９５號之６","E_COORD97":170337.01999999999,"N_COORD97":2545855.48,"ADDRESS":"北園街９５號之６","OBJECTID":515563},"geometry":{"x":170337.02000000048,"y":2545855.4799999986}},{"attributes":{"ID":515591,"DIS_CODE":0,"TOWNNAME":"北區","LI":"開元里","LIN":"1鄰","STREET":"北園街","SECT":" ","MAREA":" ","LANE":" ","ALLEY":" ","HOUSE_NO":"９７號","E_COORD97":170337.23000000001,"N_COORD97":2545859.29,"ADDRESS":"北園街９７號","OBJECTID":515564},"geometry":{"x":170337.23000000045,"y":2545859.290000001}},{"attributes":{"ID":515592,"DIS_CODE":0,"TOWNNAME":"北區","LI":"長榮里","LIN":"1鄰","STREET":"長勝路","SECT":" ","MAREA":" ","LANE":" ","ALLEY":" ","HOUSE_NO":"８９號","E_COORD97":169871.89000000001,"N_COORD97":2545682.52,"ADDRESS":"長勝路８９號","OBJECTID":515565},"geometry":{"x":169871.8900000006,"y":2545682.5200000014}},{"attributes":{"ID":515593,"DIS_CODE":0,"TOWNNAME":"北區","LI":"仁愛里","LIN":"1鄰","STREET":"東豐路","SECT":" ","MAREA":" ","LANE":" ","ALLEY":" ","HOUSE_NO":"１８５號","E_COORD97":169998.38,"N_COORD97":2544884.77,"ADDRESS":"東豐路１８５號","OBJECTID":515566},"geometry":{"x":169998.37999999989,"y":2544884.7700000014}},{"attributes":{"ID":515594,"DIS_CODE":0,"TOWNNAME":"北區","LI":"文元里","LIN":"1鄰","STREET":"海安路","SECT":"三段","MAREA":" ","LANE":" ","ALLEY":" ","HOUSE_NO":"９３５號","E_COORD97":167987.04000000001,"N_COORD97":2546517.5699999998,"ADDRESS":"海安路三段９３５號","OBJECTID":515567},"geometry":{"x":167987.04000000004,"y":2546517.5700000022}},{"attributes":{"ID":515595,"DIS_CODE":0,"TOWNNAME":"北區","LI":"文元里","LIN":"1鄰","STREET":"海安路","SECT":"三段","MAREA":" ","LANE":" ","ALLEY":" ","HOUSE_NO":"９３７號","E_COORD97":167984.97,"N_COORD97":2546523.29,"ADDRESS":"海安路三段９３７號","OBJECTID":515568},"geometry":{"x":167984.97000000067,"y":2546523.2899999972}},{"attributes":{"ID":515596,"DIS_CODE":0,"TOWNNAME":"北區","LI":"文元里","LIN":"1鄰","STREET":"海安路","SECT":"三段","MAREA":" ","LANE":" ","ALLEY":" ","HOUSE_NO":"９４７號","E_COORD97":167980.53,"N_COORD97":2546541.3799999999,"ADDRESS":"海安路三段９４７號","OBJECTID":515569},"geometry":{"x":167980.53000000026,"y":2546541.379999999}},{"attributes":{"ID":515597,"DIS_CODE":0,"TOWNNAME":"北區","LI":"文成里","LIN":"1鄰","STREET":"和緯路","SECT":"三段","MAREA":" ","LANE":" ","ALLEY":" ","HOUSE_NO":"３３３號","E_COORD97":167568.84,"N_COORD97":2545592.2799999998,"ADDRESS":"和緯路三段３３３號","OBJECTID":515570},"geometry":{"x":167568.84000000078,"y":2545592.2800000012}},{"attributes":{"ID":515598,"DIS_CODE":0,"TOWNNAME":"安平區","LI":"平安里","LIN":"1鄰","STREET":"民權路","SECT":"四段","MAREA":" ","LANE":" ","ALLEY":" ","HOUSE_NO":"３５號","E_COORD97":166503.92000000001,"N_COORD97":2544397.5,"ADDRESS":"民權路四段３５號","OBJECTID":515571},"geometry":{"x":166503.92000000086,"y":2544397.5000000019}},{"attributes":{"ID":515599,"DIS_CODE":0,"TOWNNAME":"安平區","LI":"平安里","LIN":"1鄰","STREET":"民權路","SECT":"四段","MAREA":" ","LANE":" ","ALLEY":" ","HOUSE_NO":"３７號","E_COORD97":166499.73000000001,"N_COORD97":2544397.73,"ADDRESS":"民權路四段３７號","OBJECTID":515572},"geometry":{"x":166499.73000000045,"y":2544397.7300000023}},{"attributes":{"ID":515600,"DIS_CODE":0,"TOWNNAME":"安平區","LI":"平安里","LIN":"1鄰","STREET":"民權路","SECT":"四段","MAREA":" ","LANE":" ","ALLEY":" ","HOUSE_NO":"３９號","E_COORD97":166495.31,"N_COORD97":2544397.73,"ADDRESS":"民權路四段３９號","OBJECTID":515573},"geometry":{"x":166495.31000000145,"y":2544397.7300000023}},{"attributes":{"ID":515601,"DIS_CODE":0,"TOWNNAME":"安平區","LI":"平安里","LIN":"1鄰","STREET":"民權路","SECT":"四段","MAREA":" ","LANE":" ","ALLEY":" ","HOUSE_NO":"３號","E_COORD97":166563.04999999999,"N_COORD97":2544374.48,"ADDRESS":"民權路四段３號","OBJECTID":515574},"geometry":{"x":166563.04999999981,"y":2544374.4800000023}},{"attributes":{"ID":515602,"DIS_CODE":0,"TOWNNAME":"安平區","LI":"平安里","LIN":"1鄰","STREET":"民權路","SECT":"四段","MAREA":" ","LANE":" ","ALLEY":" ","HOUSE_NO":"４１號","E_COORD97":166490.64999999999,"N_COORD97":2544399.8300000001,"ADDRESS":"民權路四段４１號","OBJECTID":515575},"geometry":{"x":166490.6500000013,"y":2544399.8300000019}},{"attributes":{"ID":515603,"DIS_CODE":0,"TOWNNAME":"安平區","LI":"平安里","LIN":"1鄰","STREET":"安平路","SECT":" ","MAREA":" ","LANE":" ","ALLEY":" ","HOUSE_NO":"１００號","E_COORD97":166364.70000000001,"N_COORD97":2544327.1200000001,"ADDRESS":"安平路１００號","OBJECTID":515576},"geometry":{"x":166364.70000000112,"y":2544327.1200000029}},{"attributes":{"ID":515604,"DIS_CODE":0,"TOWNNAME":"安平區","LI":"平安里","LIN":"1鄰","STREET":"安平路","SECT":" ","MAREA":" ","LANE":" ","ALLEY":" ","HOUSE_NO":"１０２號","E_COORD97":166360.56,"N_COORD97":2544327.8599999999,"ADDRESS":"安平路１０２號","OBJECTID":515577},"geometry":{"x":166360.55999999959,"y":2544327.8600000013}},{"attributes":{"ID":515605,"DIS_CODE":0,"TOWNNAME":"安平區","LI":"平安里","LIN":"1鄰","STREET":"安平路","SECT":" ","MAREA":" ","LANE":" ","ALLEY":" ","HOUSE_NO":"１０４號","E_COORD97":166356.5,"N_COORD97":2544328.1499999999,"ADDRESS":"安平路１０４號","OBJECTID":515578},"geometry":{"x":166356.5,"y":2544328.1500000004}},{"attributes":{"ID":515606,"DIS_CODE":0,"TOWNNAME":"安平區","LI":"平安里","LIN":"1鄰","STREET":"安平路","SECT":" ","MAREA":" ","LANE":" ","ALLEY":" ","HOUSE_NO":"１０６號","E_COORD97":166353.10999999999,"N_COORD97":2544328.1499999999,"ADDRESS":"安平路１０６號","OBJECTID":515579},"geometry":{"x":166353.11000000034,"y":2544328.1500000004}},{"attributes":{"ID":515607,"DIS_CODE":0,"TOWNNAME":"安平區","LI":"平安里","LIN":"1鄰","STREET":"安平路","SECT":" ","MAREA":" ","LANE":" ","ALLEY":" ","HOUSE_NO":"１０８號","E_COORD97":166347.28,"N_COORD97":2544328.23,"ADDRESS":"安平路１０８號","OBJECTID":515580},"geometry":{"x":166347.28000000119,"y":2544328.2300000042}},{"attributes":{"ID":515608,"DIS_CODE":0,"TOWNNAME":"安平區","LI":"平安里","LIN":"1鄰","STREET":"安平路","SECT":" ","MAREA":" ","LANE":" ","ALLEY":" ","HOUSE_NO":"１１０號","E_COORD97":166326.67999999999,"N_COORD97":2544337.8199999998,"ADDRESS":"安平路１１０號","OBJECTID":515581},"geometry":{"x":166326.68000000156,"y":2544337.820000004}},{"attributes":{"ID":515609,"DIS_CODE":0,"TOWNNAME":"安平區","LI":"平安里","LIN":"1鄰","STREET":"安平路","SECT":" ","MAREA":" ","LANE":" ","ALLEY":" ","HOUSE_NO":"４２號","E_COORD97":166536.45999999999,"N_COORD97":2544309.02,"ADDRESS":"安平路４２號","OBJECTID":515582},"geometry":{"x":166536.45999999996,"y":2544309.0200000014}},{"attributes":{"ID":515610,"DIS_CODE":0,"TOWNNAME":"安平區","LI":"平安里","LIN":"1鄰","STREET":"安平路","SECT":" ","MAREA":" ","LANE":" ","ALLEY":" ","HOUSE_NO":"４８號","E_COORD97":166520.10999999999,"N_COORD97":2544313.0699999998,"ADDRESS":"安平路４８號","OBJECTID":515583},"geometry":{"x":166520.11000000127,"y":2544313.0700000022}},{"attributes":{"ID":515611,"DIS_CODE":0,"TOWNNAME":"安平區","LI":"平安里","LIN":"1鄰","STREET":"安平路","SECT":" ","MAREA":" ","LANE":" ","ALLEY":" ","HOUSE_NO":"５６號","E_COORD97":166476.73999999999,"N_COORD97":2544314.3999999999,"ADDRESS":"安平路５６號","OBJECTID":515584},"geometry":{"x":166476.74000000115,"y":2544314.4000000022}},{"attributes":{"ID":515612,"DIS_CODE":0,"TOWNNAME":"安平區","LI":"平安里","LIN":"1鄰","STREET":"安平路","SECT":" ","MAREA":" ","LANE":" ","ALLEY":" ","HOUSE_NO":"５８號","E_COORD97":166474.48999999999,"N_COORD97":2544354.4300000002,"ADDRESS":"安平路５８號","OBJECTID":515585},"geometry":{"x":166474.49000000115,"y":2544354.4300000016}},{"attributes":{"ID":515613,"DIS_CODE":0,"TOWNNAME":"安平區","LI":"平安里","LIN":"1鄰","STREET":"安平路","SECT":" ","MAREA":" ","LANE":" ","ALLEY":" ","HOUSE_NO":"６０號","E_COORD97":166469.10000000001,"N_COORD97":2544313.27,"ADDRESS":"安平路６０號","OBJECTID":515586},"geometry":{"x":166469.09999999963,"y":2544313.2699999977}},{"attributes":{"ID":515614,"DIS_CODE":0,"TOWNNAME":"安平區","LI":"平安里","LIN":"1鄰","STREET":"安平路","SECT":" ","MAREA":" ","LANE":" ","ALLEY":" ","HOUSE_NO":"６０號之１","E_COORD97":166470.75,"N_COORD97":2544328.7999999998,"ADDRESS":"安平路６０號之１","OBJECTID":515587},"geometry":{"x":166470.75000000186,"y":2544328.8000000026}},{"attributes":{"ID":515615,"DIS_CODE":0,"TOWNNAME":"安平區","LI":"平安里","LIN":"1鄰","STREET":"安平路","SECT":" ","MAREA":" ","LANE":" ","ALLEY":" ","HOUSE_NO":"７０號","E_COORD97":166433.01999999999,"N_COORD97":2544320.7400000002,"ADDRESS":"安平路７０號","OBJECTID":515588},"geometry":{"x":166433.02000000048,"y":2544320.7400000002}},{"attributes":{"ID":515616,"DIS_CODE":0,"TOWNNAME":"安平區","LI":"平安里","LIN":"1鄰","STREET":"安平路","SECT":" ","MAREA":" ","LANE":" ","ALLEY":" ","HOUSE_NO":"７２號","E_COORD97":166425.63,"N_COORD97":2544320.0800000001,"ADDRESS":"安平路７２號","OBJECTID":515589},"geometry":{"x":166425.63000000175,"y":2544320.0800000019}},{"attributes":{"ID":515617,"DIS_CODE":0,"TOWNNAME":"安平區","LI":"平安里","LIN":"1鄰","STREET":"安平路","SECT":" ","MAREA":" ","LANE":" ","ALLEY":" ","HOUSE_NO":"７４號","E_COORD97":166421.41,"N_COORD97":2544322.1200000001,"ADDRESS":"安平路７４號","OBJECTID":515590},"geometry":{"x":166421.41000000015,"y":2544322.120000001}},{"attributes":{"ID":515618,"DIS_CODE":0,"TOWNNAME":"安平區","LI":"平安里","LIN":"1鄰","STREET":"安平路","SECT":" ","MAREA":" ","LANE":" ","ALLEY":" ","HOUSE_NO":"７６號","E_COORD97":166417.17000000001,"N_COORD97":2544319.3199999998,"ADDRESS":"安平路７６號","OBJECTID":515591},"geometry":{"x":166417.17000000086,"y":2544319.3200000003}},{"attributes":{"ID":515619,"DIS_CODE":0,"TOWNNAME":"安平區","LI":"平安里","LIN":"1鄰","STREET":"安平路","SECT":" ","MAREA":" ","LANE":" ","ALLEY":" ","HOUSE_NO":"７８號","E_COORD97":166413.22,"N_COORD97":2544323.3999999999,"ADDRESS":"安平路７８號","OBJECTID":515592},"geometry":{"x":166413.22000000067,"y":2544323.3999999985}},{"attributes":{"ID":515620,"DIS_CODE":0,"TOWNNAME":"安平區","LI":"平安里","LIN":"1鄰","STREET":"安平路","SECT":" ","MAREA":" ","LANE":" ","ALLEY":" ","HOUSE_NO":"８６號","E_COORD97":166395.17000000001,"N_COORD97":2544324.0600000001,"ADDRESS":"安平路８６號","OBJECTID":515593},"geometry":{"x":166395.17000000086,"y":2544324.0600000024}},{"attributes":{"ID":515621,"DIS_CODE":0,"TOWNNAME":"安平區","LI":"平安里","LIN":"1鄰","STREET":"安平路","SECT":" ","MAREA":" ","LANE":" ","ALLEY":" ","HOUSE_NO":"８８號","E_COORD97":166391.32999999999,"N_COORD97":2544324.9399999999,"ADDRESS":"安平路８８號","OBJECTID":515594},"geometry":{"x":166391.33000000101,"y":2544324.9399999995}},{"attributes":{"ID":515622,"DIS_CODE":0,"TOWNNAME":"安平區","LI":"平安里","LIN":"1鄰","STREET":"安平路","SECT":" ","MAREA":" ","LANE":" ","ALLEY":" ","HOUSE_NO":"９０號","E_COORD97":166387.26999999999,"N_COORD97":2544326.0499999998,"ADDRESS":"安平路９０號","OBJECTID":515595},"geometry":{"x":166387.27000000048,"y":2544326.0500000007}},{"attributes":{"ID":515623,"DIS_CODE":0,"TOWNNAME":"安平區","LI":"平安里","LIN":"1鄰","STREET":"安平路","SECT":" ","MAREA":" ","LANE":" ","ALLEY":" ","HOUSE_NO":"９２號","E_COORD97":166383.25,"N_COORD97":2544327.0099999998,"ADDRESS":"安平路９２號","OBJECTID":515596},"geometry":{"x":166383.25000000093,"y":2544327.0100000016}},{"attributes":{"ID":515624,"DIS_CODE":0,"TOWNNAME":"安平區","LI":"平安里","LIN":"1鄰","STREET":"安平路","SECT":" ","MAREA":" ","LANE":" ","ALLEY":" ","HOUSE_NO":"９４號","E_COORD97":166379.19,"N_COORD97":2544327.5299999998,"ADDRESS":"安平路９４號","OBJECTID":515597},"geometry":{"x":166379.19000000041,"y":2544327.5299999993}},{"attributes":{"ID":515625,"DIS_CODE":0,"TOWNNAME":"安平區","LI":"平安里","LIN":"1鄰","STREET":"安平路","SECT":" ","MAREA":" ","LANE":" ","ALLEY":" ","HOUSE_NO":"９６號","E_COORD97":166374.98000000001,"N_COORD97":2544328.5600000001,"ADDRESS":"安平路９６號","OBJECTID":515598},"geometry":{"x":166374.98000000138,"y":2544328.5600000005}},{"attributes":{"ID":515626,"DIS_CODE":0,"TOWNNAME":"北區","LI":"國興里","LIN":"1鄰","STREET":"開元路","SECT":" ","MAREA":" ","LANE":" ","ALLEY":" ","HOUSE_NO":"３９２號","E_COORD97":170565.19,"N_COORD97":2545626.9199999999,"ADDRESS":"開元路３９２號","OBJECTID":515599},"geometry":{"x":170565.19000000041,"y":2545626.9199999999}},{"attributes":{"ID":515627,"DIS_CODE":0,"TOWNNAME":"北區","LI":"勝安里","LIN":"1鄰","STREET":"開元路","SECT":" ","MAREA":" ","LANE":" ","ALLEY":" ","HOUSE_NO":"５號","E_COORD97":169510.06,"N_COORD97":2545103.4900000002,"ADDRESS":"開元路５號","OBJECTID":515600},"geometry":{"x":169510.06000000052,"y":2545103.4900000021}}]}