{"displayFieldName":"TOWNNAME","fieldAliases":{"ID":"ID","DIS_CODE":"DIS_CODE","TOWNNAME":"TOWNNAME","LI":"LI","LIN":"LIN","STREET":"STREET","SECT":"SECT","MAREA":"MAREA","LANE":"LANE","ALLEY":"ALLEY","HOUSE_NO":"HOUSE_NO","E_COORD97":"E_COORD97","N_COORD97":"N_COORD97","ADDRESS":"ADDRESS","OBJECTID":"OBJECTID"},"geometryType":"esriGeometryPoint","spatialReference":{"wkid":102443,"latestWkid":3826},"fields":[{"name":"ID","type":"esriFieldTypeDouble","alias":"ID"},{"name":"DIS_CODE","type":"esriFieldTypeInteger","alias":"DIS_CODE"},{"name":"TOWNNAME","type":"esriFieldTypeString","alias":"TOWNNAME","length":8},{"name":"LI","type":"esriFieldTypeString","alias":"LI","length":8},{"name":"LIN","type":"esriFieldTypeString","alias":"LIN","length":12},{"name":"STREET","type":"esriFieldTypeString","alias":"STREET","length":20},{"name":"SECT","type":"esriFieldTypeString","alias":"SECT","length":8},{"name":"MAREA","type":"esriFieldTypeString","alias":"MAREA","length":12},{"name":"LANE","type":"esriFieldTypeString","alias":"LANE","length":10},{"name":"ALLEY","type":"esriFieldTypeString","alias":"ALLEY","length":10},{"name":"HOUSE_NO","type":"esriFieldTypeString","alias":"HOUSE_NO","length":20},{"name":"E_COORD97","type":"esriFieldTypeDouble","alias":"E_COORD97"},{"name":"N_COORD97","type":"esriFieldTypeDouble","alias":"N_COORD97"},{"name":"ADDRESS","type":"esriFieldTypeString","alias":"ADDRESS","length":50},{"name":"OBJECTID","type":"esriFieldTypeOID","alias":"OBJECTID"}],"features":[{"attributes":{"ID":143601,"DIS_CODE":0,"TOWNNAME":"安南區","LI":"州北里","LIN":"22鄰","STREET":"安和路","SECT":"五段","MAREA":" ","LANE":"３２５巷","ALLEY":"１弄","HOUSE_NO":"１０號","E_COORD97":169687.22,"N_COORD97":2552068.8199999998,"ADDRESS":"安和路五段３２５巷１弄１０號","OBJECTID":143601},"geometry":{"x":169687.21999999974,"y":2552068.8200000022}},{"attributes":{"ID":143602,"DIS_CODE":0,"TOWNNAME":"安南區","LI":"州北里","LIN":"22鄰","STREET":"安和路","SECT":"五段","MAREA":" ","LANE":"３２５巷","ALLEY":"１弄","HOUSE_NO":"１１號","E_COORD97":169688.92999999999,"N_COORD97":2552062.1299999999,"ADDRESS":"安和路五段３２５巷１弄１１號","OBJECTID":143602},"geometry":{"x":169688.93000000063,"y":2552062.1300000008}},{"attributes":{"ID":143603,"DIS_CODE":0,"TOWNNAME":"安南區","LI":"州北里","LIN":"22鄰","STREET":"安和路","SECT":"五段","MAREA":" ","LANE":"３２５巷","ALLEY":"１弄","HOUSE_NO":"１２號","E_COORD97":169691.73999999999,"N_COORD97":2552054.9700000002,"ADDRESS":"安和路五段３２５巷１弄１２號","OBJECTID":143603},"geometry":{"x":169691.73999999929,"y":2552054.9700000025}},{"attributes":{"ID":143604,"DIS_CODE":0,"TOWNNAME":"安南區","LI":"州北里","LIN":"22鄰","STREET":"安和路","SECT":"五段","MAREA":" ","LANE":"３２５巷","ALLEY":"１弄","HOUSE_NO":"１３號","E_COORD97":169694.54000000001,"N_COORD97":2552047.9700000002,"ADDRESS":"安和路五段３２５巷１弄１３號","OBJECTID":143604},"geometry":{"x":169694.53999999911,"y":2552047.9700000025}},{"attributes":{"ID":143605,"DIS_CODE":0,"TOWNNAME":"安南區","LI":"州北里","LIN":"22鄰","STREET":"安和路","SECT":"五段","MAREA":" ","LANE":"３２５巷","ALLEY":"１弄","HOUSE_NO":"１４號","E_COORD97":169697.51000000001,"N_COORD97":2552041.27,"ADDRESS":"安和路五段３２５巷１弄１４號","OBJECTID":143605},"geometry":{"x":169697.50999999978,"y":2552041.2700000014}},{"attributes":{"ID":143606,"DIS_CODE":0,"TOWNNAME":"安南區","LI":"州北里","LIN":"22鄰","STREET":"安和路","SECT":"五段","MAREA":" ","LANE":"３２５巷","ALLEY":"１弄","HOUSE_NO":"１５號","E_COORD97":169700.16,"N_COORD97":2552034.1099999999,"ADDRESS":"安和路五段３２５巷１弄１５號","OBJECTID":143606},"geometry":{"x":169700.16000000015,"y":2552034.1099999975}},{"attributes":{"ID":143607,"DIS_CODE":0,"TOWNNAME":"安南區","LI":"州北里","LIN":"22鄰","STREET":"安和路","SECT":"五段","MAREA":" ","LANE":"３２５巷","ALLEY":"１弄","HOUSE_NO":"１６號","E_COORD97":169702.17999999999,"N_COORD97":2552027.8900000001,"ADDRESS":"安和路五段３２５巷１弄１６號","OBJECTID":143607},"geometry":{"x":169702.18000000063,"y":2552027.8900000025}},{"attributes":{"ID":143608,"DIS_CODE":0,"TOWNNAME":"官田區","LI":"渡頭里","LIN":"30鄰","STREET":" ","SECT":" ","MAREA":"三塊厝","LANE":" ","ALLEY":" ","HOUSE_NO":"１８０號","E_COORD97":183105.38,"N_COORD97":2561276.2799999998,"ADDRESS":"三塊厝１８０號","OBJECTID":143608},"geometry":{"x":183105.38000000082,"y":2561276.2800000012}},{"attributes":{"ID":143609,"DIS_CODE":0,"TOWNNAME":"安南區","LI":"州北里","LIN":"22鄰","STREET":"安和路","SECT":"五段","MAREA":" ","LANE":"３２５巷","ALLEY":"１弄","HOUSE_NO":"１號","E_COORD97":169660.35999999999,"N_COORD97":2552130.79,"ADDRESS":"安和路五段３２５巷１弄１號","OBJECTID":143609},"geometry":{"x":169660.36000000034,"y":2552130.7899999991}},{"attributes":{"ID":143610,"DIS_CODE":0,"TOWNNAME":"安南區","LI":"州北里","LIN":"22鄰","STREET":"安和路","SECT":"五段","MAREA":" ","LANE":"３２５巷","ALLEY":"１弄","HOUSE_NO":"２號","E_COORD97":169663.01999999999,"N_COORD97":2552123.27,"ADDRESS":"安和路五段３２５巷１弄２號","OBJECTID":143610},"geometry":{"x":169663.01999999955,"y":2552123.2699999996}},{"attributes":{"ID":143611,"DIS_CODE":0,"TOWNNAME":"安南區","LI":"州北里","LIN":"22鄰","STREET":"安和路","SECT":"五段","MAREA":" ","LANE":"３２５巷","ALLEY":"１弄","HOUSE_NO":"３號","E_COORD97":169666.92000000001,"N_COORD97":2552117.6699999999,"ADDRESS":"安和路五段３２５巷１弄３號","OBJECTID":143611},"geometry":{"x":169666.92000000086,"y":2552117.6699999999}},{"attributes":{"ID":143612,"DIS_CODE":0,"TOWNNAME":"安南區","LI":"州北里","LIN":"22鄰","STREET":"安和路","SECT":"五段","MAREA":" ","LANE":"３２５巷","ALLEY":"１弄","HOUSE_NO":"７號","E_COORD97":169678.29999999999,"N_COORD97":2552090.1200000001,"ADDRESS":"安和路五段３２５巷１弄７號","OBJECTID":143612},"geometry":{"x":169678.29999999981,"y":2552090.1200000048}},{"attributes":{"ID":143613,"DIS_CODE":0,"TOWNNAME":"仁德區","LI":"太子里","LIN":"22鄰","STREET":"長興四街","SECT":" ","MAREA":" ","LANE":"９０巷","ALLEY":"８弄","HOUSE_NO":"３號","E_COORD97":173859.92999999999,"N_COORD97":2543618.0099999998,"ADDRESS":"長興四街９０巷８弄３號","OBJECTID":143613},"geometry":{"x":173859.9299999997,"y":2543618.0100000016}},{"attributes":{"ID":143614,"DIS_CODE":0,"TOWNNAME":"安南區","LI":"海東里","LIN":"23鄰","STREET":"同安路","SECT":" ","MAREA":" ","LANE":"１４５巷","ALLEY":"１７弄","HOUSE_NO":"２號","E_COORD97":166975.39000000001,"N_COORD97":2549106.8599999999,"ADDRESS":"同安路１４５巷１７弄２號","OBJECTID":143614},"geometry":{"x":166975.38999999966,"y":2549106.8600000031}},{"attributes":{"ID":143615,"DIS_CODE":0,"TOWNNAME":"安南區","LI":"海東里","LIN":"23鄰","STREET":"同安路","SECT":" ","MAREA":" ","LANE":"１４５巷","ALLEY":"１７弄","HOUSE_NO":"６號","E_COORD97":166972.34,"N_COORD97":2549101.27,"ADDRESS":"同安路１４５巷１７弄６號","OBJECTID":143615},"geometry":{"x":166972.34000000078,"y":2549101.2700000014}},{"attributes":{"ID":143616,"DIS_CODE":0,"TOWNNAME":"永康區","LI":"埔園里","LIN":"30鄰","STREET":"八德街","SECT":" ","MAREA":" ","LANE":" ","ALLEY":" ","HOUSE_NO":"１７９號","E_COORD97":173890.79000000001,"N_COORD97":2548544.5099999998,"ADDRESS":"八德街１７９號","OBJECTID":143616},"geometry":{"x":173890.79000000097,"y":2548544.5100000016}},{"attributes":{"ID":143617,"DIS_CODE":0,"TOWNNAME":"學甲區","LI":"秀昌里","LIN":"30鄰","STREET":" ","SECT":" ","MAREA":"煥昌","LANE":" ","ALLEY":" ","HOUSE_NO":"７３號","E_COORD97":166225.62,"N_COORD97":2570967.4300000002,"ADDRESS":"煥昌７３號","OBJECTID":143617},"geometry":{"x":166225.62000000011,"y":2570967.4299999997}},{"attributes":{"ID":143618,"DIS_CODE":0,"TOWNNAME":"安定區","LI":"中沙里","LIN":"4鄰","STREET":" ","SECT":" ","MAREA":"中崙","LANE":" ","ALLEY":" ","HOUSE_NO":"１７１號","E_COORD97":168949.77499400001,"N_COORD97":2552856.0751700001,"ADDRESS":"中崙１７１號","OBJECTID":143618},"geometry":{"x":168949.77499400079,"y":2552856.0751680024}},{"attributes":{"ID":143619,"DIS_CODE":0,"TOWNNAME":"安定區","LI":"南安里","LIN":"4鄰","STREET":" ","SECT":" ","MAREA":"油車","LANE":" ","ALLEY":" ","HOUSE_NO":"４５號","E_COORD97":170615.04000000001,"N_COORD97":2555528.25,"ADDRESS":"油車４５號","OBJECTID":143619},"geometry":{"x":170615.03999999911,"y":2555528.25}},{"attributes":{"ID":143620,"DIS_CODE":0,"TOWNNAME":"安定區","LI":"港口里","LIN":"20鄰","STREET":" ","SECT":" ","MAREA":"港口","LANE":" ","ALLEY":" ","HOUSE_NO":"３９３號之１６","E_COORD97":171534.78,"N_COORD97":2554998.2999999998,"ADDRESS":"港口３９３號之１６","OBJECTID":143620},"geometry":{"x":171534.78000000119,"y":2554998.3000000026}},{"attributes":{"ID":143621,"DIS_CODE":0,"TOWNNAME":"安定區","LI":"蘇林里","LIN":"20鄰","STREET":" ","SECT":" ","MAREA":"蘇厝","LANE":" ","ALLEY":" ","HOUSE_NO":"２２７之４號","E_COORD97":173354.62,"N_COORD97":2558823.2999999998,"ADDRESS":"蘇厝２２７之４號","OBJECTID":143621},"geometry":{"x":173354.62000000104,"y":2558823.3000000026}},{"attributes":{"ID":143622,"DIS_CODE":0,"TOWNNAME":"安定區","LI":"海寮里","LIN":"13鄰","STREET":" ","SECT":" ","MAREA":"海寮","LANE":" ","ALLEY":" ","HOUSE_NO":"１２６號之２７","E_COORD97":168989.31,"N_COORD97":2555242.2999999998,"ADDRESS":"海寮１２６號之２７","OBJECTID":143622},"geometry":{"x":168989.31000000052,"y":2555242.3000000026}},{"attributes":{"ID":143623,"DIS_CODE":0,"TOWNNAME":"安定區","LI":"海寮里","LIN":"13鄰","STREET":" ","SECT":" ","MAREA":"海寮","LANE":" ","ALLEY":" ","HOUSE_NO":"１２６號之４２","E_COORD97":168965.85999999999,"N_COORD97":2555300.2999999998,"ADDRESS":"海寮１２６號之４２","OBJECTID":143623},"geometry":{"x":168965.86000000127,"y":2555300.3000000026}},{"attributes":{"ID":143624,"DIS_CODE":0,"TOWNNAME":"安定區","LI":"六嘉里","LIN":"4鄰","STREET":" ","SECT":" ","MAREA":"六塊寮","LANE":" ","ALLEY":" ","HOUSE_NO":"３０之３０號","E_COORD97":169965.87,"N_COORD97":2553452.2999999998,"ADDRESS":"六塊寮３０之３０號","OBJECTID":143624},"geometry":{"x":169965.87000000104,"y":2553452.3000000026}},{"attributes":{"ID":143625,"DIS_CODE":0,"TOWNNAME":"安定區","LI":"港口里","LIN":"18鄰","STREET":" ","SECT":" ","MAREA":"港口","LANE":" ","ALLEY":" ","HOUSE_NO":"３７２號之１","E_COORD97":171408.82999999999,"N_COORD97":2554920.2999999998,"ADDRESS":"港口３７２號之１","OBJECTID":143625},"geometry":{"x":171408.83000000101,"y":2554920.3000000026}},{"attributes":{"ID":143626,"DIS_CODE":0,"TOWNNAME":"安定區","LI":"港南里","LIN":"20鄰","STREET":" ","SECT":" ","MAREA":"港口","LANE":" ","ALLEY":" ","HOUSE_NO":"２０４號之４","E_COORD97":171368.64999999999,"N_COORD97":2554625.2999999998,"ADDRESS":"港口２０４號之４","OBJECTID":143626},"geometry":{"x":171368.65000000037,"y":2554625.3000000026}},{"attributes":{"ID":143627,"DIS_CODE":0,"TOWNNAME":"安定區","LI":"管寮里","LIN":"13鄰","STREET":" ","SECT":" ","MAREA":"管寮","LANE":" ","ALLEY":" ","HOUSE_NO":"１２２號","E_COORD97":170051.09,"N_COORD97":2556364.25,"ADDRESS":"管寮１２２號","OBJECTID":143627},"geometry":{"x":170051.08999999985,"y":2556364.2500000019}},{"attributes":{"ID":143628,"DIS_CODE":0,"TOWNNAME":"永康區","LI":"二王里","LIN":"22鄰","STREET":"中山南路","SECT":" ","MAREA":" ","LANE":"５６８巷","ALLEY":"１弄","HOUSE_NO":"３９號","E_COORD97":172327.95999999999,"N_COORD97":2546611.1400000001,"ADDRESS":"中山南路５６８巷１弄３９號","OBJECTID":143628},"geometry":{"x":172327.96000000089,"y":2546611.1400000025}},{"attributes":{"ID":143629,"DIS_CODE":0,"TOWNNAME":"南區","LI":"大忠里","LIN":"15鄰","STREET":"公英六街","SECT":" ","MAREA":" ","LANE":" ","ALLEY":" ","HOUSE_NO":"３４號","E_COORD97":169353.45000000001,"N_COORD97":2541097.1099999999,"ADDRESS":"公英六街３４號","OBJECTID":143629},"geometry":{"x":169353.45000000112,"y":2541097.1100000031}},{"attributes":{"ID":143630,"DIS_CODE":0,"TOWNNAME":"永康區","LI":"尚頂里","LIN":"30鄰","STREET":"中正南路","SECT":" ","MAREA":" ","LANE":" ","ALLEY":" ","HOUSE_NO":"１９３號","E_COORD97":169962.85999999999,"N_COORD97":2547228.7400000002,"ADDRESS":"中正南路１９３號","OBJECTID":143630},"geometry":{"x":169962.86000000127,"y":2547228.7400000002}},{"attributes":{"ID":143631,"DIS_CODE":0,"TOWNNAME":"永康區","LI":"尚頂里","LIN":"30鄰","STREET":"中正南路","SECT":" ","MAREA":" ","LANE":" ","ALLEY":" ","HOUSE_NO":"１９９號","E_COORD97":169975.76999999999,"N_COORD97":2547250,"ADDRESS":"中正南路１９９號","OBJECTID":143631},"geometry":{"x":169975.77000000142,"y":2547250.0000000019}},{"attributes":{"ID":143632,"DIS_CODE":0,"TOWNNAME":"永康區","LI":"大橋里","LIN":"22鄰","STREET":"大橋一街","SECT":" ","MAREA":" ","LANE":"１３９巷","ALLEY":"２２弄","HOUSE_NO":"３６號","E_COORD97":171082.23999999999,"N_COORD97":2546546.71,"ADDRESS":"大橋一街１３９巷２２弄３６號","OBJECTID":143632},"geometry":{"x":171082.24000000115,"y":2546546.7100000028}},{"attributes":{"ID":143633,"DIS_CODE":0,"TOWNNAME":"佳里區","LI":"三協里","LIN":"7鄰","STREET":" ","SECT":" ","MAREA":"潭墘","LANE":" ","ALLEY":" ","HOUSE_NO":"３３號之４","E_COORD97":168463.10999999999,"N_COORD97":2564201.7599999998,"ADDRESS":"潭墘３３號之４","OBJECTID":143633},"geometry":{"x":168463.11000000034,"y":2564201.7600000035}},{"attributes":{"ID":143634,"DIS_CODE":0,"TOWNNAME":"佳里區","LI":"三協里","LIN":"7鄰","STREET":" ","SECT":" ","MAREA":"潭墘","LANE":" ","ALLEY":" ","HOUSE_NO":"３３號之５","E_COORD97":168463.16,"N_COORD97":2564200.4100000001,"ADDRESS":"潭墘３３號之５","OBJECTID":143634},"geometry":{"x":168463.15999999922,"y":2564200.4100000001}},{"attributes":{"ID":143635,"DIS_CODE":0,"TOWNNAME":"佳里區","LI":"三協里","LIN":"7鄰","STREET":" ","SECT":" ","MAREA":"潭墘","LANE":" ","ALLEY":" ","HOUSE_NO":"３３號之６","E_COORD97":168463.23999999999,"N_COORD97":2564199.0800000001,"ADDRESS":"潭墘３３號之６","OBJECTID":143635},"geometry":{"x":168463.24000000115,"y":2564199.0800000001}},{"attributes":{"ID":143636,"DIS_CODE":0,"TOWNNAME":"佳里區","LI":"三協里","LIN":"7鄰","STREET":" ","SECT":" ","MAREA":"潭墘","LANE":" ","ALLEY":" ","HOUSE_NO":"３３號之７","E_COORD97":168462.81,"N_COORD97":2564197.0899999999,"ADDRESS":"潭墘３３號之７","OBJECTID":143636},"geometry":{"x":168462.80999999959,"y":2564197.0900000017}},{"attributes":{"ID":143637,"DIS_CODE":0,"TOWNNAME":"永康區","LI":"埔園里","LIN":"22鄰","STREET":"四維街","SECT":" ","MAREA":" ","LANE":"５８巷","ALLEY":"９弄","HOUSE_NO":"８號","E_COORD97":173463.16,"N_COORD97":2548106.25,"ADDRESS":"四維街５８巷９弄８號","OBJECTID":143637},"geometry":{"x":173463.16000000108,"y":2548106.2500000019}},{"attributes":{"ID":143638,"DIS_CODE":0,"TOWNNAME":"安南區","LI":"安富里","LIN":"22鄰","STREET":"郡安路","SECT":"五段","MAREA":" ","LANE":"１６４巷","ALLEY":"１０弄","HOUSE_NO":"１１號","E_COORD97":167617.84,"N_COORD97":2547564.4300000002,"ADDRESS":"郡安路五段１６４巷１０弄１１號","OBJECTID":143638},"geometry":{"x":167617.84000000078,"y":2547564.4300000016}},{"attributes":{"ID":143639,"DIS_CODE":0,"TOWNNAME":"安南區","LI":"安富里","LIN":"22鄰","STREET":"郡安路","SECT":"五段","MAREA":" ","LANE":"１６４巷","ALLEY":"１０弄","HOUSE_NO":"１５號","E_COORD97":167603.82999999999,"N_COORD97":2547561.4300000002,"ADDRESS":"郡安路五段１６４巷１０弄１５號","OBJECTID":143639},"geometry":{"x":167603.83000000007,"y":2547561.4300000016}},{"attributes":{"ID":143640,"DIS_CODE":0,"TOWNNAME":"安南區","LI":"安富里","LIN":"22鄰","STREET":"郡安路","SECT":"五段","MAREA":" ","LANE":"１６４巷","ALLEY":"１０弄","HOUSE_NO":"１７號","E_COORD97":167597.82000000001,"N_COORD97":2547560.1899999999,"ADDRESS":"郡安路五段１６４巷１０弄１７號","OBJECTID":143640},"geometry":{"x":167597.82000000216,"y":2547560.1900000013}},{"attributes":{"ID":143641,"DIS_CODE":0,"TOWNNAME":"安南區","LI":"安富里","LIN":"22鄰","STREET":"郡安路","SECT":"五段","MAREA":" ","LANE":"１６４巷","ALLEY":"１０弄","HOUSE_NO":"１８號","E_COORD97":167593.57000000001,"N_COORD97":2547579.96,"ADDRESS":"郡安路五段１６４巷１０弄１８號","OBJECTID":143641},"geometry":{"x":167593.5700000003,"y":2547579.9600000028}},{"attributes":{"ID":143642,"DIS_CODE":0,"TOWNNAME":"佳里區","LI":"三協里","LIN":"7鄰","STREET":" ","SECT":" ","MAREA":"潭墘","LANE":" ","ALLEY":" ","HOUSE_NO":"３５號","E_COORD97":168431.72,"N_COORD97":2564067.0899999999,"ADDRESS":"潭墘３５號","OBJECTID":143642},"geometry":{"x":168431.71999999974,"y":2564067.0899999999}},{"attributes":{"ID":143643,"DIS_CODE":0,"TOWNNAME":"官田區","LI":"渡頭里","LIN":"30鄰","STREET":" ","SECT":" ","MAREA":"三塊厝","LANE":" ","ALLEY":" ","HOUSE_NO":"２２７號","E_COORD97":183404.14000000001,"N_COORD97":2561319.3500000001,"ADDRESS":"三塊厝２２７號","OBJECTID":143643},"geometry":{"x":183404.13999999966,"y":2561319.3500000034}},{"attributes":{"ID":143644,"DIS_CODE":0,"TOWNNAME":"安定區","LI":"管寮里","LIN":"14鄰","STREET":" ","SECT":" ","MAREA":"管寮","LANE":" ","ALLEY":" ","HOUSE_NO":"１３０之１號","E_COORD97":169967.19,"N_COORD97":2556209.2999999998,"ADDRESS":"管寮１３０之１號","OBJECTID":143644},"geometry":{"x":169967.19000000134,"y":2556209.3000000026}},{"attributes":{"ID":143645,"DIS_CODE":0,"TOWNNAME":"安南區","LI":"安富里","LIN":"22鄰","STREET":"郡安路","SECT":"五段","MAREA":" ","LANE":"１６４巷","ALLEY":"１０弄","HOUSE_NO":"１９號","E_COORD97":167589.57000000001,"N_COORD97":2547558.4399999999,"ADDRESS":"郡安路五段１６４巷１０弄１９號","OBJECTID":143645},"geometry":{"x":167589.57000000123,"y":2547558.4400000013}},{"attributes":{"ID":143646,"DIS_CODE":0,"TOWNNAME":"安定區","LI":"港南里","LIN":"4鄰","STREET":" ","SECT":" ","MAREA":"港口","LANE":" ","ALLEY":" ","HOUSE_NO":"２９之１號","E_COORD97":171594.64000000001,"N_COORD97":2554063.2999999998,"ADDRESS":"港口２９之１號","OBJECTID":143646},"geometry":{"x":171594.6400000006,"y":2554063.3000000026}},{"attributes":{"ID":143647,"DIS_CODE":0,"TOWNNAME":"安南區","LI":"安富里","LIN":"22鄰","STREET":"郡安路","SECT":"五段","MAREA":" ","LANE":"１６４巷","ALLEY":"１０弄","HOUSE_NO":"２１號","E_COORD97":167583.31,"N_COORD97":2547558.4399999999,"ADDRESS":"郡安路五段１６４巷１０弄２１號","OBJECTID":143647},"geometry":{"x":167583.30999999959,"y":2547558.4400000013}},{"attributes":{"ID":143648,"DIS_CODE":0,"TOWNNAME":"安南區","LI":"安富里","LIN":"22鄰","STREET":"郡安路","SECT":"五段","MAREA":" ","LANE":"１６４巷","ALLEY":"１０弄","HOUSE_NO":"２２號","E_COORD97":167579.06,"N_COORD97":2547577.96,"ADDRESS":"郡安路五段１６４巷１０弄２２號","OBJECTID":143648},"geometry":{"x":167579.06000000052,"y":2547577.9600000009}},{"attributes":{"ID":143649,"DIS_CODE":0,"TOWNNAME":"安定區","LI":"港南里","LIN":"18鄰","STREET":" ","SECT":" ","MAREA":"港口","LANE":" ","ALLEY":" ","HOUSE_NO":"２４０之６號","E_COORD97":172677.39000000001,"N_COORD97":2554379.2999999998,"ADDRESS":"港口２４０之６號","OBJECTID":143649},"geometry":{"x":172677.3900000006,"y":2554379.3000000007}},{"attributes":{"ID":143650,"DIS_CODE":0,"TOWNNAME":"永康區","LI":"尚頂里","LIN":"30鄰","STREET":"中正南路","SECT":" ","MAREA":" ","LANE":" ","ALLEY":" ","HOUSE_NO":"１８７號","E_COORD97":169944.60999999999,"N_COORD97":2547207.6000000001,"ADDRESS":"中正南路１８７號","OBJECTID":143650},"geometry":{"x":169944.61000000034,"y":2547207.6000000015}},{"attributes":{"ID":143651,"DIS_CODE":0,"TOWNNAME":"安定區","LI":"大同里","LIN":"13鄰","STREET":" ","SECT":" ","MAREA":"大同","LANE":" ","ALLEY":" ","HOUSE_NO":"１３９之３號","E_COORD97":170311.82000000001,"N_COORD97":2553681.2999999998,"ADDRESS":"大同１３９之３號","OBJECTID":143651},"geometry":{"x":170311.82000000216,"y":2553681.3000000007}},{"attributes":{"ID":143652,"DIS_CODE":0,"TOWNNAME":"安定區","LI":"蘇厝里","LIN":"13鄰","STREET":" ","SECT":" ","MAREA":"蘇厝","LANE":" ","ALLEY":" ","HOUSE_NO":"４０７號","E_COORD97":173037.42000000001,"N_COORD97":2558819.25,"ADDRESS":"蘇厝４０７號","OBJECTID":143652},"geometry":{"x":173037.42000000086,"y":2558819.2500000019}},{"attributes":{"ID":143653,"DIS_CODE":0,"TOWNNAME":"安定區","LI":"海寮里","LIN":"14鄰","STREET":" ","SECT":" ","MAREA":"海寮","LANE":" ","ALLEY":" ","HOUSE_NO":"１３２號之９６","E_COORD97":169010.23000000001,"N_COORD97":2555345.2999999998,"ADDRESS":"海寮１３２號之９６","OBJECTID":143653},"geometry":{"x":169010.23000000045,"y":2555345.3000000007}},{"attributes":{"ID":143654,"DIS_CODE":0,"TOWNNAME":"安定區","LI":"蘇厝里","LIN":"18鄰","STREET":" ","SECT":" ","MAREA":"蘇厝","LANE":" ","ALLEY":" ","HOUSE_NO":"４５８號","E_COORD97":173247.62,"N_COORD97":2558879.25,"ADDRESS":"蘇厝４５８號","OBJECTID":143654},"geometry":{"x":173247.62000000104,"y":2558879.2500000037}},{"attributes":{"ID":143655,"DIS_CODE":0,"TOWNNAME":"安定區","LI":"港南里","LIN":"20鄰","STREET":" ","SECT":" ","MAREA":"港口","LANE":" ","ALLEY":" ","HOUSE_NO":"２０６之４號","E_COORD97":171401.89000000001,"N_COORD97":2554602.2999999998,"ADDRESS":"港口２０６之４號","OBJECTID":143655},"geometry":{"x":171401.88999999966,"y":2554602.3000000026}},{"attributes":{"ID":143656,"DIS_CODE":0,"TOWNNAME":"安定區","LI":"管寮里","LIN":"14鄰","STREET":" ","SECT":" ","MAREA":"管寮","LANE":" ","ALLEY":" ","HOUSE_NO":"１３１號","E_COORD97":169955.79000000001,"N_COORD97":2556240.25,"ADDRESS":"管寮１３１號","OBJECTID":143656},"geometry":{"x":169955.7900000019,"y":2556240.25}},{"attributes":{"ID":143657,"DIS_CODE":0,"TOWNNAME":"安定區","LI":"新吉里","LIN":"8鄰","STREET":" ","SECT":" ","MAREA":"新吉","LANE":" ","ALLEY":" ","HOUSE_NO":"６６號","E_COORD97":169208.47,"N_COORD97":2553912.25,"ADDRESS":"新吉６６號","OBJECTID":143657},"geometry":{"x":169208.47000000067,"y":2553912.2500000037}},{"attributes":{"ID":143658,"DIS_CODE":0,"TOWNNAME":"佳里區","LI":"東寧里","LIN":"18鄰","STREET":"義民街","SECT":" ","MAREA":" ","LANE":" ","ALLEY":" ","HOUSE_NO":"３３號","E_COORD97":166074,"N_COORD97":2562438.3900000001,"ADDRESS":"義民街３３號","OBJECTID":143658},"geometry":{"x":166074.00000000186,"y":2562438.3900000006}},{"attributes":{"ID":143659,"DIS_CODE":0,"TOWNNAME":"佳里區","LI":"安西里","LIN":"47鄰","STREET":"義民街","SECT":" ","MAREA":" ","LANE":" ","ALLEY":" ","HOUSE_NO":"３３３號","E_COORD97":165205.95000000001,"N_COORD97":2562379.4399999999,"ADDRESS":"義民街３３３號","OBJECTID":143659},"geometry":{"x":165205.95000000019,"y":2562379.4399999976}},{"attributes":{"ID":143660,"DIS_CODE":0,"TOWNNAME":"佳里區","LI":"安西里","LIN":"47鄰","STREET":"義民街","SECT":" ","MAREA":" ","LANE":" ","ALLEY":" ","HOUSE_NO":"３４５號","E_COORD97":165165.94,"N_COORD97":2562379.8900000001,"ADDRESS":"義民街３４５號","OBJECTID":143660},"geometry":{"x":165165.94000000041,"y":2562379.8900000006}},{"attributes":{"ID":143661,"DIS_CODE":0,"TOWNNAME":"佳里區","LI":"東寧里","LIN":"14鄰","STREET":"義民街","SECT":" ","MAREA":" ","LANE":" ","ALLEY":" ","HOUSE_NO":"９６號","E_COORD97":165908.85000000001,"N_COORD97":2562434.8999999999,"ADDRESS":"義民街９６號","OBJECTID":143661},"geometry":{"x":165908.85000000056,"y":2562434.8999999985}},{"attributes":{"ID":143662,"DIS_CODE":0,"TOWNNAME":"安南區","LI":"安富里","LIN":"22鄰","STREET":"郡安路","SECT":"五段","MAREA":" ","LANE":"１６４巷","ALLEY":"１０弄","HOUSE_NO":"３號","E_COORD97":167655.60000000001,"N_COORD97":2547573.3599999999,"ADDRESS":"郡安路五段１６４巷１０弄３號","OBJECTID":143662},"geometry":{"x":167655.59999999963,"y":2547573.3599999994}},{"attributes":{"ID":143663,"DIS_CODE":0,"TOWNNAME":"永康區","LI":"永康里","LIN":"30鄰","STREET":"永大路","SECT":"二段","MAREA":" ","LANE":" ","ALLEY":" ","HOUSE_NO":"９１１號","E_COORD97":174244.48999999999,"N_COORD97":2547060.1400000001,"ADDRESS":"永大路二段９１１號","OBJECTID":143663},"geometry":{"x":174244.49000000022,"y":2547060.1400000006}},{"attributes":{"ID":143664,"DIS_CODE":0,"TOWNNAME":"安南區","LI":"安富里","LIN":"22鄰","STREET":"郡安路","SECT":"五段","MAREA":" ","LANE":"１６４巷","ALLEY":"１０弄","HOUSE_NO":"５號","E_COORD97":167644.35999999999,"N_COORD97":2547571.2999999998,"ADDRESS":"郡安路五段１６４巷１０弄５號","OBJECTID":143664},"geometry":{"x":167644.36000000034,"y":2547571.3000000007}},{"attributes":{"ID":143665,"DIS_CODE":0,"TOWNNAME":"安南區","LI":"安富里","LIN":"22鄰","STREET":"郡安路","SECT":"五段","MAREA":" ","LANE":"１６４巷","ALLEY":"１０弄","HOUSE_NO":"７號","E_COORD97":167638.39999999999,"N_COORD97":2547571.7599999998,"ADDRESS":"郡安路五段１６４巷１０弄７號","OBJECTID":143665},"geometry":{"x":167638.4000000013,"y":2547571.7599999979}},{"attributes":{"ID":143666,"DIS_CODE":0,"TOWNNAME":"安南區","LI":"安富里","LIN":"22鄰","STREET":"郡安路","SECT":"五段","MAREA":" ","LANE":"１６４巷","ALLEY":"１０弄","HOUSE_NO":"９號","E_COORD97":167630.14000000001,"N_COORD97":2547568.3300000001,"ADDRESS":"郡安路五段１６４巷１０弄９號","OBJECTID":143666},"geometry":{"x":167630.13999999966,"y":2547568.3300000038}},{"attributes":{"ID":143667,"DIS_CODE":0,"TOWNNAME":"安南區","LI":"安富里","LIN":"22鄰","STREET":"郡安路","SECT":"五段","MAREA":" ","LANE":"１６４巷","ALLEY":"９弄","HOUSE_NO":"１０號","E_COORD97":167707.39999999999,"N_COORD97":2547582.2799999998,"ADDRESS":"郡安路五段１６４巷９弄１０號","OBJECTID":143667},"geometry":{"x":167707.39999999944,"y":2547582.2800000012}},{"attributes":{"ID":143668,"DIS_CODE":0,"TOWNNAME":"永康區","LI":"永康里","LIN":"30鄰","STREET":"永大路","SECT":"二段","MAREA":" ","LANE":" ","ALLEY":" ","HOUSE_NO":"９４１號","E_COORD97":174224.98000000001,"N_COORD97":2547103.77,"ADDRESS":"永大路二段９４１號","OBJECTID":143668},"geometry":{"x":174224.97999999952,"y":2547103.7700000033}},{"attributes":{"ID":143669,"DIS_CODE":0,"TOWNNAME":"安南區","LI":"安富里","LIN":"22鄰","STREET":"郡安路","SECT":"五段","MAREA":" ","LANE":"１６４巷","ALLEY":"９弄","HOUSE_NO":"１１號","E_COORD97":167709.45999999999,"N_COORD97":2547604.9700000002,"ADDRESS":"郡安路五段１６４巷９弄１１號","OBJECTID":143669},"geometry":{"x":167709.45999999996,"y":2547604.9700000007}},{"attributes":{"ID":143670,"DIS_CODE":0,"TOWNNAME":"安南區","LI":"安富里","LIN":"22鄰","STREET":"郡安路","SECT":"五段","MAREA":" ","LANE":"１６４巷","ALLEY":"９弄","HOUSE_NO":"１３號","E_COORD97":167718.87,"N_COORD97":2547606.5699999998,"ADDRESS":"郡安路五段１６４巷９弄１３號","OBJECTID":143670},"geometry":{"x":167718.87000000011,"y":2547606.5700000003}},{"attributes":{"ID":143671,"DIS_CODE":0,"TOWNNAME":"安南區","LI":"安富里","LIN":"22鄰","STREET":"郡安路","SECT":"五段","MAREA":" ","LANE":"１６４巷","ALLEY":"９弄","HOUSE_NO":"１５號","E_COORD97":167725.51999999999,"N_COORD97":2547608.1699999999,"ADDRESS":"郡安路五段１６４巷９弄１５號","OBJECTID":143671},"geometry":{"x":167725.51999999955,"y":2547608.1700000018}},{"attributes":{"ID":143672,"DIS_CODE":0,"TOWNNAME":"安南區","LI":"安富里","LIN":"22鄰","STREET":"郡安路","SECT":"五段","MAREA":" ","LANE":"１６４巷","ALLEY":"９弄","HOUSE_NO":"１６號","E_COORD97":167729.64999999999,"N_COORD97":2547587.3199999998,"ADDRESS":"郡安路五段１６４巷９弄１６號","OBJECTID":143672},"geometry":{"x":167729.65000000224,"y":2547587.3200000022}},{"attributes":{"ID":143673,"DIS_CODE":0,"TOWNNAME":"永康區","LI":"永康里","LIN":"30鄰","STREET":"永大路","SECT":"二段","MAREA":" ","LANE":" ","ALLEY":" ","HOUSE_NO":"９０３號","E_COORD97":174249.70999999999,"N_COORD97":2547029.23,"ADDRESS":"永大路二段９０３號","OBJECTID":143673},"geometry":{"x":174249.70999999996,"y":2547029.2300000004}},{"attributes":{"ID":143674,"DIS_CODE":0,"TOWNNAME":"安南區","LI":"溪頂里","LIN":"30鄰","STREET":"郡安路","SECT":"四段","MAREA":" ","LANE":" ","ALLEY":" ","HOUSE_NO":"１０８號","E_COORD97":168934.79000000001,"N_COORD97":2547603.3799999999,"ADDRESS":"郡安路四段１０８號","OBJECTID":143674},"geometry":{"x":168934.79000000004,"y":2547603.379999999}},{"attributes":{"ID":143675,"DIS_CODE":0,"TOWNNAME":"安南區","LI":"安富里","LIN":"22鄰","STREET":"郡安路","SECT":"五段","MAREA":" ","LANE":"１６４巷","ALLEY":"９弄","HOUSE_NO":"１７號","E_COORD97":167730.10999999999,"N_COORD97":2547609.5499999998,"ADDRESS":"郡安路五段１６４巷９弄１７號","OBJECTID":143675},"geometry":{"x":167730.11000000127,"y":2547609.5500000026}},{"attributes":{"ID":143676,"DIS_CODE":0,"TOWNNAME":"永康區","LI":"正強里","LIN":"30鄰","STREET":"正強街","SECT":" ","MAREA":" ","LANE":"２１５巷","ALLEY":" ","HOUSE_NO":"９０號","E_COORD97":173156.92000000001,"N_COORD97":2547698.5,"ADDRESS":"正強街２１５巷９０號","OBJECTID":143676},"geometry":{"x":173156.92000000179,"y":2547698.5}},{"attributes":{"ID":143677,"DIS_CODE":0,"TOWNNAME":"新化區","LI":"中央里","LIN":"4鄰","STREET":"大同街","SECT":" ","MAREA":" ","LANE":" ","ALLEY":" ","HOUSE_NO":"１１２號","E_COORD97":178978.82999999999,"N_COORD97":2548369.25,"ADDRESS":"大同街１１２號","OBJECTID":143677},"geometry":{"x":178978.83000000007,"y":2548369.2500000037}},{"attributes":{"ID":143678,"DIS_CODE":0,"TOWNNAME":"佳里區","LI":"安西里","LIN":"30鄰","STREET":" ","SECT":" ","MAREA":"安西","LANE":" ","ALLEY":" ","HOUSE_NO":"７１號之１０","E_COORD97":164713.60999999999,"N_COORD97":2563542.6899999999,"ADDRESS":"安西７１號之１０","OBJECTID":143678},"geometry":{"x":164713.61000000034,"y":2563542.6899999995}},{"attributes":{"ID":143679,"DIS_CODE":0,"TOWNNAME":"佳里區","LI":"安西里","LIN":"30鄰","STREET":" ","SECT":" ","MAREA":"安西","LANE":" ","ALLEY":" ","HOUSE_NO":"７１號之１","E_COORD97":164556.51999999999,"N_COORD97":2563583.7200000002,"ADDRESS":"安西７１號之１","OBJECTID":143679},"geometry":{"x":164556.52000000048,"y":2563583.7200000025}},{"attributes":{"ID":143680,"DIS_CODE":0,"TOWNNAME":"佳里區","LI":"安西里","LIN":"30鄰","STREET":" ","SECT":" ","MAREA":"安西","LANE":" ","ALLEY":" ","HOUSE_NO":"７１號之２０","E_COORD97":164865.76999999999,"N_COORD97":2563387.9199999999,"ADDRESS":"安西７１號之２０","OBJECTID":143680},"geometry":{"x":164865.76999999955,"y":2563387.9200000018}},{"attributes":{"ID":143681,"DIS_CODE":0,"TOWNNAME":"佳里區","LI":"安西里","LIN":"30鄰","STREET":" ","SECT":" ","MAREA":"安西","LANE":" ","ALLEY":" ","HOUSE_NO":"７１號之２１","E_COORD97":164842.78,"N_COORD97":2563423.0499999998,"ADDRESS":"安西７１號之２１","OBJECTID":143681},"geometry":{"x":164842.78000000026,"y":2563423.0500000007}},{"attributes":{"ID":143682,"DIS_CODE":0,"TOWNNAME":"佳里區","LI":"安西里","LIN":"30鄰","STREET":" ","SECT":" ","MAREA":"安西","LANE":" ","ALLEY":" ","HOUSE_NO":"７１號之２","E_COORD97":164729.56,"N_COORD97":2563493.4300000002,"ADDRESS":"安西７１號之２","OBJECTID":143682},"geometry":{"x":164729.56000000052,"y":2563493.4300000016}},{"attributes":{"ID":143683,"DIS_CODE":0,"TOWNNAME":"佳里區","LI":"安西里","LIN":"30鄰","STREET":" ","SECT":" ","MAREA":"安西","LANE":" ","ALLEY":" ","HOUSE_NO":"７１號之４","E_COORD97":164666.37,"N_COORD97":2563504.1600000001,"ADDRESS":"安西７１號之４","OBJECTID":143683},"geometry":{"x":164666.37000000197,"y":2563504.1600000001}},{"attributes":{"ID":143684,"DIS_CODE":0,"TOWNNAME":"佳里區","LI":"安西里","LIN":"30鄰","STREET":" ","SECT":" ","MAREA":"安西","LANE":" ","ALLEY":" ","HOUSE_NO":"７１號","E_COORD97":164749.54000000001,"N_COORD97":2563418.7400000002,"ADDRESS":"安西７１號","OBJECTID":143684},"geometry":{"x":164749.54000000004,"y":2563418.7400000002}},{"attributes":{"ID":143685,"DIS_CODE":0,"TOWNNAME":"佳里區","LI":"安西里","LIN":"30鄰","STREET":" ","SECT":" ","MAREA":"安西","LANE":" ","ALLEY":" ","HOUSE_NO":"７６號之２","E_COORD97":164991.01000000001,"N_COORD97":2563049.8500000001,"ADDRESS":"安西７６號之２","OBJECTID":143685},"geometry":{"x":164991.01000000071,"y":2563049.8500000015}},{"attributes":{"ID":143686,"DIS_CODE":0,"TOWNNAME":"安定區","LI":"新吉里","LIN":"8鄰","STREET":" ","SECT":" ","MAREA":"新吉","LANE":" ","ALLEY":" ","HOUSE_NO":"６３號之２","E_COORD97":169124.73999999999,"N_COORD97":2553908.2999999998,"ADDRESS":"新吉６３號之２","OBJECTID":143686},"geometry":{"x":169124.74000000115,"y":2553908.3000000007}},{"attributes":{"ID":143687,"DIS_CODE":0,"TOWNNAME":"安定區","LI":"新吉里","LIN":"7鄰","STREET":" ","SECT":" ","MAREA":"新吉","LANE":" ","ALLEY":" ","HOUSE_NO":"５５之３２號","E_COORD97":168786.51999999999,"N_COORD97":2553868.2999999998,"ADDRESS":"新吉５５之３２號","OBJECTID":143687},"geometry":{"x":168786.51999999955,"y":2553868.3000000007}},{"attributes":{"ID":143688,"DIS_CODE":0,"TOWNNAME":"安定區","LI":"新吉里","LIN":"7鄰","STREET":" ","SECT":" ","MAREA":"新吉","LANE":" ","ALLEY":" ","HOUSE_NO":"５６之６８號","E_COORD97":168441.62,"N_COORD97":2553612.2999999998,"ADDRESS":"新吉５６之６８號","OBJECTID":143688},"geometry":{"x":168441.62000000104,"y":2553612.3000000026}},{"attributes":{"ID":143689,"DIS_CODE":0,"TOWNNAME":"安定區","LI":"港南里","LIN":"4鄰","STREET":" ","SECT":" ","MAREA":"港口","LANE":" ","ALLEY":" ","HOUSE_NO":"２５之５８號","E_COORD97":171562.59,"N_COORD97":2554013.2999999998,"ADDRESS":"港口２５之５８號","OBJECTID":143689},"geometry":{"x":171562.59000000078,"y":2554013.3000000007}},{"attributes":{"ID":143690,"DIS_CODE":0,"TOWNNAME":"安南區","LI":"安富里","LIN":"22鄰","STREET":"郡安路","SECT":"五段","MAREA":" ","LANE":"１６４巷","ALLEY":"９弄","HOUSE_NO":"１８號","E_COORD97":167734.23999999999,"N_COORD97":2547590.0600000001,"ADDRESS":"郡安路五段１６４巷９弄１８號","OBJECTID":143690},"geometry":{"x":167734.24000000115,"y":2547590.0600000005}},{"attributes":{"ID":143691,"DIS_CODE":0,"TOWNNAME":"安南區","LI":"安富里","LIN":"22鄰","STREET":"郡安路","SECT":"五段","MAREA":" ","LANE":"１６４巷","ALLEY":"９弄","HOUSE_NO":"１９號","E_COORD97":167735.38,"N_COORD97":2547609.3199999998,"ADDRESS":"郡安路五段１６４巷９弄１９號","OBJECTID":143691},"geometry":{"x":167735.37999999989,"y":2547609.320000004}},{"attributes":{"ID":143692,"DIS_CODE":0,"TOWNNAME":"安南區","LI":"安富里","LIN":"22鄰","STREET":"郡安路","SECT":"五段","MAREA":" ","LANE":"１６４巷","ALLEY":"９弄","HOUSE_NO":"１號","E_COORD97":167674.60000000001,"N_COORD97":2547597.6400000001,"ADDRESS":"郡安路五段１６４巷９弄１號","OBJECTID":143692},"geometry":{"x":167674.59999999963,"y":2547597.6400000043}},{"attributes":{"ID":143693,"DIS_CODE":0,"TOWNNAME":"安南區","LI":"安富里","LIN":"22鄰","STREET":"郡安路","SECT":"五段","MAREA":" ","LANE":"１６４巷","ALLEY":"９弄","HOUSE_NO":"２１號","E_COORD97":167740.89000000001,"N_COORD97":2547611.6099999999,"ADDRESS":"郡安路五段１６４巷９弄２１號","OBJECTID":143693},"geometry":{"x":167740.8900000006,"y":2547611.6099999994}},{"attributes":{"ID":143694,"DIS_CODE":0,"TOWNNAME":"安南區","LI":"安富里","LIN":"22鄰","STREET":"郡安路","SECT":"五段","MAREA":" ","LANE":"１６４巷","ALLEY":"９弄","HOUSE_NO":"２２號","E_COORD97":167744.56,"N_COORD97":2547591.4399999999,"ADDRESS":"郡安路五段１６４巷９弄２２號","OBJECTID":143694},"geometry":{"x":167744.56000000145,"y":2547591.4400000013}},{"attributes":{"ID":143695,"DIS_CODE":0,"TOWNNAME":"安南區","LI":"安富里","LIN":"22鄰","STREET":"郡安路","SECT":"五段","MAREA":" ","LANE":"１６４巷","ALLEY":"９弄","HOUSE_NO":"２３號","E_COORD97":167745.92999999999,"N_COORD97":2547609.3199999998,"ADDRESS":"郡安路五段１６４巷９弄２３號","OBJECTID":143695},"geometry":{"x":167745.93000000063,"y":2547609.320000004}},{"attributes":{"ID":143696,"DIS_CODE":0,"TOWNNAME":"安南區","LI":"安富里","LIN":"22鄰","STREET":"郡安路","SECT":"五段","MAREA":" ","LANE":"１６４巷","ALLEY":"９弄","HOUSE_NO":"２４號","E_COORD97":167749.82999999999,"N_COORD97":2547589.8300000001,"ADDRESS":"郡安路五段１６４巷９弄２４號","OBJECTID":143696},"geometry":{"x":167749.83000000007,"y":2547589.8300000019}},{"attributes":{"ID":143697,"DIS_CODE":0,"TOWNNAME":"安南區","LI":"安富里","LIN":"22鄰","STREET":"郡安路","SECT":"五段","MAREA":" ","LANE":"１６４巷","ALLEY":"９弄","HOUSE_NO":"２５號","E_COORD97":167750.29000000001,"N_COORD97":2547613.8999999999,"ADDRESS":"郡安路五段１６４巷９弄２５號","OBJECTID":143697},"geometry":{"x":167750.2900000019,"y":2547613.9000000022}},{"attributes":{"ID":143698,"DIS_CODE":0,"TOWNNAME":"安南區","LI":"安富里","LIN":"22鄰","STREET":"郡安路","SECT":"五段","MAREA":" ","LANE":"１６４巷","ALLEY":"９弄","HOUSE_NO":"２６號","E_COORD97":167754.64999999999,"N_COORD97":2547592.1200000001,"ADDRESS":"郡安路五段１６４巷９弄２６號","OBJECTID":143698},"geometry":{"x":167754.65000000037,"y":2547592.1200000029}},{"attributes":{"ID":143699,"DIS_CODE":0,"TOWNNAME":"安南區","LI":"安富里","LIN":"22鄰","STREET":"郡安路","SECT":"五段","MAREA":" ","LANE":"１６４巷","ALLEY":"９弄","HOUSE_NO":"２８號","E_COORD97":167759.23999999999,"N_COORD97":2547593.96,"ADDRESS":"郡安路五段１６４巷９弄２８號","OBJECTID":143699},"geometry":{"x":167759.24000000209,"y":2547593.9600000009}},{"attributes":{"ID":143700,"DIS_CODE":0,"TOWNNAME":"安南區","LI":"安富里","LIN":"22鄰","STREET":"郡安路","SECT":"五段","MAREA":" ","LANE":"１６４巷","ALLEY":"９弄","HOUSE_NO":"３號","E_COORD97":167681.01999999999,"N_COORD97":2547597.4100000001,"ADDRESS":"郡安路五段１６４巷９弄３號","OBJECTID":143700},"geometry":{"x":167681.02000000048,"y":2547597.4100000001}},{"attributes":{"ID":143701,"DIS_CODE":0,"TOWNNAME":"安南區","LI":"安富里","LIN":"22鄰","STREET":"郡安路","SECT":"五段","MAREA":" ","LANE":"１６４巷","ALLEY":"９弄","HOUSE_NO":"５號","E_COORD97":167689.04999999999,"N_COORD97":2547598.5600000001,"ADDRESS":"郡安路五段１６４巷９弄５號","OBJECTID":143701},"geometry":{"x":167689.05000000168,"y":2547598.5600000024}},{"attributes":{"ID":143702,"DIS_CODE":0,"TOWNNAME":"安南區","LI":"安富里","LIN":"22鄰","STREET":"郡安路","SECT":"五段","MAREA":" ","LANE":"１６４巷","ALLEY":"９弄","HOUSE_NO":"６號","E_COORD97":167693.17999999999,"N_COORD97":2547579.9900000002,"ADDRESS":"郡安路五段１６４巷９弄６號","OBJECTID":143702},"geometry":{"x":167693.18000000063,"y":2547579.9900000002}},{"attributes":{"ID":143703,"DIS_CODE":0,"TOWNNAME":"安南區","LI":"安富里","LIN":"22鄰","STREET":"郡安路","SECT":"五段","MAREA":" ","LANE":"１６４巷","ALLEY":"９弄","HOUSE_NO":"７號","E_COORD97":167695.23999999999,"N_COORD97":2547600.8500000001,"ADDRESS":"郡安路五段１６４巷９弄７號","OBJECTID":143703},"geometry":{"x":167695.24000000115,"y":2547600.8499999996}},{"attributes":{"ID":143704,"DIS_CODE":0,"TOWNNAME":"安南區","LI":"安富里","LIN":"22鄰","STREET":"郡安路","SECT":"五段","MAREA":" ","LANE":"１６４巷","ALLEY":"９弄","HOUSE_NO":"８號","E_COORD97":167698.67999999999,"N_COORD97":2547581.8199999998,"ADDRESS":"郡安路五段１６４巷９弄８號","OBJECTID":143704},"geometry":{"x":167698.68000000063,"y":2547581.8200000003}},{"attributes":{"ID":143705,"DIS_CODE":0,"TOWNNAME":"永康區","LI":"勝利里","LIN":"22鄰","STREET":"勝華街","SECT":" ","MAREA":" ","LANE":"３７巷","ALLEY":"３７弄","HOUSE_NO":"２７號","E_COORD97":171488.91,"N_COORD97":2545179.2599999998,"ADDRESS":"勝華街３７巷３７弄２７號","OBJECTID":143705},"geometry":{"x":171488.91000000015,"y":2545179.2600000016}},{"attributes":{"ID":143706,"DIS_CODE":0,"TOWNNAME":"永康區","LI":"勝利里","LIN":"22鄰","STREET":"勝華街","SECT":" ","MAREA":" ","LANE":"３７巷","ALLEY":"３７弄","HOUSE_NO":"１５號","E_COORD97":171486.79000000001,"N_COORD97":2545153.75,"ADDRESS":"勝華街３７巷３７弄１５號","OBJECTID":143706},"geometry":{"x":171486.79000000097,"y":2545153.75}},{"attributes":{"ID":143707,"DIS_CODE":0,"TOWNNAME":"永康區","LI":"勝利里","LIN":"22鄰","STREET":"勝華街","SECT":" ","MAREA":" ","LANE":"３７巷","ALLEY":"３７弄","HOUSE_NO":"３５號","E_COORD97":171505.26999999999,"N_COORD97":2545182.0099999998,"ADDRESS":"勝華街３７巷３７弄３５號","OBJECTID":143707},"geometry":{"x":171505.27000000048,"y":2545182.0099999998}},{"attributes":{"ID":143708,"DIS_CODE":0,"TOWNNAME":"永康區","LI":"勝利里","LIN":"22鄰","STREET":"勝華街","SECT":" ","MAREA":" ","LANE":"３７巷","ALLEY":"３７弄","HOUSE_NO":"４７號","E_COORD97":171503.82000000001,"N_COORD97":2545157,"ADDRESS":"勝華街３７巷３７弄４７號","OBJECTID":143708},"geometry":{"x":171503.82000000123,"y":2545157.0000000019}},{"attributes":{"ID":143709,"DIS_CODE":0,"TOWNNAME":"永康區","LI":"勝利里","LIN":"22鄰","STREET":"勝華街","SECT":" ","MAREA":" ","LANE":"３７巷","ALLEY":"３７弄","HOUSE_NO":"１１號","E_COORD97":171486.32999999999,"N_COORD97":2545145.25,"ADDRESS":"勝華街３７巷３７弄１１號","OBJECTID":143709},"geometry":{"x":171486.33000000194,"y":2545145.2500000019}},{"attributes":{"ID":143710,"DIS_CODE":0,"TOWNNAME":"永康區","LI":"勝利里","LIN":"22鄰","STREET":"勝華街","SECT":" ","MAREA":" ","LANE":"３７巷","ALLEY":"３７弄","HOUSE_NO":"６３號","E_COORD97":171504.51000000001,"N_COORD97":2545123.25,"ADDRESS":"勝華街３７巷３７弄６３號","OBJECTID":143710},"geometry":{"x":171504.50999999978,"y":2545123.25}},{"attributes":{"ID":143711,"DIS_CODE":0,"TOWNNAME":"永康區","LI":"勝利里","LIN":"22鄰","STREET":"勝華街","SECT":" ","MAREA":" ","LANE":"３７巷","ALLEY":"３７弄","HOUSE_NO":"２３號","E_COORD97":171488.35000000001,"N_COORD97":2545170.2599999998,"ADDRESS":"勝華街３７巷３７弄２３號","OBJECTID":143711},"geometry":{"x":171488.34999999963,"y":2545170.2599999998}},{"attributes":{"ID":143712,"DIS_CODE":0,"TOWNNAME":"永康區","LI":"勝利里","LIN":"22鄰","STREET":"勝華街","SECT":" ","MAREA":" ","LANE":"３７巷","ALLEY":"３７弄","HOUSE_NO":"５１號","E_COORD97":171503.14999999999,"N_COORD97":2545148.75,"ADDRESS":"勝華街３７巷３７弄５１號","OBJECTID":143712},"geometry":{"x":171503.15000000224,"y":2545148.7500000019}},{"attributes":{"ID":143713,"DIS_CODE":0,"TOWNNAME":"永康區","LI":"勝利里","LIN":"22鄰","STREET":"勝華街","SECT":" ","MAREA":" ","LANE":"３７巷","ALLEY":"３７弄","HOUSE_NO":"３１號","E_COORD97":171489.91,"N_COORD97":2545187.2599999998,"ADDRESS":"勝華街３７巷３７弄３１號","OBJECTID":143713},"geometry":{"x":171489.91000000108,"y":2545187.2599999998}},{"attributes":{"ID":143714,"DIS_CODE":0,"TOWNNAME":"永康區","LI":"北灣里","LIN":"22鄰","STREET":"大灣路","SECT":" ","MAREA":" ","LANE":"４０巷","ALLEY":"９８弄","HOUSE_NO":"７８號","E_COORD97":174969.79999999999,"N_COORD97":2546321.0600000001,"ADDRESS":"大灣路４０巷９８弄７８號","OBJECTID":143714},"geometry":{"x":174969.80000000168,"y":2546321.0600000024}},{"attributes":{"ID":143715,"DIS_CODE":0,"TOWNNAME":"安定區","LI":"安定里","LIN":"4鄰","STREET":" ","SECT":" ","MAREA":"安定","LANE":" ","ALLEY":" ","HOUSE_NO":"１３之２號","E_COORD97":172677.30384899999,"N_COORD97":2558121.7360999999,"ADDRESS":"安定１３號之２","OBJECTID":143715},"geometry":{"x":172677.30384900048,"y":2558121.7360979989}},{"attributes":{"ID":143716,"DIS_CODE":0,"TOWNNAME":"永康區","LI":"北灣里","LIN":"22鄰","STREET":"大灣路","SECT":" ","MAREA":" ","LANE":"４０巷","ALLEY":"９８弄","HOUSE_NO":"８０號","E_COORD97":174966.69,"N_COORD97":2546323.71,"ADDRESS":"大灣路４０巷９８弄８０號","OBJECTID":143716},"geometry":{"x":174966.69000000134,"y":2546323.7100000028}},{"attributes":{"ID":143717,"DIS_CODE":0,"TOWNNAME":"中西區","LI":"西賢里","LIN":"22鄰","STREET":"西賢一街","SECT":" ","MAREA":" ","LANE":"２３５巷","ALLEY":"２０弄","HOUSE_NO":"１０號","E_COORD97":165650.98999999999,"N_COORD97":2545045.29,"ADDRESS":"西賢一街２３５巷２０弄１０號","OBJECTID":143717},"geometry":{"x":165650.99000000115,"y":2545045.2900000028}},{"attributes":{"ID":143718,"DIS_CODE":0,"TOWNNAME":"中西區","LI":"西賢里","LIN":"22鄰","STREET":"西賢一街","SECT":" ","MAREA":" ","LANE":"２３５巷","ALLEY":"２０弄","HOUSE_NO":"１１號","E_COORD97":165632.42000000001,"N_COORD97":2545051.7400000002,"ADDRESS":"西賢一街２３５巷２０弄１１號","OBJECTID":143718},"geometry":{"x":165632.42000000086,"y":2545051.7400000021}},{"attributes":{"ID":143719,"DIS_CODE":0,"TOWNNAME":"中西區","LI":"西賢里","LIN":"22鄰","STREET":"西賢一街","SECT":" ","MAREA":" ","LANE":"２３５巷","ALLEY":"２０弄","HOUSE_NO":"１２號","E_COORD97":165651.78,"N_COORD97":2545049.5899999999,"ADDRESS":"西賢一街２３５巷２０弄１２號","OBJECTID":143719},"geometry":{"x":165651.78000000026,"y":2545049.5899999999}},{"attributes":{"ID":143720,"DIS_CODE":0,"TOWNNAME":"中西區","LI":"西賢里","LIN":"22鄰","STREET":"西賢一街","SECT":" ","MAREA":" ","LANE":"２３５巷","ALLEY":"２０弄","HOUSE_NO":"１３號","E_COORD97":165632.98999999999,"N_COORD97":2545056.1499999999,"ADDRESS":"西賢一街２３５巷２０弄１３號","OBJECTID":143720},"geometry":{"x":165632.99000000022,"y":2545056.1500000004}},{"attributes":{"ID":143721,"DIS_CODE":0,"TOWNNAME":"中西區","LI":"西賢里","LIN":"22鄰","STREET":"西賢一街","SECT":" ","MAREA":" ","LANE":"２３５巷","ALLEY":"２０弄","HOUSE_NO":"１６號","E_COORD97":165652.75,"N_COORD97":2545054.6600000001,"ADDRESS":"西賢一街２３５巷２０弄１６號","OBJECTID":143721},"geometry":{"x":165652.75,"y":2545054.660000002}},{"attributes":{"ID":143722,"DIS_CODE":0,"TOWNNAME":"中西區","LI":"西賢里","LIN":"22鄰","STREET":"西賢一街","SECT":" ","MAREA":" ","LANE":"２３５巷","ALLEY":"２０弄","HOUSE_NO":"１號","E_COORD97":165632.82000000001,"N_COORD97":2545028.8999999999,"ADDRESS":"西賢一街２３５巷２０弄１號","OBJECTID":143722},"geometry":{"x":165632.8200000003,"y":2545028.9000000041}},{"attributes":{"ID":143723,"DIS_CODE":0,"TOWNNAME":"中西區","LI":"西賢里","LIN":"22鄰","STREET":"西賢一街","SECT":" ","MAREA":" ","LANE":"２３５巷","ALLEY":"２０弄","HOUSE_NO":"２號","E_COORD97":165650.20999999999,"N_COORD97":2545031.6299999999,"ADDRESS":"西賢一街２３５巷２０弄２號","OBJECTID":143723},"geometry":{"x":165650.20999999996,"y":2545031.629999999}},{"attributes":{"ID":143724,"DIS_CODE":0,"TOWNNAME":"中西區","LI":"西賢里","LIN":"22鄰","STREET":"西賢一街","SECT":" ","MAREA":" ","LANE":"２３５巷","ALLEY":"２０弄","HOUSE_NO":"３號","E_COORD97":165632.82000000001,"N_COORD97":2545033.3900000001,"ADDRESS":"西賢一街２３５巷２０弄３號","OBJECTID":143724},"geometry":{"x":165632.8200000003,"y":2545033.3900000025}},{"attributes":{"ID":143725,"DIS_CODE":0,"TOWNNAME":"安定區","LI":"港南里","LIN":"4鄰","STREET":" ","SECT":" ","MAREA":"港口","LANE":" ","ALLEY":" ","HOUSE_NO":"２５之４８號","E_COORD97":171547.19,"N_COORD97":2554023.2999999998,"ADDRESS":"港口２５之４８號","OBJECTID":143725},"geometry":{"x":171547.19000000134,"y":2554023.3000000007}},{"attributes":{"ID":143726,"DIS_CODE":0,"TOWNNAME":"安定區","LI":"港南里","LIN":"4鄰","STREET":" ","SECT":" ","MAREA":"港口","LANE":" ","ALLEY":" ","HOUSE_NO":"２５之５３號","E_COORD97":171525.79000000001,"N_COORD97":2554021.2999999998,"ADDRESS":"港口２５之５３號","OBJECTID":143726},"geometry":{"x":171525.79000000097,"y":2554021.3000000045}},{"attributes":{"ID":143727,"DIS_CODE":0,"TOWNNAME":"安定區","LI":"港南里","LIN":"4鄰","STREET":" ","SECT":" ","MAREA":"港口","LANE":" ","ALLEY":" ","HOUSE_NO":"２５之６２號","E_COORD97":171572.98999999999,"N_COORD97":2553993.2999999998,"ADDRESS":"港口２５之６２號","OBJECTID":143727},"geometry":{"x":171572.99000000022,"y":2553993.3000000007}},{"attributes":{"ID":143728,"DIS_CODE":0,"TOWNNAME":"安定區","LI":"港南里","LIN":"4鄰","STREET":" ","SECT":" ","MAREA":"港口","LANE":" ","ALLEY":" ","HOUSE_NO":"３１號","E_COORD97":171570.94,"N_COORD97":2554141.25,"ADDRESS":"港口３１號","OBJECTID":143728},"geometry":{"x":171570.94000000134,"y":2554141.25}},{"attributes":{"ID":143729,"DIS_CODE":0,"TOWNNAME":"安定區","LI":"港南里","LIN":"4鄰","STREET":" ","SECT":" ","MAREA":"港口","LANE":" ","ALLEY":" ","HOUSE_NO":"２５之３８號","E_COORD97":171553.19,"N_COORD97":2554054.2999999998,"ADDRESS":"港口２５之３８號","OBJECTID":143729},"geometry":{"x":171553.19000000041,"y":2554054.3000000007}},{"attributes":{"ID":143730,"DIS_CODE":0,"TOWNNAME":"安定區","LI":"港南里","LIN":"4鄰","STREET":" ","SECT":" ","MAREA":"港口","LANE":" ","ALLEY":" ","HOUSE_NO":"２５之４３號","E_COORD97":171565.19,"N_COORD97":2554026.2999999998,"ADDRESS":"港口２５之４３號","OBJECTID":143730},"geometry":{"x":171565.19000000041,"y":2554026.3000000026}},{"attributes":{"ID":143731,"DIS_CODE":0,"TOWNNAME":"安定區","LI":"港南里","LIN":"18鄰","STREET":" ","SECT":" ","MAREA":"港口","LANE":" ","ALLEY":" ","HOUSE_NO":"２４１號之７","E_COORD97":171819,"N_COORD97":2554436.2999999998,"ADDRESS":"港口２４１號之７","OBJECTID":143731},"geometry":{"x":171819.00000000186,"y":2554436.3000000026}},{"attributes":{"ID":143732,"DIS_CODE":0,"TOWNNAME":"安定區","LI":"蘇林里","LIN":"24鄰","STREET":" ","SECT":" ","MAREA":"蘇厝","LANE":" ","ALLEY":" ","HOUSE_NO":"２７３號之１","E_COORD97":173358.75,"N_COORD97":2558631.2999999998,"ADDRESS":"蘇厝２７３號之１","OBJECTID":143732},"geometry":{"x":173358.75000000093,"y":2558631.3000000007}},{"attributes":{"ID":143733,"DIS_CODE":0,"TOWNNAME":"安定區","LI":"港南里","LIN":"4鄰","STREET":" ","SECT":" ","MAREA":"港口","LANE":" ","ALLEY":" ","HOUSE_NO":"２７之７號","E_COORD97":171520.94,"N_COORD97":2554002.2999999998,"ADDRESS":"港口２７之７號","OBJECTID":143733},"geometry":{"x":171520.94000000041,"y":2554002.3000000026}},{"attributes":{"ID":143734,"DIS_CODE":0,"TOWNNAME":"安定區","LI":"港南里","LIN":"4鄰","STREET":" ","SECT":" ","MAREA":"港口","LANE":" ","ALLEY":" ","HOUSE_NO":"２７之４號","E_COORD97":171533.04000000001,"N_COORD97":2553995.2999999998,"ADDRESS":"港口２７之４號","OBJECTID":143734},"geometry":{"x":171533.04000000097,"y":2553995.3000000026}},{"attributes":{"ID":143735,"DIS_CODE":0,"TOWNNAME":"安定區","LI":"大同里","LIN":"4鄰","STREET":" ","SECT":" ","MAREA":"大同","LANE":" ","ALLEY":" ","HOUSE_NO":"３６之１號","E_COORD97":170463.57000000001,"N_COORD97":2553951.2999999998,"ADDRESS":"大同３６之１號","OBJECTID":143735},"geometry":{"x":170463.5700000003,"y":2553951.3000000026}},{"attributes":{"ID":143736,"DIS_CODE":0,"TOWNNAME":"安定區","LI":"安定里","LIN":"4鄰","STREET":" ","SECT":" ","MAREA":"安定","LANE":" ","ALLEY":" ","HOUSE_NO":"７號","E_COORD97":172608.372645,"N_COORD97":2558105.9088099999,"ADDRESS":"安定７號","OBJECTID":143736},"geometry":{"x":172608.37264500093,"y":2558105.9088080022}},{"attributes":{"ID":143737,"DIS_CODE":0,"TOWNNAME":"安定區","LI":"大同里","LIN":"4鄰","STREET":" ","SECT":" ","MAREA":"大同","LANE":" ","ALLEY":" ","HOUSE_NO":"３７號","E_COORD97":170450.47,"N_COORD97":2553942.25,"ADDRESS":"大同３７號","OBJECTID":143737},"geometry":{"x":170450.46999999974,"y":2553942.25}},{"attributes":{"ID":143738,"DIS_CODE":0,"TOWNNAME":"安定區","LI":"大同里","LIN":"13鄰","STREET":" ","SECT":" ","MAREA":"大同","LANE":" ","ALLEY":" ","HOUSE_NO":"１４８號","E_COORD97":170343.08311199999,"N_COORD97":2553663.1775099998,"ADDRESS":"大同１４８號","OBJECTID":143738},"geometry":{"x":170343.08311200049,"y":2553663.1775060017}},{"attributes":{"ID":143739,"DIS_CODE":0,"TOWNNAME":"安定區","LI":"中沙里","LIN":"4鄰","STREET":" ","SECT":" ","MAREA":"中崙","LANE":" ","ALLEY":" ","HOUSE_NO":"１２５號之３","E_COORD97":169083.25,"N_COORD97":2553162.2999999998,"ADDRESS":"中崙１２５號之３","OBJECTID":143739},"geometry":{"x":169083.25000000093,"y":2553162.3000000007}},{"attributes":{"ID":143740,"DIS_CODE":0,"TOWNNAME":"中西區","LI":"西賢里","LIN":"22鄰","STREET":"西賢一街","SECT":" ","MAREA":" ","LANE":"２３５巷","ALLEY":"２０弄","HOUSE_NO":"５號","E_COORD97":165633.01000000001,"N_COORD97":2545037.6899999999,"ADDRESS":"西賢一街２３５巷２０弄５號","OBJECTID":143740},"geometry":{"x":165633.01000000164,"y":2545037.6900000013}},{"attributes":{"ID":143741,"DIS_CODE":0,"TOWNNAME":"中西區","LI":"西賢里","LIN":"22鄰","STREET":"西賢一街","SECT":" ","MAREA":" ","LANE":"２３５巷","ALLEY":"２０弄","HOUSE_NO":"６號","E_COORD97":165650.79999999999,"N_COORD97":2545036.1200000001,"ADDRESS":"西賢一街２３５巷２０弄６號","OBJECTID":143741},"geometry":{"x":165650.79999999981,"y":2545036.1200000029}},{"attributes":{"ID":143742,"DIS_CODE":0,"TOWNNAME":"中西區","LI":"西賢里","LIN":"22鄰","STREET":"西賢一街","SECT":" ","MAREA":" ","LANE":"２３５巷","ALLEY":"２０弄","HOUSE_NO":"７號","E_COORD97":165632.23000000001,"N_COORD97":2545042.5699999998,"ADDRESS":"西賢一街２３５巷２０弄７號","OBJECTID":143742},"geometry":{"x":165632.23000000231,"y":2545042.5700000022}},{"attributes":{"ID":143743,"DIS_CODE":0,"TOWNNAME":"中西區","LI":"西賢里","LIN":"22鄰","STREET":"西賢一街","SECT":" ","MAREA":" ","LANE":"２３５巷","ALLEY":"２０弄","HOUSE_NO":"８號","E_COORD97":165651.97,"N_COORD97":2545040.6099999999,"ADDRESS":"西賢一街２３５巷２０弄８號","OBJECTID":143743},"geometry":{"x":165651.97000000067,"y":2545040.6100000013}},{"attributes":{"ID":143744,"DIS_CODE":0,"TOWNNAME":"中西區","LI":"西賢里","LIN":"22鄰","STREET":"西賢一街","SECT":" ","MAREA":" ","LANE":"２３５巷","ALLEY":"２０弄","HOUSE_NO":"９號","E_COORD97":165632.42000000001,"N_COORD97":2545046.4700000002,"ADDRESS":"西賢一街２３５巷２０弄９號","OBJECTID":143744},"geometry":{"x":165632.42000000086,"y":2545046.4700000025}},{"attributes":{"ID":143745,"DIS_CODE":0,"TOWNNAME":"東區","LI":"富裕里","LIN":"10鄰","STREET":"東門路","SECT":"二段","MAREA":" ","LANE":"３０１巷","ALLEY":"４３弄","HOUSE_NO":"３之１號","E_COORD97":170816.66,"N_COORD97":2542734.5099999998,"ADDRESS":"東門路二段３０１巷４３弄３之１號","OBJECTID":143745},"geometry":{"x":170816.66000000108,"y":2542734.5099999998}},{"attributes":{"ID":143746,"DIS_CODE":0,"TOWNNAME":"安南區","LI":"\u25A0田里","LIN":"1鄰","STREET":"\u25A0田路","SECT":" ","MAREA":" ","LANE":"３２９巷","ALLEY":"１０弄","HOUSE_NO":"１０號","E_COORD97":161985.88,"N_COORD97":2548044.8999999999,"ADDRESS":"\u25A0田路３２９巷１０弄１０號","OBJECTID":143746},"geometry":{"x":161985.88000000175,"y":2548044.9000000004}},{"attributes":{"ID":143747,"DIS_CODE":0,"TOWNNAME":"安南區","LI":"\u25A0田里","LIN":"1鄰","STREET":"\u25A0田路","SECT":" ","MAREA":" ","LANE":"３２９巷","ALLEY":"１０弄","HOUSE_NO":"１２號","E_COORD97":161981.75,"N_COORD97":2548043.9500000002,"ADDRESS":"\u25A0田路３２９巷１０弄１２號","OBJECTID":143747},"geometry":{"x":161981.75000000186,"y":2548043.9499999993}},{"attributes":{"ID":143748,"DIS_CODE":0,"TOWNNAME":"安南區","LI":"\u25A0田里","LIN":"1鄰","STREET":"\u25A0田路","SECT":" ","MAREA":" ","LANE":"３２９巷","ALLEY":"１０弄","HOUSE_NO":"１３號","E_COORD97":161982.32999999999,"N_COORD97":2548020,"ADDRESS":"\u25A0田路３２９巷１０弄１３號","OBJECTID":143748},"geometry":{"x":161982.33000000007,"y":2548020}},{"attributes":{"ID":143749,"DIS_CODE":0,"TOWNNAME":"安南區","LI":"\u25A0田里","LIN":"1鄰","STREET":"\u25A0田路","SECT":" ","MAREA":" ","LANE":"３２９巷","ALLEY":"１０弄","HOUSE_NO":"１５號","E_COORD97":161977.73000000001,"N_COORD97":2548018.73,"ADDRESS":"\u25A0田路３２９巷１０弄１５號","OBJECTID":143749},"geometry":{"x":161977.73000000138,"y":2548018.7300000004}},{"attributes":{"ID":143750,"DIS_CODE":0,"TOWNNAME":"安南區","LI":"\u25A0田里","LIN":"1鄰","STREET":"\u25A0田路","SECT":" ","MAREA":" ","LANE":"３２９巷","ALLEY":"１０弄","HOUSE_NO":"１６號","E_COORD97":161978.57000000001,"N_COORD97":2548043.1600000001,"ADDRESS":"\u25A0田路３２９巷１０弄１６號","OBJECTID":143750},"geometry":{"x":161978.57000000123,"y":2548043.1600000001}},{"attributes":{"ID":143751,"DIS_CODE":0,"TOWNNAME":"安南區","LI":"\u25A0田里","LIN":"1鄰","STREET":"\u25A0田路","SECT":" ","MAREA":" ","LANE":"３２９巷","ALLEY":"１０弄","HOUSE_NO":"１７號","E_COORD97":161972.95999999999,"N_COORD97":2548017.1499999999,"ADDRESS":"\u25A0田路３２９巷１０弄１７號","OBJECTID":143751},"geometry":{"x":161972.95999999996,"y":2548017.1500000004}},{"attributes":{"ID":143752,"DIS_CODE":0,"TOWNNAME":"安南區","LI":"\u25A0田里","LIN":"1鄰","STREET":"\u25A0田路","SECT":" ","MAREA":" ","LANE":"３２９巷","ALLEY":"１０弄","HOUSE_NO":"１８號","E_COORD97":161974.29000000001,"N_COORD97":2548042.6800000002,"ADDRESS":"\u25A0田路３２９巷１０弄１８號","OBJECTID":143752},"geometry":{"x":161974.29000000004,"y":2548042.6799999997}},{"attributes":{"ID":143753,"DIS_CODE":0,"TOWNNAME":"安南區","LI":"\u25A0田里","LIN":"1鄰","STREET":"\u25A0田路","SECT":" ","MAREA":" ","LANE":"３２９巷","ALLEY":"１０弄","HOUSE_NO":"１９號","E_COORD97":161968.20000000001,"N_COORD97":2548014.6099999999,"ADDRESS":"\u25A0田路３２９巷１０弄１９號","OBJECTID":143753},"geometry":{"x":161968.20000000019,"y":2548014.6100000013}},{"attributes":{"ID":143754,"DIS_CODE":0,"TOWNNAME":"安定區","LI":"港尾里","LIN":"4鄰","STREET":" ","SECT":" ","MAREA":"港子尾","LANE":" ","ALLEY":" ","HOUSE_NO":"１６號之１","E_COORD97":171680.53,"N_COORD97":2556124.2999999998,"ADDRESS":"港子尾１６號之１","OBJECTID":143754},"geometry":{"x":171680.53000000119,"y":2556124.3000000026}},{"attributes":{"ID":143755,"DIS_CODE":0,"TOWNNAME":"安南區","LI":"\u25A0田里","LIN":"1鄰","STREET":"\u25A0田路","SECT":" ","MAREA":" ","LANE":"３２９巷","ALLEY":"１０弄","HOUSE_NO":"２０號","E_COORD97":161970.16,"N_COORD97":2548041.25,"ADDRESS":"\u25A0田路３２９巷１０弄２０號","OBJECTID":143755},"geometry":{"x":161970.16000000015,"y":2548041.2500000019}},{"attributes":{"ID":143756,"DIS_CODE":0,"TOWNNAME":"安南區","LI":"\u25A0田里","LIN":"1鄰","STREET":"\u25A0田路","SECT":" ","MAREA":" ","LANE":"３２９巷","ALLEY":"１０弄","HOUSE_NO":"２２號","E_COORD97":161966.35000000001,"N_COORD97":2548040.6200000001,"ADDRESS":"\u25A0田路３２９巷１０弄２２號","OBJECTID":143756},"geometry":{"x":161966.34999999963,"y":2548040.620000001}},{"attributes":{"ID":143757,"DIS_CODE":0,"TOWNNAME":"安南區","LI":"\u25A0田里","LIN":"1鄰","STREET":"\u25A0田路","SECT":" ","MAREA":" ","LANE":"３２９巷","ALLEY":"１０弄","HOUSE_NO":"２３號","E_COORD97":161958.35999999999,"N_COORD97":2548013.6499999999,"ADDRESS":"\u25A0田路３２９巷１０弄２３號","OBJECTID":143757},"geometry":{"x":161958.36000000127,"y":2548013.6500000004}},{"attributes":{"ID":143758,"DIS_CODE":0,"TOWNNAME":"安南區","LI":"\u25A0田里","LIN":"1鄰","STREET":"\u25A0田路","SECT":" ","MAREA":" ","LANE":"３２９巷","ALLEY":"１０弄","HOUSE_NO":"２５號","E_COORD97":161953.44,"N_COORD97":2548013.5,"ADDRESS":"\u25A0田路３２９巷１０弄２５號","OBJECTID":143758},"geometry":{"x":161953.44000000041,"y":2548013.5}},{"attributes":{"ID":143759,"DIS_CODE":0,"TOWNNAME":"安定區","LI":"安定里","LIN":"4鄰","STREET":" ","SECT":" ","MAREA":"安定","LANE":" ","ALLEY":" ","HOUSE_NO":"１０號之２","E_COORD97":172556.17000000001,"N_COORD97":2558095.3199999998,"ADDRESS":"安定１０之２號","OBJECTID":143759},"geometry":{"x":172556.16999999993,"y":2558095.3200000003}},{"attributes":{"ID":143760,"DIS_CODE":0,"TOWNNAME":"安定區","LI":"海寮里","LIN":"14鄰","STREET":" ","SECT":" ","MAREA":"海寮","LANE":" ","ALLEY":" ","HOUSE_NO":"１３３之１８號","E_COORD97":169039.974372,"N_COORD97":2555390.89756,"ADDRESS":"海寮１３３之１８號","OBJECTID":143760},"geometry":{"x":169039.97437200136,"y":2555390.8975640032}},{"attributes":{"ID":143761,"DIS_CODE":0,"TOWNNAME":"安定區","LI":"中沙里","LIN":"4鄰","STREET":" ","SECT":" ","MAREA":"中崙","LANE":" ","ALLEY":" ","HOUSE_NO":"１２３之１號","E_COORD97":169002.10999999999,"N_COORD97":2553036.2999999998,"ADDRESS":"中崙１２３之１號","OBJECTID":143761},"geometry":{"x":169002.11000000034,"y":2553036.3000000026}},{"attributes":{"ID":143762,"DIS_CODE":0,"TOWNNAME":"安定區","LI":"大同里","LIN":"4鄰","STREET":" ","SECT":" ","MAREA":"大同","LANE":" ","ALLEY":" ","HOUSE_NO":"４０號","E_COORD97":170419.47,"N_COORD97":2553915.25,"ADDRESS":"大同４０號","OBJECTID":143762},"geometry":{"x":170419.47000000067,"y":2553915.25}},{"attributes":{"ID":143763,"DIS_CODE":0,"TOWNNAME":"安定區","LI":"中沙里","LIN":"4鄰","STREET":" ","SECT":" ","MAREA":"中崙","LANE":" ","ALLEY":" ","HOUSE_NO":"１２３號","E_COORD97":169003.01000000001,"N_COORD97":2553054.25,"ADDRESS":"中崙１２３號","OBJECTID":143763},"geometry":{"x":169003.01000000164,"y":2553054.2499999981}},{"attributes":{"ID":143764,"DIS_CODE":0,"TOWNNAME":"安定區","LI":"中沙里","LIN":"4鄰","STREET":" ","SECT":" ","MAREA":"中崙","LANE":" ","ALLEY":" ","HOUSE_NO":"１２８之１號","E_COORD97":169114.81,"N_COORD97":2553174.2999999998,"ADDRESS":"中崙１２８之１號","OBJECTID":143764},"geometry":{"x":169114.81000000052,"y":2553174.3000000026}},{"attributes":{"ID":143765,"DIS_CODE":0,"TOWNNAME":"安定區","LI":"中沙里","LIN":"4鄰","STREET":" ","SECT":" ","MAREA":"中崙","LANE":" ","ALLEY":" ","HOUSE_NO":"１２５之１號","E_COORD97":169066.01000000001,"N_COORD97":2553161.2999999998,"ADDRESS":"中崙１２５之１號","OBJECTID":143765},"geometry":{"x":169066.01000000071,"y":2553161.3000000026}},{"attributes":{"ID":143766,"DIS_CODE":0,"TOWNNAME":"安定區","LI":"中沙里","LIN":"4鄰","STREET":" ","SECT":" ","MAREA":"中崙","LANE":" ","ALLEY":" ","HOUSE_NO":"１２５號之２","E_COORD97":169066.41,"N_COORD97":2553166.2999999998,"ADDRESS":"中崙１２５之２號","OBJECTID":143766},"geometry":{"x":169066.41000000015,"y":2553166.3000000007}},{"attributes":{"ID":143767,"DIS_CODE":0,"TOWNNAME":"安定區","LI":"港尾里","LIN":"4鄰","STREET":" ","SECT":" ","MAREA":"港子尾","LANE":" ","ALLEY":" ","HOUSE_NO":"１０號之２","E_COORD97":171567.26000000001,"N_COORD97":2556147.2999999998,"ADDRESS":"港子尾１０號之２","OBJECTID":143767},"geometry":{"x":171567.25999999978,"y":2556147.3000000026}},{"attributes":{"ID":143768,"DIS_CODE":0,"TOWNNAME":"安定區","LI":"中榮里","LIN":"4鄰","STREET":" ","SECT":" ","MAREA":"許中營","LANE":" ","ALLEY":" ","HOUSE_NO":"４１之３號","E_COORD97":172406.34,"N_COORD97":2555054.2999999998,"ADDRESS":"許中營４１之３號","OBJECTID":143768},"geometry":{"x":172406.33999999892,"y":2555054.3000000007}},{"attributes":{"ID":143769,"DIS_CODE":0,"TOWNNAME":"安定區","LI":"中榮里","LIN":"4鄰","STREET":" ","SECT":" ","MAREA":"許中營","LANE":" ","ALLEY":" ","HOUSE_NO":"４０號","E_COORD97":172414.73999999999,"N_COORD97":2555070.25,"ADDRESS":"許中營４０號","OBJECTID":143769},"geometry":{"x":172414.74000000115,"y":2555070.25}},{"attributes":{"ID":143770,"DIS_CODE":0,"TOWNNAME":"安定區","LI":"海寮里","LIN":"13鄰","STREET":" ","SECT":" ","MAREA":"海寮","LANE":" ","ALLEY":" ","HOUSE_NO":"１３０號之１","E_COORD97":169038.28,"N_COORD97":2555322.2999999998,"ADDRESS":"海寮１３０號之１","OBJECTID":143770},"geometry":{"x":169038.28000000026,"y":2555322.3000000007}},{"attributes":{"ID":143771,"DIS_CODE":0,"TOWNNAME":"安定區","LI":"海寮里","LIN":"14鄰","STREET":" ","SECT":" ","MAREA":"海寮","LANE":" ","ALLEY":" ","HOUSE_NO":"１３３之１０號","E_COORD97":169045.798881,"N_COORD97":2555362.9575800002,"ADDRESS":"海寮１３３之１０號","OBJECTID":143771},"geometry":{"x":169045.79888100084,"y":2555362.9575790036}},{"attributes":{"ID":143772,"DIS_CODE":0,"TOWNNAME":"安定區","LI":"安定里","LIN":"4鄰","STREET":" ","SECT":" ","MAREA":"安定","LANE":" ","ALLEY":" ","HOUSE_NO":"１４號","E_COORD97":172532.26999999999,"N_COORD97":2558189.3199999998,"ADDRESS":"安定１４號","OBJECTID":143772},"geometry":{"x":172532.27000000048,"y":2558189.3200000003}},{"attributes":{"ID":143773,"DIS_CODE":0,"TOWNNAME":"安定區","LI":"中榮里","LIN":"4鄰","STREET":" ","SECT":" ","MAREA":"許中營","LANE":" ","ALLEY":" ","HOUSE_NO":"４０號之２","E_COORD97":172435.66729499999,"N_COORD97":2555046.94759,"ADDRESS":"許中營４０號之２","OBJECTID":143773},"geometry":{"x":172435.66729499958,"y":2555046.9475919995}},{"attributes":{"ID":143774,"DIS_CODE":0,"TOWNNAME":"安定區","LI":"港口里","LIN":"20鄰","STREET":" ","SECT":" ","MAREA":"港口","LANE":" ","ALLEY":" ","HOUSE_NO":"３９９之６２號","E_COORD97":171563.94,"N_COORD97":2554938.2999999998,"ADDRESS":"港口３９９之６２號","OBJECTID":143774},"geometry":{"x":171563.94000000227,"y":2554938.3000000026}},{"attributes":{"ID":143775,"DIS_CODE":0,"TOWNNAME":"安定區","LI":"大同里","LIN":"13鄰","STREET":" ","SECT":" ","MAREA":"大同","LANE":" ","ALLEY":" ","HOUSE_NO":"１４６之２號","E_COORD97":170361.72,"N_COORD97":2553679.2999999998,"ADDRESS":"大同１４６之２號","OBJECTID":143775},"geometry":{"x":170361.72000000067,"y":2553679.3000000026}},{"attributes":{"ID":143776,"DIS_CODE":0,"TOWNNAME":"安定區","LI":"安定里","LIN":"4鄰","STREET":" ","SECT":" ","MAREA":"安定","LANE":" ","ALLEY":" ","HOUSE_NO":"１３之７號","E_COORD97":172541.76999999999,"N_COORD97":2558143.3199999998,"ADDRESS":"安定１３之７號","OBJECTID":143776},"geometry":{"x":172541.76999999955,"y":2558143.320000004}},{"attributes":{"ID":143777,"DIS_CODE":0,"TOWNNAME":"安定區","LI":"大同里","LIN":"13鄰","STREET":" ","SECT":" ","MAREA":"大同","LANE":" ","ALLEY":" ","HOUSE_NO":"１４０號","E_COORD97":170335.72,"N_COORD97":2553691.25,"ADDRESS":"大同１４０號","OBJECTID":143777},"geometry":{"x":170335.7200000016,"y":2553691.25}},{"attributes":{"ID":143778,"DIS_CODE":0,"TOWNNAME":"安定區","LI":"港尾里","LIN":"4鄰","STREET":" ","SECT":" ","MAREA":"港子尾","LANE":" ","ALLEY":" ","HOUSE_NO":"１０之１０號","E_COORD97":171610.54000000001,"N_COORD97":2556150.2999999998,"ADDRESS":"港子尾１０之１０號","OBJECTID":143778},"geometry":{"x":171610.54000000097,"y":2556150.3000000045}},{"attributes":{"ID":143779,"DIS_CODE":0,"TOWNNAME":"安定區","LI":"中沙里","LIN":"4鄰","STREET":" ","SECT":" ","MAREA":"中崙","LANE":" ","ALLEY":" ","HOUSE_NO":"１２５之６號","E_COORD97":169096.20999999999,"N_COORD97":2553161.2999999998,"ADDRESS":"中崙１２５之６號","OBJECTID":143779},"geometry":{"x":169096.20999999996,"y":2553161.3000000026}},{"attributes":{"ID":143780,"DIS_CODE":0,"TOWNNAME":"安定區","LI":"港口里","LIN":"18鄰","STREET":" ","SECT":" ","MAREA":"港口","LANE":" ","ALLEY":" ","HOUSE_NO":"３８０號之１０","E_COORD97":171407.03,"N_COORD97":2555037.2999999998,"ADDRESS":"港口３８０號之１０","OBJECTID":143780},"geometry":{"x":171407.02999999933,"y":2555037.3000000007}},{"attributes":{"ID":143781,"DIS_CODE":0,"TOWNNAME":"安定區","LI":"港口里","LIN":"18鄰","STREET":" ","SECT":" ","MAREA":"港口","LANE":" ","ALLEY":" ","HOUSE_NO":"３７５之１號","E_COORD97":171359.39000000001,"N_COORD97":2554978.2999999998,"ADDRESS":"港口３７５之１號","OBJECTID":143781},"geometry":{"x":171359.38999999966,"y":2554978.3000000026}},{"attributes":{"ID":143782,"DIS_CODE":0,"TOWNNAME":"安定區","LI":"港口里","LIN":"20鄰","STREET":" ","SECT":" ","MAREA":"港口","LANE":" ","ALLEY":" ","HOUSE_NO":"３９９之５２號","E_COORD97":171599.23999999999,"N_COORD97":2554958.2999999998,"ADDRESS":"港口３９９之５２號","OBJECTID":143782},"geometry":{"x":171599.24000000115,"y":2554958.3000000026}},{"attributes":{"ID":143783,"DIS_CODE":0,"TOWNNAME":"安定區","LI":"海寮里","LIN":"13鄰","STREET":" ","SECT":" ","MAREA":"海寮","LANE":" ","ALLEY":" ","HOUSE_NO":"１２６之２１號","E_COORD97":168997.79000000001,"N_COORD97":2555220.2999999998,"ADDRESS":"海寮１２６之２１號","OBJECTID":143783},"geometry":{"x":168997.79000000004,"y":2555220.3000000007}},{"attributes":{"ID":143784,"DIS_CODE":0,"TOWNNAME":"安定區","LI":"海寮里","LIN":"14鄰","STREET":" ","SECT":" ","MAREA":"海寮","LANE":" ","ALLEY":" ","HOUSE_NO":"１３１號之７","E_COORD97":168926.85999999999,"N_COORD97":2555391.2999999998,"ADDRESS":"海寮１３１號之７","OBJECTID":143784},"geometry":{"x":168926.86000000127,"y":2555391.3000000026}},{"attributes":{"ID":143785,"DIS_CODE":0,"TOWNNAME":"安定區","LI":"港尾里","LIN":"4鄰","STREET":" ","SECT":" ","MAREA":"港子尾","LANE":" ","ALLEY":" ","HOUSE_NO":"１０之１９號","E_COORD97":171582.14000000001,"N_COORD97":2556168.2999999998,"ADDRESS":"港子尾１０之１９號","OBJECTID":143785},"geometry":{"x":171582.14000000153,"y":2556168.3000000026}},{"attributes":{"ID":143786,"DIS_CODE":0,"TOWNNAME":"安定區","LI":"港尾里","LIN":"4鄰","STREET":" ","SECT":" ","MAREA":"港子尾","LANE":" ","ALLEY":" ","HOUSE_NO":"１０之８號","E_COORD97":171609.89000000001,"N_COORD97":2556140.2999999998,"ADDRESS":"港子尾１０之８號","OBJECTID":143786},"geometry":{"x":171609.8900000006,"y":2556140.3000000045}},{"attributes":{"ID":143787,"DIS_CODE":0,"TOWNNAME":"安定區","LI":"安定里","LIN":"4鄰","STREET":" ","SECT":" ","MAREA":"安定","LANE":" ","ALLEY":" ","HOUSE_NO":"１３之１０號","E_COORD97":172530.42000000001,"N_COORD97":2558139.3199999998,"ADDRESS":"安定１３之１０號","OBJECTID":143787},"geometry":{"x":172530.42000000086,"y":2558139.3200000003}},{"attributes":{"ID":143788,"DIS_CODE":0,"TOWNNAME":"安定區","LI":"安定里","LIN":"4鄰","STREET":" ","SECT":" ","MAREA":"安定","LANE":" ","ALLEY":" ","HOUSE_NO":"９號","E_COORD97":172590.42000000001,"N_COORD97":2558054.3199999998,"ADDRESS":"安定９號","OBJECTID":143788},"geometry":{"x":172590.41999999993,"y":2558054.3200000003}},{"attributes":{"ID":143789,"DIS_CODE":0,"TOWNNAME":"安定區","LI":"港口里","LIN":"18鄰","STREET":" ","SECT":" ","MAREA":"港口","LANE":" ","ALLEY":" ","HOUSE_NO":"３８０號之１６","E_COORD97":171416.17999999999,"N_COORD97":2555063.2999999998,"ADDRESS":"港口３８０號之１６","OBJECTID":143789},"geometry":{"x":171416.18000000063,"y":2555063.3000000026}},{"attributes":{"ID":143790,"DIS_CODE":0,"TOWNNAME":"安定區","LI":"港口里","LIN":"20鄰","STREET":" ","SECT":" ","MAREA":"港口","LANE":" ","ALLEY":" ","HOUSE_NO":"３９９之２８號","E_COORD97":171571.54000000001,"N_COORD97":2554927.2999999998,"ADDRESS":"港口３９９之２８號","OBJECTID":143790},"geometry":{"x":171571.54000000097,"y":2554927.3000000026}},{"attributes":{"ID":143791,"DIS_CODE":0,"TOWNNAME":"安定區","LI":"港口里","LIN":"20鄰","STREET":" ","SECT":" ","MAREA":"港口","LANE":" ","ALLEY":" ","HOUSE_NO":"３９９之２５號","E_COORD97":171583.14000000001,"N_COORD97":2554934.2999999998,"ADDRESS":"港口３９９之２５號","OBJECTID":143791},"geometry":{"x":171583.13999999966,"y":2554934.3000000026}},{"attributes":{"ID":143792,"DIS_CODE":0,"TOWNNAME":"安定區","LI":"大同里","LIN":"13鄰","STREET":" ","SECT":" ","MAREA":"大同","LANE":" ","ALLEY":" ","HOUSE_NO":"１４２號","E_COORD97":170357.42000000001,"N_COORD97":2553705.25,"ADDRESS":"大同１４２號","OBJECTID":143792},"geometry":{"x":170357.41999999993,"y":2553705.2499999981}},{"attributes":{"ID":143793,"DIS_CODE":0,"TOWNNAME":"安定區","LI":"海寮里","LIN":"14鄰","STREET":" ","SECT":" ","MAREA":"海寮","LANE":" ","ALLEY":" ","HOUSE_NO":"１３３之１１號","E_COORD97":169044.95167899999,"N_COORD97":2555366.9792399998,"ADDRESS":"海寮１３３之１１號","OBJECTID":143793},"geometry":{"x":169044.95167900063,"y":2555366.9792429991}},{"attributes":{"ID":143794,"DIS_CODE":0,"TOWNNAME":"安定區","LI":"中沙里","LIN":"4鄰","STREET":" ","SECT":" ","MAREA":"中崙","LANE":" ","ALLEY":" ","HOUSE_NO":"１２０號","E_COORD97":169039.10999999999,"N_COORD97":2553110.25,"ADDRESS":"中崙１２０號","OBJECTID":143794},"geometry":{"x":169039.11000000127,"y":2553110.2500000019}},{"attributes":{"ID":143795,"DIS_CODE":0,"TOWNNAME":"安定區","LI":"中沙里","LIN":"4鄰","STREET":" ","SECT":" ","MAREA":"中崙","LANE":" ","ALLEY":" ","HOUSE_NO":"１２５號之８","E_COORD97":169105.39999999999,"N_COORD97":2553160.2999999998,"ADDRESS":"中崙１２５號之８","OBJECTID":143795},"geometry":{"x":169105.40000000037,"y":2553160.3000000045}},{"attributes":{"ID":143796,"DIS_CODE":0,"TOWNNAME":"安定區","LI":"安定里","LIN":"4鄰","STREET":" ","SECT":" ","MAREA":"安定","LANE":" ","ALLEY":" ","HOUSE_NO":"１１之１５號","E_COORD97":172443.51999999999,"N_COORD97":2557962.3199999998,"ADDRESS":"安定１１之１５號","OBJECTID":143796},"geometry":{"x":172443.51999999955,"y":2557962.3200000003}},{"attributes":{"ID":143797,"DIS_CODE":0,"TOWNNAME":"安定區","LI":"港口里","LIN":"20鄰","STREET":" ","SECT":" ","MAREA":"港口","LANE":" ","ALLEY":" ","HOUSE_NO":"３９９之１１號","E_COORD97":171586.54000000001,"N_COORD97":2554901.2999999998,"ADDRESS":"港口３９９之１１號","OBJECTID":143797},"geometry":{"x":171586.5400000019,"y":2554901.3000000007}},{"attributes":{"ID":143798,"DIS_CODE":0,"TOWNNAME":"安定區","LI":"大同里","LIN":"13鄰","STREET":" ","SECT":" ","MAREA":"大同","LANE":" ","ALLEY":" ","HOUSE_NO":"１４８之１號","E_COORD97":170326.32000000001,"N_COORD97":2553649.2999999998,"ADDRESS":"大同１４８之１號","OBJECTID":143798},"geometry":{"x":170326.3200000003,"y":2553649.3000000026}},{"attributes":{"ID":143799,"DIS_CODE":0,"TOWNNAME":"安定區","LI":"海寮里","LIN":"13鄰","STREET":" ","SECT":" ","MAREA":"海寮","LANE":" ","ALLEY":" ","HOUSE_NO":"１２８號","E_COORD97":169021.84,"N_COORD97":2555293.25,"ADDRESS":"海寮１２８號","OBJECTID":143799},"geometry":{"x":169021.84000000078,"y":2555293.2500000019}},{"attributes":{"ID":143800,"DIS_CODE":0,"TOWNNAME":"安定區","LI":"港尾里","LIN":"4鄰","STREET":" ","SECT":" ","MAREA":"港子尾","LANE":" ","ALLEY":" ","HOUSE_NO":"１０之６號","E_COORD97":171610.19,"N_COORD97":2556130.2999999998,"ADDRESS":"港子尾１０之６號","OBJECTID":143800},"geometry":{"x":171610.19000000134,"y":2556130.3000000045}}]}