{"displayFieldName":"TOWNNAME","fieldAliases":{"ID":"ID","DIS_CODE":"DIS_CODE","TOWNNAME":"TOWNNAME","LI":"LI","LIN":"LIN","STREET":"STREET","SECT":"SECT","MAREA":"MAREA","LANE":"LANE","ALLEY":"ALLEY","HOUSE_NO":"HOUSE_NO","E_COORD97":"E_COORD97","N_COORD97":"N_COORD97","ADDRESS":"ADDRESS","OBJECTID":"OBJECTID"},"geometryType":"esriGeometryPoint","spatialReference":{"wkid":102443,"latestWkid":3826},"fields":[{"name":"ID","type":"esriFieldTypeDouble","alias":"ID"},{"name":"DIS_CODE","type":"esriFieldTypeInteger","alias":"DIS_CODE"},{"name":"TOWNNAME","type":"esriFieldTypeString","alias":"TOWNNAME","length":8},{"name":"LI","type":"esriFieldTypeString","alias":"LI","length":8},{"name":"LIN","type":"esriFieldTypeString","alias":"LIN","length":12},{"name":"STREET","type":"esriFieldTypeString","alias":"STREET","length":20},{"name":"SECT","type":"esriFieldTypeString","alias":"SECT","length":8},{"name":"MAREA","type":"esriFieldTypeString","alias":"MAREA","length":12},{"name":"LANE","type":"esriFieldTypeString","alias":"LANE","length":10},{"name":"ALLEY","type":"esriFieldTypeString","alias":"ALLEY","length":10},{"name":"HOUSE_NO","type":"esriFieldTypeString","alias":"HOUSE_NO","length":20},{"name":"E_COORD97","type":"esriFieldTypeDouble","alias":"E_COORD97"},{"name":"N_COORD97","type":"esriFieldTypeDouble","alias":"N_COORD97"},{"name":"ADDRESS","type":"esriFieldTypeString","alias":"ADDRESS","length":50},{"name":"OBJECTID","type":"esriFieldTypeOID","alias":"OBJECTID"}],"features":[{"attributes":{"ID":642828,"DIS_CODE":0,"TOWNNAME":"歸仁區","LI":"後市里","LIN":"39鄰","STREET":"文化街","SECT":"二段","MAREA":" ","LANE":" ","ALLEY":" ","HOUSE_NO":"６７號","E_COORD97":177309.39000000001,"N_COORD97":2541139.7599999998,"ADDRESS":"文化街二段６７號","OBJECTID":642801},"geometry":{"x":177309.38999999966,"y":2541139.7599999998}},{"attributes":{"ID":642829,"DIS_CODE":0,"TOWNNAME":"歸仁區","LI":"後市里","LIN":"39鄰","STREET":"文化街","SECT":"二段","MAREA":" ","LANE":" ","ALLEY":" ","HOUSE_NO":"６１號","E_COORD97":177322.69,"N_COORD97":2541133.7599999998,"ADDRESS":"文化街二段６１號","OBJECTID":642802},"geometry":{"x":177322.69000000134,"y":2541133.7600000035}},{"attributes":{"ID":642830,"DIS_CODE":0,"TOWNNAME":"北區","LI":"賢北里","LIN":"1鄰","STREET":"賢北街","SECT":" ","MAREA":" ","LANE":" ","ALLEY":" ","HOUSE_NO":"８號","E_COORD97":166361.04000000001,"N_COORD97":2545223.3500000001,"ADDRESS":"賢北街８號","OBJECTID":642803},"geometry":{"x":166361.04000000097,"y":2545223.3500000015}},{"attributes":{"ID":642831,"DIS_CODE":0,"TOWNNAME":"歸仁區","LI":"南保里","LIN":"57鄰","STREET":"民權十二街","SECT":" ","MAREA":" ","LANE":" ","ALLEY":" ","HOUSE_NO":"２０號","E_COORD97":176908.34,"N_COORD97":2540467.29,"ADDRESS":"民權十二街２０號","OBJECTID":642804},"geometry":{"x":176908.33999999985,"y":2540467.2899999991}},{"attributes":{"ID":642832,"DIS_CODE":0,"TOWNNAME":"歸仁區","LI":"南保里","LIN":"57鄰","STREET":"民權十二街","SECT":" ","MAREA":" ","LANE":" ","ALLEY":" ","HOUSE_NO":"２３號","E_COORD97":176890.73999999999,"N_COORD97":2540432.29,"ADDRESS":"民權十二街２３號","OBJECTID":642805},"geometry":{"x":176890.74000000022,"y":2540432.290000001}},{"attributes":{"ID":642833,"DIS_CODE":0,"TOWNNAME":"歸仁區","LI":"南保里","LIN":"18鄰","STREET":"文化十街","SECT":" ","MAREA":" ","LANE":" ","ALLEY":" ","HOUSE_NO":"３５號","E_COORD97":176539.04000000001,"N_COORD97":2541320.3300000001,"ADDRESS":"文化十街３５號","OBJECTID":642806},"geometry":{"x":176539.04000000004,"y":2541320.3300000019}},{"attributes":{"ID":642834,"DIS_CODE":0,"TOWNNAME":"歸仁區","LI":"南興里","LIN":"18鄰","STREET":"南興街","SECT":" ","MAREA":" ","LANE":" ","ALLEY":" ","HOUSE_NO":"２２５號","E_COORD97":175658.48999999999,"N_COORD97":2541386.25,"ADDRESS":"南興街２２５號","OBJECTID":642807},"geometry":{"x":175658.49000000022,"y":2541386.2500000019}},{"attributes":{"ID":642835,"DIS_CODE":0,"TOWNNAME":"歸仁區","LI":"南興里","LIN":"20鄰","STREET":"文化街","SECT":"三段","MAREA":" ","LANE":" ","ALLEY":" ","HOUSE_NO":"５５６號","E_COORD97":175716.73999999999,"N_COORD97":2541246.3300000001,"ADDRESS":"文化街三段５５６號","OBJECTID":642808},"geometry":{"x":175716.74000000115,"y":2541246.3300000019}},{"attributes":{"ID":642836,"DIS_CODE":0,"TOWNNAME":"歸仁區","LI":"後市里","LIN":"24鄰","STREET":"文化街","SECT":"二段","MAREA":" ","LANE":" ","ALLEY":" ","HOUSE_NO":"１５號","E_COORD97":177602.14000000001,"N_COORD97":2541092.2599999998,"ADDRESS":"文化街二段１５號","OBJECTID":642809},"geometry":{"x":177602.1400000006,"y":2541092.2599999998}},{"attributes":{"ID":642837,"DIS_CODE":0,"TOWNNAME":"歸仁區","LI":"南興里","LIN":"24鄰","STREET":"文化二十街","SECT":" ","MAREA":" ","LANE":" ","ALLEY":" ","HOUSE_NO":"９８號","E_COORD97":175499.48999999999,"N_COORD97":2541324.3300000001,"ADDRESS":"文化二十街９８號","OBJECTID":642810},"geometry":{"x":175499.49000000209,"y":2541324.3300000019}},{"attributes":{"ID":642838,"DIS_CODE":0,"TOWNNAME":"歸仁區","LI":"南興里","LIN":"38鄰","STREET":"中山路","SECT":"三段","MAREA":" ","LANE":" ","ALLEY":" ","HOUSE_NO":"４６２號","E_COORD97":175897.06,"N_COORD97":2541014.2799999998,"ADDRESS":"中山路三段４６２號","OBJECTID":642811},"geometry":{"x":175897.06000000052,"y":2541014.2800000031}},{"attributes":{"ID":642839,"DIS_CODE":0,"TOWNNAME":"歸仁區","LI":"南興里","LIN":"20鄰","STREET":"文化街","SECT":"三段","MAREA":" ","LANE":" ","ALLEY":" ","HOUSE_NO":"５５２號","E_COORD97":175733.04000000001,"N_COORD97":2541226.3300000001,"ADDRESS":"文化街三段５５２號","OBJECTID":642812},"geometry":{"x":175733.0400000019,"y":2541226.3300000019}},{"attributes":{"ID":642840,"DIS_CODE":0,"TOWNNAME":"歸仁區","LI":"南保里","LIN":"25鄰","STREET":"文化街","SECT":"三段","MAREA":" ","LANE":" ","ALLEY":" ","HOUSE_NO":"１９３號","E_COORD97":176553.14000000001,"N_COORD97":2541177.3300000001,"ADDRESS":"文化街三段１９３號","OBJECTID":642813},"geometry":{"x":176553.1400000006,"y":2541177.3299999982}},{"attributes":{"ID":642841,"DIS_CODE":0,"TOWNNAME":"歸仁區","LI":"後市里","LIN":"4鄰","STREET":"大吉街","SECT":" ","MAREA":" ","LANE":" ","ALLEY":" ","HOUSE_NO":"４３號","E_COORD97":177219.35999999999,"N_COORD97":2540702.25,"ADDRESS":"大吉街４３號","OBJECTID":642814},"geometry":{"x":177219.3599999994,"y":2540702.25}},{"attributes":{"ID":642842,"DIS_CODE":0,"TOWNNAME":"歸仁區","LI":"南保里","LIN":"5鄰","STREET":"文化街","SECT":"三段","MAREA":" ","LANE":" ","ALLEY":" ","HOUSE_NO":"３２號","E_COORD97":176922.48999999999,"N_COORD97":2541250.3300000001,"ADDRESS":"文化街三段３２號","OBJECTID":642815},"geometry":{"x":176922.49000000115,"y":2541250.3300000019}},{"attributes":{"ID":642843,"DIS_CODE":0,"TOWNNAME":"歸仁區","LI":"後市里","LIN":"20鄰","STREET":"民族北街","SECT":" ","MAREA":" ","LANE":" ","ALLEY":" ","HOUSE_NO":"６號","E_COORD97":177439.42999999999,"N_COORD97":2540855.25,"ADDRESS":"民族北街６號","OBJECTID":642816},"geometry":{"x":177439.43000000063,"y":2540855.25}},{"attributes":{"ID":642844,"DIS_CODE":0,"TOWNNAME":"歸仁區","LI":"後市里","LIN":"26鄰","STREET":"中山路","SECT":"二段","MAREA":" ","LANE":" ","ALLEY":" ","HOUSE_NO":"１０６號","E_COORD97":177327.53,"N_COORD97":2540827.7400000002,"ADDRESS":"中山路二段１０６號","OBJECTID":642817},"geometry":{"x":177327.53000000119,"y":2540827.7400000002}},{"attributes":{"ID":642845,"DIS_CODE":0,"TOWNNAME":"歸仁區","LI":"後市里","LIN":"39鄰","STREET":"國光街","SECT":" ","MAREA":" ","LANE":" ","ALLEY":" ","HOUSE_NO":"１１７號","E_COORD97":177334.54000000001,"N_COORD97":2541101.7400000002,"ADDRESS":"國光街１１７號","OBJECTID":642818},"geometry":{"x":177334.54000000004,"y":2541101.7400000021}},{"attributes":{"ID":642846,"DIS_CODE":0,"TOWNNAME":"歸仁區","LI":"南興里","LIN":"41鄰","STREET":"中山十一街","SECT":" ","MAREA":" ","LANE":" ","ALLEY":" ","HOUSE_NO":"８號","E_COORD97":175799.95999999999,"N_COORD97":2540970.25,"ADDRESS":"中山十一街８號","OBJECTID":642819},"geometry":{"x":175799.96000000089,"y":2540970.25}},{"attributes":{"ID":642847,"DIS_CODE":0,"TOWNNAME":"歸仁區","LI":"南興里","LIN":"18鄰","STREET":"大德一街","SECT":" ","MAREA":" ","LANE":" ","ALLEY":" ","HOUSE_NO":"５６號","E_COORD97":175627.97,"N_COORD97":2541412.27,"ADDRESS":"大德一街５６號","OBJECTID":642820},"geometry":{"x":175627.9700000016,"y":2541412.2700000014}},{"attributes":{"ID":642848,"DIS_CODE":0,"TOWNNAME":"歸仁區","LI":"後市里","LIN":"26鄰","STREET":"中山路","SECT":"二段","MAREA":" ","LANE":" ","ALLEY":" ","HOUSE_NO":"１００號","E_COORD97":177339.82999999999,"N_COORD97":2540825.7400000002,"ADDRESS":"中山路二段１００號","OBJECTID":642821},"geometry":{"x":177339.83000000194,"y":2540825.7400000039}},{"attributes":{"ID":642849,"DIS_CODE":0,"TOWNNAME":"歸仁區","LI":"後市里","LIN":"32鄰","STREET":"民族一街","SECT":" ","MAREA":" ","LANE":" ","ALLEY":" ","HOUSE_NO":"１９號","E_COORD97":177335.13,"N_COORD97":2541004.75,"ADDRESS":"民族一街１９號","OBJECTID":642822},"geometry":{"x":177335.12999999989,"y":2541004.75}},{"attributes":{"ID":642850,"DIS_CODE":0,"TOWNNAME":"歸仁區","LI":"後市里","LIN":"4鄰","STREET":"大吉街","SECT":" ","MAREA":" ","LANE":" ","ALLEY":" ","HOUSE_NO":"４７號","E_COORD97":177218.26000000001,"N_COORD97":2540693.25,"ADDRESS":"大吉街４７號","OBJECTID":642823},"geometry":{"x":177218.26000000071,"y":2540693.2500000037}},{"attributes":{"ID":642851,"DIS_CODE":0,"TOWNNAME":"歸仁區","LI":"南保里","LIN":"5鄰","STREET":"文化街","SECT":"三段","MAREA":" ","LANE":" ","ALLEY":" ","HOUSE_NO":"２０號","E_COORD97":176948.09,"N_COORD97":2541250.3300000001,"ADDRESS":"文化街三段２０號","OBJECTID":642824},"geometry":{"x":176948.09000000078,"y":2541250.3300000019}},{"attributes":{"ID":642852,"DIS_CODE":0,"TOWNNAME":"歸仁區","LI":"南保里","LIN":"57鄰","STREET":"民權十二街","SECT":" ","MAREA":" ","LANE":" ","ALLEY":" ","HOUSE_NO":"２９號","E_COORD97":176891.84,"N_COORD97":2540444.29,"ADDRESS":"民權十二街２９號","OBJECTID":642825},"geometry":{"x":176891.84000000171,"y":2540444.2899999972}},{"attributes":{"ID":642853,"DIS_CODE":0,"TOWNNAME":"歸仁區","LI":"後市里","LIN":"38鄰","STREET":"民權三街","SECT":" ","MAREA":" ","LANE":" ","ALLEY":" ","HOUSE_NO":"１０４號","E_COORD97":177240.28,"N_COORD97":2541064.75,"ADDRESS":"民權三街１０４號","OBJECTID":642826},"geometry":{"x":177240.28000000212,"y":2541064.75}},{"attributes":{"ID":642854,"DIS_CODE":0,"TOWNNAME":"歸仁區","LI":"後市里","LIN":"26鄰","STREET":"中山路","SECT":"二段","MAREA":" ","LANE":" ","ALLEY":" ","HOUSE_NO":"１１８號","E_COORD97":177288.63,"N_COORD97":2540830.7400000002,"ADDRESS":"中山路二段１１８號","OBJECTID":642827},"geometry":{"x":177288.63000000082,"y":2540830.7400000021}},{"attributes":{"ID":642855,"DIS_CODE":0,"TOWNNAME":"歸仁區","LI":"南保里","LIN":"25鄰","STREET":"保興街","SECT":" ","MAREA":" ","LANE":" ","ALLEY":" ","HOUSE_NO":"７０號","E_COORD97":176516.51999999999,"N_COORD97":2541155.25,"ADDRESS":"保興街７０號","OBJECTID":642828},"geometry":{"x":176516.52000000048,"y":2541155.2500000019}},{"attributes":{"ID":642856,"DIS_CODE":0,"TOWNNAME":"歸仁區","LI":"後市里","LIN":"39鄰","STREET":"國光街","SECT":" ","MAREA":" ","LANE":" ","ALLEY":" ","HOUSE_NO":"１２５號","E_COORD97":177335.64000000001,"N_COORD97":2541118.7400000002,"ADDRESS":"國光街１２５號","OBJECTID":642829},"geometry":{"x":177335.64000000153,"y":2541118.7400000021}},{"attributes":{"ID":642857,"DIS_CODE":0,"TOWNNAME":"歸仁區","LI":"南興里","LIN":"39鄰","STREET":"中山路","SECT":"三段","MAREA":" ","LANE":" ","ALLEY":" ","HOUSE_NO":"５８８號","E_COORD97":175599.85999999999,"N_COORD97":2541055.2799999998,"ADDRESS":"中山路三段５８８號","OBJECTID":642830},"geometry":{"x":175599.86000000034,"y":2541055.2800000031}},{"attributes":{"ID":642858,"DIS_CODE":0,"TOWNNAME":"歸仁區","LI":"南保里","LIN":"41鄰","STREET":"保興二街","SECT":" ","MAREA":" ","LANE":" ","ALLEY":" ","HOUSE_NO":"１３號","E_COORD97":176555.97,"N_COORD97":2541002.25,"ADDRESS":"保興二街１３號","OBJECTID":642831},"geometry":{"x":176555.97000000067,"y":2541002.2500000019}},{"attributes":{"ID":642859,"DIS_CODE":0,"TOWNNAME":"歸仁區","LI":"南興里","LIN":"40鄰","STREET":"民生六街","SECT":" ","MAREA":" ","LANE":" ","ALLEY":" ","HOUSE_NO":"１１號","E_COORD97":176207.48999999999,"N_COORD97":2540836.29,"ADDRESS":"民生六街１１號","OBJECTID":642832},"geometry":{"x":176207.49000000022,"y":2540836.2899999991}},{"attributes":{"ID":642860,"DIS_CODE":0,"TOWNNAME":"歸仁區","LI":"南興里","LIN":"26鄰","STREET":"文化二十街","SECT":" ","MAREA":" ","LANE":" ","ALLEY":" ","HOUSE_NO":"１２３號","E_COORD97":175461.04000000001,"N_COORD97":2541384.3300000001,"ADDRESS":"文化二十街１２３號","OBJECTID":642833},"geometry":{"x":175461.04000000004,"y":2541384.3300000038}},{"attributes":{"ID":642861,"DIS_CODE":0,"TOWNNAME":"歸仁區","LI":"南保里","LIN":"42鄰","STREET":"保興二街","SECT":" ","MAREA":" ","LANE":" ","ALLEY":" ","HOUSE_NO":"３０號","E_COORD97":176573.37,"N_COORD97":2540985.25,"ADDRESS":"保興二街３０號","OBJECTID":642834},"geometry":{"x":176573.37000000197,"y":2540985.2500000019}},{"attributes":{"ID":642862,"DIS_CODE":0,"TOWNNAME":"歸仁區","LI":"南保里","LIN":"43鄰","STREET":"民權南路","SECT":" ","MAREA":" ","LANE":" ","ALLEY":" ","HOUSE_NO":"６０號","E_COORD97":176963.59,"N_COORD97":2540692.29,"ADDRESS":"民權南路６０號","OBJECTID":642835},"geometry":{"x":176963.59000000078,"y":2540692.290000001}},{"attributes":{"ID":642863,"DIS_CODE":0,"TOWNNAME":"歸仁區","LI":"南興里","LIN":"38鄰","STREET":"中山十街","SECT":" ","MAREA":" ","LANE":" ","ALLEY":" ","HOUSE_NO":"４６號","E_COORD97":175699.26000000001,"N_COORD97":2541131.25,"ADDRESS":"中山十街４６號","OBJECTID":642836},"geometry":{"x":175699.26000000071,"y":2541131.2500000019}},{"attributes":{"ID":642864,"DIS_CODE":0,"TOWNNAME":"歸仁區","LI":"南興里","LIN":"18鄰","STREET":"南興一街","SECT":" ","MAREA":" ","LANE":" ","ALLEY":" ","HOUSE_NO":"１３號","E_COORD97":175676.79000000001,"N_COORD97":2541343.25,"ADDRESS":"南興一街１３號","OBJECTID":642837},"geometry":{"x":175676.79000000004,"y":2541343.25}},{"attributes":{"ID":642865,"DIS_CODE":0,"TOWNNAME":"歸仁區","LI":"南興里","LIN":"20鄰","STREET":"文化街","SECT":"三段","MAREA":" ","LANE":" ","ALLEY":" ","HOUSE_NO":"５８０號","E_COORD97":175684.73999999999,"N_COORD97":2541201.3300000001,"ADDRESS":"文化街三段５８０號","OBJECTID":642838},"geometry":{"x":175684.74000000115,"y":2541201.3300000038}},{"attributes":{"ID":642866,"DIS_CODE":0,"TOWNNAME":"歸仁區","LI":"南興里","LIN":"26鄰","STREET":"文化二十街","SECT":" ","MAREA":" ","LANE":" ","ALLEY":" ","HOUSE_NO":"１０５號","E_COORD97":175461.04000000001,"N_COORD97":2541375.3300000001,"ADDRESS":"文化二十街１０５號","OBJECTID":642839},"geometry":{"x":175461.04000000004,"y":2541375.3300000019}},{"attributes":{"ID":642867,"DIS_CODE":0,"TOWNNAME":"歸仁區","LI":"南保里","LIN":"38鄰","STREET":"保興二街","SECT":" ","MAREA":" ","LANE":" ","ALLEY":" ","HOUSE_NO":"２３號","E_COORD97":176601.07000000001,"N_COORD97":2541003.25,"ADDRESS":"保興二街２３號","OBJECTID":642840},"geometry":{"x":176601.07000000216,"y":2541003.2500000019}},{"attributes":{"ID":642868,"DIS_CODE":0,"TOWNNAME":"歸仁區","LI":"文化里","LIN":"18鄰","STREET":"文化北二街","SECT":" ","MAREA":" ","LANE":" ","ALLEY":" ","HOUSE_NO":"５１號","E_COORD97":177121.31,"N_COORD97":2541461.3399999999,"ADDRESS":"文化北二街５１號","OBJECTID":642841},"geometry":{"x":177121.31000000052,"y":2541461.3399999999}},{"attributes":{"ID":642869,"DIS_CODE":0,"TOWNNAME":"歸仁區","LI":"後市里","LIN":"39鄰","STREET":"民權三街","SECT":" ","MAREA":" ","LANE":" ","ALLEY":" ","HOUSE_NO":"５７號","E_COORD97":177298.53,"N_COORD97":2541076.75,"ADDRESS":"民權三街５７號","OBJECTID":642842},"geometry":{"x":177298.53000000119,"y":2541076.7500000019}},{"attributes":{"ID":642870,"DIS_CODE":0,"TOWNNAME":"歸仁區","LI":"歸仁里","LIN":"5鄰","STREET":"大通路","SECT":" ","MAREA":" ","LANE":" ","ALLEY":" ","HOUSE_NO":"６０號","E_COORD97":177766.67999999999,"N_COORD97":2540894.3399999999,"ADDRESS":"大通路６０號","OBJECTID":642843},"geometry":{"x":177766.68000000063,"y":2540894.3399999999}},{"attributes":{"ID":642871,"DIS_CODE":0,"TOWNNAME":"歸仁區","LI":"南保里","LIN":"5鄰","STREET":"文化街","SECT":"三段","MAREA":" ","LANE":" ","ALLEY":" ","HOUSE_NO":"２４號","E_COORD97":176938.89000000001,"N_COORD97":2541249.3300000001,"ADDRESS":"文化街三段２４號","OBJECTID":642844},"geometry":{"x":176938.89000000153,"y":2541249.3300000019}},{"attributes":{"ID":642872,"DIS_CODE":0,"TOWNNAME":"歸仁區","LI":"後市里","LIN":"38鄰","STREET":"中山八街","SECT":" ","MAREA":" ","LANE":" ","ALLEY":" ","HOUSE_NO":"３９號","E_COORD97":177182.22,"N_COORD97":2541015.3300000001,"ADDRESS":"中山八街３９號","OBJECTID":642845},"geometry":{"x":177182.21999999974,"y":2541015.3300000019}},{"attributes":{"ID":642873,"DIS_CODE":0,"TOWNNAME":"歸仁區","LI":"南興里","LIN":"38鄰","STREET":"中山路","SECT":"三段","MAREA":" ","LANE":" ","ALLEY":" ","HOUSE_NO":"４７０號","E_COORD97":175882.66,"N_COORD97":2541015.2799999998,"ADDRESS":"中山路三段４７０號","OBJECTID":642846},"geometry":{"x":175882.66000000015,"y":2541015.2800000012}},{"attributes":{"ID":642874,"DIS_CODE":0,"TOWNNAME":"歸仁區","LI":"南興里","LIN":"26鄰","STREET":"文化二十街","SECT":" ","MAREA":" ","LANE":" ","ALLEY":" ","HOUSE_NO":"７５號","E_COORD97":175457.59,"N_COORD97":2541342.3300000001,"ADDRESS":"文化二十街７５號","OBJECTID":642847},"geometry":{"x":175457.58999999985,"y":2541342.3300000001}},{"attributes":{"ID":642875,"DIS_CODE":0,"TOWNNAME":"歸仁區","LI":"後市里","LIN":"25鄰","STREET":"民族北街","SECT":" ","MAREA":" ","LANE":" ","ALLEY":" ","HOUSE_NO":"３８號","E_COORD97":177450.48000000001,"N_COORD97":2540957.25,"ADDRESS":"民族北街３８號","OBJECTID":642848},"geometry":{"x":177450.48000000045,"y":2540957.25}},{"attributes":{"ID":642876,"DIS_CODE":0,"TOWNNAME":"歸仁區","LI":"許厝里","LIN":"4鄰","STREET":"仁愛一街","SECT":" ","MAREA":" ","LANE":" ","ALLEY":" ","HOUSE_NO":"２８號","E_COORD97":178379.84,"N_COORD97":2540600.54,"ADDRESS":"仁愛一街２８號","OBJECTID":642849},"geometry":{"x":178379.83999999985,"y":2540600.5399999991}},{"attributes":{"ID":642877,"DIS_CODE":0,"TOWNNAME":"歸仁區","LI":"南興里","LIN":"38鄰","STREET":"中山路","SECT":"三段","MAREA":" ","LANE":" ","ALLEY":" ","HOUSE_NO":"４４８號","E_COORD97":175912.56,"N_COORD97":2541035.2799999998,"ADDRESS":"中山路三段４４８號","OBJECTID":642850},"geometry":{"x":175912.56000000052,"y":2541035.2800000012}},{"attributes":{"ID":642878,"DIS_CODE":0,"TOWNNAME":"歸仁區","LI":"辜厝里","LIN":"42鄰","STREET":"民權南路","SECT":" ","MAREA":" ","LANE":" ","ALLEY":" ","HOUSE_NO":"１７１號","E_COORD97":177009.14000000001,"N_COORD97":2540524.29,"ADDRESS":"民權南路１７１號","OBJECTID":642851},"geometry":{"x":177009.1400000006,"y":2540524.2899999991}},{"attributes":{"ID":642879,"DIS_CODE":0,"TOWNNAME":"歸仁區","LI":"文化里","LIN":"20鄰","STREET":"大德路","SECT":" ","MAREA":" ","LANE":" ","ALLEY":" ","HOUSE_NO":"２１１號地下室","E_COORD97":177223.41,"N_COORD97":2541515.3300000001,"ADDRESS":"大德路２１１號地下室","OBJECTID":642852},"geometry":{"x":177223.41000000015,"y":2541515.3300000001}},{"attributes":{"ID":642880,"DIS_CODE":0,"TOWNNAME":"歸仁區","LI":"歸南里","LIN":"26鄰","STREET":"民生十街","SECT":" ","MAREA":" ","LANE":" ","ALLEY":" ","HOUSE_NO":"１４號","E_COORD97":176050.91,"N_COORD97":2540206.25,"ADDRESS":"民生十街１４號","OBJECTID":642853},"geometry":{"x":176050.91000000201,"y":2540206.2500000019}},{"attributes":{"ID":642881,"DIS_CODE":0,"TOWNNAME":"歸仁區","LI":"新厝里","LIN":"25鄰","STREET":"大成六街","SECT":" ","MAREA":" ","LANE":" ","ALLEY":" ","HOUSE_NO":"７２號","E_COORD97":177553.23999999999,"N_COORD97":2540261.1800000002,"ADDRESS":"大成六街７２號","OBJECTID":642854},"geometry":{"x":177553.24000000115,"y":2540261.1799999997}},{"attributes":{"ID":642882,"DIS_CODE":0,"TOWNNAME":"歸仁區","LI":"歸南里","LIN":"4鄰","STREET":"民權南路","SECT":" ","MAREA":" ","LANE":" ","ALLEY":" ","HOUSE_NO":"３２０之１號","E_COORD97":176921.04000000001,"N_COORD97":2540102.2599999998,"ADDRESS":"民權南路３２０之１號","OBJECTID":642855},"geometry":{"x":176921.04000000004,"y":2540102.2599999998}},{"attributes":{"ID":642883,"DIS_CODE":0,"TOWNNAME":"歸仁區","LI":"新厝里","LIN":"25鄰","STREET":"大成六街","SECT":" ","MAREA":" ","LANE":" ","ALLEY":" ","HOUSE_NO":"８２號","E_COORD97":177564.44,"N_COORD97":2540243.1800000002,"ADDRESS":"大成六街８２號","OBJECTID":642856},"geometry":{"x":177564.44000000041,"y":2540243.1800000016}},{"attributes":{"ID":642884,"DIS_CODE":0,"TOWNNAME":"歸仁區","LI":"媽廟里","LIN":"5鄰","STREET":"中正北路","SECT":"三段","MAREA":" ","LANE":" ","ALLEY":" ","HOUSE_NO":"１６１號","E_COORD97":177577.76000000001,"N_COORD97":2543756.7200000002,"ADDRESS":"中正北路三段１６１號","OBJECTID":642857},"geometry":{"x":177577.76000000071,"y":2543756.7200000025}},{"attributes":{"ID":642885,"DIS_CODE":0,"TOWNNAME":"歸仁區","LI":"許厝里","LIN":"39鄰","STREET":"公園路","SECT":" ","MAREA":" ","LANE":" ","ALLEY":" ","HOUSE_NO":"７４號","E_COORD97":178007.84,"N_COORD97":2540527.2799999998,"ADDRESS":"公園路７４號","OBJECTID":642858},"geometry":{"x":178007.84000000078,"y":2540527.2800000012}},{"attributes":{"ID":642886,"DIS_CODE":0,"TOWNNAME":"歸仁區","LI":"歸仁里","LIN":"4鄰","STREET":"和平三街","SECT":" ","MAREA":" ","LANE":" ","ALLEY":" ","HOUSE_NO":"２號","E_COORD97":177826.54000000001,"N_COORD97":2541007.04,"ADDRESS":"和平三街２號","OBJECTID":642859},"geometry":{"x":177826.5400000019,"y":2541007.040000001}},{"attributes":{"ID":642887,"DIS_CODE":0,"TOWNNAME":"歸仁區","LI":"歸仁里","LIN":"13鄰","STREET":"信義北路","SECT":" ","MAREA":" ","LANE":" ","ALLEY":" ","HOUSE_NO":"１１３號","E_COORD97":177949.45000000001,"N_COORD97":2541086.04,"ADDRESS":"信義北路１１３號","OBJECTID":642860},"geometry":{"x":177949.45000000112,"y":2541086.0399999991}},{"attributes":{"ID":642888,"DIS_CODE":0,"TOWNNAME":"歸仁區","LI":"媽廟里","LIN":"4鄰","STREET":"中正北路","SECT":"三段","MAREA":" ","LANE":" ","ALLEY":" ","HOUSE_NO":"１２９號","E_COORD97":177551.66,"N_COORD97":2543667.7200000002,"ADDRESS":"中正北路三段１２９號","OBJECTID":642861},"geometry":{"x":177551.66000000108,"y":2543667.7200000044}},{"attributes":{"ID":642889,"DIS_CODE":0,"TOWNNAME":"歸仁區","LI":"新厝里","LIN":"18鄰","STREET":"中正南路","SECT":"一段","MAREA":" ","LANE":" ","ALLEY":" ","HOUSE_NO":"１８１號","E_COORD97":177436.89999999999,"N_COORD97":2540368.21,"ADDRESS":"中正南路一段１８１號","OBJECTID":642862},"geometry":{"x":177436.9000000013,"y":2540368.2100000009}},{"attributes":{"ID":642890,"DIS_CODE":0,"TOWNNAME":"歸仁區","LI":"新厝里","LIN":"14鄰","STREET":"大成路","SECT":" ","MAREA":" ","LANE":" ","ALLEY":" ","HOUSE_NO":"６３號","E_COORD97":177638.88,"N_COORD97":2540400,"ADDRESS":"大成路６３號","OBJECTID":642863},"geometry":{"x":177638.87999999989,"y":2540400.0000000037}},{"attributes":{"ID":642891,"DIS_CODE":0,"TOWNNAME":"歸仁區","LI":"歸仁里","LIN":"14鄰","STREET":"信義北路","SECT":" ","MAREA":" ","LANE":" ","ALLEY":" ","HOUSE_NO":"１２０號","E_COORD97":177959.59,"N_COORD97":2541121.1099999999,"ADDRESS":"信義北路１２０號","OBJECTID":642864},"geometry":{"x":177959.58999999985,"y":2541121.1100000013}},{"attributes":{"ID":642892,"DIS_CODE":0,"TOWNNAME":"歸仁區","LI":"媽廟里","LIN":"4鄰","STREET":"中正北路","SECT":"三段","MAREA":" ","LANE":" ","ALLEY":" ","HOUSE_NO":"１３５號","E_COORD97":177553.76000000001,"N_COORD97":2543678.7200000002,"ADDRESS":"中正北路三段１３５號","OBJECTID":642865},"geometry":{"x":177553.76000000071,"y":2543678.7200000025}},{"attributes":{"ID":642893,"DIS_CODE":0,"TOWNNAME":"歸仁區","LI":"歸南里","LIN":"26鄰","STREET":"民生十街","SECT":" ","MAREA":" ","LANE":" ","ALLEY":" ","HOUSE_NO":"３號","E_COORD97":176059.76000000001,"N_COORD97":2540179.25,"ADDRESS":"民生十街３號","OBJECTID":642866},"geometry":{"x":176059.75999999978,"y":2540179.2500000019}},{"attributes":{"ID":642894,"DIS_CODE":0,"TOWNNAME":"歸仁區","LI":"辜厝里","LIN":"43鄰","STREET":"民權九街","SECT":" ","MAREA":" ","LANE":" ","ALLEY":" ","HOUSE_NO":"５７號","E_COORD97":177094.04000000001,"N_COORD97":2540356.3900000001,"ADDRESS":"民權九街５７號","OBJECTID":642867},"geometry":{"x":177094.03999999911,"y":2540356.3900000006}},{"attributes":{"ID":642895,"DIS_CODE":0,"TOWNNAME":"歸仁區","LI":"新厝里","LIN":"5鄰","STREET":"復興路","SECT":" ","MAREA":" ","LANE":" ","ALLEY":" ","HOUSE_NO":"１７７號","E_COORD97":177654.70000000001,"N_COORD97":2540630.9399999999,"ADDRESS":"復興路１７７號","OBJECTID":642868},"geometry":{"x":177654.70000000112,"y":2540630.9400000013}},{"attributes":{"ID":642896,"DIS_CODE":0,"TOWNNAME":"歸仁區","LI":"文化里","LIN":"20鄰","STREET":"大德路","SECT":" ","MAREA":" ","LANE":" ","ALLEY":" ","HOUSE_NO":"２１１號","E_COORD97":177222.67000000001,"N_COORD97":2541515.3300000001,"ADDRESS":"大德路２１１號","OBJECTID":642869},"geometry":{"x":177222.67000000086,"y":2541515.3300000001}},{"attributes":{"ID":642897,"DIS_CODE":0,"TOWNNAME":"歸仁區","LI":"媽廟里","LIN":"26鄰","STREET":"保大路","SECT":"一段","MAREA":" ","LANE":" ","ALLEY":" ","HOUSE_NO":"２０６號","E_COORD97":177540.03,"N_COORD97":2544060.7200000002,"ADDRESS":"保大路一段２０６號","OBJECTID":642870},"geometry":{"x":177540.03000000026,"y":2544060.7200000044}},{"attributes":{"ID":642898,"DIS_CODE":0,"TOWNNAME":"歸仁區","LI":"歸仁里","LIN":"1鄰","STREET":"文化街","SECT":"一段","MAREA":" ","LANE":" ","ALLEY":" ","HOUSE_NO":"１２２號","E_COORD97":177744.82000000001,"N_COORD97":2541127.2599999998,"ADDRESS":"文化街一段１２２號","OBJECTID":642871},"geometry":{"x":177744.8200000003,"y":2541127.2600000016}},{"attributes":{"ID":642899,"DIS_CODE":0,"TOWNNAME":"歸仁區","LI":"歸仁里","LIN":"1鄰","STREET":"文化街","SECT":"一段","MAREA":" ","LANE":" ","ALLEY":" ","HOUSE_NO":"１１８號","E_COORD97":177754.01999999999,"N_COORD97":2541127.2599999998,"ADDRESS":"文化街一段１１８號","OBJECTID":642872},"geometry":{"x":177754.02000000048,"y":2541127.2600000016}},{"attributes":{"ID":642900,"DIS_CODE":0,"TOWNNAME":"歸仁區","LI":"歸仁里","LIN":"19鄰","STREET":"大仁街","SECT":" ","MAREA":" ","LANE":" ","ALLEY":" ","HOUSE_NO":"１４３號","E_COORD97":178209.67000000001,"N_COORD97":2541052.1099999999,"ADDRESS":"大仁街１４３號","OBJECTID":642873},"geometry":{"x":178209.66999999993,"y":2541052.1099999994}},{"attributes":{"ID":642901,"DIS_CODE":0,"TOWNNAME":"歸仁區","LI":"歸仁里","LIN":"19鄰","STREET":"大仁二街","SECT":" ","MAREA":" ","LANE":" ","ALLEY":" ","HOUSE_NO":"１６號","E_COORD97":178154.26999999999,"N_COORD97":2541062.1099999999,"ADDRESS":"大仁二街１６號","OBJECTID":642874},"geometry":{"x":178154.26999999955,"y":2541062.1099999994}},{"attributes":{"ID":642902,"DIS_CODE":0,"TOWNNAME":"歸仁區","LI":"媽廟里","LIN":"4鄰","STREET":"和順路","SECT":"一段","MAREA":" ","LANE":" ","ALLEY":" ","HOUSE_NO":"１號","E_COORD97":177559.32000000001,"N_COORD97":2543704.7200000002,"ADDRESS":"和順路一段１號","OBJECTID":642875},"geometry":{"x":177559.32000000123,"y":2543704.7200000044}},{"attributes":{"ID":642903,"DIS_CODE":0,"TOWNNAME":"歸仁區","LI":"新厝里","LIN":"20鄰","STREET":"大成路","SECT":" ","MAREA":" ","LANE":" ","ALLEY":" ","HOUSE_NO":"９６號","E_COORD97":177670.19,"N_COORD97":2540312.1800000002,"ADDRESS":"大成路９６號","OBJECTID":642876},"geometry":{"x":177670.19000000134,"y":2540312.1799999997}},{"attributes":{"ID":642904,"DIS_CODE":0,"TOWNNAME":"歸仁區","LI":"歸南里","LIN":"13鄰","STREET":"民生南街","SECT":"二段","MAREA":" ","LANE":" ","ALLEY":" ","HOUSE_NO":"２７５號","E_COORD97":176086.35999999999,"N_COORD97":2539980.25,"ADDRESS":"民生南街二段２７５號","OBJECTID":642877},"geometry":{"x":176086.36000000034,"y":2539980.25}},{"attributes":{"ID":642905,"DIS_CODE":0,"TOWNNAME":"歸仁區","LI":"歸仁里","LIN":"18鄰","STREET":"大仁一街","SECT":" ","MAREA":" ","LANE":" ","ALLEY":" ","HOUSE_NO":"２７號","E_COORD97":178122.57000000001,"N_COORD97":2541069.1099999999,"ADDRESS":"大仁一街２７號","OBJECTID":642878},"geometry":{"x":178122.5700000003,"y":2541069.1099999994}},{"attributes":{"ID":642906,"DIS_CODE":0,"TOWNNAME":"歸仁區","LI":"辜厝里","LIN":"43鄰","STREET":"民權九街","SECT":" ","MAREA":" ","LANE":" ","ALLEY":" ","HOUSE_NO":"７７號","E_COORD97":177153.76000000001,"N_COORD97":2540363.2999999998,"ADDRESS":"民權九街７７號","OBJECTID":642879},"geometry":{"x":177153.76000000071,"y":2540363.3000000007}},{"attributes":{"ID":642907,"DIS_CODE":0,"TOWNNAME":"歸仁區","LI":"媽廟里","LIN":"4鄰","STREET":"中正北路","SECT":"三段","MAREA":" ","LANE":" ","ALLEY":" ","HOUSE_NO":"１３９號","E_COORD97":177556.95999999999,"N_COORD97":2543687.7200000002,"ADDRESS":"中正北路三段１３９號","OBJECTID":642880},"geometry":{"x":177556.95999999996,"y":2543687.7200000044}},{"attributes":{"ID":642908,"DIS_CODE":0,"TOWNNAME":"歸仁區","LI":"媽廟里","LIN":"4鄰","STREET":"中正北路","SECT":"三段","MAREA":" ","LANE":" ","ALLEY":" ","HOUSE_NO":"１４３號","E_COORD97":177558.95999999999,"N_COORD97":2543695.7200000002,"ADDRESS":"中正北路三段１４３號","OBJECTID":642881},"geometry":{"x":177558.95999999996,"y":2543695.7200000025}},{"attributes":{"ID":642909,"DIS_CODE":0,"TOWNNAME":"歸仁區","LI":"媽廟里","LIN":"4鄰","STREET":"中正北路","SECT":"三段","MAREA":" ","LANE":" ","ALLEY":" ","HOUSE_NO":"１４５號","E_COORD97":177560.06,"N_COORD97":2543699.7200000002,"ADDRESS":"中正北路三段１４５號","OBJECTID":642882},"geometry":{"x":177560.06000000052,"y":2543699.7200000007}},{"attributes":{"ID":642910,"DIS_CODE":0,"TOWNNAME":"歸仁區","LI":"歸南里","LIN":"13鄰","STREET":"民生南街","SECT":"二段","MAREA":" ","LANE":" ","ALLEY":" ","HOUSE_NO":"２７３號","E_COORD97":176085.35999999999,"N_COORD97":2539983.25,"ADDRESS":"民生南街二段２７３號","OBJECTID":642883},"geometry":{"x":176085.3600000022,"y":2539983.25}},{"attributes":{"ID":642911,"DIS_CODE":0,"TOWNNAME":"歸仁區","LI":"媽廟里","LIN":"5鄰","STREET":"中正北路","SECT":"三段","MAREA":" ","LANE":" ","ALLEY":" ","HOUSE_NO":"１６３號","E_COORD97":177578.76000000001,"N_COORD97":2543761.7200000002,"ADDRESS":"中正北路三段１６３號","OBJECTID":642884},"geometry":{"x":177578.75999999978,"y":2543761.7200000007}},{"attributes":{"ID":642912,"DIS_CODE":0,"TOWNNAME":"歸仁區","LI":"歸仁里","LIN":"20鄰","STREET":"忠孝北路","SECT":" ","MAREA":" ","LANE":" ","ALLEY":" ","HOUSE_NO":"１８１號","E_COORD97":178140.19,"N_COORD97":2541157.1099999999,"ADDRESS":"忠孝北路１８１號","OBJECTID":642885},"geometry":{"x":178140.19000000134,"y":2541157.1099999994}},{"attributes":{"ID":642913,"DIS_CODE":0,"TOWNNAME":"歸仁區","LI":"歸仁里","LIN":"25鄰","STREET":"文化街","SECT":"一段","MAREA":" ","LANE":" ","ALLEY":" ","HOUSE_NO":"６５號","E_COORD97":178161.92000000001,"N_COORD97":2541205.1299999999,"ADDRESS":"文化街一段６５號","OBJECTID":642886},"geometry":{"x":178161.92000000086,"y":2541205.1300000027}},{"attributes":{"ID":642914,"DIS_CODE":0,"TOWNNAME":"歸仁區","LI":"媽廟里","LIN":"4鄰","STREET":"中正北路","SECT":"三段","MAREA":" ","LANE":" ","ALLEY":" ","HOUSE_NO":"１３３號","E_COORD97":177552.76000000001,"N_COORD97":2543675.7200000002,"ADDRESS":"中正北路三段１３３號","OBJECTID":642887},"geometry":{"x":177552.75999999978,"y":2543675.7200000025}},{"attributes":{"ID":642915,"DIS_CODE":0,"TOWNNAME":"歸仁區","LI":"歸仁里","LIN":"5鄰","STREET":"大通路","SECT":" ","MAREA":" ","LANE":" ","ALLEY":" ","HOUSE_NO":"５８號","E_COORD97":177770.78,"N_COORD97":2540894.3399999999,"ADDRESS":"大通路５８號","OBJECTID":642888},"geometry":{"x":177770.77999999933,"y":2540894.3399999999}},{"attributes":{"ID":642916,"DIS_CODE":0,"TOWNNAME":"歸仁區","LI":"歸仁里","LIN":"13鄰","STREET":"文化街","SECT":"一段","MAREA":" ","LANE":" ","ALLEY":" ","HOUSE_NO":"１２９號","E_COORD97":177887.29000000001,"N_COORD97":2541118.0499999998,"ADDRESS":"文化街一段１２９號","OBJECTID":642889},"geometry":{"x":177887.29000000004,"y":2541118.0500000007}},{"attributes":{"ID":642917,"DIS_CODE":0,"TOWNNAME":"歸仁區","LI":"歸仁里","LIN":"5鄰","STREET":"和平北街","SECT":" ","MAREA":" ","LANE":" ","ALLEY":" ","HOUSE_NO":"４７號","E_COORD97":177837.29999999999,"N_COORD97":2540948.48,"ADDRESS":"和平北街４７號","OBJECTID":642890},"geometry":{"x":177837.29999999981,"y":2540948.4800000004}},{"attributes":{"ID":642918,"DIS_CODE":0,"TOWNNAME":"歸仁區","LI":"歸仁里","LIN":"18鄰","STREET":"大仁一街","SECT":" ","MAREA":" ","LANE":" ","ALLEY":" ","HOUSE_NO":"２３號","E_COORD97":178111.26999999999,"N_COORD97":2541066.1099999999,"ADDRESS":"大仁一街２３號","OBJECTID":642891},"geometry":{"x":178111.27000000048,"y":2541066.1099999994}},{"attributes":{"ID":642919,"DIS_CODE":0,"TOWNNAME":"歸仁區","LI":"歸南里","LIN":"26鄰","STREET":"民生十街","SECT":" ","MAREA":" ","LANE":" ","ALLEY":" ","HOUSE_NO":"７號","E_COORD97":176043.35999999999,"N_COORD97":2540193.25,"ADDRESS":"民生十街７號","OBJECTID":642892},"geometry":{"x":176043.36000000127,"y":2540193.25}},{"attributes":{"ID":642920,"DIS_CODE":0,"TOWNNAME":"歸仁區","LI":"新厝里","LIN":"14鄰","STREET":"大成路","SECT":" ","MAREA":" ","LANE":" ","ALLEY":" ","HOUSE_NO":"５５號","E_COORD97":177627.57999999999,"N_COORD97":2540412,"ADDRESS":"大成路５５號","OBJECTID":642893},"geometry":{"x":177627.58000000007,"y":2540412}},{"attributes":{"ID":642921,"DIS_CODE":0,"TOWNNAME":"歸仁區","LI":"歸南里","LIN":"14鄰","STREET":"民生南街","SECT":"二段","MAREA":" ","LANE":" ","ALLEY":" ","HOUSE_NO":"２８３號","E_COORD97":176086.26000000001,"N_COORD97":2539961.25,"ADDRESS":"民生南街二段２８３號","OBJECTID":642894},"geometry":{"x":176086.26000000071,"y":2539961.2500000019}},{"attributes":{"ID":642922,"DIS_CODE":0,"TOWNNAME":"歸仁區","LI":"歸仁里","LIN":"4鄰","STREET":"和平三街","SECT":" ","MAREA":" ","LANE":" ","ALLEY":" ","HOUSE_NO":"１２號","E_COORD97":177814.48999999999,"N_COORD97":2541008.04,"ADDRESS":"和平三街１２號","OBJECTID":642895},"geometry":{"x":177814.49000000022,"y":2541008.0399999991}},{"attributes":{"ID":642923,"DIS_CODE":0,"TOWNNAME":"歸仁區","LI":"媽廟里","LIN":"4鄰","STREET":"和順路","SECT":"一段","MAREA":" ","LANE":" ","ALLEY":" ","HOUSE_NO":"２１號","E_COORD97":177479.57000000001,"N_COORD97":2543695.7200000002,"ADDRESS":"和順路一段２１號","OBJECTID":642896},"geometry":{"x":177479.57000000123,"y":2543695.7200000025}},{"attributes":{"ID":642924,"DIS_CODE":0,"TOWNNAME":"歸仁區","LI":"歸南里","LIN":"26鄰","STREET":"民生十街","SECT":" ","MAREA":" ","LANE":" ","ALLEY":" ","HOUSE_NO":"１０號","E_COORD97":176060.10999999999,"N_COORD97":2540199.25,"ADDRESS":"民生十街１０號","OBJECTID":642897},"geometry":{"x":176060.11000000127,"y":2540199.2500000019}},{"attributes":{"ID":642925,"DIS_CODE":0,"TOWNNAME":"歸仁區","LI":"辜厝里","LIN":"43鄰","STREET":"民權九街","SECT":" ","MAREA":" ","LANE":" ","ALLEY":" ","HOUSE_NO":"６７號","E_COORD97":177116.64000000001,"N_COORD97":2540356.3900000001,"ADDRESS":"民權九街６７號","OBJECTID":642898},"geometry":{"x":177116.63999999966,"y":2540356.3900000006}},{"attributes":{"ID":642926,"DIS_CODE":0,"TOWNNAME":"歸仁區","LI":"歸仁里","LIN":"13鄰","STREET":"文化街","SECT":"一段","MAREA":" ","LANE":" ","ALLEY":" ","HOUSE_NO":"１１９號","E_COORD97":177907.79000000001,"N_COORD97":2541119.0499999998,"ADDRESS":"文化街一段１１９號","OBJECTID":642899},"geometry":{"x":177907.78999999911,"y":2541119.0500000045}},{"attributes":{"ID":642927,"DIS_CODE":0,"TOWNNAME":"歸仁區","LI":"媽廟里","LIN":"4鄰","STREET":"中正北路","SECT":"三段","MAREA":" ","LANE":" ","ALLEY":" ","HOUSE_NO":"１４１號","E_COORD97":177557.95999999999,"N_COORD97":2543690.7200000002,"ADDRESS":"中正北路三段１４１號","OBJECTID":642900},"geometry":{"x":177557.96000000089,"y":2543690.7200000007}},{"attributes":{"ID":642928,"DIS_CODE":0,"TOWNNAME":"歸仁區","LI":"媽廟里","LIN":"4鄰","STREET":"中正北路","SECT":"三段","MAREA":" ","LANE":" ","ALLEY":" ","HOUSE_NO":"１３１號","E_COORD97":177552.76000000001,"N_COORD97":2543671.7200000002,"ADDRESS":"中正北路三段１３１號","OBJECTID":642901},"geometry":{"x":177552.75999999978,"y":2543671.7200000025}},{"attributes":{"ID":642929,"DIS_CODE":0,"TOWNNAME":"歸仁區","LI":"辜厝里","LIN":"43鄰","STREET":"民權九街","SECT":" ","MAREA":" ","LANE":" ","ALLEY":" ","HOUSE_NO":"５３號","E_COORD97":177086.84,"N_COORD97":2540356.3900000001,"ADDRESS":"民權九街５３號","OBJECTID":642902},"geometry":{"x":177086.84000000171,"y":2540356.3900000006}},{"attributes":{"ID":642930,"DIS_CODE":0,"TOWNNAME":"歸仁區","LI":"歸仁里","LIN":"13鄰","STREET":"文化街","SECT":"一段","MAREA":" ","LANE":" ","ALLEY":" ","HOUSE_NO":"１１７號","E_COORD97":177911.89000000001,"N_COORD97":2541119.0499999998,"ADDRESS":"文化街一段１１７號","OBJECTID":642903},"geometry":{"x":177911.89000000153,"y":2541119.0500000045}},{"attributes":{"ID":642931,"DIS_CODE":0,"TOWNNAME":"歸仁區","LI":"新厝里","LIN":"4鄰","STREET":"和平南街","SECT":" ","MAREA":" ","LANE":" ","ALLEY":" ","HOUSE_NO":"５２號","E_COORD97":177805.67000000001,"N_COORD97":2540635.25,"ADDRESS":"和平南街５２號","OBJECTID":642904},"geometry":{"x":177805.67000000086,"y":2540635.25}},{"attributes":{"ID":642932,"DIS_CODE":0,"TOWNNAME":"歸仁區","LI":"新厝里","LIN":"25鄰","STREET":"大成六街","SECT":" ","MAREA":" ","LANE":" ","ALLEY":" ","HOUSE_NO":"１０６號","E_COORD97":177591.19,"N_COORD97":2540202.1800000002,"ADDRESS":"大成六街１０６號","OBJECTID":642905},"geometry":{"x":177591.19000000041,"y":2540202.1800000016}},{"attributes":{"ID":642933,"DIS_CODE":0,"TOWNNAME":"歸仁區","LI":"辜厝里","LIN":"43鄰","STREET":"民權九街","SECT":" ","MAREA":" ","LANE":" ","ALLEY":" ","HOUSE_NO":"７５號","E_COORD97":177143.54999999999,"N_COORD97":2540364.2999999998,"ADDRESS":"民權九街７５號","OBJECTID":642906},"geometry":{"x":177143.55000000075,"y":2540364.3000000007}},{"attributes":{"ID":642934,"DIS_CODE":0,"TOWNNAME":"歸仁區","LI":"媽廟里","LIN":"4鄰","STREET":"和順路","SECT":"一段","MAREA":" ","LANE":" ","ALLEY":" ","HOUSE_NO":"１５號","E_COORD97":177493.87,"N_COORD97":2543690.7200000002,"ADDRESS":"和順路一段１５號","OBJECTID":642907},"geometry":{"x":177493.87000000197,"y":2543690.7200000007}},{"attributes":{"ID":642935,"DIS_CODE":0,"TOWNNAME":"歸仁區","LI":"媽廟里","LIN":"4鄰","STREET":"和順路","SECT":"一段","MAREA":" ","LANE":" ","ALLEY":" ","HOUSE_NO":"１９號","E_COORD97":177483.67000000001,"N_COORD97":2543694.7200000002,"ADDRESS":"和順路一段１９號","OBJECTID":642908},"geometry":{"x":177483.67000000086,"y":2543694.7200000044}},{"attributes":{"ID":642936,"DIS_CODE":0,"TOWNNAME":"歸仁區","LI":"新厝里","LIN":"18鄰","STREET":"中正南路","SECT":"一段","MAREA":" ","LANE":" ","ALLEY":" ","HOUSE_NO":"１６１號","E_COORD97":177439.92999999999,"N_COORD97":2540395.2000000002,"ADDRESS":"中正南路一段１６１號","OBJECTID":642909},"geometry":{"x":177439.9299999997,"y":2540395.2000000011}},{"attributes":{"ID":642937,"DIS_CODE":0,"TOWNNAME":"歸仁區","LI":"新厝里","LIN":"26鄰","STREET":"中正南路","SECT":"一段","MAREA":" ","LANE":" ","ALLEY":" ","HOUSE_NO":"２０７號","E_COORD97":177350.60000000001,"N_COORD97":2540331.21,"ADDRESS":"中正南路一段２０７號","OBJECTID":642910},"geometry":{"x":177350.59999999963,"y":2540331.2100000009}},{"attributes":{"ID":642938,"DIS_CODE":0,"TOWNNAME":"歸仁區","LI":"辜厝里","LIN":"43鄰","STREET":"民權九街","SECT":" ","MAREA":" ","LANE":" ","ALLEY":" ","HOUSE_NO":"６９號","E_COORD97":177120.73999999999,"N_COORD97":2540356.3900000001,"ADDRESS":"民權九街６９號","OBJECTID":642911},"geometry":{"x":177120.74000000115,"y":2540356.3900000006}},{"attributes":{"ID":642939,"DIS_CODE":0,"TOWNNAME":"歸仁區","LI":"新厝里","LIN":"14鄰","STREET":"大成路","SECT":" ","MAREA":" ","LANE":" ","ALLEY":" ","HOUSE_NO":"５３號","E_COORD97":177624.57999999999,"N_COORD97":2540414,"ADDRESS":"大成路５３號","OBJECTID":642912},"geometry":{"x":177624.58000000194,"y":2540414.0000000019}},{"attributes":{"ID":642940,"DIS_CODE":0,"TOWNNAME":"歸仁區","LI":"新厝里","LIN":"5鄰","STREET":"復興路","SECT":" ","MAREA":" ","LANE":" ","ALLEY":" ","HOUSE_NO":"１８１號","E_COORD97":177646.5,"N_COORD97":2540631.9399999999,"ADDRESS":"復興路１８１號","OBJECTID":642913},"geometry":{"x":177646.5,"y":2540631.9400000013}},{"attributes":{"ID":642941,"DIS_CODE":0,"TOWNNAME":"歸仁區","LI":"歸仁里","LIN":"18鄰","STREET":"大仁一街","SECT":" ","MAREA":" ","LANE":" ","ALLEY":" ","HOUSE_NO":"９號","E_COORD97":178119.12,"N_COORD97":2541039.1099999999,"ADDRESS":"大仁一街９號","OBJECTID":642914},"geometry":{"x":178119.12000000011,"y":2541039.1099999975}},{"attributes":{"ID":642942,"DIS_CODE":0,"TOWNNAME":"歸仁區","LI":"媽廟里","LIN":"25鄰","STREET":"保大路","SECT":"一段","MAREA":" ","LANE":" ","ALLEY":" ","HOUSE_NO":"１２１號","E_COORD97":177801.23000000001,"N_COORD97":2544012.7200000002,"ADDRESS":"保大路一段１２１號","OBJECTID":642915},"geometry":{"x":177801.23000000045,"y":2544012.7200000007}},{"attributes":{"ID":642943,"DIS_CODE":0,"TOWNNAME":"歸仁區","LI":"許厝里","LIN":"13鄰","STREET":"信義南路","SECT":" ","MAREA":" ","LANE":" ","ALLEY":" ","HOUSE_NO":"２７號","E_COORD97":178046.29999999999,"N_COORD97":2540642.1000000001,"ADDRESS":"信義南路２７號","OBJECTID":642916},"geometry":{"x":178046.29999999981,"y":2540642.0999999996}},{"attributes":{"ID":642944,"DIS_CODE":0,"TOWNNAME":"歸仁區","LI":"新厝里","LIN":"24鄰","STREET":"大成十街","SECT":" ","MAREA":" ","LANE":" ","ALLEY":" ","HOUSE_NO":"２２號","E_COORD97":177680.23999999999,"N_COORD97":2540227.1800000002,"ADDRESS":"大成十街２２號","OBJECTID":642917},"geometry":{"x":177680.24000000115,"y":2540227.1800000016}},{"attributes":{"ID":642945,"DIS_CODE":0,"TOWNNAME":"歸仁區","LI":"歸仁里","LIN":"24鄰","STREET":"忠孝北路","SECT":" ","MAREA":" ","LANE":" ","ALLEY":" ","HOUSE_NO":"２１２號","E_COORD97":178105.727614,"N_COORD97":2541237.2803500001,"ADDRESS":"忠孝北路２１２號","OBJECTID":642918},"geometry":{"x":178105.72761400044,"y":2541237.2803460006}},{"attributes":{"ID":642946,"DIS_CODE":0,"TOWNNAME":"歸仁區","LI":"辜厝里","LIN":"53鄰","STREET":"民權南路","SECT":" ","MAREA":" ","LANE":" ","ALLEY":" ","HOUSE_NO":"３３１號","E_COORD97":176965.72,"N_COORD97":2540203.5899999999,"ADDRESS":"民權南路３３１號","OBJECTID":642919},"geometry":{"x":176965.72000000067,"y":2540203.5900000017}},{"attributes":{"ID":642947,"DIS_CODE":0,"TOWNNAME":"歸仁區","LI":"媽廟里","LIN":"4鄰","STREET":"中正北路","SECT":"三段","MAREA":" ","LANE":" ","ALLEY":" ","HOUSE_NO":"１２５號","E_COORD97":177549.56,"N_COORD97":2543660.7200000002,"ADDRESS":"中正北路三段１２５號","OBJECTID":642920},"geometry":{"x":177549.56000000145,"y":2543660.7200000044}},{"attributes":{"ID":642948,"DIS_CODE":0,"TOWNNAME":"歸仁區","LI":"歸仁里","LIN":"13鄰","STREET":"文化街","SECT":"一段","MAREA":" ","LANE":" ","ALLEY":" ","HOUSE_NO":"１３９號","E_COORD97":177867.79000000001,"N_COORD97":2541116.0499999998,"ADDRESS":"文化街一段１３９號","OBJECTID":642921},"geometry":{"x":177867.79000000097,"y":2541116.0500000026}},{"attributes":{"ID":642949,"DIS_CODE":0,"TOWNNAME":"歸仁區","LI":"媽廟里","LIN":"4鄰","STREET":"和順路","SECT":"一段","MAREA":" ","LANE":" ","ALLEY":" ","HOUSE_NO":"７號","E_COORD97":177519.32000000001,"N_COORD97":2543703.7200000002,"ADDRESS":"和順路一段７號","OBJECTID":642922},"geometry":{"x":177519.3200000003,"y":2543703.7200000007}},{"attributes":{"ID":642950,"DIS_CODE":0,"TOWNNAME":"歸仁區","LI":"歸仁里","LIN":"25鄰","STREET":"忠孝北路","SECT":" ","MAREA":" ","LANE":" ","ALLEY":" ","HOUSE_NO":"１９０號","E_COORD97":178144.42000000001,"N_COORD97":2541187.1099999999,"ADDRESS":"忠孝北路１９０號","OBJECTID":642923},"geometry":{"x":178144.42000000086,"y":2541187.1099999994}},{"attributes":{"ID":642951,"DIS_CODE":0,"TOWNNAME":"歸仁區","LI":"歸南里","LIN":"26鄰","STREET":"民生十街","SECT":" ","MAREA":" ","LANE":" ","ALLEY":" ","HOUSE_NO":"１號","E_COORD97":176063.76000000001,"N_COORD97":2540175.25,"ADDRESS":"民生十街１號","OBJECTID":642924},"geometry":{"x":176063.76000000071,"y":2540175.2500000019}},{"attributes":{"ID":642952,"DIS_CODE":0,"TOWNNAME":"歸仁區","LI":"歸南里","LIN":"25鄰","STREET":"民生十街","SECT":" ","MAREA":" ","LANE":" ","ALLEY":" ","HOUSE_NO":"２號","E_COORD97":176073.06,"N_COORD97":2540192.25,"ADDRESS":"民生十街２號","OBJECTID":642925},"geometry":{"x":176073.06000000145,"y":2540192.2500000019}},{"attributes":{"ID":642953,"DIS_CODE":0,"TOWNNAME":"歸仁區","LI":"辜厝里","LIN":"43鄰","STREET":"民權九街","SECT":" ","MAREA":" ","LANE":" ","ALLEY":" ","HOUSE_NO":"７９號","E_COORD97":177157.85999999999,"N_COORD97":2540362.2999999998,"ADDRESS":"民權九街７９號","OBJECTID":642926},"geometry":{"x":177157.86000000034,"y":2540362.3000000026}},{"attributes":{"ID":642954,"DIS_CODE":0,"TOWNNAME":"歸仁區","LI":"許厝里","LIN":"13鄰","STREET":"信義南路","SECT":" ","MAREA":" ","LANE":" ","ALLEY":" ","HOUSE_NO":"１３號","E_COORD97":178030.42999999999,"N_COORD97":2540669.3900000001,"ADDRESS":"信義南路１３號","OBJECTID":642927},"geometry":{"x":178030.43000000156,"y":2540669.3900000043}},{"attributes":{"ID":642955,"DIS_CODE":0,"TOWNNAME":"歸仁區","LI":"歸仁里","LIN":"13鄰","STREET":"和平二街","SECT":" ","MAREA":" ","LANE":" ","ALLEY":" ","HOUSE_NO":"１７號","E_COORD97":177925.48999999999,"N_COORD97":2541073.04,"ADDRESS":"和平二街１７號","OBJECTID":642928},"geometry":{"x":177925.49000000115,"y":2541073.0399999991}},{"attributes":{"ID":642956,"DIS_CODE":0,"TOWNNAME":"歸仁區","LI":"媽廟里","LIN":"13鄰","STREET":"媽廟二街","SECT":" ","MAREA":" ","LANE":" ","ALLEY":" ","HOUSE_NO":"３０號","E_COORD97":177955.03,"N_COORD97":2543687.7200000002,"ADDRESS":"媽廟二街３０號","OBJECTID":642929},"geometry":{"x":177955.03000000026,"y":2543687.7200000044}},{"attributes":{"ID":642957,"DIS_CODE":0,"TOWNNAME":"歸仁區","LI":"辜厝里","LIN":"53鄰","STREET":"民權南路","SECT":" ","MAREA":" ","LANE":" ","ALLEY":" ","HOUSE_NO":"３２９號","E_COORD97":176966.82000000001,"N_COORD97":2540206.5899999999,"ADDRESS":"民權南路３２９號","OBJECTID":642930},"geometry":{"x":176966.8200000003,"y":2540206.5900000017}},{"attributes":{"ID":642958,"DIS_CODE":0,"TOWNNAME":"歸仁區","LI":"歸仁里","LIN":"4鄰","STREET":"和平北街","SECT":" ","MAREA":" ","LANE":" ","ALLEY":" ","HOUSE_NO":"６５號","E_COORD97":177842.09,"N_COORD97":2541006.04,"ADDRESS":"和平北街６５號","OBJECTID":642931},"geometry":{"x":177842.08999999985,"y":2541006.040000001}},{"attributes":{"ID":642959,"DIS_CODE":0,"TOWNNAME":"歸仁區","LI":"歸仁里","LIN":"26鄰","STREET":"文化一街","SECT":" ","MAREA":" ","LANE":" ","ALLEY":" ","HOUSE_NO":"５號","E_COORD97":178200.42000000001,"N_COORD97":2541208.1299999999,"ADDRESS":"文化一街５號","OBJECTID":642932},"geometry":{"x":178200.42000000086,"y":2541208.1300000027}},{"attributes":{"ID":642960,"DIS_CODE":0,"TOWNNAME":"歸仁區","LI":"歸南里","LIN":"26鄰","STREET":"民生十街","SECT":" ","MAREA":" ","LANE":" ","ALLEY":" ","HOUSE_NO":"５號","E_COORD97":176050.56,"N_COORD97":2540189.25,"ADDRESS":"民生十街５號","OBJECTID":642933},"geometry":{"x":176050.55999999959,"y":2540189.2500000019}},{"attributes":{"ID":642961,"DIS_CODE":0,"TOWNNAME":"歸仁區","LI":"歸仁里","LIN":"25鄰","STREET":"忠孝北路","SECT":" ","MAREA":" ","LANE":" ","ALLEY":" ","HOUSE_NO":"１８６號","E_COORD97":178150.51999999999,"N_COORD97":2541178.1099999999,"ADDRESS":"忠孝北路１８６號","OBJECTID":642934},"geometry":{"x":178150.52000000048,"y":2541178.1099999975}},{"attributes":{"ID":642962,"DIS_CODE":0,"TOWNNAME":"歸仁區","LI":"歸仁里","LIN":"13鄰","STREET":"和平二街","SECT":" ","MAREA":" ","LANE":" ","ALLEY":" ","HOUSE_NO":"６號","E_COORD97":177883.75,"N_COORD97":2541054.1800000002,"ADDRESS":"和平二街６號","OBJECTID":642935},"geometry":{"x":177883.75,"y":2541054.1800000016}},{"attributes":{"ID":642963,"DIS_CODE":0,"TOWNNAME":"歸仁區","LI":"歸仁里","LIN":"13鄰","STREET":"文化街","SECT":"一段","MAREA":" ","LANE":" ","ALLEY":" ","HOUSE_NO":"１３１號","E_COORD97":177884.19,"N_COORD97":2541118.0499999998,"ADDRESS":"文化街一段１３１號","OBJECTID":642936},"geometry":{"x":177884.19000000134,"y":2541118.0500000007}},{"attributes":{"ID":642964,"DIS_CODE":0,"TOWNNAME":"歸仁區","LI":"新厝里","LIN":"20鄰","STREET":"大成路","SECT":" ","MAREA":" ","LANE":" ","ALLEY":" ","HOUSE_NO":"９０號","E_COORD97":177664.09,"N_COORD97":2540322.1800000002,"ADDRESS":"大成路９０號","OBJECTID":642937},"geometry":{"x":177664.08999999985,"y":2540322.1799999997}},{"attributes":{"ID":642965,"DIS_CODE":0,"TOWNNAME":"歸仁區","LI":"歸仁里","LIN":"26鄰","STREET":"文化一街","SECT":" ","MAREA":" ","LANE":" ","ALLEY":" ","HOUSE_NO":"１１號","E_COORD97":178207.76999999999,"N_COORD97":2541199.1299999999,"ADDRESS":"文化一街１１號","OBJECTID":642938},"geometry":{"x":178207.77000000048,"y":2541199.1300000008}},{"attributes":{"ID":642966,"DIS_CODE":0,"TOWNNAME":"歸仁區","LI":"辜厝里","LIN":"53鄰","STREET":"民權南路","SECT":" ","MAREA":" ","LANE":" ","ALLEY":" ","HOUSE_NO":"３１９號","E_COORD97":176966.92000000001,"N_COORD97":2540226.5899999999,"ADDRESS":"民權南路３１９號","OBJECTID":642939},"geometry":{"x":176966.91999999993,"y":2540226.5900000017}},{"attributes":{"ID":642967,"DIS_CODE":0,"TOWNNAME":"歸仁區","LI":"辜厝里","LIN":"53鄰","STREET":"中正十街","SECT":" ","MAREA":" ","LANE":" ","ALLEY":" ","HOUSE_NO":"２３號","E_COORD97":177007.35999999999,"N_COORD97":2540211.25,"ADDRESS":"中正十街２３號","OBJECTID":642940},"geometry":{"x":177007.36000000034,"y":2540211.25}},{"attributes":{"ID":642968,"DIS_CODE":0,"TOWNNAME":"歸仁區","LI":"媽廟里","LIN":"14鄰","STREET":"中正北路","SECT":"三段","MAREA":" ","LANE":" ","ALLEY":" ","HOUSE_NO":"１１２號","E_COORD97":177612.76000000001,"N_COORD97":2543795.7200000002,"ADDRESS":"中正北路三段１１２號","OBJECTID":642941},"geometry":{"x":177612.76000000164,"y":2543795.7200000007}},{"attributes":{"ID":642969,"DIS_CODE":0,"TOWNNAME":"歸仁區","LI":"歸仁里","LIN":"26鄰","STREET":"文化一街","SECT":" ","MAREA":" ","LANE":" ","ALLEY":" ","HOUSE_NO":"２７號","E_COORD97":178239.57000000001,"N_COORD97":2541189.1299999999,"ADDRESS":"文化一街２７號","OBJECTID":642942},"geometry":{"x":178239.5700000003,"y":2541189.1300000008}},{"attributes":{"ID":642970,"DIS_CODE":0,"TOWNNAME":"歸仁區","LI":"崙頂里","LIN":"4鄰","STREET":"大成路","SECT":" ","MAREA":" ","LANE":" ","ALLEY":" ","HOUSE_NO":"３３５號","E_COORD97":178040.03,"N_COORD97":2540137.2400000002,"ADDRESS":"大成路３３５號","OBJECTID":642943},"geometry":{"x":178040.03000000026,"y":2540137.2399999984}},{"attributes":{"ID":642971,"DIS_CODE":0,"TOWNNAME":"歸仁區","LI":"媽廟里","LIN":"5鄰","STREET":"中正北路","SECT":"三段","MAREA":" ","LANE":" ","ALLEY":" ","HOUSE_NO":"１５５號","E_COORD97":177574.56,"N_COORD97":2543741.7200000002,"ADDRESS":"中正北路三段１５５號","OBJECTID":642944},"geometry":{"x":177574.55999999959,"y":2543741.7200000007}},{"attributes":{"ID":642972,"DIS_CODE":0,"TOWNNAME":"歸仁區","LI":"新厝里","LIN":"18鄰","STREET":"中正南路","SECT":"一段","MAREA":" ","LANE":" ","ALLEY":" ","HOUSE_NO":"１５５號","E_COORD97":177448.23000000001,"N_COORD97":2540404.2000000002,"ADDRESS":"中正南路一段１５５號","OBJECTID":642945},"geometry":{"x":177448.23000000138,"y":2540404.1999999993}},{"attributes":{"ID":642973,"DIS_CODE":0,"TOWNNAME":"歸仁區","LI":"文化里","LIN":"20鄰","STREET":"大德路","SECT":" ","MAREA":" ","LANE":" ","ALLEY":" ","HOUSE_NO":"２２５號","E_COORD97":177177.57000000001,"N_COORD97":2541518.3300000001,"ADDRESS":"大德路２２５號","OBJECTID":642946},"geometry":{"x":177177.57000000123,"y":2541518.3300000001}},{"attributes":{"ID":642974,"DIS_CODE":0,"TOWNNAME":"歸仁區","LI":"文化里","LIN":"20鄰","STREET":"大德路","SECT":" ","MAREA":" ","LANE":" ","ALLEY":" ","HOUSE_NO":"２１５號","E_COORD97":177202.76999999999,"N_COORD97":2541516.3300000001,"ADDRESS":"大德路２１５號","OBJECTID":642947},"geometry":{"x":177202.77000000048,"y":2541516.3299999982}},{"attributes":{"ID":642975,"DIS_CODE":0,"TOWNNAME":"歸仁區","LI":"新厝里","LIN":"26鄰","STREET":"中正南路","SECT":"一段","MAREA":" ","LANE":" ","ALLEY":" ","HOUSE_NO":"３０１號","E_COORD97":177265.06,"N_COORD97":2540264.25,"ADDRESS":"中正南路一段３０１號","OBJECTID":642948},"geometry":{"x":177265.06000000052,"y":2540264.2500000019}},{"attributes":{"ID":642976,"DIS_CODE":0,"TOWNNAME":"歸仁區","LI":"歸仁里","LIN":"26鄰","STREET":"文化一街","SECT":" ","MAREA":" ","LANE":" ","ALLEY":" ","HOUSE_NO":"１７號","E_COORD97":178256.97,"N_COORD97":2541202.1299999999,"ADDRESS":"文化一街１７號","OBJECTID":642949},"geometry":{"x":178256.96999999974,"y":2541202.1300000008}},{"attributes":{"ID":642977,"DIS_CODE":0,"TOWNNAME":"歸仁區","LI":"歸仁里","LIN":"26鄰","STREET":"文化一街","SECT":" ","MAREA":" ","LANE":" ","ALLEY":" ","HOUSE_NO":"２２之１號","E_COORD97":178214.57000000001,"N_COORD97":2541219.1299999999,"ADDRESS":"文化一街２２之１號","OBJECTID":642950},"geometry":{"x":178214.5700000003,"y":2541219.1300000008}},{"attributes":{"ID":642978,"DIS_CODE":0,"TOWNNAME":"歸仁區","LI":"歸仁里","LIN":"13鄰","STREET":"和平二街","SECT":" ","MAREA":" ","LANE":" ","ALLEY":" ","HOUSE_NO":"１號","E_COORD97":177880.14000000001,"N_COORD97":2541072.04,"ADDRESS":"和平二街１號","OBJECTID":642951},"geometry":{"x":177880.1400000006,"y":2541072.0399999991}},{"attributes":{"ID":642979,"DIS_CODE":0,"TOWNNAME":"歸仁區","LI":"媽廟里","LIN":"13鄰","STREET":"中正北路","SECT":"三段","MAREA":" ","LANE":" ","ALLEY":" ","HOUSE_NO":"６０號","E_COORD97":177572.60999999999,"N_COORD97":2543592.7200000002,"ADDRESS":"中正北路三段６０號","OBJECTID":642952},"geometry":{"x":177572.61000000127,"y":2543592.7199999988}},{"attributes":{"ID":642980,"DIS_CODE":0,"TOWNNAME":"歸仁區","LI":"媽廟里","LIN":"4鄰","STREET":"中正北路","SECT":"三段","MAREA":" ","LANE":" ","ALLEY":" ","HOUSE_NO":"１３７號","E_COORD97":177555.85999999999,"N_COORD97":2543683.7200000002,"ADDRESS":"中正北路三段１３７號","OBJECTID":642953},"geometry":{"x":177555.86000000127,"y":2543683.7200000007}},{"attributes":{"ID":642981,"DIS_CODE":0,"TOWNNAME":"歸仁區","LI":"媽廟里","LIN":"20鄰","STREET":"中正北路","SECT":"三段","MAREA":" ","LANE":" ","ALLEY":" ","HOUSE_NO":"１６２號","E_COORD97":177620.45999999999,"N_COORD97":2543897.7200000002,"ADDRESS":"中正北路三段１６２號","OBJECTID":642954},"geometry":{"x":177620.46000000089,"y":2543897.7200000007}},{"attributes":{"ID":642982,"DIS_CODE":0,"TOWNNAME":"歸仁區","LI":"歸仁里","LIN":"25鄰","STREET":"忠孝北路","SECT":" ","MAREA":" ","LANE":" ","ALLEY":" ","HOUSE_NO":"１７６號","E_COORD97":178168.82000000001,"N_COORD97":2541150.1099999999,"ADDRESS":"忠孝北路１７６號","OBJECTID":642955},"geometry":{"x":178168.8200000003,"y":2541150.1099999994}},{"attributes":{"ID":642983,"DIS_CODE":0,"TOWNNAME":"歸仁區","LI":"歸仁里","LIN":"13鄰","STREET":"和平二街","SECT":" ","MAREA":" ","LANE":" ","ALLEY":" ","HOUSE_NO":"９號","E_COORD97":177896.54000000001,"N_COORD97":2541072.04,"ADDRESS":"和平二街９號","OBJECTID":642956},"geometry":{"x":177896.54000000097,"y":2541072.0399999991}},{"attributes":{"ID":642984,"DIS_CODE":0,"TOWNNAME":"歸仁區","LI":"歸仁里","LIN":"25鄰","STREET":"文化街","SECT":"一段","MAREA":" ","LANE":" ","ALLEY":" ","HOUSE_NO":"６７號","E_COORD97":178151.62,"N_COORD97":2541199.1299999999,"ADDRESS":"文化街一段６７號","OBJECTID":642957},"geometry":{"x":178151.62000000197,"y":2541199.1300000008}},{"attributes":{"ID":642985,"DIS_CODE":0,"TOWNNAME":"歸仁區","LI":"歸仁里","LIN":"18鄰","STREET":"大仁一街","SECT":" ","MAREA":" ","LANE":" ","ALLEY":" ","HOUSE_NO":"２１號","E_COORD97":178100.87,"N_COORD97":2541048.1099999999,"ADDRESS":"大仁一街２１號","OBJECTID":642958},"geometry":{"x":178100.87000000104,"y":2541048.1099999994}},{"attributes":{"ID":642986,"DIS_CODE":0,"TOWNNAME":"歸仁區","LI":"新厝里","LIN":"26鄰","STREET":"中正南路","SECT":"一段","MAREA":" ","LANE":" ","ALLEY":" ","HOUSE_NO":"２１１號","E_COORD97":177346.20000000001,"N_COORD97":2540264.21,"ADDRESS":"中正南路一段２１１號","OBJECTID":642959},"geometry":{"x":177346.20000000112,"y":2540264.2100000028}},{"attributes":{"ID":642987,"DIS_CODE":0,"TOWNNAME":"歸仁區","LI":"歸仁里","LIN":"13鄰","STREET":"和平二街","SECT":" ","MAREA":" ","LANE":" ","ALLEY":" ","HOUSE_NO":"５號","E_COORD97":177889.34,"N_COORD97":2541072.04,"ADDRESS":"和平二街５號","OBJECTID":642960},"geometry":{"x":177889.34000000078,"y":2541072.0399999991}},{"attributes":{"ID":642988,"DIS_CODE":0,"TOWNNAME":"歸仁區","LI":"新厝里","LIN":"24鄰","STREET":"大成十街","SECT":" ","MAREA":" ","LANE":" ","ALLEY":" ","HOUSE_NO":"３３號","E_COORD97":177665.73999999999,"N_COORD97":2540203.1800000002,"ADDRESS":"大成十街３３號","OBJECTID":642961},"geometry":{"x":177665.74000000022,"y":2540203.1800000016}},{"attributes":{"ID":642989,"DIS_CODE":0,"TOWNNAME":"歸仁區","LI":"新厝里","LIN":"24鄰","STREET":"大成十街","SECT":" ","MAREA":" ","LANE":" ","ALLEY":" ","HOUSE_NO":"３５號","E_COORD97":177662.73999999999,"N_COORD97":2540202.1800000002,"ADDRESS":"大成十街３５號","OBJECTID":642962},"geometry":{"x":177662.74000000115,"y":2540202.1800000016}},{"attributes":{"ID":642990,"DIS_CODE":0,"TOWNNAME":"歸仁區","LI":"歸仁里","LIN":"24鄰","STREET":"忠孝北路","SECT":" ","MAREA":" ","LANE":" ","ALLEY":" ","HOUSE_NO":"２３４號","E_COORD97":178076.12,"N_COORD97":2541279.1099999999,"ADDRESS":"忠孝北路２３４號","OBJECTID":642963},"geometry":{"x":178076.12000000011,"y":2541279.1099999994}},{"attributes":{"ID":642991,"DIS_CODE":0,"TOWNNAME":"歸仁區","LI":"看西里","LIN":"4鄰","STREET":"仁愛南街","SECT":" ","MAREA":" ","LANE":" ","ALLEY":" ","HOUSE_NO":"１２８號","E_COORD97":178272.45000000001,"N_COORD97":2540341.29,"ADDRESS":"仁愛南街１２８號","OBJECTID":642964},"geometry":{"x":178272.45000000019,"y":2540341.2899999991}},{"attributes":{"ID":642992,"DIS_CODE":0,"TOWNNAME":"歸仁區","LI":"看西里","LIN":"5鄰","STREET":"仁愛南街","SECT":" ","MAREA":" ","LANE":" ","ALLEY":" ","HOUSE_NO":"１８２號","E_COORD97":178236.57000000001,"N_COORD97":2540281.4900000002,"ADDRESS":"仁愛南街１８２號","OBJECTID":642965},"geometry":{"x":178236.5700000003,"y":2540281.4900000039}},{"attributes":{"ID":642993,"DIS_CODE":0,"TOWNNAME":"歸仁區","LI":"新厝里","LIN":"18鄰","STREET":"中正南路","SECT":"一段","MAREA":" ","LANE":" ","ALLEY":" ","HOUSE_NO":"１６３號","E_COORD97":177436.82999999999,"N_COORD97":2540392.2000000002,"ADDRESS":"中正南路一段１６３號","OBJECTID":642966},"geometry":{"x":177436.83000000101,"y":2540392.2000000011}},{"attributes":{"ID":642994,"DIS_CODE":0,"TOWNNAME":"歸仁區","LI":"新厝里","LIN":"26鄰","STREET":"中正南路","SECT":"一段","MAREA":" ","LANE":" ","ALLEY":" ","HOUSE_NO":"３０５號","E_COORD97":177225.95999999999,"N_COORD97":2540245.25,"ADDRESS":"中正南路一段３０５號","OBJECTID":642967},"geometry":{"x":177225.96000000089,"y":2540245.25}},{"attributes":{"ID":642995,"DIS_CODE":0,"TOWNNAME":"歸仁區","LI":"歸仁里","LIN":"26鄰","STREET":"文化一街","SECT":" ","MAREA":" ","LANE":" ","ALLEY":" ","HOUSE_NO":"７號","E_COORD97":178203.42000000001,"N_COORD97":2541204.1299999999,"ADDRESS":"文化一街７號","OBJECTID":642968},"geometry":{"x":178203.41999999899,"y":2541204.129999999}},{"attributes":{"ID":642996,"DIS_CODE":0,"TOWNNAME":"歸仁區","LI":"歸仁里","LIN":"25鄰","STREET":"忠孝北路","SECT":" ","MAREA":" ","LANE":" ","ALLEY":" ","HOUSE_NO":"１７８號","E_COORD97":178165.82000000001,"N_COORD97":2541157.1099999999,"ADDRESS":"忠孝北路１７８號","OBJECTID":642969},"geometry":{"x":178165.82000000123,"y":2541157.1099999994}},{"attributes":{"ID":642997,"DIS_CODE":0,"TOWNNAME":"歸仁區","LI":"新厝里","LIN":"13鄰","STREET":"中正南路","SECT":"一段","MAREA":" ","LANE":" ","ALLEY":" ","HOUSE_NO":"９７號","E_COORD97":177557.60000000001,"N_COORD97":2540512.5899999999,"ADDRESS":"中正南路一段９７號","OBJECTID":642970},"geometry":{"x":177557.59999999963,"y":2540512.5900000017}},{"attributes":{"ID":642998,"DIS_CODE":0,"TOWNNAME":"歸仁區","LI":"歸仁里","LIN":"13鄰","STREET":"和平二街","SECT":" ","MAREA":" ","LANE":" ","ALLEY":" ","HOUSE_NO":"１５號","E_COORD97":177910.09,"N_COORD97":2541073.04,"ADDRESS":"和平二街１５號","OBJECTID":642971},"geometry":{"x":177910.08999999985,"y":2541073.0399999991}},{"attributes":{"ID":642999,"DIS_CODE":0,"TOWNNAME":"歸仁區","LI":"媽廟里","LIN":"4鄰","STREET":"中正北路","SECT":"三段","MAREA":" ","LANE":" ","ALLEY":" ","HOUSE_NO":"１２７號","E_COORD97":177549.66,"N_COORD97":2543663.7200000002,"ADDRESS":"中正北路三段１２７號","OBJECTID":642972},"geometry":{"x":177549.66000000108,"y":2543663.7200000007}},{"attributes":{"ID":643000,"DIS_CODE":0,"TOWNNAME":"歸仁區","LI":"新厝里","LIN":"25鄰","STREET":"大成六街","SECT":" ","MAREA":" ","LANE":" ","ALLEY":" ","HOUSE_NO":"１１６號","E_COORD97":177602.39000000001,"N_COORD97":2540183.1800000002,"ADDRESS":"大成六街１１６號","OBJECTID":642973},"geometry":{"x":177602.3900000006,"y":2540183.1799999997}},{"attributes":{"ID":643001,"DIS_CODE":0,"TOWNNAME":"歸仁區","LI":"新厝里","LIN":"13鄰","STREET":"中正南路","SECT":"一段","MAREA":" ","LANE":" ","ALLEY":" ","HOUSE_NO":"９１號","E_COORD97":177564.79999999999,"N_COORD97":2540522.5899999999,"ADDRESS":"中正南路一段９１號","OBJECTID":642974},"geometry":{"x":177564.79999999981,"y":2540522.5900000017}},{"attributes":{"ID":643002,"DIS_CODE":0,"TOWNNAME":"歸仁區","LI":"新厝里","LIN":"8鄰","STREET":"中正三街","SECT":" ","MAREA":" ","LANE":" ","ALLEY":" ","HOUSE_NO":"７４號","E_COORD97":177784.89999999999,"N_COORD97":2540553.27,"ADDRESS":"中正三街７４號","OBJECTID":642975},"geometry":{"x":177784.90000000037,"y":2540553.2699999996}},{"attributes":{"ID":643003,"DIS_CODE":0,"TOWNNAME":"歸仁區","LI":"文化里","LIN":"20鄰","STREET":"大德路","SECT":" ","MAREA":" ","LANE":" ","ALLEY":" ","HOUSE_NO":"２２９號","E_COORD97":177167.87,"N_COORD97":2541519.3300000001,"ADDRESS":"大德路２２９號","OBJECTID":642976},"geometry":{"x":177167.87000000011,"y":2541519.3300000001}},{"attributes":{"ID":643004,"DIS_CODE":0,"TOWNNAME":"歸仁區","LI":"歸南里","LIN":"25鄰","STREET":"民生南街","SECT":"二段","MAREA":" ","LANE":" ","ALLEY":" ","HOUSE_NO":"１８６號","E_COORD97":176095.66,"N_COORD97":2540193.25,"ADDRESS":"民生南街二段１８６號","OBJECTID":642977},"geometry":{"x":176095.66000000108,"y":2540193.25}},{"attributes":{"ID":643005,"DIS_CODE":0,"TOWNNAME":"歸仁區","LI":"辜厝里","LIN":"13鄰","STREET":"大順二街","SECT":" ","MAREA":" ","LANE":" ","ALLEY":" ","HOUSE_NO":"１２號","E_COORD97":177491.72,"N_COORD97":2540567.5899999999,"ADDRESS":"大順二街１２號","OBJECTID":642978},"geometry":{"x":177491.72000000067,"y":2540567.5899999999}},{"attributes":{"ID":643006,"DIS_CODE":0,"TOWNNAME":"歸仁區","LI":"歸仁里","LIN":"26鄰","STREET":"文化一街","SECT":" ","MAREA":" ","LANE":" ","ALLEY":" ","HOUSE_NO":"４０號","E_COORD97":178254.73999999999,"N_COORD97":2541148.1299999999,"ADDRESS":"文化一街４０號","OBJECTID":642979},"geometry":{"x":178254.74000000115,"y":2541148.1300000008}},{"attributes":{"ID":643007,"DIS_CODE":0,"TOWNNAME":"歸仁區","LI":"新厝里","LIN":"25鄰","STREET":"大成六街","SECT":" ","MAREA":" ","LANE":" ","ALLEY":" ","HOUSE_NO":"９２號","E_COORD97":177574.64000000001,"N_COORD97":2540226.1800000002,"ADDRESS":"大成六街９２號","OBJECTID":642980},"geometry":{"x":177574.64000000153,"y":2540226.1800000016}},{"attributes":{"ID":643008,"DIS_CODE":0,"TOWNNAME":"歸仁區","LI":"新厝里","LIN":"4鄰","STREET":"復興路","SECT":" ","MAREA":" ","LANE":" ","ALLEY":" ","HOUSE_NO":"９２號","E_COORD97":177780.82000000001,"N_COORD97":2540634.25,"ADDRESS":"復興路９２號","OBJECTID":642981},"geometry":{"x":177780.82000000216,"y":2540634.25}},{"attributes":{"ID":643009,"DIS_CODE":0,"TOWNNAME":"歸仁區","LI":"新厝里","LIN":"4鄰","STREET":"復興路","SECT":" ","MAREA":" ","LANE":" ","ALLEY":" ","HOUSE_NO":"１０６號","E_COORD97":177757.54000000001,"N_COORD97":2540640.9399999999,"ADDRESS":"復興路１０６號","OBJECTID":642982},"geometry":{"x":177757.54000000097,"y":2540640.9400000013}},{"attributes":{"ID":643010,"DIS_CODE":0,"TOWNNAME":"歸仁區","LI":"新厝里","LIN":"20鄰","STREET":"大成六街","SECT":" ","MAREA":" ","LANE":" ","ALLEY":" ","HOUSE_NO":"９號","E_COORD97":177634.19,"N_COORD97":2540307.1800000002,"ADDRESS":"大成六街９號","OBJECTID":642983},"geometry":{"x":177634.18999999948,"y":2540307.1800000016}},{"attributes":{"ID":643011,"DIS_CODE":0,"TOWNNAME":"歸仁區","LI":"歸南里","LIN":"25鄰","STREET":"民生南街","SECT":"二段","MAREA":" ","LANE":" ","ALLEY":" ","HOUSE_NO":"１８０號","E_COORD97":176103.85999999999,"N_COORD97":2540204.25,"ADDRESS":"民生南街二段１８０號","OBJECTID":642984},"geometry":{"x":176103.86000000034,"y":2540204.25}},{"attributes":{"ID":643012,"DIS_CODE":0,"TOWNNAME":"歸仁區","LI":"歸仁里","LIN":"4鄰","STREET":"和平北街","SECT":" ","MAREA":" ","LANE":" ","ALLEY":" ","HOUSE_NO":"６７號","E_COORD97":177842.19,"N_COORD97":2541011.04,"ADDRESS":"和平北街６７號","OBJECTID":642985},"geometry":{"x":177842.19000000041,"y":2541011.0399999991}},{"attributes":{"ID":643013,"DIS_CODE":0,"TOWNNAME":"歸仁區","LI":"歸仁里","LIN":"26鄰","STREET":"文化一街","SECT":" ","MAREA":" ","LANE":" ","ALLEY":" ","HOUSE_NO":"３９號","E_COORD97":178265.17000000001,"N_COORD97":2541187.1299999999,"ADDRESS":"文化一街３９號","OBJECTID":642986},"geometry":{"x":178265.17000000086,"y":2541187.129999999}},{"attributes":{"ID":643014,"DIS_CODE":0,"TOWNNAME":"歸仁區","LI":"辜厝里","LIN":"43鄰","STREET":"民權九街","SECT":" ","MAREA":" ","LANE":" ","ALLEY":" ","HOUSE_NO":"１３號","E_COORD97":176998.5,"N_COORD97":2540358.4900000002,"ADDRESS":"民權九街１３號","OBJECTID":642987},"geometry":{"x":176998.50000000093,"y":2540358.4900000002}},{"attributes":{"ID":643015,"DIS_CODE":0,"TOWNNAME":"歸仁區","LI":"新厝里","LIN":"14鄰","STREET":"公園十街","SECT":" ","MAREA":" ","LANE":" ","ALLEY":" ","HOUSE_NO":"１５號","E_COORD97":177665.51999999999,"N_COORD97":2540455.5899999999,"ADDRESS":"公園十街１５號","OBJECTID":642988},"geometry":{"x":177665.52000000048,"y":2540455.5899999999}},{"attributes":{"ID":643016,"DIS_CODE":0,"TOWNNAME":"歸仁區","LI":"新厝里","LIN":"4鄰","STREET":"和平南街","SECT":" ","MAREA":" ","LANE":" ","ALLEY":" ","HOUSE_NO":"５０號","E_COORD97":177808.76999999999,"N_COORD97":2540638.25,"ADDRESS":"和平南街５０號","OBJECTID":642989},"geometry":{"x":177808.76999999955,"y":2540638.25}},{"attributes":{"ID":643017,"DIS_CODE":0,"TOWNNAME":"歸仁區","LI":"歸仁里","LIN":"18鄰","STREET":"大仁二街","SECT":" ","MAREA":" ","LANE":" ","ALLEY":" ","HOUSE_NO":"３３號","E_COORD97":178121.14000000001,"N_COORD97":2541085.1099999999,"ADDRESS":"大仁二街３３號","OBJECTID":642990},"geometry":{"x":178121.1400000006,"y":2541085.1099999994}},{"attributes":{"ID":643018,"DIS_CODE":0,"TOWNNAME":"歸仁區","LI":"新厝里","LIN":"20鄰","STREET":"大成六街","SECT":" ","MAREA":" ","LANE":" ","ALLEY":" ","HOUSE_NO":"１號","E_COORD97":177647.59,"N_COORD97":2540315.1800000002,"ADDRESS":"大成六街１號","OBJECTID":642991},"geometry":{"x":177647.58999999985,"y":2540315.1800000016}},{"attributes":{"ID":643019,"DIS_CODE":0,"TOWNNAME":"歸仁區","LI":"歸仁里","LIN":"26鄰","STREET":"文化一街","SECT":" ","MAREA":" ","LANE":" ","ALLEY":" ","HOUSE_NO":"３５號","E_COORD97":178226.17000000001,"N_COORD97":2541178.1299999999,"ADDRESS":"文化一街３５號","OBJECTID":642992},"geometry":{"x":178226.17000000086,"y":2541178.1300000008}},{"attributes":{"ID":643020,"DIS_CODE":0,"TOWNNAME":"歸仁區","LI":"新厝里","LIN":"25鄰","STREET":"大成六街","SECT":" ","MAREA":" ","LANE":" ","ALLEY":" ","HOUSE_NO":"１１２號","E_COORD97":177597.29000000001,"N_COORD97":2540191.1800000002,"ADDRESS":"大成六街１１２號","OBJECTID":642993},"geometry":{"x":177597.29000000004,"y":2540191.1799999997}},{"attributes":{"ID":643021,"DIS_CODE":0,"TOWNNAME":"歸仁區","LI":"歸南里","LIN":"25鄰","STREET":"民生南街","SECT":"二段","MAREA":" ","LANE":" ","ALLEY":" ","HOUSE_NO":"１９６號","E_COORD97":176084.26000000001,"N_COORD97":2540177.25,"ADDRESS":"民生南街二段１９６號","OBJECTID":642994},"geometry":{"x":176084.26000000071,"y":2540177.25}},{"attributes":{"ID":643022,"DIS_CODE":0,"TOWNNAME":"歸仁區","LI":"辜厝里","LIN":"42鄰","STREET":"民權南路","SECT":" ","MAREA":" ","LANE":" ","ALLEY":" ","HOUSE_NO":"１８１號","E_COORD97":176971.16,"N_COORD97":2540403.4199999999,"ADDRESS":"民權南路１８１號","OBJECTID":642995},"geometry":{"x":176971.16000000015,"y":2540403.4199999999}},{"attributes":{"ID":643023,"DIS_CODE":0,"TOWNNAME":"歸仁區","LI":"歸仁里","LIN":"4鄰","STREET":"和平三街","SECT":" ","MAREA":" ","LANE":" ","ALLEY":" ","HOUSE_NO":"１０號","E_COORD97":177817.59,"N_COORD97":2541023.04,"ADDRESS":"和平三街１０號","OBJECTID":642996},"geometry":{"x":177817.59000000171,"y":2541023.040000001}},{"attributes":{"ID":643024,"DIS_CODE":0,"TOWNNAME":"歸仁區","LI":"歸仁里","LIN":"26鄰","STREET":"文化一街","SECT":" ","MAREA":" ","LANE":" ","ALLEY":" ","HOUSE_NO":"４１號","E_COORD97":178262.07000000001,"N_COORD97":2541184.1299999999,"ADDRESS":"文化一街４１號","OBJECTID":642997},"geometry":{"x":178262.0700000003,"y":2541184.129999999}},{"attributes":{"ID":643025,"DIS_CODE":0,"TOWNNAME":"歸仁區","LI":"新厝里","LIN":"25鄰","STREET":"大成六街","SECT":" ","MAREA":" ","LANE":" ","ALLEY":" ","HOUSE_NO":"１００號","E_COORD97":177582.98999999999,"N_COORD97":2540213.1800000002,"ADDRESS":"大成六街１００號","OBJECTID":642998},"geometry":{"x":177582.99000000209,"y":2540213.1800000016}},{"attributes":{"ID":643026,"DIS_CODE":0,"TOWNNAME":"歸仁區","LI":"新厝里","LIN":"25鄰","STREET":"大成六街","SECT":" ","MAREA":" ","LANE":" ","ALLEY":" ","HOUSE_NO":"９６號","E_COORD97":177578.73999999999,"N_COORD97":2540220.1800000002,"ADDRESS":"大成六街９６號","OBJECTID":642999},"geometry":{"x":177578.74000000022,"y":2540220.1800000016}},{"attributes":{"ID":643027,"DIS_CODE":0,"TOWNNAME":"歸仁區","LI":"南興里","LIN":"40鄰","STREET":"民生六街","SECT":" ","MAREA":" ","LANE":" ","ALLEY":" ","HOUSE_NO":"３號","E_COORD97":176233.94,"N_COORD97":2540833.29,"ADDRESS":"民生六街３號","OBJECTID":643000},"geometry":{"x":176233.94000000041,"y":2540833.2899999991}}]}