{"displayFieldName":"TOWNNAME","fieldAliases":{"ID":"ID","DIS_CODE":"DIS_CODE","TOWNNAME":"TOWNNAME","LI":"LI","LIN":"LIN","STREET":"STREET","SECT":"SECT","MAREA":"MAREA","LANE":"LANE","ALLEY":"ALLEY","HOUSE_NO":"HOUSE_NO","E_COORD97":"E_COORD97","N_COORD97":"N_COORD97","ADDRESS":"ADDRESS","OBJECTID":"OBJECTID"},"geometryType":"esriGeometryPoint","spatialReference":{"wkid":102443,"latestWkid":3826},"fields":[{"name":"ID","type":"esriFieldTypeDouble","alias":"ID"},{"name":"DIS_CODE","type":"esriFieldTypeInteger","alias":"DIS_CODE"},{"name":"TOWNNAME","type":"esriFieldTypeString","alias":"TOWNNAME","length":8},{"name":"LI","type":"esriFieldTypeString","alias":"LI","length":8},{"name":"LIN","type":"esriFieldTypeString","alias":"LIN","length":12},{"name":"STREET","type":"esriFieldTypeString","alias":"STREET","length":20},{"name":"SECT","type":"esriFieldTypeString","alias":"SECT","length":8},{"name":"MAREA","type":"esriFieldTypeString","alias":"MAREA","length":12},{"name":"LANE","type":"esriFieldTypeString","alias":"LANE","length":10},{"name":"ALLEY","type":"esriFieldTypeString","alias":"ALLEY","length":10},{"name":"HOUSE_NO","type":"esriFieldTypeString","alias":"HOUSE_NO","length":20},{"name":"E_COORD97","type":"esriFieldTypeDouble","alias":"E_COORD97"},{"name":"N_COORD97","type":"esriFieldTypeDouble","alias":"N_COORD97"},{"name":"ADDRESS","type":"esriFieldTypeString","alias":"ADDRESS","length":50},{"name":"OBJECTID","type":"esriFieldTypeOID","alias":"OBJECTID"}],"features":[{"attributes":{"ID":317209,"DIS_CODE":0,"TOWNNAME":"新化區","LI":"知義里","LIN":" ","STREET":" ","SECT":" ","MAREA":"新和庄","LANE":" ","ALLEY":" ","HOUSE_NO":"１９４號","E_COORD97":181623.19,"N_COORD97":2547109.25,"ADDRESS":"新和庄１９４號","OBJECTID":317201},"geometry":{"x":181623.19000000227,"y":2547109.2500000019}},{"attributes":{"ID":317210,"DIS_CODE":0,"TOWNNAME":"善化區","LI":"南關里","LIN":"7鄰","STREET":"三民路","SECT":" ","MAREA":" ","LANE":"南興巷","ALLEY":" ","HOUSE_NO":"１２號","E_COORD97":176939.62,"N_COORD97":2558621.2599999998,"ADDRESS":"三民路南興巷１２號","OBJECTID":317202},"geometry":{"x":176939.62000000104,"y":2558621.2600000035}},{"attributes":{"ID":317211,"DIS_CODE":0,"TOWNNAME":"善化區","LI":"南關里","LIN":"7鄰","STREET":"三民路","SECT":" ","MAREA":" ","LANE":"南興巷","ALLEY":" ","HOUSE_NO":"１９號","E_COORD97":176922.73999999999,"N_COORD97":2558605.5099999998,"ADDRESS":"三民路南興巷１９號","OBJECTID":317203},"geometry":{"x":176922.74000000022,"y":2558605.5099999998}},{"attributes":{"ID":317212,"DIS_CODE":0,"TOWNNAME":"善化區","LI":"南關里","LIN":"7鄰","STREET":"三民路","SECT":" ","MAREA":" ","LANE":"南興巷","ALLEY":" ","HOUSE_NO":"４３號","E_COORD97":176872.37,"N_COORD97":2558608.7599999998,"ADDRESS":"三民路南興巷４３號","OBJECTID":317204},"geometry":{"x":176872.37000000104,"y":2558608.7600000016}},{"attributes":{"ID":317213,"DIS_CODE":0,"TOWNNAME":"善化區","LI":"南關里","LIN":"7鄰","STREET":"三民路","SECT":" ","MAREA":" ","LANE":"南興巷","ALLEY":" ","HOUSE_NO":"２４號","E_COORD97":176915.04000000001,"N_COORD97":2558622.2599999998,"ADDRESS":"三民路南興巷２４號","OBJECTID":317205},"geometry":{"x":176915.04000000097,"y":2558622.2600000016}},{"attributes":{"ID":317214,"DIS_CODE":0,"TOWNNAME":"善化區","LI":"南關里","LIN":"7鄰","STREET":"三民路","SECT":" ","MAREA":" ","LANE":"南興巷","ALLEY":" ","HOUSE_NO":"４７號","E_COORD97":176864.07000000001,"N_COORD97":2558609.2599999998,"ADDRESS":"三民路南興巷４７號","OBJECTID":317206},"geometry":{"x":176864.07000000123,"y":2558609.2600000016}},{"attributes":{"ID":317215,"DIS_CODE":0,"TOWNNAME":"善化區","LI":"坐駕里","LIN":"17鄰","STREET":"文化路","SECT":" ","MAREA":" ","LANE":" ","ALLEY":" ","HOUSE_NO":"２６號九樓之１","E_COORD97":177970.09,"N_COORD97":2558361.29,"ADDRESS":"文化路２６號九樓之１","OBJECTID":317207},"geometry":{"x":177970.09000000171,"y":2558361.2899999991}},{"attributes":{"ID":317216,"DIS_CODE":0,"TOWNNAME":"新化區","LI":"知義里","LIN":" ","STREET":" ","SECT":" ","MAREA":"新和庄","LANE":" ","ALLEY":" ","HOUSE_NO":"１４５號之６","E_COORD97":181979.23999999999,"N_COORD97":2546545.2599999998,"ADDRESS":"新和庄１４５號之６","OBJECTID":317208},"geometry":{"x":181979.24000000115,"y":2546545.2600000016}},{"attributes":{"ID":317217,"DIS_CODE":0,"TOWNNAME":"善化區","LI":"坐駕里","LIN":"17鄰","STREET":"文化路","SECT":" ","MAREA":" ","LANE":" ","ALLEY":" ","HOUSE_NO":"２６號九樓之２","E_COORD97":177970.09,"N_COORD97":2558361.29,"ADDRESS":"文化路２６號九樓之２","OBJECTID":317209},"geometry":{"x":177970.09000000171,"y":2558361.2899999991}},{"attributes":{"ID":317218,"DIS_CODE":0,"TOWNNAME":"善化區","LI":"坐駕里","LIN":"17鄰","STREET":"文化路","SECT":" ","MAREA":" ","LANE":" ","ALLEY":" ","HOUSE_NO":"２６號十樓之１","E_COORD97":177970.09,"N_COORD97":2558361.29,"ADDRESS":"文化路２６號十樓之１","OBJECTID":317210},"geometry":{"x":177970.09000000171,"y":2558361.2899999991}},{"attributes":{"ID":317219,"DIS_CODE":0,"TOWNNAME":"歸仁區","LI":"看東里","LIN":"8鄰","STREET":"成功一街","SECT":" ","MAREA":" ","LANE":"１２７巷","ALLEY":" ","HOUSE_NO":"１９號","E_COORD97":178582.73094499999,"N_COORD97":2540012.03272,"ADDRESS":"成功一街１２７巷１９號","OBJECTID":317211},"geometry":{"x":178582.73094499949,"y":2540012.0327210017}},{"attributes":{"ID":317220,"DIS_CODE":0,"TOWNNAME":"中西區","LI":"協和里","LIN":"9鄰","STREET":"成功路","SECT":" ","MAREA":" ","LANE":" ","ALLEY":" ","HOUSE_NO":"５６１號","E_COORD97":167381.19183900001,"N_COORD97":2544850.1042200001,"ADDRESS":"成功路５６１號","OBJECTID":317212},"geometry":{"x":167381.19183900114,"y":2544850.1042220015}},{"attributes":{"ID":317221,"DIS_CODE":0,"TOWNNAME":"北區","LI":"新勝里","LIN":"4鄰","STREET":"北園街","SECT":" ","MAREA":" ","LANE":"５３巷","ALLEY":" ","HOUSE_NO":"２４號","E_COORD97":170295.73000000001,"N_COORD97":2545568.8799999999,"ADDRESS":"北園街５３巷２４號","OBJECTID":317213},"geometry":{"x":170295.73000000231,"y":2545568.879999999}},{"attributes":{"ID":317222,"DIS_CODE":0,"TOWNNAME":"北區","LI":"新勝里","LIN":"4鄰","STREET":"北園街","SECT":" ","MAREA":" ","LANE":"５３巷","ALLEY":" ","HOUSE_NO":"２６號","E_COORD97":170292.09,"N_COORD97":2545568.02,"ADDRESS":"北園街５３巷２６號","OBJECTID":317214},"geometry":{"x":170292.08999999985,"y":2545568.0199999996}},{"attributes":{"ID":317223,"DIS_CODE":0,"TOWNNAME":"北區","LI":"新勝里","LIN":"4鄰","STREET":"北園街","SECT":" ","MAREA":" ","LANE":"５３巷","ALLEY":" ","HOUSE_NO":"２６號之１","E_COORD97":170287.82999999999,"N_COORD97":2545567.1499999999,"ADDRESS":"北園街５３巷２６號之１","OBJECTID":317215},"geometry":{"x":170287.83000000194,"y":2545567.1500000022}},{"attributes":{"ID":317224,"DIS_CODE":0,"TOWNNAME":"北區","LI":"新勝里","LIN":"4鄰","STREET":"北園街","SECT":" ","MAREA":" ","LANE":"５３巷","ALLEY":" ","HOUSE_NO":"２８號","E_COORD97":170283.17000000001,"N_COORD97":2545566.9900000002,"ADDRESS":"北園街５３巷２８號","OBJECTID":317216},"geometry":{"x":170283.16999999993,"y":2545566.9899999984}},{"attributes":{"ID":317225,"DIS_CODE":0,"TOWNNAME":"北區","LI":"新勝里","LIN":"4鄰","STREET":"北園街","SECT":" ","MAREA":" ","LANE":"５３巷","ALLEY":" ","HOUSE_NO":"３２號","E_COORD97":170275.35000000001,"N_COORD97":2545567.3100000001,"ADDRESS":"北園街５３巷３２號","OBJECTID":317217},"geometry":{"x":170275.35000000149,"y":2545567.3100000005}},{"attributes":{"ID":317226,"DIS_CODE":0,"TOWNNAME":"北區","LI":"新勝里","LIN":"4鄰","STREET":"北園街","SECT":" ","MAREA":" ","LANE":" ","ALLEY":" ","HOUSE_NO":"１７之１０號","E_COORD97":170304.03,"N_COORD97":2545559.4900000002,"ADDRESS":"北園街１７之１０號","OBJECTID":317218},"geometry":{"x":170304.03000000119,"y":2545559.4900000002}},{"attributes":{"ID":317227,"DIS_CODE":0,"TOWNNAME":"歸仁區","LI":"南興里","LIN":"22鄰","STREET":"南興街","SECT":" ","MAREA":" ","LANE":" ","ALLEY":" ","HOUSE_NO":"３１０號四樓之２","E_COORD97":175527.96139700001,"N_COORD97":2541261.26517,"ADDRESS":"南興街３１０號四樓之２","OBJECTID":317219},"geometry":{"x":175527.96139700059,"y":2541261.2651650012}},{"attributes":{"ID":317228,"DIS_CODE":0,"TOWNNAME":"北區","LI":"新勝里","LIN":"4鄰","STREET":"北園街","SECT":" ","MAREA":" ","LANE":"５３巷","ALLEY":" ","HOUSE_NO":"８號","E_COORD97":170340.85000000001,"N_COORD97":2545574.52,"ADDRESS":"北園街５３巷８號","OBJECTID":317220},"geometry":{"x":170340.84999999963,"y":2545574.5200000014}},{"attributes":{"ID":317229,"DIS_CODE":0,"TOWNNAME":"北區","LI":"新勝里","LIN":"4鄰","STREET":"北園街","SECT":" ","MAREA":" ","LANE":"５３巷","ALLEY":" ","HOUSE_NO":"８號之１","E_COORD97":170338.25,"N_COORD97":2545573.73,"ADDRESS":"北園街５３巷８號之１","OBJECTID":317221},"geometry":{"x":170338.25,"y":2545573.7300000023}},{"attributes":{"ID":317230,"DIS_CODE":0,"TOWNNAME":"北區","LI":"新勝里","LIN":"7鄰","STREET":"北園街","SECT":" ","MAREA":" ","LANE":"５３巷","ALLEY":" ","HOUSE_NO":"１１號","E_COORD97":170250.59,"N_COORD97":2545599.6800000002,"ADDRESS":"北園街５３巷１１號","OBJECTID":317222},"geometry":{"x":170250.59000000078,"y":2545599.6800000016}},{"attributes":{"ID":317231,"DIS_CODE":0,"TOWNNAME":"北區","LI":"光武里","LIN":"4鄰","STREET":"大武街","SECT":" ","MAREA":" ","LANE":" ","ALLEY":" ","HOUSE_NO":"１４５號","E_COORD97":169617.73000000001,"N_COORD97":2545890.9199999999,"ADDRESS":"大武街１４５號","OBJECTID":317223},"geometry":{"x":169617.73000000138,"y":2545890.9200000018}},{"attributes":{"ID":317232,"DIS_CODE":0,"TOWNNAME":"北區","LI":"光武里","LIN":"4鄰","STREET":"大武街","SECT":" ","MAREA":" ","LANE":" ","ALLEY":" ","HOUSE_NO":"１４５號之１","E_COORD97":169618.20999999999,"N_COORD97":2545894.7599999998,"ADDRESS":"大武街１４５號之１","OBJECTID":317224},"geometry":{"x":169618.20999999996,"y":2545894.7600000016}},{"attributes":{"ID":317233,"DIS_CODE":0,"TOWNNAME":"北區","LI":"光武里","LIN":"4鄰","STREET":"大武街","SECT":" ","MAREA":" ","LANE":" ","ALLEY":" ","HOUSE_NO":"１４７號","E_COORD97":169617.48999999999,"N_COORD97":2545900.5099999998,"ADDRESS":"大武街１４７號","OBJECTID":317225},"geometry":{"x":169617.49000000115,"y":2545900.5100000016}},{"attributes":{"ID":317234,"DIS_CODE":0,"TOWNNAME":"鹽水區","LI":"歡雅里","LIN":"13鄰","STREET":" ","SECT":" ","MAREA":"尾寮","LANE":" ","ALLEY":" ","HOUSE_NO":"６５號","E_COORD97":172057.16,"N_COORD97":2576512.3799999999,"ADDRESS":"尾寮６５號","OBJECTID":317226},"geometry":{"x":172057.16000000201,"y":2576512.379999999}},{"attributes":{"ID":317235,"DIS_CODE":0,"TOWNNAME":"北區","LI":"光武里","LIN":"4鄰","STREET":"大武街","SECT":" ","MAREA":" ","LANE":" ","ALLEY":" ","HOUSE_NO":"１４９號","E_COORD97":169617.73000000001,"N_COORD97":2545905.7799999998,"ADDRESS":"大武街１４９號","OBJECTID":317227},"geometry":{"x":169617.73000000138,"y":2545905.7799999993}},{"attributes":{"ID":317236,"DIS_CODE":0,"TOWNNAME":"北區","LI":"光武里","LIN":"4鄰","STREET":"大武街","SECT":" ","MAREA":" ","LANE":" ","ALLEY":" ","HOUSE_NO":"１５１號","E_COORD97":169617.48999999999,"N_COORD97":2545909.6200000001,"ADDRESS":"大武街１５１號","OBJECTID":317228},"geometry":{"x":169617.49000000115,"y":2545909.6200000048}},{"attributes":{"ID":317237,"DIS_CODE":0,"TOWNNAME":"北區","LI":"光武里","LIN":"4鄰","STREET":"大武街","SECT":" ","MAREA":" ","LANE":" ","ALLEY":" ","HOUSE_NO":"１５３號","E_COORD97":169617.73000000001,"N_COORD97":2545912.9700000002,"ADDRESS":"大武街１５３號","OBJECTID":317229},"geometry":{"x":169617.73000000138,"y":2545912.9700000007}},{"attributes":{"ID":317238,"DIS_CODE":0,"TOWNNAME":"北區","LI":"光武里","LIN":"4鄰","STREET":"長榮路","SECT":"五段","MAREA":" ","LANE":" ","ALLEY":" ","HOUSE_NO":"３５３號","E_COORD97":169616.76999999999,"N_COORD97":2545916.5699999998,"ADDRESS":"長榮路五段３５３號","OBJECTID":317230},"geometry":{"x":169616.77000000048,"y":2545916.5700000022}},{"attributes":{"ID":317239,"DIS_CODE":0,"TOWNNAME":"北區","LI":"光武里","LIN":"4鄰","STREET":"長榮路","SECT":"五段","MAREA":" ","LANE":" ","ALLEY":" ","HOUSE_NO":"３５５號","E_COORD97":169610.76999999999,"N_COORD97":2545917.0499999998,"ADDRESS":"長榮路五段３５５號","OBJECTID":317231},"geometry":{"x":169610.76999999955,"y":2545917.0500000026}},{"attributes":{"ID":317240,"DIS_CODE":0,"TOWNNAME":"北區","LI":"光武里","LIN":"4鄰","STREET":"長榮路","SECT":"五段","MAREA":" ","LANE":" ","ALLEY":" ","HOUSE_NO":"３５７號","E_COORD97":169607.64999999999,"N_COORD97":2545917.77,"ADDRESS":"長榮路五段３５７號","OBJECTID":317232},"geometry":{"x":169607.65000000037,"y":2545917.7700000014}},{"attributes":{"ID":317241,"DIS_CODE":0,"TOWNNAME":"北區","LI":"光武里","LIN":"4鄰","STREET":"長榮路","SECT":"五段","MAREA":" ","LANE":" ","ALLEY":" ","HOUSE_NO":"３５９號","E_COORD97":169604.29000000001,"N_COORD97":2545918.7200000002,"ADDRESS":"長榮路五段３５９號","OBJECTID":317233},"geometry":{"x":169604.29000000004,"y":2545918.7200000044}},{"attributes":{"ID":317242,"DIS_CODE":0,"TOWNNAME":"北區","LI":"光武里","LIN":"4鄰","STREET":"長榮路","SECT":"五段","MAREA":" ","LANE":" ","ALLEY":" ","HOUSE_NO":"３６１號","E_COORD97":169600.22,"N_COORD97":2545919.2000000002,"ADDRESS":"長榮路五段３６１號","OBJECTID":317234},"geometry":{"x":169600.22000000067,"y":2545919.1999999993}},{"attributes":{"ID":317243,"DIS_CODE":0,"TOWNNAME":"鹽水區","LI":"孫厝里","LIN":"13鄰","STREET":" ","SECT":" ","MAREA":"羊稠厝","LANE":" ","ALLEY":" ","HOUSE_NO":"２號","E_COORD97":169608.44,"N_COORD97":2576004.9500000002,"ADDRESS":"羊稠厝２號","OBJECTID":317235},"geometry":{"x":169608.44000000041,"y":2576004.9499999993}},{"attributes":{"ID":317244,"DIS_CODE":0,"TOWNNAME":"歸仁區","LI":"看東里","LIN":"8鄰","STREET":"成功一街","SECT":" ","MAREA":" ","LANE":"１２７巷","ALLEY":" ","HOUSE_NO":"２１號","E_COORD97":178584.426294,"N_COORD97":2540018.3827200001,"ADDRESS":"成功一街１２７巷２１號","OBJECTID":317236},"geometry":{"x":178584.42629399989,"y":2540018.3827180006}},{"attributes":{"ID":317245,"DIS_CODE":0,"TOWNNAME":"歸仁區","LI":"看東里","LIN":"8鄰","STREET":"成功一街","SECT":" ","MAREA":" ","LANE":"１２７巷","ALLEY":" ","HOUSE_NO":"１５號","E_COORD97":178575.10187400001,"N_COORD97":2540008.4343900001,"ADDRESS":"成功一街１２７巷１５號","OBJECTID":317237},"geometry":{"x":178575.10187400132,"y":2540008.4343900029}},{"attributes":{"ID":317246,"DIS_CODE":0,"TOWNNAME":"北區","LI":"光武里","LIN":"4鄰","STREET":"長榮路","SECT":"五段","MAREA":" ","LANE":"３７３巷","ALLEY":" ","HOUSE_NO":"１號","E_COORD97":169574.78,"N_COORD97":2545910.7799999998,"ADDRESS":"長榮路五段３７３巷１號","OBJECTID":317238},"geometry":{"x":169574.78000000119,"y":2545910.7800000012}},{"attributes":{"ID":317247,"DIS_CODE":0,"TOWNNAME":"北區","LI":"光武里","LIN":"4鄰","STREET":"長榮路","SECT":"五段","MAREA":" ","LANE":"３７３巷","ALLEY":" ","HOUSE_NO":"３號","E_COORD97":169576.38,"N_COORD97":2545901.4100000001,"ADDRESS":"長榮路五段３７３巷３號","OBJECTID":317239},"geometry":{"x":169576.37999999989,"y":2545901.410000002}},{"attributes":{"ID":317248,"DIS_CODE":0,"TOWNNAME":"南區","LI":"興農里","LIN":"4鄰","STREET":"灣裡路","SECT":" ","MAREA":" ","LANE":"２１１巷","ALLEY":" ","HOUSE_NO":"８０號之２","E_COORD97":166475.79999999999,"N_COORD97":2536597.77,"ADDRESS":"灣裡路２１１巷８０號之２","OBJECTID":317240},"geometry":{"x":166475.80000000075,"y":2536597.7700000014}},{"attributes":{"ID":317249,"DIS_CODE":0,"TOWNNAME":"南區","LI":"再興里","LIN":"14鄰","STREET":"金華路","SECT":"二段","MAREA":" ","LANE":"１００巷","ALLEY":" ","HOUSE_NO":"１３號","E_COORD97":167146.39999999999,"N_COORD97":2542098.8399999999,"ADDRESS":"金華路二段１００巷１３號","OBJECTID":317241},"geometry":{"x":167146.40000000224,"y":2542098.8399999999}},{"attributes":{"ID":317250,"DIS_CODE":0,"TOWNNAME":"南區","LI":"田寮里","LIN":"14鄰","STREET":"西門路","SECT":"一段","MAREA":" ","LANE":"３６１巷","ALLEY":" ","HOUSE_NO":"１０號","E_COORD97":167689.85000000001,"N_COORD97":2542124.5899999999,"ADDRESS":"西門路一段３６１巷１０號","OBJECTID":317242},"geometry":{"x":167689.84999999963,"y":2542124.5899999999}},{"attributes":{"ID":317251,"DIS_CODE":0,"TOWNNAME":"善化區","LI":"光文里","LIN":"7鄰","STREET":"光文路","SECT":" ","MAREA":" ","LANE":"３９巷","ALLEY":" ","HOUSE_NO":"２１號","E_COORD97":178953.09,"N_COORD97":2559494.7799999998,"ADDRESS":"光文路３９巷２１號","OBJECTID":317243},"geometry":{"x":178953.08999999985,"y":2559494.7799999993}},{"attributes":{"ID":317252,"DIS_CODE":0,"TOWNNAME":"善化區","LI":"光文里","LIN":"7鄰","STREET":"建業路","SECT":" ","MAREA":" ","LANE":"２４５巷","ALLEY":" ","HOUSE_NO":"４０號","E_COORD97":177934.60999999999,"N_COORD97":2560168.5299999998,"ADDRESS":"建業路２４５巷４０號","OBJECTID":317244},"geometry":{"x":177934.61000000034,"y":2560168.5300000031}},{"attributes":{"ID":317253,"DIS_CODE":0,"TOWNNAME":"善化區","LI":"坐駕里","LIN":"17鄰","STREET":"文化路","SECT":" ","MAREA":" ","LANE":" ","ALLEY":" ","HOUSE_NO":"２６號十樓之２","E_COORD97":177970.09,"N_COORD97":2558361.29,"ADDRESS":"文化路２６號十樓之２","OBJECTID":317245},"geometry":{"x":177970.09000000171,"y":2558361.2899999991}},{"attributes":{"ID":317254,"DIS_CODE":0,"TOWNNAME":"善化區","LI":"坐駕里","LIN":"17鄰","STREET":"文化路","SECT":" ","MAREA":" ","LANE":" ","ALLEY":" ","HOUSE_NO":"２６號十一樓之１","E_COORD97":177970.09,"N_COORD97":2558361.29,"ADDRESS":"文化路２６號十一樓之１","OBJECTID":317246},"geometry":{"x":177970.09000000171,"y":2558361.2899999991}},{"attributes":{"ID":317255,"DIS_CODE":0,"TOWNNAME":"善化區","LI":"坐駕里","LIN":"17鄰","STREET":"文化路","SECT":" ","MAREA":" ","LANE":" ","ALLEY":" ","HOUSE_NO":"２６號十一樓之２","E_COORD97":177970.09,"N_COORD97":2558361.29,"ADDRESS":"文化路２６號十一樓之２","OBJECTID":317247},"geometry":{"x":177970.09000000171,"y":2558361.2899999991}},{"attributes":{"ID":317256,"DIS_CODE":0,"TOWNNAME":"善化區","LI":"坐駕里","LIN":"17鄰","STREET":"文化路","SECT":" ","MAREA":" ","LANE":" ","ALLEY":" ","HOUSE_NO":"２６號十二樓之１","E_COORD97":177970.09,"N_COORD97":2558361.29,"ADDRESS":"文化路２６號十二樓之１","OBJECTID":317248},"geometry":{"x":177970.09000000171,"y":2558361.2899999991}},{"attributes":{"ID":317257,"DIS_CODE":0,"TOWNNAME":"善化區","LI":"坐駕里","LIN":"17鄰","STREET":"文化路","SECT":" ","MAREA":" ","LANE":" ","ALLEY":" ","HOUSE_NO":"２６號十二樓之２","E_COORD97":177970.09,"N_COORD97":2558361.29,"ADDRESS":"文化路２６號十二樓之２","OBJECTID":317249},"geometry":{"x":177970.09000000171,"y":2558361.2899999991}},{"attributes":{"ID":317258,"DIS_CODE":0,"TOWNNAME":"南區","LI":"文華里","LIN":"17鄰","STREET":"南樂街","SECT":" ","MAREA":" ","LANE":" ","ALLEY":" ","HOUSE_NO":"１３號三樓","E_COORD97":166836.76999999999,"N_COORD97":2543166.2400000002,"ADDRESS":"南樂街１３號三樓","OBJECTID":317250},"geometry":{"x":166836.77000000048,"y":2543166.2400000021}},{"attributes":{"ID":317259,"DIS_CODE":0,"TOWNNAME":"仁德區","LI":"新田里","LIN":"17鄰","STREET":"民安路","SECT":"二段","MAREA":" ","LANE":" ","ALLEY":" ","HOUSE_NO":"７５號五樓之１","E_COORD97":173489.59,"N_COORD97":2539223.0600000001,"ADDRESS":"民安路二段７５號五樓之１","OBJECTID":317251},"geometry":{"x":173489.58999999892,"y":2539223.0600000005}},{"attributes":{"ID":317260,"DIS_CODE":0,"TOWNNAME":"南區","LI":"建南里","LIN":"1鄰","STREET":"中華南路","SECT":"二段","MAREA":" ","LANE":"５３巷","ALLEY":" ","HOUSE_NO":"８８號","E_COORD97":167352.70000000001,"N_COORD97":2540128.6800000002,"ADDRESS":"中華南路二段５３巷８８號","OBJECTID":317252},"geometry":{"x":167352.70000000205,"y":2540128.6800000016}},{"attributes":{"ID":317261,"DIS_CODE":0,"TOWNNAME":"南區","LI":"建南里","LIN":"1鄰","STREET":"中華南路","SECT":"二段","MAREA":" ","LANE":"５３巷","ALLEY":" ","HOUSE_NO":"９０號","E_COORD97":167353,"N_COORD97":2540123,"ADDRESS":"中華南路二段５３巷９０號","OBJECTID":317253},"geometry":{"x":167353,"y":2540123.0000000019}},{"attributes":{"ID":317262,"DIS_CODE":0,"TOWNNAME":"鹽水區","LI":"孫厝里","LIN":"15鄰","STREET":" ","SECT":" ","MAREA":"羊稠厝","LANE":" ","ALLEY":" ","HOUSE_NO":"３０號","E_COORD97":169523.26000000001,"N_COORD97":2575866.0899999999,"ADDRESS":"羊稠厝３０號","OBJECTID":317254},"geometry":{"x":169523.25999999885,"y":2575866.0900000036}},{"attributes":{"ID":317263,"DIS_CODE":0,"TOWNNAME":"南區","LI":"建南里","LIN":"1鄰","STREET":"中華南路","SECT":"二段","MAREA":" ","LANE":"５３巷","ALLEY":" ","HOUSE_NO":"９２號","E_COORD97":167353,"N_COORD97":2540117.0299999998,"ADDRESS":"中華南路二段５３巷９２號","OBJECTID":317255},"geometry":{"x":167353,"y":2540117.0299999993}},{"attributes":{"ID":317264,"DIS_CODE":0,"TOWNNAME":"南區","LI":"建南里","LIN":"1鄰","STREET":"中華南路","SECT":"二段","MAREA":" ","LANE":"５３巷","ALLEY":" ","HOUSE_NO":"９４號","E_COORD97":167353.87,"N_COORD97":2540101.48,"ADDRESS":"中華南路二段５３巷９４號","OBJECTID":317256},"geometry":{"x":167353.87000000104,"y":2540101.4800000004}},{"attributes":{"ID":317265,"DIS_CODE":0,"TOWNNAME":"善化區","LI":"光文里","LIN":"7鄰","STREET":"建業路","SECT":" ","MAREA":" ","LANE":"１９０巷","ALLEY":" ","HOUSE_NO":"６０號","E_COORD97":178869.20999999999,"N_COORD97":2559874.2799999998,"ADDRESS":"建業路１９０巷６０號","OBJECTID":317257},"geometry":{"x":178869.20999999996,"y":2559874.2799999993}},{"attributes":{"ID":317266,"DIS_CODE":0,"TOWNNAME":"善化區","LI":"光文里","LIN":"7鄰","STREET":"建業路","SECT":" ","MAREA":" ","LANE":"１９０巷","ALLEY":" ","HOUSE_NO":"２０號之１","E_COORD97":178692.79999999999,"N_COORD97":2560050.0299999998,"ADDRESS":"建業路１９０巷２０號之１","OBJECTID":317258},"geometry":{"x":178692.80000000075,"y":2560050.0300000012}},{"attributes":{"ID":317267,"DIS_CODE":0,"TOWNNAME":"善化區","LI":"光文里","LIN":"7鄰","STREET":"光文路","SECT":" ","MAREA":" ","LANE":"３９巷","ALLEY":" ","HOUSE_NO":"３４號","E_COORD97":178927.64999999999,"N_COORD97":2559516.7799999998,"ADDRESS":"光文路３９巷３４號","OBJECTID":317259},"geometry":{"x":178927.65000000037,"y":2559516.7800000012}},{"attributes":{"ID":317268,"DIS_CODE":0,"TOWNNAME":"善化區","LI":"光文里","LIN":"7鄰","STREET":"光文路","SECT":" ","MAREA":" ","LANE":"３９巷","ALLEY":" ","HOUSE_NO":"３６號","E_COORD97":178923.64999999999,"N_COORD97":2559517.2799999998,"ADDRESS":"光文路３９巷３６號","OBJECTID":317260},"geometry":{"x":178923.6500000013,"y":2559517.2800000012}},{"attributes":{"ID":317269,"DIS_CODE":0,"TOWNNAME":"歸仁區","LI":"歸仁里","LIN":"7鄰","STREET":"中山路","SECT":"一段","MAREA":" ","LANE":" ","ALLEY":" ","HOUSE_NO":"５６８號","E_COORD97":177677.49142199999,"N_COORD97":2540805.9036099999,"ADDRESS":"中山路一段５６８號","OBJECTID":317261},"geometry":{"x":177677.49142200127,"y":2540805.9036110044}},{"attributes":{"ID":317270,"DIS_CODE":0,"TOWNNAME":"善化區","LI":"光文里","LIN":"7鄰","STREET":"建業路","SECT":" ","MAREA":" ","LANE":"１９０巷","ALLEY":" ","HOUSE_NO":"３７號","E_COORD97":178863.57000000001,"N_COORD97":2559901.5299999998,"ADDRESS":"建業路１９０巷３７號","OBJECTID":317262},"geometry":{"x":178863.5700000003,"y":2559901.5300000012}},{"attributes":{"ID":317271,"DIS_CODE":0,"TOWNNAME":"善化區","LI":"西關里","LIN":"7鄰","STREET":"復興街","SECT":" ","MAREA":" ","LANE":"３６巷","ALLEY":" ","HOUSE_NO":"４號","E_COORD97":177073.81,"N_COORD97":2559122.0099999998,"ADDRESS":"復興街３６巷４號","OBJECTID":317263},"geometry":{"x":177073.81000000052,"y":2559122.0100000016}},{"attributes":{"ID":317272,"DIS_CODE":0,"TOWNNAME":"善化區","LI":"光文里","LIN":"7鄰","STREET":"光文路","SECT":" ","MAREA":" ","LANE":"３９巷","ALLEY":" ","HOUSE_NO":"８號","E_COORD97":178981.25,"N_COORD97":2559507.02,"ADDRESS":"光文路３９巷８號","OBJECTID":317264},"geometry":{"x":178981.25000000186,"y":2559507.0199999996}},{"attributes":{"ID":317273,"DIS_CODE":0,"TOWNNAME":"善化區","LI":"光文里","LIN":"7鄰","STREET":"光文路","SECT":" ","MAREA":" ","LANE":"３９巷","ALLEY":" ","HOUSE_NO":"２３號","E_COORD97":178948.89999999999,"N_COORD97":2559495.5299999998,"ADDRESS":"光文路３９巷２３號","OBJECTID":317265},"geometry":{"x":178948.9000000013,"y":2559495.5299999993}},{"attributes":{"ID":317274,"DIS_CODE":0,"TOWNNAME":"善化區","LI":"光文里","LIN":"7鄰","STREET":"光文路","SECT":" ","MAREA":" ","LANE":"２７巷","ALLEY":" ","HOUSE_NO":"４號","E_COORD97":178986.29000000001,"N_COORD97":2559458.7799999998,"ADDRESS":"光文路２７巷４號","OBJECTID":317266},"geometry":{"x":178986.29000000097,"y":2559458.7800000012}},{"attributes":{"ID":317275,"DIS_CODE":0,"TOWNNAME":"善化區","LI":"光文里","LIN":"7鄰","STREET":"光文路","SECT":" ","MAREA":" ","LANE":"３９巷","ALLEY":" ","HOUSE_NO":"２４號","E_COORD97":178948.75,"N_COORD97":2559512.7799999998,"ADDRESS":"光文路３９巷２４號","OBJECTID":317267},"geometry":{"x":178948.75,"y":2559512.7800000012}},{"attributes":{"ID":317276,"DIS_CODE":0,"TOWNNAME":"善化區","LI":"光文里","LIN":"7鄰","STREET":"建業路","SECT":" ","MAREA":" ","LANE":"１９０巷","ALLEY":" ","HOUSE_NO":"３６號","E_COORD97":178843.20999999999,"N_COORD97":2559903.0299999998,"ADDRESS":"建業路１９０巷３６號","OBJECTID":317268},"geometry":{"x":178843.21000000089,"y":2559903.0299999993}},{"attributes":{"ID":317277,"DIS_CODE":0,"TOWNNAME":"善化區","LI":"光文里","LIN":"7鄰","STREET":"建業路","SECT":" ","MAREA":" ","LANE":"１９０巷","ALLEY":" ","HOUSE_NO":"２０號之５","E_COORD97":178699.59,"N_COORD97":2560137.7799999998,"ADDRESS":"建業路１９０巷２０號之５","OBJECTID":317269},"geometry":{"x":178699.59000000078,"y":2560137.7800000012}},{"attributes":{"ID":317278,"DIS_CODE":0,"TOWNNAME":"新營區","LI":"民榮里","LIN":"17鄰","STREET":"富強街","SECT":" ","MAREA":" ","LANE":" ","ALLEY":" ","HOUSE_NO":"３４號三樓","E_COORD97":178988.16,"N_COORD97":2577803.4500000002,"ADDRESS":"富強街３４號三樓","OBJECTID":317270},"geometry":{"x":178988.16000000015,"y":2577803.4500000011}},{"attributes":{"ID":317279,"DIS_CODE":0,"TOWNNAME":"仁德區","LI":"新田里","LIN":"17鄰","STREET":"民安路","SECT":"二段","MAREA":" ","LANE":" ","ALLEY":" ","HOUSE_NO":"７７號一樓之３","E_COORD97":173501.28,"N_COORD97":2539215.3100000001,"ADDRESS":"民安路二段７７號一樓之３","OBJECTID":317271},"geometry":{"x":173501.28000000119,"y":2539215.3100000042}},{"attributes":{"ID":317280,"DIS_CODE":0,"TOWNNAME":"仁德區","LI":"新田里","LIN":"17鄰","STREET":"民安路","SECT":"二段","MAREA":" ","LANE":" ","ALLEY":" ","HOUSE_NO":"７７號之１十樓之３","E_COORD97":173513.48999999999,"N_COORD97":2539241.3100000001,"ADDRESS":"民安路二段７７號之１十樓之３","OBJECTID":317272},"geometry":{"x":173513.49000000115,"y":2539241.3100000005}},{"attributes":{"ID":317281,"DIS_CODE":0,"TOWNNAME":"仁德區","LI":"新田里","LIN":"17鄰","STREET":"民安路","SECT":"二段","MAREA":" ","LANE":" ","ALLEY":" ","HOUSE_NO":"７７號之１二樓之２","E_COORD97":173513.53,"N_COORD97":2539241.3100000001,"ADDRESS":"民安路二段７７號之１二樓之２","OBJECTID":317273},"geometry":{"x":173513.53000000026,"y":2539241.3100000005}},{"attributes":{"ID":317282,"DIS_CODE":0,"TOWNNAME":"鹽水區","LI":"田寮里","LIN":"4鄰","STREET":" ","SECT":" ","MAREA":"田寮","LANE":" ","ALLEY":" ","HOUSE_NO":"４７號","E_COORD97":171066.64999999999,"N_COORD97":2575183.8500000001,"ADDRESS":"田寮４７號","OBJECTID":317274},"geometry":{"x":171066.65000000037,"y":2575183.8500000015}},{"attributes":{"ID":317283,"DIS_CODE":0,"TOWNNAME":"南區","LI":"明興里","LIN":"13鄰","STREET":"金華路","SECT":"一段","MAREA":" ","LANE":"６０巷","ALLEY":" ","HOUSE_NO":"３０號","E_COORD97":166974.98000000001,"N_COORD97":2540372.5800000001,"ADDRESS":"金華路一段６０巷３０號","OBJECTID":317275},"geometry":{"x":166974.98000000138,"y":2540372.5800000038}},{"attributes":{"ID":317284,"DIS_CODE":0,"TOWNNAME":"南區","LI":"明興里","LIN":"14鄰","STREET":"金華路","SECT":"一段","MAREA":" ","LANE":"８巷","ALLEY":" ","HOUSE_NO":"３７號","E_COORD97":166971.98000000001,"N_COORD97":2540274.6899999999,"ADDRESS":"金華路一段８巷３７號","OBJECTID":317276},"geometry":{"x":166971.98000000138,"y":2540274.6899999995}},{"attributes":{"ID":317285,"DIS_CODE":0,"TOWNNAME":"南區","LI":"廣州里","LIN":"26鄰","STREET":"福吉三街","SECT":" ","MAREA":" ","LANE":"８０巷","ALLEY":" ","HOUSE_NO":"３號","E_COORD97":167210.54000000001,"N_COORD97":2542802.3799999999,"ADDRESS":"福吉三街８０巷３號","OBJECTID":317277},"geometry":{"x":167210.54000000004,"y":2542802.379999999}},{"attributes":{"ID":317286,"DIS_CODE":0,"TOWNNAME":"南區","LI":"建南里","LIN":"18鄰","STREET":"明興路","SECT":" ","MAREA":" ","LANE":"１１９巷","ALLEY":" ","HOUSE_NO":"７號","E_COORD97":166720.60000000001,"N_COORD97":2539867.8700000001,"ADDRESS":"明興路１１９巷７號","OBJECTID":317278},"geometry":{"x":166720.60000000149,"y":2539867.8700000029}},{"attributes":{"ID":317287,"DIS_CODE":0,"TOWNNAME":"鹽水區","LI":"武廟里","LIN":"13鄰","STREET":"民生街","SECT":" ","MAREA":" ","LANE":"１４巷","ALLEY":" ","HOUSE_NO":"１５號","E_COORD97":175073.25,"N_COORD97":2580116.7000000002,"ADDRESS":"民生街１４巷１５號","OBJECTID":317279},"geometry":{"x":175073.25,"y":2580116.7000000011}},{"attributes":{"ID":317288,"DIS_CODE":0,"TOWNNAME":"鹽水區","LI":"武廟里","LIN":"13鄰","STREET":"民生街","SECT":" ","MAREA":" ","LANE":"１４巷","ALLEY":" ","HOUSE_NO":"２１之１號","E_COORD97":175013.29999999999,"N_COORD97":2580115.23,"ADDRESS":"民生街１４巷２１之１號","OBJECTID":317280},"geometry":{"x":175013.29999999981,"y":2580115.2300000023}},{"attributes":{"ID":317289,"DIS_CODE":0,"TOWNNAME":"善化區","LI":"光文里","LIN":"7鄰","STREET":"光文路","SECT":" ","MAREA":" ","LANE":"３９巷","ALLEY":" ","HOUSE_NO":"４２號","E_COORD97":178911.25,"N_COORD97":2559519.7799999998,"ADDRESS":"光文路３９巷４２號","OBJECTID":317281},"geometry":{"x":178911.25,"y":2559519.7800000012}},{"attributes":{"ID":317290,"DIS_CODE":0,"TOWNNAME":"善化區","LI":"光文里","LIN":"7鄰","STREET":"光文路","SECT":" ","MAREA":" ","LANE":"３９巷","ALLEY":" ","HOUSE_NO":"４８號","E_COORD97":178898.64000000001,"N_COORD97":2559522.0299999998,"ADDRESS":"光文路３９巷４８號","OBJECTID":317282},"geometry":{"x":178898.6400000006,"y":2559522.0300000012}},{"attributes":{"ID":317291,"DIS_CODE":0,"TOWNNAME":"永康區","LI":"新樹里","LIN":"7鄰","STREET":"西勢路","SECT":" ","MAREA":" ","LANE":"２２８巷","ALLEY":" ","HOUSE_NO":"４９號","E_COORD97":175742.10000000001,"N_COORD97":2546923.8300000001,"ADDRESS":"西勢路２２８巷４９號","OBJECTID":317283},"geometry":{"x":175742.09999999963,"y":2546923.8300000001}},{"attributes":{"ID":317292,"DIS_CODE":0,"TOWNNAME":"永康區","LI":"新樹里","LIN":"7鄰","STREET":"西勢路","SECT":" ","MAREA":" ","LANE":"２２８巷","ALLEY":" ","HOUSE_NO":"５８號","E_COORD97":175756.84,"N_COORD97":2546891.8199999998,"ADDRESS":"西勢路２２８巷５８號","OBJECTID":317284},"geometry":{"x":175756.84000000078,"y":2546891.8200000022}},{"attributes":{"ID":317293,"DIS_CODE":0,"TOWNNAME":"東區","LI":"富強里","LIN":"7鄰","STREET":"裕農路","SECT":" ","MAREA":" ","LANE":"４４６巷","ALLEY":" ","HOUSE_NO":"１２５號之１２","E_COORD97":171262.44,"N_COORD97":2542932.1600000001,"ADDRESS":"裕農路４４６巷１２５號之１２","OBJECTID":317285},"geometry":{"x":171262.44000000134,"y":2542932.160000002}},{"attributes":{"ID":317294,"DIS_CODE":0,"TOWNNAME":"東區","LI":"富強里","LIN":"7鄰","STREET":"裕農路","SECT":" ","MAREA":" ","LANE":"４４６巷","ALLEY":" ","HOUSE_NO":"１２５號之１３","E_COORD97":171262.17999999999,"N_COORD97":2542936.3500000001,"ADDRESS":"裕農路４４６巷１２５號之１３","OBJECTID":317286},"geometry":{"x":171262.18000000063,"y":2542936.3499999978}},{"attributes":{"ID":317295,"DIS_CODE":0,"TOWNNAME":"仁德區","LI":"新田里","LIN":"17鄰","STREET":"民安路","SECT":"二段","MAREA":" ","LANE":" ","ALLEY":" ","HOUSE_NO":"７７號之１一樓之２","E_COORD97":173513.53,"N_COORD97":2539241.3100000001,"ADDRESS":"民安路二段７７號之１一樓之２","OBJECTID":317287},"geometry":{"x":173513.53000000026,"y":2539241.3100000005}},{"attributes":{"ID":317296,"DIS_CODE":0,"TOWNNAME":"仁德區","LI":"新田里","LIN":"17鄰","STREET":"民安路","SECT":"二段","MAREA":" ","LANE":" ","ALLEY":" ","HOUSE_NO":"７５號十一樓之１","E_COORD97":173490.84,"N_COORD97":2539223.0600000001,"ADDRESS":"民安路二段７５號十一樓之１","OBJECTID":317288},"geometry":{"x":173490.83999999985,"y":2539223.0600000005}},{"attributes":{"ID":317297,"DIS_CODE":0,"TOWNNAME":"仁德區","LI":"新田里","LIN":"17鄰","STREET":"民安路","SECT":"二段","MAREA":" ","LANE":" ","ALLEY":" ","HOUSE_NO":"７５號四樓之３","E_COORD97":173489.69,"N_COORD97":2539223.0600000001,"ADDRESS":"民安路二段７５號四樓之３","OBJECTID":317289},"geometry":{"x":173489.69000000227,"y":2539223.0600000005}},{"attributes":{"ID":317298,"DIS_CODE":0,"TOWNNAME":"仁德區","LI":"新田里","LIN":"17鄰","STREET":"民安路","SECT":"二段","MAREA":" ","LANE":" ","ALLEY":" ","HOUSE_NO":"７５號三樓之３","E_COORD97":173489.69,"N_COORD97":2539223.0600000001,"ADDRESS":"民安路二段７５號三樓之３","OBJECTID":317290},"geometry":{"x":173489.69000000227,"y":2539223.0600000005}},{"attributes":{"ID":317299,"DIS_CODE":0,"TOWNNAME":"仁德區","LI":"新田里","LIN":"17鄰","STREET":"民安路","SECT":"二段","MAREA":" ","LANE":" ","ALLEY":" ","HOUSE_NO":"７５號九樓之１","E_COORD97":173489.59,"N_COORD97":2539223.0600000001,"ADDRESS":"民安路二段７５號九樓之１","OBJECTID":317291},"geometry":{"x":173489.58999999892,"y":2539223.0600000005}},{"attributes":{"ID":317300,"DIS_CODE":0,"TOWNNAME":"佳里區","LI":"安西里","LIN":"1鄰","STREET":"中山路","SECT":" ","MAREA":" ","LANE":" ","ALLEY":" ","HOUSE_NO":"３７７號","E_COORD97":165706.59,"N_COORD97":2562635.7999999998,"ADDRESS":"中山路３７７號","OBJECTID":317292},"geometry":{"x":165706.58999999985,"y":2562635.8000000007}},{"attributes":{"ID":317301,"DIS_CODE":0,"TOWNNAME":"鹽水區","LI":"田寮里","LIN":"4鄰","STREET":" ","SECT":" ","MAREA":"田寮","LANE":" ","ALLEY":" ","HOUSE_NO":"３８號","E_COORD97":170985.60000000001,"N_COORD97":2575177.4900000002,"ADDRESS":"田寮３８號","OBJECTID":317293},"geometry":{"x":170985.60000000149,"y":2575177.4900000002}},{"attributes":{"ID":317302,"DIS_CODE":0,"TOWNNAME":"鹽水區","LI":"田寮里","LIN":"4鄰","STREET":" ","SECT":" ","MAREA":"田寮","LANE":" ","ALLEY":" ","HOUSE_NO":"３９號","E_COORD97":170981.51999999999,"N_COORD97":2575126.3799999999,"ADDRESS":"田寮３９號","OBJECTID":317294},"geometry":{"x":170981.52000000048,"y":2575126.379999999}},{"attributes":{"ID":317303,"DIS_CODE":0,"TOWNNAME":"鹽水區","LI":"田寮里","LIN":"4鄰","STREET":" ","SECT":" ","MAREA":"田寮","LANE":" ","ALLEY":" ","HOUSE_NO":"４０號之１","E_COORD97":170989.60000000001,"N_COORD97":2575136.8900000001,"ADDRESS":"田寮４０號之１","OBJECTID":317295},"geometry":{"x":170989.60000000056,"y":2575136.8900000025}},{"attributes":{"ID":317304,"DIS_CODE":0,"TOWNNAME":"關廟區","LI":"關廟里","LIN":"2鄰","STREET":"忠孝街","SECT":" ","MAREA":" ","LANE":" ","ALLEY":" ","HOUSE_NO":"２９號","E_COORD97":180957.743796,"N_COORD97":2540110.4781499999,"ADDRESS":"忠孝街２９號","OBJECTID":317296},"geometry":{"x":180957.74379600119,"y":2540110.4781450015}},{"attributes":{"ID":317305,"DIS_CODE":0,"TOWNNAME":"鹽水區","LI":"田寮里","LIN":"4鄰","STREET":" ","SECT":" ","MAREA":"田寮","LANE":" ","ALLEY":" ","HOUSE_NO":"４０號","E_COORD97":170994.48999999999,"N_COORD97":2575156.1600000001,"ADDRESS":"田寮４０號","OBJECTID":317297},"geometry":{"x":170994.49000000115,"y":2575156.1600000001}},{"attributes":{"ID":317306,"DIS_CODE":0,"TOWNNAME":"鹽水區","LI":"田寮里","LIN":"4鄰","STREET":" ","SECT":" ","MAREA":"田寮","LANE":" ","ALLEY":" ","HOUSE_NO":"４１號","E_COORD97":171007.17999999999,"N_COORD97":2575165.23,"ADDRESS":"田寮４１號","OBJECTID":317298},"geometry":{"x":171007.18000000156,"y":2575165.2300000023}},{"attributes":{"ID":317307,"DIS_CODE":0,"TOWNNAME":"鹽水區","LI":"田寮里","LIN":"4鄰","STREET":" ","SECT":" ","MAREA":"田寮","LANE":" ","ALLEY":" ","HOUSE_NO":"４２號之１","E_COORD97":171002.51999999999,"N_COORD97":2575179.6000000001,"ADDRESS":"田寮４２號之１","OBJECTID":317299},"geometry":{"x":171002.51999999955,"y":2575179.5999999996}},{"attributes":{"ID":317308,"DIS_CODE":0,"TOWNNAME":"鹽水區","LI":"田寮里","LIN":"4鄰","STREET":" ","SECT":" ","MAREA":"田寮","LANE":" ","ALLEY":" ","HOUSE_NO":"４２號","E_COORD97":171016.01999999999,"N_COORD97":2575171.1099999999,"ADDRESS":"田寮４２號","OBJECTID":317300},"geometry":{"x":171016.01999999955,"y":2575171.1100000013}},{"attributes":{"ID":317309,"DIS_CODE":0,"TOWNNAME":"鹽水區","LI":"田寮里","LIN":"4鄰","STREET":" ","SECT":" ","MAREA":"田寮","LANE":" ","ALLEY":" ","HOUSE_NO":"４４號","E_COORD97":171048.42999999999,"N_COORD97":2575188.04,"ADDRESS":"田寮４４號","OBJECTID":317301},"geometry":{"x":171048.43000000063,"y":2575188.040000001}},{"attributes":{"ID":317310,"DIS_CODE":0,"TOWNNAME":"鹽水區","LI":"田寮里","LIN":"4鄰","STREET":" ","SECT":" ","MAREA":"田寮","LANE":" ","ALLEY":" ","HOUSE_NO":"４７號之１","E_COORD97":171060.95000000001,"N_COORD97":2575168.02,"ADDRESS":"田寮４７號之１","OBJECTID":317302},"geometry":{"x":171060.95000000019,"y":2575168.0200000014}},{"attributes":{"ID":317311,"DIS_CODE":0,"TOWNNAME":"鹽水區","LI":"田寮里","LIN":"1鄰","STREET":" ","SECT":" ","MAREA":"田寮","LANE":" ","ALLEY":" ","HOUSE_NO":"３號","E_COORD97":171107.12,"N_COORD97":2575131.3599999999,"ADDRESS":"田寮３號","OBJECTID":317303},"geometry":{"x":171107.12000000104,"y":2575131.3600000031}},{"attributes":{"ID":317312,"DIS_CODE":0,"TOWNNAME":"鹽水區","LI":"田寮里","LIN":"1鄰","STREET":" ","SECT":" ","MAREA":"田寮","LANE":" ","ALLEY":" ","HOUSE_NO":"５號","E_COORD97":171069.26000000001,"N_COORD97":2575140.3900000001,"ADDRESS":"田寮５號","OBJECTID":317304},"geometry":{"x":171069.25999999885,"y":2575140.3900000025}},{"attributes":{"ID":317313,"DIS_CODE":0,"TOWNNAME":"鹽水區","LI":"田寮里","LIN":"1鄰","STREET":" ","SECT":" ","MAREA":"田寮","LANE":" ","ALLEY":" ","HOUSE_NO":"６號","E_COORD97":171067.51000000001,"N_COORD97":2575117.04,"ADDRESS":"田寮６號","OBJECTID":317305},"geometry":{"x":171067.50999999978,"y":2575117.040000001}},{"attributes":{"ID":317314,"DIS_CODE":0,"TOWNNAME":"東區","LI":"富強里","LIN":"7鄰","STREET":"裕農路","SECT":" ","MAREA":" ","LANE":"４４６巷","ALLEY":" ","HOUSE_NO":"１２５號之１５","E_COORD97":171262.57000000001,"N_COORD97":2542945.2400000002,"ADDRESS":"裕農路４４６巷１２５號之１５","OBJECTID":317306},"geometry":{"x":171262.5700000003,"y":2542945.2400000021}},{"attributes":{"ID":317315,"DIS_CODE":0,"TOWNNAME":"東區","LI":"富強里","LIN":"7鄰","STREET":"裕農路","SECT":" ","MAREA":" ","LANE":"４４６巷","ALLEY":" ","HOUSE_NO":"１２５號之１６","E_COORD97":171262.17999999999,"N_COORD97":2542950.0800000001,"ADDRESS":"裕農路４４６巷１２５號之１６","OBJECTID":317307},"geometry":{"x":171262.18000000063,"y":2542950.0800000019}},{"attributes":{"ID":317316,"DIS_CODE":0,"TOWNNAME":"歸仁區","LI":"看東里","LIN":"6鄰","STREET":"成功一街","SECT":" ","MAREA":" ","LANE":" ","ALLEY":" ","HOUSE_NO":"９０號","E_COORD97":178535.685008,"N_COORD97":2540033.8343799999,"ADDRESS":"成功一街９０號","OBJECTID":317308},"geometry":{"x":178535.68500799965,"y":2540033.8343759999}},{"attributes":{"ID":317317,"DIS_CODE":0,"TOWNNAME":"鹽水區","LI":"橋南里","LIN":"4鄰","STREET":"行昌路","SECT":" ","MAREA":" ","LANE":"４５巷","ALLEY":" ","HOUSE_NO":"５號","E_COORD97":175224.60999999999,"N_COORD97":2579379.8700000001,"ADDRESS":"行昌路４５巷５號","OBJECTID":317309},"geometry":{"x":175224.61000000127,"y":2579379.870000001}},{"attributes":{"ID":317318,"DIS_CODE":0,"TOWNNAME":"鹽水區","LI":"孫厝里","LIN":"17鄰","STREET":" ","SECT":" ","MAREA":"羊稠厝","LANE":" ","ALLEY":" ","HOUSE_NO":"５２號之１","E_COORD97":169424.48000000001,"N_COORD97":2575735.8700000001,"ADDRESS":"羊稠厝５２號之１","OBJECTID":317310},"geometry":{"x":169424.48000000138,"y":2575735.870000001}},{"attributes":{"ID":317319,"DIS_CODE":0,"TOWNNAME":"鹽水區","LI":"孫厝里","LIN":"12鄰","STREET":" ","SECT":" ","MAREA":"羊稠厝","LANE":" ","ALLEY":" ","HOUSE_NO":"５７號之１","E_COORD97":169539.67999999999,"N_COORD97":2576082.8500000001,"ADDRESS":"羊稠厝５７號之１","OBJECTID":317311},"geometry":{"x":169539.68000000063,"y":2576082.8499999996}},{"attributes":{"ID":317320,"DIS_CODE":0,"TOWNNAME":"鹽水區","LI":"孫厝里","LIN":"12鄰","STREET":" ","SECT":" ","MAREA":"羊稠厝","LANE":" ","ALLEY":" ","HOUSE_NO":"５７號","E_COORD97":169529.67000000001,"N_COORD97":2576071.8599999999,"ADDRESS":"羊稠厝５７號","OBJECTID":317312},"geometry":{"x":169529.67000000086,"y":2576071.8600000013}},{"attributes":{"ID":317321,"DIS_CODE":0,"TOWNNAME":"鹽水區","LI":"孫厝里","LIN":"12鄰","STREET":" ","SECT":" ","MAREA":"羊稠厝","LANE":" ","ALLEY":" ","HOUSE_NO":"５８號之１","E_COORD97":169573,"N_COORD97":2576099.5499999998,"ADDRESS":"羊稠厝５８號之１","OBJECTID":317313},"geometry":{"x":169573.00000000093,"y":2576099.5500000007}},{"attributes":{"ID":317322,"DIS_CODE":0,"TOWNNAME":"鹽水區","LI":"孫厝里","LIN":"12鄰","STREET":" ","SECT":" ","MAREA":"羊稠厝","LANE":" ","ALLEY":" ","HOUSE_NO":"５８號之２","E_COORD97":169572.14999999999,"N_COORD97":2576123.3300000001,"ADDRESS":"羊稠厝５８號之２","OBJECTID":317314},"geometry":{"x":169572.14999999944,"y":2576123.3300000019}},{"attributes":{"ID":317323,"DIS_CODE":0,"TOWNNAME":"鹽水區","LI":"孫厝里","LIN":"12鄰","STREET":" ","SECT":" ","MAREA":"羊稠厝","LANE":" ","ALLEY":" ","HOUSE_NO":"５８號","E_COORD97":169553.10000000001,"N_COORD97":2576096.73,"ADDRESS":"羊稠厝５８號","OBJECTID":317315},"geometry":{"x":169553.10000000149,"y":2576096.7300000023}},{"attributes":{"ID":317324,"DIS_CODE":0,"TOWNNAME":"鹽水區","LI":"孫厝里","LIN":"12鄰","STREET":" ","SECT":" ","MAREA":"羊稠厝","LANE":" ","ALLEY":" ","HOUSE_NO":"５９號","E_COORD97":169600,"N_COORD97":2576100,"ADDRESS":"羊稠厝５９號","OBJECTID":317316},"geometry":{"x":169600.00000000186,"y":2576100}},{"attributes":{"ID":317325,"DIS_CODE":0,"TOWNNAME":"鹽水區","LI":"孫厝里","LIN":"12鄰","STREET":" ","SECT":" ","MAREA":"羊稠厝","LANE":" ","ALLEY":" ","HOUSE_NO":"６０號之１","E_COORD97":169620.67999999999,"N_COORD97":2576116.27,"ADDRESS":"羊稠厝６０號之１","OBJECTID":317317},"geometry":{"x":169620.68000000063,"y":2576116.2700000014}},{"attributes":{"ID":317326,"DIS_CODE":0,"TOWNNAME":"鹽水區","LI":"歡雅里","LIN":"10鄰","STREET":" ","SECT":" ","MAREA":"尾寮","LANE":" ","ALLEY":" ","HOUSE_NO":"１６號","E_COORD97":171918.29999999999,"N_COORD97":2576695.7200000002,"ADDRESS":"尾寮１６號","OBJECTID":317318},"geometry":{"x":171918.29999999981,"y":2576695.7200000007}},{"attributes":{"ID":317327,"DIS_CODE":0,"TOWNNAME":"鹽水區","LI":"橋南里","LIN":"4鄰","STREET":"行昌路","SECT":" ","MAREA":" ","LANE":"４５巷","ALLEY":" ","HOUSE_NO":"６號","E_COORD97":175201.07000000001,"N_COORD97":2579379.8700000001,"ADDRESS":"行昌路４５巷６號","OBJECTID":317319},"geometry":{"x":175201.07000000123,"y":2579379.870000001}},{"attributes":{"ID":317328,"DIS_CODE":0,"TOWNNAME":"東區","LI":"富強里","LIN":"7鄰","STREET":"裕農路","SECT":" ","MAREA":" ","LANE":"４４６巷","ALLEY":" ","HOUSE_NO":"１２５號之２","E_COORD97":171263.48999999999,"N_COORD97":2542900.2000000002,"ADDRESS":"裕農路４４６巷１２５號之２","OBJECTID":317320},"geometry":{"x":171263.49000000115,"y":2542900.2000000011}},{"attributes":{"ID":317329,"DIS_CODE":0,"TOWNNAME":"東區","LI":"富強里","LIN":"7鄰","STREET":"裕農路","SECT":" ","MAREA":" ","LANE":"４４６巷","ALLEY":" ","HOUSE_NO":"１２５號之３","E_COORD97":171262.95999999999,"N_COORD97":2542904.3900000001,"ADDRESS":"裕農路４４６巷１２５號之３","OBJECTID":317321},"geometry":{"x":171262.95999999996,"y":2542904.3900000025}},{"attributes":{"ID":317330,"DIS_CODE":0,"TOWNNAME":"東區","LI":"富強里","LIN":"7鄰","STREET":"裕農路","SECT":" ","MAREA":" ","LANE":"４４６巷","ALLEY":" ","HOUSE_NO":"１２５號之４","E_COORD97":171263.09,"N_COORD97":2542908.9700000002,"ADDRESS":"裕農路４４６巷１２５號之４","OBJECTID":317322},"geometry":{"x":171263.08999999985,"y":2542908.9700000007}},{"attributes":{"ID":317331,"DIS_CODE":0,"TOWNNAME":"東區","LI":"富強里","LIN":"7鄰","STREET":"裕農路","SECT":" ","MAREA":" ","LANE":"４４６巷","ALLEY":" ","HOUSE_NO":"１２５號之６","E_COORD97":171262.82999999999,"N_COORD97":2542918.29,"ADDRESS":"裕農路４４６巷１２５號之６","OBJECTID":317323},"geometry":{"x":171262.83000000101,"y":2542918.2899999991}},{"attributes":{"ID":317332,"DIS_CODE":0,"TOWNNAME":"東區","LI":"富強里","LIN":"7鄰","STREET":"裕農路","SECT":" ","MAREA":" ","LANE":"４４６巷","ALLEY":" ","HOUSE_NO":"１２５號之７","E_COORD97":171261.51999999999,"N_COORD97":2542954.9199999999,"ADDRESS":"裕農路４４６巷１２５號之７","OBJECTID":317324},"geometry":{"x":171261.51999999955,"y":2542954.9200000018}},{"attributes":{"ID":317333,"DIS_CODE":0,"TOWNNAME":"東區","LI":"富強里","LIN":"7鄰","STREET":"裕農路","SECT":" ","MAREA":" ","LANE":"４４６巷","ALLEY":" ","HOUSE_NO":"１２５號之９","E_COORD97":171261,"N_COORD97":2542963.4300000002,"ADDRESS":"裕農路４４６巷１２５號之９","OBJECTID":317325},"geometry":{"x":171261,"y":2542963.4300000034}},{"attributes":{"ID":317334,"DIS_CODE":0,"TOWNNAME":"仁德區","LI":"新田里","LIN":"17鄰","STREET":"民安路","SECT":"二段","MAREA":" ","LANE":" ","ALLEY":" ","HOUSE_NO":"７５號二樓之２","E_COORD97":173489.73000000001,"N_COORD97":2539223.0600000001,"ADDRESS":"民安路二段７５號二樓之２","OBJECTID":317326},"geometry":{"x":173489.73000000138,"y":2539223.0600000005}},{"attributes":{"ID":317335,"DIS_CODE":0,"TOWNNAME":"仁德區","LI":"新田里","LIN":"17鄰","STREET":"民安路","SECT":"二段","MAREA":" ","LANE":" ","ALLEY":" ","HOUSE_NO":"７５號八樓之３","E_COORD97":173489.69,"N_COORD97":2539223.0600000001,"ADDRESS":"民安路二段７５號八樓之３","OBJECTID":317327},"geometry":{"x":173489.69000000227,"y":2539223.0600000005}},{"attributes":{"ID":317336,"DIS_CODE":0,"TOWNNAME":"東區","LI":"富強里","LIN":"7鄰","STREET":"裕農路","SECT":" ","MAREA":" ","LANE":"４４６巷","ALLEY":" ","HOUSE_NO":"３３號之６","E_COORD97":171259.42999999999,"N_COORD97":2542984.0299999998,"ADDRESS":"裕農路４４６巷３３號之６","OBJECTID":317328},"geometry":{"x":171259.4299999997,"y":2542984.0300000012}},{"attributes":{"ID":317337,"DIS_CODE":0,"TOWNNAME":"東區","LI":"富強里","LIN":"7鄰","STREET":"裕農路","SECT":" ","MAREA":" ","LANE":"４４６巷","ALLEY":" ","HOUSE_NO":"３３號之７","E_COORD97":171260.35000000001,"N_COORD97":2542977.4900000002,"ADDRESS":"裕農路４４６巷３３號之７","OBJECTID":317329},"geometry":{"x":171260.35000000056,"y":2542977.4900000021}},{"attributes":{"ID":317338,"DIS_CODE":0,"TOWNNAME":"東區","LI":"虎尾里","LIN":"7鄰","STREET":"東成街","SECT":" ","MAREA":" ","LANE":"１１４巷","ALLEY":" ","HOUSE_NO":"７號","E_COORD97":171611.79000000001,"N_COORD97":2542244.1000000001,"ADDRESS":"東成街１１４巷７號","OBJECTID":317330},"geometry":{"x":171611.78999999911,"y":2542244.1000000015}},{"attributes":{"ID":317339,"DIS_CODE":0,"TOWNNAME":"鹽水區","LI":"歡雅里","LIN":"13鄰","STREET":" ","SECT":" ","MAREA":"尾寮","LANE":" ","ALLEY":" ","HOUSE_NO":"３３號之１","E_COORD97":172012.70999999999,"N_COORD97":2576490.2599999998,"ADDRESS":"尾寮３３號之１","OBJECTID":317331},"geometry":{"x":172012.71000000089,"y":2576490.2599999998}},{"attributes":{"ID":317340,"DIS_CODE":0,"TOWNNAME":"鹽水區","LI":"岸內里","LIN":"6鄰","STREET":" ","SECT":" ","MAREA":"岸內","LANE":" ","ALLEY":" ","HOUSE_NO":"６號","E_COORD97":174779.44,"N_COORD97":2580957.1200000001,"ADDRESS":"岸內６號","OBJECTID":317332},"geometry":{"x":174779.44000000041,"y":2580957.1200000029}},{"attributes":{"ID":317341,"DIS_CODE":0,"TOWNNAME":"鹽水區","LI":"岸內里","LIN":"4鄰","STREET":" ","SECT":" ","MAREA":"岸內","LANE":" ","ALLEY":" ","HOUSE_NO":"２０號","E_COORD97":174795.44,"N_COORD97":2581217.5299999998,"ADDRESS":"岸內２０號","OBJECTID":317333},"geometry":{"x":174795.44000000134,"y":2581217.5299999993}},{"attributes":{"ID":317342,"DIS_CODE":0,"TOWNNAME":"鹽水區","LI":"岸內里","LIN":"4鄰","STREET":" ","SECT":" ","MAREA":"岸內","LANE":" ","ALLEY":" ","HOUSE_NO":"２２號之１","E_COORD97":174781.73999999999,"N_COORD97":2581242.4100000001,"ADDRESS":"岸內２２號之１","OBJECTID":317334},"geometry":{"x":174781.74000000022,"y":2581242.410000002}},{"attributes":{"ID":317343,"DIS_CODE":0,"TOWNNAME":"鹽水區","LI":"岸內里","LIN":"4鄰","STREET":" ","SECT":" ","MAREA":"岸內","LANE":" ","ALLEY":" ","HOUSE_NO":"２２號","E_COORD97":174797.38,"N_COORD97":2581292.0699999998,"ADDRESS":"岸內２２號","OBJECTID":317335},"geometry":{"x":174797.37999999989,"y":2581292.0700000022}},{"attributes":{"ID":317344,"DIS_CODE":0,"TOWNNAME":"鹽水區","LI":"岸內里","LIN":"4鄰","STREET":" ","SECT":" ","MAREA":"岸內","LANE":" ","ALLEY":" ","HOUSE_NO":"２３號","E_COORD97":174789.19,"N_COORD97":2581279.4100000001,"ADDRESS":"岸內２３號","OBJECTID":317336},"geometry":{"x":174789.19000000041,"y":2581279.410000002}},{"attributes":{"ID":317345,"DIS_CODE":0,"TOWNNAME":"鹽水區","LI":"岸內里","LIN":"4鄰","STREET":" ","SECT":" ","MAREA":"岸內","LANE":" ","ALLEY":" ","HOUSE_NO":"２４號","E_COORD97":174787.34,"N_COORD97":2581305.4700000002,"ADDRESS":"岸內２４號","OBJECTID":317337},"geometry":{"x":174787.33999999985,"y":2581305.4700000007}},{"attributes":{"ID":317346,"DIS_CODE":0,"TOWNNAME":"鹽水區","LI":"岸內里","LIN":"4鄰","STREET":" ","SECT":" ","MAREA":"岸內","LANE":" ","ALLEY":" ","HOUSE_NO":"２５號","E_COORD97":174789.17000000001,"N_COORD97":2581344.4900000002,"ADDRESS":"岸內２５號","OBJECTID":317338},"geometry":{"x":174789.16999999993,"y":2581344.4900000002}},{"attributes":{"ID":317347,"DIS_CODE":0,"TOWNNAME":"鹽水區","LI":"岸內里","LIN":"4鄰","STREET":" ","SECT":" ","MAREA":"岸內","LANE":" ","ALLEY":" ","HOUSE_NO":"２６之１２號","E_COORD97":175122.31,"N_COORD97":2581293.54,"ADDRESS":"岸內２６之１２號","OBJECTID":317339},"geometry":{"x":175122.31000000052,"y":2581293.5400000028}},{"attributes":{"ID":317348,"DIS_CODE":0,"TOWNNAME":"東區","LI":"虎尾里","LIN":"7鄰","STREET":"東成街","SECT":" ","MAREA":" ","LANE":"１１４巷","ALLEY":" ","HOUSE_NO":"８號","E_COORD97":171587.79000000001,"N_COORD97":2542243.3599999999,"ADDRESS":"東成街１１４巷８號","OBJECTID":317340},"geometry":{"x":171587.79000000004,"y":2542243.3599999994}},{"attributes":{"ID":317349,"DIS_CODE":0,"TOWNNAME":"東區","LI":"虎尾里","LIN":"7鄰","STREET":"東成街","SECT":" ","MAREA":" ","LANE":"９８巷","ALLEY":" ","HOUSE_NO":"１３號","E_COORD97":171562.23999999999,"N_COORD97":2542248.6400000001,"ADDRESS":"東成街９８巷１３號","OBJECTID":317341},"geometry":{"x":171562.24000000115,"y":2542248.6400000025}},{"attributes":{"ID":317350,"DIS_CODE":0,"TOWNNAME":"安平區","LI":"育平里","LIN":"39鄰","STREET":"平豐路","SECT":" ","MAREA":" ","LANE":"４４巷","ALLEY":" ","HOUSE_NO":"１１號","E_COORD97":164377.60999999999,"N_COORD97":2543016.96,"ADDRESS":"平豐路４４巷１１號","OBJECTID":317342},"geometry":{"x":164377.61000000034,"y":2543016.9600000009}},{"attributes":{"ID":317351,"DIS_CODE":0,"TOWNNAME":"安平區","LI":"育平里","LIN":"39鄰","STREET":"平豐路","SECT":" ","MAREA":" ","LANE":"４４巷","ALLEY":" ","HOUSE_NO":"１２號","E_COORD97":164380.06,"N_COORD97":2542998.5099999998,"ADDRESS":"平豐路４４巷１２號","OBJECTID":317343},"geometry":{"x":164380.06000000052,"y":2542998.5099999998}},{"attributes":{"ID":317352,"DIS_CODE":0,"TOWNNAME":"安平區","LI":"育平里","LIN":"39鄰","STREET":"平豐路","SECT":" ","MAREA":" ","LANE":"４４巷","ALLEY":" ","HOUSE_NO":"１４號","E_COORD97":164384.35999999999,"N_COORD97":2542999.1000000001,"ADDRESS":"平豐路４４巷１４號","OBJECTID":317344},"geometry":{"x":164384.36000000034,"y":2542999.0999999978}},{"attributes":{"ID":317353,"DIS_CODE":0,"TOWNNAME":"安平區","LI":"育平里","LIN":"39鄰","STREET":"平豐路","SECT":" ","MAREA":" ","LANE":"４４巷","ALLEY":" ","HOUSE_NO":"１６號","E_COORD97":164388.28,"N_COORD97":2542997.04,"ADDRESS":"平豐路４４巷１６號","OBJECTID":317345},"geometry":{"x":164388.28000000026,"y":2542997.040000001}},{"attributes":{"ID":317354,"DIS_CODE":0,"TOWNNAME":"安平區","LI":"育平里","LIN":"39鄰","STREET":"平豐路","SECT":" ","MAREA":" ","LANE":"４４巷","ALLEY":" ","HOUSE_NO":"１８號","E_COORD97":164391.79999999999,"N_COORD97":2542997.9199999999,"ADDRESS":"平豐路４４巷１８號","OBJECTID":317346},"geometry":{"x":164391.80000000168,"y":2542997.9200000018}},{"attributes":{"ID":317355,"DIS_CODE":0,"TOWNNAME":"安平區","LI":"西門里","LIN":"8鄰","STREET":"安北路","SECT":" ","MAREA":" ","LANE":"１９６巷","ALLEY":" ","HOUSE_NO":"５號","E_COORD97":163711.67000000001,"N_COORD97":2544811.6899999999,"ADDRESS":"安北路１９６巷５號","OBJECTID":317347},"geometry":{"x":163711.67000000086,"y":2544811.6899999995}},{"attributes":{"ID":317356,"DIS_CODE":0,"TOWNNAME":"安平區","LI":"西門里","LIN":"8鄰","STREET":"安北路","SECT":" ","MAREA":" ","LANE":"１９６巷","ALLEY":" ","HOUSE_NO":"６號","E_COORD97":163710.10000000001,"N_COORD97":2544815.2599999998,"ADDRESS":"安北路１９６巷６號","OBJECTID":317348},"geometry":{"x":163710.10000000056,"y":2544815.2599999998}},{"attributes":{"ID":317357,"DIS_CODE":0,"TOWNNAME":"鹽水區","LI":"岸內里","LIN":"7鄰","STREET":" ","SECT":" ","MAREA":"松子腳","LANE":" ","ALLEY":" ","HOUSE_NO":"３１２號","E_COORD97":174651.10000000001,"N_COORD97":2580437.1499999999,"ADDRESS":"松子腳３１２號","OBJECTID":317349},"geometry":{"x":174651.10000000056,"y":2580437.1500000022}},{"attributes":{"ID":317358,"DIS_CODE":0,"TOWNNAME":"鹽水區","LI":"岸內里","LIN":"7鄰","STREET":" ","SECT":" ","MAREA":"松子腳","LANE":" ","ALLEY":" ","HOUSE_NO":"３１３號","E_COORD97":174651.01999999999,"N_COORD97":2580441.6800000002,"ADDRESS":"松子腳３１３號","OBJECTID":317350},"geometry":{"x":174651.02000000142,"y":2580441.6799999997}},{"attributes":{"ID":317359,"DIS_CODE":0,"TOWNNAME":"鹽水區","LI":"岸內里","LIN":"7鄰","STREET":" ","SECT":" ","MAREA":"松子腳","LANE":" ","ALLEY":" ","HOUSE_NO":"３１４號","E_COORD97":174650.94,"N_COORD97":2580446.2200000002,"ADDRESS":"松子腳３１４號","OBJECTID":317351},"geometry":{"x":174650.94000000134,"y":2580446.2200000044}},{"attributes":{"ID":317360,"DIS_CODE":0,"TOWNNAME":"鹽水區","LI":"武廟里","LIN":"8鄰","STREET":"武廟路","SECT":" ","MAREA":" ","LANE":" ","ALLEY":" ","HOUSE_NO":"３９號之１","E_COORD97":174862.04000000001,"N_COORD97":2580123.4300000002,"ADDRESS":"武廟路３９號之１","OBJECTID":317352},"geometry":{"x":174862.04000000097,"y":2580123.4300000016}},{"attributes":{"ID":317361,"DIS_CODE":0,"TOWNNAME":"安平區","LI":"育平里","LIN":"39鄰","STREET":"平豐路","SECT":" ","MAREA":" ","LANE":"４４巷","ALLEY":" ","HOUSE_NO":"３２號","E_COORD97":164423.42000000001,"N_COORD97":2542992.1499999999,"ADDRESS":"平豐路４４巷３２號","OBJECTID":317353},"geometry":{"x":164423.42000000179,"y":2542992.1500000004}},{"attributes":{"ID":317362,"DIS_CODE":0,"TOWNNAME":"鹽水區","LI":"武廟里","LIN":"8鄰","STREET":"武廟路","SECT":" ","MAREA":" ","LANE":" ","ALLEY":" ","HOUSE_NO":"３９號","E_COORD97":174897.28,"N_COORD97":2580121.8100000001,"ADDRESS":"武廟路３９號","OBJECTID":317354},"geometry":{"x":174897.28000000026,"y":2580121.8100000005}},{"attributes":{"ID":317363,"DIS_CODE":0,"TOWNNAME":"鹽水區","LI":"武廟里","LIN":"8鄰","STREET":"武廟路","SECT":" ","MAREA":" ","LANE":" ","ALLEY":" ","HOUSE_NO":"４１號","E_COORD97":174879.89000000001,"N_COORD97":2580128.02,"ADDRESS":"武廟路４１號","OBJECTID":317355},"geometry":{"x":174879.8900000006,"y":2580128.0200000033}},{"attributes":{"ID":317364,"DIS_CODE":0,"TOWNNAME":"鹽水區","LI":"武廟里","LIN":"8鄰","STREET":"武廟路","SECT":" ","MAREA":" ","LANE":" ","ALLEY":" ","HOUSE_NO":"４７號","E_COORD97":174895.82999999999,"N_COORD97":2580144.1899999999,"ADDRESS":"武廟路４７號","OBJECTID":317356},"geometry":{"x":174895.83000000101,"y":2580144.1900000013}},{"attributes":{"ID":317365,"DIS_CODE":0,"TOWNNAME":"鹽水區","LI":"武廟里","LIN":"8鄰","STREET":"武廟路","SECT":" ","MAREA":" ","LANE":" ","ALLEY":" ","HOUSE_NO":"４９號之１","E_COORD97":174864,"N_COORD97":2580150.1400000001,"ADDRESS":"武廟路４９號之１","OBJECTID":317357},"geometry":{"x":174864.00000000093,"y":2580150.1400000006}},{"attributes":{"ID":317366,"DIS_CODE":0,"TOWNNAME":"鹽水區","LI":"武廟里","LIN":"8鄰","STREET":"武廟路","SECT":" ","MAREA":" ","LANE":" ","ALLEY":" ","HOUSE_NO":"４９號","E_COORD97":174896.32999999999,"N_COORD97":2580149.73,"ADDRESS":"武廟路４９號","OBJECTID":317358},"geometry":{"x":174896.33000000007,"y":2580149.7300000004}},{"attributes":{"ID":317367,"DIS_CODE":0,"TOWNNAME":"安平區","LI":"育平里","LIN":"39鄰","STREET":"平豐路","SECT":" ","MAREA":" ","LANE":" ","ALLEY":" ","HOUSE_NO":"２２號","E_COORD97":164355.28,"N_COORD97":2542953.52,"ADDRESS":"平豐路２２號","OBJECTID":317359},"geometry":{"x":164355.28000000119,"y":2542953.5200000014}},{"attributes":{"ID":317368,"DIS_CODE":0,"TOWNNAME":"安平區","LI":"育平里","LIN":"39鄰","STREET":"平豐路","SECT":" ","MAREA":" ","LANE":" ","ALLEY":" ","HOUSE_NO":"２４號","E_COORD97":164351.26000000001,"N_COORD97":2542958.3100000001,"ADDRESS":"平豐路２４號","OBJECTID":317360},"geometry":{"x":164351.25999999885,"y":2542958.3100000042}},{"attributes":{"ID":317369,"DIS_CODE":0,"TOWNNAME":"安平區","LI":"國平里","LIN":"24鄰","STREET":"建平七街","SECT":" ","MAREA":" ","LANE":" ","ALLEY":" ","HOUSE_NO":"６７７號","E_COORD97":164850.32999999999,"N_COORD97":2543412.3599999999,"ADDRESS":"建平七街６７７號","OBJECTID":317361},"geometry":{"x":164850.33000000101,"y":2543412.3600000013}},{"attributes":{"ID":317370,"DIS_CODE":0,"TOWNNAME":"安平區","LI":"西門里","LIN":"12鄰","STREET":"古堡街","SECT":" ","MAREA":" ","LANE":" ","ALLEY":" ","HOUSE_NO":"１１５號","E_COORD97":163693.85999999999,"N_COORD97":2544851.4199999999,"ADDRESS":"古堡街１１５號","OBJECTID":317362},"geometry":{"x":163693.86000000127,"y":2544851.4199999999}},{"attributes":{"ID":317371,"DIS_CODE":0,"TOWNNAME":"安平區","LI":"億載里","LIN":"17鄰","STREET":"平豐路","SECT":" ","MAREA":" ","LANE":"４３巷","ALLEY":" ","HOUSE_NO":"１７號","E_COORD97":164301.94,"N_COORD97":2542993.6400000001,"ADDRESS":"平豐路４３巷１７號","OBJECTID":317363},"geometry":{"x":164301.94000000134,"y":2542993.6400000025}},{"attributes":{"ID":317372,"DIS_CODE":0,"TOWNNAME":"安平區","LI":"西門里","LIN":" ","STREET":"國勝路","SECT":" ","MAREA":" ","LANE":"３５巷","ALLEY":" ","HOUSE_NO":"１２號","E_COORD97":163829.56,"N_COORD97":2544646.48,"ADDRESS":"國勝路３５巷１２號","OBJECTID":317364},"geometry":{"x":163829.55999999959,"y":2544646.4800000023}},{"attributes":{"ID":317373,"DIS_CODE":0,"TOWNNAME":"安平區","LI":"西門里","LIN":" ","STREET":"古堡街","SECT":" ","MAREA":" ","LANE":"１２２巷","ALLEY":" ","HOUSE_NO":"３號","E_COORD97":163780.5,"N_COORD97":2544967.5299999998,"ADDRESS":"古堡街１２２巷３號","OBJECTID":317365},"geometry":{"x":163780.50000000186,"y":2544967.5300000012}},{"attributes":{"ID":317374,"DIS_CODE":0,"TOWNNAME":"安平區","LI":"文平里","LIN":"20鄰","STREET":"健康一街","SECT":" ","MAREA":" ","LANE":"５７巷","ALLEY":" ","HOUSE_NO":"５６號","E_COORD97":165791.95000000001,"N_COORD97":2542828.2799999998,"ADDRESS":"健康一街５７巷５６號","OBJECTID":317366},"geometry":{"x":165791.95000000112,"y":2542828.2800000031}},{"attributes":{"ID":317375,"DIS_CODE":0,"TOWNNAME":"安平區","LI":"金城里","LIN":"13鄰","STREET":"世平五街","SECT":" ","MAREA":" ","LANE":"４０巷","ALLEY":" ","HOUSE_NO":"１９之２號","E_COORD97":162640.44,"N_COORD97":2544135.54,"ADDRESS":"世平五街４０巷１９之２號","OBJECTID":317367},"geometry":{"x":162640.44000000227,"y":2544135.540000001}},{"attributes":{"ID":317376,"DIS_CODE":0,"TOWNNAME":"東區","LI":"虎尾里","LIN":"7鄰","STREET":"東成街","SECT":" ","MAREA":" ","LANE":"９８巷","ALLEY":" ","HOUSE_NO":"１９號","E_COORD97":171571.98999999999,"N_COORD97":2542229.3599999999,"ADDRESS":"東成街９８巷１９號","OBJECTID":317368},"geometry":{"x":171571.99000000115,"y":2542229.3600000013}},{"attributes":{"ID":317377,"DIS_CODE":0,"TOWNNAME":"東區","LI":"虎尾里","LIN":"7鄰","STREET":"東成街","SECT":" ","MAREA":" ","LANE":"９８巷","ALLEY":" ","HOUSE_NO":"１號","E_COORD97":171563.54999999999,"N_COORD97":2542271.8900000001,"ADDRESS":"東成街９８巷１號","OBJECTID":317369},"geometry":{"x":171563.54999999981,"y":2542271.8900000006}},{"attributes":{"ID":317378,"DIS_CODE":0,"TOWNNAME":"中西區","LI":"郡西里","LIN":"7鄰","STREET":"建安街","SECT":" ","MAREA":" ","LANE":"７４巷","ALLEY":" ","HOUSE_NO":"６號","E_COORD97":167413.78,"N_COORD97":2543274.1899999999,"ADDRESS":"建安街７４巷６號","OBJECTID":317370},"geometry":{"x":167413.78000000119,"y":2543274.1900000013}},{"attributes":{"ID":317379,"DIS_CODE":0,"TOWNNAME":"中西區","LI":"大涼里","LIN":"7鄰","STREET":"府前路","SECT":"二段","MAREA":" ","LANE":"２５８巷","ALLEY":" ","HOUSE_NO":"５７號","E_COORD97":167044.91,"N_COORD97":2543852.3100000001,"ADDRESS":"府前路二段２５８巷５７號","OBJECTID":317371},"geometry":{"x":167044.91000000108,"y":2543852.3100000005}},{"attributes":{"ID":317380,"DIS_CODE":0,"TOWNNAME":"中西區","LI":"大涼里","LIN":"7鄰","STREET":"府前路","SECT":"二段","MAREA":" ","LANE":"２５８巷","ALLEY":" ","HOUSE_NO":"５９號","E_COORD97":167062.48000000001,"N_COORD97":2543883.5600000001,"ADDRESS":"府前路二段２５８巷５９號","OBJECTID":317372},"geometry":{"x":167062.48000000045,"y":2543883.5600000024}},{"attributes":{"ID":317381,"DIS_CODE":0,"TOWNNAME":"中西區","LI":"大涼里","LIN":"7鄰","STREET":"府前路","SECT":"二段","MAREA":" ","LANE":"２５８巷","ALLEY":" ","HOUSE_NO":"６１號","E_COORD97":167072.82999999999,"N_COORD97":2543910,"ADDRESS":"府前路二段２５８巷６１號","OBJECTID":317373},"geometry":{"x":167072.83000000007,"y":2543910.0000000019}},{"attributes":{"ID":317382,"DIS_CODE":0,"TOWNNAME":"仁德區","LI":"新田里","LIN":"17鄰","STREET":"民安路","SECT":"二段","MAREA":" ","LANE":" ","ALLEY":" ","HOUSE_NO":"７５號五樓之３","E_COORD97":173489.69,"N_COORD97":2539223.0600000001,"ADDRESS":"民安路二段７５號五樓之３","OBJECTID":317374},"geometry":{"x":173489.69000000227,"y":2539223.0600000005}},{"attributes":{"ID":317383,"DIS_CODE":0,"TOWNNAME":"仁德區","LI":"新田里","LIN":"17鄰","STREET":"民安路","SECT":"二段","MAREA":" ","LANE":" ","ALLEY":" ","HOUSE_NO":"７５號十樓之１","E_COORD97":173489.59,"N_COORD97":2539223.0600000001,"ADDRESS":"民安路二段７５號十樓之１","OBJECTID":317375},"geometry":{"x":173489.58999999892,"y":2539223.0600000005}},{"attributes":{"ID":317384,"DIS_CODE":0,"TOWNNAME":"仁德區","LI":"新田里","LIN":"17鄰","STREET":"民安路","SECT":"二段","MAREA":" ","LANE":" ","ALLEY":" ","HOUSE_NO":"７５號十樓之３","E_COORD97":173489.69,"N_COORD97":2539223.0600000001,"ADDRESS":"民安路二段７５號十樓之３","OBJECTID":317376},"geometry":{"x":173489.69000000227,"y":2539223.0600000005}},{"attributes":{"ID":317385,"DIS_CODE":0,"TOWNNAME":"仁德區","LI":"新田里","LIN":"17鄰","STREET":"民安路","SECT":"二段","MAREA":" ","LANE":" ","ALLEY":" ","HOUSE_NO":"７５號七樓之２","E_COORD97":173489.73000000001,"N_COORD97":2539223.0600000001,"ADDRESS":"民安路二段７５號七樓之２","OBJECTID":317377},"geometry":{"x":173489.73000000138,"y":2539223.0600000005}},{"attributes":{"ID":317386,"DIS_CODE":0,"TOWNNAME":"仁德區","LI":"新田里","LIN":"17鄰","STREET":"民安路","SECT":"二段","MAREA":" ","LANE":" ","ALLEY":" ","HOUSE_NO":"７５號十一樓之２","E_COORD97":173490.98000000001,"N_COORD97":2539223.0600000001,"ADDRESS":"民安路二段７５號十一樓之２","OBJECTID":317378},"geometry":{"x":173490.98000000231,"y":2539223.0600000005}},{"attributes":{"ID":317387,"DIS_CODE":0,"TOWNNAME":"安平區","LI":"西門里","LIN":"4鄰","STREET":"安平路","SECT":" ","MAREA":" ","LANE":"８５０巷","ALLEY":" ","HOUSE_NO":"８號","E_COORD97":163772.39999999999,"N_COORD97":2544621.8300000001,"ADDRESS":"安平路８５０巷８號","OBJECTID":317379},"geometry":{"x":163772.40000000037,"y":2544621.8300000001}},{"attributes":{"ID":317388,"DIS_CODE":0,"TOWNNAME":"安平區","LI":"港仔里","LIN":" ","STREET":"運河路","SECT":" ","MAREA":" ","LANE":"２３巷","ALLEY":" ","HOUSE_NO":"１７號","E_COORD97":164093.32999999999,"N_COORD97":2544453.2599999998,"ADDRESS":"運河路２３巷１７號","OBJECTID":317380},"geometry":{"x":164093.33000000007,"y":2544453.2600000016}},{"attributes":{"ID":317389,"DIS_CODE":0,"TOWNNAME":"安平區","LI":"港仔里","LIN":" ","STREET":"運河路","SECT":" ","MAREA":" ","LANE":"２３巷","ALLEY":" ","HOUSE_NO":"４號","E_COORD97":164100.69,"N_COORD97":2544445.7400000002,"ADDRESS":"運河路２３巷４號","OBJECTID":317381},"geometry":{"x":164100.69000000134,"y":2544445.7400000002}},{"attributes":{"ID":317390,"DIS_CODE":0,"TOWNNAME":"安平區","LI":"港仔里","LIN":" ","STREET":"運河路","SECT":" ","MAREA":" ","LANE":"２３巷","ALLEY":" ","HOUSE_NO":"２９號","E_COORD97":164103.95000000001,"N_COORD97":2544507.5699999998,"ADDRESS":"運河路２３巷２９號","OBJECTID":317382},"geometry":{"x":164103.95000000019,"y":2544507.5700000003}},{"attributes":{"ID":317391,"DIS_CODE":0,"TOWNNAME":"安平區","LI":"石門里","LIN":"13鄰","STREET":"\u25A0忠街","SECT":" ","MAREA":" ","LANE":"４４巷","ALLEY":" ","HOUSE_NO":"６號","E_COORD97":164244.54999999999,"N_COORD97":2544662.5699999998,"ADDRESS":"\u25A0忠街４４巷６號","OBJECTID":317383},"geometry":{"x":164244.55000000075,"y":2544662.5700000022}},{"attributes":{"ID":317392,"DIS_CODE":0,"TOWNNAME":"安平區","LI":"石門里","LIN":"13鄰","STREET":"\u25A0忠街","SECT":" ","MAREA":" ","LANE":"４４巷","ALLEY":" ","HOUSE_NO":"１０號","E_COORD97":164248.14000000001,"N_COORD97":2544676.25,"ADDRESS":"\u25A0忠街４４巷１０號","OBJECTID":317384},"geometry":{"x":164248.13999999966,"y":2544676.25}},{"attributes":{"ID":317393,"DIS_CODE":0,"TOWNNAME":"安平區","LI":"石門里","LIN":"14鄰","STREET":"延平街","SECT":" ","MAREA":" ","LANE":"３０巷","ALLEY":" ","HOUSE_NO":"２號","E_COORD97":164296.72,"N_COORD97":2544574.8100000001,"ADDRESS":"延平街３０巷２號","OBJECTID":317385},"geometry":{"x":164296.71999999974,"y":2544574.8100000005}},{"attributes":{"ID":317394,"DIS_CODE":0,"TOWNNAME":"永康區","LI":"復國里","LIN":"7鄰","STREET":"復國一路","SECT":" ","MAREA":" ","LANE":"１５０巷","ALLEY":" ","HOUSE_NO":"１６號","E_COORD97":172772.42999999999,"N_COORD97":2545066.7200000002,"ADDRESS":"復國一路１５０巷１６號","OBJECTID":317386},"geometry":{"x":172772.43000000063,"y":2545066.7200000007}},{"attributes":{"ID":317395,"DIS_CODE":0,"TOWNNAME":"仁德區","LI":"新田里","LIN":"17鄰","STREET":"民安路","SECT":"二段","MAREA":" ","LANE":" ","ALLEY":" ","HOUSE_NO":"７５號二樓之１","E_COORD97":173489.59,"N_COORD97":2539223.0600000001,"ADDRESS":"民安路二段７５號二樓之１","OBJECTID":317387},"geometry":{"x":173489.58999999892,"y":2539223.0600000005}},{"attributes":{"ID":317396,"DIS_CODE":0,"TOWNNAME":"永康區","LI":"中興里","LIN":"17鄰","STREET":"中華路","SECT":" ","MAREA":" ","LANE":" ","ALLEY":" ","HOUSE_NO":"２４０號二樓","E_COORD97":171639.39999999999,"N_COORD97":2545114.5,"ADDRESS":"中華路２４０號二樓","OBJECTID":317388},"geometry":{"x":171639.4000000013,"y":2545114.5}},{"attributes":{"ID":317397,"DIS_CODE":0,"TOWNNAME":"永康區","LI":"中興里","LIN":"17鄰","STREET":"中華路","SECT":" ","MAREA":" ","LANE":" ","ALLEY":" ","HOUSE_NO":"２４０號六樓","E_COORD97":171639.39999999999,"N_COORD97":2545114.5,"ADDRESS":"中華路２４０號六樓","OBJECTID":317389},"geometry":{"x":171639.4000000013,"y":2545114.5}},{"attributes":{"ID":317398,"DIS_CODE":0,"TOWNNAME":"永康區","LI":"烏竹里","LIN":"17鄰","STREET":"竹園一街","SECT":" ","MAREA":" ","LANE":" ","ALLEY":" ","HOUSE_NO":"５３號七樓之２","E_COORD97":174393.59,"N_COORD97":2548940.3300000001,"ADDRESS":"竹園一街５３號七樓之２","OBJECTID":317390},"geometry":{"x":174393.59000000078,"y":2548940.3300000001}},{"attributes":{"ID":317399,"DIS_CODE":0,"TOWNNAME":"歸仁區","LI":"南興里","LIN":"22鄰","STREET":"南興街","SECT":" ","MAREA":" ","LANE":" ","ALLEY":" ","HOUSE_NO":"３１０號六樓之１","E_COORD97":175525.84257000001,"N_COORD97":2541261.1593300002,"ADDRESS":"南興街３１０號六樓之１","OBJECTID":317391},"geometry":{"x":175525.84257000126,"y":2541261.1593300011}},{"attributes":{"ID":317400,"DIS_CODE":0,"TOWNNAME":"永康區","LI":"烏竹里","LIN":"17鄰","STREET":"竹園一街","SECT":" ","MAREA":" ","LANE":" ","ALLEY":" ","HOUSE_NO":"５７號六樓之２","E_COORD97":174385.92999999999,"N_COORD97":2548919.0800000001,"ADDRESS":"竹園一街５７號六樓之２","OBJECTID":317392},"geometry":{"x":174385.93000000063,"y":2548919.0800000001}},{"attributes":{"ID":317401,"DIS_CODE":0,"TOWNNAME":"永康區","LI":"烏竹里","LIN":"17鄰","STREET":"竹園一街","SECT":" ","MAREA":" ","LANE":" ","ALLEY":" ","HOUSE_NO":"６１號二樓之２","E_COORD97":174414.39000000001,"N_COORD97":2548929.3300000001,"ADDRESS":"竹園一街６１號二樓之２","OBJECTID":317393},"geometry":{"x":174414.38999999966,"y":2548929.3300000019}},{"attributes":{"ID":317402,"DIS_CODE":0,"TOWNNAME":"安平區","LI":"港仔里","LIN":"4鄰","STREET":"安平路","SECT":" ","MAREA":" ","LANE":" ","ALLEY":" ","HOUSE_NO":"９７號","E_COORD97":164383.02940500001,"N_COORD97":2544465.6861200002,"ADDRESS":"安平路９７號","OBJECTID":317394},"geometry":{"x":164383.02940500062,"y":2544465.6861240026}},{"attributes":{"ID":317403,"DIS_CODE":0,"TOWNNAME":"將軍區","LI":"長沙里","LIN":"14鄰","STREET":" ","SECT":" ","MAREA":"長沙","LANE":" ","ALLEY":" ","HOUSE_NO":"１２４號","E_COORD97":157584.87358700001,"N_COORD97":2568517.3720399998,"ADDRESS":"長沙１２４號","OBJECTID":317395},"geometry":{"x":157584.87358700112,"y":2568517.3720430005}},{"attributes":{"ID":317404,"DIS_CODE":0,"TOWNNAME":"安平區","LI":"漁光里","LIN":"5鄰","STREET":"漁光路","SECT":" ","MAREA":" ","LANE":"８９巷","ALLEY":" ","HOUSE_NO":"４３號之１","E_COORD97":163826.82000000001,"N_COORD97":2541986.7599999998,"ADDRESS":"漁光路８９巷４３號之１","OBJECTID":317396},"geometry":{"x":163826.82000000123,"y":2541986.7599999998}},{"attributes":{"ID":317405,"DIS_CODE":0,"TOWNNAME":"永康區","LI":"\u25A0洲里","LIN":"7鄰","STREET":"\u25A0洲二街","SECT":" ","MAREA":" ","LANE":"２２１巷","ALLEY":" ","HOUSE_NO":"２５號","E_COORD97":171778.87,"N_COORD97":2549550.75,"ADDRESS":"\u25A0洲二街２２１巷２５號","OBJECTID":317397},"geometry":{"x":171778.87000000011,"y":2549550.75}},{"attributes":{"ID":317406,"DIS_CODE":0,"TOWNNAME":"永康區","LI":"中華里","LIN":"7鄰","STREET":"忠勇街","SECT":" ","MAREA":" ","LANE":"３２巷","ALLEY":" ","HOUSE_NO":"２號","E_COORD97":171916.47,"N_COORD97":2544420.0899999999,"ADDRESS":"忠勇街３２巷２號","OBJECTID":317398},"geometry":{"x":171916.46999999974,"y":2544420.0900000036}},{"attributes":{"ID":317407,"DIS_CODE":0,"TOWNNAME":"永康區","LI":"中華里","LIN":"7鄰","STREET":"小東路","SECT":" ","MAREA":" ","LANE":"６４７巷","ALLEY":" ","HOUSE_NO":"１３號","E_COORD97":171927.62,"N_COORD97":2544377.5699999998,"ADDRESS":"小東路６４７巷１３號","OBJECTID":317399},"geometry":{"x":171927.62000000011,"y":2544377.5700000022}},{"attributes":{"ID":317408,"DIS_CODE":0,"TOWNNAME":"安南區","LI":"南興里","LIN":"7鄰","STREET":"安興街","SECT":" ","MAREA":" ","LANE":"３８０巷","ALLEY":" ","HOUSE_NO":"２３號","E_COORD97":163765.29000000001,"N_COORD97":2552427.4399999999,"ADDRESS":"安興街３８０巷２３號","OBJECTID":317400},"geometry":{"x":163765.29000000097,"y":2552427.4399999995}}]}