{"displayFieldName":"TOWNNAME","fieldAliases":{"ID":"ID","DIS_CODE":"DIS_CODE","TOWNNAME":"TOWNNAME","LI":"LI","LIN":"LIN","STREET":"STREET","SECT":"SECT","MAREA":"MAREA","LANE":"LANE","ALLEY":"ALLEY","HOUSE_NO":"HOUSE_NO","E_COORD97":"E_COORD97","N_COORD97":"N_COORD97","ADDRESS":"ADDRESS","OBJECTID":"OBJECTID"},"geometryType":"esriGeometryPoint","spatialReference":{"wkid":102443,"latestWkid":3826},"fields":[{"name":"ID","type":"esriFieldTypeDouble","alias":"ID"},{"name":"DIS_CODE","type":"esriFieldTypeInteger","alias":"DIS_CODE"},{"name":"TOWNNAME","type":"esriFieldTypeString","alias":"TOWNNAME","length":8},{"name":"LI","type":"esriFieldTypeString","alias":"LI","length":8},{"name":"LIN","type":"esriFieldTypeString","alias":"LIN","length":12},{"name":"STREET","type":"esriFieldTypeString","alias":"STREET","length":20},{"name":"SECT","type":"esriFieldTypeString","alias":"SECT","length":8},{"name":"MAREA","type":"esriFieldTypeString","alias":"MAREA","length":12},{"name":"LANE","type":"esriFieldTypeString","alias":"LANE","length":10},{"name":"ALLEY","type":"esriFieldTypeString","alias":"ALLEY","length":10},{"name":"HOUSE_NO","type":"esriFieldTypeString","alias":"HOUSE_NO","length":20},{"name":"E_COORD97","type":"esriFieldTypeDouble","alias":"E_COORD97"},{"name":"N_COORD97","type":"esriFieldTypeDouble","alias":"N_COORD97"},{"name":"ADDRESS","type":"esriFieldTypeString","alias":"ADDRESS","length":50},{"name":"OBJECTID","type":"esriFieldTypeOID","alias":"OBJECTID"}],"features":[{"attributes":{"ID":310809,"DIS_CODE":0,"TOWNNAME":"玉井區","LI":"竹圍里","LIN":"7鄰","STREET":"忠孝街","SECT":" ","MAREA":" ","LANE":"４６９巷","ALLEY":" ","HOUSE_NO":"８號","E_COORD97":195733.28,"N_COORD97":2558630.75,"ADDRESS":"忠孝街４６９巷８號","OBJECTID":310801},"geometry":{"x":195733.28000000119,"y":2558630.75}},{"attributes":{"ID":310810,"DIS_CODE":0,"TOWNNAME":"玉井區","LI":"竹圍里","LIN":"7鄰","STREET":"中正路","SECT":" ","MAREA":" ","LANE":"５１６巷","ALLEY":" ","HOUSE_NO":"９８號","E_COORD97":195767.84,"N_COORD97":2558659.5299999998,"ADDRESS":"中正路５１６巷９８號","OBJECTID":310802},"geometry":{"x":195767.84000000171,"y":2558659.5300000031}},{"attributes":{"ID":310811,"DIS_CODE":0,"TOWNNAME":"玉井區","LI":"竹圍里","LIN":"7鄰","STREET":"忠孝街","SECT":" ","MAREA":" ","LANE":"４６９巷","ALLEY":" ","HOUSE_NO":"１６號","E_COORD97":195732.32000000001,"N_COORD97":2558641.5,"ADDRESS":"忠孝街４６９巷１６號","OBJECTID":310803},"geometry":{"x":195732.3200000003,"y":2558641.5000000019}},{"attributes":{"ID":310812,"DIS_CODE":0,"TOWNNAME":"玉井區","LI":"竹圍里","LIN":"7鄰","STREET":"忠孝街","SECT":" ","MAREA":" ","LANE":"４６９巷","ALLEY":" ","HOUSE_NO":"１０號","E_COORD97":195733.82999999999,"N_COORD97":2558634.4100000001,"ADDRESS":"忠孝街４６９巷１０號","OBJECTID":310804},"geometry":{"x":195733.83000000007,"y":2558634.4100000039}},{"attributes":{"ID":310813,"DIS_CODE":0,"TOWNNAME":"玉井區","LI":"竹圍里","LIN":"7鄰","STREET":"中正路","SECT":" ","MAREA":" ","LANE":"５１６巷","ALLEY":" ","HOUSE_NO":"８８號","E_COORD97":195753.53,"N_COORD97":2558665.1200000001,"ADDRESS":"中正路５１６巷８８號","OBJECTID":310805},"geometry":{"x":195753.53000000212,"y":2558665.1200000029}},{"attributes":{"ID":310814,"DIS_CODE":0,"TOWNNAME":"玉井區","LI":"竹圍里","LIN":"7鄰","STREET":"中正路","SECT":" ","MAREA":" ","LANE":"５１６巷","ALLEY":" ","HOUSE_NO":"９０號","E_COORD97":195756.59,"N_COORD97":2558663.6699999999,"ADDRESS":"中正路５１６巷９０號","OBJECTID":310806},"geometry":{"x":195756.59000000078,"y":2558663.6700000018}},{"attributes":{"ID":310815,"DIS_CODE":0,"TOWNNAME":"玉井區","LI":"玉田里","LIN":"7鄰","STREET":"中華路","SECT":" ","MAREA":" ","LANE":"５９巷","ALLEY":" ","HOUSE_NO":"３號","E_COORD97":194951.51000000001,"N_COORD97":2558080.2400000002,"ADDRESS":"中華路５９巷３號","OBJECTID":310807},"geometry":{"x":194951.51000000071,"y":2558080.2400000021}},{"attributes":{"ID":310816,"DIS_CODE":0,"TOWNNAME":"東區","LI":"東光里","LIN":"17鄰","STREET":"東興路","SECT":" ","MAREA":" ","LANE":" ","ALLEY":" ","HOUSE_NO":"１９５號三樓之５","E_COORD97":170998.14000000001,"N_COORD97":2543847.6800000002,"ADDRESS":"東興路１９５號三樓之５","OBJECTID":310808},"geometry":{"x":170998.13999999966,"y":2543847.6800000016}},{"attributes":{"ID":310817,"DIS_CODE":0,"TOWNNAME":"東區","LI":"東光里","LIN":"17鄰","STREET":"東興路","SECT":" ","MAREA":" ","LANE":" ","ALLEY":" ","HOUSE_NO":"１９５號三樓之６","E_COORD97":170998.14000000001,"N_COORD97":2543847.6800000002,"ADDRESS":"東興路１９５號三樓之６","OBJECTID":310809},"geometry":{"x":170998.13999999966,"y":2543847.6800000016}},{"attributes":{"ID":310818,"DIS_CODE":0,"TOWNNAME":"東區","LI":"東光里","LIN":"17鄰","STREET":"東興路","SECT":" ","MAREA":" ","LANE":" ","ALLEY":" ","HOUSE_NO":"１９５號三樓之７","E_COORD97":170998.14000000001,"N_COORD97":2543847.6800000002,"ADDRESS":"東興路１９５號三樓之７","OBJECTID":310810},"geometry":{"x":170998.13999999966,"y":2543847.6800000016}},{"attributes":{"ID":310819,"DIS_CODE":0,"TOWNNAME":"東區","LI":"東光里","LIN":"17鄰","STREET":"東興路","SECT":" ","MAREA":" ","LANE":" ","ALLEY":" ","HOUSE_NO":"１９５號三樓之８","E_COORD97":170998.14000000001,"N_COORD97":2543847.6800000002,"ADDRESS":"東興路１９５號三樓之８","OBJECTID":310811},"geometry":{"x":170998.13999999966,"y":2543847.6800000016}},{"attributes":{"ID":310820,"DIS_CODE":0,"TOWNNAME":"東區","LI":"東光里","LIN":"17鄰","STREET":"東興路","SECT":" ","MAREA":" ","LANE":" ","ALLEY":" ","HOUSE_NO":"１９５號三樓之９","E_COORD97":170998.14000000001,"N_COORD97":2543847.6800000002,"ADDRESS":"東興路１９５號三樓之９","OBJECTID":310812},"geometry":{"x":170998.13999999966,"y":2543847.6800000016}},{"attributes":{"ID":310821,"DIS_CODE":0,"TOWNNAME":"東區","LI":"東光里","LIN":"17鄰","STREET":"東興路","SECT":" ","MAREA":" ","LANE":" ","ALLEY":" ","HOUSE_NO":"１９５號三樓之１０","E_COORD97":170998.14000000001,"N_COORD97":2543847.6800000002,"ADDRESS":"東興路１９５號三樓之１０","OBJECTID":310813},"geometry":{"x":170998.13999999966,"y":2543847.6800000016}},{"attributes":{"ID":310822,"DIS_CODE":0,"TOWNNAME":"東區","LI":"東光里","LIN":"17鄰","STREET":"東興路","SECT":" ","MAREA":" ","LANE":" ","ALLEY":" ","HOUSE_NO":"１９５號四樓之１","E_COORD97":170998.14000000001,"N_COORD97":2543847.6800000002,"ADDRESS":"東興路１９５號四樓之１","OBJECTID":310814},"geometry":{"x":170998.13999999966,"y":2543847.6800000016}},{"attributes":{"ID":310823,"DIS_CODE":0,"TOWNNAME":"安南區","LI":"淵中里","LIN":"3鄰","STREET":"安中路","SECT":"四段","MAREA":" ","LANE":"１１９巷","ALLEY":" ","HOUSE_NO":"２９號之３","E_COORD97":165075.94,"N_COORD97":2549864.3700000001,"ADDRESS":"安中路四段１１９巷２９號之３","OBJECTID":310815},"geometry":{"x":165075.94000000041,"y":2549864.3700000048}},{"attributes":{"ID":310824,"DIS_CODE":0,"TOWNNAME":"安南區","LI":"溪心里","LIN":"2鄰","STREET":"海佃路","SECT":"二段","MAREA":" ","LANE":"６２３巷","ALLEY":" ","HOUSE_NO":"１０號","E_COORD97":166487.73000000001,"N_COORD97":2549471.1200000001,"ADDRESS":"海佃路二段６２３巷１０號","OBJECTID":310816},"geometry":{"x":166487.73000000045,"y":2549471.1200000029}},{"attributes":{"ID":310825,"DIS_CODE":0,"TOWNNAME":"安南區","LI":"溪心里","LIN":"2鄰","STREET":"海佃路","SECT":"二段","MAREA":" ","LANE":"６２３巷","ALLEY":" ","HOUSE_NO":"１２號","E_COORD97":166483.25,"N_COORD97":2549465.5299999998,"ADDRESS":"海佃路二段６２３巷１２號","OBJECTID":310817},"geometry":{"x":166483.25000000093,"y":2549465.5300000012}},{"attributes":{"ID":310826,"DIS_CODE":0,"TOWNNAME":"安南區","LI":"溪心里","LIN":"2鄰","STREET":"海佃路","SECT":"二段","MAREA":" ","LANE":"６２３巷","ALLEY":" ","HOUSE_NO":"１３號","E_COORD97":166496.79999999999,"N_COORD97":2549462.9300000002,"ADDRESS":"海佃路二段６２３巷１３號","OBJECTID":310818},"geometry":{"x":166496.79999999981,"y":2549462.9300000016}},{"attributes":{"ID":310827,"DIS_CODE":0,"TOWNNAME":"下營區","LI":"賀建里","LIN":"10鄰","STREET":" ","SECT":" ","MAREA":"火燒珠","LANE":" ","ALLEY":" ","HOUSE_NO":"２１號","E_COORD97":176677.42000000001,"N_COORD97":2572829.3700000001,"ADDRESS":"火燒珠２１號","OBJECTID":310819},"geometry":{"x":176677.41999999993,"y":2572829.370000001}},{"attributes":{"ID":310828,"DIS_CODE":0,"TOWNNAME":"下營區","LI":"賀建里","LIN":"10鄰","STREET":" ","SECT":" ","MAREA":"火燒珠","LANE":" ","ALLEY":" ","HOUSE_NO":"２２號之１","E_COORD97":176691.98000000001,"N_COORD97":2572837.4199999999,"ADDRESS":"火燒珠２２號之１","OBJECTID":310820},"geometry":{"x":176691.98000000138,"y":2572837.4200000018}},{"attributes":{"ID":310829,"DIS_CODE":0,"TOWNNAME":"安南區","LI":"城西里","LIN":"4鄰","STREET":"城西街","SECT":"三段","MAREA":" ","LANE":"１０５２巷","ALLEY":" ","HOUSE_NO":"３０號之６４","E_COORD97":155773.64000000001,"N_COORD97":2551012,"ADDRESS":"城西街三段１０５２巷３０號之６４","OBJECTID":310821},"geometry":{"x":155773.63999999966,"y":2551012.0000000037}},{"attributes":{"ID":310830,"DIS_CODE":0,"TOWNNAME":"安南區","LI":"海東里","LIN":"5鄰","STREET":"海佃路","SECT":"二段","MAREA":" ","LANE":"５０９巷","ALLEY":" ","HOUSE_NO":"８號","E_COORD97":166637.53,"N_COORD97":2549217.6400000001,"ADDRESS":"海佃路二段５０９巷８號","OBJECTID":310822},"geometry":{"x":166637.53000000119,"y":2549217.6400000006}},{"attributes":{"ID":310831,"DIS_CODE":0,"TOWNNAME":"安南區","LI":"公\u25A0里","LIN":"4鄰","STREET":"安興街","SECT":" ","MAREA":" ","LANE":"４３巷","ALLEY":" ","HOUSE_NO":"５３號","E_COORD97":164268.07000000001,"N_COORD97":2552147.3500000001,"ADDRESS":"安興街４３巷５３號","OBJECTID":310823},"geometry":{"x":164268.0700000003,"y":2552147.3499999996}},{"attributes":{"ID":310832,"DIS_CODE":0,"TOWNNAME":"玉井區","LI":"玉田里","LIN":"7鄰","STREET":"中華路","SECT":" ","MAREA":" ","LANE":"５９巷","ALLEY":" ","HOUSE_NO":"２號","E_COORD97":194960.79999999999,"N_COORD97":2558082.2400000002,"ADDRESS":"中華路５９巷２號","OBJECTID":310824},"geometry":{"x":194960.79999999981,"y":2558082.2400000002}},{"attributes":{"ID":310833,"DIS_CODE":0,"TOWNNAME":"玉井區","LI":"玉田里","LIN":"7鄰","STREET":"中華路","SECT":" ","MAREA":" ","LANE":"５９巷","ALLEY":" ","HOUSE_NO":"１號","E_COORD97":194954.39999999999,"N_COORD97":2558081.2400000002,"ADDRESS":"中華路５９巷１號","OBJECTID":310825},"geometry":{"x":194954.40000000224,"y":2558081.2400000002}},{"attributes":{"ID":310834,"DIS_CODE":0,"TOWNNAME":"學甲區","LI":"慈福里","LIN":"7鄰","STREET":"民族路","SECT":" ","MAREA":" ","LANE":"３３巷","ALLEY":" ","HOUSE_NO":"５號之１","E_COORD97":166518.10999999999,"N_COORD97":2570163.3199999998,"ADDRESS":"民族路３３巷５號之１","OBJECTID":310826},"geometry":{"x":166518.11000000127,"y":2570163.3200000022}},{"attributes":{"ID":310835,"DIS_CODE":0,"TOWNNAME":"學甲區","LI":"慈福里","LIN":"7鄰","STREET":"民族路","SECT":" ","MAREA":" ","LANE":"３３巷","ALLEY":" ","HOUSE_NO":"５號之２","E_COORD97":166518.42000000001,"N_COORD97":2570155.9500000002,"ADDRESS":"民族路３３巷５號之２","OBJECTID":310827},"geometry":{"x":166518.41999999993,"y":2570155.9499999993}},{"attributes":{"ID":310836,"DIS_CODE":0,"TOWNNAME":"學甲區","LI":"慈福里","LIN":"7鄰","STREET":"民族路","SECT":" ","MAREA":" ","LANE":"３３巷","ALLEY":" ","HOUSE_NO":"５號之３","E_COORD97":166516.85999999999,"N_COORD97":2570148.1000000001,"ADDRESS":"民族路３３巷５號之３","OBJECTID":310828},"geometry":{"x":166516.86000000127,"y":2570148.0999999996}},{"attributes":{"ID":310837,"DIS_CODE":0,"TOWNNAME":"學甲區","LI":"慈福里","LIN":"7鄰","STREET":"民族路","SECT":" ","MAREA":" ","LANE":"３３巷","ALLEY":" ","HOUSE_NO":"６號之３","E_COORD97":166538.92000000001,"N_COORD97":2570172.0699999998,"ADDRESS":"民族路３３巷６號之３","OBJECTID":310829},"geometry":{"x":166538.92000000179,"y":2570172.0700000022}},{"attributes":{"ID":310838,"DIS_CODE":0,"TOWNNAME":"學甲區","LI":"慈福里","LIN":"7鄰","STREET":"民族路","SECT":" ","MAREA":" ","LANE":"３３巷","ALLEY":" ","HOUSE_NO":"７號","E_COORD97":166502.97,"N_COORD97":2570162.98,"ADDRESS":"民族路３３巷７號","OBJECTID":310830},"geometry":{"x":166502.97000000067,"y":2570162.9800000004}},{"attributes":{"ID":310839,"DIS_CODE":0,"TOWNNAME":"學甲區","LI":"明宜里","LIN":"7鄰","STREET":"信義路","SECT":" ","MAREA":" ","LANE":"５９巷","ALLEY":" ","HOUSE_NO":"１７號","E_COORD97":165825.72,"N_COORD97":2570515.54,"ADDRESS":"信義路５９巷１７號","OBJECTID":310831},"geometry":{"x":165825.71999999974,"y":2570515.5400000028}},{"attributes":{"ID":310840,"DIS_CODE":0,"TOWNNAME":"學甲區","LI":"明宜里","LIN":"7鄰","STREET":"信義路","SECT":" ","MAREA":" ","LANE":"５９巷","ALLEY":" ","HOUSE_NO":"７號","E_COORD97":165846.79999999999,"N_COORD97":2570512.1099999999,"ADDRESS":"信義路５９巷７號","OBJECTID":310832},"geometry":{"x":165846.80000000075,"y":2570512.1100000031}},{"attributes":{"ID":310841,"DIS_CODE":0,"TOWNNAME":"學甲區","LI":"新榮里","LIN":"7鄰","STREET":"建國東路","SECT":" ","MAREA":" ","LANE":"５０巷","ALLEY":" ","HOUSE_NO":"１０號","E_COORD97":166846.76999999999,"N_COORD97":2569954,"ADDRESS":"建國東路５０巷１０號","OBJECTID":310833},"geometry":{"x":166846.77000000048,"y":2569954.0000000037}},{"attributes":{"ID":310842,"DIS_CODE":0,"TOWNNAME":"學甲區","LI":"新榮里","LIN":"7鄰","STREET":"建國東路","SECT":" ","MAREA":" ","LANE":"５０巷","ALLEY":" ","HOUSE_NO":"１１號","E_COORD97":166824.75,"N_COORD97":2569962.8500000001,"ADDRESS":"建國東路５０巷１１號","OBJECTID":310834},"geometry":{"x":166824.75,"y":2569962.8500000015}},{"attributes":{"ID":310843,"DIS_CODE":0,"TOWNNAME":"東區","LI":"東光里","LIN":"17鄰","STREET":"東興路","SECT":" ","MAREA":" ","LANE":" ","ALLEY":" ","HOUSE_NO":"１９５號四樓之２","E_COORD97":170998.14000000001,"N_COORD97":2543847.6800000002,"ADDRESS":"東興路１９５號四樓之２","OBJECTID":310835},"geometry":{"x":170998.13999999966,"y":2543847.6800000016}},{"attributes":{"ID":310844,"DIS_CODE":0,"TOWNNAME":"東區","LI":"東光里","LIN":"17鄰","STREET":"東興路","SECT":" ","MAREA":" ","LANE":" ","ALLEY":" ","HOUSE_NO":"１９５號四樓之３","E_COORD97":170998.14000000001,"N_COORD97":2543847.6800000002,"ADDRESS":"東興路１９５號四樓之３","OBJECTID":310836},"geometry":{"x":170998.13999999966,"y":2543847.6800000016}},{"attributes":{"ID":310845,"DIS_CODE":0,"TOWNNAME":"東區","LI":"東光里","LIN":"17鄰","STREET":"東興路","SECT":" ","MAREA":" ","LANE":" ","ALLEY":" ","HOUSE_NO":"１９５號四樓之４","E_COORD97":170998.14000000001,"N_COORD97":2543847.6800000002,"ADDRESS":"東興路１９５號四樓之４","OBJECTID":310837},"geometry":{"x":170998.13999999966,"y":2543847.6800000016}},{"attributes":{"ID":310846,"DIS_CODE":0,"TOWNNAME":"東區","LI":"東光里","LIN":"17鄰","STREET":"東興路","SECT":" ","MAREA":" ","LANE":" ","ALLEY":" ","HOUSE_NO":"１９５號四樓之５","E_COORD97":170998.14000000001,"N_COORD97":2543847.6800000002,"ADDRESS":"東興路１９５號四樓之５","OBJECTID":310838},"geometry":{"x":170998.13999999966,"y":2543847.6800000016}},{"attributes":{"ID":310847,"DIS_CODE":0,"TOWNNAME":"東區","LI":"東光里","LIN":"17鄰","STREET":"東興路","SECT":" ","MAREA":" ","LANE":" ","ALLEY":" ","HOUSE_NO":"１９５號四樓之６","E_COORD97":170998.14000000001,"N_COORD97":2543847.6800000002,"ADDRESS":"東興路１９５號四樓之６","OBJECTID":310839},"geometry":{"x":170998.13999999966,"y":2543847.6800000016}},{"attributes":{"ID":310848,"DIS_CODE":0,"TOWNNAME":"東區","LI":"東光里","LIN":"17鄰","STREET":"東興路","SECT":" ","MAREA":" ","LANE":" ","ALLEY":" ","HOUSE_NO":"１９５號四樓之７","E_COORD97":170998.14000000001,"N_COORD97":2543847.6800000002,"ADDRESS":"東興路１９５號四樓之７","OBJECTID":310840},"geometry":{"x":170998.13999999966,"y":2543847.6800000016}},{"attributes":{"ID":310849,"DIS_CODE":0,"TOWNNAME":"東區","LI":"東光里","LIN":"17鄰","STREET":"東興路","SECT":" ","MAREA":" ","LANE":" ","ALLEY":" ","HOUSE_NO":"１９５號四樓之８","E_COORD97":170998.14000000001,"N_COORD97":2543847.6800000002,"ADDRESS":"東興路１９５號四樓之８","OBJECTID":310841},"geometry":{"x":170998.13999999966,"y":2543847.6800000016}},{"attributes":{"ID":310850,"DIS_CODE":0,"TOWNNAME":"安南區","LI":"長安里","LIN":"13鄰","STREET":"長溪路","SECT":"三段","MAREA":" ","LANE":"３８０巷","ALLEY":" ","HOUSE_NO":"７０號","E_COORD97":167904.73999999999,"N_COORD97":2552078.3900000001,"ADDRESS":"長溪路三段３８０巷７０號","OBJECTID":310842},"geometry":{"x":167904.74000000022,"y":2552078.3900000025}},{"attributes":{"ID":310851,"DIS_CODE":0,"TOWNNAME":"學甲區","LI":"新榮里","LIN":"7鄰","STREET":"建國東路","SECT":" ","MAREA":" ","LANE":"５０巷","ALLEY":" ","HOUSE_NO":"１２號","E_COORD97":166846.17000000001,"N_COORD97":2569957.8599999999,"ADDRESS":"建國東路５０巷１２號","OBJECTID":310843},"geometry":{"x":166846.17000000086,"y":2569957.8600000013}},{"attributes":{"ID":310852,"DIS_CODE":0,"TOWNNAME":"學甲區","LI":"新榮里","LIN":"7鄰","STREET":"建國東路","SECT":" ","MAREA":" ","LANE":"５０巷","ALLEY":" ","HOUSE_NO":"１３號","E_COORD97":166823.54000000001,"N_COORD97":2569966.9500000002,"ADDRESS":"建國東路５０巷１３號","OBJECTID":310844},"geometry":{"x":166823.54000000097,"y":2569966.950000003}},{"attributes":{"ID":310853,"DIS_CODE":0,"TOWNNAME":"學甲區","LI":"新榮里","LIN":"7鄰","STREET":"建國東路","SECT":" ","MAREA":" ","LANE":"５０巷","ALLEY":" ","HOUSE_NO":"１５號","E_COORD97":166822.84,"N_COORD97":2569970.98,"ADDRESS":"建國東路５０巷１５號","OBJECTID":310845},"geometry":{"x":166822.84000000078,"y":2569970.9800000004}},{"attributes":{"ID":310854,"DIS_CODE":0,"TOWNNAME":"學甲區","LI":"新榮里","LIN":"7鄰","STREET":"建國東路","SECT":" ","MAREA":" ","LANE":"５０巷","ALLEY":" ","HOUSE_NO":"１６號","E_COORD97":166845.07000000001,"N_COORD97":2569962.5899999999,"ADDRESS":"建國東路５０巷１６號","OBJECTID":310846},"geometry":{"x":166845.07000000216,"y":2569962.5899999999}},{"attributes":{"ID":310855,"DIS_CODE":0,"TOWNNAME":"學甲區","LI":"新榮里","LIN":"7鄰","STREET":"建國東路","SECT":" ","MAREA":" ","LANE":"５０巷","ALLEY":" ","HOUSE_NO":"１７號","E_COORD97":166821.95000000001,"N_COORD97":2569974.9399999999,"ADDRESS":"建國東路５０巷１７號","OBJECTID":310847},"geometry":{"x":166821.95000000019,"y":2569974.9400000013}},{"attributes":{"ID":310856,"DIS_CODE":0,"TOWNNAME":"學甲區","LI":"新榮里","LIN":"7鄰","STREET":"建國東路","SECT":" ","MAREA":" ","LANE":"５０巷","ALLEY":" ","HOUSE_NO":"１８號","E_COORD97":166844.04999999999,"N_COORD97":2569966.6299999999,"ADDRESS":"建國東路５０巷１８號","OBJECTID":310848},"geometry":{"x":166844.04999999981,"y":2569966.6300000008}},{"attributes":{"ID":310857,"DIS_CODE":0,"TOWNNAME":"學甲區","LI":"新榮里","LIN":"7鄰","STREET":"建國東路","SECT":" ","MAREA":" ","LANE":"５０巷","ALLEY":" ","HOUSE_NO":"２０號","E_COORD97":166843.01999999999,"N_COORD97":2569970.3500000001,"ADDRESS":"建國東路５０巷２０號","OBJECTID":310849},"geometry":{"x":166843.02000000142,"y":2569970.3499999996}},{"attributes":{"ID":310858,"DIS_CODE":0,"TOWNNAME":"學甲區","LI":"新榮里","LIN":"7鄰","STREET":"建國東路","SECT":" ","MAREA":" ","LANE":"５０巷","ALLEY":" ","HOUSE_NO":"２號","E_COORD97":166849.94,"N_COORD97":2569941.71,"ADDRESS":"建國東路５０巷２號","OBJECTID":310850},"geometry":{"x":166849.94000000134,"y":2569941.7100000009}},{"attributes":{"ID":310859,"DIS_CODE":0,"TOWNNAME":"學甲區","LI":"新榮里","LIN":"7鄰","STREET":"建國東路","SECT":" ","MAREA":" ","LANE":"５０巷","ALLEY":" ","HOUSE_NO":"３號","E_COORD97":166828.12,"N_COORD97":2569947.0299999998,"ADDRESS":"建國東路５０巷３號","OBJECTID":310851},"geometry":{"x":166828.12000000104,"y":2569947.0300000012}},{"attributes":{"ID":310860,"DIS_CODE":0,"TOWNNAME":"學甲區","LI":"新榮里","LIN":"7鄰","STREET":"建國東路","SECT":" ","MAREA":" ","LANE":"５０巷","ALLEY":" ","HOUSE_NO":"５號","E_COORD97":166827.03,"N_COORD97":2569951.3100000001,"ADDRESS":"建國東路５０巷５號","OBJECTID":310852},"geometry":{"x":166827.03000000119,"y":2569951.3100000005}},{"attributes":{"ID":310861,"DIS_CODE":0,"TOWNNAME":"學甲區","LI":"新榮里","LIN":"7鄰","STREET":"建國東路","SECT":" ","MAREA":" ","LANE":"５０巷","ALLEY":" ","HOUSE_NO":"６號","E_COORD97":166848.51999999999,"N_COORD97":2569945.8700000001,"ADDRESS":"建國東路５０巷６號","OBJECTID":310853},"geometry":{"x":166848.52000000048,"y":2569945.8700000048}},{"attributes":{"ID":310862,"DIS_CODE":0,"TOWNNAME":"東區","LI":"東光里","LIN":"17鄰","STREET":"東興路","SECT":" ","MAREA":" ","LANE":" ","ALLEY":" ","HOUSE_NO":"１９５號四樓之９","E_COORD97":170998.14000000001,"N_COORD97":2543847.6800000002,"ADDRESS":"東興路１９５號四樓之９","OBJECTID":310854},"geometry":{"x":170998.13999999966,"y":2543847.6800000016}},{"attributes":{"ID":310863,"DIS_CODE":0,"TOWNNAME":"東區","LI":"東光里","LIN":"17鄰","STREET":"東興路","SECT":" ","MAREA":" ","LANE":" ","ALLEY":" ","HOUSE_NO":"１９５號四樓之１０","E_COORD97":170998.14000000001,"N_COORD97":2543847.6800000002,"ADDRESS":"東興路１９５號四樓之１０","OBJECTID":310855},"geometry":{"x":170998.13999999966,"y":2543847.6800000016}},{"attributes":{"ID":310864,"DIS_CODE":0,"TOWNNAME":"東區","LI":"東光里","LIN":"17鄰","STREET":"東興路","SECT":" ","MAREA":" ","LANE":" ","ALLEY":" ","HOUSE_NO":"１９５號五樓之１","E_COORD97":170998.14000000001,"N_COORD97":2543847.6800000002,"ADDRESS":"東興路１９５號五樓之１","OBJECTID":310856},"geometry":{"x":170998.13999999966,"y":2543847.6800000016}},{"attributes":{"ID":310865,"DIS_CODE":0,"TOWNNAME":"東區","LI":"東光里","LIN":"17鄰","STREET":"東興路","SECT":" ","MAREA":" ","LANE":" ","ALLEY":" ","HOUSE_NO":"１９５號五樓之２","E_COORD97":170998.14000000001,"N_COORD97":2543847.6800000002,"ADDRESS":"東興路１９５號五樓之２","OBJECTID":310857},"geometry":{"x":170998.13999999966,"y":2543847.6800000016}},{"attributes":{"ID":310866,"DIS_CODE":0,"TOWNNAME":"東區","LI":"東光里","LIN":"17鄰","STREET":"東興路","SECT":" ","MAREA":" ","LANE":" ","ALLEY":" ","HOUSE_NO":"１９５號五樓之３","E_COORD97":170998.14000000001,"N_COORD97":2543847.6800000002,"ADDRESS":"東興路１９５號五樓之３","OBJECTID":310858},"geometry":{"x":170998.13999999966,"y":2543847.6800000016}},{"attributes":{"ID":310867,"DIS_CODE":0,"TOWNNAME":"東區","LI":"東光里","LIN":"17鄰","STREET":"東興路","SECT":" ","MAREA":" ","LANE":" ","ALLEY":" ","HOUSE_NO":"１９５號五樓之４","E_COORD97":170998.14000000001,"N_COORD97":2543847.6800000002,"ADDRESS":"東興路１９５號五樓之４","OBJECTID":310859},"geometry":{"x":170998.13999999966,"y":2543847.6800000016}},{"attributes":{"ID":310868,"DIS_CODE":0,"TOWNNAME":"安南區","LI":"長安里","LIN":"4鄰","STREET":"長溪路","SECT":"三段","MAREA":" ","LANE":"４０５巷","ALLEY":" ","HOUSE_NO":"１１６號","E_COORD97":167441.81,"N_COORD97":2551909.5899999999,"ADDRESS":"長溪路三段４０５巷１１６號","OBJECTID":310860},"geometry":{"x":167441.81000000052,"y":2551909.5900000036}},{"attributes":{"ID":310869,"DIS_CODE":0,"TOWNNAME":"學甲區","LI":"新榮里","LIN":"7鄰","STREET":"建國東路","SECT":" ","MAREA":" ","LANE":"５０巷","ALLEY":" ","HOUSE_NO":"７號","E_COORD97":166826.03,"N_COORD97":2569955.0699999998,"ADDRESS":"建國東路５０巷７號","OBJECTID":310861},"geometry":{"x":166826.03000000026,"y":2569955.0700000022}},{"attributes":{"ID":310870,"DIS_CODE":0,"TOWNNAME":"學甲區","LI":"新榮里","LIN":"7鄰","STREET":"建國東路","SECT":" ","MAREA":" ","LANE":"５０巷","ALLEY":" ","HOUSE_NO":"８號","E_COORD97":166847.72,"N_COORD97":2569950.27,"ADDRESS":"建國東路５０巷８號","OBJECTID":310862},"geometry":{"x":166847.72000000067,"y":2569950.2699999996}},{"attributes":{"ID":310871,"DIS_CODE":0,"TOWNNAME":"學甲區","LI":"新榮里","LIN":"7鄰","STREET":"建國東路","SECT":" ","MAREA":" ","LANE":"５０巷","ALLEY":" ","HOUSE_NO":"９號","E_COORD97":166825.41,"N_COORD97":2569959.3100000001,"ADDRESS":"建國東路５０巷９號","OBJECTID":310863},"geometry":{"x":166825.41000000015,"y":2569959.3100000042}},{"attributes":{"ID":310872,"DIS_CODE":0,"TOWNNAME":"北區","LI":"大豐里","LIN":"7鄰","STREET":"文賢路","SECT":" ","MAREA":" ","LANE":"３１３巷","ALLEY":" ","HOUSE_NO":"１７號","E_COORD97":167259.82999999999,"N_COORD97":2545241.6600000001,"ADDRESS":"文賢路３１３巷１７號","OBJECTID":310864},"geometry":{"x":167259.83000000007,"y":2545241.660000002}},{"attributes":{"ID":310873,"DIS_CODE":0,"TOWNNAME":"學甲區","LI":"明宜里","LIN":"7鄰","STREET":"宮西路","SECT":" ","MAREA":" ","LANE":"６６巷","ALLEY":" ","HOUSE_NO":"１１號之１","E_COORD97":165725.23000000001,"N_COORD97":2570482.5,"ADDRESS":"宮西路６６巷１１號之１","OBJECTID":310865},"geometry":{"x":165725.23000000045,"y":2570482.4999999981}},{"attributes":{"ID":310874,"DIS_CODE":0,"TOWNNAME":"學甲區","LI":"明宜里","LIN":"7鄰","STREET":"宮西路","SECT":" ","MAREA":" ","LANE":"６６巷","ALLEY":" ","HOUSE_NO":"１１號","E_COORD97":165744.89000000001,"N_COORD97":2570473.3700000001,"ADDRESS":"宮西路６６巷１１號","OBJECTID":310866},"geometry":{"x":165744.88999999966,"y":2570473.370000001}},{"attributes":{"ID":310875,"DIS_CODE":0,"TOWNNAME":"學甲區","LI":"明宜里","LIN":"7鄰","STREET":"宮西路","SECT":" ","MAREA":" ","LANE":"６６巷","ALLEY":" ","HOUSE_NO":"１３號之１","E_COORD97":165726.32999999999,"N_COORD97":2570487.9199999999,"ADDRESS":"宮西路６６巷１３號之１","OBJECTID":310867},"geometry":{"x":165726.33000000101,"y":2570487.9200000018}},{"attributes":{"ID":310876,"DIS_CODE":0,"TOWNNAME":"學甲區","LI":"明宜里","LIN":"7鄰","STREET":"宮西路","SECT":" ","MAREA":" ","LANE":"６６巷","ALLEY":" ","HOUSE_NO":"１３號","E_COORD97":165746.17000000001,"N_COORD97":2570481.6400000001,"ADDRESS":"宮西路６６巷１３號","OBJECTID":310868},"geometry":{"x":165746.17000000086,"y":2570481.6400000006}},{"attributes":{"ID":310877,"DIS_CODE":0,"TOWNNAME":"學甲區","LI":"明宜里","LIN":"7鄰","STREET":"宮西路","SECT":" ","MAREA":" ","LANE":"６６巷","ALLEY":" ","HOUSE_NO":"１５號之１","E_COORD97":165728.53,"N_COORD97":2570494.9900000002,"ADDRESS":"宮西路６６巷１５號之１","OBJECTID":310869},"geometry":{"x":165728.53000000119,"y":2570494.9900000002}},{"attributes":{"ID":310878,"DIS_CODE":0,"TOWNNAME":"學甲區","LI":"明宜里","LIN":"7鄰","STREET":"宮西路","SECT":" ","MAREA":" ","LANE":"６６巷","ALLEY":" ","HOUSE_NO":"１５號","E_COORD97":165747.39000000001,"N_COORD97":2570486.7799999998,"ADDRESS":"宮西路６６巷１５號","OBJECTID":310870},"geometry":{"x":165747.3900000006,"y":2570486.7799999975}},{"attributes":{"ID":310879,"DIS_CODE":0,"TOWNNAME":"學甲區","LI":"明宜里","LIN":"7鄰","STREET":"宮西路","SECT":" ","MAREA":" ","LANE":"６６巷","ALLEY":" ","HOUSE_NO":"１７號之１","E_COORD97":165730.09,"N_COORD97":2570503.7599999998,"ADDRESS":"宮西路６６巷１７號之１","OBJECTID":310871},"geometry":{"x":165730.08999999985,"y":2570503.7599999998}},{"attributes":{"ID":310880,"DIS_CODE":0,"TOWNNAME":"學甲區","LI":"明宜里","LIN":"7鄰","STREET":"宮西路","SECT":" ","MAREA":" ","LANE":"６６巷","ALLEY":" ","HOUSE_NO":"１７號","E_COORD97":165748.20999999999,"N_COORD97":2570491.2200000002,"ADDRESS":"宮西路６６巷１７號","OBJECTID":310872},"geometry":{"x":165748.20999999996,"y":2570491.2200000007}},{"attributes":{"ID":310881,"DIS_CODE":0,"TOWNNAME":"東區","LI":"東光里","LIN":"17鄰","STREET":"東興路","SECT":" ","MAREA":" ","LANE":" ","ALLEY":" ","HOUSE_NO":"１９５號五樓之５","E_COORD97":170998.14000000001,"N_COORD97":2543847.6800000002,"ADDRESS":"東興路１９５號五樓之５","OBJECTID":310873},"geometry":{"x":170998.13999999966,"y":2543847.6800000016}},{"attributes":{"ID":310882,"DIS_CODE":0,"TOWNNAME":"佳里區","LI":"東寧里","LIN":"1鄰","STREET":"中山路","SECT":" ","MAREA":" ","LANE":" ","ALLEY":" ","HOUSE_NO":"２８８號","E_COORD97":165722.25,"N_COORD97":2562334.4100000001,"ADDRESS":"中山路２８８號","OBJECTID":310874},"geometry":{"x":165722.25,"y":2562334.410000002}},{"attributes":{"ID":310883,"DIS_CODE":0,"TOWNNAME":"學甲區","LI":"明宜里","LIN":"7鄰","STREET":"宮西路","SECT":" ","MAREA":" ","LANE":"６６巷","ALLEY":" ","HOUSE_NO":"１９號之１","E_COORD97":165730.29999999999,"N_COORD97":2570512.4300000002,"ADDRESS":"宮西路６６巷１９號之１","OBJECTID":310875},"geometry":{"x":165730.29999999981,"y":2570512.4299999997}},{"attributes":{"ID":310884,"DIS_CODE":0,"TOWNNAME":"學甲區","LI":"明宜里","LIN":"7鄰","STREET":"宮西路","SECT":" ","MAREA":" ","LANE":"６６巷","ALLEY":" ","HOUSE_NO":"１９號","E_COORD97":165749.75,"N_COORD97":2570495.9900000002,"ADDRESS":"宮西路６６巷１９號","OBJECTID":310876},"geometry":{"x":165749.75,"y":2570495.9900000002}},{"attributes":{"ID":310885,"DIS_CODE":0,"TOWNNAME":"學甲區","LI":"明宜里","LIN":"7鄰","STREET":"宮西路","SECT":" ","MAREA":" ","LANE":"６６巷","ALLEY":" ","HOUSE_NO":"１號之１","E_COORD97":165727.13,"N_COORD97":2570443.4199999999,"ADDRESS":"宮西路６６巷１號之１","OBJECTID":310877},"geometry":{"x":165727.13000000175,"y":2570443.4200000018}},{"attributes":{"ID":310886,"DIS_CODE":0,"TOWNNAME":"學甲區","LI":"明宜里","LIN":"7鄰","STREET":"宮西路","SECT":" ","MAREA":" ","LANE":"６６巷","ALLEY":" ","HOUSE_NO":"１號","E_COORD97":165747.48000000001,"N_COORD97":2570447.2000000002,"ADDRESS":"宮西路６６巷１號","OBJECTID":310878},"geometry":{"x":165747.48000000231,"y":2570447.2000000011}},{"attributes":{"ID":310887,"DIS_CODE":0,"TOWNNAME":"北區","LI":"裕民里","LIN":"7鄰","STREET":"臨安路","SECT":"二段","MAREA":" ","LANE":"６８巷","ALLEY":" ","HOUSE_NO":"３１號","E_COORD97":167670.70999999999,"N_COORD97":2544736.54,"ADDRESS":"臨安路二段６８巷３１號","OBJECTID":310879},"geometry":{"x":167670.70999999996,"y":2544736.540000001}},{"attributes":{"ID":310888,"DIS_CODE":0,"TOWNNAME":"北區","LI":"裕民里","LIN":"7鄰","STREET":"臨安路","SECT":"二段","MAREA":" ","LANE":"６８巷","ALLEY":" ","HOUSE_NO":"３３號","E_COORD97":167671.67000000001,"N_COORD97":2544728.71,"ADDRESS":"臨安路二段６８巷３３號","OBJECTID":310880},"geometry":{"x":167671.67000000086,"y":2544728.709999999}},{"attributes":{"ID":310889,"DIS_CODE":0,"TOWNNAME":"北區","LI":"裕民里","LIN":"7鄰","STREET":"臨安路","SECT":"二段","MAREA":" ","LANE":"６８巷","ALLEY":" ","HOUSE_NO":"８號","E_COORD97":167661.72,"N_COORD97":2544750.1499999999,"ADDRESS":"臨安路二段６８巷８號","OBJECTID":310881},"geometry":{"x":167661.71999999974,"y":2544750.1500000022}},{"attributes":{"ID":310890,"DIS_CODE":0,"TOWNNAME":"歸仁區","LI":"大廟里","LIN":"7鄰","STREET":"大廟一街","SECT":" ","MAREA":" ","LANE":"１２３巷","ALLEY":" ","HOUSE_NO":"１２號","E_COORD97":175761.97,"N_COORD97":2543865.25,"ADDRESS":"大廟一街１２３巷１２號","OBJECTID":310882},"geometry":{"x":175761.9700000016,"y":2543865.25}},{"attributes":{"ID":310891,"DIS_CODE":0,"TOWNNAME":"歸仁區","LI":"八甲里","LIN":"7鄰","STREET":"中正北路","SECT":"一段","MAREA":" ","LANE":"２２０巷","ALLEY":" ","HOUSE_NO":"１０號","E_COORD97":177827.5,"N_COORD97":2541681.6099999999,"ADDRESS":"中正北路一段２２０巷１０號","OBJECTID":310883},"geometry":{"x":177827.50000000093,"y":2541681.6100000013}},{"attributes":{"ID":310892,"DIS_CODE":0,"TOWNNAME":"歸仁區","LI":"大廟里","LIN":"7鄰","STREET":"大廟一街","SECT":" ","MAREA":" ","LANE":"１２３巷","ALLEY":" ","HOUSE_NO":"３０號","E_COORD97":175797.76999999999,"N_COORD97":2543847.25,"ADDRESS":"大廟一街１２３巷３０號","OBJECTID":310884},"geometry":{"x":175797.77000000048,"y":2543847.2500000019}},{"attributes":{"ID":310893,"DIS_CODE":0,"TOWNNAME":"歸仁區","LI":"七甲里","LIN":"7鄰","STREET":"中正北路","SECT":"二段","MAREA":" ","LANE":"２９８巷","ALLEY":" ","HOUSE_NO":"２９號","E_COORD97":177586.97,"N_COORD97":2542771.6600000001,"ADDRESS":"中正北路二段２９８巷２９號","OBJECTID":310885},"geometry":{"x":177586.96999999974,"y":2542771.6600000001}},{"attributes":{"ID":310894,"DIS_CODE":0,"TOWNNAME":"歸仁區","LI":"大廟里","LIN":"7鄰","STREET":"大廟一街","SECT":" ","MAREA":" ","LANE":"１２３巷","ALLEY":" ","HOUSE_NO":"２０號","E_COORD97":175777.26999999999,"N_COORD97":2543857.25,"ADDRESS":"大廟一街１２３巷２０號","OBJECTID":310886},"geometry":{"x":175777.27000000048,"y":2543857.2500000019}},{"attributes":{"ID":310895,"DIS_CODE":0,"TOWNNAME":"歸仁區","LI":"西埔里","LIN":"7鄰","STREET":"保大路","SECT":"一段","MAREA":" ","LANE":"２６０巷","ALLEY":" ","HOUSE_NO":"２１號","E_COORD97":177389.48000000001,"N_COORD97":2544152.7200000002,"ADDRESS":"保大路一段２６０巷２１號","OBJECTID":310887},"geometry":{"x":177389.48000000045,"y":2544152.7200000025}},{"attributes":{"ID":310896,"DIS_CODE":0,"TOWNNAME":"歸仁區","LI":"大廟里","LIN":"7鄰","STREET":"大廟一街","SECT":" ","MAREA":" ","LANE":"１０３巷","ALLEY":" ","HOUSE_NO":"２２號","E_COORD97":175816.47,"N_COORD97":2543894.25,"ADDRESS":"大廟一街１０３巷２２號","OBJECTID":310888},"geometry":{"x":175816.47000000067,"y":2543894.2500000019}},{"attributes":{"ID":310897,"DIS_CODE":0,"TOWNNAME":"歸仁區","LI":"大廟里","LIN":"7鄰","STREET":"大廟一街","SECT":" ","MAREA":" ","LANE":"１２３巷","ALLEY":" ","HOUSE_NO":"７號","E_COORD97":175765.92000000001,"N_COORD97":2543884.25,"ADDRESS":"大廟一街１２３巷７號","OBJECTID":310889},"geometry":{"x":175765.92000000179,"y":2543884.2500000019}},{"attributes":{"ID":310898,"DIS_CODE":0,"TOWNNAME":"歸仁區","LI":"大廟里","LIN":"7鄰","STREET":"大廟一街","SECT":" ","MAREA":" ","LANE":"１２３巷","ALLEY":" ","HOUSE_NO":"３號","E_COORD97":175758.72,"N_COORD97":2543889.25,"ADDRESS":"大廟一街１２３巷３號","OBJECTID":310890},"geometry":{"x":175758.72000000067,"y":2543889.25}},{"attributes":{"ID":310899,"DIS_CODE":0,"TOWNNAME":"歸仁區","LI":"大廟里","LIN":"7鄰","STREET":"大廟一街","SECT":" ","MAREA":" ","LANE":"１２３巷","ALLEY":" ","HOUSE_NO":"８號","E_COORD97":175752.51999999999,"N_COORD97":2543869.25,"ADDRESS":"大廟一街１２３巷８號","OBJECTID":310891},"geometry":{"x":175752.51999999955,"y":2543869.25}},{"attributes":{"ID":310900,"DIS_CODE":0,"TOWNNAME":"歸仁區","LI":"大廟里","LIN":"7鄰","STREET":"大廟一街","SECT":" ","MAREA":" ","LANE":"１２３巷","ALLEY":" ","HOUSE_NO":"１０號","E_COORD97":175757.87,"N_COORD97":2543868.25,"ADDRESS":"大廟一街１２３巷１０號","OBJECTID":310892},"geometry":{"x":175757.87000000197,"y":2543868.2500000019}},{"attributes":{"ID":310901,"DIS_CODE":0,"TOWNNAME":"歸仁區","LI":"七甲里","LIN":"7鄰","STREET":"中正北路","SECT":"二段","MAREA":" ","LANE":"２９８巷","ALLEY":" ","HOUSE_NO":"２７號","E_COORD97":177596.07000000001,"N_COORD97":2542756.6600000001,"ADDRESS":"中正北路二段２９８巷２７號","OBJECTID":310893},"geometry":{"x":177596.07000000216,"y":2542756.660000002}},{"attributes":{"ID":310902,"DIS_CODE":0,"TOWNNAME":"歸仁區","LI":"大廟里","LIN":"7鄰","STREET":"大廟一街","SECT":" ","MAREA":" ","LANE":"１２３巷","ALLEY":" ","HOUSE_NO":"２４號","E_COORD97":175786.47,"N_COORD97":2543853.25,"ADDRESS":"大廟一街１２３巷２４號","OBJECTID":310894},"geometry":{"x":175786.47000000067,"y":2543853.2500000037}},{"attributes":{"ID":310903,"DIS_CODE":0,"TOWNNAME":"歸仁區","LI":"大廟里","LIN":"7鄰","STREET":"大廟一街","SECT":" ","MAREA":" ","LANE":"１２３巷","ALLEY":" ","HOUSE_NO":"２２號","E_COORD97":175781.37,"N_COORD97":2543855.25,"ADDRESS":"大廟一街１２３巷２２號","OBJECTID":310895},"geometry":{"x":175781.37000000011,"y":2543855.25}},{"attributes":{"ID":310904,"DIS_CODE":0,"TOWNNAME":"佳里區","LI":"佳化里","LIN":"17鄰","STREET":" ","SECT":" ","MAREA":"佳里興","LANE":" ","ALLEY":" ","HOUSE_NO":"１６１號之１","E_COORD97":167270.56,"N_COORD97":2565181.7599999998,"ADDRESS":"佳里興１６１號之１","OBJECTID":310896},"geometry":{"x":167270.56000000052,"y":2565181.7600000035}},{"attributes":{"ID":310905,"DIS_CODE":0,"TOWNNAME":"佳里區","LI":"佳化里","LIN":"17鄰","STREET":" ","SECT":" ","MAREA":"佳里興","LANE":" ","ALLEY":" ","HOUSE_NO":"１６１號","E_COORD97":167280.17000000001,"N_COORD97":2565184.2400000002,"ADDRESS":"佳里興１６１號","OBJECTID":310897},"geometry":{"x":167280.17000000086,"y":2565184.2400000002}},{"attributes":{"ID":310906,"DIS_CODE":0,"TOWNNAME":"佳里區","LI":"佳化里","LIN":"17鄰","STREET":" ","SECT":" ","MAREA":"佳里興","LANE":" ","ALLEY":" ","HOUSE_NO":"１６２號","E_COORD97":167258.70000000001,"N_COORD97":2565161.75,"ADDRESS":"佳里興１６２號","OBJECTID":310898},"geometry":{"x":167258.70000000019,"y":2565161.7500000037}},{"attributes":{"ID":310907,"DIS_CODE":0,"TOWNNAME":"佳里區","LI":"佳化里","LIN":"17鄰","STREET":" ","SECT":" ","MAREA":"佳里興","LANE":" ","ALLEY":" ","HOUSE_NO":"１６３號","E_COORD97":167250.29999999999,"N_COORD97":2565177.0600000001,"ADDRESS":"佳里興１６３號","OBJECTID":310899},"geometry":{"x":167250.30000000075,"y":2565177.0600000042}},{"attributes":{"ID":310908,"DIS_CODE":0,"TOWNNAME":"佳里區","LI":"佳化里","LIN":"17鄰","STREET":" ","SECT":" ","MAREA":"佳里興","LANE":" ","ALLEY":" ","HOUSE_NO":"１６４號","E_COORD97":167236.23999999999,"N_COORD97":2565182.9700000002,"ADDRESS":"佳里興１６４號","OBJECTID":310900},"geometry":{"x":167236.24000000115,"y":2565182.9700000007}},{"attributes":{"ID":310909,"DIS_CODE":0,"TOWNNAME":"佳里區","LI":"佳化里","LIN":"17鄰","STREET":" ","SECT":" ","MAREA":"佳里興","LANE":" ","ALLEY":" ","HOUSE_NO":"１６６號","E_COORD97":167225.98999999999,"N_COORD97":2565161.9399999999,"ADDRESS":"佳里興１６６號","OBJECTID":310901},"geometry":{"x":167225.99000000115,"y":2565161.9399999995}},{"attributes":{"ID":310910,"DIS_CODE":0,"TOWNNAME":"佳里區","LI":"佳化里","LIN":"17鄰","STREET":" ","SECT":" ","MAREA":"佳里興","LANE":" ","ALLEY":" ","HOUSE_NO":"１６７號","E_COORD97":167247.22,"N_COORD97":2565161.9300000002,"ADDRESS":"佳里興１６７號","OBJECTID":310902},"geometry":{"x":167247.22000000067,"y":2565161.9299999997}},{"attributes":{"ID":310911,"DIS_CODE":0,"TOWNNAME":"佳里區","LI":"佳化里","LIN":"17鄰","STREET":" ","SECT":" ","MAREA":"佳里興","LANE":" ","ALLEY":" ","HOUSE_NO":"１６８號","E_COORD97":167241.04000000001,"N_COORD97":2565142.77,"ADDRESS":"佳里興１６８號","OBJECTID":310903},"geometry":{"x":167241.04000000004,"y":2565142.7699999996}},{"attributes":{"ID":310912,"DIS_CODE":0,"TOWNNAME":"佳里區","LI":"佳化里","LIN":"17鄰","STREET":" ","SECT":" ","MAREA":"佳里興","LANE":" ","ALLEY":" ","HOUSE_NO":"１６９號之１","E_COORD97":167276.69,"N_COORD97":2565137.4399999999,"ADDRESS":"佳里興１６９號之１","OBJECTID":310904},"geometry":{"x":167276.69000000227,"y":2565137.4400000013}},{"attributes":{"ID":310913,"DIS_CODE":0,"TOWNNAME":"佳里區","LI":"佳化里","LIN":"17鄰","STREET":" ","SECT":" ","MAREA":"佳里興","LANE":" ","ALLEY":" ","HOUSE_NO":"１６９號之２","E_COORD97":167276.51000000001,"N_COORD97":2565140.8100000001,"ADDRESS":"佳里興１６９號之２","OBJECTID":310905},"geometry":{"x":167276.50999999978,"y":2565140.8100000005}},{"attributes":{"ID":310914,"DIS_CODE":0,"TOWNNAME":"佳里區","LI":"佳化里","LIN":"17鄰","STREET":" ","SECT":" ","MAREA":"佳里興","LANE":" ","ALLEY":" ","HOUSE_NO":"１６９號","E_COORD97":167275.64000000001,"N_COORD97":2565148.98,"ADDRESS":"佳里興１６９號","OBJECTID":310906},"geometry":{"x":167275.63999999966,"y":2565148.9800000004}},{"attributes":{"ID":310915,"DIS_CODE":0,"TOWNNAME":"佳里區","LI":"佳化里","LIN":"17鄰","STREET":" ","SECT":" ","MAREA":"佳里興","LANE":" ","ALLEY":" ","HOUSE_NO":"１７０號","E_COORD97":167241.95000000001,"N_COORD97":2565127.5699999998,"ADDRESS":"佳里興１７０號","OBJECTID":310907},"geometry":{"x":167241.95000000019,"y":2565127.5700000003}},{"attributes":{"ID":310916,"DIS_CODE":0,"TOWNNAME":"歸仁區","LI":"大廟里","LIN":"7鄰","STREET":"大廟一街","SECT":" ","MAREA":" ","LANE":"１２３巷","ALLEY":" ","HOUSE_NO":"２８號","E_COORD97":175793.67000000001,"N_COORD97":2543848.25,"ADDRESS":"大廟一街１２３巷２８號","OBJECTID":310908},"geometry":{"x":175793.67000000086,"y":2543848.25}},{"attributes":{"ID":310917,"DIS_CODE":0,"TOWNNAME":"歸仁區","LI":"七甲里","LIN":"7鄰","STREET":"中正北路","SECT":"二段","MAREA":" ","LANE":"２９８巷","ALLEY":" ","HOUSE_NO":"１８號","E_COORD97":177567.26999999999,"N_COORD97":2542731.6600000001,"ADDRESS":"中正北路二段２９８巷１８號","OBJECTID":310909},"geometry":{"x":177567.27000000048,"y":2542731.6600000039}},{"attributes":{"ID":310918,"DIS_CODE":0,"TOWNNAME":"佳里區","LI":"建南里","LIN":"1鄰","STREET":"中山路","SECT":" ","MAREA":" ","LANE":" ","ALLEY":" ","HOUSE_NO":"２８９號","E_COORD97":165684.85000000001,"N_COORD97":2562370.1699999999,"ADDRESS":"中山路２８９號","OBJECTID":310910},"geometry":{"x":165684.85000000056,"y":2562370.1699999999}},{"attributes":{"ID":310919,"DIS_CODE":0,"TOWNNAME":"佳里區","LI":"禮化里","LIN":"13鄰","STREET":" ","SECT":" ","MAREA":"佳里興","LANE":" ","ALLEY":" ","HOUSE_NO":"３５７號之２","E_COORD97":166663.67000000001,"N_COORD97":2565647.1800000002,"ADDRESS":"佳里興３５７號之２","OBJECTID":310911},"geometry":{"x":166663.66999999993,"y":2565647.1800000016}},{"attributes":{"ID":310920,"DIS_CODE":0,"TOWNNAME":"佳里區","LI":"禮化里","LIN":"13鄰","STREET":" ","SECT":" ","MAREA":"佳里興","LANE":" ","ALLEY":" ","HOUSE_NO":"３５７號","E_COORD97":166674.07999999999,"N_COORD97":2565649.6000000001,"ADDRESS":"佳里興３５７號","OBJECTID":310912},"geometry":{"x":166674.08000000101,"y":2565649.5999999996}},{"attributes":{"ID":310921,"DIS_CODE":0,"TOWNNAME":"佳里區","LI":"禮化里","LIN":"13鄰","STREET":" ","SECT":" ","MAREA":"佳里興","LANE":" ","ALLEY":" ","HOUSE_NO":"３５８號","E_COORD97":166684.45000000001,"N_COORD97":2565634.9399999999,"ADDRESS":"佳里興３５８號","OBJECTID":310913},"geometry":{"x":166684.45000000019,"y":2565634.9400000013}},{"attributes":{"ID":310922,"DIS_CODE":0,"TOWNNAME":"佳里區","LI":"禮化里","LIN":"13鄰","STREET":" ","SECT":" ","MAREA":"佳里興","LANE":" ","ALLEY":" ","HOUSE_NO":"３５９號","E_COORD97":166647.81,"N_COORD97":2565651.7999999998,"ADDRESS":"佳里興３５９號","OBJECTID":310914},"geometry":{"x":166647.81000000145,"y":2565651.8000000026}},{"attributes":{"ID":310923,"DIS_CODE":0,"TOWNNAME":"佳里區","LI":"禮化里","LIN":"3鄰","STREET":" ","SECT":" ","MAREA":"佳里興","LANE":" ","ALLEY":" ","HOUSE_NO":"２６０號之１８","E_COORD97":167076.85999999999,"N_COORD97":2565912.5299999998,"ADDRESS":"佳里興２６０號之１８","OBJECTID":310915},"geometry":{"x":167076.86000000034,"y":2565912.5300000012}},{"attributes":{"ID":310924,"DIS_CODE":0,"TOWNNAME":"佳里區","LI":"興化里","LIN":"6鄰","STREET":" ","SECT":" ","MAREA":"佳里興","LANE":" ","ALLEY":" ","HOUSE_NO":"４３５號之１","E_COORD97":166813.14000000001,"N_COORD97":2565522.2400000002,"ADDRESS":"佳里興４３５號之１","OBJECTID":310916},"geometry":{"x":166813.13999999966,"y":2565522.2400000021}},{"attributes":{"ID":310925,"DIS_CODE":0,"TOWNNAME":"佳里區","LI":"忠仁里","LIN":"14鄰","STREET":"佳東路","SECT":" ","MAREA":" ","LANE":"２３７巷","ALLEY":" ","HOUSE_NO":"１０號","E_COORD97":166342.13,"N_COORD97":2562001.8599999999,"ADDRESS":"佳東路２３７巷１０號","OBJECTID":310917},"geometry":{"x":166342.12999999989,"y":2562001.8600000013}},{"attributes":{"ID":310926,"DIS_CODE":0,"TOWNNAME":"佳里區","LI":"東寧里","LIN":"19鄰","STREET":"佳東路","SECT":" ","MAREA":" ","LANE":"３２７巷","ALLEY":" ","HOUSE_NO":"２號","E_COORD97":166302.17000000001,"N_COORD97":2562355.2400000002,"ADDRESS":"佳東路３２７巷２號","OBJECTID":310918},"geometry":{"x":166302.17000000086,"y":2562355.2400000021}},{"attributes":{"ID":310927,"DIS_CODE":0,"TOWNNAME":"佳里區","LI":"東寧里","LIN":"19鄰","STREET":"佳東路","SECT":" ","MAREA":" ","LANE":"３２７巷","ALLEY":" ","HOUSE_NO":"６號","E_COORD97":166296.94,"N_COORD97":2562355.4700000002,"ADDRESS":"佳東路３２７巷６號","OBJECTID":310919},"geometry":{"x":166296.94000000227,"y":2562355.4700000007}},{"attributes":{"ID":310928,"DIS_CODE":0,"TOWNNAME":"佳里區","LI":"東寧里","LIN":"19鄰","STREET":"佳東路","SECT":" ","MAREA":" ","LANE":"３２７巷","ALLEY":" ","HOUSE_NO":"８號","E_COORD97":166291.53,"N_COORD97":2562355.6600000001,"ADDRESS":"佳東路３２７巷８號","OBJECTID":310920},"geometry":{"x":166291.53000000119,"y":2562355.660000002}},{"attributes":{"ID":310929,"DIS_CODE":0,"TOWNNAME":"佳里區","LI":"東寧里","LIN":"20鄰","STREET":"佳東路","SECT":" ","MAREA":" ","LANE":"３９３巷","ALLEY":" ","HOUSE_NO":"２６號","E_COORD97":166217.95000000001,"N_COORD97":2562555.7599999998,"ADDRESS":"佳東路３９３巷２６號","OBJECTID":310921},"geometry":{"x":166217.95000000019,"y":2562555.7599999998}},{"attributes":{"ID":310930,"DIS_CODE":0,"TOWNNAME":"佳里區","LI":"東寧里","LIN":"20鄰","STREET":"佳東路","SECT":" ","MAREA":" ","LANE":"３９３巷","ALLEY":" ","HOUSE_NO":"２８號","E_COORD97":166216.39999999999,"N_COORD97":2562526.7200000002,"ADDRESS":"佳東路３９３巷２８號","OBJECTID":310922},"geometry":{"x":166216.4000000013,"y":2562526.7200000007}},{"attributes":{"ID":310931,"DIS_CODE":0,"TOWNNAME":"佳里區","LI":"興化里","LIN":"7鄰","STREET":" ","SECT":" ","MAREA":"佳里興","LANE":" ","ALLEY":" ","HOUSE_NO":"４４３號","E_COORD97":166929.44,"N_COORD97":2565545.5099999998,"ADDRESS":"佳里興４４３號","OBJECTID":310923},"geometry":{"x":166929.44000000134,"y":2565545.5099999998}},{"attributes":{"ID":310932,"DIS_CODE":0,"TOWNNAME":"東區","LI":"東光里","LIN":"17鄰","STREET":"東興路","SECT":" ","MAREA":" ","LANE":" ","ALLEY":" ","HOUSE_NO":"１９５號五樓之６","E_COORD97":170998.14000000001,"N_COORD97":2543847.6800000002,"ADDRESS":"東興路１９５號五樓之６","OBJECTID":310924},"geometry":{"x":170998.13999999966,"y":2543847.6800000016}},{"attributes":{"ID":310933,"DIS_CODE":0,"TOWNNAME":"東區","LI":"東光里","LIN":"17鄰","STREET":"東興路","SECT":" ","MAREA":" ","LANE":" ","ALLEY":" ","HOUSE_NO":"１９５號五樓之７","E_COORD97":170998.14000000001,"N_COORD97":2543847.6800000002,"ADDRESS":"東興路１９５號五樓之７","OBJECTID":310925},"geometry":{"x":170998.13999999966,"y":2543847.6800000016}},{"attributes":{"ID":310934,"DIS_CODE":0,"TOWNNAME":"東區","LI":"東光里","LIN":"17鄰","STREET":"東興路","SECT":" ","MAREA":" ","LANE":" ","ALLEY":" ","HOUSE_NO":"１９５號五樓之８","E_COORD97":170998.14000000001,"N_COORD97":2543847.6800000002,"ADDRESS":"東興路１９５號五樓之８","OBJECTID":310926},"geometry":{"x":170998.13999999966,"y":2543847.6800000016}},{"attributes":{"ID":310935,"DIS_CODE":0,"TOWNNAME":"東區","LI":"東光里","LIN":"17鄰","STREET":"東興路","SECT":" ","MAREA":" ","LANE":" ","ALLEY":" ","HOUSE_NO":"１９５號五樓之９","E_COORD97":170998.14000000001,"N_COORD97":2543847.6800000002,"ADDRESS":"東興路１９５號五樓之９","OBJECTID":310927},"geometry":{"x":170998.13999999966,"y":2543847.6800000016}},{"attributes":{"ID":310936,"DIS_CODE":0,"TOWNNAME":"東區","LI":"東光里","LIN":"17鄰","STREET":"東興路","SECT":" ","MAREA":" ","LANE":" ","ALLEY":" ","HOUSE_NO":"１９５號六樓之１","E_COORD97":170998.14000000001,"N_COORD97":2543847.6800000002,"ADDRESS":"東興路１９５號六樓之１","OBJECTID":310928},"geometry":{"x":170998.13999999966,"y":2543847.6800000016}},{"attributes":{"ID":310937,"DIS_CODE":0,"TOWNNAME":"南區","LI":"永寧里","LIN":"7鄰","STREET":"灣裡路","SECT":" ","MAREA":" ","LANE":"８８巷","ALLEY":" ","HOUSE_NO":"１０８號","E_COORD97":165859.41,"N_COORD97":2536629.9300000002,"ADDRESS":"灣裡路８８巷１０８號","OBJECTID":310929},"geometry":{"x":165859.41000000201,"y":2536629.9300000034}},{"attributes":{"ID":310938,"DIS_CODE":0,"TOWNNAME":"南區","LI":"永寧里","LIN":"7鄰","STREET":"灣裡路","SECT":" ","MAREA":" ","LANE":"８８巷","ALLEY":" ","HOUSE_NO":"９０號","E_COORD97":165834.5,"N_COORD97":2536663.1699999999,"ADDRESS":"灣裡路８８巷９０號","OBJECTID":310930},"geometry":{"x":165834.5,"y":2536663.1700000018}},{"attributes":{"ID":310939,"DIS_CODE":0,"TOWNNAME":"南區","LI":"永寧里","LIN":"7鄰","STREET":"灣裡路","SECT":" ","MAREA":" ","LANE":"８８巷","ALLEY":" ","HOUSE_NO":"９２號","E_COORD97":165823.72,"N_COORD97":2536659.5800000001,"ADDRESS":"灣裡路８８巷９２號","OBJECTID":310931},"geometry":{"x":165823.72000000067,"y":2536659.5800000001}},{"attributes":{"ID":310940,"DIS_CODE":0,"TOWNNAME":"南區","LI":"永寧里","LIN":"7鄰","STREET":"灣裡路","SECT":" ","MAREA":" ","LANE":"８８巷","ALLEY":" ","HOUSE_NO":"９４號","E_COORD97":165821.84,"N_COORD97":2536644.6200000001,"ADDRESS":"灣裡路８８巷９４號","OBJECTID":310932},"geometry":{"x":165821.83999999985,"y":2536644.6200000029}},{"attributes":{"ID":310941,"DIS_CODE":0,"TOWNNAME":"南區","LI":"明德里","LIN":"7鄰","STREET":"大成路","SECT":"一段","MAREA":" ","LANE":"１９３巷","ALLEY":" ","HOUSE_NO":"２０３之２號","E_COORD97":167972.60000000001,"N_COORD97":2541573.8300000001,"ADDRESS":"大成路一段１９３巷２０３之２號","OBJECTID":310933},"geometry":{"x":167972.59999999963,"y":2541573.8300000001}},{"attributes":{"ID":310942,"DIS_CODE":0,"TOWNNAME":"南區","LI":"明德里","LIN":"7鄰","STREET":"大成路","SECT":"一段","MAREA":" ","LANE":"１９３巷","ALLEY":" ","HOUSE_NO":"２０３之３號","E_COORD97":167973.31,"N_COORD97":2541565.7599999998,"ADDRESS":"大成路一段１９３巷２０３之３號","OBJECTID":310934},"geometry":{"x":167973.30999999866,"y":2541565.7600000016}},{"attributes":{"ID":310943,"DIS_CODE":0,"TOWNNAME":"南區","LI":"大忠里","LIN":"7鄰","STREET":"大同路","SECT":"二段","MAREA":" ","LANE":"４８２巷","ALLEY":" ","HOUSE_NO":"４７號","E_COORD97":169324.14999999999,"N_COORD97":2541436.1000000001,"ADDRESS":"大同路二段４８２巷４７號","OBJECTID":310935},"geometry":{"x":169324.15000000037,"y":2541436.0999999978}},{"attributes":{"ID":310944,"DIS_CODE":0,"TOWNNAME":"南區","LI":"大忠里","LIN":"7鄰","STREET":"大同路","SECT":"二段","MAREA":" ","LANE":"４８２巷","ALLEY":" ","HOUSE_NO":"４９號","E_COORD97":169318.62,"N_COORD97":2541434.8399999999,"ADDRESS":"大同路二段４８２巷４９號","OBJECTID":310936},"geometry":{"x":169318.62000000104,"y":2541434.8400000036}},{"attributes":{"ID":310945,"DIS_CODE":0,"TOWNNAME":"南區","LI":"大林里","LIN":"7鄰","STREET":"大同路","SECT":"二段","MAREA":" ","LANE":"４８２巷","ALLEY":" ","HOUSE_NO":"９０號","E_COORD97":169231.54999999999,"N_COORD97":2541517.7799999998,"ADDRESS":"大同路二段４８２巷９０號","OBJECTID":310937},"geometry":{"x":169231.55000000168,"y":2541517.7800000012}},{"attributes":{"ID":310946,"DIS_CODE":0,"TOWNNAME":"南區","LI":"大林里","LIN":"7鄰","STREET":"大同路","SECT":"二段","MAREA":" ","LANE":"４８２巷","ALLEY":" ","HOUSE_NO":"９２號","E_COORD97":169220.69,"N_COORD97":2541518.8100000001,"ADDRESS":"大同路二段４８２巷９２號","OBJECTID":310938},"geometry":{"x":169220.69000000041,"y":2541518.8100000024}},{"attributes":{"ID":310947,"DIS_CODE":0,"TOWNNAME":"南區","LI":"大林里","LIN":"7鄰","STREET":"大同路","SECT":"二段","MAREA":" ","LANE":"４８２巷","ALLEY":" ","HOUSE_NO":"９８號","E_COORD97":169200.70999999999,"N_COORD97":2541523.2999999998,"ADDRESS":"大同路二段４８２巷９８號","OBJECTID":310939},"geometry":{"x":169200.71000000089,"y":2541523.3000000007}},{"attributes":{"ID":310948,"DIS_CODE":0,"TOWNNAME":"南區","LI":"大林里","LIN":"7鄰","STREET":"大同路","SECT":"二段","MAREA":" ","LANE":"４８２巷","ALLEY":" ","HOUSE_NO":"１０６號","E_COORD97":169194.10000000001,"N_COORD97":2541525.02,"ADDRESS":"大同路二段４８２巷１０６號","OBJECTID":310940},"geometry":{"x":169194.10000000056,"y":2541525.0200000033}},{"attributes":{"ID":310949,"DIS_CODE":0,"TOWNNAME":"南區","LI":"大林里","LIN":"7鄰","STREET":"大同路","SECT":"二段","MAREA":" ","LANE":"４８２巷","ALLEY":" ","HOUSE_NO":"１０８號","E_COORD97":169190.39000000001,"N_COORD97":2541530.96,"ADDRESS":"大同路二段４８２巷１０８號","OBJECTID":310941},"geometry":{"x":169190.3900000006,"y":2541530.9600000028}},{"attributes":{"ID":310950,"DIS_CODE":0,"TOWNNAME":"楠西區","LI":"楠西里","LIN":"7鄰","STREET":"中興路","SECT":" ","MAREA":" ","LANE":"７４巷","ALLEY":" ","HOUSE_NO":"１號","E_COORD97":197290.91,"N_COORD97":2564317.25,"ADDRESS":"中興路７４巷１號","OBJECTID":310942},"geometry":{"x":197290.91000000015,"y":2564317.2500000037}},{"attributes":{"ID":310951,"DIS_CODE":0,"TOWNNAME":"楠西區","LI":"東勢里","LIN":"7鄰","STREET":"東勢路","SECT":" ","MAREA":" ","LANE":"７７巷","ALLEY":" ","HOUSE_NO":"９號","E_COORD97":197563.62,"N_COORD97":2564005.29,"ADDRESS":"東勢路７７巷９號","OBJECTID":310943},"geometry":{"x":197563.62000000104,"y":2564005.290000001}},{"attributes":{"ID":310952,"DIS_CODE":0,"TOWNNAME":"楠西區","LI":"東勢里","LIN":"7鄰","STREET":"東勢路","SECT":" ","MAREA":" ","LANE":"７７巷","ALLEY":" ","HOUSE_NO":"７號","E_COORD97":197559.62,"N_COORD97":2564004.29,"ADDRESS":"東勢路７７巷７號","OBJECTID":310944},"geometry":{"x":197559.61999999918,"y":2564004.2900000028}},{"attributes":{"ID":310953,"DIS_CODE":0,"TOWNNAME":"楠西區","LI":"東勢里","LIN":"7鄰","STREET":"東勢路","SECT":" ","MAREA":" ","LANE":"３９巷","ALLEY":" ","HOUSE_NO":"２０號","E_COORD97":197610.76999999999,"N_COORD97":2564001.29,"ADDRESS":"東勢路３９巷２０號","OBJECTID":310945},"geometry":{"x":197610.77000000142,"y":2564001.290000001}},{"attributes":{"ID":310954,"DIS_CODE":0,"TOWNNAME":"楠西區","LI":"東勢里","LIN":"7鄰","STREET":"仁愛路","SECT":" ","MAREA":" ","LANE":"１４２巷","ALLEY":" ","HOUSE_NO":"７號","E_COORD97":197520.89000000001,"N_COORD97":2564021.2799999998,"ADDRESS":"仁愛路１４２巷７號","OBJECTID":310946},"geometry":{"x":197520.8900000006,"y":2564021.2799999975}},{"attributes":{"ID":310955,"DIS_CODE":0,"TOWNNAME":"楠西區","LI":"東勢里","LIN":"7鄰","STREET":"信義路","SECT":" ","MAREA":" ","LANE":"２０７巷","ALLEY":" ","HOUSE_NO":"７２號","E_COORD97":197525.62,"N_COORD97":2563946.27,"ADDRESS":"信義路２０７巷７２號","OBJECTID":310947},"geometry":{"x":197525.62000000011,"y":2563946.2699999996}},{"attributes":{"ID":310956,"DIS_CODE":0,"TOWNNAME":"楠西區","LI":"楠西里","LIN":"7鄰","STREET":"民族路","SECT":" ","MAREA":" ","LANE":"２５５巷","ALLEY":" ","HOUSE_NO":"１７號","E_COORD97":197306.23999999999,"N_COORD97":2564350.29,"ADDRESS":"民族路２５５巷１７號","OBJECTID":310948},"geometry":{"x":197306.24000000022,"y":2564350.2900000028}},{"attributes":{"ID":310957,"DIS_CODE":0,"TOWNNAME":"楠西區","LI":"楠西里","LIN":"7鄰","STREET":"民族路","SECT":" ","MAREA":" ","LANE":"２５５巷","ALLEY":" ","HOUSE_NO":"２１號","E_COORD97":197305.34,"N_COORD97":2564342.29,"ADDRESS":"民族路２５５巷２１號","OBJECTID":310949},"geometry":{"x":197305.34000000171,"y":2564342.2899999991}},{"attributes":{"ID":310958,"DIS_CODE":0,"TOWNNAME":"楠西區","LI":"東勢里","LIN":"7鄰","STREET":"仁愛路","SECT":" ","MAREA":" ","LANE":"１４２巷","ALLEY":" ","HOUSE_NO":"１２號","E_COORD97":197531.04000000001,"N_COORD97":2563985.2799999998,"ADDRESS":"仁愛路１４２巷１２號","OBJECTID":310950},"geometry":{"x":197531.04000000004,"y":2563985.2800000012}},{"attributes":{"ID":310959,"DIS_CODE":0,"TOWNNAME":"楠西區","LI":"楠西里","LIN":"7鄰","STREET":"民族路","SECT":" ","MAREA":" ","LANE":"２５２巷","ALLEY":" ","HOUSE_NO":"６號","E_COORD97":197280.09,"N_COORD97":2564441.29,"ADDRESS":"民族路２５２巷６號","OBJECTID":310951},"geometry":{"x":197280.09000000078,"y":2564441.2899999991}},{"attributes":{"ID":310960,"DIS_CODE":0,"TOWNNAME":"楠西區","LI":"東勢里","LIN":"7鄰","STREET":"東勢路","SECT":" ","MAREA":" ","LANE":"７７巷","ALLEY":" ","HOUSE_NO":"１６號","E_COORD97":197537.97,"N_COORD97":2564030.29,"ADDRESS":"東勢路７７巷１６號","OBJECTID":310952},"geometry":{"x":197537.96999999974,"y":2564030.2899999991}},{"attributes":{"ID":310961,"DIS_CODE":0,"TOWNNAME":"楠西區","LI":"東勢里","LIN":"7鄰","STREET":"信義路","SECT":" ","MAREA":" ","LANE":"２０７巷","ALLEY":" ","HOUSE_NO":"７０號","E_COORD97":197531.42000000001,"N_COORD97":2563947.27,"ADDRESS":"信義路２０７巷７０號","OBJECTID":310953},"geometry":{"x":197531.41999999993,"y":2563947.2700000033}},{"attributes":{"ID":310962,"DIS_CODE":0,"TOWNNAME":"楠西區","LI":"東勢里","LIN":"7鄰","STREET":"仁愛路","SECT":" ","MAREA":" ","LANE":"１４２巷","ALLEY":" ","HOUSE_NO":"１８號","E_COORD97":197539.64000000001,"N_COORD97":2563985.2799999998,"ADDRESS":"仁愛路１４２巷１８號","OBJECTID":310954},"geometry":{"x":197539.63999999966,"y":2563985.2800000012}},{"attributes":{"ID":310963,"DIS_CODE":0,"TOWNNAME":"楠西區","LI":"楠西里","LIN":"7鄰","STREET":"民族路","SECT":" ","MAREA":" ","LANE":"２５５巷","ALLEY":" ","HOUSE_NO":"９號","E_COORD97":197305.89000000001,"N_COORD97":2564367.29,"ADDRESS":"民族路２５５巷９號","OBJECTID":310955},"geometry":{"x":197305.88999999966,"y":2564367.290000001}},{"attributes":{"ID":310964,"DIS_CODE":0,"TOWNNAME":"楠西區","LI":"楠西里","LIN":"7鄰","STREET":"民族路","SECT":" ","MAREA":" ","LANE":"２５２巷","ALLEY":" ","HOUSE_NO":"４號","E_COORD97":197281.59,"N_COORD97":2564437.29,"ADDRESS":"民族路２５２巷４號","OBJECTID":310956},"geometry":{"x":197281.59000000171,"y":2564437.2899999991}},{"attributes":{"ID":310965,"DIS_CODE":0,"TOWNNAME":"楠西區","LI":"楠西里","LIN":"7鄰","STREET":"民族路","SECT":" ","MAREA":" ","LANE":"２５５巷","ALLEY":" ","HOUSE_NO":"５號","E_COORD97":197306.89000000001,"N_COORD97":2564377.29,"ADDRESS":"民族路２５５巷５號","OBJECTID":310957},"geometry":{"x":197306.8900000006,"y":2564377.2900000028}},{"attributes":{"ID":310966,"DIS_CODE":0,"TOWNNAME":"楠西區","LI":"東勢里","LIN":"7鄰","STREET":"東勢路","SECT":" ","MAREA":" ","LANE":"７７巷","ALLEY":" ","HOUSE_NO":"１１號","E_COORD97":197568.97,"N_COORD97":2564005.29,"ADDRESS":"東勢路７７巷１１號","OBJECTID":310958},"geometry":{"x":197568.97000000067,"y":2564005.290000001}},{"attributes":{"ID":310967,"DIS_CODE":0,"TOWNNAME":"楠西區","LI":"東勢里","LIN":"7鄰","STREET":"信義路","SECT":" ","MAREA":" ","LANE":"２０７巷","ALLEY":" ","HOUSE_NO":"５８號","E_COORD97":197555.42000000001,"N_COORD97":2563943.27,"ADDRESS":"信義路２０７巷５８號","OBJECTID":310959},"geometry":{"x":197555.41999999993,"y":2563943.2699999996}},{"attributes":{"ID":310968,"DIS_CODE":0,"TOWNNAME":"楠西區","LI":"東勢里","LIN":"7鄰","STREET":"信義路","SECT":" ","MAREA":" ","LANE":"２０７巷","ALLEY":" ","HOUSE_NO":"６８號","E_COORD97":197535.62,"N_COORD97":2563946.27,"ADDRESS":"信義路２０７巷６８號","OBJECTID":310960},"geometry":{"x":197535.62000000011,"y":2563946.2699999996}},{"attributes":{"ID":310969,"DIS_CODE":0,"TOWNNAME":"楠西區","LI":"楠西里","LIN":"7鄰","STREET":"民族路","SECT":" ","MAREA":" ","LANE":"２５５巷","ALLEY":" ","HOUSE_NO":"１９號","E_COORD97":197306.64000000001,"N_COORD97":2564346.29,"ADDRESS":"民族路２５５巷１９號","OBJECTID":310961},"geometry":{"x":197306.64000000153,"y":2564346.2899999991}},{"attributes":{"ID":310970,"DIS_CODE":0,"TOWNNAME":"楠西區","LI":"東勢里","LIN":"7鄰","STREET":"信義路","SECT":" ","MAREA":" ","LANE":"２０７巷","ALLEY":" ","HOUSE_NO":"６６號","E_COORD97":197541.01999999999,"N_COORD97":2563946.27,"ADDRESS":"信義路２０７巷６６號","OBJECTID":310962},"geometry":{"x":197541.01999999955,"y":2563946.2699999996}},{"attributes":{"ID":310971,"DIS_CODE":0,"TOWNNAME":"楠西區","LI":"東勢里","LIN":"7鄰","STREET":"東勢路","SECT":" ","MAREA":" ","LANE":"３９巷","ALLEY":" ","HOUSE_NO":"１８號","E_COORD97":197612.17000000001,"N_COORD97":2564007.29,"ADDRESS":"東勢路３９巷１８號","OBJECTID":310963},"geometry":{"x":197612.17000000086,"y":2564007.2899999991}},{"attributes":{"ID":310972,"DIS_CODE":0,"TOWNNAME":"楠西區","LI":"楠西里","LIN":"7鄰","STREET":"民族路","SECT":" ","MAREA":" ","LANE":"２５５巷","ALLEY":" ","HOUSE_NO":"１３號","E_COORD97":197306.23999999999,"N_COORD97":2564358.29,"ADDRESS":"民族路２５５巷１３號","OBJECTID":310964},"geometry":{"x":197306.24000000022,"y":2564358.290000001}},{"attributes":{"ID":310973,"DIS_CODE":0,"TOWNNAME":"楠西區","LI":"東勢里","LIN":"7鄰","STREET":"東勢路","SECT":" ","MAREA":" ","LANE":"７７巷","ALLEY":" ","HOUSE_NO":"３號","E_COORD97":197550.42000000001,"N_COORD97":2564003.29,"ADDRESS":"東勢路７７巷３號","OBJECTID":310965},"geometry":{"x":197550.41999999993,"y":2564003.2899999991}},{"attributes":{"ID":310974,"DIS_CODE":0,"TOWNNAME":"楠西區","LI":"楠西里","LIN":"7鄰","STREET":"中興路","SECT":" ","MAREA":" ","LANE":"７４巷","ALLEY":" ","HOUSE_NO":"５號","E_COORD97":197274.41,"N_COORD97":2564328.25,"ADDRESS":"中興路７４巷５號","OBJECTID":310966},"geometry":{"x":197274.41000000015,"y":2564328.2500000019}},{"attributes":{"ID":310975,"DIS_CODE":0,"TOWNNAME":"楠西區","LI":"東勢里","LIN":"7鄰","STREET":"信義路","SECT":" ","MAREA":" ","LANE":"２０７巷","ALLEY":" ","HOUSE_NO":"４２號","E_COORD97":197570.72,"N_COORD97":2563976.27,"ADDRESS":"信義路２０７巷４２號","OBJECTID":310967},"geometry":{"x":197570.72000000067,"y":2563976.2699999996}},{"attributes":{"ID":310976,"DIS_CODE":0,"TOWNNAME":"楠西區","LI":"東勢里","LIN":"7鄰","STREET":"信義路","SECT":" ","MAREA":" ","LANE":"２０７巷","ALLEY":" ","HOUSE_NO":"３６號","E_COORD97":197603.22,"N_COORD97":2563941.27,"ADDRESS":"信義路２０７巷３６號","OBJECTID":310968},"geometry":{"x":197603.22000000067,"y":2563941.2700000014}},{"attributes":{"ID":310977,"DIS_CODE":0,"TOWNNAME":"楠西區","LI":"東勢里","LIN":"7鄰","STREET":"東勢路","SECT":" ","MAREA":" ","LANE":"７７巷","ALLEY":" ","HOUSE_NO":"５號","E_COORD97":197555.62,"N_COORD97":2564004.29,"ADDRESS":"東勢路７７巷５號","OBJECTID":310969},"geometry":{"x":197555.62000000011,"y":2564004.2900000028}},{"attributes":{"ID":310978,"DIS_CODE":0,"TOWNNAME":"楠西區","LI":"東勢里","LIN":"7鄰","STREET":"東勢路","SECT":" ","MAREA":" ","LANE":"３９巷","ALLEY":" ","HOUSE_NO":"３６號","E_COORD97":197592.57000000001,"N_COORD97":2563987.29,"ADDRESS":"東勢路３９巷３６號","OBJECTID":310970},"geometry":{"x":197592.57000000216,"y":2563987.2900000028}},{"attributes":{"ID":310979,"DIS_CODE":0,"TOWNNAME":"安平區","LI":"育平里","LIN":"35鄰","STREET":"平豐路","SECT":" ","MAREA":" ","LANE":"２３６巷","ALLEY":" ","HOUSE_NO":"２４號","E_COORD97":164409.04000000001,"N_COORD97":2543421.4500000002,"ADDRESS":"平豐路２３６巷２４號","OBJECTID":310971},"geometry":{"x":164409.0400000019,"y":2543421.4500000011}},{"attributes":{"ID":310980,"DIS_CODE":0,"TOWNNAME":"安平區","LI":"育平里","LIN":"35鄰","STREET":"平豐路","SECT":" ","MAREA":" ","LANE":"２３６巷","ALLEY":" ","HOUSE_NO":"２號","E_COORD97":164334.45000000001,"N_COORD97":2543429.5699999998,"ADDRESS":"平豐路２３６巷２號","OBJECTID":310972},"geometry":{"x":164334.45000000019,"y":2543429.5700000003}},{"attributes":{"ID":310981,"DIS_CODE":0,"TOWNNAME":"安平區","LI":"育平里","LIN":"35鄰","STREET":"郡平路","SECT":" ","MAREA":" ","LANE":"２７４巷","ALLEY":" ","HOUSE_NO":"１３號","E_COORD97":164413.37,"N_COORD97":2543406.3300000001,"ADDRESS":"郡平路２７４巷１３號","OBJECTID":310973},"geometry":{"x":164413.37000000011,"y":2543406.3300000019}},{"attributes":{"ID":310982,"DIS_CODE":0,"TOWNNAME":"安平區","LI":"育平里","LIN":"35鄰","STREET":"郡平路","SECT":" ","MAREA":" ","LANE":"２７４巷","ALLEY":" ","HOUSE_NO":"１５號","E_COORD97":164413.98000000001,"N_COORD97":2543411.27,"ADDRESS":"郡平路２７４巷１５號","OBJECTID":310974},"geometry":{"x":164413.98000000138,"y":2543411.2699999996}},{"attributes":{"ID":310983,"DIS_CODE":0,"TOWNNAME":"安平區","LI":"育平里","LIN":"35鄰","STREET":"郡平路","SECT":" ","MAREA":" ","LANE":"２７４巷","ALLEY":" ","HOUSE_NO":"１７號","E_COORD97":164414.76000000001,"N_COORD97":2543416.8199999998,"ADDRESS":"郡平路２７４巷１７號","OBJECTID":310975},"geometry":{"x":164414.76000000071,"y":2543416.8200000022}},{"attributes":{"ID":310984,"DIS_CODE":0,"TOWNNAME":"南區","LI":"大恩里","LIN":"7鄰","STREET":"大同路","SECT":"二段","MAREA":" ","LANE":"７０４巷","ALLEY":" ","HOUSE_NO":"４８號","E_COORD97":169394.56,"N_COORD97":2540845.71,"ADDRESS":"大同路二段７０４巷４８號","OBJECTID":310976},"geometry":{"x":169394.56000000052,"y":2540845.7100000009}},{"attributes":{"ID":310985,"DIS_CODE":0,"TOWNNAME":"南區","LI":"大恩里","LIN":"7鄰","STREET":"大同路","SECT":"二段","MAREA":" ","LANE":"７０４巷","ALLEY":" ","HOUSE_NO":"５０號","E_COORD97":169391.23000000001,"N_COORD97":2540845.71,"ADDRESS":"大同路二段７０４巷５０號","OBJECTID":310977},"geometry":{"x":169391.23000000045,"y":2540845.7100000009}},{"attributes":{"ID":310986,"DIS_CODE":0,"TOWNNAME":"南區","LI":"大恩里","LIN":"7鄰","STREET":"大同路","SECT":"二段","MAREA":" ","LANE":"７０４巷","ALLEY":" ","HOUSE_NO":"５２號","E_COORD97":169386.92999999999,"N_COORD97":2540845.6000000001,"ADDRESS":"大同路二段７０４巷５２號","OBJECTID":310978},"geometry":{"x":169386.93000000063,"y":2540845.5999999996}},{"attributes":{"ID":310987,"DIS_CODE":0,"TOWNNAME":"南區","LI":"大恩里","LIN":"7鄰","STREET":"大同路","SECT":"二段","MAREA":" ","LANE":"７０４巷","ALLEY":" ","HOUSE_NO":"５４號","E_COORD97":169382.20999999999,"N_COORD97":2540845.5,"ADDRESS":"大同路二段７０４巷５４號","OBJECTID":310979},"geometry":{"x":169382.21000000089,"y":2540845.5000000019}},{"attributes":{"ID":310988,"DIS_CODE":0,"TOWNNAME":"北區","LI":"國姓里","LIN":"7鄰","STREET":"小北路","SECT":" ","MAREA":" ","LANE":"２７巷","ALLEY":" ","HOUSE_NO":"３號","E_COORD97":168748.98999999999,"N_COORD97":2545262.8999999999,"ADDRESS":"小北路２７巷３號","OBJECTID":310980},"geometry":{"x":168748.99000000022,"y":2545262.9000000041}},{"attributes":{"ID":310989,"DIS_CODE":0,"TOWNNAME":"南區","LI":"大恩里","LIN":"7鄰","STREET":"大同路","SECT":"二段","MAREA":" ","LANE":"７０４巷","ALLEY":" ","HOUSE_NO":"５６號","E_COORD97":169377.91,"N_COORD97":2540845.2799999998,"ADDRESS":"大同路二段７０４巷５６號","OBJECTID":310981},"geometry":{"x":169377.91000000015,"y":2540845.2800000012}},{"attributes":{"ID":310990,"DIS_CODE":0,"TOWNNAME":"南區","LI":"大恩里","LIN":"7鄰","STREET":"大同路","SECT":"二段","MAREA":" ","LANE":"７０４巷","ALLEY":" ","HOUSE_NO":"５８號","E_COORD97":169374.04999999999,"N_COORD97":2540845.1699999999,"ADDRESS":"大同路二段７０４巷５８號","OBJECTID":310982},"geometry":{"x":169374.05000000168,"y":2540845.1699999999}},{"attributes":{"ID":310991,"DIS_CODE":0,"TOWNNAME":"南區","LI":"大恩里","LIN":"7鄰","STREET":"大同路","SECT":"二段","MAREA":" ","LANE":"７０４巷","ALLEY":" ","HOUSE_NO":"６０號","E_COORD97":169370.07000000001,"N_COORD97":2540845.5,"ADDRESS":"大同路二段７０４巷６０號","OBJECTID":310983},"geometry":{"x":169370.07000000123,"y":2540845.5000000019}},{"attributes":{"ID":310992,"DIS_CODE":0,"TOWNNAME":"南區","LI":"大恩里","LIN":"7鄰","STREET":"大同路","SECT":"二段","MAREA":" ","LANE":"７０４巷","ALLEY":" ","HOUSE_NO":"６２號","E_COORD97":169365.89000000001,"N_COORD97":2540845.3900000001,"ADDRESS":"大同路二段７０４巷６２號","OBJECTID":310984},"geometry":{"x":169365.88999999966,"y":2540845.3900000043}},{"attributes":{"ID":310993,"DIS_CODE":0,"TOWNNAME":"南區","LI":"大恩里","LIN":"7鄰","STREET":"大同路","SECT":"二段","MAREA":" ","LANE":"７０４巷","ALLEY":" ","HOUSE_NO":"６４號","E_COORD97":169361.59,"N_COORD97":2540845.2799999998,"ADDRESS":"大同路二段７０４巷６４號","OBJECTID":310985},"geometry":{"x":169361.58999999985,"y":2540845.2800000012}},{"attributes":{"ID":310994,"DIS_CODE":0,"TOWNNAME":"南區","LI":"大恩里","LIN":"7鄰","STREET":"大同路","SECT":"二段","MAREA":" ","LANE":"７０４巷","ALLEY":" ","HOUSE_NO":"６６號","E_COORD97":169356.87,"N_COORD97":2540845.3900000001,"ADDRESS":"大同路二段７０４巷６６號","OBJECTID":310986},"geometry":{"x":169356.87000000197,"y":2540845.3900000043}},{"attributes":{"ID":310995,"DIS_CODE":0,"TOWNNAME":"南區","LI":"大恩里","LIN":"7鄰","STREET":"大同路","SECT":"二段","MAREA":" ","LANE":"７０４巷","ALLEY":" ","HOUSE_NO":"６８號","E_COORD97":169352.89000000001,"N_COORD97":2540845.0699999998,"ADDRESS":"大同路二段７０４巷６８號","OBJECTID":310987},"geometry":{"x":169352.89000000153,"y":2540845.0700000022}},{"attributes":{"ID":310996,"DIS_CODE":0,"TOWNNAME":"南區","LI":"大恩里","LIN":"7鄰","STREET":"大同路","SECT":"二段","MAREA":" ","LANE":"７０４巷","ALLEY":" ","HOUSE_NO":"７０號","E_COORD97":169348.81,"N_COORD97":2540845.0699999998,"ADDRESS":"大同路二段７０４巷７０號","OBJECTID":310988},"geometry":{"x":169348.81000000052,"y":2540845.0700000022}},{"attributes":{"ID":310997,"DIS_CODE":0,"TOWNNAME":"南區","LI":"大恩里","LIN":"7鄰","STREET":"大同路","SECT":"二段","MAREA":" ","LANE":"７０４巷","ALLEY":" ","HOUSE_NO":"７２號","E_COORD97":169344.84,"N_COORD97":2540845.3900000001,"ADDRESS":"大同路二段７０４巷７２號","OBJECTID":310989},"geometry":{"x":169344.83999999892,"y":2540845.3900000043}},{"attributes":{"ID":310998,"DIS_CODE":0,"TOWNNAME":"南區","LI":"大恩里","LIN":"7鄰","STREET":"大同路","SECT":"二段","MAREA":" ","LANE":"７０４巷","ALLEY":" ","HOUSE_NO":"７４號","E_COORD97":169340.64999999999,"N_COORD97":2540845.2799999998,"ADDRESS":"大同路二段７０４巷７４號","OBJECTID":310990},"geometry":{"x":169340.6500000013,"y":2540845.2800000012}},{"attributes":{"ID":310999,"DIS_CODE":0,"TOWNNAME":"南區","LI":"大恩里","LIN":"7鄰","STREET":"大同路","SECT":"二段","MAREA":" ","LANE":"７０４巷","ALLEY":" ","HOUSE_NO":"７６號","E_COORD97":169336.79000000001,"N_COORD97":2540845.3900000001,"ADDRESS":"大同路二段７０４巷７６號","OBJECTID":310991},"geometry":{"x":169336.79000000004,"y":2540845.3900000043}},{"attributes":{"ID":311000,"DIS_CODE":0,"TOWNNAME":"南區","LI":"大恩里","LIN":"7鄰","STREET":"大同路","SECT":"二段","MAREA":" ","LANE":"７０４巷","ALLEY":" ","HOUSE_NO":"７８號","E_COORD97":169332.63,"N_COORD97":2540845.5,"ADDRESS":"大同路二段７０４巷７８號","OBJECTID":310992},"geometry":{"x":169332.62999999989,"y":2540845.5000000019}},{"attributes":{"ID":311001,"DIS_CODE":0,"TOWNNAME":"南區","LI":"大恩里","LIN":"7鄰","STREET":"大同路","SECT":"二段","MAREA":" ","LANE":"７０４巷","ALLEY":" ","HOUSE_NO":"８０號","E_COORD97":169328.66,"N_COORD97":2540845.71,"ADDRESS":"大同路二段７０４巷８０號","OBJECTID":310993},"geometry":{"x":169328.66000000015,"y":2540845.7100000009}},{"attributes":{"ID":311002,"DIS_CODE":0,"TOWNNAME":"新營區","LI":"忠政里","LIN":"7鄰","STREET":"中正路","SECT":" ","MAREA":" ","LANE":"３７巷","ALLEY":" ","HOUSE_NO":"１７號","E_COORD97":180014.72,"N_COORD97":2579124.1499999999,"ADDRESS":"中正路３７巷１７號","OBJECTID":310994},"geometry":{"x":180014.71999999974,"y":2579124.1500000041}},{"attributes":{"ID":311003,"DIS_CODE":0,"TOWNNAME":"安平區","LI":"金城里","LIN":"7鄰","STREET":"同平路","SECT":" ","MAREA":" ","LANE":"９６巷","ALLEY":" ","HOUSE_NO":"３６號","E_COORD97":163033.04999999999,"N_COORD97":2544227.1099999999,"ADDRESS":"同平路９６巷３６號","OBJECTID":310995},"geometry":{"x":163033.05000000075,"y":2544227.1100000013}},{"attributes":{"ID":311004,"DIS_CODE":0,"TOWNNAME":"安平區","LI":"金城里","LIN":"7鄰","STREET":"同平路","SECT":" ","MAREA":" ","LANE":"９６巷","ALLEY":" ","HOUSE_NO":"３８號","E_COORD97":163024.63,"N_COORD97":2544226.96,"ADDRESS":"同平路９６巷３８號","OBJECTID":310996},"geometry":{"x":163024.62999999989,"y":2544226.9600000028}},{"attributes":{"ID":311005,"DIS_CODE":0,"TOWNNAME":"下營區","LI":"宅內里","LIN":"4鄰","STREET":"友愛街","SECT":" ","MAREA":" ","LANE":"１８７巷","ALLEY":" ","HOUSE_NO":"６３號","E_COORD97":173899.64999999999,"N_COORD97":2570619.2799999998,"ADDRESS":"友愛街１８７巷６３號","OBJECTID":310997},"geometry":{"x":173899.65000000037,"y":2570619.2800000031}},{"attributes":{"ID":311006,"DIS_CODE":0,"TOWNNAME":"下營區","LI":"仁里里","LIN":"13鄰","STREET":"友愛街","SECT":" ","MAREA":" ","LANE":"２７巷","ALLEY":" ","HOUSE_NO":"１號","E_COORD97":174158.14999999999,"N_COORD97":2570366.8399999999,"ADDRESS":"友愛街２７巷１號","OBJECTID":310998},"geometry":{"x":174158.1500000013,"y":2570366.8399999999}},{"attributes":{"ID":311007,"DIS_CODE":0,"TOWNNAME":"安平區","LI":"金城里","LIN":"7鄰","STREET":"同平路","SECT":" ","MAREA":" ","LANE":"９６巷","ALLEY":" ","HOUSE_NO":"４０號","E_COORD97":163018.70999999999,"N_COORD97":2544226.96,"ADDRESS":"同平路９６巷４０號","OBJECTID":310999},"geometry":{"x":163018.70999999996,"y":2544226.9600000028}},{"attributes":{"ID":311008,"DIS_CODE":0,"TOWNNAME":"安平區","LI":"金城里","LIN":"7鄰","STREET":"同平路","SECT":" ","MAREA":" ","LANE":"９６巷","ALLEY":" ","HOUSE_NO":"４２號","E_COORD97":163011.39000000001,"N_COORD97":2544226.0299999998,"ADDRESS":"同平路９６巷４２號","OBJECTID":311000},"geometry":{"x":163011.3900000006,"y":2544226.0299999993}}]}