{"displayFieldName":"TOWNNAME","fieldAliases":{"ID":"ID","DIS_CODE":"DIS_CODE","TOWNNAME":"TOWNNAME","LI":"LI","LIN":"LIN","STREET":"STREET","SECT":"SECT","MAREA":"MAREA","LANE":"LANE","ALLEY":"ALLEY","HOUSE_NO":"HOUSE_NO","E_COORD97":"E_COORD97","N_COORD97":"N_COORD97","ADDRESS":"ADDRESS","OBJECTID":"OBJECTID"},"geometryType":"esriGeometryPoint","spatialReference":{"wkid":102443,"latestWkid":3826},"fields":[{"name":"ID","type":"esriFieldTypeDouble","alias":"ID"},{"name":"DIS_CODE","type":"esriFieldTypeInteger","alias":"DIS_CODE"},{"name":"TOWNNAME","type":"esriFieldTypeString","alias":"TOWNNAME","length":8},{"name":"LI","type":"esriFieldTypeString","alias":"LI","length":8},{"name":"LIN","type":"esriFieldTypeString","alias":"LIN","length":12},{"name":"STREET","type":"esriFieldTypeString","alias":"STREET","length":20},{"name":"SECT","type":"esriFieldTypeString","alias":"SECT","length":8},{"name":"MAREA","type":"esriFieldTypeString","alias":"MAREA","length":12},{"name":"LANE","type":"esriFieldTypeString","alias":"LANE","length":10},{"name":"ALLEY","type":"esriFieldTypeString","alias":"ALLEY","length":10},{"name":"HOUSE_NO","type":"esriFieldTypeString","alias":"HOUSE_NO","length":20},{"name":"E_COORD97","type":"esriFieldTypeDouble","alias":"E_COORD97"},{"name":"N_COORD97","type":"esriFieldTypeDouble","alias":"N_COORD97"},{"name":"ADDRESS","type":"esriFieldTypeString","alias":"ADDRESS","length":50},{"name":"OBJECTID","type":"esriFieldTypeOID","alias":"OBJECTID"}],"features":[{"attributes":{"ID":380611,"DIS_CODE":0,"TOWNNAME":"歸仁區","LI":"南保里","LIN":"9鄰","STREET":"文化十街","SECT":" ","MAREA":" ","LANE":"２８巷","ALLEY":" ","HOUSE_NO":"５５號","E_COORD97":176713.19,"N_COORD97":2541361.3300000001,"ADDRESS":"文化十街２８巷５５號","OBJECTID":380601},"geometry":{"x":176713.19000000041,"y":2541361.3300000019}},{"attributes":{"ID":380612,"DIS_CODE":0,"TOWNNAME":"歸仁區","LI":"武東里","LIN":"9鄰","STREET":"武東三街","SECT":" ","MAREA":" ","LANE":"５３巷","ALLEY":" ","HOUSE_NO":"３４號","E_COORD97":175135.09,"N_COORD97":2535153.25,"ADDRESS":"武東三街５３巷３４號","OBJECTID":380602},"geometry":{"x":175135.08999999985,"y":2535153.2500000037}},{"attributes":{"ID":380613,"DIS_CODE":0,"TOWNNAME":"歸仁區","LI":"大潭里","LIN":"9鄰","STREET":"長榮路","SECT":"一段","MAREA":" ","LANE":"１１０巷","ALLEY":" ","HOUSE_NO":"２３號","E_COORD97":174883.92000000001,"N_COORD97":2534479.2799999998,"ADDRESS":"長榮路一段１１０巷２３號","OBJECTID":380603},"geometry":{"x":174883.91999999993,"y":2534479.2800000012}},{"attributes":{"ID":380614,"DIS_CODE":0,"TOWNNAME":"北區","LI":"公園里","LIN":"9鄰","STREET":"北忠街","SECT":" ","MAREA":" ","LANE":"５８巷","ALLEY":" ","HOUSE_NO":"６２號","E_COORD97":169123.14000000001,"N_COORD97":2544503.8999999999,"ADDRESS":"北忠街５８巷６２號","OBJECTID":380604},"geometry":{"x":169123.1400000006,"y":2544503.9000000022}},{"attributes":{"ID":380615,"DIS_CODE":0,"TOWNNAME":"北區","LI":"公園里","LIN":"9鄰","STREET":"北忠街","SECT":" ","MAREA":" ","LANE":"５８巷","ALLEY":" ","HOUSE_NO":"６４號","E_COORD97":169118.97,"N_COORD97":2544504.6899999999,"ADDRESS":"北忠街５８巷６４號","OBJECTID":380605},"geometry":{"x":169118.97000000067,"y":2544504.6900000013}},{"attributes":{"ID":380616,"DIS_CODE":0,"TOWNNAME":"北區","LI":"公園里","LIN":"9鄰","STREET":"北忠街","SECT":" ","MAREA":" ","LANE":"５８巷","ALLEY":" ","HOUSE_NO":"６６號","E_COORD97":169114.75,"N_COORD97":2544505.8700000001,"ADDRESS":"北忠街５８巷６６號","OBJECTID":380606},"geometry":{"x":169114.75,"y":2544505.8700000029}},{"attributes":{"ID":380617,"DIS_CODE":0,"TOWNNAME":"北區","LI":"正覺里","LIN":"9鄰","STREET":"公園路","SECT":" ","MAREA":" ","LANE":"５９７巷","ALLEY":" ","HOUSE_NO":"１號","E_COORD97":169207.37,"N_COORD97":2546042.8500000001,"ADDRESS":"公園路５９７巷１號","OBJECTID":380607},"geometry":{"x":169207.37000000011,"y":2546042.8500000015}},{"attributes":{"ID":380618,"DIS_CODE":0,"TOWNNAME":"安平區","LI":"平通里","LIN":"9鄰","STREET":"平通路","SECT":" ","MAREA":" ","LANE":"５８０巷","ALLEY":" ","HOUSE_NO":"１０１號","E_COORD97":164953.57999999999,"N_COORD97":2544096.0600000001,"ADDRESS":"平通路５８０巷１０１號","OBJECTID":380608},"geometry":{"x":164953.58000000101,"y":2544096.0600000024}},{"attributes":{"ID":380619,"DIS_CODE":0,"TOWNNAME":"安平區","LI":"平通里","LIN":"9鄰","STREET":"平通路","SECT":" ","MAREA":" ","LANE":"５８０巷","ALLEY":" ","HOUSE_NO":"１０３之１號","E_COORD97":164952.73000000001,"N_COORD97":2544090.77,"ADDRESS":"平通路５８０巷１０３之１號","OBJECTID":380609},"geometry":{"x":164952.73000000138,"y":2544090.7700000014}},{"attributes":{"ID":380620,"DIS_CODE":0,"TOWNNAME":"安平區","LI":"平通里","LIN":"9鄰","STREET":"平通路","SECT":" ","MAREA":" ","LANE":"５８０巷","ALLEY":" ","HOUSE_NO":"１０９號","E_COORD97":164942.39000000001,"N_COORD97":2544105.4199999999,"ADDRESS":"平通路５８０巷１０９號","OBJECTID":380610},"geometry":{"x":164942.3900000006,"y":2544105.4199999999}},{"attributes":{"ID":380621,"DIS_CODE":0,"TOWNNAME":"安平區","LI":"平通里","LIN":"9鄰","STREET":"平通路","SECT":" ","MAREA":" ","LANE":"５８０巷","ALLEY":" ","HOUSE_NO":"１１１號","E_COORD97":164951.04999999999,"N_COORD97":2544075.3399999999,"ADDRESS":"平通路５８０巷１１１號","OBJECTID":380611},"geometry":{"x":164951.04999999981,"y":2544075.3399999999}},{"attributes":{"ID":380622,"DIS_CODE":0,"TOWNNAME":"安平區","LI":"平通里","LIN":"9鄰","STREET":"平通路","SECT":" ","MAREA":" ","LANE":"５８０巷","ALLEY":" ","HOUSE_NO":"９１號","E_COORD97":164956.82999999999,"N_COORD97":2544130.1800000002,"ADDRESS":"平通路５８０巷９１號","OBJECTID":380612},"geometry":{"x":164956.83000000101,"y":2544130.1799999997}},{"attributes":{"ID":380623,"DIS_CODE":0,"TOWNNAME":"安平區","LI":"平通里","LIN":"9鄰","STREET":"平通路","SECT":" ","MAREA":" ","LANE":"５８０巷","ALLEY":" ","HOUSE_NO":"９３號","E_COORD97":164956.35000000001,"N_COORD97":2544125.21,"ADDRESS":"平通路５８０巷９３號","OBJECTID":380613},"geometry":{"x":164956.35000000056,"y":2544125.209999999}},{"attributes":{"ID":380624,"DIS_CODE":0,"TOWNNAME":"安平區","LI":"平通里","LIN":"9鄰","STREET":"平通路","SECT":" ","MAREA":" ","LANE":"５８０巷","ALLEY":" ","HOUSE_NO":"９５號","E_COORD97":164955.14000000001,"N_COORD97":2544119.0800000001,"ADDRESS":"平通路５８０巷９５號","OBJECTID":380614},"geometry":{"x":164955.13999999966,"y":2544119.0800000019}},{"attributes":{"ID":380625,"DIS_CODE":0,"TOWNNAME":"安平區","LI":"平通里","LIN":"9鄰","STREET":"平通路","SECT":" ","MAREA":" ","LANE":"５８０巷","ALLEY":" ","HOUSE_NO":"９７號","E_COORD97":164955.16,"N_COORD97":2544105.5099999998,"ADDRESS":"平通路５８０巷９７號","OBJECTID":380615},"geometry":{"x":164955.16000000015,"y":2544105.5100000035}},{"attributes":{"ID":380626,"DIS_CODE":0,"TOWNNAME":"安平區","LI":"平通里","LIN":"9鄰","STREET":"平通路","SECT":" ","MAREA":" ","LANE":"５８０巷","ALLEY":" ","HOUSE_NO":"９９號","E_COORD97":164954.42000000001,"N_COORD97":2544101.04,"ADDRESS":"平通路５８０巷９９號","OBJECTID":380616},"geometry":{"x":164954.42000000086,"y":2544101.0400000028}},{"attributes":{"ID":380627,"DIS_CODE":0,"TOWNNAME":"安平區","LI":"平通里","LIN":"9鄰","STREET":"平通路","SECT":" ","MAREA":" ","LANE":"５８０巷","ALLEY":" ","HOUSE_NO":"１０５號","E_COORD97":164952.37,"N_COORD97":2544086.6699999999,"ADDRESS":"平通路５８０巷１０５號","OBJECTID":380617},"geometry":{"x":164952.37000000011,"y":2544086.6699999999}},{"attributes":{"ID":380628,"DIS_CODE":0,"TOWNNAME":"新營區","LI":"延平里","LIN":"9鄰","STREET":"復興路","SECT":" ","MAREA":" ","LANE":"２９巷","ALLEY":" ","HOUSE_NO":"１０號","E_COORD97":179689.67123400001,"N_COORD97":2577966.0481599998,"ADDRESS":"復興路２９巷１０號","OBJECTID":380618},"geometry":{"x":179689.67123400234,"y":2577966.0481550004}},{"attributes":{"ID":380629,"DIS_CODE":0,"TOWNNAME":"南區","LI":"金華里","LIN":"9鄰","STREET":"金華路","SECT":"二段","MAREA":" ","LANE":"８１巷","ALLEY":" ","HOUSE_NO":"３７號","E_COORD97":166872.39999999999,"N_COORD97":2542208.6099999999,"ADDRESS":"金華路二段８１巷３７號","OBJECTID":380619},"geometry":{"x":166872.4000000013,"y":2542208.6099999994}},{"attributes":{"ID":380630,"DIS_CODE":0,"TOWNNAME":"北區","LI":"華興里","LIN":"9鄰","STREET":"南園街","SECT":" ","MAREA":" ","LANE":"１６２巷","ALLEY":" ","HOUSE_NO":"２０號","E_COORD97":170575.78,"N_COORD97":2545213.3399999999,"ADDRESS":"南園街１６２巷２０號","OBJECTID":380620},"geometry":{"x":170575.78000000026,"y":2545213.3400000017}},{"attributes":{"ID":380631,"DIS_CODE":0,"TOWNNAME":"北區","LI":"華興里","LIN":"9鄰","STREET":"南園街","SECT":" ","MAREA":" ","LANE":"１６２巷","ALLEY":" ","HOUSE_NO":"２２號","E_COORD97":170572.31,"N_COORD97":2545216.1000000001,"ADDRESS":"南園街１６２巷２２號","OBJECTID":380621},"geometry":{"x":170572.31000000052,"y":2545216.0999999996}},{"attributes":{"ID":380632,"DIS_CODE":0,"TOWNNAME":"北區","LI":"華興里","LIN":"9鄰","STREET":"南園街","SECT":" ","MAREA":" ","LANE":"１６２巷","ALLEY":" ","HOUSE_NO":"２４號","E_COORD97":170567.88,"N_COORD97":2545214.5299999998,"ADDRESS":"南園街１６２巷２４號","OBJECTID":380622},"geometry":{"x":170567.87999999989,"y":2545214.5300000012}},{"attributes":{"ID":380633,"DIS_CODE":0,"TOWNNAME":"北區","LI":"華興里","LIN":"9鄰","STREET":"南園街","SECT":" ","MAREA":" ","LANE":"１６２巷","ALLEY":" ","HOUSE_NO":"２６號","E_COORD97":170564.01999999999,"N_COORD97":2545217.8399999999,"ADDRESS":"南園街１６２巷２６號","OBJECTID":380623},"geometry":{"x":170564.02000000142,"y":2545217.8399999999}},{"attributes":{"ID":380634,"DIS_CODE":0,"TOWNNAME":"北區","LI":"華興里","LIN":"9鄰","STREET":"南園街","SECT":" ","MAREA":" ","LANE":"１６２巷","ALLEY":" ","HOUSE_NO":"２８號","E_COORD97":170559.98999999999,"N_COORD97":2545216.5,"ADDRESS":"南園街１６２巷２８號","OBJECTID":380624},"geometry":{"x":170559.99000000115,"y":2545216.5}},{"attributes":{"ID":380635,"DIS_CODE":0,"TOWNNAME":"北區","LI":"華興里","LIN":"9鄰","STREET":"南園街","SECT":" ","MAREA":" ","LANE":"１６２巷","ALLEY":" ","HOUSE_NO":"２號","E_COORD97":170613.42000000001,"N_COORD97":2545211.9100000001,"ADDRESS":"南園街１６２巷２號","OBJECTID":380625},"geometry":{"x":170613.41999999993,"y":2545211.9100000039}},{"attributes":{"ID":380636,"DIS_CODE":0,"TOWNNAME":"北區","LI":"華興里","LIN":"9鄰","STREET":"南園街","SECT":" ","MAREA":" ","LANE":"１６２巷","ALLEY":" ","HOUSE_NO":"３０號","E_COORD97":170556.20000000001,"N_COORD97":2545219.3399999999,"ADDRESS":"南園街１６２巷３０號","OBJECTID":380626},"geometry":{"x":170556.20000000019,"y":2545219.3400000017}},{"attributes":{"ID":380637,"DIS_CODE":0,"TOWNNAME":"北區","LI":"華興里","LIN":"9鄰","STREET":"南園街","SECT":" ","MAREA":" ","LANE":"１６２巷","ALLEY":" ","HOUSE_NO":"３４號","E_COORD97":170556.44,"N_COORD97":2545231.4300000002,"ADDRESS":"南園街１６２巷３４號","OBJECTID":380627},"geometry":{"x":170556.44000000041,"y":2545231.4300000034}},{"attributes":{"ID":380638,"DIS_CODE":0,"TOWNNAME":"北區","LI":"華興里","LIN":"9鄰","STREET":"南園街","SECT":" ","MAREA":" ","LANE":"１６２巷","ALLEY":" ","HOUSE_NO":"３６號","E_COORD97":170557.14999999999,"N_COORD97":2545235.5299999998,"ADDRESS":"南園街１６２巷３６號","OBJECTID":380628},"geometry":{"x":170557.15000000224,"y":2545235.5299999993}},{"attributes":{"ID":380639,"DIS_CODE":0,"TOWNNAME":"北區","LI":"華興里","LIN":"9鄰","STREET":"南園街","SECT":" ","MAREA":" ","LANE":"１６２巷","ALLEY":" ","HOUSE_NO":"３８號","E_COORD97":170557.85999999999,"N_COORD97":2545239.6400000001,"ADDRESS":"南園街１６２巷３８號","OBJECTID":380629},"geometry":{"x":170557.86000000127,"y":2545239.6400000006}},{"attributes":{"ID":380640,"DIS_CODE":0,"TOWNNAME":"北區","LI":"華興里","LIN":"9鄰","STREET":"南園街","SECT":" ","MAREA":" ","LANE":"１６２巷","ALLEY":" ","HOUSE_NO":"４０號","E_COORD97":170558.34,"N_COORD97":2545243.2599999998,"ADDRESS":"南園街１６２巷４０號","OBJECTID":380630},"geometry":{"x":170558.33999999985,"y":2545243.2600000016}},{"attributes":{"ID":380641,"DIS_CODE":0,"TOWNNAME":"北區","LI":"華興里","LIN":"9鄰","STREET":"南園街","SECT":" ","MAREA":" ","LANE":"１６２巷","ALLEY":" ","HOUSE_NO":"４２號","E_COORD97":170558.81,"N_COORD97":2545247.21,"ADDRESS":"南園街１６２巷４２號","OBJECTID":380631},"geometry":{"x":170558.81000000052,"y":2545247.2100000009}},{"attributes":{"ID":380642,"DIS_CODE":0,"TOWNNAME":"北區","LI":"華興里","LIN":"9鄰","STREET":"南園街","SECT":" ","MAREA":" ","LANE":"１６２巷","ALLEY":" ","HOUSE_NO":"４號","E_COORD97":170609.31,"N_COORD97":2545210.1000000001,"ADDRESS":"南園街１６２巷４號","OBJECTID":380632},"geometry":{"x":170609.30999999959,"y":2545210.1000000015}},{"attributes":{"ID":380643,"DIS_CODE":0,"TOWNNAME":"北區","LI":"華興里","LIN":"9鄰","STREET":"南園街","SECT":" ","MAREA":" ","LANE":"１６２巷","ALLEY":" ","HOUSE_NO":"６號","E_COORD97":170605.35999999999,"N_COORD97":2545213.0899999999,"ADDRESS":"南園街１６２巷６號","OBJECTID":380633},"geometry":{"x":170605.36000000127,"y":2545213.0899999999}},{"attributes":{"ID":380644,"DIS_CODE":0,"TOWNNAME":"北區","LI":"華興里","LIN":"9鄰","STREET":"南園街","SECT":" ","MAREA":" ","LANE":"１６２巷","ALLEY":" ","HOUSE_NO":"８號","E_COORD97":170601.41,"N_COORD97":2545211.1299999999,"ADDRESS":"南園街１６２巷８號","OBJECTID":380634},"geometry":{"x":170601.41000000108,"y":2545211.129999999}},{"attributes":{"ID":380645,"DIS_CODE":0,"TOWNNAME":"北區","LI":"華興里","LIN":"9鄰","STREET":"南園街","SECT":" ","MAREA":" ","LANE":"１６２巷","ALLEY":" ","HOUSE_NO":"１１號","E_COORD97":170599.73999999999,"N_COORD97":2545194.2799999998,"ADDRESS":"南園街１６２巷１１號","OBJECTID":380635},"geometry":{"x":170599.74000000022,"y":2545194.2799999993}},{"attributes":{"ID":380646,"DIS_CODE":0,"TOWNNAME":"北區","LI":"華興里","LIN":"9鄰","STREET":"南園街","SECT":" ","MAREA":" ","LANE":"１６２巷","ALLEY":" ","HOUSE_NO":"１３號","E_COORD97":170596.19,"N_COORD97":2545196.7200000002,"ADDRESS":"南園街１６２巷１３號","OBJECTID":380636},"geometry":{"x":170596.19000000134,"y":2545196.7200000044}},{"attributes":{"ID":380647,"DIS_CODE":0,"TOWNNAME":"北區","LI":"華興里","LIN":"9鄰","STREET":"南園街","SECT":" ","MAREA":" ","LANE":"１６２巷","ALLEY":" ","HOUSE_NO":"１５號","E_COORD97":170591.60999999999,"N_COORD97":2545195.0699999998,"ADDRESS":"南園街１６２巷１５號","OBJECTID":380637},"geometry":{"x":170591.61000000127,"y":2545195.0700000022}},{"attributes":{"ID":380648,"DIS_CODE":0,"TOWNNAME":"北區","LI":"華興里","LIN":"9鄰","STREET":"南園街","SECT":" ","MAREA":" ","LANE":"１６２巷","ALLEY":" ","HOUSE_NO":"１７號","E_COORD97":170587.98000000001,"N_COORD97":2545197.04,"ADDRESS":"南園街１６２巷１７號","OBJECTID":380638},"geometry":{"x":170587.98000000138,"y":2545197.040000001}},{"attributes":{"ID":380649,"DIS_CODE":0,"TOWNNAME":"北區","LI":"華興里","LIN":"9鄰","STREET":"南園街","SECT":" ","MAREA":" ","LANE":"１６２巷","ALLEY":" ","HOUSE_NO":"１９號","E_COORD97":170577.60000000001,"N_COORD97":2545195.0499999998,"ADDRESS":"南園街１６２巷１９號","OBJECTID":380639},"geometry":{"x":170577.60000000056,"y":2545195.0500000026}},{"attributes":{"ID":380650,"DIS_CODE":0,"TOWNNAME":"北區","LI":"華興里","LIN":"9鄰","STREET":"南園街","SECT":" ","MAREA":" ","LANE":"１６２巷","ALLEY":" ","HOUSE_NO":"１號","E_COORD97":170620.19,"N_COORD97":2545194.75,"ADDRESS":"南園街１６２巷１號","OBJECTID":380640},"geometry":{"x":170620.19000000134,"y":2545194.75}},{"attributes":{"ID":380651,"DIS_CODE":0,"TOWNNAME":"北區","LI":"華興里","LIN":"9鄰","STREET":"南園街","SECT":" ","MAREA":" ","LANE":"１６２巷","ALLEY":" ","HOUSE_NO":"２１號","E_COORD97":170573.64999999999,"N_COORD97":2545197.5800000001,"ADDRESS":"南園街１６２巷２１號","OBJECTID":380641},"geometry":{"x":170573.65000000037,"y":2545197.5800000019}},{"attributes":{"ID":380652,"DIS_CODE":0,"TOWNNAME":"北區","LI":"華興里","LIN":"9鄰","STREET":"南園街","SECT":" ","MAREA":" ","LANE":"１６２巷","ALLEY":" ","HOUSE_NO":"２３號","E_COORD97":170569.31,"N_COORD97":2545195.7599999998,"ADDRESS":"南園街１６２巷２３號","OBJECTID":380642},"geometry":{"x":170569.31000000052,"y":2545195.7600000016}},{"attributes":{"ID":380653,"DIS_CODE":0,"TOWNNAME":"北區","LI":"華興里","LIN":"9鄰","STREET":"南園街","SECT":" ","MAREA":" ","LANE":"１６２巷","ALLEY":" ","HOUSE_NO":"２５號","E_COORD97":170565.67999999999,"N_COORD97":2545198.3599999999,"ADDRESS":"南園街１６２巷２５號","OBJECTID":380643},"geometry":{"x":170565.6799999997,"y":2545198.3600000013}},{"attributes":{"ID":380654,"DIS_CODE":0,"TOWNNAME":"北區","LI":"長榮里","LIN":"9鄰","STREET":"長榮路","SECT":"五段","MAREA":" ","LANE":"４１巷","ALLEY":" ","HOUSE_NO":"６號","E_COORD97":170065.25,"N_COORD97":2545509.7999999998,"ADDRESS":"長榮路五段４１巷６號","OBJECTID":380644},"geometry":{"x":170065.25000000093,"y":2545509.8000000007}},{"attributes":{"ID":380655,"DIS_CODE":0,"TOWNNAME":"新營區","LI":"南興里","LIN":"9鄰","STREET":"和平路","SECT":" ","MAREA":" ","LANE":"１０２巷","ALLEY":" ","HOUSE_NO":"２８號","E_COORD97":179326.39999999999,"N_COORD97":2577616.8599999999,"ADDRESS":"和平路１０２巷２８號","OBJECTID":380645},"geometry":{"x":179326.40000000224,"y":2577616.8600000013}},{"attributes":{"ID":380656,"DIS_CODE":0,"TOWNNAME":"新營區","LI":"忠政里","LIN":"9鄰","STREET":"中正路","SECT":" ","MAREA":" ","LANE":"３９巷","ALLEY":" ","HOUSE_NO":"３５號之２","E_COORD97":180001.23999999999,"N_COORD97":2579236.1299999999,"ADDRESS":"中正路３９巷３５號之２","OBJECTID":380646},"geometry":{"x":180001.24000000022,"y":2579236.1300000008}},{"attributes":{"ID":380657,"DIS_CODE":0,"TOWNNAME":"新營區","LI":"興業里","LIN":"9鄰","STREET":"中興路","SECT":" ","MAREA":" ","LANE":"１３巷","ALLEY":" ","HOUSE_NO":"１３號","E_COORD97":180200.59,"N_COORD97":2577979.2799999998,"ADDRESS":"中興路１３巷１３號","OBJECTID":380647},"geometry":{"x":180200.58999999985,"y":2577979.2799999993}},{"attributes":{"ID":380658,"DIS_CODE":0,"TOWNNAME":"新營區","LI":"南興里","LIN":"9鄰","STREET":"和平路","SECT":" ","MAREA":" ","LANE":"１０２巷","ALLEY":" ","HOUSE_NO":"１４號","E_COORD97":179364.16,"N_COORD97":2577614.4700000002,"ADDRESS":"和平路１０２巷１４號","OBJECTID":380648},"geometry":{"x":179364.16000000108,"y":2577614.4700000025}},{"attributes":{"ID":380659,"DIS_CODE":0,"TOWNNAME":"關廟區","LI":"深坑里","LIN":"9鄰","STREET":"深坑三街","SECT":" ","MAREA":" ","LANE":"２５巷","ALLEY":" ","HOUSE_NO":"３８號","E_COORD97":181910.07000000001,"N_COORD97":2537831.2999999998,"ADDRESS":"深坑三街２５巷３８號","OBJECTID":380649},"geometry":{"x":181910.0700000003,"y":2537831.3000000007}},{"attributes":{"ID":380660,"DIS_CODE":0,"TOWNNAME":"關廟區","LI":"布袋里","LIN":"9鄰","STREET":"長文街","SECT":" ","MAREA":" ","LANE":"３７２巷","ALLEY":" ","HOUSE_NO":"７號","E_COORD97":182134.89000000001,"N_COORD97":2534835.25,"ADDRESS":"長文街３７２巷７號","OBJECTID":380650},"geometry":{"x":182134.8900000006,"y":2534835.2500000019}},{"attributes":{"ID":380661,"DIS_CODE":0,"TOWNNAME":"安平區","LI":"平安里","LIN":"9鄰","STREET":"安平路","SECT":" ","MAREA":" ","LANE":"４０６巷","ALLEY":" ","HOUSE_NO":"３號","E_COORD97":165392.78,"N_COORD97":2544358,"ADDRESS":"安平路４０６巷３號","OBJECTID":380651},"geometry":{"x":165392.78000000119,"y":2544358.0000000019}},{"attributes":{"ID":380662,"DIS_CODE":0,"TOWNNAME":"安平區","LI":"平安里","LIN":"9鄰","STREET":"安平路","SECT":" ","MAREA":" ","LANE":"４０６巷","ALLEY":" ","HOUSE_NO":"５號","E_COORD97":165393.95999999999,"N_COORD97":2544361.52,"ADDRESS":"安平路４０６巷５號","OBJECTID":380652},"geometry":{"x":165393.95999999996,"y":2544361.5199999996}},{"attributes":{"ID":380663,"DIS_CODE":0,"TOWNNAME":"安平區","LI":"平安里","LIN":"9鄰","STREET":"安平路","SECT":" ","MAREA":" ","LANE":"４０６巷","ALLEY":" ","HOUSE_NO":"７號","E_COORD97":165394.03,"N_COORD97":2544367.1699999999,"ADDRESS":"安平路４０６巷７號","OBJECTID":380653},"geometry":{"x":165394.03000000026,"y":2544367.1699999999}},{"attributes":{"ID":380664,"DIS_CODE":0,"TOWNNAME":"安平區","LI":"平安里","LIN":"9鄰","STREET":"安平路","SECT":" ","MAREA":" ","LANE":"４２６巷","ALLEY":" ","HOUSE_NO":"１５號","E_COORD97":165328.95999999999,"N_COORD97":2544375.3500000001,"ADDRESS":"安平路４２６巷１５號","OBJECTID":380654},"geometry":{"x":165328.96000000089,"y":2544375.3500000015}},{"attributes":{"ID":380665,"DIS_CODE":0,"TOWNNAME":"安平區","LI":"平安里","LIN":"9鄰","STREET":"安平路","SECT":" ","MAREA":" ","LANE":"４２６巷","ALLEY":" ","HOUSE_NO":"１６號","E_COORD97":165347.29999999999,"N_COORD97":2544370.2599999998,"ADDRESS":"安平路４２６巷１６號","OBJECTID":380655},"geometry":{"x":165347.29999999981,"y":2544370.2599999998}},{"attributes":{"ID":380666,"DIS_CODE":0,"TOWNNAME":"安平區","LI":"平安里","LIN":"9鄰","STREET":"安平路","SECT":" ","MAREA":" ","LANE":"４２６巷","ALLEY":" ","HOUSE_NO":"１７號","E_COORD97":165331.37,"N_COORD97":2544384.1000000001,"ADDRESS":"安平路４２６巷１７號","OBJECTID":380656},"geometry":{"x":165331.37000000104,"y":2544384.1000000015}},{"attributes":{"ID":380667,"DIS_CODE":0,"TOWNNAME":"安平區","LI":"平安里","LIN":"9鄰","STREET":"安平路","SECT":" ","MAREA":" ","LANE":"４２６巷","ALLEY":" ","HOUSE_NO":"１８號","E_COORD97":165352.09,"N_COORD97":2544386.6099999999,"ADDRESS":"安平路４２６巷１８號","OBJECTID":380657},"geometry":{"x":165352.08999999985,"y":2544386.6100000013}},{"attributes":{"ID":380668,"DIS_CODE":0,"TOWNNAME":"安平區","LI":"平安里","LIN":"9鄰","STREET":"安平路","SECT":" ","MAREA":" ","LANE":"４２６巷","ALLEY":" ","HOUSE_NO":"２０之２號","E_COORD97":165359.79000000001,"N_COORD97":2544383.0899999999,"ADDRESS":"安平路４２６巷２０之２號","OBJECTID":380658},"geometry":{"x":165359.79000000004,"y":2544383.0900000036}},{"attributes":{"ID":380669,"DIS_CODE":0,"TOWNNAME":"安平區","LI":"平安里","LIN":"9鄰","STREET":"安平路","SECT":" ","MAREA":" ","LANE":"４２６巷","ALLEY":" ","HOUSE_NO":"２０號之２","E_COORD97":165359.79000000001,"N_COORD97":2544383.0899999999,"ADDRESS":"安平路４２６巷２０號之２","OBJECTID":380659},"geometry":{"x":165359.79000000004,"y":2544383.0900000036}},{"attributes":{"ID":380670,"DIS_CODE":0,"TOWNNAME":"安平區","LI":"平安里","LIN":"9鄰","STREET":"安平路","SECT":" ","MAREA":" ","LANE":"４２６巷","ALLEY":" ","HOUSE_NO":"２２之３號","E_COORD97":165370.57999999999,"N_COORD97":2544380.6699999999,"ADDRESS":"安平路４２６巷２２之３號","OBJECTID":380660},"geometry":{"x":165370.58000000101,"y":2544380.6700000018}},{"attributes":{"ID":380671,"DIS_CODE":0,"TOWNNAME":"安平區","LI":"平安里","LIN":"9鄰","STREET":"安平路","SECT":" ","MAREA":" ","LANE":"４２６巷","ALLEY":" ","HOUSE_NO":"２４號","E_COORD97":165381.35999999999,"N_COORD97":2544377.8100000001,"ADDRESS":"安平路４２６巷２４號","OBJECTID":380661},"geometry":{"x":165381.36000000034,"y":2544377.8100000005}},{"attributes":{"ID":380672,"DIS_CODE":0,"TOWNNAME":"安平區","LI":"平安里","LIN":"9鄰","STREET":"安平路","SECT":" ","MAREA":" ","LANE":"４２６巷","ALLEY":" ","HOUSE_NO":"２６之３號","E_COORD97":165391.04999999999,"N_COORD97":2544375.8300000001,"ADDRESS":"安平路４２６巷２６之３號","OBJECTID":380662},"geometry":{"x":165391.05000000075,"y":2544375.8300000019}},{"attributes":{"ID":380673,"DIS_CODE":0,"TOWNNAME":"安平區","LI":"平安里","LIN":"9鄰","STREET":"安平路","SECT":" ","MAREA":" ","LANE":"４２６巷","ALLEY":" ","HOUSE_NO":"２８號","E_COORD97":165402.48999999999,"N_COORD97":2544373.6299999999,"ADDRESS":"安平路４２６巷２８號","OBJECTID":380663},"geometry":{"x":165402.49000000022,"y":2544373.629999999}},{"attributes":{"ID":380674,"DIS_CODE":0,"TOWNNAME":"安平區","LI":"平安里","LIN":"9鄰","STREET":"安平路","SECT":" ","MAREA":" ","LANE":"４２６巷","ALLEY":" ","HOUSE_NO":"３０號","E_COORD97":165406.67000000001,"N_COORD97":2544385.73,"ADDRESS":"安平路４２６巷３０號","OBJECTID":380664},"geometry":{"x":165406.67000000086,"y":2544385.7299999986}},{"attributes":{"ID":380675,"DIS_CODE":0,"TOWNNAME":"安平區","LI":"平安里","LIN":"9鄰","STREET":"安平路","SECT":" ","MAREA":" ","LANE":"４２６巷","ALLEY":" ","HOUSE_NO":"３２號","E_COORD97":165407.76999999999,"N_COORD97":2544399.5800000001,"ADDRESS":"安平路４２６巷３２號","OBJECTID":380665},"geometry":{"x":165407.77000000048,"y":2544399.5800000001}},{"attributes":{"ID":380676,"DIS_CODE":0,"TOWNNAME":"安平區","LI":"平安里","LIN":"9鄰","STREET":"安平路","SECT":" ","MAREA":" ","LANE":"４２６巷","ALLEY":" ","HOUSE_NO":"３４號","E_COORD97":165397.20999999999,"N_COORD97":2544401.7799999998,"ADDRESS":"安平路４２６巷３４號","OBJECTID":380666},"geometry":{"x":165397.20999999996,"y":2544401.7800000012}},{"attributes":{"ID":380677,"DIS_CODE":0,"TOWNNAME":"安平區","LI":"平安里","LIN":"9鄰","STREET":"安平路","SECT":" ","MAREA":" ","LANE":"４２６巷","ALLEY":" ","HOUSE_NO":"３６號","E_COORD97":165370.79999999999,"N_COORD97":2544410.5800000001,"ADDRESS":"安平路４２６巷３６號","OBJECTID":380667},"geometry":{"x":165370.79999999981,"y":2544410.5800000019}},{"attributes":{"ID":380678,"DIS_CODE":0,"TOWNNAME":"安平區","LI":"平安里","LIN":"9鄰","STREET":"安平路","SECT":" ","MAREA":" ","LANE":"４２６巷","ALLEY":" ","HOUSE_NO":"３８號","E_COORD97":165358.03,"N_COORD97":2544413.2200000002,"ADDRESS":"安平路４２６巷３８號","OBJECTID":380668},"geometry":{"x":165358.03000000026,"y":2544413.2199999988}},{"attributes":{"ID":380679,"DIS_CODE":0,"TOWNNAME":"歸仁區","LI":"南保里","LIN":"9鄰","STREET":"文化十街","SECT":" ","MAREA":" ","LANE":"２８巷","ALLEY":" ","HOUSE_NO":"６７號","E_COORD97":176733.59,"N_COORD97":2541334.3300000001,"ADDRESS":"文化十街２８巷６７號","OBJECTID":380669},"geometry":{"x":176733.58999999985,"y":2541334.3300000019}},{"attributes":{"ID":380680,"DIS_CODE":0,"TOWNNAME":"歸仁區","LI":"歸南里","LIN":"9鄰","STREET":"民生九街","SECT":" ","MAREA":" ","LANE":"６９巷","ALLEY":" ","HOUSE_NO":"１６號","E_COORD97":176258.45999999999,"N_COORD97":2540145.25,"ADDRESS":"民生九街６９巷１６號","OBJECTID":380670},"geometry":{"x":176258.45999999996,"y":2540145.2500000019}},{"attributes":{"ID":380681,"DIS_CODE":0,"TOWNNAME":"歸仁區","LI":"七甲里","LIN":"9鄰","STREET":"七甲一街","SECT":" ","MAREA":" ","LANE":"９８巷","ALLEY":" ","HOUSE_NO":"１５號","E_COORD97":177706.23999999999,"N_COORD97":2542564.6600000001,"ADDRESS":"七甲一街９８巷１５號","OBJECTID":380671},"geometry":{"x":177706.24000000022,"y":2542564.6600000001}},{"attributes":{"ID":380682,"DIS_CODE":0,"TOWNNAME":"歸仁區","LI":"歸南里","LIN":"9鄰","STREET":"民生九街","SECT":" ","MAREA":" ","LANE":"６９巷","ALLEY":" ","HOUSE_NO":"１號","E_COORD97":176232.60999999999,"N_COORD97":2540156.25,"ADDRESS":"民生九街６９巷１號","OBJECTID":380672},"geometry":{"x":176232.61000000034,"y":2540156.25}},{"attributes":{"ID":380683,"DIS_CODE":0,"TOWNNAME":"歸仁區","LI":"歸南里","LIN":"9鄰","STREET":"民生九街","SECT":" ","MAREA":" ","LANE":"６９巷","ALLEY":" ","HOUSE_NO":"１２之１號","E_COORD97":176252.85999999999,"N_COORD97":2540145.2599999998,"ADDRESS":"民生九街６９巷１２之１號","OBJECTID":380673},"geometry":{"x":176252.86000000034,"y":2540145.2600000016}},{"attributes":{"ID":380684,"DIS_CODE":0,"TOWNNAME":"歸仁區","LI":"歸南里","LIN":"9鄰","STREET":"民生九街","SECT":" ","MAREA":" ","LANE":"６９巷","ALLEY":" ","HOUSE_NO":"２號","E_COORD97":176232.60999999999,"N_COORD97":2540147.25,"ADDRESS":"民生九街６９巷２號","OBJECTID":380674},"geometry":{"x":176232.61000000034,"y":2540147.2500000037}},{"attributes":{"ID":380685,"DIS_CODE":0,"TOWNNAME":"歸仁區","LI":"看東里","LIN":"9鄰","STREET":"成功一街","SECT":" ","MAREA":" ","LANE":"１３巷","ALLEY":" ","HOUSE_NO":"１３號","E_COORD97":178674.44,"N_COORD97":2540176.25,"ADDRESS":"成功一街１３巷１３號","OBJECTID":380675},"geometry":{"x":178674.44000000041,"y":2540176.25}},{"attributes":{"ID":380686,"DIS_CODE":0,"TOWNNAME":"歸仁區","LI":"許厝里","LIN":"9鄰","STREET":"信義南路","SECT":" ","MAREA":" ","LANE":"１０１巷","ALLEY":" ","HOUSE_NO":"２０號","E_COORD97":178187.19,"N_COORD97":2540439.1000000001,"ADDRESS":"信義南路１０１巷２０號","OBJECTID":380676},"geometry":{"x":178187.19000000134,"y":2540439.0999999996}},{"attributes":{"ID":380687,"DIS_CODE":0,"TOWNNAME":"歸仁區","LI":"南保里","LIN":"9鄰","STREET":"文化十街","SECT":" ","MAREA":" ","LANE":"２８巷","ALLEY":" ","HOUSE_NO":"７７號","E_COORD97":176755.19,"N_COORD97":2541333.3300000001,"ADDRESS":"文化十街２８巷７７號","OBJECTID":380677},"geometry":{"x":176755.19000000134,"y":2541333.3299999982}},{"attributes":{"ID":380688,"DIS_CODE":0,"TOWNNAME":"歸仁區","LI":"南保里","LIN":"9鄰","STREET":"文化十街","SECT":" ","MAREA":" ","LANE":"２８巷","ALLEY":" ","HOUSE_NO":"５９號","E_COORD97":176730.59,"N_COORD97":2541356.3300000001,"ADDRESS":"文化十街２８巷５９號","OBJECTID":380678},"geometry":{"x":176730.58999999985,"y":2541356.3300000001}},{"attributes":{"ID":380689,"DIS_CODE":0,"TOWNNAME":"南區","LI":"建南里","LIN":"9鄰","STREET":"德興路","SECT":" ","MAREA":" ","LANE":"２７４巷","ALLEY":" ","HOUSE_NO":"１３號","E_COORD97":167160.94,"N_COORD97":2540002.2000000002,"ADDRESS":"德興路２７４巷１３號","OBJECTID":380679},"geometry":{"x":167160.94000000041,"y":2540002.2000000011}},{"attributes":{"ID":380690,"DIS_CODE":0,"TOWNNAME":"南區","LI":"建南里","LIN":"9鄰","STREET":"德興路","SECT":" ","MAREA":" ","LANE":"２７４巷","ALLEY":" ","HOUSE_NO":"３號","E_COORD97":167181.73000000001,"N_COORD97":2540000.2400000002,"ADDRESS":"德興路２７４巷３號","OBJECTID":380680},"geometry":{"x":167181.73000000138,"y":2540000.2400000002}},{"attributes":{"ID":380691,"DIS_CODE":0,"TOWNNAME":"南區","LI":"建南里","LIN":"9鄰","STREET":"德興路","SECT":" ","MAREA":" ","LANE":"２７４巷","ALLEY":" ","HOUSE_NO":"７號","E_COORD97":167173.48000000001,"N_COORD97":2540000.7799999998,"ADDRESS":"德興路２７４巷７號","OBJECTID":380681},"geometry":{"x":167173.48000000138,"y":2540000.7800000031}},{"attributes":{"ID":380692,"DIS_CODE":0,"TOWNNAME":"南區","LI":"建南里","LIN":"9鄰","STREET":"德興路","SECT":" ","MAREA":" ","LANE":"２７４巷","ALLEY":" ","HOUSE_NO":"９號","E_COORD97":167169.35000000001,"N_COORD97":2540001.1400000001,"ADDRESS":"德興路２７４巷９號","OBJECTID":380682},"geometry":{"x":167169.34999999963,"y":2540001.1400000025}},{"attributes":{"ID":380693,"DIS_CODE":0,"TOWNNAME":"南區","LI":"建南里","LIN":"9鄰","STREET":"德興路","SECT":" ","MAREA":" ","LANE":"２７４巷","ALLEY":" ","HOUSE_NO":"５號","E_COORD97":167177.42999999999,"N_COORD97":2540000.4199999999,"ADDRESS":"德興路２７４巷５號","OBJECTID":380683},"geometry":{"x":167177.4299999997,"y":2540000.4200000037}},{"attributes":{"ID":380694,"DIS_CODE":0,"TOWNNAME":"南區","LI":"建南里","LIN":"9鄰","STREET":"德興路","SECT":" ","MAREA":" ","LANE":"２７４巷","ALLEY":" ","HOUSE_NO":"１９號","E_COORD97":167148.64999999999,"N_COORD97":2540000.4100000001,"ADDRESS":"德興路２７４巷１９號","OBJECTID":380684},"geometry":{"x":167148.6500000013,"y":2540000.4099999983}},{"attributes":{"ID":380695,"DIS_CODE":0,"TOWNNAME":"北區","LI":"新勝里","LIN":"9鄰","STREET":"開元路","SECT":" ","MAREA":" ","LANE":"３３３巷","ALLEY":" ","HOUSE_NO":"１８號","E_COORD97":170139.85999999999,"N_COORD97":2545504.6899999999,"ADDRESS":"開元路３３３巷１８號","OBJECTID":380685},"geometry":{"x":170139.86000000034,"y":2545504.6900000013}},{"attributes":{"ID":380696,"DIS_CODE":0,"TOWNNAME":"安平區","LI":"港仔里","LIN":"9鄰","STREET":"安平路","SECT":" ","MAREA":" ","LANE":"１２１巷","ALLEY":" ","HOUSE_NO":"１號","E_COORD97":164244.42999999999,"N_COORD97":2544477.8399999999,"ADDRESS":"安平路１２１巷１號","OBJECTID":380686},"geometry":{"x":164244.4299999997,"y":2544477.8399999999}},{"attributes":{"ID":380697,"DIS_CODE":0,"TOWNNAME":"安平區","LI":"平通里","LIN":"9鄰","STREET":"平通路","SECT":" ","MAREA":" ","LANE":"５８０巷","ALLEY":" ","HOUSE_NO":"１０７號","E_COORD97":164951.89000000001,"N_COORD97":2544081.8599999999,"ADDRESS":"平通路５８０巷１０７號","OBJECTID":380687},"geometry":{"x":164951.88999999966,"y":2544081.8599999994}},{"attributes":{"ID":380698,"DIS_CODE":0,"TOWNNAME":"北區","LI":"公園里","LIN":"9鄰","STREET":"北忠街","SECT":" ","MAREA":" ","LANE":"５８巷","ALLEY":" ","HOUSE_NO":"５６號","E_COORD97":169141.07999999999,"N_COORD97":2544494.7599999998,"ADDRESS":"北忠街５８巷５６號","OBJECTID":380688},"geometry":{"x":169141.08000000007,"y":2544494.7600000016}},{"attributes":{"ID":380699,"DIS_CODE":0,"TOWNNAME":"南區","LI":"新昌里","LIN":"9鄰","STREET":"國華街","SECT":"一段","MAREA":" ","LANE":"５６巷","ALLEY":" ","HOUSE_NO":"８號","E_COORD97":167641.57999999999,"N_COORD97":2542751.77,"ADDRESS":"國華街一段５６巷８號","OBJECTID":380689},"geometry":{"x":167641.58000000194,"y":2542751.7700000014}},{"attributes":{"ID":380700,"DIS_CODE":0,"TOWNNAME":"南區","LI":"國宅里","LIN":"9鄰","STREET":"金華路","SECT":"二段","MAREA":" ","LANE":"２１巷","ALLEY":" ","HOUSE_NO":"２７號","E_COORD97":166929.51999999999,"N_COORD97":2541906.7599999998,"ADDRESS":"金華路二段２１巷２７號","OBJECTID":380690},"geometry":{"x":166929.52000000142,"y":2541906.7600000035}},{"attributes":{"ID":380701,"DIS_CODE":0,"TOWNNAME":"南區","LI":"國宅里","LIN":"9鄰","STREET":"金華路","SECT":"二段","MAREA":" ","LANE":"２１巷","ALLEY":" ","HOUSE_NO":"２９號","E_COORD97":166923.76999999999,"N_COORD97":2541907.79,"ADDRESS":"金華路二段２１巷２９號","OBJECTID":380691},"geometry":{"x":166923.76999999955,"y":2541907.7899999991}},{"attributes":{"ID":380702,"DIS_CODE":0,"TOWNNAME":"北區","LI":"賢北里","LIN":"9鄰","STREET":"賢北街","SECT":" ","MAREA":" ","LANE":"２１巷","ALLEY":" ","HOUSE_NO":"４７號","E_COORD97":166206.10000000001,"N_COORD97":2545258.5499999998,"ADDRESS":"賢北街２１巷４７號","OBJECTID":380692},"geometry":{"x":166206.09999999963,"y":2545258.5499999989}},{"attributes":{"ID":380703,"DIS_CODE":0,"TOWNNAME":"北區","LI":"賢北里","LIN":"9鄰","STREET":"賢北街","SECT":" ","MAREA":" ","LANE":"２１巷","ALLEY":" ","HOUSE_NO":"４８號","E_COORD97":166191.38,"N_COORD97":2545289.3399999999,"ADDRESS":"賢北街２１巷４８號","OBJECTID":380693},"geometry":{"x":166191.37999999989,"y":2545289.3399999999}},{"attributes":{"ID":380704,"DIS_CODE":0,"TOWNNAME":"北區","LI":"賢北里","LIN":"9鄰","STREET":"賢北街","SECT":" ","MAREA":" ","LANE":"２１巷","ALLEY":" ","HOUSE_NO":"４號","E_COORD97":166289.38,"N_COORD97":2545331.8999999999,"ADDRESS":"賢北街２１巷４號","OBJECTID":380694},"geometry":{"x":166289.37999999989,"y":2545331.9000000022}},{"attributes":{"ID":380705,"DIS_CODE":0,"TOWNNAME":"北區","LI":"賢北里","LIN":"9鄰","STREET":"賢北街","SECT":" ","MAREA":" ","LANE":"２１巷","ALLEY":" ","HOUSE_NO":"５號","E_COORD97":166299.48999999999,"N_COORD97":2545299.8999999999,"ADDRESS":"賢北街２１巷５號","OBJECTID":380695},"geometry":{"x":166299.49000000022,"y":2545299.8999999985}},{"attributes":{"ID":380706,"DIS_CODE":0,"TOWNNAME":"北區","LI":"賢北里","LIN":"9鄰","STREET":"賢北街","SECT":" ","MAREA":" ","LANE":"２１巷","ALLEY":" ","HOUSE_NO":"６號","E_COORD97":166285.01000000001,"N_COORD97":2545330.52,"ADDRESS":"賢北街２１巷６號","OBJECTID":380696},"geometry":{"x":166285.00999999978,"y":2545330.5200000014}},{"attributes":{"ID":380707,"DIS_CODE":0,"TOWNNAME":"北區","LI":"賢北里","LIN":"9鄰","STREET":"賢北街","SECT":" ","MAREA":" ","LANE":"２１巷","ALLEY":" ","HOUSE_NO":"７號","E_COORD97":166294.20000000001,"N_COORD97":2545297.1499999999,"ADDRESS":"賢北街２１巷７號","OBJECTID":380697},"geometry":{"x":166294.20000000019,"y":2545297.1500000004}},{"attributes":{"ID":380708,"DIS_CODE":0,"TOWNNAME":"北區","LI":"賢北里","LIN":"9鄰","STREET":"賢北街","SECT":" ","MAREA":" ","LANE":"２１巷","ALLEY":" ","HOUSE_NO":"８號","E_COORD97":166280.17999999999,"N_COORD97":2545327.9900000002,"ADDRESS":"賢北街２１巷８號","OBJECTID":380698},"geometry":{"x":166280.1799999997,"y":2545327.9900000021}},{"attributes":{"ID":380709,"DIS_CODE":0,"TOWNNAME":"北區","LI":"賢北里","LIN":"9鄰","STREET":"賢北街","SECT":" ","MAREA":" ","LANE":"２１巷","ALLEY":" ","HOUSE_NO":"９號","E_COORD97":166289.82999999999,"N_COORD97":2545296.23,"ADDRESS":"賢北街２１巷９號","OBJECTID":380699},"geometry":{"x":166289.83000000007,"y":2545296.2300000023}},{"attributes":{"ID":380710,"DIS_CODE":0,"TOWNNAME":"新營區","LI":"新北里","LIN":"9鄰","STREET":"三興街","SECT":" ","MAREA":" ","LANE":"３０１巷","ALLEY":" ","HOUSE_NO":"４０號","E_COORD97":179222.94,"N_COORD97":2579724.8399999999,"ADDRESS":"三興街３０１巷４０號","OBJECTID":380700},"geometry":{"x":179222.94000000134,"y":2579724.8399999999}},{"attributes":{"ID":380711,"DIS_CODE":0,"TOWNNAME":"新營區","LI":"南興里","LIN":"9鄰","STREET":"和平路","SECT":" ","MAREA":" ","LANE":"１０２巷","ALLEY":" ","HOUSE_NO":"４號","E_COORD97":179391.63,"N_COORD97":2577613.2200000002,"ADDRESS":"和平路１０２巷４號","OBJECTID":380701},"geometry":{"x":179391.62999999989,"y":2577613.2200000025}},{"attributes":{"ID":380712,"DIS_CODE":0,"TOWNNAME":"安平區","LI":"華平里","LIN":"9鄰","STREET":"怡平路","SECT":" ","MAREA":" ","LANE":"４１０巷","ALLEY":" ","HOUSE_NO":"９號","E_COORD97":165394.67000000001,"N_COORD97":2543847.98,"ADDRESS":"怡平路４１０巷９號","OBJECTID":380702},"geometry":{"x":165394.67000000179,"y":2543847.9800000004}},{"attributes":{"ID":380713,"DIS_CODE":0,"TOWNNAME":"安平區","LI":"文平里","LIN":"9鄰","STREET":"建平七街","SECT":" ","MAREA":" ","LANE":"１８２巷","ALLEY":" ","HOUSE_NO":"３７號","E_COORD97":166058.54000000001,"N_COORD97":2543293.8799999999,"ADDRESS":"建平七街１８２巷３７號","OBJECTID":380703},"geometry":{"x":166058.5400000019,"y":2543293.879999999}},{"attributes":{"ID":380714,"DIS_CODE":0,"TOWNNAME":"新營區","LI":"忠政里","LIN":"9鄰","STREET":"中正路","SECT":" ","MAREA":" ","LANE":"３９巷","ALLEY":" ","HOUSE_NO":"４３號之２","E_COORD97":179957.28,"N_COORD97":2579241.8799999999,"ADDRESS":"中正路３９巷４３號之２","OBJECTID":380704},"geometry":{"x":179957.28000000026,"y":2579241.879999999}},{"attributes":{"ID":380715,"DIS_CODE":0,"TOWNNAME":"新營區","LI":"新北里","LIN":"9鄰","STREET":"三興街","SECT":" ","MAREA":" ","LANE":"３０１巷","ALLEY":" ","HOUSE_NO":"２６號","E_COORD97":179251.60000000001,"N_COORD97":2579732.4500000002,"ADDRESS":"三興街３０１巷２６號","OBJECTID":380705},"geometry":{"x":179251.60000000056,"y":2579732.4500000011}},{"attributes":{"ID":380716,"DIS_CODE":0,"TOWNNAME":"新營區","LI":"忠政里","LIN":"9鄰","STREET":"中正路","SECT":" ","MAREA":" ","LANE":"３９巷","ALLEY":" ","HOUSE_NO":"３７號","E_COORD97":179986.70999999999,"N_COORD97":2579237.25,"ADDRESS":"中正路３９巷３７號","OBJECTID":380706},"geometry":{"x":179986.71000000183,"y":2579237.25}},{"attributes":{"ID":380717,"DIS_CODE":0,"TOWNNAME":"新營區","LI":"忠政里","LIN":"9鄰","STREET":"中正路","SECT":" ","MAREA":" ","LANE":"３９巷","ALLEY":" ","HOUSE_NO":"４１號","E_COORD97":179965.23000000001,"N_COORD97":2579240.6800000002,"ADDRESS":"中正路３９巷４１號","OBJECTID":380707},"geometry":{"x":179965.23000000138,"y":2579240.6799999997}},{"attributes":{"ID":380718,"DIS_CODE":0,"TOWNNAME":"永康區","LI":"永康里","LIN":"9鄰","STREET":"永中街","SECT":" ","MAREA":" ","LANE":"３９巷","ALLEY":" ","HOUSE_NO":"１號","E_COORD97":173873.29000000001,"N_COORD97":2547201.4900000002,"ADDRESS":"永中街３９巷１號","OBJECTID":380708},"geometry":{"x":173873.2900000019,"y":2547201.4900000039}},{"attributes":{"ID":380719,"DIS_CODE":0,"TOWNNAME":"永康區","LI":"甲頂里","LIN":"9鄰","STREET":"中華路","SECT":" ","MAREA":" ","LANE":"８９９巷","ALLEY":" ","HOUSE_NO":"１０號","E_COORD97":170369.35000000001,"N_COORD97":2546720,"ADDRESS":"中華路８９９巷１０號","OBJECTID":380709},"geometry":{"x":170369.35000000056,"y":2546720.0000000019}},{"attributes":{"ID":380720,"DIS_CODE":0,"TOWNNAME":"永康區","LI":"北灣里","LIN":"9鄰","STREET":"大灣七街","SECT":" ","MAREA":" ","LANE":"４５巷","ALLEY":" ","HOUSE_NO":"５號","E_COORD97":175048.17999999999,"N_COORD97":2545636.0499999998,"ADDRESS":"大灣七街４５巷５號","OBJECTID":380710},"geometry":{"x":175048.1799999997,"y":2545636.0500000026}},{"attributes":{"ID":380721,"DIS_CODE":0,"TOWNNAME":"永康區","LI":"正強里","LIN":"9鄰","STREET":"自強路","SECT":" ","MAREA":" ","LANE":"３３０巷","ALLEY":" ","HOUSE_NO":"３０號","E_COORD97":173438.13,"N_COORD97":2547584.25,"ADDRESS":"自強路３３０巷３０號","OBJECTID":380711},"geometry":{"x":173438.12999999989,"y":2547584.25}},{"attributes":{"ID":380722,"DIS_CODE":0,"TOWNNAME":"安南區","LI":"安慶里","LIN":"9鄰","STREET":"長溪路","SECT":"一段","MAREA":" ","LANE":"１６８巷","ALLEY":" ","HOUSE_NO":"３２６號","E_COORD97":168777.64000000001,"N_COORD97":2548863.6600000001,"ADDRESS":"長溪路一段１６８巷３２６號","OBJECTID":380712},"geometry":{"x":168777.63999999966,"y":2548863.6600000001}},{"attributes":{"ID":380723,"DIS_CODE":0,"TOWNNAME":"安南區","LI":"海東里","LIN":"9鄰","STREET":"海佃路","SECT":"二段","MAREA":" ","LANE":"４６１巷","ALLEY":" ","HOUSE_NO":"４６號","E_COORD97":166583.84,"N_COORD97":2549054.4399999999,"ADDRESS":"海佃路二段４６１巷４６號","OBJECTID":380713},"geometry":{"x":166583.84000000078,"y":2549054.4399999995}},{"attributes":{"ID":380724,"DIS_CODE":0,"TOWNNAME":"東區","LI":"德光里","LIN":"9鄰","STREET":"崇學路","SECT":" ","MAREA":" ","LANE":"５９巷","ALLEY":" ","HOUSE_NO":"２號","E_COORD97":170073.79999999999,"N_COORD97":2542105.29,"ADDRESS":"崇學路５９巷２號","OBJECTID":380714},"geometry":{"x":170073.79999999981,"y":2542105.2899999991}},{"attributes":{"ID":380725,"DIS_CODE":0,"TOWNNAME":"仁德區","LI":"仁德里","LIN":"9鄰","STREET":"中正路","SECT":"二段","MAREA":" ","LANE":"１１９１巷","ALLEY":" ","HOUSE_NO":"８號","E_COORD97":173254.818528,"N_COORD97":2541151.29098,"ADDRESS":"中正路二段１１９１巷８號","OBJECTID":380715},"geometry":{"x":173254.8185280012,"y":2541151.2909850013}},{"attributes":{"ID":380726,"DIS_CODE":0,"TOWNNAME":"仁德區","LI":"太子里","LIN":"9鄰","STREET":"太子路","SECT":" ","MAREA":" ","LANE":"１５０巷","ALLEY":" ","HOUSE_NO":"２號","E_COORD97":174439.29000000001,"N_COORD97":2543545.2599999998,"ADDRESS":"太子路１５０巷２號","OBJECTID":380716},"geometry":{"x":174439.29000000004,"y":2543545.2600000016}},{"attributes":{"ID":380727,"DIS_CODE":0,"TOWNNAME":"仁德區","LI":"二行里","LIN":"9鄰","STREET":"中正西路","SECT":" ","MAREA":" ","LANE":"２１１巷","ALLEY":" ","HOUSE_NO":"１８號","E_COORD97":170057.26000000001,"N_COORD97":2535340.25,"ADDRESS":"中正西路２１１巷１８號","OBJECTID":380717},"geometry":{"x":170057.25999999885,"y":2535340.2500000019}},{"attributes":{"ID":380728,"DIS_CODE":0,"TOWNNAME":"南區","LI":"明亮里","LIN":"9鄰","STREET":"新都路","SECT":" ","MAREA":" ","LANE":"４６２巷","ALLEY":" ","HOUSE_NO":"１號","E_COORD97":167253.59,"N_COORD97":2540898.6200000001,"ADDRESS":"新都路４６２巷１號","OBJECTID":380718},"geometry":{"x":167253.59000000078,"y":2540898.6200000048}},{"attributes":{"ID":380729,"DIS_CODE":0,"TOWNNAME":"南區","LI":"明亮里","LIN":"9鄰","STREET":"新都路","SECT":" ","MAREA":" ","LANE":"４６２巷","ALLEY":" ","HOUSE_NO":"５號","E_COORD97":167233.20000000001,"N_COORD97":2540907.3900000001,"ADDRESS":"新都路４６２巷５號","OBJECTID":380719},"geometry":{"x":167233.20000000019,"y":2540907.3900000025}},{"attributes":{"ID":380730,"DIS_CODE":0,"TOWNNAME":"安南區","LI":"海東里","LIN":"9鄰","STREET":"海佃路","SECT":"二段","MAREA":" ","LANE":"４６１巷","ALLEY":" ","HOUSE_NO":"４２號","E_COORD97":166595.84338100001,"N_COORD97":2549055.9728100002,"ADDRESS":"海佃路二段４６１巷４２號","OBJECTID":380720},"geometry":{"x":166595.84338099975,"y":2549055.9728080016}},{"attributes":{"ID":380731,"DIS_CODE":0,"TOWNNAME":"安南區","LI":"海東里","LIN":"9鄰","STREET":"海佃路","SECT":"二段","MAREA":" ","LANE":"４８３巷","ALLEY":" ","HOUSE_NO":"３９號","E_COORD97":166584.19537599999,"N_COORD97":2549074.17613,"ADDRESS":"海佃路二段４８３巷３９號","OBJECTID":380721},"geometry":{"x":166584.1953760013,"y":2549074.1761310007}},{"attributes":{"ID":380732,"DIS_CODE":0,"TOWNNAME":"安南區","LI":"海東里","LIN":"9鄰","STREET":"海佃路","SECT":"二段","MAREA":" ","LANE":"４８３巷","ALLEY":" ","HOUSE_NO":"４１號","E_COORD97":166578.90082800001,"N_COORD97":2549072.69447,"ADDRESS":"海佃路二段４８３巷４１號","OBJECTID":380722},"geometry":{"x":166578.90082800109,"y":2549072.6944660041}},{"attributes":{"ID":380733,"DIS_CODE":0,"TOWNNAME":"安南區","LI":"海東里","LIN":"9鄰","STREET":"海佃路","SECT":"二段","MAREA":" ","LANE":"４８３巷","ALLEY":" ","HOUSE_NO":"４３號","E_COORD97":166575.300536,"N_COORD97":2549070.5778000001,"ADDRESS":"海佃路二段４８３巷４３號","OBJECTID":380723},"geometry":{"x":166575.30053600017,"y":2549070.5778000019}},{"attributes":{"ID":380734,"DIS_CODE":0,"TOWNNAME":"南區","LI":"明亮里","LIN":"9鄰","STREET":"新都路","SECT":" ","MAREA":" ","LANE":"４６２巷","ALLEY":" ","HOUSE_NO":"７號","E_COORD97":167255.47,"N_COORD97":2540903.9500000002,"ADDRESS":"新都路４６２巷７號","OBJECTID":380724},"geometry":{"x":167255.4700000016,"y":2540903.9499999993}},{"attributes":{"ID":380735,"DIS_CODE":0,"TOWNNAME":"南區","LI":"明亮里","LIN":"9鄰","STREET":"新都路","SECT":" ","MAREA":" ","LANE":"４６２巷","ALLEY":" ","HOUSE_NO":"９號","E_COORD97":167256.72,"N_COORD97":2540909.27,"ADDRESS":"新都路４６２巷９號","OBJECTID":380725},"geometry":{"x":167256.71999999974,"y":2540909.2699999996}},{"attributes":{"ID":380736,"DIS_CODE":0,"TOWNNAME":"南區","LI":"明亮里","LIN":"9鄰","STREET":"新都路","SECT":" ","MAREA":" ","LANE":"４６２巷","ALLEY":" ","HOUSE_NO":"１１號","E_COORD97":167235.70999999999,"N_COORD97":2540913.0299999998,"ADDRESS":"新都路４６２巷１１號","OBJECTID":380726},"geometry":{"x":167235.71000000089,"y":2540913.0299999993}},{"attributes":{"ID":380737,"DIS_CODE":0,"TOWNNAME":"南區","LI":"明亮里","LIN":"9鄰","STREET":"新都路","SECT":" ","MAREA":" ","LANE":"４６２巷","ALLEY":" ","HOUSE_NO":"１３號","E_COORD97":167238.53,"N_COORD97":2540922.1200000001,"ADDRESS":"新都路４６２巷１３號","OBJECTID":380727},"geometry":{"x":167238.52999999933,"y":2540922.1199999992}},{"attributes":{"ID":380738,"DIS_CODE":0,"TOWNNAME":"南區","LI":"明亮里","LIN":"9鄰","STREET":"新都路","SECT":" ","MAREA":" ","LANE":"４６２巷","ALLEY":" ","HOUSE_NO":"１５號","E_COORD97":167258.60999999999,"N_COORD97":2540916.79,"ADDRESS":"新都路４６２巷１５號","OBJECTID":380728},"geometry":{"x":167258.6100000022,"y":2540916.790000001}},{"attributes":{"ID":380739,"DIS_CODE":0,"TOWNNAME":"中西區","LI":"銀同里","LIN":"9鄰","STREET":"開山路","SECT":" ","MAREA":" ","LANE":"３５巷","ALLEY":" ","HOUSE_NO":"２號","E_COORD97":168651.06,"N_COORD97":2543498.3700000001,"ADDRESS":"開山路３５巷２號","OBJECTID":380729},"geometry":{"x":168651.05999999959,"y":2543498.3700000029}},{"attributes":{"ID":380740,"DIS_CODE":0,"TOWNNAME":"中西區","LI":"大南里","LIN":"9鄰","STREET":"南門路","SECT":" ","MAREA":" ","LANE":"４８巷","ALLEY":" ","HOUSE_NO":"２號","E_COORD97":168378.41,"N_COORD97":2542880.7400000002,"ADDRESS":"南門路４８巷２號","OBJECTID":380730},"geometry":{"x":168378.40999999922,"y":2542880.7400000021}},{"attributes":{"ID":380741,"DIS_CODE":0,"TOWNNAME":"中西區","LI":"大南里","LIN":"9鄰","STREET":"南門路","SECT":" ","MAREA":" ","LANE":"４８巷","ALLEY":" ","HOUSE_NO":"２０號","E_COORD97":168286.44,"N_COORD97":2542899.1000000001,"ADDRESS":"南門路４８巷２０號","OBJECTID":380731},"geometry":{"x":168286.44000000041,"y":2542899.1000000015}},{"attributes":{"ID":380742,"DIS_CODE":0,"TOWNNAME":"南區","LI":"郡南里","LIN":"9鄰","STREET":"永成路","SECT":"三段","MAREA":" ","LANE":"１３７巷","ALLEY":" ","HOUSE_NO":"３７號","E_COORD97":167389.17000000001,"N_COORD97":2540737.6800000002,"ADDRESS":"永成路三段１３７巷３７號","OBJECTID":380732},"geometry":{"x":167389.16999999993,"y":2540737.6800000034}},{"attributes":{"ID":380743,"DIS_CODE":0,"TOWNNAME":"南區","LI":"郡南里","LIN":"9鄰","STREET":"永成路","SECT":"三段","MAREA":" ","LANE":"１３７巷","ALLEY":" ","HOUSE_NO":"３９號","E_COORD97":167387.85000000001,"N_COORD97":2540742.6200000001,"ADDRESS":"永成路三段１３７巷３９號","OBJECTID":380733},"geometry":{"x":167387.84999999963,"y":2540742.6200000048}},{"attributes":{"ID":380744,"DIS_CODE":0,"TOWNNAME":"南區","LI":"郡南里","LIN":"9鄰","STREET":"永成路","SECT":"三段","MAREA":" ","LANE":"１３７巷","ALLEY":" ","HOUSE_NO":"４１號","E_COORD97":167387.85000000001,"N_COORD97":2540746.5699999998,"ADDRESS":"永成路三段１３７巷４１號","OBJECTID":380734},"geometry":{"x":167387.84999999963,"y":2540746.5700000022}},{"attributes":{"ID":380745,"DIS_CODE":0,"TOWNNAME":"南區","LI":"郡南里","LIN":"9鄰","STREET":"永成路","SECT":"三段","MAREA":" ","LANE":"１３７巷","ALLEY":" ","HOUSE_NO":"４３號","E_COORD97":167390.85000000001,"N_COORD97":2540753.6499999999,"ADDRESS":"永成路三段１３７巷４３號","OBJECTID":380735},"geometry":{"x":167390.85000000056,"y":2540753.6500000004}},{"attributes":{"ID":380746,"DIS_CODE":0,"TOWNNAME":"南區","LI":"郡南里","LIN":"9鄰","STREET":"永成路","SECT":"三段","MAREA":" ","LANE":"１３７巷","ALLEY":" ","HOUSE_NO":"４５號","E_COORD97":167389.87,"N_COORD97":2540758.8100000001,"ADDRESS":"永成路三段１３７巷４５號","OBJECTID":380736},"geometry":{"x":167389.87000000011,"y":2540758.8100000024}},{"attributes":{"ID":380747,"DIS_CODE":0,"TOWNNAME":"南區","LI":"郡南里","LIN":"9鄰","STREET":"永成路","SECT":"三段","MAREA":" ","LANE":"１３７巷","ALLEY":" ","HOUSE_NO":"４７號","E_COORD97":167391.82000000001,"N_COORD97":2540762.71,"ADDRESS":"永成路三段１３７巷４７號","OBJECTID":380737},"geometry":{"x":167391.82000000123,"y":2540762.7100000028}},{"attributes":{"ID":380748,"DIS_CODE":0,"TOWNNAME":"南區","LI":"郡南里","LIN":"9鄰","STREET":"永成路","SECT":"三段","MAREA":" ","LANE":"１３７巷","ALLEY":" ","HOUSE_NO":"４９號","E_COORD97":167390.51999999999,"N_COORD97":2540769.5,"ADDRESS":"永成路三段１３７巷４９號","OBJECTID":380738},"geometry":{"x":167390.52000000142,"y":2540769.5000000037}},{"attributes":{"ID":380749,"DIS_CODE":0,"TOWNNAME":"南區","LI":"開南里","LIN":"9鄰","STREET":"中華西路","SECT":"一段","MAREA":" ","LANE":"２巷","ALLEY":" ","HOUSE_NO":"１３號","E_COORD97":166479.60999999999,"N_COORD97":2540486.1400000001,"ADDRESS":"中華西路一段２巷１３號","OBJECTID":380739},"geometry":{"x":166479.61000000034,"y":2540486.1400000006}},{"attributes":{"ID":380750,"DIS_CODE":0,"TOWNNAME":"永康區","LI":"北灣里","LIN":"9鄰","STREET":"大灣七街","SECT":" ","MAREA":" ","LANE":"４５巷","ALLEY":" ","HOUSE_NO":"７號","E_COORD97":175035.45999999999,"N_COORD97":2545635.9500000002,"ADDRESS":"大灣七街４５巷７號","OBJECTID":380740},"geometry":{"x":175035.46000000089,"y":2545635.9499999993}},{"attributes":{"ID":380751,"DIS_CODE":0,"TOWNNAME":"南區","LI":"開南里","LIN":"9鄰","STREET":"中華西路","SECT":"一段","MAREA":" ","LANE":"２巷","ALLEY":" ","HOUSE_NO":"１４號","E_COORD97":166484.35000000001,"N_COORD97":2540486,"ADDRESS":"中華西路一段２巷１４號","OBJECTID":380741},"geometry":{"x":166484.34999999963,"y":2540486.0000000019}},{"attributes":{"ID":380752,"DIS_CODE":0,"TOWNNAME":"南區","LI":"開南里","LIN":"9鄰","STREET":"中華西路","SECT":"一段","MAREA":" ","LANE":"２巷","ALLEY":" ","HOUSE_NO":"１５號","E_COORD97":166502.48000000001,"N_COORD97":2540486.7000000002,"ADDRESS":"中華西路一段２巷１５號","OBJECTID":380742},"geometry":{"x":166502.48000000138,"y":2540486.7000000011}},{"attributes":{"ID":380753,"DIS_CODE":0,"TOWNNAME":"南區","LI":"開南里","LIN":"9鄰","STREET":"中華西路","SECT":"一段","MAREA":" ","LANE":"２巷","ALLEY":" ","HOUSE_NO":"１６號","E_COORD97":166507.78,"N_COORD97":2540486.2799999998,"ADDRESS":"中華西路一段２巷１６號","OBJECTID":380743},"geometry":{"x":166507.78000000026,"y":2540486.2800000012}},{"attributes":{"ID":380754,"DIS_CODE":0,"TOWNNAME":"南區","LI":"開南里","LIN":"9鄰","STREET":"中華西路","SECT":"一段","MAREA":" ","LANE":"２巷","ALLEY":" ","HOUSE_NO":"１號","E_COORD97":166331.39000000001,"N_COORD97":2540478.5800000001,"ADDRESS":"中華西路一段２巷１號","OBJECTID":380744},"geometry":{"x":166331.38999999966,"y":2540478.5800000019}},{"attributes":{"ID":380755,"DIS_CODE":0,"TOWNNAME":"南區","LI":"開南里","LIN":"9鄰","STREET":"中華西路","SECT":"一段","MAREA":" ","LANE":"２巷","ALLEY":" ","HOUSE_NO":"２號","E_COORD97":166338.28,"N_COORD97":2540478.7999999998,"ADDRESS":"中華西路一段２巷２號","OBJECTID":380745},"geometry":{"x":166338.28000000026,"y":2540478.8000000007}},{"attributes":{"ID":380756,"DIS_CODE":0,"TOWNNAME":"南區","LI":"開南里","LIN":"9鄰","STREET":"中華西路","SECT":"一段","MAREA":" ","LANE":"２巷","ALLEY":" ","HOUSE_NO":"３號","E_COORD97":166349.39000000001,"N_COORD97":2540478.5699999998,"ADDRESS":"中華西路一段２巷３號","OBJECTID":380746},"geometry":{"x":166349.3900000006,"y":2540478.5700000022}},{"attributes":{"ID":380757,"DIS_CODE":0,"TOWNNAME":"南區","LI":"開南里","LIN":"9鄰","STREET":"中華西路","SECT":"一段","MAREA":" ","LANE":"２巷","ALLEY":" ","HOUSE_NO":"５號","E_COORD97":166366.60000000001,"N_COORD97":2540478.6899999999,"ADDRESS":"中華西路一段２巷５號","OBJECTID":380747},"geometry":{"x":166366.60000000056,"y":2540478.6899999995}},{"attributes":{"ID":380758,"DIS_CODE":0,"TOWNNAME":"南區","LI":"開南里","LIN":"9鄰","STREET":"中華西路","SECT":"一段","MAREA":" ","LANE":"２巷","ALLEY":" ","HOUSE_NO":"６號","E_COORD97":166374.48000000001,"N_COORD97":2540479.02,"ADDRESS":"中華西路一段２巷６號","OBJECTID":380748},"geometry":{"x":166374.48000000045,"y":2540479.0199999996}},{"attributes":{"ID":380759,"DIS_CODE":0,"TOWNNAME":"南區","LI":"開南里","LIN":"9鄰","STREET":"中華西路","SECT":"一段","MAREA":" ","LANE":"２巷","ALLEY":" ","HOUSE_NO":"７號","E_COORD97":166399.97,"N_COORD97":2540478.1299999999,"ADDRESS":"中華西路一段２巷７號","OBJECTID":380749},"geometry":{"x":166399.97000000067,"y":2540478.129999999}},{"attributes":{"ID":380760,"DIS_CODE":0,"TOWNNAME":"南區","LI":"開南里","LIN":"9鄰","STREET":"中華西路","SECT":"一段","MAREA":" ","LANE":"２巷","ALLEY":" ","HOUSE_NO":"８號","E_COORD97":166406.63,"N_COORD97":2540478.2400000002,"ADDRESS":"中華西路一段２巷８號","OBJECTID":380750},"geometry":{"x":166406.62999999989,"y":2540478.2400000002}},{"attributes":{"ID":380761,"DIS_CODE":0,"TOWNNAME":"南區","LI":"開南里","LIN":"9鄰","STREET":"中華西路","SECT":"一段","MAREA":" ","LANE":"２巷","ALLEY":" ","HOUSE_NO":"９號","E_COORD97":166417.73999999999,"N_COORD97":2540477.9100000001,"ADDRESS":"中華西路一段２巷９號","OBJECTID":380751},"geometry":{"x":166417.74000000022,"y":2540477.9100000001}},{"attributes":{"ID":380762,"DIS_CODE":0,"TOWNNAME":"永康區","LI":"東橋里","LIN":"9鄰","STREET":"中山南路","SECT":" ","MAREA":" ","LANE":"２３１巷","ALLEY":" ","HOUSE_NO":"５２號","E_COORD97":171542.32000000001,"N_COORD97":2546271.6299999999,"ADDRESS":"中山南路２３１巷５２號","OBJECTID":380752},"geometry":{"x":171542.3200000003,"y":2546271.6300000008}},{"attributes":{"ID":380763,"DIS_CODE":0,"TOWNNAME":"永康區","LI":"東灣里","LIN":"9鄰","STREET":"立興街","SECT":" ","MAREA":" ","LANE":"２８巷","ALLEY":" ","HOUSE_NO":"２２號","E_COORD97":174689.92999999999,"N_COORD97":2544918.48,"ADDRESS":"立興街２８巷２２號","OBJECTID":380753},"geometry":{"x":174689.93000000063,"y":2544918.4800000004}},{"attributes":{"ID":380764,"DIS_CODE":0,"TOWNNAME":"永康區","LI":"埔園里","LIN":"9鄰","STREET":"中山路","SECT":" ","MAREA":" ","LANE":"１０１巷","ALLEY":" ","HOUSE_NO":"２號","E_COORD97":173720.59,"N_COORD97":2547816.0299999998,"ADDRESS":"中山路１０１巷２號","OBJECTID":380754},"geometry":{"x":173720.59000000078,"y":2547816.0299999993}},{"attributes":{"ID":380765,"DIS_CODE":0,"TOWNNAME":"東區","LI":"路東里","LIN":"9鄰","STREET":"林森路","SECT":"一段","MAREA":" ","LANE":"５８巷","ALLEY":" ","HOUSE_NO":"２８號","E_COORD97":169372.47,"N_COORD97":2542327.5600000001,"ADDRESS":"林森路一段５８巷２８號","OBJECTID":380755},"geometry":{"x":169372.46999999974,"y":2542327.5600000005}},{"attributes":{"ID":380766,"DIS_CODE":0,"TOWNNAME":"東區","LI":"路東里","LIN":"9鄰","STREET":"林森路","SECT":"一段","MAREA":" ","LANE":"５８巷","ALLEY":" ","HOUSE_NO":"２９號","E_COORD97":169396.31,"N_COORD97":2542338.6800000002,"ADDRESS":"林森路一段５８巷２９號","OBJECTID":380756},"geometry":{"x":169396.31000000052,"y":2542338.6800000016}},{"attributes":{"ID":380767,"DIS_CODE":0,"TOWNNAME":"東區","LI":"路東里","LIN":"9鄰","STREET":"林森路","SECT":"一段","MAREA":" ","LANE":"５８巷","ALLEY":" ","HOUSE_NO":"３０號","E_COORD97":169383.48000000001,"N_COORD97":2542326.9300000002,"ADDRESS":"林森路一段５８巷３０號","OBJECTID":380757},"geometry":{"x":169383.47999999952,"y":2542326.9300000016}},{"attributes":{"ID":380768,"DIS_CODE":0,"TOWNNAME":"東區","LI":"路東里","LIN":"9鄰","STREET":"林森路","SECT":"一段","MAREA":" ","LANE":"５８巷","ALLEY":" ","HOUSE_NO":"３１號","E_COORD97":169401.12,"N_COORD97":2542337.4300000002,"ADDRESS":"林森路一段５８巷３１號","OBJECTID":380758},"geometry":{"x":169401.12000000104,"y":2542337.4300000016}},{"attributes":{"ID":380769,"DIS_CODE":0,"TOWNNAME":"永康區","LI":"西勢里","LIN":"9鄰","STREET":"富強路","SECT":"一段","MAREA":" ","LANE":"３２０巷","ALLEY":" ","HOUSE_NO":"１１號","E_COORD97":175773.57999999999,"N_COORD97":2546713.8599999999,"ADDRESS":"富強路一段３２０巷１１號","OBJECTID":380759},"geometry":{"x":175773.58000000101,"y":2546713.8600000013}},{"attributes":{"ID":380770,"DIS_CODE":0,"TOWNNAME":"永康區","LI":"甲頂里","LIN":"9鄰","STREET":"中華路","SECT":" ","MAREA":" ","LANE":"８９９巷","ALLEY":" ","HOUSE_NO":"１２號","E_COORD97":170366.98999999999,"N_COORD97":2546716.5,"ADDRESS":"中華路８９９巷１２號","OBJECTID":380760},"geometry":{"x":170366.99000000115,"y":2546716.5000000019}},{"attributes":{"ID":380771,"DIS_CODE":0,"TOWNNAME":"永康區","LI":"西灣里","LIN":"9鄰","STREET":"大灣五街","SECT":" ","MAREA":" ","LANE":"１４１巷","ALLEY":" ","HOUSE_NO":"３２號","E_COORD97":174423.14000000001,"N_COORD97":2545238.0099999998,"ADDRESS":"大灣五街１４１巷３２號","OBJECTID":380761},"geometry":{"x":174423.14000000153,"y":2545238.0100000016}},{"attributes":{"ID":380772,"DIS_CODE":0,"TOWNNAME":"東區","LI":"崇善里","LIN":"9鄰","STREET":"崇善五街","SECT":" ","MAREA":" ","LANE":"７巷","ALLEY":" ","HOUSE_NO":"８號","E_COORD97":171060.81,"N_COORD97":2541624.8199999998,"ADDRESS":"崇善五街７巷８號","OBJECTID":380762},"geometry":{"x":171060.81000000052,"y":2541624.8200000003}},{"attributes":{"ID":380773,"DIS_CODE":0,"TOWNNAME":"南區","LI":"明興里","LIN":"9鄰","STREET":"金華路","SECT":"一段","MAREA":" ","LANE":"１１６巷","ALLEY":" ","HOUSE_NO":"２９號","E_COORD97":166994.87,"N_COORD97":2540551.1600000001,"ADDRESS":"金華路一段１１６巷２９號","OBJECTID":380763},"geometry":{"x":166994.87000000011,"y":2540551.1600000001}},{"attributes":{"ID":380774,"DIS_CODE":0,"TOWNNAME":"南區","LI":"明興里","LIN":"9鄰","STREET":"金華路","SECT":"一段","MAREA":" ","LANE":"１１６巷","ALLEY":" ","HOUSE_NO":"３１號","E_COORD97":167000.10999999999,"N_COORD97":2540550.8500000001,"ADDRESS":"金華路一段１１６巷３１號","OBJECTID":380764},"geometry":{"x":167000.11000000034,"y":2540550.8500000015}},{"attributes":{"ID":380775,"DIS_CODE":0,"TOWNNAME":"南區","LI":"明興里","LIN":"9鄰","STREET":"金華路","SECT":"一段","MAREA":" ","LANE":"１１６巷","ALLEY":" ","HOUSE_NO":"３３號","E_COORD97":167005.51000000001,"N_COORD97":2540551.9500000002,"ADDRESS":"金華路一段１１６巷３３號","OBJECTID":380765},"geometry":{"x":167005.50999999978,"y":2540551.950000003}},{"attributes":{"ID":380776,"DIS_CODE":0,"TOWNNAME":"安南區","LI":"青草里","LIN":"9鄰","STREET":"青砂街","SECT":"二段","MAREA":" ","LANE":"２９９巷","ALLEY":" ","HOUSE_NO":"２號之１","E_COORD97":159203.76999999999,"N_COORD97":2553079.1899999999,"ADDRESS":"青砂街二段２９９巷２號之１","OBJECTID":380766},"geometry":{"x":159203.76999999955,"y":2553079.1900000013}},{"attributes":{"ID":380777,"DIS_CODE":0,"TOWNNAME":"安南區","LI":"淵西里","LIN":"9鄰","STREET":"安中路","SECT":"四段","MAREA":" ","LANE":"３０６巷","ALLEY":" ","HOUSE_NO":"４５號","E_COORD97":164578.01000000001,"N_COORD97":2550300.8500000001,"ADDRESS":"安中路四段３０６巷４５號","OBJECTID":380767},"geometry":{"x":164578.00999999978,"y":2550300.8500000015}},{"attributes":{"ID":380778,"DIS_CODE":0,"TOWNNAME":"仁德區","LI":"土庫里","LIN":"9鄰","STREET":"土庫路","SECT":" ","MAREA":" ","LANE":"５３巷","ALLEY":" ","HOUSE_NO":"２號","E_COORD97":174240.47,"N_COORD97":2543324.5,"ADDRESS":"土庫路５３巷２號","OBJECTID":380768},"geometry":{"x":174240.47000000067,"y":2543324.5}},{"attributes":{"ID":380779,"DIS_CODE":0,"TOWNNAME":"中西區","LI":"三民里","LIN":"9鄰","STREET":"中山路","SECT":" ","MAREA":" ","LANE":"７９巷","ALLEY":" ","HOUSE_NO":"１號","E_COORD97":168676.06,"N_COORD97":2543864.1099999999,"ADDRESS":"中山路７９巷１號","OBJECTID":380769},"geometry":{"x":168676.06000000052,"y":2543864.1100000013}},{"attributes":{"ID":380780,"DIS_CODE":0,"TOWNNAME":"中西區","LI":"三民里","LIN":"9鄰","STREET":"中山路","SECT":" ","MAREA":" ","LANE":"７９巷","ALLEY":" ","HOUSE_NO":"３號","E_COORD97":168673.20999999999,"N_COORD97":2543866.4100000001,"ADDRESS":"中山路７９巷３號","OBJECTID":380770},"geometry":{"x":168673.21000000089,"y":2543866.410000002}},{"attributes":{"ID":380781,"DIS_CODE":0,"TOWNNAME":"中西區","LI":"五妃里","LIN":"9鄰","STREET":"南寧街","SECT":" ","MAREA":" ","LANE":"３７巷","ALLEY":" ","HOUSE_NO":"１號","E_COORD97":168448.76999999999,"N_COORD97":2542769.1299999999,"ADDRESS":"南寧街３７巷１號","OBJECTID":380771},"geometry":{"x":168448.77000000048,"y":2542769.1300000008}},{"attributes":{"ID":380782,"DIS_CODE":0,"TOWNNAME":"中西區","LI":"五妃里","LIN":"9鄰","STREET":"南寧街","SECT":" ","MAREA":" ","LANE":"３７巷","ALLEY":" ","HOUSE_NO":"２號","E_COORD97":168427.04000000001,"N_COORD97":2542782.1200000001,"ADDRESS":"南寧街３７巷２號","OBJECTID":380772},"geometry":{"x":168427.04000000097,"y":2542782.120000001}},{"attributes":{"ID":380783,"DIS_CODE":0,"TOWNNAME":"中西區","LI":"五妃里","LIN":"9鄰","STREET":"南寧街","SECT":" ","MAREA":" ","LANE":"３７巷","ALLEY":" ","HOUSE_NO":"３號","E_COORD97":168451.32999999999,"N_COORD97":2542762.5,"ADDRESS":"南寧街３７巷３號","OBJECTID":380773},"geometry":{"x":168451.33000000007,"y":2542762.5}},{"attributes":{"ID":380784,"DIS_CODE":0,"TOWNNAME":"中西區","LI":"五妃里","LIN":"9鄰","STREET":"南寧街","SECT":" ","MAREA":" ","LANE":"３７巷","ALLEY":" ","HOUSE_NO":"５號","E_COORD97":168443.54000000001,"N_COORD97":2542757.5299999998,"ADDRESS":"南寧街３７巷５號","OBJECTID":380774},"geometry":{"x":168443.53999999911,"y":2542757.5299999993}},{"attributes":{"ID":380785,"DIS_CODE":0,"TOWNNAME":"東區","LI":"崇善里","LIN":"9鄰","STREET":"仁和路","SECT":" ","MAREA":" ","LANE":"７０巷","ALLEY":" ","HOUSE_NO":"３８號","E_COORD97":171029.92000000001,"N_COORD97":2541827.2799999998,"ADDRESS":"仁和路７０巷３８號","OBJECTID":380775},"geometry":{"x":171029.92000000086,"y":2541827.2799999993}},{"attributes":{"ID":380786,"DIS_CODE":0,"TOWNNAME":"東區","LI":"崇善里","LIN":"9鄰","STREET":"仁和路","SECT":" ","MAREA":" ","LANE":"７０巷","ALLEY":" ","HOUSE_NO":"２９號","E_COORD97":170964.75,"N_COORD97":2541825.6099999999,"ADDRESS":"仁和路７０巷２９號","OBJECTID":380776},"geometry":{"x":170964.75000000093,"y":2541825.6099999994}},{"attributes":{"ID":380787,"DIS_CODE":0,"TOWNNAME":"新化區","LI":"東榮里","LIN":"9鄰","STREET":"信義路","SECT":" ","MAREA":" ","LANE":"１３１巷","ALLEY":" ","HOUSE_NO":"１０６號","E_COORD97":179642.42999999999,"N_COORD97":2548253.25,"ADDRESS":"信義路１３１巷１０６號","OBJECTID":380777},"geometry":{"x":179642.43000000156,"y":2548253.25}},{"attributes":{"ID":380788,"DIS_CODE":0,"TOWNNAME":"新化區","LI":"東榮里","LIN":"9鄰","STREET":"信義路","SECT":" ","MAREA":" ","LANE":"１３１巷","ALLEY":" ","HOUSE_NO":"６８號","E_COORD97":179620.48000000001,"N_COORD97":2548320.2400000002,"ADDRESS":"信義路１３１巷６８號","OBJECTID":380778},"geometry":{"x":179620.48000000045,"y":2548320.2400000002}},{"attributes":{"ID":380789,"DIS_CODE":0,"TOWNNAME":"新化區","LI":"東榮里","LIN":"9鄰","STREET":"信義路","SECT":" ","MAREA":" ","LANE":"１３１巷","ALLEY":" ","HOUSE_NO":"１０８號","E_COORD97":179649.73000000001,"N_COORD97":2548254.25,"ADDRESS":"信義路１３１巷１０８號","OBJECTID":380779},"geometry":{"x":179649.73000000231,"y":2548254.2500000019}},{"attributes":{"ID":380790,"DIS_CODE":0,"TOWNNAME":"東區","LI":"龍山里","LIN":"9鄰","STREET":"東門路","SECT":"二段","MAREA":" ","LANE":"１３４巷","ALLEY":" ","HOUSE_NO":"２號","E_COORD97":170106.01000000001,"N_COORD97":2542923.4900000002,"ADDRESS":"東門路二段１３４巷２號","OBJECTID":380780},"geometry":{"x":170106.00999999978,"y":2542923.4900000021}},{"attributes":{"ID":380791,"DIS_CODE":0,"TOWNNAME":"東區","LI":"龍山里","LIN":"9鄰","STREET":"東門路","SECT":"二段","MAREA":" ","LANE":"１３４巷","ALLEY":" ","HOUSE_NO":"３號","E_COORD97":170125.26000000001,"N_COORD97":2542906.6600000001,"ADDRESS":"東門路二段１３４巷３號","OBJECTID":380781},"geometry":{"x":170125.26000000164,"y":2542906.6600000001}},{"attributes":{"ID":380792,"DIS_CODE":0,"TOWNNAME":"東區","LI":"龍山里","LIN":"9鄰","STREET":"東門路","SECT":"二段","MAREA":" ","LANE":"１３４巷","ALLEY":" ","HOUSE_NO":"２２號","E_COORD97":170074.98999999999,"N_COORD97":2542898.2400000002,"ADDRESS":"東門路二段１３４巷２２號","OBJECTID":380782},"geometry":{"x":170074.99000000209,"y":2542898.2400000021}},{"attributes":{"ID":380793,"DIS_CODE":0,"TOWNNAME":"東區","LI":"龍山里","LIN":"9鄰","STREET":"東門路","SECT":"二段","MAREA":" ","LANE":"１３４巷","ALLEY":" ","HOUSE_NO":"２３號","E_COORD97":170119.41,"N_COORD97":2542873.25,"ADDRESS":"東門路二段１３４巷２３號","OBJECTID":380783},"geometry":{"x":170119.41000000201,"y":2542873.2500000037}},{"attributes":{"ID":380794,"DIS_CODE":0,"TOWNNAME":"東區","LI":"龍山里","LIN":"9鄰","STREET":"東門路","SECT":"二段","MAREA":" ","LANE":"１５８巷","ALLEY":" ","HOUSE_NO":"２號","E_COORD97":170145.70999999999,"N_COORD97":2542890.6000000001,"ADDRESS":"東門路二段１５８巷２號","OBJECTID":380784},"geometry":{"x":170145.70999999996,"y":2542890.5999999978}},{"attributes":{"ID":380795,"DIS_CODE":0,"TOWNNAME":"東區","LI":"龍山里","LIN":"9鄰","STREET":"東門路","SECT":"二段","MAREA":" ","LANE":"１５８巷","ALLEY":" ","HOUSE_NO":"６號","E_COORD97":170142.62,"N_COORD97":2542882.7000000002,"ADDRESS":"東門路二段１５８巷６號","OBJECTID":380785},"geometry":{"x":170142.62000000011,"y":2542882.6999999974}},{"attributes":{"ID":380796,"DIS_CODE":0,"TOWNNAME":"永康區","LI":"蔦松里","LIN":"9鄰","STREET":"正北三路","SECT":" ","MAREA":" ","LANE":"１３０巷","ALLEY":" ","HOUSE_NO":"１６號","E_COORD97":174459.88,"N_COORD97":2550065.73,"ADDRESS":"正北三路１３０巷１６號","OBJECTID":380786},"geometry":{"x":174459.88000000082,"y":2550065.7300000023}},{"attributes":{"ID":380797,"DIS_CODE":0,"TOWNNAME":"永康區","LI":"新樹里","LIN":"9鄰","STREET":"富強路","SECT":"二段","MAREA":" ","LANE":"５６巷","ALLEY":" ","HOUSE_NO":"８６號","E_COORD97":175788,"N_COORD97":2547088.5499999998,"ADDRESS":"富強路二段５６巷８６號","OBJECTID":380787},"geometry":{"x":175788.00000000093,"y":2547088.5500000007}},{"attributes":{"ID":380798,"DIS_CODE":0,"TOWNNAME":"安南區","LI":"安順里","LIN":"9鄰","STREET":"安和路","SECT":"四段","MAREA":" ","LANE":"１３１巷","ALLEY":" ","HOUSE_NO":"２９號","E_COORD97":169850.01999999999,"N_COORD97":2550411.02,"ADDRESS":"安和路四段１３１巷２９號","OBJECTID":380788},"geometry":{"x":169850.01999999955,"y":2550411.0200000033}},{"attributes":{"ID":380799,"DIS_CODE":0,"TOWNNAME":"安南區","LI":"安順里","LIN":"9鄰","STREET":"安和路","SECT":"四段","MAREA":" ","LANE":"１３１巷","ALLEY":" ","HOUSE_NO":"３１號","E_COORD97":169845.67999999999,"N_COORD97":2550411.71,"ADDRESS":"安和路四段１３１巷３１號","OBJECTID":380789},"geometry":{"x":169845.6799999997,"y":2550411.7100000028}},{"attributes":{"ID":380800,"DIS_CODE":0,"TOWNNAME":"安南區","LI":"南興里","LIN":"9鄰","STREET":"安興街","SECT":" ","MAREA":" ","LANE":"６４０巷","ALLEY":" ","HOUSE_NO":"３９號","E_COORD97":163602.85000000001,"N_COORD97":2552502.7400000002,"ADDRESS":"安興街６４０巷３９號","OBJECTID":380790},"geometry":{"x":163602.84999999963,"y":2552502.7400000021}},{"attributes":{"ID":380801,"DIS_CODE":0,"TOWNNAME":"安南區","LI":"總頭里","LIN":"9鄰","STREET":"長溪路","SECT":"二段","MAREA":" ","LANE":"５８１巷","ALLEY":" ","HOUSE_NO":"３８號之１","E_COORD97":168159.23000000001,"N_COORD97":2550630.1800000002,"ADDRESS":"長溪路二段５８１巷３８號之１","OBJECTID":380791},"geometry":{"x":168159.23000000045,"y":2550630.1799999997}},{"attributes":{"ID":380802,"DIS_CODE":0,"TOWNNAME":"安南區","LI":"公親里","LIN":"9鄰","STREET":"公學路","SECT":"一段","MAREA":" ","LANE":"１７３巷","ALLEY":" ","HOUSE_NO":"３９號","E_COORD97":168043.94,"N_COORD97":2552961.5299999998,"ADDRESS":"公學路一段１７３巷３９號","OBJECTID":380792},"geometry":{"x":168043.94000000041,"y":2552961.5300000012}},{"attributes":{"ID":380803,"DIS_CODE":0,"TOWNNAME":"安南區","LI":"海西里","LIN":"9鄰","STREET":"海中街","SECT":" ","MAREA":" ","LANE":"７７巷","ALLEY":" ","HOUSE_NO":"５５號","E_COORD97":166288.67000000001,"N_COORD97":2548849.9300000002,"ADDRESS":"海中街７７巷５５號","OBJECTID":380793},"geometry":{"x":166288.67000000086,"y":2548849.9300000016}},{"attributes":{"ID":380804,"DIS_CODE":0,"TOWNNAME":"安南區","LI":"佃東里","LIN":"9鄰","STREET":"海佃路","SECT":"四段","MAREA":" ","LANE":"３８８巷","ALLEY":" ","HOUSE_NO":"１２３號之１","E_COORD97":165590.41,"N_COORD97":2551907.77,"ADDRESS":"海佃路四段３８８巷１２３號之１","OBJECTID":380794},"geometry":{"x":165590.41000000108,"y":2551907.7699999977}},{"attributes":{"ID":380805,"DIS_CODE":0,"TOWNNAME":"安南區","LI":"城北里","LIN":"9鄰","STREET":"城安東街","SECT":" ","MAREA":" ","LANE":"５１巷","ALLEY":" ","HOUSE_NO":"９號","E_COORD97":160746.26000000001,"N_COORD97":2551738.8199999998,"ADDRESS":"城安東街５１巷９號","OBJECTID":380795},"geometry":{"x":160746.26000000071,"y":2551738.820000004}},{"attributes":{"ID":380806,"DIS_CODE":0,"TOWNNAME":"安南區","LI":"公親里","LIN":"9鄰","STREET":"公學路","SECT":"一段","MAREA":" ","LANE":"１７３巷","ALLEY":" ","HOUSE_NO":"１８號之１","E_COORD97":168043.94,"N_COORD97":2553015.1000000001,"ADDRESS":"公學路一段１７３巷１８號之１","OBJECTID":380796},"geometry":{"x":168043.94000000041,"y":2553015.1000000015}},{"attributes":{"ID":380807,"DIS_CODE":0,"TOWNNAME":"安南區","LI":"國安里","LIN":"9鄰","STREET":"國安街","SECT":" ","MAREA":" ","LANE":"２３６巷","ALLEY":" ","HOUSE_NO":"３６號","E_COORD97":166538.70999999999,"N_COORD97":2547038.5800000001,"ADDRESS":"國安街２３６巷３６號","OBJECTID":380797},"geometry":{"x":166538.71000000183,"y":2547038.5800000019}},{"attributes":{"ID":380808,"DIS_CODE":0,"TOWNNAME":"安南區","LI":"溪東里","LIN":"9鄰","STREET":"府安路","SECT":"五段","MAREA":" ","LANE":"１１巷","ALLEY":" ","HOUSE_NO":"２號","E_COORD97":168483.10000000001,"N_COORD97":2547238.7400000002,"ADDRESS":"府安路五段１１巷２號","OBJECTID":380798},"geometry":{"x":168483.09999999963,"y":2547238.7400000002}},{"attributes":{"ID":380809,"DIS_CODE":0,"TOWNNAME":"安南區","LI":"溪東里","LIN":"9鄰","STREET":"府安路","SECT":"五段","MAREA":" ","LANE":"１１巷","ALLEY":" ","HOUSE_NO":"４號","E_COORD97":168480.98000000001,"N_COORD97":2547243.1699999999,"ADDRESS":"府安路五段１１巷４號","OBJECTID":380799},"geometry":{"x":168480.98000000045,"y":2547243.1699999999}},{"attributes":{"ID":380810,"DIS_CODE":0,"TOWNNAME":"安南區","LI":"溪東里","LIN":"9鄰","STREET":"府安路","SECT":"五段","MAREA":" ","LANE":"１１巷","ALLEY":" ","HOUSE_NO":"９號","E_COORD97":168456.04000000001,"N_COORD97":2547254.9300000002,"ADDRESS":"府安路五段１１巷９號","OBJECTID":380800},"geometry":{"x":168456.04000000097,"y":2547254.9299999997}}]}