{"displayFieldName":"TOWNNAME","fieldAliases":{"ID":"ID","DIS_CODE":"DIS_CODE","TOWNNAME":"TOWNNAME","LI":"LI","LIN":"LIN","STREET":"STREET","SECT":"SECT","MAREA":"MAREA","LANE":"LANE","ALLEY":"ALLEY","HOUSE_NO":"HOUSE_NO","E_COORD97":"E_COORD97","N_COORD97":"N_COORD97","ADDRESS":"ADDRESS","OBJECTID":"OBJECTID"},"geometryType":"esriGeometryPoint","spatialReference":{"wkid":102443,"latestWkid":3826},"fields":[{"name":"ID","type":"esriFieldTypeDouble","alias":"ID"},{"name":"DIS_CODE","type":"esriFieldTypeInteger","alias":"DIS_CODE"},{"name":"TOWNNAME","type":"esriFieldTypeString","alias":"TOWNNAME","length":8},{"name":"LI","type":"esriFieldTypeString","alias":"LI","length":8},{"name":"LIN","type":"esriFieldTypeString","alias":"LIN","length":12},{"name":"STREET","type":"esriFieldTypeString","alias":"STREET","length":20},{"name":"SECT","type":"esriFieldTypeString","alias":"SECT","length":8},{"name":"MAREA","type":"esriFieldTypeString","alias":"MAREA","length":12},{"name":"LANE","type":"esriFieldTypeString","alias":"LANE","length":10},{"name":"ALLEY","type":"esriFieldTypeString","alias":"ALLEY","length":10},{"name":"HOUSE_NO","type":"esriFieldTypeString","alias":"HOUSE_NO","length":20},{"name":"E_COORD97","type":"esriFieldTypeDouble","alias":"E_COORD97"},{"name":"N_COORD97","type":"esriFieldTypeDouble","alias":"N_COORD97"},{"name":"ADDRESS","type":"esriFieldTypeString","alias":"ADDRESS","length":50},{"name":"OBJECTID","type":"esriFieldTypeOID","alias":"OBJECTID"}],"features":[{"attributes":{"ID":131801,"DIS_CODE":0,"TOWNNAME":"永康區","LI":"神洲里","LIN":"7鄰","STREET":"忠孝路","SECT":" ","MAREA":" ","LANE":"５４巷","ALLEY":"９弄","HOUSE_NO":"５號","E_COORD97":172141.37,"N_COORD97":2544790.75,"ADDRESS":"忠孝路５４巷９弄５號","OBJECTID":131801},"geometry":{"x":172141.37000000011,"y":2544790.75}},{"attributes":{"ID":131802,"DIS_CODE":0,"TOWNNAME":"永康區","LI":"勝利里","LIN":"15鄰","STREET":"勝利街","SECT":" ","MAREA":" ","LANE":"９５巷","ALLEY":"９弄","HOUSE_NO":"２０號","E_COORD97":171258.20999999999,"N_COORD97":2544819.5,"ADDRESS":"勝利街９５巷９弄２０號","OBJECTID":131802},"geometry":{"x":171258.21000000183,"y":2544819.5}},{"attributes":{"ID":131803,"DIS_CODE":0,"TOWNNAME":"永康區","LI":"勝利里","LIN":"19鄰","STREET":"勝利街","SECT":" ","MAREA":" ","LANE":"１９７巷","ALLEY":"２５弄","HOUSE_NO":"１８號","E_COORD97":171257.76999999999,"N_COORD97":2545071.29,"ADDRESS":"勝利街１９７巷２５弄１８號","OBJECTID":131803},"geometry":{"x":171257.77000000048,"y":2545071.2899999991}},{"attributes":{"ID":131804,"DIS_CODE":0,"TOWNNAME":"永康區","LI":"勝利里","LIN":"10鄰","STREET":"勝利街","SECT":" ","MAREA":" ","LANE":"７３巷","ALLEY":"１５弄","HOUSE_NO":"３號","E_COORD97":171311.13,"N_COORD97":2544696.75,"ADDRESS":"勝利街７３巷１５弄３號","OBJECTID":131804},"geometry":{"x":171311.13000000175,"y":2544696.75}},{"attributes":{"ID":131805,"DIS_CODE":0,"TOWNNAME":"永康區","LI":"勝利里","LIN":"10鄰","STREET":"勝利街","SECT":" ","MAREA":" ","LANE":"７３巷","ALLEY":"１５弄","HOUSE_NO":"１６號","E_COORD97":171298.17999999999,"N_COORD97":2544690.7599999998,"ADDRESS":"勝利街７３巷１５弄１６號","OBJECTID":131805},"geometry":{"x":171298.1799999997,"y":2544690.7600000016}},{"attributes":{"ID":131806,"DIS_CODE":0,"TOWNNAME":"永康區","LI":"勝利里","LIN":"40鄰","STREET":"中華一路","SECT":" ","MAREA":" ","LANE":"１８２巷","ALLEY":"３弄","HOUSE_NO":"１號","E_COORD97":171509.14999999999,"N_COORD97":2545047.9700000002,"ADDRESS":"中華一路１８２巷３弄１號","OBJECTID":131806},"geometry":{"x":171509.15000000037,"y":2545047.9700000007}},{"attributes":{"ID":131807,"DIS_CODE":0,"TOWNNAME":"永康區","LI":"崑山里","LIN":"42鄰","STREET":"大灣路","SECT":" ","MAREA":" ","LANE":"９４２巷","ALLEY":"２８０弄","HOUSE_NO":"３２號","E_COORD97":173925.67000000001,"N_COORD97":2545151.5600000001,"ADDRESS":"大灣路９４２巷２８０弄３２號","OBJECTID":131807},"geometry":{"x":173925.67000000086,"y":2545151.5600000024}},{"attributes":{"ID":131808,"DIS_CODE":0,"TOWNNAME":"永康區","LI":"\u25A0行里","LIN":"35鄰","STREET":"中正北路","SECT":" ","MAREA":" ","LANE":"１７７巷","ALLEY":"１８弄","HOUSE_NO":"２號","E_COORD97":172402.79000000001,"N_COORD97":2549201.48,"ADDRESS":"中正北路１７７巷１８弄２號","OBJECTID":131808},"geometry":{"x":172402.79000000004,"y":2549201.4800000004}},{"attributes":{"ID":131809,"DIS_CODE":0,"TOWNNAME":"永康區","LI":"五王里","LIN":" ","STREET":"中華路","SECT":" ","MAREA":" ","LANE":"２０６巷","ALLEY":"３０弄","HOUSE_NO":"７號","E_COORD97":171652.26000000001,"N_COORD97":2545583.8399999999,"ADDRESS":"中華路２０６巷３０弄７號","OBJECTID":131809},"geometry":{"x":171652.25999999978,"y":2545583.8399999999}},{"attributes":{"ID":131810,"DIS_CODE":0,"TOWNNAME":"永康區","LI":"崑山里","LIN":"17鄰","STREET":"大灣路","SECT":" ","MAREA":" ","LANE":"９４２巷","ALLEY":"７１弄","HOUSE_NO":"１３號","E_COORD97":173620.57000000001,"N_COORD97":2544552.75,"ADDRESS":"大灣路９４２巷７１弄１３號","OBJECTID":131810},"geometry":{"x":173620.5700000003,"y":2544552.7500000019}},{"attributes":{"ID":131811,"DIS_CODE":0,"TOWNNAME":"永康區","LI":"神洲里","LIN":"7鄰","STREET":"忠孝路","SECT":" ","MAREA":" ","LANE":"５４巷","ALLEY":"９弄","HOUSE_NO":"１０號","E_COORD97":172167.37,"N_COORD97":2544783,"ADDRESS":"忠孝路５４巷９弄１０號","OBJECTID":131811},"geometry":{"x":172167.36999999918,"y":2544783}},{"attributes":{"ID":131812,"DIS_CODE":0,"TOWNNAME":"永康區","LI":"勝利里","LIN":"15鄰","STREET":"勝利街","SECT":" ","MAREA":" ","LANE":"９５巷","ALLEY":"９弄","HOUSE_NO":"１６號","E_COORD97":171259.16,"N_COORD97":2544831.5,"ADDRESS":"勝利街９５巷９弄１６號","OBJECTID":131812},"geometry":{"x":171259.16000000108,"y":2544831.5000000019}},{"attributes":{"ID":131813,"DIS_CODE":0,"TOWNNAME":"永康區","LI":"\u25A0行里","LIN":"33鄰","STREET":"中正北路","SECT":" ","MAREA":" ","LANE":"１９巷","ALLEY":"６弄","HOUSE_NO":"５號","E_COORD97":172009.26000000001,"N_COORD97":2549132,"ADDRESS":"中正北路１９巷６弄５號","OBJECTID":131813},"geometry":{"x":172009.26000000071,"y":2549132}},{"attributes":{"ID":131814,"DIS_CODE":0,"TOWNNAME":"永康區","LI":"崑山里","LIN":"19鄰","STREET":"大仁街","SECT":" ","MAREA":" ","LANE":"１１巷","ALLEY":"５弄","HOUSE_NO":"５號","E_COORD97":173784.29999999999,"N_COORD97":2544510.3900000001,"ADDRESS":"大仁街１１巷５弄５號","OBJECTID":131814},"geometry":{"x":173784.29999999981,"y":2544510.3900000043}},{"attributes":{"ID":131815,"DIS_CODE":0,"TOWNNAME":"永康區","LI":"崑山里","LIN":"5鄰","STREET":"崑大路","SECT":" ","MAREA":" ","LANE":"１５５巷","ALLEY":"７９弄","HOUSE_NO":"２號","E_COORD97":173629.57999999999,"N_COORD97":2544052.5499999998,"ADDRESS":"崑大路１５５巷７９弄２號","OBJECTID":131815},"geometry":{"x":173629.58000000101,"y":2544052.5500000026}},{"attributes":{"ID":131816,"DIS_CODE":0,"TOWNNAME":"永康區","LI":"六合里","LIN":"2鄰","STREET":"中山南路","SECT":" ","MAREA":" ","LANE":"３８巷","ALLEY":" ","HOUSE_NO":"２號","E_COORD97":170853.38,"N_COORD97":2545834.7400000002,"ADDRESS":"中山南路３８巷２號","OBJECTID":131816},"geometry":{"x":170853.38000000175,"y":2545834.7400000021}},{"attributes":{"ID":131817,"DIS_CODE":0,"TOWNNAME":"鹽水區","LI":"岸內里","LIN":"11鄰","STREET":"和平路","SECT":" ","MAREA":" ","LANE":" ","ALLEY":" ","HOUSE_NO":"４１號","E_COORD97":175810.04999999999,"N_COORD97":2580520.4300000002,"ADDRESS":"和平路４１號","OBJECTID":131817},"geometry":{"x":175810.04999999981,"y":2580520.4299999997}},{"attributes":{"ID":131818,"DIS_CODE":0,"TOWNNAME":"鹽水區","LI":"岸內里","LIN":"11鄰","STREET":"和平路","SECT":" ","MAREA":" ","LANE":" ","ALLEY":" ","HOUSE_NO":"４３號","E_COORD97":175806.26000000001,"N_COORD97":2580522.9300000002,"ADDRESS":"和平路４３號","OBJECTID":131818},"geometry":{"x":175806.26000000071,"y":2580522.9300000016}},{"attributes":{"ID":131819,"DIS_CODE":0,"TOWNNAME":"佳里區","LI":"鎮山里","LIN":"17鄰","STREET":"鎮山街","SECT":" ","MAREA":" ","LANE":" ","ALLEY":" ","HOUSE_NO":"２０號","E_COORD97":166300.78,"N_COORD97":2561342.1299999999,"ADDRESS":"鎮山街２０號","OBJECTID":131819},"geometry":{"x":166300.78000000026,"y":2561342.129999999}},{"attributes":{"ID":131820,"DIS_CODE":0,"TOWNNAME":"佳里區","LI":"鎮山里","LIN":"17鄰","STREET":"鎮山街","SECT":" ","MAREA":" ","LANE":" ","ALLEY":" ","HOUSE_NO":"２號","E_COORD97":166308.92000000001,"N_COORD97":2561375.3900000001,"ADDRESS":"鎮山街２號","OBJECTID":131820},"geometry":{"x":166308.92000000086,"y":2561375.3900000025}},{"attributes":{"ID":131821,"DIS_CODE":0,"TOWNNAME":"永康區","LI":"埔園里","LIN":"35鄰","STREET":"永大路","SECT":"三段","MAREA":" ","LANE":"４５０巷","ALLEY":"２弄","HOUSE_NO":"２６號","E_COORD97":174148.38,"N_COORD97":2548351.7400000002,"ADDRESS":"永大路三段４５０巷２弄２６號","OBJECTID":131821},"geometry":{"x":174148.37999999989,"y":2548351.7400000002}},{"attributes":{"ID":131822,"DIS_CODE":0,"TOWNNAME":"永康區","LI":"北灣里","LIN":" ","STREET":"大灣路","SECT":" ","MAREA":" ","LANE":"４０巷","ALLEY":"２０９弄","HOUSE_NO":"１之１號","E_COORD97":174807.88,"N_COORD97":2546324.5,"ADDRESS":"大灣路４０巷２０９弄１之１號","OBJECTID":131822},"geometry":{"x":174807.87999999989,"y":2546324.5000000019}},{"attributes":{"ID":131823,"DIS_CODE":0,"TOWNNAME":"佳里區","LI":"鎮山里","LIN":"21鄰","STREET":"鎮山街","SECT":" ","MAREA":" ","LANE":" ","ALLEY":" ","HOUSE_NO":"２０５號","E_COORD97":166267.70999999999,"N_COORD97":2560786.79,"ADDRESS":"鎮山街２０５號","OBJECTID":131823},"geometry":{"x":166267.71000000089,"y":2560786.7900000028}},{"attributes":{"ID":131824,"DIS_CODE":0,"TOWNNAME":"永康區","LI":"崑山里","LIN":"34鄰","STREET":"大灣路","SECT":" ","MAREA":" ","LANE":"９４２巷","ALLEY":"１９４弄","HOUSE_NO":"１０號","E_COORD97":173831.35999999999,"N_COORD97":2544960.3799999999,"ADDRESS":"大灣路９４２巷１９４弄１０號","OBJECTID":131824},"geometry":{"x":173831.36000000127,"y":2544960.3800000008}},{"attributes":{"ID":131825,"DIS_CODE":0,"TOWNNAME":"佳里區","LI":"鎮山里","LIN":"21鄰","STREET":"鎮山街","SECT":" ","MAREA":" ","LANE":" ","ALLEY":" ","HOUSE_NO":"２０７號","E_COORD97":166287.01999999999,"N_COORD97":2560786.3300000001,"ADDRESS":"鎮山街２０７號","OBJECTID":131825},"geometry":{"x":166287.02000000142,"y":2560786.3300000001}},{"attributes":{"ID":131826,"DIS_CODE":0,"TOWNNAME":"佳里區","LI":"鎮山里","LIN":"23鄰","STREET":"鎮山街","SECT":" ","MAREA":" ","LANE":" ","ALLEY":" ","HOUSE_NO":"１號","E_COORD97":166325.14000000001,"N_COORD97":2561352.2999999998,"ADDRESS":"鎮山街１號","OBJECTID":131826},"geometry":{"x":166325.13999999873,"y":2561352.3000000026}},{"attributes":{"ID":131827,"DIS_CODE":0,"TOWNNAME":"佳里區","LI":"鎮山里","LIN":"17鄰","STREET":"鎮山街","SECT":" ","MAREA":" ","LANE":" ","ALLEY":" ","HOUSE_NO":"３２號","E_COORD97":166305.81,"N_COORD97":2561319.3199999998,"ADDRESS":"鎮山街３２號","OBJECTID":131827},"geometry":{"x":166305.81000000052,"y":2561319.3200000003}},{"attributes":{"ID":131828,"DIS_CODE":0,"TOWNNAME":"永康區","LI":"崑山里","LIN":"6鄰","STREET":"崑大路","SECT":" ","MAREA":" ","LANE":"１５５巷","ALLEY":"８５弄","HOUSE_NO":"２８號","E_COORD97":173675,"N_COORD97":2544038.3900000001,"ADDRESS":"崑大路１５５巷８５弄２８號","OBJECTID":131828},"geometry":{"x":173675,"y":2544038.3900000006}},{"attributes":{"ID":131829,"DIS_CODE":0,"TOWNNAME":"永康區","LI":"正強里","LIN":"11鄰","STREET":"正強街","SECT":" ","MAREA":" ","LANE":"１２２巷","ALLEY":"１３弄","HOUSE_NO":"１１號","E_COORD97":173382.82000000001,"N_COORD97":2547464.25,"ADDRESS":"正強街１２２巷１３弄１１號","OBJECTID":131829},"geometry":{"x":173382.8200000003,"y":2547464.2500000019}},{"attributes":{"ID":131830,"DIS_CODE":0,"TOWNNAME":"永康區","LI":"勝利里","LIN":"39鄰","STREET":"勝華街","SECT":" ","MAREA":" ","LANE":"３７巷","ALLEY":"４２弄","HOUSE_NO":"２６號","E_COORD97":171422.76999999999,"N_COORD97":2545176.6800000002,"ADDRESS":"勝華街３７巷４２弄２６號","OBJECTID":131830},"geometry":{"x":171422.76999999955,"y":2545176.6800000016}},{"attributes":{"ID":131831,"DIS_CODE":0,"TOWNNAME":"永康區","LI":"勝利里","LIN":"4鄰","STREET":"勝利街","SECT":" ","MAREA":" ","LANE":"２巷","ALLEY":"９２弄","HOUSE_NO":"１７號","E_COORD97":171054.13,"N_COORD97":2544808,"ADDRESS":"勝利街２巷９２弄１７號","OBJECTID":131831},"geometry":{"x":171054.13000000082,"y":2544808.0000000019}},{"attributes":{"ID":131832,"DIS_CODE":0,"TOWNNAME":"永康區","LI":"勝利里","LIN":"19鄰","STREET":"勝利街","SECT":" ","MAREA":" ","LANE":"１９７巷","ALLEY":"２５弄","HOUSE_NO":"５之３號","E_COORD97":171282.67000000001,"N_COORD97":2545088.2999999998,"ADDRESS":"勝利街１９７巷２５弄５之３號","OBJECTID":131832},"geometry":{"x":171282.67000000086,"y":2545088.3000000026}},{"attributes":{"ID":131833,"DIS_CODE":0,"TOWNNAME":"永康區","LI":"勝利里","LIN":"10鄰","STREET":"勝利街","SECT":" ","MAREA":" ","LANE":"７３巷","ALLEY":"１５弄","HOUSE_NO":"１０號","E_COORD97":171300.56,"N_COORD97":2544701.75,"ADDRESS":"勝利街７３巷１５弄１０號","OBJECTID":131833},"geometry":{"x":171300.55999999959,"y":2544701.7500000019}},{"attributes":{"ID":131834,"DIS_CODE":0,"TOWNNAME":"永康區","LI":"勝利里","LIN":"22鄰","STREET":"勝華街","SECT":" ","MAREA":" ","LANE":"３７巷","ALLEY":"３７弄","HOUSE_NO":"９號","E_COORD97":171483.45999999999,"N_COORD97":2545141.25,"ADDRESS":"勝華街３７巷３７弄９號","OBJECTID":131834},"geometry":{"x":171483.45999999903,"y":2545141.2500000037}},{"attributes":{"ID":131835,"DIS_CODE":0,"TOWNNAME":"永康區","LI":"勝利里","LIN":"20鄰","STREET":"勝學路","SECT":" ","MAREA":" ","LANE":"２６０巷","ALLEY":"３弄","HOUSE_NO":"７號","E_COORD97":171240.13,"N_COORD97":2545310.5099999998,"ADDRESS":"勝學路２６０巷３弄７號","OBJECTID":131835},"geometry":{"x":171240.13000000082,"y":2545310.5100000016}},{"attributes":{"ID":131836,"DIS_CODE":0,"TOWNNAME":"永康區","LI":"勝利里","LIN":"40鄰","STREET":"中華一路","SECT":" ","MAREA":" ","LANE":"１８２巷","ALLEY":"２弄","HOUSE_NO":"７號","E_COORD97":171532.54999999999,"N_COORD97":2545018.23,"ADDRESS":"中華一路１８２巷２弄７號","OBJECTID":131836},"geometry":{"x":171532.55000000075,"y":2545018.2300000023}},{"attributes":{"ID":131837,"DIS_CODE":0,"TOWNNAME":"永康區","LI":"勝利里","LIN":"24鄰","STREET":"勝利街","SECT":" ","MAREA":" ","LANE":"１１６巷","ALLEY":"１２弄","HOUSE_NO":"６號","E_COORD97":171404.64999999999,"N_COORD97":2544849.52,"ADDRESS":"勝利街１１６巷１２弄６號","OBJECTID":131837},"geometry":{"x":171404.64999999944,"y":2544849.5199999996}},{"attributes":{"ID":131838,"DIS_CODE":0,"TOWNNAME":"安南區","LI":"溪心里","LIN":"11鄰","STREET":"安中路","SECT":"二段","MAREA":" ","LANE":"２９６巷","ALLEY":"２６９弄","HOUSE_NO":"１６號","E_COORD97":166617.51999999999,"N_COORD97":2550188.6000000001,"ADDRESS":"安中路二段２９６巷２６９弄１６號","OBJECTID":131838},"geometry":{"x":166617.52000000142,"y":2550188.5999999996}},{"attributes":{"ID":131839,"DIS_CODE":0,"TOWNNAME":"永康區","LI":"復華里","LIN":"25鄰","STREET":"國華街","SECT":" ","MAREA":" ","LANE":"１３２巷","ALLEY":"７弄","HOUSE_NO":"１８號","E_COORD97":172821.35999999999,"N_COORD97":2546403.6000000001,"ADDRESS":"國華街１３２巷７弄１８號","OBJECTID":131839},"geometry":{"x":172821.36000000034,"y":2546403.6000000015}},{"attributes":{"ID":131840,"DIS_CODE":0,"TOWNNAME":"安南區","LI":"南興里","LIN":"11鄰","STREET":"公學路","SECT":"五段","MAREA":" ","LANE":"６９７巷","ALLEY":"７７弄","HOUSE_NO":"１號","E_COORD97":163855.60999999999,"N_COORD97":2552652.2999999998,"ADDRESS":"公學路五段６９７巷７７弄１號","OBJECTID":131840},"geometry":{"x":163855.61000000034,"y":2552652.3000000026}},{"attributes":{"ID":131841,"DIS_CODE":0,"TOWNNAME":"安南區","LI":"南興里","LIN":"11鄰","STREET":"公學路","SECT":"五段","MAREA":" ","LANE":"６９７巷","ALLEY":"７７弄","HOUSE_NO":"３號","E_COORD97":163861.20000000001,"N_COORD97":2552652.5499999998,"ADDRESS":"公學路五段６９７巷７７弄３號","OBJECTID":131841},"geometry":{"x":163861.20000000112,"y":2552652.5500000007}},{"attributes":{"ID":131842,"DIS_CODE":0,"TOWNNAME":"安南區","LI":"南興里","LIN":"11鄰","STREET":"公學路","SECT":"五段","MAREA":" ","LANE":"６９７巷","ALLEY":"７７弄","HOUSE_NO":"５號","E_COORD97":163866.39999999999,"N_COORD97":2552652.8100000001,"ADDRESS":"公學路五段６９７巷７７弄５號","OBJECTID":131842},"geometry":{"x":163866.4000000013,"y":2552652.8100000024}},{"attributes":{"ID":131843,"DIS_CODE":0,"TOWNNAME":"安南區","LI":"南興里","LIN":"11鄰","STREET":"公學路","SECT":"五段","MAREA":" ","LANE":"６９７巷","ALLEY":"７７弄","HOUSE_NO":"７號","E_COORD97":163871.35999999999,"N_COORD97":2552653.0600000001,"ADDRESS":"公學路五段６９７巷７７弄７號","OBJECTID":131843},"geometry":{"x":163871.36000000034,"y":2552653.0600000042}},{"attributes":{"ID":131844,"DIS_CODE":0,"TOWNNAME":"安南區","LI":"南興里","LIN":"11鄰","STREET":"公學路","SECT":"五段","MAREA":" ","LANE":"６９７巷","ALLEY":"７７弄","HOUSE_NO":"９號","E_COORD97":163876.31,"N_COORD97":2552653.3199999998,"ADDRESS":"公學路五段６９７巷７７弄９號","OBJECTID":131844},"geometry":{"x":163876.31000000052,"y":2552653.3200000003}},{"attributes":{"ID":131845,"DIS_CODE":0,"TOWNNAME":"安南區","LI":"南興里","LIN":"11鄰","STREET":"公學路","SECT":"五段","MAREA":" ","LANE":"６９７巷","ALLEY":"７７弄","HOUSE_NO":"１１號","E_COORD97":163881.26000000001,"N_COORD97":2552653.4399999999,"ADDRESS":"公學路五段６９７巷７７弄１１號","OBJECTID":131845},"geometry":{"x":163881.25999999978,"y":2552653.4400000013}},{"attributes":{"ID":131846,"DIS_CODE":0,"TOWNNAME":"安南區","LI":"南興里","LIN":"11鄰","STREET":"公學路","SECT":"五段","MAREA":" ","LANE":"６９７巷","ALLEY":"７７弄","HOUSE_NO":"１３號","E_COORD97":163886.20999999999,"N_COORD97":2552653.5699999998,"ADDRESS":"公學路五段６９７巷７７弄１３號","OBJECTID":131846},"geometry":{"x":163886.21000000089,"y":2552653.5700000022}},{"attributes":{"ID":131847,"DIS_CODE":0,"TOWNNAME":"安南區","LI":"南興里","LIN":"11鄰","STREET":"公學路","SECT":"五段","MAREA":" ","LANE":"６９７巷","ALLEY":"７７弄","HOUSE_NO":"１５號","E_COORD97":163890.91,"N_COORD97":2552653.7000000002,"ADDRESS":"公學路五段６９７巷７７弄１５號","OBJECTID":131847},"geometry":{"x":163890.91000000015,"y":2552653.6999999993}},{"attributes":{"ID":131848,"DIS_CODE":0,"TOWNNAME":"安南區","LI":"南興里","LIN":"11鄰","STREET":"公學路","SECT":"五段","MAREA":" ","LANE":"６９７巷","ALLEY":"７７弄","HOUSE_NO":"１７號","E_COORD97":163895.98999999999,"N_COORD97":2552653.9500000002,"ADDRESS":"公學路五段６９７巷７７弄１７號","OBJECTID":131848},"geometry":{"x":163895.99000000209,"y":2552653.9500000011}},{"attributes":{"ID":131849,"DIS_CODE":0,"TOWNNAME":"佳里區","LI":"鎮山里","LIN":"17鄰","STREET":"鎮山街","SECT":" ","MAREA":" ","LANE":" ","ALLEY":" ","HOUSE_NO":"３６號","E_COORD97":166302.26000000001,"N_COORD97":2561311.4199999999,"ADDRESS":"鎮山街３６號","OBJECTID":131849},"geometry":{"x":166302.25999999978,"y":2561311.4199999999}},{"attributes":{"ID":131850,"DIS_CODE":0,"TOWNNAME":"永康區","LI":"安康里","LIN":"18鄰","STREET":"中華西街","SECT":" ","MAREA":" ","LANE":" ","ALLEY":" ","HOUSE_NO":"１００號","E_COORD97":170738.73999999999,"N_COORD97":2546101.5,"ADDRESS":"中華西街１００號","OBJECTID":131850},"geometry":{"x":170738.74000000022,"y":2546101.5}},{"attributes":{"ID":131851,"DIS_CODE":0,"TOWNNAME":"安南區","LI":"南興里","LIN":"11鄰","STREET":"公學路","SECT":"五段","MAREA":" ","LANE":"６９７巷","ALLEY":"７７弄","HOUSE_NO":"１９號","E_COORD97":163901.45999999999,"N_COORD97":2552654.3300000001,"ADDRESS":"公學路五段６９７巷７７弄１９號","OBJECTID":131851},"geometry":{"x":163901.46000000089,"y":2552654.3300000019}},{"attributes":{"ID":131852,"DIS_CODE":0,"TOWNNAME":"安南區","LI":"南興里","LIN":"11鄰","STREET":"公學路","SECT":"五段","MAREA":" ","LANE":"６９７巷","ALLEY":"７７弄","HOUSE_NO":"２１號","E_COORD97":163901.07000000001,"N_COORD97":2552670.8300000001,"ADDRESS":"公學路五段６９７巷７７弄２１號","OBJECTID":131852},"geometry":{"x":163901.07000000123,"y":2552670.8300000038}},{"attributes":{"ID":131853,"DIS_CODE":0,"TOWNNAME":"安南區","LI":"南興里","LIN":"11鄰","STREET":"公學路","SECT":"五段","MAREA":" ","LANE":"６９７巷","ALLEY":"７７弄","HOUSE_NO":"２３號","E_COORD97":163900.95000000001,"N_COORD97":2552675.29,"ADDRESS":"公學路五段６９７巷７７弄２３號","OBJECTID":131853},"geometry":{"x":163900.95000000019,"y":2552675.2899999991}},{"attributes":{"ID":131854,"DIS_CODE":0,"TOWNNAME":"安南區","LI":"南興里","LIN":"11鄰","STREET":"公學路","SECT":"五段","MAREA":" ","LANE":"６９７巷","ALLEY":"７７弄","HOUSE_NO":"２５號","E_COORD97":163901.07000000001,"N_COORD97":2552679.6099999999,"ADDRESS":"公學路五段６９７巷７７弄２５號","OBJECTID":131854},"geometry":{"x":163901.07000000123,"y":2552679.6100000013}},{"attributes":{"ID":131855,"DIS_CODE":0,"TOWNNAME":"安南區","LI":"南興里","LIN":"11鄰","STREET":"公學路","SECT":"五段","MAREA":" ","LANE":"６９７巷","ALLEY":"７７弄","HOUSE_NO":"２７號","E_COORD97":163900.95000000001,"N_COORD97":2552684.0499999998,"ADDRESS":"公學路五段６９７巷７７弄２７號","OBJECTID":131855},"geometry":{"x":163900.95000000019,"y":2552684.0500000026}},{"attributes":{"ID":131856,"DIS_CODE":0,"TOWNNAME":"安南區","LI":"國安里","LIN":"11鄰","STREET":"郡安路","SECT":"六段","MAREA":" ","LANE":"１２０巷","ALLEY":"１６弄","HOUSE_NO":"１１之１號","E_COORD97":166431.07999999999,"N_COORD97":2547389.04,"ADDRESS":"郡安路六段１２０巷１６弄１１之１號","OBJECTID":131856},"geometry":{"x":166431.07999999914,"y":2547389.0399999991}},{"attributes":{"ID":131857,"DIS_CODE":0,"TOWNNAME":"安南區","LI":"國安里","LIN":"11鄰","STREET":"郡安路","SECT":"六段","MAREA":" ","LANE":"１２０巷","ALLEY":"１６弄","HOUSE_NO":"１１之２號","E_COORD97":166435.26999999999,"N_COORD97":2547389.9300000002,"ADDRESS":"郡安路六段１２０巷１６弄１１之２號","OBJECTID":131857},"geometry":{"x":166435.27000000048,"y":2547389.9299999997}},{"attributes":{"ID":131858,"DIS_CODE":0,"TOWNNAME":"安南區","LI":"\u25A0南里","LIN":"11鄰","STREET":"安昌街","SECT":" ","MAREA":" ","LANE":"２２２巷","ALLEY":"８８弄","HOUSE_NO":"８號","E_COORD97":170261.76999999999,"N_COORD97":2552636.2200000002,"ADDRESS":"安昌街２２２巷８８弄８號","OBJECTID":131858},"geometry":{"x":170261.76999999955,"y":2552636.2200000025}},{"attributes":{"ID":131859,"DIS_CODE":0,"TOWNNAME":"安南區","LI":"安順里","LIN":"11鄰","STREET":"安和路","SECT":"四段","MAREA":" ","LANE":"９４巷","ALLEY":"１０弄","HOUSE_NO":"１３號","E_COORD97":170023.51999999999,"N_COORD97":2550219.5,"ADDRESS":"安和路四段９４巷１０弄１３號","OBJECTID":131859},"geometry":{"x":170023.52000000048,"y":2550219.5000000019}},{"attributes":{"ID":131860,"DIS_CODE":0,"TOWNNAME":"安南區","LI":"安富里","LIN":"11鄰","STREET":"安富街","SECT":" ","MAREA":" ","LANE":"２５１巷","ALLEY":"１４弄","HOUSE_NO":"３３號","E_COORD97":167395.19,"N_COORD97":2547363.6200000001,"ADDRESS":"安富街２５１巷１４弄３３號","OBJECTID":131860},"geometry":{"x":167395.19000000041,"y":2547363.620000001}},{"attributes":{"ID":131861,"DIS_CODE":0,"TOWNNAME":"安南區","LI":"安富里","LIN":"11鄰","STREET":"安富街","SECT":" ","MAREA":" ","LANE":"２５１巷","ALLEY":"１４弄","HOUSE_NO":"３７號","E_COORD97":167379.32000000001,"N_COORD97":2547360.0600000001,"ADDRESS":"安富街２５１巷１４弄３７號","OBJECTID":131861},"geometry":{"x":167379.32000000123,"y":2547360.0600000005}},{"attributes":{"ID":131862,"DIS_CODE":0,"TOWNNAME":"中西區","LI":"光賢里","LIN":"11鄰","STREET":"中華西路","SECT":"二段","MAREA":" ","LANE":"５８０巷","ALLEY":"２１弄","HOUSE_NO":"２７號","E_COORD97":166715.28,"N_COORD97":2544947.71,"ADDRESS":"中華西路二段５８０巷２１弄２７號","OBJECTID":131862},"geometry":{"x":166715.28000000119,"y":2544947.7100000009}},{"attributes":{"ID":131863,"DIS_CODE":0,"TOWNNAME":"安南區","LI":"溪心里","LIN":"11鄰","STREET":"安吉路","SECT":"一段","MAREA":" ","LANE":"９９９巷","ALLEY":"１３５弄","HOUSE_NO":"２１之８號","E_COORD97":166844.729039,"N_COORD97":2550462.3415100002,"ADDRESS":"安吉路一段９９９巷１３５弄２１之８號","OBJECTID":131863},"geometry":{"x":166844.72903899942,"y":2550462.3415120021}},{"attributes":{"ID":131864,"DIS_CODE":0,"TOWNNAME":"永康區","LI":"正強里","LIN":"11鄰","STREET":"正強街","SECT":" ","MAREA":" ","LANE":"１２２巷","ALLEY":"１３弄","HOUSE_NO":"７號","E_COORD97":173382.57000000001,"N_COORD97":2547456,"ADDRESS":"正強街１２２巷１３弄７號","OBJECTID":131864},"geometry":{"x":173382.57000000123,"y":2547456.0000000019}},{"attributes":{"ID":131865,"DIS_CODE":0,"TOWNNAME":"永康區","LI":"正強里","LIN":"11鄰","STREET":"正強街","SECT":" ","MAREA":" ","LANE":"１２２巷","ALLEY":"１３弄","HOUSE_NO":"１７號","E_COORD97":173381.48000000001,"N_COORD97":2547476.75,"ADDRESS":"正強街１２２巷１３弄１７號","OBJECTID":131865},"geometry":{"x":173381.48000000138,"y":2547476.75}},{"attributes":{"ID":131866,"DIS_CODE":0,"TOWNNAME":"永康區","LI":"正強里","LIN":"11鄰","STREET":"正強街","SECT":" ","MAREA":" ","LANE":"１２２巷","ALLEY":"１３弄","HOUSE_NO":"５號","E_COORD97":173382.87,"N_COORD97":2547451.75,"ADDRESS":"正強街１２２巷１３弄５號","OBJECTID":131866},"geometry":{"x":173382.87000000197,"y":2547451.7500000019}},{"attributes":{"ID":131867,"DIS_CODE":0,"TOWNNAME":"永康區","LI":"正強里","LIN":"11鄰","STREET":"正強街","SECT":" ","MAREA":" ","LANE":"１２２巷","ALLEY":"１３弄","HOUSE_NO":"１３號","E_COORD97":173382.28,"N_COORD97":2547468.25,"ADDRESS":"正強街１２２巷１３弄１３號","OBJECTID":131867},"geometry":{"x":173382.28000000119,"y":2547468.2500000019}},{"attributes":{"ID":131868,"DIS_CODE":0,"TOWNNAME":"永康區","LI":"正強里","LIN":"11鄰","STREET":"正強街","SECT":" ","MAREA":" ","LANE":"１２２巷","ALLEY":"１３弄","HOUSE_NO":"９號","E_COORD97":173381.92999999999,"N_COORD97":2547460,"ADDRESS":"正強街１２２巷１３弄９號","OBJECTID":131868},"geometry":{"x":173381.9299999997,"y":2547460.0000000019}},{"attributes":{"ID":131869,"DIS_CODE":0,"TOWNNAME":"永康區","LI":"正強里","LIN":"11鄰","STREET":"正強街","SECT":" ","MAREA":" ","LANE":"１２２巷","ALLEY":"１３弄","HOUSE_NO":"１９號","E_COORD97":173381.09,"N_COORD97":2547481.25,"ADDRESS":"正強街１２２巷１３弄１９號","OBJECTID":131869},"geometry":{"x":173381.08999999892,"y":2547481.2500000019}},{"attributes":{"ID":131870,"DIS_CODE":0,"TOWNNAME":"永康區","LI":"正強里","LIN":"11鄰","STREET":"正強街","SECT":" ","MAREA":" ","LANE":"１２２巷","ALLEY":"１３弄","HOUSE_NO":"１５號","E_COORD97":173381.92999999999,"N_COORD97":2547472.5,"ADDRESS":"正強街１２２巷１３弄１５號","OBJECTID":131870},"geometry":{"x":173381.9299999997,"y":2547472.5000000037}},{"attributes":{"ID":131871,"DIS_CODE":0,"TOWNNAME":"中西區","LI":"銀同里","LIN":"11鄰","STREET":"開山路","SECT":" ","MAREA":" ","LANE":"３５巷","ALLEY":"３１弄","HOUSE_NO":"１１號一樓","E_COORD97":168755.20999999999,"N_COORD97":2543497.1000000001,"ADDRESS":"開山路３５巷３１弄１１號一樓","OBJECTID":131871},"geometry":{"x":168755.20999999996,"y":2543497.0999999996}},{"attributes":{"ID":131872,"DIS_CODE":0,"TOWNNAME":"中西區","LI":"銀同里","LIN":"11鄰","STREET":"開山路","SECT":" ","MAREA":" ","LANE":"３５巷","ALLEY":"３１弄","HOUSE_NO":"１１號二樓","E_COORD97":168755.20999999999,"N_COORD97":2543497.1000000001,"ADDRESS":"開山路３５巷３１弄１１號二樓","OBJECTID":131872},"geometry":{"x":168755.20999999996,"y":2543497.0999999996}},{"attributes":{"ID":131873,"DIS_CODE":0,"TOWNNAME":"中西區","LI":"銀同里","LIN":"11鄰","STREET":"開山路","SECT":" ","MAREA":" ","LANE":"３５巷","ALLEY":"３１弄","HOUSE_NO":"１１號三樓","E_COORD97":168755.20999999999,"N_COORD97":2543497.1000000001,"ADDRESS":"開山路３５巷３１弄１１號三樓","OBJECTID":131873},"geometry":{"x":168755.20999999996,"y":2543497.0999999996}},{"attributes":{"ID":131874,"DIS_CODE":0,"TOWNNAME":"中西區","LI":"銀同里","LIN":"11鄰","STREET":"開山路","SECT":" ","MAREA":" ","LANE":"３５巷","ALLEY":"３１弄","HOUSE_NO":"１１號五樓","E_COORD97":168755.20999999999,"N_COORD97":2543497.1000000001,"ADDRESS":"開山路３５巷３１弄１１號五樓","OBJECTID":131874},"geometry":{"x":168755.20999999996,"y":2543497.0999999996}},{"attributes":{"ID":131875,"DIS_CODE":0,"TOWNNAME":"中西區","LI":"銀同里","LIN":"11鄰","STREET":"開山路","SECT":" ","MAREA":" ","LANE":"３５巷","ALLEY":"３１弄","HOUSE_NO":"１１號四樓","E_COORD97":168755.20999999999,"N_COORD97":2543497.1000000001,"ADDRESS":"開山路３５巷３１弄１１號四樓","OBJECTID":131875},"geometry":{"x":168755.20999999996,"y":2543497.0999999996}},{"attributes":{"ID":131876,"DIS_CODE":0,"TOWNNAME":"中西區","LI":"銀同里","LIN":"11鄰","STREET":"開山路","SECT":" ","MAREA":" ","LANE":"３５巷","ALLEY":"３１弄","HOUSE_NO":"９號一樓","E_COORD97":168752.06,"N_COORD97":2543495.5299999998,"ADDRESS":"開山路３５巷３１弄９號一樓","OBJECTID":131876},"geometry":{"x":168752.06000000052,"y":2543495.5300000012}},{"attributes":{"ID":131877,"DIS_CODE":0,"TOWNNAME":"中西區","LI":"銀同里","LIN":"11鄰","STREET":"開山路","SECT":" ","MAREA":" ","LANE":"３５巷","ALLEY":"３１弄","HOUSE_NO":"９號二樓","E_COORD97":168752.06,"N_COORD97":2543495.5299999998,"ADDRESS":"開山路３５巷３１弄９號二樓","OBJECTID":131877},"geometry":{"x":168752.06000000052,"y":2543495.5300000012}},{"attributes":{"ID":131878,"DIS_CODE":0,"TOWNNAME":"麻豆區","LI":"麻口里","LIN":"4鄰","STREET":" ","SECT":" ","MAREA":"麻豆口","LANE":" ","ALLEY":" ","HOUSE_NO":"２１號之２","E_COORD97":170205.56,"N_COORD97":2564312.0600000001,"ADDRESS":"麻豆口２１號之２","OBJECTID":131878},"geometry":{"x":170205.55999999959,"y":2564312.0600000005}},{"attributes":{"ID":131879,"DIS_CODE":0,"TOWNNAME":"中西區","LI":"銀同里","LIN":"11鄰","STREET":"開山路","SECT":" ","MAREA":" ","LANE":"３５巷","ALLEY":"３１弄","HOUSE_NO":"９號三樓","E_COORD97":168752.06,"N_COORD97":2543495.5299999998,"ADDRESS":"開山路３５巷３１弄９號三樓","OBJECTID":131879},"geometry":{"x":168752.06000000052,"y":2543495.5300000012}},{"attributes":{"ID":131880,"DIS_CODE":0,"TOWNNAME":"中西區","LI":"銀同里","LIN":"11鄰","STREET":"開山路","SECT":" ","MAREA":" ","LANE":"３５巷","ALLEY":"３１弄","HOUSE_NO":"９號五樓","E_COORD97":168752.06,"N_COORD97":2543495.5299999998,"ADDRESS":"開山路３５巷３１弄９號五樓","OBJECTID":131880},"geometry":{"x":168752.06000000052,"y":2543495.5300000012}},{"attributes":{"ID":131881,"DIS_CODE":0,"TOWNNAME":"中西區","LI":"銀同里","LIN":"11鄰","STREET":"開山路","SECT":" ","MAREA":" ","LANE":"３５巷","ALLEY":"３１弄","HOUSE_NO":"９號四樓","E_COORD97":168752.06,"N_COORD97":2543495.5299999998,"ADDRESS":"開山路３５巷３１弄９號四樓","OBJECTID":131881},"geometry":{"x":168752.06000000052,"y":2543495.5300000012}},{"attributes":{"ID":131882,"DIS_CODE":0,"TOWNNAME":"麻豆區","LI":"麻口里","LIN":"1鄰","STREET":" ","SECT":" ","MAREA":"麻豆口","LANE":" ","ALLEY":" ","HOUSE_NO":"１號之１５","E_COORD97":170789.91,"N_COORD97":2564006.3599999999,"ADDRESS":"麻豆口１號之１５","OBJECTID":131882},"geometry":{"x":170789.91000000108,"y":2564006.3599999994}},{"attributes":{"ID":131883,"DIS_CODE":0,"TOWNNAME":"麻豆區","LI":"麻口里","LIN":"1鄰","STREET":" ","SECT":" ","MAREA":"麻豆口","LANE":" ","ALLEY":" ","HOUSE_NO":"１號之１６","E_COORD97":170756.60000000001,"N_COORD97":2563926.1899999999,"ADDRESS":"麻豆口１號之１６","OBJECTID":131883},"geometry":{"x":170756.5999999987,"y":2563926.1899999995}},{"attributes":{"ID":131884,"DIS_CODE":0,"TOWNNAME":"麻豆區","LI":"麻口里","LIN":"1鄰","STREET":" ","SECT":" ","MAREA":"麻豆口","LANE":" ","ALLEY":" ","HOUSE_NO":"１號之１７","E_COORD97":170920.20999999999,"N_COORD97":2563936.7400000002,"ADDRESS":"麻豆口１號之１７","OBJECTID":131884},"geometry":{"x":170920.20999999996,"y":2563936.7400000002}},{"attributes":{"ID":131885,"DIS_CODE":0,"TOWNNAME":"麻豆區","LI":"麻口里","LIN":"1鄰","STREET":" ","SECT":" ","MAREA":"麻豆口","LANE":" ","ALLEY":" ","HOUSE_NO":"１號之１８","E_COORD97":170778.03,"N_COORD97":2564014.75,"ADDRESS":"麻豆口１號之１８","OBJECTID":131885},"geometry":{"x":170778.03000000026,"y":2564014.75}},{"attributes":{"ID":131886,"DIS_CODE":0,"TOWNNAME":"麻豆區","LI":"麻口里","LIN":"1鄰","STREET":" ","SECT":" ","MAREA":"麻豆口","LANE":" ","ALLEY":" ","HOUSE_NO":"１號之１","E_COORD97":170580.51999999999,"N_COORD97":2564173.4900000002,"ADDRESS":"麻豆口１號之１","OBJECTID":131886},"geometry":{"x":170580.51999999955,"y":2564173.4900000039}},{"attributes":{"ID":131887,"DIS_CODE":0,"TOWNNAME":"麻豆區","LI":"麻口里","LIN":"1鄰","STREET":" ","SECT":" ","MAREA":"麻豆口","LANE":" ","ALLEY":" ","HOUSE_NO":"１號之５１","E_COORD97":171043.97,"N_COORD97":2563956.4700000002,"ADDRESS":"麻豆口１號之５１","OBJECTID":131887},"geometry":{"x":171043.96999999974,"y":2563956.4700000007}},{"attributes":{"ID":131888,"DIS_CODE":0,"TOWNNAME":"麻豆區","LI":"麻口里","LIN":"1鄰","STREET":" ","SECT":" ","MAREA":"麻豆口","LANE":" ","ALLEY":" ","HOUSE_NO":"１號之２２","E_COORD97":170834.53,"N_COORD97":2563987.96,"ADDRESS":"麻豆口１號之２２","OBJECTID":131888},"geometry":{"x":170834.53000000119,"y":2563987.9600000046}},{"attributes":{"ID":131889,"DIS_CODE":0,"TOWNNAME":"麻豆區","LI":"麻口里","LIN":"1鄰","STREET":" ","SECT":" ","MAREA":"麻豆口","LANE":" ","ALLEY":" ","HOUSE_NO":"１號之２３","E_COORD97":170511.62,"N_COORD97":2563928.3199999998,"ADDRESS":"麻豆口１號之２３","OBJECTID":131889},"geometry":{"x":170511.62000000104,"y":2563928.3200000022}},{"attributes":{"ID":131890,"DIS_CODE":0,"TOWNNAME":"麻豆區","LI":"麻口里","LIN":"1鄰","STREET":" ","SECT":" ","MAREA":"麻豆口","LANE":" ","ALLEY":" ","HOUSE_NO":"１號之２５","E_COORD97":170859.26999999999,"N_COORD97":2564010.1299999999,"ADDRESS":"麻豆口１號之２５","OBJECTID":131890},"geometry":{"x":170859.27000000048,"y":2564010.1300000008}},{"attributes":{"ID":131891,"DIS_CODE":0,"TOWNNAME":"麻豆區","LI":"麻口里","LIN":"1鄰","STREET":" ","SECT":" ","MAREA":"麻豆口","LANE":" ","ALLEY":" ","HOUSE_NO":"１號之２６","E_COORD97":170946.04000000001,"N_COORD97":2564053.1400000001,"ADDRESS":"麻豆口１號之２６","OBJECTID":131891},"geometry":{"x":170946.04000000097,"y":2564053.1400000006}},{"attributes":{"ID":131892,"DIS_CODE":0,"TOWNNAME":"永康區","LI":"三合里","LIN":"11鄰","STREET":"南工街","SECT":" ","MAREA":" ","LANE":"２４７巷","ALLEY":"６４弄","HOUSE_NO":"８號六樓之２","E_COORD97":171925.62,"N_COORD97":2545775.4399999999,"ADDRESS":"南工街２４７巷６４弄８號六樓之２","OBJECTID":131892},"geometry":{"x":171925.62000000104,"y":2545775.4399999995}},{"attributes":{"ID":131893,"DIS_CODE":0,"TOWNNAME":"永康區","LI":"正強里","LIN":"5鄰","STREET":"自強路","SECT":" ","MAREA":" ","LANE":" ","ALLEY":" ","HOUSE_NO":"３８４號","E_COORD97":173540.67000000001,"N_COORD97":2547786.4199999999,"ADDRESS":"自強路３８４號","OBJECTID":131893},"geometry":{"x":173540.67000000086,"y":2547786.4199999999}},{"attributes":{"ID":131894,"DIS_CODE":0,"TOWNNAME":"永康區","LI":"三合里","LIN":"11鄰","STREET":"南工街","SECT":" ","MAREA":" ","LANE":"２４７巷","ALLEY":"６４弄","HOUSE_NO":"８號四樓之１","E_COORD97":171925.48000000001,"N_COORD97":2545775.4399999999,"ADDRESS":"南工街２４７巷６４弄８號四樓之１","OBJECTID":131894},"geometry":{"x":171925.48000000138,"y":2545775.4399999995}},{"attributes":{"ID":131895,"DIS_CODE":0,"TOWNNAME":"麻豆區","LI":"麻口里","LIN":"1鄰","STREET":" ","SECT":" ","MAREA":"麻豆口","LANE":" ","ALLEY":" ","HOUSE_NO":"１號之２７","E_COORD97":170950.63,"N_COORD97":2564019.6800000002,"ADDRESS":"麻豆口１號之２７","OBJECTID":131895},"geometry":{"x":170950.63000000082,"y":2564019.6800000016}},{"attributes":{"ID":131896,"DIS_CODE":0,"TOWNNAME":"麻豆區","LI":"麻口里","LIN":"1鄰","STREET":" ","SECT":" ","MAREA":"麻豆口","LANE":" ","ALLEY":" ","HOUSE_NO":"１號之２８","E_COORD97":170757.5,"N_COORD97":2564160.2999999998,"ADDRESS":"麻豆口１號之２８","OBJECTID":131896},"geometry":{"x":170757.5,"y":2564160.3000000007}},{"attributes":{"ID":131897,"DIS_CODE":0,"TOWNNAME":"麻豆區","LI":"麻口里","LIN":"6鄰","STREET":" ","SECT":" ","MAREA":"麻豆口","LANE":" ","ALLEY":" ","HOUSE_NO":"３３號之１０","E_COORD97":170126.42999999999,"N_COORD97":2565277.5600000001,"ADDRESS":"麻豆口３３號之１０","OBJECTID":131897},"geometry":{"x":170126.43000000063,"y":2565277.5600000005}},{"attributes":{"ID":131898,"DIS_CODE":0,"TOWNNAME":"麻豆區","LI":"麻口里","LIN":"6鄰","STREET":" ","SECT":" ","MAREA":"麻豆口","LANE":" ","ALLEY":" ","HOUSE_NO":"３４號之１","E_COORD97":170101.75,"N_COORD97":2564479.6299999999,"ADDRESS":"麻豆口３４號之１","OBJECTID":131898},"geometry":{"x":170101.75000000186,"y":2564479.6299999971}},{"attributes":{"ID":131899,"DIS_CODE":0,"TOWNNAME":"麻豆區","LI":"麻口里","LIN":"6鄰","STREET":" ","SECT":" ","MAREA":"麻豆口","LANE":" ","ALLEY":" ","HOUSE_NO":"３４號之２","E_COORD97":170076.09,"N_COORD97":2564463.4700000002,"ADDRESS":"麻豆口３４號之２","OBJECTID":131899},"geometry":{"x":170076.09000000078,"y":2564463.4700000025}},{"attributes":{"ID":131900,"DIS_CODE":0,"TOWNNAME":"麻豆區","LI":"麻口里","LIN":"6鄰","STREET":" ","SECT":" ","MAREA":"麻豆口","LANE":" ","ALLEY":" ","HOUSE_NO":"３４號","E_COORD97":170098.85999999999,"N_COORD97":2564459.73,"ADDRESS":"麻豆口３４號","OBJECTID":131900},"geometry":{"x":170098.86000000034,"y":2564459.7300000004}},{"attributes":{"ID":131901,"DIS_CODE":0,"TOWNNAME":"麻豆區","LI":"麻口里","LIN":"6鄰","STREET":" ","SECT":" ","MAREA":"麻豆口","LANE":" ","ALLEY":" ","HOUSE_NO":"３５號之１","E_COORD97":170037.09,"N_COORD97":2564456.6299999999,"ADDRESS":"麻豆口３５號之１","OBJECTID":131901},"geometry":{"x":170037.09000000078,"y":2564456.6300000008}},{"attributes":{"ID":131902,"DIS_CODE":0,"TOWNNAME":"麻豆區","LI":"麻口里","LIN":"6鄰","STREET":" ","SECT":" ","MAREA":"麻豆口","LANE":" ","ALLEY":" ","HOUSE_NO":"３５號之３","E_COORD97":170035.39999999999,"N_COORD97":2564466.2000000002,"ADDRESS":"麻豆口３５號之３","OBJECTID":131902},"geometry":{"x":170035.4000000013,"y":2564466.200000003}},{"attributes":{"ID":131903,"DIS_CODE":0,"TOWNNAME":"麻豆區","LI":"麻口里","LIN":"6鄰","STREET":" ","SECT":" ","MAREA":"麻豆口","LANE":" ","ALLEY":" ","HOUSE_NO":"３５號之４","E_COORD97":170055.85999999999,"N_COORD97":2564452.3999999999,"ADDRESS":"麻豆口３５號之４","OBJECTID":131903},"geometry":{"x":170055.86000000127,"y":2564452.4000000041}},{"attributes":{"ID":131904,"DIS_CODE":0,"TOWNNAME":"麻豆區","LI":"麻口里","LIN":"6鄰","STREET":" ","SECT":" ","MAREA":"麻豆口","LANE":" ","ALLEY":" ","HOUSE_NO":"３５號","E_COORD97":170060.54000000001,"N_COORD97":2564451.5299999998,"ADDRESS":"麻豆口３５號","OBJECTID":131904},"geometry":{"x":170060.54000000004,"y":2564451.5300000012}},{"attributes":{"ID":131905,"DIS_CODE":0,"TOWNNAME":"麻豆區","LI":"麻口里","LIN":"6鄰","STREET":" ","SECT":" ","MAREA":"麻豆口","LANE":" ","ALLEY":" ","HOUSE_NO":"３６號","E_COORD97":170063.16,"N_COORD97":2564511.9300000002,"ADDRESS":"麻豆口３６號","OBJECTID":131905},"geometry":{"x":170063.16000000015,"y":2564511.9299999997}},{"attributes":{"ID":131906,"DIS_CODE":0,"TOWNNAME":"麻豆區","LI":"麻口里","LIN":"6鄰","STREET":" ","SECT":" ","MAREA":"麻豆口","LANE":" ","ALLEY":" ","HOUSE_NO":"３８號之１","E_COORD97":169998.94,"N_COORD97":2564511.6600000001,"ADDRESS":"麻豆口３８號之１","OBJECTID":131906},"geometry":{"x":169998.94000000041,"y":2564511.660000002}},{"attributes":{"ID":131907,"DIS_CODE":0,"TOWNNAME":"麻豆區","LI":"麻口里","LIN":"6鄰","STREET":" ","SECT":" ","MAREA":"麻豆口","LANE":" ","ALLEY":" ","HOUSE_NO":"３８號","E_COORD97":170025.14999999999,"N_COORD97":2564508.8100000001,"ADDRESS":"麻豆口３８號","OBJECTID":131907},"geometry":{"x":170025.1500000013,"y":2564508.8100000024}},{"attributes":{"ID":131908,"DIS_CODE":0,"TOWNNAME":"麻豆區","LI":"麻口里","LIN":"6鄰","STREET":" ","SECT":" ","MAREA":"麻豆口","LANE":" ","ALLEY":" ","HOUSE_NO":"３９號之１","E_COORD97":170020.31,"N_COORD97":2564560.4300000002,"ADDRESS":"麻豆口３９號之１","OBJECTID":131908},"geometry":{"x":170020.31000000052,"y":2564560.4300000016}},{"attributes":{"ID":131909,"DIS_CODE":0,"TOWNNAME":"麻豆區","LI":"麻口里","LIN":"2鄰","STREET":" ","SECT":" ","MAREA":"麻豆口","LANE":" ","ALLEY":" ","HOUSE_NO":"２號之９５","E_COORD97":170434.09,"N_COORD97":2564127.0899999999,"ADDRESS":"麻豆口２號之９５","OBJECTID":131909},"geometry":{"x":170434.08999999985,"y":2564127.0899999999}},{"attributes":{"ID":131910,"DIS_CODE":0,"TOWNNAME":"麻豆區","LI":"麻口里","LIN":"2鄰","STREET":" ","SECT":" ","MAREA":"麻豆口","LANE":" ","ALLEY":" ","HOUSE_NO":"２號之９６","E_COORD97":170474.04000000001,"N_COORD97":2564118.1099999999,"ADDRESS":"麻豆口２號之９６","OBJECTID":131910},"geometry":{"x":170474.04000000004,"y":2564118.1100000013}},{"attributes":{"ID":131911,"DIS_CODE":0,"TOWNNAME":"麻豆區","LI":"麻口里","LIN":"2鄰","STREET":" ","SECT":" ","MAREA":"麻豆口","LANE":" ","ALLEY":" ","HOUSE_NO":"２號之９","E_COORD97":170375.85000000001,"N_COORD97":2564131.7200000002,"ADDRESS":"麻豆口２號之９","OBJECTID":131911},"geometry":{"x":170375.85000000056,"y":2564131.7200000044}},{"attributes":{"ID":131912,"DIS_CODE":0,"TOWNNAME":"麻豆區","LI":"麻口里","LIN":"4鄰","STREET":" ","SECT":" ","MAREA":"麻豆口","LANE":" ","ALLEY":" ","HOUSE_NO":"６號之１０","E_COORD97":170162.13,"N_COORD97":2564137.04,"ADDRESS":"麻豆口６號之１０","OBJECTID":131912},"geometry":{"x":170162.13000000082,"y":2564137.0399999991}},{"attributes":{"ID":131913,"DIS_CODE":0,"TOWNNAME":"麻豆區","LI":"麻口里","LIN":"4鄰","STREET":" ","SECT":" ","MAREA":"麻豆口","LANE":" ","ALLEY":" ","HOUSE_NO":"６號之１２","E_COORD97":170174.03,"N_COORD97":2564140.4700000002,"ADDRESS":"麻豆口６號之１２","OBJECTID":131913},"geometry":{"x":170174.03000000026,"y":2564140.4700000044}},{"attributes":{"ID":131914,"DIS_CODE":0,"TOWNNAME":"麻豆區","LI":"麻口里","LIN":"4鄰","STREET":" ","SECT":" ","MAREA":"麻豆口","LANE":" ","ALLEY":" ","HOUSE_NO":"６號之１","E_COORD97":170112.39999999999,"N_COORD97":2564129.23,"ADDRESS":"麻豆口６號之１","OBJECTID":131914},"geometry":{"x":170112.40000000037,"y":2564129.2300000023}},{"attributes":{"ID":131915,"DIS_CODE":0,"TOWNNAME":"麻豆區","LI":"麻口里","LIN":"4鄰","STREET":" ","SECT":" ","MAREA":"麻豆口","LANE":" ","ALLEY":" ","HOUSE_NO":"６號之２","E_COORD97":170121.20000000001,"N_COORD97":2564130.6899999999,"ADDRESS":"麻豆口６號之２","OBJECTID":131915},"geometry":{"x":170121.20000000112,"y":2564130.6900000032}},{"attributes":{"ID":131916,"DIS_CODE":0,"TOWNNAME":"麻豆區","LI":"麻口里","LIN":"4鄰","STREET":" ","SECT":" ","MAREA":"麻豆口","LANE":" ","ALLEY":" ","HOUSE_NO":"６號之３","E_COORD97":170133.35999999999,"N_COORD97":2564131.6400000001,"ADDRESS":"麻豆口６號之３","OBJECTID":131916},"geometry":{"x":170133.36000000034,"y":2564131.6400000006}},{"attributes":{"ID":131917,"DIS_CODE":0,"TOWNNAME":"麻豆區","LI":"麻口里","LIN":"4鄰","STREET":" ","SECT":" ","MAREA":"麻豆口","LANE":" ","ALLEY":" ","HOUSE_NO":"６號之４","E_COORD97":170139.54000000001,"N_COORD97":2564132.9500000002,"ADDRESS":"麻豆口６號之４","OBJECTID":131917},"geometry":{"x":170139.54000000097,"y":2564132.9500000011}},{"attributes":{"ID":131918,"DIS_CODE":0,"TOWNNAME":"麻豆區","LI":"麻口里","LIN":"4鄰","STREET":" ","SECT":" ","MAREA":"麻豆口","LANE":" ","ALLEY":" ","HOUSE_NO":"６號之７","E_COORD97":170145.06,"N_COORD97":2564132.2799999998,"ADDRESS":"麻豆口６號之７","OBJECTID":131918},"geometry":{"x":170145.06000000145,"y":2564132.2799999993}},{"attributes":{"ID":131919,"DIS_CODE":0,"TOWNNAME":"永康區","LI":"三合里","LIN":"11鄰","STREET":"南工街","SECT":" ","MAREA":" ","LANE":"２４７巷","ALLEY":"６４弄","HOUSE_NO":"８號六樓之３","E_COORD97":171925.57999999999,"N_COORD97":2545775.4399999999,"ADDRESS":"南工街２４７巷６４弄８號六樓之３","OBJECTID":131919},"geometry":{"x":171925.58000000101,"y":2545775.4399999995}},{"attributes":{"ID":131920,"DIS_CODE":0,"TOWNNAME":"麻豆區","LI":"麻口里","LIN":"4鄰","STREET":" ","SECT":" ","MAREA":"麻豆口","LANE":" ","ALLEY":" ","HOUSE_NO":"６號之８","E_COORD97":170149.26000000001,"N_COORD97":2564133.52,"ADDRESS":"麻豆口６號之８","OBJECTID":131920},"geometry":{"x":170149.26000000071,"y":2564133.5200000014}},{"attributes":{"ID":131921,"DIS_CODE":0,"TOWNNAME":"麻豆區","LI":"麻口里","LIN":"4鄰","STREET":" ","SECT":" ","MAREA":"麻豆口","LANE":" ","ALLEY":" ","HOUSE_NO":"６號之９","E_COORD97":170157.94,"N_COORD97":2564135.6400000001,"ADDRESS":"麻豆口６號之９","OBJECTID":131921},"geometry":{"x":170157.94000000041,"y":2564135.6400000043}},{"attributes":{"ID":131922,"DIS_CODE":0,"TOWNNAME":"東區","LI":"成大里","LIN":"6鄰","STREET":"東寧路","SECT":"西段","MAREA":" ","LANE":" ","ALLEY":" ","HOUSE_NO":"１０８號四樓之２","E_COORD97":169426.29000000001,"N_COORD97":2543808.7200000002,"ADDRESS":"東寧路西段１０８號四樓之２","OBJECTID":131922},"geometry":{"x":169426.29000000004,"y":2543808.7200000007}},{"attributes":{"ID":131923,"DIS_CODE":0,"TOWNNAME":"東區","LI":"成大里","LIN":"6鄰","STREET":"東寧路","SECT":"西段","MAREA":" ","LANE":" ","ALLEY":" ","HOUSE_NO":"１１０號七樓之２","E_COORD97":169428.92000000001,"N_COORD97":2543829.79,"ADDRESS":"東寧路西段１１０號七樓之２","OBJECTID":131923},"geometry":{"x":169428.91999999993,"y":2543829.7899999991}},{"attributes":{"ID":131924,"DIS_CODE":0,"TOWNNAME":"永康區","LI":"三合里","LIN":"11鄰","STREET":"南工街","SECT":" ","MAREA":" ","LANE":"２４７巷","ALLEY":"６４弄","HOUSE_NO":"８號三樓之１","E_COORD97":171925.48000000001,"N_COORD97":2545775.4399999999,"ADDRESS":"南工街２４７巷６４弄８號三樓之１","OBJECTID":131924},"geometry":{"x":171925.48000000138,"y":2545775.4399999995}},{"attributes":{"ID":131925,"DIS_CODE":0,"TOWNNAME":"麻豆區","LI":"麻口里","LIN":"4鄰","STREET":" ","SECT":" ","MAREA":"麻豆口","LANE":" ","ALLEY":" ","HOUSE_NO":"９號之６","E_COORD97":170255.85000000001,"N_COORD97":2564158.5299999998,"ADDRESS":"麻豆口９號之６","OBJECTID":131925},"geometry":{"x":170255.84999999963,"y":2564158.5299999975}},{"attributes":{"ID":131926,"DIS_CODE":0,"TOWNNAME":"東區","LI":"成大里","LIN":"6鄰","STREET":"東寧路","SECT":"西段","MAREA":" ","LANE":" ","ALLEY":" ","HOUSE_NO":"１１０號九樓之２","E_COORD97":169428.92000000001,"N_COORD97":2543829.79,"ADDRESS":"東寧路西段１１０號九樓之２","OBJECTID":131926},"geometry":{"x":169428.91999999993,"y":2543829.7899999991}},{"attributes":{"ID":131927,"DIS_CODE":0,"TOWNNAME":"麻豆區","LI":"麻口里","LIN":"4鄰","STREET":" ","SECT":" ","MAREA":"麻豆口","LANE":" ","ALLEY":" ","HOUSE_NO":"９號之７","E_COORD97":170260.81,"N_COORD97":2564159.8199999998,"ADDRESS":"麻豆口９號之７","OBJECTID":131927},"geometry":{"x":170260.81000000052,"y":2564159.8200000003}},{"attributes":{"ID":131928,"DIS_CODE":0,"TOWNNAME":"麻豆區","LI":"麻口里","LIN":"4鄰","STREET":" ","SECT":" ","MAREA":"麻豆口","LANE":" ","ALLEY":" ","HOUSE_NO":"９號之８","E_COORD97":170266.16,"N_COORD97":2564161.0699999998,"ADDRESS":"麻豆口９號之８","OBJECTID":131928},"geometry":{"x":170266.16000000015,"y":2564161.0700000022}},{"attributes":{"ID":131929,"DIS_CODE":0,"TOWNNAME":"麻豆區","LI":"港尾里","LIN":"7鄰","STREET":" ","SECT":" ","MAREA":"港子尾","LANE":" ","ALLEY":" ","HOUSE_NO":"２７號之１","E_COORD97":168564.41,"N_COORD97":2567251.7200000002,"ADDRESS":"港子尾２７號之１","OBJECTID":131929},"geometry":{"x":168564.41000000015,"y":2567251.7200000025}},{"attributes":{"ID":131930,"DIS_CODE":0,"TOWNNAME":"永康區","LI":"三合里","LIN":"11鄰","STREET":"南工街","SECT":" ","MAREA":" ","LANE":"２４７巷","ALLEY":"６４弄","HOUSE_NO":"８號五樓之２","E_COORD97":171925.62,"N_COORD97":2545775.4399999999,"ADDRESS":"南工街２４７巷６４弄８號五樓之２","OBJECTID":131930},"geometry":{"x":171925.62000000104,"y":2545775.4399999995}},{"attributes":{"ID":131931,"DIS_CODE":0,"TOWNNAME":"麻豆區","LI":"港尾里","LIN":"7鄰","STREET":" ","SECT":" ","MAREA":"港子尾","LANE":" ","ALLEY":" ","HOUSE_NO":"２７號","E_COORD97":168560,"N_COORD97":2567235.5299999998,"ADDRESS":"港子尾２７號","OBJECTID":131931},"geometry":{"x":168560,"y":2567235.5300000012}},{"attributes":{"ID":131932,"DIS_CODE":0,"TOWNNAME":"麻豆區","LI":"港尾里","LIN":"7鄰","STREET":" ","SECT":" ","MAREA":"港子尾","LANE":" ","ALLEY":" ","HOUSE_NO":"２８號","E_COORD97":168556.10999999999,"N_COORD97":2567273.1299999999,"ADDRESS":"港子尾２８號","OBJECTID":131932},"geometry":{"x":168556.11000000127,"y":2567273.129999999}},{"attributes":{"ID":131933,"DIS_CODE":0,"TOWNNAME":"永康區","LI":"三合里","LIN":"11鄰","STREET":"南工街","SECT":" ","MAREA":" ","LANE":"２４７巷","ALLEY":"６４弄","HOUSE_NO":"８號二樓之３","E_COORD97":171925.57999999999,"N_COORD97":2545775.4399999999,"ADDRESS":"南工街２４７巷６４弄８號二樓之３","OBJECTID":131933},"geometry":{"x":171925.58000000101,"y":2545775.4399999995}},{"attributes":{"ID":131934,"DIS_CODE":0,"TOWNNAME":"永康區","LI":"三合里","LIN":"11鄰","STREET":"南工街","SECT":" ","MAREA":" ","LANE":"２４７巷","ALLEY":"６４弄","HOUSE_NO":"８號四樓之３","E_COORD97":171925.57999999999,"N_COORD97":2545775.4399999999,"ADDRESS":"南工街２４７巷６４弄８號四樓之３","OBJECTID":131934},"geometry":{"x":171925.58000000101,"y":2545775.4399999995}},{"attributes":{"ID":131935,"DIS_CODE":0,"TOWNNAME":"永康區","LI":"三合里","LIN":"11鄰","STREET":"南工街","SECT":" ","MAREA":" ","LANE":"２４７巷","ALLEY":"６４弄","HOUSE_NO":"８號六樓之１","E_COORD97":171925.48000000001,"N_COORD97":2545775.4399999999,"ADDRESS":"南工街２４７巷６４弄８號六樓之１","OBJECTID":131935},"geometry":{"x":171925.48000000138,"y":2545775.4399999995}},{"attributes":{"ID":131936,"DIS_CODE":0,"TOWNNAME":"永康區","LI":"三合里","LIN":"11鄰","STREET":"南工街","SECT":" ","MAREA":" ","LANE":"２４７巷","ALLEY":"６４弄","HOUSE_NO":"８號五樓之３","E_COORD97":171925.57999999999,"N_COORD97":2545775.4399999999,"ADDRESS":"南工街２４７巷６４弄８號五樓之３","OBJECTID":131936},"geometry":{"x":171925.58000000101,"y":2545775.4399999995}},{"attributes":{"ID":131937,"DIS_CODE":0,"TOWNNAME":"永康區","LI":"三合里","LIN":"11鄰","STREET":"南工街","SECT":" ","MAREA":" ","LANE":"２４７巷","ALLEY":"６４弄","HOUSE_NO":"８號二樓之１","E_COORD97":171925.48000000001,"N_COORD97":2545775.4399999999,"ADDRESS":"南工街２４７巷６４弄８號二樓之１","OBJECTID":131937},"geometry":{"x":171925.48000000138,"y":2545775.4399999995}},{"attributes":{"ID":131938,"DIS_CODE":0,"TOWNNAME":"永康區","LI":"三合里","LIN":"11鄰","STREET":"南工街","SECT":" ","MAREA":" ","LANE":"２４７巷","ALLEY":"６４弄","HOUSE_NO":"８號三樓之２","E_COORD97":171925.62,"N_COORD97":2545775.4399999999,"ADDRESS":"南工街２４７巷６４弄８號三樓之２","OBJECTID":131938},"geometry":{"x":171925.62000000104,"y":2545775.4399999995}},{"attributes":{"ID":131939,"DIS_CODE":0,"TOWNNAME":"永康區","LI":"三合里","LIN":"11鄰","STREET":"南工街","SECT":" ","MAREA":" ","LANE":"２４７巷","ALLEY":"６４弄","HOUSE_NO":"８號五樓之１","E_COORD97":171925.48000000001,"N_COORD97":2545775.4399999999,"ADDRESS":"南工街２４７巷６４弄８號五樓之１","OBJECTID":131939},"geometry":{"x":171925.48000000138,"y":2545775.4399999995}},{"attributes":{"ID":131940,"DIS_CODE":0,"TOWNNAME":"永康區","LI":"新樹里","LIN":"11鄰","STREET":"富強路","SECT":"二段","MAREA":" ","LANE":"１２８巷","ALLEY":"１４弄","HOUSE_NO":"８號","E_COORD97":175719.12,"N_COORD97":2547074.4100000001,"ADDRESS":"富強路二段１２８巷１４弄８號","OBJECTID":131940},"geometry":{"x":175719.12000000104,"y":2547074.410000002}},{"attributes":{"ID":131941,"DIS_CODE":0,"TOWNNAME":"麻豆區","LI":"港尾里","LIN":"7鄰","STREET":" ","SECT":" ","MAREA":"港子尾","LANE":" ","ALLEY":" ","HOUSE_NO":"２９號之１","E_COORD97":168557.84,"N_COORD97":2567286.6800000002,"ADDRESS":"港子尾２９號之１","OBJECTID":131941},"geometry":{"x":168557.83999999985,"y":2567286.6799999997}},{"attributes":{"ID":131942,"DIS_CODE":0,"TOWNNAME":"永康區","LI":"復華里","LIN":"11鄰","STREET":"復國二路","SECT":" ","MAREA":" ","LANE":"２４３巷","ALLEY":"２１弄","HOUSE_NO":"５號","E_COORD97":172967.20999999999,"N_COORD97":2546089.0099999998,"ADDRESS":"復國二路２４３巷２１弄５號","OBJECTID":131942},"geometry":{"x":172967.21000000089,"y":2546089.0100000016}},{"attributes":{"ID":131943,"DIS_CODE":0,"TOWNNAME":"永康區","LI":"勝利里","LIN":"11鄰","STREET":"勝利街","SECT":" ","MAREA":" ","LANE":"２２巷","ALLEY":"４５弄","HOUSE_NO":"４號","E_COORD97":171263.59,"N_COORD97":2544702.5,"ADDRESS":"勝利街２２巷４５弄４號","OBJECTID":131943},"geometry":{"x":171263.58999999985,"y":2544702.5000000037}},{"attributes":{"ID":131944,"DIS_CODE":0,"TOWNNAME":"麻豆區","LI":"港尾里","LIN":"7鄰","STREET":" ","SECT":" ","MAREA":"港子尾","LANE":" ","ALLEY":" ","HOUSE_NO":"２９號","E_COORD97":168558.78,"N_COORD97":2567282.2799999998,"ADDRESS":"港子尾２９號","OBJECTID":131944},"geometry":{"x":168558.78000000026,"y":2567282.2799999993}},{"attributes":{"ID":131945,"DIS_CODE":0,"TOWNNAME":"麻豆區","LI":"港尾里","LIN":"7鄰","STREET":" ","SECT":" ","MAREA":"港子尾","LANE":" ","ALLEY":" ","HOUSE_NO":"３０號之１","E_COORD97":168536.60999999999,"N_COORD97":2567307.48,"ADDRESS":"港子尾３０號之１","OBJECTID":131945},"geometry":{"x":168536.6099999994,"y":2567307.4800000023}},{"attributes":{"ID":131946,"DIS_CODE":0,"TOWNNAME":"麻豆區","LI":"港尾里","LIN":"7鄰","STREET":" ","SECT":" ","MAREA":"港子尾","LANE":" ","ALLEY":" ","HOUSE_NO":"３０號","E_COORD97":168555.06,"N_COORD97":2567302.75,"ADDRESS":"港子尾３０號","OBJECTID":131946},"geometry":{"x":168555.06000000052,"y":2567302.75}},{"attributes":{"ID":131947,"DIS_CODE":0,"TOWNNAME":"麻豆區","LI":"港尾里","LIN":"7鄰","STREET":" ","SECT":" ","MAREA":"港子尾","LANE":" ","ALLEY":" ","HOUSE_NO":"３３號之１","E_COORD97":168540.81,"N_COORD97":2567240,"ADDRESS":"港子尾３３號之１","OBJECTID":131947},"geometry":{"x":168540.80999999959,"y":2567240}},{"attributes":{"ID":131948,"DIS_CODE":0,"TOWNNAME":"永康區","LI":"永康里","LIN":"37鄰","STREET":"西勢路","SECT":" ","MAREA":" ","LANE":" ","ALLEY":" ","HOUSE_NO":"７５２號","E_COORD97":174527.19,"N_COORD97":2546750.9199999999,"ADDRESS":"西勢路７５２號","OBJECTID":131948},"geometry":{"x":174527.19000000134,"y":2546750.9200000018}},{"attributes":{"ID":131949,"DIS_CODE":0,"TOWNNAME":"永康區","LI":"勝利里","LIN":"11鄰","STREET":"勝利街","SECT":" ","MAREA":" ","LANE":"２２巷","ALLEY":"４５弄","HOUSE_NO":"２號","E_COORD97":171269.62,"N_COORD97":2544701.5,"ADDRESS":"勝利街２２巷４５弄２號","OBJECTID":131949},"geometry":{"x":171269.62000000104,"y":2544701.5}},{"attributes":{"ID":131950,"DIS_CODE":0,"TOWNNAME":"仁德區","LI":"成功里","LIN":"11鄰","STREET":"成功二街","SECT":" ","MAREA":" ","LANE":"３１巷","ALLEY":"１０弄","HOUSE_NO":"９號","E_COORD97":170967.06,"N_COORD97":2539811.02,"ADDRESS":"成功二街３１巷１０弄９號","OBJECTID":131950},"geometry":{"x":170967.05999999866,"y":2539811.0200000014}},{"attributes":{"ID":131951,"DIS_CODE":0,"TOWNNAME":"麻豆區","LI":"港尾里","LIN":"7鄰","STREET":" ","SECT":" ","MAREA":"港子尾","LANE":" ","ALLEY":" ","HOUSE_NO":"３３號之２","E_COORD97":168529.23999999999,"N_COORD97":2567286.5800000001,"ADDRESS":"港子尾３３號之２","OBJECTID":131951},"geometry":{"x":168529.24000000115,"y":2567286.5800000019}},{"attributes":{"ID":131952,"DIS_CODE":0,"TOWNNAME":"麻豆區","LI":"港尾里","LIN":"8鄰","STREET":" ","SECT":" ","MAREA":"港子尾","LANE":" ","ALLEY":" ","HOUSE_NO":"４０號","E_COORD97":168465.20000000001,"N_COORD97":2567248.79,"ADDRESS":"港子尾４０號","OBJECTID":131952},"geometry":{"x":168465.20000000112,"y":2567248.7900000028}},{"attributes":{"ID":131953,"DIS_CODE":0,"TOWNNAME":"麻豆區","LI":"港尾里","LIN":"8鄰","STREET":" ","SECT":" ","MAREA":"港子尾","LANE":" ","ALLEY":" ","HOUSE_NO":"４１號","E_COORD97":168453.03,"N_COORD97":2567282.1400000001,"ADDRESS":"港子尾４１號","OBJECTID":131953},"geometry":{"x":168453.03000000119,"y":2567282.1400000043}},{"attributes":{"ID":131954,"DIS_CODE":0,"TOWNNAME":"麻豆區","LI":"港尾里","LIN":"10鄰","STREET":" ","SECT":" ","MAREA":"港子尾","LANE":" ","ALLEY":" ","HOUSE_NO":"６６號之１６","E_COORD97":168476.72,"N_COORD97":2566703.1000000001,"ADDRESS":"港子尾６６號之１６","OBJECTID":131954},"geometry":{"x":168476.72000000067,"y":2566703.1000000015}},{"attributes":{"ID":131955,"DIS_CODE":0,"TOWNNAME":"麻豆區","LI":"港尾里","LIN":"10鄰","STREET":" ","SECT":" ","MAREA":"港子尾","LANE":" ","ALLEY":" ","HOUSE_NO":"６６號之１７","E_COORD97":168472.82000000001,"N_COORD97":2566691.8100000001,"ADDRESS":"港子尾６６號之１７","OBJECTID":131955},"geometry":{"x":168472.82000000123,"y":2566691.8100000024}},{"attributes":{"ID":131956,"DIS_CODE":0,"TOWNNAME":"善化區","LI":"小新里","LIN":"11鄰","STREET":"蓮潭南街","SECT":" ","MAREA":" ","LANE":"２７５巷","ALLEY":"１弄","HOUSE_NO":"６號","E_COORD97":178947.85000000001,"N_COORD97":2556719.7200000002,"ADDRESS":"蓮潭南街２７５巷１弄６號","OBJECTID":131956},"geometry":{"x":178947.85000000149,"y":2556719.7200000007}},{"attributes":{"ID":131957,"DIS_CODE":0,"TOWNNAME":"善化區","LI":"小新里","LIN":"11鄰","STREET":"蓮潭南街","SECT":" ","MAREA":" ","LANE":"２７５巷","ALLEY":"１弄","HOUSE_NO":"８號","E_COORD97":178958.01000000001,"N_COORD97":2556711.6000000001,"ADDRESS":"蓮潭南街２７５巷１弄８號","OBJECTID":131957},"geometry":{"x":178958.00999999978,"y":2556711.6000000015}},{"attributes":{"ID":131958,"DIS_CODE":0,"TOWNNAME":"麻豆區","LI":"港尾里","LIN":"10鄰","STREET":" ","SECT":" ","MAREA":"港子尾","LANE":" ","ALLEY":" ","HOUSE_NO":"６６號之１８","E_COORD97":168380.45999999999,"N_COORD97":2566568.9900000002,"ADDRESS":"港子尾６６號之１８","OBJECTID":131958},"geometry":{"x":168380.46000000089,"y":2566568.9900000002}},{"attributes":{"ID":131959,"DIS_CODE":0,"TOWNNAME":"善化區","LI":"小新里","LIN":"11鄰","STREET":"蓮潭南街","SECT":" ","MAREA":" ","LANE":"２７５巷","ALLEY":"１弄","HOUSE_NO":"１０號","E_COORD97":178959.35999999999,"N_COORD97":2556721.5,"ADDRESS":"蓮潭南街２７５巷１弄１０號","OBJECTID":131959},"geometry":{"x":178959.36000000127,"y":2556721.5000000019}},{"attributes":{"ID":131960,"DIS_CODE":0,"TOWNNAME":"善化區","LI":"小新里","LIN":"11鄰","STREET":"蓮潭南街","SECT":" ","MAREA":" ","LANE":"２７５巷","ALLEY":"１弄","HOUSE_NO":"１２號","E_COORD97":178967.95000000001,"N_COORD97":2556715.7000000002,"ADDRESS":"蓮潭南街２７５巷１弄１２號","OBJECTID":131960},"geometry":{"x":178967.95000000019,"y":2556715.700000003}},{"attributes":{"ID":131961,"DIS_CODE":0,"TOWNNAME":"善化區","LI":"小新里","LIN":"11鄰","STREET":"蓮潭南街","SECT":" ","MAREA":" ","LANE":"２７５巷","ALLEY":"１弄","HOUSE_NO":"１６號","E_COORD97":178973.38,"N_COORD97":2556721.96,"ADDRESS":"蓮潭南街２７５巷１弄１６號","OBJECTID":131961},"geometry":{"x":178973.38000000175,"y":2556721.9600000009}},{"attributes":{"ID":131962,"DIS_CODE":0,"TOWNNAME":"善化區","LI":"小新里","LIN":"11鄰","STREET":"蓮潭南街","SECT":" ","MAREA":" ","LANE":"２７５巷","ALLEY":"１弄","HOUSE_NO":"１８號","E_COORD97":178978.10000000001,"N_COORD97":2556725.1400000001,"ADDRESS":"蓮潭南街２７５巷１弄１８號","OBJECTID":131962},"geometry":{"x":178978.09999999963,"y":2556725.1400000025}},{"attributes":{"ID":131963,"DIS_CODE":0,"TOWNNAME":"善化區","LI":"小新里","LIN":"11鄰","STREET":"蓮潭南街","SECT":" ","MAREA":" ","LANE":"２７５巷","ALLEY":"１弄","HOUSE_NO":"２０號","E_COORD97":178983.16,"N_COORD97":2556728.04,"ADDRESS":"蓮潭南街２７５巷１弄２０號","OBJECTID":131963},"geometry":{"x":178983.16000000015,"y":2556728.040000001}},{"attributes":{"ID":131964,"DIS_CODE":0,"TOWNNAME":"善化區","LI":"小新里","LIN":"11鄰","STREET":"蓮潭南街","SECT":" ","MAREA":" ","LANE":"２７５巷","ALLEY":"１弄","HOUSE_NO":"２２號","E_COORD97":178988.22,"N_COORD97":2556730.9399999999,"ADDRESS":"蓮潭南街２７５巷１弄２２號","OBJECTID":131964},"geometry":{"x":178988.22000000067,"y":2556730.9399999995}},{"attributes":{"ID":131965,"DIS_CODE":0,"TOWNNAME":"麻豆區","LI":"港尾里","LIN":"10鄰","STREET":" ","SECT":" ","MAREA":"港子尾","LANE":" ","ALLEY":" ","HOUSE_NO":"６６號之１","E_COORD97":168488.76000000001,"N_COORD97":2566926.52,"ADDRESS":"港子尾６６號之１","OBJECTID":131965},"geometry":{"x":168488.75999999978,"y":2566926.5200000014}},{"attributes":{"ID":131966,"DIS_CODE":0,"TOWNNAME":"善化區","LI":"小新里","LIN":"11鄰","STREET":"蓮潭南街","SECT":" ","MAREA":" ","LANE":"２７５巷","ALLEY":"１弄","HOUSE_NO":"２６號","E_COORD97":178992.01000000001,"N_COORD97":2556737.73,"ADDRESS":"蓮潭南街２７５巷１弄２６號","OBJECTID":131966},"geometry":{"x":178992.00999999978,"y":2556737.7300000023}},{"attributes":{"ID":131967,"DIS_CODE":0,"TOWNNAME":"善化區","LI":"小新里","LIN":"11鄰","STREET":"蓮潭南街","SECT":" ","MAREA":" ","LANE":"２７５巷","ALLEY":"２弄","HOUSE_NO":"７號","E_COORD97":178892.20999999999,"N_COORD97":2556672.7799999998,"ADDRESS":"蓮潭南街２７５巷２弄７號","OBJECTID":131967},"geometry":{"x":178892.21000000089,"y":2556672.7800000012}},{"attributes":{"ID":131968,"DIS_CODE":0,"TOWNNAME":"善化區","LI":"小新里","LIN":"11鄰","STREET":"蓮潭南街","SECT":" ","MAREA":" ","LANE":"２７５巷","ALLEY":"２弄","HOUSE_NO":"９號","E_COORD97":178886.07999999999,"N_COORD97":2556673.9900000002,"ADDRESS":"蓮潭南街２７５巷２弄９號","OBJECTID":131968},"geometry":{"x":178886.08000000101,"y":2556673.9900000039}},{"attributes":{"ID":131969,"DIS_CODE":0,"TOWNNAME":"善化區","LI":"小新里","LIN":"11鄰","STREET":"蓮潭南街","SECT":" ","MAREA":" ","LANE":"２７５巷","ALLEY":"２弄","HOUSE_NO":"１０號","E_COORD97":178885.98000000001,"N_COORD97":2556701.8799999999,"ADDRESS":"蓮潭南街２７５巷２弄１０號","OBJECTID":131969},"geometry":{"x":178885.98000000045,"y":2556701.8800000008}},{"attributes":{"ID":131970,"DIS_CODE":0,"TOWNNAME":"善化區","LI":"小新里","LIN":"11鄰","STREET":"蓮潭南街","SECT":" ","MAREA":" ","LANE":"２７５巷","ALLEY":"２弄","HOUSE_NO":"１１號","E_COORD97":178880.53,"N_COORD97":2556674.6499999999,"ADDRESS":"蓮潭南街２７５巷２弄１１號","OBJECTID":131970},"geometry":{"x":178880.53000000026,"y":2556674.6500000022}},{"attributes":{"ID":131971,"DIS_CODE":0,"TOWNNAME":"善化區","LI":"小新里","LIN":"11鄰","STREET":"蓮潭南街","SECT":" ","MAREA":" ","LANE":"２７５巷","ALLEY":"２弄","HOUSE_NO":"１２號","E_COORD97":178879.04000000001,"N_COORD97":2556698.6299999999,"ADDRESS":"蓮潭南街２７５巷２弄１２號","OBJECTID":131971},"geometry":{"x":178879.04000000004,"y":2556698.6299999971}},{"attributes":{"ID":131972,"DIS_CODE":0,"TOWNNAME":"善化區","LI":"小新里","LIN":"11鄰","STREET":"蓮潭南街","SECT":" ","MAREA":" ","LANE":"２７５巷","ALLEY":"２弄","HOUSE_NO":"１３號","E_COORD97":178875.16,"N_COORD97":2556668.0099999998,"ADDRESS":"蓮潭南街２７５巷２弄１３號","OBJECTID":131972},"geometry":{"x":178875.16000000201,"y":2556668.0100000016}},{"attributes":{"ID":131973,"DIS_CODE":0,"TOWNNAME":"善化區","LI":"小新里","LIN":"11鄰","STREET":"蓮潭南街","SECT":" ","MAREA":" ","LANE":"２７５巷","ALLEY":"２０弄","HOUSE_NO":"２０號","E_COORD97":178883.98999999999,"N_COORD97":2556650.3500000001,"ADDRESS":"蓮潭南街２７５巷２０弄２０號","OBJECTID":131973},"geometry":{"x":178883.99000000022,"y":2556650.3499999996}},{"attributes":{"ID":131974,"DIS_CODE":0,"TOWNNAME":"善化區","LI":"小新里","LIN":"11鄰","STREET":"蓮潭南街","SECT":" ","MAREA":" ","LANE":"２７５巷","ALLEY":"２０弄","HOUSE_NO":"２２號","E_COORD97":178875.66,"N_COORD97":2556645.2999999998,"ADDRESS":"蓮潭南街２７５巷２０弄２２號","OBJECTID":131974},"geometry":{"x":178875.66000000108,"y":2556645.3000000045}},{"attributes":{"ID":131975,"DIS_CODE":0,"TOWNNAME":"永康區","LI":"永康里","LIN":"38鄰","STREET":"永大路","SECT":"二段","MAREA":" ","LANE":" ","ALLEY":" ","HOUSE_NO":"１１７６號","E_COORD97":174378.35999999999,"N_COORD97":2546678.9500000002,"ADDRESS":"永大路二段１１７６號","OBJECTID":131975},"geometry":{"x":174378.3600000022,"y":2546678.9500000011}},{"attributes":{"ID":131976,"DIS_CODE":0,"TOWNNAME":"麻豆區","LI":"港尾里","LIN":"10鄰","STREET":" ","SECT":" ","MAREA":"港子尾","LANE":" ","ALLEY":" ","HOUSE_NO":"６６號之２","E_COORD97":168487.01000000001,"N_COORD97":2566912.6299999999,"ADDRESS":"港子尾６６號之２","OBJECTID":131976},"geometry":{"x":168487.00999999978,"y":2566912.629999999}},{"attributes":{"ID":131977,"DIS_CODE":0,"TOWNNAME":"麻豆區","LI":"港尾里","LIN":"10鄰","STREET":" ","SECT":" ","MAREA":"港子尾","LANE":" ","ALLEY":" ","HOUSE_NO":"６６號","E_COORD97":168498.39999999999,"N_COORD97":2566940.96,"ADDRESS":"港子尾６６號","OBJECTID":131977},"geometry":{"x":168498.40000000037,"y":2566940.9600000046}},{"attributes":{"ID":131978,"DIS_CODE":0,"TOWNNAME":"麻豆區","LI":"麻口里","LIN":"10鄰","STREET":" ","SECT":" ","MAREA":"番子寮","LANE":" ","ALLEY":" ","HOUSE_NO":"１０號","E_COORD97":170268.14000000001,"N_COORD97":2563122.4500000002,"ADDRESS":"番子寮１０號","OBJECTID":131978},"geometry":{"x":170268.13999999873,"y":2563122.4500000011}},{"attributes":{"ID":131979,"DIS_CODE":0,"TOWNNAME":"北區","LI":"公園里","LIN":"6鄰","STREET":"成功路","SECT":" ","MAREA":" ","LANE":" ","ALLEY":" ","HOUSE_NO":"２號九樓之１","E_COORD97":169158.57999999999,"N_COORD97":2544255.9300000002,"ADDRESS":"成功路２號九樓之１","OBJECTID":131979},"geometry":{"x":169158.58000000007,"y":2544255.9300000016}},{"attributes":{"ID":131980,"DIS_CODE":0,"TOWNNAME":"麻豆區","LI":"麻口里","LIN":"10鄰","STREET":" ","SECT":" ","MAREA":"番子寮","LANE":" ","ALLEY":" ","HOUSE_NO":"１１號","E_COORD97":170252.48000000001,"N_COORD97":2563124.48,"ADDRESS":"番子寮１１號","OBJECTID":131980},"geometry":{"x":170252.48000000045,"y":2563124.4800000023}},{"attributes":{"ID":131981,"DIS_CODE":0,"TOWNNAME":"麻豆區","LI":"麻口里","LIN":"10鄰","STREET":" ","SECT":" ","MAREA":"番子寮","LANE":" ","ALLEY":" ","HOUSE_NO":"１２號","E_COORD97":170268.28,"N_COORD97":2563137.9900000002,"ADDRESS":"番子寮１２號","OBJECTID":131981},"geometry":{"x":170268.28000000119,"y":2563137.9900000002}},{"attributes":{"ID":131982,"DIS_CODE":0,"TOWNNAME":"善化區","LI":"小新里","LIN":"11鄰","STREET":"蓮潭路","SECT":" ","MAREA":" ","LANE":"１１６巷","ALLEY":"５弄","HOUSE_NO":"５號","E_COORD97":179147.42095699999,"N_COORD97":2557070.7449699999,"ADDRESS":"蓮潭路１１６巷５弄５號","OBJECTID":131982},"geometry":{"x":179147.42095699906,"y":2557070.7449670006}},{"attributes":{"ID":131983,"DIS_CODE":0,"TOWNNAME":"善化區","LI":"小新里","LIN":"11鄰","STREET":"蓮潭路","SECT":" ","MAREA":" ","LANE":"１１６巷","ALLEY":"５弄","HOUSE_NO":"１１號","E_COORD97":179130.052303,"N_COORD97":2557071.0624699998,"ADDRESS":"蓮潭路１１６巷５弄１１號","OBJECTID":131983},"geometry":{"x":179130.05230300128,"y":2557071.0624669995}},{"attributes":{"ID":131984,"DIS_CODE":0,"TOWNNAME":"善化區","LI":"小新里","LIN":"11鄰","STREET":"蓮潭路","SECT":" ","MAREA":" ","LANE":"１１６巷","ALLEY":"５弄","HOUSE_NO":"９號","E_COORD97":179135.98306299999,"N_COORD97":2557071.1683,"ADDRESS":"蓮潭路１１６巷５弄９號","OBJECTID":131984},"geometry":{"x":179135.98306300025,"y":2557071.1682999991}},{"attributes":{"ID":131985,"DIS_CODE":0,"TOWNNAME":"善化區","LI":"小新里","LIN":"11鄰","STREET":"蓮潭路","SECT":" ","MAREA":" ","LANE":"１１６巷","ALLEY":"５弄","HOUSE_NO":"７號","E_COORD97":179141.59610299999,"N_COORD97":2557070.8508000001,"ADDRESS":"蓮潭路１１６巷５弄７號","OBJECTID":131985},"geometry":{"x":179141.59610300045,"y":2557070.850800002}},{"attributes":{"ID":131986,"DIS_CODE":0,"TOWNNAME":"善化區","LI":"小新里","LIN":"11鄰","STREET":"蓮潭路","SECT":" ","MAREA":" ","LANE":"１１６巷","ALLEY":"５弄","HOUSE_NO":"２號","E_COORD97":179159.07066299999,"N_COORD97":2557075.9308000002,"ADDRESS":"蓮潭路１１６巷５弄２號","OBJECTID":131986},"geometry":{"x":179159.07066299953,"y":2557075.9307970013}},{"attributes":{"ID":131987,"DIS_CODE":0,"TOWNNAME":"善化區","LI":"小新里","LIN":"11鄰","STREET":"蓮潭路","SECT":" ","MAREA":" ","LANE":"１１６巷","ALLEY":"５弄","HOUSE_NO":"１７號","E_COORD97":179111.73049300001,"N_COORD97":2557071.69747,"ADDRESS":"蓮潭路１１６巷５弄１７號","OBJECTID":131987},"geometry":{"x":179111.73049300071,"y":2557071.6974660046}},{"attributes":{"ID":131988,"DIS_CODE":0,"TOWNNAME":"善化區","LI":"小新里","LIN":"11鄰","STREET":"蓮潭路","SECT":" ","MAREA":" ","LANE":"１１６巷","ALLEY":"５弄","HOUSE_NO":"１３號","E_COORD97":179124.22745000001,"N_COORD97":2557071.1683,"ADDRESS":"蓮潭路１１６巷５弄１３號","OBJECTID":131988},"geometry":{"x":179124.22745000105,"y":2557071.1682999991}},{"attributes":{"ID":131989,"DIS_CODE":0,"TOWNNAME":"善化區","LI":"小新里","LIN":"11鄰","STREET":"蓮潭路","SECT":" ","MAREA":" ","LANE":"１１６巷","ALLEY":"５弄","HOUSE_NO":"６號","E_COORD97":179153.351716,"N_COORD97":2557076.1424599998,"ADDRESS":"蓮潭路１１６巷５弄６號","OBJECTID":131989},"geometry":{"x":179153.35171599872,"y":2557076.1424640026}},{"attributes":{"ID":131990,"DIS_CODE":0,"TOWNNAME":"善化區","LI":"小新里","LIN":"11鄰","STREET":"蓮潭路","SECT":" ","MAREA":" ","LANE":"１１６巷","ALLEY":"５弄","HOUSE_NO":"８號","E_COORD97":179147.52686300001,"N_COORD97":2557076.03663,"ADDRESS":"蓮潭路１１６巷５弄８號","OBJECTID":131990},"geometry":{"x":179147.52686300129,"y":2557076.0366310012}},{"attributes":{"ID":131991,"DIS_CODE":0,"TOWNNAME":"善化區","LI":"小新里","LIN":"11鄰","STREET":"蓮潭路","SECT":" ","MAREA":" ","LANE":"１１６巷","ALLEY":"５弄","HOUSE_NO":"１０號","E_COORD97":179141.80791599999,"N_COORD97":2557076.5658,"ADDRESS":"蓮潭路１１６巷５弄１０號","OBJECTID":131991},"geometry":{"x":179141.80791600049,"y":2557076.5657970011}},{"attributes":{"ID":131992,"DIS_CODE":0,"TOWNNAME":"善化區","LI":"小新里","LIN":"11鄰","STREET":"蓮潭路","SECT":" ","MAREA":" ","LANE":"１１６巷","ALLEY":"５弄","HOUSE_NO":"１２號","E_COORD97":179136.088969,"N_COORD97":2557076.8832999999,"ADDRESS":"蓮潭路１１６巷５弄１２號","OBJECTID":131992},"geometry":{"x":179136.08896899968,"y":2557076.8832970038}},{"attributes":{"ID":131993,"DIS_CODE":0,"TOWNNAME":"善化區","LI":"小新里","LIN":"11鄰","STREET":"蓮潭路","SECT":" ","MAREA":" ","LANE":"１１６巷","ALLEY":"５弄","HOUSE_NO":"１６號","E_COORD97":179130.47592900001,"N_COORD97":2557077.2008000002,"ADDRESS":"蓮潭路１１６巷５弄１６號","OBJECTID":131993},"geometry":{"x":179130.47592900228,"y":2557077.2007970009}},{"attributes":{"ID":131994,"DIS_CODE":0,"TOWNNAME":"善化區","LI":"小新里","LIN":"11鄰","STREET":"蓮潭路","SECT":" ","MAREA":" ","LANE":"１１６巷","ALLEY":"５弄","HOUSE_NO":"１８號","E_COORD97":179124.333357,"N_COORD97":2557077.5183000001,"ADDRESS":"蓮潭路１１６巷５弄１８號","OBJECTID":131994},"geometry":{"x":179124.33335699979,"y":2557077.5182959996}},{"attributes":{"ID":131995,"DIS_CODE":0,"TOWNNAME":"善化區","LI":"小新里","LIN":"11鄰","STREET":"蓮潭路","SECT":" ","MAREA":" ","LANE":"１１６巷","ALLEY":"５弄","HOUSE_NO":"２０號","E_COORD97":179118.72031599999,"N_COORD97":2557077.4124599998,"ADDRESS":"蓮潭路１１６巷５弄２０號","OBJECTID":131995},"geometry":{"x":179118.72031600028,"y":2557077.4124630019}},{"attributes":{"ID":131996,"DIS_CODE":0,"TOWNNAME":"善化區","LI":"小新里","LIN":"11鄰","STREET":"蓮潭路","SECT":" ","MAREA":" ","LANE":"１１６巷","ALLEY":"５弄","HOUSE_NO":"２２號","E_COORD97":179112.15411800001,"N_COORD97":2557077.6241299999,"ADDRESS":"蓮潭路１１６巷５弄２２號","OBJECTID":131996},"geometry":{"x":179112.1541179996,"y":2557077.6241299994}},{"attributes":{"ID":131997,"DIS_CODE":0,"TOWNNAME":"善化區","LI":"小新里","LIN":"11鄰","STREET":"蓮潭路","SECT":" ","MAREA":" ","LANE":"１１６巷","ALLEY":"１５弄","HOUSE_NO":"１號","E_COORD97":179160.235633,"N_COORD97":2557110.74994,"ADDRESS":"蓮潭路１１６巷１５弄１號","OBJECTID":131997},"geometry":{"x":179160.2356329998,"y":2557110.7499449998}},{"attributes":{"ID":131998,"DIS_CODE":0,"TOWNNAME":"善化區","LI":"小新里","LIN":"11鄰","STREET":"蓮潭路","SECT":" ","MAREA":" ","LANE":"１１６巷","ALLEY":"１５弄","HOUSE_NO":"３號","E_COORD97":179154.198967,"N_COORD97":2557110.4324400001,"ADDRESS":"蓮潭路１１６巷１５弄３號","OBJECTID":131998},"geometry":{"x":179154.1989670014,"y":2557110.4324450009}},{"attributes":{"ID":131999,"DIS_CODE":0,"TOWNNAME":"善化區","LI":"小新里","LIN":"11鄰","STREET":"蓮潭路","SECT":" ","MAREA":" ","LANE":"１１６巷","ALLEY":"１５弄","HOUSE_NO":"５號","E_COORD97":179148.480021,"N_COORD97":2557110.74994,"ADDRESS":"蓮潭路１１６巷１５弄５號","OBJECTID":131999},"geometry":{"x":179148.48002099991,"y":2557110.7499449998}},{"attributes":{"ID":132000,"DIS_CODE":0,"TOWNNAME":"善化區","LI":"小新里","LIN":"11鄰","STREET":"蓮潭路","SECT":" ","MAREA":" ","LANE":"１１６巷","ALLEY":"１５弄","HOUSE_NO":"９號","E_COORD97":179137.04212699999,"N_COORD97":2557110.8557799999,"ADDRESS":"蓮潭路１１６巷１５弄９號","OBJECTID":132000},"geometry":{"x":179137.0421270011,"y":2557110.8557779994}}]}