{"displayFieldName":"TOWNNAME","fieldAliases":{"ID":"ID","DIS_CODE":"DIS_CODE","TOWNNAME":"TOWNNAME","LI":"LI","LIN":"LIN","STREET":"STREET","SECT":"SECT","MAREA":"MAREA","LANE":"LANE","ALLEY":"ALLEY","HOUSE_NO":"HOUSE_NO","E_COORD97":"E_COORD97","N_COORD97":"N_COORD97","ADDRESS":"ADDRESS","OBJECTID":"OBJECTID"},"geometryType":"esriGeometryPoint","spatialReference":{"wkid":102443,"latestWkid":3826},"fields":[{"name":"ID","type":"esriFieldTypeDouble","alias":"ID"},{"name":"DIS_CODE","type":"esriFieldTypeInteger","alias":"DIS_CODE"},{"name":"TOWNNAME","type":"esriFieldTypeString","alias":"TOWNNAME","length":8},{"name":"LI","type":"esriFieldTypeString","alias":"LI","length":8},{"name":"LIN","type":"esriFieldTypeString","alias":"LIN","length":12},{"name":"STREET","type":"esriFieldTypeString","alias":"STREET","length":20},{"name":"SECT","type":"esriFieldTypeString","alias":"SECT","length":8},{"name":"MAREA","type":"esriFieldTypeString","alias":"MAREA","length":12},{"name":"LANE","type":"esriFieldTypeString","alias":"LANE","length":10},{"name":"ALLEY","type":"esriFieldTypeString","alias":"ALLEY","length":10},{"name":"HOUSE_NO","type":"esriFieldTypeString","alias":"HOUSE_NO","length":20},{"name":"E_COORD97","type":"esriFieldTypeDouble","alias":"E_COORD97"},{"name":"N_COORD97","type":"esriFieldTypeDouble","alias":"N_COORD97"},{"name":"ADDRESS","type":"esriFieldTypeString","alias":"ADDRESS","length":50},{"name":"OBJECTID","type":"esriFieldTypeOID","alias":"OBJECTID"}],"features":[{"attributes":{"ID":559228,"DIS_CODE":0,"TOWNNAME":"佳里區","LI":"鎮山里","LIN":"9鄰","STREET":"仁愛路","SECT":" ","MAREA":" ","LANE":" ","ALLEY":" ","HOUSE_NO":"２００號","E_COORD97":166247.07000000001,"N_COORD97":2561439.4700000002,"ADDRESS":"仁愛路２００號","OBJECTID":559201},"geometry":{"x":166247.07000000123,"y":2561439.4700000025}},{"attributes":{"ID":559229,"DIS_CODE":0,"TOWNNAME":"東區","LI":"崇明里","LIN":"1鄰","STREET":"中華東路","SECT":"三段","MAREA":" ","LANE":" ","ALLEY":" ","HOUSE_NO":"５３７號","E_COORD97":169610.67000000001,"N_COORD97":2541441.5499999998,"ADDRESS":"中華東路三段５３７號","OBJECTID":559202},"geometry":{"x":169610.67000000179,"y":2541441.5500000026}},{"attributes":{"ID":559230,"DIS_CODE":0,"TOWNNAME":"佳里區","LI":"鎮山里","LIN":"9鄰","STREET":"仁愛路","SECT":" ","MAREA":" ","LANE":" ","ALLEY":" ","HOUSE_NO":"２０４號","E_COORD97":166238.29000000001,"N_COORD97":2561441.6499999999,"ADDRESS":"仁愛路２０４號","OBJECTID":559203},"geometry":{"x":166238.2900000019,"y":2561441.6500000022}},{"attributes":{"ID":559231,"DIS_CODE":0,"TOWNNAME":"佳里區","LI":"鎮山里","LIN":"9鄰","STREET":"仁愛路","SECT":" ","MAREA":" ","LANE":" ","ALLEY":" ","HOUSE_NO":"２０６號","E_COORD97":166234.14000000001,"N_COORD97":2561443.5699999998,"ADDRESS":"仁愛路２０６號","OBJECTID":559204},"geometry":{"x":166234.1400000006,"y":2561443.5700000003}},{"attributes":{"ID":559232,"DIS_CODE":0,"TOWNNAME":"佳里區","LI":"鎮山里","LIN":"9鄰","STREET":"仁愛路","SECT":" ","MAREA":" ","LANE":" ","ALLEY":" ","HOUSE_NO":"２０８號","E_COORD97":166229.75,"N_COORD97":2561444.5699999998,"ADDRESS":"仁愛路２０８號","OBJECTID":559205},"geometry":{"x":166229.75,"y":2561444.5700000022}},{"attributes":{"ID":559233,"DIS_CODE":0,"TOWNNAME":"佳里區","LI":"鎮山里","LIN":"9鄰","STREET":"仁愛路","SECT":" ","MAREA":" ","LANE":" ","ALLEY":" ","HOUSE_NO":"２１２號","E_COORD97":166207.01999999999,"N_COORD97":2561455.98,"ADDRESS":"仁愛路２１２號","OBJECTID":559206},"geometry":{"x":166207.01999999955,"y":2561455.9800000023}},{"attributes":{"ID":559234,"DIS_CODE":0,"TOWNNAME":"佳里區","LI":"六安里","LIN":"9鄰","STREET":"六合街","SECT":" ","MAREA":" ","LANE":" ","ALLEY":" ","HOUSE_NO":"８２號","E_COORD97":166001.82999999999,"N_COORD97":2563018.4700000002,"ADDRESS":"六合街８２號","OBJECTID":559207},"geometry":{"x":166001.83000000007,"y":2563018.4700000025}},{"attributes":{"ID":559235,"DIS_CODE":0,"TOWNNAME":"佳里區","LI":"東寧里","LIN":"9鄰","STREET":"文化路","SECT":" ","MAREA":" ","LANE":" ","ALLEY":" ","HOUSE_NO":"１７７號","E_COORD97":165830.76999999999,"N_COORD97":2562564.7799999998,"ADDRESS":"文化路１７７號","OBJECTID":559208},"geometry":{"x":165830.76999999955,"y":2562564.7800000012}},{"attributes":{"ID":559236,"DIS_CODE":0,"TOWNNAME":"佳里區","LI":"東寧里","LIN":"9鄰","STREET":"文化路","SECT":" ","MAREA":" ","LANE":" ","ALLEY":" ","HOUSE_NO":"１７８號","E_COORD97":165819.81,"N_COORD97":2562598.6400000001,"ADDRESS":"文化路１７８號","OBJECTID":559209},"geometry":{"x":165819.80999999959,"y":2562598.6400000006}},{"attributes":{"ID":559237,"DIS_CODE":0,"TOWNNAME":"佳里區","LI":"東寧里","LIN":"9鄰","STREET":"文化路","SECT":" ","MAREA":" ","LANE":" ","ALLEY":" ","HOUSE_NO":"１８０號","E_COORD97":165813.07000000001,"N_COORD97":2562598.5299999998,"ADDRESS":"文化路１８０號","OBJECTID":559210},"geometry":{"x":165813.07000000123,"y":2562598.5299999993}},{"attributes":{"ID":559238,"DIS_CODE":0,"TOWNNAME":"佳里區","LI":"東寧里","LIN":"9鄰","STREET":"文化路","SECT":" ","MAREA":" ","LANE":" ","ALLEY":" ","HOUSE_NO":"１８２號之１","E_COORD97":165801.35999999999,"N_COORD97":2562596.3100000001,"ADDRESS":"文化路１８２號之１","OBJECTID":559211},"geometry":{"x":165801.36000000127,"y":2562596.3100000024}},{"attributes":{"ID":559239,"DIS_CODE":0,"TOWNNAME":"佳里區","LI":"東寧里","LIN":"9鄰","STREET":"文化路","SECT":" ","MAREA":" ","LANE":" ","ALLEY":" ","HOUSE_NO":"１８２號","E_COORD97":165806.26000000001,"N_COORD97":2562595.2400000002,"ADDRESS":"文化路１８２號","OBJECTID":559212},"geometry":{"x":165806.26000000071,"y":2562595.2400000039}},{"attributes":{"ID":559240,"DIS_CODE":0,"TOWNNAME":"佳里區","LI":"東寧里","LIN":"9鄰","STREET":"文化路","SECT":" ","MAREA":" ","LANE":" ","ALLEY":" ","HOUSE_NO":"１８５號","E_COORD97":165803.45000000001,"N_COORD97":2562561.1699999999,"ADDRESS":"文化路１８５號","OBJECTID":559213},"geometry":{"x":165803.45000000112,"y":2562561.1699999999}},{"attributes":{"ID":559241,"DIS_CODE":0,"TOWNNAME":"佳里區","LI":"東寧里","LIN":"9鄰","STREET":"文化路","SECT":" ","MAREA":" ","LANE":" ","ALLEY":" ","HOUSE_NO":"１８６號之１","E_COORD97":165788.54999999999,"N_COORD97":2562603.1000000001,"ADDRESS":"文化路１８６號之１","OBJECTID":559214},"geometry":{"x":165788.54999999888,"y":2562603.1000000015}},{"attributes":{"ID":559242,"DIS_CODE":0,"TOWNNAME":"佳里區","LI":"東寧里","LIN":"9鄰","STREET":"文化路","SECT":" ","MAREA":" ","LANE":" ","ALLEY":" ","HOUSE_NO":"１８６號","E_COORD97":165796.47,"N_COORD97":2562600.52,"ADDRESS":"文化路１８６號","OBJECTID":559215},"geometry":{"x":165796.47000000067,"y":2562600.5200000014}},{"attributes":{"ID":559243,"DIS_CODE":0,"TOWNNAME":"佳里區","LI":"東寧里","LIN":"9鄰","STREET":"文化路","SECT":" ","MAREA":" ","LANE":" ","ALLEY":" ","HOUSE_NO":"１８８號","E_COORD97":165782.10999999999,"N_COORD97":2562605.0699999998,"ADDRESS":"文化路１８８號","OBJECTID":559216},"geometry":{"x":165782.1100000022,"y":2562605.0700000003}},{"attributes":{"ID":559244,"DIS_CODE":0,"TOWNNAME":"永康區","LI":"烏竹里","LIN":"9鄰","STREET":"龍橋街","SECT":" ","MAREA":" ","LANE":" ","ALLEY":" ","HOUSE_NO":"３９４號","E_COORD97":174473.47,"N_COORD97":2549160.8399999999,"ADDRESS":"龍橋街３９４號","OBJECTID":559217},"geometry":{"x":174473.46999999881,"y":2549160.8399999999}},{"attributes":{"ID":559245,"DIS_CODE":0,"TOWNNAME":"永康區","LI":"永康里","LIN":"9鄰","STREET":"永中街","SECT":" ","MAREA":" ","LANE":" ","ALLEY":" ","HOUSE_NO":"４７號","E_COORD97":173911.35999999999,"N_COORD97":2547188.7400000002,"ADDRESS":"永中街４７號","OBJECTID":559218},"geometry":{"x":173911.36000000034,"y":2547188.7400000002}},{"attributes":{"ID":559246,"DIS_CODE":0,"TOWNNAME":"永康區","LI":"正強里","LIN":"9鄰","STREET":"正義街","SECT":" ","MAREA":" ","LANE":" ","ALLEY":" ","HOUSE_NO":"１０２號","E_COORD97":173423.51999999999,"N_COORD97":2547574.52,"ADDRESS":"正義街１０２號","OBJECTID":559219},"geometry":{"x":173423.51999999955,"y":2547574.5200000014}},{"attributes":{"ID":559247,"DIS_CODE":0,"TOWNNAME":"永康區","LI":"西灣里","LIN":"9鄰","STREET":"永大路","SECT":"二段","MAREA":" ","LANE":" ","ALLEY":" ","HOUSE_NO":"４６０號","E_COORD97":174378.39000000001,"N_COORD97":2545301.0299999998,"ADDRESS":"永大路二段４６０號","OBJECTID":559220},"geometry":{"x":174378.38999999966,"y":2545301.0299999993}},{"attributes":{"ID":559248,"DIS_CODE":0,"TOWNNAME":"東區","LI":"和平里","LIN":"20鄰","STREET":"仁和路","SECT":" ","MAREA":" ","LANE":" ","ALLEY":" ","HOUSE_NO":"４７之１６號","E_COORD97":171150.85000000001,"N_COORD97":2541878.9399999999,"ADDRESS":"仁和路４７之１６號","OBJECTID":559221},"geometry":{"x":171150.84999999963,"y":2541878.9400000013}},{"attributes":{"ID":559249,"DIS_CODE":0,"TOWNNAME":"東區","LI":"和平里","LIN":"20鄰","STREET":"仁和路","SECT":" ","MAREA":" ","LANE":" ","ALLEY":" ","HOUSE_NO":"４７之１７號","E_COORD97":171145.95999999999,"N_COORD97":2541877.8900000001,"ADDRESS":"仁和路４７之１７號","OBJECTID":559222},"geometry":{"x":171145.95999999996,"y":2541877.8900000006}},{"attributes":{"ID":559250,"DIS_CODE":0,"TOWNNAME":"東區","LI":"和平里","LIN":"20鄰","STREET":"仁和路","SECT":" ","MAREA":" ","LANE":" ","ALLEY":" ","HOUSE_NO":"４９之１號","E_COORD97":171111.51000000001,"N_COORD97":2541870.8399999999,"ADDRESS":"仁和路４９之１號","OBJECTID":559223},"geometry":{"x":171111.50999999978,"y":2541870.8399999999}},{"attributes":{"ID":559251,"DIS_CODE":0,"TOWNNAME":"永康區","LI":"東灣里","LIN":"9鄰","STREET":"大灣路","SECT":" ","MAREA":" ","LANE":" ","ALLEY":" ","HOUSE_NO":"４６８號","E_COORD97":174736.07000000001,"N_COORD97":2544914.7400000002,"ADDRESS":"大灣路４６８號","OBJECTID":559224},"geometry":{"x":174736.0700000003,"y":2544914.7400000039}},{"attributes":{"ID":559252,"DIS_CODE":0,"TOWNNAME":"永康區","LI":"東灣里","LIN":"9鄰","STREET":"大灣路","SECT":" ","MAREA":" ","LANE":" ","ALLEY":" ","HOUSE_NO":"４６４號","E_COORD97":174739.12,"N_COORD97":2544923.2400000002,"ADDRESS":"大灣路４６４號","OBJECTID":559225},"geometry":{"x":174739.12000000197,"y":2544923.2400000002}},{"attributes":{"ID":559253,"DIS_CODE":0,"TOWNNAME":"永康區","LI":"南灣里","LIN":"9鄰","STREET":"南興路","SECT":" ","MAREA":" ","LANE":" ","ALLEY":" ","HOUSE_NO":"１０５號","E_COORD97":174278.78,"N_COORD97":2544484.21,"ADDRESS":"南興路１０５號","OBJECTID":559226},"geometry":{"x":174278.78000000212,"y":2544484.2100000009}},{"attributes":{"ID":559254,"DIS_CODE":0,"TOWNNAME":"永康區","LI":"南灣里","LIN":"9鄰","STREET":"大灣路","SECT":" ","MAREA":" ","LANE":" ","ALLEY":" ","HOUSE_NO":"６３１號","E_COORD97":174153.64000000001,"N_COORD97":2544508.96,"ADDRESS":"大灣路６３１號","OBJECTID":559227},"geometry":{"x":174153.64000000153,"y":2544508.9600000009}},{"attributes":{"ID":559255,"DIS_CODE":0,"TOWNNAME":"永康區","LI":"南灣里","LIN":"9鄰","STREET":"南興路","SECT":" ","MAREA":" ","LANE":" ","ALLEY":" ","HOUSE_NO":"９７號","E_COORD97":174236.07999999999,"N_COORD97":2544365.8500000001,"ADDRESS":"南興路９７號","OBJECTID":559228},"geometry":{"x":174236.08000000101,"y":2544365.8499999996}},{"attributes":{"ID":559256,"DIS_CODE":0,"TOWNNAME":"永康區","LI":"南灣里","LIN":"9鄰","STREET":"大灣東路","SECT":" ","MAREA":" ","LANE":" ","ALLEY":" ","HOUSE_NO":"１１號","E_COORD97":174076.41,"N_COORD97":2544296.4399999999,"ADDRESS":"大灣東路１１號","OBJECTID":559229},"geometry":{"x":174076.41000000108,"y":2544296.4400000013}},{"attributes":{"ID":559257,"DIS_CODE":0,"TOWNNAME":"東區","LI":"和平里","LIN":"1鄰","STREET":"仁和路","SECT":" ","MAREA":" ","LANE":" ","ALLEY":" ","HOUSE_NO":"３１號","E_COORD97":171099.45000000001,"N_COORD97":2542097.2200000002,"ADDRESS":"仁和路３１號","OBJECTID":559230},"geometry":{"x":171099.45000000112,"y":2542097.2200000007}},{"attributes":{"ID":559258,"DIS_CODE":0,"TOWNNAME":"東區","LI":"和平里","LIN":"1鄰","STREET":"仁和路","SECT":" ","MAREA":" ","LANE":" ","ALLEY":" ","HOUSE_NO":"３３號","E_COORD97":171099.45000000001,"N_COORD97":2542097.2200000002,"ADDRESS":"仁和路３３號","OBJECTID":559231},"geometry":{"x":171099.45000000112,"y":2542097.2200000007}},{"attributes":{"ID":559259,"DIS_CODE":0,"TOWNNAME":"永康區","LI":"南灣里","LIN":"9鄰","STREET":"大灣路","SECT":" ","MAREA":" ","LANE":" ","ALLEY":" ","HOUSE_NO":"６４１號","E_COORD97":174132.29000000001,"N_COORD97":2544503.1800000002,"ADDRESS":"大灣路６４１號","OBJECTID":559232},"geometry":{"x":174132.29000000004,"y":2544503.1799999997}},{"attributes":{"ID":559260,"DIS_CODE":0,"TOWNNAME":"佳里區","LI":"建南里","LIN":"9鄰","STREET":"光復路","SECT":" ","MAREA":" ","LANE":" ","ALLEY":" ","HOUSE_NO":"１０８號","E_COORD97":165532.87,"N_COORD97":2562057.9300000002,"ADDRESS":"光復路１０８號","OBJECTID":559233},"geometry":{"x":165532.87000000104,"y":2562057.9300000034}},{"attributes":{"ID":559261,"DIS_CODE":0,"TOWNNAME":"佳里區","LI":"建南里","LIN":"9鄰","STREET":"光復路","SECT":" ","MAREA":" ","LANE":" ","ALLEY":" ","HOUSE_NO":"１１０號","E_COORD97":165532.32999999999,"N_COORD97":2562063.6099999999,"ADDRESS":"光復路１１０號","OBJECTID":559234},"geometry":{"x":165532.33000000007,"y":2562063.6100000013}},{"attributes":{"ID":559262,"DIS_CODE":0,"TOWNNAME":"佳里區","LI":"建南里","LIN":"9鄰","STREET":"光復路","SECT":" ","MAREA":" ","LANE":" ","ALLEY":" ","HOUSE_NO":"１１２號","E_COORD97":165531.64000000001,"N_COORD97":2562068.5899999999,"ADDRESS":"光復路１１２號","OBJECTID":559235},"geometry":{"x":165531.63999999966,"y":2562068.5900000017}},{"attributes":{"ID":559263,"DIS_CODE":0,"TOWNNAME":"佳里區","LI":"建南里","LIN":"9鄰","STREET":"光復路","SECT":" ","MAREA":" ","LANE":" ","ALLEY":" ","HOUSE_NO":"１１６號","E_COORD97":165529.51000000001,"N_COORD97":2562078.21,"ADDRESS":"光復路１１６號","OBJECTID":559236},"geometry":{"x":165529.51000000164,"y":2562078.2100000028}},{"attributes":{"ID":559264,"DIS_CODE":0,"TOWNNAME":"佳里區","LI":"建南里","LIN":"9鄰","STREET":"光復路","SECT":" ","MAREA":" ","LANE":" ","ALLEY":" ","HOUSE_NO":"１２０號","E_COORD97":165528.89000000001,"N_COORD97":2562085.1000000001,"ADDRESS":"光復路１２０號","OBJECTID":559237},"geometry":{"x":165528.8900000006,"y":2562085.1000000015}},{"attributes":{"ID":559265,"DIS_CODE":0,"TOWNNAME":"佳里區","LI":"建南里","LIN":"9鄰","STREET":"光復路","SECT":" ","MAREA":" ","LANE":" ","ALLEY":" ","HOUSE_NO":"１２２號","E_COORD97":165528.16,"N_COORD97":2562092.0600000001,"ADDRESS":"光復路１２２號","OBJECTID":559238},"geometry":{"x":165528.16000000015,"y":2562092.0600000024}},{"attributes":{"ID":559266,"DIS_CODE":0,"TOWNNAME":"佳里區","LI":"建南里","LIN":"9鄰","STREET":"光復路","SECT":" ","MAREA":" ","LANE":" ","ALLEY":" ","HOUSE_NO":"１２４號","E_COORD97":165527.56,"N_COORD97":2562096.3599999999,"ADDRESS":"光復路１２４號","OBJECTID":559239},"geometry":{"x":165527.56000000052,"y":2562096.3600000013}},{"attributes":{"ID":559267,"DIS_CODE":0,"TOWNNAME":"佳里區","LI":"建南里","LIN":"9鄰","STREET":"光復路","SECT":" ","MAREA":" ","LANE":" ","ALLEY":" ","HOUSE_NO":"１２６號","E_COORD97":165534.03,"N_COORD97":2562101.8300000001,"ADDRESS":"光復路１２６號","OBJECTID":559240},"geometry":{"x":165534.03000000119,"y":2562101.8300000001}},{"attributes":{"ID":559268,"DIS_CODE":0,"TOWNNAME":"佳里區","LI":"安西里","LIN":"9鄰","STREET":"光復路","SECT":" ","MAREA":" ","LANE":" ","ALLEY":" ","HOUSE_NO":"２１６號","E_COORD97":165517.76000000001,"N_COORD97":2562397.2999999998,"ADDRESS":"光復路２１６號","OBJECTID":559241},"geometry":{"x":165517.76000000164,"y":2562397.3000000007}},{"attributes":{"ID":559269,"DIS_CODE":0,"TOWNNAME":"佳里區","LI":"安西里","LIN":"9鄰","STREET":"光復路","SECT":" ","MAREA":" ","LANE":" ","ALLEY":" ","HOUSE_NO":"２１８號","E_COORD97":165516.76000000001,"N_COORD97":2562408.5499999998,"ADDRESS":"光復路２１８號","OBJECTID":559242},"geometry":{"x":165516.76000000071,"y":2562408.5500000026}},{"attributes":{"ID":559270,"DIS_CODE":0,"TOWNNAME":"佳里區","LI":"安西里","LIN":"9鄰","STREET":"光復路","SECT":" ","MAREA":" ","LANE":" ","ALLEY":" ","HOUSE_NO":"２２０號","E_COORD97":165514.25,"N_COORD97":2562415.3399999999,"ADDRESS":"光復路２２０號","OBJECTID":559243},"geometry":{"x":165514.25,"y":2562415.3400000017}},{"attributes":{"ID":559271,"DIS_CODE":0,"TOWNNAME":"佳里區","LI":"安西里","LIN":"9鄰","STREET":"光復路","SECT":" ","MAREA":" ","LANE":" ","ALLEY":" ","HOUSE_NO":"２２２號","E_COORD97":165514.57999999999,"N_COORD97":2562419.5899999999,"ADDRESS":"光復路２２２號","OBJECTID":559244},"geometry":{"x":165514.58000000101,"y":2562419.5900000036}},{"attributes":{"ID":559272,"DIS_CODE":0,"TOWNNAME":"佳里區","LI":"安西里","LIN":"9鄰","STREET":"光復路","SECT":" ","MAREA":" ","LANE":" ","ALLEY":" ","HOUSE_NO":"２２６號","E_COORD97":165517.78,"N_COORD97":2562428.6000000001,"ADDRESS":"光復路２２６號","OBJECTID":559245},"geometry":{"x":165517.78000000026,"y":2562428.5999999996}},{"attributes":{"ID":559273,"DIS_CODE":0,"TOWNNAME":"佳里區","LI":"安西里","LIN":"9鄰","STREET":"光復路","SECT":" ","MAREA":" ","LANE":" ","ALLEY":" ","HOUSE_NO":"２３０號","E_COORD97":165517.70999999999,"N_COORD97":2562435.4900000002,"ADDRESS":"光復路２３０號","OBJECTID":559246},"geometry":{"x":165517.70999999996,"y":2562435.4900000021}},{"attributes":{"ID":559274,"DIS_CODE":0,"TOWNNAME":"佳里區","LI":"安西里","LIN":"9鄰","STREET":"光復路","SECT":" ","MAREA":" ","LANE":" ","ALLEY":" ","HOUSE_NO":"２３２號","E_COORD97":165517.64999999999,"N_COORD97":2562440.1800000002,"ADDRESS":"光復路２３２號","OBJECTID":559247},"geometry":{"x":165517.6500000013,"y":2562440.1800000016}},{"attributes":{"ID":559275,"DIS_CODE":0,"TOWNNAME":"佳里區","LI":"安西里","LIN":"9鄰","STREET":"光復路","SECT":" ","MAREA":" ","LANE":" ","ALLEY":" ","HOUSE_NO":"２３６號","E_COORD97":165516.89000000001,"N_COORD97":2562447.6699999999,"ADDRESS":"光復路２３６號","OBJECTID":559248},"geometry":{"x":165516.8900000006,"y":2562447.6700000018}},{"attributes":{"ID":559276,"DIS_CODE":0,"TOWNNAME":"佳里區","LI":"安西里","LIN":"9鄰","STREET":"光復路","SECT":" ","MAREA":" ","LANE":" ","ALLEY":" ","HOUSE_NO":"２３８號","E_COORD97":165516.09,"N_COORD97":2562454.4300000002,"ADDRESS":"光復路２３８號","OBJECTID":559249},"geometry":{"x":165516.09000000078,"y":2562454.4300000034}},{"attributes":{"ID":559277,"DIS_CODE":0,"TOWNNAME":"佳里區","LI":"安西里","LIN":"9鄰","STREET":"光復路","SECT":" ","MAREA":" ","LANE":" ","ALLEY":" ","HOUSE_NO":"２４０號","E_COORD97":165516.14000000001,"N_COORD97":2562458.0899999999,"ADDRESS":"光復路２４０號","OBJECTID":559250},"geometry":{"x":165516.13999999966,"y":2562458.0900000017}},{"attributes":{"ID":559278,"DIS_CODE":0,"TOWNNAME":"佳里區","LI":"安西里","LIN":"9鄰","STREET":"光復路","SECT":" ","MAREA":" ","LANE":" ","ALLEY":" ","HOUSE_NO":"２４２號","E_COORD97":165516.17000000001,"N_COORD97":2562462.0299999998,"ADDRESS":"光復路２４２號","OBJECTID":559251},"geometry":{"x":165516.16999999993,"y":2562462.0299999993}},{"attributes":{"ID":559279,"DIS_CODE":0,"TOWNNAME":"佳里區","LI":"安西里","LIN":"9鄰","STREET":"光復路","SECT":" ","MAREA":" ","LANE":" ","ALLEY":" ","HOUSE_NO":"２４４號","E_COORD97":165516.20000000001,"N_COORD97":2562468.1299999999,"ADDRESS":"光復路２４４號","OBJECTID":559252},"geometry":{"x":165516.20000000019,"y":2562468.129999999}},{"attributes":{"ID":559280,"DIS_CODE":0,"TOWNNAME":"佳里區","LI":"建南里","LIN":"9鄰","STREET":"光復路","SECT":" ","MAREA":" ","LANE":" ","ALLEY":" ","HOUSE_NO":"１２８號","E_COORD97":165527.39999999999,"N_COORD97":2562105.9100000001,"ADDRESS":"光復路１２８號","OBJECTID":559253},"geometry":{"x":165527.39999999944,"y":2562105.9100000039}},{"attributes":{"ID":559281,"DIS_CODE":0,"TOWNNAME":"佳里區","LI":"建南里","LIN":"9鄰","STREET":"光復路","SECT":" ","MAREA":" ","LANE":" ","ALLEY":" ","HOUSE_NO":"１３０號","E_COORD97":165526.92999999999,"N_COORD97":2562110.5499999998,"ADDRESS":"光復路１３０號","OBJECTID":559254},"geometry":{"x":165526.93000000063,"y":2562110.5500000026}},{"attributes":{"ID":559282,"DIS_CODE":0,"TOWNNAME":"佳里區","LI":"建南里","LIN":"9鄰","STREET":"光復路","SECT":" ","MAREA":" ","LANE":" ","ALLEY":" ","HOUSE_NO":"１３２號","E_COORD97":165526.57999999999,"N_COORD97":2562115.5099999998,"ADDRESS":"光復路１３２號","OBJECTID":559255},"geometry":{"x":165526.58000000101,"y":2562115.5100000016}},{"attributes":{"ID":559283,"DIS_CODE":0,"TOWNNAME":"佳里區","LI":"建南里","LIN":"9鄰","STREET":"光復路","SECT":" ","MAREA":" ","LANE":" ","ALLEY":" ","HOUSE_NO":"１３４號","E_COORD97":165526.63,"N_COORD97":2562120.2799999998,"ADDRESS":"光復路１３４號","OBJECTID":559256},"geometry":{"x":165526.62999999989,"y":2562120.2800000012}},{"attributes":{"ID":559284,"DIS_CODE":0,"TOWNNAME":"佳里區","LI":"建南里","LIN":"9鄰","STREET":"光復路","SECT":" ","MAREA":" ","LANE":" ","ALLEY":" ","HOUSE_NO":"１３８號","E_COORD97":165525.57999999999,"N_COORD97":2562130.1899999999,"ADDRESS":"光復路１３８號","OBJECTID":559257},"geometry":{"x":165525.58000000007,"y":2562130.1899999976}},{"attributes":{"ID":559285,"DIS_CODE":0,"TOWNNAME":"佳里區","LI":"建南里","LIN":"9鄰","STREET":"光復路","SECT":" ","MAREA":" ","LANE":" ","ALLEY":" ","HOUSE_NO":"１４０號","E_COORD97":165525.20999999999,"N_COORD97":2562135.46,"ADDRESS":"光復路１４０號","OBJECTID":559258},"geometry":{"x":165525.21000000089,"y":2562135.4600000009}},{"attributes":{"ID":559286,"DIS_CODE":0,"TOWNNAME":"佳里區","LI":"建南里","LIN":"9鄰","STREET":"光復路","SECT":" ","MAREA":" ","LANE":" ","ALLEY":" ","HOUSE_NO":"１４８號","E_COORD97":165528.25,"N_COORD97":2562153.0699999998,"ADDRESS":"光復路１４８號","OBJECTID":559259},"geometry":{"x":165528.25000000186,"y":2562153.0700000022}},{"attributes":{"ID":559287,"DIS_CODE":0,"TOWNNAME":"佳里區","LI":"建南里","LIN":"9鄰","STREET":"光復路","SECT":" ","MAREA":" ","LANE":" ","ALLEY":" ","HOUSE_NO":"１５０號","E_COORD97":165520.88,"N_COORD97":2562163.8399999999,"ADDRESS":"光復路１５０號","OBJECTID":559260},"geometry":{"x":165520.88000000082,"y":2562163.8400000036}},{"attributes":{"ID":559288,"DIS_CODE":0,"TOWNNAME":"佳里區","LI":"建南里","LIN":"9鄰","STREET":"光復路","SECT":" ","MAREA":" ","LANE":" ","ALLEY":" ","HOUSE_NO":"１５８號","E_COORD97":165519.12,"N_COORD97":2562182.1299999999,"ADDRESS":"光復路１５８號","OBJECTID":559261},"geometry":{"x":165519.12000000104,"y":2562182.1300000008}},{"attributes":{"ID":559289,"DIS_CODE":0,"TOWNNAME":"佳里區","LI":"建南里","LIN":"9鄰","STREET":"光復路","SECT":" ","MAREA":" ","LANE":" ","ALLEY":" ","HOUSE_NO":"１６０號","E_COORD97":165517.62,"N_COORD97":2562188.8599999999,"ADDRESS":"光復路１６０號","OBJECTID":559262},"geometry":{"x":165517.62000000104,"y":2562188.8599999994}},{"attributes":{"ID":559290,"DIS_CODE":0,"TOWNNAME":"佳里區","LI":"建南里","LIN":"9鄰","STREET":"光復路","SECT":" ","MAREA":" ","LANE":" ","ALLEY":" ","HOUSE_NO":"１６２號","E_COORD97":165517.29000000001,"N_COORD97":2562193.4399999999,"ADDRESS":"光復路１６２號","OBJECTID":559263},"geometry":{"x":165517.29000000004,"y":2562193.4400000013}},{"attributes":{"ID":559291,"DIS_CODE":0,"TOWNNAME":"東區","LI":"和平里","LIN":"1鄰","STREET":"仁和路","SECT":" ","MAREA":" ","LANE":" ","ALLEY":" ","HOUSE_NO":"３５號","E_COORD97":171099.45000000001,"N_COORD97":2542097.2200000002,"ADDRESS":"仁和路３５號","OBJECTID":559264},"geometry":{"x":171099.45000000112,"y":2542097.2200000007}},{"attributes":{"ID":559292,"DIS_CODE":0,"TOWNNAME":"東區","LI":"和平里","LIN":"1鄰","STREET":"仁和路","SECT":" ","MAREA":" ","LANE":" ","ALLEY":" ","HOUSE_NO":"３７號","E_COORD97":171099.45000000001,"N_COORD97":2542097.2200000002,"ADDRESS":"仁和路３７號","OBJECTID":559265},"geometry":{"x":171099.45000000112,"y":2542097.2200000007}},{"attributes":{"ID":559293,"DIS_CODE":0,"TOWNNAME":"東區","LI":"裕聖里","LIN":"18鄰","STREET":"裕義路","SECT":" ","MAREA":" ","LANE":" ","ALLEY":" ","HOUSE_NO":"５８６號","E_COORD97":172871.98000000001,"N_COORD97":2542186.8199999998,"ADDRESS":"裕義路５８６號","OBJECTID":559266},"geometry":{"x":172871.98000000045,"y":2542186.8200000003}},{"attributes":{"ID":559294,"DIS_CODE":0,"TOWNNAME":"東區","LI":"裕聖里","LIN":"18鄰","STREET":"裕義路","SECT":" ","MAREA":" ","LANE":" ","ALLEY":" ","HOUSE_NO":"５８８號","E_COORD97":172872.26999999999,"N_COORD97":2542177.9700000002,"ADDRESS":"裕義路５８８號","OBJECTID":559267},"geometry":{"x":172872.26999999955,"y":2542177.9700000025}},{"attributes":{"ID":559295,"DIS_CODE":0,"TOWNNAME":"東區","LI":"裕聖里","LIN":"18鄰","STREET":"裕義路","SECT":" ","MAREA":" ","LANE":" ","ALLEY":" ","HOUSE_NO":"５９０號","E_COORD97":172869.64000000001,"N_COORD97":2542171.73,"ADDRESS":"裕義路５９０號","OBJECTID":559268},"geometry":{"x":172869.63999999966,"y":2542171.7300000004}},{"attributes":{"ID":559296,"DIS_CODE":0,"TOWNNAME":"東區","LI":"裕聖里","LIN":"18鄰","STREET":"裕義路","SECT":" ","MAREA":" ","LANE":" ","ALLEY":" ","HOUSE_NO":"５９２號","E_COORD97":172871.07999999999,"N_COORD97":2542164.2400000002,"ADDRESS":"裕義路５９２號","OBJECTID":559269},"geometry":{"x":172871.08000000007,"y":2542164.2400000002}},{"attributes":{"ID":559297,"DIS_CODE":0,"TOWNNAME":"東區","LI":"裕聖里","LIN":"18鄰","STREET":"裕義路","SECT":" ","MAREA":" ","LANE":" ","ALLEY":" ","HOUSE_NO":"５９６號","E_COORD97":172871.32000000001,"N_COORD97":2542156.8399999999,"ADDRESS":"裕義路５９６號","OBJECTID":559270},"geometry":{"x":172871.3200000003,"y":2542156.839999998}},{"attributes":{"ID":559298,"DIS_CODE":0,"TOWNNAME":"永康區","LI":"\u25A0洲里","LIN":"7鄰","STREET":"三村二街","SECT":" ","MAREA":" ","LANE":" ","ALLEY":" ","HOUSE_NO":"３６號","E_COORD97":171915.04000000001,"N_COORD97":2549445.5,"ADDRESS":"三村二街３６號","OBJECTID":559271},"geometry":{"x":171915.04000000004,"y":2549445.5000000037}},{"attributes":{"ID":559299,"DIS_CODE":0,"TOWNNAME":"永康區","LI":"崑山里","LIN":"1鄰","STREET":"永大路","SECT":"一段","MAREA":" ","LANE":" ","ALLEY":" ","HOUSE_NO":"２５１號","E_COORD97":173911.16,"N_COORD97":2544155.77,"ADDRESS":"永大路一段２５１號","OBJECTID":559272},"geometry":{"x":173911.16000000015,"y":2544155.7700000014}},{"attributes":{"ID":559300,"DIS_CODE":0,"TOWNNAME":"安南區","LI":"安順里","LIN":"9鄰","STREET":"安和路","SECT":"四段","MAREA":" ","LANE":" ","ALLEY":" ","HOUSE_NO":"１４３號","E_COORD97":169902.60999999999,"N_COORD97":2550444.2599999998,"ADDRESS":"安和路四段１４３號","OBJECTID":559273},"geometry":{"x":169902.61000000034,"y":2550444.2600000016}},{"attributes":{"ID":559301,"DIS_CODE":0,"TOWNNAME":"安南區","LI":"城北里","LIN":"9鄰","STREET":"安中路","SECT":"六段","MAREA":" ","LANE":" ","ALLEY":" ","HOUSE_NO":"６５６號","E_COORD97":160746.45999999999,"N_COORD97":2551644.5800000001,"ADDRESS":"安中路六段６５６號","OBJECTID":559274},"geometry":{"x":160746.46000000089,"y":2551644.5800000001}},{"attributes":{"ID":559302,"DIS_CODE":0,"TOWNNAME":"安南區","LI":"城北里","LIN":"9鄰","STREET":"城安三街","SECT":" ","MAREA":" ","LANE":" ","ALLEY":" ","HOUSE_NO":"２０號","E_COORD97":160874.23999999999,"N_COORD97":2551719.0600000001,"ADDRESS":"城安三街２０號","OBJECTID":559275},"geometry":{"x":160874.24000000115,"y":2551719.0600000005}},{"attributes":{"ID":559303,"DIS_CODE":0,"TOWNNAME":"安南區","LI":"城北里","LIN":"9鄰","STREET":"尊安一街","SECT":" ","MAREA":" ","LANE":" ","ALLEY":" ","HOUSE_NO":"１３號","E_COORD97":160897.14000000001,"N_COORD97":2551623.4199999999,"ADDRESS":"尊安一街１３號","OBJECTID":559276},"geometry":{"x":160897.13999999873,"y":2551623.4200000018}},{"attributes":{"ID":559304,"DIS_CODE":0,"TOWNNAME":"安南區","LI":"城北里","LIN":"9鄰","STREET":"尊安一街","SECT":" ","MAREA":" ","LANE":" ","ALLEY":" ","HOUSE_NO":"１５號","E_COORD97":160891.79999999999,"N_COORD97":2551622.6600000001,"ADDRESS":"尊安一街１５號","OBJECTID":559277},"geometry":{"x":160891.80000000075,"y":2551622.660000002}},{"attributes":{"ID":559305,"DIS_CODE":0,"TOWNNAME":"安南區","LI":"城北里","LIN":"9鄰","STREET":"城安三街","SECT":" ","MAREA":" ","LANE":" ","ALLEY":" ","HOUSE_NO":"３２號","E_COORD97":160850.97,"N_COORD97":2551716.3900000001,"ADDRESS":"城安三街３２號","OBJECTID":559278},"geometry":{"x":160850.9700000016,"y":2551716.3900000025}},{"attributes":{"ID":559306,"DIS_CODE":0,"TOWNNAME":"新營區","LI":"中營里","LIN":"3鄰","STREET":"文昌街","SECT":" ","MAREA":" ","LANE":" ","ALLEY":" ","HOUSE_NO":"３號","E_COORD97":180561.51000000001,"N_COORD97":2578410.6000000001,"ADDRESS":"文昌街３號","OBJECTID":559279},"geometry":{"x":180561.51000000071,"y":2578410.5999999996}},{"attributes":{"ID":559307,"DIS_CODE":0,"TOWNNAME":"永康區","LI":"大橋里","LIN":"28鄰","STREET":"中華路","SECT":" ","MAREA":" ","LANE":" ","ALLEY":" ","HOUSE_NO":"７０４號","E_COORD97":170985.10999999999,"N_COORD97":2546294.7599999998,"ADDRESS":"中華路７０４號","OBJECTID":559280},"geometry":{"x":170985.11000000127,"y":2546294.7600000016}},{"attributes":{"ID":559308,"DIS_CODE":0,"TOWNNAME":"永康區","LI":"西灣里","LIN":"24鄰","STREET":"永大路","SECT":"二段","MAREA":" ","LANE":" ","ALLEY":" ","HOUSE_NO":"３１９號","E_COORD97":174421.94,"N_COORD97":2545618.2799999998,"ADDRESS":"永大路二段３１９號","OBJECTID":559281},"geometry":{"x":174421.94000000227,"y":2545618.2799999975}},{"attributes":{"ID":559309,"DIS_CODE":0,"TOWNNAME":"安南區","LI":"淵東里","LIN":"9鄰","STREET":"本原街","SECT":"三段","MAREA":" ","LANE":" ","ALLEY":" ","HOUSE_NO":"３１５號","E_COORD97":165331.54999999999,"N_COORD97":2550158.1899999999,"ADDRESS":"本原街三段３１５號","OBJECTID":559282},"geometry":{"x":165331.55000000075,"y":2550158.1899999995}},{"attributes":{"ID":559310,"DIS_CODE":0,"TOWNNAME":"安南區","LI":"城北里","LIN":"9鄰","STREET":"安中路","SECT":"六段","MAREA":" ","LANE":" ","ALLEY":" ","HOUSE_NO":"６４２號","E_COORD97":160756.09,"N_COORD97":2551624.3300000001,"ADDRESS":"安中路六段６４２號","OBJECTID":559283},"geometry":{"x":160756.09000000078,"y":2551624.3300000019}},{"attributes":{"ID":559311,"DIS_CODE":0,"TOWNNAME":"安南區","LI":"城北里","LIN":"9鄰","STREET":"尊安一街","SECT":" ","MAREA":" ","LANE":" ","ALLEY":" ","HOUSE_NO":"２２號","E_COORD97":160885.69,"N_COORD97":2551656.9700000002,"ADDRESS":"尊安一街２２號","OBJECTID":559284},"geometry":{"x":160885.69000000041,"y":2551656.9700000044}},{"attributes":{"ID":559312,"DIS_CODE":0,"TOWNNAME":"新市區","LI":"新市里","LIN":"9鄰","STREET":"仁愛街","SECT":" ","MAREA":" ","LANE":" ","ALLEY":" ","HOUSE_NO":"３２１號","E_COORD97":177650.42000000001,"N_COORD97":2553133.0299999998,"ADDRESS":"仁愛街３２１號","OBJECTID":559285},"geometry":{"x":177650.41999999993,"y":2553133.0299999975}},{"attributes":{"ID":559313,"DIS_CODE":0,"TOWNNAME":"新市區","LI":"三舍里","LIN":"9鄰","STREET":"大順三路","SECT":" ","MAREA":" ","LANE":" ","ALLEY":" ","HOUSE_NO":"１２１號","E_COORD97":177117.73000000001,"N_COORD97":2555684.5,"ADDRESS":"大順三路１２１號","OBJECTID":559286},"geometry":{"x":177117.73000000138,"y":2555684.5000000019}},{"attributes":{"ID":559314,"DIS_CODE":0,"TOWNNAME":"新市區","LI":"新市里","LIN":"9鄰","STREET":"中興街","SECT":" ","MAREA":" ","LANE":" ","ALLEY":" ","HOUSE_NO":"６２號","E_COORD97":177643.98000000001,"N_COORD97":2553122.5,"ADDRESS":"中興街６２號","OBJECTID":559287},"geometry":{"x":177643.98000000045,"y":2553122.5}},{"attributes":{"ID":559315,"DIS_CODE":0,"TOWNNAME":"新市區","LI":"三舍里","LIN":"9鄰","STREET":"大順三路","SECT":" ","MAREA":" ","LANE":" ","ALLEY":" ","HOUSE_NO":"６５號","E_COORD97":177191.67000000001,"N_COORD97":2555392.75,"ADDRESS":"大順三路６５號","OBJECTID":559288},"geometry":{"x":177191.67000000086,"y":2555392.75}},{"attributes":{"ID":559316,"DIS_CODE":0,"TOWNNAME":"新市區","LI":"新市里","LIN":"9鄰","STREET":"中興街","SECT":" ","MAREA":" ","LANE":" ","ALLEY":" ","HOUSE_NO":"５８號","E_COORD97":177652.01999999999,"N_COORD97":2553124,"ADDRESS":"中興街５８號","OBJECTID":559289},"geometry":{"x":177652.02000000048,"y":2553124.0000000037}},{"attributes":{"ID":559317,"DIS_CODE":0,"TOWNNAME":"新市區","LI":"新市里","LIN":"9鄰","STREET":"中興街","SECT":" ","MAREA":" ","LANE":" ","ALLEY":" ","HOUSE_NO":"６４號","E_COORD97":177639.76999999999,"N_COORD97":2553121.75,"ADDRESS":"中興街６４號","OBJECTID":559290},"geometry":{"x":177639.77000000142,"y":2553121.75}},{"attributes":{"ID":559318,"DIS_CODE":0,"TOWNNAME":"新市區","LI":"新市里","LIN":"9鄰","STREET":"中興街","SECT":" ","MAREA":" ","LANE":" ","ALLEY":" ","HOUSE_NO":"１０２號","E_COORD97":177559.51000000001,"N_COORD97":2553116.75,"ADDRESS":"中興街１０２號","OBJECTID":559291},"geometry":{"x":177559.50999999978,"y":2553116.7500000019}},{"attributes":{"ID":559319,"DIS_CODE":0,"TOWNNAME":"新市區","LI":"永就里","LIN":"9鄰","STREET":"光華街","SECT":" ","MAREA":" ","LANE":" ","ALLEY":" ","HOUSE_NO":"３號","E_COORD97":178117.51000000001,"N_COORD97":2552381,"ADDRESS":"光華街３號","OBJECTID":559292},"geometry":{"x":178117.50999999978,"y":2552381}},{"attributes":{"ID":559320,"DIS_CODE":0,"TOWNNAME":"永康區","LI":"尚頂里","LIN":"29鄰","STREET":"南台街","SECT":" ","MAREA":" ","LANE":" ","ALLEY":" ","HOUSE_NO":"１１７號","E_COORD97":170097.84,"N_COORD97":2547033.6099999999,"ADDRESS":"南台街１１７號","OBJECTID":559293},"geometry":{"x":170097.84000000078,"y":2547033.6100000031}},{"attributes":{"ID":559321,"DIS_CODE":0,"TOWNNAME":"永康區","LI":"西灣里","LIN":"16鄰","STREET":"民族路","SECT":" ","MAREA":" ","LANE":" ","ALLEY":" ","HOUSE_NO":"４３９號","E_COORD97":174684.23999999999,"N_COORD97":2545402.1800000002,"ADDRESS":"民族路４３９號","OBJECTID":559294},"geometry":{"x":174684.24000000209,"y":2545402.1799999997}},{"attributes":{"ID":559322,"DIS_CODE":0,"TOWNNAME":"永康區","LI":"西灣里","LIN":"40鄰","STREET":"國光六街","SECT":" ","MAREA":" ","LANE":" ","ALLEY":" ","HOUSE_NO":"６０號","E_COORD97":174155.01999999999,"N_COORD97":2545310.4199999999,"ADDRESS":"國光六街６０號","OBJECTID":559295},"geometry":{"x":174155.02000000048,"y":2545310.4200000018}},{"attributes":{"ID":559323,"DIS_CODE":0,"TOWNNAME":"永康區","LI":"尚頂里","LIN":"7鄰","STREET":"\u25A0信街","SECT":" ","MAREA":" ","LANE":" ","ALLEY":" ","HOUSE_NO":"１３６號","E_COORD97":171058.07999999999,"N_COORD97":2547777.7400000002,"ADDRESS":"\u25A0信街１３６號","OBJECTID":559296},"geometry":{"x":171058.08000000101,"y":2547777.7400000002}},{"attributes":{"ID":559324,"DIS_CODE":0,"TOWNNAME":"永康區","LI":"西灣里","LIN":"33鄰","STREET":"公園路","SECT":" ","MAREA":" ","LANE":" ","ALLEY":" ","HOUSE_NO":"１２３號","E_COORD97":174148.92999999999,"N_COORD97":2545937.9900000002,"ADDRESS":"公園路１２３號","OBJECTID":559297},"geometry":{"x":174148.93000000063,"y":2545937.9900000021}},{"attributes":{"ID":559325,"DIS_CODE":0,"TOWNNAME":"新市區","LI":"新市里","LIN":"9鄰","STREET":"中興街","SECT":" ","MAREA":" ","LANE":" ","ALLEY":" ","HOUSE_NO":"９６號","E_COORD97":177571.57000000001,"N_COORD97":2553117,"ADDRESS":"中興街９６號","OBJECTID":559298},"geometry":{"x":177571.5700000003,"y":2553116.9999999981}},{"attributes":{"ID":559326,"DIS_CODE":0,"TOWNNAME":"新市區","LI":"三舍里","LIN":"9鄰","STREET":"大順七路","SECT":" ","MAREA":" ","LANE":" ","ALLEY":" ","HOUSE_NO":"７２號","E_COORD97":177065.89999999999,"N_COORD97":2555691.2599999998,"ADDRESS":"大順七路７２號","OBJECTID":559299},"geometry":{"x":177065.90000000037,"y":2555691.2599999998}},{"attributes":{"ID":559327,"DIS_CODE":0,"TOWNNAME":"新市區","LI":"永就里","LIN":"9鄰","STREET":"中華路","SECT":" ","MAREA":" ","LANE":" ","ALLEY":" ","HOUSE_NO":"４１之１號","E_COORD97":177472.57000000001,"N_COORD97":2551823.7999999998,"ADDRESS":"中華路４１之１號","OBJECTID":559300},"geometry":{"x":177472.57000000123,"y":2551823.8000000007}},{"attributes":{"ID":559328,"DIS_CODE":0,"TOWNNAME":"新市區","LI":"永就里","LIN":"9鄰","STREET":"中山路","SECT":" ","MAREA":" ","LANE":" ","ALLEY":" ","HOUSE_NO":"２０１號","E_COORD97":177483.73999999999,"N_COORD97":2552008.5,"ADDRESS":"中山路２０１號","OBJECTID":559301},"geometry":{"x":177483.74000000115,"y":2552008.5000000037}},{"attributes":{"ID":559329,"DIS_CODE":0,"TOWNNAME":"新市區","LI":"永就里","LIN":"9鄰","STREET":"中山路","SECT":" ","MAREA":" ","LANE":" ","ALLEY":" ","HOUSE_NO":"１９９號","E_COORD97":177585.85000000001,"N_COORD97":2552059.75,"ADDRESS":"中山路１９９號","OBJECTID":559302},"geometry":{"x":177585.84999999963,"y":2552059.75}},{"attributes":{"ID":559330,"DIS_CODE":0,"TOWNNAME":"新市區","LI":"新市里","LIN":"9鄰","STREET":"中正路","SECT":" ","MAREA":" ","LANE":" ","ALLEY":" ","HOUSE_NO":"３２０號","E_COORD97":177499.01999999999,"N_COORD97":2553178.75,"ADDRESS":"中正路３２０號","OBJECTID":559303},"geometry":{"x":177499.02000000142,"y":2553178.75}},{"attributes":{"ID":559331,"DIS_CODE":0,"TOWNNAME":"新市區","LI":"三舍里","LIN":"9鄰","STREET":"大順七路","SECT":" ","MAREA":" ","LANE":" ","ALLEY":" ","HOUSE_NO":"６４號","E_COORD97":177069.92999999999,"N_COORD97":2555667.2599999998,"ADDRESS":"大順七路６４號","OBJECTID":559304},"geometry":{"x":177069.93000000063,"y":2555667.2599999998}},{"attributes":{"ID":559332,"DIS_CODE":0,"TOWNNAME":"新市區","LI":"三舍里","LIN":"9鄰","STREET":"大順七路","SECT":" ","MAREA":" ","LANE":" ","ALLEY":" ","HOUSE_NO":"６２號","E_COORD97":177072.04000000001,"N_COORD97":2555648.2599999998,"ADDRESS":"大順七路６２號","OBJECTID":559305},"geometry":{"x":177072.03999999911,"y":2555648.2600000016}},{"attributes":{"ID":559333,"DIS_CODE":0,"TOWNNAME":"新市區","LI":"豐華里","LIN":"9鄰","STREET":"南科三路","SECT":" ","MAREA":" ","LANE":" ","ALLEY":" ","HOUSE_NO":"７號","E_COORD97":176674.94,"N_COORD97":2555397.25,"ADDRESS":"南科三路７號","OBJECTID":559306},"geometry":{"x":176674.94000000227,"y":2555397.2500000037}},{"attributes":{"ID":559334,"DIS_CODE":0,"TOWNNAME":"中西區","LI":"中正里","LIN":"9鄰","STREET":"中正路","SECT":" ","MAREA":" ","LANE":" ","ALLEY":" ","HOUSE_NO":"２８８號","E_COORD97":167554.17000000001,"N_COORD97":2543783.2400000002,"ADDRESS":"中正路２８８號","OBJECTID":559307},"geometry":{"x":167554.16999999993,"y":2543783.2400000021}},{"attributes":{"ID":559335,"DIS_CODE":0,"TOWNNAME":"中西區","LI":"中正里","LIN":"9鄰","STREET":"中正路","SECT":" ","MAREA":" ","LANE":" ","ALLEY":" ","HOUSE_NO":"２９０號","E_COORD97":167551.76000000001,"N_COORD97":2543783.8700000001,"ADDRESS":"中正路２９０號","OBJECTID":559308},"geometry":{"x":167551.75999999885,"y":2543783.870000001}},{"attributes":{"ID":559336,"DIS_CODE":0,"TOWNNAME":"中西區","LI":"中正里","LIN":"9鄰","STREET":"中正路","SECT":" ","MAREA":" ","LANE":" ","ALLEY":" ","HOUSE_NO":"２９４號","E_COORD97":167543.76000000001,"N_COORD97":2543785.7200000002,"ADDRESS":"中正路２９４號","OBJECTID":559309},"geometry":{"x":167543.76000000071,"y":2543785.7200000007}},{"attributes":{"ID":559337,"DIS_CODE":0,"TOWNNAME":"中西區","LI":"中正里","LIN":"9鄰","STREET":"中正路","SECT":" ","MAREA":" ","LANE":" ","ALLEY":" ","HOUSE_NO":"２９６號","E_COORD97":167536.57000000001,"N_COORD97":2543787,"ADDRESS":"中正路２９６號","OBJECTID":559310},"geometry":{"x":167536.5700000003,"y":2543787.0000000037}},{"attributes":{"ID":559338,"DIS_CODE":0,"TOWNNAME":"中西區","LI":"中正里","LIN":"9鄰","STREET":"中正路","SECT":" ","MAREA":" ","LANE":" ","ALLEY":" ","HOUSE_NO":"３０２號","E_COORD97":167531.59,"N_COORD97":2543793.2200000002,"ADDRESS":"中正路３０２號","OBJECTID":559311},"geometry":{"x":167531.59000000078,"y":2543793.2200000025}},{"attributes":{"ID":559339,"DIS_CODE":0,"TOWNNAME":"中西區","LI":"中正里","LIN":"9鄰","STREET":"中正路","SECT":" ","MAREA":" ","LANE":" ","ALLEY":" ","HOUSE_NO":"３０４號","E_COORD97":167527.29999999999,"N_COORD97":2543793.6499999999,"ADDRESS":"中正路３０４號","OBJECTID":559312},"geometry":{"x":167527.29999999981,"y":2543793.6500000022}},{"attributes":{"ID":559340,"DIS_CODE":0,"TOWNNAME":"永康區","LI":"尚頂里","LIN":"29鄰","STREET":"南台街","SECT":" ","MAREA":" ","LANE":" ","ALLEY":" ","HOUSE_NO":"１１５號","E_COORD97":170115.66,"N_COORD97":2547017.3500000001,"ADDRESS":"南台街１１５號","OBJECTID":559313},"geometry":{"x":170115.66000000015,"y":2547017.3499999996}},{"attributes":{"ID":559341,"DIS_CODE":0,"TOWNNAME":"永康區","LI":"尚頂里","LIN":"8鄰","STREET":"中正二街","SECT":" ","MAREA":" ","LANE":" ","ALLEY":" ","HOUSE_NO":"３２號","E_COORD97":170883.98000000001,"N_COORD97":2547364.52,"ADDRESS":"中正二街３２號","OBJECTID":559314},"geometry":{"x":170883.98000000138,"y":2547364.5200000014}},{"attributes":{"ID":559342,"DIS_CODE":0,"TOWNNAME":"中西區","LI":"民生里","LIN":"9鄰","STREET":"南華街","SECT":" ","MAREA":" ","LANE":" ","ALLEY":" ","HOUSE_NO":"３０號","E_COORD97":167098.48999999999,"N_COORD97":2543361.96,"ADDRESS":"南華街３０號","OBJECTID":559315},"geometry":{"x":167098.49000000115,"y":2543361.9600000028}},{"attributes":{"ID":559343,"DIS_CODE":0,"TOWNNAME":"中西區","LI":"中正里","LIN":"9鄰","STREET":"中正路","SECT":" ","MAREA":" ","LANE":" ","ALLEY":" ","HOUSE_NO":"３１０號","E_COORD97":167514.51999999999,"N_COORD97":2543793.7599999998,"ADDRESS":"中正路３１０號","OBJECTID":559316},"geometry":{"x":167514.52000000048,"y":2543793.7599999998}},{"attributes":{"ID":559344,"DIS_CODE":0,"TOWNNAME":"中西區","LI":"中正里","LIN":"9鄰","STREET":"中正路","SECT":" ","MAREA":" ","LANE":" ","ALLEY":" ","HOUSE_NO":"３１２號","E_COORD97":167511.51999999999,"N_COORD97":2543795.3700000001,"ADDRESS":"中正路３１２號","OBJECTID":559317},"geometry":{"x":167511.52000000048,"y":2543795.370000001}},{"attributes":{"ID":559345,"DIS_CODE":0,"TOWNNAME":"中西區","LI":"中正里","LIN":"9鄰","STREET":"正德街","SECT":" ","MAREA":" ","LANE":" ","ALLEY":" ","HOUSE_NO":"１２號","E_COORD97":167518.16,"N_COORD97":2543828.73,"ADDRESS":"正德街１２號","OBJECTID":559318},"geometry":{"x":167518.16000000108,"y":2543828.7300000004}},{"attributes":{"ID":559346,"DIS_CODE":0,"TOWNNAME":"中西區","LI":"中正里","LIN":"9鄰","STREET":"正德街","SECT":" ","MAREA":" ","LANE":" ","ALLEY":" ","HOUSE_NO":"１４號","E_COORD97":167518.64999999999,"N_COORD97":2543832.1400000001,"ADDRESS":"正德街１４號","OBJECTID":559319},"geometry":{"x":167518.65000000037,"y":2543832.1400000025}},{"attributes":{"ID":559347,"DIS_CODE":0,"TOWNNAME":"中西區","LI":"中正里","LIN":"9鄰","STREET":"正德街","SECT":" ","MAREA":" ","LANE":" ","ALLEY":" ","HOUSE_NO":"１６號","E_COORD97":167519.48999999999,"N_COORD97":2543834.5699999998,"ADDRESS":"正德街１６號","OBJECTID":559320},"geometry":{"x":167519.49000000022,"y":2543834.5700000022}},{"attributes":{"ID":559348,"DIS_CODE":0,"TOWNNAME":"中西區","LI":"中正里","LIN":"9鄰","STREET":"正德街","SECT":" ","MAREA":" ","LANE":" ","ALLEY":" ","HOUSE_NO":"１８號","E_COORD97":167520.45999999999,"N_COORD97":2543838.3199999998,"ADDRESS":"正德街１８號","OBJECTID":559321},"geometry":{"x":167520.46000000089,"y":2543838.3200000003}},{"attributes":{"ID":559349,"DIS_CODE":0,"TOWNNAME":"中西區","LI":"中正里","LIN":"9鄰","STREET":"正德街","SECT":" ","MAREA":" ","LANE":" ","ALLEY":" ","HOUSE_NO":"２號","E_COORD97":167513.57000000001,"N_COORD97":2543808.3599999999,"ADDRESS":"正德街２號","OBJECTID":559322},"geometry":{"x":167513.57000000123,"y":2543808.3600000013}},{"attributes":{"ID":559350,"DIS_CODE":0,"TOWNNAME":"中西區","LI":"中正里","LIN":"9鄰","STREET":"正德街","SECT":" ","MAREA":" ","LANE":" ","ALLEY":" ","HOUSE_NO":"４號","E_COORD97":167514.20000000001,"N_COORD97":2543811.3500000001,"ADDRESS":"正德街４號","OBJECTID":559323},"geometry":{"x":167514.20000000112,"y":2543811.3500000034}},{"attributes":{"ID":559351,"DIS_CODE":0,"TOWNNAME":"中西區","LI":"中正里","LIN":"9鄰","STREET":"正德街","SECT":" ","MAREA":" ","LANE":" ","ALLEY":" ","HOUSE_NO":"６號","E_COORD97":167514.82000000001,"N_COORD97":2543813.6400000001,"ADDRESS":"正德街６號","OBJECTID":559324},"geometry":{"x":167514.82000000216,"y":2543813.6400000043}},{"attributes":{"ID":559352,"DIS_CODE":0,"TOWNNAME":"中西區","LI":"中正里","LIN":"9鄰","STREET":"正德街","SECT":" ","MAREA":" ","LANE":" ","ALLEY":" ","HOUSE_NO":"８號","E_COORD97":167516.14999999999,"N_COORD97":2543822.8900000001,"ADDRESS":"正德街８號","OBJECTID":559325},"geometry":{"x":167516.1500000013,"y":2543822.8900000025}},{"attributes":{"ID":559353,"DIS_CODE":0,"TOWNNAME":"中西區","LI":"中正里","LIN":"9鄰","STREET":"正德街","SECT":" ","MAREA":" ","LANE":" ","ALLEY":" ","HOUSE_NO":"２２號","E_COORD97":167521.5,"N_COORD97":2543845.1000000001,"ADDRESS":"正德街２２號","OBJECTID":559326},"geometry":{"x":167521.5,"y":2543845.1000000015}},{"attributes":{"ID":559354,"DIS_CODE":0,"TOWNNAME":"中西區","LI":"中正里","LIN":"9鄰","STREET":"正德街","SECT":" ","MAREA":" ","LANE":" ","ALLEY":" ","HOUSE_NO":"２４號","E_COORD97":167522.12,"N_COORD97":2543847.3300000001,"ADDRESS":"正德街２４號","OBJECTID":559327},"geometry":{"x":167522.12000000011,"y":2543847.3300000019}},{"attributes":{"ID":559355,"DIS_CODE":0,"TOWNNAME":"中西區","LI":"中正里","LIN":"9鄰","STREET":"正德街","SECT":" ","MAREA":" ","LANE":" ","ALLEY":" ","HOUSE_NO":"２６號","E_COORD97":167522.95999999999,"N_COORD97":2543851.7799999998,"ADDRESS":"正德街２６號","OBJECTID":559328},"geometry":{"x":167522.95999999996,"y":2543851.7799999993}},{"attributes":{"ID":559356,"DIS_CODE":0,"TOWNNAME":"中西區","LI":"中正里","LIN":"9鄰","STREET":"正德街","SECT":" ","MAREA":" ","LANE":" ","ALLEY":" ","HOUSE_NO":"２８號","E_COORD97":167523.92999999999,"N_COORD97":2543855.8100000001,"ADDRESS":"正德街２８號","OBJECTID":559329},"geometry":{"x":167523.93000000063,"y":2543855.8100000005}},{"attributes":{"ID":559357,"DIS_CODE":0,"TOWNNAME":"永康區","LI":"西灣里","LIN":"37鄰","STREET":"國光七街","SECT":" ","MAREA":" ","LANE":" ","ALLEY":" ","HOUSE_NO":"５６號","E_COORD97":174155.89999999999,"N_COORD97":2545535.25,"ADDRESS":"國光七街５６號","OBJECTID":559330},"geometry":{"x":174155.89999999944,"y":2545535.2500000019}},{"attributes":{"ID":559358,"DIS_CODE":0,"TOWNNAME":"永康區","LI":"西灣里","LIN":"39鄰","STREET":"國光七街","SECT":" ","MAREA":" ","LANE":" ","ALLEY":" ","HOUSE_NO":"６１號","E_COORD97":174181.98999999999,"N_COORD97":2545514.4300000002,"ADDRESS":"國光七街６１號","OBJECTID":559331},"geometry":{"x":174181.99000000022,"y":2545514.4300000016}},{"attributes":{"ID":559359,"DIS_CODE":0,"TOWNNAME":"永康區","LI":"西灣里","LIN":"53鄰","STREET":"文化路","SECT":" ","MAREA":" ","LANE":" ","ALLEY":" ","HOUSE_NO":"１９９號","E_COORD97":173730.51999999999,"N_COORD97":2546166.7200000002,"ADDRESS":"文化路１９９號","OBJECTID":559332},"geometry":{"x":173730.52000000142,"y":2546166.7200000025}},{"attributes":{"ID":559360,"DIS_CODE":0,"TOWNNAME":"永康區","LI":"尚頂里","LIN":"7鄰","STREET":"中正二街","SECT":" ","MAREA":" ","LANE":" ","ALLEY":" ","HOUSE_NO":"１３１號","E_COORD97":171126.26999999999,"N_COORD97":2547570.54,"ADDRESS":"中正二街１３１號","OBJECTID":559333},"geometry":{"x":171126.26999999955,"y":2547570.540000001}},{"attributes":{"ID":559361,"DIS_CODE":0,"TOWNNAME":"永康區","LI":"尚頂里","LIN":"35鄰","STREET":"國聖街","SECT":" ","MAREA":" ","LANE":" ","ALLEY":" ","HOUSE_NO":"５３號","E_COORD97":170361.39999999999,"N_COORD97":2547915.4900000002,"ADDRESS":"國聖街５３號","OBJECTID":559334},"geometry":{"x":170361.40000000037,"y":2547915.4900000002}},{"attributes":{"ID":559362,"DIS_CODE":0,"TOWNNAME":"中西區","LI":"中正里","LIN":"9鄰","STREET":"中正路","SECT":" ","MAREA":" ","LANE":" ","ALLEY":" ","HOUSE_NO":"３２２號","E_COORD97":167486.34,"N_COORD97":2543802.3799999999,"ADDRESS":"中正路３２２號","OBJECTID":559335},"geometry":{"x":167486.33999999985,"y":2543802.379999999}},{"attributes":{"ID":559363,"DIS_CODE":0,"TOWNNAME":"中西區","LI":"中正里","LIN":"9鄰","STREET":"中正路","SECT":" ","MAREA":" ","LANE":" ","ALLEY":" ","HOUSE_NO":"３２４號","E_COORD97":167477.98000000001,"N_COORD97":2543805.4700000002,"ADDRESS":"中正路３２４號","OBJECTID":559336},"geometry":{"x":167477.98000000045,"y":2543805.4700000025}},{"attributes":{"ID":559364,"DIS_CODE":0,"TOWNNAME":"中西區","LI":"中正里","LIN":"9鄰","STREET":"中正路","SECT":" ","MAREA":" ","LANE":" ","ALLEY":" ","HOUSE_NO":"３２６號","E_COORD97":167473.29000000001,"N_COORD97":2543806.27,"ADDRESS":"中正路３２６號","OBJECTID":559337},"geometry":{"x":167473.29000000004,"y":2543806.2700000014}},{"attributes":{"ID":559365,"DIS_CODE":0,"TOWNNAME":"中西區","LI":"中正里","LIN":"9鄰","STREET":"中正路","SECT":" ","MAREA":" ","LANE":" ","ALLEY":" ","HOUSE_NO":"３２８號","E_COORD97":167463.92999999999,"N_COORD97":2543813.5699999998,"ADDRESS":"中正路３２８號","OBJECTID":559338},"geometry":{"x":167463.9299999997,"y":2543813.5700000003}},{"attributes":{"ID":559366,"DIS_CODE":0,"TOWNNAME":"中西區","LI":"中正里","LIN":"9鄰","STREET":"正德街","SECT":" ","MAREA":" ","LANE":" ","ALLEY":" ","HOUSE_NO":"１１號","E_COORD97":167509.32999999999,"N_COORD97":2543842.3999999999,"ADDRESS":"正德街１１號","OBJECTID":559339},"geometry":{"x":167509.33000000194,"y":2543842.4000000041}},{"attributes":{"ID":559367,"DIS_CODE":0,"TOWNNAME":"中西區","LI":"中正里","LIN":"9鄰","STREET":"正德街","SECT":" ","MAREA":" ","LANE":" ","ALLEY":" ","HOUSE_NO":"１號","E_COORD97":167505.64000000001,"N_COORD97":2543815.6600000001,"ADDRESS":"正德街１號","OBJECTID":559340},"geometry":{"x":167505.6400000006,"y":2543815.6600000001}},{"attributes":{"ID":559368,"DIS_CODE":0,"TOWNNAME":"中西區","LI":"中正里","LIN":"9鄰","STREET":"正德街","SECT":" ","MAREA":" ","LANE":" ","ALLEY":" ","HOUSE_NO":"３號","E_COORD97":167503.25,"N_COORD97":2543821.5,"ADDRESS":"正德街３號","OBJECTID":559341},"geometry":{"x":167503.25000000093,"y":2543821.5000000019}},{"attributes":{"ID":559369,"DIS_CODE":0,"TOWNNAME":"中西區","LI":"中正里","LIN":"9鄰","STREET":"正德街","SECT":" ","MAREA":" ","LANE":" ","ALLEY":" ","HOUSE_NO":"５號","E_COORD97":167503.82999999999,"N_COORD97":2543826.9900000002,"ADDRESS":"正德街５號","OBJECTID":559342},"geometry":{"x":167503.83000000007,"y":2543826.9900000002}},{"attributes":{"ID":559370,"DIS_CODE":0,"TOWNNAME":"中西區","LI":"中正里","LIN":"9鄰","STREET":"正德街","SECT":" ","MAREA":" ","LANE":" ","ALLEY":" ","HOUSE_NO":"７號","E_COORD97":167508.07000000001,"N_COORD97":2543833.6000000001,"ADDRESS":"正德街７號","OBJECTID":559343},"geometry":{"x":167508.07000000216,"y":2543833.6000000015}},{"attributes":{"ID":559371,"DIS_CODE":0,"TOWNNAME":"中西區","LI":"中正里","LIN":"9鄰","STREET":"正德街","SECT":" ","MAREA":" ","LANE":" ","ALLEY":" ","HOUSE_NO":"９號","E_COORD97":167509.04999999999,"N_COORD97":2543836.5899999999,"ADDRESS":"正德街９號","OBJECTID":559344},"geometry":{"x":167509.04999999981,"y":2543836.5899999999}},{"attributes":{"ID":559372,"DIS_CODE":0,"TOWNNAME":"永康區","LI":"西灣里","LIN":"45鄰","STREET":"永華路","SECT":" ","MAREA":" ","LANE":" ","ALLEY":" ","HOUSE_NO":"２１５號","E_COORD97":174081.64000000001,"N_COORD97":2545676.8399999999,"ADDRESS":"永華路２１５號","OBJECTID":559345},"geometry":{"x":174081.63999999966,"y":2545676.8400000017}},{"attributes":{"ID":559373,"DIS_CODE":0,"TOWNNAME":"永康區","LI":"西灣里","LIN":"13鄰","STREET":"民族路","SECT":" ","MAREA":" ","LANE":" ","ALLEY":" ","HOUSE_NO":"４７１號","E_COORD97":174612.26000000001,"N_COORD97":2545422.5299999998,"ADDRESS":"民族路４７１號","OBJECTID":559346},"geometry":{"x":174612.25999999885,"y":2545422.5299999993}},{"attributes":{"ID":559374,"DIS_CODE":0,"TOWNNAME":"中西區","LI":"中正里","LIN":"9鄰","STREET":"康樂街","SECT":" ","MAREA":" ","LANE":" ","ALLEY":" ","HOUSE_NO":"１１６號","E_COORD97":167461.06,"N_COORD97":2543838.54,"ADDRESS":"康樂街１１６號","OBJECTID":559347},"geometry":{"x":167461.05999999959,"y":2543838.5399999991}},{"attributes":{"ID":559375,"DIS_CODE":0,"TOWNNAME":"中西區","LI":"中正里","LIN":"9鄰","STREET":"康樂街","SECT":" ","MAREA":" ","LANE":" ","ALLEY":" ","HOUSE_NO":"１１８號","E_COORD97":167458.66,"N_COORD97":2543847.6200000001,"ADDRESS":"康樂街１１８號","OBJECTID":559348},"geometry":{"x":167458.66000000108,"y":2543847.620000001}},{"attributes":{"ID":559376,"DIS_CODE":0,"TOWNNAME":"中西區","LI":"民主里","LIN":"9鄰","STREET":"大智街","SECT":" ","MAREA":" ","LANE":" ","ALLEY":" ","HOUSE_NO":"５２號之４","E_COORD97":167299.44,"N_COORD97":2543612.7400000002,"ADDRESS":"大智街５２號之４","OBJECTID":559349},"geometry":{"x":167299.44000000134,"y":2543612.7400000039}},{"attributes":{"ID":559377,"DIS_CODE":0,"TOWNNAME":"中西區","LI":"民主里","LIN":"9鄰","STREET":"大智街","SECT":" ","MAREA":" ","LANE":" ","ALLEY":" ","HOUSE_NO":"５２號之５","E_COORD97":167295.54000000001,"N_COORD97":2543613.5899999999,"ADDRESS":"大智街５２號之５","OBJECTID":559350},"geometry":{"x":167295.54000000004,"y":2543613.5900000017}},{"attributes":{"ID":559378,"DIS_CODE":0,"TOWNNAME":"中西區","LI":"民主里","LIN":"9鄰","STREET":"大智街","SECT":" ","MAREA":" ","LANE":" ","ALLEY":" ","HOUSE_NO":"５２號之６","E_COORD97":167291.92999999999,"N_COORD97":2543613.7599999998,"ADDRESS":"大智街５２號之６","OBJECTID":559351},"geometry":{"x":167291.93000000063,"y":2543613.7599999998}},{"attributes":{"ID":559379,"DIS_CODE":0,"TOWNNAME":"中西區","LI":"民主里","LIN":"9鄰","STREET":"大智街","SECT":" ","MAREA":" ","LANE":" ","ALLEY":" ","HOUSE_NO":"５２號之７","E_COORD97":167289.44,"N_COORD97":2543601.29,"ADDRESS":"大智街５２號之７","OBJECTID":559352},"geometry":{"x":167289.44000000041,"y":2543601.290000001}},{"attributes":{"ID":559380,"DIS_CODE":0,"TOWNNAME":"中西區","LI":"民主里","LIN":"9鄰","STREET":"大智街","SECT":" ","MAREA":" ","LANE":" ","ALLEY":" ","HOUSE_NO":"５２號之８","E_COORD97":167293.10999999999,"N_COORD97":2543600.5,"ADDRESS":"大智街５２號之８","OBJECTID":559353},"geometry":{"x":167293.11000000127,"y":2543600.5000000037}},{"attributes":{"ID":559381,"DIS_CODE":0,"TOWNNAME":"中西區","LI":"民主里","LIN":"9鄰","STREET":"大智街","SECT":" ","MAREA":" ","LANE":" ","ALLEY":" ","HOUSE_NO":"５２號之９","E_COORD97":167297.07000000001,"N_COORD97":2543599.6499999999,"ADDRESS":"大智街５２號之９","OBJECTID":559354},"geometry":{"x":167297.0700000003,"y":2543599.6499999985}},{"attributes":{"ID":559382,"DIS_CODE":0,"TOWNNAME":"中西區","LI":"民主里","LIN":"9鄰","STREET":"大智街","SECT":" ","MAREA":" ","LANE":" ","ALLEY":" ","HOUSE_NO":"５４號","E_COORD97":167307.95000000001,"N_COORD97":2543594.7000000002,"ADDRESS":"大智街５４號","OBJECTID":559355},"geometry":{"x":167307.95000000019,"y":2543594.6999999974}},{"attributes":{"ID":559383,"DIS_CODE":0,"TOWNNAME":"中西區","LI":"民生里","LIN":"9鄰","STREET":"大勇街","SECT":" ","MAREA":" ","LANE":" ","ALLEY":" ","HOUSE_NO":"１５５號","E_COORD97":167127.20000000001,"N_COORD97":2543374.0299999998,"ADDRESS":"大勇街１５５號","OBJECTID":559356},"geometry":{"x":167127.20000000205,"y":2543374.0300000012}},{"attributes":{"ID":559384,"DIS_CODE":0,"TOWNNAME":"中西區","LI":"民生里","LIN":"9鄰","STREET":"武英街","SECT":" ","MAREA":" ","LANE":" ","ALLEY":" ","HOUSE_NO":"４０號","E_COORD97":167122.42000000001,"N_COORD97":2543335.54,"ADDRESS":"武英街４０號","OBJECTID":559357},"geometry":{"x":167122.42000000086,"y":2543335.540000001}},{"attributes":{"ID":559385,"DIS_CODE":0,"TOWNNAME":"中西區","LI":"民生里","LIN":"9鄰","STREET":"武英街","SECT":" ","MAREA":" ","LANE":" ","ALLEY":" ","HOUSE_NO":"４２號","E_COORD97":167116.72,"N_COORD97":2543336.4500000002,"ADDRESS":"武英街４２號","OBJECTID":559358},"geometry":{"x":167116.72000000067,"y":2543336.4500000011}},{"attributes":{"ID":559386,"DIS_CODE":0,"TOWNNAME":"中西區","LI":"民生里","LIN":"9鄰","STREET":"武英街","SECT":" ","MAREA":" ","LANE":" ","ALLEY":" ","HOUSE_NO":"４６號","E_COORD97":167110.79000000001,"N_COORD97":2543337.1400000001,"ADDRESS":"武英街４６號","OBJECTID":559359},"geometry":{"x":167110.79000000004,"y":2543337.1400000025}},{"attributes":{"ID":559387,"DIS_CODE":0,"TOWNNAME":"中西區","LI":"民生里","LIN":"9鄰","STREET":"武英街","SECT":" ","MAREA":" ","LANE":" ","ALLEY":" ","HOUSE_NO":"４８號","E_COORD97":167105.54999999999,"N_COORD97":2543338.96,"ADDRESS":"武英街４８號","OBJECTID":559360},"geometry":{"x":167105.54999999981,"y":2543338.9600000009}},{"attributes":{"ID":559388,"DIS_CODE":0,"TOWNNAME":"中西區","LI":"民生里","LIN":"9鄰","STREET":"武英街","SECT":" ","MAREA":" ","LANE":" ","ALLEY":" ","HOUSE_NO":"５０號","E_COORD97":167101.89999999999,"N_COORD97":2543339.4100000001,"ADDRESS":"武英街５０號","OBJECTID":559361},"geometry":{"x":167101.90000000037,"y":2543339.4100000001}},{"attributes":{"ID":559389,"DIS_CODE":0,"TOWNNAME":"中西區","LI":"民生里","LIN":"9鄰","STREET":"南華街","SECT":" ","MAREA":" ","LANE":" ","ALLEY":" ","HOUSE_NO":"３６號","E_COORD97":167101.22,"N_COORD97":2543374.48,"ADDRESS":"南華街３６號","OBJECTID":559362},"geometry":{"x":167101.2200000016,"y":2543374.4800000023}},{"attributes":{"ID":559390,"DIS_CODE":0,"TOWNNAME":"中西區","LI":"民生里","LIN":"9鄰","STREET":"南華街","SECT":" ","MAREA":" ","LANE":" ","ALLEY":" ","HOUSE_NO":"４０號","E_COORD97":167103.04000000001,"N_COORD97":2543379.9500000002,"ADDRESS":"南華街４０號","OBJECTID":559363},"geometry":{"x":167103.04000000097,"y":2543379.9500000011}},{"attributes":{"ID":559391,"DIS_CODE":0,"TOWNNAME":"中西區","LI":"三合里","LIN":"9鄰","STREET":"信義街","SECT":" ","MAREA":" ","LANE":" ","ALLEY":" ","HOUSE_NO":"３７號","E_COORD97":167545.01000000001,"N_COORD97":2544499.8700000001,"ADDRESS":"信義街３７號","OBJECTID":559364},"geometry":{"x":167545.00999999885,"y":2544499.870000001}},{"attributes":{"ID":559392,"DIS_CODE":0,"TOWNNAME":"中西區","LI":"三合里","LIN":"9鄰","STREET":"金華路","SECT":"四段","MAREA":" ","LANE":" ","ALLEY":" ","HOUSE_NO":"１５０號","E_COORD97":167527.42999999999,"N_COORD97":2544489.7200000002,"ADDRESS":"金華路四段１５０號","OBJECTID":559365},"geometry":{"x":167527.43000000063,"y":2544489.7200000007}},{"attributes":{"ID":559393,"DIS_CODE":0,"TOWNNAME":"中西區","LI":"三合里","LIN":"9鄰","STREET":"金華路","SECT":"四段","MAREA":" ","LANE":" ","ALLEY":" ","HOUSE_NO":"１５６號","E_COORD97":167530.98000000001,"N_COORD97":2544497.1299999999,"ADDRESS":"金華路四段１５６號","OBJECTID":559366},"geometry":{"x":167530.98000000138,"y":2544497.1300000027}},{"attributes":{"ID":559394,"DIS_CODE":0,"TOWNNAME":"中西區","LI":"三合里","LIN":"9鄰","STREET":"金華路","SECT":"四段","MAREA":" ","LANE":" ","ALLEY":" ","HOUSE_NO":"１５８號","E_COORD97":167536.78,"N_COORD97":2544501.3199999998,"ADDRESS":"金華路四段１５８號","OBJECTID":559367},"geometry":{"x":167536.78000000026,"y":2544501.3200000022}},{"attributes":{"ID":559395,"DIS_CODE":0,"TOWNNAME":"中西區","LI":"三合里","LIN":"9鄰","STREET":"金華路","SECT":"四段","MAREA":" ","LANE":" ","ALLEY":" ","HOUSE_NO":"１６０號","E_COORD97":167536.62,"N_COORD97":2544506.3100000001,"ADDRESS":"金華路四段１６０號","OBJECTID":559368},"geometry":{"x":167536.62000000104,"y":2544506.3100000005}},{"attributes":{"ID":559396,"DIS_CODE":0,"TOWNNAME":"中西區","LI":"三合里","LIN":"9鄰","STREET":"民族路","SECT":"三段","MAREA":" ","LANE":" ","ALLEY":" ","HOUSE_NO":"１５０號","E_COORD97":167570.72,"N_COORD97":2544395.9300000002,"ADDRESS":"民族路三段１５０號","OBJECTID":559369},"geometry":{"x":167570.7200000016,"y":2544395.9299999997}},{"attributes":{"ID":559397,"DIS_CODE":0,"TOWNNAME":"中西區","LI":"三合里","LIN":"9鄰","STREET":"民族路","SECT":"三段","MAREA":" ","LANE":" ","ALLEY":" ","HOUSE_NO":"１５２號","E_COORD97":167566.31,"N_COORD97":2544398.0499999998,"ADDRESS":"民族路三段１５２號","OBJECTID":559370},"geometry":{"x":167566.30999999959,"y":2544398.0500000026}},{"attributes":{"ID":559398,"DIS_CODE":0,"TOWNNAME":"永康區","LI":"西灣里","LIN":"24鄰","STREET":"永大路","SECT":"二段","MAREA":" ","LANE":" ","ALLEY":" ","HOUSE_NO":"３１７號","E_COORD97":174419.48999999999,"N_COORD97":2545612.2799999998,"ADDRESS":"永大路二段３１７號","OBJECTID":559371},"geometry":{"x":174419.49000000022,"y":2545612.2800000012}},{"attributes":{"ID":559399,"DIS_CODE":0,"TOWNNAME":"永康區","LI":"西灣里","LIN":"49鄰","STREET":"永華路","SECT":" ","MAREA":" ","LANE":" ","ALLEY":" ","HOUSE_NO":"３０５號","E_COORD97":174034.57000000001,"N_COORD97":2545886.3500000001,"ADDRESS":"永華路３０５號","OBJECTID":559372},"geometry":{"x":174034.57000000123,"y":2545886.3500000034}},{"attributes":{"ID":559400,"DIS_CODE":0,"TOWNNAME":"永康區","LI":"西灣里","LIN":"21鄰","STREET":"國光六街","SECT":" ","MAREA":" ","LANE":" ","ALLEY":" ","HOUSE_NO":"２０號","E_COORD97":174266.09,"N_COORD97":2545277.8999999999,"ADDRESS":"國光六街２０號","OBJECTID":559373},"geometry":{"x":174266.09000000171,"y":2545277.9000000022}},{"attributes":{"ID":559401,"DIS_CODE":0,"TOWNNAME":"中西區","LI":"三合里","LIN":"9鄰","STREET":"民族路","SECT":"三段","MAREA":" ","LANE":" ","ALLEY":" ","HOUSE_NO":"１５４號","E_COORD97":167561.70999999999,"N_COORD97":2544401.0499999998,"ADDRESS":"民族路三段１５４號","OBJECTID":559374},"geometry":{"x":167561.71000000089,"y":2544401.0500000045}},{"attributes":{"ID":559402,"DIS_CODE":0,"TOWNNAME":"中西區","LI":"三合里","LIN":"9鄰","STREET":"民族路","SECT":"三段","MAREA":" ","LANE":" ","ALLEY":" ","HOUSE_NO":"１５６號","E_COORD97":167563.45999999999,"N_COORD97":2544400.6699999999,"ADDRESS":"民族路三段１５６號","OBJECTID":559375},"geometry":{"x":167563.45999999996,"y":2544400.6700000018}},{"attributes":{"ID":559403,"DIS_CODE":0,"TOWNNAME":"中西區","LI":"三合里","LIN":"9鄰","STREET":"民族路","SECT":"三段","MAREA":" ","LANE":" ","ALLEY":" ","HOUSE_NO":"１５８號","E_COORD97":167557.82000000001,"N_COORD97":2544402.1099999999,"ADDRESS":"民族路三段１５８號","OBJECTID":559376},"geometry":{"x":167557.82000000123,"y":2544402.1099999994}},{"attributes":{"ID":559404,"DIS_CODE":0,"TOWNNAME":"中西區","LI":"三合里","LIN":"9鄰","STREET":"民族路","SECT":"三段","MAREA":" ","LANE":" ","ALLEY":" ","HOUSE_NO":"１６０號","E_COORD97":167553.76000000001,"N_COORD97":2544404.7599999998,"ADDRESS":"民族路三段１６０號","OBJECTID":559377},"geometry":{"x":167553.76000000071,"y":2544404.7599999998}},{"attributes":{"ID":559405,"DIS_CODE":0,"TOWNNAME":"中西區","LI":"三合里","LIN":"9鄰","STREET":"民族路","SECT":"三段","MAREA":" ","LANE":" ","ALLEY":" ","HOUSE_NO":"１６２號","E_COORD97":167547.92999999999,"N_COORD97":2544409.1699999999,"ADDRESS":"民族路三段１６２號","OBJECTID":559378},"geometry":{"x":167547.93000000063,"y":2544409.1699999999}},{"attributes":{"ID":559406,"DIS_CODE":0,"TOWNNAME":"中西區","LI":"三合里","LIN":"9鄰","STREET":"民族路","SECT":"三段","MAREA":" ","LANE":" ","ALLEY":" ","HOUSE_NO":"１６４號","E_COORD97":167542.45000000001,"N_COORD97":2544412.1699999999,"ADDRESS":"民族路三段１６４號","OBJECTID":559379},"geometry":{"x":167542.44999999925,"y":2544412.1699999999}},{"attributes":{"ID":559407,"DIS_CODE":0,"TOWNNAME":"中西區","LI":"三合里","LIN":"9鄰","STREET":"民族路","SECT":"三段","MAREA":" ","LANE":" ","ALLEY":" ","HOUSE_NO":"１６６號","E_COORD97":167538.39000000001,"N_COORD97":2544412.1699999999,"ADDRESS":"民族路三段１６６號","OBJECTID":559380},"geometry":{"x":167538.38999999966,"y":2544412.1699999999}},{"attributes":{"ID":559408,"DIS_CODE":0,"TOWNNAME":"中西區","LI":"三合里","LIN":"9鄰","STREET":"民族路","SECT":"三段","MAREA":" ","LANE":" ","ALLEY":" ","HOUSE_NO":"１６８號","E_COORD97":167533.44,"N_COORD97":2544413.23,"ADDRESS":"民族路三段１６８號","OBJECTID":559381},"geometry":{"x":167533.44000000134,"y":2544413.2300000042}},{"attributes":{"ID":559409,"DIS_CODE":0,"TOWNNAME":"中西區","LI":"三合里","LIN":"9鄰","STREET":"民族路","SECT":"三段","MAREA":" ","LANE":" ","ALLEY":" ","HOUSE_NO":"１７０號","E_COORD97":167528.67000000001,"N_COORD97":2544415.3500000001,"ADDRESS":"民族路三段１７０號","OBJECTID":559382},"geometry":{"x":167528.66999999993,"y":2544415.3500000015}},{"attributes":{"ID":559410,"DIS_CODE":0,"TOWNNAME":"中西區","LI":"三合里","LIN":"9鄰","STREET":"民族路","SECT":"三段","MAREA":" ","LANE":" ","ALLEY":" ","HOUSE_NO":"１７４號","E_COORD97":167520.89000000001,"N_COORD97":2544418.7000000002,"ADDRESS":"民族路三段１７４號","OBJECTID":559383},"geometry":{"x":167520.8900000006,"y":2544418.700000003}},{"attributes":{"ID":559411,"DIS_CODE":0,"TOWNNAME":"永康區","LI":"尚頂里","LIN":"7鄰","STREET":"\u25A0信街","SECT":" ","MAREA":" ","LANE":" ","ALLEY":" ","HOUSE_NO":"１３０號","E_COORD97":171041.82999999999,"N_COORD97":2547762.5,"ADDRESS":"\u25A0信街１３０號","OBJECTID":559384},"geometry":{"x":171041.83000000007,"y":2547762.5}},{"attributes":{"ID":559412,"DIS_CODE":0,"TOWNNAME":"永康區","LI":"西灣里","LIN":"44鄰","STREET":"永華路","SECT":" ","MAREA":" ","LANE":" ","ALLEY":" ","HOUSE_NO":"１９１號","E_COORD97":174088.84,"N_COORD97":2545598.8599999999,"ADDRESS":"永華路１９１號","OBJECTID":559385},"geometry":{"x":174088.84000000078,"y":2545598.8600000013}},{"attributes":{"ID":559413,"DIS_CODE":0,"TOWNNAME":"麻豆區","LI":"保安里","LIN":"9鄰","STREET":"興中路","SECT":" ","MAREA":" ","LANE":" ","ALLEY":" ","HOUSE_NO":"１２９號之１０","E_COORD97":173363.44,"N_COORD97":2564884.6699999999,"ADDRESS":"興中路１２９號之１０","OBJECTID":559386},"geometry":{"x":173363.44000000041,"y":2564884.6700000018}},{"attributes":{"ID":559414,"DIS_CODE":0,"TOWNNAME":"麻豆區","LI":"保安里","LIN":"9鄰","STREET":"興中路","SECT":" ","MAREA":" ","LANE":" ","ALLEY":" ","HOUSE_NO":"１２９號之１","E_COORD97":173376.07000000001,"N_COORD97":2564858.29,"ADDRESS":"興中路１２９號之１","OBJECTID":559387},"geometry":{"x":173376.0700000003,"y":2564858.2899999991}},{"attributes":{"ID":559415,"DIS_CODE":0,"TOWNNAME":"麻豆區","LI":"保安里","LIN":"9鄰","STREET":"興中路","SECT":" ","MAREA":" ","LANE":" ","ALLEY":" ","HOUSE_NO":"１２９號之２","E_COORD97":173375.42000000001,"N_COORD97":2564862.2999999998,"ADDRESS":"興中路１２９號之２","OBJECTID":559388},"geometry":{"x":173375.41999999993,"y":2564862.3000000007}},{"attributes":{"ID":559416,"DIS_CODE":0,"TOWNNAME":"麻豆區","LI":"保安里","LIN":"9鄰","STREET":"興中路","SECT":" ","MAREA":" ","LANE":" ","ALLEY":" ","HOUSE_NO":"１２９號之３","E_COORD97":173368,"N_COORD97":2564876.2599999998,"ADDRESS":"興中路１２９號之３","OBJECTID":559389},"geometry":{"x":173368,"y":2564876.2599999979}},{"attributes":{"ID":559417,"DIS_CODE":0,"TOWNNAME":"麻豆區","LI":"東角里","LIN":"9鄰","STREET":"興中路","SECT":" ","MAREA":" ","LANE":" ","ALLEY":" ","HOUSE_NO":"２５９號","E_COORD97":174155.12,"N_COORD97":2564823.2799999998,"ADDRESS":"興中路２５９號","OBJECTID":559390},"geometry":{"x":174155.12000000011,"y":2564823.2800000012}},{"attributes":{"ID":559418,"DIS_CODE":0,"TOWNNAME":"麻豆區","LI":"保安里","LIN":"9鄰","STREET":"興中路","SECT":" ","MAREA":" ","LANE":" ","ALLEY":" ","HOUSE_NO":"１２９號之４","E_COORD97":173365.72,"N_COORD97":2564880.7599999998,"ADDRESS":"興中路１２９號之４","OBJECTID":559391},"geometry":{"x":173365.72000000067,"y":2564880.7600000016}},{"attributes":{"ID":559419,"DIS_CODE":0,"TOWNNAME":"永康區","LI":"西灣里","LIN":"28鄰","STREET":"永大路","SECT":"二段","MAREA":" ","LANE":" ","ALLEY":" ","HOUSE_NO":"５３７號","E_COORD97":174467.60999999999,"N_COORD97":2546210.2799999998,"ADDRESS":"永大路二段５３７號","OBJECTID":559392},"geometry":{"x":174467.61000000034,"y":2546210.2799999993}},{"attributes":{"ID":559420,"DIS_CODE":0,"TOWNNAME":"永康區","LI":"西橋里","LIN":"24鄰","STREET":"大橋三街","SECT":" ","MAREA":" ","LANE":" ","ALLEY":" ","HOUSE_NO":"６５號","E_COORD97":170606.48000000001,"N_COORD97":2546540.25,"ADDRESS":"大橋三街６５號","OBJECTID":559393},"geometry":{"x":170606.48000000138,"y":2546540.25}},{"attributes":{"ID":559421,"DIS_CODE":0,"TOWNNAME":"麻豆區","LI":"保安里","LIN":"9鄰","STREET":"興中路","SECT":" ","MAREA":" ","LANE":" ","ALLEY":" ","HOUSE_NO":"１３３號","E_COORD97":173382.57999999999,"N_COORD97":2564835.0800000001,"ADDRESS":"興中路１３３號","OBJECTID":559394},"geometry":{"x":173382.58000000007,"y":2564835.0800000019}},{"attributes":{"ID":559422,"DIS_CODE":0,"TOWNNAME":"麻豆區","LI":"保安里","LIN":"9鄰","STREET":"興中路","SECT":" ","MAREA":" ","LANE":" ","ALLEY":" ","HOUSE_NO":"１３５號","E_COORD97":173385.97,"N_COORD97":2564835.2400000002,"ADDRESS":"興中路１３５號","OBJECTID":559395},"geometry":{"x":173385.97000000067,"y":2564835.2400000002}},{"attributes":{"ID":559423,"DIS_CODE":0,"TOWNNAME":"麻豆區","LI":"保安里","LIN":"9鄰","STREET":"興中路","SECT":" ","MAREA":" ","LANE":" ","ALLEY":" ","HOUSE_NO":"１３７號","E_COORD97":173389.88,"N_COORD97":2564835.0600000001,"ADDRESS":"興中路１３７號","OBJECTID":559396},"geometry":{"x":173389.88000000082,"y":2564835.0600000024}},{"attributes":{"ID":559424,"DIS_CODE":0,"TOWNNAME":"麻豆區","LI":"保安里","LIN":"9鄰","STREET":"興中路","SECT":" ","MAREA":" ","LANE":" ","ALLEY":" ","HOUSE_NO":"１３９號","E_COORD97":173393.39000000001,"N_COORD97":2564834.9700000002,"ADDRESS":"興中路１３９號","OBJECTID":559397},"geometry":{"x":173393.38999999966,"y":2564834.9700000007}},{"attributes":{"ID":559425,"DIS_CODE":0,"TOWNNAME":"麻豆區","LI":"保安里","LIN":"9鄰","STREET":"興中路","SECT":" ","MAREA":" ","LANE":" ","ALLEY":" ","HOUSE_NO":"１４１號","E_COORD97":173397.73000000001,"N_COORD97":2564834.98,"ADDRESS":"興中路１４１號","OBJECTID":559398},"geometry":{"x":173397.72999999952,"y":2564834.9800000042}},{"attributes":{"ID":559426,"DIS_CODE":0,"TOWNNAME":"麻豆區","LI":"保安里","LIN":"9鄰","STREET":"興中路","SECT":" ","MAREA":" ","LANE":" ","ALLEY":" ","HOUSE_NO":"１４３號","E_COORD97":173401.89999999999,"N_COORD97":2564835.1400000001,"ADDRESS":"興中路１４３號","OBJECTID":559399},"geometry":{"x":173401.9000000013,"y":2564835.1400000025}},{"attributes":{"ID":559427,"DIS_CODE":0,"TOWNNAME":"麻豆區","LI":"保安里","LIN":"9鄰","STREET":"興中路","SECT":" ","MAREA":" ","LANE":" ","ALLEY":" ","HOUSE_NO":"１４５號","E_COORD97":173405.95999999999,"N_COORD97":2564834.9399999999,"ADDRESS":"興中路１４５號","OBJECTID":559400},"geometry":{"x":173405.96000000183,"y":2564834.9400000013}}]}