{"displayFieldName":"TOWNNAME","fieldAliases":{"ID":"ID","DIS_CODE":"DIS_CODE","TOWNNAME":"TOWNNAME","LI":"LI","LIN":"LIN","STREET":"STREET","SECT":"SECT","MAREA":"MAREA","LANE":"LANE","ALLEY":"ALLEY","HOUSE_NO":"HOUSE_NO","E_COORD97":"E_COORD97","N_COORD97":"N_COORD97","ADDRESS":"ADDRESS","OBJECTID":"OBJECTID"},"geometryType":"esriGeometryPoint","spatialReference":{"wkid":102443,"latestWkid":3826},"fields":[{"name":"ID","type":"esriFieldTypeDouble","alias":"ID"},{"name":"DIS_CODE","type":"esriFieldTypeInteger","alias":"DIS_CODE"},{"name":"TOWNNAME","type":"esriFieldTypeString","alias":"TOWNNAME","length":8},{"name":"LI","type":"esriFieldTypeString","alias":"LI","length":8},{"name":"LIN","type":"esriFieldTypeString","alias":"LIN","length":12},{"name":"STREET","type":"esriFieldTypeString","alias":"STREET","length":20},{"name":"SECT","type":"esriFieldTypeString","alias":"SECT","length":8},{"name":"MAREA","type":"esriFieldTypeString","alias":"MAREA","length":12},{"name":"LANE","type":"esriFieldTypeString","alias":"LANE","length":10},{"name":"ALLEY","type":"esriFieldTypeString","alias":"ALLEY","length":10},{"name":"HOUSE_NO","type":"esriFieldTypeString","alias":"HOUSE_NO","length":20},{"name":"E_COORD97","type":"esriFieldTypeDouble","alias":"E_COORD97"},{"name":"N_COORD97","type":"esriFieldTypeDouble","alias":"N_COORD97"},{"name":"ADDRESS","type":"esriFieldTypeString","alias":"ADDRESS","length":50},{"name":"OBJECTID","type":"esriFieldTypeOID","alias":"OBJECTID"}],"features":[{"attributes":{"ID":385025,"DIS_CODE":0,"TOWNNAME":"新化區","LI":"協興里","LIN":"9鄰","STREET":"太平街","SECT":" ","MAREA":" ","LANE":"１５０巷","ALLEY":" ","HOUSE_NO":"６２號","E_COORD97":178322.57000000001,"N_COORD97":2548839.25,"ADDRESS":"太平街１５０巷６２號","OBJECTID":385001},"geometry":{"x":178322.5700000003,"y":2548839.25}},{"attributes":{"ID":385026,"DIS_CODE":0,"TOWNNAME":"新化區","LI":"協興里","LIN":"9鄰","STREET":"太平街","SECT":" ","MAREA":" ","LANE":"１５０巷","ALLEY":" ","HOUSE_NO":"４６號","E_COORD97":178329.87,"N_COORD97":2548806.25,"ADDRESS":"太平街１５０巷４６號","OBJECTID":385002},"geometry":{"x":178329.87000000104,"y":2548806.2500000037}},{"attributes":{"ID":385027,"DIS_CODE":0,"TOWNNAME":"新化區","LI":"協興里","LIN":"9鄰","STREET":"太平街","SECT":" ","MAREA":" ","LANE":"１５０巷","ALLEY":" ","HOUSE_NO":"４２號之１","E_COORD97":178331.29999999999,"N_COORD97":2548802.2599999998,"ADDRESS":"太平街１５０巷４２號之１","OBJECTID":385003},"geometry":{"x":178331.30000000168,"y":2548802.2599999998}},{"attributes":{"ID":385028,"DIS_CODE":0,"TOWNNAME":"新化區","LI":"太平里","LIN":"9鄰","STREET":"中正路","SECT":" ","MAREA":" ","LANE":"６８６巷","ALLEY":" ","HOUSE_NO":"２號","E_COORD97":178625.51000000001,"N_COORD97":2549598.25,"ADDRESS":"中正路６８６巷２號","OBJECTID":385004},"geometry":{"x":178625.51000000071,"y":2549598.25}},{"attributes":{"ID":385029,"DIS_CODE":0,"TOWNNAME":"新化區","LI":"太平里","LIN":"9鄰","STREET":"中正路","SECT":" ","MAREA":" ","LANE":"６８６巷","ALLEY":" ","HOUSE_NO":"２０號","E_COORD97":178638.85999999999,"N_COORD97":2549570.25,"ADDRESS":"中正路６８６巷２０號","OBJECTID":385005},"geometry":{"x":178638.86000000127,"y":2549570.2500000019}},{"attributes":{"ID":385030,"DIS_CODE":0,"TOWNNAME":"新化區","LI":"太平里","LIN":"9鄰","STREET":"中正路","SECT":" ","MAREA":" ","LANE":"６８６巷","ALLEY":" ","HOUSE_NO":"１９號","E_COORD97":178648.45999999999,"N_COORD97":2549569.25,"ADDRESS":"中正路６８６巷１９號","OBJECTID":385006},"geometry":{"x":178648.45999999996,"y":2549569.2500000037}},{"attributes":{"ID":385031,"DIS_CODE":0,"TOWNNAME":"新化區","LI":"協興里","LIN":"9鄰","STREET":"太平街","SECT":" ","MAREA":" ","LANE":"１５０巷","ALLEY":" ","HOUSE_NO":"５０號","E_COORD97":178328.26999999999,"N_COORD97":2548814.25,"ADDRESS":"太平街１５０巷５０號","OBJECTID":385007},"geometry":{"x":178328.27000000048,"y":2548814.2500000019}},{"attributes":{"ID":385032,"DIS_CODE":0,"TOWNNAME":"新化區","LI":"太平里","LIN":"9鄰","STREET":"中正路","SECT":" ","MAREA":" ","LANE":"６８６巷","ALLEY":" ","HOUSE_NO":"９號","E_COORD97":178641.70999999999,"N_COORD97":2549584.25,"ADDRESS":"中正路６８６巷９號","OBJECTID":385008},"geometry":{"x":178641.70999999996,"y":2549584.2500000019}},{"attributes":{"ID":385033,"DIS_CODE":0,"TOWNNAME":"新化區","LI":"協興里","LIN":"9鄰","STREET":"太平街","SECT":" ","MAREA":" ","LANE":"１５０巷","ALLEY":" ","HOUSE_NO":"４２號","E_COORD97":178331.97,"N_COORD97":2548798.25,"ADDRESS":"太平街１５０巷４２號","OBJECTID":385009},"geometry":{"x":178331.97000000067,"y":2548798.25}},{"attributes":{"ID":385034,"DIS_CODE":0,"TOWNNAME":"新化區","LI":"協興里","LIN":"9鄰","STREET":"太平街","SECT":" ","MAREA":" ","LANE":"１５０巷","ALLEY":" ","HOUSE_NO":"５４號","E_COORD97":178326.67000000001,"N_COORD97":2548821.25,"ADDRESS":"太平街１５０巷５４號","OBJECTID":385010},"geometry":{"x":178326.66999999993,"y":2548821.2500000019}},{"attributes":{"ID":385035,"DIS_CODE":0,"TOWNNAME":"新化區","LI":"太平里","LIN":"9鄰","STREET":"中正路","SECT":" ","MAREA":" ","LANE":"６８６巷","ALLEY":" ","HOUSE_NO":"８號","E_COORD97":178628.81,"N_COORD97":2549591.25,"ADDRESS":"中正路６８６巷８號","OBJECTID":385011},"geometry":{"x":178628.80999999959,"y":2549591.25}},{"attributes":{"ID":385036,"DIS_CODE":0,"TOWNNAME":"新化區","LI":"協興里","LIN":"9鄰","STREET":"太平街","SECT":" ","MAREA":" ","LANE":"１５０巷","ALLEY":" ","HOUSE_NO":"２８號","E_COORD97":178340.26999999999,"N_COORD97":2548764.25,"ADDRESS":"太平街１５０巷２８號","OBJECTID":385012},"geometry":{"x":178340.27000000048,"y":2548764.25}},{"attributes":{"ID":385037,"DIS_CODE":0,"TOWNNAME":"新化區","LI":"太平里","LIN":"9鄰","STREET":"中正路","SECT":" ","MAREA":" ","LANE":"６８６巷","ALLEY":" ","HOUSE_NO":"２２號","E_COORD97":178640.85999999999,"N_COORD97":2549566.25,"ADDRESS":"中正路６８６巷２２號","OBJECTID":385013},"geometry":{"x":178640.86000000127,"y":2549566.2500000019}},{"attributes":{"ID":385038,"DIS_CODE":0,"TOWNNAME":"新化區","LI":"協興里","LIN":"9鄰","STREET":"太平街","SECT":" ","MAREA":" ","LANE":"１５０巷","ALLEY":" ","HOUSE_NO":"５２號","E_COORD97":178327.47,"N_COORD97":2548817.25,"ADDRESS":"太平街１５０巷５２號","OBJECTID":385014},"geometry":{"x":178327.47000000067,"y":2548817.2500000019}},{"attributes":{"ID":385039,"DIS_CODE":0,"TOWNNAME":"新化區","LI":"協興里","LIN":"9鄰","STREET":"太平街","SECT":" ","MAREA":" ","LANE":"１５０巷","ALLEY":" ","HOUSE_NO":"５６號","E_COORD97":178325.76999999999,"N_COORD97":2548825.25,"ADDRESS":"太平街１５０巷５６號","OBJECTID":385015},"geometry":{"x":178325.76999999955,"y":2548825.25}},{"attributes":{"ID":385040,"DIS_CODE":0,"TOWNNAME":"新化區","LI":"太平里","LIN":"9鄰","STREET":"中正路","SECT":" ","MAREA":" ","LANE":"６８６巷","ALLEY":" ","HOUSE_NO":"１２號","E_COORD97":178632.16,"N_COORD97":2549584.25,"ADDRESS":"中正路６８６巷１２號","OBJECTID":385016},"geometry":{"x":178632.16000000015,"y":2549584.2500000019}},{"attributes":{"ID":385041,"DIS_CODE":0,"TOWNNAME":"安南區","LI":"公親里","LIN":"9鄰","STREET":"公學路","SECT":"一段","MAREA":" ","LANE":"１７３巷","ALLEY":" ","HOUSE_NO":"６１號之１","E_COORD97":167970.32999999999,"N_COORD97":2552884.2999999998,"ADDRESS":"公學路一段１７３巷６１號之１","OBJECTID":385017},"geometry":{"x":167970.32999999914,"y":2552884.3000000007}},{"attributes":{"ID":385042,"DIS_CODE":0,"TOWNNAME":"安南區","LI":"新順里","LIN":"9鄰","STREET":"安生街","SECT":" ","MAREA":" ","LANE":"１４７巷","ALLEY":" ","HOUSE_NO":"１號","E_COORD97":169436.04000000001,"N_COORD97":2549520.4199999999,"ADDRESS":"安生街１４７巷１號","OBJECTID":385018},"geometry":{"x":169436.04000000097,"y":2549520.4200000037}},{"attributes":{"ID":385043,"DIS_CODE":0,"TOWNNAME":"安南區","LI":"新順里","LIN":"9鄰","STREET":"安生街","SECT":" ","MAREA":" ","LANE":"１４７巷","ALLEY":" ","HOUSE_NO":"３號","E_COORD97":169436.04000000001,"N_COORD97":2549516.4199999999,"ADDRESS":"安生街１４７巷３號","OBJECTID":385019},"geometry":{"x":169436.04000000097,"y":2549516.4199999999}},{"attributes":{"ID":385044,"DIS_CODE":0,"TOWNNAME":"安南區","LI":"新順里","LIN":"9鄰","STREET":"安生街","SECT":" ","MAREA":" ","LANE":"１４７巷","ALLEY":" ","HOUSE_NO":"７號","E_COORD97":169436.56,"N_COORD97":2549507.7200000002,"ADDRESS":"安生街１４７巷７號","OBJECTID":385020},"geometry":{"x":169436.56000000052,"y":2549507.7200000007}},{"attributes":{"ID":385045,"DIS_CODE":0,"TOWNNAME":"安南區","LI":"淵西里","LIN":"9鄰","STREET":"安中路","SECT":"四段","MAREA":" ","LANE":"３０６巷","ALLEY":" ","HOUSE_NO":"２８號","E_COORD97":164565.95999999999,"N_COORD97":2550273.1499999999,"ADDRESS":"安中路四段３０６巷２８號","OBJECTID":385021},"geometry":{"x":164565.96000000089,"y":2550273.1500000022}},{"attributes":{"ID":385046,"DIS_CODE":0,"TOWNNAME":"安南區","LI":"淵西里","LIN":"9鄰","STREET":"安中路","SECT":"四段","MAREA":" ","LANE":"３０６巷","ALLEY":" ","HOUSE_NO":"３０號","E_COORD97":164570.51000000001,"N_COORD97":2550274.29,"ADDRESS":"安中路四段３０６巷３０號","OBJECTID":385022},"geometry":{"x":164570.51000000071,"y":2550274.290000001}},{"attributes":{"ID":385047,"DIS_CODE":0,"TOWNNAME":"安南區","LI":"城南里","LIN":"9鄰","STREET":"城西街","SECT":"一段","MAREA":" ","LANE":"６１巷","ALLEY":" ","HOUSE_NO":"２３８號","E_COORD97":160450.5,"N_COORD97":2551089.8599999999,"ADDRESS":"城西街一段６１巷２３８號","OBJECTID":385023},"geometry":{"x":160450.5,"y":2551089.8599999975}},{"attributes":{"ID":385048,"DIS_CODE":0,"TOWNNAME":"安南區","LI":"南興里","LIN":"9鄰","STREET":"安興街","SECT":" ","MAREA":" ","LANE":"６４６巷","ALLEY":" ","HOUSE_NO":"２８號","E_COORD97":163586.91,"N_COORD97":2552504.3599999999,"ADDRESS":"安興街６４６巷２８號","OBJECTID":385024},"geometry":{"x":163586.91000000108,"y":2552504.3600000013}},{"attributes":{"ID":385049,"DIS_CODE":0,"TOWNNAME":"安南區","LI":"南興里","LIN":"9鄰","STREET":"安興街","SECT":" ","MAREA":" ","LANE":"６４６巷","ALLEY":" ","HOUSE_NO":"３０號","E_COORD97":163595.76999999999,"N_COORD97":2552502.71,"ADDRESS":"安興街６４６巷３０號","OBJECTID":385025},"geometry":{"x":163595.77000000048,"y":2552502.7100000009}},{"attributes":{"ID":385050,"DIS_CODE":0,"TOWNNAME":"安南區","LI":"頂安里","LIN":"9鄰","STREET":"頂安街","SECT":" ","MAREA":" ","LANE":"２６０巷","ALLEY":" ","HOUSE_NO":"１５號","E_COORD97":169141.14999999999,"N_COORD97":2549422.04,"ADDRESS":"頂安街２６０巷１５號","OBJECTID":385026},"geometry":{"x":169141.15000000037,"y":2549422.040000001}},{"attributes":{"ID":385051,"DIS_CODE":0,"TOWNNAME":"安南區","LI":"頂安里","LIN":"9鄰","STREET":"頂安街","SECT":" ","MAREA":" ","LANE":"２６０巷","ALLEY":" ","HOUSE_NO":"７號","E_COORD97":169131.35999999999,"N_COORD97":2549403.3300000001,"ADDRESS":"頂安街２６０巷７號","OBJECTID":385027},"geometry":{"x":169131.36000000034,"y":2549403.3300000019}},{"attributes":{"ID":385052,"DIS_CODE":0,"TOWNNAME":"安南區","LI":"頂安里","LIN":"9鄰","STREET":"頂安街","SECT":" ","MAREA":" ","LANE":"２６０巷","ALLEY":" ","HOUSE_NO":"１３號","E_COORD97":169139.42000000001,"N_COORD97":2549417.1400000001,"ADDRESS":"頂安街２６０巷１３號","OBJECTID":385028},"geometry":{"x":169139.42000000179,"y":2549417.1400000006}},{"attributes":{"ID":385053,"DIS_CODE":0,"TOWNNAME":"安南區","LI":"頂安里","LIN":"9鄰","STREET":"頂安街","SECT":" ","MAREA":" ","LANE":"２６０巷","ALLEY":" ","HOUSE_NO":"５號","E_COORD97":169131.64000000001,"N_COORD97":2549399.02,"ADDRESS":"頂安街２６０巷５號","OBJECTID":385029},"geometry":{"x":169131.63999999966,"y":2549399.0200000014}},{"attributes":{"ID":385054,"DIS_CODE":0,"TOWNNAME":"安南區","LI":"頂安里","LIN":"9鄰","STREET":"頂安街","SECT":" ","MAREA":" ","LANE":"３３０巷","ALLEY":" ","HOUSE_NO":"４７號","E_COORD97":169056.37,"N_COORD97":2549475.6899999999,"ADDRESS":"頂安街３３０巷４７號","OBJECTID":385030},"geometry":{"x":169056.37000000011,"y":2549475.6900000013}},{"attributes":{"ID":385055,"DIS_CODE":0,"TOWNNAME":"新化區","LI":"太平里","LIN":"9鄰","STREET":"中正路","SECT":" ","MAREA":" ","LANE":"６８６巷","ALLEY":" ","HOUSE_NO":"１５號","E_COORD97":178661.06,"N_COORD97":2549586.25,"ADDRESS":"中正路６８６巷１５號","OBJECTID":385031},"geometry":{"x":178661.05999999959,"y":2549586.2500000037}},{"attributes":{"ID":385056,"DIS_CODE":0,"TOWNNAME":"新化區","LI":"太平里","LIN":"9鄰","STREET":"中正路","SECT":" ","MAREA":" ","LANE":"６８６巷","ALLEY":" ","HOUSE_NO":"１０號","E_COORD97":178630.66,"N_COORD97":2549587.25,"ADDRESS":"中正路６８６巷１０號","OBJECTID":385032},"geometry":{"x":178630.66000000015,"y":2549587.2500000019}},{"attributes":{"ID":385057,"DIS_CODE":0,"TOWNNAME":"新化區","LI":"太平里","LIN":"9鄰","STREET":"中正路","SECT":" ","MAREA":" ","LANE":"６８６巷","ALLEY":" ","HOUSE_NO":"２９號","E_COORD97":178675.66,"N_COORD97":2549582.25,"ADDRESS":"中正路６８６巷２９號","OBJECTID":385033},"geometry":{"x":178675.66000000108,"y":2549582.25}},{"attributes":{"ID":385058,"DIS_CODE":0,"TOWNNAME":"新化區","LI":"太平里","LIN":"9鄰","STREET":"中正路","SECT":" ","MAREA":" ","LANE":"６８６巷","ALLEY":" ","HOUSE_NO":"１１號","E_COORD97":178643.66,"N_COORD97":2549581.25,"ADDRESS":"中正路６８６巷１１號","OBJECTID":385034},"geometry":{"x":178643.66000000108,"y":2549581.25}},{"attributes":{"ID":385059,"DIS_CODE":0,"TOWNNAME":"新化區","LI":"協興里","LIN":"9鄰","STREET":"太平街","SECT":" ","MAREA":" ","LANE":"１５０巷","ALLEY":" ","HOUSE_NO":"５８號","E_COORD97":178324.97,"N_COORD97":2548829.25,"ADDRESS":"太平街１５０巷５８號","OBJECTID":385035},"geometry":{"x":178324.9700000016,"y":2548829.25}},{"attributes":{"ID":385060,"DIS_CODE":0,"TOWNNAME":"新化區","LI":"太平里","LIN":"9鄰","STREET":"中正路","SECT":" ","MAREA":" ","LANE":"６８６巷","ALLEY":" ","HOUSE_NO":"１６號","E_COORD97":178635.66,"N_COORD97":2549577.25,"ADDRESS":"中正路６８６巷１６號","OBJECTID":385036},"geometry":{"x":178635.66000000015,"y":2549577.2500000019}},{"attributes":{"ID":385061,"DIS_CODE":0,"TOWNNAME":"新化區","LI":"太平里","LIN":"9鄰","STREET":"中正路","SECT":" ","MAREA":" ","LANE":"６８６巷","ALLEY":" ","HOUSE_NO":"２３號","E_COORD97":178663.35999999999,"N_COORD97":2549579.25,"ADDRESS":"中正路６８６巷２３號","OBJECTID":385037},"geometry":{"x":178663.36000000034,"y":2549579.2500000037}},{"attributes":{"ID":385062,"DIS_CODE":0,"TOWNNAME":"新化區","LI":"太平里","LIN":"9鄰","STREET":"中正路","SECT":" ","MAREA":" ","LANE":"６８６巷","ALLEY":" ","HOUSE_NO":"６號","E_COORD97":178627.31,"N_COORD97":2549594.25,"ADDRESS":"中正路６８６巷６號","OBJECTID":385038},"geometry":{"x":178627.30999999959,"y":2549594.2500000019}},{"attributes":{"ID":385063,"DIS_CODE":0,"TOWNNAME":"新化區","LI":"太平里","LIN":"9鄰","STREET":"中正路","SECT":" ","MAREA":" ","LANE":"６８６巷","ALLEY":" ","HOUSE_NO":"１７號","E_COORD97":178646.76000000001,"N_COORD97":2549572.25,"ADDRESS":"中正路６８６巷１７號","OBJECTID":385039},"geometry":{"x":178646.75999999885,"y":2549572.25}},{"attributes":{"ID":385064,"DIS_CODE":0,"TOWNNAME":"新化區","LI":"協興里","LIN":"9鄰","STREET":"太平街","SECT":" ","MAREA":" ","LANE":"１５０巷","ALLEY":" ","HOUSE_NO":"４０號","E_COORD97":178334.17000000001,"N_COORD97":2548789.25,"ADDRESS":"太平街１５０巷４０號","OBJECTID":385040},"geometry":{"x":178334.17000000179,"y":2548789.2499999981}},{"attributes":{"ID":385065,"DIS_CODE":0,"TOWNNAME":"新化區","LI":"協興里","LIN":"9鄰","STREET":"太平街","SECT":" ","MAREA":" ","LANE":"１５０巷","ALLEY":" ","HOUSE_NO":"３６號","E_COORD97":178336.26999999999,"N_COORD97":2548781.25,"ADDRESS":"太平街１５０巷３６號","OBJECTID":385041},"geometry":{"x":178336.26999999862,"y":2548781.25}},{"attributes":{"ID":385066,"DIS_CODE":0,"TOWNNAME":"新化區","LI":"協興里","LIN":"9鄰","STREET":"太平街","SECT":" ","MAREA":" ","LANE":"１５０巷","ALLEY":" ","HOUSE_NO":"６０號","E_COORD97":178323.87,"N_COORD97":2548833.25,"ADDRESS":"太平街１５０巷６０號","OBJECTID":385042},"geometry":{"x":178323.87000000011,"y":2548833.2499999981}},{"attributes":{"ID":385067,"DIS_CODE":0,"TOWNNAME":"新化區","LI":"太平里","LIN":"9鄰","STREET":"中正路","SECT":" ","MAREA":" ","LANE":"６８６巷","ALLEY":" ","HOUSE_NO":"１３號","E_COORD97":178658.06,"N_COORD97":2549585.25,"ADDRESS":"中正路６８６巷１３號","OBJECTID":385043},"geometry":{"x":178658.05999999959,"y":2549585.25}},{"attributes":{"ID":385068,"DIS_CODE":0,"TOWNNAME":"新化區","LI":"協興里","LIN":"9鄰","STREET":"太平街","SECT":" ","MAREA":" ","LANE":"１５０巷","ALLEY":" ","HOUSE_NO":"４８號","E_COORD97":178328.97,"N_COORD97":2548810.25,"ADDRESS":"太平街１５０巷４８號","OBJECTID":385044},"geometry":{"x":178328.97000000067,"y":2548810.2500000019}},{"attributes":{"ID":385069,"DIS_CODE":0,"TOWNNAME":"新化區","LI":"協興里","LIN":"9鄰","STREET":"太平街","SECT":" ","MAREA":" ","LANE":"１５０巷","ALLEY":" ","HOUSE_NO":"３０號","E_COORD97":178339.17000000001,"N_COORD97":2548768.25,"ADDRESS":"太平街１５０巷３０號","OBJECTID":385045},"geometry":{"x":178339.17000000179,"y":2548768.25}},{"attributes":{"ID":385070,"DIS_CODE":0,"TOWNNAME":"南區","LI":"再興里","LIN":"9鄰","STREET":"仁慈街","SECT":" ","MAREA":" ","LANE":"７６巷","ALLEY":" ","HOUSE_NO":"６號","E_COORD97":167250.38,"N_COORD97":2542177.6600000001,"ADDRESS":"仁慈街７６巷６號","OBJECTID":385046},"geometry":{"x":167250.37999999989,"y":2542177.6600000001}},{"attributes":{"ID":385071,"DIS_CODE":0,"TOWNNAME":"南區","LI":"再興里","LIN":"9鄰","STREET":"仁慈街","SECT":" ","MAREA":" ","LANE":"７６巷","ALLEY":" ","HOUSE_NO":"７號","E_COORD97":167235.45000000001,"N_COORD97":2542193.7200000002,"ADDRESS":"仁慈街７６巷７號","OBJECTID":385047},"geometry":{"x":167235.45000000019,"y":2542193.7200000025}},{"attributes":{"ID":385072,"DIS_CODE":0,"TOWNNAME":"南區","LI":"再興里","LIN":"9鄰","STREET":"仁慈街","SECT":" ","MAREA":" ","LANE":"７６巷","ALLEY":" ","HOUSE_NO":"８號","E_COORD97":167250.59,"N_COORD97":2542182.52,"ADDRESS":"仁慈街７６巷８號","OBJECTID":385048},"geometry":{"x":167250.58999999985,"y":2542182.5199999977}},{"attributes":{"ID":385073,"DIS_CODE":0,"TOWNNAME":"南區","LI":"再興里","LIN":"9鄰","STREET":"仁慈街","SECT":" ","MAREA":" ","LANE":"７６巷","ALLEY":" ","HOUSE_NO":"９號","E_COORD97":167236.5,"N_COORD97":2542197.3100000001,"ADDRESS":"仁慈街７６巷９號","OBJECTID":385049},"geometry":{"x":167236.5,"y":2542197.3100000005}},{"attributes":{"ID":385074,"DIS_CODE":0,"TOWNNAME":"南區","LI":"再興里","LIN":"9鄰","STREET":"仁慈街","SECT":" ","MAREA":" ","LANE":"７６巷","ALLEY":" ","HOUSE_NO":"１１號","E_COORD97":167238.62,"N_COORD97":2542200.5899999999,"ADDRESS":"仁慈街７６巷１１號","OBJECTID":385050},"geometry":{"x":167238.62000000104,"y":2542200.5900000017}},{"attributes":{"ID":385075,"DIS_CODE":0,"TOWNNAME":"南區","LI":"再興里","LIN":"9鄰","STREET":"仁慈街","SECT":" ","MAREA":" ","LANE":"７６巷","ALLEY":" ","HOUSE_NO":"１４號","E_COORD97":167259.67000000001,"N_COORD97":2542209.3599999999,"ADDRESS":"仁慈街７６巷１４號","OBJECTID":385051},"geometry":{"x":167259.67000000086,"y":2542209.3599999994}},{"attributes":{"ID":385076,"DIS_CODE":0,"TOWNNAME":"南區","LI":"再興里","LIN":"9鄰","STREET":"仁慈街","SECT":" ","MAREA":" ","LANE":"７６巷","ALLEY":" ","HOUSE_NO":"１６號","E_COORD97":167261.79000000001,"N_COORD97":2542213.6899999999,"ADDRESS":"仁慈街７６巷１６號","OBJECTID":385052},"geometry":{"x":167261.79000000004,"y":2542213.6899999995}},{"attributes":{"ID":385077,"DIS_CODE":0,"TOWNNAME":"南區","LI":"再興里","LIN":"9鄰","STREET":"仁慈街","SECT":" ","MAREA":" ","LANE":"７６巷","ALLEY":" ","HOUSE_NO":"１９號","E_COORD97":167245.29000000001,"N_COORD97":2542215.0600000001,"ADDRESS":"仁慈街７６巷１９號","OBJECTID":385053},"geometry":{"x":167245.29000000097,"y":2542215.0600000024}},{"attributes":{"ID":385078,"DIS_CODE":0,"TOWNNAME":"南區","LI":"再興里","LIN":"9鄰","STREET":"仁慈街","SECT":" ","MAREA":" ","LANE":"７６巷","ALLEY":" ","HOUSE_NO":"２０號","E_COORD97":167264.97,"N_COORD97":2542223.3100000001,"ADDRESS":"仁慈街７６巷２０號","OBJECTID":385054},"geometry":{"x":167264.96999999974,"y":2542223.3100000024}},{"attributes":{"ID":385079,"DIS_CODE":0,"TOWNNAME":"南區","LI":"再興里","LIN":"9鄰","STREET":"仁慈街","SECT":" ","MAREA":" ","LANE":"７６巷","ALLEY":" ","HOUSE_NO":"２２號","E_COORD97":167266.13,"N_COORD97":2542227.6400000001,"ADDRESS":"仁慈街７６巷２２號","OBJECTID":385055},"geometry":{"x":167266.12999999989,"y":2542227.6400000025}},{"attributes":{"ID":385080,"DIS_CODE":0,"TOWNNAME":"南區","LI":"再興里","LIN":"9鄰","STREET":"仁慈街","SECT":" ","MAREA":" ","LANE":"７６巷","ALLEY":" ","HOUSE_NO":"２３號","E_COORD97":167248.35000000001,"N_COORD97":2542223.9300000002,"ADDRESS":"仁慈街７６巷２３號","OBJECTID":385056},"geometry":{"x":167248.35000000056,"y":2542223.9299999978}},{"attributes":{"ID":385081,"DIS_CODE":0,"TOWNNAME":"南區","LI":"再興里","LIN":"9鄰","STREET":"仁慈街","SECT":" ","MAREA":" ","LANE":"７６巷","ALLEY":" ","HOUSE_NO":"２４號","E_COORD97":167267.29000000001,"N_COORD97":2542231.4500000002,"ADDRESS":"仁慈街７６巷２４號","OBJECTID":385057},"geometry":{"x":167267.2900000019,"y":2542231.4500000011}},{"attributes":{"ID":385082,"DIS_CODE":0,"TOWNNAME":"南區","LI":"再興里","LIN":"9鄰","STREET":"仁慈街","SECT":" ","MAREA":" ","LANE":"７６巷","ALLEY":" ","HOUSE_NO":"２５號","E_COORD97":167250.47,"N_COORD97":2542227.6299999999,"ADDRESS":"仁慈街７６巷２５號","OBJECTID":385058},"geometry":{"x":167250.4700000016,"y":2542227.629999999}},{"attributes":{"ID":385083,"DIS_CODE":0,"TOWNNAME":"南區","LI":"再興里","LIN":"9鄰","STREET":"仁慈街","SECT":" ","MAREA":" ","LANE":"７６巷","ALLEY":" ","HOUSE_NO":"２６號","E_COORD97":167269.09,"N_COORD97":2542235.3799999999,"ADDRESS":"仁慈街７６巷２６號","OBJECTID":385059},"geometry":{"x":167269.09000000078,"y":2542235.3800000008}},{"attributes":{"ID":385084,"DIS_CODE":0,"TOWNNAME":"南區","LI":"再興里","LIN":"9鄰","STREET":"仁慈街","SECT":" ","MAREA":" ","LANE":"７６巷","ALLEY":" ","HOUSE_NO":"３１號","E_COORD97":167255.34,"N_COORD97":2542238.3100000001,"ADDRESS":"仁慈街７６巷３１號","OBJECTID":385060},"geometry":{"x":167255.34000000078,"y":2542238.3100000005}},{"attributes":{"ID":385085,"DIS_CODE":0,"TOWNNAME":"南區","LI":"同安里","LIN":"9鄰","STREET":"灣裡路","SECT":" ","MAREA":" ","LANE":"３３３巷","ALLEY":" ","HOUSE_NO":"３號","E_COORD97":166184.45999999999,"N_COORD97":2536247.4100000001,"ADDRESS":"灣裡路３３３巷３號","OBJECTID":385061},"geometry":{"x":166184.46000000183,"y":2536247.4100000039}},{"attributes":{"ID":385086,"DIS_CODE":0,"TOWNNAME":"南區","LI":"同安里","LIN":"9鄰","STREET":"灣裡路","SECT":" ","MAREA":" ","LANE":"３３３巷","ALLEY":" ","HOUSE_NO":"１號","E_COORD97":166185.31,"N_COORD97":2536242.1299999999,"ADDRESS":"灣裡路３３３巷１號","OBJECTID":385062},"geometry":{"x":166185.31000000052,"y":2536242.1300000008}},{"attributes":{"ID":385087,"DIS_CODE":0,"TOWNNAME":"南區","LI":"同安里","LIN":"9鄰","STREET":"灣裡路","SECT":" ","MAREA":" ","LANE":"３３３巷","ALLEY":" ","HOUSE_NO":"１號之１","E_COORD97":166185.29000000001,"N_COORD97":2536244.6499999999,"ADDRESS":"灣裡路３３３巷１號之１","OBJECTID":385063},"geometry":{"x":166185.29000000004,"y":2536244.6500000004}},{"attributes":{"ID":385088,"DIS_CODE":0,"TOWNNAME":"南區","LI":"同安里","LIN":"9鄰","STREET":"灣裡路","SECT":" ","MAREA":" ","LANE":"３３３巷","ALLEY":" ","HOUSE_NO":"２號","E_COORD97":166181.29000000001,"N_COORD97":2536230.52,"ADDRESS":"灣裡路３３３巷２號","OBJECTID":385064},"geometry":{"x":166181.29000000097,"y":2536230.5200000014}},{"attributes":{"ID":385089,"DIS_CODE":0,"TOWNNAME":"南區","LI":"同安里","LIN":"9鄰","STREET":"灣裡路","SECT":" ","MAREA":" ","LANE":"３３３巷","ALLEY":" ","HOUSE_NO":"５號","E_COORD97":166176.22,"N_COORD97":2536249.73,"ADDRESS":"灣裡路３３３巷５號","OBJECTID":385065},"geometry":{"x":166176.22000000067,"y":2536249.7300000023}},{"attributes":{"ID":385090,"DIS_CODE":0,"TOWNNAME":"南區","LI":"同安里","LIN":"9鄰","STREET":"灣裡路","SECT":" ","MAREA":" ","LANE":"３３３巷","ALLEY":" ","HOUSE_NO":"６號","E_COORD97":166200.37,"N_COORD97":2536246.8500000001,"ADDRESS":"灣裡路３３３巷６號","OBJECTID":385066},"geometry":{"x":166200.37000000197,"y":2536246.8499999996}},{"attributes":{"ID":385091,"DIS_CODE":0,"TOWNNAME":"南區","LI":"同安里","LIN":"9鄰","STREET":"灣裡路","SECT":" ","MAREA":" ","LANE":"３３３巷","ALLEY":" ","HOUSE_NO":"８號","E_COORD97":166199.66,"N_COORD97":2536251.4399999999,"ADDRESS":"灣裡路３３３巷８號","OBJECTID":385067},"geometry":{"x":166199.66000000015,"y":2536251.4400000013}},{"attributes":{"ID":385092,"DIS_CODE":0,"TOWNNAME":"南區","LI":"同安里","LIN":"9鄰","STREET":"灣裡路","SECT":" ","MAREA":" ","LANE":"３３３巷","ALLEY":" ","HOUSE_NO":"１０號","E_COORD97":166198.39000000001,"N_COORD97":2536258.2000000002,"ADDRESS":"灣裡路３３３巷１０號","OBJECTID":385068},"geometry":{"x":166198.3900000006,"y":2536258.200000003}},{"attributes":{"ID":385093,"DIS_CODE":0,"TOWNNAME":"南區","LI":"同安里","LIN":"9鄰","STREET":"灣裡路","SECT":" ","MAREA":" ","LANE":"３３３巷","ALLEY":" ","HOUSE_NO":"１２號","E_COORD97":166213.39999999999,"N_COORD97":2536256.0899999999,"ADDRESS":"灣裡路３３３巷１２號","OBJECTID":385069},"geometry":{"x":166213.40000000037,"y":2536256.0900000036}},{"attributes":{"ID":385094,"DIS_CODE":0,"TOWNNAME":"南區","LI":"府南里","LIN":"9鄰","STREET":"金華路","SECT":"一段","MAREA":" ","LANE":"４８４巷","ALLEY":" ","HOUSE_NO":"１３３號","E_COORD97":167326.78,"N_COORD97":2541318.96,"ADDRESS":"金華路一段４８４巷１３３號","OBJECTID":385070},"geometry":{"x":167326.78000000212,"y":2541318.9600000009}},{"attributes":{"ID":385095,"DIS_CODE":0,"TOWNNAME":"南區","LI":"府南里","LIN":"9鄰","STREET":"金華路","SECT":"一段","MAREA":" ","LANE":"４８４巷","ALLEY":" ","HOUSE_NO":"１５９號","E_COORD97":167345.03,"N_COORD97":2541269.29,"ADDRESS":"金華路一段４８４巷１５９號","OBJECTID":385071},"geometry":{"x":167345.03000000026,"y":2541269.290000001}},{"attributes":{"ID":385096,"DIS_CODE":0,"TOWNNAME":"仁德區","LI":"土庫里","LIN":"9鄰","STREET":"土庫路","SECT":" ","MAREA":" ","LANE":"５３巷","ALLEY":" ","HOUSE_NO":"１０號","E_COORD97":174261.17999999999,"N_COORD97":2543328.25,"ADDRESS":"土庫路５３巷１０號","OBJECTID":385072},"geometry":{"x":174261.1799999997,"y":2543328.2500000019}},{"attributes":{"ID":385097,"DIS_CODE":0,"TOWNNAME":"仁德區","LI":"二行里","LIN":"9鄰","STREET":"中正西路","SECT":" ","MAREA":" ","LANE":"２１１巷","ALLEY":" ","HOUSE_NO":"４１號","E_COORD97":170071.23999999999,"N_COORD97":2535242,"ADDRESS":"中正西路２１１巷４１號","OBJECTID":385073},"geometry":{"x":170071.24000000022,"y":2535242}},{"attributes":{"ID":385098,"DIS_CODE":0,"TOWNNAME":"仁德區","LI":"田厝里","LIN":"9鄰","STREET":"田厝一街","SECT":" ","MAREA":" ","LANE":"８７巷","ALLEY":" ","HOUSE_NO":"２號","E_COORD97":172532.79999999999,"N_COORD97":2537755.2400000002,"ADDRESS":"田厝一街８７巷２號","OBJECTID":385074},"geometry":{"x":172532.80000000075,"y":2537755.2400000021}},{"attributes":{"ID":385099,"DIS_CODE":0,"TOWNNAME":"北區","LI":"大豐里","LIN":"22鄰","STREET":"大興街","SECT":" ","MAREA":" ","LANE":"３５５巷","ALLEY":" ","HOUSE_NO":"３號","E_COORD97":166531.23000000001,"N_COORD97":2545626.2599999998,"ADDRESS":"大興街３５５巷３號","OBJECTID":385075},"geometry":{"x":166531.23000000138,"y":2545626.2600000016}},{"attributes":{"ID":385100,"DIS_CODE":0,"TOWNNAME":"北區","LI":"大豐里","LIN":"22鄰","STREET":"大興街","SECT":" ","MAREA":" ","LANE":"３５５巷","ALLEY":" ","HOUSE_NO":"４號","E_COORD97":166541.82000000001,"N_COORD97":2545593.77,"ADDRESS":"大興街３５５巷４號","OBJECTID":385076},"geometry":{"x":166541.82000000216,"y":2545593.7699999996}},{"attributes":{"ID":385101,"DIS_CODE":0,"TOWNNAME":"北區","LI":"大豐里","LIN":"22鄰","STREET":"大興街","SECT":" ","MAREA":" ","LANE":"３５５巷","ALLEY":" ","HOUSE_NO":"５號","E_COORD97":166531.48999999999,"N_COORD97":2545621.8799999999,"ADDRESS":"大興街３５５巷５號","OBJECTID":385077},"geometry":{"x":166531.49000000022,"y":2545621.8800000008}},{"attributes":{"ID":385102,"DIS_CODE":0,"TOWNNAME":"北區","LI":"大豐里","LIN":"22鄰","STREET":"大興街","SECT":" ","MAREA":" ","LANE":"３５５巷","ALLEY":" ","HOUSE_NO":"６號","E_COORD97":166546.14000000001,"N_COORD97":2545594.6099999999,"ADDRESS":"大興街３５５巷６號","OBJECTID":385078},"geometry":{"x":166546.1400000006,"y":2545594.6099999994}},{"attributes":{"ID":385103,"DIS_CODE":0,"TOWNNAME":"北區","LI":"大豐里","LIN":"22鄰","STREET":"大興街","SECT":" ","MAREA":" ","LANE":"３５５巷","ALLEY":" ","HOUSE_NO":"７號","E_COORD97":166536.97,"N_COORD97":2545604.0899999999,"ADDRESS":"大興街３５５巷７號","OBJECTID":385079},"geometry":{"x":166536.97000000067,"y":2545604.0900000017}},{"attributes":{"ID":385104,"DIS_CODE":0,"TOWNNAME":"北區","LI":"大豐里","LIN":"22鄰","STREET":"大興街","SECT":" ","MAREA":" ","LANE":"３５５巷","ALLEY":" ","HOUSE_NO":"８號","E_COORD97":166550.14000000001,"N_COORD97":2545598.0899999999,"ADDRESS":"大興街３５５巷８號","OBJECTID":385080},"geometry":{"x":166550.13999999966,"y":2545598.0900000017}},{"attributes":{"ID":385105,"DIS_CODE":0,"TOWNNAME":"北區","LI":"大豐里","LIN":"22鄰","STREET":"大興街","SECT":" ","MAREA":" ","LANE":"３５５巷","ALLEY":" ","HOUSE_NO":"９號","E_COORD97":166540.91,"N_COORD97":2545605.8999999999,"ADDRESS":"大興街３５５巷９號","OBJECTID":385081},"geometry":{"x":166540.91000000201,"y":2545605.9000000022}},{"attributes":{"ID":385106,"DIS_CODE":0,"TOWNNAME":"北區","LI":"大豐里","LIN":"22鄰","STREET":"大興街","SECT":" ","MAREA":" ","LANE":"３５５巷","ALLEY":" ","HOUSE_NO":"１０號","E_COORD97":166555.04999999999,"N_COORD97":2545598.9300000002,"ADDRESS":"大興街３５５巷１０號","OBJECTID":385082},"geometry":{"x":166555.05000000075,"y":2545598.9300000016}},{"attributes":{"ID":385107,"DIS_CODE":0,"TOWNNAME":"北區","LI":"大豐里","LIN":"22鄰","STREET":"大興街","SECT":" ","MAREA":" ","LANE":"３５５巷","ALLEY":" ","HOUSE_NO":"１１號","E_COORD97":166546.07999999999,"N_COORD97":2545608.2200000002,"ADDRESS":"大興街３５５巷１１號","OBJECTID":385083},"geometry":{"x":166546.08000000007,"y":2545608.2200000025}},{"attributes":{"ID":385108,"DIS_CODE":0,"TOWNNAME":"北區","LI":"大豐里","LIN":"22鄰","STREET":"大興街","SECT":" ","MAREA":" ","LANE":"３５５巷","ALLEY":" ","HOUSE_NO":"１２號","E_COORD97":166559.89000000001,"N_COORD97":2545599.3799999999,"ADDRESS":"大興街３５５巷１２號","OBJECTID":385084},"geometry":{"x":166559.8900000006,"y":2545599.379999999}},{"attributes":{"ID":385109,"DIS_CODE":0,"TOWNNAME":"北區","LI":"大豐里","LIN":"22鄰","STREET":"大興街","SECT":" ","MAREA":" ","LANE":"３５５巷","ALLEY":" ","HOUSE_NO":"１３號","E_COORD97":166550.53,"N_COORD97":2545608.8599999999,"ADDRESS":"大興街３５５巷１３號","OBJECTID":385085},"geometry":{"x":166550.53000000212,"y":2545608.8600000013}},{"attributes":{"ID":385110,"DIS_CODE":0,"TOWNNAME":"北區","LI":"成德里","LIN":"22鄰","STREET":"育德一街","SECT":" ","MAREA":" ","LANE":"３２７巷","ALLEY":" ","HOUSE_NO":"３６號","E_COORD97":168433.67000000001,"N_COORD97":2546632.0899999999,"ADDRESS":"育德一街３２７巷３６號","OBJECTID":385086},"geometry":{"x":168433.66999999993,"y":2546632.0900000017}},{"attributes":{"ID":385111,"DIS_CODE":0,"TOWNNAME":"北區","LI":"成德里","LIN":"22鄰","STREET":"育德一街","SECT":" ","MAREA":" ","LANE":"３２７巷","ALLEY":" ","HOUSE_NO":"３２號","E_COORD97":168438.75,"N_COORD97":2546633.3599999999,"ADDRESS":"育德一街３２７巷３２號","OBJECTID":385087},"geometry":{"x":168438.75000000186,"y":2546633.3600000013}},{"attributes":{"ID":385112,"DIS_CODE":0,"TOWNNAME":"北區","LI":"成德里","LIN":"22鄰","STREET":"育德一街","SECT":" ","MAREA":" ","LANE":"３２７巷","ALLEY":" ","HOUSE_NO":"３０號","E_COORD97":168443.51000000001,"N_COORD97":2546634.6299999999,"ADDRESS":"育德一街３２７巷３０號","OBJECTID":385088},"geometry":{"x":168443.51000000164,"y":2546634.629999999}},{"attributes":{"ID":385113,"DIS_CODE":0,"TOWNNAME":"北區","LI":"成德里","LIN":"22鄰","STREET":"育德一街","SECT":" ","MAREA":" ","LANE":"３２７巷","ALLEY":" ","HOUSE_NO":"２８號","E_COORD97":168448.26999999999,"N_COORD97":2546636.2200000002,"ADDRESS":"育德一街３２７巷２８號","OBJECTID":385089},"geometry":{"x":168448.27000000142,"y":2546636.2200000007}},{"attributes":{"ID":385114,"DIS_CODE":0,"TOWNNAME":"北區","LI":"成德里","LIN":"22鄰","STREET":"育德一街","SECT":" ","MAREA":" ","LANE":"３２７巷","ALLEY":" ","HOUSE_NO":"２６號","E_COORD97":168453.35000000001,"N_COORD97":2546637.8100000001,"ADDRESS":"育德一街３２７巷２６號","OBJECTID":385090},"geometry":{"x":168453.35000000056,"y":2546637.8100000024}},{"attributes":{"ID":385115,"DIS_CODE":0,"TOWNNAME":"北區","LI":"成德里","LIN":"22鄰","STREET":"育德一街","SECT":" ","MAREA":" ","LANE":"３２７巷","ALLEY":" ","HOUSE_NO":"２２號","E_COORD97":168458.42999999999,"N_COORD97":2546639.3900000001,"ADDRESS":"育德一街３２７巷２２號","OBJECTID":385091},"geometry":{"x":168458.4299999997,"y":2546639.3899999987}},{"attributes":{"ID":385116,"DIS_CODE":0,"TOWNNAME":"北區","LI":"成德里","LIN":"22鄰","STREET":"育德一街","SECT":" ","MAREA":" ","LANE":"３２７巷","ALLEY":" ","HOUSE_NO":"２０號","E_COORD97":168464.14999999999,"N_COORD97":2546640.98,"ADDRESS":"育德一街３２７巷２０號","OBJECTID":385092},"geometry":{"x":168464.1500000013,"y":2546640.9800000004}},{"attributes":{"ID":385117,"DIS_CODE":0,"TOWNNAME":"北區","LI":"成德里","LIN":"22鄰","STREET":"育德一街","SECT":" ","MAREA":" ","LANE":"３２７巷","ALLEY":" ","HOUSE_NO":"１８號","E_COORD97":168469.54000000001,"N_COORD97":2546642.5699999998,"ADDRESS":"育德一街３２７巷１８號","OBJECTID":385093},"geometry":{"x":168469.54000000097,"y":2546642.5700000022}},{"attributes":{"ID":385118,"DIS_CODE":0,"TOWNNAME":"北區","LI":"成德里","LIN":"22鄰","STREET":"育德一街","SECT":" ","MAREA":" ","LANE":"３２７巷","ALLEY":" ","HOUSE_NO":"２５號","E_COORD97":168443.51000000001,"N_COORD97":2546615.98,"ADDRESS":"育德一街３２７巷２５號","OBJECTID":385094},"geometry":{"x":168443.51000000164,"y":2546615.9800000023}},{"attributes":{"ID":385119,"DIS_CODE":0,"TOWNNAME":"北區","LI":"成德里","LIN":"22鄰","STREET":"育德一街","SECT":" ","MAREA":" ","LANE":"３２７巷","ALLEY":" ","HOUSE_NO":"２３號","E_COORD97":168448.42999999999,"N_COORD97":2546617.73,"ADDRESS":"育德一街３２７巷２３號","OBJECTID":385095},"geometry":{"x":168448.4299999997,"y":2546617.7300000023}},{"attributes":{"ID":385120,"DIS_CODE":0,"TOWNNAME":"北區","LI":"成德里","LIN":"22鄰","STREET":"育德一街","SECT":" ","MAREA":" ","LANE":"３２７巷","ALLEY":" ","HOUSE_NO":"２１號","E_COORD97":168453.67000000001,"N_COORD97":2546619.3100000001,"ADDRESS":"育德一街３２７巷２１號","OBJECTID":385096},"geometry":{"x":168453.66999999993,"y":2546619.3100000005}},{"attributes":{"ID":385121,"DIS_CODE":0,"TOWNNAME":"北區","LI":"成德里","LIN":"22鄰","STREET":"育德一街","SECT":" ","MAREA":" ","LANE":"３２７巷","ALLEY":" ","HOUSE_NO":"１９號","E_COORD97":168458.91,"N_COORD97":2546620.5800000001,"ADDRESS":"育德一街３２７巷１９號","OBJECTID":385097},"geometry":{"x":168458.91000000108,"y":2546620.5799999982}},{"attributes":{"ID":385122,"DIS_CODE":0,"TOWNNAME":"北區","LI":"成德里","LIN":"22鄰","STREET":"育德一街","SECT":" ","MAREA":" ","LANE":"３２７巷","ALLEY":" ","HOUSE_NO":"１７號","E_COORD97":168464.62,"N_COORD97":2546622.1699999999,"ADDRESS":"育德一街３２７巷１７號","OBJECTID":385098},"geometry":{"x":168464.62000000011,"y":2546622.1699999999}},{"attributes":{"ID":385123,"DIS_CODE":0,"TOWNNAME":"北區","LI":"成德里","LIN":"22鄰","STREET":"育德一街","SECT":" ","MAREA":" ","LANE":"３２７巷","ALLEY":" ","HOUSE_NO":"１５號","E_COORD97":168469.70000000001,"N_COORD97":2546623.6000000001,"ADDRESS":"育德一街３２７巷１５號","OBJECTID":385099},"geometry":{"x":168469.69999999925,"y":2546623.6000000034}},{"attributes":{"ID":385124,"DIS_CODE":0,"TOWNNAME":"北區","LI":"成德里","LIN":"22鄰","STREET":"育德一街","SECT":" ","MAREA":" ","LANE":"３２７巷","ALLEY":" ","HOUSE_NO":"１３號","E_COORD97":168474.78,"N_COORD97":2546625.3500000001,"ADDRESS":"育德一街３２７巷１３號","OBJECTID":385100},"geometry":{"x":168474.78000000119,"y":2546625.3500000034}},{"attributes":{"ID":385125,"DIS_CODE":0,"TOWNNAME":"北區","LI":"成德里","LIN":"22鄰","STREET":"育德一街","SECT":" ","MAREA":" ","LANE":"３２７巷","ALLEY":" ","HOUSE_NO":"１１號","E_COORD97":168479.54000000001,"N_COORD97":2546626.9300000002,"ADDRESS":"育德一街３２７巷１１號","OBJECTID":385101},"geometry":{"x":168479.54000000097,"y":2546626.9299999997}},{"attributes":{"ID":385126,"DIS_CODE":0,"TOWNNAME":"北區","LI":"成德里","LIN":"22鄰","STREET":"育德一街","SECT":" ","MAREA":" ","LANE":"３２７巷","ALLEY":" ","HOUSE_NO":"９號","E_COORD97":168484.62,"N_COORD97":2546628.52,"ADDRESS":"育德一街３２７巷９號","OBJECTID":385102},"geometry":{"x":168484.62000000104,"y":2546628.5200000014}},{"attributes":{"ID":385127,"DIS_CODE":0,"TOWNNAME":"北區","LI":"成德里","LIN":"22鄰","STREET":"育德一街","SECT":" ","MAREA":" ","LANE":"３２７巷","ALLEY":" ","HOUSE_NO":"７號","E_COORD97":168489.70000000001,"N_COORD97":2546629.9500000002,"ADDRESS":"育德一街３２７巷７號","OBJECTID":385103},"geometry":{"x":168489.70000000019,"y":2546629.9499999993}},{"attributes":{"ID":385128,"DIS_CODE":0,"TOWNNAME":"仁德區","LI":"太子里","LIN":"9鄰","STREET":"長興二街","SECT":" ","MAREA":" ","LANE":"５巷","ALLEY":" ","HOUSE_NO":"９號","E_COORD97":174584.34,"N_COORD97":2543666.5,"ADDRESS":"長興二街５巷９號","OBJECTID":385104},"geometry":{"x":174584.33999999985,"y":2543666.5000000019}},{"attributes":{"ID":385129,"DIS_CODE":0,"TOWNNAME":"仁德區","LI":"大甲里","LIN":"9鄰","STREET":"行大街","SECT":" ","MAREA":" ","LANE":"３０７巷","ALLEY":" ","HOUSE_NO":"６２號","E_COORD97":169660.04000000001,"N_COORD97":2535104.7400000002,"ADDRESS":"行大街３０７巷６２號","OBJECTID":385105},"geometry":{"x":169660.04000000004,"y":2535104.7400000002}},{"attributes":{"ID":385130,"DIS_CODE":0,"TOWNNAME":"佳里區","LI":"建南里","LIN":"9鄰","STREET":"新生路","SECT":" ","MAREA":" ","LANE":"３０１巷","ALLEY":" ","HOUSE_NO":"１號","E_COORD97":165579.67999999999,"N_COORD97":2562208.6899999999,"ADDRESS":"新生路３０１巷１號","OBJECTID":385106},"geometry":{"x":165579.68000000063,"y":2562208.6900000013}},{"attributes":{"ID":385131,"DIS_CODE":0,"TOWNNAME":"佳里區","LI":"建南里","LIN":"9鄰","STREET":"新生路","SECT":" ","MAREA":" ","LANE":"３０１巷","ALLEY":" ","HOUSE_NO":"２號","E_COORD97":165579.95000000001,"N_COORD97":2562202.6299999999,"ADDRESS":"新生路３０１巷２號","OBJECTID":385107},"geometry":{"x":165579.95000000112,"y":2562202.6300000008}},{"attributes":{"ID":385132,"DIS_CODE":0,"TOWNNAME":"佳里區","LI":"建南里","LIN":"9鄰","STREET":"新生路","SECT":" ","MAREA":" ","LANE":"３０１巷","ALLEY":" ","HOUSE_NO":"３號","E_COORD97":165581.01000000001,"N_COORD97":2562196.4399999999,"ADDRESS":"新生路３０１巷３號","OBJECTID":385108},"geometry":{"x":165581.01000000071,"y":2562196.4400000032}},{"attributes":{"ID":385133,"DIS_CODE":0,"TOWNNAME":"佳里區","LI":"建南里","LIN":"9鄰","STREET":"新生路","SECT":" ","MAREA":" ","LANE":"３０１巷","ALLEY":" ","HOUSE_NO":"５號","E_COORD97":165581.98999999999,"N_COORD97":2562186.4500000002,"ADDRESS":"新生路３０１巷５號","OBJECTID":385109},"geometry":{"x":165581.99000000022,"y":2562186.4500000011}},{"attributes":{"ID":385134,"DIS_CODE":0,"TOWNNAME":"佳里區","LI":"建南里","LIN":"9鄰","STREET":"新生路","SECT":" ","MAREA":" ","LANE":"３０１巷","ALLEY":" ","HOUSE_NO":"６號","E_COORD97":165582.51000000001,"N_COORD97":2562182.2599999998,"ADDRESS":"新生路３０１巷６號","OBJECTID":385110},"geometry":{"x":165582.51000000071,"y":2562182.2600000016}},{"attributes":{"ID":385135,"DIS_CODE":0,"TOWNNAME":"佳里區","LI":"建南里","LIN":"9鄰","STREET":"新生路","SECT":" ","MAREA":" ","LANE":"３０１巷","ALLEY":" ","HOUSE_NO":"７號","E_COORD97":165582.79999999999,"N_COORD97":2562177.6400000001,"ADDRESS":"新生路３０１巷７號","OBJECTID":385111},"geometry":{"x":165582.79999999981,"y":2562177.6400000025}},{"attributes":{"ID":385136,"DIS_CODE":0,"TOWNNAME":"佳里區","LI":"建南里","LIN":"9鄰","STREET":"新生路","SECT":" ","MAREA":" ","LANE":"３１５巷","ALLEY":" ","HOUSE_NO":"１號","E_COORD97":165567.98000000001,"N_COORD97":2562212.5600000001,"ADDRESS":"新生路３１５巷１號","OBJECTID":385112},"geometry":{"x":165567.98000000138,"y":2562212.5600000005}},{"attributes":{"ID":385137,"DIS_CODE":0,"TOWNNAME":"佳里區","LI":"建南里","LIN":"9鄰","STREET":"新生路","SECT":" ","MAREA":" ","LANE":"３１５巷","ALLEY":" ","HOUSE_NO":"２號之１","E_COORD97":165555.10999999999,"N_COORD97":2562200.0899999999,"ADDRESS":"新生路３１５巷２號之１","OBJECTID":385113},"geometry":{"x":165555.11000000127,"y":2562200.0900000017}},{"attributes":{"ID":385138,"DIS_CODE":0,"TOWNNAME":"佳里區","LI":"建南里","LIN":"9鄰","STREET":"新生路","SECT":" ","MAREA":" ","LANE":"３１５巷","ALLEY":" ","HOUSE_NO":"２號","E_COORD97":165554.47,"N_COORD97":2562208.4100000001,"ADDRESS":"新生路３１５巷２號","OBJECTID":385114},"geometry":{"x":165554.46999999974,"y":2562208.410000002}},{"attributes":{"ID":385139,"DIS_CODE":0,"TOWNNAME":"佳里區","LI":"建南里","LIN":"9鄰","STREET":"新生路","SECT":" ","MAREA":" ","LANE":"３１５巷","ALLEY":" ","HOUSE_NO":"５號","E_COORD97":165568.85999999999,"N_COORD97":2562197.3199999998,"ADDRESS":"新生路３１５巷５號","OBJECTID":385115},"geometry":{"x":165568.86000000127,"y":2562197.3200000003}},{"attributes":{"ID":385140,"DIS_CODE":0,"TOWNNAME":"佳里區","LI":"建南里","LIN":"9鄰","STREET":"新生路","SECT":" ","MAREA":" ","LANE":"３１５巷","ALLEY":" ","HOUSE_NO":"６號","E_COORD97":165557.01999999999,"N_COORD97":2562192.25,"ADDRESS":"新生路３１５巷６號","OBJECTID":385116},"geometry":{"x":165557.02000000048,"y":2562192.2500000019}},{"attributes":{"ID":385141,"DIS_CODE":0,"TOWNNAME":"佳里區","LI":"建南里","LIN":"9鄰","STREET":"新生路","SECT":" ","MAREA":" ","LANE":"３１５巷","ALLEY":" ","HOUSE_NO":"７號","E_COORD97":165568.57000000001,"N_COORD97":2562184.3999999999,"ADDRESS":"新生路３１５巷７號","OBJECTID":385117},"geometry":{"x":165568.56999999937,"y":2562184.4000000041}},{"attributes":{"ID":385142,"DIS_CODE":0,"TOWNNAME":"佳里區","LI":"忠仁里","LIN":"9鄰","STREET":"興中街","SECT":" ","MAREA":" ","LANE":"３１巷","ALLEY":" ","HOUSE_NO":"１０號","E_COORD97":165955.67999999999,"N_COORD97":2562149.23,"ADDRESS":"興中街３１巷１０號","OBJECTID":385118},"geometry":{"x":165955.68000000063,"y":2562149.2300000023}},{"attributes":{"ID":385143,"DIS_CODE":0,"TOWNNAME":"佳里區","LI":"忠仁里","LIN":"9鄰","STREET":"興中街","SECT":" ","MAREA":" ","LANE":"３１巷","ALLEY":" ","HOUSE_NO":"１１號","E_COORD97":165960.01000000001,"N_COORD97":2562149.8799999999,"ADDRESS":"興中街３１巷１１號","OBJECTID":385119},"geometry":{"x":165960.00999999885,"y":2562149.8800000008}},{"attributes":{"ID":385144,"DIS_CODE":0,"TOWNNAME":"佳里區","LI":"忠仁里","LIN":"9鄰","STREET":"興中街","SECT":" ","MAREA":" ","LANE":"３１巷","ALLEY":" ","HOUSE_NO":"１２號","E_COORD97":165968.59,"N_COORD97":2562171.8300000001,"ADDRESS":"興中街３１巷１２號","OBJECTID":385120},"geometry":{"x":165968.59000000078,"y":2562171.8300000019}},{"attributes":{"ID":385145,"DIS_CODE":0,"TOWNNAME":"佳里區","LI":"忠仁里","LIN":"9鄰","STREET":"興中街","SECT":" ","MAREA":" ","LANE":"３１巷","ALLEY":" ","HOUSE_NO":"１３號","E_COORD97":165969.45999999999,"N_COORD97":2562167.0699999998,"ADDRESS":"興中街３１巷１３號","OBJECTID":385121},"geometry":{"x":165969.46000000089,"y":2562167.0700000022}},{"attributes":{"ID":385146,"DIS_CODE":0,"TOWNNAME":"佳里區","LI":"忠仁里","LIN":"9鄰","STREET":"興中街","SECT":" ","MAREA":" ","LANE":"３１巷","ALLEY":" ","HOUSE_NO":"１４號","E_COORD97":165970.01999999999,"N_COORD97":2562162.5899999999,"ADDRESS":"興中街３１巷１４號","OBJECTID":385122},"geometry":{"x":165970.02000000142,"y":2562162.5900000017}},{"attributes":{"ID":385147,"DIS_CODE":0,"TOWNNAME":"佳里區","LI":"忠仁里","LIN":"9鄰","STREET":"興中街","SECT":" ","MAREA":" ","LANE":"３１巷","ALLEY":" ","HOUSE_NO":"１５號","E_COORD97":165972.88,"N_COORD97":2562158.4500000002,"ADDRESS":"興中街３１巷１５號","OBJECTID":385123},"geometry":{"x":165972.87999999896,"y":2562158.4499999993}},{"attributes":{"ID":385148,"DIS_CODE":0,"TOWNNAME":"佳里區","LI":"忠仁里","LIN":"9鄰","STREET":"興中街","SECT":" ","MAREA":" ","LANE":"３１巷","ALLEY":" ","HOUSE_NO":"１６號","E_COORD97":165973.44,"N_COORD97":2562153.77,"ADDRESS":"興中街３１巷１６號","OBJECTID":385124},"geometry":{"x":165973.44000000134,"y":2562153.7700000033}},{"attributes":{"ID":385149,"DIS_CODE":0,"TOWNNAME":"佳里區","LI":"忠仁里","LIN":"9鄰","STREET":"興中街","SECT":" ","MAREA":" ","LANE":"３１巷","ALLEY":" ","HOUSE_NO":"１７號","E_COORD97":165974.31,"N_COORD97":2562148.8500000001,"ADDRESS":"興中街３１巷１７號","OBJECTID":385125},"geometry":{"x":165974.30999999959,"y":2562148.8499999996}},{"attributes":{"ID":385150,"DIS_CODE":0,"TOWNNAME":"佳里區","LI":"忠仁里","LIN":"9鄰","STREET":"興中街","SECT":" ","MAREA":" ","LANE":"３１巷","ALLEY":" ","HOUSE_NO":"１８號","E_COORD97":165975.10999999999,"N_COORD97":2562144.6400000001,"ADDRESS":"興中街３１巷１８號","OBJECTID":385126},"geometry":{"x":165975.11000000034,"y":2562144.6400000006}},{"attributes":{"ID":385151,"DIS_CODE":0,"TOWNNAME":"佳里區","LI":"忠仁里","LIN":"9鄰","STREET":"興中街","SECT":" ","MAREA":" ","LANE":"３１巷","ALLEY":" ","HOUSE_NO":"１號","E_COORD97":165957.60999999999,"N_COORD97":2562164.0800000001,"ADDRESS":"興中街３１巷１號","OBJECTID":385127},"geometry":{"x":165957.61000000034,"y":2562164.0800000001}},{"attributes":{"ID":385152,"DIS_CODE":0,"TOWNNAME":"佳里區","LI":"忠仁里","LIN":"9鄰","STREET":"興中街","SECT":" ","MAREA":" ","LANE":"３１巷","ALLEY":" ","HOUSE_NO":"２號","E_COORD97":165953.16,"N_COORD97":2562163.3999999999,"ADDRESS":"興中街３１巷２號","OBJECTID":385128},"geometry":{"x":165953.16000000108,"y":2562163.4000000004}},{"attributes":{"ID":385153,"DIS_CODE":0,"TOWNNAME":"佳里區","LI":"忠仁里","LIN":"9鄰","STREET":"興中街","SECT":" ","MAREA":" ","LANE":"３１巷","ALLEY":" ","HOUSE_NO":"３號","E_COORD97":165949.17999999999,"N_COORD97":2562163.1499999999,"ADDRESS":"興中街３１巷３號","OBJECTID":385129},"geometry":{"x":165949.18000000063,"y":2562163.1500000022}},{"attributes":{"ID":385154,"DIS_CODE":0,"TOWNNAME":"佳里區","LI":"忠仁里","LIN":"9鄰","STREET":"興中街","SECT":" ","MAREA":" ","LANE":"３１巷","ALLEY":" ","HOUSE_NO":"４號","E_COORD97":165944.14999999999,"N_COORD97":2562162.6099999999,"ADDRESS":"興中街３１巷４號","OBJECTID":385130},"geometry":{"x":165944.15000000037,"y":2562162.6100000013}},{"attributes":{"ID":385155,"DIS_CODE":0,"TOWNNAME":"佳里區","LI":"忠仁里","LIN":"9鄰","STREET":"興中街","SECT":" ","MAREA":" ","LANE":"３１巷","ALLEY":" ","HOUSE_NO":"５號","E_COORD97":165939.51000000001,"N_COORD97":2562162.04,"ADDRESS":"興中街３１巷５號","OBJECTID":385131},"geometry":{"x":165939.50999999978,"y":2562162.040000001}},{"attributes":{"ID":385156,"DIS_CODE":0,"TOWNNAME":"佳里區","LI":"忠仁里","LIN":"9鄰","STREET":"興中街","SECT":" ","MAREA":" ","LANE":"３１巷","ALLEY":" ","HOUSE_NO":"６號","E_COORD97":165934.76000000001,"N_COORD97":2562161.0899999999,"ADDRESS":"興中街３１巷６號","OBJECTID":385132},"geometry":{"x":165934.76000000164,"y":2562161.0899999999}},{"attributes":{"ID":385157,"DIS_CODE":0,"TOWNNAME":"佳里區","LI":"忠仁里","LIN":"9鄰","STREET":"興中街","SECT":" ","MAREA":" ","LANE":"３１巷","ALLEY":" ","HOUSE_NO":"７號","E_COORD97":165941.98999999999,"N_COORD97":2562147.46,"ADDRESS":"興中街３１巷７號","OBJECTID":385133},"geometry":{"x":165941.99000000209,"y":2562147.4600000028}},{"attributes":{"ID":385158,"DIS_CODE":0,"TOWNNAME":"佳里區","LI":"忠仁里","LIN":"9鄰","STREET":"興中街","SECT":" ","MAREA":" ","LANE":"３１巷","ALLEY":" ","HOUSE_NO":"８號","E_COORD97":165946.60000000001,"N_COORD97":2562148.1299999999,"ADDRESS":"興中街３１巷８號","OBJECTID":385134},"geometry":{"x":165946.60000000056,"y":2562148.1300000008}},{"attributes":{"ID":385159,"DIS_CODE":0,"TOWNNAME":"佳里區","LI":"忠仁里","LIN":"9鄰","STREET":"興中街","SECT":" ","MAREA":" ","LANE":"３１巷","ALLEY":" ","HOUSE_NO":"９號","E_COORD97":165951.16,"N_COORD97":2562148.77,"ADDRESS":"興中街３１巷９號","OBJECTID":385135},"geometry":{"x":165951.16000000108,"y":2562148.7699999996}},{"attributes":{"ID":385160,"DIS_CODE":0,"TOWNNAME":"永康區","LI":"西橋里","LIN":"9鄰","STREET":"中華西街","SECT":" ","MAREA":" ","LANE":"１２７巷","ALLEY":" ","HOUSE_NO":"２１號","E_COORD97":170599.79000000001,"N_COORD97":2546143.5,"ADDRESS":"中華西街１２７巷２１號","OBJECTID":385136},"geometry":{"x":170599.78999999911,"y":2546143.5000000037}},{"attributes":{"ID":385161,"DIS_CODE":0,"TOWNNAME":"永康區","LI":"新樹里","LIN":"9鄰","STREET":"富強路","SECT":"二段","MAREA":" ","LANE":"５６巷","ALLEY":" ","HOUSE_NO":"６１號","E_COORD97":175772.28,"N_COORD97":2547026.71,"ADDRESS":"富強路二段５６巷６１號","OBJECTID":385137},"geometry":{"x":175772.28000000212,"y":2547026.7100000009}},{"attributes":{"ID":385162,"DIS_CODE":0,"TOWNNAME":"永康區","LI":"蔦松里","LIN":"9鄰","STREET":"正北三路","SECT":" ","MAREA":" ","LANE":"１３０巷","ALLEY":" ","HOUSE_NO":"１８號","E_COORD97":174468.76999999999,"N_COORD97":2550073.0800000001,"ADDRESS":"正北三路１３０巷１８號","OBJECTID":385138},"geometry":{"x":174468.77000000048,"y":2550073.0800000019}},{"attributes":{"ID":385163,"DIS_CODE":0,"TOWNNAME":"永康區","LI":"埔園里","LIN":"9鄰","STREET":"自強路","SECT":" ","MAREA":" ","LANE":"４３０巷","ALLEY":" ","HOUSE_NO":"３號","E_COORD97":173688.91,"N_COORD97":2547862.5,"ADDRESS":"自強路４３０巷３號","OBJECTID":385139},"geometry":{"x":173688.91000000015,"y":2547862.5000000019}},{"attributes":{"ID":385164,"DIS_CODE":0,"TOWNNAME":"永康區","LI":"南灣里","LIN":"9鄰","STREET":"南興路","SECT":" ","MAREA":" ","LANE":"１０１巷","ALLEY":" ","HOUSE_NO":"１４號","E_COORD97":174131.35999999999,"N_COORD97":2544424.7200000002,"ADDRESS":"南興路１０１巷１４號","OBJECTID":385140},"geometry":{"x":174131.36000000127,"y":2544424.7200000025}},{"attributes":{"ID":385165,"DIS_CODE":0,"TOWNNAME":"永康區","LI":"蔦松里","LIN":"9鄰","STREET":"正北三路","SECT":" ","MAREA":" ","LANE":"９１巷","ALLEY":" ","HOUSE_NO":"１８號","E_COORD97":174379.62,"N_COORD97":2549883.7400000002,"ADDRESS":"正北三路９１巷１８號","OBJECTID":385141},"geometry":{"x":174379.61999999918,"y":2549883.7400000002}},{"attributes":{"ID":385166,"DIS_CODE":0,"TOWNNAME":"永康區","LI":"大橋里","LIN":"9鄰","STREET":"大橋一街","SECT":" ","MAREA":" ","LANE":"２４７巷","ALLEY":" ","HOUSE_NO":"１４２號","E_COORD97":171048.78,"N_COORD97":2547045.9900000002,"ADDRESS":"大橋一街２４７巷１４２號","OBJECTID":385142},"geometry":{"x":171048.78000000026,"y":2547045.9900000021}},{"attributes":{"ID":385167,"DIS_CODE":0,"TOWNNAME":"永康區","LI":"復國里","LIN":"9鄰","STREET":"復國二路","SECT":" ","MAREA":" ","LANE":"８８巷","ALLEY":" ","HOUSE_NO":"９號","E_COORD97":172872.84,"N_COORD97":2545207.2799999998,"ADDRESS":"復國二路８８巷９號","OBJECTID":385143},"geometry":{"x":172872.84000000078,"y":2545207.2799999993}},{"attributes":{"ID":385168,"DIS_CODE":0,"TOWNNAME":"安南區","LI":"理想里","LIN":"9鄰","STREET":"海佃路","SECT":"二段","MAREA":" ","LANE":"１５０巷","ALLEY":" ","HOUSE_NO":"５２號","E_COORD97":167070.17000000001,"N_COORD97":2548207.9300000002,"ADDRESS":"海佃路二段１５０巷５２號","OBJECTID":385144},"geometry":{"x":167070.17000000086,"y":2548207.9299999978}},{"attributes":{"ID":385169,"DIS_CODE":0,"TOWNNAME":"南區","LI":"明亮里","LIN":"9鄰","STREET":"新都路","SECT":" ","MAREA":" ","LANE":"４６２巷","ALLEY":" ","HOUSE_NO":"３號","E_COORD97":167232.57000000001,"N_COORD97":2540899.25,"ADDRESS":"新都路４６２巷３號","OBJECTID":385145},"geometry":{"x":167232.5700000003,"y":2540899.25}},{"attributes":{"ID":385170,"DIS_CODE":0,"TOWNNAME":"南區","LI":"明興里","LIN":"9鄰","STREET":"金華路","SECT":"一段","MAREA":" ","LANE":"１１６巷","ALLEY":" ","HOUSE_NO":"６號","E_COORD97":166949.28,"N_COORD97":2540536.1699999999,"ADDRESS":"金華路一段１１６巷６號","OBJECTID":385146},"geometry":{"x":166949.28000000119,"y":2540536.1699999999}},{"attributes":{"ID":385171,"DIS_CODE":0,"TOWNNAME":"南區","LI":"明興里","LIN":"9鄰","STREET":"金華路","SECT":"一段","MAREA":" ","LANE":"１１６巷","ALLEY":" ","HOUSE_NO":"８號","E_COORD97":166952.76999999999,"N_COORD97":2540536.4199999999,"ADDRESS":"金華路一段１１６巷８號","OBJECTID":385147},"geometry":{"x":166952.76999999955,"y":2540536.4200000018}},{"attributes":{"ID":385172,"DIS_CODE":0,"TOWNNAME":"南區","LI":"明興里","LIN":"9鄰","STREET":"金華路","SECT":"一段","MAREA":" ","LANE":"１１６巷","ALLEY":" ","HOUSE_NO":"１０號","E_COORD97":166956.17000000001,"N_COORD97":2540536.5099999998,"ADDRESS":"金華路一段１１６巷１０號","OBJECTID":385148},"geometry":{"x":166956.17000000086,"y":2540536.5100000016}},{"attributes":{"ID":385173,"DIS_CODE":0,"TOWNNAME":"南區","LI":"明興里","LIN":"9鄰","STREET":"金華路","SECT":"一段","MAREA":" ","LANE":"１１６巷","ALLEY":" ","HOUSE_NO":"１２號","E_COORD97":166961.17999999999,"N_COORD97":2540537.0099999998,"ADDRESS":"金華路一段１１６巷１２號","OBJECTID":385149},"geometry":{"x":166961.18000000063,"y":2540537.0099999998}},{"attributes":{"ID":385174,"DIS_CODE":0,"TOWNNAME":"南區","LI":"明興里","LIN":"9鄰","STREET":"金華路","SECT":"一段","MAREA":" ","LANE":"１１６巷","ALLEY":" ","HOUSE_NO":"１４號","E_COORD97":166966.10999999999,"N_COORD97":2540537.1000000001,"ADDRESS":"金華路一段１１６巷１４號","OBJECTID":385150},"geometry":{"x":166966.11000000034,"y":2540537.0999999996}},{"attributes":{"ID":385175,"DIS_CODE":0,"TOWNNAME":"南區","LI":"明興里","LIN":"9鄰","STREET":"金華路","SECT":"一段","MAREA":" ","LANE":"１１６巷","ALLEY":" ","HOUSE_NO":"１５號","E_COORD97":166963.47,"N_COORD97":2540546.8500000001,"ADDRESS":"金華路一段１１６巷１５號","OBJECTID":385151},"geometry":{"x":166963.46999999974,"y":2540546.8500000015}},{"attributes":{"ID":385176,"DIS_CODE":0,"TOWNNAME":"南區","LI":"明興里","LIN":"9鄰","STREET":"金華路","SECT":"一段","MAREA":" ","LANE":"１１６巷","ALLEY":" ","HOUSE_NO":"１６號","E_COORD97":166970.78,"N_COORD97":2540537.7799999998,"ADDRESS":"金華路一段１１６巷１６號","OBJECTID":385152},"geometry":{"x":166970.78000000212,"y":2540537.7800000012}},{"attributes":{"ID":385177,"DIS_CODE":0,"TOWNNAME":"南區","LI":"明興里","LIN":"9鄰","STREET":"金華路","SECT":"一段","MAREA":" ","LANE":"１１６巷","ALLEY":" ","HOUSE_NO":"１７號","E_COORD97":166967.29999999999,"N_COORD97":2540546.77,"ADDRESS":"金華路一段１１６巷１７號","OBJECTID":385153},"geometry":{"x":166967.30000000075,"y":2540546.7700000033}},{"attributes":{"ID":385178,"DIS_CODE":0,"TOWNNAME":"南區","LI":"明興里","LIN":"9鄰","STREET":"金華路","SECT":"一段","MAREA":" ","LANE":"１１６巷","ALLEY":" ","HOUSE_NO":"１８號","E_COORD97":166975.28,"N_COORD97":2540537.9500000002,"ADDRESS":"金華路一段１１６巷１８號","OBJECTID":385154},"geometry":{"x":166975.28000000026,"y":2540537.9499999993}},{"attributes":{"ID":385179,"DIS_CODE":0,"TOWNNAME":"南區","LI":"明興里","LIN":"9鄰","STREET":"金華路","SECT":"一段","MAREA":" ","LANE":"１１６巷","ALLEY":" ","HOUSE_NO":"１９號","E_COORD97":166971.89000000001,"N_COORD97":2540546.8500000001,"ADDRESS":"金華路一段１１６巷１９號","OBJECTID":385155},"geometry":{"x":166971.8900000006,"y":2540546.8500000015}},{"attributes":{"ID":385180,"DIS_CODE":0,"TOWNNAME":"南區","LI":"明興里","LIN":"9鄰","STREET":"金華路","SECT":"一段","MAREA":" ","LANE":"１１６巷","ALLEY":" ","HOUSE_NO":"２０號","E_COORD97":166979.62,"N_COORD97":2540538.54,"ADDRESS":"金華路一段１１６巷２０號","OBJECTID":385156},"geometry":{"x":166979.62000000011,"y":2540538.540000001}},{"attributes":{"ID":385181,"DIS_CODE":0,"TOWNNAME":"南區","LI":"明興里","LIN":"9鄰","STREET":"金華路","SECT":"一段","MAREA":" ","LANE":"１１６巷","ALLEY":" ","HOUSE_NO":"２１號","E_COORD97":166976.39000000001,"N_COORD97":2540546.9300000002,"ADDRESS":"金華路一段１１６巷２１號","OBJECTID":385157},"geometry":{"x":166976.3900000006,"y":2540546.9300000016}},{"attributes":{"ID":385182,"DIS_CODE":0,"TOWNNAME":"南區","LI":"明興里","LIN":"9鄰","STREET":"金華路","SECT":"一段","MAREA":" ","LANE":"１１６巷","ALLEY":" ","HOUSE_NO":"２２號","E_COORD97":166984.45999999999,"N_COORD97":2540538.8799999999,"ADDRESS":"金華路一段１１６巷２２號","OBJECTID":385158},"geometry":{"x":166984.46000000183,"y":2540538.8800000027}},{"attributes":{"ID":385183,"DIS_CODE":0,"TOWNNAME":"南區","LI":"明興里","LIN":"9鄰","STREET":"金華路","SECT":"一段","MAREA":" ","LANE":"１１６巷","ALLEY":" ","HOUSE_NO":"２３號","E_COORD97":166980.64000000001,"N_COORD97":2540547.27,"ADDRESS":"金華路一段１１６巷２３號","OBJECTID":385159},"geometry":{"x":166980.63999999966,"y":2540547.2700000014}},{"attributes":{"ID":385184,"DIS_CODE":0,"TOWNNAME":"南區","LI":"明興里","LIN":"9鄰","STREET":"金華路","SECT":"一段","MAREA":" ","LANE":"１１６巷","ALLEY":" ","HOUSE_NO":"２４號","E_COORD97":166989.47,"N_COORD97":2540538.9700000002,"ADDRESS":"金華路一段１１６巷２４號","OBJECTID":385160},"geometry":{"x":166989.47000000067,"y":2540538.9700000007}},{"attributes":{"ID":385185,"DIS_CODE":0,"TOWNNAME":"南區","LI":"明興里","LIN":"9鄰","STREET":"金華路","SECT":"一段","MAREA":" ","LANE":"１１６巷","ALLEY":" ","HOUSE_NO":"２５號","E_COORD97":166985.82000000001,"N_COORD97":2540547.27,"ADDRESS":"金華路一段１１６巷２５號","OBJECTID":385161},"geometry":{"x":166985.82000000216,"y":2540547.2700000014}},{"attributes":{"ID":385186,"DIS_CODE":0,"TOWNNAME":"南區","LI":"明興里","LIN":"9鄰","STREET":"金華路","SECT":"一段","MAREA":" ","LANE":"１１６巷","ALLEY":" ","HOUSE_NO":"２６號","E_COORD97":166993.81,"N_COORD97":2540539.6499999999,"ADDRESS":"金華路一段１１６巷２６號","OBJECTID":385162},"geometry":{"x":166993.81000000052,"y":2540539.6500000022}},{"attributes":{"ID":385187,"DIS_CODE":0,"TOWNNAME":"南區","LI":"明興里","LIN":"9鄰","STREET":"金華路","SECT":"一段","MAREA":" ","LANE":"１１６巷","ALLEY":" ","HOUSE_NO":"２８號","E_COORD97":166998.57000000001,"N_COORD97":2540540.4100000001,"ADDRESS":"金華路一段１１６巷２８號","OBJECTID":385163},"geometry":{"x":166998.5700000003,"y":2540540.410000002}},{"attributes":{"ID":385188,"DIS_CODE":0,"TOWNNAME":"南區","LI":"明興里","LIN":"9鄰","STREET":"金華路","SECT":"一段","MAREA":" ","LANE":"１１６巷","ALLEY":" ","HOUSE_NO":"３０號","E_COORD97":167003.23999999999,"N_COORD97":2540540.3199999998,"ADDRESS":"金華路一段１１６巷３０號","OBJECTID":385164},"geometry":{"x":167003.24000000209,"y":2540540.3199999984}},{"attributes":{"ID":385189,"DIS_CODE":0,"TOWNNAME":"南區","LI":"明興里","LIN":"9鄰","STREET":"金華路","SECT":"一段","MAREA":" ","LANE":"１１６巷","ALLEY":" ","HOUSE_NO":"３２號","E_COORD97":167008.17000000001,"N_COORD97":2540540.3199999998,"ADDRESS":"金華路一段１１６巷３２號","OBJECTID":385165},"geometry":{"x":167008.16999999993,"y":2540540.3199999984}},{"attributes":{"ID":385190,"DIS_CODE":0,"TOWNNAME":"南區","LI":"明興里","LIN":"9鄰","STREET":"金華路","SECT":"一段","MAREA":" ","LANE":"１１６巷","ALLEY":" ","HOUSE_NO":"３４號","E_COORD97":167013.26000000001,"N_COORD97":2540540.75,"ADDRESS":"金華路一段１１６巷３４號","OBJECTID":385166},"geometry":{"x":167013.26000000071,"y":2540540.7500000037}},{"attributes":{"ID":385191,"DIS_CODE":0,"TOWNNAME":"南區","LI":"明興里","LIN":"9鄰","STREET":"金華路","SECT":"一段","MAREA":" ","LANE":"１１６巷","ALLEY":" ","HOUSE_NO":"３６號","E_COORD97":167017.42999999999,"N_COORD97":2540540.9199999999,"ADDRESS":"金華路一段１１６巷３６號","OBJECTID":385167},"geometry":{"x":167017.43000000063,"y":2540540.9200000018}},{"attributes":{"ID":385192,"DIS_CODE":0,"TOWNNAME":"南區","LI":"明興里","LIN":"9鄰","STREET":"金華路","SECT":"一段","MAREA":" ","LANE":"１１６巷","ALLEY":" ","HOUSE_NO":"３８號","E_COORD97":167021.42000000001,"N_COORD97":2540541.2599999998,"ADDRESS":"金華路一段１１６巷３８號","OBJECTID":385168},"geometry":{"x":167021.41999999993,"y":2540541.2600000016}},{"attributes":{"ID":385193,"DIS_CODE":0,"TOWNNAME":"南區","LI":"明興里","LIN":"9鄰","STREET":"金華路","SECT":"一段","MAREA":" ","LANE":"１１６巷","ALLEY":" ","HOUSE_NO":"３９號","E_COORD97":167019.39000000001,"N_COORD97":2540550.9199999999,"ADDRESS":"金華路一段１１６巷３９號","OBJECTID":385169},"geometry":{"x":167019.3900000006,"y":2540550.9200000018}},{"attributes":{"ID":385194,"DIS_CODE":0,"TOWNNAME":"南區","LI":"明興里","LIN":"9鄰","STREET":"金華路","SECT":"一段","MAREA":" ","LANE":"１１６巷","ALLEY":" ","HOUSE_NO":"４０號","E_COORD97":167026.69,"N_COORD97":2540541.4300000002,"ADDRESS":"金華路一段１１６巷４０號","OBJECTID":385170},"geometry":{"x":167026.69000000041,"y":2540541.4299999997}},{"attributes":{"ID":385195,"DIS_CODE":0,"TOWNNAME":"南區","LI":"明興里","LIN":"9鄰","STREET":"金華路","SECT":"一段","MAREA":" ","LANE":"１１６巷","ALLEY":" ","HOUSE_NO":"４２號","E_COORD97":167031.28,"N_COORD97":2540542.1899999999,"ADDRESS":"金華路一段１１６巷４２號","OBJECTID":385171},"geometry":{"x":167031.28000000026,"y":2540542.1899999995}},{"attributes":{"ID":385196,"DIS_CODE":0,"TOWNNAME":"南區","LI":"明興里","LIN":"9鄰","STREET":"金華路","SECT":"一段","MAREA":" ","LANE":"１１６巷","ALLEY":" ","HOUSE_NO":"４２號之１","E_COORD97":167036.20999999999,"N_COORD97":2540542.1899999999,"ADDRESS":"金華路一段１１６巷４２號之１","OBJECTID":385172},"geometry":{"x":167036.21000000089,"y":2540542.1899999995}},{"attributes":{"ID":385197,"DIS_CODE":0,"TOWNNAME":"南區","LI":"明興里","LIN":"9鄰","STREET":"金華路","SECT":"一段","MAREA":" ","LANE":"１１６巷","ALLEY":" ","HOUSE_NO":"４３號","E_COORD97":167029.41,"N_COORD97":2540552.96,"ADDRESS":"金華路一段１１６巷４３號","OBJECTID":385173},"geometry":{"x":167029.41000000108,"y":2540552.9600000009}},{"attributes":{"ID":385198,"DIS_CODE":0,"TOWNNAME":"南區","LI":"明興里","LIN":"9鄰","STREET":"金華路","SECT":"一段","MAREA":" ","LANE":"１１６巷","ALLEY":" ","HOUSE_NO":"４６號","E_COORD97":167041.64000000001,"N_COORD97":2540543.29,"ADDRESS":"金華路一段１１６巷４６號","OBJECTID":385174},"geometry":{"x":167041.63999999966,"y":2540543.290000001}},{"attributes":{"ID":385199,"DIS_CODE":0,"TOWNNAME":"南區","LI":"明興里","LIN":"9鄰","STREET":"金華路","SECT":"一段","MAREA":" ","LANE":"１１６巷","ALLEY":" ","HOUSE_NO":"４８號","E_COORD97":167045.47,"N_COORD97":2540543.7200000002,"ADDRESS":"金華路一段１１６巷４８號","OBJECTID":385175},"geometry":{"x":167045.47000000067,"y":2540543.7200000007}},{"attributes":{"ID":385200,"DIS_CODE":0,"TOWNNAME":"新化區","LI":"東榮里","LIN":"9鄰","STREET":"信義路","SECT":" ","MAREA":" ","LANE":"１３１巷","ALLEY":" ","HOUSE_NO":"５０號","E_COORD97":179659.17999999999,"N_COORD97":2548320.2400000002,"ADDRESS":"信義路１３１巷５０號","OBJECTID":385176},"geometry":{"x":179659.1799999997,"y":2548320.2400000002}},{"attributes":{"ID":385201,"DIS_CODE":0,"TOWNNAME":"新化區","LI":"東榮里","LIN":"9鄰","STREET":"信義路","SECT":" ","MAREA":" ","LANE":"１３１巷","ALLEY":" ","HOUSE_NO":"７０號","E_COORD97":179621.07999999999,"N_COORD97":2548313.25,"ADDRESS":"信義路１３１巷７０號","OBJECTID":385177},"geometry":{"x":179621.08000000007,"y":2548313.25}},{"attributes":{"ID":385202,"DIS_CODE":0,"TOWNNAME":"新化區","LI":"武安里","LIN":"9鄰","STREET":"大同街","SECT":" ","MAREA":" ","LANE":"９１巷","ALLEY":" ","HOUSE_NO":"６號","E_COORD97":178955.78,"N_COORD97":2548257.25,"ADDRESS":"大同街９１巷６號","OBJECTID":385178},"geometry":{"x":178955.78000000212,"y":2548257.2500000037}},{"attributes":{"ID":385203,"DIS_CODE":0,"TOWNNAME":"新化區","LI":"東榮里","LIN":"9鄰","STREET":"信義路","SECT":" ","MAREA":" ","LANE":"１３１巷","ALLEY":" ","HOUSE_NO":"６６號","E_COORD97":179628.48000000001,"N_COORD97":2548326.25,"ADDRESS":"信義路１３１巷６６號","OBJECTID":385179},"geometry":{"x":179628.48000000045,"y":2548326.2500000019}},{"attributes":{"ID":385204,"DIS_CODE":0,"TOWNNAME":"新化區","LI":"武安里","LIN":"9鄰","STREET":"大同街","SECT":" ","MAREA":" ","LANE":"４９巷","ALLEY":" ","HOUSE_NO":"２號之４","E_COORD97":178964.01000000001,"N_COORD97":2548185.2599999998,"ADDRESS":"大同街４９巷２號之４","OBJECTID":385180},"geometry":{"x":178964.01000000164,"y":2548185.2599999998}},{"attributes":{"ID":385205,"DIS_CODE":0,"TOWNNAME":"新化區","LI":"東榮里","LIN":"9鄰","STREET":"信義路","SECT":" ","MAREA":" ","LANE":"１３１巷","ALLEY":" ","HOUSE_NO":"１１２號","E_COORD97":179669.03,"N_COORD97":2548248.25,"ADDRESS":"信義路１３１巷１１２號","OBJECTID":385181},"geometry":{"x":179669.03000000026,"y":2548248.2500000019}},{"attributes":{"ID":385206,"DIS_CODE":0,"TOWNNAME":"新化區","LI":"東榮里","LIN":"9鄰","STREET":"信義路","SECT":" ","MAREA":" ","LANE":"１３１巷","ALLEY":" ","HOUSE_NO":"７６號","E_COORD97":179622.67999999999,"N_COORD97":2548301.25,"ADDRESS":"信義路１３１巷７６號","OBJECTID":385182},"geometry":{"x":179622.68000000063,"y":2548301.2500000037}},{"attributes":{"ID":385207,"DIS_CODE":0,"TOWNNAME":"新化區","LI":"東榮里","LIN":"9鄰","STREET":"信義路","SECT":" ","MAREA":" ","LANE":"１３１巷","ALLEY":" ","HOUSE_NO":"１２２號","E_COORD97":179666.42999999999,"N_COORD97":2548226.25,"ADDRESS":"信義路１３１巷１２２號","OBJECTID":385183},"geometry":{"x":179666.43000000063,"y":2548226.25}},{"attributes":{"ID":385208,"DIS_CODE":0,"TOWNNAME":"新化區","LI":"東榮里","LIN":"9鄰","STREET":"信義路","SECT":" ","MAREA":" ","LANE":"１３１巷","ALLEY":" ","HOUSE_NO":"１１６號","E_COORD97":179667.92999999999,"N_COORD97":2548239.25,"ADDRESS":"信義路１３１巷１１６號","OBJECTID":385184},"geometry":{"x":179667.93000000156,"y":2548239.25}},{"attributes":{"ID":385209,"DIS_CODE":0,"TOWNNAME":"新化區","LI":"東榮里","LIN":"9鄰","STREET":"信義路","SECT":" ","MAREA":" ","LANE":"１３１巷","ALLEY":" ","HOUSE_NO":"６２號","E_COORD97":179632.28,"N_COORD97":2548302.25,"ADDRESS":"信義路１３１巷６２號","OBJECTID":385185},"geometry":{"x":179632.28000000212,"y":2548302.2500000019}},{"attributes":{"ID":385210,"DIS_CODE":0,"TOWNNAME":"白河區","LI":"外角里","LIN":"13鄰","STREET":"三民路","SECT":" ","MAREA":" ","LANE":" ","ALLEY":" ","HOUSE_NO":"２４０號","E_COORD97":190801.39999999999,"N_COORD97":2583312.9700000002,"ADDRESS":"三民路２４０號","OBJECTID":385186},"geometry":{"x":190801.4000000013,"y":2583312.9700000044}},{"attributes":{"ID":385211,"DIS_CODE":0,"TOWNNAME":"新化區","LI":"東榮里","LIN":"9鄰","STREET":"信義路","SECT":" ","MAREA":" ","LANE":"１３１巷","ALLEY":" ","HOUSE_NO":"６４號","E_COORD97":179629.38,"N_COORD97":2548321.25,"ADDRESS":"信義路１３１巷６４號","OBJECTID":385187},"geometry":{"x":179629.38000000175,"y":2548321.25}},{"attributes":{"ID":385212,"DIS_CODE":0,"TOWNNAME":"新化區","LI":"武安里","LIN":"9鄰","STREET":"大同街","SECT":" ","MAREA":" ","LANE":"４９巷","ALLEY":" ","HOUSE_NO":"２號","E_COORD97":178980.07999999999,"N_COORD97":2548187.25,"ADDRESS":"大同街４９巷２號","OBJECTID":385188},"geometry":{"x":178980.08000000007,"y":2548187.2500000019}},{"attributes":{"ID":385213,"DIS_CODE":0,"TOWNNAME":"新化區","LI":"東榮里","LIN":"9鄰","STREET":"信義路","SECT":" ","MAREA":" ","LANE":"１３１巷","ALLEY":" ","HOUSE_NO":"９２號","E_COORD97":179665.17999999999,"N_COORD97":2548277.25,"ADDRESS":"信義路１３１巷９２號","OBJECTID":385189},"geometry":{"x":179665.18000000063,"y":2548277.2499999981}},{"attributes":{"ID":385214,"DIS_CODE":0,"TOWNNAME":"新化區","LI":"東榮里","LIN":"9鄰","STREET":"信義路","SECT":" ","MAREA":" ","LANE":"１３１巷","ALLEY":" ","HOUSE_NO":"５２號","E_COORD97":179660.07999999999,"N_COORD97":2548315.25,"ADDRESS":"信義路１３１巷５２號","OBJECTID":385190},"geometry":{"x":179660.08000000007,"y":2548315.2500000019}},{"attributes":{"ID":385215,"DIS_CODE":0,"TOWNNAME":"東區","LI":"大德里","LIN":"9鄰","STREET":"立德十一路","SECT":" ","MAREA":" ","LANE":"８１巷","ALLEY":" ","HOUSE_NO":"６７號","E_COORD97":169520.04999999999,"N_COORD97":2542227.6699999999,"ADDRESS":"立德十一路８１巷６７號","OBJECTID":385191},"geometry":{"x":169520.05000000075,"y":2542227.6700000018}},{"attributes":{"ID":385216,"DIS_CODE":0,"TOWNNAME":"東區","LI":"大德里","LIN":"9鄰","STREET":"立德十一路","SECT":" ","MAREA":" ","LANE":"８１巷","ALLEY":" ","HOUSE_NO":"６９號","E_COORD97":169516.51999999999,"N_COORD97":2542227.4399999999,"ADDRESS":"立德十一路８１巷６９號","OBJECTID":385192},"geometry":{"x":169516.52000000048,"y":2542227.4400000032}},{"attributes":{"ID":385217,"DIS_CODE":0,"TOWNNAME":"東區","LI":"大德里","LIN":"9鄰","STREET":"立德十一路","SECT":" ","MAREA":" ","LANE":"８１巷","ALLEY":" ","HOUSE_NO":"７１號","E_COORD97":169513.51000000001,"N_COORD97":2542227.2200000002,"ADDRESS":"立德十一路８１巷７１號","OBJECTID":385193},"geometry":{"x":169513.51000000071,"y":2542227.2200000025}},{"attributes":{"ID":385218,"DIS_CODE":0,"TOWNNAME":"東區","LI":"仁和里","LIN":"9鄰","STREET":"仁和路","SECT":" ","MAREA":" ","LANE":"１１１巷","ALLEY":" ","HOUSE_NO":"１２２號","E_COORD97":171697.19,"N_COORD97":2541293.46,"ADDRESS":"仁和路１１１巷１２２號","OBJECTID":385194},"geometry":{"x":171697.19000000041,"y":2541293.4600000028}},{"attributes":{"ID":385219,"DIS_CODE":0,"TOWNNAME":"東區","LI":"仁和里","LIN":"9鄰","STREET":"仁和路","SECT":" ","MAREA":" ","LANE":"１１１巷","ALLEY":" ","HOUSE_NO":"１２４號","E_COORD97":171697.19,"N_COORD97":2541288.4100000001,"ADDRESS":"仁和路１１１巷１２４號","OBJECTID":385195},"geometry":{"x":171697.19000000041,"y":2541288.4100000001}},{"attributes":{"ID":385220,"DIS_CODE":0,"TOWNNAME":"東區","LI":"仁和里","LIN":"9鄰","STREET":"仁和路","SECT":" ","MAREA":" ","LANE":"１１１巷","ALLEY":" ","HOUSE_NO":"１３５號","E_COORD97":171723.32000000001,"N_COORD97":2541305.8799999999,"ADDRESS":"仁和路１１１巷１３５號","OBJECTID":385196},"geometry":{"x":171723.3200000003,"y":2541305.8800000008}},{"attributes":{"ID":385221,"DIS_CODE":0,"TOWNNAME":"東區","LI":"仁和里","LIN":"9鄰","STREET":"仁和路","SECT":" ","MAREA":" ","LANE":"１１１巷","ALLEY":" ","HOUSE_NO":"１３３號","E_COORD97":171719.95000000001,"N_COORD97":2541307.98,"ADDRESS":"仁和路１１１巷１３３號","OBJECTID":385197},"geometry":{"x":171719.95000000112,"y":2541307.9800000004}},{"attributes":{"ID":385222,"DIS_CODE":0,"TOWNNAME":"東區","LI":"仁和里","LIN":"9鄰","STREET":"仁和路","SECT":" ","MAREA":" ","LANE":"１１１巷","ALLEY":" ","HOUSE_NO":"１３１號","E_COORD97":171715.94,"N_COORD97":2541306.2999999998,"ADDRESS":"仁和路１１１巷１３１號","OBJECTID":385198},"geometry":{"x":171715.94000000041,"y":2541306.3000000007}},{"attributes":{"ID":385223,"DIS_CODE":0,"TOWNNAME":"東區","LI":"仁和里","LIN":"9鄰","STREET":"仁和路","SECT":" ","MAREA":" ","LANE":"１１１巷","ALLEY":" ","HOUSE_NO":"１２９號","E_COORD97":171710.89000000001,"N_COORD97":2541307.5600000001,"ADDRESS":"仁和路１１１巷１２９號","OBJECTID":385199},"geometry":{"x":171710.89000000153,"y":2541307.5600000005}},{"attributes":{"ID":385224,"DIS_CODE":0,"TOWNNAME":"東區","LI":"仁和里","LIN":"9鄰","STREET":"仁和路","SECT":" ","MAREA":" ","LANE":"１１１巷","ALLEY":" ","HOUSE_NO":"１２５號","E_COORD97":171702.67000000001,"N_COORD97":2541307.77,"ADDRESS":"仁和路１１１巷１２５號","OBJECTID":385200},"geometry":{"x":171702.67000000086,"y":2541307.7700000014}}]}